{"displayFieldName":"TOWNNAME","fieldAliases":{"ID":"ID","DIS_CODE":"DIS_CODE","TOWNNAME":"TOWNNAME","LI":"LI","LIN":"LIN","STREET":"STREET","SECT":"SECT","MAREA":"MAREA","LANE":"LANE","ALLEY":"ALLEY","HOUSE_NO":"HOUSE_NO","E_COORD97":"E_COORD97","N_COORD97":"N_COORD97","ADDRESS":"ADDRESS","OBJECTID":"OBJECTID"},"geometryType":"esriGeometryPoint","spatialReference":{"wkid":102443,"latestWkid":3826},"fields":[{"name":"ID","type":"esriFieldTypeDouble","alias":"ID"},{"name":"DIS_CODE","type":"esriFieldTypeInteger","alias":"DIS_CODE"},{"name":"TOWNNAME","type":"esriFieldTypeString","alias":"TOWNNAME","length":8},{"name":"LI","type":"esriFieldTypeString","alias":"LI","length":8},{"name":"LIN","type":"esriFieldTypeString","alias":"LIN","length":12},{"name":"STREET","type":"esriFieldTypeString","alias":"STREET","length":20},{"name":"SECT","type":"esriFieldTypeString","alias":"SECT","length":8},{"name":"MAREA","type":"esriFieldTypeString","alias":"MAREA","length":12},{"name":"LANE","type":"esriFieldTypeString","alias":"LANE","length":10},{"name":"ALLEY","type":"esriFieldTypeString","alias":"ALLEY","length":10},{"name":"HOUSE_NO","type":"esriFieldTypeString","alias":"HOUSE_NO","length":20},{"name":"E_COORD97","type":"esriFieldTypeDouble","alias":"E_COORD97"},{"name":"N_COORD97","type":"esriFieldTypeDouble","alias":"N_COORD97"},{"name":"ADDRESS","type":"esriFieldTypeString","alias":"ADDRESS","length":50},{"name":"OBJECTID","type":"esriFieldTypeOID","alias":"OBJECTID"}],"features":[{"attributes":{"ID":590428,"DIS_CODE":0,"TOWNNAME":"東區","LI":"東門里","LIN":"11鄰","STREET":"東榮街","SECT":" ","MAREA":" ","LANE":" ","ALLEY":" ","HOUSE_NO":"１４號","E_COORD97":169546.81,"N_COORD97":2543477.1699999999,"ADDRESS":"東榮街１４號","OBJECTID":590401},"geometry":{"x":169546.81000000052,"y":2543477.1700000037}},{"attributes":{"ID":590429,"DIS_CODE":0,"TOWNNAME":"東區","LI":"東門里","LIN":"11鄰","STREET":"東榮街","SECT":" ","MAREA":" ","LANE":" ","ALLEY":" ","HOUSE_NO":"２６號","E_COORD97":169544.04000000001,"N_COORD97":2543446.3900000001,"ADDRESS":"東榮街２６號","OBJECTID":590402},"geometry":{"x":169544.04000000097,"y":2543446.3900000025}},{"attributes":{"ID":590430,"DIS_CODE":0,"TOWNNAME":"東區","LI":"東門里","LIN":"11鄰","STREET":"東榮街","SECT":" ","MAREA":" ","LANE":" ","ALLEY":" ","HOUSE_NO":"２８號","E_COORD97":169543.89000000001,"N_COORD97":2543441.75,"ADDRESS":"東榮街２８號","OBJECTID":590403},"geometry":{"x":169543.88999999966,"y":2543441.75}},{"attributes":{"ID":590431,"DIS_CODE":0,"TOWNNAME":"東區","LI":"東門里","LIN":"11鄰","STREET":"東榮街","SECT":" ","MAREA":" ","LANE":" ","ALLEY":" ","HOUSE_NO":"２號","E_COORD97":169536.48999999999,"N_COORD97":2543508.7999999998,"ADDRESS":"東榮街２號","OBJECTID":590404},"geometry":{"x":169536.49000000115,"y":2543508.8000000026}},{"attributes":{"ID":590432,"DIS_CODE":0,"TOWNNAME":"東區","LI":"東門里","LIN":"11鄰","STREET":"東榮街","SECT":" ","MAREA":" ","LANE":" ","ALLEY":" ","HOUSE_NO":"２號之１","E_COORD97":169549.60999999999,"N_COORD97":2543508.7400000002,"ADDRESS":"東榮街２號之１","OBJECTID":590405},"geometry":{"x":169549.61000000034,"y":2543508.7400000021}},{"attributes":{"ID":590433,"DIS_CODE":0,"TOWNNAME":"東區","LI":"東門里","LIN":"11鄰","STREET":"東榮街","SECT":" ","MAREA":" ","LANE":" ","ALLEY":" ","HOUSE_NO":"３０號","E_COORD97":169542.82999999999,"N_COORD97":2543437.71,"ADDRESS":"東榮街３０號","OBJECTID":590406},"geometry":{"x":169542.83000000007,"y":2543437.7100000028}},{"attributes":{"ID":590434,"DIS_CODE":0,"TOWNNAME":"東區","LI":"東門里","LIN":"11鄰","STREET":"東榮街","SECT":" ","MAREA":" ","LANE":" ","ALLEY":" ","HOUSE_NO":"３２號","E_COORD97":169540.85999999999,"N_COORD97":2543433.9900000002,"ADDRESS":"東榮街３２號","OBJECTID":590407},"geometry":{"x":169540.86000000127,"y":2543433.9900000002}},{"attributes":{"ID":590435,"DIS_CODE":0,"TOWNNAME":"東區","LI":"東門里","LIN":"11鄰","STREET":"東榮街","SECT":" ","MAREA":" ","LANE":" ","ALLEY":" ","HOUSE_NO":"３４號","E_COORD97":169541.17000000001,"N_COORD97":2543428.6699999999,"ADDRESS":"東榮街３４號","OBJECTID":590408},"geometry":{"x":169541.17000000179,"y":2543428.6699999999}},{"attributes":{"ID":590436,"DIS_CODE":0,"TOWNNAME":"東區","LI":"東門里","LIN":"11鄰","STREET":"東榮街","SECT":" ","MAREA":" ","LANE":" ","ALLEY":" ","HOUSE_NO":"４０號","E_COORD97":169541.48000000001,"N_COORD97":2543410.98,"ADDRESS":"東榮街４０號","OBJECTID":590409},"geometry":{"x":169541.48000000138,"y":2543410.9799999986}},{"attributes":{"ID":590437,"DIS_CODE":0,"TOWNNAME":"東區","LI":"東門里","LIN":"11鄰","STREET":"東榮街","SECT":" ","MAREA":" ","LANE":" ","ALLEY":" ","HOUSE_NO":"４２號","E_COORD97":169540.54999999999,"N_COORD97":2543406.5099999998,"ADDRESS":"東榮街４２號","OBJECTID":590410},"geometry":{"x":169540.55000000075,"y":2543406.5099999998}},{"attributes":{"ID":590438,"DIS_CODE":0,"TOWNNAME":"永康區","LI":"中興里","LIN":"17鄰","STREET":"中華路","SECT":" ","MAREA":" ","LANE":" ","ALLEY":" ","HOUSE_NO":"２２２號","E_COORD97":171639.51999999999,"N_COORD97":2545070,"ADDRESS":"中華路２２２號","OBJECTID":590411},"geometry":{"x":171639.52000000048,"y":2545070.0000000019}},{"attributes":{"ID":590439,"DIS_CODE":0,"TOWNNAME":"東區","LI":"東門里","LIN":"11鄰","STREET":"東榮街","SECT":" ","MAREA":" ","LANE":" ","ALLEY":" ","HOUSE_NO":"４號","E_COORD97":169547.62,"N_COORD97":2543502.9300000002,"ADDRESS":"東榮街４號","OBJECTID":590412},"geometry":{"x":169547.62000000011,"y":2543502.9300000016}},{"attributes":{"ID":590440,"DIS_CODE":0,"TOWNNAME":"永康區","LI":"中興里","LIN":"17鄰","STREET":"中華路","SECT":" ","MAREA":" ","LANE":" ","ALLEY":" ","HOUSE_NO":"２８０號之４１","E_COORD97":171675.70000000001,"N_COORD97":2545272.79,"ADDRESS":"中華路２８０號之４１","OBJECTID":590413},"geometry":{"x":171675.70000000112,"y":2545272.790000001}},{"attributes":{"ID":590441,"DIS_CODE":0,"TOWNNAME":"永康區","LI":"中興里","LIN":"17鄰","STREET":"中華路","SECT":" ","MAREA":" ","LANE":" ","ALLEY":" ","HOUSE_NO":"２８０號之３８","E_COORD97":171660.97,"N_COORD97":2545277.98,"ADDRESS":"中華路２８０號之３８","OBJECTID":590414},"geometry":{"x":171660.96999999974,"y":2545277.9800000004}},{"attributes":{"ID":590442,"DIS_CODE":0,"TOWNNAME":"永康區","LI":"大灣里","LIN":"16鄰","STREET":"大灣路","SECT":" ","MAREA":" ","LANE":" ","ALLEY":" ","HOUSE_NO":"３０６號","E_COORD97":174890.79000000001,"N_COORD97":2545217.2400000002,"ADDRESS":"大灣路３０６號","OBJECTID":590415},"geometry":{"x":174890.79000000097,"y":2545217.2400000021}},{"attributes":{"ID":590443,"DIS_CODE":0,"TOWNNAME":"永康區","LI":"大灣里","LIN":"16鄰","STREET":"大灣路","SECT":" ","MAREA":" ","LANE":" ","ALLEY":" ","HOUSE_NO":"３４６號","E_COORD97":174848.51999999999,"N_COORD97":2545144.48,"ADDRESS":"大灣路３４６號","OBJECTID":590416},"geometry":{"x":174848.51999999955,"y":2545144.4800000023}},{"attributes":{"ID":590444,"DIS_CODE":0,"TOWNNAME":"東區","LI":"東門里","LIN":"11鄰","STREET":"青年路","SECT":" ","MAREA":" ","LANE":" ","ALLEY":" ","HOUSE_NO":"３６２號","E_COORD97":169537.59,"N_COORD97":2543526.75,"ADDRESS":"青年路３６２號","OBJECTID":590417},"geometry":{"x":169537.58999999985,"y":2543526.75}},{"attributes":{"ID":590445,"DIS_CODE":0,"TOWNNAME":"東區","LI":"東門里","LIN":"11鄰","STREET":"青年路","SECT":" ","MAREA":" ","LANE":" ","ALLEY":" ","HOUSE_NO":"３６４號","E_COORD97":169545.23000000001,"N_COORD97":2543526.3100000001,"ADDRESS":"青年路３６４號","OBJECTID":590418},"geometry":{"x":169545.23000000138,"y":2543526.3100000005}},{"attributes":{"ID":590446,"DIS_CODE":0,"TOWNNAME":"中西區","LI":"民權里","LIN":"11鄰","STREET":"民權路","SECT":"三段","MAREA":" ","LANE":" ","ALLEY":" ","HOUSE_NO":"１６２號","E_COORD97":167562.89000000001,"N_COORD97":2544220.79,"ADDRESS":"民權路三段１６２號","OBJECTID":590419},"geometry":{"x":167562.8900000006,"y":2544220.7899999991}},{"attributes":{"ID":590447,"DIS_CODE":0,"TOWNNAME":"中西區","LI":"民權里","LIN":"11鄰","STREET":"民權路","SECT":"三段","MAREA":" ","LANE":" ","ALLEY":" ","HOUSE_NO":"１６４號","E_COORD97":167558.29999999999,"N_COORD97":2544222.48,"ADDRESS":"民權路三段１６４號","OBJECTID":590420},"geometry":{"x":167558.29999999888,"y":2544222.4800000023}},{"attributes":{"ID":590448,"DIS_CODE":0,"TOWNNAME":"中西區","LI":"民權里","LIN":"11鄰","STREET":"民權路","SECT":"三段","MAREA":" ","LANE":" ","ALLEY":" ","HOUSE_NO":"１６６號","E_COORD97":167555.12,"N_COORD97":2544224.0299999998,"ADDRESS":"民權路三段１６６號","OBJECTID":590421},"geometry":{"x":167555.12000000104,"y":2544224.0300000012}},{"attributes":{"ID":590449,"DIS_CODE":0,"TOWNNAME":"中西區","LI":"民權里","LIN":"11鄰","STREET":"民權路","SECT":"三段","MAREA":" ","LANE":" ","ALLEY":" ","HOUSE_NO":"１６８號","E_COORD97":167551.67000000001,"N_COORD97":2544226.3599999999,"ADDRESS":"民權路三段１６８號","OBJECTID":590422},"geometry":{"x":167551.67000000086,"y":2544226.3599999994}},{"attributes":{"ID":590450,"DIS_CODE":0,"TOWNNAME":"中西區","LI":"民權里","LIN":"11鄰","STREET":"民權路","SECT":"三段","MAREA":" ","LANE":" ","ALLEY":" ","HOUSE_NO":"１７０號","E_COORD97":167547.07999999999,"N_COORD97":2544228.1899999999,"ADDRESS":"民權路三段１７０號","OBJECTID":590423},"geometry":{"x":167547.08000000101,"y":2544228.1899999995}},{"attributes":{"ID":590451,"DIS_CODE":0,"TOWNNAME":"中西區","LI":"民權里","LIN":"11鄰","STREET":"民權路","SECT":"三段","MAREA":" ","LANE":" ","ALLEY":" ","HOUSE_NO":"１７２號","E_COORD97":167543.76000000001,"N_COORD97":2544228.8300000001,"ADDRESS":"民權路三段１７２號","OBJECTID":590424},"geometry":{"x":167543.76000000071,"y":2544228.8300000038}},{"attributes":{"ID":590452,"DIS_CODE":0,"TOWNNAME":"中西區","LI":"民權里","LIN":"11鄰","STREET":"民權路","SECT":"三段","MAREA":" ","LANE":" ","ALLEY":" ","HOUSE_NO":"１７４號","E_COORD97":167539.60000000001,"N_COORD97":2544230.73,"ADDRESS":"民權路三段１７４號","OBJECTID":590425},"geometry":{"x":167539.60000000056,"y":2544230.7300000023}},{"attributes":{"ID":590453,"DIS_CODE":0,"TOWNNAME":"中西區","LI":"民權里","LIN":"11鄰","STREET":"民權路","SECT":"三段","MAREA":" ","LANE":" ","ALLEY":" ","HOUSE_NO":"１７６號","E_COORD97":167535.45999999999,"N_COORD97":2544232.5899999999,"ADDRESS":"民權路三段１７６號","OBJECTID":590426},"geometry":{"x":167535.46000000183,"y":2544232.5899999999}},{"attributes":{"ID":590454,"DIS_CODE":0,"TOWNNAME":"中西區","LI":"民權里","LIN":"11鄰","STREET":"民權路","SECT":"三段","MAREA":" ","LANE":" ","ALLEY":" ","HOUSE_NO":"１７８號","E_COORD97":167531.5,"N_COORD97":2544235.1400000001,"ADDRESS":"民權路三段１７８號","OBJECTID":590427},"geometry":{"x":167531.5,"y":2544235.1400000025}},{"attributes":{"ID":590455,"DIS_CODE":0,"TOWNNAME":"中西區","LI":"民權里","LIN":"11鄰","STREET":"民權路","SECT":"三段","MAREA":" ","LANE":" ","ALLEY":" ","HOUSE_NO":"１８０號","E_COORD97":167527.41,"N_COORD97":2544235.8399999999,"ADDRESS":"民權路三段１８０號","OBJECTID":590428},"geometry":{"x":167527.40999999922,"y":2544235.8400000017}},{"attributes":{"ID":590456,"DIS_CODE":0,"TOWNNAME":"永康區","LI":"五王里","LIN":"20鄰","STREET":"成功路","SECT":" ","MAREA":" ","LANE":" ","ALLEY":" ","HOUSE_NO":"１４１號","E_COORD97":171378.38,"N_COORD97":2545690.77,"ADDRESS":"成功路１４１號","OBJECTID":590429},"geometry":{"x":171378.37999999989,"y":2545690.7700000014}},{"attributes":{"ID":590457,"DIS_CODE":0,"TOWNNAME":"中西區","LI":"民權里","LIN":"11鄰","STREET":"民權路","SECT":"三段","MAREA":" ","LANE":" ","ALLEY":" ","HOUSE_NO":"１８２號","E_COORD97":167531.07999999999,"N_COORD97":2544252.5600000001,"ADDRESS":"民權路三段１８２號","OBJECTID":590430},"geometry":{"x":167531.08000000007,"y":2544252.5600000024}},{"attributes":{"ID":590458,"DIS_CODE":0,"TOWNNAME":"中西區","LI":"民權里","LIN":"11鄰","STREET":"民權路","SECT":"三段","MAREA":" ","LANE":" ","ALLEY":" ","HOUSE_NO":"１８２號之１","E_COORD97":167533.26000000001,"N_COORD97":2544251.4300000002,"ADDRESS":"民權路三段１８２號之１","OBJECTID":590431},"geometry":{"x":167533.26000000164,"y":2544251.4300000034}},{"attributes":{"ID":590459,"DIS_CODE":0,"TOWNNAME":"中西區","LI":"協和里","LIN":"11鄰","STREET":"中和街","SECT":" ","MAREA":" ","LANE":" ","ALLEY":" ","HOUSE_NO":"１８２號","E_COORD97":167269.75,"N_COORD97":2544736.04,"ADDRESS":"中和街１８２號","OBJECTID":590432},"geometry":{"x":167269.75000000093,"y":2544736.040000001}},{"attributes":{"ID":590460,"DIS_CODE":0,"TOWNNAME":"中西區","LI":"協和里","LIN":"11鄰","STREET":"中和街","SECT":" ","MAREA":" ","LANE":" ","ALLEY":" ","HOUSE_NO":"１９４號","E_COORD97":167274.29000000001,"N_COORD97":2544753.6499999999,"ADDRESS":"中和街１９４號","OBJECTID":590433},"geometry":{"x":167274.29000000097,"y":2544753.6500000022}},{"attributes":{"ID":590461,"DIS_CODE":0,"TOWNNAME":"中西區","LI":"協和里","LIN":"11鄰","STREET":"中和街","SECT":" ","MAREA":" ","LANE":" ","ALLEY":" ","HOUSE_NO":"１９６號","E_COORD97":167277.53,"N_COORD97":2544756.75,"ADDRESS":"中和街１９６號","OBJECTID":590434},"geometry":{"x":167277.52999999933,"y":2544756.75}},{"attributes":{"ID":590462,"DIS_CODE":0,"TOWNNAME":"中西區","LI":"協和里","LIN":"11鄰","STREET":"中和街","SECT":" ","MAREA":" ","LANE":" ","ALLEY":" ","HOUSE_NO":"１９８號","E_COORD97":167280.76999999999,"N_COORD97":2544759.8100000001,"ADDRESS":"中和街１９８號","OBJECTID":590435},"geometry":{"x":167280.77000000048,"y":2544759.8100000024}},{"attributes":{"ID":590463,"DIS_CODE":0,"TOWNNAME":"中西區","LI":"協和里","LIN":"11鄰","STREET":"中和街","SECT":" ","MAREA":" ","LANE":" ","ALLEY":" ","HOUSE_NO":"２００號","E_COORD97":167283.75,"N_COORD97":2544763.04,"ADDRESS":"中和街２００號","OBJECTID":590436},"geometry":{"x":167283.75,"y":2544763.040000001}},{"attributes":{"ID":590464,"DIS_CODE":0,"TOWNNAME":"中西區","LI":"協和里","LIN":"11鄰","STREET":"中和街","SECT":" ","MAREA":" ","LANE":" ","ALLEY":" ","HOUSE_NO":"２０２號","E_COORD97":167286.98999999999,"N_COORD97":2544766.3999999999,"ADDRESS":"中和街２０２號","OBJECTID":590437},"geometry":{"x":167286.99000000115,"y":2544766.4000000004}},{"attributes":{"ID":590465,"DIS_CODE":0,"TOWNNAME":"中西區","LI":"協和里","LIN":"11鄰","STREET":"中和街","SECT":" ","MAREA":" ","LANE":" ","ALLEY":" ","HOUSE_NO":"２０４號","E_COORD97":167290.73999999999,"N_COORD97":2544768.8599999999,"ADDRESS":"中和街２０４號","OBJECTID":590438},"geometry":{"x":167290.74000000022,"y":2544768.8599999994}},{"attributes":{"ID":590466,"DIS_CODE":0,"TOWNNAME":"中西區","LI":"協和里","LIN":"11鄰","STREET":"中和街","SECT":" ","MAREA":" ","LANE":" ","ALLEY":" ","HOUSE_NO":"２０６號","E_COORD97":167294.10999999999,"N_COORD97":2544772.2200000002,"ADDRESS":"中和街２０６號","OBJECTID":590439},"geometry":{"x":167294.1100000022,"y":2544772.2200000007}},{"attributes":{"ID":590467,"DIS_CODE":0,"TOWNNAME":"中西區","LI":"協和里","LIN":"11鄰","STREET":"中和街","SECT":" ","MAREA":" ","LANE":" ","ALLEY":" ","HOUSE_NO":"２０８號","E_COORD97":167297.85999999999,"N_COORD97":2544775.0600000001,"ADDRESS":"中和街２０８號","OBJECTID":590440},"geometry":{"x":167297.86000000127,"y":2544775.0600000024}},{"attributes":{"ID":590468,"DIS_CODE":0,"TOWNNAME":"中西區","LI":"協和里","LIN":"11鄰","STREET":"中和街","SECT":" ","MAREA":" ","LANE":" ","ALLEY":" ","HOUSE_NO":"２１２號","E_COORD97":167303.56,"N_COORD97":2544782.5600000001,"ADDRESS":"中和街２１２號","OBJECTID":590441},"geometry":{"x":167303.55999999959,"y":2544782.5600000005}},{"attributes":{"ID":590469,"DIS_CODE":0,"TOWNNAME":"永康區","LI":"大灣里","LIN":"4鄰","STREET":"信義二街","SECT":" ","MAREA":" ","LANE":" ","ALLEY":" ","HOUSE_NO":"１０３之１號","E_COORD97":174895.60999999999,"N_COORD97":2545729.1200000001,"ADDRESS":"信義二街１０３之１號","OBJECTID":590442},"geometry":{"x":174895.61000000127,"y":2545729.120000001}},{"attributes":{"ID":590470,"DIS_CODE":0,"TOWNNAME":"永康區","LI":"中興里","LIN":"17鄰","STREET":"中華路","SECT":" ","MAREA":" ","LANE":" ","ALLEY":" ","HOUSE_NO":"２８０號之４７","E_COORD97":171619.12,"N_COORD97":2545205.7999999998,"ADDRESS":"中華路２８０號之４７","OBJECTID":590443},"geometry":{"x":171619.12000000011,"y":2545205.8000000007}},{"attributes":{"ID":590471,"DIS_CODE":0,"TOWNNAME":"中西區","LI":"協和里","LIN":"11鄰","STREET":"中和街","SECT":" ","MAREA":" ","LANE":" ","ALLEY":" ","HOUSE_NO":"２１４號","E_COORD97":167306.92000000001,"N_COORD97":2544784.8900000001,"ADDRESS":"中和街２１４號","OBJECTID":590444},"geometry":{"x":167306.92000000179,"y":2544784.8899999987}},{"attributes":{"ID":590472,"DIS_CODE":0,"TOWNNAME":"中西區","LI":"協和里","LIN":"11鄰","STREET":"中和街","SECT":" ","MAREA":" ","LANE":" ","ALLEY":" ","HOUSE_NO":"２１６號","E_COORD97":167310.42000000001,"N_COORD97":2544788.8999999999,"ADDRESS":"中和街２１６號","OBJECTID":590445},"geometry":{"x":167310.42000000086,"y":2544788.9000000022}},{"attributes":{"ID":590473,"DIS_CODE":0,"TOWNNAME":"中西區","LI":"協和里","LIN":"11鄰","STREET":"協和街","SECT":" ","MAREA":" ","LANE":" ","ALLEY":" ","HOUSE_NO":"１８５號","E_COORD97":167273.63,"N_COORD97":2544733.2000000002,"ADDRESS":"協和街１８５號","OBJECTID":590446},"geometry":{"x":167273.63000000082,"y":2544733.1999999993}},{"attributes":{"ID":590474,"DIS_CODE":0,"TOWNNAME":"中西區","LI":"協和里","LIN":"11鄰","STREET":"協和街","SECT":" ","MAREA":" ","LANE":" ","ALLEY":" ","HOUSE_NO":"１８７號","E_COORD97":167279.60999999999,"N_COORD97":2544726.3500000001,"ADDRESS":"協和街１８７號","OBJECTID":590447},"geometry":{"x":167279.61000000127,"y":2544726.3499999996}},{"attributes":{"ID":590475,"DIS_CODE":0,"TOWNNAME":"中西區","LI":"協和里","LIN":"11鄰","STREET":"協和街","SECT":" ","MAREA":" ","LANE":" ","ALLEY":" ","HOUSE_NO":"１８９號","E_COORD97":167280.64000000001,"N_COORD97":2544732.1699999999,"ADDRESS":"協和街１８９號","OBJECTID":590448},"geometry":{"x":167280.63999999966,"y":2544732.1700000018}},{"attributes":{"ID":590476,"DIS_CODE":0,"TOWNNAME":"中西區","LI":"協和里","LIN":"11鄰","STREET":"協和街","SECT":" ","MAREA":" ","LANE":" ","ALLEY":" ","HOUSE_NO":"１９１號","E_COORD97":167284.26999999999,"N_COORD97":2544735.27,"ADDRESS":"協和街１９１號","OBJECTID":590449},"geometry":{"x":167284.27000000048,"y":2544735.2700000014}},{"attributes":{"ID":590477,"DIS_CODE":0,"TOWNNAME":"中西區","LI":"協和里","LIN":"11鄰","STREET":"協和街","SECT":" ","MAREA":" ","LANE":" ","ALLEY":" ","HOUSE_NO":"１９３號","E_COORD97":167288.01999999999,"N_COORD97":2544737.9900000002,"ADDRESS":"協和街１９３號","OBJECTID":590450},"geometry":{"x":167288.01999999955,"y":2544737.9900000021}},{"attributes":{"ID":590478,"DIS_CODE":0,"TOWNNAME":"中西區","LI":"協和里","LIN":"11鄰","STREET":"協和街","SECT":" ","MAREA":" ","LANE":" ","ALLEY":" ","HOUSE_NO":"１９５號","E_COORD97":167291.39000000001,"N_COORD97":2544740.7000000002,"ADDRESS":"協和街１９５號","OBJECTID":590451},"geometry":{"x":167291.38999999873,"y":2544740.6999999974}},{"attributes":{"ID":590479,"DIS_CODE":0,"TOWNNAME":"中西區","LI":"協和里","LIN":"11鄰","STREET":"協和街","SECT":" ","MAREA":" ","LANE":" ","ALLEY":" ","HOUSE_NO":"１９７號","E_COORD97":167296.45000000001,"N_COORD97":2544745.5499999998,"ADDRESS":"協和街１９７號","OBJECTID":590452},"geometry":{"x":167296.45000000019,"y":2544745.5500000007}},{"attributes":{"ID":590480,"DIS_CODE":0,"TOWNNAME":"中西區","LI":"協和里","LIN":"11鄰","STREET":"協和街","SECT":" ","MAREA":" ","LANE":" ","ALLEY":" ","HOUSE_NO":"１９９號","E_COORD97":167301.23999999999,"N_COORD97":2544750.5899999999,"ADDRESS":"協和街１９９號","OBJECTID":590453},"geometry":{"x":167301.24000000022,"y":2544750.5900000017}},{"attributes":{"ID":590481,"DIS_CODE":0,"TOWNNAME":"中西區","LI":"協和里","LIN":"11鄰","STREET":"協和街","SECT":" ","MAREA":" ","LANE":" ","ALLEY":" ","HOUSE_NO":"１９９號之１","E_COORD97":167304.48000000001,"N_COORD97":2544753.6899999999,"ADDRESS":"協和街１９９號之１","OBJECTID":590454},"geometry":{"x":167304.48000000045,"y":2544753.6899999995}},{"attributes":{"ID":590482,"DIS_CODE":0,"TOWNNAME":"中西區","LI":"協和里","LIN":"11鄰","STREET":"協和街","SECT":" ","MAREA":" ","LANE":" ","ALLEY":" ","HOUSE_NO":"２０１號","E_COORD97":167307.97,"N_COORD97":2544756.4100000001,"ADDRESS":"協和街２０１號","OBJECTID":590455},"geometry":{"x":167307.9700000016,"y":2544756.4100000001}},{"attributes":{"ID":590483,"DIS_CODE":0,"TOWNNAME":"中西區","LI":"協和里","LIN":"11鄰","STREET":"協和街","SECT":" ","MAREA":" ","LANE":" ","ALLEY":" ","HOUSE_NO":"２０３號","E_COORD97":167311.73000000001,"N_COORD97":2544759.1200000001,"ADDRESS":"協和街２０３號","OBJECTID":590456},"geometry":{"x":167311.73000000045,"y":2544759.120000001}},{"attributes":{"ID":590484,"DIS_CODE":0,"TOWNNAME":"中西區","LI":"協和里","LIN":"11鄰","STREET":"協和街","SECT":" ","MAREA":" ","LANE":" ","ALLEY":" ","HOUSE_NO":"２０５號","E_COORD97":167314.95999999999,"N_COORD97":2544761.5800000001,"ADDRESS":"協和街２０５號","OBJECTID":590457},"geometry":{"x":167314.95999999903,"y":2544761.5800000001}},{"attributes":{"ID":590485,"DIS_CODE":0,"TOWNNAME":"中西區","LI":"協和里","LIN":"11鄰","STREET":"協和街","SECT":" ","MAREA":" ","LANE":" ","ALLEY":" ","HOUSE_NO":"２０７號","E_COORD97":167318.45999999999,"N_COORD97":2544765.7200000002,"ADDRESS":"協和街２０７號","OBJECTID":590458},"geometry":{"x":167318.46000000183,"y":2544765.7199999988}},{"attributes":{"ID":590486,"DIS_CODE":0,"TOWNNAME":"中西區","LI":"協和里","LIN":"11鄰","STREET":"協和街","SECT":" ","MAREA":" ","LANE":" ","ALLEY":" ","HOUSE_NO":"２０９號","E_COORD97":167328.04000000001,"N_COORD97":2544762.1200000001,"ADDRESS":"協和街２０９號","OBJECTID":590459},"geometry":{"x":167328.04000000004,"y":2544762.120000001}},{"attributes":{"ID":590487,"DIS_CODE":0,"TOWNNAME":"中西區","LI":"協和里","LIN":"11鄰","STREET":"中和街","SECT":" ","MAREA":" ","LANE":" ","ALLEY":" ","HOUSE_NO":"１５０號","E_COORD97":167206.45000000001,"N_COORD97":2544698.5,"ADDRESS":"中和街１５０號","OBJECTID":590460},"geometry":{"x":167206.45000000019,"y":2544698.5}},{"attributes":{"ID":590488,"DIS_CODE":0,"TOWNNAME":"永康區","LI":"中興里","LIN":"23鄰","STREET":"中華路","SECT":" ","MAREA":" ","LANE":" ","ALLEY":" ","HOUSE_NO":"２１８號之２６","E_COORD97":171695.25,"N_COORD97":2545129.3599999999,"ADDRESS":"中華路２１８號之２６","OBJECTID":590461},"geometry":{"x":171695.25000000186,"y":2545129.3599999994}},{"attributes":{"ID":590489,"DIS_CODE":0,"TOWNNAME":"中西區","LI":"協和里","LIN":"11鄰","STREET":"中和街","SECT":" ","MAREA":" ","LANE":" ","ALLEY":" ","HOUSE_NO":"１５２號","E_COORD97":167209.22,"N_COORD97":2544700.6800000002,"ADDRESS":"中和街１５２號","OBJECTID":590462},"geometry":{"x":167209.21999999974,"y":2544700.6800000034}},{"attributes":{"ID":590490,"DIS_CODE":0,"TOWNNAME":"中西區","LI":"協和里","LIN":"11鄰","STREET":"中和街","SECT":" ","MAREA":" ","LANE":" ","ALLEY":" ","HOUSE_NO":"１５２號之１","E_COORD97":167211.79999999999,"N_COORD97":2544702.7599999998,"ADDRESS":"中和街１５２號之１","OBJECTID":590463},"geometry":{"x":167211.79999999981,"y":2544702.7599999998}},{"attributes":{"ID":590491,"DIS_CODE":0,"TOWNNAME":"中西區","LI":"協和里","LIN":"11鄰","STREET":"中和街","SECT":" ","MAREA":" ","LANE":" ","ALLEY":" ","HOUSE_NO":"１５４號","E_COORD97":167215.26999999999,"N_COORD97":2544704.8399999999,"ADDRESS":"中和街１５４號","OBJECTID":590464},"geometry":{"x":167215.26999999955,"y":2544704.8400000017}},{"attributes":{"ID":590492,"DIS_CODE":0,"TOWNNAME":"中西區","LI":"協和里","LIN":"11鄰","STREET":"中和街","SECT":" ","MAREA":" ","LANE":" ","ALLEY":" ","HOUSE_NO":"１５６號","E_COORD97":167219.39999999999,"N_COORD97":2544707.7200000002,"ADDRESS":"中和街１５６號","OBJECTID":590465},"geometry":{"x":167219.40000000224,"y":2544707.7200000007}},{"attributes":{"ID":590493,"DIS_CODE":0,"TOWNNAME":"中西區","LI":"協和里","LIN":"11鄰","STREET":"中和街","SECT":" ","MAREA":" ","LANE":" ","ALLEY":" ","HOUSE_NO":"１５８號","E_COORD97":167223.01000000001,"N_COORD97":2544710.6299999999,"ADDRESS":"中和街１５８號","OBJECTID":590466},"geometry":{"x":167223.01000000164,"y":2544710.6300000027}},{"attributes":{"ID":590494,"DIS_CODE":0,"TOWNNAME":"中西區","LI":"協和里","LIN":"11鄰","STREET":"中和街","SECT":" ","MAREA":" ","LANE":" ","ALLEY":" ","HOUSE_NO":"１６０號","E_COORD97":167225.89000000001,"N_COORD97":2544713.29,"ADDRESS":"中和街１６０號","OBJECTID":590467},"geometry":{"x":167225.8900000006,"y":2544713.290000001}},{"attributes":{"ID":590495,"DIS_CODE":0,"TOWNNAME":"中西區","LI":"協和里","LIN":"11鄰","STREET":"中和街","SECT":" ","MAREA":" ","LANE":" ","ALLEY":" ","HOUSE_NO":"１６２號","E_COORD97":167230.73999999999,"N_COORD97":2544714.79,"ADDRESS":"中和街１６２號","OBJECTID":590468},"geometry":{"x":167230.74000000115,"y":2544714.7899999991}},{"attributes":{"ID":590496,"DIS_CODE":0,"TOWNNAME":"中西區","LI":"協和里","LIN":"11鄰","STREET":"中和街","SECT":" ","MAREA":" ","LANE":" ","ALLEY":" ","HOUSE_NO":"１６４號","E_COORD97":167233.85000000001,"N_COORD97":2544718.02,"ADDRESS":"中和街１６４號","OBJECTID":590469},"geometry":{"x":167233.84999999963,"y":2544718.0199999996}},{"attributes":{"ID":590497,"DIS_CODE":0,"TOWNNAME":"中西區","LI":"協和里","LIN":"11鄰","STREET":"中和街","SECT":" ","MAREA":" ","LANE":" ","ALLEY":" ","HOUSE_NO":"１６６號","E_COORD97":167237.35000000001,"N_COORD97":2544721.3799999999,"ADDRESS":"中和街１６６號","OBJECTID":590470},"geometry":{"x":167237.34999999963,"y":2544721.379999999}},{"attributes":{"ID":590498,"DIS_CODE":0,"TOWNNAME":"中西區","LI":"協和里","LIN":"11鄰","STREET":"中和街","SECT":" ","MAREA":" ","LANE":" ","ALLEY":" ","HOUSE_NO":"１６８號","E_COORD97":167240.32000000001,"N_COORD97":2544724.8700000001,"ADDRESS":"中和街１６８號","OBJECTID":590471},"geometry":{"x":167240.32000000123,"y":2544724.8700000048}},{"attributes":{"ID":590499,"DIS_CODE":0,"TOWNNAME":"中西區","LI":"協和里","LIN":"11鄰","STREET":"中和街","SECT":" ","MAREA":" ","LANE":" ","ALLEY":" ","HOUSE_NO":"１７０號","E_COORD97":167243.82000000001,"N_COORD97":2544727.8500000001,"ADDRESS":"中和街１７０號","OBJECTID":590472},"geometry":{"x":167243.82000000123,"y":2544727.8500000015}},{"attributes":{"ID":590500,"DIS_CODE":0,"TOWNNAME":"中西區","LI":"協和里","LIN":"11鄰","STREET":"中和街","SECT":" ","MAREA":" ","LANE":" ","ALLEY":" ","HOUSE_NO":"１７２號","E_COORD97":167247.44,"N_COORD97":2544730.5600000001,"ADDRESS":"中和街１７２號","OBJECTID":590473},"geometry":{"x":167247.44000000041,"y":2544730.5600000024}},{"attributes":{"ID":590501,"DIS_CODE":0,"TOWNNAME":"中西區","LI":"協和里","LIN":"11鄰","STREET":"中和街","SECT":" ","MAREA":" ","LANE":" ","ALLEY":" ","HOUSE_NO":"１７４號","E_COORD97":167250.94,"N_COORD97":2544733.1499999999,"ADDRESS":"中和街１７４號","OBJECTID":590474},"geometry":{"x":167250.94000000041,"y":2544733.1500000022}},{"attributes":{"ID":590502,"DIS_CODE":0,"TOWNNAME":"中西區","LI":"協和里","LIN":"11鄰","STREET":"中和街","SECT":" ","MAREA":" ","LANE":" ","ALLEY":" ","HOUSE_NO":"１７６號","E_COORD97":167253.97,"N_COORD97":2544736.5800000001,"ADDRESS":"中和街１７６號","OBJECTID":590475},"geometry":{"x":167253.97000000067,"y":2544736.5800000019}},{"attributes":{"ID":590503,"DIS_CODE":0,"TOWNNAME":"中西區","LI":"協和里","LIN":"11鄰","STREET":"中和街","SECT":" ","MAREA":" ","LANE":" ","ALLEY":" ","HOUSE_NO":"１７８號","E_COORD97":167258.04999999999,"N_COORD97":2544738.9900000002,"ADDRESS":"中和街１７８號","OBJECTID":590476},"geometry":{"x":167258.04999999981,"y":2544738.9900000002}},{"attributes":{"ID":590504,"DIS_CODE":0,"TOWNNAME":"中西區","LI":"協和里","LIN":"11鄰","STREET":"協和街","SECT":" ","MAREA":" ","LANE":" ","ALLEY":" ","HOUSE_NO":"１５５號","E_COORD97":167228.51999999999,"N_COORD97":2544674.71,"ADDRESS":"協和街１５５號","OBJECTID":590477},"geometry":{"x":167228.52000000048,"y":2544674.7100000046}},{"attributes":{"ID":590505,"DIS_CODE":0,"TOWNNAME":"中西區","LI":"協和里","LIN":"11鄰","STREET":"協和街","SECT":" ","MAREA":" ","LANE":" ","ALLEY":" ","HOUSE_NO":"１５７號","E_COORD97":167232.42000000001,"N_COORD97":2544685.48,"ADDRESS":"協和街１５７號","OBJECTID":590478},"geometry":{"x":167232.42000000086,"y":2544685.4800000004}},{"attributes":{"ID":590506,"DIS_CODE":0,"TOWNNAME":"永康區","LI":"中興里","LIN":"22鄰","STREET":"中華路","SECT":" ","MAREA":" ","LANE":" ","ALLEY":" ","HOUSE_NO":"２０４號之１","E_COORD97":171638.10999999999,"N_COORD97":2545040.04,"ADDRESS":"中華路２０４號之１","OBJECTID":590479},"geometry":{"x":171638.11000000034,"y":2545040.0400000028}},{"attributes":{"ID":590507,"DIS_CODE":0,"TOWNNAME":"永康區","LI":"五王里","LIN":"20鄰","STREET":"五福街","SECT":" ","MAREA":" ","LANE":" ","ALLEY":" ","HOUSE_NO":"１０號","E_COORD97":171284.64999999999,"N_COORD97":2545852.7400000002,"ADDRESS":"五福街１０號","OBJECTID":590480},"geometry":{"x":171284.6500000013,"y":2545852.7400000002}},{"attributes":{"ID":590508,"DIS_CODE":0,"TOWNNAME":"永康區","LI":"五王里","LIN":"31鄰","STREET":"五福街","SECT":" ","MAREA":" ","LANE":" ","ALLEY":" ","HOUSE_NO":"１７號","E_COORD97":171295.48000000001,"N_COORD97":2545881.8799999999,"ADDRESS":"五福街１７號","OBJECTID":590481},"geometry":{"x":171295.48000000045,"y":2545881.8800000027}},{"attributes":{"ID":590509,"DIS_CODE":0,"TOWNNAME":"永康區","LI":"中興里","LIN":"23鄰","STREET":"中華路","SECT":" ","MAREA":" ","LANE":" ","ALLEY":" ","HOUSE_NO":"２１８號之１３","E_COORD97":171673.56,"N_COORD97":2545092.0499999998,"ADDRESS":"中華路２１８號之１３","OBJECTID":590482},"geometry":{"x":171673.55999999959,"y":2545092.0500000007}},{"attributes":{"ID":590510,"DIS_CODE":0,"TOWNNAME":"中西區","LI":"協和里","LIN":"11鄰","STREET":"協和街","SECT":" ","MAREA":" ","LANE":" ","ALLEY":" ","HOUSE_NO":"１５９號","E_COORD97":167235.78,"N_COORD97":2544688.5800000001,"ADDRESS":"協和街１５９號","OBJECTID":590483},"geometry":{"x":167235.78000000119,"y":2544688.5800000019}},{"attributes":{"ID":590511,"DIS_CODE":0,"TOWNNAME":"中西區","LI":"協和里","LIN":"11鄰","STREET":"協和街","SECT":" ","MAREA":" ","LANE":" ","ALLEY":" ","HOUSE_NO":"１６１號","E_COORD97":167238.89000000001,"N_COORD97":2544691.6899999999,"ADDRESS":"協和街１６１號","OBJECTID":590484},"geometry":{"x":167238.88999999873,"y":2544691.6900000013}},{"attributes":{"ID":590512,"DIS_CODE":0,"TOWNNAME":"中西區","LI":"協和里","LIN":"11鄰","STREET":"協和街","SECT":" ","MAREA":" ","LANE":" ","ALLEY":" ","HOUSE_NO":"１６３號","E_COORD97":167242.51999999999,"N_COORD97":2544694.5299999998,"ADDRESS":"協和街１６３號","OBJECTID":590485},"geometry":{"x":167242.51999999955,"y":2544694.5300000031}},{"attributes":{"ID":590513,"DIS_CODE":0,"TOWNNAME":"中西區","LI":"協和里","LIN":"11鄰","STREET":"協和街","SECT":" ","MAREA":" ","LANE":" ","ALLEY":" ","HOUSE_NO":"１６５號","E_COORD97":167245.75,"N_COORD97":2544697.7599999998,"ADDRESS":"協和街１６５號","OBJECTID":590486},"geometry":{"x":167245.75000000093,"y":2544697.7600000016}},{"attributes":{"ID":590514,"DIS_CODE":0,"TOWNNAME":"中西區","LI":"協和里","LIN":"11鄰","STREET":"協和街","SECT":" ","MAREA":" ","LANE":" ","ALLEY":" ","HOUSE_NO":"１６７號","E_COORD97":167248.98999999999,"N_COORD97":2544700.8599999999,"ADDRESS":"協和街１６７號","OBJECTID":590487},"geometry":{"x":167248.99000000209,"y":2544700.8600000013}},{"attributes":{"ID":590515,"DIS_CODE":0,"TOWNNAME":"永康區","LI":"五王里","LIN":"2鄰","STREET":"中華路","SECT":" ","MAREA":" ","LANE":" ","ALLEY":" ","HOUSE_NO":"３７０號","E_COORD97":171453.38,"N_COORD97":2545499.3999999999,"ADDRESS":"中華路３７０號","OBJECTID":590488},"geometry":{"x":171453.37999999896,"y":2545499.4000000004}},{"attributes":{"ID":590516,"DIS_CODE":0,"TOWNNAME":"永康區","LI":"五王里","LIN":"2鄰","STREET":"中華路","SECT":" ","MAREA":" ","LANE":" ","ALLEY":" ","HOUSE_NO":"３８０號","E_COORD97":171441.79999999999,"N_COORD97":2545519.1499999999,"ADDRESS":"中華路３８０號","OBJECTID":590489},"geometry":{"x":171441.79999999981,"y":2545519.1500000022}},{"attributes":{"ID":590517,"DIS_CODE":0,"TOWNNAME":"中西區","LI":"協和里","LIN":"11鄰","STREET":"協和街","SECT":" ","MAREA":" ","LANE":" ","ALLEY":" ","HOUSE_NO":"１６９號","E_COORD97":167252.66,"N_COORD97":2544703.6699999999,"ADDRESS":"協和街１６９號","OBJECTID":590490},"geometry":{"x":167252.66000000015,"y":2544703.6699999999}},{"attributes":{"ID":590518,"DIS_CODE":0,"TOWNNAME":"永康區","LI":"大灣里","LIN":"23鄰","STREET":"大灣路","SECT":" ","MAREA":" ","LANE":" ","ALLEY":" ","HOUSE_NO":"２７３號","E_COORD97":174896.92000000001,"N_COORD97":2545171.6699999999,"ADDRESS":"大灣路２７３號","OBJECTID":590491},"geometry":{"x":174896.92000000086,"y":2545171.6699999999}},{"attributes":{"ID":590519,"DIS_CODE":0,"TOWNNAME":"中西區","LI":"協和里","LIN":"11鄰","STREET":"協和街","SECT":" ","MAREA":" ","LANE":" ","ALLEY":" ","HOUSE_NO":"１７１號","E_COORD97":167255.37,"N_COORD97":2544707.29,"ADDRESS":"協和街１７１號","OBJECTID":590492},"geometry":{"x":167255.37000000104,"y":2544707.290000001}},{"attributes":{"ID":590520,"DIS_CODE":0,"TOWNNAME":"中西區","LI":"協和里","LIN":"11鄰","STREET":"協和街","SECT":" ","MAREA":" ","LANE":" ","ALLEY":" ","HOUSE_NO":"１７３號","E_COORD97":167258.73999999999,"N_COORD97":2544710.7799999998,"ADDRESS":"協和街１７３號","OBJECTID":590493},"geometry":{"x":167258.74000000022,"y":2544710.7800000012}},{"attributes":{"ID":590521,"DIS_CODE":0,"TOWNNAME":"中西區","LI":"協和里","LIN":"11鄰","STREET":"協和街","SECT":" ","MAREA":" ","LANE":" ","ALLEY":" ","HOUSE_NO":"１７５號","E_COORD97":167261.85000000001,"N_COORD97":2544713.6200000001,"ADDRESS":"協和街１７５號","OBJECTID":590494},"geometry":{"x":167261.85000000056,"y":2544713.6200000029}},{"attributes":{"ID":590522,"DIS_CODE":0,"TOWNNAME":"中西區","LI":"協和里","LIN":"11鄰","STREET":"協和街","SECT":" ","MAREA":" ","LANE":" ","ALLEY":" ","HOUSE_NO":"１７７號","E_COORD97":167265.34,"N_COORD97":2544716.73,"ADDRESS":"協和街１７７號","OBJECTID":590495},"geometry":{"x":167265.34000000078,"y":2544716.7300000004}},{"attributes":{"ID":590523,"DIS_CODE":0,"TOWNNAME":"中西區","LI":"協和里","LIN":"11鄰","STREET":"協和街","SECT":" ","MAREA":" ","LANE":" ","ALLEY":" ","HOUSE_NO":"１７９號","E_COORD97":167268.32000000001,"N_COORD97":2544720.3500000001,"ADDRESS":"協和街１７９號","OBJECTID":590496},"geometry":{"x":167268.3200000003,"y":2544720.3500000015}},{"attributes":{"ID":590524,"DIS_CODE":0,"TOWNNAME":"中西區","LI":"協和里","LIN":"11鄰","STREET":"協和街","SECT":" ","MAREA":" ","LANE":" ","ALLEY":" ","HOUSE_NO":"１８１號","E_COORD97":167271.04000000001,"N_COORD97":2544723.71,"ADDRESS":"協和街１８１號","OBJECTID":590497},"geometry":{"x":167271.04000000097,"y":2544723.7100000028}},{"attributes":{"ID":590525,"DIS_CODE":0,"TOWNNAME":"中西區","LI":"協和里","LIN":"11鄰","STREET":"和美街","SECT":" ","MAREA":" ","LANE":" ","ALLEY":" ","HOUSE_NO":"１０號","E_COORD97":167223.39999999999,"N_COORD97":2544679.6099999999,"ADDRESS":"和美街１０號","OBJECTID":590498},"geometry":{"x":167223.4000000013,"y":2544679.6099999994}},{"attributes":{"ID":590526,"DIS_CODE":0,"TOWNNAME":"中西區","LI":"協和里","LIN":"11鄰","STREET":"和美街","SECT":" ","MAREA":" ","LANE":" ","ALLEY":" ","HOUSE_NO":"１２號","E_COORD97":167221.19,"N_COORD97":2544682.48,"ADDRESS":"和美街１２號","OBJECTID":590499},"geometry":{"x":167221.19000000134,"y":2544682.4800000042}},{"attributes":{"ID":590527,"DIS_CODE":0,"TOWNNAME":"中西區","LI":"協和里","LIN":"11鄰","STREET":"和美街","SECT":" ","MAREA":" ","LANE":" ","ALLEY":" ","HOUSE_NO":"１４號","E_COORD97":167218.63,"N_COORD97":2544685.1099999999,"ADDRESS":"和美街１４號","OBJECTID":590500},"geometry":{"x":167218.62999999989,"y":2544685.1100000013}},{"attributes":{"ID":590528,"DIS_CODE":0,"TOWNNAME":"中西區","LI":"協和里","LIN":"11鄰","STREET":"和美街","SECT":" ","MAREA":" ","LANE":" ","ALLEY":" ","HOUSE_NO":"１６號","E_COORD97":167215.19,"N_COORD97":2544688.8399999999,"ADDRESS":"和美街１６號","OBJECTID":590501},"geometry":{"x":167215.19000000041,"y":2544688.8399999999}},{"attributes":{"ID":590529,"DIS_CODE":0,"TOWNNAME":"中西區","LI":"協和里","LIN":"11鄰","STREET":"和美街","SECT":" ","MAREA":" ","LANE":" ","ALLEY":" ","HOUSE_NO":"１８號","E_COORD97":167212.59,"N_COORD97":2544693.0600000001,"ADDRESS":"和美街１８號","OBJECTID":590502},"geometry":{"x":167212.59000000078,"y":2544693.0600000024}},{"attributes":{"ID":590530,"DIS_CODE":0,"TOWNNAME":"中西區","LI":"協和里","LIN":"11鄰","STREET":"和美街","SECT":" ","MAREA":" ","LANE":" ","ALLEY":" ","HOUSE_NO":"８號","E_COORD97":167226.03,"N_COORD97":2544677.1299999999,"ADDRESS":"和美街８號","OBJECTID":590503},"geometry":{"x":167226.03000000026,"y":2544677.1300000008}},{"attributes":{"ID":590531,"DIS_CODE":0,"TOWNNAME":"中西區","LI":"協進里","LIN":"11鄰","STREET":"民權路","SECT":"三段","MAREA":" ","LANE":" ","ALLEY":" ","HOUSE_NO":"３８９號","E_COORD97":166853.89000000001,"N_COORD97":2544375.52,"ADDRESS":"民權路三段３８９號","OBJECTID":590504},"geometry":{"x":166853.88999999966,"y":2544375.5199999996}},{"attributes":{"ID":590532,"DIS_CODE":0,"TOWNNAME":"中西區","LI":"協進里","LIN":"11鄰","STREET":"民權路","SECT":"三段","MAREA":" ","LANE":" ","ALLEY":" ","HOUSE_NO":"４１３號","E_COORD97":166796.34,"N_COORD97":2544384.0899999999,"ADDRESS":"民權路三段４１３號","OBJECTID":590505},"geometry":{"x":166796.33999999985,"y":2544384.0900000017}},{"attributes":{"ID":590533,"DIS_CODE":0,"TOWNNAME":"中西區","LI":"協進里","LIN":"11鄰","STREET":"民權路","SECT":"三段","MAREA":" ","LANE":" ","ALLEY":" ","HOUSE_NO":"４１３號之１","E_COORD97":166784.57999999999,"N_COORD97":2544385.7999999998,"ADDRESS":"民權路三段４１３號之１","OBJECTID":590506},"geometry":{"x":166784.58000000101,"y":2544385.8000000045}},{"attributes":{"ID":590534,"DIS_CODE":0,"TOWNNAME":"中西區","LI":"協進里","LIN":"11鄰","STREET":"民權路","SECT":"三段","MAREA":" ","LANE":" ","ALLEY":" ","HOUSE_NO":"４２５號","E_COORD97":166772.88,"N_COORD97":2544386.5499999998,"ADDRESS":"民權路三段４２５號","OBJECTID":590507},"geometry":{"x":166772.87999999989,"y":2544386.5500000007}},{"attributes":{"ID":590535,"DIS_CODE":0,"TOWNNAME":"中西區","LI":"協進里","LIN":"11鄰","STREET":"民權路","SECT":"三段","MAREA":" ","LANE":" ","ALLEY":" ","HOUSE_NO":"４３７號","E_COORD97":166764.82999999999,"N_COORD97":2544386.02,"ADDRESS":"民權路三段４３７號","OBJECTID":590508},"geometry":{"x":166764.83000000007,"y":2544386.0199999996}},{"attributes":{"ID":590536,"DIS_CODE":0,"TOWNNAME":"中西區","LI":"協進里","LIN":"11鄰","STREET":"民權路","SECT":"三段","MAREA":" ","LANE":" ","ALLEY":" ","HOUSE_NO":"４３９號","E_COORD97":166756.35000000001,"N_COORD97":2544388.27,"ADDRESS":"民權路三段４３９號","OBJECTID":590509},"geometry":{"x":166756.35000000056,"y":2544388.2700000033}},{"attributes":{"ID":590537,"DIS_CODE":0,"TOWNNAME":"中西區","LI":"協進里","LIN":"11鄰","STREET":"民權路","SECT":"三段","MAREA":" ","LANE":" ","ALLEY":" ","HOUSE_NO":"４４１號","E_COORD97":166751.62,"N_COORD97":2544389.4500000002,"ADDRESS":"民權路三段４４１號","OBJECTID":590510},"geometry":{"x":166751.62000000104,"y":2544389.4499999993}},{"attributes":{"ID":590538,"DIS_CODE":0,"TOWNNAME":"中西區","LI":"協進里","LIN":"11鄰","STREET":"民權路","SECT":"三段","MAREA":" ","LANE":" ","ALLEY":" ","HOUSE_NO":"４４３號","E_COORD97":166748.03,"N_COORD97":2544390.0899999999,"ADDRESS":"民權路三段４４３號","OBJECTID":590511},"geometry":{"x":166748.03000000026,"y":2544390.0900000017}},{"attributes":{"ID":590539,"DIS_CODE":0,"TOWNNAME":"中西區","LI":"協進里","LIN":"11鄰","STREET":"民權路","SECT":"三段","MAREA":" ","LANE":" ","ALLEY":" ","HOUSE_NO":"４４５號","E_COORD97":166714.73999999999,"N_COORD97":2544374.1899999999,"ADDRESS":"民權路三段４４５號","OBJECTID":590512},"geometry":{"x":166714.74000000022,"y":2544374.1899999995}},{"attributes":{"ID":590540,"DIS_CODE":0,"TOWNNAME":"中西區","LI":"三合里","LIN":"11鄰","STREET":"文賢路","SECT":" ","MAREA":" ","LANE":" ","ALLEY":" ","HOUSE_NO":"３４號","E_COORD97":167440.35000000001,"N_COORD97":2544488.9700000002,"ADDRESS":"文賢路３４號","OBJECTID":590513},"geometry":{"x":167440.34999999963,"y":2544488.9700000007}},{"attributes":{"ID":590541,"DIS_CODE":0,"TOWNNAME":"中西區","LI":"三合里","LIN":"11鄰","STREET":"文賢路","SECT":" ","MAREA":" ","LANE":" ","ALLEY":" ","HOUSE_NO":"３６號","E_COORD97":167458.76999999999,"N_COORD97":2544516.8999999999,"ADDRESS":"文賢路３６號","OBJECTID":590514},"geometry":{"x":167458.77000000048,"y":2544516.9000000041}},{"attributes":{"ID":590542,"DIS_CODE":0,"TOWNNAME":"中西區","LI":"三合里","LIN":"11鄰","STREET":"文賢路","SECT":" ","MAREA":" ","LANE":" ","ALLEY":" ","HOUSE_NO":"３８號","E_COORD97":167434.62,"N_COORD97":2544495.5,"ADDRESS":"文賢路３８號","OBJECTID":590515},"geometry":{"x":167434.62000000197,"y":2544495.5000000037}},{"attributes":{"ID":590543,"DIS_CODE":0,"TOWNNAME":"中西區","LI":"三合里","LIN":"11鄰","STREET":"文賢路","SECT":" ","MAREA":" ","LANE":" ","ALLEY":" ","HOUSE_NO":"４０號","E_COORD97":167431.14999999999,"N_COORD97":2544501.2200000002,"ADDRESS":"文賢路４０號","OBJECTID":590516},"geometry":{"x":167431.15000000224,"y":2544501.2200000007}},{"attributes":{"ID":590544,"DIS_CODE":0,"TOWNNAME":"中西區","LI":"三合里","LIN":"11鄰","STREET":"文賢路","SECT":" ","MAREA":" ","LANE":" ","ALLEY":" ","HOUSE_NO":"４０號之１","E_COORD97":167441.01999999999,"N_COORD97":2544514.4900000002,"ADDRESS":"文賢路４０號之１","OBJECTID":590517},"geometry":{"x":167441.01999999955,"y":2544514.4900000002}},{"attributes":{"ID":590545,"DIS_CODE":0,"TOWNNAME":"中西區","LI":"三合里","LIN":"11鄰","STREET":"文賢路","SECT":" ","MAREA":" ","LANE":" ","ALLEY":" ","HOUSE_NO":"４０號之２","E_COORD97":167444.04999999999,"N_COORD97":2544519.3199999998,"ADDRESS":"文賢路４０號之２","OBJECTID":590518},"geometry":{"x":167444.04999999981,"y":2544519.3200000003}},{"attributes":{"ID":590546,"DIS_CODE":0,"TOWNNAME":"中西區","LI":"三合里","LIN":"11鄰","STREET":"文賢路","SECT":" ","MAREA":" ","LANE":" ","ALLEY":" ","HOUSE_NO":"４０號之３","E_COORD97":167450.91,"N_COORD97":2544527.79,"ADDRESS":"文賢路４０號之３","OBJECTID":590519},"geometry":{"x":167450.91000000015,"y":2544527.790000001}},{"attributes":{"ID":590547,"DIS_CODE":0,"TOWNNAME":"中西區","LI":"三合里","LIN":"11鄰","STREET":"文賢路","SECT":" ","MAREA":" ","LANE":" ","ALLEY":" ","HOUSE_NO":"４０號之４","E_COORD97":167453.73000000001,"N_COORD97":2544533.0299999998,"ADDRESS":"文賢路４０號之４","OBJECTID":590520},"geometry":{"x":167453.73000000045,"y":2544533.0300000012}},{"attributes":{"ID":590548,"DIS_CODE":0,"TOWNNAME":"中西區","LI":"三合里","LIN":"11鄰","STREET":"文賢路","SECT":" ","MAREA":" ","LANE":" ","ALLEY":" ","HOUSE_NO":"４０號之５","E_COORD97":167458.62,"N_COORD97":2544542.3100000001,"ADDRESS":"文賢路４０號之５","OBJECTID":590521},"geometry":{"x":167458.62000000104,"y":2544542.3100000024}},{"attributes":{"ID":590549,"DIS_CODE":0,"TOWNNAME":"中西區","LI":"三合里","LIN":"11鄰","STREET":"文賢路","SECT":" ","MAREA":" ","LANE":" ","ALLEY":" ","HOUSE_NO":"４２號","E_COORD97":167448.41,"N_COORD97":2544544.54,"ADDRESS":"文賢路４２號","OBJECTID":590522},"geometry":{"x":167448.41000000108,"y":2544544.5399999991}},{"attributes":{"ID":590550,"DIS_CODE":0,"TOWNNAME":"中西區","LI":"三合里","LIN":"11鄰","STREET":"文賢路","SECT":" ","MAREA":" ","LANE":" ","ALLEY":" ","HOUSE_NO":"４２號之１","E_COORD97":167442.23000000001,"N_COORD97":2544541.7000000002,"ADDRESS":"文賢路４２號之１","OBJECTID":590523},"geometry":{"x":167442.23000000045,"y":2544541.7000000011}},{"attributes":{"ID":590551,"DIS_CODE":0,"TOWNNAME":"中西區","LI":"三合里","LIN":"11鄰","STREET":"文賢路","SECT":" ","MAREA":" ","LANE":" ","ALLEY":" ","HOUSE_NO":"４２號之２","E_COORD97":167440.42000000001,"N_COORD97":2544538.6699999999,"ADDRESS":"文賢路４２號之２","OBJECTID":590524},"geometry":{"x":167440.41999999993,"y":2544538.6700000018}},{"attributes":{"ID":590552,"DIS_CODE":0,"TOWNNAME":"中西區","LI":"三合里","LIN":"11鄰","STREET":"文賢路","SECT":" ","MAREA":" ","LANE":" ","ALLEY":" ","HOUSE_NO":"４２號之３","E_COORD97":167438.20000000001,"N_COORD97":2544534.8399999999,"ADDRESS":"文賢路４２號之３","OBJECTID":590525},"geometry":{"x":167438.20000000112,"y":2544534.8400000017}},{"attributes":{"ID":590553,"DIS_CODE":0,"TOWNNAME":"中西區","LI":"三合里","LIN":"11鄰","STREET":"文賢路","SECT":" ","MAREA":" ","LANE":" ","ALLEY":" ","HOUSE_NO":"４２號之５","E_COORD97":167434.57000000001,"N_COORD97":2544531.8199999998,"ADDRESS":"文賢路４２號之５","OBJECTID":590526},"geometry":{"x":167434.5700000003,"y":2544531.8200000022}},{"attributes":{"ID":590554,"DIS_CODE":0,"TOWNNAME":"中西區","LI":"三合里","LIN":"11鄰","STREET":"文賢路","SECT":" ","MAREA":" ","LANE":" ","ALLEY":" ","HOUSE_NO":"４４號","E_COORD97":167430.92999999999,"N_COORD97":2544528.3900000001,"ADDRESS":"文賢路４４號","OBJECTID":590527},"geometry":{"x":167430.93000000063,"y":2544528.3900000025}},{"attributes":{"ID":590555,"DIS_CODE":0,"TOWNNAME":"中西區","LI":"三合里","LIN":"11鄰","STREET":"文賢路","SECT":" ","MAREA":" ","LANE":" ","ALLEY":" ","HOUSE_NO":"４６號","E_COORD97":167429.12,"N_COORD97":2544522.9500000002,"ADDRESS":"文賢路４６號","OBJECTID":590528},"geometry":{"x":167429.12000000011,"y":2544522.9500000011}},{"attributes":{"ID":590556,"DIS_CODE":0,"TOWNNAME":"中西區","LI":"三合里","LIN":"11鄰","STREET":"文賢路","SECT":" ","MAREA":" ","LANE":" ","ALLEY":" ","HOUSE_NO":"４８號","E_COORD97":167423.98999999999,"N_COORD97":2544511.79,"ADDRESS":"文賢路４８號","OBJECTID":590529},"geometry":{"x":167423.99000000115,"y":2544511.7899999991}},{"attributes":{"ID":590557,"DIS_CODE":0,"TOWNNAME":"中西區","LI":"三合里","LIN":"11鄰","STREET":"文賢路","SECT":" ","MAREA":" ","LANE":" ","ALLEY":" ","HOUSE_NO":"５０號","E_COORD97":167421.48999999999,"N_COORD97":2544539.79,"ADDRESS":"文賢路５０號","OBJECTID":590530},"geometry":{"x":167421.49000000022,"y":2544539.7899999991}},{"attributes":{"ID":590558,"DIS_CODE":0,"TOWNNAME":"中西區","LI":"三合里","LIN":"11鄰","STREET":"文賢路","SECT":" ","MAREA":" ","LANE":" ","ALLEY":" ","HOUSE_NO":"６２號","E_COORD97":167406.57000000001,"N_COORD97":2544550.4199999999,"ADDRESS":"文賢路６２號","OBJECTID":590531},"geometry":{"x":167406.57000000123,"y":2544550.4200000037}},{"attributes":{"ID":590559,"DIS_CODE":0,"TOWNNAME":"中西區","LI":"三合里","LIN":"11鄰","STREET":"文賢路","SECT":" ","MAREA":" ","LANE":" ","ALLEY":" ","HOUSE_NO":"６４號","E_COORD97":167408,"N_COORD97":2544560.2200000002,"ADDRESS":"文賢路６４號","OBJECTID":590532},"geometry":{"x":167407.99999999907,"y":2544560.2200000025}},{"attributes":{"ID":590560,"DIS_CODE":0,"TOWNNAME":"中西區","LI":"三合里","LIN":"11鄰","STREET":"文賢路","SECT":" ","MAREA":" ","LANE":" ","ALLEY":" ","HOUSE_NO":"６６號","E_COORD97":167410.85999999999,"N_COORD97":2544569.4100000001,"ADDRESS":"文賢路６６號","OBJECTID":590533},"geometry":{"x":167410.86000000034,"y":2544569.4100000001}},{"attributes":{"ID":590561,"DIS_CODE":0,"TOWNNAME":"中西區","LI":"三合里","LIN":"11鄰","STREET":"文賢路","SECT":" ","MAREA":" ","LANE":" ","ALLEY":" ","HOUSE_NO":"６８號","E_COORD97":167412.29000000001,"N_COORD97":2544577.1699999999,"ADDRESS":"文賢路６８號","OBJECTID":590534},"geometry":{"x":167412.29000000004,"y":2544577.1700000018}},{"attributes":{"ID":590562,"DIS_CODE":0,"TOWNNAME":"中西區","LI":"三合里","LIN":"11鄰","STREET":"文賢路","SECT":" ","MAREA":" ","LANE":" ","ALLEY":" ","HOUSE_NO":"１０號","E_COORD97":167474.07000000001,"N_COORD97":2544449.1000000001,"ADDRESS":"文賢路１０號","OBJECTID":590535},"geometry":{"x":167474.07000000216,"y":2544449.0999999996}},{"attributes":{"ID":590563,"DIS_CODE":0,"TOWNNAME":"永康區","LI":"三民里","LIN":"11鄰","STREET":"和平路","SECT":" ","MAREA":" ","LANE":" ","ALLEY":" ","HOUSE_NO":"２２８號","E_COORD97":174745.42000000001,"N_COORD97":2550685.98,"ADDRESS":"和平路２２８號","OBJECTID":590536},"geometry":{"x":174745.42000000179,"y":2550685.9800000004}},{"attributes":{"ID":590564,"DIS_CODE":0,"TOWNNAME":"永康區","LI":"西勢里","LIN":"11鄰","STREET":"廣興街","SECT":" ","MAREA":" ","LANE":" ","ALLEY":" ","HOUSE_NO":"１０５號","E_COORD97":176022.06,"N_COORD97":2546613.9700000002,"ADDRESS":"廣興街１０５號","OBJECTID":590537},"geometry":{"x":176022.05999999959,"y":2546613.9700000007}},{"attributes":{"ID":590565,"DIS_CODE":0,"TOWNNAME":"佳里區","LI":"鎮山里","LIN":"11鄰","STREET":"中興街","SECT":" ","MAREA":" ","LANE":" ","ALLEY":" ","HOUSE_NO":"２５１號","E_COORD97":166155.69,"N_COORD97":2561617.8300000001,"ADDRESS":"中興街２５１號","OBJECTID":590538},"geometry":{"x":166155.69000000041,"y":2561617.8300000001}},{"attributes":{"ID":590566,"DIS_CODE":0,"TOWNNAME":"佳里區","LI":"鎮山里","LIN":"11鄰","STREET":"中興街","SECT":" ","MAREA":" ","LANE":" ","ALLEY":" ","HOUSE_NO":"２５３號","E_COORD97":166154.81,"N_COORD97":2561621.9399999999,"ADDRESS":"中興街２５３號","OBJECTID":590539},"geometry":{"x":166154.81000000052,"y":2561621.9399999995}},{"attributes":{"ID":590567,"DIS_CODE":0,"TOWNNAME":"佳里區","LI":"鎮山里","LIN":"11鄰","STREET":"中興街","SECT":" ","MAREA":" ","LANE":" ","ALLEY":" ","HOUSE_NO":"２５５號","E_COORD97":166153.97,"N_COORD97":2561625.9700000002,"ADDRESS":"中興街２５５號","OBJECTID":590540},"geometry":{"x":166153.97000000067,"y":2561625.9700000025}},{"attributes":{"ID":590568,"DIS_CODE":0,"TOWNNAME":"佳里區","LI":"鎮山里","LIN":"11鄰","STREET":"中興街","SECT":" ","MAREA":" ","LANE":" ","ALLEY":" ","HOUSE_NO":"２５７號","E_COORD97":166153.35000000001,"N_COORD97":2561629.8399999999,"ADDRESS":"中興街２５７號","OBJECTID":590541},"geometry":{"x":166153.35000000056,"y":2561629.8399999999}},{"attributes":{"ID":590569,"DIS_CODE":0,"TOWNNAME":"佳里區","LI":"鎮山里","LIN":"11鄰","STREET":"中興街","SECT":" ","MAREA":" ","LANE":" ","ALLEY":" ","HOUSE_NO":"２５９號","E_COORD97":166152.37,"N_COORD97":2561633.9900000002,"ADDRESS":"中興街２５９號","OBJECTID":590542},"geometry":{"x":166152.37000000011,"y":2561633.9899999984}},{"attributes":{"ID":590570,"DIS_CODE":0,"TOWNNAME":"佳里區","LI":"鎮山里","LIN":"11鄰","STREET":"中興街","SECT":" ","MAREA":" ","LANE":" ","ALLEY":" ","HOUSE_NO":"２６１號","E_COORD97":166151.59,"N_COORD97":2561638.3300000001,"ADDRESS":"中興街２６１號","OBJECTID":590543},"geometry":{"x":166151.59000000078,"y":2561638.3299999982}},{"attributes":{"ID":590571,"DIS_CODE":0,"TOWNNAME":"佳里區","LI":"鎮山里","LIN":"11鄰","STREET":"中興街","SECT":" ","MAREA":" ","LANE":" ","ALLEY":" ","HOUSE_NO":"２６３號","E_COORD97":166150.95999999999,"N_COORD97":2561641.98,"ADDRESS":"中興街２６３號","OBJECTID":590544},"geometry":{"x":166150.96000000089,"y":2561641.9800000023}},{"attributes":{"ID":590572,"DIS_CODE":0,"TOWNNAME":"永康區","LI":"崑山里","LIN":"19鄰","STREET":"大灣路","SECT":" ","MAREA":" ","LANE":" ","ALLEY":" ","HOUSE_NO":"７８６號","E_COORD97":174037.38,"N_COORD97":2544511.5499999998,"ADDRESS":"大灣路７８６號","OBJECTID":590545},"geometry":{"x":174037.38000000082,"y":2544511.5500000007}},{"attributes":{"ID":590573,"DIS_CODE":0,"TOWNNAME":"佳里區","LI":"鎮山里","LIN":"11鄰","STREET":"中興街","SECT":" ","MAREA":" ","LANE":" ","ALLEY":" ","HOUSE_NO":"３４６號","E_COORD97":166173.56,"N_COORD97":2561619.7999999998,"ADDRESS":"中興街３４６號","OBJECTID":590546},"geometry":{"x":166173.56000000052,"y":2561619.8000000026}},{"attributes":{"ID":590574,"DIS_CODE":0,"TOWNNAME":"佳里區","LI":"鎮山里","LIN":"11鄰","STREET":"中興街","SECT":" ","MAREA":" ","LANE":" ","ALLEY":" ","HOUSE_NO":"３４８號","E_COORD97":166172.95999999999,"N_COORD97":2561623.3700000001,"ADDRESS":"中興街３４８號","OBJECTID":590547},"geometry":{"x":166172.96000000089,"y":2561623.3700000029}},{"attributes":{"ID":590575,"DIS_CODE":0,"TOWNNAME":"佳里區","LI":"鎮山里","LIN":"11鄰","STREET":"中興街","SECT":" ","MAREA":" ","LANE":" ","ALLEY":" ","HOUSE_NO":"３５０號","E_COORD97":166172.29000000001,"N_COORD97":2561627.71,"ADDRESS":"中興街３５０號","OBJECTID":590548},"geometry":{"x":166172.29000000097,"y":2561627.7100000028}},{"attributes":{"ID":590576,"DIS_CODE":0,"TOWNNAME":"佳里區","LI":"鎮山里","LIN":"11鄰","STREET":"中興街","SECT":" ","MAREA":" ","LANE":" ","ALLEY":" ","HOUSE_NO":"３５２號","E_COORD97":166171.51999999999,"N_COORD97":2561631.9700000002,"ADDRESS":"中興街３５２號","OBJECTID":590549},"geometry":{"x":166171.51999999955,"y":2561631.9700000025}},{"attributes":{"ID":590577,"DIS_CODE":0,"TOWNNAME":"佳里區","LI":"鎮山里","LIN":"11鄰","STREET":"中興街","SECT":" ","MAREA":" ","LANE":" ","ALLEY":" ","HOUSE_NO":"３５６號","E_COORD97":166170.84,"N_COORD97":2561636.0299999998,"ADDRESS":"中興街３５６號","OBJECTID":590550},"geometry":{"x":166170.83999999985,"y":2561636.0299999993}},{"attributes":{"ID":590578,"DIS_CODE":0,"TOWNNAME":"佳里區","LI":"鎮山里","LIN":"11鄰","STREET":"中興街","SECT":" ","MAREA":" ","LANE":" ","ALLEY":" ","HOUSE_NO":"３５８號","E_COORD97":166170.16,"N_COORD97":2561640.0899999999,"ADDRESS":"中興街３５８號","OBJECTID":590551},"geometry":{"x":166170.16000000108,"y":2561640.0900000036}},{"attributes":{"ID":590579,"DIS_CODE":0,"TOWNNAME":"佳里區","LI":"鎮山里","LIN":"11鄰","STREET":"中興街","SECT":" ","MAREA":" ","LANE":" ","ALLEY":" ","HOUSE_NO":"３６０號","E_COORD97":166172.92999999999,"N_COORD97":2561651.3300000001,"ADDRESS":"中興街３６０號","OBJECTID":590552},"geometry":{"x":166172.93000000063,"y":2561651.3300000001}},{"attributes":{"ID":590580,"DIS_CODE":0,"TOWNNAME":"新化區","LI":"護國里","LIN":"11鄰","STREET":"中山路","SECT":" ","MAREA":" ","LANE":" ","ALLEY":" ","HOUSE_NO":"３５號","E_COORD97":180094.35999999999,"N_COORD97":2549639.25,"ADDRESS":"中山路３５號","OBJECTID":590553},"geometry":{"x":180094.3599999994,"y":2549639.25}},{"attributes":{"ID":590581,"DIS_CODE":0,"TOWNNAME":"新化區","LI":"太平里","LIN":"11鄰","STREET":"正新北路","SECT":" ","MAREA":" ","LANE":" ","ALLEY":" ","HOUSE_NO":"８８號","E_COORD97":178568.12,"N_COORD97":2549029.25,"ADDRESS":"正新北路８８號","OBJECTID":590554},"geometry":{"x":178568.12000000011,"y":2549029.25}},{"attributes":{"ID":590582,"DIS_CODE":0,"TOWNNAME":"新化區","LI":"護國里","LIN":"11鄰","STREET":"中山路","SECT":" ","MAREA":" ","LANE":" ","ALLEY":" ","HOUSE_NO":"１號之４８","E_COORD97":180755.62,"N_COORD97":2550518.2599999998,"ADDRESS":"中山路１號之４８","OBJECTID":590555},"geometry":{"x":180755.62000000104,"y":2550518.2600000035}},{"attributes":{"ID":590583,"DIS_CODE":0,"TOWNNAME":"新化區","LI":"護國里","LIN":"11鄰","STREET":"中山路","SECT":" ","MAREA":" ","LANE":" ","ALLEY":" ","HOUSE_NO":"１號之３７","E_COORD97":180797.39999999999,"N_COORD97":2550540.2599999998,"ADDRESS":"中山路１號之３７","OBJECTID":590556},"geometry":{"x":180797.40000000037,"y":2550540.2599999998}},{"attributes":{"ID":590584,"DIS_CODE":0,"TOWNNAME":"新化區","LI":"護國里","LIN":"11鄰","STREET":"中山路","SECT":" ","MAREA":" ","LANE":" ","ALLEY":" ","HOUSE_NO":"１號之３８","E_COORD97":180793.72,"N_COORD97":2550538.2599999998,"ADDRESS":"中山路１號之３８","OBJECTID":590557},"geometry":{"x":180793.72000000067,"y":2550538.2599999998}},{"attributes":{"ID":590585,"DIS_CODE":0,"TOWNNAME":"永康區","LI":"崑山里","LIN":"30鄰","STREET":"大仁街","SECT":" ","MAREA":" ","LANE":" ","ALLEY":" ","HOUSE_NO":"９８號","E_COORD97":173860.20999999999,"N_COORD97":2544812.9300000002,"ADDRESS":"大仁街９８號","OBJECTID":590558},"geometry":{"x":173860.21000000183,"y":2544812.9299999997}},{"attributes":{"ID":590586,"DIS_CODE":0,"TOWNNAME":"新化區","LI":"護國里","LIN":"11鄰","STREET":"中山路","SECT":" ","MAREA":" ","LANE":" ","ALLEY":" ","HOUSE_NO":"４１號","E_COORD97":180071.56,"N_COORD97":2549576.25,"ADDRESS":"中山路４１號","OBJECTID":590559},"geometry":{"x":180071.55999999959,"y":2549576.2500000037}},{"attributes":{"ID":590587,"DIS_CODE":0,"TOWNNAME":"新化區","LI":"護國里","LIN":"11鄰","STREET":"中山路","SECT":" ","MAREA":" ","LANE":" ","ALLEY":" ","HOUSE_NO":"１號之５０","E_COORD97":180747.5,"N_COORD97":2550514.2599999998,"ADDRESS":"中山路１號之５０","OBJECTID":590560},"geometry":{"x":180747.50000000186,"y":2550514.2599999998}},{"attributes":{"ID":590588,"DIS_CODE":0,"TOWNNAME":"新化區","LI":"知義里","LIN":"11鄰","STREET":"中興路","SECT":" ","MAREA":" ","LANE":" ","ALLEY":" ","HOUSE_NO":"２３１號之５","E_COORD97":181496.76999999999,"N_COORD97":2547280.2599999998,"ADDRESS":"中興路２３１號之５","OBJECTID":590561},"geometry":{"x":181496.77000000048,"y":2547280.2599999979}},{"attributes":{"ID":590589,"DIS_CODE":0,"TOWNNAME":"新化區","LI":"護國里","LIN":"11鄰","STREET":"中山路","SECT":" ","MAREA":" ","LANE":" ","ALLEY":" ","HOUSE_NO":"１號之３５","E_COORD97":180805.22,"N_COORD97":2550544.2599999998,"ADDRESS":"中山路１號之３５","OBJECTID":590562},"geometry":{"x":180805.2200000016,"y":2550544.2599999998}},{"attributes":{"ID":590590,"DIS_CODE":0,"TOWNNAME":"新化區","LI":"東榮里","LIN":"11鄰","STREET":"中興路","SECT":" ","MAREA":" ","LANE":" ","ALLEY":" ","HOUSE_NO":"５３３號","E_COORD97":180047.60999999999,"N_COORD97":2547829.25,"ADDRESS":"中興路５３３號","OBJECTID":590563},"geometry":{"x":180047.61000000127,"y":2547829.25}},{"attributes":{"ID":590591,"DIS_CODE":0,"TOWNNAME":"新化區","LI":"知義里","LIN":"11鄰","STREET":"中興路","SECT":" ","MAREA":" ","LANE":" ","ALLEY":" ","HOUSE_NO":"２１５號","E_COORD97":181536.91,"N_COORD97":2547301.25,"ADDRESS":"中興路２１５號","OBJECTID":590564},"geometry":{"x":181536.91000000108,"y":2547301.2500000037}},{"attributes":{"ID":590592,"DIS_CODE":0,"TOWNNAME":"新化區","LI":"護國里","LIN":"11鄰","STREET":"中山路","SECT":" ","MAREA":" ","LANE":" ","ALLEY":" ","HOUSE_NO":"３７號","E_COORD97":180063.66,"N_COORD97":2549616.25,"ADDRESS":"中山路３７號","OBJECTID":590565},"geometry":{"x":180063.66000000108,"y":2549616.25}},{"attributes":{"ID":590593,"DIS_CODE":0,"TOWNNAME":"新化區","LI":"護國里","LIN":"11鄰","STREET":"中山路","SECT":" ","MAREA":" ","LANE":" ","ALLEY":" ","HOUSE_NO":"１號之３９","E_COORD97":180789.89999999999,"N_COORD97":2550536.2599999998,"ADDRESS":"中山路１號之３９","OBJECTID":590566},"geometry":{"x":180789.9000000013,"y":2550536.2600000016}},{"attributes":{"ID":590594,"DIS_CODE":0,"TOWNNAME":"新化區","LI":"武安里","LIN":"11鄰","STREET":"和平街","SECT":" ","MAREA":" ","LANE":" ","ALLEY":" ","HOUSE_NO":"１７７號","E_COORD97":178887.92000000001,"N_COORD97":2548292.25,"ADDRESS":"和平街１７７號","OBJECTID":590567},"geometry":{"x":178887.91999999993,"y":2548292.2500000019}},{"attributes":{"ID":590595,"DIS_CODE":0,"TOWNNAME":"新化區","LI":"護國里","LIN":"11鄰","STREET":"中山路","SECT":" ","MAREA":" ","LANE":" ","ALLEY":" ","HOUSE_NO":"１號之４１","E_COORD97":180782.48999999999,"N_COORD97":2550532.2599999998,"ADDRESS":"中山路１號之４１","OBJECTID":590568},"geometry":{"x":180782.49000000115,"y":2550532.2600000016}},{"attributes":{"ID":590596,"DIS_CODE":0,"TOWNNAME":"新化區","LI":"護國里","LIN":"11鄰","STREET":"中山路","SECT":" ","MAREA":" ","LANE":" ","ALLEY":" ","HOUSE_NO":"１號之４６","E_COORD97":180762.70999999999,"N_COORD97":2550522.2599999998,"ADDRESS":"中山路１號之４６","OBJECTID":590569},"geometry":{"x":180762.70999999996,"y":2550522.2600000016}},{"attributes":{"ID":590597,"DIS_CODE":0,"TOWNNAME":"新化區","LI":"護國里","LIN":"11鄰","STREET":"中山路","SECT":" ","MAREA":" ","LANE":" ","ALLEY":" ","HOUSE_NO":"１號之４２","E_COORD97":180778.60999999999,"N_COORD97":2550530.2599999998,"ADDRESS":"中山路１號之４２","OBJECTID":590570},"geometry":{"x":180778.61000000034,"y":2550530.2599999998}},{"attributes":{"ID":590598,"DIS_CODE":0,"TOWNNAME":"安南區","LI":"溪心里","LIN":"11鄰","STREET":"海佃路","SECT":"三段","MAREA":" ","LANE":" ","ALLEY":" ","HOUSE_NO":"６８號","E_COORD97":166281.26000000001,"N_COORD97":2549878.8599999999,"ADDRESS":"海佃路三段６８號","OBJECTID":590571},"geometry":{"x":166281.26000000071,"y":2549878.8599999994}},{"attributes":{"ID":590599,"DIS_CODE":0,"TOWNNAME":"安南區","LI":"溪心里","LIN":"11鄰","STREET":"海佃路","SECT":"三段","MAREA":" ","LANE":" ","ALLEY":" ","HOUSE_NO":"６４號","E_COORD97":166288.17999999999,"N_COORD97":2549873,"ADDRESS":"海佃路三段６４號","OBJECTID":590572},"geometry":{"x":166288.18000000063,"y":2549873.0000000019}},{"attributes":{"ID":590600,"DIS_CODE":0,"TOWNNAME":"安南區","LI":"溪心里","LIN":"11鄰","STREET":"海佃路","SECT":"三段","MAREA":" ","LANE":" ","ALLEY":" ","HOUSE_NO":"５６號","E_COORD97":166298.39999999999,"N_COORD97":2549857.23,"ADDRESS":"海佃路三段５６號","OBJECTID":590573},"geometry":{"x":166298.40000000037,"y":2549857.2300000004}},{"attributes":{"ID":590601,"DIS_CODE":0,"TOWNNAME":"安南區","LI":"溪心里","LIN":"11鄰","STREET":"海佃路","SECT":"三段","MAREA":" ","LANE":" ","ALLEY":" ","HOUSE_NO":"５０號","E_COORD97":166307.10999999999,"N_COORD97":2549846.5699999998,"ADDRESS":"海佃路三段５０號","OBJECTID":590574},"geometry":{"x":166307.11000000034,"y":2549846.5700000022}},{"attributes":{"ID":590602,"DIS_CODE":0,"TOWNNAME":"安南區","LI":"溪心里","LIN":"11鄰","STREET":"海佃路","SECT":"三段","MAREA":" ","LANE":" ","ALLEY":" ","HOUSE_NO":"５２號","E_COORD97":166304.56,"N_COORD97":2549851.3799999999,"ADDRESS":"海佃路三段５２號","OBJECTID":590575},"geometry":{"x":166304.55999999959,"y":2549851.379999999}},{"attributes":{"ID":590603,"DIS_CODE":0,"TOWNNAME":"安南區","LI":"溪心里","LIN":"11鄰","STREET":"海佃路","SECT":"三段","MAREA":" ","LANE":" ","ALLEY":" ","HOUSE_NO":"５８號","E_COORD97":166295.98999999999,"N_COORD97":2549861.29,"ADDRESS":"海佃路三段５８號","OBJECTID":590576},"geometry":{"x":166295.99000000022,"y":2549861.2899999991}},{"attributes":{"ID":590604,"DIS_CODE":0,"TOWNNAME":"安南區","LI":"溪心里","LIN":"11鄰","STREET":"海佃路","SECT":"三段","MAREA":" ","LANE":" ","ALLEY":" ","HOUSE_NO":"６０號","E_COORD97":166293.44,"N_COORD97":2549865.04,"ADDRESS":"海佃路三段６０號","OBJECTID":590577},"geometry":{"x":166293.44000000227,"y":2549865.040000001}},{"attributes":{"ID":590605,"DIS_CODE":0,"TOWNNAME":"安南區","LI":"溪心里","LIN":"11鄰","STREET":"海佃路","SECT":"三段","MAREA":" ","LANE":" ","ALLEY":" ","HOUSE_NO":"６２號","E_COORD97":166290.88,"N_COORD97":2549868.5,"ADDRESS":"海佃路三段６２號","OBJECTID":590578},"geometry":{"x":166290.87999999989,"y":2549868.5}},{"attributes":{"ID":590606,"DIS_CODE":0,"TOWNNAME":"安南區","LI":"溪心里","LIN":"11鄰","STREET":"海佃路","SECT":"三段","MAREA":" ","LANE":" ","ALLEY":" ","HOUSE_NO":"６６號","E_COORD97":166284.87,"N_COORD97":2549875.8500000001,"ADDRESS":"海佃路三段６６號","OBJECTID":590579},"geometry":{"x":166284.87000000011,"y":2549875.8499999996}},{"attributes":{"ID":590607,"DIS_CODE":0,"TOWNNAME":"安南區","LI":"溪心里","LIN":"11鄰","STREET":"海佃路","SECT":"三段","MAREA":" ","LANE":" ","ALLEY":" ","HOUSE_NO":"７０號","E_COORD97":166278.56,"N_COORD97":2549882.46,"ADDRESS":"海佃路三段７０號","OBJECTID":590580},"geometry":{"x":166278.56000000052,"y":2549882.4600000009}},{"attributes":{"ID":590608,"DIS_CODE":0,"TOWNNAME":"安南區","LI":"溪心里","LIN":"11鄰","STREET":"海佃路","SECT":"三段","MAREA":" ","LANE":" ","ALLEY":" ","HOUSE_NO":"７２號","E_COORD97":166276.91,"N_COORD97":2549886.5099999998,"ADDRESS":"海佃路三段７２號","OBJECTID":590581},"geometry":{"x":166276.91000000108,"y":2549886.5100000016}},{"attributes":{"ID":590609,"DIS_CODE":0,"TOWNNAME":"安南區","LI":"溪心里","LIN":"11鄰","STREET":"海佃路","SECT":"三段","MAREA":" ","LANE":" ","ALLEY":" ","HOUSE_NO":"７２號之１","E_COORD97":166274.35000000001,"N_COORD97":2549890.8700000001,"ADDRESS":"海佃路三段７２號之１","OBJECTID":590582},"geometry":{"x":166274.34999999963,"y":2549890.870000001}},{"attributes":{"ID":590610,"DIS_CODE":0,"TOWNNAME":"安南區","LI":"溪心里","LIN":"11鄰","STREET":"海佃路","SECT":"三段","MAREA":" ","LANE":" ","ALLEY":" ","HOUSE_NO":"７６號","E_COORD97":166261.73000000001,"N_COORD97":2549902.73,"ADDRESS":"海佃路三段７６號","OBJECTID":590583},"geometry":{"x":166261.73000000138,"y":2549902.7300000023}},{"attributes":{"ID":590611,"DIS_CODE":0,"TOWNNAME":"安南區","LI":"頂安里","LIN":"11鄰","STREET":"北安路","SECT":"三段","MAREA":" ","LANE":" ","ALLEY":" ","HOUSE_NO":"２７４號","E_COORD97":168527.44,"N_COORD97":2549341.8700000001,"ADDRESS":"北安路三段２７４號","OBJECTID":590584},"geometry":{"x":168527.44000000041,"y":2549341.870000001}},{"attributes":{"ID":590612,"DIS_CODE":0,"TOWNNAME":"安南區","LI":"頂安里","LIN":"11鄰","STREET":"北安路","SECT":"三段","MAREA":" ","LANE":" ","ALLEY":" ","HOUSE_NO":"３００號","E_COORD97":168571.47,"N_COORD97":2549374.1499999999,"ADDRESS":"北安路三段３００號","OBJECTID":590585},"geometry":{"x":168571.47000000067,"y":2549374.1500000022}},{"attributes":{"ID":590613,"DIS_CODE":0,"TOWNNAME":"安南區","LI":"頂安里","LIN":"11鄰","STREET":"北安路","SECT":"三段","MAREA":" ","LANE":" ","ALLEY":" ","HOUSE_NO":"２８２號","E_COORD97":168540.98000000001,"N_COORD97":2549351.2400000002,"ADDRESS":"北安路三段２８２號","OBJECTID":590586},"geometry":{"x":168540.97999999952,"y":2549351.2400000002}},{"attributes":{"ID":590614,"DIS_CODE":0,"TOWNNAME":"安南區","LI":"頂安里","LIN":"11鄰","STREET":"北安路","SECT":"三段","MAREA":" ","LANE":" ","ALLEY":" ","HOUSE_NO":"２８０號","E_COORD97":168538.12,"N_COORD97":2549347.3399999999,"ADDRESS":"北安路三段２８０號","OBJECTID":590587},"geometry":{"x":168538.12000000197,"y":2549347.3399999999}},{"attributes":{"ID":590615,"DIS_CODE":0,"TOWNNAME":"安南區","LI":"頂安里","LIN":"11鄰","STREET":"北安路","SECT":"三段","MAREA":" ","LANE":" ","ALLEY":" ","HOUSE_NO":"２９８號","E_COORD97":168568.34,"N_COORD97":2549371.29,"ADDRESS":"北安路三段２９８號","OBJECTID":590588},"geometry":{"x":168568.33999999985,"y":2549371.2900000028}},{"attributes":{"ID":590616,"DIS_CODE":0,"TOWNNAME":"安南區","LI":"頂安里","LIN":"11鄰","STREET":"北安路","SECT":"三段","MAREA":" ","LANE":" ","ALLEY":" ","HOUSE_NO":"２９６號","E_COORD97":168565.22,"N_COORD97":2549368.6800000002,"ADDRESS":"北安路三段２９６號","OBJECTID":590589},"geometry":{"x":168565.21999999974,"y":2549368.6799999997}},{"attributes":{"ID":590617,"DIS_CODE":0,"TOWNNAME":"安南區","LI":"頂安里","LIN":"11鄰","STREET":"北安路","SECT":"三段","MAREA":" ","LANE":" ","ALLEY":" ","HOUSE_NO":"２９０號","E_COORD97":168555.31,"N_COORD97":2549361.3999999999,"ADDRESS":"北安路三段２９０號","OBJECTID":590590},"geometry":{"x":168555.31000000052,"y":2549361.4000000004}},{"attributes":{"ID":590618,"DIS_CODE":0,"TOWNNAME":"安南區","LI":"頂安里","LIN":"11鄰","STREET":"北安路","SECT":"三段","MAREA":" ","LANE":" ","ALLEY":" ","HOUSE_NO":"３０４號","E_COORD97":168577.72,"N_COORD97":2549379.6200000001,"ADDRESS":"北安路三段３０４號","OBJECTID":590591},"geometry":{"x":168577.7200000016,"y":2549379.6200000029}},{"attributes":{"ID":590619,"DIS_CODE":0,"TOWNNAME":"安南區","LI":"頂安里","LIN":"11鄰","STREET":"北安路","SECT":"三段","MAREA":" ","LANE":" ","ALLEY":" ","HOUSE_NO":"３０２號","E_COORD97":168574.85999999999,"N_COORD97":2549376.75,"ADDRESS":"北安路三段３０２號","OBJECTID":590592},"geometry":{"x":168574.86000000034,"y":2549376.7500000019}},{"attributes":{"ID":590620,"DIS_CODE":0,"TOWNNAME":"安南區","LI":"頂安里","LIN":"11鄰","STREET":"北安路","SECT":"三段","MAREA":" ","LANE":" ","ALLEY":" ","HOUSE_NO":"３０６號","E_COORD97":168581.89000000001,"N_COORD97":2549380.9199999999,"ADDRESS":"北安路三段３０６號","OBJECTID":590593},"geometry":{"x":168581.8900000006,"y":2549380.9199999999}},{"attributes":{"ID":590621,"DIS_CODE":0,"TOWNNAME":"安南區","LI":"頂安里","LIN":"11鄰","STREET":"北安路","SECT":"三段","MAREA":" ","LANE":" ","ALLEY":" ","HOUSE_NO":"２９２號","E_COORD97":168557.92000000001,"N_COORD97":2549364,"ADDRESS":"北安路三段２９２號","OBJECTID":590594},"geometry":{"x":168557.92000000179,"y":2549364.0000000037}},{"attributes":{"ID":590622,"DIS_CODE":0,"TOWNNAME":"安南區","LI":"頂安里","LIN":"11鄰","STREET":"北安路","SECT":"三段","MAREA":" ","LANE":" ","ALLEY":" ","HOUSE_NO":"２７８號","E_COORD97":168534.20999999999,"N_COORD97":2549347.3399999999,"ADDRESS":"北安路三段２７８號","OBJECTID":590595},"geometry":{"x":168534.21000000089,"y":2549347.3399999999}},{"attributes":{"ID":590623,"DIS_CODE":0,"TOWNNAME":"永康區","LI":"尚頂里","LIN":"11鄰","STREET":"正南一街","SECT":" ","MAREA":" ","LANE":" ","ALLEY":" ","HOUSE_NO":"３７號","E_COORD97":171194.34,"N_COORD97":2547332.3599999999,"ADDRESS":"正南一街３７號","OBJECTID":590596},"geometry":{"x":171194.34000000171,"y":2547332.3599999994}},{"attributes":{"ID":590624,"DIS_CODE":0,"TOWNNAME":"永康區","LI":"西灣里","LIN":"11鄰","STREET":"大灣五街","SECT":" ","MAREA":" ","LANE":" ","ALLEY":" ","HOUSE_NO":"１２７號","E_COORD97":174508.87,"N_COORD97":2545307.6600000001,"ADDRESS":"大灣五街１２７號","OBJECTID":590597},"geometry":{"x":174508.87000000104,"y":2545307.6600000001}},{"attributes":{"ID":590625,"DIS_CODE":0,"TOWNNAME":"永康區","LI":"大橋里","LIN":"11鄰","STREET":"大橋二街","SECT":" ","MAREA":" ","LANE":" ","ALLEY":" ","HOUSE_NO":"１５９號","E_COORD97":170938.29999999999,"N_COORD97":2546692.7400000002,"ADDRESS":"大橋二街１５９號","OBJECTID":590598},"geometry":{"x":170938.29999999981,"y":2546692.7400000021}},{"attributes":{"ID":590626,"DIS_CODE":0,"TOWNNAME":"永康區","LI":"永康里","LIN":"11鄰","STREET":"永二街","SECT":" ","MAREA":" ","LANE":" ","ALLEY":" ","HOUSE_NO":"１４號","E_COORD97":173785.70999999999,"N_COORD97":2547139.5699999998,"ADDRESS":"永二街１４號","OBJECTID":590599},"geometry":{"x":173785.71000000183,"y":2547139.5700000003}},{"attributes":{"ID":590627,"DIS_CODE":0,"TOWNNAME":"永康區","LI":"王行里","LIN":"11鄰","STREET":"王行路","SECT":" ","MAREA":" ","LANE":" ","ALLEY":" ","HOUSE_NO":"９０２號","E_COORD97":175848.13,"N_COORD97":2550042.8399999999,"ADDRESS":"王行路９０２號","OBJECTID":590600},"geometry":{"x":175848.13000000082,"y":2550042.839999998}}]}