{"displayFieldName":"TOWNNAME","fieldAliases":{"ID":"ID","DIS_CODE":"DIS_CODE","TOWNNAME":"TOWNNAME","LI":"LI","LIN":"LIN","STREET":"STREET","SECT":"SECT","MAREA":"MAREA","LANE":"LANE","ALLEY":"ALLEY","HOUSE_NO":"HOUSE_NO","E_COORD97":"E_COORD97","N_COORD97":"N_COORD97","ADDRESS":"ADDRESS","OBJECTID":"OBJECTID"},"geometryType":"esriGeometryPoint","spatialReference":{"wkid":102443,"latestWkid":3826},"fields":[{"name":"ID","type":"esriFieldTypeDouble","alias":"ID"},{"name":"DIS_CODE","type":"esriFieldTypeInteger","alias":"DIS_CODE"},{"name":"TOWNNAME","type":"esriFieldTypeString","alias":"TOWNNAME","length":8},{"name":"LI","type":"esriFieldTypeString","alias":"LI","length":8},{"name":"LIN","type":"esriFieldTypeString","alias":"LIN","length":12},{"name":"STREET","type":"esriFieldTypeString","alias":"STREET","length":20},{"name":"SECT","type":"esriFieldTypeString","alias":"SECT","length":8},{"name":"MAREA","type":"esriFieldTypeString","alias":"MAREA","length":12},{"name":"LANE","type":"esriFieldTypeString","alias":"LANE","length":10},{"name":"ALLEY","type":"esriFieldTypeString","alias":"ALLEY","length":10},{"name":"HOUSE_NO","type":"esriFieldTypeString","alias":"HOUSE_NO","length":20},{"name":"E_COORD97","type":"esriFieldTypeDouble","alias":"E_COORD97"},{"name":"N_COORD97","type":"esriFieldTypeDouble","alias":"N_COORD97"},{"name":"ADDRESS","type":"esriFieldTypeString","alias":"ADDRESS","length":50},{"name":"OBJECTID","type":"esriFieldTypeOID","alias":"OBJECTID"}],"features":[{"attributes":{"ID":308409,"DIS_CODE":0,"TOWNNAME":"官田區","LI":"二鎮里","LIN":"17鄰","STREET":"工社南街","SECT":" ","MAREA":" ","LANE":" ","ALLEY":" ","HOUSE_NO":"４０號","E_COORD97":181236.09,"N_COORD97":2568487.9700000002,"ADDRESS":"工社南街４０號","OBJECTID":308401},"geometry":{"x":181236.08999999985,"y":2568487.9700000025}},{"attributes":{"ID":308410,"DIS_CODE":0,"TOWNNAME":"官田區","LI":"二鎮里","LIN":"17鄰","STREET":"工社南街","SECT":" ","MAREA":" ","LANE":" ","ALLEY":" ","HOUSE_NO":"８號","E_COORD97":181169.37,"N_COORD97":2568468.3100000001,"ADDRESS":"工社南街８號","OBJECTID":308402},"geometry":{"x":181169.37000000104,"y":2568468.3100000024}},{"attributes":{"ID":308411,"DIS_CODE":0,"TOWNNAME":"中西區","LI":"青年里","LIN":"17鄰","STREET":"青年路","SECT":" ","MAREA":" ","LANE":" ","ALLEY":" ","HOUSE_NO":"１１之１號","E_COORD97":168590.82999999999,"N_COORD97":2543672.48,"ADDRESS":"青年路１１之１號","OBJECTID":308403},"geometry":{"x":168590.83000000194,"y":2543672.4800000042}},{"attributes":{"ID":308412,"DIS_CODE":0,"TOWNNAME":"中西區","LI":"郡王里","LIN":"17鄰","STREET":"南門路","SECT":" ","MAREA":" ","LANE":" ","ALLEY":" ","HOUSE_NO":"９９號","E_COORD97":168462.16,"N_COORD97":2543228.5699999998,"ADDRESS":"南門路９９號","OBJECTID":308404},"geometry":{"x":168462.16000000108,"y":2543228.5700000022}},{"attributes":{"ID":308413,"DIS_CODE":0,"TOWNNAME":"中西區","LI":"郡王里","LIN":"17鄰","STREET":"南門路","SECT":" ","MAREA":" ","LANE":" ","ALLEY":" ","HOUSE_NO":"９９之１號","E_COORD97":168461.04999999999,"N_COORD97":2543224.1299999999,"ADDRESS":"南門路９９之１號","OBJECTID":308405},"geometry":{"x":168461.05000000075,"y":2543224.129999999}},{"attributes":{"ID":308414,"DIS_CODE":0,"TOWNNAME":"中西區","LI":"郡王里","LIN":"17鄰","STREET":"南門路","SECT":" ","MAREA":" ","LANE":" ","ALLEY":" ","HOUSE_NO":"９９之６號","E_COORD97":168459.92999999999,"N_COORD97":2543219.0499999998,"ADDRESS":"南門路９９之６號","OBJECTID":308406},"geometry":{"x":168459.93000000063,"y":2543219.0500000026}},{"attributes":{"ID":308415,"DIS_CODE":0,"TOWNNAME":"永康區","LI":"勝利里","LIN":"20鄰","STREET":"勝學路","SECT":" ","MAREA":" ","LANE":"２６９巷","ALLEY":" ","HOUSE_NO":"２號三樓之２","E_COORD97":171173.42000000001,"N_COORD97":2545316.0499999998,"ADDRESS":"勝學路２６９巷２號三樓之２","OBJECTID":308407},"geometry":{"x":171173.41999999993,"y":2545316.0500000007}},{"attributes":{"ID":308416,"DIS_CODE":0,"TOWNNAME":"永康區","LI":"勝利里","LIN":"34鄰","STREET":"勝利街","SECT":" ","MAREA":" ","LANE":"１巷","ALLEY":" ","HOUSE_NO":"４７號十一樓之２","E_COORD97":170990.66,"N_COORD97":2544676.5499999998,"ADDRESS":"勝利街１巷４７號十一樓之２","OBJECTID":308408},"geometry":{"x":170990.65999999922,"y":2544676.5500000026}},{"attributes":{"ID":308417,"DIS_CODE":0,"TOWNNAME":"永康區","LI":"勝利里","LIN":"34鄰","STREET":"勝利街","SECT":" ","MAREA":" ","LANE":"１巷","ALLEY":" ","HOUSE_NO":"４７號十樓之２","E_COORD97":170989.41,"N_COORD97":2544676.5499999998,"ADDRESS":"勝利街１巷４７號十樓之２","OBJECTID":308409},"geometry":{"x":170989.41000000108,"y":2544676.5500000026}},{"attributes":{"ID":308418,"DIS_CODE":0,"TOWNNAME":"安平區","LI":"平通里","LIN":"8鄰","STREET":"國平路","SECT":" ","MAREA":" ","LANE":"５９１巷","ALLEY":" ","HOUSE_NO":"６８號","E_COORD97":164920.5,"N_COORD97":2544158.52,"ADDRESS":"國平路５９１巷６８號","OBJECTID":308410},"geometry":{"x":164920.5,"y":2544158.5199999996}},{"attributes":{"ID":308419,"DIS_CODE":0,"TOWNNAME":"安平區","LI":"平通里","LIN":"8鄰","STREET":"國平路","SECT":" ","MAREA":" ","LANE":"５９１巷","ALLEY":" ","HOUSE_NO":"７０號","E_COORD97":164914.57999999999,"N_COORD97":2544159.0800000001,"ADDRESS":"國平路５９１巷７０號","OBJECTID":308411},"geometry":{"x":164914.58000000101,"y":2544159.0800000001}},{"attributes":{"ID":308420,"DIS_CODE":0,"TOWNNAME":"安平區","LI":"平通里","LIN":"8鄰","STREET":"國平路","SECT":" ","MAREA":" ","LANE":"５９１巷","ALLEY":" ","HOUSE_NO":"７２號","E_COORD97":164910.35000000001,"N_COORD97":2544159.6499999999,"ADDRESS":"國平路５９１巷７２號","OBJECTID":308412},"geometry":{"x":164910.35000000056,"y":2544159.6500000022}},{"attributes":{"ID":308421,"DIS_CODE":0,"TOWNNAME":"安平區","LI":"平通里","LIN":"8鄰","STREET":"國平路","SECT":" ","MAREA":" ","LANE":"５９１巷","ALLEY":" ","HOUSE_NO":"７４號","E_COORD97":164905.85000000001,"N_COORD97":2544160.3500000001,"ADDRESS":"國平路５９１巷７４號","OBJECTID":308413},"geometry":{"x":164905.84999999963,"y":2544160.3500000034}},{"attributes":{"ID":308422,"DIS_CODE":0,"TOWNNAME":"安平區","LI":"平通里","LIN":"8鄰","STREET":"國平路","SECT":" ","MAREA":" ","LANE":"５９１巷","ALLEY":" ","HOUSE_NO":"７６號","E_COORD97":164901.34,"N_COORD97":2544160.9100000001,"ADDRESS":"國平路５９１巷７６號","OBJECTID":308414},"geometry":{"x":164901.33999999985,"y":2544160.910000002}},{"attributes":{"ID":308423,"DIS_CODE":0,"TOWNNAME":"安平區","LI":"平通里","LIN":"8鄰","STREET":"國平路","SECT":" ","MAREA":" ","LANE":"５９１巷","ALLEY":" ","HOUSE_NO":"７８號","E_COORD97":164896.54999999999,"N_COORD97":2544161.3399999999,"ADDRESS":"國平路５９１巷７８號","OBJECTID":308415},"geometry":{"x":164896.54999999981,"y":2544161.3400000017}},{"attributes":{"ID":308424,"DIS_CODE":0,"TOWNNAME":"安平區","LI":"平通里","LIN":"8鄰","STREET":"國平路","SECT":" ","MAREA":" ","LANE":"５９１巷","ALLEY":" ","HOUSE_NO":"８０號","E_COORD97":164892.60000000001,"N_COORD97":2544161.8999999999,"ADDRESS":"國平路５９１巷８０號","OBJECTID":308416},"geometry":{"x":164892.59999999963,"y":2544161.9000000022}},{"attributes":{"ID":308425,"DIS_CODE":0,"TOWNNAME":"安平區","LI":"平通里","LIN":"8鄰","STREET":"國平路","SECT":" ","MAREA":" ","LANE":"５９１巷","ALLEY":" ","HOUSE_NO":"８５號","E_COORD97":164894.29000000001,"N_COORD97":2544133.8900000001,"ADDRESS":"國平路５９１巷８５號","OBJECTID":308417},"geometry":{"x":164894.29000000097,"y":2544133.8899999987}},{"attributes":{"ID":308426,"DIS_CODE":0,"TOWNNAME":"安平區","LI":"平通里","LIN":"8鄰","STREET":"國平路","SECT":" ","MAREA":" ","LANE":"５９１巷","ALLEY":" ","HOUSE_NO":"８９號","E_COORD97":164885.98000000001,"N_COORD97":2544134.4500000002,"ADDRESS":"國平路５９１巷８９號","OBJECTID":308418},"geometry":{"x":164885.98000000045,"y":2544134.4499999993}},{"attributes":{"ID":308427,"DIS_CODE":0,"TOWNNAME":"安平區","LI":"平通里","LIN":"8鄰","STREET":"國平路","SECT":" ","MAREA":" ","LANE":"５９１巷","ALLEY":" ","HOUSE_NO":"９１號","E_COORD97":164882.17000000001,"N_COORD97":2544135.0099999998,"ADDRESS":"國平路５９１巷９１號","OBJECTID":308419},"geometry":{"x":164882.16999999993,"y":2544135.0099999998}},{"attributes":{"ID":308428,"DIS_CODE":0,"TOWNNAME":"安平區","LI":"平通里","LIN":"8鄰","STREET":"國平路","SECT":" ","MAREA":" ","LANE":"５９１巷","ALLEY":" ","HOUSE_NO":"９３號","E_COORD97":164878.09,"N_COORD97":2544135.7200000002,"ADDRESS":"國平路５９１巷９３號","OBJECTID":308420},"geometry":{"x":164878.09000000171,"y":2544135.7200000025}},{"attributes":{"ID":308429,"DIS_CODE":0,"TOWNNAME":"安平區","LI":"平通里","LIN":"8鄰","STREET":"國平路","SECT":" ","MAREA":" ","LANE":"５９１巷","ALLEY":" ","HOUSE_NO":"９５號","E_COORD97":164873.85999999999,"N_COORD97":2544135.5800000001,"ADDRESS":"國平路５９１巷９５號","OBJECTID":308421},"geometry":{"x":164873.86000000127,"y":2544135.5800000038}},{"attributes":{"ID":308430,"DIS_CODE":0,"TOWNNAME":"安平區","LI":"平通里","LIN":"8鄰","STREET":"國平路","SECT":" ","MAREA":" ","LANE":"５９１巷","ALLEY":" ","HOUSE_NO":"９７號","E_COORD97":164869.20999999999,"N_COORD97":2544135.5800000001,"ADDRESS":"國平路５９１巷９７號","OBJECTID":308422},"geometry":{"x":164869.21000000089,"y":2544135.5800000038}},{"attributes":{"ID":308431,"DIS_CODE":0,"TOWNNAME":"安平區","LI":"平通里","LIN":"8鄰","STREET":"國平路","SECT":" ","MAREA":" ","LANE":"５９１巷","ALLEY":" ","HOUSE_NO":"９９號","E_COORD97":164865.82999999999,"N_COORD97":2544136.8399999999,"ADDRESS":"國平路５９１巷９９號","OBJECTID":308423},"geometry":{"x":164865.83000000007,"y":2544136.839999998}},{"attributes":{"ID":308432,"DIS_CODE":0,"TOWNNAME":"新營區","LI":"新東里","LIN":"8鄰","STREET":"東泰路","SECT":" ","MAREA":" ","LANE":"６巷","ALLEY":" ","HOUSE_NO":"３１號","E_COORD97":181211.97,"N_COORD97":2579445.2400000002,"ADDRESS":"東泰路６巷３１號","OBJECTID":308424},"geometry":{"x":181211.9700000016,"y":2579445.2400000002}},{"attributes":{"ID":308433,"DIS_CODE":0,"TOWNNAME":"北區","LI":"六甲里","LIN":"8鄰","STREET":"西門路","SECT":"四段","MAREA":" ","LANE":"２００巷","ALLEY":" ","HOUSE_NO":"１５號","E_COORD97":168946.78,"N_COORD97":2545670.1699999999,"ADDRESS":"西門路四段２００巷１５號","OBJECTID":308425},"geometry":{"x":168946.78000000026,"y":2545670.1699999999}},{"attributes":{"ID":308434,"DIS_CODE":0,"TOWNNAME":"北區","LI":"六甲里","LIN":"8鄰","STREET":"西門路","SECT":"四段","MAREA":" ","LANE":"２００巷","ALLEY":" ","HOUSE_NO":"１７號","E_COORD97":168971.53,"N_COORD97":2545662.9700000002,"ADDRESS":"西門路四段２００巷１７號","OBJECTID":308426},"geometry":{"x":168971.53000000119,"y":2545662.9700000044}},{"attributes":{"ID":308435,"DIS_CODE":0,"TOWNNAME":"北區","LI":"六甲里","LIN":"8鄰","STREET":"西門路","SECT":"四段","MAREA":" ","LANE":"２００巷","ALLEY":" ","HOUSE_NO":"１９號","E_COORD97":168979.76000000001,"N_COORD97":2545661.71,"ADDRESS":"西門路四段２００巷１９號","OBJECTID":308427},"geometry":{"x":168979.76000000071,"y":2545661.7100000028}},{"attributes":{"ID":308436,"DIS_CODE":0,"TOWNNAME":"北區","LI":"六甲里","LIN":"8鄰","STREET":"西門路","SECT":"四段","MAREA":" ","LANE":"２００巷","ALLEY":" ","HOUSE_NO":"２１號","E_COORD97":168981.66,"N_COORD97":2545671.8199999998,"ADDRESS":"西門路四段２００巷２１號","OBJECTID":308428},"geometry":{"x":168981.66000000015,"y":2545671.8200000003}},{"attributes":{"ID":308437,"DIS_CODE":0,"TOWNNAME":"北區","LI":"六甲里","LIN":"8鄰","STREET":"西門路","SECT":"四段","MAREA":" ","LANE":"２００巷","ALLEY":" ","HOUSE_NO":"２３號","E_COORD97":168975.12,"N_COORD97":2545673.5099999998,"ADDRESS":"西門路四段２００巷２３號","OBJECTID":308429},"geometry":{"x":168975.12000000011,"y":2545673.5099999998}},{"attributes":{"ID":308438,"DIS_CODE":0,"TOWNNAME":"中西區","LI":"郡王里","LIN":"17鄰","STREET":"南門路","SECT":" ","MAREA":" ","LANE":" ","ALLEY":" ","HOUSE_NO":"９９之８號","E_COORD97":168458.66,"N_COORD97":2543214.1299999999,"ADDRESS":"南門路９９之８號","OBJECTID":308430},"geometry":{"x":168458.66000000108,"y":2543214.129999999}},{"attributes":{"ID":308439,"DIS_CODE":0,"TOWNNAME":"中西區","LI":"郡王里","LIN":"17鄰","STREET":"南門路","SECT":" ","MAREA":" ","LANE":" ","ALLEY":" ","HOUSE_NO":"９９之９號","E_COORD97":168457.23999999999,"N_COORD97":2543208.4100000001,"ADDRESS":"南門路９９之９號","OBJECTID":308431},"geometry":{"x":168457.24000000022,"y":2543208.410000002}},{"attributes":{"ID":308440,"DIS_CODE":0,"TOWNNAME":"中西區","LI":"福安里","LIN":"17鄰","STREET":"友愛街","SECT":" ","MAREA":" ","LANE":" ","ALLEY":" ","HOUSE_NO":"８０之１號","E_COORD97":167963.840142,"N_COORD97":2543564.52618,"ADDRESS":"友愛街８０之１號","OBJECTID":308432},"geometry":{"x":167963.84014200047,"y":2543564.5261809994}},{"attributes":{"ID":308441,"DIS_CODE":0,"TOWNNAME":"歸仁區","LI":"新厝里","LIN":"27鄰","STREET":"中正五街","SECT":" ","MAREA":" ","LANE":"３７巷","ALLEY":" ","HOUSE_NO":"３號","E_COORD97":177035.874778,"N_COORD97":2540058.8142599999,"ADDRESS":"中正五街３７巷３號","OBJECTID":308433},"geometry":{"x":177035.87477799878,"y":2540058.8142610025}},{"attributes":{"ID":308442,"DIS_CODE":0,"TOWNNAME":"永康區","LI":"勝利里","LIN":"34鄰","STREET":"勝利街","SECT":" ","MAREA":" ","LANE":"１巷","ALLEY":" ","HOUSE_NO":"４５號十三樓之２","E_COORD97":170975.64000000001,"N_COORD97":2544680.54,"ADDRESS":"勝利街１巷４５號十三樓之２","OBJECTID":308434},"geometry":{"x":170975.6400000006,"y":2544680.5399999972}},{"attributes":{"ID":308443,"DIS_CODE":0,"TOWNNAME":"永康區","LI":"勝利里","LIN":"34鄰","STREET":"勝利街","SECT":" ","MAREA":" ","LANE":"１巷","ALLEY":" ","HOUSE_NO":"４６號十樓之１","E_COORD97":170989.26999999999,"N_COORD97":2544676.5499999998,"ADDRESS":"勝利街１巷４６號十樓之１","OBJECTID":308435},"geometry":{"x":170989.26999999955,"y":2544676.5500000026}},{"attributes":{"ID":308444,"DIS_CODE":0,"TOWNNAME":"北區","LI":"六甲里","LIN":"8鄰","STREET":"西門路","SECT":"四段","MAREA":" ","LANE":"２００巷","ALLEY":" ","HOUSE_NO":"９號","E_COORD97":168948.47,"N_COORD97":2545679.4399999999,"ADDRESS":"西門路四段２００巷９號","OBJECTID":308436},"geometry":{"x":168948.46999999974,"y":2545679.4400000013}},{"attributes":{"ID":308445,"DIS_CODE":0,"TOWNNAME":"北區","LI":"興北里","LIN":"8鄰","STREET":"公園北路","SECT":" ","MAREA":" ","LANE":"８８巷","ALLEY":" ","HOUSE_NO":"５５號","E_COORD97":169093.85999999999,"N_COORD97":2545159.6400000001,"ADDRESS":"公園北路８８巷５５號","OBJECTID":308437},"geometry":{"x":169093.86000000034,"y":2545159.6400000043}},{"attributes":{"ID":308446,"DIS_CODE":0,"TOWNNAME":"北區","LI":"興北里","LIN":"8鄰","STREET":"公園北路","SECT":" ","MAREA":" ","LANE":"８８巷","ALLEY":" ","HOUSE_NO":"５６號","E_COORD97":169115.26000000001,"N_COORD97":2545165.6000000001,"ADDRESS":"公園北路８８巷５６號","OBJECTID":308438},"geometry":{"x":169115.26000000071,"y":2545165.6000000034}},{"attributes":{"ID":308447,"DIS_CODE":0,"TOWNNAME":"北區","LI":"興北里","LIN":"8鄰","STREET":"公園北路","SECT":" ","MAREA":" ","LANE":"８８巷","ALLEY":" ","HOUSE_NO":"５７號","E_COORD97":169093.63,"N_COORD97":2545163.6699999999,"ADDRESS":"公園北路８８巷５７號","OBJECTID":308439},"geometry":{"x":169093.62999999989,"y":2545163.6700000018}},{"attributes":{"ID":308448,"DIS_CODE":0,"TOWNNAME":"北區","LI":"興北里","LIN":"8鄰","STREET":"公園北路","SECT":" ","MAREA":" ","LANE":"８８巷","ALLEY":" ","HOUSE_NO":"５７號之１","E_COORD97":169093.26000000001,"N_COORD97":2545168.8799999999,"ADDRESS":"公園北路８８巷５７號之１","OBJECTID":308440},"geometry":{"x":169093.26000000071,"y":2545168.879999999}},{"attributes":{"ID":308449,"DIS_CODE":0,"TOWNNAME":"北區","LI":"興北里","LIN":"8鄰","STREET":"公園北路","SECT":" ","MAREA":" ","LANE":"８８巷","ALLEY":" ","HOUSE_NO":"５８號","E_COORD97":169100.87,"N_COORD97":2545172.6099999999,"ADDRESS":"公園北路８８巷５８號","OBJECTID":308441},"geometry":{"x":169100.87000000197,"y":2545172.6100000013}},{"attributes":{"ID":308450,"DIS_CODE":0,"TOWNNAME":"北區","LI":"興北里","LIN":"8鄰","STREET":"公園北路","SECT":" ","MAREA":" ","LANE":"８８巷","ALLEY":" ","HOUSE_NO":"１０４號","E_COORD97":169177.44,"N_COORD97":2545257.25,"ADDRESS":"公園北路８８巷１０４號","OBJECTID":308442},"geometry":{"x":169177.44000000134,"y":2545257.2500000019}},{"attributes":{"ID":308451,"DIS_CODE":0,"TOWNNAME":"北區","LI":"興北里","LIN":"8鄰","STREET":"公園北路","SECT":" ","MAREA":" ","LANE":"８８巷","ALLEY":" ","HOUSE_NO":"１０６號","E_COORD97":169182.17999999999,"N_COORD97":2545255.3100000001,"ADDRESS":"公園北路８８巷１０６號","OBJECTID":308443},"geometry":{"x":169182.18000000063,"y":2545255.3100000005}},{"attributes":{"ID":308452,"DIS_CODE":0,"TOWNNAME":"北區","LI":"興北里","LIN":"8鄰","STREET":"公園北路","SECT":" ","MAREA":" ","LANE":"８８巷","ALLEY":" ","HOUSE_NO":"１０８號","E_COORD97":169188.63,"N_COORD97":2545254.6899999999,"ADDRESS":"公園北路８８巷１０８號","OBJECTID":308444},"geometry":{"x":169188.62999999896,"y":2545254.6900000013}},{"attributes":{"ID":308453,"DIS_CODE":0,"TOWNNAME":"北區","LI":"興北里","LIN":"8鄰","STREET":"公園北路","SECT":" ","MAREA":" ","LANE":"８８巷","ALLEY":" ","HOUSE_NO":"１１０號","E_COORD97":169194.92000000001,"N_COORD97":2545255,"ADDRESS":"公園北路８８巷１１０號","OBJECTID":308445},"geometry":{"x":169194.91999999993,"y":2545255.0000000037}},{"attributes":{"ID":308454,"DIS_CODE":0,"TOWNNAME":"北區","LI":"興北里","LIN":"8鄰","STREET":"公園北路","SECT":" ","MAREA":" ","LANE":"７８巷","ALLEY":" ","HOUSE_NO":"１０４號","E_COORD97":169310.92000000001,"N_COORD97":2545251.77,"ADDRESS":"公園北路７８巷１０４號","OBJECTID":308446},"geometry":{"x":169310.92000000086,"y":2545251.7699999996}},{"attributes":{"ID":308455,"DIS_CODE":0,"TOWNNAME":"東山區","LI":"南溪里","LIN":" ","STREET":" ","SECT":" ","MAREA":" ","LANE":"土窯巷","ALLEY":" ","HOUSE_NO":"６號","E_COORD97":188998.82000000001,"N_COORD97":2574523.4399999999,"ADDRESS":"土窯巷６號","OBJECTID":308447},"geometry":{"x":188998.8200000003,"y":2574523.4399999995}},{"attributes":{"ID":308456,"DIS_CODE":0,"TOWNNAME":"北區","LI":"興南里","LIN":"8鄰","STREET":"公園北路","SECT":" ","MAREA":" ","LANE":"１３６巷","ALLEY":" ","HOUSE_NO":"１０號","E_COORD97":168927.16,"N_COORD97":2545111.6899999999,"ADDRESS":"公園北路１３６巷１０號","OBJECTID":308448},"geometry":{"x":168927.16000000015,"y":2545111.6900000013}},{"attributes":{"ID":308457,"DIS_CODE":0,"TOWNNAME":"北區","LI":"興南里","LIN":"8鄰","STREET":"公園北路","SECT":" ","MAREA":" ","LANE":"１３６巷","ALLEY":" ","HOUSE_NO":"１號","E_COORD97":168898.57000000001,"N_COORD97":2545075.4199999999,"ADDRESS":"公園北路１３６巷１號","OBJECTID":308449},"geometry":{"x":168898.57000000123,"y":2545075.4199999999}},{"attributes":{"ID":308458,"DIS_CODE":0,"TOWNNAME":"北區","LI":"興南里","LIN":"8鄰","STREET":"公園北路","SECT":" ","MAREA":" ","LANE":"１３６巷","ALLEY":" ","HOUSE_NO":"１號之１","E_COORD97":168899.20000000001,"N_COORD97":2545080.4500000002,"ADDRESS":"公園北路１３６巷１號之１","OBJECTID":308450},"geometry":{"x":168899.20000000112,"y":2545080.4499999993}},{"attributes":{"ID":308459,"DIS_CODE":0,"TOWNNAME":"北區","LI":"興南里","LIN":"8鄰","STREET":"公園北路","SECT":" ","MAREA":" ","LANE":"１３６巷","ALLEY":" ","HOUSE_NO":"２號","E_COORD97":168916.32000000001,"N_COORD97":2545075.6800000002,"ADDRESS":"公園北路１３６巷２號","OBJECTID":308451},"geometry":{"x":168916.3200000003,"y":2545075.6799999997}},{"attributes":{"ID":308460,"DIS_CODE":0,"TOWNNAME":"北區","LI":"興南里","LIN":"8鄰","STREET":"公園北路","SECT":" ","MAREA":" ","LANE":"１３６巷","ALLEY":" ","HOUSE_NO":"３號","E_COORD97":168906.89999999999,"N_COORD97":2545088.3100000001,"ADDRESS":"公園北路１３６巷３號","OBJECTID":308452},"geometry":{"x":168906.90000000037,"y":2545088.3100000024}},{"attributes":{"ID":308461,"DIS_CODE":0,"TOWNNAME":"北區","LI":"興南里","LIN":"8鄰","STREET":"公園北路","SECT":" ","MAREA":" ","LANE":"１３６巷","ALLEY":" ","HOUSE_NO":"４號","E_COORD97":168918.37,"N_COORD97":2545084.8700000001,"ADDRESS":"公園北路１３６巷４號","OBJECTID":308453},"geometry":{"x":168918.37000000104,"y":2545084.8700000029}},{"attributes":{"ID":308462,"DIS_CODE":0,"TOWNNAME":"北區","LI":"興南里","LIN":"8鄰","STREET":"公園北路","SECT":" ","MAREA":" ","LANE":"１３６巷","ALLEY":" ","HOUSE_NO":"５號","E_COORD97":168907.35999999999,"N_COORD97":2545098.3900000001,"ADDRESS":"公園北路１３６巷５號","OBJECTID":308454},"geometry":{"x":168907.36000000034,"y":2545098.3900000025}},{"attributes":{"ID":308463,"DIS_CODE":0,"TOWNNAME":"北區","LI":"興南里","LIN":"8鄰","STREET":"公園北路","SECT":" ","MAREA":" ","LANE":"１３６巷","ALLEY":" ","HOUSE_NO":"６號","E_COORD97":168919.75,"N_COORD97":2545091.0600000001,"ADDRESS":"公園北路１３６巷６號","OBJECTID":308455},"geometry":{"x":168919.75,"y":2545091.0600000005}},{"attributes":{"ID":308464,"DIS_CODE":0,"TOWNNAME":"北區","LI":"興南里","LIN":"8鄰","STREET":"公園北路","SECT":" ","MAREA":" ","LANE":"１３６巷","ALLEY":" ","HOUSE_NO":"６號之１","E_COORD97":168923.19,"N_COORD97":2545094.96,"ADDRESS":"公園北路１３６巷６號之１","OBJECTID":308456},"geometry":{"x":168923.19000000134,"y":2545094.9600000028}},{"attributes":{"ID":308465,"DIS_CODE":0,"TOWNNAME":"北區","LI":"興南里","LIN":"8鄰","STREET":"公園北路","SECT":" ","MAREA":" ","LANE":"１４４巷","ALLEY":" ","HOUSE_NO":"１４號","E_COORD97":168905.76000000001,"N_COORD97":2545139.2999999998,"ADDRESS":"公園北路１４４巷１４號","OBJECTID":308457},"geometry":{"x":168905.75999999978,"y":2545139.3000000026}},{"attributes":{"ID":308466,"DIS_CODE":0,"TOWNNAME":"東區","LI":"富強里","LIN":"7鄰","STREET":"裕農路","SECT":" ","MAREA":" ","LANE":"４４６巷","ALLEY":" ","HOUSE_NO":"１２５號之１４","E_COORD97":171261.92000000001,"N_COORD97":2542940.79,"ADDRESS":"裕農路４４６巷１２５號之１４","OBJECTID":308458},"geometry":{"x":171261.92000000086,"y":2542940.790000001}},{"attributes":{"ID":308467,"DIS_CODE":0,"TOWNNAME":"中西區","LI":"福安里","LIN":"17鄰","STREET":"友愛街","SECT":" ","MAREA":" ","LANE":" ","ALLEY":" ","HOUSE_NO":"８０之２號","E_COORD97":167955.89106299999,"N_COORD97":2543566.4311799998,"ADDRESS":"友愛街８０之２號","OBJECTID":308459},"geometry":{"x":167955.89106300101,"y":2543566.4311800022}},{"attributes":{"ID":308468,"DIS_CODE":0,"TOWNNAME":"安南區","LI":"州南里","LIN":"17鄰","STREET":"安和路","SECT":"四段","MAREA":" ","LANE":" ","ALLEY":" ","HOUSE_NO":"３７３號","E_COORD97":169912.04999999999,"N_COORD97":2550984.7999999998,"ADDRESS":"安和路四段３７３號","OBJECTID":308460},"geometry":{"x":169912.05000000075,"y":2550984.8000000026}},{"attributes":{"ID":308469,"DIS_CODE":0,"TOWNNAME":"安南區","LI":"新順里","LIN":"17鄰","STREET":"慶安路","SECT":" ","MAREA":" ","LANE":" ","ALLEY":" ","HOUSE_NO":"１４６號","E_COORD97":169470.66,"N_COORD97":2549269.75,"ADDRESS":"慶安路１４６號","OBJECTID":308461},"geometry":{"x":169470.66000000108,"y":2549269.75}},{"attributes":{"ID":308470,"DIS_CODE":0,"TOWNNAME":"歸仁區","LI":"新厝里","LIN":"27鄰","STREET":"中正五街","SECT":" ","MAREA":" ","LANE":"３７巷","ALLEY":" ","HOUSE_NO":"５號","E_COORD97":177032.523579,"N_COORD97":2540062.1622600001,"ADDRESS":"中正五街３７巷５號","OBJECTID":308462},"geometry":{"x":177032.52357899956,"y":2540062.1622629985}},{"attributes":{"ID":308471,"DIS_CODE":0,"TOWNNAME":"永康區","LI":"勝利里","LIN":"20鄰","STREET":"勝學路","SECT":" ","MAREA":" ","LANE":"２６９巷","ALLEY":" ","HOUSE_NO":"２號六樓之８","E_COORD97":171173.42999999999,"N_COORD97":2545316.0499999998,"ADDRESS":"勝學路２６９巷２號六樓之８","OBJECTID":308463},"geometry":{"x":171173.43000000063,"y":2545316.0500000007}},{"attributes":{"ID":308472,"DIS_CODE":0,"TOWNNAME":"東區","LI":"和平里","LIN":"7鄰","STREET":"東門路","SECT":"三段","MAREA":" ","LANE":"２６２巷","ALLEY":" ","HOUSE_NO":"２號","E_COORD97":171641.25,"N_COORD97":2541829.98,"ADDRESS":"東門路三段２６２巷２號","OBJECTID":308464},"geometry":{"x":171641.25000000093,"y":2541829.9800000004}},{"attributes":{"ID":308473,"DIS_CODE":0,"TOWNNAME":"東區","LI":"和平里","LIN":"7鄰","STREET":"東門路","SECT":"三段","MAREA":" ","LANE":"２６２巷","ALLEY":" ","HOUSE_NO":"１號","E_COORD97":171647.76000000001,"N_COORD97":2541828.4199999999,"ADDRESS":"東門路三段２６２巷１號","OBJECTID":308465},"geometry":{"x":171647.76000000071,"y":2541828.4200000018}},{"attributes":{"ID":308474,"DIS_CODE":0,"TOWNNAME":"仁德區","LI":"仁德里","LIN":"7鄰","STREET":"仁德三街","SECT":" ","MAREA":" ","LANE":"１６巷","ALLEY":" ","HOUSE_NO":"５號","E_COORD97":173292.47,"N_COORD97":2541013.7599999998,"ADDRESS":"仁德三街１６巷５號","OBJECTID":308466},"geometry":{"x":173292.47000000067,"y":2541013.7599999998}},{"attributes":{"ID":308475,"DIS_CODE":0,"TOWNNAME":"東區","LI":"和平里","LIN":"7鄰","STREET":"東門路","SECT":"三段","MAREA":" ","LANE":"２６２巷","ALLEY":" ","HOUSE_NO":"４６號","E_COORD97":171640.57999999999,"N_COORD97":2541696.2200000002,"ADDRESS":"東門路三段２６２巷４６號","OBJECTID":308467},"geometry":{"x":171640.58000000194,"y":2541696.2200000007}},{"attributes":{"ID":308476,"DIS_CODE":0,"TOWNNAME":"東區","LI":"和平里","LIN":"7鄰","STREET":"東門路","SECT":"三段","MAREA":" ","LANE":"２６２巷","ALLEY":" ","HOUSE_NO":"４８號","E_COORD97":171639.5,"N_COORD97":2541680.7799999998,"ADDRESS":"東門路三段２６２巷４８號","OBJECTID":308468},"geometry":{"x":171639.50000000093,"y":2541680.7799999993}},{"attributes":{"ID":308477,"DIS_CODE":0,"TOWNNAME":"東區","LI":"和平里","LIN":"7鄰","STREET":"東門路","SECT":"三段","MAREA":" ","LANE":"２６２巷","ALLEY":" ","HOUSE_NO":"１７號","E_COORD97":171641.29999999999,"N_COORD97":2541769.1200000001,"ADDRESS":"東門路三段２６２巷１７號","OBJECTID":308469},"geometry":{"x":171641.29999999981,"y":2541769.120000001}},{"attributes":{"ID":308478,"DIS_CODE":0,"TOWNNAME":"東區","LI":"和平里","LIN":"7鄰","STREET":"東門路","SECT":"三段","MAREA":" ","LANE":"２６２巷","ALLEY":" ","HOUSE_NO":"１９號","E_COORD97":171641.66,"N_COORD97":2541737.1600000001,"ADDRESS":"東門路三段２６２巷１９號","OBJECTID":308470},"geometry":{"x":171641.65999999922,"y":2541737.1600000001}},{"attributes":{"ID":308479,"DIS_CODE":0,"TOWNNAME":"東區","LI":"虎尾里","LIN":"7鄰","STREET":"東成街","SECT":" ","MAREA":" ","LANE":"９８巷","ALLEY":" ","HOUSE_NO":"１７號","E_COORD97":171570.35000000001,"N_COORD97":2542235.7599999998,"ADDRESS":"東成街９８巷１７號","OBJECTID":308471},"geometry":{"x":171570.35000000149,"y":2542235.7600000035}},{"attributes":{"ID":308480,"DIS_CODE":0,"TOWNNAME":"東區","LI":"虎尾里","LIN":"7鄰","STREET":"東成街","SECT":" ","MAREA":" ","LANE":"９８巷","ALLEY":" ","HOUSE_NO":"２１號","E_COORD97":171565.73000000001,"N_COORD97":2542227.2799999998,"ADDRESS":"東成街９８巷２１號","OBJECTID":308472},"geometry":{"x":171565.73000000138,"y":2542227.2799999993}},{"attributes":{"ID":308481,"DIS_CODE":0,"TOWNNAME":"永康區","LI":"\u25A0行里","LIN":"7鄰","STREET":"中正路","SECT":" ","MAREA":" ","LANE":"７６４巷","ALLEY":" ","HOUSE_NO":"２０號","E_COORD97":172409.09,"N_COORD97":2548672.7400000002,"ADDRESS":"中正路７６４巷２０號","OBJECTID":308473},"geometry":{"x":172409.08999999985,"y":2548672.7400000021}},{"attributes":{"ID":308482,"DIS_CODE":0,"TOWNNAME":"永康區","LI":"新樹里","LIN":"7鄰","STREET":"西勢路","SECT":" ","MAREA":" ","LANE":"２２８巷","ALLEY":" ","HOUSE_NO":"３５號","E_COORD97":175742.81,"N_COORD97":2546894.3199999998,"ADDRESS":"西勢路２２８巷３５號","OBJECTID":308474},"geometry":{"x":175742.81000000052,"y":2546894.3200000022}},{"attributes":{"ID":308483,"DIS_CODE":0,"TOWNNAME":"永康區","LI":"新樹里","LIN":"7鄰","STREET":"西勢路","SECT":" ","MAREA":" ","LANE":"２２８巷","ALLEY":" ","HOUSE_NO":"４１號","E_COORD97":175743.89999999999,"N_COORD97":2546907.0699999998,"ADDRESS":"西勢路２２８巷４１號","OBJECTID":308475},"geometry":{"x":175743.90000000037,"y":2546907.0700000022}},{"attributes":{"ID":308484,"DIS_CODE":0,"TOWNNAME":"中西區","LI":"天后里","LIN":"7鄰","STREET":"西門路","SECT":"二段","MAREA":" ","LANE":"３００巷","ALLEY":" ","HOUSE_NO":"１０號","E_COORD97":168003.26000000001,"N_COORD97":2544125.7000000002,"ADDRESS":"西門路二段３００巷１０號","OBJECTID":308476},"geometry":{"x":168003.26000000071,"y":2544125.6999999993}},{"attributes":{"ID":308485,"DIS_CODE":0,"TOWNNAME":"中西區","LI":"天后里","LIN":"7鄰","STREET":"西門路","SECT":"二段","MAREA":" ","LANE":"３００巷","ALLEY":" ","HOUSE_NO":"１１號","E_COORD97":168014.67999999999,"N_COORD97":2544143.2200000002,"ADDRESS":"西門路二段３００巷１１號","OBJECTID":308477},"geometry":{"x":168014.6799999997,"y":2544143.2200000025}},{"attributes":{"ID":308486,"DIS_CODE":0,"TOWNNAME":"中西區","LI":"天后里","LIN":"7鄰","STREET":"西門路","SECT":"二段","MAREA":" ","LANE":"３００巷","ALLEY":" ","HOUSE_NO":"１３號","E_COORD97":168019.45000000001,"N_COORD97":2544142.7400000002,"ADDRESS":"西門路二段３００巷１３號","OBJECTID":308478},"geometry":{"x":168019.45000000112,"y":2544142.7400000021}},{"attributes":{"ID":308487,"DIS_CODE":0,"TOWNNAME":"中西區","LI":"天后里","LIN":"7鄰","STREET":"西門路","SECT":"二段","MAREA":" ","LANE":"３００巷","ALLEY":" ","HOUSE_NO":"１５號","E_COORD97":168021.84,"N_COORD97":2544136.3100000001,"ADDRESS":"西門路二段３００巷１５號","OBJECTID":308479},"geometry":{"x":168021.83999999985,"y":2544136.3100000005}},{"attributes":{"ID":308488,"DIS_CODE":0,"TOWNNAME":"中西區","LI":"天后里","LIN":"7鄰","STREET":"西門路","SECT":"二段","MAREA":" ","LANE":"３００巷","ALLEY":" ","HOUSE_NO":"１７號","E_COORD97":168024.45999999999,"N_COORD97":2544134.6400000001,"ADDRESS":"西門路二段３００巷１７號","OBJECTID":308480},"geometry":{"x":168024.46000000089,"y":2544134.6400000006}},{"attributes":{"ID":308489,"DIS_CODE":0,"TOWNNAME":"安南區","LI":"新順里","LIN":"17鄰","STREET":"慶安路","SECT":" ","MAREA":" ","LANE":" ","ALLEY":" ","HOUSE_NO":"１２８號","E_COORD97":169478.28,"N_COORD97":2549238.9500000002,"ADDRESS":"慶安路１２８號","OBJECTID":308481},"geometry":{"x":169478.28000000119,"y":2549238.9500000011}},{"attributes":{"ID":308490,"DIS_CODE":0,"TOWNNAME":"中西區","LI":"天后里","LIN":"7鄰","STREET":"西門路","SECT":"二段","MAREA":" ","LANE":"３００巷","ALLEY":" ","HOUSE_NO":"１９號","E_COORD97":168029.47,"N_COORD97":2544144.2599999998,"ADDRESS":"西門路二段３００巷１９號","OBJECTID":308482},"geometry":{"x":168029.46999999974,"y":2544144.2600000035}},{"attributes":{"ID":308491,"DIS_CODE":0,"TOWNNAME":"中西區","LI":"天后里","LIN":"7鄰","STREET":"西門路","SECT":"二段","MAREA":" ","LANE":"３００巷","ALLEY":" ","HOUSE_NO":"１號","E_COORD97":167991.54999999999,"N_COORD97":2544151.7999999998,"ADDRESS":"西門路二段３００巷１號","OBJECTID":308483},"geometry":{"x":167991.54999999981,"y":2544151.8000000045}},{"attributes":{"ID":308492,"DIS_CODE":0,"TOWNNAME":"中西區","LI":"天后里","LIN":"7鄰","STREET":"西門路","SECT":"二段","MAREA":" ","LANE":"３００巷","ALLEY":" ","HOUSE_NO":"２１號","E_COORD97":168029.60000000001,"N_COORD97":2544133,"ADDRESS":"西門路二段３００巷２１號","OBJECTID":308484},"geometry":{"x":168029.60000000056,"y":2544133.0000000037}},{"attributes":{"ID":308493,"DIS_CODE":0,"TOWNNAME":"中西區","LI":"天后里","LIN":"7鄰","STREET":"西門路","SECT":"二段","MAREA":" ","LANE":"３００巷","ALLEY":" ","HOUSE_NO":"２７號","E_COORD97":168034.29999999999,"N_COORD97":2544129.9199999999,"ADDRESS":"西門路二段３００巷２７號","OBJECTID":308485},"geometry":{"x":168034.29999999981,"y":2544129.9200000037}},{"attributes":{"ID":308494,"DIS_CODE":0,"TOWNNAME":"中西區","LI":"天后里","LIN":"7鄰","STREET":"西門路","SECT":"二段","MAREA":" ","LANE":"３００巷","ALLEY":" ","HOUSE_NO":"２８號","E_COORD97":168040.45999999999,"N_COORD97":2544110.5499999998,"ADDRESS":"西門路二段３００巷２８號","OBJECTID":308486},"geometry":{"x":168040.45999999996,"y":2544110.5500000026}},{"attributes":{"ID":308495,"DIS_CODE":0,"TOWNNAME":"中西區","LI":"天后里","LIN":"7鄰","STREET":"西門路","SECT":"二段","MAREA":" ","LANE":"３００巷","ALLEY":" ","HOUSE_NO":"２９號","E_COORD97":168039.13,"N_COORD97":2544128.98,"ADDRESS":"西門路二段３００巷２９號","OBJECTID":308487},"geometry":{"x":168039.12999999989,"y":2544128.9800000004}},{"attributes":{"ID":308496,"DIS_CODE":0,"TOWNNAME":"安南區","LI":"新順里","LIN":"17鄰","STREET":"慶安路","SECT":" ","MAREA":" ","LANE":" ","ALLEY":" ","HOUSE_NO":"１４２號","E_COORD97":169471.76999999999,"N_COORD97":2549265.2999999998,"ADDRESS":"慶安路１４２號","OBJECTID":308488},"geometry":{"x":169471.76999999955,"y":2549265.3000000026}},{"attributes":{"ID":308497,"DIS_CODE":0,"TOWNNAME":"安南區","LI":"新順里","LIN":"17鄰","STREET":"慶安路","SECT":" ","MAREA":" ","LANE":" ","ALLEY":" ","HOUSE_NO":"１４０號","E_COORD97":169472.56,"N_COORD97":2549260.8599999999,"ADDRESS":"慶安路１４０號","OBJECTID":308489},"geometry":{"x":169472.56000000052,"y":2549260.8600000013}},{"attributes":{"ID":308498,"DIS_CODE":0,"TOWNNAME":"永康區","LI":"勝利里","LIN":"34鄰","STREET":"勝利街","SECT":" ","MAREA":" ","LANE":"１巷","ALLEY":" ","HOUSE_NO":"４６號十四樓之２","E_COORD97":170990.66,"N_COORD97":2544676.5499999998,"ADDRESS":"勝利街１巷４６號十四樓之２","OBJECTID":308490},"geometry":{"x":170990.65999999922,"y":2544676.5500000026}},{"attributes":{"ID":308499,"DIS_CODE":0,"TOWNNAME":"永康區","LI":"勝利里","LIN":"34鄰","STREET":"勝利街","SECT":" ","MAREA":" ","LANE":"１巷","ALLEY":" ","HOUSE_NO":"４６號十二樓之２","E_COORD97":170990.66,"N_COORD97":2544676.5499999998,"ADDRESS":"勝利街１巷４６號十二樓之２","OBJECTID":308491},"geometry":{"x":170990.65999999922,"y":2544676.5500000026}},{"attributes":{"ID":308500,"DIS_CODE":0,"TOWNNAME":"永康區","LI":"復華里","LIN":"18鄰","STREET":"國華街","SECT":" ","MAREA":" ","LANE":"１０２巷","ALLEY":" ","HOUSE_NO":"５９號五樓之１","E_COORD97":172842.41,"N_COORD97":2546109.02,"ADDRESS":"國華街１０２巷５９號五樓之１","OBJECTID":308492},"geometry":{"x":172842.41000000108,"y":2546109.0200000014}},{"attributes":{"ID":308501,"DIS_CODE":0,"TOWNNAME":"永康區","LI":"勝利里","LIN":"20鄰","STREET":"勝學路","SECT":" ","MAREA":" ","LANE":"２６９巷","ALLEY":" ","HOUSE_NO":"２號四樓之５","E_COORD97":171173.44,"N_COORD97":2545316.0499999998,"ADDRESS":"勝學路２６９巷２號四樓之５","OBJECTID":308493},"geometry":{"x":171173.44000000041,"y":2545316.0500000007}},{"attributes":{"ID":308502,"DIS_CODE":0,"TOWNNAME":"永康區","LI":"勝利里","LIN":"34鄰","STREET":"勝利街","SECT":" ","MAREA":" ","LANE":"１巷","ALLEY":" ","HOUSE_NO":"４７號四樓之２","E_COORD97":170989.41,"N_COORD97":2544676.5499999998,"ADDRESS":"勝利街１巷４７號四樓之２","OBJECTID":308494},"geometry":{"x":170989.41000000108,"y":2544676.5500000026}},{"attributes":{"ID":308503,"DIS_CODE":0,"TOWNNAME":"永康區","LI":"勝利里","LIN":"34鄰","STREET":"勝利街","SECT":" ","MAREA":" ","LANE":"１巷","ALLEY":" ","HOUSE_NO":"４４號六樓之２","E_COORD97":170974.39000000001,"N_COORD97":2544680.54,"ADDRESS":"勝利街１巷４４號六樓之２","OBJECTID":308495},"geometry":{"x":170974.38999999966,"y":2544680.5399999972}},{"attributes":{"ID":308504,"DIS_CODE":0,"TOWNNAME":"中西區","LI":"天后里","LIN":"7鄰","STREET":"西門路","SECT":"二段","MAREA":" ","LANE":"３００巷","ALLEY":" ","HOUSE_NO":"２號","E_COORD97":167989.48000000001,"N_COORD97":2544130.1000000001,"ADDRESS":"西門路二段３００巷２號","OBJECTID":308496},"geometry":{"x":167989.48000000045,"y":2544130.0999999996}},{"attributes":{"ID":308505,"DIS_CODE":0,"TOWNNAME":"中西區","LI":"天后里","LIN":"7鄰","STREET":"西門路","SECT":"二段","MAREA":" ","LANE":"３００巷","ALLEY":" ","HOUSE_NO":"３０號","E_COORD97":168045.95999999999,"N_COORD97":2544109.7400000002,"ADDRESS":"西門路二段３００巷３０號","OBJECTID":308497},"geometry":{"x":168045.96000000089,"y":2544109.7400000002}},{"attributes":{"ID":308506,"DIS_CODE":0,"TOWNNAME":"中西區","LI":"天后里","LIN":"7鄰","STREET":"西門路","SECT":"二段","MAREA":" ","LANE":"３００巷","ALLEY":" ","HOUSE_NO":"３１號","E_COORD97":168041.67999999999,"N_COORD97":2544127.3700000001,"ADDRESS":"西門路二段３００巷３１號","OBJECTID":308498},"geometry":{"x":168041.6799999997,"y":2544127.370000001}},{"attributes":{"ID":308507,"DIS_CODE":0,"TOWNNAME":"中西區","LI":"天后里","LIN":"7鄰","STREET":"西門路","SECT":"二段","MAREA":" ","LANE":"３００巷","ALLEY":" ","HOUSE_NO":"３３號","E_COORD97":168045.29999999999,"N_COORD97":2544125.0899999999,"ADDRESS":"西門路二段３００巷３３號","OBJECTID":308499},"geometry":{"x":168045.30000000075,"y":2544125.0900000036}},{"attributes":{"ID":308508,"DIS_CODE":0,"TOWNNAME":"中西區","LI":"天后里","LIN":"7鄰","STREET":"西門路","SECT":"二段","MAREA":" ","LANE":"３００巷","ALLEY":" ","HOUSE_NO":"３５號","E_COORD97":168055.37,"N_COORD97":2544119.7200000002,"ADDRESS":"西門路二段３００巷３５號","OBJECTID":308500},"geometry":{"x":168055.37000000104,"y":2544119.7200000025}},{"attributes":{"ID":308509,"DIS_CODE":0,"TOWNNAME":"中西區","LI":"天后里","LIN":"7鄰","STREET":"西門路","SECT":"二段","MAREA":" ","LANE":"３００巷","ALLEY":" ","HOUSE_NO":"３號","E_COORD97":167997.26999999999,"N_COORD97":2544151.0800000001,"ADDRESS":"西門路二段３００巷３號","OBJECTID":308501},"geometry":{"x":167997.26999999862,"y":2544151.0800000001}},{"attributes":{"ID":308510,"DIS_CODE":0,"TOWNNAME":"中西區","LI":"天后里","LIN":"7鄰","STREET":"西門路","SECT":"二段","MAREA":" ","LANE":"３００巷","ALLEY":" ","HOUSE_NO":"５號","E_COORD97":168000.85000000001,"N_COORD97":2544150.6099999999,"ADDRESS":"西門路二段３００巷５號","OBJECTID":308502},"geometry":{"x":168000.85000000056,"y":2544150.6099999994}},{"attributes":{"ID":308511,"DIS_CODE":0,"TOWNNAME":"中西區","LI":"天后里","LIN":"7鄰","STREET":"西門路","SECT":"二段","MAREA":" ","LANE":"３００巷","ALLEY":" ","HOUSE_NO":"６號","E_COORD97":167993.89000000001,"N_COORD97":2544129.5499999998,"ADDRESS":"西門路二段３００巷６號","OBJECTID":308503},"geometry":{"x":167993.8900000006,"y":2544129.5499999989}},{"attributes":{"ID":308512,"DIS_CODE":0,"TOWNNAME":"中西區","LI":"天后里","LIN":"7鄰","STREET":"西門路","SECT":"二段","MAREA":" ","LANE":"３００巷","ALLEY":" ","HOUSE_NO":"７號","E_COORD97":168005.14000000001,"N_COORD97":2544146.79,"ADDRESS":"西門路二段３００巷７號","OBJECTID":308504},"geometry":{"x":168005.14000000153,"y":2544146.7900000028}},{"attributes":{"ID":308513,"DIS_CODE":0,"TOWNNAME":"安南區","LI":"城東里","LIN":"7鄰","STREET":"城北路","SECT":" ","MAREA":" ","LANE":"９８巷","ALLEY":" ","HOUSE_NO":"１２０號","E_COORD97":161220.57000000001,"N_COORD97":2551612.7599999998,"ADDRESS":"城北路９８巷１２０號","OBJECTID":308505},"geometry":{"x":161220.57000000216,"y":2551612.7599999998}},{"attributes":{"ID":308514,"DIS_CODE":0,"TOWNNAME":"中西區","LI":"文賢里","LIN":"7鄰","STREET":"和美街","SECT":" ","MAREA":" ","LANE":"５１巷","ALLEY":" ","HOUSE_NO":"１０號","E_COORD97":167061.53,"N_COORD97":2544806.8799999999,"ADDRESS":"和美街５１巷１０號","OBJECTID":308506},"geometry":{"x":167061.53000000026,"y":2544806.8799999971}},{"attributes":{"ID":308515,"DIS_CODE":0,"TOWNNAME":"中西區","LI":"文賢里","LIN":"7鄰","STREET":"和美街","SECT":" ","MAREA":" ","LANE":"５１巷","ALLEY":" ","HOUSE_NO":"１１號","E_COORD97":167059.32000000001,"N_COORD97":2544788.52,"ADDRESS":"和美街５１巷１１號","OBJECTID":308507},"geometry":{"x":167059.32000000123,"y":2544788.5199999996}},{"attributes":{"ID":308516,"DIS_CODE":0,"TOWNNAME":"中西區","LI":"文賢里","LIN":"7鄰","STREET":"和美街","SECT":" ","MAREA":" ","LANE":"５１巷","ALLEY":" ","HOUSE_NO":"１２號","E_COORD97":167058.20000000001,"N_COORD97":2544804.7000000002,"ADDRESS":"和美街５１巷１２號","OBJECTID":308508},"geometry":{"x":167058.20000000112,"y":2544804.6999999993}},{"attributes":{"ID":308517,"DIS_CODE":0,"TOWNNAME":"中西區","LI":"文賢里","LIN":"7鄰","STREET":"和美街","SECT":" ","MAREA":" ","LANE":"５１巷","ALLEY":" ","HOUSE_NO":"１３號","E_COORD97":167057.03,"N_COORD97":2544786.2400000002,"ADDRESS":"和美街５１巷１３號","OBJECTID":308509},"geometry":{"x":167057.03000000026,"y":2544786.2400000021}},{"attributes":{"ID":308518,"DIS_CODE":0,"TOWNNAME":"永康區","LI":"大橋里","LIN":"7鄰","STREET":"大橋三街","SECT":" ","MAREA":" ","LANE":"１９９巷","ALLEY":" ","HOUSE_NO":"５７號","E_COORD97":170919.92000000001,"N_COORD97":2546882.8999999999,"ADDRESS":"大橋三街１９９巷５７號","OBJECTID":308510},"geometry":{"x":170919.92000000086,"y":2546882.9000000004}},{"attributes":{"ID":308519,"DIS_CODE":0,"TOWNNAME":"安南區","LI":"新順里","LIN":"17鄰","STREET":"慶安路","SECT":" ","MAREA":" ","LANE":" ","ALLEY":" ","HOUSE_NO":"１３６號","E_COORD97":169475.89999999999,"N_COORD97":2549251.9700000002,"ADDRESS":"慶安路１３６號","OBJECTID":308511},"geometry":{"x":169475.9000000013,"y":2549251.9700000007}},{"attributes":{"ID":308520,"DIS_CODE":0,"TOWNNAME":"安南區","LI":"新順里","LIN":"17鄰","STREET":"慶安路","SECT":" ","MAREA":" ","LANE":" ","ALLEY":" ","HOUSE_NO":"１３２號","E_COORD97":169476.69,"N_COORD97":2549247.52,"ADDRESS":"慶安路１３２號","OBJECTID":308512},"geometry":{"x":169476.69000000041,"y":2549247.5199999996}},{"attributes":{"ID":308521,"DIS_CODE":0,"TOWNNAME":"安南區","LI":"新順里","LIN":"17鄰","STREET":"慶安路","SECT":" ","MAREA":" ","LANE":" ","ALLEY":" ","HOUSE_NO":"１３０號","E_COORD97":169477.48000000001,"N_COORD97":2549243.71,"ADDRESS":"慶安路１３０號","OBJECTID":308513},"geometry":{"x":169477.48000000138,"y":2549243.7100000009}},{"attributes":{"ID":308522,"DIS_CODE":0,"TOWNNAME":"安南區","LI":"新順里","LIN":"17鄰","STREET":"慶安路","SECT":" ","MAREA":" ","LANE":" ","ALLEY":" ","HOUSE_NO":"１２６號","E_COORD97":169479.70999999999,"N_COORD97":2549234.8199999998,"ADDRESS":"慶安路１２６號","OBJECTID":308514},"geometry":{"x":169479.70999999903,"y":2549234.8200000022}},{"attributes":{"ID":308523,"DIS_CODE":0,"TOWNNAME":"安南區","LI":"新順里","LIN":"17鄰","STREET":"慶安路","SECT":" ","MAREA":" ","LANE":" ","ALLEY":" ","HOUSE_NO":"１２２號","E_COORD97":169480.5,"N_COORD97":2549230.3799999999,"ADDRESS":"慶安路１２２號","OBJECTID":308515},"geometry":{"x":169480.5,"y":2549230.379999999}},{"attributes":{"ID":308524,"DIS_CODE":0,"TOWNNAME":"安南區","LI":"新順里","LIN":"17鄰","STREET":"慶安路","SECT":" ","MAREA":" ","LANE":" ","ALLEY":" ","HOUSE_NO":"１２０號","E_COORD97":169482.25,"N_COORD97":2549224.8199999998,"ADDRESS":"慶安路１２０號","OBJECTID":308516},"geometry":{"x":169482.25,"y":2549224.8200000022}},{"attributes":{"ID":308525,"DIS_CODE":0,"TOWNNAME":"中西區","LI":"西湖里","LIN":"7鄰","STREET":"民權路","SECT":"四段","MAREA":" ","LANE":"１１２巷","ALLEY":" ","HOUSE_NO":"１８號","E_COORD97":166279.92000000001,"N_COORD97":2544555.2000000002,"ADDRESS":"民權路四段１１２巷１８號","OBJECTID":308517},"geometry":{"x":166279.92000000086,"y":2544555.2000000011}},{"attributes":{"ID":308526,"DIS_CODE":0,"TOWNNAME":"中西區","LI":"西湖里","LIN":"7鄰","STREET":"民權路","SECT":"四段","MAREA":" ","LANE":"１１２巷","ALLEY":" ","HOUSE_NO":"１０號","E_COORD97":166280.41,"N_COORD97":2544533.0800000001,"ADDRESS":"民權路四段１１２巷１０號","OBJECTID":308518},"geometry":{"x":166280.41000000108,"y":2544533.0800000019}},{"attributes":{"ID":308527,"DIS_CODE":0,"TOWNNAME":"中西區","LI":"西湖里","LIN":"7鄰","STREET":"民權路","SECT":"四段","MAREA":" ","LANE":"１１２巷","ALLEY":" ","HOUSE_NO":"１２號","E_COORD97":166280.16,"N_COORD97":2544538.6699999999,"ADDRESS":"民權路四段１１２巷１２號","OBJECTID":308519},"geometry":{"x":166280.16000000108,"y":2544538.6700000018}},{"attributes":{"ID":308528,"DIS_CODE":0,"TOWNNAME":"中西區","LI":"西湖里","LIN":"7鄰","STREET":"民權路","SECT":"四段","MAREA":" ","LANE":"１１２巷","ALLEY":" ","HOUSE_NO":"１４號","E_COORD97":166279.92000000001,"N_COORD97":2544544.2599999998,"ADDRESS":"民權路四段１１２巷１４號","OBJECTID":308520},"geometry":{"x":166279.92000000086,"y":2544544.2600000035}},{"attributes":{"ID":308529,"DIS_CODE":0,"TOWNNAME":"中西區","LI":"西湖里","LIN":"7鄰","STREET":"民權路","SECT":"四段","MAREA":" ","LANE":"１１２巷","ALLEY":" ","HOUSE_NO":"１６號","E_COORD97":166279.92000000001,"N_COORD97":2544550.3399999999,"ADDRESS":"民權路四段１１２巷１６號","OBJECTID":308521},"geometry":{"x":166279.92000000086,"y":2544550.3399999999}},{"attributes":{"ID":308530,"DIS_CODE":0,"TOWNNAME":"中西區","LI":"西湖里","LIN":"7鄰","STREET":"民權路","SECT":"四段","MAREA":" ","LANE":"１１２巷","ALLEY":" ","HOUSE_NO":"２０號","E_COORD97":166279.67999999999,"N_COORD97":2544560.2999999998,"ADDRESS":"民權路四段１１２巷２０號","OBJECTID":308522},"geometry":{"x":166279.68000000063,"y":2544560.3000000026}},{"attributes":{"ID":308531,"DIS_CODE":0,"TOWNNAME":"中西區","LI":"西湖里","LIN":"7鄰","STREET":"民權路","SECT":"四段","MAREA":" ","LANE":"１１２巷","ALLEY":" ","HOUSE_NO":"２２號","E_COORD97":166279.67999999999,"N_COORD97":2544565.6499999999,"ADDRESS":"民權路四段１１２巷２２號","OBJECTID":308523},"geometry":{"x":166279.68000000063,"y":2544565.6500000004}},{"attributes":{"ID":308532,"DIS_CODE":0,"TOWNNAME":"中西區","LI":"西湖里","LIN":"7鄰","STREET":"民權路","SECT":"四段","MAREA":" ","LANE":"１１２巷","ALLEY":" ","HOUSE_NO":"２４號","E_COORD97":166279.67999999999,"N_COORD97":2544570.75,"ADDRESS":"民權路四段１１２巷２４號","OBJECTID":308524},"geometry":{"x":166279.68000000063,"y":2544570.75}},{"attributes":{"ID":308533,"DIS_CODE":0,"TOWNNAME":"中西區","LI":"西湖里","LIN":"7鄰","STREET":"民權路","SECT":"四段","MAREA":" ","LANE":"１１２巷","ALLEY":" ","HOUSE_NO":"２６號","E_COORD97":166279.19,"N_COORD97":2544576.8300000001,"ADDRESS":"民權路四段１１２巷２６號","OBJECTID":308525},"geometry":{"x":166279.19000000041,"y":2544576.8300000001}},{"attributes":{"ID":308534,"DIS_CODE":0,"TOWNNAME":"中西區","LI":"西湖里","LIN":"7鄰","STREET":"民權路","SECT":"四段","MAREA":" ","LANE":"１１２巷","ALLEY":" ","HOUSE_NO":"２８號","E_COORD97":166279.19,"N_COORD97":2544582.1699999999,"ADDRESS":"民權路四段１１２巷２８號","OBJECTID":308526},"geometry":{"x":166279.19000000041,"y":2544582.1699999981}},{"attributes":{"ID":308535,"DIS_CODE":0,"TOWNNAME":"中西區","LI":"西湖里","LIN":"7鄰","STREET":"民權路","SECT":"四段","MAREA":" ","LANE":"１１２巷","ALLEY":" ","HOUSE_NO":"３０號","E_COORD97":166278.70000000001,"N_COORD97":2544587.7599999998,"ADDRESS":"民權路四段１１２巷３０號","OBJECTID":308527},"geometry":{"x":166278.70000000112,"y":2544587.7599999998}},{"attributes":{"ID":308536,"DIS_CODE":0,"TOWNNAME":"東區","LI":"大智里","LIN":"21鄰","STREET":"崇善十五街","SECT":" ","MAREA":" ","LANE":"３３巷","ALLEY":" ","HOUSE_NO":"５６號六樓之２","E_COORD97":171313.64000000001,"N_COORD97":2540466.8500000001,"ADDRESS":"崇善十五街３３巷５６號六樓之２","OBJECTID":308528},"geometry":{"x":171313.63999999966,"y":2540466.8499999996}},{"attributes":{"ID":308537,"DIS_CODE":0,"TOWNNAME":"中西區","LI":"西湖里","LIN":"7鄰","STREET":"民權路","SECT":"四段","MAREA":" ","LANE":"１１２巷","ALLEY":" ","HOUSE_NO":"３２號","E_COORD97":166278.70000000001,"N_COORD97":2544593.1099999999,"ADDRESS":"民權路四段１１２巷３２號","OBJECTID":308529},"geometry":{"x":166278.70000000112,"y":2544593.1100000013}},{"attributes":{"ID":308538,"DIS_CODE":0,"TOWNNAME":"中西區","LI":"西湖里","LIN":"7鄰","STREET":"民權路","SECT":"四段","MAREA":" ","LANE":"１１２巷","ALLEY":" ","HOUSE_NO":"３４號","E_COORD97":166278.95000000001,"N_COORD97":2544598.7000000002,"ADDRESS":"民權路四段１１２巷３４號","OBJECTID":308530},"geometry":{"x":166278.95000000019,"y":2544598.700000003}},{"attributes":{"ID":308539,"DIS_CODE":0,"TOWNNAME":"中西區","LI":"西湖里","LIN":"7鄰","STREET":"民權路","SECT":"四段","MAREA":" ","LANE":"１１２巷","ALLEY":" ","HOUSE_NO":"３６號","E_COORD97":166279.19,"N_COORD97":2544604.5299999998,"ADDRESS":"民權路四段１１２巷３６號","OBJECTID":308531},"geometry":{"x":166279.19000000041,"y":2544604.5300000012}},{"attributes":{"ID":308540,"DIS_CODE":0,"TOWNNAME":"中西區","LI":"西湖里","LIN":"7鄰","STREET":"民權路","SECT":"四段","MAREA":" ","LANE":"１１２巷","ALLEY":" ","HOUSE_NO":"３８號","E_COORD97":166277.48999999999,"N_COORD97":2544618.1400000001,"ADDRESS":"民權路四段１１２巷３８號","OBJECTID":308532},"geometry":{"x":166277.49000000022,"y":2544618.1400000025}},{"attributes":{"ID":308541,"DIS_CODE":0,"TOWNNAME":"中西區","LI":"西湖里","LIN":"7鄰","STREET":"民權路","SECT":"四段","MAREA":" ","LANE":"１１２巷","ALLEY":" ","HOUSE_NO":"４０號","E_COORD97":166277,"N_COORD97":2544625.4300000002,"ADDRESS":"民權路四段１１２巷４０號","OBJECTID":308533},"geometry":{"x":166277,"y":2544625.4300000016}},{"attributes":{"ID":308542,"DIS_CODE":0,"TOWNNAME":"中西區","LI":"西湖里","LIN":"7鄰","STREET":"民權路","SECT":"四段","MAREA":" ","LANE":"１１２巷","ALLEY":" ","HOUSE_NO":"４２號","E_COORD97":166277.48999999999,"N_COORD97":2544631.5099999998,"ADDRESS":"民權路四段１１２巷４２號","OBJECTID":308534},"geometry":{"x":166277.49000000022,"y":2544631.5100000016}},{"attributes":{"ID":308543,"DIS_CODE":0,"TOWNNAME":"中西區","LI":"西湖里","LIN":"7鄰","STREET":"民權路","SECT":"四段","MAREA":" ","LANE":"１１２巷","ALLEY":" ","HOUSE_NO":"４４號","E_COORD97":166277.48999999999,"N_COORD97":2544635.8799999999,"ADDRESS":"民權路四段１１２巷４４號","OBJECTID":308535},"geometry":{"x":166277.49000000022,"y":2544635.8800000008}},{"attributes":{"ID":308544,"DIS_CODE":0,"TOWNNAME":"中西區","LI":"西湖里","LIN":"7鄰","STREET":"民權路","SECT":"四段","MAREA":" ","LANE":"１１２巷","ALLEY":" ","HOUSE_NO":"４６號","E_COORD97":166277,"N_COORD97":2544640.25,"ADDRESS":"民權路四段１１２巷４６號","OBJECTID":308536},"geometry":{"x":166277,"y":2544640.2500000019}},{"attributes":{"ID":308545,"DIS_CODE":0,"TOWNNAME":"中西區","LI":"西湖里","LIN":"7鄰","STREET":"民權路","SECT":"四段","MAREA":" ","LANE":"１１２巷","ALLEY":" ","HOUSE_NO":"４８號","E_COORD97":166276.76000000001,"N_COORD97":2544645.1200000001,"ADDRESS":"民權路四段１１２巷４８號","OBJECTID":308537},"geometry":{"x":166276.75999999978,"y":2544645.1200000048}},{"attributes":{"ID":308546,"DIS_CODE":0,"TOWNNAME":"中西區","LI":"西湖里","LIN":"7鄰","STREET":"民權路","SECT":"四段","MAREA":" ","LANE":"１１２巷","ALLEY":" ","HOUSE_NO":"５０號","E_COORD97":166276.76000000001,"N_COORD97":2544649.73,"ADDRESS":"民權路四段１１２巷５０號","OBJECTID":308538},"geometry":{"x":166276.75999999978,"y":2544649.7300000004}},{"attributes":{"ID":308547,"DIS_CODE":0,"TOWNNAME":"安南區","LI":"新順里","LIN":"17鄰","STREET":"頂安街","SECT":" ","MAREA":" ","LANE":" ","ALLEY":" ","HOUSE_NO":"８７號","E_COORD97":169444.29999999999,"N_COORD97":2549357.0600000001,"ADDRESS":"頂安街８７號","OBJECTID":308539},"geometry":{"x":169444.30000000075,"y":2549357.0600000005}},{"attributes":{"ID":308548,"DIS_CODE":0,"TOWNNAME":"東區","LI":"富裕里","LIN":"10鄰","STREET":"東門路","SECT":"二段","MAREA":" ","LANE":"３０１巷","ALLEY":" ","HOUSE_NO":"４１號五樓","E_COORD97":170794.62,"N_COORD97":2542728.1299999999,"ADDRESS":"東門路二段３０１巷４１號五樓","OBJECTID":308540},"geometry":{"x":170794.62000000104,"y":2542728.1300000008}},{"attributes":{"ID":308549,"DIS_CODE":0,"TOWNNAME":"東區","LI":"富裕里","LIN":"10鄰","STREET":"東門路","SECT":"二段","MAREA":" ","LANE":"３０１巷","ALLEY":" ","HOUSE_NO":"４１號二樓","E_COORD97":170794.62,"N_COORD97":2542728.1299999999,"ADDRESS":"東門路二段３０１巷４１號二樓","OBJECTID":308541},"geometry":{"x":170794.62000000104,"y":2542728.1300000008}},{"attributes":{"ID":308550,"DIS_CODE":0,"TOWNNAME":"東區","LI":"富裕里","LIN":"10鄰","STREET":"東門路","SECT":"二段","MAREA":" ","LANE":"３０１巷","ALLEY":" ","HOUSE_NO":"４１號三樓","E_COORD97":170794.62,"N_COORD97":2542728.1299999999,"ADDRESS":"東門路二段３０１巷４１號三樓","OBJECTID":308542},"geometry":{"x":170794.62000000104,"y":2542728.1300000008}},{"attributes":{"ID":308551,"DIS_CODE":0,"TOWNNAME":"中西區","LI":"西湖里","LIN":"7鄰","STREET":"民權路","SECT":"四段","MAREA":" ","LANE":"１１２巷","ALLEY":" ","HOUSE_NO":"５２號","E_COORD97":166276.51999999999,"N_COORD97":2544654.5899999999,"ADDRESS":"民權路四段１１２巷５２號","OBJECTID":308543},"geometry":{"x":166276.51999999955,"y":2544654.5900000017}},{"attributes":{"ID":308552,"DIS_CODE":0,"TOWNNAME":"新市區","LI":"新和里","LIN":"7鄰","STREET":"信義街","SECT":" ","MAREA":" ","LANE":"７巷","ALLEY":" ","HOUSE_NO":"７號","E_COORD97":177219.66,"N_COORD97":2552490.9100000001,"ADDRESS":"信義街７巷７號","OBJECTID":308544},"geometry":{"x":177219.66000000108,"y":2552490.9100000039}},{"attributes":{"ID":308553,"DIS_CODE":0,"TOWNNAME":"中西區","LI":"西湖里","LIN":"7鄰","STREET":"民權路","SECT":"四段","MAREA":" ","LANE":"１１２巷","ALLEY":" ","HOUSE_NO":"５４號","E_COORD97":166276.76000000001,"N_COORD97":2544658.9700000002,"ADDRESS":"民權路四段１１２巷５４號","OBJECTID":308545},"geometry":{"x":166276.75999999978,"y":2544658.9699999988}},{"attributes":{"ID":308554,"DIS_CODE":0,"TOWNNAME":"中西區","LI":"西湖里","LIN":"7鄰","STREET":"民權路","SECT":"四段","MAREA":" ","LANE":"１１２巷","ALLEY":" ","HOUSE_NO":"５６號","E_COORD97":166276.51999999999,"N_COORD97":2544663.5800000001,"ADDRESS":"民權路四段１１２巷５６號","OBJECTID":308546},"geometry":{"x":166276.51999999955,"y":2544663.5800000001}},{"attributes":{"ID":308555,"DIS_CODE":0,"TOWNNAME":"中西區","LI":"西湖里","LIN":"7鄰","STREET":"民權路","SECT":"四段","MAREA":" ","LANE":"１１２巷","ALLEY":" ","HOUSE_NO":"５８號","E_COORD97":166276.03,"N_COORD97":2544668.2000000002,"ADDRESS":"民權路四段１１２巷５８號","OBJECTID":308547},"geometry":{"x":166276.03000000119,"y":2544668.1999999993}},{"attributes":{"ID":308556,"DIS_CODE":0,"TOWNNAME":"中西區","LI":"西湖里","LIN":"7鄰","STREET":"民權路","SECT":"四段","MAREA":" ","LANE":"１１２巷","ALLEY":" ","HOUSE_NO":"６２號","E_COORD97":166275.29999999999,"N_COORD97":2544683.5099999998,"ADDRESS":"民權路四段１１２巷６２號","OBJECTID":308548},"geometry":{"x":166275.30000000168,"y":2544683.5099999998}},{"attributes":{"ID":308557,"DIS_CODE":0,"TOWNNAME":"中西區","LI":"西湖里","LIN":"7鄰","STREET":"民權路","SECT":"四段","MAREA":" ","LANE":"１１２巷","ALLEY":" ","HOUSE_NO":"６４號","E_COORD97":166275.06,"N_COORD97":2544687.8900000001,"ADDRESS":"民權路四段１１２巷６４號","OBJECTID":308549},"geometry":{"x":166275.06000000052,"y":2544687.8900000025}},{"attributes":{"ID":308558,"DIS_CODE":0,"TOWNNAME":"中西區","LI":"西湖里","LIN":"7鄰","STREET":"民權路","SECT":"四段","MAREA":" ","LANE":"１１２巷","ALLEY":" ","HOUSE_NO":"６６號","E_COORD97":166273.29000000001,"N_COORD97":2544693.0899999999,"ADDRESS":"民權路四段１１２巷６６號","OBJECTID":308550},"geometry":{"x":166273.29000000004,"y":2544693.0899999999}},{"attributes":{"ID":308559,"DIS_CODE":0,"TOWNNAME":"中西區","LI":"西湖里","LIN":"7鄰","STREET":"民權路","SECT":"四段","MAREA":" ","LANE":"１１２巷","ALLEY":" ","HOUSE_NO":"６８號","E_COORD97":166274.01999999999,"N_COORD97":2544697.7000000002,"ADDRESS":"民權路四段１１２巷６８號","OBJECTID":308551},"geometry":{"x":166274.02000000048,"y":2544697.7000000011}},{"attributes":{"ID":308560,"DIS_CODE":0,"TOWNNAME":"中西區","LI":"西湖里","LIN":"7鄰","STREET":"民權路","SECT":"四段","MAREA":" ","LANE":"１１２巷","ALLEY":" ","HOUSE_NO":"７０號","E_COORD97":166274.75,"N_COORD97":2544702.8100000001,"ADDRESS":"民權路四段１１２巷７０號","OBJECTID":308552},"geometry":{"x":166274.75000000093,"y":2544702.8100000005}},{"attributes":{"ID":308561,"DIS_CODE":0,"TOWNNAME":"中西區","LI":"西湖里","LIN":"7鄰","STREET":"民權路","SECT":"四段","MAREA":" ","LANE":"１１２巷","ALLEY":" ","HOUSE_NO":"７２號","E_COORD97":166274.26999999999,"N_COORD97":2544707.4199999999,"ADDRESS":"民權路四段１１２巷７２號","OBJECTID":308553},"geometry":{"x":166274.26999999955,"y":2544707.4200000018}},{"attributes":{"ID":308562,"DIS_CODE":0,"TOWNNAME":"中西區","LI":"西湖里","LIN":"7鄰","STREET":"民權路","SECT":"四段","MAREA":" ","LANE":"１１２巷","ALLEY":" ","HOUSE_NO":"８號","E_COORD97":166281.38,"N_COORD97":2544527.7400000002,"ADDRESS":"民權路四段１１２巷８號","OBJECTID":308554},"geometry":{"x":166281.37999999896,"y":2544527.7400000002}},{"attributes":{"ID":308563,"DIS_CODE":0,"TOWNNAME":"新營區","LI":"民榮里","LIN":"25鄰","STREET":"新進路","SECT":"二段","MAREA":" ","LANE":" ","ALLEY":" ","HOUSE_NO":"１３７號","E_COORD97":179382.26000000001,"N_COORD97":2577714.0600000001,"ADDRESS":"新進路二段１３７號","OBJECTID":308555},"geometry":{"x":179382.25999999978,"y":2577714.0600000005}},{"attributes":{"ID":308564,"DIS_CODE":0,"TOWNNAME":"安南區","LI":"州南里","LIN":"17鄰","STREET":"安和路","SECT":"四段","MAREA":" ","LANE":" ","ALLEY":" ","HOUSE_NO":"３０７之７號","E_COORD97":169915.62,"N_COORD97":2550833.3999999999,"ADDRESS":"安和路四段３０７之７號","OBJECTID":308556},"geometry":{"x":169915.62000000011,"y":2550833.4000000041}},{"attributes":{"ID":308565,"DIS_CODE":0,"TOWNNAME":"北區","LI":"公園里","LIN":"17鄰","STREET":"成功路","SECT":" ","MAREA":" ","LANE":" ","ALLEY":" ","HOUSE_NO":"５０號五樓","E_COORD97":168765.81,"N_COORD97":2544291.5699999998,"ADDRESS":"成功路５０號五樓","OBJECTID":308557},"geometry":{"x":168765.81000000052,"y":2544291.5700000003}},{"attributes":{"ID":308566,"DIS_CODE":0,"TOWNNAME":"仁德區","LI":"仁德里","LIN":"7鄰","STREET":"仁德三街","SECT":" ","MAREA":" ","LANE":"６０巷","ALLEY":" ","HOUSE_NO":"１號","E_COORD97":173164.04000000001,"N_COORD97":2541003.2599999998,"ADDRESS":"仁德三街６０巷１號","OBJECTID":308558},"geometry":{"x":173164.04000000004,"y":2541003.2599999998}},{"attributes":{"ID":308567,"DIS_CODE":0,"TOWNNAME":"仁德區","LI":"太子里","LIN":"7鄰","STREET":"太子路","SECT":" ","MAREA":" ","LANE":"１９０巷","ALLEY":" ","HOUSE_NO":"２之１５號","E_COORD97":174340.42999999999,"N_COORD97":2543580.29,"ADDRESS":"太子路１９０巷２之１５號","OBJECTID":308559},"geometry":{"x":174340.43000000063,"y":2543580.2899999991}},{"attributes":{"ID":308568,"DIS_CODE":0,"TOWNNAME":"仁德區","LI":"仁德里","LIN":"7鄰","STREET":"仁德三街","SECT":" ","MAREA":" ","LANE":"２６巷","ALLEY":" ","HOUSE_NO":"３號","E_COORD97":173260.06,"N_COORD97":2541027.27,"ADDRESS":"仁德三街２６巷３號","OBJECTID":308560},"geometry":{"x":173260.05999999959,"y":2541027.2699999996}},{"attributes":{"ID":308569,"DIS_CODE":0,"TOWNNAME":"仁德區","LI":"大甲里","LIN":"7鄰","STREET":"行大街","SECT":" ","MAREA":" ","LANE":"３０７巷","ALLEY":" ","HOUSE_NO":"２８號","E_COORD97":169659.48999999999,"N_COORD97":2535076.7400000002,"ADDRESS":"行大街３０７巷２８號","OBJECTID":308561},"geometry":{"x":169659.48999999929,"y":2535076.7400000021}},{"attributes":{"ID":308570,"DIS_CODE":0,"TOWNNAME":"仁德區","LI":"土庫里","LIN":"7鄰","STREET":"土庫路","SECT":" ","MAREA":" ","LANE":"６８巷","ALLEY":" ","HOUSE_NO":"６號","E_COORD97":174264.13,"N_COORD97":2543160.2400000002,"ADDRESS":"土庫路６８巷６號","OBJECTID":308562},"geometry":{"x":174264.13000000175,"y":2543160.2400000002}},{"attributes":{"ID":308571,"DIS_CODE":0,"TOWNNAME":"仁德區","LI":"土庫里","LIN":"7鄰","STREET":"土庫路","SECT":" ","MAREA":" ","LANE":"６８巷","ALLEY":" ","HOUSE_NO":"２號","E_COORD97":174266.04000000001,"N_COORD97":2543164.7400000002,"ADDRESS":"土庫路６８巷２號","OBJECTID":308563},"geometry":{"x":174266.04000000004,"y":2543164.7400000002}},{"attributes":{"ID":308572,"DIS_CODE":0,"TOWNNAME":"仁德區","LI":"大甲里","LIN":"7鄰","STREET":"行大街","SECT":" ","MAREA":" ","LANE":"３０７巷","ALLEY":" ","HOUSE_NO":"３０號","E_COORD97":169659.92999999999,"N_COORD97":2535086.4900000002,"ADDRESS":"行大街３０７巷３０號","OBJECTID":308564},"geometry":{"x":169659.93000000063,"y":2535086.4900000002}},{"attributes":{"ID":308573,"DIS_CODE":0,"TOWNNAME":"仁德區","LI":"田厝里","LIN":"7鄰","STREET":"中正路","SECT":"一段","MAREA":" ","LANE":"５９９巷","ALLEY":" ","HOUSE_NO":"１１號","E_COORD97":172867.04000000001,"N_COORD97":2537819.2799999998,"ADDRESS":"中正路一段５９９巷１１號","OBJECTID":308565},"geometry":{"x":172867.04000000097,"y":2537819.2799999993}},{"attributes":{"ID":308574,"DIS_CODE":0,"TOWNNAME":"安南區","LI":"國安里","LIN":"7鄰","STREET":"國安街","SECT":" ","MAREA":" ","LANE":"２１０巷","ALLEY":" ","HOUSE_NO":"１３２號","E_COORD97":166553.69,"N_COORD97":2547308.54,"ADDRESS":"國安街２１０巷１３２號","OBJECTID":308566},"geometry":{"x":166553.69000000134,"y":2547308.5400000028}},{"attributes":{"ID":308575,"DIS_CODE":0,"TOWNNAME":"東區","LI":"圍下里","LIN":"7鄰","STREET":"前鋒路","SECT":" ","MAREA":" ","LANE":"６０巷","ALLEY":" ","HOUSE_NO":"８號之１","E_COORD97":169357.10000000001,"N_COORD97":2543590.1499999999,"ADDRESS":"前鋒路６０巷８號之１","OBJECTID":308567},"geometry":{"x":169357.10000000056,"y":2543590.1500000022}},{"attributes":{"ID":308576,"DIS_CODE":0,"TOWNNAME":"東區","LI":"圍下里","LIN":"7鄰","STREET":"前鋒路","SECT":" ","MAREA":" ","LANE":"６０巷","ALLEY":" ","HOUSE_NO":"８號之２","E_COORD97":169356.17999999999,"N_COORD97":2543595.7999999998,"ADDRESS":"前鋒路６０巷８號之２","OBJECTID":308568},"geometry":{"x":169356.18000000063,"y":2543595.8000000045}},{"attributes":{"ID":308577,"DIS_CODE":0,"TOWNNAME":"東區","LI":"圍下里","LIN":"7鄰","STREET":"前鋒路","SECT":" ","MAREA":" ","LANE":"６０巷","ALLEY":" ","HOUSE_NO":"８號之３","E_COORD97":169355.87,"N_COORD97":2543601.6499999999,"ADDRESS":"前鋒路６０巷８號之３","OBJECTID":308569},"geometry":{"x":169355.87000000104,"y":2543601.6500000004}},{"attributes":{"ID":308578,"DIS_CODE":0,"TOWNNAME":"東區","LI":"圍下里","LIN":"7鄰","STREET":"前鋒路","SECT":" ","MAREA":" ","LANE":"６０巷","ALLEY":" ","HOUSE_NO":"８號之４","E_COORD97":169355.57000000001,"N_COORD97":2543606.7200000002,"ADDRESS":"前鋒路６０巷８號之４","OBJECTID":308570},"geometry":{"x":169355.56999999937,"y":2543606.7200000044}},{"attributes":{"ID":308579,"DIS_CODE":0,"TOWNNAME":"東區","LI":"圍下里","LIN":"7鄰","STREET":"前鋒路","SECT":" ","MAREA":" ","LANE":"６０巷","ALLEY":" ","HOUSE_NO":"８號之５","E_COORD97":169354.75,"N_COORD97":2543612.3700000001,"ADDRESS":"前鋒路６０巷８號之５","OBJECTID":308571},"geometry":{"x":169354.75000000093,"y":2543612.3699999992}},{"attributes":{"ID":308580,"DIS_CODE":0,"TOWNNAME":"東區","LI":"忠孝里","LIN":"7鄰","STREET":"榮譽街","SECT":" ","MAREA":" ","LANE":"８４巷","ALLEY":" ","HOUSE_NO":"１０１號之１","E_COORD97":169847.41,"N_COORD97":2541620.1099999999,"ADDRESS":"榮譽街８４巷１０１號之１","OBJECTID":308572},"geometry":{"x":169847.41000000015,"y":2541620.1100000013}},{"attributes":{"ID":308581,"DIS_CODE":0,"TOWNNAME":"安南區","LI":"佃東里","LIN":"7鄰","STREET":"公學路","SECT":"四段","MAREA":" ","LANE":"１２２巷","ALLEY":" ","HOUSE_NO":"７９號","E_COORD97":165576.28,"N_COORD97":2552209.1299999999,"ADDRESS":"公學路四段１２２巷７９號","OBJECTID":308573},"geometry":{"x":165576.28000000119,"y":2552209.129999999}},{"attributes":{"ID":308582,"DIS_CODE":0,"TOWNNAME":"安南區","LI":"佃東里","LIN":"7鄰","STREET":"公學路","SECT":"四段","MAREA":" ","LANE":"１２２巷","ALLEY":" ","HOUSE_NO":"８１號","E_COORD97":165576.56,"N_COORD97":2552224.5699999998,"ADDRESS":"公學路四段１２２巷８１號","OBJECTID":308574},"geometry":{"x":165576.56000000145,"y":2552224.5700000003}},{"attributes":{"ID":308583,"DIS_CODE":0,"TOWNNAME":"東山區","LI":"南溪里","LIN":" ","STREET":" ","SECT":" ","MAREA":" ","LANE":"土窯巷","ALLEY":" ","HOUSE_NO":"８號","E_COORD97":189001.32000000001,"N_COORD97":2574515.6000000001,"ADDRESS":"土窯巷８號","OBJECTID":308575},"geometry":{"x":189001.32000000216,"y":2574515.5999999996}},{"attributes":{"ID":308584,"DIS_CODE":0,"TOWNNAME":"安南區","LI":"佃東里","LIN":"7鄰","STREET":"公學路","SECT":"四段","MAREA":" ","LANE":"１２２巷","ALLEY":" ","HOUSE_NO":"８３號","E_COORD97":165575.70000000001,"N_COORD97":2552239.4399999999,"ADDRESS":"公學路四段１２２巷８３號","OBJECTID":308576},"geometry":{"x":165575.70000000019,"y":2552239.4400000013}},{"attributes":{"ID":308585,"DIS_CODE":0,"TOWNNAME":"安南區","LI":"國安里","LIN":"7鄰","STREET":"國安街","SECT":" ","MAREA":" ","LANE":"２１０巷","ALLEY":" ","HOUSE_NO":"１００號","E_COORD97":166571.51999999999,"N_COORD97":2547216.25,"ADDRESS":"國安街２１０巷１００號","OBJECTID":308577},"geometry":{"x":166571.51999999955,"y":2547216.2500000037}},{"attributes":{"ID":308586,"DIS_CODE":0,"TOWNNAME":"安南區","LI":"國安里","LIN":"7鄰","STREET":"國安街","SECT":" ","MAREA":" ","LANE":"２１０巷","ALLEY":" ","HOUSE_NO":"１０２號","E_COORD97":166565.12,"N_COORD97":2547234.4100000001,"ADDRESS":"國安街２１０巷１０２號","OBJECTID":308578},"geometry":{"x":166565.12000000104,"y":2547234.4100000001}},{"attributes":{"ID":308587,"DIS_CODE":0,"TOWNNAME":"安南區","LI":"淵東里","LIN":"17鄰","STREET":"仁安路","SECT":" ","MAREA":" ","LANE":" ","ALLEY":" ","HOUSE_NO":"１４０號","E_COORD97":165699.73000000001,"N_COORD97":2550136.8500000001,"ADDRESS":"仁安路１４０號","OBJECTID":308579},"geometry":{"x":165699.73000000045,"y":2550136.8499999996}},{"attributes":{"ID":308588,"DIS_CODE":0,"TOWNNAME":"安南區","LI":"國安里","LIN":"7鄰","STREET":"國安街","SECT":" ","MAREA":" ","LANE":"２１０巷","ALLEY":" ","HOUSE_NO":"１０８號","E_COORD97":166566.14999999999,"N_COORD97":2547256.6099999999,"ADDRESS":"國安街２１０巷１０８號","OBJECTID":308580},"geometry":{"x":166566.15000000037,"y":2547256.6099999994}},{"attributes":{"ID":308589,"DIS_CODE":0,"TOWNNAME":"安南區","LI":"國安里","LIN":"7鄰","STREET":"國安街","SECT":" ","MAREA":" ","LANE":"２１０巷","ALLEY":" ","HOUSE_NO":"１１０號","E_COORD97":166564.59,"N_COORD97":2547261.0899999999,"ADDRESS":"國安街２１０巷１１０號","OBJECTID":308581},"geometry":{"x":166564.58999999985,"y":2547261.089999998}},{"attributes":{"ID":308590,"DIS_CODE":0,"TOWNNAME":"安南區","LI":"國安里","LIN":"7鄰","STREET":"國安街","SECT":" ","MAREA":" ","LANE":"２１０巷","ALLEY":" ","HOUSE_NO":"１１４號","E_COORD97":166562.03,"N_COORD97":2547270.4100000001,"ADDRESS":"國安街２１０巷１１４號","OBJECTID":308582},"geometry":{"x":166562.03000000026,"y":2547270.410000002}},{"attributes":{"ID":308591,"DIS_CODE":0,"TOWNNAME":"安南區","LI":"國安里","LIN":"7鄰","STREET":"國安街","SECT":" ","MAREA":" ","LANE":"２１０巷","ALLEY":" ","HOUSE_NO":"１１６號","E_COORD97":166561.29000000001,"N_COORD97":2547274.6699999999,"ADDRESS":"國安街２１０巷１１６號","OBJECTID":308583},"geometry":{"x":166561.29000000004,"y":2547274.6700000018}},{"attributes":{"ID":308592,"DIS_CODE":0,"TOWNNAME":"安南區","LI":"國安里","LIN":"7鄰","STREET":"國安街","SECT":" ","MAREA":" ","LANE":"２１０巷","ALLEY":" ","HOUSE_NO":"１１８號","E_COORD97":166560.64999999999,"N_COORD97":2547278.5099999998,"ADDRESS":"國安街２１０巷１１８號","OBJECTID":308584},"geometry":{"x":166560.6500000013,"y":2547278.5099999979}},{"attributes":{"ID":308593,"DIS_CODE":0,"TOWNNAME":"安南區","LI":"國安里","LIN":"7鄰","STREET":"國安街","SECT":" ","MAREA":" ","LANE":"２１０巷","ALLEY":" ","HOUSE_NO":"１２４號","E_COORD97":166557.54000000001,"N_COORD97":2547291.1299999999,"ADDRESS":"國安街２１０巷１２４號","OBJECTID":308585},"geometry":{"x":166557.54000000097,"y":2547291.1300000008}},{"attributes":{"ID":308594,"DIS_CODE":0,"TOWNNAME":"安南區","LI":"國安里","LIN":"7鄰","STREET":"國安街","SECT":" ","MAREA":" ","LANE":"２１０巷","ALLEY":" ","HOUSE_NO":"１２６號","E_COORD97":166556.79999999999,"N_COORD97":2547295.4700000002,"ADDRESS":"國安街２１０巷１２６號","OBJECTID":308586},"geometry":{"x":166556.80000000075,"y":2547295.4700000007}},{"attributes":{"ID":308595,"DIS_CODE":0,"TOWNNAME":"安南區","LI":"國安里","LIN":"7鄰","STREET":"國安街","SECT":" ","MAREA":" ","LANE":"２１０巷","ALLEY":" ","HOUSE_NO":"１２８號","E_COORD97":166555.60999999999,"N_COORD97":2547300.04,"ADDRESS":"國安街２１０巷１２８號","OBJECTID":308587},"geometry":{"x":166555.61000000127,"y":2547300.0399999991}},{"attributes":{"ID":308596,"DIS_CODE":0,"TOWNNAME":"安南區","LI":"國安里","LIN":"7鄰","STREET":"國安街","SECT":" ","MAREA":" ","LANE":"２１０巷","ALLEY":" ","HOUSE_NO":"１３０號","E_COORD97":166554.60000000001,"N_COORD97":2547304.4300000002,"ADDRESS":"國安街２１０巷１３０號","OBJECTID":308588},"geometry":{"x":166554.60000000056,"y":2547304.4300000016}},{"attributes":{"ID":308597,"DIS_CODE":0,"TOWNNAME":"永康區","LI":"崑山里","LIN":"20鄰","STREET":"崑山街","SECT":" ","MAREA":" ","LANE":"２１巷","ALLEY":" ","HOUSE_NO":"１９號五樓之２","E_COORD97":173867.89000000001,"N_COORD97":2544557.3599999999,"ADDRESS":"崑山街２１巷１９號五樓之２","OBJECTID":308589},"geometry":{"x":173867.8900000006,"y":2544557.3600000013}},{"attributes":{"ID":308598,"DIS_CODE":0,"TOWNNAME":"永康區","LI":"崑山里","LIN":"20鄰","STREET":"崑山街","SECT":" ","MAREA":" ","LANE":"２１巷","ALLEY":" ","HOUSE_NO":"１９號三樓之１","E_COORD97":173867.75,"N_COORD97":2544557.3599999999,"ADDRESS":"崑山街２１巷１９號三樓之１","OBJECTID":308590},"geometry":{"x":173867.75,"y":2544557.3600000013}},{"attributes":{"ID":308599,"DIS_CODE":0,"TOWNNAME":"永康區","LI":"勝利里","LIN":"20鄰","STREET":"勝學路","SECT":" ","MAREA":" ","LANE":"２６９巷","ALLEY":" ","HOUSE_NO":"２號四樓之１","E_COORD97":171173.28,"N_COORD97":2545316.0499999998,"ADDRESS":"勝學路２６９巷２號四樓之１","OBJECTID":308591},"geometry":{"x":171173.28000000212,"y":2545316.0500000007}},{"attributes":{"ID":308600,"DIS_CODE":0,"TOWNNAME":"永康區","LI":"埔園里","LIN":"24鄰","STREET":"中正路","SECT":" ","MAREA":" ","LANE":"１４８巷","ALLEY":" ","HOUSE_NO":"２號之８二樓","E_COORD97":173548.85999999999,"N_COORD97":2547931.8900000001,"ADDRESS":"中正路１４８巷２號之８二樓","OBJECTID":308592},"geometry":{"x":173548.86000000034,"y":2547931.8900000025}},{"attributes":{"ID":308601,"DIS_CODE":0,"TOWNNAME":"永康區","LI":"崑山里","LIN":"20鄰","STREET":"崑山街","SECT":" ","MAREA":" ","LANE":"２１巷","ALLEY":" ","HOUSE_NO":"１９號四樓之３","E_COORD97":173867.85000000001,"N_COORD97":2544557.3599999999,"ADDRESS":"崑山街２１巷１９號四樓之３","OBJECTID":308593},"geometry":{"x":173867.85000000056,"y":2544557.3600000013}},{"attributes":{"ID":308602,"DIS_CODE":0,"TOWNNAME":"永康區","LI":"東橋里","LIN":"5鄰","STREET":"中山南路","SECT":" ","MAREA":" ","LANE":"１９５巷","ALLEY":" ","HOUSE_NO":"３２之７號七樓之６","E_COORD97":171459.95000000001,"N_COORD97":2546395.8999999999,"ADDRESS":"中山南路１９５巷３２之７號七樓之６","OBJECTID":308594},"geometry":{"x":171459.95000000019,"y":2546395.9000000022}},{"attributes":{"ID":308603,"DIS_CODE":0,"TOWNNAME":"安南區","LI":"國安里","LIN":"7鄰","STREET":"國安街","SECT":" ","MAREA":" ","LANE":"２１０巷","ALLEY":" ","HOUSE_NO":"１３３號","E_COORD97":166527.53,"N_COORD97":2547294.8599999999,"ADDRESS":"國安街２１０巷１３３號","OBJECTID":308595},"geometry":{"x":166527.53000000026,"y":2547294.8599999994}},{"attributes":{"ID":308604,"DIS_CODE":0,"TOWNNAME":"安南區","LI":"國安里","LIN":"7鄰","STREET":"國安街","SECT":" ","MAREA":" ","LANE":"２１０巷","ALLEY":" ","HOUSE_NO":"１３４號","E_COORD97":166552.95000000001,"N_COORD97":2547313.4500000002,"ADDRESS":"國安街２１０巷１３４號","OBJECTID":308596},"geometry":{"x":166552.95000000112,"y":2547313.4500000011}},{"attributes":{"ID":308605,"DIS_CODE":0,"TOWNNAME":"安南區","LI":"國安里","LIN":"7鄰","STREET":"國安街","SECT":" ","MAREA":" ","LANE":"２１０巷","ALLEY":" ","HOUSE_NO":"１３６號","E_COORD97":166551.94,"N_COORD97":2547317.3799999999,"ADDRESS":"國安街２１０巷１３６號","OBJECTID":308597},"geometry":{"x":166551.94000000134,"y":2547317.3800000008}},{"attributes":{"ID":308606,"DIS_CODE":0,"TOWNNAME":"安南區","LI":"國安里","LIN":"7鄰","STREET":"國安街","SECT":" ","MAREA":" ","LANE":"２１０巷","ALLEY":" ","HOUSE_NO":"１３８號","E_COORD97":166551.39000000001,"N_COORD97":2547321.8599999999,"ADDRESS":"國安街２１０巷１３８號","OBJECTID":308598},"geometry":{"x":166551.3900000006,"y":2547321.8599999994}},{"attributes":{"ID":308607,"DIS_CODE":0,"TOWNNAME":"安南區","LI":"學東里","LIN":"17鄰","STREET":"安明路","SECT":"四段","MAREA":" ","LANE":" ","ALLEY":" ","HOUSE_NO":"８２６之１１１號","E_COORD97":161463.22,"N_COORD97":2552862.75,"ADDRESS":"安明路四段８２６之１１１號","OBJECTID":308599},"geometry":{"x":161463.22000000067,"y":2552862.7500000019}},{"attributes":{"ID":308608,"DIS_CODE":0,"TOWNNAME":"安南區","LI":"學東里","LIN":"17鄰","STREET":"安明路","SECT":"四段","MAREA":" ","LANE":" ","ALLEY":" ","HOUSE_NO":"８２６之７５號","E_COORD97":161634.92999999999,"N_COORD97":2552820.0699999998,"ADDRESS":"安明路四段８２６之７５號","OBJECTID":308600},"geometry":{"x":161634.93000000063,"y":2552820.0700000022}}]}