{"displayFieldName":"TOWNNAME","fieldAliases":{"ID":"ID","DIS_CODE":"DIS_CODE","TOWNNAME":"TOWNNAME","LI":"LI","LIN":"LIN","STREET":"STREET","SECT":"SECT","MAREA":"MAREA","LANE":"LANE","ALLEY":"ALLEY","HOUSE_NO":"HOUSE_NO","E_COORD97":"E_COORD97","N_COORD97":"N_COORD97","ADDRESS":"ADDRESS","OBJECTID":"OBJECTID"},"geometryType":"esriGeometryPoint","spatialReference":{"wkid":102443,"latestWkid":3826},"fields":[{"name":"ID","type":"esriFieldTypeDouble","alias":"ID"},{"name":"DIS_CODE","type":"esriFieldTypeInteger","alias":"DIS_CODE"},{"name":"TOWNNAME","type":"esriFieldTypeString","alias":"TOWNNAME","length":8},{"name":"LI","type":"esriFieldTypeString","alias":"LI","length":8},{"name":"LIN","type":"esriFieldTypeString","alias":"LIN","length":12},{"name":"STREET","type":"esriFieldTypeString","alias":"STREET","length":20},{"name":"SECT","type":"esriFieldTypeString","alias":"SECT","length":8},{"name":"MAREA","type":"esriFieldTypeString","alias":"MAREA","length":12},{"name":"LANE","type":"esriFieldTypeString","alias":"LANE","length":10},{"name":"ALLEY","type":"esriFieldTypeString","alias":"ALLEY","length":10},{"name":"HOUSE_NO","type":"esriFieldTypeString","alias":"HOUSE_NO","length":20},{"name":"E_COORD97","type":"esriFieldTypeDouble","alias":"E_COORD97"},{"name":"N_COORD97","type":"esriFieldTypeDouble","alias":"N_COORD97"},{"name":"ADDRESS","type":"esriFieldTypeString","alias":"ADDRESS","length":50},{"name":"OBJECTID","type":"esriFieldTypeOID","alias":"OBJECTID"}],"features":[{"attributes":{"ID":420026,"DIS_CODE":0,"TOWNNAME":"永康區","LI":"埔園里","LIN":"24鄰","STREET":"中正路","SECT":" ","MAREA":" ","LANE":"１４８巷","ALLEY":" ","HOUSE_NO":"２號之７","E_COORD97":173548.32999999999,"N_COORD97":2547924.1400000001,"ADDRESS":"中正路１４８巷２號之７","OBJECTID":420001},"geometry":{"x":173548.33000000101,"y":2547924.1400000025}},{"attributes":{"ID":420027,"DIS_CODE":0,"TOWNNAME":"永康區","LI":"埔園里","LIN":"6鄰","STREET":"中山路","SECT":" ","MAREA":" ","LANE":"１５８巷","ALLEY":" ","HOUSE_NO":"２１號","E_COORD97":173880.92999999999,"N_COORD97":2547859.75,"ADDRESS":"中山路１５８巷２１號","OBJECTID":420002},"geometry":{"x":173880.93000000063,"y":2547859.75}},{"attributes":{"ID":420028,"DIS_CODE":0,"TOWNNAME":"永康區","LI":"埔園里","LIN":"30鄰","STREET":"八德街","SECT":" ","MAREA":" ","LANE":"１９９巷","ALLEY":" ","HOUSE_NO":"６號","E_COORD97":173813.01999999999,"N_COORD97":2548543.5099999998,"ADDRESS":"八德街１９９巷６號","OBJECTID":420003},"geometry":{"x":173813.01999999955,"y":2548543.5100000035}},{"attributes":{"ID":420029,"DIS_CODE":0,"TOWNNAME":"永康區","LI":"勝利里","LIN":"27鄰","STREET":"勝利街","SECT":" ","MAREA":" ","LANE":"５８巷","ALLEY":" ","HOUSE_NO":"２１號","E_COORD97":171430.20000000001,"N_COORD97":2544676.7599999998,"ADDRESS":"勝利街５８巷２１號","OBJECTID":420004},"geometry":{"x":171430.20000000112,"y":2544676.7600000035}},{"attributes":{"ID":420030,"DIS_CODE":0,"TOWNNAME":"東區","LI":"龍山里","LIN":"2鄰","STREET":"崇仁街","SECT":" ","MAREA":" ","LANE":"５３巷","ALLEY":" ","HOUSE_NO":"３２號","E_COORD97":170460.19,"N_COORD97":2542699.5099999998,"ADDRESS":"崇仁街５３巷３２號","OBJECTID":420005},"geometry":{"x":170460.18999999948,"y":2542699.5100000016}},{"attributes":{"ID":420031,"DIS_CODE":0,"TOWNNAME":"東區","LI":"龍山里","LIN":"2鄰","STREET":"崇仁街","SECT":" ","MAREA":" ","LANE":"５３巷","ALLEY":" ","HOUSE_NO":"３４號","E_COORD97":170468.31,"N_COORD97":2542693.8700000001,"ADDRESS":"崇仁街５３巷３４號","OBJECTID":420006},"geometry":{"x":170468.30999999959,"y":2542693.8700000048}},{"attributes":{"ID":420032,"DIS_CODE":0,"TOWNNAME":"東區","LI":"龍山里","LIN":"2鄰","STREET":"崇仁街","SECT":" ","MAREA":" ","LANE":"５３巷","ALLEY":" ","HOUSE_NO":"３６號之１","E_COORD97":170472.44,"N_COORD97":2542686.2999999998,"ADDRESS":"崇仁街５３巷３６號之１","OBJECTID":420007},"geometry":{"x":170472.44000000134,"y":2542686.3000000007}},{"attributes":{"ID":420033,"DIS_CODE":0,"TOWNNAME":"東區","LI":"龍山里","LIN":"2鄰","STREET":"崇仁街","SECT":" ","MAREA":" ","LANE":"５３巷","ALLEY":" ","HOUSE_NO":"３８號","E_COORD97":170464.73000000001,"N_COORD97":2542675.71,"ADDRESS":"崇仁街５３巷３８號","OBJECTID":420008},"geometry":{"x":170464.73000000045,"y":2542675.7100000028}},{"attributes":{"ID":420034,"DIS_CODE":0,"TOWNNAME":"永康區","LI":"尚頂里","LIN":"2鄰","STREET":"中正南路","SECT":" ","MAREA":" ","LANE":"３４４巷","ALLEY":" ","HOUSE_NO":"１５號","E_COORD97":171072.04000000001,"N_COORD97":2547874.2400000002,"ADDRESS":"中正南路３４４巷１５號","OBJECTID":420009},"geometry":{"x":171072.04000000004,"y":2547874.2400000039}},{"attributes":{"ID":420035,"DIS_CODE":0,"TOWNNAME":"永康區","LI":"東橋里","LIN":"2鄰","STREET":"大橋一街","SECT":" ","MAREA":" ","LANE":"３２４巷","ALLEY":" ","HOUSE_NO":"１４號之２","E_COORD97":171335.04000000001,"N_COORD97":2546619.8300000001,"ADDRESS":"大橋一街３２４巷１４號之２","OBJECTID":420010},"geometry":{"x":171335.04000000004,"y":2546619.8300000019}},{"attributes":{"ID":420036,"DIS_CODE":0,"TOWNNAME":"永康區","LI":"尚頂里","LIN":"2鄰","STREET":"\u25A0信街","SECT":" ","MAREA":" ","LANE":"１４６巷","ALLEY":" ","HOUSE_NO":"３３號","E_COORD97":171174.95000000001,"N_COORD97":2547706.5499999998,"ADDRESS":"\u25A0信街１４６巷３３號","OBJECTID":420011},"geometry":{"x":171174.95000000019,"y":2547706.5500000045}},{"attributes":{"ID":420037,"DIS_CODE":0,"TOWNNAME":"永康區","LI":"尚頂里","LIN":"2鄰","STREET":"\u25A0信街","SECT":" ","MAREA":" ","LANE":"１４６巷","ALLEY":" ","HOUSE_NO":"３７號","E_COORD97":171211.17000000001,"N_COORD97":2547705.25,"ADDRESS":"\u25A0信街１４６巷３７號","OBJECTID":420012},"geometry":{"x":171211.17000000086,"y":2547705.2500000019}},{"attributes":{"ID":420038,"DIS_CODE":0,"TOWNNAME":"永康區","LI":"\u25A0行里","LIN":"2鄰","STREET":"中正路","SECT":" ","MAREA":" ","LANE":"９４２巷","ALLEY":" ","HOUSE_NO":"４號","E_COORD97":172004.67000000001,"N_COORD97":2548959.4900000002,"ADDRESS":"中正路９４２巷４號","OBJECTID":420013},"geometry":{"x":172004.67000000086,"y":2548959.4900000002}},{"attributes":{"ID":420039,"DIS_CODE":0,"TOWNNAME":"永康區","LI":"蔦松里","LIN":"2鄰","STREET":"蔦松二街","SECT":" ","MAREA":" ","LANE":"１２４巷","ALLEY":" ","HOUSE_NO":"３８號","E_COORD97":173819.39999999999,"N_COORD97":2549259.9900000002,"ADDRESS":"蔦松二街１２４巷３８號","OBJECTID":420014},"geometry":{"x":173819.4000000013,"y":2549259.9900000021}},{"attributes":{"ID":420040,"DIS_CODE":0,"TOWNNAME":"永康區","LI":"新樹里","LIN":"2鄰","STREET":"富強路","SECT":"二段","MAREA":" ","LANE":"３２６巷","ALLEY":" ","HOUSE_NO":"２４之１號","E_COORD97":175652.42000000001,"N_COORD97":2547519.4100000001,"ADDRESS":"富強路二段３２６巷２４之１號","OBJECTID":420015},"geometry":{"x":175652.42000000086,"y":2547519.4100000001}},{"attributes":{"ID":420041,"DIS_CODE":0,"TOWNNAME":"永康區","LI":"龍潭里","LIN":"2鄰","STREET":"龍潭街","SECT":" ","MAREA":" ","LANE":"８９巷","ALLEY":" ","HOUSE_NO":"８號之２","E_COORD97":174795.25,"N_COORD97":2548102.8500000001,"ADDRESS":"龍潭街８９巷８號之２","OBJECTID":420016},"geometry":{"x":174795.25,"y":2548102.8499999996}},{"attributes":{"ID":420042,"DIS_CODE":0,"TOWNNAME":"永康區","LI":"烏竹里","LIN":"7鄰","STREET":"龍橋街","SECT":" ","MAREA":" ","LANE":"４５９巷","ALLEY":" ","HOUSE_NO":"８之８號","E_COORD97":174364.35999999999,"N_COORD97":2549364.8999999999,"ADDRESS":"龍橋街４５９巷８之８號","OBJECTID":420017},"geometry":{"x":174364.36000000034,"y":2549364.8999999985}},{"attributes":{"ID":420043,"DIS_CODE":0,"TOWNNAME":"永康區","LI":"建國里","LIN":"1鄰","STREET":"復興路","SECT":" ","MAREA":" ","LANE":"２６巷","ALLEY":" ","HOUSE_NO":"７４之７號","E_COORD97":173138.75,"N_COORD97":2544948.3500000001,"ADDRESS":"復興路２６巷７４之７號","OBJECTID":420018},"geometry":{"x":173138.75,"y":2544948.3500000015}},{"attributes":{"ID":420044,"DIS_CODE":0,"TOWNNAME":"永康區","LI":"光復里","LIN":"16鄰","STREET":"復興路","SECT":" ","MAREA":" ","LANE":"１２８巷","ALLEY":" ","HOUSE_NO":"２６號","E_COORD97":172723.87,"N_COORD97":2544392.27,"ADDRESS":"復興路１２８巷２６號","OBJECTID":420019},"geometry":{"x":172723.87000000104,"y":2544392.2700000014}},{"attributes":{"ID":420045,"DIS_CODE":0,"TOWNNAME":"永康區","LI":"龍潭里","LIN":"2鄰","STREET":"龍潭街","SECT":" ","MAREA":" ","LANE":"８９巷","ALLEY":" ","HOUSE_NO":"２０號","E_COORD97":174733.84,"N_COORD97":2548089.9399999999,"ADDRESS":"龍潭街８９巷２０號","OBJECTID":420020},"geometry":{"x":174733.83999999892,"y":2548089.9400000013}},{"attributes":{"ID":420046,"DIS_CODE":0,"TOWNNAME":"永康區","LI":"新樹里","LIN":"2鄰","STREET":"富強路","SECT":"二段","MAREA":" ","LANE":"３２６巷","ALLEY":" ","HOUSE_NO":"３５號","E_COORD97":175674.79000000001,"N_COORD97":2547522.1099999999,"ADDRESS":"富強路二段３２６巷３５號","OBJECTID":420021},"geometry":{"x":175674.79000000004,"y":2547522.1100000013}},{"attributes":{"ID":420047,"DIS_CODE":0,"TOWNNAME":"永康區","LI":"龍潭里","LIN":"2鄰","STREET":"龍潭街","SECT":" ","MAREA":" ","LANE":"８９巷","ALLEY":" ","HOUSE_NO":"８號之１","E_COORD97":174799.31,"N_COORD97":2548102.1000000001,"ADDRESS":"龍潭街８９巷８號之１","OBJECTID":420022},"geometry":{"x":174799.30999999959,"y":2548102.1000000015}},{"attributes":{"ID":420048,"DIS_CODE":0,"TOWNNAME":"永康區","LI":"新樹里","LIN":"2鄰","STREET":"富強路","SECT":"二段","MAREA":" ","LANE":"３２６巷","ALLEY":" ","HOUSE_NO":"１８號","E_COORD97":175653.73999999999,"N_COORD97":2547549.1200000001,"ADDRESS":"富強路二段３２６巷１８號","OBJECTID":420023},"geometry":{"x":175653.74000000209,"y":2547549.120000001}},{"attributes":{"ID":420049,"DIS_CODE":0,"TOWNNAME":"永康區","LI":"龍潭里","LIN":"2鄰","STREET":"龍潭街","SECT":" ","MAREA":" ","LANE":"７５巷","ALLEY":" ","HOUSE_NO":"１２號","E_COORD97":174741.78,"N_COORD97":2548068.6200000001,"ADDRESS":"龍潭街７５巷１２號","OBJECTID":420024},"geometry":{"x":174741.78000000119,"y":2548068.620000001}},{"attributes":{"ID":420050,"DIS_CODE":0,"TOWNNAME":"永康區","LI":"網寮里","LIN":"2鄰","STREET":"永二街","SECT":" ","MAREA":" ","LANE":"１２３巷","ALLEY":" ","HOUSE_NO":"１４號","E_COORD97":173561.17999999999,"N_COORD97":2546435.9300000002,"ADDRESS":"永二街１２３巷１４號","OBJECTID":420025},"geometry":{"x":173561.1799999997,"y":2546435.9300000016}},{"attributes":{"ID":420051,"DIS_CODE":0,"TOWNNAME":"永康區","LI":"網寮里","LIN":"2鄰","STREET":"永二街","SECT":" ","MAREA":" ","LANE":"８９巷","ALLEY":" ","HOUSE_NO":"１２號","E_COORD97":173614.95999999999,"N_COORD97":2546521.9300000002,"ADDRESS":"永二街８９巷１２號","OBJECTID":420026},"geometry":{"x":173614.96000000089,"y":2546521.9299999997}},{"attributes":{"ID":420052,"DIS_CODE":0,"TOWNNAME":"永康區","LI":"網寮里","LIN":"2鄰","STREET":"永二街","SECT":" ","MAREA":" ","LANE":"１２３巷","ALLEY":" ","HOUSE_NO":"１６號","E_COORD97":173593.06,"N_COORD97":2546438.2400000002,"ADDRESS":"永二街１２３巷１６號","OBJECTID":420027},"geometry":{"x":173593.06000000145,"y":2546438.2400000021}},{"attributes":{"ID":420053,"DIS_CODE":0,"TOWNNAME":"永康區","LI":"蔦松里","LIN":"2鄰","STREET":"中正北路","SECT":" ","MAREA":" ","LANE":"５２１巷","ALLEY":" ","HOUSE_NO":"９號","E_COORD97":173806.98999999999,"N_COORD97":2549192.4900000002,"ADDRESS":"中正北路５２１巷９號","OBJECTID":420028},"geometry":{"x":173806.99000000022,"y":2549192.4900000021}},{"attributes":{"ID":420054,"DIS_CODE":0,"TOWNNAME":"仁德區","LI":"仁德里","LIN":"2鄰","STREET":"中正路","SECT":"二段","MAREA":" ","LANE":"６７９巷","ALLEY":" ","HOUSE_NO":"９號","E_COORD97":173386.54000000001,"N_COORD97":2540037.52,"ADDRESS":"中正路二段６７９巷９號","OBJECTID":420029},"geometry":{"x":173386.54000000004,"y":2540037.5200000014}},{"attributes":{"ID":420055,"DIS_CODE":0,"TOWNNAME":"東區","LI":"龍山里","LIN":"2鄰","STREET":"崇仁街","SECT":" ","MAREA":" ","LANE":"５３巷","ALLEY":" ","HOUSE_NO":"１０號","E_COORD97":170427.64000000001,"N_COORD97":2542720.6099999999,"ADDRESS":"崇仁街５３巷１０號","OBJECTID":420030},"geometry":{"x":170427.64000000153,"y":2542720.6099999994}},{"attributes":{"ID":420056,"DIS_CODE":0,"TOWNNAME":"永康區","LI":"西灣里","LIN":"43鄰","STREET":"永華路","SECT":" ","MAREA":" ","LANE":"１５９巷","ALLEY":" ","HOUSE_NO":"７號","E_COORD97":174067.04999999999,"N_COORD97":2545519.0800000001,"ADDRESS":"永華路１５９巷７號","OBJECTID":420031},"geometry":{"x":174067.05000000075,"y":2545519.0800000038}},{"attributes":{"ID":420057,"DIS_CODE":0,"TOWNNAME":"永康區","LI":"正強里","LIN":"15鄰","STREET":"正強街","SECT":" ","MAREA":" ","LANE":"６３巷","ALLEY":" ","HOUSE_NO":"２６號","E_COORD97":173272.51999999999,"N_COORD97":2547301.9900000002,"ADDRESS":"正強街６３巷２６號","OBJECTID":420032},"geometry":{"x":173272.51999999955,"y":2547301.9900000002}},{"attributes":{"ID":420058,"DIS_CODE":0,"TOWNNAME":"永康區","LI":"西勢里","LIN":"10鄰","STREET":"西勢路","SECT":" ","MAREA":" ","LANE":"１４３巷","ALLEY":" ","HOUSE_NO":"２號","E_COORD97":175965.38,"N_COORD97":2546745.0299999998,"ADDRESS":"西勢路１４３巷２號","OBJECTID":420033},"geometry":{"x":175965.37999999989,"y":2546745.0299999993}},{"attributes":{"ID":420059,"DIS_CODE":0,"TOWNNAME":"永康區","LI":"東橋里","LIN":"3鄰","STREET":"大橋一街","SECT":" ","MAREA":" ","LANE":"３２４巷","ALLEY":" ","HOUSE_NO":"２１號","E_COORD97":171350.04000000001,"N_COORD97":2546623.29,"ADDRESS":"大橋一街３２４巷２１號","OBJECTID":420034},"geometry":{"x":171350.04000000004,"y":2546623.290000001}},{"attributes":{"ID":420060,"DIS_CODE":0,"TOWNNAME":"東區","LI":"龍山里","LIN":"2鄰","STREET":"崇仁街","SECT":" ","MAREA":" ","LANE":"５３巷","ALLEY":" ","HOUSE_NO":"１２號","E_COORD97":170432.32000000001,"N_COORD97":2542715.1099999999,"ADDRESS":"崇仁街５３巷１２號","OBJECTID":420035},"geometry":{"x":170432.32000000123,"y":2542715.1100000013}},{"attributes":{"ID":420061,"DIS_CODE":0,"TOWNNAME":"東區","LI":"龍山里","LIN":"2鄰","STREET":"崇仁街","SECT":" ","MAREA":" ","LANE":"５３巷","ALLEY":" ","HOUSE_NO":"１４號","E_COORD97":170438.64999999999,"N_COORD97":2542712.77,"ADDRESS":"崇仁街５３巷１４號","OBJECTID":420036},"geometry":{"x":170438.6500000013,"y":2542712.7699999996}},{"attributes":{"ID":420062,"DIS_CODE":0,"TOWNNAME":"東區","LI":"龍山里","LIN":"2鄰","STREET":"崇仁街","SECT":" ","MAREA":" ","LANE":"５３巷","ALLEY":" ","HOUSE_NO":"１６號","E_COORD97":170443.32999999999,"N_COORD97":2542708.5,"ADDRESS":"崇仁街５３巷１６號","OBJECTID":420037},"geometry":{"x":170443.33000000007,"y":2542708.5}},{"attributes":{"ID":420063,"DIS_CODE":0,"TOWNNAME":"東區","LI":"龍山里","LIN":"2鄰","STREET":"崇仁街","SECT":" ","MAREA":" ","LANE":"５３巷","ALLEY":" ","HOUSE_NO":"１８號","E_COORD97":170448.29000000001,"N_COORD97":2542704.2400000002,"ADDRESS":"崇仁街５３巷１８號","OBJECTID":420038},"geometry":{"x":170448.29000000004,"y":2542704.2400000039}},{"attributes":{"ID":420064,"DIS_CODE":0,"TOWNNAME":"東區","LI":"龍山里","LIN":"2鄰","STREET":"崇仁街","SECT":" ","MAREA":" ","LANE":"５３巷","ALLEY":" ","HOUSE_NO":"２０號","E_COORD97":170453.79000000001,"N_COORD97":2542700.3900000001,"ADDRESS":"崇仁街５３巷２０號","OBJECTID":420039},"geometry":{"x":170453.79000000004,"y":2542700.3900000025}},{"attributes":{"ID":420065,"DIS_CODE":0,"TOWNNAME":"東區","LI":"龍山里","LIN":"2鄰","STREET":"崇仁街","SECT":" ","MAREA":" ","LANE":"５３巷","ALLEY":" ","HOUSE_NO":"２號","E_COORD97":170405.48999999999,"N_COORD97":2542736.4300000002,"ADDRESS":"崇仁街５３巷２號","OBJECTID":420040},"geometry":{"x":170405.49000000209,"y":2542736.4300000016}},{"attributes":{"ID":420066,"DIS_CODE":0,"TOWNNAME":"東區","LI":"龍山里","LIN":"2鄰","STREET":"崇仁街","SECT":" ","MAREA":" ","LANE":"５３巷","ALLEY":" ","HOUSE_NO":"４號","E_COORD97":170411.04000000001,"N_COORD97":2542731.8999999999,"ADDRESS":"崇仁街５３巷４號","OBJECTID":420041},"geometry":{"x":170411.04000000004,"y":2542731.9000000004}},{"attributes":{"ID":420067,"DIS_CODE":0,"TOWNNAME":"永康區","LI":"新樹里","LIN":"2鄰","STREET":"富強路","SECT":"二段","MAREA":" ","LANE":"３２６巷","ALLEY":" ","HOUSE_NO":"２６號","E_COORD97":175664.82000000001,"N_COORD97":2547514.02,"ADDRESS":"富強路二段３２６巷２６號","OBJECTID":420042},"geometry":{"x":175664.8200000003,"y":2547514.0200000014}},{"attributes":{"ID":420068,"DIS_CODE":0,"TOWNNAME":"永康區","LI":"新樹里","LIN":"2鄰","STREET":"富強路","SECT":"二段","MAREA":" ","LANE":"２９８巷","ALLEY":" ","HOUSE_NO":"３５號","E_COORD97":175707.60000000001,"N_COORD97":2547537.0899999999,"ADDRESS":"富強路二段２９８巷３５號","OBJECTID":420043},"geometry":{"x":175707.59999999963,"y":2547537.0900000017}},{"attributes":{"ID":420069,"DIS_CODE":0,"TOWNNAME":"永康區","LI":"新樹里","LIN":"2鄰","STREET":"富強路","SECT":"二段","MAREA":" ","LANE":"２９８巷","ALLEY":" ","HOUSE_NO":"３７號","E_COORD97":175702.39000000001,"N_COORD97":2547551.23,"ADDRESS":"富強路二段２９８巷３７號","OBJECTID":420044},"geometry":{"x":175702.38999999966,"y":2547551.2300000004}},{"attributes":{"ID":420070,"DIS_CODE":0,"TOWNNAME":"永康區","LI":"新樹里","LIN":"2鄰","STREET":"富強路","SECT":"二段","MAREA":" ","LANE":"３２６巷","ALLEY":" ","HOUSE_NO":"２０號","E_COORD97":175667.39000000001,"N_COORD97":2547522.3900000001,"ADDRESS":"富強路二段３２６巷２０號","OBJECTID":420045},"geometry":{"x":175667.39000000153,"y":2547522.3900000025}},{"attributes":{"ID":420071,"DIS_CODE":0,"TOWNNAME":"永康區","LI":"蔦松里","LIN":"2鄰","STREET":"蔦松二街","SECT":" ","MAREA":" ","LANE":"１２４巷","ALLEY":" ","HOUSE_NO":"３３號","E_COORD97":173862.17999999999,"N_COORD97":2549305.75,"ADDRESS":"蔦松二街１２４巷３３號","OBJECTID":420046},"geometry":{"x":173862.18000000063,"y":2549305.7500000019}},{"attributes":{"ID":420072,"DIS_CODE":0,"TOWNNAME":"東區","LI":"富裕里","LIN":"2鄰","STREET":"東門路","SECT":"二段","MAREA":" ","LANE":"２３９巷","ALLEY":" ","HOUSE_NO":"３號","E_COORD97":170590.57000000001,"N_COORD97":2542784.6499999999,"ADDRESS":"東門路二段２３９巷３號","OBJECTID":420047},"geometry":{"x":170590.57000000123,"y":2542784.6500000004}},{"attributes":{"ID":420073,"DIS_CODE":0,"TOWNNAME":"東區","LI":"富裕里","LIN":"2鄰","STREET":"東門路","SECT":"二段","MAREA":" ","LANE":"２３９巷","ALLEY":" ","HOUSE_NO":"５號","E_COORD97":170592.95999999999,"N_COORD97":2542787.7200000002,"ADDRESS":"東門路二段２３９巷５號","OBJECTID":420048},"geometry":{"x":170592.95999999996,"y":2542787.7200000007}},{"attributes":{"ID":420074,"DIS_CODE":0,"TOWNNAME":"東區","LI":"富裕里","LIN":"2鄰","STREET":"東門路","SECT":"二段","MAREA":" ","LANE":"２３９巷","ALLEY":" ","HOUSE_NO":"６號","E_COORD97":170597.42999999999,"N_COORD97":2542762.3100000001,"ADDRESS":"東門路二段２３９巷６號","OBJECTID":420049},"geometry":{"x":170597.43000000063,"y":2542762.3100000024}},{"attributes":{"ID":420075,"DIS_CODE":0,"TOWNNAME":"新營區","LI":"角帶里","LIN":"3鄰","STREET":" ","SECT":" ","MAREA":"角帶圍","LANE":" ","ALLEY":" ","HOUSE_NO":"３２號之１","E_COORD97":174821.25687099999,"N_COORD97":2575887.0273099998,"ADDRESS":"角帶圍３２號之１","OBJECTID":420050},"geometry":{"x":174821.25687100179,"y":2575887.0273090005}},{"attributes":{"ID":420076,"DIS_CODE":0,"TOWNNAME":"東區","LI":"富裕里","LIN":"2鄰","STREET":"東門路","SECT":"二段","MAREA":" ","LANE":"２３９巷","ALLEY":" ","HOUSE_NO":"７號","E_COORD97":170596.38,"N_COORD97":2542790.3900000001,"ADDRESS":"東門路二段２３９巷７號","OBJECTID":420051},"geometry":{"x":170596.38000000082,"y":2542790.3900000006}},{"attributes":{"ID":420077,"DIS_CODE":0,"TOWNNAME":"東區","LI":"富裕里","LIN":"2鄰","STREET":"東門路","SECT":"二段","MAREA":" ","LANE":"２３９巷","ALLEY":" ","HOUSE_NO":"９號","E_COORD97":170599.45999999999,"N_COORD97":2542793.8199999998,"ADDRESS":"東門路二段２３９巷９號","OBJECTID":420052},"geometry":{"x":170599.46000000089,"y":2542793.8200000003}},{"attributes":{"ID":420078,"DIS_CODE":0,"TOWNNAME":"東區","LI":"富裕里","LIN":"2鄰","STREET":"東門路","SECT":"二段","MAREA":" ","LANE":"２５７巷","ALLEY":" ","HOUSE_NO":"１０號","E_COORD97":170629.45000000001,"N_COORD97":2542756.3900000001,"ADDRESS":"東門路二段２５７巷１０號","OBJECTID":420053},"geometry":{"x":170629.45000000205,"y":2542756.3900000006}},{"attributes":{"ID":420079,"DIS_CODE":0,"TOWNNAME":"東區","LI":"富裕里","LIN":"2鄰","STREET":"東門路","SECT":"二段","MAREA":" ","LANE":"２５７巷","ALLEY":" ","HOUSE_NO":"２號","E_COORD97":170624.89000000001,"N_COORD97":2542716.04,"ADDRESS":"東門路二段２５７巷２號","OBJECTID":420054},"geometry":{"x":170624.8900000006,"y":2542716.040000001}},{"attributes":{"ID":420080,"DIS_CODE":0,"TOWNNAME":"永康區","LI":"西灣里","LIN":"52鄰","STREET":"永華路","SECT":" ","MAREA":" ","LANE":"３３９巷","ALLEY":" ","HOUSE_NO":"１３號","E_COORD97":173996.04000000001,"N_COORD97":2545937.6099999999,"ADDRESS":"永華路３３９巷１３號","OBJECTID":420055},"geometry":{"x":173996.04000000097,"y":2545937.6099999994}},{"attributes":{"ID":420081,"DIS_CODE":0,"TOWNNAME":"永康區","LI":"西灣里","LIN":"29鄰","STREET":"公園路","SECT":" ","MAREA":" ","LANE":"６３巷","ALLEY":" ","HOUSE_NO":"５２號","E_COORD97":174356.88,"N_COORD97":2545847.4900000002,"ADDRESS":"公園路６３巷５２號","OBJECTID":420056},"geometry":{"x":174356.87999999989,"y":2545847.4900000002}},{"attributes":{"ID":420082,"DIS_CODE":0,"TOWNNAME":"安南區","LI":"安富里","LIN":"2鄰","STREET":"郡安路","SECT":"五段","MAREA":" ","LANE":"１８４巷","ALLEY":" ","HOUSE_NO":"６號","E_COORD97":167463.85999999999,"N_COORD97":2547727.6299999999,"ADDRESS":"郡安路五段１８４巷６號","OBJECTID":420057},"geometry":{"x":167463.86000000127,"y":2547727.629999999}},{"attributes":{"ID":420083,"DIS_CODE":0,"TOWNNAME":"永康區","LI":"中華里","LIN":"2鄰","STREET":"小東路","SECT":" ","MAREA":" ","LANE":"６８５巷","ALLEY":" ","HOUSE_NO":"４２號之１","E_COORD97":172042.48000000001,"N_COORD97":2544470.8700000001,"ADDRESS":"小東路６８５巷４２號之１","OBJECTID":420058},"geometry":{"x":172042.48000000138,"y":2544470.8700000029}},{"attributes":{"ID":420084,"DIS_CODE":0,"TOWNNAME":"永康區","LI":"中華里","LIN":"2鄰","STREET":"小東路","SECT":" ","MAREA":" ","LANE":"６８５巷","ALLEY":" ","HOUSE_NO":"５２號","E_COORD97":172040.48999999999,"N_COORD97":2544486.4300000002,"ADDRESS":"小東路６８５巷５２號","OBJECTID":420059},"geometry":{"x":172040.49000000115,"y":2544486.4300000016}},{"attributes":{"ID":420085,"DIS_CODE":0,"TOWNNAME":"永康區","LI":"中華里","LIN":"2鄰","STREET":"小東路","SECT":" ","MAREA":" ","LANE":"６８５巷","ALLEY":" ","HOUSE_NO":"４０號","E_COORD97":172040.48999999999,"N_COORD97":2544463.5299999998,"ADDRESS":"小東路６８５巷４０號","OBJECTID":420060},"geometry":{"x":172040.49000000115,"y":2544463.5299999993}},{"attributes":{"ID":420086,"DIS_CODE":0,"TOWNNAME":"永康區","LI":"中華里","LIN":"2鄰","STREET":"忠勇街","SECT":" ","MAREA":" ","LANE":"３２巷","ALLEY":" ","HOUSE_NO":"４７號","E_COORD97":172047.82000000001,"N_COORD97":2544434.3500000001,"ADDRESS":"忠勇街３２巷４７號","OBJECTID":420061},"geometry":{"x":172047.82000000123,"y":2544434.3499999996}},{"attributes":{"ID":420087,"DIS_CODE":0,"TOWNNAME":"仁德區","LI":"仁德里","LIN":"2鄰","STREET":"中正路","SECT":"二段","MAREA":" ","LANE":"６７９巷","ALLEY":" ","HOUSE_NO":"１５號","E_COORD97":173383.88,"N_COORD97":2540051.52,"ADDRESS":"中正路二段６７９巷１５號","OBJECTID":420062},"geometry":{"x":173383.87999999989,"y":2540051.5200000014}},{"attributes":{"ID":420088,"DIS_CODE":0,"TOWNNAME":"仁德區","LI":"仁德里","LIN":"2鄰","STREET":"中正路","SECT":"二段","MAREA":" ","LANE":"６７９巷","ALLEY":" ","HOUSE_NO":"５號","E_COORD97":173390.97,"N_COORD97":2540048.77,"ADDRESS":"中正路二段６７９巷５號","OBJECTID":420063},"geometry":{"x":173390.97000000067,"y":2540048.7700000014}},{"attributes":{"ID":420089,"DIS_CODE":0,"TOWNNAME":"永康區","LI":"埔園里","LIN":"35鄰","STREET":"八德街","SECT":" ","MAREA":" ","LANE":"２７巷","ALLEY":" ","HOUSE_NO":"２號","E_COORD97":174272.82000000001,"N_COORD97":2548494.1000000001,"ADDRESS":"八德街２７巷２號","OBJECTID":420064},"geometry":{"x":174272.8200000003,"y":2548494.0999999996}},{"attributes":{"ID":420090,"DIS_CODE":0,"TOWNNAME":"永康區","LI":"西灣里","LIN":"30鄰","STREET":"公園路","SECT":" ","MAREA":" ","LANE":"９３巷","ALLEY":" ","HOUSE_NO":"１１號","E_COORD97":174255.63,"N_COORD97":2545920.7799999998,"ADDRESS":"公園路９３巷１１號","OBJECTID":420065},"geometry":{"x":174255.63000000175,"y":2545920.7800000012}},{"attributes":{"ID":420091,"DIS_CODE":0,"TOWNNAME":"永康區","LI":"尚頂里","LIN":"22鄰","STREET":"南台街","SECT":" ","MAREA":" ","LANE":"１３巷","ALLEY":" ","HOUSE_NO":"１６號","E_COORD97":170402.35000000001,"N_COORD97":2546894.7400000002,"ADDRESS":"南台街１３巷１６號","OBJECTID":420066},"geometry":{"x":170402.35000000149,"y":2546894.7400000039}},{"attributes":{"ID":420092,"DIS_CODE":0,"TOWNNAME":"東區","LI":"東明里","LIN":"2鄰","STREET":"東興路","SECT":" ","MAREA":" ","LANE":"３１巷","ALLEY":" ","HOUSE_NO":"１４號","E_COORD97":170852.01000000001,"N_COORD97":2543493.96,"ADDRESS":"東興路３１巷１４號","OBJECTID":420067},"geometry":{"x":170852.00999999978,"y":2543493.9600000028}},{"attributes":{"ID":420093,"DIS_CODE":0,"TOWNNAME":"東區","LI":"東明里","LIN":"2鄰","STREET":"東興路","SECT":" ","MAREA":" ","LANE":"３１巷","ALLEY":" ","HOUSE_NO":"１０號","E_COORD97":170867.89999999999,"N_COORD97":2543491.4900000002,"ADDRESS":"東興路３１巷１０號","OBJECTID":420068},"geometry":{"x":170867.9000000013,"y":2543491.4900000002}},{"attributes":{"ID":420094,"DIS_CODE":0,"TOWNNAME":"東區","LI":"東明里","LIN":"2鄰","STREET":"東興路","SECT":" ","MAREA":" ","LANE":"３１巷","ALLEY":" ","HOUSE_NO":"１２號","E_COORD97":170860.31,"N_COORD97":2543492.73,"ADDRESS":"東興路３１巷１２號","OBJECTID":420069},"geometry":{"x":170860.31000000145,"y":2543492.7300000004}},{"attributes":{"ID":420095,"DIS_CODE":0,"TOWNNAME":"東區","LI":"東明里","LIN":"2鄰","STREET":"東興路","SECT":" ","MAREA":" ","LANE":"３１巷","ALLEY":" ","HOUSE_NO":"４號","E_COORD97":170889.97,"N_COORD97":2543484.79,"ADDRESS":"東興路３１巷４號","OBJECTID":420070},"geometry":{"x":170889.9700000016,"y":2543484.7899999991}},{"attributes":{"ID":420096,"DIS_CODE":0,"TOWNNAME":"東區","LI":"東明里","LIN":"2鄰","STREET":"東興路","SECT":" ","MAREA":" ","LANE":"３１巷","ALLEY":" ","HOUSE_NO":"６號","E_COORD97":170882.38,"N_COORD97":2543486.2000000002,"ADDRESS":"東興路３１巷６號","OBJECTID":420071},"geometry":{"x":170882.38000000082,"y":2543486.1999999974}},{"attributes":{"ID":420097,"DIS_CODE":0,"TOWNNAME":"東區","LI":"東明里","LIN":"2鄰","STREET":"東興路","SECT":" ","MAREA":" ","LANE":"３１巷","ALLEY":" ","HOUSE_NO":"８號","E_COORD97":170874.79000000001,"N_COORD97":2543489.2000000002,"ADDRESS":"東興路３１巷８號","OBJECTID":420072},"geometry":{"x":170874.79000000097,"y":2543489.1999999993}},{"attributes":{"ID":420098,"DIS_CODE":0,"TOWNNAME":"永康區","LI":"復國里","LIN":"2鄰","STREET":"復國一路","SECT":" ","MAREA":" ","LANE":"６巷","ALLEY":" ","HOUSE_NO":"２３號之１","E_COORD97":172797.37,"N_COORD97":2544725.6600000001,"ADDRESS":"復國一路６巷２３號之１","OBJECTID":420073},"geometry":{"x":172797.37000000011,"y":2544725.660000002}},{"attributes":{"ID":420099,"DIS_CODE":0,"TOWNNAME":"永康區","LI":"復興里","LIN":"2鄰","STREET":"復興路","SECT":" ","MAREA":" ","LANE":"４２９巷","ALLEY":" ","HOUSE_NO":"６８號","E_COORD97":172194.34,"N_COORD97":2543882.9199999999,"ADDRESS":"復興路４２９巷６８號","OBJECTID":420074},"geometry":{"x":172194.33999999985,"y":2543882.9200000018}},{"attributes":{"ID":420100,"DIS_CODE":0,"TOWNNAME":"永康區","LI":"二王里","LIN":"2鄰","STREET":"永二街","SECT":" ","MAREA":" ","LANE":"２８８巷","ALLEY":" ","HOUSE_NO":"１１號","E_COORD97":173095.17000000001,"N_COORD97":2546550.6699999999,"ADDRESS":"永二街２８８巷１１號","OBJECTID":420075},"geometry":{"x":173095.16999999993,"y":2546550.6699999999}},{"attributes":{"ID":420101,"DIS_CODE":0,"TOWNNAME":"永康區","LI":"西灣里","LIN":"42鄰","STREET":"大灣路","SECT":" ","MAREA":" ","LANE":"９４２巷","ALLEY":" ","HOUSE_NO":"４６９號","E_COORD97":173940.79000000001,"N_COORD97":2545423.2400000002,"ADDRESS":"大灣路９４２巷４６９號","OBJECTID":420076},"geometry":{"x":173940.79000000004,"y":2545423.2400000039}},{"attributes":{"ID":420102,"DIS_CODE":0,"TOWNNAME":"麻豆區","LI":"興農里","LIN":"2鄰","STREET":"中興街","SECT":" ","MAREA":" ","LANE":"２７６巷","ALLEY":" ","HOUSE_NO":"２０號","E_COORD97":172467.19,"N_COORD97":2564608.79,"ADDRESS":"中興街２７６巷２０號","OBJECTID":420077},"geometry":{"x":172467.19000000041,"y":2564608.790000001}},{"attributes":{"ID":420103,"DIS_CODE":0,"TOWNNAME":"永康區","LI":"正強里","LIN":"2鄰","STREET":"中正路","SECT":" ","MAREA":" ","LANE":"１５巷","ALLEY":" ","HOUSE_NO":"９號","E_COORD97":173672.44,"N_COORD97":2547690.0099999998,"ADDRESS":"中正路１５巷９號","OBJECTID":420078},"geometry":{"x":173672.44000000041,"y":2547690.0100000016}},{"attributes":{"ID":420104,"DIS_CODE":0,"TOWNNAME":"永康區","LI":"北灣里","LIN":"38鄰","STREET":"大灣路","SECT":" ","MAREA":" ","LANE":"４０巷","ALLEY":" ","HOUSE_NO":"２０３號","E_COORD97":174817.14000000001,"N_COORD97":2546329.9500000002,"ADDRESS":"大灣路４０巷２０３號","OBJECTID":420079},"geometry":{"x":174817.1400000006,"y":2546329.9500000011}},{"attributes":{"ID":420105,"DIS_CODE":0,"TOWNNAME":"永康區","LI":"東灣里","LIN":"25鄰","STREET":"大灣二街","SECT":" ","MAREA":" ","LANE":"７１巷","ALLEY":" ","HOUSE_NO":"２１號","E_COORD97":174838.62,"N_COORD97":2544710.52,"ADDRESS":"大灣二街７１巷２１號","OBJECTID":420080},"geometry":{"x":174838.62000000011,"y":2544710.5199999996}},{"attributes":{"ID":420106,"DIS_CODE":0,"TOWNNAME":"永康區","LI":"埔園里","LIN":"34鄰","STREET":"八德街","SECT":" ","MAREA":" ","LANE":"８８巷","ALLEY":" ","HOUSE_NO":"３９號","E_COORD97":174172.76999999999,"N_COORD97":2548602.8300000001,"ADDRESS":"八德街８８巷３９號","OBJECTID":420081},"geometry":{"x":174172.76999999955,"y":2548602.8300000019}},{"attributes":{"ID":420107,"DIS_CODE":0,"TOWNNAME":"永康區","LI":"龍潭里","LIN":"34鄰","STREET":"龍埔街","SECT":" ","MAREA":" ","LANE":"１８１巷","ALLEY":" ","HOUSE_NO":"１號","E_COORD97":174462.23999999999,"N_COORD97":2548232.3399999999,"ADDRESS":"龍埔街１８１巷１號","OBJECTID":420082},"geometry":{"x":174462.24000000115,"y":2548232.3399999999}},{"attributes":{"ID":420108,"DIS_CODE":0,"TOWNNAME":"永康區","LI":"正強里","LIN":"45鄰","STREET":"中正路","SECT":" ","MAREA":" ","LANE":"２５６巷","ALLEY":" ","HOUSE_NO":"７號之１５","E_COORD97":173183.06,"N_COORD97":2547985.3100000001,"ADDRESS":"中正路２５６巷７號之１５","OBJECTID":420083},"geometry":{"x":173183.06000000052,"y":2547985.3100000005}},{"attributes":{"ID":420109,"DIS_CODE":0,"TOWNNAME":"仁德區","LI":"新田里","LIN":"2鄰","STREET":"新田二街","SECT":" ","MAREA":" ","LANE":"１３８巷","ALLEY":" ","HOUSE_NO":"１０號","E_COORD97":174910.56,"N_COORD97":2539984.1600000001,"ADDRESS":"新田二街１３８巷１０號","OBJECTID":420084},"geometry":{"x":174910.56000000052,"y":2539984.1600000001}},{"attributes":{"ID":420110,"DIS_CODE":0,"TOWNNAME":"仁德區","LI":"仁德里","LIN":"2鄰","STREET":"仁德五街","SECT":" ","MAREA":" ","LANE":"１１巷","ALLEY":" ","HOUSE_NO":"１５號","E_COORD97":173389.97,"N_COORD97":2540158.7599999998,"ADDRESS":"仁德五街１１巷１５號","OBJECTID":420085},"geometry":{"x":173389.96999999974,"y":2540158.7600000016}},{"attributes":{"ID":420111,"DIS_CODE":0,"TOWNNAME":"永康區","LI":"復國里","LIN":"2鄰","STREET":"復國一路","SECT":" ","MAREA":" ","LANE":"２８巷","ALLEY":" ","HOUSE_NO":"２１號","E_COORD97":172784.89999999999,"N_COORD97":2544774.73,"ADDRESS":"復國一路２８巷２１號","OBJECTID":420086},"geometry":{"x":172784.9000000013,"y":2544774.7300000004}},{"attributes":{"ID":420112,"DIS_CODE":0,"TOWNNAME":"永康區","LI":"復國里","LIN":"2鄰","STREET":"復國一路","SECT":" ","MAREA":" ","LANE":"２８巷","ALLEY":" ","HOUSE_NO":"３３號","E_COORD97":172813.01999999999,"N_COORD97":2544779.8500000001,"ADDRESS":"復國一路２８巷３３號","OBJECTID":420087},"geometry":{"x":172813.01999999955,"y":2544779.8499999996}},{"attributes":{"ID":420113,"DIS_CODE":0,"TOWNNAME":"永康區","LI":"勝利里","LIN":"2鄰","STREET":"勝利街","SECT":" ","MAREA":" ","LANE":"２巷","ALLEY":" ","HOUSE_NO":"６１號","E_COORD97":170986.19,"N_COORD97":2544733.5,"ADDRESS":"勝利街２巷６１號","OBJECTID":420088},"geometry":{"x":170986.19000000134,"y":2544733.5000000019}},{"attributes":{"ID":420114,"DIS_CODE":0,"TOWNNAME":"永康區","LI":"勝利里","LIN":"2鄰","STREET":"勝利街","SECT":" ","MAREA":" ","LANE":"２巷","ALLEY":" ","HOUSE_NO":"７８號","E_COORD97":171002.26000000001,"N_COORD97":2544776.2599999998,"ADDRESS":"勝利街２巷７８號","OBJECTID":420089},"geometry":{"x":171002.26000000071,"y":2544776.2600000016}},{"attributes":{"ID":420115,"DIS_CODE":0,"TOWNNAME":"永康區","LI":"復國里","LIN":"2鄰","STREET":"復國一路","SECT":" ","MAREA":" ","LANE":"２８巷","ALLEY":" ","HOUSE_NO":"３號","E_COORD97":172746.10000000001,"N_COORD97":2544768.1200000001,"ADDRESS":"復國一路２８巷３號","OBJECTID":420090},"geometry":{"x":172746.09999999963,"y":2544768.1200000029}},{"attributes":{"ID":420116,"DIS_CODE":0,"TOWNNAME":"永康區","LI":"勝利里","LIN":"2鄰","STREET":"勝利街","SECT":" ","MAREA":" ","LANE":"２巷","ALLEY":" ","HOUSE_NO":"８１號","E_COORD97":170988.76000000001,"N_COORD97":2544777.7599999998,"ADDRESS":"勝利街２巷８１號","OBJECTID":420091},"geometry":{"x":170988.76000000071,"y":2544777.7599999998}},{"attributes":{"ID":420117,"DIS_CODE":0,"TOWNNAME":"永康區","LI":"復國里","LIN":"2鄰","STREET":"復國一路","SECT":" ","MAREA":" ","LANE":"２８巷","ALLEY":" ","HOUSE_NO":"１號","E_COORD97":172741.98999999999,"N_COORD97":2544767.3700000001,"ADDRESS":"復國一路２８巷１號","OBJECTID":420092},"geometry":{"x":172741.99000000115,"y":2544767.370000001}},{"attributes":{"ID":420118,"DIS_CODE":0,"TOWNNAME":"永康區","LI":"勝利里","LIN":"2鄰","STREET":"勝利街","SECT":" ","MAREA":" ","LANE":"２巷","ALLEY":" ","HOUSE_NO":"６７號","E_COORD97":170986.95000000001,"N_COORD97":2544746.25,"ADDRESS":"勝利街２巷６７號","OBJECTID":420093},"geometry":{"x":170986.95000000019,"y":2544746.2500000019}},{"attributes":{"ID":420119,"DIS_CODE":0,"TOWNNAME":"永康區","LI":"勝利里","LIN":"2鄰","STREET":"勝利街","SECT":" ","MAREA":" ","LANE":"２巷","ALLEY":" ","HOUSE_NO":"８８號","E_COORD97":171003,"N_COORD97":2544797.2599999998,"ADDRESS":"勝利街２巷８８號","OBJECTID":420094},"geometry":{"x":171003,"y":2544797.2599999998}},{"attributes":{"ID":420120,"DIS_CODE":0,"TOWNNAME":"鹽水區","LI":"岸內里","LIN":"24鄰","STREET":"北門路","SECT":" ","MAREA":" ","LANE":"９巷","ALLEY":" ","HOUSE_NO":"５５號","E_COORD97":175417.67999999999,"N_COORD97":2580459.98,"ADDRESS":"北門路９巷５５號","OBJECTID":420095},"geometry":{"x":175417.6799999997,"y":2580459.9800000004}},{"attributes":{"ID":420121,"DIS_CODE":0,"TOWNNAME":"永康區","LI":"勝利里","LIN":"2鄰","STREET":"勝利街","SECT":" ","MAREA":" ","LANE":"２巷","ALLEY":" ","HOUSE_NO":"６５號","E_COORD97":170986.64999999999,"N_COORD97":2544742,"ADDRESS":"勝利街２巷６５號","OBJECTID":420096},"geometry":{"x":170986.6500000013,"y":2544742}},{"attributes":{"ID":420122,"DIS_CODE":0,"TOWNNAME":"永康區","LI":"西灣里","LIN":"37鄰","STREET":"國光八街","SECT":" ","MAREA":" ","LANE":"１２９巷","ALLEY":" ","HOUSE_NO":"２９號","E_COORD97":174167.09,"N_COORD97":2545599.71,"ADDRESS":"國光八街１２９巷２９號","OBJECTID":420097},"geometry":{"x":174167.08999999985,"y":2545599.7100000009}},{"attributes":{"ID":420123,"DIS_CODE":0,"TOWNNAME":"永康區","LI":"西灣里","LIN":"16鄰","STREET":"民族路","SECT":" ","MAREA":" ","LANE":"４６５巷","ALLEY":" ","HOUSE_NO":"２１號","E_COORD97":174631.54999999999,"N_COORD97":2545355.2799999998,"ADDRESS":"民族路４６５巷２１號","OBJECTID":420098},"geometry":{"x":174631.55000000075,"y":2545355.2800000012}},{"attributes":{"ID":420124,"DIS_CODE":0,"TOWNNAME":"永康區","LI":"三民里","LIN":"2鄰","STREET":"三民街","SECT":" ","MAREA":" ","LANE":"１１２巷","ALLEY":" ","HOUSE_NO":"１０號","E_COORD97":172888.12,"N_COORD97":2550335.6800000002,"ADDRESS":"三民街１１２巷１０號","OBJECTID":420099},"geometry":{"x":172888.12000000104,"y":2550335.6800000034}},{"attributes":{"ID":420125,"DIS_CODE":0,"TOWNNAME":"永康區","LI":"中興里","LIN":"2鄰","STREET":"忠孝路","SECT":" ","MAREA":" ","LANE":"２３９巷","ALLEY":" ","HOUSE_NO":"１１號","E_COORD97":172029.54000000001,"N_COORD97":2545031.3599999999,"ADDRESS":"忠孝路２３９巷１１號","OBJECTID":420100},"geometry":{"x":172029.54000000097,"y":2545031.3599999975}},{"attributes":{"ID":420126,"DIS_CODE":0,"TOWNNAME":"東區","LI":"東光里","LIN":"2鄰","STREET":"東興路","SECT":" ","MAREA":" ","LANE":"２０巷","ALLEY":" ","HOUSE_NO":"４８號","E_COORD97":171109.97,"N_COORD97":2543389.27,"ADDRESS":"東興路２０巷４８號","OBJECTID":420101},"geometry":{"x":171109.96999999974,"y":2543389.2700000014}},{"attributes":{"ID":420127,"DIS_CODE":0,"TOWNNAME":"東區","LI":"崇德里","LIN":"2鄰","STREET":"崇善路","SECT":" ","MAREA":" ","LANE":"２３２巷","ALLEY":" ","HOUSE_NO":"７６號","E_COORD97":170608.70999999999,"N_COORD97":2541847.8900000001,"ADDRESS":"崇善路２３２巷７６號","OBJECTID":420102},"geometry":{"x":170608.70999999903,"y":2541847.8900000006}},{"attributes":{"ID":420128,"DIS_CODE":0,"TOWNNAME":"東區","LI":"崇德里","LIN":"2鄰","STREET":"崇善路","SECT":" ","MAREA":" ","LANE":"２３２巷","ALLEY":" ","HOUSE_NO":"７８號","E_COORD97":170604.88,"N_COORD97":2541845.6200000001,"ADDRESS":"崇善路２３２巷７８號","OBJECTID":420103},"geometry":{"x":170604.88000000082,"y":2541845.6200000029}},{"attributes":{"ID":420129,"DIS_CODE":0,"TOWNNAME":"永康區","LI":"尚頂里","LIN":"17鄰","STREET":"中正南路","SECT":" ","MAREA":" ","LANE":"２１０巷","ALLEY":" ","HOUSE_NO":"２７號","E_COORD97":170228.37,"N_COORD97":2547157.9900000002,"ADDRESS":"中正南路２１０巷２７號","OBJECTID":420104},"geometry":{"x":170228.37000000104,"y":2547157.9900000021}},{"attributes":{"ID":420130,"DIS_CODE":0,"TOWNNAME":"永康區","LI":"尚頂里","LIN":"35鄰","STREET":"國聖街","SECT":" ","MAREA":" ","LANE":"８６巷","ALLEY":" ","HOUSE_NO":"２１號","E_COORD97":170483.73000000001,"N_COORD97":2547922.7999999998,"ADDRESS":"國聖街８６巷２１號","OBJECTID":420105},"geometry":{"x":170483.73000000231,"y":2547922.8000000026}},{"attributes":{"ID":420131,"DIS_CODE":0,"TOWNNAME":"永康區","LI":"東灣里","LIN":"23鄰","STREET":"大灣二街","SECT":" ","MAREA":" ","LANE":"３８巷","ALLEY":" ","HOUSE_NO":"５６號","E_COORD97":174977.60999999999,"N_COORD97":2544768.3100000001,"ADDRESS":"大灣二街３８巷５６號","OBJECTID":420106},"geometry":{"x":174977.61000000034,"y":2544768.3099999987}},{"attributes":{"ID":420132,"DIS_CODE":0,"TOWNNAME":"仁德區","LI":"保安里","LIN":"2鄰","STREET":"文賢路","SECT":"一段","MAREA":" ","LANE":"５５４巷","ALLEY":" ","HOUSE_NO":"２號","E_COORD97":171105.32000000001,"N_COORD97":2536904.0800000001,"ADDRESS":"文賢路一段５５４巷２號","OBJECTID":420107},"geometry":{"x":171105.32000000123,"y":2536904.0800000038}},{"attributes":{"ID":420133,"DIS_CODE":0,"TOWNNAME":"中西區","LI":"西湖里","LIN":"2鄰","STREET":"頂美二街","SECT":" ","MAREA":" ","LANE":"４８巷","ALLEY":" ","HOUSE_NO":"１８號","E_COORD97":166481.92999999999,"N_COORD97":2544557.27,"ADDRESS":"頂美二街４８巷１８號","OBJECTID":420108},"geometry":{"x":166481.9299999997,"y":2544557.2699999996}},{"attributes":{"ID":420134,"DIS_CODE":0,"TOWNNAME":"中西區","LI":"西湖里","LIN":"2鄰","STREET":"頂美二街","SECT":" ","MAREA":" ","LANE":"４８巷","ALLEY":" ","HOUSE_NO":"２０號","E_COORD97":166486.85000000001,"N_COORD97":2544557.5899999999,"ADDRESS":"頂美二街４８巷２０號","OBJECTID":420109},"geometry":{"x":166486.85000000056,"y":2544557.5899999999}},{"attributes":{"ID":420135,"DIS_CODE":0,"TOWNNAME":"永康區","LI":"尚頂里","LIN":"24鄰","STREET":"中正南路","SECT":" ","MAREA":" ","LANE":"２１０巷","ALLEY":" ","HOUSE_NO":"３４號","E_COORD97":170210.60000000001,"N_COORD97":2547142.4900000002,"ADDRESS":"中正南路２１０巷３４號","OBJECTID":420110},"geometry":{"x":170210.59999999963,"y":2547142.4900000002}},{"attributes":{"ID":420136,"DIS_CODE":0,"TOWNNAME":"永康區","LI":"尚頂里","LIN":"35鄰","STREET":"國聖街","SECT":" ","MAREA":" ","LANE":"６５巷","ALLEY":" ","HOUSE_NO":"２２號","E_COORD97":170346.85000000001,"N_COORD97":2547986.5,"ADDRESS":"國聖街６５巷２２號","OBJECTID":420111},"geometry":{"x":170346.85000000056,"y":2547986.5}},{"attributes":{"ID":420137,"DIS_CODE":0,"TOWNNAME":"永康區","LI":"尚頂里","LIN":"12鄰","STREET":"正南一街","SECT":" ","MAREA":" ","LANE":"９２巷","ALLEY":" ","HOUSE_NO":"１８號","E_COORD97":171056.56,"N_COORD97":2547343.9900000002,"ADDRESS":"正南一街９２巷１８號","OBJECTID":420112},"geometry":{"x":171056.55999999959,"y":2547343.9900000039}},{"attributes":{"ID":420138,"DIS_CODE":0,"TOWNNAME":"中西區","LI":"西賢里","LIN":"2鄰","STREET":"湖美街","SECT":" ","MAREA":" ","LANE":"８７巷","ALLEY":" ","HOUSE_NO":"１２號","E_COORD97":165907.29000000001,"N_COORD97":2544669.9300000002,"ADDRESS":"湖美街８７巷１２號","OBJECTID":420113},"geometry":{"x":165907.29000000004,"y":2544669.9300000016}},{"attributes":{"ID":420139,"DIS_CODE":0,"TOWNNAME":"中西區","LI":"西賢里","LIN":"2鄰","STREET":"湖美街","SECT":" ","MAREA":" ","LANE":"８７巷","ALLEY":" ","HOUSE_NO":"１６號","E_COORD97":165899.5,"N_COORD97":2544669.4399999999,"ADDRESS":"湖美街８７巷１６號","OBJECTID":420114},"geometry":{"x":165899.50000000186,"y":2544669.4400000013}},{"attributes":{"ID":420140,"DIS_CODE":0,"TOWNNAME":"中西區","LI":"西賢里","LIN":"2鄰","STREET":"湖美街","SECT":" ","MAREA":" ","LANE":"８７巷","ALLEY":" ","HOUSE_NO":"１７號","E_COORD97":165886.04000000001,"N_COORD97":2544643.0499999998,"ADDRESS":"湖美街８７巷１７號","OBJECTID":420115},"geometry":{"x":165886.04000000097,"y":2544643.0500000026}},{"attributes":{"ID":420141,"DIS_CODE":0,"TOWNNAME":"中西區","LI":"西賢里","LIN":"2鄰","STREET":"湖美街","SECT":" ","MAREA":" ","LANE":"８７巷","ALLEY":" ","HOUSE_NO":"１８號","E_COORD97":165895.12,"N_COORD97":2544669.6800000002,"ADDRESS":"湖美街８７巷１８號","OBJECTID":420116},"geometry":{"x":165895.12000000011,"y":2544669.6799999997}},{"attributes":{"ID":420142,"DIS_CODE":0,"TOWNNAME":"中西區","LI":"西賢里","LIN":"2鄰","STREET":"湖美街","SECT":" ","MAREA":" ","LANE":"８７巷","ALLEY":" ","HOUSE_NO":"１９號","E_COORD97":165880.01000000001,"N_COORD97":2544643.5299999998,"ADDRESS":"湖美街８７巷１９號","OBJECTID":420117},"geometry":{"x":165880.00999999978,"y":2544643.5299999975}},{"attributes":{"ID":420143,"DIS_CODE":0,"TOWNNAME":"中西區","LI":"西賢里","LIN":"2鄰","STREET":"湖美街","SECT":" ","MAREA":" ","LANE":"８７巷","ALLEY":" ","HOUSE_NO":"２１號","E_COORD97":165875.39999999999,"N_COORD97":2544642.8900000001,"ADDRESS":"湖美街８７巷２１號","OBJECTID":420118},"geometry":{"x":165875.4000000013,"y":2544642.8900000043}},{"attributes":{"ID":420144,"DIS_CODE":0,"TOWNNAME":"中西區","LI":"西賢里","LIN":"2鄰","STREET":"湖美街","SECT":" ","MAREA":" ","LANE":"８７巷","ALLEY":" ","HOUSE_NO":"２６號","E_COORD97":165874.45000000001,"N_COORD97":2544667.0099999998,"ADDRESS":"湖美街８７巷２６號","OBJECTID":420119},"geometry":{"x":165874.45000000205,"y":2544667.0099999998}},{"attributes":{"ID":420145,"DIS_CODE":0,"TOWNNAME":"中西區","LI":"開山里","LIN":"2鄰","STREET":"開山路","SECT":" ","MAREA":" ","LANE":"１２７巷","ALLEY":" ","HOUSE_NO":"１２號","E_COORD97":168857.34,"N_COORD97":2543233.1000000001,"ADDRESS":"開山路１２７巷１２號","OBJECTID":420120},"geometry":{"x":168857.34000000078,"y":2543233.1000000034}},{"attributes":{"ID":420146,"DIS_CODE":0,"TOWNNAME":"中西區","LI":"開山里","LIN":"2鄰","STREET":"開山路","SECT":" ","MAREA":" ","LANE":"１２７巷","ALLEY":" ","HOUSE_NO":"１４號","E_COORD97":168861.48000000001,"N_COORD97":2543232.2200000002,"ADDRESS":"開山路１２７巷１４號","OBJECTID":420121},"geometry":{"x":168861.48000000231,"y":2543232.2200000007}},{"attributes":{"ID":420147,"DIS_CODE":0,"TOWNNAME":"中西區","LI":"開山里","LIN":"2鄰","STREET":"開山路","SECT":" ","MAREA":" ","LANE":"１２７巷","ALLEY":" ","HOUSE_NO":"１７號","E_COORD97":168848.66,"N_COORD97":2543254.6299999999,"ADDRESS":"開山路１２７巷１７號","OBJECTID":420122},"geometry":{"x":168848.66000000108,"y":2543254.629999999}},{"attributes":{"ID":420148,"DIS_CODE":0,"TOWNNAME":"東區","LI":"崇德里","LIN":"2鄰","STREET":"崇善路","SECT":" ","MAREA":" ","LANE":"２３２巷","ALLEY":" ","HOUSE_NO":"５２號","E_COORD97":170640.98000000001,"N_COORD97":2541886.5800000001,"ADDRESS":"崇善路２３２巷５２號","OBJECTID":420123},"geometry":{"x":170640.98000000045,"y":2541886.5800000001}},{"attributes":{"ID":420149,"DIS_CODE":0,"TOWNNAME":"永康區","LI":"王行里","LIN":"2鄰","STREET":"王行路","SECT":" ","MAREA":" ","LANE":"６８巷","ALLEY":" ","HOUSE_NO":"７號之１","E_COORD97":175721.29999999999,"N_COORD97":2548068.1800000002,"ADDRESS":"王行路６８巷７號之１","OBJECTID":420124},"geometry":{"x":175721.30000000075,"y":2548068.1800000016}},{"attributes":{"ID":420150,"DIS_CODE":0,"TOWNNAME":"永康區","LI":"南灣里","LIN":"26鄰","STREET":"立興街","SECT":" ","MAREA":" ","LANE":"７４巷","ALLEY":" ","HOUSE_NO":"３０號","E_COORD97":174515.29999999999,"N_COORD97":2544861.25,"ADDRESS":"立興街７４巷３０號","OBJECTID":420125},"geometry":{"x":174515.29999999981,"y":2544861.2500000019}},{"attributes":{"ID":420151,"DIS_CODE":0,"TOWNNAME":"永康區","LI":"尚頂里","LIN":"15鄰","STREET":"中正南路","SECT":" ","MAREA":" ","LANE":"２４２巷","ALLEY":" ","HOUSE_NO":"１１號之１","E_COORD97":170456.17999999999,"N_COORD97":2547515.6699999999,"ADDRESS":"中正南路２４２巷１１號之１","OBJECTID":420126},"geometry":{"x":170456.18000000156,"y":2547515.6700000018}},{"attributes":{"ID":420152,"DIS_CODE":0,"TOWNNAME":"永康區","LI":"東灣里","LIN":"30鄰","STREET":"大灣一街","SECT":" ","MAREA":" ","LANE":"３６０巷","ALLEY":" ","HOUSE_NO":"１７號","E_COORD97":175202.51999999999,"N_COORD97":2544763.3599999999,"ADDRESS":"大灣一街３６０巷１７號","OBJECTID":420127},"geometry":{"x":175202.52000000048,"y":2544763.3599999994}},{"attributes":{"ID":420153,"DIS_CODE":0,"TOWNNAME":"永康區","LI":"復國里","LIN":"2鄰","STREET":"復國一路","SECT":" ","MAREA":" ","LANE":"６巷","ALLEY":" ","HOUSE_NO":"２５號","E_COORD97":172812.35000000001,"N_COORD97":2544731.9300000002,"ADDRESS":"復國一路６巷２５號","OBJECTID":420128},"geometry":{"x":172812.34999999963,"y":2544731.9299999997}},{"attributes":{"ID":420154,"DIS_CODE":0,"TOWNNAME":"永康區","LI":"復國里","LIN":"2鄰","STREET":"復國一路","SECT":" ","MAREA":" ","LANE":"２８巷","ALLEY":" ","HOUSE_NO":"２４號","E_COORD97":172787.12,"N_COORD97":2544757.9399999999,"ADDRESS":"復國一路２８巷２４號","OBJECTID":420129},"geometry":{"x":172787.12000000011,"y":2544757.9400000013}},{"attributes":{"ID":420155,"DIS_CODE":0,"TOWNNAME":"永康區","LI":"復國里","LIN":"2鄰","STREET":"復國一路","SECT":" ","MAREA":" ","LANE":"２８巷","ALLEY":" ","HOUSE_NO":"４４號","E_COORD97":172827.26000000001,"N_COORD97":2544764.6800000002,"ADDRESS":"復國一路２８巷４４號","OBJECTID":420130},"geometry":{"x":172827.26000000164,"y":2544764.6799999997}},{"attributes":{"ID":420156,"DIS_CODE":0,"TOWNNAME":"永康區","LI":"復國里","LIN":"2鄰","STREET":"復國一路","SECT":" ","MAREA":" ","LANE":"２８巷","ALLEY":" ","HOUSE_NO":"１５號","E_COORD97":172772.01000000001,"N_COORD97":2544772.3700000001,"ADDRESS":"復國一路２８巷１５號","OBJECTID":420131},"geometry":{"x":172772.01000000071,"y":2544772.3700000048}},{"attributes":{"ID":420157,"DIS_CODE":0,"TOWNNAME":"永康區","LI":"復國里","LIN":"2鄰","STREET":"復國一路","SECT":" ","MAREA":" ","LANE":"２８巷","ALLEY":" ","HOUSE_NO":"７號","E_COORD97":172754.39000000001,"N_COORD97":2544769.6200000001,"ADDRESS":"復國一路２８巷７號","OBJECTID":420132},"geometry":{"x":172754.38999999966,"y":2544769.620000001}},{"attributes":{"ID":420158,"DIS_CODE":0,"TOWNNAME":"永康區","LI":"復國里","LIN":"2鄰","STREET":"復國一路","SECT":" ","MAREA":" ","LANE":"６巷","ALLEY":" ","HOUSE_NO":"９號","E_COORD97":172761.73000000001,"N_COORD97":2544732.77,"ADDRESS":"復國一路６巷９號","OBJECTID":420133},"geometry":{"x":172761.73000000045,"y":2544732.7699999996}},{"attributes":{"ID":420159,"DIS_CODE":0,"TOWNNAME":"永康區","LI":"復國里","LIN":"2鄰","STREET":"復國一路","SECT":" ","MAREA":" ","LANE":"６巷","ALLEY":" ","HOUSE_NO":"２０號","E_COORD97":172792.25,"N_COORD97":2544741.8900000001,"ADDRESS":"復國一路６巷２０號","OBJECTID":420134},"geometry":{"x":172792.25000000093,"y":2544741.8900000025}},{"attributes":{"ID":420160,"DIS_CODE":0,"TOWNNAME":"永康區","LI":"復國里","LIN":"2鄰","STREET":"復國一路","SECT":" ","MAREA":" ","LANE":"２８巷","ALLEY":" ","HOUSE_NO":"８號","E_COORD97":172753.14999999999,"N_COORD97":2544752.3399999999,"ADDRESS":"復國一路２８巷８號","OBJECTID":420135},"geometry":{"x":172753.1500000013,"y":2544752.3400000017}},{"attributes":{"ID":420161,"DIS_CODE":0,"TOWNNAME":"永康區","LI":"復國里","LIN":"2鄰","STREET":"復國一路","SECT":" ","MAREA":" ","LANE":"６巷","ALLEY":" ","HOUSE_NO":"１７號","E_COORD97":172782.29000000001,"N_COORD97":2544731.52,"ADDRESS":"復國一路６巷１７號","OBJECTID":420136},"geometry":{"x":172782.29000000097,"y":2544731.5199999996}},{"attributes":{"ID":420162,"DIS_CODE":0,"TOWNNAME":"永康區","LI":"復國里","LIN":"2鄰","STREET":"復國一路","SECT":" ","MAREA":" ","LANE":"２８巷","ALLEY":" ","HOUSE_NO":"１８號","E_COORD97":172775.39999999999,"N_COORD97":2544756.0899999999,"ADDRESS":"復國一路２８巷１８號","OBJECTID":420137},"geometry":{"x":172775.40000000037,"y":2544756.0900000017}},{"attributes":{"ID":420163,"DIS_CODE":0,"TOWNNAME":"永康區","LI":"復國里","LIN":"2鄰","STREET":"復國一路","SECT":" ","MAREA":" ","LANE":"６巷","ALLEY":" ","HOUSE_NO":"１９號","E_COORD97":172780.85000000001,"N_COORD97":2544739.77,"ADDRESS":"復國一路６巷１９號","OBJECTID":420138},"geometry":{"x":172780.85000000149,"y":2544739.7699999996}},{"attributes":{"ID":420164,"DIS_CODE":0,"TOWNNAME":"永康區","LI":"復國里","LIN":"2鄰","STREET":"復國一路","SECT":" ","MAREA":" ","LANE":"６巷","ALLEY":" ","HOUSE_NO":"１５號","E_COORD97":172783.59,"N_COORD97":2544723.77,"ADDRESS":"復國一路６巷１５號","OBJECTID":420139},"geometry":{"x":172783.59000000078,"y":2544723.7700000033}},{"attributes":{"ID":420165,"DIS_CODE":0,"TOWNNAME":"永康區","LI":"復國里","LIN":"2鄰","STREET":"復國一路","SECT":" ","MAREA":" ","LANE":"２８巷","ALLEY":" ","HOUSE_NO":"１３號","E_COORD97":172767.70999999999,"N_COORD97":2544771.6200000001,"ADDRESS":"復國一路２８巷１３號","OBJECTID":420140},"geometry":{"x":172767.70999999996,"y":2544771.6200000029}},{"attributes":{"ID":420166,"DIS_CODE":0,"TOWNNAME":"永康區","LI":"復國里","LIN":"2鄰","STREET":"復國一路","SECT":" ","MAREA":" ","LANE":"２８巷","ALLEY":" ","HOUSE_NO":"１７號","E_COORD97":172776.45000000001,"N_COORD97":2544773.23,"ADDRESS":"復國一路２８巷１７號","OBJECTID":420141},"geometry":{"x":172776.45000000019,"y":2544773.2300000023}},{"attributes":{"ID":420167,"DIS_CODE":0,"TOWNNAME":"永康區","LI":"勝利里","LIN":"2鄰","STREET":"勝利街","SECT":" ","MAREA":" ","LANE":"２巷","ALLEY":" ","HOUSE_NO":"８０號","E_COORD97":171002.56,"N_COORD97":2544780.7599999998,"ADDRESS":"勝利街２巷８０號","OBJECTID":420142},"geometry":{"x":171002.55999999959,"y":2544780.7599999998}},{"attributes":{"ID":420168,"DIS_CODE":0,"TOWNNAME":"永康區","LI":"復國里","LIN":"2鄰","STREET":"復國一路","SECT":" ","MAREA":" ","LANE":"２８巷","ALLEY":" ","HOUSE_NO":"２２號","E_COORD97":172782.91,"N_COORD97":2544757.1899999999,"ADDRESS":"復國一路２８巷２２號","OBJECTID":420143},"geometry":{"x":172782.91000000108,"y":2544757.1899999995}},{"attributes":{"ID":420169,"DIS_CODE":0,"TOWNNAME":"永康區","LI":"復國里","LIN":"2鄰","STREET":"復國一路","SECT":" ","MAREA":" ","LANE":"２８巷","ALLEY":" ","HOUSE_NO":"２６號","E_COORD97":172790.23999999999,"N_COORD97":2544758.1800000002,"ADDRESS":"復國一路２８巷２６號","OBJECTID":420144},"geometry":{"x":172790.24000000022,"y":2544758.1799999978}},{"attributes":{"ID":420170,"DIS_CODE":0,"TOWNNAME":"永康區","LI":"復國里","LIN":"2鄰","STREET":"復國一路","SECT":" ","MAREA":" ","LANE":"２８巷","ALLEY":" ","HOUSE_NO":"３４號","E_COORD97":172806.38,"N_COORD97":2544761.2400000002,"ADDRESS":"復國一路２８巷３４號","OBJECTID":420145},"geometry":{"x":172806.38000000175,"y":2544761.2400000002}},{"attributes":{"ID":420171,"DIS_CODE":0,"TOWNNAME":"永康區","LI":"勝利里","LIN":"2鄰","STREET":"勝利街","SECT":" ","MAREA":" ","LANE":"２巷","ALLEY":" ","HOUSE_NO":"６６號","E_COORD97":171001.35999999999,"N_COORD97":2544751.0099999998,"ADDRESS":"勝利街２巷６６號","OBJECTID":420146},"geometry":{"x":171001.36000000034,"y":2544751.0100000016}},{"attributes":{"ID":420172,"DIS_CODE":0,"TOWNNAME":"東區","LI":"崇善里","LIN":"2鄰","STREET":"中華東路","SECT":"三段","MAREA":" ","LANE":"１０７巷","ALLEY":" ","HOUSE_NO":"２９號","E_COORD97":170856.69,"N_COORD97":2542037.8599999999,"ADDRESS":"中華東路三段１０７巷２９號","OBJECTID":420147},"geometry":{"x":170856.69000000041,"y":2542037.8600000031}},{"attributes":{"ID":420173,"DIS_CODE":0,"TOWNNAME":"東區","LI":"崇善里","LIN":"2鄰","STREET":"中華東路","SECT":"三段","MAREA":" ","LANE":"１０７巷","ALLEY":" ","HOUSE_NO":"４０號","E_COORD97":170821.92000000001,"N_COORD97":2542055.9700000002,"ADDRESS":"中華東路三段１０７巷４０號","OBJECTID":420148},"geometry":{"x":170821.91999999993,"y":2542055.9700000025}},{"attributes":{"ID":420174,"DIS_CODE":0,"TOWNNAME":"東區","LI":"崇善里","LIN":"2鄰","STREET":"中華東路","SECT":"三段","MAREA":" ","LANE":"７７巷","ALLEY":" ","HOUSE_NO":"２６號","E_COORD97":170891.76999999999,"N_COORD97":2542120.98,"ADDRESS":"中華東路三段７７巷２６號","OBJECTID":420149},"geometry":{"x":170891.77000000048,"y":2542120.9800000023}},{"attributes":{"ID":420175,"DIS_CODE":0,"TOWNNAME":"大內區","LI":"曲溪里","LIN":"10鄰","STREET":" ","SECT":" ","MAREA":"二重溪","LANE":" ","ALLEY":" ","HOUSE_NO":"９５號之１","E_COORD97":187417.2893,"N_COORD97":2557715.0581800002,"ADDRESS":"二重溪９５號之１","OBJECTID":420150},"geometry":{"x":187417.28930000123,"y":2557715.0581800006}},{"attributes":{"ID":420176,"DIS_CODE":0,"TOWNNAME":"東區","LI":"關聖里","LIN":"2鄰","STREET":"裕農路","SECT":" ","MAREA":" ","LANE":"６６８巷","ALLEY":" ","HOUSE_NO":"４６號之２","E_COORD97":171733.76000000001,"N_COORD97":2542984.9399999999,"ADDRESS":"裕農路６６８巷４６號之２","OBJECTID":420151},"geometry":{"x":171733.75999999978,"y":2542984.9400000013}},{"attributes":{"ID":420177,"DIS_CODE":0,"TOWNNAME":"東區","LI":"關聖里","LIN":"2鄰","STREET":"裕農路","SECT":" ","MAREA":" ","LANE":"６６８巷","ALLEY":" ","HOUSE_NO":"４６號之７","E_COORD97":171716.44,"N_COORD97":2542986.6400000001,"ADDRESS":"裕農路６６８巷４６號之７","OBJECTID":420152},"geometry":{"x":171716.44000000227,"y":2542986.6400000043}},{"attributes":{"ID":420178,"DIS_CODE":0,"TOWNNAME":"東區","LI":"自強里","LIN":"2鄰","STREET":"富農街","SECT":"一段","MAREA":" ","LANE":"１３１巷","ALLEY":" ","HOUSE_NO":"２８號","E_COORD97":171437.28,"N_COORD97":2542487.6699999999,"ADDRESS":"富農街一段１３１巷２８號","OBJECTID":420153},"geometry":{"x":171437.28000000026,"y":2542487.6700000018}},{"attributes":{"ID":420179,"DIS_CODE":0,"TOWNNAME":"東區","LI":"自強里","LIN":"2鄰","STREET":"富農街","SECT":"一段","MAREA":" ","LANE":"１３１巷","ALLEY":" ","HOUSE_NO":"３０號","E_COORD97":171432.26000000001,"N_COORD97":2542487.9100000001,"ADDRESS":"富農街一段１３１巷３０號","OBJECTID":420154},"geometry":{"x":171432.26000000164,"y":2542487.9100000001}},{"attributes":{"ID":420180,"DIS_CODE":0,"TOWNNAME":"東區","LI":"自強里","LIN":"2鄰","STREET":"富農街","SECT":"一段","MAREA":" ","LANE":"１３１巷","ALLEY":" ","HOUSE_NO":"３２號","E_COORD97":171427.48000000001,"N_COORD97":2542487.6699999999,"ADDRESS":"富農街一段１３１巷３２號","OBJECTID":420155},"geometry":{"x":171427.48000000045,"y":2542487.6700000018}},{"attributes":{"ID":420181,"DIS_CODE":0,"TOWNNAME":"永康區","LI":"東灣里","LIN":"10鄰","STREET":"大灣路","SECT":" ","MAREA":" ","LANE":"４８６巷","ALLEY":" ","HOUSE_NO":"１號","E_COORD97":174717.48999999999,"N_COORD97":2544894,"ADDRESS":"大灣路４８６巷１號","OBJECTID":420156},"geometry":{"x":174717.49000000022,"y":2544894}},{"attributes":{"ID":420182,"DIS_CODE":0,"TOWNNAME":"東區","LI":"自強里","LIN":"2鄰","STREET":"富農街","SECT":"一段","MAREA":" ","LANE":"１３１巷","ALLEY":" ","HOUSE_NO":"３４號","E_COORD97":171422.69,"N_COORD97":2542487.4300000002,"ADDRESS":"富農街一段１３１巷３４號","OBJECTID":420157},"geometry":{"x":171422.69000000041,"y":2542487.4299999997}},{"attributes":{"ID":420183,"DIS_CODE":0,"TOWNNAME":"東區","LI":"自強里","LIN":"2鄰","STREET":"富農街","SECT":"一段","MAREA":" ","LANE":"１３１巷","ALLEY":" ","HOUSE_NO":"８號","E_COORD97":171511.97,"N_COORD97":2542488.3399999999,"ADDRESS":"富農街一段１３１巷８號","OBJECTID":420158},"geometry":{"x":171511.96999999881,"y":2542488.3399999999}},{"attributes":{"ID":420184,"DIS_CODE":0,"TOWNNAME":"東區","LI":"自強里","LIN":"2鄰","STREET":"富農街","SECT":"一段","MAREA":" ","LANE":"１３１巷","ALLEY":" ","HOUSE_NO":"１０號","E_COORD97":171506.67000000001,"N_COORD97":2542488.3399999999,"ADDRESS":"富農街一段１３１巷１０號","OBJECTID":420159},"geometry":{"x":171506.67000000086,"y":2542488.3399999999}},{"attributes":{"ID":420185,"DIS_CODE":0,"TOWNNAME":"東區","LI":"自強里","LIN":"2鄰","STREET":"富農街","SECT":"一段","MAREA":" ","LANE":"１３１巷","ALLEY":" ","HOUSE_NO":"１２號","E_COORD97":171502.22,"N_COORD97":2542488.0499999998,"ADDRESS":"富農街一段１３１巷１２號","OBJECTID":420160},"geometry":{"x":171502.22000000067,"y":2542488.0500000007}},{"attributes":{"ID":420186,"DIS_CODE":0,"TOWNNAME":"東區","LI":"自強里","LIN":"2鄰","STREET":"富農街","SECT":"一段","MAREA":" ","LANE":"１３１巷","ALLEY":" ","HOUSE_NO":"１４號","E_COORD97":171496.04999999999,"N_COORD97":2542487.3300000001,"ADDRESS":"富農街一段１３１巷１４號","OBJECTID":420161},"geometry":{"x":171496.04999999981,"y":2542487.3300000019}},{"attributes":{"ID":420187,"DIS_CODE":0,"TOWNNAME":"東區","LI":"自強里","LIN":"2鄰","STREET":"富農街","SECT":"一段","MAREA":" ","LANE":"１３１巷","ALLEY":" ","HOUSE_NO":"２２號","E_COORD97":171477.39999999999,"N_COORD97":2542488.0499999998,"ADDRESS":"富農街一段１３１巷２２號","OBJECTID":420162},"geometry":{"x":171477.40000000037,"y":2542488.0500000007}},{"attributes":{"ID":420188,"DIS_CODE":0,"TOWNNAME":"東區","LI":"自強里","LIN":"2鄰","STREET":"富農街","SECT":"一段","MAREA":" ","LANE":"１３１巷","ALLEY":" ","HOUSE_NO":"２４號","E_COORD97":171472.23000000001,"N_COORD97":2542487.6200000001,"ADDRESS":"富農街一段１３１巷２４號","OBJECTID":420163},"geometry":{"x":171472.23000000138,"y":2542487.620000001}},{"attributes":{"ID":420189,"DIS_CODE":0,"TOWNNAME":"東區","LI":"自強里","LIN":"2鄰","STREET":"富農街","SECT":"一段","MAREA":" ","LANE":"１３１巷","ALLEY":" ","HOUSE_NO":"２４號之１","E_COORD97":171459.32000000001,"N_COORD97":2542487.9100000001,"ADDRESS":"富農街一段１３１巷２４號之１","OBJECTID":420164},"geometry":{"x":171459.31999999937,"y":2542487.9100000001}},{"attributes":{"ID":420190,"DIS_CODE":0,"TOWNNAME":"永康區","LI":"南灣里","LIN":"26鄰","STREET":"立興街","SECT":" ","MAREA":" ","LANE":"７４巷","ALLEY":" ","HOUSE_NO":"２１號","E_COORD97":174488.37,"N_COORD97":2544826.04,"ADDRESS":"立興街７４巷２１號","OBJECTID":420165},"geometry":{"x":174488.37000000104,"y":2544826.0399999991}},{"attributes":{"ID":420191,"DIS_CODE":0,"TOWNNAME":"永康區","LI":"烏竹里","LIN":"2鄰","STREET":"烏竹北街","SECT":" ","MAREA":" ","LANE":"１８巷","ALLEY":" ","HOUSE_NO":"６號","E_COORD97":174644.41,"N_COORD97":2549397.1699999999,"ADDRESS":"烏竹北街１８巷６號","OBJECTID":420166},"geometry":{"x":174644.41000000108,"y":2549397.1700000018}},{"attributes":{"ID":420192,"DIS_CODE":0,"TOWNNAME":"永康區","LI":"烏竹里","LIN":"2鄰","STREET":"烏竹北街","SECT":" ","MAREA":" ","LANE":"１８巷","ALLEY":" ","HOUSE_NO":"３０號","E_COORD97":174682.62,"N_COORD97":2549428.1400000001,"ADDRESS":"烏竹北街１８巷３０號","OBJECTID":420167},"geometry":{"x":174682.62000000011,"y":2549428.1400000043}},{"attributes":{"ID":420193,"DIS_CODE":0,"TOWNNAME":"仁德區","LI":"新田里","LIN":"2鄰","STREET":"新田二街","SECT":" ","MAREA":" ","LANE":"１３８巷","ALLEY":" ","HOUSE_NO":"４號","E_COORD97":174889.89999999999,"N_COORD97":2539968.6499999999,"ADDRESS":"新田二街１３８巷４號","OBJECTID":420168},"geometry":{"x":174889.89999999944,"y":2539968.6500000041}},{"attributes":{"ID":420194,"DIS_CODE":0,"TOWNNAME":"永康區","LI":"北灣里","LIN":"2鄰","STREET":"大灣路","SECT":" ","MAREA":" ","LANE":"１１９巷","ALLEY":" ","HOUSE_NO":"３３號","E_COORD97":175240.51000000001,"N_COORD97":2545535.7400000002,"ADDRESS":"大灣路１１９巷３３號","OBJECTID":420169},"geometry":{"x":175240.50999999978,"y":2545535.7400000021}},{"attributes":{"ID":420195,"DIS_CODE":0,"TOWNNAME":"永康區","LI":"北灣里","LIN":"2鄰","STREET":"大同街","SECT":" ","MAREA":" ","LANE":"５０巷","ALLEY":" ","HOUSE_NO":"８號","E_COORD97":175295.69,"N_COORD97":2545452.0899999999,"ADDRESS":"大同街５０巷８號","OBJECTID":420170},"geometry":{"x":175295.69000000134,"y":2545452.0900000017}},{"attributes":{"ID":420196,"DIS_CODE":0,"TOWNNAME":"永康區","LI":"王行里","LIN":"2鄰","STREET":"王行路","SECT":" ","MAREA":" ","LANE":"２０８巷","ALLEY":" ","HOUSE_NO":"３９號","E_COORD97":175799.87,"N_COORD97":2548168,"ADDRESS":"王行路２０８巷３９號","OBJECTID":420171},"geometry":{"x":175799.87000000011,"y":2548168.0000000019}},{"attributes":{"ID":420197,"DIS_CODE":0,"TOWNNAME":"永康區","LI":"北灣里","LIN":"2鄰","STREET":"大同街","SECT":" ","MAREA":" ","LANE":"５０巷","ALLEY":" ","HOUSE_NO":"８之６號","E_COORD97":175297.07000000001,"N_COORD97":2545472.0299999998,"ADDRESS":"大同街５０巷８之６號","OBJECTID":420172},"geometry":{"x":175297.0700000003,"y":2545472.0300000012}},{"attributes":{"ID":420198,"DIS_CODE":0,"TOWNNAME":"東區","LI":"崇德里","LIN":"2鄰","STREET":"崇善路","SECT":" ","MAREA":" ","LANE":"２３２巷","ALLEY":" ","HOUSE_NO":"１１２號","E_COORD97":170626.84,"N_COORD97":2541789.79,"ADDRESS":"崇善路２３２巷１１２號","OBJECTID":420173},"geometry":{"x":170626.84000000078,"y":2541789.7899999991}},{"attributes":{"ID":420199,"DIS_CODE":0,"TOWNNAME":"東區","LI":"大學里","LIN":"2鄰","STREET":"長榮路","SECT":"三段","MAREA":" ","LANE":"８６巷","ALLEY":" ","HOUSE_NO":"１６號","E_COORD97":170288.98999999999,"N_COORD97":2543828.6000000001,"ADDRESS":"長榮路三段８６巷１６號","OBJECTID":420174},"geometry":{"x":170288.99000000115,"y":2543828.5999999996}},{"attributes":{"ID":420200,"DIS_CODE":0,"TOWNNAME":"東區","LI":"大學里","LIN":"2鄰","STREET":"長榮路","SECT":"三段","MAREA":" ","LANE":"８６巷","ALLEY":" ","HOUSE_NO":"１８號","E_COORD97":170283.35000000001,"N_COORD97":2543828.1800000002,"ADDRESS":"長榮路三段８６巷１８號","OBJECTID":420175},"geometry":{"x":170283.34999999963,"y":2543828.1799999997}},{"attributes":{"ID":420201,"DIS_CODE":0,"TOWNNAME":"東區","LI":"大學里","LIN":"2鄰","STREET":"長榮路","SECT":"三段","MAREA":" ","LANE":"８６巷","ALLEY":" ","HOUSE_NO":"２０號","E_COORD97":170277.62,"N_COORD97":2543827.0099999998,"ADDRESS":"長榮路三段８６巷２０號","OBJECTID":420176},"geometry":{"x":170277.62000000104,"y":2543827.0099999998}},{"attributes":{"ID":420202,"DIS_CODE":0,"TOWNNAME":"東區","LI":"大學里","LIN":"2鄰","STREET":"長榮路","SECT":"三段","MAREA":" ","LANE":"８６巷","ALLEY":" ","HOUSE_NO":"２２號","E_COORD97":170272.07000000001,"N_COORD97":2543826.5,"ADDRESS":"長榮路三段８６巷２２號","OBJECTID":420177},"geometry":{"x":170272.0700000003,"y":2543826.5}},{"attributes":{"ID":420203,"DIS_CODE":0,"TOWNNAME":"永康區","LI":"東灣里","LIN":"18鄰","STREET":"大灣三街","SECT":" ","MAREA":" ","LANE":"２１巷","ALLEY":" ","HOUSE_NO":"２８號","E_COORD97":174986.14000000001,"N_COORD97":2544828.6000000001,"ADDRESS":"大灣三街２１巷２８號","OBJECTID":420178},"geometry":{"x":174986.1400000006,"y":2544828.5999999996}},{"attributes":{"ID":420204,"DIS_CODE":0,"TOWNNAME":"永康區","LI":"東灣里","LIN":"26鄰","STREET":"大灣一街","SECT":" ","MAREA":" ","LANE":"２２０巷","ALLEY":" ","HOUSE_NO":"８號","E_COORD97":174892.10999999999,"N_COORD97":2544557.25,"ADDRESS":"大灣一街２２０巷８號","OBJECTID":420179},"geometry":{"x":174892.11000000127,"y":2544557.25}},{"attributes":{"ID":420205,"DIS_CODE":0,"TOWNNAME":"永康區","LI":"尚頂里","LIN":"17鄰","STREET":"中正南路","SECT":" ","MAREA":" ","LANE":"２１０巷","ALLEY":" ","HOUSE_NO":"７之２號","E_COORD97":170108.72,"N_COORD97":2547169.8799999999,"ADDRESS":"中正南路２１０巷７之２號","OBJECTID":420180},"geometry":{"x":170108.72000000067,"y":2547169.879999999}},{"attributes":{"ID":420206,"DIS_CODE":0,"TOWNNAME":"永康區","LI":"東橋里","LIN":"21鄰","STREET":"自強路","SECT":" ","MAREA":" ","LANE":"１４０巷","ALLEY":" ","HOUSE_NO":"１７號","E_COORD97":173011.85000000001,"N_COORD97":2547273.8900000001,"ADDRESS":"自強路１４０巷１７號","OBJECTID":420181},"geometry":{"x":173011.85000000056,"y":2547273.8900000025}},{"attributes":{"ID":420207,"DIS_CODE":0,"TOWNNAME":"永康區","LI":"東灣里","LIN":"16鄰","STREET":"大灣三街","SECT":" ","MAREA":" ","LANE":"５４巷","ALLEY":" ","HOUSE_NO":"３２號","E_COORD97":174868.98000000001,"N_COORD97":2544997.5,"ADDRESS":"大灣三街５４巷３２號","OBJECTID":420182},"geometry":{"x":174868.98000000045,"y":2544997.5000000037}},{"attributes":{"ID":420208,"DIS_CODE":0,"TOWNNAME":"中西區","LI":"協進里","LIN":"2鄰","STREET":"民生路","SECT":"二段","MAREA":" ","LANE":"２３０巷","ALLEY":" ","HOUSE_NO":"８號","E_COORD97":167201.64000000001,"N_COORD97":2544189.9199999999,"ADDRESS":"民生路二段２３０巷８號","OBJECTID":420183},"geometry":{"x":167201.64000000153,"y":2544189.9199999999}},{"attributes":{"ID":420209,"DIS_CODE":0,"TOWNNAME":"永康區","LI":"埔園里","LIN":"2鄰","STREET":"永埔街","SECT":" ","MAREA":" ","LANE":"７５巷","ALLEY":" ","HOUSE_NO":"９號","E_COORD97":173927,"N_COORD97":2547684.8599999999,"ADDRESS":"永埔街７５巷９號","OBJECTID":420184},"geometry":{"x":173927,"y":2547684.8599999994}},{"attributes":{"ID":420210,"DIS_CODE":0,"TOWNNAME":"永康區","LI":"埔園里","LIN":"2鄰","STREET":"永埔街","SECT":" ","MAREA":" ","LANE":"７５巷","ALLEY":" ","HOUSE_NO":"１１號","E_COORD97":173920.98000000001,"N_COORD97":2547683.4300000002,"ADDRESS":"永埔街７５巷１１號","OBJECTID":420185},"geometry":{"x":173920.98000000045,"y":2547683.4300000016}},{"attributes":{"ID":420211,"DIS_CODE":0,"TOWNNAME":"佳里區","LI":"東寧里","LIN":"2鄰","STREET":"中山路","SECT":" ","MAREA":" ","LANE":"２９２巷","ALLEY":" ","HOUSE_NO":"６號","E_COORD97":165747.95000000001,"N_COORD97":2562341.5099999998,"ADDRESS":"中山路２９２巷６號","OBJECTID":420186},"geometry":{"x":165747.95000000112,"y":2562341.5099999998}},{"attributes":{"ID":420212,"DIS_CODE":0,"TOWNNAME":"佳里區","LI":"東寧里","LIN":"2鄰","STREET":"中山路","SECT":" ","MAREA":" ","LANE":"２９２巷","ALLEY":" ","HOUSE_NO":"７號","E_COORD97":165751.57000000001,"N_COORD97":2562341.75,"ADDRESS":"中山路２９２巷７號","OBJECTID":420187},"geometry":{"x":165751.5700000003,"y":2562341.7500000019}},{"attributes":{"ID":420213,"DIS_CODE":0,"TOWNNAME":"佳里區","LI":"東寧里","LIN":"2鄰","STREET":"中山路","SECT":" ","MAREA":" ","LANE":"２９２巷","ALLEY":" ","HOUSE_NO":"８號","E_COORD97":165755.53,"N_COORD97":2562342.1299999999,"ADDRESS":"中山路２９２巷８號","OBJECTID":420188},"geometry":{"x":165755.53000000119,"y":2562342.1300000008}},{"attributes":{"ID":420214,"DIS_CODE":0,"TOWNNAME":"佳里區","LI":"東寧里","LIN":"2鄰","STREET":"中山路","SECT":" ","MAREA":" ","LANE":"２９２巷","ALLEY":" ","HOUSE_NO":"９號","E_COORD97":165759.28,"N_COORD97":2562342.3900000001,"ADDRESS":"中山路２９２巷９號","OBJECTID":420189},"geometry":{"x":165759.28000000119,"y":2562342.3900000006}},{"attributes":{"ID":420215,"DIS_CODE":0,"TOWNNAME":"永康區","LI":"東灣里","LIN":"13鄰","STREET":"大灣路","SECT":" ","MAREA":" ","LANE":"３５７巷","ALLEY":" ","HOUSE_NO":"３號","E_COORD97":174786.23999999999,"N_COORD97":2544903.9300000002,"ADDRESS":"大灣路３５７巷３號","OBJECTID":420190},"geometry":{"x":174786.24000000115,"y":2544903.9300000016}},{"attributes":{"ID":420216,"DIS_CODE":0,"TOWNNAME":"永康區","LI":"埔園里","LIN":"31鄰","STREET":"八德街","SECT":" ","MAREA":" ","LANE":"１４０巷","ALLEY":" ","HOUSE_NO":"７３號","E_COORD97":173994.17000000001,"N_COORD97":2548708.02,"ADDRESS":"八德街１４０巷７３號","OBJECTID":420191},"geometry":{"x":173994.16999999993,"y":2548708.0199999996}},{"attributes":{"ID":420217,"DIS_CODE":0,"TOWNNAME":"東區","LI":"大同里","LIN":"2鄰","STREET":"大同路","SECT":"一段","MAREA":" ","LANE":"４５巷","ALLEY":" ","HOUSE_NO":"１０號","E_COORD97":169218.10999999999,"N_COORD97":2543156.8399999999,"ADDRESS":"大同路一段４５巷１０號","OBJECTID":420192},"geometry":{"x":169218.1100000022,"y":2543156.8399999999}},{"attributes":{"ID":420218,"DIS_CODE":0,"TOWNNAME":"東區","LI":"大同里","LIN":"2鄰","STREET":"大同路","SECT":"一段","MAREA":" ","LANE":"４５巷","ALLEY":" ","HOUSE_NO":"１１號","E_COORD97":169212.69,"N_COORD97":2543177.8399999999,"ADDRESS":"大同路一段４５巷１１號","OBJECTID":420193},"geometry":{"x":169212.69000000227,"y":2543177.8400000036}},{"attributes":{"ID":420219,"DIS_CODE":0,"TOWNNAME":"東區","LI":"大同里","LIN":"2鄰","STREET":"大同路","SECT":"一段","MAREA":" ","LANE":"４５巷","ALLEY":" ","HOUSE_NO":"１２號","E_COORD97":169229.57999999999,"N_COORD97":2543152.79,"ADDRESS":"大同路一段４５巷１２號","OBJECTID":420194},"geometry":{"x":169229.58000000007,"y":2543152.7899999991}},{"attributes":{"ID":420220,"DIS_CODE":0,"TOWNNAME":"東區","LI":"大同里","LIN":"2鄰","STREET":"大同路","SECT":"一段","MAREA":" ","LANE":"４５巷","ALLEY":" ","HOUSE_NO":"１３號","E_COORD97":169217.14000000001,"N_COORD97":2543189.1000000001,"ADDRESS":"大同路一段４５巷１３號","OBJECTID":420195},"geometry":{"x":169217.13999999873,"y":2543189.1000000034}},{"attributes":{"ID":420221,"DIS_CODE":0,"TOWNNAME":"東區","LI":"大同里","LIN":"2鄰","STREET":"大同路","SECT":"一段","MAREA":" ","LANE":"４５巷","ALLEY":" ","HOUSE_NO":"１４號","E_COORD97":169240.73000000001,"N_COORD97":2543149.1600000001,"ADDRESS":"大同路一段４５巷１４號","OBJECTID":420196},"geometry":{"x":169240.73000000045,"y":2543149.160000002}},{"attributes":{"ID":420222,"DIS_CODE":0,"TOWNNAME":"東區","LI":"大同里","LIN":"2鄰","STREET":"大同路","SECT":"一段","MAREA":" ","LANE":"４５巷","ALLEY":" ","HOUSE_NO":"１５號","E_COORD97":169224.38,"N_COORD97":2543183.9300000002,"ADDRESS":"大同路一段４５巷１５號","OBJECTID":420197},"geometry":{"x":169224.38000000175,"y":2543183.9300000016}},{"attributes":{"ID":420223,"DIS_CODE":0,"TOWNNAME":"東區","LI":"大同里","LIN":"2鄰","STREET":"大同路","SECT":"一段","MAREA":" ","LANE":"４５巷","ALLEY":" ","HOUSE_NO":"１６號","E_COORD97":169252.54999999999,"N_COORD97":2543145.98,"ADDRESS":"大同路一段４５巷１６號","OBJECTID":420198},"geometry":{"x":169252.55000000075,"y":2543145.9800000004}},{"attributes":{"ID":420224,"DIS_CODE":0,"TOWNNAME":"東區","LI":"大同里","LIN":"2鄰","STREET":"大同路","SECT":"一段","MAREA":" ","LANE":"４５巷","ALLEY":" ","HOUSE_NO":"１７號","E_COORD97":169227.98999999999,"N_COORD97":2543172.4300000002,"ADDRESS":"大同路一段４５巷１７號","OBJECTID":420199},"geometry":{"x":169227.99000000115,"y":2543172.4299999997}},{"attributes":{"ID":420225,"DIS_CODE":0,"TOWNNAME":"東區","LI":"大同里","LIN":"2鄰","STREET":"大同路","SECT":"一段","MAREA":" ","LANE":"４５巷","ALLEY":" ","HOUSE_NO":"１８號","E_COORD97":169264.60000000001,"N_COORD97":2543150.75,"ADDRESS":"大同路一段４５巷１８號","OBJECTID":420200},"geometry":{"x":169264.59999999963,"y":2543150.75}}]}