{"displayFieldName":"TOWNNAME","fieldAliases":{"ID":"ID","DIS_CODE":"DIS_CODE","TOWNNAME":"TOWNNAME","LI":"LI","LIN":"LIN","STREET":"STREET","SECT":"SECT","MAREA":"MAREA","LANE":"LANE","ALLEY":"ALLEY","HOUSE_NO":"HOUSE_NO","E_COORD97":"E_COORD97","N_COORD97":"N_COORD97","ADDRESS":"ADDRESS","OBJECTID":"OBJECTID"},"geometryType":"esriGeometryPoint","spatialReference":{"wkid":102443,"latestWkid":3826},"fields":[{"name":"ID","type":"esriFieldTypeDouble","alias":"ID"},{"name":"DIS_CODE","type":"esriFieldTypeInteger","alias":"DIS_CODE"},{"name":"TOWNNAME","type":"esriFieldTypeString","alias":"TOWNNAME","length":8},{"name":"LI","type":"esriFieldTypeString","alias":"LI","length":8},{"name":"LIN","type":"esriFieldTypeString","alias":"LIN","length":12},{"name":"STREET","type":"esriFieldTypeString","alias":"STREET","length":20},{"name":"SECT","type":"esriFieldTypeString","alias":"SECT","length":8},{"name":"MAREA","type":"esriFieldTypeString","alias":"MAREA","length":12},{"name":"LANE","type":"esriFieldTypeString","alias":"LANE","length":10},{"name":"ALLEY","type":"esriFieldTypeString","alias":"ALLEY","length":10},{"name":"HOUSE_NO","type":"esriFieldTypeString","alias":"HOUSE_NO","length":20},{"name":"E_COORD97","type":"esriFieldTypeDouble","alias":"E_COORD97"},{"name":"N_COORD97","type":"esriFieldTypeDouble","alias":"N_COORD97"},{"name":"ADDRESS","type":"esriFieldTypeString","alias":"ADDRESS","length":50},{"name":"OBJECTID","type":"esriFieldTypeOID","alias":"OBJECTID"}],"features":[{"attributes":{"ID":272006,"DIS_CODE":0,"TOWNNAME":"白河區","LI":"關嶺里","LIN":"3鄰","STREET":" ","SECT":" ","MAREA":"關子嶺","LANE":" ","ALLEY":" ","HOUSE_NO":"５９號","E_COORD97":199214.70000000001,"N_COORD97":2581447.6200000001,"ADDRESS":"關子嶺５９號","OBJECTID":272001},"geometry":{"x":199214.70000000019,"y":2581447.6200000048}},{"attributes":{"ID":272007,"DIS_CODE":0,"TOWNNAME":"白河區","LI":"關嶺里","LIN":"3鄰","STREET":" ","SECT":" ","MAREA":"關子嶺","LANE":" ","ALLEY":" ","HOUSE_NO":"６０之１號","E_COORD97":199206.44,"N_COORD97":2581425.0899999999,"ADDRESS":"關子嶺６０之１號","OBJECTID":272002},"geometry":{"x":199206.44000000134,"y":2581425.0899999999}},{"attributes":{"ID":272008,"DIS_CODE":0,"TOWNNAME":"白河區","LI":"關嶺里","LIN":"3鄰","STREET":" ","SECT":" ","MAREA":"關子嶺","LANE":" ","ALLEY":" ","HOUSE_NO":"６１之１號","E_COORD97":199281.29000000001,"N_COORD97":2581320.8500000001,"ADDRESS":"關子嶺６１之１號","OBJECTID":272003},"geometry":{"x":199281.29000000097,"y":2581320.8499999996}},{"attributes":{"ID":272009,"DIS_CODE":0,"TOWNNAME":"永康區","LI":"新樹里","LIN":"7鄰","STREET":"西勢路","SECT":" ","MAREA":" ","LANE":"２２８巷","ALLEY":" ","HOUSE_NO":"５３號","E_COORD97":175740.60000000001,"N_COORD97":2546931.8300000001,"ADDRESS":"西勢路２２８巷５３號","OBJECTID":272004},"geometry":{"x":175740.60000000149,"y":2546931.8300000019}},{"attributes":{"ID":272010,"DIS_CODE":0,"TOWNNAME":"永康區","LI":"蔦松里","LIN":"7鄰","STREET":"蔦松一街","SECT":" ","MAREA":" ","LANE":"２２巷","ALLEY":" ","HOUSE_NO":"２４號","E_COORD97":174066.42999999999,"N_COORD97":2549438.04,"ADDRESS":"蔦松一街２２巷２４號","OBJECTID":272005},"geometry":{"x":174066.4299999997,"y":2549438.040000001}},{"attributes":{"ID":272011,"DIS_CODE":0,"TOWNNAME":"白河區","LI":"關嶺里","LIN":"3鄰","STREET":" ","SECT":" ","MAREA":"關子嶺","LANE":" ","ALLEY":" ","HOUSE_NO":"６１之３號","E_COORD97":199350.47,"N_COORD97":2581323.6600000001,"ADDRESS":"關子嶺６１之３號","OBJECTID":272006},"geometry":{"x":199350.4700000016,"y":2581323.6600000001}},{"attributes":{"ID":272012,"DIS_CODE":0,"TOWNNAME":"白河區","LI":"關嶺里","LIN":"3鄰","STREET":" ","SECT":" ","MAREA":"關子嶺","LANE":" ","ALLEY":" ","HOUSE_NO":"６１之５號","E_COORD97":199324.13,"N_COORD97":2581271.6099999999,"ADDRESS":"關子嶺６１之５號","OBJECTID":272007},"geometry":{"x":199324.13000000175,"y":2581271.6099999994}},{"attributes":{"ID":272013,"DIS_CODE":0,"TOWNNAME":"白河區","LI":"關嶺里","LIN":"3鄰","STREET":" ","SECT":" ","MAREA":"關子嶺","LANE":" ","ALLEY":" ","HOUSE_NO":"６１之６號","E_COORD97":199330.01000000001,"N_COORD97":2581351.9100000001,"ADDRESS":"關子嶺６１之６號","OBJECTID":272008},"geometry":{"x":199330.01000000164,"y":2581351.9100000001}},{"attributes":{"ID":272014,"DIS_CODE":0,"TOWNNAME":"白河區","LI":"關嶺里","LIN":"3鄰","STREET":" ","SECT":" ","MAREA":"關子嶺","LANE":" ","ALLEY":" ","HOUSE_NO":"６１之７號","E_COORD97":199222.41,"N_COORD97":2581369.8500000001,"ADDRESS":"關子嶺６１之７號","OBJECTID":272009},"geometry":{"x":199222.41000000201,"y":2581369.8500000034}},{"attributes":{"ID":272015,"DIS_CODE":0,"TOWNNAME":"白河區","LI":"關嶺里","LIN":"3鄰","STREET":" ","SECT":" ","MAREA":"關子嶺","LANE":" ","ALLEY":" ","HOUSE_NO":"６１號","E_COORD97":199220.01999999999,"N_COORD97":2581394.8999999999,"ADDRESS":"關子嶺６１號","OBJECTID":272010},"geometry":{"x":199220.02000000048,"y":2581394.9000000022}},{"attributes":{"ID":272016,"DIS_CODE":0,"TOWNNAME":"白河區","LI":"關嶺里","LIN":"3鄰","STREET":" ","SECT":" ","MAREA":"關子嶺","LANE":" ","ALLEY":" ","HOUSE_NO":"６２之２號","E_COORD97":199188.23999999999,"N_COORD97":2581446.29,"ADDRESS":"關子嶺６２之２號","OBJECTID":272011},"geometry":{"x":199188.24000000209,"y":2581446.2899999991}},{"attributes":{"ID":272017,"DIS_CODE":0,"TOWNNAME":"白河區","LI":"關嶺里","LIN":"3鄰","STREET":" ","SECT":" ","MAREA":"關子嶺","LANE":" ","ALLEY":" ","HOUSE_NO":"６２號","E_COORD97":199192.98000000001,"N_COORD97":2581457.5499999998,"ADDRESS":"關子嶺６２號","OBJECTID":272012},"geometry":{"x":199192.98000000045,"y":2581457.5500000007}},{"attributes":{"ID":272018,"DIS_CODE":0,"TOWNNAME":"白河區","LI":"關嶺里","LIN":"3鄰","STREET":" ","SECT":" ","MAREA":"關子嶺","LANE":" ","ALLEY":" ","HOUSE_NO":"６３之１號","E_COORD97":199125.01000000001,"N_COORD97":2581458.54,"ADDRESS":"關子嶺６３之１號","OBJECTID":272013},"geometry":{"x":199125.01000000071,"y":2581458.5399999991}},{"attributes":{"ID":272019,"DIS_CODE":0,"TOWNNAME":"白河區","LI":"關嶺里","LIN":"3鄰","STREET":" ","SECT":" ","MAREA":"關子嶺","LANE":" ","ALLEY":" ","HOUSE_NO":"６４之１號","E_COORD97":199172.04999999999,"N_COORD97":2581391.9100000001,"ADDRESS":"關子嶺６４之１號","OBJECTID":272014},"geometry":{"x":199172.05000000168,"y":2581391.910000002}},{"attributes":{"ID":272020,"DIS_CODE":0,"TOWNNAME":"永康區","LI":"新樹里","LIN":"7鄰","STREET":"富強路","SECT":"二段","MAREA":" ","LANE":"５６巷","ALLEY":" ","HOUSE_NO":"１號","E_COORD97":175731.23000000001,"N_COORD97":2546953.2200000002,"ADDRESS":"富強路二段５６巷１號","OBJECTID":272015},"geometry":{"x":175731.23000000045,"y":2546953.2200000025}},{"attributes":{"ID":272021,"DIS_CODE":0,"TOWNNAME":"永康區","LI":"復國里","LIN":"7鄰","STREET":"復國一路","SECT":" ","MAREA":" ","LANE":"１５０巷","ALLEY":" ","HOUSE_NO":"４號","E_COORD97":172747.42999999999,"N_COORD97":2545067.5600000001,"ADDRESS":"復國一路１５０巷４號","OBJECTID":272016},"geometry":{"x":172747.4299999997,"y":2545067.5600000005}},{"attributes":{"ID":272022,"DIS_CODE":0,"TOWNNAME":"南區","LI":"大恩里","LIN":"3鄰","STREET":"國民路","SECT":" ","MAREA":" ","LANE":" ","ALLEY":" ","HOUSE_NO":"１３２號之１","E_COORD97":169264.35000000001,"N_COORD97":2540907.3900000001,"ADDRESS":"國民路１３２號之１","OBJECTID":272017},"geometry":{"x":169264.34999999963,"y":2540907.3900000025}},{"attributes":{"ID":272023,"DIS_CODE":0,"TOWNNAME":"永康區","LI":"復國里","LIN":"7鄰","STREET":"復國一路","SECT":" ","MAREA":" ","LANE":"１５０巷","ALLEY":" ","HOUSE_NO":"１號","E_COORD97":172746.87,"N_COORD97":2545087.5600000001,"ADDRESS":"復國一路１５０巷１號","OBJECTID":272018},"geometry":{"x":172746.87000000011,"y":2545087.5600000005}},{"attributes":{"ID":272024,"DIS_CODE":0,"TOWNNAME":"南區","LI":"松安里","LIN":"3鄰","STREET":"省躬三街","SECT":" ","MAREA":" ","LANE":" ","ALLEY":" ","HOUSE_NO":"３２３號","E_COORD97":165834.57999999999,"N_COORD97":2536227.6800000002,"ADDRESS":"省躬三街３２３號","OBJECTID":272019},"geometry":{"x":165834.58000000194,"y":2536227.6799999997}},{"attributes":{"ID":272025,"DIS_CODE":0,"TOWNNAME":"東區","LI":"東門里","LIN":"11鄰","STREET":"東榮街","SECT":" ","MAREA":" ","LANE":" ","ALLEY":" ","HOUSE_NO":"１８號","E_COORD97":169547.57999999999,"N_COORD97":2543469.9100000001,"ADDRESS":"東榮街１８號","OBJECTID":272020},"geometry":{"x":169547.58000000101,"y":2543469.910000002}},{"attributes":{"ID":272026,"DIS_CODE":0,"TOWNNAME":"南區","LI":"大林里","LIN":"3鄰","STREET":"大同路","SECT":"二段","MAREA":" ","LANE":" ","ALLEY":" ","HOUSE_NO":"４３２號","E_COORD97":169429.75,"N_COORD97":2541615.04,"ADDRESS":"大同路二段４３２號","OBJECTID":272021},"geometry":{"x":169429.75,"y":2541615.0399999991}},{"attributes":{"ID":272027,"DIS_CODE":0,"TOWNNAME":"東區","LI":"東門里","LIN":"11鄰","STREET":"東榮街","SECT":" ","MAREA":" ","LANE":" ","ALLEY":" ","HOUSE_NO":"２０號","E_COORD97":169547.57999999999,"N_COORD97":2543462.1800000002,"ADDRESS":"東榮街２０號","OBJECTID":272022},"geometry":{"x":169547.58000000101,"y":2543462.1799999997}},{"attributes":{"ID":272028,"DIS_CODE":0,"TOWNNAME":"善化區","LI":"文昌里","LIN":"15鄰","STREET":"光復路","SECT":" ","MAREA":" ","LANE":" ","ALLEY":" ","HOUSE_NO":"４６號","E_COORD97":177563.70999999999,"N_COORD97":2558714.2599999998,"ADDRESS":"光復路４６號","OBJECTID":272023},"geometry":{"x":177563.70999999996,"y":2558714.2600000016}},{"attributes":{"ID":272029,"DIS_CODE":0,"TOWNNAME":"善化區","LI":"文正里","LIN":" ","STREET":"陽明路","SECT":" ","MAREA":" ","LANE":" ","ALLEY":" ","HOUSE_NO":"６４號","E_COORD97":176534.01000000001,"N_COORD97":2559328.0099999998,"ADDRESS":"陽明路６４號","OBJECTID":272024},"geometry":{"x":176534.00999999978,"y":2559328.0100000035}},{"attributes":{"ID":272030,"DIS_CODE":0,"TOWNNAME":"永康區","LI":"勝利里","LIN":"7鄰","STREET":"勝利街","SECT":" ","MAREA":" ","LANE":"２２巷","ALLEY":" ","HOUSE_NO":"２５號","E_COORD97":171262.20000000001,"N_COORD97":2544643.5099999998,"ADDRESS":"勝利街２２巷２５號","OBJECTID":272025},"geometry":{"x":171262.20000000112,"y":2544643.5099999998}},{"attributes":{"ID":272031,"DIS_CODE":0,"TOWNNAME":"永康區","LI":"勝利里","LIN":"7鄰","STREET":"勝利街","SECT":" ","MAREA":" ","LANE":"２２巷","ALLEY":" ","HOUSE_NO":"３９號","E_COORD97":171264.04000000001,"N_COORD97":2544673.2599999998,"ADDRESS":"勝利街２２巷３９號","OBJECTID":272026},"geometry":{"x":171264.04000000004,"y":2544673.2600000035}},{"attributes":{"ID":272032,"DIS_CODE":0,"TOWNNAME":"永康區","LI":"大橋里","LIN":"7鄰","STREET":"大橋三街","SECT":" ","MAREA":" ","LANE":"１９９巷","ALLEY":" ","HOUSE_NO":"２３號","E_COORD97":170849.09,"N_COORD97":2546844.1299999999,"ADDRESS":"大橋三街１９９巷２３號","OBJECTID":272027},"geometry":{"x":170849.09000000078,"y":2546844.1300000008}},{"attributes":{"ID":272033,"DIS_CODE":0,"TOWNNAME":"永康區","LI":"三民里","LIN":"7鄰","STREET":"三民街","SECT":" ","MAREA":" ","LANE":"１１２巷","ALLEY":" ","HOUSE_NO":"４５號","E_COORD97":172856.37,"N_COORD97":2550466.29,"ADDRESS":"三民街１１２巷４５號","OBJECTID":272028},"geometry":{"x":172856.37000000104,"y":2550466.2899999972}},{"attributes":{"ID":272034,"DIS_CODE":0,"TOWNNAME":"永康區","LI":"大橋里","LIN":"7鄰","STREET":"大橋三街","SECT":" ","MAREA":" ","LANE":"１９９巷","ALLEY":" ","HOUSE_NO":"２１號","E_COORD97":170847.17999999999,"N_COORD97":2546839.3799999999,"ADDRESS":"大橋三街１９９巷２１號","OBJECTID":272029},"geometry":{"x":170847.1799999997,"y":2546839.3800000008}},{"attributes":{"ID":272035,"DIS_CODE":0,"TOWNNAME":"永康區","LI":"三合里","LIN":"7鄰","STREET":"南工街","SECT":" ","MAREA":" ","LANE":"８７巷","ALLEY":" ","HOUSE_NO":"６號","E_COORD97":172069.70000000001,"N_COORD97":2545692.1200000001,"ADDRESS":"南工街８７巷６號","OBJECTID":272030},"geometry":{"x":172069.70000000019,"y":2545692.120000001}},{"attributes":{"ID":272036,"DIS_CODE":0,"TOWNNAME":"永康區","LI":"大橋里","LIN":"7鄰","STREET":"大橋三街","SECT":" ","MAREA":" ","LANE":"１９９巷","ALLEY":" ","HOUSE_NO":"９５號","E_COORD97":170979.07000000001,"N_COORD97":2546923.1299999999,"ADDRESS":"大橋三街１９９巷９５號","OBJECTID":272031},"geometry":{"x":170979.0700000003,"y":2546923.129999999}},{"attributes":{"ID":272037,"DIS_CODE":0,"TOWNNAME":"永康區","LI":"大橋里","LIN":"7鄰","STREET":"大橋三街","SECT":" ","MAREA":" ","LANE":"１９９巷","ALLEY":" ","HOUSE_NO":"１９號","E_COORD97":170843.92999999999,"N_COORD97":2546835.1299999999,"ADDRESS":"大橋三街１９９巷１９號","OBJECTID":272032},"geometry":{"x":170843.9299999997,"y":2546835.129999999}},{"attributes":{"ID":272038,"DIS_CODE":0,"TOWNNAME":"善化區","LI":"光文里","LIN":"7鄰","STREET":"建業路","SECT":" ","MAREA":" ","LANE":"２４５巷","ALLEY":" ","HOUSE_NO":"３８號","E_COORD97":177946.34,"N_COORD97":2560001.8199999998,"ADDRESS":"建業路２４５巷３８號","OBJECTID":272033},"geometry":{"x":177946.34000000171,"y":2560001.8200000022}},{"attributes":{"ID":272039,"DIS_CODE":0,"TOWNNAME":"善化區","LI":"光文里","LIN":"7鄰","STREET":"建業路","SECT":" ","MAREA":" ","LANE":"２４５巷","ALLEY":" ","HOUSE_NO":"２３號","E_COORD97":178047.98999999999,"N_COORD97":2560128.7999999998,"ADDRESS":"建業路２４５巷２３號","OBJECTID":272034},"geometry":{"x":178047.99000000115,"y":2560128.8000000026}},{"attributes":{"ID":272040,"DIS_CODE":0,"TOWNNAME":"善化區","LI":"光文里","LIN":"7鄰","STREET":"建業路","SECT":" ","MAREA":" ","LANE":"１９０巷","ALLEY":" ","HOUSE_NO":"５５號","E_COORD97":178825.84,"N_COORD97":2560054.75,"ADDRESS":"建業路１９０巷５５號","OBJECTID":272035},"geometry":{"x":178825.83999999985,"y":2560054.75}},{"attributes":{"ID":272041,"DIS_CODE":0,"TOWNNAME":"中西區","LI":"西賢里","LIN":"7鄰","STREET":"湖美街","SECT":" ","MAREA":" ","LANE":"２６３巷","ALLEY":" ","HOUSE_NO":"２號","E_COORD97":165906.39999999999,"N_COORD97":2545030.7400000002,"ADDRESS":"湖美街２６３巷２號","OBJECTID":272036},"geometry":{"x":165906.40000000037,"y":2545030.7400000021}},{"attributes":{"ID":272042,"DIS_CODE":0,"TOWNNAME":"中西區","LI":"開山里","LIN":"7鄰","STREET":"開山路","SECT":" ","MAREA":" ","LANE":"１２７巷","ALLEY":" ","HOUSE_NO":"６２號","E_COORD97":168984.09,"N_COORD97":2543104.5899999999,"ADDRESS":"開山路１２７巷６２號","OBJECTID":272037},"geometry":{"x":168984.09000000078,"y":2543104.5900000036}},{"attributes":{"ID":272043,"DIS_CODE":0,"TOWNNAME":"中西區","LI":"開山里","LIN":"7鄰","STREET":"開山路","SECT":" ","MAREA":" ","LANE":"１２７巷","ALLEY":" ","HOUSE_NO":"６４號","E_COORD97":168979.34,"N_COORD97":2543092.5099999998,"ADDRESS":"開山路１２７巷６４號","OBJECTID":272038},"geometry":{"x":168979.34000000078,"y":2543092.5100000016}},{"attributes":{"ID":272044,"DIS_CODE":0,"TOWNNAME":"中西區","LI":"開山里","LIN":"7鄰","STREET":"開山路","SECT":" ","MAREA":" ","LANE":"１２７巷","ALLEY":" ","HOUSE_NO":"６６號","E_COORD97":168975.94,"N_COORD97":2543086.9500000002,"ADDRESS":"開山路１２７巷６６號","OBJECTID":272039},"geometry":{"x":168975.94000000134,"y":2543086.9499999993}},{"attributes":{"ID":272045,"DIS_CODE":0,"TOWNNAME":"中西區","LI":"開山里","LIN":"7鄰","STREET":"開山路","SECT":" ","MAREA":" ","LANE":"１２７巷","ALLEY":" ","HOUSE_NO":"７４號","E_COORD97":168995.09,"N_COORD97":2543101.4399999999,"ADDRESS":"開山路１２７巷７４號","OBJECTID":272040},"geometry":{"x":168995.08999999985,"y":2543101.4399999995}},{"attributes":{"ID":272046,"DIS_CODE":0,"TOWNNAME":"善化區","LI":"文正里","LIN":"13鄰","STREET":"陽明路","SECT":" ","MAREA":" ","LANE":" ","ALLEY":" ","HOUSE_NO":"９６號之２","E_COORD97":176478.92000000001,"N_COORD97":2559402.27,"ADDRESS":"陽明路９６號之２","OBJECTID":272041},"geometry":{"x":176478.91999999993,"y":2559402.2700000014}},{"attributes":{"ID":272047,"DIS_CODE":0,"TOWNNAME":"白河區","LI":"仙草里","LIN":"3鄰","STREET":" ","SECT":" ","MAREA":"仙草","LANE":" ","ALLEY":" ","HOUSE_NO":"３１之１號","E_COORD97":196277.95999999999,"N_COORD97":2582474.1000000001,"ADDRESS":"仙草３１之１號","OBJECTID":272042},"geometry":{"x":196277.96000000089,"y":2582474.1000000015}},{"attributes":{"ID":272048,"DIS_CODE":0,"TOWNNAME":"白河區","LI":"仙草里","LIN":"3鄰","STREET":" ","SECT":" ","MAREA":"仙草","LANE":" ","ALLEY":" ","HOUSE_NO":"３２之１號","E_COORD97":196282.26999999999,"N_COORD97":2582486.5099999998,"ADDRESS":"仙草３２之１號","OBJECTID":272043},"geometry":{"x":196282.27000000048,"y":2582486.5099999998}},{"attributes":{"ID":272049,"DIS_CODE":0,"TOWNNAME":"白河區","LI":"蓮潭里","LIN":"3鄰","STREET":" ","SECT":" ","MAREA":"北埔","LANE":" ","ALLEY":" ","HOUSE_NO":"７之１號","E_COORD97":189433.39999999999,"N_COORD97":2589691.8300000001,"ADDRESS":"北埔７之１號","OBJECTID":272044},"geometry":{"x":189433.4000000013,"y":2589691.8300000019}},{"attributes":{"ID":272050,"DIS_CODE":0,"TOWNNAME":"中西區","LI":"開山里","LIN":"7鄰","STREET":"開山路","SECT":" ","MAREA":" ","LANE":"１２７巷","ALLEY":" ","HOUSE_NO":"７６號","E_COORD97":169001.34,"N_COORD97":2543098.5899999999,"ADDRESS":"開山路１２７巷７６號","OBJECTID":272045},"geometry":{"x":169001.34000000078,"y":2543098.5900000017}},{"attributes":{"ID":272051,"DIS_CODE":0,"TOWNNAME":"中西區","LI":"開山里","LIN":"7鄰","STREET":"開山路","SECT":" ","MAREA":" ","LANE":"１２７巷","ALLEY":" ","HOUSE_NO":"７８號","E_COORD97":169000.66,"N_COORD97":2543094.3799999999,"ADDRESS":"開山路１２７巷７８號","OBJECTID":272046},"geometry":{"x":169000.66000000201,"y":2543094.379999999}},{"attributes":{"ID":272052,"DIS_CODE":0,"TOWNNAME":"中西區","LI":"開山里","LIN":"7鄰","STREET":"開山路","SECT":" ","MAREA":" ","LANE":"１２７巷","ALLEY":" ","HOUSE_NO":"８０號","E_COORD97":168998.89999999999,"N_COORD97":2543091.2599999998,"ADDRESS":"開山路１２７巷８０號","OBJECTID":272047},"geometry":{"x":168998.90000000037,"y":2543091.2600000016}},{"attributes":{"ID":272053,"DIS_CODE":0,"TOWNNAME":"中西區","LI":"開山里","LIN":"7鄰","STREET":"開山路","SECT":" ","MAREA":" ","LANE":"１２７巷","ALLEY":" ","HOUSE_NO":"８２號","E_COORD97":168995.76999999999,"N_COORD97":2543088.2799999998,"ADDRESS":"開山路１２７巷８２號","OBJECTID":272048},"geometry":{"x":168995.76999999862,"y":2543088.2799999993}},{"attributes":{"ID":272054,"DIS_CODE":0,"TOWNNAME":"中西區","LI":"開山里","LIN":"7鄰","STREET":"開山路","SECT":" ","MAREA":" ","LANE":"１２７巷","ALLEY":" ","HOUSE_NO":"８４號","E_COORD97":168994.82000000001,"N_COORD97":2543085.29,"ADDRESS":"開山路１２７巷８４號","OBJECTID":272049},"geometry":{"x":168994.82000000123,"y":2543085.2899999991}},{"attributes":{"ID":272055,"DIS_CODE":0,"TOWNNAME":"東區","LI":"東智里","LIN":"6鄰","STREET":"德東街","SECT":" ","MAREA":" ","LANE":" ","ALLEY":" ","HOUSE_NO":"７９號","E_COORD97":170998.66,"N_COORD97":2540257.98,"ADDRESS":"德東街７９號","OBJECTID":272050},"geometry":{"x":170998.66000000015,"y":2540257.9799999986}},{"attributes":{"ID":272056,"DIS_CODE":0,"TOWNNAME":"中西區","LI":"開山里","LIN":"7鄰","STREET":"開山路","SECT":" ","MAREA":" ","LANE":"１２７巷","ALLEY":" ","HOUSE_NO":"８６號","E_COORD97":168994.82000000001,"N_COORD97":2543080.9500000002,"ADDRESS":"開山路１２７巷８６號","OBJECTID":272051},"geometry":{"x":168994.82000000123,"y":2543080.9499999993}},{"attributes":{"ID":272057,"DIS_CODE":0,"TOWNNAME":"北區","LI":"大仁里","LIN":"8鄰","STREET":"北門路","SECT":"二段","MAREA":" ","LANE":"２１７巷","ALLEY":" ","HOUSE_NO":"１０號","E_COORD97":169478.66,"N_COORD97":2545283.6200000001,"ADDRESS":"北門路二段２１７巷１０號","OBJECTID":272052},"geometry":{"x":169478.66000000201,"y":2545283.6200000029}},{"attributes":{"ID":272058,"DIS_CODE":0,"TOWNNAME":"東區","LI":"東聖里","LIN":"7鄰","STREET":"中華東路","SECT":"二段","MAREA":" ","LANE":"７３巷","ALLEY":" ","HOUSE_NO":"３４號","E_COORD97":171523.07999999999,"N_COORD97":2542972.1699999999,"ADDRESS":"中華東路二段７３巷３４號","OBJECTID":272053},"geometry":{"x":171523.08000000007,"y":2542972.1700000037}},{"attributes":{"ID":272059,"DIS_CODE":0,"TOWNNAME":"東區","LI":"東聖里","LIN":"7鄰","STREET":"中華東路","SECT":"二段","MAREA":" ","LANE":"７３巷","ALLEY":" ","HOUSE_NO":"３６號","E_COORD97":171527.73000000001,"N_COORD97":2542974.21,"ADDRESS":"中華東路二段７３巷３６號","OBJECTID":272054},"geometry":{"x":171527.73000000045,"y":2542974.2100000028}},{"attributes":{"ID":272060,"DIS_CODE":0,"TOWNNAME":"東區","LI":"東聖里","LIN":"7鄰","STREET":"中華東路","SECT":"二段","MAREA":" ","LANE":"７３巷","ALLEY":" ","HOUSE_NO":"３８號","E_COORD97":171532.20000000001,"N_COORD97":2542972.54,"ADDRESS":"中華東路二段７３巷３８號","OBJECTID":272055},"geometry":{"x":171532.20000000019,"y":2542972.540000001}},{"attributes":{"ID":272061,"DIS_CODE":0,"TOWNNAME":"東區","LI":"東聖里","LIN":"7鄰","STREET":"中華東路","SECT":"二段","MAREA":" ","LANE":"７３巷","ALLEY":" ","HOUSE_NO":"４０號","E_COORD97":171537.60000000001,"N_COORD97":2542973.6600000001,"ADDRESS":"中華東路二段７３巷４０號","OBJECTID":272056},"geometry":{"x":171537.59999999963,"y":2542973.660000002}},{"attributes":{"ID":272062,"DIS_CODE":0,"TOWNNAME":"南區","LI":"永寧里","LIN":"3鄰","STREET":"灣裡路","SECT":" ","MAREA":" ","LANE":"１４８巷","ALLEY":" ","HOUSE_NO":"２號","E_COORD97":166016.19,"N_COORD97":2536718.4700000002,"ADDRESS":"灣裡路１４８巷２號","OBJECTID":272057},"geometry":{"x":166016.19000000134,"y":2536718.4700000007}},{"attributes":{"ID":272063,"DIS_CODE":0,"TOWNNAME":"新營區","LI":"南興里","LIN":"1鄰","STREET":"南昌街","SECT":" ","MAREA":" ","LANE":" ","ALLEY":" ","HOUSE_NO":"１１號","E_COORD97":179666.98999999999,"N_COORD97":2577622.9900000002,"ADDRESS":"南昌街１１號","OBJECTID":272058},"geometry":{"x":179666.99000000115,"y":2577622.9899999984}},{"attributes":{"ID":272064,"DIS_CODE":0,"TOWNNAME":"新營區","LI":"新北里","LIN":"1鄰","STREET":"三興街","SECT":" ","MAREA":" ","LANE":" ","ALLEY":" ","HOUSE_NO":"５７號之９","E_COORD97":179405.39999999999,"N_COORD97":2578928.8799999999,"ADDRESS":"三興街５７號之９","OBJECTID":272059},"geometry":{"x":179405.40000000037,"y":2578928.8800000008}},{"attributes":{"ID":272065,"DIS_CODE":0,"TOWNNAME":"新營區","LI":"民權里","LIN":"10鄰","STREET":"中華路","SECT":" ","MAREA":" ","LANE":" ","ALLEY":" ","HOUSE_NO":"２３號之１","E_COORD97":179861.26000000001,"N_COORD97":2578221.27,"ADDRESS":"中華路２３號之１","OBJECTID":272060},"geometry":{"x":179861.26000000071,"y":2578221.2700000014}},{"attributes":{"ID":272066,"DIS_CODE":0,"TOWNNAME":"新營區","LI":"新北里","LIN":"18鄰","STREET":"民生路","SECT":" ","MAREA":" ","LANE":" ","ALLEY":" ","HOUSE_NO":"９６號","E_COORD97":179201.95999999999,"N_COORD97":2578782.4900000002,"ADDRESS":"民生路９６號","OBJECTID":272061},"geometry":{"x":179201.96000000089,"y":2578782.4899999984}},{"attributes":{"ID":272067,"DIS_CODE":0,"TOWNNAME":"新營區","LI":"忠政里","LIN":"24鄰","STREET":"健康路","SECT":" ","MAREA":" ","LANE":" ","ALLEY":" ","HOUSE_NO":"８８號","E_COORD97":179673.17000000001,"N_COORD97":2579123.5600000001,"ADDRESS":"健康路８８號","OBJECTID":272062},"geometry":{"x":179673.16999999899,"y":2579123.5600000005}},{"attributes":{"ID":272068,"DIS_CODE":0,"TOWNNAME":"麻豆區","LI":"\u25A0江里","LIN":"15鄰","STREET":"信義路","SECT":" ","MAREA":" ","LANE":" ","ALLEY":" ","HOUSE_NO":"１６號之５","E_COORD97":173426.23999999999,"N_COORD97":2564608.75,"ADDRESS":"信義路１６號之５","OBJECTID":272063},"geometry":{"x":173426.23999999929,"y":2564608.7499999981}},{"attributes":{"ID":272069,"DIS_CODE":0,"TOWNNAME":"麻豆區","LI":"\u25A0江里","LIN":"15鄰","STREET":"信義路","SECT":" ","MAREA":" ","LANE":" ","ALLEY":" ","HOUSE_NO":"１６號之６","E_COORD97":173431.26999999999,"N_COORD97":2564608.5699999998,"ADDRESS":"信義路１６號之６","OBJECTID":272064},"geometry":{"x":173431.27000000048,"y":2564608.5700000022}},{"attributes":{"ID":272070,"DIS_CODE":0,"TOWNNAME":"永康區","LI":"大橋里","LIN":"7鄰","STREET":"大橋三街","SECT":" ","MAREA":" ","LANE":"１９９巷","ALLEY":" ","HOUSE_NO":"９３號","E_COORD97":170975.45999999999,"N_COORD97":2546920.3700000001,"ADDRESS":"大橋三街１９９巷９３號","OBJECTID":272065},"geometry":{"x":170975.46000000089,"y":2546920.370000001}},{"attributes":{"ID":272071,"DIS_CODE":0,"TOWNNAME":"永康區","LI":"大橋里","LIN":"7鄰","STREET":"大橋三街","SECT":" ","MAREA":" ","LANE":"１９９巷","ALLEY":" ","HOUSE_NO":"２５號","E_COORD97":170856.26999999999,"N_COORD97":2546850.3199999998,"ADDRESS":"大橋三街１９９巷２５號","OBJECTID":272066},"geometry":{"x":170856.27000000048,"y":2546850.3200000022}},{"attributes":{"ID":272072,"DIS_CODE":0,"TOWNNAME":"永康區","LI":"大橋里","LIN":"7鄰","STREET":"大橋三街","SECT":" ","MAREA":" ","LANE":"１９９巷","ALLEY":" ","HOUSE_NO":"５３號","E_COORD97":170912.78,"N_COORD97":2546878.6499999999,"ADDRESS":"大橋三街１９９巷５３號","OBJECTID":272067},"geometry":{"x":170912.78000000119,"y":2546878.6500000022}},{"attributes":{"ID":272073,"DIS_CODE":0,"TOWNNAME":"永康區","LI":"大橋里","LIN":"7鄰","STREET":"大橋三街","SECT":" ","MAREA":" ","LANE":"１９９巷","ALLEY":" ","HOUSE_NO":"１０５號","E_COORD97":170987.70999999999,"N_COORD97":2546926.1000000001,"ADDRESS":"大橋三街１９９巷１０５號","OBJECTID":272068},"geometry":{"x":170987.71000000089,"y":2546926.1000000015}},{"attributes":{"ID":272074,"DIS_CODE":0,"TOWNNAME":"永康區","LI":"復國里","LIN":"7鄰","STREET":"復國一路","SECT":" ","MAREA":" ","LANE":"１５０巷","ALLEY":" ","HOUSE_NO":"８號","E_COORD97":172755.73000000001,"N_COORD97":2545067.3100000001,"ADDRESS":"復國一路１５０巷８號","OBJECTID":272069},"geometry":{"x":172755.73000000138,"y":2545067.3100000024}},{"attributes":{"ID":272075,"DIS_CODE":0,"TOWNNAME":"永康區","LI":"神洲里","LIN":"7鄰","STREET":"忠孝路","SECT":" ","MAREA":" ","LANE":"５４巷","ALLEY":" ","HOUSE_NO":"１３號","E_COORD97":172146.98000000001,"N_COORD97":2544765.75,"ADDRESS":"忠孝路５４巷１３號","OBJECTID":272070},"geometry":{"x":172146.98000000138,"y":2544765.7500000019}},{"attributes":{"ID":272076,"DIS_CODE":0,"TOWNNAME":"安南區","LI":"鳳凰里","LIN":"7鄰","STREET":"安中路","SECT":"一段","MAREA":" ","LANE":"６９８巷","ALLEY":" ","HOUSE_NO":"７７號","E_COORD97":167945.01999999999,"N_COORD97":2549201.6099999999,"ADDRESS":"安中路一段６９８巷７７號","OBJECTID":272071},"geometry":{"x":167945.02000000048,"y":2549201.6100000013}},{"attributes":{"ID":272077,"DIS_CODE":0,"TOWNNAME":"白河區","LI":"庄內里","LIN":"7鄰","STREET":"中山路","SECT":" ","MAREA":" ","LANE":"４４９巷","ALLEY":" ","HOUSE_NO":"６號","E_COORD97":190792.10999999999,"N_COORD97":2584012.5299999998,"ADDRESS":"中山路４４９巷６號","OBJECTID":272072},"geometry":{"x":190792.11000000034,"y":2584012.5299999993}},{"attributes":{"ID":272078,"DIS_CODE":0,"TOWNNAME":"白河區","LI":"庄內里","LIN":"7鄰","STREET":"中山路","SECT":" ","MAREA":" ","LANE":"４４９巷","ALLEY":" ","HOUSE_NO":"９５號","E_COORD97":190590.31,"N_COORD97":2583997.8599999999,"ADDRESS":"中山路４４９巷９５號","OBJECTID":272073},"geometry":{"x":190590.30999999959,"y":2583997.8600000013}},{"attributes":{"ID":272079,"DIS_CODE":0,"TOWNNAME":"白河區","LI":"庄內里","LIN":"7鄰","STREET":"中山路","SECT":" ","MAREA":" ","LANE":"４４９巷","ALLEY":" ","HOUSE_NO":"９７號","E_COORD97":190578.16,"N_COORD97":2583997.3199999998,"ADDRESS":"中山路４４９巷９７號","OBJECTID":272074},"geometry":{"x":190578.16000000015,"y":2583997.3200000003}},{"attributes":{"ID":272080,"DIS_CODE":0,"TOWNNAME":"白河區","LI":"庄內里","LIN":"7鄰","STREET":"中山路","SECT":" ","MAREA":" ","LANE":"４４９巷","ALLEY":" ","HOUSE_NO":"９９號","E_COORD97":190569.34,"N_COORD97":2584003.9300000002,"ADDRESS":"中山路４４９巷９９號","OBJECTID":272075},"geometry":{"x":190569.34000000078,"y":2584003.9300000034}},{"attributes":{"ID":272081,"DIS_CODE":0,"TOWNNAME":"安南區","LI":"安富里","LIN":"7鄰","STREET":"郡安路","SECT":"五段","MAREA":" ","LANE":"１８４巷","ALLEY":" ","HOUSE_NO":"８４號","E_COORD97":167500.41,"N_COORD97":2547540.2200000002,"ADDRESS":"郡安路五段１８４巷８４號","OBJECTID":272076},"geometry":{"x":167500.41000000201,"y":2547540.2200000025}},{"attributes":{"ID":272082,"DIS_CODE":0,"TOWNNAME":"新市區","LI":"三舍里","LIN":"2鄰","STREET":" ","SECT":" ","MAREA":"三舍","LANE":" ","ALLEY":" ","HOUSE_NO":"４２號","E_COORD97":177929.09,"N_COORD97":2554370.75,"ADDRESS":"三舍４２號","OBJECTID":272077},"geometry":{"x":177929.08999999985,"y":2554370.7500000019}},{"attributes":{"ID":272083,"DIS_CODE":0,"TOWNNAME":"安南區","LI":"安富里","LIN":"7鄰","STREET":"郡安路","SECT":"五段","MAREA":" ","LANE":"１８４巷","ALLEY":" ","HOUSE_NO":"８６號","E_COORD97":167501.28,"N_COORD97":2547535.8900000001,"ADDRESS":"郡安路五段１８４巷８６號","OBJECTID":272078},"geometry":{"x":167501.27999999933,"y":2547535.8900000025}},{"attributes":{"ID":272084,"DIS_CODE":0,"TOWNNAME":"安南區","LI":"鳳凰里","LIN":"7鄰","STREET":"安中路","SECT":"一段","MAREA":" ","LANE":"６９８巷","ALLEY":" ","HOUSE_NO":"９５號之２","E_COORD97":168001.97,"N_COORD97":2549184.8500000001,"ADDRESS":"安中路一段６９８巷９５號之２","OBJECTID":272079},"geometry":{"x":168001.97000000067,"y":2549184.8499999978}},{"attributes":{"ID":272085,"DIS_CODE":0,"TOWNNAME":"安南區","LI":"梅花里","LIN":"7鄰","STREET":"安中路","SECT":"一段","MAREA":" ","LANE":"７０１巷","ALLEY":" ","HOUSE_NO":"１１號之２","E_COORD97":167586.76000000001,"N_COORD97":2549182.5099999998,"ADDRESS":"安中路一段７０１巷１１號之２","OBJECTID":272080},"geometry":{"x":167586.75999999978,"y":2549182.5099999998}},{"attributes":{"ID":272086,"DIS_CODE":0,"TOWNNAME":"安南區","LI":"鳳凰里","LIN":"7鄰","STREET":"安中路","SECT":"一段","MAREA":" ","LANE":"６９８巷","ALLEY":" ","HOUSE_NO":"８９號之１","E_COORD97":167995.82000000001,"N_COORD97":2549215.5600000001,"ADDRESS":"安中路一段６９８巷８９號之１","OBJECTID":272081},"geometry":{"x":167995.8200000003,"y":2549215.5600000024}},{"attributes":{"ID":272087,"DIS_CODE":0,"TOWNNAME":"安南區","LI":"鳳凰里","LIN":"7鄰","STREET":"安中路","SECT":"一段","MAREA":" ","LANE":"６９８巷","ALLEY":" ","HOUSE_NO":"７８號","E_COORD97":167944.75,"N_COORD97":2549195.79,"ADDRESS":"安中路一段６９８巷７８號","OBJECTID":272082},"geometry":{"x":167944.75,"y":2549195.790000001}},{"attributes":{"ID":272088,"DIS_CODE":0,"TOWNNAME":"東區","LI":"後甲里","LIN":"7鄰","STREET":"建東街","SECT":" ","MAREA":" ","LANE":"４３巷","ALLEY":" ","HOUSE_NO":"１８號","E_COORD97":171700.51999999999,"N_COORD97":2543418.5899999999,"ADDRESS":"建東街４３巷１８號","OBJECTID":272083},"geometry":{"x":171700.52000000048,"y":2543418.5899999999}},{"attributes":{"ID":272089,"DIS_CODE":0,"TOWNNAME":"仁德區","LI":"成功里","LIN":"7鄰","STREET":"保華路","SECT":" ","MAREA":" ","LANE":"１２９巷","ALLEY":" ","HOUSE_NO":"８９號","E_COORD97":171141.17999999999,"N_COORD97":2539808.25,"ADDRESS":"保華路１２９巷８９號","OBJECTID":272084},"geometry":{"x":171141.18000000156,"y":2539808.2500000037}},{"attributes":{"ID":272090,"DIS_CODE":0,"TOWNNAME":"安南區","LI":"理想里","LIN":"7鄰","STREET":"海佃路","SECT":"二段","MAREA":" ","LANE":"１７６巷","ALLEY":" ","HOUSE_NO":"１９號","E_COORD97":167021.09,"N_COORD97":2548232.4500000002,"ADDRESS":"海佃路二段１７６巷１９號","OBJECTID":272085},"geometry":{"x":167021.09000000078,"y":2548232.4500000011}},{"attributes":{"ID":272091,"DIS_CODE":0,"TOWNNAME":"安南區","LI":"理想里","LIN":"7鄰","STREET":"海佃路","SECT":"二段","MAREA":" ","LANE":"１７６巷","ALLEY":" ","HOUSE_NO":"２０號","E_COORD97":167038.01999999999,"N_COORD97":2548221.2400000002,"ADDRESS":"海佃路二段１７６巷２０號","OBJECTID":272086},"geometry":{"x":167038.02000000142,"y":2548221.2400000021}},{"attributes":{"ID":272092,"DIS_CODE":0,"TOWNNAME":"安南區","LI":"理想里","LIN":"7鄰","STREET":"海佃路","SECT":"二段","MAREA":" ","LANE":"１７６巷","ALLEY":" ","HOUSE_NO":"２２號","E_COORD97":167039.25,"N_COORD97":2548225.52,"ADDRESS":"海佃路二段１７６巷２２號","OBJECTID":272087},"geometry":{"x":167039.25000000093,"y":2548225.5200000014}},{"attributes":{"ID":272093,"DIS_CODE":0,"TOWNNAME":"安南區","LI":"理想里","LIN":"7鄰","STREET":"海佃路","SECT":"二段","MAREA":" ","LANE":"１７６巷","ALLEY":" ","HOUSE_NO":"３號","E_COORD97":167010.48000000001,"N_COORD97":2548200.04,"ADDRESS":"海佃路二段１７６巷３號","OBJECTID":272088},"geometry":{"x":167010.48000000138,"y":2548200.0400000028}},{"attributes":{"ID":272094,"DIS_CODE":0,"TOWNNAME":"中西區","LI":"藥王里","LIN":"7鄰","STREET":"大新街","SECT":" ","MAREA":" ","LANE":"６０巷","ALLEY":" ","HOUSE_NO":"６號","E_COORD97":167207.41,"N_COORD97":2544420.0899999999,"ADDRESS":"大新街６０巷６號","OBJECTID":272089},"geometry":{"x":167207.41000000108,"y":2544420.0900000036}},{"attributes":{"ID":272095,"DIS_CODE":0,"TOWNNAME":"中西區","LI":"藥王里","LIN":"7鄰","STREET":"大新街","SECT":" ","MAREA":" ","LANE":"６０巷","ALLEY":" ","HOUSE_NO":"８號","E_COORD97":167211.63,"N_COORD97":2544417.2799999998,"ADDRESS":"大新街６０巷８號","OBJECTID":272090},"geometry":{"x":167211.62999999989,"y":2544417.2799999993}},{"attributes":{"ID":272096,"DIS_CODE":0,"TOWNNAME":"中西區","LI":"藥王里","LIN":"7鄰","STREET":"大新街","SECT":" ","MAREA":" ","LANE":"２２巷","ALLEY":" ","HOUSE_NO":"１１號","E_COORD97":167198.51999999999,"N_COORD97":2544344.79,"ADDRESS":"大新街２２巷１１號","OBJECTID":272091},"geometry":{"x":167198.51999999955,"y":2544344.790000001}},{"attributes":{"ID":272097,"DIS_CODE":0,"TOWNNAME":"中西區","LI":"藥王里","LIN":"7鄰","STREET":"大新街","SECT":" ","MAREA":" ","LANE":"２２巷","ALLEY":" ","HOUSE_NO":"１３號","E_COORD97":167202.91,"N_COORD97":2544343.1499999999,"ADDRESS":"大新街２２巷１３號","OBJECTID":272092},"geometry":{"x":167202.91000000015,"y":2544343.1500000022}},{"attributes":{"ID":272098,"DIS_CODE":0,"TOWNNAME":"中西區","LI":"藥王里","LIN":"7鄰","STREET":"大新街","SECT":" ","MAREA":" ","LANE":"２２巷","ALLEY":" ","HOUSE_NO":"１５號","E_COORD97":167207.03,"N_COORD97":2544341.23,"ADDRESS":"大新街２２巷１５號","OBJECTID":272093},"geometry":{"x":167207.03000000119,"y":2544341.2300000004}},{"attributes":{"ID":272099,"DIS_CODE":0,"TOWNNAME":"永康區","LI":"神洲里","LIN":"7鄰","STREET":"忠孝路","SECT":" ","MAREA":" ","LANE":"５４巷","ALLEY":" ","HOUSE_NO":"１５號","E_COORD97":172153.32000000001,"N_COORD97":2544766.5,"ADDRESS":"忠孝路５４巷１５號","OBJECTID":272094},"geometry":{"x":172153.32000000123,"y":2544766.4999999981}},{"attributes":{"ID":272100,"DIS_CODE":0,"TOWNNAME":"永康區","LI":"神洲里","LIN":"7鄰","STREET":"忠孝路","SECT":" ","MAREA":" ","LANE":"５４巷","ALLEY":" ","HOUSE_NO":"１９號","E_COORD97":172165.76000000001,"N_COORD97":2544766.75,"ADDRESS":"忠孝路５４巷１９號","OBJECTID":272095},"geometry":{"x":172165.75999999978,"y":2544766.75}},{"attributes":{"ID":272101,"DIS_CODE":0,"TOWNNAME":"永康區","LI":"埔園里","LIN":"7鄰","STREET":"中正路","SECT":" ","MAREA":" ","LANE":"２０巷","ALLEY":" ","HOUSE_NO":"３號","E_COORD97":173702.04999999999,"N_COORD97":2547754.23,"ADDRESS":"中正路２０巷３號","OBJECTID":272096},"geometry":{"x":173702.05000000075,"y":2547754.2300000023}},{"attributes":{"ID":272102,"DIS_CODE":0,"TOWNNAME":"東區","LI":"德高里","LIN":"7鄰","STREET":"仁和路","SECT":" ","MAREA":" ","LANE":"２０８巷","ALLEY":" ","HOUSE_NO":"５號","E_COORD97":171522.23999999999,"N_COORD97":2540977.7999999998,"ADDRESS":"仁和路２０８巷５號","OBJECTID":272097},"geometry":{"x":171522.24000000022,"y":2540977.8000000007}},{"attributes":{"ID":272103,"DIS_CODE":0,"TOWNNAME":"東區","LI":"東聖里","LIN":"7鄰","STREET":"中華東路","SECT":"二段","MAREA":" ","LANE":"７３巷","ALLEY":" ","HOUSE_NO":"４２號之１","E_COORD97":171539.26999999999,"N_COORD97":2542991.1299999999,"ADDRESS":"中華東路二段７３巷４２號之１","OBJECTID":272098},"geometry":{"x":171539.27000000048,"y":2542991.129999999}},{"attributes":{"ID":272104,"DIS_CODE":0,"TOWNNAME":"安南區","LI":"海東里","LIN":"7鄰","STREET":"海佃路","SECT":"二段","MAREA":" ","LANE":"４８３巷","ALLEY":" ","HOUSE_NO":"８０號","E_COORD97":166454.22,"N_COORD97":2549060.4399999999,"ADDRESS":"海佃路二段４８３巷８０號","OBJECTID":272099},"geometry":{"x":166454.22000000067,"y":2549060.4400000013}},{"attributes":{"ID":272105,"DIS_CODE":0,"TOWNNAME":"安平區","LI":"平通里","LIN":"3鄰","STREET":"國平路","SECT":" ","MAREA":" ","LANE":"５９１巷","ALLEY":" ","HOUSE_NO":"４８號","E_COORD97":164994.19,"N_COORD97":2544141.4399999999,"ADDRESS":"國平路５９１巷４８號","OBJECTID":272100},"geometry":{"x":164994.19000000041,"y":2544141.4399999995}},{"attributes":{"ID":272106,"DIS_CODE":0,"TOWNNAME":"安南區","LI":"國安里","LIN":"7鄰","STREET":"國安街","SECT":" ","MAREA":" ","LANE":"２１０巷","ALLEY":" ","HOUSE_NO":"１２２號","E_COORD97":166558.45000000001,"N_COORD97":2547287.4700000002,"ADDRESS":"國安街２１０巷１２２號","OBJECTID":272101},"geometry":{"x":166558.45000000112,"y":2547287.4700000025}},{"attributes":{"ID":272107,"DIS_CODE":0,"TOWNNAME":"善化區","LI":"坐駕里","LIN":"3鄰","STREET":"中興路","SECT":" ","MAREA":" ","LANE":" ","ALLEY":" ","HOUSE_NO":"１０號","E_COORD97":177770.66,"N_COORD97":2559009,"ADDRESS":"中興路１０號","OBJECTID":272102},"geometry":{"x":177770.66000000108,"y":2559009}},{"attributes":{"ID":272108,"DIS_CODE":0,"TOWNNAME":"安南區","LI":"國安里","LIN":"7鄰","STREET":"國安街","SECT":" ","MAREA":" ","LANE":"２１０巷","ALLEY":" ","HOUSE_NO":"１５２號","E_COORD97":166545.62,"N_COORD97":2547352.1699999999,"ADDRESS":"國安街２１０巷１５２號","OBJECTID":272103},"geometry":{"x":166545.62000000011,"y":2547352.1699999981}},{"attributes":{"ID":272109,"DIS_CODE":0,"TOWNNAME":"安南區","LI":"國安里","LIN":"7鄰","STREET":"國安街","SECT":" ","MAREA":" ","LANE":"２１０巷","ALLEY":" ","HOUSE_NO":"９０號","E_COORD97":166585.98000000001,"N_COORD97":2547185.6800000002,"ADDRESS":"國安街２１０巷９０號","OBJECTID":272104},"geometry":{"x":166585.98000000045,"y":2547185.6799999978}},{"attributes":{"ID":272110,"DIS_CODE":0,"TOWNNAME":"安南區","LI":"顯宮里","LIN":"3鄰","STREET":"安中路","SECT":"五段","MAREA":" ","LANE":" ","ALLEY":" ","HOUSE_NO":"４６７號","E_COORD97":162340.04000000001,"N_COORD97":2551181.8900000001,"ADDRESS":"安中路五段４６７號","OBJECTID":272105},"geometry":{"x":162340.04000000097,"y":2551181.8900000006}},{"attributes":{"ID":272111,"DIS_CODE":0,"TOWNNAME":"善化區","LI":"光文里","LIN":"3鄰","STREET":" ","SECT":" ","MAREA":"北子店","LANE":" ","ALLEY":" ","HOUSE_NO":"１５４號","E_COORD97":179437.89000000001,"N_COORD97":2559639.75,"ADDRESS":"北子店１５４號","OBJECTID":272106},"geometry":{"x":179437.8900000006,"y":2559639.7500000019}},{"attributes":{"ID":272112,"DIS_CODE":0,"TOWNNAME":"善化區","LI":"六分里","LIN":"3鄰","STREET":" ","SECT":" ","MAREA":"東勢宅","LANE":" ","ALLEY":" ","HOUSE_NO":"８號之１","E_COORD97":178060.29000000001,"N_COORD97":2560982.02,"ADDRESS":"東勢宅８號之１","OBJECTID":272107},"geometry":{"x":178060.28999999911,"y":2560982.0199999996}},{"attributes":{"ID":272113,"DIS_CODE":0,"TOWNNAME":"安南區","LI":"南興里","LIN":"3鄰","STREET":"安興街","SECT":" ","MAREA":" ","LANE":" ","ALLEY":" ","HOUSE_NO":"３７５號之１","E_COORD97":163734.64999999999,"N_COORD97":2552310.3900000001,"ADDRESS":"安興街３７５號之１","OBJECTID":272108},"geometry":{"x":163734.6500000013,"y":2552310.3900000006}},{"attributes":{"ID":272114,"DIS_CODE":0,"TOWNNAME":"安南區","LI":"南興里","LIN":"3鄰","STREET":"安興街","SECT":" ","MAREA":" ","LANE":" ","ALLEY":" ","HOUSE_NO":"３７５號之２","E_COORD97":163738.32999999999,"N_COORD97":2552304.6099999999,"ADDRESS":"安興街３７５號之２","OBJECTID":272109},"geometry":{"x":163738.33000000101,"y":2552304.6099999994}},{"attributes":{"ID":272115,"DIS_CODE":0,"TOWNNAME":"新市區","LI":"大洲里","LIN":"2鄰","STREET":" ","SECT":" ","MAREA":"大洲","LANE":" ","ALLEY":" ","HOUSE_NO":"１４號","E_COORD97":174479.32000000001,"N_COORD97":2552547.25,"ADDRESS":"大洲１４號","OBJECTID":272110},"geometry":{"x":174479.32000000123,"y":2552547.2500000019}},{"attributes":{"ID":272116,"DIS_CODE":0,"TOWNNAME":"安南區","LI":"南興里","LIN":"3鄰","STREET":"安興街","SECT":" ","MAREA":" ","LANE":" ","ALLEY":" ","HOUSE_NO":"３７５號之５","E_COORD97":163743.59,"N_COORD97":2552289.8900000001,"ADDRESS":"安興街３７５號之５","OBJECTID":272111},"geometry":{"x":163743.58999999985,"y":2552289.8900000006}},{"attributes":{"ID":272117,"DIS_CODE":0,"TOWNNAME":"安南區","LI":"南興里","LIN":"3鄰","STREET":"安興街","SECT":" ","MAREA":" ","LANE":" ","ALLEY":" ","HOUSE_NO":"３７５號之７","E_COORD97":163748.32999999999,"N_COORD97":2552277.2799999998,"ADDRESS":"安興街３７５號之７","OBJECTID":272112},"geometry":{"x":163748.33000000101,"y":2552277.2800000031}},{"attributes":{"ID":272118,"DIS_CODE":0,"TOWNNAME":"安南區","LI":"南興里","LIN":"3鄰","STREET":"安興街","SECT":" ","MAREA":" ","LANE":" ","ALLEY":" ","HOUSE_NO":"３７５號","E_COORD97":163731.48999999999,"N_COORD97":2552319.3199999998,"ADDRESS":"安興街３７５號","OBJECTID":272113},"geometry":{"x":163731.49000000209,"y":2552319.3200000022}},{"attributes":{"ID":272119,"DIS_CODE":0,"TOWNNAME":"東區","LI":"崇善里","LIN":"25鄰","STREET":"崇善東路","SECT":" ","MAREA":" ","LANE":" ","ALLEY":" ","HOUSE_NO":"７號","E_COORD97":171294.82000000001,"N_COORD97":2540886.8900000001,"ADDRESS":"崇善東路７號","OBJECTID":272114},"geometry":{"x":171294.8200000003,"y":2540886.8900000025}},{"attributes":{"ID":272120,"DIS_CODE":0,"TOWNNAME":"安南區","LI":"國安里","LIN":"7鄰","STREET":"國安街","SECT":" ","MAREA":" ","LANE":"２１０巷","ALLEY":" ","HOUSE_NO":"９２號","E_COORD97":166585.20999999999,"N_COORD97":2547191.0899999999,"ADDRESS":"國安街２１０巷９２號","OBJECTID":272115},"geometry":{"x":166585.21000000089,"y":2547191.0900000017}},{"attributes":{"ID":272121,"DIS_CODE":0,"TOWNNAME":"安南區","LI":"國安里","LIN":"7鄰","STREET":"國安街","SECT":" ","MAREA":" ","LANE":"２１０巷","ALLEY":" ","HOUSE_NO":"６０號","E_COORD97":166592.17000000001,"N_COORD97":2547114.3100000001,"ADDRESS":"國安街２１０巷６０號","OBJECTID":272116},"geometry":{"x":166592.17000000086,"y":2547114.3100000005}},{"attributes":{"ID":272122,"DIS_CODE":0,"TOWNNAME":"安南區","LI":"國安里","LIN":"7鄰","STREET":"國安街","SECT":" ","MAREA":" ","LANE":"２１０巷","ALLEY":" ","HOUSE_NO":"６４號","E_COORD97":166589.63,"N_COORD97":2547125.6600000001,"ADDRESS":"國安街２１０巷６４號","OBJECTID":272117},"geometry":{"x":166589.62999999989,"y":2547125.6600000039}},{"attributes":{"ID":272123,"DIS_CODE":0,"TOWNNAME":"永康區","LI":"\u25A0行里","LIN":"7鄰","STREET":"中正路","SECT":" ","MAREA":" ","LANE":"５４２巷","ALLEY":" ","HOUSE_NO":"７號","E_COORD97":172640.62,"N_COORD97":2548426.3599999999,"ADDRESS":"中正路５４２巷７號","OBJECTID":272118},"geometry":{"x":172640.62000000104,"y":2548426.3600000013}},{"attributes":{"ID":272124,"DIS_CODE":0,"TOWNNAME":"官田區","LI":"東庄里","LIN":"3鄰","STREET":" ","SECT":" ","MAREA":"西庄","LANE":" ","ALLEY":" ","HOUSE_NO":"１２１號之４","E_COORD97":177911.01000000001,"N_COORD97":2565292.1099999999,"ADDRESS":"西庄１２１號之４","OBJECTID":272119},"geometry":{"x":177911.00999999978,"y":2565292.1100000013}},{"attributes":{"ID":272125,"DIS_CODE":0,"TOWNNAME":"永康區","LI":"西橋里","LIN":"7鄰","STREET":"中山南路","SECT":" ","MAREA":" ","LANE":"４３巷","ALLEY":" ","HOUSE_NO":"６０號","E_COORD97":170673.42000000001,"N_COORD97":2545997.25,"ADDRESS":"中山南路４３巷６０號","OBJECTID":272120},"geometry":{"x":170673.42000000179,"y":2545997.2500000019}},{"attributes":{"ID":272126,"DIS_CODE":0,"TOWNNAME":"永康區","LI":"東橋里","LIN":"7鄰","STREET":"大橋一街","SECT":" ","MAREA":" ","LANE":"３２４巷","ALLEY":" ","HOUSE_NO":"９９號","E_COORD97":171504.48000000001,"N_COORD97":2546421.9900000002,"ADDRESS":"大橋一街３２４巷９９號","OBJECTID":272121},"geometry":{"x":171504.48000000138,"y":2546421.9900000021}},{"attributes":{"ID":272127,"DIS_CODE":0,"TOWNNAME":"永康區","LI":"烏竹里","LIN":"7鄰","STREET":"龍橋街","SECT":" ","MAREA":" ","LANE":"４５９巷","ALLEY":" ","HOUSE_NO":"８之６號","E_COORD97":174366.06,"N_COORD97":2549360.8999999999,"ADDRESS":"龍橋街４５９巷８之６號","OBJECTID":272122},"geometry":{"x":174366.06000000145,"y":2549360.9000000004}},{"attributes":{"ID":272128,"DIS_CODE":0,"TOWNNAME":"善化區","LI":"牛庄里","LIN":"3鄰","STREET":" ","SECT":" ","MAREA":"牛庄","LANE":" ","ALLEY":" ","HOUSE_NO":"３８號之１７","E_COORD97":180268.76999999999,"N_COORD97":2560146.02,"ADDRESS":"牛庄３８號之１７","OBJECTID":272123},"geometry":{"x":180268.76999999862,"y":2560146.0200000014}},{"attributes":{"ID":272129,"DIS_CODE":0,"TOWNNAME":"善化區","LI":"胡家里","LIN":"3鄰","STREET":" ","SECT":" ","MAREA":"胡厝寮","LANE":" ","ALLEY":" ","HOUSE_NO":"２４號","E_COORD97":175504.41,"N_COORD97":2560540.75,"ADDRESS":"胡厝寮２４號","OBJECTID":272124},"geometry":{"x":175504.41000000015,"y":2560540.7500000037}},{"attributes":{"ID":272130,"DIS_CODE":0,"TOWNNAME":"善化區","LI":"東昌里","LIN":"3鄰","STREET":" ","SECT":" ","MAREA":"東勢寮","LANE":" ","ALLEY":" ","HOUSE_NO":"３４號","E_COORD97":180777.04000000001,"N_COORD97":2561897.5099999998,"ADDRESS":"東勢寮３４號","OBJECTID":272125},"geometry":{"x":180777.04000000004,"y":2561897.5099999998}},{"attributes":{"ID":272131,"DIS_CODE":0,"TOWNNAME":"善化區","LI":"胡家里","LIN":"3鄰","STREET":" ","SECT":" ","MAREA":"胡厝寮","LANE":" ","ALLEY":" ","HOUSE_NO":"２８之３號","E_COORD97":175507.5,"N_COORD97":2560507.52,"ADDRESS":"胡厝寮２８之３號","OBJECTID":272126},"geometry":{"x":175507.5,"y":2560507.5199999977}},{"attributes":{"ID":272132,"DIS_CODE":0,"TOWNNAME":"善化區","LI":"小新里","LIN":"3鄰","STREET":" ","SECT":" ","MAREA":"小新營","LANE":" ","ALLEY":" ","HOUSE_NO":"２２號之８","E_COORD97":179842.76999999999,"N_COORD97":2558330.52,"ADDRESS":"小新營２２號之８","OBJECTID":272127},"geometry":{"x":179842.76999999955,"y":2558330.5199999996}},{"attributes":{"ID":272133,"DIS_CODE":0,"TOWNNAME":"永康區","LI":"烏竹里","LIN":"7鄰","STREET":"龍橋街","SECT":" ","MAREA":" ","LANE":"４５９巷","ALLEY":" ","HOUSE_NO":"７號","E_COORD97":174344.16,"N_COORD97":2549315.8700000001,"ADDRESS":"龍橋街４５９巷７號","OBJECTID":272128},"geometry":{"x":174344.16000000108,"y":2549315.8700000029}},{"attributes":{"ID":272134,"DIS_CODE":0,"TOWNNAME":"永康區","LI":"崑山里","LIN":"7鄰","STREET":"大灣路","SECT":" ","MAREA":" ","LANE":"８９１巷","ALLEY":" ","HOUSE_NO":"８號","E_COORD97":173604.73999999999,"N_COORD97":2544363.1099999999,"ADDRESS":"大灣路８９１巷８號","OBJECTID":272129},"geometry":{"x":173604.74000000115,"y":2544363.1100000013}},{"attributes":{"ID":272135,"DIS_CODE":0,"TOWNNAME":"東區","LI":"崇德里","LIN":"20鄰","STREET":"崇明十四街","SECT":" ","MAREA":" ","LANE":" ","ALLEY":" ","HOUSE_NO":"３１號","E_COORD97":170579.60000000001,"N_COORD97":2541581.5699999998,"ADDRESS":"崇明十四街３１號","OBJECTID":272130},"geometry":{"x":170579.59999999963,"y":2541581.5700000003}},{"attributes":{"ID":272136,"DIS_CODE":0,"TOWNNAME":"善化區","LI":"六分里","LIN":"3鄰","STREET":" ","SECT":" ","MAREA":"東勢宅","LANE":" ","ALLEY":" ","HOUSE_NO":"２號之３","E_COORD97":177868.5,"N_COORD97":2561171.02,"ADDRESS":"東勢宅２號之３","OBJECTID":272131},"geometry":{"x":177868.5,"y":2561171.0199999996}},{"attributes":{"ID":272137,"DIS_CODE":0,"TOWNNAME":"善化區","LI":"六分里","LIN":"3鄰","STREET":" ","SECT":" ","MAREA":"東勢宅","LANE":" ","ALLEY":" ","HOUSE_NO":"３號","E_COORD97":177876.20999999999,"N_COORD97":2561141.7599999998,"ADDRESS":"東勢宅３號","OBJECTID":272132},"geometry":{"x":177876.21000000183,"y":2561141.7600000016}},{"attributes":{"ID":272138,"DIS_CODE":0,"TOWNNAME":"善化區","LI":"六分里","LIN":"3鄰","STREET":" ","SECT":" ","MAREA":"東勢宅","LANE":" ","ALLEY":" ","HOUSE_NO":"６號之２","E_COORD97":177904.76999999999,"N_COORD97":2561043.52,"ADDRESS":"東勢宅６號之２","OBJECTID":272133},"geometry":{"x":177904.77000000048,"y":2561043.5200000033}},{"attributes":{"ID":272139,"DIS_CODE":0,"TOWNNAME":"善化區","LI":"六分里","LIN":"3鄰","STREET":" ","SECT":" ","MAREA":"東勢宅","LANE":" ","ALLEY":" ","HOUSE_NO":"２號","E_COORD97":177894.41,"N_COORD97":2561146.2599999998,"ADDRESS":"東勢宅２號","OBJECTID":272134},"geometry":{"x":177894.41000000108,"y":2561146.2599999998}},{"attributes":{"ID":272140,"DIS_CODE":0,"TOWNNAME":"善化區","LI":"六分里","LIN":"3鄰","STREET":" ","SECT":" ","MAREA":"東勢宅","LANE":" ","ALLEY":" ","HOUSE_NO":"６之１號","E_COORD97":177899.79000000001,"N_COORD97":2561056.52,"ADDRESS":"東勢宅６之１號","OBJECTID":272135},"geometry":{"x":177899.79000000097,"y":2561056.5199999996}},{"attributes":{"ID":272141,"DIS_CODE":0,"TOWNNAME":"善化區","LI":"六分里","LIN":"3鄰","STREET":" ","SECT":" ","MAREA":"東勢宅","LANE":" ","ALLEY":" ","HOUSE_NO":"２號之５","E_COORD97":177890.45999999999,"N_COORD97":2561184.52,"ADDRESS":"東勢宅２號之５","OBJECTID":272136},"geometry":{"x":177890.46000000089,"y":2561184.5199999996}},{"attributes":{"ID":272142,"DIS_CODE":0,"TOWNNAME":"善化區","LI":"六分里","LIN":"3鄰","STREET":" ","SECT":" ","MAREA":"東勢宅","LANE":" ","ALLEY":" ","HOUSE_NO":"７號","E_COORD97":177880.54999999999,"N_COORD97":2561073.7599999998,"ADDRESS":"東勢宅７號","OBJECTID":272137},"geometry":{"x":177880.55000000168,"y":2561073.7600000016}},{"attributes":{"ID":272143,"DIS_CODE":0,"TOWNNAME":"善化區","LI":"六分里","LIN":"3鄰","STREET":" ","SECT":" ","MAREA":"東勢宅","LANE":" ","ALLEY":" ","HOUSE_NO":"２之６號","E_COORD97":177884.95999999999,"N_COORD97":2561183.77,"ADDRESS":"東勢宅２之６號","OBJECTID":272138},"geometry":{"x":177884.96000000089,"y":2561183.7699999977}},{"attributes":{"ID":272144,"DIS_CODE":0,"TOWNNAME":"善化區","LI":"六分里","LIN":"3鄰","STREET":" ","SECT":" ","MAREA":"東勢宅","LANE":" ","ALLEY":" ","HOUSE_NO":"８號之７","E_COORD97":177975.81,"N_COORD97":2561001.77,"ADDRESS":"東勢宅８號之７","OBJECTID":272139},"geometry":{"x":177975.81000000052,"y":2561001.7700000014}},{"attributes":{"ID":272145,"DIS_CODE":0,"TOWNNAME":"善化區","LI":"六分里","LIN":"3鄰","STREET":" ","SECT":" ","MAREA":"東勢宅","LANE":" ","ALLEY":" ","HOUSE_NO":"２之４號","E_COORD97":177879.29999999999,"N_COORD97":2561166.52,"ADDRESS":"東勢宅２之４號","OBJECTID":272140},"geometry":{"x":177879.30000000075,"y":2561166.5200000014}},{"attributes":{"ID":272146,"DIS_CODE":0,"TOWNNAME":"善化區","LI":"六分里","LIN":"3鄰","STREET":" ","SECT":" ","MAREA":"東勢宅","LANE":" ","ALLEY":" ","HOUSE_NO":"１０號","E_COORD97":177879.01999999999,"N_COORD97":2561046.5099999998,"ADDRESS":"東勢宅１０號","OBJECTID":272141},"geometry":{"x":177879.02000000048,"y":2561046.5099999998}},{"attributes":{"ID":272147,"DIS_CODE":0,"TOWNNAME":"善化區","LI":"六分里","LIN":"3鄰","STREET":" ","SECT":" ","MAREA":"東勢宅","LANE":" ","ALLEY":" ","HOUSE_NO":"１１號","E_COORD97":177861.70999999999,"N_COORD97":2561035.2599999998,"ADDRESS":"東勢宅１１號","OBJECTID":272142},"geometry":{"x":177861.70999999996,"y":2561035.2600000035}},{"attributes":{"ID":272148,"DIS_CODE":0,"TOWNNAME":"善化區","LI":"六分里","LIN":"3鄰","STREET":" ","SECT":" ","MAREA":"東勢宅","LANE":" ","ALLEY":" ","HOUSE_NO":"２號之２","E_COORD97":177887.45999999999,"N_COORD97":2561167.52,"ADDRESS":"東勢宅２號之２","OBJECTID":272143},"geometry":{"x":177887.45999999996,"y":2561167.5199999996}},{"attributes":{"ID":272149,"DIS_CODE":0,"TOWNNAME":"善化區","LI":"六分里","LIN":"3鄰","STREET":" ","SECT":" ","MAREA":"東勢宅","LANE":" ","ALLEY":" ","HOUSE_NO":"２號之１","E_COORD97":177891.20999999999,"N_COORD97":2561166.02,"ADDRESS":"東勢宅２號之１","OBJECTID":272144},"geometry":{"x":177891.20999999996,"y":2561166.0200000014}},{"attributes":{"ID":272150,"DIS_CODE":0,"TOWNNAME":"善化區","LI":"六分里","LIN":"3鄰","STREET":" ","SECT":" ","MAREA":"東勢宅","LANE":" ","ALLEY":" ","HOUSE_NO":"１號之３","E_COORD97":178021.91,"N_COORD97":2561236.02,"ADDRESS":"東勢宅１號之３","OBJECTID":272145},"geometry":{"x":178021.91000000015,"y":2561236.0199999996}},{"attributes":{"ID":272151,"DIS_CODE":0,"TOWNNAME":"東區","LI":"大福里","LIN":"7鄰","STREET":"立德二路","SECT":" ","MAREA":" ","LANE":" ","ALLEY":" ","HOUSE_NO":"９號","E_COORD97":169493.45999999999,"N_COORD97":2541740.2999999998,"ADDRESS":"立德二路９號","OBJECTID":272146},"geometry":{"x":169493.46000000183,"y":2541740.3000000007}},{"attributes":{"ID":272152,"DIS_CODE":0,"TOWNNAME":"善化區","LI":"文昌里","LIN":"3鄰","STREET":"平等路","SECT":" ","MAREA":" ","LANE":" ","ALLEY":" ","HOUSE_NO":"３８號","E_COORD97":177239.56,"N_COORD97":2558966.5,"ADDRESS":"平等路３８號","OBJECTID":272147},"geometry":{"x":177239.56000000052,"y":2558966.5000000019}},{"attributes":{"ID":272153,"DIS_CODE":0,"TOWNNAME":"善化區","LI":"六分里","LIN":"3鄰","STREET":" ","SECT":" ","MAREA":"東勢宅","LANE":" ","ALLEY":" ","HOUSE_NO":"１２號","E_COORD97":177859.07000000001,"N_COORD97":2561072.0099999998,"ADDRESS":"東勢宅１２號","OBJECTID":272148},"geometry":{"x":177859.07000000123,"y":2561072.0100000016}},{"attributes":{"ID":272154,"DIS_CODE":0,"TOWNNAME":"安南區","LI":"東和里","LIN":"7鄰","STREET":"長和路","SECT":"一段","MAREA":" ","LANE":"１巷","ALLEY":" ","HOUSE_NO":"１００號","E_COORD97":171653.57999999999,"N_COORD97":2550105.3199999998,"ADDRESS":"長和路一段１巷１００號","OBJECTID":272149},"geometry":{"x":171653.58000000007,"y":2550105.3200000022}},{"attributes":{"ID":272155,"DIS_CODE":0,"TOWNNAME":"善化區","LI":"六分里","LIN":"3鄰","STREET":" ","SECT":" ","MAREA":"東勢宅","LANE":" ","ALLEY":" ","HOUSE_NO":"８號","E_COORD97":177904.91,"N_COORD97":2561028.5099999998,"ADDRESS":"東勢宅８號","OBJECTID":272150},"geometry":{"x":177904.91000000015,"y":2561028.5099999998}},{"attributes":{"ID":272156,"DIS_CODE":0,"TOWNNAME":"善化區","LI":"六分里","LIN":"3鄰","STREET":" ","SECT":" ","MAREA":"東勢宅","LANE":" ","ALLEY":" ","HOUSE_NO":"１號之６","E_COORD97":178027.16,"N_COORD97":2561218.27,"ADDRESS":"東勢宅１號之６","OBJECTID":272151},"geometry":{"x":178027.16000000015,"y":2561218.2700000014}},{"attributes":{"ID":272157,"DIS_CODE":0,"TOWNNAME":"安南區","LI":"東和里","LIN":"7鄰","STREET":"長和路","SECT":"一段","MAREA":" ","LANE":"２１７巷","ALLEY":" ","HOUSE_NO":"１７７號","E_COORD97":171239.201294,"N_COORD97":2550195.9622300002,"ADDRESS":"長和路一段２１７巷１７７號","OBJECTID":272152},"geometry":{"x":171239.20129400119,"y":2550195.962232003}},{"attributes":{"ID":272158,"DIS_CODE":0,"TOWNNAME":"善化區","LI":"六德里","LIN":"3鄰","STREET":" ","SECT":" ","MAREA":"六分寮","LANE":" ","ALLEY":" ","HOUSE_NO":"２１７號之１","E_COORD97":178648.98999999999,"N_COORD97":2561670.52,"ADDRESS":"六分寮２１７號之１","OBJECTID":272153},"geometry":{"x":178648.99000000022,"y":2561670.5200000033}},{"attributes":{"ID":272159,"DIS_CODE":0,"TOWNNAME":"安南區","LI":"頂安里","LIN":"7鄰","STREET":"怡安路","SECT":"一段","MAREA":" ","LANE":"３８４巷","ALLEY":" ","HOUSE_NO":"１２３號","E_COORD97":168760.57000000001,"N_COORD97":2549427.46,"ADDRESS":"怡安路一段３８４巷１２３號","OBJECTID":272154},"geometry":{"x":168760.56999999937,"y":2549427.4600000028}},{"attributes":{"ID":272160,"DIS_CODE":0,"TOWNNAME":"安南區","LI":"東和里","LIN":"7鄰","STREET":"長和路","SECT":"一段","MAREA":" ","LANE":"２１７巷","ALLEY":" ","HOUSE_NO":"２３號","E_COORD97":171620.12,"N_COORD97":2550545.8300000001,"ADDRESS":"長和路一段２１７巷２３號","OBJECTID":272155},"geometry":{"x":171620.12000000104,"y":2550545.8300000019}},{"attributes":{"ID":272161,"DIS_CODE":0,"TOWNNAME":"安南區","LI":"鹿耳里","LIN":"7鄰","STREET":"媽祖宮一街","SECT":" ","MAREA":" ","LANE":"３４５巷","ALLEY":" ","HOUSE_NO":"４２０號","E_COORD97":158788.16,"N_COORD97":2546868.8100000001,"ADDRESS":"媽祖宮一街３４５巷４２０號","OBJECTID":272156},"geometry":{"x":158788.16000000015,"y":2546868.8100000024}},{"attributes":{"ID":272162,"DIS_CODE":0,"TOWNNAME":"善化區","LI":"光文里","LIN":"3鄰","STREET":" ","SECT":" ","MAREA":"北子店","LANE":"１１６巷","ALLEY":" ","HOUSE_NO":"１６號之１","E_COORD97":179501,"N_COORD97":2559542.27,"ADDRESS":"北子店１１６巷１６號之１","OBJECTID":272157},"geometry":{"x":179501,"y":2559542.2699999996}},{"attributes":{"ID":272163,"DIS_CODE":0,"TOWNNAME":"善化區","LI":"光文里","LIN":"3鄰","STREET":" ","SECT":" ","MAREA":"北子店","LANE":"１２４巷","ALLEY":" ","HOUSE_NO":"５號","E_COORD97":179514.59,"N_COORD97":2559621.25,"ADDRESS":"北子店１２４巷５號","OBJECTID":272158},"geometry":{"x":179514.59000000078,"y":2559621.25}},{"attributes":{"ID":272164,"DIS_CODE":0,"TOWNNAME":"安南區","LI":"新順里","LIN":"3鄰","STREET":"安和路","SECT":"三段","MAREA":" ","LANE":" ","ALLEY":" ","HOUSE_NO":"１００號","E_COORD97":169845.23999999999,"N_COORD97":2549560.6200000001,"ADDRESS":"安和路三段１００號","OBJECTID":272159},"geometry":{"x":169845.24000000022,"y":2549560.620000001}},{"attributes":{"ID":272165,"DIS_CODE":0,"TOWNNAME":"白河區","LI":"廣安里","LIN":"3鄰","STREET":" ","SECT":" ","MAREA":"枋子林","LANE":" ","ALLEY":" ","HOUSE_NO":"１１之２號","E_COORD97":189058.73000000001,"N_COORD97":2587392.71,"ADDRESS":"枋子林１１之２號","OBJECTID":272160},"geometry":{"x":189058.73000000138,"y":2587392.7100000009}},{"attributes":{"ID":272166,"DIS_CODE":0,"TOWNNAME":"白河區","LI":"庄內里","LIN":"3鄰","STREET":" ","SECT":" ","MAREA":"客庄內","LANE":" ","ALLEY":" ","HOUSE_NO":"３５之１號","E_COORD97":190949.29999999999,"N_COORD97":2583401.7400000002,"ADDRESS":"客庄內３５之１號","OBJECTID":272161},"geometry":{"x":190949.30000000075,"y":2583401.7400000002}},{"attributes":{"ID":272167,"DIS_CODE":0,"TOWNNAME":"安南區","LI":"新順里","LIN":"3鄰","STREET":"安和路","SECT":"三段","MAREA":" ","LANE":" ","ALLEY":" ","HOUSE_NO":"１００號之２","E_COORD97":169850.35999999999,"N_COORD97":2549576.5099999998,"ADDRESS":"安和路三段１００號之２","OBJECTID":272162},"geometry":{"x":169850.3599999994,"y":2549576.5099999998}},{"attributes":{"ID":272168,"DIS_CODE":0,"TOWNNAME":"白河區","LI":"草店里","LIN":"3鄰","STREET":" ","SECT":" ","MAREA":"草店","LANE":" ","ALLEY":" ","HOUSE_NO":"２２之２號","E_COORD97":192251.60000000001,"N_COORD97":2587990.1699999999,"ADDRESS":"草店２２之２號","OBJECTID":272163},"geometry":{"x":192251.5999999987,"y":2587990.1700000018}},{"attributes":{"ID":272169,"DIS_CODE":0,"TOWNNAME":"安南區","LI":"州南里","LIN":"3鄰","STREET":"北安路","SECT":"四段","MAREA":" ","LANE":" ","ALLEY":" ","HOUSE_NO":"２６８號之１","E_COORD97":169477.09,"N_COORD97":2551197.9399999999,"ADDRESS":"北安路四段２６８號之１","OBJECTID":272164},"geometry":{"x":169477.09000000171,"y":2551197.9399999976}},{"attributes":{"ID":272170,"DIS_CODE":0,"TOWNNAME":"安南區","LI":"鹿耳里","LIN":"7鄰","STREET":"媽祖宮一街","SECT":" ","MAREA":" ","LANE":"３４５巷","ALLEY":" ","HOUSE_NO":"４１５號","E_COORD97":158808.10000000001,"N_COORD97":2546884.1800000002,"ADDRESS":"媽祖宮一街３４５巷４１５號","OBJECTID":272165},"geometry":{"x":158808.10000000056,"y":2546884.1800000034}},{"attributes":{"ID":272171,"DIS_CODE":0,"TOWNNAME":"白河區","LI":"草店里","LIN":"3鄰","STREET":" ","SECT":" ","MAREA":"草店","LANE":" ","ALLEY":" ","HOUSE_NO":"２９之１號","E_COORD97":192047.89000000001,"N_COORD97":2587757.48,"ADDRESS":"草店２９之１號","OBJECTID":272166},"geometry":{"x":192047.88999999966,"y":2587757.4800000042}},{"attributes":{"ID":272172,"DIS_CODE":0,"TOWNNAME":"安南區","LI":"鹿耳里","LIN":"7鄰","STREET":"媽祖宮一街","SECT":" ","MAREA":" ","LANE":"３４５巷","ALLEY":" ","HOUSE_NO":"４００號","E_COORD97":158806.07000000001,"N_COORD97":2546899.4199999999,"ADDRESS":"媽祖宮一街３４５巷４００號","OBJECTID":272167},"geometry":{"x":158806.0700000003,"y":2546899.4199999999}},{"attributes":{"ID":272173,"DIS_CODE":0,"TOWNNAME":"安南區","LI":"淵中里","LIN":"7鄰","STREET":"安中路","SECT":"四段","MAREA":" ","LANE":"１９７巷","ALLEY":" ","HOUSE_NO":"１３號","E_COORD97":164777.01000000001,"N_COORD97":2550037.48,"ADDRESS":"安中路四段１９７巷１３號","OBJECTID":272168},"geometry":{"x":164777.01000000071,"y":2550037.4800000023}},{"attributes":{"ID":272174,"DIS_CODE":0,"TOWNNAME":"安南區","LI":"新順里","LIN":"7鄰","STREET":"北安路","SECT":"三段","MAREA":" ","LANE":"７４５巷","ALLEY":" ","HOUSE_NO":"９１號","E_COORD97":169169.51999999999,"N_COORD97":2550187.9199999999,"ADDRESS":"北安路三段７４５巷９１號","OBJECTID":272169},"geometry":{"x":169169.52000000048,"y":2550187.9199999999}},{"attributes":{"ID":272175,"DIS_CODE":0,"TOWNNAME":"仁德區","LI":"後壁里","LIN":"7鄰","STREET":"德善二街","SECT":" ","MAREA":" ","LANE":"５１巷","ALLEY":" ","HOUSE_NO":"７號","E_COORD97":173616.48000000001,"N_COORD97":2538990.27,"ADDRESS":"德善二街５１巷７號","OBJECTID":272170},"geometry":{"x":173616.48000000231,"y":2538990.2699999996}},{"attributes":{"ID":272176,"DIS_CODE":0,"TOWNNAME":"仁德區","LI":"後壁里","LIN":"7鄰","STREET":"德善二街","SECT":" ","MAREA":" ","LANE":"５１巷","ALLEY":" ","HOUSE_NO":"１３號","E_COORD97":173614.85999999999,"N_COORD97":2539014.2599999998,"ADDRESS":"德善二街５１巷１３號","OBJECTID":272171},"geometry":{"x":173614.86000000034,"y":2539014.2599999998}},{"attributes":{"ID":272177,"DIS_CODE":0,"TOWNNAME":"仁德區","LI":"成功里","LIN":"7鄰","STREET":"保華路","SECT":" ","MAREA":" ","LANE":"１２９巷","ALLEY":" ","HOUSE_NO":"８５號","E_COORD97":171129.32000000001,"N_COORD97":2539808.5,"ADDRESS":"保華路１２９巷８５號","OBJECTID":272172},"geometry":{"x":171129.32000000123,"y":2539808.5}},{"attributes":{"ID":272178,"DIS_CODE":0,"TOWNNAME":"東區","LI":"崇善里","LIN":"8鄰","STREET":"崇善七街","SECT":" ","MAREA":" ","LANE":" ","ALLEY":" ","HOUSE_NO":"６號","E_COORD97":171063.48999999999,"N_COORD97":2541441,"ADDRESS":"崇善七街６號","OBJECTID":272173},"geometry":{"x":171063.49000000115,"y":2541441.0000000037}},{"attributes":{"ID":272179,"DIS_CODE":0,"TOWNNAME":"東區","LI":"大智里","LIN":"5鄰","STREET":"長東街","SECT":" ","MAREA":" ","LANE":" ","ALLEY":" ","HOUSE_NO":"７１號","E_COORD97":171020.20000000001,"N_COORD97":2540438.7400000002,"ADDRESS":"長東街７１號","OBJECTID":272174},"geometry":{"x":171020.20000000112,"y":2540438.7400000002}},{"attributes":{"ID":272180,"DIS_CODE":0,"TOWNNAME":"東區","LI":"大學里","LIN":"20鄰","STREET":"長榮路","SECT":"三段","MAREA":" ","LANE":" ","ALLEY":" ","HOUSE_NO":"１２３號","E_COORD97":170204.76999999999,"N_COORD97":2543945.02,"ADDRESS":"長榮路三段１２３號","OBJECTID":272175},"geometry":{"x":170204.77000000048,"y":2543945.0199999996}},{"attributes":{"ID":272181,"DIS_CODE":0,"TOWNNAME":"東區","LI":"大學里","LIN":"20鄰","STREET":"長榮路","SECT":"三段","MAREA":" ","LANE":" ","ALLEY":" ","HOUSE_NO":"１２５號","E_COORD97":170205.31,"N_COORD97":2543952.9100000001,"ADDRESS":"長榮路三段１２５號","OBJECTID":272176},"geometry":{"x":170205.30999999959,"y":2543952.9100000001}},{"attributes":{"ID":272182,"DIS_CODE":0,"TOWNNAME":"東區","LI":"大學里","LIN":"20鄰","STREET":"長榮路","SECT":"三段","MAREA":" ","LANE":" ","ALLEY":" ","HOUSE_NO":"１２７號","E_COORD97":170204.28,"N_COORD97":2543958.7799999998,"ADDRESS":"長榮路三段１２７號","OBJECTID":272177},"geometry":{"x":170204.28000000119,"y":2543958.7800000012}},{"attributes":{"ID":272183,"DIS_CODE":0,"TOWNNAME":"仁德區","LI":"成功里","LIN":"7鄰","STREET":"保華路","SECT":" ","MAREA":" ","LANE":"１１７巷","ALLEY":" ","HOUSE_NO":"２４號","E_COORD97":171137.01000000001,"N_COORD97":2539974.2400000002,"ADDRESS":"保華路１１７巷２４號","OBJECTID":272178},"geometry":{"x":171137.00999999978,"y":2539974.2400000002}},{"attributes":{"ID":272184,"DIS_CODE":0,"TOWNNAME":"仁德區","LI":"成功里","LIN":"7鄰","STREET":"保華路","SECT":" ","MAREA":" ","LANE":"１２９巷","ALLEY":" ","HOUSE_NO":"１９號","E_COORD97":171120,"N_COORD97":2539989.25,"ADDRESS":"保華路１２９巷１９號","OBJECTID":272179},"geometry":{"x":171120,"y":2539989.2500000019}},{"attributes":{"ID":272185,"DIS_CODE":0,"TOWNNAME":"仁德區","LI":"成功里","LIN":"7鄰","STREET":"保華路","SECT":" ","MAREA":" ","LANE":"１２９巷","ALLEY":" ","HOUSE_NO":"９號","E_COORD97":171105.59,"N_COORD97":2540019,"ADDRESS":"保華路１２９巷９號","OBJECTID":272180},"geometry":{"x":171105.58999999985,"y":2540019}},{"attributes":{"ID":272186,"DIS_CODE":0,"TOWNNAME":"仁德區","LI":"成功里","LIN":"7鄰","STREET":"保華路","SECT":" ","MAREA":" ","LANE":"１２９巷","ALLEY":" ","HOUSE_NO":"６７號","E_COORD97":171124.07000000001,"N_COORD97":2539832.4900000002,"ADDRESS":"保華路１２９巷６７號","OBJECTID":272181},"geometry":{"x":171124.07000000123,"y":2539832.4900000002}},{"attributes":{"ID":272187,"DIS_CODE":0,"TOWNNAME":"仁德區","LI":"後壁里","LIN":"7鄰","STREET":"德安路","SECT":" ","MAREA":" ","LANE":"７３巷","ALLEY":" ","HOUSE_NO":"１０號","E_COORD97":173586.98000000001,"N_COORD97":2539001.0600000001,"ADDRESS":"德安路７３巷１０號","OBJECTID":272182},"geometry":{"x":173586.98000000045,"y":2539001.0600000024}},{"attributes":{"ID":272188,"DIS_CODE":0,"TOWNNAME":"仁德區","LI":"成功里","LIN":"7鄰","STREET":"保華路","SECT":" ","MAREA":" ","LANE":"１２９巷","ALLEY":" ","HOUSE_NO":"７號","E_COORD97":171104.87,"N_COORD97":2540026.25,"ADDRESS":"保華路１２９巷７號","OBJECTID":272183},"geometry":{"x":171104.87000000104,"y":2540026.2500000019}},{"attributes":{"ID":272189,"DIS_CODE":0,"TOWNNAME":"仁德區","LI":"成功里","LIN":"7鄰","STREET":"保華路","SECT":" ","MAREA":" ","LANE":"１２９巷","ALLEY":" ","HOUSE_NO":"１４號","E_COORD97":171086.97,"N_COORD97":2540009.5,"ADDRESS":"保華路１２９巷１４號","OBJECTID":272184},"geometry":{"x":171086.97000000067,"y":2540009.5}},{"attributes":{"ID":272190,"DIS_CODE":0,"TOWNNAME":"永康區","LI":"六合里","LIN":"7鄰","STREET":"六合路","SECT":" ","MAREA":" ","LANE":"５７巷","ALLEY":" ","HOUSE_NO":"１１號","E_COORD97":171132.38,"N_COORD97":2545623,"ADDRESS":"六合路５７巷１１號","OBJECTID":272185},"geometry":{"x":171132.37999999989,"y":2545623}},{"attributes":{"ID":272191,"DIS_CODE":0,"TOWNNAME":"永康區","LI":"六合里","LIN":"7鄰","STREET":"六合路","SECT":" ","MAREA":" ","LANE":"５７巷","ALLEY":" ","HOUSE_NO":"１２號","E_COORD97":171131.16,"N_COORD97":2545633.2400000002,"ADDRESS":"六合路５７巷１２號","OBJECTID":272186},"geometry":{"x":171131.16000000015,"y":2545633.2400000039}},{"attributes":{"ID":272192,"DIS_CODE":0,"TOWNNAME":"仁德區","LI":"一甲里","LIN":"7鄰","STREET":"中正路","SECT":"三段","MAREA":" ","LANE":"１６２巷","ALLEY":" ","HOUSE_NO":"４５號","E_COORD97":173614.09,"N_COORD97":2541735.27,"ADDRESS":"中正路三段１６２巷４５號","OBJECTID":272187},"geometry":{"x":173614.09000000078,"y":2541735.2699999996}},{"attributes":{"ID":272193,"DIS_CODE":0,"TOWNNAME":"仁德區","LI":"太子里","LIN":"7鄰","STREET":"太子路","SECT":" ","MAREA":" ","LANE":"１９０巷","ALLEY":" ","HOUSE_NO":"２之７號","E_COORD97":174331.67999999999,"N_COORD97":2543551.6899999999,"ADDRESS":"太子路１９０巷２之７號","OBJECTID":272188},"geometry":{"x":174331.68000000063,"y":2543551.6900000013}},{"attributes":{"ID":272194,"DIS_CODE":0,"TOWNNAME":"東區","LI":"路東里","LIN":"7鄰","STREET":"大同路","SECT":"二段","MAREA":" ","LANE":"６１巷","ALLEY":" ","HOUSE_NO":"９號","E_COORD97":169367.07999999999,"N_COORD97":2542272.27,"ADDRESS":"大同路二段６１巷９號","OBJECTID":272189},"geometry":{"x":169367.08000000007,"y":2542272.2699999977}},{"attributes":{"ID":272195,"DIS_CODE":0,"TOWNNAME":"歸仁區","LI":"看東里","LIN":"7鄰","STREET":"成功路","SECT":"一段","MAREA":" ","LANE":"１５５巷","ALLEY":" ","HOUSE_NO":"１４號","E_COORD97":178569.79999999999,"N_COORD97":2540166.4500000002,"ADDRESS":"成功路一段１５５巷１４號","OBJECTID":272190},"geometry":{"x":178569.79999999981,"y":2540166.4500000011}},{"attributes":{"ID":272196,"DIS_CODE":0,"TOWNNAME":"歸仁區","LI":"歸南里","LIN":"7鄰","STREET":"中正十六街","SECT":" ","MAREA":" ","LANE":"２巷","ALLEY":" ","HOUSE_NO":"２２號","E_COORD97":176566.56,"N_COORD97":2539857.9500000002,"ADDRESS":"中正十六街２巷２２號","OBJECTID":272191},"geometry":{"x":176566.56000000052,"y":2539857.9500000011}},{"attributes":{"ID":272197,"DIS_CODE":0,"TOWNNAME":"歸仁區","LI":"看東里","LIN":"7鄰","STREET":"成功路","SECT":"一段","MAREA":" ","LANE":"１５９巷","ALLEY":" ","HOUSE_NO":"７號","E_COORD97":178543.75,"N_COORD97":2540132.4500000002,"ADDRESS":"成功路一段１５９巷７號","OBJECTID":272192},"geometry":{"x":178543.75000000186,"y":2540132.4500000011}},{"attributes":{"ID":272198,"DIS_CODE":0,"TOWNNAME":"歸仁區","LI":"看東里","LIN":"7鄰","STREET":"成功路","SECT":"一段","MAREA":" ","LANE":"１５５巷","ALLEY":" ","HOUSE_NO":"１２號","E_COORD97":178564.70000000001,"N_COORD97":2540166.4500000002,"ADDRESS":"成功路一段１５５巷１２號","OBJECTID":272193},"geometry":{"x":178564.70000000205,"y":2540166.4500000011}},{"attributes":{"ID":272199,"DIS_CODE":0,"TOWNNAME":"歸仁區","LI":"許厝里","LIN":"7鄰","STREET":"仁愛八街","SECT":" ","MAREA":" ","LANE":"３３巷","ALLEY":" ","HOUSE_NO":"６號","E_COORD97":178166.76000000001,"N_COORD97":2540619.4199999999,"ADDRESS":"仁愛八街３３巷６號","OBJECTID":272194},"geometry":{"x":178166.75999999978,"y":2540619.4199999999}},{"attributes":{"ID":272200,"DIS_CODE":0,"TOWNNAME":"北區","LI":"永祥里","LIN":"7鄰","STREET":"實踐街","SECT":" ","MAREA":" ","LANE":"３９巷","ALLEY":" ","HOUSE_NO":"３８號","E_COORD97":169909.70000000001,"N_COORD97":2546157.0800000001,"ADDRESS":"實踐街３９巷３８號","OBJECTID":272195},"geometry":{"x":169909.70000000112,"y":2546157.0800000019}},{"attributes":{"ID":272201,"DIS_CODE":0,"TOWNNAME":"北區","LI":"永祥里","LIN":"7鄰","STREET":"實踐街","SECT":" ","MAREA":" ","LANE":"３９巷","ALLEY":" ","HOUSE_NO":"４０號","E_COORD97":169911.01000000001,"N_COORD97":2546161.5099999998,"ADDRESS":"實踐街３９巷４０號","OBJECTID":272196},"geometry":{"x":169911.00999999978,"y":2546161.5100000016}},{"attributes":{"ID":272202,"DIS_CODE":0,"TOWNNAME":"北區","LI":"永祥里","LIN":"7鄰","STREET":"實踐街","SECT":" ","MAREA":" ","LANE":"３９巷","ALLEY":" ","HOUSE_NO":"４２號","E_COORD97":169912.17000000001,"N_COORD97":2546165.7999999998,"ADDRESS":"實踐街３９巷４２號","OBJECTID":272197},"geometry":{"x":169912.16999999993,"y":2546165.8000000045}},{"attributes":{"ID":272203,"DIS_CODE":0,"TOWNNAME":"北區","LI":"永祥里","LIN":"7鄰","STREET":"實踐街","SECT":" ","MAREA":" ","LANE":"３９巷","ALLEY":" ","HOUSE_NO":"４４號","E_COORD97":169913.19,"N_COORD97":2546171.5499999998,"ADDRESS":"實踐街３９巷４４號","OBJECTID":272198},"geometry":{"x":169913.19000000134,"y":2546171.5500000026}},{"attributes":{"ID":272204,"DIS_CODE":0,"TOWNNAME":"北區","LI":"永祥里","LIN":"7鄰","STREET":"實踐街","SECT":" ","MAREA":" ","LANE":"３９巷","ALLEY":" ","HOUSE_NO":"４６號","E_COORD97":169914.64000000001,"N_COORD97":2546176.7000000002,"ADDRESS":"實踐街３９巷４６號","OBJECTID":272199},"geometry":{"x":169914.6400000006,"y":2546176.6999999993}},{"attributes":{"ID":272205,"DIS_CODE":0,"TOWNNAME":"北區","LI":"永祥里","LIN":"7鄰","STREET":"實踐街","SECT":" ","MAREA":" ","LANE":"３９巷","ALLEY":" ","HOUSE_NO":"４８號","E_COORD97":169915.67999999999,"N_COORD97":2546181.1000000001,"ADDRESS":"實踐街３９巷４８號","OBJECTID":272200},"geometry":{"x":169915.68000000063,"y":2546181.1000000015}}]}