{"displayFieldName":"TOWNNAME","fieldAliases":{"ID":"ID","DIS_CODE":"DIS_CODE","TOWNNAME":"TOWNNAME","LI":"LI","LIN":"LIN","STREET":"STREET","SECT":"SECT","MAREA":"MAREA","LANE":"LANE","ALLEY":"ALLEY","HOUSE_NO":"HOUSE_NO","E_COORD97":"E_COORD97","N_COORD97":"N_COORD97","ADDRESS":"ADDRESS","OBJECTID":"OBJECTID"},"geometryType":"esriGeometryPoint","spatialReference":{"wkid":102443,"latestWkid":3826},"fields":[{"name":"ID","type":"esriFieldTypeDouble","alias":"ID"},{"name":"DIS_CODE","type":"esriFieldTypeInteger","alias":"DIS_CODE"},{"name":"TOWNNAME","type":"esriFieldTypeString","alias":"TOWNNAME","length":8},{"name":"LI","type":"esriFieldTypeString","alias":"LI","length":8},{"name":"LIN","type":"esriFieldTypeString","alias":"LIN","length":12},{"name":"STREET","type":"esriFieldTypeString","alias":"STREET","length":20},{"name":"SECT","type":"esriFieldTypeString","alias":"SECT","length":8},{"name":"MAREA","type":"esriFieldTypeString","alias":"MAREA","length":12},{"name":"LANE","type":"esriFieldTypeString","alias":"LANE","length":10},{"name":"ALLEY","type":"esriFieldTypeString","alias":"ALLEY","length":10},{"name":"HOUSE_NO","type":"esriFieldTypeString","alias":"HOUSE_NO","length":20},{"name":"E_COORD97","type":"esriFieldTypeDouble","alias":"E_COORD97"},{"name":"N_COORD97","type":"esriFieldTypeDouble","alias":"N_COORD97"},{"name":"ADDRESS","type":"esriFieldTypeString","alias":"ADDRESS","length":50},{"name":"OBJECTID","type":"esriFieldTypeOID","alias":"OBJECTID"}],"features":[{"attributes":{"ID":408225,"DIS_CODE":0,"TOWNNAME":"南區","LI":"廣州里","LIN":"22鄰","STREET":"福吉四街","SECT":" ","MAREA":" ","LANE":"４７巷","ALLEY":" ","HOUSE_NO":"１０號","E_COORD97":167198.01000000001,"N_COORD97":2542654.1200000001,"ADDRESS":"福吉四街４７巷１０號","OBJECTID":408201},"geometry":{"x":167198.01000000071,"y":2542654.120000001}},{"attributes":{"ID":408226,"DIS_CODE":0,"TOWNNAME":"南區","LI":"廣州里","LIN":"22鄰","STREET":"福吉四街","SECT":" ","MAREA":" ","LANE":"４７巷","ALLEY":" ","HOUSE_NO":"１２號","E_COORD97":167195.56,"N_COORD97":2542651.02,"ADDRESS":"福吉四街４７巷１２號","OBJECTID":408202},"geometry":{"x":167195.56000000052,"y":2542651.0200000014}},{"attributes":{"ID":408227,"DIS_CODE":0,"TOWNNAME":"南區","LI":"廣州里","LIN":"22鄰","STREET":"福吉四街","SECT":" ","MAREA":" ","LANE":"６１巷","ALLEY":" ","HOUSE_NO":"１號","E_COORD97":167200.23000000001,"N_COORD97":2542696.75,"ADDRESS":"福吉四街６１巷１號","OBJECTID":408203},"geometry":{"x":167200.23000000231,"y":2542696.7499999981}},{"attributes":{"ID":408228,"DIS_CODE":0,"TOWNNAME":"南區","LI":"廣州里","LIN":"22鄰","STREET":"福吉四街","SECT":" ","MAREA":" ","LANE":"６１巷","ALLEY":" ","HOUSE_NO":"３號","E_COORD97":167193.34,"N_COORD97":2542691.2000000002,"ADDRESS":"福吉四街６１巷３號","OBJECTID":408204},"geometry":{"x":167193.33999999985,"y":2542691.2000000011}},{"attributes":{"ID":408229,"DIS_CODE":0,"TOWNNAME":"南區","LI":"廣州里","LIN":"22鄰","STREET":"福吉四街","SECT":" ","MAREA":" ","LANE":"６１巷","ALLEY":" ","HOUSE_NO":"５號","E_COORD97":167189.34,"N_COORD97":2542684.54,"ADDRESS":"福吉四街６１巷５號","OBJECTID":408205},"geometry":{"x":167189.34000000078,"y":2542684.540000001}},{"attributes":{"ID":408230,"DIS_CODE":0,"TOWNNAME":"南區","LI":"廣州里","LIN":"22鄰","STREET":"福吉四街","SECT":" ","MAREA":" ","LANE":"６１巷","ALLEY":" ","HOUSE_NO":"７號","E_COORD97":167186.45000000001,"N_COORD97":2542681.4300000002,"ADDRESS":"福吉四街６１巷７號","OBJECTID":408206},"geometry":{"x":167186.44999999925,"y":2542681.4299999997}},{"attributes":{"ID":408231,"DIS_CODE":0,"TOWNNAME":"南區","LI":"廣州里","LIN":"22鄰","STREET":"福吉四街","SECT":" ","MAREA":" ","LANE":"６１巷","ALLEY":" ","HOUSE_NO":"７號之１","E_COORD97":167185.10999999999,"N_COORD97":2542677.21,"ADDRESS":"福吉四街６１巷７號之１","OBJECTID":408207},"geometry":{"x":167185.11000000034,"y":2542677.2100000009}},{"attributes":{"ID":408232,"DIS_CODE":0,"TOWNNAME":"南區","LI":"廣州里","LIN":"22鄰","STREET":"福吉四街","SECT":" ","MAREA":" ","LANE":"６１巷","ALLEY":" ","HOUSE_NO":"９號","E_COORD97":167180.67000000001,"N_COORD97":2542674.3300000001,"ADDRESS":"福吉四街６１巷９號","OBJECTID":408208},"geometry":{"x":167180.66999999993,"y":2542674.3300000019}},{"attributes":{"ID":408233,"DIS_CODE":0,"TOWNNAME":"南區","LI":"廣州里","LIN":"22鄰","STREET":"福吉四街","SECT":" ","MAREA":" ","LANE":"６１巷","ALLEY":" ","HOUSE_NO":"１１號","E_COORD97":167178.67000000001,"N_COORD97":2542669,"ADDRESS":"福吉四街６１巷１１號","OBJECTID":408209},"geometry":{"x":167178.67000000086,"y":2542669.0000000019}},{"attributes":{"ID":408234,"DIS_CODE":0,"TOWNNAME":"南區","LI":"廣州里","LIN":"22鄰","STREET":"福吉四街","SECT":" ","MAREA":" ","LANE":"６１巷","ALLEY":" ","HOUSE_NO":"１３號","E_COORD97":167176.44,"N_COORD97":2542664.7799999998,"ADDRESS":"福吉四街６１巷１３號","OBJECTID":408210},"geometry":{"x":167176.44000000041,"y":2542664.7799999993}},{"attributes":{"ID":408235,"DIS_CODE":0,"TOWNNAME":"南區","LI":"廣州里","LIN":"22鄰","STREET":"福吉四街","SECT":" ","MAREA":" ","LANE":"６１巷","ALLEY":" ","HOUSE_NO":"１７號","E_COORD97":167180,"N_COORD97":2542649.9100000001,"ADDRESS":"福吉四街６１巷１７號","OBJECTID":408211},"geometry":{"x":167180.00000000093,"y":2542649.910000002}},{"attributes":{"ID":408236,"DIS_CODE":0,"TOWNNAME":"南區","LI":"廣州里","LIN":"22鄰","STREET":"福吉四街","SECT":" ","MAREA":" ","LANE":"６１巷","ALLEY":" ","HOUSE_NO":"１９號","E_COORD97":167182.67000000001,"N_COORD97":2542645.4700000002,"ADDRESS":"福吉四街６１巷１９號","OBJECTID":408212},"geometry":{"x":167182.66999999993,"y":2542645.4700000044}},{"attributes":{"ID":408237,"DIS_CODE":0,"TOWNNAME":"南區","LI":"廣州里","LIN":"22鄰","STREET":"福吉四街","SECT":" ","MAREA":" ","LANE":"６１巷","ALLEY":" ","HOUSE_NO":"２１號","E_COORD97":167185.56,"N_COORD97":2542643.25,"ADDRESS":"福吉四街６１巷２１號","OBJECTID":408213},"geometry":{"x":167185.56000000052,"y":2542643.2500000019}},{"attributes":{"ID":408238,"DIS_CODE":0,"TOWNNAME":"南區","LI":"廣州里","LIN":"22鄰","STREET":"福吉四街","SECT":" ","MAREA":" ","LANE":"６１巷","ALLEY":" ","HOUSE_NO":"２３號","E_COORD97":167191.34,"N_COORD97":2542639.6899999999,"ADDRESS":"福吉四街６１巷２３號","OBJECTID":408214},"geometry":{"x":167191.33999999985,"y":2542639.6900000013}},{"attributes":{"ID":408239,"DIS_CODE":0,"TOWNNAME":"安南區","LI":"理想里","LIN":"22鄰","STREET":"大安街","SECT":" ","MAREA":" ","LANE":"７０４巷","ALLEY":" ","HOUSE_NO":"１１號","E_COORD97":167099.16,"N_COORD97":2549009.8799999999,"ADDRESS":"大安街７０４巷１１號","OBJECTID":408215},"geometry":{"x":167099.16000000108,"y":2549009.879999999}},{"attributes":{"ID":408240,"DIS_CODE":0,"TOWNNAME":"安南區","LI":"理想里","LIN":"22鄰","STREET":"大安街","SECT":" ","MAREA":" ","LANE":"７０４巷","ALLEY":" ","HOUSE_NO":"１２號","E_COORD97":167121.75,"N_COORD97":2548993.1899999999,"ADDRESS":"大安街７０４巷１２號","OBJECTID":408216},"geometry":{"x":167121.75000000093,"y":2548993.1900000013}},{"attributes":{"ID":408241,"DIS_CODE":0,"TOWNNAME":"安南區","LI":"理想里","LIN":"22鄰","STREET":"大安街","SECT":" ","MAREA":" ","LANE":"７０４巷","ALLEY":" ","HOUSE_NO":"１３號","E_COORD97":167102.63,"N_COORD97":2549012.8999999999,"ADDRESS":"大安街７０４巷１３號","OBJECTID":408217},"geometry":{"x":167102.63000000082,"y":2549012.9000000022}},{"attributes":{"ID":408242,"DIS_CODE":0,"TOWNNAME":"安南區","LI":"理想里","LIN":"22鄰","STREET":"大安街","SECT":" ","MAREA":" ","LANE":"７０４巷","ALLEY":" ","HOUSE_NO":"１４號","E_COORD97":167124.42000000001,"N_COORD97":2548996.3799999999,"ADDRESS":"大安街７０４巷１４號","OBJECTID":408218},"geometry":{"x":167124.42000000086,"y":2548996.379999999}},{"attributes":{"ID":408243,"DIS_CODE":0,"TOWNNAME":"安南區","LI":"理想里","LIN":"22鄰","STREET":"大安街","SECT":" ","MAREA":" ","LANE":"７０４巷","ALLEY":" ","HOUSE_NO":"１５號","E_COORD97":167105.20999999999,"N_COORD97":2549016.2599999998,"ADDRESS":"大安街７０４巷１５號","OBJECTID":408219},"geometry":{"x":167105.21000000089,"y":2549016.2600000035}},{"attributes":{"ID":408244,"DIS_CODE":0,"TOWNNAME":"安南區","LI":"理想里","LIN":"22鄰","STREET":"大安街","SECT":" ","MAREA":" ","LANE":"７０４巷","ALLEY":" ","HOUSE_NO":"１６號","E_COORD97":167126.37,"N_COORD97":2549000.6499999999,"ADDRESS":"大安街７０４巷１６號","OBJECTID":408220},"geometry":{"x":167126.37000000104,"y":2549000.6500000041}},{"attributes":{"ID":408245,"DIS_CODE":0,"TOWNNAME":"安南區","LI":"理想里","LIN":"22鄰","STREET":"大安街","SECT":" ","MAREA":" ","LANE":"７０４巷","ALLEY":" ","HOUSE_NO":"１７號","E_COORD97":167107.56,"N_COORD97":2549019.8399999999,"ADDRESS":"大安街７０４巷１７號","OBJECTID":408221},"geometry":{"x":167107.56000000052,"y":2549019.8400000017}},{"attributes":{"ID":408246,"DIS_CODE":0,"TOWNNAME":"安南區","LI":"理想里","LIN":"22鄰","STREET":"大安街","SECT":" ","MAREA":" ","LANE":"７０４巷","ALLEY":" ","HOUSE_NO":"１８號","E_COORD97":167129.22,"N_COORD97":2549003.3199999998,"ADDRESS":"大安街７０４巷１８號","OBJECTID":408222},"geometry":{"x":167129.21999999974,"y":2549003.3200000022}},{"attributes":{"ID":408247,"DIS_CODE":0,"TOWNNAME":"安南區","LI":"理想里","LIN":"22鄰","STREET":"大安街","SECT":" ","MAREA":" ","LANE":"７０４巷","ALLEY":" ","HOUSE_NO":"１９號","E_COORD97":167108.89999999999,"N_COORD97":2549024.54,"ADDRESS":"大安街７０４巷１９號","OBJECTID":408223},"geometry":{"x":167108.90000000037,"y":2549024.540000001}},{"attributes":{"ID":408248,"DIS_CODE":0,"TOWNNAME":"安南區","LI":"理想里","LIN":"22鄰","STREET":"大安街","SECT":" ","MAREA":" ","LANE":"７０４巷","ALLEY":" ","HOUSE_NO":"１號","E_COORD97":167083.14000000001,"N_COORD97":2548994.77,"ADDRESS":"大安街７０４巷１號","OBJECTID":408224},"geometry":{"x":167083.1400000006,"y":2548994.7699999996}},{"attributes":{"ID":408249,"DIS_CODE":0,"TOWNNAME":"安南區","LI":"理想里","LIN":"22鄰","STREET":"大安街","SECT":" ","MAREA":" ","LANE":"７０４巷","ALLEY":" ","HOUSE_NO":"２０號","E_COORD97":167131.35000000001,"N_COORD97":2549007.7599999998,"ADDRESS":"大安街７０４巷２０號","OBJECTID":408225},"geometry":{"x":167131.35000000056,"y":2549007.7600000016}},{"attributes":{"ID":408250,"DIS_CODE":0,"TOWNNAME":"安南區","LI":"理想里","LIN":"22鄰","STREET":"大安街","SECT":" ","MAREA":" ","LANE":"７０４巷","ALLEY":" ","HOUSE_NO":"２１號","E_COORD97":167113.79000000001,"N_COORD97":2549028.0099999998,"ADDRESS":"大安街７０４巷２１號","OBJECTID":408226},"geometry":{"x":167113.79000000004,"y":2549028.0100000035}},{"attributes":{"ID":408251,"DIS_CODE":0,"TOWNNAME":"安南區","LI":"理想里","LIN":"22鄰","STREET":"大安街","SECT":" ","MAREA":" ","LANE":"７０４巷","ALLEY":" ","HOUSE_NO":"２３號","E_COORD97":167115.35999999999,"N_COORD97":2549032.3700000001,"ADDRESS":"大安街７０４巷２３號","OBJECTID":408227},"geometry":{"x":167115.36000000034,"y":2549032.370000001}},{"attributes":{"ID":408252,"DIS_CODE":0,"TOWNNAME":"安南區","LI":"理想里","LIN":"22鄰","STREET":"大安街","SECT":" ","MAREA":" ","LANE":"７０４巷","ALLEY":" ","HOUSE_NO":"２５號","E_COORD97":167120.06,"N_COORD97":2549035.3999999999,"ADDRESS":"大安街７０４巷２５號","OBJECTID":408228},"geometry":{"x":167120.05999999959,"y":2549035.4000000004}},{"attributes":{"ID":408253,"DIS_CODE":0,"TOWNNAME":"安南區","LI":"理想里","LIN":"22鄰","STREET":"大安街","SECT":" ","MAREA":" ","LANE":"７０４巷","ALLEY":" ","HOUSE_NO":"２７號","E_COORD97":167122.75,"N_COORD97":2549039.3100000001,"ADDRESS":"大安街７０４巷２７號","OBJECTID":408229},"geometry":{"x":167122.75,"y":2549039.3100000005}},{"attributes":{"ID":408254,"DIS_CODE":0,"TOWNNAME":"安南區","LI":"理想里","LIN":"22鄰","STREET":"大安街","SECT":" ","MAREA":" ","LANE":"７０４巷","ALLEY":" ","HOUSE_NO":"２９號","E_COORD97":167125.76999999999,"N_COORD97":2549044.1299999999,"ADDRESS":"大安街７０４巷２９號","OBJECTID":408230},"geometry":{"x":167125.76999999955,"y":2549044.1300000008}},{"attributes":{"ID":408255,"DIS_CODE":0,"TOWNNAME":"安南區","LI":"理想里","LIN":"22鄰","STREET":"大安街","SECT":" ","MAREA":" ","LANE":"７０４巷","ALLEY":" ","HOUSE_NO":"２號","E_COORD97":167107.34,"N_COORD97":2548977.7200000002,"ADDRESS":"大安街７０４巷２號","OBJECTID":408231},"geometry":{"x":167107.34000000171,"y":2548977.7200000025}},{"attributes":{"ID":408256,"DIS_CODE":0,"TOWNNAME":"安南區","LI":"理想里","LIN":"22鄰","STREET":"大安街","SECT":" ","MAREA":" ","LANE":"７０４巷","ALLEY":" ","HOUSE_NO":"３號","E_COORD97":167086.84,"N_COORD97":2548998.3500000001,"ADDRESS":"大安街７０４巷３號","OBJECTID":408232},"geometry":{"x":167086.83999999892,"y":2548998.3499999978}},{"attributes":{"ID":408257,"DIS_CODE":0,"TOWNNAME":"安南區","LI":"理想里","LIN":"22鄰","STREET":"大安街","SECT":" ","MAREA":" ","LANE":"７０４巷","ALLEY":" ","HOUSE_NO":"４號","E_COORD97":167111.95999999999,"N_COORD97":2548979.8599999999,"ADDRESS":"大安街７０４巷４號","OBJECTID":408233},"geometry":{"x":167111.96000000089,"y":2548979.8599999994}},{"attributes":{"ID":408258,"DIS_CODE":0,"TOWNNAME":"佳里區","LI":"安西里","LIN":"13鄰","STREET":"長安街","SECT":" ","MAREA":" ","LANE":" ","ALLEY":" ","HOUSE_NO":"９３號","E_COORD97":165413.88,"N_COORD97":2562471.25,"ADDRESS":"長安街９３號","OBJECTID":408234},"geometry":{"x":165413.88000000082,"y":2562471.2500000019}},{"attributes":{"ID":408259,"DIS_CODE":0,"TOWNNAME":"安南區","LI":"理想里","LIN":"22鄰","STREET":"大安街","SECT":" ","MAREA":" ","LANE":"７０４巷","ALLEY":" ","HOUSE_NO":"５號","E_COORD97":167091.20999999999,"N_COORD97":2548999.4700000002,"ADDRESS":"大安街７０４巷５號","OBJECTID":408235},"geometry":{"x":167091.20999999903,"y":2548999.4700000025}},{"attributes":{"ID":408260,"DIS_CODE":0,"TOWNNAME":"安南區","LI":"理想里","LIN":"22鄰","STREET":"大安街","SECT":" ","MAREA":" ","LANE":"７０４巷","ALLEY":" ","HOUSE_NO":"６號","E_COORD97":167114.63,"N_COORD97":2548982.7000000002,"ADDRESS":"大安街７０４巷６號","OBJECTID":408236},"geometry":{"x":167114.63000000082,"y":2548982.7000000011}},{"attributes":{"ID":408261,"DIS_CODE":0,"TOWNNAME":"安南區","LI":"理想里","LIN":"22鄰","STREET":"大安街","SECT":" ","MAREA":" ","LANE":"７０４巷","ALLEY":" ","HOUSE_NO":"７號","E_COORD97":167093.45000000001,"N_COORD97":2549003.3900000001,"ADDRESS":"大安街７０４巷７號","OBJECTID":408237},"geometry":{"x":167093.45000000205,"y":2549003.3900000025}},{"attributes":{"ID":408262,"DIS_CODE":0,"TOWNNAME":"安南區","LI":"理想里","LIN":"22鄰","STREET":"大安街","SECT":" ","MAREA":" ","LANE":"７０４巷","ALLEY":" ","HOUSE_NO":"８號","E_COORD97":167117.29999999999,"N_COORD97":2548985.8999999999,"ADDRESS":"大安街７０４巷８號","OBJECTID":408238},"geometry":{"x":167117.29999999981,"y":2548985.9000000022}},{"attributes":{"ID":408263,"DIS_CODE":0,"TOWNNAME":"安南區","LI":"理想里","LIN":"22鄰","STREET":"大安街","SECT":" ","MAREA":" ","LANE":"７０４巷","ALLEY":" ","HOUSE_NO":"９號","E_COORD97":167096.57999999999,"N_COORD97":2549006.8599999999,"ADDRESS":"大安街７０４巷９號","OBJECTID":408239},"geometry":{"x":167096.58000000007,"y":2549006.8599999994}},{"attributes":{"ID":408264,"DIS_CODE":0,"TOWNNAME":"安南區","LI":"理想里","LIN":"22鄰","STREET":"同安路","SECT":" ","MAREA":" ","LANE":"１４４巷","ALLEY":" ","HOUSE_NO":"１號","E_COORD97":167090.26000000001,"N_COORD97":2549034.9900000002,"ADDRESS":"同安路１４４巷１號","OBJECTID":408240},"geometry":{"x":167090.25999999978,"y":2549034.9900000002}},{"attributes":{"ID":408265,"DIS_CODE":0,"TOWNNAME":"安南區","LI":"理想里","LIN":"22鄰","STREET":"同安路","SECT":" ","MAREA":" ","LANE":"１４４巷","ALLEY":" ","HOUSE_NO":"２號","E_COORD97":167068.38,"N_COORD97":2549013.1299999999,"ADDRESS":"同安路１４４巷２號","OBJECTID":408241},"geometry":{"x":167068.38000000082,"y":2549013.1300000027}},{"attributes":{"ID":408266,"DIS_CODE":0,"TOWNNAME":"安南區","LI":"理想里","LIN":"22鄰","STREET":"同安路","SECT":" ","MAREA":" ","LANE":"１４４巷","ALLEY":" ","HOUSE_NO":"３號","E_COORD97":167094.35000000001,"N_COORD97":2549033.75,"ADDRESS":"同安路１４４巷３號","OBJECTID":408242},"geometry":{"x":167094.34999999963,"y":2549033.7500000037}},{"attributes":{"ID":408267,"DIS_CODE":0,"TOWNNAME":"安南區","LI":"理想里","LIN":"22鄰","STREET":"同安路","SECT":" ","MAREA":" ","LANE":"１４４巷","ALLEY":" ","HOUSE_NO":"４號","E_COORD97":167072.12,"N_COORD97":2549009.9300000002,"ADDRESS":"同安路１４４巷４號","OBJECTID":408243},"geometry":{"x":167072.12000000104,"y":2549009.9300000016}},{"attributes":{"ID":408268,"DIS_CODE":0,"TOWNNAME":"安南區","LI":"理想里","LIN":"22鄰","STREET":"同安路","SECT":" ","MAREA":" ","LANE":"１４４巷","ALLEY":" ","HOUSE_NO":"５號","E_COORD97":167098.26999999999,"N_COORD97":2549030.73,"ADDRESS":"同安路１４４巷５號","OBJECTID":408244},"geometry":{"x":167098.26999999955,"y":2549030.7300000042}},{"attributes":{"ID":408269,"DIS_CODE":0,"TOWNNAME":"安南區","LI":"理想里","LIN":"22鄰","STREET":"同安路","SECT":" ","MAREA":" ","LANE":"１４４巷","ALLEY":" ","HOUSE_NO":"６號","E_COORD97":167076.20999999999,"N_COORD97":2549008.8700000001,"ADDRESS":"同安路１４４巷６號","OBJECTID":408245},"geometry":{"x":167076.21000000089,"y":2549008.870000001}},{"attributes":{"ID":408270,"DIS_CODE":0,"TOWNNAME":"安南區","LI":"理想里","LIN":"22鄰","STREET":"同安路","SECT":" ","MAREA":" ","LANE":"１４４巷","ALLEY":" ","HOUSE_NO":"７號","E_COORD97":167100.94,"N_COORD97":2549026.9900000002,"ADDRESS":"同安路１４４巷７號","OBJECTID":408246},"geometry":{"x":167100.94000000134,"y":2549026.9900000021}},{"attributes":{"ID":408271,"DIS_CODE":0,"TOWNNAME":"安南區","LI":"理想里","LIN":"22鄰","STREET":"同安路","SECT":" ","MAREA":" ","LANE":"１４４巷","ALLEY":" ","HOUSE_NO":"８號","E_COORD97":167079.41,"N_COORD97":2549005.1299999999,"ADDRESS":"同安路１４４巷８號","OBJECTID":408247},"geometry":{"x":167079.41000000015,"y":2549005.129999999}},{"attributes":{"ID":408272,"DIS_CODE":0,"TOWNNAME":"安南區","LI":"理想里","LIN":"22鄰","STREET":"同安路","SECT":" ","MAREA":" ","LANE":"１６６巷","ALLEY":" ","HOUSE_NO":"７號","E_COORD97":167139.17999999999,"N_COORD97":2549012.0299999998,"ADDRESS":"同安路１６６巷７號","OBJECTID":408248},"geometry":{"x":167139.18000000063,"y":2549012.0300000012}},{"attributes":{"ID":408273,"DIS_CODE":0,"TOWNNAME":"安南區","LI":"理想里","LIN":"22鄰","STREET":"同安路","SECT":" ","MAREA":" ","LANE":"１６６巷","ALLEY":" ","HOUSE_NO":"８號","E_COORD97":167142.03,"N_COORD97":2549008.1200000001,"ADDRESS":"同安路１６６巷８號","OBJECTID":408249},"geometry":{"x":167142.03000000212,"y":2549008.1199999992}},{"attributes":{"ID":408274,"DIS_CODE":0,"TOWNNAME":"安南區","LI":"理想里","LIN":"22鄰","STREET":"同安路","SECT":" ","MAREA":" ","LANE":"１６６巷","ALLEY":" ","HOUSE_NO":"９號","E_COORD97":167144.69,"N_COORD97":2549004.0299999998,"ADDRESS":"同安路１６６巷９號","OBJECTID":408250},"geometry":{"x":167144.69000000134,"y":2549004.0300000031}},{"attributes":{"ID":408275,"DIS_CODE":0,"TOWNNAME":"新化區","LI":"東榮里","LIN":"22鄰","STREET":"和平街","SECT":" ","MAREA":" ","LANE":"３１巷","ALLEY":" ","HOUSE_NO":"９號","E_COORD97":179320.37,"N_COORD97":2548127.25,"ADDRESS":"和平街３１巷９號","OBJECTID":408251},"geometry":{"x":179320.37000000011,"y":2548127.25}},{"attributes":{"ID":408276,"DIS_CODE":0,"TOWNNAME":"永康區","LI":"東灣里","LIN":"22鄰","STREET":"大灣三街","SECT":" ","MAREA":" ","LANE":"７３巷","ALLEY":" ","HOUSE_NO":"１１３號","E_COORD97":174897.88,"N_COORD97":2544802.9900000002,"ADDRESS":"大灣三街７３巷１１３號","OBJECTID":408252},"geometry":{"x":174897.87999999989,"y":2544802.9900000002}},{"attributes":{"ID":408277,"DIS_CODE":0,"TOWNNAME":"永康區","LI":"神洲里","LIN":"22鄰","STREET":"忠孝路","SECT":" ","MAREA":" ","LANE":"７６巷","ALLEY":" ","HOUSE_NO":"３１號","E_COORD97":172176.26000000001,"N_COORD97":2544926.0600000001,"ADDRESS":"忠孝路７６巷３１號","OBJECTID":408253},"geometry":{"x":172176.25999999885,"y":2544926.0599999987}},{"attributes":{"ID":408278,"DIS_CODE":0,"TOWNNAME":"永康區","LI":"埔園里","LIN":"22鄰","STREET":"四維街","SECT":" ","MAREA":" ","LANE":"５８巷","ALLEY":" ","HOUSE_NO":"２７號","E_COORD97":173531.87,"N_COORD97":2548106.75,"ADDRESS":"四維街５８巷２７號","OBJECTID":408254},"geometry":{"x":173531.87000000011,"y":2548106.75}},{"attributes":{"ID":408279,"DIS_CODE":0,"TOWNNAME":"永康區","LI":"神洲里","LIN":"22鄰","STREET":"忠孝路","SECT":" ","MAREA":" ","LANE":"７６巷","ALLEY":" ","HOUSE_NO":"３７號","E_COORD97":172216.26999999999,"N_COORD97":2544927.0699999998,"ADDRESS":"忠孝路７６巷３７號","OBJECTID":408255},"geometry":{"x":172216.26999999955,"y":2544927.0700000022}},{"attributes":{"ID":408280,"DIS_CODE":0,"TOWNNAME":"永康區","LI":"神洲里","LIN":"22鄰","STREET":"忠孝路","SECT":" ","MAREA":" ","LANE":"７６巷","ALLEY":" ","HOUSE_NO":"３５號","E_COORD97":172201.48000000001,"N_COORD97":2544928.0699999998,"ADDRESS":"忠孝路７６巷３５號","OBJECTID":408256},"geometry":{"x":172201.48000000138,"y":2544928.0700000003}},{"attributes":{"ID":408281,"DIS_CODE":0,"TOWNNAME":"永康區","LI":"埔園里","LIN":"22鄰","STREET":"四維街","SECT":" ","MAREA":" ","LANE":"５８巷","ALLEY":" ","HOUSE_NO":"１７號","E_COORD97":173494.04000000001,"N_COORD97":2548096.5,"ADDRESS":"四維街５８巷１７號","OBJECTID":408257},"geometry":{"x":173494.04000000097,"y":2548096.5000000019}},{"attributes":{"ID":408282,"DIS_CODE":0,"TOWNNAME":"永康區","LI":"西灣里","LIN":"22鄰","STREET":"大勇路","SECT":" ","MAREA":" ","LANE":"６２巷","ALLEY":" ","HOUSE_NO":"２６號","E_COORD97":174291.60000000001,"N_COORD97":2545415.4399999999,"ADDRESS":"大勇路６２巷２６號","OBJECTID":408258},"geometry":{"x":174291.60000000056,"y":2545415.4400000013}},{"attributes":{"ID":408283,"DIS_CODE":0,"TOWNNAME":"永康區","LI":"西勢里","LIN":"22鄰","STREET":"富強路","SECT":"一段","MAREA":" ","LANE":"２１６巷","ALLEY":" ","HOUSE_NO":"１３號","E_COORD97":175673.14999999999,"N_COORD97":2546390.0299999998,"ADDRESS":"富強路一段２１６巷１３號","OBJECTID":408259},"geometry":{"x":175673.15000000224,"y":2546390.0300000031}},{"attributes":{"ID":408284,"DIS_CODE":0,"TOWNNAME":"永康區","LI":"西勢里","LIN":"22鄰","STREET":"富強路","SECT":"一段","MAREA":" ","LANE":"２１６巷","ALLEY":" ","HOUSE_NO":"５號","E_COORD97":175654.13,"N_COORD97":2546391.02,"ADDRESS":"富強路一段２１６巷５號","OBJECTID":408260},"geometry":{"x":175654.13000000175,"y":2546391.0200000014}},{"attributes":{"ID":408285,"DIS_CODE":0,"TOWNNAME":"永康區","LI":"西勢里","LIN":"22鄰","STREET":"富強路","SECT":"一段","MAREA":" ","LANE":"２１６巷","ALLEY":" ","HOUSE_NO":"２９號","E_COORD97":175710.32999999999,"N_COORD97":2546366.5099999998,"ADDRESS":"富強路一段２１６巷２９號","OBJECTID":408261},"geometry":{"x":175710.33000000007,"y":2546366.5099999979}},{"attributes":{"ID":408286,"DIS_CODE":0,"TOWNNAME":"西港區","LI":"慶安里","LIN":"22鄰","STREET":"慶安路","SECT":" ","MAREA":" ","LANE":"３３巷","ALLEY":" ","HOUSE_NO":"３號","E_COORD97":168326.84,"N_COORD97":2557877.3900000001,"ADDRESS":"慶安路３３巷３號","OBJECTID":408262},"geometry":{"x":168326.84000000078,"y":2557877.3900000006}},{"attributes":{"ID":408287,"DIS_CODE":0,"TOWNNAME":"西港區","LI":"慶安里","LIN":"22鄰","STREET":"慶安路","SECT":" ","MAREA":" ","LANE":"３３巷","ALLEY":" ","HOUSE_NO":"５號","E_COORD97":168326.81,"N_COORD97":2557872.2200000002,"ADDRESS":"慶安路３３巷５號","OBJECTID":408263},"geometry":{"x":168326.81000000052,"y":2557872.2200000007}},{"attributes":{"ID":408288,"DIS_CODE":0,"TOWNNAME":"西港區","LI":"慶安里","LIN":"22鄰","STREET":"慶安路","SECT":" ","MAREA":" ","LANE":"３３巷","ALLEY":" ","HOUSE_NO":"７號","E_COORD97":168326.89999999999,"N_COORD97":2557867.52,"ADDRESS":"慶安路３３巷７號","OBJECTID":408264},"geometry":{"x":168326.9000000013,"y":2557867.5200000014}},{"attributes":{"ID":408289,"DIS_CODE":0,"TOWNNAME":"西港區","LI":"慶安里","LIN":"22鄰","STREET":"慶安路","SECT":" ","MAREA":" ","LANE":"３３巷","ALLEY":" ","HOUSE_NO":"９號","E_COORD97":168326.94,"N_COORD97":2557862.8999999999,"ADDRESS":"慶安路３３巷９號","OBJECTID":408265},"geometry":{"x":168326.94000000041,"y":2557862.9000000022}},{"attributes":{"ID":408290,"DIS_CODE":0,"TOWNNAME":"安南區","LI":"海東里","LIN":"22鄰","STREET":"大安街","SECT":" ","MAREA":" ","LANE":"７４３巷","ALLEY":" ","HOUSE_NO":"１１號","E_COORD97":166960.70000000001,"N_COORD97":2548998.5600000001,"ADDRESS":"大安街７４３巷１１號","OBJECTID":408266},"geometry":{"x":166960.70000000019,"y":2548998.5600000024}},{"attributes":{"ID":408291,"DIS_CODE":0,"TOWNNAME":"安南區","LI":"海東里","LIN":"22鄰","STREET":"大安街","SECT":" ","MAREA":" ","LANE":"７４３巷","ALLEY":" ","HOUSE_NO":"１２號","E_COORD97":166904.75,"N_COORD97":2549026.3799999999,"ADDRESS":"大安街７４３巷１２號","OBJECTID":408267},"geometry":{"x":166904.75000000186,"y":2549026.3800000008}},{"attributes":{"ID":408292,"DIS_CODE":0,"TOWNNAME":"安南區","LI":"海東里","LIN":"22鄰","STREET":"大安街","SECT":" ","MAREA":" ","LANE":"７４３巷","ALLEY":" ","HOUSE_NO":"１３號","E_COORD97":166943.31,"N_COORD97":2548984.0800000001,"ADDRESS":"大安街７４３巷１３號","OBJECTID":408268},"geometry":{"x":166943.31000000052,"y":2548984.0800000038}},{"attributes":{"ID":408293,"DIS_CODE":0,"TOWNNAME":"安南區","LI":"海東里","LIN":"22鄰","STREET":"大安街","SECT":" ","MAREA":" ","LANE":"７４３巷","ALLEY":" ","HOUSE_NO":"１４號","E_COORD97":166910.22,"N_COORD97":2549020.2200000002,"ADDRESS":"大安街７４３巷１４號","OBJECTID":408269},"geometry":{"x":166910.22000000067,"y":2549020.2200000007}},{"attributes":{"ID":408294,"DIS_CODE":0,"TOWNNAME":"安南區","LI":"海東里","LIN":"22鄰","STREET":"大安街","SECT":" ","MAREA":" ","LANE":"７４３巷","ALLEY":" ","HOUSE_NO":"１５號","E_COORD97":166940.81,"N_COORD97":2548987.6099999999,"ADDRESS":"大安街７４３巷１５號","OBJECTID":408270},"geometry":{"x":166940.80999999959,"y":2548987.6100000013}},{"attributes":{"ID":408295,"DIS_CODE":0,"TOWNNAME":"安南區","LI":"海東里","LIN":"22鄰","STREET":"大安街","SECT":" ","MAREA":" ","LANE":"７４３巷","ALLEY":" ","HOUSE_NO":"１６號","E_COORD97":166915.23000000001,"N_COORD97":2549014.4300000002,"ADDRESS":"大安街７４３巷１６號","OBJECTID":408271},"geometry":{"x":166915.23000000045,"y":2549014.4299999997}},{"attributes":{"ID":408296,"DIS_CODE":0,"TOWNNAME":"安南區","LI":"海東里","LIN":"22鄰","STREET":"大安街","SECT":" ","MAREA":" ","LANE":"７４３巷","ALLEY":" ","HOUSE_NO":"１７號","E_COORD97":166937.44,"N_COORD97":2548990.6200000001,"ADDRESS":"大安街７４３巷１７號","OBJECTID":408272},"geometry":{"x":166937.44000000041,"y":2548990.620000001}},{"attributes":{"ID":408297,"DIS_CODE":0,"TOWNNAME":"安南區","LI":"海東里","LIN":"22鄰","STREET":"大安街","SECT":" ","MAREA":" ","LANE":"７４３巷","ALLEY":" ","HOUSE_NO":"１９號","E_COORD97":166934.48000000001,"N_COORD97":2548994.3500000001,"ADDRESS":"大安街７４３巷１９號","OBJECTID":408273},"geometry":{"x":166934.48000000138,"y":2548994.3499999996}},{"attributes":{"ID":408298,"DIS_CODE":0,"TOWNNAME":"安南區","LI":"海東里","LIN":"22鄰","STREET":"大安街","SECT":" ","MAREA":" ","LANE":"７４３巷","ALLEY":" ","HOUSE_NO":"１號","E_COORD97":166946.19,"N_COORD97":2549016.3599999999,"ADDRESS":"大安街７４３巷１號","OBJECTID":408274},"geometry":{"x":166946.19000000227,"y":2549016.3600000013}},{"attributes":{"ID":408299,"DIS_CODE":0,"TOWNNAME":"安南區","LI":"海東里","LIN":"22鄰","STREET":"大安街","SECT":" ","MAREA":" ","LANE":"７４３巷","ALLEY":" ","HOUSE_NO":"２１號","E_COORD97":166931.95000000001,"N_COORD97":2548998.1299999999,"ADDRESS":"大安街７４３巷２１號","OBJECTID":408275},"geometry":{"x":166931.95000000019,"y":2548998.129999999}},{"attributes":{"ID":408300,"DIS_CODE":0,"TOWNNAME":"安南區","LI":"海東里","LIN":"22鄰","STREET":"大安街","SECT":" ","MAREA":" ","LANE":"７４３巷","ALLEY":" ","HOUSE_NO":"２３號","E_COORD97":166928.66,"N_COORD97":2549001.6200000001,"ADDRESS":"大安街７４３巷２３號","OBJECTID":408276},"geometry":{"x":166928.66000000015,"y":2549001.6200000048}},{"attributes":{"ID":408301,"DIS_CODE":0,"TOWNNAME":"安南區","LI":"海東里","LIN":"22鄰","STREET":"大安街","SECT":" ","MAREA":" ","LANE":"７４３巷","ALLEY":" ","HOUSE_NO":"２號","E_COORD97":166928.48000000001,"N_COORD97":2549026.54,"ADDRESS":"大安街７４３巷２號","OBJECTID":408277},"geometry":{"x":166928.48000000045,"y":2549026.5399999991}},{"attributes":{"ID":408302,"DIS_CODE":0,"TOWNNAME":"安南區","LI":"海東里","LIN":"22鄰","STREET":"大安街","SECT":" ","MAREA":" ","LANE":"７４３巷","ALLEY":" ","HOUSE_NO":"３號","E_COORD97":166948.85999999999,"N_COORD97":2549012.5899999999,"ADDRESS":"大安街７４３巷３號","OBJECTID":408278},"geometry":{"x":166948.86000000127,"y":2549012.5899999999}},{"attributes":{"ID":408303,"DIS_CODE":0,"TOWNNAME":"安南區","LI":"海東里","LIN":"22鄰","STREET":"大安街","SECT":" ","MAREA":" ","LANE":"７４３巷","ALLEY":" ","HOUSE_NO":"４號","E_COORD97":166923.66,"N_COORD97":2549031.9199999999,"ADDRESS":"大安街７４３巷４號","OBJECTID":408279},"geometry":{"x":166923.66000000015,"y":2549031.9199999999}},{"attributes":{"ID":408304,"DIS_CODE":0,"TOWNNAME":"安南區","LI":"海東里","LIN":"22鄰","STREET":"大安街","SECT":" ","MAREA":" ","LANE":"７４３巷","ALLEY":" ","HOUSE_NO":"５號","E_COORD97":166951.92000000001,"N_COORD97":2549009,"ADDRESS":"大安街７４３巷５號","OBJECTID":408280},"geometry":{"x":166951.91999999993,"y":2549009.0000000019}},{"attributes":{"ID":408305,"DIS_CODE":0,"TOWNNAME":"安南區","LI":"海東里","LIN":"22鄰","STREET":"大安街","SECT":" ","MAREA":" ","LANE":"７４３巷","ALLEY":" ","HOUSE_NO":"６號","E_COORD97":166919.01999999999,"N_COORD97":2549038.0800000001,"ADDRESS":"大安街７４３巷６號","OBJECTID":408281},"geometry":{"x":166919.01999999955,"y":2549038.0800000038}},{"attributes":{"ID":408306,"DIS_CODE":0,"TOWNNAME":"安南區","LI":"海東里","LIN":"22鄰","STREET":"大安街","SECT":" ","MAREA":" ","LANE":"７４３巷","ALLEY":" ","HOUSE_NO":"７號","E_COORD97":166954.54000000001,"N_COORD97":2549005.6299999999,"ADDRESS":"大安街７４３巷７號","OBJECTID":408282},"geometry":{"x":166954.54000000004,"y":2549005.629999999}},{"attributes":{"ID":408307,"DIS_CODE":0,"TOWNNAME":"安南區","LI":"海東里","LIN":"22鄰","STREET":"大安街","SECT":" ","MAREA":" ","LANE":"７４３巷","ALLEY":" ","HOUSE_NO":"８號","E_COORD97":166913.53,"N_COORD97":2549043.48,"ADDRESS":"大安街７４３巷８號","OBJECTID":408283},"geometry":{"x":166913.53000000119,"y":2549043.4800000023}},{"attributes":{"ID":408308,"DIS_CODE":0,"TOWNNAME":"安南區","LI":"海東里","LIN":"22鄰","STREET":"大安街","SECT":" ","MAREA":" ","LANE":"７４３巷","ALLEY":" ","HOUSE_NO":"９號","E_COORD97":166957.79000000001,"N_COORD97":2549002,"ADDRESS":"大安街７４３巷９號","OBJECTID":408284},"geometry":{"x":166957.79000000004,"y":2549002.0000000019}},{"attributes":{"ID":408309,"DIS_CODE":0,"TOWNNAME":"安南區","LI":"海東里","LIN":"22鄰","STREET":"大安街","SECT":" ","MAREA":" ","LANE":"８０１巷","ALLEY":" ","HOUSE_NO":"１０號","E_COORD97":166857.70999999999,"N_COORD97":2549095.6200000001,"ADDRESS":"大安街８０１巷１０號","OBJECTID":408285},"geometry":{"x":166857.71000000089,"y":2549095.620000001}},{"attributes":{"ID":408310,"DIS_CODE":0,"TOWNNAME":"安南區","LI":"海東里","LIN":"22鄰","STREET":"大安街","SECT":" ","MAREA":" ","LANE":"８０１巷","ALLEY":" ","HOUSE_NO":"１號","E_COORD97":166869.97,"N_COORD97":2549084.5800000001,"ADDRESS":"大安街８０１巷１號","OBJECTID":408286},"geometry":{"x":166869.96999999974,"y":2549084.5800000001}},{"attributes":{"ID":408311,"DIS_CODE":0,"TOWNNAME":"安南區","LI":"海東里","LIN":"22鄰","STREET":"大安街","SECT":" ","MAREA":" ","LANE":"８０１巷","ALLEY":" ","HOUSE_NO":"２號","E_COORD97":166863.95999999999,"N_COORD97":2549081.2200000002,"ADDRESS":"大安街８０１巷２號","OBJECTID":408287},"geometry":{"x":166863.95999999996,"y":2549081.2200000007}},{"attributes":{"ID":408312,"DIS_CODE":0,"TOWNNAME":"安南區","LI":"海東里","LIN":"22鄰","STREET":"大安街","SECT":" ","MAREA":" ","LANE":"８０１巷","ALLEY":" ","HOUSE_NO":"３號","E_COORD97":166851.64000000001,"N_COORD97":2549071.04,"ADDRESS":"大安街８０１巷３號","OBJECTID":408288},"geometry":{"x":166851.63999999966,"y":2549071.0399999972}},{"attributes":{"ID":408313,"DIS_CODE":0,"TOWNNAME":"安南區","LI":"海東里","LIN":"22鄰","STREET":"大安街","SECT":" ","MAREA":" ","LANE":"８０１巷","ALLEY":" ","HOUSE_NO":"４號","E_COORD97":166848.04999999999,"N_COORD97":2549073.8599999999,"ADDRESS":"大安街８０１巷４號","OBJECTID":408289},"geometry":{"x":166848.04999999888,"y":2549073.8600000013}},{"attributes":{"ID":408314,"DIS_CODE":0,"TOWNNAME":"安南區","LI":"海東里","LIN":"22鄰","STREET":"大安街","SECT":" ","MAREA":" ","LANE":"８０１巷","ALLEY":" ","HOUSE_NO":"５號","E_COORD97":166844.13,"N_COORD97":2549076.4900000002,"ADDRESS":"大安街８０１巷５號","OBJECTID":408290},"geometry":{"x":166844.12999999989,"y":2549076.4900000021}},{"attributes":{"ID":408315,"DIS_CODE":0,"TOWNNAME":"安南區","LI":"海東里","LIN":"22鄰","STREET":"大安街","SECT":" ","MAREA":" ","LANE":"８０１巷","ALLEY":" ","HOUSE_NO":"６號","E_COORD97":166840.53,"N_COORD97":2549079.23,"ADDRESS":"大安街８０１巷６號","OBJECTID":408291},"geometry":{"x":166840.53000000119,"y":2549079.2300000023}},{"attributes":{"ID":408316,"DIS_CODE":0,"TOWNNAME":"安南區","LI":"海東里","LIN":"22鄰","STREET":"大安街","SECT":" ","MAREA":" ","LANE":"８０１巷","ALLEY":" ","HOUSE_NO":"７號","E_COORD97":166836.79000000001,"N_COORD97":2549081.6200000001,"ADDRESS":"大安街８０１巷７號","OBJECTID":408292},"geometry":{"x":166836.79000000097,"y":2549081.620000001}},{"attributes":{"ID":408317,"DIS_CODE":0,"TOWNNAME":"安南區","LI":"海東里","LIN":"22鄰","STREET":"大安街","SECT":" ","MAREA":" ","LANE":"８０１巷","ALLEY":" ","HOUSE_NO":"８號","E_COORD97":166833.17999999999,"N_COORD97":2549084.6400000001,"ADDRESS":"大安街８０１巷８號","OBJECTID":408293},"geometry":{"x":166833.1799999997,"y":2549084.6400000006}},{"attributes":{"ID":408318,"DIS_CODE":0,"TOWNNAME":"安南區","LI":"海東里","LIN":"22鄰","STREET":"大安街","SECT":" ","MAREA":" ","LANE":"８０１巷","ALLEY":" ","HOUSE_NO":"９號","E_COORD97":166851.04999999999,"N_COORD97":2549092.0299999998,"ADDRESS":"大安街８０１巷９號","OBJECTID":408294},"geometry":{"x":166851.04999999981,"y":2549092.0300000031}},{"attributes":{"ID":408319,"DIS_CODE":0,"TOWNNAME":"南區","LI":"文南里","LIN":"22鄰","STREET":"中華西路","SECT":"一段","MAREA":" ","LANE":"１３７巷","ALLEY":" ","HOUSE_NO":"１９號","E_COORD97":166419.38,"N_COORD97":2542471.1000000001,"ADDRESS":"中華西路一段１３７巷１９號","OBJECTID":408295},"geometry":{"x":166419.38000000082,"y":2542471.1000000015}},{"attributes":{"ID":408320,"DIS_CODE":0,"TOWNNAME":"南區","LI":"文南里","LIN":"22鄰","STREET":"中華西路","SECT":"一段","MAREA":" ","LANE":"１３７巷","ALLEY":" ","HOUSE_NO":"２１號","E_COORD97":166414.38,"N_COORD97":2542472.0600000001,"ADDRESS":"中華西路一段１３７巷２１號","OBJECTID":408296},"geometry":{"x":166414.38000000082,"y":2542472.0600000024}},{"attributes":{"ID":408321,"DIS_CODE":0,"TOWNNAME":"南區","LI":"文南里","LIN":"22鄰","STREET":"中華西路","SECT":"一段","MAREA":" ","LANE":"１０９巷","ALLEY":" ","HOUSE_NO":"２６號","E_COORD97":166351.63,"N_COORD97":2542454.5099999998,"ADDRESS":"中華西路一段１０９巷２６號","OBJECTID":408297},"geometry":{"x":166351.63000000082,"y":2542454.5100000016}},{"attributes":{"ID":408322,"DIS_CODE":0,"TOWNNAME":"南區","LI":"文南里","LIN":"22鄰","STREET":"中華西路","SECT":"一段","MAREA":" ","LANE":"１３７巷","ALLEY":" ","HOUSE_NO":"１１號","E_COORD97":166432.45999999999,"N_COORD97":2542464.54,"ADDRESS":"中華西路一段１３７巷１１號","OBJECTID":408298},"geometry":{"x":166432.46000000089,"y":2542464.540000001}},{"attributes":{"ID":408323,"DIS_CODE":0,"TOWNNAME":"南區","LI":"文南里","LIN":"22鄰","STREET":"中華西路","SECT":"一段","MAREA":" ","LANE":"１３７巷","ALLEY":" ","HOUSE_NO":"１５號","E_COORD97":166428,"N_COORD97":2542465.0699999998,"ADDRESS":"中華西路一段１３７巷１５號","OBJECTID":408299},"geometry":{"x":166428,"y":2542465.0700000022}},{"attributes":{"ID":408324,"DIS_CODE":0,"TOWNNAME":"東區","LI":"後甲里","LIN":"22鄰","STREET":"中華東路","SECT":"一段","MAREA":" ","LANE":"２１７巷","ALLEY":" ","HOUSE_NO":"４３號","E_COORD97":171516.39000000001,"N_COORD97":2543316.5600000001,"ADDRESS":"中華東路一段２１７巷４３號","OBJECTID":408300},"geometry":{"x":171516.3900000006,"y":2543316.5600000024}},{"attributes":{"ID":408325,"DIS_CODE":0,"TOWNNAME":"安南區","LI":"幸福里","LIN":"22鄰","STREET":"府安路","SECT":"六段","MAREA":" ","LANE":"６２巷","ALLEY":" ","HOUSE_NO":"１０號","E_COORD97":166899.38,"N_COORD97":2546640.8399999999,"ADDRESS":"府安路六段６２巷１０號","OBJECTID":408301},"geometry":{"x":166899.37999999989,"y":2546640.8400000017}},{"attributes":{"ID":408326,"DIS_CODE":0,"TOWNNAME":"安南區","LI":"幸福里","LIN":"22鄰","STREET":"府安路","SECT":"六段","MAREA":" ","LANE":"６２巷","ALLEY":" ","HOUSE_NO":"１１號","E_COORD97":166874.57999999999,"N_COORD97":2546636.7200000002,"ADDRESS":"府安路六段６２巷１１號","OBJECTID":408302},"geometry":{"x":166874.58000000007,"y":2546636.7200000007}},{"attributes":{"ID":408327,"DIS_CODE":0,"TOWNNAME":"安南區","LI":"幸福里","LIN":"22鄰","STREET":"府安路","SECT":"六段","MAREA":" ","LANE":"６２巷","ALLEY":" ","HOUSE_NO":"１２號","E_COORD97":166898.5,"N_COORD97":2546647.02,"ADDRESS":"府安路六段６２巷１２號","OBJECTID":408303},"geometry":{"x":166898.50000000093,"y":2546647.0199999996}},{"attributes":{"ID":408328,"DIS_CODE":0,"TOWNNAME":"安南區","LI":"幸福里","LIN":"22鄰","STREET":"府安路","SECT":"六段","MAREA":" ","LANE":"６２巷","ALLEY":" ","HOUSE_NO":"１３號","E_COORD97":166873.45999999999,"N_COORD97":2546642.4300000002,"ADDRESS":"府安路六段６２巷１３號","OBJECTID":408304},"geometry":{"x":166873.46000000089,"y":2546642.4300000016}},{"attributes":{"ID":408329,"DIS_CODE":0,"TOWNNAME":"安南區","LI":"幸福里","LIN":"22鄰","STREET":"府安路","SECT":"六段","MAREA":" ","LANE":"６２巷","ALLEY":" ","HOUSE_NO":"１４號","E_COORD97":166897.78,"N_COORD97":2546651.1299999999,"ADDRESS":"府安路六段６２巷１４號","OBJECTID":408305},"geometry":{"x":166897.77999999933,"y":2546651.1300000008}},{"attributes":{"ID":408330,"DIS_CODE":0,"TOWNNAME":"安南區","LI":"幸福里","LIN":"22鄰","STREET":"府安路","SECT":"六段","MAREA":" ","LANE":"６２巷","ALLEY":" ","HOUSE_NO":"１５號","E_COORD97":166872.76999999999,"N_COORD97":2546646.8799999999,"ADDRESS":"府安路六段６２巷１５號","OBJECTID":408306},"geometry":{"x":166872.76999999955,"y":2546646.879999999}},{"attributes":{"ID":408331,"DIS_CODE":0,"TOWNNAME":"安南區","LI":"幸福里","LIN":"22鄰","STREET":"府安路","SECT":"六段","MAREA":" ","LANE":"６２巷","ALLEY":" ","HOUSE_NO":"１６號","E_COORD97":166897.13,"N_COORD97":2546655.0099999998,"ADDRESS":"府安路六段６２巷１６號","OBJECTID":408307},"geometry":{"x":166897.13000000082,"y":2546655.0100000035}},{"attributes":{"ID":408332,"DIS_CODE":0,"TOWNNAME":"安南區","LI":"幸福里","LIN":"22鄰","STREET":"府安路","SECT":"六段","MAREA":" ","LANE":"６２巷","ALLEY":" ","HOUSE_NO":"１７號","E_COORD97":166872,"N_COORD97":2546651.3399999999,"ADDRESS":"府安路六段６２巷１７號","OBJECTID":408308},"geometry":{"x":166872,"y":2546651.3399999999}},{"attributes":{"ID":408333,"DIS_CODE":0,"TOWNNAME":"安南區","LI":"幸福里","LIN":"22鄰","STREET":"府安路","SECT":"六段","MAREA":" ","LANE":"６２巷","ALLEY":" ","HOUSE_NO":"１８號","E_COORD97":166895.70000000001,"N_COORD97":2546660.1099999999,"ADDRESS":"府安路六段６２巷１８號","OBJECTID":408309},"geometry":{"x":166895.70000000112,"y":2546660.1099999994}},{"attributes":{"ID":408334,"DIS_CODE":0,"TOWNNAME":"安南區","LI":"幸福里","LIN":"22鄰","STREET":"府安路","SECT":"六段","MAREA":" ","LANE":"６２巷","ALLEY":" ","HOUSE_NO":"１９號","E_COORD97":166871.06,"N_COORD97":2546655.79,"ADDRESS":"府安路六段６２巷１９號","OBJECTID":408310},"geometry":{"x":166871.05999999959,"y":2546655.7900000028}},{"attributes":{"ID":408335,"DIS_CODE":0,"TOWNNAME":"安南區","LI":"幸福里","LIN":"22鄰","STREET":"府安路","SECT":"六段","MAREA":" ","LANE":"６２巷","ALLEY":" ","HOUSE_NO":"２０號","E_COORD97":166894.82999999999,"N_COORD97":2546664.6499999999,"ADDRESS":"府安路六段６２巷２０號","OBJECTID":408311},"geometry":{"x":166894.83000000007,"y":2546664.6500000041}},{"attributes":{"ID":408336,"DIS_CODE":0,"TOWNNAME":"安南區","LI":"幸福里","LIN":"22鄰","STREET":"府安路","SECT":"六段","MAREA":" ","LANE":"６２巷","ALLEY":" ","HOUSE_NO":"２１號","E_COORD97":166870.14000000001,"N_COORD97":2546660.48,"ADDRESS":"府安路六段６２巷２１號","OBJECTID":408312},"geometry":{"x":166870.1400000006,"y":2546660.4800000023}},{"attributes":{"ID":408337,"DIS_CODE":0,"TOWNNAME":"安南區","LI":"幸福里","LIN":"22鄰","STREET":"府安路","SECT":"六段","MAREA":" ","LANE":"６２巷","ALLEY":" ","HOUSE_NO":"２２號","E_COORD97":166894.04000000001,"N_COORD97":2546669.04,"ADDRESS":"府安路六段６２巷２２號","OBJECTID":408313},"geometry":{"x":166894.04000000004,"y":2546669.040000001}},{"attributes":{"ID":408338,"DIS_CODE":0,"TOWNNAME":"安南區","LI":"幸福里","LIN":"22鄰","STREET":"府安路","SECT":"六段","MAREA":" ","LANE":"６２巷","ALLEY":" ","HOUSE_NO":"２３號","E_COORD97":166869.35999999999,"N_COORD97":2546665.0099999998,"ADDRESS":"府安路六段６２巷２３號","OBJECTID":408314},"geometry":{"x":166869.36000000127,"y":2546665.0100000035}},{"attributes":{"ID":408339,"DIS_CODE":0,"TOWNNAME":"安南區","LI":"幸福里","LIN":"22鄰","STREET":"府安路","SECT":"六段","MAREA":" ","LANE":"６２巷","ALLEY":" ","HOUSE_NO":"２４號","E_COORD97":166893.23999999999,"N_COORD97":2546673.79,"ADDRESS":"府安路六段６２巷２４號","OBJECTID":408315},"geometry":{"x":166893.24000000115,"y":2546673.790000001}},{"attributes":{"ID":408340,"DIS_CODE":0,"TOWNNAME":"安南區","LI":"幸福里","LIN":"22鄰","STREET":"府安路","SECT":"六段","MAREA":" ","LANE":"６２巷","ALLEY":" ","HOUSE_NO":"２５號","E_COORD97":166868.03,"N_COORD97":2546669.77,"ADDRESS":"府安路六段６２巷２５號","OBJECTID":408316},"geometry":{"x":166868.03000000119,"y":2546669.7700000033}},{"attributes":{"ID":408341,"DIS_CODE":0,"TOWNNAME":"安南區","LI":"幸福里","LIN":"22鄰","STREET":"府安路","SECT":"六段","MAREA":" ","LANE":"６２巷","ALLEY":" ","HOUSE_NO":"２６號","E_COORD97":166893.03,"N_COORD97":2546678.6899999999,"ADDRESS":"府安路六段６２巷２６號","OBJECTID":408317},"geometry":{"x":166893.03000000119,"y":2546678.6900000013}},{"attributes":{"ID":408342,"DIS_CODE":0,"TOWNNAME":"安南區","LI":"幸福里","LIN":"22鄰","STREET":"府安路","SECT":"六段","MAREA":" ","LANE":"６２巷","ALLEY":" ","HOUSE_NO":"２７號","E_COORD97":166867.25,"N_COORD97":2546674.29,"ADDRESS":"府安路六段６２巷２７號","OBJECTID":408318},"geometry":{"x":166867.24999999907,"y":2546674.290000001}},{"attributes":{"ID":408343,"DIS_CODE":0,"TOWNNAME":"安南區","LI":"幸福里","LIN":"22鄰","STREET":"府安路","SECT":"六段","MAREA":" ","LANE":"６２巷","ALLEY":" ","HOUSE_NO":"３６號","E_COORD97":166886.31,"N_COORD97":2546709.9199999999,"ADDRESS":"府安路六段６２巷３６號","OBJECTID":408319},"geometry":{"x":166886.30999999959,"y":2546709.9200000037}},{"attributes":{"ID":408344,"DIS_CODE":0,"TOWNNAME":"安南區","LI":"幸福里","LIN":"22鄰","STREET":"府安路","SECT":"六段","MAREA":" ","LANE":"６２巷","ALLEY":" ","HOUSE_NO":"３７號","E_COORD97":166861.92000000001,"N_COORD97":2546696.8999999999,"ADDRESS":"府安路六段６２巷３７號","OBJECTID":408320},"geometry":{"x":166861.91999999993,"y":2546696.9000000041}},{"attributes":{"ID":408345,"DIS_CODE":0,"TOWNNAME":"安南區","LI":"幸福里","LIN":"22鄰","STREET":"府安路","SECT":"六段","MAREA":" ","LANE":"６２巷","ALLEY":" ","HOUSE_NO":"３８號","E_COORD97":166885.59,"N_COORD97":2546715.0899999999,"ADDRESS":"府安路六段６２巷３８號","OBJECTID":408321},"geometry":{"x":166885.59000000078,"y":2546715.0899999999}},{"attributes":{"ID":408346,"DIS_CODE":0,"TOWNNAME":"安南區","LI":"幸福里","LIN":"22鄰","STREET":"府安路","SECT":"六段","MAREA":" ","LANE":"６２巷","ALLEY":" ","HOUSE_NO":"３９號","E_COORD97":166860.89999999999,"N_COORD97":2546700.6099999999,"ADDRESS":"府安路六段６２巷３９號","OBJECTID":408322},"geometry":{"x":166860.90000000037,"y":2546700.6099999994}},{"attributes":{"ID":408347,"DIS_CODE":0,"TOWNNAME":"安南區","LI":"幸福里","LIN":"22鄰","STREET":"府安路","SECT":"六段","MAREA":" ","LANE":"６２巷","ALLEY":" ","HOUSE_NO":"３號","E_COORD97":166879.04000000001,"N_COORD97":2546618.0499999998,"ADDRESS":"府安路六段６２巷３號","OBJECTID":408323},"geometry":{"x":166879.0400000019,"y":2546618.0500000007}},{"attributes":{"ID":408348,"DIS_CODE":0,"TOWNNAME":"安南區","LI":"幸福里","LIN":"22鄰","STREET":"府安路","SECT":"六段","MAREA":" ","LANE":"６２巷","ALLEY":" ","HOUSE_NO":"４１號","E_COORD97":166859.48999999999,"N_COORD97":2546705.4500000002,"ADDRESS":"府安路六段６２巷４１號","OBJECTID":408324},"geometry":{"x":166859.49000000115,"y":2546705.4499999974}},{"attributes":{"ID":408349,"DIS_CODE":0,"TOWNNAME":"安南區","LI":"幸福里","LIN":"22鄰","STREET":"府安路","SECT":"六段","MAREA":" ","LANE":"６２巷","ALLEY":" ","HOUSE_NO":"４３號","E_COORD97":166858.17000000001,"N_COORD97":2546709.4300000002,"ADDRESS":"府安路六段６２巷４３號","OBJECTID":408325},"geometry":{"x":166858.17000000086,"y":2546709.4299999978}},{"attributes":{"ID":408350,"DIS_CODE":0,"TOWNNAME":"安南區","LI":"幸福里","LIN":"22鄰","STREET":"府安路","SECT":"六段","MAREA":" ","LANE":"６２巷","ALLEY":" ","HOUSE_NO":"４號","E_COORD97":166902.84,"N_COORD97":2546627.52,"ADDRESS":"府安路六段６２巷４號","OBJECTID":408326},"geometry":{"x":166902.84000000078,"y":2546627.5200000033}},{"attributes":{"ID":408351,"DIS_CODE":0,"TOWNNAME":"安南區","LI":"幸福里","LIN":"22鄰","STREET":"府安路","SECT":"六段","MAREA":" ","LANE":"６２巷","ALLEY":" ","HOUSE_NO":"５號","E_COORD97":166877.41,"N_COORD97":2546623.3599999999,"ADDRESS":"府安路六段６２巷５號","OBJECTID":408327},"geometry":{"x":166877.41000000108,"y":2546623.3599999994}},{"attributes":{"ID":408352,"DIS_CODE":0,"TOWNNAME":"安南區","LI":"幸福里","LIN":"22鄰","STREET":"府安路","SECT":"六段","MAREA":" ","LANE":"６２巷","ALLEY":" ","HOUSE_NO":"６號","E_COORD97":166902.04999999999,"N_COORD97":2546631.3999999999,"ADDRESS":"府安路六段６２巷６號","OBJECTID":408328},"geometry":{"x":166902.04999999981,"y":2546631.4000000004}},{"attributes":{"ID":408353,"DIS_CODE":0,"TOWNNAME":"安南區","LI":"幸福里","LIN":"22鄰","STREET":"府安路","SECT":"六段","MAREA":" ","LANE":"６２巷","ALLEY":" ","HOUSE_NO":"７號","E_COORD97":166876.89999999999,"N_COORD97":2546627.21,"ADDRESS":"府安路六段６２巷７號","OBJECTID":408329},"geometry":{"x":166876.90000000224,"y":2546627.2100000009}},{"attributes":{"ID":408354,"DIS_CODE":0,"TOWNNAME":"安南區","LI":"幸福里","LIN":"22鄰","STREET":"府安路","SECT":"六段","MAREA":" ","LANE":"６２巷","ALLEY":" ","HOUSE_NO":"８號","E_COORD97":166900.67999999999,"N_COORD97":2546636.0800000001,"ADDRESS":"府安路六段６２巷８號","OBJECTID":408330},"geometry":{"x":166900.6799999997,"y":2546636.0800000001}},{"attributes":{"ID":408355,"DIS_CODE":0,"TOWNNAME":"安南區","LI":"幸福里","LIN":"22鄰","STREET":"府安路","SECT":"六段","MAREA":" ","LANE":"６２巷","ALLEY":" ","HOUSE_NO":"９號","E_COORD97":166875.60999999999,"N_COORD97":2546631.8399999999,"ADDRESS":"府安路六段６２巷９號","OBJECTID":408331},"geometry":{"x":166875.61000000127,"y":2546631.8399999999}},{"attributes":{"ID":408356,"DIS_CODE":0,"TOWNNAME":"安南區","LI":"梅花里","LIN":"22鄰","STREET":"同安路","SECT":" ","MAREA":" ","LANE":"２６２巷","ALLEY":" ","HOUSE_NO":"１９號","E_COORD97":167230.70000000001,"N_COORD97":2549101.27,"ADDRESS":"同安路２６２巷１９號","OBJECTID":408332},"geometry":{"x":167230.70000000205,"y":2549101.2700000014}},{"attributes":{"ID":408357,"DIS_CODE":0,"TOWNNAME":"安南區","LI":"梅花里","LIN":"22鄰","STREET":"同安路","SECT":" ","MAREA":" ","LANE":"２６２巷","ALLEY":" ","HOUSE_NO":"２１號","E_COORD97":167231.56,"N_COORD97":2549097.4399999999,"ADDRESS":"同安路２６２巷２１號","OBJECTID":408333},"geometry":{"x":167231.56000000052,"y":2549097.4400000013}},{"attributes":{"ID":408358,"DIS_CODE":0,"TOWNNAME":"東區","LI":"崇學里","LIN":"13鄰","STREET":"崇明九街","SECT":" ","MAREA":" ","LANE":" ","ALLEY":" ","HOUSE_NO":"１０６號","E_COORD97":170176.04000000001,"N_COORD97":2541902.8799999999,"ADDRESS":"崇明九街１０６號","OBJECTID":408334},"geometry":{"x":170176.0400000019,"y":2541902.8800000008}},{"attributes":{"ID":408359,"DIS_CODE":0,"TOWNNAME":"善化區","LI":"光文里","LIN":"22鄰","STREET":"光華路","SECT":" ","MAREA":" ","LANE":"１５０巷","ALLEY":" ","HOUSE_NO":"１７號","E_COORD97":178673.56,"N_COORD97":2559549.25,"ADDRESS":"光華路１５０巷１７號","OBJECTID":408335},"geometry":{"x":178673.56000000145,"y":2559549.25}},{"attributes":{"ID":408360,"DIS_CODE":0,"TOWNNAME":"善化區","LI":"光文里","LIN":"22鄰","STREET":"光華路","SECT":" ","MAREA":" ","LANE":"９巷","ALLEY":" ","HOUSE_NO":"８號","E_COORD97":178608.54000000001,"N_COORD97":2559246,"ADDRESS":"光華路９巷８號","OBJECTID":408336},"geometry":{"x":178608.54000000097,"y":2559246}},{"attributes":{"ID":408361,"DIS_CODE":0,"TOWNNAME":"善化區","LI":"光文里","LIN":"22鄰","STREET":"光華路","SECT":" ","MAREA":" ","LANE":"３５巷","ALLEY":" ","HOUSE_NO":"５０號","E_COORD97":178504.01000000001,"N_COORD97":2559274.5,"ADDRESS":"光華路３５巷５０號","OBJECTID":408337},"geometry":{"x":178504.00999999978,"y":2559274.5000000019}},{"attributes":{"ID":408362,"DIS_CODE":0,"TOWNNAME":"善化區","LI":"光文里","LIN":"22鄰","STREET":"光華路","SECT":" ","MAREA":" ","LANE":"９２巷","ALLEY":" ","HOUSE_NO":"１２號","E_COORD97":178677.35999999999,"N_COORD97":2559423,"ADDRESS":"光華路９２巷１２號","OBJECTID":408338},"geometry":{"x":178677.3600000022,"y":2559423}},{"attributes":{"ID":408363,"DIS_CODE":0,"TOWNNAME":"善化區","LI":"光文里","LIN":"22鄰","STREET":"光華路","SECT":" ","MAREA":" ","LANE":"３５巷","ALLEY":" ","HOUSE_NO":"８４號","E_COORD97":178431.45000000001,"N_COORD97":2559264.5,"ADDRESS":"光華路３５巷８４號","OBJECTID":408339},"geometry":{"x":178431.45000000112,"y":2559264.5000000019}},{"attributes":{"ID":408364,"DIS_CODE":0,"TOWNNAME":"善化區","LI":"光文里","LIN":"22鄰","STREET":"光華路","SECT":" ","MAREA":" ","LANE":"５３巷","ALLEY":" ","HOUSE_NO":"７５號","E_COORD97":178436.95999999999,"N_COORD97":2559285.25,"ADDRESS":"光華路５３巷７５號","OBJECTID":408340},"geometry":{"x":178436.95999999996,"y":2559285.25}},{"attributes":{"ID":408365,"DIS_CODE":0,"TOWNNAME":"善化區","LI":"光文里","LIN":"22鄰","STREET":"光華路","SECT":" ","MAREA":" ","LANE":"５３巷","ALLEY":" ","HOUSE_NO":"２３號","E_COORD97":178564.26999999999,"N_COORD97":2559311.25,"ADDRESS":"光華路５３巷２３號","OBJECTID":408341},"geometry":{"x":178564.27000000048,"y":2559311.2500000019}},{"attributes":{"ID":408366,"DIS_CODE":0,"TOWNNAME":"善化區","LI":"光文里","LIN":"22鄰","STREET":"光華路","SECT":" ","MAREA":" ","LANE":"３５巷","ALLEY":" ","HOUSE_NO":"８８號","E_COORD97":178422.87,"N_COORD97":2559262,"ADDRESS":"光華路３５巷８８號","OBJECTID":408342},"geometry":{"x":178422.87000000104,"y":2559262.0000000019}},{"attributes":{"ID":408367,"DIS_CODE":0,"TOWNNAME":"善化區","LI":"光文里","LIN":"22鄰","STREET":"光華路","SECT":" ","MAREA":" ","LANE":"１５０巷","ALLEY":" ","HOUSE_NO":"７號","E_COORD97":178650.95000000001,"N_COORD97":2559547.5,"ADDRESS":"光華路１５０巷７號","OBJECTID":408343},"geometry":{"x":178650.95000000019,"y":2559547.5}},{"attributes":{"ID":408368,"DIS_CODE":0,"TOWNNAME":"善化區","LI":"光文里","LIN":"22鄰","STREET":"光華路","SECT":" ","MAREA":" ","LANE":"１２８巷","ALLEY":" ","HOUSE_NO":"１３號","E_COORD97":178682.76000000001,"N_COORD97":2559488.25,"ADDRESS":"光華路１２８巷１３號","OBJECTID":408344},"geometry":{"x":178682.76000000071,"y":2559488.25}},{"attributes":{"ID":408369,"DIS_CODE":0,"TOWNNAME":"善化區","LI":"光文里","LIN":"22鄰","STREET":"光華路","SECT":" ","MAREA":" ","LANE":"９２巷","ALLEY":" ","HOUSE_NO":"２號","E_COORD97":178654.35999999999,"N_COORD97":2559420.25,"ADDRESS":"光華路９２巷２號","OBJECTID":408345},"geometry":{"x":178654.36000000127,"y":2559420.25}},{"attributes":{"ID":408370,"DIS_CODE":0,"TOWNNAME":"善化區","LI":"光文里","LIN":"22鄰","STREET":"光華路","SECT":" ","MAREA":" ","LANE":"１５０巷","ALLEY":" ","HOUSE_NO":"１２號","E_COORD97":178658.87,"N_COORD97":2559530.5,"ADDRESS":"光華路１５０巷１２號","OBJECTID":408346},"geometry":{"x":178658.87000000104,"y":2559530.5}},{"attributes":{"ID":408371,"DIS_CODE":0,"TOWNNAME":"善化區","LI":"光文里","LIN":"22鄰","STREET":"光華路","SECT":" ","MAREA":" ","LANE":"１５０巷","ALLEY":" ","HOUSE_NO":"２３號","E_COORD97":178689.53,"N_COORD97":2559551.75,"ADDRESS":"光華路１５０巷２３號","OBJECTID":408347},"geometry":{"x":178689.52999999933,"y":2559551.7500000019}},{"attributes":{"ID":408372,"DIS_CODE":0,"TOWNNAME":"善化區","LI":"光文里","LIN":"22鄰","STREET":"光華路","SECT":" ","MAREA":" ","LANE":"１２８巷","ALLEY":" ","HOUSE_NO":"７號","E_COORD97":178658.85999999999,"N_COORD97":2559484.75,"ADDRESS":"光華路１２８巷７號","OBJECTID":408348},"geometry":{"x":178658.86000000127,"y":2559484.75}},{"attributes":{"ID":408373,"DIS_CODE":0,"TOWNNAME":"善化區","LI":"光文里","LIN":"22鄰","STREET":"光華路","SECT":" ","MAREA":" ","LANE":"５３巷","ALLEY":" ","HOUSE_NO":"８５號","E_COORD97":178416.07999999999,"N_COORD97":2559282,"ADDRESS":"光華路５３巷８５號","OBJECTID":408349},"geometry":{"x":178416.07999999914,"y":2559282.0000000019}},{"attributes":{"ID":408374,"DIS_CODE":0,"TOWNNAME":"善化區","LI":"光文里","LIN":"22鄰","STREET":"光華路","SECT":" ","MAREA":" ","LANE":"５３巷","ALLEY":" ","HOUSE_NO":"７７號","E_COORD97":178432.85000000001,"N_COORD97":2559284.75,"ADDRESS":"光華路５３巷７７號","OBJECTID":408350},"geometry":{"x":178432.85000000056,"y":2559284.75}},{"attributes":{"ID":408375,"DIS_CODE":0,"TOWNNAME":"善化區","LI":"光文里","LIN":"22鄰","STREET":"光華路","SECT":" ","MAREA":" ","LANE":"９巷","ALLEY":" ","HOUSE_NO":"２號","E_COORD97":178620.84,"N_COORD97":2559247.75,"ADDRESS":"光華路９巷２號","OBJECTID":408351},"geometry":{"x":178620.83999999985,"y":2559247.75}},{"attributes":{"ID":408376,"DIS_CODE":0,"TOWNNAME":"善化區","LI":"光文里","LIN":"22鄰","STREET":"光華路","SECT":" ","MAREA":" ","LANE":"１５０巷","ALLEY":" ","HOUSE_NO":"１號","E_COORD97":178637.48999999999,"N_COORD97":2559545.5,"ADDRESS":"光華路１５０巷１號","OBJECTID":408352},"geometry":{"x":178637.49000000115,"y":2559545.5000000037}},{"attributes":{"ID":408377,"DIS_CODE":0,"TOWNNAME":"善化區","LI":"光文里","LIN":"22鄰","STREET":"光華路","SECT":" ","MAREA":" ","LANE":"１５０巷","ALLEY":" ","HOUSE_NO":"２１號","E_COORD97":178683.87,"N_COORD97":2559551,"ADDRESS":"光華路１５０巷２１號","OBJECTID":408353},"geometry":{"x":178683.87000000197,"y":2559551}},{"attributes":{"ID":408378,"DIS_CODE":0,"TOWNNAME":"善化區","LI":"光文里","LIN":"22鄰","STREET":"光華路","SECT":" ","MAREA":" ","LANE":"１１０巷","ALLEY":" ","HOUSE_NO":"７號","E_COORD97":178667.09,"N_COORD97":2559466,"ADDRESS":"光華路１１０巷７號","OBJECTID":408354},"geometry":{"x":178667.09000000078,"y":2559466}},{"attributes":{"ID":408379,"DIS_CODE":0,"TOWNNAME":"善化區","LI":"光文里","LIN":"22鄰","STREET":"光華路","SECT":" ","MAREA":" ","LANE":"１１０巷","ALLEY":" ","HOUSE_NO":"８號","E_COORD97":178660.10000000001,"N_COORD97":2559447.75,"ADDRESS":"光華路１１０巷８號","OBJECTID":408355},"geometry":{"x":178660.10000000056,"y":2559447.75}},{"attributes":{"ID":408380,"DIS_CODE":0,"TOWNNAME":"善化區","LI":"光文里","LIN":"22鄰","STREET":"光華路","SECT":" ","MAREA":" ","LANE":"１５０巷","ALLEY":" ","HOUSE_NO":"１０號","E_COORD97":178654.66,"N_COORD97":2559530,"ADDRESS":"光華路１５０巷１０號","OBJECTID":408356},"geometry":{"x":178654.65999999922,"y":2559530.0000000019}},{"attributes":{"ID":408381,"DIS_CODE":0,"TOWNNAME":"善化區","LI":"光文里","LIN":"22鄰","STREET":"光華路","SECT":" ","MAREA":" ","LANE":"１１０巷","ALLEY":" ","HOUSE_NO":"１３號","E_COORD97":178680.39000000001,"N_COORD97":2559467.75,"ADDRESS":"光華路１１０巷１３號","OBJECTID":408357},"geometry":{"x":178680.3900000006,"y":2559467.75}},{"attributes":{"ID":408382,"DIS_CODE":0,"TOWNNAME":"安南區","LI":"溪北里","LIN":"4鄰","STREET":"文安街","SECT":" ","MAREA":" ","LANE":"２８巷","ALLEY":" ","HOUSE_NO":"６號","E_COORD97":169419.25,"N_COORD97":2547542.9100000001,"ADDRESS":"文安街２８巷６號","OBJECTID":408358},"geometry":{"x":169419.25000000093,"y":2547542.9100000001}},{"attributes":{"ID":408383,"DIS_CODE":0,"TOWNNAME":"安南區","LI":"溪北里","LIN":"12鄰","STREET":"文安街","SECT":" ","MAREA":" ","LANE":"４５巷","ALLEY":" ","HOUSE_NO":"１號","E_COORD97":169402.56,"N_COORD97":2547486.3100000001,"ADDRESS":"文安街４５巷１號","OBJECTID":408359},"geometry":{"x":169402.56000000145,"y":2547486.3100000005}},{"attributes":{"ID":408384,"DIS_CODE":0,"TOWNNAME":"永康區","LI":"西灣里","LIN":"22鄰","STREET":"大勇路","SECT":" ","MAREA":" ","LANE":"６２巷","ALLEY":" ","HOUSE_NO":"１２號","E_COORD97":174264.17999999999,"N_COORD97":2545425.4500000002,"ADDRESS":"大勇路６２巷１２號","OBJECTID":408360},"geometry":{"x":174264.18000000063,"y":2545425.4500000011}},{"attributes":{"ID":408385,"DIS_CODE":0,"TOWNNAME":"永康區","LI":"西勢里","LIN":"22鄰","STREET":"富強路","SECT":"一段","MAREA":" ","LANE":"２１６巷","ALLEY":" ","HOUSE_NO":"２３號","E_COORD97":175685.92999999999,"N_COORD97":2546374.5,"ADDRESS":"富強路一段２１６巷２３號","OBJECTID":408361},"geometry":{"x":175685.93000000156,"y":2546374.5000000019}},{"attributes":{"ID":408386,"DIS_CODE":0,"TOWNNAME":"永康區","LI":"安康里","LIN":"22鄰","STREET":"中華路","SECT":" ","MAREA":" ","LANE":"７０３巷","ALLEY":" ","HOUSE_NO":"１０１號","E_COORD97":170705.39000000001,"N_COORD97":2546270.5600000001,"ADDRESS":"中華路７０３巷１０１號","OBJECTID":408362},"geometry":{"x":170705.38999999966,"y":2546270.5600000005}},{"attributes":{"ID":408387,"DIS_CODE":0,"TOWNNAME":"永康區","LI":"西灣里","LIN":"22鄰","STREET":"大勇路","SECT":" ","MAREA":" ","LANE":"６２巷","ALLEY":" ","HOUSE_NO":"３０號","E_COORD97":174300.14000000001,"N_COORD97":2545412.1899999999,"ADDRESS":"大勇路６２巷３０號","OBJECTID":408363},"geometry":{"x":174300.1400000006,"y":2545412.1899999976}},{"attributes":{"ID":408388,"DIS_CODE":0,"TOWNNAME":"永康區","LI":"西灣里","LIN":"22鄰","STREET":"大勇路","SECT":" ","MAREA":" ","LANE":"６２巷","ALLEY":" ","HOUSE_NO":"３２號","E_COORD97":174305.62,"N_COORD97":2545410.6299999999,"ADDRESS":"大勇路６２巷３２號","OBJECTID":408364},"geometry":{"x":174305.62000000104,"y":2545410.629999999}},{"attributes":{"ID":408389,"DIS_CODE":0,"TOWNNAME":"永康區","LI":"\u25A0行里","LIN":"22鄰","STREET":"正南五街","SECT":" ","MAREA":" ","LANE":"５２０巷","ALLEY":" ","HOUSE_NO":"３０號","E_COORD97":171647.64000000001,"N_COORD97":2548773.2400000002,"ADDRESS":"正南五街５２０巷３０號","OBJECTID":408365},"geometry":{"x":171647.63999999966,"y":2548773.2400000021}},{"attributes":{"ID":408390,"DIS_CODE":0,"TOWNNAME":"官田區","LI":"隆本里","LIN":"22鄰","STREET":"忠孝街","SECT":" ","MAREA":" ","LANE":"１３巷","ALLEY":" ","HOUSE_NO":"１０號","E_COORD97":180024.20999999999,"N_COORD97":2566089.1600000001,"ADDRESS":"忠孝街１３巷１０號","OBJECTID":408366},"geometry":{"x":180024.21000000089,"y":2566089.160000002}},{"attributes":{"ID":408391,"DIS_CODE":0,"TOWNNAME":"官田區","LI":"隆本里","LIN":"22鄰","STREET":"忠孝街","SECT":" ","MAREA":" ","LANE":"１３巷","ALLEY":" ","HOUSE_NO":"１６號","E_COORD97":180011.17000000001,"N_COORD97":2566078.96,"ADDRESS":"忠孝街１３巷１６號","OBJECTID":408367},"geometry":{"x":180011.17000000086,"y":2566078.9600000009}},{"attributes":{"ID":408392,"DIS_CODE":0,"TOWNNAME":"官田區","LI":"隆本里","LIN":"22鄰","STREET":"忠孝街","SECT":" ","MAREA":" ","LANE":"１３巷","ALLEY":" ","HOUSE_NO":"１８號","E_COORD97":180007.73000000001,"N_COORD97":2566076.3999999999,"ADDRESS":"忠孝街１３巷１８號","OBJECTID":408368},"geometry":{"x":180007.73000000138,"y":2566076.4000000041}},{"attributes":{"ID":408393,"DIS_CODE":0,"TOWNNAME":"官田區","LI":"隆本里","LIN":"22鄰","STREET":"忠孝街","SECT":" ","MAREA":" ","LANE":"１３巷","ALLEY":" ","HOUSE_NO":"２０號","E_COORD97":180004.35999999999,"N_COORD97":2566073.54,"ADDRESS":"忠孝街１３巷２０號","OBJECTID":408369},"geometry":{"x":180004.36000000034,"y":2566073.5399999991}},{"attributes":{"ID":408394,"DIS_CODE":0,"TOWNNAME":"官田區","LI":"隆本里","LIN":"22鄰","STREET":"忠孝街","SECT":" ","MAREA":" ","LANE":"１３巷","ALLEY":" ","HOUSE_NO":"２２號","E_COORD97":180000.73000000001,"N_COORD97":2566070.9500000002,"ADDRESS":"忠孝街１３巷２２號","OBJECTID":408370},"geometry":{"x":180000.73000000138,"y":2566070.9499999993}},{"attributes":{"ID":408395,"DIS_CODE":0,"TOWNNAME":"官田區","LI":"隆本里","LIN":"22鄰","STREET":"忠孝街","SECT":" ","MAREA":" ","LANE":"１３巷","ALLEY":" ","HOUSE_NO":"２６號","E_COORD97":179997.63,"N_COORD97":2566068.04,"ADDRESS":"忠孝街１３巷２６號","OBJECTID":408371},"geometry":{"x":179997.63000000082,"y":2566068.040000001}},{"attributes":{"ID":408396,"DIS_CODE":0,"TOWNNAME":"官田區","LI":"隆本里","LIN":"22鄰","STREET":"忠孝街","SECT":" ","MAREA":" ","LANE":"１３巷","ALLEY":" ","HOUSE_NO":"２８號","E_COORD97":179994.12,"N_COORD97":2566065.75,"ADDRESS":"忠孝街１３巷２８號","OBJECTID":408372},"geometry":{"x":179994.12000000197,"y":2566065.75}},{"attributes":{"ID":408397,"DIS_CODE":0,"TOWNNAME":"官田區","LI":"隆本里","LIN":"22鄰","STREET":"忠孝街","SECT":" ","MAREA":" ","LANE":"１３巷","ALLEY":" ","HOUSE_NO":"３０號","E_COORD97":179990.63,"N_COORD97":2566063.1299999999,"ADDRESS":"忠孝街１３巷３０號","OBJECTID":408373},"geometry":{"x":179990.63000000082,"y":2566063.1300000027}},{"attributes":{"ID":408398,"DIS_CODE":0,"TOWNNAME":"官田區","LI":"隆本里","LIN":"22鄰","STREET":"忠孝街","SECT":" ","MAREA":" ","LANE":"１３巷","ALLEY":" ","HOUSE_NO":"６號","E_COORD97":180032.94,"N_COORD97":2566095.4199999999,"ADDRESS":"忠孝街１３巷６號","OBJECTID":408374},"geometry":{"x":180032.94000000227,"y":2566095.4199999999}},{"attributes":{"ID":408399,"DIS_CODE":0,"TOWNNAME":"官田區","LI":"隆本里","LIN":"22鄰","STREET":"忠孝街","SECT":" ","MAREA":" ","LANE":"１３巷","ALLEY":" ","HOUSE_NO":"７號","E_COORD97":180016.07999999999,"N_COORD97":2566057.8500000001,"ADDRESS":"忠孝街１３巷７號","OBJECTID":408375},"geometry":{"x":180016.08000000007,"y":2566057.8499999996}},{"attributes":{"ID":408400,"DIS_CODE":0,"TOWNNAME":"官田區","LI":"隆本里","LIN":"22鄰","STREET":"忠孝街","SECT":" ","MAREA":" ","LANE":"１３巷","ALLEY":" ","HOUSE_NO":"８號","E_COORD97":180028,"N_COORD97":2566092.6299999999,"ADDRESS":"忠孝街１３巷８號","OBJECTID":408376},"geometry":{"x":180028,"y":2566092.629999999}},{"attributes":{"ID":408401,"DIS_CODE":0,"TOWNNAME":"官田區","LI":"隆本里","LIN":"22鄰","STREET":"忠孝街","SECT":" ","MAREA":" ","LANE":"１３巷","ALLEY":" ","HOUSE_NO":"９號","E_COORD97":180011.13,"N_COORD97":2566053.1000000001,"ADDRESS":"忠孝街１３巷９號","OBJECTID":408377},"geometry":{"x":180011.13000000082,"y":2566053.0999999996}},{"attributes":{"ID":408402,"DIS_CODE":0,"TOWNNAME":"安南區","LI":"州南里","LIN":"22鄰","STREET":"安和路","SECT":"四段","MAREA":" ","LANE":"５３３巷","ALLEY":" ","HOUSE_NO":"８８號","E_COORD97":169750.19,"N_COORD97":2551256.1200000001,"ADDRESS":"安和路四段５３３巷８８號","OBJECTID":408378},"geometry":{"x":169750.19000000134,"y":2551256.1200000048}},{"attributes":{"ID":408403,"DIS_CODE":0,"TOWNNAME":"安南區","LI":"州南里","LIN":"22鄰","STREET":"安和路","SECT":"四段","MAREA":" ","LANE":"５３３巷","ALLEY":" ","HOUSE_NO":"９０號","E_COORD97":169745.57999999999,"N_COORD97":2551255.3500000001,"ADDRESS":"安和路四段５３３巷９０號","OBJECTID":408379},"geometry":{"x":169745.58000000101,"y":2551255.3499999996}},{"attributes":{"ID":408404,"DIS_CODE":0,"TOWNNAME":"安南區","LI":"溪墘里","LIN":"22鄰","STREET":"安寧街","SECT":" ","MAREA":" ","LANE":"７９巷","ALLEY":" ","HOUSE_NO":"７號之１","E_COORD97":167361.75,"N_COORD97":2547054.6899999999,"ADDRESS":"安寧街７９巷７號之１","OBJECTID":408380},"geometry":{"x":167361.75,"y":2547054.6900000013}},{"attributes":{"ID":408405,"DIS_CODE":0,"TOWNNAME":"安南區","LI":"溪墘里","LIN":"22鄰","STREET":"安寧街","SECT":" ","MAREA":" ","LANE":"６５巷","ALLEY":" ","HOUSE_NO":"１４號","E_COORD97":167353.39999999999,"N_COORD97":2547037.6499999999,"ADDRESS":"安寧街６５巷１４號","OBJECTID":408381},"geometry":{"x":167353.4000000013,"y":2547037.6500000041}},{"attributes":{"ID":408406,"DIS_CODE":0,"TOWNNAME":"安南區","LI":"溪墘里","LIN":"22鄰","STREET":"安寧街","SECT":" ","MAREA":" ","LANE":"６５巷","ALLEY":" ","HOUSE_NO":"１６號","E_COORD97":167348.42000000001,"N_COORD97":2547036.0899999999,"ADDRESS":"安寧街６５巷１６號","OBJECTID":408382},"geometry":{"x":167348.41999999993,"y":2547036.0899999999}},{"attributes":{"ID":408407,"DIS_CODE":0,"TOWNNAME":"安南區","LI":"溪墘里","LIN":"22鄰","STREET":"安寧街","SECT":" ","MAREA":" ","LANE":"６５巷","ALLEY":" ","HOUSE_NO":"１８號","E_COORD97":167341.85999999999,"N_COORD97":2547035.1899999999,"ADDRESS":"安寧街６５巷１８號","OBJECTID":408383},"geometry":{"x":167341.86000000127,"y":2547035.1899999995}},{"attributes":{"ID":408408,"DIS_CODE":0,"TOWNNAME":"安南區","LI":"溪墘里","LIN":"22鄰","STREET":"安寧街","SECT":" ","MAREA":" ","LANE":"６５巷","ALLEY":" ","HOUSE_NO":"２６號","E_COORD97":167320.98000000001,"N_COORD97":2547030.9500000002,"ADDRESS":"安寧街６５巷２６號","OBJECTID":408384},"geometry":{"x":167320.98000000138,"y":2547030.950000003}},{"attributes":{"ID":408409,"DIS_CODE":0,"TOWNNAME":"安南區","LI":"溪墘里","LIN":"22鄰","STREET":"安寧街","SECT":" ","MAREA":" ","LANE":"６５巷","ALLEY":" ","HOUSE_NO":"３０號","E_COORD97":167308.85000000001,"N_COORD97":2547028.6200000001,"ADDRESS":"安寧街６５巷３０號","OBJECTID":408385},"geometry":{"x":167308.85000000056,"y":2547028.6200000048}},{"attributes":{"ID":408410,"DIS_CODE":0,"TOWNNAME":"安南區","LI":"溪墘里","LIN":"22鄰","STREET":"安寧街","SECT":" ","MAREA":" ","LANE":"６５巷","ALLEY":" ","HOUSE_NO":"３２號","E_COORD97":167304.37,"N_COORD97":2547027.3599999999,"ADDRESS":"安寧街６５巷３２號","OBJECTID":408386},"geometry":{"x":167304.37000000104,"y":2547027.3599999994}},{"attributes":{"ID":408411,"DIS_CODE":0,"TOWNNAME":"安南區","LI":"溪墘里","LIN":"22鄰","STREET":"安寧街","SECT":" ","MAREA":" ","LANE":"６５巷","ALLEY":" ","HOUSE_NO":"３８號","E_COORD97":167287.14000000001,"N_COORD97":2547025.0499999998,"ADDRESS":"安寧街６５巷３８號","OBJECTID":408387},"geometry":{"x":167287.1400000006,"y":2547025.0500000045}},{"attributes":{"ID":408412,"DIS_CODE":0,"TOWNNAME":"安南區","LI":"溪墘里","LIN":"22鄰","STREET":"安寧街","SECT":" ","MAREA":" ","LANE":"６５巷","ALLEY":" ","HOUSE_NO":"４６號","E_COORD97":167259.16,"N_COORD97":2547018.9100000001,"ADDRESS":"安寧街６５巷４６號","OBJECTID":408388},"geometry":{"x":167259.16000000015,"y":2547018.9100000039}},{"attributes":{"ID":408413,"DIS_CODE":0,"TOWNNAME":"安南區","LI":"溪墘里","LIN":"22鄰","STREET":"安寧街","SECT":" ","MAREA":" ","LANE":"６５巷","ALLEY":" ","HOUSE_NO":"４８號","E_COORD97":167255.47,"N_COORD97":2547017.8999999999,"ADDRESS":"安寧街６５巷４８號","OBJECTID":408389},"geometry":{"x":167255.4700000016,"y":2547017.9000000004}},{"attributes":{"ID":408414,"DIS_CODE":0,"TOWNNAME":"安南區","LI":"溪墘里","LIN":"22鄰","STREET":"安寧街","SECT":" ","MAREA":" ","LANE":"６５巷","ALLEY":" ","HOUSE_NO":"５０號","E_COORD97":167252.70999999999,"N_COORD97":2547017.3799999999,"ADDRESS":"安寧街６５巷５０號","OBJECTID":408390},"geometry":{"x":167252.71000000089,"y":2547017.379999999}},{"attributes":{"ID":408415,"DIS_CODE":0,"TOWNNAME":"安南區","LI":"溪墘里","LIN":"22鄰","STREET":"安寧街","SECT":" ","MAREA":" ","LANE":"６５巷","ALLEY":" ","HOUSE_NO":"５２號","E_COORD97":167249.88,"N_COORD97":2547016.48,"ADDRESS":"安寧街６５巷５２號","OBJECTID":408391},"geometry":{"x":167249.88000000082,"y":2547016.4800000023}},{"attributes":{"ID":408416,"DIS_CODE":0,"TOWNNAME":"安南區","LI":"溪墘里","LIN":"22鄰","STREET":"安寧街","SECT":" ","MAREA":" ","LANE":"６５巷","ALLEY":" ","HOUSE_NO":"６號","E_COORD97":167374.5,"N_COORD97":2547042.2200000002,"ADDRESS":"安寧街６５巷６號","OBJECTID":408392},"geometry":{"x":167374.50000000093,"y":2547042.2200000025}},{"attributes":{"ID":408417,"DIS_CODE":0,"TOWNNAME":"安南區","LI":"溪墘里","LIN":"22鄰","STREET":"安寧街","SECT":" ","MAREA":" ","LANE":"７９巷","ALLEY":" ","HOUSE_NO":"１３號","E_COORD97":167349.78,"N_COORD97":2547052.0800000001,"ADDRESS":"安寧街７９巷１３號","OBJECTID":408393},"geometry":{"x":167349.78000000026,"y":2547052.0800000019}},{"attributes":{"ID":408418,"DIS_CODE":0,"TOWNNAME":"安南區","LI":"溪墘里","LIN":"22鄰","STREET":"安寧街","SECT":" ","MAREA":" ","LANE":"７９巷","ALLEY":" ","HOUSE_NO":"１４號","E_COORD97":167345.51999999999,"N_COORD97":2547076.3399999999,"ADDRESS":"安寧街７９巷１４號","OBJECTID":408394},"geometry":{"x":167345.52000000048,"y":2547076.339999998}},{"attributes":{"ID":408419,"DIS_CODE":0,"TOWNNAME":"安南區","LI":"溪墘里","LIN":"22鄰","STREET":"安寧街","SECT":" ","MAREA":" ","LANE":"７９巷","ALLEY":" ","HOUSE_NO":"１５號","E_COORD97":167344.29000000001,"N_COORD97":2547051.1499999999,"ADDRESS":"安寧街７９巷１５號","OBJECTID":408395},"geometry":{"x":167344.29000000004,"y":2547051.1500000041}},{"attributes":{"ID":408420,"DIS_CODE":0,"TOWNNAME":"安南區","LI":"溪墘里","LIN":"22鄰","STREET":"安寧街","SECT":" ","MAREA":" ","LANE":"７９巷","ALLEY":" ","HOUSE_NO":"１６號","E_COORD97":167340.04000000001,"N_COORD97":2547075.8199999998,"ADDRESS":"安寧街７９巷１６號","OBJECTID":408396},"geometry":{"x":167340.0400000019,"y":2547075.8200000003}},{"attributes":{"ID":408421,"DIS_CODE":0,"TOWNNAME":"安南區","LI":"溪墘里","LIN":"22鄰","STREET":"安寧街","SECT":" ","MAREA":" ","LANE":"７９巷","ALLEY":" ","HOUSE_NO":"１７號","E_COORD97":167339.16,"N_COORD97":2547050.5600000001,"ADDRESS":"安寧街７９巷１７號","OBJECTID":408397},"geometry":{"x":167339.16000000015,"y":2547050.5600000005}},{"attributes":{"ID":408422,"DIS_CODE":0,"TOWNNAME":"安南區","LI":"溪墘里","LIN":"22鄰","STREET":"安寧街","SECT":" ","MAREA":" ","LANE":"７９巷","ALLEY":" ","HOUSE_NO":"１８號","E_COORD97":167334.79000000001,"N_COORD97":2547074.4199999999,"ADDRESS":"安寧街７９巷１８號","OBJECTID":408398},"geometry":{"x":167334.79000000004,"y":2547074.4199999999}},{"attributes":{"ID":408423,"DIS_CODE":0,"TOWNNAME":"安南區","LI":"溪墘里","LIN":"22鄰","STREET":"安寧街","SECT":" ","MAREA":" ","LANE":"７９巷","ALLEY":" ","HOUSE_NO":"１９號","E_COORD97":167333.73000000001,"N_COORD97":2547048.6699999999,"ADDRESS":"安寧街７９巷１９號","OBJECTID":408399},"geometry":{"x":167333.73000000045,"y":2547048.6700000018}},{"attributes":{"ID":408424,"DIS_CODE":0,"TOWNNAME":"安南區","LI":"溪墘里","LIN":"22鄰","STREET":"安寧街","SECT":" ","MAREA":" ","LANE":"７９巷","ALLEY":" ","HOUSE_NO":"１號","E_COORD97":167382.42999999999,"N_COORD97":2547059.7799999998,"ADDRESS":"安寧街７９巷１號","OBJECTID":408400},"geometry":{"x":167382.4299999997,"y":2547059.7800000012}}]}