{"displayFieldName":"TOWNNAME","fieldAliases":{"ID":"ID","DIS_CODE":"DIS_CODE","TOWNNAME":"TOWNNAME","LI":"LI","LIN":"LIN","STREET":"STREET","SECT":"SECT","MAREA":"MAREA","LANE":"LANE","ALLEY":"ALLEY","HOUSE_NO":"HOUSE_NO","E_COORD97":"E_COORD97","N_COORD97":"N_COORD97","ADDRESS":"ADDRESS","OBJECTID":"OBJECTID"},"geometryType":"esriGeometryPoint","spatialReference":{"wkid":102443,"latestWkid":3826},"fields":[{"name":"ID","type":"esriFieldTypeDouble","alias":"ID"},{"name":"DIS_CODE","type":"esriFieldTypeInteger","alias":"DIS_CODE"},{"name":"TOWNNAME","type":"esriFieldTypeString","alias":"TOWNNAME","length":8},{"name":"LI","type":"esriFieldTypeString","alias":"LI","length":8},{"name":"LIN","type":"esriFieldTypeString","alias":"LIN","length":12},{"name":"STREET","type":"esriFieldTypeString","alias":"STREET","length":20},{"name":"SECT","type":"esriFieldTypeString","alias":"SECT","length":8},{"name":"MAREA","type":"esriFieldTypeString","alias":"MAREA","length":12},{"name":"LANE","type":"esriFieldTypeString","alias":"LANE","length":10},{"name":"ALLEY","type":"esriFieldTypeString","alias":"ALLEY","length":10},{"name":"HOUSE_NO","type":"esriFieldTypeString","alias":"HOUSE_NO","length":20},{"name":"E_COORD97","type":"esriFieldTypeDouble","alias":"E_COORD97"},{"name":"N_COORD97","type":"esriFieldTypeDouble","alias":"N_COORD97"},{"name":"ADDRESS","type":"esriFieldTypeString","alias":"ADDRESS","length":50},{"name":"OBJECTID","type":"esriFieldTypeOID","alias":"OBJECTID"}],"features":[{"attributes":{"ID":184402,"DIS_CODE":0,"TOWNNAME":"七股區","LI":"義合里","LIN":"11鄰","STREET":" ","SECT":" ","MAREA":"義合","LANE":" ","ALLEY":" ","HOUSE_NO":"８４號之１","E_COORD97":161707.32000000001,"N_COORD97":2555736.7400000002,"ADDRESS":"義合８４號之１","OBJECTID":184401},"geometry":{"x":161707.32000000123,"y":2555736.7400000039}},{"attributes":{"ID":184403,"DIS_CODE":0,"TOWNNAME":"七股區","LI":"義合里","LIN":"11鄰","STREET":" ","SECT":" ","MAREA":"義合","LANE":" ","ALLEY":" ","HOUSE_NO":"８４號之２","E_COORD97":161686.54000000001,"N_COORD97":2555732.6699999999,"ADDRESS":"義合８４號之２","OBJECTID":184402},"geometry":{"x":161686.5400000019,"y":2555732.6699999999}},{"attributes":{"ID":184404,"DIS_CODE":0,"TOWNNAME":"七股區","LI":"義合里","LIN":"11鄰","STREET":" ","SECT":" ","MAREA":"義合","LANE":" ","ALLEY":" ","HOUSE_NO":"８４號","E_COORD97":161730.29999999999,"N_COORD97":2555726.23,"ADDRESS":"義合８４號","OBJECTID":184403},"geometry":{"x":161730.30000000168,"y":2555726.2300000004}},{"attributes":{"ID":184405,"DIS_CODE":0,"TOWNNAME":"七股區","LI":"義合里","LIN":"11鄰","STREET":" ","SECT":" ","MAREA":"義合","LANE":" ","ALLEY":" ","HOUSE_NO":"８５號之１","E_COORD97":161679.82999999999,"N_COORD97":2555782.8399999999,"ADDRESS":"義合８５號之１","OBJECTID":184404},"geometry":{"x":161679.83000000101,"y":2555782.839999998}},{"attributes":{"ID":184406,"DIS_CODE":0,"TOWNNAME":"安南區","LI":"溪頂里","LIN":"10鄰","STREET":"文安街","SECT":" ","MAREA":" ","LANE":" ","ALLEY":" ","HOUSE_NO":"１８８號","E_COORD97":168829.64000000001,"N_COORD97":2547429.5699999998,"ADDRESS":"文安街１８８號","OBJECTID":184405},"geometry":{"x":168829.6400000006,"y":2547429.5700000022}},{"attributes":{"ID":184407,"DIS_CODE":0,"TOWNNAME":"七股區","LI":"義合里","LIN":"11鄰","STREET":" ","SECT":" ","MAREA":"義合","LANE":" ","ALLEY":" ","HOUSE_NO":"８５號","E_COORD97":161713.22,"N_COORD97":2555794,"ADDRESS":"義合８５號","OBJECTID":184406},"geometry":{"x":161713.21999999974,"y":2555794}},{"attributes":{"ID":184408,"DIS_CODE":0,"TOWNNAME":"安南區","LI":"溪頂里","LIN":"10鄰","STREET":"文安街","SECT":" ","MAREA":" ","LANE":" ","ALLEY":" ","HOUSE_NO":"１９０號","E_COORD97":168820.29999999999,"N_COORD97":2547430.2200000002,"ADDRESS":"文安街１９０號","OBJECTID":184407},"geometry":{"x":168820.30000000075,"y":2547430.2200000007}},{"attributes":{"ID":184409,"DIS_CODE":0,"TOWNNAME":"安南區","LI":"溪頂里","LIN":"10鄰","STREET":"文安街","SECT":" ","MAREA":" ","LANE":" ","ALLEY":" ","HOUSE_NO":"１９２號","E_COORD97":168812.87,"N_COORD97":2547429.1000000001,"ADDRESS":"文安街１９２號","OBJECTID":184408},"geometry":{"x":168812.87000000104,"y":2547429.0999999996}},{"attributes":{"ID":184410,"DIS_CODE":0,"TOWNNAME":"安南區","LI":"溪頂里","LIN":"10鄰","STREET":"文安街","SECT":" ","MAREA":" ","LANE":" ","ALLEY":" ","HOUSE_NO":"１９４號","E_COORD97":168804.19,"N_COORD97":2547429.1000000001,"ADDRESS":"文安街１９４號","OBJECTID":184409},"geometry":{"x":168804.19000000227,"y":2547429.0999999996}},{"attributes":{"ID":184411,"DIS_CODE":0,"TOWNNAME":"七股區","LI":"義合里","LIN":"11鄰","STREET":" ","SECT":" ","MAREA":"義合","LANE":" ","ALLEY":" ","HOUSE_NO":"８６號之１","E_COORD97":161750.92000000001,"N_COORD97":2555768.7999999998,"ADDRESS":"義合８６號之１","OBJECTID":184410},"geometry":{"x":161750.91999999993,"y":2555768.8000000026}},{"attributes":{"ID":184412,"DIS_CODE":0,"TOWNNAME":"七股區","LI":"義合里","LIN":"11鄰","STREET":" ","SECT":" ","MAREA":"義合","LANE":" ","ALLEY":" ","HOUSE_NO":"８６號之２","E_COORD97":161746.22,"N_COORD97":2555769.0600000001,"ADDRESS":"義合８６號之２","OBJECTID":184411},"geometry":{"x":161746.2200000016,"y":2555769.0600000024}},{"attributes":{"ID":184413,"DIS_CODE":0,"TOWNNAME":"安平區","LI":"平安里","LIN":"20鄰","STREET":"安平路","SECT":" ","MAREA":" ","LANE":"６０６巷","ALLEY":"５３弄","HOUSE_NO":"４５號","E_COORD97":164789.56,"N_COORD97":2544598.1600000001,"ADDRESS":"安平路６０６巷５３弄４５號","OBJECTID":184412},"geometry":{"x":164789.55999999959,"y":2544598.1600000001}},{"attributes":{"ID":184414,"DIS_CODE":0,"TOWNNAME":"安平區","LI":"平安里","LIN":"20鄰","STREET":"安平路","SECT":" ","MAREA":" ","LANE":"６０６巷","ALLEY":"５３弄","HOUSE_NO":"４７號","E_COORD97":164785.91,"N_COORD97":2544599.1099999999,"ADDRESS":"安平路６０６巷５３弄４７號","OBJECTID":184413},"geometry":{"x":164785.91000000015,"y":2544599.1100000031}},{"attributes":{"ID":184415,"DIS_CODE":0,"TOWNNAME":"安平區","LI":"平安里","LIN":"20鄰","STREET":"安平路","SECT":" ","MAREA":" ","LANE":"６０６巷","ALLEY":"５３弄","HOUSE_NO":"５０號","E_COORD97":164797.70000000001,"N_COORD97":2544603.6899999999,"ADDRESS":"安平路６０６巷５３弄５０號","OBJECTID":184414},"geometry":{"x":164797.70000000019,"y":2544603.6900000013}},{"attributes":{"ID":184416,"DIS_CODE":0,"TOWNNAME":"安南區","LI":"溪頂里","LIN":"10鄰","STREET":"文安街","SECT":" ","MAREA":" ","LANE":" ","ALLEY":" ","HOUSE_NO":"１９６號","E_COORD97":168794.51999999999,"N_COORD97":2547428.8199999998,"ADDRESS":"文安街１９６號","OBJECTID":184415},"geometry":{"x":168794.52000000048,"y":2547428.8200000003}},{"attributes":{"ID":184417,"DIS_CODE":0,"TOWNNAME":"安平區","LI":"平安里","LIN":"20鄰","STREET":"安平路","SECT":" ","MAREA":" ","LANE":"６０６巷","ALLEY":"５３弄","HOUSE_NO":"５２號","E_COORD97":164793.57000000001,"N_COORD97":2544604.77,"ADDRESS":"安平路６０６巷５３弄５２號","OBJECTID":184416},"geometry":{"x":164793.5700000003,"y":2544604.7699999996}},{"attributes":{"ID":184418,"DIS_CODE":0,"TOWNNAME":"安平區","LI":"平安里","LIN":"20鄰","STREET":"安平路","SECT":" ","MAREA":" ","LANE":"６０６巷","ALLEY":"５３弄","HOUSE_NO":"５號","E_COORD97":164849.42999999999,"N_COORD97":2544572.9300000002,"ADDRESS":"安平路６０６巷５３弄５號","OBJECTID":184417},"geometry":{"x":164849.4299999997,"y":2544572.9299999997}},{"attributes":{"ID":184419,"DIS_CODE":0,"TOWNNAME":"安平區","LI":"平安里","LIN":"20鄰","STREET":"安平路","SECT":" ","MAREA":" ","LANE":"６０６巷","ALLEY":"５３弄","HOUSE_NO":"７號","E_COORD97":164846.20999999999,"N_COORD97":2544574.1600000001,"ADDRESS":"安平路６０６巷５３弄７號","OBJECTID":184418},"geometry":{"x":164846.20999999996,"y":2544574.160000002}},{"attributes":{"ID":184420,"DIS_CODE":0,"TOWNNAME":"安平區","LI":"平安里","LIN":"20鄰","STREET":"安平路","SECT":" ","MAREA":" ","LANE":"６０６巷","ALLEY":"５３弄","HOUSE_NO":"９號","E_COORD97":164843,"N_COORD97":2544574.9199999999,"ADDRESS":"安平路６０６巷５３弄９號","OBJECTID":184419},"geometry":{"x":164843,"y":2544574.9200000018}},{"attributes":{"ID":184421,"DIS_CODE":0,"TOWNNAME":"歸仁區","LI":"歸南里","LIN":"20鄰","STREET":"民生八街","SECT":" ","MAREA":" ","LANE":"２８巷","ALLEY":"１弄","HOUSE_NO":"３６號","E_COORD97":176029.45999999999,"N_COORD97":2540391.25,"ADDRESS":"民生八街２８巷１弄３６號","OBJECTID":184420},"geometry":{"x":176029.45999999996,"y":2540391.2499999981}},{"attributes":{"ID":184422,"DIS_CODE":0,"TOWNNAME":"安南區","LI":"州北里","LIN":"4鄰","STREET":"安和路","SECT":"五段","MAREA":" ","LANE":"１７１巷","ALLEY":"１１９弄","HOUSE_NO":"４號","E_COORD97":169626.38953300001,"N_COORD97":2551728.47322,"ADDRESS":"安和路五段１７１巷１１９弄４號","OBJECTID":184421},"geometry":{"x":169626.38953300007,"y":2551728.4732170012}},{"attributes":{"ID":184423,"DIS_CODE":0,"TOWNNAME":"永康區","LI":"復國里","LIN":"29鄰","STREET":"復華二街","SECT":" ","MAREA":" ","LANE":"３巷","ALLEY":"１２弄","HOUSE_NO":"２號","E_COORD97":172649.45004900001,"N_COORD97":2545292.5490899999,"ADDRESS":"復華二街３巷１２弄２號","OBJECTID":184422},"geometry":{"x":172649.45004899986,"y":2545292.5490910001}},{"attributes":{"ID":184424,"DIS_CODE":0,"TOWNNAME":"永康區","LI":"復國里","LIN":"29鄰","STREET":"復華二街","SECT":" ","MAREA":" ","LANE":"３巷","ALLEY":"１２弄","HOUSE_NO":"６號","E_COORD97":172642.03469,"N_COORD97":2545294.24242,"ADDRESS":"復華二街３巷１２弄６號","OBJECTID":184423},"geometry":{"x":172642.03469000105,"y":2545294.2424230035}},{"attributes":{"ID":184425,"DIS_CODE":0,"TOWNNAME":"歸仁區","LI":"歸南里","LIN":"20鄰","STREET":"民生八街","SECT":" ","MAREA":" ","LANE":"２８巷","ALLEY":"１弄","HOUSE_NO":"３４號","E_COORD97":176033.56,"N_COORD97":2540391.25,"ADDRESS":"民生八街２８巷１弄３４號","OBJECTID":184424},"geometry":{"x":176033.55999999959,"y":2540391.2499999981}},{"attributes":{"ID":184426,"DIS_CODE":0,"TOWNNAME":"安南區","LI":"溪頂里","LIN":"10鄰","STREET":"文安街","SECT":" ","MAREA":" ","LANE":" ","ALLEY":" ","HOUSE_NO":"１９８號","E_COORD97":168786.82000000001,"N_COORD97":2547428.8199999998,"ADDRESS":"文安街１９８號","OBJECTID":184425},"geometry":{"x":168786.82000000123,"y":2547428.8200000003}},{"attributes":{"ID":184427,"DIS_CODE":0,"TOWNNAME":"七股區","LI":"義合里","LIN":"11鄰","STREET":" ","SECT":" ","MAREA":"義合","LANE":" ","ALLEY":" ","HOUSE_NO":"８６號之３","E_COORD97":161741.17999999999,"N_COORD97":2555769.2599999998,"ADDRESS":"義合８６號之３","OBJECTID":184426},"geometry":{"x":161741.18000000156,"y":2555769.2599999998}},{"attributes":{"ID":184428,"DIS_CODE":0,"TOWNNAME":"七股區","LI":"義合里","LIN":"11鄰","STREET":" ","SECT":" ","MAREA":"義合","LANE":" ","ALLEY":" ","HOUSE_NO":"８６號之９","E_COORD97":161795.39999999999,"N_COORD97":2555803.9100000001,"ADDRESS":"義合８６號之９","OBJECTID":184427},"geometry":{"x":161795.4000000013,"y":2555803.910000002}},{"attributes":{"ID":184429,"DIS_CODE":0,"TOWNNAME":"七股區","LI":"義合里","LIN":"11鄰","STREET":" ","SECT":" ","MAREA":"義合","LANE":" ","ALLEY":" ","HOUSE_NO":"８７號","E_COORD97":161705.26000000001,"N_COORD97":2555841.3999999999,"ADDRESS":"義合８７號","OBJECTID":184428},"geometry":{"x":161705.26000000164,"y":2555841.4000000022}},{"attributes":{"ID":184430,"DIS_CODE":0,"TOWNNAME":"七股區","LI":"義合里","LIN":"11鄰","STREET":" ","SECT":" ","MAREA":"義合","LANE":" ","ALLEY":" ","HOUSE_NO":"８８號之１０","E_COORD97":161602.59,"N_COORD97":2555820.3799999999,"ADDRESS":"義合８８號之１０","OBJECTID":184429},"geometry":{"x":161602.58999999985,"y":2555820.3800000008}},{"attributes":{"ID":184431,"DIS_CODE":0,"TOWNNAME":"七股區","LI":"義合里","LIN":"11鄰","STREET":" ","SECT":" ","MAREA":"義合","LANE":" ","ALLEY":" ","HOUSE_NO":"８８號之１１","E_COORD97":161610.29000000001,"N_COORD97":2555810.9100000001,"ADDRESS":"義合８８號之１１","OBJECTID":184430},"geometry":{"x":161610.2900000019,"y":2555810.910000002}},{"attributes":{"ID":184432,"DIS_CODE":0,"TOWNNAME":"七股區","LI":"義合里","LIN":"11鄰","STREET":" ","SECT":" ","MAREA":"義合","LANE":" ","ALLEY":" ","HOUSE_NO":"８８號之１２","E_COORD97":161610.56,"N_COORD97":2555805.52,"ADDRESS":"義合８８號之１２","OBJECTID":184431},"geometry":{"x":161610.55999999959,"y":2555805.5200000014}},{"attributes":{"ID":184433,"DIS_CODE":0,"TOWNNAME":"歸仁區","LI":"歸南里","LIN":"20鄰","STREET":"民生八街","SECT":" ","MAREA":" ","LANE":"２８巷","ALLEY":"１弄","HOUSE_NO":"１２號","E_COORD97":176078.66,"N_COORD97":2540391.25,"ADDRESS":"民生八街２８巷１弄１２號","OBJECTID":184432},"geometry":{"x":176078.66000000108,"y":2540391.2499999981}},{"attributes":{"ID":184434,"DIS_CODE":0,"TOWNNAME":"仁德區","LI":"上崙里","LIN":"1鄰","STREET":"德崙路","SECT":" ","MAREA":" ","LANE":"７７巷","ALLEY":"３８弄","HOUSE_NO":"９號","E_COORD97":173546.47764299999,"N_COORD97":2538480.2179700001,"ADDRESS":"德崙路７７巷３８弄９號","OBJECTID":184433},"geometry":{"x":173546.47764299996,"y":2538480.2179730013}},{"attributes":{"ID":184435,"DIS_CODE":0,"TOWNNAME":"永康區","LI":"復國里","LIN":"29鄰","STREET":"復華二街","SECT":" ","MAREA":" ","LANE":"３巷","ALLEY":"１２弄","HOUSE_NO":"１６號","E_COORD97":172599.66120599999,"N_COORD97":2545294.8774199998,"ADDRESS":"復華二街３巷１２弄１６號","OBJECTID":184434},"geometry":{"x":172599.66120600048,"y":2545294.8774230033}},{"attributes":{"ID":184436,"DIS_CODE":0,"TOWNNAME":"永康區","LI":"復國里","LIN":"29鄰","STREET":"復華二街","SECT":" ","MAREA":" ","LANE":"３巷","ALLEY":"１２弄","HOUSE_NO":"２６號","E_COORD97":172557.28772200001,"N_COORD97":2545297.4174199998,"ADDRESS":"復華二街３巷１２弄２６號","OBJECTID":184435},"geometry":{"x":172557.28772200085,"y":2545297.4174210019}},{"attributes":{"ID":184437,"DIS_CODE":0,"TOWNNAME":"永康區","LI":"復國里","LIN":"29鄰","STREET":"復華二街","SECT":" ","MAREA":" ","LANE":"３巷","ALLEY":"１２弄","HOUSE_NO":"２４號","E_COORD97":172564.49121400001,"N_COORD97":2545296.9940900002,"ADDRESS":"復華二街３巷１２弄２４號","OBJECTID":184436},"geometry":{"x":172564.49121400062,"y":2545296.9940879997}},{"attributes":{"ID":184438,"DIS_CODE":0,"TOWNNAME":"永康區","LI":"復國里","LIN":"29鄰","STREET":"復華二街","SECT":" ","MAREA":" ","LANE":"３巷","ALLEY":"１２弄","HOUSE_NO":"２２號","E_COORD97":172570.635369,"N_COORD97":2545296.7824200001,"ADDRESS":"復華二街３巷１２弄２２號","OBJECTID":184437},"geometry":{"x":172570.63536900003,"y":2545296.7824220024}},{"attributes":{"ID":184439,"DIS_CODE":0,"TOWNNAME":"新營區","LI":"新東里","LIN":"20鄰","STREET":"東興八街","SECT":" ","MAREA":" ","LANE":"４８巷","ALLEY":"２弄","HOUSE_NO":"２號","E_COORD97":180871.16,"N_COORD97":2579452.3700000001,"ADDRESS":"東興八街４８巷２弄２號","OBJECTID":184438},"geometry":{"x":180871.16000000108,"y":2579452.3700000048}},{"attributes":{"ID":184440,"DIS_CODE":0,"TOWNNAME":"關廟區","LI":"北花里","LIN":"20鄰","STREET":"中正路","SECT":" ","MAREA":" ","LANE":"７３巷","ALLEY":"３２弄","HOUSE_NO":"２３號","E_COORD97":183632.29000000001,"N_COORD97":2540833.8799999999,"ADDRESS":"中正路７３巷３２弄２３號","OBJECTID":184439},"geometry":{"x":183632.29000000004,"y":2540833.8800000027}},{"attributes":{"ID":184441,"DIS_CODE":0,"TOWNNAME":"仁德區","LI":"上崙里","LIN":"1鄰","STREET":"德崙路","SECT":" ","MAREA":" ","LANE":"７７巷","ALLEY":"３８弄","HOUSE_NO":"３號","E_COORD97":173554.952533,"N_COORD97":2538489.9546300001,"ADDRESS":"德崙路７７巷３８弄３號","OBJECTID":184440},"geometry":{"x":173554.95253300201,"y":2538489.9546350017}},{"attributes":{"ID":184442,"DIS_CODE":0,"TOWNNAME":"仁德區","LI":"上崙里","LIN":"1鄰","STREET":"德崙路","SECT":" ","MAREA":" ","LANE":"７７巷","ALLEY":"３８弄","HOUSE_NO":"５號","E_COORD97":173551.77444899999,"N_COORD97":2538485.2979700002,"ADDRESS":"德崙路７７巷３８弄５號","OBJECTID":184441},"geometry":{"x":173551.77444900014,"y":2538485.2979710009}},{"attributes":{"ID":184443,"DIS_CODE":0,"TOWNNAME":"仁德區","LI":"上崙里","LIN":"1鄰","STREET":"德崙路","SECT":" ","MAREA":" ","LANE":"７７巷","ALLEY":"３８弄","HOUSE_NO":"７號","E_COORD97":173549.02011000001,"N_COORD97":2538482.9696399998,"ADDRESS":"德崙路７７巷３８弄７號","OBJECTID":184442},"geometry":{"x":173549.02011000086,"y":2538482.9696390033}},{"attributes":{"ID":184444,"DIS_CODE":0,"TOWNNAME":"仁德區","LI":"上崙里","LIN":"1鄰","STREET":"德崙路","SECT":" ","MAREA":" ","LANE":"７７巷","ALLEY":"３８弄","HOUSE_NO":"１１號","E_COORD97":173544.78266500001,"N_COORD97":2538475.3496400001,"ADDRESS":"德崙路７７巷３８弄１１號","OBJECTID":184443},"geometry":{"x":173544.78266500123,"y":2538475.3496429995}},{"attributes":{"ID":184445,"DIS_CODE":0,"TOWNNAME":"仁德區","LI":"上崙里","LIN":"1鄰","STREET":"德崙路","SECT":" ","MAREA":" ","LANE":"７７巷","ALLEY":"３８弄","HOUSE_NO":"１３號","E_COORD97":173558.76623400001,"N_COORD97":2538463.9196500001,"ADDRESS":"德崙路７７巷３８弄１３號","OBJECTID":184444},"geometry":{"x":173558.76623400021,"y":2538463.9196490012}},{"attributes":{"ID":184446,"DIS_CODE":0,"TOWNNAME":"仁德區","LI":"上崙里","LIN":"1鄰","STREET":"德崙路","SECT":" ","MAREA":" ","LANE":"７７巷","ALLEY":"３８弄","HOUSE_NO":"１５號","E_COORD97":173562.36806199999,"N_COORD97":2538460.9563199999,"ADDRESS":"德崙路７７巷３８弄１５號","OBJECTID":184445},"geometry":{"x":173562.36806200072,"y":2538460.9563170001}},{"attributes":{"ID":184447,"DIS_CODE":0,"TOWNNAME":"安南區","LI":"淵東里","LIN":"15鄰","STREET":"安中路","SECT":"三段","MAREA":" ","LANE":"４００巷","ALLEY":"１９３弄","HOUSE_NO":"２號之１","E_COORD97":165541.63,"N_COORD97":2550309.4199999999,"ADDRESS":"安中路三段４００巷１９３弄２號之１","OBJECTID":184446},"geometry":{"x":165541.62999999989,"y":2550309.4199999999}},{"attributes":{"ID":184448,"DIS_CODE":0,"TOWNNAME":"安南區","LI":"頂安里","LIN":"10鄰","STREET":"長溪路","SECT":"一段","MAREA":" ","LANE":" ","ALLEY":" ","HOUSE_NO":"４８５號","E_COORD97":168450.35999999999,"N_COORD97":2549078.29,"ADDRESS":"長溪路一段４８５號","OBJECTID":184447},"geometry":{"x":168450.3600000022,"y":2549078.2899999991}},{"attributes":{"ID":184449,"DIS_CODE":0,"TOWNNAME":"安南區","LI":"新順里","LIN":"10鄰","STREET":"政安路","SECT":" ","MAREA":" ","LANE":" ","ALLEY":" ","HOUSE_NO":"２５號","E_COORD97":169782.45000000001,"N_COORD97":2549127.4500000002,"ADDRESS":"政安路２５號","OBJECTID":184448},"geometry":{"x":169782.45000000112,"y":2549127.4500000011}},{"attributes":{"ID":184450,"DIS_CODE":0,"TOWNNAME":"安南區","LI":"安西里","LIN":"10鄰","STREET":"安和路","SECT":"一段","MAREA":" ","LANE":" ","ALLEY":" ","HOUSE_NO":"３５７號","E_COORD97":169287.84,"N_COORD97":2548262.3599999999,"ADDRESS":"安和路一段３５７號","OBJECTID":184449},"geometry":{"x":169287.84000000078,"y":2548262.3599999975}},{"attributes":{"ID":184451,"DIS_CODE":0,"TOWNNAME":"安南區","LI":"安西里","LIN":"10鄰","STREET":"安和路","SECT":"一段","MAREA":" ","LANE":" ","ALLEY":" ","HOUSE_NO":"３５９號","E_COORD97":169288.13,"N_COORD97":2548268.79,"ADDRESS":"安和路一段３５９號","OBJECTID":184450},"geometry":{"x":169288.12999999989,"y":2548268.7899999991}},{"attributes":{"ID":184452,"DIS_CODE":0,"TOWNNAME":"安南區","LI":"安西里","LIN":"10鄰","STREET":"安和路","SECT":"一段","MAREA":" ","LANE":" ","ALLEY":" ","HOUSE_NO":"３６１號","E_COORD97":169289.89000000001,"N_COORD97":2548273.7599999998,"ADDRESS":"安和路一段３６１號","OBJECTID":184451},"geometry":{"x":169289.88999999966,"y":2548273.7600000035}},{"attributes":{"ID":184453,"DIS_CODE":0,"TOWNNAME":"仁德區","LI":"一甲里","LIN":"20鄰","STREET":"太新路","SECT":" ","MAREA":" ","LANE":" ","ALLEY":" ","HOUSE_NO":"１７號","E_COORD97":173221.17999999999,"N_COORD97":2542306.7599999998,"ADDRESS":"太新路１７號","OBJECTID":184452},"geometry":{"x":173221.18000000156,"y":2542306.7600000035}},{"attributes":{"ID":184454,"DIS_CODE":0,"TOWNNAME":"新化區","LI":"知義里","LIN":"10鄰","STREET":" ","SECT":" ","MAREA":"新和庄","LANE":" ","ALLEY":" ","HOUSE_NO":"１９８號之１","E_COORD97":181599.60999999999,"N_COORD97":2547116.2599999998,"ADDRESS":"新和庄１９８號之１","OBJECTID":184453},"geometry":{"x":181599.61000000034,"y":2547116.2599999998}},{"attributes":{"ID":184455,"DIS_CODE":0,"TOWNNAME":"新化區","LI":"太平里","LIN":"10鄰","STREET":"大德路","SECT":" ","MAREA":" ","LANE":" ","ALLEY":" ","HOUSE_NO":"１５號","E_COORD97":178602.38,"N_COORD97":2549387.25,"ADDRESS":"大德路１５號","OBJECTID":184454},"geometry":{"x":178602.38000000082,"y":2549387.2500000019}},{"attributes":{"ID":184456,"DIS_CODE":0,"TOWNNAME":"七股區","LI":"義合里","LIN":"11鄰","STREET":" ","SECT":" ","MAREA":"義合","LANE":" ","ALLEY":" ","HOUSE_NO":"８８號之１３","E_COORD97":161610.81,"N_COORD97":2555800.7599999998,"ADDRESS":"義合８８號之１３","OBJECTID":184455},"geometry":{"x":161610.80999999959,"y":2555800.7600000016}},{"attributes":{"ID":184457,"DIS_CODE":0,"TOWNNAME":"七股區","LI":"義合里","LIN":"11鄰","STREET":" ","SECT":" ","MAREA":"義合","LANE":" ","ALLEY":" ","HOUSE_NO":"８８號之１４","E_COORD97":161611.09,"N_COORD97":2555795.48,"ADDRESS":"義合８８號之１４","OBJECTID":184456},"geometry":{"x":161611.08999999985,"y":2555795.4800000004}},{"attributes":{"ID":184458,"DIS_CODE":0,"TOWNNAME":"七股區","LI":"義合里","LIN":"11鄰","STREET":" ","SECT":" ","MAREA":"義合","LANE":" ","ALLEY":" ","HOUSE_NO":"８８號之１５","E_COORD97":161611.60999999999,"N_COORD97":2555790.8700000001,"ADDRESS":"義合８８號之１５","OBJECTID":184457},"geometry":{"x":161611.61000000034,"y":2555790.8700000048}},{"attributes":{"ID":184459,"DIS_CODE":0,"TOWNNAME":"新化區","LI":"豐榮里","LIN":"10鄰","STREET":"信義路","SECT":" ","MAREA":" ","LANE":" ","ALLEY":" ","HOUSE_NO":"４７２號","E_COORD97":178497.53,"N_COORD97":2548282.25,"ADDRESS":"信義路４７２號","OBJECTID":184458},"geometry":{"x":178497.53000000026,"y":2548282.2500000019}},{"attributes":{"ID":184460,"DIS_CODE":0,"TOWNNAME":"七股區","LI":"義合里","LIN":"11鄰","STREET":" ","SECT":" ","MAREA":"義合","LANE":" ","ALLEY":" ","HOUSE_NO":"８８號之１６","E_COORD97":161612.38,"N_COORD97":2555784.8199999998,"ADDRESS":"義合８８號之１６","OBJECTID":184459},"geometry":{"x":161612.37999999989,"y":2555784.8200000022}},{"attributes":{"ID":184461,"DIS_CODE":0,"TOWNNAME":"七股區","LI":"義合里","LIN":"11鄰","STREET":" ","SECT":" ","MAREA":"義合","LANE":" ","ALLEY":" ","HOUSE_NO":"８８號之１７","E_COORD97":161612.94,"N_COORD97":2555780.1299999999,"ADDRESS":"義合８８號之１７","OBJECTID":184460},"geometry":{"x":161612.93999999948,"y":2555780.1300000027}},{"attributes":{"ID":184462,"DIS_CODE":0,"TOWNNAME":"七股區","LI":"義合里","LIN":"11鄰","STREET":" ","SECT":" ","MAREA":"義合","LANE":" ","ALLEY":" ","HOUSE_NO":"８８號之１８","E_COORD97":161623.12,"N_COORD97":2555779.46,"ADDRESS":"義合８８號之１８","OBJECTID":184461},"geometry":{"x":161623.12000000011,"y":2555779.4600000009}},{"attributes":{"ID":184463,"DIS_CODE":0,"TOWNNAME":"七股區","LI":"義合里","LIN":"11鄰","STREET":" ","SECT":" ","MAREA":"義合","LANE":" ","ALLEY":" ","HOUSE_NO":"８８號之１９","E_COORD97":161622.81,"N_COORD97":2555784.77,"ADDRESS":"義合８８號之１９","OBJECTID":184462},"geometry":{"x":161622.80999999959,"y":2555784.7700000014}},{"attributes":{"ID":184464,"DIS_CODE":0,"TOWNNAME":"七股區","LI":"義合里","LIN":"11鄰","STREET":" ","SECT":" ","MAREA":"義合","LANE":" ","ALLEY":" ","HOUSE_NO":"８８號之１","E_COORD97":161644.95000000001,"N_COORD97":2555819.6099999999,"ADDRESS":"義合８８號之１","OBJECTID":184463},"geometry":{"x":161644.95000000205,"y":2555819.6100000013}},{"attributes":{"ID":184465,"DIS_CODE":0,"TOWNNAME":"七股區","LI":"義合里","LIN":"11鄰","STREET":" ","SECT":" ","MAREA":"義合","LANE":" ","ALLEY":" ","HOUSE_NO":"８８號之２０","E_COORD97":161622.26999999999,"N_COORD97":2555789.96,"ADDRESS":"義合８８號之２０","OBJECTID":184464},"geometry":{"x":161622.27000000048,"y":2555789.9600000046}},{"attributes":{"ID":184466,"DIS_CODE":0,"TOWNNAME":"七股區","LI":"義合里","LIN":"11鄰","STREET":" ","SECT":" ","MAREA":"義合","LANE":" ","ALLEY":" ","HOUSE_NO":"８８號之２１","E_COORD97":161621.82999999999,"N_COORD97":2555795.2799999998,"ADDRESS":"義合８８號之２１","OBJECTID":184465},"geometry":{"x":161621.82999999914,"y":2555795.2799999993}},{"attributes":{"ID":184467,"DIS_CODE":0,"TOWNNAME":"新化區","LI":"知義里","LIN":"10鄰","STREET":" ","SECT":" ","MAREA":"新和庄","LANE":" ","ALLEY":" ","HOUSE_NO":"１９５號","E_COORD97":181618.19,"N_COORD97":2547110.25,"ADDRESS":"新和庄１９５號","OBJECTID":184466},"geometry":{"x":181618.19000000134,"y":2547110.25}},{"attributes":{"ID":184468,"DIS_CODE":0,"TOWNNAME":"新化區","LI":"知義里","LIN":"10鄰","STREET":" ","SECT":" ","MAREA":"新和庄","LANE":" ","ALLEY":" ","HOUSE_NO":"１８９號之４","E_COORD97":181654.92000000001,"N_COORD97":2547139.2599999998,"ADDRESS":"新和庄１８９號之４","OBJECTID":184467},"geometry":{"x":181654.92000000179,"y":2547139.2600000016}},{"attributes":{"ID":184469,"DIS_CODE":0,"TOWNNAME":"新化區","LI":"知義里","LIN":"10鄰","STREET":" ","SECT":" ","MAREA":"新和庄","LANE":" ","ALLEY":" ","HOUSE_NO":"１８２號","E_COORD97":181669.29000000001,"N_COORD97":2547149.25,"ADDRESS":"新和庄１８２號","OBJECTID":184468},"geometry":{"x":181669.29000000004,"y":2547149.2500000019}},{"attributes":{"ID":184470,"DIS_CODE":0,"TOWNNAME":"安南區","LI":"淵東里","LIN":"3鄰","STREET":"本原街","SECT":"三段","MAREA":" ","LANE":"２３４巷","ALLEY":"１０６弄","HOUSE_NO":"３９號之１","E_COORD97":165360.53604899999,"N_COORD97":2550728.0896100001,"ADDRESS":"本原街三段２３４巷１０６弄３９號之１","OBJECTID":184469},"geometry":{"x":165360.53604899999,"y":2550728.0896080006}},{"attributes":{"ID":184471,"DIS_CODE":0,"TOWNNAME":"安南區","LI":"淵東里","LIN":"3鄰","STREET":"本原街","SECT":"三段","MAREA":" ","LANE":"２３４巷","ALLEY":"１０６弄","HOUSE_NO":"７８號","E_COORD97":165378.48504900001,"N_COORD97":2550682.4180100001,"ADDRESS":"本原街三段２３４巷１０６弄７８號","OBJECTID":184470},"geometry":{"x":165378.48504900001,"y":2550682.4180120025}},{"attributes":{"ID":184472,"DIS_CODE":0,"TOWNNAME":"新化區","LI":"崙頂里","LIN":"10鄰","STREET":" ","SECT":" ","MAREA":"崙子頂","LANE":" ","ALLEY":" ","HOUSE_NO":"３６４號","E_COORD97":176812.53,"N_COORD97":2546852.25,"ADDRESS":"崙子頂３６４號","OBJECTID":184471},"geometry":{"x":176812.53000000026,"y":2546852.25}},{"attributes":{"ID":184473,"DIS_CODE":0,"TOWNNAME":"新化區","LI":"崙頂里","LIN":"10鄰","STREET":" ","SECT":" ","MAREA":"崙子頂","LANE":" ","ALLEY":" ","HOUSE_NO":"３６１號","E_COORD97":176803.53,"N_COORD97":2546853.25,"ADDRESS":"崙子頂３６１號","OBJECTID":184472},"geometry":{"x":176803.53000000119,"y":2546853.2499999981}},{"attributes":{"ID":184474,"DIS_CODE":0,"TOWNNAME":"新化區","LI":"知義里","LIN":"10鄰","STREET":" ","SECT":" ","MAREA":"新和庄","LANE":" ","ALLEY":" ","HOUSE_NO":"２１７號之２","E_COORD97":181498.14000000001,"N_COORD97":2546976.2599999998,"ADDRESS":"新和庄２１７號之２","OBJECTID":184473},"geometry":{"x":181498.13999999966,"y":2546976.2600000016}},{"attributes":{"ID":184475,"DIS_CODE":0,"TOWNNAME":"新化區","LI":"全興里","LIN":"10鄰","STREET":" ","SECT":" ","MAREA":"竹子\u25A0","LANE":" ","ALLEY":" ","HOUSE_NO":"１４７號","E_COORD97":177523.03,"N_COORD97":2547583.25,"ADDRESS":"竹子\u25A0１４７號","OBJECTID":184474},"geometry":{"x":177523.03000000026,"y":2547583.2500000019}},{"attributes":{"ID":184476,"DIS_CODE":0,"TOWNNAME":"永康區","LI":"復華里","LIN":"4鄰","STREET":"國華街","SECT":" ","MAREA":" ","LANE":"１０２巷","ALLEY":"１２２弄","HOUSE_NO":"５號","E_COORD97":172988.13292500001,"N_COORD97":2546271.0386100002,"ADDRESS":"國華街１０２巷１２２弄５號","OBJECTID":184475},"geometry":{"x":172988.13292500097,"y":2546271.0386120044}},{"attributes":{"ID":184477,"DIS_CODE":0,"TOWNNAME":"永康區","LI":"復華里","LIN":"4鄰","STREET":"國華街","SECT":" ","MAREA":" ","LANE":"１０２巷","ALLEY":"１２２弄","HOUSE_NO":"１１號","E_COORD97":173003.16821100001,"N_COORD97":2546269.5569500001,"ADDRESS":"國華街１０２巷１２２弄１１號","OBJECTID":184476},"geometry":{"x":173003.1682110019,"y":2546269.5569460019}},{"attributes":{"ID":184478,"DIS_CODE":0,"TOWNNAME":"新化區","LI":"知義里","LIN":"10鄰","STREET":" ","SECT":" ","MAREA":"新和庄","LANE":" ","ALLEY":" ","HOUSE_NO":"１８９號之３","E_COORD97":181652.73000000001,"N_COORD97":2547134.2599999998,"ADDRESS":"新和庄１８９號之３","OBJECTID":184477},"geometry":{"x":181652.73000000045,"y":2547134.2599999998}},{"attributes":{"ID":184479,"DIS_CODE":0,"TOWNNAME":"新化區","LI":"知義里","LIN":"10鄰","STREET":" ","SECT":" ","MAREA":"新和庄","LANE":" ","ALLEY":" ","HOUSE_NO":"２３６號","E_COORD97":181270.98999999999,"N_COORD97":2547009.25,"ADDRESS":"新和庄２３６號","OBJECTID":184478},"geometry":{"x":181270.99000000022,"y":2547009.2499999981}},{"attributes":{"ID":184480,"DIS_CODE":0,"TOWNNAME":"新化區","LI":"全興里","LIN":"10鄰","STREET":" ","SECT":" ","MAREA":"竹子\u25A0","LANE":" ","ALLEY":" ","HOUSE_NO":"１７１號","E_COORD97":177423.73000000001,"N_COORD97":2547209.25,"ADDRESS":"竹子\u25A0１７１號","OBJECTID":184479},"geometry":{"x":177423.73000000045,"y":2547209.2499999981}},{"attributes":{"ID":184481,"DIS_CODE":0,"TOWNNAME":"安南區","LI":"淵東里","LIN":"12鄰","STREET":"海佃路","SECT":"四段","MAREA":" ","LANE":"５５巷","ALLEY":"４８弄","HOUSE_NO":"１４號","E_COORD97":165553.16480999999,"N_COORD97":2550610.45138,"ADDRESS":"海佃路四段５５巷４８弄１４號","OBJECTID":184480},"geometry":{"x":165553.16481000092,"y":2550610.4513849989}},{"attributes":{"ID":184482,"DIS_CODE":0,"TOWNNAME":"安南區","LI":"淵東里","LIN":"12鄰","STREET":"海佃路","SECT":"四段","MAREA":" ","LANE":"５５巷","ALLEY":"４８弄","HOUSE_NO":"１６號","E_COORD97":165551.68267899999,"N_COORD97":2550618.91805,"ADDRESS":"海佃路四段５５巷４８弄１６號","OBJECTID":184481},"geometry":{"x":165551.68267900031,"y":2550618.9180469997}},{"attributes":{"ID":184483,"DIS_CODE":0,"TOWNNAME":"永康區","LI":"復華里","LIN":"4鄰","STREET":"國華街","SECT":" ","MAREA":" ","LANE":"１０２巷","ALLEY":"１２２弄","HOUSE_NO":"１３號","E_COORD97":173006.97997399999,"N_COORD97":2546269.7686100001,"ADDRESS":"國華街１０２巷１２２弄１３號","OBJECTID":184482},"geometry":{"x":173006.97997400071,"y":2546269.7686129995}},{"attributes":{"ID":184484,"DIS_CODE":0,"TOWNNAME":"新化區","LI":"全興里","LIN":"10鄰","STREET":" ","SECT":" ","MAREA":"竹子\u25A0","LANE":" ","ALLEY":" ","HOUSE_NO":"１４９號","E_COORD97":177515.03,"N_COORD97":2547590.25,"ADDRESS":"竹子\u25A0１４９號","OBJECTID":184483},"geometry":{"x":177515.03000000119,"y":2547590.2500000019}},{"attributes":{"ID":184485,"DIS_CODE":0,"TOWNNAME":"永康區","LI":"復華里","LIN":"4鄰","STREET":"國華街","SECT":" ","MAREA":" ","LANE":"１０２巷","ALLEY":"１２２弄","HOUSE_NO":"１５號","E_COORD97":173010.15644300001,"N_COORD97":2546270.1919499999,"ADDRESS":"國華街１０２巷１２２弄１５號","OBJECTID":184484},"geometry":{"x":173010.15644299984,"y":2546270.1919460017}},{"attributes":{"ID":184486,"DIS_CODE":0,"TOWNNAME":"鹽水區","LI":"桐寮里","LIN":"3鄰","STREET":" ","SECT":" ","MAREA":"桐寮","LANE":" ","ALLEY":" ","HOUSE_NO":"８號","E_COORD97":173999.20999999999,"N_COORD97":2576633.73,"ADDRESS":"桐寮８號","OBJECTID":184485},"geometry":{"x":173999.21000000183,"y":2576633.7300000004}},{"attributes":{"ID":184487,"DIS_CODE":0,"TOWNNAME":"新化區","LI":"全興里","LIN":"10鄰","STREET":" ","SECT":" ","MAREA":"竹子\u25A0","LANE":" ","ALLEY":" ","HOUSE_NO":"１３０號之３","E_COORD97":177524.98000000001,"N_COORD97":2547621.2599999998,"ADDRESS":"竹子\u25A0１３０號之３","OBJECTID":184486},"geometry":{"x":177524.98000000045,"y":2547621.2599999998}},{"attributes":{"ID":184488,"DIS_CODE":0,"TOWNNAME":"七股區","LI":"義合里","LIN":"11鄰","STREET":" ","SECT":" ","MAREA":"義合","LANE":" ","ALLEY":" ","HOUSE_NO":"８８號之２２","E_COORD97":161621.51999999999,"N_COORD97":2555800.46,"ADDRESS":"義合８８號之２２","OBJECTID":184487},"geometry":{"x":161621.51999999955,"y":2555800.4600000046}},{"attributes":{"ID":184489,"DIS_CODE":0,"TOWNNAME":"永康區","LI":"復華里","LIN":"4鄰","STREET":"國華街","SECT":" ","MAREA":" ","LANE":"１０２巷","ALLEY":"１２２弄","HOUSE_NO":"１７號","E_COORD97":173014.60349899999,"N_COORD97":2546269.9802799998,"ADDRESS":"國華街１０２巷１２２弄１７號","OBJECTID":184488},"geometry":{"x":173014.60349900089,"y":2546269.9802790005}},{"attributes":{"ID":184490,"DIS_CODE":0,"TOWNNAME":"永康區","LI":"復華里","LIN":"4鄰","STREET":"國華街","SECT":" ","MAREA":" ","LANE":"１０２巷","ALLEY":"１２２弄","HOUSE_NO":"１９號","E_COORD97":173019.050556,"N_COORD97":2546270.1919499999,"ADDRESS":"國華街１０２巷１２２弄１９號","OBJECTID":184489},"geometry":{"x":173019.05055600218,"y":2546270.1919460017}},{"attributes":{"ID":184491,"DIS_CODE":0,"TOWNNAME":"永康區","LI":"復華里","LIN":"4鄰","STREET":"國華街","SECT":" ","MAREA":" ","LANE":"１０２巷","ALLEY":"１２２弄","HOUSE_NO":"２１號","E_COORD97":173023.285848,"N_COORD97":2546269.34528,"ADDRESS":"國華街１０２巷１２２弄２１號","OBJECTID":184490},"geometry":{"x":173023.28584800009,"y":2546269.3452800009}},{"attributes":{"ID":184492,"DIS_CODE":0,"TOWNNAME":"永康區","LI":"復華里","LIN":"4鄰","STREET":"國華街","SECT":" ","MAREA":" ","LANE":"１０２巷","ALLEY":"１２２弄","HOUSE_NO":"６號","E_COORD97":172988.97998400001,"N_COORD97":2546257.9152899999,"ADDRESS":"國華街１０２巷１２２弄６號","OBJECTID":184491},"geometry":{"x":172988.97998400033,"y":2546257.9152860027}},{"attributes":{"ID":184493,"DIS_CODE":0,"TOWNNAME":"仁德區","LI":"一甲里","LIN":"11鄰","STREET":"忠義路","SECT":" ","MAREA":" ","LANE":" ","ALLEY":" ","HOUSE_NO":"６號","E_COORD97":174589.37,"N_COORD97":2541661.27,"ADDRESS":"忠義路６號","OBJECTID":184492},"geometry":{"x":174589.37000000011,"y":2541661.2699999996}},{"attributes":{"ID":184494,"DIS_CODE":0,"TOWNNAME":"永康區","LI":"復華里","LIN":"4鄰","STREET":"國華街","SECT":" ","MAREA":" ","LANE":"１０２巷","ALLEY":"１２２弄","HOUSE_NO":"１２號","E_COORD97":173003.59174,"N_COORD97":2546258.5502800001,"ADDRESS":"國華街１０２巷１２２弄１２號","OBJECTID":184493},"geometry":{"x":173003.59174000006,"y":2546258.5502800029}},{"attributes":{"ID":184495,"DIS_CODE":0,"TOWNNAME":"永康區","LI":"復華里","LIN":"4鄰","STREET":"國華街","SECT":" ","MAREA":" ","LANE":"１０２巷","ALLEY":"１２２弄","HOUSE_NO":"１４號","E_COORD97":173007.751838,"N_COORD97":2546258.5039300001,"ADDRESS":"國華街１０２巷１２２弄１４號","OBJECTID":184494},"geometry":{"x":173007.75183799956,"y":2546258.5039320011}},{"attributes":{"ID":184496,"DIS_CODE":0,"TOWNNAME":"仁德區","LI":"中洲里","LIN":"10鄰","STREET":" ","SECT":" ","MAREA":"中洲","LANE":" ","ALLEY":" ","HOUSE_NO":"３０９號之１","E_COORD97":173448.45000000001,"N_COORD97":2534087.0499999998,"ADDRESS":"中洲３０９號之１","OBJECTID":184495},"geometry":{"x":173448.44999999925,"y":2534087.0500000007}},{"attributes":{"ID":184497,"DIS_CODE":0,"TOWNNAME":"七股區","LI":"義合里","LIN":"11鄰","STREET":" ","SECT":" ","MAREA":"義合","LANE":" ","ALLEY":" ","HOUSE_NO":"８８號之２３","E_COORD97":161620.95000000001,"N_COORD97":2555805.7599999998,"ADDRESS":"義合８８號之２３","OBJECTID":184496},"geometry":{"x":161620.95000000019,"y":2555805.7599999998}},{"attributes":{"ID":184498,"DIS_CODE":0,"TOWNNAME":"關廟區","LI":"五甲里","LIN":"20鄰","STREET":"五甲路","SECT":" ","MAREA":" ","LANE":"３６巷","ALLEY":"３９弄","HOUSE_NO":"８號","E_COORD97":181178.07000000001,"N_COORD97":2539193.25,"ADDRESS":"五甲路３６巷３９弄８號","OBJECTID":184497},"geometry":{"x":181178.07000000216,"y":2539193.25}},{"attributes":{"ID":184499,"DIS_CODE":0,"TOWNNAME":"關廟區","LI":"香洋里","LIN":"20鄰","STREET":"中央路","SECT":" ","MAREA":" ","LANE":"５１巷","ALLEY":"１０弄","HOUSE_NO":"２０號","E_COORD97":181476.70999999999,"N_COORD97":2539944.3199999998,"ADDRESS":"中央路５１巷１０弄２０號","OBJECTID":184498},"geometry":{"x":181476.71000000183,"y":2539944.3200000022}},{"attributes":{"ID":184500,"DIS_CODE":0,"TOWNNAME":"七股區","LI":"義合里","LIN":"11鄰","STREET":" ","SECT":" ","MAREA":"義合","LANE":" ","ALLEY":" ","HOUSE_NO":"８８號之２４","E_COORD97":161620.79000000001,"N_COORD97":2555810.8799999999,"ADDRESS":"義合８８號之２４","OBJECTID":184499},"geometry":{"x":161620.79000000097,"y":2555810.879999999}},{"attributes":{"ID":184501,"DIS_CODE":0,"TOWNNAME":"七股區","LI":"義合里","LIN":"11鄰","STREET":" ","SECT":" ","MAREA":"義合","LANE":" ","ALLEY":" ","HOUSE_NO":"８８號之２５","E_COORD97":161641.48000000001,"N_COORD97":2555809.8100000001,"ADDRESS":"義合８８號之２５","OBJECTID":184500},"geometry":{"x":161641.48000000045,"y":2555809.8100000005}},{"attributes":{"ID":184502,"DIS_CODE":0,"TOWNNAME":"七股區","LI":"義合里","LIN":"11鄰","STREET":" ","SECT":" ","MAREA":"義合","LANE":" ","ALLEY":" ","HOUSE_NO":"８８號之２６","E_COORD97":161641.34,"N_COORD97":2555805.1699999999,"ADDRESS":"義合８８號之２６","OBJECTID":184501},"geometry":{"x":161641.33999999985,"y":2555805.1700000018}},{"attributes":{"ID":184503,"DIS_CODE":0,"TOWNNAME":"七股區","LI":"義合里","LIN":"11鄰","STREET":" ","SECT":" ","MAREA":"義合","LANE":" ","ALLEY":" ","HOUSE_NO":"８８號之２７","E_COORD97":161641.51000000001,"N_COORD97":2555800.4399999999,"ADDRESS":"義合８８號之２７","OBJECTID":184502},"geometry":{"x":161641.51000000071,"y":2555800.4400000013}},{"attributes":{"ID":184504,"DIS_CODE":0,"TOWNNAME":"七股區","LI":"義合里","LIN":"11鄰","STREET":" ","SECT":" ","MAREA":"義合","LANE":" ","ALLEY":" ","HOUSE_NO":"８８號之２８","E_COORD97":161641.89999999999,"N_COORD97":2555795.4900000002,"ADDRESS":"義合８８號之２８","OBJECTID":184503},"geometry":{"x":161641.90000000037,"y":2555795.4900000002}},{"attributes":{"ID":184505,"DIS_CODE":0,"TOWNNAME":"七股區","LI":"義合里","LIN":"11鄰","STREET":" ","SECT":" ","MAREA":"義合","LANE":" ","ALLEY":" ","HOUSE_NO":"８８號之２９","E_COORD97":161642.23000000001,"N_COORD97":2555791.0299999998,"ADDRESS":"義合８８號之２９","OBJECTID":184504},"geometry":{"x":161642.23000000138,"y":2555791.0299999993}},{"attributes":{"ID":184506,"DIS_CODE":0,"TOWNNAME":"七股區","LI":"義合里","LIN":"11鄰","STREET":" ","SECT":" ","MAREA":"義合","LANE":" ","ALLEY":" ","HOUSE_NO":"８８號之２","E_COORD97":161640.19,"N_COORD97":2555819.71,"ADDRESS":"義合８８號之２","OBJECTID":184505},"geometry":{"x":161640.19000000227,"y":2555819.7100000028}},{"attributes":{"ID":184507,"DIS_CODE":0,"TOWNNAME":"七股區","LI":"義合里","LIN":"11鄰","STREET":" ","SECT":" ","MAREA":"義合","LANE":" ","ALLEY":" ","HOUSE_NO":"８８號之３０","E_COORD97":161643.73000000001,"N_COORD97":2555786.0899999999,"ADDRESS":"義合８８號之３０","OBJECTID":184506},"geometry":{"x":161643.73000000138,"y":2555786.0900000017}},{"attributes":{"ID":184508,"DIS_CODE":0,"TOWNNAME":"七股區","LI":"義合里","LIN":"11鄰","STREET":" ","SECT":" ","MAREA":"義合","LANE":" ","ALLEY":" ","HOUSE_NO":"８８號之３","E_COORD97":161635.38,"N_COORD97":2555819.8199999998,"ADDRESS":"義合８８號之３","OBJECTID":184507},"geometry":{"x":161635.38000000082,"y":2555819.8200000003}},{"attributes":{"ID":184509,"DIS_CODE":0,"TOWNNAME":"七股區","LI":"義合里","LIN":"11鄰","STREET":" ","SECT":" ","MAREA":"義合","LANE":" ","ALLEY":" ","HOUSE_NO":"８８號之４","E_COORD97":161630.57000000001,"N_COORD97":2555820.02,"ADDRESS":"義合８８號之４","OBJECTID":184508},"geometry":{"x":161630.5700000003,"y":2555820.0200000014}},{"attributes":{"ID":184510,"DIS_CODE":0,"TOWNNAME":"七股區","LI":"義合里","LIN":"11鄰","STREET":" ","SECT":" ","MAREA":"義合","LANE":" ","ALLEY":" ","HOUSE_NO":"８８號之５","E_COORD97":161625.92000000001,"N_COORD97":2555820.0699999998,"ADDRESS":"義合８８號之５","OBJECTID":184509},"geometry":{"x":161625.91999999993,"y":2555820.0700000022}},{"attributes":{"ID":184511,"DIS_CODE":0,"TOWNNAME":"七股區","LI":"義合里","LIN":"11鄰","STREET":" ","SECT":" ","MAREA":"義合","LANE":" ","ALLEY":" ","HOUSE_NO":"８８號之６","E_COORD97":161621.41,"N_COORD97":2555820.23,"ADDRESS":"義合８８號之６","OBJECTID":184510},"geometry":{"x":161621.40999999922,"y":2555820.2300000004}},{"attributes":{"ID":184512,"DIS_CODE":0,"TOWNNAME":"七股區","LI":"義合里","LIN":"11鄰","STREET":" ","SECT":" ","MAREA":"義合","LANE":" ","ALLEY":" ","HOUSE_NO":"８８號之７","E_COORD97":161616.60000000001,"N_COORD97":2555820.23,"ADDRESS":"義合８８號之７","OBJECTID":184511},"geometry":{"x":161616.60000000056,"y":2555820.2300000004}},{"attributes":{"ID":184513,"DIS_CODE":0,"TOWNNAME":"七股區","LI":"義合里","LIN":"11鄰","STREET":" ","SECT":" ","MAREA":"義合","LANE":" ","ALLEY":" ","HOUSE_NO":"８８號之８","E_COORD97":161612,"N_COORD97":2555820.1800000002,"ADDRESS":"義合８８號之８","OBJECTID":184512},"geometry":{"x":161612,"y":2555820.1799999997}},{"attributes":{"ID":184514,"DIS_CODE":0,"TOWNNAME":"關廟區","LI":"香洋里","LIN":"20鄰","STREET":"中央路","SECT":" ","MAREA":" ","LANE":"５１巷","ALLEY":"１０弄","HOUSE_NO":"１０號","E_COORD97":181497.10999999999,"N_COORD97":2539931.3199999998,"ADDRESS":"中央路５１巷１０弄１０號","OBJECTID":184513},"geometry":{"x":181497.11000000127,"y":2539931.3200000022}},{"attributes":{"ID":184515,"DIS_CODE":0,"TOWNNAME":"關廟區","LI":"北花里","LIN":"20鄰","STREET":"中正路","SECT":" ","MAREA":" ","LANE":"７３巷","ALLEY":"３２弄","HOUSE_NO":"１０號","E_COORD97":183662.59,"N_COORD97":2540846.8799999999,"ADDRESS":"中正路７３巷３２弄１０號","OBJECTID":184514},"geometry":{"x":183662.59000000171,"y":2540846.879999999}},{"attributes":{"ID":184516,"DIS_CODE":0,"TOWNNAME":"新營區","LI":"新南里","LIN":"23鄰","STREET":"復興路","SECT":" ","MAREA":" ","LANE":"６２０巷","ALLEY":"３９弄","HOUSE_NO":"３９號","E_COORD97":177930.30864500001,"N_COORD97":2578469.7900299998,"ADDRESS":"復興路６２０巷３９弄３９號","OBJECTID":184515},"geometry":{"x":177930.30864500161,"y":2578469.7900280021}},{"attributes":{"ID":184517,"DIS_CODE":0,"TOWNNAME":"關廟區","LI":"五甲里","LIN":"20鄰","STREET":"五慧街","SECT":" ","MAREA":" ","LANE":"１５巷","ALLEY":"１０弄","HOUSE_NO":"３號","E_COORD97":181236.47,"N_COORD97":2539226.25,"ADDRESS":"五慧街１５巷１０弄３號","OBJECTID":184516},"geometry":{"x":181236.47000000067,"y":2539226.2500000019}},{"attributes":{"ID":184518,"DIS_CODE":0,"TOWNNAME":"永康區","LI":"復華里","LIN":"4鄰","STREET":"國華街","SECT":" ","MAREA":" ","LANE":"１０２巷","ALLEY":"１２２弄","HOUSE_NO":"１６號","E_COORD97":173012.410454,"N_COORD97":2546257.6572699999,"ADDRESS":"國華街１０２巷１２２弄１６號","OBJECTID":184517},"geometry":{"x":173012.41045400035,"y":2546257.6572660003}},{"attributes":{"ID":184519,"DIS_CODE":0,"TOWNNAME":"永康區","LI":"復華里","LIN":"4鄰","STREET":"國華街","SECT":" ","MAREA":" ","LANE":"１０２巷","ALLEY":"１２２弄","HOUSE_NO":"１８號","E_COORD97":173017.06907100001,"N_COORD97":2546257.0222700001,"ADDRESS":"國華街１０２巷１２２弄１８號","OBJECTID":184518},"geometry":{"x":173017.06907100044,"y":2546257.0222670007}},{"attributes":{"ID":184520,"DIS_CODE":0,"TOWNNAME":"永康區","LI":"復華里","LIN":"4鄰","STREET":"國華街","SECT":" ","MAREA":" ","LANE":"１０２巷","ALLEY":"１２２弄","HOUSE_NO":"２０號","E_COORD97":173020.88066600001,"N_COORD97":2546257.2339300001,"ADDRESS":"國華街１０２巷１２２弄２０號","OBJECTID":184519},"geometry":{"x":173020.88066600077,"y":2546257.2339330018}},{"attributes":{"ID":184521,"DIS_CODE":0,"TOWNNAME":"永康區","LI":"復華里","LIN":"4鄰","STREET":"國華街","SECT":" ","MAREA":" ","LANE":"１０２巷","ALLEY":"１２２弄","HOUSE_NO":"２２號","E_COORD97":173025.32752699999,"N_COORD97":2546257.2339300001,"ADDRESS":"國華街１０２巷１２２弄２２號","OBJECTID":184520},"geometry":{"x":173025.3275270015,"y":2546257.2339330018}},{"attributes":{"ID":184522,"DIS_CODE":0,"TOWNNAME":"新營區","LI":"新南里","LIN":"23鄰","STREET":"復興路","SECT":" ","MAREA":" ","LANE":"６２０巷","ALLEY":"１５弄","HOUSE_NO":"３７號","E_COORD97":177935.18193600001,"N_COORD97":2578398.7758999998,"ADDRESS":"復興路６２０巷１５弄３７號","OBJECTID":184521},"geometry":{"x":177935.18193599954,"y":2578398.7759000007}},{"attributes":{"ID":184523,"DIS_CODE":0,"TOWNNAME":"新營區","LI":"新南里","LIN":"23鄰","STREET":"復興路","SECT":" ","MAREA":" ","LANE":"６２０巷","ALLEY":"１５弄","HOUSE_NO":"６號","E_COORD97":178027.18021200001,"N_COORD97":2578395.6538200001,"ADDRESS":"復興路６２０巷１５弄６號","OBJECTID":184522},"geometry":{"x":178027.18021200132,"y":2578395.6538190003}},{"attributes":{"ID":184524,"DIS_CODE":0,"TOWNNAME":"七股區","LI":"義合里","LIN":"11鄰","STREET":" ","SECT":" ","MAREA":"義合","LANE":" ","ALLEY":" ","HOUSE_NO":"８８號之９","E_COORD97":161607.34,"N_COORD97":2555820.3799999999,"ADDRESS":"義合８８號之９","OBJECTID":184523},"geometry":{"x":161607.33999999985,"y":2555820.3800000008}},{"attributes":{"ID":184525,"DIS_CODE":0,"TOWNNAME":"七股區","LI":"義合里","LIN":"11鄰","STREET":" ","SECT":" ","MAREA":"義合","LANE":" ","ALLEY":" ","HOUSE_NO":"８８號","E_COORD97":161649.5,"N_COORD97":2555819.5099999998,"ADDRESS":"義合８８號","OBJECTID":184524},"geometry":{"x":161649.50000000186,"y":2555819.5100000016}},{"attributes":{"ID":184526,"DIS_CODE":0,"TOWNNAME":"七股區","LI":"義合里","LIN":"11鄰","STREET":" ","SECT":" ","MAREA":"義合","LANE":" ","ALLEY":" ","HOUSE_NO":"８９號","E_COORD97":161589.26000000001,"N_COORD97":2555831.79,"ADDRESS":"義合８９號","OBJECTID":184525},"geometry":{"x":161589.25999999978,"y":2555831.7899999991}},{"attributes":{"ID":184527,"DIS_CODE":0,"TOWNNAME":"七股區","LI":"義合里","LIN":"11鄰","STREET":" ","SECT":" ","MAREA":"義合","LANE":" ","ALLEY":" ","HOUSE_NO":"９０號之１","E_COORD97":161491.76000000001,"N_COORD97":2555742.1899999999,"ADDRESS":"義合９０號之１","OBJECTID":184526},"geometry":{"x":161491.76000000071,"y":2555742.1899999995}},{"attributes":{"ID":184528,"DIS_CODE":0,"TOWNNAME":"七股區","LI":"樹林里","LIN":"11鄰","STREET":" ","SECT":" ","MAREA":"樹林","LANE":" ","ALLEY":" ","HOUSE_NO":"１００號之１","E_COORD97":164033.98999999999,"N_COORD97":2556822.4700000002,"ADDRESS":"樹林１００號之１","OBJECTID":184527},"geometry":{"x":164033.99000000115,"y":2556822.4700000007}},{"attributes":{"ID":184529,"DIS_CODE":0,"TOWNNAME":"七股區","LI":"樹林里","LIN":"11鄰","STREET":" ","SECT":" ","MAREA":"樹林","LANE":" ","ALLEY":" ","HOUSE_NO":"１００號之２","E_COORD97":164033.85999999999,"N_COORD97":2556818,"ADDRESS":"樹林１００號之２","OBJECTID":184528},"geometry":{"x":164033.86000000034,"y":2556818}},{"attributes":{"ID":184530,"DIS_CODE":0,"TOWNNAME":"七股區","LI":"樹林里","LIN":"11鄰","STREET":" ","SECT":" ","MAREA":"樹林","LANE":" ","ALLEY":" ","HOUSE_NO":"１００號之３","E_COORD97":164033.72,"N_COORD97":2556813.5299999998,"ADDRESS":"樹林１００號之３","OBJECTID":184529},"geometry":{"x":164033.72000000067,"y":2556813.5300000012}},{"attributes":{"ID":184531,"DIS_CODE":0,"TOWNNAME":"七股區","LI":"樹林里","LIN":"11鄰","STREET":" ","SECT":" ","MAREA":"樹林","LANE":" ","ALLEY":" ","HOUSE_NO":"１００號之５","E_COORD97":164033.59,"N_COORD97":2556809.0600000001,"ADDRESS":"樹林１００號之５","OBJECTID":184530},"geometry":{"x":164033.58999999985,"y":2556809.0600000005}},{"attributes":{"ID":184532,"DIS_CODE":0,"TOWNNAME":"七股區","LI":"樹林里","LIN":"11鄰","STREET":" ","SECT":" ","MAREA":"樹林","LANE":" ","ALLEY":" ","HOUSE_NO":"１００號之６","E_COORD97":164033.45000000001,"N_COORD97":2556804.5800000001,"ADDRESS":"樹林１００號之６","OBJECTID":184531},"geometry":{"x":164033.45000000205,"y":2556804.5800000001}},{"attributes":{"ID":184533,"DIS_CODE":0,"TOWNNAME":"七股區","LI":"樹林里","LIN":"11鄰","STREET":" ","SECT":" ","MAREA":"樹林","LANE":" ","ALLEY":" ","HOUSE_NO":"１００號之７","E_COORD97":164033.32000000001,"N_COORD97":2556800.1099999999,"ADDRESS":"樹林１００號之７","OBJECTID":184532},"geometry":{"x":164033.32000000123,"y":2556800.1099999994}},{"attributes":{"ID":184534,"DIS_CODE":0,"TOWNNAME":"東區","LI":"大智里","LIN":"4鄰","STREET":"生產路","SECT":" ","MAREA":" ","LANE":"５３４巷","ALLEY":"２弄","HOUSE_NO":"２之１號","E_COORD97":171076.247305,"N_COORD97":2540612.8963600001,"ADDRESS":"生產路５３４巷２弄２之１號","OBJECTID":184533},"geometry":{"x":171076.24730500113,"y":2540612.8963559996}},{"attributes":{"ID":184535,"DIS_CODE":0,"TOWNNAME":"安南區","LI":"公\u25A0里","LIN":"8鄰","STREET":"安興街","SECT":" ","MAREA":" ","LANE":"１８１巷","ALLEY":"６１弄","HOUSE_NO":"３２號","E_COORD97":164076.01999999999,"N_COORD97":2551949.1699999999,"ADDRESS":"安興街１８１巷６１弄３２號","OBJECTID":184534},"geometry":{"x":164076.01999999955,"y":2551949.1699999999}},{"attributes":{"ID":184536,"DIS_CODE":0,"TOWNNAME":"北區","LI":"大港里","LIN":"20鄰","STREET":"中華北路","SECT":"一段","MAREA":" ","LANE":"３６２巷","ALLEY":"１弄","HOUSE_NO":"１４號","E_COORD97":166723.29000000001,"N_COORD97":2546079.6600000001,"ADDRESS":"中華北路一段３６２巷１弄１４號","OBJECTID":184535},"geometry":{"x":166723.29000000097,"y":2546079.6600000001}},{"attributes":{"ID":184537,"DIS_CODE":0,"TOWNNAME":"北區","LI":"大港里","LIN":"20鄰","STREET":"中華北路","SECT":"一段","MAREA":" ","LANE":"３６２巷","ALLEY":"１弄","HOUSE_NO":"１５號","E_COORD97":166688.82999999999,"N_COORD97":2546065.73,"ADDRESS":"中華北路一段３６２巷１弄１５號","OBJECTID":184536},"geometry":{"x":166688.83000000194,"y":2546065.7300000023}},{"attributes":{"ID":184538,"DIS_CODE":0,"TOWNNAME":"北區","LI":"大港里","LIN":"20鄰","STREET":"中華北路","SECT":"一段","MAREA":" ","LANE":"３６２巷","ALLEY":"１弄","HOUSE_NO":"１６號","E_COORD97":166726.95999999999,"N_COORD97":2546082.1600000001,"ADDRESS":"中華北路一段３６２巷１弄１６號","OBJECTID":184537},"geometry":{"x":166726.96000000183,"y":2546082.160000002}},{"attributes":{"ID":184539,"DIS_CODE":0,"TOWNNAME":"七股區","LI":"樹林里","LIN":"11鄰","STREET":" ","SECT":" ","MAREA":"樹林","LANE":" ","ALLEY":" ","HOUSE_NO":"１００號之８","E_COORD97":164033.19,"N_COORD97":2556795.6400000001,"ADDRESS":"樹林１００號之８","OBJECTID":184538},"geometry":{"x":164033.19000000041,"y":2556795.6400000043}},{"attributes":{"ID":184540,"DIS_CODE":0,"TOWNNAME":"七股區","LI":"樹林里","LIN":"11鄰","STREET":" ","SECT":" ","MAREA":"樹林","LANE":" ","ALLEY":" ","HOUSE_NO":"１００號之９","E_COORD97":164033.04999999999,"N_COORD97":2556791.1699999999,"ADDRESS":"樹林１００號之９","OBJECTID":184539},"geometry":{"x":164033.05000000075,"y":2556791.1700000037}},{"attributes":{"ID":184541,"DIS_CODE":0,"TOWNNAME":"七股區","LI":"樹林里","LIN":"11鄰","STREET":" ","SECT":" ","MAREA":"樹林","LANE":" ","ALLEY":" ","HOUSE_NO":"１０１號之１","E_COORD97":164002.19,"N_COORD97":2556794.5499999998,"ADDRESS":"樹林１０１號之１","OBJECTID":184540},"geometry":{"x":164002.19000000134,"y":2556794.5500000026}},{"attributes":{"ID":184542,"DIS_CODE":0,"TOWNNAME":"北區","LI":"大港里","LIN":"20鄰","STREET":"中華北路","SECT":"一段","MAREA":" ","LANE":"３６２巷","ALLEY":"１弄","HOUSE_NO":"１７號","E_COORD97":166692.51000000001,"N_COORD97":2546068.5699999998,"ADDRESS":"中華北路一段３６２巷１弄１７號","OBJECTID":184541},"geometry":{"x":166692.51000000164,"y":2546068.570000004}},{"attributes":{"ID":184543,"DIS_CODE":0,"TOWNNAME":"七股區","LI":"樹林里","LIN":"11鄰","STREET":" ","SECT":" ","MAREA":"樹林","LANE":" ","ALLEY":" ","HOUSE_NO":"１０１號之２","E_COORD97":163991,"N_COORD97":2556798.4300000002,"ADDRESS":"樹林１０１號之２","OBJECTID":184542},"geometry":{"x":163991.00000000093,"y":2556798.4299999997}},{"attributes":{"ID":184544,"DIS_CODE":0,"TOWNNAME":"七股區","LI":"樹林里","LIN":"11鄰","STREET":" ","SECT":" ","MAREA":"樹林","LANE":" ","ALLEY":" ","HOUSE_NO":"１０１號之３","E_COORD97":163986.04999999999,"N_COORD97":2556798.9399999999,"ADDRESS":"樹林１０１號之３","OBJECTID":184543},"geometry":{"x":163986.04999999981,"y":2556798.9400000032}},{"attributes":{"ID":184545,"DIS_CODE":0,"TOWNNAME":"七股區","LI":"樹林里","LIN":"11鄰","STREET":" ","SECT":" ","MAREA":"樹林","LANE":" ","ALLEY":" ","HOUSE_NO":"１０１號","E_COORD97":163993.31,"N_COORD97":2556828.6499999999,"ADDRESS":"樹林１０１號","OBJECTID":184544},"geometry":{"x":163993.31000000052,"y":2556828.6500000004}},{"attributes":{"ID":184546,"DIS_CODE":0,"TOWNNAME":"七股區","LI":"樹林里","LIN":"11鄰","STREET":" ","SECT":" ","MAREA":"樹林","LANE":" ","ALLEY":" ","HOUSE_NO":"１０２號","E_COORD97":163977.19,"N_COORD97":2556836.8199999998,"ADDRESS":"樹林１０２號","OBJECTID":184545},"geometry":{"x":163977.19000000041,"y":2556836.8200000003}},{"attributes":{"ID":184547,"DIS_CODE":0,"TOWNNAME":"七股區","LI":"樹林里","LIN":"11鄰","STREET":" ","SECT":" ","MAREA":"樹林","LANE":" ","ALLEY":" ","HOUSE_NO":"１０３號","E_COORD97":163990.51999999999,"N_COORD97":2556866.3100000001,"ADDRESS":"樹林１０３號","OBJECTID":184546},"geometry":{"x":163990.52000000048,"y":2556866.3100000024}},{"attributes":{"ID":184548,"DIS_CODE":0,"TOWNNAME":"七股區","LI":"樹林里","LIN":"11鄰","STREET":" ","SECT":" ","MAREA":"樹林","LANE":" ","ALLEY":" ","HOUSE_NO":"１０４號","E_COORD97":163969.01000000001,"N_COORD97":2556869.23,"ADDRESS":"樹林１０４號","OBJECTID":184547},"geometry":{"x":163969.01000000071,"y":2556869.2300000042}},{"attributes":{"ID":184549,"DIS_CODE":0,"TOWNNAME":"七股區","LI":"樹林里","LIN":"11鄰","STREET":" ","SECT":" ","MAREA":"樹林","LANE":" ","ALLEY":" ","HOUSE_NO":"１０５號","E_COORD97":163937.16,"N_COORD97":2556848.4199999999,"ADDRESS":"樹林１０５號","OBJECTID":184548},"geometry":{"x":163937.16000000201,"y":2556848.4200000018}},{"attributes":{"ID":184550,"DIS_CODE":0,"TOWNNAME":"七股區","LI":"樹林里","LIN":"11鄰","STREET":" ","SECT":" ","MAREA":"樹林","LANE":" ","ALLEY":" ","HOUSE_NO":"９６號之１５","E_COORD97":164099.98999999999,"N_COORD97":2556899.2000000002,"ADDRESS":"樹林９６號之１５","OBJECTID":184549},"geometry":{"x":164099.99000000115,"y":2556899.2000000011}},{"attributes":{"ID":184551,"DIS_CODE":0,"TOWNNAME":"七股區","LI":"樹林里","LIN":"11鄰","STREET":" ","SECT":" ","MAREA":"樹林","LANE":" ","ALLEY":" ","HOUSE_NO":"９６號之１６","E_COORD97":164093.45000000001,"N_COORD97":2556899.3399999999,"ADDRESS":"樹林９６號之１６","OBJECTID":184550},"geometry":{"x":164093.45000000112,"y":2556899.3400000017}},{"attributes":{"ID":184552,"DIS_CODE":0,"TOWNNAME":"七股區","LI":"樹林里","LIN":"11鄰","STREET":" ","SECT":" ","MAREA":"樹林","LANE":" ","ALLEY":" ","HOUSE_NO":"９６號之１７","E_COORD97":164091.57999999999,"N_COORD97":2556909.8900000001,"ADDRESS":"樹林９６號之１７","OBJECTID":184551},"geometry":{"x":164091.58000000007,"y":2556909.8900000025}},{"attributes":{"ID":184553,"DIS_CODE":0,"TOWNNAME":"南區","LI":"再興里","LIN":"10鄰","STREET":"新城街","SECT":" ","MAREA":" ","LANE":" ","ALLEY":" ","HOUSE_NO":"３４號","E_COORD97":167195.10000000001,"N_COORD97":2542242.0600000001,"ADDRESS":"新城街３４號","OBJECTID":184552},"geometry":{"x":167195.10000000149,"y":2542242.0600000024}},{"attributes":{"ID":184554,"DIS_CODE":0,"TOWNNAME":"南區","LI":"再興里","LIN":"10鄰","STREET":"新城街","SECT":" ","MAREA":" ","LANE":" ","ALLEY":" ","HOUSE_NO":"３５號","E_COORD97":167143.35999999999,"N_COORD97":2542251.71,"ADDRESS":"新城街３５號","OBJECTID":184553},"geometry":{"x":167143.3600000022,"y":2542251.7100000028}},{"attributes":{"ID":184555,"DIS_CODE":0,"TOWNNAME":"南區","LI":"再興里","LIN":"10鄰","STREET":"新城街","SECT":" ","MAREA":" ","LANE":" ","ALLEY":" ","HOUSE_NO":"３６號","E_COORD97":167190.91,"N_COORD97":2542238.29,"ADDRESS":"新城街３６號","OBJECTID":184554},"geometry":{"x":167190.91000000108,"y":2542238.290000001}},{"attributes":{"ID":184556,"DIS_CODE":0,"TOWNNAME":"南區","LI":"再興里","LIN":"10鄰","STREET":"新城街","SECT":" ","MAREA":" ","LANE":" ","ALLEY":" ","HOUSE_NO":"３７號","E_COORD97":167143.98999999999,"N_COORD97":2542256.8300000001,"ADDRESS":"新城街３７號","OBJECTID":184555},"geometry":{"x":167143.99000000209,"y":2542256.8300000019}},{"attributes":{"ID":184557,"DIS_CODE":0,"TOWNNAME":"南區","LI":"再興里","LIN":"10鄰","STREET":"新城街","SECT":" ","MAREA":" ","LANE":" ","ALLEY":" ","HOUSE_NO":"３８號","E_COORD97":167185.88,"N_COORD97":2542237.6699999999,"ADDRESS":"新城街３８號","OBJECTID":184556},"geometry":{"x":167185.87999999989,"y":2542237.6700000018}},{"attributes":{"ID":184558,"DIS_CODE":0,"TOWNNAME":"南區","LI":"再興里","LIN":"10鄰","STREET":"新城街","SECT":" ","MAREA":" ","LANE":" ","ALLEY":" ","HOUSE_NO":"４０號","E_COORD97":167168.69,"N_COORD97":2542236.7200000002,"ADDRESS":"新城街４０號","OBJECTID":184557},"geometry":{"x":167168.69000000134,"y":2542236.7200000044}},{"attributes":{"ID":184559,"DIS_CODE":0,"TOWNNAME":"安南區","LI":"州北里","LIN":"25鄰","STREET":"安和路","SECT":"五段","MAREA":" ","LANE":"１７１巷","ALLEY":"１７弄","HOUSE_NO":"３１之１號","E_COORD97":169830.70371,"N_COORD97":2551762.60714,"ADDRESS":"安和路五段１７１巷１７弄３１之１號","OBJECTID":184558},"geometry":{"x":169830.70371000096,"y":2551762.6071400028}},{"attributes":{"ID":184560,"DIS_CODE":0,"TOWNNAME":"七股區","LI":"樹林里","LIN":"11鄰","STREET":" ","SECT":" ","MAREA":"樹林","LANE":" ","ALLEY":" ","HOUSE_NO":"９６號之１８","E_COORD97":164091.59,"N_COORD97":2556915.1600000001,"ADDRESS":"樹林９６號之１８","OBJECTID":184559},"geometry":{"x":164091.59000000171,"y":2556915.160000002}},{"attributes":{"ID":184561,"DIS_CODE":0,"TOWNNAME":"七股區","LI":"樹林里","LIN":"11鄰","STREET":" ","SECT":" ","MAREA":"樹林","LANE":" ","ALLEY":" ","HOUSE_NO":"９６號之１９","E_COORD97":164091.60999999999,"N_COORD97":2556920.4199999999,"ADDRESS":"樹林９６號之１９","OBJECTID":184560},"geometry":{"x":164091.61000000034,"y":2556920.4199999999}},{"attributes":{"ID":184562,"DIS_CODE":0,"TOWNNAME":"安南區","LI":"四草里","LIN":"5鄰","STREET":"大眾五街","SECT":" ","MAREA":" ","LANE":" ","ALLEY":" ","HOUSE_NO":"７６號","E_COORD97":160831.79900999999,"N_COORD97":2546224.7934099999,"ADDRESS":"大眾五街７６號","OBJECTID":184561},"geometry":{"x":160831.79901000019,"y":2546224.7934060004}},{"attributes":{"ID":184563,"DIS_CODE":0,"TOWNNAME":"七股區","LI":"樹林里","LIN":"11鄰","STREET":" ","SECT":" ","MAREA":"樹林","LANE":" ","ALLEY":" ","HOUSE_NO":"９６號之１","E_COORD97":164112.76999999999,"N_COORD97":2556927.75,"ADDRESS":"樹林９６號之１","OBJECTID":184562},"geometry":{"x":164112.77000000048,"y":2556927.7500000019}},{"attributes":{"ID":184564,"DIS_CODE":0,"TOWNNAME":"南區","LI":"佛壇里","LIN":"10鄰","STREET":"灣裡路","SECT":" ","MAREA":" ","LANE":" ","ALLEY":" ","HOUSE_NO":"４９３號","E_COORD97":166299.45999999999,"N_COORD97":2535789.1499999999,"ADDRESS":"灣裡路４９３號","OBJECTID":184563},"geometry":{"x":166299.45999999996,"y":2535789.1500000022}},{"attributes":{"ID":184565,"DIS_CODE":0,"TOWNNAME":"南區","LI":"佛壇里","LIN":"10鄰","STREET":"灣裡路","SECT":" ","MAREA":" ","LANE":" ","ALLEY":" ","HOUSE_NO":"５０７號","E_COORD97":166300.73999999999,"N_COORD97":2535761.1200000001,"ADDRESS":"灣裡路５０７號","OBJECTID":184564},"geometry":{"x":166300.74000000022,"y":2535761.120000001}},{"attributes":{"ID":184566,"DIS_CODE":0,"TOWNNAME":"南區","LI":"佛壇里","LIN":"10鄰","STREET":"灣裡路","SECT":" ","MAREA":" ","LANE":" ","ALLEY":" ","HOUSE_NO":"４５３號","E_COORD97":166270.45999999999,"N_COORD97":2535906.8700000001,"ADDRESS":"灣裡路４５３號","OBJECTID":184565},"geometry":{"x":166270.45999999996,"y":2535906.8700000029}},{"attributes":{"ID":184567,"DIS_CODE":0,"TOWNNAME":"南區","LI":"佛壇里","LIN":"10鄰","STREET":"灣裡路","SECT":" ","MAREA":" ","LANE":" ","ALLEY":" ","HOUSE_NO":"４５７號","E_COORD97":166284.75,"N_COORD97":2535896.8599999999,"ADDRESS":"灣裡路４５７號","OBJECTID":184566},"geometry":{"x":166284.75000000093,"y":2535896.8599999994}},{"attributes":{"ID":184568,"DIS_CODE":0,"TOWNNAME":"南區","LI":"佛壇里","LIN":"10鄰","STREET":"灣裡路","SECT":" ","MAREA":" ","LANE":" ","ALLEY":" ","HOUSE_NO":"４５９號","E_COORD97":166271.10000000001,"N_COORD97":2535890.8900000001,"ADDRESS":"灣裡路４５９號","OBJECTID":184567},"geometry":{"x":166271.09999999963,"y":2535890.8900000006}},{"attributes":{"ID":184569,"DIS_CODE":0,"TOWNNAME":"南區","LI":"佛壇里","LIN":"10鄰","STREET":"灣裡路","SECT":" ","MAREA":" ","LANE":" ","ALLEY":" ","HOUSE_NO":"４９１號","E_COORD97":166298.12,"N_COORD97":2535792.5899999999,"ADDRESS":"灣裡路４９１號","OBJECTID":184568},"geometry":{"x":166298.12000000011,"y":2535792.5900000017}},{"attributes":{"ID":184570,"DIS_CODE":0,"TOWNNAME":"南區","LI":"佛壇里","LIN":"10鄰","STREET":"灣裡路","SECT":" ","MAREA":" ","LANE":" ","ALLEY":" ","HOUSE_NO":"４９７號","E_COORD97":166299.25,"N_COORD97":2535779.9900000002,"ADDRESS":"灣裡路４９７號","OBJECTID":184569},"geometry":{"x":166299.25,"y":2535779.9900000021}},{"attributes":{"ID":184571,"DIS_CODE":0,"TOWNNAME":"仁德區","LI":"仁愛里","LIN":"1鄰","STREET":" ","SECT":" ","MAREA":"仁愛","LANE":" ","ALLEY":" ","HOUSE_NO":"１６號之１","E_COORD97":170319.43427900001,"N_COORD97":2540171.1919999998,"ADDRESS":"仁愛１６號之１","OBJECTID":184570},"geometry":{"x":170319.43427899946,"y":2540171.1919999998}},{"attributes":{"ID":184572,"DIS_CODE":0,"TOWNNAME":"北區","LI":"大港里","LIN":"20鄰","STREET":"中華北路","SECT":"一段","MAREA":" ","LANE":"３６２巷","ALLEY":"１弄","HOUSE_NO":"１８號","E_COORD97":166730.81,"N_COORD97":2546085,"ADDRESS":"中華北路一段３６２巷１弄１８號","OBJECTID":184571},"geometry":{"x":166730.81000000145,"y":2546085}},{"attributes":{"ID":184573,"DIS_CODE":0,"TOWNNAME":"北區","LI":"大港里","LIN":"20鄰","STREET":"中華北路","SECT":"一段","MAREA":" ","LANE":"３６２巷","ALLEY":"１弄","HOUSE_NO":"１９號","E_COORD97":166696.51999999999,"N_COORD97":2546071.3999999999,"ADDRESS":"中華北路一段３６２巷１弄１９號","OBJECTID":184572},"geometry":{"x":166696.51999999955,"y":2546071.4000000022}},{"attributes":{"ID":184574,"DIS_CODE":0,"TOWNNAME":"北區","LI":"大港里","LIN":"20鄰","STREET":"中華北路","SECT":"一段","MAREA":" ","LANE":"３６２巷","ALLEY":"１弄","HOUSE_NO":"３７號","E_COORD97":166728.63,"N_COORD97":2546095.5099999998,"ADDRESS":"中華北路一段３６２巷１弄３７號","OBJECTID":184573},"geometry":{"x":166728.62999999989,"y":2546095.5100000035}},{"attributes":{"ID":184575,"DIS_CODE":0,"TOWNNAME":"北區","LI":"大港里","LIN":"20鄰","STREET":"中華北路","SECT":"一段","MAREA":" ","LANE":"３６２巷","ALLEY":"１弄","HOUSE_NO":"３９號","E_COORD97":166732.64000000001,"N_COORD97":2546098.6800000002,"ADDRESS":"中華北路一段３６２巷１弄３９號","OBJECTID":184574},"geometry":{"x":166732.6400000006,"y":2546098.6800000016}},{"attributes":{"ID":184576,"DIS_CODE":0,"TOWNNAME":"北區","LI":"大港里","LIN":"20鄰","STREET":"中華北路","SECT":"一段","MAREA":" ","LANE":"３６２巷","ALLEY":"１弄","HOUSE_NO":"３號","E_COORD97":166667.45000000001,"N_COORD97":2546049.21,"ADDRESS":"中華北路一段３６２巷１弄３號","OBJECTID":184575},"geometry":{"x":166667.45000000019,"y":2546049.2100000028}},{"attributes":{"ID":184577,"DIS_CODE":0,"TOWNNAME":"北區","LI":"大港里","LIN":"20鄰","STREET":"中華北路","SECT":"一段","MAREA":" ","LANE":"３６２巷","ALLEY":"１弄","HOUSE_NO":"４１號","E_COORD97":166736.14999999999,"N_COORD97":2546100.3500000001,"ADDRESS":"中華北路一段３６２巷１弄４１號","OBJECTID":184576},"geometry":{"x":166736.15000000224,"y":2546100.3500000015}},{"attributes":{"ID":184578,"DIS_CODE":0,"TOWNNAME":"北區","LI":"大港里","LIN":"20鄰","STREET":"中華北路","SECT":"一段","MAREA":" ","LANE":"３６２巷","ALLEY":"１弄","HOUSE_NO":"４３號","E_COORD97":166739.66,"N_COORD97":2546103.3500000001,"ADDRESS":"中華北路一段３６２巷１弄４３號","OBJECTID":184577},"geometry":{"x":166739.66000000108,"y":2546103.3500000034}},{"attributes":{"ID":184579,"DIS_CODE":0,"TOWNNAME":"北區","LI":"大港里","LIN":"20鄰","STREET":"中華北路","SECT":"一段","MAREA":" ","LANE":"３６２巷","ALLEY":"１弄","HOUSE_NO":"４號","E_COORD97":166705.23999999999,"N_COORD97":2546066.1400000001,"ADDRESS":"中華北路一段３６２巷１弄４號","OBJECTID":184578},"geometry":{"x":166705.24000000115,"y":2546066.1400000025}},{"attributes":{"ID":184580,"DIS_CODE":0,"TOWNNAME":"仁德區","LI":"中洲里","LIN":"7鄰","STREET":" ","SECT":" ","MAREA":"中洲","LANE":" ","ALLEY":" ","HOUSE_NO":"２７６號之２","E_COORD97":173182.76999999999,"N_COORD97":2534261.29,"ADDRESS":"中洲２７６號之２","OBJECTID":184579},"geometry":{"x":173182.76999999955,"y":2534261.290000001}},{"attributes":{"ID":184581,"DIS_CODE":0,"TOWNNAME":"七股區","LI":"樹林里","LIN":"11鄰","STREET":" ","SECT":" ","MAREA":"樹林","LANE":" ","ALLEY":" ","HOUSE_NO":"９６號之２０","E_COORD97":164091.63,"N_COORD97":2556925.6899999999,"ADDRESS":"樹林９６號之２０","OBJECTID":184580},"geometry":{"x":164091.63000000082,"y":2556925.6899999995}},{"attributes":{"ID":184582,"DIS_CODE":0,"TOWNNAME":"七股區","LI":"樹林里","LIN":"11鄰","STREET":" ","SECT":" ","MAREA":"樹林","LANE":" ","ALLEY":" ","HOUSE_NO":"９６號之２１","E_COORD97":164091.64000000001,"N_COORD97":2556930.96,"ADDRESS":"樹林９６號之２１","OBJECTID":184581},"geometry":{"x":164091.6400000006,"y":2556930.9600000009}},{"attributes":{"ID":184583,"DIS_CODE":0,"TOWNNAME":"七股區","LI":"樹林里","LIN":"11鄰","STREET":" ","SECT":" ","MAREA":"樹林","LANE":" ","ALLEY":" ","HOUSE_NO":"９６號之２２","E_COORD97":164091.66,"N_COORD97":2556936.23,"ADDRESS":"樹林９６號之２２","OBJECTID":184582},"geometry":{"x":164091.66000000108,"y":2556936.2300000004}},{"attributes":{"ID":184584,"DIS_CODE":0,"TOWNNAME":"七股區","LI":"樹林里","LIN":"11鄰","STREET":" ","SECT":" ","MAREA":"樹林","LANE":" ","ALLEY":" ","HOUSE_NO":"９６號之２３","E_COORD97":164091.67999999999,"N_COORD97":2556941.5,"ADDRESS":"樹林９６號之２３","OBJECTID":184583},"geometry":{"x":164091.6799999997,"y":2556941.5000000037}},{"attributes":{"ID":184585,"DIS_CODE":0,"TOWNNAME":"七股區","LI":"樹林里","LIN":"11鄰","STREET":" ","SECT":" ","MAREA":"樹林","LANE":" ","ALLEY":" ","HOUSE_NO":"９６號之２４","E_COORD97":164091.69,"N_COORD97":2556946.77,"ADDRESS":"樹林９６號之２４","OBJECTID":184584},"geometry":{"x":164091.69000000134,"y":2556946.7700000014}},{"attributes":{"ID":184586,"DIS_CODE":0,"TOWNNAME":"北區","LI":"大港里","LIN":"20鄰","STREET":"中華北路","SECT":"一段","MAREA":" ","LANE":"３６２巷","ALLEY":"１弄","HOUSE_NO":"５號","E_COORD97":166670.95000000001,"N_COORD97":2546052.3799999999,"ADDRESS":"中華北路一段３６２巷１弄５號","OBJECTID":184585},"geometry":{"x":166670.95000000019,"y":2546052.3800000008}},{"attributes":{"ID":184587,"DIS_CODE":0,"TOWNNAME":"北區","LI":"大港里","LIN":"20鄰","STREET":"中華北路","SECT":"一段","MAREA":" ","LANE":"３６２巷","ALLEY":"１弄","HOUSE_NO":"６號","E_COORD97":166709.25,"N_COORD97":2546068.6400000001,"ADDRESS":"中華北路一段３６２巷１弄６號","OBJECTID":184586},"geometry":{"x":166709.25,"y":2546068.6400000025}},{"attributes":{"ID":184588,"DIS_CODE":0,"TOWNNAME":"北區","LI":"大港里","LIN":"20鄰","STREET":"中華北路","SECT":"一段","MAREA":" ","LANE":"３６２巷","ALLEY":"１弄","HOUSE_NO":"７號","E_COORD97":166674.63,"N_COORD97":2546054.5499999998,"ADDRESS":"中華北路一段３６２巷１弄７號","OBJECTID":184587},"geometry":{"x":166674.62999999896,"y":2546054.5500000007}},{"attributes":{"ID":184589,"DIS_CODE":0,"TOWNNAME":"七股區","LI":"樹林里","LIN":"11鄰","STREET":" ","SECT":" ","MAREA":"樹林","LANE":" ","ALLEY":" ","HOUSE_NO":"９６號之２５","E_COORD97":164091.70999999999,"N_COORD97":2556952.04,"ADDRESS":"樹林９６號之２５","OBJECTID":184588},"geometry":{"x":164091.70999999996,"y":2556952.040000001}},{"attributes":{"ID":184590,"DIS_CODE":0,"TOWNNAME":"七股區","LI":"樹林里","LIN":"11鄰","STREET":" ","SECT":" ","MAREA":"樹林","LANE":" ","ALLEY":" ","HOUSE_NO":"９６號之２６","E_COORD97":164091.73000000001,"N_COORD97":2556957.3100000001,"ADDRESS":"樹林９６號之２６","OBJECTID":184589},"geometry":{"x":164091.73000000138,"y":2556957.3100000024}},{"attributes":{"ID":184591,"DIS_CODE":0,"TOWNNAME":"七股區","LI":"樹林里","LIN":"11鄰","STREET":" ","SECT":" ","MAREA":"樹林","LANE":" ","ALLEY":" ","HOUSE_NO":"９６號之２７","E_COORD97":164087.25,"N_COORD97":2556964.7999999998,"ADDRESS":"樹林９６號之２７","OBJECTID":184590},"geometry":{"x":164087.25000000186,"y":2556964.8000000026}},{"attributes":{"ID":184592,"DIS_CODE":0,"TOWNNAME":"七股區","LI":"樹林里","LIN":"11鄰","STREET":" ","SECT":" ","MAREA":"樹林","LANE":" ","ALLEY":" ","HOUSE_NO":"９６號之２８","E_COORD97":164087.23999999999,"N_COORD97":2556969.0800000001,"ADDRESS":"樹林９６號之２８","OBJECTID":184591},"geometry":{"x":164087.24000000022,"y":2556969.0800000019}},{"attributes":{"ID":184593,"DIS_CODE":0,"TOWNNAME":"七股區","LI":"樹林里","LIN":"11鄰","STREET":" ","SECT":" ","MAREA":"樹林","LANE":" ","ALLEY":" ","HOUSE_NO":"９６號之２９","E_COORD97":164087.23000000001,"N_COORD97":2556973.3700000001,"ADDRESS":"樹林９６號之２９","OBJECTID":184592},"geometry":{"x":164087.23000000045,"y":2556973.370000001}},{"attributes":{"ID":184594,"DIS_CODE":0,"TOWNNAME":"七股區","LI":"樹林里","LIN":"11鄰","STREET":" ","SECT":" ","MAREA":"樹林","LANE":" ","ALLEY":" ","HOUSE_NO":"９６號之３０","E_COORD97":164087.20999999999,"N_COORD97":2556977.6499999999,"ADDRESS":"樹林９６號之３０","OBJECTID":184593},"geometry":{"x":164087.20999999996,"y":2556977.6500000004}},{"attributes":{"ID":184595,"DIS_CODE":0,"TOWNNAME":"玉井區","LI":"玉田里","LIN":"24鄰","STREET":"新興街","SECT":" ","MAREA":" ","LANE":" ","ALLEY":" ","HOUSE_NO":"２９號","E_COORD97":195072.20999999999,"N_COORD97":2557864.2400000002,"ADDRESS":"新興街２９號","OBJECTID":184594},"geometry":{"x":195072.21000000183,"y":2557864.2400000002}},{"attributes":{"ID":184596,"DIS_CODE":0,"TOWNNAME":"北區","LI":"大港里","LIN":"20鄰","STREET":"中華北路","SECT":"一段","MAREA":" ","LANE":"３６２巷","ALLEY":"１弄","HOUSE_NO":"８號","E_COORD97":166713.10000000001,"N_COORD97":2546071.6499999999,"ADDRESS":"中華北路一段３６２巷１弄８號","OBJECTID":184595},"geometry":{"x":166713.09999999963,"y":2546071.6500000041}},{"attributes":{"ID":184597,"DIS_CODE":0,"TOWNNAME":"北區","LI":"大港里","LIN":"20鄰","STREET":"中華北路","SECT":"一段","MAREA":" ","LANE":"３６２巷","ALLEY":"１弄","HOUSE_NO":"９號","E_COORD97":166677.79999999999,"N_COORD97":2546057.7200000002,"ADDRESS":"中華北路一段３６２巷１弄９號","OBJECTID":184596},"geometry":{"x":166677.79999999981,"y":2546057.7200000044}},{"attributes":{"ID":184598,"DIS_CODE":0,"TOWNNAME":"仁德區","LI":"太子里","LIN":"14鄰","STREET":"長興路","SECT":" ","MAREA":" ","LANE":"８７巷","ALLEY":"２１弄","HOUSE_NO":"２之８號","E_COORD97":174080.91714100001,"N_COORD97":2543783.8922000001,"ADDRESS":"長興路８７巷２１弄２之８號","OBJECTID":184597},"geometry":{"x":174080.91714100074,"y":2543783.8922039997}},{"attributes":{"ID":184599,"DIS_CODE":0,"TOWNNAME":"仁德區","LI":"太子里","LIN":"14鄰","STREET":"長興路","SECT":" ","MAREA":" ","LANE":"８７巷","ALLEY":"２１弄","HOUSE_NO":"２之９號","E_COORD97":174085.999668,"N_COORD97":2543783.2571999999,"ADDRESS":"長興路８７巷２１弄２之９號","OBJECTID":184598},"geometry":{"x":174085.9996680012,"y":2543783.2572039999}},{"attributes":{"ID":184600,"DIS_CODE":0,"TOWNNAME":"七股區","LI":"樹林里","LIN":"11鄰","STREET":" ","SECT":" ","MAREA":"樹林","LANE":" ","ALLEY":" ","HOUSE_NO":"９６號之３１","E_COORD97":164087.20000000001,"N_COORD97":2556981.9300000002,"ADDRESS":"樹林９６號之３１","OBJECTID":184599},"geometry":{"x":164087.20000000019,"y":2556981.9299999997}},{"attributes":{"ID":184601,"DIS_CODE":0,"TOWNNAME":"七股區","LI":"樹林里","LIN":"11鄰","STREET":" ","SECT":" ","MAREA":"樹林","LANE":" ","ALLEY":" ","HOUSE_NO":"９６號之３２","E_COORD97":164087.19,"N_COORD97":2556986.2200000002,"ADDRESS":"樹林９６號之３２","OBJECTID":184600},"geometry":{"x":164087.19000000134,"y":2556986.2200000025}}]}