{"displayFieldName":"TOWNNAME","fieldAliases":{"ID":"ID","DIS_CODE":"DIS_CODE","TOWNNAME":"TOWNNAME","LI":"LI","LIN":"LIN","STREET":"STREET","SECT":"SECT","MAREA":"MAREA","LANE":"LANE","ALLEY":"ALLEY","HOUSE_NO":"HOUSE_NO","E_COORD97":"E_COORD97","N_COORD97":"N_COORD97","ADDRESS":"ADDRESS","OBJECTID":"OBJECTID"},"geometryType":"esriGeometryPoint","spatialReference":{"wkid":102443,"latestWkid":3826},"fields":[{"name":"ID","type":"esriFieldTypeDouble","alias":"ID"},{"name":"DIS_CODE","type":"esriFieldTypeInteger","alias":"DIS_CODE"},{"name":"TOWNNAME","type":"esriFieldTypeString","alias":"TOWNNAME","length":8},{"name":"LI","type":"esriFieldTypeString","alias":"LI","length":8},{"name":"LIN","type":"esriFieldTypeString","alias":"LIN","length":12},{"name":"STREET","type":"esriFieldTypeString","alias":"STREET","length":20},{"name":"SECT","type":"esriFieldTypeString","alias":"SECT","length":8},{"name":"MAREA","type":"esriFieldTypeString","alias":"MAREA","length":12},{"name":"LANE","type":"esriFieldTypeString","alias":"LANE","length":10},{"name":"ALLEY","type":"esriFieldTypeString","alias":"ALLEY","length":10},{"name":"HOUSE_NO","type":"esriFieldTypeString","alias":"HOUSE_NO","length":20},{"name":"E_COORD97","type":"esriFieldTypeDouble","alias":"E_COORD97"},{"name":"N_COORD97","type":"esriFieldTypeDouble","alias":"N_COORD97"},{"name":"ADDRESS","type":"esriFieldTypeString","alias":"ADDRESS","length":50},{"name":"OBJECTID","type":"esriFieldTypeOID","alias":"OBJECTID"}],"features":[{"attributes":{"ID":182202,"DIS_CODE":0,"TOWNNAME":"東山區","LI":"聖賢里","LIN":"10鄰","STREET":" ","SECT":" ","MAREA":"田尾","LANE":" ","ALLEY":" ","HOUSE_NO":"１號之２","E_COORD97":185029.92999999999,"N_COORD97":2578280.5299999998,"ADDRESS":"田尾１號之２","OBJECTID":182201},"geometry":{"x":185029.93000000063,"y":2578280.5300000012}},{"attributes":{"ID":182203,"DIS_CODE":0,"TOWNNAME":"安南區","LI":"頂安里","LIN":"14鄰","STREET":"長溪路","SECT":"一段","MAREA":" ","LANE":"４０７巷","ALLEY":"３２弄","HOUSE_NO":"２０號","E_COORD97":168481.20000000001,"N_COORD97":2548829.8500000001,"ADDRESS":"長溪路一段４０７巷３２弄２０號","OBJECTID":182202},"geometry":{"x":168481.20000000019,"y":2548829.8500000015}},{"attributes":{"ID":182204,"DIS_CODE":0,"TOWNNAME":"安南區","LI":"頂安里","LIN":"14鄰","STREET":"長溪路","SECT":"一段","MAREA":" ","LANE":"４０７巷","ALLEY":"３２弄","HOUSE_NO":"２２號","E_COORD97":168477,"N_COORD97":2548831.0899999999,"ADDRESS":"長溪路一段４０７巷３２弄２２號","OBJECTID":182203},"geometry":{"x":168477,"y":2548831.0900000036}},{"attributes":{"ID":182205,"DIS_CODE":0,"TOWNNAME":"東山區","LI":"聖賢里","LIN":"10鄰","STREET":" ","SECT":" ","MAREA":"田尾","LANE":" ","ALLEY":" ","HOUSE_NO":"１號","E_COORD97":185063.64999999999,"N_COORD97":2578287.3799999999,"ADDRESS":"田尾１號","OBJECTID":182204},"geometry":{"x":185063.6500000013,"y":2578287.3800000027}},{"attributes":{"ID":182206,"DIS_CODE":0,"TOWNNAME":"東山區","LI":"聖賢里","LIN":"10鄰","STREET":" ","SECT":" ","MAREA":"田尾","LANE":" ","ALLEY":" ","HOUSE_NO":"２號之１","E_COORD97":185057.01999999999,"N_COORD97":2578209.54,"ADDRESS":"田尾２號之１","OBJECTID":182205},"geometry":{"x":185057.01999999955,"y":2578209.540000001}},{"attributes":{"ID":182207,"DIS_CODE":0,"TOWNNAME":"東山區","LI":"聖賢里","LIN":"10鄰","STREET":" ","SECT":" ","MAREA":"田尾","LANE":" ","ALLEY":" ","HOUSE_NO":"２號之２","E_COORD97":185083.76000000001,"N_COORD97":2578234.5899999999,"ADDRESS":"田尾２號之２","OBJECTID":182206},"geometry":{"x":185083.76000000071,"y":2578234.5899999999}},{"attributes":{"ID":182208,"DIS_CODE":0,"TOWNNAME":"安南區","LI":"長安里","LIN":"4鄰","STREET":"長溪路","SECT":"三段","MAREA":" ","LANE":"３７３巷","ALLEY":"８８弄","HOUSE_NO":"５號","E_COORD97":167523.07000000001,"N_COORD97":2551879.3700000001,"ADDRESS":"長溪路三段３７３巷８８弄５號","OBJECTID":182207},"geometry":{"x":167523.06999999937,"y":2551879.3700000029}},{"attributes":{"ID":182209,"DIS_CODE":0,"TOWNNAME":"安南區","LI":"長安里","LIN":"4鄰","STREET":"長溪路","SECT":"三段","MAREA":" ","LANE":"３７３巷","ALLEY":"８８弄","HOUSE_NO":"７號","E_COORD97":167520.95000000001,"N_COORD97":2551885.1600000001,"ADDRESS":"長溪路三段３７３巷８８弄７號","OBJECTID":182208},"geometry":{"x":167520.95000000112,"y":2551885.1600000001}},{"attributes":{"ID":182210,"DIS_CODE":0,"TOWNNAME":"安南區","LI":"頂安里","LIN":"14鄰","STREET":"長溪路","SECT":"一段","MAREA":" ","LANE":"４０７巷","ALLEY":"３０弄","HOUSE_NO":"１號","E_COORD97":168520.98999999999,"N_COORD97":2548843.79,"ADDRESS":"長溪路一段４０７巷３０弄１號","OBJECTID":182209},"geometry":{"x":168520.99000000115,"y":2548843.790000001}},{"attributes":{"ID":182211,"DIS_CODE":0,"TOWNNAME":"安南區","LI":"頂安里","LIN":"14鄰","STREET":"長溪路","SECT":"一段","MAREA":" ","LANE":"４０７巷","ALLEY":"３０弄","HOUSE_NO":"２號","E_COORD97":168532.54999999999,"N_COORD97":2548867.3900000001,"ADDRESS":"長溪路一段４０７巷３０弄２號","OBJECTID":182210},"geometry":{"x":168532.54999999981,"y":2548867.3900000025}},{"attributes":{"ID":182212,"DIS_CODE":0,"TOWNNAME":"安南區","LI":"頂安里","LIN":"14鄰","STREET":"長溪路","SECT":"一段","MAREA":" ","LANE":"４０７巷","ALLEY":"３０弄","HOUSE_NO":"３號","E_COORD97":168513.01999999999,"N_COORD97":2548838.5699999998,"ADDRESS":"長溪路一段４０７巷３０弄３號","OBJECTID":182211},"geometry":{"x":168513.02000000048,"y":2548838.570000004}},{"attributes":{"ID":182213,"DIS_CODE":0,"TOWNNAME":"安南區","LI":"頂安里","LIN":"14鄰","STREET":"長溪路","SECT":"一段","MAREA":" ","LANE":"４０７巷","ALLEY":"３０弄","HOUSE_NO":"５號","E_COORD97":168508.72,"N_COORD97":2548839.7400000002,"ADDRESS":"長溪路一段４０７巷３０弄５號","OBJECTID":182212},"geometry":{"x":168508.72000000067,"y":2548839.7400000002}},{"attributes":{"ID":182214,"DIS_CODE":0,"TOWNNAME":"安南區","LI":"頂安里","LIN":"14鄰","STREET":"長溪路","SECT":"一段","MAREA":" ","LANE":"４０７巷","ALLEY":"３０弄","HOUSE_NO":"６號","E_COORD97":168527.38,"N_COORD97":2548869.8799999999,"ADDRESS":"長溪路一段４０７巷３０弄６號","OBJECTID":182213},"geometry":{"x":168527.37999999989,"y":2548869.8800000008}},{"attributes":{"ID":182215,"DIS_CODE":0,"TOWNNAME":"安南區","LI":"頂安里","LIN":"14鄰","STREET":"長溪路","SECT":"一段","MAREA":" ","LANE":"４０７巷","ALLEY":"３０弄","HOUSE_NO":"７號","E_COORD97":168504.42999999999,"N_COORD97":2548840.9199999999,"ADDRESS":"長溪路一段４０７巷３０弄７號","OBJECTID":182214},"geometry":{"x":168504.4299999997,"y":2548840.9199999999}},{"attributes":{"ID":182216,"DIS_CODE":0,"TOWNNAME":"安南區","LI":"頂安里","LIN":"14鄰","STREET":"長溪路","SECT":"一段","MAREA":" ","LANE":"４０７巷","ALLEY":"３０弄","HOUSE_NO":"８號","E_COORD97":168523,"N_COORD97":2548870.9399999999,"ADDRESS":"長溪路一段４０７巷３０弄８號","OBJECTID":182215},"geometry":{"x":168523,"y":2548870.9399999995}},{"attributes":{"ID":182217,"DIS_CODE":0,"TOWNNAME":"安南區","LI":"頂安里","LIN":"14鄰","STREET":"長溪路","SECT":"一段","MAREA":" ","LANE":"４０７巷","ALLEY":"３０弄","HOUSE_NO":"９號","E_COORD97":168500.14000000001,"N_COORD97":2548842.1000000001,"ADDRESS":"長溪路一段４０７巷３０弄９號","OBJECTID":182216},"geometry":{"x":168500.14000000153,"y":2548842.1000000015}},{"attributes":{"ID":182218,"DIS_CODE":0,"TOWNNAME":"安南區","LI":"頂安里","LIN":"14鄰","STREET":"長溪路","SECT":"一段","MAREA":" ","LANE":"４０７巷","ALLEY":"３０弄","HOUSE_NO":"１０號","E_COORD97":168519.23999999999,"N_COORD97":2548873.9100000001,"ADDRESS":"長溪路一段４０７巷３０弄１０號","OBJECTID":182217},"geometry":{"x":168519.24000000115,"y":2548873.910000002}},{"attributes":{"ID":182219,"DIS_CODE":0,"TOWNNAME":"安南區","LI":"頂安里","LIN":"13鄰","STREET":"安中路","SECT":"一段","MAREA":" ","LANE":"３８８巷","ALLEY":"５６弄","HOUSE_NO":"１號","E_COORD97":168392.98000000001,"N_COORD97":2548899.7200000002,"ADDRESS":"安中路一段３８８巷５６弄１號","OBJECTID":182218},"geometry":{"x":168392.98000000045,"y":2548899.7200000025}},{"attributes":{"ID":182220,"DIS_CODE":0,"TOWNNAME":"安南區","LI":"頂安里","LIN":"13鄰","STREET":"安中路","SECT":"一段","MAREA":" ","LANE":"３８８巷","ALLEY":"５６弄","HOUSE_NO":"３號","E_COORD97":168401.14999999999,"N_COORD97":2548898.9100000001,"ADDRESS":"安中路一段３８８巷５６弄３號","OBJECTID":182219},"geometry":{"x":168401.1500000013,"y":2548898.9100000001}},{"attributes":{"ID":182221,"DIS_CODE":0,"TOWNNAME":"安南區","LI":"頂安里","LIN":"13鄰","STREET":"安中路","SECT":"一段","MAREA":" ","LANE":"３８８巷","ALLEY":"５６弄","HOUSE_NO":"５號","E_COORD97":168406.32000000001,"N_COORD97":2548897.7000000002,"ADDRESS":"安中路一段３８８巷５６弄５號","OBJECTID":182220},"geometry":{"x":168406.31999999937,"y":2548897.700000003}},{"attributes":{"ID":182222,"DIS_CODE":0,"TOWNNAME":"安南區","LI":"頂安里","LIN":"13鄰","STREET":"安中路","SECT":"一段","MAREA":" ","LANE":"３８８巷","ALLEY":"５６弄","HOUSE_NO":"７號","E_COORD97":168412.42000000001,"N_COORD97":2548894.52,"ADDRESS":"安中路一段３８８巷５６弄７號","OBJECTID":182221},"geometry":{"x":168412.42000000086,"y":2548894.5199999996}},{"attributes":{"ID":182223,"DIS_CODE":0,"TOWNNAME":"安南區","LI":"頂安里","LIN":"17鄰","STREET":"安中路","SECT":"一段","MAREA":" ","LANE":"３８８巷","ALLEY":"２１弄","HOUSE_NO":"２號","E_COORD97":168382.47,"N_COORD97":2548903.1299999999,"ADDRESS":"安中路一段３８８巷２１弄２號","OBJECTID":182222},"geometry":{"x":168382.46999999974,"y":2548903.129999999}},{"attributes":{"ID":182224,"DIS_CODE":0,"TOWNNAME":"安南區","LI":"頂安里","LIN":"17鄰","STREET":"安中路","SECT":"一段","MAREA":" ","LANE":"３８８巷","ALLEY":"２１弄","HOUSE_NO":"６號","E_COORD97":168374.57999999999,"N_COORD97":2548904.6299999999,"ADDRESS":"安中路一段３８８巷２１弄６號","OBJECTID":182223},"geometry":{"x":168374.58000000101,"y":2548904.6300000027}},{"attributes":{"ID":182225,"DIS_CODE":0,"TOWNNAME":"安南區","LI":"頂安里","LIN":"17鄰","STREET":"安中路","SECT":"一段","MAREA":" ","LANE":"３８８巷","ALLEY":"２１弄","HOUSE_NO":"８號","E_COORD97":168369.17999999999,"N_COORD97":2548905.9100000001,"ADDRESS":"安中路一段３８８巷２１弄８號","OBJECTID":182224},"geometry":{"x":168369.1799999997,"y":2548905.9100000001}},{"attributes":{"ID":182226,"DIS_CODE":0,"TOWNNAME":"永康區","LI":"建國里","LIN":" ","STREET":"復興路","SECT":" ","MAREA":" ","LANE":"１巷","ALLEY":"３０弄","HOUSE_NO":"２之５號","E_COORD97":173018.39000000001,"N_COORD97":2544067.3300000001,"ADDRESS":"復興路１巷３０弄２之５號","OBJECTID":182225},"geometry":{"x":173018.3900000006,"y":2544067.3300000019}},{"attributes":{"ID":182227,"DIS_CODE":0,"TOWNNAME":"麻豆區","LI":"埤頭里","LIN":"10鄰","STREET":" ","SECT":" ","MAREA":"埤頭","LANE":" ","ALLEY":" ","HOUSE_NO":"８６號之１","E_COORD97":170864,"N_COORD97":2566017.3599999999,"ADDRESS":"埤頭８６號之１","OBJECTID":182226},"geometry":{"x":170864,"y":2566017.3599999994}},{"attributes":{"ID":182228,"DIS_CODE":0,"TOWNNAME":"麻豆區","LI":"埤頭里","LIN":"10鄰","STREET":" ","SECT":" ","MAREA":"埤頭","LANE":" ","ALLEY":" ","HOUSE_NO":"８６號","E_COORD97":170843.60999999999,"N_COORD97":2566016.0699999998,"ADDRESS":"埤頭８６號","OBJECTID":182227},"geometry":{"x":170843.61000000034,"y":2566016.0700000003}},{"attributes":{"ID":182229,"DIS_CODE":0,"TOWNNAME":"麻豆區","LI":"埤頭里","LIN":"10鄰","STREET":" ","SECT":" ","MAREA":"埤頭","LANE":" ","ALLEY":" ","HOUSE_NO":"８７號之３","E_COORD97":170834.14999999999,"N_COORD97":2565980.3999999999,"ADDRESS":"埤頭８７號之３","OBJECTID":182228},"geometry":{"x":170834.1500000013,"y":2565980.4000000004}},{"attributes":{"ID":182230,"DIS_CODE":0,"TOWNNAME":"鹽水區","LI":"下中里","LIN":"10鄰","STREET":" ","SECT":" ","MAREA":"下中","LANE":" ","ALLEY":" ","HOUSE_NO":"５４號之２","E_COORD97":172244.35999999999,"N_COORD97":2579727.1200000001,"ADDRESS":"下中５４號之２","OBJECTID":182229},"geometry":{"x":172244.36000000127,"y":2579727.120000001}},{"attributes":{"ID":182231,"DIS_CODE":0,"TOWNNAME":"鹽水區","LI":"下中里","LIN":"10鄰","STREET":" ","SECT":" ","MAREA":"下中","LANE":" ","ALLEY":" ","HOUSE_NO":"５４號之３","E_COORD97":172252.5,"N_COORD97":2579725.8199999998,"ADDRESS":"下中５４號之３","OBJECTID":182230},"geometry":{"x":172252.5,"y":2579725.8200000003}},{"attributes":{"ID":182232,"DIS_CODE":0,"TOWNNAME":"鹽水區","LI":"下中里","LIN":"10鄰","STREET":" ","SECT":" ","MAREA":"下中","LANE":" ","ALLEY":" ","HOUSE_NO":"５４號之４","E_COORD97":172222.29000000001,"N_COORD97":2579724.4100000001,"ADDRESS":"下中５４號之４","OBJECTID":182231},"geometry":{"x":172222.2900000019,"y":2579724.4100000001}},{"attributes":{"ID":182233,"DIS_CODE":0,"TOWNNAME":"鹽水區","LI":"下中里","LIN":"10鄰","STREET":" ","SECT":" ","MAREA":"下中","LANE":" ","ALLEY":" ","HOUSE_NO":"５４號之５","E_COORD97":172229.72,"N_COORD97":2579724.4500000002,"ADDRESS":"下中５４號之５","OBJECTID":182232},"geometry":{"x":172229.72000000067,"y":2579724.450000003}},{"attributes":{"ID":182234,"DIS_CODE":0,"TOWNNAME":"鹽水區","LI":"下中里","LIN":"10鄰","STREET":" ","SECT":" ","MAREA":"下中","LANE":" ","ALLEY":" ","HOUSE_NO":"５５號","E_COORD97":172238.62,"N_COORD97":2579682.3199999998,"ADDRESS":"下中５５號","OBJECTID":182233},"geometry":{"x":172238.62000000197,"y":2579682.320000004}},{"attributes":{"ID":182235,"DIS_CODE":0,"TOWNNAME":"鹽水區","LI":"下中里","LIN":"10鄰","STREET":" ","SECT":" ","MAREA":"下中","LANE":" ","ALLEY":" ","HOUSE_NO":"５６號之１","E_COORD97":172257.84,"N_COORD97":2579638.7799999998,"ADDRESS":"下中５６號之１","OBJECTID":182234},"geometry":{"x":172257.84000000078,"y":2579638.7800000012}},{"attributes":{"ID":182236,"DIS_CODE":0,"TOWNNAME":"鹽水區","LI":"下中里","LIN":"10鄰","STREET":" ","SECT":" ","MAREA":"下中","LANE":" ","ALLEY":" ","HOUSE_NO":"５６號","E_COORD97":172258.88,"N_COORD97":2579689.2400000002,"ADDRESS":"下中５６號","OBJECTID":182235},"geometry":{"x":172258.88000000082,"y":2579689.2400000002}},{"attributes":{"ID":182237,"DIS_CODE":0,"TOWNNAME":"鹽水區","LI":"下中里","LIN":"10鄰","STREET":" ","SECT":" ","MAREA":"下中","LANE":" ","ALLEY":" ","HOUSE_NO":"５７號之１","E_COORD97":172225.26999999999,"N_COORD97":2579638.0600000001,"ADDRESS":"下中５７號之１","OBJECTID":182236},"geometry":{"x":172225.27000000142,"y":2579638.0600000024}},{"attributes":{"ID":182238,"DIS_CODE":0,"TOWNNAME":"鹽水區","LI":"下中里","LIN":"10鄰","STREET":" ","SECT":" ","MAREA":"下中","LANE":" ","ALLEY":" ","HOUSE_NO":"５７號","E_COORD97":172225.03,"N_COORD97":2579668.5899999999,"ADDRESS":"下中５７號","OBJECTID":182237},"geometry":{"x":172225.03000000119,"y":2579668.5899999999}},{"attributes":{"ID":182239,"DIS_CODE":0,"TOWNNAME":"鹽水區","LI":"下中里","LIN":"10鄰","STREET":" ","SECT":" ","MAREA":"下中","LANE":" ","ALLEY":" ","HOUSE_NO":"６０號之１","E_COORD97":172123.23000000001,"N_COORD97":2579734.1600000001,"ADDRESS":"下中６０號之１","OBJECTID":182238},"geometry":{"x":172123.23000000138,"y":2579734.1600000039}},{"attributes":{"ID":182240,"DIS_CODE":0,"TOWNNAME":"鹽水區","LI":"下中里","LIN":"10鄰","STREET":" ","SECT":" ","MAREA":"下中","LANE":" ","ALLEY":" ","HOUSE_NO":"６０號","E_COORD97":172147.79999999999,"N_COORD97":2579741.77,"ADDRESS":"下中６０號","OBJECTID":182239},"geometry":{"x":172147.80000000075,"y":2579741.7699999996}},{"attributes":{"ID":182241,"DIS_CODE":0,"TOWNNAME":"鹽水區","LI":"下中里","LIN":"10鄰","STREET":" ","SECT":" ","MAREA":"下中","LANE":" ","ALLEY":" ","HOUSE_NO":"６１號","E_COORD97":172164.75,"N_COORD97":2579764.6099999999,"ADDRESS":"下中６１號","OBJECTID":182240},"geometry":{"x":172164.75000000186,"y":2579764.6100000013}},{"attributes":{"ID":182242,"DIS_CODE":0,"TOWNNAME":"鹽水區","LI":"下中里","LIN":"10鄰","STREET":" ","SECT":" ","MAREA":"下中","LANE":" ","ALLEY":" ","HOUSE_NO":"６２號之１","E_COORD97":172180.26000000001,"N_COORD97":2579781.8700000001,"ADDRESS":"下中６２號之１","OBJECTID":182241},"geometry":{"x":172180.26000000071,"y":2579781.8700000029}},{"attributes":{"ID":182243,"DIS_CODE":0,"TOWNNAME":"鹽水區","LI":"下中里","LIN":"10鄰","STREET":" ","SECT":" ","MAREA":"下中","LANE":" ","ALLEY":" ","HOUSE_NO":"６２號之３","E_COORD97":172198.23999999999,"N_COORD97":2579731.0099999998,"ADDRESS":"下中６２號之３","OBJECTID":182242},"geometry":{"x":172198.24000000022,"y":2579731.0099999998}},{"attributes":{"ID":182244,"DIS_CODE":0,"TOWNNAME":"鹽水區","LI":"下中里","LIN":"10鄰","STREET":" ","SECT":" ","MAREA":"下中","LANE":" ","ALLEY":" ","HOUSE_NO":"６２號","E_COORD97":172183.75,"N_COORD97":2579755.6600000001,"ADDRESS":"下中６２號","OBJECTID":182243},"geometry":{"x":172183.75000000093,"y":2579755.660000002}},{"attributes":{"ID":182245,"DIS_CODE":0,"TOWNNAME":"鹽水區","LI":"下中里","LIN":"10鄰","STREET":" ","SECT":" ","MAREA":"下中","LANE":" ","ALLEY":" ","HOUSE_NO":"６３之１號","E_COORD97":172155.10000000001,"N_COORD97":2579799.54,"ADDRESS":"下中６３之１號","OBJECTID":182244},"geometry":{"x":172155.09999999963,"y":2579799.540000001}},{"attributes":{"ID":182246,"DIS_CODE":0,"TOWNNAME":"鹽水區","LI":"下中里","LIN":"10鄰","STREET":" ","SECT":" ","MAREA":"下中","LANE":" ","ALLEY":" ","HOUSE_NO":"６３號","E_COORD97":172159.32000000001,"N_COORD97":2579783.6699999999,"ADDRESS":"下中６３號","OBJECTID":182245},"geometry":{"x":172159.3200000003,"y":2579783.6699999999}},{"attributes":{"ID":182247,"DIS_CODE":0,"TOWNNAME":"鹽水區","LI":"下中里","LIN":"10鄰","STREET":" ","SECT":" ","MAREA":"下中","LANE":" ","ALLEY":" ","HOUSE_NO":"６７之３號","E_COORD97":172031.59,"N_COORD97":2579086.6299999999,"ADDRESS":"下中６７之３號","OBJECTID":182246},"geometry":{"x":172031.58999999985,"y":2579086.6300000008}},{"attributes":{"ID":182248,"DIS_CODE":0,"TOWNNAME":"鹽水區","LI":"下中里","LIN":"10鄰","STREET":" ","SECT":" ","MAREA":"下中","LANE":" ","ALLEY":" ","HOUSE_NO":"６８號","E_COORD97":172171.03,"N_COORD97":2579879.0899999999,"ADDRESS":"下中６８號","OBJECTID":182247},"geometry":{"x":172171.03000000026,"y":2579879.0899999999}},{"attributes":{"ID":182249,"DIS_CODE":0,"TOWNNAME":"白河區","LI":"河東里","LIN":"11鄰","STREET":" ","SECT":" ","MAREA":"糞箕湖","LANE":" ","ALLEY":" ","HOUSE_NO":"１５３號","E_COORD97":190624.51000000001,"N_COORD97":2582798.7599999998,"ADDRESS":"糞箕湖１５３號","OBJECTID":182248},"geometry":{"x":190624.50999999978,"y":2582798.7600000016}},{"attributes":{"ID":182250,"DIS_CODE":0,"TOWNNAME":"西港區","LI":"港東里","LIN":"11鄰","STREET":" ","SECT":" ","MAREA":"烏竹林","LANE":" ","ALLEY":" ","HOUSE_NO":"５２號之１１","E_COORD97":169763.29999999999,"N_COORD97":2558134.02,"ADDRESS":"烏竹林５２號之１１","OBJECTID":182249},"geometry":{"x":169763.29999999981,"y":2558134.0199999996}},{"attributes":{"ID":182251,"DIS_CODE":0,"TOWNNAME":"鹽水區","LI":"大豐里","LIN":"10鄰","STREET":" ","SECT":" ","MAREA":"大豐","LANE":" ","ALLEY":" ","HOUSE_NO":"１００號之１","E_COORD97":170331.59,"N_COORD97":2573730.9100000001,"ADDRESS":"大豐１００號之１","OBJECTID":182250},"geometry":{"x":170331.59000000171,"y":2573730.9100000001}},{"attributes":{"ID":182252,"DIS_CODE":0,"TOWNNAME":"鹽水區","LI":"大豐里","LIN":"10鄰","STREET":" ","SECT":" ","MAREA":"大豐","LANE":" ","ALLEY":" ","HOUSE_NO":"１００號","E_COORD97":170332.98999999999,"N_COORD97":2573735.25,"ADDRESS":"大豐１００號","OBJECTID":182251},"geometry":{"x":170332.99000000115,"y":2573735.25}},{"attributes":{"ID":182253,"DIS_CODE":0,"TOWNNAME":"鹽水區","LI":"大豐里","LIN":"10鄰","STREET":" ","SECT":" ","MAREA":"大豐","LANE":" ","ALLEY":" ","HOUSE_NO":"１０１號之１","E_COORD97":170328.37,"N_COORD97":2573711.3700000001,"ADDRESS":"大豐１０１號之１","OBJECTID":182252},"geometry":{"x":170328.37000000104,"y":2573711.370000001}},{"attributes":{"ID":182254,"DIS_CODE":0,"TOWNNAME":"鹽水區","LI":"大豐里","LIN":"10鄰","STREET":" ","SECT":" ","MAREA":"大豐","LANE":" ","ALLEY":" ","HOUSE_NO":"１０１號","E_COORD97":170337.10999999999,"N_COORD97":2573713.7999999998,"ADDRESS":"大豐１０１號","OBJECTID":182253},"geometry":{"x":170337.1100000022,"y":2573713.8000000026}},{"attributes":{"ID":182255,"DIS_CODE":0,"TOWNNAME":"鹽水區","LI":"大豐里","LIN":"10鄰","STREET":" ","SECT":" ","MAREA":"大豐","LANE":" ","ALLEY":" ","HOUSE_NO":"１０２號","E_COORD97":170354.87,"N_COORD97":2573729.9900000002,"ADDRESS":"大豐１０２號","OBJECTID":182254},"geometry":{"x":170354.87000000011,"y":2573729.9900000002}},{"attributes":{"ID":182256,"DIS_CODE":0,"TOWNNAME":"鹽水區","LI":"大豐里","LIN":"10鄰","STREET":" ","SECT":" ","MAREA":"大豐","LANE":" ","ALLEY":" ","HOUSE_NO":"１０３號","E_COORD97":170337.78,"N_COORD97":2573763.5600000001,"ADDRESS":"大豐１０３號","OBJECTID":182255},"geometry":{"x":170337.78000000119,"y":2573763.5600000005}},{"attributes":{"ID":182257,"DIS_CODE":0,"TOWNNAME":"鹽水區","LI":"大豐里","LIN":"10鄰","STREET":" ","SECT":" ","MAREA":"大豐","LANE":" ","ALLEY":" ","HOUSE_NO":"１０６號","E_COORD97":170284.85999999999,"N_COORD97":2573733.48,"ADDRESS":"大豐１０６號","OBJECTID":182256},"geometry":{"x":170284.86000000127,"y":2573733.4800000004}},{"attributes":{"ID":182258,"DIS_CODE":0,"TOWNNAME":"鹽水區","LI":"水仙里","LIN":"10鄰","STREET":"中山路","SECT":" ","MAREA":" ","LANE":" ","ALLEY":" ","HOUSE_NO":"２９號","E_COORD97":174998.13,"N_COORD97":2579900.46,"ADDRESS":"中山路２９號","OBJECTID":182257},"geometry":{"x":174998.13000000175,"y":2579900.4600000028}},{"attributes":{"ID":182259,"DIS_CODE":0,"TOWNNAME":"鹽水區","LI":"大豐里","LIN":"10鄰","STREET":" ","SECT":" ","MAREA":"大豐","LANE":" ","ALLEY":" ","HOUSE_NO":"１０８號","E_COORD97":170254.64999999999,"N_COORD97":2573715.6000000001,"ADDRESS":"大豐１０８號","OBJECTID":182258},"geometry":{"x":170254.65000000037,"y":2573715.5999999996}},{"attributes":{"ID":182260,"DIS_CODE":0,"TOWNNAME":"永康區","LI":"神洲里","LIN":" ","STREET":"忠孝路","SECT":" ","MAREA":" ","LANE":"６巷","ALLEY":"３１弄","HOUSE_NO":"２９號","E_COORD97":172259.69,"N_COORD97":2544557.75,"ADDRESS":"忠孝路６巷３１弄２９號","OBJECTID":182259},"geometry":{"x":172259.69000000134,"y":2544557.75}},{"attributes":{"ID":182261,"DIS_CODE":0,"TOWNNAME":"鹽水區","LI":"大豐里","LIN":"10鄰","STREET":" ","SECT":" ","MAREA":"大豐","LANE":" ","ALLEY":" ","HOUSE_NO":"１０９號","E_COORD97":170224.72,"N_COORD97":2573703.1699999999,"ADDRESS":"大豐１０９號","OBJECTID":182260},"geometry":{"x":170224.71999999974,"y":2573703.1700000018}},{"attributes":{"ID":182262,"DIS_CODE":0,"TOWNNAME":"鹽水區","LI":"大豐里","LIN":"10鄰","STREET":" ","SECT":" ","MAREA":"大豐","LANE":" ","ALLEY":" ","HOUSE_NO":"１１０號","E_COORD97":170275.92000000001,"N_COORD97":2573706.3199999998,"ADDRESS":"大豐１１０號","OBJECTID":182261},"geometry":{"x":170275.92000000086,"y":2573706.3200000022}},{"attributes":{"ID":182263,"DIS_CODE":0,"TOWNNAME":"永康區","LI":"二王里","LIN":" ","STREET":"永二街","SECT":" ","MAREA":" ","LANE":"３９３巷","ALLEY":"１６弄","HOUSE_NO":"２８號","E_COORD97":172860.62,"N_COORD97":2546496.5800000001,"ADDRESS":"永二街３９３巷１６弄２８號","OBJECTID":182262},"geometry":{"x":172860.62000000011,"y":2546496.5800000019}},{"attributes":{"ID":182264,"DIS_CODE":0,"TOWNNAME":"永康區","LI":"二王里","LIN":" ","STREET":"中山南路","SECT":" ","MAREA":" ","LANE":"５４４巷","ALLEY":"２弄","HOUSE_NO":"２０號","E_COORD97":172246.23000000001,"N_COORD97":2546443.5,"ADDRESS":"中山南路５４４巷２弄２０號","OBJECTID":182263},"geometry":{"x":172246.23000000045,"y":2546443.5}},{"attributes":{"ID":182265,"DIS_CODE":0,"TOWNNAME":"將軍區","LI":"西和里","LIN":"3鄰","STREET":" ","SECT":" ","MAREA":"西和","LANE":" ","ALLEY":" ","HOUSE_NO":"２３號","E_COORD97":163233.97,"N_COORD97":2566415.8900000001,"ADDRESS":"西和２３號","OBJECTID":182264},"geometry":{"x":163233.96999999974,"y":2566415.8900000043}},{"attributes":{"ID":182266,"DIS_CODE":0,"TOWNNAME":"永康區","LI":"建國里","LIN":" ","STREET":"復興路","SECT":" ","MAREA":" ","LANE":"１巷","ALLEY":"３０弄","HOUSE_NO":"２之３號","E_COORD97":173023.79000000001,"N_COORD97":2544112.54,"ADDRESS":"復興路１巷３０弄２之３號","OBJECTID":182265},"geometry":{"x":173023.79000000004,"y":2544112.540000001}},{"attributes":{"ID":182267,"DIS_CODE":0,"TOWNNAME":"鹽水區","LI":"大豐里","LIN":"10鄰","STREET":" ","SECT":" ","MAREA":"大豐","LANE":" ","ALLEY":" ","HOUSE_NO":"１１１號","E_COORD97":170271.73000000001,"N_COORD97":2573705.1800000002,"ADDRESS":"大豐１１１號","OBJECTID":182266},"geometry":{"x":170271.73000000045,"y":2573705.1799999997}},{"attributes":{"ID":182268,"DIS_CODE":0,"TOWNNAME":"鹽水區","LI":"大豐里","LIN":"10鄰","STREET":" ","SECT":" ","MAREA":"大豐","LANE":" ","ALLEY":" ","HOUSE_NO":"１１２號","E_COORD97":170640.29000000001,"N_COORD97":2573217.7200000002,"ADDRESS":"大豐１１２號","OBJECTID":182267},"geometry":{"x":170640.29000000004,"y":2573217.7200000007}},{"attributes":{"ID":182269,"DIS_CODE":0,"TOWNNAME":"鹽水區","LI":"大豐里","LIN":"10鄰","STREET":" ","SECT":" ","MAREA":"大豐","LANE":" ","ALLEY":" ","HOUSE_NO":"８２號","E_COORD97":170376.73000000001,"N_COORD97":2573741.3700000001,"ADDRESS":"大豐８２號","OBJECTID":182268},"geometry":{"x":170376.73000000045,"y":2573741.370000001}},{"attributes":{"ID":182270,"DIS_CODE":0,"TOWNNAME":"西港區","LI":"港東里","LIN":"11鄰","STREET":" ","SECT":" ","MAREA":"烏竹林","LANE":" ","ALLEY":" ","HOUSE_NO":"５２號之１２","E_COORD97":169767.44,"N_COORD97":2558133.96,"ADDRESS":"烏竹林５２號之１２","OBJECTID":182269},"geometry":{"x":169767.44000000134,"y":2558133.9600000028}},{"attributes":{"ID":182271,"DIS_CODE":0,"TOWNNAME":"西港區","LI":"港東里","LIN":"11鄰","STREET":" ","SECT":" ","MAREA":"烏竹林","LANE":" ","ALLEY":" ","HOUSE_NO":"５２號之１","E_COORD97":169728.54999999999,"N_COORD97":2558109.96,"ADDRESS":"烏竹林５２號之１","OBJECTID":182270},"geometry":{"x":169728.55000000075,"y":2558109.9600000028}},{"attributes":{"ID":182272,"DIS_CODE":0,"TOWNNAME":"關廟區","LI":"五甲里","LIN":"10鄰","STREET":"五甲路","SECT":" ","MAREA":" ","LANE":" ","ALLEY":" ","HOUSE_NO":"３５８號","E_COORD97":180819.17000000001,"N_COORD97":2538656.25,"ADDRESS":"五甲路３５８號","OBJECTID":182271},"geometry":{"x":180819.17000000179,"y":2538656.2500000019}},{"attributes":{"ID":182273,"DIS_CODE":0,"TOWNNAME":"關廟區","LI":"北勢里","LIN":"10鄰","STREET":"成功路","SECT":" ","MAREA":" ","LANE":" ","ALLEY":" ","HOUSE_NO":"１６２號","E_COORD97":181592.67000000001,"N_COORD97":2540458.27,"ADDRESS":"成功路１６２號","OBJECTID":182272},"geometry":{"x":181592.67000000086,"y":2540458.2699999996}},{"attributes":{"ID":182274,"DIS_CODE":0,"TOWNNAME":"關廟區","LI":"北勢里","LIN":"10鄰","STREET":"成功路","SECT":" ","MAREA":" ","LANE":" ","ALLEY":" ","HOUSE_NO":"２００號","E_COORD97":181548.17000000001,"N_COORD97":2540470.27,"ADDRESS":"成功路２００號","OBJECTID":182273},"geometry":{"x":181548.17000000179,"y":2540470.2700000014}},{"attributes":{"ID":182275,"DIS_CODE":0,"TOWNNAME":"永康區","LI":"二王里","LIN":" ","STREET":"南工街","SECT":" ","MAREA":" ","LANE":"２２６巷","ALLEY":"３弄","HOUSE_NO":"１１號","E_COORD97":171926.88,"N_COORD97":2545995.7999999998,"ADDRESS":"南工街２２６巷３弄１１號","OBJECTID":182274},"geometry":{"x":171926.88000000082,"y":2545995.8000000007}},{"attributes":{"ID":182276,"DIS_CODE":0,"TOWNNAME":"關廟區","LI":"南花里","LIN":"10鄰","STREET":"花園一街","SECT":" ","MAREA":" ","LANE":" ","ALLEY":" ","HOUSE_NO":"１３１號","E_COORD97":181787.52708,"N_COORD97":2540167.8114999998,"ADDRESS":"花園一街１３１號","OBJECTID":182275},"geometry":{"x":181787.52708000224,"y":2540167.8115010001}},{"attributes":{"ID":182277,"DIS_CODE":0,"TOWNNAME":"永康區","LI":"二王里","LIN":" ","STREET":"南工街","SECT":" ","MAREA":" ","LANE":"２２６巷","ALLEY":"３弄","HOUSE_NO":"４號","E_COORD97":171964.39000000001,"N_COORD97":2546000.48,"ADDRESS":"南工街２２６巷３弄４號","OBJECTID":182276},"geometry":{"x":171964.38999999966,"y":2546000.4800000004}},{"attributes":{"ID":182278,"DIS_CODE":0,"TOWNNAME":"永康區","LI":"安康里","LIN":" ","STREET":"中山南路","SECT":" ","MAREA":" ","LANE":"１１８巷","ALLEY":"１弄","HOUSE_NO":"４號","E_COORD97":171125,"N_COORD97":2545927.25,"ADDRESS":"中山南路１１８巷１弄４號","OBJECTID":182277},"geometry":{"x":171125,"y":2545927.25}},{"attributes":{"ID":182279,"DIS_CODE":0,"TOWNNAME":"永康區","LI":"大橋里","LIN":" ","STREET":"大橋一街","SECT":" ","MAREA":" ","LANE":"２３３巷","ALLEY":"３弄","HOUSE_NO":"４０號","E_COORD97":171120.73000000001,"N_COORD97":2546680.54,"ADDRESS":"大橋一街２３３巷３弄４０號","OBJECTID":182278},"geometry":{"x":171120.73000000045,"y":2546680.5399999991}},{"attributes":{"ID":182280,"DIS_CODE":0,"TOWNNAME":"永康區","LI":"\u25A0行里","LIN":"40鄰","STREET":"永安路","SECT":" ","MAREA":" ","LANE":"１０５巷","ALLEY":"４６弄","HOUSE_NO":"６號","E_COORD97":172605,"N_COORD97":2549318.3300000001,"ADDRESS":"永安路１０５巷４６弄６號","OBJECTID":182279},"geometry":{"x":172605,"y":2549318.3300000019}},{"attributes":{"ID":182281,"DIS_CODE":0,"TOWNNAME":"永康區","LI":"網寮里","LIN":" ","STREET":"大灣路","SECT":" ","MAREA":" ","LANE":"９４２巷","ALLEY":"６４１弄","HOUSE_NO":"８１之６號","E_COORD97":173462.19,"N_COORD97":2545958.4100000001,"ADDRESS":"大灣路９４２巷６４１弄８１之６號","OBJECTID":182280},"geometry":{"x":173462.19000000041,"y":2545958.410000002}},{"attributes":{"ID":182282,"DIS_CODE":0,"TOWNNAME":"永康區","LI":"建國里","LIN":" ","STREET":"復興路","SECT":" ","MAREA":" ","LANE":"１巷","ALLEY":"３０弄","HOUSE_NO":"４２號","E_COORD97":173122.14999999999,"N_COORD97":2544018.9300000002,"ADDRESS":"復興路１巷３０弄４２號","OBJECTID":182281},"geometry":{"x":173122.1500000013,"y":2544018.9300000016}},{"attributes":{"ID":182283,"DIS_CODE":0,"TOWNNAME":"關廟區","LI":"布袋里","LIN":"10鄰","STREET":"長榮街","SECT":" ","MAREA":" ","LANE":" ","ALLEY":" ","HOUSE_NO":"２３７號","E_COORD97":182613.79000000001,"N_COORD97":2534189.2999999998,"ADDRESS":"長榮街２３７號","OBJECTID":182282},"geometry":{"x":182613.7900000019,"y":2534189.3000000007}},{"attributes":{"ID":182284,"DIS_CODE":0,"TOWNNAME":"永康區","LI":"西橋里","LIN":" ","STREET":"中華西街","SECT":" ","MAREA":" ","LANE":"６３巷","ALLEY":"６４弄","HOUSE_NO":"６６號","E_COORD97":170621.75,"N_COORD97":2545953.7400000002,"ADDRESS":"中華西街６３巷６４弄６６號","OBJECTID":182283},"geometry":{"x":170621.75,"y":2545953.7400000002}},{"attributes":{"ID":182285,"DIS_CODE":0,"TOWNNAME":"關廟區","LI":"松腳里","LIN":"10鄰","STREET":"勝利街","SECT":" ","MAREA":" ","LANE":" ","ALLEY":" ","HOUSE_NO":"６８號","E_COORD97":181713.82000000001,"N_COORD97":2539752.2599999998,"ADDRESS":"勝利街６８號","OBJECTID":182284},"geometry":{"x":181713.82000000123,"y":2539752.2599999998}},{"attributes":{"ID":182286,"DIS_CODE":0,"TOWNNAME":"西港區","LI":"港東里","LIN":"11鄰","STREET":" ","SECT":" ","MAREA":"烏竹林","LANE":" ","ALLEY":" ","HOUSE_NO":"５２號之２","E_COORD97":169729.41,"N_COORD97":2558124.75,"ADDRESS":"烏竹林５２號之２","OBJECTID":182285},"geometry":{"x":169729.41000000015,"y":2558124.7500000019}},{"attributes":{"ID":182287,"DIS_CODE":0,"TOWNNAME":"關廟區","LI":"松腳里","LIN":"10鄰","STREET":"勝利街","SECT":" ","MAREA":" ","LANE":" ","ALLEY":" ","HOUSE_NO":"６０號","E_COORD97":181728.01999999999,"N_COORD97":2539752.2599999998,"ADDRESS":"勝利街６０號","OBJECTID":182286},"geometry":{"x":181728.01999999955,"y":2539752.2599999998}},{"attributes":{"ID":182288,"DIS_CODE":0,"TOWNNAME":"西港區","LI":"港東里","LIN":"11鄰","STREET":" ","SECT":" ","MAREA":"烏竹林","LANE":" ","ALLEY":" ","HOUSE_NO":"５２號之３","E_COORD97":169729.09,"N_COORD97":2558130.3999999999,"ADDRESS":"烏竹林５２號之３","OBJECTID":182287},"geometry":{"x":169729.08999999985,"y":2558130.4000000022}},{"attributes":{"ID":182289,"DIS_CODE":0,"TOWNNAME":"關廟區","LI":"松腳里","LIN":"10鄰","STREET":"勝利街","SECT":" ","MAREA":" ","LANE":" ","ALLEY":" ","HOUSE_NO":"５２號","E_COORD97":181738.42000000001,"N_COORD97":2539752.2599999998,"ADDRESS":"勝利街５２號","OBJECTID":182288},"geometry":{"x":181738.42000000086,"y":2539752.2599999998}},{"attributes":{"ID":182290,"DIS_CODE":0,"TOWNNAME":"關廟區","LI":"松腳里","LIN":"10鄰","STREET":"勝利街","SECT":" ","MAREA":" ","LANE":" ","ALLEY":" ","HOUSE_NO":"５０號","E_COORD97":181743.42000000001,"N_COORD97":2539780.2599999998,"ADDRESS":"勝利街５０號","OBJECTID":182289},"geometry":{"x":181743.42000000086,"y":2539780.2599999998}},{"attributes":{"ID":182291,"DIS_CODE":0,"TOWNNAME":"永康區","LI":"神洲里","LIN":" ","STREET":"忠孝路","SECT":" ","MAREA":" ","LANE":"７３巷","ALLEY":"６３弄","HOUSE_NO":"４號","E_COORD97":172270.82000000001,"N_COORD97":2545050.8500000001,"ADDRESS":"忠孝路７３巷６３弄４號","OBJECTID":182290},"geometry":{"x":172270.8200000003,"y":2545050.8499999996}},{"attributes":{"ID":182292,"DIS_CODE":0,"TOWNNAME":"西港區","LI":"港東里","LIN":"11鄰","STREET":" ","SECT":" ","MAREA":"烏竹林","LANE":" ","ALLEY":" ","HOUSE_NO":"５２號之４","E_COORD97":169728.98000000001,"N_COORD97":2558134.4199999999,"ADDRESS":"烏竹林５２號之４","OBJECTID":182291},"geometry":{"x":169728.98000000045,"y":2558134.4199999999}},{"attributes":{"ID":182293,"DIS_CODE":0,"TOWNNAME":"關廟區","LI":"北花里","LIN":"10鄰","STREET":"四維街","SECT":" ","MAREA":" ","LANE":" ","ALLEY":" ","HOUSE_NO":"２６９號","E_COORD97":181859.66,"N_COORD97":2540269.25,"ADDRESS":"四維街２６９號","OBJECTID":182292},"geometry":{"x":181859.66000000015,"y":2540269.2499999981}},{"attributes":{"ID":182294,"DIS_CODE":0,"TOWNNAME":"西港區","LI":"港東里","LIN":"11鄰","STREET":" ","SECT":" ","MAREA":"烏竹林","LANE":" ","ALLEY":" ","HOUSE_NO":"５２號之５","E_COORD97":169729.10000000001,"N_COORD97":2558138.52,"ADDRESS":"烏竹林５２號之５","OBJECTID":182293},"geometry":{"x":169729.09999999963,"y":2558138.5200000014}},{"attributes":{"ID":182295,"DIS_CODE":0,"TOWNNAME":"關廟區","LI":"松腳里","LIN":"10鄰","STREET":"勝利街","SECT":" ","MAREA":" ","LANE":" ","ALLEY":" ","HOUSE_NO":"４９號","E_COORD97":181740.32000000001,"N_COORD97":2539738.2599999998,"ADDRESS":"勝利街４９號","OBJECTID":182294},"geometry":{"x":181740.3200000003,"y":2539738.2600000016}},{"attributes":{"ID":182296,"DIS_CODE":0,"TOWNNAME":"西港區","LI":"港東里","LIN":"11鄰","STREET":" ","SECT":" ","MAREA":"烏竹林","LANE":" ","ALLEY":" ","HOUSE_NO":"５２號之６","E_COORD97":169729.35000000001,"N_COORD97":2558143.04,"ADDRESS":"烏竹林５２號之６","OBJECTID":182295},"geometry":{"x":169729.3499999987,"y":2558143.0399999991}},{"attributes":{"ID":182297,"DIS_CODE":0,"TOWNNAME":"將軍區","LI":"西和里","LIN":"3鄰","STREET":" ","SECT":" ","MAREA":"西和","LANE":" ","ALLEY":" ","HOUSE_NO":"２４號","E_COORD97":163240.14999999999,"N_COORD97":2566407.7599999998,"ADDRESS":"西和２４號","OBJECTID":182296},"geometry":{"x":163240.15000000037,"y":2566407.7599999998}},{"attributes":{"ID":182298,"DIS_CODE":0,"TOWNNAME":"西港區","LI":"港東里","LIN":"11鄰","STREET":" ","SECT":" ","MAREA":"烏竹林","LANE":" ","ALLEY":" ","HOUSE_NO":"５２號之７","E_COORD97":169747.07999999999,"N_COORD97":2558135.25,"ADDRESS":"烏竹林５２號之７","OBJECTID":182297},"geometry":{"x":169747.08000000194,"y":2558135.25}},{"attributes":{"ID":182299,"DIS_CODE":0,"TOWNNAME":"西港區","LI":"港東里","LIN":"11鄰","STREET":" ","SECT":" ","MAREA":"烏竹林","LANE":" ","ALLEY":" ","HOUSE_NO":"５２號之８","E_COORD97":169751.32999999999,"N_COORD97":2558134.7999999998,"ADDRESS":"烏竹林５２號之８","OBJECTID":182298},"geometry":{"x":169751.33000000007,"y":2558134.8000000026}},{"attributes":{"ID":182300,"DIS_CODE":0,"TOWNNAME":"西港區","LI":"港東里","LIN":"11鄰","STREET":" ","SECT":" ","MAREA":"烏竹林","LANE":" ","ALLEY":" ","HOUSE_NO":"５２號之９","E_COORD97":169755.66,"N_COORD97":2558134.6499999999,"ADDRESS":"烏竹林５２號之９","OBJECTID":182299},"geometry":{"x":169755.66000000108,"y":2558134.6500000041}},{"attributes":{"ID":182301,"DIS_CODE":0,"TOWNNAME":"西港區","LI":"港東里","LIN":"11鄰","STREET":" ","SECT":" ","MAREA":"烏竹林","LANE":" ","ALLEY":" ","HOUSE_NO":"５３號","E_COORD97":169741.51999999999,"N_COORD97":2558089.5099999998,"ADDRESS":"烏竹林５３號","OBJECTID":182300},"geometry":{"x":169741.51999999955,"y":2558089.5099999998}},{"attributes":{"ID":182302,"DIS_CODE":0,"TOWNNAME":"西港區","LI":"港東里","LIN":"11鄰","STREET":" ","SECT":" ","MAREA":"烏竹林","LANE":" ","ALLEY":" ","HOUSE_NO":"５４號","E_COORD97":169768.16,"N_COORD97":2558084.4100000001,"ADDRESS":"烏竹林５４號","OBJECTID":182301},"geometry":{"x":169768.16000000015,"y":2558084.4100000001}},{"attributes":{"ID":182303,"DIS_CODE":0,"TOWNNAME":"西港區","LI":"港東里","LIN":"11鄰","STREET":" ","SECT":" ","MAREA":"烏竹林","LANE":" ","ALLEY":" ","HOUSE_NO":"５５號之１","E_COORD97":169744.70000000001,"N_COORD97":2558067.0600000001,"ADDRESS":"烏竹林５５號之１","OBJECTID":182302},"geometry":{"x":169744.70000000205,"y":2558067.0600000005}},{"attributes":{"ID":182304,"DIS_CODE":0,"TOWNNAME":"西港區","LI":"港東里","LIN":"11鄰","STREET":" ","SECT":" ","MAREA":"烏竹林","LANE":" ","ALLEY":" ","HOUSE_NO":"５８號之３","E_COORD97":169619.47,"N_COORD97":2558162.0800000001,"ADDRESS":"烏竹林５８號之３","OBJECTID":182303},"geometry":{"x":169619.46999999974,"y":2558162.0800000019}},{"attributes":{"ID":182305,"DIS_CODE":0,"TOWNNAME":"西港區","LI":"港東里","LIN":"11鄰","STREET":" ","SECT":" ","MAREA":"烏竹林","LANE":" ","ALLEY":" ","HOUSE_NO":"５９號之１０","E_COORD97":169646.5,"N_COORD97":2558098.5299999998,"ADDRESS":"烏竹林５９號之１０","OBJECTID":182304},"geometry":{"x":169646.50000000093,"y":2558098.5299999993}},{"attributes":{"ID":182306,"DIS_CODE":0,"TOWNNAME":"關廟區","LI":"松腳里","LIN":"10鄰","STREET":"勝利街","SECT":" ","MAREA":" ","LANE":" ","ALLEY":" ","HOUSE_NO":"３９號","E_COORD97":181764.92000000001,"N_COORD97":2539737.2599999998,"ADDRESS":"勝利街３９號","OBJECTID":182305},"geometry":{"x":181764.91999999993,"y":2539737.2600000016}},{"attributes":{"ID":182307,"DIS_CODE":0,"TOWNNAME":"永康區","LI":"南灣里","LIN":" ","STREET":"南興路","SECT":" ","MAREA":" ","LANE":"３巷","ALLEY":"６弄","HOUSE_NO":"６１號","E_COORD97":174102.70000000001,"N_COORD97":2544252.1000000001,"ADDRESS":"南興路３巷６弄６１號","OBJECTID":182306},"geometry":{"x":174102.70000000019,"y":2544252.0999999996}},{"attributes":{"ID":182308,"DIS_CODE":0,"TOWNNAME":"西港區","LI":"港東里","LIN":"11鄰","STREET":" ","SECT":" ","MAREA":"烏竹林","LANE":" ","ALLEY":" ","HOUSE_NO":"５９號之１１","E_COORD97":169646.10000000001,"N_COORD97":2558094.1699999999,"ADDRESS":"烏竹林５９號之１１","OBJECTID":182307},"geometry":{"x":169646.09999999963,"y":2558094.1700000018}},{"attributes":{"ID":182309,"DIS_CODE":0,"TOWNNAME":"關廟區","LI":"香洋里","LIN":"10鄰","STREET":"中正路","SECT":" ","MAREA":" ","LANE":" ","ALLEY":" ","HOUSE_NO":"９３５號","E_COORD97":181267.45999999999,"N_COORD97":2540235.25,"ADDRESS":"中正路９３５號","OBJECTID":182308},"geometry":{"x":181267.45999999996,"y":2540235.2499999981}},{"attributes":{"ID":182310,"DIS_CODE":0,"TOWNNAME":"關廟區","LI":"松腳里","LIN":"10鄰","STREET":"勝利街","SECT":" ","MAREA":" ","LANE":" ","ALLEY":" ","HOUSE_NO":"５１號","E_COORD97":181734.51999999999,"N_COORD97":2539738.2599999998,"ADDRESS":"勝利街５１號","OBJECTID":182309},"geometry":{"x":181734.51999999955,"y":2539738.2600000016}},{"attributes":{"ID":182311,"DIS_CODE":0,"TOWNNAME":"西港區","LI":"港東里","LIN":"11鄰","STREET":" ","SECT":" ","MAREA":"烏竹林","LANE":" ","ALLEY":" ","HOUSE_NO":"５９號之１２","E_COORD97":169646.07999999999,"N_COORD97":2558090.23,"ADDRESS":"烏竹林５９號之１２","OBJECTID":182310},"geometry":{"x":169646.08000000101,"y":2558090.2300000023}},{"attributes":{"ID":182312,"DIS_CODE":0,"TOWNNAME":"西港區","LI":"港東里","LIN":"11鄰","STREET":" ","SECT":" ","MAREA":"烏竹林","LANE":" ","ALLEY":" ","HOUSE_NO":"５９號之１３","E_COORD97":169645.76999999999,"N_COORD97":2558086.0299999998,"ADDRESS":"烏竹林５９號之１３","OBJECTID":182311},"geometry":{"x":169645.77000000048,"y":2558086.0299999993}},{"attributes":{"ID":182313,"DIS_CODE":0,"TOWNNAME":"西港區","LI":"港東里","LIN":"11鄰","STREET":" ","SECT":" ","MAREA":"烏竹林","LANE":" ","ALLEY":" ","HOUSE_NO":"５９號之１４","E_COORD97":169645.26000000001,"N_COORD97":2558081.1899999999,"ADDRESS":"烏竹林５９號之１４","OBJECTID":182312},"geometry":{"x":169645.25999999978,"y":2558081.1899999995}},{"attributes":{"ID":182314,"DIS_CODE":0,"TOWNNAME":"西港區","LI":"港東里","LIN":"11鄰","STREET":" ","SECT":" ","MAREA":"烏竹林","LANE":" ","ALLEY":" ","HOUSE_NO":"５９號之１５","E_COORD97":169637.16,"N_COORD97":2558088.8100000001,"ADDRESS":"烏竹林５９號之１５","OBJECTID":182313},"geometry":{"x":169637.16000000108,"y":2558088.8100000005}},{"attributes":{"ID":182315,"DIS_CODE":0,"TOWNNAME":"永康區","LI":"\u25A0行里","LIN":"40鄰","STREET":"永安路","SECT":" ","MAREA":" ","LANE":"１０５巷","ALLEY":"４０弄","HOUSE_NO":"６２號","E_COORD97":172640.70999999999,"N_COORD97":2549358.8100000001,"ADDRESS":"永安路１０５巷４０弄６２號","OBJECTID":182314},"geometry":{"x":172640.70999999996,"y":2549358.8100000005}},{"attributes":{"ID":182316,"DIS_CODE":0,"TOWNNAME":"西港區","LI":"港東里","LIN":"11鄰","STREET":" ","SECT":" ","MAREA":"烏竹林","LANE":" ","ALLEY":" ","HOUSE_NO":"５９號之１６","E_COORD97":169633.20999999999,"N_COORD97":2558088.8599999999,"ADDRESS":"烏竹林５９號之１６","OBJECTID":182315},"geometry":{"x":169633.21000000089,"y":2558088.8600000013}},{"attributes":{"ID":182317,"DIS_CODE":0,"TOWNNAME":"麻豆區","LI":"港尾里","LIN":"3鄰","STREET":" ","SECT":" ","MAREA":"姓陳寮","LANE":" ","ALLEY":" ","HOUSE_NO":"５號","E_COORD97":168786.14000000001,"N_COORD97":2566844.8399999999,"ADDRESS":"姓陳寮５號","OBJECTID":182316},"geometry":{"x":168786.13999999966,"y":2566844.8399999999}},{"attributes":{"ID":182318,"DIS_CODE":0,"TOWNNAME":"西港區","LI":"港東里","LIN":"11鄰","STREET":" ","SECT":" ","MAREA":"烏竹林","LANE":" ","ALLEY":" ","HOUSE_NO":"５９號之１７","E_COORD97":169629.03,"N_COORD97":2558089.5699999998,"ADDRESS":"烏竹林５９號之１７","OBJECTID":182317},"geometry":{"x":169629.03000000119,"y":2558089.5700000003}},{"attributes":{"ID":182319,"DIS_CODE":0,"TOWNNAME":"永康區","LI":"大灣里","LIN":" ","STREET":"大灣路","SECT":" ","MAREA":" ","LANE":"２８８巷","ALLEY":"１３弄","HOUSE_NO":"６號","E_COORD97":174858.34,"N_COORD97":2545226.75,"ADDRESS":"大灣路２８８巷１３弄６號","OBJECTID":182318},"geometry":{"x":174858.34000000078,"y":2545226.7500000019}},{"attributes":{"ID":182320,"DIS_CODE":0,"TOWNNAME":"西港區","LI":"港東里","LIN":"11鄰","STREET":" ","SECT":" ","MAREA":"烏竹林","LANE":" ","ALLEY":" ","HOUSE_NO":"５９號之１８","E_COORD97":169625.13,"N_COORD97":2558089.71,"ADDRESS":"烏竹林５９號之１８","OBJECTID":182319},"geometry":{"x":169625.13000000082,"y":2558089.7100000009}},{"attributes":{"ID":182321,"DIS_CODE":0,"TOWNNAME":"西港區","LI":"港東里","LIN":"11鄰","STREET":" ","SECT":" ","MAREA":"烏竹林","LANE":" ","ALLEY":" ","HOUSE_NO":"５９號之１９","E_COORD97":169620.48999999999,"N_COORD97":2558090.04,"ADDRESS":"烏竹林５９號之１９","OBJECTID":182320},"geometry":{"x":169620.48999999929,"y":2558090.040000001}},{"attributes":{"ID":182322,"DIS_CODE":0,"TOWNNAME":"西港區","LI":"港東里","LIN":"11鄰","STREET":" ","SECT":" ","MAREA":"烏竹林","LANE":" ","ALLEY":" ","HOUSE_NO":"５９號之１","E_COORD97":169624.84,"N_COORD97":2558123.1299999999,"ADDRESS":"烏竹林５９號之１","OBJECTID":182321},"geometry":{"x":169624.84000000078,"y":2558123.1300000008}},{"attributes":{"ID":182323,"DIS_CODE":0,"TOWNNAME":"永康區","LI":"尚頂里","LIN":" ","STREET":"南台街","SECT":" ","MAREA":" ","LANE":"１３５巷","ALLEY":"１弄","HOUSE_NO":"６號","E_COORD97":169985.66,"N_COORD97":2546937.4500000002,"ADDRESS":"南台街１３５巷１弄６號","OBJECTID":182322},"geometry":{"x":169985.66000000201,"y":2546937.4500000011}},{"attributes":{"ID":182324,"DIS_CODE":0,"TOWNNAME":"永康區","LI":"大橋里","LIN":" ","STREET":"大橋一街","SECT":" ","MAREA":" ","LANE":"２３３巷","ALLEY":"３弄","HOUSE_NO":"３３號","E_COORD97":171163.59,"N_COORD97":2546646.5,"ADDRESS":"大橋一街２３３巷３弄３３號","OBJECTID":182323},"geometry":{"x":171163.58999999985,"y":2546646.5000000019}},{"attributes":{"ID":182325,"DIS_CODE":0,"TOWNNAME":"西港區","LI":"港東里","LIN":"11鄰","STREET":" ","SECT":" ","MAREA":"烏竹林","LANE":" ","ALLEY":" ","HOUSE_NO":"５９號之２０","E_COORD97":169616.45999999999,"N_COORD97":2558090.04,"ADDRESS":"烏竹林５９號之２０","OBJECTID":182324},"geometry":{"x":169616.45999999996,"y":2558090.040000001}},{"attributes":{"ID":182326,"DIS_CODE":0,"TOWNNAME":"西港區","LI":"港東里","LIN":"11鄰","STREET":" ","SECT":" ","MAREA":"烏竹林","LANE":" ","ALLEY":" ","HOUSE_NO":"５９號之２１","E_COORD97":169614.59,"N_COORD97":2558072.52,"ADDRESS":"烏竹林５９號之２１","OBJECTID":182325},"geometry":{"x":169614.59000000171,"y":2558072.5199999996}},{"attributes":{"ID":182327,"DIS_CODE":0,"TOWNNAME":"永康區","LI":"王行里","LIN":" ","STREET":"王行路","SECT":" ","MAREA":" ","LANE":"３８８巷","ALLEY":"２弄","HOUSE_NO":"２２號","E_COORD97":175485.10999999999,"N_COORD97":2548591.7200000002,"ADDRESS":"王行路３８８巷２弄２２號","OBJECTID":182326},"geometry":{"x":175485.11000000034,"y":2548591.7200000025}},{"attributes":{"ID":182328,"DIS_CODE":0,"TOWNNAME":"西港區","LI":"港東里","LIN":"11鄰","STREET":" ","SECT":" ","MAREA":"烏竹林","LANE":" ","ALLEY":" ","HOUSE_NO":"５９號之２２","E_COORD97":169613.31,"N_COORD97":2558068.3399999999,"ADDRESS":"烏竹林５９號之２２","OBJECTID":182327},"geometry":{"x":169613.31000000052,"y":2558068.3400000036}},{"attributes":{"ID":182329,"DIS_CODE":0,"TOWNNAME":"西港區","LI":"港東里","LIN":"11鄰","STREET":" ","SECT":" ","MAREA":"烏竹林","LANE":" ","ALLEY":" ","HOUSE_NO":"５９號之２３","E_COORD97":169612.63,"N_COORD97":2558063.5800000001,"ADDRESS":"烏竹林５９號之２３","OBJECTID":182328},"geometry":{"x":169612.63000000175,"y":2558063.5800000038}},{"attributes":{"ID":182330,"DIS_CODE":0,"TOWNNAME":"西港區","LI":"港東里","LIN":"11鄰","STREET":" ","SECT":" ","MAREA":"烏竹林","LANE":" ","ALLEY":" ","HOUSE_NO":"５９號之２４","E_COORD97":169611.53,"N_COORD97":2558058.6499999999,"ADDRESS":"烏竹林５９號之２４","OBJECTID":182329},"geometry":{"x":169611.53000000026,"y":2558058.6500000004}},{"attributes":{"ID":182331,"DIS_CODE":0,"TOWNNAME":"永康區","LI":"大橋里","LIN":" ","STREET":"大橋一街","SECT":" ","MAREA":" ","LANE":"２３３巷","ALLEY":"３弄","HOUSE_NO":"３８號","E_COORD97":171123.09,"N_COORD97":2546675.54,"ADDRESS":"大橋一街２３３巷３弄３８號","OBJECTID":182330},"geometry":{"x":171123.08999999892,"y":2546675.540000001}},{"attributes":{"ID":182332,"DIS_CODE":0,"TOWNNAME":"西港區","LI":"港東里","LIN":"11鄰","STREET":" ","SECT":" ","MAREA":"烏竹林","LANE":" ","ALLEY":" ","HOUSE_NO":"５９號之２５","E_COORD97":169610.19,"N_COORD97":2558054.6800000002,"ADDRESS":"烏竹林５９號之２５","OBJECTID":182331},"geometry":{"x":169610.19000000041,"y":2558054.6799999997}},{"attributes":{"ID":182333,"DIS_CODE":0,"TOWNNAME":"關廟區","LI":"松腳里","LIN":"10鄰","STREET":"勝利街","SECT":" ","MAREA":" ","LANE":" ","ALLEY":" ","HOUSE_NO":"３７號","E_COORD97":181769.51999999999,"N_COORD97":2539737.2599999998,"ADDRESS":"勝利街３７號","OBJECTID":182332},"geometry":{"x":181769.52000000048,"y":2539737.2600000016}},{"attributes":{"ID":182334,"DIS_CODE":0,"TOWNNAME":"西港區","LI":"港東里","LIN":"11鄰","STREET":" ","SECT":" ","MAREA":"烏竹林","LANE":" ","ALLEY":" ","HOUSE_NO":"４６號","E_COORD97":169758.34,"N_COORD97":2558166.4500000002,"ADDRESS":"烏竹林４６號","OBJECTID":182333},"geometry":{"x":169758.33999999985,"y":2558166.4500000011}},{"attributes":{"ID":182335,"DIS_CODE":0,"TOWNNAME":"西港區","LI":"港東里","LIN":"11鄰","STREET":" ","SECT":" ","MAREA":"烏竹林","LANE":" ","ALLEY":" ","HOUSE_NO":"４７號","E_COORD97":169737.28,"N_COORD97":2558161.1800000002,"ADDRESS":"烏竹林４７號","OBJECTID":182334},"geometry":{"x":169737.27999999933,"y":2558161.1800000016}},{"attributes":{"ID":182336,"DIS_CODE":0,"TOWNNAME":"西港區","LI":"港東里","LIN":"11鄰","STREET":" ","SECT":" ","MAREA":"烏竹林","LANE":" ","ALLEY":" ","HOUSE_NO":"５０號之１","E_COORD97":169775.69,"N_COORD97":2558134.2599999998,"ADDRESS":"烏竹林５０號之１","OBJECTID":182335},"geometry":{"x":169775.69000000134,"y":2558134.2600000016}},{"attributes":{"ID":182337,"DIS_CODE":0,"TOWNNAME":"西港區","LI":"港東里","LIN":"11鄰","STREET":" ","SECT":" ","MAREA":"烏竹林","LANE":" ","ALLEY":" ","HOUSE_NO":"５０之３號","E_COORD97":169786.79999999999,"N_COORD97":2558131.9500000002,"ADDRESS":"烏竹林５０之３號","OBJECTID":182336},"geometry":{"x":169786.79999999981,"y":2558131.9500000011}},{"attributes":{"ID":182338,"DIS_CODE":0,"TOWNNAME":"西港區","LI":"港東里","LIN":"11鄰","STREET":" ","SECT":" ","MAREA":"烏竹林","LANE":" ","ALLEY":" ","HOUSE_NO":"５０號","E_COORD97":169771.29999999999,"N_COORD97":2558135.1699999999,"ADDRESS":"烏竹林５０號","OBJECTID":182337},"geometry":{"x":169771.30000000075,"y":2558135.1700000018}},{"attributes":{"ID":182339,"DIS_CODE":0,"TOWNNAME":"西港區","LI":"港東里","LIN":"11鄰","STREET":" ","SECT":" ","MAREA":"烏竹林","LANE":" ","ALLEY":" ","HOUSE_NO":"５１號之１","E_COORD97":169793.85999999999,"N_COORD97":2558111.46,"ADDRESS":"烏竹林５１號之１","OBJECTID":182338},"geometry":{"x":169793.86000000034,"y":2558111.4600000009}},{"attributes":{"ID":182340,"DIS_CODE":0,"TOWNNAME":"西港區","LI":"港東里","LIN":"11鄰","STREET":" ","SECT":" ","MAREA":"烏竹林","LANE":" ","ALLEY":" ","HOUSE_NO":"５１之２號","E_COORD97":169764.01000000001,"N_COORD97":2558114.3300000001,"ADDRESS":"烏竹林５１之２號","OBJECTID":182339},"geometry":{"x":169764.00999999885,"y":2558114.3300000001}},{"attributes":{"ID":182341,"DIS_CODE":0,"TOWNNAME":"西港區","LI":"港東里","LIN":"11鄰","STREET":" ","SECT":" ","MAREA":"烏竹林","LANE":" ","ALLEY":" ","HOUSE_NO":"５１之３號","E_COORD97":169780.44,"N_COORD97":2558113.23,"ADDRESS":"烏竹林５１之３號","OBJECTID":182340},"geometry":{"x":169780.44000000227,"y":2558113.2300000004}},{"attributes":{"ID":182342,"DIS_CODE":0,"TOWNNAME":"西港區","LI":"港東里","LIN":"11鄰","STREET":" ","SECT":" ","MAREA":"烏竹林","LANE":" ","ALLEY":" ","HOUSE_NO":"５２號之１０","E_COORD97":169759.39999999999,"N_COORD97":2558134.48,"ADDRESS":"烏竹林５２號之１０","OBJECTID":182341},"geometry":{"x":169759.4000000013,"y":2558134.4800000004}},{"attributes":{"ID":182343,"DIS_CODE":0,"TOWNNAME":"西港區","LI":"港東里","LIN":"11鄰","STREET":" ","SECT":" ","MAREA":"烏竹林","LANE":" ","ALLEY":" ","HOUSE_NO":"５９號之２６","E_COORD97":169609.14999999999,"N_COORD97":2558049.3199999998,"ADDRESS":"烏竹林５９號之２６","OBJECTID":182342},"geometry":{"x":169609.15000000037,"y":2558049.3200000022}},{"attributes":{"ID":182344,"DIS_CODE":0,"TOWNNAME":"關廟區","LI":"松腳里","LIN":"10鄰","STREET":"和平路","SECT":" ","MAREA":" ","LANE":" ","ALLEY":" ","HOUSE_NO":"２０８號","E_COORD97":181700.44,"N_COORD97":2539698.25,"ADDRESS":"和平路２０８號","OBJECTID":182343},"geometry":{"x":181700.44000000041,"y":2539698.25}},{"attributes":{"ID":182345,"DIS_CODE":0,"TOWNNAME":"西港區","LI":"港東里","LIN":"11鄰","STREET":" ","SECT":" ","MAREA":"烏竹林","LANE":" ","ALLEY":" ","HOUSE_NO":"５９號之２７","E_COORD97":169608.10999999999,"N_COORD97":2558044.8599999999,"ADDRESS":"烏竹林５９號之２７","OBJECTID":182344},"geometry":{"x":169608.1100000022,"y":2558044.8600000013}},{"attributes":{"ID":182346,"DIS_CODE":0,"TOWNNAME":"關廟區","LI":"香洋里","LIN":"10鄰","STREET":"中正路","SECT":" ","MAREA":" ","LANE":" ","ALLEY":" ","HOUSE_NO":"９３３號","E_COORD97":181273.56,"N_COORD97":2540234.25,"ADDRESS":"中正路９３３號","OBJECTID":182345},"geometry":{"x":181273.55999999959,"y":2540234.25}},{"attributes":{"ID":182347,"DIS_CODE":0,"TOWNNAME":"西港區","LI":"港東里","LIN":"11鄰","STREET":" ","SECT":" ","MAREA":"烏竹林","LANE":" ","ALLEY":" ","HOUSE_NO":"５９號之２８","E_COORD97":169607.17999999999,"N_COORD97":2558040.48,"ADDRESS":"烏竹林５９號之２８","OBJECTID":182346},"geometry":{"x":169607.18000000063,"y":2558040.4799999986}},{"attributes":{"ID":182348,"DIS_CODE":0,"TOWNNAME":"關廟區","LI":"松腳里","LIN":"10鄰","STREET":"和平路","SECT":" ","MAREA":" ","LANE":" ","ALLEY":" ","HOUSE_NO":"２３２號","E_COORD97":181704.73999999999,"N_COORD97":2539770.25,"ADDRESS":"和平路２３２號","OBJECTID":182347},"geometry":{"x":181704.74000000115,"y":2539770.25}},{"attributes":{"ID":182349,"DIS_CODE":0,"TOWNNAME":"關廟區","LI":"關廟里","LIN":"10鄰","STREET":"大仁街","SECT":" ","MAREA":" ","LANE":" ","ALLEY":" ","HOUSE_NO":"３０６號","E_COORD97":180800.76999999999,"N_COORD97":2539639.25,"ADDRESS":"大仁街３０６號","OBJECTID":182348},"geometry":{"x":180800.76999999955,"y":2539639.2500000019}},{"attributes":{"ID":182350,"DIS_CODE":0,"TOWNNAME":"永康區","LI":"大橋里","LIN":" ","STREET":"大橋一街","SECT":" ","MAREA":" ","LANE":"２３３巷","ALLEY":"３弄","HOUSE_NO":"２７號","E_COORD97":171172.84,"N_COORD97":2546632.5,"ADDRESS":"大橋一街２３３巷３弄２７號","OBJECTID":182349},"geometry":{"x":171172.84000000078,"y":2546632.5000000019}},{"attributes":{"ID":182351,"DIS_CODE":0,"TOWNNAME":"永康區","LI":"王行里","LIN":" ","STREET":"龍潭街","SECT":" ","MAREA":" ","LANE":"１４４巷","ALLEY":"８弄","HOUSE_NO":"５號","E_COORD97":174914.72,"N_COORD97":2548060.3900000001,"ADDRESS":"龍潭街１４４巷８弄５號","OBJECTID":182350},"geometry":{"x":174914.72000000067,"y":2548060.3900000043}},{"attributes":{"ID":182352,"DIS_CODE":0,"TOWNNAME":"安南區","LI":"海東里","LIN":"21鄰","STREET":"海東三街","SECT":" ","MAREA":" ","LANE":" ","ALLEY":" ","HOUSE_NO":"５６號","E_COORD97":166888.608049,"N_COORD97":2547972.7257099999,"ADDRESS":"海東三街５６號","OBJECTID":182351},"geometry":{"x":166888.60804899968,"y":2547972.7257080004}},{"attributes":{"ID":182353,"DIS_CODE":0,"TOWNNAME":"西港區","LI":"港東里","LIN":"11鄰","STREET":" ","SECT":" ","MAREA":"烏竹林","LANE":" ","ALLEY":" ","HOUSE_NO":"５９號之２９","E_COORD97":169606.26999999999,"N_COORD97":2558035.5699999998,"ADDRESS":"烏竹林５９號之２９","OBJECTID":182352},"geometry":{"x":169606.27000000142,"y":2558035.5700000003}},{"attributes":{"ID":182354,"DIS_CODE":0,"TOWNNAME":"西港區","LI":"港東里","LIN":"11鄰","STREET":" ","SECT":" ","MAREA":"烏竹林","LANE":" ","ALLEY":" ","HOUSE_NO":"５９號之２","E_COORD97":169629.79999999999,"N_COORD97":2558123.23,"ADDRESS":"烏竹林５９號之２","OBJECTID":182353},"geometry":{"x":169629.79999999981,"y":2558123.2300000004}},{"attributes":{"ID":182355,"DIS_CODE":0,"TOWNNAME":"關廟區","LI":"香洋里","LIN":"10鄰","STREET":"中正路","SECT":" ","MAREA":" ","LANE":" ","ALLEY":" ","HOUSE_NO":"９２３號","E_COORD97":181294.26000000001,"N_COORD97":2540228.25,"ADDRESS":"中正路９２３號","OBJECTID":182354},"geometry":{"x":181294.25999999978,"y":2540228.25}},{"attributes":{"ID":182356,"DIS_CODE":0,"TOWNNAME":"關廟區","LI":"關廟里","LIN":"10鄰","STREET":"大仁街","SECT":" ","MAREA":" ","LANE":" ","ALLEY":" ","HOUSE_NO":"２５５號","E_COORD97":180814.97,"N_COORD97":2539511.25,"ADDRESS":"大仁街２５５號","OBJECTID":182355},"geometry":{"x":180814.96999999974,"y":2539511.2500000019}},{"attributes":{"ID":182357,"DIS_CODE":0,"TOWNNAME":"永康區","LI":"西橋里","LIN":" ","STREET":"中華西街","SECT":" ","MAREA":" ","LANE":"６１９巷","ALLEY":"２３弄","HOUSE_NO":"２號","E_COORD97":171006.23999999999,"N_COORD97":2546040.5,"ADDRESS":"中華西街６１９巷２３弄２號","OBJECTID":182356},"geometry":{"x":171006.24000000115,"y":2546040.5}},{"attributes":{"ID":182358,"DIS_CODE":0,"TOWNNAME":"永康區","LI":"神洲里","LIN":"13鄰","STREET":"忠孝路","SECT":" ","MAREA":" ","LANE":"７６巷","ALLEY":"６３弄","HOUSE_NO":"７號","E_COORD97":172252.76000000001,"N_COORD97":2544997.75,"ADDRESS":"忠孝路７６巷６３弄７號","OBJECTID":182357},"geometry":{"x":172252.76000000164,"y":2544997.75}},{"attributes":{"ID":182359,"DIS_CODE":0,"TOWNNAME":"永康區","LI":"中華里","LIN":"14鄰","STREET":"忠義街","SECT":" ","MAREA":" ","LANE":"４４巷","ALLEY":"１８弄","HOUSE_NO":"１８號","E_COORD97":171768.07000000001,"N_COORD97":2544412.5,"ADDRESS":"忠義街４４巷１８弄１８號","OBJECTID":182358},"geometry":{"x":171768.07000000216,"y":2544412.5}},{"attributes":{"ID":182360,"DIS_CODE":0,"TOWNNAME":"永康區","LI":"中華里","LIN":"14鄰","STREET":"忠義街","SECT":" ","MAREA":" ","LANE":"４４巷","ALLEY":"１８弄","HOUSE_NO":"２８號","E_COORD97":171767.42999999999,"N_COORD97":2544390.8999999999,"ADDRESS":"忠義街４４巷１８弄２８號","OBJECTID":182359},"geometry":{"x":171767.4299999997,"y":2544390.9000000004}},{"attributes":{"ID":182361,"DIS_CODE":0,"TOWNNAME":"永康區","LI":"甲頂里","LIN":" ","STREET":"中正南路","SECT":" ","MAREA":" ","LANE":"５２巷","ALLEY":"１３弄","HOUSE_NO":"７４號","E_COORD97":169711.41,"N_COORD97":2546784.7200000002,"ADDRESS":"中正南路５２巷１３弄７４號","OBJECTID":182360},"geometry":{"x":169711.41000000108,"y":2546784.7200000025}},{"attributes":{"ID":182362,"DIS_CODE":0,"TOWNNAME":"永康區","LI":"尚頂里","LIN":" ","STREET":"國聖街","SECT":" ","MAREA":" ","LANE":"４３巷","ALLEY":"３５弄","HOUSE_NO":"２號","E_COORD97":170317.88,"N_COORD97":2547720.6400000001,"ADDRESS":"國聖街４３巷３５弄２號","OBJECTID":182361},"geometry":{"x":170317.88000000082,"y":2547720.6400000025}},{"attributes":{"ID":182363,"DIS_CODE":0,"TOWNNAME":"永康區","LI":"西橋里","LIN":" ","STREET":"中華西街","SECT":" ","MAREA":" ","LANE":"６１９巷","ALLEY":"２３弄","HOUSE_NO":"４號","E_COORD97":171014.03,"N_COORD97":2546029.25,"ADDRESS":"中華西街６１９巷２３弄４號","OBJECTID":182362},"geometry":{"x":171014.03000000119,"y":2546029.25}},{"attributes":{"ID":182364,"DIS_CODE":0,"TOWNNAME":"永康區","LI":"大橋里","LIN":" ","STREET":"大橋一街","SECT":" ","MAREA":" ","LANE":"２２３巷","ALLEY":"６弄","HOUSE_NO":"２３號","E_COORD97":171229.82000000001,"N_COORD97":2546753.0499999998,"ADDRESS":"大橋一街２２３巷６弄２３號","OBJECTID":182363},"geometry":{"x":171229.8200000003,"y":2546753.0500000007}},{"attributes":{"ID":182365,"DIS_CODE":0,"TOWNNAME":"永康區","LI":"神洲里","LIN":" ","STREET":"忠孝路","SECT":" ","MAREA":" ","LANE":"７６巷","ALLEY":"６３弄","HOUSE_NO":"５９號","E_COORD97":172275.25,"N_COORD97":2545012.9900000002,"ADDRESS":"忠孝路７６巷６３弄５９號","OBJECTID":182364},"geometry":{"x":172275.25000000093,"y":2545012.9900000002}},{"attributes":{"ID":182366,"DIS_CODE":0,"TOWNNAME":"永康區","LI":"勝利里","LIN":"20鄰","STREET":"勝利街","SECT":" ","MAREA":" ","LANE":"１９７巷","ALLEY":"４０弄","HOUSE_NO":"２號","E_COORD97":171250.89999999999,"N_COORD97":2545168.7599999998,"ADDRESS":"勝利街１９７巷４０弄２號","OBJECTID":182365},"geometry":{"x":171250.9000000013,"y":2545168.7600000016}},{"attributes":{"ID":182367,"DIS_CODE":0,"TOWNNAME":"永康區","LI":"甲頂里","LIN":" ","STREET":"大武街","SECT":" ","MAREA":" ","LANE":"５９７巷","ALLEY":"５４弄","HOUSE_NO":"２１號","E_COORD97":170315.92999999999,"N_COORD97":2546568.9900000002,"ADDRESS":"大武街５９７巷５４弄２１號","OBJECTID":182366},"geometry":{"x":170315.93000000063,"y":2546568.9900000021}},{"attributes":{"ID":182368,"DIS_CODE":0,"TOWNNAME":"永康區","LI":"勝利里","LIN":"40鄰","STREET":"中華一路","SECT":" ","MAREA":" ","LANE":"１８２巷","ALLEY":"１弄","HOUSE_NO":"１號","E_COORD97":171507.01000000001,"N_COORD97":2545005.4399999999,"ADDRESS":"中華一路１８２巷１弄１號","OBJECTID":182367},"geometry":{"x":171507.01000000071,"y":2545005.4400000013}},{"attributes":{"ID":182369,"DIS_CODE":0,"TOWNNAME":"西港區","LI":"港東里","LIN":"11鄰","STREET":" ","SECT":" ","MAREA":"烏竹林","LANE":" ","ALLEY":" ","HOUSE_NO":"５９之３３號","E_COORD97":169478.88,"N_COORD97":2557984.6099999999,"ADDRESS":"烏竹林５９之３３號","OBJECTID":182368},"geometry":{"x":169478.88000000082,"y":2557984.6100000031}},{"attributes":{"ID":182370,"DIS_CODE":0,"TOWNNAME":"西港區","LI":"港東里","LIN":"11鄰","STREET":" ","SECT":" ","MAREA":"烏竹林","LANE":" ","ALLEY":" ","HOUSE_NO":"５９號之３","E_COORD97":169633.67000000001,"N_COORD97":2558122.6600000001,"ADDRESS":"烏竹林５９號之３","OBJECTID":182369},"geometry":{"x":169633.66999999993,"y":2558122.6600000001}},{"attributes":{"ID":182371,"DIS_CODE":0,"TOWNNAME":"西港區","LI":"港東里","LIN":"11鄰","STREET":" ","SECT":" ","MAREA":"烏竹林","LANE":" ","ALLEY":" ","HOUSE_NO":"５９號之４","E_COORD97":169638.39999999999,"N_COORD97":2558122.5,"ADDRESS":"烏竹林５９號之４","OBJECTID":182370},"geometry":{"x":169638.40000000224,"y":2558122.5000000019}},{"attributes":{"ID":182372,"DIS_CODE":0,"TOWNNAME":"西港區","LI":"港東里","LIN":"11鄰","STREET":" ","SECT":" ","MAREA":"烏竹林","LANE":" ","ALLEY":" ","HOUSE_NO":"５９號之５","E_COORD97":169643.10999999999,"N_COORD97":2558121.8399999999,"ADDRESS":"烏竹林５９號之５","OBJECTID":182371},"geometry":{"x":169643.11000000034,"y":2558121.8399999999}},{"attributes":{"ID":182373,"DIS_CODE":0,"TOWNNAME":"永康區","LI":"甲頂里","LIN":" ","STREET":"中正南路","SECT":" ","MAREA":" ","LANE":"５２巷","ALLEY":"１３弄","HOUSE_NO":"７６號","E_COORD97":169708.03,"N_COORD97":2546792.1600000001,"ADDRESS":"中正南路５２巷１３弄７６號","OBJECTID":182372},"geometry":{"x":169708.03000000026,"y":2546792.1600000001}},{"attributes":{"ID":182374,"DIS_CODE":0,"TOWNNAME":"永康區","LI":"神洲里","LIN":" ","STREET":"忠孝路","SECT":" ","MAREA":" ","LANE":"７３巷","ALLEY":"６３弄","HOUSE_NO":"８號","E_COORD97":172251.84,"N_COORD97":2545049.6499999999,"ADDRESS":"忠孝路７３巷６３弄８號","OBJECTID":182373},"geometry":{"x":172251.83999999985,"y":2545049.6500000004}},{"attributes":{"ID":182375,"DIS_CODE":0,"TOWNNAME":"永康區","LI":"甲頂里","LIN":" ","STREET":"中正南路","SECT":" ","MAREA":" ","LANE":"５２巷","ALLEY":"６８弄","HOUSE_NO":"１００號","E_COORD97":170129.84,"N_COORD97":2546767.5099999998,"ADDRESS":"中正南路５２巷６８弄１００號","OBJECTID":182374},"geometry":{"x":170129.84000000171,"y":2546767.5100000016}},{"attributes":{"ID":182376,"DIS_CODE":0,"TOWNNAME":"永康區","LI":"甲頂里","LIN":" ","STREET":"中正南路","SECT":" ","MAREA":" ","LANE":"５２巷","ALLEY":"１３弄","HOUSE_NO":"６８號","E_COORD97":169711.35999999999,"N_COORD97":2546772.4100000001,"ADDRESS":"中正南路５２巷１３弄６８號","OBJECTID":182375},"geometry":{"x":169711.3599999994,"y":2546772.410000002}},{"attributes":{"ID":182377,"DIS_CODE":0,"TOWNNAME":"永康區","LI":"中華里","LIN":"13鄰","STREET":"忠義街","SECT":" ","MAREA":" ","LANE":"４４巷","ALLEY":"１８弄","HOUSE_NO":"１１號","E_COORD97":171789.84,"N_COORD97":2544407,"ADDRESS":"忠義街４４巷１８弄１１號","OBJECTID":182376},"geometry":{"x":171789.84000000078,"y":2544407}},{"attributes":{"ID":182378,"DIS_CODE":0,"TOWNNAME":"永康區","LI":"二王里","LIN":" ","STREET":"南工街","SECT":" ","MAREA":" ","LANE":"２１２巷","ALLEY":"１３弄","HOUSE_NO":"１８之４號","E_COORD97":172178.5,"N_COORD97":2545946.1099999999,"ADDRESS":"南工街２１２巷１３弄１８之４號","OBJECTID":182377},"geometry":{"x":172178.50000000093,"y":2545946.1100000013}},{"attributes":{"ID":182379,"DIS_CODE":0,"TOWNNAME":"永康區","LI":"尚頂里","LIN":" ","STREET":"南台街","SECT":" ","MAREA":" ","LANE":"５４巷","ALLEY":"４１弄","HOUSE_NO":"４號","E_COORD97":170320.29000000001,"N_COORD97":2547091.2400000002,"ADDRESS":"南台街５４巷４１弄４號","OBJECTID":182378},"geometry":{"x":170320.2900000019,"y":2547091.2400000039}},{"attributes":{"ID":182380,"DIS_CODE":0,"TOWNNAME":"永康區","LI":"\u25A0行里","LIN":"40鄰","STREET":"永安路","SECT":" ","MAREA":" ","LANE":"１０５巷","ALLEY":"４６弄","HOUSE_NO":"３號","E_COORD97":172574.04999999999,"N_COORD97":2549311.3700000001,"ADDRESS":"永安路１０５巷４６弄３號","OBJECTID":182379},"geometry":{"x":172574.04999999981,"y":2549311.370000001}},{"attributes":{"ID":182381,"DIS_CODE":0,"TOWNNAME":"永康區","LI":"尚頂里","LIN":" ","STREET":"中正南路","SECT":" ","MAREA":" ","LANE":"２３５巷","ALLEY":"６弄","HOUSE_NO":"５號","E_COORD97":170055.01000000001,"N_COORD97":2547420.6099999999,"ADDRESS":"中正南路２３５巷６弄５號","OBJECTID":182380},"geometry":{"x":170055.00999999978,"y":2547420.6100000013}},{"attributes":{"ID":182382,"DIS_CODE":0,"TOWNNAME":"永康區","LI":"尚頂里","LIN":" ","STREET":"南台街","SECT":" ","MAREA":" ","LANE":"１３５巷","ALLEY":"１弄","HOUSE_NO":"２號","E_COORD97":169989.67999999999,"N_COORD97":2546986.9900000002,"ADDRESS":"南台街１３５巷１弄２號","OBJECTID":182381},"geometry":{"x":169989.6799999997,"y":2546986.9900000002}},{"attributes":{"ID":182383,"DIS_CODE":0,"TOWNNAME":"永康區","LI":"大橋里","LIN":" ","STREET":"大橋二街","SECT":" ","MAREA":" ","LANE":"２３９巷","ALLEY":"２２弄","HOUSE_NO":"４號","E_COORD97":171099.26000000001,"N_COORD97":2546859,"ADDRESS":"大橋二街２３９巷２２弄４號","OBJECTID":182382},"geometry":{"x":171099.25999999978,"y":2546859.0000000019}},{"attributes":{"ID":182384,"DIS_CODE":0,"TOWNNAME":"西港區","LI":"港東里","LIN":"11鄰","STREET":" ","SECT":" ","MAREA":"烏竹林","LANE":" ","ALLEY":" ","HOUSE_NO":"５９號之６","E_COORD97":169647.64999999999,"N_COORD97":2558121.6099999999,"ADDRESS":"烏竹林５９號之６","OBJECTID":182383},"geometry":{"x":169647.6500000013,"y":2558121.6100000013}},{"attributes":{"ID":182385,"DIS_CODE":0,"TOWNNAME":"永康區","LI":"五王里","LIN":" ","STREET":"中華二路","SECT":" ","MAREA":" ","LANE":"２０６巷","ALLEY":"５２弄","HOUSE_NO":"１７號","E_COORD97":171682.76999999999,"N_COORD97":2545636.9900000002,"ADDRESS":"中華二路２０６巷５２弄１７號","OBJECTID":182384},"geometry":{"x":171682.77000000142,"y":2545636.9900000002}},{"attributes":{"ID":182386,"DIS_CODE":0,"TOWNNAME":"永康區","LI":"五王里","LIN":" ","STREET":"中山東路","SECT":" ","MAREA":" ","LANE":"２１８巷","ALLEY":"２８弄","HOUSE_NO":"３２號","E_COORD97":171697.17999999999,"N_COORD97":2545791.25,"ADDRESS":"中山東路２１８巷２８弄３２號","OBJECTID":182385},"geometry":{"x":171697.18000000156,"y":2545791.25}},{"attributes":{"ID":182387,"DIS_CODE":0,"TOWNNAME":"永康區","LI":"復興里","LIN":" ","STREET":"復興路","SECT":" ","MAREA":" ","LANE":"２４６巷","ALLEY":"１１弄","HOUSE_NO":"５２號","E_COORD97":172328.20999999999,"N_COORD97":2544462.4100000001,"ADDRESS":"復興路２４６巷１１弄５２號","OBJECTID":182386},"geometry":{"x":172328.21000000089,"y":2544462.4100000039}},{"attributes":{"ID":182388,"DIS_CODE":0,"TOWNNAME":"永康區","LI":"復興里","LIN":" ","STREET":"復興路","SECT":" ","MAREA":" ","LANE":"２４６巷","ALLEY":"１１弄","HOUSE_NO":"８號","E_COORD97":172385.26000000001,"N_COORD97":2544428.02,"ADDRESS":"復興路２４６巷１１弄８號","OBJECTID":182387},"geometry":{"x":172385.26000000071,"y":2544428.0200000014}},{"attributes":{"ID":182389,"DIS_CODE":0,"TOWNNAME":"永康區","LI":"復興里","LIN":" ","STREET":"復興路","SECT":" ","MAREA":" ","LANE":"２７７巷","ALLEY":"７８弄","HOUSE_NO":"２３號","E_COORD97":172280.03,"N_COORD97":2544110.77,"ADDRESS":"復興路２７７巷７８弄２３號","OBJECTID":182388},"geometry":{"x":172280.02999999933,"y":2544110.7700000014}},{"attributes":{"ID":182390,"DIS_CODE":0,"TOWNNAME":"永康區","LI":"復興里","LIN":" ","STREET":"復興路","SECT":" ","MAREA":" ","LANE":"３５６巷","ALLEY":"８０弄","HOUSE_NO":"１２５之３號","E_COORD97":172588.98000000001,"N_COORD97":2544647.0499999998,"ADDRESS":"復興路３５６巷８０弄１２５之３號","OBJECTID":182389},"geometry":{"x":172588.98000000045,"y":2544647.0500000007}},{"attributes":{"ID":182391,"DIS_CODE":0,"TOWNNAME":"永康區","LI":"甲頂里","LIN":" ","STREET":"中正南路","SECT":" ","MAREA":" ","LANE":"５２巷","ALLEY":"６８弄","HOUSE_NO":"９８號","E_COORD97":170121.20000000001,"N_COORD97":2546757.02,"ADDRESS":"中正南路５２巷６８弄９８號","OBJECTID":182390},"geometry":{"x":170121.20000000112,"y":2546757.0200000014}},{"attributes":{"ID":182392,"DIS_CODE":0,"TOWNNAME":"永康區","LI":"大橋里","LIN":" ","STREET":"大二街","SECT":" ","MAREA":" ","LANE":"２３９巷","ALLEY":"２２弄","HOUSE_NO":"１０號","E_COORD97":171110.60000000001,"N_COORD97":2546866.5,"ADDRESS":"大二街２３９巷２２弄１０號","OBJECTID":182391},"geometry":{"x":171110.59999999963,"y":2546866.5000000019}},{"attributes":{"ID":182393,"DIS_CODE":0,"TOWNNAME":"永康區","LI":"大橋里","LIN":" ","STREET":"大橋一街","SECT":" ","MAREA":" ","LANE":"２３３巷","ALLEY":"３弄","HOUSE_NO":"４５號","E_COORD97":171117.79999999999,"N_COORD97":2546649.7999999998,"ADDRESS":"大橋一街２３３巷３弄４５號","OBJECTID":182392},"geometry":{"x":171117.79999999981,"y":2546649.8000000007}},{"attributes":{"ID":182394,"DIS_CODE":0,"TOWNNAME":"永康區","LI":"二王里","LIN":" ","STREET":"南工街","SECT":" ","MAREA":" ","LANE":"２１２巷","ALLEY":"１３弄","HOUSE_NO":"１８之２號","E_COORD97":172175.73999999999,"N_COORD97":2545989.3599999999,"ADDRESS":"南工街２１２巷１３弄１８之２號","OBJECTID":182393},"geometry":{"x":172175.74000000115,"y":2545989.3599999994}},{"attributes":{"ID":182395,"DIS_CODE":0,"TOWNNAME":"西港區","LI":"港東里","LIN":"11鄰","STREET":" ","SECT":" ","MAREA":"烏竹林","LANE":" ","ALLEY":" ","HOUSE_NO":"５９號之７","E_COORD97":169652.31,"N_COORD97":2558121.5,"ADDRESS":"烏竹林５９號之７","OBJECTID":182394},"geometry":{"x":169652.31000000052,"y":2558121.5000000037}},{"attributes":{"ID":182396,"DIS_CODE":0,"TOWNNAME":"永康區","LI":"復興里","LIN":" ","STREET":"復興路","SECT":" ","MAREA":" ","LANE":"２４６巷","ALLEY":"２７弄","HOUSE_NO":"６號","E_COORD97":172381.57999999999,"N_COORD97":2544490.52,"ADDRESS":"復興路２４６巷２７弄６號","OBJECTID":182395},"geometry":{"x":172381.58000000101,"y":2544490.5199999996}},{"attributes":{"ID":182397,"DIS_CODE":0,"TOWNNAME":"永康區","LI":"神洲里","LIN":" ","STREET":"忠孝路","SECT":" ","MAREA":" ","LANE":"７３巷","ALLEY":"６３弄","HOUSE_NO":"２１號","E_COORD97":172237.20999999999,"N_COORD97":2545012.4900000002,"ADDRESS":"忠孝路７３巷６３弄２１號","OBJECTID":182396},"geometry":{"x":172237.20999999996,"y":2545012.4900000021}},{"attributes":{"ID":182398,"DIS_CODE":0,"TOWNNAME":"永康區","LI":"中華里","LIN":"13鄰","STREET":"忠義街","SECT":" ","MAREA":" ","LANE":"４４巷","ALLEY":"１８弄","HOUSE_NO":"１號","E_COORD97":171788.81,"N_COORD97":2544444.7400000002,"ADDRESS":"忠義街４４巷１８弄１號","OBJECTID":182397},"geometry":{"x":171788.80999999959,"y":2544444.7400000021}},{"attributes":{"ID":182399,"DIS_CODE":0,"TOWNNAME":"白河區","LI":"外角里","LIN":"11鄰","STREET":" ","SECT":" ","MAREA":"庄內","LANE":" ","ALLEY":" ","HOUSE_NO":"４５之２號","E_COORD97":191051.01000000001,"N_COORD97":2583339.5699999998,"ADDRESS":"庄內４５之２號","OBJECTID":182398},"geometry":{"x":191051.01000000071,"y":2583339.5700000022}},{"attributes":{"ID":182400,"DIS_CODE":0,"TOWNNAME":"永康區","LI":"\u25A0行里","LIN":"40鄰","STREET":"永安路","SECT":" ","MAREA":" ","LANE":"１０５巷","ALLEY":"４０弄","HOUSE_NO":"６號","E_COORD97":172641.23999999999,"N_COORD97":2549318.3199999998,"ADDRESS":"永安路１０５巷４０弄６號","OBJECTID":182399},"geometry":{"x":172641.24000000022,"y":2549318.320000004}},{"attributes":{"ID":182401,"DIS_CODE":0,"TOWNNAME":"永康區","LI":"復興里","LIN":" ","STREET":"復興路","SECT":" ","MAREA":" ","LANE":"３５６巷","ALLEY":"８０弄","HOUSE_NO":"８７之１號","E_COORD97":172448.32999999999,"N_COORD97":2544632.04,"ADDRESS":"復興路３５６巷８０弄８７之１號","OBJECTID":182400},"geometry":{"x":172448.33000000007,"y":2544632.0399999991}}]}