{"displayFieldName":"TOWNNAME","fieldAliases":{"ID":"ID","DIS_CODE":"DIS_CODE","TOWNNAME":"TOWNNAME","LI":"LI","LIN":"LIN","STREET":"STREET","SECT":"SECT","MAREA":"MAREA","LANE":"LANE","ALLEY":"ALLEY","HOUSE_NO":"HOUSE_NO","E_COORD97":"E_COORD97","N_COORD97":"N_COORD97","ADDRESS":"ADDRESS","OBJECTID":"OBJECTID"},"geometryType":"esriGeometryPoint","spatialReference":{"wkid":102443,"latestWkid":3826},"fields":[{"name":"ID","type":"esriFieldTypeDouble","alias":"ID"},{"name":"DIS_CODE","type":"esriFieldTypeInteger","alias":"DIS_CODE"},{"name":"TOWNNAME","type":"esriFieldTypeString","alias":"TOWNNAME","length":8},{"name":"LI","type":"esriFieldTypeString","alias":"LI","length":8},{"name":"LIN","type":"esriFieldTypeString","alias":"LIN","length":12},{"name":"STREET","type":"esriFieldTypeString","alias":"STREET","length":20},{"name":"SECT","type":"esriFieldTypeString","alias":"SECT","length":8},{"name":"MAREA","type":"esriFieldTypeString","alias":"MAREA","length":12},{"name":"LANE","type":"esriFieldTypeString","alias":"LANE","length":10},{"name":"ALLEY","type":"esriFieldTypeString","alias":"ALLEY","length":10},{"name":"HOUSE_NO","type":"esriFieldTypeString","alias":"HOUSE_NO","length":20},{"name":"E_COORD97","type":"esriFieldTypeDouble","alias":"E_COORD97"},{"name":"N_COORD97","type":"esriFieldTypeDouble","alias":"N_COORD97"},{"name":"ADDRESS","type":"esriFieldTypeString","alias":"ADDRESS","length":50},{"name":"OBJECTID","type":"esriFieldTypeOID","alias":"OBJECTID"}],"features":[{"attributes":{"ID":337810,"DIS_CODE":0,"TOWNNAME":"麻豆區","LI":"磚井里","LIN":"5鄰","STREET":" ","SECT":" ","MAREA":"磚子井","LANE":" ","ALLEY":" ","HOUSE_NO":"４９號之１","E_COORD97":173653.76000000001,"N_COORD97":2563494.9399999999,"ADDRESS":"磚子井４９號之１","OBJECTID":337801},"geometry":{"x":173653.75999999978,"y":2563494.9400000032}},{"attributes":{"ID":337811,"DIS_CODE":0,"TOWNNAME":"麻豆區","LI":"磚井里","LIN":"5鄰","STREET":" ","SECT":" ","MAREA":"磚子井","LANE":" ","ALLEY":" ","HOUSE_NO":"４９號之２","E_COORD97":173657.95999999999,"N_COORD97":2563495.4700000002,"ADDRESS":"磚子井４９號之２","OBJECTID":337802},"geometry":{"x":173657.95999999996,"y":2563495.4700000007}},{"attributes":{"ID":337812,"DIS_CODE":0,"TOWNNAME":"麻豆區","LI":"磚井里","LIN":"5鄰","STREET":" ","SECT":" ","MAREA":"磚子井","LANE":" ","ALLEY":" ","HOUSE_NO":"４９號","E_COORD97":173640.79999999999,"N_COORD97":2563495.5800000001,"ADDRESS":"磚子井４９號","OBJECTID":337803},"geometry":{"x":173640.80000000168,"y":2563495.5800000019}},{"attributes":{"ID":337813,"DIS_CODE":0,"TOWNNAME":"下營區","LI":"大埤里","LIN":"5鄰","STREET":" ","SECT":" ","MAREA":"大埤寮","LANE":" ","ALLEY":" ","HOUSE_NO":"４２號","E_COORD97":173034.92000000001,"N_COORD97":2569864.7400000002,"ADDRESS":"大埤寮４２號","OBJECTID":337804},"geometry":{"x":173034.92000000179,"y":2569864.7400000021}},{"attributes":{"ID":337814,"DIS_CODE":0,"TOWNNAME":"下營區","LI":"大埤里","LIN":"5鄰","STREET":" ","SECT":" ","MAREA":"大埤寮","LANE":" ","ALLEY":" ","HOUSE_NO":"４３號","E_COORD97":173025.57999999999,"N_COORD97":2569881.6899999999,"ADDRESS":"大埤寮４３號","OBJECTID":337805},"geometry":{"x":173025.58000000194,"y":2569881.6900000013}},{"attributes":{"ID":337815,"DIS_CODE":0,"TOWNNAME":"下營區","LI":"大埤里","LIN":"5鄰","STREET":" ","SECT":" ","MAREA":"大埤寮","LANE":" ","ALLEY":" ","HOUSE_NO":"４４號之１","E_COORD97":173007.39999999999,"N_COORD97":2569917.6000000001,"ADDRESS":"大埤寮４４號之１","OBJECTID":337806},"geometry":{"x":173007.4000000013,"y":2569917.5999999996}},{"attributes":{"ID":337816,"DIS_CODE":0,"TOWNNAME":"北區","LI":"延平里","LIN":"1鄰","STREET":"公園路","SECT":" ","MAREA":" ","LANE":"６３４巷","ALLEY":" ","HOUSE_NO":"３９號之２","E_COORD97":169171.31,"N_COORD97":2545359.1800000002,"ADDRESS":"公園路６３４巷３９號之２","OBJECTID":337807},"geometry":{"x":169171.30999999959,"y":2545359.1800000016}},{"attributes":{"ID":337817,"DIS_CODE":0,"TOWNNAME":"北區","LI":"延平里","LIN":"1鄰","STREET":"公園路","SECT":" ","MAREA":" ","LANE":"６３４巷","ALLEY":" ","HOUSE_NO":"４１號","E_COORD97":169179.59,"N_COORD97":2545362.8300000001,"ADDRESS":"公園路６３４巷４１號","OBJECTID":337808},"geometry":{"x":169179.59000000078,"y":2545362.8300000019}},{"attributes":{"ID":337818,"DIS_CODE":0,"TOWNNAME":"北區","LI":"延平里","LIN":"1鄰","STREET":"公園路","SECT":" ","MAREA":" ","LANE":"６３４巷","ALLEY":" ","HOUSE_NO":"４３號","E_COORD97":169184.78,"N_COORD97":2545363.3900000001,"ADDRESS":"公園路６３４巷４３號","OBJECTID":337809},"geometry":{"x":169184.78000000212,"y":2545363.3900000006}},{"attributes":{"ID":337819,"DIS_CODE":0,"TOWNNAME":"北區","LI":"延平里","LIN":"1鄰","STREET":"公園路","SECT":" ","MAREA":" ","LANE":"６３４巷","ALLEY":" ","HOUSE_NO":"４３號之１","E_COORD97":169190.10999999999,"N_COORD97":2545364.23,"ADDRESS":"公園路６３４巷４３號之１","OBJECTID":337810},"geometry":{"x":169190.11000000127,"y":2545364.2300000004}},{"attributes":{"ID":337820,"DIS_CODE":0,"TOWNNAME":"北區","LI":"延平里","LIN":"1鄰","STREET":"公園路","SECT":" ","MAREA":" ","LANE":"６３４巷","ALLEY":" ","HOUSE_NO":"４５號","E_COORD97":169196.01000000001,"N_COORD97":2545359.3199999998,"ADDRESS":"公園路６３４巷４５號","OBJECTID":337811},"geometry":{"x":169196.00999999978,"y":2545359.3200000022}},{"attributes":{"ID":337821,"DIS_CODE":0,"TOWNNAME":"北區","LI":"延平里","LIN":"1鄰","STREET":"公園路","SECT":" ","MAREA":" ","LANE":"６３４巷","ALLEY":" ","HOUSE_NO":"４７號","E_COORD97":169201.04000000001,"N_COORD97":2545364.9900000002,"ADDRESS":"公園路６３４巷４７號","OBJECTID":337812},"geometry":{"x":169201.04000000004,"y":2545364.9900000021}},{"attributes":{"ID":337822,"DIS_CODE":0,"TOWNNAME":"北區","LI":"延平里","LIN":"1鄰","STREET":"公園路","SECT":" ","MAREA":" ","LANE":"６３４巷","ALLEY":" ","HOUSE_NO":"４９號","E_COORD97":169206.25,"N_COORD97":2545365.3500000001,"ADDRESS":"公園路６３４巷４９號","OBJECTID":337813},"geometry":{"x":169206.25,"y":2545365.3500000015}},{"attributes":{"ID":337823,"DIS_CODE":0,"TOWNNAME":"北區","LI":"延平里","LIN":"1鄰","STREET":"公園路","SECT":" ","MAREA":" ","LANE":"６３４巷","ALLEY":" ","HOUSE_NO":"５３號","E_COORD97":169213.95999999999,"N_COORD97":2545367.3100000001,"ADDRESS":"公園路６３４巷５３號","OBJECTID":337814},"geometry":{"x":169213.96000000089,"y":2545367.3100000005}},{"attributes":{"ID":337824,"DIS_CODE":0,"TOWNNAME":"北區","LI":"延平里","LIN":"1鄰","STREET":"公園路","SECT":" ","MAREA":" ","LANE":"６３４巷","ALLEY":" ","HOUSE_NO":"５５號","E_COORD97":169221.95999999999,"N_COORD97":2545371.2400000002,"ADDRESS":"公園路６３４巷５５號","OBJECTID":337815},"geometry":{"x":169221.95999999996,"y":2545371.2400000002}},{"attributes":{"ID":337825,"DIS_CODE":0,"TOWNNAME":"下營區","LI":"下營里","LIN":"5鄰","STREET":"中正南路","SECT":" ","MAREA":" ","LANE":" ","ALLEY":" ","HOUSE_NO":"２號","E_COORD97":174545.78,"N_COORD97":2570496.79,"ADDRESS":"中正南路２號","OBJECTID":337816},"geometry":{"x":174545.78000000026,"y":2570496.7900000028}},{"attributes":{"ID":337826,"DIS_CODE":0,"TOWNNAME":"下營區","LI":"中營里","LIN":"5鄰","STREET":" ","SECT":" ","MAREA":"中營","LANE":" ","ALLEY":" ","HOUSE_NO":"１０１７號","E_COORD97":175992.82999999999,"N_COORD97":2568513.7400000002,"ADDRESS":"中營１０１７號","OBJECTID":337817},"geometry":{"x":175992.83000000101,"y":2568513.7400000002}},{"attributes":{"ID":337827,"DIS_CODE":0,"TOWNNAME":"下營區","LI":"中營里","LIN":"5鄰","STREET":" ","SECT":" ","MAREA":"中營","LANE":" ","ALLEY":" ","HOUSE_NO":"１０２０號","E_COORD97":176002.67000000001,"N_COORD97":2568482.3500000001,"ADDRESS":"中營１０２０號","OBJECTID":337818},"geometry":{"x":176002.66999999993,"y":2568482.3499999996}},{"attributes":{"ID":337828,"DIS_CODE":0,"TOWNNAME":"下營區","LI":"開化里","LIN":"5鄰","STREET":" ","SECT":" ","MAREA":"中營","LANE":" ","ALLEY":" ","HOUSE_NO":"３４６號","E_COORD97":175957.12,"N_COORD97":2568261.5499999998,"ADDRESS":"中營３４６號","OBJECTID":337819},"geometry":{"x":175957.12000000011,"y":2568261.5500000007}},{"attributes":{"ID":337829,"DIS_CODE":0,"TOWNNAME":"下營區","LI":"開化里","LIN":"5鄰","STREET":" ","SECT":" ","MAREA":"中營","LANE":" ","ALLEY":" ","HOUSE_NO":"３４７號","E_COORD97":175960.37,"N_COORD97":2568262.4199999999,"ADDRESS":"中營３４７號","OBJECTID":337820},"geometry":{"x":175960.37000000104,"y":2568262.4200000037}},{"attributes":{"ID":337830,"DIS_CODE":0,"TOWNNAME":"下營區","LI":"開化里","LIN":"5鄰","STREET":" ","SECT":" ","MAREA":"中營","LANE":" ","ALLEY":" ","HOUSE_NO":"３５０號","E_COORD97":175972.14999999999,"N_COORD97":2568265.9199999999,"ADDRESS":"中營３５０號","OBJECTID":337821},"geometry":{"x":175972.1500000013,"y":2568265.9200000037}},{"attributes":{"ID":337831,"DIS_CODE":0,"TOWNNAME":"下營區","LI":"開化里","LIN":"5鄰","STREET":" ","SECT":" ","MAREA":"中營","LANE":" ","ALLEY":" ","HOUSE_NO":"３５１號之１","E_COORD97":175983.07999999999,"N_COORD97":2568241.73,"ADDRESS":"中營３５１號之１","OBJECTID":337822},"geometry":{"x":175983.08000000007,"y":2568241.7300000023}},{"attributes":{"ID":337832,"DIS_CODE":0,"TOWNNAME":"下營區","LI":"開化里","LIN":"5鄰","STREET":" ","SECT":" ","MAREA":"中營","LANE":" ","ALLEY":" ","HOUSE_NO":"３５１號","E_COORD97":175981.54000000001,"N_COORD97":2568257.46,"ADDRESS":"中營３５１號","OBJECTID":337823},"geometry":{"x":175981.54000000004,"y":2568257.4600000028}},{"attributes":{"ID":337833,"DIS_CODE":0,"TOWNNAME":"下營區","LI":"甲中里","LIN":"5鄰","STREET":" ","SECT":" ","MAREA":"中庄子","LANE":" ","ALLEY":" ","HOUSE_NO":"３３號","E_COORD97":175380.88,"N_COORD97":2572356.8900000001,"ADDRESS":"中庄子３３號","OBJECTID":337824},"geometry":{"x":175380.87999999989,"y":2572356.8900000025}},{"attributes":{"ID":337834,"DIS_CODE":0,"TOWNNAME":"佳里區","LI":"民安里","LIN":"5鄰","STREET":" ","SECT":" ","MAREA":"同安寮","LANE":" ","ALLEY":" ","HOUSE_NO":"５５號","E_COORD97":167261.54000000001,"N_COORD97":2562562.1299999999,"ADDRESS":"同安寮５５號","OBJECTID":337825},"geometry":{"x":167261.54000000004,"y":2562562.1300000008}},{"attributes":{"ID":337835,"DIS_CODE":0,"TOWNNAME":"下營區","LI":"仁里里","LIN":"5鄰","STREET":"仁中街","SECT":" ","MAREA":" ","LANE":"４３巷","ALLEY":" ","HOUSE_NO":"３號","E_COORD97":174412.57000000001,"N_COORD97":2569800.5099999998,"ADDRESS":"仁中街４３巷３號","OBJECTID":337826},"geometry":{"x":174412.57000000216,"y":2569800.5099999998}},{"attributes":{"ID":337836,"DIS_CODE":0,"TOWNNAME":"永康區","LI":"東橋里","LIN":"5鄰","STREET":"中山南路","SECT":" ","MAREA":" ","LANE":"１９５巷","ALLEY":" ","HOUSE_NO":"３３號之２","E_COORD97":171431.51999999999,"N_COORD97":2546416.5899999999,"ADDRESS":"中山南路１９５巷３３號之２","OBJECTID":337827},"geometry":{"x":171431.51999999955,"y":2546416.5899999999}},{"attributes":{"ID":337837,"DIS_CODE":0,"TOWNNAME":"永康區","LI":"北灣里","LIN":"5鄰","STREET":"信義街","SECT":" ","MAREA":" ","LANE":"１２９巷","ALLEY":" ","HOUSE_NO":"４號","E_COORD97":175173.79000000001,"N_COORD97":2545590.4100000001,"ADDRESS":"信義街１２９巷４號","OBJECTID":337828},"geometry":{"x":175173.79000000097,"y":2545590.4100000001}},{"attributes":{"ID":337838,"DIS_CODE":0,"TOWNNAME":"北區","LI":"延平里","LIN":"1鄰","STREET":"公園路","SECT":" ","MAREA":" ","LANE":"６３４巷","ALLEY":" ","HOUSE_NO":"５７號","E_COORD97":169221.25,"N_COORD97":2545397.6600000001,"ADDRESS":"公園路６３４巷５７號","OBJECTID":337829},"geometry":{"x":169221.25,"y":2545397.660000002}},{"attributes":{"ID":337839,"DIS_CODE":0,"TOWNNAME":"北區","LI":"延平里","LIN":"1鄰","STREET":"公園路","SECT":" ","MAREA":" ","LANE":"６３４巷","ALLEY":" ","HOUSE_NO":"５９號","E_COORD97":169215.32000000001,"N_COORD97":2545397.04,"ADDRESS":"公園路６３４巷５９號","OBJECTID":337830},"geometry":{"x":169215.32000000123,"y":2545397.040000001}},{"attributes":{"ID":337840,"DIS_CODE":0,"TOWNNAME":"北區","LI":"延平里","LIN":"1鄰","STREET":"公園路","SECT":" ","MAREA":" ","LANE":"６３４巷","ALLEY":" ","HOUSE_NO":"６１號","E_COORD97":169209.19,"N_COORD97":2545387.6800000002,"ADDRESS":"公園路６３４巷６１號","OBJECTID":337831},"geometry":{"x":169209.19000000227,"y":2545387.6799999997}},{"attributes":{"ID":337841,"DIS_CODE":0,"TOWNNAME":"北區","LI":"延平里","LIN":"1鄰","STREET":"公園路","SECT":" ","MAREA":" ","LANE":"６３４巷","ALLEY":" ","HOUSE_NO":"６３號","E_COORD97":169205.54999999999,"N_COORD97":2545401.1299999999,"ADDRESS":"公園路６３４巷６３號","OBJECTID":337832},"geometry":{"x":169205.54999999981,"y":2545401.129999999}},{"attributes":{"ID":337842,"DIS_CODE":0,"TOWNNAME":"北區","LI":"延平里","LIN":"1鄰","STREET":"公園路","SECT":" ","MAREA":" ","LANE":"６３４巷","ALLEY":" ","HOUSE_NO":"６５號","E_COORD97":169201.89999999999,"N_COORD97":2545389.46,"ADDRESS":"公園路６３４巷６５號","OBJECTID":337833},"geometry":{"x":169201.90000000037,"y":2545389.4600000028}},{"attributes":{"ID":337843,"DIS_CODE":0,"TOWNNAME":"北區","LI":"延平里","LIN":"1鄰","STREET":"公園路","SECT":" ","MAREA":" ","LANE":"６３４巷","ALLEY":" ","HOUSE_NO":"６７號","E_COORD97":169198.95000000001,"N_COORD97":2545397.1699999999,"ADDRESS":"公園路６３４巷６７號","OBJECTID":337834},"geometry":{"x":169198.95000000112,"y":2545397.1700000018}},{"attributes":{"ID":337844,"DIS_CODE":0,"TOWNNAME":"安平區","LI":"金城里","LIN":"1鄰","STREET":"國勝路","SECT":" ","MAREA":" ","LANE":"７巷","ALLEY":" ","HOUSE_NO":"１號","E_COORD97":164015.38,"N_COORD97":2544433.6099999999,"ADDRESS":"國勝路７巷１號","OBJECTID":337835},"geometry":{"x":164015.38000000082,"y":2544433.6100000013}},{"attributes":{"ID":337845,"DIS_CODE":0,"TOWNNAME":"安平區","LI":"金城里","LIN":"1鄰","STREET":"國勝路","SECT":" ","MAREA":" ","LANE":"７巷","ALLEY":" ","HOUSE_NO":"３號","E_COORD97":163993.84,"N_COORD97":2544415.79,"ADDRESS":"國勝路７巷３號","OBJECTID":337836},"geometry":{"x":163993.84000000078,"y":2544415.790000001}},{"attributes":{"ID":337846,"DIS_CODE":0,"TOWNNAME":"佳里區","LI":"東寧里","LIN":"8鄰","STREET":"中山路","SECT":" ","MAREA":" ","LANE":" ","ALLEY":" ","HOUSE_NO":"３８４號","E_COORD97":165711.85999999999,"N_COORD97":2562541.2400000002,"ADDRESS":"中山路３８４號","OBJECTID":337837},"geometry":{"x":165711.86000000034,"y":2562541.2400000039}},{"attributes":{"ID":337847,"DIS_CODE":0,"TOWNNAME":"佳里區","LI":"東寧里","LIN":"8鄰","STREET":"中山路","SECT":" ","MAREA":" ","LANE":" ","ALLEY":" ","HOUSE_NO":"３８６號","E_COORD97":165712.23000000001,"N_COORD97":2562545.7200000002,"ADDRESS":"中山路３８６號","OBJECTID":337838},"geometry":{"x":165712.23000000138,"y":2562545.7200000025}},{"attributes":{"ID":337848,"DIS_CODE":0,"TOWNNAME":"佳里區","LI":"東寧里","LIN":"8鄰","STREET":"中山路","SECT":" ","MAREA":" ","LANE":" ","ALLEY":" ","HOUSE_NO":"３８８號","E_COORD97":165713.13,"N_COORD97":2562549.6299999999,"ADDRESS":"中山路３８８號","OBJECTID":337839},"geometry":{"x":165713.12999999989,"y":2562549.629999999}},{"attributes":{"ID":337849,"DIS_CODE":0,"TOWNNAME":"下營區","LI":"仁里里","LIN":"5鄰","STREET":"仁中街","SECT":" ","MAREA":" ","LANE":" ","ALLEY":" ","HOUSE_NO":"４１號","E_COORD97":174437.87,"N_COORD97":2569815.3399999999,"ADDRESS":"仁中街４１號","OBJECTID":337840},"geometry":{"x":174437.87000000104,"y":2569815.3399999999}},{"attributes":{"ID":337850,"DIS_CODE":0,"TOWNNAME":"安南區","LI":"溪頂里","LIN":"5鄰","STREET":"府安路","SECT":"四段","MAREA":" ","LANE":"１３２巷","ALLEY":" ","HOUSE_NO":"１７號","E_COORD97":168906.92999999999,"N_COORD97":2547322.77,"ADDRESS":"府安路四段１３２巷１７號","OBJECTID":337841},"geometry":{"x":168906.93000000156,"y":2547322.7699999996}},{"attributes":{"ID":337851,"DIS_CODE":0,"TOWNNAME":"安南區","LI":"新順里","LIN":"5鄰","STREET":"安豐六街","SECT":" ","MAREA":" ","LANE":"１０巷","ALLEY":" ","HOUSE_NO":"８６號","E_COORD97":169254.29999999999,"N_COORD97":2549487.0899999999,"ADDRESS":"安豐六街１０巷８６號","OBJECTID":337842},"geometry":{"x":169254.30000000075,"y":2549487.0899999999}},{"attributes":{"ID":337852,"DIS_CODE":0,"TOWNNAME":"安南區","LI":"新順里","LIN":"5鄰","STREET":"安豐六街","SECT":" ","MAREA":" ","LANE":"１０巷","ALLEY":" ","HOUSE_NO":"８８號","E_COORD97":169253.79999999999,"N_COORD97":2549483.5299999998,"ADDRESS":"安豐六街１０巷８８號","OBJECTID":337843},"geometry":{"x":169253.80000000075,"y":2549483.5300000012}},{"attributes":{"ID":337853,"DIS_CODE":0,"TOWNNAME":"安南區","LI":"新順里","LIN":"5鄰","STREET":"安豐六街","SECT":" ","MAREA":" ","LANE":"１０巷","ALLEY":" ","HOUSE_NO":"９０號","E_COORD97":169252.91,"N_COORD97":2549479.8500000001,"ADDRESS":"安豐六街１０巷９０號","OBJECTID":337844},"geometry":{"x":169252.91000000015,"y":2549479.8499999978}},{"attributes":{"ID":337854,"DIS_CODE":0,"TOWNNAME":"安南區","LI":"新順里","LIN":"5鄰","STREET":"安豐六街","SECT":" ","MAREA":" ","LANE":"１０巷","ALLEY":" ","HOUSE_NO":"１５８號","E_COORD97":169245.16,"N_COORD97":2549427.6499999999,"ADDRESS":"安豐六街１０巷１５８號","OBJECTID":337845},"geometry":{"x":169245.16000000108,"y":2549427.6499999985}},{"attributes":{"ID":337855,"DIS_CODE":0,"TOWNNAME":"安南區","LI":"新順里","LIN":"5鄰","STREET":"安豐六街","SECT":" ","MAREA":" ","LANE":"１０巷","ALLEY":" ","HOUSE_NO":"１６０號","E_COORD97":169244.14000000001,"N_COORD97":2549424.4700000002,"ADDRESS":"安豐六街１０巷１６０號","OBJECTID":337846},"geometry":{"x":169244.13999999966,"y":2549424.4700000007}},{"attributes":{"ID":337856,"DIS_CODE":0,"TOWNNAME":"安南區","LI":"新順里","LIN":"5鄰","STREET":"安豐六街","SECT":" ","MAREA":" ","LANE":"１０巷","ALLEY":" ","HOUSE_NO":"１６２號","E_COORD97":169243.38,"N_COORD97":2549421.4300000002,"ADDRESS":"安豐六街１０巷１６２號","OBJECTID":337847},"geometry":{"x":169243.38000000082,"y":2549421.4299999997}},{"attributes":{"ID":337857,"DIS_CODE":0,"TOWNNAME":"安南區","LI":"新順里","LIN":"5鄰","STREET":"安豐六街","SECT":" ","MAREA":" ","LANE":"１０巷","ALLEY":" ","HOUSE_NO":"１６６號","E_COORD97":169242.62,"N_COORD97":2549418.1200000001,"ADDRESS":"安豐六街１０巷１６６號","OBJECTID":337848},"geometry":{"x":169242.62000000011,"y":2549418.120000001}},{"attributes":{"ID":337858,"DIS_CODE":0,"TOWNNAME":"北區","LI":"中樓里","LIN":"1鄰","STREET":"前鋒路","SECT":" ","MAREA":" ","LANE":"１６１巷","ALLEY":" ","HOUSE_NO":"１０號","E_COORD97":169458,"N_COORD97":2544701.75,"ADDRESS":"前鋒路１６１巷１０號","OBJECTID":337849},"geometry":{"x":169458.00000000093,"y":2544701.7500000019}},{"attributes":{"ID":337859,"DIS_CODE":0,"TOWNNAME":"北區","LI":"中樓里","LIN":"1鄰","STREET":"前鋒路","SECT":" ","MAREA":" ","LANE":"１６１巷","ALLEY":" ","HOUSE_NO":"１２號","E_COORD97":169454.57000000001,"N_COORD97":2544706.52,"ADDRESS":"前鋒路１６１巷１２號","OBJECTID":337850},"geometry":{"x":169454.57000000123,"y":2544706.5200000014}},{"attributes":{"ID":337860,"DIS_CODE":0,"TOWNNAME":"北區","LI":"中樓里","LIN":"1鄰","STREET":"前鋒路","SECT":" ","MAREA":" ","LANE":"１６１巷","ALLEY":" ","HOUSE_NO":"１３號","E_COORD97":169449.48999999999,"N_COORD97":2544690.7999999998,"ADDRESS":"前鋒路１６１巷１３號","OBJECTID":337851},"geometry":{"x":169449.49000000209,"y":2544690.8000000045}},{"attributes":{"ID":337861,"DIS_CODE":0,"TOWNNAME":"北區","LI":"中樓里","LIN":"1鄰","STREET":"前鋒路","SECT":" ","MAREA":" ","LANE":"１６１巷","ALLEY":" ","HOUSE_NO":"１４號","E_COORD97":169450.09,"N_COORD97":2544701.0499999998,"ADDRESS":"前鋒路１６１巷１４號","OBJECTID":337852},"geometry":{"x":169450.09000000171,"y":2544701.0500000026}},{"attributes":{"ID":337862,"DIS_CODE":0,"TOWNNAME":"新化區","LI":"太平里","LIN":"8鄰","STREET":"中正路","SECT":" ","MAREA":" ","LANE":" ","ALLEY":" ","HOUSE_NO":"５９８號","E_COORD97":178767.31,"N_COORD97":2549225.25,"ADDRESS":"中正路５９８號","OBJECTID":337853},"geometry":{"x":178767.31000000052,"y":2549225.25}},{"attributes":{"ID":337863,"DIS_CODE":0,"TOWNNAME":"新化區","LI":"協興里","LIN":"8鄰","STREET":"太平街","SECT":" ","MAREA":" ","LANE":" ","ALLEY":" ","HOUSE_NO":"１１８號之６","E_COORD97":178474.57000000001,"N_COORD97":2548717.2599999998,"ADDRESS":"太平街１１８號之６","OBJECTID":337854},"geometry":{"x":178474.57000000123,"y":2548717.2599999998}},{"attributes":{"ID":337864,"DIS_CODE":0,"TOWNNAME":"新化區","LI":"護國里","LIN":"8鄰","STREET":"信義路","SECT":" ","MAREA":" ","LANE":" ","ALLEY":" ","HOUSE_NO":"７８號之１","E_COORD97":179855.60999999999,"N_COORD97":2548722.2599999998,"ADDRESS":"信義路７８號之１","OBJECTID":337855},"geometry":{"x":179855.61000000127,"y":2548722.2600000016}},{"attributes":{"ID":337865,"DIS_CODE":0,"TOWNNAME":"新化區","LI":"護國里","LIN":"8鄰","STREET":"信義路","SECT":" ","MAREA":" ","LANE":" ","ALLEY":" ","HOUSE_NO":"８４號","E_COORD97":179849.48000000001,"N_COORD97":2548722.25,"ADDRESS":"信義路８４號","OBJECTID":337856},"geometry":{"x":179849.48000000045,"y":2548722.2500000019}},{"attributes":{"ID":337866,"DIS_CODE":0,"TOWNNAME":"新化區","LI":"太平里","LIN":"8鄰","STREET":"中正路","SECT":" ","MAREA":" ","LANE":" ","ALLEY":" ","HOUSE_NO":"６４６號之６","E_COORD97":178693.95999999999,"N_COORD97":2549364.2599999998,"ADDRESS":"中正路６４６號之６","OBJECTID":337857},"geometry":{"x":178693.96000000089,"y":2549364.2599999998}},{"attributes":{"ID":337867,"DIS_CODE":0,"TOWNNAME":"新化區","LI":"護國里","LIN":"8鄰","STREET":"信義路","SECT":" ","MAREA":" ","LANE":" ","ALLEY":" ","HOUSE_NO":"５２號","E_COORD97":180146.07999999999,"N_COORD97":2548714.25,"ADDRESS":"信義路５２號","OBJECTID":337858},"geometry":{"x":180146.08000000101,"y":2548714.25}},{"attributes":{"ID":337868,"DIS_CODE":0,"TOWNNAME":"安南區","LI":"溪頂里","LIN":"8鄰","STREET":"惠安街","SECT":" ","MAREA":" ","LANE":" ","ALLEY":" ","HOUSE_NO":"７３號","E_COORD97":168920.92000000001,"N_COORD97":2547467.3300000001,"ADDRESS":"惠安街７３號","OBJECTID":337859},"geometry":{"x":168920.92000000086,"y":2547467.3300000019}},{"attributes":{"ID":337869,"DIS_CODE":0,"TOWNNAME":"安南區","LI":"溪頂里","LIN":"8鄰","STREET":"惠安街","SECT":" ","MAREA":" ","LANE":" ","ALLEY":" ","HOUSE_NO":"５９號","E_COORD97":168980.94,"N_COORD97":2547467.54,"ADDRESS":"惠安街５９號","OBJECTID":337860},"geometry":{"x":168980.94000000134,"y":2547467.5400000028}},{"attributes":{"ID":337870,"DIS_CODE":0,"TOWNNAME":"新化區","LI":"護國里","LIN":"8鄰","STREET":"信義路","SECT":" ","MAREA":" ","LANE":" ","ALLEY":" ","HOUSE_NO":"１００號","E_COORD97":179816.82999999999,"N_COORD97":2548734.25,"ADDRESS":"信義路１００號","OBJECTID":337861},"geometry":{"x":179816.83000000101,"y":2548734.25}},{"attributes":{"ID":337871,"DIS_CODE":0,"TOWNNAME":"新化區","LI":"太平里","LIN":"8鄰","STREET":"中正路","SECT":" ","MAREA":" ","LANE":" ","ALLEY":" ","HOUSE_NO":"６５８號","E_COORD97":178661.60999999999,"N_COORD97":2549455.25,"ADDRESS":"中正路６５８號","OBJECTID":337862},"geometry":{"x":178661.61000000034,"y":2549455.2500000019}},{"attributes":{"ID":337872,"DIS_CODE":0,"TOWNNAME":"佳里區","LI":"民安里","LIN":"5鄰","STREET":" ","SECT":" ","MAREA":"同安寮","LANE":" ","ALLEY":" ","HOUSE_NO":"５２號之１","E_COORD97":167333.87,"N_COORD97":2562527.8199999998,"ADDRESS":"同安寮５２號之１","OBJECTID":337863},"geometry":{"x":167333.87000000011,"y":2562527.8200000022}},{"attributes":{"ID":337873,"DIS_CODE":0,"TOWNNAME":"佳里區","LI":"民安里","LIN":"5鄰","STREET":" ","SECT":" ","MAREA":"同安寮","LANE":" ","ALLEY":" ","HOUSE_NO":"５２號之２","E_COORD97":167281.09,"N_COORD97":2562531.04,"ADDRESS":"同安寮５２號之２","OBJECTID":337864},"geometry":{"x":167281.08999999985,"y":2562531.0400000028}},{"attributes":{"ID":337874,"DIS_CODE":0,"TOWNNAME":"佳里區","LI":"民安里","LIN":"5鄰","STREET":" ","SECT":" ","MAREA":"同安寮","LANE":" ","ALLEY":" ","HOUSE_NO":"５２號","E_COORD97":167305.95000000001,"N_COORD97":2562530.0899999999,"ADDRESS":"同安寮５２號","OBJECTID":337865},"geometry":{"x":167305.95000000112,"y":2562530.0899999999}},{"attributes":{"ID":337875,"DIS_CODE":0,"TOWNNAME":"北區","LI":"中樓里","LIN":"1鄰","STREET":"前鋒路","SECT":" ","MAREA":" ","LANE":"１６１巷","ALLEY":" ","HOUSE_NO":"１５號","E_COORD97":169442.04000000001,"N_COORD97":2544692.9100000001,"ADDRESS":"前鋒路１６１巷１５號","OBJECTID":337866},"geometry":{"x":169442.0400000019,"y":2544692.9100000039}},{"attributes":{"ID":337876,"DIS_CODE":0,"TOWNNAME":"北區","LI":"中樓里","LIN":"1鄰","STREET":"前鋒路","SECT":" ","MAREA":" ","LANE":"１６１巷","ALLEY":" ","HOUSE_NO":"１６號","E_COORD97":169449.89000000001,"N_COORD97":2544696.6299999999,"ADDRESS":"前鋒路１６１巷１６號","OBJECTID":337867},"geometry":{"x":169449.8900000006,"y":2544696.629999999}},{"attributes":{"ID":337877,"DIS_CODE":0,"TOWNNAME":"北區","LI":"中樓里","LIN":"1鄰","STREET":"前鋒路","SECT":" ","MAREA":" ","LANE":"１６１巷","ALLEY":" ","HOUSE_NO":"１７號","E_COORD97":169433.48999999999,"N_COORD97":2544703.0600000001,"ADDRESS":"前鋒路１６１巷１７號","OBJECTID":337868},"geometry":{"x":169433.49000000022,"y":2544703.0600000024}},{"attributes":{"ID":337878,"DIS_CODE":0,"TOWNNAME":"佳里區","LI":"民安里","LIN":"5鄰","STREET":" ","SECT":" ","MAREA":"同安寮","LANE":" ","ALLEY":" ","HOUSE_NO":"５７號之１","E_COORD97":167293.39999999999,"N_COORD97":2562562.0299999998,"ADDRESS":"同安寮５７號之１","OBJECTID":337869},"geometry":{"x":167293.40000000037,"y":2562562.0300000031}},{"attributes":{"ID":337879,"DIS_CODE":0,"TOWNNAME":"北區","LI":"中樓里","LIN":"1鄰","STREET":"前鋒路","SECT":" ","MAREA":" ","LANE":"１６１巷","ALLEY":" ","HOUSE_NO":"１８號","E_COORD97":169438.51999999999,"N_COORD97":2544700.3399999999,"ADDRESS":"前鋒路１６１巷１８號","OBJECTID":337870},"geometry":{"x":169438.52000000048,"y":2544700.3400000017}},{"attributes":{"ID":337880,"DIS_CODE":0,"TOWNNAME":"北區","LI":"中樓里","LIN":"1鄰","STREET":"前鋒路","SECT":" ","MAREA":" ","LANE":"１６１巷","ALLEY":" ","HOUSE_NO":"１９號","E_COORD97":169425.75,"N_COORD97":2544705.8700000001,"ADDRESS":"前鋒路１６１巷１９號","OBJECTID":337871},"geometry":{"x":169425.75000000093,"y":2544705.8700000029}},{"attributes":{"ID":337881,"DIS_CODE":0,"TOWNNAME":"北區","LI":"中樓里","LIN":"1鄰","STREET":"前鋒路","SECT":" ","MAREA":" ","LANE":"１６１巷","ALLEY":" ","HOUSE_NO":"１號","E_COORD97":169463.76000000001,"N_COORD97":2544684.1299999999,"ADDRESS":"前鋒路１６１巷１號","OBJECTID":337872},"geometry":{"x":169463.75999999978,"y":2544684.1300000008}},{"attributes":{"ID":337882,"DIS_CODE":0,"TOWNNAME":"北區","LI":"中樓里","LIN":"1鄰","STREET":"前鋒路","SECT":" ","MAREA":" ","LANE":"１６１巷","ALLEY":" ","HOUSE_NO":"２０號","E_COORD97":169438.92000000001,"N_COORD97":2544703.5600000001,"ADDRESS":"前鋒路１６１巷２０號","OBJECTID":337873},"geometry":{"x":169438.91999999993,"y":2544703.5600000024}},{"attributes":{"ID":337883,"DIS_CODE":0,"TOWNNAME":"北區","LI":"中樓里","LIN":"1鄰","STREET":"前鋒路","SECT":" ","MAREA":" ","LANE":"１６１巷","ALLEY":" ","HOUSE_NO":"２２號","E_COORD97":169439.82999999999,"N_COORD97":2544707.1800000002,"ADDRESS":"前鋒路１６１巷２２號","OBJECTID":337874},"geometry":{"x":169439.83000000007,"y":2544707.1799999997}},{"attributes":{"ID":337884,"DIS_CODE":0,"TOWNNAME":"北區","LI":"中樓里","LIN":"1鄰","STREET":"前鋒路","SECT":" ","MAREA":" ","LANE":"１６１巷","ALLEY":" ","HOUSE_NO":"２號","E_COORD97":169467.84,"N_COORD97":2544691.98,"ADDRESS":"前鋒路１６１巷２號","OBJECTID":337875},"geometry":{"x":169467.83999999985,"y":2544691.9800000004}},{"attributes":{"ID":337885,"DIS_CODE":0,"TOWNNAME":"北區","LI":"中樓里","LIN":"1鄰","STREET":"前鋒路","SECT":" ","MAREA":" ","LANE":"１６１巷","ALLEY":" ","HOUSE_NO":"３號","E_COORD97":169455.44931299999,"N_COORD97":2544645.11686,"ADDRESS":"前鋒路１６１巷３號","OBJECTID":337876},"geometry":{"x":169455.44931300171,"y":2544645.1168610007}},{"attributes":{"ID":337886,"DIS_CODE":0,"TOWNNAME":"北區","LI":"中樓里","LIN":"1鄰","STREET":"前鋒路","SECT":" ","MAREA":" ","LANE":"１６１巷","ALLEY":" ","HOUSE_NO":"４號","E_COORD97":169468.29000000001,"N_COORD97":2544695.71,"ADDRESS":"前鋒路１６１巷４號","OBJECTID":337877},"geometry":{"x":169468.29000000097,"y":2544695.7100000028}},{"attributes":{"ID":337887,"DIS_CODE":0,"TOWNNAME":"北區","LI":"中樓里","LIN":"1鄰","STREET":"前鋒路","SECT":" ","MAREA":" ","LANE":"１６１巷","ALLEY":" ","HOUSE_NO":"５號","E_COORD97":169462.65297,"N_COORD97":2544689.6726700002,"ADDRESS":"前鋒路１６１巷５號","OBJECTID":337878},"geometry":{"x":169462.6529700011,"y":2544689.6726710014}},{"attributes":{"ID":337888,"DIS_CODE":0,"TOWNNAME":"北區","LI":"中樓里","LIN":"1鄰","STREET":"前鋒路","SECT":" ","MAREA":" ","LANE":"１６１巷","ALLEY":" ","HOUSE_NO":"６號","E_COORD97":169466.26999999999,"N_COORD97":2544702.6499999999,"ADDRESS":"前鋒路１６１巷６號","OBJECTID":337879},"geometry":{"x":169466.27000000048,"y":2544702.6500000022}},{"attributes":{"ID":337889,"DIS_CODE":0,"TOWNNAME":"北區","LI":"中樓里","LIN":"1鄰","STREET":"前鋒路","SECT":" ","MAREA":" ","LANE":"１６１巷","ALLEY":" ","HOUSE_NO":"７號","E_COORD97":169462.35000000001,"N_COORD97":2544695.8199999998,"ADDRESS":"前鋒路１６１巷７號","OBJECTID":337880},"geometry":{"x":169462.35000000056,"y":2544695.8200000003}},{"attributes":{"ID":337890,"DIS_CODE":0,"TOWNNAME":"北區","LI":"中樓里","LIN":"1鄰","STREET":"前鋒路","SECT":" ","MAREA":" ","LANE":"１６１巷","ALLEY":" ","HOUSE_NO":"８號","E_COORD97":169462.04999999999,"N_COORD97":2544700.54,"ADDRESS":"前鋒路１６１巷８號","OBJECTID":337881},"geometry":{"x":169462.04999999888,"y":2544700.5399999991}},{"attributes":{"ID":337891,"DIS_CODE":0,"TOWNNAME":"北區","LI":"中樓里","LIN":"1鄰","STREET":"前鋒路","SECT":" ","MAREA":" ","LANE":"１７５巷","ALLEY":" ","HOUSE_NO":"１１號","E_COORD97":169452.69,"N_COORD97":2544717.73,"ADDRESS":"前鋒路１７５巷１１號","OBJECTID":337882},"geometry":{"x":169452.69000000041,"y":2544717.7300000004}},{"attributes":{"ID":337892,"DIS_CODE":0,"TOWNNAME":"北區","LI":"中樓里","LIN":"1鄰","STREET":"前鋒路","SECT":" ","MAREA":" ","LANE":"１７５巷","ALLEY":" ","HOUSE_NO":"３號","E_COORD97":169469.89999999999,"N_COORD97":2544713.8100000001,"ADDRESS":"前鋒路１７５巷３號","OBJECTID":337883},"geometry":{"x":169469.90000000037,"y":2544713.8100000005}},{"attributes":{"ID":337893,"DIS_CODE":0,"TOWNNAME":"北區","LI":"中樓里","LIN":"1鄰","STREET":"前鋒路","SECT":" ","MAREA":" ","LANE":"１７５巷","ALLEY":" ","HOUSE_NO":"５號","E_COORD97":169462.54999999999,"N_COORD97":2544715.1200000001,"ADDRESS":"前鋒路１７５巷５號","OBJECTID":337884},"geometry":{"x":169462.55000000075,"y":2544715.120000001}},{"attributes":{"ID":337894,"DIS_CODE":0,"TOWNNAME":"北區","LI":"中樓里","LIN":"1鄰","STREET":"前鋒路","SECT":" ","MAREA":" ","LANE":"１７５巷","ALLEY":" ","HOUSE_NO":"７號","E_COORD97":169459.64000000001,"N_COORD97":2544716.8199999998,"ADDRESS":"前鋒路１７５巷７號","OBJECTID":337885},"geometry":{"x":169459.64000000153,"y":2544716.8200000003}},{"attributes":{"ID":337895,"DIS_CODE":0,"TOWNNAME":"北區","LI":"中樓里","LIN":"1鄰","STREET":"前鋒路","SECT":" ","MAREA":" ","LANE":"１７５巷","ALLEY":" ","HOUSE_NO":"９號","E_COORD97":169456.92000000001,"N_COORD97":2544716.52,"ADDRESS":"前鋒路１７５巷９號","OBJECTID":337886},"geometry":{"x":169456.92000000086,"y":2544716.5200000014}},{"attributes":{"ID":337896,"DIS_CODE":0,"TOWNNAME":"北區","LI":"五福里","LIN":"1鄰","STREET":"北華街","SECT":" ","MAREA":" ","LANE":"２０２巷","ALLEY":" ","HOUSE_NO":"１號","E_COORD97":168402.60000000001,"N_COORD97":2544676.6299999999,"ADDRESS":"北華街２０２巷１號","OBJECTID":337887},"geometry":{"x":168402.60000000056,"y":2544676.6300000027}},{"attributes":{"ID":337897,"DIS_CODE":0,"TOWNNAME":"北區","LI":"五福里","LIN":"1鄰","STREET":"北華街","SECT":" ","MAREA":" ","LANE":"２０２巷","ALLEY":" ","HOUSE_NO":"３號","E_COORD97":168397.42000000001,"N_COORD97":2544682.8999999999,"ADDRESS":"北華街２０２巷３號","OBJECTID":337888},"geometry":{"x":168397.42000000086,"y":2544682.8999999985}},{"attributes":{"ID":337898,"DIS_CODE":0,"TOWNNAME":"北區","LI":"五福里","LIN":"1鄰","STREET":"北華街","SECT":" ","MAREA":" ","LANE":"２０２巷","ALLEY":" ","HOUSE_NO":"５號","E_COORD97":168402.45999999999,"N_COORD97":2544686.1299999999,"ADDRESS":"北華街２０２巷５號","OBJECTID":337889},"geometry":{"x":168402.46000000089,"y":2544686.129999999}},{"attributes":{"ID":337899,"DIS_CODE":0,"TOWNNAME":"北區","LI":"五福里","LIN":"1鄰","STREET":"自強街","SECT":" ","MAREA":" ","LANE":"１４６巷","ALLEY":" ","HOUSE_NO":"１０號","E_COORD97":168393.44,"N_COORD97":2544701.1600000001,"ADDRESS":"自強街１４６巷１０號","OBJECTID":337890},"geometry":{"x":168393.44000000041,"y":2544701.1599999983}},{"attributes":{"ID":337900,"DIS_CODE":0,"TOWNNAME":"北區","LI":"五福里","LIN":"1鄰","STREET":"自強街","SECT":" ","MAREA":" ","LANE":"１４６巷","ALLEY":" ","HOUSE_NO":"２號","E_COORD97":168376.37,"N_COORD97":2544713.7200000002,"ADDRESS":"自強街１４６巷２號","OBJECTID":337891},"geometry":{"x":168376.37000000011,"y":2544713.7200000007}},{"attributes":{"ID":337901,"DIS_CODE":0,"TOWNNAME":"北區","LI":"五福里","LIN":"1鄰","STREET":"自強街","SECT":" ","MAREA":" ","LANE":"１４６巷","ALLEY":" ","HOUSE_NO":"４號","E_COORD97":168379.57000000001,"N_COORD97":2544712.2999999998,"ADDRESS":"自強街１４６巷４號","OBJECTID":337892},"geometry":{"x":168379.57000000123,"y":2544712.3000000026}},{"attributes":{"ID":337902,"DIS_CODE":0,"TOWNNAME":"北區","LI":"五福里","LIN":"1鄰","STREET":"自強街","SECT":" ","MAREA":" ","LANE":"１４６巷","ALLEY":" ","HOUSE_NO":"６號","E_COORD97":168382.42000000001,"N_COORD97":2544711,"ADDRESS":"自強街１４６巷６號","OBJECTID":337893},"geometry":{"x":168382.42000000086,"y":2544711}},{"attributes":{"ID":337903,"DIS_CODE":0,"TOWNNAME":"北區","LI":"五福里","LIN":"1鄰","STREET":"自強街","SECT":" ","MAREA":" ","LANE":"１４６巷","ALLEY":" ","HOUSE_NO":"８號","E_COORD97":168385.38,"N_COORD97":2544708.6299999999,"ADDRESS":"自強街１４６巷８號","OBJECTID":337894},"geometry":{"x":168385.38000000082,"y":2544708.6300000008}},{"attributes":{"ID":337904,"DIS_CODE":0,"TOWNNAME":"北區","LI":"五福里","LIN":"1鄰","STREET":"北華街","SECT":" ","MAREA":" ","LANE":"２０２巷","ALLEY":" ","HOUSE_NO":"７號","E_COORD97":168408.26999999999,"N_COORD97":2544719.8799999999,"ADDRESS":"北華街２０２巷７號","OBJECTID":337895},"geometry":{"x":168408.27000000048,"y":2544719.8800000008}},{"attributes":{"ID":337905,"DIS_CODE":0,"TOWNNAME":"北區","LI":"五福里","LIN":"1鄰","STREET":"北華街","SECT":" ","MAREA":" ","LANE":"２０２巷","ALLEY":" ","HOUSE_NO":"７號之１","E_COORD97":168410.64000000001,"N_COORD97":2544726.2799999998,"ADDRESS":"北華街２０２巷７號之１","OBJECTID":337896},"geometry":{"x":168410.6400000006,"y":2544726.2799999993}},{"attributes":{"ID":337906,"DIS_CODE":0,"TOWNNAME":"北區","LI":"五福里","LIN":"1鄰","STREET":"自強街","SECT":" ","MAREA":" ","LANE":"１４６巷","ALLEY":" ","HOUSE_NO":"１號","E_COORD97":168381.47,"N_COORD97":2544719.77,"ADDRESS":"自強街１４６巷１號","OBJECTID":337897},"geometry":{"x":168381.47000000067,"y":2544719.7699999996}},{"attributes":{"ID":337907,"DIS_CODE":0,"TOWNNAME":"北區","LI":"五福里","LIN":"1鄰","STREET":"自強街","SECT":" ","MAREA":" ","LANE":"１４６巷","ALLEY":" ","HOUSE_NO":"３號","E_COORD97":168387.63,"N_COORD97":2544717.2799999998,"ADDRESS":"自強街１４６巷３號","OBJECTID":337898},"geometry":{"x":168387.63000000082,"y":2544717.2800000012}},{"attributes":{"ID":337908,"DIS_CODE":0,"TOWNNAME":"北區","LI":"五福里","LIN":"1鄰","STREET":"自強街","SECT":" ","MAREA":" ","LANE":"１４６巷","ALLEY":" ","HOUSE_NO":"９號","E_COORD97":168394.16,"N_COORD97":2544714.0800000001,"ADDRESS":"自強街１４６巷９號","OBJECTID":337899},"geometry":{"x":168394.16000000108,"y":2544714.0800000001}},{"attributes":{"ID":337909,"DIS_CODE":0,"TOWNNAME":"歸仁區","LI":"媽廟里","LIN":"1鄰","STREET":"中正北路","SECT":"三段","MAREA":" ","LANE":"３５巷","ALLEY":" ","HOUSE_NO":"２５號","E_COORD97":177357.01999999999,"N_COORD97":2543405.2599999998,"ADDRESS":"中正北路三段３５巷２５號","OBJECTID":337900},"geometry":{"x":177357.02000000048,"y":2543405.2600000035}},{"attributes":{"ID":337910,"DIS_CODE":0,"TOWNNAME":"歸仁區","LI":"南保里","LIN":"1鄰","STREET":"民權北路","SECT":" ","MAREA":" ","LANE":"２６７巷","ALLEY":" ","HOUSE_NO":"１５號","E_COORD97":176983.69,"N_COORD97":2541477.29,"ADDRESS":"民權北路２６７巷１５號","OBJECTID":337901},"geometry":{"x":176983.69000000134,"y":2541477.2899999991}},{"attributes":{"ID":337911,"DIS_CODE":0,"TOWNNAME":"歸仁區","LI":"媽廟里","LIN":"1鄰","STREET":"媽廟一街","SECT":" ","MAREA":" ","LANE":"７２巷","ALLEY":" ","HOUSE_NO":"１８號","E_COORD97":177202.48000000001,"N_COORD97":2543534.7200000002,"ADDRESS":"媽廟一街７２巷１８號","OBJECTID":337902},"geometry":{"x":177202.48000000138,"y":2543534.7200000007}},{"attributes":{"ID":337912,"DIS_CODE":0,"TOWNNAME":"歸仁區","LI":"許厝里","LIN":"1鄰","STREET":"中山路","SECT":"一段","MAREA":" ","LANE":"３７１巷","ALLEY":" ","HOUSE_NO":"３號","E_COORD97":178331.54000000001,"N_COORD97":2540649.0099999998,"ADDRESS":"中山路一段３７１巷３號","OBJECTID":337903},"geometry":{"x":178331.53999999911,"y":2540649.0099999998}},{"attributes":{"ID":337913,"DIS_CODE":0,"TOWNNAME":"歸仁區","LI":"許厝里","LIN":"1鄰","STREET":"中山路","SECT":"一段","MAREA":" ","LANE":"３４３巷","ALLEY":" ","HOUSE_NO":"６號","E_COORD97":178397.14000000001,"N_COORD97":2540639.0099999998,"ADDRESS":"中山路一段３４３巷６號","OBJECTID":337904},"geometry":{"x":178397.1400000006,"y":2540639.0099999998}},{"attributes":{"ID":337914,"DIS_CODE":0,"TOWNNAME":"歸仁區","LI":"西埔里","LIN":"1鄰","STREET":"西埔三街","SECT":" ","MAREA":" ","LANE":"５１巷","ALLEY":" ","HOUSE_NO":"２０號","E_COORD97":176886.89000000001,"N_COORD97":2543978.25,"ADDRESS":"西埔三街５１巷２０號","OBJECTID":337905},"geometry":{"x":176886.8900000006,"y":2543978.2499999981}},{"attributes":{"ID":337915,"DIS_CODE":0,"TOWNNAME":"歸仁區","LI":"媽廟里","LIN":"1鄰","STREET":"媽廟一街","SECT":" ","MAREA":" ","LANE":"７２巷","ALLEY":" ","HOUSE_NO":"６９號","E_COORD97":177107.67999999999,"N_COORD97":2543426.7200000002,"ADDRESS":"媽廟一街７２巷６９號","OBJECTID":337906},"geometry":{"x":177107.6799999997,"y":2543426.7200000044}},{"attributes":{"ID":337916,"DIS_CODE":0,"TOWNNAME":"歸仁區","LI":"西埔里","LIN":"1鄰","STREET":"西埔三街","SECT":" ","MAREA":" ","LANE":"５１巷","ALLEY":" ","HOUSE_NO":"２６號","E_COORD97":176884.79000000001,"N_COORD97":2543953.25,"ADDRESS":"西埔三街５１巷２６號","OBJECTID":337907},"geometry":{"x":176884.79000000097,"y":2543953.25}},{"attributes":{"ID":337917,"DIS_CODE":0,"TOWNNAME":"歸仁區","LI":"大潭里","LIN":"1鄰","STREET":"中正南路","SECT":"三段","MAREA":" ","LANE":"９５巷","ALLEY":" ","HOUSE_NO":"５６號","E_COORD97":175459.91,"N_COORD97":2535005.2799999998,"ADDRESS":"中正南路三段９５巷５６號","OBJECTID":337908},"geometry":{"x":175459.91000000108,"y":2535005.2799999993}},{"attributes":{"ID":337918,"DIS_CODE":0,"TOWNNAME":"歸仁區","LI":"歸南里","LIN":"1鄰","STREET":"民權南路","SECT":" ","MAREA":" ","LANE":"１９６巷","ALLEY":" ","HOUSE_NO":"１３號","E_COORD97":176920.84,"N_COORD97":2540350.54,"ADDRESS":"民權南路１９６巷１３號","OBJECTID":337909},"geometry":{"x":176920.84000000171,"y":2540350.5399999991}},{"attributes":{"ID":337919,"DIS_CODE":0,"TOWNNAME":"歸仁區","LI":"看東里","LIN":"1鄰","STREET":"忠孝南路","SECT":" ","MAREA":" ","LANE":"６０巷","ALLEY":" ","HOUSE_NO":"３９號","E_COORD97":178421.25,"N_COORD97":2540524.6699999999,"ADDRESS":"忠孝南路６０巷３９號","OBJECTID":337910},"geometry":{"x":178421.25,"y":2540524.6700000018}},{"attributes":{"ID":337920,"DIS_CODE":0,"TOWNNAME":"歸仁區","LI":"武東里","LIN":"1鄰","STREET":"中正南路","SECT":"二段","MAREA":" ","LANE":"２５３巷","ALLEY":" ","HOUSE_NO":"３４號","E_COORD97":175498.06,"N_COORD97":2535215.2799999998,"ADDRESS":"中正南路二段２５３巷３４號","OBJECTID":337911},"geometry":{"x":175498.05999999959,"y":2535215.2799999993}},{"attributes":{"ID":337921,"DIS_CODE":0,"TOWNNAME":"鹽水區","LI":"岸內里","LIN":"14鄰","STREET":"蔦松路","SECT":" ","MAREA":" ","LANE":"５６巷","ALLEY":" ","HOUSE_NO":"２０號","E_COORD97":175628.41,"N_COORD97":2580430.2000000002,"ADDRESS":"蔦松路５６巷２０號","OBJECTID":337912},"geometry":{"x":175628.41000000015,"y":2580430.1999999993}},{"attributes":{"ID":337922,"DIS_CODE":0,"TOWNNAME":"北區","LI":"文元里","LIN":"1鄰","STREET":"北成路","SECT":" ","MAREA":" ","LANE":"４６７巷","ALLEY":" ","HOUSE_NO":"１２號","E_COORD97":167875.04999999999,"N_COORD97":2546516.02,"ADDRESS":"北成路４６７巷１２號","OBJECTID":337913},"geometry":{"x":167875.04999999981,"y":2546516.0200000014}},{"attributes":{"ID":337923,"DIS_CODE":0,"TOWNNAME":"北區","LI":"文元里","LIN":"1鄰","STREET":"北成路","SECT":" ","MAREA":" ","LANE":"４６７巷","ALLEY":" ","HOUSE_NO":"１６號","E_COORD97":167875.42999999999,"N_COORD97":2546512.5899999999,"ADDRESS":"北成路４６７巷１６號","OBJECTID":337914},"geometry":{"x":167875.4299999997,"y":2546512.5900000017}},{"attributes":{"ID":337924,"DIS_CODE":0,"TOWNNAME":"北區","LI":"文元里","LIN":"1鄰","STREET":"北成路","SECT":" ","MAREA":" ","LANE":"４６７巷","ALLEY":" ","HOUSE_NO":"２號","E_COORD97":167872.51000000001,"N_COORD97":2546529.1000000001,"ADDRESS":"北成路４６７巷２號","OBJECTID":337915},"geometry":{"x":167872.51000000071,"y":2546529.1000000015}},{"attributes":{"ID":337925,"DIS_CODE":0,"TOWNNAME":"北區","LI":"文元里","LIN":"1鄰","STREET":"北成路","SECT":" ","MAREA":" ","LANE":"４６７巷","ALLEY":" ","HOUSE_NO":"３號","E_COORD97":167877.45999999999,"N_COORD97":2546526.9399999999,"ADDRESS":"北成路４６７巷３號","OBJECTID":337916},"geometry":{"x":167877.45999999996,"y":2546526.9400000013}},{"attributes":{"ID":337926,"DIS_CODE":0,"TOWNNAME":"北區","LI":"文元里","LIN":"1鄰","STREET":"北成路","SECT":" ","MAREA":" ","LANE":"４６７巷","ALLEY":" ","HOUSE_NO":"６號","E_COORD97":167873.01999999999,"N_COORD97":2546526.5600000001,"ADDRESS":"北成路４６７巷６號","OBJECTID":337917},"geometry":{"x":167873.01999999955,"y":2546526.5600000042}},{"attributes":{"ID":337927,"DIS_CODE":0,"TOWNNAME":"北區","LI":"文元里","LIN":"1鄰","STREET":"北成路","SECT":" ","MAREA":" ","LANE":"４６７巷","ALLEY":" ","HOUSE_NO":"８號","E_COORD97":167873.26999999999,"N_COORD97":2546524.27,"ADDRESS":"北成路４６７巷８號","OBJECTID":337918},"geometry":{"x":167873.26999999955,"y":2546524.2700000033}},{"attributes":{"ID":337928,"DIS_CODE":0,"TOWNNAME":"北區","LI":"賢北里","LIN":"1鄰","STREET":"賢北街","SECT":" ","MAREA":" ","LANE":"１６巷","ALLEY":" ","HOUSE_NO":"５２號","E_COORD97":166485.67999999999,"N_COORD97":2545293.77,"ADDRESS":"賢北街１６巷５２號","OBJECTID":337919},"geometry":{"x":166485.6799999997,"y":2545293.7700000014}},{"attributes":{"ID":337929,"DIS_CODE":0,"TOWNNAME":"北區","LI":"賢北里","LIN":"1鄰","STREET":"賢北街","SECT":" ","MAREA":" ","LANE":"１６巷","ALLEY":" ","HOUSE_NO":"５６號","E_COORD97":166491.53,"N_COORD97":2545296.5600000001,"ADDRESS":"賢北街１６巷５６號","OBJECTID":337920},"geometry":{"x":166491.53000000119,"y":2545296.5600000024}},{"attributes":{"ID":337930,"DIS_CODE":0,"TOWNNAME":"玉井區","LI":"玉田里","LIN":"1鄰","STREET":"中正路","SECT":" ","MAREA":" ","LANE":"１７３巷","ALLEY":" ","HOUSE_NO":"１１號","E_COORD97":195011.89999999999,"N_COORD97":2558276.2400000002,"ADDRESS":"中正路１７３巷１１號","OBJECTID":337921},"geometry":{"x":195011.90000000224,"y":2558276.2400000039}},{"attributes":{"ID":337931,"DIS_CODE":0,"TOWNNAME":"玉井區","LI":"竹圍里","LIN":"1鄰","STREET":"中正路","SECT":" ","MAREA":" ","LANE":"２９２巷","ALLEY":" ","HOUSE_NO":"１３號","E_COORD97":195246.13,"N_COORD97":2558296.4300000002,"ADDRESS":"中正路２９２巷１３號","OBJECTID":337922},"geometry":{"x":195246.13000000082,"y":2558296.4299999997}},{"attributes":{"ID":337932,"DIS_CODE":0,"TOWNNAME":"佳里區","LI":"鎮山里","LIN":"5鄰","STREET":"自由街","SECT":" ","MAREA":" ","LANE":"４３巷","ALLEY":" ","HOUSE_NO":"８號","E_COORD97":166010.32999999999,"N_COORD97":2561781.7999999998,"ADDRESS":"自由街４３巷８號","OBJECTID":337923},"geometry":{"x":166010.33000000007,"y":2561781.8000000045}},{"attributes":{"ID":337933,"DIS_CODE":0,"TOWNNAME":"安南區","LI":"布袋里","LIN":"5鄰","STREET":"長和路","SECT":"四段","MAREA":" ","LANE":"２５３巷","ALLEY":" ","HOUSE_NO":"３５號","E_COORD97":168623.81,"N_COORD97":2551659.8100000001,"ADDRESS":"長和路四段２５３巷３５號","OBJECTID":337924},"geometry":{"x":168623.80999999959,"y":2551659.8100000005}},{"attributes":{"ID":337934,"DIS_CODE":0,"TOWNNAME":"安南區","LI":"布袋里","LIN":"5鄰","STREET":"長和路","SECT":"四段","MAREA":" ","LANE":"２５３巷","ALLEY":" ","HOUSE_NO":"９１號","E_COORD97":168495.03,"N_COORD97":2551445.6800000002,"ADDRESS":"長和路四段２５３巷９１號","OBJECTID":337925},"geometry":{"x":168495.03000000119,"y":2551445.6800000016}},{"attributes":{"ID":337935,"DIS_CODE":0,"TOWNNAME":"安南區","LI":"布袋里","LIN":"5鄰","STREET":"長和路","SECT":"四段","MAREA":" ","LANE":"２５３巷","ALLEY":" ","HOUSE_NO":"９０號","E_COORD97":168529.06,"N_COORD97":2551518.8300000001,"ADDRESS":"長和路四段２５３巷９０號","OBJECTID":337926},"geometry":{"x":168529.05999999959,"y":2551518.8300000019}},{"attributes":{"ID":337936,"DIS_CODE":0,"TOWNNAME":"玉井區","LI":"中正里","LIN":"1鄰","STREET":"中正路","SECT":" ","MAREA":" ","LANE":"３８７巷","ALLEY":" ","HOUSE_NO":"２７號","E_COORD97":195303.60000000001,"N_COORD97":2558513.2400000002,"ADDRESS":"中正路３８７巷２７號","OBJECTID":337927},"geometry":{"x":195303.60000000056,"y":2558513.2400000039}},{"attributes":{"ID":337937,"DIS_CODE":0,"TOWNNAME":"玉井區","LI":"竹圍里","LIN":"1鄰","STREET":"中正路","SECT":" ","MAREA":" ","LANE":"２９２巷","ALLEY":" ","HOUSE_NO":"２８號","E_COORD97":195255.26000000001,"N_COORD97":2558274.7999999998,"ADDRESS":"中正路２９２巷２８號","OBJECTID":337928},"geometry":{"x":195255.26000000071,"y":2558274.8000000007}},{"attributes":{"ID":337938,"DIS_CODE":0,"TOWNNAME":"玉井區","LI":"竹圍里","LIN":"1鄰","STREET":"中正路","SECT":" ","MAREA":" ","LANE":"２９２巷","ALLEY":" ","HOUSE_NO":"１０號","E_COORD97":195216.19,"N_COORD97":2558289.3399999999,"ADDRESS":"中正路２９２巷１０號","OBJECTID":337929},"geometry":{"x":195216.19000000041,"y":2558289.3400000017}},{"attributes":{"ID":337939,"DIS_CODE":0,"TOWNNAME":"玉井區","LI":"竹圍里","LIN":"1鄰","STREET":"中正路","SECT":" ","MAREA":" ","LANE":"２６８巷","ALLEY":" ","HOUSE_NO":"３號","E_COORD97":195178.10999999999,"N_COORD97":2558271.4300000002,"ADDRESS":"中正路２６８巷３號","OBJECTID":337930},"geometry":{"x":195178.11000000034,"y":2558271.4300000016}},{"attributes":{"ID":337940,"DIS_CODE":0,"TOWNNAME":"玉井區","LI":"竹圍里","LIN":"1鄰","STREET":"中正路","SECT":" ","MAREA":" ","LANE":"２９２巷","ALLEY":" ","HOUSE_NO":"６號","E_COORD97":195203.17000000001,"N_COORD97":2558292.71,"ADDRESS":"中正路２９２巷６號","OBJECTID":337931},"geometry":{"x":195203.17000000086,"y":2558292.7100000009}},{"attributes":{"ID":337941,"DIS_CODE":0,"TOWNNAME":"玉井區","LI":"玉井里","LIN":"1鄰","STREET":"中正路","SECT":" ","MAREA":" ","LANE":"２１巷","ALLEY":" ","HOUSE_NO":"８號","E_COORD97":194650.28,"N_COORD97":2558003.1499999999,"ADDRESS":"中正路２１巷８號","OBJECTID":337932},"geometry":{"x":194650.28000000119,"y":2558003.1500000022}},{"attributes":{"ID":337942,"DIS_CODE":0,"TOWNNAME":"玉井區","LI":"玉井里","LIN":"1鄰","STREET":"中正路","SECT":" ","MAREA":" ","LANE":"２１巷","ALLEY":" ","HOUSE_NO":"４２號","E_COORD97":194666.64000000001,"N_COORD97":2558064.1499999999,"ADDRESS":"中正路２１巷４２號","OBJECTID":337933},"geometry":{"x":194666.63999999966,"y":2558064.1500000022}},{"attributes":{"ID":337943,"DIS_CODE":0,"TOWNNAME":"玉井區","LI":"玉井里","LIN":"1鄰","STREET":"中正路","SECT":" ","MAREA":" ","LANE":"２１巷","ALLEY":" ","HOUSE_NO":"２３號","E_COORD97":194677.82000000001,"N_COORD97":2558038.1600000001,"ADDRESS":"中正路２１巷２３號","OBJECTID":337934},"geometry":{"x":194677.8200000003,"y":2558038.1600000001}},{"attributes":{"ID":337944,"DIS_CODE":0,"TOWNNAME":"新化區","LI":"護國里","LIN":"8鄰","STREET":"信義路","SECT":" ","MAREA":" ","LANE":" ","ALLEY":" ","HOUSE_NO":"８０號","E_COORD97":179864.67999999999,"N_COORD97":2548764.25,"ADDRESS":"信義路８０號","OBJECTID":337935},"geometry":{"x":179864.68000000063,"y":2548764.25}},{"attributes":{"ID":337945,"DIS_CODE":0,"TOWNNAME":"新化區","LI":"武安里","LIN":"8鄰","STREET":"和平街","SECT":" ","MAREA":" ","LANE":" ","ALLEY":" ","HOUSE_NO":"１２４號","E_COORD97":178918.51999999999,"N_COORD97":2548149.25,"ADDRESS":"和平街１２４號","OBJECTID":337936},"geometry":{"x":178918.52000000048,"y":2548149.2500000019}},{"attributes":{"ID":337946,"DIS_CODE":0,"TOWNNAME":"新化區","LI":"護國里","LIN":"8鄰","STREET":"信義路","SECT":" ","MAREA":" ","LANE":" ","ALLEY":" ","HOUSE_NO":"１０８號之１０","E_COORD97":179771.62,"N_COORD97":2548713.2599999998,"ADDRESS":"信義路１０８號之１０","OBJECTID":337937},"geometry":{"x":179771.62000000011,"y":2548713.2599999998}},{"attributes":{"ID":337947,"DIS_CODE":0,"TOWNNAME":"鹽水區","LI":"岸內里","LIN":"13鄰","STREET":"蔦松路","SECT":" ","MAREA":" ","LANE":"７２巷","ALLEY":" ","HOUSE_NO":"１５號","E_COORD97":175631.17999999999,"N_COORD97":2580485.73,"ADDRESS":"蔦松路７２巷１５號","OBJECTID":337938},"geometry":{"x":175631.1799999997,"y":2580485.7300000004}},{"attributes":{"ID":337948,"DIS_CODE":0,"TOWNNAME":"安南區","LI":"溪頂里","LIN":"8鄰","STREET":"惠安街","SECT":" ","MAREA":" ","LANE":" ","ALLEY":" ","HOUSE_NO":"６３號","E_COORD97":168963.84,"N_COORD97":2547467.3399999999,"ADDRESS":"惠安街６３號","OBJECTID":337939},"geometry":{"x":168963.84000000078,"y":2547467.3400000017}},{"attributes":{"ID":337949,"DIS_CODE":0,"TOWNNAME":"安南區","LI":"安慶里","LIN":"5鄰","STREET":"怡安路","SECT":"一段","MAREA":" ","LANE":"２６２巷","ALLEY":" ","HOUSE_NO":"３７號","E_COORD97":169021.04000000001,"N_COORD97":2549245.0699999998,"ADDRESS":"怡安路一段２６２巷３７號","OBJECTID":337940},"geometry":{"x":169021.04000000004,"y":2549245.0699999984}},{"attributes":{"ID":337950,"DIS_CODE":0,"TOWNNAME":"安南區","LI":"安慶里","LIN":"5鄰","STREET":"怡安路","SECT":"一段","MAREA":" ","LANE":"２６２巷","ALLEY":" ","HOUSE_NO":"４５號","E_COORD97":169019.45999999999,"N_COORD97":2549261.5800000001,"ADDRESS":"怡安路一段２６２巷４５號","OBJECTID":337941},"geometry":{"x":169019.46000000089,"y":2549261.5800000001}},{"attributes":{"ID":337951,"DIS_CODE":0,"TOWNNAME":"玉井區","LI":"竹圍里","LIN":"1鄰","STREET":"中正路","SECT":" ","MAREA":" ","LANE":"２６８巷","ALLEY":" ","HOUSE_NO":"１５號","E_COORD97":195211.29000000001,"N_COORD97":2558265.6600000001,"ADDRESS":"中正路２６８巷１５號","OBJECTID":337942},"geometry":{"x":195211.29000000097,"y":2558265.6600000001}},{"attributes":{"ID":337952,"DIS_CODE":0,"TOWNNAME":"玉井區","LI":"竹圍里","LIN":"1鄰","STREET":"中正路","SECT":" ","MAREA":" ","LANE":"２９６巷","ALLEY":" ","HOUSE_NO":"７號","E_COORD97":195279.79000000001,"N_COORD97":2558295.6400000001,"ADDRESS":"中正路２９６巷７號","OBJECTID":337943},"geometry":{"x":195279.79000000004,"y":2558295.6400000025}},{"attributes":{"ID":337953,"DIS_CODE":0,"TOWNNAME":"玉井區","LI":"竹圍里","LIN":"1鄰","STREET":"中正路","SECT":" ","MAREA":" ","LANE":"２９２巷","ALLEY":" ","HOUSE_NO":"３０號","E_COORD97":195260.89000000001,"N_COORD97":2558274.0099999998,"ADDRESS":"中正路２９２巷３０號","OBJECTID":337944},"geometry":{"x":195260.8900000006,"y":2558274.0100000016}},{"attributes":{"ID":337954,"DIS_CODE":0,"TOWNNAME":"玉井區","LI":"竹圍里","LIN":"1鄰","STREET":"中正路","SECT":" ","MAREA":" ","LANE":"２６８巷","ALLEY":" ","HOUSE_NO":"１３號","E_COORD97":195204.32999999999,"N_COORD97":2558268.46,"ADDRESS":"中正路２６８巷１３號","OBJECTID":337945},"geometry":{"x":195204.33000000101,"y":2558268.4600000046}},{"attributes":{"ID":337955,"DIS_CODE":0,"TOWNNAME":"玉井區","LI":"竹圍里","LIN":"1鄰","STREET":"中正路","SECT":" ","MAREA":" ","LANE":"２９２巷","ALLEY":" ","HOUSE_NO":"３號","E_COORD97":195218.67999999999,"N_COORD97":2558304.0699999998,"ADDRESS":"中正路２９２巷３號","OBJECTID":337946},"geometry":{"x":195218.6799999997,"y":2558304.0700000003}},{"attributes":{"ID":337956,"DIS_CODE":0,"TOWNNAME":"玉井區","LI":"竹圍里","LIN":"1鄰","STREET":"中正路","SECT":" ","MAREA":" ","LANE":"２９２巷","ALLEY":" ","HOUSE_NO":"５號","E_COORD97":195224.10000000001,"N_COORD97":2558302.1499999999,"ADDRESS":"中正路２９２巷５號","OBJECTID":337947},"geometry":{"x":195224.10000000056,"y":2558302.1500000022}},{"attributes":{"ID":337957,"DIS_CODE":0,"TOWNNAME":"玉井區","LI":"竹圍里","LIN":"1鄰","STREET":"中正路","SECT":" ","MAREA":" ","LANE":"２９２巷","ALLEY":" ","HOUSE_NO":"１７號","E_COORD97":195256.76999999999,"N_COORD97":2558293.8399999999,"ADDRESS":"中正路２９２巷１７號","OBJECTID":337948},"geometry":{"x":195256.77000000048,"y":2558293.8399999999}},{"attributes":{"ID":337958,"DIS_CODE":0,"TOWNNAME":"玉井區","LI":"竹圍里","LIN":"1鄰","STREET":"中正路","SECT":" ","MAREA":" ","LANE":"２９２巷","ALLEY":" ","HOUSE_NO":"７號","E_COORD97":195234.64000000001,"N_COORD97":2558299.1200000001,"ADDRESS":"中正路２９２巷７號","OBJECTID":337949},"geometry":{"x":195234.63999999966,"y":2558299.1200000029}},{"attributes":{"ID":337959,"DIS_CODE":0,"TOWNNAME":"玉井區","LI":"竹圍里","LIN":"1鄰","STREET":"中正路","SECT":" ","MAREA":" ","LANE":"２９６巷","ALLEY":" ","HOUSE_NO":"１０號","E_COORD97":195267.12,"N_COORD97":2558322.3999999999,"ADDRESS":"中正路２９６巷１０號","OBJECTID":337950},"geometry":{"x":195267.12000000011,"y":2558322.3999999985}},{"attributes":{"ID":337960,"DIS_CODE":0,"TOWNNAME":"玉井區","LI":"竹圍里","LIN":"1鄰","STREET":"中正路","SECT":" ","MAREA":" ","LANE":"２６８巷","ALLEY":" ","HOUSE_NO":"１號","E_COORD97":195173.81,"N_COORD97":2558272.5499999998,"ADDRESS":"中正路２６８巷１號","OBJECTID":337951},"geometry":{"x":195173.80999999959,"y":2558272.5500000026}},{"attributes":{"ID":337961,"DIS_CODE":0,"TOWNNAME":"玉井區","LI":"竹圍里","LIN":"1鄰","STREET":"中正路","SECT":" ","MAREA":" ","LANE":"２９２巷","ALLEY":" ","HOUSE_NO":"１８號","E_COORD97":195234.69,"N_COORD97":2558281.0800000001,"ADDRESS":"中正路２９２巷１８號","OBJECTID":337952},"geometry":{"x":195234.69000000041,"y":2558281.0800000019}},{"attributes":{"ID":337962,"DIS_CODE":0,"TOWNNAME":"玉井區","LI":"竹圍里","LIN":"1鄰","STREET":"中正路","SECT":" ","MAREA":" ","LANE":"２９２巷","ALLEY":" ","HOUSE_NO":"８號","E_COORD97":195209,"N_COORD97":2558290.9100000001,"ADDRESS":"中正路２９２巷８號","OBJECTID":337953},"geometry":{"x":195209,"y":2558290.9100000001}},{"attributes":{"ID":337963,"DIS_CODE":0,"TOWNNAME":"玉井區","LI":"竹圍里","LIN":"1鄰","STREET":"中正路","SECT":" ","MAREA":" ","LANE":"２９２巷","ALLEY":" ","HOUSE_NO":"２０號","E_COORD97":195239.20000000001,"N_COORD97":2558279.6200000001,"ADDRESS":"中正路２９２巷２０號","OBJECTID":337954},"geometry":{"x":195239.20000000112,"y":2558279.620000001}},{"attributes":{"ID":337964,"DIS_CODE":0,"TOWNNAME":"玉井區","LI":"竹圍里","LIN":"1鄰","STREET":"中正路","SECT":" ","MAREA":" ","LANE":"２９２巷","ALLEY":" ","HOUSE_NO":"２６號","E_COORD97":195249.53,"N_COORD97":2558276.6000000001,"ADDRESS":"中正路２９２巷２６號","OBJECTID":337955},"geometry":{"x":195249.53000000026,"y":2558276.6000000034}},{"attributes":{"ID":337965,"DIS_CODE":0,"TOWNNAME":"玉井區","LI":"竹圍里","LIN":"1鄰","STREET":"中正路","SECT":" ","MAREA":" ","LANE":"２９２巷","ALLEY":" ","HOUSE_NO":"１１號","E_COORD97":195240.70000000001,"N_COORD97":2558297.6699999999,"ADDRESS":"中正路２９２巷１１號","OBJECTID":337956},"geometry":{"x":195240.70000000112,"y":2558297.6700000018}},{"attributes":{"ID":337966,"DIS_CODE":0,"TOWNNAME":"玉井區","LI":"竹圍里","LIN":"1鄰","STREET":"中正路","SECT":" ","MAREA":" ","LANE":"２６８巷","ALLEY":" ","HOUSE_NO":"９號","E_COORD97":195192.94,"N_COORD97":2558268.3799999999,"ADDRESS":"中正路２６８巷９號","OBJECTID":337957},"geometry":{"x":195192.94000000041,"y":2558268.3800000008}},{"attributes":{"ID":337967,"DIS_CODE":0,"TOWNNAME":"七股區","LI":"看坪里","LIN":"5鄰","STREET":" ","SECT":" ","MAREA":"看坪","LANE":" ","ALLEY":" ","HOUSE_NO":"３７號之１","E_COORD97":162815.98999999999,"N_COORD97":2558685.1499999999,"ADDRESS":"看坪３７號之１","OBJECTID":337958},"geometry":{"x":162815.98999999929,"y":2558685.1500000022}},{"attributes":{"ID":337968,"DIS_CODE":0,"TOWNNAME":"玉井區","LI":"竹圍里","LIN":"1鄰","STREET":"中正路","SECT":" ","MAREA":" ","LANE":"２９２巷","ALLEY":" ","HOUSE_NO":"１號","E_COORD97":195212.95000000001,"N_COORD97":2558305.5299999998,"ADDRESS":"中正路２９２巷１號","OBJECTID":337959},"geometry":{"x":195212.95000000019,"y":2558305.5299999993}},{"attributes":{"ID":337969,"DIS_CODE":0,"TOWNNAME":"玉井區","LI":"竹圍里","LIN":"1鄰","STREET":"中正路","SECT":" ","MAREA":" ","LANE":"２９２巷","ALLEY":" ","HOUSE_NO":"１５號","E_COORD97":195252.16,"N_COORD97":2558294.8599999999,"ADDRESS":"中正路２９２巷１５號","OBJECTID":337960},"geometry":{"x":195252.16000000015,"y":2558294.8600000031}},{"attributes":{"ID":337970,"DIS_CODE":0,"TOWNNAME":"玉井區","LI":"竹圍里","LIN":"1鄰","STREET":"中正路","SECT":" ","MAREA":" ","LANE":"２９２巷","ALLEY":" ","HOUSE_NO":"２２號","E_COORD97":195244.10999999999,"N_COORD97":2558278.2799999998,"ADDRESS":"中正路２９２巷２２號","OBJECTID":337961},"geometry":{"x":195244.11000000034,"y":2558278.2800000031}},{"attributes":{"ID":337971,"DIS_CODE":0,"TOWNNAME":"玉井區","LI":"竹圍里","LIN":"1鄰","STREET":"中正路","SECT":" ","MAREA":" ","LANE":"２６８巷","ALLEY":" ","HOUSE_NO":"５號","E_COORD97":195183.84,"N_COORD97":2558270.1899999999,"ADDRESS":"中正路２６８巷５號","OBJECTID":337962},"geometry":{"x":195183.84000000078,"y":2558270.1900000013}},{"attributes":{"ID":337972,"DIS_CODE":0,"TOWNNAME":"玉井區","LI":"竹圍里","LIN":"1鄰","STREET":"中正路","SECT":" ","MAREA":" ","LANE":"２９２巷","ALLEY":" ","HOUSE_NO":"９號","E_COORD97":195229.42000000001,"N_COORD97":2558300.6899999999,"ADDRESS":"中正路２９２巷９號","OBJECTID":337963},"geometry":{"x":195229.41999999993,"y":2558300.6900000013}},{"attributes":{"ID":337973,"DIS_CODE":0,"TOWNNAME":"玉井區","LI":"竹圍里","LIN":"1鄰","STREET":"中正路","SECT":" ","MAREA":" ","LANE":"２９２巷","ALLEY":" ","HOUSE_NO":"２號","E_COORD97":195196.62,"N_COORD97":2558294.6099999999,"ADDRESS":"中正路２９２巷２號","OBJECTID":337964},"geometry":{"x":195196.62000000197,"y":2558294.6100000013}},{"attributes":{"ID":337974,"DIS_CODE":0,"TOWNNAME":"玉井區","LI":"竹圍里","LIN":"1鄰","STREET":"中正路","SECT":" ","MAREA":" ","LANE":"２６８巷","ALLEY":" ","HOUSE_NO":"７號","E_COORD97":195188.14000000001,"N_COORD97":2558269.0699999998,"ADDRESS":"中正路２６８巷７號","OBJECTID":337965},"geometry":{"x":195188.1400000006,"y":2558269.0700000003}},{"attributes":{"ID":337975,"DIS_CODE":0,"TOWNNAME":"玉井區","LI":"竹圍里","LIN":"1鄰","STREET":"中正路","SECT":" ","MAREA":" ","LANE":"２９２巷","ALLEY":" ","HOUSE_NO":"１９號","E_COORD97":195260.97,"N_COORD97":2558293.0499999998,"ADDRESS":"中正路２９２巷１９號","OBJECTID":337966},"geometry":{"x":195260.96999999974,"y":2558293.0500000026}},{"attributes":{"ID":337976,"DIS_CODE":0,"TOWNNAME":"玉井區","LI":"竹圍里","LIN":"1鄰","STREET":"中正路","SECT":" ","MAREA":" ","LANE":"２６８巷","ALLEY":" ","HOUSE_NO":"１１號","E_COORD97":195199.42000000001,"N_COORD97":2558267.5800000001,"ADDRESS":"中正路２６８巷１１號","OBJECTID":337967},"geometry":{"x":195199.42000000179,"y":2558267.5800000019}},{"attributes":{"ID":337977,"DIS_CODE":0,"TOWNNAME":"北區","LI":"大豐里","LIN":"1鄰","STREET":"文賢路","SECT":" ","MAREA":" ","LANE":"３１３巷","ALLEY":" ","HOUSE_NO":"３號","E_COORD97":167293.82999999999,"N_COORD97":2545236.3799999999,"ADDRESS":"文賢路３１３巷３號","OBJECTID":337968},"geometry":{"x":167293.83000000007,"y":2545236.379999999}},{"attributes":{"ID":337978,"DIS_CODE":0,"TOWNNAME":"北區","LI":"大豐里","LIN":"1鄰","STREET":"文賢路","SECT":" ","MAREA":" ","LANE":"３１３巷","ALLEY":" ","HOUSE_NO":"５號","E_COORD97":167289.20999999999,"N_COORD97":2545237.7799999998,"ADDRESS":"文賢路３１３巷５號","OBJECTID":337969},"geometry":{"x":167289.20999999996,"y":2545237.7799999993}},{"attributes":{"ID":337979,"DIS_CODE":0,"TOWNNAME":"北區","LI":"大豐里","LIN":"1鄰","STREET":"文賢路","SECT":" ","MAREA":" ","LANE":"３１３巷","ALLEY":" ","HOUSE_NO":"７號","E_COORD97":167285,"N_COORD97":2545238.3900000001,"ADDRESS":"文賢路３１３巷７號","OBJECTID":337970},"geometry":{"x":167285.00000000093,"y":2545238.3900000006}},{"attributes":{"ID":337980,"DIS_CODE":0,"TOWNNAME":"安南區","LI":"溪心里","LIN":"8鄰","STREET":"海佃路","SECT":"二段","MAREA":" ","LANE":" ","ALLEY":" ","HOUSE_NO":"７９２號","E_COORD97":166459.75,"N_COORD97":2549656.21,"ADDRESS":"海佃路二段７９２號","OBJECTID":337971},"geometry":{"x":166459.75,"y":2549656.2100000028}},{"attributes":{"ID":337981,"DIS_CODE":0,"TOWNNAME":"安南區","LI":"溪頂里","LIN":"8鄰","STREET":"惠安街","SECT":" ","MAREA":" ","LANE":" ","ALLEY":" ","HOUSE_NO":"６５號","E_COORD97":168955.54999999999,"N_COORD97":2547467.54,"ADDRESS":"惠安街６５號","OBJECTID":337972},"geometry":{"x":168955.55000000075,"y":2547467.5400000028}},{"attributes":{"ID":337982,"DIS_CODE":0,"TOWNNAME":"安南區","LI":"佃西里","LIN":"5鄰","STREET":"公學路","SECT":"四段","MAREA":" ","LANE":"１２６巷","ALLEY":" ","HOUSE_NO":"１０７號","E_COORD97":165334.12,"N_COORD97":2551894.2400000002,"ADDRESS":"公學路四段１２６巷１０７號","OBJECTID":337973},"geometry":{"x":165334.12000000197,"y":2551894.2400000002}},{"attributes":{"ID":337983,"DIS_CODE":0,"TOWNNAME":"安南區","LI":"佃西里","LIN":"5鄰","STREET":"公學路","SECT":"四段","MAREA":" ","LANE":"１２６巷","ALLEY":" ","HOUSE_NO":"１０７號之６","E_COORD97":165324.34,"N_COORD97":2551899.0600000001,"ADDRESS":"公學路四段１２６巷１０７號之６","OBJECTID":337974},"geometry":{"x":165324.34000000078,"y":2551899.0600000005}},{"attributes":{"ID":337984,"DIS_CODE":0,"TOWNNAME":"安南區","LI":"安慶里","LIN":"5鄰","STREET":"長溪路","SECT":"一段","MAREA":" ","LANE":"１６８巷","ALLEY":" ","HOUSE_NO":"２００號","E_COORD97":169052.85999999999,"N_COORD97":2549010.25,"ADDRESS":"長溪路一段１６８巷２００號","OBJECTID":337975},"geometry":{"x":169052.86000000127,"y":2549010.2500000019}},{"attributes":{"ID":337985,"DIS_CODE":0,"TOWNNAME":"北區","LI":"大豐里","LIN":"1鄰","STREET":"文賢路","SECT":" ","MAREA":" ","LANE":"３１３巷","ALLEY":" ","HOUSE_NO":"９號","E_COORD97":167280.17999999999,"N_COORD97":2545238.79,"ADDRESS":"文賢路３１３巷９號","OBJECTID":337976},"geometry":{"x":167280.18000000063,"y":2545238.790000001}},{"attributes":{"ID":337986,"DIS_CODE":0,"TOWNNAME":"學甲區","LI":"慈福里","LIN":"1鄰","STREET":"民生路","SECT":" ","MAREA":" ","LANE":"５巷","ALLEY":" ","HOUSE_NO":"１號","E_COORD97":166439.17000000001,"N_COORD97":2570021.6000000001,"ADDRESS":"民生路５巷１號","OBJECTID":337977},"geometry":{"x":166439.17000000086,"y":2570021.6000000015}},{"attributes":{"ID":337987,"DIS_CODE":0,"TOWNNAME":"學甲區","LI":"慈福里","LIN":"1鄰","STREET":"民生路","SECT":" ","MAREA":" ","LANE":"５巷","ALLEY":" ","HOUSE_NO":"３號","E_COORD97":166432.29999999999,"N_COORD97":2570022.1499999999,"ADDRESS":"民生路５巷３號","OBJECTID":337978},"geometry":{"x":166432.29999999981,"y":2570022.1500000022}},{"attributes":{"ID":337988,"DIS_CODE":0,"TOWNNAME":"學甲區","LI":"慈福里","LIN":"1鄰","STREET":"民生路","SECT":" ","MAREA":" ","LANE":"５巷","ALLEY":" ","HOUSE_NO":"５號","E_COORD97":166425.57000000001,"N_COORD97":2570022.9399999999,"ADDRESS":"民生路５巷５號","OBJECTID":337979},"geometry":{"x":166425.5700000003,"y":2570022.9400000013}},{"attributes":{"ID":337989,"DIS_CODE":0,"TOWNNAME":"學甲區","LI":"仁得里","LIN":"1鄰","STREET":"自強路","SECT":" ","MAREA":" ","LANE":"７巷","ALLEY":" ","HOUSE_NO":"１０號","E_COORD97":166329.25,"N_COORD97":2569787.4100000001,"ADDRESS":"自強路７巷１０號","OBJECTID":337980},"geometry":{"x":166329.25,"y":2569787.4100000001}},{"attributes":{"ID":337990,"DIS_CODE":0,"TOWNNAME":"學甲區","LI":"仁得里","LIN":"1鄰","STREET":"自強路","SECT":" ","MAREA":" ","LANE":"７巷","ALLEY":" ","HOUSE_NO":"１１號","E_COORD97":166347.85000000001,"N_COORD97":2569786.52,"ADDRESS":"自強路７巷１１號","OBJECTID":337981},"geometry":{"x":166347.85000000056,"y":2569786.5199999996}},{"attributes":{"ID":337991,"DIS_CODE":0,"TOWNNAME":"學甲區","LI":"仁得里","LIN":"1鄰","STREET":"自強路","SECT":" ","MAREA":" ","LANE":"７巷","ALLEY":" ","HOUSE_NO":"１２號","E_COORD97":166329.92999999999,"N_COORD97":2569783.5,"ADDRESS":"自強路７巷１２號","OBJECTID":337982},"geometry":{"x":166329.9299999997,"y":2569783.5}},{"attributes":{"ID":337992,"DIS_CODE":0,"TOWNNAME":"學甲區","LI":"仁得里","LIN":"1鄰","STREET":"自強路","SECT":" ","MAREA":" ","LANE":"７巷","ALLEY":" ","HOUSE_NO":"１３號","E_COORD97":166348.23000000001,"N_COORD97":2569782.8799999999,"ADDRESS":"自強路７巷１３號","OBJECTID":337983},"geometry":{"x":166348.23000000138,"y":2569782.879999999}},{"attributes":{"ID":337993,"DIS_CODE":0,"TOWNNAME":"學甲區","LI":"仁得里","LIN":"1鄰","STREET":"自強路","SECT":" ","MAREA":" ","LANE":"７巷","ALLEY":" ","HOUSE_NO":"１４號","E_COORD97":166330.42000000001,"N_COORD97":2569778.6899999999,"ADDRESS":"自強路７巷１４號","OBJECTID":337984},"geometry":{"x":166330.42000000179,"y":2569778.6899999995}},{"attributes":{"ID":337994,"DIS_CODE":0,"TOWNNAME":"學甲區","LI":"仁得里","LIN":"1鄰","STREET":"自強路","SECT":" ","MAREA":" ","LANE":"７巷","ALLEY":" ","HOUSE_NO":"１５號","E_COORD97":166348.72,"N_COORD97":2569778.8799999999,"ADDRESS":"自強路７巷１５號","OBJECTID":337985},"geometry":{"x":166348.72000000067,"y":2569778.8800000008}},{"attributes":{"ID":337995,"DIS_CODE":0,"TOWNNAME":"學甲區","LI":"仁得里","LIN":"1鄰","STREET":"自強路","SECT":" ","MAREA":" ","LANE":"７巷","ALLEY":" ","HOUSE_NO":"１６號","E_COORD97":166330.85000000001,"N_COORD97":2569774.3999999999,"ADDRESS":"自強路７巷１６號","OBJECTID":337986},"geometry":{"x":166330.85000000056,"y":2569774.4000000004}},{"attributes":{"ID":337996,"DIS_CODE":0,"TOWNNAME":"學甲區","LI":"仁得里","LIN":"1鄰","STREET":"自強路","SECT":" ","MAREA":" ","LANE":"７巷","ALLEY":" ","HOUSE_NO":"１７號","E_COORD97":166349.39000000001,"N_COORD97":2569774.9399999999,"ADDRESS":"自強路７巷１７號","OBJECTID":337987},"geometry":{"x":166349.3900000006,"y":2569774.9400000013}},{"attributes":{"ID":337997,"DIS_CODE":0,"TOWNNAME":"學甲區","LI":"仁得里","LIN":"1鄰","STREET":"自強路","SECT":" ","MAREA":" ","LANE":"７巷","ALLEY":" ","HOUSE_NO":"１８號","E_COORD97":166331.22,"N_COORD97":2569770.1899999999,"ADDRESS":"自強路７巷１８號","OBJECTID":337988},"geometry":{"x":166331.21999999974,"y":2569770.1900000013}},{"attributes":{"ID":337998,"DIS_CODE":0,"TOWNNAME":"學甲區","LI":"仁得里","LIN":"1鄰","STREET":"自強路","SECT":" ","MAREA":" ","LANE":"７巷","ALLEY":" ","HOUSE_NO":"１９號","E_COORD97":166349.82000000001,"N_COORD97":2569771.0600000001,"ADDRESS":"自強路７巷１９號","OBJECTID":337989},"geometry":{"x":166349.8200000003,"y":2569771.0600000042}},{"attributes":{"ID":337999,"DIS_CODE":0,"TOWNNAME":"學甲區","LI":"仁得里","LIN":"1鄰","STREET":"自強路","SECT":" ","MAREA":" ","LANE":"７巷","ALLEY":" ","HOUSE_NO":"２０號","E_COORD97":166331.44,"N_COORD97":2569766.21,"ADDRESS":"自強路７巷２０號","OBJECTID":337990},"geometry":{"x":166331.44000000134,"y":2569766.2100000009}},{"attributes":{"ID":338000,"DIS_CODE":0,"TOWNNAME":"學甲區","LI":"仁得里","LIN":"1鄰","STREET":"自強路","SECT":" ","MAREA":" ","LANE":"７巷","ALLEY":" ","HOUSE_NO":"２１號","E_COORD97":166351.22,"N_COORD97":2569766.4700000002,"ADDRESS":"自強路７巷２１號","OBJECTID":337991},"geometry":{"x":166351.21999999974,"y":2569766.4700000025}},{"attributes":{"ID":338001,"DIS_CODE":0,"TOWNNAME":"學甲區","LI":"仁得里","LIN":"1鄰","STREET":"自強路","SECT":" ","MAREA":" ","LANE":"７巷","ALLEY":" ","HOUSE_NO":"４０號","E_COORD97":166339.70999999999,"N_COORD97":2569722.7000000002,"ADDRESS":"自強路７巷４０號","OBJECTID":337992},"geometry":{"x":166339.70999999996,"y":2569722.7000000011}},{"attributes":{"ID":338002,"DIS_CODE":0,"TOWNNAME":"學甲區","LI":"仁得里","LIN":"1鄰","STREET":"自強路","SECT":" ","MAREA":" ","LANE":"７巷","ALLEY":" ","HOUSE_NO":"４３號","E_COORD97":166367.14999999999,"N_COORD97":2569677.6699999999,"ADDRESS":"自強路７巷４３號","OBJECTID":337993},"geometry":{"x":166367.1500000013,"y":2569677.6699999999}},{"attributes":{"ID":338003,"DIS_CODE":0,"TOWNNAME":"學甲區","LI":"仁得里","LIN":"1鄰","STREET":"自強路","SECT":" ","MAREA":" ","LANE":"７巷","ALLEY":" ","HOUSE_NO":"４５號","E_COORD97":166367.94,"N_COORD97":2569671.8599999999,"ADDRESS":"自強路７巷４５號","OBJECTID":337994},"geometry":{"x":166367.94000000041,"y":2569671.8599999994}},{"attributes":{"ID":338004,"DIS_CODE":0,"TOWNNAME":"學甲區","LI":"仁得里","LIN":"1鄰","STREET":"自強路","SECT":" ","MAREA":" ","LANE":"７巷","ALLEY":" ","HOUSE_NO":"４６號","E_COORD97":166345.64999999999,"N_COORD97":2569672.0099999998,"ADDRESS":"自強路７巷４６號","OBJECTID":337995},"geometry":{"x":166345.65000000037,"y":2569672.0099999979}},{"attributes":{"ID":338005,"DIS_CODE":0,"TOWNNAME":"學甲區","LI":"仁得里","LIN":"1鄰","STREET":"自強路","SECT":" ","MAREA":" ","LANE":"７巷","ALLEY":" ","HOUSE_NO":"４７號","E_COORD97":166368.88,"N_COORD97":2569665.6099999999,"ADDRESS":"自強路７巷４７號","OBJECTID":337996},"geometry":{"x":166368.87999999989,"y":2569665.6100000013}},{"attributes":{"ID":338006,"DIS_CODE":0,"TOWNNAME":"學甲區","LI":"仁得里","LIN":"1鄰","STREET":"自強路","SECT":" ","MAREA":" ","LANE":"７巷","ALLEY":" ","HOUSE_NO":"４８號","E_COORD97":166346.39000000001,"N_COORD97":2569667.29,"ADDRESS":"自強路７巷４８號","OBJECTID":337997},"geometry":{"x":166346.3900000006,"y":2569667.290000001}},{"attributes":{"ID":338007,"DIS_CODE":0,"TOWNNAME":"學甲區","LI":"仁得里","LIN":"1鄰","STREET":"自強路","SECT":" ","MAREA":" ","LANE":"７巷","ALLEY":" ","HOUSE_NO":"４９號","E_COORD97":166369.76000000001,"N_COORD97":2569658.6400000001,"ADDRESS":"自強路７巷４９號","OBJECTID":337998},"geometry":{"x":166369.75999999978,"y":2569658.6400000043}},{"attributes":{"ID":338008,"DIS_CODE":0,"TOWNNAME":"學甲區","LI":"仁得里","LIN":"1鄰","STREET":"自強路","SECT":" ","MAREA":" ","LANE":"７巷","ALLEY":" ","HOUSE_NO":"５０號","E_COORD97":166347.17000000001,"N_COORD97":2569661.98,"ADDRESS":"自強路７巷５０號","OBJECTID":337999},"geometry":{"x":166347.16999999993,"y":2569661.9800000004}},{"attributes":{"ID":338009,"DIS_CODE":0,"TOWNNAME":"學甲區","LI":"仁得里","LIN":"1鄰","STREET":"自強路","SECT":" ","MAREA":" ","LANE":"７巷","ALLEY":" ","HOUSE_NO":"５４號","E_COORD97":166347.56,"N_COORD97":2569654.3599999999,"ADDRESS":"自強路７巷５４號","OBJECTID":338000},"geometry":{"x":166347.55999999959,"y":2569654.3599999994}}]}