{"displayFieldName":"TOWNNAME","fieldAliases":{"ID":"ID","DIS_CODE":"DIS_CODE","TOWNNAME":"TOWNNAME","LI":"LI","LIN":"LIN","STREET":"STREET","SECT":"SECT","MAREA":"MAREA","LANE":"LANE","ALLEY":"ALLEY","HOUSE_NO":"HOUSE_NO","E_COORD97":"E_COORD97","N_COORD97":"N_COORD97","ADDRESS":"ADDRESS","OBJECTID":"OBJECTID"},"geometryType":"esriGeometryPoint","spatialReference":{"wkid":102443,"latestWkid":3826},"fields":[{"name":"ID","type":"esriFieldTypeDouble","alias":"ID"},{"name":"DIS_CODE","type":"esriFieldTypeInteger","alias":"DIS_CODE"},{"name":"TOWNNAME","type":"esriFieldTypeString","alias":"TOWNNAME","length":8},{"name":"LI","type":"esriFieldTypeString","alias":"LI","length":8},{"name":"LIN","type":"esriFieldTypeString","alias":"LIN","length":12},{"name":"STREET","type":"esriFieldTypeString","alias":"STREET","length":20},{"name":"SECT","type":"esriFieldTypeString","alias":"SECT","length":8},{"name":"MAREA","type":"esriFieldTypeString","alias":"MAREA","length":12},{"name":"LANE","type":"esriFieldTypeString","alias":"LANE","length":10},{"name":"ALLEY","type":"esriFieldTypeString","alias":"ALLEY","length":10},{"name":"HOUSE_NO","type":"esriFieldTypeString","alias":"HOUSE_NO","length":20},{"name":"E_COORD97","type":"esriFieldTypeDouble","alias":"E_COORD97"},{"name":"N_COORD97","type":"esriFieldTypeDouble","alias":"N_COORD97"},{"name":"ADDRESS","type":"esriFieldTypeString","alias":"ADDRESS","length":50},{"name":"OBJECTID","type":"esriFieldTypeOID","alias":"OBJECTID"}],"features":[{"attributes":{"ID":466826,"DIS_CODE":0,"TOWNNAME":"東區","LI":"崇文里","LIN":"5鄰","STREET":"崇德十七街","SECT":" ","MAREA":" ","LANE":" ","ALLEY":" ","HOUSE_NO":"７１號六樓之３","E_COORD97":170968.29999999999,"N_COORD97":2541094.8900000001,"ADDRESS":"崇德十七街７１號六樓之３","OBJECTID":466801},"geometry":{"x":170968.29999999981,"y":2541094.8900000006}},{"attributes":{"ID":466827,"DIS_CODE":0,"TOWNNAME":"東區","LI":"崇文里","LIN":"5鄰","STREET":"崇德十七街","SECT":" ","MAREA":" ","LANE":" ","ALLEY":" ","HOUSE_NO":"７１號四樓","E_COORD97":170968.29999999999,"N_COORD97":2541094.8900000001,"ADDRESS":"崇德十七街７１號四樓","OBJECTID":466802},"geometry":{"x":170968.29999999981,"y":2541094.8900000006}},{"attributes":{"ID":466828,"DIS_CODE":0,"TOWNNAME":"東區","LI":"崇文里","LIN":"5鄰","STREET":"崇德十七街","SECT":" ","MAREA":" ","LANE":" ","ALLEY":" ","HOUSE_NO":"７１號四樓之１","E_COORD97":170968.29999999999,"N_COORD97":2541094.8900000001,"ADDRESS":"崇德十七街７１號四樓之１","OBJECTID":466803},"geometry":{"x":170968.29999999981,"y":2541094.8900000006}},{"attributes":{"ID":466829,"DIS_CODE":0,"TOWNNAME":"東區","LI":"崇文里","LIN":"5鄰","STREET":"崇德十七街","SECT":" ","MAREA":" ","LANE":" ","ALLEY":" ","HOUSE_NO":"７１號四樓之２","E_COORD97":170968.29999999999,"N_COORD97":2541094.8900000001,"ADDRESS":"崇德十七街７１號四樓之２","OBJECTID":466804},"geometry":{"x":170968.29999999981,"y":2541094.8900000006}},{"attributes":{"ID":466830,"DIS_CODE":0,"TOWNNAME":"東區","LI":"崇文里","LIN":"5鄰","STREET":"崇德十七街","SECT":" ","MAREA":" ","LANE":" ","ALLEY":" ","HOUSE_NO":"７１號四樓之３","E_COORD97":170968.29999999999,"N_COORD97":2541094.8900000001,"ADDRESS":"崇德十七街７１號四樓之３","OBJECTID":466805},"geometry":{"x":170968.29999999981,"y":2541094.8900000006}},{"attributes":{"ID":466831,"DIS_CODE":0,"TOWNNAME":"中西區","LI":"保安里","LIN":"5鄰","STREET":"友愛街","SECT":" ","MAREA":" ","LANE":" ","ALLEY":" ","HOUSE_NO":"２１３號二樓","E_COORD97":167698.29000000001,"N_COORD97":2543608.21,"ADDRESS":"友愛街２１３號二樓","OBJECTID":466806},"geometry":{"x":167698.29000000097,"y":2543608.2100000028}},{"attributes":{"ID":466832,"DIS_CODE":0,"TOWNNAME":"永康區","LI":"龍潭里","LIN":"5鄰","STREET":"龍埔街","SECT":" ","MAREA":" ","LANE":" ","ALLEY":" ","HOUSE_NO":"８５號九樓之６","E_COORD97":174619.79999999999,"N_COORD97":2548225.75,"ADDRESS":"龍埔街８５號九樓之６","OBJECTID":466807},"geometry":{"x":174619.79999999981,"y":2548225.75}},{"attributes":{"ID":466833,"DIS_CODE":0,"TOWNNAME":"永康區","LI":"龍潭里","LIN":"5鄰","STREET":"龍埔街","SECT":" ","MAREA":" ","LANE":" ","ALLEY":" ","HOUSE_NO":"８５號四樓之６","E_COORD97":174619.79999999999,"N_COORD97":2548225.75,"ADDRESS":"龍埔街８５號四樓之６","OBJECTID":466808},"geometry":{"x":174619.79999999981,"y":2548225.75}},{"attributes":{"ID":466834,"DIS_CODE":0,"TOWNNAME":"永康區","LI":"龍潭里","LIN":"5鄰","STREET":"龍埔街","SECT":" ","MAREA":" ","LANE":" ","ALLEY":" ","HOUSE_NO":"８５號九樓之１４","E_COORD97":174620.97,"N_COORD97":2548225.75,"ADDRESS":"龍埔街８５號九樓之１４","OBJECTID":466809},"geometry":{"x":174620.96999999881,"y":2548225.75}},{"attributes":{"ID":466835,"DIS_CODE":0,"TOWNNAME":"永康區","LI":"龍潭里","LIN":"5鄰","STREET":"龍埔街","SECT":" ","MAREA":" ","LANE":" ","ALLEY":" ","HOUSE_NO":"８５號七樓之１２","E_COORD97":174621.07999999999,"N_COORD97":2548225.75,"ADDRESS":"龍埔街８５號七樓之１２","OBJECTID":466810},"geometry":{"x":174621.08000000101,"y":2548225.75}},{"attributes":{"ID":466836,"DIS_CODE":0,"TOWNNAME":"永康區","LI":"龍潭里","LIN":"5鄰","STREET":"龍埔街","SECT":" ","MAREA":" ","LANE":" ","ALLEY":" ","HOUSE_NO":"８５號八樓之５","E_COORD97":174619.85000000001,"N_COORD97":2548225.75,"ADDRESS":"龍埔街８５號八樓之５","OBJECTID":466811},"geometry":{"x":174619.84999999963,"y":2548225.75}},{"attributes":{"ID":466837,"DIS_CODE":0,"TOWNNAME":"永康區","LI":"龍潭里","LIN":"5鄰","STREET":"龍埔街","SECT":" ","MAREA":" ","LANE":" ","ALLEY":" ","HOUSE_NO":"８５號七樓之１","E_COORD97":174619.69,"N_COORD97":2548225.75,"ADDRESS":"龍埔街８５號七樓之１","OBJECTID":466812},"geometry":{"x":174619.69000000041,"y":2548225.75}},{"attributes":{"ID":466838,"DIS_CODE":0,"TOWNNAME":"永康區","LI":"龍潭里","LIN":"5鄰","STREET":"龍埔街","SECT":" ","MAREA":" ","LANE":" ","ALLEY":" ","HOUSE_NO":"８５號十一樓之６","E_COORD97":174621.04999999999,"N_COORD97":2548225.75,"ADDRESS":"龍埔街８５號十一樓之６","OBJECTID":466813},"geometry":{"x":174621.05000000075,"y":2548225.75}},{"attributes":{"ID":466839,"DIS_CODE":0,"TOWNNAME":"永康區","LI":"龍潭里","LIN":"5鄰","STREET":"龍埔街","SECT":" ","MAREA":" ","LANE":" ","ALLEY":" ","HOUSE_NO":"８５號六樓之９","E_COORD97":174619.78,"N_COORD97":2548225.75,"ADDRESS":"龍埔街８５號六樓之９","OBJECTID":466814},"geometry":{"x":174619.78000000119,"y":2548225.75}},{"attributes":{"ID":466840,"DIS_CODE":0,"TOWNNAME":"永康區","LI":"龍潭里","LIN":"5鄰","STREET":"龍埔街","SECT":" ","MAREA":" ","LANE":" ","ALLEY":" ","HOUSE_NO":"８５號八樓之７","E_COORD97":174619.76999999999,"N_COORD97":2548225.75,"ADDRESS":"龍埔街８５號八樓之７","OBJECTID":466815},"geometry":{"x":174619.76999999955,"y":2548225.75}},{"attributes":{"ID":466841,"DIS_CODE":0,"TOWNNAME":"永康區","LI":"龍潭里","LIN":"5鄰","STREET":"龍埔街","SECT":" ","MAREA":" ","LANE":" ","ALLEY":" ","HOUSE_NO":"８５號八樓之１２","E_COORD97":174621.07999999999,"N_COORD97":2548225.75,"ADDRESS":"龍埔街８５號八樓之１２","OBJECTID":466816},"geometry":{"x":174621.08000000101,"y":2548225.75}},{"attributes":{"ID":466842,"DIS_CODE":0,"TOWNNAME":"佳里區","LI":"忠仁里","LIN":"5鄰","STREET":"延平路","SECT":" ","MAREA":" ","LANE":" ","ALLEY":" ","HOUSE_NO":"１９１號二樓","E_COORD97":165879.92999999999,"N_COORD97":2562079.8300000001,"ADDRESS":"延平路１９１號二樓","OBJECTID":466817},"geometry":{"x":165879.93000000063,"y":2562079.8300000019}},{"attributes":{"ID":466843,"DIS_CODE":0,"TOWNNAME":"永康區","LI":"龍潭里","LIN":"5鄰","STREET":"龍埔街","SECT":" ","MAREA":" ","LANE":" ","ALLEY":" ","HOUSE_NO":"８５號七樓之１４","E_COORD97":174620.97,"N_COORD97":2548225.75,"ADDRESS":"龍埔街８５號七樓之１４","OBJECTID":466818},"geometry":{"x":174620.96999999881,"y":2548225.75}},{"attributes":{"ID":466844,"DIS_CODE":0,"TOWNNAME":"永康區","LI":"龍潭里","LIN":"5鄰","STREET":"龍埔街","SECT":" ","MAREA":" ","LANE":" ","ALLEY":" ","HOUSE_NO":"８５號九樓之１０","E_COORD97":174620.98999999999,"N_COORD97":2548225.75,"ADDRESS":"龍埔街８５號九樓之１０","OBJECTID":466819},"geometry":{"x":174620.99000000022,"y":2548225.75}},{"attributes":{"ID":466845,"DIS_CODE":0,"TOWNNAME":"永康區","LI":"龍潭里","LIN":"5鄰","STREET":"龍埔街","SECT":" ","MAREA":" ","LANE":" ","ALLEY":" ","HOUSE_NO":"８５號七樓之８","E_COORD97":174619.84,"N_COORD97":2548225.75,"ADDRESS":"龍埔街８５號七樓之８","OBJECTID":466820},"geometry":{"x":174619.83999999985,"y":2548225.75}},{"attributes":{"ID":466846,"DIS_CODE":0,"TOWNNAME":"永康區","LI":"龍潭里","LIN":"5鄰","STREET":"龍埔街","SECT":" ","MAREA":" ","LANE":" ","ALLEY":" ","HOUSE_NO":"８５號十一樓之１０","E_COORD97":174622.23999999999,"N_COORD97":2548225.75,"ADDRESS":"龍埔街８５號十一樓之１０","OBJECTID":466821},"geometry":{"x":174622.24000000115,"y":2548225.75}},{"attributes":{"ID":466847,"DIS_CODE":0,"TOWNNAME":"永康區","LI":"龍潭里","LIN":"5鄰","STREET":"龍埔街","SECT":" ","MAREA":" ","LANE":" ","ALLEY":" ","HOUSE_NO":"８５號七樓之６","E_COORD97":174619.79999999999,"N_COORD97":2548225.75,"ADDRESS":"龍埔街８５號七樓之６","OBJECTID":466822},"geometry":{"x":174619.79999999981,"y":2548225.75}},{"attributes":{"ID":466848,"DIS_CODE":0,"TOWNNAME":"永康區","LI":"龍潭里","LIN":"5鄰","STREET":"龍埔街","SECT":" ","MAREA":" ","LANE":" ","ALLEY":" ","HOUSE_NO":"８５號八樓之９","E_COORD97":174619.78,"N_COORD97":2548225.75,"ADDRESS":"龍埔街８５號八樓之９","OBJECTID":466823},"geometry":{"x":174619.78000000119,"y":2548225.75}},{"attributes":{"ID":466849,"DIS_CODE":0,"TOWNNAME":"永康區","LI":"龍潭里","LIN":"5鄰","STREET":"龍埔街","SECT":" ","MAREA":" ","LANE":" ","ALLEY":" ","HOUSE_NO":"８５號十樓之７","E_COORD97":174619.76999999999,"N_COORD97":2548225.75,"ADDRESS":"龍埔街８５號十樓之７","OBJECTID":466824},"geometry":{"x":174619.76999999955,"y":2548225.75}},{"attributes":{"ID":466850,"DIS_CODE":0,"TOWNNAME":"永康區","LI":"龍潭里","LIN":"5鄰","STREET":"龍埔街","SECT":" ","MAREA":" ","LANE":" ","ALLEY":" ","HOUSE_NO":"８５號十一樓之２","E_COORD97":174621.07999999999,"N_COORD97":2548225.75,"ADDRESS":"龍埔街８５號十一樓之２","OBJECTID":466825},"geometry":{"x":174621.08000000101,"y":2548225.75}},{"attributes":{"ID":466851,"DIS_CODE":0,"TOWNNAME":"永康區","LI":"大橋里","LIN":"5鄰","STREET":"大橋三街","SECT":" ","MAREA":" ","LANE":" ","ALLEY":" ","HOUSE_NO":"１９１號六樓之１","E_COORD97":170843.01000000001,"N_COORD97":2546766.4100000001,"ADDRESS":"大橋三街１９１號六樓之１","OBJECTID":466826},"geometry":{"x":170843.01000000071,"y":2546766.4100000001}},{"attributes":{"ID":466852,"DIS_CODE":0,"TOWNNAME":"永康區","LI":"龍潭里","LIN":"5鄰","STREET":"龍埔街","SECT":" ","MAREA":" ","LANE":" ","ALLEY":" ","HOUSE_NO":"８５號十二樓之２","E_COORD97":174621.07999999999,"N_COORD97":2548225.75,"ADDRESS":"龍埔街８５號十二樓之２","OBJECTID":466827},"geometry":{"x":174621.08000000101,"y":2548225.75}},{"attributes":{"ID":466853,"DIS_CODE":0,"TOWNNAME":"永康區","LI":"龍潭里","LIN":"5鄰","STREET":"龍埔街","SECT":" ","MAREA":" ","LANE":" ","ALLEY":" ","HOUSE_NO":"８５號六樓之３","E_COORD97":174619.79000000001,"N_COORD97":2548225.75,"ADDRESS":"龍埔街８５號六樓之３","OBJECTID":466828},"geometry":{"x":174619.79000000097,"y":2548225.75}},{"attributes":{"ID":466854,"DIS_CODE":0,"TOWNNAME":"永康區","LI":"龍潭里","LIN":"5鄰","STREET":"龍埔街","SECT":" ","MAREA":" ","LANE":" ","ALLEY":" ","HOUSE_NO":"８５號六樓之２","E_COORD97":174619.82999999999,"N_COORD97":2548225.75,"ADDRESS":"龍埔街８５號六樓之２","OBJECTID":466829},"geometry":{"x":174619.83000000007,"y":2548225.75}},{"attributes":{"ID":466855,"DIS_CODE":0,"TOWNNAME":"永康區","LI":"大橋里","LIN":"5鄰","STREET":"大橋五街","SECT":" ","MAREA":" ","LANE":" ","ALLEY":" ","HOUSE_NO":"２號七樓之２","E_COORD97":170770.17000000001,"N_COORD97":2546837.54,"ADDRESS":"大橋五街２號七樓之２","OBJECTID":466830},"geometry":{"x":170770.17000000179,"y":2546837.540000001}},{"attributes":{"ID":466856,"DIS_CODE":0,"TOWNNAME":"永康區","LI":"大橋里","LIN":"5鄰","STREET":"大橋五街","SECT":" ","MAREA":" ","LANE":" ","ALLEY":" ","HOUSE_NO":"８號八樓之２","E_COORD97":170789.13,"N_COORD97":2546810.5,"ADDRESS":"大橋五街８號八樓之２","OBJECTID":466831},"geometry":{"x":170789.13000000082,"y":2546810.5}},{"attributes":{"ID":466857,"DIS_CODE":0,"TOWNNAME":"新營區","LI":"民權里","LIN":"5鄰","STREET":"中正路","SECT":" ","MAREA":" ","LANE":" ","ALLEY":" ","HOUSE_NO":"１５號九樓","E_COORD97":180027.76000000001,"N_COORD97":2578540.4900000002,"ADDRESS":"中正路１５號九樓","OBJECTID":466832},"geometry":{"x":180027.75999999978,"y":2578540.4900000002}},{"attributes":{"ID":466858,"DIS_CODE":0,"TOWNNAME":"南區","LI":"新昌里","LIN":"5鄰","STREET":"夏林路","SECT":" ","MAREA":" ","LANE":" ","ALLEY":" ","HOUSE_NO":"６３號五樓","E_COORD97":167489.82999999999,"N_COORD97":2542667.1299999999,"ADDRESS":"夏林路６３號五樓","OBJECTID":466833},"geometry":{"x":167489.83000000101,"y":2542667.1300000008}},{"attributes":{"ID":466859,"DIS_CODE":0,"TOWNNAME":"南區","LI":"新昌里","LIN":"5鄰","STREET":"夏林路","SECT":" ","MAREA":" ","LANE":" ","ALLEY":" ","HOUSE_NO":"６３號六樓","E_COORD97":167489.82999999999,"N_COORD97":2542667.1299999999,"ADDRESS":"夏林路６３號六樓","OBJECTID":466834},"geometry":{"x":167489.83000000101,"y":2542667.1300000008}},{"attributes":{"ID":466860,"DIS_CODE":0,"TOWNNAME":"南區","LI":"新昌里","LIN":"5鄰","STREET":"夏林路","SECT":" ","MAREA":" ","LANE":" ","ALLEY":" ","HOUSE_NO":"６３號四樓","E_COORD97":167489.82999999999,"N_COORD97":2542667.1299999999,"ADDRESS":"夏林路６３號四樓","OBJECTID":466835},"geometry":{"x":167489.83000000101,"y":2542667.1300000008}},{"attributes":{"ID":466861,"DIS_CODE":0,"TOWNNAME":"南區","LI":"新昌里","LIN":"5鄰","STREET":"夏林路","SECT":" ","MAREA":" ","LANE":" ","ALLEY":" ","HOUSE_NO":"６３號二樓","E_COORD97":167489.82999999999,"N_COORD97":2542667.1299999999,"ADDRESS":"夏林路６３號二樓","OBJECTID":466836},"geometry":{"x":167489.83000000101,"y":2542667.1300000008}},{"attributes":{"ID":466862,"DIS_CODE":0,"TOWNNAME":"南區","LI":"新昌里","LIN":"5鄰","STREET":"夏林路","SECT":" ","MAREA":" ","LANE":" ","ALLEY":" ","HOUSE_NO":"６３號三樓","E_COORD97":167489.82999999999,"N_COORD97":2542667.1299999999,"ADDRESS":"夏林路６３號三樓","OBJECTID":466837},"geometry":{"x":167489.83000000101,"y":2542667.1300000008}},{"attributes":{"ID":466863,"DIS_CODE":0,"TOWNNAME":"南區","LI":"新興里","LIN":"5鄰","STREET":"夏林路","SECT":" ","MAREA":" ","LANE":" ","ALLEY":" ","HOUSE_NO":"１０５號六樓之１","E_COORD97":167497.67999999999,"N_COORD97":2542500.4300000002,"ADDRESS":"夏林路１０５號六樓之１","OBJECTID":466838},"geometry":{"x":167497.6799999997,"y":2542500.4300000016}},{"attributes":{"ID":466864,"DIS_CODE":0,"TOWNNAME":"南區","LI":"新興里","LIN":"5鄰","STREET":"夏林路","SECT":" ","MAREA":" ","LANE":" ","ALLEY":" ","HOUSE_NO":"１０５號六樓之２","E_COORD97":167497.67999999999,"N_COORD97":2542500.4300000002,"ADDRESS":"夏林路１０５號六樓之２","OBJECTID":466839},"geometry":{"x":167497.6799999997,"y":2542500.4300000016}},{"attributes":{"ID":466865,"DIS_CODE":0,"TOWNNAME":"南區","LI":"新興里","LIN":"5鄰","STREET":"夏林路","SECT":" ","MAREA":" ","LANE":" ","ALLEY":" ","HOUSE_NO":"１０５號六樓之３","E_COORD97":167497.67999999999,"N_COORD97":2542500.4300000002,"ADDRESS":"夏林路１０５號六樓之３","OBJECTID":466840},"geometry":{"x":167497.6799999997,"y":2542500.4300000016}},{"attributes":{"ID":466866,"DIS_CODE":0,"TOWNNAME":"南區","LI":"新興里","LIN":"5鄰","STREET":"夏林路","SECT":" ","MAREA":" ","LANE":" ","ALLEY":" ","HOUSE_NO":"１０５號六樓之５","E_COORD97":167497.67999999999,"N_COORD97":2542500.4300000002,"ADDRESS":"夏林路１０５號六樓之５","OBJECTID":466841},"geometry":{"x":167497.6799999997,"y":2542500.4300000016}},{"attributes":{"ID":466867,"DIS_CODE":0,"TOWNNAME":"南區","LI":"新興里","LIN":"5鄰","STREET":"夏林路","SECT":" ","MAREA":" ","LANE":" ","ALLEY":" ","HOUSE_NO":"１０５號四樓之１","E_COORD97":167497.67999999999,"N_COORD97":2542500.4300000002,"ADDRESS":"夏林路１０５號四樓之１","OBJECTID":466842},"geometry":{"x":167497.6799999997,"y":2542500.4300000016}},{"attributes":{"ID":466868,"DIS_CODE":0,"TOWNNAME":"南區","LI":"新興里","LIN":"5鄰","STREET":"夏林路","SECT":" ","MAREA":" ","LANE":" ","ALLEY":" ","HOUSE_NO":"１０５號四樓之２","E_COORD97":167497.67999999999,"N_COORD97":2542500.4300000002,"ADDRESS":"夏林路１０５號四樓之２","OBJECTID":466843},"geometry":{"x":167497.6799999997,"y":2542500.4300000016}},{"attributes":{"ID":466869,"DIS_CODE":0,"TOWNNAME":"南區","LI":"新興里","LIN":"5鄰","STREET":"夏林路","SECT":" ","MAREA":" ","LANE":" ","ALLEY":" ","HOUSE_NO":"１０５號四樓之３","E_COORD97":167497.67999999999,"N_COORD97":2542500.4300000002,"ADDRESS":"夏林路１０５號四樓之３","OBJECTID":466844},"geometry":{"x":167497.6799999997,"y":2542500.4300000016}},{"attributes":{"ID":466870,"DIS_CODE":0,"TOWNNAME":"南區","LI":"新興里","LIN":"5鄰","STREET":"夏林路","SECT":" ","MAREA":" ","LANE":" ","ALLEY":" ","HOUSE_NO":"１０５號四樓之５","E_COORD97":167497.67999999999,"N_COORD97":2542500.4300000002,"ADDRESS":"夏林路１０５號四樓之５","OBJECTID":466845},"geometry":{"x":167497.6799999997,"y":2542500.4300000016}},{"attributes":{"ID":466871,"DIS_CODE":0,"TOWNNAME":"南區","LI":"新興里","LIN":"5鄰","STREET":"夏林路","SECT":" ","MAREA":" ","LANE":" ","ALLEY":" ","HOUSE_NO":"１０５號七樓之１","E_COORD97":167497.67999999999,"N_COORD97":2542500.4300000002,"ADDRESS":"夏林路１０５號七樓之１","OBJECTID":466846},"geometry":{"x":167497.6799999997,"y":2542500.4300000016}},{"attributes":{"ID":466872,"DIS_CODE":0,"TOWNNAME":"南區","LI":"新興里","LIN":"5鄰","STREET":"夏林路","SECT":" ","MAREA":" ","LANE":" ","ALLEY":" ","HOUSE_NO":"１０５號七樓之２","E_COORD97":167497.67999999999,"N_COORD97":2542500.4300000002,"ADDRESS":"夏林路１０５號七樓之２","OBJECTID":466847},"geometry":{"x":167497.6799999997,"y":2542500.4300000016}},{"attributes":{"ID":466873,"DIS_CODE":0,"TOWNNAME":"南區","LI":"新興里","LIN":"5鄰","STREET":"夏林路","SECT":" ","MAREA":" ","LANE":" ","ALLEY":" ","HOUSE_NO":"１０５號七樓之３","E_COORD97":167497.67999999999,"N_COORD97":2542500.4300000002,"ADDRESS":"夏林路１０５號七樓之３","OBJECTID":466848},"geometry":{"x":167497.6799999997,"y":2542500.4300000016}},{"attributes":{"ID":466874,"DIS_CODE":0,"TOWNNAME":"南區","LI":"新興里","LIN":"5鄰","STREET":"夏林路","SECT":" ","MAREA":" ","LANE":" ","ALLEY":" ","HOUSE_NO":"１０５號七樓之５","E_COORD97":167497.67999999999,"N_COORD97":2542500.4300000002,"ADDRESS":"夏林路１０５號七樓之５","OBJECTID":466849},"geometry":{"x":167497.6799999997,"y":2542500.4300000016}},{"attributes":{"ID":466875,"DIS_CODE":0,"TOWNNAME":"南區","LI":"新興里","LIN":"5鄰","STREET":"夏林路","SECT":" ","MAREA":" ","LANE":" ","ALLEY":" ","HOUSE_NO":"１０５號九樓之１","E_COORD97":167497.67999999999,"N_COORD97":2542500.4300000002,"ADDRESS":"夏林路１０５號九樓之１","OBJECTID":466850},"geometry":{"x":167497.6799999997,"y":2542500.4300000016}},{"attributes":{"ID":466876,"DIS_CODE":0,"TOWNNAME":"南區","LI":"新興里","LIN":"5鄰","STREET":"夏林路","SECT":" ","MAREA":" ","LANE":" ","ALLEY":" ","HOUSE_NO":"１０５號九樓之２","E_COORD97":167497.67999999999,"N_COORD97":2542500.4300000002,"ADDRESS":"夏林路１０５號九樓之２","OBJECTID":466851},"geometry":{"x":167497.6799999997,"y":2542500.4300000016}},{"attributes":{"ID":466877,"DIS_CODE":0,"TOWNNAME":"南區","LI":"新興里","LIN":"5鄰","STREET":"夏林路","SECT":" ","MAREA":" ","LANE":" ","ALLEY":" ","HOUSE_NO":"１０５號九樓之３","E_COORD97":167497.67999999999,"N_COORD97":2542500.4300000002,"ADDRESS":"夏林路１０５號九樓之３","OBJECTID":466852},"geometry":{"x":167497.6799999997,"y":2542500.4300000016}},{"attributes":{"ID":466878,"DIS_CODE":0,"TOWNNAME":"南區","LI":"新興里","LIN":"5鄰","STREET":"夏林路","SECT":" ","MAREA":" ","LANE":" ","ALLEY":" ","HOUSE_NO":"１０５號九樓之５","E_COORD97":167497.67999999999,"N_COORD97":2542500.4300000002,"ADDRESS":"夏林路１０５號九樓之５","OBJECTID":466853},"geometry":{"x":167497.6799999997,"y":2542500.4300000016}},{"attributes":{"ID":466879,"DIS_CODE":0,"TOWNNAME":"南區","LI":"新興里","LIN":"5鄰","STREET":"夏林路","SECT":" ","MAREA":" ","LANE":" ","ALLEY":" ","HOUSE_NO":"１０５號八樓之１","E_COORD97":167497.67999999999,"N_COORD97":2542500.4300000002,"ADDRESS":"夏林路１０５號八樓之１","OBJECTID":466854},"geometry":{"x":167497.6799999997,"y":2542500.4300000016}},{"attributes":{"ID":466880,"DIS_CODE":0,"TOWNNAME":"南區","LI":"新興里","LIN":"5鄰","STREET":"夏林路","SECT":" ","MAREA":" ","LANE":" ","ALLEY":" ","HOUSE_NO":"１０５號八樓之２","E_COORD97":167497.67999999999,"N_COORD97":2542500.4300000002,"ADDRESS":"夏林路１０５號八樓之２","OBJECTID":466855},"geometry":{"x":167497.6799999997,"y":2542500.4300000016}},{"attributes":{"ID":466881,"DIS_CODE":0,"TOWNNAME":"南區","LI":"新興里","LIN":"5鄰","STREET":"夏林路","SECT":" ","MAREA":" ","LANE":" ","ALLEY":" ","HOUSE_NO":"１０５號八樓之３","E_COORD97":167497.67999999999,"N_COORD97":2542500.4300000002,"ADDRESS":"夏林路１０５號八樓之３","OBJECTID":466856},"geometry":{"x":167497.6799999997,"y":2542500.4300000016}},{"attributes":{"ID":466882,"DIS_CODE":0,"TOWNNAME":"南區","LI":"新興里","LIN":"5鄰","STREET":"夏林路","SECT":" ","MAREA":" ","LANE":" ","ALLEY":" ","HOUSE_NO":"１０５號八樓之５","E_COORD97":167497.67999999999,"N_COORD97":2542500.4300000002,"ADDRESS":"夏林路１０５號八樓之５","OBJECTID":466857},"geometry":{"x":167497.6799999997,"y":2542500.4300000016}},{"attributes":{"ID":466883,"DIS_CODE":0,"TOWNNAME":"南區","LI":"新興里","LIN":"5鄰","STREET":"夏林路","SECT":" ","MAREA":" ","LANE":" ","ALLEY":" ","HOUSE_NO":"１０５號十一樓之１","E_COORD97":167497.67999999999,"N_COORD97":2542500.4300000002,"ADDRESS":"夏林路１０５號十一樓之１","OBJECTID":466858},"geometry":{"x":167497.6799999997,"y":2542500.4300000016}},{"attributes":{"ID":466884,"DIS_CODE":0,"TOWNNAME":"南區","LI":"新興里","LIN":"5鄰","STREET":"夏林路","SECT":" ","MAREA":" ","LANE":" ","ALLEY":" ","HOUSE_NO":"１０５號十一樓之２","E_COORD97":167497.67999999999,"N_COORD97":2542500.4300000002,"ADDRESS":"夏林路１０５號十一樓之２","OBJECTID":466859},"geometry":{"x":167497.6799999997,"y":2542500.4300000016}},{"attributes":{"ID":466885,"DIS_CODE":0,"TOWNNAME":"南區","LI":"新興里","LIN":"5鄰","STREET":"夏林路","SECT":" ","MAREA":" ","LANE":" ","ALLEY":" ","HOUSE_NO":"１０５號十一樓之３","E_COORD97":167497.67999999999,"N_COORD97":2542500.4300000002,"ADDRESS":"夏林路１０５號十一樓之３","OBJECTID":466860},"geometry":{"x":167497.6799999997,"y":2542500.4300000016}},{"attributes":{"ID":466886,"DIS_CODE":0,"TOWNNAME":"南區","LI":"新興里","LIN":"5鄰","STREET":"夏林路","SECT":" ","MAREA":" ","LANE":" ","ALLEY":" ","HOUSE_NO":"１０５號十一樓之５","E_COORD97":167497.67999999999,"N_COORD97":2542500.4300000002,"ADDRESS":"夏林路１０５號十一樓之５","OBJECTID":466861},"geometry":{"x":167497.6799999997,"y":2542500.4300000016}},{"attributes":{"ID":466887,"DIS_CODE":0,"TOWNNAME":"南區","LI":"新興里","LIN":"5鄰","STREET":"夏林路","SECT":" ","MAREA":" ","LANE":" ","ALLEY":" ","HOUSE_NO":"１０５號十樓之１","E_COORD97":167497.67999999999,"N_COORD97":2542500.4300000002,"ADDRESS":"夏林路１０５號十樓之１","OBJECTID":466862},"geometry":{"x":167497.6799999997,"y":2542500.4300000016}},{"attributes":{"ID":466888,"DIS_CODE":0,"TOWNNAME":"南區","LI":"新興里","LIN":"5鄰","STREET":"夏林路","SECT":" ","MAREA":" ","LANE":" ","ALLEY":" ","HOUSE_NO":"１０５號十樓之２","E_COORD97":167497.67999999999,"N_COORD97":2542500.4300000002,"ADDRESS":"夏林路１０５號十樓之２","OBJECTID":466863},"geometry":{"x":167497.6799999997,"y":2542500.4300000016}},{"attributes":{"ID":466889,"DIS_CODE":0,"TOWNNAME":"南區","LI":"新興里","LIN":"5鄰","STREET":"夏林路","SECT":" ","MAREA":" ","LANE":" ","ALLEY":" ","HOUSE_NO":"１０５號十樓之３","E_COORD97":167497.67999999999,"N_COORD97":2542500.4300000002,"ADDRESS":"夏林路１０５號十樓之３","OBJECTID":466864},"geometry":{"x":167497.6799999997,"y":2542500.4300000016}},{"attributes":{"ID":466890,"DIS_CODE":0,"TOWNNAME":"南區","LI":"新興里","LIN":"5鄰","STREET":"夏林路","SECT":" ","MAREA":" ","LANE":" ","ALLEY":" ","HOUSE_NO":"１０５號十樓之５","E_COORD97":167497.67999999999,"N_COORD97":2542500.4300000002,"ADDRESS":"夏林路１０５號十樓之５","OBJECTID":466865},"geometry":{"x":167497.6799999997,"y":2542500.4300000016}},{"attributes":{"ID":466891,"DIS_CODE":0,"TOWNNAME":"南區","LI":"新興里","LIN":"5鄰","STREET":"夏林路","SECT":" ","MAREA":" ","LANE":" ","ALLEY":" ","HOUSE_NO":"１０５號五樓之１","E_COORD97":167497.67999999999,"N_COORD97":2542500.4300000002,"ADDRESS":"夏林路１０５號五樓之１","OBJECTID":466866},"geometry":{"x":167497.6799999997,"y":2542500.4300000016}},{"attributes":{"ID":466892,"DIS_CODE":0,"TOWNNAME":"南區","LI":"新興里","LIN":"5鄰","STREET":"夏林路","SECT":" ","MAREA":" ","LANE":" ","ALLEY":" ","HOUSE_NO":"１０５號五樓之２","E_COORD97":167497.67999999999,"N_COORD97":2542500.4300000002,"ADDRESS":"夏林路１０５號五樓之２","OBJECTID":466867},"geometry":{"x":167497.6799999997,"y":2542500.4300000016}},{"attributes":{"ID":466893,"DIS_CODE":0,"TOWNNAME":"南區","LI":"新興里","LIN":"5鄰","STREET":"夏林路","SECT":" ","MAREA":" ","LANE":" ","ALLEY":" ","HOUSE_NO":"１０５號五樓之３","E_COORD97":167497.67999999999,"N_COORD97":2542500.4300000002,"ADDRESS":"夏林路１０５號五樓之３","OBJECTID":466868},"geometry":{"x":167497.6799999997,"y":2542500.4300000016}},{"attributes":{"ID":466894,"DIS_CODE":0,"TOWNNAME":"南區","LI":"新興里","LIN":"5鄰","STREET":"夏林路","SECT":" ","MAREA":" ","LANE":" ","ALLEY":" ","HOUSE_NO":"１０５號五樓之５","E_COORD97":167497.67999999999,"N_COORD97":2542500.4300000002,"ADDRESS":"夏林路１０５號五樓之５","OBJECTID":466869},"geometry":{"x":167497.6799999997,"y":2542500.4300000016}},{"attributes":{"ID":466895,"DIS_CODE":0,"TOWNNAME":"南區","LI":"新興里","LIN":"5鄰","STREET":"健康路","SECT":"二段","MAREA":" ","LANE":" ","ALLEY":" ","HOUSE_NO":"９２號二樓","E_COORD97":167496.75,"N_COORD97":2542475.98,"ADDRESS":"健康路二段９２號二樓","OBJECTID":466870},"geometry":{"x":167496.75000000093,"y":2542475.9800000023}},{"attributes":{"ID":466896,"DIS_CODE":0,"TOWNNAME":"南區","LI":"新興里","LIN":"5鄰","STREET":"健康路","SECT":"二段","MAREA":" ","LANE":" ","ALLEY":" ","HOUSE_NO":"９２號三樓","E_COORD97":167496.75,"N_COORD97":2542475.98,"ADDRESS":"健康路二段９２號三樓","OBJECTID":466871},"geometry":{"x":167496.75000000093,"y":2542475.9800000023}},{"attributes":{"ID":466897,"DIS_CODE":0,"TOWNNAME":"南區","LI":"新興里","LIN":"5鄰","STREET":"健康路","SECT":"二段","MAREA":" ","LANE":" ","ALLEY":" ","HOUSE_NO":"９２號五樓","E_COORD97":167496.75,"N_COORD97":2542475.98,"ADDRESS":"健康路二段９２號五樓","OBJECTID":466872},"geometry":{"x":167496.75000000093,"y":2542475.9800000023}},{"attributes":{"ID":466898,"DIS_CODE":0,"TOWNNAME":"南區","LI":"新興里","LIN":"5鄰","STREET":"健康路","SECT":"二段","MAREA":" ","LANE":" ","ALLEY":" ","HOUSE_NO":"９２號四樓","E_COORD97":167496.75,"N_COORD97":2542475.98,"ADDRESS":"健康路二段９２號四樓","OBJECTID":466873},"geometry":{"x":167496.75000000093,"y":2542475.9800000023}},{"attributes":{"ID":466899,"DIS_CODE":0,"TOWNNAME":"安平區","LI":"華平里","LIN":"5鄰","STREET":"健康二街","SECT":" ","MAREA":" ","LANE":" ","ALLEY":" ","HOUSE_NO":"５２９號七樓之１","E_COORD97":165366.32999999999,"N_COORD97":2544077.6000000001,"ADDRESS":"健康二街５２９號七樓之１","OBJECTID":466874},"geometry":{"x":165366.33000000007,"y":2544077.6000000034}},{"attributes":{"ID":466900,"DIS_CODE":0,"TOWNNAME":"安平區","LI":"華平里","LIN":"5鄰","STREET":"健康二街","SECT":" ","MAREA":" ","LANE":" ","ALLEY":" ","HOUSE_NO":"５２９號七樓之２","E_COORD97":165366.32999999999,"N_COORD97":2544077.6000000001,"ADDRESS":"健康二街５２９號七樓之２","OBJECTID":466875},"geometry":{"x":165366.33000000007,"y":2544077.6000000034}},{"attributes":{"ID":466901,"DIS_CODE":0,"TOWNNAME":"安平區","LI":"華平里","LIN":"5鄰","STREET":"健康二街","SECT":" ","MAREA":" ","LANE":" ","ALLEY":" ","HOUSE_NO":"５２９號八樓","E_COORD97":165366.32999999999,"N_COORD97":2544077.6000000001,"ADDRESS":"健康二街５２９號八樓","OBJECTID":466876},"geometry":{"x":165366.33000000007,"y":2544077.6000000034}},{"attributes":{"ID":466902,"DIS_CODE":0,"TOWNNAME":"安平區","LI":"華平里","LIN":"5鄰","STREET":"健康二街","SECT":" ","MAREA":" ","LANE":" ","ALLEY":" ","HOUSE_NO":"５２９號三樓之１","E_COORD97":165366.32999999999,"N_COORD97":2544077.6000000001,"ADDRESS":"健康二街５２９號三樓之１","OBJECTID":466877},"geometry":{"x":165366.33000000007,"y":2544077.6000000034}},{"attributes":{"ID":466903,"DIS_CODE":0,"TOWNNAME":"安平區","LI":"華平里","LIN":"5鄰","STREET":"健康二街","SECT":" ","MAREA":" ","LANE":" ","ALLEY":" ","HOUSE_NO":"５２９號三樓之２","E_COORD97":165366.32999999999,"N_COORD97":2544077.6000000001,"ADDRESS":"健康二街５２９號三樓之２","OBJECTID":466878},"geometry":{"x":165366.33000000007,"y":2544077.6000000034}},{"attributes":{"ID":466904,"DIS_CODE":0,"TOWNNAME":"安平區","LI":"華平里","LIN":"5鄰","STREET":"健康二街","SECT":" ","MAREA":" ","LANE":" ","ALLEY":" ","HOUSE_NO":"５２９號五樓之１","E_COORD97":165366.32999999999,"N_COORD97":2544077.6000000001,"ADDRESS":"健康二街５２９號五樓之１","OBJECTID":466879},"geometry":{"x":165366.33000000007,"y":2544077.6000000034}},{"attributes":{"ID":466905,"DIS_CODE":0,"TOWNNAME":"安平區","LI":"華平里","LIN":"5鄰","STREET":"健康二街","SECT":" ","MAREA":" ","LANE":" ","ALLEY":" ","HOUSE_NO":"５２９號五樓之２","E_COORD97":165366.32999999999,"N_COORD97":2544077.6000000001,"ADDRESS":"健康二街５２９號五樓之２","OBJECTID":466880},"geometry":{"x":165366.33000000007,"y":2544077.6000000034}},{"attributes":{"ID":466906,"DIS_CODE":0,"TOWNNAME":"安平區","LI":"華平里","LIN":"5鄰","STREET":"健康二街","SECT":" ","MAREA":" ","LANE":" ","ALLEY":" ","HOUSE_NO":"５２９號六樓之１","E_COORD97":165366.32999999999,"N_COORD97":2544077.6000000001,"ADDRESS":"健康二街５２９號六樓之１","OBJECTID":466881},"geometry":{"x":165366.33000000007,"y":2544077.6000000034}},{"attributes":{"ID":466907,"DIS_CODE":0,"TOWNNAME":"安平區","LI":"華平里","LIN":"5鄰","STREET":"健康二街","SECT":" ","MAREA":" ","LANE":" ","ALLEY":" ","HOUSE_NO":"５２９號六樓之２","E_COORD97":165366.32999999999,"N_COORD97":2544077.6000000001,"ADDRESS":"健康二街５２９號六樓之２","OBJECTID":466882},"geometry":{"x":165366.33000000007,"y":2544077.6000000034}},{"attributes":{"ID":466908,"DIS_CODE":0,"TOWNNAME":"安平區","LI":"華平里","LIN":"5鄰","STREET":"健康二街","SECT":" ","MAREA":" ","LANE":" ","ALLEY":" ","HOUSE_NO":"５２９號四樓之１","E_COORD97":165366.32999999999,"N_COORD97":2544077.6000000001,"ADDRESS":"健康二街５２９號四樓之１","OBJECTID":466883},"geometry":{"x":165366.33000000007,"y":2544077.6000000034}},{"attributes":{"ID":466909,"DIS_CODE":0,"TOWNNAME":"安平區","LI":"華平里","LIN":"5鄰","STREET":"健康二街","SECT":" ","MAREA":" ","LANE":" ","ALLEY":" ","HOUSE_NO":"５２９號四樓之２","E_COORD97":165366.32999999999,"N_COORD97":2544077.6000000001,"ADDRESS":"健康二街５２９號四樓之２","OBJECTID":466884},"geometry":{"x":165366.33000000007,"y":2544077.6000000034}},{"attributes":{"ID":466910,"DIS_CODE":0,"TOWNNAME":"安平區","LI":"華平里","LIN":"5鄰","STREET":"健康二街","SECT":" ","MAREA":" ","LANE":" ","ALLEY":" ","HOUSE_NO":"５３１號七樓之１","E_COORD97":165367.17000000001,"N_COORD97":2544086.4700000002,"ADDRESS":"健康二街５３１號七樓之１","OBJECTID":466885},"geometry":{"x":165367.16999999993,"y":2544086.4700000025}},{"attributes":{"ID":466911,"DIS_CODE":0,"TOWNNAME":"安平區","LI":"華平里","LIN":"5鄰","STREET":"健康二街","SECT":" ","MAREA":" ","LANE":" ","ALLEY":" ","HOUSE_NO":"５３１號七樓之２","E_COORD97":165367.17000000001,"N_COORD97":2544086.4700000002,"ADDRESS":"健康二街５３１號七樓之２","OBJECTID":466886},"geometry":{"x":165367.16999999993,"y":2544086.4700000025}},{"attributes":{"ID":466912,"DIS_CODE":0,"TOWNNAME":"安平區","LI":"華平里","LIN":"5鄰","STREET":"健康二街","SECT":" ","MAREA":" ","LANE":" ","ALLEY":" ","HOUSE_NO":"５３１號三樓之１","E_COORD97":165367.17000000001,"N_COORD97":2544086.4700000002,"ADDRESS":"健康二街５３１號三樓之１","OBJECTID":466887},"geometry":{"x":165367.16999999993,"y":2544086.4700000025}},{"attributes":{"ID":466913,"DIS_CODE":0,"TOWNNAME":"安平區","LI":"華平里","LIN":"5鄰","STREET":"健康二街","SECT":" ","MAREA":" ","LANE":" ","ALLEY":" ","HOUSE_NO":"５３１號三樓之２","E_COORD97":165367.17000000001,"N_COORD97":2544086.4700000002,"ADDRESS":"健康二街５３１號三樓之２","OBJECTID":466888},"geometry":{"x":165367.16999999993,"y":2544086.4700000025}},{"attributes":{"ID":466914,"DIS_CODE":0,"TOWNNAME":"安平區","LI":"華平里","LIN":"5鄰","STREET":"健康二街","SECT":" ","MAREA":" ","LANE":" ","ALLEY":" ","HOUSE_NO":"５３１號五樓之１","E_COORD97":165367.17000000001,"N_COORD97":2544086.4700000002,"ADDRESS":"健康二街５３１號五樓之１","OBJECTID":466889},"geometry":{"x":165367.16999999993,"y":2544086.4700000025}},{"attributes":{"ID":466915,"DIS_CODE":0,"TOWNNAME":"安平區","LI":"華平里","LIN":"5鄰","STREET":"健康二街","SECT":" ","MAREA":" ","LANE":" ","ALLEY":" ","HOUSE_NO":"５３１號五樓之２","E_COORD97":165367.17000000001,"N_COORD97":2544086.4700000002,"ADDRESS":"健康二街５３１號五樓之２","OBJECTID":466890},"geometry":{"x":165367.16999999993,"y":2544086.4700000025}},{"attributes":{"ID":466916,"DIS_CODE":0,"TOWNNAME":"安平區","LI":"華平里","LIN":"5鄰","STREET":"健康二街","SECT":" ","MAREA":" ","LANE":" ","ALLEY":" ","HOUSE_NO":"５３１號六樓之１","E_COORD97":165367.17000000001,"N_COORD97":2544086.4700000002,"ADDRESS":"健康二街５３１號六樓之１","OBJECTID":466891},"geometry":{"x":165367.16999999993,"y":2544086.4700000025}},{"attributes":{"ID":466917,"DIS_CODE":0,"TOWNNAME":"安平區","LI":"華平里","LIN":"5鄰","STREET":"健康二街","SECT":" ","MAREA":" ","LANE":" ","ALLEY":" ","HOUSE_NO":"５３１號六樓之２","E_COORD97":165367.17000000001,"N_COORD97":2544086.4700000002,"ADDRESS":"健康二街５３１號六樓之２","OBJECTID":466892},"geometry":{"x":165367.16999999993,"y":2544086.4700000025}},{"attributes":{"ID":466918,"DIS_CODE":0,"TOWNNAME":"安平區","LI":"華平里","LIN":"5鄰","STREET":"健康二街","SECT":" ","MAREA":" ","LANE":" ","ALLEY":" ","HOUSE_NO":"５３１號四樓之１","E_COORD97":165367.17000000001,"N_COORD97":2544086.4700000002,"ADDRESS":"健康二街５３１號四樓之１","OBJECTID":466893},"geometry":{"x":165367.16999999993,"y":2544086.4700000025}},{"attributes":{"ID":466919,"DIS_CODE":0,"TOWNNAME":"安平區","LI":"華平里","LIN":"5鄰","STREET":"健康二街","SECT":" ","MAREA":" ","LANE":" ","ALLEY":" ","HOUSE_NO":"５３１號四樓之２","E_COORD97":165367.17000000001,"N_COORD97":2544086.4700000002,"ADDRESS":"健康二街５３１號四樓之２","OBJECTID":466894},"geometry":{"x":165367.16999999993,"y":2544086.4700000025}},{"attributes":{"ID":466920,"DIS_CODE":0,"TOWNNAME":"安平區","LI":"金城里","LIN":"5鄰","STREET":"湖內二街","SECT":" ","MAREA":" ","LANE":" ","ALLEY":" ","HOUSE_NO":"３４之１號二樓","E_COORD97":163800.32000000001,"N_COORD97":2544302.0800000001,"ADDRESS":"湖內二街３４之１號二樓","OBJECTID":466895},"geometry":{"x":163800.3200000003,"y":2544302.0800000019}},{"attributes":{"ID":466921,"DIS_CODE":0,"TOWNNAME":"北區","LI":"中樓里","LIN":"5鄰","STREET":"前鋒路","SECT":" ","MAREA":" ","LANE":" ","ALLEY":" ","HOUSE_NO":"２９３號七樓之１","E_COORD97":169596.07999999999,"N_COORD97":2545073.0499999998,"ADDRESS":"前鋒路２９３號七樓之１","OBJECTID":466896},"geometry":{"x":169596.08000000194,"y":2545073.0500000026}},{"attributes":{"ID":466922,"DIS_CODE":0,"TOWNNAME":"北區","LI":"中樓里","LIN":"5鄰","STREET":"前鋒路","SECT":" ","MAREA":" ","LANE":" ","ALLEY":" ","HOUSE_NO":"２９３號七樓之２","E_COORD97":169596.07999999999,"N_COORD97":2545073.0499999998,"ADDRESS":"前鋒路２９３號七樓之２","OBJECTID":466897},"geometry":{"x":169596.08000000194,"y":2545073.0500000026}},{"attributes":{"ID":466923,"DIS_CODE":0,"TOWNNAME":"北區","LI":"中樓里","LIN":"5鄰","STREET":"前鋒路","SECT":" ","MAREA":" ","LANE":" ","ALLEY":" ","HOUSE_NO":"２９３號七樓之３","E_COORD97":169596.07999999999,"N_COORD97":2545073.0499999998,"ADDRESS":"前鋒路２９３號七樓之３","OBJECTID":466898},"geometry":{"x":169596.08000000194,"y":2545073.0500000026}},{"attributes":{"ID":466924,"DIS_CODE":0,"TOWNNAME":"北區","LI":"中樓里","LIN":"5鄰","STREET":"前鋒路","SECT":" ","MAREA":" ","LANE":" ","ALLEY":" ","HOUSE_NO":"２９３號七樓之４","E_COORD97":169596.07999999999,"N_COORD97":2545073.0499999998,"ADDRESS":"前鋒路２９３號七樓之４","OBJECTID":466899},"geometry":{"x":169596.08000000194,"y":2545073.0500000026}},{"attributes":{"ID":466925,"DIS_CODE":0,"TOWNNAME":"北區","LI":"中樓里","LIN":"5鄰","STREET":"前鋒路","SECT":" ","MAREA":" ","LANE":" ","ALLEY":" ","HOUSE_NO":"２９３號九樓之１","E_COORD97":169596.07999999999,"N_COORD97":2545073.0499999998,"ADDRESS":"前鋒路２９３號九樓之１","OBJECTID":466900},"geometry":{"x":169596.08000000194,"y":2545073.0500000026}},{"attributes":{"ID":466926,"DIS_CODE":0,"TOWNNAME":"北區","LI":"中樓里","LIN":"5鄰","STREET":"前鋒路","SECT":" ","MAREA":" ","LANE":" ","ALLEY":" ","HOUSE_NO":"２９３號九樓之２","E_COORD97":169596.07999999999,"N_COORD97":2545073.0499999998,"ADDRESS":"前鋒路２９３號九樓之２","OBJECTID":466901},"geometry":{"x":169596.08000000194,"y":2545073.0500000026}},{"attributes":{"ID":466927,"DIS_CODE":0,"TOWNNAME":"北區","LI":"中樓里","LIN":"5鄰","STREET":"前鋒路","SECT":" ","MAREA":" ","LANE":" ","ALLEY":" ","HOUSE_NO":"２９３號九樓之３","E_COORD97":169596.07999999999,"N_COORD97":2545073.0499999998,"ADDRESS":"前鋒路２９３號九樓之３","OBJECTID":466902},"geometry":{"x":169596.08000000194,"y":2545073.0500000026}},{"attributes":{"ID":466928,"DIS_CODE":0,"TOWNNAME":"北區","LI":"中樓里","LIN":"5鄰","STREET":"前鋒路","SECT":" ","MAREA":" ","LANE":" ","ALLEY":" ","HOUSE_NO":"２９３號二樓","E_COORD97":169596.07999999999,"N_COORD97":2545073.0499999998,"ADDRESS":"前鋒路２９３號二樓","OBJECTID":466903},"geometry":{"x":169596.08000000194,"y":2545073.0500000026}},{"attributes":{"ID":466929,"DIS_CODE":0,"TOWNNAME":"北區","LI":"中樓里","LIN":"5鄰","STREET":"前鋒路","SECT":" ","MAREA":" ","LANE":" ","ALLEY":" ","HOUSE_NO":"２９３號八樓之１","E_COORD97":169596.07999999999,"N_COORD97":2545073.0499999998,"ADDRESS":"前鋒路２９３號八樓之１","OBJECTID":466904},"geometry":{"x":169596.08000000194,"y":2545073.0500000026}},{"attributes":{"ID":466930,"DIS_CODE":0,"TOWNNAME":"北區","LI":"中樓里","LIN":"5鄰","STREET":"前鋒路","SECT":" ","MAREA":" ","LANE":" ","ALLEY":" ","HOUSE_NO":"２９３號八樓之２","E_COORD97":169596.07999999999,"N_COORD97":2545073.0499999998,"ADDRESS":"前鋒路２９３號八樓之２","OBJECTID":466905},"geometry":{"x":169596.08000000194,"y":2545073.0500000026}},{"attributes":{"ID":466931,"DIS_CODE":0,"TOWNNAME":"北區","LI":"中樓里","LIN":"5鄰","STREET":"前鋒路","SECT":" ","MAREA":" ","LANE":" ","ALLEY":" ","HOUSE_NO":"２９３號八樓之３","E_COORD97":169596.07999999999,"N_COORD97":2545073.0499999998,"ADDRESS":"前鋒路２９３號八樓之３","OBJECTID":466906},"geometry":{"x":169596.08000000194,"y":2545073.0500000026}},{"attributes":{"ID":466932,"DIS_CODE":0,"TOWNNAME":"北區","LI":"中樓里","LIN":"5鄰","STREET":"前鋒路","SECT":" ","MAREA":" ","LANE":" ","ALLEY":" ","HOUSE_NO":"２９３號八樓之４","E_COORD97":169596.07999999999,"N_COORD97":2545073.0499999998,"ADDRESS":"前鋒路２９３號八樓之４","OBJECTID":466907},"geometry":{"x":169596.08000000194,"y":2545073.0500000026}},{"attributes":{"ID":466933,"DIS_CODE":0,"TOWNNAME":"北區","LI":"中樓里","LIN":"5鄰","STREET":"前鋒路","SECT":" ","MAREA":" ","LANE":" ","ALLEY":" ","HOUSE_NO":"２９３號十一樓","E_COORD97":169596.07999999999,"N_COORD97":2545073.0499999998,"ADDRESS":"前鋒路２９３號十一樓","OBJECTID":466908},"geometry":{"x":169596.08000000194,"y":2545073.0500000026}},{"attributes":{"ID":466934,"DIS_CODE":0,"TOWNNAME":"北區","LI":"中樓里","LIN":"5鄰","STREET":"前鋒路","SECT":" ","MAREA":" ","LANE":" ","ALLEY":" ","HOUSE_NO":"２９３號十二樓","E_COORD97":169596.07999999999,"N_COORD97":2545073.0499999998,"ADDRESS":"前鋒路２９３號十二樓","OBJECTID":466909},"geometry":{"x":169596.08000000194,"y":2545073.0500000026}},{"attributes":{"ID":466935,"DIS_CODE":0,"TOWNNAME":"北區","LI":"中樓里","LIN":"5鄰","STREET":"前鋒路","SECT":" ","MAREA":" ","LANE":" ","ALLEY":" ","HOUSE_NO":"２９３號十樓之１","E_COORD97":169596.07999999999,"N_COORD97":2545073.0499999998,"ADDRESS":"前鋒路２９３號十樓之１","OBJECTID":466910},"geometry":{"x":169596.08000000194,"y":2545073.0500000026}},{"attributes":{"ID":466936,"DIS_CODE":0,"TOWNNAME":"北區","LI":"中樓里","LIN":"5鄰","STREET":"前鋒路","SECT":" ","MAREA":" ","LANE":" ","ALLEY":" ","HOUSE_NO":"２９３號十樓之２","E_COORD97":169596.07999999999,"N_COORD97":2545073.0499999998,"ADDRESS":"前鋒路２９３號十樓之２","OBJECTID":466911},"geometry":{"x":169596.08000000194,"y":2545073.0500000026}},{"attributes":{"ID":466937,"DIS_CODE":0,"TOWNNAME":"北區","LI":"中樓里","LIN":"5鄰","STREET":"前鋒路","SECT":" ","MAREA":" ","LANE":" ","ALLEY":" ","HOUSE_NO":"２９３號十樓之３","E_COORD97":169596.07999999999,"N_COORD97":2545073.0499999998,"ADDRESS":"前鋒路２９３號十樓之３","OBJECTID":466912},"geometry":{"x":169596.08000000194,"y":2545073.0500000026}},{"attributes":{"ID":466938,"DIS_CODE":0,"TOWNNAME":"北區","LI":"中樓里","LIN":"5鄰","STREET":"前鋒路","SECT":" ","MAREA":" ","LANE":" ","ALLEY":" ","HOUSE_NO":"２９３號十樓之４","E_COORD97":169596.07999999999,"N_COORD97":2545073.0499999998,"ADDRESS":"前鋒路２９３號十樓之４","OBJECTID":466913},"geometry":{"x":169596.08000000194,"y":2545073.0500000026}},{"attributes":{"ID":466939,"DIS_CODE":0,"TOWNNAME":"北區","LI":"中樓里","LIN":"5鄰","STREET":"前鋒路","SECT":" ","MAREA":" ","LANE":" ","ALLEY":" ","HOUSE_NO":"２９３號十樓之５","E_COORD97":169596.07999999999,"N_COORD97":2545073.0499999998,"ADDRESS":"前鋒路２９３號十樓之５","OBJECTID":466914},"geometry":{"x":169596.08000000194,"y":2545073.0500000026}},{"attributes":{"ID":466940,"DIS_CODE":0,"TOWNNAME":"北區","LI":"中樓里","LIN":"5鄰","STREET":"前鋒路","SECT":" ","MAREA":" ","LANE":" ","ALLEY":" ","HOUSE_NO":"２９３號三樓","E_COORD97":169596.07999999999,"N_COORD97":2545073.0499999998,"ADDRESS":"前鋒路２９３號三樓","OBJECTID":466915},"geometry":{"x":169596.08000000194,"y":2545073.0500000026}},{"attributes":{"ID":466941,"DIS_CODE":0,"TOWNNAME":"北區","LI":"中樓里","LIN":"5鄰","STREET":"前鋒路","SECT":" ","MAREA":" ","LANE":" ","ALLEY":" ","HOUSE_NO":"２９３號五樓之１","E_COORD97":169596.07999999999,"N_COORD97":2545073.0499999998,"ADDRESS":"前鋒路２９３號五樓之１","OBJECTID":466916},"geometry":{"x":169596.08000000194,"y":2545073.0500000026}},{"attributes":{"ID":466942,"DIS_CODE":0,"TOWNNAME":"北區","LI":"中樓里","LIN":"5鄰","STREET":"前鋒路","SECT":" ","MAREA":" ","LANE":" ","ALLEY":" ","HOUSE_NO":"２９３號五樓之２","E_COORD97":169596.07999999999,"N_COORD97":2545073.0499999998,"ADDRESS":"前鋒路２９３號五樓之２","OBJECTID":466917},"geometry":{"x":169596.08000000194,"y":2545073.0500000026}},{"attributes":{"ID":466943,"DIS_CODE":0,"TOWNNAME":"北區","LI":"中樓里","LIN":"5鄰","STREET":"前鋒路","SECT":" ","MAREA":" ","LANE":" ","ALLEY":" ","HOUSE_NO":"２９３號五樓之３","E_COORD97":169596.07999999999,"N_COORD97":2545073.0499999998,"ADDRESS":"前鋒路２９３號五樓之３","OBJECTID":466918},"geometry":{"x":169596.08000000194,"y":2545073.0500000026}},{"attributes":{"ID":466944,"DIS_CODE":0,"TOWNNAME":"北區","LI":"中樓里","LIN":"5鄰","STREET":"前鋒路","SECT":" ","MAREA":" ","LANE":" ","ALLEY":" ","HOUSE_NO":"２９３號五樓之４","E_COORD97":169596.07999999999,"N_COORD97":2545073.0499999998,"ADDRESS":"前鋒路２９３號五樓之４","OBJECTID":466919},"geometry":{"x":169596.08000000194,"y":2545073.0500000026}},{"attributes":{"ID":466945,"DIS_CODE":0,"TOWNNAME":"北區","LI":"中樓里","LIN":"5鄰","STREET":"前鋒路","SECT":" ","MAREA":" ","LANE":" ","ALLEY":" ","HOUSE_NO":"２９３號五樓之５","E_COORD97":169596.07999999999,"N_COORD97":2545073.0499999998,"ADDRESS":"前鋒路２９３號五樓之５","OBJECTID":466920},"geometry":{"x":169596.08000000194,"y":2545073.0500000026}},{"attributes":{"ID":466946,"DIS_CODE":0,"TOWNNAME":"北區","LI":"中樓里","LIN":"5鄰","STREET":"前鋒路","SECT":" ","MAREA":" ","LANE":" ","ALLEY":" ","HOUSE_NO":"２９３號六樓","E_COORD97":169596.07999999999,"N_COORD97":2545073.0499999998,"ADDRESS":"前鋒路２９３號六樓","OBJECTID":466921},"geometry":{"x":169596.08000000194,"y":2545073.0500000026}},{"attributes":{"ID":466947,"DIS_CODE":0,"TOWNNAME":"北區","LI":"中樓里","LIN":"5鄰","STREET":"前鋒路","SECT":" ","MAREA":" ","LANE":" ","ALLEY":" ","HOUSE_NO":"２９３號四樓","E_COORD97":169596.07999999999,"N_COORD97":2545073.0499999998,"ADDRESS":"前鋒路２９３號四樓","OBJECTID":466922},"geometry":{"x":169596.08000000194,"y":2545073.0500000026}},{"attributes":{"ID":466948,"DIS_CODE":0,"TOWNNAME":"北區","LI":"正風里","LIN":"5鄰","STREET":"公園路","SECT":" ","MAREA":" ","LANE":" ","ALLEY":" ","HOUSE_NO":"９４８號之２二樓","E_COORD97":169453.60000000001,"N_COORD97":2546222.7999999998,"ADDRESS":"公園路９４８號之２二樓","OBJECTID":466923},"geometry":{"x":169453.60000000056,"y":2546222.8000000007}},{"attributes":{"ID":466949,"DIS_CODE":0,"TOWNNAME":"北區","LI":"正風里","LIN":"5鄰","STREET":"公園路","SECT":" ","MAREA":" ","LANE":" ","ALLEY":" ","HOUSE_NO":"９４８號之２五樓","E_COORD97":169453.60000000001,"N_COORD97":2546222.7999999998,"ADDRESS":"公園路９４８號之２五樓","OBJECTID":466924},"geometry":{"x":169453.60000000056,"y":2546222.8000000007}},{"attributes":{"ID":466950,"DIS_CODE":0,"TOWNNAME":"北區","LI":"正風里","LIN":"5鄰","STREET":"公園路","SECT":" ","MAREA":" ","LANE":" ","ALLEY":" ","HOUSE_NO":"９４８號之２四樓","E_COORD97":169453.60000000001,"N_COORD97":2546222.7999999998,"ADDRESS":"公園路９４８號之２四樓","OBJECTID":466925},"geometry":{"x":169453.60000000056,"y":2546222.8000000007}},{"attributes":{"ID":466951,"DIS_CODE":0,"TOWNNAME":"北區","LI":"正風里","LIN":"5鄰","STREET":"公園路","SECT":" ","MAREA":" ","LANE":" ","ALLEY":" ","HOUSE_NO":"９４８號之３二樓","E_COORD97":169461.47,"N_COORD97":2546217.9300000002,"ADDRESS":"公園路９４８號之３二樓","OBJECTID":466926},"geometry":{"x":169461.47000000067,"y":2546217.9300000034}},{"attributes":{"ID":466952,"DIS_CODE":0,"TOWNNAME":"北區","LI":"正風里","LIN":"5鄰","STREET":"公園路","SECT":" ","MAREA":" ","LANE":" ","ALLEY":" ","HOUSE_NO":"９４８號之３三樓","E_COORD97":169461.47,"N_COORD97":2546217.9300000002,"ADDRESS":"公園路９４８號之３三樓","OBJECTID":466927},"geometry":{"x":169461.47000000067,"y":2546217.9300000034}},{"attributes":{"ID":466953,"DIS_CODE":0,"TOWNNAME":"北區","LI":"正風里","LIN":"5鄰","STREET":"公園路","SECT":" ","MAREA":" ","LANE":" ","ALLEY":" ","HOUSE_NO":"９４８號之３五樓","E_COORD97":169461.47,"N_COORD97":2546217.9300000002,"ADDRESS":"公園路９４８號之３五樓","OBJECTID":466928},"geometry":{"x":169461.47000000067,"y":2546217.9300000034}},{"attributes":{"ID":466954,"DIS_CODE":0,"TOWNNAME":"北區","LI":"正風里","LIN":"5鄰","STREET":"公園路","SECT":" ","MAREA":" ","LANE":" ","ALLEY":" ","HOUSE_NO":"９４８號之３四樓","E_COORD97":169461.47,"N_COORD97":2546217.9300000002,"ADDRESS":"公園路９４８號之３四樓","OBJECTID":466929},"geometry":{"x":169461.47000000067,"y":2546217.9300000034}},{"attributes":{"ID":466955,"DIS_CODE":0,"TOWNNAME":"北區","LI":"正風里","LIN":"5鄰","STREET":"公園路","SECT":" ","MAREA":" ","LANE":" ","ALLEY":" ","HOUSE_NO":"９４８號之４二樓","E_COORD97":169470.95000000001,"N_COORD97":2546215.6699999999,"ADDRESS":"公園路９４８號之４二樓","OBJECTID":466930},"geometry":{"x":169470.95000000019,"y":2546215.6699999999}},{"attributes":{"ID":466956,"DIS_CODE":0,"TOWNNAME":"北區","LI":"正風里","LIN":"5鄰","STREET":"公園路","SECT":" ","MAREA":" ","LANE":" ","ALLEY":" ","HOUSE_NO":"９４８號之４三樓","E_COORD97":169470.95000000001,"N_COORD97":2546215.6699999999,"ADDRESS":"公園路９４８號之４三樓","OBJECTID":466931},"geometry":{"x":169470.95000000019,"y":2546215.6699999999}},{"attributes":{"ID":466957,"DIS_CODE":0,"TOWNNAME":"北區","LI":"正風里","LIN":"5鄰","STREET":"公園路","SECT":" ","MAREA":" ","LANE":" ","ALLEY":" ","HOUSE_NO":"９４８號之４五樓","E_COORD97":169470.95000000001,"N_COORD97":2546215.6699999999,"ADDRESS":"公園路９４８號之４五樓","OBJECTID":466932},"geometry":{"x":169470.95000000019,"y":2546215.6699999999}},{"attributes":{"ID":466958,"DIS_CODE":0,"TOWNNAME":"北區","LI":"正風里","LIN":"5鄰","STREET":"公園路","SECT":" ","MAREA":" ","LANE":" ","ALLEY":" ","HOUSE_NO":"９４８號之４四樓","E_COORD97":169470.95000000001,"N_COORD97":2546215.6699999999,"ADDRESS":"公園路９４８號之４四樓","OBJECTID":466933},"geometry":{"x":169470.95000000019,"y":2546215.6699999999}},{"attributes":{"ID":466959,"DIS_CODE":0,"TOWNNAME":"北區","LI":"正風里","LIN":"5鄰","STREET":"公園路","SECT":" ","MAREA":" ","LANE":" ","ALLEY":" ","HOUSE_NO":"９４８號之５二樓","E_COORD97":169474.67999999999,"N_COORD97":2546224.9399999999,"ADDRESS":"公園路９４８號之５二樓","OBJECTID":466934},"geometry":{"x":169474.68000000156,"y":2546224.9400000013}},{"attributes":{"ID":466960,"DIS_CODE":0,"TOWNNAME":"北區","LI":"正風里","LIN":"5鄰","STREET":"公園路","SECT":" ","MAREA":" ","LANE":" ","ALLEY":" ","HOUSE_NO":"９４８號之５三樓","E_COORD97":169474.67999999999,"N_COORD97":2546224.9399999999,"ADDRESS":"公園路９４８號之５三樓","OBJECTID":466935},"geometry":{"x":169474.68000000156,"y":2546224.9400000013}},{"attributes":{"ID":466961,"DIS_CODE":0,"TOWNNAME":"北區","LI":"正風里","LIN":"5鄰","STREET":"公園路","SECT":" ","MAREA":" ","LANE":" ","ALLEY":" ","HOUSE_NO":"９４８號之５五樓","E_COORD97":169474.67999999999,"N_COORD97":2546224.9399999999,"ADDRESS":"公園路９４８號之５五樓","OBJECTID":466936},"geometry":{"x":169474.68000000156,"y":2546224.9400000013}},{"attributes":{"ID":466962,"DIS_CODE":0,"TOWNNAME":"北區","LI":"正風里","LIN":"5鄰","STREET":"公園路","SECT":" ","MAREA":" ","LANE":" ","ALLEY":" ","HOUSE_NO":"９４８號之５四樓","E_COORD97":169474.67999999999,"N_COORD97":2546224.9399999999,"ADDRESS":"公園路９４８號之５四樓","OBJECTID":466937},"geometry":{"x":169474.68000000156,"y":2546224.9400000013}},{"attributes":{"ID":466963,"DIS_CODE":0,"TOWNNAME":"北區","LI":"正風里","LIN":"5鄰","STREET":"公園路","SECT":" ","MAREA":" ","LANE":" ","ALLEY":" ","HOUSE_NO":"９４８號之６二樓","E_COORD97":169464.54999999999,"N_COORD97":2546228.8300000001,"ADDRESS":"公園路９４８號之６二樓","OBJECTID":466938},"geometry":{"x":169464.55000000075,"y":2546228.8300000001}},{"attributes":{"ID":466964,"DIS_CODE":0,"TOWNNAME":"北區","LI":"正風里","LIN":"5鄰","STREET":"公園路","SECT":" ","MAREA":" ","LANE":" ","ALLEY":" ","HOUSE_NO":"９４８號之６三樓","E_COORD97":169464.54999999999,"N_COORD97":2546228.8300000001,"ADDRESS":"公園路９４８號之６三樓","OBJECTID":466939},"geometry":{"x":169464.55000000075,"y":2546228.8300000001}},{"attributes":{"ID":466965,"DIS_CODE":0,"TOWNNAME":"北區","LI":"正風里","LIN":"5鄰","STREET":"公園路","SECT":" ","MAREA":" ","LANE":" ","ALLEY":" ","HOUSE_NO":"９４８號之６四樓","E_COORD97":169464.54999999999,"N_COORD97":2546228.8300000001,"ADDRESS":"公園路９４８號之６四樓","OBJECTID":466940},"geometry":{"x":169464.55000000075,"y":2546228.8300000001}},{"attributes":{"ID":466966,"DIS_CODE":0,"TOWNNAME":"北區","LI":"正風里","LIN":"5鄰","STREET":"公園路","SECT":" ","MAREA":" ","LANE":" ","ALLEY":" ","HOUSE_NO":"９４８號之７二樓","E_COORD97":169453.67999999999,"N_COORD97":2546231.1000000001,"ADDRESS":"公園路９４８號之７二樓","OBJECTID":466941},"geometry":{"x":169453.6799999997,"y":2546231.1000000015}},{"attributes":{"ID":466967,"DIS_CODE":0,"TOWNNAME":"北區","LI":"正風里","LIN":"5鄰","STREET":"公園路","SECT":" ","MAREA":" ","LANE":" ","ALLEY":" ","HOUSE_NO":"９４８號之７三樓","E_COORD97":169453.67999999999,"N_COORD97":2546231.1000000001,"ADDRESS":"公園路９４８號之７三樓","OBJECTID":466942},"geometry":{"x":169453.6799999997,"y":2546231.1000000015}},{"attributes":{"ID":466968,"DIS_CODE":0,"TOWNNAME":"北區","LI":"正風里","LIN":"5鄰","STREET":"公園路","SECT":" ","MAREA":" ","LANE":" ","ALLEY":" ","HOUSE_NO":"９４８號之７四樓","E_COORD97":169453.67999999999,"N_COORD97":2546231.1000000001,"ADDRESS":"公園路９４８號之７四樓","OBJECTID":466943},"geometry":{"x":169453.6799999997,"y":2546231.1000000015}},{"attributes":{"ID":466969,"DIS_CODE":0,"TOWNNAME":"佳里區","LI":"東寧里","LIN":"5鄰","STREET":"和平街","SECT":" ","MAREA":" ","LANE":" ","ALLEY":" ","HOUSE_NO":"１１３號","E_COORD97":165745.67999999999,"N_COORD97":2562502.1899999999,"ADDRESS":"和平街１１３號","OBJECTID":466944},"geometry":{"x":165745.68000000063,"y":2562502.1899999995}},{"attributes":{"ID":466970,"DIS_CODE":0,"TOWNNAME":"北區","LI":"正風里","LIN":"5鄰","STREET":"公園路","SECT":" ","MAREA":" ","LANE":" ","ALLEY":" ","HOUSE_NO":"９４８號之８二樓","E_COORD97":169444.5,"N_COORD97":2546234.2400000002,"ADDRESS":"公園路９４８號之８二樓","OBJECTID":466945},"geometry":{"x":169444.50000000093,"y":2546234.2400000021}},{"attributes":{"ID":466971,"DIS_CODE":0,"TOWNNAME":"北區","LI":"正風里","LIN":"5鄰","STREET":"公園路","SECT":" ","MAREA":" ","LANE":" ","ALLEY":" ","HOUSE_NO":"９４８號之８三樓","E_COORD97":169444.5,"N_COORD97":2546234.2400000002,"ADDRESS":"公園路９４８號之８三樓","OBJECTID":466946},"geometry":{"x":169444.50000000093,"y":2546234.2400000021}},{"attributes":{"ID":466972,"DIS_CODE":0,"TOWNNAME":"北區","LI":"正風里","LIN":"5鄰","STREET":"公園路","SECT":" ","MAREA":" ","LANE":" ","ALLEY":" ","HOUSE_NO":"９４８號之８四樓","E_COORD97":169444.5,"N_COORD97":2546234.2400000002,"ADDRESS":"公園路９４８號之８四樓","OBJECTID":466947},"geometry":{"x":169444.50000000093,"y":2546234.2400000021}},{"attributes":{"ID":466973,"DIS_CODE":0,"TOWNNAME":"北區","LI":"正風里","LIN":"5鄰","STREET":"公園路","SECT":" ","MAREA":" ","LANE":" ","ALLEY":" ","HOUSE_NO":"９４８號之６五樓","E_COORD97":169464.54999999999,"N_COORD97":2546228.8300000001,"ADDRESS":"公園路９４８號之６五樓","OBJECTID":466948},"geometry":{"x":169464.55000000075,"y":2546228.8300000001}},{"attributes":{"ID":466974,"DIS_CODE":0,"TOWNNAME":"北區","LI":"正風里","LIN":"5鄰","STREET":"公園路","SECT":" ","MAREA":" ","LANE":" ","ALLEY":" ","HOUSE_NO":"９４８號之２三樓","E_COORD97":169453.60000000001,"N_COORD97":2546222.7999999998,"ADDRESS":"公園路９４８號之２三樓","OBJECTID":466949},"geometry":{"x":169453.60000000056,"y":2546222.8000000007}},{"attributes":{"ID":466975,"DIS_CODE":0,"TOWNNAME":"北區","LI":"正風里","LIN":"5鄰","STREET":"公園路","SECT":" ","MAREA":" ","LANE":" ","ALLEY":" ","HOUSE_NO":"９４８號之７五樓","E_COORD97":169453.67999999999,"N_COORD97":2546231.1000000001,"ADDRESS":"公園路９４８號之７五樓","OBJECTID":466950},"geometry":{"x":169453.6799999997,"y":2546231.1000000015}},{"attributes":{"ID":466976,"DIS_CODE":0,"TOWNNAME":"新營區","LI":"好平里","LIN":"5鄰","STREET":"新進路","SECT":"二段","MAREA":" ","LANE":" ","ALLEY":" ","HOUSE_NO":"１０９號四樓","E_COORD97":179427.64999999999,"N_COORD97":2577699.4700000002,"ADDRESS":"新進路二段１０９號四樓","OBJECTID":466951},"geometry":{"x":179427.65000000037,"y":2577699.4700000025}},{"attributes":{"ID":466977,"DIS_CODE":0,"TOWNNAME":"新營區","LI":"民權里","LIN":"5鄰","STREET":"中正路","SECT":" ","MAREA":" ","LANE":" ","ALLEY":" ","HOUSE_NO":"１５號六樓","E_COORD97":180027.76000000001,"N_COORD97":2578540.4900000002,"ADDRESS":"中正路１５號六樓","OBJECTID":466952},"geometry":{"x":180027.75999999978,"y":2578540.4900000002}},{"attributes":{"ID":466978,"DIS_CODE":0,"TOWNNAME":"安平區","LI":"怡平里","LIN":"5鄰","STREET":"慶平路","SECT":" ","MAREA":" ","LANE":" ","ALLEY":" ","HOUSE_NO":"３８８號二樓之１","E_COORD97":165602.04999999999,"N_COORD97":2544186.3900000001,"ADDRESS":"慶平路３８８號二樓之１","OBJECTID":466953},"geometry":{"x":165602.04999999888,"y":2544186.3900000025}},{"attributes":{"ID":466979,"DIS_CODE":0,"TOWNNAME":"安平區","LI":"怡平里","LIN":"5鄰","STREET":"慶平路","SECT":" ","MAREA":" ","LANE":" ","ALLEY":" ","HOUSE_NO":"３８８號二樓之２","E_COORD97":165602.04999999999,"N_COORD97":2544186.3900000001,"ADDRESS":"慶平路３８８號二樓之２","OBJECTID":466954},"geometry":{"x":165602.04999999888,"y":2544186.3900000025}},{"attributes":{"ID":466980,"DIS_CODE":0,"TOWNNAME":"安平區","LI":"怡平里","LIN":"5鄰","STREET":"慶平路","SECT":" ","MAREA":" ","LANE":" ","ALLEY":" ","HOUSE_NO":"３８８號三樓之１","E_COORD97":165602.04999999999,"N_COORD97":2544186.3900000001,"ADDRESS":"慶平路３８８號三樓之１","OBJECTID":466955},"geometry":{"x":165602.04999999888,"y":2544186.3900000025}},{"attributes":{"ID":466981,"DIS_CODE":0,"TOWNNAME":"安平區","LI":"怡平里","LIN":"5鄰","STREET":"慶平路","SECT":" ","MAREA":" ","LANE":" ","ALLEY":" ","HOUSE_NO":"３８８號三樓之２","E_COORD97":165602.04999999999,"N_COORD97":2544186.3900000001,"ADDRESS":"慶平路３８８號三樓之２","OBJECTID":466956},"geometry":{"x":165602.04999999888,"y":2544186.3900000025}},{"attributes":{"ID":466982,"DIS_CODE":0,"TOWNNAME":"安平區","LI":"怡平里","LIN":"5鄰","STREET":"慶平路","SECT":" ","MAREA":" ","LANE":" ","ALLEY":" ","HOUSE_NO":"３８８號三樓之３","E_COORD97":165602.04999999999,"N_COORD97":2544186.3900000001,"ADDRESS":"慶平路３８８號三樓之３","OBJECTID":466957},"geometry":{"x":165602.04999999888,"y":2544186.3900000025}},{"attributes":{"ID":466983,"DIS_CODE":0,"TOWNNAME":"安平區","LI":"怡平里","LIN":"5鄰","STREET":"慶平路","SECT":" ","MAREA":" ","LANE":" ","ALLEY":" ","HOUSE_NO":"３８８號三樓之４","E_COORD97":165602.04999999999,"N_COORD97":2544186.3900000001,"ADDRESS":"慶平路３８８號三樓之４","OBJECTID":466958},"geometry":{"x":165602.04999999888,"y":2544186.3900000025}},{"attributes":{"ID":466984,"DIS_CODE":0,"TOWNNAME":"安平區","LI":"怡平里","LIN":"5鄰","STREET":"慶平路","SECT":" ","MAREA":" ","LANE":" ","ALLEY":" ","HOUSE_NO":"３８８號三樓之５","E_COORD97":165602.04999999999,"N_COORD97":2544186.3900000001,"ADDRESS":"慶平路３８８號三樓之５","OBJECTID":466959},"geometry":{"x":165602.04999999888,"y":2544186.3900000025}},{"attributes":{"ID":466985,"DIS_CODE":0,"TOWNNAME":"安平區","LI":"怡平里","LIN":"5鄰","STREET":"慶平路","SECT":" ","MAREA":" ","LANE":" ","ALLEY":" ","HOUSE_NO":"３８８號三樓之６","E_COORD97":165602.04999999999,"N_COORD97":2544186.3900000001,"ADDRESS":"慶平路３８８號三樓之６","OBJECTID":466960},"geometry":{"x":165602.04999999888,"y":2544186.3900000025}},{"attributes":{"ID":466986,"DIS_CODE":0,"TOWNNAME":"安平區","LI":"怡平里","LIN":"5鄰","STREET":"慶平路","SECT":" ","MAREA":" ","LANE":" ","ALLEY":" ","HOUSE_NO":"３８８號三樓之７","E_COORD97":165602.04999999999,"N_COORD97":2544186.3900000001,"ADDRESS":"慶平路３８８號三樓之７","OBJECTID":466961},"geometry":{"x":165602.04999999888,"y":2544186.3900000025}},{"attributes":{"ID":466987,"DIS_CODE":0,"TOWNNAME":"安平區","LI":"怡平里","LIN":"5鄰","STREET":"慶平路","SECT":" ","MAREA":" ","LANE":" ","ALLEY":" ","HOUSE_NO":"３８８號三樓之８","E_COORD97":165602.04999999999,"N_COORD97":2544186.3900000001,"ADDRESS":"慶平路３８８號三樓之８","OBJECTID":466962},"geometry":{"x":165602.04999999888,"y":2544186.3900000025}},{"attributes":{"ID":466988,"DIS_CODE":0,"TOWNNAME":"安平區","LI":"怡平里","LIN":"5鄰","STREET":"慶平路","SECT":" ","MAREA":" ","LANE":" ","ALLEY":" ","HOUSE_NO":"３８８號三樓之９","E_COORD97":165602.04999999999,"N_COORD97":2544186.3900000001,"ADDRESS":"慶平路３８８號三樓之９","OBJECTID":466963},"geometry":{"x":165602.04999999888,"y":2544186.3900000025}},{"attributes":{"ID":466989,"DIS_CODE":0,"TOWNNAME":"安平區","LI":"怡平里","LIN":"5鄰","STREET":"慶平路","SECT":" ","MAREA":" ","LANE":" ","ALLEY":" ","HOUSE_NO":"３８８號三樓之１０","E_COORD97":165602.04999999999,"N_COORD97":2544186.3900000001,"ADDRESS":"慶平路３８８號三樓之１０","OBJECTID":466964},"geometry":{"x":165602.04999999888,"y":2544186.3900000025}},{"attributes":{"ID":466990,"DIS_CODE":0,"TOWNNAME":"安平區","LI":"怡平里","LIN":"5鄰","STREET":"慶平路","SECT":" ","MAREA":" ","LANE":" ","ALLEY":" ","HOUSE_NO":"３８８號三樓之１１","E_COORD97":165602.04999999999,"N_COORD97":2544186.3900000001,"ADDRESS":"慶平路３８８號三樓之１１","OBJECTID":466965},"geometry":{"x":165602.04999999888,"y":2544186.3900000025}},{"attributes":{"ID":466991,"DIS_CODE":0,"TOWNNAME":"安平區","LI":"怡平里","LIN":"5鄰","STREET":"慶平路","SECT":" ","MAREA":" ","LANE":" ","ALLEY":" ","HOUSE_NO":"３８８號三樓之１２","E_COORD97":165602.04999999999,"N_COORD97":2544186.3900000001,"ADDRESS":"慶平路３８８號三樓之１２","OBJECTID":466966},"geometry":{"x":165602.04999999888,"y":2544186.3900000025}},{"attributes":{"ID":466992,"DIS_CODE":0,"TOWNNAME":"安平區","LI":"怡平里","LIN":"5鄰","STREET":"慶平路","SECT":" ","MAREA":" ","LANE":" ","ALLEY":" ","HOUSE_NO":"３８８號三樓之１３","E_COORD97":165602.04999999999,"N_COORD97":2544186.3900000001,"ADDRESS":"慶平路３８８號三樓之１３","OBJECTID":466967},"geometry":{"x":165602.04999999888,"y":2544186.3900000025}},{"attributes":{"ID":466993,"DIS_CODE":0,"TOWNNAME":"安平區","LI":"怡平里","LIN":"5鄰","STREET":"慶平路","SECT":" ","MAREA":" ","LANE":" ","ALLEY":" ","HOUSE_NO":"３８８號三樓之１４","E_COORD97":165602.04999999999,"N_COORD97":2544186.3900000001,"ADDRESS":"慶平路３８８號三樓之１４","OBJECTID":466968},"geometry":{"x":165602.04999999888,"y":2544186.3900000025}},{"attributes":{"ID":466994,"DIS_CODE":0,"TOWNNAME":"安平區","LI":"怡平里","LIN":"5鄰","STREET":"慶平路","SECT":" ","MAREA":" ","LANE":" ","ALLEY":" ","HOUSE_NO":"３８８號四樓之１","E_COORD97":165602.04999999999,"N_COORD97":2544186.3900000001,"ADDRESS":"慶平路３８８號四樓之１","OBJECTID":466969},"geometry":{"x":165602.04999999888,"y":2544186.3900000025}},{"attributes":{"ID":466995,"DIS_CODE":0,"TOWNNAME":"安平區","LI":"怡平里","LIN":"5鄰","STREET":"慶平路","SECT":" ","MAREA":" ","LANE":" ","ALLEY":" ","HOUSE_NO":"３８８號四樓之２","E_COORD97":165602.04999999999,"N_COORD97":2544186.3900000001,"ADDRESS":"慶平路３８８號四樓之２","OBJECTID":466970},"geometry":{"x":165602.04999999888,"y":2544186.3900000025}},{"attributes":{"ID":466996,"DIS_CODE":0,"TOWNNAME":"安平區","LI":"怡平里","LIN":"5鄰","STREET":"慶平路","SECT":" ","MAREA":" ","LANE":" ","ALLEY":" ","HOUSE_NO":"３８８號四樓之３","E_COORD97":165602.04999999999,"N_COORD97":2544186.3900000001,"ADDRESS":"慶平路３８８號四樓之３","OBJECTID":466971},"geometry":{"x":165602.04999999888,"y":2544186.3900000025}},{"attributes":{"ID":466997,"DIS_CODE":0,"TOWNNAME":"安平區","LI":"怡平里","LIN":"5鄰","STREET":"慶平路","SECT":" ","MAREA":" ","LANE":" ","ALLEY":" ","HOUSE_NO":"３８８號四樓之４","E_COORD97":165602.04999999999,"N_COORD97":2544186.3900000001,"ADDRESS":"慶平路３８８號四樓之４","OBJECTID":466972},"geometry":{"x":165602.04999999888,"y":2544186.3900000025}},{"attributes":{"ID":466998,"DIS_CODE":0,"TOWNNAME":"安平區","LI":"怡平里","LIN":"5鄰","STREET":"慶平路","SECT":" ","MAREA":" ","LANE":" ","ALLEY":" ","HOUSE_NO":"３８８號四樓之５","E_COORD97":165602.04999999999,"N_COORD97":2544186.3900000001,"ADDRESS":"慶平路３８８號四樓之５","OBJECTID":466973},"geometry":{"x":165602.04999999888,"y":2544186.3900000025}},{"attributes":{"ID":466999,"DIS_CODE":0,"TOWNNAME":"安平區","LI":"怡平里","LIN":"5鄰","STREET":"慶平路","SECT":" ","MAREA":" ","LANE":" ","ALLEY":" ","HOUSE_NO":"３８８號四樓之６","E_COORD97":165602.04999999999,"N_COORD97":2544186.3900000001,"ADDRESS":"慶平路３８８號四樓之６","OBJECTID":466974},"geometry":{"x":165602.04999999888,"y":2544186.3900000025}},{"attributes":{"ID":467000,"DIS_CODE":0,"TOWNNAME":"安平區","LI":"怡平里","LIN":"5鄰","STREET":"慶平路","SECT":" ","MAREA":" ","LANE":" ","ALLEY":" ","HOUSE_NO":"３８８號四樓之７","E_COORD97":165602.04999999999,"N_COORD97":2544186.3900000001,"ADDRESS":"慶平路３８８號四樓之７","OBJECTID":466975},"geometry":{"x":165602.04999999888,"y":2544186.3900000025}},{"attributes":{"ID":467001,"DIS_CODE":0,"TOWNNAME":"安平區","LI":"怡平里","LIN":"5鄰","STREET":"慶平路","SECT":" ","MAREA":" ","LANE":" ","ALLEY":" ","HOUSE_NO":"３８８號四樓之８","E_COORD97":165602.04999999999,"N_COORD97":2544186.3900000001,"ADDRESS":"慶平路３８８號四樓之８","OBJECTID":466976},"geometry":{"x":165602.04999999888,"y":2544186.3900000025}},{"attributes":{"ID":467002,"DIS_CODE":0,"TOWNNAME":"安平區","LI":"怡平里","LIN":"5鄰","STREET":"慶平路","SECT":" ","MAREA":" ","LANE":" ","ALLEY":" ","HOUSE_NO":"３８８號四樓之９","E_COORD97":165602.04999999999,"N_COORD97":2544186.3900000001,"ADDRESS":"慶平路３８８號四樓之９","OBJECTID":466977},"geometry":{"x":165602.04999999888,"y":2544186.3900000025}},{"attributes":{"ID":467003,"DIS_CODE":0,"TOWNNAME":"安平區","LI":"怡平里","LIN":"5鄰","STREET":"慶平路","SECT":" ","MAREA":" ","LANE":" ","ALLEY":" ","HOUSE_NO":"３８８號四樓之１０","E_COORD97":165602.04999999999,"N_COORD97":2544186.3900000001,"ADDRESS":"慶平路３８８號四樓之１０","OBJECTID":466978},"geometry":{"x":165602.04999999888,"y":2544186.3900000025}},{"attributes":{"ID":467004,"DIS_CODE":0,"TOWNNAME":"安平區","LI":"怡平里","LIN":"5鄰","STREET":"慶平路","SECT":" ","MAREA":" ","LANE":" ","ALLEY":" ","HOUSE_NO":"３８８號四樓之１１","E_COORD97":165602.04999999999,"N_COORD97":2544186.3900000001,"ADDRESS":"慶平路３８８號四樓之１１","OBJECTID":466979},"geometry":{"x":165602.04999999888,"y":2544186.3900000025}},{"attributes":{"ID":467005,"DIS_CODE":0,"TOWNNAME":"安平區","LI":"怡平里","LIN":"5鄰","STREET":"慶平路","SECT":" ","MAREA":" ","LANE":" ","ALLEY":" ","HOUSE_NO":"３８８號四樓之１２","E_COORD97":165602.04999999999,"N_COORD97":2544186.3900000001,"ADDRESS":"慶平路３８８號四樓之１２","OBJECTID":466980},"geometry":{"x":165602.04999999888,"y":2544186.3900000025}},{"attributes":{"ID":467006,"DIS_CODE":0,"TOWNNAME":"安平區","LI":"怡平里","LIN":"5鄰","STREET":"慶平路","SECT":" ","MAREA":" ","LANE":" ","ALLEY":" ","HOUSE_NO":"３８８號四樓之１３","E_COORD97":165602.04999999999,"N_COORD97":2544186.3900000001,"ADDRESS":"慶平路３８８號四樓之１３","OBJECTID":466981},"geometry":{"x":165602.04999999888,"y":2544186.3900000025}},{"attributes":{"ID":467007,"DIS_CODE":0,"TOWNNAME":"安平區","LI":"怡平里","LIN":"5鄰","STREET":"慶平路","SECT":" ","MAREA":" ","LANE":" ","ALLEY":" ","HOUSE_NO":"３８８號四樓之１４","E_COORD97":165602.04999999999,"N_COORD97":2544186.3900000001,"ADDRESS":"慶平路３８８號四樓之１４","OBJECTID":466982},"geometry":{"x":165602.04999999888,"y":2544186.3900000025}},{"attributes":{"ID":467008,"DIS_CODE":0,"TOWNNAME":"安平區","LI":"怡平里","LIN":"5鄰","STREET":"慶平路","SECT":" ","MAREA":" ","LANE":" ","ALLEY":" ","HOUSE_NO":"３８８號五樓之１","E_COORD97":165602.04999999999,"N_COORD97":2544186.3900000001,"ADDRESS":"慶平路３８８號五樓之１","OBJECTID":466983},"geometry":{"x":165602.04999999888,"y":2544186.3900000025}},{"attributes":{"ID":467009,"DIS_CODE":0,"TOWNNAME":"安平區","LI":"怡平里","LIN":"5鄰","STREET":"慶平路","SECT":" ","MAREA":" ","LANE":" ","ALLEY":" ","HOUSE_NO":"３８８號五樓之２","E_COORD97":165602.04999999999,"N_COORD97":2544186.3900000001,"ADDRESS":"慶平路３８８號五樓之２","OBJECTID":466984},"geometry":{"x":165602.04999999888,"y":2544186.3900000025}},{"attributes":{"ID":467010,"DIS_CODE":0,"TOWNNAME":"安平區","LI":"怡平里","LIN":"5鄰","STREET":"慶平路","SECT":" ","MAREA":" ","LANE":" ","ALLEY":" ","HOUSE_NO":"３８８號五樓之３","E_COORD97":165602.04999999999,"N_COORD97":2544186.3900000001,"ADDRESS":"慶平路３８８號五樓之３","OBJECTID":466985},"geometry":{"x":165602.04999999888,"y":2544186.3900000025}},{"attributes":{"ID":467011,"DIS_CODE":0,"TOWNNAME":"安平區","LI":"怡平里","LIN":"5鄰","STREET":"慶平路","SECT":" ","MAREA":" ","LANE":" ","ALLEY":" ","HOUSE_NO":"３８８號五樓之４","E_COORD97":165602.04999999999,"N_COORD97":2544186.3900000001,"ADDRESS":"慶平路３８８號五樓之４","OBJECTID":466986},"geometry":{"x":165602.04999999888,"y":2544186.3900000025}},{"attributes":{"ID":467012,"DIS_CODE":0,"TOWNNAME":"安平區","LI":"怡平里","LIN":"5鄰","STREET":"慶平路","SECT":" ","MAREA":" ","LANE":" ","ALLEY":" ","HOUSE_NO":"３８８號五樓之５","E_COORD97":165602.04999999999,"N_COORD97":2544186.3900000001,"ADDRESS":"慶平路３８８號五樓之５","OBJECTID":466987},"geometry":{"x":165602.04999999888,"y":2544186.3900000025}},{"attributes":{"ID":467013,"DIS_CODE":0,"TOWNNAME":"安平區","LI":"怡平里","LIN":"5鄰","STREET":"慶平路","SECT":" ","MAREA":" ","LANE":" ","ALLEY":" ","HOUSE_NO":"３８８號五樓之６","E_COORD97":165602.04999999999,"N_COORD97":2544186.3900000001,"ADDRESS":"慶平路３８８號五樓之６","OBJECTID":466988},"geometry":{"x":165602.04999999888,"y":2544186.3900000025}},{"attributes":{"ID":467014,"DIS_CODE":0,"TOWNNAME":"安平區","LI":"怡平里","LIN":"5鄰","STREET":"慶平路","SECT":" ","MAREA":" ","LANE":" ","ALLEY":" ","HOUSE_NO":"３８８號五樓之７","E_COORD97":165602.04999999999,"N_COORD97":2544186.3900000001,"ADDRESS":"慶平路３８８號五樓之７","OBJECTID":466989},"geometry":{"x":165602.04999999888,"y":2544186.3900000025}},{"attributes":{"ID":467015,"DIS_CODE":0,"TOWNNAME":"安平區","LI":"怡平里","LIN":"5鄰","STREET":"慶平路","SECT":" ","MAREA":" ","LANE":" ","ALLEY":" ","HOUSE_NO":"３８８號五樓之８","E_COORD97":165602.04999999999,"N_COORD97":2544186.3900000001,"ADDRESS":"慶平路３８８號五樓之８","OBJECTID":466990},"geometry":{"x":165602.04999999888,"y":2544186.3900000025}},{"attributes":{"ID":467016,"DIS_CODE":0,"TOWNNAME":"安平區","LI":"怡平里","LIN":"5鄰","STREET":"慶平路","SECT":" ","MAREA":" ","LANE":" ","ALLEY":" ","HOUSE_NO":"３８８號五樓之９","E_COORD97":165602.04999999999,"N_COORD97":2544186.3900000001,"ADDRESS":"慶平路３８８號五樓之９","OBJECTID":466991},"geometry":{"x":165602.04999999888,"y":2544186.3900000025}},{"attributes":{"ID":467017,"DIS_CODE":0,"TOWNNAME":"安平區","LI":"怡平里","LIN":"5鄰","STREET":"慶平路","SECT":" ","MAREA":" ","LANE":" ","ALLEY":" ","HOUSE_NO":"３８８號五樓之１０","E_COORD97":165602.04999999999,"N_COORD97":2544186.3900000001,"ADDRESS":"慶平路３８８號五樓之１０","OBJECTID":466992},"geometry":{"x":165602.04999999888,"y":2544186.3900000025}},{"attributes":{"ID":467018,"DIS_CODE":0,"TOWNNAME":"安平區","LI":"怡平里","LIN":"5鄰","STREET":"慶平路","SECT":" ","MAREA":" ","LANE":" ","ALLEY":" ","HOUSE_NO":"３８８號五樓之１１","E_COORD97":165602.04999999999,"N_COORD97":2544186.3900000001,"ADDRESS":"慶平路３８８號五樓之１１","OBJECTID":466993},"geometry":{"x":165602.04999999888,"y":2544186.3900000025}},{"attributes":{"ID":467019,"DIS_CODE":0,"TOWNNAME":"安平區","LI":"怡平里","LIN":"5鄰","STREET":"慶平路","SECT":" ","MAREA":" ","LANE":" ","ALLEY":" ","HOUSE_NO":"３８８號五樓之１２","E_COORD97":165602.04999999999,"N_COORD97":2544186.3900000001,"ADDRESS":"慶平路３８８號五樓之１２","OBJECTID":466994},"geometry":{"x":165602.04999999888,"y":2544186.3900000025}},{"attributes":{"ID":467020,"DIS_CODE":0,"TOWNNAME":"安平區","LI":"怡平里","LIN":"5鄰","STREET":"慶平路","SECT":" ","MAREA":" ","LANE":" ","ALLEY":" ","HOUSE_NO":"３８８號五樓之１３","E_COORD97":165602.04999999999,"N_COORD97":2544186.3900000001,"ADDRESS":"慶平路３８８號五樓之１３","OBJECTID":466995},"geometry":{"x":165602.04999999888,"y":2544186.3900000025}},{"attributes":{"ID":467021,"DIS_CODE":0,"TOWNNAME":"安平區","LI":"怡平里","LIN":"5鄰","STREET":"慶平路","SECT":" ","MAREA":" ","LANE":" ","ALLEY":" ","HOUSE_NO":"３８８號五樓之１４","E_COORD97":165602.04999999999,"N_COORD97":2544186.3900000001,"ADDRESS":"慶平路３８８號五樓之１４","OBJECTID":466996},"geometry":{"x":165602.04999999888,"y":2544186.3900000025}},{"attributes":{"ID":467022,"DIS_CODE":0,"TOWNNAME":"安平區","LI":"怡平里","LIN":"5鄰","STREET":"慶平路","SECT":" ","MAREA":" ","LANE":" ","ALLEY":" ","HOUSE_NO":"３８８號六樓之１","E_COORD97":165602.04999999999,"N_COORD97":2544186.3900000001,"ADDRESS":"慶平路３８８號六樓之１","OBJECTID":466997},"geometry":{"x":165602.04999999888,"y":2544186.3900000025}},{"attributes":{"ID":467023,"DIS_CODE":0,"TOWNNAME":"安平區","LI":"怡平里","LIN":"5鄰","STREET":"慶平路","SECT":" ","MAREA":" ","LANE":" ","ALLEY":" ","HOUSE_NO":"３８８號六樓之２","E_COORD97":165602.04999999999,"N_COORD97":2544186.3900000001,"ADDRESS":"慶平路３８８號六樓之２","OBJECTID":466998},"geometry":{"x":165602.04999999888,"y":2544186.3900000025}},{"attributes":{"ID":467024,"DIS_CODE":0,"TOWNNAME":"安平區","LI":"怡平里","LIN":"5鄰","STREET":"慶平路","SECT":" ","MAREA":" ","LANE":" ","ALLEY":" ","HOUSE_NO":"３８８號六樓之３","E_COORD97":165602.04999999999,"N_COORD97":2544186.3900000001,"ADDRESS":"慶平路３８８號六樓之３","OBJECTID":466999},"geometry":{"x":165602.04999999888,"y":2544186.3900000025}},{"attributes":{"ID":467025,"DIS_CODE":0,"TOWNNAME":"安平區","LI":"怡平里","LIN":"5鄰","STREET":"慶平路","SECT":" ","MAREA":" ","LANE":" ","ALLEY":" ","HOUSE_NO":"３８８號六樓之４","E_COORD97":165602.04999999999,"N_COORD97":2544186.3900000001,"ADDRESS":"慶平路３８８號六樓之４","OBJECTID":467000},"geometry":{"x":165602.04999999888,"y":2544186.3900000025}}]}