{"displayFieldName":"TOWNNAME","fieldAliases":{"ID":"ID","DIS_CODE":"DIS_CODE","TOWNNAME":"TOWNNAME","LI":"LI","LIN":"LIN","STREET":"STREET","SECT":"SECT","MAREA":"MAREA","LANE":"LANE","ALLEY":"ALLEY","HOUSE_NO":"HOUSE_NO","E_COORD97":"E_COORD97","N_COORD97":"N_COORD97","ADDRESS":"ADDRESS","OBJECTID":"OBJECTID"},"geometryType":"esriGeometryPoint","spatialReference":{"wkid":102443,"latestWkid":3826},"fields":[{"name":"ID","type":"esriFieldTypeDouble","alias":"ID"},{"name":"DIS_CODE","type":"esriFieldTypeInteger","alias":"DIS_CODE"},{"name":"TOWNNAME","type":"esriFieldTypeString","alias":"TOWNNAME","length":8},{"name":"LI","type":"esriFieldTypeString","alias":"LI","length":8},{"name":"LIN","type":"esriFieldTypeString","alias":"LIN","length":12},{"name":"STREET","type":"esriFieldTypeString","alias":"STREET","length":20},{"name":"SECT","type":"esriFieldTypeString","alias":"SECT","length":8},{"name":"MAREA","type":"esriFieldTypeString","alias":"MAREA","length":12},{"name":"LANE","type":"esriFieldTypeString","alias":"LANE","length":10},{"name":"ALLEY","type":"esriFieldTypeString","alias":"ALLEY","length":10},{"name":"HOUSE_NO","type":"esriFieldTypeString","alias":"HOUSE_NO","length":20},{"name":"E_COORD97","type":"esriFieldTypeDouble","alias":"E_COORD97"},{"name":"N_COORD97","type":"esriFieldTypeDouble","alias":"N_COORD97"},{"name":"ADDRESS","type":"esriFieldTypeString","alias":"ADDRESS","length":50},{"name":"OBJECTID","type":"esriFieldTypeOID","alias":"OBJECTID"}],"features":[{"attributes":{"ID":189402,"DIS_CODE":0,"TOWNNAME":"北區","LI":"重興里","LIN":"5鄰","STREET":"林森路","SECT":"三段","MAREA":" ","LANE":"８６巷","ALLEY":"２弄","HOUSE_NO":"２號","E_COORD97":170565.48999999999,"N_COORD97":2544849.71,"ADDRESS":"林森路三段８６巷２弄２號","OBJECTID":189401},"geometry":{"x":170565.49000000115,"y":2544849.7100000009}},{"attributes":{"ID":189403,"DIS_CODE":0,"TOWNNAME":"麻豆區","LI":"油車里","LIN":"21鄰","STREET":"興民街","SECT":" ","MAREA":" ","LANE":" ","ALLEY":" ","HOUSE_NO":"７６號","E_COORD97":172600.76000000001,"N_COORD97":2564989.23,"ADDRESS":"興民街７６號","OBJECTID":189402},"geometry":{"x":172600.76000000071,"y":2564989.2300000042}},{"attributes":{"ID":189404,"DIS_CODE":0,"TOWNNAME":"白河區","LI":"永安里","LIN":"21鄰","STREET":"西安街","SECT":" ","MAREA":" ","LANE":" ","ALLEY":" ","HOUSE_NO":"３２號","E_COORD97":189854.04000000001,"N_COORD97":2582755.6499999999,"ADDRESS":"西安街３２號","OBJECTID":189403},"geometry":{"x":189854.04000000097,"y":2582755.6500000022}},{"attributes":{"ID":189405,"DIS_CODE":0,"TOWNNAME":"柳營區","LI":"篤農里","LIN":"10鄰","STREET":" ","SECT":" ","MAREA":"小腳腿","LANE":" ","ALLEY":" ","HOUSE_NO":"２６８號之３","E_COORD97":185655.85000000001,"N_COORD97":2576434.1400000001,"ADDRESS":"小腳腿２６８號之３","OBJECTID":189404},"geometry":{"x":185655.85000000149,"y":2576434.1400000025}},{"attributes":{"ID":189406,"DIS_CODE":0,"TOWNNAME":"柳營區","LI":"篤農里","LIN":"10鄰","STREET":" ","SECT":" ","MAREA":"小腳腿","LANE":" ","ALLEY":" ","HOUSE_NO":"２６８號之４","E_COORD97":185664.72,"N_COORD97":2576445.5299999998,"ADDRESS":"小腳腿２６８號之４","OBJECTID":189405},"geometry":{"x":185664.71999999974,"y":2576445.5300000031}},{"attributes":{"ID":189407,"DIS_CODE":0,"TOWNNAME":"柳營區","LI":"篤農里","LIN":"10鄰","STREET":" ","SECT":" ","MAREA":"小腳腿","LANE":" ","ALLEY":" ","HOUSE_NO":"２６８號之５","E_COORD97":185664.97,"N_COORD97":2576450.0800000001,"ADDRESS":"小腳腿２６８號之５","OBJECTID":189406},"geometry":{"x":185664.96999999974,"y":2576450.0800000019}},{"attributes":{"ID":189408,"DIS_CODE":0,"TOWNNAME":"柳營區","LI":"篤農里","LIN":"10鄰","STREET":" ","SECT":" ","MAREA":"小腳腿","LANE":" ","ALLEY":" ","HOUSE_NO":"２６８號之６","E_COORD97":185689.35000000001,"N_COORD97":2576426.1600000001,"ADDRESS":"小腳腿２６８號之６","OBJECTID":189407},"geometry":{"x":185689.34999999963,"y":2576426.160000002}},{"attributes":{"ID":189409,"DIS_CODE":0,"TOWNNAME":"柳營區","LI":"篤農里","LIN":"10鄰","STREET":" ","SECT":" ","MAREA":"小腳腿","LANE":" ","ALLEY":" ","HOUSE_NO":"２６８號之７","E_COORD97":185655.45999999999,"N_COORD97":2576426.2999999998,"ADDRESS":"小腳腿２６８號之７","OBJECTID":189408},"geometry":{"x":185655.46000000183,"y":2576426.3000000026}},{"attributes":{"ID":189410,"DIS_CODE":0,"TOWNNAME":"北區","LI":"重興里","LIN":"5鄰","STREET":"林森路","SECT":"三段","MAREA":" ","LANE":"８６巷","ALLEY":"２弄","HOUSE_NO":"３號","E_COORD97":170575.57000000001,"N_COORD97":2544867.5299999998,"ADDRESS":"林森路三段８６巷２弄３號","OBJECTID":189409},"geometry":{"x":170575.5700000003,"y":2544867.5300000031}},{"attributes":{"ID":189411,"DIS_CODE":0,"TOWNNAME":"北區","LI":"重興里","LIN":"5鄰","STREET":"林森路","SECT":"三段","MAREA":" ","LANE":"８６巷","ALLEY":"２弄","HOUSE_NO":"４號","E_COORD97":170570.95999999999,"N_COORD97":2544849.0299999998,"ADDRESS":"林森路三段８６巷２弄４號","OBJECTID":189410},"geometry":{"x":170570.95999999996,"y":2544849.0299999993}},{"attributes":{"ID":189412,"DIS_CODE":0,"TOWNNAME":"柳營區","LI":"篤農里","LIN":"10鄰","STREET":" ","SECT":" ","MAREA":"小腳腿","LANE":" ","ALLEY":" ","HOUSE_NO":"２６８號","E_COORD97":185628.14999999999,"N_COORD97":2576433.2200000002,"ADDRESS":"小腳腿２６８號","OBJECTID":189411},"geometry":{"x":185628.1500000013,"y":2576433.2200000025}},{"attributes":{"ID":189413,"DIS_CODE":0,"TOWNNAME":"白河區","LI":"甘宅里","LIN":"3鄰","STREET":" ","SECT":" ","MAREA":"甘宅","LANE":" ","ALLEY":" ","HOUSE_NO":"３５號","E_COORD97":192792.97,"N_COORD97":2586745.71,"ADDRESS":"甘宅３５號","OBJECTID":189412},"geometry":{"x":192792.96999999974,"y":2586745.709999999}},{"attributes":{"ID":189414,"DIS_CODE":0,"TOWNNAME":"柳營區","LI":"篤農里","LIN":"10鄰","STREET":" ","SECT":" ","MAREA":"小腳腿","LANE":" ","ALLEY":" ","HOUSE_NO":"２６９號","E_COORD97":185584.45999999999,"N_COORD97":2576431.6899999999,"ADDRESS":"小腳腿２６９號","OBJECTID":189413},"geometry":{"x":185584.46000000089,"y":2576431.6900000013}},{"attributes":{"ID":189415,"DIS_CODE":0,"TOWNNAME":"柳營區","LI":"篤農里","LIN":"10鄰","STREET":" ","SECT":" ","MAREA":"小腳腿","LANE":" ","ALLEY":" ","HOUSE_NO":"２７０號之１","E_COORD97":185580.20999999999,"N_COORD97":2576453.3799999999,"ADDRESS":"小腳腿２７０號之１","OBJECTID":189414},"geometry":{"x":185580.20999999996,"y":2576453.3800000008}},{"attributes":{"ID":189416,"DIS_CODE":0,"TOWNNAME":"柳營區","LI":"篤農里","LIN":"10鄰","STREET":" ","SECT":" ","MAREA":"小腳腿","LANE":" ","ALLEY":" ","HOUSE_NO":"２７０號","E_COORD97":185588.85000000001,"N_COORD97":2576466.3399999999,"ADDRESS":"小腳腿２７０號","OBJECTID":189415},"geometry":{"x":185588.84999999963,"y":2576466.3399999999}},{"attributes":{"ID":189417,"DIS_CODE":0,"TOWNNAME":"柳營區","LI":"篤農里","LIN":"10鄰","STREET":" ","SECT":" ","MAREA":"小腳腿","LANE":" ","ALLEY":" ","HOUSE_NO":"２７１號之１","E_COORD97":185629.35000000001,"N_COORD97":2576448.2400000002,"ADDRESS":"小腳腿２７１號之１","OBJECTID":189416},"geometry":{"x":185629.35000000056,"y":2576448.2399999984}},{"attributes":{"ID":189418,"DIS_CODE":0,"TOWNNAME":"柳營區","LI":"篤農里","LIN":"10鄰","STREET":" ","SECT":" ","MAREA":"小腳腿","LANE":" ","ALLEY":" ","HOUSE_NO":"３６０號","E_COORD97":186591.34,"N_COORD97":2576245.6400000001,"ADDRESS":"小腳腿３６０號","OBJECTID":189417},"geometry":{"x":186591.33999999985,"y":2576245.6400000006}},{"attributes":{"ID":189419,"DIS_CODE":0,"TOWNNAME":"柳營區","LI":"篤農里","LIN":"10鄰","STREET":" ","SECT":" ","MAREA":"小腳腿","LANE":" ","ALLEY":" ","HOUSE_NO":"３８０號","E_COORD97":186344.04000000001,"N_COORD97":2576268.3399999999,"ADDRESS":"小腳腿３８０號","OBJECTID":189418},"geometry":{"x":186344.04000000004,"y":2576268.3400000017}},{"attributes":{"ID":189420,"DIS_CODE":0,"TOWNNAME":"柳營區","LI":"篤農里","LIN":"10鄰","STREET":" ","SECT":" ","MAREA":"小腳腿","LANE":" ","ALLEY":" ","HOUSE_NO":"３９６號","E_COORD97":186030.16,"N_COORD97":2576313.6600000001,"ADDRESS":"小腳腿３９６號","OBJECTID":189419},"geometry":{"x":186030.16000000015,"y":2576313.660000002}},{"attributes":{"ID":189421,"DIS_CODE":0,"TOWNNAME":"柳營區","LI":"篤農里","LIN":"10鄰","STREET":" ","SECT":" ","MAREA":"小腳腿","LANE":" ","ALLEY":" ","HOUSE_NO":"３９８號","E_COORD97":185994.98000000001,"N_COORD97":2576310.54,"ADDRESS":"小腳腿３９８號","OBJECTID":189420},"geometry":{"x":185994.98000000138,"y":2576310.540000001}},{"attributes":{"ID":189422,"DIS_CODE":0,"TOWNNAME":"六甲區","LI":"大丘里","LIN":"10鄰","STREET":" ","SECT":" ","MAREA":"猴洞腳","LANE":" ","ALLEY":" ","HOUSE_NO":"１０號","E_COORD97":190957.70999999999,"N_COORD97":2568293.0099999998,"ADDRESS":"猴洞腳１０號","OBJECTID":189421},"geometry":{"x":190957.70999999996,"y":2568293.0100000016}},{"attributes":{"ID":189423,"DIS_CODE":0,"TOWNNAME":"六甲區","LI":"大丘里","LIN":"10鄰","STREET":" ","SECT":" ","MAREA":"猴洞腳","LANE":" ","ALLEY":" ","HOUSE_NO":"１１號之１","E_COORD97":190893.06,"N_COORD97":2568301.9700000002,"ADDRESS":"猴洞腳１１號之１","OBJECTID":189422},"geometry":{"x":190893.06000000052,"y":2568301.9700000007}},{"attributes":{"ID":189424,"DIS_CODE":0,"TOWNNAME":"六甲區","LI":"大丘里","LIN":"10鄰","STREET":" ","SECT":" ","MAREA":"猴洞腳","LANE":" ","ALLEY":" ","HOUSE_NO":"１１號","E_COORD97":190905.64000000001,"N_COORD97":2568302.3100000001,"ADDRESS":"猴洞腳１１號","OBJECTID":189423},"geometry":{"x":190905.6400000006,"y":2568302.3100000024}},{"attributes":{"ID":189425,"DIS_CODE":0,"TOWNNAME":"六甲區","LI":"大丘里","LIN":"10鄰","STREET":" ","SECT":" ","MAREA":"猴洞腳","LANE":" ","ALLEY":" ","HOUSE_NO":"１２號","E_COORD97":190906.17000000001,"N_COORD97":2568321.8900000001,"ADDRESS":"猴洞腳１２號","OBJECTID":189424},"geometry":{"x":190906.17000000086,"y":2568321.8900000025}},{"attributes":{"ID":189426,"DIS_CODE":0,"TOWNNAME":"六甲區","LI":"大丘里","LIN":"10鄰","STREET":" ","SECT":" ","MAREA":"猴洞腳","LANE":" ","ALLEY":" ","HOUSE_NO":"１３號","E_COORD97":190923.89999999999,"N_COORD97":2568309.3199999998,"ADDRESS":"猴洞腳１３號","OBJECTID":189425},"geometry":{"x":190923.9000000013,"y":2568309.3200000022}},{"attributes":{"ID":189427,"DIS_CODE":0,"TOWNNAME":"六甲區","LI":"大丘里","LIN":"10鄰","STREET":" ","SECT":" ","MAREA":"猴洞腳","LANE":" ","ALLEY":" ","HOUSE_NO":"１４號","E_COORD97":190923.63,"N_COORD97":2568331.4300000002,"ADDRESS":"猴洞腳１４號","OBJECTID":189426},"geometry":{"x":190923.62999999989,"y":2568331.4300000016}},{"attributes":{"ID":189428,"DIS_CODE":0,"TOWNNAME":"六甲區","LI":"大丘里","LIN":"10鄰","STREET":" ","SECT":" ","MAREA":"猴洞腳","LANE":" ","ALLEY":" ","HOUSE_NO":"８號","E_COORD97":190885.95999999999,"N_COORD97":2568275.79,"ADDRESS":"猴洞腳８號","OBJECTID":189427},"geometry":{"x":190885.95999999996,"y":2568275.7899999991}},{"attributes":{"ID":189429,"DIS_CODE":0,"TOWNNAME":"北區","LI":"重興里","LIN":"5鄰","STREET":"林森路","SECT":"三段","MAREA":" ","LANE":"８６巷","ALLEY":"２弄","HOUSE_NO":"５號","E_COORD97":170580.60999999999,"N_COORD97":2544866.77,"ADDRESS":"林森路三段８６巷２弄５號","OBJECTID":189428},"geometry":{"x":170580.61000000034,"y":2544866.7700000014}},{"attributes":{"ID":189430,"DIS_CODE":0,"TOWNNAME":"六甲區","LI":"大丘里","LIN":"10鄰","STREET":" ","SECT":" ","MAREA":"猴洞腳","LANE":" ","ALLEY":" ","HOUSE_NO":"９號","E_COORD97":190903.97,"N_COORD97":2568288.2400000002,"ADDRESS":"猴洞腳９號","OBJECTID":189429},"geometry":{"x":190903.97000000067,"y":2568288.2400000021}},{"attributes":{"ID":189431,"DIS_CODE":0,"TOWNNAME":"北區","LI":"重興里","LIN":"5鄰","STREET":"林森路","SECT":"三段","MAREA":" ","LANE":"８６巷","ALLEY":"２弄","HOUSE_NO":"６號","E_COORD97":170575.91,"N_COORD97":2544848.6000000001,"ADDRESS":"林森路三段８６巷２弄６號","OBJECTID":189430},"geometry":{"x":170575.91000000108,"y":2544848.6000000015}},{"attributes":{"ID":189432,"DIS_CODE":0,"TOWNNAME":"北區","LI":"重興里","LIN":"5鄰","STREET":"林森路","SECT":"三段","MAREA":" ","LANE":"８６巷","ALLEY":"２弄","HOUSE_NO":"７號","E_COORD97":170585.22,"N_COORD97":2544864.6299999999,"ADDRESS":"林森路三段８６巷２弄７號","OBJECTID":189431},"geometry":{"x":170585.22000000067,"y":2544864.6300000008}},{"attributes":{"ID":189433,"DIS_CODE":0,"TOWNNAME":"柳營區","LI":"大農里","LIN":"10鄰","STREET":" ","SECT":" ","MAREA":"農場","LANE":" ","ALLEY":" ","HOUSE_NO":"１５號","E_COORD97":183260.67000000001,"N_COORD97":2576132.73,"ADDRESS":"農場１５號","OBJECTID":189432},"geometry":{"x":183260.67000000086,"y":2576132.7300000004}},{"attributes":{"ID":189434,"DIS_CODE":0,"TOWNNAME":"北區","LI":"重興里","LIN":"5鄰","STREET":"林森路","SECT":"三段","MAREA":" ","LANE":"８６巷","ALLEY":"２弄","HOUSE_NO":"８號","E_COORD97":170580.69,"N_COORD97":2544847.5800000001,"ADDRESS":"林森路三段８６巷２弄８號","OBJECTID":189433},"geometry":{"x":170580.69000000227,"y":2544847.5800000038}},{"attributes":{"ID":189435,"DIS_CODE":0,"TOWNNAME":"北區","LI":"重興里","LIN":"5鄰","STREET":"林森路","SECT":"三段","MAREA":" ","LANE":"８６巷","ALLEY":"２弄","HOUSE_NO":"９號","E_COORD97":170589.73999999999,"N_COORD97":2544863.1800000002,"ADDRESS":"林森路三段８６巷２弄９號","OBJECTID":189434},"geometry":{"x":170589.74000000022,"y":2544863.1799999997}},{"attributes":{"ID":189436,"DIS_CODE":0,"TOWNNAME":"西港區","LI":"檨林里","LIN":"10鄰","STREET":" ","SECT":" ","MAREA":"檨子林","LANE":" ","ALLEY":" ","HOUSE_NO":"７７號","E_COORD97":171338.60000000001,"N_COORD97":2559620.2000000002,"ADDRESS":"檨子林７７號","OBJECTID":189435},"geometry":{"x":171338.60000000056,"y":2559620.1999999993}},{"attributes":{"ID":189437,"DIS_CODE":0,"TOWNNAME":"東區","LI":"後甲里","LIN":"5鄰","STREET":"裕農路","SECT":" ","MAREA":" ","LANE":"６２１巷","ALLEY":"３６弄","HOUSE_NO":"２３號三樓之２","E_COORD97":171666.53,"N_COORD97":2543360.1600000001,"ADDRESS":"裕農路６２１巷３６弄２３號三樓之２","OBJECTID":189436},"geometry":{"x":171666.53000000212,"y":2543360.160000002}},{"attributes":{"ID":189438,"DIS_CODE":0,"TOWNNAME":"東區","LI":"後甲里","LIN":"5鄰","STREET":"裕農路","SECT":" ","MAREA":" ","LANE":"６２１巷","ALLEY":"３６弄","HOUSE_NO":"２３號五樓之１","E_COORD97":171666.53,"N_COORD97":2543360.1600000001,"ADDRESS":"裕農路６２１巷３６弄２３號五樓之１","OBJECTID":189437},"geometry":{"x":171666.53000000212,"y":2543360.160000002}},{"attributes":{"ID":189439,"DIS_CODE":0,"TOWNNAME":"西港區","LI":"檨林里","LIN":"10鄰","STREET":" ","SECT":" ","MAREA":"檨子林","LANE":" ","ALLEY":" ","HOUSE_NO":"７８號","E_COORD97":171352.48999999999,"N_COORD97":2559602.3100000001,"ADDRESS":"檨子林７８號","OBJECTID":189438},"geometry":{"x":171352.49000000022,"y":2559602.3100000024}},{"attributes":{"ID":189440,"DIS_CODE":0,"TOWNNAME":"西港區","LI":"檨林里","LIN":"10鄰","STREET":" ","SECT":" ","MAREA":"檨子林","LANE":" ","ALLEY":" ","HOUSE_NO":"７９號","E_COORD97":171335.95000000001,"N_COORD97":2559603.9399999999,"ADDRESS":"檨子林７９號","OBJECTID":189439},"geometry":{"x":171335.95000000019,"y":2559603.9400000013}},{"attributes":{"ID":189441,"DIS_CODE":0,"TOWNNAME":"西港區","LI":"檨林里","LIN":"10鄰","STREET":" ","SECT":" ","MAREA":"檨子林","LANE":" ","ALLEY":" ","HOUSE_NO":"８２號之１０","E_COORD97":171304.20000000001,"N_COORD97":2559641.3300000001,"ADDRESS":"檨子林８２號之１０","OBJECTID":189440},"geometry":{"x":171304.20000000205,"y":2559641.3299999982}},{"attributes":{"ID":189442,"DIS_CODE":0,"TOWNNAME":"西港區","LI":"檨林里","LIN":"10鄰","STREET":" ","SECT":" ","MAREA":"檨子林","LANE":" ","ALLEY":" ","HOUSE_NO":"８２號之１１","E_COORD97":171304.82999999999,"N_COORD97":2559646.3700000001,"ADDRESS":"檨子林８２號之１１","OBJECTID":189441},"geometry":{"x":171304.83000000194,"y":2559646.3700000029}},{"attributes":{"ID":189443,"DIS_CODE":0,"TOWNNAME":"西港區","LI":"檨林里","LIN":"10鄰","STREET":" ","SECT":" ","MAREA":"檨子林","LANE":" ","ALLEY":" ","HOUSE_NO":"８２號之１２","E_COORD97":171305.89000000001,"N_COORD97":2559650.8399999999,"ADDRESS":"檨子林８２號之１２","OBJECTID":189442},"geometry":{"x":171305.8900000006,"y":2559650.8399999999}},{"attributes":{"ID":189444,"DIS_CODE":0,"TOWNNAME":"西港區","LI":"檨林里","LIN":"10鄰","STREET":" ","SECT":" ","MAREA":"檨子林","LANE":" ","ALLEY":" ","HOUSE_NO":"８２號之１３","E_COORD97":171306.57000000001,"N_COORD97":2559655.6800000002,"ADDRESS":"檨子林８２號之１３","OBJECTID":189443},"geometry":{"x":171306.5700000003,"y":2559655.6800000034}},{"attributes":{"ID":189445,"DIS_CODE":0,"TOWNNAME":"西港區","LI":"檨林里","LIN":"10鄰","STREET":" ","SECT":" ","MAREA":"檨子林","LANE":" ","ALLEY":" ","HOUSE_NO":"８２號之１４","E_COORD97":171307.5,"N_COORD97":2559660.2000000002,"ADDRESS":"檨子林８２號之１４","OBJECTID":189444},"geometry":{"x":171307.50000000093,"y":2559660.2000000011}},{"attributes":{"ID":189446,"DIS_CODE":0,"TOWNNAME":"西港區","LI":"檨林里","LIN":"10鄰","STREET":" ","SECT":" ","MAREA":"檨子林","LANE":" ","ALLEY":" ","HOUSE_NO":"８２號之１５","E_COORD97":171287.79999999999,"N_COORD97":2559665.7200000002,"ADDRESS":"檨子林８２號之１５","OBJECTID":189445},"geometry":{"x":171287.80000000168,"y":2559665.7200000007}},{"attributes":{"ID":189447,"DIS_CODE":0,"TOWNNAME":"東區","LI":"後甲里","LIN":"5鄰","STREET":"裕農路","SECT":" ","MAREA":" ","LANE":"６２１巷","ALLEY":"３６弄","HOUSE_NO":"２３號六樓之１","E_COORD97":171666.53,"N_COORD97":2543360.1600000001,"ADDRESS":"裕農路６２１巷３６弄２３號六樓之１","OBJECTID":189446},"geometry":{"x":171666.53000000212,"y":2543360.160000002}},{"attributes":{"ID":189448,"DIS_CODE":0,"TOWNNAME":"西港區","LI":"檨林里","LIN":"10鄰","STREET":" ","SECT":" ","MAREA":"檨子林","LANE":" ","ALLEY":" ","HOUSE_NO":"８２號之２４","E_COORD97":171279.60000000001,"N_COORD97":2559622.3700000001,"ADDRESS":"檨子林８２號之２４","OBJECTID":189447},"geometry":{"x":171279.60000000056,"y":2559622.3700000029}},{"attributes":{"ID":189449,"DIS_CODE":0,"TOWNNAME":"東區","LI":"後甲里","LIN":"5鄰","STREET":"裕農路","SECT":" ","MAREA":" ","LANE":"６２１巷","ALLEY":"３６弄","HOUSE_NO":"２３號四樓之１","E_COORD97":171666.53,"N_COORD97":2543360.1600000001,"ADDRESS":"裕農路６２１巷３６弄２３號四樓之１","OBJECTID":189448},"geometry":{"x":171666.53000000212,"y":2543360.160000002}},{"attributes":{"ID":189450,"DIS_CODE":0,"TOWNNAME":"西港區","LI":"檨林里","LIN":"10鄰","STREET":" ","SECT":" ","MAREA":"檨子林","LANE":" ","ALLEY":" ","HOUSE_NO":"８２號之１６","E_COORD97":171286.70999999999,"N_COORD97":2559661.0499999998,"ADDRESS":"檨子林８２號之１６","OBJECTID":189449},"geometry":{"x":171286.70999999996,"y":2559661.0500000045}},{"attributes":{"ID":189451,"DIS_CODE":0,"TOWNNAME":"西港區","LI":"檨林里","LIN":"10鄰","STREET":" ","SECT":" ","MAREA":"檨子林","LANE":" ","ALLEY":" ","HOUSE_NO":"８２號之１７","E_COORD97":171285.72,"N_COORD97":2559655.9700000002,"ADDRESS":"檨子林８２號之１７","OBJECTID":189450},"geometry":{"x":171285.72000000067,"y":2559655.9700000025}},{"attributes":{"ID":189452,"DIS_CODE":0,"TOWNNAME":"東區","LI":"後甲里","LIN":"5鄰","STREET":"裕農路","SECT":" ","MAREA":" ","LANE":"６２１巷","ALLEY":"３６弄","HOUSE_NO":"２３號四樓之２","E_COORD97":171666.53,"N_COORD97":2543360.1600000001,"ADDRESS":"裕農路６２１巷３６弄２３號四樓之２","OBJECTID":189451},"geometry":{"x":171666.53000000212,"y":2543360.160000002}},{"attributes":{"ID":189453,"DIS_CODE":0,"TOWNNAME":"東區","LI":"後甲里","LIN":"5鄰","STREET":"裕農路","SECT":" ","MAREA":" ","LANE":"６２１巷","ALLEY":"３６弄","HOUSE_NO":"２５號二樓之１","E_COORD97":171690.42000000001,"N_COORD97":2543367.3900000001,"ADDRESS":"裕農路６２１巷３６弄２５號二樓之１","OBJECTID":189452},"geometry":{"x":171690.41999999993,"y":2543367.3900000006}},{"attributes":{"ID":189454,"DIS_CODE":0,"TOWNNAME":"東區","LI":"後甲里","LIN":"5鄰","STREET":"裕農路","SECT":" ","MAREA":" ","LANE":"６２１巷","ALLEY":"３６弄","HOUSE_NO":"２５號三樓之２","E_COORD97":171690.42000000001,"N_COORD97":2543367.3900000001,"ADDRESS":"裕農路６２１巷３６弄２５號三樓之２","OBJECTID":189453},"geometry":{"x":171690.41999999993,"y":2543367.3900000006}},{"attributes":{"ID":189455,"DIS_CODE":0,"TOWNNAME":"東區","LI":"後甲里","LIN":"5鄰","STREET":"裕農路","SECT":" ","MAREA":" ","LANE":"６２１巷","ALLEY":"３６弄","HOUSE_NO":"２５號三樓之３","E_COORD97":171690.42000000001,"N_COORD97":2543367.3900000001,"ADDRESS":"裕農路６２１巷３６弄２５號三樓之３","OBJECTID":189454},"geometry":{"x":171690.41999999993,"y":2543367.3900000006}},{"attributes":{"ID":189456,"DIS_CODE":0,"TOWNNAME":"東區","LI":"後甲里","LIN":"5鄰","STREET":"裕農路","SECT":" ","MAREA":" ","LANE":"６２１巷","ALLEY":"３６弄","HOUSE_NO":"２５號五樓之１","E_COORD97":171690.42000000001,"N_COORD97":2543367.3900000001,"ADDRESS":"裕農路６２１巷３６弄２５號五樓之１","OBJECTID":189455},"geometry":{"x":171690.41999999993,"y":2543367.3900000006}},{"attributes":{"ID":189457,"DIS_CODE":0,"TOWNNAME":"東區","LI":"後甲里","LIN":"5鄰","STREET":"裕農路","SECT":" ","MAREA":" ","LANE":"６２１巷","ALLEY":"３６弄","HOUSE_NO":"２５號五樓之２","E_COORD97":171690.42000000001,"N_COORD97":2543367.3900000001,"ADDRESS":"裕農路６２１巷３６弄２５號五樓之２","OBJECTID":189456},"geometry":{"x":171690.41999999993,"y":2543367.3900000006}},{"attributes":{"ID":189458,"DIS_CODE":0,"TOWNNAME":"東區","LI":"後甲里","LIN":"5鄰","STREET":"裕農路","SECT":" ","MAREA":" ","LANE":"６２１巷","ALLEY":"３６弄","HOUSE_NO":"２５號五樓之３","E_COORD97":171690.42000000001,"N_COORD97":2543367.3900000001,"ADDRESS":"裕農路６２１巷３６弄２５號五樓之３","OBJECTID":189457},"geometry":{"x":171690.41999999993,"y":2543367.3900000006}},{"attributes":{"ID":189459,"DIS_CODE":0,"TOWNNAME":"東區","LI":"後甲里","LIN":"5鄰","STREET":"裕農路","SECT":" ","MAREA":" ","LANE":"６２１巷","ALLEY":"３６弄","HOUSE_NO":"２５號六樓","E_COORD97":171690.42000000001,"N_COORD97":2543367.3900000001,"ADDRESS":"裕農路６２１巷３６弄２５號六樓","OBJECTID":189458},"geometry":{"x":171690.41999999993,"y":2543367.3900000006}},{"attributes":{"ID":189460,"DIS_CODE":0,"TOWNNAME":"永康區","LI":"正強里","LIN":"21鄰","STREET":"自強路","SECT":" ","MAREA":" ","LANE":"３５３巷","ALLEY":" ","HOUSE_NO":"５號之３","E_COORD97":173486.75,"N_COORD97":2547817.04,"ADDRESS":"自強路３５３巷５號之３","OBJECTID":189459},"geometry":{"x":173486.75,"y":2547817.0400000028}},{"attributes":{"ID":189461,"DIS_CODE":0,"TOWNNAME":"歸仁區","LI":"南興里","LIN":"40鄰","STREET":"中山路","SECT":"三段","MAREA":" ","LANE":" ","ALLEY":" ","HOUSE_NO":"３５５之２號","E_COORD97":176106.76000000001,"N_COORD97":2540606.2999999998,"ADDRESS":"中山路三段３５５之２號","OBJECTID":189460},"geometry":{"x":176106.75999999978,"y":2540606.3000000026}},{"attributes":{"ID":189462,"DIS_CODE":0,"TOWNNAME":"歸仁區","LI":"南興里","LIN":"40鄰","STREET":"民生六街","SECT":" ","MAREA":" ","LANE":" ","ALLEY":" ","HOUSE_NO":"２１號","E_COORD97":176172.59,"N_COORD97":2540840.29,"ADDRESS":"民生六街２１號","OBJECTID":189461},"geometry":{"x":176172.58999999985,"y":2540840.2899999991}},{"attributes":{"ID":189463,"DIS_CODE":0,"TOWNNAME":"歸仁區","LI":"後市里","LIN":"40鄰","STREET":"中山路","SECT":"二段","MAREA":" ","LANE":" ","ALLEY":" ","HOUSE_NO":"１７４號","E_COORD97":177154.32999999999,"N_COORD97":2540850.7400000002,"ADDRESS":"中山路二段１７４號","OBJECTID":189462},"geometry":{"x":177154.33000000007,"y":2540850.7400000021}},{"attributes":{"ID":189464,"DIS_CODE":0,"TOWNNAME":"歸仁區","LI":"南興里","LIN":"40鄰","STREET":"民生六街","SECT":" ","MAREA":" ","LANE":" ","ALLEY":" ","HOUSE_NO":"３３號","E_COORD97":176125.48999999999,"N_COORD97":2540838.29,"ADDRESS":"民生六街３３號","OBJECTID":189463},"geometry":{"x":176125.49000000115,"y":2540838.290000001}},{"attributes":{"ID":189465,"DIS_CODE":0,"TOWNNAME":"歸仁區","LI":"後市里","LIN":"40鄰","STREET":"中山路","SECT":"二段","MAREA":" ","LANE":" ","ALLEY":" ","HOUSE_NO":"１８２號","E_COORD97":177137.92999999999,"N_COORD97":2540852.7400000002,"ADDRESS":"中山路二段１８２號","OBJECTID":189464},"geometry":{"x":177137.9299999997,"y":2540852.7400000039}},{"attributes":{"ID":189466,"DIS_CODE":0,"TOWNNAME":"歸仁區","LI":"後市里","LIN":"40鄰","STREET":"中山路","SECT":"二段","MAREA":" ","LANE":" ","ALLEY":" ","HOUSE_NO":"１７６號","E_COORD97":177150.23000000001,"N_COORD97":2540851.7400000002,"ADDRESS":"中山路二段１７６號","OBJECTID":189465},"geometry":{"x":177150.23000000045,"y":2540851.7400000002}},{"attributes":{"ID":189467,"DIS_CODE":0,"TOWNNAME":"歸仁區","LI":"南興里","LIN":"40鄰","STREET":"民生六街","SECT":" ","MAREA":" ","LANE":" ","ALLEY":" ","HOUSE_NO":"１號","E_COORD97":176241.04000000001,"N_COORD97":2540832.29,"ADDRESS":"民生六街１號","OBJECTID":189466},"geometry":{"x":176241.04000000004,"y":2540832.290000001}},{"attributes":{"ID":189468,"DIS_CODE":0,"TOWNNAME":"歸仁區","LI":"六甲里","LIN":"40鄰","STREET":"民生南街","SECT":"二段","MAREA":" ","LANE":" ","ALLEY":" ","HOUSE_NO":"７８６號","E_COORD97":176075.25,"N_COORD97":2539362.29,"ADDRESS":"民生南街二段７８６號","OBJECTID":189467},"geometry":{"x":176075.25,"y":2539362.2899999991}},{"attributes":{"ID":189469,"DIS_CODE":0,"TOWNNAME":"歸仁區","LI":"後市里","LIN":"40鄰","STREET":"中山路","SECT":"二段","MAREA":" ","LANE":" ","ALLEY":" ","HOUSE_NO":"１７２號","E_COORD97":177159.63,"N_COORD97":2540868.7400000002,"ADDRESS":"中山路二段１７２號","OBJECTID":189468},"geometry":{"x":177159.63000000175,"y":2540868.7400000002}},{"attributes":{"ID":189470,"DIS_CODE":0,"TOWNNAME":"歸仁區","LI":"後市里","LIN":"40鄰","STREET":"中山路","SECT":"二段","MAREA":" ","LANE":" ","ALLEY":" ","HOUSE_NO":"２００號","E_COORD97":177093.92999999999,"N_COORD97":2540858.7400000002,"ADDRESS":"中山路二段２００號","OBJECTID":189469},"geometry":{"x":177093.9299999997,"y":2540858.7400000002}},{"attributes":{"ID":189471,"DIS_CODE":0,"TOWNNAME":"歸仁區","LI":"後市里","LIN":"40鄰","STREET":"中山路","SECT":"二段","MAREA":" ","LANE":" ","ALLEY":" ","HOUSE_NO":"１５６號","E_COORD97":177199.42999999999,"N_COORD97":2540845.7400000002,"ADDRESS":"中山路二段１５６號","OBJECTID":189470},"geometry":{"x":177199.4299999997,"y":2540845.7400000002}},{"attributes":{"ID":189472,"DIS_CODE":0,"TOWNNAME":"西港區","LI":"檨林里","LIN":"10鄰","STREET":" ","SECT":" ","MAREA":"檨子林","LANE":" ","ALLEY":" ","HOUSE_NO":"８２號之１８","E_COORD97":171285.01999999999,"N_COORD97":2559651.3700000001,"ADDRESS":"檨子林８２號之１８","OBJECTID":189471},"geometry":{"x":171285.02000000048,"y":2559651.370000001}},{"attributes":{"ID":189473,"DIS_CODE":0,"TOWNNAME":"西港區","LI":"檨林里","LIN":"10鄰","STREET":" ","SECT":" ","MAREA":"檨子林","LANE":" ","ALLEY":" ","HOUSE_NO":"８２號之１９","E_COORD97":171283.73999999999,"N_COORD97":2559646.6299999999,"ADDRESS":"檨子林８２號之１９","OBJECTID":189472},"geometry":{"x":171283.74000000115,"y":2559646.6300000008}},{"attributes":{"ID":189474,"DIS_CODE":0,"TOWNNAME":"西港區","LI":"檨林里","LIN":"10鄰","STREET":" ","SECT":" ","MAREA":"檨子林","LANE":" ","ALLEY":" ","HOUSE_NO":"８２號之１","E_COORD97":171295.79000000001,"N_COORD97":2559598.8599999999,"ADDRESS":"檨子林８２號之１","OBJECTID":189473},"geometry":{"x":171295.79000000004,"y":2559598.8599999994}},{"attributes":{"ID":189475,"DIS_CODE":0,"TOWNNAME":"東區","LI":"後甲里","LIN":"5鄰","STREET":"裕農路","SECT":" ","MAREA":" ","LANE":"６２１巷","ALLEY":"３６弄","HOUSE_NO":"２５號六樓之１","E_COORD97":171690.42000000001,"N_COORD97":2543367.3900000001,"ADDRESS":"裕農路６２１巷３６弄２５號六樓之１","OBJECTID":189474},"geometry":{"x":171690.41999999993,"y":2543367.3900000006}},{"attributes":{"ID":189476,"DIS_CODE":0,"TOWNNAME":"西港區","LI":"檨林里","LIN":"10鄰","STREET":" ","SECT":" ","MAREA":"檨子林","LANE":" ","ALLEY":" ","HOUSE_NO":"８２號之２０","E_COORD97":171282.92999999999,"N_COORD97":2559641.8500000001,"ADDRESS":"檨子林８２號之２０","OBJECTID":189475},"geometry":{"x":171282.9299999997,"y":2559641.8500000015}},{"attributes":{"ID":189477,"DIS_CODE":0,"TOWNNAME":"西港區","LI":"檨林里","LIN":"10鄰","STREET":" ","SECT":" ","MAREA":"檨子林","LANE":" ","ALLEY":" ","HOUSE_NO":"８２號之２１","E_COORD97":171281.98000000001,"N_COORD97":2559637.25,"ADDRESS":"檨子林８２號之２１","OBJECTID":189476},"geometry":{"x":171281.98000000045,"y":2559637.25}},{"attributes":{"ID":189478,"DIS_CODE":0,"TOWNNAME":"西港區","LI":"檨林里","LIN":"10鄰","STREET":" ","SECT":" ","MAREA":"檨子林","LANE":" ","ALLEY":" ","HOUSE_NO":"８２號之２２","E_COORD97":171281.29999999999,"N_COORD97":2559632.5299999998,"ADDRESS":"檨子林８２號之２２","OBJECTID":189477},"geometry":{"x":171281.30000000075,"y":2559632.5300000031}},{"attributes":{"ID":189479,"DIS_CODE":0,"TOWNNAME":"西港區","LI":"檨林里","LIN":"10鄰","STREET":" ","SECT":" ","MAREA":"檨子林","LANE":" ","ALLEY":" ","HOUSE_NO":"８２號之２３","E_COORD97":171280.19,"N_COORD97":2559627.1400000001,"ADDRESS":"檨子林８２號之２３","OBJECTID":189478},"geometry":{"x":171280.19000000041,"y":2559627.1400000025}},{"attributes":{"ID":189480,"DIS_CODE":0,"TOWNNAME":"西港區","LI":"檨林里","LIN":"10鄰","STREET":" ","SECT":" ","MAREA":"檨子林","LANE":" ","ALLEY":" ","HOUSE_NO":"８２號之２５","E_COORD97":171279.01999999999,"N_COORD97":2559618.1200000001,"ADDRESS":"檨子林８２號之２５","OBJECTID":189479},"geometry":{"x":171279.01999999955,"y":2559618.1200000029}},{"attributes":{"ID":189481,"DIS_CODE":0,"TOWNNAME":"西港區","LI":"檨林里","LIN":"10鄰","STREET":" ","SECT":" ","MAREA":"檨子林","LANE":" ","ALLEY":" ","HOUSE_NO":"８２號之２６","E_COORD97":171277.88,"N_COORD97":2559613,"ADDRESS":"檨子林８２號之２６","OBJECTID":189480},"geometry":{"x":171277.88000000082,"y":2559612.9999999981}},{"attributes":{"ID":189482,"DIS_CODE":0,"TOWNNAME":"西港區","LI":"檨林里","LIN":"10鄰","STREET":" ","SECT":" ","MAREA":"檨子林","LANE":" ","ALLEY":" ","HOUSE_NO":"８２號之６","E_COORD97":171300.56,"N_COORD97":2559622.4900000002,"ADDRESS":"檨子林８２號之６","OBJECTID":189481},"geometry":{"x":171300.55999999959,"y":2559622.4900000002}},{"attributes":{"ID":189483,"DIS_CODE":0,"TOWNNAME":"西港區","LI":"檨林里","LIN":"10鄰","STREET":" ","SECT":" ","MAREA":"檨子林","LANE":" ","ALLEY":" ","HOUSE_NO":"８２號之７","E_COORD97":171301.20000000001,"N_COORD97":2559626.9700000002,"ADDRESS":"檨子林８２號之７","OBJECTID":189482},"geometry":{"x":171301.20000000112,"y":2559626.9700000007}},{"attributes":{"ID":189484,"DIS_CODE":0,"TOWNNAME":"西港區","LI":"檨林里","LIN":"10鄰","STREET":" ","SECT":" ","MAREA":"檨子林","LANE":" ","ALLEY":" ","HOUSE_NO":"８２號之８","E_COORD97":171302.20999999999,"N_COORD97":2559631.75,"ADDRESS":"檨子林８２號之８","OBJECTID":189483},"geometry":{"x":171302.21000000183,"y":2559631.7500000037}},{"attributes":{"ID":189485,"DIS_CODE":0,"TOWNNAME":"西港區","LI":"檨林里","LIN":"10鄰","STREET":" ","SECT":" ","MAREA":"檨子林","LANE":" ","ALLEY":" ","HOUSE_NO":"８２號之９","E_COORD97":171302.95999999999,"N_COORD97":2559636.5499999998,"ADDRESS":"檨子林８２號之９","OBJECTID":189484},"geometry":{"x":171302.96000000089,"y":2559636.5500000007}},{"attributes":{"ID":189486,"DIS_CODE":0,"TOWNNAME":"西港區","LI":"檨林里","LIN":"10鄰","STREET":" ","SECT":" ","MAREA":"檨子林","LANE":" ","ALLEY":" ","HOUSE_NO":"８２號","E_COORD97":171319.37,"N_COORD97":2559636.6400000001,"ADDRESS":"檨子林８２號","OBJECTID":189485},"geometry":{"x":171319.37000000011,"y":2559636.6400000043}},{"attributes":{"ID":189487,"DIS_CODE":0,"TOWNNAME":"西港區","LI":"檨林里","LIN":"10鄰","STREET":" ","SECT":" ","MAREA":"檨子林","LANE":" ","ALLEY":" ","HOUSE_NO":"８３號","E_COORD97":171326.07000000001,"N_COORD97":2559664.7400000002,"ADDRESS":"檨子林８３號","OBJECTID":189486},"geometry":{"x":171326.07000000123,"y":2559664.7400000002}},{"attributes":{"ID":189488,"DIS_CODE":0,"TOWNNAME":"西港區","LI":"檨林里","LIN":"10鄰","STREET":" ","SECT":" ","MAREA":"檨子林","LANE":" ","ALLEY":" ","HOUSE_NO":"８４號","E_COORD97":171327.72,"N_COORD97":2559676.8399999999,"ADDRESS":"檨子林８４號","OBJECTID":189487},"geometry":{"x":171327.72000000067,"y":2559676.8400000017}},{"attributes":{"ID":189489,"DIS_CODE":0,"TOWNNAME":"西港區","LI":"檨林里","LIN":"10鄰","STREET":" ","SECT":" ","MAREA":"檨子林","LANE":" ","ALLEY":" ","HOUSE_NO":"８５號之１","E_COORD97":171304.32999999999,"N_COORD97":2559724.6499999999,"ADDRESS":"檨子林８５號之１","OBJECTID":189488},"geometry":{"x":171304.33000000007,"y":2559724.6500000041}},{"attributes":{"ID":189490,"DIS_CODE":0,"TOWNNAME":"西港區","LI":"檨林里","LIN":"10鄰","STREET":" ","SECT":" ","MAREA":"檨子林","LANE":" ","ALLEY":" ","HOUSE_NO":"８５號","E_COORD97":171337.64999999999,"N_COORD97":2559704.8900000001,"ADDRESS":"檨子林８５號","OBJECTID":189489},"geometry":{"x":171337.6500000013,"y":2559704.8900000006}},{"attributes":{"ID":189491,"DIS_CODE":0,"TOWNNAME":"西港區","LI":"檨林里","LIN":"10鄰","STREET":" ","SECT":" ","MAREA":"檨子林","LANE":" ","ALLEY":" ","HOUSE_NO":"８６號之１０","E_COORD97":171326.10999999999,"N_COORD97":2559857.5699999998,"ADDRESS":"檨子林８６號之１０","OBJECTID":189490},"geometry":{"x":171326.11000000127,"y":2559857.5700000022}},{"attributes":{"ID":189492,"DIS_CODE":0,"TOWNNAME":"西港區","LI":"檨林里","LIN":"10鄰","STREET":" ","SECT":" ","MAREA":"檨子林","LANE":" ","ALLEY":" ","HOUSE_NO":"８６號之１１","E_COORD97":171315.91,"N_COORD97":2559866.3300000001,"ADDRESS":"檨子林８６號之１１","OBJECTID":189491},"geometry":{"x":171315.91000000015,"y":2559866.3300000019}},{"attributes":{"ID":189493,"DIS_CODE":0,"TOWNNAME":"西港區","LI":"檨林里","LIN":"10鄰","STREET":" ","SECT":" ","MAREA":"檨子林","LANE":" ","ALLEY":" ","HOUSE_NO":"８６號之１２","E_COORD97":171353.79000000001,"N_COORD97":2559875.3700000001,"ADDRESS":"檨子林８６號之１２","OBJECTID":189492},"geometry":{"x":171353.79000000004,"y":2559875.370000001}},{"attributes":{"ID":189494,"DIS_CODE":0,"TOWNNAME":"西港區","LI":"檨林里","LIN":"10鄰","STREET":" ","SECT":" ","MAREA":"檨子林","LANE":" ","ALLEY":" ","HOUSE_NO":"８６號之１３","E_COORD97":171331.29000000001,"N_COORD97":2559856.4900000002,"ADDRESS":"檨子林８６號之１３","OBJECTID":189493},"geometry":{"x":171331.29000000097,"y":2559856.4900000002}},{"attributes":{"ID":189495,"DIS_CODE":0,"TOWNNAME":"西港區","LI":"檨林里","LIN":"10鄰","STREET":" ","SECT":" ","MAREA":"檨子林","LANE":" ","ALLEY":" ","HOUSE_NO":"８６號之１９","E_COORD97":171341.75,"N_COORD97":2559916.6699999999,"ADDRESS":"檨子林８６號之１９","OBJECTID":189494},"geometry":{"x":171341.75000000093,"y":2559916.6699999999}},{"attributes":{"ID":189496,"DIS_CODE":0,"TOWNNAME":"西港區","LI":"檨林里","LIN":"10鄰","STREET":" ","SECT":" ","MAREA":"檨子林","LANE":" ","ALLEY":" ","HOUSE_NO":"８６號之１","E_COORD97":171305.06,"N_COORD97":2559745.2799999998,"ADDRESS":"檨子林８６號之１","OBJECTID":189495},"geometry":{"x":171305.06000000052,"y":2559745.2799999993}},{"attributes":{"ID":189497,"DIS_CODE":0,"TOWNNAME":"西港區","LI":"檨林里","LIN":"10鄰","STREET":" ","SECT":" ","MAREA":"檨子林","LANE":" ","ALLEY":" ","HOUSE_NO":"８６號之２０","E_COORD97":171371.16,"N_COORD97":2559970.54,"ADDRESS":"檨子林８６號之２０","OBJECTID":189496},"geometry":{"x":171371.16000000108,"y":2559970.5399999991}},{"attributes":{"ID":189498,"DIS_CODE":0,"TOWNNAME":"西港區","LI":"檨林里","LIN":"10鄰","STREET":" ","SECT":" ","MAREA":"檨子林","LANE":" ","ALLEY":" ","HOUSE_NO":"８６號之２","E_COORD97":171308.64000000001,"N_COORD97":2559762.8399999999,"ADDRESS":"檨子林８６號之２","OBJECTID":189497},"geometry":{"x":171308.63999999966,"y":2559762.8399999999}},{"attributes":{"ID":189499,"DIS_CODE":0,"TOWNNAME":"西港區","LI":"檨林里","LIN":"10鄰","STREET":" ","SECT":" ","MAREA":"檨子林","LANE":" ","ALLEY":" ","HOUSE_NO":"８６號之３０","E_COORD97":171320.72,"N_COORD97":2559864.8100000001,"ADDRESS":"檨子林８６號之３０","OBJECTID":189498},"geometry":{"x":171320.72000000067,"y":2559864.8100000005}},{"attributes":{"ID":189500,"DIS_CODE":0,"TOWNNAME":"西港區","LI":"檨林里","LIN":"10鄰","STREET":" ","SECT":" ","MAREA":"檨子林","LANE":" ","ALLEY":" ","HOUSE_NO":"８６號之４","E_COORD97":171314.91,"N_COORD97":2559781.0800000001,"ADDRESS":"檨子林８６號之４","OBJECTID":189499},"geometry":{"x":171314.91000000108,"y":2559781.0800000001}},{"attributes":{"ID":189501,"DIS_CODE":0,"TOWNNAME":"西港區","LI":"檨林里","LIN":"10鄰","STREET":" ","SECT":" ","MAREA":"檨子林","LANE":" ","ALLEY":" ","HOUSE_NO":"８６號之５","E_COORD97":171316.82000000001,"N_COORD97":2559788.48,"ADDRESS":"檨子林８６號之５","OBJECTID":189500},"geometry":{"x":171316.8200000003,"y":2559788.4800000004}},{"attributes":{"ID":189502,"DIS_CODE":0,"TOWNNAME":"西港區","LI":"檨林里","LIN":"10鄰","STREET":" ","SECT":" ","MAREA":"檨子林","LANE":" ","ALLEY":" ","HOUSE_NO":"８６號之９","E_COORD97":171324.72,"N_COORD97":2559821.8500000001,"ADDRESS":"檨子林８６號之９","OBJECTID":189501},"geometry":{"x":171324.72000000067,"y":2559821.8500000015}},{"attributes":{"ID":189503,"DIS_CODE":0,"TOWNNAME":"西港區","LI":"檨林里","LIN":"10鄰","STREET":" ","SECT":" ","MAREA":"檨子林","LANE":" ","ALLEY":" ","HOUSE_NO":"８６號","E_COORD97":171339.85999999999,"N_COORD97":2559730.9100000001,"ADDRESS":"檨子林８６號","OBJECTID":189502},"geometry":{"x":171339.86000000034,"y":2559730.910000002}},{"attributes":{"ID":189504,"DIS_CODE":0,"TOWNNAME":"西港區","LI":"檨林里","LIN":"10鄰","STREET":" ","SECT":" ","MAREA":"檨子林","LANE":" ","ALLEY":" ","HOUSE_NO":"８７號之１","E_COORD97":171366.29999999999,"N_COORD97":2559790.3999999999,"ADDRESS":"檨子林８７號之１","OBJECTID":189503},"geometry":{"x":171366.30000000075,"y":2559790.3999999985}},{"attributes":{"ID":189505,"DIS_CODE":0,"TOWNNAME":"西港區","LI":"檨林里","LIN":"10鄰","STREET":" ","SECT":" ","MAREA":"檨子林","LANE":" ","ALLEY":" ","HOUSE_NO":"８７號之３","E_COORD97":171359.87,"N_COORD97":2559755.02,"ADDRESS":"檨子林８７號之３","OBJECTID":189504},"geometry":{"x":171359.87000000011,"y":2559755.0200000033}},{"attributes":{"ID":189506,"DIS_CODE":0,"TOWNNAME":"西港區","LI":"檨林里","LIN":"10鄰","STREET":" ","SECT":" ","MAREA":"檨子林","LANE":" ","ALLEY":" ","HOUSE_NO":"８７號","E_COORD97":171361.54999999999,"N_COORD97":2559762.3100000001,"ADDRESS":"檨子林８７號","OBJECTID":189505},"geometry":{"x":171361.55000000075,"y":2559762.3100000024}},{"attributes":{"ID":189507,"DIS_CODE":0,"TOWNNAME":"西港區","LI":"檨林里","LIN":"10鄰","STREET":" ","SECT":" ","MAREA":"檨子林","LANE":" ","ALLEY":" ","HOUSE_NO":"８８號之１","E_COORD97":171346.01999999999,"N_COORD97":2559800.3799999999,"ADDRESS":"檨子林８８號之１","OBJECTID":189506},"geometry":{"x":171346.02000000048,"y":2559800.3800000008}},{"attributes":{"ID":189508,"DIS_CODE":0,"TOWNNAME":"西港區","LI":"檨林里","LIN":"10鄰","STREET":" ","SECT":" ","MAREA":"檨子林","LANE":" ","ALLEY":" ","HOUSE_NO":"８８號之７","E_COORD97":171320.23000000001,"N_COORD97":2559810.29,"ADDRESS":"檨子林８８號之７","OBJECTID":189507},"geometry":{"x":171320.23000000138,"y":2559810.2900000028}},{"attributes":{"ID":189509,"DIS_CODE":0,"TOWNNAME":"西港區","LI":"檨林里","LIN":"10鄰","STREET":" ","SECT":" ","MAREA":"檨子林","LANE":" ","ALLEY":" ","HOUSE_NO":"８８號","E_COORD97":171340.82000000001,"N_COORD97":2559767.9199999999,"ADDRESS":"檨子林８８號","OBJECTID":189508},"geometry":{"x":171340.82000000216,"y":2559767.9200000018}},{"attributes":{"ID":189510,"DIS_CODE":0,"TOWNNAME":"北門區","LI":"永華里","LIN":"10鄰","STREET":" ","SECT":" ","MAREA":"井子\u25A0","LANE":" ","ALLEY":" ","HOUSE_NO":"８１之３號","E_COORD97":159021.51000000001,"N_COORD97":2573549.1000000001,"ADDRESS":"井子\u25A0８１之３號","OBJECTID":189509},"geometry":{"x":159021.50999999978,"y":2573549.0999999996}},{"attributes":{"ID":189511,"DIS_CODE":0,"TOWNNAME":"北門區","LI":"永華里","LIN":"10鄰","STREET":" ","SECT":" ","MAREA":"井子\u25A0","LANE":" ","ALLEY":" ","HOUSE_NO":"８４號","E_COORD97":159074.26000000001,"N_COORD97":2573570.48,"ADDRESS":"井子\u25A0８４號","OBJECTID":189510},"geometry":{"x":159074.26000000164,"y":2573570.4800000004}},{"attributes":{"ID":189512,"DIS_CODE":0,"TOWNNAME":"北門區","LI":"永華里","LIN":"10鄰","STREET":" ","SECT":" ","MAREA":"井子\u25A0","LANE":" ","ALLEY":" ","HOUSE_NO":"８６號之２","E_COORD97":159054.39999999999,"N_COORD97":2573613.8100000001,"ADDRESS":"井子\u25A0８６號之２","OBJECTID":189511},"geometry":{"x":159054.4000000013,"y":2573613.8100000042}},{"attributes":{"ID":189513,"DIS_CODE":0,"TOWNNAME":"北門區","LI":"永華里","LIN":"10鄰","STREET":" ","SECT":" ","MAREA":"井子\u25A0","LANE":" ","ALLEY":" ","HOUSE_NO":"８６號","E_COORD97":159072.60999999999,"N_COORD97":2573587.0499999998,"ADDRESS":"井子\u25A0８６號","OBJECTID":189512},"geometry":{"x":159072.61000000127,"y":2573587.0500000026}},{"attributes":{"ID":189514,"DIS_CODE":0,"TOWNNAME":"北門區","LI":"永華里","LIN":"10鄰","STREET":" ","SECT":" ","MAREA":"井子\u25A0","LANE":" ","ALLEY":" ","HOUSE_NO":"８７號之２","E_COORD97":159096.25,"N_COORD97":2573615.0899999999,"ADDRESS":"井子\u25A0８７號之２","OBJECTID":189513},"geometry":{"x":159096.25,"y":2573615.0900000017}},{"attributes":{"ID":189515,"DIS_CODE":0,"TOWNNAME":"北門區","LI":"永華里","LIN":"10鄰","STREET":" ","SECT":" ","MAREA":"井子\u25A0","LANE":" ","ALLEY":" ","HOUSE_NO":"８７號之３","E_COORD97":159080.63,"N_COORD97":2573604.4700000002,"ADDRESS":"井子\u25A0８７號之３","OBJECTID":189514},"geometry":{"x":159080.63000000082,"y":2573604.4700000025}},{"attributes":{"ID":189516,"DIS_CODE":0,"TOWNNAME":"北門區","LI":"永華里","LIN":"10鄰","STREET":" ","SECT":" ","MAREA":"井子\u25A0","LANE":" ","ALLEY":" ","HOUSE_NO":"８７號","E_COORD97":159101.04999999999,"N_COORD97":2573615.7599999998,"ADDRESS":"井子\u25A0８７號","OBJECTID":189515},"geometry":{"x":159101.04999999888,"y":2573615.7599999998}},{"attributes":{"ID":189517,"DIS_CODE":0,"TOWNNAME":"北門區","LI":"玉港里","LIN":"10鄰","STREET":" ","SECT":" ","MAREA":"灰\u25A0港","LANE":" ","ALLEY":" ","HOUSE_NO":"１０１號","E_COORD97":161705.54000000001,"N_COORD97":2573599.2000000002,"ADDRESS":"灰\u25A0港１０１號","OBJECTID":189516},"geometry":{"x":161705.54000000097,"y":2573599.1999999993}},{"attributes":{"ID":189518,"DIS_CODE":0,"TOWNNAME":"北門區","LI":"玉港里","LIN":"10鄰","STREET":" ","SECT":" ","MAREA":"灰\u25A0港","LANE":" ","ALLEY":" ","HOUSE_NO":"１０２號","E_COORD97":161725.37,"N_COORD97":2573603.9199999999,"ADDRESS":"灰\u25A0港１０２號","OBJECTID":189517},"geometry":{"x":161725.37000000104,"y":2573603.9200000018}},{"attributes":{"ID":189519,"DIS_CODE":0,"TOWNNAME":"北門區","LI":"玉港里","LIN":"10鄰","STREET":" ","SECT":" ","MAREA":"灰\u25A0港","LANE":" ","ALLEY":" ","HOUSE_NO":"１０３之１號","E_COORD97":161661.10999999999,"N_COORD97":2573542.0299999998,"ADDRESS":"灰\u25A0港１０３之１號","OBJECTID":189518},"geometry":{"x":161661.1100000022,"y":2573542.0299999993}},{"attributes":{"ID":189520,"DIS_CODE":0,"TOWNNAME":"北門區","LI":"玉港里","LIN":"10鄰","STREET":" ","SECT":" ","MAREA":"灰\u25A0港","LANE":" ","ALLEY":" ","HOUSE_NO":"９４號","E_COORD97":161729.51000000001,"N_COORD97":2573645.73,"ADDRESS":"灰\u25A0港９４號","OBJECTID":189519},"geometry":{"x":161729.51000000071,"y":2573645.7300000023}},{"attributes":{"ID":189521,"DIS_CODE":0,"TOWNNAME":"北門區","LI":"玉港里","LIN":"10鄰","STREET":" ","SECT":" ","MAREA":"灰\u25A0港","LANE":" ","ALLEY":" ","HOUSE_NO":"９５號","E_COORD97":161733.73999999999,"N_COORD97":2573625.5699999998,"ADDRESS":"灰\u25A0港９５號","OBJECTID":189520},"geometry":{"x":161733.74000000115,"y":2573625.570000004}},{"attributes":{"ID":189522,"DIS_CODE":0,"TOWNNAME":"北門區","LI":"玉港里","LIN":"10鄰","STREET":" ","SECT":" ","MAREA":"灰\u25A0港","LANE":" ","ALLEY":" ","HOUSE_NO":"９６號","E_COORD97":161742.37,"N_COORD97":2573638.6499999999,"ADDRESS":"灰\u25A0港９６號","OBJECTID":189521},"geometry":{"x":161742.37000000104,"y":2573638.6500000041}},{"attributes":{"ID":189523,"DIS_CODE":0,"TOWNNAME":"北門區","LI":"玉港里","LIN":"10鄰","STREET":" ","SECT":" ","MAREA":"灰\u25A0港","LANE":" ","ALLEY":" ","HOUSE_NO":"９８號","E_COORD97":161702.78,"N_COORD97":2573619.4199999999,"ADDRESS":"灰\u25A0港９８號","OBJECTID":189522},"geometry":{"x":161702.78000000119,"y":2573619.4200000037}},{"attributes":{"ID":189524,"DIS_CODE":0,"TOWNNAME":"北門區","LI":"玉港里","LIN":"10鄰","STREET":" ","SECT":" ","MAREA":"灰\u25A0港","LANE":" ","ALLEY":" ","HOUSE_NO":"９９號","E_COORD97":161716.60999999999,"N_COORD97":2573626.77,"ADDRESS":"灰\u25A0港９９號","OBJECTID":189523},"geometry":{"x":161716.61000000034,"y":2573626.7700000033}},{"attributes":{"ID":189525,"DIS_CODE":0,"TOWNNAME":"後壁區","LI":"頂安里","LIN":"10鄰","STREET":" ","SECT":" ","MAREA":"頂寮","LANE":" ","ALLEY":" ","HOUSE_NO":"１０７之５號","E_COORD97":183581.23000000001,"N_COORD97":2581218.9399999999,"ADDRESS":"頂寮１０７之５號","OBJECTID":189524},"geometry":{"x":183581.23000000138,"y":2581218.9399999995}},{"attributes":{"ID":189526,"DIS_CODE":0,"TOWNNAME":"後壁區","LI":"頂安里","LIN":"10鄰","STREET":" ","SECT":" ","MAREA":"頂寮","LANE":" ","ALLEY":" ","HOUSE_NO":"１２４號之１","E_COORD97":183675.06,"N_COORD97":2581212.1400000001,"ADDRESS":"頂寮１２４之１號","OBJECTID":189525},"geometry":{"x":183675.06000000052,"y":2581212.1400000006}},{"attributes":{"ID":189527,"DIS_CODE":0,"TOWNNAME":"東區","LI":"後甲里","LIN":"5鄰","STREET":"裕農路","SECT":" ","MAREA":" ","LANE":"６２１巷","ALLEY":"３６弄","HOUSE_NO":"２５號六樓之２","E_COORD97":171690.42000000001,"N_COORD97":2543367.3900000001,"ADDRESS":"裕農路６２１巷３６弄２５號六樓之２","OBJECTID":189526},"geometry":{"x":171690.41999999993,"y":2543367.3900000006}},{"attributes":{"ID":189528,"DIS_CODE":0,"TOWNNAME":"東區","LI":"後甲里","LIN":"5鄰","STREET":"裕農路","SECT":" ","MAREA":" ","LANE":"６２１巷","ALLEY":"３６弄","HOUSE_NO":"２５號四樓","E_COORD97":171690.42000000001,"N_COORD97":2543367.3900000001,"ADDRESS":"裕農路６２１巷３６弄２５號四樓","OBJECTID":189527},"geometry":{"x":171690.41999999993,"y":2543367.3900000006}},{"attributes":{"ID":189529,"DIS_CODE":0,"TOWNNAME":"永康區","LI":"網寮里","LIN":"21鄰","STREET":"文化路","SECT":" ","MAREA":" ","LANE":"２４２巷","ALLEY":" ","HOUSE_NO":"３號","E_COORD97":173564.59,"N_COORD97":2546144.2599999998,"ADDRESS":"文化路２４２巷３號","OBJECTID":189528},"geometry":{"x":173564.59000000078,"y":2546144.2599999998}},{"attributes":{"ID":189530,"DIS_CODE":0,"TOWNNAME":"歸仁區","LI":"南興里","LIN":"40鄰","STREET":"民生六街","SECT":" ","MAREA":" ","LANE":" ","ALLEY":" ","HOUSE_NO":"１９號","E_COORD97":176179.79000000001,"N_COORD97":2540839.29,"ADDRESS":"民生六街１９號","OBJECTID":189529},"geometry":{"x":176179.79000000004,"y":2540839.290000001}},{"attributes":{"ID":189531,"DIS_CODE":0,"TOWNNAME":"後壁區","LI":"頂安里","LIN":"10鄰","STREET":" ","SECT":" ","MAREA":"頂寮","LANE":" ","ALLEY":" ","HOUSE_NO":"１３８號之１","E_COORD97":183347.01999999999,"N_COORD97":2581359.9900000002,"ADDRESS":"頂寮１３８之１號","OBJECTID":189530},"geometry":{"x":183347.01999999955,"y":2581359.9900000021}},{"attributes":{"ID":189532,"DIS_CODE":0,"TOWNNAME":"後壁區","LI":"頂安里","LIN":"10鄰","STREET":" ","SECT":" ","MAREA":"頂寮","LANE":" ","ALLEY":" ","HOUSE_NO":"２３５號之２","E_COORD97":184110.56,"N_COORD97":2582593.1000000001,"ADDRESS":"頂寮２３５之２號","OBJECTID":189531},"geometry":{"x":184110.56000000052,"y":2582593.1000000015}},{"attributes":{"ID":189533,"DIS_CODE":0,"TOWNNAME":"後壁區","LI":"頂安里","LIN":"10鄰","STREET":" ","SECT":" ","MAREA":"頂寮","LANE":" ","ALLEY":" ","HOUSE_NO":"３２１號","E_COORD97":184015.01000000001,"N_COORD97":2582954.3399999999,"ADDRESS":"頂寮３２１號","OBJECTID":189532},"geometry":{"x":184015.00999999978,"y":2582954.3400000017}},{"attributes":{"ID":189534,"DIS_CODE":0,"TOWNNAME":"官田區","LI":"社子里","LIN":"10鄰","STREET":" ","SECT":" ","MAREA":"六\u25A0","LANE":" ","ALLEY":" ","HOUSE_NO":"１號之１","E_COORD97":185166.01000000001,"N_COORD97":2563072.3300000001,"ADDRESS":"六\u25A0１號之１","OBJECTID":189533},"geometry":{"x":185166.00999999978,"y":2563072.3300000001}},{"attributes":{"ID":189535,"DIS_CODE":0,"TOWNNAME":"官田區","LI":"社子里","LIN":"10鄰","STREET":" ","SECT":" ","MAREA":"六\u25A0","LANE":" ","ALLEY":" ","HOUSE_NO":"１號之２","E_COORD97":185150.82999999999,"N_COORD97":2563059.0800000001,"ADDRESS":"六\u25A0１號之２","OBJECTID":189534},"geometry":{"x":185150.83000000007,"y":2563059.0800000001}},{"attributes":{"ID":189536,"DIS_CODE":0,"TOWNNAME":"官田區","LI":"社子里","LIN":"10鄰","STREET":" ","SECT":" ","MAREA":"六\u25A0","LANE":" ","ALLEY":" ","HOUSE_NO":"１號之３","E_COORD97":185157.26999999999,"N_COORD97":2563044.6699999999,"ADDRESS":"六\u25A0１號之３","OBJECTID":189535},"geometry":{"x":185157.26999999955,"y":2563044.6700000018}},{"attributes":{"ID":189537,"DIS_CODE":0,"TOWNNAME":"官田區","LI":"社子里","LIN":"10鄰","STREET":" ","SECT":" ","MAREA":"六\u25A0","LANE":" ","ALLEY":" ","HOUSE_NO":"１號","E_COORD97":185203.14999999999,"N_COORD97":2563095.1299999999,"ADDRESS":"六\u25A0１號","OBJECTID":189536},"geometry":{"x":185203.15000000037,"y":2563095.129999999}},{"attributes":{"ID":189538,"DIS_CODE":0,"TOWNNAME":"官田區","LI":"社子里","LIN":"10鄰","STREET":" ","SECT":" ","MAREA":"六\u25A0","LANE":" ","ALLEY":" ","HOUSE_NO":"２號之１","E_COORD97":185201.51000000001,"N_COORD97":2563045.9900000002,"ADDRESS":"六\u25A0２號之１","OBJECTID":189537},"geometry":{"x":185201.50999999978,"y":2563045.9900000021}},{"attributes":{"ID":189539,"DIS_CODE":0,"TOWNNAME":"官田區","LI":"社子里","LIN":"10鄰","STREET":" ","SECT":" ","MAREA":"六\u25A0","LANE":" ","ALLEY":" ","HOUSE_NO":"２號","E_COORD97":185208.45999999999,"N_COORD97":2563070.9500000002,"ADDRESS":"六\u25A0２號","OBJECTID":189538},"geometry":{"x":185208.46000000089,"y":2563070.950000003}},{"attributes":{"ID":189540,"DIS_CODE":0,"TOWNNAME":"官田區","LI":"社子里","LIN":"10鄰","STREET":" ","SECT":" ","MAREA":"六\u25A0","LANE":" ","ALLEY":" ","HOUSE_NO":"３號之５","E_COORD97":185207.64000000001,"N_COORD97":2563132.54,"ADDRESS":"六\u25A0３號之５","OBJECTID":189539},"geometry":{"x":185207.63999999966,"y":2563132.540000001}},{"attributes":{"ID":189541,"DIS_CODE":0,"TOWNNAME":"官田區","LI":"社子里","LIN":"10鄰","STREET":" ","SECT":" ","MAREA":"六\u25A0","LANE":" ","ALLEY":" ","HOUSE_NO":"３號之６","E_COORD97":185207.70000000001,"N_COORD97":2563137.3300000001,"ADDRESS":"六\u25A0３號之６","OBJECTID":189540},"geometry":{"x":185207.70000000019,"y":2563137.3300000019}},{"attributes":{"ID":189542,"DIS_CODE":0,"TOWNNAME":"官田區","LI":"社子里","LIN":"10鄰","STREET":" ","SECT":" ","MAREA":"六\u25A0","LANE":" ","ALLEY":" ","HOUSE_NO":"３號","E_COORD97":185223.47,"N_COORD97":2563097.77,"ADDRESS":"六\u25A0３號","OBJECTID":189541},"geometry":{"x":185223.47000000067,"y":2563097.7700000014}},{"attributes":{"ID":189543,"DIS_CODE":0,"TOWNNAME":"官田區","LI":"社子里","LIN":"10鄰","STREET":" ","SECT":" ","MAREA":"六\u25A0","LANE":" ","ALLEY":" ","HOUSE_NO":"４號","E_COORD97":185223.73999999999,"N_COORD97":2563052.7400000002,"ADDRESS":"六\u25A0４號","OBJECTID":189542},"geometry":{"x":185223.74000000115,"y":2563052.7400000002}},{"attributes":{"ID":189544,"DIS_CODE":0,"TOWNNAME":"官田區","LI":"社子里","LIN":"10鄰","STREET":" ","SECT":" ","MAREA":"六\u25A0","LANE":" ","ALLEY":" ","HOUSE_NO":"５號之１","E_COORD97":185181.60000000001,"N_COORD97":2562997.5800000001,"ADDRESS":"六\u25A0５號之１","OBJECTID":189543},"geometry":{"x":185181.60000000056,"y":2562997.5800000019}},{"attributes":{"ID":189545,"DIS_CODE":0,"TOWNNAME":"官田區","LI":"社子里","LIN":"10鄰","STREET":" ","SECT":" ","MAREA":"六\u25A0","LANE":" ","ALLEY":" ","HOUSE_NO":"５號之２","E_COORD97":185135.38,"N_COORD97":2562992.2599999998,"ADDRESS":"六\u25A0５號之２","OBJECTID":189544},"geometry":{"x":185135.38000000175,"y":2562992.2600000016}},{"attributes":{"ID":189546,"DIS_CODE":0,"TOWNNAME":"官田區","LI":"社子里","LIN":"10鄰","STREET":" ","SECT":" ","MAREA":"六\u25A0","LANE":" ","ALLEY":" ","HOUSE_NO":"５號","E_COORD97":185203.51999999999,"N_COORD97":2563000.96,"ADDRESS":"六\u25A0５號","OBJECTID":189545},"geometry":{"x":185203.52000000142,"y":2563000.9600000009}},{"attributes":{"ID":189547,"DIS_CODE":0,"TOWNNAME":"西港區","LI":"永樂里","LIN":"10鄰","STREET":" ","SECT":" ","MAREA":"大塭寮","LANE":" ","ALLEY":" ","HOUSE_NO":"９１號","E_COORD97":165707.81,"N_COORD97":2556259.25,"ADDRESS":"大塭寮９１號","OBJECTID":189546},"geometry":{"x":165707.81000000052,"y":2556259.2500000019}},{"attributes":{"ID":189548,"DIS_CODE":0,"TOWNNAME":"西港區","LI":"永樂里","LIN":"10鄰","STREET":" ","SECT":" ","MAREA":"大塭寮","LANE":" ","ALLEY":" ","HOUSE_NO":"９２號","E_COORD97":165728.01999999999,"N_COORD97":2556259.4900000002,"ADDRESS":"大塭寮９２號","OBJECTID":189547},"geometry":{"x":165728.02000000048,"y":2556259.4900000002}},{"attributes":{"ID":189549,"DIS_CODE":0,"TOWNNAME":"佳里區","LI":"嘉福里","LIN":"10鄰","STREET":" ","SECT":" ","MAREA":"下營","LANE":" ","ALLEY":" ","HOUSE_NO":"１０２號","E_COORD97":163154.38,"N_COORD97":2563395.54,"ADDRESS":"下營１０２號","OBJECTID":189548},"geometry":{"x":163154.38000000082,"y":2563395.5400000028}},{"attributes":{"ID":189550,"DIS_CODE":0,"TOWNNAME":"佳里區","LI":"嘉福里","LIN":"10鄰","STREET":" ","SECT":" ","MAREA":"下營","LANE":" ","ALLEY":" ","HOUSE_NO":"１０３號","E_COORD97":163142.35999999999,"N_COORD97":2563378.7999999998,"ADDRESS":"下營１０３號","OBJECTID":189549},"geometry":{"x":163142.36000000034,"y":2563378.8000000045}},{"attributes":{"ID":189551,"DIS_CODE":0,"TOWNNAME":"佳里區","LI":"嘉福里","LIN":"10鄰","STREET":" ","SECT":" ","MAREA":"下營","LANE":" ","ALLEY":" ","HOUSE_NO":"１０４號之１","E_COORD97":163113.66,"N_COORD97":2563373.7200000002,"ADDRESS":"下營１０４號之１","OBJECTID":189550},"geometry":{"x":163113.66000000108,"y":2563373.7200000025}},{"attributes":{"ID":189552,"DIS_CODE":0,"TOWNNAME":"佳里區","LI":"嘉福里","LIN":"10鄰","STREET":" ","SECT":" ","MAREA":"下營","LANE":" ","ALLEY":" ","HOUSE_NO":"１０４號之２","E_COORD97":163130.19,"N_COORD97":2563370.5299999998,"ADDRESS":"下營１０４號之２","OBJECTID":189551},"geometry":{"x":163130.18999999948,"y":2563370.5300000012}},{"attributes":{"ID":189553,"DIS_CODE":0,"TOWNNAME":"東區","LI":"後甲里","LIN":"5鄰","STREET":"裕農路","SECT":" ","MAREA":" ","LANE":"６２１巷","ALLEY":"３６弄","HOUSE_NO":"２５號四樓之１","E_COORD97":171690.42000000001,"N_COORD97":2543367.3900000001,"ADDRESS":"裕農路６２１巷３６弄２５號四樓之１","OBJECTID":189552},"geometry":{"x":171690.41999999993,"y":2543367.3900000006}},{"attributes":{"ID":189554,"DIS_CODE":0,"TOWNNAME":"東區","LI":"後甲里","LIN":"5鄰","STREET":"裕農路","SECT":" ","MAREA":" ","LANE":"６２１巷","ALLEY":"３６弄","HOUSE_NO":"２５號四樓之２","E_COORD97":171690.42000000001,"N_COORD97":2543367.3900000001,"ADDRESS":"裕農路６２１巷３６弄２５號四樓之２","OBJECTID":189553},"geometry":{"x":171690.41999999993,"y":2543367.3900000006}},{"attributes":{"ID":189555,"DIS_CODE":0,"TOWNNAME":"佳里區","LI":"嘉福里","LIN":"10鄰","STREET":" ","SECT":" ","MAREA":"下營","LANE":" ","ALLEY":" ","HOUSE_NO":"１０４號","E_COORD97":163127.53,"N_COORD97":2563385.5600000001,"ADDRESS":"下營１０４號","OBJECTID":189554},"geometry":{"x":163127.53000000026,"y":2563385.5600000005}},{"attributes":{"ID":189556,"DIS_CODE":0,"TOWNNAME":"佳里區","LI":"嘉福里","LIN":"10鄰","STREET":" ","SECT":" ","MAREA":"下營","LANE":" ","ALLEY":" ","HOUSE_NO":"１２０號之１","E_COORD97":163147.42999999999,"N_COORD97":2563351.9399999999,"ADDRESS":"下營１２０號之１","OBJECTID":189555},"geometry":{"x":163147.4299999997,"y":2563351.9399999995}},{"attributes":{"ID":189557,"DIS_CODE":0,"TOWNNAME":"佳里區","LI":"嘉福里","LIN":"10鄰","STREET":" ","SECT":" ","MAREA":"下營","LANE":" ","ALLEY":" ","HOUSE_NO":"９７號之１","E_COORD97":163136.51000000001,"N_COORD97":2563454.96,"ADDRESS":"下營９７號之１","OBJECTID":189556},"geometry":{"x":163136.51000000071,"y":2563454.9600000009}},{"attributes":{"ID":189558,"DIS_CODE":0,"TOWNNAME":"東區","LI":"後甲里","LIN":"5鄰","STREET":"裕農路","SECT":" ","MAREA":" ","LANE":"６２１巷","ALLEY":"３６弄","HOUSE_NO":"２５號四樓之３","E_COORD97":171690.42000000001,"N_COORD97":2543367.3900000001,"ADDRESS":"裕農路６２１巷３６弄２５號四樓之３","OBJECTID":189557},"geometry":{"x":171690.41999999993,"y":2543367.3900000006}},{"attributes":{"ID":189559,"DIS_CODE":0,"TOWNNAME":"佳里區","LI":"嘉福里","LIN":"10鄰","STREET":" ","SECT":" ","MAREA":"下營","LANE":" ","ALLEY":" ","HOUSE_NO":"９７號","E_COORD97":163115.94,"N_COORD97":2563426.3799999999,"ADDRESS":"下營９７號","OBJECTID":189558},"geometry":{"x":163115.94000000041,"y":2563426.379999999}},{"attributes":{"ID":189560,"DIS_CODE":0,"TOWNNAME":"佳里區","LI":"嘉福里","LIN":"10鄰","STREET":" ","SECT":" ","MAREA":"下營","LANE":" ","ALLEY":" ","HOUSE_NO":"９９號","E_COORD97":163129.82999999999,"N_COORD97":2563434.6499999999,"ADDRESS":"下營９９號","OBJECTID":189559},"geometry":{"x":163129.83000000007,"y":2563434.6500000022}},{"attributes":{"ID":189561,"DIS_CODE":0,"TOWNNAME":"安定區","LI":"蘇厝里","LIN":"22鄰","STREET":" ","SECT":" ","MAREA":"蘇厝","LANE":" ","ALLEY":" ","HOUSE_NO":"５０１號","E_COORD97":172919.72,"N_COORD97":2558919.25,"ADDRESS":"蘇厝５０１號","OBJECTID":189560},"geometry":{"x":172919.72000000067,"y":2558919.25}},{"attributes":{"ID":189562,"DIS_CODE":0,"TOWNNAME":"西港區","LI":"港東里","LIN":"22鄰","STREET":" ","SECT":" ","MAREA":"八份","LANE":" ","ALLEY":" ","HOUSE_NO":"１０８號","E_COORD97":169486.12,"N_COORD97":2559063.5099999998,"ADDRESS":"八份１０８號","OBJECTID":189561},"geometry":{"x":169486.12000000104,"y":2559063.5099999979}},{"attributes":{"ID":189563,"DIS_CODE":0,"TOWNNAME":"安定區","LI":"港口里","LIN":"22鄰","STREET":" ","SECT":" ","MAREA":"港口","LANE":" ","ALLEY":" ","HOUSE_NO":"４１４號之３","E_COORD97":171706.22,"N_COORD97":2555084.2999999998,"ADDRESS":"港口４１４號之３","OBJECTID":189562},"geometry":{"x":171706.21999999974,"y":2555084.3000000007}},{"attributes":{"ID":189564,"DIS_CODE":0,"TOWNNAME":"安定區","LI":"港南里","LIN":"22鄰","STREET":" ","SECT":" ","MAREA":"港口","LANE":" ","ALLEY":" ","HOUSE_NO":"１９１號","E_COORD97":171361.29550400001,"N_COORD97":2554508.0474200002,"ADDRESS":"港口１９１號","OBJECTID":189563},"geometry":{"x":171361.29550400004,"y":2554508.0474190023}},{"attributes":{"ID":189565,"DIS_CODE":0,"TOWNNAME":"學甲區","LI":"新達里","LIN":"22鄰","STREET":" ","SECT":" ","MAREA":"山寮","LANE":" ","ALLEY":" ","HOUSE_NO":"５７號之９","E_COORD97":168064.97,"N_COORD97":2570758.5699999998,"ADDRESS":"山寮５７號之９","OBJECTID":189564},"geometry":{"x":168064.96999999974,"y":2570758.5700000022}},{"attributes":{"ID":189566,"DIS_CODE":0,"TOWNNAME":"學甲區","LI":"新達里","LIN":"22鄰","STREET":" ","SECT":" ","MAREA":"山寮","LANE":" ","ALLEY":" ","HOUSE_NO":"５７號","E_COORD97":168216.28,"N_COORD97":2570774.9300000002,"ADDRESS":"山寮５７號","OBJECTID":189565},"geometry":{"x":168216.28000000026,"y":2570774.9300000016}},{"attributes":{"ID":189567,"DIS_CODE":0,"TOWNNAME":"學甲區","LI":"新達里","LIN":"22鄰","STREET":" ","SECT":" ","MAREA":"山寮","LANE":" ","ALLEY":" ","HOUSE_NO":"５８號之１０","E_COORD97":168257.63,"N_COORD97":2570847.4300000002,"ADDRESS":"山寮５８號之１０","OBJECTID":189566},"geometry":{"x":168257.62999999989,"y":2570847.4299999997}},{"attributes":{"ID":189568,"DIS_CODE":0,"TOWNNAME":"學甲區","LI":"新達里","LIN":"22鄰","STREET":" ","SECT":" ","MAREA":"山寮","LANE":" ","ALLEY":" ","HOUSE_NO":"５８號之２","E_COORD97":168340.23999999999,"N_COORD97":2570863.6200000001,"ADDRESS":"山寮５８號之２","OBJECTID":189567},"geometry":{"x":168340.24000000022,"y":2570863.6200000029}},{"attributes":{"ID":189569,"DIS_CODE":0,"TOWNNAME":"學甲區","LI":"新達里","LIN":"22鄰","STREET":" ","SECT":" ","MAREA":"山寮","LANE":" ","ALLEY":" ","HOUSE_NO":"５８號之３","E_COORD97":168221.59,"N_COORD97":2570833.2200000002,"ADDRESS":"山寮５８號之３","OBJECTID":189568},"geometry":{"x":168221.59000000078,"y":2570833.2200000007}},{"attributes":{"ID":189570,"DIS_CODE":0,"TOWNNAME":"學甲區","LI":"新達里","LIN":"22鄰","STREET":" ","SECT":" ","MAREA":"山寮","LANE":" ","ALLEY":" ","HOUSE_NO":"５８號","E_COORD97":168247.67999999999,"N_COORD97":2570779.6800000002,"ADDRESS":"山寮５８號","OBJECTID":189569},"geometry":{"x":168247.68000000063,"y":2570779.6800000034}},{"attributes":{"ID":189571,"DIS_CODE":0,"TOWNNAME":"學甲區","LI":"新達里","LIN":"22鄰","STREET":" ","SECT":" ","MAREA":"山寮","LANE":" ","ALLEY":" ","HOUSE_NO":"５９號","E_COORD97":168200.06,"N_COORD97":2571705.8100000001,"ADDRESS":"山寮５９號","OBJECTID":189570},"geometry":{"x":168200.05999999959,"y":2571705.8100000024}},{"attributes":{"ID":189572,"DIS_CODE":0,"TOWNNAME":"學甲區","LI":"新達里","LIN":"22鄰","STREET":" ","SECT":" ","MAREA":"山寮","LANE":" ","ALLEY":" ","HOUSE_NO":"６０號","E_COORD97":168333.07999999999,"N_COORD97":2571517.6800000002,"ADDRESS":"山寮６０號","OBJECTID":189571},"geometry":{"x":168333.07999999914,"y":2571517.6799999997}},{"attributes":{"ID":189573,"DIS_CODE":0,"TOWNNAME":"學甲區","LI":"新達里","LIN":"22鄰","STREET":" ","SECT":" ","MAREA":"山寮","LANE":" ","ALLEY":" ","HOUSE_NO":"６４號之１","E_COORD97":168376.95000000001,"N_COORD97":2570887.52,"ADDRESS":"山寮６４號之１","OBJECTID":189572},"geometry":{"x":168376.95000000112,"y":2570887.5199999996}},{"attributes":{"ID":189574,"DIS_CODE":0,"TOWNNAME":"學甲區","LI":"新達里","LIN":"22鄰","STREET":" ","SECT":" ","MAREA":"山寮","LANE":" ","ALLEY":" ","HOUSE_NO":"６４號","E_COORD97":168401.70999999999,"N_COORD97":2570901.0899999999,"ADDRESS":"山寮６４號","OBJECTID":189573},"geometry":{"x":168401.71000000183,"y":2570901.0899999999}},{"attributes":{"ID":189575,"DIS_CODE":0,"TOWNNAME":"學甲區","LI":"新達里","LIN":"22鄰","STREET":" ","SECT":" ","MAREA":"山寮","LANE":" ","ALLEY":" ","HOUSE_NO":"６５號","E_COORD97":168411.32000000001,"N_COORD97":2570878.5099999998,"ADDRESS":"山寮６５號","OBJECTID":189574},"geometry":{"x":168411.3200000003,"y":2570878.5099999998}},{"attributes":{"ID":189576,"DIS_CODE":0,"TOWNNAME":"學甲區","LI":"新達里","LIN":"22鄰","STREET":" ","SECT":" ","MAREA":"山寮","LANE":" ","ALLEY":" ","HOUSE_NO":"６６號","E_COORD97":168393.76999999999,"N_COORD97":2570855.4300000002,"ADDRESS":"山寮６６號","OBJECTID":189575},"geometry":{"x":168393.76999999955,"y":2570855.4299999997}},{"attributes":{"ID":189577,"DIS_CODE":0,"TOWNNAME":"學甲區","LI":"新達里","LIN":"22鄰","STREET":" ","SECT":" ","MAREA":"山寮","LANE":" ","ALLEY":" ","HOUSE_NO":"６７號","E_COORD97":168524.85999999999,"N_COORD97":2570897.3599999999,"ADDRESS":"山寮６７號","OBJECTID":189576},"geometry":{"x":168524.8600000022,"y":2570897.3600000013}},{"attributes":{"ID":189578,"DIS_CODE":0,"TOWNNAME":"學甲區","LI":"新達里","LIN":"22鄰","STREET":" ","SECT":" ","MAREA":"山寮","LANE":" ","ALLEY":" ","HOUSE_NO":"６８號之１０","E_COORD97":168502.45999999999,"N_COORD97":2570824.98,"ADDRESS":"山寮６８號之１０","OBJECTID":189577},"geometry":{"x":168502.46000000089,"y":2570824.9800000004}},{"attributes":{"ID":189579,"DIS_CODE":0,"TOWNNAME":"學甲區","LI":"新達里","LIN":"22鄰","STREET":" ","SECT":" ","MAREA":"山寮","LANE":" ","ALLEY":" ","HOUSE_NO":"６８號之１","E_COORD97":168378.14999999999,"N_COORD97":2570800.5499999998,"ADDRESS":"山寮６８號之１","OBJECTID":189578},"geometry":{"x":168378.15000000037,"y":2570800.5500000007}},{"attributes":{"ID":189580,"DIS_CODE":0,"TOWNNAME":"東區","LI":"後甲里","LIN":"5鄰","STREET":"裕農路","SECT":" ","MAREA":" ","LANE":"６２１巷","ALLEY":"３６弄","HOUSE_NO":"２３號六樓","E_COORD97":171666.53,"N_COORD97":2543360.1600000001,"ADDRESS":"裕農路６２１巷３６弄２３號六樓","OBJECTID":189579},"geometry":{"x":171666.53000000212,"y":2543360.160000002}},{"attributes":{"ID":189581,"DIS_CODE":0,"TOWNNAME":"北區","LI":"公園里","LIN":"21鄰","STREET":"公園路","SECT":" ","MAREA":" ","LANE":" ","ALLEY":" ","HOUSE_NO":"１３４號五樓之１３","E_COORD97":168781.78,"N_COORD97":2544406.4300000002,"ADDRESS":"公園路１３４號五樓之１３","OBJECTID":189580},"geometry":{"x":168781.78000000119,"y":2544406.4299999997}},{"attributes":{"ID":189582,"DIS_CODE":0,"TOWNNAME":"北區","LI":"公園里","LIN":"21鄰","STREET":"公園路","SECT":" ","MAREA":" ","LANE":" ","ALLEY":" ","HOUSE_NO":"１３４號五樓之１４","E_COORD97":168781.78,"N_COORD97":2544406.4300000002,"ADDRESS":"公園路１３４號五樓之１４","OBJECTID":189581},"geometry":{"x":168781.78000000119,"y":2544406.4299999997}},{"attributes":{"ID":189583,"DIS_CODE":0,"TOWNNAME":"學甲區","LI":"新達里","LIN":"22鄰","STREET":" ","SECT":" ","MAREA":"山寮","LANE":" ","ALLEY":" ","HOUSE_NO":"６８號之２０","E_COORD97":168516.81,"N_COORD97":2570630.1400000001,"ADDRESS":"山寮６８號之２０","OBJECTID":189582},"geometry":{"x":168516.80999999959,"y":2570630.1400000006}},{"attributes":{"ID":189584,"DIS_CODE":0,"TOWNNAME":"學甲區","LI":"新達里","LIN":"22鄰","STREET":" ","SECT":" ","MAREA":"山寮","LANE":" ","ALLEY":" ","HOUSE_NO":"６８號","E_COORD97":168549.38,"N_COORD97":2570899.4500000002,"ADDRESS":"山寮６８號","OBJECTID":189583},"geometry":{"x":168549.37999999989,"y":2570899.450000003}},{"attributes":{"ID":189585,"DIS_CODE":0,"TOWNNAME":"學甲區","LI":"新達里","LIN":"22鄰","STREET":" ","SECT":" ","MAREA":"山寮","LANE":" ","ALLEY":" ","HOUSE_NO":"７０號","E_COORD97":168598.25,"N_COORD97":2570909.8599999999,"ADDRESS":"山寮７０號","OBJECTID":189584},"geometry":{"x":168598.25000000093,"y":2570909.8599999994}},{"attributes":{"ID":189586,"DIS_CODE":0,"TOWNNAME":"學甲區","LI":"平和里","LIN":"22鄰","STREET":" ","SECT":" ","MAREA":"西平寮","LANE":" ","ALLEY":" ","HOUSE_NO":"３０號之２","E_COORD97":169200.09,"N_COORD97":2573260.0099999998,"ADDRESS":"西平寮３０號之２","OBJECTID":189585},"geometry":{"x":169200.08999999985,"y":2573260.0100000016}},{"attributes":{"ID":189587,"DIS_CODE":0,"TOWNNAME":"學甲區","LI":"平和里","LIN":"22鄰","STREET":" ","SECT":" ","MAREA":"西平寮","LANE":" ","ALLEY":" ","HOUSE_NO":"３０號之３","E_COORD97":169198.44,"N_COORD97":2573247.96,"ADDRESS":"西平寮３０號之３","OBJECTID":189586},"geometry":{"x":169198.44000000041,"y":2573247.9600000028}},{"attributes":{"ID":189588,"DIS_CODE":0,"TOWNNAME":"學甲區","LI":"平和里","LIN":"22鄰","STREET":" ","SECT":" ","MAREA":"西平寮","LANE":" ","ALLEY":" ","HOUSE_NO":"３１號","E_COORD97":169192.54000000001,"N_COORD97":2573270.5699999998,"ADDRESS":"西平寮３１號","OBJECTID":189587},"geometry":{"x":169192.54000000004,"y":2573270.5700000022}},{"attributes":{"ID":189589,"DIS_CODE":0,"TOWNNAME":"學甲區","LI":"三慶里","LIN":"22鄰","STREET":" ","SECT":" ","MAREA":"紅茄","LANE":" ","ALLEY":" ","HOUSE_NO":"８２號之２","E_COORD97":167272.45999999999,"N_COORD97":2575706.21,"ADDRESS":"紅茄８２號之２","OBJECTID":189588},"geometry":{"x":167272.45999999996,"y":2575706.2100000009}},{"attributes":{"ID":189590,"DIS_CODE":0,"TOWNNAME":"學甲區","LI":"三慶里","LIN":"22鄰","STREET":" ","SECT":" ","MAREA":"紅茄","LANE":" ","ALLEY":" ","HOUSE_NO":"８２號","E_COORD97":167273.14999999999,"N_COORD97":2575637.5499999998,"ADDRESS":"紅茄８２號","OBJECTID":189589},"geometry":{"x":167273.15000000037,"y":2575637.5500000026}},{"attributes":{"ID":189591,"DIS_CODE":0,"TOWNNAME":"學甲區","LI":"三慶里","LIN":"22鄰","STREET":" ","SECT":" ","MAREA":"紅茄","LANE":" ","ALLEY":" ","HOUSE_NO":"８３號","E_COORD97":167298.04000000001,"N_COORD97":2575610.7400000002,"ADDRESS":"紅茄８３號","OBJECTID":189590},"geometry":{"x":167298.04000000097,"y":2575610.7400000002}},{"attributes":{"ID":189592,"DIS_CODE":0,"TOWNNAME":"學甲區","LI":"三慶里","LIN":"22鄰","STREET":" ","SECT":" ","MAREA":"紅茄","LANE":" ","ALLEY":" ","HOUSE_NO":"８４號","E_COORD97":167305.66,"N_COORD97":2575628.3599999999,"ADDRESS":"紅茄８４號","OBJECTID":189591},"geometry":{"x":167305.66000000108,"y":2575628.3599999994}},{"attributes":{"ID":189593,"DIS_CODE":0,"TOWNNAME":"學甲區","LI":"三慶里","LIN":"22鄰","STREET":" ","SECT":" ","MAREA":"紅茄","LANE":" ","ALLEY":" ","HOUSE_NO":"８６號之１","E_COORD97":167338.64999999999,"N_COORD97":2575676.3900000001,"ADDRESS":"紅茄８６號之１","OBJECTID":189592},"geometry":{"x":167338.6500000013,"y":2575676.3900000025}},{"attributes":{"ID":189594,"DIS_CODE":0,"TOWNNAME":"學甲區","LI":"三慶里","LIN":"22鄰","STREET":" ","SECT":" ","MAREA":"紅茄","LANE":" ","ALLEY":" ","HOUSE_NO":"８６號","E_COORD97":167269.32000000001,"N_COORD97":2575711.9100000001,"ADDRESS":"紅茄８６號","OBJECTID":189593},"geometry":{"x":167269.32000000123,"y":2575711.910000002}},{"attributes":{"ID":189595,"DIS_CODE":0,"TOWNNAME":"學甲區","LI":"三慶里","LIN":"22鄰","STREET":" ","SECT":" ","MAREA":"紅茄","LANE":" ","ALLEY":" ","HOUSE_NO":"８９號","E_COORD97":167317.31,"N_COORD97":2575640.7000000002,"ADDRESS":"紅茄８９號","OBJECTID":189594},"geometry":{"x":167317.30999999866,"y":2575640.700000003}},{"attributes":{"ID":189596,"DIS_CODE":0,"TOWNNAME":"學甲區","LI":"三慶里","LIN":"22鄰","STREET":" ","SECT":" ","MAREA":"紅茄","LANE":" ","ALLEY":" ","HOUSE_NO":"９０號","E_COORD97":167331.81,"N_COORD97":2575622.8900000001,"ADDRESS":"紅茄９０號","OBJECTID":189595},"geometry":{"x":167331.81000000052,"y":2575622.8900000006}},{"attributes":{"ID":189597,"DIS_CODE":0,"TOWNNAME":"學甲區","LI":"豐和里","LIN":"22鄰","STREET":" ","SECT":" ","MAREA":"美和","LANE":" ","ALLEY":" ","HOUSE_NO":"６３號之１０","E_COORD97":168108.23999999999,"N_COORD97":2569134.52,"ADDRESS":"美和６３號之１０","OBJECTID":189596},"geometry":{"x":168108.24000000022,"y":2569134.5199999996}},{"attributes":{"ID":189598,"DIS_CODE":0,"TOWNNAME":"學甲區","LI":"豐和里","LIN":"22鄰","STREET":" ","SECT":" ","MAREA":"美和","LANE":" ","ALLEY":" ","HOUSE_NO":"６３號之１１","E_COORD97":168110.39999999999,"N_COORD97":2569130.3500000001,"ADDRESS":"美和６３號之１１","OBJECTID":189597},"geometry":{"x":168110.40000000037,"y":2569130.3499999996}},{"attributes":{"ID":189599,"DIS_CODE":0,"TOWNNAME":"學甲區","LI":"豐和里","LIN":"22鄰","STREET":" ","SECT":" ","MAREA":"美和","LANE":" ","ALLEY":" ","HOUSE_NO":"６３號之１２","E_COORD97":168112.56,"N_COORD97":2569126.1800000002,"ADDRESS":"美和６３號之１２","OBJECTID":189598},"geometry":{"x":168112.56000000145,"y":2569126.1800000016}},{"attributes":{"ID":189600,"DIS_CODE":0,"TOWNNAME":"學甲區","LI":"豐和里","LIN":"22鄰","STREET":" ","SECT":" ","MAREA":"美和","LANE":" ","ALLEY":" ","HOUSE_NO":"６３號之１３","E_COORD97":168114.73000000001,"N_COORD97":2569122.0099999998,"ADDRESS":"美和６３號之１３","OBJECTID":189599},"geometry":{"x":168114.73000000138,"y":2569122.0099999998}},{"attributes":{"ID":189601,"DIS_CODE":0,"TOWNNAME":"學甲區","LI":"豐和里","LIN":"22鄰","STREET":" ","SECT":" ","MAREA":"美和","LANE":" ","ALLEY":" ","HOUSE_NO":"６３號之６","E_COORD97":168100.82000000001,"N_COORD97":2569151.3100000001,"ADDRESS":"美和６３號之６","OBJECTID":189600},"geometry":{"x":168100.8200000003,"y":2569151.3100000005}}]}