{"displayFieldName":"TOWNNAME","fieldAliases":{"ID":"ID","DIS_CODE":"DIS_CODE","TOWNNAME":"TOWNNAME","LI":"LI","LIN":"LIN","STREET":"STREET","SECT":"SECT","MAREA":"MAREA","LANE":"LANE","ALLEY":"ALLEY","HOUSE_NO":"HOUSE_NO","E_COORD97":"E_COORD97","N_COORD97":"N_COORD97","ADDRESS":"ADDRESS","OBJECTID":"OBJECTID"},"geometryType":"esriGeometryPoint","spatialReference":{"wkid":102443,"latestWkid":3826},"fields":[{"name":"ID","type":"esriFieldTypeDouble","alias":"ID"},{"name":"DIS_CODE","type":"esriFieldTypeInteger","alias":"DIS_CODE"},{"name":"TOWNNAME","type":"esriFieldTypeString","alias":"TOWNNAME","length":8},{"name":"LI","type":"esriFieldTypeString","alias":"LI","length":8},{"name":"LIN","type":"esriFieldTypeString","alias":"LIN","length":12},{"name":"STREET","type":"esriFieldTypeString","alias":"STREET","length":20},{"name":"SECT","type":"esriFieldTypeString","alias":"SECT","length":8},{"name":"MAREA","type":"esriFieldTypeString","alias":"MAREA","length":12},{"name":"LANE","type":"esriFieldTypeString","alias":"LANE","length":10},{"name":"ALLEY","type":"esriFieldTypeString","alias":"ALLEY","length":10},{"name":"HOUSE_NO","type":"esriFieldTypeString","alias":"HOUSE_NO","length":20},{"name":"E_COORD97","type":"esriFieldTypeDouble","alias":"E_COORD97"},{"name":"N_COORD97","type":"esriFieldTypeDouble","alias":"N_COORD97"},{"name":"ADDRESS","type":"esriFieldTypeString","alias":"ADDRESS","length":50},{"name":"OBJECTID","type":"esriFieldTypeOID","alias":"OBJECTID"}],"features":[{"attributes":{"ID":544028,"DIS_CODE":0,"TOWNNAME":"安南區","LI":"新順里","LIN":"12鄰","STREET":"安豐六街","SECT":" ","MAREA":" ","LANE":" ","ALLEY":" ","HOUSE_NO":"２５２號","E_COORD97":169780.25,"N_COORD97":2549570.5099999998,"ADDRESS":"安豐六街２５２號","OBJECTID":544001},"geometry":{"x":169780.25000000093,"y":2549570.5100000035}},{"attributes":{"ID":544029,"DIS_CODE":0,"TOWNNAME":"安南區","LI":"新順里","LIN":"12鄰","STREET":"安豐六街","SECT":" ","MAREA":" ","LANE":" ","ALLEY":" ","HOUSE_NO":"２５４號","E_COORD97":169783.97,"N_COORD97":2549569.1600000001,"ADDRESS":"安豐六街２５４號","OBJECTID":544002},"geometry":{"x":169783.96999999974,"y":2549569.1600000001}},{"attributes":{"ID":544030,"DIS_CODE":0,"TOWNNAME":"安南區","LI":"新順里","LIN":"12鄰","STREET":"育安四街","SECT":" ","MAREA":" ","LANE":" ","ALLEY":" ","HOUSE_NO":"２４號","E_COORD97":169704.22,"N_COORD97":2549563.7599999998,"ADDRESS":"育安四街２４號","OBJECTID":544003},"geometry":{"x":169704.21999999974,"y":2549563.7600000016}},{"attributes":{"ID":544031,"DIS_CODE":0,"TOWNNAME":"安南區","LI":"新順里","LIN":"12鄰","STREET":"育安四街","SECT":" ","MAREA":" ","LANE":" ","ALLEY":" ","HOUSE_NO":"２６號","E_COORD97":169705.41,"N_COORD97":2549566.7999999998,"ADDRESS":"育安四街２６號","OBJECTID":544004},"geometry":{"x":169705.41000000015,"y":2549566.8000000026}},{"attributes":{"ID":544032,"DIS_CODE":0,"TOWNNAME":"安南區","LI":"新順里","LIN":"12鄰","STREET":"育安四街","SECT":" ","MAREA":" ","LANE":" ","ALLEY":" ","HOUSE_NO":"２８號","E_COORD97":169706.92999999999,"N_COORD97":2549571.1899999999,"ADDRESS":"育安四街２８號","OBJECTID":544005},"geometry":{"x":169706.93000000156,"y":2549571.1899999995}},{"attributes":{"ID":544033,"DIS_CODE":0,"TOWNNAME":"安南區","LI":"新順里","LIN":"12鄰","STREET":"育安街","SECT":" ","MAREA":" ","LANE":" ","ALLEY":" ","HOUSE_NO":"６號","E_COORD97":169623.92999999999,"N_COORD97":2549539.9900000002,"ADDRESS":"育安街６號","OBJECTID":544006},"geometry":{"x":169623.93000000156,"y":2549539.9900000002}},{"attributes":{"ID":544034,"DIS_CODE":0,"TOWNNAME":"新化區","LI":"豐榮里","LIN":"12鄰","STREET":"信義路","SECT":" ","MAREA":" ","LANE":" ","ALLEY":" ","HOUSE_NO":"４２１號","E_COORD97":178570.63,"N_COORD97":2548261.25,"ADDRESS":"信義路４２１號","OBJECTID":544007},"geometry":{"x":178570.63000000082,"y":2548261.2500000019}},{"attributes":{"ID":544035,"DIS_CODE":0,"TOWNNAME":"新化區","LI":"豐榮里","LIN":"12鄰","STREET":"信義路","SECT":" ","MAREA":" ","LANE":" ","ALLEY":" ","HOUSE_NO":"４１９號","E_COORD97":178576.53,"N_COORD97":2548261.25,"ADDRESS":"信義路４１９號","OBJECTID":544008},"geometry":{"x":178576.53000000119,"y":2548261.2500000019}},{"attributes":{"ID":544036,"DIS_CODE":0,"TOWNNAME":"新化區","LI":"太平里","LIN":"12鄰","STREET":"中正路","SECT":" ","MAREA":" ","LANE":" ","ALLEY":" ","HOUSE_NO":"６６５號之１","E_COORD97":178834.34,"N_COORD97":2549027.2599999998,"ADDRESS":"中正路６６５號之１","OBJECTID":544009},"geometry":{"x":178834.33999999985,"y":2549027.2600000016}},{"attributes":{"ID":544037,"DIS_CODE":0,"TOWNNAME":"安南區","LI":"淵東里","LIN":"12鄰","STREET":"海佃路","SECT":"四段","MAREA":" ","LANE":" ","ALLEY":" ","HOUSE_NO":"１８３號","E_COORD97":165607.39000000001,"N_COORD97":2550934.29,"ADDRESS":"海佃路四段１８３號","OBJECTID":544010},"geometry":{"x":165607.38999999966,"y":2550934.2900000028}},{"attributes":{"ID":544038,"DIS_CODE":0,"TOWNNAME":"南區","LI":"再興里","LIN":"12鄰","STREET":"三官路","SECT":" ","MAREA":" ","LANE":" ","ALLEY":" ","HOUSE_NO":"１４８號","E_COORD97":167284.32999999999,"N_COORD97":2542075.1800000002,"ADDRESS":"三官路１４８號","OBJECTID":544011},"geometry":{"x":167284.33000000101,"y":2542075.1799999997}},{"attributes":{"ID":544039,"DIS_CODE":0,"TOWNNAME":"南區","LI":"再興里","LIN":"12鄰","STREET":"三官路","SECT":" ","MAREA":" ","LANE":" ","ALLEY":" ","HOUSE_NO":"１５０號","E_COORD97":167273.85000000001,"N_COORD97":2542063.1299999999,"ADDRESS":"三官路１５０號","OBJECTID":544012},"geometry":{"x":167273.85000000056,"y":2542063.1300000008}},{"attributes":{"ID":544040,"DIS_CODE":0,"TOWNNAME":"南區","LI":"再興里","LIN":"12鄰","STREET":"三官路","SECT":" ","MAREA":" ","LANE":" ","ALLEY":" ","HOUSE_NO":"１９８號","E_COORD97":167182.48000000001,"N_COORD97":2541999.75,"ADDRESS":"三官路１９８號","OBJECTID":544013},"geometry":{"x":167182.48000000045,"y":2541999.7500000019}},{"attributes":{"ID":544041,"DIS_CODE":0,"TOWNNAME":"南區","LI":"再興里","LIN":"12鄰","STREET":"三官路","SECT":" ","MAREA":" ","LANE":" ","ALLEY":" ","HOUSE_NO":"２００號","E_COORD97":167177.92999999999,"N_COORD97":2541998.48,"ADDRESS":"三官路２００號","OBJECTID":544014},"geometry":{"x":167177.93000000063,"y":2541998.4800000023}},{"attributes":{"ID":544042,"DIS_CODE":0,"TOWNNAME":"南區","LI":"再興里","LIN":"12鄰","STREET":"三官路","SECT":" ","MAREA":" ","LANE":" ","ALLEY":" ","HOUSE_NO":"２０８號","E_COORD97":167160.63,"N_COORD97":2541993.6699999999,"ADDRESS":"三官路２０８號","OBJECTID":544015},"geometry":{"x":167160.62999999989,"y":2541993.6700000018}},{"attributes":{"ID":544043,"DIS_CODE":0,"TOWNNAME":"南區","LI":"再興里","LIN":"12鄰","STREET":"三官路","SECT":" ","MAREA":" ","LANE":" ","ALLEY":" ","HOUSE_NO":"２１０號","E_COORD97":167155.87,"N_COORD97":2541992.5099999998,"ADDRESS":"三官路２１０號","OBJECTID":544016},"geometry":{"x":167155.87000000011,"y":2541992.5099999998}},{"attributes":{"ID":544044,"DIS_CODE":0,"TOWNNAME":"南區","LI":"再興里","LIN":"12鄰","STREET":"三官路","SECT":" ","MAREA":" ","LANE":" ","ALLEY":" ","HOUSE_NO":"２１２號","E_COORD97":167151.85000000001,"N_COORD97":2541991.3500000001,"ADDRESS":"三官路２１２號","OBJECTID":544017},"geometry":{"x":167151.85000000056,"y":2541991.3500000015}},{"attributes":{"ID":544045,"DIS_CODE":0,"TOWNNAME":"南區","LI":"再興里","LIN":"12鄰","STREET":"三官路","SECT":" ","MAREA":" ","LANE":" ","ALLEY":" ","HOUSE_NO":"２１６號","E_COORD97":167142.95999999999,"N_COORD97":2541989.2400000002,"ADDRESS":"三官路２１６號","OBJECTID":544018},"geometry":{"x":167142.96000000089,"y":2541989.2400000021}},{"attributes":{"ID":544046,"DIS_CODE":0,"TOWNNAME":"南區","LI":"再興里","LIN":"12鄰","STREET":"三官路","SECT":" ","MAREA":" ","LANE":" ","ALLEY":" ","HOUSE_NO":"２２０號","E_COORD97":167135.45000000001,"N_COORD97":2541988.8799999999,"ADDRESS":"三官路２２０號","OBJECTID":544019},"geometry":{"x":167135.45000000019,"y":2541988.879999999}},{"attributes":{"ID":544047,"DIS_CODE":0,"TOWNNAME":"南區","LI":"再興里","LIN":"12鄰","STREET":"三官路","SECT":" ","MAREA":" ","LANE":" ","ALLEY":" ","HOUSE_NO":"２３０號","E_COORD97":167108.37,"N_COORD97":2541980.1099999999,"ADDRESS":"三官路２３０號","OBJECTID":544020},"geometry":{"x":167108.37000000011,"y":2541980.1100000013}},{"attributes":{"ID":544048,"DIS_CODE":0,"TOWNNAME":"南區","LI":"再興里","LIN":"12鄰","STREET":"三官路","SECT":" ","MAREA":" ","LANE":" ","ALLEY":" ","HOUSE_NO":"２３２號","E_COORD97":167103.29000000001,"N_COORD97":2541978.9399999999,"ADDRESS":"三官路２３２號","OBJECTID":544021},"geometry":{"x":167103.29000000097,"y":2541978.9399999995}},{"attributes":{"ID":544049,"DIS_CODE":0,"TOWNNAME":"南區","LI":"同安里","LIN":"12鄰","STREET":"明興路","SECT":" ","MAREA":" ","LANE":" ","ALLEY":" ","HOUSE_NO":"１１８７號","E_COORD97":166521.37,"N_COORD97":2536294.7400000002,"ADDRESS":"明興路１１８７號","OBJECTID":544022},"geometry":{"x":166521.37000000104,"y":2536294.7400000002}},{"attributes":{"ID":544050,"DIS_CODE":0,"TOWNNAME":"南區","LI":"同安里","LIN":"12鄰","STREET":"明興路","SECT":" ","MAREA":" ","LANE":" ","ALLEY":" ","HOUSE_NO":"１１８９號","E_COORD97":166540.26999999999,"N_COORD97":2536281.0099999998,"ADDRESS":"明興路１１８９號","OBJECTID":544023},"geometry":{"x":166540.27000000048,"y":2536281.0100000016}},{"attributes":{"ID":544051,"DIS_CODE":0,"TOWNNAME":"南區","LI":"同安里","LIN":"12鄰","STREET":"明興路","SECT":" ","MAREA":" ","LANE":" ","ALLEY":" ","HOUSE_NO":"１１９１號","E_COORD97":166539.34,"N_COORD97":2536305.3399999999,"ADDRESS":"明興路１１９１號","OBJECTID":544024},"geometry":{"x":166539.34000000171,"y":2536305.3400000036}},{"attributes":{"ID":544052,"DIS_CODE":0,"TOWNNAME":"南區","LI":"同安里","LIN":"12鄰","STREET":"明興路","SECT":" ","MAREA":" ","LANE":" ","ALLEY":" ","HOUSE_NO":"１１９３號","E_COORD97":166511.85999999999,"N_COORD97":2536272.46,"ADDRESS":"明興路１１９３號","OBJECTID":544025},"geometry":{"x":166511.86000000034,"y":2536272.4600000028}},{"attributes":{"ID":544053,"DIS_CODE":0,"TOWNNAME":"南區","LI":"同安里","LIN":"12鄰","STREET":"明興路","SECT":" ","MAREA":" ","LANE":" ","ALLEY":" ","HOUSE_NO":"１２２５號","E_COORD97":166440.51000000001,"N_COORD97":2536179.0800000001,"ADDRESS":"明興路１２２５號","OBJECTID":544026},"geometry":{"x":166440.51000000071,"y":2536179.0800000019}},{"attributes":{"ID":544054,"DIS_CODE":0,"TOWNNAME":"南區","LI":"同安里","LIN":"12鄰","STREET":"明興路","SECT":" ","MAREA":" ","LANE":" ","ALLEY":" ","HOUSE_NO":"１２２７號","E_COORD97":166438.10999999999,"N_COORD97":2536165.4100000001,"ADDRESS":"明興路１２２７號","OBJECTID":544027},"geometry":{"x":166438.1100000022,"y":2536165.4100000001}},{"attributes":{"ID":544055,"DIS_CODE":0,"TOWNNAME":"南區","LI":"佛壇里","LIN":"12鄰","STREET":"興南街","SECT":" ","MAREA":" ","LANE":" ","ALLEY":" ","HOUSE_NO":"８７號","E_COORD97":166172.5,"N_COORD97":2535884.1299999999,"ADDRESS":"興南街８７號","OBJECTID":544028},"geometry":{"x":166172.50000000093,"y":2535884.129999999}},{"attributes":{"ID":544056,"DIS_CODE":0,"TOWNNAME":"南區","LI":"同安里","LIN":"12鄰","STREET":"明興路","SECT":" ","MAREA":" ","LANE":" ","ALLEY":" ","HOUSE_NO":"１２２９號","E_COORD97":166439.31,"N_COORD97":2536160.96,"ADDRESS":"明興路１２２９號","OBJECTID":544029},"geometry":{"x":166439.31000000145,"y":2536160.9600000028}},{"attributes":{"ID":544057,"DIS_CODE":0,"TOWNNAME":"南區","LI":"同安里","LIN":"12鄰","STREET":"明興路","SECT":" ","MAREA":" ","LANE":" ","ALLEY":" ","HOUSE_NO":"１２３３號","E_COORD97":166433.42999999999,"N_COORD97":2536151.21,"ADDRESS":"明興路１２３３號","OBJECTID":544030},"geometry":{"x":166433.42999999877,"y":2536151.2100000046}},{"attributes":{"ID":544058,"DIS_CODE":0,"TOWNNAME":"南區","LI":"同安里","LIN":"12鄰","STREET":"明興路","SECT":" ","MAREA":" ","LANE":" ","ALLEY":" ","HOUSE_NO":"１２３５號","E_COORD97":166431.20000000001,"N_COORD97":2536146.4300000002,"ADDRESS":"明興路１２３５號","OBJECTID":544031},"geometry":{"x":166431.20000000112,"y":2536146.4300000016}},{"attributes":{"ID":544059,"DIS_CODE":0,"TOWNNAME":"南區","LI":"同安里","LIN":"12鄰","STREET":"明興路","SECT":" ","MAREA":" ","LANE":" ","ALLEY":" ","HOUSE_NO":"１２３７號","E_COORD97":166432.91,"N_COORD97":2536141.4700000002,"ADDRESS":"明興路１２３７號","OBJECTID":544032},"geometry":{"x":166432.91000000108,"y":2536141.4700000007}},{"attributes":{"ID":544060,"DIS_CODE":0,"TOWNNAME":"南區","LI":"同安里","LIN":"12鄰","STREET":"明興路","SECT":" ","MAREA":" ","LANE":" ","ALLEY":" ","HOUSE_NO":"１２３９號","E_COORD97":166432.23000000001,"N_COORD97":2536137.71,"ADDRESS":"明興路１２３９號","OBJECTID":544033},"geometry":{"x":166432.23000000231,"y":2536137.7100000046}},{"attributes":{"ID":544061,"DIS_CODE":0,"TOWNNAME":"南區","LI":"同安里","LIN":"12鄰","STREET":"明興路","SECT":" ","MAREA":" ","LANE":" ","ALLEY":" ","HOUSE_NO":"１２４１號","E_COORD97":166431.03,"N_COORD97":2536133.4399999999,"ADDRESS":"明興路１２４１號","OBJECTID":544034},"geometry":{"x":166431.03000000026,"y":2536133.4399999995}},{"attributes":{"ID":544062,"DIS_CODE":0,"TOWNNAME":"南區","LI":"同安里","LIN":"12鄰","STREET":"明興路","SECT":" ","MAREA":" ","LANE":" ","ALLEY":" ","HOUSE_NO":"１２４３號","E_COORD97":166431.03,"N_COORD97":2536129.1600000001,"ADDRESS":"明興路１２４３號","OBJECTID":544035},"geometry":{"x":166431.03000000026,"y":2536129.1600000001}},{"attributes":{"ID":544063,"DIS_CODE":0,"TOWNNAME":"南區","LI":"同安里","LIN":"12鄰","STREET":"明興路","SECT":" ","MAREA":" ","LANE":" ","ALLEY":" ","HOUSE_NO":"１２４５號","E_COORD97":166430.85999999999,"N_COORD97":2536124.7200000002,"ADDRESS":"明興路１２４５號","OBJECTID":544036},"geometry":{"x":166430.86000000034,"y":2536124.7200000025}},{"attributes":{"ID":544064,"DIS_CODE":0,"TOWNNAME":"南區","LI":"同安里","LIN":"12鄰","STREET":"明興路","SECT":" ","MAREA":" ","LANE":" ","ALLEY":" ","HOUSE_NO":"１２４７號","E_COORD97":166429.66,"N_COORD97":2536120.1000000001,"ADDRESS":"明興路１２４７號","OBJECTID":544037},"geometry":{"x":166429.66000000108,"y":2536120.1000000034}},{"attributes":{"ID":544065,"DIS_CODE":0,"TOWNNAME":"南區","LI":"同安里","LIN":"12鄰","STREET":"明興路","SECT":" ","MAREA":" ","LANE":" ","ALLEY":" ","HOUSE_NO":"１２４９號","E_COORD97":166429.32000000001,"N_COORD97":2536115.6600000001,"ADDRESS":"明興路１２４９號","OBJECTID":544038},"geometry":{"x":166429.3200000003,"y":2536115.6600000001}},{"attributes":{"ID":544066,"DIS_CODE":0,"TOWNNAME":"南區","LI":"同安里","LIN":"12鄰","STREET":"明興路","SECT":" ","MAREA":" ","LANE":" ","ALLEY":" ","HOUSE_NO":"１２５１號","E_COORD97":166429.48999999999,"N_COORD97":2536111.3799999999,"ADDRESS":"明興路１２５１號","OBJECTID":544039},"geometry":{"x":166429.49000000022,"y":2536111.3800000008}},{"attributes":{"ID":544067,"DIS_CODE":0,"TOWNNAME":"南區","LI":"佛壇里","LIN":"12鄰","STREET":"灣裡路","SECT":" ","MAREA":" ","LANE":" ","ALLEY":" ","HOUSE_NO":"５０２號","E_COORD97":166246.51999999999,"N_COORD97":2535877.3100000001,"ADDRESS":"灣裡路５０２號","OBJECTID":544040},"geometry":{"x":166246.52000000048,"y":2535877.3100000024}},{"attributes":{"ID":544068,"DIS_CODE":0,"TOWNNAME":"南區","LI":"佛壇里","LIN":"12鄰","STREET":"灣裡路","SECT":" ","MAREA":" ","LANE":" ","ALLEY":" ","HOUSE_NO":"５０４號","E_COORD97":166247.38,"N_COORD97":2535874.3300000001,"ADDRESS":"灣裡路５０４號","OBJECTID":544041},"geometry":{"x":166247.37999999989,"y":2535874.3300000001}},{"attributes":{"ID":544069,"DIS_CODE":0,"TOWNNAME":"南區","LI":"佛壇里","LIN":"12鄰","STREET":"灣裡路","SECT":" ","MAREA":" ","LANE":" ","ALLEY":" ","HOUSE_NO":"５０４號之１","E_COORD97":166248.23000000001,"N_COORD97":2535870.5,"ADDRESS":"灣裡路５０４號之１","OBJECTID":544042},"geometry":{"x":166248.23000000138,"y":2535870.5000000037}},{"attributes":{"ID":544070,"DIS_CODE":0,"TOWNNAME":"南區","LI":"佛壇里","LIN":"12鄰","STREET":"興南街","SECT":" ","MAREA":" ","LANE":" ","ALLEY":" ","HOUSE_NO":"６５號","E_COORD97":166197.45999999999,"N_COORD97":2535950.6299999999,"ADDRESS":"興南街６５號","OBJECTID":544043},"geometry":{"x":166197.45999999996,"y":2535950.6300000008}},{"attributes":{"ID":544071,"DIS_CODE":0,"TOWNNAME":"南區","LI":"佛壇里","LIN":"12鄰","STREET":"興南街","SECT":" ","MAREA":" ","LANE":" ","ALLEY":" ","HOUSE_NO":"７３號","E_COORD97":166189.35000000001,"N_COORD97":2535922.04,"ADDRESS":"興南街７３號","OBJECTID":544044},"geometry":{"x":166189.34999999963,"y":2535922.0399999991}},{"attributes":{"ID":544072,"DIS_CODE":0,"TOWNNAME":"南區","LI":"佛壇里","LIN":"12鄰","STREET":"興南街","SECT":" ","MAREA":" ","LANE":" ","ALLEY":" ","HOUSE_NO":"７５號","E_COORD97":166184.23000000001,"N_COORD97":2535915.8599999999,"ADDRESS":"興南街７５號","OBJECTID":544045},"geometry":{"x":166184.23000000045,"y":2535915.8600000013}},{"attributes":{"ID":544073,"DIS_CODE":0,"TOWNNAME":"南區","LI":"佛壇里","LIN":"12鄰","STREET":"興南街","SECT":" ","MAREA":" ","LANE":" ","ALLEY":" ","HOUSE_NO":"８１號","E_COORD97":166176.98000000001,"N_COORD97":2535905.6400000001,"ADDRESS":"興南街８１號","OBJECTID":544046},"geometry":{"x":166176.98000000138,"y":2535905.6400000025}},{"attributes":{"ID":544074,"DIS_CODE":0,"TOWNNAME":"南區","LI":"佛壇里","LIN":"12鄰","STREET":"灣裡路","SECT":" ","MAREA":" ","LANE":" ","ALLEY":" ","HOUSE_NO":"４６６號","E_COORD97":166224.54999999999,"N_COORD97":2535986.6299999999,"ADDRESS":"灣裡路４６６號","OBJECTID":544047},"geometry":{"x":166224.55000000075,"y":2535986.629999999}},{"attributes":{"ID":544075,"DIS_CODE":0,"TOWNNAME":"南區","LI":"佛壇里","LIN":"12鄰","STREET":"灣裡路","SECT":" ","MAREA":" ","LANE":" ","ALLEY":" ","HOUSE_NO":"４６８號","E_COORD97":166228.17999999999,"N_COORD97":2535969.3799999999,"ADDRESS":"灣裡路４６８號","OBJECTID":544048},"geometry":{"x":166228.1799999997,"y":2535969.3800000008}},{"attributes":{"ID":544076,"DIS_CODE":0,"TOWNNAME":"南區","LI":"佛壇里","LIN":"12鄰","STREET":"灣裡路","SECT":" ","MAREA":" ","LANE":" ","ALLEY":" ","HOUSE_NO":"４７０號","E_COORD97":166229.67000000001,"N_COORD97":2535964.9100000001,"ADDRESS":"灣裡路４７０號","OBJECTID":544049},"geometry":{"x":166229.66999999993,"y":2535964.9100000001}},{"attributes":{"ID":544077,"DIS_CODE":0,"TOWNNAME":"南區","LI":"佛壇里","LIN":"12鄰","STREET":"灣裡路","SECT":" ","MAREA":" ","LANE":" ","ALLEY":" ","HOUSE_NO":"４７２號","E_COORD97":166230.31,"N_COORD97":2535961.0699999998,"ADDRESS":"灣裡路４７２號","OBJECTID":544050},"geometry":{"x":166230.30999999959,"y":2535961.0700000003}},{"attributes":{"ID":544078,"DIS_CODE":0,"TOWNNAME":"南區","LI":"佛壇里","LIN":"12鄰","STREET":"灣裡路","SECT":" ","MAREA":" ","LANE":" ","ALLEY":" ","HOUSE_NO":"４７４號","E_COORD97":166223.70000000001,"N_COORD97":2535957.2400000002,"ADDRESS":"灣裡路４７４號","OBJECTID":544051},"geometry":{"x":166223.70000000205,"y":2535957.2400000039}},{"attributes":{"ID":544079,"DIS_CODE":0,"TOWNNAME":"南區","LI":"佛壇里","LIN":"12鄰","STREET":"灣裡路","SECT":" ","MAREA":" ","LANE":" ","ALLEY":" ","HOUSE_NO":"４７８號","E_COORD97":166233.51000000001,"N_COORD97":2535948.0299999998,"ADDRESS":"灣裡路４７８號","OBJECTID":544052},"geometry":{"x":166233.51000000071,"y":2535948.0300000012}},{"attributes":{"ID":544080,"DIS_CODE":0,"TOWNNAME":"南區","LI":"佛壇里","LIN":"12鄰","STREET":"灣裡路","SECT":" ","MAREA":" ","LANE":" ","ALLEY":" ","HOUSE_NO":"４８０號","E_COORD97":166234.35999999999,"N_COORD97":2535942.2799999998,"ADDRESS":"灣裡路４８０號","OBJECTID":544053},"geometry":{"x":166234.36000000034,"y":2535942.2800000031}},{"attributes":{"ID":544081,"DIS_CODE":0,"TOWNNAME":"南區","LI":"佛壇里","LIN":"12鄰","STREET":"灣裡路","SECT":" ","MAREA":" ","LANE":" ","ALLEY":" ","HOUSE_NO":"４８４號","E_COORD97":166232.87,"N_COORD97":2535933.9700000002,"ADDRESS":"灣裡路４８４號","OBJECTID":544054},"geometry":{"x":166232.87000000104,"y":2535933.9700000025}},{"attributes":{"ID":544082,"DIS_CODE":0,"TOWNNAME":"南區","LI":"佛壇里","LIN":"12鄰","STREET":"灣裡路","SECT":" ","MAREA":" ","LANE":" ","ALLEY":" ","HOUSE_NO":"４８６號","E_COORD97":166234.57999999999,"N_COORD97":2535928.6400000001,"ADDRESS":"灣裡路４８６號","OBJECTID":544055},"geometry":{"x":166234.58000000194,"y":2535928.6400000025}},{"attributes":{"ID":544083,"DIS_CODE":0,"TOWNNAME":"南區","LI":"佛壇里","LIN":"12鄰","STREET":"灣裡路","SECT":" ","MAREA":" ","LANE":" ","ALLEY":" ","HOUSE_NO":"４８８號","E_COORD97":166235.64000000001,"N_COORD97":2535924.1699999999,"ADDRESS":"灣裡路４８８號","OBJECTID":544056},"geometry":{"x":166235.6400000006,"y":2535924.1700000018}},{"attributes":{"ID":544084,"DIS_CODE":0,"TOWNNAME":"南區","LI":"佛壇里","LIN":"12鄰","STREET":"灣裡路","SECT":" ","MAREA":" ","LANE":" ","ALLEY":" ","HOUSE_NO":"４９０號","E_COORD97":166236.92000000001,"N_COORD97":2535919.27,"ADDRESS":"灣裡路４９０號","OBJECTID":544057},"geometry":{"x":166236.91999999993,"y":2535919.2700000014}},{"attributes":{"ID":544085,"DIS_CODE":0,"TOWNNAME":"南區","LI":"佛壇里","LIN":"12鄰","STREET":"灣裡路","SECT":" ","MAREA":" ","LANE":" ","ALLEY":" ","HOUSE_NO":"４９２號","E_COORD97":166237.98999999999,"N_COORD97":2535916.0800000001,"ADDRESS":"灣裡路４９２號","OBJECTID":544058},"geometry":{"x":166237.99000000022,"y":2535916.0800000001}},{"attributes":{"ID":544086,"DIS_CODE":0,"TOWNNAME":"南區","LI":"佛壇里","LIN":"12鄰","STREET":"灣裡路","SECT":" ","MAREA":" ","LANE":" ","ALLEY":" ","HOUSE_NO":"４９４號","E_COORD97":166237.78,"N_COORD97":2535910.3199999998,"ADDRESS":"灣裡路４９４號","OBJECTID":544059},"geometry":{"x":166237.78000000026,"y":2535910.3200000022}},{"attributes":{"ID":544087,"DIS_CODE":0,"TOWNNAME":"南區","LI":"佛壇里","LIN":"12鄰","STREET":"灣裡路","SECT":" ","MAREA":" ","LANE":" ","ALLEY":" ","HOUSE_NO":"４９８號","E_COORD97":166234.57999999999,"N_COORD97":2535896.8999999999,"ADDRESS":"灣裡路４９８號","OBJECTID":544060},"geometry":{"x":166234.58000000194,"y":2535896.9000000004}},{"attributes":{"ID":544088,"DIS_CODE":0,"TOWNNAME":"東區","LI":"文聖里","LIN":"12鄰","STREET":"裕忠路","SECT":" ","MAREA":" ","LANE":" ","ALLEY":" ","HOUSE_NO":"１８６號","E_COORD97":172239.63,"N_COORD97":2542813.8999999999,"ADDRESS":"裕忠路１８６號","OBJECTID":544061},"geometry":{"x":172239.62999999989,"y":2542813.9000000004}},{"attributes":{"ID":544089,"DIS_CODE":0,"TOWNNAME":"東區","LI":"文聖里","LIN":"12鄰","STREET":"裕忠路","SECT":" ","MAREA":" ","LANE":" ","ALLEY":" ","HOUSE_NO":"１８８號","E_COORD97":172239.63,"N_COORD97":2542807.6600000001,"ADDRESS":"裕忠路１８８號","OBJECTID":544062},"geometry":{"x":172239.62999999989,"y":2542807.660000002}},{"attributes":{"ID":544090,"DIS_CODE":0,"TOWNNAME":"東區","LI":"文聖里","LIN":"12鄰","STREET":"裕忠路","SECT":" ","MAREA":" ","LANE":" ","ALLEY":" ","HOUSE_NO":"１９０號","E_COORD97":172240.26000000001,"N_COORD97":2542803.0600000001,"ADDRESS":"裕忠路１９０號","OBJECTID":544063},"geometry":{"x":172240.25999999978,"y":2542803.0600000005}},{"attributes":{"ID":544091,"DIS_CODE":0,"TOWNNAME":"東區","LI":"文聖里","LIN":"12鄰","STREET":"裕忠路","SECT":" ","MAREA":" ","LANE":" ","ALLEY":" ","HOUSE_NO":"１９２號","E_COORD97":172240.66,"N_COORD97":2542798.6400000001,"ADDRESS":"裕忠路１９２號","OBJECTID":544064},"geometry":{"x":172240.66000000108,"y":2542798.6400000006}},{"attributes":{"ID":544092,"DIS_CODE":0,"TOWNNAME":"東區","LI":"文聖里","LIN":"12鄰","STREET":"裕忠路","SECT":" ","MAREA":" ","LANE":" ","ALLEY":" ","HOUSE_NO":"１９６號","E_COORD97":172239.85000000001,"N_COORD97":2542794.02,"ADDRESS":"裕忠路１９６號","OBJECTID":544065},"geometry":{"x":172239.84999999963,"y":2542794.0200000014}},{"attributes":{"ID":544093,"DIS_CODE":0,"TOWNNAME":"東區","LI":"南聖里","LIN":"12鄰","STREET":"裕信路","SECT":" ","MAREA":" ","LANE":" ","ALLEY":" ","HOUSE_NO":"３０之１０號","E_COORD97":172531.34,"N_COORD97":2543262.29,"ADDRESS":"裕信路３０之１０號","OBJECTID":544066},"geometry":{"x":172531.33999999985,"y":2543262.290000001}},{"attributes":{"ID":544094,"DIS_CODE":0,"TOWNNAME":"東區","LI":"南聖里","LIN":"12鄰","STREET":"裕信路","SECT":" ","MAREA":" ","LANE":" ","ALLEY":" ","HOUSE_NO":"３０之１１號","E_COORD97":172525.35999999999,"N_COORD97":2543262.29,"ADDRESS":"裕信路３０之１１號","OBJECTID":544067},"geometry":{"x":172525.3599999994,"y":2543262.290000001}},{"attributes":{"ID":544095,"DIS_CODE":0,"TOWNNAME":"南區","LI":"廣州里","LIN":"26鄰","STREET":"福吉三街","SECT":" ","MAREA":" ","LANE":" ","ALLEY":" ","HOUSE_NO":"９３號","E_COORD97":167175.78,"N_COORD97":2542779.2200000002,"ADDRESS":"福吉三街９３號","OBJECTID":544068},"geometry":{"x":167175.78000000026,"y":2542779.2200000044}},{"attributes":{"ID":544096,"DIS_CODE":0,"TOWNNAME":"東區","LI":"南聖里","LIN":"12鄰","STREET":"裕信路","SECT":" ","MAREA":" ","LANE":" ","ALLEY":" ","HOUSE_NO":"３０之１２號","E_COORD97":172518.57000000001,"N_COORD97":2543262.29,"ADDRESS":"裕信路３０之１２號","OBJECTID":544069},"geometry":{"x":172518.5700000003,"y":2543262.290000001}},{"attributes":{"ID":544097,"DIS_CODE":0,"TOWNNAME":"東區","LI":"南聖里","LIN":"12鄰","STREET":"裕信路","SECT":" ","MAREA":" ","LANE":" ","ALLEY":" ","HOUSE_NO":"３０之１號","E_COORD97":172582.60000000001,"N_COORD97":2543262.5899999999,"ADDRESS":"裕信路３０之１號","OBJECTID":544070},"geometry":{"x":172582.60000000056,"y":2543262.5899999999}},{"attributes":{"ID":544098,"DIS_CODE":0,"TOWNNAME":"東區","LI":"南聖里","LIN":"12鄰","STREET":"裕信路","SECT":" ","MAREA":" ","LANE":" ","ALLEY":" ","HOUSE_NO":"３０之２號","E_COORD97":172576.91,"N_COORD97":2543260.9900000002,"ADDRESS":"裕信路３０之２號","OBJECTID":544071},"geometry":{"x":172576.91000000015,"y":2543260.9900000002}},{"attributes":{"ID":544099,"DIS_CODE":0,"TOWNNAME":"東區","LI":"南聖里","LIN":"12鄰","STREET":"裕信路","SECT":" ","MAREA":" ","LANE":" ","ALLEY":" ","HOUSE_NO":"３０之３號","E_COORD97":172570.63,"N_COORD97":2543262.4900000002,"ADDRESS":"裕信路３０之３號","OBJECTID":544072},"geometry":{"x":172570.63000000175,"y":2543262.4900000021}},{"attributes":{"ID":544100,"DIS_CODE":0,"TOWNNAME":"東區","LI":"南聖里","LIN":"12鄰","STREET":"裕信路","SECT":" ","MAREA":" ","LANE":" ","ALLEY":" ","HOUSE_NO":"３０之５號","E_COORD97":172563.45000000001,"N_COORD97":2543261.29,"ADDRESS":"裕信路３０之５號","OBJECTID":544073},"geometry":{"x":172563.45000000019,"y":2543261.2899999991}},{"attributes":{"ID":544101,"DIS_CODE":0,"TOWNNAME":"東區","LI":"南聖里","LIN":"12鄰","STREET":"裕信路","SECT":" ","MAREA":" ","LANE":" ","ALLEY":" ","HOUSE_NO":"３０之６號","E_COORD97":172557.47,"N_COORD97":2543262.7799999998,"ADDRESS":"裕信路３０之６號","OBJECTID":544074},"geometry":{"x":172557.46999999974,"y":2543262.7800000012}},{"attributes":{"ID":544102,"DIS_CODE":0,"TOWNNAME":"東區","LI":"南聖里","LIN":"12鄰","STREET":"裕信路","SECT":" ","MAREA":" ","LANE":" ","ALLEY":" ","HOUSE_NO":"３０之７號","E_COORD97":172551.28,"N_COORD97":2543261.5899999999,"ADDRESS":"裕信路３０之７號","OBJECTID":544075},"geometry":{"x":172551.27999999933,"y":2543261.5900000017}},{"attributes":{"ID":544103,"DIS_CODE":0,"TOWNNAME":"東區","LI":"南聖里","LIN":"12鄰","STREET":"裕信路","SECT":" ","MAREA":" ","LANE":" ","ALLEY":" ","HOUSE_NO":"３０之８號","E_COORD97":172544,"N_COORD97":2543262.0899999999,"ADDRESS":"裕信路３０之８號","OBJECTID":544076},"geometry":{"x":172544,"y":2543262.0900000017}},{"attributes":{"ID":544104,"DIS_CODE":0,"TOWNNAME":"東區","LI":"南聖里","LIN":"12鄰","STREET":"裕信路","SECT":" ","MAREA":" ","LANE":" ","ALLEY":" ","HOUSE_NO":"３０之９號","E_COORD97":172538.32000000001,"N_COORD97":2543261.79,"ADDRESS":"裕信路３０之９號","OBJECTID":544077},"geometry":{"x":172538.32000000123,"y":2543261.7900000028}},{"attributes":{"ID":544105,"DIS_CODE":0,"TOWNNAME":"東區","LI":"南聖里","LIN":"12鄰","STREET":"裕信路","SECT":" ","MAREA":" ","LANE":" ","ALLEY":" ","HOUSE_NO":"３０號","E_COORD97":172589.38,"N_COORD97":2543260.29,"ADDRESS":"裕信路３０號","OBJECTID":544078},"geometry":{"x":172589.38000000175,"y":2543260.2899999991}},{"attributes":{"ID":544106,"DIS_CODE":0,"TOWNNAME":"東區","LI":"南聖里","LIN":"12鄰","STREET":"裕信路","SECT":" ","MAREA":" ","LANE":" ","ALLEY":" ","HOUSE_NO":"３２之１０號","E_COORD97":172530.84,"N_COORD97":2543247.3399999999,"ADDRESS":"裕信路３２之１０號","OBJECTID":544079},"geometry":{"x":172530.84000000078,"y":2543247.3399999999}},{"attributes":{"ID":544107,"DIS_CODE":0,"TOWNNAME":"東區","LI":"南聖里","LIN":"12鄰","STREET":"裕信路","SECT":" ","MAREA":" ","LANE":" ","ALLEY":" ","HOUSE_NO":"３２之１１號","E_COORD97":172525.06,"N_COORD97":2543244.8399999999,"ADDRESS":"裕信路３２之１１號","OBJECTID":544080},"geometry":{"x":172525.06000000145,"y":2543244.8399999999}},{"attributes":{"ID":544108,"DIS_CODE":0,"TOWNNAME":"東區","LI":"南聖里","LIN":"12鄰","STREET":"裕信路","SECT":" ","MAREA":" ","LANE":" ","ALLEY":" ","HOUSE_NO":"３２之１２號","E_COORD97":172518.07999999999,"N_COORD97":2543246.8399999999,"ADDRESS":"裕信路３２之１２號","OBJECTID":544081},"geometry":{"x":172518.08000000007,"y":2543246.8400000017}},{"attributes":{"ID":544109,"DIS_CODE":0,"TOWNNAME":"東區","LI":"南聖里","LIN":"12鄰","STREET":"裕信路","SECT":" ","MAREA":" ","LANE":" ","ALLEY":" ","HOUSE_NO":"３２之１號","E_COORD97":172582.39999999999,"N_COORD97":2543245.3500000001,"ADDRESS":"裕信路３２之１號","OBJECTID":544082},"geometry":{"x":172582.40000000037,"y":2543245.3500000034}},{"attributes":{"ID":544110,"DIS_CODE":0,"TOWNNAME":"東區","LI":"南聖里","LIN":"12鄰","STREET":"裕信路","SECT":" ","MAREA":" ","LANE":" ","ALLEY":" ","HOUSE_NO":"３２之２號","E_COORD97":172575.92000000001,"N_COORD97":2543247.8399999999,"ADDRESS":"裕信路３２之２號","OBJECTID":544083},"geometry":{"x":172575.92000000086,"y":2543247.8399999999}},{"attributes":{"ID":544111,"DIS_CODE":0,"TOWNNAME":"東區","LI":"南聖里","LIN":"12鄰","STREET":"裕信路","SECT":" ","MAREA":" ","LANE":" ","ALLEY":" ","HOUSE_NO":"３２之３號","E_COORD97":172570.13,"N_COORD97":2543245.1499999999,"ADDRESS":"裕信路３２之３號","OBJECTID":544084},"geometry":{"x":172570.12999999989,"y":2543245.1500000022}},{"attributes":{"ID":544112,"DIS_CODE":0,"TOWNNAME":"東區","LI":"南聖里","LIN":"12鄰","STREET":"裕信路","SECT":" ","MAREA":" ","LANE":" ","ALLEY":" ","HOUSE_NO":"３２之５號","E_COORD97":172562.95000000001,"N_COORD97":2543247.54,"ADDRESS":"裕信路３２之５號","OBJECTID":544085},"geometry":{"x":172562.95000000019,"y":2543247.540000001}},{"attributes":{"ID":544113,"DIS_CODE":0,"TOWNNAME":"東區","LI":"南聖里","LIN":"12鄰","STREET":"裕信路","SECT":" ","MAREA":" ","LANE":" ","ALLEY":" ","HOUSE_NO":"３２之６號","E_COORD97":172557.26999999999,"N_COORD97":2543245.3500000001,"ADDRESS":"裕信路３２之６號","OBJECTID":544086},"geometry":{"x":172557.26999999955,"y":2543245.3500000034}},{"attributes":{"ID":544114,"DIS_CODE":0,"TOWNNAME":"東區","LI":"南聖里","LIN":"12鄰","STREET":"裕信路","SECT":" ","MAREA":" ","LANE":" ","ALLEY":" ","HOUSE_NO":"３２之７號","E_COORD97":172550.69,"N_COORD97":2543246.8399999999,"ADDRESS":"裕信路３２之７號","OBJECTID":544087},"geometry":{"x":172550.69000000134,"y":2543246.8400000017}},{"attributes":{"ID":544115,"DIS_CODE":0,"TOWNNAME":"東區","LI":"南聖里","LIN":"12鄰","STREET":"裕信路","SECT":" ","MAREA":" ","LANE":" ","ALLEY":" ","HOUSE_NO":"３２之８號","E_COORD97":172544.20000000001,"N_COORD97":2543245.8399999999,"ADDRESS":"裕信路３２之８號","OBJECTID":544088},"geometry":{"x":172544.20000000112,"y":2543245.8400000017}},{"attributes":{"ID":544116,"DIS_CODE":0,"TOWNNAME":"東區","LI":"南聖里","LIN":"12鄰","STREET":"裕信路","SECT":" ","MAREA":" ","LANE":" ","ALLEY":" ","HOUSE_NO":"３２之９號","E_COORD97":172537.51999999999,"N_COORD97":2543246.3399999999,"ADDRESS":"裕信路３２之９號","OBJECTID":544089},"geometry":{"x":172537.52000000048,"y":2543246.3400000017}},{"attributes":{"ID":544117,"DIS_CODE":0,"TOWNNAME":"東區","LI":"南聖里","LIN":"12鄰","STREET":"裕信路","SECT":" ","MAREA":" ","LANE":" ","ALLEY":" ","HOUSE_NO":"３２號","E_COORD97":172589.07999999999,"N_COORD97":2543246.8399999999,"ADDRESS":"裕信路３２號","OBJECTID":544090},"geometry":{"x":172589.08000000007,"y":2543246.8400000017}},{"attributes":{"ID":544118,"DIS_CODE":0,"TOWNNAME":"東區","LI":"南聖里","LIN":"12鄰","STREET":"裕誠街","SECT":" ","MAREA":" ","LANE":" ","ALLEY":" ","HOUSE_NO":"２４６號","E_COORD97":172461.22,"N_COORD97":2543282.48,"ADDRESS":"裕誠街２４６號","OBJECTID":544091},"geometry":{"x":172461.21999999974,"y":2543282.4800000042}},{"attributes":{"ID":544119,"DIS_CODE":0,"TOWNNAME":"東區","LI":"南聖里","LIN":"12鄰","STREET":"裕誠街","SECT":" ","MAREA":" ","LANE":" ","ALLEY":" ","HOUSE_NO":"２５２號","E_COORD97":172483.34,"N_COORD97":2543290.2200000002,"ADDRESS":"裕誠街２５２號","OBJECTID":544092},"geometry":{"x":172483.34000000078,"y":2543290.2200000007}},{"attributes":{"ID":544120,"DIS_CODE":0,"TOWNNAME":"東區","LI":"南聖里","LIN":"12鄰","STREET":"裕誠街","SECT":" ","MAREA":" ","LANE":" ","ALLEY":" ","HOUSE_NO":"２５６號","E_COORD97":172484.89000000001,"N_COORD97":2543286.02,"ADDRESS":"裕誠街２５６號","OBJECTID":544093},"geometry":{"x":172484.88999999966,"y":2543286.0200000014}},{"attributes":{"ID":544121,"DIS_CODE":0,"TOWNNAME":"東區","LI":"南聖里","LIN":"12鄰","STREET":"裕誠街","SECT":" ","MAREA":" ","LANE":" ","ALLEY":" ","HOUSE_NO":"２５８號","E_COORD97":172484.45000000001,"N_COORD97":2543280.4900000002,"ADDRESS":"裕誠街２５８號","OBJECTID":544094},"geometry":{"x":172484.45000000112,"y":2543280.4900000002}},{"attributes":{"ID":544122,"DIS_CODE":0,"TOWNNAME":"東區","LI":"南聖里","LIN":"12鄰","STREET":"裕誠街","SECT":" ","MAREA":" ","LANE":" ","ALLEY":" ","HOUSE_NO":"２６０號","E_COORD97":172484.89000000001,"N_COORD97":2543276.52,"ADDRESS":"裕誠街２６０號","OBJECTID":544095},"geometry":{"x":172484.88999999966,"y":2543276.5199999996}},{"attributes":{"ID":544123,"DIS_CODE":0,"TOWNNAME":"東區","LI":"南聖里","LIN":"12鄰","STREET":"裕誠街","SECT":" ","MAREA":" ","LANE":" ","ALLEY":" ","HOUSE_NO":"２６２號","E_COORD97":172485.56,"N_COORD97":2543271.6499999999,"ADDRESS":"裕誠街２６２號","OBJECTID":544096},"geometry":{"x":172485.55999999959,"y":2543271.6500000022}},{"attributes":{"ID":544124,"DIS_CODE":0,"TOWNNAME":"東區","LI":"南聖里","LIN":"12鄰","STREET":"裕誠街","SECT":" ","MAREA":" ","LANE":" ","ALLEY":" ","HOUSE_NO":"２６６號","E_COORD97":172485.10999999999,"N_COORD97":2543266.5699999998,"ADDRESS":"裕誠街２６６號","OBJECTID":544097},"geometry":{"x":172485.11000000127,"y":2543266.5700000003}},{"attributes":{"ID":544125,"DIS_CODE":0,"TOWNNAME":"東區","LI":"南聖里","LIN":"12鄰","STREET":"裕誠街","SECT":" ","MAREA":" ","LANE":" ","ALLEY":" ","HOUSE_NO":"２６８號","E_COORD97":172486.82999999999,"N_COORD97":2543262.1899999999,"ADDRESS":"裕誠街２６８號","OBJECTID":544098},"geometry":{"x":172486.83000000101,"y":2543262.1899999995}},{"attributes":{"ID":544126,"DIS_CODE":0,"TOWNNAME":"東區","LI":"南聖里","LIN":"12鄰","STREET":"裕誠街","SECT":" ","MAREA":" ","LANE":" ","ALLEY":" ","HOUSE_NO":"２７０號","E_COORD97":172487.23999999999,"N_COORD97":2543257.4500000002,"ADDRESS":"裕誠街２７０號","OBJECTID":544099},"geometry":{"x":172487.24000000209,"y":2543257.450000003}},{"attributes":{"ID":544127,"DIS_CODE":0,"TOWNNAME":"東區","LI":"南聖里","LIN":"12鄰","STREET":"裕誠街","SECT":" ","MAREA":" ","LANE":" ","ALLEY":" ","HOUSE_NO":"２７２號","E_COORD97":172486.82999999999,"N_COORD97":2543252.0299999998,"ADDRESS":"裕誠街２７２號","OBJECTID":544100},"geometry":{"x":172486.83000000101,"y":2543252.0299999993}},{"attributes":{"ID":544128,"DIS_CODE":0,"TOWNNAME":"東區","LI":"南聖里","LIN":"12鄰","STREET":"裕誠街","SECT":" ","MAREA":" ","LANE":" ","ALLEY":" ","HOUSE_NO":"２７６號","E_COORD97":172487.51000000001,"N_COORD97":2543248.6400000001,"ADDRESS":"裕誠街２７６號","OBJECTID":544101},"geometry":{"x":172487.50999999978,"y":2543248.6400000025}},{"attributes":{"ID":544129,"DIS_CODE":0,"TOWNNAME":"東區","LI":"南聖里","LIN":"12鄰","STREET":"裕誠街","SECT":" ","MAREA":" ","LANE":" ","ALLEY":" ","HOUSE_NO":"２７８號","E_COORD97":172505,"N_COORD97":2543249.9199999999,"ADDRESS":"裕誠街２７８號","OBJECTID":544102},"geometry":{"x":172505,"y":2543249.9200000018}},{"attributes":{"ID":544130,"DIS_CODE":0,"TOWNNAME":"東區","LI":"南聖里","LIN":"12鄰","STREET":"裕誠街","SECT":" ","MAREA":" ","LANE":" ","ALLEY":" ","HOUSE_NO":"２８０號","E_COORD97":172505,"N_COORD97":2543254.3999999999,"ADDRESS":"裕誠街２８０號","OBJECTID":544103},"geometry":{"x":172505,"y":2543254.4000000004}},{"attributes":{"ID":544131,"DIS_CODE":0,"TOWNNAME":"東區","LI":"南聖里","LIN":"12鄰","STREET":"裕誠街","SECT":" ","MAREA":" ","LANE":" ","ALLEY":" ","HOUSE_NO":"２８２號","E_COORD97":172504.85000000001,"N_COORD97":2543258.5899999999,"ADDRESS":"裕誠街２８２號","OBJECTID":544104},"geometry":{"x":172504.85000000056,"y":2543258.5900000017}},{"attributes":{"ID":544132,"DIS_CODE":0,"TOWNNAME":"東區","LI":"南聖里","LIN":"12鄰","STREET":"裕誠街","SECT":" ","MAREA":" ","LANE":" ","ALLEY":" ","HOUSE_NO":"２８６號","E_COORD97":172504.48999999999,"N_COORD97":2543263.0699999998,"ADDRESS":"裕誠街２８６號","OBJECTID":544105},"geometry":{"x":172504.49000000115,"y":2543263.0700000003}},{"attributes":{"ID":544133,"DIS_CODE":0,"TOWNNAME":"東區","LI":"南聖里","LIN":"12鄰","STREET":"裕誠街","SECT":" ","MAREA":" ","LANE":" ","ALLEY":" ","HOUSE_NO":"２８８號","E_COORD97":172504.26999999999,"N_COORD97":2543268.3500000001,"ADDRESS":"裕誠街２８８號","OBJECTID":544106},"geometry":{"x":172504.26999999955,"y":2543268.3499999996}},{"attributes":{"ID":544134,"DIS_CODE":0,"TOWNNAME":"東區","LI":"南聖里","LIN":"12鄰","STREET":"裕誠街","SECT":" ","MAREA":" ","LANE":" ","ALLEY":" ","HOUSE_NO":"２９２號","E_COORD97":172503.39999999999,"N_COORD97":2543277.5800000001,"ADDRESS":"裕誠街２９２號","OBJECTID":544107},"geometry":{"x":172503.4000000013,"y":2543277.5800000001}},{"attributes":{"ID":544135,"DIS_CODE":0,"TOWNNAME":"東區","LI":"南聖里","LIN":"12鄰","STREET":"裕誠街","SECT":" ","MAREA":" ","LANE":" ","ALLEY":" ","HOUSE_NO":"２９６號","E_COORD97":172502.64999999999,"N_COORD97":2543282.6000000001,"ADDRESS":"裕誠街２９６號","OBJECTID":544108},"geometry":{"x":172502.65000000037,"y":2543282.5999999996}},{"attributes":{"ID":544136,"DIS_CODE":0,"TOWNNAME":"東區","LI":"南聖里","LIN":"12鄰","STREET":"裕誠街","SECT":" ","MAREA":" ","LANE":" ","ALLEY":" ","HOUSE_NO":"２９８號","E_COORD97":172503.39999999999,"N_COORD97":2543287.2599999998,"ADDRESS":"裕誠街２９８號","OBJECTID":544109},"geometry":{"x":172503.4000000013,"y":2543287.2600000016}},{"attributes":{"ID":544137,"DIS_CODE":0,"TOWNNAME":"東區","LI":"南聖里","LIN":"12鄰","STREET":"裕誠街","SECT":" ","MAREA":" ","LANE":" ","ALLEY":" ","HOUSE_NO":"３００號","E_COORD97":172502.09,"N_COORD97":2543293.2200000002,"ADDRESS":"裕誠街３００號","OBJECTID":544110},"geometry":{"x":172502.09000000078,"y":2543293.2200000007}},{"attributes":{"ID":544138,"DIS_CODE":0,"TOWNNAME":"東區","LI":"大福里","LIN":"12鄰","STREET":"立德四路","SECT":" ","MAREA":" ","LANE":" ","ALLEY":" ","HOUSE_NO":"３７號","E_COORD97":169614.45000000001,"N_COORD97":2541826.3199999998,"ADDRESS":"立德四路３７號","OBJECTID":544111},"geometry":{"x":169614.45000000112,"y":2541826.3200000022}},{"attributes":{"ID":544139,"DIS_CODE":0,"TOWNNAME":"東區","LI":"裕聖里","LIN":"12鄰","STREET":"裕文路","SECT":" ","MAREA":" ","LANE":" ","ALLEY":" ","HOUSE_NO":"１５８號","E_COORD97":172463.42999999999,"N_COORD97":2542509.9100000001,"ADDRESS":"裕文路１５８號","OBJECTID":544112},"geometry":{"x":172463.43000000156,"y":2542509.910000002}},{"attributes":{"ID":544140,"DIS_CODE":0,"TOWNNAME":"東區","LI":"裕聖里","LIN":"12鄰","STREET":"裕文路","SECT":" ","MAREA":" ","LANE":" ","ALLEY":" ","HOUSE_NO":"１６０號","E_COORD97":172467.87,"N_COORD97":2542509.5299999998,"ADDRESS":"裕文路１６０號","OBJECTID":544113},"geometry":{"x":172467.87000000104,"y":2542509.5300000012}},{"attributes":{"ID":544141,"DIS_CODE":0,"TOWNNAME":"東區","LI":"裕聖里","LIN":"12鄰","STREET":"裕文路","SECT":" ","MAREA":" ","LANE":" ","ALLEY":" ","HOUSE_NO":"１６２號","E_COORD97":172472.5,"N_COORD97":2542511.0699999998,"ADDRESS":"裕文路１６２號","OBJECTID":544114},"geometry":{"x":172472.5,"y":2542511.0700000003}},{"attributes":{"ID":544142,"DIS_CODE":0,"TOWNNAME":"東區","LI":"裕聖里","LIN":"12鄰","STREET":"裕文路","SECT":" ","MAREA":" ","LANE":" ","ALLEY":" ","HOUSE_NO":"１６６號","E_COORD97":172478.48999999999,"N_COORD97":2542509.5299999998,"ADDRESS":"裕文路１６６號","OBJECTID":544115},"geometry":{"x":172478.49000000022,"y":2542509.5300000012}},{"attributes":{"ID":544143,"DIS_CODE":0,"TOWNNAME":"東區","LI":"裕聖里","LIN":"12鄰","STREET":"裕文路","SECT":" ","MAREA":" ","LANE":" ","ALLEY":" ","HOUSE_NO":"１６８號","E_COORD97":172483.12,"N_COORD97":2542509.9100000001,"ADDRESS":"裕文路１６８號","OBJECTID":544116},"geometry":{"x":172483.12000000104,"y":2542509.910000002}},{"attributes":{"ID":544144,"DIS_CODE":0,"TOWNNAME":"東區","LI":"裕聖里","LIN":"12鄰","STREET":"裕文路","SECT":" ","MAREA":" ","LANE":" ","ALLEY":" ","HOUSE_NO":"１７０號","E_COORD97":172487.17999999999,"N_COORD97":2542510.1000000001,"ADDRESS":"裕文路１７０號","OBJECTID":544117},"geometry":{"x":172487.18000000063,"y":2542510.0999999996}},{"attributes":{"ID":544145,"DIS_CODE":0,"TOWNNAME":"東區","LI":"裕聖里","LIN":"12鄰","STREET":"裕文路","SECT":" ","MAREA":" ","LANE":" ","ALLEY":" ","HOUSE_NO":"１７２號","E_COORD97":172493.35999999999,"N_COORD97":2542509.5299999998,"ADDRESS":"裕文路１７２號","OBJECTID":544118},"geometry":{"x":172493.3600000022,"y":2542509.5300000012}},{"attributes":{"ID":544146,"DIS_CODE":0,"TOWNNAME":"東區","LI":"裕聖里","LIN":"12鄰","STREET":"裕文路","SECT":" ","MAREA":" ","LANE":" ","ALLEY":" ","HOUSE_NO":"１７６號","E_COORD97":172498.19,"N_COORD97":2542509.1400000001,"ADDRESS":"裕文路１７６號","OBJECTID":544119},"geometry":{"x":172498.19000000134,"y":2542509.1400000025}},{"attributes":{"ID":544147,"DIS_CODE":0,"TOWNNAME":"東區","LI":"裕聖里","LIN":"12鄰","STREET":"裕文路","SECT":" ","MAREA":" ","LANE":" ","ALLEY":" ","HOUSE_NO":"１７８號","E_COORD97":172502.63,"N_COORD97":2542508.5600000001,"ADDRESS":"裕文路１７８號","OBJECTID":544120},"geometry":{"x":172502.62999999989,"y":2542508.5600000005}},{"attributes":{"ID":544148,"DIS_CODE":0,"TOWNNAME":"東區","LI":"裕聖里","LIN":"12鄰","STREET":"裕文路","SECT":" ","MAREA":" ","LANE":" ","ALLEY":" ","HOUSE_NO":"１８０號","E_COORD97":172506.88,"N_COORD97":2542508.5600000001,"ADDRESS":"裕文路１８０號","OBJECTID":544121},"geometry":{"x":172506.88000000082,"y":2542508.5600000005}},{"attributes":{"ID":544149,"DIS_CODE":0,"TOWNNAME":"東區","LI":"裕聖里","LIN":"12鄰","STREET":"裕文路","SECT":" ","MAREA":" ","LANE":" ","ALLEY":" ","HOUSE_NO":"１８２號","E_COORD97":172512.29000000001,"N_COORD97":2542508.5600000001,"ADDRESS":"裕文路１８２號","OBJECTID":544122},"geometry":{"x":172512.29000000097,"y":2542508.5600000005}},{"attributes":{"ID":544150,"DIS_CODE":0,"TOWNNAME":"安南區","LI":"溪心里","LIN":"12鄰","STREET":"海佃路","SECT":"二段","MAREA":" ","LANE":" ","ALLEY":" ","HOUSE_NO":"７３６號","E_COORD97":166539.17000000001,"N_COORD97":2549518.8900000001,"ADDRESS":"海佃路二段７３６號","OBJECTID":544123},"geometry":{"x":166539.17000000086,"y":2549518.8900000025}},{"attributes":{"ID":544151,"DIS_CODE":0,"TOWNNAME":"安南區","LI":"城南里","LIN":"12鄰","STREET":"城西街","SECT":"二段","MAREA":" ","LANE":" ","ALLEY":" ","HOUSE_NO":"２５０之１號","E_COORD97":159726.31,"N_COORD97":2551011.8500000001,"ADDRESS":"城西街二段２５０之１號","OBJECTID":544124},"geometry":{"x":159726.31000000145,"y":2551011.8499999996}},{"attributes":{"ID":544152,"DIS_CODE":0,"TOWNNAME":"安南區","LI":"城南里","LIN":"12鄰","STREET":"城西街","SECT":"二段","MAREA":" ","LANE":" ","ALLEY":" ","HOUSE_NO":"２５０之２號","E_COORD97":159720.75,"N_COORD97":2551011.0499999998,"ADDRESS":"城西街二段２５０之２號","OBJECTID":544125},"geometry":{"x":159720.75000000093,"y":2551011.0500000007}},{"attributes":{"ID":544153,"DIS_CODE":0,"TOWNNAME":"安南區","LI":"城南里","LIN":"12鄰","STREET":"城西街","SECT":"二段","MAREA":" ","LANE":" ","ALLEY":" ","HOUSE_NO":"４２０號","E_COORD97":159306.32999999999,"N_COORD97":2551035.3900000001,"ADDRESS":"城西街二段４２０號","OBJECTID":544126},"geometry":{"x":159306.33000000194,"y":2551035.3900000006}},{"attributes":{"ID":544154,"DIS_CODE":0,"TOWNNAME":"佳里區","LI":"建南里","LIN":"12鄰","STREET":"新生路","SECT":" ","MAREA":" ","LANE":" ","ALLEY":" ","HOUSE_NO":"３５３號","E_COORD97":165423.42000000001,"N_COORD97":2562205.5099999998,"ADDRESS":"新生路３５３號","OBJECTID":544127},"geometry":{"x":165423.42000000179,"y":2562205.5099999998}},{"attributes":{"ID":544155,"DIS_CODE":0,"TOWNNAME":"仁德區","LI":"保安里","LIN":"12鄰","STREET":"開發一路","SECT":" ","MAREA":" ","LANE":" ","ALLEY":" ","HOUSE_NO":"２２號","E_COORD97":172618.16,"N_COORD97":2536088.2599999998,"ADDRESS":"開發一路２２號","OBJECTID":544128},"geometry":{"x":172618.16000000201,"y":2536088.2599999998}},{"attributes":{"ID":544156,"DIS_CODE":0,"TOWNNAME":"佳里區","LI":"忠仁里","LIN":"12鄰","STREET":"新生路","SECT":" ","MAREA":" ","LANE":" ","ALLEY":" ","HOUSE_NO":"５３號","E_COORD97":166056.34,"N_COORD97":2562349.9500000002,"ADDRESS":"新生路５３號","OBJECTID":544129},"geometry":{"x":166056.34000000171,"y":2562349.9500000011}},{"attributes":{"ID":544157,"DIS_CODE":0,"TOWNNAME":"仁德區","LI":"一甲里","LIN":"12鄰","STREET":"忠義路","SECT":" ","MAREA":" ","LANE":" ","ALLEY":" ","HOUSE_NO":"３５３號","E_COORD97":173532.04000000001,"N_COORD97":2541874.52,"ADDRESS":"忠義路３５３號","OBJECTID":544130},"geometry":{"x":173532.04000000004,"y":2541874.5200000014}},{"attributes":{"ID":544158,"DIS_CODE":0,"TOWNNAME":"仁德區","LI":"一甲里","LIN":"12鄰","STREET":"忠義路","SECT":" ","MAREA":" ","LANE":" ","ALLEY":" ","HOUSE_NO":"３４３號","E_COORD97":173556.67999999999,"N_COORD97":2541871.52,"ADDRESS":"忠義路３４３號","OBJECTID":544131},"geometry":{"x":173556.68000000156,"y":2541871.5200000014}},{"attributes":{"ID":544159,"DIS_CODE":0,"TOWNNAME":"仁德區","LI":"保安里","LIN":"12鄰","STREET":"開發五路","SECT":" ","MAREA":" ","LANE":" ","ALLEY":" ","HOUSE_NO":"１１號","E_COORD97":172958.20000000001,"N_COORD97":2535856.27,"ADDRESS":"開發五路１１號","OBJECTID":544132},"geometry":{"x":172958.20000000019,"y":2535856.2699999996}},{"attributes":{"ID":544160,"DIS_CODE":0,"TOWNNAME":"佳里區","LI":"忠仁里","LIN":"12鄰","STREET":"新生路","SECT":" ","MAREA":" ","LANE":" ","ALLEY":" ","HOUSE_NO":"６７號","E_COORD97":166023.23999999999,"N_COORD97":2562338.9199999999,"ADDRESS":"新生路６７號","OBJECTID":544133},"geometry":{"x":166023.24000000022,"y":2562338.9199999999}},{"attributes":{"ID":544161,"DIS_CODE":0,"TOWNNAME":"仁德區","LI":"田厝里","LIN":"12鄰","STREET":"田厝二街","SECT":" ","MAREA":" ","LANE":" ","ALLEY":" ","HOUSE_NO":"９７號","E_COORD97":172242.20999999999,"N_COORD97":2537675.9900000002,"ADDRESS":"田厝二街９７號","OBJECTID":544134},"geometry":{"x":172242.20999999996,"y":2537675.9900000021}},{"attributes":{"ID":544162,"DIS_CODE":0,"TOWNNAME":"佳里區","LI":"忠仁里","LIN":"12鄰","STREET":"新生路","SECT":" ","MAREA":" ","LANE":" ","ALLEY":" ","HOUSE_NO":"５５號","E_COORD97":166051.85000000001,"N_COORD97":2562349,"ADDRESS":"新生路５５號","OBJECTID":544135},"geometry":{"x":166051.84999999963,"y":2562348.9999999981}},{"attributes":{"ID":544163,"DIS_CODE":0,"TOWNNAME":"仁德區","LI":"新田里","LIN":"12鄰","STREET":"北保三街","SECT":" ","MAREA":" ","LANE":" ","ALLEY":" ","HOUSE_NO":"１３號","E_COORD97":173163.39000000001,"N_COORD97":2539414.7400000002,"ADDRESS":"北保三街１３號","OBJECTID":544136},"geometry":{"x":173163.38999999966,"y":2539414.7400000002}},{"attributes":{"ID":544164,"DIS_CODE":0,"TOWNNAME":"仁德區","LI":"後壁里","LIN":"12鄰","STREET":"德善路","SECT":" ","MAREA":" ","LANE":" ","ALLEY":" ","HOUSE_NO":"２３８號","E_COORD97":173835.13,"N_COORD97":2538672.77,"ADDRESS":"德善路２３８號","OBJECTID":544137},"geometry":{"x":173835.12999999896,"y":2538672.7700000014}},{"attributes":{"ID":544165,"DIS_CODE":0,"TOWNNAME":"仁德區","LI":"仁德里","LIN":"12鄰","STREET":"四維街","SECT":" ","MAREA":" ","LANE":" ","ALLEY":" ","HOUSE_NO":"４６號","E_COORD97":173226.69,"N_COORD97":2541532.7400000002,"ADDRESS":"四維街４６號","OBJECTID":544138},"geometry":{"x":173226.68999999948,"y":2541532.7400000002}},{"attributes":{"ID":544166,"DIS_CODE":0,"TOWNNAME":"仁德區","LI":"保安里","LIN":"12鄰","STREET":"開發五路","SECT":" ","MAREA":" ","LANE":" ","ALLEY":" ","HOUSE_NO":"２３號","E_COORD97":173108.29000000001,"N_COORD97":2535981.27,"ADDRESS":"開發五路２３號","OBJECTID":544139},"geometry":{"x":173108.29000000004,"y":2535981.2700000014}},{"attributes":{"ID":544167,"DIS_CODE":0,"TOWNNAME":"仁德區","LI":"成功里","LIN":"12鄰","STREET":"保華路","SECT":" ","MAREA":" ","LANE":" ","ALLEY":" ","HOUSE_NO":"２２７號","E_COORD97":170814.79000000001,"N_COORD97":2540001,"ADDRESS":"保華路２２７號","OBJECTID":544140},"geometry":{"x":170814.79000000004,"y":2540001.0000000019}},{"attributes":{"ID":544168,"DIS_CODE":0,"TOWNNAME":"仁德區","LI":"仁德里","LIN":"12鄰","STREET":"四維街","SECT":" ","MAREA":" ","LANE":" ","ALLEY":" ","HOUSE_NO":"２９號","E_COORD97":173230.67999999999,"N_COORD97":2541516.7400000002,"ADDRESS":"四維街２９號","OBJECTID":544141},"geometry":{"x":173230.6799999997,"y":2541516.7400000002}},{"attributes":{"ID":544169,"DIS_CODE":0,"TOWNNAME":"仁德區","LI":"新田里","LIN":"12鄰","STREET":"北保三街","SECT":" ","MAREA":" ","LANE":" ","ALLEY":" ","HOUSE_NO":"３號","E_COORD97":173145.09,"N_COORD97":2539393.5,"ADDRESS":"北保三街３號","OBJECTID":544142},"geometry":{"x":173145.08999999985,"y":2539393.5000000019}},{"attributes":{"ID":544170,"DIS_CODE":0,"TOWNNAME":"仁德區","LI":"一甲里","LIN":"12鄰","STREET":"忠義三街","SECT":" ","MAREA":" ","LANE":" ","ALLEY":" ","HOUSE_NO":"６１號","E_COORD97":173624.26000000001,"N_COORD97":2541844.7599999998,"ADDRESS":"忠義三街６１號","OBJECTID":544143},"geometry":{"x":173624.26000000071,"y":2541844.7599999998}},{"attributes":{"ID":544171,"DIS_CODE":0,"TOWNNAME":"仁德區","LI":"成功里","LIN":"12鄰","STREET":"保華路","SECT":" ","MAREA":" ","LANE":" ","ALLEY":" ","HOUSE_NO":"２２３號","E_COORD97":170825.92999999999,"N_COORD97":2540001,"ADDRESS":"保華路２２３號","OBJECTID":544144},"geometry":{"x":170825.93000000063,"y":2540001.0000000019}},{"attributes":{"ID":544172,"DIS_CODE":0,"TOWNNAME":"仁德區","LI":"成功里","LIN":"12鄰","STREET":"成功二街","SECT":" ","MAREA":" ","LANE":" ","ALLEY":" ","HOUSE_NO":"３４號","E_COORD97":170898.04999999999,"N_COORD97":2539909.27,"ADDRESS":"成功二街３４號","OBJECTID":544145},"geometry":{"x":170898.05000000168,"y":2539909.2699999977}},{"attributes":{"ID":544173,"DIS_CODE":0,"TOWNNAME":"仁德區","LI":"保安里","LIN":"12鄰","STREET":"開發三路","SECT":" ","MAREA":" ","LANE":" ","ALLEY":" ","HOUSE_NO":"１７號","E_COORD97":172751.5,"N_COORD97":2535959.52,"ADDRESS":"開發三路１７號","OBJECTID":544146},"geometry":{"x":172751.50000000093,"y":2535959.5200000014}},{"attributes":{"ID":544174,"DIS_CODE":0,"TOWNNAME":"仁德區","LI":"一甲里","LIN":"12鄰","STREET":"忠義路","SECT":" ","MAREA":" ","LANE":" ","ALLEY":" ","HOUSE_NO":"３４９號","E_COORD97":173542.32999999999,"N_COORD97":2541873.27,"ADDRESS":"忠義路３４９號","OBJECTID":544147},"geometry":{"x":173542.33000000007,"y":2541873.2700000014}},{"attributes":{"ID":544175,"DIS_CODE":0,"TOWNNAME":"仁德區","LI":"保安里","LIN":"12鄰","STREET":"永德路","SECT":" ","MAREA":" ","LANE":" ","ALLEY":" ","HOUSE_NO":"５號","E_COORD97":172052.63,"N_COORD97":2536117.5099999998,"ADDRESS":"永德路５號","OBJECTID":544148},"geometry":{"x":172052.63000000082,"y":2536117.5100000035}},{"attributes":{"ID":544176,"DIS_CODE":0,"TOWNNAME":"仁德區","LI":"保安里","LIN":"12鄰","STREET":"開發二路","SECT":" ","MAREA":" ","LANE":" ","ALLEY":" ","HOUSE_NO":"１７號","E_COORD97":172624.63,"N_COORD97":2535983.52,"ADDRESS":"開發二路１７號","OBJECTID":544149},"geometry":{"x":172624.62999999989,"y":2535983.5199999996}},{"attributes":{"ID":544177,"DIS_CODE":0,"TOWNNAME":"仁德區","LI":"新田里","LIN":"12鄰","STREET":"北保三街","SECT":" ","MAREA":" ","LANE":" ","ALLEY":" ","HOUSE_NO":"２２號","E_COORD97":173197.45999999999,"N_COORD97":2539428.4900000002,"ADDRESS":"北保三街２２號","OBJECTID":544150},"geometry":{"x":173197.46000000183,"y":2539428.4900000021}},{"attributes":{"ID":544178,"DIS_CODE":0,"TOWNNAME":"仁德區","LI":"仁德里","LIN":"12鄰","STREET":"四維街","SECT":" ","MAREA":" ","LANE":" ","ALLEY":" ","HOUSE_NO":"３２號","E_COORD97":173266.98000000001,"N_COORD97":2541534.7400000002,"ADDRESS":"四維街３２號","OBJECTID":544151},"geometry":{"x":173266.98000000045,"y":2541534.7400000021}},{"attributes":{"ID":544179,"DIS_CODE":0,"TOWNNAME":"仁德區","LI":"保安里","LIN":"12鄰","STREET":"開發六路","SECT":" ","MAREA":" ","LANE":" ","ALLEY":" ","HOUSE_NO":"６號","E_COORD97":172725.54999999999,"N_COORD97":2535469.27,"ADDRESS":"開發六路６號","OBJECTID":544152},"geometry":{"x":172725.55000000075,"y":2535469.2700000014}},{"attributes":{"ID":544180,"DIS_CODE":0,"TOWNNAME":"仁德區","LI":"後壁里","LIN":"12鄰","STREET":"德南路","SECT":" ","MAREA":" ","LANE":" ","ALLEY":" ","HOUSE_NO":"２０２號","E_COORD97":173722.45999999999,"N_COORD97":2538470.52,"ADDRESS":"德南路２０２號","OBJECTID":544153},"geometry":{"x":173722.45999999996,"y":2538470.5200000014}},{"attributes":{"ID":544181,"DIS_CODE":0,"TOWNNAME":"仁德區","LI":"一甲里","LIN":"12鄰","STREET":"忠義三街","SECT":" ","MAREA":" ","LANE":" ","ALLEY":" ","HOUSE_NO":"４９號","E_COORD97":173618.67999999999,"N_COORD97":2541806.7599999998,"ADDRESS":"忠義三街４９號","OBJECTID":544154},"geometry":{"x":173618.6799999997,"y":2541806.7599999998}},{"attributes":{"ID":544182,"DIS_CODE":0,"TOWNNAME":"仁德區","LI":"後壁里","LIN":"12鄰","STREET":"德南路","SECT":" ","MAREA":" ","LANE":" ","ALLEY":" ","HOUSE_NO":"１７９號","E_COORD97":173645.76000000001,"N_COORD97":2538552.27,"ADDRESS":"德南路１７９號","OBJECTID":544155},"geometry":{"x":173645.75999999978,"y":2538552.2699999996}},{"attributes":{"ID":544183,"DIS_CODE":0,"TOWNNAME":"仁德區","LI":"後壁里","LIN":"12鄰","STREET":"德善路","SECT":" ","MAREA":" ","LANE":" ","ALLEY":" ","HOUSE_NO":"２２４號","E_COORD97":173793.39000000001,"N_COORD97":2538695.0099999998,"ADDRESS":"德善路２２４號","OBJECTID":544156},"geometry":{"x":173793.3900000006,"y":2538695.0100000016}},{"attributes":{"ID":544184,"DIS_CODE":0,"TOWNNAME":"佳里區","LI":"建南里","LIN":"12鄰","STREET":"新生路","SECT":" ","MAREA":" ","LANE":" ","ALLEY":" ","HOUSE_NO":"４０１號","E_COORD97":165312.16,"N_COORD97":2562183.5899999999,"ADDRESS":"新生路４０１號","OBJECTID":544157},"geometry":{"x":165312.16000000108,"y":2562183.5900000017}},{"attributes":{"ID":544185,"DIS_CODE":0,"TOWNNAME":"佳里區","LI":"安西里","LIN":"12鄰","STREET":"新生路","SECT":" ","MAREA":" ","LANE":" ","ALLEY":" ","HOUSE_NO":"４０２號","E_COORD97":165325.29000000001,"N_COORD97":2562219.1200000001,"ADDRESS":"新生路４０２號","OBJECTID":544158},"geometry":{"x":165325.29000000097,"y":2562219.120000001}},{"attributes":{"ID":544186,"DIS_CODE":0,"TOWNNAME":"佳里區","LI":"建南里","LIN":"12鄰","STREET":"新生路","SECT":" ","MAREA":" ","LANE":" ","ALLEY":" ","HOUSE_NO":"４０３號","E_COORD97":165307.51999999999,"N_COORD97":2562182.54,"ADDRESS":"新生路４０３號","OBJECTID":544159},"geometry":{"x":165307.52000000048,"y":2562182.540000001}},{"attributes":{"ID":544187,"DIS_CODE":0,"TOWNNAME":"佳里區","LI":"建南里","LIN":"12鄰","STREET":"新生路","SECT":" ","MAREA":" ","LANE":" ","ALLEY":" ","HOUSE_NO":"４０５號","E_COORD97":165303.06,"N_COORD97":2562181.9300000002,"ADDRESS":"新生路４０５號","OBJECTID":544160},"geometry":{"x":165303.05999999959,"y":2562181.9299999997}},{"attributes":{"ID":544188,"DIS_CODE":0,"TOWNNAME":"佳里區","LI":"安西里","LIN":"12鄰","STREET":"新生路","SECT":" ","MAREA":" ","LANE":" ","ALLEY":" ","HOUSE_NO":"４０６號","E_COORD97":165321.51000000001,"N_COORD97":2562218.25,"ADDRESS":"新生路４０６號","OBJECTID":544161},"geometry":{"x":165321.51000000071,"y":2562218.25}},{"attributes":{"ID":544189,"DIS_CODE":0,"TOWNNAME":"佳里區","LI":"建南里","LIN":"12鄰","STREET":"新生路","SECT":" ","MAREA":" ","LANE":" ","ALLEY":" ","HOUSE_NO":"４０７號","E_COORD97":165298.92000000001,"N_COORD97":2562181.4199999999,"ADDRESS":"新生路４０７號","OBJECTID":544162},"geometry":{"x":165298.91999999993,"y":2562181.4200000018}},{"attributes":{"ID":544190,"DIS_CODE":0,"TOWNNAME":"佳里區","LI":"建南里","LIN":"12鄰","STREET":"新生路","SECT":" ","MAREA":" ","LANE":" ","ALLEY":" ","HOUSE_NO":"４０９號","E_COORD97":165294.85000000001,"N_COORD97":2562180.6400000001,"ADDRESS":"新生路４０９號","OBJECTID":544163},"geometry":{"x":165294.85000000149,"y":2562180.6400000025}},{"attributes":{"ID":544191,"DIS_CODE":0,"TOWNNAME":"佳里區","LI":"安西里","LIN":"12鄰","STREET":"新生路","SECT":" ","MAREA":" ","LANE":" ","ALLEY":" ","HOUSE_NO":"４１２號","E_COORD97":165300.67000000001,"N_COORD97":2562214.3199999998,"ADDRESS":"新生路４１２號","OBJECTID":544164},"geometry":{"x":165300.66999999993,"y":2562214.3200000003}},{"attributes":{"ID":544192,"DIS_CODE":0,"TOWNNAME":"佳里區","LI":"忠仁里","LIN":"12鄰","STREET":"新生路","SECT":" ","MAREA":" ","LANE":" ","ALLEY":" ","HOUSE_NO":"４１號","E_COORD97":166089.88,"N_COORD97":2562361.9100000001,"ADDRESS":"新生路４１號","OBJECTID":544165},"geometry":{"x":166089.88000000175,"y":2562361.9100000001}},{"attributes":{"ID":544193,"DIS_CODE":0,"TOWNNAME":"佳里區","LI":"忠仁里","LIN":"12鄰","STREET":"新生路","SECT":" ","MAREA":" ","LANE":" ","ALLEY":" ","HOUSE_NO":"４３號","E_COORD97":166082.84,"N_COORD97":2562359.2200000002,"ADDRESS":"新生路４３號","OBJECTID":544166},"geometry":{"x":166082.83999999985,"y":2562359.2200000025}},{"attributes":{"ID":544194,"DIS_CODE":0,"TOWNNAME":"佳里區","LI":"安西里","LIN":"12鄰","STREET":"新生路","SECT":" ","MAREA":" ","LANE":" ","ALLEY":" ","HOUSE_NO":"３４６號","E_COORD97":165450.07000000001,"N_COORD97":2562243.8599999999,"ADDRESS":"新生路３４６號","OBJECTID":544167},"geometry":{"x":165450.07000000216,"y":2562243.8599999994}},{"attributes":{"ID":544195,"DIS_CODE":0,"TOWNNAME":"佳里區","LI":"建南里","LIN":"12鄰","STREET":"新生路","SECT":" ","MAREA":" ","LANE":" ","ALLEY":" ","HOUSE_NO":"３４７號","E_COORD97":165440.01000000001,"N_COORD97":2562209.4900000002,"ADDRESS":"新生路３４７號","OBJECTID":544168},"geometry":{"x":165440.01000000071,"y":2562209.4900000002}},{"attributes":{"ID":544196,"DIS_CODE":0,"TOWNNAME":"佳里區","LI":"安西里","LIN":"12鄰","STREET":"新生路","SECT":" ","MAREA":" ","LANE":" ","ALLEY":" ","HOUSE_NO":"３４８號","E_COORD97":165444.95999999999,"N_COORD97":2562243.23,"ADDRESS":"新生路３４８號","OBJECTID":544169},"geometry":{"x":165444.95999999996,"y":2562243.2300000042}},{"attributes":{"ID":544197,"DIS_CODE":0,"TOWNNAME":"佳里區","LI":"建南里","LIN":"12鄰","STREET":"新生路","SECT":" ","MAREA":" ","LANE":" ","ALLEY":" ","HOUSE_NO":"３４９號","E_COORD97":165433.79000000001,"N_COORD97":2562208.1600000001,"ADDRESS":"新生路３４９號","OBJECTID":544170},"geometry":{"x":165433.79000000097,"y":2562208.1600000001}},{"attributes":{"ID":544198,"DIS_CODE":0,"TOWNNAME":"佳里區","LI":"建南里","LIN":"12鄰","STREET":"新生路","SECT":" ","MAREA":" ","LANE":" ","ALLEY":" ","HOUSE_NO":"３５１號","E_COORD97":165428.26999999999,"N_COORD97":2562206.7799999998,"ADDRESS":"新生路３５１號","OBJECTID":544171},"geometry":{"x":165428.27000000048,"y":2562206.7799999993}},{"attributes":{"ID":544199,"DIS_CODE":0,"TOWNNAME":"佳里區","LI":"建南里","LIN":"12鄰","STREET":"新生路","SECT":" ","MAREA":" ","LANE":" ","ALLEY":" ","HOUSE_NO":"３５５號","E_COORD97":165418.01000000001,"N_COORD97":2562204.5899999999,"ADDRESS":"新生路３５５號","OBJECTID":544172},"geometry":{"x":165418.01000000071,"y":2562204.5899999999}},{"attributes":{"ID":544200,"DIS_CODE":0,"TOWNNAME":"佳里區","LI":"建南里","LIN":"12鄰","STREET":"新生路","SECT":" ","MAREA":" ","LANE":" ","ALLEY":" ","HOUSE_NO":"３５７號之１０","E_COORD97":165378.70000000001,"N_COORD97":2562140.48,"ADDRESS":"新生路３５７號之１０","OBJECTID":544173},"geometry":{"x":165378.70000000019,"y":2562140.4800000023}},{"attributes":{"ID":544201,"DIS_CODE":0,"TOWNNAME":"佳里區","LI":"建南里","LIN":"12鄰","STREET":"新生路","SECT":" ","MAREA":" ","LANE":" ","ALLEY":" ","HOUSE_NO":"３５７號之１１","E_COORD97":165386.34,"N_COORD97":2562141.1000000001,"ADDRESS":"新生路３５７號之１１","OBJECTID":544174},"geometry":{"x":165386.33999999985,"y":2562141.0999999978}},{"attributes":{"ID":544202,"DIS_CODE":0,"TOWNNAME":"佳里區","LI":"建南里","LIN":"12鄰","STREET":"新生路","SECT":" ","MAREA":" ","LANE":" ","ALLEY":" ","HOUSE_NO":"３５７號之１３","E_COORD97":165402.53,"N_COORD97":2562143.4700000002,"ADDRESS":"新生路３５７號之１３","OBJECTID":544175},"geometry":{"x":165402.53000000026,"y":2562143.4700000044}},{"attributes":{"ID":544203,"DIS_CODE":0,"TOWNNAME":"佳里區","LI":"建南里","LIN":"12鄰","STREET":"新生路","SECT":" ","MAREA":" ","LANE":" ","ALLEY":" ","HOUSE_NO":"３５７號之１４","E_COORD97":165403.06,"N_COORD97":2562138.8399999999,"ADDRESS":"新生路３５７號之１４","OBJECTID":544176},"geometry":{"x":165403.05999999959,"y":2562138.8399999999}},{"attributes":{"ID":544204,"DIS_CODE":0,"TOWNNAME":"佳里區","LI":"建南里","LIN":"12鄰","STREET":"新生路","SECT":" ","MAREA":" ","LANE":" ","ALLEY":" ","HOUSE_NO":"３５７號之１５","E_COORD97":165403.73000000001,"N_COORD97":2562134.4100000001,"ADDRESS":"新生路３５７號之１５","OBJECTID":544177},"geometry":{"x":165403.73000000138,"y":2562134.410000002}},{"attributes":{"ID":544205,"DIS_CODE":0,"TOWNNAME":"佳里區","LI":"建南里","LIN":"12鄰","STREET":"新生路","SECT":" ","MAREA":" ","LANE":" ","ALLEY":" ","HOUSE_NO":"３５７號之１６","E_COORD97":165403.92999999999,"N_COORD97":2562130.2999999998,"ADDRESS":"新生路３５７號之１６","OBJECTID":544178},"geometry":{"x":165403.9299999997,"y":2562130.3000000007}},{"attributes":{"ID":544206,"DIS_CODE":0,"TOWNNAME":"佳里區","LI":"建南里","LIN":"12鄰","STREET":"新生路","SECT":" ","MAREA":" ","LANE":" ","ALLEY":" ","HOUSE_NO":"３５７號之１","E_COORD97":165400.04000000001,"N_COORD97":2562165.5,"ADDRESS":"新生路３５７號之１","OBJECTID":544179},"geometry":{"x":165400.04000000004,"y":2562165.5}},{"attributes":{"ID":544207,"DIS_CODE":0,"TOWNNAME":"佳里區","LI":"建南里","LIN":"12鄰","STREET":"新生路","SECT":" ","MAREA":" ","LANE":" ","ALLEY":" ","HOUSE_NO":"３５７號之２","E_COORD97":165400.44,"N_COORD97":2562161.3100000001,"ADDRESS":"新生路３５７號之２","OBJECTID":544180},"geometry":{"x":165400.44000000134,"y":2562161.3100000042}},{"attributes":{"ID":544208,"DIS_CODE":0,"TOWNNAME":"佳里區","LI":"建南里","LIN":"12鄰","STREET":"新生路","SECT":" ","MAREA":" ","LANE":" ","ALLEY":" ","HOUSE_NO":"３５７號之３","E_COORD97":165400.82000000001,"N_COORD97":2562157.29,"ADDRESS":"新生路３５７號之３","OBJECTID":544181},"geometry":{"x":165400.82000000216,"y":2562157.290000001}},{"attributes":{"ID":544209,"DIS_CODE":0,"TOWNNAME":"佳里區","LI":"建南里","LIN":"12鄰","STREET":"新生路","SECT":" ","MAREA":" ","LANE":" ","ALLEY":" ","HOUSE_NO":"３５７號之４","E_COORD97":165401.23999999999,"N_COORD97":2562152.8199999998,"ADDRESS":"新生路３５７號之４","OBJECTID":544182},"geometry":{"x":165401.24000000209,"y":2562152.8200000003}},{"attributes":{"ID":544210,"DIS_CODE":0,"TOWNNAME":"佳里區","LI":"建南里","LIN":"12鄰","STREET":"新生路","SECT":" ","MAREA":" ","LANE":" ","ALLEY":" ","HOUSE_NO":"３５７號之５","E_COORD97":165390.17999999999,"N_COORD97":2562159.7799999998,"ADDRESS":"新生路３５７號之５","OBJECTID":544183},"geometry":{"x":165390.1799999997,"y":2562159.7799999993}},{"attributes":{"ID":544211,"DIS_CODE":0,"TOWNNAME":"佳里區","LI":"建南里","LIN":"12鄰","STREET":"新生路","SECT":" ","MAREA":" ","LANE":" ","ALLEY":" ","HOUSE_NO":"３５７號之７","E_COORD97":165377.72,"N_COORD97":2562157.8399999999,"ADDRESS":"新生路３５７號之７","OBJECTID":544184},"geometry":{"x":165377.72000000067,"y":2562157.8400000017}},{"attributes":{"ID":544212,"DIS_CODE":0,"TOWNNAME":"佳里區","LI":"建南里","LIN":"12鄰","STREET":"新生路","SECT":" ","MAREA":" ","LANE":" ","ALLEY":" ","HOUSE_NO":"３５７號之８","E_COORD97":165371.94,"N_COORD97":2562156.8700000001,"ADDRESS":"新生路３５７號之８","OBJECTID":544185},"geometry":{"x":165371.94000000134,"y":2562156.870000001}},{"attributes":{"ID":544213,"DIS_CODE":0,"TOWNNAME":"佳里區","LI":"建南里","LIN":"12鄰","STREET":"新生路","SECT":" ","MAREA":" ","LANE":" ","ALLEY":" ","HOUSE_NO":"３５７號之９","E_COORD97":165373.67000000001,"N_COORD97":2562139.6800000002,"ADDRESS":"新生路３５７號之９","OBJECTID":544186},"geometry":{"x":165373.66999999993,"y":2562139.6799999997}},{"attributes":{"ID":544214,"DIS_CODE":0,"TOWNNAME":"佳里區","LI":"建南里","LIN":"12鄰","STREET":"新生路","SECT":" ","MAREA":" ","LANE":" ","ALLEY":" ","HOUSE_NO":"３５７號","E_COORD97":165401.53,"N_COORD97":2562201.25,"ADDRESS":"新生路３５７號","OBJECTID":544187},"geometry":{"x":165401.53000000119,"y":2562201.25}},{"attributes":{"ID":544215,"DIS_CODE":0,"TOWNNAME":"佳里區","LI":"忠仁里","LIN":"12鄰","STREET":"新生路","SECT":" ","MAREA":" ","LANE":" ","ALLEY":" ","HOUSE_NO":"３５號","E_COORD97":166110.60000000001,"N_COORD97":2562369.1099999999,"ADDRESS":"新生路３５號","OBJECTID":544188},"geometry":{"x":166110.60000000056,"y":2562369.1100000013}},{"attributes":{"ID":544216,"DIS_CODE":0,"TOWNNAME":"佳里區","LI":"安西里","LIN":"12鄰","STREET":"新生路","SECT":" ","MAREA":" ","LANE":" ","ALLEY":" ","HOUSE_NO":"３６２號","E_COORD97":165405.22,"N_COORD97":2562235.0699999998,"ADDRESS":"新生路３６２號","OBJECTID":544189},"geometry":{"x":165405.21999999974,"y":2562235.0700000022}},{"attributes":{"ID":544217,"DIS_CODE":0,"TOWNNAME":"佳里區","LI":"建南里","LIN":"12鄰","STREET":"新生路","SECT":" ","MAREA":" ","LANE":" ","ALLEY":" ","HOUSE_NO":"３６３號","E_COORD97":165391.87,"N_COORD97":2562199.96,"ADDRESS":"新生路３６３號","OBJECTID":544190},"geometry":{"x":165391.87000000197,"y":2562199.9600000009}},{"attributes":{"ID":544218,"DIS_CODE":0,"TOWNNAME":"佳里區","LI":"安西里","LIN":"12鄰","STREET":"新生路","SECT":" ","MAREA":" ","LANE":" ","ALLEY":" ","HOUSE_NO":"３６４號","E_COORD97":165401.13,"N_COORD97":2562234.21,"ADDRESS":"新生路３６４號","OBJECTID":544191},"geometry":{"x":165401.12999999989,"y":2562234.2100000028}},{"attributes":{"ID":544219,"DIS_CODE":0,"TOWNNAME":"佳里區","LI":"建南里","LIN":"12鄰","STREET":"新生路","SECT":" ","MAREA":" ","LANE":" ","ALLEY":" ","HOUSE_NO":"３６５號","E_COORD97":165385.04000000001,"N_COORD97":2562198.4900000002,"ADDRESS":"新生路３６５號","OBJECTID":544192},"geometry":{"x":165385.04000000004,"y":2562198.4900000021}},{"attributes":{"ID":544220,"DIS_CODE":0,"TOWNNAME":"佳里區","LI":"安西里","LIN":"12鄰","STREET":"新生路","SECT":" ","MAREA":" ","LANE":" ","ALLEY":" ","HOUSE_NO":"３６６號","E_COORD97":165397.44,"N_COORD97":2562233.5299999998,"ADDRESS":"新生路３６６號","OBJECTID":544193},"geometry":{"x":165397.44000000134,"y":2562233.5300000012}},{"attributes":{"ID":544221,"DIS_CODE":0,"TOWNNAME":"佳里區","LI":"建南里","LIN":"12鄰","STREET":"新生路","SECT":" ","MAREA":" ","LANE":" ","ALLEY":" ","HOUSE_NO":"３６７號","E_COORD97":165381.12,"N_COORD97":2562198.1299999999,"ADDRESS":"新生路３６７號","OBJECTID":544194},"geometry":{"x":165381.12000000011,"y":2562198.1300000027}},{"attributes":{"ID":544222,"DIS_CODE":0,"TOWNNAME":"佳里區","LI":"安西里","LIN":"12鄰","STREET":"新生路","SECT":" ","MAREA":" ","LANE":" ","ALLEY":" ","HOUSE_NO":"３６８號","E_COORD97":165393.14999999999,"N_COORD97":2562232.6499999999,"ADDRESS":"新生路３６８號","OBJECTID":544195},"geometry":{"x":165393.15000000037,"y":2562232.6500000004}},{"attributes":{"ID":544223,"DIS_CODE":0,"TOWNNAME":"佳里區","LI":"建南里","LIN":"12鄰","STREET":"新生路","SECT":" ","MAREA":" ","LANE":" ","ALLEY":" ","HOUSE_NO":"３６９號","E_COORD97":165376.73999999999,"N_COORD97":2562197.0600000001,"ADDRESS":"新生路３６９號","OBJECTID":544196},"geometry":{"x":165376.74000000022,"y":2562197.0600000042}},{"attributes":{"ID":544224,"DIS_CODE":0,"TOWNNAME":"佳里區","LI":"安西里","LIN":"12鄰","STREET":"新生路","SECT":" ","MAREA":" ","LANE":" ","ALLEY":" ","HOUSE_NO":"３７０號","E_COORD97":165388.62,"N_COORD97":2562231.9700000002,"ADDRESS":"新生路３７０號","OBJECTID":544197},"geometry":{"x":165388.62000000104,"y":2562231.9700000025}},{"attributes":{"ID":544225,"DIS_CODE":0,"TOWNNAME":"佳里區","LI":"建南里","LIN":"12鄰","STREET":"新生路","SECT":" ","MAREA":" ","LANE":" ","ALLEY":" ","HOUSE_NO":"３７１號","E_COORD97":165372.26999999999,"N_COORD97":2562196.2999999998,"ADDRESS":"新生路３７１號","OBJECTID":544198},"geometry":{"x":165372.27000000048,"y":2562196.3000000026}},{"attributes":{"ID":544226,"DIS_CODE":0,"TOWNNAME":"佳里區","LI":"安西里","LIN":"12鄰","STREET":"新生路","SECT":" ","MAREA":" ","LANE":" ","ALLEY":" ","HOUSE_NO":"３７２號","E_COORD97":165384.10999999999,"N_COORD97":2562231.1000000001,"ADDRESS":"新生路３７２號","OBJECTID":544199},"geometry":{"x":165384.11000000127,"y":2562231.1000000015}},{"attributes":{"ID":544227,"DIS_CODE":0,"TOWNNAME":"佳里區","LI":"建南里","LIN":"12鄰","STREET":"新生路","SECT":" ","MAREA":" ","LANE":" ","ALLEY":" ","HOUSE_NO":"３７３號","E_COORD97":165367.66,"N_COORD97":2562195.4900000002,"ADDRESS":"新生路３７３號","OBJECTID":544200},"geometry":{"x":165367.66000000015,"y":2562195.4900000002}}]}