{"displayFieldName":"TOWNNAME","fieldAliases":{"ID":"ID","DIS_CODE":"DIS_CODE","TOWNNAME":"TOWNNAME","LI":"LI","LIN":"LIN","STREET":"STREET","SECT":"SECT","MAREA":"MAREA","LANE":"LANE","ALLEY":"ALLEY","HOUSE_NO":"HOUSE_NO","E_COORD97":"E_COORD97","N_COORD97":"N_COORD97","ADDRESS":"ADDRESS","OBJECTID":"OBJECTID"},"geometryType":"esriGeometryPoint","spatialReference":{"wkid":102443,"latestWkid":3826},"fields":[{"name":"ID","type":"esriFieldTypeDouble","alias":"ID"},{"name":"DIS_CODE","type":"esriFieldTypeInteger","alias":"DIS_CODE"},{"name":"TOWNNAME","type":"esriFieldTypeString","alias":"TOWNNAME","length":8},{"name":"LI","type":"esriFieldTypeString","alias":"LI","length":8},{"name":"LIN","type":"esriFieldTypeString","alias":"LIN","length":12},{"name":"STREET","type":"esriFieldTypeString","alias":"STREET","length":20},{"name":"SECT","type":"esriFieldTypeString","alias":"SECT","length":8},{"name":"MAREA","type":"esriFieldTypeString","alias":"MAREA","length":12},{"name":"LANE","type":"esriFieldTypeString","alias":"LANE","length":10},{"name":"ALLEY","type":"esriFieldTypeString","alias":"ALLEY","length":10},{"name":"HOUSE_NO","type":"esriFieldTypeString","alias":"HOUSE_NO","length":20},{"name":"E_COORD97","type":"esriFieldTypeDouble","alias":"E_COORD97"},{"name":"N_COORD97","type":"esriFieldTypeDouble","alias":"N_COORD97"},{"name":"ADDRESS","type":"esriFieldTypeString","alias":"ADDRESS","length":50},{"name":"OBJECTID","type":"esriFieldTypeOID","alias":"OBJECTID"}],"features":[{"attributes":{"ID":157402,"DIS_CODE":0,"TOWNNAME":"安南區","LI":"安東里","LIN":"2鄰","STREET":"安和路","SECT":"一段","MAREA":" ","LANE":"４７８巷","ALLEY":"４６弄","HOUSE_NO":"１５號","E_COORD97":169483.63,"N_COORD97":2548306.79,"ADDRESS":"安和路一段４７８巷４６弄１５號","OBJECTID":157401},"geometry":{"x":169483.63000000175,"y":2548306.7900000028}},{"attributes":{"ID":157403,"DIS_CODE":0,"TOWNNAME":"安南區","LI":"安東里","LIN":"2鄰","STREET":"安和路","SECT":"一段","MAREA":" ","LANE":"４７８巷","ALLEY":"４６弄","HOUSE_NO":"１６號","E_COORD97":169495.37,"N_COORD97":2548322.8500000001,"ADDRESS":"安和路一段４７８巷４６弄１６號","OBJECTID":157402},"geometry":{"x":169495.37000000011,"y":2548322.8499999996}},{"attributes":{"ID":157404,"DIS_CODE":0,"TOWNNAME":"麻豆區","LI":"南勢里","LIN":"19鄰","STREET":" ","SECT":" ","MAREA":"南勢","LANE":" ","ALLEY":" ","HOUSE_NO":"３６號之２０","E_COORD97":174364.97,"N_COORD97":2564717.3199999998,"ADDRESS":"南勢３６號之２０","OBJECTID":157403},"geometry":{"x":174364.96999999881,"y":2564717.320000004}},{"attributes":{"ID":157405,"DIS_CODE":0,"TOWNNAME":"安南區","LI":"安東里","LIN":"2鄰","STREET":"安和路","SECT":"一段","MAREA":" ","LANE":"４７８巷","ALLEY":"４６弄","HOUSE_NO":"１７號","E_COORD97":169478.88,"N_COORD97":2548307.0699999998,"ADDRESS":"安和路一段４７８巷４６弄１７號","OBJECTID":157404},"geometry":{"x":169478.88000000082,"y":2548307.0700000022}},{"attributes":{"ID":157406,"DIS_CODE":0,"TOWNNAME":"安南區","LI":"安東里","LIN":"2鄰","STREET":"安和路","SECT":"一段","MAREA":" ","LANE":"４７８巷","ALLEY":"４６弄","HOUSE_NO":"１８號","E_COORD97":169489.92000000001,"N_COORD97":2548322.9900000002,"ADDRESS":"安和路一段４７８巷４６弄１８號","OBJECTID":157405},"geometry":{"x":169489.91999999993,"y":2548322.9900000002}},{"attributes":{"ID":157407,"DIS_CODE":0,"TOWNNAME":"安南區","LI":"安東里","LIN":"2鄰","STREET":"安和路","SECT":"一段","MAREA":" ","LANE":"４７８巷","ALLEY":"４６弄","HOUSE_NO":"１９號","E_COORD97":169471.48000000001,"N_COORD97":2548307.21,"ADDRESS":"安和路一段４７８巷４６弄１９號","OBJECTID":157406},"geometry":{"x":169471.48000000045,"y":2548307.2100000028}},{"attributes":{"ID":157408,"DIS_CODE":0,"TOWNNAME":"安南區","LI":"安東里","LIN":"2鄰","STREET":"安和路","SECT":"一段","MAREA":" ","LANE":"４７８巷","ALLEY":"４６弄","HOUSE_NO":"１號","E_COORD97":169524.98999999999,"N_COORD97":2548307.77,"ADDRESS":"安和路一段４７８巷４６弄１號","OBJECTID":157407},"geometry":{"x":169524.99000000022,"y":2548307.7700000014}},{"attributes":{"ID":157409,"DIS_CODE":0,"TOWNNAME":"安南區","LI":"安東里","LIN":"2鄰","STREET":"安和路","SECT":"一段","MAREA":" ","LANE":"４７８巷","ALLEY":"４６弄","HOUSE_NO":"２０號","E_COORD97":169483.76999999999,"N_COORD97":2548322.8500000001,"ADDRESS":"安和路一段４７８巷４６弄２０號","OBJECTID":157408},"geometry":{"x":169483.76999999955,"y":2548322.8499999996}},{"attributes":{"ID":157410,"DIS_CODE":0,"TOWNNAME":"麻豆區","LI":"南勢里","LIN":"19鄰","STREET":" ","SECT":" ","MAREA":"南勢","LANE":" ","ALLEY":" ","HOUSE_NO":"３６號之２１","E_COORD97":174365.10999999999,"N_COORD97":2564711.71,"ADDRESS":"南勢３６號之２１","OBJECTID":157409},"geometry":{"x":174365.11000000127,"y":2564711.709999999}},{"attributes":{"ID":157411,"DIS_CODE":0,"TOWNNAME":"麻豆區","LI":"南勢里","LIN":"19鄰","STREET":" ","SECT":" ","MAREA":"南勢","LANE":" ","ALLEY":" ","HOUSE_NO":"３６號之２２","E_COORD97":174365.01999999999,"N_COORD97":2564706.4700000002,"ADDRESS":"南勢３６號之２２","OBJECTID":157410},"geometry":{"x":174365.02000000048,"y":2564706.4700000044}},{"attributes":{"ID":157412,"DIS_CODE":0,"TOWNNAME":"麻豆區","LI":"南勢里","LIN":"19鄰","STREET":" ","SECT":" ","MAREA":"南勢","LANE":" ","ALLEY":" ","HOUSE_NO":"３６號之２３","E_COORD97":174365.01000000001,"N_COORD97":2564700.8599999999,"ADDRESS":"南勢３６號之２３","OBJECTID":157411},"geometry":{"x":174365.01000000071,"y":2564700.8599999994}},{"attributes":{"ID":157413,"DIS_CODE":0,"TOWNNAME":"鹽水區","LI":"福得里","LIN":"5鄰","STREET":" ","SECT":" ","MAREA":"後厝","LANE":" ","ALLEY":" ","HOUSE_NO":"９６號","E_COORD97":175361.01000000001,"N_COORD97":2579829.71,"ADDRESS":"後厝９６號","OBJECTID":157412},"geometry":{"x":175361.00999999978,"y":2579829.7100000046}},{"attributes":{"ID":157414,"DIS_CODE":0,"TOWNNAME":"鹽水區","LI":"福得里","LIN":"5鄰","STREET":" ","SECT":" ","MAREA":"後厝","LANE":" ","ALLEY":" ","HOUSE_NO":"９７號","E_COORD97":175364.45000000001,"N_COORD97":2579832.48,"ADDRESS":"後厝９７號","OBJECTID":157413},"geometry":{"x":175364.45000000112,"y":2579832.4800000004}},{"attributes":{"ID":157415,"DIS_CODE":0,"TOWNNAME":"鹽水區","LI":"福得里","LIN":"5鄰","STREET":" ","SECT":" ","MAREA":"後厝","LANE":" ","ALLEY":" ","HOUSE_NO":"９８號","E_COORD97":175378.5,"N_COORD97":2579835.8300000001,"ADDRESS":"後厝９８號","OBJECTID":157414},"geometry":{"x":175378.5,"y":2579835.8300000019}},{"attributes":{"ID":157416,"DIS_CODE":0,"TOWNNAME":"鹽水區","LI":"福得里","LIN":"5鄰","STREET":" ","SECT":" ","MAREA":"後厝","LANE":" ","ALLEY":" ","HOUSE_NO":"９９號","E_COORD97":175375.78,"N_COORD97":2579840.0499999998,"ADDRESS":"後厝９９號","OBJECTID":157415},"geometry":{"x":175375.78000000119,"y":2579840.0500000007}},{"attributes":{"ID":157417,"DIS_CODE":0,"TOWNNAME":"安南區","LI":"安東里","LIN":"2鄰","STREET":"安和路","SECT":"一段","MAREA":" ","LANE":"４７８巷","ALLEY":"４６弄","HOUSE_NO":"２２號","E_COORD97":169478.32999999999,"N_COORD97":2548322.9900000002,"ADDRESS":"安和路一段４７８巷４６弄２２號","OBJECTID":157416},"geometry":{"x":169478.33000000007,"y":2548322.9900000002}},{"attributes":{"ID":157418,"DIS_CODE":0,"TOWNNAME":"安南區","LI":"安東里","LIN":"2鄰","STREET":"安和路","SECT":"一段","MAREA":" ","LANE":"４７８巷","ALLEY":"４６弄","HOUSE_NO":"２４號","E_COORD97":169471.34,"N_COORD97":2548322.29,"ADDRESS":"安和路一段４７８巷４６弄２４號","OBJECTID":157417},"geometry":{"x":169471.33999999985,"y":2548322.2899999991}},{"attributes":{"ID":157419,"DIS_CODE":0,"TOWNNAME":"鹽水區","LI":"後宅里","LIN":"5鄰","STREET":" ","SECT":" ","MAREA":"後寮","LANE":" ","ALLEY":" ","HOUSE_NO":"３６之１號","E_COORD97":173391.85000000001,"N_COORD97":2578453.8500000001,"ADDRESS":"後寮３６之１號","OBJECTID":157418},"geometry":{"x":173391.85000000056,"y":2578453.8499999996}},{"attributes":{"ID":157420,"DIS_CODE":0,"TOWNNAME":"鹽水區","LI":"後宅里","LIN":"5鄰","STREET":" ","SECT":" ","MAREA":"後寮","LANE":" ","ALLEY":" ","HOUSE_NO":"３６之２號","E_COORD97":173387,"N_COORD97":2578453.5600000001,"ADDRESS":"後寮３６之２號","OBJECTID":157419},"geometry":{"x":173387.00000000186,"y":2578453.5600000042}},{"attributes":{"ID":157421,"DIS_CODE":0,"TOWNNAME":"鹽水區","LI":"後宅里","LIN":"5鄰","STREET":" ","SECT":" ","MAREA":"後寮","LANE":" ","ALLEY":" ","HOUSE_NO":"３６號","E_COORD97":173379.76000000001,"N_COORD97":2578451.6600000001,"ADDRESS":"後寮３６號","OBJECTID":157420},"geometry":{"x":173379.75999999978,"y":2578451.6600000001}},{"attributes":{"ID":157422,"DIS_CODE":0,"TOWNNAME":"鹽水區","LI":"後宅里","LIN":"5鄰","STREET":" ","SECT":" ","MAREA":"後寮","LANE":" ","ALLEY":" ","HOUSE_NO":"３７號之２","E_COORD97":173348.20000000001,"N_COORD97":2578454.9700000002,"ADDRESS":"後寮３７號之２","OBJECTID":157421},"geometry":{"x":173348.20000000019,"y":2578454.9700000025}},{"attributes":{"ID":157423,"DIS_CODE":0,"TOWNNAME":"鹽水區","LI":"後宅里","LIN":"5鄰","STREET":" ","SECT":" ","MAREA":"後寮","LANE":" ","ALLEY":" ","HOUSE_NO":"３７號","E_COORD97":173372.79999999999,"N_COORD97":2578444.4199999999,"ADDRESS":"後寮３７號","OBJECTID":157422},"geometry":{"x":173372.79999999888,"y":2578444.4200000018}},{"attributes":{"ID":157424,"DIS_CODE":0,"TOWNNAME":"鹽水區","LI":"後宅里","LIN":"5鄰","STREET":" ","SECT":" ","MAREA":"後寮","LANE":" ","ALLEY":" ","HOUSE_NO":"３８之１號","E_COORD97":173390.17000000001,"N_COORD97":2578373.1200000001,"ADDRESS":"後寮３８之１號","OBJECTID":157423},"geometry":{"x":173390.16999999993,"y":2578373.1200000029}},{"attributes":{"ID":157425,"DIS_CODE":0,"TOWNNAME":"鹽水區","LI":"後宅里","LIN":"5鄰","STREET":" ","SECT":" ","MAREA":"後寮","LANE":" ","ALLEY":" ","HOUSE_NO":"３８號","E_COORD97":173328.09,"N_COORD97":2578392.2999999998,"ADDRESS":"後寮３８號","OBJECTID":157424},"geometry":{"x":173328.08999999985,"y":2578392.3000000026}},{"attributes":{"ID":157426,"DIS_CODE":0,"TOWNNAME":"麻豆區","LI":"南勢里","LIN":"19鄰","STREET":" ","SECT":" ","MAREA":"南勢","LANE":" ","ALLEY":" ","HOUSE_NO":"３６號之２５","E_COORD97":174365.35000000001,"N_COORD97":2564689.8500000001,"ADDRESS":"南勢３６號之２５","OBJECTID":157425},"geometry":{"x":174365.34999999963,"y":2564689.8500000015}},{"attributes":{"ID":157427,"DIS_CODE":0,"TOWNNAME":"麻豆區","LI":"南勢里","LIN":"19鄰","STREET":" ","SECT":" ","MAREA":"南勢","LANE":" ","ALLEY":" ","HOUSE_NO":"３６號之２６","E_COORD97":174365.35000000001,"N_COORD97":2564684.0600000001,"ADDRESS":"南勢３６號之２６","OBJECTID":157426},"geometry":{"x":174365.34999999963,"y":2564684.0600000005}},{"attributes":{"ID":157428,"DIS_CODE":0,"TOWNNAME":"麻豆區","LI":"南勢里","LIN":"19鄰","STREET":" ","SECT":" ","MAREA":"南勢","LANE":" ","ALLEY":" ","HOUSE_NO":"３６號之２７","E_COORD97":174382.14999999999,"N_COORD97":2564784.4700000002,"ADDRESS":"南勢３６號之２７","OBJECTID":157427},"geometry":{"x":174382.1500000013,"y":2564784.4700000044}},{"attributes":{"ID":157429,"DIS_CODE":0,"TOWNNAME":"麻豆區","LI":"南勢里","LIN":"19鄰","STREET":" ","SECT":" ","MAREA":"南勢","LANE":" ","ALLEY":" ","HOUSE_NO":"３６號之２８","E_COORD97":174381.94,"N_COORD97":2564780.1200000001,"ADDRESS":"南勢３６號之２８","OBJECTID":157428},"geometry":{"x":174381.94000000134,"y":2564780.120000001}},{"attributes":{"ID":157430,"DIS_CODE":0,"TOWNNAME":"麻豆區","LI":"南勢里","LIN":"19鄰","STREET":" ","SECT":" ","MAREA":"南勢","LANE":" ","ALLEY":" ","HOUSE_NO":"３６號之２９","E_COORD97":174382.48999999999,"N_COORD97":2564775.9500000002,"ADDRESS":"南勢３６號之２９","OBJECTID":157429},"geometry":{"x":174382.49000000209,"y":2564775.9499999993}},{"attributes":{"ID":157431,"DIS_CODE":0,"TOWNNAME":"麻豆區","LI":"南勢里","LIN":"19鄰","STREET":" ","SECT":" ","MAREA":"南勢","LANE":" ","ALLEY":" ","HOUSE_NO":"３６號之３０","E_COORD97":174382.23999999999,"N_COORD97":2564771.73,"ADDRESS":"南勢３６號之３０","OBJECTID":157430},"geometry":{"x":174382.24000000022,"y":2564771.7300000004}},{"attributes":{"ID":157432,"DIS_CODE":0,"TOWNNAME":"麻豆區","LI":"南勢里","LIN":"19鄰","STREET":" ","SECT":" ","MAREA":"南勢","LANE":" ","ALLEY":" ","HOUSE_NO":"３６號之３１","E_COORD97":174381.79000000001,"N_COORD97":2564767.8999999999,"ADDRESS":"南勢３６號之３１","OBJECTID":157431},"geometry":{"x":174381.78999999911,"y":2564767.9000000041}},{"attributes":{"ID":157433,"DIS_CODE":0,"TOWNNAME":"麻豆區","LI":"南勢里","LIN":"19鄰","STREET":" ","SECT":" ","MAREA":"南勢","LANE":" ","ALLEY":" ","HOUSE_NO":"３６號之３２","E_COORD97":174382.28,"N_COORD97":2564763.71,"ADDRESS":"南勢３６號之３２","OBJECTID":157432},"geometry":{"x":174382.28000000212,"y":2564763.7100000028}},{"attributes":{"ID":157434,"DIS_CODE":0,"TOWNNAME":"麻豆區","LI":"南勢里","LIN":"19鄰","STREET":" ","SECT":" ","MAREA":"南勢","LANE":" ","ALLEY":" ","HOUSE_NO":"３６號之３３","E_COORD97":174382.07999999999,"N_COORD97":2564759.1400000001,"ADDRESS":"南勢３６號之３３","OBJECTID":157433},"geometry":{"x":174382.08000000101,"y":2564759.1400000006}},{"attributes":{"ID":157435,"DIS_CODE":0,"TOWNNAME":"麻豆區","LI":"南勢里","LIN":"19鄰","STREET":" ","SECT":" ","MAREA":"南勢","LANE":" ","ALLEY":" ","HOUSE_NO":"３６號之３４","E_COORD97":174382.41,"N_COORD97":2564755.25,"ADDRESS":"南勢３６號之３４","OBJECTID":157434},"geometry":{"x":174382.41000000015,"y":2564755.2500000019}},{"attributes":{"ID":157436,"DIS_CODE":0,"TOWNNAME":"麻豆區","LI":"南勢里","LIN":"19鄰","STREET":" ","SECT":" ","MAREA":"南勢","LANE":" ","ALLEY":" ","HOUSE_NO":"３６號之３５","E_COORD97":174382.09,"N_COORD97":2564751.29,"ADDRESS":"南勢３６號之３５","OBJECTID":157435},"geometry":{"x":174382.09000000078,"y":2564751.290000001}},{"attributes":{"ID":157437,"DIS_CODE":0,"TOWNNAME":"麻豆區","LI":"南勢里","LIN":"19鄰","STREET":" ","SECT":" ","MAREA":"南勢","LANE":" ","ALLEY":" ","HOUSE_NO":"３６號之３６","E_COORD97":174382,"N_COORD97":2564747.1000000001,"ADDRESS":"南勢３６號之３６","OBJECTID":157436},"geometry":{"x":174381.99999999907,"y":2564747.0999999996}},{"attributes":{"ID":157438,"DIS_CODE":0,"TOWNNAME":"安南區","LI":"安東里","LIN":"2鄰","STREET":"安和路","SECT":"一段","MAREA":" ","LANE":"４７８巷","ALLEY":"４６弄","HOUSE_NO":"２號","E_COORD97":169536.73000000001,"N_COORD97":2548322.5699999998,"ADDRESS":"安和路一段４７８巷４６弄２號","OBJECTID":157437},"geometry":{"x":169536.73000000138,"y":2548322.5700000003}},{"attributes":{"ID":157439,"DIS_CODE":0,"TOWNNAME":"安南區","LI":"安東里","LIN":"2鄰","STREET":"安和路","SECT":"一段","MAREA":" ","LANE":"４７８巷","ALLEY":"４６弄","HOUSE_NO":"２號之１","E_COORD97":169529.73999999999,"N_COORD97":2548322.71,"ADDRESS":"安和路一段４７８巷４６弄２號之１","OBJECTID":157438},"geometry":{"x":169529.74000000115,"y":2548322.7100000046}},{"attributes":{"ID":157440,"DIS_CODE":0,"TOWNNAME":"安南區","LI":"安東里","LIN":"2鄰","STREET":"安和路","SECT":"一段","MAREA":" ","LANE":"４７８巷","ALLEY":"４６弄","HOUSE_NO":"２號地下二層","E_COORD97":169536.73000000001,"N_COORD97":2548322.5699999998,"ADDRESS":"安和路一段４７８巷４６弄２號地下二層","OBJECTID":157439},"geometry":{"x":169536.73000000138,"y":2548322.5700000003}},{"attributes":{"ID":157441,"DIS_CODE":0,"TOWNNAME":"鹽水區","LI":"後宅里","LIN":"5鄰","STREET":" ","SECT":" ","MAREA":"後寮","LANE":" ","ALLEY":" ","HOUSE_NO":"３９號","E_COORD97":173348.23000000001,"N_COORD97":2578497.4900000002,"ADDRESS":"後寮３９號","OBJECTID":157440},"geometry":{"x":173348.23000000045,"y":2578497.4900000002}},{"attributes":{"ID":157442,"DIS_CODE":0,"TOWNNAME":"鹽水區","LI":"後宅里","LIN":"5鄰","STREET":" ","SECT":" ","MAREA":"後寮","LANE":" ","ALLEY":" ","HOUSE_NO":"４０之１０號","E_COORD97":173256.38,"N_COORD97":2578502.9300000002,"ADDRESS":"後寮４０之１０號","OBJECTID":157441},"geometry":{"x":173256.37999999989,"y":2578502.9299999997}},{"attributes":{"ID":157443,"DIS_CODE":0,"TOWNNAME":"鹽水區","LI":"後宅里","LIN":"5鄰","STREET":" ","SECT":" ","MAREA":"後寮","LANE":" ","ALLEY":" ","HOUSE_NO":"４０之１１號","E_COORD97":173251.39000000001,"N_COORD97":2578503.3599999999,"ADDRESS":"後寮４０之１１號","OBJECTID":157442},"geometry":{"x":173251.38999999966,"y":2578503.3599999994}},{"attributes":{"ID":157444,"DIS_CODE":0,"TOWNNAME":"安南區","LI":"安東里","LIN":"2鄰","STREET":"安和路","SECT":"一段","MAREA":" ","LANE":"４７８巷","ALLEY":"４６弄","HOUSE_NO":"３號","E_COORD97":169517.87,"N_COORD97":2548307.0699999998,"ADDRESS":"安和路一段４７８巷４６弄３號","OBJECTID":157443},"geometry":{"x":169517.87000000197,"y":2548307.0700000022}},{"attributes":{"ID":157445,"DIS_CODE":0,"TOWNNAME":"鹽水區","LI":"後宅里","LIN":"5鄰","STREET":" ","SECT":" ","MAREA":"後寮","LANE":" ","ALLEY":" ","HOUSE_NO":"４０之１２號","E_COORD97":173246.56,"N_COORD97":2578503.6299999999,"ADDRESS":"後寮４０之１２號","OBJECTID":157444},"geometry":{"x":173246.55999999959,"y":2578503.6300000008}},{"attributes":{"ID":157446,"DIS_CODE":0,"TOWNNAME":"仁德區","LI":"土庫里","LIN":"19鄰","STREET":"太子二街","SECT":" ","MAREA":" ","LANE":" ","ALLEY":" ","HOUSE_NO":"１６４號","E_COORD97":174485.79000000001,"N_COORD97":2543182.75,"ADDRESS":"太子二街１６４號","OBJECTID":157445},"geometry":{"x":174485.79000000097,"y":2543182.7500000019}},{"attributes":{"ID":157447,"DIS_CODE":0,"TOWNNAME":"安南區","LI":"安東里","LIN":"2鄰","STREET":"安和路","SECT":"一段","MAREA":" ","LANE":"４７８巷","ALLEY":"４６弄","HOUSE_NO":"５號","E_COORD97":169513.82000000001,"N_COORD97":2548307.21,"ADDRESS":"安和路一段４７８巷４６弄５號","OBJECTID":157446},"geometry":{"x":169513.82000000123,"y":2548307.2100000028}},{"attributes":{"ID":157448,"DIS_CODE":0,"TOWNNAME":"鹽水區","LI":"後宅里","LIN":"5鄰","STREET":" ","SECT":" ","MAREA":"後寮","LANE":" ","ALLEY":" ","HOUSE_NO":"４０之１３號","E_COORD97":173241.95999999999,"N_COORD97":2578503.73,"ADDRESS":"後寮４０之１３號","OBJECTID":157447},"geometry":{"x":173241.96000000089,"y":2578503.7300000023}},{"attributes":{"ID":157449,"DIS_CODE":0,"TOWNNAME":"仁德區","LI":"大甲里","LIN":"19鄰","STREET":"行大街","SECT":" ","MAREA":" ","LANE":" ","ALLEY":" ","HOUSE_NO":"４５６號","E_COORD97":169356.14000000001,"N_COORD97":2535330,"ADDRESS":"行大街４５６號","OBJECTID":157448},"geometry":{"x":169356.13999999873,"y":2535330}},{"attributes":{"ID":157450,"DIS_CODE":0,"TOWNNAME":"中西區","LI":"郡王里","LIN":"4鄰","STREET":"開山路","SECT":" ","MAREA":" ","LANE":" ","ALLEY":" ","HOUSE_NO":"２０８號","E_COORD97":168963.19,"N_COORD97":2542989.3799999999,"ADDRESS":"開山路２０８號","OBJECTID":157449},"geometry":{"x":168963.19000000041,"y":2542989.379999999}},{"attributes":{"ID":157451,"DIS_CODE":0,"TOWNNAME":"中西區","LI":"郡王里","LIN":"4鄰","STREET":"開山路","SECT":" ","MAREA":" ","LANE":" ","ALLEY":" ","HOUSE_NO":"２１０號","E_COORD97":168966.85999999999,"N_COORD97":2542987.75,"ADDRESS":"開山路２１０號","OBJECTID":157450},"geometry":{"x":168966.86000000034,"y":2542987.75}},{"attributes":{"ID":157452,"DIS_CODE":0,"TOWNNAME":"仁德區","LI":"土庫里","LIN":"19鄰","STREET":"太子二街","SECT":" ","MAREA":" ","LANE":" ","ALLEY":" ","HOUSE_NO":"１６０號","E_COORD97":174473.10000000001,"N_COORD97":2543195.7599999998,"ADDRESS":"太子二街１６０號","OBJECTID":157451},"geometry":{"x":174473.10000000056,"y":2543195.7600000016}},{"attributes":{"ID":157453,"DIS_CODE":0,"TOWNNAME":"仁德區","LI":"土庫里","LIN":"19鄰","STREET":"太子二街","SECT":" ","MAREA":" ","LANE":" ","ALLEY":" ","HOUSE_NO":"２０９號","E_COORD97":174490.67999999999,"N_COORD97":2543168.25,"ADDRESS":"太子二街２０９號","OBJECTID":157452},"geometry":{"x":174490.67999999877,"y":2543168.2500000037}},{"attributes":{"ID":157454,"DIS_CODE":0,"TOWNNAME":"仁德區","LI":"土庫里","LIN":"19鄰","STREET":"太子二街","SECT":" ","MAREA":" ","LANE":" ","ALLEY":" ","HOUSE_NO":"２２１號","E_COORD97":174497.01000000001,"N_COORD97":2543131.2599999998,"ADDRESS":"太子二街２２１號","OBJECTID":157453},"geometry":{"x":174497.01000000164,"y":2543131.2600000016}},{"attributes":{"ID":157455,"DIS_CODE":0,"TOWNNAME":"安南區","LI":"安東里","LIN":"2鄰","STREET":"安和路","SECT":"一段","MAREA":" ","LANE":"４７８巷","ALLEY":"４６弄","HOUSE_NO":"６號","E_COORD97":169524.98999999999,"N_COORD97":2548322.8500000001,"ADDRESS":"安和路一段４７８巷４６弄６號","OBJECTID":157454},"geometry":{"x":169524.99000000022,"y":2548322.8499999996}},{"attributes":{"ID":157456,"DIS_CODE":0,"TOWNNAME":"鹽水區","LI":"後宅里","LIN":"5鄰","STREET":" ","SECT":" ","MAREA":"後寮","LANE":" ","ALLEY":" ","HOUSE_NO":"４０號之１３","E_COORD97":173241.95999999999,"N_COORD97":2578503.73,"ADDRESS":"後寮４０號之１３","OBJECTID":157455},"geometry":{"x":173241.96000000089,"y":2578503.7300000023}},{"attributes":{"ID":157457,"DIS_CODE":0,"TOWNNAME":"鹽水區","LI":"後宅里","LIN":"5鄰","STREET":" ","SECT":" ","MAREA":"後寮","LANE":" ","ALLEY":" ","HOUSE_NO":"４０之１４號","E_COORD97":173236.76999999999,"N_COORD97":2578504.1600000001,"ADDRESS":"後寮４０之１４號","OBJECTID":157456},"geometry":{"x":173236.76999999955,"y":2578504.160000002}},{"attributes":{"ID":157458,"DIS_CODE":0,"TOWNNAME":"安南區","LI":"安東里","LIN":"2鄰","STREET":"安和路","SECT":"一段","MAREA":" ","LANE":"４７８巷","ALLEY":"４６弄","HOUSE_NO":"７號","E_COORD97":169506.26999999999,"N_COORD97":2548307.0699999998,"ADDRESS":"安和路一段４７８巷４６弄７號","OBJECTID":157457},"geometry":{"x":169506.27000000048,"y":2548307.0700000022}},{"attributes":{"ID":157459,"DIS_CODE":0,"TOWNNAME":"安南區","LI":"安東里","LIN":"2鄰","STREET":"安和路","SECT":"一段","MAREA":" ","LANE":"４７８巷","ALLEY":"４６弄","HOUSE_NO":"８號","E_COORD97":169518.29000000001,"N_COORD97":2548322.4300000002,"ADDRESS":"安和路一段４７８巷４６弄８號","OBJECTID":157458},"geometry":{"x":169518.28999999911,"y":2548322.4299999997}},{"attributes":{"ID":157460,"DIS_CODE":0,"TOWNNAME":"安南區","LI":"安東里","LIN":"2鄰","STREET":"安和路","SECT":"一段","MAREA":" ","LANE":"４７８巷","ALLEY":"４６弄","HOUSE_NO":"９號","E_COORD97":169501.94,"N_COORD97":2548306.9300000002,"ADDRESS":"安和路一段４７８巷４６弄９號","OBJECTID":157459},"geometry":{"x":169501.94000000041,"y":2548306.9300000016}},{"attributes":{"ID":157461,"DIS_CODE":0,"TOWNNAME":"東區","LI":"崇學里","LIN":"2鄰","STREET":"崇德四街","SECT":" ","MAREA":" ","LANE":"７巷","ALLEY":"１６弄","HOUSE_NO":"２６號","E_COORD97":170585.23999999999,"N_COORD97":2542067.8300000001,"ADDRESS":"崇德四街７巷１６弄２６號","OBJECTID":157460},"geometry":{"x":170585.24000000209,"y":2542067.8300000001}},{"attributes":{"ID":157462,"DIS_CODE":0,"TOWNNAME":"東區","LI":"崇學里","LIN":"2鄰","STREET":"崇德四街","SECT":" ","MAREA":" ","LANE":"７巷","ALLEY":"１６弄","HOUSE_NO":"２號","E_COORD97":170540.14000000001,"N_COORD97":2542022.8199999998,"ADDRESS":"崇德四街７巷１６弄２號","OBJECTID":157461},"geometry":{"x":170540.1400000006,"y":2542022.8200000022}},{"attributes":{"ID":157463,"DIS_CODE":0,"TOWNNAME":"鹽水區","LI":"後宅里","LIN":"5鄰","STREET":" ","SECT":" ","MAREA":"後寮","LANE":" ","ALLEY":" ","HOUSE_NO":"４０之１５號","E_COORD97":173240.82000000001,"N_COORD97":2578488.21,"ADDRESS":"後寮４０之１５號","OBJECTID":157462},"geometry":{"x":173240.8200000003,"y":2578488.2100000028}},{"attributes":{"ID":157464,"DIS_CODE":0,"TOWNNAME":"仁德區","LI":"一甲里","LIN":"19鄰","STREET":"中正路","SECT":"三段","MAREA":" ","LANE":" ","ALLEY":" ","HOUSE_NO":"３２９之１號","E_COORD97":173757.98999999999,"N_COORD97":2542319.04,"ADDRESS":"中正路三段３２９之１號","OBJECTID":157463},"geometry":{"x":173757.99000000022,"y":2542319.040000001}},{"attributes":{"ID":157465,"DIS_CODE":0,"TOWNNAME":"鹽水區","LI":"後宅里","LIN":"5鄰","STREET":" ","SECT":" ","MAREA":"後寮","LANE":" ","ALLEY":" ","HOUSE_NO":"４０之１７號","E_COORD97":173249.89999999999,"N_COORD97":2578487.4900000002,"ADDRESS":"後寮４０之１７號","OBJECTID":157464},"geometry":{"x":173249.9000000013,"y":2578487.4899999984}},{"attributes":{"ID":157466,"DIS_CODE":0,"TOWNNAME":"鹽水區","LI":"後宅里","LIN":"5鄰","STREET":" ","SECT":" ","MAREA":"後寮","LANE":" ","ALLEY":" ","HOUSE_NO":"４０之１８號","E_COORD97":173254.59,"N_COORD97":2578487.1800000002,"ADDRESS":"後寮４０之１８號","OBJECTID":157465},"geometry":{"x":173254.59000000078,"y":2578487.1800000016}},{"attributes":{"ID":157467,"DIS_CODE":0,"TOWNNAME":"鹽水區","LI":"後宅里","LIN":"5鄰","STREET":" ","SECT":" ","MAREA":"後寮","LANE":" ","ALLEY":" ","HOUSE_NO":"４０號之１","E_COORD97":173246.10999999999,"N_COORD97":2578472.3300000001,"ADDRESS":"後寮４０號之１","OBJECTID":157466},"geometry":{"x":173246.11000000127,"y":2578472.3300000019}},{"attributes":{"ID":157468,"DIS_CODE":0,"TOWNNAME":"鹽水區","LI":"後宅里","LIN":"5鄰","STREET":" ","SECT":" ","MAREA":"後寮","LANE":" ","ALLEY":" ","HOUSE_NO":"４０之２號","E_COORD97":173298.14999999999,"N_COORD97":2578494.0699999998,"ADDRESS":"後寮４０之２號","OBJECTID":157467},"geometry":{"x":173298.14999999944,"y":2578494.070000004}},{"attributes":{"ID":157469,"DIS_CODE":0,"TOWNNAME":"鹽水區","LI":"後宅里","LIN":"5鄰","STREET":" ","SECT":" ","MAREA":"後寮","LANE":" ","ALLEY":" ","HOUSE_NO":"４０號之３","E_COORD97":173293.66,"N_COORD97":2578495.0899999999,"ADDRESS":"後寮４０號之３","OBJECTID":157468},"geometry":{"x":173293.66000000108,"y":2578495.0900000017}},{"attributes":{"ID":157470,"DIS_CODE":0,"TOWNNAME":"鹽水區","LI":"後宅里","LIN":"5鄰","STREET":" ","SECT":" ","MAREA":"後寮","LANE":" ","ALLEY":" ","HOUSE_NO":"４０號之４","E_COORD97":173289.17000000001,"N_COORD97":2578496.1000000001,"ADDRESS":"後寮４０號之４","OBJECTID":157469},"geometry":{"x":173289.17000000179,"y":2578496.0999999996}},{"attributes":{"ID":157471,"DIS_CODE":0,"TOWNNAME":"東區","LI":"崇學里","LIN":"2鄰","STREET":"崇德四街","SECT":" ","MAREA":" ","LANE":"７巷","ALLEY":"１６弄","HOUSE_NO":"４號","E_COORD97":170544.89999999999,"N_COORD97":2542028.8799999999,"ADDRESS":"崇德四街７巷１６弄４號","OBJECTID":157470},"geometry":{"x":170544.90000000037,"y":2542028.879999999}},{"attributes":{"ID":157472,"DIS_CODE":0,"TOWNNAME":"東區","LI":"崇學里","LIN":"2鄰","STREET":"崇德四街","SECT":" ","MAREA":" ","LANE":"７巷","ALLEY":"１６弄","HOUSE_NO":"６號","E_COORD97":170549.47,"N_COORD97":2542033.5499999998,"ADDRESS":"崇德四街７巷１６弄６號","OBJECTID":157471},"geometry":{"x":170549.47000000067,"y":2542033.5500000007}},{"attributes":{"ID":157473,"DIS_CODE":0,"TOWNNAME":"東區","LI":"崇學里","LIN":"2鄰","STREET":"崇德四街","SECT":" ","MAREA":" ","LANE":"７巷","ALLEY":"１６弄","HOUSE_NO":"８號","E_COORD97":170553.57999999999,"N_COORD97":2542038.2999999998,"ADDRESS":"崇德四街７巷１６弄８號","OBJECTID":157472},"geometry":{"x":170553.58000000007,"y":2542038.3000000007}},{"attributes":{"ID":157474,"DIS_CODE":0,"TOWNNAME":"東區","LI":"崇學里","LIN":"2鄰","STREET":"崇德四街","SECT":" ","MAREA":" ","LANE":"７巷","ALLEY":"１６弄","HOUSE_NO":"１１號","E_COORD97":170542.35000000001,"N_COORD97":2542061.0899999999,"ADDRESS":"崇德四街７巷１６弄１１號","OBJECTID":157473},"geometry":{"x":170542.34999999963,"y":2542061.0900000017}},{"attributes":{"ID":157475,"DIS_CODE":0,"TOWNNAME":"東區","LI":"崇學里","LIN":"2鄰","STREET":"崇德四街","SECT":" ","MAREA":" ","LANE":"７巷","ALLEY":"１６弄","HOUSE_NO":"２５號","E_COORD97":170564.92999999999,"N_COORD97":2542090.3700000001,"ADDRESS":"崇德四街７巷１６弄２５號","OBJECTID":157474},"geometry":{"x":170564.93000000063,"y":2542090.3700000048}},{"attributes":{"ID":157476,"DIS_CODE":0,"TOWNNAME":"東區","LI":"崇學里","LIN":"2鄰","STREET":"崇德四街","SECT":" ","MAREA":" ","LANE":"７巷","ALLEY":"１６弄","HOUSE_NO":"２７號","E_COORD97":170569.07000000001,"N_COORD97":2542096.8799999999,"ADDRESS":"崇德四街７巷１６弄２７號","OBJECTID":157475},"geometry":{"x":170569.0700000003,"y":2542096.879999999}},{"attributes":{"ID":157477,"DIS_CODE":0,"TOWNNAME":"東區","LI":"崇學里","LIN":"2鄰","STREET":"崇德四街","SECT":" ","MAREA":" ","LANE":"７巷","ALLEY":"１６弄","HOUSE_NO":"５號","E_COORD97":170532.59,"N_COORD97":2542048.9500000002,"ADDRESS":"崇德四街７巷１６弄５號","OBJECTID":157476},"geometry":{"x":170532.58999999985,"y":2542048.9499999993}},{"attributes":{"ID":157478,"DIS_CODE":0,"TOWNNAME":"東區","LI":"崇學里","LIN":"2鄰","STREET":"崇德四街","SECT":" ","MAREA":" ","LANE":"７巷","ALLEY":"１６弄","HOUSE_NO":"７號","E_COORD97":170536.23999999999,"N_COORD97":2542051.9500000002,"ADDRESS":"崇德四街７巷１６弄７號","OBJECTID":157477},"geometry":{"x":170536.24000000115,"y":2542051.9500000011}},{"attributes":{"ID":157479,"DIS_CODE":0,"TOWNNAME":"東區","LI":"崇學里","LIN":"2鄰","STREET":"崇德四街","SECT":" ","MAREA":" ","LANE":"７巷","ALLEY":"１６弄","HOUSE_NO":"９號","E_COORD97":170539.03,"N_COORD97":2542056.46,"ADDRESS":"崇德四街７巷１６弄９號","OBJECTID":157478},"geometry":{"x":170539.03000000026,"y":2542056.4600000028}},{"attributes":{"ID":157480,"DIS_CODE":0,"TOWNNAME":"永康區","LI":"六合里","LIN":"2鄰","STREET":"新興街","SECT":" ","MAREA":" ","LANE":"３５巷","ALLEY":"１５弄","HOUSE_NO":"７號","E_COORD97":170966.41,"N_COORD97":2545876.4900000002,"ADDRESS":"新興街３５巷１５弄７號","OBJECTID":157479},"geometry":{"x":170966.41000000015,"y":2545876.4900000021}},{"attributes":{"ID":157481,"DIS_CODE":0,"TOWNNAME":"歸仁區","LI":"看西里","LIN":"2鄰","STREET":"成功六街","SECT":" ","MAREA":" ","LANE":"１１６巷","ALLEY":"１７弄","HOUSE_NO":"１０號","E_COORD97":178457.95999999999,"N_COORD97":2540375.2000000002,"ADDRESS":"成功六街１１６巷１７弄１０號","OBJECTID":157480},"geometry":{"x":178457.96000000089,"y":2540375.2000000011}},{"attributes":{"ID":157482,"DIS_CODE":0,"TOWNNAME":"歸仁區","LI":"看西里","LIN":"2鄰","STREET":"成功六街","SECT":" ","MAREA":" ","LANE":"１１６巷","ALLEY":"１７弄","HOUSE_NO":"７號","E_COORD97":178448.41,"N_COORD97":2540374.2000000002,"ADDRESS":"成功六街１１６巷１７弄７號","OBJECTID":157481},"geometry":{"x":178448.41000000108,"y":2540374.200000003}},{"attributes":{"ID":157483,"DIS_CODE":0,"TOWNNAME":"歸仁區","LI":"七甲里","LIN":"2鄰","STREET":"七甲五街","SECT":" ","MAREA":" ","LANE":"１０２巷","ALLEY":"１弄","HOUSE_NO":"１１號","E_COORD97":177164.70000000001,"N_COORD97":2542609.9300000002,"ADDRESS":"七甲五街１０２巷１弄１１號","OBJECTID":157482},"geometry":{"x":177164.70000000112,"y":2542609.9299999997}},{"attributes":{"ID":157484,"DIS_CODE":0,"TOWNNAME":"歸仁區","LI":"七甲里","LIN":"2鄰","STREET":"七甲五街","SECT":" ","MAREA":" ","LANE":"１０２巷","ALLEY":"１弄","HOUSE_NO":"２號","E_COORD97":177190.14999999999,"N_COORD97":2542620.9300000002,"ADDRESS":"七甲五街１０２巷１弄２號","OBJECTID":157483},"geometry":{"x":177190.15000000037,"y":2542620.9300000034}},{"attributes":{"ID":157485,"DIS_CODE":0,"TOWNNAME":"新營區","LI":"新東里","LIN":"2鄰","STREET":"開元路","SECT":" ","MAREA":" ","LANE":"１０３巷","ALLEY":"２２弄","HOUSE_NO":"５號","E_COORD97":180981.51000000001,"N_COORD97":2578998.8999999999,"ADDRESS":"開元路１０３巷２２弄５號","OBJECTID":157484},"geometry":{"x":180981.51000000071,"y":2578998.9000000004}},{"attributes":{"ID":157486,"DIS_CODE":0,"TOWNNAME":"南區","LI":"南都里","LIN":"2鄰","STREET":"中華南路","SECT":"二段","MAREA":" ","LANE":"３１５巷","ALLEY":"２弄","HOUSE_NO":"１１號","E_COORD97":166407.10000000001,"N_COORD97":2540226.77,"ADDRESS":"中華南路二段３１５巷２弄１１號","OBJECTID":157485},"geometry":{"x":166407.10000000056,"y":2540226.7699999996}},{"attributes":{"ID":157487,"DIS_CODE":0,"TOWNNAME":"南區","LI":"南都里","LIN":"2鄰","STREET":"中華南路","SECT":"二段","MAREA":" ","LANE":"３１５巷","ALLEY":"２弄","HOUSE_NO":"１３號","E_COORD97":166397.17000000001,"N_COORD97":2540226.9300000002,"ADDRESS":"中華南路二段３１５巷２弄１３號","OBJECTID":157486},"geometry":{"x":166397.17000000086,"y":2540226.9299999978}},{"attributes":{"ID":157488,"DIS_CODE":0,"TOWNNAME":"南區","LI":"南都里","LIN":"2鄰","STREET":"中華南路","SECT":"二段","MAREA":" ","LANE":"３１５巷","ALLEY":"２弄","HOUSE_NO":"１５號","E_COORD97":166389.48999999999,"N_COORD97":2540226.77,"ADDRESS":"中華南路二段３１５巷２弄１５號","OBJECTID":157487},"geometry":{"x":166389.48999999929,"y":2540226.7699999996}},{"attributes":{"ID":157489,"DIS_CODE":0,"TOWNNAME":"南區","LI":"南都里","LIN":"2鄰","STREET":"中華南路","SECT":"二段","MAREA":" ","LANE":"３１５巷","ALLEY":"２弄","HOUSE_NO":"１７號","E_COORD97":166380.51999999999,"N_COORD97":2540226.4500000002,"ADDRESS":"中華南路二段３１５巷２弄１７號","OBJECTID":157488},"geometry":{"x":166380.52000000048,"y":2540226.450000003}},{"attributes":{"ID":157490,"DIS_CODE":0,"TOWNNAME":"東區","LI":"中西里","LIN":"19鄰","STREET":"長榮路","SECT":"二段","MAREA":" ","LANE":"３２巷","ALLEY":" ","HOUSE_NO":"６９號","E_COORD97":170054.82999999999,"N_COORD97":2543189.8199999998,"ADDRESS":"長榮路二段３２巷６９號","OBJECTID":157489},"geometry":{"x":170054.83000000007,"y":2543189.8200000022}},{"attributes":{"ID":157491,"DIS_CODE":0,"TOWNNAME":"東區","LI":"崇信里","LIN":"24鄰","STREET":"崇善一街","SECT":" ","MAREA":" ","LANE":" ","ALLEY":" ","HOUSE_NO":"７８號十三樓","E_COORD97":170831.85999999999,"N_COORD97":2542290.75,"ADDRESS":"崇善一街７８號十三樓","OBJECTID":157490},"geometry":{"x":170831.8599999994,"y":2542290.7500000019}},{"attributes":{"ID":157492,"DIS_CODE":0,"TOWNNAME":"東區","LI":"崇信里","LIN":"24鄰","STREET":"崇善一街","SECT":" ","MAREA":" ","LANE":" ","ALLEY":" ","HOUSE_NO":"７８號十三樓之１","E_COORD97":170831.85999999999,"N_COORD97":2542290.75,"ADDRESS":"崇善一街７８號十三樓之１","OBJECTID":157491},"geometry":{"x":170831.8599999994,"y":2542290.7500000019}},{"attributes":{"ID":157493,"DIS_CODE":0,"TOWNNAME":"東區","LI":"崇信里","LIN":"24鄰","STREET":"崇善一街","SECT":" ","MAREA":" ","LANE":" ","ALLEY":" ","HOUSE_NO":"７８號十三樓之２","E_COORD97":170831.85999999999,"N_COORD97":2542290.75,"ADDRESS":"崇善一街７８號十三樓之２","OBJECTID":157492},"geometry":{"x":170831.8599999994,"y":2542290.7500000019}},{"attributes":{"ID":157494,"DIS_CODE":0,"TOWNNAME":"東區","LI":"崇信里","LIN":"24鄰","STREET":"崇善一街","SECT":" ","MAREA":" ","LANE":" ","ALLEY":" ","HOUSE_NO":"７８號十五樓","E_COORD97":170831.85999999999,"N_COORD97":2542290.75,"ADDRESS":"崇善一街７８號十五樓","OBJECTID":157493},"geometry":{"x":170831.8599999994,"y":2542290.7500000019}},{"attributes":{"ID":157495,"DIS_CODE":0,"TOWNNAME":"東區","LI":"崇信里","LIN":"24鄰","STREET":"崇善一街","SECT":" ","MAREA":" ","LANE":" ","ALLEY":" ","HOUSE_NO":"７８號十五樓之１","E_COORD97":170831.85999999999,"N_COORD97":2542290.75,"ADDRESS":"崇善一街７８號十五樓之１","OBJECTID":157494},"geometry":{"x":170831.8599999994,"y":2542290.7500000019}},{"attributes":{"ID":157496,"DIS_CODE":0,"TOWNNAME":"東區","LI":"崇信里","LIN":"24鄰","STREET":"崇善一街","SECT":" ","MAREA":" ","LANE":" ","ALLEY":" ","HOUSE_NO":"７８號十五樓之２","E_COORD97":170831.85999999999,"N_COORD97":2542290.75,"ADDRESS":"崇善一街７８號十五樓之２","OBJECTID":157495},"geometry":{"x":170831.8599999994,"y":2542290.7500000019}},{"attributes":{"ID":157497,"DIS_CODE":0,"TOWNNAME":"東區","LI":"崇信里","LIN":"24鄰","STREET":"崇善一街","SECT":" ","MAREA":" ","LANE":" ","ALLEY":" ","HOUSE_NO":"７８號十六樓","E_COORD97":170831.85999999999,"N_COORD97":2542290.75,"ADDRESS":"崇善一街７８號十六樓","OBJECTID":157496},"geometry":{"x":170831.8599999994,"y":2542290.7500000019}},{"attributes":{"ID":157498,"DIS_CODE":0,"TOWNNAME":"東區","LI":"崇信里","LIN":"24鄰","STREET":"崇善一街","SECT":" ","MAREA":" ","LANE":" ","ALLEY":" ","HOUSE_NO":"７８號十六樓之１","E_COORD97":170831.85999999999,"N_COORD97":2542290.75,"ADDRESS":"崇善一街７８號十六樓之１","OBJECTID":157497},"geometry":{"x":170831.8599999994,"y":2542290.7500000019}},{"attributes":{"ID":157499,"DIS_CODE":0,"TOWNNAME":"東區","LI":"崇信里","LIN":"24鄰","STREET":"崇善一街","SECT":" ","MAREA":" ","LANE":" ","ALLEY":" ","HOUSE_NO":"７８號十六樓之２","E_COORD97":170831.85999999999,"N_COORD97":2542290.75,"ADDRESS":"崇善一街７８號十六樓之２","OBJECTID":157498},"geometry":{"x":170831.8599999994,"y":2542290.7500000019}},{"attributes":{"ID":157500,"DIS_CODE":0,"TOWNNAME":"東區","LI":"崇信里","LIN":"24鄰","STREET":"崇善一街","SECT":" ","MAREA":" ","LANE":" ","ALLEY":" ","HOUSE_NO":"７８號十四樓","E_COORD97":170831.85999999999,"N_COORD97":2542290.75,"ADDRESS":"崇善一街７８號十四樓","OBJECTID":157499},"geometry":{"x":170831.8599999994,"y":2542290.7500000019}},{"attributes":{"ID":157501,"DIS_CODE":0,"TOWNNAME":"東區","LI":"崇信里","LIN":"24鄰","STREET":"崇善一街","SECT":" ","MAREA":" ","LANE":" ","ALLEY":" ","HOUSE_NO":"７８號十四樓之１","E_COORD97":170831.85999999999,"N_COORD97":2542290.75,"ADDRESS":"崇善一街７８號十四樓之１","OBJECTID":157500},"geometry":{"x":170831.8599999994,"y":2542290.7500000019}},{"attributes":{"ID":157502,"DIS_CODE":0,"TOWNNAME":"南區","LI":"南都里","LIN":"2鄰","STREET":"中華南路","SECT":"二段","MAREA":" ","LANE":"３１５巷","ALLEY":"２弄","HOUSE_NO":"１９號","E_COORD97":166373.79999999999,"N_COORD97":2540226.4500000002,"ADDRESS":"中華南路二段３１５巷２弄１９號","OBJECTID":157501},"geometry":{"x":166373.80000000075,"y":2540226.450000003}},{"attributes":{"ID":157503,"DIS_CODE":0,"TOWNNAME":"南區","LI":"南都里","LIN":"2鄰","STREET":"中華南路","SECT":"二段","MAREA":" ","LANE":"３１５巷","ALLEY":"２弄","HOUSE_NO":"１號","E_COORD97":166448.64999999999,"N_COORD97":2540225.8199999998,"ADDRESS":"中華南路二段３１５巷２弄１號","OBJECTID":157502},"geometry":{"x":166448.6500000013,"y":2540225.8200000022}},{"attributes":{"ID":157504,"DIS_CODE":0,"TOWNNAME":"南區","LI":"南都里","LIN":"2鄰","STREET":"中華南路","SECT":"二段","MAREA":" ","LANE":"３１５巷","ALLEY":"２弄","HOUSE_NO":"３號","E_COORD97":166440.73000000001,"N_COORD97":2540226.1000000001,"ADDRESS":"中華南路二段３１５巷２弄３號","OBJECTID":157503},"geometry":{"x":166440.73000000231,"y":2540226.1000000034}},{"attributes":{"ID":157505,"DIS_CODE":0,"TOWNNAME":"南區","LI":"南都里","LIN":"2鄰","STREET":"中華南路","SECT":"二段","MAREA":" ","LANE":"３１５巷","ALLEY":"２弄","HOUSE_NO":"５號","E_COORD97":166429.70000000001,"N_COORD97":2540226.1000000001,"ADDRESS":"中華南路二段３１５巷２弄５號","OBJECTID":157504},"geometry":{"x":166429.70000000019,"y":2540226.1000000034}},{"attributes":{"ID":157506,"DIS_CODE":0,"TOWNNAME":"南區","LI":"南都里","LIN":"2鄰","STREET":"中華南路","SECT":"二段","MAREA":" ","LANE":"３１５巷","ALLEY":"２弄","HOUSE_NO":"７號","E_COORD97":166422.45999999999,"N_COORD97":2540226.1299999999,"ADDRESS":"中華南路二段３１５巷２弄７號","OBJECTID":157505},"geometry":{"x":166422.46000000089,"y":2540226.1300000008}},{"attributes":{"ID":157507,"DIS_CODE":0,"TOWNNAME":"南區","LI":"南都里","LIN":"2鄰","STREET":"中華南路","SECT":"二段","MAREA":" ","LANE":"３１５巷","ALLEY":"２弄","HOUSE_NO":"９號","E_COORD97":166414.62,"N_COORD97":2540226.77,"ADDRESS":"中華南路二段３１５巷２弄９號","OBJECTID":157506},"geometry":{"x":166414.62000000104,"y":2540226.7699999996}},{"attributes":{"ID":157508,"DIS_CODE":0,"TOWNNAME":"東區","LI":"圍下里","LIN":"19鄰","STREET":"慶東街","SECT":" ","MAREA":" ","LANE":" ","ALLEY":" ","HOUSE_NO":"１２９號","E_COORD97":169656.63,"N_COORD97":2543397.1499999999,"ADDRESS":"慶東街１２９號","OBJECTID":157507},"geometry":{"x":169656.63000000175,"y":2543397.1500000022}},{"attributes":{"ID":157509,"DIS_CODE":0,"TOWNNAME":"東區","LI":"小東里","LIN":"19鄰","STREET":"東興路","SECT":" ","MAREA":" ","LANE":" ","ALLEY":" ","HOUSE_NO":"３４８號","E_COORD97":171067.20999999999,"N_COORD97":2544191.6699999999,"ADDRESS":"東興路３４８號","OBJECTID":157508},"geometry":{"x":171067.21000000089,"y":2544191.6699999999}},{"attributes":{"ID":157510,"DIS_CODE":0,"TOWNNAME":"東區","LI":"小東里","LIN":"19鄰","STREET":"東興路","SECT":" ","MAREA":" ","LANE":" ","ALLEY":" ","HOUSE_NO":"３５０號","E_COORD97":171071.51999999999,"N_COORD97":2544196.1000000001,"ADDRESS":"東興路３５０號","OBJECTID":157509},"geometry":{"x":171071.52000000048,"y":2544196.1000000034}},{"attributes":{"ID":157511,"DIS_CODE":0,"TOWNNAME":"東區","LI":"小東里","LIN":"19鄰","STREET":"東興路","SECT":" ","MAREA":" ","LANE":" ","ALLEY":" ","HOUSE_NO":"３５２號","E_COORD97":171065.48000000001,"N_COORD97":2544200.4399999999,"ADDRESS":"東興路３５２號","OBJECTID":157510},"geometry":{"x":171065.48000000138,"y":2544200.4400000032}},{"attributes":{"ID":157512,"DIS_CODE":0,"TOWNNAME":"東區","LI":"小東里","LIN":"19鄰","STREET":"東興路","SECT":" ","MAREA":" ","LANE":" ","ALLEY":" ","HOUSE_NO":"３５４號","E_COORD97":171063.60000000001,"N_COORD97":2544205.4500000002,"ADDRESS":"東興路３５４號","OBJECTID":157511},"geometry":{"x":171063.60000000149,"y":2544205.4499999993}},{"attributes":{"ID":157513,"DIS_CODE":0,"TOWNNAME":"東區","LI":"東光里","LIN":"19鄰","STREET":"怡東路","SECT":" ","MAREA":" ","LANE":" ","ALLEY":" ","HOUSE_NO":"９６號","E_COORD97":170892.10000000001,"N_COORD97":2543781.8700000001,"ADDRESS":"怡東路９６號","OBJECTID":157512},"geometry":{"x":170892.09999999963,"y":2543781.8699999992}},{"attributes":{"ID":157514,"DIS_CODE":0,"TOWNNAME":"中西區","LI":"保安里","LIN":" ","STREET":"康樂街","SECT":" ","MAREA":" ","LANE":" ","ALLEY":" ","HOUSE_NO":"９６之５號","E_COORD97":167446.98000000001,"N_COORD97":2543695.2000000002,"ADDRESS":"康樂街９６之５號","OBJECTID":157513},"geometry":{"x":167446.98000000045,"y":2543695.1999999993}},{"attributes":{"ID":157515,"DIS_CODE":0,"TOWNNAME":"南區","LI":"新生里","LIN":"2鄰","STREET":"大同路","SECT":"二段","MAREA":" ","LANE":"１８６巷","ALLEY":"５弄","HOUSE_NO":"１號","E_COORD97":169318.04000000001,"N_COORD97":2541923.5699999998,"ADDRESS":"大同路二段１８６巷５弄１號","OBJECTID":157514},"geometry":{"x":169318.04000000004,"y":2541923.5700000022}},{"attributes":{"ID":157516,"DIS_CODE":0,"TOWNNAME":"南區","LI":"新生里","LIN":"2鄰","STREET":"大同路","SECT":"二段","MAREA":" ","LANE":"１８６巷","ALLEY":"５弄","HOUSE_NO":"３號","E_COORD97":169319.04000000001,"N_COORD97":2541918.73,"ADDRESS":"大同路二段１８６巷５弄３號","OBJECTID":157515},"geometry":{"x":169319.04000000097,"y":2541918.7300000023}},{"attributes":{"ID":157517,"DIS_CODE":0,"TOWNNAME":"南區","LI":"新生里","LIN":"2鄰","STREET":"大同路","SECT":"二段","MAREA":" ","LANE":"１８６巷","ALLEY":"５弄","HOUSE_NO":"５號","E_COORD97":169320.32000000001,"N_COORD97":2541914.7400000002,"ADDRESS":"大同路二段１８６巷５弄５號","OBJECTID":157516},"geometry":{"x":169320.32000000123,"y":2541914.7400000021}},{"attributes":{"ID":157518,"DIS_CODE":0,"TOWNNAME":"北區","LI":"國姓里","LIN":"2鄰","STREET":"公園路","SECT":" ","MAREA":" ","LANE":"４３３巷","ALLEY":"２１弄","HOUSE_NO":"１０號","E_COORD97":168887.12,"N_COORD97":2545337,"ADDRESS":"公園路４３３巷２１弄１０號","OBJECTID":157517},"geometry":{"x":168887.12000000011,"y":2545337.0000000019}},{"attributes":{"ID":157519,"DIS_CODE":0,"TOWNNAME":"北區","LI":"國姓里","LIN":"2鄰","STREET":"公園路","SECT":" ","MAREA":" ","LANE":"４３３巷","ALLEY":"２１弄","HOUSE_NO":"２號","E_COORD97":168891.67000000001,"N_COORD97":2545353.9100000001,"ADDRESS":"公園路４３３巷２１弄２號","OBJECTID":157518},"geometry":{"x":168891.66999999993,"y":2545353.9100000039}},{"attributes":{"ID":157520,"DIS_CODE":0,"TOWNNAME":"北區","LI":"國姓里","LIN":"2鄰","STREET":"公園路","SECT":" ","MAREA":" ","LANE":"４３３巷","ALLEY":"２１弄","HOUSE_NO":"４號","E_COORD97":168890.14999999999,"N_COORD97":2545348.6099999999,"ADDRESS":"公園路４３３巷２１弄４號","OBJECTID":157519},"geometry":{"x":168890.15000000037,"y":2545348.6100000031}},{"attributes":{"ID":157521,"DIS_CODE":0,"TOWNNAME":"北區","LI":"國姓里","LIN":"2鄰","STREET":"公園路","SECT":" ","MAREA":" ","LANE":"４３３巷","ALLEY":"２１弄","HOUSE_NO":"６號","E_COORD97":168889.14000000001,"N_COORD97":2545344.0699999998,"ADDRESS":"公園路４３３巷２１弄６號","OBJECTID":157520},"geometry":{"x":168889.1400000006,"y":2545344.0700000022}},{"attributes":{"ID":157522,"DIS_CODE":0,"TOWNNAME":"北區","LI":"國姓里","LIN":"2鄰","STREET":"公園路","SECT":" ","MAREA":" ","LANE":"４３３巷","ALLEY":"２１弄","HOUSE_NO":"８號","E_COORD97":168887.62,"N_COORD97":2545340.54,"ADDRESS":"公園路４３３巷２１弄８號","OBJECTID":157521},"geometry":{"x":168887.62000000104,"y":2545340.5399999991}},{"attributes":{"ID":157523,"DIS_CODE":0,"TOWNNAME":"新營區","LI":"新東里","LIN":"2鄰","STREET":"開元路","SECT":" ","MAREA":" ","LANE":"１０３巷","ALLEY":"２２弄","HOUSE_NO":"２９號","E_COORD97":181041.10999999999,"N_COORD97":2578998.6299999999,"ADDRESS":"開元路１０３巷２２弄２９號","OBJECTID":157522},"geometry":{"x":181041.11000000127,"y":2578998.6300000008}},{"attributes":{"ID":157524,"DIS_CODE":0,"TOWNNAME":"安平區","LI":"國平里","LIN":"2鄰","STREET":"建平五街","SECT":" ","MAREA":" ","LANE":"１８４巷","ALLEY":"１５弄","HOUSE_NO":"３７號","E_COORD97":165471.39000000001,"N_COORD97":2543234.6099999999,"ADDRESS":"建平五街１８４巷１５弄３７號","OBJECTID":157523},"geometry":{"x":165471.3900000006,"y":2543234.6099999994}},{"attributes":{"ID":157525,"DIS_CODE":0,"TOWNNAME":"安平區","LI":"國平里","LIN":"2鄰","STREET":"建平五街","SECT":" ","MAREA":" ","LANE":"１８４巷","ALLEY":"１５弄","HOUSE_NO":"３９號","E_COORD97":165462.79000000001,"N_COORD97":2543235.3900000001,"ADDRESS":"建平五街１８４巷１５弄３９號","OBJECTID":157524},"geometry":{"x":165462.79000000004,"y":2543235.3900000006}},{"attributes":{"ID":157526,"DIS_CODE":0,"TOWNNAME":"安平區","LI":"國平里","LIN":"2鄰","STREET":"建平五街","SECT":" ","MAREA":" ","LANE":"１８４巷","ALLEY":"１５弄","HOUSE_NO":"４１號","E_COORD97":165456.07000000001,"N_COORD97":2543236.4900000002,"ADDRESS":"建平五街１８４巷１５弄４１號","OBJECTID":157525},"geometry":{"x":165456.0700000003,"y":2543236.4900000002}},{"attributes":{"ID":157527,"DIS_CODE":0,"TOWNNAME":"安平區","LI":"文平里","LIN":"2鄰","STREET":"中華西路","SECT":"二段","MAREA":" ","LANE":"４９巷","ALLEY":"２４弄","HOUSE_NO":"１００號","E_COORD97":166578.64000000001,"N_COORD97":2543206.8100000001,"ADDRESS":"中華西路二段４９巷２４弄１００號","OBJECTID":157526},"geometry":{"x":166578.6400000006,"y":2543206.8100000024}},{"attributes":{"ID":157528,"DIS_CODE":0,"TOWNNAME":"鹽水區","LI":"後宅里","LIN":"5鄰","STREET":" ","SECT":" ","MAREA":"後寮","LANE":" ","ALLEY":" ","HOUSE_NO":"４０號之５","E_COORD97":173284.67000000001,"N_COORD97":2578497.1200000001,"ADDRESS":"後寮４０號之５","OBJECTID":157527},"geometry":{"x":173284.67000000086,"y":2578497.120000001}},{"attributes":{"ID":157529,"DIS_CODE":0,"TOWNNAME":"鹽水區","LI":"後宅里","LIN":"5鄰","STREET":" ","SECT":" ","MAREA":"後寮","LANE":" ","ALLEY":" ","HOUSE_NO":"４０號之６","E_COORD97":173280.17999999999,"N_COORD97":2578498.1400000001,"ADDRESS":"後寮４０號之６","OBJECTID":157528},"geometry":{"x":173280.1799999997,"y":2578498.1400000025}},{"attributes":{"ID":157530,"DIS_CODE":0,"TOWNNAME":"鹽水區","LI":"後宅里","LIN":"5鄰","STREET":" ","SECT":" ","MAREA":"後寮","LANE":" ","ALLEY":" ","HOUSE_NO":"４０號之７","E_COORD97":173271.57999999999,"N_COORD97":2578507.8100000001,"ADDRESS":"後寮４０號之７","OBJECTID":157529},"geometry":{"x":173271.58000000101,"y":2578507.8100000024}},{"attributes":{"ID":157531,"DIS_CODE":0,"TOWNNAME":"鹽水區","LI":"後宅里","LIN":"5鄰","STREET":" ","SECT":" ","MAREA":"後寮","LANE":" ","ALLEY":" ","HOUSE_NO":"４０號之８","E_COORD97":173266.94,"N_COORD97":2578508.8599999999,"ADDRESS":"後寮４０號之８","OBJECTID":157530},"geometry":{"x":173266.94000000041,"y":2578508.8600000013}},{"attributes":{"ID":157532,"DIS_CODE":0,"TOWNNAME":"鹽水區","LI":"後宅里","LIN":"5鄰","STREET":" ","SECT":" ","MAREA":"後寮","LANE":" ","ALLEY":" ","HOUSE_NO":"４０號之９","E_COORD97":173260.85999999999,"N_COORD97":2578502.5600000001,"ADDRESS":"後寮４０號之９","OBJECTID":157531},"geometry":{"x":173260.86000000034,"y":2578502.5600000024}},{"attributes":{"ID":157533,"DIS_CODE":0,"TOWNNAME":"鹽水區","LI":"後宅里","LIN":"5鄰","STREET":" ","SECT":" ","MAREA":"後寮","LANE":" ","ALLEY":" ","HOUSE_NO":"４０號","E_COORD97":173307.60999999999,"N_COORD97":2578493.9100000001,"ADDRESS":"後寮４０號","OBJECTID":157532},"geometry":{"x":173307.61000000127,"y":2578493.9100000001}},{"attributes":{"ID":157534,"DIS_CODE":0,"TOWNNAME":"東區","LI":"東光里","LIN":"19鄰","STREET":"怡東路","SECT":" ","MAREA":" ","LANE":" ","ALLEY":" ","HOUSE_NO":"１００號","E_COORD97":170894.29000000001,"N_COORD97":2543791.27,"ADDRESS":"怡東路１００號","OBJECTID":157533},"geometry":{"x":170894.29000000004,"y":2543791.2700000033}},{"attributes":{"ID":157535,"DIS_CODE":0,"TOWNNAME":"東區","LI":"東光里","LIN":"19鄰","STREET":"怡東路","SECT":" ","MAREA":" ","LANE":" ","ALLEY":" ","HOUSE_NO":"１０２號","E_COORD97":170895.10999999999,"N_COORD97":2543795.6299999999,"ADDRESS":"怡東路１０２號","OBJECTID":157534},"geometry":{"x":170895.11000000127,"y":2543795.6300000008}},{"attributes":{"ID":157536,"DIS_CODE":0,"TOWNNAME":"東區","LI":"東光里","LIN":"19鄰","STREET":"怡東路","SECT":" ","MAREA":" ","LANE":" ","ALLEY":" ","HOUSE_NO":"１０４號","E_COORD97":170896.35000000001,"N_COORD97":2543800.3199999998,"ADDRESS":"怡東路１０４號","OBJECTID":157535},"geometry":{"x":170896.35000000056,"y":2543800.3200000022}},{"attributes":{"ID":157537,"DIS_CODE":0,"TOWNNAME":"安平區","LI":"文平里","LIN":"2鄰","STREET":"中華西路","SECT":"二段","MAREA":" ","LANE":"４９巷","ALLEY":"２４弄","HOUSE_NO":"１０２號","E_COORD97":166579.67999999999,"N_COORD97":2543210.6699999999,"ADDRESS":"中華西路二段４９巷２４弄１０２號","OBJECTID":157536},"geometry":{"x":166579.68000000063,"y":2543210.6700000018}},{"attributes":{"ID":157538,"DIS_CODE":0,"TOWNNAME":"安平區","LI":"文平里","LIN":"2鄰","STREET":"中華西路","SECT":"二段","MAREA":" ","LANE":"４９巷","ALLEY":"２４弄","HOUSE_NO":"１０４號","E_COORD97":166579.57999999999,"N_COORD97":2543214.4199999999,"ADDRESS":"中華西路二段４９巷２４弄１０４號","OBJECTID":157537},"geometry":{"x":166579.58000000007,"y":2543214.4200000037}},{"attributes":{"ID":157539,"DIS_CODE":0,"TOWNNAME":"安平區","LI":"文平里","LIN":"2鄰","STREET":"中華西路","SECT":"二段","MAREA":" ","LANE":"４９巷","ALLEY":"２４弄","HOUSE_NO":"１０６號","E_COORD97":166580.10000000001,"N_COORD97":2543218.7999999998,"ADDRESS":"中華西路二段４９巷２４弄１０６號","OBJECTID":157538},"geometry":{"x":166580.10000000056,"y":2543218.8000000007}},{"attributes":{"ID":157540,"DIS_CODE":0,"TOWNNAME":"鹽水區","LI":"後宅里","LIN":"5鄰","STREET":" ","SECT":" ","MAREA":"後寮","LANE":" ","ALLEY":" ","HOUSE_NO":"４１號","E_COORD97":173323.04999999999,"N_COORD97":2578493.02,"ADDRESS":"後寮４１號","OBJECTID":157539},"geometry":{"x":173323.04999999981,"y":2578493.0199999996}},{"attributes":{"ID":157541,"DIS_CODE":0,"TOWNNAME":"安平區","LI":"文平里","LIN":"2鄰","STREET":"中華西路","SECT":"二段","MAREA":" ","LANE":"４９巷","ALLEY":"２４弄","HOUSE_NO":"１０８號","E_COORD97":166580.41,"N_COORD97":2543222.8599999999,"ADDRESS":"中華西路二段４９巷２４弄１０８號","OBJECTID":157540},"geometry":{"x":166580.41000000108,"y":2543222.8599999994}},{"attributes":{"ID":157542,"DIS_CODE":0,"TOWNNAME":"安平區","LI":"文平里","LIN":"2鄰","STREET":"中華西路","SECT":"二段","MAREA":" ","LANE":"４９巷","ALLEY":"２４弄","HOUSE_NO":"１１０號","E_COORD97":166580.82999999999,"N_COORD97":2543228.9100000001,"ADDRESS":"中華西路二段４９巷２４弄１１０號","OBJECTID":157541},"geometry":{"x":166580.83000000101,"y":2543228.910000002}},{"attributes":{"ID":157543,"DIS_CODE":0,"TOWNNAME":"安平區","LI":"文平里","LIN":"2鄰","STREET":"中華西路","SECT":"二段","MAREA":" ","LANE":"４９巷","ALLEY":"２４弄","HOUSE_NO":"１１２號","E_COORD97":166588.03,"N_COORD97":2543238.8900000001,"ADDRESS":"中華西路二段４９巷２４弄１１２號","OBJECTID":157542},"geometry":{"x":166588.03000000119,"y":2543238.8899999987}},{"attributes":{"ID":157544,"DIS_CODE":0,"TOWNNAME":"安平區","LI":"文平里","LIN":"2鄰","STREET":"中華西路","SECT":"二段","MAREA":" ","LANE":"４９巷","ALLEY":"２４弄","HOUSE_NO":"１１２號之１","E_COORD97":166589.48999999999,"N_COORD97":2543244.21,"ADDRESS":"中華西路二段４９巷２４弄１１２號之１","OBJECTID":157543},"geometry":{"x":166589.48999999929,"y":2543244.2100000046}},{"attributes":{"ID":157545,"DIS_CODE":0,"TOWNNAME":"安平區","LI":"文平里","LIN":"2鄰","STREET":"中華西路","SECT":"二段","MAREA":" ","LANE":"４９巷","ALLEY":"２４弄","HOUSE_NO":"６２號","E_COORD97":166574.45000000001,"N_COORD97":2543170.4300000002,"ADDRESS":"中華西路二段４９巷２４弄６２號","OBJECTID":157544},"geometry":{"x":166574.45000000019,"y":2543170.4300000016}},{"attributes":{"ID":157546,"DIS_CODE":0,"TOWNNAME":"安平區","LI":"文平里","LIN":"2鄰","STREET":"中華西路","SECT":"二段","MAREA":" ","LANE":"４９巷","ALLEY":"２４弄","HOUSE_NO":"６４號","E_COORD97":166574.62,"N_COORD97":2543174.6299999999,"ADDRESS":"中華西路二段４９巷２４弄６４號","OBJECTID":157545},"geometry":{"x":166574.62000000011,"y":2543174.6300000027}},{"attributes":{"ID":157547,"DIS_CODE":0,"TOWNNAME":"安平區","LI":"文平里","LIN":"2鄰","STREET":"中華西路","SECT":"二段","MAREA":" ","LANE":"４９巷","ALLEY":"２４弄","HOUSE_NO":"６６號","E_COORD97":166575.64999999999,"N_COORD97":2543178.9100000001,"ADDRESS":"中華西路二段４９巷２４弄６６號","OBJECTID":157546},"geometry":{"x":166575.6500000013,"y":2543178.910000002}},{"attributes":{"ID":157548,"DIS_CODE":0,"TOWNNAME":"安平區","LI":"文平里","LIN":"2鄰","STREET":"中華西路","SECT":"二段","MAREA":" ","LANE":"４９巷","ALLEY":"２４弄","HOUSE_NO":"９０號","E_COORD97":166574.70999999999,"N_COORD97":2543183.3700000001,"ADDRESS":"中華西路二段４９巷２４弄９０號","OBJECTID":157547},"geometry":{"x":166574.71000000089,"y":2543183.3700000029}},{"attributes":{"ID":157549,"DIS_CODE":0,"TOWNNAME":"安平區","LI":"文平里","LIN":"2鄰","STREET":"中華西路","SECT":"二段","MAREA":" ","LANE":"４９巷","ALLEY":"２４弄","HOUSE_NO":"９４號","E_COORD97":166577.17999999999,"N_COORD97":2543193.3799999999,"ADDRESS":"中華西路二段４９巷２４弄９４號","OBJECTID":157548},"geometry":{"x":166577.1799999997,"y":2543193.3800000027}},{"attributes":{"ID":157550,"DIS_CODE":0,"TOWNNAME":"安平區","LI":"文平里","LIN":"2鄰","STREET":"中華西路","SECT":"二段","MAREA":" ","LANE":"４９巷","ALLEY":"２４弄","HOUSE_NO":"９６號","E_COORD97":166577.79999999999,"N_COORD97":2543198.79,"ADDRESS":"中華西路二段４９巷２４弄９６號","OBJECTID":157549},"geometry":{"x":166577.79999999981,"y":2543198.790000001}},{"attributes":{"ID":157551,"DIS_CODE":0,"TOWNNAME":"安平區","LI":"文平里","LIN":"2鄰","STREET":"中華西路","SECT":"二段","MAREA":" ","LANE":"４９巷","ALLEY":"２４弄","HOUSE_NO":"９８號","E_COORD97":166578.22,"N_COORD97":2543202.96,"ADDRESS":"中華西路二段４９巷２４弄９８號","OBJECTID":157550},"geometry":{"x":166578.22000000067,"y":2543202.9600000028}},{"attributes":{"ID":157552,"DIS_CODE":0,"TOWNNAME":"鹽水區","LI":"後宅里","LIN":"5鄰","STREET":" ","SECT":" ","MAREA":"後寮","LANE":" ","ALLEY":" ","HOUSE_NO":"４２號","E_COORD97":173353.29000000001,"N_COORD97":2578485.1400000001,"ADDRESS":"後寮４２號","OBJECTID":157551},"geometry":{"x":173353.29000000097,"y":2578485.1400000025}},{"attributes":{"ID":157553,"DIS_CODE":0,"TOWNNAME":"鹽水區","LI":"後宅里","LIN":"5鄰","STREET":" ","SECT":" ","MAREA":"後寮","LANE":" ","ALLEY":" ","HOUSE_NO":"４３號","E_COORD97":173367.67999999999,"N_COORD97":2578489.7400000002,"ADDRESS":"後寮４３號","OBJECTID":157552},"geometry":{"x":173367.68000000063,"y":2578489.7400000021}},{"attributes":{"ID":157554,"DIS_CODE":0,"TOWNNAME":"鹽水區","LI":"孫厝里","LIN":"5鄰","STREET":" ","SECT":" ","MAREA":"孫厝寮","LANE":" ","ALLEY":" ","HOUSE_NO":"３５號之５","E_COORD97":170236.98000000001,"N_COORD97":2576718.1200000001,"ADDRESS":"孫厝寮３５號之５","OBJECTID":157553},"geometry":{"x":170236.98000000138,"y":2576718.1200000048}},{"attributes":{"ID":157555,"DIS_CODE":0,"TOWNNAME":"鹽水區","LI":"孫厝里","LIN":"5鄰","STREET":" ","SECT":" ","MAREA":"孫厝寮","LANE":" ","ALLEY":" ","HOUSE_NO":"３５之６號","E_COORD97":170299.53,"N_COORD97":2576767.8300000001,"ADDRESS":"孫厝寮３５之６號","OBJECTID":157554},"geometry":{"x":170299.53000000026,"y":2576767.8300000019}},{"attributes":{"ID":157556,"DIS_CODE":0,"TOWNNAME":"新營區","LI":"忠政里","LIN":"2鄰","STREET":"中正路","SECT":" ","MAREA":" ","LANE":"３１巷","ALLEY":"９弄","HOUSE_NO":"１０號","E_COORD97":180064.45000000001,"N_COORD97":2579040.8700000001,"ADDRESS":"中正路３１巷９弄１０號","OBJECTID":157555},"geometry":{"x":180064.45000000019,"y":2579040.870000001}},{"attributes":{"ID":157557,"DIS_CODE":0,"TOWNNAME":"北區","LI":"六甲里","LIN":"2鄰","STREET":"公園路","SECT":" ","MAREA":" ","LANE":"４５１巷","ALLEY":"３８弄","HOUSE_NO":"１３號","E_COORD97":168899.54999999999,"N_COORD97":2545585.1200000001,"ADDRESS":"公園路４５１巷３８弄１３號","OBJECTID":157556},"geometry":{"x":168899.55000000075,"y":2545585.1200000029}},{"attributes":{"ID":157558,"DIS_CODE":0,"TOWNNAME":"永康區","LI":"中華里","LIN":"19鄰","STREET":"華興街","SECT":" ","MAREA":" ","LANE":" ","ALLEY":" ","HOUSE_NO":"１３７號","E_COORD97":171645.89999999999,"N_COORD97":2544559.8500000001,"ADDRESS":"華興街１３７號","OBJECTID":157557},"geometry":{"x":171645.9000000013,"y":2544559.8499999996}},{"attributes":{"ID":157559,"DIS_CODE":0,"TOWNNAME":"鹽水區","LI":"孫厝里","LIN":"5鄰","STREET":" ","SECT":" ","MAREA":"孫厝寮","LANE":" ","ALLEY":" ","HOUSE_NO":"３５號","E_COORD97":170314.31,"N_COORD97":2576745.3700000001,"ADDRESS":"孫厝寮３５號","OBJECTID":157558},"geometry":{"x":170314.30999999959,"y":2576745.370000001}},{"attributes":{"ID":157560,"DIS_CODE":0,"TOWNNAME":"鹽水區","LI":"孫厝里","LIN":"5鄰","STREET":" ","SECT":" ","MAREA":"孫厝寮","LANE":" ","ALLEY":" ","HOUSE_NO":"３６號","E_COORD97":170286.87,"N_COORD97":2576758.8799999999,"ADDRESS":"孫厝寮３６號","OBJECTID":157559},"geometry":{"x":170286.87000000011,"y":2576758.8800000008}},{"attributes":{"ID":157561,"DIS_CODE":0,"TOWNNAME":"鹽水區","LI":"孫厝里","LIN":"5鄰","STREET":" ","SECT":" ","MAREA":"孫厝寮","LANE":" ","ALLEY":" ","HOUSE_NO":"３７號","E_COORD97":170293.85999999999,"N_COORD97":2576809.7200000002,"ADDRESS":"孫厝寮３７號","OBJECTID":157560},"geometry":{"x":170293.86000000034,"y":2576809.7200000025}},{"attributes":{"ID":157562,"DIS_CODE":0,"TOWNNAME":"新營區","LI":"護鎮里","LIN":"5鄰","STREET":" ","SECT":" ","MAREA":"後鎮","LANE":" ","ALLEY":" ","HOUSE_NO":"５８號","E_COORD97":179102.94,"N_COORD97":2581162.8900000001,"ADDRESS":"後鎮５８號","OBJECTID":157561},"geometry":{"x":179102.94000000134,"y":2581162.8900000006}},{"attributes":{"ID":157563,"DIS_CODE":0,"TOWNNAME":"鹽水區","LI":"桐寮里","LIN":"5鄰","STREET":" ","SECT":" ","MAREA":"桐寮","LANE":" ","ALLEY":" ","HOUSE_NO":"２６之１號","E_COORD97":173999.47,"N_COORD97":2576480.3399999999,"ADDRESS":"桐寮２６之１號","OBJECTID":157562},"geometry":{"x":173999.47000000067,"y":2576480.3399999999}},{"attributes":{"ID":157564,"DIS_CODE":0,"TOWNNAME":"鹽水區","LI":"桐寮里","LIN":"5鄰","STREET":" ","SECT":" ","MAREA":"桐寮","LANE":" ","ALLEY":" ","HOUSE_NO":"２６之３號","E_COORD97":174024.5,"N_COORD97":2576474.6899999999,"ADDRESS":"桐寮２６之３號","OBJECTID":157563},"geometry":{"x":174024.50000000186,"y":2576474.6899999995}},{"attributes":{"ID":157565,"DIS_CODE":0,"TOWNNAME":"白河區","LI":"蓮潭里","LIN":"5鄰","STREET":" ","SECT":" ","MAREA":"山子腳","LANE":" ","ALLEY":" ","HOUSE_NO":"１７號","E_COORD97":189224.04000000001,"N_COORD97":2588360.7599999998,"ADDRESS":"山子腳１７號","OBJECTID":157564},"geometry":{"x":189224.04000000097,"y":2588360.7599999998}},{"attributes":{"ID":157566,"DIS_CODE":0,"TOWNNAME":"鹽水區","LI":"桐寮里","LIN":"5鄰","STREET":" ","SECT":" ","MAREA":"桐寮","LANE":" ","ALLEY":" ","HOUSE_NO":"２６號","E_COORD97":173983.89000000001,"N_COORD97":2576492.96,"ADDRESS":"桐寮２６號","OBJECTID":157565},"geometry":{"x":173983.88999999966,"y":2576492.9600000028}},{"attributes":{"ID":157567,"DIS_CODE":0,"TOWNNAME":"鹽水區","LI":"桐寮里","LIN":"5鄰","STREET":" ","SECT":" ","MAREA":"桐寮","LANE":" ","ALLEY":" ","HOUSE_NO":"５７之１號","E_COORD97":173869.98999999999,"N_COORD97":2576619.52,"ADDRESS":"桐寮５７之１號","OBJECTID":157566},"geometry":{"x":173869.99000000022,"y":2576619.5200000014}},{"attributes":{"ID":157568,"DIS_CODE":0,"TOWNNAME":"鹽水區","LI":"桐寮里","LIN":"5鄰","STREET":" ","SECT":" ","MAREA":"桐寮","LANE":" ","ALLEY":" ","HOUSE_NO":"５７號","E_COORD97":173892.60000000001,"N_COORD97":2576579.7799999998,"ADDRESS":"桐寮５７號","OBJECTID":157567},"geometry":{"x":173892.59999999963,"y":2576579.7800000012}},{"attributes":{"ID":157569,"DIS_CODE":0,"TOWNNAME":"鹽水區","LI":"桐寮里","LIN":"5鄰","STREET":" ","SECT":" ","MAREA":"桐寮","LANE":" ","ALLEY":" ","HOUSE_NO":"５８之１號","E_COORD97":173968.22,"N_COORD97":2576539.0699999998,"ADDRESS":"桐寮５８之１號","OBJECTID":157568},"geometry":{"x":173968.21999999974,"y":2576539.0700000022}},{"attributes":{"ID":157570,"DIS_CODE":0,"TOWNNAME":"鹽水區","LI":"桐寮里","LIN":"5鄰","STREET":" ","SECT":" ","MAREA":"桐寮","LANE":" ","ALLEY":" ","HOUSE_NO":"５８號","E_COORD97":173955.69,"N_COORD97":2576540.5800000001,"ADDRESS":"桐寮５８號","OBJECTID":157569},"geometry":{"x":173955.69000000227,"y":2576540.5800000001}},{"attributes":{"ID":157571,"DIS_CODE":0,"TOWNNAME":"鹽水區","LI":"桐寮里","LIN":"5鄰","STREET":" ","SECT":" ","MAREA":"桐寮","LANE":" ","ALLEY":" ","HOUSE_NO":"５９號","E_COORD97":173974.85999999999,"N_COORD97":2576539.1899999999,"ADDRESS":"桐寮５９號","OBJECTID":157570},"geometry":{"x":173974.8600000022,"y":2576539.1899999995}},{"attributes":{"ID":157572,"DIS_CODE":0,"TOWNNAME":"鹽水區","LI":"桐寮里","LIN":"5鄰","STREET":" ","SECT":" ","MAREA":"桐寮","LANE":" ","ALLEY":" ","HOUSE_NO":"６３號","E_COORD97":173953.60999999999,"N_COORD97":2576586.8100000001,"ADDRESS":"桐寮６３號","OBJECTID":157571},"geometry":{"x":173953.61000000127,"y":2576586.8100000005}},{"attributes":{"ID":157573,"DIS_CODE":0,"TOWNNAME":"鹽水區","LI":"桐寮里","LIN":"5鄰","STREET":" ","SECT":" ","MAREA":"桐寮","LANE":" ","ALLEY":" ","HOUSE_NO":"６４之１號","E_COORD97":173966.88,"N_COORD97":2576578.6400000001,"ADDRESS":"桐寮６４之１號","OBJECTID":157572},"geometry":{"x":173966.87999999989,"y":2576578.6400000025}},{"attributes":{"ID":157574,"DIS_CODE":0,"TOWNNAME":"中西區","LI":"仙草里","LIN":"8鄰","STREET":"永福路","SECT":"一段","MAREA":" ","LANE":" ","ALLEY":" ","HOUSE_NO":"４７號","E_COORD97":167979.23000000001,"N_COORD97":2542607.4900000002,"ADDRESS":"永福路一段４７號","OBJECTID":157573},"geometry":{"x":167979.23000000045,"y":2542607.4900000039}},{"attributes":{"ID":157575,"DIS_CODE":0,"TOWNNAME":"鹽水區","LI":"桐寮里","LIN":"5鄰","STREET":" ","SECT":" ","MAREA":"桐寮","LANE":" ","ALLEY":" ","HOUSE_NO":"６４號","E_COORD97":173962.76999999999,"N_COORD97":2576594.3599999999,"ADDRESS":"桐寮６４號","OBJECTID":157574},"geometry":{"x":173962.77000000142,"y":2576594.3599999994}},{"attributes":{"ID":157576,"DIS_CODE":0,"TOWNNAME":"北區","LI":"文元里","LIN":"2鄰","STREET":"海安路","SECT":"三段","MAREA":" ","LANE":"９８５巷","ALLEY":"４９弄","HOUSE_NO":"１２號","E_COORD97":167832.25,"N_COORD97":2546576.8999999999,"ADDRESS":"海安路三段９８５巷４９弄１２號","OBJECTID":157575},"geometry":{"x":167832.25000000093,"y":2546576.9000000004}},{"attributes":{"ID":157577,"DIS_CODE":0,"TOWNNAME":"南化區","LI":"東和里","LIN":"5鄰","STREET":" ","SECT":" ","MAREA":"東和","LANE":" ","ALLEY":" ","HOUSE_NO":"４５號之２","E_COORD97":195652.54000000001,"N_COORD97":2544917.7999999998,"ADDRESS":"東和４５號之２","OBJECTID":157576},"geometry":{"x":195652.54000000004,"y":2544917.7999999989}},{"attributes":{"ID":157578,"DIS_CODE":0,"TOWNNAME":"安平區","LI":"港仔里","LIN":"2鄰","STREET":"安平路","SECT":" ","MAREA":" ","LANE":"３３巷","ALLEY":"８弄","HOUSE_NO":"２０號","E_COORD97":164583.92999999999,"N_COORD97":2544377.1099999999,"ADDRESS":"安平路３３巷８弄２０號","OBJECTID":157577},"geometry":{"x":164583.92999999877,"y":2544377.1100000013}},{"attributes":{"ID":157579,"DIS_CODE":0,"TOWNNAME":"南化區","LI":"西埔里","LIN":"5鄰","STREET":" ","SECT":" ","MAREA":"西埔","LANE":" ","ALLEY":" ","HOUSE_NO":"３９號","E_COORD97":195389.34,"N_COORD97":2548083.75,"ADDRESS":"西埔３９號","OBJECTID":157578},"geometry":{"x":195389.33999999985,"y":2548083.75}},{"attributes":{"ID":157580,"DIS_CODE":0,"TOWNNAME":"南化區","LI":"東和里","LIN":"5鄰","STREET":" ","SECT":" ","MAREA":"東和","LANE":" ","ALLEY":" ","HOUSE_NO":"４０號之６","E_COORD97":195654.91,"N_COORD97":2545057.7999999998,"ADDRESS":"東和４０號之６","OBJECTID":157579},"geometry":{"x":195654.91000000108,"y":2545057.8000000026}},{"attributes":{"ID":157581,"DIS_CODE":0,"TOWNNAME":"安平區","LI":"港仔里","LIN":"2鄰","STREET":"安平路","SECT":" ","MAREA":" ","LANE":"３３巷","ALLEY":"８弄","HOUSE_NO":"２２號","E_COORD97":164576.32000000001,"N_COORD97":2544376.71,"ADDRESS":"安平路３３巷８弄２２號","OBJECTID":157580},"geometry":{"x":164576.3200000003,"y":2544376.7100000028}},{"attributes":{"ID":157582,"DIS_CODE":0,"TOWNNAME":"南化區","LI":"東和里","LIN":"5鄰","STREET":" ","SECT":" ","MAREA":"東和","LANE":" ","ALLEY":" ","HOUSE_NO":"４６之２號","E_COORD97":195596.57000000001,"N_COORD97":2544799.7999999998,"ADDRESS":"東和４６之２號","OBJECTID":157581},"geometry":{"x":195596.5700000003,"y":2544799.8000000026}},{"attributes":{"ID":157583,"DIS_CODE":0,"TOWNNAME":"安平區","LI":"港仔里","LIN":"2鄰","STREET":"安平路","SECT":" ","MAREA":" ","LANE":"３３巷","ALLEY":"８弄","HOUSE_NO":"２４號","E_COORD97":164554.94,"N_COORD97":2544376.3799999999,"ADDRESS":"安平路３３巷８弄２４號","OBJECTID":157582},"geometry":{"x":164554.94000000134,"y":2544376.3799999971}},{"attributes":{"ID":157584,"DIS_CODE":0,"TOWNNAME":"南化區","LI":"西埔里","LIN":"5鄰","STREET":" ","SECT":" ","MAREA":"西埔","LANE":" ","ALLEY":" ","HOUSE_NO":"３５號之１","E_COORD97":195497.98000000001,"N_COORD97":2547974.7999999998,"ADDRESS":"西埔３５號之１","OBJECTID":157583},"geometry":{"x":195497.98000000231,"y":2547974.8000000007}},{"attributes":{"ID":157585,"DIS_CODE":0,"TOWNNAME":"南化區","LI":"中坑里","LIN":"5鄰","STREET":" ","SECT":" ","MAREA":"中坑","LANE":" ","ALLEY":" ","HOUSE_NO":"３７之５號","E_COORD97":193685.26000000001,"N_COORD97":2549419.7999999998,"ADDRESS":"中坑３７之５號","OBJECTID":157584},"geometry":{"x":193685.26000000071,"y":2549419.8000000007}},{"attributes":{"ID":157586,"DIS_CODE":0,"TOWNNAME":"南化區","LI":"小崙里","LIN":"5鄰","STREET":" ","SECT":" ","MAREA":"小崙","LANE":" ","ALLEY":" ","HOUSE_NO":"５４號","E_COORD97":197643.57000000001,"N_COORD97":2549580.75,"ADDRESS":"小崙５４號","OBJECTID":157585},"geometry":{"x":197643.57000000123,"y":2549580.7500000019}},{"attributes":{"ID":157587,"DIS_CODE":0,"TOWNNAME":"南化區","LI":"北平里","LIN":"5鄰","STREET":" ","SECT":" ","MAREA":"北平","LANE":" ","ALLEY":" ","HOUSE_NO":"６４號之１","E_COORD97":195036.92999999999,"N_COORD97":2551621.7999999998,"ADDRESS":"北平６４號之１","OBJECTID":157586},"geometry":{"x":195036.93000000063,"y":2551621.8000000026}},{"attributes":{"ID":157588,"DIS_CODE":0,"TOWNNAME":"南化區","LI":"中坑里","LIN":"5鄰","STREET":" ","SECT":" ","MAREA":"中坑","LANE":" ","ALLEY":" ","HOUSE_NO":"３８之３號","E_COORD97":193632.06,"N_COORD97":2549501.7999999998,"ADDRESS":"中坑３８之３號","OBJECTID":157587},"geometry":{"x":193632.06000000052,"y":2549501.8000000045}},{"attributes":{"ID":157589,"DIS_CODE":0,"TOWNNAME":"安平區","LI":"港仔里","LIN":"2鄰","STREET":"安平路","SECT":" ","MAREA":" ","LANE":"３３巷","ALLEY":"８弄","HOUSE_NO":"２６之２號","E_COORD97":164558.45000000001,"N_COORD97":2544386.71,"ADDRESS":"安平路３３巷８弄２６之２號","OBJECTID":157588},"geometry":{"x":164558.45000000019,"y":2544386.7100000046}},{"attributes":{"ID":157590,"DIS_CODE":0,"TOWNNAME":"安平區","LI":"港仔里","LIN":"2鄰","STREET":"安平路","SECT":" ","MAREA":" ","LANE":"３３巷","ALLEY":"８弄","HOUSE_NO":"２６號","E_COORD97":164549.10999999999,"N_COORD97":2544378.5800000001,"ADDRESS":"安平路３３巷８弄２６號","OBJECTID":157589},"geometry":{"x":164549.11000000034,"y":2544378.5800000001}},{"attributes":{"ID":157591,"DIS_CODE":0,"TOWNNAME":"安平區","LI":"港仔里","LIN":"2鄰","STREET":"安平路","SECT":" ","MAREA":" ","LANE":"３３巷","ALLEY":"８弄","HOUSE_NO":"２６號之１","E_COORD97":164552.72,"N_COORD97":2544389.3799999999,"ADDRESS":"安平路３３巷８弄２６號之１","OBJECTID":157590},"geometry":{"x":164552.71999999974,"y":2544389.379999999}},{"attributes":{"ID":157592,"DIS_CODE":0,"TOWNNAME":"安平區","LI":"港仔里","LIN":"2鄰","STREET":"安平路","SECT":" ","MAREA":" ","LANE":"５１巷","ALLEY":"１２弄","HOUSE_NO":"６號","E_COORD97":164523.25,"N_COORD97":2544415.9100000001,"ADDRESS":"安平路５１巷１２弄６號","OBJECTID":157591},"geometry":{"x":164523.25000000093,"y":2544415.910000002}},{"attributes":{"ID":157593,"DIS_CODE":0,"TOWNNAME":"安平區","LI":"港仔里","LIN":"2鄰","STREET":"安平路","SECT":" ","MAREA":" ","LANE":"５１巷","ALLEY":"１６弄","HOUSE_NO":"１０號","E_COORD97":164513.53,"N_COORD97":2544396.21,"ADDRESS":"安平路５１巷１６弄１０號","OBJECTID":157592},"geometry":{"x":164513.53000000119,"y":2544396.2100000009}},{"attributes":{"ID":157594,"DIS_CODE":0,"TOWNNAME":"安平區","LI":"港仔里","LIN":"2鄰","STREET":"安平路","SECT":" ","MAREA":" ","LANE":"５１巷","ALLEY":"１６弄","HOUSE_NO":"１１號","E_COORD97":164471.76999999999,"N_COORD97":2544390.3700000001,"ADDRESS":"安平路５１巷１６弄１１號","OBJECTID":157593},"geometry":{"x":164471.77000000048,"y":2544390.3700000029}},{"attributes":{"ID":157595,"DIS_CODE":0,"TOWNNAME":"安平區","LI":"港仔里","LIN":"2鄰","STREET":"安平路","SECT":" ","MAREA":" ","LANE":"５１巷","ALLEY":"１６弄","HOUSE_NO":"１１號之１","E_COORD97":164463.95999999999,"N_COORD97":2544386.0800000001,"ADDRESS":"安平路５１巷１６弄１１號之１","OBJECTID":157594},"geometry":{"x":164463.96000000089,"y":2544386.0800000001}},{"attributes":{"ID":157596,"DIS_CODE":0,"TOWNNAME":"安平區","LI":"港仔里","LIN":"2鄰","STREET":"安平路","SECT":" ","MAREA":" ","LANE":"５１巷","ALLEY":"１６弄","HOUSE_NO":"１２號","E_COORD97":164503.98999999999,"N_COORD97":2544402.77,"ADDRESS":"安平路５１巷１６弄１２號","OBJECTID":157595},"geometry":{"x":164503.99000000022,"y":2544402.7700000014}},{"attributes":{"ID":157597,"DIS_CODE":0,"TOWNNAME":"中西區","LI":"仙草里","LIN":"8鄰","STREET":"永福路","SECT":"一段","MAREA":" ","LANE":" ","ALLEY":" ","HOUSE_NO":"４９號","E_COORD97":167977.32000000001,"N_COORD97":2542612.52,"ADDRESS":"永福路一段４９號","OBJECTID":157596},"geometry":{"x":167977.3200000003,"y":2542612.5199999996}},{"attributes":{"ID":157598,"DIS_CODE":0,"TOWNNAME":"安平區","LI":"港仔里","LIN":"2鄰","STREET":"安平路","SECT":" ","MAREA":" ","LANE":"５１巷","ALLEY":"１６弄","HOUSE_NO":"１２號之１","E_COORD97":164506.95999999999,"N_COORD97":2544395.4300000002,"ADDRESS":"安平路５１巷１６弄１２號之１","OBJECTID":157597},"geometry":{"x":164506.96000000089,"y":2544395.4300000016}},{"attributes":{"ID":157599,"DIS_CODE":0,"TOWNNAME":"安南區","LI":"大安里","LIN":"19鄰","STREET":"義安街","SECT":" ","MAREA":" ","LANE":" ","ALLEY":" ","HOUSE_NO":"２０２號","E_COORD97":167618.26999999999,"N_COORD97":2548325.9399999999,"ADDRESS":"義安街２０２號","OBJECTID":157598},"geometry":{"x":167618.27000000048,"y":2548325.9399999995}},{"attributes":{"ID":157600,"DIS_CODE":0,"TOWNNAME":"安南區","LI":"大安里","LIN":"19鄰","STREET":"義安街","SECT":" ","MAREA":" ","LANE":" ","ALLEY":" ","HOUSE_NO":"２３２號","E_COORD97":167660.48999999999,"N_COORD97":2548385.25,"ADDRESS":"義安街２３２號","OBJECTID":157599},"geometry":{"x":167660.49000000022,"y":2548385.25}},{"attributes":{"ID":157601,"DIS_CODE":0,"TOWNNAME":"安南區","LI":"大安里","LIN":"19鄰","STREET":"義安街","SECT":" ","MAREA":" ","LANE":" ","ALLEY":" ","HOUSE_NO":"２４０號","E_COORD97":167669.26999999999,"N_COORD97":2548401.5800000001,"ADDRESS":"義安街２４０號","OBJECTID":157600},"geometry":{"x":167669.27000000048,"y":2548401.5800000019}}]}