{"displayFieldName":"TOWNNAME","fieldAliases":{"ID":"ID","DIS_CODE":"DIS_CODE","TOWNNAME":"TOWNNAME","LI":"LI","LIN":"LIN","STREET":"STREET","SECT":"SECT","MAREA":"MAREA","LANE":"LANE","ALLEY":"ALLEY","HOUSE_NO":"HOUSE_NO","E_COORD97":"E_COORD97","N_COORD97":"N_COORD97","ADDRESS":"ADDRESS","OBJECTID":"OBJECTID"},"geometryType":"esriGeometryPoint","spatialReference":{"wkid":102443,"latestWkid":3826},"fields":[{"name":"ID","type":"esriFieldTypeDouble","alias":"ID"},{"name":"DIS_CODE","type":"esriFieldTypeInteger","alias":"DIS_CODE"},{"name":"TOWNNAME","type":"esriFieldTypeString","alias":"TOWNNAME","length":8},{"name":"LI","type":"esriFieldTypeString","alias":"LI","length":8},{"name":"LIN","type":"esriFieldTypeString","alias":"LIN","length":12},{"name":"STREET","type":"esriFieldTypeString","alias":"STREET","length":20},{"name":"SECT","type":"esriFieldTypeString","alias":"SECT","length":8},{"name":"MAREA","type":"esriFieldTypeString","alias":"MAREA","length":12},{"name":"LANE","type":"esriFieldTypeString","alias":"LANE","length":10},{"name":"ALLEY","type":"esriFieldTypeString","alias":"ALLEY","length":10},{"name":"HOUSE_NO","type":"esriFieldTypeString","alias":"HOUSE_NO","length":20},{"name":"E_COORD97","type":"esriFieldTypeDouble","alias":"E_COORD97"},{"name":"N_COORD97","type":"esriFieldTypeDouble","alias":"N_COORD97"},{"name":"ADDRESS","type":"esriFieldTypeString","alias":"ADDRESS","length":50},{"name":"OBJECTID","type":"esriFieldTypeOID","alias":"OBJECTID"}],"features":[{"attributes":{"ID":176802,"DIS_CODE":0,"TOWNNAME":"安南區","LI":"長安里","LIN":"14鄰","STREET":"長溪路","SECT":"三段","MAREA":" ","LANE":"３８０巷","ALLEY":"１２５弄","HOUSE_NO":"４３號","E_COORD97":167923.41,"N_COORD97":2552210.2599999998,"ADDRESS":"長溪路三段３８０巷１２５弄４３號","OBJECTID":176801},"geometry":{"x":167923.41000000015,"y":2552210.2600000035}},{"attributes":{"ID":176803,"DIS_CODE":0,"TOWNNAME":"安南區","LI":"長安里","LIN":"14鄰","STREET":"長溪路","SECT":"三段","MAREA":" ","LANE":"３８０巷","ALLEY":"１２５弄","HOUSE_NO":"６５號","E_COORD97":167936.79999999999,"N_COORD97":2552240.0800000001,"ADDRESS":"長溪路三段３８０巷１２５弄６５號","OBJECTID":176802},"geometry":{"x":167936.80000000075,"y":2552240.0800000019}},{"attributes":{"ID":176804,"DIS_CODE":0,"TOWNNAME":"安南區","LI":"總頭里","LIN":"13鄰","STREET":"長溪路","SECT":"二段","MAREA":" ","LANE":"４８３巷","ALLEY":"４６弄","HOUSE_NO":"１２號","E_COORD97":168211.23000000001,"N_COORD97":2550416.3599999999,"ADDRESS":"長溪路二段４８３巷４６弄１２號","OBJECTID":176803},"geometry":{"x":168211.23000000138,"y":2550416.3600000013}},{"attributes":{"ID":176805,"DIS_CODE":0,"TOWNNAME":"安南區","LI":"淵東里","LIN":"1鄰","STREET":"海佃路","SECT":"四段","MAREA":" ","LANE":"５５巷","ALLEY":"２７弄","HOUSE_NO":"２９號","E_COORD97":165678.91,"N_COORD97":2550507.3300000001,"ADDRESS":"海佃路四段５５巷２７弄２９號","OBJECTID":176804},"geometry":{"x":165678.91000000108,"y":2550507.3300000001}},{"attributes":{"ID":176806,"DIS_CODE":0,"TOWNNAME":"安南區","LI":"淵東里","LIN":"1鄰","STREET":"海佃路","SECT":"四段","MAREA":" ","LANE":"５５巷","ALLEY":"２７弄","HOUSE_NO":"１５號","E_COORD97":165684.23000000001,"N_COORD97":2550534.5600000001,"ADDRESS":"海佃路四段５５巷２７弄１５號","OBJECTID":176805},"geometry":{"x":165684.23000000045,"y":2550534.5600000024}},{"attributes":{"ID":176807,"DIS_CODE":0,"TOWNNAME":"安南區","LI":"淵東里","LIN":"1鄰","STREET":"海佃路","SECT":"四段","MAREA":" ","LANE":"５５巷","ALLEY":"２７弄","HOUSE_NO":"１７號","E_COORD97":165681.14000000001,"N_COORD97":2550532.8199999998,"ADDRESS":"海佃路四段５５巷２７弄１７號","OBJECTID":176806},"geometry":{"x":165681.14000000153,"y":2550532.8200000022}},{"attributes":{"ID":176808,"DIS_CODE":0,"TOWNNAME":"安南區","LI":"淵東里","LIN":"1鄰","STREET":"海佃路","SECT":"四段","MAREA":" ","LANE":"５５巷","ALLEY":"２７弄","HOUSE_NO":"１９號","E_COORD97":165666.64999999999,"N_COORD97":2550525.7000000002,"ADDRESS":"海佃路四段５５巷２７弄１９號","OBJECTID":176807},"geometry":{"x":165666.6500000013,"y":2550525.7000000011}},{"attributes":{"ID":176809,"DIS_CODE":0,"TOWNNAME":"安南區","LI":"新順里","LIN":"10鄰","STREET":"安和路","SECT":"二段","MAREA":" ","LANE":" ","ALLEY":" ","HOUSE_NO":"２４１號","E_COORD97":169630.20000000001,"N_COORD97":2549117.0899999999,"ADDRESS":"安和路二段２４１號","OBJECTID":176808},"geometry":{"x":169630.20000000019,"y":2549117.0900000017}},{"attributes":{"ID":176810,"DIS_CODE":0,"TOWNNAME":"白河區","LI":"內角里","LIN":"10鄰","STREET":" ","SECT":" ","MAREA":"內角","LANE":" ","ALLEY":" ","HOUSE_NO":"１１５號","E_COORD97":192075.98999999999,"N_COORD97":2589354.52,"ADDRESS":"內角１１５號","OBJECTID":176809},"geometry":{"x":192075.99000000022,"y":2589354.5200000014}},{"attributes":{"ID":176811,"DIS_CODE":0,"TOWNNAME":"安南區","LI":"淵東里","LIN":"1鄰","STREET":"海佃路","SECT":"四段","MAREA":" ","LANE":"５５巷","ALLEY":"２７弄","HOUSE_NO":"２１號","E_COORD97":165668.88,"N_COORD97":2550521.52,"ADDRESS":"海佃路四段５５巷２７弄２１號","OBJECTID":176810},"geometry":{"x":165668.87999999989,"y":2550521.5199999996}},{"attributes":{"ID":176812,"DIS_CODE":0,"TOWNNAME":"安南區","LI":"淵東里","LIN":"1鄰","STREET":"海佃路","SECT":"四段","MAREA":" ","LANE":"５５巷","ALLEY":"２７弄","HOUSE_NO":"２３號","E_COORD97":165671.10000000001,"N_COORD97":2550517.9100000001,"ADDRESS":"海佃路四段５５巷２７弄２３號","OBJECTID":176811},"geometry":{"x":165671.10000000149,"y":2550517.910000002}},{"attributes":{"ID":176813,"DIS_CODE":0,"TOWNNAME":"安南區","LI":"淵東里","LIN":"1鄰","STREET":"海佃路","SECT":"四段","MAREA":" ","LANE":"５５巷","ALLEY":"２７弄","HOUSE_NO":"２５號","E_COORD97":165673.06,"N_COORD97":2550514.0099999998,"ADDRESS":"海佃路四段５５巷２７弄２５號","OBJECTID":176812},"geometry":{"x":165673.06000000145,"y":2550514.0100000016}},{"attributes":{"ID":176814,"DIS_CODE":0,"TOWNNAME":"安南區","LI":"淵東里","LIN":"1鄰","STREET":"海佃路","SECT":"四段","MAREA":" ","LANE":"５５巷","ALLEY":"２７弄","HOUSE_NO":"２７號","E_COORD97":165676.39999999999,"N_COORD97":2550510.3900000001,"ADDRESS":"海佃路四段５５巷２７弄２７號","OBJECTID":176813},"geometry":{"x":165676.40000000037,"y":2550510.3900000006}},{"attributes":{"ID":176815,"DIS_CODE":0,"TOWNNAME":"安南區","LI":"淵東里","LIN":"1鄰","STREET":"海佃路","SECT":"四段","MAREA":" ","LANE":"５５巷","ALLEY":"２７弄","HOUSE_NO":"３１號","E_COORD97":165681.14000000001,"N_COORD97":2550503.4399999999,"ADDRESS":"海佃路四段５５巷２７弄３１號","OBJECTID":176814},"geometry":{"x":165681.14000000153,"y":2550503.4400000013}},{"attributes":{"ID":176816,"DIS_CODE":0,"TOWNNAME":"安南區","LI":"淵東里","LIN":"1鄰","STREET":"海佃路","SECT":"四段","MAREA":" ","LANE":"５５巷","ALLEY":"２７弄","HOUSE_NO":"３３號","E_COORD97":165683.09,"N_COORD97":2550499.8199999998,"ADDRESS":"海佃路四段５５巷２７弄３３號","OBJECTID":176815},"geometry":{"x":165683.08999999985,"y":2550499.8200000003}},{"attributes":{"ID":176817,"DIS_CODE":0,"TOWNNAME":"白河區","LI":"內角里","LIN":"10鄰","STREET":" ","SECT":" ","MAREA":"內角","LANE":" ","ALLEY":" ","HOUSE_NO":"１１６號","E_COORD97":192023.67999999999,"N_COORD97":2589329.8700000001,"ADDRESS":"內角１１６號","OBJECTID":176816},"geometry":{"x":192023.6799999997,"y":2589329.8700000029}},{"attributes":{"ID":176818,"DIS_CODE":0,"TOWNNAME":"白河區","LI":"內角里","LIN":"10鄰","STREET":" ","SECT":" ","MAREA":"內角","LANE":" ","ALLEY":" ","HOUSE_NO":"１１８之５號","E_COORD97":192065.06,"N_COORD97":2589423.23,"ADDRESS":"內角１１８之５號","OBJECTID":176817},"geometry":{"x":192065.05999999959,"y":2589423.2300000004}},{"attributes":{"ID":176819,"DIS_CODE":0,"TOWNNAME":"安南區","LI":"淵中里","LIN":"1鄰","STREET":"安中路","SECT":"三段","MAREA":" ","LANE":"３７５巷","ALLEY":"５弄","HOUSE_NO":"１號","E_COORD97":165531.98999999999,"N_COORD97":2549895.6400000001,"ADDRESS":"安中路三段３７５巷５弄１號","OBJECTID":176818},"geometry":{"x":165531.99000000115,"y":2549895.6400000006}},{"attributes":{"ID":176820,"DIS_CODE":0,"TOWNNAME":"安南區","LI":"安慶里","LIN":"13鄰","STREET":"安和路","SECT":"二段","MAREA":" ","LANE":"１１１巷","ALLEY":"２８弄","HOUSE_NO":"１２號","E_COORD97":169465.07000000001,"N_COORD97":2548767.8799999999,"ADDRESS":"安和路二段１１１巷２８弄１２號","OBJECTID":176819},"geometry":{"x":169465.0700000003,"y":2548767.8800000008}},{"attributes":{"ID":176821,"DIS_CODE":0,"TOWNNAME":"安南區","LI":"理想里","LIN":"4鄰","STREET":"海佃路","SECT":"二段","MAREA":" ","LANE":"３４２巷","ALLEY":"２１弄","HOUSE_NO":"９８號","E_COORD97":167093.26999999999,"N_COORD97":2548762.0099999998,"ADDRESS":"海佃路二段３４２巷２１弄９８號","OBJECTID":176820},"geometry":{"x":167093.26999999955,"y":2548762.0099999998}},{"attributes":{"ID":176822,"DIS_CODE":0,"TOWNNAME":"安南區","LI":"佃東里","LIN":"4鄰","STREET":"公學路","SECT":"四段","MAREA":" ","LANE":"１２２巷","ALLEY":"４８弄","HOUSE_NO":"３１號之３","E_COORD97":165705.64000000001,"N_COORD97":2552206.0099999998,"ADDRESS":"公學路四段１２２巷４８弄３１號之３","OBJECTID":176821},"geometry":{"x":165705.6400000006,"y":2552206.0100000016}},{"attributes":{"ID":176823,"DIS_CODE":0,"TOWNNAME":"安南區","LI":"安慶里","LIN":"13鄰","STREET":"安和路","SECT":"二段","MAREA":" ","LANE":"１１１巷","ALLEY":"２８弄","HOUSE_NO":"１４號","E_COORD97":169464.73000000001,"N_COORD97":2548772.6200000001,"ADDRESS":"安和路二段１１１巷２８弄１４號","OBJECTID":176822},"geometry":{"x":169464.73000000045,"y":2548772.6200000029}},{"attributes":{"ID":176824,"DIS_CODE":0,"TOWNNAME":"安南區","LI":"長安里","LIN":"13鄰","STREET":"長溪路","SECT":"三段","MAREA":" ","LANE":"３８０巷","ALLEY":"７６弄","HOUSE_NO":"２號之１","E_COORD97":167957.98000000001,"N_COORD97":2552109.5,"ADDRESS":"長溪路三段３８０巷７６弄２號之１","OBJECTID":176823},"geometry":{"x":167957.98000000231,"y":2552109.5}},{"attributes":{"ID":176825,"DIS_CODE":0,"TOWNNAME":"安南區","LI":"州北里","LIN":"8鄰","STREET":"北安路","SECT":"四段","MAREA":" ","LANE":"４２０巷","ALLEY":"１６弄","HOUSE_NO":"１０號","E_COORD97":169563,"N_COORD97":2551578.3900000001,"ADDRESS":"北安路四段４２０巷１６弄１０號","OBJECTID":176824},"geometry":{"x":169563.00000000093,"y":2551578.3900000006}},{"attributes":{"ID":176826,"DIS_CODE":0,"TOWNNAME":"安南區","LI":"州北里","LIN":"8鄰","STREET":"北安路","SECT":"四段","MAREA":" ","LANE":"４２０巷","ALLEY":"１６弄","HOUSE_NO":"１２號","E_COORD97":169565.76000000001,"N_COORD97":2551573.54,"ADDRESS":"北安路四段４２０巷１６弄１２號","OBJECTID":176825},"geometry":{"x":169565.76000000164,"y":2551573.5400000028}},{"attributes":{"ID":176827,"DIS_CODE":0,"TOWNNAME":"安南區","LI":"州北里","LIN":"8鄰","STREET":"北安路","SECT":"四段","MAREA":" ","LANE":"４２０巷","ALLEY":"１６弄","HOUSE_NO":"１號","E_COORD97":169573.76999999999,"N_COORD97":2551599.73,"ADDRESS":"北安路四段４２０巷１６弄１號","OBJECTID":176826},"geometry":{"x":169573.76999999955,"y":2551599.7300000004}},{"attributes":{"ID":176828,"DIS_CODE":0,"TOWNNAME":"安南區","LI":"州北里","LIN":"8鄰","STREET":"北安路","SECT":"四段","MAREA":" ","LANE":"４２０巷","ALLEY":"１６弄","HOUSE_NO":"２號","E_COORD97":169552.35999999999,"N_COORD97":2551603.2599999998,"ADDRESS":"北安路四段４２０巷１６弄２號","OBJECTID":176827},"geometry":{"x":169552.36000000127,"y":2551603.2600000035}},{"attributes":{"ID":176829,"DIS_CODE":0,"TOWNNAME":"安南區","LI":"州北里","LIN":"8鄰","STREET":"北安路","SECT":"四段","MAREA":" ","LANE":"４２０巷","ALLEY":"１６弄","HOUSE_NO":"３號","E_COORD97":169575.54000000001,"N_COORD97":2551595.4500000002,"ADDRESS":"北安路四段４２０巷１６弄３號","OBJECTID":176828},"geometry":{"x":169575.54000000004,"y":2551595.4500000011}},{"attributes":{"ID":176830,"DIS_CODE":0,"TOWNNAME":"安南區","LI":"州北里","LIN":"8鄰","STREET":"北安路","SECT":"四段","MAREA":" ","LANE":"４２０巷","ALLEY":"１６弄","HOUSE_NO":"４號","E_COORD97":169557.10999999999,"N_COORD97":2551592.5699999998,"ADDRESS":"北安路四段４２０巷１６弄４號","OBJECTID":176829},"geometry":{"x":169557.1099999994,"y":2551592.5700000022}},{"attributes":{"ID":176831,"DIS_CODE":0,"TOWNNAME":"安南區","LI":"州北里","LIN":"8鄰","STREET":"北安路","SECT":"四段","MAREA":" ","LANE":"４２０巷","ALLEY":"１６弄","HOUSE_NO":"５號","E_COORD97":169578.09,"N_COORD97":2551590.6499999999,"ADDRESS":"北安路四段４２０巷１６弄５號","OBJECTID":176830},"geometry":{"x":169578.08999999985,"y":2551590.6500000004}},{"attributes":{"ID":176832,"DIS_CODE":0,"TOWNNAME":"安南區","LI":"州北里","LIN":"8鄰","STREET":"北安路","SECT":"四段","MAREA":" ","LANE":"４２０巷","ALLEY":"１６弄","HOUSE_NO":"６號","E_COORD97":169558.70000000001,"N_COORD97":2551587.6499999999,"ADDRESS":"北安路四段４２０巷１６弄６號","OBJECTID":176831},"geometry":{"x":169558.70000000112,"y":2551587.6500000041}},{"attributes":{"ID":176833,"DIS_CODE":0,"TOWNNAME":"安南區","LI":"州北里","LIN":"8鄰","STREET":"北安路","SECT":"四段","MAREA":" ","LANE":"４２０巷","ALLEY":"１６弄","HOUSE_NO":"７號","E_COORD97":169580.67000000001,"N_COORD97":2551585.8100000001,"ADDRESS":"北安路四段４２０巷１６弄７號","OBJECTID":176832},"geometry":{"x":169580.67000000086,"y":2551585.8100000005}},{"attributes":{"ID":176834,"DIS_CODE":0,"TOWNNAME":"安南區","LI":"南興里","LIN":"10鄰","STREET":"公學路","SECT":"五段","MAREA":" ","LANE":"６９７巷","ALLEY":"１０２弄","HOUSE_NO":"４７號","E_COORD97":163742.81,"N_COORD97":2552526.79,"ADDRESS":"公學路五段６９７巷１０２弄４７號","OBJECTID":176833},"geometry":{"x":163742.81000000052,"y":2552526.7899999991}},{"attributes":{"ID":176835,"DIS_CODE":0,"TOWNNAME":"安南區","LI":"南興里","LIN":"10鄰","STREET":"公學路","SECT":"五段","MAREA":" ","LANE":"６９７巷","ALLEY":"１０２弄","HOUSE_NO":"４３號","E_COORD97":163743.44,"N_COORD97":2552536.1600000001,"ADDRESS":"公學路五段６９７巷１０２弄４３號","OBJECTID":176834},"geometry":{"x":163743.44000000041,"y":2552536.1600000001}},{"attributes":{"ID":176836,"DIS_CODE":0,"TOWNNAME":"安南區","LI":"南興里","LIN":"10鄰","STREET":"公學路","SECT":"五段","MAREA":" ","LANE":"６９７巷","ALLEY":"１０２弄","HOUSE_NO":"４１號","E_COORD97":163743.57000000001,"N_COORD97":2552541.8700000001,"ADDRESS":"公學路五段６９７巷１０２弄４１號","OBJECTID":176835},"geometry":{"x":163743.57000000123,"y":2552541.870000001}},{"attributes":{"ID":176837,"DIS_CODE":0,"TOWNNAME":"安南區","LI":"梅花里","LIN":"22鄰","STREET":"同安路","SECT":" ","MAREA":" ","LANE":"２６２巷","ALLEY":"４３弄","HOUSE_NO":"６５號","E_COORD97":167271.34,"N_COORD97":2549160.5099999998,"ADDRESS":"同安路２６２巷４３弄６５號","OBJECTID":176836},"geometry":{"x":167271.33999999985,"y":2549160.5100000035}},{"attributes":{"ID":176838,"DIS_CODE":0,"TOWNNAME":"安南區","LI":"淵中里","LIN":"15鄰","STREET":"安中路","SECT":"四段","MAREA":" ","LANE":"１５４巷","ALLEY":"５７弄","HOUSE_NO":"２２號","E_COORD97":165056.84,"N_COORD97":2550201.4399999999,"ADDRESS":"安中路四段１５４巷５７弄２２號","OBJECTID":176837},"geometry":{"x":165056.84000000078,"y":2550201.4400000032}},{"attributes":{"ID":176839,"DIS_CODE":0,"TOWNNAME":"楠西區","LI":"照興里","LIN":"10鄰","STREET":" ","SECT":" ","MAREA":"興南","LANE":" ","ALLEY":" ","HOUSE_NO":"１１號","E_COORD97":196565.47,"N_COORD97":2565241.25,"ADDRESS":"興南１１號","OBJECTID":176838},"geometry":{"x":196565.47000000067,"y":2565241.25}},{"attributes":{"ID":176840,"DIS_CODE":0,"TOWNNAME":"白河區","LI":"六溪里","LIN":"10鄰","STREET":" ","SECT":" ","MAREA":"六重溪","LANE":" ","ALLEY":" ","HOUSE_NO":"８３號","E_COORD97":195730.66,"N_COORD97":2578546.3300000001,"ADDRESS":"六重溪８３號","OBJECTID":176839},"geometry":{"x":195730.66000000108,"y":2578546.3300000038}},{"attributes":{"ID":176841,"DIS_CODE":0,"TOWNNAME":"白河區","LI":"六溪里","LIN":"10鄰","STREET":" ","SECT":" ","MAREA":"六重溪","LANE":" ","ALLEY":" ","HOUSE_NO":"８４號","E_COORD97":195748.66,"N_COORD97":2578545.21,"ADDRESS":"六重溪８４號","OBJECTID":176840},"geometry":{"x":195748.66000000015,"y":2578545.2100000028}},{"attributes":{"ID":176842,"DIS_CODE":0,"TOWNNAME":"白河區","LI":"六溪里","LIN":"10鄰","STREET":" ","SECT":" ","MAREA":"六重溪","LANE":" ","ALLEY":" ","HOUSE_NO":"８５號","E_COORD97":195778.87,"N_COORD97":2578558,"ADDRESS":"六重溪８５號","OBJECTID":176841},"geometry":{"x":195778.87000000104,"y":2578558}},{"attributes":{"ID":176843,"DIS_CODE":0,"TOWNNAME":"白河區","LI":"六溪里","LIN":"10鄰","STREET":" ","SECT":" ","MAREA":"六重溪","LANE":" ","ALLEY":" ","HOUSE_NO":"８６號","E_COORD97":195758.31,"N_COORD97":2578524.3900000001,"ADDRESS":"六重溪８６號","OBJECTID":176842},"geometry":{"x":195758.31000000052,"y":2578524.3900000025}},{"attributes":{"ID":176844,"DIS_CODE":0,"TOWNNAME":"白河區","LI":"六溪里","LIN":"10鄰","STREET":" ","SECT":" ","MAREA":"六重溪","LANE":" ","ALLEY":" ","HOUSE_NO":"８８號","E_COORD97":195774.03,"N_COORD97":2578516.7400000002,"ADDRESS":"六重溪８８號","OBJECTID":176843},"geometry":{"x":195774.03000000119,"y":2578516.7400000039}},{"attributes":{"ID":176845,"DIS_CODE":0,"TOWNNAME":"白河區","LI":"六溪里","LIN":"10鄰","STREET":" ","SECT":" ","MAREA":"六重溪","LANE":" ","ALLEY":" ","HOUSE_NO":"９１號","E_COORD97":195765.57000000001,"N_COORD97":2578538.8799999999,"ADDRESS":"六重溪９１號","OBJECTID":176844},"geometry":{"x":195765.57000000123,"y":2578538.8800000008}},{"attributes":{"ID":176846,"DIS_CODE":0,"TOWNNAME":"白河區","LI":"六溪里","LIN":"10鄰","STREET":" ","SECT":" ","MAREA":"六重溪","LANE":" ","ALLEY":" ","HOUSE_NO":"９２號","E_COORD97":195788.35000000001,"N_COORD97":2578536.9199999999,"ADDRESS":"六重溪９２號","OBJECTID":176845},"geometry":{"x":195788.35000000056,"y":2578536.9200000018}},{"attributes":{"ID":176847,"DIS_CODE":0,"TOWNNAME":"白河區","LI":"六溪里","LIN":"10鄰","STREET":" ","SECT":" ","MAREA":"六重溪","LANE":" ","ALLEY":" ","HOUSE_NO":"９３號","E_COORD97":195806.76999999999,"N_COORD97":2578548.73,"ADDRESS":"六重溪９３號","OBJECTID":176846},"geometry":{"x":195806.76999999955,"y":2578548.7300000023}},{"attributes":{"ID":176848,"DIS_CODE":0,"TOWNNAME":"白河區","LI":"六溪里","LIN":"10鄰","STREET":" ","SECT":" ","MAREA":"六重溪","LANE":" ","ALLEY":" ","HOUSE_NO":"９５之２號","E_COORD97":195772.53,"N_COORD97":2578410.46,"ADDRESS":"六重溪９５之２號","OBJECTID":176847},"geometry":{"x":195772.53000000119,"y":2578410.459999999}},{"attributes":{"ID":176849,"DIS_CODE":0,"TOWNNAME":"白河區","LI":"六溪里","LIN":"10鄰","STREET":" ","SECT":" ","MAREA":"六重溪","LANE":" ","ALLEY":" ","HOUSE_NO":"９５號","E_COORD97":195809.73999999999,"N_COORD97":2578525,"ADDRESS":"六重溪９５號","OBJECTID":176848},"geometry":{"x":195809.74000000115,"y":2578525.0000000037}},{"attributes":{"ID":176850,"DIS_CODE":0,"TOWNNAME":"白河區","LI":"六溪里","LIN":"10鄰","STREET":" ","SECT":" ","MAREA":"六重溪","LANE":" ","ALLEY":" ","HOUSE_NO":"９６號","E_COORD97":195766.19,"N_COORD97":2578497.0099999998,"ADDRESS":"六重溪９６號","OBJECTID":176849},"geometry":{"x":195766.19000000227,"y":2578497.0099999998}},{"attributes":{"ID":176851,"DIS_CODE":0,"TOWNNAME":"白河區","LI":"六溪里","LIN":"10鄰","STREET":" ","SECT":" ","MAREA":"六重溪","LANE":" ","ALLEY":" ","HOUSE_NO":"９７號","E_COORD97":195778.85999999999,"N_COORD97":2578500.5299999998,"ADDRESS":"六重溪９７號","OBJECTID":176850},"geometry":{"x":195778.86000000127,"y":2578500.5300000012}},{"attributes":{"ID":176852,"DIS_CODE":0,"TOWNNAME":"東區","LI":"東智里","LIN":"10鄰","STREET":"崇德三十街","SECT":" ","MAREA":" ","LANE":" ","ALLEY":" ","HOUSE_NO":"４６號","E_COORD97":170909.42000000001,"N_COORD97":2540157.1400000001,"ADDRESS":"崇德三十街４６號","OBJECTID":176851},"geometry":{"x":170909.42000000086,"y":2540157.1400000025}},{"attributes":{"ID":176853,"DIS_CODE":0,"TOWNNAME":"東區","LI":"東智里","LIN":"10鄰","STREET":"崇德三十街","SECT":" ","MAREA":" ","LANE":" ","ALLEY":" ","HOUSE_NO":"４２號","E_COORD97":170905.22,"N_COORD97":2540157.1400000001,"ADDRESS":"崇德三十街４２號","OBJECTID":176852},"geometry":{"x":170905.2200000016,"y":2540157.1400000025}},{"attributes":{"ID":176854,"DIS_CODE":0,"TOWNNAME":"安南區","LI":"\u25A0南里","LIN":"6鄰","STREET":"安昌街","SECT":" ","MAREA":" ","LANE":"２１９巷","ALLEY":"１８弄","HOUSE_NO":"７號","E_COORD97":170016.54000000001,"N_COORD97":2552545.1200000001,"ADDRESS":"安昌街２１９巷１８弄７號","OBJECTID":176853},"geometry":{"x":170016.54000000004,"y":2552545.1200000029}},{"attributes":{"ID":176855,"DIS_CODE":0,"TOWNNAME":"安南區","LI":"\u25A0南里","LIN":"6鄰","STREET":"安昌街","SECT":" ","MAREA":" ","LANE":"２１９巷","ALLEY":"１８弄","HOUSE_NO":"８號","E_COORD97":170040.67999999999,"N_COORD97":2552553.75,"ADDRESS":"安昌街２１９巷１８弄８號","OBJECTID":176854},"geometry":{"x":170040.6799999997,"y":2552553.7500000019}},{"attributes":{"ID":176856,"DIS_CODE":0,"TOWNNAME":"安南區","LI":"州北里","LIN":"5鄰","STREET":"安和路","SECT":"五段","MAREA":" ","LANE":"１７１巷","ALLEY":"４７弄","HOUSE_NO":"５３號之５","E_COORD97":169698.63,"N_COORD97":2551724.7999999998,"ADDRESS":"安和路五段１７１巷４７弄５３號之５","OBJECTID":176855},"geometry":{"x":169698.62999999989,"y":2551724.8000000007}},{"attributes":{"ID":176857,"DIS_CODE":0,"TOWNNAME":"安南區","LI":"理想里","LIN":"8鄰","STREET":"海佃路","SECT":"二段","MAREA":" ","LANE":"１５０巷","ALLEY":"１１２弄","HOUSE_NO":"１６號","E_COORD97":167221.78,"N_COORD97":2548354.3199999998,"ADDRESS":"海佃路二段１５０巷１１２弄１６號","OBJECTID":176856},"geometry":{"x":167221.78000000212,"y":2548354.3200000003}},{"attributes":{"ID":176858,"DIS_CODE":0,"TOWNNAME":"仁德區","LI":"保安里","LIN":"10鄰","STREET":"文賢二街","SECT":" ","MAREA":" ","LANE":" ","ALLEY":" ","HOUSE_NO":"３５號","E_COORD97":171697.04999999999,"N_COORD97":2536108.5699999998,"ADDRESS":"文賢二街３５號","OBJECTID":176857},"geometry":{"x":171697.05000000075,"y":2536108.5700000022}},{"attributes":{"ID":176859,"DIS_CODE":0,"TOWNNAME":"安南區","LI":"安順里","LIN":"5鄰","STREET":"安和路","SECT":"四段","MAREA":" ","LANE":"１３１巷","ALLEY":"３９弄","HOUSE_NO":"１２號","E_COORD97":169812.41,"N_COORD97":2550389.2999999998,"ADDRESS":"安和路四段１３１巷３９弄１２號","OBJECTID":176858},"geometry":{"x":169812.41000000015,"y":2550389.3000000007}},{"attributes":{"ID":176860,"DIS_CODE":0,"TOWNNAME":"仁德區","LI":"保安里","LIN":"10鄰","STREET":"中正路","SECT":"一段","MAREA":" ","LANE":" ","ALLEY":" ","HOUSE_NO":"２７５號","E_COORD97":171889.89000000001,"N_COORD97":2536038.27,"ADDRESS":"中正路一段２７５號","OBJECTID":176859},"geometry":{"x":171889.88999999966,"y":2536038.2700000014}},{"attributes":{"ID":176861,"DIS_CODE":0,"TOWNNAME":"安南區","LI":"安順里","LIN":"13鄰","STREET":"育安二街","SECT":" ","MAREA":" ","LANE":"１３５巷","ALLEY":"１２弄","HOUSE_NO":"１０號","E_COORD97":169637.10999999999,"N_COORD97":2550056.8300000001,"ADDRESS":"育安二街１３５巷１２弄１０號","OBJECTID":176860},"geometry":{"x":169637.11000000127,"y":2550056.8300000038}},{"attributes":{"ID":176862,"DIS_CODE":0,"TOWNNAME":"安南區","LI":"安順里","LIN":"13鄰","STREET":"育安二街","SECT":" ","MAREA":" ","LANE":"１３５巷","ALLEY":"１２弄","HOUSE_NO":"１１號","E_COORD97":169622.45999999999,"N_COORD97":2550062.4199999999,"ADDRESS":"育安二街１３５巷１２弄１１號","OBJECTID":176861},"geometry":{"x":169622.46000000089,"y":2550062.4199999999}},{"attributes":{"ID":176863,"DIS_CODE":0,"TOWNNAME":"仁德區","LI":"太子里","LIN":"10鄰","STREET":"長興路","SECT":" ","MAREA":" ","LANE":" ","ALLEY":" ","HOUSE_NO":"３８號","E_COORD97":174139.35000000001,"N_COORD97":2543664.5,"ADDRESS":"長興路３８號","OBJECTID":176862},"geometry":{"x":174139.35000000056,"y":2543664.5}},{"attributes":{"ID":176864,"DIS_CODE":0,"TOWNNAME":"安南區","LI":"安順里","LIN":"13鄰","STREET":"育安二街","SECT":" ","MAREA":" ","LANE":"１３５巷","ALLEY":"１２弄","HOUSE_NO":"１２號","E_COORD97":169636.16,"N_COORD97":2550061.2200000002,"ADDRESS":"育安二街１３５巷１２弄１２號","OBJECTID":176863},"geometry":{"x":169636.16000000015,"y":2550061.2200000007}},{"attributes":{"ID":176865,"DIS_CODE":0,"TOWNNAME":"仁德區","LI":"後壁里","LIN":"10鄰","STREET":"德安路","SECT":" ","MAREA":" ","LANE":" ","ALLEY":" ","HOUSE_NO":"１５１號","E_COORD97":173669.17000000001,"N_COORD97":2538810.3100000001,"ADDRESS":"德安路１５１號","OBJECTID":176864},"geometry":{"x":173669.17000000086,"y":2538810.3100000005}},{"attributes":{"ID":176866,"DIS_CODE":0,"TOWNNAME":"安南區","LI":"安順里","LIN":"7鄰","STREET":"總安街","SECT":"一段","MAREA":" ","LANE":"１１０巷","ALLEY":"２５弄","HOUSE_NO":"１０號","E_COORD97":169688.89999999999,"N_COORD97":2550253.8300000001,"ADDRESS":"總安街一段１１０巷２５弄１０號","OBJECTID":176865},"geometry":{"x":169688.90000000037,"y":2550253.8300000038}},{"attributes":{"ID":176867,"DIS_CODE":0,"TOWNNAME":"仁德區","LI":"太子里","LIN":"10鄰","STREET":"長興路","SECT":" ","MAREA":" ","LANE":" ","ALLEY":" ","HOUSE_NO":"６０號","E_COORD97":174152.89999999999,"N_COORD97":2543732.5099999998,"ADDRESS":"長興路６０號","OBJECTID":176866},"geometry":{"x":174152.9000000013,"y":2543732.5100000035}},{"attributes":{"ID":176868,"DIS_CODE":0,"TOWNNAME":"安南區","LI":"安順里","LIN":"7鄰","STREET":"總安街","SECT":"一段","MAREA":" ","LANE":"１１０巷","ALLEY":"２５弄","HOUSE_NO":"１２號","E_COORD97":169683.98000000001,"N_COORD97":2550254.3500000001,"ADDRESS":"總安街一段１１０巷２５弄１２號","OBJECTID":176867},"geometry":{"x":169683.98000000138,"y":2550254.3500000015}},{"attributes":{"ID":176869,"DIS_CODE":0,"TOWNNAME":"安南區","LI":"安順里","LIN":"13鄰","STREET":"育安二街","SECT":" ","MAREA":" ","LANE":"１３５巷","ALLEY":"１２弄","HOUSE_NO":"１號","E_COORD97":169622.69,"N_COORD97":2550039.4500000002,"ADDRESS":"育安二街１３５巷１２弄１號","OBJECTID":176868},"geometry":{"x":169622.69000000041,"y":2550039.4500000011}},{"attributes":{"ID":176870,"DIS_CODE":0,"TOWNNAME":"仁德區","LI":"保安里","LIN":"10鄰","STREET":"文賢二街","SECT":" ","MAREA":" ","LANE":" ","ALLEY":" ","HOUSE_NO":"２５號","E_COORD97":171659.45000000001,"N_COORD97":2536120.8199999998,"ADDRESS":"文賢二街２５號","OBJECTID":176869},"geometry":{"x":171659.45000000019,"y":2536120.8200000022}},{"attributes":{"ID":176871,"DIS_CODE":0,"TOWNNAME":"仁德區","LI":"保安里","LIN":"10鄰","STREET":"文賢二街","SECT":" ","MAREA":" ","LANE":" ","ALLEY":" ","HOUSE_NO":"３８號","E_COORD97":171716.64999999999,"N_COORD97":2536098.5699999998,"ADDRESS":"文賢二街３８號","OBJECTID":176870},"geometry":{"x":171716.65000000224,"y":2536098.5700000022}},{"attributes":{"ID":176872,"DIS_CODE":0,"TOWNNAME":"安南區","LI":"安順里","LIN":"13鄰","STREET":"育安二街","SECT":" ","MAREA":" ","LANE":"１３５巷","ALLEY":"１２弄","HOUSE_NO":"２號","E_COORD97":169637.48999999999,"N_COORD97":2550038.5,"ADDRESS":"育安二街１３５巷１２弄２號","OBJECTID":176871},"geometry":{"x":169637.48999999929,"y":2550038.5}},{"attributes":{"ID":176873,"DIS_CODE":0,"TOWNNAME":"安南區","LI":"安順里","LIN":"13鄰","STREET":"育安二街","SECT":" ","MAREA":" ","LANE":"１３５巷","ALLEY":"１２弄","HOUSE_NO":"４號","E_COORD97":169637.10999999999,"N_COORD97":2550043.8500000001,"ADDRESS":"育安二街１３５巷１２弄４號","OBJECTID":176872},"geometry":{"x":169637.11000000127,"y":2550043.8500000015}},{"attributes":{"ID":176874,"DIS_CODE":0,"TOWNNAME":"安南區","LI":"安順里","LIN":"14鄰","STREET":"總安街","SECT":"一段","MAREA":" ","LANE":"１４２巷","ALLEY":"１０弄","HOUSE_NO":"２號","E_COORD97":169636.89999999999,"N_COORD97":2550213.04,"ADDRESS":"總安街一段１４２巷１０弄２號","OBJECTID":176873},"geometry":{"x":169636.9000000013,"y":2550213.0399999991}},{"attributes":{"ID":176875,"DIS_CODE":0,"TOWNNAME":"安南區","LI":"安順里","LIN":"14鄰","STREET":"總安街","SECT":"一段","MAREA":" ","LANE":"１４２巷","ALLEY":"１０弄","HOUSE_NO":"３號","E_COORD97":169644.14000000001,"N_COORD97":2550236.5499999998,"ADDRESS":"總安街一段１４２巷１０弄３號","OBJECTID":176874},"geometry":{"x":169644.13999999966,"y":2550236.5500000026}},{"attributes":{"ID":176876,"DIS_CODE":0,"TOWNNAME":"安南區","LI":"安順里","LIN":"14鄰","STREET":"總安街","SECT":"一段","MAREA":" ","LANE":"１４２巷","ALLEY":"１０弄","HOUSE_NO":"４號","E_COORD97":169641.29000000001,"N_COORD97":2550211.7400000002,"ADDRESS":"總安街一段１４２巷１０弄４號","OBJECTID":176875},"geometry":{"x":169641.29000000004,"y":2550211.7400000021}},{"attributes":{"ID":176877,"DIS_CODE":0,"TOWNNAME":"安南區","LI":"安順里","LIN":"14鄰","STREET":"總安街","SECT":"一段","MAREA":" ","LANE":"１４２巷","ALLEY":"１０弄","HOUSE_NO":"５號","E_COORD97":169647.76000000001,"N_COORD97":2550235.77,"ADDRESS":"總安街一段１４２巷１０弄５號","OBJECTID":176876},"geometry":{"x":169647.76000000071,"y":2550235.7699999996}},{"attributes":{"ID":176878,"DIS_CODE":0,"TOWNNAME":"仁德區","LI":"保安里","LIN":"10鄰","STREET":"文賢二街","SECT":" ","MAREA":" ","LANE":" ","ALLEY":" ","HOUSE_NO":"２６號","E_COORD97":171645.79000000001,"N_COORD97":2536104.5699999998,"ADDRESS":"文賢二街２６號","OBJECTID":176877},"geometry":{"x":171645.7900000019,"y":2536104.5700000022}},{"attributes":{"ID":176879,"DIS_CODE":0,"TOWNNAME":"安南區","LI":"安順里","LIN":"14鄰","STREET":"總安街","SECT":"一段","MAREA":" ","LANE":"１４２巷","ALLEY":"１０弄","HOUSE_NO":"６號","E_COORD97":169645.42999999999,"N_COORD97":2550210.71,"ADDRESS":"總安街一段１４２巷１０弄６號","OBJECTID":176878},"geometry":{"x":169645.4299999997,"y":2550210.7100000009}},{"attributes":{"ID":176880,"DIS_CODE":0,"TOWNNAME":"安南區","LI":"安順里","LIN":"14鄰","STREET":"總安街","SECT":"一段","MAREA":" ","LANE":"１４２巷","ALLEY":"１０弄","HOUSE_NO":"７號","E_COORD97":169651.64000000001,"N_COORD97":2550234.48,"ADDRESS":"總安街一段１４２巷１０弄７號","OBJECTID":176879},"geometry":{"x":169651.6400000006,"y":2550234.4800000004}},{"attributes":{"ID":176881,"DIS_CODE":0,"TOWNNAME":"安南區","LI":"安順里","LIN":"14鄰","STREET":"總安街","SECT":"一段","MAREA":" ","LANE":"１４２巷","ALLEY":"１０弄","HOUSE_NO":"８號","E_COORD97":169649.06,"N_COORD97":2550209.6800000002,"ADDRESS":"總安街一段１４２巷１０弄８號","OBJECTID":176880},"geometry":{"x":169649.06000000052,"y":2550209.6799999997}},{"attributes":{"ID":176882,"DIS_CODE":0,"TOWNNAME":"安南區","LI":"安順里","LIN":"14鄰","STREET":"總安街","SECT":"一段","MAREA":" ","LANE":"１４２巷","ALLEY":"１０弄","HOUSE_NO":"９號","E_COORD97":169656.82000000001,"N_COORD97":2550233.96,"ADDRESS":"總安街一段１４２巷１０弄９號","OBJECTID":176881},"geometry":{"x":169656.8200000003,"y":2550233.9600000028}},{"attributes":{"ID":176883,"DIS_CODE":0,"TOWNNAME":"安南區","LI":"州南里","LIN":"29鄰","STREET":"安和路","SECT":"四段","MAREA":" ","LANE":"５３３巷","ALLEY":"６５弄","HOUSE_NO":"１０號","E_COORD97":169804.19,"N_COORD97":2551217.73,"ADDRESS":"安和路四段５３３巷６５弄１０號","OBJECTID":176882},"geometry":{"x":169804.19000000227,"y":2551217.7300000042}},{"attributes":{"ID":176884,"DIS_CODE":0,"TOWNNAME":"安南區","LI":"州南里","LIN":"29鄰","STREET":"安和路","SECT":"四段","MAREA":" ","LANE":"５３３巷","ALLEY":"６５弄","HOUSE_NO":"１２號","E_COORD97":169805.26999999999,"N_COORD97":2551213.9500000002,"ADDRESS":"安和路四段５３３巷６５弄１２號","OBJECTID":176883},"geometry":{"x":169805.27000000048,"y":2551213.9499999993}},{"attributes":{"ID":176885,"DIS_CODE":0,"TOWNNAME":"安南區","LI":"州南里","LIN":"29鄰","STREET":"安和路","SECT":"四段","MAREA":" ","LANE":"５３３巷","ALLEY":"６５弄","HOUSE_NO":"１６號","E_COORD97":169806.60000000001,"N_COORD97":2551206.1899999999,"ADDRESS":"安和路四段５３３巷６５弄１６號","OBJECTID":176884},"geometry":{"x":169806.59999999963,"y":2551206.1899999995}},{"attributes":{"ID":176886,"DIS_CODE":0,"TOWNNAME":"安南區","LI":"州南里","LIN":"29鄰","STREET":"安和路","SECT":"四段","MAREA":" ","LANE":"５３３巷","ALLEY":"６５弄","HOUSE_NO":"１８號","E_COORD97":169808.54999999999,"N_COORD97":2551201.2799999998,"ADDRESS":"安和路四段５３３巷６５弄１８號","OBJECTID":176885},"geometry":{"x":169808.55000000075,"y":2551201.2799999993}},{"attributes":{"ID":176887,"DIS_CODE":0,"TOWNNAME":"安南區","LI":"州南里","LIN":"29鄰","STREET":"安和路","SECT":"四段","MAREA":" ","LANE":"５３３巷","ALLEY":"６５弄","HOUSE_NO":"２０號","E_COORD97":169809.57000000001,"N_COORD97":2551197.1099999999,"ADDRESS":"安和路四段５３３巷６５弄２０號","OBJECTID":176886},"geometry":{"x":169809.5700000003,"y":2551197.1100000031}},{"attributes":{"ID":176888,"DIS_CODE":0,"TOWNNAME":"安南區","LI":"州南里","LIN":"29鄰","STREET":"安和路","SECT":"四段","MAREA":" ","LANE":"５３３巷","ALLEY":"６５弄","HOUSE_NO":"２２號","E_COORD97":169809.34,"N_COORD97":2551193.3900000001,"ADDRESS":"安和路四段５３３巷６５弄２２號","OBJECTID":176887},"geometry":{"x":169809.34000000171,"y":2551193.3900000025}},{"attributes":{"ID":176889,"DIS_CODE":0,"TOWNNAME":"安南區","LI":"州南里","LIN":"29鄰","STREET":"安和路","SECT":"四段","MAREA":" ","LANE":"５３３巷","ALLEY":"６５弄","HOUSE_NO":"２４號","E_COORD97":169810.16,"N_COORD97":2551189.29,"ADDRESS":"安和路四段５３３巷６５弄２４號","OBJECTID":176888},"geometry":{"x":169810.16000000015,"y":2551189.290000001}},{"attributes":{"ID":176890,"DIS_CODE":0,"TOWNNAME":"安南區","LI":"州南里","LIN":"29鄰","STREET":"安和路","SECT":"四段","MAREA":" ","LANE":"５３３巷","ALLEY":"６５弄","HOUSE_NO":"２６號","E_COORD97":169810.97,"N_COORD97":2551185.3999999999,"ADDRESS":"安和路四段５３３巷６５弄２６號","OBJECTID":176889},"geometry":{"x":169810.96999999974,"y":2551185.4000000004}},{"attributes":{"ID":176891,"DIS_CODE":0,"TOWNNAME":"安南區","LI":"州南里","LIN":"29鄰","STREET":"安和路","SECT":"四段","MAREA":" ","LANE":"５３３巷","ALLEY":"６５弄","HOUSE_NO":"２８號","E_COORD97":169811.48999999999,"N_COORD97":2551181.98,"ADDRESS":"安和路四段５３３巷６５弄２８號","OBJECTID":176890},"geometry":{"x":169811.49000000022,"y":2551181.9800000042}},{"attributes":{"ID":176892,"DIS_CODE":0,"TOWNNAME":"安南區","LI":"州南里","LIN":"29鄰","STREET":"安和路","SECT":"四段","MAREA":" ","LANE":"５３３巷","ALLEY":"６５弄","HOUSE_NO":"２號","E_COORD97":169801.57999999999,"N_COORD97":2551233.0499999998,"ADDRESS":"安和路四段５３３巷６５弄２號","OBJECTID":176891},"geometry":{"x":169801.58000000101,"y":2551233.0500000026}},{"attributes":{"ID":176893,"DIS_CODE":0,"TOWNNAME":"安南區","LI":"州北里","LIN":"32鄰","STREET":"北安路","SECT":"四段","MAREA":" ","LANE":"５４８巷","ALLEY":"１０弄","HOUSE_NO":"１１號","E_COORD97":169629.67000000001,"N_COORD97":2551883.0600000001,"ADDRESS":"北安路四段５４８巷１０弄１１號","OBJECTID":176892},"geometry":{"x":169629.67000000086,"y":2551883.0599999987}},{"attributes":{"ID":176894,"DIS_CODE":0,"TOWNNAME":"安南區","LI":"州北里","LIN":"32鄰","STREET":"北安路","SECT":"四段","MAREA":" ","LANE":"５４８巷","ALLEY":"１０弄","HOUSE_NO":"１５號","E_COORD97":169640.64000000001,"N_COORD97":2551887.8599999999,"ADDRESS":"北安路四段５４８巷１０弄１５號","OBJECTID":176893},"geometry":{"x":169640.63999999966,"y":2551887.8600000013}},{"attributes":{"ID":176895,"DIS_CODE":0,"TOWNNAME":"安南區","LI":"州北里","LIN":"32鄰","STREET":"北安路","SECT":"四段","MAREA":" ","LANE":"５４８巷","ALLEY":"１０弄","HOUSE_NO":"１號","E_COORD97":169601.01000000001,"N_COORD97":2551870.4300000002,"ADDRESS":"北安路四段５４８巷１０弄１號","OBJECTID":176894},"geometry":{"x":169601.00999999978,"y":2551870.4300000016}},{"attributes":{"ID":176896,"DIS_CODE":0,"TOWNNAME":"安南區","LI":"州北里","LIN":"32鄰","STREET":"北安路","SECT":"四段","MAREA":" ","LANE":"５４８巷","ALLEY":"１０弄","HOUSE_NO":"２５號","E_COORD97":169626.75,"N_COORD97":2551861.3199999998,"ADDRESS":"北安路四段５４８巷１０弄２５號","OBJECTID":176895},"geometry":{"x":169626.75,"y":2551861.3200000022}},{"attributes":{"ID":176897,"DIS_CODE":0,"TOWNNAME":"安南區","LI":"州北里","LIN":"32鄰","STREET":"北安路","SECT":"四段","MAREA":" ","LANE":"５４８巷","ALLEY":"１０弄","HOUSE_NO":"２７號","E_COORD97":169620.51999999999,"N_COORD97":2551858.0800000001,"ADDRESS":"北安路四段５４８巷１０弄２７號","OBJECTID":176896},"geometry":{"x":169620.52000000048,"y":2551858.0800000001}},{"attributes":{"ID":176898,"DIS_CODE":0,"TOWNNAME":"南區","LI":"白雪里","LIN":" ","STREET":"鹽埕路","SECT":" ","MAREA":" ","LANE":"１０３巷","ALLEY":"３８弄","HOUSE_NO":"３１號","E_COORD97":166675.64000000001,"N_COORD97":2540720.0899999999,"ADDRESS":"鹽埕路１０３巷３８弄３１號","OBJECTID":176897},"geometry":{"x":166675.63999999966,"y":2540720.0899999999}},{"attributes":{"ID":176899,"DIS_CODE":0,"TOWNNAME":"仁德區","LI":"保安里","LIN":"12鄰","STREET":"開發四路","SECT":" ","MAREA":" ","LANE":" ","ALLEY":" ","HOUSE_NO":"１９號","E_COORD97":172811.16075499999,"N_COORD97":2535877.8235599999,"ADDRESS":"開發四路１９號","OBJECTID":176898},"geometry":{"x":172811.16075500101,"y":2535877.823555002}},{"attributes":{"ID":176900,"DIS_CODE":0,"TOWNNAME":"將軍區","LI":"長榮里","LIN":"10鄰","STREET":" ","SECT":" ","MAREA":"長榮","LANE":" ","ALLEY":" ","HOUSE_NO":"８９之１號","E_COORD97":164003.72,"N_COORD97":2566208.9399999999,"ADDRESS":"長榮８９之１號","OBJECTID":176899},"geometry":{"x":164003.71999999974,"y":2566208.9400000013}},{"attributes":{"ID":176901,"DIS_CODE":0,"TOWNNAME":"將軍區","LI":"長榮里","LIN":"10鄰","STREET":" ","SECT":" ","MAREA":"長榮","LANE":" ","ALLEY":" ","HOUSE_NO":"８９之２８號","E_COORD97":163972.57000000001,"N_COORD97":2566187.4900000002,"ADDRESS":"長榮８９之２８號","OBJECTID":176900},"geometry":{"x":163972.57000000123,"y":2566187.4900000039}},{"attributes":{"ID":176902,"DIS_CODE":0,"TOWNNAME":"將軍區","LI":"長榮里","LIN":"10鄰","STREET":" ","SECT":" ","MAREA":"長榮","LANE":" ","ALLEY":" ","HOUSE_NO":"８９之２９號","E_COORD97":163976.97,"N_COORD97":2566186.8900000001,"ADDRESS":"長榮８９之２９號","OBJECTID":176901},"geometry":{"x":163976.9700000016,"y":2566186.8900000006}},{"attributes":{"ID":176903,"DIS_CODE":0,"TOWNNAME":"將軍區","LI":"長榮里","LIN":"10鄰","STREET":" ","SECT":" ","MAREA":"長榮","LANE":" ","ALLEY":" ","HOUSE_NO":"８９之２號","E_COORD97":163999.56,"N_COORD97":2566209.6200000001,"ADDRESS":"長榮８９之２號","OBJECTID":176902},"geometry":{"x":163999.55999999959,"y":2566209.620000001}},{"attributes":{"ID":176904,"DIS_CODE":0,"TOWNNAME":"安南區","LI":"州北里","LIN":"32鄰","STREET":"北安路","SECT":"四段","MAREA":" ","LANE":"５４８巷","ALLEY":"１０弄","HOUSE_NO":"２９號","E_COORD97":169614.82999999999,"N_COORD97":2551855.2400000002,"ADDRESS":"北安路四段５４８巷１０弄２９號","OBJECTID":176903},"geometry":{"x":169614.83000000194,"y":2551855.2400000021}},{"attributes":{"ID":176905,"DIS_CODE":0,"TOWNNAME":"安南區","LI":"州北里","LIN":"32鄰","STREET":"北安路","SECT":"四段","MAREA":" ","LANE":"５４８巷","ALLEY":"１０弄","HOUSE_NO":"３１號","E_COORD97":169609.28,"N_COORD97":2551852.9399999999,"ADDRESS":"北安路四段５４８巷１０弄３１號","OBJECTID":176904},"geometry":{"x":169609.28000000119,"y":2551852.9400000013}},{"attributes":{"ID":176906,"DIS_CODE":0,"TOWNNAME":"南區","LI":"佛壇里","LIN":"18鄰","STREET":"灣裡路","SECT":" ","MAREA":" ","LANE":" ","ALLEY":" ","HOUSE_NO":"６７０之１號","E_COORD97":166125.32000000001,"N_COORD97":2535518.6000000001,"ADDRESS":"灣裡路６７０之１號","OBJECTID":176905},"geometry":{"x":166125.32000000123,"y":2535518.5999999996}},{"attributes":{"ID":176907,"DIS_CODE":0,"TOWNNAME":"安南區","LI":"州北里","LIN":"32鄰","STREET":"北安路","SECT":"四段","MAREA":" ","LANE":"５４８巷","ALLEY":"１０弄","HOUSE_NO":"３號","E_COORD97":169606.84,"N_COORD97":2551873.1400000001,"ADDRESS":"北安路四段５４８巷１０弄３號","OBJECTID":176906},"geometry":{"x":169606.83999999985,"y":2551873.1400000025}},{"attributes":{"ID":176908,"DIS_CODE":0,"TOWNNAME":"將軍區","LI":"長榮里","LIN":"10鄰","STREET":" ","SECT":" ","MAREA":"長榮","LANE":" ","ALLEY":" ","HOUSE_NO":"８９之５５號","E_COORD97":163998.54999999999,"N_COORD97":2566143.23,"ADDRESS":"長榮８９之５５號","OBJECTID":176907},"geometry":{"x":163998.55000000168,"y":2566143.2300000023}},{"attributes":{"ID":176909,"DIS_CODE":0,"TOWNNAME":"將軍區","LI":"長榮里","LIN":"10鄰","STREET":" ","SECT":" ","MAREA":"長榮","LANE":" ","ALLEY":" ","HOUSE_NO":"８９之５６號","E_COORD97":164002.42999999999,"N_COORD97":2566147.2000000002,"ADDRESS":"長榮８９之５６號","OBJECTID":176908},"geometry":{"x":164002.4299999997,"y":2566147.1999999993}},{"attributes":{"ID":176910,"DIS_CODE":0,"TOWNNAME":"將軍區","LI":"長榮里","LIN":"10鄰","STREET":" ","SECT":" ","MAREA":"長榮","LANE":" ","ALLEY":" ","HOUSE_NO":"８９之５７號","E_COORD97":164002.28,"N_COORD97":2566141.54,"ADDRESS":"長榮８９之５７號","OBJECTID":176909},"geometry":{"x":164002.28000000026,"y":2566141.5399999991}},{"attributes":{"ID":176911,"DIS_CODE":0,"TOWNNAME":"將軍區","LI":"長榮里","LIN":"10鄰","STREET":" ","SECT":" ","MAREA":"長榮","LANE":" ","ALLEY":" ","HOUSE_NO":"８９之５號","E_COORD97":163987.07999999999,"N_COORD97":2566211.6699999999,"ADDRESS":"長榮８９之５號","OBJECTID":176910},"geometry":{"x":163987.08000000101,"y":2566211.6699999999}},{"attributes":{"ID":176912,"DIS_CODE":0,"TOWNNAME":"將軍區","LI":"長榮里","LIN":"10鄰","STREET":" ","SECT":" ","MAREA":"長榮","LANE":" ","ALLEY":" ","HOUSE_NO":"８９號","E_COORD97":164007.89000000001,"N_COORD97":2566208.4900000002,"ADDRESS":"長榮８９號","OBJECTID":176911},"geometry":{"x":164007.89000000153,"y":2566208.4900000021}},{"attributes":{"ID":176913,"DIS_CODE":0,"TOWNNAME":"將軍區","LI":"長榮里","LIN":"10鄰","STREET":" ","SECT":" ","MAREA":"長榮","LANE":" ","ALLEY":" ","HOUSE_NO":"９０之１號","E_COORD97":163931.57000000001,"N_COORD97":2566186.2200000002,"ADDRESS":"長榮９０之１號","OBJECTID":176912},"geometry":{"x":163931.57000000123,"y":2566186.2199999988}},{"attributes":{"ID":176914,"DIS_CODE":0,"TOWNNAME":"將軍區","LI":"長榮里","LIN":"10鄰","STREET":" ","SECT":" ","MAREA":"長榮","LANE":" ","ALLEY":" ","HOUSE_NO":"９０之２號","E_COORD97":163910.60000000001,"N_COORD97":2566189.8500000001,"ADDRESS":"長榮９０之２號","OBJECTID":176913},"geometry":{"x":163910.60000000056,"y":2566189.8499999996}},{"attributes":{"ID":176915,"DIS_CODE":0,"TOWNNAME":"將軍區","LI":"長榮里","LIN":"10鄰","STREET":" ","SECT":" ","MAREA":"長榮","LANE":" ","ALLEY":" ","HOUSE_NO":"９０號","E_COORD97":163974.70999999999,"N_COORD97":2566235.6699999999,"ADDRESS":"長榮９０號","OBJECTID":176914},"geometry":{"x":163974.71000000089,"y":2566235.6699999999}},{"attributes":{"ID":176916,"DIS_CODE":0,"TOWNNAME":"將軍區","LI":"長榮里","LIN":"10鄰","STREET":" ","SECT":" ","MAREA":"長榮","LANE":" ","ALLEY":" ","HOUSE_NO":"９１號","E_COORD97":163950.29999999999,"N_COORD97":2566220.4700000002,"ADDRESS":"長榮９１號","OBJECTID":176915},"geometry":{"x":163950.29999999981,"y":2566220.4700000007}},{"attributes":{"ID":176917,"DIS_CODE":0,"TOWNNAME":"南區","LI":"竹溪里","LIN":"1鄰","STREET":"竹溪街","SECT":" ","MAREA":" ","LANE":" ","ALLEY":" ","HOUSE_NO":"２６號","E_COORD97":168993.28,"N_COORD97":2542374.71,"ADDRESS":"竹溪街２６號","OBJECTID":176916},"geometry":{"x":168993.28000000212,"y":2542374.7100000009}},{"attributes":{"ID":176918,"DIS_CODE":0,"TOWNNAME":"安南區","LI":"州北里","LIN":"32鄰","STREET":"北安路","SECT":"四段","MAREA":" ","LANE":"５４８巷","ALLEY":"１０弄","HOUSE_NO":"５號","E_COORD97":169612.66,"N_COORD97":2551874.7599999998,"ADDRESS":"北安路四段５４８巷１０弄５號","OBJECTID":176917},"geometry":{"x":169612.66000000201,"y":2551874.7600000016}},{"attributes":{"ID":176919,"DIS_CODE":0,"TOWNNAME":"將軍區","LI":"長榮里","LIN":"10鄰","STREET":" ","SECT":" ","MAREA":"長榮","LANE":" ","ALLEY":" ","HOUSE_NO":"９２之２號","E_COORD97":163937.28,"N_COORD97":2566223.5299999998,"ADDRESS":"長榮９２之２號","OBJECTID":176918},"geometry":{"x":163937.28000000026,"y":2566223.5300000031}},{"attributes":{"ID":176920,"DIS_CODE":0,"TOWNNAME":"安南區","LI":"州北里","LIN":"32鄰","STREET":"北安路","SECT":"四段","MAREA":" ","LANE":"５４８巷","ALLEY":"１０弄","HOUSE_NO":"７號","E_COORD97":169618.35000000001,"N_COORD97":2551877.3300000001,"ADDRESS":"北安路四段５４８巷１０弄７號","OBJECTID":176919},"geometry":{"x":169618.35000000056,"y":2551877.3299999982}},{"attributes":{"ID":176921,"DIS_CODE":0,"TOWNNAME":"仁德區","LI":"仁義里","LIN":"10鄰","STREET":"仁義一街","SECT":" ","MAREA":" ","LANE":" ","ALLEY":" ","HOUSE_NO":"８６號","E_COORD97":173499.72,"N_COORD97":2541186.7599999998,"ADDRESS":"仁義一街８６號","OBJECTID":176920},"geometry":{"x":173499.71999999974,"y":2541186.7599999998}},{"attributes":{"ID":176922,"DIS_CODE":0,"TOWNNAME":"仁德區","LI":"仁義里","LIN":"10鄰","STREET":"仁義一街","SECT":" ","MAREA":" ","LANE":" ","ALLEY":" ","HOUSE_NO":"５７號","E_COORD97":173371.57999999999,"N_COORD97":2541216.7599999998,"ADDRESS":"仁義一街５７號","OBJECTID":176921},"geometry":{"x":173371.58000000101,"y":2541216.7599999998}},{"attributes":{"ID":176923,"DIS_CODE":0,"TOWNNAME":"安南區","LI":"州北里","LIN":"32鄰","STREET":"北安路","SECT":"四段","MAREA":" ","LANE":"５４８巷","ALLEY":"１０弄","HOUSE_NO":"９號","E_COORD97":169623.59,"N_COORD97":2551880.6499999999,"ADDRESS":"北安路四段５４８巷１０弄９號","OBJECTID":176922},"geometry":{"x":169623.59000000078,"y":2551880.6500000022}},{"attributes":{"ID":176924,"DIS_CODE":0,"TOWNNAME":"將軍區","LI":"鯤溟里","LIN":"10鄰","STREET":" ","SECT":" ","MAREA":"鯤溟","LANE":" ","ALLEY":" ","HOUSE_NO":"７８之１號","E_COORD97":156522.70999999999,"N_COORD97":2565421.9199999999,"ADDRESS":"鯤溟７８之１號","OBJECTID":176923},"geometry":{"x":156522.70999999996,"y":2565421.9200000018}},{"attributes":{"ID":176925,"DIS_CODE":0,"TOWNNAME":"將軍區","LI":"鯤溟里","LIN":"10鄰","STREET":" ","SECT":" ","MAREA":"鯤溟","LANE":" ","ALLEY":" ","HOUSE_NO":"７８之２號","E_COORD97":156518.01999999999,"N_COORD97":2565421.9100000001,"ADDRESS":"鯤溟７８之２號","OBJECTID":176924},"geometry":{"x":156518.02000000048,"y":2565421.9100000039}},{"attributes":{"ID":176926,"DIS_CODE":0,"TOWNNAME":"將軍區","LI":"鯤溟里","LIN":"10鄰","STREET":" ","SECT":" ","MAREA":"鯤溟","LANE":" ","ALLEY":" ","HOUSE_NO":"７８之４號","E_COORD97":156530.84,"N_COORD97":2565419.3100000001,"ADDRESS":"鯤溟７８之４號","OBJECTID":176925},"geometry":{"x":156530.83999999985,"y":2565419.3100000042}},{"attributes":{"ID":176927,"DIS_CODE":0,"TOWNNAME":"安南區","LI":"州北里","LIN":"27鄰","STREET":"安和路","SECT":"六段","MAREA":" ","LANE":"２０巷","ALLEY":"１２０弄","HOUSE_NO":"３０號之１","E_COORD97":169770.56,"N_COORD97":2552386.3300000001,"ADDRESS":"安和路六段２０巷１２０弄３０號之１","OBJECTID":176926},"geometry":{"x":169770.56000000052,"y":2552386.3300000038}},{"attributes":{"ID":176928,"DIS_CODE":0,"TOWNNAME":"安南區","LI":"總頭里","LIN":"12鄰","STREET":"長溪路","SECT":"二段","MAREA":" ","LANE":"５２３巷","ALLEY":"１５弄","HOUSE_NO":"６之１號","E_COORD97":168186.142792,"N_COORD97":2550486.1081699999,"ADDRESS":"長溪路二段５２３巷１５弄６之１號","OBJECTID":176927},"geometry":{"x":168186.14279200044,"y":2550486.1081649996}},{"attributes":{"ID":176929,"DIS_CODE":0,"TOWNNAME":"安南區","LI":"總頭里","LIN":"7鄰","STREET":"長溪路","SECT":"二段","MAREA":" ","LANE":"５７０巷","ALLEY":"８１弄","HOUSE_NO":"１３６號","E_COORD97":168705.29999999999,"N_COORD97":2550581.48,"ADDRESS":"長溪路二段５７０巷８１弄１３６號","OBJECTID":176928},"geometry":{"x":168705.29999999981,"y":2550581.4800000004}},{"attributes":{"ID":176930,"DIS_CODE":0,"TOWNNAME":"安南區","LI":"總頭里","LIN":"7鄰","STREET":"長溪路","SECT":"二段","MAREA":" ","LANE":"５７０巷","ALLEY":"８１弄","HOUSE_NO":"１３２號","E_COORD97":168672.48999999999,"N_COORD97":2550590.4700000002,"ADDRESS":"長溪路二段５７０巷８１弄１３２號","OBJECTID":176929},"geometry":{"x":168672.49000000022,"y":2550590.4700000025}},{"attributes":{"ID":176931,"DIS_CODE":0,"TOWNNAME":"龍崎區","LI":"楠坑里","LIN":"10鄰","STREET":" ","SECT":" ","MAREA":"草埔坪","LANE":" ","ALLEY":" ","HOUSE_NO":"１之２號","E_COORD97":184833.64000000001,"N_COORD97":2535282.2999999998,"ADDRESS":"草埔坪１之２號","OBJECTID":176930},"geometry":{"x":184833.6400000006,"y":2535282.3000000007}},{"attributes":{"ID":176932,"DIS_CODE":0,"TOWNNAME":"將軍區","LI":"平沙里","LIN":"11鄰","STREET":" ","SECT":" ","MAREA":"平沙","LANE":" ","ALLEY":" ","HOUSE_NO":"９５號","E_COORD97":157291.70000000001,"N_COORD97":2568485.3700000001,"ADDRESS":"平沙９５號","OBJECTID":176931},"geometry":{"x":157291.70000000205,"y":2568485.3700000029}},{"attributes":{"ID":176933,"DIS_CODE":0,"TOWNNAME":"安南區","LI":"總頭里","LIN":"7鄰","STREET":"長溪路","SECT":"二段","MAREA":" ","LANE":"５７０巷","ALLEY":"８１弄","HOUSE_NO":"１３５號","E_COORD97":168707.94,"N_COORD97":2550635.4500000002,"ADDRESS":"長溪路二段５７０巷８１弄１３５號","OBJECTID":176932},"geometry":{"x":168707.94000000134,"y":2550635.4500000011}},{"attributes":{"ID":176934,"DIS_CODE":0,"TOWNNAME":"安南區","LI":"淵東里","LIN":"1鄰","STREET":"海佃路","SECT":"四段","MAREA":" ","LANE":"１１８巷","ALLEY":"８弄","HOUSE_NO":"２號","E_COORD97":165697.94,"N_COORD97":2550731.9500000002,"ADDRESS":"海佃路四段１１８巷８弄２號","OBJECTID":176933},"geometry":{"x":165697.94000000041,"y":2550731.9499999993}},{"attributes":{"ID":176935,"DIS_CODE":0,"TOWNNAME":"新化區","LI":"唪口里","LIN":"10鄰","STREET":" ","SECT":" ","MAREA":"唪口","LANE":" ","ALLEY":" ","HOUSE_NO":"１５５號之１","E_COORD97":177584.07999999999,"N_COORD97":2548948.2599999998,"ADDRESS":"唪口１５５號之１","OBJECTID":176934},"geometry":{"x":177584.08000000101,"y":2548948.2599999979}},{"attributes":{"ID":176936,"DIS_CODE":0,"TOWNNAME":"安南區","LI":"淵東里","LIN":"1鄰","STREET":"海佃路","SECT":"四段","MAREA":" ","LANE":"１１８巷","ALLEY":"８弄","HOUSE_NO":"６號","E_COORD97":165701.75,"N_COORD97":2550733.2200000002,"ADDRESS":"海佃路四段１１８巷８弄６號","OBJECTID":176935},"geometry":{"x":165701.75000000093,"y":2550733.2200000044}},{"attributes":{"ID":176937,"DIS_CODE":0,"TOWNNAME":"新化區","LI":"崙頂里","LIN":"10鄰","STREET":" ","SECT":" ","MAREA":"崙子頂","LANE":" ","ALLEY":" ","HOUSE_NO":"３７６號之２","E_COORD97":176849.98000000001,"N_COORD97":2546858.2599999998,"ADDRESS":"崙子頂３７６號之２","OBJECTID":176936},"geometry":{"x":176849.98000000138,"y":2546858.2600000016}},{"attributes":{"ID":176938,"DIS_CODE":0,"TOWNNAME":"安定區","LI":"管寮里","LIN":"10鄰","STREET":" ","SECT":" ","MAREA":"管寮","LANE":" ","ALLEY":" ","HOUSE_NO":"８９號之１","E_COORD97":169852.17999999999,"N_COORD97":2556334.2999999998,"ADDRESS":"管寮８９號之１","OBJECTID":176937},"geometry":{"x":169852.1799999997,"y":2556334.3000000026}},{"attributes":{"ID":176939,"DIS_CODE":0,"TOWNNAME":"安定區","LI":"蘇林里","LIN":"10鄰","STREET":" ","SECT":" ","MAREA":"蘇厝","LANE":" ","ALLEY":" ","HOUSE_NO":"１１１之１號","E_COORD97":173733.32000000001,"N_COORD97":2558851.2999999998,"ADDRESS":"蘇厝１１１之１號","OBJECTID":176938},"geometry":{"x":173733.32000000123,"y":2558851.3000000007}},{"attributes":{"ID":176940,"DIS_CODE":0,"TOWNNAME":"安定區","LI":"安加里","LIN":"10鄰","STREET":" ","SECT":" ","MAREA":"安定","LANE":" ","ALLEY":" ","HOUSE_NO":"２６４之５號","E_COORD97":171663.32000000001,"N_COORD97":2557346.3199999998,"ADDRESS":"安定２６４之５號","OBJECTID":176939},"geometry":{"x":171663.32000000123,"y":2557346.3199999984}},{"attributes":{"ID":176941,"DIS_CODE":0,"TOWNNAME":"安定區","LI":"蘇厝里","LIN":"10鄰","STREET":" ","SECT":" ","MAREA":"蘇厝","LANE":" ","ALLEY":" ","HOUSE_NO":"３７３號之４","E_COORD97":173158.88,"N_COORD97":2558952.2999999998,"ADDRESS":"蘇厝３７３號之４","OBJECTID":176940},"geometry":{"x":173158.88000000175,"y":2558952.3000000026}},{"attributes":{"ID":176942,"DIS_CODE":0,"TOWNNAME":"佳里區","LI":"三協里","LIN":"10鄰","STREET":" ","SECT":" ","MAREA":"後庄","LANE":" ","ALLEY":" ","HOUSE_NO":"２２號","E_COORD97":168506.73000000001,"N_COORD97":2564720.1499999999,"ADDRESS":"後庄２２號","OBJECTID":176941},"geometry":{"x":168506.73000000045,"y":2564720.1500000022}},{"attributes":{"ID":176943,"DIS_CODE":0,"TOWNNAME":"安南區","LI":"淵東里","LIN":"1鄰","STREET":"海佃路","SECT":"四段","MAREA":" ","LANE":"１１８巷","ALLEY":"８弄","HOUSE_NO":"３０號","E_COORD97":165736.62,"N_COORD97":2550687.6000000001,"ADDRESS":"海佃路四段１１８巷８弄３０號","OBJECTID":176942},"geometry":{"x":165736.62000000104,"y":2550687.5999999996}},{"attributes":{"ID":176944,"DIS_CODE":0,"TOWNNAME":"安南區","LI":"淵東里","LIN":"1鄰","STREET":"海佃路","SECT":"四段","MAREA":" ","LANE":"１１８巷","ALLEY":"１０弄","HOUSE_NO":"６號","E_COORD97":165793.51000000001,"N_COORD97":2550751.6299999999,"ADDRESS":"海佃路四段１１８巷１０弄６號","OBJECTID":176943},"geometry":{"x":165793.50999999978,"y":2550751.629999999}},{"attributes":{"ID":176945,"DIS_CODE":0,"TOWNNAME":"安南區","LI":"淵東里","LIN":"1鄰","STREET":"海佃路","SECT":"四段","MAREA":" ","LANE":"１１８巷","ALLEY":"１０弄","HOUSE_NO":"８號","E_COORD97":165796.60000000001,"N_COORD97":2550749.1899999999,"ADDRESS":"海佃路四段１１８巷１０弄８號","OBJECTID":176944},"geometry":{"x":165796.60000000149,"y":2550749.1900000032}},{"attributes":{"ID":176946,"DIS_CODE":0,"TOWNNAME":"佳里區","LI":"安西里","LIN":"24鄰","STREET":"忠孝路","SECT":" ","MAREA":" ","LANE":" ","ALLEY":" ","HOUSE_NO":"２１２號","E_COORD97":165092.29999999999,"N_COORD97":2563295.6699999999,"ADDRESS":"忠孝路２１２號","OBJECTID":176945},"geometry":{"x":165092.30000000075,"y":2563295.6699999999}},{"attributes":{"ID":176947,"DIS_CODE":0,"TOWNNAME":"安南區","LI":"淵東里","LIN":"1鄰","STREET":"海佃路","SECT":"四段","MAREA":" ","LANE":"１１８巷","ALLEY":"１０弄","HOUSE_NO":"１０號","E_COORD97":165798.82000000001,"N_COORD97":2550746.4100000001,"ADDRESS":"海佃路四段１１８巷１０弄１０號","OBJECTID":176946},"geometry":{"x":165798.8200000003,"y":2550746.410000002}},{"attributes":{"ID":176948,"DIS_CODE":0,"TOWNNAME":"安南區","LI":"東和里","LIN":"4鄰","STREET":"長和路","SECT":"一段","MAREA":" ","LANE":"８４５巷","ALLEY":"５６弄","HOUSE_NO":"６號","E_COORD97":170762.47,"N_COORD97":2551243.8700000001,"ADDRESS":"長和路一段８４５巷５６弄６號","OBJECTID":176947},"geometry":{"x":170762.46999999974,"y":2551243.870000001}},{"attributes":{"ID":176949,"DIS_CODE":0,"TOWNNAME":"安南區","LI":"淵中里","LIN":"14鄰","STREET":"安中路","SECT":"四段","MAREA":" ","LANE":"１５４巷","ALLEY":"５８弄","HOUSE_NO":"６號","E_COORD97":165068.95000000001,"N_COORD97":2550117.3100000001,"ADDRESS":"安中路四段１５４巷５８弄６號","OBJECTID":176948},"geometry":{"x":165068.95000000019,"y":2550117.3100000005}},{"attributes":{"ID":176950,"DIS_CODE":0,"TOWNNAME":"安南區","LI":"長安里","LIN":"13鄰","STREET":"公學路","SECT":"二段","MAREA":" ","LANE":"１２５巷","ALLEY":"４１弄","HOUSE_NO":"１３號","E_COORD97":167776.56,"N_COORD97":2552215.46,"ADDRESS":"公學路二段１２５巷４１弄１３號","OBJECTID":176949},"geometry":{"x":167776.55999999959,"y":2552215.4600000009}},{"attributes":{"ID":176951,"DIS_CODE":0,"TOWNNAME":"安南區","LI":" ","LIN":" ","STREET":"本原街","SECT":"二段","MAREA":" ","LANE":"１０６巷","ALLEY":"３６弄","HOUSE_NO":"１６號","E_COORD97":166880.60999999999,"N_COORD97":2550834.9700000002,"ADDRESS":"本原街二段１０６巷３６弄１６號","OBJECTID":176950},"geometry":{"x":166880.6100000022,"y":2550834.9700000007}},{"attributes":{"ID":176952,"DIS_CODE":0,"TOWNNAME":"南區","LI":"白雪里","LIN":" ","STREET":"鹽埕路","SECT":" ","MAREA":" ","LANE":"１０３巷","ALLEY":"３８弄","HOUSE_NO":"１５號","E_COORD97":166692.60999999999,"N_COORD97":2540736.96,"ADDRESS":"鹽埕路１０３巷３８弄１５號","OBJECTID":176951},"geometry":{"x":166692.61000000127,"y":2540736.9600000046}},{"attributes":{"ID":176953,"DIS_CODE":0,"TOWNNAME":"南區","LI":"白雪里","LIN":" ","STREET":"鹽埕路","SECT":" ","MAREA":" ","LANE":"１０３巷","ALLEY":"３８弄","HOUSE_NO":"１７號","E_COORD97":166689.97,"N_COORD97":2540736.1699999999,"ADDRESS":"鹽埕路１０３巷３８弄１７號","OBJECTID":176952},"geometry":{"x":166689.97000000067,"y":2540736.1699999999}},{"attributes":{"ID":176954,"DIS_CODE":0,"TOWNNAME":"南區","LI":"白雪里","LIN":" ","STREET":"鹽埕路","SECT":" ","MAREA":" ","LANE":"１０３巷","ALLEY":"３８弄","HOUSE_NO":"１９號","E_COORD97":166675.09,"N_COORD97":2540744.0600000001,"ADDRESS":"鹽埕路１０３巷３８弄１９號","OBJECTID":176953},"geometry":{"x":166675.09000000171,"y":2540744.0600000024}},{"attributes":{"ID":176955,"DIS_CODE":0,"TOWNNAME":"南區","LI":"白雪里","LIN":" ","STREET":"鹽埕路","SECT":" ","MAREA":" ","LANE":"１０３巷","ALLEY":"３８弄","HOUSE_NO":"２１號","E_COORD97":166676.35999999999,"N_COORD97":2540738.6499999999,"ADDRESS":"鹽埕路１０３巷３８弄２１號","OBJECTID":176954},"geometry":{"x":166676.36000000034,"y":2540738.6500000022}},{"attributes":{"ID":176956,"DIS_CODE":0,"TOWNNAME":"南區","LI":"白雪里","LIN":" ","STREET":"鹽埕路","SECT":" ","MAREA":" ","LANE":"１０３巷","ALLEY":"３８弄","HOUSE_NO":"２３號","E_COORD97":166676,"N_COORD97":2540733.79,"ADDRESS":"鹽埕路１０３巷３８弄２３號","OBJECTID":176955},"geometry":{"x":166676.00000000093,"y":2540733.790000001}},{"attributes":{"ID":176957,"DIS_CODE":0,"TOWNNAME":"關廟區","LI":"香洋里","LIN":"20鄰","STREET":"中央路","SECT":" ","MAREA":" ","LANE":"５１巷","ALLEY":"１０弄","HOUSE_NO":"５號","E_COORD97":181512.20860400001,"N_COORD97":2539914.04959,"ADDRESS":"中央路５１巷１０弄５號","OBJECTID":176956},"geometry":{"x":181512.20860400051,"y":2539914.049589999}},{"attributes":{"ID":176958,"DIS_CODE":0,"TOWNNAME":"南區","LI":"白雪里","LIN":" ","STREET":"鹽埕路","SECT":" ","MAREA":" ","LANE":"１０３巷","ALLEY":"３８弄","HOUSE_NO":"２５號","E_COORD97":166675.82000000001,"N_COORD97":2540729.8199999998,"ADDRESS":"鹽埕路１０３巷３８弄２５號","OBJECTID":176957},"geometry":{"x":166675.82000000123,"y":2540729.8200000003}},{"attributes":{"ID":176959,"DIS_CODE":0,"TOWNNAME":"南區","LI":"白雪里","LIN":" ","STREET":"鹽埕路","SECT":" ","MAREA":" ","LANE":"１０３巷","ALLEY":"３８弄","HOUSE_NO":"２７號","E_COORD97":166676.17999999999,"N_COORD97":2540726.3999999999,"ADDRESS":"鹽埕路１０３巷３８弄２７號","OBJECTID":176958},"geometry":{"x":166676.18000000063,"y":2540726.4000000041}},{"attributes":{"ID":176960,"DIS_CODE":0,"TOWNNAME":"南區","LI":"白雪里","LIN":" ","STREET":"鹽埕路","SECT":" ","MAREA":" ","LANE":"１０３巷","ALLEY":"３８弄","HOUSE_NO":"２９號","E_COORD97":166676.17999999999,"N_COORD97":2540723.6899999999,"ADDRESS":"鹽埕路１０３巷３８弄２９號","OBJECTID":176959},"geometry":{"x":166676.18000000063,"y":2540723.6900000032}},{"attributes":{"ID":176961,"DIS_CODE":0,"TOWNNAME":"南區","LI":"白雪里","LIN":" ","STREET":"鹽埕路","SECT":" ","MAREA":" ","LANE":"１０３巷","ALLEY":"３８弄","HOUSE_NO":"３３號","E_COORD97":166675.45999999999,"N_COORD97":2540716.8500000001,"ADDRESS":"鹽埕路１０３巷３８弄３３號","OBJECTID":176960},"geometry":{"x":166675.45999999996,"y":2540716.8500000015}},{"attributes":{"ID":176962,"DIS_CODE":0,"TOWNNAME":"南區","LI":"白雪里","LIN":" ","STREET":"鹽埕路","SECT":" ","MAREA":" ","LANE":"１０３巷","ALLEY":"３８弄","HOUSE_NO":"３５號","E_COORD97":166674.73000000001,"N_COORD97":2540713.4199999999,"ADDRESS":"鹽埕路１０３巷３８弄３５號","OBJECTID":176961},"geometry":{"x":166674.73000000231,"y":2540713.4200000018}},{"attributes":{"ID":176963,"DIS_CODE":0,"TOWNNAME":"南區","LI":"白雪里","LIN":" ","STREET":"鹽埕路","SECT":" ","MAREA":" ","LANE":"１０３巷","ALLEY":"５８弄","HOUSE_NO":"２號","E_COORD97":166720.82000000001,"N_COORD97":2540713.9900000002,"ADDRESS":"鹽埕路１０３巷５８弄２號","OBJECTID":176962},"geometry":{"x":166720.8200000003,"y":2540713.9900000002}},{"attributes":{"ID":176964,"DIS_CODE":0,"TOWNNAME":"學甲區","LI":"大灣里","LIN":"10鄰","STREET":" ","SECT":" ","MAREA":"大灣","LANE":" ","ALLEY":" ","HOUSE_NO":"９３號","E_COORD97":166852.47,"N_COORD97":2567664.4500000002,"ADDRESS":"大灣９３號","OBJECTID":176963},"geometry":{"x":166852.47000000067,"y":2567664.4499999993}},{"attributes":{"ID":176965,"DIS_CODE":0,"TOWNNAME":"學甲區","LI":"大灣里","LIN":"10鄰","STREET":" ","SECT":" ","MAREA":"大灣","LANE":" ","ALLEY":" ","HOUSE_NO":"９４號","E_COORD97":166848.35999999999,"N_COORD97":2567678.6400000001,"ADDRESS":"大灣９４號","OBJECTID":176964},"geometry":{"x":166848.3600000022,"y":2567678.6400000043}},{"attributes":{"ID":176966,"DIS_CODE":0,"TOWNNAME":"學甲區","LI":"大灣里","LIN":"10鄰","STREET":" ","SECT":" ","MAREA":"大灣","LANE":" ","ALLEY":" ","HOUSE_NO":"９５號","E_COORD97":166843.92999999999,"N_COORD97":2567695.9900000002,"ADDRESS":"大灣９５號","OBJECTID":176965},"geometry":{"x":166843.93000000063,"y":2567695.9899999984}},{"attributes":{"ID":176967,"DIS_CODE":0,"TOWNNAME":"學甲區","LI":"大灣里","LIN":"10鄰","STREET":" ","SECT":" ","MAREA":"大灣","LANE":" ","ALLEY":" ","HOUSE_NO":"９６號之１","E_COORD97":166834.26000000001,"N_COORD97":2567744.4399999999,"ADDRESS":"大灣９６號之１","OBJECTID":176966},"geometry":{"x":166834.25999999978,"y":2567744.4400000013}},{"attributes":{"ID":176968,"DIS_CODE":0,"TOWNNAME":"學甲區","LI":"大灣里","LIN":"10鄰","STREET":" ","SECT":" ","MAREA":"大灣","LANE":" ","ALLEY":" ","HOUSE_NO":"９６號之２","E_COORD97":166828.42000000001,"N_COORD97":2567760.2200000002,"ADDRESS":"大灣９６號之２","OBJECTID":176967},"geometry":{"x":166828.41999999993,"y":2567760.2200000025}},{"attributes":{"ID":176969,"DIS_CODE":0,"TOWNNAME":"學甲區","LI":"大灣里","LIN":"10鄰","STREET":" ","SECT":" ","MAREA":"大灣","LANE":" ","ALLEY":" ","HOUSE_NO":"９６號","E_COORD97":166835.23999999999,"N_COORD97":2567762.0899999999,"ADDRESS":"大灣９６號","OBJECTID":176968},"geometry":{"x":166835.24000000022,"y":2567762.0899999999}},{"attributes":{"ID":176970,"DIS_CODE":0,"TOWNNAME":"學甲區","LI":"大灣里","LIN":"10鄰","STREET":" ","SECT":" ","MAREA":"大灣","LANE":" ","ALLEY":" ","HOUSE_NO":"９７號","E_COORD97":166850.76999999999,"N_COORD97":2567730.4900000002,"ADDRESS":"大灣９７號","OBJECTID":176969},"geometry":{"x":166850.76999999955,"y":2567730.4900000021}},{"attributes":{"ID":176971,"DIS_CODE":0,"TOWNNAME":"學甲區","LI":"大灣里","LIN":"10鄰","STREET":" ","SECT":" ","MAREA":"大灣","LANE":" ","ALLEY":" ","HOUSE_NO":"９８號","E_COORD97":166865.28,"N_COORD97":2567738.8199999998,"ADDRESS":"大灣９８號","OBJECTID":176970},"geometry":{"x":166865.28000000026,"y":2567738.8200000022}},{"attributes":{"ID":176972,"DIS_CODE":0,"TOWNNAME":"學甲區","LI":"中洲里","LIN":"10鄰","STREET":" ","SECT":" ","MAREA":"中洲","LANE":" ","ALLEY":" ","HOUSE_NO":"１０１號","E_COORD97":163786.45000000001,"N_COORD97":2571586.7599999998,"ADDRESS":"中洲１０１號","OBJECTID":176971},"geometry":{"x":163786.45000000112,"y":2571586.7600000016}},{"attributes":{"ID":176973,"DIS_CODE":0,"TOWNNAME":"學甲區","LI":"中洲里","LIN":"10鄰","STREET":" ","SECT":" ","MAREA":"中洲","LANE":" ","ALLEY":" ","HOUSE_NO":"１０２號","E_COORD97":163789.01999999999,"N_COORD97":2571562.46,"ADDRESS":"中洲１０２號","OBJECTID":176972},"geometry":{"x":163789.02000000048,"y":2571562.4600000028}},{"attributes":{"ID":176974,"DIS_CODE":0,"TOWNNAME":"學甲區","LI":"中洲里","LIN":"10鄰","STREET":" ","SECT":" ","MAREA":"中洲","LANE":" ","ALLEY":" ","HOUSE_NO":"１０３號之１","E_COORD97":163797.92999999999,"N_COORD97":2571538.8799999999,"ADDRESS":"中洲１０３號之１","OBJECTID":176973},"geometry":{"x":163797.93000000063,"y":2571538.879999999}},{"attributes":{"ID":176975,"DIS_CODE":0,"TOWNNAME":"學甲區","LI":"中洲里","LIN":"10鄰","STREET":" ","SECT":" ","MAREA":"中洲","LANE":" ","ALLEY":" ","HOUSE_NO":"１０３號之２","E_COORD97":163797.76999999999,"N_COORD97":2571534.52,"ADDRESS":"中洲１０３號之２","OBJECTID":176974},"geometry":{"x":163797.76999999955,"y":2571534.5200000014}},{"attributes":{"ID":176976,"DIS_CODE":0,"TOWNNAME":"學甲區","LI":"中洲里","LIN":"10鄰","STREET":" ","SECT":" ","MAREA":"中洲","LANE":" ","ALLEY":" ","HOUSE_NO":"１０３號","E_COORD97":163797.67000000001,"N_COORD97":2571543.77,"ADDRESS":"中洲１０３號","OBJECTID":176975},"geometry":{"x":163797.66999999899,"y":2571543.7699999996}},{"attributes":{"ID":176977,"DIS_CODE":0,"TOWNNAME":"學甲區","LI":"中洲里","LIN":"10鄰","STREET":" ","SECT":" ","MAREA":"中洲","LANE":" ","ALLEY":" ","HOUSE_NO":"１０４號","E_COORD97":163805.26000000001,"N_COORD97":2571496.04,"ADDRESS":"中洲１０４號","OBJECTID":176976},"geometry":{"x":163805.25999999978,"y":2571496.040000001}},{"attributes":{"ID":176978,"DIS_CODE":0,"TOWNNAME":"學甲區","LI":"中洲里","LIN":"10鄰","STREET":" ","SECT":" ","MAREA":"中洲","LANE":" ","ALLEY":" ","HOUSE_NO":"１０６號","E_COORD97":163817.82000000001,"N_COORD97":2571521.27,"ADDRESS":"中洲１０６號","OBJECTID":176977},"geometry":{"x":163817.82000000123,"y":2571521.2700000033}},{"attributes":{"ID":176979,"DIS_CODE":0,"TOWNNAME":"學甲區","LI":"中洲里","LIN":"10鄰","STREET":" ","SECT":" ","MAREA":"中洲","LANE":" ","ALLEY":" ","HOUSE_NO":"１０７號之１","E_COORD97":163784.35999999999,"N_COORD97":2571523.9900000002,"ADDRESS":"中洲１０７號之１","OBJECTID":176978},"geometry":{"x":163784.36000000034,"y":2571523.9900000039}},{"attributes":{"ID":176980,"DIS_CODE":0,"TOWNNAME":"學甲區","LI":"中洲里","LIN":"10鄰","STREET":" ","SECT":" ","MAREA":"中洲","LANE":" ","ALLEY":" ","HOUSE_NO":"１０７號之２","E_COORD97":163758.54000000001,"N_COORD97":2571526.48,"ADDRESS":"中洲１０７號之２","OBJECTID":176979},"geometry":{"x":163758.54000000097,"y":2571526.4800000004}},{"attributes":{"ID":176981,"DIS_CODE":0,"TOWNNAME":"學甲區","LI":"中洲里","LIN":"10鄰","STREET":" ","SECT":" ","MAREA":"中洲","LANE":" ","ALLEY":" ","HOUSE_NO":"１０７號之３","E_COORD97":163756.88,"N_COORD97":2571519.71,"ADDRESS":"中洲１０７號之３","OBJECTID":176980},"geometry":{"x":163756.87999999989,"y":2571519.7100000046}},{"attributes":{"ID":176982,"DIS_CODE":0,"TOWNNAME":"學甲區","LI":"中洲里","LIN":"10鄰","STREET":" ","SECT":" ","MAREA":"中洲","LANE":" ","ALLEY":" ","HOUSE_NO":"１０７號","E_COORD97":163802.04000000001,"N_COORD97":2571518.4399999999,"ADDRESS":"中洲１０７號","OBJECTID":176981},"geometry":{"x":163802.04000000004,"y":2571518.4399999995}},{"attributes":{"ID":176983,"DIS_CODE":0,"TOWNNAME":"學甲區","LI":"中洲里","LIN":"10鄰","STREET":" ","SECT":" ","MAREA":"中洲","LANE":" ","ALLEY":" ","HOUSE_NO":"１０８號之６","E_COORD97":163767.10000000001,"N_COORD97":2571551.3599999999,"ADDRESS":"中洲１０８號之６","OBJECTID":176982},"geometry":{"x":163767.09999999963,"y":2571551.3600000013}},{"attributes":{"ID":176984,"DIS_CODE":0,"TOWNNAME":"學甲區","LI":"光華里","LIN":"10鄰","STREET":" ","SECT":" ","MAREA":"中洲","LANE":" ","ALLEY":" ","HOUSE_NO":"５６６號","E_COORD97":163999.31,"N_COORD97":2571575.6800000002,"ADDRESS":"中洲５６６號","OBJECTID":176983},"geometry":{"x":163999.30999999959,"y":2571575.6799999997}},{"attributes":{"ID":176985,"DIS_CODE":0,"TOWNNAME":"學甲區","LI":"光華里","LIN":"10鄰","STREET":" ","SECT":" ","MAREA":"中洲","LANE":" ","ALLEY":" ","HOUSE_NO":"５６８號","E_COORD97":163994.34,"N_COORD97":2571577.1000000001,"ADDRESS":"中洲５６８號","OBJECTID":176984},"geometry":{"x":163994.33999999985,"y":2571577.1000000015}},{"attributes":{"ID":176986,"DIS_CODE":0,"TOWNNAME":"學甲區","LI":"光華里","LIN":"10鄰","STREET":" ","SECT":" ","MAREA":"中洲","LANE":" ","ALLEY":" ","HOUSE_NO":"５７０號","E_COORD97":164009.04999999999,"N_COORD97":2571573.2599999998,"ADDRESS":"中洲５７０號","OBJECTID":176985},"geometry":{"x":164009.05000000075,"y":2571573.2600000016}},{"attributes":{"ID":176987,"DIS_CODE":0,"TOWNNAME":"學甲區","LI":"光華里","LIN":"10鄰","STREET":" ","SECT":" ","MAREA":"中洲","LANE":" ","ALLEY":" ","HOUSE_NO":"５７１號","E_COORD97":164005.39999999999,"N_COORD97":2571574.3100000001,"ADDRESS":"中洲５７１號","OBJECTID":176986},"geometry":{"x":164005.4000000013,"y":2571574.3100000024}},{"attributes":{"ID":176988,"DIS_CODE":0,"TOWNNAME":"南區","LI":"白雪里","LIN":" ","STREET":"鹽埕路","SECT":" ","MAREA":" ","LANE":"１０３巷","ALLEY":"５８弄","HOUSE_NO":"４號","E_COORD97":166716.85999999999,"N_COORD97":2540713.2000000002,"ADDRESS":"鹽埕路１０３巷５８弄４號","OBJECTID":176987},"geometry":{"x":166716.86000000127,"y":2540713.200000003}},{"attributes":{"ID":176989,"DIS_CODE":0,"TOWNNAME":"南區","LI":"白雪里","LIN":" ","STREET":"鹽埕路","SECT":" ","MAREA":" ","LANE":"１０３巷","ALLEY":"５８弄","HOUSE_NO":"６號","E_COORD97":166713.70000000001,"N_COORD97":2540713.2000000002,"ADDRESS":"鹽埕路１０３巷５８弄６號","OBJECTID":176988},"geometry":{"x":166713.70000000205,"y":2540713.200000003}},{"attributes":{"ID":176990,"DIS_CODE":0,"TOWNNAME":"南區","LI":"白雪里","LIN":" ","STREET":"鹽埕路","SECT":" ","MAREA":" ","LANE":"１０３巷","ALLEY":"５８弄","HOUSE_NO":"８號","E_COORD97":166710.28,"N_COORD97":2540713.2000000002,"ADDRESS":"鹽埕路１０３巷５８弄８號","OBJECTID":176989},"geometry":{"x":166710.28000000119,"y":2540713.200000003}},{"attributes":{"ID":176991,"DIS_CODE":0,"TOWNNAME":"南區","LI":"白雪里","LIN":" ","STREET":"鹽埕路","SECT":" ","MAREA":" ","LANE":"１０３巷","ALLEY":"５８弄","HOUSE_NO":"１０號","E_COORD97":166705.26999999999,"N_COORD97":2540713.9900000002,"ADDRESS":"鹽埕路１０３巷５８弄１０號","OBJECTID":176990},"geometry":{"x":166705.26999999955,"y":2540713.9900000002}},{"attributes":{"ID":176992,"DIS_CODE":0,"TOWNNAME":"南區","LI":"白雪里","LIN":" ","STREET":"鹽埕路","SECT":" ","MAREA":" ","LANE":"１０３巷","ALLEY":"５８弄","HOUSE_NO":"１２號","E_COORD97":166702.10999999999,"N_COORD97":2540713.73,"ADDRESS":"鹽埕路１０３巷５８弄１２號","OBJECTID":176991},"geometry":{"x":166702.11000000034,"y":2540713.7300000004}},{"attributes":{"ID":176993,"DIS_CODE":0,"TOWNNAME":"南區","LI":"白雪里","LIN":" ","STREET":"鹽埕路","SECT":" ","MAREA":" ","LANE":"１０３巷","ALLEY":"５８弄","HOUSE_NO":"１４號","E_COORD97":166697.63,"N_COORD97":2540713.2000000002,"ADDRESS":"鹽埕路１０３巷５８弄１４號","OBJECTID":176992},"geometry":{"x":166697.63000000082,"y":2540713.200000003}},{"attributes":{"ID":176994,"DIS_CODE":0,"TOWNNAME":"南區","LI":"白雪里","LIN":" ","STREET":"鹽埕路","SECT":" ","MAREA":" ","LANE":"１０３巷","ALLEY":"５８弄","HOUSE_NO":"１６號","E_COORD97":166693.14999999999,"N_COORD97":2540714.52,"ADDRESS":"鹽埕路１０３巷５８弄１６號","OBJECTID":176993},"geometry":{"x":166693.15000000037,"y":2540714.5200000033}},{"attributes":{"ID":176995,"DIS_CODE":0,"TOWNNAME":"南區","LI":"白雪里","LIN":" ","STREET":"鹽埕路","SECT":" ","MAREA":" ","LANE":"１０３巷","ALLEY":"５８弄","HOUSE_NO":"１８號","E_COORD97":166689.73000000001,"N_COORD97":2540715.3100000001,"ADDRESS":"鹽埕路１０３巷５８弄１８號","OBJECTID":176994},"geometry":{"x":166689.73000000045,"y":2540715.3100000024}},{"attributes":{"ID":176996,"DIS_CODE":0,"TOWNNAME":"歸仁區","LI":"崙頂里","LIN":"10鄰","STREET":"成功路","SECT":"二段","MAREA":" ","LANE":" ","ALLEY":" ","HOUSE_NO":"１４２號","E_COORD97":177996.54000000001,"N_COORD97":2539794.25,"ADDRESS":"成功路二段１４２號","OBJECTID":176995},"geometry":{"x":177996.54000000097,"y":2539794.25}},{"attributes":{"ID":176997,"DIS_CODE":0,"TOWNNAME":"歸仁區","LI":"看西里","LIN":"10鄰","STREET":"仁愛南街","SECT":" ","MAREA":" ","LANE":" ","ALLEY":" ","HOUSE_NO":"１６３號","E_COORD97":178319.17999999999,"N_COORD97":2540255.2000000002,"ADDRESS":"仁愛南街１６３號","OBJECTID":176996},"geometry":{"x":178319.18000000063,"y":2540255.1999999974}},{"attributes":{"ID":176998,"DIS_CODE":0,"TOWNNAME":"歸仁區","LI":"大廟里","LIN":"10鄰","STREET":"保大路","SECT":"三段","MAREA":" ","LANE":" ","ALLEY":" ","HOUSE_NO":"１８３號","E_COORD97":175948.63,"N_COORD97":2544117.25,"ADDRESS":"保大路三段１８３號","OBJECTID":176997},"geometry":{"x":175948.62999999989,"y":2544117.2499999981}},{"attributes":{"ID":176999,"DIS_CODE":0,"TOWNNAME":"南區","LI":"白雪里","LIN":" ","STREET":"鹽埕路","SECT":" ","MAREA":" ","LANE":"１０３巷","ALLEY":"５８弄","HOUSE_NO":"１號","E_COORD97":166705.79000000001,"N_COORD97":2540689.6899999999,"ADDRESS":"鹽埕路１０３巷５８弄１號","OBJECTID":176998},"geometry":{"x":166705.79000000004,"y":2540689.6900000032}},{"attributes":{"ID":177000,"DIS_CODE":0,"TOWNNAME":"南區","LI":"白雪里","LIN":" ","STREET":"鹽埕路","SECT":" ","MAREA":" ","LANE":"１０３巷","ALLEY":"５８弄","HOUSE_NO":"３號","E_COORD97":166702.37,"N_COORD97":2540690.48,"ADDRESS":"鹽埕路１０３巷５８弄３號","OBJECTID":176999},"geometry":{"x":166702.37000000104,"y":2540690.4800000004}},{"attributes":{"ID":177001,"DIS_CODE":0,"TOWNNAME":"南區","LI":"白雪里","LIN":" ","STREET":"鹽埕路","SECT":" ","MAREA":" ","LANE":"１０３巷","ALLEY":"５８弄","HOUSE_NO":"５號","E_COORD97":166698.94,"N_COORD97":2540689.9500000002,"ADDRESS":"鹽埕路１０３巷５８弄５號","OBJECTID":177000},"geometry":{"x":166698.94000000134,"y":2540689.9499999993}}]}