{"displayFieldName":"TOWNNAME","fieldAliases":{"ID":"ID","DIS_CODE":"DIS_CODE","TOWNNAME":"TOWNNAME","LI":"LI","LIN":"LIN","STREET":"STREET","SECT":"SECT","MAREA":"MAREA","LANE":"LANE","ALLEY":"ALLEY","HOUSE_NO":"HOUSE_NO","E_COORD97":"E_COORD97","N_COORD97":"N_COORD97","ADDRESS":"ADDRESS","OBJECTID":"OBJECTID"},"geometryType":"esriGeometryPoint","spatialReference":{"wkid":102443,"latestWkid":3826},"fields":[{"name":"ID","type":"esriFieldTypeDouble","alias":"ID"},{"name":"DIS_CODE","type":"esriFieldTypeInteger","alias":"DIS_CODE"},{"name":"TOWNNAME","type":"esriFieldTypeString","alias":"TOWNNAME","length":8},{"name":"LI","type":"esriFieldTypeString","alias":"LI","length":8},{"name":"LIN","type":"esriFieldTypeString","alias":"LIN","length":12},{"name":"STREET","type":"esriFieldTypeString","alias":"STREET","length":20},{"name":"SECT","type":"esriFieldTypeString","alias":"SECT","length":8},{"name":"MAREA","type":"esriFieldTypeString","alias":"MAREA","length":12},{"name":"LANE","type":"esriFieldTypeString","alias":"LANE","length":10},{"name":"ALLEY","type":"esriFieldTypeString","alias":"ALLEY","length":10},{"name":"HOUSE_NO","type":"esriFieldTypeString","alias":"HOUSE_NO","length":20},{"name":"E_COORD97","type":"esriFieldTypeDouble","alias":"E_COORD97"},{"name":"N_COORD97","type":"esriFieldTypeDouble","alias":"N_COORD97"},{"name":"ADDRESS","type":"esriFieldTypeString","alias":"ADDRESS","length":50},{"name":"OBJECTID","type":"esriFieldTypeOID","alias":"OBJECTID"}],"features":[{"attributes":{"ID":80401,"DIS_CODE":0,"TOWNNAME":"東區","LI":"大德里","LIN":"19鄰","STREET":"大同路","SECT":"二段","MAREA":" ","LANE":"６１巷","ALLEY":"１３６弄","HOUSE_NO":"５０號","E_COORD97":169502.23000000001,"N_COORD97":2542271.04,"ADDRESS":"大同路二段６１巷１３６弄５０號","OBJECTID":80401},"geometry":{"x":169502.23000000231,"y":2542271.040000001}},{"attributes":{"ID":80402,"DIS_CODE":0,"TOWNNAME":"東區","LI":"大德里","LIN":"19鄰","STREET":"大同路","SECT":"二段","MAREA":" ","LANE":"６１巷","ALLEY":"１３６弄","HOUSE_NO":"５２號","E_COORD97":169505.51000000001,"N_COORD97":2542272.27,"ADDRESS":"大同路二段６１巷１３６弄５２號","OBJECTID":80402},"geometry":{"x":169505.51000000071,"y":2542272.2699999977}},{"attributes":{"ID":80403,"DIS_CODE":0,"TOWNNAME":"東區","LI":"大德里","LIN":"19鄰","STREET":"大同路","SECT":"二段","MAREA":" ","LANE":"６１巷","ALLEY":"１３６弄","HOUSE_NO":"５４號","E_COORD97":169509,"N_COORD97":2542272.8900000001,"ADDRESS":"大同路二段６１巷１３６弄５４號","OBJECTID":80403},"geometry":{"x":169509.00000000093,"y":2542272.8900000043}},{"attributes":{"ID":80404,"DIS_CODE":0,"TOWNNAME":"東區","LI":"大德里","LIN":"19鄰","STREET":"大同路","SECT":"二段","MAREA":" ","LANE":"６１巷","ALLEY":"１３６弄","HOUSE_NO":"５８號","E_COORD97":169516.67000000001,"N_COORD97":2542274.1699999999,"ADDRESS":"大同路二段６１巷１３６弄５８號","OBJECTID":80404},"geometry":{"x":169516.66999999993,"y":2542274.1700000018}},{"attributes":{"ID":80405,"DIS_CODE":0,"TOWNNAME":"東區","LI":"大德里","LIN":"19鄰","STREET":"大同路","SECT":"二段","MAREA":" ","LANE":"６１巷","ALLEY":"１３６弄","HOUSE_NO":"７２號","E_COORD97":169502.64000000001,"N_COORD97":2542288.46,"ADDRESS":"大同路二段６１巷１３６弄７２號","OBJECTID":80405},"geometry":{"x":169502.6400000006,"y":2542288.4600000009}},{"attributes":{"ID":80406,"DIS_CODE":0,"TOWNNAME":"東區","LI":"大德里","LIN":"19鄰","STREET":"大同路","SECT":"二段","MAREA":" ","LANE":"６１巷","ALLEY":"１３６弄","HOUSE_NO":"７４號","E_COORD97":169506.13,"N_COORD97":2542289.2799999998,"ADDRESS":"大同路二段６１巷１３６弄７４號","OBJECTID":80406},"geometry":{"x":169506.13000000082,"y":2542289.2800000031}},{"attributes":{"ID":80407,"DIS_CODE":0,"TOWNNAME":"中西區","LI":"三民里","LIN":"7鄰","STREET":"民權路","SECT":"二段","MAREA":" ","LANE":" ","ALLEY":" ","HOUSE_NO":"８７號","E_COORD97":168472.69,"N_COORD97":2543886.48,"ADDRESS":"民權路二段８７號","OBJECTID":80407},"geometry":{"x":168472.69000000041,"y":2543886.4800000023}},{"attributes":{"ID":80408,"DIS_CODE":0,"TOWNNAME":"西港區","LI":"永樂里","LIN":"3鄰","STREET":" ","SECT":" ","MAREA":"大塭寮","LANE":" ","ALLEY":" ","HOUSE_NO":"２７號之３","E_COORD97":165706.92000000001,"N_COORD97":2556305.0800000001,"ADDRESS":"大塭寮２７號之３","OBJECTID":80408},"geometry":{"x":165706.92000000086,"y":2556305.0800000019}},{"attributes":{"ID":80409,"DIS_CODE":0,"TOWNNAME":"西港區","LI":"永樂里","LIN":"3鄰","STREET":" ","SECT":" ","MAREA":"大塭寮","LANE":" ","ALLEY":" ","HOUSE_NO":"２７號之４","E_COORD97":165703.01000000001,"N_COORD97":2556306.0299999998,"ADDRESS":"大塭寮２７號之４","OBJECTID":80409},"geometry":{"x":165703.01000000071,"y":2556306.0299999993}},{"attributes":{"ID":80410,"DIS_CODE":0,"TOWNNAME":"西港區","LI":"永樂里","LIN":"3鄰","STREET":" ","SECT":" ","MAREA":"大塭寮","LANE":" ","ALLEY":" ","HOUSE_NO":"２７號之５","E_COORD97":165699.26000000001,"N_COORD97":2556307.1099999999,"ADDRESS":"大塭寮２７號之５","OBJECTID":80410},"geometry":{"x":165699.26000000071,"y":2556307.1100000013}},{"attributes":{"ID":80411,"DIS_CODE":0,"TOWNNAME":"西港區","LI":"永樂里","LIN":"3鄰","STREET":" ","SECT":" ","MAREA":"大塭寮","LANE":" ","ALLEY":" ","HOUSE_NO":"２７號之６","E_COORD97":165694.82000000001,"N_COORD97":2556307.7999999998,"ADDRESS":"大塭寮２７號之６","OBJECTID":80411},"geometry":{"x":165694.82000000123,"y":2556307.8000000026}},{"attributes":{"ID":80412,"DIS_CODE":0,"TOWNNAME":"西港區","LI":"永樂里","LIN":"3鄰","STREET":" ","SECT":" ","MAREA":"大塭寮","LANE":" ","ALLEY":" ","HOUSE_NO":"２７號之７","E_COORD97":165690.60999999999,"N_COORD97":2556308.3900000001,"ADDRESS":"大塭寮２７號之７","OBJECTID":80412},"geometry":{"x":165690.61000000127,"y":2556308.3900000006}},{"attributes":{"ID":80413,"DIS_CODE":0,"TOWNNAME":"西港區","LI":"永樂里","LIN":"3鄰","STREET":" ","SECT":" ","MAREA":"大塭寮","LANE":" ","ALLEY":" ","HOUSE_NO":"２７號之８","E_COORD97":165686.81,"N_COORD97":2556308.9300000002,"ADDRESS":"大塭寮２７號之８","OBJECTID":80413},"geometry":{"x":165686.81000000052,"y":2556308.9300000016}},{"attributes":{"ID":80414,"DIS_CODE":0,"TOWNNAME":"西港區","LI":"永樂里","LIN":"3鄰","STREET":" ","SECT":" ","MAREA":"大塭寮","LANE":" ","ALLEY":" ","HOUSE_NO":"２７號之９","E_COORD97":165681.92999999999,"N_COORD97":2556309.3500000001,"ADDRESS":"大塭寮２７號之９","OBJECTID":80414},"geometry":{"x":165681.9299999997,"y":2556309.3500000015}},{"attributes":{"ID":80415,"DIS_CODE":0,"TOWNNAME":"西港區","LI":"永樂里","LIN":"3鄰","STREET":" ","SECT":" ","MAREA":"大塭寮","LANE":" ","ALLEY":" ","HOUSE_NO":"２７號","E_COORD97":165721.67999999999,"N_COORD97":2556329.8300000001,"ADDRESS":"大塭寮２７號","OBJECTID":80415},"geometry":{"x":165721.68000000063,"y":2556329.8300000019}},{"attributes":{"ID":80416,"DIS_CODE":0,"TOWNNAME":"西港區","LI":"永樂里","LIN":"3鄰","STREET":" ","SECT":" ","MAREA":"大塭寮","LANE":" ","ALLEY":" ","HOUSE_NO":"２８號","E_COORD97":165725.64999999999,"N_COORD97":2556300.5,"ADDRESS":"大塭寮２８號","OBJECTID":80416},"geometry":{"x":165725.65000000037,"y":2556300.5}},{"attributes":{"ID":80417,"DIS_CODE":0,"TOWNNAME":"柳營區","LI":"篤農里","LIN":"3鄰","STREET":" ","SECT":" ","MAREA":"小腳腿","LANE":" ","ALLEY":" ","HOUSE_NO":"１９１號之１","E_COORD97":185373.09,"N_COORD97":2576745.52,"ADDRESS":"小腳腿１９１號之１","OBJECTID":80417},"geometry":{"x":185373.09000000078,"y":2576745.5200000014}},{"attributes":{"ID":80418,"DIS_CODE":0,"TOWNNAME":"柳營區","LI":"篤農里","LIN":"3鄰","STREET":" ","SECT":" ","MAREA":"小腳腿","LANE":" ","ALLEY":" ","HOUSE_NO":"１９１號","E_COORD97":185362.10000000001,"N_COORD97":2576758.3199999998,"ADDRESS":"小腳腿１９１號","OBJECTID":80418},"geometry":{"x":185362.09999999963,"y":2576758.3200000003}},{"attributes":{"ID":80419,"DIS_CODE":0,"TOWNNAME":"柳營區","LI":"篤農里","LIN":"3鄰","STREET":" ","SECT":" ","MAREA":"小腳腿","LANE":" ","ALLEY":" ","HOUSE_NO":"１９２號之２","E_COORD97":185368.28,"N_COORD97":2576784.5499999998,"ADDRESS":"小腳腿１９２號之２","OBJECTID":80419},"geometry":{"x":185368.28000000026,"y":2576784.5500000007}},{"attributes":{"ID":80420,"DIS_CODE":0,"TOWNNAME":"東區","LI":"大德里","LIN":"19鄰","STREET":"大同路","SECT":"二段","MAREA":" ","LANE":"６１巷","ALLEY":"１３６弄","HOUSE_NO":"７６號","E_COORD97":169510.01999999999,"N_COORD97":2542290.3100000001,"ADDRESS":"大同路二段６１巷１３６弄７６號","OBJECTID":80420},"geometry":{"x":169510.02000000048,"y":2542290.3100000042}},{"attributes":{"ID":80421,"DIS_CODE":0,"TOWNNAME":"東區","LI":"大德里","LIN":"19鄰","STREET":"大同路","SECT":"二段","MAREA":" ","LANE":"６１巷","ALLEY":"１３６弄","HOUSE_NO":"８０號","E_COORD97":169517.62,"N_COORD97":2542292.5600000001,"ADDRESS":"大同路二段６１巷１３６弄８０號","OBJECTID":80421},"geometry":{"x":169517.62000000011,"y":2542292.5600000024}},{"attributes":{"ID":80422,"DIS_CODE":0,"TOWNNAME":"東區","LI":"大德里","LIN":"19鄰","STREET":"大同路","SECT":"二段","MAREA":" ","LANE":"６１巷","ALLEY":"１３６弄","HOUSE_NO":"８號","E_COORD97":169443.54999999999,"N_COORD97":2542266.9500000002,"ADDRESS":"大同路二段６１巷１３６弄８號","OBJECTID":80422},"geometry":{"x":169443.55000000168,"y":2542266.9499999993}},{"attributes":{"ID":80423,"DIS_CODE":0,"TOWNNAME":"官田區","LI":"官田里","LIN":"7鄰","STREET":" ","SECT":" ","MAREA":"官田","LANE":" ","ALLEY":" ","HOUSE_NO":"５９號之１０","E_COORD97":182752.81,"N_COORD97":2564933.3500000001,"ADDRESS":"官田５９號之１０","OBJECTID":80423},"geometry":{"x":182752.81000000052,"y":2564933.3500000034}},{"attributes":{"ID":80424,"DIS_CODE":0,"TOWNNAME":"東區","LI":"大德里","LIN":"19鄰","STREET":"大同路","SECT":"二段","MAREA":" ","LANE":"６１巷","ALLEY":"１３６弄","HOUSE_NO":"７８號","E_COORD97":169514.13,"N_COORD97":2542291.1299999999,"ADDRESS":"大同路二段６１巷１３６弄７８號","OBJECTID":80424},"geometry":{"x":169514.12999999896,"y":2542291.1300000008}},{"attributes":{"ID":80425,"DIS_CODE":0,"TOWNNAME":"永康區","LI":"中華里","LIN":"19鄰","STREET":"小東路","SECT":" ","MAREA":" ","LANE":"４７７巷","ALLEY":"４６弄","HOUSE_NO":"３號之１８","E_COORD97":171647.32000000001,"N_COORD97":2544536.3999999999,"ADDRESS":"小東路４７７巷４６弄３號之１８","OBJECTID":80425},"geometry":{"x":171647.3200000003,"y":2544536.4000000004}},{"attributes":{"ID":80426,"DIS_CODE":0,"TOWNNAME":"永康區","LI":"中華里","LIN":"19鄰","STREET":"小東路","SECT":" ","MAREA":" ","LANE":"４７７巷","ALLEY":"４６弄","HOUSE_NO":"３號之２２","E_COORD97":171647.31,"N_COORD97":2544536.3999999999,"ADDRESS":"小東路４７７巷４６弄３號之２２","OBJECTID":80426},"geometry":{"x":171647.31000000052,"y":2544536.4000000004}},{"attributes":{"ID":80427,"DIS_CODE":0,"TOWNNAME":"永康區","LI":"中華里","LIN":"19鄰","STREET":"小東路","SECT":" ","MAREA":" ","LANE":"４７７巷","ALLEY":"４６弄","HOUSE_NO":"３號之１７","E_COORD97":171647.25,"N_COORD97":2544536.3999999999,"ADDRESS":"小東路４７７巷４６弄３號之１７","OBJECTID":80427},"geometry":{"x":171647.25,"y":2544536.4000000004}},{"attributes":{"ID":80428,"DIS_CODE":0,"TOWNNAME":"中西區","LI":"萬昌里","LIN":"7鄰","STREET":"府前路","SECT":"一段","MAREA":" ","LANE":"９０巷","ALLEY":" ","HOUSE_NO":"５９號","E_COORD97":168908.04999999999,"N_COORD97":2543401.6200000001,"ADDRESS":"府前路一段９０巷５９號","OBJECTID":80428},"geometry":{"x":168908.05000000075,"y":2543401.6200000029}},{"attributes":{"ID":80429,"DIS_CODE":0,"TOWNNAME":"中西區","LI":"萬昌里","LIN":"7鄰","STREET":"民權路","SECT":"一段","MAREA":" ","LANE":" ","ALLEY":" ","HOUSE_NO":"９９號","E_COORD97":168927.84,"N_COORD97":2543431.8599999999,"ADDRESS":"民權路一段９９號","OBJECTID":80429},"geometry":{"x":168927.84000000171,"y":2543431.8600000013}},{"attributes":{"ID":80430,"DIS_CODE":0,"TOWNNAME":"北區","LI":"延平里","LIN":"15鄰","STREET":"公園路","SECT":" ","MAREA":" ","LANE":" ","ALLEY":" ","HOUSE_NO":"８３２號","E_COORD97":169216.23000000001,"N_COORD97":2545947.5899999999,"ADDRESS":"公園路８３２號","OBJECTID":80430},"geometry":{"x":169216.23000000138,"y":2545947.5899999999}},{"attributes":{"ID":80431,"DIS_CODE":0,"TOWNNAME":"北區","LI":"延平里","LIN":"15鄰","STREET":"公園路","SECT":" ","MAREA":" ","LANE":" ","ALLEY":" ","HOUSE_NO":"８３４號","E_COORD97":169218.89999999999,"N_COORD97":2545951.1000000001,"ADDRESS":"公園路８３４號","OBJECTID":80431},"geometry":{"x":169218.90000000037,"y":2545951.0999999996}},{"attributes":{"ID":80432,"DIS_CODE":0,"TOWNNAME":"官田區","LI":"官田里","LIN":"7鄰","STREET":" ","SECT":" ","MAREA":"官田","LANE":" ","ALLEY":" ","HOUSE_NO":"５９號之８","E_COORD97":182742.26000000001,"N_COORD97":2564938.3599999999,"ADDRESS":"官田５９號之８","OBJECTID":80432},"geometry":{"x":182742.25999999978,"y":2564938.3599999994}},{"attributes":{"ID":80433,"DIS_CODE":0,"TOWNNAME":"永康區","LI":"中華里","LIN":"19鄰","STREET":"小東路","SECT":" ","MAREA":" ","LANE":"４７７巷","ALLEY":"４６弄","HOUSE_NO":"５號之１","E_COORD97":171653.06,"N_COORD97":2544535.6600000001,"ADDRESS":"小東路４７７巷４６弄５號之１","OBJECTID":80433},"geometry":{"x":171653.05999999959,"y":2544535.660000002}},{"attributes":{"ID":80434,"DIS_CODE":0,"TOWNNAME":"官田區","LI":"官田里","LIN":"7鄰","STREET":" ","SECT":" ","MAREA":"官田","LANE":" ","ALLEY":" ","HOUSE_NO":"５９號之９","E_COORD97":182743.03,"N_COORD97":2564966.1000000001,"ADDRESS":"官田５９號之９","OBJECTID":80434},"geometry":{"x":182743.03000000119,"y":2564966.1000000015}},{"attributes":{"ID":80435,"DIS_CODE":0,"TOWNNAME":"官田區","LI":"官田里","LIN":"7鄰","STREET":" ","SECT":" ","MAREA":"官田","LANE":" ","ALLEY":" ","HOUSE_NO":"５９號","E_COORD97":182637.60000000001,"N_COORD97":2564994.5899999999,"ADDRESS":"官田５９號","OBJECTID":80435},"geometry":{"x":182637.59999999963,"y":2564994.5900000017}},{"attributes":{"ID":80436,"DIS_CODE":0,"TOWNNAME":"官田區","LI":"官田里","LIN":"7鄰","STREET":" ","SECT":" ","MAREA":"官田","LANE":" ","ALLEY":" ","HOUSE_NO":"６０號","E_COORD97":182603.56,"N_COORD97":2565003.1099999999,"ADDRESS":"官田６０號","OBJECTID":80436},"geometry":{"x":182603.56000000052,"y":2565003.1100000013}},{"attributes":{"ID":80437,"DIS_CODE":0,"TOWNNAME":"官田區","LI":"拔林里","LIN":"7鄰","STREET":" ","SECT":" ","MAREA":"拔子林","LANE":" ","ALLEY":" ","HOUSE_NO":"５８號","E_COORD97":180730.13,"N_COORD97":2563685.0800000001,"ADDRESS":"拔子林５８號","OBJECTID":80437},"geometry":{"x":180730.13000000082,"y":2563685.0800000019}},{"attributes":{"ID":80438,"DIS_CODE":0,"TOWNNAME":"永康區","LI":"神洲里","LIN":"19鄰","STREET":"忠孝路","SECT":" ","MAREA":" ","LANE":"７６巷","ALLEY":"６３弄","HOUSE_NO":"１２號","E_COORD97":172237.95999999999,"N_COORD97":2545049.75,"ADDRESS":"忠孝路７６巷６３弄１２號","OBJECTID":80438},"geometry":{"x":172237.96000000183,"y":2545049.7500000037}},{"attributes":{"ID":80439,"DIS_CODE":0,"TOWNNAME":"官田區","LI":"拔林里","LIN":"7鄰","STREET":" ","SECT":" ","MAREA":"拔子林","LANE":" ","ALLEY":" ","HOUSE_NO":"５９號","E_COORD97":180749.12,"N_COORD97":2563664.4500000002,"ADDRESS":"拔子林５９號","OBJECTID":80439},"geometry":{"x":180749.12000000104,"y":2563664.450000003}},{"attributes":{"ID":80440,"DIS_CODE":0,"TOWNNAME":"新化區","LI":"山\u25A0里","LIN":"7鄰","STREET":" ","SECT":" ","MAREA":"頂山\u25A0","LANE":" ","ALLEY":" ","HOUSE_NO":"１４８號之２","E_COORD97":179736.67999999999,"N_COORD97":2546752.2599999998,"ADDRESS":"頂山\u25A0１４８號之２","OBJECTID":80440},"geometry":{"x":179736.6799999997,"y":2546752.2600000016}},{"attributes":{"ID":80441,"DIS_CODE":0,"TOWNNAME":"新化區","LI":"崙頂里","LIN":"7鄰","STREET":" ","SECT":" ","MAREA":"崙子頂","LANE":" ","ALLEY":" ","HOUSE_NO":"３０３號之３３","E_COORD97":176854.98999999999,"N_COORD97":2546934.4500000002,"ADDRESS":"崙子頂３０３號之３３","OBJECTID":80441},"geometry":{"x":176854.99000000022,"y":2546934.4499999993}},{"attributes":{"ID":80442,"DIS_CODE":0,"TOWNNAME":"永康區","LI":"中華里","LIN":"19鄰","STREET":"小東路","SECT":" ","MAREA":" ","LANE":"４７７巷","ALLEY":"４６弄","HOUSE_NO":"３號之１２","E_COORD97":171647.31,"N_COORD97":2544536.3999999999,"ADDRESS":"小東路４７７巷４６弄３號之１２","OBJECTID":80442},"geometry":{"x":171647.31000000052,"y":2544536.4000000004}},{"attributes":{"ID":80443,"DIS_CODE":0,"TOWNNAME":"新化區","LI":"崙頂里","LIN":"7鄰","STREET":" ","SECT":" ","MAREA":"崙子頂","LANE":" ","ALLEY":" ","HOUSE_NO":"３０３號之３５","E_COORD97":176855.03,"N_COORD97":2546929.3599999999,"ADDRESS":"崙子頂３０３號之３５","OBJECTID":80443},"geometry":{"x":176855.03000000026,"y":2546929.3599999994}},{"attributes":{"ID":80444,"DIS_CODE":0,"TOWNNAME":"新化區","LI":"崙頂里","LIN":"7鄰","STREET":" ","SECT":" ","MAREA":"崙子頂","LANE":" ","ALLEY":" ","HOUSE_NO":"３０３號之３６","E_COORD97":176841.79999999999,"N_COORD97":2546932.8500000001,"ADDRESS":"崙子頂３０３號之３６","OBJECTID":80444},"geometry":{"x":176841.80000000075,"y":2546932.8499999996}},{"attributes":{"ID":80445,"DIS_CODE":0,"TOWNNAME":"新化區","LI":"崙頂里","LIN":"7鄰","STREET":" ","SECT":" ","MAREA":"崙子頂","LANE":" ","ALLEY":" ","HOUSE_NO":"３０３號之３７","E_COORD97":176854.95999999999,"N_COORD97":2546923.9100000001,"ADDRESS":"崙子頂３０３號之３７","OBJECTID":80445},"geometry":{"x":176854.95999999996,"y":2546923.9100000039}},{"attributes":{"ID":80446,"DIS_CODE":0,"TOWNNAME":"新化區","LI":"崙頂里","LIN":"7鄰","STREET":" ","SECT":" ","MAREA":"崙子頂","LANE":" ","ALLEY":" ","HOUSE_NO":"３０３號之３８","E_COORD97":176841.26999999999,"N_COORD97":2546928.0299999998,"ADDRESS":"崙子頂３０３號之３８","OBJECTID":80446},"geometry":{"x":176841.27000000142,"y":2546928.0299999993}},{"attributes":{"ID":80447,"DIS_CODE":0,"TOWNNAME":"新化區","LI":"崙頂里","LIN":"7鄰","STREET":" ","SECT":" ","MAREA":"崙子頂","LANE":" ","ALLEY":" ","HOUSE_NO":"３０３號之３９","E_COORD97":176854.92999999999,"N_COORD97":2546918.5899999999,"ADDRESS":"崙子頂３０３號之３９","OBJECTID":80447},"geometry":{"x":176854.9299999997,"y":2546918.589999998}},{"attributes":{"ID":80448,"DIS_CODE":0,"TOWNNAME":"新化區","LI":"崙頂里","LIN":"7鄰","STREET":" ","SECT":" ","MAREA":"崙子頂","LANE":" ","ALLEY":" ","HOUSE_NO":"３０３號之４０","E_COORD97":176840.89000000001,"N_COORD97":2546922.8799999999,"ADDRESS":"崙子頂３０３號之４０","OBJECTID":80448},"geometry":{"x":176840.8900000006,"y":2546922.8800000027}},{"attributes":{"ID":80449,"DIS_CODE":0,"TOWNNAME":"南區","LI":"文華里","LIN":"24鄰","STREET":"建南路","SECT":" ","MAREA":" ","LANE":" ","ALLEY":" ","HOUSE_NO":"１６２號","E_COORD97":166811.28,"N_COORD97":2542871.7200000002,"ADDRESS":"建南路１６２號","OBJECTID":80449},"geometry":{"x":166811.28000000026,"y":2542871.7200000025}},{"attributes":{"ID":80450,"DIS_CODE":0,"TOWNNAME":"新化區","LI":"崙頂里","LIN":"7鄰","STREET":" ","SECT":" ","MAREA":"崙子頂","LANE":" ","ALLEY":" ","HOUSE_NO":"３０３號之４１","E_COORD97":176854.82999999999,"N_COORD97":2546913.4399999999,"ADDRESS":"崙子頂３０３號之４１","OBJECTID":80450},"geometry":{"x":176854.82999999914,"y":2546913.4400000013}},{"attributes":{"ID":80451,"DIS_CODE":0,"TOWNNAME":"新化區","LI":"崙頂里","LIN":"7鄰","STREET":" ","SECT":" ","MAREA":"崙子頂","LANE":" ","ALLEY":" ","HOUSE_NO":"３０３號之４２","E_COORD97":176840.70000000001,"N_COORD97":2546917.5099999998,"ADDRESS":"崙子頂３０３號之４２","OBJECTID":80451},"geometry":{"x":176840.70000000205,"y":2546917.5100000016}},{"attributes":{"ID":80452,"DIS_CODE":0,"TOWNNAME":"新化區","LI":"崙頂里","LIN":"7鄰","STREET":" ","SECT":" ","MAREA":"崙子頂","LANE":" ","ALLEY":" ","HOUSE_NO":"３０３號之４３","E_COORD97":176854.85000000001,"N_COORD97":2546908.0699999998,"ADDRESS":"崙子頂３０３號之４３","OBJECTID":80452},"geometry":{"x":176854.85000000056,"y":2546908.0700000003}},{"attributes":{"ID":80453,"DIS_CODE":0,"TOWNNAME":"楠西區","LI":"灣丘里","LIN":"15鄰","STREET":" ","SECT":" ","MAREA":"鳳興","LANE":" ","ALLEY":" ","HOUSE_NO":"４８號","E_COORD97":198867.26999999999,"N_COORD97":2562512.25,"ADDRESS":"鳳興４８號","OBJECTID":80453},"geometry":{"x":198867.27000000048,"y":2562512.25}},{"attributes":{"ID":80454,"DIS_CODE":0,"TOWNNAME":"新化區","LI":"崙頂里","LIN":"7鄰","STREET":" ","SECT":" ","MAREA":"崙子頂","LANE":" ","ALLEY":" ","HOUSE_NO":"３０３號之４５","E_COORD97":176854.56,"N_COORD97":2546902.6800000002,"ADDRESS":"崙子頂３０３號之４５","OBJECTID":80454},"geometry":{"x":176854.56000000145,"y":2546902.6800000016}},{"attributes":{"ID":80455,"DIS_CODE":0,"TOWNNAME":"新化區","LI":"崙頂里","LIN":"7鄰","STREET":" ","SECT":" ","MAREA":"崙子頂","LANE":" ","ALLEY":" ","HOUSE_NO":"３０３號之４６","E_COORD97":176840.59,"N_COORD97":2546912.5,"ADDRESS":"崙子頂３０３號之４６","OBJECTID":80455},"geometry":{"x":176840.58999999985,"y":2546912.5}},{"attributes":{"ID":80456,"DIS_CODE":0,"TOWNNAME":"新化區","LI":"崙頂里","LIN":"7鄰","STREET":" ","SECT":" ","MAREA":"崙子頂","LANE":" ","ALLEY":" ","HOUSE_NO":"３０３號之４７","E_COORD97":176854.44,"N_COORD97":2546897.2200000002,"ADDRESS":"崙子頂３０３號之４７","OBJECTID":80456},"geometry":{"x":176854.43999999948,"y":2546897.2200000007}},{"attributes":{"ID":80457,"DIS_CODE":0,"TOWNNAME":"新化區","LI":"大坑里","LIN":"7鄰","STREET":" ","SECT":" ","MAREA":"大坑尾","LANE":" ","ALLEY":" ","HOUSE_NO":"１６６號之２","E_COORD97":186826.25,"N_COORD97":2546186.5099999998,"ADDRESS":"大坑尾１６６號之２","OBJECTID":80457},"geometry":{"x":186826.25,"y":2546186.5099999998}},{"attributes":{"ID":80458,"DIS_CODE":0,"TOWNNAME":"新化區","LI":"崙頂里","LIN":"7鄰","STREET":" ","SECT":" ","MAREA":"崙子頂","LANE":" ","ALLEY":" ","HOUSE_NO":"３０３號之１３","E_COORD97":176856.98044000001,"N_COORD97":2546988.7925999998,"ADDRESS":"崙子頂３０３號之１３","OBJECTID":80458},"geometry":{"x":176856.98044000193,"y":2546988.792603001}},{"attributes":{"ID":80459,"DIS_CODE":0,"TOWNNAME":"柳營區","LI":"篤農里","LIN":"3鄰","STREET":" ","SECT":" ","MAREA":"小腳腿","LANE":" ","ALLEY":" ","HOUSE_NO":"１９２號之３","E_COORD97":185369.14999999999,"N_COORD97":2576791.3700000001,"ADDRESS":"小腳腿１９２號之３","OBJECTID":80459},"geometry":{"x":185369.15000000037,"y":2576791.3700000029}},{"attributes":{"ID":80460,"DIS_CODE":0,"TOWNNAME":"柳營區","LI":"篤農里","LIN":"3鄰","STREET":" ","SECT":" ","MAREA":"小腳腿","LANE":" ","ALLEY":" ","HOUSE_NO":"１９２號之５","E_COORD97":185367.59,"N_COORD97":2576775.7599999998,"ADDRESS":"小腳腿１９２號之５","OBJECTID":80460},"geometry":{"x":185367.58999999985,"y":2576775.7599999998}},{"attributes":{"ID":80461,"DIS_CODE":0,"TOWNNAME":"柳營區","LI":"篤農里","LIN":"3鄰","STREET":" ","SECT":" ","MAREA":"小腳腿","LANE":" ","ALLEY":" ","HOUSE_NO":"１９２號","E_COORD97":185378.89000000001,"N_COORD97":2576767.2000000002,"ADDRESS":"小腳腿１９２號","OBJECTID":80461},"geometry":{"x":185378.88999999966,"y":2576767.2000000011}},{"attributes":{"ID":80462,"DIS_CODE":0,"TOWNNAME":"柳營區","LI":"篤農里","LIN":"3鄰","STREET":" ","SECT":" ","MAREA":"小腳腿","LANE":" ","ALLEY":" ","HOUSE_NO":"１９３號之１","E_COORD97":185392.25,"N_COORD97":2576778.6600000001,"ADDRESS":"小腳腿１９３號之１","OBJECTID":80462},"geometry":{"x":185392.24999999907,"y":2576778.660000002}},{"attributes":{"ID":80463,"DIS_CODE":0,"TOWNNAME":"柳營區","LI":"篤農里","LIN":"3鄰","STREET":" ","SECT":" ","MAREA":"小腳腿","LANE":" ","ALLEY":" ","HOUSE_NO":"１９３號之２","E_COORD97":185384.89000000001,"N_COORD97":2576779.6499999999,"ADDRESS":"小腳腿１９３號之２","OBJECTID":80463},"geometry":{"x":185384.8900000006,"y":2576779.6500000022}},{"attributes":{"ID":80464,"DIS_CODE":0,"TOWNNAME":"柳營區","LI":"篤農里","LIN":"3鄰","STREET":" ","SECT":" ","MAREA":"小腳腿","LANE":" ","ALLEY":" ","HOUSE_NO":"１９３號之３","E_COORD97":185398.42000000001,"N_COORD97":2576764.6200000001,"ADDRESS":"小腳腿１９３號之３","OBJECTID":80464},"geometry":{"x":185398.42000000086,"y":2576764.620000001}},{"attributes":{"ID":80465,"DIS_CODE":0,"TOWNNAME":"柳營區","LI":"篤農里","LIN":"3鄰","STREET":" ","SECT":" ","MAREA":"小腳腿","LANE":" ","ALLEY":" ","HOUSE_NO":"１９３號","E_COORD97":185394.23999999999,"N_COORD97":2576765.2000000002,"ADDRESS":"小腳腿１９３號","OBJECTID":80465},"geometry":{"x":185394.23999999929,"y":2576765.1999999993}},{"attributes":{"ID":80466,"DIS_CODE":0,"TOWNNAME":"柳營區","LI":"篤農里","LIN":"3鄰","STREET":" ","SECT":" ","MAREA":"小腳腿","LANE":" ","ALLEY":" ","HOUSE_NO":"１９４號","E_COORD97":185384.06,"N_COORD97":2576745.02,"ADDRESS":"小腳腿１９４號","OBJECTID":80466},"geometry":{"x":185384.05999999959,"y":2576745.0200000014}},{"attributes":{"ID":80467,"DIS_CODE":0,"TOWNNAME":"柳營區","LI":"篤農里","LIN":"3鄰","STREET":" ","SECT":" ","MAREA":"小腳腿","LANE":" ","ALLEY":" ","HOUSE_NO":"１９６號","E_COORD97":185384.14999999999,"N_COORD97":2576730.27,"ADDRESS":"小腳腿１９６號","OBJECTID":80467},"geometry":{"x":185384.15000000037,"y":2576730.2700000014}},{"attributes":{"ID":80468,"DIS_CODE":0,"TOWNNAME":"柳營區","LI":"篤農里","LIN":"3鄰","STREET":" ","SECT":" ","MAREA":"小腳腿","LANE":" ","ALLEY":" ","HOUSE_NO":"１９７號","E_COORD97":185362.63,"N_COORD97":2576742.6699999999,"ADDRESS":"小腳腿１９７號","OBJECTID":80468},"geometry":{"x":185362.63000000175,"y":2576742.6699999999}},{"attributes":{"ID":80469,"DIS_CODE":0,"TOWNNAME":"柳營區","LI":"篤農里","LIN":"3鄰","STREET":" ","SECT":" ","MAREA":"小腳腿","LANE":" ","ALLEY":" ","HOUSE_NO":"１９８號","E_COORD97":185359.70999999999,"N_COORD97":2576722.6400000001,"ADDRESS":"小腳腿１９８號","OBJECTID":80469},"geometry":{"x":185359.70999999996,"y":2576722.6400000006}},{"attributes":{"ID":80470,"DIS_CODE":0,"TOWNNAME":"柳營區","LI":"篤農里","LIN":"3鄰","STREET":" ","SECT":" ","MAREA":"小腳腿","LANE":" ","ALLEY":" ","HOUSE_NO":"２００號","E_COORD97":185383.81,"N_COORD97":2576708.4500000002,"ADDRESS":"小腳腿２００號","OBJECTID":80470},"geometry":{"x":185383.81000000052,"y":2576708.4500000011}},{"attributes":{"ID":80471,"DIS_CODE":0,"TOWNNAME":"柳營區","LI":"重溪里","LIN":"3鄰","STREET":" ","SECT":" ","MAREA":"小腳腿","LANE":" ","ALLEY":" ","HOUSE_NO":"２０號之１","E_COORD97":185299.95999999999,"N_COORD97":2576396.52,"ADDRESS":"小腳腿２０號之１","OBJECTID":80471},"geometry":{"x":185299.96000000089,"y":2576396.5200000014}},{"attributes":{"ID":80472,"DIS_CODE":0,"TOWNNAME":"柳營區","LI":"重溪里","LIN":"3鄰","STREET":" ","SECT":" ","MAREA":"小腳腿","LANE":" ","ALLEY":" ","HOUSE_NO":"２０號之２","E_COORD97":185295.26999999999,"N_COORD97":2576397.5499999998,"ADDRESS":"小腳腿２０號之２","OBJECTID":80472},"geometry":{"x":185295.27000000048,"y":2576397.5500000026}},{"attributes":{"ID":80473,"DIS_CODE":0,"TOWNNAME":"柳營區","LI":"重溪里","LIN":"3鄰","STREET":" ","SECT":" ","MAREA":"小腳腿","LANE":" ","ALLEY":" ","HOUSE_NO":"２０號之８","E_COORD97":185270.85000000001,"N_COORD97":2576398.1600000001,"ADDRESS":"小腳腿２０號之８","OBJECTID":80473},"geometry":{"x":185270.8499999987,"y":2576398.1600000039}},{"attributes":{"ID":80474,"DIS_CODE":0,"TOWNNAME":"柳營區","LI":"重溪里","LIN":"3鄰","STREET":" ","SECT":" ","MAREA":"小腳腿","LANE":" ","ALLEY":" ","HOUSE_NO":"２０號","E_COORD97":185333.81,"N_COORD97":2576419.77,"ADDRESS":"小腳腿２０號","OBJECTID":80474},"geometry":{"x":185333.81000000145,"y":2576419.7699999996}},{"attributes":{"ID":80475,"DIS_CODE":0,"TOWNNAME":"柳營區","LI":"重溪里","LIN":"3鄰","STREET":" ","SECT":" ","MAREA":"小腳腿","LANE":" ","ALLEY":" ","HOUSE_NO":"２１號之１０","E_COORD97":185230.42000000001,"N_COORD97":2576441.5299999998,"ADDRESS":"小腳腿２１號之１０","OBJECTID":80475},"geometry":{"x":185230.42000000086,"y":2576441.5299999993}},{"attributes":{"ID":80476,"DIS_CODE":0,"TOWNNAME":"柳營區","LI":"重溪里","LIN":"3鄰","STREET":" ","SECT":" ","MAREA":"小腳腿","LANE":" ","ALLEY":" ","HOUSE_NO":"２１號之１１","E_COORD97":185232.31,"N_COORD97":2576450.9500000002,"ADDRESS":"小腳腿２１號之１１","OBJECTID":80476},"geometry":{"x":185232.31000000052,"y":2576450.9500000011}},{"attributes":{"ID":80477,"DIS_CODE":0,"TOWNNAME":"柳營區","LI":"重溪里","LIN":"3鄰","STREET":" ","SECT":" ","MAREA":"小腳腿","LANE":" ","ALLEY":" ","HOUSE_NO":"２１號之１","E_COORD97":185256.75,"N_COORD97":2576454.9900000002,"ADDRESS":"小腳腿２１號之１","OBJECTID":80477},"geometry":{"x":185256.75000000186,"y":2576454.9900000021}},{"attributes":{"ID":80478,"DIS_CODE":0,"TOWNNAME":"柳營區","LI":"重溪里","LIN":"3鄰","STREET":" ","SECT":" ","MAREA":"小腳腿","LANE":" ","ALLEY":" ","HOUSE_NO":"２１號之２","E_COORD97":185230.89999999999,"N_COORD97":2576446.1099999999,"ADDRESS":"小腳腿２１號之２","OBJECTID":80478},"geometry":{"x":185230.9000000013,"y":2576446.1100000013}},{"attributes":{"ID":80479,"DIS_CODE":0,"TOWNNAME":"柳營區","LI":"重溪里","LIN":"3鄰","STREET":" ","SECT":" ","MAREA":"小腳腿","LANE":" ","ALLEY":" ","HOUSE_NO":"２１號之３","E_COORD97":184523.95999999999,"N_COORD97":2576332.29,"ADDRESS":"小腳腿２１號之３","OBJECTID":80479},"geometry":{"x":184523.95999999996,"y":2576332.290000001}},{"attributes":{"ID":80480,"DIS_CODE":0,"TOWNNAME":"柳營區","LI":"重溪里","LIN":"3鄰","STREET":" ","SECT":" ","MAREA":"小腳腿","LANE":" ","ALLEY":" ","HOUSE_NO":"２１號之４","E_COORD97":185232.75,"N_COORD97":2576457.6600000001,"ADDRESS":"小腳腿２１號之４","OBJECTID":80480},"geometry":{"x":185232.75,"y":2576457.6600000001}},{"attributes":{"ID":80481,"DIS_CODE":0,"TOWNNAME":"柳營區","LI":"重溪里","LIN":"3鄰","STREET":" ","SECT":" ","MAREA":"小腳腿","LANE":" ","ALLEY":" ","HOUSE_NO":"２１號之６","E_COORD97":185253.16,"N_COORD97":2576466.8300000001,"ADDRESS":"小腳腿２１號之６","OBJECTID":80481},"geometry":{"x":185253.16000000108,"y":2576466.8300000001}},{"attributes":{"ID":80482,"DIS_CODE":0,"TOWNNAME":"柳營區","LI":"重溪里","LIN":"3鄰","STREET":" ","SECT":" ","MAREA":"小腳腿","LANE":" ","ALLEY":" ","HOUSE_NO":"２１號之９","E_COORD97":185221.53,"N_COORD97":2576403.1800000002,"ADDRESS":"小腳腿２１號之９","OBJECTID":80482},"geometry":{"x":185221.53000000119,"y":2576403.1799999997}},{"attributes":{"ID":80483,"DIS_CODE":0,"TOWNNAME":"柳營區","LI":"重溪里","LIN":"3鄰","STREET":" ","SECT":" ","MAREA":"小腳腿","LANE":" ","ALLEY":" ","HOUSE_NO":"２１號","E_COORD97":185229.32999999999,"N_COORD97":2576424.5699999998,"ADDRESS":"小腳腿２１號","OBJECTID":80483},"geometry":{"x":185229.33000000101,"y":2576424.5700000003}},{"attributes":{"ID":80484,"DIS_CODE":0,"TOWNNAME":"柳營區","LI":"重溪里","LIN":"3鄰","STREET":" ","SECT":" ","MAREA":"小腳腿","LANE":" ","ALLEY":" ","HOUSE_NO":"２７號之１","E_COORD97":185216.56,"N_COORD97":2576490.1400000001,"ADDRESS":"小腳腿２７號之１","OBJECTID":80484},"geometry":{"x":185216.55999999959,"y":2576490.1400000043}},{"attributes":{"ID":80485,"DIS_CODE":0,"TOWNNAME":"永康區","LI":"中華里","LIN":"19鄰","STREET":"小東路","SECT":" ","MAREA":" ","LANE":"４７７巷","ALLEY":"４６弄","HOUSE_NO":"３號之２５","E_COORD97":171647.32999999999,"N_COORD97":2544536.3999999999,"ADDRESS":"小東路４７７巷４６弄３號之２５","OBJECTID":80485},"geometry":{"x":171647.33000000194,"y":2544536.4000000004}},{"attributes":{"ID":80486,"DIS_CODE":0,"TOWNNAME":"永康區","LI":"中華里","LIN":"19鄰","STREET":"小東路","SECT":" ","MAREA":" ","LANE":"４７７巷","ALLEY":"４６弄","HOUSE_NO":"３號之２１","E_COORD97":171647.17000000001,"N_COORD97":2544536.3999999999,"ADDRESS":"小東路４７７巷４６弄３號之２１","OBJECTID":80486},"geometry":{"x":171647.17000000086,"y":2544536.4000000004}},{"attributes":{"ID":80487,"DIS_CODE":0,"TOWNNAME":"永康區","LI":"中華里","LIN":"19鄰","STREET":"小東路","SECT":" ","MAREA":" ","LANE":"４７７巷","ALLEY":"４６弄","HOUSE_NO":"３號之１０","E_COORD97":171647.22,"N_COORD97":2544536.3999999999,"ADDRESS":"小東路４７７巷４６弄３號之１０","OBJECTID":80487},"geometry":{"x":171647.21999999974,"y":2544536.4000000004}},{"attributes":{"ID":80488,"DIS_CODE":0,"TOWNNAME":"永康區","LI":"中華里","LIN":"19鄰","STREET":"小東路","SECT":" ","MAREA":" ","LANE":"４７７巷","ALLEY":"４６弄","HOUSE_NO":"１號之３５","E_COORD97":171658.51999999999,"N_COORD97":2544537.0499999998,"ADDRESS":"小東路４７７巷４６弄１號之３５","OBJECTID":80488},"geometry":{"x":171658.51999999955,"y":2544537.0500000026}},{"attributes":{"ID":80489,"DIS_CODE":0,"TOWNNAME":"南區","LI":"文華里","LIN":" ","STREET":"文南三街","SECT":" ","MAREA":" ","LANE":" ","ALLEY":" ","HOUSE_NO":"７５號","E_COORD97":166785.35999999999,"N_COORD97":2542937.4100000001,"ADDRESS":"文南三街７５號","OBJECTID":80489},"geometry":{"x":166785.36000000034,"y":2542937.410000002}},{"attributes":{"ID":80490,"DIS_CODE":0,"TOWNNAME":"南區","LI":"文華里","LIN":"24鄰","STREET":"文南三街","SECT":" ","MAREA":" ","LANE":" ","ALLEY":" ","HOUSE_NO":"５３號","E_COORD97":166806.45999999999,"N_COORD97":2542935.8300000001,"ADDRESS":"文南三街５３號","OBJECTID":80490},"geometry":{"x":166806.46000000183,"y":2542935.8300000001}},{"attributes":{"ID":80491,"DIS_CODE":0,"TOWNNAME":"南區","LI":"文華里","LIN":"24鄰","STREET":"文南三街","SECT":" ","MAREA":" ","LANE":" ","ALLEY":" ","HOUSE_NO":"５５號","E_COORD97":166802.92999999999,"N_COORD97":2542932.8300000001,"ADDRESS":"文南三街５５號","OBJECTID":80491},"geometry":{"x":166802.92999999877,"y":2542932.8300000001}},{"attributes":{"ID":80492,"DIS_CODE":0,"TOWNNAME":"南區","LI":"文華里","LIN":"24鄰","STREET":"文南三街","SECT":" ","MAREA":" ","LANE":" ","ALLEY":" ","HOUSE_NO":"５７號","E_COORD97":166798.85999999999,"N_COORD97":2542930.27,"ADDRESS":"文南三街５７號","OBJECTID":80492},"geometry":{"x":166798.86000000034,"y":2542930.2700000033}},{"attributes":{"ID":80493,"DIS_CODE":0,"TOWNNAME":"南區","LI":"文華里","LIN":"24鄰","STREET":"文南三街","SECT":" ","MAREA":" ","LANE":" ","ALLEY":" ","HOUSE_NO":"５９號","E_COORD97":166795.32000000001,"N_COORD97":2542927.4900000002,"ADDRESS":"文南三街５９號","OBJECTID":80493},"geometry":{"x":166795.3200000003,"y":2542927.4900000021}},{"attributes":{"ID":80494,"DIS_CODE":0,"TOWNNAME":"南區","LI":"文華里","LIN":"24鄰","STREET":"文南三街","SECT":" ","MAREA":" ","LANE":" ","ALLEY":" ","HOUSE_NO":"６１號","E_COORD97":166792,"N_COORD97":2542924.48,"ADDRESS":"文南三街６１號","OBJECTID":80494},"geometry":{"x":166792,"y":2542924.4800000023}},{"attributes":{"ID":80495,"DIS_CODE":0,"TOWNNAME":"柳營區","LI":"重溪里","LIN":"3鄰","STREET":" ","SECT":" ","MAREA":"小腳腿","LANE":" ","ALLEY":" ","HOUSE_NO":"２７號之４","E_COORD97":185219.73999999999,"N_COORD97":2576520.3199999998,"ADDRESS":"小腳腿２７號之４","OBJECTID":80495},"geometry":{"x":185219.74000000209,"y":2576520.3200000022}},{"attributes":{"ID":80496,"DIS_CODE":0,"TOWNNAME":"柳營區","LI":"重溪里","LIN":"3鄰","STREET":" ","SECT":" ","MAREA":"小腳腿","LANE":" ","ALLEY":" ","HOUSE_NO":"２７號之７","E_COORD97":185222.89999999999,"N_COORD97":2576533.8900000001,"ADDRESS":"小腳腿２７號之７","OBJECTID":80496},"geometry":{"x":185222.9000000013,"y":2576533.8900000025}},{"attributes":{"ID":80497,"DIS_CODE":0,"TOWNNAME":"柳營區","LI":"重溪里","LIN":"3鄰","STREET":" ","SECT":" ","MAREA":"小腳腿","LANE":" ","ALLEY":" ","HOUSE_NO":"２７號之８","E_COORD97":185223.88,"N_COORD97":2576538.1899999999,"ADDRESS":"小腳腿２７號之８","OBJECTID":80497},"geometry":{"x":185223.88000000082,"y":2576538.1899999995}},{"attributes":{"ID":80498,"DIS_CODE":0,"TOWNNAME":"柳營區","LI":"重溪里","LIN":"3鄰","STREET":" ","SECT":" ","MAREA":"小腳腿","LANE":" ","ALLEY":" ","HOUSE_NO":"２７號","E_COORD97":185221.20999999999,"N_COORD97":2576502.5299999998,"ADDRESS":"小腳腿２７號","OBJECTID":80498},"geometry":{"x":185221.20999999996,"y":2576502.5299999993}},{"attributes":{"ID":80499,"DIS_CODE":0,"TOWNNAME":"永康區","LI":"中華里","LIN":"19鄰","STREET":"小東路","SECT":" ","MAREA":" ","LANE":"４７７巷","ALLEY":"４６弄","HOUSE_NO":"１號之１５","E_COORD97":171658.51999999999,"N_COORD97":2544537.0499999998,"ADDRESS":"小東路４７７巷４６弄１號之１５","OBJECTID":80499},"geometry":{"x":171658.51999999955,"y":2544537.0500000026}},{"attributes":{"ID":80500,"DIS_CODE":0,"TOWNNAME":"永康區","LI":"中華里","LIN":"19鄰","STREET":"小東路","SECT":" ","MAREA":" ","LANE":"４７７巷","ALLEY":"４６弄","HOUSE_NO":"１號之３６","E_COORD97":171658.47,"N_COORD97":2544537.0499999998,"ADDRESS":"小東路４７７巷４６弄１號之３６","OBJECTID":80500},"geometry":{"x":171658.47000000067,"y":2544537.0500000026}},{"attributes":{"ID":80501,"DIS_CODE":0,"TOWNNAME":"永康區","LI":"中華里","LIN":"19鄰","STREET":"小東路","SECT":" ","MAREA":" ","LANE":"４７７巷","ALLEY":"４６弄","HOUSE_NO":"３號之７","E_COORD97":171646,"N_COORD97":2544536.3999999999,"ADDRESS":"小東路４７７巷４６弄３號之７","OBJECTID":80501},"geometry":{"x":171646.00000000186,"y":2544536.4000000004}},{"attributes":{"ID":80502,"DIS_CODE":0,"TOWNNAME":"永康區","LI":"中華里","LIN":"19鄰","STREET":"小東路","SECT":" ","MAREA":" ","LANE":"４７７巷","ALLEY":"４６弄","HOUSE_NO":"１號之３０","E_COORD97":171658.42000000001,"N_COORD97":2544537.0499999998,"ADDRESS":"小東路４７７巷４６弄１號之３０","OBJECTID":80502},"geometry":{"x":171658.42000000179,"y":2544537.0500000026}},{"attributes":{"ID":80503,"DIS_CODE":0,"TOWNNAME":"永康區","LI":"中華里","LIN":"19鄰","STREET":"小東路","SECT":" ","MAREA":" ","LANE":"４７７巷","ALLEY":"４６弄","HOUSE_NO":"１號之３４","E_COORD97":171658.39000000001,"N_COORD97":2544537.0499999998,"ADDRESS":"小東路４７７巷４６弄１號之３４","OBJECTID":80503},"geometry":{"x":171658.39000000153,"y":2544537.0500000026}},{"attributes":{"ID":80504,"DIS_CODE":0,"TOWNNAME":"永康區","LI":"中華里","LIN":"19鄰","STREET":"小東路","SECT":" ","MAREA":" ","LANE":"４７７巷","ALLEY":"４６弄","HOUSE_NO":"３號之２","E_COORD97":171646.06,"N_COORD97":2544536.3999999999,"ADDRESS":"小東路４７７巷４６弄３號之２","OBJECTID":80504},"geometry":{"x":171646.06000000052,"y":2544536.4000000004}},{"attributes":{"ID":80505,"DIS_CODE":0,"TOWNNAME":"永康區","LI":"中華里","LIN":"19鄰","STREET":"小東路","SECT":" ","MAREA":" ","LANE":"４７７巷","ALLEY":"４６弄","HOUSE_NO":"３號之６","E_COORD97":171646.03,"N_COORD97":2544536.3999999999,"ADDRESS":"小東路４７７巷４６弄３號之６","OBJECTID":80505},"geometry":{"x":171646.02999999933,"y":2544536.4000000004}},{"attributes":{"ID":80506,"DIS_CODE":0,"TOWNNAME":"永康區","LI":"中華里","LIN":"19鄰","STREET":"小東路","SECT":" ","MAREA":" ","LANE":"４７７巷","ALLEY":"４６弄","HOUSE_NO":"１號之２２","E_COORD97":171658.5,"N_COORD97":2544537.0499999998,"ADDRESS":"小東路４７７巷４６弄１號之２２","OBJECTID":80506},"geometry":{"x":171658.50000000093,"y":2544537.0500000026}},{"attributes":{"ID":80507,"DIS_CODE":0,"TOWNNAME":"安南區","LI":"海東里","LIN":"19鄰","STREET":"海佃路","SECT":"二段","MAREA":" ","LANE":"２６５巷","ALLEY":"３０弄","HOUSE_NO":"６之１號","E_COORD97":166694.85623899999,"N_COORD97":2548634.6693099998,"ADDRESS":"海佃路二段２６５巷３０弄６之１號","OBJECTID":80507},"geometry":{"x":166694.8562390022,"y":2548634.6693120003}},{"attributes":{"ID":80508,"DIS_CODE":0,"TOWNNAME":"安南區","LI":"安東里","LIN":"19鄰","STREET":"安和路","SECT":"一段","MAREA":" ","LANE":"４９６巷","ALLEY":"１弄","HOUSE_NO":"３８號","E_COORD97":169571.56,"N_COORD97":2548475.3900000001,"ADDRESS":"安和路一段４９６巷１弄３８號","OBJECTID":80508},"geometry":{"x":169571.55999999959,"y":2548475.3900000025}},{"attributes":{"ID":80509,"DIS_CODE":0,"TOWNNAME":"安南區","LI":"安東里","LIN":"19鄰","STREET":"安和路","SECT":"一段","MAREA":" ","LANE":"４９６巷","ALLEY":"１弄","HOUSE_NO":"６６號","E_COORD97":169633.95000000001,"N_COORD97":2548479.8199999998,"ADDRESS":"安和路一段４９６巷１弄６６號","OBJECTID":80509},"geometry":{"x":169633.95000000019,"y":2548479.8200000003}},{"attributes":{"ID":80510,"DIS_CODE":0,"TOWNNAME":"安南區","LI":"安東里","LIN":"19鄰","STREET":"安和路","SECT":"一段","MAREA":" ","LANE":"４９６巷","ALLEY":"１弄","HOUSE_NO":"７８號","E_COORD97":169660.82999999999,"N_COORD97":2548482.8300000001,"ADDRESS":"安和路一段４９６巷１弄７８號","OBJECTID":80510},"geometry":{"x":169660.83000000101,"y":2548482.8300000001}},{"attributes":{"ID":80511,"DIS_CODE":0,"TOWNNAME":"中西區","LI":"小西里","LIN":"5鄰","STREET":"府前路","SECT":"一段","MAREA":" ","LANE":"３７１巷","ALLEY":"１９弄","HOUSE_NO":"１０號","E_COORD97":167885.54000000001,"N_COORD97":2543289.3900000001,"ADDRESS":"府前路一段３７１巷１９弄１０號","OBJECTID":80511},"geometry":{"x":167885.54000000004,"y":2543289.3900000006}},{"attributes":{"ID":80512,"DIS_CODE":0,"TOWNNAME":"東區","LI":"富強里","LIN":"19鄰","STREET":"裕農路","SECT":" ","MAREA":" ","LANE":"２８８巷","ALLEY":"１１０弄","HOUSE_NO":"８號","E_COORD97":170993.66,"N_COORD97":2542899.2799999998,"ADDRESS":"裕農路２８８巷１１０弄８號","OBJECTID":80512},"geometry":{"x":170993.66000000015,"y":2542899.2799999975}},{"attributes":{"ID":80513,"DIS_CODE":0,"TOWNNAME":"安南區","LI":"青草里","LIN":"7鄰","STREET":"青砂街","SECT":"二段","MAREA":" ","LANE":" ","ALLEY":" ","HOUSE_NO":"４４０號","E_COORD97":158855.56,"N_COORD97":2552952.6499999999,"ADDRESS":"青砂街二段４４０號","OBJECTID":80513},"geometry":{"x":158855.56000000052,"y":2552952.6500000004}},{"attributes":{"ID":80514,"DIS_CODE":0,"TOWNNAME":"安南區","LI":"青草里","LIN":"7鄰","STREET":"青砂街","SECT":"二段","MAREA":" ","LANE":" ","ALLEY":" ","HOUSE_NO":"４４５號","E_COORD97":158857.64999999999,"N_COORD97":2552928.5899999999,"ADDRESS":"青砂街二段４４５號","OBJECTID":80514},"geometry":{"x":158857.6500000013,"y":2552928.5899999999}},{"attributes":{"ID":80515,"DIS_CODE":0,"TOWNNAME":"安南區","LI":"青草里","LIN":"7鄰","STREET":"青砂街","SECT":"二段","MAREA":" ","LANE":" ","ALLEY":" ","HOUSE_NO":"４４６號","E_COORD97":158836.95999999999,"N_COORD97":2552948.4700000002,"ADDRESS":"青砂街二段４４６號","OBJECTID":80515},"geometry":{"x":158836.95999999996,"y":2552948.4699999988}},{"attributes":{"ID":80516,"DIS_CODE":0,"TOWNNAME":"安南區","LI":"青草里","LIN":"7鄰","STREET":"青砂街","SECT":"二段","MAREA":" ","LANE":" ","ALLEY":" ","HOUSE_NO":"４５４號","E_COORD97":158820.45000000001,"N_COORD97":2552944.75,"ADDRESS":"青砂街二段４５４號","OBJECTID":80516},"geometry":{"x":158820.45000000019,"y":2552944.75}},{"attributes":{"ID":80517,"DIS_CODE":0,"TOWNNAME":"安南區","LI":"公\u25A0里","LIN":"7鄰","STREET":"安興街","SECT":" ","MAREA":" ","LANE":" ","ALLEY":" ","HOUSE_NO":"１９５號","E_COORD97":163987.60999999999,"N_COORD97":2552081.27,"ADDRESS":"安興街１９５號","OBJECTID":80517},"geometry":{"x":163987.61000000127,"y":2552081.2700000014}},{"attributes":{"ID":80518,"DIS_CODE":0,"TOWNNAME":"南區","LI":"文華里","LIN":"24鄰","STREET":"建南路","SECT":" ","MAREA":" ","LANE":" ","ALLEY":" ","HOUSE_NO":"１６６號","E_COORD97":166801.72,"N_COORD97":2542872.6699999999,"ADDRESS":"建南路１６６號","OBJECTID":80518},"geometry":{"x":166801.72000000067,"y":2542872.6699999999}},{"attributes":{"ID":80519,"DIS_CODE":0,"TOWNNAME":"安南區","LI":"淵東里","LIN":"7鄰","STREET":"本原街","SECT":"三段","MAREA":" ","LANE":" ","ALLEY":" ","HOUSE_NO":"１８９號","E_COORD97":165473.73999999999,"N_COORD97":2550325.8599999999,"ADDRESS":"本原街三段１８９號","OBJECTID":80519},"geometry":{"x":165473.74000000022,"y":2550325.8599999994}},{"attributes":{"ID":80520,"DIS_CODE":0,"TOWNNAME":"柳營區","LI":"重溪里","LIN":"3鄰","STREET":" ","SECT":" ","MAREA":"小腳腿","LANE":" ","ALLEY":" ","HOUSE_NO":"２９號","E_COORD97":185204.82999999999,"N_COORD97":2576537.7400000002,"ADDRESS":"小腳腿２９號","OBJECTID":80520},"geometry":{"x":185204.83000000007,"y":2576537.7400000021}},{"attributes":{"ID":80521,"DIS_CODE":0,"TOWNNAME":"柳營區","LI":"重溪里","LIN":"3鄰","STREET":" ","SECT":" ","MAREA":"小腳腿","LANE":" ","ALLEY":" ","HOUSE_NO":"３０號","E_COORD97":185194.73999999999,"N_COORD97":2576543.0099999998,"ADDRESS":"小腳腿３０號","OBJECTID":80521},"geometry":{"x":185194.74000000115,"y":2576543.0099999998}},{"attributes":{"ID":80522,"DIS_CODE":0,"TOWNNAME":"南區","LI":"文華里","LIN":"24鄰","STREET":"文南三街","SECT":" ","MAREA":" ","LANE":" ","ALLEY":" ","HOUSE_NO":"６３號","E_COORD97":166787.92999999999,"N_COORD97":2542916.8799999999,"ADDRESS":"文南三街６３號","OBJECTID":80522},"geometry":{"x":166787.93000000156,"y":2542916.8800000008}},{"attributes":{"ID":80523,"DIS_CODE":0,"TOWNNAME":"南區","LI":"文華里","LIN":"24鄰","STREET":"文南三街","SECT":" ","MAREA":" ","LANE":" ","ALLEY":" ","HOUSE_NO":"６５號","E_COORD97":166787.39999999999,"N_COORD97":2542912.2799999998,"ADDRESS":"文南三街６５號","OBJECTID":80523},"geometry":{"x":166787.4000000013,"y":2542912.2799999993}},{"attributes":{"ID":80524,"DIS_CODE":0,"TOWNNAME":"東區","LI":"富強里","LIN":"19鄰","STREET":"裕農路","SECT":" ","MAREA":" ","LANE":"２８８巷","ALLEY":"１１０弄","HOUSE_NO":"９號","E_COORD97":171015,"N_COORD97":2542912.8199999998,"ADDRESS":"裕農路２８８巷１１０弄９號","OBJECTID":80524},"geometry":{"x":171015,"y":2542912.8200000003}},{"attributes":{"ID":80525,"DIS_CODE":0,"TOWNNAME":"東區","LI":"富強里","LIN":"19鄰","STREET":"裕農路","SECT":" ","MAREA":" ","LANE":"２８８巷","ALLEY":"１９６弄","HOUSE_NO":"２８號","E_COORD97":171021.51999999999,"N_COORD97":2542849.7000000002,"ADDRESS":"裕農路２８８巷１９６弄２８號","OBJECTID":80525},"geometry":{"x":171021.51999999862,"y":2542849.7000000011}},{"attributes":{"ID":80526,"DIS_CODE":0,"TOWNNAME":"東區","LI":"富強里","LIN":"19鄰","STREET":"裕農路","SECT":" ","MAREA":" ","LANE":"２８８巷","ALLEY":"１９６弄","HOUSE_NO":"３０號","E_COORD97":171017.35000000001,"N_COORD97":2542851.5699999998,"ADDRESS":"裕農路２８８巷１９６弄３０號","OBJECTID":80526},"geometry":{"x":171017.34999999963,"y":2542851.5700000022}},{"attributes":{"ID":80527,"DIS_CODE":0,"TOWNNAME":"安南區","LI":"淵中里","LIN":"19鄰","STREET":"安中路","SECT":"四段","MAREA":" ","LANE":"１９７巷","ALLEY":"４９弄","HOUSE_NO":"１號之１","E_COORD97":164747.25625499999,"N_COORD97":2549974.3543400001,"ADDRESS":"安中路四段１９７巷４９弄１號之１","OBJECTID":80527},"geometry":{"x":164747.25625500176,"y":2549974.3543369994}},{"attributes":{"ID":80528,"DIS_CODE":0,"TOWNNAME":"永康區","LI":"中華里","LIN":"19鄰","STREET":"小東路","SECT":" ","MAREA":" ","LANE":"４７７巷","ALLEY":"４６弄","HOUSE_NO":"１號之８","E_COORD97":171657.26000000001,"N_COORD97":2544537.0499999998,"ADDRESS":"小東路４７７巷４６弄１號之８","OBJECTID":80528},"geometry":{"x":171657.25999999978,"y":2544537.0500000026}},{"attributes":{"ID":80529,"DIS_CODE":0,"TOWNNAME":"永康區","LI":"中華里","LIN":"19鄰","STREET":"小東路","SECT":" ","MAREA":" ","LANE":"４７７巷","ALLEY":"４６弄","HOUSE_NO":"１號之３","E_COORD97":171657.20999999999,"N_COORD97":2544537.0499999998,"ADDRESS":"小東路４７７巷４６弄１號之３","OBJECTID":80529},"geometry":{"x":171657.21000000089,"y":2544537.0500000026}},{"attributes":{"ID":80530,"DIS_CODE":0,"TOWNNAME":"永康區","LI":"勝利里","LIN":"19鄰","STREET":"勝利街","SECT":" ","MAREA":" ","LANE":"１９７巷","ALLEY":"２５弄","HOUSE_NO":"３３號","E_COORD97":171288.92000000001,"N_COORD97":2545015.29,"ADDRESS":"勝利街１９７巷２５弄３３號","OBJECTID":80530},"geometry":{"x":171288.92000000179,"y":2545015.290000001}},{"attributes":{"ID":80531,"DIS_CODE":0,"TOWNNAME":"永康區","LI":"勝利里","LIN":"19鄰","STREET":"勝利街","SECT":" ","MAREA":" ","LANE":"１９７巷","ALLEY":"２５弄","HOUSE_NO":"１０號","E_COORD97":171245.95000000001,"N_COORD97":2545100.6800000002,"ADDRESS":"勝利街１９７巷２５弄１０號","OBJECTID":80531},"geometry":{"x":171245.95000000019,"y":2545100.6799999978}},{"attributes":{"ID":80532,"DIS_CODE":0,"TOWNNAME":"永康區","LI":"勝利里","LIN":"19鄰","STREET":"勝利街","SECT":" ","MAREA":" ","LANE":"１９７巷","ALLEY":"２５弄","HOUSE_NO":"２８號","E_COORD97":171256.47,"N_COORD97":2545050.2799999998,"ADDRESS":"勝利街１９７巷２５弄２８號","OBJECTID":80532},"geometry":{"x":171256.47000000067,"y":2545050.2800000012}},{"attributes":{"ID":80533,"DIS_CODE":0,"TOWNNAME":"永康區","LI":"中華里","LIN":"19鄰","STREET":"小東路","SECT":" ","MAREA":" ","LANE":"４７７巷","ALLEY":"４６弄","HOUSE_NO":"３號之２４","E_COORD97":171647.20000000001,"N_COORD97":2544536.3999999999,"ADDRESS":"小東路４７７巷４６弄３號之２４","OBJECTID":80533},"geometry":{"x":171647.20000000112,"y":2544536.4000000004}},{"attributes":{"ID":80534,"DIS_CODE":0,"TOWNNAME":"永康區","LI":"中華里","LIN":"19鄰","STREET":"小東路","SECT":" ","MAREA":" ","LANE":"４７７巷","ALLEY":"４６弄","HOUSE_NO":"３號之１９","E_COORD97":171647.26000000001,"N_COORD97":2544536.3999999999,"ADDRESS":"小東路４７７巷４６弄３號之１９","OBJECTID":80534},"geometry":{"x":171647.25999999978,"y":2544536.4000000004}},{"attributes":{"ID":80535,"DIS_CODE":0,"TOWNNAME":"永康區","LI":"中華里","LIN":"19鄰","STREET":"小東路","SECT":" ","MAREA":" ","LANE":"４７７巷","ALLEY":"４６弄","HOUSE_NO":"３號之１３","E_COORD97":171647.26999999999,"N_COORD97":2544536.3999999999,"ADDRESS":"小東路４７７巷４６弄３號之１３","OBJECTID":80535},"geometry":{"x":171647.27000000142,"y":2544536.4000000004}},{"attributes":{"ID":80536,"DIS_CODE":0,"TOWNNAME":"永康區","LI":"中華里","LIN":"19鄰","STREET":"小東路","SECT":" ","MAREA":" ","LANE":"４７７巷","ALLEY":"４６弄","HOUSE_NO":"５號之３５","E_COORD97":171654.47,"N_COORD97":2544535.6600000001,"ADDRESS":"小東路４７７巷４６弄５號之３５","OBJECTID":80536},"geometry":{"x":171654.4700000016,"y":2544535.660000002}},{"attributes":{"ID":80537,"DIS_CODE":0,"TOWNNAME":"永康區","LI":"中華里","LIN":"19鄰","STREET":"小東路","SECT":" ","MAREA":" ","LANE":"４７７巷","ALLEY":"４６弄","HOUSE_NO":"３號之４","E_COORD97":171645.95000000001,"N_COORD97":2544536.3999999999,"ADDRESS":"小東路４７７巷４６弄３號之４","OBJECTID":80537},"geometry":{"x":171645.95000000019,"y":2544536.4000000004}},{"attributes":{"ID":80538,"DIS_CODE":0,"TOWNNAME":"東區","LI":"富裕里","LIN":"19鄰","STREET":"東門路","SECT":"二段","MAREA":" ","LANE":"３０１巷","ALLEY":"５３弄","HOUSE_NO":"１３號","E_COORD97":170827.97,"N_COORD97":2542769.23,"ADDRESS":"東門路二段３０１巷５３弄１３號","OBJECTID":80538},"geometry":{"x":170827.97000000067,"y":2542769.2300000023}},{"attributes":{"ID":80539,"DIS_CODE":0,"TOWNNAME":"東區","LI":"富裕里","LIN":"19鄰","STREET":"東門路","SECT":"二段","MAREA":" ","LANE":"３０１巷","ALLEY":"５３弄","HOUSE_NO":"１５號","E_COORD97":170832.07000000001,"N_COORD97":2542770.4399999999,"ADDRESS":"東門路二段３０１巷５３弄１５號","OBJECTID":80539},"geometry":{"x":170832.0700000003,"y":2542770.4400000013}},{"attributes":{"ID":80540,"DIS_CODE":0,"TOWNNAME":"東區","LI":"富裕里","LIN":"19鄰","STREET":"東門路","SECT":"二段","MAREA":" ","LANE":"３０１巷","ALLEY":"５３弄","HOUSE_NO":"１７號","E_COORD97":170837.22,"N_COORD97":2542771.3300000001,"ADDRESS":"東門路二段３０１巷５３弄１７號","OBJECTID":80540},"geometry":{"x":170837.21999999974,"y":2542771.3300000019}},{"attributes":{"ID":80541,"DIS_CODE":0,"TOWNNAME":"東區","LI":"富裕里","LIN":"19鄰","STREET":"東門路","SECT":"二段","MAREA":" ","LANE":"３０１巷","ALLEY":"５３弄","HOUSE_NO":"１９號","E_COORD97":170847.41,"N_COORD97":2542767.46,"ADDRESS":"東門路二段３０１巷５３弄１９號","OBJECTID":80541},"geometry":{"x":170847.41000000108,"y":2542767.459999999}},{"attributes":{"ID":80542,"DIS_CODE":0,"TOWNNAME":"東區","LI":"富裕里","LIN":"19鄰","STREET":"東門路","SECT":"二段","MAREA":" ","LANE":"３０１巷","ALLEY":"５３弄","HOUSE_NO":"２０號","E_COORD97":170868.42999999999,"N_COORD97":2542775.6200000001,"ADDRESS":"東門路二段３０１巷５３弄２０號","OBJECTID":80542},"geometry":{"x":170868.43000000063,"y":2542775.620000001}},{"attributes":{"ID":80543,"DIS_CODE":0,"TOWNNAME":"安南區","LI":"公\u25A0里","LIN":"7鄰","STREET":"安興街","SECT":" ","MAREA":" ","LANE":" ","ALLEY":" ","HOUSE_NO":"１６２號","E_COORD97":164087.87,"N_COORD97":2552101.48,"ADDRESS":"安興街１６２號","OBJECTID":80543},"geometry":{"x":164087.87000000011,"y":2552101.4800000023}},{"attributes":{"ID":80544,"DIS_CODE":0,"TOWNNAME":"南區","LI":"文華里","LIN":"24鄰","STREET":"文南三街","SECT":" ","MAREA":" ","LANE":" ","ALLEY":" ","HOUSE_NO":"６７號","E_COORD97":166786.64999999999,"N_COORD97":2542908,"ADDRESS":"文南三街６７號","OBJECTID":80544},"geometry":{"x":166786.65000000037,"y":2542908}},{"attributes":{"ID":80545,"DIS_CODE":0,"TOWNNAME":"南區","LI":"文華里","LIN":"24鄰","STREET":"文南三街","SECT":" ","MAREA":" ","LANE":" ","ALLEY":" ","HOUSE_NO":"６９號","E_COORD97":166786.22,"N_COORD97":2542902.7599999998,"ADDRESS":"文南三街６９號","OBJECTID":80545},"geometry":{"x":166786.22000000067,"y":2542902.7599999998}},{"attributes":{"ID":80546,"DIS_CODE":0,"TOWNNAME":"南區","LI":"文華里","LIN":"24鄰","STREET":"文南三街","SECT":" ","MAREA":" ","LANE":" ","ALLEY":" ","HOUSE_NO":"７１號","E_COORD97":166785.47,"N_COORD97":2542898.9100000001,"ADDRESS":"文南三街７１號","OBJECTID":80546},"geometry":{"x":166785.46999999974,"y":2542898.9100000001}},{"attributes":{"ID":80547,"DIS_CODE":0,"TOWNNAME":"南區","LI":"文華里","LIN":"24鄰","STREET":"文南三街","SECT":" ","MAREA":" ","LANE":" ","ALLEY":" ","HOUSE_NO":"７３號","E_COORD97":166785.04000000001,"N_COORD97":2542893.9900000002,"ADDRESS":"文南三街７３號","OBJECTID":80547},"geometry":{"x":166785.04000000004,"y":2542893.9900000002}},{"attributes":{"ID":80548,"DIS_CODE":0,"TOWNNAME":"南區","LI":"文華里","LIN":"24鄰","STREET":"建南路","SECT":" ","MAREA":" ","LANE":" ","ALLEY":" ","HOUSE_NO":"１６０號","E_COORD97":166816.16,"N_COORD97":2542871.29,"ADDRESS":"建南路１６０號","OBJECTID":80548},"geometry":{"x":166816.16000000108,"y":2542871.2899999991}},{"attributes":{"ID":80549,"DIS_CODE":0,"TOWNNAME":"南區","LI":"文華里","LIN":"24鄰","STREET":"建南路","SECT":" ","MAREA":" ","LANE":" ","ALLEY":" ","HOUSE_NO":"１６４號","E_COORD97":166806.07999999999,"N_COORD97":2542872.46,"ADDRESS":"建南路１６４號","OBJECTID":80549},"geometry":{"x":166806.08000000101,"y":2542872.4600000009}},{"attributes":{"ID":80550,"DIS_CODE":0,"TOWNNAME":"鹽水區","LI":"汫水里","LIN":"12鄰","STREET":" ","SECT":" ","MAREA":"溪州寮","LANE":" ","ALLEY":" ","HOUSE_NO":"９號","E_COORD97":176387.82000000001,"N_COORD97":2582251.1000000001,"ADDRESS":"溪州寮９號","OBJECTID":80550},"geometry":{"x":176387.82000000123,"y":2582251.1000000015}},{"attributes":{"ID":80551,"DIS_CODE":0,"TOWNNAME":"西港區","LI":"新復里","LIN":"3鄰","STREET":" ","SECT":" ","MAREA":"新港","LANE":" ","ALLEY":" ","HOUSE_NO":"２１之３號","E_COORD97":166514.79999999999,"N_COORD97":2556364.6800000002,"ADDRESS":"新港２１之３號","OBJECTID":80551},"geometry":{"x":166514.80000000075,"y":2556364.6800000016}},{"attributes":{"ID":80552,"DIS_CODE":0,"TOWNNAME":"西港區","LI":"檨林里","LIN":"3鄰","STREET":" ","SECT":" ","MAREA":"檨子林","LANE":" ","ALLEY":" ","HOUSE_NO":"２１號","E_COORD97":171446.89999999999,"N_COORD97":2559501.71,"ADDRESS":"檨子林２１號","OBJECTID":80552},"geometry":{"x":171446.90000000037,"y":2559501.7100000028}},{"attributes":{"ID":80553,"DIS_CODE":0,"TOWNNAME":"西港區","LI":"檨林里","LIN":"3鄰","STREET":" ","SECT":" ","MAREA":"檨子林","LANE":" ","ALLEY":" ","HOUSE_NO":"２２號之１","E_COORD97":171431.25,"N_COORD97":2559492.3100000001,"ADDRESS":"檨子林２２號之１","OBJECTID":80553},"geometry":{"x":171431.25000000093,"y":2559492.3100000005}},{"attributes":{"ID":80554,"DIS_CODE":0,"TOWNNAME":"西港區","LI":"檨林里","LIN":"3鄰","STREET":" ","SECT":" ","MAREA":"檨子林","LANE":" ","ALLEY":" ","HOUSE_NO":"２２號","E_COORD97":171463.07999999999,"N_COORD97":2559483.71,"ADDRESS":"檨子林２２號","OBJECTID":80554},"geometry":{"x":171463.08000000101,"y":2559483.709999999}},{"attributes":{"ID":80555,"DIS_CODE":0,"TOWNNAME":"西港區","LI":"檨林里","LIN":"3鄰","STREET":" ","SECT":" ","MAREA":"檨子林","LANE":" ","ALLEY":" ","HOUSE_NO":"２３號","E_COORD97":171460.51000000001,"N_COORD97":2559461.7999999998,"ADDRESS":"檨子林２３號","OBJECTID":80555},"geometry":{"x":171460.50999999978,"y":2559461.8000000007}},{"attributes":{"ID":80556,"DIS_CODE":0,"TOWNNAME":"西港區","LI":"檨林里","LIN":"3鄰","STREET":" ","SECT":" ","MAREA":"檨子林","LANE":" ","ALLEY":" ","HOUSE_NO":"２４之１號","E_COORD97":171438.14000000001,"N_COORD97":2559412.8599999999,"ADDRESS":"檨子林２４之１號","OBJECTID":80556},"geometry":{"x":171438.1400000006,"y":2559412.8599999994}},{"attributes":{"ID":80557,"DIS_CODE":0,"TOWNNAME":"西港區","LI":"檨林里","LIN":"3鄰","STREET":" ","SECT":" ","MAREA":"檨子林","LANE":" ","ALLEY":" ","HOUSE_NO":"２４號之１","E_COORD97":171438.14000000001,"N_COORD97":2559412.8599999999,"ADDRESS":"檨子林２４號之１","OBJECTID":80557},"geometry":{"x":171438.1400000006,"y":2559412.8599999994}},{"attributes":{"ID":80558,"DIS_CODE":0,"TOWNNAME":"西港區","LI":"檨林里","LIN":"3鄰","STREET":" ","SECT":" ","MAREA":"檨子林","LANE":" ","ALLEY":" ","HOUSE_NO":"２４號","E_COORD97":171435.54000000001,"N_COORD97":2559439.7599999998,"ADDRESS":"檨子林２４號","OBJECTID":80558},"geometry":{"x":171435.53999999911,"y":2559439.7600000016}},{"attributes":{"ID":80559,"DIS_CODE":0,"TOWNNAME":"西港區","LI":"檨林里","LIN":"3鄰","STREET":" ","SECT":" ","MAREA":"檨子林","LANE":" ","ALLEY":" ","HOUSE_NO":"２５號","E_COORD97":171458.26999999999,"N_COORD97":2559427.8300000001,"ADDRESS":"檨子林２５號","OBJECTID":80559},"geometry":{"x":171458.26999999955,"y":2559427.8299999982}},{"attributes":{"ID":80560,"DIS_CODE":0,"TOWNNAME":"西港區","LI":"檨林里","LIN":"3鄰","STREET":" ","SECT":" ","MAREA":"檨子林","LANE":" ","ALLEY":" ","HOUSE_NO":"２６號","E_COORD97":171457.06,"N_COORD97":2559398.3900000001,"ADDRESS":"檨子林２６號","OBJECTID":80560},"geometry":{"x":171457.06000000145,"y":2559398.3900000025}},{"attributes":{"ID":80561,"DIS_CODE":0,"TOWNNAME":"西港區","LI":"檨林里","LIN":"3鄰","STREET":" ","SECT":" ","MAREA":"檨子林","LANE":" ","ALLEY":" ","HOUSE_NO":"２７號之１","E_COORD97":171445.44,"N_COORD97":2559349.6499999999,"ADDRESS":"檨子林２７號之１","OBJECTID":80561},"geometry":{"x":171445.44000000134,"y":2559349.6500000022}},{"attributes":{"ID":80562,"DIS_CODE":0,"TOWNNAME":"西港區","LI":"檨林里","LIN":"3鄰","STREET":" ","SECT":" ","MAREA":"檨子林","LANE":" ","ALLEY":" ","HOUSE_NO":"２７號","E_COORD97":171457.67999999999,"N_COORD97":2559368.6800000002,"ADDRESS":"檨子林２７號","OBJECTID":80562},"geometry":{"x":171457.6799999997,"y":2559368.6800000016}},{"attributes":{"ID":80563,"DIS_CODE":0,"TOWNNAME":"北門區","LI":"永華里","LIN":"3鄰","STREET":" ","SECT":" ","MAREA":"井子\u25A0","LANE":" ","ALLEY":" ","HOUSE_NO":"２３號","E_COORD97":159925.37,"N_COORD97":2572948.2799999998,"ADDRESS":"井子\u25A0２３號","OBJECTID":80563},"geometry":{"x":159925.37000000104,"y":2572948.2800000031}},{"attributes":{"ID":80564,"DIS_CODE":0,"TOWNNAME":"北門區","LI":"永華里","LIN":"3鄰","STREET":" ","SECT":" ","MAREA":"井子\u25A0","LANE":" ","ALLEY":" ","HOUSE_NO":"２４號","E_COORD97":159910.12023100001,"N_COORD97":2572952.3553999998,"ADDRESS":"井子\u25A0２４號","OBJECTID":80564},"geometry":{"x":159910.12023099978,"y":2572952.3553960044}},{"attributes":{"ID":80565,"DIS_CODE":0,"TOWNNAME":"東區","LI":"富裕里","LIN":"19鄰","STREET":"東門路","SECT":"二段","MAREA":" ","LANE":"３０１巷","ALLEY":"５３弄","HOUSE_NO":"２１號","E_COORD97":170846.51999999999,"N_COORD97":2542771.9399999999,"ADDRESS":"東門路二段３０１巷５３弄２１號","OBJECTID":80565},"geometry":{"x":170846.51999999955,"y":2542771.9399999995}},{"attributes":{"ID":80566,"DIS_CODE":0,"TOWNNAME":"東區","LI":"富裕里","LIN":"19鄰","STREET":"東門路","SECT":"二段","MAREA":" ","LANE":"３０１巷","ALLEY":"５３弄","HOUSE_NO":"２２號","E_COORD97":170870.98000000001,"N_COORD97":2542784.7000000002,"ADDRESS":"東門路二段３０１巷５３弄２２號","OBJECTID":80566},"geometry":{"x":170870.98000000138,"y":2542784.700000003}},{"attributes":{"ID":80567,"DIS_CODE":0,"TOWNNAME":"東區","LI":"富裕里","LIN":"19鄰","STREET":"東門路","SECT":"二段","MAREA":" ","LANE":"３０１巷","ALLEY":"５３弄","HOUSE_NO":"２３號","E_COORD97":170846.47,"N_COORD97":2542776.7000000002,"ADDRESS":"東門路二段３０１巷５３弄２３號","OBJECTID":80567},"geometry":{"x":170846.47000000067,"y":2542776.6999999993}},{"attributes":{"ID":80568,"DIS_CODE":0,"TOWNNAME":"東區","LI":"富裕里","LIN":"19鄰","STREET":"東門路","SECT":"二段","MAREA":" ","LANE":"３０１巷","ALLEY":"５３弄","HOUSE_NO":"２４號","E_COORD97":170871.59,"N_COORD97":2542794.4900000002,"ADDRESS":"東門路二段３０１巷５３弄２４號","OBJECTID":80568},"geometry":{"x":170871.58999999985,"y":2542794.4900000021}},{"attributes":{"ID":80569,"DIS_CODE":0,"TOWNNAME":"東區","LI":"富裕里","LIN":"19鄰","STREET":"東門路","SECT":"二段","MAREA":" ","LANE":"３０１巷","ALLEY":"５３弄","HOUSE_NO":"２５號","E_COORD97":170845.79999999999,"N_COORD97":2542781.3199999998,"ADDRESS":"東門路二段３０１巷５３弄２５號","OBJECTID":80569},"geometry":{"x":170845.80000000075,"y":2542781.3199999984}},{"attributes":{"ID":80570,"DIS_CODE":0,"TOWNNAME":"北門區","LI":"永華里","LIN":"3鄰","STREET":" ","SECT":" ","MAREA":"井子\u25A0","LANE":" ","ALLEY":" ","HOUSE_NO":"２５號","E_COORD97":159876.45000000001,"N_COORD97":2572967.7400000002,"ADDRESS":"井子\u25A0２５號","OBJECTID":80570},"geometry":{"x":159876.45000000019,"y":2572967.7400000021}},{"attributes":{"ID":80571,"DIS_CODE":0,"TOWNNAME":"北門區","LI":"永華里","LIN":"3鄰","STREET":" ","SECT":" ","MAREA":"井子\u25A0","LANE":" ","ALLEY":" ","HOUSE_NO":"２６號之１","E_COORD97":159853.12,"N_COORD97":2572970.4700000002,"ADDRESS":"井子\u25A0２６號之１","OBJECTID":80571},"geometry":{"x":159853.12000000011,"y":2572970.4700000025}},{"attributes":{"ID":80572,"DIS_CODE":0,"TOWNNAME":"北門區","LI":"永華里","LIN":"3鄰","STREET":" ","SECT":" ","MAREA":"井子\u25A0","LANE":" ","ALLEY":" ","HOUSE_NO":"２６號","E_COORD97":159857.42999999999,"N_COORD97":2572976.6299999999,"ADDRESS":"井子\u25A0２６號","OBJECTID":80572},"geometry":{"x":159857.4299999997,"y":2572976.6300000008}},{"attributes":{"ID":80573,"DIS_CODE":0,"TOWNNAME":"北門區","LI":"永華里","LIN":"3鄰","STREET":" ","SECT":" ","MAREA":"井子\u25A0","LANE":" ","ALLEY":" ","HOUSE_NO":"２８號","E_COORD97":159882.62,"N_COORD97":2572983.5099999998,"ADDRESS":"井子\u25A0２８號","OBJECTID":80573},"geometry":{"x":159882.62000000104,"y":2572983.5099999998}},{"attributes":{"ID":80574,"DIS_CODE":0,"TOWNNAME":"東區","LI":"富裕里","LIN":"19鄰","STREET":"東門路","SECT":"二段","MAREA":" ","LANE":"３０１巷","ALLEY":"５３弄","HOUSE_NO":"２６號","E_COORD97":170867,"N_COORD97":2542800.7599999998,"ADDRESS":"東門路二段３０１巷５３弄２６號","OBJECTID":80574},"geometry":{"x":170867.00000000093,"y":2542800.7599999998}},{"attributes":{"ID":80575,"DIS_CODE":0,"TOWNNAME":"東區","LI":"富裕里","LIN":"19鄰","STREET":"東門路","SECT":"二段","MAREA":" ","LANE":"３０１巷","ALLEY":"５３弄","HOUSE_NO":"２６號地下層","E_COORD97":170867,"N_COORD97":2542800.7599999998,"ADDRESS":"東門路二段３０１巷５３弄２６號地下層","OBJECTID":80575},"geometry":{"x":170867.00000000093,"y":2542800.7599999998}},{"attributes":{"ID":80576,"DIS_CODE":0,"TOWNNAME":"安南區","LI":"城北里","LIN":"7鄰","STREET":"安中路","SECT":"六段","MAREA":" ","LANE":" ","ALLEY":" ","HOUSE_NO":"４５８號","E_COORD97":161085.23999999999,"N_COORD97":2551341.1600000001,"ADDRESS":"安中路六段４５８號","OBJECTID":80576},"geometry":{"x":161085.23999999929,"y":2551341.160000002}},{"attributes":{"ID":80577,"DIS_CODE":0,"TOWNNAME":"安南區","LI":"城北里","LIN":"7鄰","STREET":"安中路","SECT":"六段","MAREA":" ","LANE":" ","ALLEY":" ","HOUSE_NO":"４６０號","E_COORD97":161079.56,"N_COORD97":2551339.96,"ADDRESS":"安中路六段４６０號","OBJECTID":80577},"geometry":{"x":161079.56000000052,"y":2551339.9600000028}},{"attributes":{"ID":80578,"DIS_CODE":0,"TOWNNAME":"安南區","LI":"公\u25A0里","LIN":"7鄰","STREET":"安興街","SECT":" ","MAREA":" ","LANE":" ","ALLEY":" ","HOUSE_NO":"１８２號","E_COORD97":164056.17000000001,"N_COORD97":2552086.4300000002,"ADDRESS":"安興街１８２號","OBJECTID":80578},"geometry":{"x":164056.17000000086,"y":2552086.4299999997}},{"attributes":{"ID":80579,"DIS_CODE":0,"TOWNNAME":"北門區","LI":"永華里","LIN":"3鄰","STREET":" ","SECT":" ","MAREA":"井子\u25A0","LANE":" ","ALLEY":" ","HOUSE_NO":"２９號","E_COORD97":159901.66,"N_COORD97":2572971.23,"ADDRESS":"井子\u25A0２９號","OBJECTID":80579},"geometry":{"x":159901.66000000108,"y":2572971.2300000023}},{"attributes":{"ID":80580,"DIS_CODE":0,"TOWNNAME":"北門區","LI":"永華里","LIN":"3鄰","STREET":" ","SECT":" ","MAREA":"井子\u25A0","LANE":" ","ALLEY":" ","HOUSE_NO":"３０號","E_COORD97":159917.98000000001,"N_COORD97":2572964.1699999999,"ADDRESS":"井子\u25A0３０號","OBJECTID":80580},"geometry":{"x":159917.98000000138,"y":2572964.1700000018}},{"attributes":{"ID":80581,"DIS_CODE":0,"TOWNNAME":"北門區","LI":"永華里","LIN":"3鄰","STREET":" ","SECT":" ","MAREA":"井子\u25A0","LANE":" ","ALLEY":" ","HOUSE_NO":"３１號","E_COORD97":159930.06,"N_COORD97":2572961.3900000001,"ADDRESS":"井子\u25A0３１號","OBJECTID":80581},"geometry":{"x":159930.06000000052,"y":2572961.3900000006}},{"attributes":{"ID":80582,"DIS_CODE":0,"TOWNNAME":"北門區","LI":"永華里","LIN":"3鄰","STREET":" ","SECT":" ","MAREA":"井子\u25A0","LANE":" ","ALLEY":" ","HOUSE_NO":"３２號","E_COORD97":159928.94,"N_COORD97":2572998.2200000002,"ADDRESS":"井子\u25A0３２號","OBJECTID":80582},"geometry":{"x":159928.94000000041,"y":2572998.2200000025}},{"attributes":{"ID":80583,"DIS_CODE":0,"TOWNNAME":"北門區","LI":"永華里","LIN":"3鄰","STREET":" ","SECT":" ","MAREA":"井子\u25A0","LANE":" ","ALLEY":" ","HOUSE_NO":"３３號之１","E_COORD97":159905.17999999999,"N_COORD97":2572991.0499999998,"ADDRESS":"井子\u25A0３３號之１","OBJECTID":80583},"geometry":{"x":159905.1799999997,"y":2572991.0500000007}},{"attributes":{"ID":80584,"DIS_CODE":0,"TOWNNAME":"安南區","LI":"淵東里","LIN":"7鄰","STREET":"本原街","SECT":"三段","MAREA":" ","LANE":" ","ALLEY":" ","HOUSE_NO":"１４３號","E_COORD97":165549.09,"N_COORD97":2550343.7599999998,"ADDRESS":"本原街三段１４３號","OBJECTID":80584},"geometry":{"x":165549.08999999985,"y":2550343.7599999998}},{"attributes":{"ID":80585,"DIS_CODE":0,"TOWNNAME":"安南區","LI":"淵東里","LIN":"7鄰","STREET":"本原街","SECT":"三段","MAREA":" ","LANE":" ","ALLEY":" ","HOUSE_NO":"１４５號","E_COORD97":165544.92999999999,"N_COORD97":2550342.6400000001,"ADDRESS":"本原街三段１４５號","OBJECTID":80585},"geometry":{"x":165544.9299999997,"y":2550342.6400000006}},{"attributes":{"ID":80586,"DIS_CODE":0,"TOWNNAME":"東區","LI":"富裕里","LIN":"19鄰","STREET":"東門路","SECT":"二段","MAREA":" ","LANE":"３０１巷","ALLEY":"５３弄","HOUSE_NO":"２７號","E_COORD97":170845.64000000001,"N_COORD97":2542785.9199999999,"ADDRESS":"東門路二段３０１巷５３弄２７號","OBJECTID":80586},"geometry":{"x":170845.63999999966,"y":2542785.9199999999}},{"attributes":{"ID":80587,"DIS_CODE":0,"TOWNNAME":"南區","LI":"文華里","LIN":"24鄰","STREET":"建南路","SECT":" ","MAREA":" ","LANE":" ","ALLEY":" ","HOUSE_NO":"１６８號","E_COORD97":166796.95000000001,"N_COORD97":2542872.9900000002,"ADDRESS":"建南路１６８號","OBJECTID":80587},"geometry":{"x":166796.95000000112,"y":2542872.9900000021}},{"attributes":{"ID":80588,"DIS_CODE":0,"TOWNNAME":"安平區","LI":"建平里","LIN":"19鄰","STREET":"怡平路","SECT":" ","MAREA":" ","LANE":"１４０巷","ALLEY":"２７弄","HOUSE_NO":"３號","E_COORD97":165888.89999999999,"N_COORD97":2543849.4700000002,"ADDRESS":"怡平路１４０巷２７弄３號","OBJECTID":80588},"geometry":{"x":165888.9000000013,"y":2543849.4700000025}},{"attributes":{"ID":80589,"DIS_CODE":0,"TOWNNAME":"東區","LI":"富裕里","LIN":"19鄰","STREET":"東門路","SECT":"二段","MAREA":" ","LANE":"３０１巷","ALLEY":"５３弄","HOUSE_NO":"２８號","E_COORD97":170870.57999999999,"N_COORD97":2542807.5600000001,"ADDRESS":"東門路二段３０１巷５３弄２８號","OBJECTID":80589},"geometry":{"x":170870.58000000007,"y":2542807.5600000024}},{"attributes":{"ID":80590,"DIS_CODE":0,"TOWNNAME":"東區","LI":"富裕里","LIN":"19鄰","STREET":"東門路","SECT":"二段","MAREA":" ","LANE":"３０１巷","ALLEY":"５３弄","HOUSE_NO":"２９號","E_COORD97":170845.57999999999,"N_COORD97":2542789.73,"ADDRESS":"東門路二段３０１巷５３弄２９號","OBJECTID":80590},"geometry":{"x":170845.58000000194,"y":2542789.7300000023}},{"attributes":{"ID":80591,"DIS_CODE":0,"TOWNNAME":"東區","LI":"富裕里","LIN":"19鄰","STREET":"東門路","SECT":"二段","MAREA":" ","LANE":"３０１巷","ALLEY":"５３弄","HOUSE_NO":"２號","E_COORD97":170882.85000000001,"N_COORD97":2542736.25,"ADDRESS":"東門路二段３０１巷５３弄２號","OBJECTID":80591},"geometry":{"x":170882.85000000056,"y":2542736.25}},{"attributes":{"ID":80592,"DIS_CODE":0,"TOWNNAME":"東區","LI":"富裕里","LIN":"19鄰","STREET":"東門路","SECT":"二段","MAREA":" ","LANE":"３０１巷","ALLEY":"５３弄","HOUSE_NO":"２號之１","E_COORD97":170870.78,"N_COORD97":2542751.4300000002,"ADDRESS":"東門路二段３０１巷５３弄２號之１","OBJECTID":80592},"geometry":{"x":170870.78000000026,"y":2542751.4299999997}},{"attributes":{"ID":80593,"DIS_CODE":0,"TOWNNAME":"東區","LI":"富裕里","LIN":"19鄰","STREET":"東門路","SECT":"二段","MAREA":" ","LANE":"３０１巷","ALLEY":"５３弄","HOUSE_NO":"３０號","E_COORD97":170870.51999999999,"N_COORD97":2542812.4900000002,"ADDRESS":"東門路二段３０１巷５３弄３０號","OBJECTID":80593},"geometry":{"x":170870.51999999955,"y":2542812.4900000021}},{"attributes":{"ID":80594,"DIS_CODE":0,"TOWNNAME":"東區","LI":"富裕里","LIN":"19鄰","STREET":"東門路","SECT":"二段","MAREA":" ","LANE":"３０１巷","ALLEY":"５３弄","HOUSE_NO":"４９號","E_COORD97":170843.75,"N_COORD97":2542808.7000000002,"ADDRESS":"東門路二段３０１巷５３弄４９號","OBJECTID":80594},"geometry":{"x":170843.75,"y":2542808.7000000011}},{"attributes":{"ID":80595,"DIS_CODE":0,"TOWNNAME":"東區","LI":"富裕里","LIN":"19鄰","STREET":"東門路","SECT":"二段","MAREA":" ","LANE":"３０１巷","ALLEY":"５３弄","HOUSE_NO":"５１號","E_COORD97":170843.75,"N_COORD97":2542812.4100000001,"ADDRESS":"東門路二段３０１巷５３弄５１號","OBJECTID":80595},"geometry":{"x":170843.75,"y":2542812.410000002}},{"attributes":{"ID":80596,"DIS_CODE":0,"TOWNNAME":"東區","LI":"富裕里","LIN":"19鄰","STREET":"東門路","SECT":"二段","MAREA":" ","LANE":"３０１巷","ALLEY":"５３弄","HOUSE_NO":"５３號","E_COORD97":170842.75,"N_COORD97":2542816.9399999999,"ADDRESS":"東門路二段３０１巷５３弄５３號","OBJECTID":80596},"geometry":{"x":170842.75000000093,"y":2542816.9399999976}},{"attributes":{"ID":80597,"DIS_CODE":0,"TOWNNAME":"永康區","LI":"中華里","LIN":"19鄰","STREET":"小東路","SECT":" ","MAREA":" ","LANE":"４７７巷","ALLEY":"４６弄","HOUSE_NO":"３號之９","E_COORD97":171646.01000000001,"N_COORD97":2544536.3999999999,"ADDRESS":"小東路４７７巷４６弄３號之９","OBJECTID":80597},"geometry":{"x":171646.01000000071,"y":2544536.4000000004}},{"attributes":{"ID":80598,"DIS_CODE":0,"TOWNNAME":"永康區","LI":"中華里","LIN":"19鄰","STREET":"小東路","SECT":" ","MAREA":" ","LANE":"４７７巷","ALLEY":"４６弄","HOUSE_NO":"５號之４０","E_COORD97":171654.35999999999,"N_COORD97":2544535.6600000001,"ADDRESS":"小東路４７７巷４６弄５號之４０","OBJECTID":80598},"geometry":{"x":171654.36000000127,"y":2544535.660000002}},{"attributes":{"ID":80599,"DIS_CODE":0,"TOWNNAME":"南區","LI":"文華里","LIN":"24鄰","STREET":"建南路","SECT":" ","MAREA":" ","LANE":" ","ALLEY":" ","HOUSE_NO":"１７０號","E_COORD97":166791.85000000001,"N_COORD97":2542873.6299999999,"ADDRESS":"建南路１７０號","OBJECTID":80599},"geometry":{"x":166791.85000000056,"y":2542873.6300000008}},{"attributes":{"ID":80600,"DIS_CODE":0,"TOWNNAME":"南區","LI":"南華里","LIN":" ","STREET":"金華路","SECT":"一段","MAREA":" ","LANE":" ","ALLEY":" ","HOUSE_NO":"８７號","E_COORD97":166870.26000000001,"N_COORD97":2540428.5099999998,"ADDRESS":"金華路一段８７號","OBJECTID":80600},"geometry":{"x":166870.25999999978,"y":2540428.5099999998}}]}