{"displayFieldName":"TOWNNAME","fieldAliases":{"ID":"ID","DIS_CODE":"DIS_CODE","TOWNNAME":"TOWNNAME","LI":"LI","LIN":"LIN","STREET":"STREET","SECT":"SECT","MAREA":"MAREA","LANE":"LANE","ALLEY":"ALLEY","HOUSE_NO":"HOUSE_NO","E_COORD97":"E_COORD97","N_COORD97":"N_COORD97","ADDRESS":"ADDRESS","OBJECTID":"OBJECTID"},"geometryType":"esriGeometryPoint","spatialReference":{"wkid":102443,"latestWkid":3826},"fields":[{"name":"ID","type":"esriFieldTypeDouble","alias":"ID"},{"name":"DIS_CODE","type":"esriFieldTypeInteger","alias":"DIS_CODE"},{"name":"TOWNNAME","type":"esriFieldTypeString","alias":"TOWNNAME","length":8},{"name":"LI","type":"esriFieldTypeString","alias":"LI","length":8},{"name":"LIN","type":"esriFieldTypeString","alias":"LIN","length":12},{"name":"STREET","type":"esriFieldTypeString","alias":"STREET","length":20},{"name":"SECT","type":"esriFieldTypeString","alias":"SECT","length":8},{"name":"MAREA","type":"esriFieldTypeString","alias":"MAREA","length":12},{"name":"LANE","type":"esriFieldTypeString","alias":"LANE","length":10},{"name":"ALLEY","type":"esriFieldTypeString","alias":"ALLEY","length":10},{"name":"HOUSE_NO","type":"esriFieldTypeString","alias":"HOUSE_NO","length":20},{"name":"E_COORD97","type":"esriFieldTypeDouble","alias":"E_COORD97"},{"name":"N_COORD97","type":"esriFieldTypeDouble","alias":"N_COORD97"},{"name":"ADDRESS","type":"esriFieldTypeString","alias":"ADDRESS","length":50},{"name":"OBJECTID","type":"esriFieldTypeOID","alias":"OBJECTID"}],"features":[{"attributes":{"ID":268006,"DIS_CODE":0,"TOWNNAME":"下營區","LI":"西連里","LIN":"3鄰","STREET":" ","SECT":" ","MAREA":"連表","LANE":" ","ALLEY":" ","HOUSE_NO":"３２號","E_COORD97":174858.42999999999,"N_COORD97":2567832.8100000001,"ADDRESS":"連表３２號","OBJECTID":268001},"geometry":{"x":174858.4299999997,"y":2567832.8100000005}},{"attributes":{"ID":268007,"DIS_CODE":0,"TOWNNAME":"永康區","LI":"東灣里","LIN":"17鄰","STREET":"大灣三街","SECT":" ","MAREA":" ","LANE":"５７巷","ALLEY":" ","HOUSE_NO":"８號","E_COORD97":174915.60000000001,"N_COORD97":2544912.96,"ADDRESS":"大灣三街５７巷８號","OBJECTID":268002},"geometry":{"x":174915.60000000056,"y":2544912.9600000009}},{"attributes":{"ID":268008,"DIS_CODE":0,"TOWNNAME":"永康區","LI":"西勢里","LIN":"17鄰","STREET":"富強路","SECT":"一段","MAREA":" ","LANE":"２５４巷","ALLEY":" ","HOUSE_NO":"６號","E_COORD97":175698.37,"N_COORD97":2546463.1400000001,"ADDRESS":"富強路一段２５４巷６號","OBJECTID":268003},"geometry":{"x":175698.37000000011,"y":2546463.1400000025}},{"attributes":{"ID":268009,"DIS_CODE":0,"TOWNNAME":"永康區","LI":"永康里","LIN":"17鄰","STREET":"永中街","SECT":" ","MAREA":" ","LANE":"１１８巷","ALLEY":" ","HOUSE_NO":"２３號","E_COORD97":174035.10000000001,"N_COORD97":2547213.2400000002,"ADDRESS":"永中街１１８巷２３號","OBJECTID":268004},"geometry":{"x":174035.0999999987,"y":2547213.2400000039}},{"attributes":{"ID":268010,"DIS_CODE":0,"TOWNNAME":"永康區","LI":"西勢里","LIN":"17鄰","STREET":"富強路","SECT":"一段","MAREA":" ","LANE":"２５４巷","ALLEY":" ","HOUSE_NO":"６３號","E_COORD97":175807.59,"N_COORD97":2546342.5699999998,"ADDRESS":"富強路一段２５４巷６３號","OBJECTID":268005},"geometry":{"x":175807.59000000078,"y":2546342.5700000003}},{"attributes":{"ID":268011,"DIS_CODE":0,"TOWNNAME":"永康區","LI":"永康里","LIN":"17鄰","STREET":"永中街","SECT":" ","MAREA":" ","LANE":"１１８巷","ALLEY":" ","HOUSE_NO":"１１號","E_COORD97":173998.69,"N_COORD97":2547227.8300000001,"ADDRESS":"永中街１１８巷１１號","OBJECTID":268006},"geometry":{"x":173998.69000000134,"y":2547227.8300000001}},{"attributes":{"ID":268012,"DIS_CODE":0,"TOWNNAME":"將軍區","LI":"長沙里","LIN":"3鄰","STREET":" ","SECT":" ","MAREA":"長沙","LANE":" ","ALLEY":" ","HOUSE_NO":"２１號","E_COORD97":157318.75237,"N_COORD97":2568679.8062800001,"ADDRESS":"長沙２１號","OBJECTID":268007},"geometry":{"x":157318.75236999989,"y":2568679.8062779997}},{"attributes":{"ID":268013,"DIS_CODE":0,"TOWNNAME":"將軍區","LI":"長沙里","LIN":"3鄰","STREET":" ","SECT":" ","MAREA":"長沙","LANE":" ","ALLEY":" ","HOUSE_NO":"２４之２３號","E_COORD97":157356.06,"N_COORD97":2568723.9700000002,"ADDRESS":"長沙２４之２３號","OBJECTID":268008},"geometry":{"x":157356.05999999959,"y":2568723.9700000044}},{"attributes":{"ID":268014,"DIS_CODE":0,"TOWNNAME":"將軍區","LI":"長沙里","LIN":"3鄰","STREET":" ","SECT":" ","MAREA":"長沙","LANE":" ","ALLEY":" ","HOUSE_NO":"２４之２４號","E_COORD97":157362.95000000001,"N_COORD97":2568723.1400000001,"ADDRESS":"長沙２４之２４號","OBJECTID":268009},"geometry":{"x":157362.95000000205,"y":2568723.1400000025}},{"attributes":{"ID":268015,"DIS_CODE":0,"TOWNNAME":"將軍區","LI":"長沙里","LIN":"3鄰","STREET":" ","SECT":" ","MAREA":"長沙","LANE":" ","ALLEY":" ","HOUSE_NO":"２４之２５號","E_COORD97":157357.97,"N_COORD97":2568739.4300000002,"ADDRESS":"長沙２４之２５號","OBJECTID":268010},"geometry":{"x":157357.97000000067,"y":2568739.4299999997}},{"attributes":{"ID":268016,"DIS_CODE":0,"TOWNNAME":"將軍區","LI":"長沙里","LIN":"3鄰","STREET":" ","SECT":" ","MAREA":"長沙","LANE":" ","ALLEY":" ","HOUSE_NO":"２４之２６號","E_COORD97":157358,"N_COORD97":2568743.3599999999,"ADDRESS":"長沙２４之２６號","OBJECTID":268011},"geometry":{"x":157358.00000000093,"y":2568743.3599999994}},{"attributes":{"ID":268017,"DIS_CODE":0,"TOWNNAME":"將軍區","LI":"長沙里","LIN":"3鄰","STREET":" ","SECT":" ","MAREA":"長沙","LANE":" ","ALLEY":" ","HOUSE_NO":"２４之２７號","E_COORD97":157357.89999999999,"N_COORD97":2568747.25,"ADDRESS":"長沙２４之２７號","OBJECTID":268012},"geometry":{"x":157357.90000000037,"y":2568747.25}},{"attributes":{"ID":268018,"DIS_CODE":0,"TOWNNAME":"將軍區","LI":"長沙里","LIN":"3鄰","STREET":" ","SECT":" ","MAREA":"長沙","LANE":" ","ALLEY":" ","HOUSE_NO":"２４之２８號","E_COORD97":157358.23999999999,"N_COORD97":2568751.46,"ADDRESS":"長沙２４之２８號","OBJECTID":268013},"geometry":{"x":157358.24000000115,"y":2568751.4600000046}},{"attributes":{"ID":268019,"DIS_CODE":0,"TOWNNAME":"新營區","LI":"延平里","LIN":"3鄰","STREET":"長春街","SECT":" ","MAREA":" ","LANE":" ","ALLEY":" ","HOUSE_NO":"１３號","E_COORD97":179766.42880299999,"N_COORD97":2577911.1852500001,"ADDRESS":"長春街１３號","OBJECTID":268014},"geometry":{"x":179766.42880299967,"y":2577911.1852460001}},{"attributes":{"ID":268020,"DIS_CODE":0,"TOWNNAME":"永康區","LI":"永康里","LIN":"17鄰","STREET":"永中街","SECT":" ","MAREA":" ","LANE":"１１８巷","ALLEY":" ","HOUSE_NO":"２９號","E_COORD97":174048.35999999999,"N_COORD97":2547205.2400000002,"ADDRESS":"永中街１１８巷２９號","OBJECTID":268015},"geometry":{"x":174048.36000000127,"y":2547205.2400000002}},{"attributes":{"ID":268021,"DIS_CODE":0,"TOWNNAME":"新營區","LI":"新北里","LIN":"3鄰","STREET":"周武街","SECT":" ","MAREA":" ","LANE":" ","ALLEY":" ","HOUSE_NO":"７８號","E_COORD97":179372.92999999999,"N_COORD97":2579016.46,"ADDRESS":"周武街７８號","OBJECTID":268016},"geometry":{"x":179372.93000000156,"y":2579016.4600000009}},{"attributes":{"ID":268022,"DIS_CODE":0,"TOWNNAME":"永康區","LI":"建國里","LIN":"14鄰","STREET":"復國路","SECT":" ","MAREA":" ","LANE":" ","ALLEY":" ","HOUSE_NO":"８９號","E_COORD97":172703.29000000001,"N_COORD97":2544638.3799999999,"ADDRESS":"復國路８９號","OBJECTID":268017},"geometry":{"x":172703.29000000004,"y":2544638.3800000008}},{"attributes":{"ID":268023,"DIS_CODE":0,"TOWNNAME":"永康區","LI":"正強里","LIN":"17鄰","STREET":"自強路","SECT":" ","MAREA":" ","LANE":"１８８巷","ALLEY":" ","HOUSE_NO":"５４號","E_COORD97":173219.32999999999,"N_COORD97":2547305.6699999999,"ADDRESS":"自強路１８８巷５４號","OBJECTID":268018},"geometry":{"x":173219.33000000101,"y":2547305.6700000018}},{"attributes":{"ID":268024,"DIS_CODE":0,"TOWNNAME":"永康區","LI":"尚頂里","LIN":"17鄰","STREET":"中正南路","SECT":" ","MAREA":" ","LANE":"２１０巷","ALLEY":" ","HOUSE_NO":"１５號","E_COORD97":170202.38,"N_COORD97":2547156.5299999998,"ADDRESS":"中正南路２１０巷１５號","OBJECTID":268019},"geometry":{"x":170202.37999999896,"y":2547156.5300000012}},{"attributes":{"ID":268025,"DIS_CODE":0,"TOWNNAME":"永康區","LI":"西勢里","LIN":"17鄰","STREET":"富強路","SECT":"一段","MAREA":" ","LANE":"２５４巷","ALLEY":" ","HOUSE_NO":"１號","E_COORD97":175698.48999999999,"N_COORD97":2546481.5899999999,"ADDRESS":"富強路一段２５４巷１號","OBJECTID":268020},"geometry":{"x":175698.49000000115,"y":2546481.5900000036}},{"attributes":{"ID":268026,"DIS_CODE":0,"TOWNNAME":"中西區","LI":"天后里","LIN":"17鄰","STREET":"西門路","SECT":"二段","MAREA":" ","LANE":"３７２巷","ALLEY":" ","HOUSE_NO":"２號之１","E_COORD97":168067.79999999999,"N_COORD97":2544301.54,"ADDRESS":"西門路二段３７２巷２號之１","OBJECTID":268021},"geometry":{"x":168067.80000000075,"y":2544301.540000001}},{"attributes":{"ID":268027,"DIS_CODE":0,"TOWNNAME":"中西區","LI":"天后里","LIN":"17鄰","STREET":"西門路","SECT":"二段","MAREA":" ","LANE":"３７２巷","ALLEY":" ","HOUSE_NO":"６號","E_COORD97":168076.5,"N_COORD97":2544300.3599999999,"ADDRESS":"西門路二段３７２巷６號","OBJECTID":268022},"geometry":{"x":168076.50000000093,"y":2544300.3600000013}},{"attributes":{"ID":268028,"DIS_CODE":0,"TOWNNAME":"中西區","LI":"天后里","LIN":"17鄰","STREET":"西門路","SECT":"二段","MAREA":" ","LANE":"３７２巷","ALLEY":" ","HOUSE_NO":"１３號","E_COORD97":168068.91,"N_COORD97":2544318.46,"ADDRESS":"西門路二段３７２巷１３號","OBJECTID":268023},"geometry":{"x":168068.91000000108,"y":2544318.4600000028}},{"attributes":{"ID":268029,"DIS_CODE":0,"TOWNNAME":"仁德區","LI":"新田里","LIN":"17鄰","STREET":"北保東路","SECT":" ","MAREA":" ","LANE":"４６巷","ALLEY":" ","HOUSE_NO":"２７號","E_COORD97":173550.17000000001,"N_COORD97":2539306.25,"ADDRESS":"北保東路４６巷２７號","OBJECTID":268024},"geometry":{"x":173550.17000000179,"y":2539306.25}},{"attributes":{"ID":268030,"DIS_CODE":0,"TOWNNAME":"東區","LI":"自強里","LIN":"17鄰","STREET":"中華東路","SECT":"二段","MAREA":" ","LANE":"２４３巷","ALLEY":" ","HOUSE_NO":"１４號","E_COORD97":171253.88,"N_COORD97":2542610.8799999999,"ADDRESS":"中華東路二段２４３巷１４號","OBJECTID":268025},"geometry":{"x":171253.88000000082,"y":2542610.8800000008}},{"attributes":{"ID":268031,"DIS_CODE":0,"TOWNNAME":"中西區","LI":"萬昌里","LIN":"17鄰","STREET":"青年路","SECT":" ","MAREA":" ","LANE":"１６４巷","ALLEY":" ","HOUSE_NO":"２０號","E_COORD97":169003.14000000001,"N_COORD97":2543534.5899999999,"ADDRESS":"青年路１６４巷２０號","OBJECTID":268026},"geometry":{"x":169003.13999999966,"y":2543534.5899999999}},{"attributes":{"ID":268032,"DIS_CODE":0,"TOWNNAME":"白河區","LI":"仙草里","LIN":"20鄰","STREET":" ","SECT":" ","MAREA":"仙草","LANE":" ","ALLEY":" ","HOUSE_NO":"１１６號","E_COORD97":196825.91,"N_COORD97":2582292.79,"ADDRESS":"仙草１１６號","OBJECTID":268027},"geometry":{"x":196825.91000000108,"y":2582292.790000001}},{"attributes":{"ID":268033,"DIS_CODE":0,"TOWNNAME":"仁德區","LI":"新田里","LIN":"4鄰","STREET":"勝利路","SECT":" ","MAREA":" ","LANE":" ","ALLEY":" ","HOUSE_NO":"２２７號","E_COORD97":174691.79058999999,"N_COORD97":2539552.1740600001,"ADDRESS":"勝利路２２７號","OBJECTID":268028},"geometry":{"x":174691.79059000127,"y":2539552.1740610003}},{"attributes":{"ID":268034,"DIS_CODE":0,"TOWNNAME":"東區","LI":"自強里","LIN":"17鄰","STREET":"中華東路","SECT":"二段","MAREA":" ","LANE":"２４３巷","ALLEY":" ","HOUSE_NO":"１６號","E_COORD97":171261.35000000001,"N_COORD97":2542605.98,"ADDRESS":"中華東路二段２４３巷１６號","OBJECTID":268029},"geometry":{"x":171261.34999999963,"y":2542605.9800000023}},{"attributes":{"ID":268035,"DIS_CODE":0,"TOWNNAME":"安平區","LI":"國平里","LIN":"3鄰","STREET":"建平五街","SECT":" ","MAREA":" ","LANE":" ","ALLEY":" ","HOUSE_NO":"２６７號","E_COORD97":165491.59,"N_COORD97":2543291.6099999999,"ADDRESS":"建平五街２６７號","OBJECTID":268030},"geometry":{"x":165491.58999999985,"y":2543291.6100000013}},{"attributes":{"ID":268036,"DIS_CODE":0,"TOWNNAME":"安平區","LI":"怡平里","LIN":"3鄰","STREET":"永華六街","SECT":" ","MAREA":" ","LANE":" ","ALLEY":" ","HOUSE_NO":"２１２號","E_COORD97":165676.21555399999,"N_COORD97":2544145.34063,"ADDRESS":"永華六街２１２號","OBJECTID":268031},"geometry":{"x":165676.21555400081,"y":2544145.3406290021}},{"attributes":{"ID":268037,"DIS_CODE":0,"TOWNNAME":"東區","LI":"自強里","LIN":"17鄰","STREET":"中華東路","SECT":"二段","MAREA":" ","LANE":"２４３巷","ALLEY":" ","HOUSE_NO":"１８號","E_COORD97":171267.54000000001,"N_COORD97":2542600.3199999998,"ADDRESS":"中華東路二段２４３巷１８號","OBJECTID":268032},"geometry":{"x":171267.54000000004,"y":2542600.3200000003}},{"attributes":{"ID":268038,"DIS_CODE":0,"TOWNNAME":"東區","LI":"自強里","LIN":"17鄰","STREET":"中華東路","SECT":"二段","MAREA":" ","LANE":"２４３巷","ALLEY":" ","HOUSE_NO":"２０號","E_COORD97":171272.95000000001,"N_COORD97":2542595.4300000002,"ADDRESS":"中華東路二段２４３巷２０號","OBJECTID":268033},"geometry":{"x":171272.95000000019,"y":2542595.4299999997}},{"attributes":{"ID":268039,"DIS_CODE":0,"TOWNNAME":"東區","LI":"自強里","LIN":"17鄰","STREET":"中華東路","SECT":"二段","MAREA":" ","LANE":"２４３巷","ALLEY":" ","HOUSE_NO":"２２號","E_COORD97":171277.85000000001,"N_COORD97":2542593.3700000001,"ADDRESS":"中華東路二段２４３巷２２號","OBJECTID":268034},"geometry":{"x":171277.85000000056,"y":2542593.3700000029}},{"attributes":{"ID":268040,"DIS_CODE":0,"TOWNNAME":"東區","LI":"自強里","LIN":"17鄰","STREET":"中華東路","SECT":"二段","MAREA":" ","LANE":"２４３巷","ALLEY":" ","HOUSE_NO":"２６號","E_COORD97":171302.98000000001,"N_COORD97":2542574.8900000001,"ADDRESS":"中華東路二段２４３巷２６號","OBJECTID":268035},"geometry":{"x":171302.98000000138,"y":2542574.8900000025}},{"attributes":{"ID":268041,"DIS_CODE":0,"TOWNNAME":"東區","LI":"自強里","LIN":"17鄰","STREET":"中華東路","SECT":"二段","MAREA":" ","LANE":"２４３巷","ALLEY":" ","HOUSE_NO":"２號","E_COORD97":171228.35999999999,"N_COORD97":2542630.4399999999,"ADDRESS":"中華東路二段２４３巷２號","OBJECTID":268036},"geometry":{"x":171228.36000000034,"y":2542630.4399999976}},{"attributes":{"ID":268042,"DIS_CODE":0,"TOWNNAME":"東區","LI":"自強里","LIN":"17鄰","STREET":"中華東路","SECT":"二段","MAREA":" ","LANE":"２４３巷","ALLEY":" ","HOUSE_NO":"３６號","E_COORD97":171320.35999999999,"N_COORD97":2542564.54,"ADDRESS":"中華東路二段２４３巷３６號","OBJECTID":268037},"geometry":{"x":171320.36000000127,"y":2542564.5399999991}},{"attributes":{"ID":268043,"DIS_CODE":0,"TOWNNAME":"東區","LI":"自強里","LIN":"17鄰","STREET":"中華東路","SECT":"二段","MAREA":" ","LANE":"２４３巷","ALLEY":" ","HOUSE_NO":"３８號","E_COORD97":171327.03,"N_COORD97":2542564.54,"ADDRESS":"中華東路二段２４３巷３８號","OBJECTID":268038},"geometry":{"x":171327.03000000026,"y":2542564.5399999991}},{"attributes":{"ID":268044,"DIS_CODE":0,"TOWNNAME":"東區","LI":"自強里","LIN":"17鄰","STREET":"中華東路","SECT":"二段","MAREA":" ","LANE":"２４３巷","ALLEY":" ","HOUSE_NO":"４０號","E_COORD97":171333.53,"N_COORD97":2542565.6000000001,"ADDRESS":"中華東路二段２４３巷４０號","OBJECTID":268039},"geometry":{"x":171333.53000000026,"y":2542565.6000000015}},{"attributes":{"ID":268045,"DIS_CODE":0,"TOWNNAME":"東區","LI":"自強里","LIN":"17鄰","STREET":"中華東路","SECT":"二段","MAREA":" ","LANE":"２４３巷","ALLEY":" ","HOUSE_NO":"４２號","E_COORD97":171340.54999999999,"N_COORD97":2542566.6499999999,"ADDRESS":"中華東路二段２４３巷４２號","OBJECTID":268040},"geometry":{"x":171340.55000000075,"y":2542566.6500000022}},{"attributes":{"ID":268046,"DIS_CODE":0,"TOWNNAME":"東區","LI":"自強里","LIN":"17鄰","STREET":"中華東路","SECT":"二段","MAREA":" ","LANE":"２４３巷","ALLEY":" ","HOUSE_NO":"４號","E_COORD97":171231.45000000001,"N_COORD97":2542627.8700000001,"ADDRESS":"中華東路二段２４３巷４號","OBJECTID":268041},"geometry":{"x":171231.45000000112,"y":2542627.870000001}},{"attributes":{"ID":268047,"DIS_CODE":0,"TOWNNAME":"安平區","LI":"文平里","LIN":"3鄰","STREET":"中華西路","SECT":"二段","MAREA":" ","LANE":"４９巷","ALLEY":" ","HOUSE_NO":"４２之１號","E_COORD97":166488.28,"N_COORD97":2543153.8100000001,"ADDRESS":"中華西路二段４９巷４２之１號","OBJECTID":268042},"geometry":{"x":166488.28000000119,"y":2543153.8100000005}},{"attributes":{"ID":268048,"DIS_CODE":0,"TOWNNAME":"安平區","LI":"國平里","LIN":"3鄰","STREET":"建平七街","SECT":" ","MAREA":" ","LANE":" ","ALLEY":" ","HOUSE_NO":"４０９號","E_COORD97":165521.38,"N_COORD97":2543296.0699999998,"ADDRESS":"建平七街４０９號","OBJECTID":268043},"geometry":{"x":165521.37999999989,"y":2543296.0700000022}},{"attributes":{"ID":268049,"DIS_CODE":0,"TOWNNAME":"永康區","LI":"\u25A0行里","LIN":"10鄰","STREET":"正南五街","SECT":" ","MAREA":" ","LANE":" ","ALLEY":" ","HOUSE_NO":"１８９號","E_COORD97":172012.31,"N_COORD97":2548198.21,"ADDRESS":"正南五街１８９號","OBJECTID":268044},"geometry":{"x":172012.30999999959,"y":2548198.2100000028}},{"attributes":{"ID":268050,"DIS_CODE":0,"TOWNNAME":"永康區","LI":"\u25A0行里","LIN":"21鄰","STREET":"正南五街","SECT":" ","MAREA":" ","LANE":" ","ALLEY":" ","HOUSE_NO":"４０７號","E_COORD97":171607.23000000001,"N_COORD97":2548710.77,"ADDRESS":"正南五街４０７號","OBJECTID":268045},"geometry":{"x":171607.23000000045,"y":2548710.7700000033}},{"attributes":{"ID":268051,"DIS_CODE":0,"TOWNNAME":"永康區","LI":"\u25A0行里","LIN":"28鄰","STREET":"中正一街","SECT":" ","MAREA":" ","LANE":" ","ALLEY":" ","HOUSE_NO":"１２３號","E_COORD97":172730.5,"N_COORD97":2548657.46,"ADDRESS":"中正一街１２３號","OBJECTID":268046},"geometry":{"x":172730.5,"y":2548657.4600000028}},{"attributes":{"ID":268052,"DIS_CODE":0,"TOWNNAME":"東區","LI":"自強里","LIN":"17鄰","STREET":"中華東路","SECT":"二段","MAREA":" ","LANE":"２４３巷","ALLEY":" ","HOUSE_NO":"６號","E_COORD97":171242.01999999999,"N_COORD97":2542619.8900000001,"ADDRESS":"中華東路二段２４３巷６號","OBJECTID":268047},"geometry":{"x":171242.02000000142,"y":2542619.8900000025}},{"attributes":{"ID":268053,"DIS_CODE":0,"TOWNNAME":"東區","LI":"自強里","LIN":"17鄰","STREET":"中華東路","SECT":"二段","MAREA":" ","LANE":"２４３巷","ALLEY":" ","HOUSE_NO":"８號","E_COORD97":171235.82999999999,"N_COORD97":2542625.29,"ADDRESS":"中華東路二段２４３巷８號","OBJECTID":268048},"geometry":{"x":171235.83000000101,"y":2542625.290000001}},{"attributes":{"ID":268054,"DIS_CODE":0,"TOWNNAME":"新營區","LI":"新北里","LIN":"9鄰","STREET":"長榮路","SECT":"二段","MAREA":" ","LANE":"２９３巷","ALLEY":" ","HOUSE_NO":"９號","E_COORD97":179216.57999999999,"N_COORD97":2579747.0099999998,"ADDRESS":"長榮路二段２９３巷９號","OBJECTID":268049},"geometry":{"x":179216.58000000101,"y":2579747.0099999998}},{"attributes":{"ID":268055,"DIS_CODE":0,"TOWNNAME":"東區","LI":"自強里","LIN":"17鄰","STREET":"中華東路","SECT":"二段","MAREA":" ","LANE":"２９５巷","ALLEY":" ","HOUSE_NO":"１１號","E_COORD97":171181.42999999999,"N_COORD97":2542527.0800000001,"ADDRESS":"中華東路二段２９５巷１１號","OBJECTID":268050},"geometry":{"x":171181.4299999997,"y":2542527.0800000001}},{"attributes":{"ID":268056,"DIS_CODE":0,"TOWNNAME":"東區","LI":"自強里","LIN":"17鄰","STREET":"中華東路","SECT":"二段","MAREA":" ","LANE":"２９５巷","ALLEY":" ","HOUSE_NO":"１３號","E_COORD97":171184.75,"N_COORD97":2542523.7599999998,"ADDRESS":"中華東路二段２９５巷１３號","OBJECTID":268051},"geometry":{"x":171184.75,"y":2542523.7600000035}},{"attributes":{"ID":268057,"DIS_CODE":0,"TOWNNAME":"東區","LI":"自強里","LIN":"17鄰","STREET":"中華東路","SECT":"二段","MAREA":" ","LANE":"２９５巷","ALLEY":" ","HOUSE_NO":"７號","E_COORD97":171170.78,"N_COORD97":2542535.25,"ADDRESS":"中華東路二段２９５巷７號","OBJECTID":268052},"geometry":{"x":171170.78000000026,"y":2542535.2500000019}},{"attributes":{"ID":268058,"DIS_CODE":0,"TOWNNAME":"新營區","LI":"新南里","LIN":"3鄰","STREET":"新北街","SECT":" ","MAREA":" ","LANE":" ","ALLEY":" ","HOUSE_NO":"９７號","E_COORD97":178746.85000000001,"N_COORD97":2578794.6400000001,"ADDRESS":"新北街９７號","OBJECTID":268053},"geometry":{"x":178746.85000000056,"y":2578794.6400000006}},{"attributes":{"ID":268059,"DIS_CODE":0,"TOWNNAME":"新營區","LI":"護鎮里","LIN":"3鄰","STREET":" ","SECT":" ","MAREA":"後鎮","LANE":" ","ALLEY":" ","HOUSE_NO":"３３號","E_COORD97":179246.76000000001,"N_COORD97":2581068.0699999998,"ADDRESS":"後鎮３３號","OBJECTID":268054},"geometry":{"x":179246.75999999978,"y":2581068.0700000022}},{"attributes":{"ID":268060,"DIS_CODE":0,"TOWNNAME":"新營區","LI":"護鎮里","LIN":"3鄰","STREET":" ","SECT":" ","MAREA":"後鎮","LANE":" ","ALLEY":" ","HOUSE_NO":"２３號之１","E_COORD97":179283.92000000001,"N_COORD97":2581126.6499999999,"ADDRESS":"後鎮２３號之１","OBJECTID":268055},"geometry":{"x":179283.92000000086,"y":2581126.6500000004}},{"attributes":{"ID":268061,"DIS_CODE":0,"TOWNNAME":"新營區","LI":"南興里","LIN":"3鄰","STREET":"南昌街","SECT":" ","MAREA":" ","LANE":" ","ALLEY":" ","HOUSE_NO":"３５號","E_COORD97":179571.06,"N_COORD97":2577651.1299999999,"ADDRESS":"南昌街３５號","OBJECTID":268056},"geometry":{"x":179571.06000000052,"y":2577651.129999999}},{"attributes":{"ID":268062,"DIS_CODE":0,"TOWNNAME":"中西區","LI":"協和里","LIN":"3鄰","STREET":"文賢路","SECT":" ","MAREA":" ","LANE":" ","ALLEY":" ","HOUSE_NO":"４１號","E_COORD97":167381.19,"N_COORD97":2544520.5499999998,"ADDRESS":"文賢路４１號","OBJECTID":268057},"geometry":{"x":167381.19000000041,"y":2544520.5500000026}},{"attributes":{"ID":268063,"DIS_CODE":0,"TOWNNAME":"中西區","LI":"協和里","LIN":"3鄰","STREET":"文賢路","SECT":" ","MAREA":" ","LANE":" ","ALLEY":" ","HOUSE_NO":"４３號","E_COORD97":167382.35000000001,"N_COORD97":2544526.25,"ADDRESS":"文賢路４３號","OBJECTID":268058},"geometry":{"x":167382.35000000056,"y":2544526.25}},{"attributes":{"ID":268064,"DIS_CODE":0,"TOWNNAME":"永康區","LI":"西灣里","LIN":"17鄰","STREET":"永大路","SECT":"二段","MAREA":" ","LANE":"５５６巷","ALLEY":" ","HOUSE_NO":"１３號","E_COORD97":174451.73000000001,"N_COORD97":2545433.6600000001,"ADDRESS":"永大路二段５５６巷１３號","OBJECTID":268059},"geometry":{"x":174451.73000000045,"y":2545433.6600000039}},{"attributes":{"ID":268065,"DIS_CODE":0,"TOWNNAME":"新營區","LI":"興業里","LIN":" ","STREET":"公誠街","SECT":" ","MAREA":" ","LANE":"１７巷","ALLEY":" ","HOUSE_NO":"６之２號","E_COORD97":180316.14000000001,"N_COORD97":2577921.21,"ADDRESS":"公誠街１７巷６之２號","OBJECTID":268060},"geometry":{"x":180316.1400000006,"y":2577921.2100000028}},{"attributes":{"ID":268066,"DIS_CODE":0,"TOWNNAME":"新營區","LI":"新東里","LIN":"20鄰","STREET":"東明街","SECT":" ","MAREA":" ","LANE":"２８巷","ALLEY":" ","HOUSE_NO":"３６號","E_COORD97":180882.26999999999,"N_COORD97":2579586.3199999998,"ADDRESS":"東明街２８巷３６號","OBJECTID":268061},"geometry":{"x":180882.26999999955,"y":2579586.3200000003}},{"attributes":{"ID":268067,"DIS_CODE":0,"TOWNNAME":"下營區","LI":"新興里","LIN":"17鄰","STREET":"中山路","SECT":"一段","MAREA":" ","LANE":"４１０巷","ALLEY":" ","HOUSE_NO":"９號","E_COORD97":175335.48999999999,"N_COORD97":2570851.02,"ADDRESS":"中山路一段４１０巷９號","OBJECTID":268062},"geometry":{"x":175335.49000000115,"y":2570851.0199999996}},{"attributes":{"ID":268068,"DIS_CODE":0,"TOWNNAME":"下營區","LI":"新興里","LIN":"17鄰","STREET":"中山路","SECT":"一段","MAREA":" ","LANE":"４１６巷","ALLEY":" ","HOUSE_NO":"３９號","E_COORD97":175604.14999999999,"N_COORD97":2570902.8700000001,"ADDRESS":"中山路一段４１６巷３９號","OBJECTID":268063},"geometry":{"x":175604.1500000013,"y":2570902.8700000029}},{"attributes":{"ID":268069,"DIS_CODE":0,"TOWNNAME":"下營區","LI":"新興里","LIN":"17鄰","STREET":"中山路","SECT":"一段","MAREA":" ","LANE":"４１６巷","ALLEY":" ","HOUSE_NO":"４５號","E_COORD97":175604.54999999999,"N_COORD97":2570835.1499999999,"ADDRESS":"中山路一段４１６巷４５號","OBJECTID":268064},"geometry":{"x":175604.55000000075,"y":2570835.1500000022}},{"attributes":{"ID":268070,"DIS_CODE":0,"TOWNNAME":"下營區","LI":"新興里","LIN":"17鄰","STREET":"中山路","SECT":"一段","MAREA":" ","LANE":"４７６巷","ALLEY":" ","HOUSE_NO":"１１６號","E_COORD97":175953.14999999999,"N_COORD97":2571161.0899999999,"ADDRESS":"中山路一段４７６巷１１６號","OBJECTID":268065},"geometry":{"x":175953.1500000013,"y":2571161.0900000017}},{"attributes":{"ID":268071,"DIS_CODE":0,"TOWNNAME":"下營區","LI":"新興里","LIN":"17鄰","STREET":"中華街","SECT":" ","MAREA":" ","LANE":"２０２巷","ALLEY":" ","HOUSE_NO":"１１號","E_COORD97":175167.82000000001,"N_COORD97":2570710.77,"ADDRESS":"中華街２０２巷１１號","OBJECTID":268066},"geometry":{"x":175167.8200000003,"y":2570710.7699999977}},{"attributes":{"ID":268072,"DIS_CODE":0,"TOWNNAME":"下營區","LI":"新興里","LIN":"17鄰","STREET":"中華街","SECT":" ","MAREA":" ","LANE":"２０２巷","ALLEY":" ","HOUSE_NO":"１３號","E_COORD97":175171.97,"N_COORD97":2570710.3100000001,"ADDRESS":"中華街２０２巷１３號","OBJECTID":268067},"geometry":{"x":175171.9700000016,"y":2570710.3100000005}},{"attributes":{"ID":268073,"DIS_CODE":0,"TOWNNAME":"下營區","LI":"新興里","LIN":"17鄰","STREET":"中華街","SECT":" ","MAREA":" ","LANE":"２０２巷","ALLEY":" ","HOUSE_NO":"１７１號","E_COORD97":176138.53,"N_COORD97":2570828.54,"ADDRESS":"中華街２０２巷１７１號","OBJECTID":268068},"geometry":{"x":176138.53000000119,"y":2570828.540000001}},{"attributes":{"ID":268074,"DIS_CODE":0,"TOWNNAME":"六甲區","LI":"中社里","LIN":"3鄰","STREET":" ","SECT":" ","MAREA":"中社","LANE":" ","ALLEY":" ","HOUSE_NO":"３５號","E_COORD97":181248.10000000001,"N_COORD97":2570665.3300000001,"ADDRESS":"中社３５號","OBJECTID":268069},"geometry":{"x":181248.09999999963,"y":2570665.3300000019}},{"attributes":{"ID":268075,"DIS_CODE":0,"TOWNNAME":"六甲區","LI":"中社里","LIN":"3鄰","STREET":" ","SECT":" ","MAREA":"中社","LANE":" ","ALLEY":" ","HOUSE_NO":"３９號之１","E_COORD97":181256.54999999999,"N_COORD97":2570699.0600000001,"ADDRESS":"中社３９號之１","OBJECTID":268070},"geometry":{"x":181256.54999999981,"y":2570699.0600000005}},{"attributes":{"ID":268076,"DIS_CODE":0,"TOWNNAME":"六甲區","LI":"中社里","LIN":"3鄰","STREET":" ","SECT":" ","MAREA":"中社","LANE":" ","ALLEY":" ","HOUSE_NO":"４１號","E_COORD97":181259.20999999999,"N_COORD97":2570713.0899999999,"ADDRESS":"中社４１號","OBJECTID":268071},"geometry":{"x":181259.20999999996,"y":2570713.0900000017}},{"attributes":{"ID":268077,"DIS_CODE":0,"TOWNNAME":"六甲區","LI":"中社里","LIN":"3鄰","STREET":" ","SECT":" ","MAREA":"中社","LANE":" ","ALLEY":" ","HOUSE_NO":"４３號","E_COORD97":181217.84,"N_COORD97":2570784.0699999998,"ADDRESS":"中社４３號","OBJECTID":268072},"geometry":{"x":181217.83999999985,"y":2570784.0700000003}},{"attributes":{"ID":268078,"DIS_CODE":0,"TOWNNAME":"六甲區","LI":"中社里","LIN":"3鄰","STREET":" ","SECT":" ","MAREA":"中社","LANE":" ","ALLEY":" ","HOUSE_NO":"４５號","E_COORD97":181208.73000000001,"N_COORD97":2570823.6600000001,"ADDRESS":"中社４５號","OBJECTID":268073},"geometry":{"x":181208.73000000045,"y":2570823.6600000001}},{"attributes":{"ID":268079,"DIS_CODE":0,"TOWNNAME":"六甲區","LI":"中社里","LIN":"3鄰","STREET":" ","SECT":" ","MAREA":"中社","LANE":" ","ALLEY":" ","HOUSE_NO":"４７號","E_COORD97":181195.29999999999,"N_COORD97":2570824.3999999999,"ADDRESS":"中社４７號","OBJECTID":268074},"geometry":{"x":181195.30000000075,"y":2570824.4000000022}},{"attributes":{"ID":268080,"DIS_CODE":0,"TOWNNAME":"六甲區","LI":"中社里","LIN":"3鄰","STREET":" ","SECT":" ","MAREA":"中社","LANE":" ","ALLEY":" ","HOUSE_NO":"５１號","E_COORD97":181208.92000000001,"N_COORD97":2570838.9300000002,"ADDRESS":"中社５１號","OBJECTID":268075},"geometry":{"x":181208.91999999993,"y":2570838.9300000034}},{"attributes":{"ID":268081,"DIS_CODE":0,"TOWNNAME":"六甲區","LI":"中社里","LIN":"3鄰","STREET":" ","SECT":" ","MAREA":"中社","LANE":" ","ALLEY":" ","HOUSE_NO":"５３號","E_COORD97":181202.29000000001,"N_COORD97":2570855.2599999998,"ADDRESS":"中社５３號","OBJECTID":268076},"geometry":{"x":181202.29000000097,"y":2570855.2600000016}},{"attributes":{"ID":268082,"DIS_CODE":0,"TOWNNAME":"下營區","LI":"新興里","LIN":"17鄰","STREET":"中華街","SECT":" ","MAREA":" ","LANE":"２０２巷","ALLEY":" ","HOUSE_NO":"１７號","E_COORD97":175196.09,"N_COORD97":2570708.0099999998,"ADDRESS":"中華街２０２巷１７號","OBJECTID":268077},"geometry":{"x":175196.08999999985,"y":2570708.0099999998}},{"attributes":{"ID":268083,"DIS_CODE":0,"TOWNNAME":"六甲區","LI":"中社里","LIN":"3鄰","STREET":" ","SECT":" ","MAREA":"中社","LANE":" ","ALLEY":" ","HOUSE_NO":"５５號","E_COORD97":181187.04000000001,"N_COORD97":2570835.98,"ADDRESS":"中社５５號","OBJECTID":268078},"geometry":{"x":181187.04000000097,"y":2570835.9800000042}},{"attributes":{"ID":268084,"DIS_CODE":0,"TOWNNAME":"下營區","LI":"新興里","LIN":"17鄰","STREET":"中華街","SECT":" ","MAREA":" ","LANE":"２０２巷","ALLEY":" ","HOUSE_NO":"１９號","E_COORD97":175200.04000000001,"N_COORD97":2570707.4900000002,"ADDRESS":"中華街２０２巷１９號","OBJECTID":268079},"geometry":{"x":175200.04000000004,"y":2570707.4900000021}},{"attributes":{"ID":268085,"DIS_CODE":0,"TOWNNAME":"六甲區","LI":"中社里","LIN":"3鄰","STREET":" ","SECT":" ","MAREA":"中社","LANE":" ","ALLEY":" ","HOUSE_NO":"６１號","E_COORD97":181173.64000000001,"N_COORD97":2570816.0499999998,"ADDRESS":"中社６１號","OBJECTID":268080},"geometry":{"x":181173.6400000006,"y":2570816.0500000026}},{"attributes":{"ID":268086,"DIS_CODE":0,"TOWNNAME":"六甲區","LI":"中社里","LIN":"3鄰","STREET":" ","SECT":" ","MAREA":"中社","LANE":" ","ALLEY":" ","HOUSE_NO":"８５號之２","E_COORD97":181149.16,"N_COORD97":2570780.6299999999,"ADDRESS":"中社８５號之２","OBJECTID":268081},"geometry":{"x":181149.16000000108,"y":2570780.6300000008}},{"attributes":{"ID":268087,"DIS_CODE":0,"TOWNNAME":"下營區","LI":"新興里","LIN":"17鄰","STREET":"中華街","SECT":" ","MAREA":" ","LANE":"２０２巷","ALLEY":" ","HOUSE_NO":"１號","E_COORD97":175140.60999999999,"N_COORD97":2570711.75,"ADDRESS":"中華街２０２巷１號","OBJECTID":268082},"geometry":{"x":175140.61000000034,"y":2570711.7500000037}},{"attributes":{"ID":268088,"DIS_CODE":0,"TOWNNAME":"下營區","LI":"新興里","LIN":"17鄰","STREET":"中華街","SECT":" ","MAREA":" ","LANE":"２０２巷","ALLEY":" ","HOUSE_NO":"２１號","E_COORD97":175204.35999999999,"N_COORD97":2570706.77,"ADDRESS":"中華街２０２巷２１號","OBJECTID":268083},"geometry":{"x":175204.36000000127,"y":2570706.7699999996}},{"attributes":{"ID":268089,"DIS_CODE":0,"TOWNNAME":"下營區","LI":"新興里","LIN":"17鄰","STREET":"中華街","SECT":" ","MAREA":" ","LANE":"２０２巷","ALLEY":" ","HOUSE_NO":"２３號","E_COORD97":175207.73999999999,"N_COORD97":2570706.48,"ADDRESS":"中華街２０２巷２３號","OBJECTID":268084},"geometry":{"x":175207.74000000022,"y":2570706.4800000004}},{"attributes":{"ID":268090,"DIS_CODE":0,"TOWNNAME":"下營區","LI":"新興里","LIN":"17鄰","STREET":"中華街","SECT":" ","MAREA":" ","LANE":"２０２巷","ALLEY":" ","HOUSE_NO":"２５號","E_COORD97":175211.89000000001,"N_COORD97":2570705.96,"ADDRESS":"中華街２０２巷２５號","OBJECTID":268085},"geometry":{"x":175211.8900000006,"y":2570705.9600000028}},{"attributes":{"ID":268091,"DIS_CODE":0,"TOWNNAME":"下營區","LI":"新興里","LIN":"17鄰","STREET":"中華街","SECT":" ","MAREA":" ","LANE":"２０２巷","ALLEY":" ","HOUSE_NO":"２７號","E_COORD97":175215.82000000001,"N_COORD97":2570705.8399999999,"ADDRESS":"中華街２０２巷２７號","OBJECTID":268086},"geometry":{"x":175215.8200000003,"y":2570705.8399999999}},{"attributes":{"ID":268092,"DIS_CODE":0,"TOWNNAME":"六甲區","LI":"中社里","LIN":"3鄰","STREET":" ","SECT":" ","MAREA":"中社","LANE":" ","ALLEY":" ","HOUSE_NO":"８５號","E_COORD97":181146.07000000001,"N_COORD97":2570765.9300000002,"ADDRESS":"中社８５號","OBJECTID":268087},"geometry":{"x":181146.07000000123,"y":2570765.9300000016}},{"attributes":{"ID":268093,"DIS_CODE":0,"TOWNNAME":"新營區","LI":"興業里","LIN":" ","STREET":"公誠街","SECT":" ","MAREA":" ","LANE":"１７巷","ALLEY":" ","HOUSE_NO":"２之２號","E_COORD97":180301.84,"N_COORD97":2577913.5299999998,"ADDRESS":"公誠街１７巷２之２號","OBJECTID":268088},"geometry":{"x":180301.83999999985,"y":2577913.5300000031}},{"attributes":{"ID":268094,"DIS_CODE":0,"TOWNNAME":"永康區","LI":"尚頂里","LIN":"17鄰","STREET":"中正南路","SECT":" ","MAREA":" ","LANE":"２１０巷","ALLEY":" ","HOUSE_NO":"７號","E_COORD97":170118.35000000001,"N_COORD97":2547187.1299999999,"ADDRESS":"中正南路２１０巷７號","OBJECTID":268089},"geometry":{"x":170118.35000000056,"y":2547187.1300000008}},{"attributes":{"ID":268095,"DIS_CODE":0,"TOWNNAME":"永康區","LI":"西灣里","LIN":"17鄰","STREET":"永大路","SECT":"二段","MAREA":" ","LANE":"５５６巷","ALLEY":" ","HOUSE_NO":"１５號","E_COORD97":174459.95000000001,"N_COORD97":2545431.77,"ADDRESS":"永大路二段５５６巷１５號","OBJECTID":268090},"geometry":{"x":174459.95000000019,"y":2545431.7699999996}},{"attributes":{"ID":268096,"DIS_CODE":0,"TOWNNAME":"永康區","LI":"西灣里","LIN":"17鄰","STREET":"永大路","SECT":"二段","MAREA":" ","LANE":"５５６巷","ALLEY":" ","HOUSE_NO":"３７號","E_COORD97":174517.70000000001,"N_COORD97":2545405.2799999998,"ADDRESS":"永大路二段５５６巷３７號","OBJECTID":268091},"geometry":{"x":174517.70000000019,"y":2545405.2800000012}},{"attributes":{"ID":268097,"DIS_CODE":0,"TOWNNAME":"永康區","LI":"尚頂里","LIN":"17鄰","STREET":"中正南路","SECT":" ","MAREA":" ","LANE":"２１０巷","ALLEY":" ","HOUSE_NO":"３號","E_COORD97":170090.42000000001,"N_COORD97":2547233.3199999998,"ADDRESS":"中正南路２１０巷３號","OBJECTID":268092},"geometry":{"x":170090.42000000179,"y":2547233.320000004}},{"attributes":{"ID":268098,"DIS_CODE":0,"TOWNNAME":"六甲區","LI":"王爺里","LIN":"3鄰","STREET":" ","SECT":" ","MAREA":"水流東","LANE":" ","ALLEY":" ","HOUSE_NO":"１１號","E_COORD97":189551.92000000001,"N_COORD97":2569712.1899999999,"ADDRESS":"水流東１１號","OBJECTID":268093},"geometry":{"x":189551.92000000086,"y":2569712.1900000013}},{"attributes":{"ID":268099,"DIS_CODE":0,"TOWNNAME":"六甲區","LI":"王爺里","LIN":"3鄰","STREET":" ","SECT":" ","MAREA":"水流東","LANE":" ","ALLEY":" ","HOUSE_NO":"１３號","E_COORD97":189585.78,"N_COORD97":2569791.46,"ADDRESS":"水流東１３號","OBJECTID":268094},"geometry":{"x":189585.78000000026,"y":2569791.4600000009}},{"attributes":{"ID":268100,"DIS_CODE":0,"TOWNNAME":"永康區","LI":"西灣里","LIN":"17鄰","STREET":"永大路","SECT":"二段","MAREA":" ","LANE":"５５６巷","ALLEY":" ","HOUSE_NO":"２５號","E_COORD97":174492.73000000001,"N_COORD97":2545418.2799999998,"ADDRESS":"永大路二段５５６巷２５號","OBJECTID":268095},"geometry":{"x":174492.73000000045,"y":2545418.2799999975}},{"attributes":{"ID":268101,"DIS_CODE":0,"TOWNNAME":"六甲區","LI":"王爺里","LIN":"3鄰","STREET":" ","SECT":" ","MAREA":"水流東","LANE":" ","ALLEY":" ","HOUSE_NO":"１號之１","E_COORD97":187722.92000000001,"N_COORD97":2570434.7599999998,"ADDRESS":"水流東１號之１","OBJECTID":268096},"geometry":{"x":187722.91999999993,"y":2570434.7600000016}},{"attributes":{"ID":268102,"DIS_CODE":0,"TOWNNAME":"六甲區","LI":"王爺里","LIN":"3鄰","STREET":" ","SECT":" ","MAREA":"水流東","LANE":" ","ALLEY":" ","HOUSE_NO":"２號","E_COORD97":188502.95999999999,"N_COORD97":2569915.2400000002,"ADDRESS":"水流東２號","OBJECTID":268097},"geometry":{"x":188502.95999999996,"y":2569915.2400000039}},{"attributes":{"ID":268103,"DIS_CODE":0,"TOWNNAME":"六甲區","LI":"王爺里","LIN":"3鄰","STREET":" ","SECT":" ","MAREA":"水流東","LANE":" ","ALLEY":" ","HOUSE_NO":"３號","E_COORD97":188895.60000000001,"N_COORD97":2570120.3999999999,"ADDRESS":"水流東３號","OBJECTID":268098},"geometry":{"x":188895.60000000056,"y":2570120.4000000004}},{"attributes":{"ID":268104,"DIS_CODE":0,"TOWNNAME":"六甲區","LI":"王爺里","LIN":"3鄰","STREET":" ","SECT":" ","MAREA":"水流東","LANE":" ","ALLEY":" ","HOUSE_NO":"４之１６號","E_COORD97":188832.73000000001,"N_COORD97":2570156.77,"ADDRESS":"水流東４之１６號","OBJECTID":268099},"geometry":{"x":188832.73000000138,"y":2570156.7699999996}},{"attributes":{"ID":268105,"DIS_CODE":0,"TOWNNAME":"六甲區","LI":"王爺里","LIN":"3鄰","STREET":" ","SECT":" ","MAREA":"水流東","LANE":" ","ALLEY":" ","HOUSE_NO":"４號之１","E_COORD97":188812.62,"N_COORD97":2569974.1099999999,"ADDRESS":"水流東４號之１","OBJECTID":268100},"geometry":{"x":188812.62000000197,"y":2569974.1100000013}},{"attributes":{"ID":268106,"DIS_CODE":0,"TOWNNAME":"六甲區","LI":"王爺里","LIN":"3鄰","STREET":" ","SECT":" ","MAREA":"水流東","LANE":" ","ALLEY":" ","HOUSE_NO":"４號之２","E_COORD97":188791.06,"N_COORD97":2569952.0899999999,"ADDRESS":"水流東４號之２","OBJECTID":268101},"geometry":{"x":188791.06000000052,"y":2569952.0899999999}},{"attributes":{"ID":268107,"DIS_CODE":0,"TOWNNAME":"六甲區","LI":"王爺里","LIN":"3鄰","STREET":" ","SECT":" ","MAREA":"水流東","LANE":" ","ALLEY":" ","HOUSE_NO":"４號","E_COORD97":188891.54000000001,"N_COORD97":2570101.8100000001,"ADDRESS":"水流東４號","OBJECTID":268102},"geometry":{"x":188891.54000000097,"y":2570101.8100000024}},{"attributes":{"ID":268108,"DIS_CODE":0,"TOWNNAME":"六甲區","LI":"王爺里","LIN":"3鄰","STREET":" ","SECT":" ","MAREA":"水流東","LANE":" ","ALLEY":" ","HOUSE_NO":"５號之１","E_COORD97":189158.14000000001,"N_COORD97":2569924.98,"ADDRESS":"水流東５號之１","OBJECTID":268103},"geometry":{"x":189158.1400000006,"y":2569924.9800000023}},{"attributes":{"ID":268109,"DIS_CODE":0,"TOWNNAME":"六甲區","LI":"王爺里","LIN":"3鄰","STREET":" ","SECT":" ","MAREA":"水流東","LANE":" ","ALLEY":" ","HOUSE_NO":"５號","E_COORD97":189146.09,"N_COORD97":2569937.77,"ADDRESS":"水流東５號","OBJECTID":268104},"geometry":{"x":189146.08999999985,"y":2569937.7699999977}},{"attributes":{"ID":268110,"DIS_CODE":0,"TOWNNAME":"六甲區","LI":"王爺里","LIN":"3鄰","STREET":" ","SECT":" ","MAREA":"水流東","LANE":" ","ALLEY":" ","HOUSE_NO":"６號之１","E_COORD97":189167.73000000001,"N_COORD97":2569868.3599999999,"ADDRESS":"水流東６號之１","OBJECTID":268105},"geometry":{"x":189167.73000000045,"y":2569868.3599999994}},{"attributes":{"ID":268111,"DIS_CODE":0,"TOWNNAME":"六甲區","LI":"王爺里","LIN":"3鄰","STREET":" ","SECT":" ","MAREA":"水流東","LANE":" ","ALLEY":" ","HOUSE_NO":"６號之２","E_COORD97":189163.42000000001,"N_COORD97":2569814.29,"ADDRESS":"水流東６號之２","OBJECTID":268106},"geometry":{"x":189163.42000000086,"y":2569814.2899999991}},{"attributes":{"ID":268112,"DIS_CODE":0,"TOWNNAME":"六甲區","LI":"王爺里","LIN":"3鄰","STREET":" ","SECT":" ","MAREA":"水流東","LANE":" ","ALLEY":" ","HOUSE_NO":"６號","E_COORD97":189174.64000000001,"N_COORD97":2569900.96,"ADDRESS":"水流東６號","OBJECTID":268107},"geometry":{"x":189174.63999999873,"y":2569900.9600000046}},{"attributes":{"ID":268113,"DIS_CODE":0,"TOWNNAME":"六甲區","LI":"王爺里","LIN":"3鄰","STREET":" ","SECT":" ","MAREA":"水流東","LANE":" ","ALLEY":" ","HOUSE_NO":"７號","E_COORD97":189237.07999999999,"N_COORD97":2569887.54,"ADDRESS":"水流東７號","OBJECTID":268108},"geometry":{"x":189237.08000000101,"y":2569887.5399999991}},{"attributes":{"ID":268114,"DIS_CODE":0,"TOWNNAME":"仁德區","LI":"中生里","LIN":"5鄰","STREET":" ","SECT":" ","MAREA":"中洲","LANE":" ","ALLEY":" ","HOUSE_NO":"１２５之４號","E_COORD97":172938.77100000001,"N_COORD97":2534303.9195699999,"ADDRESS":"中洲１２５之４號","OBJECTID":268109},"geometry":{"x":172938.77100000065,"y":2534303.9195660017}},{"attributes":{"ID":268115,"DIS_CODE":0,"TOWNNAME":"新營區","LI":"護鎮里","LIN":"3鄰","STREET":" ","SECT":" ","MAREA":"後鎮","LANE":" ","ALLEY":" ","HOUSE_NO":"３２號","E_COORD97":179232.51999999999,"N_COORD97":2581084.75,"ADDRESS":"後鎮３２號","OBJECTID":268110},"geometry":{"x":179232.51999999955,"y":2581084.75}},{"attributes":{"ID":268116,"DIS_CODE":0,"TOWNNAME":"永康區","LI":"尚頂里","LIN":"17鄰","STREET":"中正南路","SECT":" ","MAREA":" ","LANE":"２２０巷","ALLEY":" ","HOUSE_NO":"１０號","E_COORD97":170186.42000000001,"N_COORD97":2547291.6400000001,"ADDRESS":"中正南路２２０巷１０號","OBJECTID":268111},"geometry":{"x":170186.41999999993,"y":2547291.6400000006}},{"attributes":{"ID":268117,"DIS_CODE":0,"TOWNNAME":"永康區","LI":"西灣里","LIN":"17鄰","STREET":"永大路","SECT":"二段","MAREA":" ","LANE":"５５６巷","ALLEY":" ","HOUSE_NO":"３１號","E_COORD97":174506.09,"N_COORD97":2545410.5299999998,"ADDRESS":"永大路二段５５６巷３１號","OBJECTID":268112},"geometry":{"x":174506.08999999985,"y":2545410.5300000012}},{"attributes":{"ID":268118,"DIS_CODE":0,"TOWNNAME":"永康區","LI":"尚頂里","LIN":"17鄰","STREET":"中正南路","SECT":" ","MAREA":" ","LANE":"２２０巷","ALLEY":" ","HOUSE_NO":"３２號","E_COORD97":170270.04000000001,"N_COORD97":2547296.29,"ADDRESS":"中正南路２２０巷３２號","OBJECTID":268113},"geometry":{"x":170270.04000000097,"y":2547296.2899999972}},{"attributes":{"ID":268119,"DIS_CODE":0,"TOWNNAME":"永康區","LI":"西灣里","LIN":"17鄰","STREET":"永大路","SECT":"二段","MAREA":" ","LANE":"５５６巷","ALLEY":" ","HOUSE_NO":"１７號","E_COORD97":174465.70000000001,"N_COORD97":2545429.77,"ADDRESS":"永大路二段５５６巷１７號","OBJECTID":268114},"geometry":{"x":174465.70000000205,"y":2545429.7700000014}},{"attributes":{"ID":268120,"DIS_CODE":0,"TOWNNAME":"永康區","LI":"西灣里","LIN":"17鄰","STREET":"永大路","SECT":"二段","MAREA":" ","LANE":"５５６巷","ALLEY":" ","HOUSE_NO":"７號","E_COORD97":174430.81,"N_COORD97":2545439.02,"ADDRESS":"永大路二段５５６巷７號","OBJECTID":268115},"geometry":{"x":174430.81000000052,"y":2545439.0200000014}},{"attributes":{"ID":268121,"DIS_CODE":0,"TOWNNAME":"新營區","LI":"護鎮里","LIN":"3鄰","STREET":" ","SECT":" ","MAREA":"後鎮","LANE":" ","ALLEY":" ","HOUSE_NO":"２３號","E_COORD97":179291.95000000001,"N_COORD97":2581112.1600000001,"ADDRESS":"後鎮２３號","OBJECTID":268116},"geometry":{"x":179291.95000000205,"y":2581112.160000002}},{"attributes":{"ID":268122,"DIS_CODE":0,"TOWNNAME":"永康區","LI":"西灣里","LIN":"17鄰","STREET":"永大路","SECT":"二段","MAREA":" ","LANE":"５５６巷","ALLEY":" ","HOUSE_NO":"４１號","E_COORD97":174532.17999999999,"N_COORD97":2545405.7799999998,"ADDRESS":"永大路二段５５６巷４１號","OBJECTID":268117},"geometry":{"x":174532.18000000063,"y":2545405.7800000012}},{"attributes":{"ID":268123,"DIS_CODE":0,"TOWNNAME":"新營區","LI":"民榮里","LIN":"26鄰","STREET":"復興路","SECT":" ","MAREA":" ","LANE":"３０５巷","ALLEY":" ","HOUSE_NO":"３７號","E_COORD97":178539.81,"N_COORD97":2578043.6800000002,"ADDRESS":"復興路３０５巷３７號","OBJECTID":268118},"geometry":{"x":178539.81000000052,"y":2578043.6799999997}},{"attributes":{"ID":268124,"DIS_CODE":0,"TOWNNAME":"安南區","LI":"州北里","LIN":"17鄰","STREET":"安和路","SECT":"六段","MAREA":" ","LANE":"２０巷","ALLEY":" ","HOUSE_NO":"１號","E_COORD97":169640,"N_COORD97":2552399.2799999998,"ADDRESS":"安和路六段２０巷１號","OBJECTID":268119},"geometry":{"x":169640,"y":2552399.2800000031}},{"attributes":{"ID":268125,"DIS_CODE":0,"TOWNNAME":"安南區","LI":"州北里","LIN":"17鄰","STREET":"安和路","SECT":"六段","MAREA":" ","LANE":"２０巷","ALLEY":" ","HOUSE_NO":"１２號","E_COORD97":169663.62,"N_COORD97":2552391.0099999998,"ADDRESS":"安和路六段２０巷１２號","OBJECTID":268120},"geometry":{"x":169663.61999999918,"y":2552391.0099999998}},{"attributes":{"ID":268126,"DIS_CODE":0,"TOWNNAME":"柳營區","LI":"果毅里","LIN":"3鄰","STREET":" ","SECT":" ","MAREA":"果毅後","LANE":" ","ALLEY":" ","HOUSE_NO":"３１號之１","E_COORD97":185524.45000000001,"N_COORD97":2572942.1499999999,"ADDRESS":"果毅後３１號之１","OBJECTID":268121},"geometry":{"x":185524.45000000019,"y":2572942.1500000004}},{"attributes":{"ID":268127,"DIS_CODE":0,"TOWNNAME":"柳營區","LI":"果毅里","LIN":"3鄰","STREET":" ","SECT":" ","MAREA":"果毅後","LANE":" ","ALLEY":" ","HOUSE_NO":"３１之３號","E_COORD97":185542.10000000001,"N_COORD97":2572952.5099999998,"ADDRESS":"果毅後３１之３號","OBJECTID":268122},"geometry":{"x":185542.10000000149,"y":2572952.5099999998}},{"attributes":{"ID":268128,"DIS_CODE":0,"TOWNNAME":"柳營區","LI":"果毅里","LIN":"3鄰","STREET":" ","SECT":" ","MAREA":"果毅後","LANE":" ","ALLEY":" ","HOUSE_NO":"３２號","E_COORD97":185546.17999999999,"N_COORD97":2572951.5699999998,"ADDRESS":"果毅後３２號","OBJECTID":268123},"geometry":{"x":185546.1799999997,"y":2572951.5700000022}},{"attributes":{"ID":268129,"DIS_CODE":0,"TOWNNAME":"安南區","LI":"理想里","LIN":"17鄰","STREET":"大安街","SECT":" ","MAREA":" ","LANE":"２１５巷","ALLEY":" ","HOUSE_NO":"１２號","E_COORD97":167380.20000000001,"N_COORD97":2548377.9199999999,"ADDRESS":"大安街２１５巷１２號","OBJECTID":268124},"geometry":{"x":167380.20000000112,"y":2548377.9200000037}},{"attributes":{"ID":268130,"DIS_CODE":0,"TOWNNAME":"柳營區","LI":"太康里","LIN":"3鄰","STREET":" ","SECT":" ","MAREA":"太康","LANE":" ","ALLEY":" ","HOUSE_NO":"１８號之２","E_COORD97":181356.76999999999,"N_COORD97":2576322.5,"ADDRESS":"太康１８號之２","OBJECTID":268125},"geometry":{"x":181356.76999999955,"y":2576322.5000000019}},{"attributes":{"ID":268131,"DIS_CODE":0,"TOWNNAME":"柳營區","LI":"太康里","LIN":"3鄰","STREET":" ","SECT":" ","MAREA":"太康","LANE":" ","ALLEY":" ","HOUSE_NO":"１８號之３","E_COORD97":181356.67000000001,"N_COORD97":2576327.2599999998,"ADDRESS":"太康１８號之３","OBJECTID":268126},"geometry":{"x":181356.67000000179,"y":2576327.2600000016}},{"attributes":{"ID":268132,"DIS_CODE":0,"TOWNNAME":"柳營區","LI":"太康里","LIN":"3鄰","STREET":" ","SECT":" ","MAREA":"太康","LANE":" ","ALLEY":" ","HOUSE_NO":"１８號之４","E_COORD97":181356.76000000001,"N_COORD97":2576332.3799999999,"ADDRESS":"太康１８號之４","OBJECTID":268127},"geometry":{"x":181356.75999999978,"y":2576332.3800000008}},{"attributes":{"ID":268133,"DIS_CODE":0,"TOWNNAME":"柳營區","LI":"太康里","LIN":"3鄰","STREET":" ","SECT":" ","MAREA":"太康","LANE":" ","ALLEY":" ","HOUSE_NO":"１８號","E_COORD97":181365.19,"N_COORD97":2576290.6899999999,"ADDRESS":"太康１８號","OBJECTID":268128},"geometry":{"x":181365.19000000041,"y":2576290.6899999995}},{"attributes":{"ID":268134,"DIS_CODE":0,"TOWNNAME":"柳營區","LI":"太康里","LIN":"3鄰","STREET":" ","SECT":" ","MAREA":"太康","LANE":" ","ALLEY":" ","HOUSE_NO":"１９號","E_COORD97":181378.78,"N_COORD97":2576283.8500000001,"ADDRESS":"太康１９號","OBJECTID":268129},"geometry":{"x":181378.78000000119,"y":2576283.8499999996}},{"attributes":{"ID":268135,"DIS_CODE":0,"TOWNNAME":"安南區","LI":"理想里","LIN":"17鄰","STREET":"大安街","SECT":" ","MAREA":" ","LANE":"２１５巷","ALLEY":" ","HOUSE_NO":"１０號","E_COORD97":167384.01000000001,"N_COORD97":2548375.1299999999,"ADDRESS":"大安街２１５巷１０號","OBJECTID":268130},"geometry":{"x":167384.01000000164,"y":2548375.129999999}},{"attributes":{"ID":268136,"DIS_CODE":0,"TOWNNAME":"安南區","LI":"理想里","LIN":"17鄰","STREET":"大安街","SECT":" ","MAREA":" ","LANE":"２１５巷","ALLEY":" ","HOUSE_NO":"６號","E_COORD97":167393.92000000001,"N_COORD97":2548368.3999999999,"ADDRESS":"大安街２１５巷６號","OBJECTID":268131},"geometry":{"x":167393.92000000086,"y":2548368.4000000041}},{"attributes":{"ID":268137,"DIS_CODE":0,"TOWNNAME":"柳營區","LI":"人和里","LIN":"3鄰","STREET":"忠得街","SECT":" ","MAREA":" ","LANE":" ","ALLEY":" ","HOUSE_NO":"１０３之１號","E_COORD97":178439.12,"N_COORD97":2575980.0099999998,"ADDRESS":"忠得街１０３之１號","OBJECTID":268132},"geometry":{"x":178439.12000000011,"y":2575980.0099999998}},{"attributes":{"ID":268138,"DIS_CODE":0,"TOWNNAME":"安南區","LI":"理想里","LIN":"17鄰","STREET":"大安街","SECT":" ","MAREA":" ","LANE":"２１５巷","ALLEY":" ","HOUSE_NO":"８號","E_COORD97":167388.45000000001,"N_COORD97":2548371.7000000002,"ADDRESS":"大安街２１５巷８號","OBJECTID":268133},"geometry":{"x":167388.45000000112,"y":2548371.6999999974}},{"attributes":{"ID":268139,"DIS_CODE":0,"TOWNNAME":"東區","LI":"東門里","LIN":"17鄰","STREET":"東門路","SECT":"一段","MAREA":" ","LANE":"１３５巷","ALLEY":" ","HOUSE_NO":"３號","E_COORD97":169488.04999999999,"N_COORD97":2543237.1200000001,"ADDRESS":"東門路一段１３５巷３號","OBJECTID":268134},"geometry":{"x":169488.05000000075,"y":2543237.120000001}},{"attributes":{"ID":268140,"DIS_CODE":0,"TOWNNAME":"東區","LI":"東門里","LIN":"17鄰","STREET":"東門路","SECT":"一段","MAREA":" ","LANE":"１３５巷","ALLEY":" ","HOUSE_NO":"４號","E_COORD97":169487.82000000001,"N_COORD97":2543240.4300000002,"ADDRESS":"東門路一段１３５巷４號","OBJECTID":268135},"geometry":{"x":169487.81999999937,"y":2543240.4299999997}},{"attributes":{"ID":268141,"DIS_CODE":0,"TOWNNAME":"東區","LI":"東門里","LIN":"17鄰","STREET":"東門路","SECT":"一段","MAREA":" ","LANE":"１３５巷","ALLEY":" ","HOUSE_NO":"５號","E_COORD97":169492.14000000001,"N_COORD97":2543247.8500000001,"ADDRESS":"東門路一段１３５巷５號","OBJECTID":268136},"geometry":{"x":169492.1400000006,"y":2543247.8499999996}},{"attributes":{"ID":268142,"DIS_CODE":0,"TOWNNAME":"東區","LI":"東門里","LIN":"17鄰","STREET":"東門路","SECT":"一段","MAREA":" ","LANE":"１３５巷","ALLEY":" ","HOUSE_NO":"１０號","E_COORD97":169491.29999999999,"N_COORD97":2543289.4100000001,"ADDRESS":"東門路一段１３５巷１０號","OBJECTID":268137},"geometry":{"x":169491.30000000075,"y":2543289.4100000039}},{"attributes":{"ID":268143,"DIS_CODE":0,"TOWNNAME":"仁德區","LI":"中生里","LIN":"5鄰","STREET":" ","SECT":" ","MAREA":"中洲","LANE":" ","ALLEY":" ","HOUSE_NO":"１２６號","E_COORD97":172918.855798,"N_COORD97":2534218.6179499999,"ADDRESS":"中洲１２６號","OBJECTID":268138},"geometry":{"x":172918.85579800047,"y":2534218.6179460008}},{"attributes":{"ID":268144,"DIS_CODE":0,"TOWNNAME":"柳營區","LI":"神農里","LIN":"3鄰","STREET":" ","SECT":" ","MAREA":"果毅後","LANE":" ","ALLEY":" ","HOUSE_NO":"２５４號之２","E_COORD97":185288.78,"N_COORD97":2572752.7599999998,"ADDRESS":"果毅後２５４號之２","OBJECTID":268139},"geometry":{"x":185288.78000000026,"y":2572752.7600000016}},{"attributes":{"ID":268145,"DIS_CODE":0,"TOWNNAME":"柳營區","LI":"神農里","LIN":"3鄰","STREET":" ","SECT":" ","MAREA":"果毅後","LANE":" ","ALLEY":" ","HOUSE_NO":"２５４號之３","E_COORD97":185291.92999999999,"N_COORD97":2572769.02,"ADDRESS":"果毅後２５４號之３","OBJECTID":268140},"geometry":{"x":185291.9299999997,"y":2572769.0199999996}},{"attributes":{"ID":268146,"DIS_CODE":0,"TOWNNAME":"柳營區","LI":"神農里","LIN":"3鄰","STREET":" ","SECT":" ","MAREA":"果毅後","LANE":" ","ALLEY":" ","HOUSE_NO":"２５６號之２","E_COORD97":185314.62,"N_COORD97":2572791.2200000002,"ADDRESS":"果毅後２５６號之２","OBJECTID":268141},"geometry":{"x":185314.62000000011,"y":2572791.2200000025}},{"attributes":{"ID":268147,"DIS_CODE":0,"TOWNNAME":"東區","LI":"東門里","LIN":"17鄰","STREET":"東門路","SECT":"一段","MAREA":" ","LANE":"１３５巷","ALLEY":" ","HOUSE_NO":"１１號","E_COORD97":169489.20999999999,"N_COORD97":2543264.3300000001,"ADDRESS":"東門路一段１３５巷１１號","OBJECTID":268142},"geometry":{"x":169489.20999999996,"y":2543264.3300000019}},{"attributes":{"ID":268148,"DIS_CODE":0,"TOWNNAME":"東區","LI":"東門里","LIN":"17鄰","STREET":"東門路","SECT":"一段","MAREA":" ","LANE":"１３５巷","ALLEY":" ","HOUSE_NO":"１２號","E_COORD97":169495.14999999999,"N_COORD97":2543264.02,"ADDRESS":"東門路一段１３５巷１２號","OBJECTID":268143},"geometry":{"x":169495.15000000037,"y":2543264.0199999977}},{"attributes":{"ID":268149,"DIS_CODE":0,"TOWNNAME":"東區","LI":"東門里","LIN":"17鄰","STREET":"東門路","SECT":"一段","MAREA":" ","LANE":"１３５巷","ALLEY":" ","HOUSE_NO":"１３號","E_COORD97":169499.63,"N_COORD97":2543258.3199999998,"ADDRESS":"東門路一段１３５巷１３號","OBJECTID":268144},"geometry":{"x":169499.63000000082,"y":2543258.3200000003}},{"attributes":{"ID":268150,"DIS_CODE":0,"TOWNNAME":"東區","LI":"東門里","LIN":"17鄰","STREET":"東門路","SECT":"一段","MAREA":" ","LANE":"１３５巷","ALLEY":" ","HOUSE_NO":"１４號","E_COORD97":169502.94,"N_COORD97":2543257.4700000002,"ADDRESS":"東門路一段１３５巷１４號","OBJECTID":268145},"geometry":{"x":169502.94000000134,"y":2543257.4700000007}},{"attributes":{"ID":268151,"DIS_CODE":0,"TOWNNAME":"柳營區","LI":"神農里","LIN":"3鄰","STREET":" ","SECT":" ","MAREA":"果毅後","LANE":" ","ALLEY":" ","HOUSE_NO":"２６４之１號","E_COORD97":185216.32000000001,"N_COORD97":2572670.1000000001,"ADDRESS":"果毅後２６４之１號","OBJECTID":268146},"geometry":{"x":185216.32000000123,"y":2572670.1000000015}},{"attributes":{"ID":268152,"DIS_CODE":0,"TOWNNAME":"東區","LI":"東門里","LIN":"17鄰","STREET":"東門路","SECT":"一段","MAREA":" ","LANE":"１３５巷","ALLEY":" ","HOUSE_NO":"１５號","E_COORD97":169506.88,"N_COORD97":2543256.1600000001,"ADDRESS":"東門路一段１３５巷１５號","OBJECTID":268147},"geometry":{"x":169506.87999999989,"y":2543256.1600000001}},{"attributes":{"ID":268153,"DIS_CODE":0,"TOWNNAME":"東區","LI":"東門里","LIN":"17鄰","STREET":"東門路","SECT":"一段","MAREA":" ","LANE":"１３５巷","ALLEY":" ","HOUSE_NO":"１７號","E_COORD97":169503.48000000001,"N_COORD97":2543265.7200000002,"ADDRESS":"東門路一段１３５巷１７號","OBJECTID":268148},"geometry":{"x":169503.48000000045,"y":2543265.7200000007}},{"attributes":{"ID":268154,"DIS_CODE":0,"TOWNNAME":"新營區","LI":"嘉芳里","LIN":" ","STREET":"復興路","SECT":" ","MAREA":" ","LANE":"８０３巷","ALLEY":" ","HOUSE_NO":"９號","E_COORD97":177128.20999999999,"N_COORD97":2578530.0800000001,"ADDRESS":"復興路８０３巷９號","OBJECTID":268149},"geometry":{"x":177128.20999999996,"y":2578530.0800000001}},{"attributes":{"ID":268155,"DIS_CODE":0,"TOWNNAME":"永康區","LI":"安康里","LIN":"17鄰","STREET":"中華路","SECT":" ","MAREA":" ","LANE":"６１９巷","ALLEY":" ","HOUSE_NO":"１８號","E_COORD97":171011.01000000001,"N_COORD97":2546088.9900000002,"ADDRESS":"中華路６１９巷１８號","OBJECTID":268150},"geometry":{"x":171011.00999999978,"y":2546088.9900000002}},{"attributes":{"ID":268156,"DIS_CODE":0,"TOWNNAME":"中西區","LI":"協和里","LIN":"3鄰","STREET":"文賢路","SECT":" ","MAREA":" ","LANE":" ","ALLEY":" ","HOUSE_NO":"６３號","E_COORD97":167392.01999999999,"N_COORD97":2544580.8900000001,"ADDRESS":"文賢路６３號","OBJECTID":268151},"geometry":{"x":167392.01999999955,"y":2544580.8900000006}},{"attributes":{"ID":268157,"DIS_CODE":0,"TOWNNAME":"中西區","LI":"協和里","LIN":"3鄰","STREET":"文賢路","SECT":" ","MAREA":" ","LANE":" ","ALLEY":" ","HOUSE_NO":"６５號","E_COORD97":167392.72,"N_COORD97":2544583.6800000002,"ADDRESS":"文賢路６５號","OBJECTID":268152},"geometry":{"x":167392.7200000016,"y":2544583.6800000016}},{"attributes":{"ID":268158,"DIS_CODE":0,"TOWNNAME":"南區","LI":"再興里","LIN":"3鄰","STREET":"三和街","SECT":" ","MAREA":" ","LANE":" ","ALLEY":" ","HOUSE_NO":"１５號","E_COORD97":167263.60000000001,"N_COORD97":2542401.8999999999,"ADDRESS":"三和街１５號","OBJECTID":268153},"geometry":{"x":167263.60000000056,"y":2542401.9000000022}},{"attributes":{"ID":268159,"DIS_CODE":0,"TOWNNAME":"北區","LI":"元寶里","LIN":"17鄰","STREET":"開元路","SECT":" ","MAREA":" ","LANE":"４８５巷","ALLEY":" ","HOUSE_NO":"２４號七樓之１","E_COORD97":170515.73999999999,"N_COORD97":2545710.9300000002,"ADDRESS":"開元路４８５巷２４號七樓之１","OBJECTID":268154},"geometry":{"x":170515.74000000209,"y":2545710.9300000016}},{"attributes":{"ID":268160,"DIS_CODE":0,"TOWNNAME":"北區","LI":"元寶里","LIN":"17鄰","STREET":"開元路","SECT":" ","MAREA":" ","LANE":"４８５巷","ALLEY":" ","HOUSE_NO":"２４號七樓之２","E_COORD97":170515.73999999999,"N_COORD97":2545710.9300000002,"ADDRESS":"開元路４８５巷２４號七樓之２","OBJECTID":268155},"geometry":{"x":170515.74000000209,"y":2545710.9300000016}},{"attributes":{"ID":268161,"DIS_CODE":0,"TOWNNAME":"北區","LI":"元寶里","LIN":"17鄰","STREET":"開元路","SECT":" ","MAREA":" ","LANE":"４８５巷","ALLEY":" ","HOUSE_NO":"２４號七樓之３","E_COORD97":170515.73999999999,"N_COORD97":2545710.9300000002,"ADDRESS":"開元路４８５巷２４號七樓之３","OBJECTID":268156},"geometry":{"x":170515.74000000209,"y":2545710.9300000016}},{"attributes":{"ID":268162,"DIS_CODE":0,"TOWNNAME":"北區","LI":"元寶里","LIN":"17鄰","STREET":"開元路","SECT":" ","MAREA":" ","LANE":"４８５巷","ALLEY":" ","HOUSE_NO":"２４號七樓之４","E_COORD97":170515.73999999999,"N_COORD97":2545710.9300000002,"ADDRESS":"開元路４８５巷２４號七樓之４","OBJECTID":268157},"geometry":{"x":170515.74000000209,"y":2545710.9300000016}},{"attributes":{"ID":268163,"DIS_CODE":0,"TOWNNAME":"北區","LI":"元寶里","LIN":"17鄰","STREET":"開元路","SECT":" ","MAREA":" ","LANE":"４８５巷","ALLEY":" ","HOUSE_NO":"２４號七樓之５","E_COORD97":170515.73999999999,"N_COORD97":2545710.9300000002,"ADDRESS":"開元路４８５巷２４號七樓之５","OBJECTID":268158},"geometry":{"x":170515.74000000209,"y":2545710.9300000016}},{"attributes":{"ID":268164,"DIS_CODE":0,"TOWNNAME":"北區","LI":"元寶里","LIN":"17鄰","STREET":"開元路","SECT":" ","MAREA":" ","LANE":"４８５巷","ALLEY":" ","HOUSE_NO":"２４號七樓之６","E_COORD97":170515.73999999999,"N_COORD97":2545710.9300000002,"ADDRESS":"開元路４８５巷２４號七樓之６","OBJECTID":268159},"geometry":{"x":170515.74000000209,"y":2545710.9300000016}},{"attributes":{"ID":268165,"DIS_CODE":0,"TOWNNAME":"北區","LI":"元寶里","LIN":"17鄰","STREET":"開元路","SECT":" ","MAREA":" ","LANE":"４８５巷","ALLEY":" ","HOUSE_NO":"２４號七樓之７","E_COORD97":170515.73999999999,"N_COORD97":2545710.9300000002,"ADDRESS":"開元路４８５巷２４號七樓之７","OBJECTID":268160},"geometry":{"x":170515.74000000209,"y":2545710.9300000016}},{"attributes":{"ID":268166,"DIS_CODE":0,"TOWNNAME":"北區","LI":"元寶里","LIN":"17鄰","STREET":"開元路","SECT":" ","MAREA":" ","LANE":"４８５巷","ALLEY":" ","HOUSE_NO":"２４號七樓之８","E_COORD97":170515.73999999999,"N_COORD97":2545710.9300000002,"ADDRESS":"開元路４８５巷２４號七樓之８","OBJECTID":268161},"geometry":{"x":170515.74000000209,"y":2545710.9300000016}},{"attributes":{"ID":268167,"DIS_CODE":0,"TOWNNAME":"北區","LI":"元寶里","LIN":"17鄰","STREET":"開元路","SECT":" ","MAREA":" ","LANE":"４８５巷","ALLEY":" ","HOUSE_NO":"２４號七樓之９","E_COORD97":170515.73999999999,"N_COORD97":2545710.9300000002,"ADDRESS":"開元路４８５巷２４號七樓之９","OBJECTID":268162},"geometry":{"x":170515.74000000209,"y":2545710.9300000016}},{"attributes":{"ID":268168,"DIS_CODE":0,"TOWNNAME":"北區","LI":"元寶里","LIN":"17鄰","STREET":"開元路","SECT":" ","MAREA":" ","LANE":"４８５巷","ALLEY":" ","HOUSE_NO":"２４號九樓之１","E_COORD97":170515.73999999999,"N_COORD97":2545710.9300000002,"ADDRESS":"開元路４８５巷２４號九樓之１","OBJECTID":268163},"geometry":{"x":170515.74000000209,"y":2545710.9300000016}},{"attributes":{"ID":268169,"DIS_CODE":0,"TOWNNAME":"北區","LI":"元寶里","LIN":"17鄰","STREET":"開元路","SECT":" ","MAREA":" ","LANE":"４８５巷","ALLEY":" ","HOUSE_NO":"２４號九樓之２","E_COORD97":170515.73999999999,"N_COORD97":2545710.9300000002,"ADDRESS":"開元路４８５巷２４號九樓之２","OBJECTID":268164},"geometry":{"x":170515.74000000209,"y":2545710.9300000016}},{"attributes":{"ID":268170,"DIS_CODE":0,"TOWNNAME":"北區","LI":"元寶里","LIN":"17鄰","STREET":"開元路","SECT":" ","MAREA":" ","LANE":"４８５巷","ALLEY":" ","HOUSE_NO":"２４號十二樓之４","E_COORD97":170515.73999999999,"N_COORD97":2545710.9300000002,"ADDRESS":"開元路４８５巷２４號十二樓之４","OBJECTID":268165},"geometry":{"x":170515.74000000209,"y":2545710.9300000016}},{"attributes":{"ID":268171,"DIS_CODE":0,"TOWNNAME":"南區","LI":"開南里","LIN":"17鄰","STREET":"新建路","SECT":" ","MAREA":" ","LANE":"２４巷","ALLEY":" ","HOUSE_NO":"１號十四樓之２","E_COORD97":166424.38,"N_COORD97":2541098.9300000002,"ADDRESS":"新建路２４巷１號十四樓之２","OBJECTID":268166},"geometry":{"x":166424.38000000082,"y":2541098.9300000016}},{"attributes":{"ID":268172,"DIS_CODE":0,"TOWNNAME":"新營區","LI":"南興里","LIN":"20鄰","STREET":"建業路","SECT":" ","MAREA":" ","LANE":"７８巷","ALLEY":" ","HOUSE_NO":"８號","E_COORD97":179348.25,"N_COORD97":2577528.1499999999,"ADDRESS":"建業路７８巷８號","OBJECTID":268167},"geometry":{"x":179348.25,"y":2577528.1500000022}},{"attributes":{"ID":268173,"DIS_CODE":0,"TOWNNAME":"仁德區","LI":"太子里","LIN":"17鄰","STREET":"太興路","SECT":" ","MAREA":" ","LANE":"１１７巷","ALLEY":" ","HOUSE_NO":"２１號二樓","E_COORD97":174022.04999999999,"N_COORD97":2543574.25,"ADDRESS":"太興路１１７巷２１號二樓","OBJECTID":268168},"geometry":{"x":174022.04999999888,"y":2543574.25}},{"attributes":{"ID":268174,"DIS_CODE":0,"TOWNNAME":"安南區","LI":"頂安里","LIN":"17鄰","STREET":"北安路","SECT":"三段","MAREA":" ","LANE":"１２６巷","ALLEY":" ","HOUSE_NO":"１號四樓","E_COORD97":168351.85000000001,"N_COORD97":2549102.73,"ADDRESS":"北安路三段１２６巷１號四樓","OBJECTID":268169},"geometry":{"x":168351.85000000056,"y":2549102.7300000023}},{"attributes":{"ID":268175,"DIS_CODE":0,"TOWNNAME":"安南區","LI":"頂安里","LIN":"17鄰","STREET":"北安路","SECT":"三段","MAREA":" ","LANE":"１２６巷","ALLEY":" ","HOUSE_NO":"２號二樓","E_COORD97":168359.48999999999,"N_COORD97":2549101.71,"ADDRESS":"北安路三段１２６巷２號二樓","OBJECTID":268170},"geometry":{"x":168359.49000000209,"y":2549101.7100000009}},{"attributes":{"ID":268176,"DIS_CODE":0,"TOWNNAME":"安南區","LI":"頂安里","LIN":"17鄰","STREET":"北安路","SECT":"三段","MAREA":" ","LANE":"１２６巷","ALLEY":" ","HOUSE_NO":"２號四樓","E_COORD97":168359.48999999999,"N_COORD97":2549101.71,"ADDRESS":"北安路三段１２６巷２號四樓","OBJECTID":268171},"geometry":{"x":168359.49000000209,"y":2549101.7100000009}},{"attributes":{"ID":268177,"DIS_CODE":0,"TOWNNAME":"安南區","LI":"頂安里","LIN":"17鄰","STREET":"北安路","SECT":"三段","MAREA":" ","LANE":"１２６巷","ALLEY":" ","HOUSE_NO":"３號二樓","E_COORD97":168365.37,"N_COORD97":2549091.2799999998,"ADDRESS":"北安路三段１２６巷３號二樓","OBJECTID":268172},"geometry":{"x":168365.37000000104,"y":2549091.2800000012}},{"attributes":{"ID":268178,"DIS_CODE":0,"TOWNNAME":"白河區","LI":"仙草里","LIN":"20鄰","STREET":" ","SECT":" ","MAREA":"仙草","LANE":" ","ALLEY":" ","HOUSE_NO":"１１３號","E_COORD97":196823.07000000001,"N_COORD97":2582282.71,"ADDRESS":"仙草１１３號","OBJECTID":268173},"geometry":{"x":196823.07000000123,"y":2582282.7100000009}},{"attributes":{"ID":268179,"DIS_CODE":0,"TOWNNAME":"南區","LI":"大恩里","LIN":"3鄰","STREET":"國民路","SECT":" ","MAREA":" ","LANE":" ","ALLEY":" ","HOUSE_NO":"１３０號","E_COORD97":169272.92000000001,"N_COORD97":2540906.9100000001,"ADDRESS":"國民路１３０號","OBJECTID":268174},"geometry":{"x":169272.91999999993,"y":2540906.910000002}},{"attributes":{"ID":268180,"DIS_CODE":0,"TOWNNAME":"南區","LI":"大恩里","LIN":"3鄰","STREET":"國民路","SECT":" ","MAREA":" ","LANE":" ","ALLEY":" ","HOUSE_NO":"１３２號","E_COORD97":169268.95999999999,"N_COORD97":2540906.9100000001,"ADDRESS":"國民路１３２號","OBJECTID":268175},"geometry":{"x":169268.95999999996,"y":2540906.910000002}},{"attributes":{"ID":268181,"DIS_CODE":0,"TOWNNAME":"南區","LI":"大恩里","LIN":"3鄰","STREET":"國民路","SECT":" ","MAREA":" ","LANE":" ","ALLEY":" ","HOUSE_NO":"１１２號","E_COORD97":169320.19,"N_COORD97":2540909.4199999999,"ADDRESS":"國民路１１２號","OBJECTID":268176},"geometry":{"x":169320.19000000134,"y":2540909.4200000018}},{"attributes":{"ID":268182,"DIS_CODE":0,"TOWNNAME":"南區","LI":"日新里","LIN":"3鄰","STREET":"利南街","SECT":" ","MAREA":" ","LANE":" ","ALLEY":" ","HOUSE_NO":"９０號","E_COORD97":166750.12,"N_COORD97":2541258.7400000002,"ADDRESS":"利南街９０號","OBJECTID":268177},"geometry":{"x":166750.12000000104,"y":2541258.7400000002}},{"attributes":{"ID":268183,"DIS_CODE":0,"TOWNNAME":"新營區","LI":"王公里","LIN":"14鄰","STREET":"公正街","SECT":" ","MAREA":" ","LANE":"７０巷","ALLEY":" ","HOUSE_NO":"９號","E_COORD97":180219.28,"N_COORD97":2579396.73,"ADDRESS":"公正街７０巷９號","OBJECTID":268178},"geometry":{"x":180219.28000000119,"y":2579396.7300000004}},{"attributes":{"ID":268184,"DIS_CODE":0,"TOWNNAME":"南區","LI":"日新里","LIN":"3鄰","STREET":"利南街","SECT":" ","MAREA":" ","LANE":" ","ALLEY":" ","HOUSE_NO":"９２號","E_COORD97":166748.66,"N_COORD97":2541263.54,"ADDRESS":"利南街９２號","OBJECTID":268179},"geometry":{"x":166748.66000000015,"y":2541263.540000001}},{"attributes":{"ID":268185,"DIS_CODE":0,"TOWNNAME":"永康區","LI":"中華里","LIN":"17鄰","STREET":"中華路","SECT":" ","MAREA":" ","LANE":"１０巷","ALLEY":" ","HOUSE_NO":"１６號之５４十一樓","E_COORD97":171634.31,"N_COORD97":2544437.71,"ADDRESS":"中華路１０巷１６號之５４十一樓","OBJECTID":268180},"geometry":{"x":171634.30999999959,"y":2544437.7100000028}},{"attributes":{"ID":268186,"DIS_CODE":0,"TOWNNAME":"永康區","LI":"中華里","LIN":"17鄰","STREET":"中華路","SECT":" ","MAREA":" ","LANE":"１０巷","ALLEY":" ","HOUSE_NO":"１６號之２１六樓","E_COORD97":171659.54000000001,"N_COORD97":2544438.0099999998,"ADDRESS":"中華路１０巷１６號之２１六樓","OBJECTID":268181},"geometry":{"x":171659.54000000097,"y":2544438.0100000016}},{"attributes":{"ID":268187,"DIS_CODE":0,"TOWNNAME":"永康區","LI":"中華里","LIN":"17鄰","STREET":"中華路","SECT":" ","MAREA":" ","LANE":"１０巷","ALLEY":" ","HOUSE_NO":"１６號之５７十二樓","E_COORD97":171634.31,"N_COORD97":2544437.71,"ADDRESS":"中華路１０巷１６號之５７十二樓","OBJECTID":268182},"geometry":{"x":171634.30999999959,"y":2544437.7100000028}},{"attributes":{"ID":268188,"DIS_CODE":0,"TOWNNAME":"永康區","LI":"中華里","LIN":"17鄰","STREET":"中華路","SECT":" ","MAREA":" ","LANE":"１０巷","ALLEY":" ","HOUSE_NO":"１６號之１５五樓","E_COORD97":171659.54000000001,"N_COORD97":2544438.0099999998,"ADDRESS":"中華路１０巷１６號之１５五樓","OBJECTID":268183},"geometry":{"x":171659.54000000097,"y":2544438.0100000016}},{"attributes":{"ID":268189,"DIS_CODE":0,"TOWNNAME":"南區","LI":"日新里","LIN":"3鄰","STREET":"利南街","SECT":" ","MAREA":" ","LANE":" ","ALLEY":" ","HOUSE_NO":"９４號","E_COORD97":166748.66,"N_COORD97":2541266.6699999999,"ADDRESS":"利南街９４號","OBJECTID":268184},"geometry":{"x":166748.66000000015,"y":2541266.6700000037}},{"attributes":{"ID":268190,"DIS_CODE":0,"TOWNNAME":"永康區","LI":"東灣里","LIN":"30鄰","STREET":"大灣一街","SECT":" ","MAREA":" ","LANE":" ","ALLEY":" ","HOUSE_NO":"３８０號","E_COORD97":175159.01999999999,"N_COORD97":2544839.5600000001,"ADDRESS":"大灣一街３８０號","OBJECTID":268185},"geometry":{"x":175159.01999999955,"y":2544839.5600000024}},{"attributes":{"ID":268191,"DIS_CODE":0,"TOWNNAME":"永康區","LI":"東灣里","LIN":"30鄰","STREET":"大灣一街","SECT":" ","MAREA":" ","LANE":" ","ALLEY":" ","HOUSE_NO":"３８２號","E_COORD97":175164.37,"N_COORD97":2544839.8999999999,"ADDRESS":"大灣一街３８２號","OBJECTID":268186},"geometry":{"x":175164.37000000011,"y":2544839.9000000022}},{"attributes":{"ID":268192,"DIS_CODE":0,"TOWNNAME":"永康區","LI":"東灣里","LIN":"30鄰","STREET":"大灣一街","SECT":" ","MAREA":" ","LANE":" ","ALLEY":" ","HOUSE_NO":"３８８號","E_COORD97":175179.57999999999,"N_COORD97":2544841.9300000002,"ADDRESS":"大灣一街３８８號","OBJECTID":268187},"geometry":{"x":175179.58000000007,"y":2544841.9300000016}},{"attributes":{"ID":268193,"DIS_CODE":0,"TOWNNAME":"永康區","LI":"東灣里","LIN":"30鄰","STREET":"大灣一街","SECT":" ","MAREA":" ","LANE":" ","ALLEY":" ","HOUSE_NO":"３９０號","E_COORD97":175169.92999999999,"N_COORD97":2544854.2599999998,"ADDRESS":"大灣一街３９０號","OBJECTID":268188},"geometry":{"x":175169.9299999997,"y":2544854.2600000016}},{"attributes":{"ID":268194,"DIS_CODE":0,"TOWNNAME":"仁德區","LI":"仁和里","LIN":"2鄰","STREET":"和愛街","SECT":" ","MAREA":" ","LANE":" ","ALLEY":" ","HOUSE_NO":"３號一樓","E_COORD97":170387.54999999999,"N_COORD97":2540119.5299999998,"ADDRESS":"和愛街３號一樓","OBJECTID":268189},"geometry":{"x":170387.54999999981,"y":2540119.5299999993}},{"attributes":{"ID":268195,"DIS_CODE":0,"TOWNNAME":"東區","LI":"東明里","LIN":"17鄰","STREET":"東安路","SECT":" ","MAREA":" ","LANE":"７６巷","ALLEY":" ","HOUSE_NO":"１０號二樓","E_COORD97":170750.04999999999,"N_COORD97":2543655.2200000002,"ADDRESS":"東安路７６巷１０號二樓","OBJECTID":268190},"geometry":{"x":170750.04999999981,"y":2543655.2200000025}},{"attributes":{"ID":268196,"DIS_CODE":0,"TOWNNAME":"東區","LI":"東明里","LIN":"17鄰","STREET":"東安路","SECT":" ","MAREA":" ","LANE":"７６巷","ALLEY":" ","HOUSE_NO":"１０號三樓","E_COORD97":170750.04999999999,"N_COORD97":2543655.2200000002,"ADDRESS":"東安路７６巷１０號三樓","OBJECTID":268191},"geometry":{"x":170750.04999999981,"y":2543655.2200000025}},{"attributes":{"ID":268197,"DIS_CODE":0,"TOWNNAME":"東區","LI":"東明里","LIN":"17鄰","STREET":"東安路","SECT":" ","MAREA":" ","LANE":"７６巷","ALLEY":" ","HOUSE_NO":"１０號五樓","E_COORD97":170750.04999999999,"N_COORD97":2543655.2200000002,"ADDRESS":"東安路７６巷１０號五樓","OBJECTID":268192},"geometry":{"x":170750.04999999981,"y":2543655.2200000025}},{"attributes":{"ID":268198,"DIS_CODE":0,"TOWNNAME":"東區","LI":"東明里","LIN":"17鄰","STREET":"東安路","SECT":" ","MAREA":" ","LANE":"７６巷","ALLEY":" ","HOUSE_NO":"１０號四樓","E_COORD97":170750.04999999999,"N_COORD97":2543655.2200000002,"ADDRESS":"東安路７６巷１０號四樓","OBJECTID":268193},"geometry":{"x":170750.04999999981,"y":2543655.2200000025}},{"attributes":{"ID":268199,"DIS_CODE":0,"TOWNNAME":"東區","LI":"東明里","LIN":"17鄰","STREET":"東安路","SECT":" ","MAREA":" ","LANE":"７６巷","ALLEY":" ","HOUSE_NO":"８號五樓","E_COORD97":170742.81,"N_COORD97":2543656.8300000001,"ADDRESS":"東安路７６巷８號五樓","OBJECTID":268194},"geometry":{"x":170742.80999999959,"y":2543656.8300000019}},{"attributes":{"ID":268200,"DIS_CODE":0,"TOWNNAME":"東區","LI":"東明里","LIN":"17鄰","STREET":"東安路","SECT":" ","MAREA":" ","LANE":"７６巷","ALLEY":" ","HOUSE_NO":"８號四樓","E_COORD97":170742.81,"N_COORD97":2543656.8300000001,"ADDRESS":"東安路７６巷８號四樓","OBJECTID":268195},"geometry":{"x":170742.80999999959,"y":2543656.8300000019}},{"attributes":{"ID":268201,"DIS_CODE":0,"TOWNNAME":"永康區","LI":"復華里","LIN":"17鄰","STREET":"國華街","SECT":" ","MAREA":" ","LANE":"１０２巷","ALLEY":" ","HOUSE_NO":"５１號九樓之３","E_COORD97":172885.09,"N_COORD97":2546112.2799999998,"ADDRESS":"國華街１０２巷５１號九樓之３","OBJECTID":268196},"geometry":{"x":172885.09000000078,"y":2546112.2799999993}},{"attributes":{"ID":268202,"DIS_CODE":0,"TOWNNAME":"永康區","LI":"復華里","LIN":"17鄰","STREET":"國華街","SECT":" ","MAREA":" ","LANE":"１０２巷","ALLEY":" ","HOUSE_NO":"５１號八樓之１","E_COORD97":172884.98999999999,"N_COORD97":2546112.2799999998,"ADDRESS":"國華街１０２巷５１號八樓之１","OBJECTID":268197},"geometry":{"x":172884.99000000022,"y":2546112.2799999993}},{"attributes":{"ID":268203,"DIS_CODE":0,"TOWNNAME":"永康區","LI":"復華里","LIN":"17鄰","STREET":"國華街","SECT":" ","MAREA":" ","LANE":"１０２巷","ALLEY":" ","HOUSE_NO":"５１號八樓之３","E_COORD97":172885.09,"N_COORD97":2546112.2799999998,"ADDRESS":"國華街１０２巷５１號八樓之３","OBJECTID":268198},"geometry":{"x":172885.09000000078,"y":2546112.2799999993}},{"attributes":{"ID":268204,"DIS_CODE":0,"TOWNNAME":"永康區","LI":"\u25A0行里","LIN":"10鄰","STREET":"正南五街","SECT":" ","MAREA":" ","LANE":" ","ALLEY":" ","HOUSE_NO":"１８７號","E_COORD97":172066.07000000001,"N_COORD97":2548202.6499999999,"ADDRESS":"正南五街１８７號","OBJECTID":268199},"geometry":{"x":172066.0700000003,"y":2548202.6500000004}},{"attributes":{"ID":268205,"DIS_CODE":0,"TOWNNAME":"南區","LI":"文南里","LIN":"3鄰","STREET":"長南街","SECT":" ","MAREA":" ","LANE":" ","ALLEY":" ","HOUSE_NO":"６號","E_COORD97":167070.82999999999,"N_COORD97":2542621.9900000002,"ADDRESS":"長南街６號","OBJECTID":268200},"geometry":{"x":167070.83000000101,"y":2542621.9900000021}}]}