{"displayFieldName":"TOWNNAME","fieldAliases":{"ID":"ID","DIS_CODE":"DIS_CODE","TOWNNAME":"TOWNNAME","LI":"LI","LIN":"LIN","STREET":"STREET","SECT":"SECT","MAREA":"MAREA","LANE":"LANE","ALLEY":"ALLEY","HOUSE_NO":"HOUSE_NO","E_COORD97":"E_COORD97","N_COORD97":"N_COORD97","ADDRESS":"ADDRESS","OBJECTID":"OBJECTID"},"geometryType":"esriGeometryPoint","spatialReference":{"wkid":102443,"latestWkid":3826},"fields":[{"name":"ID","type":"esriFieldTypeDouble","alias":"ID"},{"name":"DIS_CODE","type":"esriFieldTypeInteger","alias":"DIS_CODE"},{"name":"TOWNNAME","type":"esriFieldTypeString","alias":"TOWNNAME","length":8},{"name":"LI","type":"esriFieldTypeString","alias":"LI","length":8},{"name":"LIN","type":"esriFieldTypeString","alias":"LIN","length":12},{"name":"STREET","type":"esriFieldTypeString","alias":"STREET","length":20},{"name":"SECT","type":"esriFieldTypeString","alias":"SECT","length":8},{"name":"MAREA","type":"esriFieldTypeString","alias":"MAREA","length":12},{"name":"LANE","type":"esriFieldTypeString","alias":"LANE","length":10},{"name":"ALLEY","type":"esriFieldTypeString","alias":"ALLEY","length":10},{"name":"HOUSE_NO","type":"esriFieldTypeString","alias":"HOUSE_NO","length":20},{"name":"E_COORD97","type":"esriFieldTypeDouble","alias":"E_COORD97"},{"name":"N_COORD97","type":"esriFieldTypeDouble","alias":"N_COORD97"},{"name":"ADDRESS","type":"esriFieldTypeString","alias":"ADDRESS","length":50},{"name":"OBJECTID","type":"esriFieldTypeOID","alias":"OBJECTID"}],"features":[{"attributes":{"ID":42401,"DIS_CODE":0,"TOWNNAME":"鹽水區","LI":"橋南里","LIN":"7鄰","STREET":"南門路","SECT":" ","MAREA":" ","LANE":"２０１巷","ALLEY":"３３弄","HOUSE_NO":"３７號","E_COORD97":175443.73000000001,"N_COORD97":2579028.3900000001,"ADDRESS":"南門路２０１巷３３弄３７號","OBJECTID":42401},"geometry":{"x":175443.73000000045,"y":2579028.3900000025}},{"attributes":{"ID":42402,"DIS_CODE":0,"TOWNNAME":"仁德區","LI":"太子里","LIN":"17鄰","STREET":"太子路","SECT":" ","MAREA":" ","LANE":" ","ALLEY":" ","HOUSE_NO":"２６８號","E_COORD97":174095.98000000001,"N_COORD97":2543521.7599999998,"ADDRESS":"太子路２６８號","OBJECTID":42402},"geometry":{"x":174095.98000000045,"y":2543521.7600000016}},{"attributes":{"ID":42403,"DIS_CODE":0,"TOWNNAME":"仁德區","LI":"保安里","LIN":"17鄰","STREET":"二仁路","SECT":"一段","MAREA":" ","LANE":" ","ALLEY":" ","HOUSE_NO":"４０號","E_COORD97":170604.14999999999,"N_COORD97":2535459.2799999998,"ADDRESS":"二仁路一段４０號","OBJECTID":42403},"geometry":{"x":170604.15000000037,"y":2535459.2799999993}},{"attributes":{"ID":42404,"DIS_CODE":0,"TOWNNAME":"仁德區","LI":"仁德里","LIN":"17鄰","STREET":"文華路","SECT":"三段","MAREA":" ","LANE":" ","ALLEY":" ","HOUSE_NO":"４１６號","E_COORD97":172402.73000000001,"N_COORD97":2541148.8700000001,"ADDRESS":"文華路三段４１６號","OBJECTID":42404},"geometry":{"x":172402.73000000231,"y":2541148.8700000029}},{"attributes":{"ID":42405,"DIS_CODE":0,"TOWNNAME":"仁德區","LI":"保安里","LIN":"17鄰","STREET":"中正路","SECT":"一段","MAREA":" ","LANE":" ","ALLEY":" ","HOUSE_NO":"７８號","E_COORD97":170935.20999999999,"N_COORD97":2535523.52,"ADDRESS":"中正路一段７８號","OBJECTID":42405},"geometry":{"x":170935.20999999996,"y":2535523.5199999996}},{"attributes":{"ID":42406,"DIS_CODE":0,"TOWNNAME":"仁德區","LI":"太子里","LIN":"17鄰","STREET":"長興路","SECT":" ","MAREA":" ","LANE":" ","ALLEY":" ","HOUSE_NO":"５號","E_COORD97":174110.16,"N_COORD97":2543535.2599999998,"ADDRESS":"長興路５號","OBJECTID":42406},"geometry":{"x":174110.16000000108,"y":2543535.2600000016}},{"attributes":{"ID":42407,"DIS_CODE":0,"TOWNNAME":"仁德區","LI":"太子里","LIN":"17鄰","STREET":"長興路","SECT":" ","MAREA":" ","LANE":" ","ALLEY":" ","HOUSE_NO":"１５號","E_COORD97":174113.76999999999,"N_COORD97":2543570.75,"ADDRESS":"長興路１５號","OBJECTID":42407},"geometry":{"x":174113.77000000142,"y":2543570.75}},{"attributes":{"ID":42408,"DIS_CODE":0,"TOWNNAME":"仁德區","LI":"保安里","LIN":"17鄰","STREET":"中正路","SECT":"一段","MAREA":" ","LANE":" ","ALLEY":" ","HOUSE_NO":"８４號","E_COORD97":170947.20000000001,"N_COORD97":2535523.77,"ADDRESS":"中正路一段８４號","OBJECTID":42408},"geometry":{"x":170947.20000000112,"y":2535523.7700000014}},{"attributes":{"ID":42409,"DIS_CODE":0,"TOWNNAME":"仁德區","LI":"太子里","LIN":"17鄰","STREET":"太子路","SECT":" ","MAREA":" ","LANE":" ","ALLEY":" ","HOUSE_NO":"２６０號","E_COORD97":174110.54999999999,"N_COORD97":2543515.0099999998,"ADDRESS":"太子路２６０號","OBJECTID":42409},"geometry":{"x":174110.55000000075,"y":2543515.0099999998}},{"attributes":{"ID":42410,"DIS_CODE":0,"TOWNNAME":"鹽水區","LI":"橋南里","LIN":"7鄰","STREET":"南門路","SECT":" ","MAREA":" ","LANE":"２０１巷","ALLEY":"３３弄","HOUSE_NO":"３９號","E_COORD97":175443.98999999999,"N_COORD97":2579033.5699999998,"ADDRESS":"南門路２０１巷３３弄３９號","OBJECTID":42410},"geometry":{"x":175443.99000000115,"y":2579033.5700000022}},{"attributes":{"ID":42411,"DIS_CODE":0,"TOWNNAME":"鹽水區","LI":"橋南里","LIN":"7鄰","STREET":"南門路","SECT":" ","MAREA":" ","LANE":"２０１巷","ALLEY":"３３弄","HOUSE_NO":"４０號","E_COORD97":175517.32000000001,"N_COORD97":2579037.3300000001,"ADDRESS":"南門路２０１巷３３弄４０號","OBJECTID":42411},"geometry":{"x":175517.3200000003,"y":2579037.3300000001}},{"attributes":{"ID":42412,"DIS_CODE":0,"TOWNNAME":"鹽水區","LI":"橋南里","LIN":"7鄰","STREET":"南門路","SECT":" ","MAREA":" ","LANE":"２０１巷","ALLEY":"３３弄","HOUSE_NO":"４１號","E_COORD97":175444.32000000001,"N_COORD97":2579038.6699999999,"ADDRESS":"南門路２０１巷３３弄４１號","OBJECTID":42412},"geometry":{"x":175444.3200000003,"y":2579038.6699999981}},{"attributes":{"ID":42413,"DIS_CODE":0,"TOWNNAME":"鹽水區","LI":"橋南里","LIN":"7鄰","STREET":"南門路","SECT":" ","MAREA":" ","LANE":"２０１巷","ALLEY":"３３弄","HOUSE_NO":"４３號","E_COORD97":175444.29000000001,"N_COORD97":2579043.8100000001,"ADDRESS":"南門路２０１巷３３弄４３號","OBJECTID":42413},"geometry":{"x":175444.29000000004,"y":2579043.8100000005}},{"attributes":{"ID":42414,"DIS_CODE":0,"TOWNNAME":"鹽水區","LI":"橋南里","LIN":"7鄰","STREET":"南門路","SECT":" ","MAREA":" ","LANE":"２０１巷","ALLEY":"３３弄","HOUSE_NO":"４５號","E_COORD97":175444.29000000001,"N_COORD97":2579048.7400000002,"ADDRESS":"南門路２０１巷３３弄４５號","OBJECTID":42414},"geometry":{"x":175444.29000000004,"y":2579048.7400000039}},{"attributes":{"ID":42415,"DIS_CODE":0,"TOWNNAME":"鹽水區","LI":"橋南里","LIN":"7鄰","STREET":"南門路","SECT":" ","MAREA":" ","LANE":"２０１巷","ALLEY":"３３弄","HOUSE_NO":"４６號","E_COORD97":175527.12,"N_COORD97":2579037.1800000002,"ADDRESS":"南門路２０１巷３３弄４６號","OBJECTID":42415},"geometry":{"x":175527.12000000011,"y":2579037.1799999997}},{"attributes":{"ID":42416,"DIS_CODE":0,"TOWNNAME":"鹽水區","LI":"橋南里","LIN":"7鄰","STREET":"南門路","SECT":" ","MAREA":" ","LANE":"２０１巷","ALLEY":"３３弄","HOUSE_NO":"４８號","E_COORD97":175532.01999999999,"N_COORD97":2579037.1099999999,"ADDRESS":"南門路２０１巷３３弄４８號","OBJECTID":42416},"geometry":{"x":175532.01999999955,"y":2579037.1099999994}},{"attributes":{"ID":42417,"DIS_CODE":0,"TOWNNAME":"鹽水區","LI":"橋南里","LIN":"7鄰","STREET":"南門路","SECT":" ","MAREA":" ","LANE":"２０１巷","ALLEY":"３３弄","HOUSE_NO":"５２號","E_COORD97":175494.26999999999,"N_COORD97":2579058.77,"ADDRESS":"南門路２０１巷３３弄５２號","OBJECTID":42417},"geometry":{"x":175494.27000000048,"y":2579058.7700000014}},{"attributes":{"ID":42418,"DIS_CODE":0,"TOWNNAME":"鹽水區","LI":"橋南里","LIN":"7鄰","STREET":"南門路","SECT":" ","MAREA":" ","LANE":"２０１巷","ALLEY":"３３弄","HOUSE_NO":"５３號","E_COORD97":175459.14000000001,"N_COORD97":2579079.5099999998,"ADDRESS":"南門路２０１巷３３弄５３號","OBJECTID":42418},"geometry":{"x":175459.1400000006,"y":2579079.5099999998}},{"attributes":{"ID":42419,"DIS_CODE":0,"TOWNNAME":"鹽水區","LI":"橋南里","LIN":"7鄰","STREET":"南門路","SECT":" ","MAREA":" ","LANE":"２０１巷","ALLEY":"３３弄","HOUSE_NO":"５４號","E_COORD97":175499.56,"N_COORD97":2579058.6499999999,"ADDRESS":"南門路２０１巷３３弄５４號","OBJECTID":42419},"geometry":{"x":175499.55999999959,"y":2579058.6500000004}},{"attributes":{"ID":42420,"DIS_CODE":0,"TOWNNAME":"鹽水區","LI":"橋南里","LIN":"7鄰","STREET":"南門路","SECT":" ","MAREA":" ","LANE":"２０１巷","ALLEY":"３３弄","HOUSE_NO":"５５號","E_COORD97":175462.88,"N_COORD97":2579079.21,"ADDRESS":"南門路２０１巷３３弄５５號","OBJECTID":42420},"geometry":{"x":175462.88000000082,"y":2579079.2100000009}},{"attributes":{"ID":42421,"DIS_CODE":0,"TOWNNAME":"鹽水區","LI":"橋南里","LIN":"7鄰","STREET":"南門路","SECT":" ","MAREA":" ","LANE":"２０１巷","ALLEY":"３３弄","HOUSE_NO":"５８號","E_COORD97":175508.98999999999,"N_COORD97":2579058.5099999998,"ADDRESS":"南門路２０１巷３３弄５８號","OBJECTID":42421},"geometry":{"x":175508.99000000022,"y":2579058.5099999998}},{"attributes":{"ID":42422,"DIS_CODE":0,"TOWNNAME":"鹽水區","LI":"橋南里","LIN":"7鄰","STREET":"南門路","SECT":" ","MAREA":" ","LANE":"２０１巷","ALLEY":"３３弄","HOUSE_NO":"５號","E_COORD97":175494.69,"N_COORD97":2579016.4100000001,"ADDRESS":"南門路２０１巷３３弄５號","OBJECTID":42422},"geometry":{"x":175494.69000000041,"y":2579016.4100000001}},{"attributes":{"ID":42423,"DIS_CODE":0,"TOWNNAME":"鹽水區","LI":"橋南里","LIN":"7鄰","STREET":"南門路","SECT":" ","MAREA":" ","LANE":"２０１巷","ALLEY":"３３弄","HOUSE_NO":"６２號","E_COORD97":175519.5,"N_COORD97":2579058.9199999999,"ADDRESS":"南門路２０１巷３３弄６２號","OBJECTID":42423},"geometry":{"x":175519.49999999907,"y":2579058.9200000018}},{"attributes":{"ID":42424,"DIS_CODE":0,"TOWNNAME":"鹽水區","LI":"橋南里","LIN":"7鄰","STREET":"南門路","SECT":" ","MAREA":" ","LANE":"２０１巷","ALLEY":"３３弄","HOUSE_NO":"６號","E_COORD97":175508.19,"N_COORD97":2578991.8300000001,"ADDRESS":"南門路２０１巷３３弄６號","OBJECTID":42424},"geometry":{"x":175508.19000000041,"y":2578991.8300000019}},{"attributes":{"ID":42425,"DIS_CODE":0,"TOWNNAME":"鹽水區","LI":"橋南里","LIN":"7鄰","STREET":"南門路","SECT":" ","MAREA":" ","LANE":"２０１巷","ALLEY":"３３弄","HOUSE_NO":"７號","E_COORD97":175490.14000000001,"N_COORD97":2579016.0600000001,"ADDRESS":"南門路２０１巷３３弄７號","OBJECTID":42425},"geometry":{"x":175490.1400000006,"y":2579016.0600000005}},{"attributes":{"ID":42426,"DIS_CODE":0,"TOWNNAME":"鹽水區","LI":"橋南里","LIN":"7鄰","STREET":"南門路","SECT":" ","MAREA":" ","LANE":"２０１巷","ALLEY":"３３弄","HOUSE_NO":"８號","E_COORD97":175512.60000000001,"N_COORD97":2578991.3500000001,"ADDRESS":"南門路２０１巷３３弄８號","OBJECTID":42426},"geometry":{"x":175512.59999999963,"y":2578991.3500000015}},{"attributes":{"ID":42427,"DIS_CODE":0,"TOWNNAME":"鹽水區","LI":"橋南里","LIN":"7鄰","STREET":"南門路","SECT":" ","MAREA":" ","LANE":"２０１巷","ALLEY":"３３弄","HOUSE_NO":"９號","E_COORD97":175498.44,"N_COORD97":2579035.1600000001,"ADDRESS":"南門路２０１巷３３弄９號","OBJECTID":42427},"geometry":{"x":175498.44000000227,"y":2579035.1600000001}},{"attributes":{"ID":42428,"DIS_CODE":0,"TOWNNAME":"鹽水區","LI":"橋南里","LIN":"7鄰","STREET":"南門路","SECT":" ","MAREA":" ","LANE":"２０１巷","ALLEY":"５５弄","HOUSE_NO":"１０號","E_COORD97":175562.85000000001,"N_COORD97":2578983.0899999999,"ADDRESS":"南門路２０１巷５５弄１０號","OBJECTID":42428},"geometry":{"x":175562.85000000056,"y":2578983.0900000017}},{"attributes":{"ID":42429,"DIS_CODE":0,"TOWNNAME":"鹽水區","LI":"橋南里","LIN":"7鄰","STREET":"南門路","SECT":" ","MAREA":" ","LANE":"２０１巷","ALLEY":"５５弄","HOUSE_NO":"１２號","E_COORD97":175563.87,"N_COORD97":2578987.75,"ADDRESS":"南門路２０１巷５５弄１２號","OBJECTID":42429},"geometry":{"x":175563.87000000011,"y":2578987.7500000037}},{"attributes":{"ID":42430,"DIS_CODE":0,"TOWNNAME":"鹽水區","LI":"橋南里","LIN":"7鄰","STREET":"南門路","SECT":" ","MAREA":" ","LANE":"２０１巷","ALLEY":"５５弄","HOUSE_NO":"１４號","E_COORD97":175564.89000000001,"N_COORD97":2578992.4199999999,"ADDRESS":"南門路２０１巷５５弄１４號","OBJECTID":42430},"geometry":{"x":175564.88999999966,"y":2578992.4199999999}},{"attributes":{"ID":42431,"DIS_CODE":0,"TOWNNAME":"鹽水區","LI":"橋南里","LIN":"7鄰","STREET":"南門路","SECT":" ","MAREA":" ","LANE":"２０１巷","ALLEY":"５５弄","HOUSE_NO":"１６號","E_COORD97":175565.91,"N_COORD97":2578997.0800000001,"ADDRESS":"南門路２０１巷５５弄１６號","OBJECTID":42431},"geometry":{"x":175565.91000000015,"y":2578997.0800000019}},{"attributes":{"ID":42432,"DIS_CODE":0,"TOWNNAME":"鹽水區","LI":"橋南里","LIN":"7鄰","STREET":"南門路","SECT":" ","MAREA":" ","LANE":"２０１巷","ALLEY":"５５弄","HOUSE_NO":"１８號","E_COORD97":175566.92999999999,"N_COORD97":2579001.7400000002,"ADDRESS":"南門路２０１巷５５弄１８號","OBJECTID":42432},"geometry":{"x":175566.9299999997,"y":2579001.7400000021}},{"attributes":{"ID":42433,"DIS_CODE":0,"TOWNNAME":"鹽水區","LI":"橋南里","LIN":"7鄰","STREET":"南門路","SECT":" ","MAREA":" ","LANE":"２０１巷","ALLEY":"５５弄","HOUSE_NO":"２０號","E_COORD97":175567.95000000001,"N_COORD97":2579006.3999999999,"ADDRESS":"南門路２０１巷５５弄２０號","OBJECTID":42433},"geometry":{"x":175567.95000000112,"y":2579006.4000000004}},{"attributes":{"ID":42434,"DIS_CODE":0,"TOWNNAME":"鹽水區","LI":"橋南里","LIN":"7鄰","STREET":"南門路","SECT":" ","MAREA":" ","LANE":"２０１巷","ALLEY":"５５弄","HOUSE_NO":"２２號","E_COORD97":175568.97,"N_COORD97":2579011.0600000001,"ADDRESS":"南門路２０１巷５５弄２２號","OBJECTID":42434},"geometry":{"x":175568.97000000067,"y":2579011.0600000024}},{"attributes":{"ID":42435,"DIS_CODE":0,"TOWNNAME":"鹽水區","LI":"橋南里","LIN":"7鄰","STREET":"南門路","SECT":" ","MAREA":" ","LANE":"２０１巷","ALLEY":"５５弄","HOUSE_NO":"２號","E_COORD97":175559.75,"N_COORD97":2578970.3700000001,"ADDRESS":"南門路２０１巷５５弄２號","OBJECTID":42435},"geometry":{"x":175559.75,"y":2578970.370000001}},{"attributes":{"ID":42436,"DIS_CODE":0,"TOWNNAME":"鹽水區","LI":"橋南里","LIN":"7鄰","STREET":"南門路","SECT":" ","MAREA":" ","LANE":"２０１巷","ALLEY":"５５弄","HOUSE_NO":"６號","E_COORD97":175560.92999999999,"N_COORD97":2578974.4300000002,"ADDRESS":"南門路２０１巷５５弄６號","OBJECTID":42436},"geometry":{"x":175560.93000000063,"y":2578974.4299999997}},{"attributes":{"ID":42437,"DIS_CODE":0,"TOWNNAME":"鹽水區","LI":"橋南里","LIN":"7鄰","STREET":"南門路","SECT":" ","MAREA":" ","LANE":"２０１巷","ALLEY":"５５弄","HOUSE_NO":"８號","E_COORD97":175561.64999999999,"N_COORD97":2578978.6499999999,"ADDRESS":"南門路２０１巷５５弄８號","OBJECTID":42437},"geometry":{"x":175561.6500000013,"y":2578978.6500000041}},{"attributes":{"ID":42438,"DIS_CODE":0,"TOWNNAME":"新營區","LI":"民榮里","LIN":"38鄰","STREET":"太子路","SECT":" ","MAREA":" ","LANE":"５３巷","ALLEY":"６弄","HOUSE_NO":"２５之１號","E_COORD97":178259.42999999999,"N_COORD97":2577932.1400000001,"ADDRESS":"太子路５３巷６弄２５之１號","OBJECTID":42438},"geometry":{"x":178259.43000000063,"y":2577932.1400000025}},{"attributes":{"ID":42439,"DIS_CODE":0,"TOWNNAME":"新營區","LI":"忠政里","LIN":"23鄰","STREET":"府西路","SECT":" ","MAREA":" ","LANE":"２０１巷","ALLEY":"７弄","HOUSE_NO":"２號","E_COORD97":179755.57000000001,"N_COORD97":2579509.6600000001,"ADDRESS":"府西路２０１巷７弄２號","OBJECTID":42439},"geometry":{"x":179755.56999999937,"y":2579509.6600000001}},{"attributes":{"ID":42440,"DIS_CODE":0,"TOWNNAME":"歸仁區","LI":"六甲里","LIN":"8鄰","STREET":"中正十五街","SECT":" ","MAREA":" ","LANE":" ","ALLEY":" ","HOUSE_NO":"９２號","E_COORD97":176483.91,"N_COORD97":2539453.25,"ADDRESS":"中正十五街９２號","OBJECTID":42440},"geometry":{"x":176483.91000000108,"y":2539453.2500000019}},{"attributes":{"ID":42441,"DIS_CODE":0,"TOWNNAME":"北區","LI":"賢北里","LIN":"7鄰","STREET":"和緯路","SECT":"五段","MAREA":" ","LANE":"２３４巷","ALLEY":"４弄","HOUSE_NO":"２２號","E_COORD97":166118.14999999999,"N_COORD97":2545111.8999999999,"ADDRESS":"和緯路五段２３４巷４弄２２號","OBJECTID":42441},"geometry":{"x":166118.1500000013,"y":2545111.9000000022}},{"attributes":{"ID":42442,"DIS_CODE":0,"TOWNNAME":"北區","LI":"賢北里","LIN":"7鄰","STREET":"和緯路","SECT":"五段","MAREA":" ","LANE":"２３４巷","ALLEY":"４弄","HOUSE_NO":"２６號","E_COORD97":166119.89000000001,"N_COORD97":2545106.02,"ADDRESS":"和緯路五段２３４巷４弄２６號","OBJECTID":42442},"geometry":{"x":166119.88999999966,"y":2545106.0200000014}},{"attributes":{"ID":42443,"DIS_CODE":0,"TOWNNAME":"北區","LI":"賢北里","LIN":"7鄰","STREET":"和緯路","SECT":"五段","MAREA":" ","LANE":"２３４巷","ALLEY":"４弄","HOUSE_NO":"２８號","E_COORD97":166121.64000000001,"N_COORD97":2545101.4199999999,"ADDRESS":"和緯路五段２３４巷４弄２８號","OBJECTID":42443},"geometry":{"x":166121.63999999966,"y":2545101.4199999999}},{"attributes":{"ID":42444,"DIS_CODE":0,"TOWNNAME":"北區","LI":"賢北里","LIN":"7鄰","STREET":"和緯路","SECT":"五段","MAREA":" ","LANE":"２３４巷","ALLEY":"４弄","HOUSE_NO":"３０號","E_COORD97":166139.42000000001,"N_COORD97":2545102.3700000001,"ADDRESS":"和緯路五段２３４巷４弄３０號","OBJECTID":42444},"geometry":{"x":166139.42000000086,"y":2545102.3700000029}},{"attributes":{"ID":42445,"DIS_CODE":0,"TOWNNAME":"北區","LI":"賢北里","LIN":"7鄰","STREET":"和緯路","SECT":"五段","MAREA":" ","LANE":"２３４巷","ALLEY":"４弄","HOUSE_NO":"３２號","E_COORD97":166137.82999999999,"N_COORD97":2545108.7200000002,"ADDRESS":"和緯路五段２３４巷４弄３２號","OBJECTID":42445},"geometry":{"x":166137.82999999914,"y":2545108.7200000025}},{"attributes":{"ID":42446,"DIS_CODE":0,"TOWNNAME":"北區","LI":"賢北里","LIN":"7鄰","STREET":"和緯路","SECT":"五段","MAREA":" ","LANE":"２３４巷","ALLEY":"４弄","HOUSE_NO":"３６號","E_COORD97":166135.29000000001,"N_COORD97":2545114.4399999999,"ADDRESS":"和緯路五段２３４巷４弄３６號","OBJECTID":42446},"geometry":{"x":166135.29000000097,"y":2545114.4399999995}},{"attributes":{"ID":42447,"DIS_CODE":0,"TOWNNAME":"北區","LI":"賢北里","LIN":"7鄰","STREET":"和緯路","SECT":"五段","MAREA":" ","LANE":"２３４巷","ALLEY":"４弄","HOUSE_NO":"３８號","E_COORD97":166133.23000000001,"N_COORD97":2545120.3100000001,"ADDRESS":"和緯路五段２３４巷４弄３８號","OBJECTID":42447},"geometry":{"x":166133.23000000045,"y":2545120.3100000005}},{"attributes":{"ID":42448,"DIS_CODE":0,"TOWNNAME":"北區","LI":"賢北里","LIN":"7鄰","STREET":"和緯路","SECT":"五段","MAREA":" ","LANE":"２３４巷","ALLEY":"４弄","HOUSE_NO":"３８之１號","E_COORD97":166130.69,"N_COORD97":2545125.8700000001,"ADDRESS":"和緯路五段２３４巷４弄３８之１號","OBJECTID":42448},"geometry":{"x":166130.69000000227,"y":2545125.8700000029}},{"attributes":{"ID":42449,"DIS_CODE":0,"TOWNNAME":"大內區","LI":"石林里","LIN":"7鄰","STREET":" ","SECT":" ","MAREA":"石子瀨","LANE":" ","ALLEY":" ","HOUSE_NO":"１９０號","E_COORD97":183918.47,"N_COORD97":2558188.25,"ADDRESS":"石子瀨１９０號","OBJECTID":42449},"geometry":{"x":183918.46999999974,"y":2558188.2500000019}},{"attributes":{"ID":42450,"DIS_CODE":0,"TOWNNAME":"大內區","LI":"內郭里","LIN":"7鄰","STREET":" ","SECT":" ","MAREA":"後堀","LANE":" ","ALLEY":" ","HOUSE_NO":"２號之１１","E_COORD97":185451.09,"N_COORD97":2557994.3199999998,"ADDRESS":"後堀２號之１１","OBJECTID":42450},"geometry":{"x":185451.09000000078,"y":2557994.320000004}},{"attributes":{"ID":42451,"DIS_CODE":0,"TOWNNAME":"大內區","LI":"內江里","LIN":"7鄰","STREET":" ","SECT":" ","MAREA":"內庄","LANE":" ","ALLEY":" ","HOUSE_NO":"２８５號","E_COORD97":184386.17999999999,"N_COORD97":2557503.25,"ADDRESS":"內庄２８５號","OBJECTID":42451},"geometry":{"x":184386.18000000063,"y":2557503.2500000019}},{"attributes":{"ID":42452,"DIS_CODE":0,"TOWNNAME":"大內區","LI":"內江里","LIN":"7鄰","STREET":" ","SECT":" ","MAREA":"內庄","LANE":" ","ALLEY":" ","HOUSE_NO":"２８５號之１０","E_COORD97":184324.62,"N_COORD97":2557518.2999999998,"ADDRESS":"內庄２８５號之１０","OBJECTID":42452},"geometry":{"x":184324.62000000011,"y":2557518.3000000026}},{"attributes":{"ID":42453,"DIS_CODE":0,"TOWNNAME":"大內區","LI":"內江里","LIN":"7鄰","STREET":" ","SECT":" ","MAREA":"內庄","LANE":" ","ALLEY":" ","HOUSE_NO":"２９３號","E_COORD97":184520.67999999999,"N_COORD97":2557354.25,"ADDRESS":"內庄２９３號","OBJECTID":42453},"geometry":{"x":184520.6799999997,"y":2557354.2500000019}},{"attributes":{"ID":42454,"DIS_CODE":0,"TOWNNAME":"大內區","LI":"大內里","LIN":"7鄰","STREET":" ","SECT":" ","MAREA":"內庄","LANE":" ","ALLEY":" ","HOUSE_NO":"８２號之３","E_COORD97":184785.95999999999,"N_COORD97":2557623.2999999998,"ADDRESS":"內庄８２號之３","OBJECTID":42454},"geometry":{"x":184785.96000000089,"y":2557623.3000000026}},{"attributes":{"ID":42455,"DIS_CODE":0,"TOWNNAME":"大內區","LI":"石林里","LIN":"7鄰","STREET":" ","SECT":" ","MAREA":"石子瀨","LANE":" ","ALLEY":" ","HOUSE_NO":"１８４號之１","E_COORD97":183905.39999999999,"N_COORD97":2558146.2999999998,"ADDRESS":"石子瀨１８４號之１","OBJECTID":42455},"geometry":{"x":183905.4000000013,"y":2558146.3000000007}},{"attributes":{"ID":42456,"DIS_CODE":0,"TOWNNAME":"大內區","LI":"內江里","LIN":"7鄰","STREET":" ","SECT":" ","MAREA":"內庄","LANE":" ","ALLEY":" ","HOUSE_NO":"２８５號之１７","E_COORD97":184355.64000000001,"N_COORD97":2557494.2999999998,"ADDRESS":"內庄２８５號之１７","OBJECTID":42456},"geometry":{"x":184355.6400000006,"y":2557494.3000000026}},{"attributes":{"ID":42457,"DIS_CODE":0,"TOWNNAME":"大內區","LI":"石湖里","LIN":"7鄰","STREET":" ","SECT":" ","MAREA":"石子瀨","LANE":" ","ALLEY":" ","HOUSE_NO":"２９３號之２","E_COORD97":183923.64000000001,"N_COORD97":2558237.2999999998,"ADDRESS":"石子瀨２９３號之２","OBJECTID":42457},"geometry":{"x":183923.6400000006,"y":2558237.3000000007}},{"attributes":{"ID":42458,"DIS_CODE":0,"TOWNNAME":"大內區","LI":"內江里","LIN":"7鄰","STREET":" ","SECT":" ","MAREA":"內庄","LANE":" ","ALLEY":" ","HOUSE_NO":"２８５號之５","E_COORD97":184461.76999999999,"N_COORD97":2557469.2999999998,"ADDRESS":"內庄２８５號之５","OBJECTID":42458},"geometry":{"x":184461.77000000048,"y":2557469.3000000045}},{"attributes":{"ID":42459,"DIS_CODE":0,"TOWNNAME":"大內區","LI":"內郭里","LIN":"7鄰","STREET":" ","SECT":" ","MAREA":"後堀","LANE":" ","ALLEY":" ","HOUSE_NO":"３之２號","E_COORD97":185581.60999999999,"N_COORD97":2557393.3199999998,"ADDRESS":"後堀３之２號","OBJECTID":42459},"geometry":{"x":185581.61000000034,"y":2557393.3200000003}},{"attributes":{"ID":42460,"DIS_CODE":0,"TOWNNAME":"大內區","LI":"石湖里","LIN":"7鄰","STREET":" ","SECT":" ","MAREA":"石子瀨","LANE":" ","ALLEY":" ","HOUSE_NO":"２９１號之４","E_COORD97":183900.23000000001,"N_COORD97":2558221.2999999998,"ADDRESS":"石子瀨２９１號之４","OBJECTID":42460},"geometry":{"x":183900.23000000138,"y":2558221.3000000007}},{"attributes":{"ID":42461,"DIS_CODE":0,"TOWNNAME":"大內區","LI":"石湖里","LIN":"7鄰","STREET":" ","SECT":" ","MAREA":"石子瀨","LANE":" ","ALLEY":" ","HOUSE_NO":"２９６號","E_COORD97":183945.67000000001,"N_COORD97":2558289.25,"ADDRESS":"石子瀨２９６號","OBJECTID":42461},"geometry":{"x":183945.67000000086,"y":2558289.2500000037}},{"attributes":{"ID":42462,"DIS_CODE":0,"TOWNNAME":"大內區","LI":"曲溪里","LIN":"7鄰","STREET":" ","SECT":" ","MAREA":"二重溪","LANE":" ","ALLEY":" ","HOUSE_NO":"６６號","E_COORD97":187238.39000000001,"N_COORD97":2557638.3100000001,"ADDRESS":"二重溪６６號","OBJECTID":42462},"geometry":{"x":187238.38999999966,"y":2557638.3099999987}},{"attributes":{"ID":42463,"DIS_CODE":0,"TOWNNAME":"大內區","LI":"石城里","LIN":"7鄰","STREET":" ","SECT":" ","MAREA":"石子瀨","LANE":" ","ALLEY":" ","HOUSE_NO":"６８號之２","E_COORD97":184216.39000000001,"N_COORD97":2557931.2999999998,"ADDRESS":"石子瀨６８號之２","OBJECTID":42463},"geometry":{"x":184216.39000000153,"y":2557931.3000000026}},{"attributes":{"ID":42464,"DIS_CODE":0,"TOWNNAME":"大內區","LI":"內江里","LIN":"7鄰","STREET":" ","SECT":" ","MAREA":"內庄","LANE":" ","ALLEY":" ","HOUSE_NO":"２９１號","E_COORD97":184475.07999999999,"N_COORD97":2557391.25,"ADDRESS":"內庄２９１號","OBJECTID":42464},"geometry":{"x":184475.08000000101,"y":2557391.2500000019}},{"attributes":{"ID":42465,"DIS_CODE":0,"TOWNNAME":"大內區","LI":"頭社里","LIN":"7鄰","STREET":" ","SECT":" ","MAREA":"頭社","LANE":" ","ALLEY":" ","HOUSE_NO":"９６號","E_COORD97":186527.64000000001,"N_COORD97":2561171.25,"ADDRESS":"頭社９６號","OBJECTID":42465},"geometry":{"x":186527.6400000006,"y":2561171.2500000037}},{"attributes":{"ID":42466,"DIS_CODE":0,"TOWNNAME":"北區","LI":"賢北里","LIN":"7鄰","STREET":"和緯路","SECT":"五段","MAREA":" ","LANE":"２３４巷","ALLEY":"４弄","HOUSE_NO":"４２號","E_COORD97":166128.94,"N_COORD97":2545130.79,"ADDRESS":"和緯路五段２３４巷４弄４２號","OBJECTID":42466},"geometry":{"x":166128.93999999948,"y":2545130.790000001}},{"attributes":{"ID":42467,"DIS_CODE":0,"TOWNNAME":"永康區","LI":"龍潭里","LIN":"17鄰","STREET":"龍潭街","SECT":" ","MAREA":" ","LANE":" ","ALLEY":" ","HOUSE_NO":"２０１之３號","E_COORD97":174921.72,"N_COORD97":2548389.8100000001,"ADDRESS":"龍潭街２０１之３號","OBJECTID":42467},"geometry":{"x":174921.72000000067,"y":2548389.8100000024}},{"attributes":{"ID":42468,"DIS_CODE":0,"TOWNNAME":"永康區","LI":"龍潭里","LIN":"17鄰","STREET":"龍潭街","SECT":" ","MAREA":" ","LANE":" ","ALLEY":" ","HOUSE_NO":"２０１之５號","E_COORD97":174915.64000000001,"N_COORD97":2548390.27,"ADDRESS":"龍潭街２０１之５號","OBJECTID":42468},"geometry":{"x":174915.63999999966,"y":2548390.2700000014}},{"attributes":{"ID":42469,"DIS_CODE":0,"TOWNNAME":"永康區","LI":"龍潭里","LIN":"17鄰","STREET":"龍潭街","SECT":" ","MAREA":" ","LANE":" ","ALLEY":" ","HOUSE_NO":"２０１之６號","E_COORD97":174911.35000000001,"N_COORD97":2548391.25,"ADDRESS":"龍潭街２０１之６號","OBJECTID":42469},"geometry":{"x":174911.34999999963,"y":2548391.25}},{"attributes":{"ID":42470,"DIS_CODE":0,"TOWNNAME":"永康區","LI":"龍潭里","LIN":"17鄰","STREET":"龍潭街","SECT":" ","MAREA":" ","LANE":" ","ALLEY":" ","HOUSE_NO":"２０１之７號","E_COORD97":174905.5,"N_COORD97":2548392.5499999998,"ADDRESS":"龍潭街２０１之７號","OBJECTID":42470},"geometry":{"x":174905.5,"y":2548392.5500000026}},{"attributes":{"ID":42471,"DIS_CODE":0,"TOWNNAME":"永康區","LI":"東橋里","LIN":"17鄰","STREET":"東橋十二街","SECT":" ","MAREA":" ","LANE":" ","ALLEY":" ","HOUSE_NO":"１號","E_COORD97":171362,"N_COORD97":2547126.5899999999,"ADDRESS":"東橋十二街１號","OBJECTID":42471},"geometry":{"x":171362.00000000093,"y":2547126.5900000017}},{"attributes":{"ID":42472,"DIS_CODE":0,"TOWNNAME":"永康區","LI":"東橋里","LIN":"17鄰","STREET":"東橋十二街","SECT":" ","MAREA":" ","LANE":" ","ALLEY":" ","HOUSE_NO":"３號","E_COORD97":171368.14999999999,"N_COORD97":2547130.5499999998,"ADDRESS":"東橋十二街３號","OBJECTID":42472},"geometry":{"x":171368.1500000013,"y":2547130.5500000045}},{"attributes":{"ID":42473,"DIS_CODE":0,"TOWNNAME":"永康區","LI":"東橋里","LIN":"17鄰","STREET":"東橋十二街","SECT":" ","MAREA":" ","LANE":" ","ALLEY":" ","HOUSE_NO":"５號","E_COORD97":171376.26000000001,"N_COORD97":2547128.9900000002,"ADDRESS":"東橋十二街５號","OBJECTID":42473},"geometry":{"x":171376.26000000164,"y":2547128.9900000002}},{"attributes":{"ID":42474,"DIS_CODE":0,"TOWNNAME":"白河區","LI":"仙草里","LIN":"17鄰","STREET":" ","SECT":" ","MAREA":"仙草","LANE":" ","ALLEY":" ","HOUSE_NO":"５６之２號","E_COORD97":196306.60999999999,"N_COORD97":2582481.1200000001,"ADDRESS":"仙草５６之２號","OBJECTID":42474},"geometry":{"x":196306.61000000034,"y":2582481.120000001}},{"attributes":{"ID":42475,"DIS_CODE":0,"TOWNNAME":"白河區","LI":"仙草里","LIN":"17鄰","STREET":" ","SECT":" ","MAREA":"仙草","LANE":" ","ALLEY":" ","HOUSE_NO":"５６之３號","E_COORD97":196305.20000000001,"N_COORD97":2582450.6099999999,"ADDRESS":"仙草５６之３號","OBJECTID":42475},"geometry":{"x":196305.20000000112,"y":2582450.6100000013}},{"attributes":{"ID":42476,"DIS_CODE":0,"TOWNNAME":"白河區","LI":"仙草里","LIN":"17鄰","STREET":" ","SECT":" ","MAREA":"仙草","LANE":" ","ALLEY":" ","HOUSE_NO":"５６號","E_COORD97":196306.09,"N_COORD97":2582465.3300000001,"ADDRESS":"仙草５６號","OBJECTID":42476},"geometry":{"x":196306.08999999985,"y":2582465.3299999982}},{"attributes":{"ID":42477,"DIS_CODE":0,"TOWNNAME":"白河區","LI":"仙草里","LIN":"17鄰","STREET":" ","SECT":" ","MAREA":"仙草","LANE":" ","ALLEY":" ","HOUSE_NO":"５７號","E_COORD97":196315.45999999999,"N_COORD97":2582490.4199999999,"ADDRESS":"仙草５７號","OBJECTID":42477},"geometry":{"x":196315.46000000089,"y":2582490.4199999999}},{"attributes":{"ID":42478,"DIS_CODE":0,"TOWNNAME":"白河區","LI":"仙草里","LIN":"17鄰","STREET":" ","SECT":" ","MAREA":"仙草","LANE":" ","ALLEY":" ","HOUSE_NO":"５８號","E_COORD97":196315.17000000001,"N_COORD97":2582504.8100000001,"ADDRESS":"仙草５８號","OBJECTID":42478},"geometry":{"x":196315.17000000086,"y":2582504.8100000024}},{"attributes":{"ID":42479,"DIS_CODE":0,"TOWNNAME":"白河區","LI":"仙草里","LIN":"17鄰","STREET":" ","SECT":" ","MAREA":"仙草","LANE":" ","ALLEY":" ","HOUSE_NO":"５９號","E_COORD97":196315.34,"N_COORD97":2582511.8100000001,"ADDRESS":"仙草５９號","OBJECTID":42479},"geometry":{"x":196315.34000000171,"y":2582511.8100000024}},{"attributes":{"ID":42480,"DIS_CODE":0,"TOWNNAME":"北區","LI":"賢北里","LIN":"7鄰","STREET":"和緯路","SECT":"五段","MAREA":" ","LANE":"２３４巷","ALLEY":"４弄","HOUSE_NO":"４６號","E_COORD97":166127.35000000001,"N_COORD97":2545134.7599999998,"ADDRESS":"和緯路五段２３４巷４弄４６號","OBJECTID":42480},"geometry":{"x":166127.35000000056,"y":2545134.7600000016}},{"attributes":{"ID":42481,"DIS_CODE":0,"TOWNNAME":"北區","LI":"賢北里","LIN":"7鄰","STREET":"和緯路","SECT":"五段","MAREA":" ","LANE":"２３４巷","ALLEY":"４弄","HOUSE_NO":"４８號","E_COORD97":166126.07999999999,"N_COORD97":2545139.2000000002,"ADDRESS":"和緯路五段２３４巷４弄４８號","OBJECTID":42481},"geometry":{"x":166126.08000000194,"y":2545139.2000000011}},{"attributes":{"ID":42482,"DIS_CODE":0,"TOWNNAME":"南區","LI":"同安里","LIN":"7鄰","STREET":"灣裡路","SECT":" ","MAREA":" ","LANE":"２６３巷","ALLEY":"５２弄","HOUSE_NO":"２１號之３","E_COORD97":166286.26999999999,"N_COORD97":2536258.71,"ADDRESS":"灣裡路２６３巷５２弄２１號之３","OBJECTID":42482},"geometry":{"x":166286.26999999955,"y":2536258.7100000009}},{"attributes":{"ID":42483,"DIS_CODE":0,"TOWNNAME":"新營區","LI":"新東里","LIN":"17鄰","STREET":"東興四街","SECT":" ","MAREA":" ","LANE":"３２巷","ALLEY":"３１弄","HOUSE_NO":"２１號","E_COORD97":180968.97,"N_COORD97":2579100.8500000001,"ADDRESS":"東興四街３２巷３１弄２１號","OBJECTID":42483},"geometry":{"x":180968.96999999974,"y":2579100.8499999996}},{"attributes":{"ID":42484,"DIS_CODE":0,"TOWNNAME":"北區","LI":"大港里","LIN":"7鄰","STREET":"大興街","SECT":" ","MAREA":" ","LANE":"１９２巷","ALLEY":"４７弄","HOUSE_NO":"２９號","E_COORD97":166725.16,"N_COORD97":2545840.2000000002,"ADDRESS":"大興街１９２巷４７弄２９號","OBJECTID":42484},"geometry":{"x":166725.16000000015,"y":2545840.2000000011}},{"attributes":{"ID":42485,"DIS_CODE":0,"TOWNNAME":"北區","LI":"大港里","LIN":"7鄰","STREET":"大興街","SECT":" ","MAREA":" ","LANE":"１９２巷","ALLEY":"４７弄","HOUSE_NO":"３１號","E_COORD97":166720.53,"N_COORD97":2545839.6699999999,"ADDRESS":"大興街１９２巷４７弄３１號","OBJECTID":42485},"geometry":{"x":166720.53000000119,"y":2545839.6699999999}},{"attributes":{"ID":42486,"DIS_CODE":0,"TOWNNAME":"北區","LI":"大港里","LIN":"7鄰","STREET":"大興街","SECT":" ","MAREA":" ","LANE":"１９２巷","ALLEY":"４７弄","HOUSE_NO":"３３號","E_COORD97":166716.44,"N_COORD97":2545839.1400000001,"ADDRESS":"大興街１９２巷４７弄３３號","OBJECTID":42486},"geometry":{"x":166716.44000000134,"y":2545839.1400000025}},{"attributes":{"ID":42487,"DIS_CODE":0,"TOWNNAME":"北區","LI":"大港里","LIN":"7鄰","STREET":"大興街","SECT":" ","MAREA":" ","LANE":"１９２巷","ALLEY":"４７弄","HOUSE_NO":"３５號","E_COORD97":166713.76000000001,"N_COORD97":2545838.7799999998,"ADDRESS":"大興街１９２巷４７弄３５號","OBJECTID":42487},"geometry":{"x":166713.75999999978,"y":2545838.7800000031}},{"attributes":{"ID":42488,"DIS_CODE":0,"TOWNNAME":"大內區","LI":"內江里","LIN":"7鄰","STREET":" ","SECT":" ","MAREA":"內庄","LANE":" ","ALLEY":" ","HOUSE_NO":"２８５號之４","E_COORD97":184458.73999999999,"N_COORD97":2557473.2999999998,"ADDRESS":"內庄２８５號之４","OBJECTID":42488},"geometry":{"x":184458.74000000209,"y":2557473.3000000026}},{"attributes":{"ID":42489,"DIS_CODE":0,"TOWNNAME":"新營區","LI":"新南里","LIN":"23鄰","STREET":"復興路","SECT":" ","MAREA":" ","LANE":"６２０巷","ALLEY":"１５弄","HOUSE_NO":"１９號","E_COORD97":177986.95999999999,"N_COORD97":2578384.1299999999,"ADDRESS":"復興路６２０巷１５弄１９號","OBJECTID":42489},"geometry":{"x":177986.96000000089,"y":2578384.1300000008}},{"attributes":{"ID":42490,"DIS_CODE":0,"TOWNNAME":"關廟區","LI":"關廟里","LIN":"7鄰","STREET":"民生街","SECT":" ","MAREA":" ","LANE":"１６７巷","ALLEY":"１３弄","HOUSE_NO":"２１號","E_COORD97":180804.63,"N_COORD97":2539820.8799999999,"ADDRESS":"民生街１６７巷１３弄２１號","OBJECTID":42490},"geometry":{"x":180804.63000000082,"y":2539820.8800000008}},{"attributes":{"ID":42491,"DIS_CODE":0,"TOWNNAME":"新營區","LI":"南紙里","LIN":"1鄰","STREET":"建業路","SECT":" ","MAREA":" ","LANE":"１９３巷","ALLEY":"２０弄","HOUSE_NO":"４號","E_COORD97":178183.66,"N_COORD97":2577423.0099999998,"ADDRESS":"建業路１９３巷２０弄４號","OBJECTID":42491},"geometry":{"x":178183.66000000108,"y":2577423.0100000016}},{"attributes":{"ID":42492,"DIS_CODE":0,"TOWNNAME":"仁德區","LI":"成功里","LIN":"17鄰","STREET":"全福路","SECT":" ","MAREA":" ","LANE":" ","ALLEY":" ","HOUSE_NO":"８６號","E_COORD97":171055.39999999999,"N_COORD97":2539295.5,"ADDRESS":"全福路８６號","OBJECTID":42492},"geometry":{"x":171055.39999999944,"y":2539295.5000000019}},{"attributes":{"ID":42493,"DIS_CODE":0,"TOWNNAME":"仁德區","LI":"後壁里","LIN":"17鄰","STREET":"中正路","SECT":"二段","MAREA":" ","LANE":" ","ALLEY":" ","HOUSE_NO":"２５８號","E_COORD97":173245.45000000001,"N_COORD97":2538891.7799999998,"ADDRESS":"中正路二段２５８號","OBJECTID":42493},"geometry":{"x":173245.45000000112,"y":2538891.7799999975}},{"attributes":{"ID":42494,"DIS_CODE":0,"TOWNNAME":"大內區","LI":"環湖里","LIN":"7鄰","STREET":" ","SECT":" ","MAREA":"環湖","LANE":" ","ALLEY":" ","HOUSE_NO":"９１號之６","E_COORD97":190364.38,"N_COORD97":2560617.2999999998,"ADDRESS":"環湖９１號之６","OBJECTID":42494},"geometry":{"x":190364.37999999989,"y":2560617.3000000007}},{"attributes":{"ID":42495,"DIS_CODE":0,"TOWNNAME":"仁德區","LI":"保安里","LIN":"17鄰","STREET":"中正路","SECT":"一段","MAREA":" ","LANE":" ","ALLEY":" ","HOUSE_NO":"５８號","E_COORD97":170884.09,"N_COORD97":2535521.77,"ADDRESS":"中正路一段５８號","OBJECTID":42495},"geometry":{"x":170884.09000000171,"y":2535521.7699999996}},{"attributes":{"ID":42496,"DIS_CODE":0,"TOWNNAME":"大內區","LI":"內郭里","LIN":"7鄰","STREET":" ","SECT":" ","MAREA":"後堀","LANE":" ","ALLEY":" ","HOUSE_NO":"４號之３","E_COORD97":185610.73999999999,"N_COORD97":2557376.3199999998,"ADDRESS":"後堀４號之３","OBJECTID":42496},"geometry":{"x":185610.74000000022,"y":2557376.3200000003}},{"attributes":{"ID":42497,"DIS_CODE":0,"TOWNNAME":"大內區","LI":"內江里","LIN":"7鄰","STREET":" ","SECT":" ","MAREA":"內庄","LANE":" ","ALLEY":" ","HOUSE_NO":"２８９號之１８","E_COORD97":184271.70999999999,"N_COORD97":2557372.2999999998,"ADDRESS":"內庄２８９號之１８","OBJECTID":42497},"geometry":{"x":184271.70999999996,"y":2557372.3000000026}},{"attributes":{"ID":42498,"DIS_CODE":0,"TOWNNAME":"仁德區","LI":"後壁里","LIN":"17鄰","STREET":"中正路","SECT":"二段","MAREA":" ","LANE":" ","ALLEY":" ","HOUSE_NO":"２７６號","E_COORD97":173248.54000000001,"N_COORD97":2538937.02,"ADDRESS":"中正路二段２７６號","OBJECTID":42498},"geometry":{"x":173248.54000000097,"y":2538937.0199999996}},{"attributes":{"ID":42499,"DIS_CODE":0,"TOWNNAME":"大內區","LI":"石林里","LIN":"7鄰","STREET":" ","SECT":" ","MAREA":"石子瀨","LANE":" ","ALLEY":" ","HOUSE_NO":"１９０之３號","E_COORD97":183914.87,"N_COORD97":2558186.2999999998,"ADDRESS":"石子瀨１９０之３號","OBJECTID":42499},"geometry":{"x":183914.87000000011,"y":2558186.3000000026}},{"attributes":{"ID":42500,"DIS_CODE":0,"TOWNNAME":"仁德區","LI":"太子里","LIN":"17鄰","STREET":"長興四街","SECT":" ","MAREA":" ","LANE":" ","ALLEY":" ","HOUSE_NO":"３１號","E_COORD97":174016.98999999999,"N_COORD97":2543627.0099999998,"ADDRESS":"長興四街３１號","OBJECTID":42500},"geometry":{"x":174016.99000000115,"y":2543627.0099999979}},{"attributes":{"ID":42501,"DIS_CODE":0,"TOWNNAME":"仁德區","LI":"太子里","LIN":"17鄰","STREET":"長興四街","SECT":" ","MAREA":" ","LANE":" ","ALLEY":" ","HOUSE_NO":"５５號","E_COORD97":173990.31,"N_COORD97":2543573.25,"ADDRESS":"長興四街５５號","OBJECTID":42501},"geometry":{"x":173990.31000000052,"y":2543573.2500000019}},{"attributes":{"ID":42502,"DIS_CODE":0,"TOWNNAME":"永康區","LI":"烏竹里","LIN":"17鄰","STREET":"竹南街","SECT":" ","MAREA":" ","LANE":" ","ALLEY":" ","HOUSE_NO":"６６號","E_COORD97":174451,"N_COORD97":2548759.9100000001,"ADDRESS":"竹南街６６號","OBJECTID":42502},"geometry":{"x":174451,"y":2548759.9100000001}},{"attributes":{"ID":42503,"DIS_CODE":0,"TOWNNAME":"新營區","LI":"南紙里","LIN":"1鄰","STREET":"建業路","SECT":" ","MAREA":" ","LANE":"１９３巷","ALLEY":"２２弄","HOUSE_NO":"１２號","E_COORD97":178166.16,"N_COORD97":2577369.9399999999,"ADDRESS":"建業路１９３巷２２弄１２號","OBJECTID":42503},"geometry":{"x":178166.16000000015,"y":2577369.9400000013}},{"attributes":{"ID":42504,"DIS_CODE":0,"TOWNNAME":"新營區","LI":"南紙里","LIN":"5鄰","STREET":"南紙街","SECT":" ","MAREA":" ","LANE":"２９巷","ALLEY":"６弄","HOUSE_NO":"２０號","E_COORD97":177889.48000000001,"N_COORD97":2577675.8300000001,"ADDRESS":"南紙街２９巷６弄２０號","OBJECTID":42504},"geometry":{"x":177889.48000000045,"y":2577675.8300000019}},{"attributes":{"ID":42505,"DIS_CODE":0,"TOWNNAME":"關廟區","LI":"埤頭里","LIN":"7鄰","STREET":"關新路","SECT":"二段","MAREA":" ","LANE":"２３巷","ALLEY":"１弄","HOUSE_NO":"３０號","E_COORD97":178942.37,"N_COORD97":2544077.25,"ADDRESS":"關新路二段２３巷１弄３０號","OBJECTID":42505},"geometry":{"x":178942.37000000011,"y":2544077.2500000019}},{"attributes":{"ID":42506,"DIS_CODE":0,"TOWNNAME":"新營區","LI":"忠政里","LIN":"16鄰","STREET":"府西路","SECT":" ","MAREA":" ","LANE":"２５７巷","ALLEY":"４０弄","HOUSE_NO":"７號","E_COORD97":179699.20000000001,"N_COORD97":2579707.0600000001,"ADDRESS":"府西路２５７巷４０弄７號","OBJECTID":42506},"geometry":{"x":179699.20000000112,"y":2579707.0600000005}},{"attributes":{"ID":42507,"DIS_CODE":0,"TOWNNAME":"新營區","LI":"南紙里","LIN":"1鄰","STREET":"建業路","SECT":" ","MAREA":" ","LANE":"１９３巷","ALLEY":"２２弄","HOUSE_NO":"１３號","E_COORD97":178159.92999999999,"N_COORD97":2577352.25,"ADDRESS":"建業路１９３巷２２弄１３號","OBJECTID":42507},"geometry":{"x":178159.93000000063,"y":2577352.25}},{"attributes":{"ID":42508,"DIS_CODE":0,"TOWNNAME":"新營區","LI":"忠政里","LIN":"14鄰","STREET":"府西路","SECT":" ","MAREA":" ","LANE":"２３０巷","ALLEY":"１０弄","HOUSE_NO":"２號","E_COORD97":179836.70999999999,"N_COORD97":2579581.27,"ADDRESS":"府西路２３０巷１０弄２號","OBJECTID":42508},"geometry":{"x":179836.70999999996,"y":2579581.2700000014}},{"attributes":{"ID":42509,"DIS_CODE":0,"TOWNNAME":"新營區","LI":"新東里","LIN":"7鄰","STREET":"東學路","SECT":" ","MAREA":" ","LANE":"１７６巷","ALLEY":"４弄","HOUSE_NO":"３號","E_COORD97":181189.48999999999,"N_COORD97":2579277.0099999998,"ADDRESS":"東學路１７６巷４弄３號","OBJECTID":42509},"geometry":{"x":181189.49000000022,"y":2579277.0100000035}},{"attributes":{"ID":42510,"DIS_CODE":0,"TOWNNAME":"新營區","LI":"新東里","LIN":"7鄰","STREET":"東學路","SECT":" ","MAREA":" ","LANE":"１７６巷","ALLEY":"２弄","HOUSE_NO":"２號","E_COORD97":181193.84,"N_COORD97":2579339,"ADDRESS":"東學路１７６巷２弄２號","OBJECTID":42510},"geometry":{"x":181193.83999999985,"y":2579339.0000000019}},{"attributes":{"ID":42511,"DIS_CODE":0,"TOWNNAME":"新營區","LI":"南紙里","LIN":"5鄰","STREET":"南紙街","SECT":" ","MAREA":" ","LANE":"２９巷","ALLEY":"６弄","HOUSE_NO":"１號","E_COORD97":177853.39999999999,"N_COORD97":2577679.3199999998,"ADDRESS":"南紙街２９巷６弄１號","OBJECTID":42511},"geometry":{"x":177853.4000000013,"y":2577679.3200000022}},{"attributes":{"ID":42512,"DIS_CODE":0,"TOWNNAME":"新營區","LI":"新北里","LIN":"13鄰","STREET":"周武街","SECT":" ","MAREA":" ","LANE":"７９巷","ALLEY":"２１弄","HOUSE_NO":"４６號","E_COORD97":179227.82000000001,"N_COORD97":2579033.77,"ADDRESS":"周武街７９巷２１弄４６號","OBJECTID":42512},"geometry":{"x":179227.8200000003,"y":2579033.7699999996}},{"attributes":{"ID":42513,"DIS_CODE":0,"TOWNNAME":"新營區","LI":"新東里","LIN":"7鄰","STREET":"東學路","SECT":" ","MAREA":" ","LANE":"１７６巷","ALLEY":"６弄","HOUSE_NO":"６號","E_COORD97":181187.26000000001,"N_COORD97":2579257.0899999999,"ADDRESS":"東學路１７６巷６弄６號","OBJECTID":42513},"geometry":{"x":181187.25999999978,"y":2579257.0900000017}},{"attributes":{"ID":42514,"DIS_CODE":0,"TOWNNAME":"新營區","LI":"新東里","LIN":"7鄰","STREET":"東學路","SECT":" ","MAREA":" ","LANE":"１７６巷","ALLEY":"４弄","HOUSE_NO":"１號","E_COORD97":181194.51000000001,"N_COORD97":2579276.9900000002,"ADDRESS":"東學路１７６巷４弄１號","OBJECTID":42514},"geometry":{"x":181194.50999999978,"y":2579276.9900000002}},{"attributes":{"ID":42515,"DIS_CODE":0,"TOWNNAME":"新營區","LI":"新東里","LIN":"7鄰","STREET":"東學路","SECT":" ","MAREA":" ","LANE":"１７６巷","ALLEY":"６弄","HOUSE_NO":"１２號","E_COORD97":181170.07999999999,"N_COORD97":2579252.75,"ADDRESS":"東學路１７６巷６弄１２號","OBJECTID":42515},"geometry":{"x":181170.08000000007,"y":2579252.7500000019}},{"attributes":{"ID":42516,"DIS_CODE":0,"TOWNNAME":"新營區","LI":"南紙里","LIN":"1鄰","STREET":"建業路","SECT":" ","MAREA":" ","LANE":"１９３巷","ALLEY":"２２弄","HOUSE_NO":"１４號","E_COORD97":178161.04999999999,"N_COORD97":2577369.96,"ADDRESS":"建業路１９３巷２２弄１４號","OBJECTID":42516},"geometry":{"x":178161.04999999981,"y":2577369.9600000046}},{"attributes":{"ID":42517,"DIS_CODE":0,"TOWNNAME":"新營區","LI":"忠政里","LIN":"26鄰","STREET":"府西路","SECT":" ","MAREA":" ","LANE":"１３７巷","ALLEY":"２６弄","HOUSE_NO":"８號","E_COORD97":179721.09,"N_COORD97":2579357,"ADDRESS":"府西路１３７巷２６弄８號","OBJECTID":42517},"geometry":{"x":179721.08999999892,"y":2579357.0000000019}},{"attributes":{"ID":42518,"DIS_CODE":0,"TOWNNAME":"南區","LI":"佛壇里","LIN":"7鄰","STREET":"興南街","SECT":" ","MAREA":" ","LANE":"５５巷","ALLEY":"２７弄","HOUSE_NO":"１１號","E_COORD97":166349.92000000001,"N_COORD97":2536027.8700000001,"ADDRESS":"興南街５５巷２７弄１１號","OBJECTID":42518},"geometry":{"x":166349.91999999993,"y":2536027.870000001}},{"attributes":{"ID":42519,"DIS_CODE":0,"TOWNNAME":"南區","LI":"佛壇里","LIN":"7鄰","STREET":"興南街","SECT":" ","MAREA":" ","LANE":"５５巷","ALLEY":"２７弄","HOUSE_NO":"５號","E_COORD97":166336.79999999999,"N_COORD97":2536025.2999999998,"ADDRESS":"興南街５５巷２７弄５號","OBJECTID":42519},"geometry":{"x":166336.80000000075,"y":2536025.3000000045}},{"attributes":{"ID":42520,"DIS_CODE":0,"TOWNNAME":"南區","LI":"佛壇里","LIN":"7鄰","STREET":"興南街","SECT":" ","MAREA":" ","LANE":"５５巷","ALLEY":"２７弄","HOUSE_NO":"７號","E_COORD97":166341.17000000001,"N_COORD97":2536026.3300000001,"ADDRESS":"興南街５５巷２７弄７號","OBJECTID":42520},"geometry":{"x":166341.17000000086,"y":2536026.3300000001}},{"attributes":{"ID":42521,"DIS_CODE":0,"TOWNNAME":"南區","LI":"佛壇里","LIN":"7鄰","STREET":"興南街","SECT":" ","MAREA":" ","LANE":"５５巷","ALLEY":"２７弄","HOUSE_NO":"９號","E_COORD97":166345.29000000001,"N_COORD97":2536025.8100000001,"ADDRESS":"興南街５５巷２７弄９號","OBJECTID":42521},"geometry":{"x":166345.29000000097,"y":2536025.8100000024}},{"attributes":{"ID":42522,"DIS_CODE":0,"TOWNNAME":"南區","LI":"佛壇里","LIN":"7鄰","STREET":"興南街","SECT":" ","MAREA":" ","LANE":"５５巷","ALLEY":"５弄","HOUSE_NO":"１０號","E_COORD97":166335,"N_COORD97":2536061.79,"ADDRESS":"興南街５５巷５弄１０號","OBJECTID":42522},"geometry":{"x":166335.00000000186,"y":2536061.790000001}},{"attributes":{"ID":42523,"DIS_CODE":0,"TOWNNAME":"南區","LI":"佛壇里","LIN":"7鄰","STREET":"興南街","SECT":" ","MAREA":" ","LANE":"５５巷","ALLEY":"５弄","HOUSE_NO":"２號","E_COORD97":166319.81,"N_COORD97":2536062.0499999998,"ADDRESS":"興南街５５巷５弄２號","OBJECTID":42523},"geometry":{"x":166319.80999999959,"y":2536062.0500000026}},{"attributes":{"ID":42524,"DIS_CODE":0,"TOWNNAME":"南區","LI":"佛壇里","LIN":"7鄰","STREET":"興南街","SECT":" ","MAREA":" ","LANE":"５５巷","ALLEY":"５弄","HOUSE_NO":"６號","E_COORD97":166324.70000000001,"N_COORD97":2536059.9900000002,"ADDRESS":"興南街５５巷５弄６號","OBJECTID":42524},"geometry":{"x":166324.70000000019,"y":2536059.9900000002}},{"attributes":{"ID":42525,"DIS_CODE":0,"TOWNNAME":"南區","LI":"佛壇里","LIN":"7鄰","STREET":"興南街","SECT":" ","MAREA":" ","LANE":"５５巷","ALLEY":"５弄","HOUSE_NO":"８號","E_COORD97":166328.04999999999,"N_COORD97":2536064.1000000001,"ADDRESS":"興南街５５巷５弄８號","OBJECTID":42525},"geometry":{"x":166328.05000000075,"y":2536064.1000000015}},{"attributes":{"ID":42526,"DIS_CODE":0,"TOWNNAME":"白河區","LI":"仙草里","LIN":"17鄰","STREET":" ","SECT":" ","MAREA":"仙草","LANE":" ","ALLEY":" ","HOUSE_NO":"６０之１０號","E_COORD97":196366.38,"N_COORD97":2582485.3500000001,"ADDRESS":"仙草６０之１０號","OBJECTID":42526},"geometry":{"x":196366.38000000082,"y":2582485.3500000034}},{"attributes":{"ID":42527,"DIS_CODE":0,"TOWNNAME":"南區","LI":"喜東里","LIN":"7鄰","STREET":"喜樹路","SECT":" ","MAREA":" ","LANE":"１５１巷","ALLEY":"９弄","HOUSE_NO":"２號","E_COORD97":165853.14000000001,"N_COORD97":2538008.0800000001,"ADDRESS":"喜樹路１５１巷９弄２號","OBJECTID":42527},"geometry":{"x":165853.1400000006,"y":2538008.0800000001}},{"attributes":{"ID":42528,"DIS_CODE":0,"TOWNNAME":"安定區","LI":"蘇厝里","LIN":"17鄰","STREET":" ","SECT":" ","MAREA":"蘇厝","LANE":" ","ALLEY":" ","HOUSE_NO":"４４２之１號","E_COORD97":173266.42000000001,"N_COORD97":2558655.2999999998,"ADDRESS":"蘇厝４４２之１號","OBJECTID":42528},"geometry":{"x":173266.41999999993,"y":2558655.3000000007}},{"attributes":{"ID":42529,"DIS_CODE":0,"TOWNNAME":"新市區","LI":"社內里","LIN":"17鄰","STREET":" ","SECT":" ","MAREA":"社內","LANE":" ","ALLEY":" ","HOUSE_NO":"１８３之３號","E_COORD97":175980.25,"N_COORD97":2552954.0499999998,"ADDRESS":"社內１８３之３號","OBJECTID":42529},"geometry":{"x":175980.25,"y":2552954.0500000007}},{"attributes":{"ID":42530,"DIS_CODE":0,"TOWNNAME":"南區","LI":"明亮里","LIN":"7鄰","STREET":"金華路","SECT":"一段","MAREA":" ","LANE":"３５２巷","ALLEY":"１３０弄","HOUSE_NO":"２號","E_COORD97":167260.13,"N_COORD97":2541030.3900000001,"ADDRESS":"金華路一段３５２巷１３０弄２號","OBJECTID":42530},"geometry":{"x":167260.13000000082,"y":2541030.3900000006}},{"attributes":{"ID":42531,"DIS_CODE":0,"TOWNNAME":"新市區","LI":"社內里","LIN":"17鄰","STREET":" ","SECT":" ","MAREA":"社內","LANE":" ","ALLEY":" ","HOUSE_NO":"１８０號","E_COORD97":176047.31,"N_COORD97":2553021,"ADDRESS":"社內１８０號","OBJECTID":42531},"geometry":{"x":176047.30999999959,"y":2553021}},{"attributes":{"ID":42532,"DIS_CODE":0,"TOWNNAME":"新市區","LI":"大營里","LIN":"17鄰","STREET":" ","SECT":" ","MAREA":"大營","LANE":" ","ALLEY":" ","HOUSE_NO":"３２３之１號","E_COORD97":179144.82000000001,"N_COORD97":2555424.4100000001,"ADDRESS":"大營３２３之１號","OBJECTID":42532},"geometry":{"x":179144.8200000003,"y":2555424.410000002}},{"attributes":{"ID":42533,"DIS_CODE":0,"TOWNNAME":"南區","LI":"府南里","LIN":"20鄰","STREET":"永成路","SECT":"三段","MAREA":" ","LANE":"４６１巷","ALLEY":"２１弄","HOUSE_NO":"６號","E_COORD97":167403.77695599999,"N_COORD97":2541501.96704,"ADDRESS":"永成路三段４６１巷２１弄６號","OBJECTID":42533},"geometry":{"x":167403.77695600037,"y":2541501.9670350011}},{"attributes":{"ID":42534,"DIS_CODE":0,"TOWNNAME":"南區","LI":"明亮里","LIN":"7鄰","STREET":"金華路","SECT":"一段","MAREA":" ","LANE":"３５２巷","ALLEY":"１２２弄","HOUSE_NO":"１號","E_COORD97":167264.84,"N_COORD97":2541038.23,"ADDRESS":"金華路一段３５２巷１２２弄１號","OBJECTID":42534},"geometry":{"x":167264.83999999892,"y":2541038.2300000004}},{"attributes":{"ID":42535,"DIS_CODE":0,"TOWNNAME":"南區","LI":"明亮里","LIN":"7鄰","STREET":"金華路","SECT":"一段","MAREA":" ","LANE":"３５２巷","ALLEY":"１２２弄","HOUSE_NO":"３號","E_COORD97":167257.94,"N_COORD97":2541043.2400000002,"ADDRESS":"金華路一段３５２巷１２２弄３號","OBJECTID":42535},"geometry":{"x":167257.93999999948,"y":2541043.2400000021}},{"attributes":{"ID":42536,"DIS_CODE":0,"TOWNNAME":"南區","LI":"明亮里","LIN":"7鄰","STREET":"金華路","SECT":"一段","MAREA":" ","LANE":"３５２巷","ALLEY":"１２２弄","HOUSE_NO":"５號","E_COORD97":167254.17000000001,"N_COORD97":2541044.8100000001,"ADDRESS":"金華路一段３５２巷１２２弄５號","OBJECTID":42536},"geometry":{"x":167254.16999999899,"y":2541044.8100000005}},{"attributes":{"ID":42537,"DIS_CODE":0,"TOWNNAME":"南區","LI":"明亮里","LIN":"7鄰","STREET":"金華路","SECT":"一段","MAREA":" ","LANE":"３５２巷","ALLEY":"１２２弄","HOUSE_NO":"７號","E_COORD97":167248.20999999999,"N_COORD97":2541046.6899999999,"ADDRESS":"金華路一段３５２巷１２２弄７號","OBJECTID":42537},"geometry":{"x":167248.20999999996,"y":2541046.6900000013}},{"attributes":{"ID":42538,"DIS_CODE":0,"TOWNNAME":"新市區","LI":"新和里","LIN":"17鄰","STREET":"銘傳街","SECT":" ","MAREA":" ","LANE":" ","ALLEY":" ","HOUSE_NO":"１６號","E_COORD97":177521.14999999999,"N_COORD97":2552662.75,"ADDRESS":"銘傳街１６號","OBJECTID":42538},"geometry":{"x":177521.1500000013,"y":2552662.7500000019}},{"attributes":{"ID":42539,"DIS_CODE":0,"TOWNNAME":"新市區","LI":"新和里","LIN":"17鄰","STREET":"銘傳街","SECT":" ","MAREA":" ","LANE":" ","ALLEY":" ","HOUSE_NO":"１７號","E_COORD97":177514.45000000001,"N_COORD97":2552651,"ADDRESS":"銘傳街１７號","OBJECTID":42539},"geometry":{"x":177514.45000000112,"y":2552651.0000000019}},{"attributes":{"ID":42540,"DIS_CODE":0,"TOWNNAME":"新市區","LI":"大營里","LIN":"17鄰","STREET":" ","SECT":" ","MAREA":"大營","LANE":" ","ALLEY":" ","HOUSE_NO":"３３１之１２號","E_COORD97":179109,"N_COORD97":2554814.6299999999,"ADDRESS":"大營３３１之１２號","OBJECTID":42540},"geometry":{"x":179109.00000000093,"y":2554814.6300000008}},{"attributes":{"ID":42541,"DIS_CODE":0,"TOWNNAME":"大內區","LI":"石湖里","LIN":"7鄰","STREET":" ","SECT":" ","MAREA":"石子瀨","LANE":" ","ALLEY":" ","HOUSE_NO":"２９１號之５","E_COORD97":183901.16,"N_COORD97":2558228.2999999998,"ADDRESS":"石子瀨２９１號之５","OBJECTID":42541},"geometry":{"x":183901.16000000015,"y":2558228.3000000007}},{"attributes":{"ID":42542,"DIS_CODE":0,"TOWNNAME":"大內區","LI":"石湖里","LIN":"7鄰","STREET":" ","SECT":" ","MAREA":"石子瀨","LANE":" ","ALLEY":" ","HOUSE_NO":"２８７號","E_COORD97":183953.47,"N_COORD97":2558318.25,"ADDRESS":"石子瀨２８７號","OBJECTID":42542},"geometry":{"x":183953.47000000067,"y":2558318.25}},{"attributes":{"ID":42543,"DIS_CODE":0,"TOWNNAME":"大內區","LI":"石城里","LIN":"7鄰","STREET":" ","SECT":" ","MAREA":"石子瀨","LANE":" ","ALLEY":" ","HOUSE_NO":"６６號","E_COORD97":184213.12,"N_COORD97":2557957.25,"ADDRESS":"石子瀨６６號","OBJECTID":42543},"geometry":{"x":184213.12000000011,"y":2557957.2500000037}},{"attributes":{"ID":42544,"DIS_CODE":0,"TOWNNAME":"大內區","LI":"頭社里","LIN":"7鄰","STREET":" ","SECT":" ","MAREA":"頭社","LANE":" ","ALLEY":" ","HOUSE_NO":"９２號","E_COORD97":186549.54000000001,"N_COORD97":2561164.23,"ADDRESS":"頭社９２號","OBJECTID":42544},"geometry":{"x":186549.54000000004,"y":2561164.2300000004}},{"attributes":{"ID":42545,"DIS_CODE":0,"TOWNNAME":"大內區","LI":"曲溪里","LIN":"7鄰","STREET":" ","SECT":" ","MAREA":"二重溪","LANE":" ","ALLEY":" ","HOUSE_NO":"６３號之１","E_COORD97":187244.92999999999,"N_COORD97":2557602.3100000001,"ADDRESS":"二重溪６３號之１","OBJECTID":42545},"geometry":{"x":187244.9299999997,"y":2557602.3100000024}},{"attributes":{"ID":42546,"DIS_CODE":0,"TOWNNAME":"大內區","LI":"頭社里","LIN":"7鄰","STREET":" ","SECT":" ","MAREA":"頭社","LANE":" ","ALLEY":" ","HOUSE_NO":"９０號","E_COORD97":186602.73999999999,"N_COORD97":2561149.25,"ADDRESS":"頭社９０號","OBJECTID":42546},"geometry":{"x":186602.74000000022,"y":2561149.25}},{"attributes":{"ID":42547,"DIS_CODE":0,"TOWNNAME":"大內區","LI":"石城里","LIN":"7鄰","STREET":" ","SECT":" ","MAREA":"石子瀨","LANE":" ","ALLEY":" ","HOUSE_NO":"６８號之１","E_COORD97":184215.04999999999,"N_COORD97":2557937.2999999998,"ADDRESS":"石子瀨６８號之１","OBJECTID":42547},"geometry":{"x":184215.04999999981,"y":2557937.3000000045}},{"attributes":{"ID":42548,"DIS_CODE":0,"TOWNNAME":"大內區","LI":"曲溪里","LIN":"7鄰","STREET":" ","SECT":" ","MAREA":"二重溪","LANE":" ","ALLEY":" ","HOUSE_NO":"６５號","E_COORD97":187213.19,"N_COORD97":2557640.3100000001,"ADDRESS":"二重溪６５號","OBJECTID":42548},"geometry":{"x":187213.19000000041,"y":2557640.3100000005}},{"attributes":{"ID":42549,"DIS_CODE":0,"TOWNNAME":"大內區","LI":"頭社里","LIN":"7鄰","STREET":" ","SECT":" ","MAREA":"頭社","LANE":" ","ALLEY":" ","HOUSE_NO":"９４號","E_COORD97":186570.14000000001,"N_COORD97":2561135.25,"ADDRESS":"頭社９４號","OBJECTID":42549},"geometry":{"x":186570.13999999966,"y":2561135.2500000019}},{"attributes":{"ID":42550,"DIS_CODE":0,"TOWNNAME":"大內區","LI":"曲溪里","LIN":"7鄰","STREET":" ","SECT":" ","MAREA":"二重溪","LANE":" ","ALLEY":" ","HOUSE_NO":"６４號","E_COORD97":187224.39000000001,"N_COORD97":2557620.3100000001,"ADDRESS":"二重溪６４號","OBJECTID":42550},"geometry":{"x":187224.3900000006,"y":2557620.3100000005}},{"attributes":{"ID":42551,"DIS_CODE":0,"TOWNNAME":"大內區","LI":"頭社里","LIN":"7鄰","STREET":" ","SECT":" ","MAREA":"頭社","LANE":" ","ALLEY":" ","HOUSE_NO":"８５號","E_COORD97":186631.14000000001,"N_COORD97":2561151.25,"ADDRESS":"頭社８５號","OBJECTID":42551},"geometry":{"x":186631.13999999966,"y":2561151.2500000019}},{"attributes":{"ID":42552,"DIS_CODE":0,"TOWNNAME":"大內區","LI":"環湖里","LIN":"7鄰","STREET":" ","SECT":" ","MAREA":"環湖","LANE":" ","ALLEY":" ","HOUSE_NO":"９６號","E_COORD97":190416.54000000001,"N_COORD97":2560668.25,"ADDRESS":"環湖９６號","OBJECTID":42552},"geometry":{"x":190416.53999999911,"y":2560668.25}},{"attributes":{"ID":42553,"DIS_CODE":0,"TOWNNAME":"大內區","LI":"石湖里","LIN":"7鄰","STREET":" ","SECT":" ","MAREA":"石子瀨","LANE":" ","ALLEY":" ","HOUSE_NO":"２８８號","E_COORD97":183965.97,"N_COORD97":2558291.25,"ADDRESS":"石子瀨２８８號","OBJECTID":42553},"geometry":{"x":183965.96999999974,"y":2558291.25}},{"attributes":{"ID":42554,"DIS_CODE":0,"TOWNNAME":"大內區","LI":"環湖里","LIN":"7鄰","STREET":" ","SECT":" ","MAREA":"環湖","LANE":" ","ALLEY":" ","HOUSE_NO":"９１號","E_COORD97":190356.94,"N_COORD97":2560661.25,"ADDRESS":"環湖９１號","OBJECTID":42554},"geometry":{"x":190356.94000000134,"y":2560661.25}},{"attributes":{"ID":42555,"DIS_CODE":0,"TOWNNAME":"新市區","LI":"新和里","LIN":"17鄰","STREET":"銘傳街","SECT":" ","MAREA":" ","LANE":" ","ALLEY":" ","HOUSE_NO":"１０號","E_COORD97":177534.95000000001,"N_COORD97":2552661,"ADDRESS":"銘傳街１０號","OBJECTID":42555},"geometry":{"x":177534.95000000019,"y":2552661.0000000019}},{"attributes":{"ID":42556,"DIS_CODE":0,"TOWNNAME":"新市區","LI":"新和里","LIN":"17鄰","STREET":"銘傳街","SECT":" ","MAREA":" ","LANE":" ","ALLEY":" ","HOUSE_NO":"２５號","E_COORD97":177497.29000000001,"N_COORD97":2552653.75,"ADDRESS":"銘傳街２５號","OBJECTID":42556},"geometry":{"x":177497.29000000004,"y":2552653.75}},{"attributes":{"ID":42557,"DIS_CODE":0,"TOWNNAME":"新市區","LI":"新和里","LIN":"17鄰","STREET":"銘傳街","SECT":" ","MAREA":" ","LANE":" ","ALLEY":" ","HOUSE_NO":"２４號","E_COORD97":177504.39999999999,"N_COORD97":2552665.25,"ADDRESS":"銘傳街２４號","OBJECTID":42557},"geometry":{"x":177504.4000000013,"y":2552665.2500000019}},{"attributes":{"ID":42558,"DIS_CODE":0,"TOWNNAME":"大內區","LI":"曲溪里","LIN":"7鄰","STREET":" ","SECT":" ","MAREA":"二重溪","LANE":" ","ALLEY":" ","HOUSE_NO":"６７號","E_COORD97":187243.59,"N_COORD97":2557652.3100000001,"ADDRESS":"二重溪６７號","OBJECTID":42558},"geometry":{"x":187243.58999999985,"y":2557652.3100000024}},{"attributes":{"ID":42559,"DIS_CODE":0,"TOWNNAME":"南區","LI":"明亮里","LIN":"7鄰","STREET":"金華路","SECT":"一段","MAREA":" ","LANE":"３５２巷","ALLEY":"１２２弄","HOUSE_NO":"２號","E_COORD97":167262.23999999999,"N_COORD97":2541051.3500000001,"ADDRESS":"金華路一段３５２巷１２２弄２號","OBJECTID":42559},"geometry":{"x":167262.24000000022,"y":2541051.3499999978}},{"attributes":{"ID":42560,"DIS_CODE":0,"TOWNNAME":"南區","LI":"明亮里","LIN":"7鄰","STREET":"金華路","SECT":"一段","MAREA":" ","LANE":"３５２巷","ALLEY":"１０２弄","HOUSE_NO":"１號","E_COORD97":167224.14999999999,"N_COORD97":2541056.5600000001,"ADDRESS":"金華路一段３５２巷１０２弄１號","OBJECTID":42560},"geometry":{"x":167224.15000000037,"y":2541056.5600000005}},{"attributes":{"ID":42561,"DIS_CODE":0,"TOWNNAME":"南區","LI":"明亮里","LIN":"7鄰","STREET":"金華路","SECT":"一段","MAREA":" ","LANE":"３５２巷","ALLEY":"１０２弄","HOUSE_NO":"３號","E_COORD97":167229.67999999999,"N_COORD97":2541053.7999999998,"ADDRESS":"金華路一段３５２巷１０２弄３號","OBJECTID":42561},"geometry":{"x":167229.6799999997,"y":2541053.8000000026}},{"attributes":{"ID":42562,"DIS_CODE":0,"TOWNNAME":"大內區","LI":"環湖里","LIN":"7鄰","STREET":" ","SECT":" ","MAREA":"環湖","LANE":" ","ALLEY":" ","HOUSE_NO":"９１號之１","E_COORD97":190345.17999999999,"N_COORD97":2560643.2999999998,"ADDRESS":"環湖９１號之１","OBJECTID":42562},"geometry":{"x":190345.1799999997,"y":2560643.3000000026}},{"attributes":{"ID":42563,"DIS_CODE":0,"TOWNNAME":"大內區","LI":"環湖里","LIN":"7鄰","STREET":" ","SECT":" ","MAREA":"環湖","LANE":" ","ALLEY":" ","HOUSE_NO":"８８號","E_COORD97":190382.64000000001,"N_COORD97":2560634.25,"ADDRESS":"環湖８８號","OBJECTID":42563},"geometry":{"x":190382.63999999966,"y":2560634.25}},{"attributes":{"ID":42564,"DIS_CODE":0,"TOWNNAME":"大內區","LI":"石湖里","LIN":"7鄰","STREET":" ","SECT":" ","MAREA":"石子瀨","LANE":" ","ALLEY":" ","HOUSE_NO":"２９７號","E_COORD97":183945.26999999999,"N_COORD97":2558332.25,"ADDRESS":"石子瀨２９７號","OBJECTID":42564},"geometry":{"x":183945.26999999955,"y":2558332.25}},{"attributes":{"ID":42565,"DIS_CODE":0,"TOWNNAME":"大內區","LI":"石湖里","LIN":"7鄰","STREET":" ","SECT":" ","MAREA":"石子瀨","LANE":" ","ALLEY":" ","HOUSE_NO":"２９４號","E_COORD97":183910.47,"N_COORD97":2558268.25,"ADDRESS":"石子瀨２９４號","OBJECTID":42565},"geometry":{"x":183910.46999999974,"y":2558268.25}},{"attributes":{"ID":42566,"DIS_CODE":0,"TOWNNAME":"大內區","LI":"石湖里","LIN":"7鄰","STREET":" ","SECT":" ","MAREA":"石子瀨","LANE":" ","ALLEY":" ","HOUSE_NO":"２９３號之５","E_COORD97":183903.45999999999,"N_COORD97":2558241.2999999998,"ADDRESS":"石子瀨２９３號之５","OBJECTID":42566},"geometry":{"x":183903.45999999996,"y":2558241.3000000007}},{"attributes":{"ID":42567,"DIS_CODE":0,"TOWNNAME":"大內區","LI":"曲溪里","LIN":"7鄰","STREET":" ","SECT":" ","MAREA":"二重溪","LANE":" ","ALLEY":" ","HOUSE_NO":"６２號","E_COORD97":187244.29000000001,"N_COORD97":2557620.3100000001,"ADDRESS":"二重溪６２號","OBJECTID":42567},"geometry":{"x":187244.29000000004,"y":2557620.3100000005}},{"attributes":{"ID":42568,"DIS_CODE":0,"TOWNNAME":"大內區","LI":"環湖里","LIN":"7鄰","STREET":" ","SECT":" ","MAREA":"環湖","LANE":" ","ALLEY":" ","HOUSE_NO":"９２號","E_COORD97":190347.84,"N_COORD97":2560680.25,"ADDRESS":"環湖９２號","OBJECTID":42568},"geometry":{"x":190347.83999999985,"y":2560680.2500000019}},{"attributes":{"ID":42569,"DIS_CODE":0,"TOWNNAME":"大內區","LI":"石湖里","LIN":"7鄰","STREET":" ","SECT":" ","MAREA":"石子瀨","LANE":" ","ALLEY":" ","HOUSE_NO":"２８７號之１","E_COORD97":183979.89999999999,"N_COORD97":2558331.2999999998,"ADDRESS":"石子瀨２８７號之１","OBJECTID":42569},"geometry":{"x":183979.9000000013,"y":2558331.3000000026}},{"attributes":{"ID":42570,"DIS_CODE":0,"TOWNNAME":"大內區","LI":"石湖里","LIN":"7鄰","STREET":" ","SECT":" ","MAREA":"石子瀨","LANE":" ","ALLEY":" ","HOUSE_NO":"２９３號之３","E_COORD97":183919.70000000001,"N_COORD97":2558234.2999999998,"ADDRESS":"石子瀨２９３號之３","OBJECTID":42570},"geometry":{"x":183919.70000000205,"y":2558234.3000000007}},{"attributes":{"ID":42571,"DIS_CODE":0,"TOWNNAME":"大內區","LI":"石湖里","LIN":"7鄰","STREET":" ","SECT":" ","MAREA":"石子瀨","LANE":" ","ALLEY":" ","HOUSE_NO":"２８６號之１","E_COORD97":183956.29999999999,"N_COORD97":2558380.2999999998,"ADDRESS":"石子瀨２８６號之１","OBJECTID":42571},"geometry":{"x":183956.30000000075,"y":2558380.3000000007}},{"attributes":{"ID":42572,"DIS_CODE":0,"TOWNNAME":"大內區","LI":"石湖里","LIN":"7鄰","STREET":" ","SECT":" ","MAREA":"石子瀨","LANE":" ","ALLEY":" ","HOUSE_NO":"２９３號之１","E_COORD97":183928.20000000001,"N_COORD97":2558237.2999999998,"ADDRESS":"石子瀨２９３號之１","OBJECTID":42572},"geometry":{"x":183928.20000000205,"y":2558237.3000000007}},{"attributes":{"ID":42573,"DIS_CODE":0,"TOWNNAME":"大內區","LI":"石湖里","LIN":"7鄰","STREET":" ","SECT":" ","MAREA":"石子瀨","LANE":" ","ALLEY":" ","HOUSE_NO":"２９０號之３","E_COORD97":183958.70000000001,"N_COORD97":2558216.2999999998,"ADDRESS":"石子瀨２９０號之３","OBJECTID":42573},"geometry":{"x":183958.70000000205,"y":2558216.3000000026}},{"attributes":{"ID":42574,"DIS_CODE":0,"TOWNNAME":"南區","LI":"明亮里","LIN":"7鄰","STREET":"金華路","SECT":"一段","MAREA":" ","LANE":"３５２巷","ALLEY":"１０２弄","HOUSE_NO":"５號","E_COORD97":167234.59,"N_COORD97":2541051.6499999999,"ADDRESS":"金華路一段３５２巷１０２弄５號","OBJECTID":42574},"geometry":{"x":167234.59000000078,"y":2541051.6500000022}},{"attributes":{"ID":42575,"DIS_CODE":0,"TOWNNAME":"南區","LI":"明亮里","LIN":"7鄰","STREET":"金華路","SECT":"一段","MAREA":" ","LANE":"３５２巷","ALLEY":"１０２弄","HOUSE_NO":"７號","E_COORD97":167238.59,"N_COORD97":2541050.4300000002,"ADDRESS":"金華路一段３５２巷１０２弄７號","OBJECTID":42575},"geometry":{"x":167238.59000000078,"y":2541050.4299999997}},{"attributes":{"ID":42576,"DIS_CODE":0,"TOWNNAME":"南區","LI":"明亮里","LIN":"7鄰","STREET":"金華路","SECT":"一段","MAREA":" ","LANE":"３５２巷","ALLEY":"１０２弄","HOUSE_NO":"１１號","E_COORD97":167239.51000000001,"N_COORD97":2541040.2999999998,"ADDRESS":"金華路一段３５２巷１０２弄１１號","OBJECTID":42576},"geometry":{"x":167239.50999999978,"y":2541040.3000000026}},{"attributes":{"ID":42577,"DIS_CODE":0,"TOWNNAME":"南區","LI":"明亮里","LIN":"7鄰","STREET":"金華路","SECT":"一段","MAREA":" ","LANE":"３５２巷","ALLEY":"１０２弄","HOUSE_NO":"１３號","E_COORD97":167235.20999999999,"N_COORD97":2541041.8399999999,"ADDRESS":"金華路一段３５２巷１０２弄１３號","OBJECTID":42577},"geometry":{"x":167235.20999999996,"y":2541041.8400000036}},{"attributes":{"ID":42578,"DIS_CODE":0,"TOWNNAME":"新營區","LI":"新北里","LIN":"31鄰","STREET":"新北六街","SECT":" ","MAREA":" ","LANE":"５巷","ALLEY":"８弄","HOUSE_NO":"３８號","E_COORD97":178770.79999999999,"N_COORD97":2579070.29,"ADDRESS":"新北六街５巷８弄３８號","OBJECTID":42578},"geometry":{"x":178770.80000000075,"y":2579070.2899999991}},{"attributes":{"ID":42579,"DIS_CODE":0,"TOWNNAME":"南區","LI":"明亮里","LIN":"7鄰","STREET":"金華路","SECT":"一段","MAREA":" ","LANE":"３５２巷","ALLEY":"１０２弄","HOUSE_NO":"１５號","E_COORD97":167230.60000000001,"N_COORD97":2541043.6800000002,"ADDRESS":"金華路一段３５２巷１０２弄１５號","OBJECTID":42579},"geometry":{"x":167230.5999999987,"y":2541043.6800000016}},{"attributes":{"ID":42580,"DIS_CODE":0,"TOWNNAME":"南區","LI":"明亮里","LIN":"7鄰","STREET":"金華路","SECT":"一段","MAREA":" ","LANE":"３５２巷","ALLEY":"１０２弄","HOUSE_NO":"１７號","E_COORD97":167225.69,"N_COORD97":2541045.8300000001,"ADDRESS":"金華路一段３５２巷１０２弄１７號","OBJECTID":42580},"geometry":{"x":167225.69000000041,"y":2541045.8300000019}},{"attributes":{"ID":42581,"DIS_CODE":0,"TOWNNAME":"南區","LI":"明亮里","LIN":"7鄰","STREET":"金華路","SECT":"一段","MAREA":" ","LANE":"３５２巷","ALLEY":"１０２弄","HOUSE_NO":"１９號","E_COORD97":167220.76999999999,"N_COORD97":2541047.0499999998,"ADDRESS":"金華路一段３５２巷１０２弄１９號","OBJECTID":42581},"geometry":{"x":167220.76999999955,"y":2541047.0500000007}},{"attributes":{"ID":42582,"DIS_CODE":0,"TOWNNAME":"南區","LI":"明亮里","LIN":"7鄰","STREET":"金華路","SECT":"一段","MAREA":" ","LANE":"３５２巷","ALLEY":"１０２弄","HOUSE_NO":"２１號","E_COORD97":167212.78,"N_COORD97":2541028.6499999999,"ADDRESS":"金華路一段３５２巷１０２弄２１號","OBJECTID":42582},"geometry":{"x":167212.78000000026,"y":2541028.6500000004}},{"attributes":{"ID":42583,"DIS_CODE":0,"TOWNNAME":"南區","LI":"明亮里","LIN":"7鄰","STREET":"金華路","SECT":"一段","MAREA":" ","LANE":"３５２巷","ALLEY":"１０２弄","HOUSE_NO":"２３號","E_COORD97":167218.31,"N_COORD97":2541025.8799999999,"ADDRESS":"金華路一段３５２巷１０２弄２３號","OBJECTID":42583},"geometry":{"x":167218.30999999959,"y":2541025.879999999}},{"attributes":{"ID":42584,"DIS_CODE":0,"TOWNNAME":"南區","LI":"明亮里","LIN":"7鄰","STREET":"金華路","SECT":"一段","MAREA":" ","LANE":"３５２巷","ALLEY":"１０２弄","HOUSE_NO":"２５號","E_COORD97":167222.60999999999,"N_COORD97":2541025.27,"ADDRESS":"金華路一段３５２巷１０２弄２５號","OBJECTID":42584},"geometry":{"x":167222.61000000034,"y":2541025.2700000014}},{"attributes":{"ID":42585,"DIS_CODE":0,"TOWNNAME":"南區","LI":"明亮里","LIN":"7鄰","STREET":"金華路","SECT":"一段","MAREA":" ","LANE":"３５２巷","ALLEY":"１０２弄","HOUSE_NO":"２７號","E_COORD97":167227.84,"N_COORD97":2541023.4300000002,"ADDRESS":"金華路一段３５２巷１０２弄２７號","OBJECTID":42585},"geometry":{"x":167227.84000000078,"y":2541023.4299999997}},{"attributes":{"ID":42586,"DIS_CODE":0,"TOWNNAME":"南區","LI":"明亮里","LIN":"7鄰","STREET":"金華路","SECT":"一段","MAREA":" ","LANE":"３５２巷","ALLEY":"１０２弄","HOUSE_NO":"２９號","E_COORD97":167233.35999999999,"N_COORD97":2541020.98,"ADDRESS":"金華路一段３５２巷１０２弄２９號","OBJECTID":42586},"geometry":{"x":167233.36000000127,"y":2541020.9800000042}},{"attributes":{"ID":42587,"DIS_CODE":0,"TOWNNAME":"南區","LI":"明亮里","LIN":"7鄰","STREET":"金華路","SECT":"一段","MAREA":" ","LANE":"３５２巷","ALLEY":"１０２弄","HOUSE_NO":"３１號","E_COORD97":167229.06,"N_COORD97":2541012.6899999999,"ADDRESS":"金華路一段３５２巷１０２弄３１號","OBJECTID":42587},"geometry":{"x":167229.05999999959,"y":2541012.6900000013}},{"attributes":{"ID":42588,"DIS_CODE":0,"TOWNNAME":"南區","LI":"明亮里","LIN":"7鄰","STREET":"金華路","SECT":"一段","MAREA":" ","LANE":"３５２巷","ALLEY":"１０２弄","HOUSE_NO":"３３號","E_COORD97":167224.14999999999,"N_COORD97":2541015.1499999999,"ADDRESS":"金華路一段３５２巷１０２弄３３號","OBJECTID":42588},"geometry":{"x":167224.15000000037,"y":2541015.1500000004}},{"attributes":{"ID":42589,"DIS_CODE":0,"TOWNNAME":"南區","LI":"明亮里","LIN":"7鄰","STREET":"金華路","SECT":"一段","MAREA":" ","LANE":"３５２巷","ALLEY":"１０２弄","HOUSE_NO":"３５號","E_COORD97":167219.23000000001,"N_COORD97":2541016.3700000001,"ADDRESS":"金華路一段３５２巷１０２弄３５號","OBJECTID":42589},"geometry":{"x":167219.23000000138,"y":2541016.3700000029}},{"attributes":{"ID":42590,"DIS_CODE":0,"TOWNNAME":"南區","LI":"明亮里","LIN":"7鄰","STREET":"金華路","SECT":"一段","MAREA":" ","LANE":"３５２巷","ALLEY":"１０２弄","HOUSE_NO":"３７號","E_COORD97":167213.70000000001,"N_COORD97":2541018.52,"ADDRESS":"金華路一段３５２巷１０２弄３７號","OBJECTID":42590},"geometry":{"x":167213.70000000205,"y":2541018.5199999996}},{"attributes":{"ID":42591,"DIS_CODE":0,"TOWNNAME":"南區","LI":"明亮里","LIN":"7鄰","STREET":"金華路","SECT":"一段","MAREA":" ","LANE":"３５２巷","ALLEY":"１０２弄","HOUSE_NO":"３９號","E_COORD97":167209.39999999999,"N_COORD97":2541020.6699999999,"ADDRESS":"金華路一段３５２巷１０２弄３９號","OBJECTID":42591},"geometry":{"x":167209.4000000013,"y":2541020.6700000018}},{"attributes":{"ID":42592,"DIS_CODE":0,"TOWNNAME":"南區","LI":"明亮里","LIN":"7鄰","STREET":"金華路","SECT":"一段","MAREA":" ","LANE":"３５２巷","ALLEY":"１０２弄","HOUSE_NO":"４１號","E_COORD97":167202.03,"N_COORD97":2541000.4199999999,"ADDRESS":"金華路一段３５２巷１０２弄４１號","OBJECTID":42592},"geometry":{"x":167202.03000000119,"y":2541000.4200000037}},{"attributes":{"ID":42593,"DIS_CODE":0,"TOWNNAME":"南區","LI":"明亮里","LIN":"7鄰","STREET":"金華路","SECT":"一段","MAREA":" ","LANE":"３５２巷","ALLEY":"１０２弄","HOUSE_NO":"４３號","E_COORD97":167207.87,"N_COORD97":2540999.1899999999,"ADDRESS":"金華路一段３５２巷１０２弄４３號","OBJECTID":42593},"geometry":{"x":167207.87000000104,"y":2540999.1900000013}},{"attributes":{"ID":42594,"DIS_CODE":0,"TOWNNAME":"南區","LI":"明亮里","LIN":"7鄰","STREET":"金華路","SECT":"一段","MAREA":" ","LANE":"３５２巷","ALLEY":"１０２弄","HOUSE_NO":"４５號","E_COORD97":167211.85999999999,"N_COORD97":2540997.0499999998,"ADDRESS":"金華路一段３５２巷１０２弄４５號","OBJECTID":42594},"geometry":{"x":167211.86000000127,"y":2540997.0500000045}},{"attributes":{"ID":42595,"DIS_CODE":0,"TOWNNAME":"南區","LI":"明亮里","LIN":"7鄰","STREET":"金華路","SECT":"一段","MAREA":" ","LANE":"３５２巷","ALLEY":"１０２弄","HOUSE_NO":"４７號","E_COORD97":167217.07999999999,"N_COORD97":2540994.8999999999,"ADDRESS":"金華路一段３５２巷１０２弄４７號","OBJECTID":42595},"geometry":{"x":167217.08000000007,"y":2540994.9000000022}},{"attributes":{"ID":42596,"DIS_CODE":0,"TOWNNAME":"南區","LI":"明亮里","LIN":"7鄰","STREET":"金華路","SECT":"一段","MAREA":" ","LANE":"３５２巷","ALLEY":"１０２弄","HOUSE_NO":"４９號","E_COORD97":167221.07999999999,"N_COORD97":2540993.0600000001,"ADDRESS":"金華路一段３５２巷１０２弄４９號","OBJECTID":42596},"geometry":{"x":167221.07999999914,"y":2540993.0600000005}},{"attributes":{"ID":42597,"DIS_CODE":0,"TOWNNAME":"南區","LI":"明亮里","LIN":"7鄰","STREET":"金華路","SECT":"一段","MAREA":" ","LANE":"３５２巷","ALLEY":"１０２弄","HOUSE_NO":"５１號","E_COORD97":167218.31,"N_COORD97":2540985.0800000001,"ADDRESS":"金華路一段３５２巷１０２弄５１號","OBJECTID":42597},"geometry":{"x":167218.30999999959,"y":2540985.0800000001}},{"attributes":{"ID":42598,"DIS_CODE":0,"TOWNNAME":"南區","LI":"明亮里","LIN":"7鄰","STREET":"金華路","SECT":"一段","MAREA":" ","LANE":"３５２巷","ALLEY":"１０２弄","HOUSE_NO":"５３號","E_COORD97":167212.48000000001,"N_COORD97":2540986.6099999999,"ADDRESS":"金華路一段３５２巷１０２弄５３號","OBJECTID":42598},"geometry":{"x":167212.48000000138,"y":2540986.6100000013}},{"attributes":{"ID":42599,"DIS_CODE":0,"TOWNNAME":"南區","LI":"明亮里","LIN":"7鄰","STREET":"金華路","SECT":"一段","MAREA":" ","LANE":"３５２巷","ALLEY":"１０２弄","HOUSE_NO":"５５號","E_COORD97":167208.17000000001,"N_COORD97":2540988.46,"ADDRESS":"金華路一段３５２巷１０２弄５５號","OBJECTID":42599},"geometry":{"x":167208.16999999993,"y":2540988.4600000028}},{"attributes":{"ID":42600,"DIS_CODE":0,"TOWNNAME":"南區","LI":"明亮里","LIN":"7鄰","STREET":"金華路","SECT":"一段","MAREA":" ","LANE":"３５２巷","ALLEY":"１０２弄","HOUSE_NO":"５９號","E_COORD97":167198.34,"N_COORD97":2540992.75,"ADDRESS":"金華路一段３５２巷１０２弄５９號","OBJECTID":42600},"geometry":{"x":167198.33999999985,"y":2540992.7500000019}}]}