{"displayFieldName":"TOWNNAME","fieldAliases":{"ID":"ID","DIS_CODE":"DIS_CODE","TOWNNAME":"TOWNNAME","LI":"LI","LIN":"LIN","STREET":"STREET","SECT":"SECT","MAREA":"MAREA","LANE":"LANE","ALLEY":"ALLEY","HOUSE_NO":"HOUSE_NO","E_COORD97":"E_COORD97","N_COORD97":"N_COORD97","ADDRESS":"ADDRESS","OBJECTID":"OBJECTID"},"geometryType":"esriGeometryPoint","spatialReference":{"wkid":102443,"latestWkid":3826},"fields":[{"name":"ID","type":"esriFieldTypeDouble","alias":"ID"},{"name":"DIS_CODE","type":"esriFieldTypeInteger","alias":"DIS_CODE"},{"name":"TOWNNAME","type":"esriFieldTypeString","alias":"TOWNNAME","length":8},{"name":"LI","type":"esriFieldTypeString","alias":"LI","length":8},{"name":"LIN","type":"esriFieldTypeString","alias":"LIN","length":12},{"name":"STREET","type":"esriFieldTypeString","alias":"STREET","length":20},{"name":"SECT","type":"esriFieldTypeString","alias":"SECT","length":8},{"name":"MAREA","type":"esriFieldTypeString","alias":"MAREA","length":12},{"name":"LANE","type":"esriFieldTypeString","alias":"LANE","length":10},{"name":"ALLEY","type":"esriFieldTypeString","alias":"ALLEY","length":10},{"name":"HOUSE_NO","type":"esriFieldTypeString","alias":"HOUSE_NO","length":20},{"name":"E_COORD97","type":"esriFieldTypeDouble","alias":"E_COORD97"},{"name":"N_COORD97","type":"esriFieldTypeDouble","alias":"N_COORD97"},{"name":"ADDRESS","type":"esriFieldTypeString","alias":"ADDRESS","length":50},{"name":"OBJECTID","type":"esriFieldTypeOID","alias":"OBJECTID"}],"features":[{"attributes":{"ID":259405,"DIS_CODE":0,"TOWNNAME":"關廟區","LI":"龜洞里","LIN":"5鄰","STREET":"南橋街","SECT":" ","MAREA":" ","LANE":"８８巷","ALLEY":" ","HOUSE_NO":"２６號","E_COORD97":181858.41514500001,"N_COORD97":2532697.97108,"ADDRESS":"南橋街８８巷２６號","OBJECTID":259401},"geometry":{"x":181858.41514500137,"y":2532697.9710840024}},{"attributes":{"ID":259406,"DIS_CODE":0,"TOWNNAME":"東區","LI":"仁和里","LIN":"22鄰","STREET":"仁東街","SECT":" ","MAREA":" ","LANE":" ","ALLEY":" ","HOUSE_NO":"６３號十樓之１１","E_COORD97":171617.73999999999,"N_COORD97":2541208.4100000001,"ADDRESS":"仁東街６３號十樓之１１","OBJECTID":259402},"geometry":{"x":171617.74000000115,"y":2541208.410000002}},{"attributes":{"ID":259407,"DIS_CODE":0,"TOWNNAME":"關廟區","LI":"龜洞里","LIN":"6鄰","STREET":"南雄南路","SECT":" ","MAREA":" ","LANE":"９０５巷","ALLEY":" ","HOUSE_NO":"５０號","E_COORD97":182425.17343600001,"N_COORD97":2532296.5454699998,"ADDRESS":"南雄南路９０５巷５０號","OBJECTID":259403},"geometry":{"x":182425.17343600187,"y":2532296.5454670023}},{"attributes":{"ID":259408,"DIS_CODE":0,"TOWNNAME":"關廟區","LI":"龜洞里","LIN":"7鄰","STREET":"南雄南路","SECT":" ","MAREA":" ","LANE":"７８１巷","ALLEY":" ","HOUSE_NO":"２３號","E_COORD97":183232.40674100001,"N_COORD97":2533190.6249799998,"ADDRESS":"南雄南路７８１巷２３號","OBJECTID":259404},"geometry":{"x":183232.40674099978,"y":2533190.6249839999}},{"attributes":{"ID":259409,"DIS_CODE":0,"TOWNNAME":"仁德區","LI":"上崙里","LIN":"1鄰","STREET":"德崙路","SECT":" ","MAREA":" ","LANE":"７７巷","ALLEY":" ","HOUSE_NO":"８６號二樓之１","E_COORD97":173571.47855999999,"N_COORD97":2538453.5479799998,"ADDRESS":"德崙路７７巷８６號二樓之１","OBJECTID":259405},"geometry":{"x":173571.47856000066,"y":2538453.5479799975}},{"attributes":{"ID":259410,"DIS_CODE":0,"TOWNNAME":"仁德區","LI":"上崙里","LIN":"1鄰","STREET":"德崙路","SECT":" ","MAREA":" ","LANE":"７７巷","ALLEY":" ","HOUSE_NO":"８６號二樓之２","E_COORD97":173571.47855999999,"N_COORD97":2538453.5479799998,"ADDRESS":"德崙路７７巷８６號二樓之２","OBJECTID":259406},"geometry":{"x":173571.47856000066,"y":2538453.5479799975}},{"attributes":{"ID":259411,"DIS_CODE":0,"TOWNNAME":"仁德區","LI":"上崙里","LIN":"1鄰","STREET":"德崙路","SECT":" ","MAREA":" ","LANE":"７７巷","ALLEY":" ","HOUSE_NO":"８６號二樓之３","E_COORD97":173571.47855999999,"N_COORD97":2538453.5479799998,"ADDRESS":"德崙路７７巷８６號二樓之３","OBJECTID":259407},"geometry":{"x":173571.47856000066,"y":2538453.5479799975}},{"attributes":{"ID":259412,"DIS_CODE":0,"TOWNNAME":"仁德區","LI":"上崙里","LIN":"1鄰","STREET":"德崙路","SECT":" ","MAREA":" ","LANE":"７７巷","ALLEY":" ","HOUSE_NO":"８６號二樓之４","E_COORD97":173329.09670600001,"N_COORD97":2538420.52801,"ADDRESS":"德崙路７７巷８６號二樓之４","OBJECTID":259408},"geometry":{"x":173329.09670600109,"y":2538420.5280060023}},{"attributes":{"ID":259413,"DIS_CODE":0,"TOWNNAME":"仁德區","LI":"上崙里","LIN":"1鄰","STREET":"德崙路","SECT":" ","MAREA":" ","LANE":"７７巷","ALLEY":" ","HOUSE_NO":"８６號二樓之５","E_COORD97":173571.47855999999,"N_COORD97":2538453.5479799998,"ADDRESS":"德崙路７７巷８６號二樓之５","OBJECTID":259409},"geometry":{"x":173571.47856000066,"y":2538453.5479799975}},{"attributes":{"ID":259414,"DIS_CODE":0,"TOWNNAME":"仁德區","LI":"上崙里","LIN":"1鄰","STREET":"德崙路","SECT":" ","MAREA":" ","LANE":"７７巷","ALLEY":" ","HOUSE_NO":"８６號二樓之６","E_COORD97":173571.47855999999,"N_COORD97":2538453.5479799998,"ADDRESS":"德崙路７７巷８６號二樓之６","OBJECTID":259410},"geometry":{"x":173571.47856000066,"y":2538453.5479799975}},{"attributes":{"ID":259415,"DIS_CODE":0,"TOWNNAME":"仁德區","LI":"上崙里","LIN":"1鄰","STREET":"德崙路","SECT":" ","MAREA":" ","LANE":"７７巷","ALLEY":" ","HOUSE_NO":"８６號三樓之１","E_COORD97":173571.47855999999,"N_COORD97":2538453.5479799998,"ADDRESS":"德崙路７７巷８６號三樓之１","OBJECTID":259411},"geometry":{"x":173571.47856000066,"y":2538453.5479799975}},{"attributes":{"ID":259416,"DIS_CODE":0,"TOWNNAME":"仁德區","LI":"上崙里","LIN":"1鄰","STREET":"德崙路","SECT":" ","MAREA":" ","LANE":"７７巷","ALLEY":" ","HOUSE_NO":"８６號五樓之３","E_COORD97":173571.47855999999,"N_COORD97":2538453.5479799998,"ADDRESS":"德崙路７７巷８６號五樓之３","OBJECTID":259412},"geometry":{"x":173571.47856000066,"y":2538453.5479799975}},{"attributes":{"ID":259417,"DIS_CODE":0,"TOWNNAME":"仁德區","LI":"上崙里","LIN":"1鄰","STREET":"德崙路","SECT":" ","MAREA":" ","LANE":"７７巷","ALLEY":" ","HOUSE_NO":"８６號五樓之４","E_COORD97":173571.47855999999,"N_COORD97":2538453.5479799998,"ADDRESS":"德崙路７７巷８６號五樓之４","OBJECTID":259413},"geometry":{"x":173571.47856000066,"y":2538453.5479799975}},{"attributes":{"ID":259418,"DIS_CODE":0,"TOWNNAME":"仁德區","LI":"上崙里","LIN":"1鄰","STREET":"德崙路","SECT":" ","MAREA":" ","LANE":"７７巷","ALLEY":" ","HOUSE_NO":"８６號五樓之５","E_COORD97":173571.47855999999,"N_COORD97":2538453.5479799998,"ADDRESS":"德崙路７７巷８６號五樓之５","OBJECTID":259414},"geometry":{"x":173571.47856000066,"y":2538453.5479799975}},{"attributes":{"ID":259419,"DIS_CODE":0,"TOWNNAME":"仁德區","LI":"上崙里","LIN":"1鄰","STREET":"德崙路","SECT":" ","MAREA":" ","LANE":"７７巷","ALLEY":" ","HOUSE_NO":"８６號五樓之６","E_COORD97":173571.47855999999,"N_COORD97":2538453.5479799998,"ADDRESS":"德崙路７７巷８６號五樓之６","OBJECTID":259415},"geometry":{"x":173571.47856000066,"y":2538453.5479799975}},{"attributes":{"ID":259420,"DIS_CODE":0,"TOWNNAME":"仁德區","LI":"上崙里","LIN":"1鄰","STREET":"德崙路","SECT":" ","MAREA":" ","LANE":"７７巷","ALLEY":" ","HOUSE_NO":"８８號一樓之１","E_COORD97":173564.48678499999,"N_COORD97":2538442.1179900002,"ADDRESS":"德崙路７７巷８８號一樓之１","OBJECTID":259416},"geometry":{"x":173564.48678500112,"y":2538442.1179939993}},{"attributes":{"ID":259421,"DIS_CODE":0,"TOWNNAME":"永康區","LI":"甲頂里","LIN":"22鄰","STREET":"中正南路","SECT":" ","MAREA":" ","LANE":" ","ALLEY":" ","HOUSE_NO":"３０號十一樓之３","E_COORD97":169670.69,"N_COORD97":2546655.7999999998,"ADDRESS":"中正南路３０號十一樓之３","OBJECTID":259417},"geometry":{"x":169670.69000000134,"y":2546655.8000000007}},{"attributes":{"ID":259422,"DIS_CODE":0,"TOWNNAME":"永康區","LI":"尚頂里","LIN":"22鄰","STREET":"大武街","SECT":" ","MAREA":" ","LANE":" ","ALLEY":" ","HOUSE_NO":"６２號十四樓之２","E_COORD97":170391.54999999999,"N_COORD97":2546803.54,"ADDRESS":"大武街６２號十四樓之２","OBJECTID":259418},"geometry":{"x":170391.55000000075,"y":2546803.540000001}},{"attributes":{"ID":259423,"DIS_CODE":0,"TOWNNAME":"安南區","LI":"顯宮里","LIN":"7鄰","STREET":"媽祖宮二街","SECT":" ","MAREA":" ","LANE":"１５２巷","ALLEY":" ","HOUSE_NO":"２０號","E_COORD97":160369.615601,"N_COORD97":2548853.9389999998,"ADDRESS":"媽祖宮二街１５２巷２０號","OBJECTID":259419},"geometry":{"x":160369.61560099944,"y":2548853.938995}},{"attributes":{"ID":259424,"DIS_CODE":0,"TOWNNAME":"新營區","LI":"新南里","LIN":"1鄰","STREET":"民治路","SECT":" ","MAREA":" ","LANE":"２３０巷","ALLEY":" ","HOUSE_NO":"２６號","E_COORD97":178753.65837399999,"N_COORD97":2578611.7963700001,"ADDRESS":"民治路２３０巷２６號","OBJECTID":259420},"geometry":{"x":178753.65837400034,"y":2578611.7963679973}},{"attributes":{"ID":259425,"DIS_CODE":0,"TOWNNAME":"永康區","LI":"甲頂里","LIN":"22鄰","STREET":"中正南路","SECT":" ","MAREA":" ","LANE":" ","ALLEY":" ","HOUSE_NO":"３０號三樓之１","E_COORD97":169669.34,"N_COORD97":2546655.7999999998,"ADDRESS":"中正南路３０號三樓之１","OBJECTID":259421},"geometry":{"x":169669.34000000078,"y":2546655.8000000007}},{"attributes":{"ID":259426,"DIS_CODE":0,"TOWNNAME":"永康區","LI":"尚頂里","LIN":"22鄰","STREET":"大武街","SECT":" ","MAREA":" ","LANE":" ","ALLEY":" ","HOUSE_NO":"６２號三樓之１","E_COORD97":170390.16,"N_COORD97":2546803.54,"ADDRESS":"大武街６２號三樓之１","OBJECTID":259422},"geometry":{"x":170390.16000000015,"y":2546803.540000001}},{"attributes":{"ID":259427,"DIS_CODE":0,"TOWNNAME":"永康區","LI":"尚頂里","LIN":"22鄰","STREET":"大武街","SECT":" ","MAREA":" ","LANE":" ","ALLEY":" ","HOUSE_NO":"７２號八樓之１","E_COORD97":170398.47,"N_COORD97":2546807.29,"ADDRESS":"大武街７２號八樓之１","OBJECTID":259423},"geometry":{"x":170398.47000000067,"y":2546807.2899999991}},{"attributes":{"ID":259428,"DIS_CODE":0,"TOWNNAME":"永康區","LI":"尚頂里","LIN":"22鄰","STREET":"大武街","SECT":" ","MAREA":" ","LANE":" ","ALLEY":" ","HOUSE_NO":"６２號十六樓之１","E_COORD97":170391.41,"N_COORD97":2546803.54,"ADDRESS":"大武街６２號十六樓之１","OBJECTID":259424},"geometry":{"x":170391.41000000108,"y":2546803.540000001}},{"attributes":{"ID":259429,"DIS_CODE":0,"TOWNNAME":"安南區","LI":"顯宮里","LIN":"7鄰","STREET":"媽祖宮二街","SECT":" ","MAREA":" ","LANE":"１５２巷","ALLEY":" ","HOUSE_NO":"１１號","E_COORD97":160373.63990499999,"N_COORD97":2548832.1373399999,"ADDRESS":"媽祖宮二街１５２巷１１號","OBJECTID":259425},"geometry":{"x":160373.63990500011,"y":2548832.1373400018}},{"attributes":{"ID":259430,"DIS_CODE":0,"TOWNNAME":"新營區","LI":"新南里","LIN":"1鄰","STREET":"民治路","SECT":" ","MAREA":" ","LANE":"２３０巷","ALLEY":" ","HOUSE_NO":"２８號","E_COORD97":178749.84449399999,"N_COORD97":2578616.0296999998,"ADDRESS":"民治路２３０巷２８號","OBJECTID":259426},"geometry":{"x":178749.84449400101,"y":2578616.0296989996}},{"attributes":{"ID":259431,"DIS_CODE":0,"TOWNNAME":"新營區","LI":"新南里","LIN":"1鄰","STREET":"民治路","SECT":" ","MAREA":" ","LANE":"２３０巷","ALLEY":" ","HOUSE_NO":"３２號","E_COORD97":178747.30190799999,"N_COORD97":2578618.1463600001,"ADDRESS":"民治路２３０巷３２號","OBJECTID":259427},"geometry":{"x":178747.30190800037,"y":2578618.1463650018}},{"attributes":{"ID":259432,"DIS_CODE":0,"TOWNNAME":"新營區","LI":"新南里","LIN":"1鄰","STREET":"民治路","SECT":" ","MAREA":" ","LANE":"２３０巷","ALLEY":" ","HOUSE_NO":"３４號","E_COORD97":178745.39496800001,"N_COORD97":2578619.8396999999,"ADDRESS":"民治路２３０巷３４號","OBJECTID":259428},"geometry":{"x":178745.39496800117,"y":2578619.8396969996}},{"attributes":{"ID":259433,"DIS_CODE":0,"TOWNNAME":"仁德區","LI":"太子里","LIN":"28鄰","STREET":"太子五街","SECT":" ","MAREA":" ","LANE":"２２巷","ALLEY":" ","HOUSE_NO":"２號","E_COORD97":173047.62826900001,"N_COORD97":2543216.0700400001,"ADDRESS":"太子五街２２巷２號","OBJECTID":259429},"geometry":{"x":173047.62826900184,"y":2543216.0700380001}},{"attributes":{"ID":259434,"DIS_CODE":0,"TOWNNAME":"仁德區","LI":"太子里","LIN":"28鄰","STREET":"太子五街","SECT":" ","MAREA":" ","LANE":"２２巷","ALLEY":" ","HOUSE_NO":"６號","E_COORD97":173011.7065,"N_COORD97":2543224.7880799999,"ADDRESS":"太子五街２２巷６號","OBJECTID":259430},"geometry":{"x":173011.70650000125,"y":2543224.7880800012}},{"attributes":{"ID":259435,"DIS_CODE":0,"TOWNNAME":"仁德區","LI":"太子里","LIN":"28鄰","STREET":"太子五街","SECT":" ","MAREA":" ","LANE":"２２巷","ALLEY":" ","HOUSE_NO":"５號","E_COORD97":172995.9559,"N_COORD97":2543198.1842100001,"ADDRESS":"太子五街２２巷５號","OBJECTID":259431},"geometry":{"x":172995.95590000041,"y":2543198.1842100024}},{"attributes":{"ID":259436,"DIS_CODE":0,"TOWNNAME":"歸仁區","LI":"大廟里","LIN":"3鄰","STREET":"保大路","SECT":"三段","MAREA":" ","LANE":"５５巷","ALLEY":" ","HOUSE_NO":"５８號","E_COORD97":176412.55358000001,"N_COORD97":2543944.0504700001,"ADDRESS":"保大路三段５５巷５８號","OBJECTID":259432},"geometry":{"x":176412.55358000007,"y":2543944.0504689999}},{"attributes":{"ID":259437,"DIS_CODE":0,"TOWNNAME":"歸仁區","LI":"看西里","LIN":"3鄰","STREET":"仁愛南街","SECT":" ","MAREA":" ","LANE":"１１７巷","ALLEY":" ","HOUSE_NO":"１６號","E_COORD97":178332.42582800001,"N_COORD97":2540354.76266,"ADDRESS":"仁愛南街１１７巷１６號","OBJECTID":259433},"geometry":{"x":178332.42582800146,"y":2540354.762662001}},{"attributes":{"ID":259438,"DIS_CODE":0,"TOWNNAME":"仁德區","LI":"仁德里","LIN":"4鄰","STREET":"中正路","SECT":"二段","MAREA":" ","LANE":"８６７巷","ALLEY":" ","HOUSE_NO":"２號","E_COORD97":173407.84015500001,"N_COORD97":2540578.7789599998,"ADDRESS":"中正路二段８６７巷２號","OBJECTID":259434},"geometry":{"x":173407.84015499987,"y":2540578.7789620012}},{"attributes":{"ID":259439,"DIS_CODE":0,"TOWNNAME":"仁德區","LI":"仁德里","LIN":"1鄰","STREET":"中正路","SECT":"二段","MAREA":" ","LANE":"６７９巷","ALLEY":" ","HOUSE_NO":"２號","E_COORD97":173398.46484999999,"N_COORD97":2540075.0298100002,"ADDRESS":"中正路二段６７９巷２號","OBJECTID":259435},"geometry":{"x":173398.46485000104,"y":2540075.0298100021}},{"attributes":{"ID":259440,"DIS_CODE":0,"TOWNNAME":"歸仁區","LI":"看西里","LIN":"3鄰","STREET":"仁愛南街","SECT":" ","MAREA":" ","LANE":"１１７巷","ALLEY":" ","HOUSE_NO":"２０號","E_COORD97":178341.43019399999,"N_COORD97":2540354.9743300001,"ADDRESS":"仁愛南街１１７巷２０號","OBJECTID":259436},"geometry":{"x":178341.43019399978,"y":2540354.9743290022}},{"attributes":{"ID":259441,"DIS_CODE":0,"TOWNNAME":"歸仁區","LI":"看西里","LIN":"3鄰","STREET":"仁愛南街","SECT":" ","MAREA":" ","LANE":"１１７巷","ALLEY":" ","HOUSE_NO":"２６號","E_COORD97":178350.43455899999,"N_COORD97":2540355.3447400001,"ADDRESS":"仁愛南街１１７巷２６號","OBJECTID":259437},"geometry":{"x":178350.43455900066,"y":2540355.344744999}},{"attributes":{"ID":259442,"DIS_CODE":0,"TOWNNAME":"仁德區","LI":"仁德里","LIN":"2鄰","STREET":"中正路","SECT":"二段","MAREA":" ","LANE":"６７９巷","ALLEY":" ","HOUSE_NO":"１１９號","E_COORD97":173319.93504000001,"N_COORD97":2540165.7162799998,"ADDRESS":"中正路二段６７９巷１１９號","OBJECTID":259438},"geometry":{"x":173319.93504000176,"y":2540165.7162800003}},{"attributes":{"ID":259443,"DIS_CODE":0,"TOWNNAME":"永康區","LI":"甲頂里","LIN":"22鄰","STREET":"中正南路","SECT":" ","MAREA":" ","LANE":" ","ALLEY":" ","HOUSE_NO":"３０號九樓之２","E_COORD97":169669.47,"N_COORD97":2546655.7999999998,"ADDRESS":"中正南路３０號九樓之２","OBJECTID":259439},"geometry":{"x":169669.4700000016,"y":2546655.8000000007}},{"attributes":{"ID":259444,"DIS_CODE":0,"TOWNNAME":"安南區","LI":"海東里","LIN":"22鄰","STREET":"同安路","SECT":" ","MAREA":" ","LANE":" ","ALLEY":" ","HOUSE_NO":"１號四樓","E_COORD97":166795.54999999999,"N_COORD97":2548847.9300000002,"ADDRESS":"同安路１號四樓","OBJECTID":259440},"geometry":{"x":166795.55000000168,"y":2548847.9299999997}},{"attributes":{"ID":259445,"DIS_CODE":0,"TOWNNAME":"歸仁區","LI":"看西里","LIN":"2鄰","STREET":"仁愛南街","SECT":" ","MAREA":" ","LANE":"１１７巷","ALLEY":" ","HOUSE_NO":"２８號","E_COORD97":178354.93674199999,"N_COORD97":2540355.4505799999,"ADDRESS":"仁愛南街１１７巷２８號","OBJECTID":259441},"geometry":{"x":178354.93674200028,"y":2540355.4505780041}},{"attributes":{"ID":259446,"DIS_CODE":0,"TOWNNAME":"歸仁區","LI":"看西里","LIN":"2鄰","STREET":"仁愛南街","SECT":" ","MAREA":" ","LANE":"１１７巷","ALLEY":" ","HOUSE_NO":"３０號","E_COORD97":178359.12112299999,"N_COORD97":2540355.66224,"ADDRESS":"仁愛南街１１７巷３０號","OBJECTID":259442},"geometry":{"x":178359.12112300191,"y":2540355.6622449998}},{"attributes":{"ID":259447,"DIS_CODE":0,"TOWNNAME":"歸仁區","LI":"看西里","LIN":"2鄰","STREET":"仁愛南街","SECT":" ","MAREA":" ","LANE":"１１７巷","ALLEY":" ","HOUSE_NO":"３２號","E_COORD97":178363.35847199999,"N_COORD97":2540355.7151600001,"ADDRESS":"仁愛南街１１７巷３２號","OBJECTID":259443},"geometry":{"x":178363.35847200081,"y":2540355.7151620034}},{"attributes":{"ID":259448,"DIS_CODE":0,"TOWNNAME":"東區","LI":"崇成里","LIN":"18鄰","STREET":"崇德路","SECT":" ","MAREA":" ","LANE":" ","ALLEY":" ","HOUSE_NO":"６１６號","E_COORD97":170775.64999999999,"N_COORD97":2541253.3900000001,"ADDRESS":"崇德路６１６號","OBJECTID":259444},"geometry":{"x":170775.65000000037,"y":2541253.3900000025}},{"attributes":{"ID":259449,"DIS_CODE":0,"TOWNNAME":"歸仁區","LI":"看西里","LIN":"2鄰","STREET":"仁愛南街","SECT":" ","MAREA":" ","LANE":"１１７巷","ALLEY":" ","HOUSE_NO":"３６號","E_COORD97":178367.489886,"N_COORD97":2540355.7680799998,"ADDRESS":"仁愛南街１１７巷３６號","OBJECTID":259445},"geometry":{"x":178367.48988600075,"y":2540355.7680780012}},{"attributes":{"ID":259450,"DIS_CODE":0,"TOWNNAME":"安南區","LI":"顯宮里","LIN":"1鄰","STREET":"媽祖宮路","SECT":" ","MAREA":" ","LANE":"１５９巷","ALLEY":" ","HOUSE_NO":"５號","E_COORD97":160518.98000000001,"N_COORD97":2548760.1299999999,"ADDRESS":"媽祖宮路１５９巷５號","OBJECTID":259446},"geometry":{"x":160518.98000000045,"y":2548760.1300000008}},{"attributes":{"ID":259451,"DIS_CODE":0,"TOWNNAME":"安南區","LI":"顯宮里","LIN":"1鄰","STREET":"媽祖宮路","SECT":" ","MAREA":" ","LANE":"１５９巷","ALLEY":" ","HOUSE_NO":"７號","E_COORD97":160530.48000000001,"N_COORD97":2548762.2200000002,"ADDRESS":"媽祖宮路１５９巷７號","OBJECTID":259447},"geometry":{"x":160530.48000000045,"y":2548762.2200000007}},{"attributes":{"ID":259452,"DIS_CODE":0,"TOWNNAME":"歸仁區","LI":"看西里","LIN":"2鄰","STREET":"仁愛南街","SECT":" ","MAREA":" ","LANE":"１１７巷","ALLEY":" ","HOUSE_NO":"３８號","E_COORD97":178371.992069,"N_COORD97":2540355.821,"ADDRESS":"仁愛南街１１７巷３８號","OBJECTID":259448},"geometry":{"x":178371.99206900038,"y":2540355.8209949993}},{"attributes":{"ID":259453,"DIS_CODE":0,"TOWNNAME":"歸仁區","LI":"看西里","LIN":"2鄰","STREET":"仁愛南街","SECT":" ","MAREA":" ","LANE":"１１７巷","ALLEY":" ","HOUSE_NO":"３８之１號","E_COORD97":178376.12348400001,"N_COORD97":2540355.9268299998,"ADDRESS":"仁愛南街１１７巷３８之１號","OBJECTID":259449},"geometry":{"x":178376.12348399963,"y":2540355.9268280007}},{"attributes":{"ID":259454,"DIS_CODE":0,"TOWNNAME":"歸仁區","LI":"看西里","LIN":"2鄰","STREET":"仁愛南街","SECT":" ","MAREA":" ","LANE":"１１７巷","ALLEY":" ","HOUSE_NO":"３８之２號","E_COORD97":178380.25489800001,"N_COORD97":2540356.03266,"ADDRESS":"仁愛南街１１７巷３８之２號","OBJECTID":259450},"geometry":{"x":178380.25489799958,"y":2540356.0326610003}},{"attributes":{"ID":259455,"DIS_CODE":0,"TOWNNAME":"歸仁區","LI":"看西里","LIN":"2鄰","STREET":"仁愛南街","SECT":" ","MAREA":" ","LANE":"１１７巷","ALLEY":" ","HOUSE_NO":"３８之３號","E_COORD97":178384.54521400001,"N_COORD97":2540356.1384999999,"ADDRESS":"仁愛南街１１７巷３８之３號","OBJECTID":259451},"geometry":{"x":178384.54521400016,"y":2540356.1384950019}},{"attributes":{"ID":259456,"DIS_CODE":0,"TOWNNAME":"歸仁區","LI":"看西里","LIN":"2鄰","STREET":"仁愛南街","SECT":" ","MAREA":" ","LANE":"１１７巷","ALLEY":" ","HOUSE_NO":"３８之５號","E_COORD97":178390.26563400001,"N_COORD97":2540356.2443300001,"ADDRESS":"仁愛南街１１７巷３８之５號","OBJECTID":259452},"geometry":{"x":178390.2656340003,"y":2540356.2443280015}},{"attributes":{"ID":259457,"DIS_CODE":0,"TOWNNAME":"新營區","LI":"王公里","LIN":"33鄰","STREET":"民族路","SECT":" ","MAREA":" ","LANE":"３０８巷","ALLEY":" ","HOUSE_NO":"３１號","E_COORD97":180483.59881900001,"N_COORD97":2579765.34981,"ADDRESS":"民族路３０８巷３１號","OBJECTID":259453},"geometry":{"x":180483.59881900065,"y":2579765.349812001}},{"attributes":{"ID":259458,"DIS_CODE":0,"TOWNNAME":"歸仁區","LI":"看西里","LIN":"2鄰","STREET":"仁愛南街","SECT":" ","MAREA":" ","LANE":"１１７巷","ALLEY":" ","HOUSE_NO":"３１號","E_COORD97":178376.01754999999,"N_COORD97":2540364.6051599998,"ADDRESS":"仁愛南街１１７巷３１號","OBJECTID":259454},"geometry":{"x":178376.01755000185,"y":2540364.6051570009}},{"attributes":{"ID":259459,"DIS_CODE":0,"TOWNNAME":"新營區","LI":"王公里","LIN":"33鄰","STREET":"民族路","SECT":" ","MAREA":" ","LANE":"３０８巷","ALLEY":" ","HOUSE_NO":"３３號","E_COORD97":180488.89587400001,"N_COORD97":2579765.9848099998,"ADDRESS":"民族路３０８巷３３號","OBJECTID":259455},"geometry":{"x":180488.89587400015,"y":2579765.9848110005}},{"attributes":{"ID":259460,"DIS_CODE":0,"TOWNNAME":"新營區","LI":"大宏里","LIN":"11鄰","STREET":"三民路","SECT":" ","MAREA":" ","LANE":"８巷","ALLEY":" ","HOUSE_NO":"４１號之８","E_COORD97":180571.23999999999,"N_COORD97":2578596.6600000001,"ADDRESS":"三民路８巷４１號之８","OBJECTID":259456},"geometry":{"x":180571.24000000022,"y":2578596.660000002}},{"attributes":{"ID":259461,"DIS_CODE":0,"TOWNNAME":"歸仁區","LI":"看西里","LIN":"2鄰","STREET":"仁愛南街","SECT":" ","MAREA":" ","LANE":"１１７巷","ALLEY":" ","HOUSE_NO":"３７號","E_COORD97":178389.94783300001,"N_COORD97":2540365.1078699999,"ADDRESS":"仁愛南街１１７巷３７號","OBJECTID":259457},"geometry":{"x":178389.94783300161,"y":2540365.1078650001}},{"attributes":{"ID":259462,"DIS_CODE":0,"TOWNNAME":"歸仁區","LI":"看西里","LIN":"3鄰","STREET":"仁愛南街","SECT":" ","MAREA":" ","LANE":"１１７巷","ALLEY":" ","HOUSE_NO":"２號","E_COORD97":178310.179749,"N_COORD97":2540354.0482899998,"ADDRESS":"仁愛南街１１７巷２號","OBJECTID":259458},"geometry":{"x":178310.17974900082,"y":2540354.0482880007}},{"attributes":{"ID":259463,"DIS_CODE":0,"TOWNNAME":"安南區","LI":"四草里","LIN":"4鄰","STREET":"大眾路","SECT":" ","MAREA":" ","LANE":"７８０巷","ALLEY":" ","HOUSE_NO":"２２號","E_COORD97":160359.79349700001,"N_COORD97":2546156.6779499999,"ADDRESS":"大眾路７８０巷２２號","OBJECTID":259459},"geometry":{"x":160359.79349699989,"y":2546156.6779459994}},{"attributes":{"ID":259464,"DIS_CODE":0,"TOWNNAME":"歸仁區","LI":"看西里","LIN":"3鄰","STREET":"仁愛南街","SECT":" ","MAREA":" ","LANE":"１１７巷","ALLEY":" ","HOUSE_NO":"１２號","E_COORD97":178327.87067900001,"N_COORD97":2540354.6832900001,"ADDRESS":"仁愛南街１１７巷１２號","OBJECTID":259460},"geometry":{"x":178327.87067899946,"y":2540354.6832870021}},{"attributes":{"ID":259465,"DIS_CODE":0,"TOWNNAME":"安南區","LI":"四草里","LIN":"4鄰","STREET":"大眾路","SECT":" ","MAREA":" ","LANE":"７８０巷","ALLEY":" ","HOUSE_NO":"２８號","E_COORD97":160341.79694999999,"N_COORD97":2546178.9029299999,"ADDRESS":"大眾路７８０巷２８號","OBJECTID":259461},"geometry":{"x":160341.79695000127,"y":2546178.9029340018}},{"attributes":{"ID":259466,"DIS_CODE":0,"TOWNNAME":"歸仁區","LI":"大廟里","LIN":"3鄰","STREET":"保大路","SECT":"三段","MAREA":" ","LANE":"５５巷","ALLEY":" ","HOUSE_NO":"５１號","E_COORD97":176442.52658000001,"N_COORD97":2543966.4082399998,"ADDRESS":"保大路三段５５巷５１號","OBJECTID":259462},"geometry":{"x":176442.5265800003,"y":2543966.4082439989}},{"attributes":{"ID":259467,"DIS_CODE":0,"TOWNNAME":"歸仁區","LI":"大廟里","LIN":"3鄰","STREET":"保大路","SECT":"三段","MAREA":" ","LANE":"５５巷","ALLEY":" ","HOUSE_NO":"５３號","E_COORD97":176445.27971800001,"N_COORD97":2543955.4015799998,"ADDRESS":"保大路三段５５巷５３號","OBJECTID":259463},"geometry":{"x":176445.27971800044,"y":2543955.4015830029}},{"attributes":{"ID":259468,"DIS_CODE":0,"TOWNNAME":"新營區","LI":"王公里","LIN":"1","STREET":"民治路","SECT":" ","MAREA":" ","LANE":"２６巷","ALLEY":" ","HOUSE_NO":"１號之２","E_COORD97":180192.92000000001,"N_COORD97":2578908.52,"ADDRESS":"民治路２６巷１號之２","OBJECTID":259464},"geometry":{"x":180192.91999999993,"y":2578908.5200000014}},{"attributes":{"ID":259469,"DIS_CODE":0,"TOWNNAME":"新營區","LI":"大宏里","LIN":"12鄰","STREET":"開元路","SECT":" ","MAREA":" ","LANE":"５９巷","ALLEY":" ","HOUSE_NO":"８號之３","E_COORD97":180859.34,"N_COORD97":2578793.5499999998,"ADDRESS":"開元路５９巷８號之３","OBJECTID":259465},"geometry":{"x":180859.34000000078,"y":2578793.5500000026}},{"attributes":{"ID":259470,"DIS_CODE":0,"TOWNNAME":"新營區","LI":"大宏里","LIN":"11鄰","STREET":"三民路","SECT":" ","MAREA":" ","LANE":"８巷","ALLEY":" ","HOUSE_NO":"１３號之４","E_COORD97":180543.41,"N_COORD97":2578569.1099999999,"ADDRESS":"三民路８巷１３號之４","OBJECTID":259466},"geometry":{"x":180543.41000000108,"y":2578569.1100000013}},{"attributes":{"ID":259471,"DIS_CODE":0,"TOWNNAME":"歸仁區","LI":"七甲里","LIN":"9鄰","STREET":"七甲一街","SECT":" ","MAREA":" ","LANE":"９８巷","ALLEY":" ","HOUSE_NO":"１１號","E_COORD97":177683.70462500001,"N_COORD97":2542549.1348700002,"ADDRESS":"七甲一街９８巷１１號","OBJECTID":259467},"geometry":{"x":177683.70462500211,"y":2542549.1348690018}},{"attributes":{"ID":259472,"DIS_CODE":0,"TOWNNAME":"歸仁區","LI":"七甲里","LIN":"9鄰","STREET":"七甲一街","SECT":" ","MAREA":" ","LANE":"９８巷","ALLEY":" ","HOUSE_NO":"１２號","E_COORD97":177677.98110999999,"N_COORD97":2542521.8613900002,"ADDRESS":"七甲一街９８巷１２號","OBJECTID":259468},"geometry":{"x":177677.98111000098,"y":2542521.8613900002}},{"attributes":{"ID":259473,"DIS_CODE":0,"TOWNNAME":"歸仁區","LI":"新厝里","LIN":"27鄰","STREET":"中正五街","SECT":" ","MAREA":" ","LANE":"３７巷","ALLEY":" ","HOUSE_NO":"１號","E_COORD97":177038.55573600001,"N_COORD97":2540055.1314599998,"ADDRESS":"中正五街３７巷１號","OBJECTID":259469},"geometry":{"x":177038.55573599879,"y":2540055.1314580012}},{"attributes":{"ID":259474,"DIS_CODE":0,"TOWNNAME":"歸仁區","LI":"新厝里","LIN":"27鄰","STREET":"中正五街","SECT":" ","MAREA":" ","LANE":"３７巷","ALLEY":" ","HOUSE_NO":"７號","E_COORD97":177029.50750099999,"N_COORD97":2540066.5146699999,"ADDRESS":"中正五街３７巷７號","OBJECTID":259470},"geometry":{"x":177029.50750100147,"y":2540066.5146650001}},{"attributes":{"ID":259475,"DIS_CODE":0,"TOWNNAME":"歸仁區","LI":"新厝里","LIN":"27鄰","STREET":"中正五街","SECT":" ","MAREA":" ","LANE":"３７巷","ALLEY":" ","HOUSE_NO":"１３號","E_COORD97":177022.134865,"N_COORD97":2540077.89787,"ADDRESS":"中正五街３７巷１３號","OBJECTID":259471},"geometry":{"x":177022.13486500084,"y":2540077.8978720009}},{"attributes":{"ID":259476,"DIS_CODE":0,"TOWNNAME":"歸仁區","LI":"新厝里","LIN":"27鄰","STREET":"中正五街","SECT":" ","MAREA":" ","LANE":"３７巷","ALLEY":" ","HOUSE_NO":"１５號","E_COORD97":177018.44854700001,"N_COORD97":2540081.2458799998,"ADDRESS":"中正五街３７巷１５號","OBJECTID":259472},"geometry":{"x":177018.44854700007,"y":2540081.2458750028}},{"attributes":{"ID":259477,"DIS_CODE":0,"TOWNNAME":"歸仁區","LI":"大廟里","LIN":"3鄰","STREET":"保大路","SECT":"三段","MAREA":" ","LANE":"５５巷","ALLEY":" ","HOUSE_NO":"１３號","E_COORD97":176376.23949599999,"N_COORD97":2544037.9515399998,"ADDRESS":"保大路三段５５巷１３號","OBJECTID":259473},"geometry":{"x":176376.23949600011,"y":2544037.9515380021}},{"attributes":{"ID":259478,"DIS_CODE":0,"TOWNNAME":"歸仁區","LI":"新厝里","LIN":"27鄰","STREET":"中正五街","SECT":" ","MAREA":" ","LANE":"３７巷","ALLEY":" ","HOUSE_NO":"２號","E_COORD97":177053.97124799999,"N_COORD97":2540063.5014599999,"ADDRESS":"中正五街３７巷２號","OBJECTID":259474},"geometry":{"x":177053.97124799993,"y":2540063.5014629997}},{"attributes":{"ID":259479,"DIS_CODE":0,"TOWNNAME":"歸仁區","LI":"看東里","LIN":"9鄰","STREET":"成功路","SECT":"一段","MAREA":" ","LANE":"１０１巷","ALLEY":" ","HOUSE_NO":"８７號","E_COORD97":178732.799554,"N_COORD97":2539952.3729300001,"ADDRESS":"成功路一段１０１巷８７號","OBJECTID":259475},"geometry":{"x":178732.79955400061,"y":2539952.3729350008}},{"attributes":{"ID":259480,"DIS_CODE":0,"TOWNNAME":"歸仁區","LI":"新厝里","LIN":"10鄰","STREET":"中正三街","SECT":" ","MAREA":" ","LANE":"４６巷","ALLEY":" ","HOUSE_NO":"３１號","E_COORD97":177706.201753,"N_COORD97":2540485.2906399998,"ADDRESS":"中正三街４６巷３１號","OBJECTID":259476},"geometry":{"x":177706.2017529998,"y":2540485.2906390019}},{"attributes":{"ID":259481,"DIS_CODE":0,"TOWNNAME":"歸仁區","LI":"大廟里","LIN":"3鄰","STREET":"保大路","SECT":"三段","MAREA":" ","LANE":"５５巷","ALLEY":" ","HOUSE_NO":"１８號","E_COORD97":176366.07406499999,"N_COORD97":2544026.5215400001,"ADDRESS":"保大路三段５５巷１８號","OBJECTID":259477},"geometry":{"x":176366.07406500075,"y":2544026.5215440001}},{"attributes":{"ID":259482,"DIS_CODE":0,"TOWNNAME":"歸仁區","LI":"大廟里","LIN":"3鄰","STREET":"保大路","SECT":"三段","MAREA":" ","LANE":"５５巷","ALLEY":" ","HOUSE_NO":"１２號","E_COORD97":176351.46125699999,"N_COORD97":2544042.3965400001,"ADDRESS":"保大路三段５５巷１２號","OBJECTID":259478},"geometry":{"x":176351.46125699952,"y":2544042.3965360019}},{"attributes":{"ID":259483,"DIS_CODE":0,"TOWNNAME":"歸仁區","LI":"新厝里","LIN":"27鄰","STREET":"中正五街","SECT":" ","MAREA":" ","LANE":"３７巷","ALLEY":" ","HOUSE_NO":"６號","E_COORD97":177051.62541000001,"N_COORD97":2540069.19307,"ADDRESS":"中正五街３７巷６號","OBJECTID":259479},"geometry":{"x":177051.62541000079,"y":2540069.193067003}},{"attributes":{"ID":259484,"DIS_CODE":0,"TOWNNAME":"歸仁區","LI":"媽廟里","LIN":"25鄰","STREET":"保大路","SECT":"一段","MAREA":" ","LANE":"１１７巷","ALLEY":" ","HOUSE_NO":"３９號","E_COORD97":177836.53462600001,"N_COORD97":2543974.1117099999,"ADDRESS":"保大路一段１１７巷３９號","OBJECTID":259480},"geometry":{"x":177836.53462599963,"y":2543974.1117129996}},{"attributes":{"ID":259485,"DIS_CODE":0,"TOWNNAME":"永康區","LI":"甲頂里","LIN":"22鄰","STREET":"中正南路","SECT":" ","MAREA":" ","LANE":" ","ALLEY":" ","HOUSE_NO":"３０號十四樓之５","E_COORD97":169670.73999999999,"N_COORD97":2546655.7999999998,"ADDRESS":"中正南路３０號十四樓之５","OBJECTID":259481},"geometry":{"x":169670.74000000022,"y":2546655.8000000007}},{"attributes":{"ID":259486,"DIS_CODE":0,"TOWNNAME":"安南區","LI":"海東里","LIN":"22鄰","STREET":"同安路","SECT":" ","MAREA":" ","LANE":"８３巷","ALLEY":" ","HOUSE_NO":"３０號","E_COORD97":166887.18645099999,"N_COORD97":2548997.9833499999,"ADDRESS":"同安路８３巷３０號","OBJECTID":259482},"geometry":{"x":166887.18645100109,"y":2548997.9833460022}},{"attributes":{"ID":259487,"DIS_CODE":0,"TOWNNAME":"歸仁區","LI":"看東里","LIN":"8鄰","STREET":"成功路","SECT":"一段","MAREA":" ","LANE":"１０１巷","ALLEY":" ","HOUSE_NO":"７８號","E_COORD97":178682.78675699999,"N_COORD97":2540063.7095400002,"ADDRESS":"成功路一段１０１巷７８號","OBJECTID":259483},"geometry":{"x":178682.78675700072,"y":2540063.7095420007}},{"attributes":{"ID":259488,"DIS_CODE":0,"TOWNNAME":"歸仁區","LI":"新厝里","LIN":"27鄰","STREET":"中正五街","SECT":" ","MAREA":" ","LANE":"３７巷","ALLEY":" ","HOUSE_NO":"１０號","E_COORD97":177044.25277299999,"N_COORD97":2540075.88907,"ADDRESS":"中正五街３７巷１０號","OBJECTID":259484},"geometry":{"x":177044.25277300086,"y":2540075.8890710007}},{"attributes":{"ID":259489,"DIS_CODE":0,"TOWNNAME":"歸仁區","LI":"新厝里","LIN":"27鄰","STREET":"中正五街","SECT":" ","MAREA":" ","LANE":"３７巷","ALLEY":" ","HOUSE_NO":"１２號","E_COORD97":177044.58789299999,"N_COORD97":2540080.9110699999,"ADDRESS":"中正五街３７巷１２號","OBJECTID":259485},"geometry":{"x":177044.58789300174,"y":2540080.9110740013}},{"attributes":{"ID":259490,"DIS_CODE":0,"TOWNNAME":"歸仁區","LI":"新厝里","LIN":"27鄰","STREET":"中正五街","SECT":" ","MAREA":" ","LANE":"３７巷","ALLEY":" ","HOUSE_NO":"１４號","E_COORD97":177040.56645499999,"N_COORD97":2540083.5894800001,"ADDRESS":"中正五街３７巷１４號","OBJECTID":259486},"geometry":{"x":177040.56645500008,"y":2540083.5894760005}},{"attributes":{"ID":259491,"DIS_CODE":0,"TOWNNAME":"歸仁區","LI":"新厝里","LIN":"27鄰","STREET":"中正五街","SECT":" ","MAREA":" ","LANE":"３７巷","ALLEY":" ","HOUSE_NO":"１６號","E_COORD97":177037.215257,"N_COORD97":2540088.2766800001,"ADDRESS":"中正五街３７巷１６號","OBJECTID":259487},"geometry":{"x":177037.21525700111,"y":2540088.2766789999}},{"attributes":{"ID":259492,"DIS_CODE":0,"TOWNNAME":"新營區","LI":"嘉芳里","LIN":"1鄰","STREET":"復興路","SECT":" ","MAREA":" ","LANE":"７００巷","ALLEY":" ","HOUSE_NO":"８３之１號","E_COORD97":177262.85126699999,"N_COORD97":2578982.4578100001,"ADDRESS":"復興路７００巷８３之１號","OBJECTID":259488},"geometry":{"x":177262.85126700066,"y":2578982.4578060042}},{"attributes":{"ID":259493,"DIS_CODE":0,"TOWNNAME":"後壁區","LI":"後壁里","LIN":"6鄰","STREET":" ","SECT":" ","MAREA":"後壁","LANE":" ","ALLEY":" ","HOUSE_NO":"１２９號","E_COORD97":184772.14000000001,"N_COORD97":2584963.77,"ADDRESS":"後壁１２９號","OBJECTID":259489},"geometry":{"x":184772.13999999966,"y":2584963.7699999996}},{"attributes":{"ID":259494,"DIS_CODE":0,"TOWNNAME":"歸仁區","LI":"新厝里","LIN":"27鄰","STREET":"中正五街","SECT":" ","MAREA":" ","LANE":"３９巷","ALLEY":" ","HOUSE_NO":"１號","E_COORD97":177069.72188,"N_COORD97":2540070.5322699999,"ADDRESS":"中正五街３９巷１號","OBJECTID":259490},"geometry":{"x":177069.72188000102,"y":2540070.5322680026}},{"attributes":{"ID":259495,"DIS_CODE":0,"TOWNNAME":"歸仁區","LI":"新厝里","LIN":"27鄰","STREET":"中正五街","SECT":" ","MAREA":" ","LANE":"３９巷","ALLEY":" ","HOUSE_NO":"３號","E_COORD97":177066.37068200001,"N_COORD97":2540073.8802700001,"ADDRESS":"中正五街３９巷３號","OBJECTID":259491},"geometry":{"x":177066.37068200018,"y":2540073.8802700024}},{"attributes":{"ID":259496,"DIS_CODE":0,"TOWNNAME":"歸仁區","LI":"新厝里","LIN":"27鄰","STREET":"中正五街","SECT":" ","MAREA":" ","LANE":"３９巷","ALLEY":" ","HOUSE_NO":"５號","E_COORD97":177065.700442,"N_COORD97":2540078.5674700001,"ADDRESS":"中正五街３９巷５號","OBJECTID":259492},"geometry":{"x":177065.70044200215,"y":2540078.5674729981}},{"attributes":{"ID":259497,"DIS_CODE":0,"TOWNNAME":"東區","LI":"東明里","LIN":"1鄰","STREET":"東興路","SECT":" ","MAREA":" ","LANE":" ","ALLEY":" ","HOUSE_NO":"２３號","E_COORD97":170905.26999999999,"N_COORD97":2543453.75,"ADDRESS":"東興路２３號","OBJECTID":259493},"geometry":{"x":170905.27000000048,"y":2543453.7500000019}},{"attributes":{"ID":259498,"DIS_CODE":0,"TOWNNAME":"歸仁區","LI":"新厝里","LIN":"27鄰","STREET":"中正五街","SECT":" ","MAREA":" ","LANE":"３９巷","ALLEY":" ","HOUSE_NO":"７號","E_COORD97":177061.34388500001,"N_COORD97":2540080.5762700001,"ADDRESS":"中正五街３９巷７號","OBJECTID":259494},"geometry":{"x":177061.34388500173,"y":2540080.5762740001}},{"attributes":{"ID":259499,"DIS_CODE":0,"TOWNNAME":"永康區","LI":"尚頂里","LIN":"22鄰","STREET":"大武街","SECT":" ","MAREA":" ","LANE":" ","ALLEY":" ","HOUSE_NO":"６４號三樓之１","E_COORD97":170410.84,"N_COORD97":2546799.29,"ADDRESS":"大武街６４號三樓之１","OBJECTID":259495},"geometry":{"x":170410.83999999985,"y":2546799.290000001}},{"attributes":{"ID":259500,"DIS_CODE":0,"TOWNNAME":"永康區","LI":"復國里","LIN":"6鄰","STREET":"復華三街","SECT":" ","MAREA":" ","LANE":"７６巷","ALLEY":" ","HOUSE_NO":"８號","E_COORD97":172684.37,"N_COORD97":2545578.1800000002,"ADDRESS":"復華三街７６巷８號","OBJECTID":259496},"geometry":{"x":172684.37000000011,"y":2545578.1799999997}},{"attributes":{"ID":259501,"DIS_CODE":0,"TOWNNAME":"安南區","LI":"梅花里","LIN":"1鄰","STREET":"安中路","SECT":"一段","MAREA":" ","LANE":"６１９巷","ALLEY":" ","HOUSE_NO":"１２之１號","E_COORD97":167784.39012699999,"N_COORD97":2549078.0325500001,"ADDRESS":"安中路一段６１９巷１２之１號","OBJECTID":259497},"geometry":{"x":167784.3901270004,"y":2549078.0325530022}},{"attributes":{"ID":259502,"DIS_CODE":0,"TOWNNAME":"新營區","LI":"護鎮里","LIN":"1鄰","STREET":"中正路","SECT":" ","MAREA":" ","LANE":"４３９巷","ALLEY":" ","HOUSE_NO":"４１號","E_COORD97":179626.881692,"N_COORD97":2580279.62426,"ADDRESS":"中正路４３９巷４１號","OBJECTID":259498},"geometry":{"x":179626.88169199973,"y":2580279.6242610011}},{"attributes":{"ID":259503,"DIS_CODE":0,"TOWNNAME":"新營區","LI":"王公里","LIN":"27鄰","STREET":"民族路","SECT":" ","MAREA":" ","LANE":"３０８巷","ALLEY":" ","HOUSE_NO":"５６號","E_COORD97":180510.726402,"N_COORD97":2579734.2850600001,"ADDRESS":"民族路３０８巷５６號","OBJECTID":259499},"geometry":{"x":180510.72640199959,"y":2579734.2850610018}},{"attributes":{"ID":259504,"DIS_CODE":0,"TOWNNAME":"新營區","LI":"新東里","LIN":"27鄰","STREET":"東光街","SECT":" ","MAREA":" ","LANE":"４０巷","ALLEY":" ","HOUSE_NO":"７號","E_COORD97":180635.13599899999,"N_COORD97":2579587.4027200001,"ADDRESS":"東光街４０巷７號","OBJECTID":259500},"geometry":{"x":180635.13599900063,"y":2579587.4027250037}},{"attributes":{"ID":259505,"DIS_CODE":0,"TOWNNAME":"新營區","LI":"新東里","LIN":"27鄰","STREET":"東光街","SECT":" ","MAREA":" ","LANE":"４０巷","ALLEY":" ","HOUSE_NO":"９號","E_COORD97":180639.585525,"N_COORD97":2579587.4027200001,"ADDRESS":"東光街４０巷９號","OBJECTID":259501},"geometry":{"x":180639.58552500047,"y":2579587.4027250037}},{"attributes":{"ID":259506,"DIS_CODE":0,"TOWNNAME":"後壁區","LI":"後壁里","LIN":"9鄰","STREET":" ","SECT":" ","MAREA":"後壁","LANE":" ","ALLEY":" ","HOUSE_NO":"１６９號","E_COORD97":184980.45999999999,"N_COORD97":2584900.9100000001,"ADDRESS":"後壁１６９號","OBJECTID":259502},"geometry":{"x":184980.45999999996,"y":2584900.910000002}},{"attributes":{"ID":259507,"DIS_CODE":0,"TOWNNAME":"南區","LI":"佛壇里","LIN":"17鄰","STREET":"興南街","SECT":" ","MAREA":" ","LANE":"１０１巷","ALLEY":" ","HOUSE_NO":"１６號","E_COORD97":166217.07999999999,"N_COORD97":2535705.4300000002,"ADDRESS":"興南街１０１巷１６號","OBJECTID":259503},"geometry":{"x":166217.08000000007,"y":2535705.4300000016}},{"attributes":{"ID":259508,"DIS_CODE":0,"TOWNNAME":"歸仁區","LI":"武東里","LIN":"9鄰","STREET":"中正南路","SECT":"三段","MAREA":" ","LANE":"９６巷","ALLEY":" ","HOUSE_NO":"２２號","E_COORD97":175194.909832,"N_COORD97":2535029.95994,"ADDRESS":"中正南路三段９６巷２２號","OBJECTID":259504},"geometry":{"x":175194.9098319998,"y":2535029.9599400014}},{"attributes":{"ID":259509,"DIS_CODE":0,"TOWNNAME":"歸仁區","LI":"武東里","LIN":"9鄰","STREET":"中正南路","SECT":"三段","MAREA":" ","LANE":"９６巷","ALLEY":" ","HOUSE_NO":"６０號","E_COORD97":175080.162434,"N_COORD97":2535019.3766100002,"ADDRESS":"中正南路三段９６巷６０號","OBJECTID":259505},"geometry":{"x":175080.16243399959,"y":2535019.3766130004}},{"attributes":{"ID":259510,"DIS_CODE":0,"TOWNNAME":"新營區","LI":"新東里","LIN":"27鄰","STREET":"東光街","SECT":" ","MAREA":" ","LANE":"４０巷","ALLEY":" ","HOUSE_NO":"１７號","E_COORD97":180658.86680799999,"N_COORD97":2579587.8260599999,"ADDRESS":"東光街４０巷１７號","OBJECTID":259506},"geometry":{"x":180658.86680800095,"y":2579587.8260580022}},{"attributes":{"ID":259511,"DIS_CODE":0,"TOWNNAME":"新營區","LI":"護鎮里","LIN":"9鄰","STREET":"建國路","SECT":" ","MAREA":" ","LANE":"３１３巷","ALLEY":" ","HOUSE_NO":"７號","E_COORD97":178492.57217999999,"N_COORD97":2580980.1067400002,"ADDRESS":"建３１３巷７號","OBJECTID":259507},"geometry":{"x":178492.57218000013,"y":2580980.1067399997}},{"attributes":{"ID":259512,"DIS_CODE":0,"TOWNNAME":"新營區","LI":"護鎮里","LIN":"8鄰","STREET":"中正路","SECT":" ","MAREA":" ","LANE":"４３９巷","ALLEY":" ","HOUSE_NO":"１２７之１號","E_COORD97":178937.51303100001,"N_COORD97":2579999.9969500001,"ADDRESS":"中正路４３９巷１２７之１號","OBJECTID":259508},"geometry":{"x":178937.51303100027,"y":2579999.9969460033}},{"attributes":{"ID":259513,"DIS_CODE":0,"TOWNNAME":"新營區","LI":"護鎮里","LIN":"2鄰","STREET":"中正路","SECT":" ","MAREA":" ","LANE":"４７９巷","ALLEY":" ","HOUSE_NO":"８６號","E_COORD97":179397.18260100001,"N_COORD97":2580452.96337,"ADDRESS":"中正路４７９巷８６號","OBJECTID":259509},"geometry":{"x":179397.18260100204,"y":2580452.9633680042}},{"attributes":{"ID":259514,"DIS_CODE":0,"TOWNNAME":"新營區","LI":"護鎮里","LIN":"9鄰","STREET":"長榮路","SECT":"二段","MAREA":" ","LANE":"４６８巷","ALLEY":" ","HOUSE_NO":"３９６號","E_COORD97":178541.66289899999,"N_COORD97":2579792.6695599998,"ADDRESS":"長榮路二段４６８巷３９６號","OBJECTID":259510},"geometry":{"x":178541.6628990015,"y":2579792.6695579998}},{"attributes":{"ID":259515,"DIS_CODE":0,"TOWNNAME":"新營區","LI":"護鎮里","LIN":"9鄰","STREET":"長榮路","SECT":" ","MAREA":" ","LANE":"４６８巷","ALLEY":" ","HOUSE_NO":"３０１號","E_COORD97":178422.929061,"N_COORD97":2579623.0188199999,"ADDRESS":"長榮路４６８巷３０１號","OBJECTID":259511},"geometry":{"x":178422.92906100117,"y":2579623.0188160017}},{"attributes":{"ID":259516,"DIS_CODE":0,"TOWNNAME":"永康區","LI":"光復里","LIN":"6鄰","STREET":"復國路","SECT":" ","MAREA":" ","LANE":"６１巷","ALLEY":" ","HOUSE_NO":"１４６號","E_COORD97":172513.289812,"N_COORD97":2544480.6949100001,"ADDRESS":"復國路６１巷１４６號","OBJECTID":259512},"geometry":{"x":172513.28981200047,"y":2544480.6949119996}},{"attributes":{"ID":259517,"DIS_CODE":0,"TOWNNAME":"新營區","LI":"護鎮里","LIN":"9鄰","STREET":"長榮路","SECT":" ","MAREA":" ","LANE":"４６８巷","ALLEY":" ","HOUSE_NO":"２９１號","E_COORD97":178297.41043300001,"N_COORD97":2579522.2655400001,"ADDRESS":"長榮路４６８巷２９１號","OBJECTID":259513},"geometry":{"x":178297.41043299995,"y":2579522.2655370012}},{"attributes":{"ID":259518,"DIS_CODE":0,"TOWNNAME":"永康區","LI":"光復里","LIN":"10鄰","STREET":"復國路","SECT":" ","MAREA":" ","LANE":"６１巷","ALLEY":" ","HOUSE_NO":"１８２號","E_COORD97":172454.16643400001,"N_COORD97":2544477.0965800001,"ADDRESS":"復國路６１巷１８２號","OBJECTID":259514},"geometry":{"x":172454.16643400025,"y":2544477.0965810027}},{"attributes":{"ID":259519,"DIS_CODE":0,"TOWNNAME":"永康區","LI":"光復里","LIN":"12鄰","STREET":"復國路","SECT":" ","MAREA":" ","LANE":"６１巷","ALLEY":" ","HOUSE_NO":"２１６號","E_COORD97":172407.333938,"N_COORD97":2544474.7682500002,"ADDRESS":"復國路６１巷２１６號","OBJECTID":259515},"geometry":{"x":172407.33393799979,"y":2544474.7682489995}},{"attributes":{"ID":259520,"DIS_CODE":0,"TOWNNAME":"關廟區","LI":"東勢里","LIN":"17鄰","STREET":"東仁街","SECT":" ","MAREA":" ","LANE":"２９巷","ALLEY":" ","HOUSE_NO":"３號","E_COORD97":181883.72575099999,"N_COORD97":2539275.5859599998,"ADDRESS":"東仁街２９巷３號","OBJECTID":259516},"geometry":{"x":181883.72575100046,"y":2539275.5859559998}},{"attributes":{"ID":259521,"DIS_CODE":0,"TOWNNAME":"歸仁區","LI":"看東里","LIN":"8鄰","STREET":"成功一街","SECT":" ","MAREA":" ","LANE":"１２７巷","ALLEY":" ","HOUSE_NO":"１號","E_COORD97":178539.287625,"N_COORD97":2539983.8810700001,"ADDRESS":"成功一街１２７巷１號","OBJECTID":259517},"geometry":{"x":178539.28762500081,"y":2539983.8810699992}},{"attributes":{"ID":259522,"DIS_CODE":0,"TOWNNAME":"歸仁區","LI":"看東里","LIN":"8鄰","STREET":"成功一街","SECT":" ","MAREA":" ","LANE":"１２７巷","ALLEY":" ","HOUSE_NO":"３號","E_COORD97":178546.70477700001,"N_COORD97":2539985.7860699999,"ADDRESS":"成功一街１２７巷３號","OBJECTID":259518},"geometry":{"x":178546.7047770014,"y":2539985.7860690001}},{"attributes":{"ID":259523,"DIS_CODE":0,"TOWNNAME":"歸仁區","LI":"看東里","LIN":"8鄰","STREET":"成功一街","SECT":" ","MAREA":" ","LANE":"１２７巷","ALLEY":" ","HOUSE_NO":"７號","E_COORD97":178557.300709,"N_COORD97":2539993.1943999999,"ADDRESS":"成功一街１２７巷７號","OBJECTID":259519},"geometry":{"x":178557.30070900079,"y":2539993.1943980008}},{"attributes":{"ID":259524,"DIS_CODE":0,"TOWNNAME":"關廟區","LI":"田中里","LIN":"2鄰","STREET":"中大街","SECT":" ","MAREA":" ","LANE":"９７巷","ALLEY":" ","HOUSE_NO":"７號","E_COORD97":184253.39000000001,"N_COORD97":2533719.2999999998,"ADDRESS":"中大街９７巷７號","OBJECTID":259520},"geometry":{"x":184253.38999999966,"y":2533719.3000000007}},{"attributes":{"ID":259525,"DIS_CODE":0,"TOWNNAME":"歸仁區","LI":"看東里","LIN":"8鄰","STREET":"成功一街","SECT":" ","MAREA":" ","LANE":"１２７巷","ALLEY":" ","HOUSE_NO":"１３號","E_COORD97":178573.83036200001,"N_COORD97":2540003.35439,"ADDRESS":"成功一街１２７巷１３號","OBJECTID":259521},"geometry":{"x":178573.8303620005,"y":2540003.3543929998}},{"attributes":{"ID":259526,"DIS_CODE":0,"TOWNNAME":"新營區","LI":"大宏里","LIN":"10鄰","STREET":"民治路","SECT":" ","MAREA":" ","LANE":"２９巷","ALLEY":" ","HOUSE_NO":"２６號之７","E_COORD97":180145.37,"N_COORD97":2578739.3199999998,"ADDRESS":"民治路２９巷２６號之７","OBJECTID":259522},"geometry":{"x":180145.37000000104,"y":2578739.3200000003}},{"attributes":{"ID":259527,"DIS_CODE":0,"TOWNNAME":"新營區","LI":"王公里","LIN":"1","STREET":"民治路","SECT":" ","MAREA":" ","LANE":"２６巷","ALLEY":" ","HOUSE_NO":"１號之１","E_COORD97":180199.06,"N_COORD97":2578908.4900000002,"ADDRESS":"民治路２６巷１號之１","OBJECTID":259523},"geometry":{"x":180199.05999999866,"y":2578908.4900000021}},{"attributes":{"ID":259528,"DIS_CODE":0,"TOWNNAME":"仁德區","LI":"仁義里","LIN":"34鄰","STREET":"正義二街","SECT":" ","MAREA":" ","LANE":" ","ALLEY":" ","HOUSE_NO":"１１３號","E_COORD97":173671.20000000001,"N_COORD97":2541583.2599999998,"ADDRESS":"正義二街１１３號","OBJECTID":259524},"geometry":{"x":173671.20000000112,"y":2541583.2599999998}},{"attributes":{"ID":259529,"DIS_CODE":0,"TOWNNAME":"仁德區","LI":"仁義里","LIN":"34鄰","STREET":"正義二街","SECT":" ","MAREA":" ","LANE":" ","ALLEY":" ","HOUSE_NO":"５１號","E_COORD97":173524.26999999999,"N_COORD97":2541571.02,"ADDRESS":"正義二街５１號","OBJECTID":259525},"geometry":{"x":173524.27000000048,"y":2541571.0199999996}},{"attributes":{"ID":259530,"DIS_CODE":0,"TOWNNAME":"東區","LI":"崇德里","LIN":"10鄰","STREET":"崇德路","SECT":" ","MAREA":" ","LANE":" ","ALLEY":" ","HOUSE_NO":"５４７號","E_COORD97":170808.38,"N_COORD97":2541550.2799999998,"ADDRESS":"崇德路５４７號","OBJECTID":259526},"geometry":{"x":170808.38000000082,"y":2541550.2800000031}},{"attributes":{"ID":259531,"DIS_CODE":0,"TOWNNAME":"新營區","LI":"大宏里","LIN":"10鄰","STREET":"民治路","SECT":" ","MAREA":" ","LANE":"２９巷","ALLEY":" ","HOUSE_NO":"２６號之１２","E_COORD97":180113.58633699999,"N_COORD97":2578737.3956300002,"ADDRESS":"民治路２９巷２６號之１２","OBJECTID":259527},"geometry":{"x":180113.58633700013,"y":2578737.3956270013}},{"attributes":{"ID":259532,"DIS_CODE":0,"TOWNNAME":"佳里區","LI":"建南里","LIN":"6鄰","STREET":"中和街","SECT":" ","MAREA":" ","LANE":"５２巷","ALLEY":" ","HOUSE_NO":"４號","E_COORD97":165644.71336299999,"N_COORD97":2562204.2246599998,"ADDRESS":"中和街５２巷４號","OBJECTID":259528},"geometry":{"x":165644.71336300019,"y":2562204.2246560026}},{"attributes":{"ID":259533,"DIS_CODE":0,"TOWNNAME":"佳里區","LI":"建南里","LIN":"9鄰","STREET":"中和街","SECT":" ","MAREA":" ","LANE":"１８巷","ALLEY":" ","HOUSE_NO":"１９號","E_COORD97":165646.620169,"N_COORD97":2562161.7855099998,"ADDRESS":"中和街１８巷１９號","OBJECTID":259529},"geometry":{"x":165646.62016899977,"y":2562161.7855120022}},{"attributes":{"ID":259534,"DIS_CODE":0,"TOWNNAME":"佳里區","LI":"建南里","LIN":"9鄰","STREET":"中和街","SECT":" ","MAREA":" ","LANE":"１８巷","ALLEY":" ","HOUSE_NO":"１８號","E_COORD97":165650.32784899999,"N_COORD97":2562162.20884,"ADDRESS":"中和街１８巷１８號","OBJECTID":259530},"geometry":{"x":165650.32784900069,"y":2562162.2088450007}},{"attributes":{"ID":259535,"DIS_CODE":0,"TOWNNAME":"佳里區","LI":"建南里","LIN":"9鄰","STREET":"中和街","SECT":" ","MAREA":" ","LANE":"１８巷","ALLEY":" ","HOUSE_NO":"１７號","E_COORD97":165653.50586,"N_COORD97":2562161.9971799999,"ADDRESS":"中和街１８巷１７號","OBJECTID":259531},"geometry":{"x":165653.50586000178,"y":2562161.9971789997}},{"attributes":{"ID":259536,"DIS_CODE":0,"TOWNNAME":"佳里區","LI":"建南里","LIN":"9鄰","STREET":"中和街","SECT":" ","MAREA":" ","LANE":"１８巷","ALLEY":" ","HOUSE_NO":"１４號","E_COORD97":165650.64564999999,"N_COORD97":2562169.5113400002,"ADDRESS":"中和街１８巷１４號","OBJECTID":259532},"geometry":{"x":165650.64565000124,"y":2562169.5113410018}},{"attributes":{"ID":259537,"DIS_CODE":0,"TOWNNAME":"佳里區","LI":"建南里","LIN":"9鄰","STREET":"中和街","SECT":" ","MAREA":" ","LANE":"１８巷","ALLEY":" ","HOUSE_NO":"１５號","E_COORD97":165654.35333000001,"N_COORD97":2562169.9346699999,"ADDRESS":"中和街１８巷１５號","OBJECTID":259533},"geometry":{"x":165654.35333000124,"y":2562169.9346740004}},{"attributes":{"ID":259538,"DIS_CODE":0,"TOWNNAME":"佳里區","LI":"建南里","LIN":"9鄰","STREET":"新生路","SECT":" ","MAREA":" ","LANE":"３０１巷","ALLEY":" ","HOUSE_NO":"４號","E_COORD97":165581.47093800001,"N_COORD97":2562189.0640400001,"ADDRESS":"新生路３０１巷４號","OBJECTID":259534},"geometry":{"x":165581.4709379999,"y":2562189.0640390012}},{"attributes":{"ID":259539,"DIS_CODE":0,"TOWNNAME":"新營區","LI":"大宏里","LIN":"11鄰","STREET":"三民路","SECT":" ","MAREA":" ","LANE":"８巷","ALLEY":" ","HOUSE_NO":"１３號之２","E_COORD97":180558.73999999999,"N_COORD97":2578566.8199999998,"ADDRESS":"三民路８巷１３號之２","OBJECTID":259535},"geometry":{"x":180558.74000000115,"y":2578566.8199999984}},{"attributes":{"ID":259540,"DIS_CODE":0,"TOWNNAME":"關廟區","LI":"五甲里","LIN":"1鄰","STREET":"旺萊路","SECT":" ","MAREA":" ","LANE":"１００巷","ALLEY":" ","HOUSE_NO":"２１７號","E_COORD97":181956.713296,"N_COORD97":2538669.3736100001,"ADDRESS":"旺萊路１００巷２１７號","OBJECTID":259536},"geometry":{"x":181956.71329600085,"y":2538669.3736070003}},{"attributes":{"ID":259541,"DIS_CODE":0,"TOWNNAME":"新營區","LI":"大宏里","LIN":"11鄰","STREET":"三民路","SECT":" ","MAREA":" ","LANE":"８巷","ALLEY":" ","HOUSE_NO":"１３號之１","E_COORD97":180575.13,"N_COORD97":2578572.2799999998,"ADDRESS":"三民路８巷１３號之１","OBJECTID":259537},"geometry":{"x":180575.12999999989,"y":2578572.2799999993}},{"attributes":{"ID":259542,"DIS_CODE":0,"TOWNNAME":"新營區","LI":"大宏里","LIN":"11鄰","STREET":"三民路","SECT":" ","MAREA":" ","LANE":"８巷","ALLEY":" ","HOUSE_NO":"４１號之１","E_COORD97":180515.98999999999,"N_COORD97":2578594.71,"ADDRESS":"三民路８巷４１號之１","OBJECTID":259538},"geometry":{"x":180515.99000000115,"y":2578594.7100000009}},{"attributes":{"ID":259543,"DIS_CODE":0,"TOWNNAME":"新營區","LI":"大宏里","LIN":"11鄰","STREET":"三民路","SECT":" ","MAREA":" ","LANE":"８巷","ALLEY":" ","HOUSE_NO":"４１號之３","E_COORD97":180538.5,"N_COORD97":2578595.71,"ADDRESS":"三民路８巷４１號之３","OBJECTID":259539},"geometry":{"x":180538.5,"y":2578595.7100000046}},{"attributes":{"ID":259544,"DIS_CODE":0,"TOWNNAME":"關廟區","LI":"東勢里","LIN":"14鄰","STREET":"東榮街","SECT":" ","MAREA":" ","LANE":"１７２巷","ALLEY":" ","HOUSE_NO":"１２號","E_COORD97":182210.22090099999,"N_COORD97":2539297.0701100002,"ADDRESS":"東榮街１７２巷１２號","OBJECTID":259540},"geometry":{"x":182210.22090100031,"y":2539297.070110999}},{"attributes":{"ID":259545,"DIS_CODE":0,"TOWNNAME":"關廟區","LI":"新光里","LIN":"13鄰","STREET":"南寮街","SECT":" ","MAREA":" ","LANE":"２９巷","ALLEY":" ","HOUSE_NO":"４６號","E_COORD97":184345.12,"N_COORD97":2541665.25,"ADDRESS":"南寮街２９巷４６號","OBJECTID":259541},"geometry":{"x":184345.12000000011,"y":2541665.25}},{"attributes":{"ID":259546,"DIS_CODE":0,"TOWNNAME":"官田區","LI":"隆田里","LIN":"22鄰","STREET":"信義街","SECT":"一段","MAREA":" ","LANE":"１２８巷","ALLEY":" ","HOUSE_NO":"２號","E_COORD97":179724.98699999999,"N_COORD97":2565685.5440000002,"ADDRESS":"信義街一段１２８巷２號","OBJECTID":259542},"geometry":{"x":179724.98700000066,"y":2565685.5440000016}},{"attributes":{"ID":259547,"DIS_CODE":0,"TOWNNAME":"歸仁區","LI":"看東里","LIN":"8鄰","STREET":"成功一街","SECT":" ","MAREA":" ","LANE":"１２７巷","ALLEY":" ","HOUSE_NO":"１７號","E_COORD97":178579.12832799999,"N_COORD97":2540010.3393899999,"ADDRESS":"成功一街１２７巷１７號","OBJECTID":259543},"geometry":{"x":178579.1283280002,"y":2540010.3393890038}},{"attributes":{"ID":259548,"DIS_CODE":0,"TOWNNAME":"歸仁區","LI":"崙頂里","LIN":"14鄰","STREET":"崙頂五街","SECT":" ","MAREA":" ","LANE":"２１巷","ALLEY":" ","HOUSE_NO":"３２號","E_COORD97":177942.16174899999,"N_COORD97":2539879.3177899998,"ADDRESS":"崙頂五街２１巷３２號","OBJECTID":259544},"geometry":{"x":177942.16174900066,"y":2539879.3177930024}},{"attributes":{"ID":259549,"DIS_CODE":0,"TOWNNAME":"歸仁區","LI":"大廟里","LIN":"3鄰","STREET":"保大路","SECT":"三段","MAREA":" ","LANE":"５５巷","ALLEY":" ","HOUSE_NO":"５６號","E_COORD97":176411.282687,"N_COORD97":2543956.11546,"ADDRESS":"保大路三段５５巷５６號","OBJECTID":259545},"geometry":{"x":176411.28268700186,"y":2543956.1154620014}},{"attributes":{"ID":259550,"DIS_CODE":0,"TOWNNAME":"歸仁區","LI":"崙頂里","LIN":"14鄰","STREET":"崙頂五街","SECT":" ","MAREA":" ","LANE":"２１巷","ALLEY":" ","HOUSE_NO":"４０號","E_COORD97":177946.823959,"N_COORD97":2539903.0244499999,"ADDRESS":"崙頂五街２１巷４０號","OBJECTID":259546},"geometry":{"x":177946.82395900227,"y":2539903.0244469997}},{"attributes":{"ID":259551,"DIS_CODE":0,"TOWNNAME":"歸仁區","LI":"大廟里","LIN":"3鄰","STREET":"保大路","SECT":"三段","MAREA":" ","LANE":"５５巷","ALLEY":" ","HOUSE_NO":"５２號","E_COORD97":176399.644551,"N_COORD97":2543981.6549999998,"ADDRESS":"保大路三段５５巷５２號","OBJECTID":259547},"geometry":{"x":176399.64455099963,"y":2543981.6550009996}},{"attributes":{"ID":259552,"DIS_CODE":0,"TOWNNAME":"歸仁區","LI":"大廟里","LIN":"3鄰","STREET":"保大路","SECT":"三段","MAREA":" ","LANE":"５５巷","ALLEY":" ","HOUSE_NO":"５４號","E_COORD97":176407.470008,"N_COORD97":2543967.5454600002,"ADDRESS":"保大路三段５５巷５４號","OBJECTID":259548},"geometry":{"x":176407.47000800073,"y":2543967.5454559997}},{"attributes":{"ID":259553,"DIS_CODE":0,"TOWNNAME":"新市區","LI":"港墘里","LIN":"1鄰","STREET":"中山路","SECT":" ","MAREA":" ","LANE":"１３巷","ALLEY":" ","HOUSE_NO":"２之１０號","E_COORD97":178888.52483800001,"N_COORD97":2553730.8517800001,"ADDRESS":"中山路１３巷２之１０號","OBJECTID":259549},"geometry":{"x":178888.5248379996,"y":2553730.8517850041}},{"attributes":{"ID":259554,"DIS_CODE":0,"TOWNNAME":"歸仁區","LI":"看西里","LIN":"3鄰","STREET":"仁愛南街","SECT":" ","MAREA":" ","LANE":"１１７巷","ALLEY":" ","HOUSE_NO":"５號","E_COORD97":178318.865307,"N_COORD97":2540363.4253400001,"ADDRESS":"仁愛南街１１７巷５號","OBJECTID":259550},"geometry":{"x":178318.86530699953,"y":2540363.4253420029}},{"attributes":{"ID":259555,"DIS_CODE":0,"TOWNNAME":"歸仁區","LI":"看西里","LIN":"3鄰","STREET":"仁愛南街","SECT":" ","MAREA":" ","LANE":"１１７巷","ALLEY":" ","HOUSE_NO":"７號","E_COORD97":178323.37843499999,"N_COORD97":2540363.4253400001,"ADDRESS":"仁愛南街１１７巷７號","OBJECTID":259551},"geometry":{"x":178323.37843499985,"y":2540363.4253420029}},{"attributes":{"ID":259556,"DIS_CODE":0,"TOWNNAME":"歸仁區","LI":"大廟里","LIN":"3鄰","STREET":"保大路","SECT":"三段","MAREA":" ","LANE":"５５巷","ALLEY":" ","HOUSE_NO":"６０號","E_COORD97":176415.00197300001,"N_COORD97":2543932.3879200001,"ADDRESS":"保大路三段５５巷６０號","OBJECTID":259552},"geometry":{"x":176415.00197300036,"y":2543932.3879200015}},{"attributes":{"ID":259557,"DIS_CODE":0,"TOWNNAME":"安南區","LI":"淵中里","LIN":"3鄰","STREET":"本淵路","SECT":" ","MAREA":" ","LANE":"５７巷","ALLEY":" ","HOUSE_NO":"３０號","E_COORD97":165187.115299,"N_COORD97":2549915.6271000002,"ADDRESS":"本淵路５７巷３０號","OBJECTID":259553},"geometry":{"x":165187.11529900227,"y":2549915.6270980034}},{"attributes":{"ID":259558,"DIS_CODE":0,"TOWNNAME":"東區","LI":"崇善里","LIN":"26鄰","STREET":"崇善東路","SECT":" ","MAREA":" ","LANE":" ","ALLEY":" ","HOUSE_NO":"７７之１號","E_COORD97":171396.01000000001,"N_COORD97":2541085.46,"ADDRESS":"崇善東路７７之１號","OBJECTID":259554},"geometry":{"x":171396.00999999978,"y":2541085.4600000009}},{"attributes":{"ID":259559,"DIS_CODE":0,"TOWNNAME":"東區","LI":"崇德里","LIN":"25鄰","STREET":"崇道路","SECT":" ","MAREA":" ","LANE":" ","ALLEY":" ","HOUSE_NO":"３１號","E_COORD97":170671.17000000001,"N_COORD97":2541421.8100000001,"ADDRESS":"崇道路３１號","OBJECTID":259555},"geometry":{"x":170671.16999999993,"y":2541421.8100000005}},{"attributes":{"ID":259560,"DIS_CODE":0,"TOWNNAME":"東區","LI":"崇善里","LIN":"13鄰","STREET":"崇善十街","SECT":" ","MAREA":" ","LANE":" ","ALLEY":" ","HOUSE_NO":"２１號","E_COORD97":171154.85999999999,"N_COORD97":2541306.48,"ADDRESS":"崇善十街２１號","OBJECTID":259556},"geometry":{"x":171154.86000000127,"y":2541306.4800000023}},{"attributes":{"ID":259561,"DIS_CODE":0,"TOWNNAME":"東區","LI":"裕聖里","LIN":"13鄰","STREET":"裕義路","SECT":" ","MAREA":" ","LANE":" ","ALLEY":" ","HOUSE_NO":"３８０號","E_COORD97":172878.17999999999,"N_COORD97":2542417.8700000001,"ADDRESS":"裕義路３８０號","OBJECTID":259557},"geometry":{"x":172878.1799999997,"y":2542417.870000001}},{"attributes":{"ID":259562,"DIS_CODE":0,"TOWNNAME":"東區","LI":"裕聖里","LIN":"8鄰","STREET":"裕東二街","SECT":" ","MAREA":" ","LANE":" ","ALLEY":" ","HOUSE_NO":"６號","E_COORD97":172686.92000000001,"N_COORD97":2541936.6699999999,"ADDRESS":"裕東二街６號","OBJECTID":259558},"geometry":{"x":172686.91999999993,"y":2541936.6699999999}},{"attributes":{"ID":259563,"DIS_CODE":0,"TOWNNAME":"東區","LI":"裕聖里","LIN":"8鄰","STREET":"裕敬二街","SECT":" ","MAREA":" ","LANE":" ","ALLEY":" ","HOUSE_NO":"１５１號","E_COORD97":172670.22,"N_COORD97":2541935.52,"ADDRESS":"裕敬二街１５１號","OBJECTID":259559},"geometry":{"x":172670.22000000067,"y":2541935.5200000014}},{"attributes":{"ID":259564,"DIS_CODE":0,"TOWNNAME":"東區","LI":"裕聖里","LIN":"8鄰","STREET":"裕敬二街","SECT":" ","MAREA":" ","LANE":" ","ALLEY":" ","HOUSE_NO":"１５３號","E_COORD97":172669.89999999999,"N_COORD97":2541930.2799999998,"ADDRESS":"裕敬二街１５３號","OBJECTID":259560},"geometry":{"x":172669.9000000013,"y":2541930.2800000012}},{"attributes":{"ID":259565,"DIS_CODE":0,"TOWNNAME":"佳里區","LI":"建南里","LIN":"6鄰","STREET":"中和街","SECT":" ","MAREA":" ","LANE":"５２巷","ALLEY":" ","HOUSE_NO":"１號","E_COORD97":165644.39556100001,"N_COORD97":2562210.3629899998,"ADDRESS":"中和街５２巷１號","OBJECTID":259561},"geometry":{"x":165644.3955609994,"y":2562210.3629860003}},{"attributes":{"ID":259566,"DIS_CODE":0,"TOWNNAME":"佳里區","LI":"建南里","LIN":"6鄰","STREET":"中和街","SECT":" ","MAREA":" ","LANE":"５２巷","ALLEY":" ","HOUSE_NO":"３號","E_COORD97":165644.71336299999,"N_COORD97":2562206.5529900002,"ADDRESS":"中和街５２巷３號","OBJECTID":259562},"geometry":{"x":165644.71336300019,"y":2562206.5529880021}},{"attributes":{"ID":259567,"DIS_CODE":0,"TOWNNAME":"下營區","LI":"新興里","LIN":"5鄰","STREET":"中山路","SECT":"一段","MAREA":" ","LANE":"２５１巷","ALLEY":" ","HOUSE_NO":"５號","E_COORD97":174880.97167,"N_COORD97":2570700.46606,"ADDRESS":"中山路一段２５１巷５號","OBJECTID":259563},"geometry":{"x":174880.97166999988,"y":2570700.466062}},{"attributes":{"ID":259568,"DIS_CODE":0,"TOWNNAME":"歸仁區","LI":"大廟里","LIN":"3鄰","STREET":"保大路","SECT":"三段","MAREA":" ","LANE":"５５巷","ALLEY":" ","HOUSE_NO":"６１號","E_COORD97":176456.93437800001,"N_COORD97":2543904.4479399999,"ADDRESS":"保大路三段５５巷６１號","OBJECTID":259564},"geometry":{"x":176456.93437800184,"y":2543904.4479350019}},{"attributes":{"ID":259569,"DIS_CODE":0,"TOWNNAME":"安南區","LI":"淵中里","LIN":"3鄰","STREET":"本淵路","SECT":" ","MAREA":" ","LANE":"５７巷","ALLEY":" ","HOUSE_NO":"６８號","E_COORD97":165136.32824500001,"N_COORD97":2549854.0321300002,"ADDRESS":"本淵路５７巷６８號","OBJECTID":259565},"geometry":{"x":165136.32824500091,"y":2549854.0321319997}},{"attributes":{"ID":259570,"DIS_CODE":0,"TOWNNAME":"新市區","LI":"新和里","LIN":"51鄰","STREET":"中正路","SECT":" ","MAREA":" ","LANE":"９２巷","ALLEY":" ","HOUSE_NO":"１０號","E_COORD97":177508.06247800001,"N_COORD97":2552496.3380900002,"ADDRESS":"中正路９２巷１０號","OBJECTID":259566},"geometry":{"x":177508.06247800216,"y":2552496.3380880002}},{"attributes":{"ID":259571,"DIS_CODE":0,"TOWNNAME":"歸仁區","LI":"看東里","LIN":"14鄰","STREET":"中山一街","SECT":" ","MAREA":" ","LANE":"１２巷","ALLEY":" ","HOUSE_NO":"１號","E_COORD97":178597.56524900001,"N_COORD97":2540581.2040800001,"ADDRESS":"中山一街１２巷１號","OBJECTID":259567},"geometry":{"x":178597.56524899974,"y":2540581.2040810008}},{"attributes":{"ID":259572,"DIS_CODE":0,"TOWNNAME":"歸仁區","LI":"看西里","LIN":"2鄰","STREET":"成功六街","SECT":" ","MAREA":" ","LANE":"１１６巷","ALLEY":" ","HOUSE_NO":"１２號","E_COORD97":178423.47592699999,"N_COORD97":2540338.1467599999,"ADDRESS":"成功六街１１６巷１２號","OBJECTID":259568},"geometry":{"x":178423.4759270018,"y":2540338.1467620023}},{"attributes":{"ID":259573,"DIS_CODE":0,"TOWNNAME":"歸仁區","LI":"看東里","LIN":"14鄰","STREET":"中山一街","SECT":" ","MAREA":" ","LANE":"１２巷","ALLEY":" ","HOUSE_NO":"３號","E_COORD97":178592.903039,"N_COORD97":2540581.2040800001,"ADDRESS":"中山一街１２巷３號","OBJECTID":259569},"geometry":{"x":178592.903039,"y":2540581.2040810008}},{"attributes":{"ID":259574,"DIS_CODE":0,"TOWNNAME":"歸仁區","LI":"看西里","LIN":"2鄰","STREET":"成功六街","SECT":" ","MAREA":" ","LANE":"１１６巷","ALLEY":" ","HOUSE_NO":"２２號","E_COORD97":178441.43169100001,"N_COORD97":2540336.7709300001,"ADDRESS":"成功六街１１６巷２２號","OBJECTID":259570},"geometry":{"x":178441.43169100024,"y":2540336.7709300015}},{"attributes":{"ID":259575,"DIS_CODE":0,"TOWNNAME":"歸仁區","LI":"看西里","LIN":"2鄰","STREET":"成功六街","SECT":" ","MAREA":" ","LANE":"１１６巷","ALLEY":" ","HOUSE_NO":"２６號","E_COORD97":178446.09277399999,"N_COORD97":2540336.2946799998,"ADDRESS":"成功六街１１６巷２６號","OBJECTID":259571},"geometry":{"x":178446.09277400188,"y":2540336.2946799994}},{"attributes":{"ID":259576,"DIS_CODE":0,"TOWNNAME":"歸仁區","LI":"看西里","LIN":"2鄰","STREET":"成功六街","SECT":" ","MAREA":" ","LANE":"１１６巷","ALLEY":" ","HOUSE_NO":"３號","E_COORD97":178411.028716,"N_COORD97":2540347.9892600002,"ADDRESS":"成功六街１１６巷３號","OBJECTID":259572},"geometry":{"x":178411.0287159998,"y":2540347.9892570022}},{"attributes":{"ID":259577,"DIS_CODE":0,"TOWNNAME":"新營區","LI":"延平里","LIN":"7鄰","STREET":"復興路","SECT":" ","MAREA":" ","LANE":"２９巷","ALLEY":" ","HOUSE_NO":"２１之１號","E_COORD97":179697.83028200001,"N_COORD97":2577955.3325399999,"ADDRESS":"復興路２９巷２１之１號","OBJECTID":259573},"geometry":{"x":179697.83028199989,"y":2577955.3325360026}},{"attributes":{"ID":259578,"DIS_CODE":0,"TOWNNAME":"歸仁區","LI":"看東里","LIN":"1鄰","STREET":"忠孝南路","SECT":" ","MAREA":" ","LANE":"６０巷","ALLEY":" ","HOUSE_NO":"２２號","E_COORD97":178449.434125,"N_COORD97":2540532.3091099998,"ADDRESS":"忠孝南路６０巷２２號","OBJECTID":259574},"geometry":{"x":178449.43412499968,"y":2540532.309107}},{"attributes":{"ID":259579,"DIS_CODE":0,"TOWNNAME":"歸仁區","LI":"看西里","LIN":"2鄰","STREET":"成功六街","SECT":" ","MAREA":" ","LANE":"１１６巷","ALLEY":" ","HOUSE_NO":"１１號","E_COORD97":178428.77261300001,"N_COORD97":2540346.6134299999,"ADDRESS":"成功六街１１６巷１１號","OBJECTID":259575},"geometry":{"x":178428.77261300012,"y":2540346.6134250015}},{"attributes":{"ID":259580,"DIS_CODE":0,"TOWNNAME":"歸仁區","LI":"看西里","LIN":"2鄰","STREET":"成功六街","SECT":" ","MAREA":" ","LANE":"１１６巷","ALLEY":" ","HOUSE_NO":"１３號","E_COORD97":178433.22182899999,"N_COORD97":2540346.29593,"ADDRESS":"成功六街１１６巷１３號","OBJECTID":259576},"geometry":{"x":178433.22182899993,"y":2540346.2959250044}},{"attributes":{"ID":259581,"DIS_CODE":0,"TOWNNAME":"東區","LI":"裕聖里","LIN":"8鄰","STREET":"裕敬二街","SECT":" ","MAREA":" ","LANE":" ","ALLEY":" ","HOUSE_NO":"１５５號","E_COORD97":172670.22,"N_COORD97":2541925.3700000001,"ADDRESS":"裕敬二街１５５號","OBJECTID":259577},"geometry":{"x":172670.22000000067,"y":2541925.3700000029}},{"attributes":{"ID":259582,"DIS_CODE":0,"TOWNNAME":"東區","LI":"裕聖里","LIN":"8鄰","STREET":"裕敬二街","SECT":" ","MAREA":" ","LANE":" ","ALLEY":" ","HOUSE_NO":"１５７號","E_COORD97":172670.39000000001,"N_COORD97":2541920.46,"ADDRESS":"裕敬二街１５７號","OBJECTID":259578},"geometry":{"x":172670.39000000153,"y":2541920.4600000028}},{"attributes":{"ID":259583,"DIS_CODE":0,"TOWNNAME":"東區","LI":"裕聖里","LIN":"8鄰","STREET":"裕東二街","SECT":" ","MAREA":" ","LANE":" ","ALLEY":" ","HOUSE_NO":"２號","E_COORD97":172681.85000000001,"N_COORD97":2541936.5,"ADDRESS":"裕東二街２號","OBJECTID":259579},"geometry":{"x":172681.84999999963,"y":2541936.5000000019}},{"attributes":{"ID":259584,"DIS_CODE":0,"TOWNNAME":"東區","LI":"崇學里","LIN":"7鄰","STREET":"崇善路","SECT":" ","MAREA":" ","LANE":" ","ALLEY":" ","HOUSE_NO":"２１８號","E_COORD97":170656,"N_COORD97":2542087.3500000001,"ADDRESS":"崇善路２１８號","OBJECTID":259580},"geometry":{"x":170655.99999999907,"y":2542087.3499999996}},{"attributes":{"ID":259585,"DIS_CODE":0,"TOWNNAME":"歸仁區","LI":"看西里","LIN":"2鄰","STREET":"成功六街","SECT":" ","MAREA":" ","LANE":"１１６巷","ALLEY":" ","HOUSE_NO":"１５之１號","E_COORD97":178442.067293,"N_COORD97":2540345.4492600001,"ADDRESS":"成功六街１１６巷１５之１號","OBJECTID":259581},"geometry":{"x":178442.06729300041,"y":2540345.4492580034}},{"attributes":{"ID":259586,"DIS_CODE":0,"TOWNNAME":"歸仁區","LI":"看西里","LIN":"2鄰","STREET":"成功六街","SECT":" ","MAREA":" ","LANE":"１１６巷","ALLEY":" ","HOUSE_NO":"１５之２號","E_COORD97":178446.78134399999,"N_COORD97":2540345.2905100002,"ADDRESS":"成功六街１１６巷１５之２號","OBJECTID":259582},"geometry":{"x":178446.78134399932,"y":2540345.2905090041}},{"attributes":{"ID":259587,"DIS_CODE":0,"TOWNNAME":"歸仁區","LI":"看西里","LIN":"2鄰","STREET":"成功六街","SECT":" ","MAREA":" ","LANE":"３８巷","ALLEY":" ","HOUSE_NO":"９０號","E_COORD97":178429.93788400001,"N_COORD97":2540312.16469,"ADDRESS":"成功六街３８巷９０號","OBJECTID":259583},"geometry":{"x":178429.93788400106,"y":2540312.1646929998}},{"attributes":{"ID":259588,"DIS_CODE":0,"TOWNNAME":"新營區","LI":"延平里","LIN":"7鄰","STREET":"復興路","SECT":" ","MAREA":" ","LANE":"２９巷","ALLEY":" ","HOUSE_NO":"２３之１號","E_COORD97":179694.86335500001,"N_COORD97":2577953.1100400002,"ADDRESS":"復興路２９巷２３之１號","OBJECTID":259584},"geometry":{"x":179694.8633550005,"y":2577953.1100370008}},{"attributes":{"ID":259589,"DIS_CODE":0,"TOWNNAME":"歸仁區","LI":"大潭里","LIN":"3鄰","STREET":"大潭一街","SECT":" ","MAREA":" ","LANE":"５１巷","ALLEY":" ","HOUSE_NO":"２４號","E_COORD97":175321.73686,"N_COORD97":2534659.8260900001,"ADDRESS":"大潭一街５１巷２４號","OBJECTID":259585},"geometry":{"x":175321.73686000053,"y":2534659.8260870017}},{"attributes":{"ID":259590,"DIS_CODE":0,"TOWNNAME":"歸仁區","LI":"崙頂里","LIN":"24鄰","STREET":"崙頂街","SECT":" ","MAREA":" ","LANE":"９０巷","ALLEY":" ","HOUSE_NO":"８號","E_COORD97":177825.56737800001,"N_COORD97":2539917.2485500001,"ADDRESS":"崙頂街９０巷８號","OBJECTID":259586},"geometry":{"x":177825.56737800129,"y":2539917.2485530004}},{"attributes":{"ID":259591,"DIS_CODE":0,"TOWNNAME":"新營區","LI":"王公里","LIN":"33鄰","STREET":"民族路","SECT":" ","MAREA":" ","LANE":"３０８巷","ALLEY":" ","HOUSE_NO":"２３號","E_COORD97":180466.01259,"N_COORD97":2579767.0431400002,"ADDRESS":"民族路３０８巷２３號","OBJECTID":259587},"geometry":{"x":180466.01259000134,"y":2579767.0431400016}},{"attributes":{"ID":259592,"DIS_CODE":0,"TOWNNAME":"東區","LI":"忠孝里","LIN":"24鄰","STREET":"崇明五街","SECT":" ","MAREA":" ","LANE":" ","ALLEY":" ","HOUSE_NO":"２３號","E_COORD97":169627.45999999999,"N_COORD97":2542252.4199999999,"ADDRESS":"崇明五街２３號","OBJECTID":259588},"geometry":{"x":169627.46000000089,"y":2542252.4200000018}},{"attributes":{"ID":259593,"DIS_CODE":0,"TOWNNAME":"新營區","LI":"王公里","LIN":"33鄰","STREET":"民族路","SECT":" ","MAREA":" ","LANE":"３０８巷","ALLEY":" ","HOUSE_NO":"２５號","E_COORD97":180470.03835700001,"N_COORD97":2579766.40815,"ADDRESS":"民族路３０８巷２５號","OBJECTID":259589},"geometry":{"x":180470.0383570008,"y":2579766.4081449993}},{"attributes":{"ID":259594,"DIS_CODE":0,"TOWNNAME":"東區","LI":"德高里","LIN":"15鄰","STREET":"崇善東路","SECT":" ","MAREA":" ","LANE":" ","ALLEY":" ","HOUSE_NO":"３８號","E_COORD97":171331.97,"N_COORD97":2540907.29,"ADDRESS":"崇善東路３８號","OBJECTID":259590},"geometry":{"x":171331.96999999974,"y":2540907.2899999991}},{"attributes":{"ID":259595,"DIS_CODE":0,"TOWNNAME":"東區","LI":"東光里","LIN":"1鄰","STREET":"東寧路","SECT":" ","MAREA":" ","LANE":" ","ALLEY":" ","HOUSE_NO":"４２１號","E_COORD97":171035.89000000001,"N_COORD97":2543341.6299999999,"ADDRESS":"東寧路４２１號","OBJECTID":259591},"geometry":{"x":171035.88999999966,"y":2543341.6300000008}},{"attributes":{"ID":259596,"DIS_CODE":0,"TOWNNAME":"東區","LI":"泉南里","LIN":"1鄰","STREET":"府東街","SECT":" ","MAREA":" ","LANE":" ","ALLEY":" ","HOUSE_NO":"１４２號","E_COORD97":169644.67000000001,"N_COORD97":2543021.8799999999,"ADDRESS":"府東街１４２號","OBJECTID":259592},"geometry":{"x":169644.67000000086,"y":2543021.8800000008}},{"attributes":{"ID":259597,"DIS_CODE":0,"TOWNNAME":"歸仁區","LI":"看東里","LIN":"16鄰","STREET":"中山路","SECT":"一段","MAREA":" ","LANE":"１巷","ALLEY":" ","HOUSE_NO":"４０號","E_COORD97":179560.765648,"N_COORD97":2540217.8631600002,"ADDRESS":"中山路一段１巷４０號","OBJECTID":259593},"geometry":{"x":179560.76564800087,"y":2540217.863156002}},{"attributes":{"ID":259598,"DIS_CODE":0,"TOWNNAME":"歸仁區","LI":"大廟里","LIN":"4鄰","STREET":"和順路","SECT":"二段","MAREA":" ","LANE":"８７巷","ALLEY":" ","HOUSE_NO":"３０號","E_COORD97":176278.828113,"N_COORD97":2543546.8592599998,"ADDRESS":"和順路二段８７巷３０號","OBJECTID":259594},"geometry":{"x":176278.82811300084,"y":2543546.8592629991}},{"attributes":{"ID":259599,"DIS_CODE":0,"TOWNNAME":"歸仁區","LI":"大廟里","LIN":"4鄰","STREET":"和順路","SECT":"二段","MAREA":" ","LANE":"８７巷","ALLEY":" ","HOUSE_NO":"７號","E_COORD97":176337.924638,"N_COORD97":2543600.6225700001,"ADDRESS":"和順路二段８７巷７號","OBJECTID":259595},"geometry":{"x":176337.92463800125,"y":2543600.6225670017}},{"attributes":{"ID":259600,"DIS_CODE":0,"TOWNNAME":"安南區","LI":"安和里","LIN":"16鄰","STREET":"安和路","SECT":"一段","MAREA":" ","LANE":"１１８巷","ALLEY":" ","HOUSE_NO":"１５號","E_COORD97":169547.42722000001,"N_COORD97":2547651.3047400001,"ADDRESS":"安和路一段１１８巷１５號","OBJECTID":259596},"geometry":{"x":169547.42722000182,"y":2547651.3047380019}},{"attributes":{"ID":259601,"DIS_CODE":0,"TOWNNAME":"安南區","LI":"城南里","LIN":"2鄰","STREET":"城西街","SECT":"一段","MAREA":" ","LANE":"６１巷","ALLEY":" ","HOUSE_NO":"９０號","E_COORD97":160730.05103100001,"N_COORD97":2551248.40809,"ADDRESS":"城西街一段６１巷９０號","OBJECTID":259597},"geometry":{"x":160730.05103100184,"y":2551248.4080920015}},{"attributes":{"ID":259602,"DIS_CODE":0,"TOWNNAME":"東區","LI":"小東里","LIN":"28鄰","STREET":"東和路","SECT":" ","MAREA":" ","LANE":" ","ALLEY":" ","HOUSE_NO":"１２５號","E_COORD97":170743.56,"N_COORD97":2544306.1899999999,"ADDRESS":"東和路１２５號","OBJECTID":259598},"geometry":{"x":170743.56000000052,"y":2544306.1899999995}},{"attributes":{"ID":259603,"DIS_CODE":0,"TOWNNAME":"安南區","LI":"城南里","LIN":"9鄰","STREET":"城西街","SECT":"一段","MAREA":" ","LANE":"６１巷","ALLEY":" ","HOUSE_NO":"２３２號","E_COORD97":160455.40706299999,"N_COORD97":2551091.2985899998,"ADDRESS":"城西街一段６１巷２３２號","OBJECTID":259599},"geometry":{"x":160455.40706300084,"y":2551091.2985930014}},{"attributes":{"ID":259604,"DIS_CODE":0,"TOWNNAME":"東區","LI":"崇德里","LIN":"4鄰","STREET":"崇德五街","SECT":" ","MAREA":" ","LANE":" ","ALLEY":" ","HOUSE_NO":"２０號","E_COORD97":170684.27449099999,"N_COORD97":2541818.9848000002,"ADDRESS":"崇德五街２０號","OBJECTID":259600},"geometry":{"x":170684.27449100092,"y":2541818.9848020002}}]}