{"displayFieldName":"TOWNNAME","fieldAliases":{"ID":"ID","DIS_CODE":"DIS_CODE","TOWNNAME":"TOWNNAME","LI":"LI","LIN":"LIN","STREET":"STREET","SECT":"SECT","MAREA":"MAREA","LANE":"LANE","ALLEY":"ALLEY","HOUSE_NO":"HOUSE_NO","E_COORD97":"E_COORD97","N_COORD97":"N_COORD97","ADDRESS":"ADDRESS","OBJECTID":"OBJECTID"},"geometryType":"esriGeometryPoint","spatialReference":{"wkid":102443,"latestWkid":3826},"fields":[{"name":"ID","type":"esriFieldTypeDouble","alias":"ID"},{"name":"DIS_CODE","type":"esriFieldTypeInteger","alias":"DIS_CODE"},{"name":"TOWNNAME","type":"esriFieldTypeString","alias":"TOWNNAME","length":8},{"name":"LI","type":"esriFieldTypeString","alias":"LI","length":8},{"name":"LIN","type":"esriFieldTypeString","alias":"LIN","length":12},{"name":"STREET","type":"esriFieldTypeString","alias":"STREET","length":20},{"name":"SECT","type":"esriFieldTypeString","alias":"SECT","length":8},{"name":"MAREA","type":"esriFieldTypeString","alias":"MAREA","length":12},{"name":"LANE","type":"esriFieldTypeString","alias":"LANE","length":10},{"name":"ALLEY","type":"esriFieldTypeString","alias":"ALLEY","length":10},{"name":"HOUSE_NO","type":"esriFieldTypeString","alias":"HOUSE_NO","length":20},{"name":"E_COORD97","type":"esriFieldTypeDouble","alias":"E_COORD97"},{"name":"N_COORD97","type":"esriFieldTypeDouble","alias":"N_COORD97"},{"name":"ADDRESS","type":"esriFieldTypeString","alias":"ADDRESS","length":50},{"name":"OBJECTID","type":"esriFieldTypeOID","alias":"OBJECTID"}],"features":[{"attributes":{"ID":12001,"DIS_CODE":0,"TOWNNAME":"歸仁區","LI":"許厝里","LIN":"13鄰","STREET":"信義南路","SECT":" ","MAREA":" ","LANE":" ","ALLEY":" ","HOUSE_NO":"３１號","E_COORD97":178053.39999999999,"N_COORD97":2540636.1000000001,"ADDRESS":"信義南路３１號","OBJECTID":12001},"geometry":{"x":178053.4000000013,"y":2540636.1000000034}},{"attributes":{"ID":12002,"DIS_CODE":0,"TOWNNAME":"柳營區","LI":"篤農里","LIN":"7鄰","STREET":" ","SECT":" ","MAREA":"小腳腿","LANE":" ","ALLEY":" ","HOUSE_NO":"２４１號之１","E_COORD97":185333.17000000001,"N_COORD97":2576506.0499999998,"ADDRESS":"小腳腿２４１號之１","OBJECTID":12002},"geometry":{"x":185333.16999999993,"y":2576506.0500000026}},{"attributes":{"ID":12003,"DIS_CODE":0,"TOWNNAME":"歸仁區","LI":"歸仁里","LIN":"13鄰","STREET":"文化街","SECT":"一段","MAREA":" ","LANE":" ","ALLEY":" ","HOUSE_NO":"１３５號","E_COORD97":177875.98999999999,"N_COORD97":2541118.0499999998,"ADDRESS":"文化街一段１３５號","OBJECTID":12003},"geometry":{"x":177875.99000000022,"y":2541118.0500000007}},{"attributes":{"ID":12004,"DIS_CODE":0,"TOWNNAME":"歸仁區","LI":"歸仁里","LIN":"13鄰","STREET":"和平二街","SECT":" ","MAREA":" ","LANE":" ","ALLEY":" ","HOUSE_NO":"３號","E_COORD97":177884.23999999999,"N_COORD97":2541072.04,"ADDRESS":"和平二街３號","OBJECTID":12004},"geometry":{"x":177884.24000000022,"y":2541072.0399999991}},{"attributes":{"ID":12005,"DIS_CODE":0,"TOWNNAME":"歸仁區","LI":"歸仁里","LIN":"13鄰","STREET":"文化街","SECT":"一段","MAREA":" ","LANE":" ","ALLEY":" ","HOUSE_NO":"１３３號","E_COORD97":177880.09,"N_COORD97":2541118.0499999998,"ADDRESS":"文化街一段１３３號","OBJECTID":12005},"geometry":{"x":177880.08999999892,"y":2541118.0500000007}},{"attributes":{"ID":12006,"DIS_CODE":0,"TOWNNAME":"歸仁區","LI":"崙頂里","LIN":"13鄰","STREET":"成功路","SECT":"二段","MAREA":" ","LANE":" ","ALLEY":" ","HOUSE_NO":"１７０號","E_COORD97":177936.73999999999,"N_COORD97":2539714.25,"ADDRESS":"成功路二段１７０號","OBJECTID":12006},"geometry":{"x":177936.74000000022,"y":2539714.2500000019}},{"attributes":{"ID":12007,"DIS_CODE":0,"TOWNNAME":"歸仁區","LI":"新厝里","LIN":"13鄰","STREET":"大成路","SECT":" ","MAREA":" ","LANE":" ","ALLEY":" ","HOUSE_NO":"２５號","E_COORD97":177581.17000000001,"N_COORD97":2540458.5899999999,"ADDRESS":"大成路２５號","OBJECTID":12007},"geometry":{"x":177581.16999999993,"y":2540458.5899999999}},{"attributes":{"ID":12008,"DIS_CODE":0,"TOWNNAME":"歸仁區","LI":"武東里","LIN":"13鄰","STREET":" ","SECT":" ","MAREA":"明德新村","LANE":" ","ALLEY":" ","HOUSE_NO":"１９６號","E_COORD97":175104.44,"N_COORD97":2536113.27,"ADDRESS":"明德新村１９６號","OBJECTID":12008},"geometry":{"x":175104.44000000041,"y":2536113.2700000014}},{"attributes":{"ID":12009,"DIS_CODE":0,"TOWNNAME":"永康區","LI":"成功里","LIN":"40鄰","STREET":"中華路","SECT":" ","MAREA":" ","LANE":"１５４巷","ALLEY":"６９弄","HOUSE_NO":"７號","E_COORD97":171765.22,"N_COORD97":2544907.0600000001,"ADDRESS":"中華路１５４巷６９弄７號","OBJECTID":12009},"geometry":{"x":171765.22000000067,"y":2544907.0600000024}},{"attributes":{"ID":12010,"DIS_CODE":0,"TOWNNAME":"歸仁區","LI":"武東里","LIN":"13鄰","STREET":" ","SECT":" ","MAREA":"明德新村","LANE":" ","ALLEY":" ","HOUSE_NO":"１６４號","E_COORD97":175019.34,"N_COORD97":2536124.27,"ADDRESS":"明德新村１６４號","OBJECTID":12010},"geometry":{"x":175019.34000000078,"y":2536124.2699999996}},{"attributes":{"ID":12011,"DIS_CODE":0,"TOWNNAME":"歸仁區","LI":"武東里","LIN":"13鄰","STREET":" ","SECT":" ","MAREA":"明德新村","LANE":" ","ALLEY":" ","HOUSE_NO":"５８號","E_COORD97":175113.69,"N_COORD97":2536164.27,"ADDRESS":"明德新村５８號","OBJECTID":12011},"geometry":{"x":175113.69000000227,"y":2536164.2700000014}},{"attributes":{"ID":12012,"DIS_CODE":0,"TOWNNAME":"歸仁區","LI":"武東里","LIN":"13鄰","STREET":" ","SECT":" ","MAREA":"明德新村","LANE":" ","ALLEY":" ","HOUSE_NO":"１２１號","E_COORD97":174991.73999999999,"N_COORD97":2536149.27,"ADDRESS":"明德新村１２１號","OBJECTID":12012},"geometry":{"x":174991.74000000115,"y":2536149.2699999977}},{"attributes":{"ID":12013,"DIS_CODE":0,"TOWNNAME":"柳營區","LI":"篤農里","LIN":"7鄰","STREET":" ","SECT":" ","MAREA":"小腳腿","LANE":" ","ALLEY":" ","HOUSE_NO":"２４１號","E_COORD97":185328.89000000001,"N_COORD97":2576513.1299999999,"ADDRESS":"小腳腿２４１號","OBJECTID":12013},"geometry":{"x":185328.8900000006,"y":2576513.1300000008}},{"attributes":{"ID":12014,"DIS_CODE":0,"TOWNNAME":"柳營區","LI":"篤農里","LIN":"7鄰","STREET":" ","SECT":" ","MAREA":"小腳腿","LANE":" ","ALLEY":" ","HOUSE_NO":"２４２號之１","E_COORD97":185323.20000000001,"N_COORD97":2576480.23,"ADDRESS":"小腳腿２４２號之１","OBJECTID":12014},"geometry":{"x":185323.20000000019,"y":2576480.2300000023}},{"attributes":{"ID":12015,"DIS_CODE":0,"TOWNNAME":"柳營區","LI":"篤農里","LIN":"7鄰","STREET":" ","SECT":" ","MAREA":"小腳腿","LANE":" ","ALLEY":" ","HOUSE_NO":"２４２號之２","E_COORD97":185326.29999999999,"N_COORD97":2576480.1400000001,"ADDRESS":"小腳腿２４２號之２","OBJECTID":12015},"geometry":{"x":185326.30000000075,"y":2576480.1400000043}},{"attributes":{"ID":12016,"DIS_CODE":0,"TOWNNAME":"永康區","LI":"成功里","LIN":"40鄰","STREET":"中華路","SECT":" ","MAREA":" ","LANE":"１５４巷","ALLEY":"６９弄","HOUSE_NO":"５號","E_COORD97":171769.69,"N_COORD97":2544906.8100000001,"ADDRESS":"中華路１５４巷６９弄５號","OBJECTID":12016},"geometry":{"x":171769.69000000134,"y":2544906.8100000005}},{"attributes":{"ID":12017,"DIS_CODE":0,"TOWNNAME":"柳營區","LI":"篤農里","LIN":"7鄰","STREET":" ","SECT":" ","MAREA":"小腳腿","LANE":" ","ALLEY":" ","HOUSE_NO":"２４２號","E_COORD97":185331.14000000001,"N_COORD97":2576480.8700000001,"ADDRESS":"小腳腿２４２號","OBJECTID":12017},"geometry":{"x":185331.13999999966,"y":2576480.870000001}},{"attributes":{"ID":12018,"DIS_CODE":0,"TOWNNAME":"柳營區","LI":"篤農里","LIN":"7鄰","STREET":" ","SECT":" ","MAREA":"小腳腿","LANE":" ","ALLEY":" ","HOUSE_NO":"２４４號","E_COORD97":185364.62,"N_COORD97":2576494.5299999998,"ADDRESS":"小腳腿２４４號","OBJECTID":12018},"geometry":{"x":185364.62000000197,"y":2576494.5300000012}},{"attributes":{"ID":12019,"DIS_CODE":0,"TOWNNAME":"柳營區","LI":"篤農里","LIN":"7鄰","STREET":" ","SECT":" ","MAREA":"小腳腿","LANE":" ","ALLEY":" ","HOUSE_NO":"２４５號","E_COORD97":185386.85999999999,"N_COORD97":2576531,"ADDRESS":"小腳腿２４５號","OBJECTID":12019},"geometry":{"x":185386.8600000022,"y":2576530.9999999981}},{"attributes":{"ID":12020,"DIS_CODE":0,"TOWNNAME":"永康區","LI":"成功里","LIN":"40鄰","STREET":"中華路","SECT":" ","MAREA":" ","LANE":"１５４巷","ALLEY":"６９弄","HOUSE_NO":"１號","E_COORD97":171778.38,"N_COORD97":2544905.5600000001,"ADDRESS":"中華路１５４巷６９弄１號","OBJECTID":12020},"geometry":{"x":171778.37999999989,"y":2544905.5600000005}},{"attributes":{"ID":12021,"DIS_CODE":0,"TOWNNAME":"永康區","LI":"成功里","LIN":"40鄰","STREET":"中華路","SECT":" ","MAREA":" ","LANE":"１５４巷","ALLEY":"６９弄","HOUSE_NO":"１３號","E_COORD97":171753.84,"N_COORD97":2544908.8100000001,"ADDRESS":"中華路１５４巷６９弄１３號","OBJECTID":12021},"geometry":{"x":171753.84000000171,"y":2544908.8100000024}},{"attributes":{"ID":12022,"DIS_CODE":0,"TOWNNAME":"永康區","LI":"成功里","LIN":"40鄰","STREET":"中華路","SECT":" ","MAREA":" ","LANE":"１５４巷","ALLEY":"６９弄","HOUSE_NO":"２７號","E_COORD97":171723.89000000001,"N_COORD97":2544912.0600000001,"ADDRESS":"中華路１５４巷６９弄２７號","OBJECTID":12022},"geometry":{"x":171723.88999999966,"y":2544912.0600000005}},{"attributes":{"ID":12023,"DIS_CODE":0,"TOWNNAME":"永康區","LI":"成功里","LIN":"40鄰","STREET":"中華路","SECT":" ","MAREA":" ","LANE":"１５４巷","ALLEY":"６９弄","HOUSE_NO":"１９號","E_COORD97":171741.13,"N_COORD97":2544910.3100000001,"ADDRESS":"中華路１５４巷６９弄１９號","OBJECTID":12023},"geometry":{"x":171741.12999999989,"y":2544910.3100000005}},{"attributes":{"ID":12024,"DIS_CODE":0,"TOWNNAME":"柳營區","LI":"篤農里","LIN":"7鄰","STREET":" ","SECT":" ","MAREA":"小腳腿","LANE":" ","ALLEY":" ","HOUSE_NO":"２４６號","E_COORD97":185404.32999999999,"N_COORD97":2576556.23,"ADDRESS":"小腳腿２４６號","OBJECTID":12024},"geometry":{"x":185404.33000000101,"y":2576556.2300000004}},{"attributes":{"ID":12025,"DIS_CODE":0,"TOWNNAME":"柳營區","LI":"篤農里","LIN":"7鄰","STREET":" ","SECT":" ","MAREA":"小腳腿","LANE":" ","ALLEY":" ","HOUSE_NO":"２４７號之１","E_COORD97":185394.14999999999,"N_COORD97":2576492.0600000001,"ADDRESS":"小腳腿２４７號之１","OBJECTID":12025},"geometry":{"x":185394.1500000013,"y":2576492.0600000024}},{"attributes":{"ID":12026,"DIS_CODE":0,"TOWNNAME":"柳營區","LI":"篤農里","LIN":"7鄰","STREET":" ","SECT":" ","MAREA":"小腳腿","LANE":" ","ALLEY":" ","HOUSE_NO":"２４７號之２","E_COORD97":185402.67999999999,"N_COORD97":2576499.4300000002,"ADDRESS":"小腳腿２４７號之２","OBJECTID":12026},"geometry":{"x":185402.68000000156,"y":2576499.4299999997}},{"attributes":{"ID":12027,"DIS_CODE":0,"TOWNNAME":"永康區","LI":"成功里","LIN":"40鄰","STREET":"中華路","SECT":" ","MAREA":" ","LANE":"１５４巷","ALLEY":"６９弄","HOUSE_NO":"３３號","E_COORD97":171711.26000000001,"N_COORD97":2544913.8100000001,"ADDRESS":"中華路１５４巷６９弄３３號","OBJECTID":12027},"geometry":{"x":171711.25999999978,"y":2544913.8100000005}},{"attributes":{"ID":12028,"DIS_CODE":0,"TOWNNAME":"永康區","LI":"成功里","LIN":"40鄰","STREET":"中華路","SECT":" ","MAREA":" ","LANE":"１５４巷","ALLEY":"６９弄","HOUSE_NO":"２１號","E_COORD97":171736.66,"N_COORD97":2544910.8100000001,"ADDRESS":"中華路１５４巷６９弄２１號","OBJECTID":12028},"geometry":{"x":171736.66000000201,"y":2544910.8099999987}},{"attributes":{"ID":12029,"DIS_CODE":0,"TOWNNAME":"柳營區","LI":"篤農里","LIN":"7鄰","STREET":" ","SECT":" ","MAREA":"小腳腿","LANE":" ","ALLEY":" ","HOUSE_NO":"２４７號之３","E_COORD97":185403.92000000001,"N_COORD97":2576479.1699999999,"ADDRESS":"小腳腿２４７號之３","OBJECTID":12029},"geometry":{"x":185403.91999999993,"y":2576479.1700000037}},{"attributes":{"ID":12030,"DIS_CODE":0,"TOWNNAME":"歸仁區","LI":"文化里","LIN":"13鄰","STREET":"大德路","SECT":" ","MAREA":" ","LANE":" ","ALLEY":" ","HOUSE_NO":"１８１號","E_COORD97":177324.37,"N_COORD97":2541505.3300000001,"ADDRESS":"大德路１８１號","OBJECTID":12030},"geometry":{"x":177324.37000000197,"y":2541505.3300000001}},{"attributes":{"ID":12031,"DIS_CODE":0,"TOWNNAME":"柳營區","LI":"篤農里","LIN":"7鄰","STREET":" ","SECT":" ","MAREA":"小腳腿","LANE":" ","ALLEY":" ","HOUSE_NO":"２４７號之５","E_COORD97":185403.22,"N_COORD97":2576513.3599999999,"ADDRESS":"小腳腿２４７號之５","OBJECTID":12031},"geometry":{"x":185403.22000000067,"y":2576513.3599999994}},{"attributes":{"ID":12032,"DIS_CODE":0,"TOWNNAME":"歸仁區","LI":"文化里","LIN":"13鄰","STREET":"大德路","SECT":" ","MAREA":" ","LANE":" ","ALLEY":" ","HOUSE_NO":"１８５號","E_COORD97":177312.07000000001,"N_COORD97":2541507.3300000001,"ADDRESS":"大德路１８５號","OBJECTID":12032},"geometry":{"x":177312.07000000123,"y":2541507.3300000019}},{"attributes":{"ID":12033,"DIS_CODE":0,"TOWNNAME":"歸仁區","LI":"文化里","LIN":"13鄰","STREET":"大德路","SECT":" ","MAREA":" ","LANE":" ","ALLEY":" ","HOUSE_NO":"１６９號","E_COORD97":177364.26999999999,"N_COORD97":2541503.3300000001,"ADDRESS":"大德路１６９號","OBJECTID":12033},"geometry":{"x":177364.26999999955,"y":2541503.3300000019}},{"attributes":{"ID":12034,"DIS_CODE":0,"TOWNNAME":"歸仁區","LI":"南興里","LIN":"13鄰","STREET":"文化街","SECT":"三段","MAREA":" ","LANE":" ","ALLEY":" ","HOUSE_NO":"４８６號","E_COORD97":175907.34,"N_COORD97":2541213.3300000001,"ADDRESS":"文化街三段４８６號","OBJECTID":12034},"geometry":{"x":175907.34000000078,"y":2541213.3300000001}},{"attributes":{"ID":12035,"DIS_CODE":0,"TOWNNAME":"歸仁區","LI":"文化里","LIN":"13鄰","STREET":"大德路","SECT":" ","MAREA":" ","LANE":" ","ALLEY":" ","HOUSE_NO":"１６７號","E_COORD97":177370.47,"N_COORD97":2541503.3300000001,"ADDRESS":"大德路１６７號","OBJECTID":12035},"geometry":{"x":177370.46999999974,"y":2541503.3300000019}},{"attributes":{"ID":12036,"DIS_CODE":0,"TOWNNAME":"歸仁區","LI":"南興里","LIN":"13鄰","STREET":"文化街","SECT":"三段","MAREA":" ","LANE":" ","ALLEY":" ","HOUSE_NO":"４８２號","E_COORD97":175916.54000000001,"N_COORD97":2541213.3300000001,"ADDRESS":"文化街三段４８２號","OBJECTID":12036},"geometry":{"x":175916.54000000097,"y":2541213.3300000001}},{"attributes":{"ID":12037,"DIS_CODE":0,"TOWNNAME":"永康區","LI":"成功里","LIN":"40鄰","STREET":"中華路","SECT":" ","MAREA":" ","LANE":"１５４巷","ALLEY":"６９弄","HOUSE_NO":"１７號","E_COORD97":171745.14999999999,"N_COORD97":2544909.8100000001,"ADDRESS":"中華路１５４巷６９弄１７號","OBJECTID":12037},"geometry":{"x":171745.15000000037,"y":2544909.8100000005}},{"attributes":{"ID":12038,"DIS_CODE":0,"TOWNNAME":"仁德區","LI":"仁義里","LIN":"40鄰","STREET":"仁義五街","SECT":" ","MAREA":" ","LANE":"５７巷","ALLEY":"１弄","HOUSE_NO":"３３號","E_COORD97":173520,"N_COORD97":2540462.2599999998,"ADDRESS":"仁義五街５７巷１弄３３號","OBJECTID":12038},"geometry":{"x":173520.00000000093,"y":2540462.2600000035}},{"attributes":{"ID":12039,"DIS_CODE":0,"TOWNNAME":"新營區","LI":"五興里","LIN":"13鄰","STREET":" ","SECT":" ","MAREA":"五間厝","LANE":" ","ALLEY":" ","HOUSE_NO":"１３８號","E_COORD97":175423.78,"N_COORD97":2574301.4399999999,"ADDRESS":"五間厝１３８號","OBJECTID":12039},"geometry":{"x":175423.78000000119,"y":2574301.4400000013}},{"attributes":{"ID":12040,"DIS_CODE":0,"TOWNNAME":"新營區","LI":"五興里","LIN":"13鄰","STREET":" ","SECT":" ","MAREA":"五間厝","LANE":" ","ALLEY":" ","HOUSE_NO":"１３９號","E_COORD97":175434.98999999999,"N_COORD97":2574292.52,"ADDRESS":"五間厝１３９號","OBJECTID":12040},"geometry":{"x":175434.98999999929,"y":2574292.5199999996}},{"attributes":{"ID":12041,"DIS_CODE":0,"TOWNNAME":"新營區","LI":"鐵線里","LIN":"13鄰","STREET":" ","SECT":" ","MAREA":"秀才","LANE":" ","ALLEY":" ","HOUSE_NO":"１之２號","E_COORD97":175206.20000000001,"N_COORD97":2573963.7000000002,"ADDRESS":"秀才１之２號","OBJECTID":12041},"geometry":{"x":175206.20000000019,"y":2573963.7000000011}},{"attributes":{"ID":12042,"DIS_CODE":0,"TOWNNAME":"仁德區","LI":"仁義里","LIN":"40鄰","STREET":"仁義五街","SECT":" ","MAREA":" ","LANE":"５７巷","ALLEY":"１弄","HOUSE_NO":"１８號","E_COORD97":173571.20000000001,"N_COORD97":2540480.2799999998,"ADDRESS":"仁義五街５７巷１弄１８號","OBJECTID":12042},"geometry":{"x":173571.20000000112,"y":2540480.2800000012}},{"attributes":{"ID":12043,"DIS_CODE":0,"TOWNNAME":"仁德區","LI":"仁義里","LIN":"40鄰","STREET":"仁義五街","SECT":" ","MAREA":" ","LANE":"５７巷","ALLEY":"１弄","HOUSE_NO":"４號","E_COORD97":173622.54999999999,"N_COORD97":2540480.5299999998,"ADDRESS":"仁義五街５７巷１弄４號","OBJECTID":12043},"geometry":{"x":173622.55000000075,"y":2540480.5300000031}},{"attributes":{"ID":12044,"DIS_CODE":0,"TOWNNAME":"新營區","LI":"五興里","LIN":"13鄰","STREET":" ","SECT":" ","MAREA":"五間厝","LANE":" ","ALLEY":" ","HOUSE_NO":"１３７號","E_COORD97":175432.07999999999,"N_COORD97":2574323.54,"ADDRESS":"五間厝１３７號","OBJECTID":12044},"geometry":{"x":175432.08000000007,"y":2574323.540000001}},{"attributes":{"ID":12045,"DIS_CODE":0,"TOWNNAME":"仁德區","LI":"仁義里","LIN":"40鄰","STREET":"仁義五街","SECT":" ","MAREA":" ","LANE":"５７巷","ALLEY":"１弄","HOUSE_NO":"４１號","E_COORD97":173493.84,"N_COORD97":2540460.0099999998,"ADDRESS":"仁義五街５７巷１弄４１號","OBJECTID":12045},"geometry":{"x":173493.84000000078,"y":2540460.0099999998}},{"attributes":{"ID":12046,"DIS_CODE":0,"TOWNNAME":"仁德區","LI":"仁義里","LIN":"40鄰","STREET":"仁義五街","SECT":" ","MAREA":" ","LANE":"５７巷","ALLEY":"１弄","HOUSE_NO":"２２號","E_COORD97":173553.51000000001,"N_COORD97":2540479.5299999998,"ADDRESS":"仁義五街５７巷１弄２２號","OBJECTID":12046},"geometry":{"x":173553.51000000071,"y":2540479.5299999993}},{"attributes":{"ID":12047,"DIS_CODE":0,"TOWNNAME":"新營區","LI":"五興里","LIN":"13鄰","STREET":" ","SECT":" ","MAREA":"五間厝","LANE":" ","ALLEY":" ","HOUSE_NO":"１３３號之１","E_COORD97":175446.29999999999,"N_COORD97":2574415.4500000002,"ADDRESS":"五間厝１３３之１號","OBJECTID":12047},"geometry":{"x":175446.30000000075,"y":2574415.4500000011}},{"attributes":{"ID":12048,"DIS_CODE":0,"TOWNNAME":"仁德區","LI":"仁義里","LIN":"40鄰","STREET":"仁義五街","SECT":" ","MAREA":" ","LANE":"５７巷","ALLEY":"１弄","HOUSE_NO":"３號","E_COORD97":173628.34,"N_COORD97":2540469.7599999998,"ADDRESS":"仁義五街５７巷１弄３號","OBJECTID":12048},"geometry":{"x":173628.33999999985,"y":2540469.7600000016}},{"attributes":{"ID":12049,"DIS_CODE":0,"TOWNNAME":"歸仁區","LI":"武東里","LIN":"13鄰","STREET":" ","SECT":" ","MAREA":"明德新村","LANE":" ","ALLEY":" ","HOUSE_NO":"１１８號","E_COORD97":175012.23999999999,"N_COORD97":2536147.27,"ADDRESS":"明德新村１１８號","OBJECTID":12049},"geometry":{"x":175012.24000000022,"y":2536147.2700000014}},{"attributes":{"ID":12050,"DIS_CODE":0,"TOWNNAME":"柳營區","LI":"重溪里","LIN":"7鄰","STREET":" ","SECT":" ","MAREA":"小腳腿","LANE":" ","ALLEY":" ","HOUSE_NO":"６４號","E_COORD97":185223.70999999999,"N_COORD97":2576688.8199999998,"ADDRESS":"小腳腿６４號","OBJECTID":12050},"geometry":{"x":185223.71000000089,"y":2576688.820000004}},{"attributes":{"ID":12051,"DIS_CODE":0,"TOWNNAME":"永康區","LI":"北灣里","LIN":"40鄰","STREET":"大同街","SECT":" ","MAREA":" ","LANE":"４１３巷","ALLEY":"１８弄","HOUSE_NO":"１５號","E_COORD97":174592.85000000001,"N_COORD97":2546259.4399999999,"ADDRESS":"大同街４１３巷１８弄１５號","OBJECTID":12051},"geometry":{"x":174592.8499999987,"y":2546259.4400000013}},{"attributes":{"ID":12052,"DIS_CODE":0,"TOWNNAME":"柳營區","LI":"重溪里","LIN":"7鄰","STREET":" ","SECT":" ","MAREA":"小腳腿","LANE":" ","ALLEY":" ","HOUSE_NO":"６５號","E_COORD97":185254.79999999999,"N_COORD97":2576671.5,"ADDRESS":"小腳腿６５號","OBJECTID":12052},"geometry":{"x":185254.80000000075,"y":2576671.5000000019}},{"attributes":{"ID":12053,"DIS_CODE":0,"TOWNNAME":"柳營區","LI":"重溪里","LIN":"7鄰","STREET":" ","SECT":" ","MAREA":"小腳腿","LANE":" ","ALLEY":" ","HOUSE_NO":"６６號之１","E_COORD97":185267.51000000001,"N_COORD97":2576639.5800000001,"ADDRESS":"小腳腿６６號之１","OBJECTID":12053},"geometry":{"x":185267.50999999978,"y":2576639.5800000019}},{"attributes":{"ID":12054,"DIS_CODE":0,"TOWNNAME":"柳營區","LI":"重溪里","LIN":"7鄰","STREET":" ","SECT":" ","MAREA":"小腳腿","LANE":" ","ALLEY":" ","HOUSE_NO":"６６號","E_COORD97":185248.37,"N_COORD97":2576656.6499999999,"ADDRESS":"小腳腿６６號","OBJECTID":12054},"geometry":{"x":185248.37000000104,"y":2576656.6500000022}},{"attributes":{"ID":12055,"DIS_CODE":0,"TOWNNAME":"柳營區","LI":"重溪里","LIN":"7鄰","STREET":" ","SECT":" ","MAREA":"小腳腿","LANE":" ","ALLEY":" ","HOUSE_NO":"６７號","E_COORD97":185239.62,"N_COORD97":2576627.4300000002,"ADDRESS":"小腳腿６７號","OBJECTID":12055},"geometry":{"x":185239.62000000104,"y":2576627.4300000016}},{"attributes":{"ID":12056,"DIS_CODE":0,"TOWNNAME":"柳營區","LI":"重溪里","LIN":"7鄰","STREET":" ","SECT":" ","MAREA":"小腳腿","LANE":" ","ALLEY":" ","HOUSE_NO":"６９號之１","E_COORD97":185271.57999999999,"N_COORD97":2576621.3500000001,"ADDRESS":"小腳腿６９號之１","OBJECTID":12056},"geometry":{"x":185271.58000000194,"y":2576621.3500000015}},{"attributes":{"ID":12057,"DIS_CODE":0,"TOWNNAME":"柳營區","LI":"重溪里","LIN":"7鄰","STREET":" ","SECT":" ","MAREA":"小腳腿","LANE":" ","ALLEY":" ","HOUSE_NO":"６９號之２","E_COORD97":185270.92000000001,"N_COORD97":2576617.0099999998,"ADDRESS":"小腳腿６９號之２","OBJECTID":12057},"geometry":{"x":185270.92000000086,"y":2576617.0100000016}},{"attributes":{"ID":12058,"DIS_CODE":0,"TOWNNAME":"柳營區","LI":"重溪里","LIN":"7鄰","STREET":" ","SECT":" ","MAREA":"小腳腿","LANE":" ","ALLEY":" ","HOUSE_NO":"６９號","E_COORD97":185270.85999999999,"N_COORD97":2576612.1699999999,"ADDRESS":"小腳腿６９號","OBJECTID":12058},"geometry":{"x":185270.86000000034,"y":2576612.1700000018}},{"attributes":{"ID":12059,"DIS_CODE":0,"TOWNNAME":"西港區","LI":"檨林里","LIN":"7鄰","STREET":" ","SECT":" ","MAREA":"檨子林","LANE":" ","ALLEY":" ","HOUSE_NO":"５０號之１","E_COORD97":171250.87,"N_COORD97":2559583.8500000001,"ADDRESS":"檨子林５０號之１","OBJECTID":12059},"geometry":{"x":171250.87000000104,"y":2559583.8500000015}},{"attributes":{"ID":12060,"DIS_CODE":0,"TOWNNAME":"永康區","LI":"勝利里","LIN":"40鄰","STREET":"中華一路","SECT":" ","MAREA":" ","LANE":"１８２巷","ALLEY":"２弄","HOUSE_NO":"６號","E_COORD97":171526.34,"N_COORD97":2545003.96,"ADDRESS":"中華一路１８２巷２弄６號","OBJECTID":12060},"geometry":{"x":171526.33999999985,"y":2545003.9600000009}},{"attributes":{"ID":12061,"DIS_CODE":0,"TOWNNAME":"新營區","LI":"三仙里","LIN":"13鄰","STREET":"武昌街","SECT":" ","MAREA":" ","LANE":" ","ALLEY":" ","HOUSE_NO":"６３號之１","E_COORD97":179594.48999999999,"N_COORD97":2578274.5800000001,"ADDRESS":"武昌街６３號之１","OBJECTID":12061},"geometry":{"x":179594.49000000022,"y":2578274.5800000019}},{"attributes":{"ID":12062,"DIS_CODE":0,"TOWNNAME":"新營區","LI":"民權里","LIN":"13鄰","STREET":"信義街","SECT":" ","MAREA":" ","LANE":" ","ALLEY":" ","HOUSE_NO":"５７號之３","E_COORD97":179918.37,"N_COORD97":2578389.3199999998,"ADDRESS":"信義街５７號之３","OBJECTID":12062},"geometry":{"x":179918.37000000104,"y":2578389.3200000003}},{"attributes":{"ID":12063,"DIS_CODE":0,"TOWNNAME":"西港區","LI":"檨林里","LIN":"7鄰","STREET":" ","SECT":" ","MAREA":"檨子林","LANE":" ","ALLEY":" ","HOUSE_NO":"５０號","E_COORD97":171285.98000000001,"N_COORD97":2559500.4199999999,"ADDRESS":"檨子林５０號","OBJECTID":12063},"geometry":{"x":171285.98000000138,"y":2559500.4199999999}},{"attributes":{"ID":12064,"DIS_CODE":0,"TOWNNAME":"西港區","LI":"檨林里","LIN":"7鄰","STREET":" ","SECT":" ","MAREA":"檨子林","LANE":" ","ALLEY":" ","HOUSE_NO":"５３號","E_COORD97":171271.06,"N_COORD97":2559551.2999999998,"ADDRESS":"檨子林５３號","OBJECTID":12064},"geometry":{"x":171271.06000000052,"y":2559551.3000000026}},{"attributes":{"ID":12065,"DIS_CODE":0,"TOWNNAME":"新營區","LI":"三仙里","LIN":"13鄰","STREET":"武昌街","SECT":" ","MAREA":" ","LANE":" ","ALLEY":" ","HOUSE_NO":"６５號","E_COORD97":179592.48999999999,"N_COORD97":2578301.1000000001,"ADDRESS":"武昌街６５號","OBJECTID":12065},"geometry":{"x":179592.49000000115,"y":2578301.1000000015}},{"attributes":{"ID":12066,"DIS_CODE":0,"TOWNNAME":"東山區","LI":"高原里","LIN":"13鄰","STREET":" ","SECT":" ","MAREA":"高原","LANE":" ","ALLEY":" ","HOUSE_NO":"１０８號之５","E_COORD97":200582.42000000001,"N_COORD97":2576103.79,"ADDRESS":"高原１０８號之５","OBJECTID":12066},"geometry":{"x":200582.42000000086,"y":2576103.7899999991}},{"attributes":{"ID":12067,"DIS_CODE":0,"TOWNNAME":"東山區","LI":"高原里","LIN":"13鄰","STREET":" ","SECT":" ","MAREA":"高原","LANE":" ","ALLEY":" ","HOUSE_NO":"１０９號之１１","E_COORD97":199683.10000000001,"N_COORD97":2575366.9300000002,"ADDRESS":"高原１０９號之１１","OBJECTID":12067},"geometry":{"x":199683.09999999963,"y":2575366.9299999997}},{"attributes":{"ID":12068,"DIS_CODE":0,"TOWNNAME":"東山區","LI":"高原里","LIN":"13鄰","STREET":" ","SECT":" ","MAREA":"高原","LANE":" ","ALLEY":" ","HOUSE_NO":"１０９號之１５","E_COORD97":200252.72,"N_COORD97":2575345.0499999998,"ADDRESS":"高原１０９號之１５","OBJECTID":12068},"geometry":{"x":200252.72000000067,"y":2575345.0500000045}},{"attributes":{"ID":12069,"DIS_CODE":0,"TOWNNAME":"東山區","LI":"高原里","LIN":"13鄰","STREET":" ","SECT":" ","MAREA":"高原","LANE":" ","ALLEY":" ","HOUSE_NO":"１０９號之１","E_COORD97":199791.32999999999,"N_COORD97":2575390.4300000002,"ADDRESS":"高原１０９號之１","OBJECTID":12069},"geometry":{"x":199791.33000000101,"y":2575390.4300000016}},{"attributes":{"ID":12070,"DIS_CODE":0,"TOWNNAME":"東山區","LI":"高原里","LIN":"13鄰","STREET":" ","SECT":" ","MAREA":"高原","LANE":" ","ALLEY":" ","HOUSE_NO":"１０９號之３","E_COORD97":200596.87,"N_COORD97":2575355.6699999999,"ADDRESS":"高原１０９號之３","OBJECTID":12070},"geometry":{"x":200596.87000000011,"y":2575355.6699999999}},{"attributes":{"ID":12071,"DIS_CODE":0,"TOWNNAME":"東山區","LI":"高原里","LIN":"13鄰","STREET":" ","SECT":" ","MAREA":"高原","LANE":" ","ALLEY":" ","HOUSE_NO":"１０９號之５","E_COORD97":200323.82000000001,"N_COORD97":2575699.7799999998,"ADDRESS":"高原１０９號之５","OBJECTID":12071},"geometry":{"x":200323.82000000123,"y":2575699.7799999993}},{"attributes":{"ID":12072,"DIS_CODE":0,"TOWNNAME":"東山區","LI":"高原里","LIN":"13鄰","STREET":" ","SECT":" ","MAREA":"高原","LANE":" ","ALLEY":" ","HOUSE_NO":"１０９號之６","E_COORD97":199613.06,"N_COORD97":2575366.04,"ADDRESS":"高原１０９號之６","OBJECTID":12072},"geometry":{"x":199613.06000000052,"y":2575366.0399999991}},{"attributes":{"ID":12073,"DIS_CODE":0,"TOWNNAME":"東山區","LI":"高原里","LIN":"13鄰","STREET":" ","SECT":" ","MAREA":"高原","LANE":" ","ALLEY":" ","HOUSE_NO":"１０９號","E_COORD97":200013.51999999999,"N_COORD97":2575249.9300000002,"ADDRESS":"高原１０９號","OBJECTID":12073},"geometry":{"x":200013.52000000048,"y":2575249.9300000034}},{"attributes":{"ID":12074,"DIS_CODE":0,"TOWNNAME":"仁德區","LI":"仁義里","LIN":"40鄰","STREET":"仁義五街","SECT":" ","MAREA":" ","LANE":"５７巷","ALLEY":"１弄","HOUSE_NO":"２３號","E_COORD97":173557.89000000001,"N_COORD97":2540465.0099999998,"ADDRESS":"仁義五街５７巷１弄２３號","OBJECTID":12074},"geometry":{"x":173557.88999999966,"y":2540465.0100000016}},{"attributes":{"ID":12075,"DIS_CODE":0,"TOWNNAME":"西港區","LI":"檨林里","LIN":"7鄰","STREET":" ","SECT":" ","MAREA":"檨子林","LANE":" ","ALLEY":" ","HOUSE_NO":"５４號之１","E_COORD97":171265.38,"N_COORD97":2559538.27,"ADDRESS":"檨子林５４號之１","OBJECTID":12075},"geometry":{"x":171265.38000000175,"y":2559538.2699999996}},{"attributes":{"ID":12076,"DIS_CODE":0,"TOWNNAME":"仁德區","LI":"仁義里","LIN":"40鄰","STREET":"仁義五街","SECT":" ","MAREA":" ","LANE":"５７巷","ALLEY":"１弄","HOUSE_NO":"２８號","E_COORD97":173529,"N_COORD97":2540475.2799999998,"ADDRESS":"仁義五街５７巷１弄２８號","OBJECTID":12076},"geometry":{"x":173529,"y":2540475.2800000031}},{"attributes":{"ID":12077,"DIS_CODE":0,"TOWNNAME":"西港區","LI":"檨林里","LIN":"7鄰","STREET":" ","SECT":" ","MAREA":"檨子林","LANE":" ","ALLEY":" ","HOUSE_NO":"５４號","E_COORD97":171281.12,"N_COORD97":2559518.48,"ADDRESS":"檨子林５４號","OBJECTID":12077},"geometry":{"x":171281.12000000104,"y":2559518.4800000004}},{"attributes":{"ID":12078,"DIS_CODE":0,"TOWNNAME":"永康區","LI":"成功里","LIN":"40鄰","STREET":"中華路","SECT":" ","MAREA":" ","LANE":"１５４巷","ALLEY":"６９弄","HOUSE_NO":"２３號","E_COORD97":171732.59,"N_COORD97":2544911.3100000001,"ADDRESS":"中華路１５４巷６９弄２３號","OBJECTID":12078},"geometry":{"x":171732.59000000078,"y":2544911.3100000024}},{"attributes":{"ID":12079,"DIS_CODE":0,"TOWNNAME":"永康區","LI":"成功里","LIN":"40鄰","STREET":"中華路","SECT":" ","MAREA":" ","LANE":"１５４巷","ALLEY":"６９弄","HOUSE_NO":"３１號","E_COORD97":171715.39999999999,"N_COORD97":2544913.3100000001,"ADDRESS":"中華路１５４巷６９弄３１號","OBJECTID":12079},"geometry":{"x":171715.4000000013,"y":2544913.3100000005}},{"attributes":{"ID":12080,"DIS_CODE":0,"TOWNNAME":"西港區","LI":"檨林里","LIN":"7鄰","STREET":" ","SECT":" ","MAREA":"檨子林","LANE":" ","ALLEY":" ","HOUSE_NO":"５５號","E_COORD97":171280.95000000001,"N_COORD97":2559556.4300000002,"ADDRESS":"檨子林５５號","OBJECTID":12080},"geometry":{"x":171280.95000000112,"y":2559556.4300000016}},{"attributes":{"ID":12081,"DIS_CODE":0,"TOWNNAME":"西港區","LI":"檨林里","LIN":"7鄰","STREET":" ","SECT":" ","MAREA":"檨子林","LANE":" ","ALLEY":" ","HOUSE_NO":"５７號","E_COORD97":171311.60999999999,"N_COORD97":2559565.9500000002,"ADDRESS":"檨子林５７號","OBJECTID":12081},"geometry":{"x":171311.6099999994,"y":2559565.9500000011}},{"attributes":{"ID":12082,"DIS_CODE":0,"TOWNNAME":"永康區","LI":"成功里","LIN":"40鄰","STREET":"中華路","SECT":" ","MAREA":" ","LANE":"１５４巷","ALLEY":"６９弄","HOUSE_NO":"３９號","E_COORD97":171698.01999999999,"N_COORD97":2544915.3100000001,"ADDRESS":"中華路１５４巷６９弄３９號","OBJECTID":12082},"geometry":{"x":171698.02000000142,"y":2544915.3100000024}},{"attributes":{"ID":12083,"DIS_CODE":0,"TOWNNAME":"永康區","LI":"成功里","LIN":"40鄰","STREET":"中華路","SECT":" ","MAREA":" ","LANE":"１５４巷","ALLEY":"６９弄","HOUSE_NO":"１５號","E_COORD97":171749.63,"N_COORD97":2544909.0600000001,"ADDRESS":"中華路１５４巷６９弄１５號","OBJECTID":12083},"geometry":{"x":171749.62999999989,"y":2544909.0599999987}},{"attributes":{"ID":12084,"DIS_CODE":0,"TOWNNAME":"永康區","LI":"成功里","LIN":"40鄰","STREET":"中華路","SECT":" ","MAREA":" ","LANE":"１５４巷","ALLEY":"６９弄","HOUSE_NO":"３７號","E_COORD97":171702.57000000001,"N_COORD97":2544914.8100000001,"ADDRESS":"中華路１５４巷６９弄３７號","OBJECTID":12084},"geometry":{"x":171702.57000000123,"y":2544914.8100000024}},{"attributes":{"ID":12085,"DIS_CODE":0,"TOWNNAME":"西港區","LI":"檨林里","LIN":"7鄰","STREET":" ","SECT":" ","MAREA":"檨子林","LANE":" ","ALLEY":" ","HOUSE_NO":"５８號之１","E_COORD97":171308.45999999999,"N_COORD97":2559581.1899999999,"ADDRESS":"檨子林５８號之１","OBJECTID":12085},"geometry":{"x":171308.45999999996,"y":2559581.1900000013}},{"attributes":{"ID":12086,"DIS_CODE":0,"TOWNNAME":"永康區","LI":"\u25A0行里","LIN":"40鄰","STREET":"永安路","SECT":" ","MAREA":" ","LANE":"１０５巷","ALLEY":"４６弄","HOUSE_NO":"１８號","E_COORD97":172603.54999999999,"N_COORD97":2549360.0600000001,"ADDRESS":"永安路１０５巷４６弄１８號","OBJECTID":12086},"geometry":{"x":172603.55000000075,"y":2549360.0600000005}},{"attributes":{"ID":12087,"DIS_CODE":0,"TOWNNAME":"永康區","LI":"\u25A0行里","LIN":"40鄰","STREET":"永安路","SECT":" ","MAREA":" ","LANE":"１０５巷","ALLEY":"４６弄","HOUSE_NO":"２９號","E_COORD97":172574.48000000001,"N_COORD97":2549378.0600000001,"ADDRESS":"永安路１０５巷４６弄２９號","OBJECTID":12087},"geometry":{"x":172574.48000000138,"y":2549378.0600000042}},{"attributes":{"ID":12088,"DIS_CODE":0,"TOWNNAME":"永康區","LI":"\u25A0行里","LIN":"40鄰","STREET":"永安路","SECT":" ","MAREA":" ","LANE":"１０５巷","ALLEY":"４６弄","HOUSE_NO":"２０號","E_COORD97":172613.95999999999,"N_COORD97":2549360.8100000001,"ADDRESS":"永安路１０５巷４６弄２０號","OBJECTID":12088},"geometry":{"x":172613.95999999996,"y":2549360.8100000024}},{"attributes":{"ID":12089,"DIS_CODE":0,"TOWNNAME":"關廟區","LI":"東勢里","LIN":"13鄰","STREET":"東榮街","SECT":" ","MAREA":" ","LANE":"１０５巷","ALLEY":" ","HOUSE_NO":"６號","E_COORD97":182161.92999999999,"N_COORD97":2539373.1099999999,"ADDRESS":"東榮街１０５巷６號","OBJECTID":12089},"geometry":{"x":182161.93000000063,"y":2539373.1099999994}},{"attributes":{"ID":12090,"DIS_CODE":0,"TOWNNAME":"歸仁區","LI":"歸仁里","LIN":"13鄰","STREET":"信義北路","SECT":" ","MAREA":" ","LANE":" ","ALLEY":" ","HOUSE_NO":"１２７號","E_COORD97":177939.35000000001,"N_COORD97":2541119.04,"ADDRESS":"信義北路１２７號","OBJECTID":12090},"geometry":{"x":177939.35000000149,"y":2541119.040000001}},{"attributes":{"ID":12091,"DIS_CODE":0,"TOWNNAME":"關廟區","LI":"北花里","LIN":"13鄰","STREET":"中正路","SECT":" ","MAREA":" ","LANE":" ","ALLEY":" ","HOUSE_NO":"３６６號","E_COORD97":182785.16,"N_COORD97":2540827.25,"ADDRESS":"中正路３６６號","OBJECTID":12091},"geometry":{"x":182785.16000000015,"y":2540827.25}},{"attributes":{"ID":12092,"DIS_CODE":0,"TOWNNAME":"永康區","LI":"\u25A0行里","LIN":"40鄰","STREET":"永安路","SECT":" ","MAREA":" ","LANE":"１０５巷","ALLEY":"４６弄","HOUSE_NO":"２８號","E_COORD97":172607.41,"N_COORD97":2549382.0600000001,"ADDRESS":"永安路１０５巷４６弄２８號","OBJECTID":12092},"geometry":{"x":172607.41000000015,"y":2549382.0600000024}},{"attributes":{"ID":12093,"DIS_CODE":0,"TOWNNAME":"永康區","LI":"\u25A0行里","LIN":"40鄰","STREET":"永安路","SECT":" ","MAREA":" ","LANE":"１０５巷","ALLEY":"４６弄","HOUSE_NO":"２３號","E_COORD97":172571.82000000001,"N_COORD97":2549371.8100000001,"ADDRESS":"永安路１０５巷４６弄２３號","OBJECTID":12093},"geometry":{"x":172571.82000000123,"y":2549371.8100000005}},{"attributes":{"ID":12094,"DIS_CODE":0,"TOWNNAME":"永康區","LI":"\u25A0行里","LIN":"40鄰","STREET":"永安路","SECT":" ","MAREA":" ","LANE":"１０５巷","ALLEY":"４６弄","HOUSE_NO":"３０號","E_COORD97":172614.04999999999,"N_COORD97":2549382.3100000001,"ADDRESS":"永安路１０５巷４６弄３０號","OBJECTID":12094},"geometry":{"x":172614.05000000075,"y":2549382.3100000005}},{"attributes":{"ID":12095,"DIS_CODE":0,"TOWNNAME":"永康區","LI":"\u25A0行里","LIN":"40鄰","STREET":"永安路","SECT":" ","MAREA":" ","LANE":"１０５巷","ALLEY":"４６弄","HOUSE_NO":"２５號","E_COORD97":172586.32000000001,"N_COORD97":2549378.5600000001,"ADDRESS":"永安路１０５巷４６弄２５號","OBJECTID":12095},"geometry":{"x":172586.3200000003,"y":2549378.5600000024}},{"attributes":{"ID":12096,"DIS_CODE":0,"TOWNNAME":"永康區","LI":"\u25A0行里","LIN":"40鄰","STREET":"永安路","SECT":" ","MAREA":" ","LANE":"１０５巷","ALLEY":"４６弄","HOUSE_NO":"２２號","E_COORD97":172603.57000000001,"N_COORD97":2549371.0600000001,"ADDRESS":"永安路１０５巷４６弄２２號","OBJECTID":12096},"geometry":{"x":172603.56999999937,"y":2549371.0600000042}},{"attributes":{"ID":12097,"DIS_CODE":0,"TOWNNAME":"永康區","LI":"\u25A0行里","LIN":"40鄰","STREET":"永安路","SECT":" ","MAREA":" ","LANE":"１０５巷","ALLEY":"４０弄","HOUSE_NO":"２６號","E_COORD97":172683.37,"N_COORD97":2549326.0699999998,"ADDRESS":"永安路１０５巷４０弄２６號","OBJECTID":12097},"geometry":{"x":172683.37000000104,"y":2549326.0700000003}},{"attributes":{"ID":12098,"DIS_CODE":0,"TOWNNAME":"永康區","LI":"\u25A0行里","LIN":"40鄰","STREET":"永安路","SECT":" ","MAREA":" ","LANE":"１０５巷","ALLEY":"４０弄","HOUSE_NO":"３８號","E_COORD97":172690.94,"N_COORD97":2549341.5099999998,"ADDRESS":"永安路１０５巷４０弄３８號","OBJECTID":12098},"geometry":{"x":172690.94000000041,"y":2549341.5100000016}},{"attributes":{"ID":12099,"DIS_CODE":0,"TOWNNAME":"永康區","LI":"\u25A0行里","LIN":"40鄰","STREET":"永安路","SECT":" ","MAREA":" ","LANE":"１０５巷","ALLEY":"４０弄","HOUSE_NO":"２２號","E_COORD97":172674.23000000001,"N_COORD97":2549326.0699999998,"ADDRESS":"永安路１０５巷４０弄２２號","OBJECTID":12099},"geometry":{"x":172674.23000000138,"y":2549326.0700000003}},{"attributes":{"ID":12100,"DIS_CODE":0,"TOWNNAME":"永康區","LI":"\u25A0行里","LIN":"40鄰","STREET":"永安路","SECT":" ","MAREA":" ","LANE":"１０５巷","ALLEY":"４０弄","HOUSE_NO":"１８號","E_COORD97":172664.87,"N_COORD97":2549330.3199999998,"ADDRESS":"永安路１０５巷４０弄１８號","OBJECTID":12100},"geometry":{"x":172664.87000000104,"y":2549330.3200000003}},{"attributes":{"ID":12101,"DIS_CODE":0,"TOWNNAME":"永康區","LI":"\u25A0行里","LIN":"40鄰","STREET":"永安路","SECT":" ","MAREA":" ","LANE":"１０５巷","ALLEY":"４０弄","HOUSE_NO":"１２號","E_COORD97":172642.54000000001,"N_COORD97":2549331.0699999998,"ADDRESS":"永安路１０５巷４０弄１２號","OBJECTID":12101},"geometry":{"x":172642.5400000019,"y":2549331.0700000022}},{"attributes":{"ID":12102,"DIS_CODE":0,"TOWNNAME":"永康區","LI":"\u25A0行里","LIN":"40鄰","STREET":"永安路","SECT":" ","MAREA":" ","LANE":"１０５巷","ALLEY":"４０弄","HOUSE_NO":"８號","E_COORD97":172641.67999999999,"N_COORD97":2549322.8199999998,"ADDRESS":"永安路１０５巷４０弄８號","OBJECTID":12102},"geometry":{"x":172641.68000000063,"y":2549322.8200000022}},{"attributes":{"ID":12103,"DIS_CODE":0,"TOWNNAME":"永康區","LI":"\u25A0行里","LIN":"40鄰","STREET":"永安路","SECT":" ","MAREA":" ","LANE":"１０５巷","ALLEY":"４０弄","HOUSE_NO":"１６號","E_COORD97":172660.78,"N_COORD97":2549330.3199999998,"ADDRESS":"永安路１０５巷４０弄１６號","OBJECTID":12103},"geometry":{"x":172660.78000000026,"y":2549330.3200000003}},{"attributes":{"ID":12104,"DIS_CODE":0,"TOWNNAME":"永康區","LI":"\u25A0行里","LIN":"40鄰","STREET":"永安路","SECT":" ","MAREA":" ","LANE":"１０５巷","ALLEY":"４０弄","HOUSE_NO":"２８號","E_COORD97":172687.92999999999,"N_COORD97":2549326.0699999998,"ADDRESS":"永安路１０５巷４０弄２８號","OBJECTID":12104},"geometry":{"x":172687.9299999997,"y":2549326.0700000003}},{"attributes":{"ID":12105,"DIS_CODE":0,"TOWNNAME":"永康區","LI":"\u25A0行里","LIN":"40鄰","STREET":"永安路","SECT":" ","MAREA":" ","LANE":"１０５巷","ALLEY":"４０弄","HOUSE_NO":"３４號","E_COORD97":172701.01999999999,"N_COORD97":2549326.8199999998,"ADDRESS":"永安路１０５巷４０弄３４號","OBJECTID":12105},"geometry":{"x":172701.01999999955,"y":2549326.8200000003}},{"attributes":{"ID":12106,"DIS_CODE":0,"TOWNNAME":"永康區","LI":"\u25A0行里","LIN":"40鄰","STREET":"永安路","SECT":" ","MAREA":" ","LANE":"１０５巷","ALLEY":"４６弄","HOUSE_NO":"５號","E_COORD97":172588.73999999999,"N_COORD97":2549317.6200000001,"ADDRESS":"永安路１０５巷４６弄５號","OBJECTID":12106},"geometry":{"x":172588.74000000022,"y":2549317.6200000029}},{"attributes":{"ID":12107,"DIS_CODE":0,"TOWNNAME":"永康區","LI":"\u25A0行里","LIN":"40鄰","STREET":"永安路","SECT":" ","MAREA":" ","LANE":"１０５巷","ALLEY":"４０弄","HOUSE_NO":"４８號","E_COORD97":172672.73000000001,"N_COORD97":2549347.0699999998,"ADDRESS":"永安路１０５巷４０弄４８號","OBJECTID":12107},"geometry":{"x":172672.73000000138,"y":2549347.070000004}},{"attributes":{"ID":12108,"DIS_CODE":0,"TOWNNAME":"西港區","LI":"檨林里","LIN":"7鄰","STREET":" ","SECT":" ","MAREA":"檨子林","LANE":" ","ALLEY":" ","HOUSE_NO":"５８號之２","E_COORD97":171352.39999999999,"N_COORD97":2559582.29,"ADDRESS":"檨子林５８號之２","OBJECTID":12108},"geometry":{"x":171352.4000000013,"y":2559582.2899999991}},{"attributes":{"ID":12109,"DIS_CODE":0,"TOWNNAME":"北門區","LI":"永華里","LIN":"7鄰","STREET":" ","SECT":" ","MAREA":"井子\u25A0","LANE":" ","ALLEY":" ","HOUSE_NO":"５９號","E_COORD97":158936.70000000001,"N_COORD97":2573447.1200000001,"ADDRESS":"井子\u25A0５９號","OBJECTID":12109},"geometry":{"x":158936.70000000112,"y":2573447.1200000029}},{"attributes":{"ID":12110,"DIS_CODE":0,"TOWNNAME":"北門區","LI":"永華里","LIN":"7鄰","STREET":" ","SECT":" ","MAREA":"井子\u25A0","LANE":" ","ALLEY":" ","HOUSE_NO":"６０號","E_COORD97":158857.14000000001,"N_COORD97":2573298.5499999998,"ADDRESS":"井子\u25A0６０號","OBJECTID":12110},"geometry":{"x":158857.13999999966,"y":2573298.5500000026}},{"attributes":{"ID":12111,"DIS_CODE":0,"TOWNNAME":"北門區","LI":"永華里","LIN":"7鄰","STREET":" ","SECT":" ","MAREA":"井子\u25A0","LANE":" ","ALLEY":" ","HOUSE_NO":"６１號","E_COORD97":158823.20000000001,"N_COORD97":2573250.3100000001,"ADDRESS":"井子\u25A0６１號","OBJECTID":12111},"geometry":{"x":158823.20000000112,"y":2573250.3100000005}},{"attributes":{"ID":12112,"DIS_CODE":0,"TOWNNAME":"北門區","LI":"永華里","LIN":"7鄰","STREET":" ","SECT":" ","MAREA":"井子\u25A0","LANE":" ","ALLEY":" ","HOUSE_NO":"６２號","E_COORD97":158796.48999999999,"N_COORD97":2573226.1800000002,"ADDRESS":"井子\u25A0６２號","OBJECTID":12112},"geometry":{"x":158796.49000000022,"y":2573226.1799999997}},{"attributes":{"ID":12113,"DIS_CODE":0,"TOWNNAME":"北門區","LI":"永華里","LIN":"7鄰","STREET":" ","SECT":" ","MAREA":"井子\u25A0","LANE":" ","ALLEY":" ","HOUSE_NO":"６３號","E_COORD97":158830.79999999999,"N_COORD97":2573300.75,"ADDRESS":"井子\u25A0６３號","OBJECTID":12113},"geometry":{"x":158830.79999999981,"y":2573300.75}},{"attributes":{"ID":12114,"DIS_CODE":0,"TOWNNAME":"北門區","LI":"永華里","LIN":"7鄰","STREET":" ","SECT":" ","MAREA":"井子\u25A0","LANE":" ","ALLEY":" ","HOUSE_NO":"６４號","E_COORD97":158800.67000000001,"N_COORD97":2573317.3900000001,"ADDRESS":"井子\u25A0６４號","OBJECTID":12114},"geometry":{"x":158800.67000000086,"y":2573317.3900000006}},{"attributes":{"ID":12115,"DIS_CODE":0,"TOWNNAME":"北門區","LI":"永華里","LIN":"7鄰","STREET":" ","SECT":" ","MAREA":"井子\u25A0","LANE":" ","ALLEY":" ","HOUSE_NO":"６５號","E_COORD97":158746.53,"N_COORD97":2573355.52,"ADDRESS":"井子\u25A0６５號","OBJECTID":12115},"geometry":{"x":158746.53000000119,"y":2573355.5199999996}},{"attributes":{"ID":12116,"DIS_CODE":0,"TOWNNAME":"北門區","LI":"永華里","LIN":"7鄰","STREET":" ","SECT":" ","MAREA":"井子\u25A0","LANE":" ","ALLEY":" ","HOUSE_NO":"６６號","E_COORD97":158777.79000000001,"N_COORD97":2573353.8999999999,"ADDRESS":"井子\u25A0６６號","OBJECTID":12116},"geometry":{"x":158777.79000000097,"y":2573353.9000000004}},{"attributes":{"ID":12117,"DIS_CODE":0,"TOWNNAME":"北門區","LI":"玉港里","LIN":"7鄰","STREET":" ","SECT":" ","MAREA":"灰\u25A0港","LANE":" ","ALLEY":" ","HOUSE_NO":"６１號","E_COORD97":161770.82999999999,"N_COORD97":2573617.5600000001,"ADDRESS":"灰\u25A0港６１號","OBJECTID":12117},"geometry":{"x":161770.83000000007,"y":2573617.5600000005}},{"attributes":{"ID":12118,"DIS_CODE":0,"TOWNNAME":"北門區","LI":"玉港里","LIN":"7鄰","STREET":" ","SECT":" ","MAREA":"灰\u25A0港","LANE":" ","ALLEY":" ","HOUSE_NO":"６３號","E_COORD97":161822.10999999999,"N_COORD97":2573613.8900000001,"ADDRESS":"灰\u25A0港６３號","OBJECTID":12118},"geometry":{"x":161822.1100000022,"y":2573613.8900000025}},{"attributes":{"ID":12119,"DIS_CODE":0,"TOWNNAME":"北門區","LI":"玉港里","LIN":"7鄰","STREET":" ","SECT":" ","MAREA":"灰\u25A0港","LANE":" ","ALLEY":" ","HOUSE_NO":"６４之１號","E_COORD97":161854.20000000001,"N_COORD97":2573595.6299999999,"ADDRESS":"灰\u25A0港６４之１號","OBJECTID":12119},"geometry":{"x":161854.20000000112,"y":2573595.629999999}},{"attributes":{"ID":12120,"DIS_CODE":0,"TOWNNAME":"北門區","LI":"玉港里","LIN":"7鄰","STREET":" ","SECT":" ","MAREA":"灰\u25A0港","LANE":" ","ALLEY":" ","HOUSE_NO":"６４號","E_COORD97":161783.25,"N_COORD97":2573595.7799999998,"ADDRESS":"灰\u25A0港６４號","OBJECTID":12120},"geometry":{"x":161783.25,"y":2573595.7800000031}},{"attributes":{"ID":12121,"DIS_CODE":0,"TOWNNAME":"北門區","LI":"玉港里","LIN":"7鄰","STREET":" ","SECT":" ","MAREA":"灰\u25A0港","LANE":" ","ALLEY":" ","HOUSE_NO":"６７號","E_COORD97":161776.09,"N_COORD97":2573597.6800000002,"ADDRESS":"灰\u25A0港６７號","OBJECTID":12121},"geometry":{"x":161776.09000000078,"y":2573597.6800000016}},{"attributes":{"ID":12122,"DIS_CODE":0,"TOWNNAME":"北門區","LI":"玉港里","LIN":"7鄰","STREET":" ","SECT":" ","MAREA":"灰\u25A0港","LANE":" ","ALLEY":" ","HOUSE_NO":"６８號之１","E_COORD97":161764.16,"N_COORD97":2573556.2000000002,"ADDRESS":"灰\u25A0港６８號之１","OBJECTID":12122},"geometry":{"x":161764.16000000108,"y":2573556.2000000011}},{"attributes":{"ID":12123,"DIS_CODE":0,"TOWNNAME":"北門區","LI":"玉港里","LIN":"7鄰","STREET":" ","SECT":" ","MAREA":"灰\u25A0港","LANE":" ","ALLEY":" ","HOUSE_NO":"６８號","E_COORD97":161774.42000000001,"N_COORD97":2573575.23,"ADDRESS":"灰\u25A0港６８號","OBJECTID":12123},"geometry":{"x":161774.42000000086,"y":2573575.2300000023}},{"attributes":{"ID":12124,"DIS_CODE":0,"TOWNNAME":"北門區","LI":"玉港里","LIN":"7鄰","STREET":" ","SECT":" ","MAREA":"灰\u25A0港","LANE":" ","ALLEY":" ","HOUSE_NO":"６９號","E_COORD97":161765.39000000001,"N_COORD97":2573591.4500000002,"ADDRESS":"灰\u25A0港６９號","OBJECTID":12124},"geometry":{"x":161765.3900000006,"y":2573591.450000003}},{"attributes":{"ID":12125,"DIS_CODE":0,"TOWNNAME":"東山區","LI":"青山里","LIN":"16鄰","STREET":" ","SECT":" ","MAREA":"青山","LANE":" ","ALLEY":" ","HOUSE_NO":"４５號之９","E_COORD97":195542.10000000001,"N_COORD97":2575257.6899999999,"ADDRESS":"青山４５號之９","OBJECTID":12125},"geometry":{"x":195542.10000000149,"y":2575257.6899999995}},{"attributes":{"ID":12126,"DIS_CODE":0,"TOWNNAME":"鹽水區","LI":"孫厝里","LIN":"13鄰","STREET":" ","SECT":" ","MAREA":"羊稠厝","LANE":" ","ALLEY":" ","HOUSE_NO":"９之１號","E_COORD97":169476.41,"N_COORD97":2576028.0299999998,"ADDRESS":"羊稠厝９之１號","OBJECTID":12126},"geometry":{"x":169476.41000000015,"y":2576028.0299999993}},{"attributes":{"ID":12127,"DIS_CODE":0,"TOWNNAME":"鹽水區","LI":"孫厝里","LIN":"13鄰","STREET":" ","SECT":" ","MAREA":"羊稠厝","LANE":" ","ALLEY":" ","HOUSE_NO":"９號","E_COORD97":169552.13,"N_COORD97":2575977.8999999999,"ADDRESS":"羊稠厝９號","OBJECTID":12127},"geometry":{"x":169552.13000000082,"y":2575977.9000000022}},{"attributes":{"ID":12128,"DIS_CODE":0,"TOWNNAME":"鹽水區","LI":"歡雅里","LIN":"13鄰","STREET":" ","SECT":" ","MAREA":"尾寮","LANE":" ","ALLEY":" ","HOUSE_NO":"１號","E_COORD97":172098.82000000001,"N_COORD97":2576548,"ADDRESS":"尾寮１號","OBJECTID":12128},"geometry":{"x":172098.82000000123,"y":2576547.9999999981}},{"attributes":{"ID":12129,"DIS_CODE":0,"TOWNNAME":"鹽水區","LI":"歡雅里","LIN":"13鄰","STREET":" ","SECT":" ","MAREA":"尾寮","LANE":" ","ALLEY":" ","HOUSE_NO":"２８號","E_COORD97":171912.37,"N_COORD97":2576452.8799999999,"ADDRESS":"尾寮２８號","OBJECTID":12129},"geometry":{"x":171912.37000000011,"y":2576452.8800000027}},{"attributes":{"ID":12130,"DIS_CODE":0,"TOWNNAME":"鹽水區","LI":"歡雅里","LIN":"13鄰","STREET":" ","SECT":" ","MAREA":"尾寮","LANE":" ","ALLEY":" ","HOUSE_NO":"２之２號","E_COORD97":172109.95999999999,"N_COORD97":2576564.7400000002,"ADDRESS":"尾寮２之２號","OBJECTID":12130},"geometry":{"x":172109.95999999996,"y":2576564.7400000021}},{"attributes":{"ID":12131,"DIS_CODE":0,"TOWNNAME":"永康區","LI":"\u25A0行里","LIN":"40鄰","STREET":"永安路","SECT":" ","MAREA":" ","LANE":"１０５巷","ALLEY":"４０弄","HOUSE_NO":"４６號","E_COORD97":172677.64000000001,"N_COORD97":2549341.0099999998,"ADDRESS":"永安路１０５巷４０弄４６號","OBJECTID":12131},"geometry":{"x":172677.6400000006,"y":2549341.0100000016}},{"attributes":{"ID":12132,"DIS_CODE":0,"TOWNNAME":"永康區","LI":"龍潭里","LIN":"40鄰","STREET":"永明街","SECT":" ","MAREA":" ","LANE":"３０２巷","ALLEY":"１５弄","HOUSE_NO":"１號","E_COORD97":174549.73000000001,"N_COORD97":2547103.7400000002,"ADDRESS":"永明街３０２巷１５弄１號","OBJECTID":12132},"geometry":{"x":174549.73000000045,"y":2547103.7400000002}},{"attributes":{"ID":12133,"DIS_CODE":0,"TOWNNAME":"永康區","LI":"\u25A0行里","LIN":"40鄰","STREET":"永安路","SECT":" ","MAREA":" ","LANE":"１０５巷","ALLEY":"４６弄","HOUSE_NO":"２１號","E_COORD97":172586.03,"N_COORD97":2549371.3100000001,"ADDRESS":"永安路１０５巷４６弄２１號","OBJECTID":12133},"geometry":{"x":172586.03000000119,"y":2549371.3100000005}},{"attributes":{"ID":12134,"DIS_CODE":0,"TOWNNAME":"永康區","LI":"龍潭里","LIN":"40鄰","STREET":"永明街","SECT":" ","MAREA":" ","LANE":"３０２巷","ALLEY":"５弄","HOUSE_NO":"１號","E_COORD97":174548.79000000001,"N_COORD97":2547162.2599999998,"ADDRESS":"永明街３０２巷５弄１號","OBJECTID":12134},"geometry":{"x":174548.79000000097,"y":2547162.2600000016}},{"attributes":{"ID":12135,"DIS_CODE":0,"TOWNNAME":"永康區","LI":"龍潭里","LIN":"40鄰","STREET":"永明街","SECT":" ","MAREA":" ","LANE":"３０２巷","ALLEY":"５弄","HOUSE_NO":"５號","E_COORD97":174557.42000000001,"N_COORD97":2547163.3799999999,"ADDRESS":"永明街３０２巷５弄５號","OBJECTID":12135},"geometry":{"x":174557.42000000086,"y":2547163.3800000027}},{"attributes":{"ID":12136,"DIS_CODE":0,"TOWNNAME":"仁德區","LI":"仁義里","LIN":"40鄰","STREET":"仁義五街","SECT":" ","MAREA":" ","LANE":"５７巷","ALLEY":"１弄","HOUSE_NO":"１６號","E_COORD97":173583.56,"N_COORD97":2540480.0299999998,"ADDRESS":"仁義五街５７巷１弄１６號","OBJECTID":12136},"geometry":{"x":173583.56000000052,"y":2540480.0299999993}},{"attributes":{"ID":12137,"DIS_CODE":0,"TOWNNAME":"仁德區","LI":"仁義里","LIN":"40鄰","STREET":"仁義五街","SECT":" ","MAREA":" ","LANE":"５７巷","ALLEY":"１弄","HOUSE_NO":"１４號","E_COORD97":173589.35999999999,"N_COORD97":2540480.5299999998,"ADDRESS":"仁義五街５７巷１弄１４號","OBJECTID":12137},"geometry":{"x":173589.36000000034,"y":2540480.5300000031}},{"attributes":{"ID":12138,"DIS_CODE":0,"TOWNNAME":"仁德區","LI":"仁義里","LIN":"40鄰","STREET":"仁義五街","SECT":" ","MAREA":" ","LANE":"５７巷","ALLEY":"１弄","HOUSE_NO":"２１號","E_COORD97":173564.44,"N_COORD97":2540465.5099999998,"ADDRESS":"仁義五街５７巷１弄２１號","OBJECTID":12138},"geometry":{"x":173564.44000000134,"y":2540465.5100000016}},{"attributes":{"ID":12139,"DIS_CODE":0,"TOWNNAME":"永康區","LI":"\u25A0行里","LIN":"40鄰","STREET":"永安路","SECT":" ","MAREA":" ","LANE":"１０５巷","ALLEY":"４０弄","HOUSE_NO":"３６號","E_COORD97":172696.10999999999,"N_COORD97":2549341.5099999998,"ADDRESS":"永安路１０５巷４０弄３６號","OBJECTID":12139},"geometry":{"x":172696.11000000034,"y":2549341.5100000016}},{"attributes":{"ID":12140,"DIS_CODE":0,"TOWNNAME":"永康區","LI":"\u25A0行里","LIN":"40鄰","STREET":"永安路","SECT":" ","MAREA":" ","LANE":"１０５巷","ALLEY":"４６弄","HOUSE_NO":"９號","E_COORD97":172587.17999999999,"N_COORD97":2549333.4700000002,"ADDRESS":"永安路１０５巷４６弄９號","OBJECTID":12140},"geometry":{"x":172587.18000000156,"y":2549333.4700000007}},{"attributes":{"ID":12141,"DIS_CODE":0,"TOWNNAME":"南區","LI":"同安里","LIN":"13鄰","STREET":"明興路","SECT":" ","MAREA":" ","LANE":" ","ALLEY":" ","HOUSE_NO":"１３６１號","E_COORD97":166387.89999999999,"N_COORD97":2535912.5699999998,"ADDRESS":"明興路１３６１號","OBJECTID":12141},"geometry":{"x":166387.90000000037,"y":2535912.5700000022}},{"attributes":{"ID":12142,"DIS_CODE":0,"TOWNNAME":"鹽水區","LI":"歡雅里","LIN":"13鄰","STREET":" ","SECT":" ","MAREA":"尾寮","LANE":" ","ALLEY":" ","HOUSE_NO":"２號","E_COORD97":172098.92999999999,"N_COORD97":2576563.04,"ADDRESS":"尾寮２號","OBJECTID":12142},"geometry":{"x":172098.93000000156,"y":2576563.0399999991}},{"attributes":{"ID":12143,"DIS_CODE":0,"TOWNNAME":"鹽水區","LI":"歡雅里","LIN":"13鄰","STREET":" ","SECT":" ","MAREA":"尾寮","LANE":" ","ALLEY":" ","HOUSE_NO":"３０號","E_COORD97":171940.10999999999,"N_COORD97":2576466.75,"ADDRESS":"尾寮３０號","OBJECTID":12143},"geometry":{"x":171940.11000000034,"y":2576466.7500000019}},{"attributes":{"ID":12144,"DIS_CODE":0,"TOWNNAME":"鹽水區","LI":"歡雅里","LIN":"13鄰","STREET":" ","SECT":" ","MAREA":"尾寮","LANE":" ","ALLEY":" ","HOUSE_NO":"３３之１０號","E_COORD97":171971.87,"N_COORD97":2576475.2400000002,"ADDRESS":"尾寮３３之１０號","OBJECTID":12144},"geometry":{"x":171971.87000000011,"y":2576475.2400000002}},{"attributes":{"ID":12145,"DIS_CODE":0,"TOWNNAME":"鹽水區","LI":"歡雅里","LIN":"13鄰","STREET":" ","SECT":" ","MAREA":"尾寮","LANE":" ","ALLEY":" ","HOUSE_NO":"３３之１１號","E_COORD97":171973.84,"N_COORD97":2576471.0899999999,"ADDRESS":"尾寮３３之１１號","OBJECTID":12145},"geometry":{"x":171973.83999999985,"y":2576471.0900000017}},{"attributes":{"ID":12146,"DIS_CODE":0,"TOWNNAME":"南區","LI":"文南里","LIN":"13鄰","STREET":"育南街","SECT":" ","MAREA":" ","LANE":" ","ALLEY":" ","HOUSE_NO":"４０號","E_COORD97":166877.67000000001,"N_COORD97":2542657.0499999998,"ADDRESS":"育南街４０號","OBJECTID":12146},"geometry":{"x":166877.66999999993,"y":2542657.0500000007}},{"attributes":{"ID":12147,"DIS_CODE":0,"TOWNNAME":"南區","LI":"文南里","LIN":"13鄰","STREET":"育南街","SECT":" ","MAREA":" ","LANE":" ","ALLEY":" ","HOUSE_NO":"４２號","E_COORD97":166878.25,"N_COORD97":2542661.4199999999,"ADDRESS":"育南街４２號","OBJECTID":12147},"geometry":{"x":166878.25000000093,"y":2542661.4199999999}},{"attributes":{"ID":12148,"DIS_CODE":0,"TOWNNAME":"南區","LI":"文南里","LIN":"13鄰","STREET":"育南街","SECT":" ","MAREA":" ","LANE":" ","ALLEY":" ","HOUSE_NO":"５０號","E_COORD97":166879.38,"N_COORD97":2542678.3300000001,"ADDRESS":"育南街５０號","OBJECTID":12148},"geometry":{"x":166879.37999999989,"y":2542678.3300000001}},{"attributes":{"ID":12149,"DIS_CODE":0,"TOWNNAME":"永康區","LI":"\u25A0行里","LIN":"40鄰","STREET":"永安路","SECT":" ","MAREA":" ","LANE":"１０５巷","ALLEY":"４０弄","HOUSE_NO":"５４號","E_COORD97":172659.25,"N_COORD97":2549346.5699999998,"ADDRESS":"永安路１０５巷４０弄５４號","OBJECTID":12149},"geometry":{"x":172659.25,"y":2549346.5700000003}},{"attributes":{"ID":12150,"DIS_CODE":0,"TOWNNAME":"鹽水區","LI":"歡雅里","LIN":"13鄰","STREET":" ","SECT":" ","MAREA":"尾寮","LANE":" ","ALLEY":" ","HOUSE_NO":"４２號","E_COORD97":172092.20000000001,"N_COORD97":2576453.0899999999,"ADDRESS":"尾寮４２號","OBJECTID":12150},"geometry":{"x":172092.20000000019,"y":2576453.0900000017}},{"attributes":{"ID":12151,"DIS_CODE":0,"TOWNNAME":"永康區","LI":"\u25A0行里","LIN":"40鄰","STREET":"永安路","SECT":" ","MAREA":" ","LANE":"１０５巷","ALLEY":"４０弄","HOUSE_NO":"３０號","E_COORD97":172692.37,"N_COORD97":2549326.3199999998,"ADDRESS":"永安路１０５巷４０弄３０號","OBJECTID":12151},"geometry":{"x":172692.37000000011,"y":2549326.3200000022}},{"attributes":{"ID":12152,"DIS_CODE":0,"TOWNNAME":"鹽水區","LI":"歡雅里","LIN":"13鄰","STREET":" ","SECT":" ","MAREA":"尾寮","LANE":" ","ALLEY":" ","HOUSE_NO":"４３號","E_COORD97":172091.07999999999,"N_COORD97":2576448.8700000001,"ADDRESS":"尾寮４３號","OBJECTID":12152},"geometry":{"x":172091.08000000007,"y":2576448.8700000029}},{"attributes":{"ID":12153,"DIS_CODE":0,"TOWNNAME":"永康區","LI":"\u25A0行里","LIN":"40鄰","STREET":"永安路","SECT":" ","MAREA":" ","LANE":"１０５巷","ALLEY":"４０弄","HOUSE_NO":"６６號","E_COORD97":172640.42000000001,"N_COORD97":2549367.8100000001,"ADDRESS":"永安路１０５巷４０弄６６號","OBJECTID":12153},"geometry":{"x":172640.42000000086,"y":2549367.8100000005}},{"attributes":{"ID":12154,"DIS_CODE":0,"TOWNNAME":"鹽水區","LI":"歡雅里","LIN":"13鄰","STREET":" ","SECT":" ","MAREA":"尾寮","LANE":" ","ALLEY":" ","HOUSE_NO":"４５號","E_COORD97":172088.88,"N_COORD97":2576445.3300000001,"ADDRESS":"尾寮４５號","OBJECTID":12154},"geometry":{"x":172088.87999999989,"y":2576445.3300000019}},{"attributes":{"ID":12155,"DIS_CODE":0,"TOWNNAME":"鹽水區","LI":"歡雅里","LIN":"13鄰","STREET":" ","SECT":" ","MAREA":"尾寮","LANE":" ","ALLEY":" ","HOUSE_NO":"４６號","E_COORD97":172086.85999999999,"N_COORD97":2576441.4500000002,"ADDRESS":"尾寮４６號","OBJECTID":12155},"geometry":{"x":172086.86000000127,"y":2576441.4499999993}},{"attributes":{"ID":12156,"DIS_CODE":0,"TOWNNAME":"鹽水區","LI":"歡雅里","LIN":"13鄰","STREET":" ","SECT":" ","MAREA":"尾寮","LANE":" ","ALLEY":" ","HOUSE_NO":"４７號","E_COORD97":172084.32999999999,"N_COORD97":2576438.4700000002,"ADDRESS":"尾寮４７號","OBJECTID":12156},"geometry":{"x":172084.33000000007,"y":2576438.4700000025}},{"attributes":{"ID":12157,"DIS_CODE":0,"TOWNNAME":"鹽水區","LI":"歡雅里","LIN":"13鄰","STREET":" ","SECT":" ","MAREA":"尾寮","LANE":" ","ALLEY":" ","HOUSE_NO":"４８號","E_COORD97":172081.82999999999,"N_COORD97":2576434.9199999999,"ADDRESS":"尾寮４８號","OBJECTID":12157},"geometry":{"x":172081.83000000101,"y":2576434.9200000018}},{"attributes":{"ID":12158,"DIS_CODE":0,"TOWNNAME":"鹽水區","LI":"歡雅里","LIN":"13鄰","STREET":" ","SECT":" ","MAREA":"尾寮","LANE":" ","ALLEY":" ","HOUSE_NO":"４號","E_COORD97":172078.25,"N_COORD97":2576568.9900000002,"ADDRESS":"尾寮４號","OBJECTID":12158},"geometry":{"x":172078.24999999907,"y":2576568.9900000039}},{"attributes":{"ID":12159,"DIS_CODE":0,"TOWNNAME":"北門區","LI":"玉港里","LIN":"7鄰","STREET":" ","SECT":" ","MAREA":"灰\u25A0港","LANE":" ","ALLEY":" ","HOUSE_NO":"７０之１５號","E_COORD97":161686.5,"N_COORD97":2573534.2000000002,"ADDRESS":"灰\u25A0港７０之１５號","OBJECTID":12159},"geometry":{"x":161686.5,"y":2573534.1999999993}},{"attributes":{"ID":12160,"DIS_CODE":0,"TOWNNAME":"北門區","LI":"玉港里","LIN":"7鄰","STREET":" ","SECT":" ","MAREA":"灰\u25A0港","LANE":" ","ALLEY":" ","HOUSE_NO":"７０號之１","E_COORD97":161826.48000000001,"N_COORD97":2573573.5800000001,"ADDRESS":"灰\u25A0港７０號之１","OBJECTID":12160},"geometry":{"x":161826.48000000231,"y":2573573.5800000001}},{"attributes":{"ID":12161,"DIS_CODE":0,"TOWNNAME":"北門區","LI":"玉港里","LIN":"7鄰","STREET":" ","SECT":" ","MAREA":"灰\u25A0港","LANE":" ","ALLEY":" ","HOUSE_NO":"７０號之２","E_COORD97":161844.29000000001,"N_COORD97":2573572.6899999999,"ADDRESS":"灰\u25A0港７０號之２","OBJECTID":12161},"geometry":{"x":161844.2900000019,"y":2573572.6899999976}},{"attributes":{"ID":12162,"DIS_CODE":0,"TOWNNAME":"仁德區","LI":"仁義里","LIN":"40鄰","STREET":"仁義五街","SECT":" ","MAREA":" ","LANE":"５７巷","ALLEY":"１弄","HOUSE_NO":"２６號","E_COORD97":173535.82999999999,"N_COORD97":2540475.7799999998,"ADDRESS":"仁義五街５７巷１弄２６號","OBJECTID":12162},"geometry":{"x":173535.83000000194,"y":2540475.7800000012}},{"attributes":{"ID":12163,"DIS_CODE":0,"TOWNNAME":"官田區","LI":"隆本里","LIN":"17鄰","STREET":"興隆街","SECT":" ","MAREA":" ","LANE":"５１巷","ALLEY":"５弄","HOUSE_NO":"７號","E_COORD97":179959.19,"N_COORD97":2566330.3599999999,"ADDRESS":"興隆街５１巷５弄７號","OBJECTID":12163},"geometry":{"x":179959.19000000134,"y":2566330.3600000013}},{"attributes":{"ID":12164,"DIS_CODE":0,"TOWNNAME":"永康區","LI":"\u25A0行里","LIN":"40鄰","STREET":"永安路","SECT":" ","MAREA":" ","LANE":"１０５巷","ALLEY":"４０弄","HOUSE_NO":"５０號","E_COORD97":172668.32999999999,"N_COORD97":2549346.8199999998,"ADDRESS":"永安路１０５巷４０弄５０號","OBJECTID":12164},"geometry":{"x":172668.33000000101,"y":2549346.8200000022}},{"attributes":{"ID":12165,"DIS_CODE":0,"TOWNNAME":"永康區","LI":"\u25A0行里","LIN":"40鄰","STREET":"永安路","SECT":" ","MAREA":" ","LANE":"１０５巷","ALLEY":"４６弄","HOUSE_NO":"１５號","E_COORD97":172576.12,"N_COORD97":2549347.3199999998,"ADDRESS":"永安路１０５巷４６弄１５號","OBJECTID":12165},"geometry":{"x":172576.12000000197,"y":2549347.3200000003}},{"attributes":{"ID":12166,"DIS_CODE":0,"TOWNNAME":"永康區","LI":"龍潭里","LIN":"40鄰","STREET":"永明街","SECT":" ","MAREA":" ","LANE":"３０２巷","ALLEY":"５弄","HOUSE_NO":"８號","E_COORD97":174556.70999999999,"N_COORD97":2547138.5,"ADDRESS":"永明街３０２巷５弄８號","OBJECTID":12166},"geometry":{"x":174556.70999999996,"y":2547138.5}},{"attributes":{"ID":12167,"DIS_CODE":0,"TOWNNAME":"北門區","LI":"玉港里","LIN":"7鄰","STREET":" ","SECT":" ","MAREA":"灰\u25A0港","LANE":" ","ALLEY":" ","HOUSE_NO":"７０之３號","E_COORD97":161874.92000000001,"N_COORD97":2573531.9199999999,"ADDRESS":"灰\u25A0港７０之３號","OBJECTID":12167},"geometry":{"x":161874.91999999993,"y":2573531.9200000018}},{"attributes":{"ID":12168,"DIS_CODE":0,"TOWNNAME":"永康區","LI":"\u25A0行里","LIN":"40鄰","STREET":"永安路","SECT":" ","MAREA":" ","LANE":"１０５巷","ALLEY":"４６弄","HOUSE_NO":"１２號","E_COORD97":172618.62,"N_COORD97":2549334.3300000001,"ADDRESS":"永安路１０５巷４６弄１２號","OBJECTID":12168},"geometry":{"x":172618.62000000104,"y":2549334.3300000001}},{"attributes":{"ID":12169,"DIS_CODE":0,"TOWNNAME":"北門區","LI":"玉港里","LIN":"7鄰","STREET":" ","SECT":" ","MAREA":"灰\u25A0港","LANE":" ","ALLEY":" ","HOUSE_NO":"７０號之３","E_COORD97":161874.92000000001,"N_COORD97":2573531.9199999999,"ADDRESS":"灰\u25A0港７０號之３","OBJECTID":12169},"geometry":{"x":161874.91999999993,"y":2573531.9200000018}},{"attributes":{"ID":12170,"DIS_CODE":0,"TOWNNAME":"北門區","LI":"玉港里","LIN":"7鄰","STREET":" ","SECT":" ","MAREA":"灰\u25A0港","LANE":" ","ALLEY":" ","HOUSE_NO":"７０之４號","E_COORD97":161864.54999999999,"N_COORD97":2573529.4300000002,"ADDRESS":"灰\u25A0港７０之４號","OBJECTID":12170},"geometry":{"x":161864.55000000075,"y":2573529.4299999997}},{"attributes":{"ID":12171,"DIS_CODE":0,"TOWNNAME":"北門區","LI":"玉港里","LIN":"7鄰","STREET":" ","SECT":" ","MAREA":"灰\u25A0港","LANE":" ","ALLEY":" ","HOUSE_NO":"７０號之４","E_COORD97":161864.54999999999,"N_COORD97":2573529.4300000002,"ADDRESS":"灰\u25A0港７０號之４","OBJECTID":12171},"geometry":{"x":161864.55000000075,"y":2573529.4299999997}},{"attributes":{"ID":12172,"DIS_CODE":0,"TOWNNAME":"北門區","LI":"玉港里","LIN":"7鄰","STREET":" ","SECT":" ","MAREA":"灰\u25A0港","LANE":" ","ALLEY":" ","HOUSE_NO":"７０之５號","E_COORD97":161854.35000000001,"N_COORD97":2573528.8500000001,"ADDRESS":"灰\u25A0港７０之５號","OBJECTID":12172},"geometry":{"x":161854.35000000056,"y":2573528.8500000015}},{"attributes":{"ID":12173,"DIS_CODE":0,"TOWNNAME":"北門區","LI":"玉港里","LIN":"7鄰","STREET":" ","SECT":" ","MAREA":"灰\u25A0港","LANE":" ","ALLEY":" ","HOUSE_NO":"７０號之５","E_COORD97":161854.35000000001,"N_COORD97":2573528.8500000001,"ADDRESS":"灰\u25A0港７０號之５","OBJECTID":12173},"geometry":{"x":161854.35000000056,"y":2573528.8500000015}},{"attributes":{"ID":12174,"DIS_CODE":0,"TOWNNAME":"北門區","LI":"玉港里","LIN":"7鄰","STREET":" ","SECT":" ","MAREA":"灰\u25A0港","LANE":" ","ALLEY":" ","HOUSE_NO":"７０號之６","E_COORD97":161836.37,"N_COORD97":2573534.7999999998,"ADDRESS":"灰\u25A0港７０號之６","OBJECTID":12174},"geometry":{"x":161836.37000000011,"y":2573534.8000000007}},{"attributes":{"ID":12175,"DIS_CODE":0,"TOWNNAME":"北門區","LI":"玉港里","LIN":"7鄰","STREET":" ","SECT":" ","MAREA":"灰\u25A0港","LANE":" ","ALLEY":" ","HOUSE_NO":"７０號之７","E_COORD97":161815.17999999999,"N_COORD97":2573533.6699999999,"ADDRESS":"灰\u25A0港７０號之７","OBJECTID":12175},"geometry":{"x":161815.1799999997,"y":2573533.6700000018}},{"attributes":{"ID":12176,"DIS_CODE":0,"TOWNNAME":"北門區","LI":"玉港里","LIN":"7鄰","STREET":" ","SECT":" ","MAREA":"灰\u25A0港","LANE":" ","ALLEY":" ","HOUSE_NO":"７０號之８","E_COORD97":161801.07000000001,"N_COORD97":2573526.52,"ADDRESS":"灰\u25A0港７０號之８","OBJECTID":12176},"geometry":{"x":161801.07000000123,"y":2573526.5199999977}},{"attributes":{"ID":12177,"DIS_CODE":0,"TOWNNAME":"北門區","LI":"玉港里","LIN":"7鄰","STREET":" ","SECT":" ","MAREA":"灰\u25A0港","LANE":" ","ALLEY":" ","HOUSE_NO":"７０號","E_COORD97":161807.45000000001,"N_COORD97":2573571.0800000001,"ADDRESS":"灰\u25A0港７０號","OBJECTID":12177},"geometry":{"x":161807.45000000019,"y":2573571.0800000038}},{"attributes":{"ID":12178,"DIS_CODE":0,"TOWNNAME":"永康區","LI":"龍潭里","LIN":"40鄰","STREET":"永明街","SECT":" ","MAREA":" ","LANE":"３０２巷","ALLEY":"２弄","HOUSE_NO":"６號","E_COORD97":174523.09,"N_COORD97":2547153.7000000002,"ADDRESS":"永明街３０２巷２弄６號","OBJECTID":12178},"geometry":{"x":174523.08999999985,"y":2547153.6999999993}},{"attributes":{"ID":12179,"DIS_CODE":0,"TOWNNAME":"後壁區","LI":"後部里","LIN":"7鄰","STREET":" ","SECT":" ","MAREA":"後部","LANE":" ","ALLEY":" ","HOUSE_NO":"６４號之１","E_COORD97":182187.69,"N_COORD97":2586980.3999999999,"ADDRESS":"後部６４號之１","OBJECTID":12179},"geometry":{"x":182187.69000000227,"y":2586980.4000000004}},{"attributes":{"ID":12180,"DIS_CODE":0,"TOWNNAME":"永康區","LI":"龍潭里","LIN":"40鄰","STREET":"永明街","SECT":" ","MAREA":" ","LANE":"３０２巷","ALLEY":"５弄","HOUSE_NO":"３號","E_COORD97":174552.63,"N_COORD97":2547162.0099999998,"ADDRESS":"永明街３０２巷５弄３號","OBJECTID":12180},"geometry":{"x":174552.63000000082,"y":2547162.0099999998}},{"attributes":{"ID":12181,"DIS_CODE":0,"TOWNNAME":"後壁區","LI":"後部里","LIN":"7鄰","STREET":" ","SECT":" ","MAREA":"後部","LANE":" ","ALLEY":" ","HOUSE_NO":"６４號之２","E_COORD97":182187.44,"N_COORD97":2586963.96,"ADDRESS":"後部６４號之２","OBJECTID":12181},"geometry":{"x":182187.44000000041,"y":2586963.9600000009}},{"attributes":{"ID":12182,"DIS_CODE":0,"TOWNNAME":"後壁區","LI":"後部里","LIN":"7鄰","STREET":" ","SECT":" ","MAREA":"後部","LANE":" ","ALLEY":" ","HOUSE_NO":"６４號","E_COORD97":182194.92999999999,"N_COORD97":2586963.8500000001,"ADDRESS":"後部６４號","OBJECTID":12182},"geometry":{"x":182194.9299999997,"y":2586963.8499999978}},{"attributes":{"ID":12183,"DIS_CODE":0,"TOWNNAME":"永康區","LI":"龍潭里","LIN":"40鄰","STREET":"永明街","SECT":" ","MAREA":" ","LANE":"３０２巷","ALLEY":"５弄","HOUSE_NO":"７號","E_COORD97":174561.32000000001,"N_COORD97":2547163.3799999999,"ADDRESS":"永明街３０２巷５弄７號","OBJECTID":12183},"geometry":{"x":174561.3200000003,"y":2547163.3800000027}},{"attributes":{"ID":12184,"DIS_CODE":0,"TOWNNAME":"永康區","LI":"龍潭里","LIN":"40鄰","STREET":"永明街","SECT":" ","MAREA":" ","LANE":"３０２巷","ALLEY":"２弄","HOUSE_NO":"１６號","E_COORD97":174505.60000000001,"N_COORD97":2547153.0099999998,"ADDRESS":"永明街３０２巷２弄１６號","OBJECTID":12184},"geometry":{"x":174505.60000000056,"y":2547153.0099999979}},{"attributes":{"ID":12185,"DIS_CODE":0,"TOWNNAME":"永康區","LI":"龍潭里","LIN":"40鄰","STREET":"永明街","SECT":" ","MAREA":" ","LANE":"３０２巷","ALLEY":"２弄","HOUSE_NO":"１２號","E_COORD97":174510.41,"N_COORD97":2547153.2599999998,"ADDRESS":"永明街３０２巷２弄１２號","OBJECTID":12185},"geometry":{"x":174510.41000000108,"y":2547153.2600000016}},{"attributes":{"ID":12186,"DIS_CODE":0,"TOWNNAME":"永康區","LI":"龍潭里","LIN":"40鄰","STREET":"永明街","SECT":" ","MAREA":" ","LANE":"３０２巷","ALLEY":"５弄","HOUSE_NO":"１０號","E_COORD97":174561.75,"N_COORD97":2547138.25,"ADDRESS":"永明街３０２巷５弄１０號","OBJECTID":12186},"geometry":{"x":174561.75000000186,"y":2547138.2500000037}},{"attributes":{"ID":12187,"DIS_CODE":0,"TOWNNAME":"永康區","LI":"北灣里","LIN":"40鄰","STREET":"大同街","SECT":" ","MAREA":" ","LANE":"４１３巷","ALLEY":"３０弄","HOUSE_NO":"５號","E_COORD97":174595.76000000001,"N_COORD97":2546177.04,"ADDRESS":"大同街４１３巷３０弄５號","OBJECTID":12187},"geometry":{"x":174595.76000000071,"y":2546177.040000001}},{"attributes":{"ID":12188,"DIS_CODE":0,"TOWNNAME":"永康區","LI":"\u25A0行里","LIN":"40鄰","STREET":"永安路","SECT":" ","MAREA":" ","LANE":"１０５巷","ALLEY":"４０弄","HOUSE_NO":"２４號","E_COORD97":172679.13,"N_COORD97":2549326.3199999998,"ADDRESS":"永安路１０５巷４０弄２４號","OBJECTID":12188},"geometry":{"x":172679.13000000175,"y":2549326.3200000022}},{"attributes":{"ID":12189,"DIS_CODE":0,"TOWNNAME":"永康區","LI":"復華里","LIN":"40鄰","STREET":"復華七街","SECT":" ","MAREA":" ","LANE":"３２巷","ALLEY":"２２弄","HOUSE_NO":"４２號","E_COORD97":172576,"N_COORD97":2545925.5299999998,"ADDRESS":"復華七街３２巷２２弄４２號","OBJECTID":12189},"geometry":{"x":172576,"y":2545925.5300000031}},{"attributes":{"ID":12190,"DIS_CODE":0,"TOWNNAME":"安平區","LI":"怡平里","LIN":"13鄰","STREET":"華平路","SECT":" ","MAREA":" ","LANE":" ","ALLEY":" ","HOUSE_NO":"６８６號","E_COORD97":165527.51999999999,"N_COORD97":2544137.5600000001,"ADDRESS":"華平路６８６號","OBJECTID":12190},"geometry":{"x":165527.52000000142,"y":2544137.5600000024}},{"attributes":{"ID":12191,"DIS_CODE":0,"TOWNNAME":"安平區","LI":"怡平里","LIN":"13鄰","STREET":"華平路","SECT":" ","MAREA":" ","LANE":" ","ALLEY":" ","HOUSE_NO":"６８８號","E_COORD97":165527.67000000001,"N_COORD97":2544142.27,"ADDRESS":"華平路６８８號","OBJECTID":12191},"geometry":{"x":165527.67000000086,"y":2544142.2700000014}},{"attributes":{"ID":12192,"DIS_CODE":0,"TOWNNAME":"安平區","LI":"怡平里","LIN":"13鄰","STREET":"華平路","SECT":" ","MAREA":" ","LANE":" ","ALLEY":" ","HOUSE_NO":"６９０號","E_COORD97":165526.75,"N_COORD97":2544151.8500000001,"ADDRESS":"華平路６９０號","OBJECTID":12192},"geometry":{"x":165526.75000000093,"y":2544151.8500000015}},{"attributes":{"ID":12193,"DIS_CODE":0,"TOWNNAME":"南區","LI":"新昌里","LIN":"20鄰","STREET":"國華街","SECT":"一段","MAREA":" ","LANE":" ","ALLEY":" ","HOUSE_NO":"１７９號","E_COORD97":167594.84,"N_COORD97":2543058.0299999998,"ADDRESS":"國華街一段１７９號","OBJECTID":12193},"geometry":{"x":167594.83999999985,"y":2543058.0300000012}},{"attributes":{"ID":12194,"DIS_CODE":0,"TOWNNAME":"南區","LI":"新昌里","LIN":"20鄰","STREET":"國華街","SECT":"一段","MAREA":" ","LANE":" ","ALLEY":" ","HOUSE_NO":"１８１號","E_COORD97":167595.16,"N_COORD97":2543063.1099999999,"ADDRESS":"國華街一段１８１號","OBJECTID":12194},"geometry":{"x":167595.16000000015,"y":2543063.1099999994}},{"attributes":{"ID":12195,"DIS_CODE":0,"TOWNNAME":"南區","LI":"新昌里","LIN":"20鄰","STREET":"國華街","SECT":"一段","MAREA":" ","LANE":" ","ALLEY":" ","HOUSE_NO":"１８３號","E_COORD97":167594.84,"N_COORD97":2543067.23,"ADDRESS":"國華街一段１８３號","OBJECTID":12195},"geometry":{"x":167594.83999999985,"y":2543067.2300000042}},{"attributes":{"ID":12196,"DIS_CODE":0,"TOWNNAME":"永康區","LI":"勝利里","LIN":"40鄰","STREET":"中華一路","SECT":" ","MAREA":" ","LANE":"１８２巷","ALLEY":"１弄","HOUSE_NO":"４號","E_COORD97":171504.5,"N_COORD97":2545019.23,"ADDRESS":"中華一路１８２巷１弄４號","OBJECTID":12196},"geometry":{"x":171504.50000000093,"y":2545019.2300000004}},{"attributes":{"ID":12197,"DIS_CODE":0,"TOWNNAME":"南區","LI":"廣州里","LIN":"20鄰","STREET":"福吉四街","SECT":" ","MAREA":" ","LANE":" ","ALLEY":" ","HOUSE_NO":"５號","E_COORD97":167303.01000000001,"N_COORD97":2542598.0699999998,"ADDRESS":"福吉四街５號","OBJECTID":12197},"geometry":{"x":167303.01000000071,"y":2542598.0700000022}},{"attributes":{"ID":12198,"DIS_CODE":0,"TOWNNAME":"南區","LI":"廣州里","LIN":"20鄰","STREET":"福吉四街","SECT":" ","MAREA":" ","LANE":" ","ALLEY":" ","HOUSE_NO":"１號","E_COORD97":167308.92000000001,"N_COORD97":2542592.1699999999,"ADDRESS":"福吉四街１號","OBJECTID":12198},"geometry":{"x":167308.92000000086,"y":2542592.1700000037}},{"attributes":{"ID":12199,"DIS_CODE":0,"TOWNNAME":"南區","LI":"廣州里","LIN":"20鄰","STREET":"福吉四街","SECT":" ","MAREA":" ","LANE":" ","ALLEY":" ","HOUSE_NO":"３號","E_COORD97":167305.54000000001,"N_COORD97":2542595.96,"ADDRESS":"福吉四街３號","OBJECTID":12199},"geometry":{"x":167305.54000000004,"y":2542595.9600000028}},{"attributes":{"ID":12200,"DIS_CODE":0,"TOWNNAME":"後壁區","LI":"後部里","LIN":"7鄰","STREET":" ","SECT":" ","MAREA":"後部","LANE":" ","ALLEY":" ","HOUSE_NO":"６５號","E_COORD97":182178.76999999999,"N_COORD97":2586969.02,"ADDRESS":"後部６５號","OBJECTID":12200},"geometry":{"x":182178.76999999955,"y":2586969.0199999996}}]}