{"displayFieldName":"TOWNNAME","fieldAliases":{"ID":"ID","DIS_CODE":"DIS_CODE","TOWNNAME":"TOWNNAME","LI":"LI","LIN":"LIN","STREET":"STREET","SECT":"SECT","MAREA":"MAREA","LANE":"LANE","ALLEY":"ALLEY","HOUSE_NO":"HOUSE_NO","E_COORD97":"E_COORD97","N_COORD97":"N_COORD97","ADDRESS":"ADDRESS","OBJECTID":"OBJECTID"},"geometryType":"esriGeometryPoint","spatialReference":{"wkid":102443,"latestWkid":3826},"fields":[{"name":"ID","type":"esriFieldTypeDouble","alias":"ID"},{"name":"DIS_CODE","type":"esriFieldTypeInteger","alias":"DIS_CODE"},{"name":"TOWNNAME","type":"esriFieldTypeString","alias":"TOWNNAME","length":8},{"name":"LI","type":"esriFieldTypeString","alias":"LI","length":8},{"name":"LIN","type":"esriFieldTypeString","alias":"LIN","length":12},{"name":"STREET","type":"esriFieldTypeString","alias":"STREET","length":20},{"name":"SECT","type":"esriFieldTypeString","alias":"SECT","length":8},{"name":"MAREA","type":"esriFieldTypeString","alias":"MAREA","length":12},{"name":"LANE","type":"esriFieldTypeString","alias":"LANE","length":10},{"name":"ALLEY","type":"esriFieldTypeString","alias":"ALLEY","length":10},{"name":"HOUSE_NO","type":"esriFieldTypeString","alias":"HOUSE_NO","length":20},{"name":"E_COORD97","type":"esriFieldTypeDouble","alias":"E_COORD97"},{"name":"N_COORD97","type":"esriFieldTypeDouble","alias":"N_COORD97"},{"name":"ADDRESS","type":"esriFieldTypeString","alias":"ADDRESS","length":50},{"name":"OBJECTID","type":"esriFieldTypeOID","alias":"OBJECTID"}],"features":[{"attributes":{"ID":97401,"DIS_CODE":0,"TOWNNAME":"六甲區","LI":"甲東里","LIN":"21鄰","STREET":"裕農街","SECT":" ","MAREA":" ","LANE":"８０巷","ALLEY":"２６弄","HOUSE_NO":"３號","E_COORD97":184290.72,"N_COORD97":2569618.9199999999,"ADDRESS":"裕農街８０巷２６弄３號","OBJECTID":97401},"geometry":{"x":184290.72000000067,"y":2569618.9200000037}},{"attributes":{"ID":97402,"DIS_CODE":0,"TOWNNAME":"六甲區","LI":"甲東里","LIN":"21鄰","STREET":"裕農街","SECT":" ","MAREA":" ","LANE":"８０巷","ALLEY":"６弄","HOUSE_NO":"２９號","E_COORD97":184220.44,"N_COORD97":2569637.1600000001,"ADDRESS":"裕農街８０巷６弄２９號","OBJECTID":97402},"geometry":{"x":184220.44000000134,"y":2569637.1600000001}},{"attributes":{"ID":97403,"DIS_CODE":0,"TOWNNAME":"六甲區","LI":"甲東里","LIN":"21鄰","STREET":"裕農街","SECT":" ","MAREA":" ","LANE":"８０巷","ALLEY":"６弄","HOUSE_NO":"３１號","E_COORD97":184216.76999999999,"N_COORD97":2569634.29,"ADDRESS":"裕農街８０巷６弄３１號","OBJECTID":97403},"geometry":{"x":184216.76999999955,"y":2569634.2899999991}},{"attributes":{"ID":97404,"DIS_CODE":0,"TOWNNAME":"六甲區","LI":"甲東里","LIN":"21鄰","STREET":"裕農街","SECT":" ","MAREA":" ","LANE":"８０巷","ALLEY":"６弄","HOUSE_NO":"３３號","E_COORD97":184213.32999999999,"N_COORD97":2569631.1200000001,"ADDRESS":"裕農街８０巷６弄３３號","OBJECTID":97404},"geometry":{"x":184213.33000000007,"y":2569631.120000001}},{"attributes":{"ID":97405,"DIS_CODE":0,"TOWNNAME":"六甲區","LI":"甲東里","LIN":"21鄰","STREET":"裕農街","SECT":" ","MAREA":" ","LANE":"８０巷","ALLEY":"６弄","HOUSE_NO":"３７號","E_COORD97":184209.17999999999,"N_COORD97":2569624.8900000001,"ADDRESS":"裕農街８０巷６弄３７號","OBJECTID":97405},"geometry":{"x":184209.17999999877,"y":2569624.8900000006}},{"attributes":{"ID":97406,"DIS_CODE":0,"TOWNNAME":"六甲區","LI":"甲東里","LIN":"21鄰","STREET":"裕農街","SECT":" ","MAREA":" ","LANE":"８０巷","ALLEY":"６弄","HOUSE_NO":"４５號","E_COORD97":184198.39999999999,"N_COORD97":2569609.7999999998,"ADDRESS":"裕農街８０巷６弄４５號","OBJECTID":97406},"geometry":{"x":184198.40000000224,"y":2569609.8000000007}},{"attributes":{"ID":97407,"DIS_CODE":0,"TOWNNAME":"仁德區","LI":"仁愛里","LIN":"1鄰","STREET":" ","SECT":" ","MAREA":"仁愛","LANE":" ","ALLEY":" ","HOUSE_NO":"７號","E_COORD97":170302.42999999999,"N_COORD97":2540204.7799999998,"ADDRESS":"仁愛７號","OBJECTID":97407},"geometry":{"x":170302.43000000063,"y":2540204.7800000012}},{"attributes":{"ID":97408,"DIS_CODE":0,"TOWNNAME":"後壁區","LI":"頂安里","LIN":"10鄰","STREET":" ","SECT":" ","MAREA":"頂寮","LANE":" ","ALLEY":" ","HOUSE_NO":"１０５號之６６","E_COORD97":183670.19,"N_COORD97":2581096.54,"ADDRESS":"頂寮１０５號之６６","OBJECTID":97408},"geometry":{"x":183670.19000000041,"y":2581096.5399999991}},{"attributes":{"ID":97409,"DIS_CODE":0,"TOWNNAME":"後壁區","LI":"頂安里","LIN":"10鄰","STREET":" ","SECT":" ","MAREA":"頂寮","LANE":" ","ALLEY":" ","HOUSE_NO":"１０５號之６７","E_COORD97":183664.81,"N_COORD97":2581075.6000000001,"ADDRESS":"頂寮１０５號之６７","OBJECTID":97409},"geometry":{"x":183664.81000000052,"y":2581075.5999999996}},{"attributes":{"ID":97410,"DIS_CODE":0,"TOWNNAME":"後壁區","LI":"頂安里","LIN":"10鄰","STREET":" ","SECT":" ","MAREA":"頂寮","LANE":" ","ALLEY":" ","HOUSE_NO":"１０５號之６８","E_COORD97":183666.14999999999,"N_COORD97":2581095.8999999999,"ADDRESS":"頂寮１０５號之６８","OBJECTID":97410},"geometry":{"x":183666.15000000224,"y":2581095.9000000041}},{"attributes":{"ID":97411,"DIS_CODE":0,"TOWNNAME":"安南區","LI":"安順里","LIN":"18鄰","STREET":"育安二街","SECT":" ","MAREA":" ","LANE":" ","ALLEY":" ","HOUSE_NO":"１３３號","E_COORD97":169656.60999999999,"N_COORD97":2550005.4900000002,"ADDRESS":"育安二街１３３號","OBJECTID":97411},"geometry":{"x":169656.61000000034,"y":2550005.4900000021}},{"attributes":{"ID":97412,"DIS_CODE":0,"TOWNNAME":"新化區","LI":"唪口里","LIN":"4鄰","STREET":"大德路","SECT":" ","MAREA":" ","LANE":" ","ALLEY":" ","HOUSE_NO":"８８號之１９","E_COORD97":178147.76999999999,"N_COORD97":2549502.2599999998,"ADDRESS":"大德路８８號之１９","OBJECTID":97412},"geometry":{"x":178147.76999999955,"y":2549502.2600000016}},{"attributes":{"ID":97413,"DIS_CODE":0,"TOWNNAME":"後壁區","LI":"頂安里","LIN":"10鄰","STREET":" ","SECT":" ","MAREA":"頂寮","LANE":" ","ALLEY":" ","HOUSE_NO":"１０５號之６９","E_COORD97":183661.12,"N_COORD97":2581075.2000000002,"ADDRESS":"頂寮１０５號之６９","OBJECTID":97413},"geometry":{"x":183661.12000000104,"y":2581075.1999999993}},{"attributes":{"ID":97414,"DIS_CODE":0,"TOWNNAME":"六甲區","LI":"甲東里","LIN":"21鄰","STREET":"裕農街","SECT":" ","MAREA":" ","LANE":"８０巷","ALLEY":"６弄","HOUSE_NO":"４７號","E_COORD97":184194.64000000001,"N_COORD97":2569606.6200000001,"ADDRESS":"裕農街８０巷６弄４７號","OBJECTID":97414},"geometry":{"x":184194.6400000006,"y":2569606.6200000029}},{"attributes":{"ID":97415,"DIS_CODE":0,"TOWNNAME":"後壁區","LI":"頂安里","LIN":"10鄰","STREET":" ","SECT":" ","MAREA":"頂寮","LANE":" ","ALLEY":" ","HOUSE_NO":"１０５號之６","E_COORD97":183686.26000000001,"N_COORD97":2581057.5800000001,"ADDRESS":"頂寮１０５號之６","OBJECTID":97415},"geometry":{"x":183686.25999999978,"y":2581057.5800000019}},{"attributes":{"ID":97416,"DIS_CODE":0,"TOWNNAME":"六甲區","LI":"甲東里","LIN":"21鄰","STREET":"裕農街","SECT":" ","MAREA":" ","LANE":"８０巷","ALLEY":"６弄","HOUSE_NO":"４９號","E_COORD97":184191.04999999999,"N_COORD97":2569603.3599999999,"ADDRESS":"裕農街８０巷６弄４９號","OBJECTID":97416},"geometry":{"x":184191.04999999981,"y":2569603.3599999994}},{"attributes":{"ID":97417,"DIS_CODE":0,"TOWNNAME":"北區","LI":"大豐里","LIN":"21鄰","STREET":"大興街","SECT":" ","MAREA":" ","LANE":"２３３巷","ALLEY":"４６弄","HOUSE_NO":"５２號","E_COORD97":166735.98000000001,"N_COORD97":2545523.8500000001,"ADDRESS":"大興街２３３巷４６弄５２號","OBJECTID":97417},"geometry":{"x":166735.98000000138,"y":2545523.8500000015}},{"attributes":{"ID":97418,"DIS_CODE":0,"TOWNNAME":"後壁區","LI":"頂安里","LIN":"10鄰","STREET":" ","SECT":" ","MAREA":"頂寮","LANE":" ","ALLEY":" ","HOUSE_NO":"１０５號之７０","E_COORD97":183662.07000000001,"N_COORD97":2581095.2200000002,"ADDRESS":"頂寮１０５號之７０","OBJECTID":97418},"geometry":{"x":183662.07000000123,"y":2581095.2200000025}},{"attributes":{"ID":97419,"DIS_CODE":0,"TOWNNAME":"北區","LI":"大豐里","LIN":"21鄰","STREET":"大興街","SECT":" ","MAREA":" ","LANE":"２３３巷","ALLEY":"４６弄","HOUSE_NO":"５６號","E_COORD97":166730.42999999999,"N_COORD97":2545522.27,"ADDRESS":"大興街２３３巷４６弄５６號","OBJECTID":97419},"geometry":{"x":166730.43000000063,"y":2545522.2699999996}},{"attributes":{"ID":97420,"DIS_CODE":0,"TOWNNAME":"後壁區","LI":"頂安里","LIN":"10鄰","STREET":" ","SECT":" ","MAREA":"頂寮","LANE":" ","ALLEY":" ","HOUSE_NO":"１０５號之７１","E_COORD97":183657.04999999999,"N_COORD97":2581074.3700000001,"ADDRESS":"頂寮１０５號之７１","OBJECTID":97420},"geometry":{"x":183657.04999999981,"y":2581074.3700000029}},{"attributes":{"ID":97421,"DIS_CODE":0,"TOWNNAME":"北區","LI":"大豐里","LIN":"21鄰","STREET":"大興街","SECT":" ","MAREA":" ","LANE":"２３３巷","ALLEY":"４６弄","HOUSE_NO":"５８號","E_COORD97":166725.03,"N_COORD97":2545521.1600000001,"ADDRESS":"大興街２３３巷４６弄５８號","OBJECTID":97421},"geometry":{"x":166725.03000000212,"y":2545521.1600000001}},{"attributes":{"ID":97422,"DIS_CODE":0,"TOWNNAME":"北區","LI":"大豐里","LIN":"21鄰","STREET":"大興街","SECT":" ","MAREA":" ","LANE":"２３３巷","ALLEY":"４６弄","HOUSE_NO":"６２之１號","E_COORD97":166719.95000000001,"N_COORD97":2545520.0499999998,"ADDRESS":"大興街２３３巷４６弄６２之１號","OBJECTID":97422},"geometry":{"x":166719.95000000019,"y":2545520.0500000045}},{"attributes":{"ID":97423,"DIS_CODE":0,"TOWNNAME":"北區","LI":"大豐里","LIN":"21鄰","STREET":"大興街","SECT":" ","MAREA":" ","LANE":"２３３巷","ALLEY":"４６弄","HOUSE_NO":"６２號","E_COORD97":166715.35000000001,"N_COORD97":2545518.2999999998,"ADDRESS":"大興街２３３巷４６弄６２號","OBJECTID":97423},"geometry":{"x":166715.35000000149,"y":2545518.3000000045}},{"attributes":{"ID":97424,"DIS_CODE":0,"TOWNNAME":"北區","LI":"文元里","LIN":"21鄰","STREET":"海安路","SECT":"三段","MAREA":" ","LANE":"７８１巷","ALLEY":"４５弄","HOUSE_NO":"１號","E_COORD97":167902.89999999999,"N_COORD97":2545973.23,"ADDRESS":"海安路三段７８１巷４５弄１號","OBJECTID":97424},"geometry":{"x":167902.9000000013,"y":2545973.2300000023}},{"attributes":{"ID":97425,"DIS_CODE":0,"TOWNNAME":"後壁區","LI":"頂安里","LIN":"10鄰","STREET":" ","SECT":" ","MAREA":"頂寮","LANE":" ","ALLEY":" ","HOUSE_NO":"１０５號之７２","E_COORD97":183657.63,"N_COORD97":2581094.1499999999,"ADDRESS":"頂寮１０５號之７２","OBJECTID":97425},"geometry":{"x":183657.63000000082,"y":2581094.1500000041}},{"attributes":{"ID":97426,"DIS_CODE":0,"TOWNNAME":"後壁區","LI":"頂安里","LIN":"10鄰","STREET":" ","SECT":" ","MAREA":"頂寮","LANE":" ","ALLEY":" ","HOUSE_NO":"１０５號之７３","E_COORD97":183653.09,"N_COORD97":2581073.4300000002,"ADDRESS":"頂寮１０５號之７３","OBJECTID":97426},"geometry":{"x":183653.09000000078,"y":2581073.4299999997}},{"attributes":{"ID":97427,"DIS_CODE":0,"TOWNNAME":"後壁區","LI":"頂安里","LIN":"10鄰","STREET":" ","SECT":" ","MAREA":"頂寮","LANE":" ","ALLEY":" ","HOUSE_NO":"１０５號之７４","E_COORD97":183653.66,"N_COORD97":2581093.7599999998,"ADDRESS":"頂寮１０５號之７４","OBJECTID":97427},"geometry":{"x":183653.66000000015,"y":2581093.7600000016}},{"attributes":{"ID":97428,"DIS_CODE":0,"TOWNNAME":"北區","LI":"文元里","LIN":"21鄰","STREET":"海安路","SECT":"三段","MAREA":" ","LANE":"７８１巷","ALLEY":"４５弄","HOUSE_NO":"１１號","E_COORD97":167906.23999999999,"N_COORD97":2545948.6200000001,"ADDRESS":"海安路三段７８１巷４５弄１１號","OBJECTID":97428},"geometry":{"x":167906.24000000022,"y":2545948.620000001}},{"attributes":{"ID":97429,"DIS_CODE":0,"TOWNNAME":"北區","LI":"文元里","LIN":"21鄰","STREET":"海安路","SECT":"三段","MAREA":" ","LANE":"７８１巷","ALLEY":"４５弄","HOUSE_NO":"１３號","E_COORD97":167898.29999999999,"N_COORD97":2545945.9199999999,"ADDRESS":"海安路三段７８１巷４５弄１３號","OBJECTID":97429},"geometry":{"x":167898.30000000075,"y":2545945.9199999999}},{"attributes":{"ID":97430,"DIS_CODE":0,"TOWNNAME":"北區","LI":"文元里","LIN":"21鄰","STREET":"海安路","SECT":"三段","MAREA":" ","LANE":"７８１巷","ALLEY":"４５弄","HOUSE_NO":"１８號","E_COORD97":167892.42999999999,"N_COORD97":2545946.0800000001,"ADDRESS":"海安路三段７８１巷４５弄１８號","OBJECTID":97430},"geometry":{"x":167892.4299999997,"y":2545946.0800000038}},{"attributes":{"ID":97431,"DIS_CODE":0,"TOWNNAME":"新營區","LI":"大宏里","LIN":"8鄰","STREET":"民族路","SECT":" ","MAREA":" ","LANE":" ","ALLEY":" ","HOUSE_NO":"４之３號","E_COORD97":180308.16,"N_COORD97":2578384.1600000001,"ADDRESS":"民族路４之３號","OBJECTID":97431},"geometry":{"x":180308.16000000108,"y":2578384.1600000001}},{"attributes":{"ID":97432,"DIS_CODE":0,"TOWNNAME":"新營區","LI":"永生里","LIN":"7鄰","STREET":"中興路","SECT":" ","MAREA":" ","LANE":" ","ALLEY":" ","HOUSE_NO":"２６號","E_COORD97":180125.03,"N_COORD97":2577991.8199999998,"ADDRESS":"中興路２６號","OBJECTID":97432},"geometry":{"x":180125.03000000026,"y":2577991.8200000022}},{"attributes":{"ID":97433,"DIS_CODE":0,"TOWNNAME":"永康區","LI":"龍潭里","LIN":"15鄰","STREET":"龍潭街","SECT":" ","MAREA":" ","LANE":" ","ALLEY":" ","HOUSE_NO":"２５４號","E_COORD97":174939.85999999999,"N_COORD97":2548344.25,"ADDRESS":"龍潭街２５４號","OBJECTID":97433},"geometry":{"x":174939.86000000127,"y":2548344.25}},{"attributes":{"ID":97434,"DIS_CODE":0,"TOWNNAME":"永康區","LI":"龍潭里","LIN":"15鄰","STREET":"龍橋街","SECT":" ","MAREA":" ","LANE":" ","ALLEY":" ","HOUSE_NO":"６號","E_COORD97":174892.34,"N_COORD97":2548302.48,"ADDRESS":"龍橋街６號","OBJECTID":97434},"geometry":{"x":174892.34000000078,"y":2548302.4800000004}},{"attributes":{"ID":97435,"DIS_CODE":0,"TOWNNAME":"後壁區","LI":"頂安里","LIN":"10鄰","STREET":" ","SECT":" ","MAREA":"頂寮","LANE":" ","ALLEY":" ","HOUSE_NO":"１０５號之７５","E_COORD97":183648.69,"N_COORD97":2581072.71,"ADDRESS":"頂寮１０５號之７５","OBJECTID":97435},"geometry":{"x":183648.69000000041,"y":2581072.7100000009}},{"attributes":{"ID":97436,"DIS_CODE":0,"TOWNNAME":"後壁區","LI":"頂安里","LIN":"10鄰","STREET":" ","SECT":" ","MAREA":"頂寮","LANE":" ","ALLEY":" ","HOUSE_NO":"１０５號之７６","E_COORD97":183649.70999999999,"N_COORD97":2581092.8100000001,"ADDRESS":"頂寮１０５號之７６","OBJECTID":97436},"geometry":{"x":183649.70999999996,"y":2581092.8100000005}},{"attributes":{"ID":97437,"DIS_CODE":0,"TOWNNAME":"永康區","LI":"龍潭里","LIN":"15鄰","STREET":"龍潭街","SECT":" ","MAREA":" ","LANE":" ","ALLEY":" ","HOUSE_NO":"１７９號","E_COORD97":174893.97,"N_COORD97":2548339.0699999998,"ADDRESS":"龍潭街１７９號","OBJECTID":97437},"geometry":{"x":174893.9700000016,"y":2548339.0700000003}},{"attributes":{"ID":97438,"DIS_CODE":0,"TOWNNAME":"永康區","LI":"龍潭里","LIN":"15鄰","STREET":"龍潭街","SECT":" ","MAREA":" ","LANE":" ","ALLEY":" ","HOUSE_NO":"１９１號","E_COORD97":174921.41,"N_COORD97":2548353.6899999999,"ADDRESS":"龍潭街１９１號","OBJECTID":97438},"geometry":{"x":174921.41000000015,"y":2548353.6899999995}},{"attributes":{"ID":97439,"DIS_CODE":0,"TOWNNAME":"永康區","LI":"龍潭里","LIN":"15鄰","STREET":"龍橋街","SECT":" ","MAREA":" ","LANE":" ","ALLEY":" ","HOUSE_NO":"４號","E_COORD97":174896.23000000001,"N_COORD97":2548301.79,"ADDRESS":"龍橋街４號","OBJECTID":97439},"geometry":{"x":174896.22999999952,"y":2548301.7899999991}},{"attributes":{"ID":97440,"DIS_CODE":0,"TOWNNAME":"東區","LI":"莊敬里","LIN":"15鄰","STREET":"東光路","SECT":"二段","MAREA":" ","LANE":" ","ALLEY":" ","HOUSE_NO":"４５號","E_COORD97":171201.60999999999,"N_COORD97":2544076.1000000001,"ADDRESS":"東光路二段４５號","OBJECTID":97440},"geometry":{"x":171201.6100000022,"y":2544076.0999999996}},{"attributes":{"ID":97441,"DIS_CODE":0,"TOWNNAME":"東區","LI":"莊敬里","LIN":"15鄰","STREET":"東光路","SECT":"二段","MAREA":" ","LANE":" ","ALLEY":" ","HOUSE_NO":"３３號","E_COORD97":171198.22,"N_COORD97":2544052.3700000001,"ADDRESS":"東光路二段３３號","OBJECTID":97441},"geometry":{"x":171198.21999999974,"y":2544052.370000001}},{"attributes":{"ID":97442,"DIS_CODE":0,"TOWNNAME":"新營區","LI":"三仙里","LIN":" ","STREET":"民權路","SECT":" ","MAREA":" ","LANE":" ","ALLEY":" ","HOUSE_NO":"７３之７號","E_COORD97":179618.20999999999,"N_COORD97":2578449.4500000002,"ADDRESS":"民權路７３之７號","OBJECTID":97442},"geometry":{"x":179618.20999999996,"y":2578449.4499999974}},{"attributes":{"ID":97443,"DIS_CODE":0,"TOWNNAME":"新營區","LI":"南興里","LIN":"3鄰","STREET":"南昌街","SECT":" ","MAREA":" ","LANE":" ","ALLEY":" ","HOUSE_NO":"３５號之１６","E_COORD97":179556.29999999999,"N_COORD97":2577630.23,"ADDRESS":"南昌街３５之１６號","OBJECTID":97443},"geometry":{"x":179556.29999999981,"y":2577630.2300000023}},{"attributes":{"ID":97444,"DIS_CODE":0,"TOWNNAME":"新化區","LI":"觀音里","LIN":"4鄰","STREET":"仁愛街","SECT":" ","MAREA":" ","LANE":" ","ALLEY":" ","HOUSE_NO":"６３號","E_COORD97":178970.07999999999,"N_COORD97":2548554.25,"ADDRESS":"仁愛街６３號","OBJECTID":97444},"geometry":{"x":178970.08000000007,"y":2548554.25}},{"attributes":{"ID":97445,"DIS_CODE":0,"TOWNNAME":"北區","LI":"文元里","LIN":"21鄰","STREET":"海安路","SECT":"三段","MAREA":" ","LANE":"７８１巷","ALLEY":"４５弄","HOUSE_NO":"１６號","E_COORD97":167886.54999999999,"N_COORD97":2545947.6699999999,"ADDRESS":"海安路三段７８１巷４５弄１６號","OBJECTID":97445},"geometry":{"x":167886.54999999981,"y":2545947.6699999999}},{"attributes":{"ID":97446,"DIS_CODE":0,"TOWNNAME":"北區","LI":"文元里","LIN":"21鄰","STREET":"海安路","SECT":"三段","MAREA":" ","LANE":"７８１巷","ALLEY":"４５弄","HOUSE_NO":"１２號","E_COORD97":167884.01000000001,"N_COORD97":2545952.75,"ADDRESS":"海安路三段７８１巷４５弄１２號","OBJECTID":97446},"geometry":{"x":167884.00999999885,"y":2545952.7500000019}},{"attributes":{"ID":97447,"DIS_CODE":0,"TOWNNAME":"北區","LI":"文元里","LIN":"21鄰","STREET":"海安路","SECT":"三段","MAREA":" ","LANE":"７８１巷","ALLEY":"４５弄","HOUSE_NO":"１０號","E_COORD97":167883.85000000001,"N_COORD97":2545958.1499999999,"ADDRESS":"海安路三段７８１巷４５弄１０號","OBJECTID":97447},"geometry":{"x":167883.85000000056,"y":2545958.1500000004}},{"attributes":{"ID":97448,"DIS_CODE":0,"TOWNNAME":"北區","LI":"文元里","LIN":"21鄰","STREET":"海安路","SECT":"三段","MAREA":" ","LANE":"７８１巷","ALLEY":"４５弄","HOUSE_NO":"２號","E_COORD97":167882.57999999999,"N_COORD97":2545971.7999999998,"ADDRESS":"海安路三段７８１巷４５弄２號","OBJECTID":97448},"geometry":{"x":167882.58000000101,"y":2545971.8000000007}},{"attributes":{"ID":97449,"DIS_CODE":0,"TOWNNAME":"北區","LI":"文元里","LIN":"21鄰","STREET":"海安路","SECT":"三段","MAREA":" ","LANE":"７８１巷","ALLEY":"４５弄","HOUSE_NO":"３號","E_COORD97":167903.38,"N_COORD97":2545967.6699999999,"ADDRESS":"海安路三段７８１巷４５弄３號","OBJECTID":97449},"geometry":{"x":167903.37999999989,"y":2545967.6699999999}},{"attributes":{"ID":97450,"DIS_CODE":0,"TOWNNAME":"北區","LI":"文元里","LIN":"21鄰","STREET":"海安路","SECT":"三段","MAREA":" ","LANE":"７８１巷","ALLEY":"４５弄","HOUSE_NO":"６號","E_COORD97":167883.06,"N_COORD97":2545966.8799999999,"ADDRESS":"海安路三段７８１巷４５弄６號","OBJECTID":97450},"geometry":{"x":167883.05999999959,"y":2545966.8800000027}},{"attributes":{"ID":97451,"DIS_CODE":0,"TOWNNAME":"北區","LI":"文元里","LIN":"21鄰","STREET":"海安路","SECT":"三段","MAREA":" ","LANE":"７８１巷","ALLEY":"４５弄","HOUSE_NO":"５號","E_COORD97":167903.38,"N_COORD97":2545963.3900000001,"ADDRESS":"海安路三段７８１巷４５弄５號","OBJECTID":97451},"geometry":{"x":167903.37999999989,"y":2545963.3900000006}},{"attributes":{"ID":97452,"DIS_CODE":0,"TOWNNAME":"北區","LI":"文元里","LIN":"21鄰","STREET":"海安路","SECT":"三段","MAREA":" ","LANE":"７８１巷","ALLEY":"４５弄","HOUSE_NO":"７號","E_COORD97":167904.64999999999,"N_COORD97":2545958.3100000001,"ADDRESS":"海安路三段７８１巷４５弄７號","OBJECTID":97452},"geometry":{"x":167904.6500000013,"y":2545958.3100000005}},{"attributes":{"ID":97453,"DIS_CODE":0,"TOWNNAME":"北區","LI":"文元里","LIN":"21鄰","STREET":"海安路","SECT":"三段","MAREA":" ","LANE":"７８１巷","ALLEY":"４５弄","HOUSE_NO":"８號","E_COORD97":167883.69,"N_COORD97":2545961.6400000001,"ADDRESS":"海安路三段７８１巷４５弄８號","OBJECTID":97453},"geometry":{"x":167883.69000000227,"y":2545961.6400000006}},{"attributes":{"ID":97454,"DIS_CODE":0,"TOWNNAME":"北區","LI":"文元里","LIN":"21鄰","STREET":"海安路","SECT":"三段","MAREA":" ","LANE":"７８１巷","ALLEY":"４５弄","HOUSE_NO":"９號","E_COORD97":167905.13,"N_COORD97":2545952.9100000001,"ADDRESS":"海安路三段７８１巷４５弄９號","OBJECTID":97454},"geometry":{"x":167905.12999999989,"y":2545952.9100000001}},{"attributes":{"ID":97455,"DIS_CODE":0,"TOWNNAME":"安平區","LI":"平通里","LIN":"21鄰","STREET":"育平九街","SECT":" ","MAREA":" ","LANE":"３７２巷","ALLEY":"１６５弄","HOUSE_NO":"１７號","E_COORD97":164547.67999999999,"N_COORD97":2544134.5699999998,"ADDRESS":"育平九街３７２巷１６５弄１７號","OBJECTID":97455},"geometry":{"x":164547.6799999997,"y":2544134.5700000003}},{"attributes":{"ID":97456,"DIS_CODE":0,"TOWNNAME":"新化區","LI":"清水里","LIN":"4鄰","STREET":"民權街","SECT":" ","MAREA":" ","LANE":" ","ALLEY":" ","HOUSE_NO":"１１號","E_COORD97":178740.66,"N_COORD97":2548457.25,"ADDRESS":"民權街１１號","OBJECTID":97456},"geometry":{"x":178740.66000000015,"y":2548457.2500000037}},{"attributes":{"ID":97457,"DIS_CODE":0,"TOWNNAME":"新化區","LI":"太平里","LIN":"14鄰","STREET":"民權街","SECT":" ","MAREA":" ","LANE":" ","ALLEY":" ","HOUSE_NO":"１７０號","E_COORD97":178748.91,"N_COORD97":2548892.25,"ADDRESS":"民權街１７０號","OBJECTID":97457},"geometry":{"x":178748.91000000015,"y":2548892.2500000019}},{"attributes":{"ID":97458,"DIS_CODE":0,"TOWNNAME":"新化區","LI":"太平里","LIN":"4鄰","STREET":"民生路","SECT":" ","MAREA":" ","LANE":" ","ALLEY":" ","HOUSE_NO":"２１４號","E_COORD97":179084.70999999999,"N_COORD97":2548968.25,"ADDRESS":"民生路２１４號","OBJECTID":97458},"geometry":{"x":179084.70999999903,"y":2548968.25}},{"attributes":{"ID":97459,"DIS_CODE":0,"TOWNNAME":"新化區","LI":"東榮里","LIN":"25鄰","STREET":"中正路","SECT":" ","MAREA":" ","LANE":" ","ALLEY":" ","HOUSE_NO":"３０２號之３","E_COORD97":179149.85999999999,"N_COORD97":2547995.2599999998,"ADDRESS":"中正路３０２號之３","OBJECTID":97459},"geometry":{"x":179149.86000000034,"y":2547995.2599999998}},{"attributes":{"ID":97460,"DIS_CODE":0,"TOWNNAME":"安平區","LI":"平通里","LIN":"21鄰","STREET":"育平九街","SECT":" ","MAREA":" ","LANE":"３７２巷","ALLEY":"１６５弄","HOUSE_NO":"１８號","E_COORD97":164526.60000000001,"N_COORD97":2544164.21,"ADDRESS":"育平九街３７２巷１６５弄１８號","OBJECTID":97460},"geometry":{"x":164526.59999999963,"y":2544164.2100000028}},{"attributes":{"ID":97461,"DIS_CODE":0,"TOWNNAME":"安平區","LI":"平通里","LIN":"21鄰","STREET":"育平九街","SECT":" ","MAREA":" ","LANE":"３７２巷","ALLEY":"１６５弄","HOUSE_NO":"１９號","E_COORD97":164543.39000000001,"N_COORD97":2544134.73,"ADDRESS":"育平九街３７２巷１６５弄１９號","OBJECTID":97461},"geometry":{"x":164543.38999999966,"y":2544134.7300000004}},{"attributes":{"ID":97462,"DIS_CODE":0,"TOWNNAME":"安平區","LI":"平通里","LIN":"21鄰","STREET":"育平九街","SECT":" ","MAREA":" ","LANE":"３７２巷","ALLEY":"１６５弄","HOUSE_NO":"２０號","E_COORD97":164522.75,"N_COORD97":2544164.25,"ADDRESS":"育平九街３７２巷１６５弄２０號","OBJECTID":97462},"geometry":{"x":164522.74999999907,"y":2544164.25}},{"attributes":{"ID":97463,"DIS_CODE":0,"TOWNNAME":"安平區","LI":"平通里","LIN":"21鄰","STREET":"育平九街","SECT":" ","MAREA":" ","LANE":"３７２巷","ALLEY":"１６５弄","HOUSE_NO":"２１號","E_COORD97":164538.76999999999,"N_COORD97":2544134.7000000002,"ADDRESS":"育平九街３７２巷１６５弄２１號","OBJECTID":97463},"geometry":{"x":164538.76999999955,"y":2544134.7000000011}},{"attributes":{"ID":97464,"DIS_CODE":0,"TOWNNAME":"新化區","LI":"太平里","LIN":"4鄰","STREET":"民生路","SECT":" ","MAREA":" ","LANE":" ","ALLEY":" ","HOUSE_NO":"２０２號","E_COORD97":179097.91,"N_COORD97":2548949.25,"ADDRESS":"民生路２０２號","OBJECTID":97464},"geometry":{"x":179097.91000000108,"y":2548949.2500000019}},{"attributes":{"ID":97465,"DIS_CODE":0,"TOWNNAME":"新化區","LI":"唪口里","LIN":"4鄰","STREET":"大德路","SECT":" ","MAREA":" ","LANE":" ","ALLEY":" ","HOUSE_NO":"８６號之７","E_COORD97":178195.92000000001,"N_COORD97":2549501.2599999998,"ADDRESS":"大德路８６號之７","OBJECTID":97465},"geometry":{"x":178195.91999999993,"y":2549501.2600000035}},{"attributes":{"ID":97466,"DIS_CODE":0,"TOWNNAME":"新化區","LI":"中央里","LIN":"4鄰","STREET":"大同街","SECT":" ","MAREA":" ","LANE":" ","ALLEY":" ","HOUSE_NO":"１２２號之１","E_COORD97":178976.35999999999,"N_COORD97":2548382.2599999998,"ADDRESS":"大同街１２２號之１","OBJECTID":97466},"geometry":{"x":178976.36000000127,"y":2548382.2600000035}},{"attributes":{"ID":97467,"DIS_CODE":0,"TOWNNAME":"新營區","LI":"好平里","LIN":" ","STREET":"新進路","SECT":"二段","MAREA":" ","LANE":" ","ALLEY":" ","HOUSE_NO":"４７號","E_COORD97":179638.95000000001,"N_COORD97":2577731.6600000001,"ADDRESS":"新進路二段４７號","OBJECTID":97467},"geometry":{"x":179638.95000000019,"y":2577731.660000002}},{"attributes":{"ID":97468,"DIS_CODE":0,"TOWNNAME":"新營區","LI":"鐵線里","LIN":"1鄰","STREET":" ","SECT":" ","MAREA":"鐵線橋","LANE":" ","ALLEY":" ","HOUSE_NO":"８號","E_COORD97":176008.94,"N_COORD97":2573948.5299999998,"ADDRESS":"鐵線橋８號","OBJECTID":97468},"geometry":{"x":176008.94000000134,"y":2573948.5299999993}},{"attributes":{"ID":97469,"DIS_CODE":0,"TOWNNAME":"後壁區","LI":"頂安里","LIN":"10鄰","STREET":" ","SECT":" ","MAREA":"頂寮","LANE":" ","ALLEY":" ","HOUSE_NO":"１０５號之７７","E_COORD97":183644.67999999999,"N_COORD97":2581071.8799999999,"ADDRESS":"頂寮１０５號之７７","OBJECTID":97469},"geometry":{"x":183644.67999999877,"y":2581071.8800000008}},{"attributes":{"ID":97470,"DIS_CODE":0,"TOWNNAME":"後壁區","LI":"頂安里","LIN":"10鄰","STREET":" ","SECT":" ","MAREA":"頂寮","LANE":" ","ALLEY":" ","HOUSE_NO":"１０５號之７８","E_COORD97":183645.34,"N_COORD97":2581091.6899999999,"ADDRESS":"頂寮１０５號之７８","OBJECTID":97470},"geometry":{"x":183645.33999999985,"y":2581091.6899999995}},{"attributes":{"ID":97471,"DIS_CODE":0,"TOWNNAME":"新營區","LI":"好平里","LIN":"3鄰","STREET":"新進路","SECT":"二段","MAREA":" ","LANE":" ","ALLEY":" ","HOUSE_NO":"６２號之１","E_COORD97":179606.69,"N_COORD97":2577751.7999999998,"ADDRESS":"新進路二段６２號之１","OBJECTID":97471},"geometry":{"x":179606.69000000041,"y":2577751.8000000026}},{"attributes":{"ID":97472,"DIS_CODE":0,"TOWNNAME":"新營區","LI":"永生里","LIN":"18鄰","STREET":"康樂街","SECT":" ","MAREA":" ","LANE":" ","ALLEY":" ","HOUSE_NO":"５３號","E_COORD97":179861.39000000001,"N_COORD97":2577843.5600000001,"ADDRESS":"康樂街５３號","OBJECTID":97472},"geometry":{"x":179861.39000000153,"y":2577843.5600000042}},{"attributes":{"ID":97473,"DIS_CODE":0,"TOWNNAME":"後壁區","LI":"頂安里","LIN":"10鄰","STREET":" ","SECT":" ","MAREA":"頂寮","LANE":" ","ALLEY":" ","HOUSE_NO":"１０５號之７９","E_COORD97":183636.64999999999,"N_COORD97":2581068.4500000002,"ADDRESS":"頂寮１０５號之７９","OBJECTID":97473},"geometry":{"x":183636.65000000037,"y":2581068.4500000011}},{"attributes":{"ID":97474,"DIS_CODE":0,"TOWNNAME":"安平區","LI":"平通里","LIN":"21鄰","STREET":"育平九街","SECT":" ","MAREA":" ","LANE":"３７２巷","ALLEY":"１６５弄","HOUSE_NO":"２２號","E_COORD97":164518.66,"N_COORD97":2544163.96,"ADDRESS":"育平九街３７２巷１６５弄２２號","OBJECTID":97474},"geometry":{"x":164518.66000000201,"y":2544163.9600000009}},{"attributes":{"ID":97475,"DIS_CODE":0,"TOWNNAME":"安平區","LI":"平通里","LIN":"21鄰","STREET":"育平九街","SECT":" ","MAREA":" ","LANE":"３７２巷","ALLEY":"１６５弄","HOUSE_NO":"３０號","E_COORD97":164496.75,"N_COORD97":2544161.9500000002,"ADDRESS":"育平九街３７２巷１６５弄３０號","OBJECTID":97475},"geometry":{"x":164496.75,"y":2544161.9499999993}},{"attributes":{"ID":97476,"DIS_CODE":0,"TOWNNAME":"安平區","LI":"平通里","LIN":"21鄰","STREET":"育平九街","SECT":" ","MAREA":" ","LANE":"３７２巷","ALLEY":"１６５弄","HOUSE_NO":"３５號","E_COORD97":164517.59,"N_COORD97":2544134.2000000002,"ADDRESS":"育平九街３７２巷１６５弄３５號","OBJECTID":97476},"geometry":{"x":164517.59000000078,"y":2544134.200000003}},{"attributes":{"ID":97477,"DIS_CODE":0,"TOWNNAME":"安平區","LI":"平通里","LIN":"21鄰","STREET":"育平九街","SECT":" ","MAREA":" ","LANE":"３７２巷","ALLEY":"１６５弄","HOUSE_NO":"３７號","E_COORD97":164509.45999999999,"N_COORD97":2544134.3300000001,"ADDRESS":"育平九街３７２巷１６５弄３７號","OBJECTID":97477},"geometry":{"x":164509.45999999903,"y":2544134.3300000019}},{"attributes":{"ID":97478,"DIS_CODE":0,"TOWNNAME":"安平區","LI":"平通里","LIN":"21鄰","STREET":"育平九街","SECT":" ","MAREA":" ","LANE":"３７２巷","ALLEY":"１６５弄","HOUSE_NO":"３９號","E_COORD97":164505.29999999999,"N_COORD97":2544134.2000000002,"ADDRESS":"育平九街３７２巷１６５弄３９號","OBJECTID":97478},"geometry":{"x":164505.29999999888,"y":2544134.200000003}},{"attributes":{"ID":97479,"DIS_CODE":0,"TOWNNAME":"安平區","LI":"平通里","LIN":"21鄰","STREET":"育平九街","SECT":" ","MAREA":" ","LANE":"３７２巷","ALLEY":"１６５弄","HOUSE_NO":"４３號","E_COORD97":164496.60999999999,"N_COORD97":2544134.2000000002,"ADDRESS":"育平九街３７２巷１６５弄４３號","OBJECTID":97479},"geometry":{"x":164496.61000000034,"y":2544134.200000003}},{"attributes":{"ID":97480,"DIS_CODE":0,"TOWNNAME":"新市區","LI":"社內里","LIN":"15鄰","STREET":" ","SECT":" ","MAREA":"社內","LANE":" ","ALLEY":" ","HOUSE_NO":"１６０之８號","E_COORD97":176309.619661,"N_COORD97":2553322.09149,"ADDRESS":"社內１６０之８號","OBJECTID":97480},"geometry":{"x":176309.61966100149,"y":2553322.0914920028}},{"attributes":{"ID":97481,"DIS_CODE":0,"TOWNNAME":"安平區","LI":"平通里","LIN":"21鄰","STREET":"育平九街","SECT":" ","MAREA":" ","LANE":"３７２巷","ALLEY":"１６５弄","HOUSE_NO":"４５號","E_COORD97":164492.51999999999,"N_COORD97":2544134.27,"ADDRESS":"育平九街３７２巷１６５弄４５號","OBJECTID":97481},"geometry":{"x":164492.52000000048,"y":2544134.2700000014}},{"attributes":{"ID":97482,"DIS_CODE":0,"TOWNNAME":"安平區","LI":"平通里","LIN":"21鄰","STREET":"育平九街","SECT":" ","MAREA":" ","LANE":"３７２巷","ALLEY":"１６５弄","HOUSE_NO":"４９號","E_COORD97":164478.75,"N_COORD97":2544133.4700000002,"ADDRESS":"育平九街３７２巷１６５弄４９號","OBJECTID":97482},"geometry":{"x":164478.75000000186,"y":2544133.4699999988}},{"attributes":{"ID":97483,"DIS_CODE":0,"TOWNNAME":"安平區","LI":"平通里","LIN":"21鄰","STREET":"育平九街","SECT":" ","MAREA":" ","LANE":"３７２巷","ALLEY":"１６５弄","HOUSE_NO":"５１號","E_COORD97":164466.60000000001,"N_COORD97":2544132.75,"ADDRESS":"育平九街３７２巷１６５弄５１號","OBJECTID":97483},"geometry":{"x":164466.60000000056,"y":2544132.75}},{"attributes":{"ID":97484,"DIS_CODE":0,"TOWNNAME":"新市區","LI":"社內里","LIN":"15鄰","STREET":" ","SECT":" ","MAREA":"社內","LANE":" ","ALLEY":" ","HOUSE_NO":"１６０之２１號","E_COORD97":176332.28881200001,"N_COORD97":2553319.55149,"ADDRESS":"社內１６０之２１號","OBJECTID":97484},"geometry":{"x":176332.2888120003,"y":2553319.5514940023}},{"attributes":{"ID":97485,"DIS_CODE":0,"TOWNNAME":"安平區","LI":"平通里","LIN":"21鄰","STREET":"育平九街","SECT":" ","MAREA":" ","LANE":"３７２巷","ALLEY":"１６５弄","HOUSE_NO":"６號","E_COORD97":164574.82999999999,"N_COORD97":2544165.0099999998,"ADDRESS":"育平九街３７２巷１６５弄６號","OBJECTID":97485},"geometry":{"x":164574.82999999914,"y":2544165.0099999998}},{"attributes":{"ID":97486,"DIS_CODE":0,"TOWNNAME":"後壁區","LI":"頂安里","LIN":"10鄰","STREET":" ","SECT":" ","MAREA":"頂寮","LANE":" ","ALLEY":" ","HOUSE_NO":"１０５號之７","E_COORD97":183681.79000000001,"N_COORD97":2581056.9399999999,"ADDRESS":"頂寮１０５號之７","OBJECTID":97486},"geometry":{"x":183681.7900000019,"y":2581056.9399999976}},{"attributes":{"ID":97487,"DIS_CODE":0,"TOWNNAME":"安平區","LI":"平通里","LIN":"21鄰","STREET":"育平九街","SECT":" ","MAREA":" ","LANE":"３７２巷","ALLEY":"１６５弄","HOUSE_NO":"８號","E_COORD97":164570.14999999999,"N_COORD97":2544165.3599999999,"ADDRESS":"育平九街３７２巷１６５弄８號","OBJECTID":97487},"geometry":{"x":164570.1500000013,"y":2544165.3599999994}},{"attributes":{"ID":97488,"DIS_CODE":0,"TOWNNAME":"新營區","LI":"南紙里","LIN":"21鄰","STREET":"建業路","SECT":" ","MAREA":" ","LANE":"２２７巷","ALLEY":"２弄","HOUSE_NO":"７號","E_COORD97":178082.53,"N_COORD97":2577462.2599999998,"ADDRESS":"建業路２２７巷２弄７號","OBJECTID":97488},"geometry":{"x":178082.53000000026,"y":2577462.2600000016}},{"attributes":{"ID":97489,"DIS_CODE":0,"TOWNNAME":"東區","LI":"富強里","LIN":"15鄰","STREET":"裕農路","SECT":" ","MAREA":" ","LANE":"３５０巷","ALLEY":" ","HOUSE_NO":"２８號","E_COORD97":171038.63,"N_COORD97":2542972.7400000002,"ADDRESS":"裕農路３５０巷２８號","OBJECTID":97489},"geometry":{"x":171038.63000000082,"y":2542972.7400000021}},{"attributes":{"ID":97490,"DIS_CODE":0,"TOWNNAME":"後壁區","LI":"頂安里","LIN":"10鄰","STREET":" ","SECT":" ","MAREA":"頂寮","LANE":" ","ALLEY":" ","HOUSE_NO":"１０５號之８０","E_COORD97":183640.94,"N_COORD97":2581090.96,"ADDRESS":"頂寮１０５號之８０","OBJECTID":97490},"geometry":{"x":183640.94000000134,"y":2581090.9600000009}},{"attributes":{"ID":97491,"DIS_CODE":0,"TOWNNAME":"後壁區","LI":"頂安里","LIN":"10鄰","STREET":" ","SECT":" ","MAREA":"頂寮","LANE":" ","ALLEY":" ","HOUSE_NO":"１０５號之８１","E_COORD97":183632.25,"N_COORD97":2581067.9399999999,"ADDRESS":"頂寮１０５號之８１","OBJECTID":97491},"geometry":{"x":183632.25,"y":2581067.9400000013}},{"attributes":{"ID":97492,"DIS_CODE":0,"TOWNNAME":"後壁區","LI":"頂安里","LIN":"10鄰","STREET":" ","SECT":" ","MAREA":"頂寮","LANE":" ","ALLEY":" ","HOUSE_NO":"１０５號之８２","E_COORD97":183632,"N_COORD97":2581090.1699999999,"ADDRESS":"頂寮１０５號之８２","OBJECTID":97492},"geometry":{"x":183632,"y":2581090.1700000037}},{"attributes":{"ID":97493,"DIS_CODE":0,"TOWNNAME":"後壁區","LI":"頂安里","LIN":"10鄰","STREET":" ","SECT":" ","MAREA":"頂寮","LANE":" ","ALLEY":" ","HOUSE_NO":"１０５號之８３","E_COORD97":183627.64999999999,"N_COORD97":2581066.3700000001,"ADDRESS":"頂寮１０５號之８３","OBJECTID":97493},"geometry":{"x":183627.6500000013,"y":2581066.3700000048}},{"attributes":{"ID":97494,"DIS_CODE":0,"TOWNNAME":"後壁區","LI":"頂安里","LIN":"10鄰","STREET":" ","SECT":" ","MAREA":"頂寮","LANE":" ","ALLEY":" ","HOUSE_NO":"１０５號之８４","E_COORD97":183628.42999999999,"N_COORD97":2581089.5600000001,"ADDRESS":"頂寮１０５號之８４","OBJECTID":97494},"geometry":{"x":183628.43000000063,"y":2581089.5600000024}},{"attributes":{"ID":97495,"DIS_CODE":0,"TOWNNAME":"後壁區","LI":"頂安里","LIN":"10鄰","STREET":" ","SECT":" ","MAREA":"頂寮","LANE":" ","ALLEY":" ","HOUSE_NO":"１０５號之８５","E_COORD97":183622.95999999999,"N_COORD97":2581065.9700000002,"ADDRESS":"頂寮１０５號之８５","OBJECTID":97495},"geometry":{"x":183622.96000000089,"y":2581065.9700000025}},{"attributes":{"ID":97496,"DIS_CODE":0,"TOWNNAME":"後壁區","LI":"頂安里","LIN":"10鄰","STREET":" ","SECT":" ","MAREA":"頂寮","LANE":" ","ALLEY":" ","HOUSE_NO":"１０５號之８６","E_COORD97":183623.60999999999,"N_COORD97":2581088.79,"ADDRESS":"頂寮１０５號之８６","OBJECTID":97496},"geometry":{"x":183623.61000000034,"y":2581088.790000001}},{"attributes":{"ID":97497,"DIS_CODE":0,"TOWNNAME":"後壁區","LI":"頂安里","LIN":"10鄰","STREET":" ","SECT":" ","MAREA":"頂寮","LANE":" ","ALLEY":" ","HOUSE_NO":"１０５號之８７","E_COORD97":183618.20000000001,"N_COORD97":2581065.1499999999,"ADDRESS":"頂寮１０５號之８７","OBJECTID":97497},"geometry":{"x":183618.20000000112,"y":2581065.1500000022}},{"attributes":{"ID":97498,"DIS_CODE":0,"TOWNNAME":"後壁區","LI":"頂安里","LIN":"10鄰","STREET":" ","SECT":" ","MAREA":"頂寮","LANE":" ","ALLEY":" ","HOUSE_NO":"１０５號之８８","E_COORD97":183619.20999999999,"N_COORD97":2581088.1299999999,"ADDRESS":"頂寮１０５號之８８","OBJECTID":97498},"geometry":{"x":183619.20999999996,"y":2581088.129999999}},{"attributes":{"ID":97499,"DIS_CODE":0,"TOWNNAME":"東區","LI":"富強里","LIN":"15鄰","STREET":"裕農路","SECT":" ","MAREA":" ","LANE":"３５０巷","ALLEY":" ","HOUSE_NO":"２號","E_COORD97":171011.44,"N_COORD97":2543025.23,"ADDRESS":"裕農路３５０巷２號","OBJECTID":97499},"geometry":{"x":171011.44000000134,"y":2543025.2300000004}},{"attributes":{"ID":97500,"DIS_CODE":0,"TOWNNAME":"東區","LI":"富強里","LIN":"15鄰","STREET":"裕農路","SECT":" ","MAREA":" ","LANE":"３５０巷","ALLEY":" ","HOUSE_NO":"３０號","E_COORD97":171039.89999999999,"N_COORD97":2542968.9500000002,"ADDRESS":"裕農路３５０巷３０號","OBJECTID":97500},"geometry":{"x":171039.90000000037,"y":2542968.9499999993}},{"attributes":{"ID":97501,"DIS_CODE":0,"TOWNNAME":"永康區","LI":"中華里","LIN":"15鄰","STREET":"華興街","SECT":" ","MAREA":" ","LANE":" ","ALLEY":" ","HOUSE_NO":"８７號","E_COORD97":171808.69,"N_COORD97":2544562.7999999998,"ADDRESS":"華興街８７號","OBJECTID":97501},"geometry":{"x":171808.69000000134,"y":2544562.8000000026}},{"attributes":{"ID":97502,"DIS_CODE":0,"TOWNNAME":"中西區","LI":"三合里","LIN":"15鄰","STREET":"文賢路","SECT":" ","MAREA":" ","LANE":" ","ALLEY":" ","HOUSE_NO":"７４號","E_COORD97":167422.81,"N_COORD97":2544612.4300000002,"ADDRESS":"文賢路７４號","OBJECTID":97502},"geometry":{"x":167422.81000000052,"y":2544612.4300000016}},{"attributes":{"ID":97503,"DIS_CODE":0,"TOWNNAME":"中西區","LI":"三合里","LIN":"15鄰","STREET":"信義街","SECT":" ","MAREA":" ","LANE":" ","ALLEY":" ","HOUSE_NO":"１１８號","E_COORD97":167439.03,"N_COORD97":2544589.6800000002,"ADDRESS":"信義街１１８號","OBJECTID":97503},"geometry":{"x":167439.03000000119,"y":2544589.6800000016}},{"attributes":{"ID":97504,"DIS_CODE":0,"TOWNNAME":"新營區","LI":"王公里","LIN":"10鄰","STREET":"民族路","SECT":" ","MAREA":" ","LANE":" ","ALLEY":" ","HOUSE_NO":"９８號","E_COORD97":180321.64999999999,"N_COORD97":2579149.29,"ADDRESS":"民族路９８號","OBJECTID":97504},"geometry":{"x":180321.6500000013,"y":2579149.2900000028}},{"attributes":{"ID":97505,"DIS_CODE":0,"TOWNNAME":"白河區","LI":"仙草里","LIN":"15鄰","STREET":" ","SECT":" ","MAREA":"白水溪","LANE":" ","ALLEY":" ","HOUSE_NO":"６１號","E_COORD97":199149.95444999999,"N_COORD97":2585383.6726500001,"ADDRESS":"白水溪６１號","OBJECTID":97505},"geometry":{"x":199149.95445000008,"y":2585383.672654001}},{"attributes":{"ID":97506,"DIS_CODE":0,"TOWNNAME":"後壁區","LI":"頂安里","LIN":"10鄰","STREET":" ","SECT":" ","MAREA":"頂寮","LANE":" ","ALLEY":" ","HOUSE_NO":"１０５號之８","E_COORD97":183677.51999999999,"N_COORD97":2581056.25,"ADDRESS":"頂寮１０５號之８","OBJECTID":97506},"geometry":{"x":183677.51999999955,"y":2581056.2500000019}},{"attributes":{"ID":97507,"DIS_CODE":0,"TOWNNAME":"後壁區","LI":"頂安里","LIN":"10鄰","STREET":" ","SECT":" ","MAREA":"頂寮","LANE":" ","ALLEY":" ","HOUSE_NO":"１０５號之９０","E_COORD97":183614.91,"N_COORD97":2581087.0600000001,"ADDRESS":"頂寮１０５號之９０","OBJECTID":97507},"geometry":{"x":183614.91000000201,"y":2581087.0600000005}},{"attributes":{"ID":97508,"DIS_CODE":0,"TOWNNAME":"後壁區","LI":"頂安里","LIN":"10鄰","STREET":" ","SECT":" ","MAREA":"頂寮","LANE":" ","ALLEY":" ","HOUSE_NO":"１０５號之９１","E_COORD97":183609.17999999999,"N_COORD97":2581063.73,"ADDRESS":"頂寮１０５號之９１","OBJECTID":97508},"geometry":{"x":183609.18000000156,"y":2581063.7300000023}},{"attributes":{"ID":97509,"DIS_CODE":0,"TOWNNAME":"後壁區","LI":"頂安里","LIN":"10鄰","STREET":" ","SECT":" ","MAREA":"頂寮","LANE":" ","ALLEY":" ","HOUSE_NO":"１０５號之９２","E_COORD97":183610.22,"N_COORD97":2581086.1499999999,"ADDRESS":"頂寮１０５號之９２","OBJECTID":97509},"geometry":{"x":183610.21999999974,"y":2581086.1500000004}},{"attributes":{"ID":97510,"DIS_CODE":0,"TOWNNAME":"後壁區","LI":"頂安里","LIN":"10鄰","STREET":" ","SECT":" ","MAREA":"頂寮","LANE":" ","ALLEY":" ","HOUSE_NO":"１０５號之９３","E_COORD97":183604.82000000001,"N_COORD97":2581062.6299999999,"ADDRESS":"頂寮１０５號之９３","OBJECTID":97510},"geometry":{"x":183604.8200000003,"y":2581062.6300000008}},{"attributes":{"ID":97511,"DIS_CODE":0,"TOWNNAME":"後壁區","LI":"頂安里","LIN":"10鄰","STREET":" ","SECT":" ","MAREA":"頂寮","LANE":" ","ALLEY":" ","HOUSE_NO":"１０５號之９４","E_COORD97":183605.07999999999,"N_COORD97":2581085.0899999999,"ADDRESS":"頂寮１０５號之９４","OBJECTID":97511},"geometry":{"x":183605.07999999914,"y":2581085.0900000017}},{"attributes":{"ID":97512,"DIS_CODE":0,"TOWNNAME":"後壁區","LI":"頂安里","LIN":"10鄰","STREET":" ","SECT":" ","MAREA":"頂寮","LANE":" ","ALLEY":" ","HOUSE_NO":"１０５號之９５","E_COORD97":183600.20999999999,"N_COORD97":2581061.79,"ADDRESS":"頂寮１０５號之９５","OBJECTID":97512},"geometry":{"x":183600.20999999996,"y":2581061.790000001}},{"attributes":{"ID":97513,"DIS_CODE":0,"TOWNNAME":"後壁區","LI":"頂安里","LIN":"10鄰","STREET":" ","SECT":" ","MAREA":"頂寮","LANE":" ","ALLEY":" ","HOUSE_NO":"１０５號之９７","E_COORD97":183596.07999999999,"N_COORD97":2581061.3500000001,"ADDRESS":"頂寮１０５號之９７","OBJECTID":97513},"geometry":{"x":183596.08000000007,"y":2581061.3500000034}},{"attributes":{"ID":97514,"DIS_CODE":0,"TOWNNAME":"後壁區","LI":"頂安里","LIN":"10鄰","STREET":" ","SECT":" ","MAREA":"頂寮","LANE":" ","ALLEY":" ","HOUSE_NO":"１０５號之９８","E_COORD97":183596.35999999999,"N_COORD97":2581085.48,"ADDRESS":"頂寮１０５號之９８","OBJECTID":97514},"geometry":{"x":183596.36000000034,"y":2581085.4800000023}},{"attributes":{"ID":97515,"DIS_CODE":0,"TOWNNAME":"後壁區","LI":"頂安里","LIN":"10鄰","STREET":" ","SECT":" ","MAREA":"頂寮","LANE":" ","ALLEY":" ","HOUSE_NO":"１０５號之９","E_COORD97":183673.54000000001,"N_COORD97":2581055.4300000002,"ADDRESS":"頂寮１０５號之９","OBJECTID":97515},"geometry":{"x":183673.54000000097,"y":2581055.4300000016}},{"attributes":{"ID":97516,"DIS_CODE":0,"TOWNNAME":"後壁區","LI":"頂安里","LIN":"10鄰","STREET":" ","SECT":" ","MAREA":"頂寮","LANE":" ","ALLEY":" ","HOUSE_NO":"１０６號之１００","E_COORD97":183616.22,"N_COORD97":2581127.5600000001,"ADDRESS":"頂寮１０６號之１００","OBJECTID":97516},"geometry":{"x":183616.22000000067,"y":2581127.5600000005}},{"attributes":{"ID":97517,"DIS_CODE":0,"TOWNNAME":"後壁區","LI":"頂安里","LIN":"10鄰","STREET":" ","SECT":" ","MAREA":"頂寮","LANE":" ","ALLEY":" ","HOUSE_NO":"１０６號之１０","E_COORD97":183522.79000000001,"N_COORD97":2581045.1699999999,"ADDRESS":"頂寮１０６號之１０","OBJECTID":97517},"geometry":{"x":183522.79000000097,"y":2581045.1699999999}},{"attributes":{"ID":97518,"DIS_CODE":0,"TOWNNAME":"後壁區","LI":"頂安里","LIN":"10鄰","STREET":" ","SECT":" ","MAREA":"頂寮","LANE":" ","ALLEY":" ","HOUSE_NO":"１０６號之１１","E_COORD97":183503.32999999999,"N_COORD97":2581048.8100000001,"ADDRESS":"頂寮１０６號之１１","OBJECTID":97518},"geometry":{"x":183503.32999999914,"y":2581048.8099999987}},{"attributes":{"ID":97519,"DIS_CODE":0,"TOWNNAME":"後壁區","LI":"頂安里","LIN":"10鄰","STREET":" ","SECT":" ","MAREA":"頂寮","LANE":" ","ALLEY":" ","HOUSE_NO":"１０６號之１２","E_COORD97":183487.73000000001,"N_COORD97":2581049.5499999998,"ADDRESS":"頂寮１０６號之１２","OBJECTID":97519},"geometry":{"x":183487.73000000138,"y":2581049.5500000007}},{"attributes":{"ID":97520,"DIS_CODE":0,"TOWNNAME":"後壁區","LI":"頂安里","LIN":"10鄰","STREET":" ","SECT":" ","MAREA":"頂寮","LANE":" ","ALLEY":" ","HOUSE_NO":"１０６號之１３","E_COORD97":183466.82000000001,"N_COORD97":2581050.5699999998,"ADDRESS":"頂寮１０６號之１３","OBJECTID":97520},"geometry":{"x":183466.82000000123,"y":2581050.570000004}},{"attributes":{"ID":97521,"DIS_CODE":0,"TOWNNAME":"後壁區","LI":"頂安里","LIN":"10鄰","STREET":" ","SECT":" ","MAREA":"頂寮","LANE":" ","ALLEY":" ","HOUSE_NO":"１０６號之１５","E_COORD97":183468.26999999999,"N_COORD97":2581067.3999999999,"ADDRESS":"頂寮１０６號之１５","OBJECTID":97521},"geometry":{"x":183468.27000000048,"y":2581067.4000000004}},{"attributes":{"ID":97522,"DIS_CODE":0,"TOWNNAME":"後壁區","LI":"頂安里","LIN":"10鄰","STREET":" ","SECT":" ","MAREA":"頂寮","LANE":" ","ALLEY":" ","HOUSE_NO":"１０６號之１６","E_COORD97":183480.01999999999,"N_COORD97":2581066.5,"ADDRESS":"頂寮１０６號之１６","OBJECTID":97522},"geometry":{"x":183480.02000000048,"y":2581066.5}},{"attributes":{"ID":97523,"DIS_CODE":0,"TOWNNAME":"後壁區","LI":"頂安里","LIN":"10鄰","STREET":" ","SECT":" ","MAREA":"頂寮","LANE":" ","ALLEY":" ","HOUSE_NO":"１０６號之１７","E_COORD97":183491.76999999999,"N_COORD97":2581065.6000000001,"ADDRESS":"頂寮１０６號之１７","OBJECTID":97523},"geometry":{"x":183491.77000000048,"y":2581065.5999999996}},{"attributes":{"ID":97524,"DIS_CODE":0,"TOWNNAME":"後壁區","LI":"頂安里","LIN":"10鄰","STREET":" ","SECT":" ","MAREA":"頂寮","LANE":" ","ALLEY":" ","HOUSE_NO":"１０６號之１８","E_COORD97":183503.51999999999,"N_COORD97":2581064.71,"ADDRESS":"頂寮１０６號之１８","OBJECTID":97524},"geometry":{"x":183503.52000000048,"y":2581064.7100000028}},{"attributes":{"ID":97525,"DIS_CODE":0,"TOWNNAME":"新營區","LI":"南紙里","LIN":"21鄰","STREET":"建業路","SECT":" ","MAREA":" ","LANE":"２２７巷","ALLEY":"２０弄","HOUSE_NO":"１號","E_COORD97":178106.75,"N_COORD97":2577400.1299999999,"ADDRESS":"建業路２２７巷２０弄１號","OBJECTID":97525},"geometry":{"x":178106.75000000093,"y":2577400.129999999}},{"attributes":{"ID":97526,"DIS_CODE":0,"TOWNNAME":"新營區","LI":"南紙里","LIN":"21鄰","STREET":"建業路","SECT":" ","MAREA":" ","LANE":"２２７巷","ALLEY":"２０弄","HOUSE_NO":"３９號","E_COORD97":178020.14999999999,"N_COORD97":2577406.0899999999,"ADDRESS":"建業路２２７巷２０弄３９號","OBJECTID":97526},"geometry":{"x":178020.1500000013,"y":2577406.0900000017}},{"attributes":{"ID":97527,"DIS_CODE":0,"TOWNNAME":"麻豆區","LI":"東角里","LIN":"15鄰","STREET":"民生路","SECT":" ","MAREA":" ","LANE":" ","ALLEY":" ","HOUSE_NO":"４３號之１","E_COORD97":173763.48970100001,"N_COORD97":2564511.9238200001,"ADDRESS":"民生路４３號之１","OBJECTID":97527},"geometry":{"x":173763.4897010019,"y":2564511.9238180015}},{"attributes":{"ID":97528,"DIS_CODE":0,"TOWNNAME":"後壁區","LI":"頂安里","LIN":"10鄰","STREET":" ","SECT":" ","MAREA":"頂寮","LANE":" ","ALLEY":" ","HOUSE_NO":"１０６號之１９","E_COORD97":183520.98000000001,"N_COORD97":2581060.77,"ADDRESS":"頂寮１０６號之１９","OBJECTID":97528},"geometry":{"x":183520.98000000045,"y":2581060.7699999996}},{"attributes":{"ID":97529,"DIS_CODE":0,"TOWNNAME":"後壁區","LI":"頂安里","LIN":"10鄰","STREET":" ","SECT":" ","MAREA":"頂寮","LANE":" ","ALLEY":" ","HOUSE_NO":"１０６號之２０","E_COORD97":183526.94,"N_COORD97":2581061.54,"ADDRESS":"頂寮１０６號之２０","OBJECTID":97529},"geometry":{"x":183526.94000000134,"y":2581061.5399999991}},{"attributes":{"ID":97530,"DIS_CODE":0,"TOWNNAME":"後壁區","LI":"頂安里","LIN":"10鄰","STREET":" ","SECT":" ","MAREA":"頂寮","LANE":" ","ALLEY":" ","HOUSE_NO":"１０６號之２１","E_COORD97":183537.51999999999,"N_COORD97":2581059.54,"ADDRESS":"頂寮１０６號之２１","OBJECTID":97530},"geometry":{"x":183537.52000000048,"y":2581059.5400000028}},{"attributes":{"ID":97531,"DIS_CODE":0,"TOWNNAME":"後壁區","LI":"頂安里","LIN":"10鄰","STREET":" ","SECT":" ","MAREA":"頂寮","LANE":" ","ALLEY":" ","HOUSE_NO":"１０６號之２２","E_COORD97":183543.48000000001,"N_COORD97":2581060.2999999998,"ADDRESS":"頂寮１０６號之２２","OBJECTID":97531},"geometry":{"x":183543.48000000231,"y":2581060.3000000026}},{"attributes":{"ID":97532,"DIS_CODE":0,"TOWNNAME":"後壁區","LI":"頂安里","LIN":"10鄰","STREET":" ","SECT":" ","MAREA":"頂寮","LANE":" ","ALLEY":" ","HOUSE_NO":"１０６號之２３","E_COORD97":183554.04999999999,"N_COORD97":2581058.2999999998,"ADDRESS":"頂寮１０６號之２３","OBJECTID":97532},"geometry":{"x":183554.04999999981,"y":2581058.3000000007}},{"attributes":{"ID":97533,"DIS_CODE":0,"TOWNNAME":"後壁區","LI":"頂安里","LIN":"10鄰","STREET":" ","SECT":" ","MAREA":"頂寮","LANE":" ","ALLEY":" ","HOUSE_NO":"１０６號之２５","E_COORD97":183560.01000000001,"N_COORD97":2581059.0699999998,"ADDRESS":"頂寮１０６號之２５","OBJECTID":97533},"geometry":{"x":183560.01000000071,"y":2581059.0700000003}},{"attributes":{"ID":97534,"DIS_CODE":0,"TOWNNAME":"後壁區","LI":"頂安里","LIN":"10鄰","STREET":" ","SECT":" ","MAREA":"頂寮","LANE":" ","ALLEY":" ","HOUSE_NO":"１０６號之２６","E_COORD97":183570.59,"N_COORD97":2581057.0699999998,"ADDRESS":"頂寮１０６號之２６","OBJECTID":97534},"geometry":{"x":183570.58999999985,"y":2581057.070000004}},{"attributes":{"ID":97535,"DIS_CODE":0,"TOWNNAME":"鹽水區","LI":"水正里","LIN":"8鄰","STREET":"中正路","SECT":" ","MAREA":" ","LANE":" ","ALLEY":" ","HOUSE_NO":"８９號","E_COORD97":175107.23000000001,"N_COORD97":2579766.4100000001,"ADDRESS":"中正路８９號","OBJECTID":97535},"geometry":{"x":175107.23000000138,"y":2579766.4100000039}},{"attributes":{"ID":97536,"DIS_CODE":0,"TOWNNAME":"新營區","LI":"忠政里","LIN":"28鄰","STREET":"中正路","SECT":" ","MAREA":" ","LANE":"３９巷","ALLEY":" ","HOUSE_NO":"８３號","E_COORD97":179865.07999999999,"N_COORD97":2579261.0800000001,"ADDRESS":"中正路３９巷８３號","OBJECTID":97536},"geometry":{"x":179865.08000000007,"y":2579261.0800000019}},{"attributes":{"ID":97537,"DIS_CODE":0,"TOWNNAME":"新營區","LI":"五興里","LIN":"14鄰","STREET":" ","SECT":" ","MAREA":"五間厝","LANE":" ","ALLEY":" ","HOUSE_NO":"１５１之２號","E_COORD97":175406.20999999999,"N_COORD97":2574380.2200000002,"ADDRESS":"五間厝１５１之２號","OBJECTID":97537},"geometry":{"x":175406.21000000183,"y":2574380.2200000007}},{"attributes":{"ID":97538,"DIS_CODE":0,"TOWNNAME":"後壁區","LI":"頂安里","LIN":"10鄰","STREET":" ","SECT":" ","MAREA":"頂寮","LANE":" ","ALLEY":" ","HOUSE_NO":"１０６號之２７","E_COORD97":183578.85000000001,"N_COORD97":2581056.4500000002,"ADDRESS":"頂寮１０６號之２７","OBJECTID":97538},"geometry":{"x":183578.84999999963,"y":2581056.4499999993}},{"attributes":{"ID":97539,"DIS_CODE":0,"TOWNNAME":"後壁區","LI":"頂安里","LIN":"10鄰","STREET":" ","SECT":" ","MAREA":"頂寮","LANE":" ","ALLEY":" ","HOUSE_NO":"１０６號之２８","E_COORD97":183573.60000000001,"N_COORD97":2581079.4199999999,"ADDRESS":"頂寮１０６號之２８","OBJECTID":97539},"geometry":{"x":183573.59999999963,"y":2581079.4200000018}},{"attributes":{"ID":97540,"DIS_CODE":0,"TOWNNAME":"後壁區","LI":"頂安里","LIN":"10鄰","STREET":" ","SECT":" ","MAREA":"頂寮","LANE":" ","ALLEY":" ","HOUSE_NO":"１０６號之２９","E_COORD97":183562.13,"N_COORD97":2581080.3700000001,"ADDRESS":"頂寮１０６號之２９","OBJECTID":97540},"geometry":{"x":183562.12999999896,"y":2581080.3700000029}},{"attributes":{"ID":97541,"DIS_CODE":0,"TOWNNAME":"後壁區","LI":"頂安里","LIN":"10鄰","STREET":" ","SECT":" ","MAREA":"頂寮","LANE":" ","ALLEY":" ","HOUSE_NO":"１０６號之３０","E_COORD97":183556.51000000001,"N_COORD97":2581080.8100000001,"ADDRESS":"頂寮１０６號之３０","OBJECTID":97541},"geometry":{"x":183556.51000000071,"y":2581080.8100000024}},{"attributes":{"ID":97542,"DIS_CODE":0,"TOWNNAME":"後壁區","LI":"頂安里","LIN":"10鄰","STREET":" ","SECT":" ","MAREA":"頂寮","LANE":" ","ALLEY":" ","HOUSE_NO":"１０６號之３１","E_COORD97":183546.42000000001,"N_COORD97":2581081.4199999999,"ADDRESS":"頂寮１０６號之３１","OBJECTID":97542},"geometry":{"x":183546.41999999993,"y":2581081.4200000037}},{"attributes":{"ID":97543,"DIS_CODE":0,"TOWNNAME":"後壁區","LI":"頂安里","LIN":"10鄰","STREET":" ","SECT":" ","MAREA":"頂寮","LANE":" ","ALLEY":" ","HOUSE_NO":"１０６號之３２","E_COORD97":183537.88,"N_COORD97":2581082.1099999999,"ADDRESS":"頂寮１０６號之３２","OBJECTID":97543},"geometry":{"x":183537.87999999989,"y":2581082.1099999994}},{"attributes":{"ID":97544,"DIS_CODE":0,"TOWNNAME":"後壁區","LI":"頂安里","LIN":"10鄰","STREET":" ","SECT":" ","MAREA":"頂寮","LANE":" ","ALLEY":" ","HOUSE_NO":"１０６號之３３","E_COORD97":183529.32999999999,"N_COORD97":2581083.4300000002,"ADDRESS":"頂寮１０６號之３３","OBJECTID":97544},"geometry":{"x":183529.33000000101,"y":2581083.4299999997}},{"attributes":{"ID":97545,"DIS_CODE":0,"TOWNNAME":"後壁區","LI":"頂安里","LIN":"10鄰","STREET":" ","SECT":" ","MAREA":"頂寮","LANE":" ","ALLEY":" ","HOUSE_NO":"１０６號之３５","E_COORD97":183520.78,"N_COORD97":2581084.1200000001,"ADDRESS":"頂寮１０６號之３５","OBJECTID":97545},"geometry":{"x":183520.78000000026,"y":2581084.120000001}},{"attributes":{"ID":97546,"DIS_CODE":0,"TOWNNAME":"新營區","LI":"南紙里","LIN":"21鄰","STREET":"建業路","SECT":" ","MAREA":" ","LANE":"２２７巷","ALLEY":"２弄","HOUSE_NO":"３５號","E_COORD97":178021.45999999999,"N_COORD97":2577465.8799999999,"ADDRESS":"建業路２２７巷２弄３５號","OBJECTID":97546},"geometry":{"x":178021.45999999996,"y":2577465.879999999}},{"attributes":{"ID":97547,"DIS_CODE":0,"TOWNNAME":"新營區","LI":"南紙里","LIN":"21鄰","STREET":"建業路","SECT":" ","MAREA":" ","LANE":"２２７巷","ALLEY":"２０弄","HOUSE_NO":"１９號","E_COORD97":178065.04999999999,"N_COORD97":2577401.4399999999,"ADDRESS":"建業路２２７巷２０弄１９號","OBJECTID":97547},"geometry":{"x":178065.04999999981,"y":2577401.4399999995}},{"attributes":{"ID":97548,"DIS_CODE":0,"TOWNNAME":"新營區","LI":"南紙里","LIN":"21鄰","STREET":"建業路","SECT":" ","MAREA":" ","LANE":"２２７巷","ALLEY":"１６弄","HOUSE_NO":"２６號","E_COORD97":178066.28,"N_COORD97":2577430.23,"ADDRESS":"建業路２２７巷１６弄２６號","OBJECTID":97548},"geometry":{"x":178066.28000000119,"y":2577430.2300000023}},{"attributes":{"ID":97549,"DIS_CODE":0,"TOWNNAME":"新營區","LI":"南紙里","LIN":"21鄰","STREET":"建業路","SECT":" ","MAREA":" ","LANE":"２２７巷","ALLEY":"１６弄","HOUSE_NO":"３４號","E_COORD97":178038.67999999999,"N_COORD97":2577431.4700000002,"ADDRESS":"建業路２２７巷１６弄３４號","OBJECTID":97549},"geometry":{"x":178038.67999999877,"y":2577431.4700000025}},{"attributes":{"ID":97550,"DIS_CODE":0,"TOWNNAME":"新營區","LI":"南紙里","LIN":"21鄰","STREET":"建業路","SECT":" ","MAREA":" ","LANE":"２２７巷","ALLEY":"２０弄","HOUSE_NO":"２５號","E_COORD97":178052.85000000001,"N_COORD97":2577403.7200000002,"ADDRESS":"建業路２２７巷２０弄２５號","OBJECTID":97550},"geometry":{"x":178052.85000000149,"y":2577403.7200000007}},{"attributes":{"ID":97551,"DIS_CODE":0,"TOWNNAME":"新營區","LI":"南紙里","LIN":"21鄰","STREET":"建業路","SECT":" ","MAREA":" ","LANE":"２２７巷","ALLEY":"１６弄","HOUSE_NO":"２８號","E_COORD97":178061.16,"N_COORD97":2577430.25,"ADDRESS":"建業路２２７巷１６弄２８號","OBJECTID":97551},"geometry":{"x":178061.16000000015,"y":2577430.25}},{"attributes":{"ID":97552,"DIS_CODE":0,"TOWNNAME":"後壁區","LI":"頂安里","LIN":"10鄰","STREET":" ","SECT":" ","MAREA":"頂寮","LANE":" ","ALLEY":" ","HOUSE_NO":"１０６號之３６","E_COORD97":183506.28,"N_COORD97":2581085.3700000001,"ADDRESS":"頂寮１０６號之３６","OBJECTID":97552},"geometry":{"x":183506.28000000119,"y":2581085.370000001}},{"attributes":{"ID":97553,"DIS_CODE":0,"TOWNNAME":"新營區","LI":"南紙里","LIN":"21鄰","STREET":"建業路","SECT":" ","MAREA":" ","LANE":"２２７巷","ALLEY":"２０弄","HOUSE_NO":"１１號","E_COORD97":178084.47,"N_COORD97":2577400.2400000002,"ADDRESS":"建業路２２７巷２０弄１１號","OBJECTID":97553},"geometry":{"x":178084.47000000067,"y":2577400.2400000002}},{"attributes":{"ID":97554,"DIS_CODE":0,"TOWNNAME":"新營區","LI":"南紙里","LIN":"21鄰","STREET":"建業路","SECT":" ","MAREA":" ","LANE":"２２７巷","ALLEY":"２０弄","HOUSE_NO":"２３號","E_COORD97":178056.94,"N_COORD97":2577403.7000000002,"ADDRESS":"建業路２２７巷２０弄２３號","OBJECTID":97554},"geometry":{"x":178056.94000000134,"y":2577403.700000003}},{"attributes":{"ID":97555,"DIS_CODE":0,"TOWNNAME":"新營區","LI":"南紙里","LIN":"21鄰","STREET":"建業路","SECT":" ","MAREA":" ","LANE":"２２７巷","ALLEY":"２０弄","HOUSE_NO":"１３號","E_COORD97":178079.35999999999,"N_COORD97":2577401.3700000001,"ADDRESS":"建業路２２７巷２０弄１３號","OBJECTID":97555},"geometry":{"x":178079.36000000127,"y":2577401.3700000048}},{"attributes":{"ID":97556,"DIS_CODE":0,"TOWNNAME":"新營區","LI":"南紙里","LIN":"21鄰","STREET":"建業路","SECT":" ","MAREA":" ","LANE":"２２７巷","ALLEY":"２０弄","HOUSE_NO":"２１號","E_COORD97":178061.01999999999,"N_COORD97":2577402.5699999998,"ADDRESS":"建業路２２７巷２０弄２１號","OBJECTID":97556},"geometry":{"x":178061.01999999955,"y":2577402.570000004}},{"attributes":{"ID":97557,"DIS_CODE":0,"TOWNNAME":"新營區","LI":"南紙里","LIN":"21鄰","STREET":"建業路","SECT":" ","MAREA":" ","LANE":"２２７巷","ALLEY":"１６弄","HOUSE_NO":"３８號","E_COORD97":178028.45999999999,"N_COORD97":2577432.6299999999,"ADDRESS":"建業路２２７巷１６弄３８號","OBJECTID":97557},"geometry":{"x":178028.45999999996,"y":2577432.6300000008}},{"attributes":{"ID":97558,"DIS_CODE":0,"TOWNNAME":"新營區","LI":"南紙里","LIN":"21鄰","STREET":"建業路","SECT":" ","MAREA":" ","LANE":"２２７巷","ALLEY":"１６弄","HOUSE_NO":"３６號","E_COORD97":178033.57000000001,"N_COORD97":2577432.6000000001,"ADDRESS":"建業路２２７巷１６弄３６號","OBJECTID":97558},"geometry":{"x":178033.57000000123,"y":2577432.6000000015}},{"attributes":{"ID":97559,"DIS_CODE":0,"TOWNNAME":"新營區","LI":"南紙里","LIN":"21鄰","STREET":"建業路","SECT":" ","MAREA":" ","LANE":"２２７巷","ALLEY":"１６弄","HOUSE_NO":"６號","E_COORD97":178101.78,"N_COORD97":2577427.8300000001,"ADDRESS":"建業路２２７巷１６弄６號","OBJECTID":97559},"geometry":{"x":178101.78000000119,"y":2577427.8300000019}},{"attributes":{"ID":97560,"DIS_CODE":0,"TOWNNAME":"中西區","LI":"普濟里","LIN":"15鄰","STREET":"成功路","SECT":" ","MAREA":" ","LANE":" ","ALLEY":" ","HOUSE_NO":"３１９號","E_COORD97":168031.04000000001,"N_COORD97":2544489.8500000001,"ADDRESS":"成功路３１９號","OBJECTID":97560},"geometry":{"x":168031.04000000004,"y":2544489.8500000015}},{"attributes":{"ID":97561,"DIS_CODE":0,"TOWNNAME":"中西區","LI":"普濟里","LIN":"15鄰","STREET":"成功路","SECT":" ","MAREA":" ","LANE":" ","ALLEY":" ","HOUSE_NO":"３２１號","E_COORD97":168026.26999999999,"N_COORD97":2544490.3100000001,"ADDRESS":"成功路３２１號","OBJECTID":97561},"geometry":{"x":168026.27000000142,"y":2544490.3099999987}},{"attributes":{"ID":97562,"DIS_CODE":0,"TOWNNAME":"中西區","LI":"普濟里","LIN":"15鄰","STREET":"成功路","SECT":" ","MAREA":" ","LANE":" ","ALLEY":" ","HOUSE_NO":"３２３號","E_COORD97":168022.10999999999,"N_COORD97":2544492.2000000002,"ADDRESS":"成功路３２３號","OBJECTID":97562},"geometry":{"x":168022.11000000127,"y":2544492.1999999993}},{"attributes":{"ID":97563,"DIS_CODE":0,"TOWNNAME":"中西區","LI":"普濟里","LIN":"15鄰","STREET":"成功路","SECT":" ","MAREA":" ","LANE":" ","ALLEY":" ","HOUSE_NO":"３２５號","E_COORD97":168017.69,"N_COORD97":2544493.4700000002,"ADDRESS":"成功路３２５號","OBJECTID":97563},"geometry":{"x":168017.69000000134,"y":2544493.4700000025}},{"attributes":{"ID":97564,"DIS_CODE":0,"TOWNNAME":"中西區","LI":"普濟里","LIN":"15鄰","STREET":"成功路","SECT":" ","MAREA":" ","LANE":" ","ALLEY":" ","HOUSE_NO":"３２７號","E_COORD97":168014.16,"N_COORD97":2544495.1099999999,"ADDRESS":"成功路３２７號","OBJECTID":97564},"geometry":{"x":168014.16000000201,"y":2544495.1100000013}},{"attributes":{"ID":97565,"DIS_CODE":0,"TOWNNAME":"新營區","LI":"好平里","LIN":" ","STREET":"新進路","SECT":"二段","MAREA":" ","LANE":" ","ALLEY":" ","HOUSE_NO":"５７號","E_COORD97":179595.89999999999,"N_COORD97":2577727.4300000002,"ADDRESS":"新進路二段５７號","OBJECTID":97565},"geometry":{"x":179595.90000000224,"y":2577727.4299999997}},{"attributes":{"ID":97566,"DIS_CODE":0,"TOWNNAME":"新營區","LI":"王公里","LIN":"26鄰","STREET":"大公街","SECT":" ","MAREA":" ","LANE":" ","ALLEY":" ","HOUSE_NO":"６號","E_COORD97":180122.39999999999,"N_COORD97":2579665.1899999999,"ADDRESS":"大公街６號","OBJECTID":97566},"geometry":{"x":180122.40000000037,"y":2579665.1899999976}},{"attributes":{"ID":97567,"DIS_CODE":0,"TOWNNAME":"新營區","LI":"大宏里","LIN":"26鄰","STREET":"民族路","SECT":" ","MAREA":" ","LANE":" ","ALLEY":" ","HOUSE_NO":"１１號之２","E_COORD97":180287.95999999999,"N_COORD97":2578456.2400000002,"ADDRESS":"民族路１１號之２","OBJECTID":97567},"geometry":{"x":180287.95999999996,"y":2578456.2400000021}},{"attributes":{"ID":97568,"DIS_CODE":0,"TOWNNAME":"北區","LI":"正覺里","LIN":"21鄰","STREET":"正覺街","SECT":" ","MAREA":" ","LANE":"１０２巷","ALLEY":"４０弄","HOUSE_NO":"１０４號","E_COORD97":169410.98000000001,"N_COORD97":2546433.5600000001,"ADDRESS":"正覺街１０２巷４０弄１０４號","OBJECTID":97568},"geometry":{"x":169410.98000000138,"y":2546433.5600000005}},{"attributes":{"ID":97569,"DIS_CODE":0,"TOWNNAME":"北區","LI":"正覺里","LIN":"21鄰","STREET":"正覺街","SECT":" ","MAREA":" ","LANE":"１０２巷","ALLEY":"４０弄","HOUSE_NO":"１０６號","E_COORD97":169416.70000000001,"N_COORD97":2546432.27,"ADDRESS":"正覺街１０２巷４０弄１０６號","OBJECTID":97569},"geometry":{"x":169416.70000000019,"y":2546432.2699999977}},{"attributes":{"ID":97570,"DIS_CODE":0,"TOWNNAME":"北區","LI":"正覺里","LIN":"21鄰","STREET":"正覺街","SECT":" ","MAREA":" ","LANE":"１０２巷","ALLEY":"４０弄","HOUSE_NO":"１０８號","E_COORD97":169424.10000000001,"N_COORD97":2546430.1000000001,"ADDRESS":"正覺街１０２巷４０弄１０８號","OBJECTID":97570},"geometry":{"x":169424.09999999963,"y":2546430.0999999978}},{"attributes":{"ID":97571,"DIS_CODE":0,"TOWNNAME":"北區","LI":"正覺里","LIN":"21鄰","STREET":"正覺街","SECT":" ","MAREA":" ","LANE":"１０２巷","ALLEY":"４０弄","HOUSE_NO":"１０號","E_COORD97":169450.29999999999,"N_COORD97":2546458.4700000002,"ADDRESS":"正覺街１０２巷４０弄１０號","OBJECTID":97571},"geometry":{"x":169450.30000000168,"y":2546458.4700000007}},{"attributes":{"ID":97572,"DIS_CODE":0,"TOWNNAME":"佳里區","LI":"忠仁里","LIN":"15鄰","STREET":" ","SECT":" ","MAREA":"忠仁","LANE":" ","ALLEY":" ","HOUSE_NO":"１４號之１","E_COORD97":165858.41,"N_COORD97":2561952.5699999998,"ADDRESS":"忠仁１４號之１","OBJECTID":97572},"geometry":{"x":165858.41000000108,"y":2561952.570000004}},{"attributes":{"ID":97573,"DIS_CODE":0,"TOWNNAME":"佳里區","LI":"忠仁里","LIN":"15鄰","STREET":" ","SECT":" ","MAREA":"忠仁","LANE":" ","ALLEY":" ","HOUSE_NO":"１４號之５","E_COORD97":165856.73000000001,"N_COORD97":2561965.1200000001,"ADDRESS":"忠仁１４號之５","OBJECTID":97573},"geometry":{"x":165856.73000000138,"y":2561965.120000001}},{"attributes":{"ID":97574,"DIS_CODE":0,"TOWNNAME":"北區","LI":"正覺里","LIN":"21鄰","STREET":"正覺街","SECT":" ","MAREA":" ","LANE":"１０２巷","ALLEY":"４０弄","HOUSE_NO":"１１０號","E_COORD97":169431.03,"N_COORD97":2546427.9199999999,"ADDRESS":"正覺街１０２巷４０弄１１０號","OBJECTID":97574},"geometry":{"x":169431.03000000119,"y":2546427.9199999999}},{"attributes":{"ID":97575,"DIS_CODE":0,"TOWNNAME":"後壁區","LI":"頂安里","LIN":"10鄰","STREET":" ","SECT":" ","MAREA":"頂寮","LANE":" ","ALLEY":" ","HOUSE_NO":"１０６號之３７","E_COORD97":183494.62,"N_COORD97":2581086.25,"ADDRESS":"頂寮１０６號之３７","OBJECTID":97575},"geometry":{"x":183494.61999999918,"y":2581086.2500000037}},{"attributes":{"ID":97576,"DIS_CODE":0,"TOWNNAME":"後壁區","LI":"頂安里","LIN":"10鄰","STREET":" ","SECT":" ","MAREA":"頂寮","LANE":" ","ALLEY":" ","HOUSE_NO":"１０６號之３８","E_COORD97":183482.95999999999,"N_COORD97":2581087.1400000001,"ADDRESS":"頂寮１０６號之３８","OBJECTID":97576},"geometry":{"x":183482.95999999996,"y":2581087.1400000006}},{"attributes":{"ID":97577,"DIS_CODE":0,"TOWNNAME":"後壁區","LI":"頂安里","LIN":"10鄰","STREET":" ","SECT":" ","MAREA":"頂寮","LANE":" ","ALLEY":" ","HOUSE_NO":"１０６號之３９","E_COORD97":183471.29000000001,"N_COORD97":2581088.02,"ADDRESS":"頂寮１０６號之３９","OBJECTID":97577},"geometry":{"x":183471.29000000004,"y":2581088.0200000014}},{"attributes":{"ID":97578,"DIS_CODE":0,"TOWNNAME":"北區","LI":"正覺里","LIN":"21鄰","STREET":"正覺街","SECT":" ","MAREA":" ","LANE":"１０２巷","ALLEY":"４０弄","HOUSE_NO":"１２號","E_COORD97":169445.70999999999,"N_COORD97":2546459.8399999999,"ADDRESS":"正覺街１０２巷４０弄１２號","OBJECTID":97578},"geometry":{"x":169445.70999999996,"y":2546459.8400000017}},{"attributes":{"ID":97579,"DIS_CODE":0,"TOWNNAME":"後壁區","LI":"頂安里","LIN":"10鄰","STREET":" ","SECT":" ","MAREA":"頂寮","LANE":" ","ALLEY":" ","HOUSE_NO":"１０６號之４０","E_COORD97":183469.48000000001,"N_COORD97":2581104.0899999999,"ADDRESS":"頂寮１０６號之４０","OBJECTID":97579},"geometry":{"x":183469.48000000138,"y":2581104.0900000036}},{"attributes":{"ID":97580,"DIS_CODE":0,"TOWNNAME":"後壁區","LI":"頂安里","LIN":"10鄰","STREET":" ","SECT":" ","MAREA":"頂寮","LANE":" ","ALLEY":" ","HOUSE_NO":"１０６號之４１","E_COORD97":183476.10000000001,"N_COORD97":2581103.2599999998,"ADDRESS":"頂寮１０６號之４１","OBJECTID":97580},"geometry":{"x":183476.10000000056,"y":2581103.2600000016}},{"attributes":{"ID":97581,"DIS_CODE":0,"TOWNNAME":"北區","LI":"正覺里","LIN":"21鄰","STREET":"正覺街","SECT":" ","MAREA":" ","LANE":"１０２巷","ALLEY":"４０弄","HOUSE_NO":"１４號","E_COORD97":169441.76000000001,"N_COORD97":2546461.29,"ADDRESS":"正覺街１０２巷４０弄１４號","OBJECTID":97581},"geometry":{"x":169441.75999999978,"y":2546461.2899999991}},{"attributes":{"ID":97582,"DIS_CODE":0,"TOWNNAME":"後壁區","LI":"頂安里","LIN":"10鄰","STREET":" ","SECT":" ","MAREA":"頂寮","LANE":" ","ALLEY":" ","HOUSE_NO":"１０６號之４２","E_COORD97":183486.95999999999,"N_COORD97":2581102.6600000001,"ADDRESS":"頂寮１０６號之４２","OBJECTID":97582},"geometry":{"x":183486.95999999996,"y":2581102.6600000001}},{"attributes":{"ID":97583,"DIS_CODE":0,"TOWNNAME":"後壁區","LI":"頂安里","LIN":"10鄰","STREET":" ","SECT":" ","MAREA":"頂寮","LANE":" ","ALLEY":" ","HOUSE_NO":"１０６號之４３","E_COORD97":183493.57999999999,"N_COORD97":2581101.8300000001,"ADDRESS":"頂寮１０６號之４３","OBJECTID":97583},"geometry":{"x":183493.58000000101,"y":2581101.8300000001}},{"attributes":{"ID":97584,"DIS_CODE":0,"TOWNNAME":"北區","LI":"正覺里","LIN":"21鄰","STREET":"正覺街","SECT":" ","MAREA":" ","LANE":"１０２巷","ALLEY":"４０弄","HOUSE_NO":"１６號","E_COORD97":169437.98000000001,"N_COORD97":2546462.1699999999,"ADDRESS":"正覺街１０２巷４０弄１６號","OBJECTID":97584},"geometry":{"x":169437.98000000138,"y":2546462.1700000018}},{"attributes":{"ID":97585,"DIS_CODE":0,"TOWNNAME":"北區","LI":"正覺里","LIN":"21鄰","STREET":"正覺街","SECT":" ","MAREA":" ","LANE":"１０２巷","ALLEY":"４０弄","HOUSE_NO":"１８號","E_COORD97":169433.63,"N_COORD97":2546463.54,"ADDRESS":"正覺街１０２巷４０弄１８號","OBJECTID":97585},"geometry":{"x":169433.63000000082,"y":2546463.5399999991}},{"attributes":{"ID":97586,"DIS_CODE":0,"TOWNNAME":"北區","LI":"正覺里","LIN":"21鄰","STREET":"正覺街","SECT":" ","MAREA":" ","LANE":"１０２巷","ALLEY":"４０弄","HOUSE_NO":"２０號","E_COORD97":169429.45000000001,"N_COORD97":2546464.9900000002,"ADDRESS":"正覺街１０２巷４０弄２０號","OBJECTID":97586},"geometry":{"x":169429.45000000112,"y":2546464.9900000002}},{"attributes":{"ID":97587,"DIS_CODE":0,"TOWNNAME":"後壁區","LI":"頂安里","LIN":"10鄰","STREET":" ","SECT":" ","MAREA":"頂寮","LANE":" ","ALLEY":" ","HOUSE_NO":"１０６號之４５","E_COORD97":183504.42999999999,"N_COORD97":2581101.23,"ADDRESS":"頂寮１０６號之４５","OBJECTID":97587},"geometry":{"x":183504.43000000063,"y":2581101.2300000023}},{"attributes":{"ID":97588,"DIS_CODE":0,"TOWNNAME":"北區","LI":"正覺里","LIN":"21鄰","STREET":"正覺街","SECT":" ","MAREA":" ","LANE":"１０２巷","ALLEY":"４０弄","HOUSE_NO":"２２號","E_COORD97":169425.01000000001,"N_COORD97":2546466.0600000001,"ADDRESS":"正覺街１０２巷４０弄２２號","OBJECTID":97588},"geometry":{"x":169425.01000000164,"y":2546466.0600000024}},{"attributes":{"ID":97589,"DIS_CODE":0,"TOWNNAME":"北區","LI":"正覺里","LIN":"21鄰","STREET":"正覺街","SECT":" ","MAREA":" ","LANE":"１０２巷","ALLEY":"４０弄","HOUSE_NO":"２４號","E_COORD97":169421.22,"N_COORD97":2546467.1800000002,"ADDRESS":"正覺街１０２巷４０弄２４號","OBJECTID":97589},"geometry":{"x":169421.21999999974,"y":2546467.1800000034}},{"attributes":{"ID":97590,"DIS_CODE":0,"TOWNNAME":"永康區","LI":"勝利里","LIN":"15鄰","STREET":"勝利街","SECT":" ","MAREA":" ","LANE":"９５巷","ALLEY":" ","HOUSE_NO":"３號","E_COORD97":171326.07999999999,"N_COORD97":2544860.5099999998,"ADDRESS":"勝利街９５巷３號","OBJECTID":97590},"geometry":{"x":171326.08000000007,"y":2544860.5099999998}},{"attributes":{"ID":97591,"DIS_CODE":0,"TOWNNAME":"新營區","LI":"三仙里","LIN":"28鄰","STREET":"育德街","SECT":" ","MAREA":" ","LANE":" ","ALLEY":" ","HOUSE_NO":"６８之３號","E_COORD97":179605.14999999999,"N_COORD97":2579149.4199999999,"ADDRESS":"育德街６８之３號","OBJECTID":97591},"geometry":{"x":179605.1500000013,"y":2579149.4200000018}},{"attributes":{"ID":97592,"DIS_CODE":0,"TOWNNAME":"新營區","LI":"民權里","LIN":"3鄰","STREET":"信義街","SECT":" ","MAREA":" ","LANE":" ","ALLEY":" ","HOUSE_NO":"１４之１號","E_COORD97":179959.54000000001,"N_COORD97":2578174.2799999998,"ADDRESS":"信義街１４之１號","OBJECTID":97592},"geometry":{"x":179959.54000000097,"y":2578174.2800000012}},{"attributes":{"ID":97593,"DIS_CODE":0,"TOWNNAME":"新營區","LI":"中營里","LIN":"4鄰","STREET":"中山路","SECT":" ","MAREA":" ","LANE":" ","ALLEY":" ","HOUSE_NO":"５７號","E_COORD97":180625.98000000001,"N_COORD97":2578382.6099999999,"ADDRESS":"中山路５７號","OBJECTID":97593},"geometry":{"x":180625.97999999952,"y":2578382.6100000013}},{"attributes":{"ID":97594,"DIS_CODE":0,"TOWNNAME":"新營區","LI":"民權里","LIN":"20鄰","STREET":"民權路","SECT":" ","MAREA":" ","LANE":" ","ALLEY":" ","HOUSE_NO":"５６號之１","E_COORD97":179721.25,"N_COORD97":2578255.1499999999,"ADDRESS":"民權路５６號之１","OBJECTID":97594},"geometry":{"x":179721.25,"y":2578255.1500000004}},{"attributes":{"ID":97595,"DIS_CODE":0,"TOWNNAME":"永康區","LI":"正強里","LIN":"15鄰","STREET":"正強街","SECT":" ","MAREA":" ","LANE":" ","ALLEY":" ","HOUSE_NO":"４５號","E_COORD97":173344.01999999999,"N_COORD97":2547252,"ADDRESS":"正強街４５號","OBJECTID":97595},"geometry":{"x":173344.02000000142,"y":2547252.0000000037}},{"attributes":{"ID":97596,"DIS_CODE":0,"TOWNNAME":"永康區","LI":"埔園里","LIN":"15鄰","STREET":"龍埔街","SECT":" ","MAREA":" ","LANE":" ","ALLEY":" ","HOUSE_NO":"５４２號","E_COORD97":173542.48000000001,"N_COORD97":2548385.0699999998,"ADDRESS":"龍埔街５４２號","OBJECTID":97596},"geometry":{"x":173542.48000000138,"y":2548385.0700000022}},{"attributes":{"ID":97597,"DIS_CODE":0,"TOWNNAME":"永康區","LI":"中華里","LIN":"15鄰","STREET":"華興街","SECT":" ","MAREA":" ","LANE":" ","ALLEY":" ","HOUSE_NO":"９７號底二層之２５","E_COORD97":171793,"N_COORD97":2544563.1299999999,"ADDRESS":"華興街９７號底二層之２５","OBJECTID":97597},"geometry":{"x":171793,"y":2544563.129999999}},{"attributes":{"ID":97598,"DIS_CODE":0,"TOWNNAME":"北區","LI":"正覺里","LIN":"21鄰","STREET":"正覺街","SECT":" ","MAREA":" ","LANE":"１０２巷","ALLEY":"４０弄","HOUSE_NO":"２６號","E_COORD97":169417.20000000001,"N_COORD97":2546468.5499999998,"ADDRESS":"正覺街１０２巷４０弄２６號","OBJECTID":97598},"geometry":{"x":169417.20000000019,"y":2546468.5500000007}},{"attributes":{"ID":97599,"DIS_CODE":0,"TOWNNAME":"佳里區","LI":"忠仁里","LIN":"15鄰","STREET":" ","SECT":" ","MAREA":"忠仁","LANE":" ","ALLEY":" ","HOUSE_NO":"２０號之１","E_COORD97":165859.78,"N_COORD97":2561934.71,"ADDRESS":"忠仁２０號之１","OBJECTID":97599},"geometry":{"x":165859.78000000026,"y":2561934.7100000009}},{"attributes":{"ID":97600,"DIS_CODE":0,"TOWNNAME":"新營區","LI":"姑爺里","LIN":"8鄰","STREET":" ","SECT":" ","MAREA":"挖仔","LANE":" ","ALLEY":" ","HOUSE_NO":"１３號","E_COORD97":173790.62,"N_COORD97":2575501.3500000001,"ADDRESS":"挖仔１３號","OBJECTID":97600},"geometry":{"x":173790.62000000104,"y":2575501.3500000034}}]}