{"displayFieldName":"TOWNNAME","fieldAliases":{"ID":"ID","DIS_CODE":"DIS_CODE","TOWNNAME":"TOWNNAME","LI":"LI","LIN":"LIN","STREET":"STREET","SECT":"SECT","MAREA":"MAREA","LANE":"LANE","ALLEY":"ALLEY","HOUSE_NO":"HOUSE_NO","E_COORD97":"E_COORD97","N_COORD97":"N_COORD97","ADDRESS":"ADDRESS","OBJECTID":"OBJECTID"},"geometryType":"esriGeometryPoint","spatialReference":{"wkid":102443,"latestWkid":3826},"fields":[{"name":"ID","type":"esriFieldTypeDouble","alias":"ID"},{"name":"DIS_CODE","type":"esriFieldTypeInteger","alias":"DIS_CODE"},{"name":"TOWNNAME","type":"esriFieldTypeString","alias":"TOWNNAME","length":8},{"name":"LI","type":"esriFieldTypeString","alias":"LI","length":8},{"name":"LIN","type":"esriFieldTypeString","alias":"LIN","length":12},{"name":"STREET","type":"esriFieldTypeString","alias":"STREET","length":20},{"name":"SECT","type":"esriFieldTypeString","alias":"SECT","length":8},{"name":"MAREA","type":"esriFieldTypeString","alias":"MAREA","length":12},{"name":"LANE","type":"esriFieldTypeString","alias":"LANE","length":10},{"name":"ALLEY","type":"esriFieldTypeString","alias":"ALLEY","length":10},{"name":"HOUSE_NO","type":"esriFieldTypeString","alias":"HOUSE_NO","length":20},{"name":"E_COORD97","type":"esriFieldTypeDouble","alias":"E_COORD97"},{"name":"N_COORD97","type":"esriFieldTypeDouble","alias":"N_COORD97"},{"name":"ADDRESS","type":"esriFieldTypeString","alias":"ADDRESS","length":50},{"name":"OBJECTID","type":"esriFieldTypeOID","alias":"OBJECTID"}],"features":[{"attributes":{"ID":504428,"DIS_CODE":0,"TOWNNAME":"新化區","LI":"協興里","LIN":"7鄰","STREET":"大新路","SECT":" ","MAREA":" ","LANE":" ","ALLEY":" ","HOUSE_NO":"３８號","E_COORD97":178181.38,"N_COORD97":2548628.25,"ADDRESS":"大新路３８號","OBJECTID":504401},"geometry":{"x":178181.37999999989,"y":2548628.2500000019}},{"attributes":{"ID":504429,"DIS_CODE":0,"TOWNNAME":"新化區","LI":"協興里","LIN":"7鄰","STREET":"太平街","SECT":" ","MAREA":" ","LANE":" ","ALLEY":" ","HOUSE_NO":"１３７號","E_COORD97":178304.12,"N_COORD97":2548662.25,"ADDRESS":"太平街１３７號","OBJECTID":504402},"geometry":{"x":178304.12000000197,"y":2548662.2500000019}},{"attributes":{"ID":504430,"DIS_CODE":0,"TOWNNAME":"新化區","LI":"協興里","LIN":"7鄰","STREET":"大新路","SECT":" ","MAREA":" ","LANE":" ","ALLEY":" ","HOUSE_NO":"１８號","E_COORD97":178211.98000000001,"N_COORD97":2548595.25,"ADDRESS":"大新路１８號","OBJECTID":504403},"geometry":{"x":178211.98000000045,"y":2548595.25}},{"attributes":{"ID":504431,"DIS_CODE":0,"TOWNNAME":"新化區","LI":"協興里","LIN":"7鄰","STREET":"太平街","SECT":" ","MAREA":" ","LANE":" ","ALLEY":" ","HOUSE_NO":"１２９號","E_COORD97":178323.32000000001,"N_COORD97":2548668.25,"ADDRESS":"太平街１２９號","OBJECTID":504404},"geometry":{"x":178323.32000000216,"y":2548668.2500000019}},{"attributes":{"ID":504432,"DIS_CODE":0,"TOWNNAME":"新化區","LI":"協興里","LIN":"7鄰","STREET":"太平街","SECT":" ","MAREA":" ","LANE":" ","ALLEY":" ","HOUSE_NO":"１５５號","E_COORD97":178250.72,"N_COORD97":2548652.25,"ADDRESS":"太平街１５５號","OBJECTID":504405},"geometry":{"x":178250.72000000067,"y":2548652.25}},{"attributes":{"ID":504433,"DIS_CODE":0,"TOWNNAME":"新化區","LI":"協興里","LIN":"7鄰","STREET":"太平街","SECT":" ","MAREA":" ","LANE":" ","ALLEY":" ","HOUSE_NO":"１５９號","E_COORD97":178239.92000000001,"N_COORD97":2548650.25,"ADDRESS":"太平街１５９號","OBJECTID":504406},"geometry":{"x":178239.92000000086,"y":2548650.2499999981}},{"attributes":{"ID":504434,"DIS_CODE":0,"TOWNNAME":"新化區","LI":"協興里","LIN":"7鄰","STREET":"大新路","SECT":" ","MAREA":" ","LANE":" ","ALLEY":" ","HOUSE_NO":"８號","E_COORD97":178229.23000000001,"N_COORD97":2548576.25,"ADDRESS":"大新路８號","OBJECTID":504407},"geometry":{"x":178229.23000000138,"y":2548576.2500000019}},{"attributes":{"ID":504435,"DIS_CODE":0,"TOWNNAME":"新化區","LI":"武安里","LIN":"7鄰","STREET":"大同街","SECT":" ","MAREA":" ","LANE":" ","ALLEY":" ","HOUSE_NO":"１１號之３","E_COORD97":179023.73000000001,"N_COORD97":2548041.2599999998,"ADDRESS":"大同街１１號之３","OBJECTID":504408},"geometry":{"x":179023.73000000045,"y":2548041.2600000016}},{"attributes":{"ID":504436,"DIS_CODE":0,"TOWNNAME":"新化區","LI":"豐榮里","LIN":"7鄰","STREET":"大智路","SECT":" ","MAREA":" ","LANE":" ","ALLEY":" ","HOUSE_NO":"３１５號","E_COORD97":177888.92999999999,"N_COORD97":2547855.25,"ADDRESS":"大智路３１５號","OBJECTID":504409},"geometry":{"x":177888.9299999997,"y":2547855.2500000019}},{"attributes":{"ID":504437,"DIS_CODE":0,"TOWNNAME":"新化區","LI":"協興里","LIN":"7鄰","STREET":"大新路","SECT":" ","MAREA":" ","LANE":" ","ALLEY":" ","HOUSE_NO":"３０號","E_COORD97":178194.17999999999,"N_COORD97":2548615.25,"ADDRESS":"大新路３０號","OBJECTID":504410},"geometry":{"x":178194.1799999997,"y":2548615.25}},{"attributes":{"ID":504438,"DIS_CODE":0,"TOWNNAME":"新化區","LI":"協興里","LIN":"7鄰","STREET":"大新路","SECT":" ","MAREA":" ","LANE":" ","ALLEY":" ","HOUSE_NO":"３６號","E_COORD97":178184.78,"N_COORD97":2548625.25,"ADDRESS":"大新路３６號","OBJECTID":504411},"geometry":{"x":178184.78000000119,"y":2548625.25}},{"attributes":{"ID":504439,"DIS_CODE":0,"TOWNNAME":"新化區","LI":"協興里","LIN":"7鄰","STREET":"大新路","SECT":" ","MAREA":" ","LANE":" ","ALLEY":" ","HOUSE_NO":"１２號之２","E_COORD97":178262.32999999999,"N_COORD97":2548584.2599999998,"ADDRESS":"大新路１２號之２","OBJECTID":504412},"geometry":{"x":178262.33000000101,"y":2548584.2599999998}},{"attributes":{"ID":504440,"DIS_CODE":0,"TOWNNAME":"新化區","LI":"協興里","LIN":"7鄰","STREET":"太平街","SECT":" ","MAREA":" ","LANE":" ","ALLEY":" ","HOUSE_NO":"１３１號","E_COORD97":178319.32000000001,"N_COORD97":2548667.25,"ADDRESS":"太平街１３１號","OBJECTID":504413},"geometry":{"x":178319.3200000003,"y":2548667.2500000037}},{"attributes":{"ID":504441,"DIS_CODE":0,"TOWNNAME":"新化區","LI":"協興里","LIN":"7鄰","STREET":"大新路","SECT":" ","MAREA":" ","LANE":" ","ALLEY":" ","HOUSE_NO":"１４號","E_COORD97":178217.28,"N_COORD97":2548589.25,"ADDRESS":"大新路１４號","OBJECTID":504414},"geometry":{"x":178217.28000000119,"y":2548589.2499999981}},{"attributes":{"ID":504442,"DIS_CODE":0,"TOWNNAME":"新化區","LI":"觀音里","LIN":"7鄰","STREET":"民族街","SECT":" ","MAREA":" ","LANE":" ","ALLEY":" ","HOUSE_NO":"３６號","E_COORD97":178900.76000000001,"N_COORD97":2548590.25,"ADDRESS":"民族街３６號","OBJECTID":504415},"geometry":{"x":178900.75999999978,"y":2548590.2500000019}},{"attributes":{"ID":504443,"DIS_CODE":0,"TOWNNAME":"安南區","LI":"城北里","LIN":"7鄰","STREET":"安明路","SECT":"四段","MAREA":" ","LANE":" ","ALLEY":" ","HOUSE_NO":"２６０之７０號","E_COORD97":161267.25,"N_COORD97":2551318.54,"ADDRESS":"安明路四段２６０之７０號","OBJECTID":504416},"geometry":{"x":161267.25000000093,"y":2551318.5399999991}},{"attributes":{"ID":504444,"DIS_CODE":0,"TOWNNAME":"安南區","LI":"城北里","LIN":"7鄰","STREET":"安明路","SECT":"四段","MAREA":" ","LANE":" ","ALLEY":" ","HOUSE_NO":"２６０之８０號","E_COORD97":161293.5,"N_COORD97":2551377.1299999999,"ADDRESS":"安明路四段２６０之８０號","OBJECTID":504417},"geometry":{"x":161293.50000000186,"y":2551377.1300000008}},{"attributes":{"ID":504445,"DIS_CODE":0,"TOWNNAME":"安南區","LI":"安和里","LIN":"7鄰","STREET":"郡安路","SECT":"三段","MAREA":" ","LANE":" ","ALLEY":" ","HOUSE_NO":"１３０號","E_COORD97":170001.39000000001,"N_COORD97":2548247.0800000001,"ADDRESS":"郡安路三段１３０號","OBJECTID":504418},"geometry":{"x":170001.38999999966,"y":2548247.0800000001}},{"attributes":{"ID":504446,"DIS_CODE":0,"TOWNNAME":"安南區","LI":"東和里","LIN":"7鄰","STREET":"長和路","SECT":"一段","MAREA":" ","LANE":" ","ALLEY":" ","HOUSE_NO":"２６０號","E_COORD97":171262.51999999999,"N_COORD97":2551090.2200000002,"ADDRESS":"長和路一段２６０號","OBJECTID":504419},"geometry":{"x":171262.52000000048,"y":2551090.2200000025}},{"attributes":{"ID":504447,"DIS_CODE":0,"TOWNNAME":"安南區","LI":"東和里","LIN":"7鄰","STREET":"長和路","SECT":"一段","MAREA":" ","LANE":" ","ALLEY":" ","HOUSE_NO":"５０號","E_COORD97":171857.35000000001,"N_COORD97":2550467.8199999998,"ADDRESS":"長和路一段５０號","OBJECTID":504420},"geometry":{"x":171857.35000000056,"y":2550467.8200000022}},{"attributes":{"ID":504448,"DIS_CODE":0,"TOWNNAME":"南區","LI":"再興里","LIN":"7鄰","STREET":"新慶街","SECT":" ","MAREA":" ","LANE":" ","ALLEY":" ","HOUSE_NO":"２３號","E_COORD97":167263.13,"N_COORD97":2542322.1699999999,"ADDRESS":"新慶街２３號","OBJECTID":504421},"geometry":{"x":167263.13000000175,"y":2542322.1700000018}},{"attributes":{"ID":504449,"DIS_CODE":0,"TOWNNAME":"南區","LI":"再興里","LIN":"7鄰","STREET":"新慶街","SECT":" ","MAREA":" ","LANE":" ","ALLEY":" ","HOUSE_NO":"２７號","E_COORD97":167255.19,"N_COORD97":2542322.0600000001,"ADDRESS":"新慶街２７號","OBJECTID":504422},"geometry":{"x":167255.19000000134,"y":2542322.0600000005}},{"attributes":{"ID":504450,"DIS_CODE":0,"TOWNNAME":"南區","LI":"再興里","LIN":"7鄰","STREET":"新慶街","SECT":" ","MAREA":" ","LANE":" ","ALLEY":" ","HOUSE_NO":"２９號","E_COORD97":167251.38,"N_COORD97":2542321.7400000002,"ADDRESS":"新慶街２９號","OBJECTID":504423},"geometry":{"x":167251.38000000082,"y":2542321.7400000021}},{"attributes":{"ID":504451,"DIS_CODE":0,"TOWNNAME":"南區","LI":"再興里","LIN":"7鄰","STREET":"新慶街","SECT":" ","MAREA":" ","LANE":" ","ALLEY":" ","HOUSE_NO":"３１號","E_COORD97":167247.35999999999,"N_COORD97":2542320.6899999999,"ADDRESS":"新慶街３１號","OBJECTID":504424},"geometry":{"x":167247.36000000127,"y":2542320.6900000032}},{"attributes":{"ID":504452,"DIS_CODE":0,"TOWNNAME":"南區","LI":"再興里","LIN":"7鄰","STREET":"新慶街","SECT":" ","MAREA":" ","LANE":" ","ALLEY":" ","HOUSE_NO":"３５號","E_COORD97":167234.03,"N_COORD97":2542320.5800000001,"ADDRESS":"新慶街３５號","OBJECTID":504425},"geometry":{"x":167234.03000000119,"y":2542320.5800000001}},{"attributes":{"ID":504453,"DIS_CODE":0,"TOWNNAME":"安南區","LI":"原佃里","LIN":"7鄰","STREET":"安吉路","SECT":"一段","MAREA":" ","LANE":" ","ALLEY":" ","HOUSE_NO":"２２６號","E_COORD97":166861.04000000001,"N_COORD97":2549661.7999999998,"ADDRESS":"安吉路一段２２６號","OBJECTID":504426},"geometry":{"x":166861.04000000097,"y":2549661.8000000026}},{"attributes":{"ID":504454,"DIS_CODE":0,"TOWNNAME":"安南區","LI":"\u25A0田里","LIN":"7鄰","STREET":"科技一路","SECT":" ","MAREA":" ","LANE":" ","ALLEY":" ","HOUSE_NO":"５號","E_COORD97":163166.57999999999,"N_COORD97":2549240.2799999998,"ADDRESS":"科技一路５號","OBJECTID":504427},"geometry":{"x":163166.58000000101,"y":2549240.2800000012}},{"attributes":{"ID":504455,"DIS_CODE":0,"TOWNNAME":"歸仁區","LI":"後市里","LIN":"38鄰","STREET":"中山八街","SECT":" ","MAREA":" ","LANE":" ","ALLEY":" ","HOUSE_NO":"２１號","E_COORD97":177219.5,"N_COORD97":2541011.6800000002,"ADDRESS":"中山八街２１號","OBJECTID":504428},"geometry":{"x":177219.5,"y":2541011.6799999997}},{"attributes":{"ID":504456,"DIS_CODE":0,"TOWNNAME":"安南區","LI":"原佃里","LIN":"7鄰","STREET":"安吉路","SECT":"一段","MAREA":" ","LANE":" ","ALLEY":" ","HOUSE_NO":"２２６之１號","E_COORD97":166861.35999999999,"N_COORD97":2549663.54,"ADDRESS":"安吉路一段２２６之１號","OBJECTID":504429},"geometry":{"x":166861.36000000034,"y":2549663.5399999991}},{"attributes":{"ID":504457,"DIS_CODE":0,"TOWNNAME":"安南區","LI":"原佃里","LIN":"7鄰","STREET":"安吉路","SECT":"一段","MAREA":" ","LANE":" ","ALLEY":" ","HOUSE_NO":"２２６之１６號","E_COORD97":166862.95000000001,"N_COORD97":2549672.27,"ADDRESS":"安吉路一段２２６之１６號","OBJECTID":504430},"geometry":{"x":166862.95000000112,"y":2549672.2699999996}},{"attributes":{"ID":504458,"DIS_CODE":0,"TOWNNAME":"安南區","LI":"\u25A0田里","LIN":"7鄰","STREET":"本田路","SECT":"二段","MAREA":" ","LANE":" ","ALLEY":" ","HOUSE_NO":"３７７號","E_COORD97":162801.45000000001,"N_COORD97":2548454.7799999998,"ADDRESS":"本田路二段３７７號","OBJECTID":504431},"geometry":{"x":162801.45000000112,"y":2548454.7799999993}},{"attributes":{"ID":504459,"DIS_CODE":0,"TOWNNAME":"安南區","LI":"\u25A0田里","LIN":"7鄰","STREET":"科技一路","SECT":" ","MAREA":" ","LANE":" ","ALLEY":" ","HOUSE_NO":"２７號","E_COORD97":162862.73000000001,"N_COORD97":2548880.71,"ADDRESS":"科技一路２７號","OBJECTID":504432},"geometry":{"x":162862.73000000138,"y":2548880.7100000009}},{"attributes":{"ID":504460,"DIS_CODE":0,"TOWNNAME":"安南區","LI":"\u25A0田里","LIN":"7鄰","STREET":"工業一路","SECT":" ","MAREA":" ","LANE":" ","ALLEY":" ","HOUSE_NO":"１號","E_COORD97":163323.28,"N_COORD97":2548880.6400000001,"ADDRESS":"工業一路１號","OBJECTID":504433},"geometry":{"x":163323.28000000119,"y":2548880.6400000025}},{"attributes":{"ID":504461,"DIS_CODE":0,"TOWNNAME":"仁德區","LI":"上崙里","LIN":"7鄰","STREET":"德善路","SECT":" ","MAREA":" ","LANE":" ","ALLEY":" ","HOUSE_NO":"３２６號","E_COORD97":173999.35000000001,"N_COORD97":2538332.77,"ADDRESS":"德善路３２６號","OBJECTID":504434},"geometry":{"x":173999.34999999963,"y":2538332.7700000033}},{"attributes":{"ID":504462,"DIS_CODE":0,"TOWNNAME":"仁德區","LI":"大甲里","LIN":"7鄰","STREET":"行大街","SECT":" ","MAREA":" ","LANE":" ","ALLEY":" ","HOUSE_NO":"２６０號","E_COORD97":169790.14999999999,"N_COORD97":2535142.75,"ADDRESS":"行大街２６０號","OBJECTID":504435},"geometry":{"x":169790.15000000037,"y":2535142.75}},{"attributes":{"ID":504463,"DIS_CODE":0,"TOWNNAME":"佳里區","LI":"東寧里","LIN":"7鄰","STREET":"義民街","SECT":" ","MAREA":" ","LANE":" ","ALLEY":" ","HOUSE_NO":"１２２號","E_COORD97":165804.12,"N_COORD97":2562431.6899999999,"ADDRESS":"義民街１２２號","OBJECTID":504436},"geometry":{"x":165804.12000000104,"y":2562431.6899999995}},{"attributes":{"ID":504464,"DIS_CODE":0,"TOWNNAME":"仁德區","LI":"土庫里","LIN":"7鄰","STREET":"土庫路","SECT":" ","MAREA":" ","LANE":" ","ALLEY":" ","HOUSE_NO":"５８號","E_COORD97":174248.38,"N_COORD97":2543191.7400000002,"ADDRESS":"土庫路５８號","OBJECTID":504437},"geometry":{"x":174248.37999999989,"y":2543191.7400000002}},{"attributes":{"ID":504465,"DIS_CODE":0,"TOWNNAME":"仁德區","LI":"土庫里","LIN":"7鄰","STREET":"土庫路","SECT":" ","MAREA":" ","LANE":" ","ALLEY":" ","HOUSE_NO":"８０號","E_COORD97":174303.95999999999,"N_COORD97":2543141.9900000002,"ADDRESS":"土庫路８０號","OBJECTID":504438},"geometry":{"x":174303.95999999996,"y":2543141.9900000002}},{"attributes":{"ID":504466,"DIS_CODE":0,"TOWNNAME":"仁德區","LI":"土庫里","LIN":"7鄰","STREET":"土庫路","SECT":" ","MAREA":" ","LANE":" ","ALLEY":" ","HOUSE_NO":"６６號","E_COORD97":174265.70000000001,"N_COORD97":2543176.4900000002,"ADDRESS":"土庫路６６號","OBJECTID":504439},"geometry":{"x":174265.70000000205,"y":2543176.4900000002}},{"attributes":{"ID":504467,"DIS_CODE":0,"TOWNNAME":"仁德區","LI":"土庫里","LIN":"7鄰","STREET":"土庫路","SECT":" ","MAREA":" ","LANE":" ","ALLEY":" ","HOUSE_NO":"８６號","E_COORD97":174307.66,"N_COORD97":2543126.5,"ADDRESS":"土庫路８６號","OBJECTID":504440},"geometry":{"x":174307.66000000015,"y":2543126.5000000019}},{"attributes":{"ID":504468,"DIS_CODE":0,"TOWNNAME":"仁德區","LI":"後壁里","LIN":"7鄰","STREET":"德安路","SECT":" ","MAREA":" ","LANE":" ","ALLEY":" ","HOUSE_NO":"７１號","E_COORD97":173542.57999999999,"N_COORD97":2538992.0699999998,"ADDRESS":"德安路７１號","OBJECTID":504441},"geometry":{"x":173542.58000000194,"y":2538992.0700000003}},{"attributes":{"ID":504469,"DIS_CODE":0,"TOWNNAME":"仁德區","LI":"仁義里","LIN":"7鄰","STREET":"中山路","SECT":" ","MAREA":" ","LANE":" ","ALLEY":" ","HOUSE_NO":"４３３號","E_COORD97":173760.07000000001,"N_COORD97":2541259.25,"ADDRESS":"中山路４３３號","OBJECTID":504442},"geometry":{"x":173760.07000000123,"y":2541259.2499999981}},{"attributes":{"ID":504470,"DIS_CODE":0,"TOWNNAME":"仁德區","LI":"後壁里","LIN":"7鄰","STREET":"德安路","SECT":" ","MAREA":" ","LANE":" ","ALLEY":" ","HOUSE_NO":"５７號","E_COORD97":173516.44,"N_COORD97":2539039.8100000001,"ADDRESS":"德安路５７號","OBJECTID":504443},"geometry":{"x":173516.44000000041,"y":2539039.8100000024}},{"attributes":{"ID":504471,"DIS_CODE":0,"TOWNNAME":"仁德區","LI":"田厝里","LIN":"7鄰","STREET":"中正路","SECT":"一段","MAREA":" ","LANE":" ","ALLEY":" ","HOUSE_NO":"６３７號","E_COORD97":172969.63,"N_COORD97":2537938.0299999998,"ADDRESS":"中正路一段６３７號","OBJECTID":504444},"geometry":{"x":172969.63000000082,"y":2537938.0300000012}},{"attributes":{"ID":504472,"DIS_CODE":0,"TOWNNAME":"歸仁區","LI":"崙頂里","LIN":"7鄰","STREET":"崙頂三街","SECT":" ","MAREA":" ","LANE":" ","ALLEY":" ","HOUSE_NO":"６３號","E_COORD97":177975.01000000001,"N_COORD97":2539925.1099999999,"ADDRESS":"崙頂三街６３號","OBJECTID":504445},"geometry":{"x":177975.00999999978,"y":2539925.1100000013}},{"attributes":{"ID":504473,"DIS_CODE":0,"TOWNNAME":"仁德區","LI":"田厝里","LIN":"7鄰","STREET":"田厝二街","SECT":" ","MAREA":" ","LANE":" ","ALLEY":" ","HOUSE_NO":"８號","E_COORD97":172506.38,"N_COORD97":2537573.9900000002,"ADDRESS":"田厝二街８號","OBJECTID":504446},"geometry":{"x":172506.38000000082,"y":2537573.9900000021}},{"attributes":{"ID":504474,"DIS_CODE":0,"TOWNNAME":"仁德區","LI":"田厝里","LIN":"7鄰","STREET":"中正路","SECT":"一段","MAREA":" ","LANE":" ","ALLEY":" ","HOUSE_NO":"６０７號","E_COORD97":172946.38,"N_COORD97":2537870.27,"ADDRESS":"中正路一段６０７號","OBJECTID":504447},"geometry":{"x":172946.37999999989,"y":2537870.2699999996}},{"attributes":{"ID":504475,"DIS_CODE":0,"TOWNNAME":"仁德區","LI":"田厝里","LIN":"7鄰","STREET":"中正路","SECT":"一段","MAREA":" ","LANE":" ","ALLEY":" ","HOUSE_NO":"５４１之２號","E_COORD97":172876.48999999999,"N_COORD97":2537654.29,"ADDRESS":"中正路一段５４１之２號","OBJECTID":504448},"geometry":{"x":172876.49000000022,"y":2537654.2900000028}},{"attributes":{"ID":504476,"DIS_CODE":0,"TOWNNAME":"仁德區","LI":"田厝里","LIN":"7鄰","STREET":"中正路","SECT":"一段","MAREA":" ","LANE":" ","ALLEY":" ","HOUSE_NO":"５７９號","E_COORD97":172908.883282,"N_COORD97":2537776.21508,"ADDRESS":"中正路一段５７９號","OBJECTID":504449},"geometry":{"x":172908.88328200113,"y":2537776.2150770035}},{"attributes":{"ID":504477,"DIS_CODE":0,"TOWNNAME":"仁德區","LI":"仁義里","LIN":"7鄰","STREET":"中山路","SECT":" ","MAREA":" ","LANE":" ","ALLEY":" ","HOUSE_NO":"４０５號","E_COORD97":173812.67999999999,"N_COORD97":2541252,"ADDRESS":"中山路４０５號","OBJECTID":504450},"geometry":{"x":173812.68000000156,"y":2541252.0000000019}},{"attributes":{"ID":504478,"DIS_CODE":0,"TOWNNAME":"仁德區","LI":"田厝里","LIN":"7鄰","STREET":"保安路","SECT":"二段","MAREA":" ","LANE":" ","ALLEY":" ","HOUSE_NO":"５８９號","E_COORD97":172684.89999999999,"N_COORD97":2537591.0600000001,"ADDRESS":"保安路二段５８９號","OBJECTID":504451},"geometry":{"x":172684.9000000013,"y":2537591.0600000024}},{"attributes":{"ID":504479,"DIS_CODE":0,"TOWNNAME":"仁德區","LI":"田厝里","LIN":"7鄰","STREET":"保安路","SECT":"二段","MAREA":" ","LANE":" ","ALLEY":" ","HOUSE_NO":"５９５號","E_COORD97":172697.98000000001,"N_COORD97":2537592.8100000001,"ADDRESS":"保安路二段５９５號","OBJECTID":504452},"geometry":{"x":172697.98000000138,"y":2537592.8100000024}},{"attributes":{"ID":504480,"DIS_CODE":0,"TOWNNAME":"仁德區","LI":"田厝里","LIN":"7鄰","STREET":"保安路","SECT":"二段","MAREA":" ","LANE":" ","ALLEY":" ","HOUSE_NO":"６４１號","E_COORD97":172824.19,"N_COORD97":2537611.3199999998,"ADDRESS":"保安路二段６４１號","OBJECTID":504453},"geometry":{"x":172824.19000000134,"y":2537611.320000004}},{"attributes":{"ID":504481,"DIS_CODE":0,"TOWNNAME":"仁德區","LI":"田厝里","LIN":"7鄰","STREET":"保安路","SECT":"二段","MAREA":" ","LANE":" ","ALLEY":" ","HOUSE_NO":"６０３號","E_COORD97":172718.92999999999,"N_COORD97":2537597.8100000001,"ADDRESS":"保安路二段６０３號","OBJECTID":504454},"geometry":{"x":172718.9299999997,"y":2537597.8100000042}},{"attributes":{"ID":504482,"DIS_CODE":0,"TOWNNAME":"仁德區","LI":"二行里","LIN":"7鄰","STREET":"行大街","SECT":" ","MAREA":" ","LANE":" ","ALLEY":" ","HOUSE_NO":"３０號","E_COORD97":170303.70000000001,"N_COORD97":2535227,"ADDRESS":"行大街３０號","OBJECTID":504455},"geometry":{"x":170303.70000000019,"y":2535227.0000000019}},{"attributes":{"ID":504483,"DIS_CODE":0,"TOWNNAME":"仁德區","LI":"二行里","LIN":"7鄰","STREET":"行大街","SECT":" ","MAREA":" ","LANE":" ","ALLEY":" ","HOUSE_NO":"５０號","E_COORD97":170252.48000000001,"N_COORD97":2535205.9900000002,"ADDRESS":"行大街５０號","OBJECTID":504456},"geometry":{"x":170252.48000000045,"y":2535205.9899999984}},{"attributes":{"ID":504484,"DIS_CODE":0,"TOWNNAME":"仁德區","LI":"成功里","LIN":"7鄰","STREET":"保華路","SECT":" ","MAREA":" ","LANE":" ","ALLEY":" ","HOUSE_NO":"１１９號","E_COORD97":171123.17000000001,"N_COORD97":2540050.7400000002,"ADDRESS":"保華路１１９號","OBJECTID":504457},"geometry":{"x":171123.17000000086,"y":2540050.7400000021}},{"attributes":{"ID":504485,"DIS_CODE":0,"TOWNNAME":"仁德區","LI":"上崙里","LIN":"7鄰","STREET":"德善路","SECT":" ","MAREA":" ","LANE":" ","ALLEY":" ","HOUSE_NO":"３５０號","E_COORD97":174020.82999999999,"N_COORD97":2538259.52,"ADDRESS":"德善路３５０號","OBJECTID":504458},"geometry":{"x":174020.83000000101,"y":2538259.5199999996}},{"attributes":{"ID":504486,"DIS_CODE":0,"TOWNNAME":"仁德區","LI":"保安里","LIN":"7鄰","STREET":"文賢二街","SECT":" ","MAREA":" ","LANE":" ","ALLEY":" ","HOUSE_NO":"１９號","E_COORD97":171641.06,"N_COORD97":2536117.0699999998,"ADDRESS":"文賢二街１９號","OBJECTID":504459},"geometry":{"x":171641.05999999959,"y":2536117.0700000003}},{"attributes":{"ID":504487,"DIS_CODE":0,"TOWNNAME":"仁德區","LI":"成功里","LIN":"7鄰","STREET":"保生東路","SECT":" ","MAREA":" ","LANE":" ","ALLEY":" ","HOUSE_NO":"２４２號","E_COORD97":171123.26000000001,"N_COORD97":2539781.25,"ADDRESS":"保生東路２４２號","OBJECTID":504460},"geometry":{"x":171123.25999999978,"y":2539781.2500000037}},{"attributes":{"ID":504488,"DIS_CODE":0,"TOWNNAME":"南區","LI":"明興里","LIN":"7鄰","STREET":"金華路","SECT":"一段","MAREA":" ","LANE":" ","ALLEY":" ","HOUSE_NO":"１５８號","E_COORD97":166941.23999999999,"N_COORD97":2540661.7599999998,"ADDRESS":"金華路一段１５８號","OBJECTID":504461},"geometry":{"x":166941.24000000115,"y":2540661.7599999998}},{"attributes":{"ID":504489,"DIS_CODE":0,"TOWNNAME":"南區","LI":"明興里","LIN":"7鄰","STREET":"金華路","SECT":"一段","MAREA":" ","LANE":" ","ALLEY":" ","HOUSE_NO":"１６０號","E_COORD97":166941.75,"N_COORD97":2540665.7400000002,"ADDRESS":"金華路一段１６０號","OBJECTID":504462},"geometry":{"x":166941.75,"y":2540665.7400000002}},{"attributes":{"ID":504490,"DIS_CODE":0,"TOWNNAME":"南區","LI":"明興里","LIN":"7鄰","STREET":"金華路","SECT":"一段","MAREA":" ","LANE":" ","ALLEY":" ","HOUSE_NO":"１６２號","E_COORD97":166941.92000000001,"N_COORD97":2540670.6699999999,"ADDRESS":"金華路一段１６２號","OBJECTID":504463},"geometry":{"x":166941.91999999993,"y":2540670.6700000018}},{"attributes":{"ID":504491,"DIS_CODE":0,"TOWNNAME":"南區","LI":"明興里","LIN":"7鄰","STREET":"金華路","SECT":"一段","MAREA":" ","LANE":" ","ALLEY":" ","HOUSE_NO":"１６４號","E_COORD97":166943.10999999999,"N_COORD97":2540675.9300000002,"ADDRESS":"金華路一段１６４號","OBJECTID":504464},"geometry":{"x":166943.1099999994,"y":2540675.9300000016}},{"attributes":{"ID":504492,"DIS_CODE":0,"TOWNNAME":"南區","LI":"明興里","LIN":"7鄰","STREET":"金華路","SECT":"一段","MAREA":" ","LANE":" ","ALLEY":" ","HOUSE_NO":"１６６號","E_COORD97":166942.98999999999,"N_COORD97":2540683.1299999999,"ADDRESS":"金華路一段１６６號","OBJECTID":504465},"geometry":{"x":166942.99000000115,"y":2540683.1300000008}},{"attributes":{"ID":504493,"DIS_CODE":0,"TOWNNAME":"南區","LI":"明興里","LIN":"7鄰","STREET":"金華路","SECT":"一段","MAREA":" ","LANE":" ","ALLEY":" ","HOUSE_NO":"１６８號","E_COORD97":166942.98999999999,"N_COORD97":2540689.1499999999,"ADDRESS":"金華路一段１６８號","OBJECTID":504466},"geometry":{"x":166942.99000000115,"y":2540689.1500000022}},{"attributes":{"ID":504494,"DIS_CODE":0,"TOWNNAME":"南區","LI":"明興里","LIN":"7鄰","STREET":"金華路","SECT":"一段","MAREA":" ","LANE":" ","ALLEY":" ","HOUSE_NO":"１７０號","E_COORD97":166943.92999999999,"N_COORD97":2540692.8900000001,"ADDRESS":"金華路一段１７０號","OBJECTID":504467},"geometry":{"x":166943.93000000063,"y":2540692.8900000043}},{"attributes":{"ID":504495,"DIS_CODE":0,"TOWNNAME":"南區","LI":"金華里","LIN":"7鄰","STREET":"新孝路","SECT":" ","MAREA":" ","LANE":" ","ALLEY":" ","HOUSE_NO":"６６號","E_COORD97":166868.82000000001,"N_COORD97":2542066.6699999999,"ADDRESS":"新孝路６６號","OBJECTID":504468},"geometry":{"x":166868.82000000216,"y":2542066.6700000037}},{"attributes":{"ID":504496,"DIS_CODE":0,"TOWNNAME":"南區","LI":"建南里","LIN":"7鄰","STREET":"中華南路","SECT":"二段","MAREA":" ","LANE":" ","ALLEY":" ","HOUSE_NO":"１３９號","E_COORD97":167137.92999999999,"N_COORD97":2540247.7999999998,"ADDRESS":"中華南路二段１３９號","OBJECTID":504469},"geometry":{"x":167137.9299999997,"y":2540247.8000000026}},{"attributes":{"ID":504497,"DIS_CODE":0,"TOWNNAME":"南區","LI":"建南里","LIN":"7鄰","STREET":"中華南路","SECT":"二段","MAREA":" ","LANE":" ","ALLEY":" ","HOUSE_NO":"１６５號","E_COORD97":167082.04000000001,"N_COORD97":2540236.1800000002,"ADDRESS":"中華南路二段１６５號","OBJECTID":504470},"geometry":{"x":167082.04000000004,"y":2540236.1800000016}},{"attributes":{"ID":504498,"DIS_CODE":0,"TOWNNAME":"麻豆區","LI":"大埕里","LIN":"7鄰","STREET":"中正路","SECT":" ","MAREA":" ","LANE":" ","ALLEY":" ","HOUSE_NO":"８０號之２","E_COORD97":173181.23000000001,"N_COORD97":2565081.71,"ADDRESS":"中正路８０號之２","OBJECTID":504471},"geometry":{"x":173181.23000000138,"y":2565081.7100000028}},{"attributes":{"ID":504499,"DIS_CODE":0,"TOWNNAME":"麻豆區","LI":"大埕里","LIN":"7鄰","STREET":"中正路","SECT":" ","MAREA":" ","LANE":" ","ALLEY":" ","HOUSE_NO":"９２號","E_COORD97":173232.59,"N_COORD97":2565137.3500000001,"ADDRESS":"中正路９２號","OBJECTID":504472},"geometry":{"x":173232.59000000078,"y":2565137.3500000015}},{"attributes":{"ID":504500,"DIS_CODE":0,"TOWNNAME":"新化區","LI":"觀音里","LIN":"7鄰","STREET":"仁愛街","SECT":" ","MAREA":" ","LANE":" ","ALLEY":" ","HOUSE_NO":"７８號","E_COORD97":178900.17999999999,"N_COORD97":2548581.25,"ADDRESS":"仁愛街７８號","OBJECTID":504473},"geometry":{"x":178900.18000000063,"y":2548581.25}},{"attributes":{"ID":504501,"DIS_CODE":0,"TOWNNAME":"新化區","LI":"武安里","LIN":"7鄰","STREET":"和平街","SECT":" ","MAREA":" ","LANE":" ","ALLEY":" ","HOUSE_NO":"９３號","E_COORD97":179005.37,"N_COORD97":2548138.25,"ADDRESS":"和平街９３號","OBJECTID":504474},"geometry":{"x":179005.37000000011,"y":2548138.2499999981}},{"attributes":{"ID":504502,"DIS_CODE":0,"TOWNNAME":"新化區","LI":"協興里","LIN":"7鄰","STREET":"太平街","SECT":" ","MAREA":" ","LANE":" ","ALLEY":" ","HOUSE_NO":"１２５號之３","E_COORD97":178338.76999999999,"N_COORD97":2548672.2599999998,"ADDRESS":"太平街１２５號之３","OBJECTID":504475},"geometry":{"x":178338.77000000048,"y":2548672.2599999998}},{"attributes":{"ID":504503,"DIS_CODE":0,"TOWNNAME":"西港區","LI":"慶安里","LIN":"7鄰","STREET":"中山路","SECT":" ","MAREA":" ","LANE":" ","ALLEY":" ","HOUSE_NO":"３８１號","E_COORD97":168326.92999999999,"N_COORD97":2558337.6299999999,"ADDRESS":"中山路３８１號","OBJECTID":504476},"geometry":{"x":168326.92999999877,"y":2558337.6300000008}},{"attributes":{"ID":504504,"DIS_CODE":0,"TOWNNAME":"西港區","LI":"慶安里","LIN":"7鄰","STREET":"中山路","SECT":" ","MAREA":" ","LANE":" ","ALLEY":" ","HOUSE_NO":"３８３號之１","E_COORD97":168329.78,"N_COORD97":2558360.1400000001,"ADDRESS":"中山路３８３號之１","OBJECTID":504477},"geometry":{"x":168329.78000000026,"y":2558360.1400000025}},{"attributes":{"ID":504505,"DIS_CODE":0,"TOWNNAME":"西港區","LI":"慶安里","LIN":"7鄰","STREET":"中山路","SECT":" ","MAREA":" ","LANE":" ","ALLEY":" ","HOUSE_NO":"３８３號之２","E_COORD97":168329.76999999999,"N_COORD97":2558365.7400000002,"ADDRESS":"中山路３８３號之２","OBJECTID":504478},"geometry":{"x":168329.77000000142,"y":2558365.7400000021}},{"attributes":{"ID":504506,"DIS_CODE":0,"TOWNNAME":"西港區","LI":"慶安里","LIN":"7鄰","STREET":"中山路","SECT":" ","MAREA":" ","LANE":" ","ALLEY":" ","HOUSE_NO":"３８３號之３","E_COORD97":168329.51999999999,"N_COORD97":2558371,"ADDRESS":"中山路３８３號之３","OBJECTID":504479},"geometry":{"x":168329.51999999955,"y":2558371}},{"attributes":{"ID":504507,"DIS_CODE":0,"TOWNNAME":"西港區","LI":"慶安里","LIN":"7鄰","STREET":"中山路","SECT":" ","MAREA":" ","LANE":" ","ALLEY":" ","HOUSE_NO":"３８３號","E_COORD97":168330.28,"N_COORD97":2558355.1400000001,"ADDRESS":"中山路３８３號","OBJECTID":504480},"geometry":{"x":168330.28000000212,"y":2558355.1400000043}},{"attributes":{"ID":504508,"DIS_CODE":0,"TOWNNAME":"西港區","LI":"慶安里","LIN":"7鄰","STREET":"中山路","SECT":" ","MAREA":" ","LANE":" ","ALLEY":" ","HOUSE_NO":"３８５號之１","E_COORD97":168310.59,"N_COORD97":2558373.4500000002,"ADDRESS":"中山路３８５號之１","OBJECTID":504481},"geometry":{"x":168310.58999999985,"y":2558373.4500000011}},{"attributes":{"ID":504509,"DIS_CODE":0,"TOWNNAME":"西港區","LI":"慶安里","LIN":"7鄰","STREET":"中山路","SECT":" ","MAREA":" ","LANE":" ","ALLEY":" ","HOUSE_NO":"３８５號之２","E_COORD97":168306.39999999999,"N_COORD97":2558373.3100000001,"ADDRESS":"中山路３８５號之２","OBJECTID":504482},"geometry":{"x":168306.4000000013,"y":2558373.3100000005}},{"attributes":{"ID":504510,"DIS_CODE":0,"TOWNNAME":"西港區","LI":"慶安里","LIN":"7鄰","STREET":"中山路","SECT":" ","MAREA":" ","LANE":" ","ALLEY":" ","HOUSE_NO":"３８５號之３","E_COORD97":168301.91,"N_COORD97":2558373.2200000002,"ADDRESS":"中山路３８５號之３","OBJECTID":504483},"geometry":{"x":168301.91000000015,"y":2558373.2200000025}},{"attributes":{"ID":504511,"DIS_CODE":0,"TOWNNAME":"西港區","LI":"慶安里","LIN":"7鄰","STREET":"中山路","SECT":" ","MAREA":" ","LANE":" ","ALLEY":" ","HOUSE_NO":"３８５號之４","E_COORD97":168297.97,"N_COORD97":2558373.2999999998,"ADDRESS":"中山路３８５號之４","OBJECTID":504484},"geometry":{"x":168297.9700000016,"y":2558373.3000000007}},{"attributes":{"ID":504512,"DIS_CODE":0,"TOWNNAME":"西港區","LI":"慶安里","LIN":"7鄰","STREET":"中山路","SECT":" ","MAREA":" ","LANE":" ","ALLEY":" ","HOUSE_NO":"３８５號之５","E_COORD97":168293.54999999999,"N_COORD97":2558372.7799999998,"ADDRESS":"中山路３８５號之５","OBJECTID":504485},"geometry":{"x":168293.54999999981,"y":2558372.7799999993}},{"attributes":{"ID":504513,"DIS_CODE":0,"TOWNNAME":"西港區","LI":"慶安里","LIN":"7鄰","STREET":"中山路","SECT":" ","MAREA":" ","LANE":" ","ALLEY":" ","HOUSE_NO":"３８５號","E_COORD97":168314.87,"N_COORD97":2558373.4300000002,"ADDRESS":"中山路３８５號","OBJECTID":504486},"geometry":{"x":168314.87000000104,"y":2558373.4300000016}},{"attributes":{"ID":504514,"DIS_CODE":0,"TOWNNAME":"西港區","LI":"慶安里","LIN":"7鄰","STREET":"中山路","SECT":" ","MAREA":" ","LANE":" ","ALLEY":" ","HOUSE_NO":"３８７號之１","E_COORD97":168274.79000000001,"N_COORD97":2558372.1800000002,"ADDRESS":"中山路３８７號之１","OBJECTID":504487},"geometry":{"x":168274.79000000097,"y":2558372.1800000016}},{"attributes":{"ID":504515,"DIS_CODE":0,"TOWNNAME":"西港區","LI":"慶安里","LIN":"7鄰","STREET":"中山路","SECT":" ","MAREA":" ","LANE":" ","ALLEY":" ","HOUSE_NO":"３８７號之２","E_COORD97":168271.04999999999,"N_COORD97":2558372.1899999999,"ADDRESS":"中山路３８７號之２","OBJECTID":504488},"geometry":{"x":168271.05000000075,"y":2558372.1899999995}},{"attributes":{"ID":504516,"DIS_CODE":0,"TOWNNAME":"西港區","LI":"慶安里","LIN":"7鄰","STREET":"中山路","SECT":" ","MAREA":" ","LANE":" ","ALLEY":" ","HOUSE_NO":"３８７號之３","E_COORD97":168266.63,"N_COORD97":2558371.8700000001,"ADDRESS":"中山路３８７號之３","OBJECTID":504489},"geometry":{"x":168266.63000000175,"y":2558371.8700000029}},{"attributes":{"ID":504517,"DIS_CODE":0,"TOWNNAME":"西港區","LI":"慶安里","LIN":"7鄰","STREET":"中山路","SECT":" ","MAREA":" ","LANE":" ","ALLEY":" ","HOUSE_NO":"３８７號之４","E_COORD97":168262.04999999999,"N_COORD97":2558372.23,"ADDRESS":"中山路３８７號之４","OBJECTID":504490},"geometry":{"x":168262.05000000168,"y":2558372.2300000023}},{"attributes":{"ID":504518,"DIS_CODE":0,"TOWNNAME":"西港區","LI":"慶安里","LIN":"7鄰","STREET":"中山路","SECT":" ","MAREA":" ","LANE":" ","ALLEY":" ","HOUSE_NO":"３８７號之５","E_COORD97":168257.73000000001,"N_COORD97":2558371.5499999998,"ADDRESS":"中山路３８７號之５","OBJECTID":504491},"geometry":{"x":168257.73000000045,"y":2558371.5500000007}},{"attributes":{"ID":504519,"DIS_CODE":0,"TOWNNAME":"西港區","LI":"慶安里","LIN":"7鄰","STREET":"中山路","SECT":" ","MAREA":" ","LANE":" ","ALLEY":" ","HOUSE_NO":"３８７號","E_COORD97":168279.13,"N_COORD97":2558372.1600000001,"ADDRESS":"中山路３８７號","OBJECTID":504492},"geometry":{"x":168279.13000000082,"y":2558372.160000002}},{"attributes":{"ID":504520,"DIS_CODE":0,"TOWNNAME":"西港區","LI":"西港里","LIN":"7鄰","STREET":"文化路","SECT":" ","MAREA":" ","LANE":" ","ALLEY":" ","HOUSE_NO":"３８號","E_COORD97":168598.84,"N_COORD97":2558182.1200000001,"ADDRESS":"文化路３８號","OBJECTID":504493},"geometry":{"x":168598.83999999985,"y":2558182.120000001}},{"attributes":{"ID":504521,"DIS_CODE":0,"TOWNNAME":"西港區","LI":"西港里","LIN":"7鄰","STREET":"文化路","SECT":" ","MAREA":" ","LANE":" ","ALLEY":" ","HOUSE_NO":"４０號","E_COORD97":168604.75,"N_COORD97":2558183.1099999999,"ADDRESS":"文化路４０號","OBJECTID":504494},"geometry":{"x":168604.75,"y":2558183.1099999994}},{"attributes":{"ID":504522,"DIS_CODE":0,"TOWNNAME":"善化區","LI":"文昌里","LIN":"7鄰","STREET":"文昌路","SECT":" ","MAREA":" ","LANE":" ","ALLEY":" ","HOUSE_NO":"８５號之４","E_COORD97":177231.22,"N_COORD97":2558638.0299999998,"ADDRESS":"文昌路８５號之４","OBJECTID":504495},"geometry":{"x":177231.21999999974,"y":2558638.0299999993}},{"attributes":{"ID":504523,"DIS_CODE":0,"TOWNNAME":"善化區","LI":"文昌里","LIN":"7鄰","STREET":"文昌路","SECT":" ","MAREA":" ","LANE":" ","ALLEY":" ","HOUSE_NO":"８９之１號","E_COORD97":177206.29000000001,"N_COORD97":2558657.7799999998,"ADDRESS":"文昌路８９之１號","OBJECTID":504496},"geometry":{"x":177206.29000000097,"y":2558657.7800000031}},{"attributes":{"ID":504524,"DIS_CODE":0,"TOWNNAME":"善化區","LI":"南關里","LIN":"7鄰","STREET":"三民路","SECT":" ","MAREA":" ","LANE":" ","ALLEY":" ","HOUSE_NO":"１號之２２","E_COORD97":176873.89999999999,"N_COORD97":2558046.02,"ADDRESS":"三民路１號之２２","OBJECTID":504497},"geometry":{"x":176873.9000000013,"y":2558046.0199999977}},{"attributes":{"ID":504525,"DIS_CODE":0,"TOWNNAME":"善化區","LI":"南關里","LIN":"7鄰","STREET":"三民路","SECT":" ","MAREA":" ","LANE":" ","ALLEY":" ","HOUSE_NO":"１號之７","E_COORD97":177015.39000000001,"N_COORD97":2558701.77,"ADDRESS":"三民路１號之７","OBJECTID":504498},"geometry":{"x":177015.3900000006,"y":2558701.7699999996}},{"attributes":{"ID":504526,"DIS_CODE":0,"TOWNNAME":"善化區","LI":"光文里","LIN":"7鄰","STREET":"建業路","SECT":" ","MAREA":" ","LANE":" ","ALLEY":" ","HOUSE_NO":"２４３號之１","E_COORD97":178569.63,"N_COORD97":2559946.0299999998,"ADDRESS":"建業路２４３號之１","OBJECTID":504499},"geometry":{"x":178569.62999999989,"y":2559946.0300000012}},{"attributes":{"ID":504527,"DIS_CODE":0,"TOWNNAME":"善化區","LI":"文昌里","LIN":"7鄰","STREET":"文昌路","SECT":" ","MAREA":" ","LANE":" ","ALLEY":" ","HOUSE_NO":"８５號之１１","E_COORD97":177232.31,"N_COORD97":2558610.7799999998,"ADDRESS":"文昌路８５號之１１","OBJECTID":504500},"geometry":{"x":177232.30999999959,"y":2558610.7800000012}},{"attributes":{"ID":504528,"DIS_CODE":0,"TOWNNAME":"善化區","LI":"東關里","LIN":"7鄰","STREET":"中山路","SECT":" ","MAREA":" ","LANE":" ","ALLEY":" ","HOUSE_NO":"４６５號","E_COORD97":177263.78,"N_COORD97":2559118,"ADDRESS":"中山路４６５號","OBJECTID":504501},"geometry":{"x":177263.78000000026,"y":2559117.9999999981}},{"attributes":{"ID":504529,"DIS_CODE":0,"TOWNNAME":"善化區","LI":"東關里","LIN":"7鄰","STREET":"中山路","SECT":" ","MAREA":" ","LANE":" ","ALLEY":" ","HOUSE_NO":"４７３號","E_COORD97":177251.92000000001,"N_COORD97":2559120.25,"ADDRESS":"中山路４７３號","OBJECTID":504502},"geometry":{"x":177251.91999999993,"y":2559120.2500000019}},{"attributes":{"ID":504530,"DIS_CODE":0,"TOWNNAME":"善化區","LI":"文昌里","LIN":"7鄰","STREET":"文昌路","SECT":" ","MAREA":" ","LANE":" ","ALLEY":" ","HOUSE_NO":"９３號","E_COORD97":177184.09,"N_COORD97":2558679.27,"ADDRESS":"文昌路９３號","OBJECTID":504503},"geometry":{"x":177184.09000000078,"y":2558679.2700000014}},{"attributes":{"ID":504531,"DIS_CODE":0,"TOWNNAME":"善化區","LI":"文昌里","LIN":"7鄰","STREET":"文昌路","SECT":" ","MAREA":" ","LANE":" ","ALLEY":" ","HOUSE_NO":"１０１號","E_COORD97":177159,"N_COORD97":2558670.0299999998,"ADDRESS":"文昌路１０１號","OBJECTID":504504},"geometry":{"x":177159.00000000093,"y":2558670.0300000031}},{"attributes":{"ID":504532,"DIS_CODE":0,"TOWNNAME":"善化區","LI":"文正里","LIN":"7鄰","STREET":"文正路","SECT":" ","MAREA":" ","LANE":" ","ALLEY":" ","HOUSE_NO":"６７號","E_COORD97":177097.25,"N_COORD97":2559279.0299999998,"ADDRESS":"文正路６７號","OBJECTID":504505},"geometry":{"x":177097.25,"y":2559279.0299999993}},{"attributes":{"ID":504533,"DIS_CODE":0,"TOWNNAME":"善化區","LI":"文正里","LIN":"7鄰","STREET":"文正路","SECT":" ","MAREA":" ","LANE":" ","ALLEY":" ","HOUSE_NO":"６１號","E_COORD97":177081.45000000001,"N_COORD97":2559276.7799999998,"ADDRESS":"文正路６１號","OBJECTID":504506},"geometry":{"x":177081.45000000205,"y":2559276.7799999993}},{"attributes":{"ID":504534,"DIS_CODE":0,"TOWNNAME":"善化區","LI":"文昌里","LIN":"7鄰","STREET":"永福路","SECT":" ","MAREA":" ","LANE":" ","ALLEY":" ","HOUSE_NO":"１２２號","E_COORD97":177302.69,"N_COORD97":2558810.5,"ADDRESS":"永福路１２２號","OBJECTID":504507},"geometry":{"x":177302.69000000134,"y":2558810.5000000019}},{"attributes":{"ID":504535,"DIS_CODE":0,"TOWNNAME":"善化區","LI":"南關里","LIN":"7鄰","STREET":"三民路","SECT":" ","MAREA":" ","LANE":" ","ALLEY":" ","HOUSE_NO":"３之１７號","E_COORD97":177017.26000000001,"N_COORD97":2558706.27,"ADDRESS":"三民路３之１７號","OBJECTID":504508},"geometry":{"x":177017.25999999978,"y":2558706.2700000014}},{"attributes":{"ID":504536,"DIS_CODE":0,"TOWNNAME":"善化區","LI":"北關里","LIN":"7鄰","STREET":"中華路","SECT":" ","MAREA":" ","LANE":" ","ALLEY":" ","HOUSE_NO":"１７６號","E_COORD97":177246.07999999999,"N_COORD97":2559192,"ADDRESS":"中華路１７６號","OBJECTID":504509},"geometry":{"x":177246.08000000007,"y":2559192}},{"attributes":{"ID":504537,"DIS_CODE":0,"TOWNNAME":"善化區","LI":"光文里","LIN":"7鄰","STREET":"光文路","SECT":" ","MAREA":" ","LANE":" ","ALLEY":" ","HOUSE_NO":"２５號之１","E_COORD97":178977.12,"N_COORD97":2559433.2799999998,"ADDRESS":"光文路２５號之１","OBJECTID":504510},"geometry":{"x":178977.12000000197,"y":2559433.2799999993}},{"attributes":{"ID":504538,"DIS_CODE":0,"TOWNNAME":"善化區","LI":"光文里","LIN":"7鄰","STREET":"光文路","SECT":" ","MAREA":" ","LANE":" ","ALLEY":" ","HOUSE_NO":"３７號","E_COORD97":179003.5,"N_COORD97":2559487.7799999998,"ADDRESS":"光文路３７號","OBJECTID":504511},"geometry":{"x":179003.50000000093,"y":2559487.7799999993}},{"attributes":{"ID":504539,"DIS_CODE":0,"TOWNNAME":"善化區","LI":"坐駕里","LIN":"7鄰","STREET":"大成路","SECT":" ","MAREA":" ","LANE":" ","ALLEY":" ","HOUSE_NO":"４２２號","E_COORD97":177771.95999999999,"N_COORD97":2558783.75,"ADDRESS":"大成路４２２號","OBJECTID":504512},"geometry":{"x":177771.95999999996,"y":2558783.75}},{"attributes":{"ID":504540,"DIS_CODE":0,"TOWNNAME":"善化區","LI":"坐駕里","LIN":"7鄰","STREET":"建國路","SECT":" ","MAREA":" ","LANE":" ","ALLEY":" ","HOUSE_NO":"１０９號","E_COORD97":177978.35999999999,"N_COORD97":2558858.7799999998,"ADDRESS":"建國路１０９號","OBJECTID":504513},"geometry":{"x":177978.36000000034,"y":2558858.7800000012}},{"attributes":{"ID":504541,"DIS_CODE":0,"TOWNNAME":"善化區","LI":"南關里","LIN":"7鄰","STREET":"三民路","SECT":" ","MAREA":" ","LANE":" ","ALLEY":" ","HOUSE_NO":"１號之１２","E_COORD97":176815.06,"N_COORD97":2558343.02,"ADDRESS":"三民路１號之１２","OBJECTID":504514},"geometry":{"x":176815.05999999959,"y":2558343.0199999996}},{"attributes":{"ID":504542,"DIS_CODE":0,"TOWNNAME":"善化區","LI":"坐駕里","LIN":"7鄰","STREET":"大成路","SECT":" ","MAREA":" ","LANE":" ","ALLEY":" ","HOUSE_NO":"３７０號","E_COORD97":177919.66,"N_COORD97":2558815.5,"ADDRESS":"大成路３７０號","OBJECTID":504515},"geometry":{"x":177919.66000000108,"y":2558815.5}},{"attributes":{"ID":504543,"DIS_CODE":0,"TOWNNAME":"仁德區","LI":"仁義里","LIN":"7鄰","STREET":"中山路","SECT":" ","MAREA":" ","LANE":" ","ALLEY":" ","HOUSE_NO":"３９７號","E_COORD97":173823.17999999999,"N_COORD97":2541250,"ADDRESS":"中山路３９７號","OBJECTID":504516},"geometry":{"x":173823.18000000063,"y":2541250}},{"attributes":{"ID":504544,"DIS_CODE":0,"TOWNNAME":"仁德區","LI":"上崙里","LIN":"7鄰","STREET":"德善路","SECT":" ","MAREA":" ","LANE":" ","ALLEY":" ","HOUSE_NO":"３３４號","E_COORD97":174005.47,"N_COORD97":2538309.5099999998,"ADDRESS":"德善路３３４號","OBJECTID":504517},"geometry":{"x":174005.46999999974,"y":2538309.5099999998}},{"attributes":{"ID":504545,"DIS_CODE":0,"TOWNNAME":"仁德區","LI":"仁義里","LIN":"7鄰","STREET":"中山路","SECT":" ","MAREA":" ","LANE":" ","ALLEY":" ","HOUSE_NO":"４１５號","E_COORD97":173797.73000000001,"N_COORD97":2541254,"ADDRESS":"中山路４１５號","OBJECTID":504518},"geometry":{"x":173797.72999999952,"y":2541254}},{"attributes":{"ID":504546,"DIS_CODE":0,"TOWNNAME":"仁德區","LI":"後壁里","LIN":"7鄰","STREET":"德善一街","SECT":" ","MAREA":" ","LANE":" ","ALLEY":" ","HOUSE_NO":"７０號","E_COORD97":173560.57000000001,"N_COORD97":2539078.77,"ADDRESS":"德善一街７０號","OBJECTID":504519},"geometry":{"x":173560.57000000123,"y":2539078.7700000033}},{"attributes":{"ID":504547,"DIS_CODE":0,"TOWNNAME":"仁德區","LI":"田厝里","LIN":"7鄰","STREET":"保安路","SECT":"二段","MAREA":" ","LANE":" ","ALLEY":" ","HOUSE_NO":"５６１號","E_COORD97":172627.88,"N_COORD97":2537583.5600000001,"ADDRESS":"保安路二段５６１號","OBJECTID":504520},"geometry":{"x":172627.87999999989,"y":2537583.5600000024}},{"attributes":{"ID":504548,"DIS_CODE":0,"TOWNNAME":"仁德區","LI":"仁德里","LIN":"7鄰","STREET":"仁德三街","SECT":" ","MAREA":" ","LANE":" ","ALLEY":" ","HOUSE_NO":"６８號","E_COORD97":173153.12,"N_COORD97":2540994.5099999998,"ADDRESS":"仁德三街６８號","OBJECTID":504521},"geometry":{"x":173153.12000000104,"y":2540994.5100000016}},{"attributes":{"ID":504549,"DIS_CODE":0,"TOWNNAME":"仁德區","LI":"田厝里","LIN":"7鄰","STREET":"保安路","SECT":"二段","MAREA":" ","LANE":" ","ALLEY":" ","HOUSE_NO":"５４３號","E_COORD97":172586.20000000001,"N_COORD97":2537579.0600000001,"ADDRESS":"保安路二段５４３號","OBJECTID":504522},"geometry":{"x":172586.20000000112,"y":2537579.0599999987}},{"attributes":{"ID":504550,"DIS_CODE":0,"TOWNNAME":"仁德區","LI":"仁德里","LIN":"7鄰","STREET":"仁德三街","SECT":" ","MAREA":" ","LANE":" ","ALLEY":" ","HOUSE_NO":"５８號","E_COORD97":173171.23999999999,"N_COORD97":2540981.7599999998,"ADDRESS":"仁德三街５８號","OBJECTID":504523},"geometry":{"x":173171.24000000022,"y":2540981.7600000016}},{"attributes":{"ID":504551,"DIS_CODE":0,"TOWNNAME":"仁德區","LI":"後壁里","LIN":"7鄰","STREET":"德善一街","SECT":" ","MAREA":" ","LANE":" ","ALLEY":" ","HOUSE_NO":"６８號","E_COORD97":173555.82000000001,"N_COORD97":2539076.27,"ADDRESS":"德善一街６８號","OBJECTID":504524},"geometry":{"x":173555.8200000003,"y":2539076.2700000014}},{"attributes":{"ID":504552,"DIS_CODE":0,"TOWNNAME":"仁德區","LI":"二行里","LIN":"7鄰","STREET":"行大街","SECT":" ","MAREA":" ","LANE":" ","ALLEY":" ","HOUSE_NO":"２２號","E_COORD97":170293.38,"N_COORD97":2535264.75,"ADDRESS":"行大街２２號","OBJECTID":504525},"geometry":{"x":170293.37999999989,"y":2535264.75}},{"attributes":{"ID":504553,"DIS_CODE":0,"TOWNNAME":"仁德區","LI":"二行里","LIN":"7鄰","STREET":"行大街","SECT":" ","MAREA":" ","LANE":" ","ALLEY":" ","HOUSE_NO":"２６號","E_COORD97":170321.85000000001,"N_COORD97":2535231.25,"ADDRESS":"行大街２６號","OBJECTID":504526},"geometry":{"x":170321.85000000056,"y":2535231.2500000037}},{"attributes":{"ID":504554,"DIS_CODE":0,"TOWNNAME":"仁德區","LI":"大甲里","LIN":"7鄰","STREET":"行大一街","SECT":" ","MAREA":" ","LANE":" ","ALLEY":" ","HOUSE_NO":"２９７之１號","E_COORD97":169653.54000000001,"N_COORD97":2534979.04,"ADDRESS":"行大一街２９７之１號","OBJECTID":504527},"geometry":{"x":169653.54000000004,"y":2534979.040000001}},{"attributes":{"ID":504555,"DIS_CODE":0,"TOWNNAME":"仁德區","LI":"大甲里","LIN":"7鄰","STREET":"行大一街","SECT":" ","MAREA":" ","LANE":" ","ALLEY":" ","HOUSE_NO":"２７６號","E_COORD97":169648.07000000001,"N_COORD97":2535052.25,"ADDRESS":"行大一街２７６號","OBJECTID":504528},"geometry":{"x":169648.07000000123,"y":2535052.2500000019}},{"attributes":{"ID":504556,"DIS_CODE":0,"TOWNNAME":"新化區","LI":"護國里","LIN":"7鄰","STREET":"信義路","SECT":" ","MAREA":" ","LANE":" ","ALLEY":" ","HOUSE_NO":"１６０號","E_COORD97":179287.42999999999,"N_COORD97":2548384.25,"ADDRESS":"信義路１６０號","OBJECTID":504529},"geometry":{"x":179287.4299999997,"y":2548384.2500000019}},{"attributes":{"ID":504557,"DIS_CODE":0,"TOWNNAME":"新化區","LI":"豐榮里","LIN":"7鄰","STREET":"大智路","SECT":" ","MAREA":" ","LANE":" ","ALLEY":" ","HOUSE_NO":"３０５號","E_COORD97":177924.03,"N_COORD97":2547864.25,"ADDRESS":"大智路３０５號","OBJECTID":504530},"geometry":{"x":177924.03000000119,"y":2547864.2500000019}},{"attributes":{"ID":504558,"DIS_CODE":0,"TOWNNAME":"善化區","LI":"文昌里","LIN":"7鄰","STREET":"文昌路","SECT":" ","MAREA":" ","LANE":" ","ALLEY":" ","HOUSE_NO":"７５之１號","E_COORD97":177237.59,"N_COORD97":2558697.7799999998,"ADDRESS":"文昌路７５之１號","OBJECTID":504531},"geometry":{"x":177237.58999999892,"y":2558697.7799999993}},{"attributes":{"ID":504559,"DIS_CODE":0,"TOWNNAME":"善化區","LI":"文昌里","LIN":"7鄰","STREET":"中華路","SECT":" ","MAREA":" ","LANE":" ","ALLEY":" ","HOUSE_NO":"７０號","E_COORD97":177259.42000000001,"N_COORD97":2558803.5,"ADDRESS":"中華路７０號","OBJECTID":504532},"geometry":{"x":177259.42000000179,"y":2558803.5000000019}},{"attributes":{"ID":504560,"DIS_CODE":0,"TOWNNAME":"善化區","LI":"文正里","LIN":"7鄰","STREET":"文正路","SECT":" ","MAREA":" ","LANE":" ","ALLEY":" ","HOUSE_NO":"６５號","E_COORD97":177086.85000000001,"N_COORD97":2559294.0299999998,"ADDRESS":"文正路６５號","OBJECTID":504533},"geometry":{"x":177086.85000000056,"y":2559294.0300000012}},{"attributes":{"ID":504561,"DIS_CODE":0,"TOWNNAME":"善化區","LI":"小新里","LIN":"7鄰","STREET":"成功路","SECT":" ","MAREA":" ","LANE":" ","ALLEY":" ","HOUSE_NO":"８０號","E_COORD97":179777.17999999999,"N_COORD97":2558700.5,"ADDRESS":"成功路８０號","OBJECTID":504534},"geometry":{"x":179777.18000000063,"y":2558700.5}},{"attributes":{"ID":504562,"DIS_CODE":0,"TOWNNAME":"善化區","LI":"小新里","LIN":"7鄰","STREET":"成功路","SECT":" ","MAREA":" ","LANE":" ","ALLEY":" ","HOUSE_NO":"３８７號","E_COORD97":179292.79000000001,"N_COORD97":2558786,"ADDRESS":"成功路３８７號","OBJECTID":504535},"geometry":{"x":179292.7900000019,"y":2558786.0000000037}},{"attributes":{"ID":504563,"DIS_CODE":0,"TOWNNAME":"善化區","LI":"小新里","LIN":"7鄰","STREET":"成功路","SECT":" ","MAREA":" ","LANE":" ","ALLEY":" ","HOUSE_NO":"３８９號","E_COORD97":179285.95999999999,"N_COORD97":2558791.75,"ADDRESS":"成功路３８９號","OBJECTID":504536},"geometry":{"x":179285.95999999996,"y":2558791.7500000019}},{"attributes":{"ID":504564,"DIS_CODE":0,"TOWNNAME":"善化區","LI":"小新里","LIN":"7鄰","STREET":"成功路","SECT":" ","MAREA":" ","LANE":" ","ALLEY":" ","HOUSE_NO":"３６１號","E_COORD97":179424.42999999999,"N_COORD97":2558752.25,"ADDRESS":"成功路３６１號","OBJECTID":504537},"geometry":{"x":179424.43000000063,"y":2558752.25}},{"attributes":{"ID":504565,"DIS_CODE":0,"TOWNNAME":"善化區","LI":"文昌里","LIN":"7鄰","STREET":"光復路","SECT":" ","MAREA":" ","LANE":" ","ALLEY":" ","HOUSE_NO":"２０２號","E_COORD97":177250.82999999999,"N_COORD97":2558606.7599999998,"ADDRESS":"光復路２０２號","OBJECTID":504538},"geometry":{"x":177250.83000000007,"y":2558606.7599999998}},{"attributes":{"ID":504566,"DIS_CODE":0,"TOWNNAME":"善化區","LI":"文昌里","LIN":"7鄰","STREET":"文昌路","SECT":" ","MAREA":" ","LANE":" ","ALLEY":" ","HOUSE_NO":"８５之１０號","E_COORD97":177231.95000000001,"N_COORD97":2558615.2799999998,"ADDRESS":"文昌路８５之１０號","OBJECTID":504539},"geometry":{"x":177231.95000000019,"y":2558615.2800000012}},{"attributes":{"ID":504567,"DIS_CODE":0,"TOWNNAME":"善化區","LI":"小新里","LIN":"7鄰","STREET":"成功路","SECT":" ","MAREA":" ","LANE":" ","ALLEY":" ","HOUSE_NO":"２１４號","E_COORD97":179392.04999999999,"N_COORD97":2558796,"ADDRESS":"成功路２１４號","OBJECTID":504540},"geometry":{"x":179392.04999999981,"y":2558796.0000000037}},{"attributes":{"ID":504568,"DIS_CODE":0,"TOWNNAME":"善化區","LI":"文昌里","LIN":"7鄰","STREET":"文昌路","SECT":" ","MAREA":" ","LANE":" ","ALLEY":" ","HOUSE_NO":"３８號之５","E_COORD97":177297.98000000001,"N_COORD97":2558741.2799999998,"ADDRESS":"文昌路３８號之５","OBJECTID":504541},"geometry":{"x":177297.98000000045,"y":2558741.2799999993}},{"attributes":{"ID":504569,"DIS_CODE":0,"TOWNNAME":"善化區","LI":"文昌里","LIN":"7鄰","STREET":"光復路","SECT":" ","MAREA":" ","LANE":" ","ALLEY":" ","HOUSE_NO":"１８６號","E_COORD97":177283.56,"N_COORD97":2558618.2599999998,"ADDRESS":"光復路１８６號","OBJECTID":504542},"geometry":{"x":177283.56000000052,"y":2558618.2600000016}},{"attributes":{"ID":504570,"DIS_CODE":0,"TOWNNAME":"善化區","LI":"文昌里","LIN":"7鄰","STREET":"永福路","SECT":" ","MAREA":" ","LANE":" ","ALLEY":" ","HOUSE_NO":"１２６號","E_COORD97":177287.85999999999,"N_COORD97":2558803.5,"ADDRESS":"永福路１２６號","OBJECTID":504543},"geometry":{"x":177287.86000000127,"y":2558803.5000000019}},{"attributes":{"ID":504571,"DIS_CODE":0,"TOWNNAME":"善化區","LI":"文正里","LIN":"7鄰","STREET":"文正路","SECT":" ","MAREA":" ","LANE":" ","ALLEY":" ","HOUSE_NO":"５９號之１","E_COORD97":177054.41,"N_COORD97":2559271.2799999998,"ADDRESS":"文正路５９號之１","OBJECTID":504544},"geometry":{"x":177054.40999999922,"y":2559271.2799999993}},{"attributes":{"ID":504572,"DIS_CODE":0,"TOWNNAME":"善化區","LI":"文昌里","LIN":"7鄰","STREET":"中華路","SECT":" ","MAREA":" ","LANE":" ","ALLEY":" ","HOUSE_NO":"９２號","E_COORD97":177241.06,"N_COORD97":2558845.75,"ADDRESS":"中華路９２號","OBJECTID":504545},"geometry":{"x":177241.06000000145,"y":2558845.7500000019}},{"attributes":{"ID":504573,"DIS_CODE":0,"TOWNNAME":"善化區","LI":"文昌里","LIN":"7鄰","STREET":"文昌路","SECT":" ","MAREA":" ","LANE":" ","ALLEY":" ","HOUSE_NO":"１０５號","E_COORD97":177151.34,"N_COORD97":2558667.52,"ADDRESS":"文昌路１０５號","OBJECTID":504546},"geometry":{"x":177151.34000000171,"y":2558667.5200000014}},{"attributes":{"ID":504574,"DIS_CODE":0,"TOWNNAME":"善化區","LI":"小新里","LIN":"7鄰","STREET":"成功路","SECT":" ","MAREA":" ","LANE":" ","ALLEY":" ","HOUSE_NO":"３４９號","E_COORD97":179490.29999999999,"N_COORD97":2558734.25,"ADDRESS":"成功路３４９號","OBJECTID":504547},"geometry":{"x":179490.29999999981,"y":2558734.2500000019}},{"attributes":{"ID":504575,"DIS_CODE":0,"TOWNNAME":"善化區","LI":"光文里","LIN":"7鄰","STREET":"建業路","SECT":" ","MAREA":" ","LANE":" ","ALLEY":" ","HOUSE_NO":"９１號","E_COORD97":178839.57999999999,"N_COORD97":2559680.5299999998,"ADDRESS":"建業路９１號","OBJECTID":504548},"geometry":{"x":178839.58000000007,"y":2559680.5300000012}},{"attributes":{"ID":504576,"DIS_CODE":0,"TOWNNAME":"善化區","LI":"文昌里","LIN":"7鄰","STREET":"中華路","SECT":" ","MAREA":" ","LANE":" ","ALLEY":" ","HOUSE_NO":"９０號","E_COORD97":177243.70000000001,"N_COORD97":2558840.5,"ADDRESS":"中華路９０號","OBJECTID":504549},"geometry":{"x":177243.70000000019,"y":2558840.5000000019}},{"attributes":{"ID":504577,"DIS_CODE":0,"TOWNNAME":"關廟區","LI":"新埔里","LIN":"8鄰","STREET":"新埔三街","SECT":" ","MAREA":" ","LANE":" ","ALLEY":" ","HOUSE_NO":"１３３號","E_COORD97":181238.42000000001,"N_COORD97":2541107.25,"ADDRESS":"新埔三街１３３號","OBJECTID":504550},"geometry":{"x":181238.42000000086,"y":2541107.2500000019}},{"attributes":{"ID":504578,"DIS_CODE":0,"TOWNNAME":"善化區","LI":"文正里","LIN":"7鄰","STREET":"文正路","SECT":" ","MAREA":" ","LANE":" ","ALLEY":" ","HOUSE_NO":"４３號之１","E_COORD97":177024.29000000001,"N_COORD97":2559324.2799999998,"ADDRESS":"文正路４３號之１","OBJECTID":504551},"geometry":{"x":177024.29000000004,"y":2559324.2799999993}},{"attributes":{"ID":504579,"DIS_CODE":0,"TOWNNAME":"善化區","LI":"文昌里","LIN":"7鄰","STREET":"永福路","SECT":" ","MAREA":" ","LANE":" ","ALLEY":" ","HOUSE_NO":"１２２之１號","E_COORD97":177295.85000000001,"N_COORD97":2558809.02,"ADDRESS":"永福路１２２之１號","OBJECTID":504552},"geometry":{"x":177295.85000000056,"y":2558809.0200000033}},{"attributes":{"ID":504580,"DIS_CODE":0,"TOWNNAME":"善化區","LI":"文昌里","LIN":"7鄰","STREET":"文昌路","SECT":" ","MAREA":" ","LANE":" ","ALLEY":" ","HOUSE_NO":"７５號","E_COORD97":177240.62,"N_COORD97":2558699.2799999998,"ADDRESS":"文昌路７５號","OBJECTID":504553},"geometry":{"x":177240.62000000011,"y":2558699.2800000012}},{"attributes":{"ID":504581,"DIS_CODE":0,"TOWNNAME":"善化區","LI":"文正里","LIN":"7鄰","STREET":"文正路","SECT":" ","MAREA":" ","LANE":" ","ALLEY":" ","HOUSE_NO":"４９號","E_COORD97":177025.92999999999,"N_COORD97":2559298.2799999998,"ADDRESS":"文正路４９號","OBJECTID":504554},"geometry":{"x":177025.9299999997,"y":2559298.2799999993}},{"attributes":{"ID":504582,"DIS_CODE":0,"TOWNNAME":"善化區","LI":"小新里","LIN":"7鄰","STREET":"成功路","SECT":" ","MAREA":" ","LANE":" ","ALLEY":" ","HOUSE_NO":"９６號","E_COORD97":179754.13,"N_COORD97":2558806,"ADDRESS":"成功路９６號","OBJECTID":504555},"geometry":{"x":179754.12999999989,"y":2558806}},{"attributes":{"ID":504583,"DIS_CODE":0,"TOWNNAME":"善化區","LI":"文昌里","LIN":"7鄰","STREET":"光復路","SECT":" ","MAREA":" ","LANE":" ","ALLEY":" ","HOUSE_NO":"１８０號","E_COORD97":177294.72,"N_COORD97":2558622.0099999998,"ADDRESS":"光復路１８０號","OBJECTID":504556},"geometry":{"x":177294.72000000067,"y":2558622.0099999998}},{"attributes":{"ID":504584,"DIS_CODE":0,"TOWNNAME":"善化區","LI":"小新里","LIN":"7鄰","STREET":"成功路","SECT":" ","MAREA":" ","LANE":" ","ALLEY":" ","HOUSE_NO":"８２號","E_COORD97":179773.51000000001,"N_COORD97":2558701.5,"ADDRESS":"成功路８２號","OBJECTID":504557},"geometry":{"x":179773.50999999978,"y":2558701.5000000019}},{"attributes":{"ID":504585,"DIS_CODE":0,"TOWNNAME":"善化區","LI":"小新里","LIN":"7鄰","STREET":"成功路","SECT":" ","MAREA":" ","LANE":" ","ALLEY":" ","HOUSE_NO":"１５２號","E_COORD97":179576.16,"N_COORD97":2558740.5,"ADDRESS":"成功路１５２號","OBJECTID":504558},"geometry":{"x":179576.16000000015,"y":2558740.5}},{"attributes":{"ID":504586,"DIS_CODE":0,"TOWNNAME":"善化區","LI":"文昌里","LIN":"7鄰","STREET":"自由路","SECT":" ","MAREA":" ","LANE":" ","ALLEY":" ","HOUSE_NO":"４７號","E_COORD97":177289.92000000001,"N_COORD97":2558889,"ADDRESS":"自由路４７號","OBJECTID":504559},"geometry":{"x":177289.92000000179,"y":2558889.0000000019}},{"attributes":{"ID":504587,"DIS_CODE":0,"TOWNNAME":"善化區","LI":"坐駕里","LIN":"7鄰","STREET":"大成路","SECT":" ","MAREA":" ","LANE":" ","ALLEY":" ","HOUSE_NO":"３９２之１號","E_COORD97":177866.32000000001,"N_COORD97":2558809.52,"ADDRESS":"大成路３９２之１號","OBJECTID":504560},"geometry":{"x":177866.32000000123,"y":2558809.5200000014}},{"attributes":{"ID":504588,"DIS_CODE":0,"TOWNNAME":"善化區","LI":"文昌里","LIN":"7鄰","STREET":"光復路","SECT":" ","MAREA":" ","LANE":" ","ALLEY":" ","HOUSE_NO":"２０８號","E_COORD97":177231.48000000001,"N_COORD97":2558599.7599999998,"ADDRESS":"光復路２０８號","OBJECTID":504561},"geometry":{"x":177231.48000000045,"y":2558599.7599999998}},{"attributes":{"ID":504589,"DIS_CODE":0,"TOWNNAME":"善化區","LI":"文昌里","LIN":"7鄰","STREET":"自由路","SECT":" ","MAREA":" ","LANE":" ","ALLEY":" ","HOUSE_NO":"４１號","E_COORD97":177304.23999999999,"N_COORD97":2558894.75,"ADDRESS":"自由路４１號","OBJECTID":504562},"geometry":{"x":177304.24000000022,"y":2558894.75}},{"attributes":{"ID":504590,"DIS_CODE":0,"TOWNNAME":"善化區","LI":"西關里","LIN":"7鄰","STREET":"中山路","SECT":" ","MAREA":" ","LANE":" ","ALLEY":" ","HOUSE_NO":"５１９號","E_COORD97":177055.19,"N_COORD97":2559151.5,"ADDRESS":"中山路５１９號","OBJECTID":504563},"geometry":{"x":177055.19000000134,"y":2559151.5}},{"attributes":{"ID":504591,"DIS_CODE":0,"TOWNNAME":"安南區","LI":"城中里","LIN":"7鄰","STREET":"安中路","SECT":"六段","MAREA":" ","LANE":" ","ALLEY":" ","HOUSE_NO":"５９９號","E_COORD97":160822.14999999999,"N_COORD97":2551440.6099999999,"ADDRESS":"安中路六段５９９號","OBJECTID":504564},"geometry":{"x":160822.1500000013,"y":2551440.6099999994}},{"attributes":{"ID":504592,"DIS_CODE":0,"TOWNNAME":"安南區","LI":"城中里","LIN":"7鄰","STREET":"安中路","SECT":"六段","MAREA":" ","LANE":" ","ALLEY":" ","HOUSE_NO":"６０１號","E_COORD97":160820.28,"N_COORD97":2551446.4199999999,"ADDRESS":"安中路六段６０１號","OBJECTID":504565},"geometry":{"x":160820.28000000026,"y":2551446.4200000037}},{"attributes":{"ID":504593,"DIS_CODE":0,"TOWNNAME":"安南區","LI":"安慶里","LIN":"7鄰","STREET":"怡安路","SECT":"一段","MAREA":" ","LANE":" ","ALLEY":" ","HOUSE_NO":"３０５號","E_COORD97":168896.53,"N_COORD97":2549097.8599999999,"ADDRESS":"怡安路一段３０５號","OBJECTID":504566},"geometry":{"x":168896.53000000212,"y":2549097.8600000013}},{"attributes":{"ID":504594,"DIS_CODE":0,"TOWNNAME":"新化區","LI":"北勢里","LIN":"7鄰","STREET":"中正路","SECT":" ","MAREA":" ","LANE":" ","ALLEY":" ","HOUSE_NO":"１１６５號","E_COORD97":177975.26999999999,"N_COORD97":2550951.52,"ADDRESS":"中正路１１６５號","OBJECTID":504567},"geometry":{"x":177975.27000000142,"y":2550951.5200000014}},{"attributes":{"ID":504595,"DIS_CODE":0,"TOWNNAME":"新化區","LI":"北勢里","LIN":"7鄰","STREET":"中正路","SECT":" ","MAREA":" ","LANE":" ","ALLEY":" ","HOUSE_NO":"１１６７號","E_COORD97":177973.60999999999,"N_COORD97":2550955.1800000002,"ADDRESS":"中正路１１６７號","OBJECTID":504568},"geometry":{"x":177973.61000000034,"y":2550955.1799999997}},{"attributes":{"ID":504596,"DIS_CODE":0,"TOWNNAME":"新化區","LI":"北勢里","LIN":"7鄰","STREET":"中正路","SECT":" ","MAREA":" ","LANE":" ","ALLEY":" ","HOUSE_NO":"１１６９號","E_COORD97":177971.95999999999,"N_COORD97":2550958.8399999999,"ADDRESS":"中正路１１６９號","OBJECTID":504569},"geometry":{"x":177971.95999999996,"y":2550958.8400000017}},{"attributes":{"ID":504597,"DIS_CODE":0,"TOWNNAME":"新化區","LI":"北勢里","LIN":"7鄰","STREET":"中正路","SECT":" ","MAREA":" ","LANE":" ","ALLEY":" ","HOUSE_NO":"１１７１號","E_COORD97":177970.29999999999,"N_COORD97":2550962.5,"ADDRESS":"中正路１１７１號","OBJECTID":504570},"geometry":{"x":177970.30000000168,"y":2550962.5000000019}},{"attributes":{"ID":504598,"DIS_CODE":0,"TOWNNAME":"新化區","LI":"北勢里","LIN":"7鄰","STREET":"中正路","SECT":" ","MAREA":" ","LANE":" ","ALLEY":" ","HOUSE_NO":"１１７３號","E_COORD97":177968.64999999999,"N_COORD97":2550966.1600000001,"ADDRESS":"中正路１１７３號","OBJECTID":504571},"geometry":{"x":177968.6500000013,"y":2550966.1600000001}},{"attributes":{"ID":504599,"DIS_CODE":0,"TOWNNAME":"新化區","LI":"北勢里","LIN":"7鄰","STREET":"中正路","SECT":" ","MAREA":" ","LANE":" ","ALLEY":" ","HOUSE_NO":"１１７５號","E_COORD97":177967,"N_COORD97":2550969.8100000001,"ADDRESS":"中正路１１７５號","OBJECTID":504572},"geometry":{"x":177967,"y":2550969.8100000042}},{"attributes":{"ID":504600,"DIS_CODE":0,"TOWNNAME":"新化區","LI":"北勢里","LIN":"7鄰","STREET":"中正路","SECT":" ","MAREA":" ","LANE":" ","ALLEY":" ","HOUSE_NO":"１１７７號","E_COORD97":177965.98000000001,"N_COORD97":2550973.5600000001,"ADDRESS":"中正路１１７７號","OBJECTID":504573},"geometry":{"x":177965.98000000045,"y":2550973.5600000005}},{"attributes":{"ID":504601,"DIS_CODE":0,"TOWNNAME":"新化區","LI":"北勢里","LIN":"7鄰","STREET":"中正路","SECT":" ","MAREA":" ","LANE":" ","ALLEY":" ","HOUSE_NO":"１１７９號","E_COORD97":177963.69,"N_COORD97":2550977.1299999999,"ADDRESS":"中正路１１７９號","OBJECTID":504574},"geometry":{"x":177963.69000000134,"y":2550977.1300000008}},{"attributes":{"ID":504602,"DIS_CODE":0,"TOWNNAME":"新化區","LI":"北勢里","LIN":"7鄰","STREET":"中正路","SECT":" ","MAREA":" ","LANE":" ","ALLEY":" ","HOUSE_NO":"１１８３號","E_COORD97":177960.38,"N_COORD97":2550984.4500000002,"ADDRESS":"中正路１１８３號","OBJECTID":504575},"geometry":{"x":177960.38000000082,"y":2550984.450000003}},{"attributes":{"ID":504603,"DIS_CODE":0,"TOWNNAME":"新化區","LI":"北勢里","LIN":"7鄰","STREET":"中正路","SECT":" ","MAREA":" ","LANE":" ","ALLEY":" ","HOUSE_NO":"１１８５號","E_COORD97":177958.73000000001,"N_COORD97":2550988.1200000001,"ADDRESS":"中正路１１８５號","OBJECTID":504576},"geometry":{"x":177958.73000000045,"y":2550988.1199999992}},{"attributes":{"ID":504604,"DIS_CODE":0,"TOWNNAME":"新化區","LI":"北勢里","LIN":"7鄰","STREET":"中正路","SECT":" ","MAREA":" ","LANE":" ","ALLEY":" ","HOUSE_NO":"１１８７號","E_COORD97":177957.07000000001,"N_COORD97":2550991.7799999998,"ADDRESS":"中正路１１８７號","OBJECTID":504577},"geometry":{"x":177957.07000000216,"y":2550991.7799999993}},{"attributes":{"ID":504605,"DIS_CODE":0,"TOWNNAME":"新化區","LI":"北勢里","LIN":"7鄰","STREET":"中正路","SECT":" ","MAREA":" ","LANE":" ","ALLEY":" ","HOUSE_NO":"１１８９號","E_COORD97":177955.42000000001,"N_COORD97":2550995.4399999999,"ADDRESS":"中正路１１８９號","OBJECTID":504578},"geometry":{"x":177955.41999999993,"y":2550995.4400000013}},{"attributes":{"ID":504606,"DIS_CODE":0,"TOWNNAME":"新化區","LI":"北勢里","LIN":"7鄰","STREET":"中正路","SECT":" ","MAREA":" ","LANE":" ","ALLEY":" ","HOUSE_NO":"１１９１號","E_COORD97":177953.76999999999,"N_COORD97":2550999.0899999999,"ADDRESS":"中正路１１９１號","OBJECTID":504579},"geometry":{"x":177953.77000000048,"y":2550999.0900000017}},{"attributes":{"ID":504607,"DIS_CODE":0,"TOWNNAME":"新化區","LI":"北勢里","LIN":"7鄰","STREET":"中正路","SECT":" ","MAREA":" ","LANE":" ","ALLEY":" ","HOUSE_NO":"１１９３號","E_COORD97":177952.13,"N_COORD97":2551002.73,"ADDRESS":"中正路１１９３號","OBJECTID":504580},"geometry":{"x":177952.12999999989,"y":2551002.7300000004}},{"attributes":{"ID":504608,"DIS_CODE":0,"TOWNNAME":"新化區","LI":"北勢里","LIN":"7鄰","STREET":"中正路","SECT":" ","MAREA":" ","LANE":" ","ALLEY":" ","HOUSE_NO":"１１９５號","E_COORD97":177950.47,"N_COORD97":2551006.3900000001,"ADDRESS":"中正路１１９５號","OBJECTID":504581},"geometry":{"x":177950.4700000016,"y":2551006.3900000043}},{"attributes":{"ID":504609,"DIS_CODE":0,"TOWNNAME":"新化區","LI":"北勢里","LIN":"7鄰","STREET":"中正路","SECT":" ","MAREA":" ","LANE":" ","ALLEY":" ","HOUSE_NO":"１１９７號","E_COORD97":177948.81,"N_COORD97":2551010.0600000001,"ADDRESS":"中正路１１９７號","OBJECTID":504582},"geometry":{"x":177948.80999999959,"y":2551010.0600000024}},{"attributes":{"ID":504610,"DIS_CODE":0,"TOWNNAME":"新化區","LI":"北勢里","LIN":"7鄰","STREET":"中正路","SECT":" ","MAREA":" ","LANE":" ","ALLEY":" ","HOUSE_NO":"１２０１號","E_COORD97":177945.51000000001,"N_COORD97":2551017.3700000001,"ADDRESS":"中正路１２０１號","OBJECTID":504583},"geometry":{"x":177945.51000000071,"y":2551017.3700000048}},{"attributes":{"ID":504611,"DIS_CODE":0,"TOWNNAME":"新化區","LI":"北勢里","LIN":"7鄰","STREET":"中正路","SECT":" ","MAREA":" ","LANE":" ","ALLEY":" ","HOUSE_NO":"１２０３號","E_COORD97":177943.85999999999,"N_COORD97":2551021.02,"ADDRESS":"中正路１２０３號","OBJECTID":504584},"geometry":{"x":177943.86000000127,"y":2551021.0199999996}},{"attributes":{"ID":504612,"DIS_CODE":0,"TOWNNAME":"新化區","LI":"北勢里","LIN":"7鄰","STREET":"中正路","SECT":" ","MAREA":" ","LANE":" ","ALLEY":" ","HOUSE_NO":"１２０５號","E_COORD97":177942.20999999999,"N_COORD97":2551024.6899999999,"ADDRESS":"中正路１２０５號","OBJECTID":504585},"geometry":{"x":177942.21000000183,"y":2551024.6900000013}},{"attributes":{"ID":504613,"DIS_CODE":0,"TOWNNAME":"新化區","LI":"北勢里","LIN":"7鄰","STREET":"中正路","SECT":" ","MAREA":" ","LANE":" ","ALLEY":" ","HOUSE_NO":"１２０７號","E_COORD97":177940.53,"N_COORD97":2551028.3900000001,"ADDRESS":"中正路１２０７號","OBJECTID":504586},"geometry":{"x":177940.53000000119,"y":2551028.3900000025}},{"attributes":{"ID":504614,"DIS_CODE":0,"TOWNNAME":"新化區","LI":"北勢里","LIN":"7鄰","STREET":"中正路","SECT":" ","MAREA":" ","LANE":" ","ALLEY":" ","HOUSE_NO":"１２０９號","E_COORD97":177938.89999999999,"N_COORD97":2551032,"ADDRESS":"中正路１２０９號","OBJECTID":504587},"geometry":{"x":177938.90000000037,"y":2551031.9999999981}},{"attributes":{"ID":504615,"DIS_CODE":0,"TOWNNAME":"新化區","LI":"北勢里","LIN":"7鄰","STREET":"中正路","SECT":" ","MAREA":" ","LANE":" ","ALLEY":" ","HOUSE_NO":"１２１１號","E_COORD97":177929.87,"N_COORD97":2551051.46,"ADDRESS":"中正路１２１１號","OBJECTID":504588},"geometry":{"x":177929.87000000104,"y":2551051.4600000028}},{"attributes":{"ID":504616,"DIS_CODE":0,"TOWNNAME":"新化區","LI":"北勢里","LIN":"7鄰","STREET":"中正路","SECT":" ","MAREA":" ","LANE":" ","ALLEY":" ","HOUSE_NO":"１２１３號","E_COORD97":177913.01000000001,"N_COORD97":2551044.1400000001,"ADDRESS":"中正路１２１３號","OBJECTID":504589},"geometry":{"x":177913.01000000071,"y":2551044.1400000006}},{"attributes":{"ID":504617,"DIS_CODE":0,"TOWNNAME":"新化區","LI":"北勢里","LIN":"7鄰","STREET":"金華街","SECT":"一段","MAREA":" ","LANE":" ","ALLEY":" ","HOUSE_NO":"１２號","E_COORD97":177939.97,"N_COORD97":2550980.3399999999,"ADDRESS":"金華街一段１２號","OBJECTID":504590},"geometry":{"x":177939.96999999974,"y":2550980.3400000017}},{"attributes":{"ID":504618,"DIS_CODE":0,"TOWNNAME":"新化區","LI":"北勢里","LIN":"7鄰","STREET":"金華街","SECT":"一段","MAREA":" ","LANE":" ","ALLEY":" ","HOUSE_NO":"１６號","E_COORD97":177930.95999999999,"N_COORD97":2550973.9300000002,"ADDRESS":"金華街一段１６號","OBJECTID":504591},"geometry":{"x":177930.96000000089,"y":2550973.9299999997}},{"attributes":{"ID":504619,"DIS_CODE":0,"TOWNNAME":"新化區","LI":"北勢里","LIN":"7鄰","STREET":"金華街","SECT":"一段","MAREA":" ","LANE":" ","ALLEY":" ","HOUSE_NO":"１８號","E_COORD97":177912.39999999999,"N_COORD97":2550957.0800000001,"ADDRESS":"金華街一段１８號","OBJECTID":504592},"geometry":{"x":177912.40000000037,"y":2550957.0800000038}},{"attributes":{"ID":504620,"DIS_CODE":0,"TOWNNAME":"新化區","LI":"北勢里","LIN":"7鄰","STREET":"金華街","SECT":"一段","MAREA":" ","LANE":" ","ALLEY":" ","HOUSE_NO":"２０號","E_COORD97":177908.67999999999,"N_COORD97":2550964.6800000002,"ADDRESS":"金華街一段２０號","OBJECTID":504593},"geometry":{"x":177908.68000000063,"y":2550964.6799999997}},{"attributes":{"ID":504621,"DIS_CODE":0,"TOWNNAME":"新化區","LI":"北勢里","LIN":"7鄰","STREET":"金華街","SECT":"一段","MAREA":" ","LANE":" ","ALLEY":" ","HOUSE_NO":"２２號","E_COORD97":177894.14000000001,"N_COORD97":2550956.0699999998,"ADDRESS":"金華街一段２２號","OBJECTID":504594},"geometry":{"x":177894.13999999966,"y":2550956.0700000003}},{"attributes":{"ID":504622,"DIS_CODE":0,"TOWNNAME":"新化區","LI":"北勢里","LIN":"7鄰","STREET":"金華街","SECT":"一段","MAREA":" ","LANE":" ","ALLEY":" ","HOUSE_NO":"２４號","E_COORD97":177900.13,"N_COORD97":2550958.4500000002,"ADDRESS":"金華街一段２４號","OBJECTID":504595},"geometry":{"x":177900.12999999989,"y":2550958.4500000011}},{"attributes":{"ID":504623,"DIS_CODE":0,"TOWNNAME":"新化區","LI":"北勢里","LIN":"7鄰","STREET":"金華街","SECT":"一段","MAREA":" ","LANE":" ","ALLEY":" ","HOUSE_NO":"２６號","E_COORD97":177882.88,"N_COORD97":2550952.4100000001,"ADDRESS":"金華街一段２６號","OBJECTID":504596},"geometry":{"x":177882.87999999989,"y":2550952.410000002}},{"attributes":{"ID":504624,"DIS_CODE":0,"TOWNNAME":"善化區","LI":"文正里","LIN":"7鄰","STREET":"文正路","SECT":" ","MAREA":" ","LANE":" ","ALLEY":" ","HOUSE_NO":"６３號之２","E_COORD97":177068.39999999999,"N_COORD97":2559311.2799999998,"ADDRESS":"文正路６３號之２","OBJECTID":504597},"geometry":{"x":177068.40000000224,"y":2559311.2799999993}},{"attributes":{"ID":504625,"DIS_CODE":0,"TOWNNAME":"善化區","LI":"文昌里","LIN":"7鄰","STREET":"文昌路","SECT":" ","MAREA":" ","LANE":" ","ALLEY":" ","HOUSE_NO":"７３號","E_COORD97":177253.07000000001,"N_COORD97":2558703.7799999998,"ADDRESS":"文昌路７３號","OBJECTID":504598},"geometry":{"x":177253.0700000003,"y":2558703.7799999993}},{"attributes":{"ID":504626,"DIS_CODE":0,"TOWNNAME":"善化區","LI":"小新里","LIN":"7鄰","STREET":"成功路","SECT":" ","MAREA":" ","LANE":" ","ALLEY":" ","HOUSE_NO":"１６６號","E_COORD97":179541.54999999999,"N_COORD97":2558751.75,"ADDRESS":"成功路１６６號","OBJECTID":504599},"geometry":{"x":179541.54999999981,"y":2558751.7500000019}},{"attributes":{"ID":504627,"DIS_CODE":0,"TOWNNAME":"善化區","LI":"文昌里","LIN":"7鄰","STREET":"文昌路","SECT":" ","MAREA":" ","LANE":" ","ALLEY":" ","HOUSE_NO":"９５號","E_COORD97":177169.95999999999,"N_COORD97":2558673.7799999998,"ADDRESS":"文昌路９５號","OBJECTID":504600},"geometry":{"x":177169.96000000089,"y":2558673.7799999993}}]}