{"displayFieldName":"TOWNNAME","fieldAliases":{"ID":"ID","DIS_CODE":"DIS_CODE","TOWNNAME":"TOWNNAME","LI":"LI","LIN":"LIN","STREET":"STREET","SECT":"SECT","MAREA":"MAREA","LANE":"LANE","ALLEY":"ALLEY","HOUSE_NO":"HOUSE_NO","E_COORD97":"E_COORD97","N_COORD97":"N_COORD97","ADDRESS":"ADDRESS","OBJECTID":"OBJECTID"},"geometryType":"esriGeometryPoint","spatialReference":{"wkid":102443,"latestWkid":3826},"fields":[{"name":"ID","type":"esriFieldTypeDouble","alias":"ID"},{"name":"DIS_CODE","type":"esriFieldTypeInteger","alias":"DIS_CODE"},{"name":"TOWNNAME","type":"esriFieldTypeString","alias":"TOWNNAME","length":8},{"name":"LI","type":"esriFieldTypeString","alias":"LI","length":8},{"name":"LIN","type":"esriFieldTypeString","alias":"LIN","length":12},{"name":"STREET","type":"esriFieldTypeString","alias":"STREET","length":20},{"name":"SECT","type":"esriFieldTypeString","alias":"SECT","length":8},{"name":"MAREA","type":"esriFieldTypeString","alias":"MAREA","length":12},{"name":"LANE","type":"esriFieldTypeString","alias":"LANE","length":10},{"name":"ALLEY","type":"esriFieldTypeString","alias":"ALLEY","length":10},{"name":"HOUSE_NO","type":"esriFieldTypeString","alias":"HOUSE_NO","length":20},{"name":"E_COORD97","type":"esriFieldTypeDouble","alias":"E_COORD97"},{"name":"N_COORD97","type":"esriFieldTypeDouble","alias":"N_COORD97"},{"name":"ADDRESS","type":"esriFieldTypeString","alias":"ADDRESS","length":50},{"name":"OBJECTID","type":"esriFieldTypeOID","alias":"OBJECTID"}],"features":[{"attributes":{"ID":144601,"DIS_CODE":0,"TOWNNAME":"新營區","LI":"忠政里","LIN":"30鄰","STREET":"府西路","SECT":" ","MAREA":" ","LANE":" ","ALLEY":" ","HOUSE_NO":"８１號","E_COORD97":179802.23000000001,"N_COORD97":2579163.9300000002,"ADDRESS":"府西路８１號","OBJECTID":144601},"geometry":{"x":179802.23000000231,"y":2579163.9300000016}},{"attributes":{"ID":144602,"DIS_CODE":0,"TOWNNAME":"東區","LI":"忠孝里","LIN":"3鄰","STREET":"中華東路","SECT":"三段","MAREA":" ","LANE":"３３６巷","ALLEY":"４３弄","HOUSE_NO":"１８號三樓之６","E_COORD97":170047.22,"N_COORD97":2541705.04,"ADDRESS":"中華東路三段３３６巷４３弄１８號三樓之６","OBJECTID":144602},"geometry":{"x":170047.21999999974,"y":2541705.040000001}},{"attributes":{"ID":144603,"DIS_CODE":0,"TOWNNAME":"東區","LI":"忠孝里","LIN":"3鄰","STREET":"中華東路","SECT":"三段","MAREA":" ","LANE":"３３６巷","ALLEY":"４３弄","HOUSE_NO":"１８號五樓","E_COORD97":170047.22,"N_COORD97":2541705.04,"ADDRESS":"中華東路三段３３６巷４３弄１８號五樓","OBJECTID":144603},"geometry":{"x":170047.21999999974,"y":2541705.040000001}},{"attributes":{"ID":144604,"DIS_CODE":0,"TOWNNAME":"佳里區","LI":"龍安里","LIN":"4鄰","STREET":" ","SECT":" ","MAREA":"塭子內","LANE":" ","ALLEY":" ","HOUSE_NO":"４２號","E_COORD97":164429.54999999999,"N_COORD97":2558344.96,"ADDRESS":"塭子內４２號","OBJECTID":144604},"geometry":{"x":164429.55000000075,"y":2558344.9600000009}},{"attributes":{"ID":144605,"DIS_CODE":0,"TOWNNAME":"東區","LI":"忠孝里","LIN":"3鄰","STREET":"中華東路","SECT":"三段","MAREA":" ","LANE":"３３６巷","ALLEY":"４３弄","HOUSE_NO":"１８號五樓之１","E_COORD97":170047.22,"N_COORD97":2541705.04,"ADDRESS":"中華東路三段３３６巷４３弄１８號五樓之１","OBJECTID":144605},"geometry":{"x":170047.21999999974,"y":2541705.040000001}},{"attributes":{"ID":144606,"DIS_CODE":0,"TOWNNAME":"佳里區","LI":"龍安里","LIN":"4鄰","STREET":" ","SECT":" ","MAREA":"塭子內","LANE":" ","ALLEY":" ","HOUSE_NO":"４３號","E_COORD97":164429.17000000001,"N_COORD97":2558338.5,"ADDRESS":"塭子內４３號","OBJECTID":144606},"geometry":{"x":164429.17000000086,"y":2558338.5000000037}},{"attributes":{"ID":144607,"DIS_CODE":0,"TOWNNAME":"佳里區","LI":"龍安里","LIN":"4鄰","STREET":" ","SECT":" ","MAREA":"塭子內","LANE":" ","ALLEY":" ","HOUSE_NO":"４５號","E_COORD97":164480.47,"N_COORD97":2558354.0600000001,"ADDRESS":"塭子內４５號","OBJECTID":144607},"geometry":{"x":164480.4700000016,"y":2558354.0600000005}},{"attributes":{"ID":144608,"DIS_CODE":0,"TOWNNAME":"佳里區","LI":"龍安里","LIN":"4鄰","STREET":" ","SECT":" ","MAREA":"塭子內","LANE":" ","ALLEY":" ","HOUSE_NO":"４６號","E_COORD97":164499.04000000001,"N_COORD97":2558351.0600000001,"ADDRESS":"塭子內４６號","OBJECTID":144608},"geometry":{"x":164499.0400000019,"y":2558351.0600000005}},{"attributes":{"ID":144609,"DIS_CODE":0,"TOWNNAME":"佳里區","LI":"龍安里","LIN":"4鄰","STREET":" ","SECT":" ","MAREA":"塭子內","LANE":" ","ALLEY":" ","HOUSE_NO":"４８號","E_COORD97":164511.59,"N_COORD97":2558376.1099999999,"ADDRESS":"塭子內４８號","OBJECTID":144609},"geometry":{"x":164511.58999999985,"y":2558376.1099999994}},{"attributes":{"ID":144610,"DIS_CODE":0,"TOWNNAME":"佳里區","LI":"龍安里","LIN":"4鄰","STREET":" ","SECT":" ","MAREA":"塭子內","LANE":" ","ALLEY":" ","HOUSE_NO":"４９號","E_COORD97":164552.17999999999,"N_COORD97":2558371.3300000001,"ADDRESS":"塭子內４９號","OBJECTID":144610},"geometry":{"x":164552.18000000063,"y":2558371.3300000019}},{"attributes":{"ID":144611,"DIS_CODE":0,"TOWNNAME":"東區","LI":"忠孝里","LIN":"3鄰","STREET":"中華東路","SECT":"三段","MAREA":" ","LANE":"３３６巷","ALLEY":"４３弄","HOUSE_NO":"１８號五樓之２","E_COORD97":170047.22,"N_COORD97":2541705.04,"ADDRESS":"中華東路三段３３６巷４３弄１８號五樓之２","OBJECTID":144611},"geometry":{"x":170047.21999999974,"y":2541705.040000001}},{"attributes":{"ID":144612,"DIS_CODE":0,"TOWNNAME":"東區","LI":"忠孝里","LIN":"3鄰","STREET":"中華東路","SECT":"三段","MAREA":" ","LANE":"３３６巷","ALLEY":"４３弄","HOUSE_NO":"１８號五樓之３","E_COORD97":170047.22,"N_COORD97":2541705.04,"ADDRESS":"中華東路三段３３６巷４３弄１８號五樓之３","OBJECTID":144612},"geometry":{"x":170047.21999999974,"y":2541705.040000001}},{"attributes":{"ID":144613,"DIS_CODE":0,"TOWNNAME":"東區","LI":"忠孝里","LIN":"3鄰","STREET":"中華東路","SECT":"三段","MAREA":" ","LANE":"３３６巷","ALLEY":"４３弄","HOUSE_NO":"１８號五樓之５","E_COORD97":170047.22,"N_COORD97":2541705.04,"ADDRESS":"中華東路三段３３６巷４３弄１８號五樓之５","OBJECTID":144613},"geometry":{"x":170047.21999999974,"y":2541705.040000001}},{"attributes":{"ID":144614,"DIS_CODE":0,"TOWNNAME":"佳里區","LI":"龍安里","LIN":"4鄰","STREET":" ","SECT":" ","MAREA":"塭子內","LANE":" ","ALLEY":" ","HOUSE_NO":"５１號","E_COORD97":164600.98999999999,"N_COORD97":2558368.0299999998,"ADDRESS":"塭子內５１號","OBJECTID":144614},"geometry":{"x":164600.99000000022,"y":2558368.0300000031}},{"attributes":{"ID":144615,"DIS_CODE":0,"TOWNNAME":"東區","LI":"忠孝里","LIN":"3鄰","STREET":"中華東路","SECT":"三段","MAREA":" ","LANE":"３３６巷","ALLEY":"４３弄","HOUSE_NO":"１８號五樓之６","E_COORD97":170047.22,"N_COORD97":2541705.04,"ADDRESS":"中華東路三段３３６巷４３弄１８號五樓之６","OBJECTID":144615},"geometry":{"x":170047.21999999974,"y":2541705.040000001}},{"attributes":{"ID":144616,"DIS_CODE":0,"TOWNNAME":"東區","LI":"忠孝里","LIN":"3鄰","STREET":"中華東路","SECT":"三段","MAREA":" ","LANE":"３３６巷","ALLEY":"４３弄","HOUSE_NO":"１８號六樓","E_COORD97":170047.22,"N_COORD97":2541705.04,"ADDRESS":"中華東路三段３３６巷４３弄１８號六樓","OBJECTID":144616},"geometry":{"x":170047.21999999974,"y":2541705.040000001}},{"attributes":{"ID":144617,"DIS_CODE":0,"TOWNNAME":"東區","LI":"忠孝里","LIN":"3鄰","STREET":"中華東路","SECT":"三段","MAREA":" ","LANE":"３３６巷","ALLEY":"４３弄","HOUSE_NO":"１８號六樓之２","E_COORD97":170047.22,"N_COORD97":2541705.04,"ADDRESS":"中華東路三段３３６巷４３弄１８號六樓之２","OBJECTID":144617},"geometry":{"x":170047.21999999974,"y":2541705.040000001}},{"attributes":{"ID":144618,"DIS_CODE":0,"TOWNNAME":"東區","LI":"忠孝里","LIN":"3鄰","STREET":"中華東路","SECT":"三段","MAREA":" ","LANE":"３３６巷","ALLEY":"４３弄","HOUSE_NO":"１８號六樓之３","E_COORD97":170047.22,"N_COORD97":2541705.04,"ADDRESS":"中華東路三段３３６巷４３弄１８號六樓之３","OBJECTID":144618},"geometry":{"x":170047.21999999974,"y":2541705.040000001}},{"attributes":{"ID":144619,"DIS_CODE":0,"TOWNNAME":"東區","LI":"忠孝里","LIN":"3鄰","STREET":"中華東路","SECT":"三段","MAREA":" ","LANE":"３３６巷","ALLEY":"４３弄","HOUSE_NO":"１８號六樓之６","E_COORD97":170047.22,"N_COORD97":2541705.04,"ADDRESS":"中華東路三段３３６巷４３弄１８號六樓之６","OBJECTID":144619},"geometry":{"x":170047.21999999974,"y":2541705.040000001}},{"attributes":{"ID":144620,"DIS_CODE":0,"TOWNNAME":"佳里區","LI":"龍安里","LIN":"8鄰","STREET":" ","SECT":" ","MAREA":"塭子內","LANE":" ","ALLEY":" ","HOUSE_NO":"７９號","E_COORD97":164502.04000000001,"N_COORD97":2558253.6099999999,"ADDRESS":"塭子內７９號","OBJECTID":144620},"geometry":{"x":164502.04000000004,"y":2558253.6100000013}},{"attributes":{"ID":144621,"DIS_CODE":0,"TOWNNAME":"東區","LI":"忠孝里","LIN":"3鄰","STREET":"中華東路","SECT":"三段","MAREA":" ","LANE":"３３６巷","ALLEY":"４３弄","HOUSE_NO":"１８號四樓之２","E_COORD97":170047.22,"N_COORD97":2541705.04,"ADDRESS":"中華東路三段３３６巷４３弄１８號四樓之２","OBJECTID":144621},"geometry":{"x":170047.21999999974,"y":2541705.040000001}},{"attributes":{"ID":144622,"DIS_CODE":0,"TOWNNAME":"佳里區","LI":"龍安里","LIN":"8鄰","STREET":" ","SECT":" ","MAREA":"塭子內","LANE":" ","ALLEY":" ","HOUSE_NO":"８０號","E_COORD97":164496.44,"N_COORD97":2558275.1899999999,"ADDRESS":"塭子內８０號","OBJECTID":144622},"geometry":{"x":164496.44000000041,"y":2558275.1899999995}},{"attributes":{"ID":144623,"DIS_CODE":0,"TOWNNAME":"佳里區","LI":"龍安里","LIN":"8鄰","STREET":" ","SECT":" ","MAREA":"塭子內","LANE":" ","ALLEY":" ","HOUSE_NO":"８２號","E_COORD97":164457.10999999999,"N_COORD97":2558286.2200000002,"ADDRESS":"塭子內８２號","OBJECTID":144623},"geometry":{"x":164457.11000000127,"y":2558286.2200000007}},{"attributes":{"ID":144624,"DIS_CODE":0,"TOWNNAME":"佳里區","LI":"龍安里","LIN":"9鄰","STREET":" ","SECT":" ","MAREA":"塭子內","LANE":" ","ALLEY":" ","HOUSE_NO":"８６號之２","E_COORD97":164405.07999999999,"N_COORD97":2558246.8399999999,"ADDRESS":"塭子內８６號之２","OBJECTID":144624},"geometry":{"x":164405.08000000007,"y":2558246.8399999999}},{"attributes":{"ID":144625,"DIS_CODE":0,"TOWNNAME":"佳里區","LI":"龍安里","LIN":"9鄰","STREET":" ","SECT":" ","MAREA":"塭子內","LANE":" ","ALLEY":" ","HOUSE_NO":"８６號之３","E_COORD97":164403.20000000001,"N_COORD97":2558243.7400000002,"ADDRESS":"塭子內８６號之３","OBJECTID":144625},"geometry":{"x":164403.20000000112,"y":2558243.7400000021}},{"attributes":{"ID":144626,"DIS_CODE":0,"TOWNNAME":"佳里區","LI":"溪州里","LIN":"1鄰","STREET":" ","SECT":" ","MAREA":"溪州","LANE":" ","ALLEY":" ","HOUSE_NO":"２號之２","E_COORD97":166445.42000000001,"N_COORD97":2567262.2200000002,"ADDRESS":"溪州２號之２","OBJECTID":144626},"geometry":{"x":166445.41999999993,"y":2567262.2200000025}},{"attributes":{"ID":144627,"DIS_CODE":0,"TOWNNAME":"佳里區","LI":"溪州里","LIN":"1鄰","STREET":" ","SECT":" ","MAREA":"溪州","LANE":" ","ALLEY":" ","HOUSE_NO":"２號","E_COORD97":166428.97,"N_COORD97":2567261.0299999998,"ADDRESS":"溪州２號","OBJECTID":144627},"geometry":{"x":166428.97000000067,"y":2567261.0300000031}},{"attributes":{"ID":144628,"DIS_CODE":0,"TOWNNAME":"佳里區","LI":"溪州里","LIN":"1鄰","STREET":" ","SECT":" ","MAREA":"溪州","LANE":" ","ALLEY":" ","HOUSE_NO":"３號之１","E_COORD97":166387.45000000001,"N_COORD97":2567258.5299999998,"ADDRESS":"溪州３號之１","OBJECTID":144628},"geometry":{"x":166387.45000000019,"y":2567258.5300000012}},{"attributes":{"ID":144629,"DIS_CODE":0,"TOWNNAME":"佳里區","LI":"溪州里","LIN":"1鄰","STREET":" ","SECT":" ","MAREA":"溪州","LANE":" ","ALLEY":" ","HOUSE_NO":"３號之２","E_COORD97":166366.42999999999,"N_COORD97":2567275.1099999999,"ADDRESS":"溪州３號之２","OBJECTID":144629},"geometry":{"x":166366.43000000063,"y":2567275.1100000013}},{"attributes":{"ID":144630,"DIS_CODE":0,"TOWNNAME":"佳里區","LI":"溪州里","LIN":"1鄰","STREET":" ","SECT":" ","MAREA":"溪州","LANE":" ","ALLEY":" ","HOUSE_NO":"４號之１","E_COORD97":166346.42999999999,"N_COORD97":2567252.7000000002,"ADDRESS":"溪州４號之１","OBJECTID":144630},"geometry":{"x":166346.4299999997,"y":2567252.6999999993}},{"attributes":{"ID":144631,"DIS_CODE":0,"TOWNNAME":"佳里區","LI":"溪州里","LIN":"1鄰","STREET":" ","SECT":" ","MAREA":"溪州","LANE":" ","ALLEY":" ","HOUSE_NO":"４號","E_COORD97":166347.79000000001,"N_COORD97":2567282.9399999999,"ADDRESS":"溪州４號","OBJECTID":144631},"geometry":{"x":166347.79000000004,"y":2567282.9400000013}},{"attributes":{"ID":144632,"DIS_CODE":0,"TOWNNAME":"佳里區","LI":"營頂里","LIN":"4鄰","STREET":" ","SECT":" ","MAREA":"營頂","LANE":" ","ALLEY":" ","HOUSE_NO":"４０號之１","E_COORD97":166848.17999999999,"N_COORD97":2566699.6499999999,"ADDRESS":"營頂４０號之１","OBJECTID":144632},"geometry":{"x":166848.1799999997,"y":2566699.6500000022}},{"attributes":{"ID":144633,"DIS_CODE":0,"TOWNNAME":"玉井區","LI":"玉田里","LIN":"30鄰","STREET":"中華路","SECT":" ","MAREA":" ","LANE":" ","ALLEY":" ","HOUSE_NO":"３８３號","E_COORD97":195477.54999999999,"N_COORD97":2557575.2400000002,"ADDRESS":"中華路３８３號","OBJECTID":144633},"geometry":{"x":195477.54999999981,"y":2557575.2400000021}},{"attributes":{"ID":144634,"DIS_CODE":0,"TOWNNAME":"東區","LI":"忠孝里","LIN":"3鄰","STREET":"中華東路","SECT":"三段","MAREA":" ","LANE":"３３６巷","ALLEY":"４３弄","HOUSE_NO":"１８號四樓之３","E_COORD97":170047.22,"N_COORD97":2541705.04,"ADDRESS":"中華東路三段３３６巷４３弄１８號四樓之３","OBJECTID":144634},"geometry":{"x":170047.21999999974,"y":2541705.040000001}},{"attributes":{"ID":144635,"DIS_CODE":0,"TOWNNAME":"佳里區","LI":"營頂里","LIN":"4鄰","STREET":" ","SECT":" ","MAREA":"營頂","LANE":" ","ALLEY":" ","HOUSE_NO":"４０號","E_COORD97":166872.82000000001,"N_COORD97":2566695.46,"ADDRESS":"營頂４０號","OBJECTID":144635},"geometry":{"x":166872.82000000123,"y":2566695.4600000009}},{"attributes":{"ID":144636,"DIS_CODE":0,"TOWNNAME":"佳里區","LI":"營頂里","LIN":"4鄰","STREET":" ","SECT":" ","MAREA":"營頂","LANE":" ","ALLEY":" ","HOUSE_NO":"４２號之１","E_COORD97":166851.32000000001,"N_COORD97":2566726.1800000002,"ADDRESS":"營頂４２號之１","OBJECTID":144636},"geometry":{"x":166851.3200000003,"y":2566726.1800000016}},{"attributes":{"ID":144637,"DIS_CODE":0,"TOWNNAME":"佳里區","LI":"營頂里","LIN":"4鄰","STREET":" ","SECT":" ","MAREA":"營頂","LANE":" ","ALLEY":" ","HOUSE_NO":"４２號","E_COORD97":166841.88,"N_COORD97":2566742.96,"ADDRESS":"營頂４２號","OBJECTID":144637},"geometry":{"x":166841.87999999989,"y":2566742.9600000009}},{"attributes":{"ID":144638,"DIS_CODE":0,"TOWNNAME":"佳里區","LI":"營頂里","LIN":"4鄰","STREET":" ","SECT":" ","MAREA":"營頂","LANE":" ","ALLEY":" ","HOUSE_NO":"４５號之１","E_COORD97":166870.73000000001,"N_COORD97":2566722.7400000002,"ADDRESS":"營頂４５號之１","OBJECTID":144638},"geometry":{"x":166870.73000000045,"y":2566722.7400000021}},{"attributes":{"ID":144639,"DIS_CODE":0,"TOWNNAME":"佳里區","LI":"營頂里","LIN":"4鄰","STREET":" ","SECT":" ","MAREA":"營頂","LANE":" ","ALLEY":" ","HOUSE_NO":"４５號","E_COORD97":166880.48000000001,"N_COORD97":2566710.6200000001,"ADDRESS":"營頂４５號","OBJECTID":144639},"geometry":{"x":166880.48000000138,"y":2566710.6200000029}},{"attributes":{"ID":144640,"DIS_CODE":0,"TOWNNAME":"佳里區","LI":"營頂里","LIN":"1鄰","STREET":" ","SECT":" ","MAREA":"營頂","LANE":" ","ALLEY":" ","HOUSE_NO":"２號之１","E_COORD97":166932.04999999999,"N_COORD97":2566390.4500000002,"ADDRESS":"營頂２號之１","OBJECTID":144640},"geometry":{"x":166932.05000000075,"y":2566390.4500000011}},{"attributes":{"ID":144641,"DIS_CODE":0,"TOWNNAME":"佳里區","LI":"營頂里","LIN":"1鄰","STREET":" ","SECT":" ","MAREA":"營頂","LANE":" ","ALLEY":" ","HOUSE_NO":"２號之２","E_COORD97":166936.54000000001,"N_COORD97":2566411.7200000002,"ADDRESS":"營頂２號之２","OBJECTID":144641},"geometry":{"x":166936.5400000019,"y":2566411.7200000025}},{"attributes":{"ID":144642,"DIS_CODE":0,"TOWNNAME":"佳里區","LI":"營頂里","LIN":"7鄰","STREET":" ","SECT":" ","MAREA":"營頂","LANE":" ","ALLEY":" ","HOUSE_NO":"７２號","E_COORD97":166962.63,"N_COORD97":2566557.73,"ADDRESS":"營頂７２號","OBJECTID":144642},"geometry":{"x":166962.62999999989,"y":2566557.7300000004}},{"attributes":{"ID":144643,"DIS_CODE":0,"TOWNNAME":"佳里區","LI":"營頂里","LIN":"7鄰","STREET":" ","SECT":" ","MAREA":"營頂","LANE":" ","ALLEY":" ","HOUSE_NO":"７４號","E_COORD97":166976.47,"N_COORD97":2566532.3100000001,"ADDRESS":"營頂７４號","OBJECTID":144643},"geometry":{"x":166976.47000000067,"y":2566532.3100000024}},{"attributes":{"ID":144644,"DIS_CODE":0,"TOWNNAME":"佳里區","LI":"營頂里","LIN":"7鄰","STREET":" ","SECT":" ","MAREA":"營頂","LANE":" ","ALLEY":" ","HOUSE_NO":"７５號之１０","E_COORD97":166969.81,"N_COORD97":2566518.6099999999,"ADDRESS":"營頂７５號之１０","OBJECTID":144644},"geometry":{"x":166969.80999999866,"y":2566518.6100000013}},{"attributes":{"ID":144645,"DIS_CODE":0,"TOWNNAME":"東區","LI":"忠孝里","LIN":"3鄰","STREET":"中華東路","SECT":"三段","MAREA":" ","LANE":"３３６巷","ALLEY":"４３弄","HOUSE_NO":"１８號四樓之６","E_COORD97":170047.22,"N_COORD97":2541705.04,"ADDRESS":"中華東路三段３３６巷４３弄１８號四樓之６","OBJECTID":144645},"geometry":{"x":170047.21999999974,"y":2541705.040000001}},{"attributes":{"ID":144646,"DIS_CODE":0,"TOWNNAME":"佳里區","LI":"營頂里","LIN":"7鄰","STREET":" ","SECT":" ","MAREA":"營頂","LANE":" ","ALLEY":" ","HOUSE_NO":"７５號之１","E_COORD97":166995.60999999999,"N_COORD97":2566509.29,"ADDRESS":"營頂７５號之１","OBJECTID":144646},"geometry":{"x":166995.61000000034,"y":2566509.2899999991}},{"attributes":{"ID":144647,"DIS_CODE":0,"TOWNNAME":"東區","LI":"新東里","LIN":"3鄰","STREET":"裕農路","SECT":" ","MAREA":" ","LANE":"４３巷","ALLEY":"２９弄","HOUSE_NO":"１５號二樓","E_COORD97":170547.60000000001,"N_COORD97":2542978.7200000002,"ADDRESS":"裕農路４３巷２９弄１５號二樓","OBJECTID":144647},"geometry":{"x":170547.59999999963,"y":2542978.7200000007}},{"attributes":{"ID":144648,"DIS_CODE":0,"TOWNNAME":"佳里區","LI":"子龍里","LIN":" ","STREET":" ","SECT":" ","MAREA":"子良廟","LANE":" ","ALLEY":" ","HOUSE_NO":"１５１號","E_COORD97":169052.91,"N_COORD97":2563710.2000000002,"ADDRESS":"子良廟１５１號","OBJECTID":144648},"geometry":{"x":169052.91000000015,"y":2563710.200000003}},{"attributes":{"ID":144649,"DIS_CODE":0,"TOWNNAME":"東區","LI":"新東里","LIN":"3鄰","STREET":"裕農路","SECT":" ","MAREA":" ","LANE":"４３巷","ALLEY":"２９弄","HOUSE_NO":"１５號二樓之１","E_COORD97":170547.60000000001,"N_COORD97":2542978.7200000002,"ADDRESS":"裕農路４３巷２９弄１５號二樓之１","OBJECTID":144649},"geometry":{"x":170547.59999999963,"y":2542978.7200000007}},{"attributes":{"ID":144650,"DIS_CODE":0,"TOWNNAME":"佳里區","LI":"子龍里","LIN":" ","STREET":" ","SECT":" ","MAREA":"子良廟","LANE":" ","ALLEY":" ","HOUSE_NO":"１７１之１號","E_COORD97":169170.79000000001,"N_COORD97":2563637.0800000001,"ADDRESS":"子良廟１７１之１號","OBJECTID":144650},"geometry":{"x":169170.7900000019,"y":2563637.0800000038}},{"attributes":{"ID":144651,"DIS_CODE":0,"TOWNNAME":"東區","LI":"新東里","LIN":"3鄰","STREET":"裕農路","SECT":" ","MAREA":" ","LANE":"４３巷","ALLEY":"２９弄","HOUSE_NO":"１５號二樓之２","E_COORD97":170547.60000000001,"N_COORD97":2542978.7200000002,"ADDRESS":"裕農路４３巷２９弄１５號二樓之２","OBJECTID":144651},"geometry":{"x":170547.59999999963,"y":2542978.7200000007}},{"attributes":{"ID":144652,"DIS_CODE":0,"TOWNNAME":"佳里區","LI":"子龍里","LIN":" ","STREET":" ","SECT":" ","MAREA":"子良廟","LANE":" ","ALLEY":" ","HOUSE_NO":"１７６之１３號","E_COORD97":169153.69,"N_COORD97":2563521.3599999999,"ADDRESS":"子良廟１７６之１３號","OBJECTID":144652},"geometry":{"x":169153.69000000134,"y":2563521.3599999994}},{"attributes":{"ID":144653,"DIS_CODE":0,"TOWNNAME":"佳里區","LI":"子龍里","LIN":" ","STREET":" ","SECT":" ","MAREA":"子良廟","LANE":" ","ALLEY":" ","HOUSE_NO":"１９５之１０號","E_COORD97":168761.03,"N_COORD97":2563564.02,"ADDRESS":"子良廟１９５之１０號","OBJECTID":144653},"geometry":{"x":168761.03000000212,"y":2563564.0200000014}},{"attributes":{"ID":144654,"DIS_CODE":0,"TOWNNAME":"佳里區","LI":"子龍里","LIN":" ","STREET":" ","SECT":" ","MAREA":"子良廟","LANE":" ","ALLEY":" ","HOUSE_NO":"２１６之１３號","E_COORD97":168731.78,"N_COORD97":2563693.4300000002,"ADDRESS":"子良廟２１６之１３號","OBJECTID":144654},"geometry":{"x":168731.78000000026,"y":2563693.4300000016}},{"attributes":{"ID":144655,"DIS_CODE":0,"TOWNNAME":"佳里區","LI":"子龍里","LIN":" ","STREET":" ","SECT":" ","MAREA":"子良廟","LANE":" ","ALLEY":" ","HOUSE_NO":"２２２之３號","E_COORD97":168430.79000000001,"N_COORD97":2563330.3900000001,"ADDRESS":"子良廟２２２之３號","OBJECTID":144655},"geometry":{"x":168430.79000000097,"y":2563330.3900000043}},{"attributes":{"ID":144656,"DIS_CODE":0,"TOWNNAME":"東區","LI":"新東里","LIN":"3鄰","STREET":"裕農路","SECT":" ","MAREA":" ","LANE":"４３巷","ALLEY":"２９弄","HOUSE_NO":"１５號三樓","E_COORD97":170547.60000000001,"N_COORD97":2542978.7200000002,"ADDRESS":"裕農路４３巷２９弄１５號三樓","OBJECTID":144656},"geometry":{"x":170547.59999999963,"y":2542978.7200000007}},{"attributes":{"ID":144657,"DIS_CODE":0,"TOWNNAME":"佳里區","LI":"子龍里","LIN":" ","STREET":" ","SECT":" ","MAREA":"子良廟","LANE":" ","ALLEY":" ","HOUSE_NO":"２２３之２號","E_COORD97":168745,"N_COORD97":2563519.27,"ADDRESS":"子良廟２２３之２號","OBJECTID":144657},"geometry":{"x":168745,"y":2563519.2699999996}},{"attributes":{"ID":144658,"DIS_CODE":0,"TOWNNAME":"東區","LI":"新東里","LIN":"3鄰","STREET":"裕農路","SECT":" ","MAREA":" ","LANE":"４３巷","ALLEY":"２９弄","HOUSE_NO":"１５號三樓之１","E_COORD97":170547.60000000001,"N_COORD97":2542978.7200000002,"ADDRESS":"裕農路４３巷２９弄１５號三樓之１","OBJECTID":144658},"geometry":{"x":170547.59999999963,"y":2542978.7200000007}},{"attributes":{"ID":144659,"DIS_CODE":0,"TOWNNAME":"佳里區","LI":"子龍里","LIN":" ","STREET":" ","SECT":" ","MAREA":"子良廟","LANE":" ","ALLEY":" ","HOUSE_NO":"２２３之６號","E_COORD97":168737,"N_COORD97":2563534.0299999998,"ADDRESS":"子良廟２２３之６號","OBJECTID":144659},"geometry":{"x":168736.99999999907,"y":2563534.0299999993}},{"attributes":{"ID":144660,"DIS_CODE":0,"TOWNNAME":"佳里區","LI":"子龍里","LIN":" ","STREET":" ","SECT":" ","MAREA":"子良廟","LANE":" ","ALLEY":" ","HOUSE_NO":"４０之６號","E_COORD97":169140.76000000001,"N_COORD97":2564020.52,"ADDRESS":"子良廟４０之６號","OBJECTID":144660},"geometry":{"x":169140.76000000071,"y":2564020.5200000014}},{"attributes":{"ID":144661,"DIS_CODE":0,"TOWNNAME":"佳里區","LI":"子龍里","LIN":" ","STREET":" ","SECT":" ","MAREA":"子良廟","LANE":" ","ALLEY":" ","HOUSE_NO":"４２號","E_COORD97":168996.25,"N_COORD97":2563938.96,"ADDRESS":"子良廟４２號","OBJECTID":144661},"geometry":{"x":168996.25,"y":2563938.9600000009}},{"attributes":{"ID":144662,"DIS_CODE":0,"TOWNNAME":"佳里區","LI":"子龍里","LIN":" ","STREET":" ","SECT":" ","MAREA":"子良廟","LANE":" ","ALLEY":" ","HOUSE_NO":"４５之７號","E_COORD97":168881.39999999999,"N_COORD97":2563926.3199999998,"ADDRESS":"子良廟４５之７號","OBJECTID":144662},"geometry":{"x":168881.4000000013,"y":2563926.3200000003}},{"attributes":{"ID":144663,"DIS_CODE":0,"TOWNNAME":"佳里區","LI":"子龍里","LIN":" ","STREET":" ","SECT":" ","MAREA":"子良廟","LANE":" ","ALLEY":" ","HOUSE_NO":"５５之３號","E_COORD97":168766.85999999999,"N_COORD97":2563897.1000000001,"ADDRESS":"子良廟５５之３號","OBJECTID":144663},"geometry":{"x":168766.86000000034,"y":2563897.0999999996}},{"attributes":{"ID":144664,"DIS_CODE":0,"TOWNNAME":"佳里區","LI":"子龍里","LIN":" ","STREET":" ","SECT":" ","MAREA":"子良廟","LANE":" ","ALLEY":" ","HOUSE_NO":"５６之９號","E_COORD97":168738.70999999999,"N_COORD97":2563894.0299999998,"ADDRESS":"子良廟５６之９號","OBJECTID":144664},"geometry":{"x":168738.70999999996,"y":2563894.0299999993}},{"attributes":{"ID":144665,"DIS_CODE":0,"TOWNNAME":"佳里區","LI":"子龍里","LIN":" ","STREET":" ","SECT":" ","MAREA":"子良廟","LANE":" ","ALLEY":" ","HOUSE_NO":"５８之２號","E_COORD97":168775.37,"N_COORD97":2563862.5699999998,"ADDRESS":"子良廟５８之２號","OBJECTID":144665},"geometry":{"x":168775.37000000197,"y":2563862.5700000022}},{"attributes":{"ID":144666,"DIS_CODE":0,"TOWNNAME":"東區","LI":"新東里","LIN":"3鄰","STREET":"裕農路","SECT":" ","MAREA":" ","LANE":"４３巷","ALLEY":"２９弄","HOUSE_NO":"１５號三樓之２","E_COORD97":170547.60000000001,"N_COORD97":2542978.7200000002,"ADDRESS":"裕農路４３巷２９弄１５號三樓之２","OBJECTID":144666},"geometry":{"x":170547.59999999963,"y":2542978.7200000007}},{"attributes":{"ID":144667,"DIS_CODE":0,"TOWNNAME":"新營區","LI":"忠政里","LIN":"30鄰","STREET":"府西路","SECT":" ","MAREA":" ","LANE":" ","ALLEY":" ","HOUSE_NO":"８３號","E_COORD97":179801.23999999999,"N_COORD97":2579169.4700000002,"ADDRESS":"府西路８３號","OBJECTID":144667},"geometry":{"x":179801.24000000022,"y":2579169.4700000007}},{"attributes":{"ID":144668,"DIS_CODE":0,"TOWNNAME":"學甲區","LI":"三慶里","LIN":"30鄰","STREET":" ","SECT":" ","MAREA":"新芳","LANE":" ","ALLEY":" ","HOUSE_NO":"５６號之１","E_COORD97":167240.48000000001,"N_COORD97":2575229.5299999998,"ADDRESS":"新芳５６號之１","OBJECTID":144668},"geometry":{"x":167240.48000000045,"y":2575229.5300000012}},{"attributes":{"ID":144669,"DIS_CODE":0,"TOWNNAME":"學甲區","LI":"三慶里","LIN":"30鄰","STREET":" ","SECT":" ","MAREA":"新芳","LANE":" ","ALLEY":" ","HOUSE_NO":"５６號","E_COORD97":167232.62,"N_COORD97":2575234.6299999999,"ADDRESS":"新芳５６號","OBJECTID":144669},"geometry":{"x":167232.62000000011,"y":2575234.6300000008}},{"attributes":{"ID":144670,"DIS_CODE":0,"TOWNNAME":"學甲區","LI":"三慶里","LIN":"30鄰","STREET":" ","SECT":" ","MAREA":"新芳","LANE":" ","ALLEY":" ","HOUSE_NO":"５７號之１","E_COORD97":167202.32999999999,"N_COORD97":2575257.3500000001,"ADDRESS":"新芳５７號之１","OBJECTID":144670},"geometry":{"x":167202.33000000007,"y":2575257.3500000015}},{"attributes":{"ID":144671,"DIS_CODE":0,"TOWNNAME":"學甲區","LI":"三慶里","LIN":"30鄰","STREET":" ","SECT":" ","MAREA":"新芳","LANE":" ","ALLEY":" ","HOUSE_NO":"５７號","E_COORD97":167253.75,"N_COORD97":2575267.27,"ADDRESS":"新芳５７號","OBJECTID":144671},"geometry":{"x":167253.74999999907,"y":2575267.2699999996}},{"attributes":{"ID":144672,"DIS_CODE":0,"TOWNNAME":"佳里區","LI":"子龍里","LIN":" ","STREET":" ","SECT":" ","MAREA":"子良廟","LANE":" ","ALLEY":" ","HOUSE_NO":"７４之２號","E_COORD97":168871.60000000001,"N_COORD97":2563748.48,"ADDRESS":"子良廟７４之２號","OBJECTID":144672},"geometry":{"x":168871.60000000149,"y":2563748.4800000004}},{"attributes":{"ID":144673,"DIS_CODE":0,"TOWNNAME":"佳里區","LI":"安西里","LIN":" ","STREET":" ","SECT":" ","MAREA":"安西","LANE":" ","ALLEY":" ","HOUSE_NO":"５４之４４號","E_COORD97":165130.48999999999,"N_COORD97":2563397.9199999999,"ADDRESS":"安西５４之４４號","OBJECTID":144673},"geometry":{"x":165130.49000000115,"y":2563397.9200000018}},{"attributes":{"ID":144674,"DIS_CODE":0,"TOWNNAME":"佳里區","LI":"通興里","LIN":" ","STREET":" ","SECT":" ","MAREA":"埔頂","LANE":" ","ALLEY":" ","HOUSE_NO":"６號","E_COORD97":163633.26000000001,"N_COORD97":2560557.77,"ADDRESS":"埔頂６號","OBJECTID":144674},"geometry":{"x":163633.26000000071,"y":2560557.7700000014}},{"attributes":{"ID":144675,"DIS_CODE":0,"TOWNNAME":"佳里區","LI":"頂\u25A0里","LIN":"11鄰","STREET":" ","SECT":" ","MAREA":"頂\u25A0","LANE":" ","ALLEY":" ","HOUSE_NO":"１３６號","E_COORD97":163235.82999999999,"N_COORD97":2564333.4700000002,"ADDRESS":"頂\u25A0１３６號","OBJECTID":144675},"geometry":{"x":163235.83000000194,"y":2564333.4700000044}},{"attributes":{"ID":144676,"DIS_CODE":0,"TOWNNAME":"佳里區","LI":"蚶寮里","LIN":" ","STREET":" ","SECT":" ","MAREA":"蚶寮","LANE":" ","ALLEY":" ","HOUSE_NO":"１０５號","E_COORD97":162836.79000000001,"N_COORD97":2558651.8399999999,"ADDRESS":"蚶寮１０５號","OBJECTID":144676},"geometry":{"x":162836.79000000004,"y":2558651.8400000017}},{"attributes":{"ID":144677,"DIS_CODE":0,"TOWNNAME":"佳里區","LI":"蚶寮里","LIN":" ","STREET":" ","SECT":" ","MAREA":"蚶寮","LANE":" ","ALLEY":" ","HOUSE_NO":"１１１之３號","E_COORD97":162955.16,"N_COORD97":2558758.2999999998,"ADDRESS":"蚶寮１１１之３號","OBJECTID":144677},"geometry":{"x":162955.16000000015,"y":2558758.3000000026}},{"attributes":{"ID":144678,"DIS_CODE":0,"TOWNNAME":"佳里區","LI":"蚶寮里","LIN":" ","STREET":" ","SECT":" ","MAREA":"蚶寮","LANE":" ","ALLEY":" ","HOUSE_NO":"１４之２０號","E_COORD97":164237.42999999999,"N_COORD97":2558489.4500000002,"ADDRESS":"蚶寮１４之２０號","OBJECTID":144678},"geometry":{"x":164237.4299999997,"y":2558489.4499999993}},{"attributes":{"ID":144679,"DIS_CODE":0,"TOWNNAME":"佳里區","LI":"頂\u25A0里","LIN":" ","STREET":" ","SECT":" ","MAREA":"頂\u25A0","LANE":" ","ALLEY":" ","HOUSE_NO":"１０之４號","E_COORD97":163341.31,"N_COORD97":2563758.2200000002,"ADDRESS":"頂\u25A0１０之４號","OBJECTID":144679},"geometry":{"x":163341.31000000052,"y":2563758.2200000007}},{"attributes":{"ID":144680,"DIS_CODE":0,"TOWNNAME":"佳里區","LI":"頂\u25A0里","LIN":" ","STREET":" ","SECT":" ","MAREA":"頂\u25A0","LANE":" ","ALLEY":" ","HOUSE_NO":"１１７號","E_COORD97":162935.76000000001,"N_COORD97":2563678.4700000002,"ADDRESS":"頂\u25A0１１７號","OBJECTID":144680},"geometry":{"x":162935.75999999885,"y":2563678.4700000007}},{"attributes":{"ID":144681,"DIS_CODE":0,"TOWNNAME":"佳里區","LI":"頂\u25A0里","LIN":" ","STREET":" ","SECT":" ","MAREA":"頂\u25A0","LANE":" ","ALLEY":" ","HOUSE_NO":"１３３之１號","E_COORD97":162865.04000000001,"N_COORD97":2563796.5699999998,"ADDRESS":"頂\u25A0１３３之１號","OBJECTID":144681},"geometry":{"x":162865.04000000097,"y":2563796.5699999984}},{"attributes":{"ID":144682,"DIS_CODE":0,"TOWNNAME":"佳里區","LI":"頂\u25A0里","LIN":" ","STREET":" ","SECT":" ","MAREA":"頂\u25A0","LANE":" ","ALLEY":" ","HOUSE_NO":"４８之２號","E_COORD97":163241.79000000001,"N_COORD97":2563768.7400000002,"ADDRESS":"頂\u25A0４８之２號","OBJECTID":144682},"geometry":{"x":163241.79000000097,"y":2563768.7400000021}},{"attributes":{"ID":144683,"DIS_CODE":0,"TOWNNAME":"佳里區","LI":"頂\u25A0里","LIN":" ","STREET":" ","SECT":" ","MAREA":"頂\u25A0","LANE":" ","ALLEY":" ","HOUSE_NO":"４之１０號","E_COORD97":163278.39999999999,"N_COORD97":2563808.6299999999,"ADDRESS":"頂\u25A0４之１０號","OBJECTID":144683},"geometry":{"x":163278.4000000013,"y":2563808.6300000027}},{"attributes":{"ID":144684,"DIS_CODE":0,"TOWNNAME":"佳里區","LI":"頂\u25A0里","LIN":" ","STREET":" ","SECT":" ","MAREA":"頂\u25A0","LANE":" ","ALLEY":" ","HOUSE_NO":"４之１４號","E_COORD97":163274.32000000001,"N_COORD97":2563828.4399999999,"ADDRESS":"頂\u25A0４之１４號","OBJECTID":144684},"geometry":{"x":163274.3200000003,"y":2563828.4400000013}},{"attributes":{"ID":144685,"DIS_CODE":0,"TOWNNAME":"佳里區","LI":"頂\u25A0里","LIN":" ","STREET":" ","SECT":" ","MAREA":"頂\u25A0","LANE":" ","ALLEY":" ","HOUSE_NO":"５０之２號","E_COORD97":163203.87,"N_COORD97":2563798.96,"ADDRESS":"頂\u25A0５０之２號","OBJECTID":144685},"geometry":{"x":163203.87000000104,"y":2563798.9600000028}},{"attributes":{"ID":144686,"DIS_CODE":0,"TOWNNAME":"佳里區","LI":"頂\u25A0里","LIN":" ","STREET":" ","SECT":" ","MAREA":"頂\u25A0","LANE":" ","ALLEY":" ","HOUSE_NO":"６７之１號","E_COORD97":163075.75,"N_COORD97":2563741.1099999999,"ADDRESS":"頂\u25A0６７之１號","OBJECTID":144686},"geometry":{"x":163075.75000000093,"y":2563741.1099999975}},{"attributes":{"ID":144687,"DIS_CODE":0,"TOWNNAME":"佳里區","LI":"頂\u25A0里","LIN":" ","STREET":" ","SECT":" ","MAREA":"頂\u25A0","LANE":" ","ALLEY":" ","HOUSE_NO":"８３之２號","E_COORD97":163059.26000000001,"N_COORD97":2563685.5899999999,"ADDRESS":"頂\u25A0８３之２號","OBJECTID":144687},"geometry":{"x":163059.25999999978,"y":2563685.5900000017}},{"attributes":{"ID":144688,"DIS_CODE":0,"TOWNNAME":"佳里區","LI":"頂\u25A0里","LIN":" ","STREET":" ","SECT":" ","MAREA":"頂\u25A0","LANE":" ","ALLEY":" ","HOUSE_NO":"８３之４號","E_COORD97":163060.69,"N_COORD97":2563676.8599999999,"ADDRESS":"頂\u25A0８３之４號","OBJECTID":144688},"geometry":{"x":163060.68999999948,"y":2563676.8600000013}},{"attributes":{"ID":144689,"DIS_CODE":0,"TOWNNAME":"佳里區","LI":"海澄里","LIN":" ","STREET":" ","SECT":" ","MAREA":"番子寮","LANE":" ","ALLEY":" ","HOUSE_NO":"１１２之２號","E_COORD97":163894.60999999999,"N_COORD97":2564655.52,"ADDRESS":"番子寮１１２之２號","OBJECTID":144689},"geometry":{"x":163894.61000000034,"y":2564655.5200000014}},{"attributes":{"ID":144690,"DIS_CODE":0,"TOWNNAME":"佳里區","LI":"海澄里","LIN":" ","STREET":" ","SECT":" ","MAREA":"番子寮","LANE":" ","ALLEY":" ","HOUSE_NO":"１２２之３０號","E_COORD97":164138.22,"N_COORD97":2564798.8700000001,"ADDRESS":"番子寮１２２之３０號","OBJECTID":144690},"geometry":{"x":164138.22000000067,"y":2564798.8699999992}},{"attributes":{"ID":144691,"DIS_CODE":0,"TOWNNAME":"學甲區","LI":"三慶里","LIN":"30鄰","STREET":" ","SECT":" ","MAREA":"新芳","LANE":" ","ALLEY":" ","HOUSE_NO":"６３號","E_COORD97":167274,"N_COORD97":2575314.3799999999,"ADDRESS":"新芳６３號","OBJECTID":144691},"geometry":{"x":167274,"y":2575314.3800000008}},{"attributes":{"ID":144692,"DIS_CODE":0,"TOWNNAME":"東區","LI":"新東里","LIN":"3鄰","STREET":"裕農路","SECT":" ","MAREA":" ","LANE":"４３巷","ALLEY":"２９弄","HOUSE_NO":"１５號五樓","E_COORD97":170547.60000000001,"N_COORD97":2542978.7200000002,"ADDRESS":"裕農路４３巷２９弄１５號五樓","OBJECTID":144692},"geometry":{"x":170547.59999999963,"y":2542978.7200000007}},{"attributes":{"ID":144693,"DIS_CODE":0,"TOWNNAME":"東區","LI":"新東里","LIN":"3鄰","STREET":"裕農路","SECT":" ","MAREA":" ","LANE":"４３巷","ALLEY":"２９弄","HOUSE_NO":"１５號五樓之１","E_COORD97":170547.60000000001,"N_COORD97":2542978.7200000002,"ADDRESS":"裕農路４３巷２９弄１５號五樓之１","OBJECTID":144693},"geometry":{"x":170547.59999999963,"y":2542978.7200000007}},{"attributes":{"ID":144694,"DIS_CODE":0,"TOWNNAME":"東區","LI":"新東里","LIN":"3鄰","STREET":"裕農路","SECT":" ","MAREA":" ","LANE":"４３巷","ALLEY":"２９弄","HOUSE_NO":"１５號五樓之２","E_COORD97":170547.60000000001,"N_COORD97":2542978.7200000002,"ADDRESS":"裕農路４３巷２９弄１５號五樓之２","OBJECTID":144694},"geometry":{"x":170547.59999999963,"y":2542978.7200000007}},{"attributes":{"ID":144695,"DIS_CODE":0,"TOWNNAME":"東區","LI":"新東里","LIN":"3鄰","STREET":"裕農路","SECT":" ","MAREA":" ","LANE":"４３巷","ALLEY":"２９弄","HOUSE_NO":"１５號六樓","E_COORD97":170547.60000000001,"N_COORD97":2542978.7200000002,"ADDRESS":"裕農路４３巷２９弄１５號六樓","OBJECTID":144695},"geometry":{"x":170547.59999999963,"y":2542978.7200000007}},{"attributes":{"ID":144696,"DIS_CODE":0,"TOWNNAME":"東區","LI":"新東里","LIN":"3鄰","STREET":"裕農路","SECT":" ","MAREA":" ","LANE":"４３巷","ALLEY":"２９弄","HOUSE_NO":"１５號六樓之１","E_COORD97":170547.60000000001,"N_COORD97":2542978.7200000002,"ADDRESS":"裕農路４３巷２９弄１５號六樓之１","OBJECTID":144696},"geometry":{"x":170547.59999999963,"y":2542978.7200000007}},{"attributes":{"ID":144697,"DIS_CODE":0,"TOWNNAME":"東區","LI":"新東里","LIN":"3鄰","STREET":"裕農路","SECT":" ","MAREA":" ","LANE":"４３巷","ALLEY":"２９弄","HOUSE_NO":"１５號四樓","E_COORD97":170547.60000000001,"N_COORD97":2542978.7200000002,"ADDRESS":"裕農路４３巷２９弄１５號四樓","OBJECTID":144697},"geometry":{"x":170547.59999999963,"y":2542978.7200000007}},{"attributes":{"ID":144698,"DIS_CODE":0,"TOWNNAME":"東區","LI":"新東里","LIN":"3鄰","STREET":"裕農路","SECT":" ","MAREA":" ","LANE":"４３巷","ALLEY":"２９弄","HOUSE_NO":"１５號四樓之１","E_COORD97":170547.60000000001,"N_COORD97":2542978.7200000002,"ADDRESS":"裕農路４３巷２９弄１５號四樓之１","OBJECTID":144698},"geometry":{"x":170547.59999999963,"y":2542978.7200000007}},{"attributes":{"ID":144699,"DIS_CODE":0,"TOWNNAME":"東區","LI":"新東里","LIN":"3鄰","STREET":"裕農路","SECT":" ","MAREA":" ","LANE":"４３巷","ALLEY":"２９弄","HOUSE_NO":"１５號四樓之２","E_COORD97":170547.60000000001,"N_COORD97":2542978.7200000002,"ADDRESS":"裕農路４３巷２９弄１５號四樓之２","OBJECTID":144699},"geometry":{"x":170547.59999999963,"y":2542978.7200000007}},{"attributes":{"ID":144700,"DIS_CODE":0,"TOWNNAME":"東區","LI":"新東里","LIN":"3鄰","STREET":"裕農路","SECT":" ","MAREA":" ","LANE":"４３巷","ALLEY":"２９弄","HOUSE_NO":"１號七樓","E_COORD97":170615.37,"N_COORD97":2542983.5099999998,"ADDRESS":"裕農路４３巷２９弄１號七樓","OBJECTID":144700},"geometry":{"x":170615.37000000104,"y":2542983.5100000016}},{"attributes":{"ID":144701,"DIS_CODE":0,"TOWNNAME":"東區","LI":"新東里","LIN":"3鄰","STREET":"裕農路","SECT":" ","MAREA":" ","LANE":"４３巷","ALLEY":"２９弄","HOUSE_NO":"１號二樓","E_COORD97":170615.37,"N_COORD97":2542983.5099999998,"ADDRESS":"裕農路４３巷２９弄１號二樓","OBJECTID":144701},"geometry":{"x":170615.37000000104,"y":2542983.5100000016}},{"attributes":{"ID":144702,"DIS_CODE":0,"TOWNNAME":"學甲區","LI":"三慶里","LIN":"30鄰","STREET":" ","SECT":" ","MAREA":"新芳","LANE":" ","ALLEY":" ","HOUSE_NO":"６４號","E_COORD97":167254.60999999999,"N_COORD97":2575312.6499999999,"ADDRESS":"新芳６４號","OBJECTID":144702},"geometry":{"x":167254.61000000034,"y":2575312.6500000004}},{"attributes":{"ID":144703,"DIS_CODE":0,"TOWNNAME":"學甲區","LI":"秀昌里","LIN":"30鄰","STREET":" ","SECT":" ","MAREA":"煥昌","LANE":" ","ALLEY":" ","HOUSE_NO":"７１號","E_COORD97":166237.32999999999,"N_COORD97":2570954.7799999998,"ADDRESS":"煥昌７１號","OBJECTID":144703},"geometry":{"x":166237.33000000007,"y":2570954.7800000031}},{"attributes":{"ID":144704,"DIS_CODE":0,"TOWNNAME":"學甲區","LI":"秀昌里","LIN":"30鄰","STREET":" ","SECT":" ","MAREA":"煥昌","LANE":" ","ALLEY":" ","HOUSE_NO":"７５號","E_COORD97":166251.51000000001,"N_COORD97":2570986.2799999998,"ADDRESS":"煥昌７５號","OBJECTID":144704},"geometry":{"x":166251.50999999978,"y":2570986.2800000012}},{"attributes":{"ID":144705,"DIS_CODE":0,"TOWNNAME":"東區","LI":"新東里","LIN":"3鄰","STREET":"裕農路","SECT":" ","MAREA":" ","LANE":"４３巷","ALLEY":"２９弄","HOUSE_NO":"１號三樓","E_COORD97":170615.37,"N_COORD97":2542983.5099999998,"ADDRESS":"裕農路４３巷２９弄１號三樓","OBJECTID":144705},"geometry":{"x":170615.37000000104,"y":2542983.5100000016}},{"attributes":{"ID":144706,"DIS_CODE":0,"TOWNNAME":"東區","LI":"新東里","LIN":"3鄰","STREET":"裕農路","SECT":" ","MAREA":" ","LANE":"４３巷","ALLEY":"２９弄","HOUSE_NO":"１號三樓之１","E_COORD97":170615.37,"N_COORD97":2542983.5099999998,"ADDRESS":"裕農路４３巷２９弄１號三樓之１","OBJECTID":144706},"geometry":{"x":170615.37000000104,"y":2542983.5100000016}},{"attributes":{"ID":144707,"DIS_CODE":0,"TOWNNAME":"東區","LI":"新東里","LIN":"3鄰","STREET":"裕農路","SECT":" ","MAREA":" ","LANE":"４３巷","ALLEY":"２９弄","HOUSE_NO":"１號三樓之２","E_COORD97":170615.37,"N_COORD97":2542983.5099999998,"ADDRESS":"裕農路４３巷２９弄１號三樓之２","OBJECTID":144707},"geometry":{"x":170615.37000000104,"y":2542983.5100000016}},{"attributes":{"ID":144708,"DIS_CODE":0,"TOWNNAME":"東區","LI":"新東里","LIN":"3鄰","STREET":"裕農路","SECT":" ","MAREA":" ","LANE":"４３巷","ALLEY":"２９弄","HOUSE_NO":"１號五樓","E_COORD97":170615.37,"N_COORD97":2542983.5099999998,"ADDRESS":"裕農路４３巷２９弄１號五樓","OBJECTID":144708},"geometry":{"x":170615.37000000104,"y":2542983.5100000016}},{"attributes":{"ID":144709,"DIS_CODE":0,"TOWNNAME":"東區","LI":"新東里","LIN":"3鄰","STREET":"裕農路","SECT":" ","MAREA":" ","LANE":"４３巷","ALLEY":"２９弄","HOUSE_NO":"１號五樓之１","E_COORD97":170615.37,"N_COORD97":2542983.5099999998,"ADDRESS":"裕農路４３巷２９弄１號五樓之１","OBJECTID":144709},"geometry":{"x":170615.37000000104,"y":2542983.5100000016}},{"attributes":{"ID":144710,"DIS_CODE":0,"TOWNNAME":"東區","LI":"新東里","LIN":"3鄰","STREET":"裕農路","SECT":" ","MAREA":" ","LANE":"４３巷","ALLEY":"２９弄","HOUSE_NO":"１號五樓之２","E_COORD97":170615.37,"N_COORD97":2542983.5099999998,"ADDRESS":"裕農路４３巷２９弄１號五樓之２","OBJECTID":144710},"geometry":{"x":170615.37000000104,"y":2542983.5100000016}},{"attributes":{"ID":144711,"DIS_CODE":0,"TOWNNAME":"東區","LI":"新東里","LIN":"3鄰","STREET":"裕農路","SECT":" ","MAREA":" ","LANE":"４３巷","ALLEY":"２９弄","HOUSE_NO":"１號六樓","E_COORD97":170615.37,"N_COORD97":2542983.5099999998,"ADDRESS":"裕農路４３巷２９弄１號六樓","OBJECTID":144711},"geometry":{"x":170615.37000000104,"y":2542983.5100000016}},{"attributes":{"ID":144712,"DIS_CODE":0,"TOWNNAME":"北區","LI":"大豐里","LIN":"30鄰","STREET":"文賢路","SECT":" ","MAREA":" ","LANE":"３６５巷","ALLEY":" ","HOUSE_NO":"２０號","E_COORD97":167281.29000000001,"N_COORD97":2545391.5899999999,"ADDRESS":"文賢路３６５巷２０號","OBJECTID":144712},"geometry":{"x":167281.29000000097,"y":2545391.5899999999}},{"attributes":{"ID":144713,"DIS_CODE":0,"TOWNNAME":"歸仁區","LI":"崙頂里","LIN":"15鄰","STREET":"崙頂街","SECT":" ","MAREA":" ","LANE":" ","ALLEY":" ","HOUSE_NO":"５９號","E_COORD97":177886.56,"N_COORD97":2539939.1099999999,"ADDRESS":"崙頂街５９號","OBJECTID":144713},"geometry":{"x":177886.55999999959,"y":2539939.1100000013}},{"attributes":{"ID":144714,"DIS_CODE":0,"TOWNNAME":"學甲區","LI":"秀昌里","LIN":"30鄰","STREET":" ","SECT":" ","MAREA":"煥昌","LANE":" ","ALLEY":" ","HOUSE_NO":"７６號","E_COORD97":166240.89999999999,"N_COORD97":2570992.0800000001,"ADDRESS":"煥昌７６號","OBJECTID":144714},"geometry":{"x":166240.90000000037,"y":2570992.0800000019}},{"attributes":{"ID":144715,"DIS_CODE":0,"TOWNNAME":"仁德區","LI":"新田里","LIN":"4鄰","STREET":"勝利路","SECT":" ","MAREA":" ","LANE":"１３２巷","ALLEY":"１０弄","HOUSE_NO":"３１號","E_COORD97":174373.04000000001,"N_COORD97":2539485.1600000001,"ADDRESS":"勝利路１３２巷１０弄３１號","OBJECTID":144715},"geometry":{"x":174373.04000000004,"y":2539485.160000002}},{"attributes":{"ID":144716,"DIS_CODE":0,"TOWNNAME":"東區","LI":"新東里","LIN":"3鄰","STREET":"裕農路","SECT":" ","MAREA":" ","LANE":"４３巷","ALLEY":"２９弄","HOUSE_NO":"１號六樓之１","E_COORD97":170615.37,"N_COORD97":2542983.5099999998,"ADDRESS":"裕農路４３巷２９弄１號六樓之１","OBJECTID":144716},"geometry":{"x":170615.37000000104,"y":2542983.5100000016}},{"attributes":{"ID":144717,"DIS_CODE":0,"TOWNNAME":"北區","LI":"和順里","LIN":"30鄰","STREET":"臨安路","SECT":"二段","MAREA":" ","LANE":" ","ALLEY":" ","HOUSE_NO":"１９７號","E_COORD97":167916.47,"N_COORD97":2544935.7799999998,"ADDRESS":"臨安路二段１９７號","OBJECTID":144717},"geometry":{"x":167916.46999999881,"y":2544935.7799999993}},{"attributes":{"ID":144718,"DIS_CODE":0,"TOWNNAME":"東區","LI":"新東里","LIN":"3鄰","STREET":"裕農路","SECT":" ","MAREA":" ","LANE":"４３巷","ALLEY":"２９弄","HOUSE_NO":"１號六樓之２","E_COORD97":170615.37,"N_COORD97":2542983.5099999998,"ADDRESS":"裕農路４３巷２９弄１號六樓之２","OBJECTID":144718},"geometry":{"x":170615.37000000104,"y":2542983.5100000016}},{"attributes":{"ID":144719,"DIS_CODE":0,"TOWNNAME":"東區","LI":"新東里","LIN":"3鄰","STREET":"裕農路","SECT":" ","MAREA":" ","LANE":"４３巷","ALLEY":"２９弄","HOUSE_NO":"１號四樓","E_COORD97":170615.37,"N_COORD97":2542983.5099999998,"ADDRESS":"裕農路４３巷２９弄１號四樓","OBJECTID":144719},"geometry":{"x":170615.37000000104,"y":2542983.5100000016}},{"attributes":{"ID":144720,"DIS_CODE":0,"TOWNNAME":"東區","LI":"新東里","LIN":"3鄰","STREET":"裕農路","SECT":" ","MAREA":" ","LANE":"４３巷","ALLEY":"２９弄","HOUSE_NO":"１號四樓之１","E_COORD97":170615.37,"N_COORD97":2542983.5099999998,"ADDRESS":"裕農路４３巷２９弄１號四樓之１","OBJECTID":144720},"geometry":{"x":170615.37000000104,"y":2542983.5100000016}},{"attributes":{"ID":144721,"DIS_CODE":0,"TOWNNAME":"東區","LI":"新東里","LIN":"3鄰","STREET":"裕農路","SECT":" ","MAREA":" ","LANE":"４３巷","ALLEY":"２９弄","HOUSE_NO":"１號四樓之２","E_COORD97":170615.37,"N_COORD97":2542983.5099999998,"ADDRESS":"裕農路４３巷２９弄１號四樓之２","OBJECTID":144721},"geometry":{"x":170615.37000000104,"y":2542983.5100000016}},{"attributes":{"ID":144722,"DIS_CODE":0,"TOWNNAME":"東區","LI":"新東里","LIN":"3鄰","STREET":"裕農路","SECT":" ","MAREA":" ","LANE":"４３巷","ALLEY":"２９弄","HOUSE_NO":"２１號二樓","E_COORD97":170507.89000000001,"N_COORD97":2542982.3300000001,"ADDRESS":"裕農路４３巷２９弄２１號二樓","OBJECTID":144722},"geometry":{"x":170507.8900000006,"y":2542982.3300000019}},{"attributes":{"ID":144723,"DIS_CODE":0,"TOWNNAME":"東區","LI":"新東里","LIN":"3鄰","STREET":"裕農路","SECT":" ","MAREA":" ","LANE":"４３巷","ALLEY":"２９弄","HOUSE_NO":"２１號三樓","E_COORD97":170507.89000000001,"N_COORD97":2542982.3300000001,"ADDRESS":"裕農路４３巷２９弄２１號三樓","OBJECTID":144723},"geometry":{"x":170507.8900000006,"y":2542982.3300000019}},{"attributes":{"ID":144724,"DIS_CODE":0,"TOWNNAME":"東區","LI":"新東里","LIN":"3鄰","STREET":"裕農路","SECT":" ","MAREA":" ","LANE":"４３巷","ALLEY":"２９弄","HOUSE_NO":"２１號三樓之１","E_COORD97":170507.89000000001,"N_COORD97":2542982.3300000001,"ADDRESS":"裕農路４３巷２９弄２１號三樓之１","OBJECTID":144724},"geometry":{"x":170507.8900000006,"y":2542982.3300000019}},{"attributes":{"ID":144725,"DIS_CODE":0,"TOWNNAME":"北區","LI":"和順里","LIN":"30鄰","STREET":"臨安路","SECT":"二段","MAREA":" ","LANE":" ","ALLEY":" ","HOUSE_NO":"１９９號","E_COORD97":167922.51999999999,"N_COORD97":2544934.7400000002,"ADDRESS":"臨安路二段１９９號","OBJECTID":144725},"geometry":{"x":167922.51999999955,"y":2544934.7400000039}},{"attributes":{"ID":144726,"DIS_CODE":0,"TOWNNAME":"北區","LI":"和順里","LIN":"30鄰","STREET":"臨安路","SECT":"二段","MAREA":" ","LANE":" ","ALLEY":" ","HOUSE_NO":"２０１號","E_COORD97":167927.17999999999,"N_COORD97":2544935.7799999998,"ADDRESS":"臨安路二段２０１號","OBJECTID":144726},"geometry":{"x":167927.18000000063,"y":2544935.7799999993}},{"attributes":{"ID":144727,"DIS_CODE":0,"TOWNNAME":"北區","LI":"和順里","LIN":"30鄰","STREET":"臨安路","SECT":"二段","MAREA":" ","LANE":" ","ALLEY":" ","HOUSE_NO":"２０３號","E_COORD97":167932,"N_COORD97":2544932.71,"ADDRESS":"臨安路二段２０３號","OBJECTID":144727},"geometry":{"x":167932.00000000186,"y":2544932.7100000028}},{"attributes":{"ID":144728,"DIS_CODE":0,"TOWNNAME":"北區","LI":"和順里","LIN":"30鄰","STREET":"臨安路","SECT":"二段","MAREA":" ","LANE":" ","ALLEY":" ","HOUSE_NO":"２０５號","E_COORD97":167933.88,"N_COORD97":2544939.52,"ADDRESS":"臨安路二段２０５號","OBJECTID":144728},"geometry":{"x":167933.87999999989,"y":2544939.5200000014}},{"attributes":{"ID":144729,"DIS_CODE":0,"TOWNNAME":"北區","LI":"和順里","LIN":"30鄰","STREET":"臨安路","SECT":"二段","MAREA":" ","LANE":" ","ALLEY":" ","HOUSE_NO":"２０７號","E_COORD97":167940.32999999999,"N_COORD97":2544943.0099999998,"ADDRESS":"臨安路二段２０７號","OBJECTID":144729},"geometry":{"x":167940.33000000101,"y":2544943.0100000016}},{"attributes":{"ID":144730,"DIS_CODE":0,"TOWNNAME":"北區","LI":"和順里","LIN":"30鄰","STREET":"臨安路","SECT":"二段","MAREA":" ","LANE":" ","ALLEY":" ","HOUSE_NO":"２０９號","E_COORD97":167944.73000000001,"N_COORD97":2544945.0699999998,"ADDRESS":"臨安路二段２０９號","OBJECTID":144730},"geometry":{"x":167944.73000000138,"y":2544945.0700000003}},{"attributes":{"ID":144731,"DIS_CODE":0,"TOWNNAME":"佳里區","LI":"海澄里","LIN":" ","STREET":" ","SECT":" ","MAREA":"番子寮","LANE":" ","ALLEY":" ","HOUSE_NO":"１２號","E_COORD97":164273.42000000001,"N_COORD97":2564735.7999999998,"ADDRESS":"番子寮１２號","OBJECTID":144731},"geometry":{"x":164273.41999999993,"y":2564735.8000000026}},{"attributes":{"ID":144732,"DIS_CODE":0,"TOWNNAME":"佳里區","LI":"漳洲里","LIN":" ","STREET":" ","SECT":" ","MAREA":"番子寮","LANE":" ","ALLEY":" ","HOUSE_NO":"２００號","E_COORD97":163482.73999999999,"N_COORD97":2564488.75,"ADDRESS":"番子寮２００號","OBJECTID":144732},"geometry":{"x":163482.74000000115,"y":2564488.75}},{"attributes":{"ID":144733,"DIS_CODE":0,"TOWNNAME":"北區","LI":"和順里","LIN":"30鄰","STREET":"臨安路","SECT":"二段","MAREA":" ","LANE":" ","ALLEY":" ","HOUSE_NO":"２１１號","E_COORD97":167948.98999999999,"N_COORD97":2544945.7599999998,"ADDRESS":"臨安路二段２１１號","OBJECTID":144733},"geometry":{"x":167948.99000000022,"y":2544945.7600000016}},{"attributes":{"ID":144734,"DIS_CODE":0,"TOWNNAME":"東區","LI":"新東里","LIN":"3鄰","STREET":"裕農路","SECT":" ","MAREA":" ","LANE":"４３巷","ALLEY":"２９弄","HOUSE_NO":"２１號三樓之２","E_COORD97":170507.89000000001,"N_COORD97":2542982.3300000001,"ADDRESS":"裕農路４３巷２９弄２１號三樓之２","OBJECTID":144734},"geometry":{"x":170507.8900000006,"y":2542982.3300000019}},{"attributes":{"ID":144735,"DIS_CODE":0,"TOWNNAME":"西港區","LI":"南海里","LIN":"18鄰","STREET":" ","SECT":" ","MAREA":"中港","LANE":" ","ALLEY":" ","HOUSE_NO":"１號","E_COORD97":167196.12,"N_COORD97":2556507.4100000001,"ADDRESS":"中港１號","OBJECTID":144735},"geometry":{"x":167196.12000000104,"y":2556507.4100000001}},{"attributes":{"ID":144736,"DIS_CODE":0,"TOWNNAME":"東區","LI":"新東里","LIN":"3鄰","STREET":"裕農路","SECT":" ","MAREA":" ","LANE":"４３巷","ALLEY":"２９弄","HOUSE_NO":"２１號五樓","E_COORD97":170507.89000000001,"N_COORD97":2542982.3300000001,"ADDRESS":"裕農路４３巷２９弄２１號五樓","OBJECTID":144736},"geometry":{"x":170507.8900000006,"y":2542982.3300000019}},{"attributes":{"ID":144737,"DIS_CODE":0,"TOWNNAME":"東區","LI":"新東里","LIN":"3鄰","STREET":"裕農路","SECT":" ","MAREA":" ","LANE":"４３巷","ALLEY":"２９弄","HOUSE_NO":"２１號五樓之１","E_COORD97":170507.89000000001,"N_COORD97":2542982.3300000001,"ADDRESS":"裕農路４３巷２９弄２１號五樓之１","OBJECTID":144737},"geometry":{"x":170507.8900000006,"y":2542982.3300000019}},{"attributes":{"ID":144738,"DIS_CODE":0,"TOWNNAME":"東區","LI":"新東里","LIN":"3鄰","STREET":"裕農路","SECT":" ","MAREA":" ","LANE":"４３巷","ALLEY":"２９弄","HOUSE_NO":"２１號五樓之２","E_COORD97":170507.89000000001,"N_COORD97":2542982.3300000001,"ADDRESS":"裕農路４３巷２９弄２１號五樓之２","OBJECTID":144738},"geometry":{"x":170507.8900000006,"y":2542982.3300000019}},{"attributes":{"ID":144739,"DIS_CODE":0,"TOWNNAME":"東區","LI":"新東里","LIN":"3鄰","STREET":"裕農路","SECT":" ","MAREA":" ","LANE":"４３巷","ALLEY":"２９弄","HOUSE_NO":"２１號四樓","E_COORD97":170507.89000000001,"N_COORD97":2542982.3300000001,"ADDRESS":"裕農路４３巷２９弄２１號四樓","OBJECTID":144739},"geometry":{"x":170507.8900000006,"y":2542982.3300000019}},{"attributes":{"ID":144740,"DIS_CODE":0,"TOWNNAME":"佳里區","LI":"漳洲里","LIN":" ","STREET":" ","SECT":" ","MAREA":"番子寮","LANE":" ","ALLEY":" ","HOUSE_NO":"２０４號","E_COORD97":163460.37,"N_COORD97":2564454.6400000001,"ADDRESS":"番子寮２０４號","OBJECTID":144740},"geometry":{"x":163460.37000000011,"y":2564454.6400000025}},{"attributes":{"ID":144741,"DIS_CODE":0,"TOWNNAME":"佳里區","LI":"漳洲里","LIN":" ","STREET":" ","SECT":" ","MAREA":"番子寮","LANE":" ","ALLEY":" ","HOUSE_NO":"２６０號","E_COORD97":163495.51999999999,"N_COORD97":2564618.1800000002,"ADDRESS":"番子寮２６０號","OBJECTID":144741},"geometry":{"x":163495.52000000048,"y":2564618.1799999997}},{"attributes":{"ID":144742,"DIS_CODE":0,"TOWNNAME":"佳里區","LI":"漳洲里","LIN":" ","STREET":" ","SECT":" ","MAREA":"番子寮","LANE":" ","ALLEY":" ","HOUSE_NO":"２７４之２號","E_COORD97":163568.78,"N_COORD97":2565039.21,"ADDRESS":"番子寮２７４之２號","OBJECTID":144742},"geometry":{"x":163568.78000000119,"y":2565039.2100000009}},{"attributes":{"ID":144743,"DIS_CODE":0,"TOWNNAME":"佳里區","LI":"漳洲里","LIN":" ","STREET":" ","SECT":" ","MAREA":"番子寮","LANE":" ","ALLEY":" ","HOUSE_NO":"２９４號","E_COORD97":163117.82999999999,"N_COORD97":2564987.0299999998,"ADDRESS":"番子寮２９４號","OBJECTID":144743},"geometry":{"x":163117.83000000101,"y":2564987.0300000012}},{"attributes":{"ID":144744,"DIS_CODE":0,"TOWNNAME":"佳里區","LI":"龍安里","LIN":" ","STREET":" ","SECT":" ","MAREA":"塭子內","LANE":" ","ALLEY":" ","HOUSE_NO":"２之５６號","E_COORD97":163819.07999999999,"N_COORD97":2558893.02,"ADDRESS":"塭子內２之５６號","OBJECTID":144744},"geometry":{"x":163819.08000000101,"y":2558893.0199999996}},{"attributes":{"ID":144745,"DIS_CODE":0,"TOWNNAME":"佳里區","LI":"三協里","LIN":" ","STREET":" ","SECT":" ","MAREA":"潭墘","LANE":" ","ALLEY":" ","HOUSE_NO":"３３號","E_COORD97":168489.76000000001,"N_COORD97":2564090.9500000002,"ADDRESS":"潭墘３３號","OBJECTID":144745},"geometry":{"x":168489.76000000071,"y":2564090.9499999993}},{"attributes":{"ID":144746,"DIS_CODE":0,"TOWNNAME":"北區","LI":"和順里","LIN":"30鄰","STREET":"海安路","SECT":"三段","MAREA":" ","LANE":" ","ALLEY":" ","HOUSE_NO":"１１３號","E_COORD97":167963.01999999999,"N_COORD97":2544961.1400000001,"ADDRESS":"海安路三段１１３號","OBJECTID":144746},"geometry":{"x":167963.01999999955,"y":2544961.1400000025}},{"attributes":{"ID":144747,"DIS_CODE":0,"TOWNNAME":"北區","LI":"和順里","LIN":"30鄰","STREET":"海安路","SECT":"三段","MAREA":" ","LANE":" ","ALLEY":" ","HOUSE_NO":"１１５號","E_COORD97":167962.73999999999,"N_COORD97":2544965.6000000001,"ADDRESS":"海安路三段１１５號","OBJECTID":144747},"geometry":{"x":167962.74000000209,"y":2544965.6000000034}},{"attributes":{"ID":144748,"DIS_CODE":0,"TOWNNAME":"北區","LI":"和順里","LIN":"30鄰","STREET":"海安路","SECT":"三段","MAREA":" ","LANE":" ","ALLEY":" ","HOUSE_NO":"１１７號","E_COORD97":167963.01999999999,"N_COORD97":2544970.1299999999,"ADDRESS":"海安路三段１１７號","OBJECTID":144748},"geometry":{"x":167963.01999999955,"y":2544970.129999999}},{"attributes":{"ID":144749,"DIS_CODE":0,"TOWNNAME":"北區","LI":"和順里","LIN":"30鄰","STREET":"海安路","SECT":"三段","MAREA":" ","LANE":" ","ALLEY":" ","HOUSE_NO":"１１９號","E_COORD97":167962.73999999999,"N_COORD97":2544974.52,"ADDRESS":"海安路三段１１９號","OBJECTID":144749},"geometry":{"x":167962.74000000209,"y":2544974.5200000014}},{"attributes":{"ID":144750,"DIS_CODE":0,"TOWNNAME":"北區","LI":"和順里","LIN":"30鄰","STREET":"海安路","SECT":"三段","MAREA":" ","LANE":" ","ALLEY":" ","HOUSE_NO":"１２１號","E_COORD97":167962.60000000001,"N_COORD97":2544980.98,"ADDRESS":"海安路三段１２１號","OBJECTID":144750},"geometry":{"x":167962.59999999963,"y":2544980.9800000042}},{"attributes":{"ID":144751,"DIS_CODE":0,"TOWNNAME":"北區","LI":"和順里","LIN":"30鄰","STREET":"海安路","SECT":"三段","MAREA":" ","LANE":" ","ALLEY":" ","HOUSE_NO":"１２５號","E_COORD97":167962.04999999999,"N_COORD97":2544987.5699999998,"ADDRESS":"海安路三段１２５號","OBJECTID":144751},"geometry":{"x":167962.05000000075,"y":2544987.5700000022}},{"attributes":{"ID":144752,"DIS_CODE":0,"TOWNNAME":"北區","LI":"和順里","LIN":"30鄰","STREET":"海安路","SECT":"三段","MAREA":" ","LANE":" ","ALLEY":" ","HOUSE_NO":"１２７號","E_COORD97":167962.19,"N_COORD97":2544991.5499999998,"ADDRESS":"海安路三段１２７號","OBJECTID":144752},"geometry":{"x":167962.19000000134,"y":2544991.5500000026}},{"attributes":{"ID":144753,"DIS_CODE":0,"TOWNNAME":"北區","LI":"和順里","LIN":"30鄰","STREET":"海安路","SECT":"三段","MAREA":" ","LANE":" ","ALLEY":" ","HOUSE_NO":"１２９號","E_COORD97":167961.12,"N_COORD97":2544996.4900000002,"ADDRESS":"海安路三段１２９號","OBJECTID":144753},"geometry":{"x":167961.12000000011,"y":2544996.4900000002}},{"attributes":{"ID":144754,"DIS_CODE":0,"TOWNNAME":"北區","LI":"和順里","LIN":"30鄰","STREET":"海安路","SECT":"三段","MAREA":" ","LANE":" ","ALLEY":" ","HOUSE_NO":"１３１號","E_COORD97":167961.12,"N_COORD97":2545000.1400000001,"ADDRESS":"海安路三段１３１號","OBJECTID":144754},"geometry":{"x":167961.12000000011,"y":2545000.1399999987}},{"attributes":{"ID":144755,"DIS_CODE":0,"TOWNNAME":"東區","LI":"新東里","LIN":"3鄰","STREET":"裕農路","SECT":" ","MAREA":" ","LANE":"４３巷","ALLEY":"２９弄","HOUSE_NO":"２１號四樓之１","E_COORD97":170507.89000000001,"N_COORD97":2542982.3300000001,"ADDRESS":"裕農路４３巷２９弄２１號四樓之１","OBJECTID":144755},"geometry":{"x":170507.8900000006,"y":2542982.3300000019}},{"attributes":{"ID":144756,"DIS_CODE":0,"TOWNNAME":"東區","LI":"新東里","LIN":"3鄰","STREET":"裕農路","SECT":" ","MAREA":" ","LANE":"４３巷","ALLEY":"２９弄","HOUSE_NO":"２１號四樓之２","E_COORD97":170507.89000000001,"N_COORD97":2542982.3300000001,"ADDRESS":"裕農路４３巷２９弄２１號四樓之２","OBJECTID":144756},"geometry":{"x":170507.8900000006,"y":2542982.3300000019}},{"attributes":{"ID":144757,"DIS_CODE":0,"TOWNNAME":"東區","LI":"新東里","LIN":"3鄰","STREET":"裕農路","SECT":" ","MAREA":" ","LANE":"４３巷","ALLEY":"２９弄","HOUSE_NO":"２３號二樓","E_COORD97":170498.39999999999,"N_COORD97":2542981.6000000001,"ADDRESS":"裕農路４３巷２９弄２３號二樓","OBJECTID":144757},"geometry":{"x":170498.4000000013,"y":2542981.5999999996}},{"attributes":{"ID":144758,"DIS_CODE":0,"TOWNNAME":"東區","LI":"新東里","LIN":"3鄰","STREET":"裕農路","SECT":" ","MAREA":" ","LANE":"４３巷","ALLEY":"２９弄","HOUSE_NO":"２３號二樓之１","E_COORD97":170498.39999999999,"N_COORD97":2542981.6000000001,"ADDRESS":"裕農路４３巷２９弄２３號二樓之１","OBJECTID":144758},"geometry":{"x":170498.4000000013,"y":2542981.5999999996}},{"attributes":{"ID":144759,"DIS_CODE":0,"TOWNNAME":"東區","LI":"新東里","LIN":"3鄰","STREET":"裕農路","SECT":" ","MAREA":" ","LANE":"４３巷","ALLEY":"２９弄","HOUSE_NO":"３號三樓","E_COORD97":170596.89000000001,"N_COORD97":2542981.8399999999,"ADDRESS":"裕農路４３巷２９弄３號三樓","OBJECTID":144759},"geometry":{"x":170596.88999999966,"y":2542981.8400000017}},{"attributes":{"ID":144760,"DIS_CODE":0,"TOWNNAME":"東區","LI":"新東里","LIN":"3鄰","STREET":"裕農路","SECT":" ","MAREA":" ","LANE":"４３巷","ALLEY":"２９弄","HOUSE_NO":"３號三樓之１","E_COORD97":170596.89000000001,"N_COORD97":2542981.8399999999,"ADDRESS":"裕農路４３巷２９弄３號三樓之１","OBJECTID":144760},"geometry":{"x":170596.88999999966,"y":2542981.8400000017}},{"attributes":{"ID":144761,"DIS_CODE":0,"TOWNNAME":"東區","LI":"新東里","LIN":"3鄰","STREET":"裕農路","SECT":" ","MAREA":" ","LANE":"４３巷","ALLEY":"２９弄","HOUSE_NO":"３號三樓之２","E_COORD97":170596.89000000001,"N_COORD97":2542981.8399999999,"ADDRESS":"裕農路４３巷２９弄３號三樓之２","OBJECTID":144761},"geometry":{"x":170596.88999999966,"y":2542981.8400000017}},{"attributes":{"ID":144762,"DIS_CODE":0,"TOWNNAME":"東區","LI":"新東里","LIN":"3鄰","STREET":"裕農路","SECT":" ","MAREA":" ","LANE":"４３巷","ALLEY":"２９弄","HOUSE_NO":"３號五樓","E_COORD97":170596.89000000001,"N_COORD97":2542981.8399999999,"ADDRESS":"裕農路４３巷２９弄３號五樓","OBJECTID":144762},"geometry":{"x":170596.88999999966,"y":2542981.8400000017}},{"attributes":{"ID":144763,"DIS_CODE":0,"TOWNNAME":"東區","LI":"新東里","LIN":"3鄰","STREET":"裕農路","SECT":" ","MAREA":" ","LANE":"４３巷","ALLEY":"２９弄","HOUSE_NO":"３號五樓之１","E_COORD97":170596.89000000001,"N_COORD97":2542981.8399999999,"ADDRESS":"裕農路４３巷２９弄３號五樓之１","OBJECTID":144763},"geometry":{"x":170596.88999999966,"y":2542981.8400000017}},{"attributes":{"ID":144764,"DIS_CODE":0,"TOWNNAME":"東區","LI":"新東里","LIN":"3鄰","STREET":"裕農路","SECT":" ","MAREA":" ","LANE":"４３巷","ALLEY":"２９弄","HOUSE_NO":"３號五樓之２","E_COORD97":170596.89000000001,"N_COORD97":2542981.8399999999,"ADDRESS":"裕農路４３巷２９弄３號五樓之２","OBJECTID":144764},"geometry":{"x":170596.88999999966,"y":2542981.8400000017}},{"attributes":{"ID":144765,"DIS_CODE":0,"TOWNNAME":"東區","LI":"新東里","LIN":"3鄰","STREET":"裕農路","SECT":" ","MAREA":" ","LANE":"４３巷","ALLEY":"２９弄","HOUSE_NO":"３號六樓","E_COORD97":170596.89000000001,"N_COORD97":2542981.8399999999,"ADDRESS":"裕農路４３巷２９弄３號六樓","OBJECTID":144765},"geometry":{"x":170596.88999999966,"y":2542981.8400000017}},{"attributes":{"ID":144766,"DIS_CODE":0,"TOWNNAME":"北區","LI":"和順里","LIN":"30鄰","STREET":"海安路","SECT":"三段","MAREA":" ","LANE":" ","ALLEY":" ","HOUSE_NO":"１３３號","E_COORD97":167960.79000000001,"N_COORD97":2545006.9500000002,"ADDRESS":"海安路三段１３３號","OBJECTID":144766},"geometry":{"x":167960.79000000097,"y":2545006.950000003}},{"attributes":{"ID":144767,"DIS_CODE":0,"TOWNNAME":"西港區","LI":"慶安里","LIN":"32鄰","STREET":"中山路","SECT":" ","MAREA":" ","LANE":" ","ALLEY":" ","HOUSE_NO":"１７３號","E_COORD97":168424.81,"N_COORD97":2557656.77,"ADDRESS":"中山路１７３號","OBJECTID":144767},"geometry":{"x":168424.81000000052,"y":2557656.7699999996}},{"attributes":{"ID":144768,"DIS_CODE":0,"TOWNNAME":"西港區","LI":"慶安里","LIN":"32鄰","STREET":"中山路","SECT":" ","MAREA":" ","LANE":" ","ALLEY":" ","HOUSE_NO":"１８３號","E_COORD97":168417.51000000001,"N_COORD97":2557678.3700000001,"ADDRESS":"中山路１８３號","OBJECTID":144768},"geometry":{"x":168417.50999999978,"y":2557678.370000001}},{"attributes":{"ID":144769,"DIS_CODE":0,"TOWNNAME":"佳里區","LI":"營頂里","LIN":" ","STREET":" ","SECT":" ","MAREA":"營頂","LANE":" ","ALLEY":" ","HOUSE_NO":"１０２號","E_COORD97":167261.78,"N_COORD97":2566553.1800000002,"ADDRESS":"營頂１０２號","OBJECTID":144769},"geometry":{"x":167261.78000000026,"y":2566553.1800000016}},{"attributes":{"ID":144770,"DIS_CODE":0,"TOWNNAME":"佳里區","LI":"營頂里","LIN":" ","STREET":" ","SECT":" ","MAREA":"營頂","LANE":" ","ALLEY":" ","HOUSE_NO":"１１４號","E_COORD97":167485.59,"N_COORD97":2567113.2599999998,"ADDRESS":"營頂１１４號","OBJECTID":144770},"geometry":{"x":167485.59000000078,"y":2567113.2599999998}},{"attributes":{"ID":144771,"DIS_CODE":0,"TOWNNAME":"佳里區","LI":"營頂里","LIN":" ","STREET":" ","SECT":" ","MAREA":"營頂","LANE":" ","ALLEY":" ","HOUSE_NO":"２７號","E_COORD97":166932.28,"N_COORD97":2566485.5499999998,"ADDRESS":"營頂２７號","OBJECTID":144771},"geometry":{"x":166932.28000000119,"y":2566485.5500000007}},{"attributes":{"ID":144772,"DIS_CODE":0,"TOWNNAME":"佳里區","LI":"營頂里","LIN":" ","STREET":" ","SECT":" ","MAREA":"營頂","LANE":" ","ALLEY":" ","HOUSE_NO":"４２之２號","E_COORD97":166844.19,"N_COORD97":2566719.25,"ADDRESS":"營頂４２之２號","OBJECTID":144772},"geometry":{"x":166844.19000000041,"y":2566719.2500000019}},{"attributes":{"ID":144773,"DIS_CODE":0,"TOWNNAME":"山上區","LI":"平陽里","LIN":"4鄰","STREET":" ","SECT":" ","MAREA":"石子崎","LANE":" ","ALLEY":" ","HOUSE_NO":"４０號之２","E_COORD97":186608.48999999999,"N_COORD97":2554073.2999999998,"ADDRESS":"石子崎４０號之２","OBJECTID":144773},"geometry":{"x":186608.49000000115,"y":2554073.3000000026}},{"attributes":{"ID":144774,"DIS_CODE":0,"TOWNNAME":"山上區","LI":"明和里","LIN":"4鄰","STREET":" ","SECT":" ","MAREA":"明和","LANE":" ","ALLEY":" ","HOUSE_NO":"１３０號之１","E_COORD97":183166.47,"N_COORD97":2556200.2999999998,"ADDRESS":"明和１３０號之１","OBJECTID":144774},"geometry":{"x":183166.4700000016,"y":2556200.3000000007}},{"attributes":{"ID":144775,"DIS_CODE":0,"TOWNNAME":"山上區","LI":"南洲里","LIN":"18鄰","STREET":" ","SECT":" ","MAREA":"南洲","LANE":" ","ALLEY":" ","HOUSE_NO":"３２４號之２","E_COORD97":183597.81,"N_COORD97":2555745.2999999998,"ADDRESS":"南洲３２４號之２","OBJECTID":144775},"geometry":{"x":183597.80999999959,"y":2555745.3000000007}},{"attributes":{"ID":144776,"DIS_CODE":0,"TOWNNAME":"山上區","LI":"明和里","LIN":"20鄰","STREET":" ","SECT":" ","MAREA":"明和","LANE":" ","ALLEY":" ","HOUSE_NO":"６８號","E_COORD97":183183.59,"N_COORD97":2556057.25,"ADDRESS":"明和６８號","OBJECTID":144776},"geometry":{"x":183183.59000000078,"y":2556057.25}},{"attributes":{"ID":144777,"DIS_CODE":0,"TOWNNAME":"山上區","LI":"明和里","LIN":"20鄰","STREET":" ","SECT":" ","MAREA":"明和","LANE":" ","ALLEY":" ","HOUSE_NO":"６７之１２號","E_COORD97":183369.84,"N_COORD97":2555832.2999999998,"ADDRESS":"明和６７之１２號","OBJECTID":144777},"geometry":{"x":183369.84000000078,"y":2555832.3000000026}},{"attributes":{"ID":144778,"DIS_CODE":0,"TOWNNAME":"東區","LI":"新東里","LIN":"3鄰","STREET":"裕農路","SECT":" ","MAREA":" ","LANE":"４３巷","ALLEY":"２９弄","HOUSE_NO":"３號六樓之１","E_COORD97":170596.89000000001,"N_COORD97":2542981.8399999999,"ADDRESS":"裕農路４３巷２９弄３號六樓之１","OBJECTID":144778},"geometry":{"x":170596.88999999966,"y":2542981.8400000017}},{"attributes":{"ID":144779,"DIS_CODE":0,"TOWNNAME":"東區","LI":"新東里","LIN":"3鄰","STREET":"裕農路","SECT":" ","MAREA":" ","LANE":"４３巷","ALLEY":"２９弄","HOUSE_NO":"３號四樓","E_COORD97":170596.89000000001,"N_COORD97":2542981.8399999999,"ADDRESS":"裕農路４３巷２９弄３號四樓","OBJECTID":144779},"geometry":{"x":170596.88999999966,"y":2542981.8400000017}},{"attributes":{"ID":144780,"DIS_CODE":0,"TOWNNAME":"東區","LI":"新東里","LIN":"3鄰","STREET":"裕農路","SECT":" ","MAREA":" ","LANE":"４３巷","ALLEY":"２９弄","HOUSE_NO":"３號四樓之１","E_COORD97":170596.89000000001,"N_COORD97":2542981.8399999999,"ADDRESS":"裕農路４３巷２９弄３號四樓之１","OBJECTID":144780},"geometry":{"x":170596.88999999966,"y":2542981.8400000017}},{"attributes":{"ID":144781,"DIS_CODE":0,"TOWNNAME":"仁德區","LI":"後壁里","LIN":"12鄰","STREET":"德善路","SECT":" ","MAREA":" ","LANE":"２４０巷","ALLEY":"３１弄","HOUSE_NO":"２９號","E_COORD97":173878.41,"N_COORD97":2538556.77,"ADDRESS":"德善路２４０巷３１弄２９號","OBJECTID":144781},"geometry":{"x":173878.41000000108,"y":2538556.7700000033}},{"attributes":{"ID":144782,"DIS_CODE":0,"TOWNNAME":"仁德區","LI":"仁愛里","LIN":"28鄰","STREET":"大同路","SECT":"三段","MAREA":" ","LANE":"３５８巷","ALLEY":" ","HOUSE_NO":"８２號","E_COORD97":169717.75700000001,"N_COORD97":2539373.1299999999,"ADDRESS":"大同路三段３５８巷８２號","OBJECTID":144782},"geometry":{"x":169717.75700000022,"y":2539373.129999999}},{"attributes":{"ID":144783,"DIS_CODE":0,"TOWNNAME":"山上區","LI":"南洲里","LIN":"20鄰","STREET":" ","SECT":" ","MAREA":"南洲","LANE":" ","ALLEY":" ","HOUSE_NO":"３２７之６號","E_COORD97":183602.44,"N_COORD97":2555945.2999999998,"ADDRESS":"南洲３２７之６號","OBJECTID":144783},"geometry":{"x":183602.44000000041,"y":2555945.3000000007}},{"attributes":{"ID":144784,"DIS_CODE":0,"TOWNNAME":"山上區","LI":"南洲里","LIN":"13鄰","STREET":" ","SECT":" ","MAREA":"南洲","LANE":" ","ALLEY":" ","HOUSE_NO":"２３１號","E_COORD97":183732.84,"N_COORD97":2555621.25,"ADDRESS":"南洲２３１號","OBJECTID":144784},"geometry":{"x":183732.84000000078,"y":2555621.2500000037}},{"attributes":{"ID":144785,"DIS_CODE":0,"TOWNNAME":"山上區","LI":"新莊里","LIN":"8鄰","STREET":" ","SECT":" ","MAREA":"大庄","LANE":" ","ALLEY":" ","HOUSE_NO":"２０之１１號","E_COORD97":183755.51000000001,"N_COORD97":2554776.2999999998,"ADDRESS":"大庄２０之１１號","OBJECTID":144785},"geometry":{"x":183755.50999999978,"y":2554776.3000000007}},{"attributes":{"ID":144786,"DIS_CODE":0,"TOWNNAME":"山上區","LI":"新莊里","LIN":"8鄰","STREET":" ","SECT":" ","MAREA":"大庄","LANE":" ","ALLEY":" ","HOUSE_NO":"２０號之１２","E_COORD97":183751.98000000001,"N_COORD97":2554779.2999999998,"ADDRESS":"大庄２０號之１２","OBJECTID":144786},"geometry":{"x":183751.98000000231,"y":2554779.3000000007}},{"attributes":{"ID":144787,"DIS_CODE":0,"TOWNNAME":"山上區","LI":"明和里","LIN":"15鄰","STREET":" ","SECT":" ","MAREA":"明和","LANE":" ","ALLEY":" ","HOUSE_NO":"１４號","E_COORD97":183433.39000000001,"N_COORD97":2555870.25,"ADDRESS":"明和１４號","OBJECTID":144787},"geometry":{"x":183433.3900000006,"y":2555870.25}},{"attributes":{"ID":144788,"DIS_CODE":0,"TOWNNAME":"山上區","LI":"山上里","LIN":"15鄰","STREET":" ","SECT":" ","MAREA":"山上","LANE":" ","ALLEY":" ","HOUSE_NO":"２５６號","E_COORD97":184033.90412600001,"N_COORD97":2555591.7432800001,"ADDRESS":"山上２５６號","OBJECTID":144788},"geometry":{"x":184033.90412599966,"y":2555591.7432810012}},{"attributes":{"ID":144789,"DIS_CODE":0,"TOWNNAME":"山上區","LI":"山上里","LIN":"15鄰","STREET":" ","SECT":" ","MAREA":"山上","LANE":" ","ALLEY":" ","HOUSE_NO":"２２６號","E_COORD97":184066.01000000001,"N_COORD97":2555688.25,"ADDRESS":"山上２２６號","OBJECTID":144789},"geometry":{"x":184066.00999999978,"y":2555688.25}},{"attributes":{"ID":144790,"DIS_CODE":0,"TOWNNAME":"山上區","LI":"南洲里","LIN":"4鄰","STREET":" ","SECT":" ","MAREA":"南洲","LANE":" ","ALLEY":" ","HOUSE_NO":"５０號","E_COORD97":183889.79000000001,"N_COORD97":2555613.25,"ADDRESS":"南洲５０號","OBJECTID":144790},"geometry":{"x":183889.79000000004,"y":2555613.25}},{"attributes":{"ID":144791,"DIS_CODE":0,"TOWNNAME":"西港區","LI":"慶安里","LIN":"4鄰","STREET":" ","SECT":" ","MAREA":"中州","LANE":" ","ALLEY":" ","HOUSE_NO":"４５號","E_COORD97":167589.07999999999,"N_COORD97":2558740.1499999999,"ADDRESS":"中州４５號","OBJECTID":144791},"geometry":{"x":167589.08000000194,"y":2558740.1500000004}},{"attributes":{"ID":144792,"DIS_CODE":0,"TOWNNAME":"新化區","LI":"知義里","LIN":"4鄰","STREET":" ","SECT":" ","MAREA":"知母義","LANE":" ","ALLEY":" ","HOUSE_NO":"１０２號","E_COORD97":179858.72,"N_COORD97":2547288.25,"ADDRESS":"知母義１０２號","OBJECTID":144792},"geometry":{"x":179858.71999999974,"y":2547288.2500000019}},{"attributes":{"ID":144793,"DIS_CODE":0,"TOWNNAME":"新化區","LI":"知義里","LIN":" ","STREET":" ","SECT":" ","MAREA":"新和庄","LANE":" ","ALLEY":" ","HOUSE_NO":"１８號之７","E_COORD97":181403.17999999999,"N_COORD97":2546844.2599999998,"ADDRESS":"新和庄１８號之７","OBJECTID":144793},"geometry":{"x":181403.1799999997,"y":2546844.2600000016}},{"attributes":{"ID":144794,"DIS_CODE":0,"TOWNNAME":"新化區","LI":"知義里","LIN":" ","STREET":" ","SECT":" ","MAREA":"新和庄","LANE":" ","ALLEY":" ","HOUSE_NO":"９號之５","E_COORD97":181317.45000000001,"N_COORD97":2546922.2599999998,"ADDRESS":"新和庄９號之５","OBJECTID":144794},"geometry":{"x":181317.45000000019,"y":2546922.2600000016}},{"attributes":{"ID":144795,"DIS_CODE":0,"TOWNNAME":"西港區","LI":"\u25A0林里","LIN":"13鄰","STREET":" ","SECT":" ","MAREA":"太西","LANE":" ","ALLEY":" ","HOUSE_NO":"１號之２９","E_COORD97":170729.45000000001,"N_COORD97":2560305.96,"ADDRESS":"太西１號之２９","OBJECTID":144795},"geometry":{"x":170729.45000000205,"y":2560305.9600000046}},{"attributes":{"ID":144796,"DIS_CODE":0,"TOWNNAME":"西港區","LI":"慶安里","LIN":"1鄰","STREET":" ","SECT":" ","MAREA":"中州","LANE":" ","ALLEY":" ","HOUSE_NO":"１號","E_COORD97":166743.97,"N_COORD97":2559766.79,"ADDRESS":"中州１號","OBJECTID":144796},"geometry":{"x":166743.97000000067,"y":2559766.790000001}},{"attributes":{"ID":144797,"DIS_CODE":0,"TOWNNAME":"西港區","LI":"慶安里","LIN":"3鄰","STREET":" ","SECT":" ","MAREA":"中州","LANE":" ","ALLEY":" ","HOUSE_NO":"２０號之１","E_COORD97":167233.03,"N_COORD97":2559812.3199999998,"ADDRESS":"中州２０號之１","OBJECTID":144797},"geometry":{"x":167233.03000000026,"y":2559812.3200000022}},{"attributes":{"ID":144798,"DIS_CODE":0,"TOWNNAME":"西港區","LI":"慶安里","LIN":"4鄰","STREET":" ","SECT":" ","MAREA":"中州","LANE":" ","ALLEY":" ","HOUSE_NO":"２６號之１０","E_COORD97":167621.73999999999,"N_COORD97":2558087.4700000002,"ADDRESS":"中州２６號之１０","OBJECTID":144798},"geometry":{"x":167621.74000000022,"y":2558087.4700000007}},{"attributes":{"ID":144799,"DIS_CODE":0,"TOWNNAME":"西港區","LI":"慶安里","LIN":"4鄰","STREET":" ","SECT":" ","MAREA":"中州","LANE":" ","ALLEY":" ","HOUSE_NO":"２６號之１５","E_COORD97":167800.79999999999,"N_COORD97":2557997.3399999999,"ADDRESS":"中州２６號之１５","OBJECTID":144799},"geometry":{"x":167800.80000000168,"y":2557997.3400000017}},{"attributes":{"ID":144800,"DIS_CODE":0,"TOWNNAME":"西港區","LI":"慶安里","LIN":"4鄰","STREET":" ","SECT":" ","MAREA":"中州","LANE":" ","ALLEY":" ","HOUSE_NO":"２６號之４","E_COORD97":167718.37,"N_COORD97":2557973.1200000001,"ADDRESS":"中州２６號之４","OBJECTID":144800},"geometry":{"x":167718.37000000104,"y":2557973.1200000029}}]}