{"displayFieldName":"TOWNNAME","fieldAliases":{"ID":"ID","DIS_CODE":"DIS_CODE","TOWNNAME":"TOWNNAME","LI":"LI","LIN":"LIN","STREET":"STREET","SECT":"SECT","MAREA":"MAREA","LANE":"LANE","ALLEY":"ALLEY","HOUSE_NO":"HOUSE_NO","E_COORD97":"E_COORD97","N_COORD97":"N_COORD97","ADDRESS":"ADDRESS","OBJECTID":"OBJECTID"},"geometryType":"esriGeometryPoint","spatialReference":{"wkid":102443,"latestWkid":3826},"fields":[{"name":"ID","type":"esriFieldTypeDouble","alias":"ID"},{"name":"DIS_CODE","type":"esriFieldTypeInteger","alias":"DIS_CODE"},{"name":"TOWNNAME","type":"esriFieldTypeString","alias":"TOWNNAME","length":8},{"name":"LI","type":"esriFieldTypeString","alias":"LI","length":8},{"name":"LIN","type":"esriFieldTypeString","alias":"LIN","length":12},{"name":"STREET","type":"esriFieldTypeString","alias":"STREET","length":20},{"name":"SECT","type":"esriFieldTypeString","alias":"SECT","length":8},{"name":"MAREA","type":"esriFieldTypeString","alias":"MAREA","length":12},{"name":"LANE","type":"esriFieldTypeString","alias":"LANE","length":10},{"name":"ALLEY","type":"esriFieldTypeString","alias":"ALLEY","length":10},{"name":"HOUSE_NO","type":"esriFieldTypeString","alias":"HOUSE_NO","length":20},{"name":"E_COORD97","type":"esriFieldTypeDouble","alias":"E_COORD97"},{"name":"N_COORD97","type":"esriFieldTypeDouble","alias":"N_COORD97"},{"name":"ADDRESS","type":"esriFieldTypeString","alias":"ADDRESS","length":50},{"name":"OBJECTID","type":"esriFieldTypeOID","alias":"OBJECTID"}],"features":[{"attributes":{"ID":274206,"DIS_CODE":0,"TOWNNAME":"官田區","LI":"隆田里","LIN":"19鄰","STREET":"中興路","SECT":" ","MAREA":" ","LANE":" ","ALLEY":" ","HOUSE_NO":"５３號之１","E_COORD97":180646.67999999999,"N_COORD97":2565791.6000000001,"ADDRESS":"中興路５３號之１","OBJECTID":274201},"geometry":{"x":180646.68000000063,"y":2565791.5999999996}},{"attributes":{"ID":274207,"DIS_CODE":0,"TOWNNAME":"官田區","LI":"隆田里","LIN":"19鄰","STREET":"中興路","SECT":" ","MAREA":" ","LANE":" ","ALLEY":" ","HOUSE_NO":"５３號之３６","E_COORD97":180644.48999999999,"N_COORD97":2565769.3300000001,"ADDRESS":"中興路５３號之３６","OBJECTID":274202},"geometry":{"x":180644.49000000209,"y":2565769.3300000019}},{"attributes":{"ID":274208,"DIS_CODE":0,"TOWNNAME":"官田區","LI":"隆田里","LIN":"19鄰","STREET":"中興路","SECT":" ","MAREA":" ","LANE":" ","ALLEY":" ","HOUSE_NO":"５３號之３７","E_COORD97":180645.19,"N_COORD97":2565763.8100000001,"ADDRESS":"中興路５３號之３７","OBJECTID":274203},"geometry":{"x":180645.19000000134,"y":2565763.8100000005}},{"attributes":{"ID":274209,"DIS_CODE":0,"TOWNNAME":"官田區","LI":"隆田里","LIN":"19鄰","STREET":"中興路","SECT":" ","MAREA":" ","LANE":" ","ALLEY":" ","HOUSE_NO":"５３號之３８","E_COORD97":180647.23999999999,"N_COORD97":2565757.4700000002,"ADDRESS":"中興路５３號之３８","OBJECTID":274204},"geometry":{"x":180647.24000000022,"y":2565757.4700000044}},{"attributes":{"ID":274210,"DIS_CODE":0,"TOWNNAME":"官田區","LI":"隆田里","LIN":"19鄰","STREET":"中興路","SECT":" ","MAREA":" ","LANE":" ","ALLEY":" ","HOUSE_NO":"５３號之３９","E_COORD97":180647.47,"N_COORD97":2565751.75,"ADDRESS":"中興路５３號之３９","OBJECTID":274205},"geometry":{"x":180647.4700000016,"y":2565751.7500000037}},{"attributes":{"ID":274211,"DIS_CODE":0,"TOWNNAME":"官田區","LI":"隆田里","LIN":"19鄰","STREET":"中興路","SECT":" ","MAREA":" ","LANE":" ","ALLEY":" ","HOUSE_NO":"５３號之３","E_COORD97":180656.04000000001,"N_COORD97":2565791.9399999999,"ADDRESS":"中興路５３號之３","OBJECTID":274206},"geometry":{"x":180656.04000000097,"y":2565791.9400000013}},{"attributes":{"ID":274212,"DIS_CODE":0,"TOWNNAME":"永康區","LI":"復國里","LIN":"15鄰","STREET":"復國二路","SECT":" ","MAREA":" ","LANE":"１７３巷","ALLEY":" ","HOUSE_NO":"１號","E_COORD97":172925.91,"N_COORD97":2545797.2799999998,"ADDRESS":"復國二路１７３巷１號","OBJECTID":274207},"geometry":{"x":172925.91000000015,"y":2545797.2799999993}},{"attributes":{"ID":274213,"DIS_CODE":0,"TOWNNAME":"永康區","LI":"網寮里","LIN":"15鄰","STREET":"永和街","SECT":" ","MAREA":" ","LANE":"２６０巷","ALLEY":" ","HOUSE_NO":"１８號","E_COORD97":173429.67999999999,"N_COORD97":2546626.5,"ADDRESS":"永和街２６０巷１８號","OBJECTID":274208},"geometry":{"x":173429.68000000156,"y":2546626.5}},{"attributes":{"ID":274214,"DIS_CODE":0,"TOWNNAME":"安南區","LI":"幸福里","LIN":"15鄰","STREET":"府安路","SECT":"六段","MAREA":" ","LANE":"４５巷","ALLEY":" ","HOUSE_NO":"６５號","E_COORD97":166914.95999999999,"N_COORD97":2546825.1800000002,"ADDRESS":"府安路六段４５巷６５號","OBJECTID":274209},"geometry":{"x":166914.96000000183,"y":2546825.1799999997}},{"attributes":{"ID":274215,"DIS_CODE":0,"TOWNNAME":"永康區","LI":"埔園里","LIN":"15鄰","STREET":"龍埔街","SECT":" ","MAREA":" ","LANE":"５３６巷","ALLEY":" ","HOUSE_NO":"１３號","E_COORD97":173539.31,"N_COORD97":2548428.4900000002,"ADDRESS":"龍埔街５３６巷１３號","OBJECTID":274210},"geometry":{"x":173539.31000000052,"y":2548428.4899999984}},{"attributes":{"ID":274216,"DIS_CODE":0,"TOWNNAME":"永康區","LI":"三合里","LIN":"15鄰","STREET":"南工街","SECT":" ","MAREA":" ","LANE":"２４７巷","ALLEY":" ","HOUSE_NO":"９號","E_COORD97":171980.94,"N_COORD97":2545913,"ADDRESS":"南工街２４７巷９號","OBJECTID":274211},"geometry":{"x":171980.94000000227,"y":2545913.0000000019}},{"attributes":{"ID":274217,"DIS_CODE":0,"TOWNNAME":"永康區","LI":"三合里","LIN":"15鄰","STREET":"南工街","SECT":" ","MAREA":" ","LANE":"２４７巷","ALLEY":" ","HOUSE_NO":"２７號","E_COORD97":171974.95999999999,"N_COORD97":2545875.1000000001,"ADDRESS":"南工街２４７巷２７號","OBJECTID":274212},"geometry":{"x":171974.95999999996,"y":2545875.1000000015}},{"attributes":{"ID":274218,"DIS_CODE":0,"TOWNNAME":"永康區","LI":"二王里","LIN":"15鄰","STREET":"忠孝路","SECT":" ","MAREA":" ","LANE":"４５０巷","ALLEY":" ","HOUSE_NO":"３號","E_COORD97":172510.48000000001,"N_COORD97":2546622.52,"ADDRESS":"忠孝路４５０巷３號","OBJECTID":274213},"geometry":{"x":172510.48000000045,"y":2546622.5199999996}},{"attributes":{"ID":274219,"DIS_CODE":0,"TOWNNAME":"永康區","LI":"二王里","LIN":"15鄰","STREET":"忠孝路","SECT":" ","MAREA":" ","LANE":"４６８巷","ALLEY":" ","HOUSE_NO":"１４號","E_COORD97":172543.79000000001,"N_COORD97":2546663.8999999999,"ADDRESS":"忠孝路４６８巷１４號","OBJECTID":274214},"geometry":{"x":172543.79000000004,"y":2546663.9000000022}},{"attributes":{"ID":274220,"DIS_CODE":0,"TOWNNAME":"永康區","LI":"二王里","LIN":"15鄰","STREET":"忠孝路","SECT":" ","MAREA":" ","LANE":"４６８巷","ALLEY":" ","HOUSE_NO":"１０號","E_COORD97":172535.45999999999,"N_COORD97":2546662.3999999999,"ADDRESS":"忠孝路４６８巷１０號","OBJECTID":274215},"geometry":{"x":172535.45999999996,"y":2546662.4000000004}},{"attributes":{"ID":274221,"DIS_CODE":0,"TOWNNAME":"永康區","LI":"二王里","LIN":"15鄰","STREET":"忠孝路","SECT":" ","MAREA":" ","LANE":"４６８巷","ALLEY":" ","HOUSE_NO":"２０號","E_COORD97":172556.47,"N_COORD97":2546664.8999999999,"ADDRESS":"忠孝路４６８巷２０號","OBJECTID":274216},"geometry":{"x":172556.47000000067,"y":2546664.9000000004}},{"attributes":{"ID":274222,"DIS_CODE":0,"TOWNNAME":"永康區","LI":"三合里","LIN":"15鄰","STREET":"南工街","SECT":" ","MAREA":" ","LANE":"２４７巷","ALLEY":" ","HOUSE_NO":"２９號","E_COORD97":171974.26999999999,"N_COORD97":2545870.6000000001,"ADDRESS":"南工街２４７巷２９號","OBJECTID":274217},"geometry":{"x":171974.27000000142,"y":2545870.5999999996}},{"attributes":{"ID":274223,"DIS_CODE":0,"TOWNNAME":"永康區","LI":"二王里","LIN":"15鄰","STREET":"忠孝路","SECT":" ","MAREA":" ","LANE":"４５０巷","ALLEY":" ","HOUSE_NO":"１９號","E_COORD97":172548.53,"N_COORD97":2546624.1699999999,"ADDRESS":"忠孝路４５０巷１９號","OBJECTID":274218},"geometry":{"x":172548.53000000119,"y":2546624.1700000018}},{"attributes":{"ID":274224,"DIS_CODE":0,"TOWNNAME":"永康區","LI":"三合里","LIN":"15鄰","STREET":"南工街","SECT":" ","MAREA":" ","LANE":"２４７巷","ALLEY":" ","HOUSE_NO":"１３號","E_COORD97":171980.64999999999,"N_COORD97":2545905.25,"ADDRESS":"南工街２４７巷１３號","OBJECTID":274219},"geometry":{"x":171980.65000000037,"y":2545905.2500000019}},{"attributes":{"ID":274225,"DIS_CODE":0,"TOWNNAME":"永康區","LI":"三合里","LIN":"15鄰","STREET":"南工街","SECT":" ","MAREA":" ","LANE":"２４７巷","ALLEY":" ","HOUSE_NO":"１號","E_COORD97":171983.84,"N_COORD97":2545929.25,"ADDRESS":"南工街２４７巷１號","OBJECTID":274220},"geometry":{"x":171983.83999999985,"y":2545929.2500000019}},{"attributes":{"ID":274226,"DIS_CODE":0,"TOWNNAME":"永康區","LI":"三合里","LIN":"15鄰","STREET":"南工街","SECT":" ","MAREA":" ","LANE":"２４７巷","ALLEY":" ","HOUSE_NO":"３號","E_COORD97":171983.14999999999,"N_COORD97":2545925.25,"ADDRESS":"南工街２４７巷３號","OBJECTID":274221},"geometry":{"x":171983.1500000013,"y":2545925.2500000019}},{"attributes":{"ID":274227,"DIS_CODE":0,"TOWNNAME":"永康區","LI":"三合里","LIN":"15鄰","STREET":"南工街","SECT":" ","MAREA":" ","LANE":"２４７巷","ALLEY":" ","HOUSE_NO":"１７號","E_COORD97":171978.67999999999,"N_COORD97":2545896.75,"ADDRESS":"南工街２４７巷１７號","OBJECTID":274222},"geometry":{"x":171978.68000000063,"y":2545896.75}},{"attributes":{"ID":274228,"DIS_CODE":0,"TOWNNAME":"永康區","LI":"三合里","LIN":"15鄰","STREET":"南工街","SECT":" ","MAREA":" ","LANE":"２４７巷","ALLEY":" ","HOUSE_NO":"１５號","E_COORD97":171979.69,"N_COORD97":2545900.75,"ADDRESS":"南工街２４７巷１５號","OBJECTID":274223},"geometry":{"x":171979.69000000134,"y":2545900.7500000037}},{"attributes":{"ID":274229,"DIS_CODE":0,"TOWNNAME":"永康區","LI":"二王里","LIN":"15鄰","STREET":"忠孝路","SECT":" ","MAREA":" ","LANE":"４６８巷","ALLEY":" ","HOUSE_NO":"１８號","E_COORD97":172551.89000000001,"N_COORD97":2546664.3999999999,"ADDRESS":"忠孝路４６８巷１８號","OBJECTID":274224},"geometry":{"x":172551.8900000006,"y":2546664.4000000022}},{"attributes":{"ID":274230,"DIS_CODE":0,"TOWNNAME":"永康區","LI":"二王里","LIN":"15鄰","STREET":"忠孝路","SECT":" ","MAREA":" ","LANE":"４５０巷","ALLEY":" ","HOUSE_NO":"９號","E_COORD97":172523.44,"N_COORD97":2546622.02,"ADDRESS":"忠孝路４５０巷９號","OBJECTID":274225},"geometry":{"x":172523.44000000227,"y":2546622.0200000014}},{"attributes":{"ID":274231,"DIS_CODE":0,"TOWNNAME":"安南區","LI":"幸福里","LIN":"15鄰","STREET":"府安路","SECT":"六段","MAREA":" ","LANE":"４５巷","ALLEY":" ","HOUSE_NO":"５２號","E_COORD97":166949.07000000001,"N_COORD97":2546799.2200000002,"ADDRESS":"府安路六段４５巷５２號","OBJECTID":274226},"geometry":{"x":166949.07000000123,"y":2546799.2200000007}},{"attributes":{"ID":274232,"DIS_CODE":0,"TOWNNAME":"安南區","LI":"幸福里","LIN":"15鄰","STREET":"府安路","SECT":"六段","MAREA":" ","LANE":"４５巷","ALLEY":" ","HOUSE_NO":"５３號","E_COORD97":166922.20000000001,"N_COORD97":2546794.4300000002,"ADDRESS":"府安路六段４５巷５３號","OBJECTID":274227},"geometry":{"x":166922.20000000205,"y":2546794.4300000034}},{"attributes":{"ID":274233,"DIS_CODE":0,"TOWNNAME":"官田區","LI":"隆田里","LIN":"19鄰","STREET":"中興路","SECT":" ","MAREA":" ","LANE":" ","ALLEY":" ","HOUSE_NO":"５３號","E_COORD97":180642.20999999999,"N_COORD97":2565791.2599999998,"ADDRESS":"中興路５３號","OBJECTID":274228},"geometry":{"x":180642.20999999996,"y":2565791.2599999998}},{"attributes":{"ID":274234,"DIS_CODE":0,"TOWNNAME":"安南區","LI":"幸福里","LIN":"3鄰","STREET":"國安街","SECT":" ","MAREA":" ","LANE":" ","ALLEY":" ","HOUSE_NO":"７１號","E_COORD97":166962.89000000001,"N_COORD97":2546989.6600000001,"ADDRESS":"國安街７１號","OBJECTID":274229},"geometry":{"x":166962.8900000006,"y":2546989.6599999983}},{"attributes":{"ID":274235,"DIS_CODE":0,"TOWNNAME":"安南區","LI":"幸福里","LIN":"3鄰","STREET":"國安街","SECT":" ","MAREA":" ","LANE":" ","ALLEY":" ","HOUSE_NO":"７５號","E_COORD97":166951.75,"N_COORD97":2546986.9500000002,"ADDRESS":"國安街７５號","OBJECTID":274230},"geometry":{"x":166951.75,"y":2546986.950000003}},{"attributes":{"ID":274236,"DIS_CODE":0,"TOWNNAME":"安南區","LI":"幸福里","LIN":"3鄰","STREET":"國安街","SECT":" ","MAREA":" ","LANE":" ","ALLEY":" ","HOUSE_NO":"８９號","E_COORD97":166918.76000000001,"N_COORD97":2546982.8700000001,"ADDRESS":"國安街８９號","OBJECTID":274231},"geometry":{"x":166918.75999999978,"y":2546982.8700000048}},{"attributes":{"ID":274237,"DIS_CODE":0,"TOWNNAME":"安南區","LI":"青草里","LIN":"3鄰","STREET":"青砂街","SECT":"二段","MAREA":" ","LANE":" ","ALLEY":" ","HOUSE_NO":"３８８號","E_COORD97":158959.14000000001,"N_COORD97":2553073.02,"ADDRESS":"青砂街二段３８８號","OBJECTID":274232},"geometry":{"x":158959.13999999966,"y":2553073.0200000014}},{"attributes":{"ID":274238,"DIS_CODE":0,"TOWNNAME":"安南區","LI":"顯宮里","LIN":"3鄰","STREET":"安中路","SECT":"五段","MAREA":" ","LANE":" ","ALLEY":" ","HOUSE_NO":"２６５號","E_COORD97":162826.56,"N_COORD97":2550938.3999999999,"ADDRESS":"安中路五段２６５號","OBJECTID":274233},"geometry":{"x":162826.55999999959,"y":2550938.4000000041}},{"attributes":{"ID":274239,"DIS_CODE":0,"TOWNNAME":"安南區","LI":"幸福里","LIN":"15鄰","STREET":"府安路","SECT":"六段","MAREA":" ","LANE":"４５巷","ALLEY":" ","HOUSE_NO":"５４號","E_COORD97":166947.89999999999,"N_COORD97":2546805.1800000002,"ADDRESS":"府安路六段４５巷５４號","OBJECTID":274234},"geometry":{"x":166947.90000000037,"y":2546805.1799999997}},{"attributes":{"ID":274240,"DIS_CODE":0,"TOWNNAME":"安南區","LI":"幸福里","LIN":"15鄰","STREET":"府安路","SECT":"六段","MAREA":" ","LANE":"４５巷","ALLEY":" ","HOUSE_NO":"５５號","E_COORD97":166920.56,"N_COORD97":2546798.5299999998,"ADDRESS":"府安路六段４５巷５５號","OBJECTID":274235},"geometry":{"x":166920.55999999959,"y":2546798.5299999993}},{"attributes":{"ID":274241,"DIS_CODE":0,"TOWNNAME":"安南區","LI":"幸福里","LIN":"15鄰","STREET":"府安路","SECT":"六段","MAREA":" ","LANE":"４５巷","ALLEY":" ","HOUSE_NO":"５８號","E_COORD97":166946.01999999999,"N_COORD97":2546815.4300000002,"ADDRESS":"府安路六段４５巷５８號","OBJECTID":274236},"geometry":{"x":166946.01999999955,"y":2546815.4300000016}},{"attributes":{"ID":274242,"DIS_CODE":0,"TOWNNAME":"安南區","LI":"幸福里","LIN":"15鄰","STREET":"府安路","SECT":"六段","MAREA":" ","LANE":"４５巷","ALLEY":" ","HOUSE_NO":"５９號","E_COORD97":166918.29000000001,"N_COORD97":2546811.2400000002,"ADDRESS":"府安路六段４５巷５９號","OBJECTID":274237},"geometry":{"x":166918.29000000097,"y":2546811.2400000021}},{"attributes":{"ID":274243,"DIS_CODE":0,"TOWNNAME":"安南區","LI":"幸福里","LIN":"15鄰","STREET":"府安路","SECT":"六段","MAREA":" ","LANE":"４５巷","ALLEY":" ","HOUSE_NO":"６０號","E_COORD97":166944.97,"N_COORD97":2546820.23,"ADDRESS":"府安路六段４５巷６０號","OBJECTID":274238},"geometry":{"x":166944.96999999974,"y":2546820.2300000042}},{"attributes":{"ID":274244,"DIS_CODE":0,"TOWNNAME":"安南區","LI":"幸福里","LIN":"15鄰","STREET":"府安路","SECT":"六段","MAREA":" ","LANE":"４５巷","ALLEY":" ","HOUSE_NO":"６１號","E_COORD97":166917.73000000001,"N_COORD97":2546815.4500000002,"ADDRESS":"府安路六段４５巷６１號","OBJECTID":274239},"geometry":{"x":166917.73000000138,"y":2546815.4500000011}},{"attributes":{"ID":274245,"DIS_CODE":0,"TOWNNAME":"安南區","LI":"幸福里","LIN":"15鄰","STREET":"府安路","SECT":"六段","MAREA":" ","LANE":"４５巷","ALLEY":" ","HOUSE_NO":"６２號","E_COORD97":166943.56,"N_COORD97":2546824.9500000002,"ADDRESS":"府安路六段４５巷６２號","OBJECTID":274240},"geometry":{"x":166943.56000000052,"y":2546824.9500000011}},{"attributes":{"ID":274246,"DIS_CODE":0,"TOWNNAME":"安南區","LI":"幸福里","LIN":"15鄰","STREET":"府安路","SECT":"六段","MAREA":" ","LANE":"４５巷","ALLEY":" ","HOUSE_NO":"６３號","E_COORD97":166916.07000000001,"N_COORD97":2546820.2000000002,"ADDRESS":"府安路六段４５巷６３號","OBJECTID":274241},"geometry":{"x":166916.0700000003,"y":2546820.2000000011}},{"attributes":{"ID":274247,"DIS_CODE":0,"TOWNNAME":"安南區","LI":"幸福里","LIN":"15鄰","STREET":"府安路","SECT":"六段","MAREA":" ","LANE":"４５巷","ALLEY":" ","HOUSE_NO":"６６號","E_COORD97":166941.22,"N_COORD97":2546835.48,"ADDRESS":"府安路六段４５巷６６號","OBJECTID":274242},"geometry":{"x":166941.21999999974,"y":2546835.4800000042}},{"attributes":{"ID":274248,"DIS_CODE":0,"TOWNNAME":"官田區","LI":"二鎮里","LIN":"1鄰","STREET":"成功街","SECT":" ","MAREA":" ","LANE":" ","ALLEY":" ","HOUSE_NO":"３８號","E_COORD97":181463.12,"N_COORD97":2567519.0699999998,"ADDRESS":"成功街３８號","OBJECTID":274243},"geometry":{"x":181463.12000000011,"y":2567519.0700000003}},{"attributes":{"ID":274249,"DIS_CODE":0,"TOWNNAME":"安南區","LI":"幸福里","LIN":"15鄰","STREET":"府安路","SECT":"六段","MAREA":" ","LANE":"４５巷","ALLEY":" ","HOUSE_NO":"６８號","E_COORD97":166939.92999999999,"N_COORD97":2546841.1000000001,"ADDRESS":"府安路六段４５巷６８號","OBJECTID":274244},"geometry":{"x":166939.9299999997,"y":2546841.1000000015}},{"attributes":{"ID":274250,"DIS_CODE":0,"TOWNNAME":"安南區","LI":"幸福里","LIN":"15鄰","STREET":"府安路","SECT":"六段","MAREA":" ","LANE":"４５巷","ALLEY":" ","HOUSE_NO":"６９號","E_COORD97":166913.53,"N_COORD97":2546834.9100000001,"ADDRESS":"府安路六段４５巷６９號","OBJECTID":274245},"geometry":{"x":166913.53000000119,"y":2546834.9100000001}},{"attributes":{"ID":274251,"DIS_CODE":0,"TOWNNAME":"安南區","LI":"顯宮里","LIN":"3鄰","STREET":"安中路","SECT":"五段","MAREA":" ","LANE":" ","ALLEY":" ","HOUSE_NO":"５０１號","E_COORD97":162272.38,"N_COORD97":2551206.0600000001,"ADDRESS":"安中路五段５０１號","OBJECTID":274246},"geometry":{"x":162272.38000000175,"y":2551206.0600000024}},{"attributes":{"ID":274252,"DIS_CODE":0,"TOWNNAME":"安南區","LI":"幸福里","LIN":"15鄰","STREET":"府安路","SECT":"六段","MAREA":" ","LANE":"４５巷","ALLEY":" ","HOUSE_NO":"７２號","E_COORD97":166939.10999999999,"N_COORD97":2546849.3999999999,"ADDRESS":"府安路六段４５巷７２號","OBJECTID":274247},"geometry":{"x":166939.11000000034,"y":2546849.4000000041}},{"attributes":{"ID":274253,"DIS_CODE":0,"TOWNNAME":"安南區","LI":"幸福里","LIN":"15鄰","STREET":"府安路","SECT":"六段","MAREA":" ","LANE":"４５巷","ALLEY":" ","HOUSE_NO":"７３號","E_COORD97":166911.12,"N_COORD97":2546847.27,"ADDRESS":"府安路六段４５巷７３號","OBJECTID":274248},"geometry":{"x":166911.12000000104,"y":2546847.2700000014}},{"attributes":{"ID":274254,"DIS_CODE":0,"TOWNNAME":"安南區","LI":"幸福里","LIN":"15鄰","STREET":"府安路","SECT":"六段","MAREA":" ","LANE":"４５巷","ALLEY":" ","HOUSE_NO":"７４號","E_COORD97":166937.47,"N_COORD97":2546856.2799999998,"ADDRESS":"府安路六段４５巷７４號","OBJECTID":274249},"geometry":{"x":166937.47000000067,"y":2546856.2800000012}},{"attributes":{"ID":274255,"DIS_CODE":0,"TOWNNAME":"安南區","LI":"幸福里","LIN":"15鄰","STREET":"府安路","SECT":"六段","MAREA":" ","LANE":"４５巷","ALLEY":" ","HOUSE_NO":"７６號","E_COORD97":166936.84,"N_COORD97":2546861.3199999998,"ADDRESS":"府安路六段４５巷７６號","OBJECTID":274250},"geometry":{"x":166936.84000000078,"y":2546861.3200000022}},{"attributes":{"ID":274256,"DIS_CODE":0,"TOWNNAME":"安南區","LI":"幸福里","LIN":"15鄰","STREET":"府安路","SECT":"六段","MAREA":" ","LANE":"４５巷","ALLEY":" ","HOUSE_NO":"７８號","E_COORD97":166934.47,"N_COORD97":2546866.3500000001,"ADDRESS":"府安路六段４５巷７８號","OBJECTID":274251},"geometry":{"x":166934.46999999974,"y":2546866.3500000015}},{"attributes":{"ID":274257,"DIS_CODE":0,"TOWNNAME":"安南區","LI":"幸福里","LIN":"15鄰","STREET":"府安路","SECT":"六段","MAREA":" ","LANE":"４５巷","ALLEY":" ","HOUSE_NO":"７９號","E_COORD97":166908.23999999999,"N_COORD97":2546861.3300000001,"ADDRESS":"府安路六段４５巷７９號","OBJECTID":274252},"geometry":{"x":166908.23999999929,"y":2546861.3300000019}},{"attributes":{"ID":274258,"DIS_CODE":0,"TOWNNAME":"安南區","LI":"幸福里","LIN":"15鄰","STREET":"府安路","SECT":"六段","MAREA":" ","LANE":"４５巷","ALLEY":" ","HOUSE_NO":"８０號","E_COORD97":166934.63,"N_COORD97":2546871.0800000001,"ADDRESS":"府安路六段４５巷８０號","OBJECTID":274253},"geometry":{"x":166934.63000000082,"y":2546871.0800000001}},{"attributes":{"ID":274259,"DIS_CODE":0,"TOWNNAME":"安南區","LI":"溪頂里","LIN":"3鄰","STREET":"府安路","SECT":"四段","MAREA":" ","LANE":" ","ALLEY":" ","HOUSE_NO":"１１５號","E_COORD97":169012.76999999999,"N_COORD97":2547272.29,"ADDRESS":"府安路四段１１５號","OBJECTID":274254},"geometry":{"x":169012.77000000142,"y":2547272.2899999991}},{"attributes":{"ID":274260,"DIS_CODE":0,"TOWNNAME":"安南區","LI":"顯宮里","LIN":"3鄰","STREET":"安中路","SECT":"五段","MAREA":" ","LANE":" ","ALLEY":" ","HOUSE_NO":"４４５號之１","E_COORD97":162432.44,"N_COORD97":2551147.46,"ADDRESS":"安中路五段４４５號之１","OBJECTID":274255},"geometry":{"x":162432.44000000134,"y":2551147.4600000009}},{"attributes":{"ID":274261,"DIS_CODE":0,"TOWNNAME":"安南區","LI":"南興里","LIN":"3鄰","STREET":"安興街","SECT":" ","MAREA":" ","LANE":" ","ALLEY":" ","HOUSE_NO":"３６１號","E_COORD97":163774.10999999999,"N_COORD97":2552315.1200000001,"ADDRESS":"安興街３６１號","OBJECTID":274256},"geometry":{"x":163774.11000000034,"y":2552315.1200000029}},{"attributes":{"ID":274262,"DIS_CODE":0,"TOWNNAME":"安南區","LI":"南興里","LIN":"3鄰","STREET":"安興街","SECT":" ","MAREA":" ","LANE":" ","ALLEY":" ","HOUSE_NO":"３６３號","E_COORD97":163768.32999999999,"N_COORD97":2552315.1200000001,"ADDRESS":"安興街３６３號","OBJECTID":274257},"geometry":{"x":163768.33000000101,"y":2552315.1200000029}},{"attributes":{"ID":274263,"DIS_CODE":0,"TOWNNAME":"安南區","LI":"南興里","LIN":"3鄰","STREET":"安興街","SECT":" ","MAREA":" ","LANE":" ","ALLEY":" ","HOUSE_NO":"３６９號","E_COORD97":163747.79999999999,"N_COORD97":2552318.27,"ADDRESS":"安興街３６９號","OBJECTID":274258},"geometry":{"x":163747.80000000075,"y":2552318.2700000033}},{"attributes":{"ID":274264,"DIS_CODE":0,"TOWNNAME":"安南區","LI":"南興里","LIN":"3鄰","STREET":"安興街","SECT":" ","MAREA":" ","LANE":" ","ALLEY":" ","HOUSE_NO":"３６７號","E_COORD97":163751.48999999999,"N_COORD97":2552320.8999999999,"ADDRESS":"安興街３６７號","OBJECTID":274259},"geometry":{"x":163751.49000000022,"y":2552320.9000000004}},{"attributes":{"ID":274265,"DIS_CODE":0,"TOWNNAME":"安南區","LI":"城東里","LIN":"3鄰","STREET":"城北路","SECT":" ","MAREA":" ","LANE":" ","ALLEY":" ","HOUSE_NO":"２００號之２","E_COORD97":161000.57999999999,"N_COORD97":2551802.1699999999,"ADDRESS":"城北路２００號之２","OBJECTID":274260},"geometry":{"x":161000.58000000101,"y":2551802.1700000018}},{"attributes":{"ID":274266,"DIS_CODE":0,"TOWNNAME":"中西區","LI":"五妃里","LIN":"15鄰","STREET":"慶中街","SECT":" ","MAREA":" ","LANE":"２０６巷","ALLEY":" ","HOUSE_NO":"１３號","E_COORD97":168607.35999999999,"N_COORD97":2542818.5600000001,"ADDRESS":"慶中街２０６巷１３號","OBJECTID":274261},"geometry":{"x":168607.36000000034,"y":2542818.5600000024}},{"attributes":{"ID":274267,"DIS_CODE":0,"TOWNNAME":"永康區","LI":"正強里","LIN":"4鄰","STREET":"正義街","SECT":" ","MAREA":" ","LANE":" ","ALLEY":" ","HOUSE_NO":"２號","E_COORD97":173636.69,"N_COORD97":2547734.0099999998,"ADDRESS":"正義街２號","OBJECTID":274262},"geometry":{"x":173636.69000000041,"y":2547734.0100000016}},{"attributes":{"ID":274268,"DIS_CODE":0,"TOWNNAME":"中西區","LI":"五妃里","LIN":"15鄰","STREET":"慶中街","SECT":" ","MAREA":" ","LANE":"２０６巷","ALLEY":" ","HOUSE_NO":"８號","E_COORD97":168586.16,"N_COORD97":2542812.3100000001,"ADDRESS":"慶中街２０６巷８號","OBJECTID":274263},"geometry":{"x":168586.16000000108,"y":2542812.3100000042}},{"attributes":{"ID":274269,"DIS_CODE":0,"TOWNNAME":"中西區","LI":"五妃里","LIN":"15鄰","STREET":"樹林街","SECT":"二段","MAREA":" ","LANE":"３５巷","ALLEY":" ","HOUSE_NO":"１２號","E_COORD97":168621.28,"N_COORD97":2542842.3900000001,"ADDRESS":"樹林街二段３５巷１２號","OBJECTID":274264},"geometry":{"x":168621.28000000026,"y":2542842.3900000043}},{"attributes":{"ID":274270,"DIS_CODE":0,"TOWNNAME":"中西區","LI":"五妃里","LIN":"15鄰","STREET":"樹林街","SECT":"二段","MAREA":" ","LANE":"３５巷","ALLEY":" ","HOUSE_NO":"１８號","E_COORD97":168621.53,"N_COORD97":2542819.1899999999,"ADDRESS":"樹林街二段３５巷１８號","OBJECTID":274265},"geometry":{"x":168621.53000000026,"y":2542819.1900000013}},{"attributes":{"ID":274271,"DIS_CODE":0,"TOWNNAME":"南區","LI":"再興里","LIN":"15鄰","STREET":"三官路","SECT":" ","MAREA":" ","LANE":"２２２巷","ALLEY":" ","HOUSE_NO":"１９號","E_COORD97":167115.09,"N_COORD97":2542048.0499999998,"ADDRESS":"三官路２２２巷１９號","OBJECTID":274266},"geometry":{"x":167115.08999999985,"y":2542048.0500000045}},{"attributes":{"ID":274272,"DIS_CODE":0,"TOWNNAME":"中西區","LI":"永華里","LIN":"15鄰","STREET":"友愛街","SECT":" ","MAREA":" ","LANE":"１５巷","ALLEY":" ","HOUSE_NO":"１號","E_COORD97":168573.97,"N_COORD97":2543487.1600000001,"ADDRESS":"友愛街１５巷１號","OBJECTID":274267},"geometry":{"x":168573.96999999974,"y":2543487.1600000001}},{"attributes":{"ID":274273,"DIS_CODE":0,"TOWNNAME":"大內區","LI":"二溪里","LIN":"3鄰","STREET":" ","SECT":" ","MAREA":"二重溪","LANE":" ","ALLEY":" ","HOUSE_NO":"１５４之１００號","E_COORD97":188887.34,"N_COORD97":2557877.3100000001,"ADDRESS":"二重溪１５４之１００號","OBJECTID":274268},"geometry":{"x":188887.34000000078,"y":2557877.3100000024}},{"attributes":{"ID":274274,"DIS_CODE":0,"TOWNNAME":"大內區","LI":"內郭里","LIN":"3鄰","STREET":" ","SECT":" ","MAREA":"內庄","LANE":" ","ALLEY":" ","HOUSE_NO":"１７３號之１","E_COORD97":184749.70999999999,"N_COORD97":2557392.2999999998,"ADDRESS":"內庄１７３號之１","OBJECTID":274269},"geometry":{"x":184749.70999999996,"y":2557392.3000000026}},{"attributes":{"ID":274275,"DIS_CODE":0,"TOWNNAME":"大內區","LI":"二溪里","LIN":"3鄰","STREET":" ","SECT":" ","MAREA":"二重溪","LANE":" ","ALLEY":" ","HOUSE_NO":"１５４號","E_COORD97":187793.23999999999,"N_COORD97":2557968.3100000001,"ADDRESS":"二重溪１５４號","OBJECTID":274270},"geometry":{"x":187793.24000000115,"y":2557968.3100000024}},{"attributes":{"ID":274276,"DIS_CODE":0,"TOWNNAME":"大內區","LI":"二溪里","LIN":"3鄰","STREET":" ","SECT":" ","MAREA":"二重溪","LANE":" ","ALLEY":" ","HOUSE_NO":"１６１號之２","E_COORD97":187747.01000000001,"N_COORD97":2558063.3100000001,"ADDRESS":"二重溪１６１號之２","OBJECTID":274271},"geometry":{"x":187747.01000000071,"y":2558063.3100000024}},{"attributes":{"ID":274277,"DIS_CODE":0,"TOWNNAME":"大內區","LI":"二溪里","LIN":"3鄰","STREET":" ","SECT":" ","MAREA":"二重溪","LANE":" ","ALLEY":" ","HOUSE_NO":"１５５號","E_COORD97":187758.64000000001,"N_COORD97":2557983.3100000001,"ADDRESS":"二重溪１５５號","OBJECTID":274272},"geometry":{"x":187758.63999999966,"y":2557983.3100000005}},{"attributes":{"ID":274278,"DIS_CODE":0,"TOWNNAME":"大內區","LI":"二溪里","LIN":"3鄰","STREET":" ","SECT":" ","MAREA":"二重溪","LANE":" ","ALLEY":" ","HOUSE_NO":"１５５號之３","E_COORD97":187751.37,"N_COORD97":2557979.3100000001,"ADDRESS":"二重溪１５５號之３","OBJECTID":274273},"geometry":{"x":187751.37000000197,"y":2557979.3100000005}},{"attributes":{"ID":274279,"DIS_CODE":0,"TOWNNAME":"中西區","LI":"協和里","LIN":"3鄰","STREET":"文賢路","SECT":" ","MAREA":" ","LANE":" ","ALLEY":" ","HOUSE_NO":"２９號","E_COORD97":167407.98000000001,"N_COORD97":2544496.0800000001,"ADDRESS":"文賢路２９號","OBJECTID":274274},"geometry":{"x":167407.98000000045,"y":2544496.0800000019}},{"attributes":{"ID":274280,"DIS_CODE":0,"TOWNNAME":"中西區","LI":"協和里","LIN":"3鄰","STREET":"文賢路","SECT":" ","MAREA":" ","LANE":" ","ALLEY":" ","HOUSE_NO":"５９號之１","E_COORD97":167389.34,"N_COORD97":2544574.27,"ADDRESS":"文賢路５９號之１","OBJECTID":274275},"geometry":{"x":167389.34000000078,"y":2544574.2699999996}},{"attributes":{"ID":274281,"DIS_CODE":0,"TOWNNAME":"官田區","LI":"二鎮里","LIN":"1鄰","STREET":"成功街","SECT":" ","MAREA":" ","LANE":" ","ALLEY":" ","HOUSE_NO":"４２號","E_COORD97":181520.73999999999,"N_COORD97":2567520.4100000001,"ADDRESS":"成功街４２號","OBJECTID":274276},"geometry":{"x":181520.73999999929,"y":2567520.4100000039}},{"attributes":{"ID":274282,"DIS_CODE":0,"TOWNNAME":"官田區","LI":"隆田里","LIN":"15鄰","STREET":"四維街","SECT":" ","MAREA":" ","LANE":" ","ALLEY":" ","HOUSE_NO":"６６號","E_COORD97":180261.28,"N_COORD97":2566169.73,"ADDRESS":"四維街６６號","OBJECTID":274277},"geometry":{"x":180261.28000000119,"y":2566169.7300000023}},{"attributes":{"ID":274283,"DIS_CODE":0,"TOWNNAME":"官田區","LI":"隆田里","LIN":"15鄰","STREET":"四維街","SECT":" ","MAREA":" ","LANE":" ","ALLEY":" ","HOUSE_NO":"７號","E_COORD97":180281.62,"N_COORD97":2566192.3700000001,"ADDRESS":"四維街７號","OBJECTID":274278},"geometry":{"x":180281.62000000011,"y":2566192.3699999992}},{"attributes":{"ID":274284,"DIS_CODE":0,"TOWNNAME":"官田區","LI":"二鎮里","LIN":"1鄰","STREET":"成功街","SECT":" ","MAREA":" ","LANE":" ","ALLEY":" ","HOUSE_NO":"４０號","E_COORD97":181491.54999999999,"N_COORD97":2567515.6800000002,"ADDRESS":"成功街４０號","OBJECTID":274279},"geometry":{"x":181491.55000000075,"y":2567515.6800000016}},{"attributes":{"ID":274285,"DIS_CODE":0,"TOWNNAME":"仁德區","LI":"一甲里","LIN":"20鄰","STREET":"太乙五街","SECT":" ","MAREA":" ","LANE":" ","ALLEY":" ","HOUSE_NO":"４６號","E_COORD97":173212.32000000001,"N_COORD97":2542099.7599999998,"ADDRESS":"太乙五街４６號","OBJECTID":274280},"geometry":{"x":173212.32000000216,"y":2542099.7599999979}},{"attributes":{"ID":274286,"DIS_CODE":0,"TOWNNAME":"仁德區","LI":"太子里","LIN":"15鄰","STREET":"太子北路","SECT":" ","MAREA":" ","LANE":"１２６巷","ALLEY":" ","HOUSE_NO":"１８號","E_COORD97":174078.70000000001,"N_COORD97":2543708.25,"ADDRESS":"太子北路１２６巷１８號","OBJECTID":274281},"geometry":{"x":174078.70000000019,"y":2543708.2500000019}},{"attributes":{"ID":274287,"DIS_CODE":0,"TOWNNAME":"仁德區","LI":"保安里","LIN":"15鄰","STREET":"文賢路","SECT":"二段","MAREA":" ","LANE":"１８巷","ALLEY":" ","HOUSE_NO":"６號","E_COORD97":171684.23000000001,"N_COORD97":2535805.3199999998,"ADDRESS":"文賢路二段１８巷６號","OBJECTID":274282},"geometry":{"x":171684.23000000138,"y":2535805.3200000022}},{"attributes":{"ID":274288,"DIS_CODE":0,"TOWNNAME":"仁德區","LI":"太子里","LIN":"15鄰","STREET":"太子北路","SECT":" ","MAREA":" ","LANE":"１３２巷","ALLEY":" ","HOUSE_NO":"１２號","E_COORD97":174071.12,"N_COORD97":2543734.7599999998,"ADDRESS":"太子北路１３２巷１２號","OBJECTID":274283},"geometry":{"x":174071.12000000197,"y":2543734.7600000016}},{"attributes":{"ID":274289,"DIS_CODE":0,"TOWNNAME":"仁德區","LI":"保安里","LIN":"15鄰","STREET":"文賢路","SECT":"二段","MAREA":" ","LANE":"１８巷","ALLEY":" ","HOUSE_NO":"９號","E_COORD97":171690.28,"N_COORD97":2535793.0699999998,"ADDRESS":"文賢路二段１８巷９號","OBJECTID":274284},"geometry":{"x":171690.28000000212,"y":2535793.0700000022}},{"attributes":{"ID":274290,"DIS_CODE":0,"TOWNNAME":"仁德區","LI":"保安里","LIN":"15鄰","STREET":"文賢路","SECT":"二段","MAREA":" ","LANE":"１８巷","ALLEY":" ","HOUSE_NO":"５號","E_COORD97":171696.76000000001,"N_COORD97":2535799.3199999998,"ADDRESS":"文賢路二段１８巷５號","OBJECTID":274285},"geometry":{"x":171696.76000000071,"y":2535799.3200000003}},{"attributes":{"ID":274291,"DIS_CODE":0,"TOWNNAME":"仁德區","LI":"一甲里","LIN":"20鄰","STREET":"太乙三街","SECT":" ","MAREA":" ","LANE":" ","ALLEY":" ","HOUSE_NO":"１０號","E_COORD97":173381.28,"N_COORD97":2542433,"ADDRESS":"太乙三街１０號","OBJECTID":274286},"geometry":{"x":173381.28000000026,"y":2542433}},{"attributes":{"ID":274292,"DIS_CODE":0,"TOWNNAME":"仁德區","LI":"一甲里","LIN":"20鄰","STREET":"太乙六街","SECT":" ","MAREA":" ","LANE":" ","ALLEY":" ","HOUSE_NO":"５９號","E_COORD97":173204.85000000001,"N_COORD97":2542254,"ADDRESS":"太乙六街５９號","OBJECTID":274287},"geometry":{"x":173204.85000000056,"y":2542254}},{"attributes":{"ID":274293,"DIS_CODE":0,"TOWNNAME":"仁德區","LI":"土庫里","LIN":"13鄰","STREET":"土庫路","SECT":" ","MAREA":" ","LANE":" ","ALLEY":" ","HOUSE_NO":"１９１號","E_COORD97":174325.13,"N_COORD97":2542935.4900000002,"ADDRESS":"土庫路１９１號","OBJECTID":274288},"geometry":{"x":174325.13000000175,"y":2542935.4900000002}},{"attributes":{"ID":274294,"DIS_CODE":0,"TOWNNAME":"仁德區","LI":"土庫里","LIN":"14鄰","STREET":"土庫路","SECT":" ","MAREA":" ","LANE":" ","ALLEY":" ","HOUSE_NO":"１７７號","E_COORD97":174351.29000000001,"N_COORD97":2542966.9900000002,"ADDRESS":"土庫路１７７號","OBJECTID":274289},"geometry":{"x":174351.2900000019,"y":2542966.9900000039}},{"attributes":{"ID":274295,"DIS_CODE":0,"TOWNNAME":"仁德區","LI":"大甲里","LIN":"14鄰","STREET":"行大一街","SECT":" ","MAREA":" ","LANE":" ","ALLEY":" ","HOUSE_NO":"３３２號","E_COORD97":169566.70000000001,"N_COORD97":2535174.4900000002,"ADDRESS":"行大一街３３２號","OBJECTID":274290},"geometry":{"x":169566.70000000205,"y":2535174.4900000002}},{"attributes":{"ID":274296,"DIS_CODE":0,"TOWNNAME":"仁德區","LI":"保安里","LIN":"15鄰","STREET":"文賢路","SECT":"二段","MAREA":" ","LANE":"１８巷","ALLEY":" ","HOUSE_NO":"４號","E_COORD97":171687.67999999999,"N_COORD97":2535808.3199999998,"ADDRESS":"文賢路二段１８巷４號","OBJECTID":274291},"geometry":{"x":171687.68000000063,"y":2535808.3200000022}},{"attributes":{"ID":274297,"DIS_CODE":0,"TOWNNAME":"仁德區","LI":"保安里","LIN":"15鄰","STREET":"文賢路","SECT":"二段","MAREA":" ","LANE":"１８巷","ALLEY":" ","HOUSE_NO":"１１號","E_COORD97":171688.44,"N_COORD97":2535789.8199999998,"ADDRESS":"文賢路二段１８巷１１號","OBJECTID":274292},"geometry":{"x":171688.44000000041,"y":2535789.8200000003}},{"attributes":{"ID":274298,"DIS_CODE":0,"TOWNNAME":"仁德區","LI":"後壁里","LIN":"15鄰","STREET":"德善路","SECT":" ","MAREA":" ","LANE":"１０８巷","ALLEY":" ","HOUSE_NO":"２４號","E_COORD97":173483.41,"N_COORD97":2538740.27,"ADDRESS":"德善路１０８巷２４號","OBJECTID":274293},"geometry":{"x":173483.41000000108,"y":2538740.2700000014}},{"attributes":{"ID":274299,"DIS_CODE":0,"TOWNNAME":"仁德區","LI":"後壁里","LIN":"15鄰","STREET":"德善路","SECT":" ","MAREA":" ","LANE":"１０８巷","ALLEY":" ","HOUSE_NO":"１４號","E_COORD97":173471.98000000001,"N_COORD97":2538791.0099999998,"ADDRESS":"德善路１０８巷１４號","OBJECTID":274294},"geometry":{"x":173471.98000000045,"y":2538791.0099999998}},{"attributes":{"ID":274300,"DIS_CODE":0,"TOWNNAME":"仁德區","LI":"後壁里","LIN":"15鄰","STREET":"德善路","SECT":" ","MAREA":" ","LANE":"１０８巷","ALLEY":" ","HOUSE_NO":"３６號","E_COORD97":173498.62,"N_COORD97":2538748.27,"ADDRESS":"德善路１０８巷３６號","OBJECTID":274295},"geometry":{"x":173498.62000000104,"y":2538748.2699999996}},{"attributes":{"ID":274301,"DIS_CODE":0,"TOWNNAME":"仁德區","LI":"新田里","LIN":"15鄰","STREET":"北保東路","SECT":" ","MAREA":" ","LANE":"８巷","ALLEY":" ","HOUSE_NO":"１１號","E_COORD97":173367.03,"N_COORD97":2539372.75,"ADDRESS":"北保東路８巷１１號","OBJECTID":274296},"geometry":{"x":173367.03000000119,"y":2539372.75}},{"attributes":{"ID":274302,"DIS_CODE":0,"TOWNNAME":"安南區","LI":"顯宮里","LIN":"5鄰","STREET":"媽祖宮二街","SECT":" ","MAREA":" ","LANE":" ","ALLEY":" ","HOUSE_NO":"１０６號","E_COORD97":160653.653215,"N_COORD97":2548926.65172,"ADDRESS":"媽祖宮二街１０６號","OBJECTID":274297},"geometry":{"x":160653.65321499947,"y":2548926.651718}},{"attributes":{"ID":274303,"DIS_CODE":0,"TOWNNAME":"永康區","LI":"中興里","LIN":"15鄰","STREET":"中興街","SECT":" ","MAREA":" ","LANE":"９１巷","ALLEY":" ","HOUSE_NO":"２２號","E_COORD97":171999.82000000001,"N_COORD97":2545357.9900000002,"ADDRESS":"中興街９１巷２２號","OBJECTID":274298},"geometry":{"x":171999.8200000003,"y":2545357.9900000021}},{"attributes":{"ID":274304,"DIS_CODE":0,"TOWNNAME":"南區","LI":"大林里","LIN":"13鄰","STREET":"國民路","SECT":" ","MAREA":" ","LANE":"５１１巷","ALLEY":" ","HOUSE_NO":"４８號","E_COORD97":168587.92999999999,"N_COORD97":2541319.9900000002,"ADDRESS":"國民路５１１巷４８號","OBJECTID":274299},"geometry":{"x":168587.9299999997,"y":2541319.9900000021}},{"attributes":{"ID":274305,"DIS_CODE":0,"TOWNNAME":"南區","LI":"明興里","LIN":"14鄰","STREET":"金華路","SECT":"一段","MAREA":" ","LANE":"３０巷","ALLEY":" ","HOUSE_NO":"２９號","E_COORD97":166971.45999999999,"N_COORD97":2540332.54,"ADDRESS":"金華路一段３０巷２９號","OBJECTID":274300},"geometry":{"x":166971.46000000089,"y":2540332.540000001}},{"attributes":{"ID":274306,"DIS_CODE":0,"TOWNNAME":"仁德區","LI":"土庫里","LIN":"18鄰","STREET":"土庫一街","SECT":" ","MAREA":" ","LANE":" ","ALLEY":" ","HOUSE_NO":"６５號","E_COORD97":174576.89000000001,"N_COORD97":2543135.5,"ADDRESS":"土庫一街６５號","OBJECTID":274301},"geometry":{"x":174576.88999999966,"y":2543135.5}},{"attributes":{"ID":274307,"DIS_CODE":0,"TOWNNAME":"大內區","LI":"二溪里","LIN":"3鄰","STREET":" ","SECT":" ","MAREA":"二重溪","LANE":" ","ALLEY":" ","HOUSE_NO":"１５１號","E_COORD97":187773.54000000001,"N_COORD97":2557912.3100000001,"ADDRESS":"二重溪１５１號","OBJECTID":274302},"geometry":{"x":187773.54000000004,"y":2557912.3100000005}},{"attributes":{"ID":274308,"DIS_CODE":0,"TOWNNAME":"大內區","LI":"大內里","LIN":"3鄰","STREET":" ","SECT":" ","MAREA":"內庄","LANE":" ","ALLEY":" ","HOUSE_NO":"３５號","E_COORD97":184613.92999999999,"N_COORD97":2557467.2400000002,"ADDRESS":"內庄３５號","OBJECTID":274303},"geometry":{"x":184613.9299999997,"y":2557467.2400000021}},{"attributes":{"ID":274309,"DIS_CODE":0,"TOWNNAME":"南區","LI":"文南里","LIN":"7鄰","STREET":"健康路","SECT":"二段","MAREA":" ","LANE":"２５２巷","ALLEY":" ","HOUSE_NO":"２０號","E_COORD97":167023.89999999999,"N_COORD97":2542557.46,"ADDRESS":"健康路二段２５２巷２０號","OBJECTID":274304},"geometry":{"x":167023.90000000037,"y":2542557.4600000046}},{"attributes":{"ID":274310,"DIS_CODE":0,"TOWNNAME":"永康區","LI":"正強里","LIN":"15鄰","STREET":"正強街","SECT":" ","MAREA":" ","LANE":"７１巷","ALLEY":" ","HOUSE_NO":"２２號","E_COORD97":173288.67000000001,"N_COORD97":2547321.4199999999,"ADDRESS":"正強街７１巷２２號","OBJECTID":274305},"geometry":{"x":173288.66999999993,"y":2547321.4200000018}},{"attributes":{"ID":274311,"DIS_CODE":0,"TOWNNAME":"永康區","LI":"王行里","LIN":"15鄰","STREET":"龍昌街","SECT":" ","MAREA":" ","LANE":"１０７巷","ALLEY":" ","HOUSE_NO":"１號","E_COORD97":174928.19,"N_COORD97":2548124.1800000002,"ADDRESS":"龍昌街１０７巷１號","OBJECTID":274306},"geometry":{"x":174928.19000000041,"y":2548124.1799999997}},{"attributes":{"ID":274312,"DIS_CODE":0,"TOWNNAME":"永康區","LI":"\u25A0洲里","LIN":"3鄰","STREET":"\u25A0洲二街","SECT":" ","MAREA":" ","LANE":" ","ALLEY":" ","HOUSE_NO":"２０８之５號","E_COORD97":171782.75,"N_COORD97":2549420.3900000001,"ADDRESS":"\u25A0洲二街２０８之５號","OBJECTID":274307},"geometry":{"x":171782.75,"y":2549420.3900000025}},{"attributes":{"ID":274313,"DIS_CODE":0,"TOWNNAME":"永康區","LI":"永康里","LIN":"3鄰","STREET":"中山路","SECT":" ","MAREA":" ","LANE":" ","ALLEY":" ","HOUSE_NO":"２６號","E_COORD97":173863.45999999999,"N_COORD97":2547446.9100000001,"ADDRESS":"中山路２６號","OBJECTID":274308},"geometry":{"x":173863.45999999996,"y":2547446.910000002}},{"attributes":{"ID":274314,"DIS_CODE":0,"TOWNNAME":"永康區","LI":"\u25A0洲里","LIN":"3鄰","STREET":"\u25A0行路","SECT":" ","MAREA":" ","LANE":" ","ALLEY":" ","HOUSE_NO":"６０號","E_COORD97":171622.26000000001,"N_COORD97":2549233.73,"ADDRESS":"\u25A0行路６０號","OBJECTID":274309},"geometry":{"x":171622.26000000071,"y":2549233.7300000004}},{"attributes":{"ID":274315,"DIS_CODE":0,"TOWNNAME":"永康區","LI":"\u25A0洲里","LIN":"3鄰","STREET":"\u25A0行路","SECT":" ","MAREA":" ","LANE":" ","ALLEY":" ","HOUSE_NO":"５２號","E_COORD97":171641,"N_COORD97":2549207.1499999999,"ADDRESS":"\u25A0行路５２號","OBJECTID":274310},"geometry":{"x":171641.00000000186,"y":2549207.1500000004}},{"attributes":{"ID":274316,"DIS_CODE":0,"TOWNNAME":"永康區","LI":"五王里","LIN":"15鄰","STREET":"中華二路","SECT":" ","MAREA":" ","LANE":"２０６巷","ALLEY":" ","HOUSE_NO":"７２號","E_COORD97":171590.60999999999,"N_COORD97":2545672.3199999998,"ADDRESS":"中華二路２０６巷７２號","OBJECTID":274311},"geometry":{"x":171590.61000000034,"y":2545672.3200000003}},{"attributes":{"ID":274317,"DIS_CODE":0,"TOWNNAME":"永康區","LI":"中華里","LIN":"3鄰","STREET":"小東路","SECT":" ","MAREA":" ","LANE":" ","ALLEY":" ","HOUSE_NO":"６４９號","E_COORD97":171947.60999999999,"N_COORD97":2544341.8300000001,"ADDRESS":"小東路６４９號","OBJECTID":274312},"geometry":{"x":171947.61000000127,"y":2544341.8300000019}},{"attributes":{"ID":274318,"DIS_CODE":0,"TOWNNAME":"永康區","LI":"王行里","LIN":"15鄰","STREET":"龍昌街","SECT":" ","MAREA":" ","LANE":"８５巷","ALLEY":" ","HOUSE_NO":"７號","E_COORD97":174953.22,"N_COORD97":2548099.7599999998,"ADDRESS":"龍昌街８５巷７號","OBJECTID":274313},"geometry":{"x":174953.21999999881,"y":2548099.7599999998}},{"attributes":{"ID":274319,"DIS_CODE":0,"TOWNNAME":"永康區","LI":"王行里","LIN":"15鄰","STREET":"龍昌街","SECT":" ","MAREA":" ","LANE":"１０７巷","ALLEY":" ","HOUSE_NO":"４號","E_COORD97":174916.97,"N_COORD97":2548141.1400000001,"ADDRESS":"龍昌街１０７巷４號","OBJECTID":274314},"geometry":{"x":174916.96999999974,"y":2548141.1400000025}},{"attributes":{"ID":274320,"DIS_CODE":0,"TOWNNAME":"永康區","LI":"中華里","LIN":"3鄰","STREET":"小東路","SECT":" ","MAREA":" ","LANE":" ","ALLEY":" ","HOUSE_NO":"６５３號","E_COORD97":171957.53,"N_COORD97":2544341.8300000001,"ADDRESS":"小東路６５３號","OBJECTID":274315},"geometry":{"x":171957.53000000026,"y":2544341.8300000019}},{"attributes":{"ID":274321,"DIS_CODE":0,"TOWNNAME":"永康區","LI":"中華里","LIN":"3鄰","STREET":"小東路","SECT":" ","MAREA":" ","LANE":" ","ALLEY":" ","HOUSE_NO":"６５１號","E_COORD97":171953.14999999999,"N_COORD97":2544341.8300000001,"ADDRESS":"小東路６５１號","OBJECTID":274316},"geometry":{"x":171953.15000000037,"y":2544341.8300000019}},{"attributes":{"ID":274322,"DIS_CODE":0,"TOWNNAME":"永康區","LI":"中興里","LIN":"15鄰","STREET":"中興街","SECT":" ","MAREA":" ","LANE":"９１巷","ALLEY":" ","HOUSE_NO":"１０號","E_COORD97":172038.42999999999,"N_COORD97":2545358.4100000001,"ADDRESS":"中興街９１巷１０號","OBJECTID":274317},"geometry":{"x":172038.43000000063,"y":2545358.410000002}},{"attributes":{"ID":274323,"DIS_CODE":0,"TOWNNAME":"永康區","LI":"中華里","LIN":"3鄰","STREET":"小東路","SECT":" ","MAREA":" ","LANE":" ","ALLEY":" ","HOUSE_NO":"６７１號","E_COORD97":172000.17999999999,"N_COORD97":2544341.1699999999,"ADDRESS":"小東路６７１號","OBJECTID":274318},"geometry":{"x":172000.1799999997,"y":2544341.1699999999}},{"attributes":{"ID":274324,"DIS_CODE":0,"TOWNNAME":"永康區","LI":"中華里","LIN":"3鄰","STREET":"小東路","SECT":" ","MAREA":" ","LANE":" ","ALLEY":" ","HOUSE_NO":"６７５號","E_COORD97":172008.79000000001,"N_COORD97":2544341.02,"ADDRESS":"小東路６７５號","OBJECTID":274319},"geometry":{"x":172008.79000000097,"y":2544341.0199999996}},{"attributes":{"ID":274325,"DIS_CODE":0,"TOWNNAME":"永康區","LI":"二王里","LIN":"3鄰","STREET":"永二街","SECT":" ","MAREA":" ","LANE":" ","ALLEY":" ","HOUSE_NO":"３３６號之２","E_COORD97":172998.06,"N_COORD97":2546617.2200000002,"ADDRESS":"永二街３３６號之２","OBJECTID":274320},"geometry":{"x":172998.06000000145,"y":2546617.2200000044}},{"attributes":{"ID":274326,"DIS_CODE":0,"TOWNNAME":"永康區","LI":"二王里","LIN":"3鄰","STREET":"永二街","SECT":" ","MAREA":" ","LANE":" ","ALLEY":" ","HOUSE_NO":"３１２號","E_COORD97":173025.64999999999,"N_COORD97":2546566.4900000002,"ADDRESS":"永二街３１２號","OBJECTID":274321},"geometry":{"x":173025.6500000013,"y":2546566.4900000002}},{"attributes":{"ID":274327,"DIS_CODE":0,"TOWNNAME":"永康區","LI":"王行里","LIN":"15鄰","STREET":"龍昌街","SECT":" ","MAREA":" ","LANE":"１２０巷","ALLEY":" ","HOUSE_NO":"１６號","E_COORD97":175060.79999999999,"N_COORD97":2548053.4399999999,"ADDRESS":"龍昌街１２０巷１６號","OBJECTID":274322},"geometry":{"x":175060.79999999981,"y":2548053.4400000013}},{"attributes":{"ID":274328,"DIS_CODE":0,"TOWNNAME":"永康區","LI":"王行里","LIN":"15鄰","STREET":"龍昌街","SECT":" ","MAREA":" ","LANE":"１０７巷","ALLEY":" ","HOUSE_NO":"５號","E_COORD97":174925.10000000001,"N_COORD97":2548116.4300000002,"ADDRESS":"龍昌街１０７巷５號","OBJECTID":274323},"geometry":{"x":174925.0999999987,"y":2548116.4299999978}},{"attributes":{"ID":274329,"DIS_CODE":0,"TOWNNAME":"永康區","LI":"王行里","LIN":"15鄰","STREET":"龍潭街","SECT":" ","MAREA":" ","LANE":"１４４巷","ALLEY":" ","HOUSE_NO":"２３號","E_COORD97":174937.09,"N_COORD97":2548090.98,"ADDRESS":"龍潭街１４４巷２３號","OBJECTID":274324},"geometry":{"x":174937.08999999985,"y":2548090.9800000023}},{"attributes":{"ID":274330,"DIS_CODE":0,"TOWNNAME":"永康區","LI":"王行里","LIN":"15鄰","STREET":"龍昌街","SECT":" ","MAREA":" ","LANE":"１２０巷","ALLEY":" ","HOUSE_NO":"２０號","E_COORD97":175070.98999999999,"N_COORD97":2548054.96,"ADDRESS":"龍昌街１２０巷２０號","OBJECTID":274325},"geometry":{"x":175070.99000000115,"y":2548054.9600000009}},{"attributes":{"ID":274331,"DIS_CODE":0,"TOWNNAME":"永康區","LI":"王行里","LIN":"15鄰","STREET":"龍昌街","SECT":" ","MAREA":" ","LANE":"８５巷","ALLEY":" ","HOUSE_NO":"３號","E_COORD97":174956.60999999999,"N_COORD97":2548107.2599999998,"ADDRESS":"龍昌街８５巷３號","OBJECTID":274326},"geometry":{"x":174956.61000000127,"y":2548107.2599999998}},{"attributes":{"ID":274332,"DIS_CODE":0,"TOWNNAME":"永康區","LI":"二王里","LIN":"3鄰","STREET":"永二街","SECT":" ","MAREA":" ","LANE":" ","ALLEY":" ","HOUSE_NO":"３０８號","E_COORD97":173031.67999999999,"N_COORD97":2546560.4900000002,"ADDRESS":"永二街３０８號","OBJECTID":274327},"geometry":{"x":173031.68000000063,"y":2546560.4900000039}},{"attributes":{"ID":274333,"DIS_CODE":0,"TOWNNAME":"永康區","LI":"王行里","LIN":"15鄰","STREET":"龍昌街","SECT":" ","MAREA":" ","LANE":"８５巷","ALLEY":" ","HOUSE_NO":"５號","E_COORD97":174954.95999999999,"N_COORD97":2548103.5099999998,"ADDRESS":"龍昌街８５巷５號","OBJECTID":274328},"geometry":{"x":174954.95999999996,"y":2548103.5100000016}},{"attributes":{"ID":274334,"DIS_CODE":0,"TOWNNAME":"仁德區","LI":"仁義里","LIN":"3鄰","STREET":"仁義三街","SECT":" ","MAREA":" ","LANE":" ","ALLEY":" ","HOUSE_NO":"２３１號","E_COORD97":173939.73999999999,"N_COORD97":2541132.02,"ADDRESS":"仁義三街２３１號","OBJECTID":274329},"geometry":{"x":173939.74000000022,"y":2541132.0200000014}},{"attributes":{"ID":274335,"DIS_CODE":0,"TOWNNAME":"仁德區","LI":"仁德里","LIN":"3鄰","STREET":"仁中六街","SECT":" ","MAREA":" ","LANE":" ","ALLEY":" ","HOUSE_NO":"１２０號","E_COORD97":173393.42000000001,"N_COORD97":2540469.2400000002,"ADDRESS":"仁中六街１２０號","OBJECTID":274330},"geometry":{"x":173393.41999999993,"y":2540469.2400000002}},{"attributes":{"ID":274336,"DIS_CODE":0,"TOWNNAME":"仁德區","LI":"仁德里","LIN":"3鄰","STREET":"仁中七街","SECT":" ","MAREA":" ","LANE":" ","ALLEY":" ","HOUSE_NO":"１３０號","E_COORD97":173302.23000000001,"N_COORD97":2540360,"ADDRESS":"仁中七街１３０號","OBJECTID":274331},"geometry":{"x":173302.23000000045,"y":2540360.0000000019}},{"attributes":{"ID":274337,"DIS_CODE":0,"TOWNNAME":"仁德區","LI":"仁德里","LIN":"3鄰","STREET":"仁中七街","SECT":" ","MAREA":" ","LANE":" ","ALLEY":" ","HOUSE_NO":"１００號","E_COORD97":173355.98999999999,"N_COORD97":2540360,"ADDRESS":"仁中七街１００號","OBJECTID":274332},"geometry":{"x":173355.99000000022,"y":2540360.0000000019}},{"attributes":{"ID":274338,"DIS_CODE":0,"TOWNNAME":"仁德區","LI":"仁義里","LIN":"3鄰","STREET":"仁義三街","SECT":" ","MAREA":" ","LANE":" ","ALLEY":" ","HOUSE_NO":"２２８號","E_COORD97":173915.78,"N_COORD97":2541105.0099999998,"ADDRESS":"仁義三街２２８號","OBJECTID":274333},"geometry":{"x":173915.78000000026,"y":2541105.0100000035}},{"attributes":{"ID":274339,"DIS_CODE":0,"TOWNNAME":"仁德區","LI":"仁義里","LIN":"3鄰","STREET":"仁義三街","SECT":" ","MAREA":" ","LANE":" ","ALLEY":" ","HOUSE_NO":"２３２號","E_COORD97":173931.78,"N_COORD97":2541107.7599999998,"ADDRESS":"仁義三街２３２號","OBJECTID":274334},"geometry":{"x":173931.78000000119,"y":2541107.7600000016}},{"attributes":{"ID":274340,"DIS_CODE":0,"TOWNNAME":"永康區","LI":"王行里","LIN":"15鄰","STREET":"龍昌街","SECT":" ","MAREA":" ","LANE":"８５巷","ALLEY":" ","HOUSE_NO":"１號","E_COORD97":174957.23999999999,"N_COORD97":2548112.29,"ADDRESS":"龍昌街８５巷１號","OBJECTID":274335},"geometry":{"x":174957.24000000115,"y":2548112.2899999991}},{"attributes":{"ID":274341,"DIS_CODE":0,"TOWNNAME":"永康區","LI":"王行里","LIN":"15鄰","STREET":"龍昌街","SECT":" ","MAREA":" ","LANE":"１０７巷","ALLEY":" ","HOUSE_NO":"８號","E_COORD97":174912.13,"N_COORD97":2548130.1400000001,"ADDRESS":"龍昌街１０７巷８號","OBJECTID":274336},"geometry":{"x":174912.13000000082,"y":2548130.1400000025}},{"attributes":{"ID":274342,"DIS_CODE":0,"TOWNNAME":"永康區","LI":"王行里","LIN":"15鄰","STREET":"龍潭街","SECT":" ","MAREA":" ","LANE":"１４４巷","ALLEY":" ","HOUSE_NO":"２７號","E_COORD97":174948.47,"N_COORD97":2548073.75,"ADDRESS":"龍潭街１４４巷２７號","OBJECTID":274337},"geometry":{"x":174948.47000000067,"y":2548073.75}},{"attributes":{"ID":274343,"DIS_CODE":0,"TOWNNAME":"東山區","LI":"東原里","LIN":"22鄰","STREET":" ","SECT":" ","MAREA":"瓦厝子","LANE":" ","ALLEY":" ","HOUSE_NO":"６１號之１","E_COORD97":194123.97424499999,"N_COORD97":2577074.48441,"ADDRESS":"瓦厝子６１號之１","OBJECTID":274338},"geometry":{"x":194123.9742449997,"y":2577074.4844049998}},{"attributes":{"ID":274344,"DIS_CODE":0,"TOWNNAME":"永康區","LI":"五王里","LIN":"15鄰","STREET":"中華二路","SECT":" ","MAREA":" ","LANE":"２０６巷","ALLEY":" ","HOUSE_NO":"８０號","E_COORD97":171587.92000000001,"N_COORD97":2545684.9700000002,"ADDRESS":"中華二路２０６巷８０號","OBJECTID":274339},"geometry":{"x":171587.92000000086,"y":2545684.9700000007}},{"attributes":{"ID":274345,"DIS_CODE":0,"TOWNNAME":"仁德區","LI":"中生里","LIN":"3鄰","STREET":" ","SECT":" ","MAREA":"中洲","LANE":" ","ALLEY":" ","HOUSE_NO":"９３號之２","E_COORD97":173062.28,"N_COORD97":2534378.79,"ADDRESS":"中洲９３號之２","OBJECTID":274340},"geometry":{"x":173062.28000000119,"y":2534378.7899999991}},{"attributes":{"ID":274346,"DIS_CODE":0,"TOWNNAME":"永康區","LI":"中興里","LIN":"15鄰","STREET":"中興街","SECT":" ","MAREA":" ","LANE":"９１巷","ALLEY":" ","HOUSE_NO":"１８號","E_COORD97":172008.29000000001,"N_COORD97":2545359.2400000002,"ADDRESS":"中興街９１巷１８號","OBJECTID":274341},"geometry":{"x":172008.29000000004,"y":2545359.2400000021}},{"attributes":{"ID":274347,"DIS_CODE":0,"TOWNNAME":"永康區","LI":"中興里","LIN":"15鄰","STREET":"中興街","SECT":" ","MAREA":" ","LANE":"９１巷","ALLEY":" ","HOUSE_NO":"１２號","E_COORD97":172029.70000000001,"N_COORD97":2545358.2200000002,"ADDRESS":"中興街９１巷１２號","OBJECTID":274342},"geometry":{"x":172029.70000000205,"y":2545358.2200000007}},{"attributes":{"ID":274348,"DIS_CODE":0,"TOWNNAME":"永康區","LI":"五王里","LIN":"15鄰","STREET":"中華二路","SECT":" ","MAREA":" ","LANE":"２０６巷","ALLEY":" ","HOUSE_NO":"８２號","E_COORD97":171586.87,"N_COORD97":2545688.9700000002,"ADDRESS":"中華二路２０６巷８２號","OBJECTID":274343},"geometry":{"x":171586.87000000104,"y":2545688.9700000007}},{"attributes":{"ID":274349,"DIS_CODE":0,"TOWNNAME":"永康區","LI":"王行里","LIN":"15鄰","STREET":"龍昌街","SECT":" ","MAREA":" ","LANE":"１２０巷","ALLEY":" ","HOUSE_NO":"１８號","E_COORD97":175066.26000000001,"N_COORD97":2548054.1899999999,"ADDRESS":"龍昌街１２０巷１８號","OBJECTID":274344},"geometry":{"x":175066.25999999978,"y":2548054.1900000013}},{"attributes":{"ID":274350,"DIS_CODE":0,"TOWNNAME":"仁德區","LI":"中生里","LIN":"3鄰","STREET":" ","SECT":" ","MAREA":"中洲","LANE":" ","ALLEY":" ","HOUSE_NO":"９３之４號","E_COORD97":173060.01000000001,"N_COORD97":2534387.29,"ADDRESS":"中洲９３之４號","OBJECTID":274345},"geometry":{"x":173060.01000000071,"y":2534387.290000001}},{"attributes":{"ID":274351,"DIS_CODE":0,"TOWNNAME":"仁德區","LI":"中生里","LIN":"3鄰","STREET":" ","SECT":" ","MAREA":"中洲","LANE":" ","ALLEY":" ","HOUSE_NO":"８８號之２","E_COORD97":173082.09,"N_COORD97":2534305.5499999998,"ADDRESS":"中洲８８號之２","OBJECTID":274346},"geometry":{"x":173082.08999999985,"y":2534305.5500000026}},{"attributes":{"ID":274352,"DIS_CODE":0,"TOWNNAME":"仁德區","LI":"中生里","LIN":"3鄰","STREET":" ","SECT":" ","MAREA":"中洲","LANE":" ","ALLEY":" ","HOUSE_NO":"９２號之５","E_COORD97":173053.63,"N_COORD97":2534367.54,"ADDRESS":"中洲９２號之５","OBJECTID":274347},"geometry":{"x":173053.62999999896,"y":2534367.540000001}},{"attributes":{"ID":274353,"DIS_CODE":0,"TOWNNAME":"仁德區","LI":"中生里","LIN":"3鄰","STREET":" ","SECT":" ","MAREA":"中洲","LANE":" ","ALLEY":" ","HOUSE_NO":"８９號","E_COORD97":173048.29000000001,"N_COORD97":2534286.25,"ADDRESS":"中洲８９號","OBJECTID":274348},"geometry":{"x":173048.29000000097,"y":2534286.2500000019}},{"attributes":{"ID":274354,"DIS_CODE":0,"TOWNNAME":"永康區","LI":"正強里","LIN":"15鄰","STREET":"正強街","SECT":" ","MAREA":" ","LANE":"７１巷","ALLEY":" ","HOUSE_NO":"２０號","E_COORD97":173292.60999999999,"N_COORD97":2547321.9199999999,"ADDRESS":"正強街７１巷２０號","OBJECTID":274349},"geometry":{"x":173292.61000000034,"y":2547321.9199999999}},{"attributes":{"ID":274355,"DIS_CODE":0,"TOWNNAME":"仁德區","LI":"中生里","LIN":"3鄰","STREET":" ","SECT":" ","MAREA":"中洲","LANE":" ","ALLEY":" ","HOUSE_NO":"９３號之９","E_COORD97":173054.45000000001,"N_COORD97":2534407.2999999998,"ADDRESS":"中洲９３號之９","OBJECTID":274350},"geometry":{"x":173054.45000000112,"y":2534407.3000000007}},{"attributes":{"ID":274356,"DIS_CODE":0,"TOWNNAME":"仁德區","LI":"中洲里","LIN":"3鄰","STREET":" ","SECT":" ","MAREA":"中洲","LANE":" ","ALLEY":" ","HOUSE_NO":"２８之６號","E_COORD97":173202.19,"N_COORD97":2534414.5499999998,"ADDRESS":"中洲２８之６號","OBJECTID":274351},"geometry":{"x":173202.19000000134,"y":2534414.5500000026}},{"attributes":{"ID":274357,"DIS_CODE":0,"TOWNNAME":"仁德區","LI":"仁德里","LIN":"3鄰","STREET":"仁中七街","SECT":" ","MAREA":" ","LANE":" ","ALLEY":" ","HOUSE_NO":"１８２號","E_COORD97":173280.03,"N_COORD97":2540389.5,"ADDRESS":"仁中七街１８２號","OBJECTID":274352},"geometry":{"x":173280.03000000026,"y":2540389.4999999981}},{"attributes":{"ID":274358,"DIS_CODE":0,"TOWNNAME":"仁德區","LI":"中生里","LIN":"3鄰","STREET":" ","SECT":" ","MAREA":"中洲","LANE":" ","ALLEY":" ","HOUSE_NO":"９３號之３","E_COORD97":173060.95000000001,"N_COORD97":2534383.29,"ADDRESS":"中洲９３號之３","OBJECTID":274353},"geometry":{"x":173060.95000000112,"y":2534383.290000001}},{"attributes":{"ID":274359,"DIS_CODE":0,"TOWNNAME":"新市區","LI":"新和里","LIN":"15鄰","STREET":"忠孝街","SECT":" ","MAREA":" ","LANE":"１０１巷","ALLEY":" ","HOUSE_NO":"８號","E_COORD97":177653.26000000001,"N_COORD97":2552597.5,"ADDRESS":"忠孝街１０１巷８號","OBJECTID":274354},"geometry":{"x":177653.25999999978,"y":2552597.5}},{"attributes":{"ID":274360,"DIS_CODE":0,"TOWNNAME":"新市區","LI":"新和里","LIN":"15鄰","STREET":"忠孝街","SECT":" ","MAREA":" ","LANE":"１０１巷","ALLEY":" ","HOUSE_NO":"２號","E_COORD97":177664.87,"N_COORD97":2552595,"ADDRESS":"忠孝街１０１巷２號","OBJECTID":274355},"geometry":{"x":177664.86999999918,"y":2552595.0000000037}},{"attributes":{"ID":274361,"DIS_CODE":0,"TOWNNAME":"仁德區","LI":"中洲里","LIN":"3鄰","STREET":" ","SECT":" ","MAREA":"中洲","LANE":" ","ALLEY":" ","HOUSE_NO":"２７號之１","E_COORD97":173234.88,"N_COORD97":2534407.2999999998,"ADDRESS":"中洲２７號之１","OBJECTID":274356},"geometry":{"x":173234.87999999989,"y":2534407.3000000007}},{"attributes":{"ID":274362,"DIS_CODE":0,"TOWNNAME":"永康區","LI":"網寮里","LIN":"15鄰","STREET":"永勝街","SECT":" ","MAREA":" ","LANE":"３０８巷","ALLEY":" ","HOUSE_NO":"３號","E_COORD97":173450.66,"N_COORD97":2546758.7799999998,"ADDRESS":"永勝街３０８巷３號","OBJECTID":274357},"geometry":{"x":173450.66000000108,"y":2546758.7800000012}},{"attributes":{"ID":274363,"DIS_CODE":0,"TOWNNAME":"仁德區","LI":"中洲里","LIN":"3鄰","STREET":" ","SECT":" ","MAREA":"中洲","LANE":" ","ALLEY":" ","HOUSE_NO":"２０號","E_COORD97":173261.07000000001,"N_COORD97":2534413.5,"ADDRESS":"中洲２０號","OBJECTID":274358},"geometry":{"x":173261.0700000003,"y":2534413.5000000019}},{"attributes":{"ID":274364,"DIS_CODE":0,"TOWNNAME":"仁德區","LI":"中生里","LIN":"3鄰","STREET":" ","SECT":" ","MAREA":"中洲","LANE":" ","ALLEY":" ","HOUSE_NO":"９３號之１１","E_COORD97":173040.29999999999,"N_COORD97":2534374.79,"ADDRESS":"中洲９３號之１１","OBJECTID":274359},"geometry":{"x":173040.29999999981,"y":2534374.7899999991}},{"attributes":{"ID":274365,"DIS_CODE":0,"TOWNNAME":"仁德區","LI":"中生里","LIN":"3鄰","STREET":" ","SECT":" ","MAREA":"中洲","LANE":" ","ALLEY":" ","HOUSE_NO":"９３號之５","E_COORD97":173058.82000000001,"N_COORD97":2534391.2999999998,"ADDRESS":"中洲９３號之５","OBJECTID":274360},"geometry":{"x":173058.82000000123,"y":2534391.3000000026}},{"attributes":{"ID":274366,"DIS_CODE":0,"TOWNNAME":"永康區","LI":"網寮里","LIN":"15鄰","STREET":"永和街","SECT":" ","MAREA":" ","LANE":"２６０巷","ALLEY":" ","HOUSE_NO":"２１號","E_COORD97":173406.48000000001,"N_COORD97":2546647.48,"ADDRESS":"永和街２６０巷２１號","OBJECTID":274361},"geometry":{"x":173406.48000000138,"y":2546647.4800000004}},{"attributes":{"ID":274367,"DIS_CODE":0,"TOWNNAME":"永康區","LI":"網寮里","LIN":"15鄰","STREET":"永和街","SECT":" ","MAREA":" ","LANE":"２６０巷","ALLEY":" ","HOUSE_NO":"２３號","E_COORD97":173413.35000000001,"N_COORD97":2546654.5499999998,"ADDRESS":"永和街２６０巷２３號","OBJECTID":274362},"geometry":{"x":173413.35000000056,"y":2546654.5500000007}},{"attributes":{"ID":274368,"DIS_CODE":0,"TOWNNAME":"佳里區","LI":"鎮山里","LIN":"15鄰","STREET":"中興街","SECT":" ","MAREA":" ","LANE":"１６１巷","ALLEY":" ","HOUSE_NO":"８號","E_COORD97":166121.51000000001,"N_COORD97":2561373.98,"ADDRESS":"中興街１６１巷８號","OBJECTID":274363},"geometry":{"x":166121.51000000071,"y":2561373.9800000023}},{"attributes":{"ID":274369,"DIS_CODE":0,"TOWNNAME":"永康區","LI":"網寮里","LIN":"15鄰","STREET":"永勝街","SECT":" ","MAREA":" ","LANE":"３０８巷","ALLEY":" ","HOUSE_NO":"５號","E_COORD97":173453.09,"N_COORD97":2546755.29,"ADDRESS":"永勝街３０８巷５號","OBJECTID":274364},"geometry":{"x":173453.09000000078,"y":2546755.290000001}},{"attributes":{"ID":274370,"DIS_CODE":0,"TOWNNAME":"永康區","LI":"網寮里","LIN":"15鄰","STREET":"永勝街","SECT":" ","MAREA":" ","LANE":"３０８巷","ALLEY":" ","HOUSE_NO":"７號","E_COORD97":173458.76000000001,"N_COORD97":2546755.1099999999,"ADDRESS":"永勝街３０８巷７號","OBJECTID":274365},"geometry":{"x":173458.76000000071,"y":2546755.1099999994}},{"attributes":{"ID":274371,"DIS_CODE":0,"TOWNNAME":"仁德區","LI":"保安里","LIN":"3鄰","STREET":"保安路","SECT":"一段","MAREA":" ","LANE":" ","ALLEY":" ","HOUSE_NO":"９０之１號","E_COORD97":170867.64999999999,"N_COORD97":2536480.0699999998,"ADDRESS":"保安路一段９０之１號","OBJECTID":274366},"geometry":{"x":170867.6500000013,"y":2536480.0700000003}},{"attributes":{"ID":274372,"DIS_CODE":0,"TOWNNAME":"仁德區","LI":"仁德里","LIN":"3鄰","STREET":"中正路","SECT":"二段","MAREA":" ","LANE":" ","ALLEY":" ","HOUSE_NO":"７９５號","E_COORD97":173446.85999999999,"N_COORD97":2540371.27,"ADDRESS":"中正路二段７９５號","OBJECTID":274367},"geometry":{"x":173446.86000000034,"y":2540371.2700000014}},{"attributes":{"ID":274373,"DIS_CODE":0,"TOWNNAME":"永康區","LI":"中華里","LIN":"20鄰","STREET":"中華路","SECT":" ","MAREA":" ","LANE":" ","ALLEY":" ","HOUSE_NO":"６號","E_COORD97":171569.81,"N_COORD97":2544392.0299999998,"ADDRESS":"中華路６號","OBJECTID":274368},"geometry":{"x":171569.80999999959,"y":2544392.0299999993}},{"attributes":{"ID":274374,"DIS_CODE":0,"TOWNNAME":"仁德區","LI":"仁德里","LIN":"3鄰","STREET":"中正路","SECT":"二段","MAREA":" ","LANE":" ","ALLEY":" ","HOUSE_NO":"７４７號","E_COORD97":173458.92999999999,"N_COORD97":2540246.27,"ADDRESS":"中正路二段７４７號","OBJECTID":274369},"geometry":{"x":173458.93000000063,"y":2540246.2700000014}},{"attributes":{"ID":274375,"DIS_CODE":0,"TOWNNAME":"仁德區","LI":"仁德里","LIN":"3鄰","STREET":"仁中六街","SECT":" ","MAREA":" ","LANE":" ","ALLEY":" ","HOUSE_NO":"６２號","E_COORD97":173408.10999999999,"N_COORD97":2540406.5,"ADDRESS":"仁中六街６２號","OBJECTID":274370},"geometry":{"x":173408.11000000034,"y":2540406.4999999981}},{"attributes":{"ID":274376,"DIS_CODE":0,"TOWNNAME":"永康區","LI":"網寮里","LIN":"15鄰","STREET":"永勝街","SECT":" ","MAREA":" ","LANE":"３０８巷","ALLEY":" ","HOUSE_NO":"９號","E_COORD97":173462.29999999999,"N_COORD97":2546752.1299999999,"ADDRESS":"永勝街３０８巷９號","OBJECTID":274371},"geometry":{"x":173462.29999999981,"y":2546752.1300000008}},{"attributes":{"ID":274377,"DIS_CODE":0,"TOWNNAME":"永康區","LI":"網寮里","LIN":"15鄰","STREET":"永勝街","SECT":" ","MAREA":" ","LANE":"３０８巷","ALLEY":" ","HOUSE_NO":"１１號","E_COORD97":173466.54999999999,"N_COORD97":2546750.2000000002,"ADDRESS":"永勝街３０８巷１１號","OBJECTID":274372},"geometry":{"x":173466.55000000075,"y":2546750.1999999993}},{"attributes":{"ID":274378,"DIS_CODE":0,"TOWNNAME":"永康區","LI":"網寮里","LIN":"15鄰","STREET":"永勝街","SECT":" ","MAREA":" ","LANE":"３０８巷","ALLEY":" ","HOUSE_NO":"１３號","E_COORD97":173470.67000000001,"N_COORD97":2546748.3300000001,"ADDRESS":"永勝街３０８巷１３號","OBJECTID":274373},"geometry":{"x":173470.67000000179,"y":2546748.3300000019}},{"attributes":{"ID":274379,"DIS_CODE":0,"TOWNNAME":"永康區","LI":"網寮里","LIN":"15鄰","STREET":"永勝街","SECT":" ","MAREA":" ","LANE":"３０８巷","ALLEY":" ","HOUSE_NO":"１５號","E_COORD97":173475.37,"N_COORD97":2546747.5699999998,"ADDRESS":"永勝街３０８巷１５號","OBJECTID":274374},"geometry":{"x":173475.37000000011,"y":2546747.5700000022}},{"attributes":{"ID":274380,"DIS_CODE":0,"TOWNNAME":"仁德區","LI":"保安里","LIN":"3鄰","STREET":"保安路","SECT":"一段","MAREA":" ","LANE":" ","ALLEY":" ","HOUSE_NO":"１２３號","E_COORD97":171145.63,"N_COORD97":2536859.5600000001,"ADDRESS":"保安路一段１２３號","OBJECTID":274375},"geometry":{"x":171145.63000000082,"y":2536859.5600000005}},{"attributes":{"ID":274381,"DIS_CODE":0,"TOWNNAME":"永康區","LI":"網寮里","LIN":"15鄰","STREET":"永勝街","SECT":" ","MAREA":" ","LANE":"３０８巷","ALLEY":" ","HOUSE_NO":"１７號","E_COORD97":173479.85999999999,"N_COORD97":2546744.1600000001,"ADDRESS":"永勝街３０８巷１７號","OBJECTID":274376},"geometry":{"x":173479.8600000022,"y":2546744.1600000001}},{"attributes":{"ID":274382,"DIS_CODE":0,"TOWNNAME":"佳里區","LI":"鎮山里","LIN":"15鄰","STREET":"中興街","SECT":" ","MAREA":" ","LANE":"１６１巷","ALLEY":" ","HOUSE_NO":"１０號","E_COORD97":166117.81,"N_COORD97":2561375.6200000001,"ADDRESS":"中興街１６１巷１０號","OBJECTID":274377},"geometry":{"x":166117.81000000052,"y":2561375.620000001}},{"attributes":{"ID":274383,"DIS_CODE":0,"TOWNNAME":"佳里區","LI":"鎮山里","LIN":"15鄰","STREET":"中興街","SECT":" ","MAREA":" ","LANE":"１６１巷","ALLEY":" ","HOUSE_NO":"２號","E_COORD97":166129.76999999999,"N_COORD97":2561370.71,"ADDRESS":"中興街１６１巷２號","OBJECTID":274378},"geometry":{"x":166129.77000000048,"y":2561370.7100000009}},{"attributes":{"ID":274384,"DIS_CODE":0,"TOWNNAME":"佳里區","LI":"鎮山里","LIN":"15鄰","STREET":"中興街","SECT":" ","MAREA":" ","LANE":"１６１巷","ALLEY":" ","HOUSE_NO":"６號","E_COORD97":166125.35000000001,"N_COORD97":2561372.3700000001,"ADDRESS":"中興街１６１巷６號","OBJECTID":274379},"geometry":{"x":166125.3499999987,"y":2561372.3700000029}},{"attributes":{"ID":274385,"DIS_CODE":0,"TOWNNAME":"新化區","LI":"協興里","LIN":"15鄰","STREET":"大新路","SECT":" ","MAREA":" ","LANE":"１１１巷","ALLEY":" ","HOUSE_NO":"４０號","E_COORD97":177998.07999999999,"N_COORD97":2548656.25,"ADDRESS":"大新路１１１巷４０號","OBJECTID":274380},"geometry":{"x":177998.08000000101,"y":2548656.25}},{"attributes":{"ID":274386,"DIS_CODE":0,"TOWNNAME":"新化區","LI":"協興里","LIN":"15鄰","STREET":"大新路","SECT":" ","MAREA":" ","LANE":"１１１巷","ALLEY":" ","HOUSE_NO":"３０號","E_COORD97":177992.57999999999,"N_COORD97":2548680.25,"ADDRESS":"大新路１１１巷３０號","OBJECTID":274381},"geometry":{"x":177992.58000000101,"y":2548680.25}},{"attributes":{"ID":274387,"DIS_CODE":0,"TOWNNAME":"新化區","LI":"協興里","LIN":"15鄰","STREET":"大新路","SECT":" ","MAREA":" ","LANE":"１１１巷","ALLEY":" ","HOUSE_NO":"１３號","E_COORD97":178001.17999999999,"N_COORD97":2548688.25,"ADDRESS":"大新路１１１巷１３號","OBJECTID":274382},"geometry":{"x":178001.1799999997,"y":2548688.2500000019}},{"attributes":{"ID":274388,"DIS_CODE":0,"TOWNNAME":"新化區","LI":"協興里","LIN":"15鄰","STREET":"大新路","SECT":" ","MAREA":" ","LANE":"１１１巷","ALLEY":" ","HOUSE_NO":"１８號","E_COORD97":177955.38,"N_COORD97":2548676.25,"ADDRESS":"大新路１１１巷１８號","OBJECTID":274383},"geometry":{"x":177955.38000000082,"y":2548676.25}},{"attributes":{"ID":274389,"DIS_CODE":0,"TOWNNAME":"安南區","LI":"長安里","LIN":"15鄰","STREET":"公學路","SECT":"二段","MAREA":" ","LANE":"１２３巷","ALLEY":" ","HOUSE_NO":"１１號","E_COORD97":167734.53,"N_COORD97":2552329.7799999998,"ADDRESS":"公學路二段１２３巷１１號","OBJECTID":274384},"geometry":{"x":167734.53000000026,"y":2552329.7799999993}},{"attributes":{"ID":274390,"DIS_CODE":0,"TOWNNAME":"安南區","LI":"長安里","LIN":"15鄰","STREET":"公學路","SECT":"二段","MAREA":" ","LANE":"１２３巷","ALLEY":" ","HOUSE_NO":"５３號","E_COORD97":167819.85000000001,"N_COORD97":2552404.6200000001,"ADDRESS":"公學路二段１２３巷５３號","OBJECTID":274385},"geometry":{"x":167819.84999999963,"y":2552404.620000001}},{"attributes":{"ID":274391,"DIS_CODE":0,"TOWNNAME":"安南區","LI":"長安里","LIN":"15鄰","STREET":"公學路","SECT":"二段","MAREA":" ","LANE":"１２３巷","ALLEY":" ","HOUSE_NO":"９１號","E_COORD97":167870.66,"N_COORD97":2552451.3900000001,"ADDRESS":"公學路二段１２３巷９１號","OBJECTID":274386},"geometry":{"x":167870.66000000108,"y":2552451.3900000025}},{"attributes":{"ID":274392,"DIS_CODE":0,"TOWNNAME":"安南區","LI":"溪頂里","LIN":"15鄰","STREET":"北安路","SECT":"二段","MAREA":" ","LANE":"３２巷","ALLEY":" ","HOUSE_NO":"１號","E_COORD97":168579.94,"N_COORD97":2547326.4199999999,"ADDRESS":"北安路二段３２巷１號","OBJECTID":274387},"geometry":{"x":168579.94000000041,"y":2547326.4199999999}},{"attributes":{"ID":274393,"DIS_CODE":0,"TOWNNAME":"永康區","LI":"安康里","LIN":"15鄰","STREET":"中華路","SECT":" ","MAREA":" ","LANE":"６１９巷","ALLEY":" ","HOUSE_NO":"３０號","E_COORD97":170959.53,"N_COORD97":2546079.7400000002,"ADDRESS":"中華路６１９巷３０號","OBJECTID":274388},"geometry":{"x":170959.53000000212,"y":2546079.7400000002}},{"attributes":{"ID":274394,"DIS_CODE":0,"TOWNNAME":"永康區","LI":"正強里","LIN":"15鄰","STREET":"正強街","SECT":" ","MAREA":" ","LANE":"７１巷","ALLEY":" ","HOUSE_NO":"８號","E_COORD97":173312.47,"N_COORD97":2547324.1699999999,"ADDRESS":"正強街７１巷８號","OBJECTID":274389},"geometry":{"x":173312.4700000016,"y":2547324.1699999999}},{"attributes":{"ID":274395,"DIS_CODE":0,"TOWNNAME":"永康區","LI":"東橋里","LIN":"15鄰","STREET":"中山南路","SECT":" ","MAREA":" ","LANE":"３１９巷","ALLEY":" ","HOUSE_NO":"１６號","E_COORD97":171841.70999999999,"N_COORD97":2546420.8300000001,"ADDRESS":"中山南路３１９巷１６號","OBJECTID":274390},"geometry":{"x":171841.71000000089,"y":2546420.8300000001}},{"attributes":{"ID":274396,"DIS_CODE":0,"TOWNNAME":"永康區","LI":"永康里","LIN":"15鄰","STREET":"永中街","SECT":" ","MAREA":" ","LANE":"１００巷","ALLEY":" ","HOUSE_NO":"１６號","E_COORD97":173994.78,"N_COORD97":2547160,"ADDRESS":"永中街１００巷１６號","OBJECTID":274391},"geometry":{"x":173994.78000000119,"y":2547160}},{"attributes":{"ID":274397,"DIS_CODE":0,"TOWNNAME":"永康區","LI":"復華里","LIN":"15鄰","STREET":"國華街","SECT":" ","MAREA":" ","LANE":"９１巷","ALLEY":" ","HOUSE_NO":"５號","E_COORD97":172817.56,"N_COORD97":2545956.7400000002,"ADDRESS":"國華街９１巷５號","OBJECTID":274392},"geometry":{"x":172817.55999999959,"y":2545956.7400000021}},{"attributes":{"ID":274398,"DIS_CODE":0,"TOWNNAME":"安南區","LI":"溪頂里","LIN":"15鄰","STREET":"北安路","SECT":"二段","MAREA":" ","LANE":"３２巷","ALLEY":" ","HOUSE_NO":"３７號","E_COORD97":168715.04999999999,"N_COORD97":2547341.3300000001,"ADDRESS":"北安路二段３２巷３７號","OBJECTID":274393},"geometry":{"x":168715.05000000075,"y":2547341.3300000038}},{"attributes":{"ID":274399,"DIS_CODE":0,"TOWNNAME":"麻豆區","LI":"油車里","LIN":"3鄰","STREET":"大同街","SECT":" ","MAREA":" ","LANE":" ","ALLEY":" ","HOUSE_NO":"１３號","E_COORD97":172802.01000000001,"N_COORD97":2565229.1899999999,"ADDRESS":"大同街１３號","OBJECTID":274394},"geometry":{"x":172802.01000000164,"y":2565229.1900000032}},{"attributes":{"ID":274400,"DIS_CODE":0,"TOWNNAME":"安南區","LI":"海佃里","LIN":"3鄰","STREET":"國安街","SECT":" ","MAREA":" ","LANE":" ","ALLEY":" ","HOUSE_NO":"１０８號","E_COORD97":166870.82000000001,"N_COORD97":2546999.4500000002,"ADDRESS":"國安街１０８號","OBJECTID":274395},"geometry":{"x":166870.82000000123,"y":2546999.4499999993}},{"attributes":{"ID":274401,"DIS_CODE":0,"TOWNNAME":"安南區","LI":"海佃里","LIN":"3鄰","STREET":"國安街","SECT":" ","MAREA":" ","LANE":" ","ALLEY":" ","HOUSE_NO":"１１２號","E_COORD97":166860.17999999999,"N_COORD97":2546995.46,"ADDRESS":"國安街１１２號","OBJECTID":274396},"geometry":{"x":166860.1799999997,"y":2546995.4600000046}},{"attributes":{"ID":274402,"DIS_CODE":0,"TOWNNAME":"安南區","LI":"海佃里","LIN":"3鄰","STREET":"國安街","SECT":" ","MAREA":" ","LANE":" ","ALLEY":" ","HOUSE_NO":"１１４號","E_COORD97":166855.53,"N_COORD97":2546995.46,"ADDRESS":"國安街１１４號","OBJECTID":274397},"geometry":{"x":166855.53000000212,"y":2546995.4600000046}},{"attributes":{"ID":274403,"DIS_CODE":0,"TOWNNAME":"安南區","LI":"溪頂里","LIN":"15鄰","STREET":"北安路","SECT":"二段","MAREA":" ","LANE":"３２巷","ALLEY":" ","HOUSE_NO":"３８號","E_COORD97":168711.14999999999,"N_COORD97":2547318.5600000001,"ADDRESS":"北安路二段３２巷３８號","OBJECTID":274398},"geometry":{"x":168711.15000000224,"y":2547318.5600000005}},{"attributes":{"ID":274404,"DIS_CODE":0,"TOWNNAME":"安南區","LI":"溪頂里","LIN":"15鄰","STREET":"北安路","SECT":"二段","MAREA":" ","LANE":"３２巷","ALLEY":" ","HOUSE_NO":"３９號","E_COORD97":168722.98000000001,"N_COORD97":2547341.8799999999,"ADDRESS":"北安路二段３２巷３９號","OBJECTID":274399},"geometry":{"x":168722.98000000138,"y":2547341.879999999}},{"attributes":{"ID":274405,"DIS_CODE":0,"TOWNNAME":"安南區","LI":"溪頂里","LIN":"15鄰","STREET":"北安路","SECT":"二段","MAREA":" ","LANE":"３２巷","ALLEY":" ","HOUSE_NO":"３號","E_COORD97":168586.88,"N_COORD97":2547327.0299999998,"ADDRESS":"北安路二段３２巷３號","OBJECTID":274400},"geometry":{"x":168586.88000000175,"y":2547327.0300000012}}]}