{"displayFieldName":"TOWNNAME","fieldAliases":{"ID":"ID","DIS_CODE":"DIS_CODE","TOWNNAME":"TOWNNAME","LI":"LI","LIN":"LIN","STREET":"STREET","SECT":"SECT","MAREA":"MAREA","LANE":"LANE","ALLEY":"ALLEY","HOUSE_NO":"HOUSE_NO","E_COORD97":"E_COORD97","N_COORD97":"N_COORD97","ADDRESS":"ADDRESS","OBJECTID":"OBJECTID"},"geometryType":"esriGeometryPoint","spatialReference":{"wkid":102443,"latestWkid":3826},"fields":[{"name":"ID","type":"esriFieldTypeDouble","alias":"ID"},{"name":"DIS_CODE","type":"esriFieldTypeInteger","alias":"DIS_CODE"},{"name":"TOWNNAME","type":"esriFieldTypeString","alias":"TOWNNAME","length":8},{"name":"LI","type":"esriFieldTypeString","alias":"LI","length":8},{"name":"LIN","type":"esriFieldTypeString","alias":"LIN","length":12},{"name":"STREET","type":"esriFieldTypeString","alias":"STREET","length":20},{"name":"SECT","type":"esriFieldTypeString","alias":"SECT","length":8},{"name":"MAREA","type":"esriFieldTypeString","alias":"MAREA","length":12},{"name":"LANE","type":"esriFieldTypeString","alias":"LANE","length":10},{"name":"ALLEY","type":"esriFieldTypeString","alias":"ALLEY","length":10},{"name":"HOUSE_NO","type":"esriFieldTypeString","alias":"HOUSE_NO","length":20},{"name":"E_COORD97","type":"esriFieldTypeDouble","alias":"E_COORD97"},{"name":"N_COORD97","type":"esriFieldTypeDouble","alias":"N_COORD97"},{"name":"ADDRESS","type":"esriFieldTypeString","alias":"ADDRESS","length":50},{"name":"OBJECTID","type":"esriFieldTypeOID","alias":"OBJECTID"}],"features":[{"attributes":{"ID":248805,"DIS_CODE":0,"TOWNNAME":"永康區","LI":"五王里","LIN":"34鄰","STREET":"五福街","SECT":" ","MAREA":" ","LANE":"３３巷","ALLEY":" ","HOUSE_NO":"１５號","E_COORD97":171298.04999999999,"N_COORD97":2545937.5,"ADDRESS":"五福街３３巷１５號","OBJECTID":248801},"geometry":{"x":171298.05000000168,"y":2545937.5000000019}},{"attributes":{"ID":248806,"DIS_CODE":0,"TOWNNAME":"永康區","LI":"中興里","LIN":"15鄰","STREET":"中興街","SECT":" ","MAREA":" ","LANE":"９１巷","ALLEY":" ","HOUSE_NO":"４２號","E_COORD97":171957.01000000001,"N_COORD97":2545362.7400000002,"ADDRESS":"中興街９１巷４２號","OBJECTID":248802},"geometry":{"x":171957.00999999978,"y":2545362.7400000021}},{"attributes":{"ID":248807,"DIS_CODE":0,"TOWNNAME":"永康區","LI":"王行里","LIN":"10鄰","STREET":"王行路","SECT":" ","MAREA":" ","LANE":"１０１８巷","ALLEY":" ","HOUSE_NO":"１６號","E_COORD97":175857,"N_COORD97":2550170.8900000001,"ADDRESS":"王行路１０１８巷１６號","OBJECTID":248803},"geometry":{"x":175857.00000000186,"y":2550170.8900000006}},{"attributes":{"ID":248808,"DIS_CODE":0,"TOWNNAME":"北區","LI":"玉皇里","LIN":"14鄰","STREET":"忠義路","SECT":"三段","MAREA":" ","LANE":" ","ALLEY":" ","HOUSE_NO":"２２號五樓之１","E_COORD97":168537.85999999999,"N_COORD97":2544419.5800000001,"ADDRESS":"忠義路三段２２號五樓之１","OBJECTID":248804},"geometry":{"x":168537.86000000034,"y":2544419.5800000001}},{"attributes":{"ID":248809,"DIS_CODE":0,"TOWNNAME":"北區","LI":"玉皇里","LIN":"14鄰","STREET":"忠義路","SECT":"三段","MAREA":" ","LANE":" ","ALLEY":" ","HOUSE_NO":"２２號五樓之２","E_COORD97":168537.85999999999,"N_COORD97":2544419.5800000001,"ADDRESS":"忠義路三段２２號五樓之２","OBJECTID":248805},"geometry":{"x":168537.86000000034,"y":2544419.5800000001}},{"attributes":{"ID":248810,"DIS_CODE":0,"TOWNNAME":"北區","LI":"玉皇里","LIN":"14鄰","STREET":"忠義路","SECT":"三段","MAREA":" ","LANE":" ","ALLEY":" ","HOUSE_NO":"２２號五樓之３","E_COORD97":168537.85999999999,"N_COORD97":2544419.5800000001,"ADDRESS":"忠義路三段２２號五樓之３","OBJECTID":248806},"geometry":{"x":168537.86000000034,"y":2544419.5800000001}},{"attributes":{"ID":248811,"DIS_CODE":0,"TOWNNAME":"北區","LI":"玉皇里","LIN":"14鄰","STREET":"忠義路","SECT":"三段","MAREA":" ","LANE":" ","ALLEY":" ","HOUSE_NO":"２２號五樓之４","E_COORD97":168537.85999999999,"N_COORD97":2544419.5800000001,"ADDRESS":"忠義路三段２２號五樓之４","OBJECTID":248807},"geometry":{"x":168537.86000000034,"y":2544419.5800000001}},{"attributes":{"ID":248812,"DIS_CODE":0,"TOWNNAME":"北區","LI":"玉皇里","LIN":"14鄰","STREET":"忠義路","SECT":"三段","MAREA":" ","LANE":" ","ALLEY":" ","HOUSE_NO":"２２號五樓之５","E_COORD97":168537.85999999999,"N_COORD97":2544419.5800000001,"ADDRESS":"忠義路三段２２號五樓之５","OBJECTID":248808},"geometry":{"x":168537.86000000034,"y":2544419.5800000001}},{"attributes":{"ID":248813,"DIS_CODE":0,"TOWNNAME":"東區","LI":"東門里","LIN":"1鄰","STREET":"東門路","SECT":"一段","MAREA":" ","LANE":" ","ALLEY":" ","HOUSE_NO":"２７號","E_COORD97":169212.57999999999,"N_COORD97":2543284.6200000001,"ADDRESS":"東門路一段２７號","OBJECTID":248809},"geometry":{"x":169212.58000000007,"y":2543284.620000001}},{"attributes":{"ID":248814,"DIS_CODE":0,"TOWNNAME":"永康區","LI":"五王里","LIN":"26鄰","STREET":"五福街","SECT":" ","MAREA":" ","LANE":"８２巷","ALLEY":" ","HOUSE_NO":"１０號","E_COORD97":171481.70999999999,"N_COORD97":2545928.25,"ADDRESS":"五福街８２巷１０號","OBJECTID":248810},"geometry":{"x":171481.70999999996,"y":2545928.2500000019}},{"attributes":{"ID":248815,"DIS_CODE":0,"TOWNNAME":"永康區","LI":"五王里","LIN":"31鄰","STREET":"五福街","SECT":" ","MAREA":" ","LANE":"９巷","ALLEY":" ","HOUSE_NO":"２號","E_COORD97":171277.35999999999,"N_COORD97":2545887.25,"ADDRESS":"五福街９巷２號","OBJECTID":248811},"geometry":{"x":171277.36000000034,"y":2545887.2500000037}},{"attributes":{"ID":248816,"DIS_CODE":0,"TOWNNAME":"安定區","LI":"港尾里","LIN":"11鄰","STREET":" ","SECT":" ","MAREA":"港子尾","LANE":" ","ALLEY":" ","HOUSE_NO":"６４之５號","E_COORD97":171466.59,"N_COORD97":2555713.2999999998,"ADDRESS":"港子尾６４之５號","OBJECTID":248812},"geometry":{"x":171466.58999999985,"y":2555713.3000000026}},{"attributes":{"ID":248817,"DIS_CODE":0,"TOWNNAME":"永康區","LI":"中興里","LIN":"11鄰","STREET":"中興街","SECT":" ","MAREA":" ","LANE":"１１巷","ALLEY":" ","HOUSE_NO":"８號","E_COORD97":172058.09,"N_COORD97":2545131.9900000002,"ADDRESS":"中興街１１巷８號","OBJECTID":248813},"geometry":{"x":172058.08999999985,"y":2545131.9900000002}},{"attributes":{"ID":248818,"DIS_CODE":0,"TOWNNAME":"安定區","LI":"港尾里","LIN":"11鄰","STREET":" ","SECT":" ","MAREA":"港子尾","LANE":" ","ALLEY":" ","HOUSE_NO":"６８之５號","E_COORD97":171416.69,"N_COORD97":2555766.2999999998,"ADDRESS":"港子尾６８之５號","OBJECTID":248814},"geometry":{"x":171416.69000000134,"y":2555766.3000000007}},{"attributes":{"ID":248819,"DIS_CODE":0,"TOWNNAME":"安定區","LI":"中榮里","LIN":"11鄰","STREET":" ","SECT":" ","MAREA":"許中營","LANE":" ","ALLEY":" ","HOUSE_NO":"９０之２２號","E_COORD97":172093.178671,"N_COORD97":2555026.5837300001,"ADDRESS":"許中營９０之２２號","OBJECTID":248815},"geometry":{"x":172093.17867100146,"y":2555026.5837300029}},{"attributes":{"ID":248820,"DIS_CODE":0,"TOWNNAME":"安定區","LI":"海寮里","LIN":"11鄰","STREET":" ","SECT":" ","MAREA":"海寮","LANE":" ","ALLEY":" ","HOUSE_NO":"１１０之１號","E_COORD97":169165.17999999999,"N_COORD97":2555237.6200000001,"ADDRESS":"海寮１１０之１號","OBJECTID":248816},"geometry":{"x":169165.18000000063,"y":2555237.6200000029}},{"attributes":{"ID":248821,"DIS_CODE":0,"TOWNNAME":"北區","LI":"玉皇里","LIN":"14鄰","STREET":"忠義路","SECT":"三段","MAREA":" ","LANE":" ","ALLEY":" ","HOUSE_NO":"２２號五樓之６","E_COORD97":168537.85999999999,"N_COORD97":2544419.5800000001,"ADDRESS":"忠義路三段２２號五樓之６","OBJECTID":248817},"geometry":{"x":168537.86000000034,"y":2544419.5800000001}},{"attributes":{"ID":248822,"DIS_CODE":0,"TOWNNAME":"北區","LI":"玉皇里","LIN":"14鄰","STREET":"忠義路","SECT":"三段","MAREA":" ","LANE":" ","ALLEY":" ","HOUSE_NO":"２２號六樓之１","E_COORD97":168537.85999999999,"N_COORD97":2544419.5800000001,"ADDRESS":"忠義路三段２２號六樓之１","OBJECTID":248818},"geometry":{"x":168537.86000000034,"y":2544419.5800000001}},{"attributes":{"ID":248823,"DIS_CODE":0,"TOWNNAME":"官田區","LI":"隆本里","LIN":"14鄰","STREET":"復興街","SECT":" ","MAREA":" ","LANE":"８８巷","ALLEY":" ","HOUSE_NO":"１號","E_COORD97":179765.76999999999,"N_COORD97":2566440.1299999999,"ADDRESS":"復興街８８巷１號","OBJECTID":248819},"geometry":{"x":179765.77000000048,"y":2566440.1300000008}},{"attributes":{"ID":248824,"DIS_CODE":0,"TOWNNAME":"永康區","LI":"五王里","LIN":"26鄰","STREET":"五福街","SECT":" ","MAREA":" ","LANE":"８２巷","ALLEY":" ","HOUSE_NO":"３２號","E_COORD97":171517.70000000001,"N_COORD97":2545867.2400000002,"ADDRESS":"五福街８２巷３２號","OBJECTID":248820},"geometry":{"x":171517.70000000205,"y":2545867.2400000039}},{"attributes":{"ID":248825,"DIS_CODE":0,"TOWNNAME":"安南區","LI":"幸福里","LIN":"14鄰","STREET":"府安路","SECT":"六段","MAREA":" ","LANE":"４５巷","ALLEY":" ","HOUSE_NO":"４號","E_COORD97":166974.01000000001,"N_COORD97":2546674.8999999999,"ADDRESS":"府安路六段４５巷４號","OBJECTID":248821},"geometry":{"x":166974.01000000071,"y":2546674.9000000022}},{"attributes":{"ID":248826,"DIS_CODE":0,"TOWNNAME":"安定區","LI":"六嘉里","LIN":"11鄰","STREET":" ","SECT":" ","MAREA":"六塊寮","LANE":" ","ALLEY":" ","HOUSE_NO":"８８號","E_COORD97":170322.62,"N_COORD97":2553297.27,"ADDRESS":"六塊寮８８號","OBJECTID":248822},"geometry":{"x":170322.62000000011,"y":2553297.2699999996}},{"attributes":{"ID":248827,"DIS_CODE":0,"TOWNNAME":"安定區","LI":"港南里","LIN":"11鄰","STREET":" ","SECT":" ","MAREA":"港口","LANE":" ","ALLEY":" ","HOUSE_NO":"８１號","E_COORD97":171342.44,"N_COORD97":2554299.25,"ADDRESS":"港口８１號","OBJECTID":248823},"geometry":{"x":171342.44000000134,"y":2554299.2500000019}},{"attributes":{"ID":248828,"DIS_CODE":0,"TOWNNAME":"安定區","LI":"六嘉里","LIN":"11鄰","STREET":" ","SECT":" ","MAREA":"六塊寮","LANE":" ","ALLEY":" ","HOUSE_NO":"８９號之１","E_COORD97":170364.25,"N_COORD97":2553280.2999999998,"ADDRESS":"六塊寮８９號之１","OBJECTID":248824},"geometry":{"x":170364.25,"y":2553280.3000000026}},{"attributes":{"ID":248829,"DIS_CODE":0,"TOWNNAME":"安南區","LI":"幸福里","LIN":"14鄰","STREET":"府安路","SECT":"六段","MAREA":" ","LANE":"４５巷","ALLEY":" ","HOUSE_NO":"５號","E_COORD97":166951.07999999999,"N_COORD97":2546670.6200000001,"ADDRESS":"府安路六段４５巷５號","OBJECTID":248825},"geometry":{"x":166951.08000000007,"y":2546670.6200000029}},{"attributes":{"ID":248830,"DIS_CODE":0,"TOWNNAME":"安定區","LI":"蘇林里","LIN":"11鄰","STREET":" ","SECT":" ","MAREA":"蘇厝","LANE":" ","ALLEY":" ","HOUSE_NO":"１２５號","E_COORD97":173696.12661800001,"N_COORD97":2558953.1525099999,"ADDRESS":"蘇厝１２５號","OBJECTID":248826},"geometry":{"x":173696.12661800161,"y":2558953.1525130011}},{"attributes":{"ID":248831,"DIS_CODE":0,"TOWNNAME":"安定區","LI":"港南里","LIN":"11鄰","STREET":" ","SECT":" ","MAREA":"港口","LANE":" ","ALLEY":" ","HOUSE_NO":"８１號之１","E_COORD97":171359.17999999999,"N_COORD97":2554287.2999999998,"ADDRESS":"港口８１號之１","OBJECTID":248827},"geometry":{"x":171359.1799999997,"y":2554287.3000000026}},{"attributes":{"ID":248832,"DIS_CODE":0,"TOWNNAME":"安定區","LI":"保西里","LIN":"11鄰","STREET":" ","SECT":" ","MAREA":"安定","LANE":" ","ALLEY":" ","HOUSE_NO":"４３４號","E_COORD97":171617.22,"N_COORD97":2557913.3199999998,"ADDRESS":"安定４３４號","OBJECTID":248828},"geometry":{"x":171617.2200000016,"y":2557913.3200000022}},{"attributes":{"ID":248833,"DIS_CODE":0,"TOWNNAME":"安南區","LI":"幸福里","LIN":"14鄰","STREET":"府安路","SECT":"六段","MAREA":" ","LANE":"４５巷","ALLEY":" ","HOUSE_NO":"６號","E_COORD97":166973.20999999999,"N_COORD97":2546679.3199999998,"ADDRESS":"府安路六段４５巷６號","OBJECTID":248829},"geometry":{"x":166973.21000000089,"y":2546679.3200000003}},{"attributes":{"ID":248834,"DIS_CODE":0,"TOWNNAME":"安定區","LI":"安定里","LIN":"11鄰","STREET":" ","SECT":" ","MAREA":"安定","LANE":" ","ALLEY":" ","HOUSE_NO":"９９之９號","E_COORD97":172027.97,"N_COORD97":2557759.3199999998,"ADDRESS":"安定９９之９號","OBJECTID":248830},"geometry":{"x":172027.97000000067,"y":2557759.3200000003}},{"attributes":{"ID":248835,"DIS_CODE":0,"TOWNNAME":"安南區","LI":"幸福里","LIN":"14鄰","STREET":"府安路","SECT":"六段","MAREA":" ","LANE":"４５巷","ALLEY":" ","HOUSE_NO":"７號","E_COORD97":166950.44,"N_COORD97":2546675.3500000001,"ADDRESS":"府安路六段４５巷７號","OBJECTID":248831},"geometry":{"x":166950.44000000041,"y":2546675.3499999996}},{"attributes":{"ID":248836,"DIS_CODE":0,"TOWNNAME":"安南區","LI":"幸福里","LIN":"14鄰","STREET":"府安路","SECT":"六段","MAREA":" ","LANE":"４５巷","ALLEY":" ","HOUSE_NO":"９號","E_COORD97":166949.95999999999,"N_COORD97":2546680.5600000001,"ADDRESS":"府安路六段４５巷９號","OBJECTID":248832},"geometry":{"x":166949.95999999996,"y":2546680.5600000024}},{"attributes":{"ID":248837,"DIS_CODE":0,"TOWNNAME":"安定區","LI":"港口里","LIN":"11鄰","STREET":" ","SECT":" ","MAREA":"港口","LANE":" ","ALLEY":" ","HOUSE_NO":"３２０之１號","E_COORD97":171236.69,"N_COORD97":2554617.2999999998,"ADDRESS":"港口３２０之１號","OBJECTID":248833},"geometry":{"x":171236.69000000227,"y":2554617.3000000007}},{"attributes":{"ID":248838,"DIS_CODE":0,"TOWNNAME":"安南區","LI":"海南里","LIN":"14鄰","STREET":"府安路","SECT":"七段","MAREA":" ","LANE":"６６巷","ALLEY":" ","HOUSE_NO":"２０號","E_COORD97":165883.81,"N_COORD97":2545965.6499999999,"ADDRESS":"府安路七段６６巷２０號","OBJECTID":248834},"geometry":{"x":165883.81000000052,"y":2545965.6500000004}},{"attributes":{"ID":248839,"DIS_CODE":0,"TOWNNAME":"安南區","LI":"安慶里","LIN":"14鄰","STREET":"安中路","SECT":"一段","MAREA":" ","LANE":"１３０巷","ALLEY":" ","HOUSE_NO":"１７號","E_COORD97":168914.20207999999,"N_COORD97":2548529.2960999999,"ADDRESS":"安中路一段１３０巷１７號","OBJECTID":248835},"geometry":{"x":168914.20208000019,"y":2548529.2961010002}},{"attributes":{"ID":248840,"DIS_CODE":0,"TOWNNAME":"安南區","LI":"安慶里","LIN":"14鄰","STREET":"安中路","SECT":"一段","MAREA":" ","LANE":"１３０巷","ALLEY":" ","HOUSE_NO":"２２號","E_COORD97":168912.95000000001,"N_COORD97":2548552.1499999999,"ADDRESS":"安中路一段１３０巷２２號","OBJECTID":248836},"geometry":{"x":168912.95000000112,"y":2548552.1500000004}},{"attributes":{"ID":248841,"DIS_CODE":0,"TOWNNAME":"安定區","LI":"安定里","LIN":"11鄰","STREET":" ","SECT":" ","MAREA":"安定","LANE":" ","ALLEY":" ","HOUSE_NO":"９９之３號","E_COORD97":172016.76999999999,"N_COORD97":2557735.3199999998,"ADDRESS":"安定９９之３號","OBJECTID":248837},"geometry":{"x":172016.77000000142,"y":2557735.3200000003}},{"attributes":{"ID":248842,"DIS_CODE":0,"TOWNNAME":"安定區","LI":"保西里","LIN":"11鄰","STREET":" ","SECT":" ","MAREA":"安定","LANE":" ","ALLEY":" ","HOUSE_NO":"４３７號","E_COORD97":171697.12,"N_COORD97":2557977.3199999998,"ADDRESS":"安定４３７號","OBJECTID":248838},"geometry":{"x":171697.12000000011,"y":2557977.320000004}},{"attributes":{"ID":248843,"DIS_CODE":0,"TOWNNAME":"安定區","LI":"安定里","LIN":"11鄰","STREET":" ","SECT":" ","MAREA":"安定","LANE":" ","ALLEY":" ","HOUSE_NO":"１０１之２號","E_COORD97":172022.32000000001,"N_COORD97":2557692.3199999998,"ADDRESS":"安定１０１之２號","OBJECTID":248839},"geometry":{"x":172022.32000000216,"y":2557692.320000004}},{"attributes":{"ID":248844,"DIS_CODE":0,"TOWNNAME":"安南區","LI":"安慶里","LIN":"14鄰","STREET":"安中路","SECT":"一段","MAREA":" ","LANE":"１３０巷","ALLEY":" ","HOUSE_NO":"２４號","E_COORD97":168908.51000000001,"N_COORD97":2548553.1699999999,"ADDRESS":"安中路一段１３０巷２４號","OBJECTID":248840},"geometry":{"x":168908.51000000071,"y":2548553.1700000018}},{"attributes":{"ID":248845,"DIS_CODE":0,"TOWNNAME":"北區","LI":"玉皇里","LIN":"14鄰","STREET":"忠義路","SECT":"三段","MAREA":" ","LANE":" ","ALLEY":" ","HOUSE_NO":"２２號六樓之２","E_COORD97":168537.85999999999,"N_COORD97":2544419.5800000001,"ADDRESS":"忠義路三段２２號六樓之２","OBJECTID":248841},"geometry":{"x":168537.86000000034,"y":2544419.5800000001}},{"attributes":{"ID":248846,"DIS_CODE":0,"TOWNNAME":"安定區","LI":"港南里","LIN":"11鄰","STREET":" ","SECT":" ","MAREA":"港口","LANE":" ","ALLEY":" ","HOUSE_NO":"８０號","E_COORD97":171357.44,"N_COORD97":2554311.25,"ADDRESS":"港口８０號","OBJECTID":248842},"geometry":{"x":171357.44000000134,"y":2554311.25}},{"attributes":{"ID":248847,"DIS_CODE":0,"TOWNNAME":"安定區","LI":"蘇林里","LIN":"11鄰","STREET":" ","SECT":" ","MAREA":"蘇厝","LANE":" ","ALLEY":" ","HOUSE_NO":"１１７號之５","E_COORD97":173678.20999999999,"N_COORD97":2558929.2999999998,"ADDRESS":"蘇厝１１７號之５","OBJECTID":248843},"geometry":{"x":173678.20999999996,"y":2558929.3000000007}},{"attributes":{"ID":248848,"DIS_CODE":0,"TOWNNAME":"永康區","LI":"中興里","LIN":"13鄰","STREET":"中興街","SECT":" ","MAREA":" ","LANE":"６４巷","ALLEY":" ","HOUSE_NO":"１號","E_COORD97":172104.89000000001,"N_COORD97":2545286.4900000002,"ADDRESS":"中興街６４巷１號","OBJECTID":248844},"geometry":{"x":172104.8900000006,"y":2545286.4900000021}},{"attributes":{"ID":248849,"DIS_CODE":0,"TOWNNAME":"安定區","LI":"安定里","LIN":"11鄰","STREET":" ","SECT":" ","MAREA":"安定","LANE":" ","ALLEY":" ","HOUSE_NO":"９９之７號","E_COORD97":172031.97,"N_COORD97":2557734.3199999998,"ADDRESS":"安定９９之７號","OBJECTID":248845},"geometry":{"x":172031.96999999974,"y":2557734.3200000022}},{"attributes":{"ID":248850,"DIS_CODE":0,"TOWNNAME":"安南區","LI":"安慶里","LIN":"14鄰","STREET":"安中路","SECT":"一段","MAREA":" ","LANE":"１３０巷","ALLEY":" ","HOUSE_NO":"２６號","E_COORD97":168904.72,"N_COORD97":2548554.0899999999,"ADDRESS":"安中路一段１３０巷２６號","OBJECTID":248846},"geometry":{"x":168904.71999999974,"y":2548554.0900000017}},{"attributes":{"ID":248851,"DIS_CODE":0,"TOWNNAME":"北區","LI":"玉皇里","LIN":"14鄰","STREET":"忠義路","SECT":"三段","MAREA":" ","LANE":" ","ALLEY":" ","HOUSE_NO":"２２號六樓之３","E_COORD97":168537.85999999999,"N_COORD97":2544419.5800000001,"ADDRESS":"忠義路三段２２號六樓之３","OBJECTID":248847},"geometry":{"x":168537.86000000034,"y":2544419.5800000001}},{"attributes":{"ID":248852,"DIS_CODE":0,"TOWNNAME":"永康區","LI":"中興里","LIN":"22鄰","STREET":"中華路","SECT":" ","MAREA":" ","LANE":"２１２巷","ALLEY":" ","HOUSE_NO":"２９號","E_COORD97":171774.85999999999,"N_COORD97":2545022.5499999998,"ADDRESS":"中華路２１２巷２９號","OBJECTID":248848},"geometry":{"x":171774.86000000127,"y":2545022.5500000026}},{"attributes":{"ID":248853,"DIS_CODE":0,"TOWNNAME":"永康區","LI":"中興里","LIN":"22鄰","STREET":"中華路","SECT":" ","MAREA":" ","LANE":"２１２巷","ALLEY":" ","HOUSE_NO":"３號","E_COORD97":171704.72,"N_COORD97":2545025.2400000002,"ADDRESS":"中華路２１２巷３號","OBJECTID":248849},"geometry":{"x":171704.71999999974,"y":2545025.2400000002}},{"attributes":{"ID":248854,"DIS_CODE":0,"TOWNNAME":"永康區","LI":"五王里","LIN":"38鄰","STREET":"中華路","SECT":" ","MAREA":" ","LANE":"５７８巷","ALLEY":" ","HOUSE_NO":"１７號之３０","E_COORD97":171333.62,"N_COORD97":2545989.54,"ADDRESS":"中華路５７８巷１７號之３０","OBJECTID":248850},"geometry":{"x":171333.62000000104,"y":2545989.5400000028}},{"attributes":{"ID":248855,"DIS_CODE":0,"TOWNNAME":"永康區","LI":"五王里","LIN":"38鄰","STREET":"中華路","SECT":" ","MAREA":" ","LANE":"５７８巷","ALLEY":" ","HOUSE_NO":"１７號之７","E_COORD97":171332.39999999999,"N_COORD97":2545989.54,"ADDRESS":"中華路５７８巷１７號之７","OBJECTID":248851},"geometry":{"x":171332.4000000013,"y":2545989.5400000028}},{"attributes":{"ID":248856,"DIS_CODE":0,"TOWNNAME":"永康區","LI":"五王里","LIN":"39鄰","STREET":"中華路","SECT":" ","MAREA":" ","LANE":"５７８巷","ALLEY":" ","HOUSE_NO":"１７號之１０８","E_COORD97":171334.97,"N_COORD97":2545989.54,"ADDRESS":"中華路５７８巷１７號之１０８","OBJECTID":248852},"geometry":{"x":171334.96999999974,"y":2545989.5400000028}},{"attributes":{"ID":248857,"DIS_CODE":0,"TOWNNAME":"永康區","LI":"五王里","LIN":"32鄰","STREET":"中華路","SECT":" ","MAREA":" ","LANE":"５７８巷","ALLEY":" ","HOUSE_NO":"２號之５","E_COORD97":171257.64999999999,"N_COORD97":2545923.7999999998,"ADDRESS":"中華路５７８巷２號之５","OBJECTID":248853},"geometry":{"x":171257.6500000013,"y":2545923.8000000007}},{"attributes":{"ID":248858,"DIS_CODE":0,"TOWNNAME":"永康區","LI":"五王里","LIN":"32鄰","STREET":"中華路","SECT":" ","MAREA":" ","LANE":"５７８巷","ALLEY":" ","HOUSE_NO":"２號之６","E_COORD97":171262.89000000001,"N_COORD97":2545926.0499999998,"ADDRESS":"中華路５７８巷２號之６","OBJECTID":248854},"geometry":{"x":171262.88999999966,"y":2545926.0500000007}},{"attributes":{"ID":248859,"DIS_CODE":0,"TOWNNAME":"永康區","LI":"五王里","LIN":"37鄰","STREET":"中華路","SECT":" ","MAREA":" ","LANE":"５７８巷","ALLEY":" ","HOUSE_NO":"１５號之４","E_COORD97":171274.72,"N_COORD97":2545965.79,"ADDRESS":"中華路５７８巷１５號之４","OBJECTID":248855},"geometry":{"x":171274.7200000016,"y":2545965.7899999991}},{"attributes":{"ID":248860,"DIS_CODE":0,"TOWNNAME":"安南區","LI":"安慶里","LIN":"14鄰","STREET":"安中路","SECT":"一段","MAREA":" ","LANE":"１３０巷","ALLEY":" ","HOUSE_NO":"２８號","E_COORD97":168900.19,"N_COORD97":2548555.0099999998,"ADDRESS":"安中路一段１３０巷２８號","OBJECTID":248856},"geometry":{"x":168900.19000000041,"y":2548555.0100000016}},{"attributes":{"ID":248861,"DIS_CODE":0,"TOWNNAME":"安南區","LI":"安慶里","LIN":"14鄰","STREET":"安中路","SECT":"一段","MAREA":" ","LANE":"１３０巷","ALLEY":" ","HOUSE_NO":"３０號","E_COORD97":168896.22,"N_COORD97":2548555.6600000001,"ADDRESS":"安中路一段１３０巷３０號","OBJECTID":248857},"geometry":{"x":168896.21999999974,"y":2548555.6600000001}},{"attributes":{"ID":248862,"DIS_CODE":0,"TOWNNAME":"北區","LI":"玉皇里","LIN":"14鄰","STREET":"忠義路","SECT":"三段","MAREA":" ","LANE":" ","ALLEY":" ","HOUSE_NO":"２２號六樓之４","E_COORD97":168537.85999999999,"N_COORD97":2544419.5800000001,"ADDRESS":"忠義路三段２２號六樓之４","OBJECTID":248858},"geometry":{"x":168537.86000000034,"y":2544419.5800000001}},{"attributes":{"ID":248863,"DIS_CODE":0,"TOWNNAME":"北區","LI":"玉皇里","LIN":"14鄰","STREET":"忠義路","SECT":"三段","MAREA":" ","LANE":" ","ALLEY":" ","HOUSE_NO":"２２號六樓之５","E_COORD97":168537.85999999999,"N_COORD97":2544419.5800000001,"ADDRESS":"忠義路三段２２號六樓之５","OBJECTID":248859},"geometry":{"x":168537.86000000034,"y":2544419.5800000001}},{"attributes":{"ID":248864,"DIS_CODE":0,"TOWNNAME":"永康區","LI":"王行里","LIN":"14鄰","STREET":"環工路","SECT":" ","MAREA":" ","LANE":" ","ALLEY":" ","HOUSE_NO":"４６號","E_COORD97":175040.63,"N_COORD97":2549361.9900000002,"ADDRESS":"環工路４６號","OBJECTID":248860},"geometry":{"x":175040.63000000175,"y":2549361.9900000021}},{"attributes":{"ID":248865,"DIS_CODE":0,"TOWNNAME":"安定區","LI":"管寮里","LIN":"11鄰","STREET":" ","SECT":" ","MAREA":"管寮","LANE":" ","ALLEY":" ","HOUSE_NO":"９７號","E_COORD97":169913.84,"N_COORD97":2556354.25,"ADDRESS":"管寮９７號","OBJECTID":248861},"geometry":{"x":169913.83999999985,"y":2556354.2500000019}},{"attributes":{"ID":248866,"DIS_CODE":0,"TOWNNAME":"永康區","LI":"王行里","LIN":"14鄰","STREET":"環工路","SECT":" ","MAREA":" ","LANE":" ","ALLEY":" ","HOUSE_NO":"２號","E_COORD97":175693.95000000001,"N_COORD97":2550150.79,"ADDRESS":"環工路２號","OBJECTID":248862},"geometry":{"x":175693.95000000019,"y":2550150.7899999991}},{"attributes":{"ID":248867,"DIS_CODE":0,"TOWNNAME":"永康區","LI":"王行里","LIN":"14鄰","STREET":"環工路","SECT":" ","MAREA":" ","LANE":" ","ALLEY":" ","HOUSE_NO":"３９號","E_COORD97":175383.95999999999,"N_COORD97":2549371.2599999998,"ADDRESS":"環工路３９號","OBJECTID":248863},"geometry":{"x":175383.95999999996,"y":2549371.2599999998}},{"attributes":{"ID":248868,"DIS_CODE":0,"TOWNNAME":"歸仁區","LI":"六甲里","LIN":"17鄰","STREET":"中正二十街","SECT":" ","MAREA":" ","LANE":" ","ALLEY":" ","HOUSE_NO":"１０８號","E_COORD97":175673.117512,"N_COORD97":2539125.66738,"ADDRESS":"中正二十街１０８號","OBJECTID":248864},"geometry":{"x":175673.11751199979,"y":2539125.6673820019}},{"attributes":{"ID":248869,"DIS_CODE":0,"TOWNNAME":"安南區","LI":"佃東里","LIN":"14鄰","STREET":"公學路","SECT":"四段","MAREA":" ","LANE":" ","ALLEY":" ","HOUSE_NO":"６號","E_COORD97":165951.48000000001,"N_COORD97":2552069.3100000001,"ADDRESS":"公學路四段６號","OBJECTID":248865},"geometry":{"x":165951.48000000138,"y":2552069.3100000024}},{"attributes":{"ID":248870,"DIS_CODE":0,"TOWNNAME":"安南區","LI":"佃東里","LIN":"14鄰","STREET":"公學路","SECT":"四段","MAREA":" ","LANE":" ","ALLEY":" ","HOUSE_NO":"８號","E_COORD97":165943.01999999999,"N_COORD97":2552068.2999999998,"ADDRESS":"公學路四段８號","OBJECTID":248866},"geometry":{"x":165943.02000000048,"y":2552068.3000000045}},{"attributes":{"ID":248871,"DIS_CODE":0,"TOWNNAME":"安南區","LI":"佃東里","LIN":"14鄰","STREET":"公學路","SECT":"四段","MAREA":" ","LANE":" ","ALLEY":" ","HOUSE_NO":"８之１號","E_COORD97":165937.79000000001,"N_COORD97":2552070.0800000001,"ADDRESS":"公學路四段８之１號","OBJECTID":248867},"geometry":{"x":165937.79000000004,"y":2552070.0800000019}},{"attributes":{"ID":248872,"DIS_CODE":0,"TOWNNAME":"永康區","LI":"中興里","LIN":"22鄰","STREET":"中華路","SECT":" ","MAREA":" ","LANE":"２１２巷","ALLEY":" ","HOUSE_NO":"６號","E_COORD97":171702.54000000001,"N_COORD97":2545000.75,"ADDRESS":"中華路２１２巷６號","OBJECTID":248868},"geometry":{"x":171702.54000000097,"y":2545000.75}},{"attributes":{"ID":248873,"DIS_CODE":0,"TOWNNAME":"永康區","LI":"中興里","LIN":"4鄰","STREET":"中華路","SECT":" ","MAREA":" ","LANE":"２１２巷","ALLEY":" ","HOUSE_NO":"４７號","E_COORD97":171819.32000000001,"N_COORD97":2545027.9900000002,"ADDRESS":"中華路２１２巷４７號","OBJECTID":248869},"geometry":{"x":171819.32000000123,"y":2545027.9900000039}},{"attributes":{"ID":248874,"DIS_CODE":0,"TOWNNAME":"永康區","LI":"五王里","LIN":"5鄰","STREET":"中華二路","SECT":" ","MAREA":" ","LANE":"２０６巷","ALLEY":" ","HOUSE_NO":"５８號","E_COORD97":171606.12,"N_COORD97":2545620.3900000001,"ADDRESS":"中華二路２０６巷５８號","OBJECTID":248870},"geometry":{"x":171606.12000000011,"y":2545620.3900000025}},{"attributes":{"ID":248875,"DIS_CODE":0,"TOWNNAME":"安南區","LI":"安慶里","LIN":"14鄰","STREET":"安中路","SECT":"一段","MAREA":" ","LANE":"１３０巷","ALLEY":" ","HOUSE_NO":"３２號","E_COORD97":168892.14999999999,"N_COORD97":2548556.1200000001,"ADDRESS":"安中路一段１３０巷３２號","OBJECTID":248871},"geometry":{"x":168892.15000000037,"y":2548556.120000001}},{"attributes":{"ID":248876,"DIS_CODE":0,"TOWNNAME":"安南區","LI":"安慶里","LIN":"14鄰","STREET":"安中路","SECT":"一段","MAREA":" ","LANE":"１３０巷","ALLEY":" ","HOUSE_NO":"３４號","E_COORD97":168884.10999999999,"N_COORD97":2548562.7400000002,"ADDRESS":"安中路一段１３０巷３４號","OBJECTID":248872},"geometry":{"x":168884.1099999994,"y":2548562.7400000039}},{"attributes":{"ID":248877,"DIS_CODE":0,"TOWNNAME":"東區","LI":"東明里","LIN":"14鄰","STREET":"東安路","SECT":" ","MAREA":" ","LANE":"７６巷","ALLEY":" ","HOUSE_NO":"３１號","E_COORD97":170773.72,"N_COORD97":2543674.9500000002,"ADDRESS":"東安路７６巷３１號","OBJECTID":248873},"geometry":{"x":170773.72000000067,"y":2543674.9500000011}},{"attributes":{"ID":248878,"DIS_CODE":0,"TOWNNAME":"東區","LI":"東明里","LIN":"14鄰","STREET":"東安路","SECT":" ","MAREA":" ","LANE":"７６巷","ALLEY":" ","HOUSE_NO":"３７號","E_COORD97":170793.10999999999,"N_COORD97":2543671.5499999998,"ADDRESS":"東安路７６巷３７號","OBJECTID":248874},"geometry":{"x":170793.1100000022,"y":2543671.5500000007}},{"attributes":{"ID":248879,"DIS_CODE":0,"TOWNNAME":"東區","LI":"東明里","LIN":"14鄰","STREET":"東安路","SECT":" ","MAREA":" ","LANE":"７６巷","ALLEY":" ","HOUSE_NO":"４１號","E_COORD97":170801.63,"N_COORD97":2543670.98,"ADDRESS":"東安路７６巷４１號","OBJECTID":248875},"geometry":{"x":170801.63000000082,"y":2543670.9800000004}},{"attributes":{"ID":248880,"DIS_CODE":0,"TOWNNAME":"新市區","LI":"新市里","LIN":"14鄰","STREET":"中正路","SECT":" ","MAREA":" ","LANE":"３０１巷","ALLEY":" ","HOUSE_NO":"８號","E_COORD97":177592.01999999999,"N_COORD97":2553280.75,"ADDRESS":"中正路３０１巷８號","OBJECTID":248876},"geometry":{"x":177592.01999999955,"y":2553280.75}},{"attributes":{"ID":248881,"DIS_CODE":0,"TOWNNAME":"中西區","LI":"永華里","LIN":"14鄰","STREET":"開山路","SECT":" ","MAREA":" ","LANE":"５２巷","ALLEY":" ","HOUSE_NO":"１５號","E_COORD97":168627.44,"N_COORD97":2543430.4500000002,"ADDRESS":"開山路５２巷１５號","OBJECTID":248877},"geometry":{"x":168627.44000000041,"y":2543430.450000003}},{"attributes":{"ID":248882,"DIS_CODE":0,"TOWNNAME":"中西區","LI":"永華里","LIN":"14鄰","STREET":"開山路","SECT":" ","MAREA":" ","LANE":"５２巷","ALLEY":" ","HOUSE_NO":"１６號","E_COORD97":168624.01999999999,"N_COORD97":2543427.7799999998,"ADDRESS":"開山路５２巷１６號","OBJECTID":248878},"geometry":{"x":168624.01999999955,"y":2543427.7799999993}},{"attributes":{"ID":248883,"DIS_CODE":0,"TOWNNAME":"中西區","LI":"永華里","LIN":"14鄰","STREET":"開山路","SECT":" ","MAREA":" ","LANE":"５２巷","ALLEY":" ","HOUSE_NO":"１７號","E_COORD97":168620.09,"N_COORD97":2543425.9300000002,"ADDRESS":"開山路５２巷１７號","OBJECTID":248879},"geometry":{"x":168620.09000000078,"y":2543425.9300000016}},{"attributes":{"ID":248884,"DIS_CODE":0,"TOWNNAME":"中西區","LI":"永華里","LIN":"14鄰","STREET":"開山路","SECT":" ","MAREA":" ","LANE":"５２巷","ALLEY":" ","HOUSE_NO":"１８號","E_COORD97":168616.60000000001,"N_COORD97":2543423.9300000002,"ADDRESS":"開山路５２巷１８號","OBJECTID":248880},"geometry":{"x":168616.59999999963,"y":2543423.9299999997}},{"attributes":{"ID":248885,"DIS_CODE":0,"TOWNNAME":"安南區","LI":"佃東里","LIN":"14鄰","STREET":"公學路","SECT":"四段","MAREA":" ","LANE":" ","ALLEY":" ","HOUSE_NO":"８之２號","E_COORD97":165933.89000000001,"N_COORD97":2552068.1899999999,"ADDRESS":"公學路四段８之２號","OBJECTID":248881},"geometry":{"x":165933.8900000006,"y":2552068.1900000013}},{"attributes":{"ID":248886,"DIS_CODE":0,"TOWNNAME":"安南區","LI":"安慶里","LIN":"14鄰","STREET":"安中路","SECT":"一段","MAREA":" ","LANE":" ","ALLEY":" ","HOUSE_NO":"７９號之４","E_COORD97":169072.26999999999,"N_COORD97":2548285.5899999999,"ADDRESS":"安中路一段７９號之４","OBJECTID":248882},"geometry":{"x":169072.27000000142,"y":2548285.5900000017}},{"attributes":{"ID":248887,"DIS_CODE":0,"TOWNNAME":"安南區","LI":"安慶里","LIN":"14鄰","STREET":"安中路","SECT":"一段","MAREA":" ","LANE":" ","ALLEY":" ","HOUSE_NO":"７９號之５","E_COORD97":169069.69,"N_COORD97":2548289.5299999998,"ADDRESS":"安中路一段７９號之５","OBJECTID":248883},"geometry":{"x":169069.69000000041,"y":2548289.5300000012}},{"attributes":{"ID":248888,"DIS_CODE":0,"TOWNNAME":"仁德區","LI":"成功里","LIN":"11鄰","STREET":"成功二街","SECT":" ","MAREA":" ","LANE":"３１巷","ALLEY":" ","HOUSE_NO":"８號","E_COORD97":170950.54999999999,"N_COORD97":2539844.0099999998,"ADDRESS":"成功二街３１巷８號","OBJECTID":248884},"geometry":{"x":170950.55000000168,"y":2539844.0100000016}},{"attributes":{"ID":248889,"DIS_CODE":0,"TOWNNAME":"仁德區","LI":"保安里","LIN":"11鄰","STREET":"中正路","SECT":"一段","MAREA":" ","LANE":"２５１巷","ALLEY":" ","HOUSE_NO":"３１號","E_COORD97":171687.57000000001,"N_COORD97":2536097.5299999998,"ADDRESS":"中正路一段２５１巷３１號","OBJECTID":248885},"geometry":{"x":171687.5700000003,"y":2536097.5300000012}},{"attributes":{"ID":248890,"DIS_CODE":0,"TOWNNAME":"安平區","LI":"文平里","LIN":"17鄰","STREET":"建平四街","SECT":" ","MAREA":" ","LANE":"１８巷","ALLEY":" ","HOUSE_NO":"２０號之３","E_COORD97":166070.87859000001,"N_COORD97":2543070.3920399998,"ADDRESS":"建平四街１８巷２０號之３","OBJECTID":248886},"geometry":{"x":166070.87859000172,"y":2543070.3920399994}},{"attributes":{"ID":248891,"DIS_CODE":0,"TOWNNAME":"永康區","LI":"五王里","LIN":"5鄰","STREET":"中華二路","SECT":" ","MAREA":" ","LANE":"２０６巷","ALLEY":" ","HOUSE_NO":"５６號","E_COORD97":171609.20999999999,"N_COORD97":2545615.8900000001,"ADDRESS":"中華二路２０６巷５６號","OBJECTID":248887},"geometry":{"x":171609.21000000089,"y":2545615.8900000043}},{"attributes":{"ID":248892,"DIS_CODE":0,"TOWNNAME":"永康區","LI":"五王里","LIN":"38鄰","STREET":"中華路","SECT":" ","MAREA":" ","LANE":"５７８巷","ALLEY":" ","HOUSE_NO":"１７號之２９","E_COORD97":171333.64999999999,"N_COORD97":2545989.54,"ADDRESS":"中華路５７８巷１７號之２９","OBJECTID":248888},"geometry":{"x":171333.65000000224,"y":2545989.5400000028}},{"attributes":{"ID":248893,"DIS_CODE":0,"TOWNNAME":"永康區","LI":"大灣里","LIN":"15鄰","STREET":"民族路","SECT":" ","MAREA":" ","LANE":"４１５巷","ALLEY":" ","HOUSE_NO":"２９號","E_COORD97":174767.10000000001,"N_COORD97":2545252.1299999999,"ADDRESS":"民族路４１５巷２９號","OBJECTID":248889},"geometry":{"x":174767.09999999963,"y":2545252.129999999}},{"attributes":{"ID":248894,"DIS_CODE":0,"TOWNNAME":"永康區","LI":"中興里","LIN":"15鄰","STREET":"中興街","SECT":" ","MAREA":" ","LANE":"９１巷","ALLEY":" ","HOUSE_NO":"２８號","E_COORD97":171986.12,"N_COORD97":2545358.7400000002,"ADDRESS":"中興街９１巷２８號","OBJECTID":248890},"geometry":{"x":171986.12000000197,"y":2545358.7400000039}},{"attributes":{"ID":248895,"DIS_CODE":0,"TOWNNAME":"永康區","LI":"王行里","LIN":"10鄰","STREET":"王行路","SECT":" ","MAREA":" ","LANE":"８９８巷","ALLEY":" ","HOUSE_NO":"１３９號","E_COORD97":175872.5,"N_COORD97":2550195.2999999998,"ADDRESS":"王行路８９８巷１３９號","OBJECTID":248891},"geometry":{"x":175872.50000000093,"y":2550195.3000000007}},{"attributes":{"ID":248896,"DIS_CODE":0,"TOWNNAME":"中西區","LI":"永華里","LIN":"14鄰","STREET":"府中街","SECT":" ","MAREA":" ","LANE":"９８巷","ALLEY":" ","HOUSE_NO":"１８號","E_COORD97":168596.39000000001,"N_COORD97":2543442.5800000001,"ADDRESS":"府中街９８巷１８號","OBJECTID":248892},"geometry":{"x":168596.38999999966,"y":2543442.5800000001}},{"attributes":{"ID":248897,"DIS_CODE":0,"TOWNNAME":"中西區","LI":"永華里","LIN":"14鄰","STREET":"府中街","SECT":" ","MAREA":" ","LANE":"９８巷","ALLEY":" ","HOUSE_NO":"２０號","E_COORD97":168591.72,"N_COORD97":2543447.9199999999,"ADDRESS":"府中街９８巷２０號","OBJECTID":248893},"geometry":{"x":168591.72000000067,"y":2543447.9199999999}},{"attributes":{"ID":248898,"DIS_CODE":0,"TOWNNAME":"中西區","LI":"永華里","LIN":"14鄰","STREET":"府中街","SECT":" ","MAREA":" ","LANE":"９８巷","ALLEY":" ","HOUSE_NO":"２２號","E_COORD97":168598.70000000001,"N_COORD97":2543450.96,"ADDRESS":"府中街９８巷２２號","OBJECTID":248894},"geometry":{"x":168598.70000000205,"y":2543450.9600000009}},{"attributes":{"ID":248899,"DIS_CODE":0,"TOWNNAME":"中西區","LI":"永華里","LIN":"14鄰","STREET":"府中街","SECT":" ","MAREA":" ","LANE":"９８巷","ALLEY":" ","HOUSE_NO":"２４號","E_COORD97":168605.01000000001,"N_COORD97":2543454.0800000001,"ADDRESS":"府中街９８巷２４號","OBJECTID":248895},"geometry":{"x":168605.01000000071,"y":2543454.0800000038}},{"attributes":{"ID":248900,"DIS_CODE":0,"TOWNNAME":"中西區","LI":"永華里","LIN":"14鄰","STREET":"府中街","SECT":" ","MAREA":" ","LANE":"９８巷","ALLEY":" ","HOUSE_NO":"２６號","E_COORD97":168609.60999999999,"N_COORD97":2543456.1499999999,"ADDRESS":"府中街９８巷２６號","OBJECTID":248896},"geometry":{"x":168609.6100000022,"y":2543456.1500000004}},{"attributes":{"ID":248901,"DIS_CODE":0,"TOWNNAME":"中西區","LI":"永華里","LIN":"14鄰","STREET":"府中街","SECT":" ","MAREA":" ","LANE":"９８巷","ALLEY":" ","HOUSE_NO":"２８號","E_COORD97":168614.76999999999,"N_COORD97":2543459.0499999998,"ADDRESS":"府中街９８巷２８號","OBJECTID":248897},"geometry":{"x":168614.77000000048,"y":2543459.0500000026}},{"attributes":{"ID":248902,"DIS_CODE":0,"TOWNNAME":"中西區","LI":"永華里","LIN":"14鄰","STREET":"府中街","SECT":" ","MAREA":" ","LANE":"９８巷","ALLEY":" ","HOUSE_NO":"２號","E_COORD97":168577.70999999999,"N_COORD97":2543438.6899999999,"ADDRESS":"府中街９８巷２號","OBJECTID":248898},"geometry":{"x":168577.70999999996,"y":2543438.6899999995}},{"attributes":{"ID":248903,"DIS_CODE":0,"TOWNNAME":"中西區","LI":"永華里","LIN":"14鄰","STREET":"府中街","SECT":" ","MAREA":" ","LANE":"９８巷","ALLEY":" ","HOUSE_NO":"６號","E_COORD97":168585.88,"N_COORD97":2543442.6200000001,"ADDRESS":"府中街９８巷６號","OBJECTID":248899},"geometry":{"x":168585.88000000082,"y":2543442.6200000029}},{"attributes":{"ID":248904,"DIS_CODE":0,"TOWNNAME":"中西區","LI":"永華里","LIN":"14鄰","STREET":"開山路","SECT":" ","MAREA":" ","LANE":"５２巷","ALLEY":" ","HOUSE_NO":"１０號","E_COORD97":168631.45000000001,"N_COORD97":2543448.2599999998,"ADDRESS":"開山路５２巷１０號","OBJECTID":248900},"geometry":{"x":168631.45000000112,"y":2543448.2599999998}},{"attributes":{"ID":248905,"DIS_CODE":0,"TOWNNAME":"中西區","LI":"三合里","LIN":"14鄰","STREET":"金華路","SECT":"四段","MAREA":" ","LANE":" ","ALLEY":" ","HOUSE_NO":"１４１號","E_COORD97":167537.70000000001,"N_COORD97":2544587.4399999999,"ADDRESS":"金華路四段１４１號","OBJECTID":248901},"geometry":{"x":167537.70000000112,"y":2544587.4400000013}},{"attributes":{"ID":248906,"DIS_CODE":0,"TOWNNAME":"中西區","LI":"三合里","LIN":"14鄰","STREET":"金華路","SECT":"四段","MAREA":" ","LANE":" ","ALLEY":" ","HOUSE_NO":"１４５號","E_COORD97":167539.42999999999,"N_COORD97":2544591.46,"ADDRESS":"金華路四段１４５號","OBJECTID":248902},"geometry":{"x":167539.43000000063,"y":2544591.459999999}},{"attributes":{"ID":248907,"DIS_CODE":0,"TOWNNAME":"佳里區","LI":"忠仁里","LIN":"14鄰","STREET":"佳東路","SECT":" ","MAREA":" ","LANE":" ","ALLEY":" ","HOUSE_NO":"２６９號","E_COORD97":166366.07999999999,"N_COORD97":2562064.5800000001,"ADDRESS":"佳東路２６９號","OBJECTID":248903},"geometry":{"x":166366.08000000007,"y":2562064.5800000019}},{"attributes":{"ID":248908,"DIS_CODE":0,"TOWNNAME":"佳里區","LI":"東寧里","LIN":"14鄰","STREET":"和平街","SECT":" ","MAREA":" ","LANE":" ","ALLEY":" ","HOUSE_NO":"６９號","E_COORD97":165903.26000000001,"N_COORD97":2562507.1899999999,"ADDRESS":"和平街６９號","OBJECTID":248904},"geometry":{"x":165903.26000000071,"y":2562507.1900000013}},{"attributes":{"ID":248909,"DIS_CODE":0,"TOWNNAME":"中西區","LI":"三合里","LIN":"14鄰","STREET":"金華路","SECT":"四段","MAREA":" ","LANE":" ","ALLEY":" ","HOUSE_NO":"１５１號","E_COORD97":167544.31,"N_COORD97":2544600.3100000001,"ADDRESS":"金華路四段１５１號","OBJECTID":248905},"geometry":{"x":167544.30999999959,"y":2544600.3100000024}},{"attributes":{"ID":248910,"DIS_CODE":0,"TOWNNAME":"中西區","LI":"三合里","LIN":"14鄰","STREET":"金華路","SECT":"四段","MAREA":" ","LANE":" ","ALLEY":" ","HOUSE_NO":"１５３號","E_COORD97":167547.48000000001,"N_COORD97":2544607.2200000002,"ADDRESS":"金華路四段１５３號","OBJECTID":248906},"geometry":{"x":167547.48000000045,"y":2544607.2200000025}},{"attributes":{"ID":248911,"DIS_CODE":0,"TOWNNAME":"中西區","LI":"三合里","LIN":"14鄰","STREET":"金華路","SECT":"四段","MAREA":" ","LANE":" ","ALLEY":" ","HOUSE_NO":"１５７號","E_COORD97":167548.04999999999,"N_COORD97":2544613.2599999998,"ADDRESS":"金華路四段１５７號","OBJECTID":248907},"geometry":{"x":167548.04999999981,"y":2544613.2600000016}},{"attributes":{"ID":248912,"DIS_CODE":0,"TOWNNAME":"仁德區","LI":"太子里","LIN":"11鄰","STREET":"長興二街","SECT":" ","MAREA":" ","LANE":"９２巷","ALLEY":" ","HOUSE_NO":"２號","E_COORD97":174209.10000000001,"N_COORD97":2543711.5099999998,"ADDRESS":"長興二街９２巷２號","OBJECTID":248908},"geometry":{"x":174209.09999999963,"y":2543711.5099999998}},{"attributes":{"ID":248913,"DIS_CODE":0,"TOWNNAME":"仁德區","LI":"成功里","LIN":"11鄰","STREET":"成功二街","SECT":" ","MAREA":" ","LANE":"２３巷","ALLEY":" ","HOUSE_NO":"７號","E_COORD97":170944.04999999999,"N_COORD97":2539927.02,"ADDRESS":"成功二街２３巷７號","OBJECTID":248909},"geometry":{"x":170944.05000000075,"y":2539927.0199999996}},{"attributes":{"ID":248914,"DIS_CODE":0,"TOWNNAME":"永康區","LI":"中興里","LIN":"4鄰","STREET":"中華路","SECT":" ","MAREA":" ","LANE":"２１２巷","ALLEY":" ","HOUSE_NO":"５２號","E_COORD97":171820.79000000001,"N_COORD97":2545013.0099999998,"ADDRESS":"中華路２１２巷５２號","OBJECTID":248910},"geometry":{"x":171820.79000000097,"y":2545013.0099999998}},{"attributes":{"ID":248915,"DIS_CODE":0,"TOWNNAME":"永康區","LI":"中興里","LIN":"22鄰","STREET":"中華路","SECT":" ","MAREA":" ","LANE":"２１２巷","ALLEY":" ","HOUSE_NO":"２６號","E_COORD97":171759.41,"N_COORD97":2545007.2599999998,"ADDRESS":"中華路２１２巷２６號","OBJECTID":248911},"geometry":{"x":171759.41000000108,"y":2545007.2599999998}},{"attributes":{"ID":248916,"DIS_CODE":0,"TOWNNAME":"永康區","LI":"五王里","LIN":"38鄰","STREET":"中華路","SECT":" ","MAREA":" ","LANE":"５７８巷","ALLEY":" ","HOUSE_NO":"１７號之１０","E_COORD97":171333.62,"N_COORD97":2545989.54,"ADDRESS":"中華路５７８巷１７號之１０","OBJECTID":248912},"geometry":{"x":171333.62000000104,"y":2545989.5400000028}},{"attributes":{"ID":248917,"DIS_CODE":0,"TOWNNAME":"中西區","LI":"永華里","LIN":"14鄰","STREET":"開山路","SECT":" ","MAREA":" ","LANE":"５２巷","ALLEY":" ","HOUSE_NO":"１１號","E_COORD97":168633.89999999999,"N_COORD97":2543445.4399999999,"ADDRESS":"開山路５２巷１１號","OBJECTID":248913},"geometry":{"x":168633.9000000013,"y":2543445.4400000013}},{"attributes":{"ID":248918,"DIS_CODE":0,"TOWNNAME":"中西區","LI":"永華里","LIN":"14鄰","STREET":"開山路","SECT":" ","MAREA":" ","LANE":"５２巷","ALLEY":" ","HOUSE_NO":"１２號","E_COORD97":168637.16,"N_COORD97":2543437.7200000002,"ADDRESS":"開山路５２巷１２號","OBJECTID":248914},"geometry":{"x":168637.16000000015,"y":2543437.7200000025}},{"attributes":{"ID":248919,"DIS_CODE":0,"TOWNNAME":"中西區","LI":"永華里","LIN":"14鄰","STREET":"開山路","SECT":" ","MAREA":" ","LANE":"５２巷","ALLEY":" ","HOUSE_NO":"１３號","E_COORD97":168634.26999999999,"N_COORD97":2543434.1600000001,"ADDRESS":"開山路５２巷１３號","OBJECTID":248915},"geometry":{"x":168634.26999999955,"y":2543434.160000002}},{"attributes":{"ID":248920,"DIS_CODE":0,"TOWNNAME":"中西區","LI":"永華里","LIN":"14鄰","STREET":"開山路","SECT":" ","MAREA":" ","LANE":"５２巷","ALLEY":" ","HOUSE_NO":"１４號","E_COORD97":168630.78,"N_COORD97":2543432.23,"ADDRESS":"開山路５２巷１４號","OBJECTID":248916},"geometry":{"x":168630.78000000119,"y":2543432.2300000004}},{"attributes":{"ID":248921,"DIS_CODE":0,"TOWNNAME":"中西區","LI":"永華里","LIN":"14鄰","STREET":"開山路","SECT":" ","MAREA":" ","LANE":"５２巷","ALLEY":" ","HOUSE_NO":"２４號","E_COORD97":168627.82999999999,"N_COORD97":2543424.6000000001,"ADDRESS":"開山路５２巷２４號","OBJECTID":248917},"geometry":{"x":168627.83000000007,"y":2543424.6000000015}},{"attributes":{"ID":248922,"DIS_CODE":0,"TOWNNAME":"中西區","LI":"永華里","LIN":"14鄰","STREET":"開山路","SECT":" ","MAREA":" ","LANE":"５２巷","ALLEY":" ","HOUSE_NO":"６號","E_COORD97":168623.13,"N_COORD97":2543461.8100000001,"ADDRESS":"開山路５２巷６號","OBJECTID":248918},"geometry":{"x":168623.13000000082,"y":2543461.8100000005}},{"attributes":{"ID":248923,"DIS_CODE":0,"TOWNNAME":"仁德區","LI":"後壁里","LIN":"14鄰","STREET":"德南路","SECT":" ","MAREA":" ","LANE":"１３７巷","ALLEY":" ","HOUSE_NO":"４５號","E_COORD97":173604.34,"N_COORD97":2538692.5099999998,"ADDRESS":"德南路１３７巷４５號","OBJECTID":248919},"geometry":{"x":173604.33999999985,"y":2538692.5100000016}},{"attributes":{"ID":248924,"DIS_CODE":0,"TOWNNAME":"安平區","LI":"文平里","LIN":"17鄰","STREET":"建平四街","SECT":" ","MAREA":" ","LANE":"１８巷","ALLEY":" ","HOUSE_NO":"２０號之４","E_COORD97":166070.66667999999,"N_COORD97":2543070.3920399998,"ADDRESS":"建平四街１８巷２０號之４","OBJECTID":248920},"geometry":{"x":166070.66668000072,"y":2543070.3920399994}},{"attributes":{"ID":248925,"DIS_CODE":0,"TOWNNAME":"官田區","LI":"隆本里","LIN":"14鄰","STREET":"興隆街","SECT":" ","MAREA":" ","LANE":"１８６巷","ALLEY":" ","HOUSE_NO":"１號","E_COORD97":179693.59,"N_COORD97":2566350.6600000001,"ADDRESS":"興隆街１８６巷１號","OBJECTID":248921},"geometry":{"x":179693.58999999985,"y":2566350.6600000001}},{"attributes":{"ID":248926,"DIS_CODE":0,"TOWNNAME":"官田區","LI":"隆本里","LIN":"14鄰","STREET":"興隆街","SECT":" ","MAREA":" ","LANE":"１８６巷","ALLEY":" ","HOUSE_NO":"２號","E_COORD97":179712.81,"N_COORD97":2566351.1800000002,"ADDRESS":"興隆街１８６巷２號","OBJECTID":248922},"geometry":{"x":179712.81000000052,"y":2566351.1799999997}},{"attributes":{"ID":248927,"DIS_CODE":0,"TOWNNAME":"官田區","LI":"隆本里","LIN":"14鄰","STREET":"興隆街","SECT":" ","MAREA":" ","LANE":"１８６巷","ALLEY":" ","HOUSE_NO":"３號","E_COORD97":179694.16,"N_COORD97":2566358.23,"ADDRESS":"興隆街１８６巷３號","OBJECTID":248923},"geometry":{"x":179694.16000000108,"y":2566358.2300000004}},{"attributes":{"ID":248928,"DIS_CODE":0,"TOWNNAME":"官田區","LI":"隆本里","LIN":"14鄰","STREET":"興隆街","SECT":" ","MAREA":" ","LANE":"１８６巷","ALLEY":" ","HOUSE_NO":"６號","E_COORD97":179712.16,"N_COORD97":2566358.0099999998,"ADDRESS":"興隆街１８６巷６號","OBJECTID":248924},"geometry":{"x":179712.16000000015,"y":2566358.0100000016}},{"attributes":{"ID":248929,"DIS_CODE":0,"TOWNNAME":"永康區","LI":"北灣里","LIN":"14鄰","STREET":"大灣七街","SECT":" ","MAREA":" ","LANE":"１１１巷","ALLEY":" ","HOUSE_NO":"１０號","E_COORD97":175039.89000000001,"N_COORD97":2545917.2400000002,"ADDRESS":"大灣七街１１１巷１０號","OBJECTID":248925},"geometry":{"x":175039.88999999966,"y":2545917.2400000002}},{"attributes":{"ID":248930,"DIS_CODE":0,"TOWNNAME":"中西區","LI":"三合里","LIN":"14鄰","STREET":"金華路","SECT":"四段","MAREA":" ","LANE":" ","ALLEY":" ","HOUSE_NO":"１５９號","E_COORD97":167550.64000000001,"N_COORD97":2544617.5600000001,"ADDRESS":"金華路四段１５９號","OBJECTID":248926},"geometry":{"x":167550.63999999966,"y":2544617.5599999987}},{"attributes":{"ID":248931,"DIS_CODE":0,"TOWNNAME":"東區","LI":"崇成里","LIN":"14鄰","STREET":"崇明十六街","SECT":" ","MAREA":" ","LANE":" ","ALLEY":" ","HOUSE_NO":"１２號","E_COORD97":170660.70999999999,"N_COORD97":2541282.3300000001,"ADDRESS":"崇明十六街１２號","OBJECTID":248927},"geometry":{"x":170660.70999999996,"y":2541282.3300000001}},{"attributes":{"ID":248932,"DIS_CODE":0,"TOWNNAME":"東區","LI":"崇成里","LIN":"14鄰","STREET":"崇明十六街","SECT":" ","MAREA":" ","LANE":" ","ALLEY":" ","HOUSE_NO":"１３號","E_COORD97":170682.67000000001,"N_COORD97":2541311.4900000002,"ADDRESS":"崇明十六街１３號","OBJECTID":248928},"geometry":{"x":170682.67000000086,"y":2541311.4900000002}},{"attributes":{"ID":248933,"DIS_CODE":0,"TOWNNAME":"東區","LI":"崇成里","LIN":"14鄰","STREET":"崇明十六街","SECT":" ","MAREA":" ","LANE":" ","ALLEY":" ","HOUSE_NO":"１４號","E_COORD97":170668.20999999999,"N_COORD97":2541280.8300000001,"ADDRESS":"崇明十六街１４號","OBJECTID":248929},"geometry":{"x":170668.21000000183,"y":2541280.8300000019}},{"attributes":{"ID":248934,"DIS_CODE":0,"TOWNNAME":"東區","LI":"崇成里","LIN":"14鄰","STREET":"崇明十六街","SECT":" ","MAREA":" ","LANE":" ","ALLEY":" ","HOUSE_NO":"１號","E_COORD97":170633.63,"N_COORD97":2541308,"ADDRESS":"崇明十六街１號","OBJECTID":248930},"geometry":{"x":170633.63000000082,"y":2541308}},{"attributes":{"ID":248935,"DIS_CODE":0,"TOWNNAME":"仁德區","LI":"成功里","LIN":"11鄰","STREET":"成功二街","SECT":" ","MAREA":" ","LANE":"３１巷","ALLEY":" ","HOUSE_NO":"１８號","E_COORD97":170977.82000000001,"N_COORD97":2539841.75,"ADDRESS":"成功二街３１巷１８號","OBJECTID":248931},"geometry":{"x":170977.8200000003,"y":2539841.75}},{"attributes":{"ID":248936,"DIS_CODE":0,"TOWNNAME":"仁德區","LI":"成功里","LIN":"11鄰","STREET":"成功二街","SECT":" ","MAREA":" ","LANE":"３１巷","ALLEY":" ","HOUSE_NO":"４號","E_COORD97":170941.85000000001,"N_COORD97":2539844.5099999998,"ADDRESS":"成功二街３１巷４號","OBJECTID":248932},"geometry":{"x":170941.85000000056,"y":2539844.5100000016}},{"attributes":{"ID":248937,"DIS_CODE":0,"TOWNNAME":"仁德區","LI":"太子里","LIN":"11鄰","STREET":"長興二街","SECT":" ","MAREA":" ","LANE":"９２巷","ALLEY":" ","HOUSE_NO":"３６號","E_COORD97":174199.51000000001,"N_COORD97":2543795.5,"ADDRESS":"長興二街９２巷３６號","OBJECTID":248933},"geometry":{"x":174199.51000000071,"y":2543795.5}},{"attributes":{"ID":248938,"DIS_CODE":0,"TOWNNAME":"仁德區","LI":"太子里","LIN":"11鄰","STREET":"長興二街","SECT":" ","MAREA":" ","LANE":"９２巷","ALLEY":" ","HOUSE_NO":"２８號","E_COORD97":174205.06,"N_COORD97":2543782.75,"ADDRESS":"長興二街９２巷２８號","OBJECTID":248934},"geometry":{"x":174205.06000000145,"y":2543782.7500000019}},{"attributes":{"ID":248939,"DIS_CODE":0,"TOWNNAME":"仁德區","LI":"成功里","LIN":"11鄰","STREET":"成功二街","SECT":" ","MAREA":" ","LANE":"３１巷","ALLEY":" ","HOUSE_NO":"２號","E_COORD97":170937.51000000001,"N_COORD97":2539844.5099999998,"ADDRESS":"成功二街３１巷２號","OBJECTID":248935},"geometry":{"x":170937.51000000071,"y":2539844.5100000016}},{"attributes":{"ID":248940,"DIS_CODE":0,"TOWNNAME":"永康區","LI":"北灣里","LIN":"14鄰","STREET":"大灣路","SECT":" ","MAREA":" ","LANE":"４４巷","ALLEY":" ","HOUSE_NO":"３０號之２","E_COORD97":175157.85000000001,"N_COORD97":2545925.5499999998,"ADDRESS":"大灣路４４巷３０號之２","OBJECTID":248936},"geometry":{"x":175157.85000000056,"y":2545925.5500000007}},{"attributes":{"ID":248941,"DIS_CODE":0,"TOWNNAME":"永康區","LI":"北灣里","LIN":"14鄰","STREET":"大灣路","SECT":" ","MAREA":" ","LANE":"４４巷","ALLEY":" ","HOUSE_NO":"３０號之１","E_COORD97":175166.14999999999,"N_COORD97":2545924.7999999998,"ADDRESS":"大灣路４４巷３０號之１","OBJECTID":248937},"geometry":{"x":175166.15000000037,"y":2545924.7999999989}},{"attributes":{"ID":248942,"DIS_CODE":0,"TOWNNAME":"永康區","LI":"北灣里","LIN":"14鄰","STREET":"大灣路","SECT":" ","MAREA":" ","LANE":"４４巷","ALLEY":" ","HOUSE_NO":"１２號","E_COORD97":175232.69,"N_COORD97":2545886.6699999999,"ADDRESS":"大灣路４４巷１２號","OBJECTID":248938},"geometry":{"x":175232.69000000134,"y":2545886.6699999999}},{"attributes":{"ID":248943,"DIS_CODE":0,"TOWNNAME":"永康區","LI":"北灣里","LIN":"14鄰","STREET":"大灣路","SECT":" ","MAREA":" ","LANE":"４４巷","ALLEY":" ","HOUSE_NO":"４６號之２","E_COORD97":175096.92000000001,"N_COORD97":2545894.8399999999,"ADDRESS":"大灣路４４巷４６號之２","OBJECTID":248939},"geometry":{"x":175096.92000000086,"y":2545894.8400000017}},{"attributes":{"ID":248944,"DIS_CODE":0,"TOWNNAME":"永康區","LI":"北灣里","LIN":"14鄰","STREET":"大灣路","SECT":" ","MAREA":" ","LANE":"４４巷","ALLEY":" ","HOUSE_NO":"５０號","E_COORD97":175080.64000000001,"N_COORD97":2545897.79,"ADDRESS":"大灣路４４巷５０號","OBJECTID":248940},"geometry":{"x":175080.63999999966,"y":2545897.790000001}},{"attributes":{"ID":248945,"DIS_CODE":0,"TOWNNAME":"永康區","LI":"北灣里","LIN":"14鄰","STREET":"大灣七街","SECT":" ","MAREA":" ","LANE":"９３巷","ALLEY":" ","HOUSE_NO":"９號","E_COORD97":175017.92000000001,"N_COORD97":2545786.9300000002,"ADDRESS":"大灣七街９３巷９號","OBJECTID":248941},"geometry":{"x":175017.91999999993,"y":2545786.9299999997}},{"attributes":{"ID":248946,"DIS_CODE":0,"TOWNNAME":"永康區","LI":"北灣里","LIN":"14鄰","STREET":"大灣路","SECT":" ","MAREA":" ","LANE":"４４巷","ALLEY":" ","HOUSE_NO":"２７號","E_COORD97":175124.97,"N_COORD97":2545866.2400000002,"ADDRESS":"大灣路４４巷２７號","OBJECTID":248942},"geometry":{"x":175124.97000000067,"y":2545866.2400000002}},{"attributes":{"ID":248947,"DIS_CODE":0,"TOWNNAME":"永康區","LI":"北灣里","LIN":"14鄰","STREET":"大灣路","SECT":" ","MAREA":" ","LANE":"４４巷","ALLEY":" ","HOUSE_NO":"４６號之１","E_COORD97":175103.92000000001,"N_COORD97":2545896.5899999999,"ADDRESS":"大灣路４４巷４６號之１","OBJECTID":248943},"geometry":{"x":175103.91999999993,"y":2545896.5900000017}},{"attributes":{"ID":248948,"DIS_CODE":0,"TOWNNAME":"永康區","LI":"龍潭里","LIN":"14鄰","STREET":"龍橋街","SECT":" ","MAREA":" ","LANE":"５３巷","ALLEY":" ","HOUSE_NO":"４２號","E_COORD97":174723.37,"N_COORD97":2548290.0299999998,"ADDRESS":"龍橋街５３巷４２號","OBJECTID":248944},"geometry":{"x":174723.37000000011,"y":2548290.0300000012}},{"attributes":{"ID":248949,"DIS_CODE":0,"TOWNNAME":"新市區","LI":"新和里","LIN":"14鄰","STREET":"忠孝街","SECT":" ","MAREA":" ","LANE":"９０巷","ALLEY":" ","HOUSE_NO":"５號","E_COORD97":177716.45999999999,"N_COORD97":2552560.25,"ADDRESS":"忠孝街９０巷５號","OBJECTID":248945},"geometry":{"x":177716.45999999996,"y":2552560.2500000019}},{"attributes":{"ID":248950,"DIS_CODE":0,"TOWNNAME":"東區","LI":"崇成里","LIN":"14鄰","STREET":"崇明十六街","SECT":" ","MAREA":" ","LANE":" ","ALLEY":" ","HOUSE_NO":"２４號","E_COORD97":170689.23000000001,"N_COORD97":2541280.6600000001,"ADDRESS":"崇明十六街２４號","OBJECTID":248946},"geometry":{"x":170689.23000000138,"y":2541280.6600000039}},{"attributes":{"ID":248951,"DIS_CODE":0,"TOWNNAME":"東區","LI":"崇成里","LIN":"14鄰","STREET":"崇明十六街","SECT":" ","MAREA":" ","LANE":" ","ALLEY":" ","HOUSE_NO":"２６號","E_COORD97":170693.73000000001,"N_COORD97":2541280.6600000001,"ADDRESS":"崇明十六街２６號","OBJECTID":248947},"geometry":{"x":170693.73000000045,"y":2541280.6600000039}},{"attributes":{"ID":248952,"DIS_CODE":0,"TOWNNAME":"東區","LI":"崇成里","LIN":"14鄰","STREET":"崇明十六街","SECT":" ","MAREA":" ","LANE":" ","ALLEY":" ","HOUSE_NO":"２８號","E_COORD97":170697.82000000001,"N_COORD97":2541280.75,"ADDRESS":"崇明十六街２８號","OBJECTID":248948},"geometry":{"x":170697.8200000003,"y":2541280.7500000019}},{"attributes":{"ID":248953,"DIS_CODE":0,"TOWNNAME":"東區","LI":"崇成里","LIN":"14鄰","STREET":"崇明十六街","SECT":" ","MAREA":" ","LANE":" ","ALLEY":" ","HOUSE_NO":"２號","E_COORD97":170637.20999999999,"N_COORD97":2541285.4500000002,"ADDRESS":"崇明十六街２號","OBJECTID":248949},"geometry":{"x":170637.20999999996,"y":2541285.4500000011}},{"attributes":{"ID":248954,"DIS_CODE":0,"TOWNNAME":"東區","LI":"崇成里","LIN":"14鄰","STREET":"崇明十六街","SECT":" ","MAREA":" ","LANE":" ","ALLEY":" ","HOUSE_NO":"３０號","E_COORD97":170701.98999999999,"N_COORD97":2541280.6600000001,"ADDRESS":"崇明十六街３０號","OBJECTID":248950},"geometry":{"x":170701.99000000022,"y":2541280.6600000039}},{"attributes":{"ID":248955,"DIS_CODE":0,"TOWNNAME":"東區","LI":"崇成里","LIN":"14鄰","STREET":"崇明十六街","SECT":" ","MAREA":" ","LANE":" ","ALLEY":" ","HOUSE_NO":"３２號","E_COORD97":170705.82000000001,"N_COORD97":2541280.6600000001,"ADDRESS":"崇明十六街３２號","OBJECTID":248951},"geometry":{"x":170705.82000000123,"y":2541280.6600000039}},{"attributes":{"ID":248956,"DIS_CODE":0,"TOWNNAME":"仁德區","LI":"土庫里","LIN":"11鄰","STREET":"土庫路","SECT":" ","MAREA":" ","LANE":"９９巷","ALLEY":" ","HOUSE_NO":"１０號","E_COORD97":174344.03,"N_COORD97":2543200,"ADDRESS":"土庫路９９巷１０號","OBJECTID":248952},"geometry":{"x":174344.03000000026,"y":2543200}},{"attributes":{"ID":248957,"DIS_CODE":0,"TOWNNAME":"永康區","LI":"中興里","LIN":"22鄰","STREET":"中華路","SECT":" ","MAREA":" ","LANE":"２１２巷","ALLEY":" ","HOUSE_NO":"２號","E_COORD97":171702.34,"N_COORD97":2544991.75,"ADDRESS":"中華路２１２巷２號","OBJECTID":248953},"geometry":{"x":171702.33999999985,"y":2544991.75}},{"attributes":{"ID":248958,"DIS_CODE":0,"TOWNNAME":"永康區","LI":"五王里","LIN":"22鄰","STREET":"成功路","SECT":" ","MAREA":" ","LANE":"２２８巷","ALLEY":" ","HOUSE_NO":"４８號","E_COORD97":171460.35000000001,"N_COORD97":2545838.2599999998,"ADDRESS":"成功路２２８巷４８號","OBJECTID":248954},"geometry":{"x":171460.35000000149,"y":2545838.2599999998}},{"attributes":{"ID":248959,"DIS_CODE":0,"TOWNNAME":"永康區","LI":"五王里","LIN":"39鄰","STREET":"中華路","SECT":" ","MAREA":" ","LANE":"５７８巷","ALLEY":" ","HOUSE_NO":"１７號之７４","E_COORD97":171333.59,"N_COORD97":2545989.54,"ADDRESS":"中華路５７８巷１７號之７４","OBJECTID":248955},"geometry":{"x":171333.59000000078,"y":2545989.5400000028}},{"attributes":{"ID":248960,"DIS_CODE":0,"TOWNNAME":"永康區","LI":"五王里","LIN":"39鄰","STREET":"中華路","SECT":" ","MAREA":" ","LANE":"５７８巷","ALLEY":" ","HOUSE_NO":"１７號之９０","E_COORD97":171333.62,"N_COORD97":2545989.54,"ADDRESS":"中華路５７８巷１７號之９０","OBJECTID":248956},"geometry":{"x":171333.62000000104,"y":2545989.5400000028}},{"attributes":{"ID":248961,"DIS_CODE":0,"TOWNNAME":"永康區","LI":"五王里","LIN":"32鄰","STREET":"中華路","SECT":" ","MAREA":" ","LANE":"５７８巷","ALLEY":" ","HOUSE_NO":"２號之２","E_COORD97":171237.70999999999,"N_COORD97":2545916.0499999998,"ADDRESS":"中華路５７８巷２號之２","OBJECTID":248957},"geometry":{"x":171237.71000000183,"y":2545916.0500000007}},{"attributes":{"ID":248962,"DIS_CODE":0,"TOWNNAME":"永康區","LI":"五王里","LIN":"38鄰","STREET":"中華路","SECT":" ","MAREA":" ","LANE":"５７８巷","ALLEY":" ","HOUSE_NO":"１７號之３７","E_COORD97":171333.64999999999,"N_COORD97":2545989.54,"ADDRESS":"中華路５７８巷１７號之３７","OBJECTID":248958},"geometry":{"x":171333.65000000224,"y":2545989.5400000028}},{"attributes":{"ID":248963,"DIS_CODE":0,"TOWNNAME":"東區","LI":"崇成里","LIN":"14鄰","STREET":"崇明十六街","SECT":" ","MAREA":" ","LANE":" ","ALLEY":" ","HOUSE_NO":"３４號","E_COORD97":170709.98999999999,"N_COORD97":2541280.75,"ADDRESS":"崇明十六街３４號","OBJECTID":248959},"geometry":{"x":170709.99000000022,"y":2541280.7500000019}},{"attributes":{"ID":248964,"DIS_CODE":0,"TOWNNAME":"東區","LI":"崇成里","LIN":"14鄰","STREET":"崇明十六街","SECT":" ","MAREA":" ","LANE":" ","ALLEY":" ","HOUSE_NO":"３６號","E_COORD97":170713.73999999999,"N_COORD97":2541280.5800000001,"ADDRESS":"崇明十六街３６號","OBJECTID":248960},"geometry":{"x":170713.74000000022,"y":2541280.5800000001}},{"attributes":{"ID":248965,"DIS_CODE":0,"TOWNNAME":"東區","LI":"崇成里","LIN":"14鄰","STREET":"崇明十六街","SECT":" ","MAREA":" ","LANE":" ","ALLEY":" ","HOUSE_NO":"３８號","E_COORD97":170717.48999999999,"N_COORD97":2541280.75,"ADDRESS":"崇明十六街３８號","OBJECTID":248961},"geometry":{"x":170717.49000000209,"y":2541280.7500000019}},{"attributes":{"ID":248966,"DIS_CODE":0,"TOWNNAME":"東區","LI":"崇成里","LIN":"14鄰","STREET":"崇明十六街","SECT":" ","MAREA":" ","LANE":" ","ALLEY":" ","HOUSE_NO":"３號","E_COORD97":170642.51000000001,"N_COORD97":2541313.1600000001,"ADDRESS":"崇明十六街３號","OBJECTID":248962},"geometry":{"x":170642.51000000071,"y":2541313.1600000001}},{"attributes":{"ID":248967,"DIS_CODE":0,"TOWNNAME":"佳里區","LI":"忠仁里","LIN":"14鄰","STREET":"佳東路","SECT":" ","MAREA":" ","LANE":" ","ALLEY":" ","HOUSE_NO":"２４３號","E_COORD97":166375.10000000001,"N_COORD97":2562006.46,"ADDRESS":"佳東路２４３號","OBJECTID":248963},"geometry":{"x":166375.10000000056,"y":2562006.4600000009}},{"attributes":{"ID":248968,"DIS_CODE":0,"TOWNNAME":"佳里區","LI":"忠仁里","LIN":"14鄰","STREET":"佳東路","SECT":" ","MAREA":" ","LANE":" ","ALLEY":" ","HOUSE_NO":"２４９號","E_COORD97":166373.25,"N_COORD97":2562020.0800000001,"ADDRESS":"佳東路２４９號","OBJECTID":248964},"geometry":{"x":166373.25,"y":2562020.0800000038}},{"attributes":{"ID":248969,"DIS_CODE":0,"TOWNNAME":"佳里區","LI":"建南里","LIN":"14鄰","STREET":"佳南路","SECT":" ","MAREA":" ","LANE":" ","ALLEY":" ","HOUSE_NO":"９６５號","E_COORD97":164789.01999999999,"N_COORD97":2561662.25,"ADDRESS":"佳南路９６５號","OBJECTID":248965},"geometry":{"x":164789.02000000048,"y":2561662.25}},{"attributes":{"ID":248970,"DIS_CODE":0,"TOWNNAME":"佳里區","LI":"安西里","LIN":"14鄰","STREET":"和平街","SECT":" ","MAREA":" ","LANE":" ","ALLEY":" ","HOUSE_NO":"２０２號","E_COORD97":165459.78,"N_COORD97":2562500.3599999999,"ADDRESS":"和平街２０２號","OBJECTID":248966},"geometry":{"x":165459.78000000026,"y":2562500.3600000013}},{"attributes":{"ID":248971,"DIS_CODE":0,"TOWNNAME":"白河區","LI":"甘宅里","LIN":"11鄰","STREET":" ","SECT":" ","MAREA":"甘宅","LANE":" ","ALLEY":" ","HOUSE_NO":"２５之１號","E_COORD97":194247.67000000001,"N_COORD97":2587245.1200000001,"ADDRESS":"甘宅２５之１號","OBJECTID":248967},"geometry":{"x":194247.66999999993,"y":2587245.1200000048}},{"attributes":{"ID":248972,"DIS_CODE":0,"TOWNNAME":"永康區","LI":"王行里","LIN":"15鄰","STREET":"龍昌街","SECT":" ","MAREA":" ","LANE":"８５巷","ALLEY":" ","HOUSE_NO":"２號","E_COORD97":174962.92000000001,"N_COORD97":2548120.4700000002,"ADDRESS":"龍昌街８５巷２號","OBJECTID":248968},"geometry":{"x":174962.92000000086,"y":2548120.4699999988}},{"attributes":{"ID":248973,"DIS_CODE":0,"TOWNNAME":"永康區","LI":"王行里","LIN":"6鄰","STREET":"育樂街","SECT":" ","MAREA":" ","LANE":"２１４巷","ALLEY":" ","HOUSE_NO":"１２號","E_COORD97":175000.17999999999,"N_COORD97":2548384.6800000002,"ADDRESS":"育樂街２１４巷１２號","OBJECTID":248969},"geometry":{"x":175000.1799999997,"y":2548384.6799999997}},{"attributes":{"ID":248974,"DIS_CODE":0,"TOWNNAME":"永康區","LI":"王行里","LIN":"12鄰","STREET":"王行路","SECT":" ","MAREA":" ","LANE":"８９８巷","ALLEY":" ","HOUSE_NO":"８１號","E_COORD97":175931.82000000001,"N_COORD97":2550149.25,"ADDRESS":"王行路８９８巷８１號","OBJECTID":248970},"geometry":{"x":175931.82000000123,"y":2550149.2500000019}},{"attributes":{"ID":248975,"DIS_CODE":0,"TOWNNAME":"永康區","LI":"王行里","LIN":"4鄰","STREET":"育樂街","SECT":" ","MAREA":" ","LANE":"１８３巷","ALLEY":" ","HOUSE_NO":"２７號","E_COORD97":174981.26999999999,"N_COORD97":2548276.0699999998,"ADDRESS":"育樂街１８３巷２７號","OBJECTID":248971},"geometry":{"x":174981.26999999955,"y":2548276.0700000022}},{"attributes":{"ID":248976,"DIS_CODE":0,"TOWNNAME":"白河區","LI":"甘宅里","LIN":"11鄰","STREET":" ","SECT":" ","MAREA":"甘宅","LANE":" ","ALLEY":" ","HOUSE_NO":"２５之２號","E_COORD97":194266.79999999999,"N_COORD97":2587264.6699999999,"ADDRESS":"甘宅２５之２號","OBJECTID":248972},"geometry":{"x":194266.80000000075,"y":2587264.6700000018}},{"attributes":{"ID":248977,"DIS_CODE":0,"TOWNNAME":"官田區","LI":"渡頭里","LIN":"11鄰","STREET":" ","SECT":" ","MAREA":"渡子頭","LANE":" ","ALLEY":" ","HOUSE_NO":"７６號","E_COORD97":181007.89000000001,"N_COORD97":2563110.5299999998,"ADDRESS":"渡子頭７６號","OBJECTID":248973},"geometry":{"x":181007.8900000006,"y":2563110.5299999993}},{"attributes":{"ID":248978,"DIS_CODE":0,"TOWNNAME":"官田區","LI":"渡頭里","LIN":"11鄰","STREET":" ","SECT":" ","MAREA":"渡子頭","LANE":" ","ALLEY":" ","HOUSE_NO":"７７號之２","E_COORD97":181045.07999999999,"N_COORD97":2563125.0499999998,"ADDRESS":"渡子頭７７號之２","OBJECTID":248974},"geometry":{"x":181045.08000000007,"y":2563125.0500000007}},{"attributes":{"ID":248979,"DIS_CODE":0,"TOWNNAME":"官田區","LI":"渡頭里","LIN":"11鄰","STREET":" ","SECT":" ","MAREA":"渡子頭","LANE":" ","ALLEY":" ","HOUSE_NO":"７７號","E_COORD97":181029.45999999999,"N_COORD97":2563115.8500000001,"ADDRESS":"渡子頭７７號","OBJECTID":248975},"geometry":{"x":181029.46000000089,"y":2563115.8499999978}},{"attributes":{"ID":248980,"DIS_CODE":0,"TOWNNAME":"官田區","LI":"渡頭里","LIN":"11鄰","STREET":" ","SECT":" ","MAREA":"渡子頭","LANE":" ","ALLEY":" ","HOUSE_NO":"７８號之１","E_COORD97":181074.62,"N_COORD97":2563120.0099999998,"ADDRESS":"渡子頭７８號之１","OBJECTID":248976},"geometry":{"x":181074.62000000104,"y":2563120.0100000016}},{"attributes":{"ID":248981,"DIS_CODE":0,"TOWNNAME":"官田區","LI":"渡頭里","LIN":"11鄰","STREET":" ","SECT":" ","MAREA":"渡子頭","LANE":" ","ALLEY":" ","HOUSE_NO":"７８號之２","E_COORD97":181073.47,"N_COORD97":2563124.7400000002,"ADDRESS":"渡子頭７８號之２","OBJECTID":248977},"geometry":{"x":181073.47000000067,"y":2563124.7400000021}},{"attributes":{"ID":248982,"DIS_CODE":0,"TOWNNAME":"永康區","LI":"五王里","LIN":"34鄰","STREET":"五福街","SECT":" ","MAREA":" ","LANE":"３３巷","ALLEY":" ","HOUSE_NO":"１８號","E_COORD97":171312.45999999999,"N_COORD97":2545938.9900000002,"ADDRESS":"五福街３３巷１８號","OBJECTID":248978},"geometry":{"x":171312.46000000183,"y":2545938.9900000002}},{"attributes":{"ID":248983,"DIS_CODE":0,"TOWNNAME":"新市區","LI":"新和里","LIN":"14鄰","STREET":"忠孝街","SECT":" ","MAREA":" ","LANE":"９０巷","ALLEY":" ","HOUSE_NO":"４號","E_COORD97":177714.32000000001,"N_COORD97":2552550,"ADDRESS":"忠孝街９０巷４號","OBJECTID":248979},"geometry":{"x":177714.3200000003,"y":2552550}},{"attributes":{"ID":248984,"DIS_CODE":0,"TOWNNAME":"新市區","LI":"新市里","LIN":"14鄰","STREET":"中正路","SECT":" ","MAREA":" ","LANE":"３２３巷","ALLEY":" ","HOUSE_NO":"９號","E_COORD97":177676.75,"N_COORD97":2553310.4100000001,"ADDRESS":"中正路３２３巷９號","OBJECTID":248980},"geometry":{"x":177676.75,"y":2553310.4100000001}},{"attributes":{"ID":248985,"DIS_CODE":0,"TOWNNAME":"官田區","LI":"渡頭里","LIN":"11鄰","STREET":" ","SECT":" ","MAREA":"渡子頭","LANE":" ","ALLEY":" ","HOUSE_NO":"７８號之３","E_COORD97":181072.31,"N_COORD97":2563129.46,"ADDRESS":"渡子頭７８號之３","OBJECTID":248981},"geometry":{"x":181072.31000000052,"y":2563129.4600000009}},{"attributes":{"ID":248986,"DIS_CODE":0,"TOWNNAME":"佳里區","LI":"安西里","LIN":"14鄰","STREET":"和平街","SECT":" ","MAREA":" ","LANE":" ","ALLEY":" ","HOUSE_NO":"２０４號","E_COORD97":165450.26000000001,"N_COORD97":2562487.2799999998,"ADDRESS":"和平街２０４號","OBJECTID":248982},"geometry":{"x":165450.26000000071,"y":2562487.2800000012}},{"attributes":{"ID":248987,"DIS_CODE":0,"TOWNNAME":"官田區","LI":"渡頭里","LIN":"11鄰","STREET":" ","SECT":" ","MAREA":"渡子頭","LANE":" ","ALLEY":" ","HOUSE_NO":"７８號之４","E_COORD97":181071.16,"N_COORD97":2563134.1899999999,"ADDRESS":"渡子頭７８號之４","OBJECTID":248983},"geometry":{"x":181071.16000000108,"y":2563134.1900000032}},{"attributes":{"ID":248988,"DIS_CODE":0,"TOWNNAME":"官田區","LI":"渡頭里","LIN":"11鄰","STREET":" ","SECT":" ","MAREA":"渡子頭","LANE":" ","ALLEY":" ","HOUSE_NO":"７８號之５","E_COORD97":181070.01000000001,"N_COORD97":2563138.9100000001,"ADDRESS":"渡子頭７８號之５","OBJECTID":248984},"geometry":{"x":181070.01000000071,"y":2563138.9100000001}},{"attributes":{"ID":248989,"DIS_CODE":0,"TOWNNAME":"官田區","LI":"渡頭里","LIN":"11鄰","STREET":" ","SECT":" ","MAREA":"渡子頭","LANE":" ","ALLEY":" ","HOUSE_NO":"７８號","E_COORD97":181059.29999999999,"N_COORD97":2563129.6499999999,"ADDRESS":"渡子頭７８號","OBJECTID":248985},"geometry":{"x":181059.30000000075,"y":2563129.6500000022}},{"attributes":{"ID":248990,"DIS_CODE":0,"TOWNNAME":"官田區","LI":"渡頭里","LIN":"11鄰","STREET":" ","SECT":" ","MAREA":"渡子頭","LANE":" ","ALLEY":" ","HOUSE_NO":"７９號","E_COORD97":181064.67999999999,"N_COORD97":2563151.6400000001,"ADDRESS":"渡子頭７９號","OBJECTID":248986},"geometry":{"x":181064.68000000156,"y":2563151.6400000006}},{"attributes":{"ID":248991,"DIS_CODE":0,"TOWNNAME":"佳里區","LI":"安西里","LIN":"14鄰","STREET":"和平街","SECT":" ","MAREA":" ","LANE":" ","ALLEY":" ","HOUSE_NO":"２０６號","E_COORD97":165445.89000000001,"N_COORD97":2562487.29,"ADDRESS":"和平街２０６號","OBJECTID":248987},"geometry":{"x":165445.8900000006,"y":2562487.2899999991}},{"attributes":{"ID":248992,"DIS_CODE":0,"TOWNNAME":"佳里區","LI":"安西里","LIN":"14鄰","STREET":"和平街","SECT":" ","MAREA":" ","LANE":" ","ALLEY":" ","HOUSE_NO":"２０８號","E_COORD97":165441.25,"N_COORD97":2562487.46,"ADDRESS":"和平街２０８號","OBJECTID":248988},"geometry":{"x":165441.25,"y":2562487.4600000028}},{"attributes":{"ID":248993,"DIS_CODE":0,"TOWNNAME":"佳里區","LI":"安西里","LIN":"14鄰","STREET":"和平街","SECT":" ","MAREA":" ","LANE":" ","ALLEY":" ","HOUSE_NO":"２１０號","E_COORD97":165433.92999999999,"N_COORD97":2562487.46,"ADDRESS":"和平街２１０號","OBJECTID":248989},"geometry":{"x":165433.93000000063,"y":2562487.4600000028}},{"attributes":{"ID":248994,"DIS_CODE":0,"TOWNNAME":"佳里區","LI":"東寧里","LIN":"14鄰","STREET":"和平街","SECT":" ","MAREA":" ","LANE":" ","ALLEY":" ","HOUSE_NO":"５７號","E_COORD97":165931.42000000001,"N_COORD97":2562502.79,"ADDRESS":"和平街５７號","OBJECTID":248990},"geometry":{"x":165931.41999999993,"y":2562502.790000001}},{"attributes":{"ID":248995,"DIS_CODE":0,"TOWNNAME":"官田區","LI":"渡頭里","LIN":"11鄰","STREET":" ","SECT":" ","MAREA":"渡子頭","LANE":" ","ALLEY":" ","HOUSE_NO":"８０號","E_COORD97":181125.48999999999,"N_COORD97":2563220,"ADDRESS":"渡子頭８０號","OBJECTID":248991},"geometry":{"x":181125.49000000022,"y":2563220}},{"attributes":{"ID":248996,"DIS_CODE":0,"TOWNNAME":"永康區","LI":"中興里","LIN":"22鄰","STREET":"中華路","SECT":" ","MAREA":" ","LANE":"２１２巷","ALLEY":" ","HOUSE_NO":"２８號","E_COORD97":171762.73000000001,"N_COORD97":2545007.5099999998,"ADDRESS":"中華路２１２巷２８號","OBJECTID":248992},"geometry":{"x":171762.73000000138,"y":2545007.5100000016}},{"attributes":{"ID":248997,"DIS_CODE":0,"TOWNNAME":"永康區","LI":"王行里","LIN":"4鄰","STREET":"育樂街","SECT":" ","MAREA":" ","LANE":"１３９巷","ALLEY":" ","HOUSE_NO":"２５號","E_COORD97":175111.73999999999,"N_COORD97":2548262.5699999998,"ADDRESS":"育樂街１３９巷２５號","OBJECTID":248993},"geometry":{"x":175111.74000000115,"y":2548262.5700000022}},{"attributes":{"ID":248998,"DIS_CODE":0,"TOWNNAME":"官田區","LI":"渡頭里","LIN":"11鄰","STREET":" ","SECT":" ","MAREA":"渡子頭","LANE":" ","ALLEY":" ","HOUSE_NO":"８１號之１","E_COORD97":181044.35000000001,"N_COORD97":2563154.4399999999,"ADDRESS":"渡子頭８１號之１","OBJECTID":248994},"geometry":{"x":181044.34999999963,"y":2563154.4399999995}},{"attributes":{"ID":248999,"DIS_CODE":0,"TOWNNAME":"官田區","LI":"渡頭里","LIN":"11鄰","STREET":" ","SECT":" ","MAREA":"渡子頭","LANE":" ","ALLEY":" ","HOUSE_NO":"８１號之３","E_COORD97":181052.03,"N_COORD97":2563147.1699999999,"ADDRESS":"渡子頭８１號之３","OBJECTID":248995},"geometry":{"x":181052.03000000026,"y":2563147.1699999999}},{"attributes":{"ID":249000,"DIS_CODE":0,"TOWNNAME":"官田區","LI":"隆本里","LIN":"11鄰","STREET":"興隆街","SECT":" ","MAREA":" ","LANE":"１６巷","ALLEY":" ","HOUSE_NO":"１１號","E_COORD97":180029.16,"N_COORD97":2566443.5,"ADDRESS":"興隆街１６巷１１號","OBJECTID":248996},"geometry":{"x":180029.16000000015,"y":2566443.5}},{"attributes":{"ID":249001,"DIS_CODE":0,"TOWNNAME":"東區","LI":"大福里","LIN":"14鄰","STREET":"榮譽街","SECT":" ","MAREA":" ","LANE":"４７巷","ALLEY":" ","HOUSE_NO":"１０號","E_COORD97":169673.19,"N_COORD97":2541720.04,"ADDRESS":"榮譽街４７巷１０號","OBJECTID":248997},"geometry":{"x":169673.19000000041,"y":2541720.0399999991}},{"attributes":{"ID":249002,"DIS_CODE":0,"TOWNNAME":"東區","LI":"大福里","LIN":"14鄰","STREET":"榮譽街","SECT":" ","MAREA":" ","LANE":"４７巷","ALLEY":" ","HOUSE_NO":"１１號","E_COORD97":169651.76000000001,"N_COORD97":2541700.9100000001,"ADDRESS":"榮譽街４７巷１１號","OBJECTID":248998},"geometry":{"x":169651.75999999978,"y":2541700.910000002}},{"attributes":{"ID":249003,"DIS_CODE":0,"TOWNNAME":"東區","LI":"大福里","LIN":"14鄰","STREET":"榮譽街","SECT":" ","MAREA":" ","LANE":"４７巷","ALLEY":" ","HOUSE_NO":"１１號之１","E_COORD97":169658.38,"N_COORD97":2541702.5,"ADDRESS":"榮譽街４７巷１１號之１","OBJECTID":248999},"geometry":{"x":169658.38000000175,"y":2541702.5000000019}},{"attributes":{"ID":249004,"DIS_CODE":0,"TOWNNAME":"東區","LI":"大福里","LIN":"14鄰","STREET":"榮譽街","SECT":" ","MAREA":" ","LANE":"４７巷","ALLEY":" ","HOUSE_NO":"１１號之２","E_COORD97":169663.39999999999,"N_COORD97":2541705.1400000001,"ADDRESS":"榮譽街４７巷１１號之２","OBJECTID":249000},"geometry":{"x":169663.40000000037,"y":2541705.1400000043}}]}