{"displayFieldName":"TOWNNAME","fieldAliases":{"ID":"ID","DIS_CODE":"DIS_CODE","TOWNNAME":"TOWNNAME","LI":"LI","LIN":"LIN","STREET":"STREET","SECT":"SECT","MAREA":"MAREA","LANE":"LANE","ALLEY":"ALLEY","HOUSE_NO":"HOUSE_NO","E_COORD97":"E_COORD97","N_COORD97":"N_COORD97","ADDRESS":"ADDRESS","OBJECTID":"OBJECTID"},"geometryType":"esriGeometryPoint","spatialReference":{"wkid":102443,"latestWkid":3826},"fields":[{"name":"ID","type":"esriFieldTypeDouble","alias":"ID"},{"name":"DIS_CODE","type":"esriFieldTypeInteger","alias":"DIS_CODE"},{"name":"TOWNNAME","type":"esriFieldTypeString","alias":"TOWNNAME","length":8},{"name":"LI","type":"esriFieldTypeString","alias":"LI","length":8},{"name":"LIN","type":"esriFieldTypeString","alias":"LIN","length":12},{"name":"STREET","type":"esriFieldTypeString","alias":"STREET","length":20},{"name":"SECT","type":"esriFieldTypeString","alias":"SECT","length":8},{"name":"MAREA","type":"esriFieldTypeString","alias":"MAREA","length":12},{"name":"LANE","type":"esriFieldTypeString","alias":"LANE","length":10},{"name":"ALLEY","type":"esriFieldTypeString","alias":"ALLEY","length":10},{"name":"HOUSE_NO","type":"esriFieldTypeString","alias":"HOUSE_NO","length":20},{"name":"E_COORD97","type":"esriFieldTypeDouble","alias":"E_COORD97"},{"name":"N_COORD97","type":"esriFieldTypeDouble","alias":"N_COORD97"},{"name":"ADDRESS","type":"esriFieldTypeString","alias":"ADDRESS","length":50},{"name":"OBJECTID","type":"esriFieldTypeOID","alias":"OBJECTID"}],"features":[{"attributes":{"ID":155602,"DIS_CODE":0,"TOWNNAME":"安定區","LI":"港南里","LIN":"5鄰","STREET":" ","SECT":" ","MAREA":"港口","LANE":" ","ALLEY":" ","HOUSE_NO":"３９之１號","E_COORD97":171555.54000000001,"N_COORD97":2554207.2999999998,"ADDRESS":"港口３９之１號","OBJECTID":155601},"geometry":{"x":171555.54000000004,"y":2554207.3000000007}},{"attributes":{"ID":155603,"DIS_CODE":0,"TOWNNAME":"安定區","LI":"六嘉里","LIN":"5鄰","STREET":" ","SECT":" ","MAREA":"六塊寮","LANE":" ","ALLEY":" ","HOUSE_NO":"４１號之７","E_COORD97":170265.23000000001,"N_COORD97":2553407.2999999998,"ADDRESS":"六塊寮４１號之７","OBJECTID":155602},"geometry":{"x":170265.23000000138,"y":2553407.2999999989}},{"attributes":{"ID":155604,"DIS_CODE":0,"TOWNNAME":"安定區","LI":"安加里","LIN":"5鄰","STREET":" ","SECT":" ","MAREA":"安定","LANE":" ","ALLEY":" ","HOUSE_NO":"２０２之２號","E_COORD97":171773.22,"N_COORD97":2557649.3199999998,"ADDRESS":"安定２０２之２號","OBJECTID":155603},"geometry":{"x":171773.2200000016,"y":2557649.3200000022}},{"attributes":{"ID":155605,"DIS_CODE":0,"TOWNNAME":"東區","LI":"文聖里","LIN":"15鄰","STREET":"裕興街","SECT":" ","MAREA":" ","LANE":" ","ALLEY":" ","HOUSE_NO":"２８５號","E_COORD97":172554.79999999999,"N_COORD97":2542663.9700000002,"ADDRESS":"裕興街２８５號","OBJECTID":155604},"geometry":{"x":172554.80000000075,"y":2542663.9700000007}},{"attributes":{"ID":155606,"DIS_CODE":0,"TOWNNAME":"東區","LI":"文聖里","LIN":"15鄰","STREET":"裕興街","SECT":" ","MAREA":" ","LANE":" ","ALLEY":" ","HOUSE_NO":"２８７號","E_COORD97":172559.95000000001,"N_COORD97":2542661.8500000001,"ADDRESS":"裕興街２８７號","OBJECTID":155605},"geometry":{"x":172559.95000000019,"y":2542661.8500000034}},{"attributes":{"ID":155607,"DIS_CODE":0,"TOWNNAME":"東區","LI":"文聖里","LIN":"15鄰","STREET":"裕興街","SECT":" ","MAREA":" ","LANE":" ","ALLEY":" ","HOUSE_NO":"２８９號","E_COORD97":172564.32000000001,"N_COORD97":2542663.1899999999,"ADDRESS":"裕興街２８９號","OBJECTID":155606},"geometry":{"x":172564.3200000003,"y":2542663.1900000013}},{"attributes":{"ID":155608,"DIS_CODE":0,"TOWNNAME":"東區","LI":"文聖里","LIN":"15鄰","STREET":"裕興街","SECT":" ","MAREA":" ","LANE":" ","ALLEY":" ","HOUSE_NO":"２９１號","E_COORD97":172568.57000000001,"N_COORD97":2542658.9399999999,"ADDRESS":"裕興街２９１號","OBJECTID":155607},"geometry":{"x":172568.57000000123,"y":2542658.9400000013}},{"attributes":{"ID":155609,"DIS_CODE":0,"TOWNNAME":"安南區","LI":"學東里","LIN":"15鄰","STREET":"城北路","SECT":" ","MAREA":" ","LANE":" ","ALLEY":" ","HOUSE_NO":"９６０之９號","E_COORD97":160979.26000000001,"N_COORD97":2553377.8199999998,"ADDRESS":"城北路９６０之９號","OBJECTID":155608},"geometry":{"x":160979.25999999978,"y":2553377.8200000022}},{"attributes":{"ID":155610,"DIS_CODE":0,"TOWNNAME":"安南區","LI":"溪心里","LIN":"15鄰","STREET":"本原街","SECT":"二段","MAREA":" ","LANE":" ","ALLEY":" ","HOUSE_NO":"５２７號","E_COORD97":165886.51999999999,"N_COORD97":2550496.29,"ADDRESS":"本原街二段５２７號","OBJECTID":155609},"geometry":{"x":165886.51999999955,"y":2550496.2899999991}},{"attributes":{"ID":155611,"DIS_CODE":0,"TOWNNAME":"新化區","LI":"護國里","LIN":"10鄰","STREET":"中山路","SECT":" ","MAREA":" ","LANE":" ","ALLEY":" ","HOUSE_NO":"９８號之９","E_COORD97":179542,"N_COORD97":2549082.2599999998,"ADDRESS":"中山路９８號之９","OBJECTID":155610},"geometry":{"x":179542,"y":2549082.2600000016}},{"attributes":{"ID":155612,"DIS_CODE":0,"TOWNNAME":"新市區","LI":"新市里","LIN":"13鄰","STREET":"和平街","SECT":" ","MAREA":" ","LANE":" ","ALLEY":" ","HOUSE_NO":"１１７號","E_COORD97":177518.54000000001,"N_COORD97":2553329.25,"ADDRESS":"和平街１１７號","OBJECTID":155611},"geometry":{"x":177518.54000000097,"y":2553329.2500000037}},{"attributes":{"ID":155613,"DIS_CODE":0,"TOWNNAME":"新市區","LI":"新市里","LIN":"13鄰","STREET":"和平街","SECT":" ","MAREA":" ","LANE":" ","ALLEY":" ","HOUSE_NO":"１２７號","E_COORD97":177502.04000000001,"N_COORD97":2553316.75,"ADDRESS":"和平街１２７號","OBJECTID":155612},"geometry":{"x":177502.04000000004,"y":2553316.7500000019}},{"attributes":{"ID":155614,"DIS_CODE":0,"TOWNNAME":"新市區","LI":"新市里","LIN":"8鄰","STREET":"中正路","SECT":" ","MAREA":" ","LANE":" ","ALLEY":" ","HOUSE_NO":"２８５號","E_COORD97":177558.95000000001,"N_COORD97":2553232.5,"ADDRESS":"中正路２８５號","OBJECTID":155613},"geometry":{"x":177558.95000000019,"y":2553232.5000000037}},{"attributes":{"ID":155615,"DIS_CODE":0,"TOWNNAME":"新市區","LI":"永就里","LIN":"8鄰","STREET":"中華路","SECT":" ","MAREA":" ","LANE":" ","ALLEY":" ","HOUSE_NO":"８２號","E_COORD97":177620.32000000001,"N_COORD97":2551642,"ADDRESS":"中華路８２號","OBJECTID":155614},"geometry":{"x":177620.32000000123,"y":2551642}},{"attributes":{"ID":155616,"DIS_CODE":0,"TOWNNAME":"新市區","LI":"新市里","LIN":"13鄰","STREET":"和平街","SECT":" ","MAREA":" ","LANE":" ","ALLEY":" ","HOUSE_NO":"１０９號","E_COORD97":177542.54000000001,"N_COORD97":2553346,"ADDRESS":"和平街１０９號","OBJECTID":155615},"geometry":{"x":177542.54000000097,"y":2553346.0000000019}},{"attributes":{"ID":155617,"DIS_CODE":0,"TOWNNAME":"南區","LI":"府南里","LIN":"2鄰","STREET":"金華路","SECT":"一段","MAREA":" ","LANE":"４８４巷","ALLEY":"７１弄","HOUSE_NO":"３８號","E_COORD97":167254.09,"N_COORD97":2541498.8999999999,"ADDRESS":"金華路一段４８４巷７１弄３８號","OBJECTID":155616},"geometry":{"x":167254.08999999985,"y":2541498.9000000004}},{"attributes":{"ID":155618,"DIS_CODE":0,"TOWNNAME":"南區","LI":"府南里","LIN":"2鄰","STREET":"金華路","SECT":"一段","MAREA":" ","LANE":"４８４巷","ALLEY":"７１弄","HOUSE_NO":"３９號","E_COORD97":167239.25,"N_COORD97":2541512.1499999999,"ADDRESS":"金華路一段４８４巷７１弄３９號","OBJECTID":155617},"geometry":{"x":167239.25000000093,"y":2541512.1500000022}},{"attributes":{"ID":155619,"DIS_CODE":0,"TOWNNAME":"南區","LI":"府南里","LIN":"2鄰","STREET":"金華路","SECT":"一段","MAREA":" ","LANE":"４８４巷","ALLEY":"７１弄","HOUSE_NO":"３號","E_COORD97":167203.32000000001,"N_COORD97":2541449.5,"ADDRESS":"金華路一段４８４巷７１弄３號","OBJECTID":155618},"geometry":{"x":167203.32000000123,"y":2541449.5}},{"attributes":{"ID":155620,"DIS_CODE":0,"TOWNNAME":"南區","LI":"府南里","LIN":"2鄰","STREET":"金華路","SECT":"一段","MAREA":" ","LANE":"４８４巷","ALLEY":"７１弄","HOUSE_NO":"４０號","E_COORD97":167256.23000000001,"N_COORD97":2541502.27,"ADDRESS":"金華路一段４８４巷７１弄４０號","OBJECTID":155619},"geometry":{"x":167256.23000000231,"y":2541502.2699999996}},{"attributes":{"ID":155621,"DIS_CODE":0,"TOWNNAME":"南區","LI":"府南里","LIN":"2鄰","STREET":"金華路","SECT":"一段","MAREA":" ","LANE":"４８４巷","ALLEY":"７１弄","HOUSE_NO":"４１號","E_COORD97":167241.20999999999,"N_COORD97":2541515.8399999999,"ADDRESS":"金華路一段４８４巷７１弄４１號","OBJECTID":155620},"geometry":{"x":167241.21000000089,"y":2541515.8399999999}},{"attributes":{"ID":155622,"DIS_CODE":0,"TOWNNAME":"南區","LI":"府南里","LIN":"2鄰","STREET":"金華路","SECT":"一段","MAREA":" ","LANE":"４８４巷","ALLEY":"７１弄","HOUSE_NO":"４２號","E_COORD97":167258.60000000001,"N_COORD97":2541505.7599999998,"ADDRESS":"金華路一段４８４巷７１弄４２號","OBJECTID":155621},"geometry":{"x":167258.60000000056,"y":2541505.7599999998}},{"attributes":{"ID":155623,"DIS_CODE":0,"TOWNNAME":"南區","LI":"府南里","LIN":"2鄰","STREET":"金華路","SECT":"一段","MAREA":" ","LANE":"４８４巷","ALLEY":"７１弄","HOUSE_NO":"４３號","E_COORD97":167243.88,"N_COORD97":2541519.2200000002,"ADDRESS":"金華路一段４８４巷７１弄４３號","OBJECTID":155622},"geometry":{"x":167243.87999999989,"y":2541519.2200000025}},{"attributes":{"ID":155624,"DIS_CODE":0,"TOWNNAME":"安定區","LI":"港尾里","LIN":"5鄰","STREET":" ","SECT":" ","MAREA":"港子尾","LANE":" ","ALLEY":" ","HOUSE_NO":"１９號之１","E_COORD97":171550.73000000001,"N_COORD97":2556078.2999999998,"ADDRESS":"港子尾１９號之１","OBJECTID":155623},"geometry":{"x":171550.73000000138,"y":2556078.3000000007}},{"attributes":{"ID":155625,"DIS_CODE":0,"TOWNNAME":"南區","LI":"府南里","LIN":"2鄰","STREET":"金華路","SECT":"一段","MAREA":" ","LANE":"４８４巷","ALLEY":"７１弄","HOUSE_NO":"４４號","E_COORD97":167261.26000000001,"N_COORD97":2541509.6699999999,"ADDRESS":"金華路一段４８４巷７１弄４４號","OBJECTID":155624},"geometry":{"x":167261.25999999978,"y":2541509.6699999999}},{"attributes":{"ID":155626,"DIS_CODE":0,"TOWNNAME":"南區","LI":"府南里","LIN":"2鄰","STREET":"金華路","SECT":"一段","MAREA":" ","LANE":"４８４巷","ALLEY":"７１弄","HOUSE_NO":"４６號","E_COORD97":167262.57000000001,"N_COORD97":2541513.3399999999,"ADDRESS":"金華路一段４８４巷７１弄４６號","OBJECTID":155625},"geometry":{"x":167262.57000000123,"y":2541513.3400000017}},{"attributes":{"ID":155627,"DIS_CODE":0,"TOWNNAME":"南區","LI":"府南里","LIN":"2鄰","STREET":"金華路","SECT":"一段","MAREA":" ","LANE":"４８４巷","ALLEY":"７１弄","HOUSE_NO":"４號","E_COORD97":167221.03,"N_COORD97":2541438.98,"ADDRESS":"金華路一段４８４巷７１弄４號","OBJECTID":155626},"geometry":{"x":167221.03000000026,"y":2541438.9800000023}},{"attributes":{"ID":155628,"DIS_CODE":0,"TOWNNAME":"南區","LI":"府南里","LIN":"2鄰","STREET":"金華路","SECT":"一段","MAREA":" ","LANE":"４８４巷","ALLEY":"７１弄","HOUSE_NO":"５號","E_COORD97":167205.45000000001,"N_COORD97":2541452.8599999999,"ADDRESS":"金華路一段４８４巷７１弄５號","OBJECTID":155627},"geometry":{"x":167205.45000000112,"y":2541452.8600000013}},{"attributes":{"ID":155629,"DIS_CODE":0,"TOWNNAME":"南區","LI":"府南里","LIN":"2鄰","STREET":"金華路","SECT":"一段","MAREA":" ","LANE":"４８４巷","ALLEY":"７１弄","HOUSE_NO":"６號","E_COORD97":167222.54000000001,"N_COORD97":2541442.7799999998,"ADDRESS":"金華路一段４８４巷７１弄６號","OBJECTID":155628},"geometry":{"x":167222.54000000004,"y":2541442.7800000012}},{"attributes":{"ID":155630,"DIS_CODE":0,"TOWNNAME":"南區","LI":"府南里","LIN":"2鄰","STREET":"金華路","SECT":"一段","MAREA":" ","LANE":"４８４巷","ALLEY":"７１弄","HOUSE_NO":"７號","E_COORD97":167207.39999999999,"N_COORD97":2541456.9300000002,"ADDRESS":"金華路一段４８４巷７１弄７號","OBJECTID":155629},"geometry":{"x":167207.40000000224,"y":2541456.9299999997}},{"attributes":{"ID":155631,"DIS_CODE":0,"TOWNNAME":"南區","LI":"府南里","LIN":"2鄰","STREET":"金華路","SECT":"一段","MAREA":" ","LANE":"４８４巷","ALLEY":"７１弄","HOUSE_NO":"８號","E_COORD97":167224.66,"N_COORD97":2541446.5800000001,"ADDRESS":"金華路一段４８４巷７１弄８號","OBJECTID":155630},"geometry":{"x":167224.66000000108,"y":2541446.5800000001}},{"attributes":{"ID":155632,"DIS_CODE":0,"TOWNNAME":"南區","LI":"府南里","LIN":"2鄰","STREET":"金華路","SECT":"一段","MAREA":" ","LANE":"４８４巷","ALLEY":"７１弄","HOUSE_NO":"９號","E_COORD97":167209.34,"N_COORD97":2541459.5800000001,"ADDRESS":"金華路一段４８４巷７１弄９號","OBJECTID":155631},"geometry":{"x":167209.34000000078,"y":2541459.5800000001}},{"attributes":{"ID":155633,"DIS_CODE":0,"TOWNNAME":"安南區","LI":"鳳凰里","LIN":"2鄰","STREET":"北安路","SECT":"三段","MAREA":" ","LANE":"１４５巷","ALLEY":"４１弄","HOUSE_NO":"１號","E_COORD97":168184.65667600001,"N_COORD97":2549058.9285900001,"ADDRESS":"北安路三段１４５巷４１弄１號","OBJECTID":155632},"geometry":{"x":168184.65667599998,"y":2549058.9285870008}},{"attributes":{"ID":155634,"DIS_CODE":0,"TOWNNAME":"安南區","LI":"鳳凰里","LIN":"2鄰","STREET":"北安路","SECT":"三段","MAREA":" ","LANE":"１４５巷","ALLEY":"４１弄","HOUSE_NO":"３號","E_COORD97":168181.268947,"N_COORD97":2549053.0019200002,"ADDRESS":"北安路三段１４５巷４１弄３號","OBJECTID":155633},"geometry":{"x":168181.26894699968,"y":2549053.0019230004}},{"attributes":{"ID":155635,"DIS_CODE":0,"TOWNNAME":"安南區","LI":"鳳凰里","LIN":"2鄰","STREET":"北安路","SECT":"三段","MAREA":" ","LANE":"１４５巷","ALLEY":"４１弄","HOUSE_NO":"５號","E_COORD97":168178.72815000001,"N_COORD97":2549048.1335900002,"ADDRESS":"北安路三段１４５巷４１弄５號","OBJECTID":155634},"geometry":{"x":168178.72814999986,"y":2549048.1335930023}},{"attributes":{"ID":155636,"DIS_CODE":0,"TOWNNAME":"新市區","LI":"港墘里","LIN":"20鄰","STREET":"光華街","SECT":" ","MAREA":" ","LANE":" ","ALLEY":" ","HOUSE_NO":"１４４號","E_COORD97":177915.07000000001,"N_COORD97":2552791.25,"ADDRESS":"光華街１４４號","OBJECTID":155635},"geometry":{"x":177915.07000000123,"y":2552791.2500000019}},{"attributes":{"ID":155637,"DIS_CODE":0,"TOWNNAME":"安定區","LI":"安定里","LIN":"5鄰","STREET":" ","SECT":" ","MAREA":"安定","LANE":" ","ALLEY":" ","HOUSE_NO":"２８號之６","E_COORD97":172108.41,"N_COORD97":2557995.3199999998,"ADDRESS":"安定２８號之６","OBJECTID":155636},"geometry":{"x":172108.41000000108,"y":2557995.3200000022}},{"attributes":{"ID":155638,"DIS_CODE":0,"TOWNNAME":"北門區","LI":"北門里","LIN":"16鄰","STREET":" ","SECT":" ","MAREA":"舊埕","LANE":" ","ALLEY":" ","HOUSE_NO":"５１號","E_COORD97":160451.06,"N_COORD97":2574130.2799999998,"ADDRESS":"舊埕５１號","OBJECTID":155637},"geometry":{"x":160451.05999999959,"y":2574130.2799999993}},{"attributes":{"ID":155639,"DIS_CODE":0,"TOWNNAME":"安南區","LI":"鳳凰里","LIN":"2鄰","STREET":"北安路","SECT":"三段","MAREA":" ","LANE":"１８１巷","ALLEY":"３７弄","HOUSE_NO":"５號","E_COORD97":168211.48725499999,"N_COORD97":2549144.9843299999,"ADDRESS":"北安路三段１８１巷３７弄５號","OBJECTID":155638},"geometry":{"x":168211.48725500051,"y":2549144.9843339995}},{"attributes":{"ID":155640,"DIS_CODE":0,"TOWNNAME":"安南區","LI":"鳳凰里","LIN":"2鄰","STREET":"北安路","SECT":"三段","MAREA":" ","LANE":"１８１巷","ALLEY":"３７弄","HOUSE_NO":"１５號","E_COORD97":168204.817664,"N_COORD97":2549114.5043500001,"ADDRESS":"北安路三段１８１巷３７弄１５號","OBJECTID":155639},"geometry":{"x":168204.81766400021,"y":2549114.504350001}},{"attributes":{"ID":155641,"DIS_CODE":0,"TOWNNAME":"安南區","LI":"鳳凰里","LIN":"2鄰","STREET":"北安路","SECT":"三段","MAREA":" ","LANE":"１８１巷","ALLEY":"３７弄","HOUSE_NO":"１７號","E_COORD97":168203.54726600001,"N_COORD97":2549109.0010199999,"ADDRESS":"北安路三段１８１巷３７弄１７號","OBJECTID":155640},"geometry":{"x":168203.54726599995,"y":2549109.0010199975}},{"attributes":{"ID":155642,"DIS_CODE":0,"TOWNNAME":"安南區","LI":"鳳凰里","LIN":"2鄰","STREET":"北安路","SECT":"三段","MAREA":" ","LANE":"１８１巷","ALLEY":"３７弄","HOUSE_NO":"１９號","E_COORD97":168203.017933,"N_COORD97":2549102.8626899999,"ADDRESS":"北安路三段１８１巷３７弄１９號","OBJECTID":155641},"geometry":{"x":168203.01793299988,"y":2549102.8626900017}},{"attributes":{"ID":155643,"DIS_CODE":0,"TOWNNAME":"安南區","LI":"鳳凰里","LIN":"2鄰","STREET":"北安路","SECT":"三段","MAREA":" ","LANE":"１８１巷","ALLEY":"３７弄","HOUSE_NO":"２１號","E_COORD97":168200.57641800001,"N_COORD97":2549096.4134399998,"ADDRESS":"北安路三段１８１巷３７弄２１號","OBJECTID":155642},"geometry":{"x":168200.57641800027,"y":2549096.4134430028}},{"attributes":{"ID":155644,"DIS_CODE":0,"TOWNNAME":"安平區","LI":"文平里","LIN":"19鄰","STREET":"健康一街","SECT":" ","MAREA":" ","LANE":" ","ALLEY":" ","HOUSE_NO":"６３號","E_COORD97":165928.92999999999,"N_COORD97":2542812.0800000001,"ADDRESS":"健康一街６３號","OBJECTID":155643},"geometry":{"x":165928.93000000063,"y":2542812.0800000001}},{"attributes":{"ID":155645,"DIS_CODE":0,"TOWNNAME":"安平區","LI":"文平里","LIN":"19鄰","STREET":"健康一街","SECT":" ","MAREA":" ","LANE":" ","ALLEY":" ","HOUSE_NO":"６５號","E_COORD97":165929.72,"N_COORD97":2542816.98,"ADDRESS":"健康一街６５號","OBJECTID":155644},"geometry":{"x":165929.71999999881,"y":2542816.9800000004}},{"attributes":{"ID":155646,"DIS_CODE":0,"TOWNNAME":"安平區","LI":"文平里","LIN":"19鄰","STREET":"健康一街","SECT":" ","MAREA":" ","LANE":" ","ALLEY":" ","HOUSE_NO":"９９號","E_COORD97":165923.45999999999,"N_COORD97":2543107.4199999999,"ADDRESS":"健康一街９９號","OBJECTID":155645},"geometry":{"x":165923.46000000183,"y":2543107.4200000018}},{"attributes":{"ID":155647,"DIS_CODE":0,"TOWNNAME":"鹽水區","LI":"橋南里","LIN":"19鄰","STREET":"忠孝路","SECT":" ","MAREA":" ","LANE":" ","ALLEY":" ","HOUSE_NO":"１０７號","E_COORD97":175656.82000000001,"N_COORD97":2578886.96,"ADDRESS":"忠孝路１０７號","OBJECTID":155646},"geometry":{"x":175656.82000000216,"y":2578886.9600000028}},{"attributes":{"ID":155648,"DIS_CODE":0,"TOWNNAME":"安南區","LI":"砂崙里","LIN":"2鄰","STREET":"城北路","SECT":" ","MAREA":" ","LANE":"８７１巷","ALLEY":"９４弄","HOUSE_NO":"１７之１號","E_COORD97":160597.22,"N_COORD97":2553304.8500000001,"ADDRESS":"城北路８７１巷９４弄１７之１號","OBJECTID":155647},"geometry":{"x":160597.22000000067,"y":2553304.8500000015}},{"attributes":{"ID":155649,"DIS_CODE":0,"TOWNNAME":"仁德區","LI":"二行里","LIN":"2鄰","STREET":"二行一路","SECT":" ","MAREA":" ","LANE":"１５３巷","ALLEY":"１６弄","HOUSE_NO":"１８號","E_COORD97":170488.82000000001,"N_COORD97":2535593.4900000002,"ADDRESS":"二行一路１５３巷１６弄１８號","OBJECTID":155648},"geometry":{"x":170488.82000000123,"y":2535593.4900000021}},{"attributes":{"ID":155650,"DIS_CODE":0,"TOWNNAME":"仁德區","LI":"保安里","LIN":"2鄰","STREET":"文賢路","SECT":"一段","MAREA":" ","LANE":"５５４巷","ALLEY":"１０弄","HOUSE_NO":"２號","E_COORD97":171057.28,"N_COORD97":2536891.5800000001,"ADDRESS":"文賢路一段５５４巷１０弄２號","OBJECTID":155649},"geometry":{"x":171057.28000000026,"y":2536891.5800000019}},{"attributes":{"ID":155651,"DIS_CODE":0,"TOWNNAME":"仁德區","LI":"新田里","LIN":"2鄰","STREET":"新田二街","SECT":" ","MAREA":" ","LANE":"１２０巷","ALLEY":"１１弄","HOUSE_NO":"１２號","E_COORD97":174908.51000000001,"N_COORD97":2539924.6600000001,"ADDRESS":"新田二街１２０巷１１弄１２號","OBJECTID":155650},"geometry":{"x":174908.50999999978,"y":2539924.660000002}},{"attributes":{"ID":155652,"DIS_CODE":0,"TOWNNAME":"仁德區","LI":"保安里","LIN":"2鄰","STREET":"文賢路","SECT":"一段","MAREA":" ","LANE":"５５４巷","ALLEY":"１０弄","HOUSE_NO":"１０號","E_COORD97":171053.35000000001,"N_COORD97":2536907.8300000001,"ADDRESS":"文賢路一段５５４巷１０弄１０號","OBJECTID":155651},"geometry":{"x":171053.35000000149,"y":2536907.8300000001}},{"attributes":{"ID":155653,"DIS_CODE":0,"TOWNNAME":"仁德區","LI":"保安里","LIN":"2鄰","STREET":"文賢路","SECT":"一段","MAREA":" ","LANE":"５５４巷","ALLEY":"８弄","HOUSE_NO":"１０號","E_COORD97":171083.23000000001,"N_COORD97":2536925.5800000001,"ADDRESS":"文賢路一段５５４巷８弄１０號","OBJECTID":155652},"geometry":{"x":171083.23000000045,"y":2536925.5800000019}},{"attributes":{"ID":155654,"DIS_CODE":0,"TOWNNAME":"仁德區","LI":"二行里","LIN":"2鄰","STREET":"二行一路","SECT":" ","MAREA":" ","LANE":"１５３巷","ALLEY":"１６弄","HOUSE_NO":"３８號","E_COORD97":170441.16,"N_COORD97":2535608.4900000002,"ADDRESS":"二行一路１５３巷１６弄３８號","OBJECTID":155653},"geometry":{"x":170441.16000000015,"y":2535608.4900000002}},{"attributes":{"ID":155655,"DIS_CODE":0,"TOWNNAME":"新市區","LI":"新和里","LIN":"25鄰","STREET":"仁愛街","SECT":" ","MAREA":" ","LANE":" ","ALLEY":" ","HOUSE_NO":"２７２號","E_COORD97":177635.14999999999,"N_COORD97":2552912.5299999998,"ADDRESS":"仁愛街２７２號","OBJECTID":155654},"geometry":{"x":177635.1500000013,"y":2552912.5299999993}},{"attributes":{"ID":155656,"DIS_CODE":0,"TOWNNAME":"新市區","LI":"社內里","LIN":"4鄰","STREET":"富強路","SECT":" ","MAREA":" ","LANE":" ","ALLEY":" ","HOUSE_NO":"４９０號","E_COORD97":176455.38,"N_COORD97":2551724.25,"ADDRESS":"富強路４９０號","OBJECTID":155655},"geometry":{"x":176455.37999999989,"y":2551724.25}},{"attributes":{"ID":155657,"DIS_CODE":0,"TOWNNAME":"新市區","LI":"港墘里","LIN":"20鄰","STREET":"光華街","SECT":" ","MAREA":" ","LANE":" ","ALLEY":" ","HOUSE_NO":"８２號","E_COORD97":177988.04000000001,"N_COORD97":2552659.25,"ADDRESS":"光華街８２號","OBJECTID":155656},"geometry":{"x":177988.04000000097,"y":2552659.2500000019}},{"attributes":{"ID":155658,"DIS_CODE":0,"TOWNNAME":"仁德區","LI":"二行里","LIN":"2鄰","STREET":"二行一路","SECT":" ","MAREA":" ","LANE":"１５３巷","ALLEY":"１６弄","HOUSE_NO":"３４號","E_COORD97":170448.98000000001,"N_COORD97":2535606.7400000002,"ADDRESS":"二行一路１５３巷１６弄３４號","OBJECTID":155657},"geometry":{"x":170448.98000000138,"y":2535606.7400000002}},{"attributes":{"ID":155659,"DIS_CODE":0,"TOWNNAME":"佳里區","LI":"東寧里","LIN":"2鄰","STREET":"新生路","SECT":" ","MAREA":" ","LANE":"１４８巷","ALLEY":"１弄","HOUSE_NO":"１２號","E_COORD97":165771.28,"N_COORD97":2562315.48,"ADDRESS":"新生路１４８巷１弄１２號","OBJECTID":155658},"geometry":{"x":165771.28000000119,"y":2562315.4800000004}},{"attributes":{"ID":155660,"DIS_CODE":0,"TOWNNAME":"佳里區","LI":"東寧里","LIN":"2鄰","STREET":"新生路","SECT":" ","MAREA":" ","LANE":"１４８巷","ALLEY":"１弄","HOUSE_NO":"１４號","E_COORD97":165763.56,"N_COORD97":2562314.8599999999,"ADDRESS":"新生路１４８巷１弄１４號","OBJECTID":155659},"geometry":{"x":165763.56000000052,"y":2562314.8599999994}},{"attributes":{"ID":155661,"DIS_CODE":0,"TOWNNAME":"佳里區","LI":"東寧里","LIN":"2鄰","STREET":"新生路","SECT":" ","MAREA":" ","LANE":"１４８巷","ALLEY":"１弄","HOUSE_NO":"２號","E_COORD97":165799.42000000001,"N_COORD97":2562317.6299999999,"ADDRESS":"新生路１４８巷１弄２號","OBJECTID":155660},"geometry":{"x":165799.41999999993,"y":2562317.6300000008}},{"attributes":{"ID":155662,"DIS_CODE":0,"TOWNNAME":"佳里區","LI":"東寧里","LIN":"2鄰","STREET":"新生路","SECT":" ","MAREA":" ","LANE":"１４８巷","ALLEY":"１弄","HOUSE_NO":"４號","E_COORD97":165791.92999999999,"N_COORD97":2562330.3399999999,"ADDRESS":"新生路１４８巷１弄４號","OBJECTID":155661},"geometry":{"x":165791.9299999997,"y":2562330.3400000017}},{"attributes":{"ID":155663,"DIS_CODE":0,"TOWNNAME":"新市區","LI":"新市里","LIN":"23鄰","STREET":"自強街","SECT":" ","MAREA":" ","LANE":" ","ALLEY":" ","HOUSE_NO":"１號","E_COORD97":177768.63,"N_COORD97":2553515.75,"ADDRESS":"自強街１號","OBJECTID":155662},"geometry":{"x":177768.63000000082,"y":2553515.7500000037}},{"attributes":{"ID":155664,"DIS_CODE":0,"TOWNNAME":"新市區","LI":"新市里","LIN":"7鄰","STREET":"中正路","SECT":" ","MAREA":" ","LANE":" ","ALLEY":" ","HOUSE_NO":"２７４號","E_COORD97":177456.76000000001,"N_COORD97":2553034.5,"ADDRESS":"中正路２７４號","OBJECTID":155663},"geometry":{"x":177456.75999999885,"y":2553034.5}},{"attributes":{"ID":155665,"DIS_CODE":0,"TOWNNAME":"安定區","LI":"海寮里","LIN":"5鄰","STREET":" ","SECT":" ","MAREA":"海寮","LANE":" ","ALLEY":" ","HOUSE_NO":"５０號","E_COORD97":169500.09,"N_COORD97":2555412.25,"ADDRESS":"海寮５０號","OBJECTID":155664},"geometry":{"x":169500.08999999985,"y":2555412.2500000019}},{"attributes":{"ID":155666,"DIS_CODE":0,"TOWNNAME":"安定區","LI":"六嘉里","LIN":"5鄰","STREET":" ","SECT":" ","MAREA":"六塊寮","LANE":" ","ALLEY":" ","HOUSE_NO":"４１之１０號","E_COORD97":170251.57000000001,"N_COORD97":2553401.2999999998,"ADDRESS":"六塊寮４１之１０號","OBJECTID":155665},"geometry":{"x":170251.57000000123,"y":2553401.3000000026}},{"attributes":{"ID":155667,"DIS_CODE":0,"TOWNNAME":"安定區","LI":"保西里","LIN":"5鄰","STREET":" ","SECT":" ","MAREA":"安定","LANE":" ","ALLEY":" ","HOUSE_NO":"３７０號","E_COORD97":171587.42000000001,"N_COORD97":2557625.3199999998,"ADDRESS":"安定３７０號","OBJECTID":155666},"geometry":{"x":171587.42000000086,"y":2557625.3200000022}},{"attributes":{"ID":155668,"DIS_CODE":0,"TOWNNAME":"佳里區","LI":"東寧里","LIN":"2鄰","STREET":"新生路","SECT":" ","MAREA":" ","LANE":"１４８巷","ALLEY":"１弄","HOUSE_NO":"６號","E_COORD97":165787.67000000001,"N_COORD97":2562329.9900000002,"ADDRESS":"新生路１４８巷１弄６號","OBJECTID":155667},"geometry":{"x":165787.66999999993,"y":2562329.9900000021}},{"attributes":{"ID":155669,"DIS_CODE":0,"TOWNNAME":"永康區","LI":"甲頂里","LIN":"2鄰","STREET":"南台街","SECT":" ","MAREA":" ","LANE":"１３５巷","ALLEY":"７弄","HOUSE_NO":"５號","E_COORD97":170069.70000000001,"N_COORD97":2546817.46,"ADDRESS":"南台街１３５巷７弄５號","OBJECTID":155668},"geometry":{"x":170069.70000000019,"y":2546817.4600000009}},{"attributes":{"ID":155670,"DIS_CODE":0,"TOWNNAME":"永康區","LI":"六合里","LIN":"2鄰","STREET":"新興街","SECT":" ","MAREA":" ","LANE":"３５巷","ALLEY":"１３弄","HOUSE_NO":"３之１號","E_COORD97":170960.42999999999,"N_COORD97":2545853.79,"ADDRESS":"新興街３５巷１３弄３之１號","OBJECTID":155669},"geometry":{"x":170960.43000000063,"y":2545853.790000001}},{"attributes":{"ID":155671,"DIS_CODE":0,"TOWNNAME":"永康區","LI":"尚頂里","LIN":"2鄰","STREET":"中正南路","SECT":" ","MAREA":" ","LANE":"３４４巷","ALLEY":"１１弄","HOUSE_NO":"１２號","E_COORD97":171087.60999999999,"N_COORD97":2547978.1099999999,"ADDRESS":"中正南路３４４巷１１弄１２號","OBJECTID":155670},"geometry":{"x":171087.61000000034,"y":2547978.1099999994}},{"attributes":{"ID":155672,"DIS_CODE":0,"TOWNNAME":"安南區","LI":"鳳凰里","LIN":"2鄰","STREET":"北安路","SECT":"三段","MAREA":" ","LANE":"１８１巷","ALLEY":"３７弄","HOUSE_NO":"９號","E_COORD97":168208.94645799999,"N_COORD97":2549133.2368399999,"ADDRESS":"北安路三段１８１巷３７弄９號","OBJECTID":155671},"geometry":{"x":168208.94645800069,"y":2549133.2368400004}},{"attributes":{"ID":155673,"DIS_CODE":0,"TOWNNAME":"安南區","LI":"鳳凰里","LIN":"2鄰","STREET":"北安路","SECT":"三段","MAREA":" ","LANE":"１８１巷","ALLEY":"３７弄","HOUSE_NO":"１３號","E_COORD97":168206.299795,"N_COORD97":2549121.0660100002,"ADDRESS":"北安路三段１８１巷３７弄１３號","OBJECTID":155672},"geometry":{"x":168206.29979499988,"y":2549121.0660130009}},{"attributes":{"ID":155674,"DIS_CODE":0,"TOWNNAME":"安南區","LI":"淵東里","LIN":"2鄰","STREET":"海佃路","SECT":"四段","MAREA":" ","LANE":"５５巷","ALLEY":"６８弄","HOUSE_NO":"２１號","E_COORD97":165478.88,"N_COORD97":2550557.0800000001,"ADDRESS":"海佃路四段５５巷６８弄２１號","OBJECTID":155673},"geometry":{"x":165478.87999999989,"y":2550557.0800000038}},{"attributes":{"ID":155675,"DIS_CODE":0,"TOWNNAME":"安南區","LI":"淵東里","LIN":"2鄰","STREET":"海佃路","SECT":"四段","MAREA":" ","LANE":"５５巷","ALLEY":"６８弄","HOUSE_NO":"２３號","E_COORD97":165478.25,"N_COORD97":2550561.21,"ADDRESS":"海佃路四段５５巷６８弄２３號","OBJECTID":155674},"geometry":{"x":165478.25,"y":2550561.2100000028}},{"attributes":{"ID":155676,"DIS_CODE":0,"TOWNNAME":"安南區","LI":"淵東里","LIN":"2鄰","STREET":"海佃路","SECT":"四段","MAREA":" ","LANE":"５５巷","ALLEY":"６８弄","HOUSE_NO":"２號","E_COORD97":165496.19,"N_COORD97":2550524.54,"ADDRESS":"海佃路四段５５巷６８弄２號","OBJECTID":155675},"geometry":{"x":165496.19000000041,"y":2550524.5399999991}},{"attributes":{"ID":155677,"DIS_CODE":0,"TOWNNAME":"安南區","LI":"淵東里","LIN":"2鄰","STREET":"海佃路","SECT":"四段","MAREA":" ","LANE":"５５巷","ALLEY":"６８弄","HOUSE_NO":"６號","E_COORD97":165495.54999999999,"N_COORD97":2550527.8700000001,"ADDRESS":"海佃路四段５５巷６８弄６號","OBJECTID":155676},"geometry":{"x":165495.55000000075,"y":2550527.870000001}},{"attributes":{"ID":155678,"DIS_CODE":0,"TOWNNAME":"安南區","LI":"淵東里","LIN":"2鄰","STREET":"海佃路","SECT":"四段","MAREA":" ","LANE":"５５巷","ALLEY":"６８弄","HOUSE_NO":"８號","E_COORD97":165494.76000000001,"N_COORD97":2550530.5699999998,"ADDRESS":"海佃路四段５５巷６８弄８號","OBJECTID":155677},"geometry":{"x":165494.76000000071,"y":2550530.5700000022}},{"attributes":{"ID":155679,"DIS_CODE":0,"TOWNNAME":"安南區","LI":"淵東里","LIN":"2鄰","STREET":"海佃路","SECT":"四段","MAREA":" ","LANE":"５５巷","ALLEY":"６８弄","HOUSE_NO":"１０號","E_COORD97":165494.28,"N_COORD97":2550533.75,"ADDRESS":"海佃路四段５５巷６８弄１０號","OBJECTID":155678},"geometry":{"x":165494.28000000212,"y":2550533.7500000019}},{"attributes":{"ID":155680,"DIS_CODE":0,"TOWNNAME":"安南區","LI":"淵東里","LIN":"2鄰","STREET":"海佃路","SECT":"四段","MAREA":" ","LANE":"５５巷","ALLEY":"６８弄","HOUSE_NO":"１２號","E_COORD97":165493.01000000001,"N_COORD97":2550538.5099999998,"ADDRESS":"海佃路四段５５巷６８弄１２號","OBJECTID":155679},"geometry":{"x":165493.01000000071,"y":2550538.5100000016}},{"attributes":{"ID":155681,"DIS_CODE":0,"TOWNNAME":"歸仁區","LI":"許厝里","LIN":"19鄰","STREET":"忠孝北路","SECT":" ","MAREA":" ","LANE":" ","ALLEY":" ","HOUSE_NO":"８７號","E_COORD97":178337.82000000001,"N_COORD97":2540872.25,"ADDRESS":"忠孝北路８７號","OBJECTID":155680},"geometry":{"x":178337.8200000003,"y":2540872.25}},{"attributes":{"ID":155682,"DIS_CODE":0,"TOWNNAME":"歸仁區","LI":"看西里","LIN":"19鄰","STREET":"成功八街","SECT":" ","MAREA":" ","LANE":" ","ALLEY":" ","HOUSE_NO":"３８號","E_COORD97":178108.42999999999,"N_COORD97":2539865.25,"ADDRESS":"成功八街３８號","OBJECTID":155681},"geometry":{"x":178108.43000000063,"y":2539865.25}},{"attributes":{"ID":155683,"DIS_CODE":0,"TOWNNAME":"歸仁區","LI":"許厝里","LIN":"19鄰","STREET":"忠孝北路","SECT":" ","MAREA":" ","LANE":" ","ALLEY":" ","HOUSE_NO":"８３號","E_COORD97":178339.82000000001,"N_COORD97":2540863.25,"ADDRESS":"忠孝北路８３號","OBJECTID":155682},"geometry":{"x":178339.8200000003,"y":2540863.2500000019}},{"attributes":{"ID":155684,"DIS_CODE":0,"TOWNNAME":"安定區","LI":"安加里","LIN":"5鄰","STREET":" ","SECT":" ","MAREA":"安定","LANE":" ","ALLEY":" ","HOUSE_NO":"２０２號之１","E_COORD97":171772.35000000001,"N_COORD97":2557645.3199999998,"ADDRESS":"安定２０２號之１","OBJECTID":155683},"geometry":{"x":171772.35000000056,"y":2557645.3200000022}},{"attributes":{"ID":155685,"DIS_CODE":0,"TOWNNAME":"安定區","LI":"港尾里","LIN":"5鄰","STREET":" ","SECT":" ","MAREA":"港子尾","LANE":" ","ALLEY":" ","HOUSE_NO":"２２號","E_COORD97":171505.09,"N_COORD97":2556112.2599999998,"ADDRESS":"港子尾２２號","OBJECTID":155684},"geometry":{"x":171505.09000000078,"y":2556112.2600000035}},{"attributes":{"ID":155686,"DIS_CODE":0,"TOWNNAME":"安定區","LI":"中沙里","LIN":"5鄰","STREET":" ","SECT":" ","MAREA":"沙崙","LANE":" ","ALLEY":" ","HOUSE_NO":"４之８號","E_COORD97":168710.32000000001,"N_COORD97":2552402.2999999998,"ADDRESS":"沙崙４之８號","OBJECTID":155685},"geometry":{"x":168710.32000000123,"y":2552402.3000000026}},{"attributes":{"ID":155687,"DIS_CODE":0,"TOWNNAME":"歸仁區","LI":"崙頂里","LIN":"19鄰","STREET":"大成一街","SECT":" ","MAREA":" ","LANE":" ","ALLEY":" ","HOUSE_NO":"１號","E_COORD97":177783.32999999999,"N_COORD97":2540194.98,"ADDRESS":"大成一街１號","OBJECTID":155686},"geometry":{"x":177783.33000000007,"y":2540194.9800000023}},{"attributes":{"ID":155688,"DIS_CODE":0,"TOWNNAME":"安定區","LI":"南安里","LIN":"5鄰","STREET":" ","SECT":" ","MAREA":"油車","LANE":" ","ALLEY":" ","HOUSE_NO":"６２號之２","E_COORD97":170494.20999999999,"N_COORD97":2555450.2999999998,"ADDRESS":"油車６２號之２","OBJECTID":155687},"geometry":{"x":170494.21000000089,"y":2555450.3000000007}},{"attributes":{"ID":155689,"DIS_CODE":0,"TOWNNAME":"安定區","LI":"南安里","LIN":"5鄰","STREET":" ","SECT":" ","MAREA":"油車","LANE":" ","ALLEY":" ","HOUSE_NO":"５５號之２","E_COORD97":170575.10999999999,"N_COORD97":2555538.2999999998,"ADDRESS":"油車５５號之２","OBJECTID":155688},"geometry":{"x":170575.11000000127,"y":2555538.3000000026}},{"attributes":{"ID":155690,"DIS_CODE":0,"TOWNNAME":"安定區","LI":"南安里","LIN":"5鄰","STREET":" ","SECT":" ","MAREA":"油車","LANE":" ","ALLEY":" ","HOUSE_NO":"５５之６號","E_COORD97":170553.64000000001,"N_COORD97":2555536.2999999998,"ADDRESS":"油車５５之６號","OBJECTID":155689},"geometry":{"x":170553.6400000006,"y":2555536.3000000007}},{"attributes":{"ID":155691,"DIS_CODE":0,"TOWNNAME":"安定區","LI":"南安里","LIN":"5鄰","STREET":" ","SECT":" ","MAREA":"油車","LANE":" ","ALLEY":" ","HOUSE_NO":"５３號","E_COORD97":170563.14000000001,"N_COORD97":2555602.25,"ADDRESS":"油車５３號","OBJECTID":155690},"geometry":{"x":170563.13999999873,"y":2555602.2500000019}},{"attributes":{"ID":155692,"DIS_CODE":0,"TOWNNAME":"安定區","LI":"海寮里","LIN":"5鄰","STREET":" ","SECT":" ","MAREA":"海寮","LANE":" ","ALLEY":" ","HOUSE_NO":"５８之２號","E_COORD97":169424.89000000001,"N_COORD97":2555432.2999999998,"ADDRESS":"海寮５８之２號","OBJECTID":155691},"geometry":{"x":169424.8900000006,"y":2555432.3000000026}},{"attributes":{"ID":155693,"DIS_CODE":0,"TOWNNAME":"安定區","LI":"海寮里","LIN":"5鄰","STREET":" ","SECT":" ","MAREA":"海寮","LANE":" ","ALLEY":" ","HOUSE_NO":"５２之１號","E_COORD97":169471.79000000001,"N_COORD97":2555436.2999999998,"ADDRESS":"海寮５２之１號","OBJECTID":155692},"geometry":{"x":169471.79000000004,"y":2555436.3000000026}},{"attributes":{"ID":155694,"DIS_CODE":0,"TOWNNAME":"安定區","LI":"中沙里","LIN":"5鄰","STREET":" ","SECT":" ","MAREA":"沙崙","LANE":" ","ALLEY":" ","HOUSE_NO":"２６之３號","E_COORD97":168907.07000000001,"N_COORD97":2552492.2999999998,"ADDRESS":"沙崙２６之３號","OBJECTID":155693},"geometry":{"x":168907.07000000123,"y":2552492.3000000045}},{"attributes":{"ID":155695,"DIS_CODE":0,"TOWNNAME":"歸仁區","LI":"崙頂里","LIN":"19鄰","STREET":"大成一街","SECT":" ","MAREA":" ","LANE":" ","ALLEY":" ","HOUSE_NO":"１５號","E_COORD97":177813.38,"N_COORD97":2540209.98,"ADDRESS":"大成一街１５號","OBJECTID":155694},"geometry":{"x":177813.37999999989,"y":2540209.9800000004}},{"attributes":{"ID":155696,"DIS_CODE":0,"TOWNNAME":"安定區","LI":"六嘉里","LIN":"5鄰","STREET":" ","SECT":" ","MAREA":"六塊寮","LANE":" ","ALLEY":" ","HOUSE_NO":"３４號","E_COORD97":170193.92000000001,"N_COORD97":2553465.27,"ADDRESS":"六塊寮３４號","OBJECTID":155695},"geometry":{"x":170193.92000000086,"y":2553465.2700000014}},{"attributes":{"ID":155697,"DIS_CODE":0,"TOWNNAME":"安定區","LI":"六嘉里","LIN":"5鄰","STREET":" ","SECT":" ","MAREA":"六塊寮","LANE":" ","ALLEY":" ","HOUSE_NO":"３９之１２號","E_COORD97":170271.47,"N_COORD97":2553546.2999999998,"ADDRESS":"六塊寮３９之１２號","OBJECTID":155696},"geometry":{"x":170271.47000000067,"y":2553546.3000000007}},{"attributes":{"ID":155698,"DIS_CODE":0,"TOWNNAME":"歸仁區","LI":"看西里","LIN":"19鄰","STREET":"成功八街","SECT":" ","MAREA":" ","LANE":" ","ALLEY":" ","HOUSE_NO":"５６號","E_COORD97":178116.82999999999,"N_COORD97":2539908.25,"ADDRESS":"成功八街５６號","OBJECTID":155697},"geometry":{"x":178116.83000000101,"y":2539908.2500000019}},{"attributes":{"ID":155699,"DIS_CODE":0,"TOWNNAME":"安定區","LI":"南安里","LIN":"5鄰","STREET":" ","SECT":" ","MAREA":"油車","LANE":" ","ALLEY":" ","HOUSE_NO":"６２號","E_COORD97":170592.44,"N_COORD97":2555422.25,"ADDRESS":"油車６２號","OBJECTID":155698},"geometry":{"x":170592.44000000227,"y":2555422.2500000019}},{"attributes":{"ID":155700,"DIS_CODE":0,"TOWNNAME":"安定區","LI":"六嘉里","LIN":"5鄰","STREET":" ","SECT":" ","MAREA":"六塊寮","LANE":" ","ALLEY":" ","HOUSE_NO":"３２號","E_COORD97":170189.72,"N_COORD97":2553476.27,"ADDRESS":"六塊寮３２號","OBJECTID":155699},"geometry":{"x":170189.71999999881,"y":2553476.2699999996}},{"attributes":{"ID":155701,"DIS_CODE":0,"TOWNNAME":"安定區","LI":"六嘉里","LIN":"5鄰","STREET":" ","SECT":" ","MAREA":"六塊寮","LANE":" ","ALLEY":" ","HOUSE_NO":"３３號之９","E_COORD97":170209.04000000001,"N_COORD97":2553420.2999999998,"ADDRESS":"六塊寮３３號之９","OBJECTID":155700},"geometry":{"x":170209.04000000097,"y":2553420.3000000007}},{"attributes":{"ID":155702,"DIS_CODE":0,"TOWNNAME":"安南區","LI":"淵東里","LIN":"2鄰","STREET":"海佃路","SECT":"四段","MAREA":" ","LANE":"５５巷","ALLEY":"６８弄","HOUSE_NO":"１６號","E_COORD97":165492.54000000001,"N_COORD97":2550543.1099999999,"ADDRESS":"海佃路四段５５巷６８弄１６號","OBJECTID":155701},"geometry":{"x":165492.54000000097,"y":2550543.1100000013}},{"attributes":{"ID":155703,"DIS_CODE":0,"TOWNNAME":"安南區","LI":"淵東里","LIN":"2鄰","STREET":"海佃路","SECT":"四段","MAREA":" ","LANE":"５５巷","ALLEY":"６８弄","HOUSE_NO":"１８號","E_COORD97":165491.73999999999,"N_COORD97":2550547.0800000001,"ADDRESS":"海佃路四段５５巷６８弄１８號","OBJECTID":155702},"geometry":{"x":165491.74000000115,"y":2550547.0800000038}},{"attributes":{"ID":155704,"DIS_CODE":0,"TOWNNAME":"安南區","LI":"淵東里","LIN":"2鄰","STREET":"海佃路","SECT":"四段","MAREA":" ","LANE":"５５巷","ALLEY":"６８弄","HOUSE_NO":"２０號","E_COORD97":165491.10999999999,"N_COORD97":2550551.3700000001,"ADDRESS":"海佃路四段５５巷６８弄２０號","OBJECTID":155703},"geometry":{"x":165491.11000000127,"y":2550551.370000001}},{"attributes":{"ID":155705,"DIS_CODE":0,"TOWNNAME":"安南區","LI":"淵東里","LIN":"2鄰","STREET":"海佃路","SECT":"四段","MAREA":" ","LANE":"５５巷","ALLEY":"６８弄","HOUSE_NO":"２２號","E_COORD97":165490.63,"N_COORD97":2550555.3399999999,"ADDRESS":"海佃路四段５５巷６８弄２２號","OBJECTID":155704},"geometry":{"x":165490.63000000082,"y":2550555.3400000017}},{"attributes":{"ID":155706,"DIS_CODE":0,"TOWNNAME":"安南區","LI":"淵東里","LIN":"2鄰","STREET":"海佃路","SECT":"四段","MAREA":" ","LANE":"５５巷","ALLEY":"６８弄","HOUSE_NO":"２６號","E_COORD97":165490.14999999999,"N_COORD97":2550558.5099999998,"ADDRESS":"海佃路四段５５巷６８弄２６號","OBJECTID":155705},"geometry":{"x":165490.15000000224,"y":2550558.5100000016}},{"attributes":{"ID":155707,"DIS_CODE":0,"TOWNNAME":"楠西區","LI":"照興里","LIN":"18鄰","STREET":" ","SECT":" ","MAREA":"興南","LANE":" ","ALLEY":" ","HOUSE_NO":"１３號之２","E_COORD97":196343.84,"N_COORD97":2565022.2999999998,"ADDRESS":"興南１３號之２","OBJECTID":155706},"geometry":{"x":196343.83999999985,"y":2565022.3000000007}},{"attributes":{"ID":155708,"DIS_CODE":0,"TOWNNAME":"安南區","LI":"淵東里","LIN":"2鄰","STREET":"海佃路","SECT":"四段","MAREA":" ","LANE":"５５巷","ALLEY":"６８弄","HOUSE_NO":"２８號","E_COORD97":165489.04000000001,"N_COORD97":2550562.6400000001,"ADDRESS":"海佃路四段５５巷６８弄２８號","OBJECTID":155707},"geometry":{"x":165489.04000000097,"y":2550562.6400000006}},{"attributes":{"ID":155709,"DIS_CODE":0,"TOWNNAME":"安南區","LI":"城北里","LIN":"2鄰","STREET":"城北路","SECT":" ","MAREA":" ","LANE":"９８巷","ALLEY":"６弄","HOUSE_NO":"１７之１號","E_COORD97":161039.94,"N_COORD97":2551553.9900000002,"ADDRESS":"城北路９８巷６弄１７之１號","OBJECTID":155708},"geometry":{"x":161039.94000000041,"y":2551553.9900000002}},{"attributes":{"ID":155710,"DIS_CODE":0,"TOWNNAME":"安南區","LI":"淵東里","LIN":"2鄰","STREET":"海佃路","SECT":"四段","MAREA":" ","LANE":"５５巷","ALLEY":"６８弄","HOUSE_NO":"９號","E_COORD97":165482.38,"N_COORD97":2550533.5899999999,"ADDRESS":"海佃路四段５５巷６８弄９號","OBJECTID":155709},"geometry":{"x":165482.37999999989,"y":2550533.5900000017}},{"attributes":{"ID":155711,"DIS_CODE":0,"TOWNNAME":"安南區","LI":"淵東里","LIN":"2鄰","STREET":"海佃路","SECT":"四段","MAREA":" ","LANE":"５５巷","ALLEY":"６８弄","HOUSE_NO":"１１號","E_COORD97":165481.89999999999,"N_COORD97":2550537.3999999999,"ADDRESS":"海佃路四段５５巷６８弄１１號","OBJECTID":155710},"geometry":{"x":165481.9000000013,"y":2550537.4000000004}},{"attributes":{"ID":155712,"DIS_CODE":0,"TOWNNAME":"安南區","LI":"淵東里","LIN":"2鄰","STREET":"海佃路","SECT":"四段","MAREA":" ","LANE":"５５巷","ALLEY":"６８弄","HOUSE_NO":"１３號","E_COORD97":165481.26000000001,"N_COORD97":2550541.52,"ADDRESS":"海佃路四段５５巷６８弄１３號","OBJECTID":155711},"geometry":{"x":165481.25999999978,"y":2550541.5200000014}},{"attributes":{"ID":155713,"DIS_CODE":0,"TOWNNAME":"安南區","LI":"淵東里","LIN":"2鄰","STREET":"海佃路","SECT":"四段","MAREA":" ","LANE":"５５巷","ALLEY":"６８弄","HOUSE_NO":"１５號","E_COORD97":165480.47,"N_COORD97":2550545.3300000001,"ADDRESS":"海佃路四段５５巷６８弄１５號","OBJECTID":155712},"geometry":{"x":165480.46999999881,"y":2550545.3300000038}},{"attributes":{"ID":155714,"DIS_CODE":0,"TOWNNAME":"安南區","LI":"淵東里","LIN":"2鄰","STREET":"海佃路","SECT":"四段","MAREA":" ","LANE":"５５巷","ALLEY":"６８弄","HOUSE_NO":"１７號","E_COORD97":165480.31,"N_COORD97":2550549.2999999998,"ADDRESS":"海佃路四段５５巷６８弄１７號","OBJECTID":155713},"geometry":{"x":165480.31000000052,"y":2550549.2999999989}},{"attributes":{"ID":155715,"DIS_CODE":0,"TOWNNAME":"安南區","LI":"淵東里","LIN":"2鄰","STREET":"海佃路","SECT":"四段","MAREA":" ","LANE":"５５巷","ALLEY":"６８弄","HOUSE_NO":"１９號","E_COORD97":165479.67999999999,"N_COORD97":2550553.27,"ADDRESS":"海佃路四段５５巷６８弄１９號","OBJECTID":155714},"geometry":{"x":165479.68000000063,"y":2550553.2700000014}},{"attributes":{"ID":155716,"DIS_CODE":0,"TOWNNAME":"南區","LI":"郡南里","LIN":"2鄰","STREET":"新都路","SECT":" ","MAREA":" ","LANE":"４２７巷","ALLEY":"４弄","HOUSE_NO":"３４號","E_COORD97":167237.31,"N_COORD97":2540767.6800000002,"ADDRESS":"新都路４２７巷４弄３４號","OBJECTID":155715},"geometry":{"x":167237.30999999959,"y":2540767.6799999978}},{"attributes":{"ID":155717,"DIS_CODE":0,"TOWNNAME":"西港區","LI":"西港里","LIN":"2鄰","STREET":"中山路","SECT":" ","MAREA":" ","LANE":"３９０巷","ALLEY":"９弄","HOUSE_NO":"１０號","E_COORD97":168436.56,"N_COORD97":2558308.1800000002,"ADDRESS":"中山路３９０巷９弄１０號","OBJECTID":155716},"geometry":{"x":168436.56000000052,"y":2558308.1799999997}},{"attributes":{"ID":155718,"DIS_CODE":0,"TOWNNAME":"西港區","LI":"西港里","LIN":"2鄰","STREET":"中山路","SECT":" ","MAREA":" ","LANE":"３９０巷","ALLEY":"９弄","HOUSE_NO":"１２號","E_COORD97":168435.25,"N_COORD97":2558312.7599999998,"ADDRESS":"中山路３９０巷９弄１２號","OBJECTID":155717},"geometry":{"x":168435.24999999907,"y":2558312.7600000035}},{"attributes":{"ID":155719,"DIS_CODE":0,"TOWNNAME":"西港區","LI":"西港里","LIN":"2鄰","STREET":"中山路","SECT":" ","MAREA":" ","LANE":"３９０巷","ALLEY":"９弄","HOUSE_NO":"１４號","E_COORD97":168433.91,"N_COORD97":2558317.52,"ADDRESS":"中山路３９０巷９弄１４號","OBJECTID":155718},"geometry":{"x":168433.91000000015,"y":2558317.5200000033}},{"attributes":{"ID":155720,"DIS_CODE":0,"TOWNNAME":"西港區","LI":"西港里","LIN":"2鄰","STREET":"中山路","SECT":" ","MAREA":" ","LANE":"３９０巷","ALLEY":"９弄","HOUSE_NO":"１６號","E_COORD97":168432.17999999999,"N_COORD97":2558323.2599999998,"ADDRESS":"中山路３９０巷９弄１６號","OBJECTID":155719},"geometry":{"x":168432.18000000156,"y":2558323.2600000016}},{"attributes":{"ID":155721,"DIS_CODE":0,"TOWNNAME":"西港區","LI":"西港里","LIN":"2鄰","STREET":"中山路","SECT":" ","MAREA":" ","LANE":"３９０巷","ALLEY":"９弄","HOUSE_NO":"１８號","E_COORD97":168430.17999999999,"N_COORD97":2558329.1200000001,"ADDRESS":"中山路３９０巷９弄１８號","OBJECTID":155720},"geometry":{"x":168430.1799999997,"y":2558329.1200000029}},{"attributes":{"ID":155722,"DIS_CODE":0,"TOWNNAME":"西港區","LI":"西港里","LIN":"2鄰","STREET":"中山路","SECT":" ","MAREA":" ","LANE":"３９０巷","ALLEY":"９弄","HOUSE_NO":"２０號","E_COORD97":168428.35999999999,"N_COORD97":2558334.96,"ADDRESS":"中山路３９０巷９弄２０號","OBJECTID":155721},"geometry":{"x":168428.36000000127,"y":2558334.9600000009}},{"attributes":{"ID":155723,"DIS_CODE":0,"TOWNNAME":"西港區","LI":"西港里","LIN":"2鄰","STREET":"中山路","SECT":" ","MAREA":" ","LANE":"３９０巷","ALLEY":"９弄","HOUSE_NO":"２２號","E_COORD97":168426.48000000001,"N_COORD97":2558340.5800000001,"ADDRESS":"中山路３９０巷９弄２２號","OBJECTID":155722},"geometry":{"x":168426.48000000138,"y":2558340.5800000001}},{"attributes":{"ID":155724,"DIS_CODE":0,"TOWNNAME":"西港區","LI":"西港里","LIN":"2鄰","STREET":"中山路","SECT":" ","MAREA":" ","LANE":"３９０巷","ALLEY":"９弄","HOUSE_NO":"２４號","E_COORD97":168424.87,"N_COORD97":2558346.3900000001,"ADDRESS":"中山路３９０巷９弄２４號","OBJECTID":155723},"geometry":{"x":168424.87000000104,"y":2558346.3899999987}},{"attributes":{"ID":155725,"DIS_CODE":0,"TOWNNAME":"北區","LI":"大港里","LIN":"19鄰","STREET":"大和路","SECT":" ","MAREA":" ","LANE":" ","ALLEY":" ","HOUSE_NO":"２８９號","E_COORD97":166896.91,"N_COORD97":2546129.5800000001,"ADDRESS":"大和路２８９號","OBJECTID":155724},"geometry":{"x":166896.91000000201,"y":2546129.5800000019}},{"attributes":{"ID":155726,"DIS_CODE":0,"TOWNNAME":"新市區","LI":"新市里","LIN":"5鄰","STREET":"仁愛街","SECT":" ","MAREA":" ","LANE":" ","ALLEY":" ","HOUSE_NO":"２８７號","E_COORD97":177641.12,"N_COORD97":2553021.0299999998,"ADDRESS":"仁愛街２８７號","OBJECTID":155725},"geometry":{"x":177641.11999999918,"y":2553021.0299999993}},{"attributes":{"ID":155727,"DIS_CODE":0,"TOWNNAME":"新市區","LI":"港墘里","LIN":"20鄰","STREET":"光華街","SECT":" ","MAREA":" ","LANE":" ","ALLEY":" ","HOUSE_NO":"７６號","E_COORD97":178000.85000000001,"N_COORD97":2552634.25,"ADDRESS":"光華街７６號","OBJECTID":155726},"geometry":{"x":178000.85000000056,"y":2552634.2500000037}},{"attributes":{"ID":155728,"DIS_CODE":0,"TOWNNAME":"新市區","LI":"新和里","LIN":"41鄰","STREET":"西寧街","SECT":" ","MAREA":" ","LANE":" ","ALLEY":" ","HOUSE_NO":"１９號","E_COORD97":177099.26000000001,"N_COORD97":2552894.5,"ADDRESS":"西寧街１９號","OBJECTID":155727},"geometry":{"x":177099.26000000164,"y":2552894.5000000019}},{"attributes":{"ID":155729,"DIS_CODE":0,"TOWNNAME":"新市區","LI":"新市里","LIN":"4鄰","STREET":"華興街","SECT":" ","MAREA":" ","LANE":" ","ALLEY":" ","HOUSE_NO":"５４之１號","E_COORD97":177700.53,"N_COORD97":2553001.5499999998,"ADDRESS":"華興街５４之１號","OBJECTID":155728},"geometry":{"x":177700.53000000026,"y":2553001.5500000007}},{"attributes":{"ID":155730,"DIS_CODE":0,"TOWNNAME":"新市區","LI":"新和里","LIN":"41鄰","STREET":"西寧街","SECT":" ","MAREA":" ","LANE":" ","ALLEY":" ","HOUSE_NO":"１５號","E_COORD97":177125.32000000001,"N_COORD97":2552898.25,"ADDRESS":"西寧街１５號","OBJECTID":155729},"geometry":{"x":177125.32000000123,"y":2552898.25}},{"attributes":{"ID":155731,"DIS_CODE":0,"TOWNNAME":"新市區","LI":"新和里","LIN":"32鄰","STREET":"華興街","SECT":" ","MAREA":" ","LANE":" ","ALLEY":" ","HOUSE_NO":"１３號","E_COORD97":177790.34,"N_COORD97":2552995.25,"ADDRESS":"華興街１３號","OBJECTID":155730},"geometry":{"x":177790.34000000171,"y":2552995.25}},{"attributes":{"ID":155732,"DIS_CODE":0,"TOWNNAME":"新市區","LI":"港墘里","LIN":"20鄰","STREET":"光華街","SECT":" ","MAREA":" ","LANE":" ","ALLEY":" ","HOUSE_NO":"９６號","E_COORD97":177968.42999999999,"N_COORD97":2552693,"ADDRESS":"光華街９６號","OBJECTID":155731},"geometry":{"x":177968.4299999997,"y":2552693}},{"attributes":{"ID":155733,"DIS_CODE":0,"TOWNNAME":"安定區","LI":"六嘉里","LIN":"5鄰","STREET":" ","SECT":" ","MAREA":"六塊寮","LANE":" ","ALLEY":" ","HOUSE_NO":"４１號之８","E_COORD97":170260.70000000001,"N_COORD97":2553406.2999999998,"ADDRESS":"六塊寮４１號之８","OBJECTID":155732},"geometry":{"x":170260.70000000112,"y":2553406.3000000007}},{"attributes":{"ID":155734,"DIS_CODE":0,"TOWNNAME":"西港區","LI":"西港里","LIN":"2鄰","STREET":"中山路","SECT":" ","MAREA":" ","LANE":"３９０巷","ALLEY":"９弄","HOUSE_NO":"２６號","E_COORD97":168423.45999999999,"N_COORD97":2558352.5299999998,"ADDRESS":"中山路３９０巷９弄２６號","OBJECTID":155733},"geometry":{"x":168423.45999999996,"y":2558352.5300000012}},{"attributes":{"ID":155735,"DIS_CODE":0,"TOWNNAME":"西港區","LI":"西港里","LIN":"2鄰","STREET":"中山路","SECT":" ","MAREA":" ","LANE":"３９０巷","ALLEY":"９弄","HOUSE_NO":"２號","E_COORD97":168440.14999999999,"N_COORD97":2558294.6200000001,"ADDRESS":"中山路３９０巷９弄２號","OBJECTID":155734},"geometry":{"x":168440.1500000013,"y":2558294.6200000048}},{"attributes":{"ID":155736,"DIS_CODE":0,"TOWNNAME":"西港區","LI":"西港里","LIN":"2鄰","STREET":"中山路","SECT":" ","MAREA":" ","LANE":"３９０巷","ALLEY":"９弄","HOUSE_NO":"６號","E_COORD97":168438.92000000001,"N_COORD97":2558299.3199999998,"ADDRESS":"中山路３９０巷９弄６號","OBJECTID":155735},"geometry":{"x":168438.91999999993,"y":2558299.320000004}},{"attributes":{"ID":155737,"DIS_CODE":0,"TOWNNAME":"西港區","LI":"西港里","LIN":"2鄰","STREET":"中山路","SECT":" ","MAREA":" ","LANE":"３９０巷","ALLEY":"９弄","HOUSE_NO":"８號","E_COORD97":168437.85000000001,"N_COORD97":2558303.3100000001,"ADDRESS":"中山路３９０巷９弄８號","OBJECTID":155736},"geometry":{"x":168437.85000000056,"y":2558303.3100000024}},{"attributes":{"ID":155738,"DIS_CODE":0,"TOWNNAME":"東區","LI":"莊敬里","LIN":"2鄰","STREET":"小東路","SECT":" ","MAREA":" ","LANE":"２５４巷","ALLEY":"２弄","HOUSE_NO":"１號","E_COORD97":171117.51999999999,"N_COORD97":2544303.6699999999,"ADDRESS":"小東路２５４巷２弄１號","OBJECTID":155737},"geometry":{"x":171117.51999999955,"y":2544303.6699999999}},{"attributes":{"ID":155739,"DIS_CODE":0,"TOWNNAME":"東區","LI":"莊敬里","LIN":"2鄰","STREET":"小東路","SECT":" ","MAREA":" ","LANE":"２５４巷","ALLEY":"２弄","HOUSE_NO":"２號","E_COORD97":171111.76000000001,"N_COORD97":2544317.1899999999,"ADDRESS":"小東路２５４巷２弄２號","OBJECTID":155738},"geometry":{"x":171111.76000000164,"y":2544317.1899999976}},{"attributes":{"ID":155740,"DIS_CODE":0,"TOWNNAME":"東區","LI":"莊敬里","LIN":"2鄰","STREET":"小東路","SECT":" ","MAREA":" ","LANE":"２５４巷","ALLEY":"２弄","HOUSE_NO":"３號","E_COORD97":171113.48000000001,"N_COORD97":2544301.25,"ADDRESS":"小東路２５４巷２弄３號","OBJECTID":155739},"geometry":{"x":171113.48000000138,"y":2544301.2500000019}},{"attributes":{"ID":155741,"DIS_CODE":0,"TOWNNAME":"東區","LI":"莊敬里","LIN":"2鄰","STREET":"小東路","SECT":" ","MAREA":" ","LANE":"２５４巷","ALLEY":"２弄","HOUSE_NO":"４號","E_COORD97":171105.95000000001,"N_COORD97":2544315.8799999999,"ADDRESS":"小東路２５４巷２弄４號","OBJECTID":155740},"geometry":{"x":171105.95000000205,"y":2544315.8800000008}},{"attributes":{"ID":155742,"DIS_CODE":0,"TOWNNAME":"東區","LI":"莊敬里","LIN":"2鄰","STREET":"小東路","SECT":" ","MAREA":" ","LANE":"２５４巷","ALLEY":"２弄","HOUSE_NO":"６號","E_COORD97":171100.28,"N_COORD97":2544314.9900000002,"ADDRESS":"小東路２５４巷２弄６號","OBJECTID":155741},"geometry":{"x":171100.28000000212,"y":2544314.9900000002}},{"attributes":{"ID":155743,"DIS_CODE":0,"TOWNNAME":"新營區","LI":"太南里","LIN":"19鄰","STREET":" ","SECT":" ","MAREA":"太子宮","LANE":" ","ALLEY":" ","HOUSE_NO":"３１３之１２號","E_COORD97":175921.42999999999,"N_COORD97":2576683.3700000001,"ADDRESS":"太子宮３１３之１２號","OBJECTID":155742},"geometry":{"x":175921.43000000156,"y":2576683.3700000029}},{"attributes":{"ID":155744,"DIS_CODE":0,"TOWNNAME":"新營區","LI":"太北里","LIN":"19鄰","STREET":" ","SECT":" ","MAREA":"太子宮","LANE":" ","ALLEY":" ","HOUSE_NO":"４４號之７","E_COORD97":175721.64999999999,"N_COORD97":2577182.71,"ADDRESS":"太子宮４４號之７","OBJECTID":155743},"geometry":{"x":175721.65000000037,"y":2577182.7100000028}},{"attributes":{"ID":155745,"DIS_CODE":0,"TOWNNAME":"新營區","LI":"太北里","LIN":"19鄰","STREET":" ","SECT":" ","MAREA":"太子宮","LANE":" ","ALLEY":" ","HOUSE_NO":"４４號之５","E_COORD97":175717.76999999999,"N_COORD97":2577208.2000000002,"ADDRESS":"太子宮４４號之５","OBJECTID":155744},"geometry":{"x":175717.77000000048,"y":2577208.2000000011}},{"attributes":{"ID":155746,"DIS_CODE":0,"TOWNNAME":"新營區","LI":"太北里","LIN":"19鄰","STREET":" ","SECT":" ","MAREA":"太子宮","LANE":" ","ALLEY":" ","HOUSE_NO":"４４號之２４","E_COORD97":175681.51000000001,"N_COORD97":2577301.4199999999,"ADDRESS":"太子宮４４號之２４","OBJECTID":155745},"geometry":{"x":175681.50999999978,"y":2577301.4200000037}},{"attributes":{"ID":155747,"DIS_CODE":0,"TOWNNAME":"新營區","LI":"太南里","LIN":"19鄰","STREET":" ","SECT":" ","MAREA":"太子宮","LANE":" ","ALLEY":" ","HOUSE_NO":"３１５之１號","E_COORD97":176002.63,"N_COORD97":2576599.8999999999,"ADDRESS":"太子宮３１５之１號","OBJECTID":155746},"geometry":{"x":176002.62999999989,"y":2576599.8999999985}},{"attributes":{"ID":155748,"DIS_CODE":0,"TOWNNAME":"新營區","LI":"太南里","LIN":"19鄰","STREET":" ","SECT":" ","MAREA":"太子宮","LANE":" ","ALLEY":" ","HOUSE_NO":"３１４之６號","E_COORD97":175966.97,"N_COORD97":2576422.8799999999,"ADDRESS":"太子宮３１４之６號","OBJECTID":155747},"geometry":{"x":175966.9700000016,"y":2576422.8800000008}},{"attributes":{"ID":155749,"DIS_CODE":0,"TOWNNAME":"新營區","LI":"太南里","LIN":"19鄰","STREET":" ","SECT":" ","MAREA":"太子宮","LANE":" ","ALLEY":" ","HOUSE_NO":"３１４之１號","E_COORD97":175891.60999999999,"N_COORD97":2576288.1499999999,"ADDRESS":"太子宮３１４之１號","OBJECTID":155748},"geometry":{"x":175891.61000000034,"y":2576288.1500000022}},{"attributes":{"ID":155750,"DIS_CODE":0,"TOWNNAME":"新營區","LI":"太南里","LIN":"19鄰","STREET":" ","SECT":" ","MAREA":"太子宮","LANE":" ","ALLEY":" ","HOUSE_NO":"３１４之５號","E_COORD97":175886.95999999999,"N_COORD97":2576381.2000000002,"ADDRESS":"太子宮３１４之５號","OBJECTID":155749},"geometry":{"x":175886.95999999996,"y":2576381.2000000011}},{"attributes":{"ID":155751,"DIS_CODE":0,"TOWNNAME":"新營區","LI":"太北里","LIN":"19鄰","STREET":" ","SECT":" ","MAREA":"太子宮","LANE":" ","ALLEY":" ","HOUSE_NO":"４４號之１６","E_COORD97":175671.19,"N_COORD97":2577268.2400000002,"ADDRESS":"太子宮４４號之１６","OBJECTID":155750},"geometry":{"x":175671.18999999948,"y":2577268.2400000002}},{"attributes":{"ID":155752,"DIS_CODE":0,"TOWNNAME":"新營區","LI":"太南里","LIN":"19鄰","STREET":" ","SECT":" ","MAREA":"太子宮","LANE":" ","ALLEY":" ","HOUSE_NO":"３１４之２０號","E_COORD97":175576.39999999999,"N_COORD97":2576017.29,"ADDRESS":"太子宮３１４之２０號","OBJECTID":155751},"geometry":{"x":175576.40000000037,"y":2576017.290000001}},{"attributes":{"ID":155753,"DIS_CODE":0,"TOWNNAME":"鹽水區","LI":"飯店里","LIN":"9鄰","STREET":" ","SECT":" ","MAREA":"竹圍","LANE":" ","ALLEY":" ","HOUSE_NO":"４號","E_COORD97":168297.88,"N_COORD97":2573494.0099999998,"ADDRESS":"竹圍４號","OBJECTID":155752},"geometry":{"x":168297.88000000082,"y":2573494.0100000016}},{"attributes":{"ID":155754,"DIS_CODE":0,"TOWNNAME":"安定區","LI":"安加里","LIN":"5鄰","STREET":" ","SECT":" ","MAREA":"安定","LANE":" ","ALLEY":" ","HOUSE_NO":"２０４號之８","E_COORD97":171821.39999999999,"N_COORD97":2557656.3199999998,"ADDRESS":"安定２０４號之８","OBJECTID":155753},"geometry":{"x":171821.40000000037,"y":2557656.3200000022}},{"attributes":{"ID":155755,"DIS_CODE":0,"TOWNNAME":"東區","LI":"莊敬里","LIN":"2鄰","STREET":"小東路","SECT":" ","MAREA":" ","LANE":"２５４巷","ALLEY":"２弄","HOUSE_NO":"８號","E_COORD97":171095.03,"N_COORD97":2544313.3799999999,"ADDRESS":"小東路２５４巷２弄８號","OBJECTID":155754},"geometry":{"x":171095.03000000026,"y":2544313.3800000008}},{"attributes":{"ID":155756,"DIS_CODE":0,"TOWNNAME":"東區","LI":"莊敬里","LIN":"2鄰","STREET":"小東路","SECT":" ","MAREA":" ","LANE":"２５４巷","ALLEY":"２弄","HOUSE_NO":"９號","E_COORD97":171104.5,"N_COORD97":2544295.0099999998,"ADDRESS":"小東路２５４巷２弄９號","OBJECTID":155755},"geometry":{"x":171104.5,"y":2544295.0099999979}},{"attributes":{"ID":155757,"DIS_CODE":0,"TOWNNAME":"新營區","LI":"太北里","LIN":"19鄰","STREET":" ","SECT":" ","MAREA":"太子宮","LANE":" ","ALLEY":" ","HOUSE_NO":"４３之１２號","E_COORD97":175757.89999999999,"N_COORD97":2577168.1400000001,"ADDRESS":"太子宮４３之１２號","OBJECTID":155756},"geometry":{"x":175757.90000000224,"y":2577168.1400000043}},{"attributes":{"ID":155758,"DIS_CODE":0,"TOWNNAME":"新營區","LI":"太北里","LIN":"19鄰","STREET":" ","SECT":" ","MAREA":"太子宮","LANE":" ","ALLEY":" ","HOUSE_NO":"４４之１００號","E_COORD97":175833.35999999999,"N_COORD97":2577484.5099999998,"ADDRESS":"太子宮４４之１００號","OBJECTID":155757},"geometry":{"x":175833.36000000127,"y":2577484.5100000016}},{"attributes":{"ID":155759,"DIS_CODE":0,"TOWNNAME":"新營區","LI":"太南里","LIN":"19鄰","STREET":" ","SECT":" ","MAREA":"太子宮","LANE":" ","ALLEY":" ","HOUSE_NO":"３１５之４號","E_COORD97":176015.92999999999,"N_COORD97":2576599.8300000001,"ADDRESS":"太子宮３１５之４號","OBJECTID":155758},"geometry":{"x":176015.9299999997,"y":2576599.8300000001}},{"attributes":{"ID":155760,"DIS_CODE":0,"TOWNNAME":"東區","LI":"莊敬里","LIN":"2鄰","STREET":"小東路","SECT":" ","MAREA":" ","LANE":"２５４巷","ALLEY":"２弄","HOUSE_NO":"１０號","E_COORD97":171089.69,"N_COORD97":2544312.8900000001,"ADDRESS":"小東路２５４巷２弄１０號","OBJECTID":155759},"geometry":{"x":171089.69000000134,"y":2544312.8900000006}},{"attributes":{"ID":155761,"DIS_CODE":0,"TOWNNAME":"東區","LI":"莊敬里","LIN":"2鄰","STREET":"小東路","SECT":" ","MAREA":" ","LANE":"２５４巷","ALLEY":"２弄","HOUSE_NO":"１１號","E_COORD97":171100.70000000001,"N_COORD97":2544289.3500000001,"ADDRESS":"小東路２５４巷２弄１１號","OBJECTID":155760},"geometry":{"x":171100.70000000205,"y":2544289.3500000034}},{"attributes":{"ID":155762,"DIS_CODE":0,"TOWNNAME":"東區","LI":"莊敬里","LIN":"2鄰","STREET":"小東路","SECT":" ","MAREA":" ","LANE":"２５４巷","ALLEY":"２弄","HOUSE_NO":"１２號","E_COORD97":171083.22,"N_COORD97":2544312.3300000001,"ADDRESS":"小東路２５４巷２弄１２號","OBJECTID":155761},"geometry":{"x":171083.2200000016,"y":2544312.3300000001}},{"attributes":{"ID":155763,"DIS_CODE":0,"TOWNNAME":"東區","LI":"莊敬里","LIN":"2鄰","STREET":"小東路","SECT":" ","MAREA":" ","LANE":"２５４巷","ALLEY":"２弄","HOUSE_NO":"１３號","E_COORD97":171094.04999999999,"N_COORD97":2544282.8700000001,"ADDRESS":"小東路２５４巷２弄１３號","OBJECTID":155762},"geometry":{"x":171094.04999999981,"y":2544282.870000001}},{"attributes":{"ID":155764,"DIS_CODE":0,"TOWNNAME":"新營區","LI":"太北里","LIN":"19鄰","STREET":" ","SECT":" ","MAREA":"太子宮","LANE":" ","ALLEY":" ","HOUSE_NO":"４４號之２８","E_COORD97":175690.95999999999,"N_COORD97":2577530.6099999999,"ADDRESS":"太子宮４４號之２８","OBJECTID":155763},"geometry":{"x":175690.96000000183,"y":2577530.6100000013}},{"attributes":{"ID":155765,"DIS_CODE":0,"TOWNNAME":"東區","LI":"莊敬里","LIN":"2鄰","STREET":"小東路","SECT":" ","MAREA":" ","LANE":"２５４巷","ALLEY":"２弄","HOUSE_NO":"１４號","E_COORD97":171078.35000000001,"N_COORD97":2544311.3199999998,"ADDRESS":"小東路２５４巷２弄１４號","OBJECTID":155764},"geometry":{"x":171078.34999999963,"y":2544311.3200000022}},{"attributes":{"ID":155766,"DIS_CODE":0,"TOWNNAME":"東區","LI":"莊敬里","LIN":"2鄰","STREET":"小東路","SECT":" ","MAREA":" ","LANE":"２５４巷","ALLEY":"２弄","HOUSE_NO":"１５號","E_COORD97":171092.35000000001,"N_COORD97":2544288.1200000001,"ADDRESS":"小東路２５４巷２弄１５號","OBJECTID":155765},"geometry":{"x":171092.35000000149,"y":2544288.120000001}},{"attributes":{"ID":155767,"DIS_CODE":0,"TOWNNAME":"東區","LI":"莊敬里","LIN":"2鄰","STREET":"小東路","SECT":" ","MAREA":" ","LANE":"２５４巷","ALLEY":"２弄","HOUSE_NO":"１６號","E_COORD97":171073.09,"N_COORD97":2544310.1099999999,"ADDRESS":"小東路２５４巷２弄１６號","OBJECTID":155766},"geometry":{"x":171073.09000000078,"y":2544310.1099999994}},{"attributes":{"ID":155768,"DIS_CODE":0,"TOWNNAME":"東區","LI":"莊敬里","LIN":"2鄰","STREET":"小東路","SECT":" ","MAREA":" ","LANE":"２５４巷","ALLEY":"２弄","HOUSE_NO":"１７號","E_COORD97":171090.98000000001,"N_COORD97":2544298.6200000001,"ADDRESS":"小東路２５４巷２弄１７號","OBJECTID":155767},"geometry":{"x":171090.98000000138,"y":2544298.620000001}},{"attributes":{"ID":155769,"DIS_CODE":0,"TOWNNAME":"新營區","LI":"太南里","LIN":"19鄰","STREET":" ","SECT":" ","MAREA":"太子宮","LANE":" ","ALLEY":" ","HOUSE_NO":"３１５之２號","E_COORD97":176007.75,"N_COORD97":2576599.8700000001,"ADDRESS":"太子宮３１５之２號","OBJECTID":155768},"geometry":{"x":176007.75000000186,"y":2576599.870000001}},{"attributes":{"ID":155770,"DIS_CODE":0,"TOWNNAME":"新營區","LI":"太北里","LIN":"19鄰","STREET":" ","SECT":" ","MAREA":"太子宮","LANE":" ","ALLEY":" ","HOUSE_NO":"４４之２９號","E_COORD97":175677.17999999999,"N_COORD97":2577390.04,"ADDRESS":"太子宮４４之２９號","OBJECTID":155769},"geometry":{"x":175677.1799999997,"y":2577390.0399999991}},{"attributes":{"ID":155771,"DIS_CODE":0,"TOWNNAME":"東區","LI":"莊敬里","LIN":"2鄰","STREET":"小東路","SECT":" ","MAREA":" ","LANE":"２５４巷","ALLEY":"２弄","HOUSE_NO":"１８號","E_COORD97":171062.26000000001,"N_COORD97":2544309.3900000001,"ADDRESS":"小東路２５４巷２弄１８號","OBJECTID":155770},"geometry":{"x":171062.25999999978,"y":2544309.3900000006}},{"attributes":{"ID":155772,"DIS_CODE":0,"TOWNNAME":"東區","LI":"莊敬里","LIN":"2鄰","STREET":"小東路","SECT":" ","MAREA":" ","LANE":"２５４巷","ALLEY":"２弄","HOUSE_NO":"１９號","E_COORD97":171086.53,"N_COORD97":2544296.7599999998,"ADDRESS":"小東路２５４巷２弄１９號","OBJECTID":155771},"geometry":{"x":171086.53000000026,"y":2544296.7600000035}},{"attributes":{"ID":155773,"DIS_CODE":0,"TOWNNAME":"新營區","LI":"太北里","LIN":"19鄰","STREET":" ","SECT":" ","MAREA":"太子宮","LANE":" ","ALLEY":" ","HOUSE_NO":"４３之９號","E_COORD97":175761.92000000001,"N_COORD97":2577200.23,"ADDRESS":"太子宮４３之９號","OBJECTID":155772},"geometry":{"x":175761.91999999993,"y":2577200.2300000004}},{"attributes":{"ID":155774,"DIS_CODE":0,"TOWNNAME":"東區","LI":"莊敬里","LIN":"2鄰","STREET":"小東路","SECT":" ","MAREA":" ","LANE":"２５４巷","ALLEY":"２弄","HOUSE_NO":"２０號","E_COORD97":171056.35999999999,"N_COORD97":2544308.2599999998,"ADDRESS":"小東路２５４巷２弄２０號","OBJECTID":155773},"geometry":{"x":171056.36000000127,"y":2544308.2600000016}},{"attributes":{"ID":155775,"DIS_CODE":0,"TOWNNAME":"東區","LI":"莊敬里","LIN":"2鄰","STREET":"小東路","SECT":" ","MAREA":" ","LANE":"２５４巷","ALLEY":"２弄","HOUSE_NO":"２１號","E_COORD97":171081.67999999999,"N_COORD97":2544298.3799999999,"ADDRESS":"小東路２５４巷２弄２１號","OBJECTID":155774},"geometry":{"x":171081.68000000156,"y":2544298.3799999971}},{"attributes":{"ID":155776,"DIS_CODE":0,"TOWNNAME":"東區","LI":"莊敬里","LIN":"2鄰","STREET":"小東路","SECT":" ","MAREA":" ","LANE":"２５４巷","ALLEY":"２弄","HOUSE_NO":"２２號","E_COORD97":171051.25,"N_COORD97":2544307.21,"ADDRESS":"小東路２５４巷２弄２２號","OBJECTID":155775},"geometry":{"x":171051.25000000093,"y":2544307.2100000009}},{"attributes":{"ID":155777,"DIS_CODE":0,"TOWNNAME":"東區","LI":"莊敬里","LIN":"2鄰","STREET":"小東路","SECT":" ","MAREA":" ","LANE":"２５４巷","ALLEY":"２弄","HOUSE_NO":"２３號","E_COORD97":171077.72,"N_COORD97":2544295.3100000001,"ADDRESS":"小東路２５４巷２弄２３號","OBJECTID":155776},"geometry":{"x":171077.71999999974,"y":2544295.3100000024}},{"attributes":{"ID":155778,"DIS_CODE":0,"TOWNNAME":"東區","LI":"莊敬里","LIN":"2鄰","STREET":"小東路","SECT":" ","MAREA":" ","LANE":"２５４巷","ALLEY":"２弄","HOUSE_NO":"２４號","E_COORD97":171046.16,"N_COORD97":2544306.0800000001,"ADDRESS":"小東路２５４巷２弄２４號","OBJECTID":155777},"geometry":{"x":171046.16000000015,"y":2544306.0800000019}},{"attributes":{"ID":155779,"DIS_CODE":0,"TOWNNAME":"新營區","LI":"太北里","LIN":"19鄰","STREET":" ","SECT":" ","MAREA":"太子宮","LANE":" ","ALLEY":" ","HOUSE_NO":"４４號之３","E_COORD97":175718.79999999999,"N_COORD97":2577221.4900000002,"ADDRESS":"太子宮４４號之３","OBJECTID":155778},"geometry":{"x":175718.79999999981,"y":2577221.4900000002}},{"attributes":{"ID":155780,"DIS_CODE":0,"TOWNNAME":"新營區","LI":"太北里","LIN":"19鄰","STREET":" ","SECT":" ","MAREA":"太子宮","LANE":" ","ALLEY":" ","HOUSE_NO":"４４號之２","E_COORD97":175738.20000000001,"N_COORD97":2577206.9900000002,"ADDRESS":"太子宮４４號之２","OBJECTID":155779},"geometry":{"x":175738.20000000019,"y":2577206.9900000021}},{"attributes":{"ID":155781,"DIS_CODE":0,"TOWNNAME":"東區","LI":"莊敬里","LIN":"2鄰","STREET":"小東路","SECT":" ","MAREA":" ","LANE":"２５４巷","ALLEY":"２弄","HOUSE_NO":"２５號","E_COORD97":171073.03,"N_COORD97":2544296.6800000002,"ADDRESS":"小東路２５４巷２弄２５號","OBJECTID":155780},"geometry":{"x":171073.02999999933,"y":2544296.6799999997}},{"attributes":{"ID":155782,"DIS_CODE":0,"TOWNNAME":"新營區","LI":"太北里","LIN":"19鄰","STREET":" ","SECT":" ","MAREA":"太子宮","LANE":" ","ALLEY":" ","HOUSE_NO":"４４號之４","E_COORD97":175717.67999999999,"N_COORD97":2577217.0600000001,"ADDRESS":"太子宮４４號之４","OBJECTID":155781},"geometry":{"x":175717.6799999997,"y":2577217.0600000024}},{"attributes":{"ID":155783,"DIS_CODE":0,"TOWNNAME":"新營區","LI":"太南里","LIN":"19鄰","STREET":" ","SECT":" ","MAREA":"太子宮","LANE":" ","ALLEY":" ","HOUSE_NO":"３１４之８號","E_COORD97":175855.13,"N_COORD97":2576358.1000000001,"ADDRESS":"太子宮３１４之８號","OBJECTID":155782},"geometry":{"x":175855.12999999989,"y":2576358.1000000015}},{"attributes":{"ID":155784,"DIS_CODE":0,"TOWNNAME":"新營區","LI":"太南里","LIN":"19鄰","STREET":" ","SECT":" ","MAREA":"太子宮","LANE":" ","ALLEY":" ","HOUSE_NO":"３１５之３號","E_COORD97":176011.84,"N_COORD97":2576599.8500000001,"ADDRESS":"太子宮３１５之３號","OBJECTID":155783},"geometry":{"x":176011.83999999985,"y":2576599.8500000034}},{"attributes":{"ID":155785,"DIS_CODE":0,"TOWNNAME":"新營區","LI":"太南里","LIN":"19鄰","STREET":" ","SECT":" ","MAREA":"太子宮","LANE":" ","ALLEY":" ","HOUSE_NO":"３１４之１７號","E_COORD97":175744.39000000001,"N_COORD97":2576146.7400000002,"ADDRESS":"太子宮３１４之１７號","OBJECTID":155784},"geometry":{"x":175744.3900000006,"y":2576146.7400000039}},{"attributes":{"ID":155786,"DIS_CODE":0,"TOWNNAME":"新營區","LI":"太南里","LIN":"19鄰","STREET":" ","SECT":" ","MAREA":"太子宮","LANE":" ","ALLEY":" ","HOUSE_NO":"３１４之１８號","E_COORD97":175747.09,"N_COORD97":2576130.02,"ADDRESS":"太子宮３１４之１８號","OBJECTID":155785},"geometry":{"x":175747.08999999985,"y":2576130.0199999996}},{"attributes":{"ID":155787,"DIS_CODE":0,"TOWNNAME":"安定區","LI":"南安里","LIN":"5鄰","STREET":" ","SECT":" ","MAREA":"油車","LANE":" ","ALLEY":" ","HOUSE_NO":"５５之３號","E_COORD97":170545.44,"N_COORD97":2555535.2999999998,"ADDRESS":"油車５５之３號","OBJECTID":155786},"geometry":{"x":170545.44000000134,"y":2555535.3000000007}},{"attributes":{"ID":155788,"DIS_CODE":0,"TOWNNAME":"安定區","LI":"安加里","LIN":"5鄰","STREET":" ","SECT":" ","MAREA":"安定","LANE":" ","ALLEY":" ","HOUSE_NO":"２０８之１號","E_COORD97":171822.62,"N_COORD97":2557624.3199999998,"ADDRESS":"安定２０８之１號","OBJECTID":155787},"geometry":{"x":171822.62000000011,"y":2557624.3199999984}},{"attributes":{"ID":155789,"DIS_CODE":0,"TOWNNAME":"安定區","LI":"中沙里","LIN":"5鄰","STREET":" ","SECT":" ","MAREA":"沙崙","LANE":" ","ALLEY":" ","HOUSE_NO":"６之２號","E_COORD97":168599.01999999999,"N_COORD97":2552285.2999999998,"ADDRESS":"沙崙６之２號","OBJECTID":155788},"geometry":{"x":168599.01999999955,"y":2552285.3000000045}},{"attributes":{"ID":155790,"DIS_CODE":0,"TOWNNAME":"安定區","LI":"中沙里","LIN":"5鄰","STREET":" ","SECT":" ","MAREA":"沙崙","LANE":" ","ALLEY":" ","HOUSE_NO":"１號之２","E_COORD97":168652.22,"N_COORD97":2552385.2999999998,"ADDRESS":"沙崙１之２號","OBJECTID":155789},"geometry":{"x":168652.2200000016,"y":2552385.3000000026}},{"attributes":{"ID":155791,"DIS_CODE":0,"TOWNNAME":"安定區","LI":"港口里","LIN":"5鄰","STREET":" ","SECT":" ","MAREA":"港口","LANE":" ","ALLEY":" ","HOUSE_NO":"２６４之９號","E_COORD97":171517.29000000001,"N_COORD97":2554657.2999999998,"ADDRESS":"港口２６４之９號","OBJECTID":155790},"geometry":{"x":171517.29000000097,"y":2554657.3000000007}},{"attributes":{"ID":155792,"DIS_CODE":0,"TOWNNAME":"安定區","LI":"南安里","LIN":"5鄰","STREET":" ","SECT":" ","MAREA":"油車","LANE":" ","ALLEY":" ","HOUSE_NO":"６２之１號","E_COORD97":170508.04000000001,"N_COORD97":2555470.2999999998,"ADDRESS":"油車６２之１號","OBJECTID":155791},"geometry":{"x":170508.04000000004,"y":2555470.3000000026}},{"attributes":{"ID":155793,"DIS_CODE":0,"TOWNNAME":"安定區","LI":"港口里","LIN":"5鄰","STREET":" ","SECT":" ","MAREA":"港口","LANE":" ","ALLEY":" ","HOUSE_NO":"２６４之３號","E_COORD97":171518.48999999999,"N_COORD97":2554674.2999999998,"ADDRESS":"港口２６４之３號","OBJECTID":155792},"geometry":{"x":171518.49000000022,"y":2554674.3000000007}},{"attributes":{"ID":155794,"DIS_CODE":0,"TOWNNAME":"安定區","LI":"六嘉里","LIN":"5鄰","STREET":" ","SECT":" ","MAREA":"六塊寮","LANE":" ","ALLEY":" ","HOUSE_NO":"３３之１１號","E_COORD97":170219.87,"N_COORD97":2553421.2999999998,"ADDRESS":"六塊寮３３之１１號","OBJECTID":155793},"geometry":{"x":170219.87000000104,"y":2553421.3000000045}},{"attributes":{"ID":155795,"DIS_CODE":0,"TOWNNAME":"東區","LI":"莊敬里","LIN":"2鄰","STREET":"小東路","SECT":" ","MAREA":" ","LANE":"２５４巷","ALLEY":"２弄","HOUSE_NO":"２７號","E_COORD97":171068.47,"N_COORD97":2544294.4399999999,"ADDRESS":"小東路２５４巷２弄２７號","OBJECTID":155794},"geometry":{"x":171068.47000000067,"y":2544294.4399999995}},{"attributes":{"ID":155796,"DIS_CODE":0,"TOWNNAME":"楠西區","LI":"照興里","LIN":"18鄰","STREET":" ","SECT":" ","MAREA":"興南","LANE":" ","ALLEY":" ","HOUSE_NO":"４號之３","E_COORD97":196544.04999999999,"N_COORD97":2565176.2999999998,"ADDRESS":"興南４號之３","OBJECTID":155795},"geometry":{"x":196544.04999999981,"y":2565176.3000000026}},{"attributes":{"ID":155797,"DIS_CODE":0,"TOWNNAME":"楠西區","LI":"照興里","LIN":"18鄰","STREET":" ","SECT":" ","MAREA":"興南","LANE":" ","ALLEY":" ","HOUSE_NO":"５號之８","E_COORD97":196489,"N_COORD97":2565286.2999999998,"ADDRESS":"興南５號之８","OBJECTID":155796},"geometry":{"x":196489.00000000186,"y":2565286.3000000007}},{"attributes":{"ID":155798,"DIS_CODE":0,"TOWNNAME":"楠西區","LI":"照興里","LIN":"18鄰","STREET":" ","SECT":" ","MAREA":"興南","LANE":" ","ALLEY":" ","HOUSE_NO":"１２號","E_COORD97":196380.26999999999,"N_COORD97":2564948.25,"ADDRESS":"興南１２號","OBJECTID":155797},"geometry":{"x":196380.27000000048,"y":2564948.2500000019}},{"attributes":{"ID":155799,"DIS_CODE":0,"TOWNNAME":"新營區","LI":"忠政里","LIN":"19鄰","STREET":"長榮路","SECT":"二段","MAREA":" ","LANE":" ","ALLEY":" ","HOUSE_NO":"４９號","E_COORD97":179889.73999999999,"N_COORD97":2579820.5099999998,"ADDRESS":"長榮路二段４９號","OBJECTID":155798},"geometry":{"x":179889.74000000022,"y":2579820.5100000016}},{"attributes":{"ID":155800,"DIS_CODE":0,"TOWNNAME":"楠西區","LI":"灣丘里","LIN":"19鄰","STREET":" ","SECT":" ","MAREA":"香蕉山","LANE":" ","ALLEY":" ","HOUSE_NO":"１０號之１","E_COORD97":202673.63,"N_COORD97":2564640.2999999998,"ADDRESS":"香蕉山１０號之１","OBJECTID":155799},"geometry":{"x":202673.62999999989,"y":2564640.3000000026}},{"attributes":{"ID":155801,"DIS_CODE":0,"TOWNNAME":"楠西區","LI":"灣丘里","LIN":"19鄰","STREET":" ","SECT":" ","MAREA":"香蕉山","LANE":" ","ALLEY":" ","HOUSE_NO":"９號","E_COORD97":202710.64000000001,"N_COORD97":2564643.25,"ADDRESS":"香蕉山９號","OBJECTID":155800},"geometry":{"x":202710.63999999966,"y":2564643.2500000019}}]}