{"displayFieldName":"TOWNNAME","fieldAliases":{"ID":"ID","DIS_CODE":"DIS_CODE","TOWNNAME":"TOWNNAME","LI":"LI","LIN":"LIN","STREET":"STREET","SECT":"SECT","MAREA":"MAREA","LANE":"LANE","ALLEY":"ALLEY","HOUSE_NO":"HOUSE_NO","E_COORD97":"E_COORD97","N_COORD97":"N_COORD97","ADDRESS":"ADDRESS","OBJECTID":"OBJECTID"},"geometryType":"esriGeometryPoint","spatialReference":{"wkid":102443,"latestWkid":3826},"fields":[{"name":"ID","type":"esriFieldTypeDouble","alias":"ID"},{"name":"DIS_CODE","type":"esriFieldTypeInteger","alias":"DIS_CODE"},{"name":"TOWNNAME","type":"esriFieldTypeString","alias":"TOWNNAME","length":8},{"name":"LI","type":"esriFieldTypeString","alias":"LI","length":8},{"name":"LIN","type":"esriFieldTypeString","alias":"LIN","length":12},{"name":"STREET","type":"esriFieldTypeString","alias":"STREET","length":20},{"name":"SECT","type":"esriFieldTypeString","alias":"SECT","length":8},{"name":"MAREA","type":"esriFieldTypeString","alias":"MAREA","length":12},{"name":"LANE","type":"esriFieldTypeString","alias":"LANE","length":10},{"name":"ALLEY","type":"esriFieldTypeString","alias":"ALLEY","length":10},{"name":"HOUSE_NO","type":"esriFieldTypeString","alias":"HOUSE_NO","length":20},{"name":"E_COORD97","type":"esriFieldTypeDouble","alias":"E_COORD97"},{"name":"N_COORD97","type":"esriFieldTypeDouble","alias":"N_COORD97"},{"name":"ADDRESS","type":"esriFieldTypeString","alias":"ADDRESS","length":50},{"name":"OBJECTID","type":"esriFieldTypeOID","alias":"OBJECTID"}],"features":[{"attributes":{"ID":511028,"DIS_CODE":0,"TOWNNAME":"安平區","LI":"建平里","LIN":"1鄰","STREET":"建平十七街","SECT":" ","MAREA":" ","LANE":" ","ALLEY":" ","HOUSE_NO":"３３號八樓之３","E_COORD97":166259.04999999999,"N_COORD97":2544213.9199999999,"ADDRESS":"建平十七街３３號八樓之３","OBJECTID":511001},"geometry":{"x":166259.05000000075,"y":2544213.9199999999}},{"attributes":{"ID":511029,"DIS_CODE":0,"TOWNNAME":"安平區","LI":"建平里","LIN":"1鄰","STREET":"建平十七街","SECT":" ","MAREA":" ","LANE":" ","ALLEY":" ","HOUSE_NO":"３３號八樓之４","E_COORD97":166259.04999999999,"N_COORD97":2544213.9199999999,"ADDRESS":"建平十七街３３號八樓之４","OBJECTID":511002},"geometry":{"x":166259.05000000075,"y":2544213.9199999999}},{"attributes":{"ID":511030,"DIS_CODE":0,"TOWNNAME":"安平區","LI":"建平里","LIN":"1鄰","STREET":"建平十七街","SECT":" ","MAREA":" ","LANE":" ","ALLEY":" ","HOUSE_NO":"３３號十一樓之１","E_COORD97":166259.04999999999,"N_COORD97":2544213.9199999999,"ADDRESS":"建平十七街３３號十一樓之１","OBJECTID":511003},"geometry":{"x":166259.05000000075,"y":2544213.9199999999}},{"attributes":{"ID":511031,"DIS_CODE":0,"TOWNNAME":"安平區","LI":"建平里","LIN":"1鄰","STREET":"建平十七街","SECT":" ","MAREA":" ","LANE":" ","ALLEY":" ","HOUSE_NO":"３３號十一樓之２","E_COORD97":166259.04999999999,"N_COORD97":2544213.9199999999,"ADDRESS":"建平十七街３３號十一樓之２","OBJECTID":511004},"geometry":{"x":166259.05000000075,"y":2544213.9199999999}},{"attributes":{"ID":511032,"DIS_CODE":0,"TOWNNAME":"安平區","LI":"建平里","LIN":"1鄰","STREET":"建平十七街","SECT":" ","MAREA":" ","LANE":" ","ALLEY":" ","HOUSE_NO":"３３號十一樓之３","E_COORD97":166259.04999999999,"N_COORD97":2544213.9199999999,"ADDRESS":"建平十七街３３號十一樓之３","OBJECTID":511005},"geometry":{"x":166259.05000000075,"y":2544213.9199999999}},{"attributes":{"ID":511033,"DIS_CODE":0,"TOWNNAME":"安平區","LI":"建平里","LIN":"1鄰","STREET":"建平十七街","SECT":" ","MAREA":" ","LANE":" ","ALLEY":" ","HOUSE_NO":"３３號十二樓之１","E_COORD97":166259.04999999999,"N_COORD97":2544213.9199999999,"ADDRESS":"建平十七街３３號十二樓之１","OBJECTID":511006},"geometry":{"x":166259.05000000075,"y":2544213.9199999999}},{"attributes":{"ID":511034,"DIS_CODE":0,"TOWNNAME":"安平區","LI":"建平里","LIN":"1鄰","STREET":"建平十七街","SECT":" ","MAREA":" ","LANE":" ","ALLEY":" ","HOUSE_NO":"３３號十二樓之２","E_COORD97":166259.04999999999,"N_COORD97":2544213.9199999999,"ADDRESS":"建平十七街３３號十二樓之２","OBJECTID":511007},"geometry":{"x":166259.05000000075,"y":2544213.9199999999}},{"attributes":{"ID":511035,"DIS_CODE":0,"TOWNNAME":"安平區","LI":"建平里","LIN":"1鄰","STREET":"建平十七街","SECT":" ","MAREA":" ","LANE":" ","ALLEY":" ","HOUSE_NO":"３３號十二樓之３","E_COORD97":166259.04999999999,"N_COORD97":2544213.9199999999,"ADDRESS":"建平十七街３３號十二樓之３","OBJECTID":511008},"geometry":{"x":166259.05000000075,"y":2544213.9199999999}},{"attributes":{"ID":511036,"DIS_CODE":0,"TOWNNAME":"安平區","LI":"建平里","LIN":"1鄰","STREET":"建平十七街","SECT":" ","MAREA":" ","LANE":" ","ALLEY":" ","HOUSE_NO":"３３號十三樓之１","E_COORD97":166259.04999999999,"N_COORD97":2544213.9199999999,"ADDRESS":"建平十七街３３號十三樓之１","OBJECTID":511009},"geometry":{"x":166259.05000000075,"y":2544213.9199999999}},{"attributes":{"ID":511037,"DIS_CODE":0,"TOWNNAME":"安平區","LI":"建平里","LIN":"1鄰","STREET":"建平十七街","SECT":" ","MAREA":" ","LANE":" ","ALLEY":" ","HOUSE_NO":"３３號十三樓之２","E_COORD97":166259.04999999999,"N_COORD97":2544213.9199999999,"ADDRESS":"建平十七街３３號十三樓之２","OBJECTID":511010},"geometry":{"x":166259.05000000075,"y":2544213.9199999999}},{"attributes":{"ID":511038,"DIS_CODE":0,"TOWNNAME":"南區","LI":"文南里","LIN":"24鄰","STREET":"南明街","SECT":" ","MAREA":" ","LANE":" ","ALLEY":" ","HOUSE_NO":"２０號","E_COORD97":166824.34,"N_COORD97":2542802.3500000001,"ADDRESS":"南明街２０號","OBJECTID":511011},"geometry":{"x":166824.34000000078,"y":2542802.3500000015}},{"attributes":{"ID":511039,"DIS_CODE":0,"TOWNNAME":"安平區","LI":"建平里","LIN":"1鄰","STREET":"建平十七街","SECT":" ","MAREA":" ","LANE":" ","ALLEY":" ","HOUSE_NO":"３３號十三樓之３","E_COORD97":166259.04999999999,"N_COORD97":2544213.9199999999,"ADDRESS":"建平十七街３３號十三樓之３","OBJECTID":511012},"geometry":{"x":166259.05000000075,"y":2544213.9199999999}},{"attributes":{"ID":511040,"DIS_CODE":0,"TOWNNAME":"安平區","LI":"建平里","LIN":"1鄰","STREET":"建平十七街","SECT":" ","MAREA":" ","LANE":" ","ALLEY":" ","HOUSE_NO":"３３號十三樓之４","E_COORD97":166259.04999999999,"N_COORD97":2544213.9199999999,"ADDRESS":"建平十七街３３號十三樓之４","OBJECTID":511013},"geometry":{"x":166259.05000000075,"y":2544213.9199999999}},{"attributes":{"ID":511041,"DIS_CODE":0,"TOWNNAME":"安平區","LI":"建平里","LIN":"1鄰","STREET":"建平十七街","SECT":" ","MAREA":" ","LANE":" ","ALLEY":" ","HOUSE_NO":"３３號十五樓之１","E_COORD97":166259.04999999999,"N_COORD97":2544213.9199999999,"ADDRESS":"建平十七街３３號十五樓之１","OBJECTID":511014},"geometry":{"x":166259.05000000075,"y":2544213.9199999999}},{"attributes":{"ID":511042,"DIS_CODE":0,"TOWNNAME":"安平區","LI":"建平里","LIN":"1鄰","STREET":"建平十七街","SECT":" ","MAREA":" ","LANE":" ","ALLEY":" ","HOUSE_NO":"３３號十五樓之２","E_COORD97":166259.04999999999,"N_COORD97":2544213.9199999999,"ADDRESS":"建平十七街３３號十五樓之２","OBJECTID":511015},"geometry":{"x":166259.05000000075,"y":2544213.9199999999}},{"attributes":{"ID":511043,"DIS_CODE":0,"TOWNNAME":"安平區","LI":"建平里","LIN":"1鄰","STREET":"建平十七街","SECT":" ","MAREA":" ","LANE":" ","ALLEY":" ","HOUSE_NO":"３３號十五樓之３","E_COORD97":166259.04999999999,"N_COORD97":2544213.9199999999,"ADDRESS":"建平十七街３３號十五樓之３","OBJECTID":511016},"geometry":{"x":166259.05000000075,"y":2544213.9199999999}},{"attributes":{"ID":511044,"DIS_CODE":0,"TOWNNAME":"安平區","LI":"建平里","LIN":"1鄰","STREET":"建平十七街","SECT":" ","MAREA":" ","LANE":" ","ALLEY":" ","HOUSE_NO":"３３號十四樓之１","E_COORD97":166259.04999999999,"N_COORD97":2544213.9199999999,"ADDRESS":"建平十七街３３號十四樓之１","OBJECTID":511017},"geometry":{"x":166259.05000000075,"y":2544213.9199999999}},{"attributes":{"ID":511045,"DIS_CODE":0,"TOWNNAME":"安平區","LI":"建平里","LIN":"1鄰","STREET":"建平十七街","SECT":" ","MAREA":" ","LANE":" ","ALLEY":" ","HOUSE_NO":"３３號十四樓之２","E_COORD97":166259.04999999999,"N_COORD97":2544213.9199999999,"ADDRESS":"建平十七街３３號十四樓之２","OBJECTID":511018},"geometry":{"x":166259.05000000075,"y":2544213.9199999999}},{"attributes":{"ID":511046,"DIS_CODE":0,"TOWNNAME":"安平區","LI":"建平里","LIN":"1鄰","STREET":"建平十七街","SECT":" ","MAREA":" ","LANE":" ","ALLEY":" ","HOUSE_NO":"３３號十四樓之３","E_COORD97":166259.04999999999,"N_COORD97":2544213.9199999999,"ADDRESS":"建平十七街３３號十四樓之３","OBJECTID":511019},"geometry":{"x":166259.05000000075,"y":2544213.9199999999}},{"attributes":{"ID":511047,"DIS_CODE":0,"TOWNNAME":"安平區","LI":"建平里","LIN":"1鄰","STREET":"建平十七街","SECT":" ","MAREA":" ","LANE":" ","ALLEY":" ","HOUSE_NO":"３３號十樓之１","E_COORD97":166259.04999999999,"N_COORD97":2544213.9199999999,"ADDRESS":"建平十七街３３號十樓之１","OBJECTID":511020},"geometry":{"x":166259.05000000075,"y":2544213.9199999999}},{"attributes":{"ID":511048,"DIS_CODE":0,"TOWNNAME":"安平區","LI":"建平里","LIN":"1鄰","STREET":"建平十七街","SECT":" ","MAREA":" ","LANE":" ","ALLEY":" ","HOUSE_NO":"３３號十樓之２","E_COORD97":166259.04999999999,"N_COORD97":2544213.9199999999,"ADDRESS":"建平十七街３３號十樓之２","OBJECTID":511021},"geometry":{"x":166259.05000000075,"y":2544213.9199999999}},{"attributes":{"ID":511049,"DIS_CODE":0,"TOWNNAME":"安平區","LI":"建平里","LIN":"1鄰","STREET":"建平十七街","SECT":" ","MAREA":" ","LANE":" ","ALLEY":" ","HOUSE_NO":"３３號十樓之３","E_COORD97":166259.04999999999,"N_COORD97":2544213.9199999999,"ADDRESS":"建平十七街３３號十樓之３","OBJECTID":511022},"geometry":{"x":166259.05000000075,"y":2544213.9199999999}},{"attributes":{"ID":511050,"DIS_CODE":0,"TOWNNAME":"安平區","LI":"建平里","LIN":"1鄰","STREET":"建平十七街","SECT":" ","MAREA":" ","LANE":" ","ALLEY":" ","HOUSE_NO":"３３號十樓之４","E_COORD97":166259.04999999999,"N_COORD97":2544213.9199999999,"ADDRESS":"建平十七街３３號十樓之４","OBJECTID":511023},"geometry":{"x":166259.05000000075,"y":2544213.9199999999}},{"attributes":{"ID":511051,"DIS_CODE":0,"TOWNNAME":"安平區","LI":"建平里","LIN":"1鄰","STREET":"建平十七街","SECT":" ","MAREA":" ","LANE":" ","ALLEY":" ","HOUSE_NO":"３３號三樓之１","E_COORD97":166259.04999999999,"N_COORD97":2544213.9199999999,"ADDRESS":"建平十七街３３號三樓之１","OBJECTID":511024},"geometry":{"x":166259.05000000075,"y":2544213.9199999999}},{"attributes":{"ID":511052,"DIS_CODE":0,"TOWNNAME":"安平區","LI":"建平里","LIN":"1鄰","STREET":"建平十七街","SECT":" ","MAREA":" ","LANE":" ","ALLEY":" ","HOUSE_NO":"３３號三樓之２","E_COORD97":166259.04999999999,"N_COORD97":2544213.9199999999,"ADDRESS":"建平十七街３３號三樓之２","OBJECTID":511025},"geometry":{"x":166259.05000000075,"y":2544213.9199999999}},{"attributes":{"ID":511053,"DIS_CODE":0,"TOWNNAME":"安平區","LI":"建平里","LIN":"1鄰","STREET":"建平十七街","SECT":" ","MAREA":" ","LANE":" ","ALLEY":" ","HOUSE_NO":"３３號三樓之３","E_COORD97":166259.04999999999,"N_COORD97":2544213.9199999999,"ADDRESS":"建平十七街３３號三樓之３","OBJECTID":511026},"geometry":{"x":166259.05000000075,"y":2544213.9199999999}},{"attributes":{"ID":511054,"DIS_CODE":0,"TOWNNAME":"安平區","LI":"建平里","LIN":"1鄰","STREET":"建平十七街","SECT":" ","MAREA":" ","LANE":" ","ALLEY":" ","HOUSE_NO":"３３號五樓之１","E_COORD97":166259.04999999999,"N_COORD97":2544213.9199999999,"ADDRESS":"建平十七街３３號五樓之１","OBJECTID":511027},"geometry":{"x":166259.05000000075,"y":2544213.9199999999}},{"attributes":{"ID":511055,"DIS_CODE":0,"TOWNNAME":"安平區","LI":"建平里","LIN":"1鄰","STREET":"建平十七街","SECT":" ","MAREA":" ","LANE":" ","ALLEY":" ","HOUSE_NO":"３３號五樓之２","E_COORD97":166259.04999999999,"N_COORD97":2544213.9199999999,"ADDRESS":"建平十七街３３號五樓之２","OBJECTID":511028},"geometry":{"x":166259.05000000075,"y":2544213.9199999999}},{"attributes":{"ID":511056,"DIS_CODE":0,"TOWNNAME":"安平區","LI":"建平里","LIN":"1鄰","STREET":"建平十七街","SECT":" ","MAREA":" ","LANE":" ","ALLEY":" ","HOUSE_NO":"３３號五樓之３","E_COORD97":166259.04999999999,"N_COORD97":2544213.9199999999,"ADDRESS":"建平十七街３３號五樓之３","OBJECTID":511029},"geometry":{"x":166259.05000000075,"y":2544213.9199999999}},{"attributes":{"ID":511057,"DIS_CODE":0,"TOWNNAME":"安平區","LI":"建平里","LIN":"1鄰","STREET":"建平十七街","SECT":" ","MAREA":" ","LANE":" ","ALLEY":" ","HOUSE_NO":"３３號五樓之４","E_COORD97":166259.04999999999,"N_COORD97":2544213.9199999999,"ADDRESS":"建平十七街３３號五樓之４","OBJECTID":511030},"geometry":{"x":166259.05000000075,"y":2544213.9199999999}},{"attributes":{"ID":511058,"DIS_CODE":0,"TOWNNAME":"安平區","LI":"建平里","LIN":"1鄰","STREET":"建平十七街","SECT":" ","MAREA":" ","LANE":" ","ALLEY":" ","HOUSE_NO":"３３號六樓之１","E_COORD97":166259.04999999999,"N_COORD97":2544213.9199999999,"ADDRESS":"建平十七街３３號六樓之１","OBJECTID":511031},"geometry":{"x":166259.05000000075,"y":2544213.9199999999}},{"attributes":{"ID":511059,"DIS_CODE":0,"TOWNNAME":"安平區","LI":"建平里","LIN":"1鄰","STREET":"建平十七街","SECT":" ","MAREA":" ","LANE":" ","ALLEY":" ","HOUSE_NO":"３３號六樓之２","E_COORD97":166259.04999999999,"N_COORD97":2544213.9199999999,"ADDRESS":"建平十七街３３號六樓之２","OBJECTID":511032},"geometry":{"x":166259.05000000075,"y":2544213.9199999999}},{"attributes":{"ID":511060,"DIS_CODE":0,"TOWNNAME":"安平區","LI":"建平里","LIN":"1鄰","STREET":"建平十七街","SECT":" ","MAREA":" ","LANE":" ","ALLEY":" ","HOUSE_NO":"３３號六樓之３","E_COORD97":166259.04999999999,"N_COORD97":2544213.9199999999,"ADDRESS":"建平十七街３３號六樓之３","OBJECTID":511033},"geometry":{"x":166259.05000000075,"y":2544213.9199999999}},{"attributes":{"ID":511061,"DIS_CODE":0,"TOWNNAME":"安平區","LI":"建平里","LIN":"1鄰","STREET":"建平十七街","SECT":" ","MAREA":" ","LANE":" ","ALLEY":" ","HOUSE_NO":"３３號六樓之４","E_COORD97":166259.04999999999,"N_COORD97":2544213.9199999999,"ADDRESS":"建平十七街３３號六樓之４","OBJECTID":511034},"geometry":{"x":166259.05000000075,"y":2544213.9199999999}},{"attributes":{"ID":511062,"DIS_CODE":0,"TOWNNAME":"安平區","LI":"建平里","LIN":"1鄰","STREET":"建平十七街","SECT":" ","MAREA":" ","LANE":" ","ALLEY":" ","HOUSE_NO":"３３號四樓之１","E_COORD97":166259.04999999999,"N_COORD97":2544213.9199999999,"ADDRESS":"建平十七街３３號四樓之１","OBJECTID":511035},"geometry":{"x":166259.05000000075,"y":2544213.9199999999}},{"attributes":{"ID":511063,"DIS_CODE":0,"TOWNNAME":"安平區","LI":"建平里","LIN":"1鄰","STREET":"建平十七街","SECT":" ","MAREA":" ","LANE":" ","ALLEY":" ","HOUSE_NO":"３３號四樓之２","E_COORD97":166259.04999999999,"N_COORD97":2544213.9199999999,"ADDRESS":"建平十七街３３號四樓之２","OBJECTID":511036},"geometry":{"x":166259.05000000075,"y":2544213.9199999999}},{"attributes":{"ID":511064,"DIS_CODE":0,"TOWNNAME":"安平區","LI":"建平里","LIN":"1鄰","STREET":"建平十七街","SECT":" ","MAREA":" ","LANE":" ","ALLEY":" ","HOUSE_NO":"３３號四樓之３","E_COORD97":166259.04999999999,"N_COORD97":2544213.9199999999,"ADDRESS":"建平十七街３３號四樓之３","OBJECTID":511037},"geometry":{"x":166259.05000000075,"y":2544213.9199999999}},{"attributes":{"ID":511065,"DIS_CODE":0,"TOWNNAME":"歸仁區","LI":"後市里","LIN":"1鄰","STREET":"大順街","SECT":" ","MAREA":" ","LANE":" ","ALLEY":" ","HOUSE_NO":"１４１號二樓","E_COORD97":177057.23000000001,"N_COORD97":2540595.25,"ADDRESS":"大順街１４１號二樓","OBJECTID":511038},"geometry":{"x":177057.23000000045,"y":2540595.2500000019}},{"attributes":{"ID":511066,"DIS_CODE":0,"TOWNNAME":"北區","LI":"華興里","LIN":"1鄰","STREET":"開南街","SECT":" ","MAREA":" ","LANE":" ","ALLEY":" ","HOUSE_NO":"１７號四樓","E_COORD97":170305.41,"N_COORD97":2545388.7400000002,"ADDRESS":"開南街１７號四樓","OBJECTID":511039},"geometry":{"x":170305.41000000015,"y":2545388.7400000002}},{"attributes":{"ID":511067,"DIS_CODE":0,"TOWNNAME":"北區","LI":"華興里","LIN":"1鄰","STREET":"開南街","SECT":" ","MAREA":" ","LANE":" ","ALLEY":" ","HOUSE_NO":"１７號五樓","E_COORD97":170305.41,"N_COORD97":2545388.7400000002,"ADDRESS":"開南街１７號五樓","OBJECTID":511040},"geometry":{"x":170305.41000000015,"y":2545388.7400000002}},{"attributes":{"ID":511068,"DIS_CODE":0,"TOWNNAME":"北區","LI":"華興里","LIN":"1鄰","STREET":"開南街","SECT":" ","MAREA":" ","LANE":" ","ALLEY":" ","HOUSE_NO":"１９號二樓","E_COORD97":170301.57000000001,"N_COORD97":2545386.0899999999,"ADDRESS":"開南街１９號二樓","OBJECTID":511041},"geometry":{"x":170301.57000000216,"y":2545386.0899999999}},{"attributes":{"ID":511069,"DIS_CODE":0,"TOWNNAME":"北區","LI":"華興里","LIN":"1鄰","STREET":"開南街","SECT":" ","MAREA":" ","LANE":" ","ALLEY":" ","HOUSE_NO":"１９號三樓","E_COORD97":170301.57000000001,"N_COORD97":2545386.0899999999,"ADDRESS":"開南街１９號三樓","OBJECTID":511042},"geometry":{"x":170301.57000000216,"y":2545386.0899999999}},{"attributes":{"ID":511070,"DIS_CODE":0,"TOWNNAME":"北區","LI":"華興里","LIN":"1鄰","STREET":"開南街","SECT":" ","MAREA":" ","LANE":" ","ALLEY":" ","HOUSE_NO":"１９號四樓","E_COORD97":170301.57000000001,"N_COORD97":2545386.0899999999,"ADDRESS":"開南街１９號四樓","OBJECTID":511043},"geometry":{"x":170301.57000000216,"y":2545386.0899999999}},{"attributes":{"ID":511071,"DIS_CODE":0,"TOWNNAME":"北區","LI":"華興里","LIN":"1鄰","STREET":"開南街","SECT":" ","MAREA":" ","LANE":" ","ALLEY":" ","HOUSE_NO":"１９號五樓","E_COORD97":170301.57000000001,"N_COORD97":2545386.0899999999,"ADDRESS":"開南街１９號五樓","OBJECTID":511044},"geometry":{"x":170301.57000000216,"y":2545386.0899999999}},{"attributes":{"ID":511072,"DIS_CODE":0,"TOWNNAME":"北區","LI":"華興里","LIN":"1鄰","STREET":"開南街","SECT":" ","MAREA":" ","LANE":" ","ALLEY":" ","HOUSE_NO":"２１號二樓","E_COORD97":170299.37,"N_COORD97":2545383.6200000001,"ADDRESS":"開南街２１號二樓","OBJECTID":511045},"geometry":{"x":170299.37000000197,"y":2545383.620000001}},{"attributes":{"ID":511073,"DIS_CODE":0,"TOWNNAME":"新化區","LI":"豐榮里","LIN":"1鄰","STREET":"中山路","SECT":" ","MAREA":" ","LANE":" ","ALLEY":" ","HOUSE_NO":"５９５號七樓之５","E_COORD97":178293.26999999999,"N_COORD97":2548440.2599999998,"ADDRESS":"中山路５９５號七樓之５","OBJECTID":511046},"geometry":{"x":178293.26999999955,"y":2548440.2600000016}},{"attributes":{"ID":511074,"DIS_CODE":0,"TOWNNAME":"新化區","LI":"豐榮里","LIN":"1鄰","STREET":"中山路","SECT":" ","MAREA":" ","LANE":" ","ALLEY":" ","HOUSE_NO":"５９５號三樓之７","E_COORD97":178293.25,"N_COORD97":2548440.2599999998,"ADDRESS":"中山路５９５號三樓之７","OBJECTID":511047},"geometry":{"x":178293.25000000093,"y":2548440.2600000016}},{"attributes":{"ID":511075,"DIS_CODE":0,"TOWNNAME":"新化區","LI":"豐榮里","LIN":"1鄰","STREET":"中山路","SECT":" ","MAREA":" ","LANE":" ","ALLEY":" ","HOUSE_NO":"５９５號五樓之３","E_COORD97":178293.26000000001,"N_COORD97":2548440.2599999998,"ADDRESS":"中山路５９５號五樓之３","OBJECTID":511048},"geometry":{"x":178293.26000000071,"y":2548440.2600000016}},{"attributes":{"ID":511076,"DIS_CODE":0,"TOWNNAME":"新化區","LI":"豐榮里","LIN":"1鄰","STREET":"中山路","SECT":" ","MAREA":" ","LANE":" ","ALLEY":" ","HOUSE_NO":"５９５號六樓之１","E_COORD97":178293.23999999999,"N_COORD97":2548440.2599999998,"ADDRESS":"中山路５９５號六樓之１","OBJECTID":511049},"geometry":{"x":178293.24000000209,"y":2548440.2600000016}},{"attributes":{"ID":511077,"DIS_CODE":0,"TOWNNAME":"新化區","LI":"豐榮里","LIN":"1鄰","STREET":"中山路","SECT":" ","MAREA":" ","LANE":" ","ALLEY":" ","HOUSE_NO":"５９５號二樓之３","E_COORD97":178293.26000000001,"N_COORD97":2548440.2599999998,"ADDRESS":"中山路５９５號二樓之３","OBJECTID":511050},"geometry":{"x":178293.26000000071,"y":2548440.2600000016}},{"attributes":{"ID":511078,"DIS_CODE":0,"TOWNNAME":"新化區","LI":"豐榮里","LIN":"1鄰","STREET":"中山路","SECT":" ","MAREA":" ","LANE":" ","ALLEY":" ","HOUSE_NO":"５９５號六樓之６","E_COORD97":178293.26000000001,"N_COORD97":2548440.2599999998,"ADDRESS":"中山路５９５號六樓之６","OBJECTID":511051},"geometry":{"x":178293.26000000071,"y":2548440.2600000016}},{"attributes":{"ID":511079,"DIS_CODE":0,"TOWNNAME":"新化區","LI":"豐榮里","LIN":"1鄰","STREET":"中山路","SECT":" ","MAREA":" ","LANE":" ","ALLEY":" ","HOUSE_NO":"５９５號四樓之４","E_COORD97":178293.23999999999,"N_COORD97":2548440.2599999998,"ADDRESS":"中山路５９５號四樓之４","OBJECTID":511052},"geometry":{"x":178293.24000000209,"y":2548440.2600000016}},{"attributes":{"ID":511080,"DIS_CODE":0,"TOWNNAME":"新化區","LI":"豐榮里","LIN":"1鄰","STREET":"中山路","SECT":" ","MAREA":" ","LANE":" ","ALLEY":" ","HOUSE_NO":"５９５號九樓之３","E_COORD97":178293.26000000001,"N_COORD97":2548440.2599999998,"ADDRESS":"中山路５９５號九樓之３","OBJECTID":511053},"geometry":{"x":178293.26000000071,"y":2548440.2600000016}},{"attributes":{"ID":511081,"DIS_CODE":0,"TOWNNAME":"新化區","LI":"豐榮里","LIN":"1鄰","STREET":"中山路","SECT":" ","MAREA":" ","LANE":" ","ALLEY":" ","HOUSE_NO":"５９５號八樓之１","E_COORD97":178293.23999999999,"N_COORD97":2548440.2599999998,"ADDRESS":"中山路５９５號八樓之１","OBJECTID":511054},"geometry":{"x":178293.24000000209,"y":2548440.2600000016}},{"attributes":{"ID":511082,"DIS_CODE":0,"TOWNNAME":"東區","LI":"和平里","LIN":"1鄰","STREET":"仁和路","SECT":" ","MAREA":" ","LANE":" ","ALLEY":" ","HOUSE_NO":"２７號八樓","E_COORD97":171099.45000000001,"N_COORD97":2542097.2200000002,"ADDRESS":"仁和路２７號八樓","OBJECTID":511055},"geometry":{"x":171099.45000000112,"y":2542097.2200000007}},{"attributes":{"ID":511083,"DIS_CODE":0,"TOWNNAME":"新化區","LI":"豐榮里","LIN":"1鄰","STREET":"中山路","SECT":" ","MAREA":" ","LANE":" ","ALLEY":" ","HOUSE_NO":"６１５號四樓之１","E_COORD97":178244.44,"N_COORD97":2548475.2599999998,"ADDRESS":"中山路６１５號四樓之１","OBJECTID":511056},"geometry":{"x":178244.44000000041,"y":2548475.2600000016}},{"attributes":{"ID":511084,"DIS_CODE":0,"TOWNNAME":"新化區","LI":"豐榮里","LIN":"1鄰","STREET":"中山路","SECT":" ","MAREA":" ","LANE":" ","ALLEY":" ","HOUSE_NO":"６１５號九樓","E_COORD97":178244.01000000001,"N_COORD97":2548475.25,"ADDRESS":"中山路６１５號九樓","OBJECTID":511057},"geometry":{"x":178244.01000000071,"y":2548475.2500000019}},{"attributes":{"ID":511085,"DIS_CODE":0,"TOWNNAME":"新化區","LI":"豐榮里","LIN":"1鄰","STREET":"中山路","SECT":" ","MAREA":" ","LANE":" ","ALLEY":" ","HOUSE_NO":"５９５號九樓之１","E_COORD97":178293.23999999999,"N_COORD97":2548440.2599999998,"ADDRESS":"中山路５９５號九樓之１","OBJECTID":511058},"geometry":{"x":178293.24000000209,"y":2548440.2600000016}},{"attributes":{"ID":511086,"DIS_CODE":0,"TOWNNAME":"新化區","LI":"豐榮里","LIN":"1鄰","STREET":"中山路","SECT":" ","MAREA":" ","LANE":" ","ALLEY":" ","HOUSE_NO":"５９５號七樓之１","E_COORD97":178293.23999999999,"N_COORD97":2548440.2599999998,"ADDRESS":"中山路５９５號七樓之１","OBJECTID":511059},"geometry":{"x":178293.24000000209,"y":2548440.2600000016}},{"attributes":{"ID":511087,"DIS_CODE":0,"TOWNNAME":"新化區","LI":"豐榮里","LIN":"1鄰","STREET":"中山路","SECT":" ","MAREA":" ","LANE":" ","ALLEY":" ","HOUSE_NO":"５９５號八樓之５","E_COORD97":178293.26999999999,"N_COORD97":2548440.2599999998,"ADDRESS":"中山路５９５號八樓之５","OBJECTID":511060},"geometry":{"x":178293.26999999955,"y":2548440.2600000016}},{"attributes":{"ID":511088,"DIS_CODE":0,"TOWNNAME":"新化區","LI":"豐榮里","LIN":"1鄰","STREET":"中山路","SECT":" ","MAREA":" ","LANE":" ","ALLEY":" ","HOUSE_NO":"５９５號十二樓之４","E_COORD97":178293.48999999999,"N_COORD97":2548440.2599999998,"ADDRESS":"中山路５９５號十二樓之４","OBJECTID":511061},"geometry":{"x":178293.49000000115,"y":2548440.2600000016}},{"attributes":{"ID":511089,"DIS_CODE":0,"TOWNNAME":"新化區","LI":"豐榮里","LIN":"1鄰","STREET":"中山路","SECT":" ","MAREA":" ","LANE":" ","ALLEY":" ","HOUSE_NO":"５９５號二樓之５","E_COORD97":178293.26999999999,"N_COORD97":2548440.2599999998,"ADDRESS":"中山路５９５號二樓之５","OBJECTID":511062},"geometry":{"x":178293.26999999955,"y":2548440.2600000016}},{"attributes":{"ID":511090,"DIS_CODE":0,"TOWNNAME":"新化區","LI":"豐榮里","LIN":"1鄰","STREET":"中山路","SECT":" ","MAREA":" ","LANE":" ","ALLEY":" ","HOUSE_NO":"５９５號十一樓之４","E_COORD97":178293.48999999999,"N_COORD97":2548440.2599999998,"ADDRESS":"中山路５９５號十一樓之４","OBJECTID":511063},"geometry":{"x":178293.49000000115,"y":2548440.2600000016}},{"attributes":{"ID":511091,"DIS_CODE":0,"TOWNNAME":"新化區","LI":"豐榮里","LIN":"1鄰","STREET":"中山路","SECT":" ","MAREA":" ","LANE":" ","ALLEY":" ","HOUSE_NO":"６１５號八樓之２","E_COORD97":178244.45999999999,"N_COORD97":2548475.2599999998,"ADDRESS":"中山路６１５號八樓之２","OBJECTID":511064},"geometry":{"x":178244.46000000089,"y":2548475.2600000016}},{"attributes":{"ID":511092,"DIS_CODE":0,"TOWNNAME":"新化區","LI":"豐榮里","LIN":"1鄰","STREET":"中山路","SECT":" ","MAREA":" ","LANE":" ","ALLEY":" ","HOUSE_NO":"６１５號五樓之２","E_COORD97":178244.45999999999,"N_COORD97":2548475.2599999998,"ADDRESS":"中山路６１５號五樓之２","OBJECTID":511065},"geometry":{"x":178244.46000000089,"y":2548475.2600000016}},{"attributes":{"ID":511093,"DIS_CODE":0,"TOWNNAME":"新化區","LI":"豐榮里","LIN":"1鄰","STREET":"中山路","SECT":" ","MAREA":" ","LANE":" ","ALLEY":" ","HOUSE_NO":"５９５號五樓之４","E_COORD97":178293.23999999999,"N_COORD97":2548440.2599999998,"ADDRESS":"中山路５９５號五樓之４","OBJECTID":511066},"geometry":{"x":178293.24000000209,"y":2548440.2600000016}},{"attributes":{"ID":511094,"DIS_CODE":0,"TOWNNAME":"新化區","LI":"豐榮里","LIN":"1鄰","STREET":"中山路","SECT":" ","MAREA":" ","LANE":" ","ALLEY":" ","HOUSE_NO":"６１５號四樓","E_COORD97":178244.01000000001,"N_COORD97":2548475.25,"ADDRESS":"中山路６１５號四樓","OBJECTID":511067},"geometry":{"x":178244.01000000071,"y":2548475.2500000019}},{"attributes":{"ID":511095,"DIS_CODE":0,"TOWNNAME":"新化區","LI":"豐榮里","LIN":"1鄰","STREET":"中山路","SECT":" ","MAREA":" ","LANE":" ","ALLEY":" ","HOUSE_NO":"５９５號三樓之３","E_COORD97":178293.26000000001,"N_COORD97":2548440.2599999998,"ADDRESS":"中山路５９５號三樓之３","OBJECTID":511068},"geometry":{"x":178293.26000000071,"y":2548440.2600000016}},{"attributes":{"ID":511096,"DIS_CODE":0,"TOWNNAME":"新化區","LI":"豐榮里","LIN":"1鄰","STREET":"中山路","SECT":" ","MAREA":" ","LANE":" ","ALLEY":" ","HOUSE_NO":"６１５號八樓之６","E_COORD97":178244.45999999999,"N_COORD97":2548475.2599999998,"ADDRESS":"中山路６１５號八樓之６","OBJECTID":511069},"geometry":{"x":178244.46000000089,"y":2548475.2600000016}},{"attributes":{"ID":511097,"DIS_CODE":0,"TOWNNAME":"新化區","LI":"豐榮里","LIN":"1鄰","STREET":"中山路","SECT":" ","MAREA":" ","LANE":" ","ALLEY":" ","HOUSE_NO":"５９５號九樓之５","E_COORD97":178293.26999999999,"N_COORD97":2548440.2599999998,"ADDRESS":"中山路５９５號九樓之５","OBJECTID":511070},"geometry":{"x":178293.26999999955,"y":2548440.2600000016}},{"attributes":{"ID":511098,"DIS_CODE":0,"TOWNNAME":"新化區","LI":"豐榮里","LIN":"1鄰","STREET":"中山路","SECT":" ","MAREA":" ","LANE":" ","ALLEY":" ","HOUSE_NO":"５９５號七樓之３","E_COORD97":178293.26000000001,"N_COORD97":2548440.2599999998,"ADDRESS":"中山路５９５號七樓之３","OBJECTID":511071},"geometry":{"x":178293.26000000071,"y":2548440.2600000016}},{"attributes":{"ID":511099,"DIS_CODE":0,"TOWNNAME":"新化區","LI":"豐榮里","LIN":"1鄰","STREET":"中山路","SECT":" ","MAREA":" ","LANE":" ","ALLEY":" ","HOUSE_NO":"５９５號七樓之６","E_COORD97":178293.26000000001,"N_COORD97":2548440.2599999998,"ADDRESS":"中山路５９５號七樓之６","OBJECTID":511072},"geometry":{"x":178293.26000000071,"y":2548440.2600000016}},{"attributes":{"ID":511100,"DIS_CODE":0,"TOWNNAME":"新化區","LI":"豐榮里","LIN":"1鄰","STREET":"中山路","SECT":" ","MAREA":" ","LANE":" ","ALLEY":" ","HOUSE_NO":"５９５號九樓之４","E_COORD97":178293.23999999999,"N_COORD97":2548440.2599999998,"ADDRESS":"中山路５９５號九樓之４","OBJECTID":511073},"geometry":{"x":178293.24000000209,"y":2548440.2600000016}},{"attributes":{"ID":511101,"DIS_CODE":0,"TOWNNAME":"南區","LI":"竹溪里","LIN":"1鄰","STREET":"竹溪街","SECT":" ","MAREA":" ","LANE":" ","ALLEY":" ","HOUSE_NO":"６８號七樓","E_COORD97":169011.01000000001,"N_COORD97":2542262.8999999999,"ADDRESS":"竹溪街６８號七樓","OBJECTID":511074},"geometry":{"x":169011.00999999978,"y":2542262.9000000022}},{"attributes":{"ID":511102,"DIS_CODE":0,"TOWNNAME":"東區","LI":"和平里","LIN":"1鄰","STREET":"仁和路","SECT":" ","MAREA":" ","LANE":" ","ALLEY":" ","HOUSE_NO":"３１號五樓","E_COORD97":171099.45000000001,"N_COORD97":2542097.2200000002,"ADDRESS":"仁和路３１號五樓","OBJECTID":511075},"geometry":{"x":171099.45000000112,"y":2542097.2200000007}},{"attributes":{"ID":511103,"DIS_CODE":0,"TOWNNAME":"南區","LI":"文南里","LIN":"20鄰","STREET":"仁南三街","SECT":" ","MAREA":" ","LANE":" ","ALLEY":" ","HOUSE_NO":"９號","E_COORD97":166428.92999999999,"N_COORD97":2542724.6899999999,"ADDRESS":"仁南三街９號","OBJECTID":511076},"geometry":{"x":166428.93000000063,"y":2542724.6900000013}},{"attributes":{"ID":511104,"DIS_CODE":0,"TOWNNAME":"安平區","LI":"文平里","LIN":"9鄰","STREET":"建平七街","SECT":" ","MAREA":" ","LANE":" ","ALLEY":" ","HOUSE_NO":"６０號","E_COORD97":166317.54999999999,"N_COORD97":2543239.2999999998,"ADDRESS":"建平七街６０號","OBJECTID":511077},"geometry":{"x":166317.55000000168,"y":2543239.3000000007}},{"attributes":{"ID":511105,"DIS_CODE":0,"TOWNNAME":"安平區","LI":"建平里","LIN":"14鄰","STREET":"永華三街","SECT":" ","MAREA":" ","LANE":" ","ALLEY":" ","HOUSE_NO":"２７５號","E_COORD97":166135.79999999999,"N_COORD97":2544026.6000000001,"ADDRESS":"永華三街２７５號","OBJECTID":511078},"geometry":{"x":166135.79999999981,"y":2544026.6000000034}},{"attributes":{"ID":511106,"DIS_CODE":0,"TOWNNAME":"安平區","LI":"建平里","LIN":"14鄰","STREET":"永華三街","SECT":" ","MAREA":" ","LANE":" ","ALLEY":" ","HOUSE_NO":"２７７號","E_COORD97":166136.23000000001,"N_COORD97":2544030.6400000001,"ADDRESS":"永華三街２７７號","OBJECTID":511079},"geometry":{"x":166136.23000000138,"y":2544030.6400000043}},{"attributes":{"ID":511107,"DIS_CODE":0,"TOWNNAME":"安平區","LI":"建平里","LIN":"14鄰","STREET":"永華三街","SECT":" ","MAREA":" ","LANE":" ","ALLEY":" ","HOUSE_NO":"２８１號","E_COORD97":166138.14000000001,"N_COORD97":2544039.3500000001,"ADDRESS":"永華三街２８１號","OBJECTID":511080},"geometry":{"x":166138.13999999966,"y":2544039.3500000015}},{"attributes":{"ID":511108,"DIS_CODE":0,"TOWNNAME":"安平區","LI":"建平里","LIN":"14鄰","STREET":"永華三街","SECT":" ","MAREA":" ","LANE":" ","ALLEY":" ","HOUSE_NO":"２７９號","E_COORD97":166137.29000000001,"N_COORD97":2544035.1000000001,"ADDRESS":"永華三街２７９號","OBJECTID":511081},"geometry":{"x":166137.29000000097,"y":2544035.0999999996}},{"attributes":{"ID":511109,"DIS_CODE":0,"TOWNNAME":"安平區","LI":"建平里","LIN":"8鄰","STREET":"府前路","SECT":"二段","MAREA":" ","LANE":" ","ALLEY":" ","HOUSE_NO":"５６６號","E_COORD97":166464.01000000001,"N_COORD97":2543760.5099999998,"ADDRESS":"府前路二段５６６號","OBJECTID":511082},"geometry":{"x":166464.01000000071,"y":2543760.5100000016}},{"attributes":{"ID":511110,"DIS_CODE":0,"TOWNNAME":"安平區","LI":"海頭里","LIN":"1鄰","STREET":"延平街","SECT":" ","MAREA":" ","LANE":" ","ALLEY":" ","HOUSE_NO":"７８號之２","E_COORD97":164198.88,"N_COORD97":2544601.8700000001,"ADDRESS":"延平街７８號之２","OBJECTID":511083},"geometry":{"x":164198.88000000082,"y":2544601.870000001}},{"attributes":{"ID":511111,"DIS_CODE":0,"TOWNNAME":"安平區","LI":"文平里","LIN":"10鄰","STREET":"永華路","SECT":"二段","MAREA":" ","LANE":" ","ALLEY":" ","HOUSE_NO":"１６１號","E_COORD97":166221.48000000001,"N_COORD97":2543336.6000000001,"ADDRESS":"永華路二段１６１號","OBJECTID":511084},"geometry":{"x":166221.48000000045,"y":2543336.6000000015}},{"attributes":{"ID":511112,"DIS_CODE":0,"TOWNNAME":"安平區","LI":"文平里","LIN":"10鄰","STREET":"永華路","SECT":"二段","MAREA":" ","LANE":" ","ALLEY":" ","HOUSE_NO":"１６３號","E_COORD97":166208.75,"N_COORD97":2543338.7000000002,"ADDRESS":"永華路二段１６３號","OBJECTID":511085},"geometry":{"x":166208.75,"y":2543338.7000000011}},{"attributes":{"ID":511113,"DIS_CODE":0,"TOWNNAME":"東區","LI":"大同里","LIN":"1鄰","STREET":"大同路","SECT":"二段","MAREA":" ","LANE":" ","ALLEY":" ","HOUSE_NO":"１１號四樓之２","E_COORD97":169192.97,"N_COORD97":2543213.8599999999,"ADDRESS":"大同路二段１１號四樓之２","OBJECTID":511086},"geometry":{"x":169192.96999999881,"y":2543213.8599999994}},{"attributes":{"ID":511114,"DIS_CODE":0,"TOWNNAME":"南區","LI":"田寮里","LIN":"1鄰","STREET":"新興路","SECT":" ","MAREA":" ","LANE":" ","ALLEY":" ","HOUSE_NO":"３６１號五樓之１","E_COORD97":167096.06,"N_COORD97":2541796.52,"ADDRESS":"新興路３６１號五樓之１","OBJECTID":511087},"geometry":{"x":167096.06000000052,"y":2541796.5200000014}},{"attributes":{"ID":511115,"DIS_CODE":0,"TOWNNAME":"南區","LI":"田寮里","LIN":"1鄰","STREET":"新興路","SECT":" ","MAREA":" ","LANE":" ","ALLEY":" ","HOUSE_NO":"３６１號二樓之１","E_COORD97":167096.06,"N_COORD97":2541796.52,"ADDRESS":"新興路３６１號二樓之１","OBJECTID":511088},"geometry":{"x":167096.06000000052,"y":2541796.5200000014}},{"attributes":{"ID":511116,"DIS_CODE":0,"TOWNNAME":"南區","LI":"田寮里","LIN":"1鄰","STREET":"新興路","SECT":" ","MAREA":" ","LANE":" ","ALLEY":" ","HOUSE_NO":"３６１號二樓之２","E_COORD97":167096.06,"N_COORD97":2541796.52,"ADDRESS":"新興路３６１號二樓之２","OBJECTID":511089},"geometry":{"x":167096.06000000052,"y":2541796.5200000014}},{"attributes":{"ID":511117,"DIS_CODE":0,"TOWNNAME":"南區","LI":"田寮里","LIN":"1鄰","STREET":"新興路","SECT":" ","MAREA":" ","LANE":" ","ALLEY":" ","HOUSE_NO":"３６１號二樓之３","E_COORD97":167096.06,"N_COORD97":2541796.52,"ADDRESS":"新興路３６１號二樓之３","OBJECTID":511090},"geometry":{"x":167096.06000000052,"y":2541796.5200000014}},{"attributes":{"ID":511118,"DIS_CODE":0,"TOWNNAME":"南區","LI":"田寮里","LIN":"1鄰","STREET":"新興路","SECT":" ","MAREA":" ","LANE":" ","ALLEY":" ","HOUSE_NO":"３６１號二樓之４","E_COORD97":167096.06,"N_COORD97":2541796.52,"ADDRESS":"新興路３６１號二樓之４","OBJECTID":511091},"geometry":{"x":167096.06000000052,"y":2541796.5200000014}},{"attributes":{"ID":511119,"DIS_CODE":0,"TOWNNAME":"南區","LI":"田寮里","LIN":"1鄰","STREET":"新興路","SECT":" ","MAREA":" ","LANE":" ","ALLEY":" ","HOUSE_NO":"３６１號二樓之５","E_COORD97":167096.06,"N_COORD97":2541796.52,"ADDRESS":"新興路３６１號二樓之５","OBJECTID":511092},"geometry":{"x":167096.06000000052,"y":2541796.5200000014}},{"attributes":{"ID":511120,"DIS_CODE":0,"TOWNNAME":"南區","LI":"田寮里","LIN":"1鄰","STREET":"新興路","SECT":" ","MAREA":" ","LANE":" ","ALLEY":" ","HOUSE_NO":"３６１號二樓之６","E_COORD97":167096.06,"N_COORD97":2541796.52,"ADDRESS":"新興路３６１號二樓之６","OBJECTID":511093},"geometry":{"x":167096.06000000052,"y":2541796.5200000014}},{"attributes":{"ID":511121,"DIS_CODE":0,"TOWNNAME":"南區","LI":"田寮里","LIN":"1鄰","STREET":"新興路","SECT":" ","MAREA":" ","LANE":" ","ALLEY":" ","HOUSE_NO":"３６１號二樓之７","E_COORD97":167096.06,"N_COORD97":2541796.52,"ADDRESS":"新興路３６１號二樓之７","OBJECTID":511094},"geometry":{"x":167096.06000000052,"y":2541796.5200000014}},{"attributes":{"ID":511122,"DIS_CODE":0,"TOWNNAME":"南區","LI":"田寮里","LIN":"1鄰","STREET":"新興路","SECT":" ","MAREA":" ","LANE":" ","ALLEY":" ","HOUSE_NO":"３６１號二樓之８","E_COORD97":167096.06,"N_COORD97":2541796.52,"ADDRESS":"新興路３６１號二樓之８","OBJECTID":511095},"geometry":{"x":167096.06000000052,"y":2541796.5200000014}},{"attributes":{"ID":511123,"DIS_CODE":0,"TOWNNAME":"南區","LI":"田寮里","LIN":"1鄰","STREET":"新興路","SECT":" ","MAREA":" ","LANE":" ","ALLEY":" ","HOUSE_NO":"３６１號三樓之１","E_COORD97":167096.06,"N_COORD97":2541796.52,"ADDRESS":"新興路３６１號三樓之１","OBJECTID":511096},"geometry":{"x":167096.06000000052,"y":2541796.5200000014}},{"attributes":{"ID":511124,"DIS_CODE":0,"TOWNNAME":"南區","LI":"田寮里","LIN":"1鄰","STREET":"新興路","SECT":" ","MAREA":" ","LANE":" ","ALLEY":" ","HOUSE_NO":"３６１號三樓之２","E_COORD97":167096.06,"N_COORD97":2541796.52,"ADDRESS":"新興路３６１號三樓之２","OBJECTID":511097},"geometry":{"x":167096.06000000052,"y":2541796.5200000014}},{"attributes":{"ID":511125,"DIS_CODE":0,"TOWNNAME":"南區","LI":"田寮里","LIN":"1鄰","STREET":"新興路","SECT":" ","MAREA":" ","LANE":" ","ALLEY":" ","HOUSE_NO":"３６１號三樓之３","E_COORD97":167096.06,"N_COORD97":2541796.52,"ADDRESS":"新興路３６１號三樓之３","OBJECTID":511098},"geometry":{"x":167096.06000000052,"y":2541796.5200000014}},{"attributes":{"ID":511126,"DIS_CODE":0,"TOWNNAME":"南區","LI":"田寮里","LIN":"1鄰","STREET":"新興路","SECT":" ","MAREA":" ","LANE":" ","ALLEY":" ","HOUSE_NO":"３６１號三樓之４","E_COORD97":167096.06,"N_COORD97":2541796.52,"ADDRESS":"新興路３６１號三樓之４","OBJECTID":511099},"geometry":{"x":167096.06000000052,"y":2541796.5200000014}},{"attributes":{"ID":511127,"DIS_CODE":0,"TOWNNAME":"南區","LI":"田寮里","LIN":"1鄰","STREET":"新興路","SECT":" ","MAREA":" ","LANE":" ","ALLEY":" ","HOUSE_NO":"３６１號三樓之５","E_COORD97":167096.06,"N_COORD97":2541796.52,"ADDRESS":"新興路３６１號三樓之５","OBJECTID":511100},"geometry":{"x":167096.06000000052,"y":2541796.5200000014}},{"attributes":{"ID":511128,"DIS_CODE":0,"TOWNNAME":"南區","LI":"田寮里","LIN":"1鄰","STREET":"新興路","SECT":" ","MAREA":" ","LANE":" ","ALLEY":" ","HOUSE_NO":"３６１號三樓之６","E_COORD97":167096.06,"N_COORD97":2541796.52,"ADDRESS":"新興路３６１號三樓之６","OBJECTID":511101},"geometry":{"x":167096.06000000052,"y":2541796.5200000014}},{"attributes":{"ID":511129,"DIS_CODE":0,"TOWNNAME":"南區","LI":"田寮里","LIN":"1鄰","STREET":"新興路","SECT":" ","MAREA":" ","LANE":" ","ALLEY":" ","HOUSE_NO":"３６１號三樓之７","E_COORD97":167096.06,"N_COORD97":2541796.52,"ADDRESS":"新興路３６１號三樓之７","OBJECTID":511102},"geometry":{"x":167096.06000000052,"y":2541796.5200000014}},{"attributes":{"ID":511130,"DIS_CODE":0,"TOWNNAME":"南區","LI":"田寮里","LIN":"1鄰","STREET":"新興路","SECT":" ","MAREA":" ","LANE":" ","ALLEY":" ","HOUSE_NO":"３６１號三樓之８","E_COORD97":167096.06,"N_COORD97":2541796.52,"ADDRESS":"新興路３６１號三樓之８","OBJECTID":511103},"geometry":{"x":167096.06000000052,"y":2541796.5200000014}},{"attributes":{"ID":511131,"DIS_CODE":0,"TOWNNAME":"南區","LI":"田寮里","LIN":"1鄰","STREET":"新興路","SECT":" ","MAREA":" ","LANE":" ","ALLEY":" ","HOUSE_NO":"３６１號四樓之１","E_COORD97":167096.06,"N_COORD97":2541796.52,"ADDRESS":"新興路３６１號四樓之１","OBJECTID":511104},"geometry":{"x":167096.06000000052,"y":2541796.5200000014}},{"attributes":{"ID":511132,"DIS_CODE":0,"TOWNNAME":"南區","LI":"田寮里","LIN":"1鄰","STREET":"新興路","SECT":" ","MAREA":" ","LANE":" ","ALLEY":" ","HOUSE_NO":"３６１號四樓之２","E_COORD97":167096.06,"N_COORD97":2541796.52,"ADDRESS":"新興路３６１號四樓之２","OBJECTID":511105},"geometry":{"x":167096.06000000052,"y":2541796.5200000014}},{"attributes":{"ID":511133,"DIS_CODE":0,"TOWNNAME":"南區","LI":"田寮里","LIN":"1鄰","STREET":"新興路","SECT":" ","MAREA":" ","LANE":" ","ALLEY":" ","HOUSE_NO":"３６１號四樓之３","E_COORD97":167096.06,"N_COORD97":2541796.52,"ADDRESS":"新興路３６１號四樓之３","OBJECTID":511106},"geometry":{"x":167096.06000000052,"y":2541796.5200000014}},{"attributes":{"ID":511134,"DIS_CODE":0,"TOWNNAME":"南區","LI":"田寮里","LIN":"1鄰","STREET":"新興路","SECT":" ","MAREA":" ","LANE":" ","ALLEY":" ","HOUSE_NO":"３６１號四樓之４","E_COORD97":167096.06,"N_COORD97":2541796.52,"ADDRESS":"新興路３６１號四樓之４","OBJECTID":511107},"geometry":{"x":167096.06000000052,"y":2541796.5200000014}},{"attributes":{"ID":511135,"DIS_CODE":0,"TOWNNAME":"南區","LI":"田寮里","LIN":"1鄰","STREET":"新興路","SECT":" ","MAREA":" ","LANE":" ","ALLEY":" ","HOUSE_NO":"３６１號四樓之５","E_COORD97":167096.06,"N_COORD97":2541796.52,"ADDRESS":"新興路３６１號四樓之５","OBJECTID":511108},"geometry":{"x":167096.06000000052,"y":2541796.5200000014}},{"attributes":{"ID":511136,"DIS_CODE":0,"TOWNNAME":"南區","LI":"田寮里","LIN":"1鄰","STREET":"新興路","SECT":" ","MAREA":" ","LANE":" ","ALLEY":" ","HOUSE_NO":"３６１號四樓之６","E_COORD97":167096.06,"N_COORD97":2541796.52,"ADDRESS":"新興路３６１號四樓之６","OBJECTID":511109},"geometry":{"x":167096.06000000052,"y":2541796.5200000014}},{"attributes":{"ID":511137,"DIS_CODE":0,"TOWNNAME":"南區","LI":"田寮里","LIN":"1鄰","STREET":"新興路","SECT":" ","MAREA":" ","LANE":" ","ALLEY":" ","HOUSE_NO":"３６１號四樓之７","E_COORD97":167096.06,"N_COORD97":2541796.52,"ADDRESS":"新興路３６１號四樓之７","OBJECTID":511110},"geometry":{"x":167096.06000000052,"y":2541796.5200000014}},{"attributes":{"ID":511138,"DIS_CODE":0,"TOWNNAME":"南區","LI":"田寮里","LIN":"1鄰","STREET":"新興路","SECT":" ","MAREA":" ","LANE":" ","ALLEY":" ","HOUSE_NO":"３６１號四樓之８","E_COORD97":167096.06,"N_COORD97":2541796.52,"ADDRESS":"新興路３６１號四樓之８","OBJECTID":511111},"geometry":{"x":167096.06000000052,"y":2541796.5200000014}},{"attributes":{"ID":511139,"DIS_CODE":0,"TOWNNAME":"南區","LI":"田寮里","LIN":"1鄰","STREET":"新興路","SECT":" ","MAREA":" ","LANE":" ","ALLEY":" ","HOUSE_NO":"３６１號五樓之２","E_COORD97":167096.06,"N_COORD97":2541796.52,"ADDRESS":"新興路３６１號五樓之２","OBJECTID":511112},"geometry":{"x":167096.06000000052,"y":2541796.5200000014}},{"attributes":{"ID":511140,"DIS_CODE":0,"TOWNNAME":"南區","LI":"田寮里","LIN":"1鄰","STREET":"新興路","SECT":" ","MAREA":" ","LANE":" ","ALLEY":" ","HOUSE_NO":"３６１號五樓之３","E_COORD97":167096.06,"N_COORD97":2541796.52,"ADDRESS":"新興路３６１號五樓之３","OBJECTID":511113},"geometry":{"x":167096.06000000052,"y":2541796.5200000014}},{"attributes":{"ID":511141,"DIS_CODE":0,"TOWNNAME":"中西區","LI":"三合里","LIN":"1鄰","STREET":"康樂街","SECT":" ","MAREA":" ","LANE":" ","ALLEY":" ","HOUSE_NO":"２６４號二樓之１","E_COORD97":167657.95000000001,"N_COORD97":2544395.1400000001,"ADDRESS":"康樂街２６４號二樓之１","OBJECTID":511114},"geometry":{"x":167657.95000000205,"y":2544395.1400000025}},{"attributes":{"ID":511142,"DIS_CODE":0,"TOWNNAME":"中西區","LI":"三合里","LIN":"1鄰","STREET":"康樂街","SECT":" ","MAREA":" ","LANE":" ","ALLEY":" ","HOUSE_NO":"２６４號二樓之２","E_COORD97":167665.31,"N_COORD97":2544393.3399999999,"ADDRESS":"康樂街２６４號二樓之２","OBJECTID":511115},"geometry":{"x":167665.31000000052,"y":2544393.3399999999}},{"attributes":{"ID":511143,"DIS_CODE":0,"TOWNNAME":"中西區","LI":"三合里","LIN":"1鄰","STREET":"康樂街","SECT":" ","MAREA":" ","LANE":" ","ALLEY":" ","HOUSE_NO":"２６４號三樓之１","E_COORD97":167657.95000000001,"N_COORD97":2544395.1400000001,"ADDRESS":"康樂街２６４號三樓之１","OBJECTID":511116},"geometry":{"x":167657.95000000205,"y":2544395.1400000025}},{"attributes":{"ID":511144,"DIS_CODE":0,"TOWNNAME":"中西區","LI":"三合里","LIN":"1鄰","STREET":"康樂街","SECT":" ","MAREA":" ","LANE":" ","ALLEY":" ","HOUSE_NO":"２６４號三樓之２","E_COORD97":167665.31,"N_COORD97":2544393.3399999999,"ADDRESS":"康樂街２６４號三樓之２","OBJECTID":511117},"geometry":{"x":167665.31000000052,"y":2544393.3399999999}},{"attributes":{"ID":511145,"DIS_CODE":0,"TOWNNAME":"中西區","LI":"三合里","LIN":"1鄰","STREET":"康樂街","SECT":" ","MAREA":" ","LANE":" ","ALLEY":" ","HOUSE_NO":"２６４號五樓之１","E_COORD97":167657.95000000001,"N_COORD97":2544395.1400000001,"ADDRESS":"康樂街２６４號五樓之１","OBJECTID":511118},"geometry":{"x":167657.95000000205,"y":2544395.1400000025}},{"attributes":{"ID":511146,"DIS_CODE":0,"TOWNNAME":"中西區","LI":"三合里","LIN":"1鄰","STREET":"康樂街","SECT":" ","MAREA":" ","LANE":" ","ALLEY":" ","HOUSE_NO":"２６４號五樓之２","E_COORD97":167665.31,"N_COORD97":2544393.3399999999,"ADDRESS":"康樂街２６４號五樓之２","OBJECTID":511119},"geometry":{"x":167665.31000000052,"y":2544393.3399999999}},{"attributes":{"ID":511147,"DIS_CODE":0,"TOWNNAME":"中西區","LI":"三合里","LIN":"1鄰","STREET":"康樂街","SECT":" ","MAREA":" ","LANE":" ","ALLEY":" ","HOUSE_NO":"２６４號四樓之１","E_COORD97":167657.95000000001,"N_COORD97":2544395.1400000001,"ADDRESS":"康樂街２６４號四樓之１","OBJECTID":511120},"geometry":{"x":167657.95000000205,"y":2544395.1400000025}},{"attributes":{"ID":511148,"DIS_CODE":0,"TOWNNAME":"中西區","LI":"三合里","LIN":"1鄰","STREET":"康樂街","SECT":" ","MAREA":" ","LANE":" ","ALLEY":" ","HOUSE_NO":"２６４號四樓之２","E_COORD97":167665.31,"N_COORD97":2544393.3399999999,"ADDRESS":"康樂街２６４號四樓之２","OBJECTID":511121},"geometry":{"x":167665.31000000052,"y":2544393.3399999999}},{"attributes":{"ID":511149,"DIS_CODE":0,"TOWNNAME":"中西區","LI":"三合里","LIN":"1鄰","STREET":"康樂街","SECT":" ","MAREA":" ","LANE":" ","ALLEY":" ","HOUSE_NO":"２６８號二樓之１","E_COORD97":167675.98999999999,"N_COORD97":2544387.6499999999,"ADDRESS":"康樂街２６８號二樓之１","OBJECTID":511122},"geometry":{"x":167675.99000000022,"y":2544387.6500000022}},{"attributes":{"ID":511150,"DIS_CODE":0,"TOWNNAME":"中西區","LI":"三合里","LIN":"1鄰","STREET":"康樂街","SECT":" ","MAREA":" ","LANE":" ","ALLEY":" ","HOUSE_NO":"２６８號二樓之２","E_COORD97":167685.97,"N_COORD97":2544394.2799999998,"ADDRESS":"康樂街２６８號二樓之２","OBJECTID":511123},"geometry":{"x":167685.9700000016,"y":2544394.2799999993}},{"attributes":{"ID":511151,"DIS_CODE":0,"TOWNNAME":"中西區","LI":"三合里","LIN":"1鄰","STREET":"康樂街","SECT":" ","MAREA":" ","LANE":" ","ALLEY":" ","HOUSE_NO":"２６８號三樓之１","E_COORD97":167675.98999999999,"N_COORD97":2544387.6499999999,"ADDRESS":"康樂街２６８號三樓之１","OBJECTID":511124},"geometry":{"x":167675.99000000022,"y":2544387.6500000022}},{"attributes":{"ID":511152,"DIS_CODE":0,"TOWNNAME":"中西區","LI":"三合里","LIN":"1鄰","STREET":"康樂街","SECT":" ","MAREA":" ","LANE":" ","ALLEY":" ","HOUSE_NO":"２６８號三樓之２","E_COORD97":167685.97,"N_COORD97":2544394.2799999998,"ADDRESS":"康樂街２６８號三樓之２","OBJECTID":511125},"geometry":{"x":167685.9700000016,"y":2544394.2799999993}},{"attributes":{"ID":511153,"DIS_CODE":0,"TOWNNAME":"中西區","LI":"三合里","LIN":"1鄰","STREET":"康樂街","SECT":" ","MAREA":" ","LANE":" ","ALLEY":" ","HOUSE_NO":"２６８號五樓之１","E_COORD97":167675.98999999999,"N_COORD97":2544387.6499999999,"ADDRESS":"康樂街２６８號五樓之１","OBJECTID":511126},"geometry":{"x":167675.99000000022,"y":2544387.6500000022}},{"attributes":{"ID":511154,"DIS_CODE":0,"TOWNNAME":"中西區","LI":"三合里","LIN":"1鄰","STREET":"康樂街","SECT":" ","MAREA":" ","LANE":" ","ALLEY":" ","HOUSE_NO":"２６８號五樓之２","E_COORD97":167685.97,"N_COORD97":2544394.2799999998,"ADDRESS":"康樂街２６８號五樓之２","OBJECTID":511127},"geometry":{"x":167685.9700000016,"y":2544394.2799999993}},{"attributes":{"ID":511155,"DIS_CODE":0,"TOWNNAME":"中西區","LI":"三合里","LIN":"1鄰","STREET":"康樂街","SECT":" ","MAREA":" ","LANE":" ","ALLEY":" ","HOUSE_NO":"２６８號四樓之１","E_COORD97":167675.98999999999,"N_COORD97":2544387.6499999999,"ADDRESS":"康樂街２６８號四樓之１","OBJECTID":511128},"geometry":{"x":167675.99000000022,"y":2544387.6500000022}},{"attributes":{"ID":511156,"DIS_CODE":0,"TOWNNAME":"中西區","LI":"三合里","LIN":"1鄰","STREET":"康樂街","SECT":" ","MAREA":" ","LANE":" ","ALLEY":" ","HOUSE_NO":"２６８號四樓之２","E_COORD97":167685.97,"N_COORD97":2544394.2799999998,"ADDRESS":"康樂街２６８號四樓之２","OBJECTID":511129},"geometry":{"x":167685.9700000016,"y":2544394.2799999993}},{"attributes":{"ID":511157,"DIS_CODE":0,"TOWNNAME":"中西區","LI":"三合里","LIN":"1鄰","STREET":"康樂街","SECT":" ","MAREA":" ","LANE":" ","ALLEY":" ","HOUSE_NO":"２７２號二樓","E_COORD97":167668.98999999999,"N_COORD97":2544399.0800000001,"ADDRESS":"康樂街２７２號二樓","OBJECTID":511130},"geometry":{"x":167668.99000000022,"y":2544399.0800000001}},{"attributes":{"ID":511158,"DIS_CODE":0,"TOWNNAME":"中西區","LI":"三合里","LIN":"1鄰","STREET":"康樂街","SECT":" ","MAREA":" ","LANE":" ","ALLEY":" ","HOUSE_NO":"２７２號三樓之１","E_COORD97":167668.98999999999,"N_COORD97":2544399.0800000001,"ADDRESS":"康樂街２７２號三樓之１","OBJECTID":511131},"geometry":{"x":167668.99000000022,"y":2544399.0800000001}},{"attributes":{"ID":511159,"DIS_CODE":0,"TOWNNAME":"中西區","LI":"三合里","LIN":"1鄰","STREET":"康樂街","SECT":" ","MAREA":" ","LANE":" ","ALLEY":" ","HOUSE_NO":"２７２號三樓之２","E_COORD97":167668.98999999999,"N_COORD97":2544399.0800000001,"ADDRESS":"康樂街２７２號三樓之２","OBJECTID":511132},"geometry":{"x":167668.99000000022,"y":2544399.0800000001}},{"attributes":{"ID":511160,"DIS_CODE":0,"TOWNNAME":"中西區","LI":"三合里","LIN":"1鄰","STREET":"康樂街","SECT":" ","MAREA":" ","LANE":" ","ALLEY":" ","HOUSE_NO":"２７２號五樓之１","E_COORD97":167668.98999999999,"N_COORD97":2544399.0800000001,"ADDRESS":"康樂街２７２號五樓之１","OBJECTID":511133},"geometry":{"x":167668.99000000022,"y":2544399.0800000001}},{"attributes":{"ID":511161,"DIS_CODE":0,"TOWNNAME":"中西區","LI":"三合里","LIN":"1鄰","STREET":"康樂街","SECT":" ","MAREA":" ","LANE":" ","ALLEY":" ","HOUSE_NO":"２７２號五樓之２","E_COORD97":167668.98999999999,"N_COORD97":2544399.0800000001,"ADDRESS":"康樂街２７２號五樓之２","OBJECTID":511134},"geometry":{"x":167668.99000000022,"y":2544399.0800000001}},{"attributes":{"ID":511162,"DIS_CODE":0,"TOWNNAME":"中西區","LI":"三合里","LIN":"1鄰","STREET":"康樂街","SECT":" ","MAREA":" ","LANE":" ","ALLEY":" ","HOUSE_NO":"２７２號四樓之１","E_COORD97":167668.98999999999,"N_COORD97":2544399.0800000001,"ADDRESS":"康樂街２７２號四樓之１","OBJECTID":511135},"geometry":{"x":167668.99000000022,"y":2544399.0800000001}},{"attributes":{"ID":511163,"DIS_CODE":0,"TOWNNAME":"中西區","LI":"三合里","LIN":"1鄰","STREET":"康樂街","SECT":" ","MAREA":" ","LANE":" ","ALLEY":" ","HOUSE_NO":"２７２號四樓之２","E_COORD97":167668.98999999999,"N_COORD97":2544399.0800000001,"ADDRESS":"康樂街２７２號四樓之２","OBJECTID":511136},"geometry":{"x":167668.99000000022,"y":2544399.0800000001}},{"attributes":{"ID":511164,"DIS_CODE":0,"TOWNNAME":"東區","LI":"和平里","LIN":"1鄰","STREET":"仁和路","SECT":" ","MAREA":" ","LANE":" ","ALLEY":" ","HOUSE_NO":"３１號八樓","E_COORD97":171099.45000000001,"N_COORD97":2542097.2200000002,"ADDRESS":"仁和路３１號八樓","OBJECTID":511137},"geometry":{"x":171099.45000000112,"y":2542097.2200000007}},{"attributes":{"ID":511165,"DIS_CODE":0,"TOWNNAME":"安平區","LI":"平通里","LIN":"32鄰","STREET":"永華路","SECT":"二段","MAREA":" ","LANE":" ","ALLEY":" ","HOUSE_NO":"９０８號","E_COORD97":164493.01999999999,"N_COORD97":2543650.29,"ADDRESS":"永華路二段９０８號","OBJECTID":511138},"geometry":{"x":164493.01999999955,"y":2543650.2899999991}},{"attributes":{"ID":511166,"DIS_CODE":0,"TOWNNAME":"南區","LI":"竹溪里","LIN":"1鄰","STREET":"竹溪街","SECT":" ","MAREA":" ","LANE":" ","ALLEY":" ","HOUSE_NO":"６８號八樓","E_COORD97":169011.01000000001,"N_COORD97":2542262.8999999999,"ADDRESS":"竹溪街６８號八樓","OBJECTID":511139},"geometry":{"x":169011.00999999978,"y":2542262.9000000022}},{"attributes":{"ID":511167,"DIS_CODE":0,"TOWNNAME":"中西區","LI":"元安里","LIN":"1鄰","STREET":"永華路","SECT":"一段","MAREA":" ","LANE":" ","ALLEY":" ","HOUSE_NO":"３２號七樓","E_COORD97":167612.35999999999,"N_COORD97":2543134.8700000001,"ADDRESS":"永華路一段３２號七樓","OBJECTID":511140},"geometry":{"x":167612.36000000034,"y":2543134.8700000029}},{"attributes":{"ID":511168,"DIS_CODE":0,"TOWNNAME":"中西區","LI":"元安里","LIN":"1鄰","STREET":"永華路","SECT":"一段","MAREA":" ","LANE":" ","ALLEY":" ","HOUSE_NO":"３２號九樓","E_COORD97":167612.35999999999,"N_COORD97":2543134.8700000001,"ADDRESS":"永華路一段３２號九樓","OBJECTID":511141},"geometry":{"x":167612.36000000034,"y":2543134.8700000029}},{"attributes":{"ID":511169,"DIS_CODE":0,"TOWNNAME":"中西區","LI":"元安里","LIN":"1鄰","STREET":"永華路","SECT":"一段","MAREA":" ","LANE":" ","ALLEY":" ","HOUSE_NO":"３２號二樓","E_COORD97":167612.35999999999,"N_COORD97":2543134.8700000001,"ADDRESS":"永華路一段３２號二樓","OBJECTID":511142},"geometry":{"x":167612.36000000034,"y":2543134.8700000029}},{"attributes":{"ID":511170,"DIS_CODE":0,"TOWNNAME":"中西區","LI":"元安里","LIN":"1鄰","STREET":"永華路","SECT":"一段","MAREA":" ","LANE":" ","ALLEY":" ","HOUSE_NO":"３２號八樓","E_COORD97":167612.35999999999,"N_COORD97":2543134.8700000001,"ADDRESS":"永華路一段３２號八樓","OBJECTID":511143},"geometry":{"x":167612.36000000034,"y":2543134.8700000029}},{"attributes":{"ID":511171,"DIS_CODE":0,"TOWNNAME":"中西區","LI":"元安里","LIN":"1鄰","STREET":"永華路","SECT":"一段","MAREA":" ","LANE":" ","ALLEY":" ","HOUSE_NO":"３２號十一樓","E_COORD97":167612.35999999999,"N_COORD97":2543134.8700000001,"ADDRESS":"永華路一段３２號十一樓","OBJECTID":511144},"geometry":{"x":167612.36000000034,"y":2543134.8700000029}},{"attributes":{"ID":511172,"DIS_CODE":0,"TOWNNAME":"中西區","LI":"元安里","LIN":"1鄰","STREET":"永華路","SECT":"一段","MAREA":" ","LANE":" ","ALLEY":" ","HOUSE_NO":"３２號十二樓","E_COORD97":167612.35999999999,"N_COORD97":2543134.8700000001,"ADDRESS":"永華路一段３２號十二樓","OBJECTID":511145},"geometry":{"x":167612.36000000034,"y":2543134.8700000029}},{"attributes":{"ID":511173,"DIS_CODE":0,"TOWNNAME":"中西區","LI":"元安里","LIN":"1鄰","STREET":"永華路","SECT":"一段","MAREA":" ","LANE":" ","ALLEY":" ","HOUSE_NO":"３２號十樓","E_COORD97":167612.35999999999,"N_COORD97":2543134.8700000001,"ADDRESS":"永華路一段３２號十樓","OBJECTID":511146},"geometry":{"x":167612.36000000034,"y":2543134.8700000029}},{"attributes":{"ID":511174,"DIS_CODE":0,"TOWNNAME":"中西區","LI":"元安里","LIN":"1鄰","STREET":"永華路","SECT":"一段","MAREA":" ","LANE":" ","ALLEY":" ","HOUSE_NO":"３２號三樓","E_COORD97":167612.35999999999,"N_COORD97":2543134.8700000001,"ADDRESS":"永華路一段３２號三樓","OBJECTID":511147},"geometry":{"x":167612.36000000034,"y":2543134.8700000029}},{"attributes":{"ID":511175,"DIS_CODE":0,"TOWNNAME":"中西區","LI":"元安里","LIN":"1鄰","STREET":"永華路","SECT":"一段","MAREA":" ","LANE":" ","ALLEY":" ","HOUSE_NO":"３２號五樓","E_COORD97":167612.35999999999,"N_COORD97":2543134.8700000001,"ADDRESS":"永華路一段３２號五樓","OBJECTID":511148},"geometry":{"x":167612.36000000034,"y":2543134.8700000029}},{"attributes":{"ID":511176,"DIS_CODE":0,"TOWNNAME":"中西區","LI":"元安里","LIN":"1鄰","STREET":"永華路","SECT":"一段","MAREA":" ","LANE":" ","ALLEY":" ","HOUSE_NO":"３２號六樓","E_COORD97":167612.35999999999,"N_COORD97":2543134.8700000001,"ADDRESS":"永華路一段３２號六樓","OBJECTID":511149},"geometry":{"x":167612.36000000034,"y":2543134.8700000029}},{"attributes":{"ID":511177,"DIS_CODE":0,"TOWNNAME":"中西區","LI":"元安里","LIN":"1鄰","STREET":"永華路","SECT":"一段","MAREA":" ","LANE":" ","ALLEY":" ","HOUSE_NO":"３２號四樓","E_COORD97":167612.35999999999,"N_COORD97":2543134.8700000001,"ADDRESS":"永華路一段３２號四樓","OBJECTID":511150},"geometry":{"x":167612.36000000034,"y":2543134.8700000029}},{"attributes":{"ID":511178,"DIS_CODE":0,"TOWNNAME":"中西區","LI":"元安里","LIN":"1鄰","STREET":"國華街","SECT":"二段","MAREA":" ","LANE":" ","ALLEY":" ","HOUSE_NO":"２８號二樓","E_COORD97":167623.95000000001,"N_COORD97":2543191.54,"ADDRESS":"國華街二段２８號二樓","OBJECTID":511151},"geometry":{"x":167623.95000000205,"y":2543191.5399999991}},{"attributes":{"ID":511179,"DIS_CODE":0,"TOWNNAME":"中西區","LI":"元安里","LIN":"1鄰","STREET":"國華街","SECT":"二段","MAREA":" ","LANE":" ","ALLEY":" ","HOUSE_NO":"２８號三樓之１","E_COORD97":167624.95999999999,"N_COORD97":2543183.2999999998,"ADDRESS":"國華街二段２８號三樓之１","OBJECTID":511152},"geometry":{"x":167624.95999999996,"y":2543183.3000000026}},{"attributes":{"ID":511180,"DIS_CODE":0,"TOWNNAME":"中西區","LI":"元安里","LIN":"1鄰","STREET":"國華街","SECT":"二段","MAREA":" ","LANE":" ","ALLEY":" ","HOUSE_NO":"２８號三樓之２","E_COORD97":167624.95999999999,"N_COORD97":2543183.2999999998,"ADDRESS":"國華街二段２８號三樓之２","OBJECTID":511153},"geometry":{"x":167624.95999999996,"y":2543183.3000000026}},{"attributes":{"ID":511181,"DIS_CODE":0,"TOWNNAME":"南區","LI":"竹溪里","LIN":"1鄰","STREET":"竹溪街","SECT":" ","MAREA":" ","LANE":" ","ALLEY":" ","HOUSE_NO":"６８號五樓","E_COORD97":169011.01000000001,"N_COORD97":2542262.8999999999,"ADDRESS":"竹溪街６８號五樓","OBJECTID":511154},"geometry":{"x":169011.00999999978,"y":2542262.9000000022}},{"attributes":{"ID":511182,"DIS_CODE":0,"TOWNNAME":"中西區","LI":"元安里","LIN":"1鄰","STREET":"國華街","SECT":"二段","MAREA":" ","LANE":" ","ALLEY":" ","HOUSE_NO":"２８號五樓之１","E_COORD97":167624.95999999999,"N_COORD97":2543183.2999999998,"ADDRESS":"國華街二段２８號五樓之１","OBJECTID":511155},"geometry":{"x":167624.95999999996,"y":2543183.3000000026}},{"attributes":{"ID":511183,"DIS_CODE":0,"TOWNNAME":"中西區","LI":"元安里","LIN":"1鄰","STREET":"國華街","SECT":"二段","MAREA":" ","LANE":" ","ALLEY":" ","HOUSE_NO":"２８號五樓之２","E_COORD97":167624.95999999999,"N_COORD97":2543183.2999999998,"ADDRESS":"國華街二段２８號五樓之２","OBJECTID":511156},"geometry":{"x":167624.95999999996,"y":2543183.3000000026}},{"attributes":{"ID":511184,"DIS_CODE":0,"TOWNNAME":"中西區","LI":"元安里","LIN":"1鄰","STREET":"國華街","SECT":"二段","MAREA":" ","LANE":" ","ALLEY":" ","HOUSE_NO":"２８號四樓之１","E_COORD97":167624.95999999999,"N_COORD97":2543183.2999999998,"ADDRESS":"國華街二段２８號四樓之１","OBJECTID":511157},"geometry":{"x":167624.95999999996,"y":2543183.3000000026}},{"attributes":{"ID":511185,"DIS_CODE":0,"TOWNNAME":"中西區","LI":"元安里","LIN":"1鄰","STREET":"國華街","SECT":"二段","MAREA":" ","LANE":" ","ALLEY":" ","HOUSE_NO":"２８號四樓之２","E_COORD97":167624.95999999999,"N_COORD97":2543183.2999999998,"ADDRESS":"國華街二段２８號四樓之２","OBJECTID":511158},"geometry":{"x":167624.95999999996,"y":2543183.3000000026}},{"attributes":{"ID":511186,"DIS_CODE":0,"TOWNNAME":"中西區","LI":"元安里","LIN":"1鄰","STREET":"國華街","SECT":"二段","MAREA":" ","LANE":" ","ALLEY":" ","HOUSE_NO":"３０號二樓之１","E_COORD97":167628.89000000001,"N_COORD97":2543194.0899999999,"ADDRESS":"國華街二段３０號二樓之１","OBJECTID":511159},"geometry":{"x":167628.89000000153,"y":2543194.0900000017}},{"attributes":{"ID":511187,"DIS_CODE":0,"TOWNNAME":"中西區","LI":"元安里","LIN":"1鄰","STREET":"國華街","SECT":"二段","MAREA":" ","LANE":" ","ALLEY":" ","HOUSE_NO":"３０號二樓之２","E_COORD97":167628.89000000001,"N_COORD97":2543194.0899999999,"ADDRESS":"國華街二段３０號二樓之２","OBJECTID":511160},"geometry":{"x":167628.89000000153,"y":2543194.0900000017}},{"attributes":{"ID":511188,"DIS_CODE":0,"TOWNNAME":"中西區","LI":"元安里","LIN":"1鄰","STREET":"國華街","SECT":"二段","MAREA":" ","LANE":" ","ALLEY":" ","HOUSE_NO":"３０號三樓之１","E_COORD97":167628.89000000001,"N_COORD97":2543194.0899999999,"ADDRESS":"國華街二段３０號三樓之１","OBJECTID":511161},"geometry":{"x":167628.89000000153,"y":2543194.0900000017}},{"attributes":{"ID":511189,"DIS_CODE":0,"TOWNNAME":"中西區","LI":"元安里","LIN":"1鄰","STREET":"國華街","SECT":"二段","MAREA":" ","LANE":" ","ALLEY":" ","HOUSE_NO":"３０號三樓之２","E_COORD97":167628.89000000001,"N_COORD97":2543194.0899999999,"ADDRESS":"國華街二段３０號三樓之２","OBJECTID":511162},"geometry":{"x":167628.89000000153,"y":2543194.0900000017}},{"attributes":{"ID":511190,"DIS_CODE":0,"TOWNNAME":"中西區","LI":"元安里","LIN":"1鄰","STREET":"國華街","SECT":"二段","MAREA":" ","LANE":" ","ALLEY":" ","HOUSE_NO":"３０號五樓之１","E_COORD97":167628.89000000001,"N_COORD97":2543194.0899999999,"ADDRESS":"國華街二段３０號五樓之１","OBJECTID":511163},"geometry":{"x":167628.89000000153,"y":2543194.0900000017}},{"attributes":{"ID":511191,"DIS_CODE":0,"TOWNNAME":"中西區","LI":"元安里","LIN":"1鄰","STREET":"國華街","SECT":"二段","MAREA":" ","LANE":" ","ALLEY":" ","HOUSE_NO":"３０號五樓之２","E_COORD97":167628.89000000001,"N_COORD97":2543194.0899999999,"ADDRESS":"國華街二段３０號五樓之２","OBJECTID":511164},"geometry":{"x":167628.89000000153,"y":2543194.0900000017}},{"attributes":{"ID":511192,"DIS_CODE":0,"TOWNNAME":"中西區","LI":"元安里","LIN":"1鄰","STREET":"國華街","SECT":"二段","MAREA":" ","LANE":" ","ALLEY":" ","HOUSE_NO":"３０號四樓之１","E_COORD97":167628.89000000001,"N_COORD97":2543194.0899999999,"ADDRESS":"國華街二段３０號四樓之１","OBJECTID":511165},"geometry":{"x":167628.89000000153,"y":2543194.0900000017}},{"attributes":{"ID":511193,"DIS_CODE":0,"TOWNNAME":"中西區","LI":"元安里","LIN":"1鄰","STREET":"國華街","SECT":"二段","MAREA":" ","LANE":" ","ALLEY":" ","HOUSE_NO":"３０號四樓之２","E_COORD97":167628.89000000001,"N_COORD97":2543194.0899999999,"ADDRESS":"國華街二段３０號四樓之２","OBJECTID":511166},"geometry":{"x":167628.89000000153,"y":2543194.0900000017}},{"attributes":{"ID":511194,"DIS_CODE":0,"TOWNNAME":"中西區","LI":"元安里","LIN":"1鄰","STREET":"國華街","SECT":"二段","MAREA":" ","LANE":" ","ALLEY":" ","HOUSE_NO":"３４號二樓","E_COORD97":167618.03,"N_COORD97":2543203.0299999998,"ADDRESS":"國華街二段３４號二樓","OBJECTID":511167},"geometry":{"x":167618.03000000026,"y":2543203.0300000031}},{"attributes":{"ID":511195,"DIS_CODE":0,"TOWNNAME":"中西區","LI":"元安里","LIN":"1鄰","STREET":"國華街","SECT":"二段","MAREA":" ","LANE":" ","ALLEY":" ","HOUSE_NO":"３４號三樓之１","E_COORD97":167623.70999999999,"N_COORD97":2543201.6699999999,"ADDRESS":"國華街二段３４號三樓之１","OBJECTID":511168},"geometry":{"x":167623.71000000183,"y":2543201.6699999999}},{"attributes":{"ID":511196,"DIS_CODE":0,"TOWNNAME":"中西區","LI":"元安里","LIN":"1鄰","STREET":"國華街","SECT":"二段","MAREA":" ","LANE":" ","ALLEY":" ","HOUSE_NO":"３４號三樓之２","E_COORD97":167623.70999999999,"N_COORD97":2543201.6699999999,"ADDRESS":"國華街二段３４號三樓之２","OBJECTID":511169},"geometry":{"x":167623.71000000183,"y":2543201.6699999999}},{"attributes":{"ID":511197,"DIS_CODE":0,"TOWNNAME":"中西區","LI":"元安里","LIN":"1鄰","STREET":"國華街","SECT":"二段","MAREA":" ","LANE":" ","ALLEY":" ","HOUSE_NO":"３４號五樓之１","E_COORD97":167623.70999999999,"N_COORD97":2543201.6699999999,"ADDRESS":"國華街二段３４號五樓之１","OBJECTID":511170},"geometry":{"x":167623.71000000183,"y":2543201.6699999999}},{"attributes":{"ID":511198,"DIS_CODE":0,"TOWNNAME":"中西區","LI":"元安里","LIN":"1鄰","STREET":"國華街","SECT":"二段","MAREA":" ","LANE":" ","ALLEY":" ","HOUSE_NO":"３４號五樓之２","E_COORD97":167623.70999999999,"N_COORD97":2543201.6699999999,"ADDRESS":"國華街二段３４號五樓之２","OBJECTID":511171},"geometry":{"x":167623.71000000183,"y":2543201.6699999999}},{"attributes":{"ID":511199,"DIS_CODE":0,"TOWNNAME":"中西區","LI":"元安里","LIN":"1鄰","STREET":"國華街","SECT":"二段","MAREA":" ","LANE":" ","ALLEY":" ","HOUSE_NO":"３４號四樓之１","E_COORD97":167623.70999999999,"N_COORD97":2543201.6699999999,"ADDRESS":"國華街二段３４號四樓之１","OBJECTID":511172},"geometry":{"x":167623.71000000183,"y":2543201.6699999999}},{"attributes":{"ID":511200,"DIS_CODE":0,"TOWNNAME":"中西區","LI":"元安里","LIN":"1鄰","STREET":"國華街","SECT":"二段","MAREA":" ","LANE":" ","ALLEY":" ","HOUSE_NO":"３４號四樓之２","E_COORD97":167623.70999999999,"N_COORD97":2543201.6699999999,"ADDRESS":"國華街二段３４號四樓之２","OBJECTID":511173},"geometry":{"x":167623.71000000183,"y":2543201.6699999999}},{"attributes":{"ID":511201,"DIS_CODE":0,"TOWNNAME":"安南區","LI":"淵中里","LIN":"1鄰","STREET":"安中路","SECT":"三段","MAREA":" ","LANE":" ","ALLEY":" ","HOUSE_NO":"３４１號三樓","E_COORD97":165608.73999999999,"N_COORD97":2549897.5299999998,"ADDRESS":"安中路三段３４１號三樓","OBJECTID":511174},"geometry":{"x":165608.74000000115,"y":2549897.5299999993}},{"attributes":{"ID":511202,"DIS_CODE":0,"TOWNNAME":"安南區","LI":"淵中里","LIN":"1鄰","STREET":"安中路","SECT":"三段","MAREA":" ","LANE":" ","ALLEY":" ","HOUSE_NO":"３４１號二樓","E_COORD97":165608.73999999999,"N_COORD97":2549897.5299999998,"ADDRESS":"安中路三段３４１號二樓","OBJECTID":511175},"geometry":{"x":165608.74000000115,"y":2549897.5299999993}},{"attributes":{"ID":511203,"DIS_CODE":0,"TOWNNAME":"安南區","LI":"淵中里","LIN":"1鄰","STREET":"安中路","SECT":"三段","MAREA":" ","LANE":" ","ALLEY":" ","HOUSE_NO":"３４１號四樓","E_COORD97":165608.73999999999,"N_COORD97":2549897.5299999998,"ADDRESS":"安中路三段３４１號四樓","OBJECTID":511176},"geometry":{"x":165608.74000000115,"y":2549897.5299999993}},{"attributes":{"ID":511204,"DIS_CODE":0,"TOWNNAME":"安南區","LI":"淵中里","LIN":"1鄰","STREET":"安中路","SECT":"三段","MAREA":" ","LANE":" ","ALLEY":" ","HOUSE_NO":"３４３號二樓","E_COORD97":165599.13,"N_COORD97":2549901.2200000002,"ADDRESS":"安中路三段３４３號二樓","OBJECTID":511177},"geometry":{"x":165599.13000000082,"y":2549901.2200000007}},{"attributes":{"ID":511205,"DIS_CODE":0,"TOWNNAME":"安南區","LI":"淵中里","LIN":"1鄰","STREET":"安中路","SECT":"三段","MAREA":" ","LANE":" ","ALLEY":" ","HOUSE_NO":"３４３號三樓","E_COORD97":165599.13,"N_COORD97":2549901.2200000002,"ADDRESS":"安中路三段３４３號三樓","OBJECTID":511178},"geometry":{"x":165599.13000000082,"y":2549901.2200000007}},{"attributes":{"ID":511206,"DIS_CODE":0,"TOWNNAME":"安南區","LI":"淵中里","LIN":"1鄰","STREET":"安中路","SECT":"三段","MAREA":" ","LANE":" ","ALLEY":" ","HOUSE_NO":"３４３號四樓","E_COORD97":165599.13,"N_COORD97":2549901.2200000002,"ADDRESS":"安中路三段３４３號四樓","OBJECTID":511179},"geometry":{"x":165599.13000000082,"y":2549901.2200000007}},{"attributes":{"ID":511207,"DIS_CODE":0,"TOWNNAME":"安南區","LI":"淵中里","LIN":"1鄰","STREET":"安中路","SECT":"三段","MAREA":" ","LANE":" ","ALLEY":" ","HOUSE_NO":"３４７號二樓","E_COORD97":165580.17999999999,"N_COORD97":2549904.1699999999,"ADDRESS":"安中路三段３４７號二樓","OBJECTID":511180},"geometry":{"x":165580.1799999997,"y":2549904.1699999999}},{"attributes":{"ID":511208,"DIS_CODE":0,"TOWNNAME":"安南區","LI":"淵中里","LIN":"1鄰","STREET":"安中路","SECT":"三段","MAREA":" ","LANE":" ","ALLEY":" ","HOUSE_NO":"３４７號三樓","E_COORD97":165580.17999999999,"N_COORD97":2549904.1699999999,"ADDRESS":"安中路三段３４７號三樓","OBJECTID":511181},"geometry":{"x":165580.1799999997,"y":2549904.1699999999}},{"attributes":{"ID":511209,"DIS_CODE":0,"TOWNNAME":"安南區","LI":"淵中里","LIN":"1鄰","STREET":"安中路","SECT":"三段","MAREA":" ","LANE":" ","ALLEY":" ","HOUSE_NO":"３４７號四樓","E_COORD97":165580.17999999999,"N_COORD97":2549904.1699999999,"ADDRESS":"安中路三段３４７號四樓","OBJECTID":511182},"geometry":{"x":165580.1799999997,"y":2549904.1699999999}},{"attributes":{"ID":511210,"DIS_CODE":0,"TOWNNAME":"安南區","LI":"淵中里","LIN":"1鄰","STREET":"樂安一街","SECT":" ","MAREA":" ","LANE":" ","ALLEY":" ","HOUSE_NO":"２１２號二樓","E_COORD97":165589.76999999999,"N_COORD97":2549862.5,"ADDRESS":"樂安一街２１２號二樓","OBJECTID":511183},"geometry":{"x":165589.76999999955,"y":2549862.5000000037}},{"attributes":{"ID":511211,"DIS_CODE":0,"TOWNNAME":"安南區","LI":"淵中里","LIN":"1鄰","STREET":"樂安一街","SECT":" ","MAREA":" ","LANE":" ","ALLEY":" ","HOUSE_NO":"２１２號三樓","E_COORD97":165589.76999999999,"N_COORD97":2549862.5,"ADDRESS":"樂安一街２１２號三樓","OBJECTID":511184},"geometry":{"x":165589.76999999955,"y":2549862.5000000037}},{"attributes":{"ID":511212,"DIS_CODE":0,"TOWNNAME":"安南區","LI":"淵中里","LIN":"1鄰","STREET":"樂安一街","SECT":" ","MAREA":" ","LANE":" ","ALLEY":" ","HOUSE_NO":"２１２號四樓","E_COORD97":165589.76999999999,"N_COORD97":2549862.5,"ADDRESS":"樂安一街２１２號四樓","OBJECTID":511185},"geometry":{"x":165589.76999999955,"y":2549862.5000000037}},{"attributes":{"ID":511213,"DIS_CODE":0,"TOWNNAME":"南區","LI":"文華里","LIN":"1鄰","STREET":"永華路","SECT":"一段","MAREA":" ","LANE":" ","ALLEY":" ","HOUSE_NO":"２４９號","E_COORD97":167037.48999999999,"N_COORD97":2543214.48,"ADDRESS":"永華路一段２４９號","OBJECTID":511186},"geometry":{"x":167037.49000000115,"y":2543214.4800000042}},{"attributes":{"ID":511214,"DIS_CODE":0,"TOWNNAME":"安南區","LI":"淵中里","LIN":"1鄰","STREET":"樂安一街","SECT":" ","MAREA":" ","LANE":" ","ALLEY":" ","HOUSE_NO":"２１４號二樓","E_COORD97":165593.09,"N_COORD97":2549878.4100000001,"ADDRESS":"樂安一街２１４號二樓","OBJECTID":511187},"geometry":{"x":165593.08999999985,"y":2549878.410000002}},{"attributes":{"ID":511215,"DIS_CODE":0,"TOWNNAME":"安南區","LI":"淵中里","LIN":"1鄰","STREET":"樂安一街","SECT":" ","MAREA":" ","LANE":" ","ALLEY":" ","HOUSE_NO":"２１４號三樓","E_COORD97":165593.09,"N_COORD97":2549878.4100000001,"ADDRESS":"樂安一街２１４號三樓","OBJECTID":511188},"geometry":{"x":165593.08999999985,"y":2549878.410000002}},{"attributes":{"ID":511216,"DIS_CODE":0,"TOWNNAME":"安南區","LI":"淵中里","LIN":"1鄰","STREET":"樂安一街","SECT":" ","MAREA":" ","LANE":" ","ALLEY":" ","HOUSE_NO":"２１４號四樓","E_COORD97":165593.09,"N_COORD97":2549878.4100000001,"ADDRESS":"樂安一街２１４號四樓","OBJECTID":511189},"geometry":{"x":165593.08999999985,"y":2549878.410000002}},{"attributes":{"ID":511217,"DIS_CODE":0,"TOWNNAME":"安南區","LI":"淵中里","LIN":"1鄰","STREET":"樂安一街","SECT":" ","MAREA":" ","LANE":" ","ALLEY":" ","HOUSE_NO":"２１６號二樓","E_COORD97":165575.87,"N_COORD97":2549882.0299999998,"ADDRESS":"樂安一街２１６號二樓","OBJECTID":511190},"geometry":{"x":165575.87000000011,"y":2549882.0300000031}},{"attributes":{"ID":511218,"DIS_CODE":0,"TOWNNAME":"安南區","LI":"淵中里","LIN":"1鄰","STREET":"樂安一街","SECT":" ","MAREA":" ","LANE":" ","ALLEY":" ","HOUSE_NO":"２１６號三樓","E_COORD97":165575.87,"N_COORD97":2549882.0299999998,"ADDRESS":"樂安一街２１６號三樓","OBJECTID":511191},"geometry":{"x":165575.87000000011,"y":2549882.0300000031}},{"attributes":{"ID":511219,"DIS_CODE":0,"TOWNNAME":"安南區","LI":"淵中里","LIN":"1鄰","STREET":"樂安一街","SECT":" ","MAREA":" ","LANE":" ","ALLEY":" ","HOUSE_NO":"２１６號四樓","E_COORD97":165575.87,"N_COORD97":2549882.0299999998,"ADDRESS":"樂安一街２１６號四樓","OBJECTID":511192},"geometry":{"x":165575.87000000011,"y":2549882.0300000031}},{"attributes":{"ID":511220,"DIS_CODE":0,"TOWNNAME":"安南區","LI":"淵中里","LIN":"1鄰","STREET":"樂安一街","SECT":" ","MAREA":" ","LANE":" ","ALLEY":" ","HOUSE_NO":"２１８號二樓","E_COORD97":165572.85000000001,"N_COORD97":2549866.04,"ADDRESS":"樂安一街２１８號二樓","OBJECTID":511193},"geometry":{"x":165572.85000000149,"y":2549866.040000001}},{"attributes":{"ID":511221,"DIS_CODE":0,"TOWNNAME":"安南區","LI":"淵中里","LIN":"1鄰","STREET":"樂安一街","SECT":" ","MAREA":" ","LANE":" ","ALLEY":" ","HOUSE_NO":"２１８號三樓","E_COORD97":165572.85000000001,"N_COORD97":2549866.04,"ADDRESS":"樂安一街２１８號三樓","OBJECTID":511194},"geometry":{"x":165572.85000000149,"y":2549866.040000001}},{"attributes":{"ID":511222,"DIS_CODE":0,"TOWNNAME":"安南區","LI":"淵中里","LIN":"1鄰","STREET":"樂安一街","SECT":" ","MAREA":" ","LANE":" ","ALLEY":" ","HOUSE_NO":"２１８號四樓","E_COORD97":165572.85000000001,"N_COORD97":2549866.04,"ADDRESS":"樂安一街２１８號四樓","OBJECTID":511195},"geometry":{"x":165572.85000000149,"y":2549866.040000001}},{"attributes":{"ID":511223,"DIS_CODE":0,"TOWNNAME":"南區","LI":"郡南里","LIN":"6鄰","STREET":"德興路","SECT":" ","MAREA":" ","LANE":" ","ALLEY":" ","HOUSE_NO":"１１９號","E_COORD97":167218.25,"N_COORD97":2540531.4500000002,"ADDRESS":"德興路１１９號","OBJECTID":511196},"geometry":{"x":167218.25000000186,"y":2540531.4499999974}},{"attributes":{"ID":511224,"DIS_CODE":0,"TOWNNAME":"東區","LI":"圍下里","LIN":"1鄰","STREET":"勝利路","SECT":" ","MAREA":" ","LANE":" ","ALLEY":" ","HOUSE_NO":"６９號六樓","E_COORD97":169791.25,"N_COORD97":2543485.1800000002,"ADDRESS":"勝利路６９號六樓","OBJECTID":511197},"geometry":{"x":169791.25,"y":2543485.1800000016}},{"attributes":{"ID":511225,"DIS_CODE":0,"TOWNNAME":"中西區","LI":"協進里","LIN":"1鄰","STREET":"金華路","SECT":"四段","MAREA":" ","LANE":" ","ALLEY":" ","HOUSE_NO":"１１號五樓之４","E_COORD97":167361.45999999999,"N_COORD97":2544137.6099999999,"ADDRESS":"金華路四段１１號五樓之４","OBJECTID":511198},"geometry":{"x":167361.46000000089,"y":2544137.6099999994}},{"attributes":{"ID":511226,"DIS_CODE":0,"TOWNNAME":"中西區","LI":"仙草里","LIN":"1鄰","STREET":"西門路","SECT":"一段","MAREA":" ","LANE":" ","ALLEY":" ","HOUSE_NO":"４６６號一樓之１","E_COORD97":167765.84,"N_COORD97":2542629.2000000002,"ADDRESS":"西門路一段４６６號一樓之１","OBJECTID":511199},"geometry":{"x":167765.84000000078,"y":2542629.2000000011}},{"attributes":{"ID":511227,"DIS_CODE":0,"TOWNNAME":"中西區","LI":"仙草里","LIN":"1鄰","STREET":"西門路","SECT":"一段","MAREA":" ","LANE":" ","ALLEY":" ","HOUSE_NO":"４６６號七樓之２","E_COORD97":167765.84,"N_COORD97":2542629.2000000002,"ADDRESS":"西門路一段４６６號七樓之２","OBJECTID":511200},"geometry":{"x":167765.84000000078,"y":2542629.2000000011}}]}