{"displayFieldName":"TOWNNAME","fieldAliases":{"ID":"ID","DIS_CODE":"DIS_CODE","TOWNNAME":"TOWNNAME","LI":"LI","LIN":"LIN","STREET":"STREET","SECT":"SECT","MAREA":"MAREA","LANE":"LANE","ALLEY":"ALLEY","HOUSE_NO":"HOUSE_NO","E_COORD97":"E_COORD97","N_COORD97":"N_COORD97","ADDRESS":"ADDRESS","OBJECTID":"OBJECTID"},"geometryType":"esriGeometryPoint","spatialReference":{"wkid":102443,"latestWkid":3826},"fields":[{"name":"ID","type":"esriFieldTypeDouble","alias":"ID"},{"name":"DIS_CODE","type":"esriFieldTypeInteger","alias":"DIS_CODE"},{"name":"TOWNNAME","type":"esriFieldTypeString","alias":"TOWNNAME","length":8},{"name":"LI","type":"esriFieldTypeString","alias":"LI","length":8},{"name":"LIN","type":"esriFieldTypeString","alias":"LIN","length":12},{"name":"STREET","type":"esriFieldTypeString","alias":"STREET","length":20},{"name":"SECT","type":"esriFieldTypeString","alias":"SECT","length":8},{"name":"MAREA","type":"esriFieldTypeString","alias":"MAREA","length":12},{"name":"LANE","type":"esriFieldTypeString","alias":"LANE","length":10},{"name":"ALLEY","type":"esriFieldTypeString","alias":"ALLEY","length":10},{"name":"HOUSE_NO","type":"esriFieldTypeString","alias":"HOUSE_NO","length":20},{"name":"E_COORD97","type":"esriFieldTypeDouble","alias":"E_COORD97"},{"name":"N_COORD97","type":"esriFieldTypeDouble","alias":"N_COORD97"},{"name":"ADDRESS","type":"esriFieldTypeString","alias":"ADDRESS","length":50},{"name":"OBJECTID","type":"esriFieldTypeOID","alias":"OBJECTID"}],"features":[{"attributes":{"ID":610028,"DIS_CODE":0,"TOWNNAME":"中西區","LI":"協和里","LIN":"9鄰","STREET":"文賢路","SECT":" ","MAREA":" ","LANE":" ","ALLEY":" ","HOUSE_NO":"１５７號","E_COORD97":167382.42999999999,"N_COORD97":2544777.73,"ADDRESS":"文賢路１５７號","OBJECTID":610001},"geometry":{"x":167382.4299999997,"y":2544777.7300000004}},{"attributes":{"ID":610029,"DIS_CODE":0,"TOWNNAME":"中西區","LI":"協和里","LIN":"9鄰","STREET":"文賢路","SECT":" ","MAREA":" ","LANE":" ","ALLEY":" ","HOUSE_NO":"１５９號","E_COORD97":167379.67999999999,"N_COORD97":2544781.8500000001,"ADDRESS":"文賢路１５９號","OBJECTID":610002},"geometry":{"x":167379.68000000063,"y":2544781.8500000015}},{"attributes":{"ID":610030,"DIS_CODE":0,"TOWNNAME":"中西區","LI":"協和里","LIN":"9鄰","STREET":"文賢路","SECT":" ","MAREA":" ","LANE":" ","ALLEY":" ","HOUSE_NO":"１６１號","E_COORD97":167376.81,"N_COORD97":2544785.3999999999,"ADDRESS":"文賢路１６１號","OBJECTID":610003},"geometry":{"x":167376.81000000145,"y":2544785.4000000022}},{"attributes":{"ID":610031,"DIS_CODE":0,"TOWNNAME":"中西區","LI":"協和里","LIN":"9鄰","STREET":"文賢路","SECT":" ","MAREA":" ","LANE":" ","ALLEY":" ","HOUSE_NO":"１６３號","E_COORD97":167374.17000000001,"N_COORD97":2544788.7200000002,"ADDRESS":"文賢路１６３號","OBJECTID":610004},"geometry":{"x":167374.16999999993,"y":2544788.7200000007}},{"attributes":{"ID":610032,"DIS_CODE":0,"TOWNNAME":"中西區","LI":"協和里","LIN":"9鄰","STREET":"協和街","SECT":" ","MAREA":" ","LANE":" ","ALLEY":" ","HOUSE_NO":"２１６號","E_COORD97":167348.42999999999,"N_COORD97":2544765.3199999998,"ADDRESS":"協和街２１６號","OBJECTID":610005},"geometry":{"x":167348.4299999997,"y":2544765.3200000022}},{"attributes":{"ID":610033,"DIS_CODE":0,"TOWNNAME":"中西區","LI":"協和里","LIN":"9鄰","STREET":"協和街","SECT":" ","MAREA":" ","LANE":" ","ALLEY":" ","HOUSE_NO":"２１８號","E_COORD97":167356.01000000001,"N_COORD97":2544771.23,"ADDRESS":"協和街２１８號","OBJECTID":610006},"geometry":{"x":167356.01000000071,"y":2544771.2300000004}},{"attributes":{"ID":610034,"DIS_CODE":0,"TOWNNAME":"中西區","LI":"協和里","LIN":"9鄰","STREET":"協和街","SECT":" ","MAREA":" ","LANE":" ","ALLEY":" ","HOUSE_NO":"２２０號","E_COORD97":167359.42000000001,"N_COORD97":2544773.9100000001,"ADDRESS":"協和街２２０號","OBJECTID":610007},"geometry":{"x":167359.42000000179,"y":2544773.9100000001}},{"attributes":{"ID":610035,"DIS_CODE":0,"TOWNNAME":"安平區","LI":"怡平里","LIN":"3鄰","STREET":"永華六街","SECT":" ","MAREA":" ","LANE":" ","ALLEY":" ","HOUSE_NO":"２１４號地下二層","E_COORD97":165681.85000000001,"N_COORD97":2544203.5099999998,"ADDRESS":"永華六街２１４號地下二層","OBJECTID":610008},"geometry":{"x":165681.85000000056,"y":2544203.5100000035}},{"attributes":{"ID":610036,"DIS_CODE":0,"TOWNNAME":"安平區","LI":"億載里","LIN":"3鄰","STREET":"永華十二街","SECT":" ","MAREA":" ","LANE":" ","ALLEY":" ","HOUSE_NO":"１８號之２","E_COORD97":163780.54000000001,"N_COORD97":2543657.1099999999,"ADDRESS":"永華十二街１８號之２","OBJECTID":610009},"geometry":{"x":163780.54000000097,"y":2543657.1100000013}},{"attributes":{"ID":610037,"DIS_CODE":0,"TOWNNAME":"安平區","LI":"怡平里","LIN":"3鄰","STREET":"建平十七街","SECT":" ","MAREA":" ","LANE":" ","ALLEY":" ","HOUSE_NO":"１８１號","E_COORD97":165702.79999999999,"N_COORD97":2544223.8599999999,"ADDRESS":"建平十七街１８１號","OBJECTID":610010},"geometry":{"x":165702.80000000075,"y":2544223.8599999994}},{"attributes":{"ID":610038,"DIS_CODE":0,"TOWNNAME":"安平區","LI":"怡平里","LIN":"3鄰","STREET":"建平十七街","SECT":" ","MAREA":" ","LANE":" ","ALLEY":" ","HOUSE_NO":"１８３號","E_COORD97":165696.23999999999,"N_COORD97":2544223.4300000002,"ADDRESS":"建平十七街１８３號","OBJECTID":610011},"geometry":{"x":165696.24000000209,"y":2544223.4299999997}},{"attributes":{"ID":610039,"DIS_CODE":0,"TOWNNAME":"南區","LI":"大忠里","LIN":"3鄰","STREET":"公英一街","SECT":" ","MAREA":" ","LANE":" ","ALLEY":" ","HOUSE_NO":"１７號","E_COORD97":169452.60000000001,"N_COORD97":2541270.5,"ADDRESS":"公英一街１７號","OBJECTID":610012},"geometry":{"x":169452.59999999963,"y":2541270.5}},{"attributes":{"ID":610040,"DIS_CODE":0,"TOWNNAME":"歸仁區","LI":"辜厝里","LIN":"3鄰","STREET":"中正南路","SECT":"一段","MAREA":" ","LANE":" ","ALLEY":" ","HOUSE_NO":"２６號","E_COORD97":177571.35999999999,"N_COORD97":2540694.1200000001,"ADDRESS":"中正南路一段２６號","OBJECTID":610013},"geometry":{"x":177571.36000000034,"y":2540694.120000001}},{"attributes":{"ID":610041,"DIS_CODE":0,"TOWNNAME":"新營區","LI":"南興里","LIN":"3鄰","STREET":"南昌街","SECT":" ","MAREA":" ","LANE":" ","ALLEY":" ","HOUSE_NO":"１７之４號","E_COORD97":179640.84,"N_COORD97":2577619.8599999999,"ADDRESS":"南昌街１７之４號","OBJECTID":610014},"geometry":{"x":179640.83999999985,"y":2577619.8600000031}},{"attributes":{"ID":610042,"DIS_CODE":0,"TOWNNAME":"新營區","LI":"民榮里","LIN":"3鄰","STREET":"新進路","SECT":"二段","MAREA":" ","LANE":" ","ALLEY":" ","HOUSE_NO":"４８０號","E_COORD97":178684.01000000001,"N_COORD97":2577994.2599999998,"ADDRESS":"新進路二段４８０號","OBJECTID":610015},"geometry":{"x":178684.00999999978,"y":2577994.2600000016}},{"attributes":{"ID":610043,"DIS_CODE":0,"TOWNNAME":"新營區","LI":"民榮里","LIN":"3鄰","STREET":"新進路","SECT":"二段","MAREA":" ","LANE":" ","ALLEY":" ","HOUSE_NO":"４８２號","E_COORD97":178683.01000000001,"N_COORD97":2577998.7000000002,"ADDRESS":"新進路二段４８２號","OBJECTID":610016},"geometry":{"x":178683.01000000071,"y":2577998.7000000011}},{"attributes":{"ID":610044,"DIS_CODE":0,"TOWNNAME":"新營區","LI":"埤寮里","LIN":"3鄰","STREET":"建國路","SECT":" ","MAREA":" ","LANE":" ","ALLEY":" ","HOUSE_NO":"１２號","E_COORD97":180074.88,"N_COORD97":2581094.3100000001,"ADDRESS":"建國路１２號","OBJECTID":610017},"geometry":{"x":180074.87999999989,"y":2581094.3100000024}},{"attributes":{"ID":610045,"DIS_CODE":0,"TOWNNAME":"楠西區","LI":"東勢里","LIN":"3鄰","STREET":"民權路","SECT":" ","MAREA":" ","LANE":" ","ALLEY":" ","HOUSE_NO":"４９號","E_COORD97":197362.44,"N_COORD97":2564268.29,"ADDRESS":"民權路４９號","OBJECTID":610018},"geometry":{"x":197362.44000000041,"y":2564268.2899999991}},{"attributes":{"ID":610046,"DIS_CODE":0,"TOWNNAME":"新化區","LI":"武安里","LIN":"3鄰","STREET":"中正路","SECT":" ","MAREA":" ","LANE":" ","ALLEY":" ","HOUSE_NO":"３１３號","E_COORD97":179127.70999999999,"N_COORD97":2548146.25,"ADDRESS":"中正路３１３號","OBJECTID":610019},"geometry":{"x":179127.71000000089,"y":2548146.2500000019}},{"attributes":{"ID":610047,"DIS_CODE":0,"TOWNNAME":"新化區","LI":"武安里","LIN":"3鄰","STREET":"中正路","SECT":" ","MAREA":" ","LANE":" ","ALLEY":" ","HOUSE_NO":"３１１號","E_COORD97":179128.70999999999,"N_COORD97":2548142.25,"ADDRESS":"中正路３１１號","OBJECTID":610020},"geometry":{"x":179128.70999999996,"y":2548142.2500000019}},{"attributes":{"ID":610048,"DIS_CODE":0,"TOWNNAME":"新化區","LI":"武安里","LIN":"3鄰","STREET":"大同街","SECT":" ","MAREA":" ","LANE":" ","ALLEY":" ","HOUSE_NO":"２０號","E_COORD97":179032.07999999999,"N_COORD97":2548105.25,"ADDRESS":"大同街２０號","OBJECTID":610021},"geometry":{"x":179032.08000000101,"y":2548105.2500000019}},{"attributes":{"ID":610049,"DIS_CODE":0,"TOWNNAME":"新化區","LI":"護國里","LIN":"3鄰","STREET":"仁愛街","SECT":" ","MAREA":" ","LANE":" ","ALLEY":" ","HOUSE_NO":"３３號","E_COORD97":179131.38,"N_COORD97":2548595.25,"ADDRESS":"仁愛街３３號","OBJECTID":610022},"geometry":{"x":179131.38000000082,"y":2548595.25}},{"attributes":{"ID":610050,"DIS_CODE":0,"TOWNNAME":"新化區","LI":"觀音里","LIN":"3鄰","STREET":"民族街","SECT":" ","MAREA":" ","LANE":" ","ALLEY":" ","HOUSE_NO":"６號","E_COORD97":178911.70999999999,"N_COORD97":2548458.25,"ADDRESS":"民族街６號","OBJECTID":610023},"geometry":{"x":178911.70999999996,"y":2548458.2500000019}},{"attributes":{"ID":610051,"DIS_CODE":0,"TOWNNAME":"新化區","LI":"清水里","LIN":"3鄰","STREET":"中山路","SECT":" ","MAREA":" ","LANE":" ","ALLEY":" ","HOUSE_NO":"４７１號","E_COORD97":178623.91,"N_COORD97":2548400.25,"ADDRESS":"中山路４７１號","OBJECTID":610024},"geometry":{"x":178623.91000000015,"y":2548400.2500000019}},{"attributes":{"ID":610052,"DIS_CODE":0,"TOWNNAME":"新化區","LI":"協興里","LIN":"3鄰","STREET":"忠孝路","SECT":" ","MAREA":" ","LANE":" ","ALLEY":" ","HOUSE_NO":"１８５號","E_COORD97":178557.72,"N_COORD97":2548601.25,"ADDRESS":"忠孝路１８５號","OBJECTID":610025},"geometry":{"x":178557.72000000067,"y":2548601.2500000019}},{"attributes":{"ID":610053,"DIS_CODE":0,"TOWNNAME":"新化區","LI":"清水里","LIN":"3鄰","STREET":"信義路","SECT":" ","MAREA":" ","LANE":" ","ALLEY":" ","HOUSE_NO":"４３０號","E_COORD97":178663.63,"N_COORD97":2548284.25,"ADDRESS":"信義路４３０號","OBJECTID":610026},"geometry":{"x":178663.63000000082,"y":2548284.2500000037}},{"attributes":{"ID":610054,"DIS_CODE":0,"TOWNNAME":"新化區","LI":"東榮里","LIN":"3鄰","STREET":"中興路","SECT":" ","MAREA":" ","LANE":" ","ALLEY":" ","HOUSE_NO":"１２號之１","E_COORD97":181976.39000000001,"N_COORD97":2547341.2599999998,"ADDRESS":"中興路１２號之１","OBJECTID":610027},"geometry":{"x":181976.38999999966,"y":2547341.2599999979}},{"attributes":{"ID":610055,"DIS_CODE":0,"TOWNNAME":"新化區","LI":"協興里","LIN":"3鄰","STREET":"正新路","SECT":" ","MAREA":" ","LANE":" ","ALLEY":" ","HOUSE_NO":"２５７號","E_COORD97":178558.01999999999,"N_COORD97":2548543.25,"ADDRESS":"正新路２５７號","OBJECTID":610028},"geometry":{"x":178558.01999999955,"y":2548543.2500000019}},{"attributes":{"ID":610056,"DIS_CODE":0,"TOWNNAME":"新化區","LI":"清水里","LIN":"3鄰","STREET":"信義路","SECT":" ","MAREA":" ","LANE":" ","ALLEY":" ","HOUSE_NO":"４３２號","E_COORD97":178657.03,"N_COORD97":2548284.25,"ADDRESS":"信義路４３２號","OBJECTID":610029},"geometry":{"x":178657.03000000026,"y":2548284.2500000037}},{"attributes":{"ID":610057,"DIS_CODE":0,"TOWNNAME":"新化區","LI":"竹林里","LIN":"3鄰","STREET":"民權街","SECT":" ","MAREA":" ","LANE":" ","ALLEY":" ","HOUSE_NO":"２０號","E_COORD97":178789.16,"N_COORD97":2548473.25,"ADDRESS":"民權街２０號","OBJECTID":610030},"geometry":{"x":178789.16000000108,"y":2548473.25}},{"attributes":{"ID":610058,"DIS_CODE":0,"TOWNNAME":"新化區","LI":"協興里","LIN":"3鄰","STREET":"正新路","SECT":" ","MAREA":" ","LANE":" ","ALLEY":" ","HOUSE_NO":"２６９號","E_COORD97":178558.82000000001,"N_COORD97":2548568.25,"ADDRESS":"正新路２６９號","OBJECTID":610031},"geometry":{"x":178558.82000000216,"y":2548568.25}},{"attributes":{"ID":610059,"DIS_CODE":0,"TOWNNAME":"新化區","LI":"清水里","LIN":"3鄰","STREET":"信義路","SECT":" ","MAREA":" ","LANE":" ","ALLEY":" ","HOUSE_NO":"４５０號","E_COORD97":178601.63,"N_COORD97":2548294.25,"ADDRESS":"信義路４５０號","OBJECTID":610032},"geometry":{"x":178601.62999999989,"y":2548294.2499999981}},{"attributes":{"ID":610060,"DIS_CODE":0,"TOWNNAME":"新化區","LI":"協興里","LIN":"3鄰","STREET":"正新路","SECT":" ","MAREA":" ","LANE":" ","ALLEY":" ","HOUSE_NO":"２７３號","E_COORD97":178559.32000000001,"N_COORD97":2548575.25,"ADDRESS":"正新路２７３號","OBJECTID":610033},"geometry":{"x":178559.32000000123,"y":2548575.25}},{"attributes":{"ID":610061,"DIS_CODE":0,"TOWNNAME":"新化區","LI":"竹林里","LIN":"3鄰","STREET":"長青街","SECT":" ","MAREA":" ","LANE":" ","ALLEY":" ","HOUSE_NO":"１１號","E_COORD97":178802.78,"N_COORD97":2548482.25,"ADDRESS":"長青街１１號","OBJECTID":610034},"geometry":{"x":178802.78000000026,"y":2548482.2500000019}},{"attributes":{"ID":610062,"DIS_CODE":0,"TOWNNAME":"佳里區","LI":"六安里","LIN":"3鄰","STREET":"進學路","SECT":" ","MAREA":" ","LANE":" ","ALLEY":" ","HOUSE_NO":"２４號","E_COORD97":166394.04000000001,"N_COORD97":2562703.48,"ADDRESS":"進學路２４號","OBJECTID":610035},"geometry":{"x":166394.03999999911,"y":2562703.4800000023}},{"attributes":{"ID":610063,"DIS_CODE":0,"TOWNNAME":"永康區","LI":"六合里","LIN":"3鄰","STREET":"中山南路","SECT":" ","MAREA":" ","LANE":" ","ALLEY":" ","HOUSE_NO":"１４６號","E_COORD97":171131.09,"N_COORD97":2545963.2400000002,"ADDRESS":"中山南路１４６號","OBJECTID":610036},"geometry":{"x":171131.08999999985,"y":2545963.2400000021}},{"attributes":{"ID":610064,"DIS_CODE":0,"TOWNNAME":"永康區","LI":"永康里","LIN":"3鄰","STREET":"中山路","SECT":" ","MAREA":" ","LANE":" ","ALLEY":" ","HOUSE_NO":"２１號","E_COORD97":173831.04999999999,"N_COORD97":2547472,"ADDRESS":"中山路２１號","OBJECTID":610037},"geometry":{"x":173831.05000000075,"y":2547471.9999999981}},{"attributes":{"ID":610065,"DIS_CODE":0,"TOWNNAME":"永康區","LI":"永康里","LIN":"3鄰","STREET":"中山路","SECT":" ","MAREA":" ","LANE":" ","ALLEY":" ","HOUSE_NO":"１９號","E_COORD97":173832.95999999999,"N_COORD97":2547464.75,"ADDRESS":"中山路１９號","OBJECTID":610038},"geometry":{"x":173832.95999999903,"y":2547464.7500000019}},{"attributes":{"ID":610066,"DIS_CODE":0,"TOWNNAME":"中西區","LI":"協和里","LIN":"15鄰","STREET":"中和街","SECT":" ","MAREA":" ","LANE":" ","ALLEY":" ","HOUSE_NO":"１５１號","E_COORD97":167193.32999999999,"N_COORD97":2544717.5800000001,"ADDRESS":"中和街１５１號","OBJECTID":610039},"geometry":{"x":167193.33000000007,"y":2544717.5800000001}},{"attributes":{"ID":610067,"DIS_CODE":0,"TOWNNAME":"中西區","LI":"協和里","LIN":"15鄰","STREET":"中和街","SECT":" ","MAREA":" ","LANE":" ","ALLEY":" ","HOUSE_NO":"１５３號","E_COORD97":167200.66,"N_COORD97":2544721.3399999999,"ADDRESS":"中和街１５３號","OBJECTID":610040},"geometry":{"x":167200.66000000108,"y":2544721.3400000017}},{"attributes":{"ID":610068,"DIS_CODE":0,"TOWNNAME":"中西區","LI":"協和里","LIN":"15鄰","STREET":"中和街","SECT":" ","MAREA":" ","LANE":" ","ALLEY":" ","HOUSE_NO":"１５５號","E_COORD97":167204.63,"N_COORD97":2544724.0099999998,"ADDRESS":"中和街１５５號","OBJECTID":610041},"geometry":{"x":167204.62999999989,"y":2544724.0100000016}},{"attributes":{"ID":610069,"DIS_CODE":0,"TOWNNAME":"中西區","LI":"協和里","LIN":"15鄰","STREET":"中和街","SECT":" ","MAREA":" ","LANE":" ","ALLEY":" ","HOUSE_NO":"１５７號","E_COORD97":167208,"N_COORD97":2544726.6899999999,"ADDRESS":"中和街１５７號","OBJECTID":610042},"geometry":{"x":167208.00000000186,"y":2544726.6899999995}},{"attributes":{"ID":610070,"DIS_CODE":0,"TOWNNAME":"中西區","LI":"協和里","LIN":"15鄰","STREET":"中和街","SECT":" ","MAREA":" ","LANE":" ","ALLEY":" ","HOUSE_NO":"１５９號","E_COORD97":167211.07000000001,"N_COORD97":2544730.25,"ADDRESS":"中和街１５９號","OBJECTID":610043},"geometry":{"x":167211.0700000003,"y":2544730.25}},{"attributes":{"ID":610071,"DIS_CODE":0,"TOWNNAME":"中西區","LI":"協和里","LIN":"15鄰","STREET":"中和街","SECT":" ","MAREA":" ","LANE":" ","ALLEY":" ","HOUSE_NO":"１６１號","E_COORD97":167214.95999999999,"N_COORD97":2544733.1699999999,"ADDRESS":"中和街１６１號","OBJECTID":610044},"geometry":{"x":167214.95999999903,"y":2544733.1700000018}},{"attributes":{"ID":610072,"DIS_CODE":0,"TOWNNAME":"中西區","LI":"協和里","LIN":"15鄰","STREET":"中和街","SECT":" ","MAREA":" ","LANE":" ","ALLEY":" ","HOUSE_NO":"１６３號","E_COORD97":167218.32999999999,"N_COORD97":2544735.75,"ADDRESS":"中和街１６３號","OBJECTID":610045},"geometry":{"x":167218.33000000101,"y":2544735.7500000019}},{"attributes":{"ID":610073,"DIS_CODE":0,"TOWNNAME":"中西區","LI":"協和里","LIN":"15鄰","STREET":"中和街","SECT":" ","MAREA":" ","LANE":" ","ALLEY":" ","HOUSE_NO":"１６５號","E_COORD97":167221.60999999999,"N_COORD97":2544738.52,"ADDRESS":"中和街１６５號","OBJECTID":610046},"geometry":{"x":167221.61000000127,"y":2544738.5199999996}},{"attributes":{"ID":610074,"DIS_CODE":0,"TOWNNAME":"中西區","LI":"協和里","LIN":"15鄰","STREET":"中和街","SECT":" ","MAREA":" ","LANE":" ","ALLEY":" ","HOUSE_NO":"１６７號","E_COORD97":167225.47,"N_COORD97":2544741.3900000001,"ADDRESS":"中和街１６７號","OBJECTID":610047},"geometry":{"x":167225.47000000067,"y":2544741.3900000025}},{"attributes":{"ID":610075,"DIS_CODE":0,"TOWNNAME":"中西區","LI":"協和里","LIN":"15鄰","STREET":"中和街","SECT":" ","MAREA":" ","LANE":" ","ALLEY":" ","HOUSE_NO":"１６９號","E_COORD97":167228.92999999999,"N_COORD97":2544744.25,"ADDRESS":"中和街１６９號","OBJECTID":610048},"geometry":{"x":167228.93000000063,"y":2544744.25}},{"attributes":{"ID":610076,"DIS_CODE":0,"TOWNNAME":"中西區","LI":"協和里","LIN":"15鄰","STREET":"中和街","SECT":" ","MAREA":" ","LANE":" ","ALLEY":" ","HOUSE_NO":"１７１號","E_COORD97":167231.64999999999,"N_COORD97":2544747.7400000002,"ADDRESS":"中和街１７１號","OBJECTID":610049},"geometry":{"x":167231.6500000013,"y":2544747.7400000002}},{"attributes":{"ID":610077,"DIS_CODE":0,"TOWNNAME":"中西區","LI":"協進里","LIN":"6鄰","STREET":"西寧街","SECT":" ","MAREA":" ","LANE":" ","ALLEY":" ","HOUSE_NO":"７６號","E_COORD97":167028.35999999999,"N_COORD97":2544246.29,"ADDRESS":"西寧街７６號","OBJECTID":610050},"geometry":{"x":167028.36000000127,"y":2544246.290000001}},{"attributes":{"ID":610078,"DIS_CODE":0,"TOWNNAME":"中西區","LI":"協和里","LIN":"16鄰","STREET":"西和路","SECT":" ","MAREA":" ","LANE":" ","ALLEY":" ","HOUSE_NO":"２８４號","E_COORD97":167257.32000000001,"N_COORD97":2544835.0499999998,"ADDRESS":"西和路２８４號","OBJECTID":610051},"geometry":{"x":167257.32000000123,"y":2544835.0500000045}},{"attributes":{"ID":610079,"DIS_CODE":0,"TOWNNAME":"中西區","LI":"協和里","LIN":"16鄰","STREET":"西和路","SECT":" ","MAREA":" ","LANE":" ","ALLEY":" ","HOUSE_NO":"２８６號","E_COORD97":167260.10000000001,"N_COORD97":2544837.3999999999,"ADDRESS":"西和路２８６號","OBJECTID":610052},"geometry":{"x":167260.10000000056,"y":2544837.4000000004}},{"attributes":{"ID":610080,"DIS_CODE":0,"TOWNNAME":"中西區","LI":"協和里","LIN":"16鄰","STREET":"西和路","SECT":" ","MAREA":" ","LANE":" ","ALLEY":" ","HOUSE_NO":"２８８號","E_COORD97":167263.85000000001,"N_COORD97":2544839.6499999999,"ADDRESS":"西和路２８８號","OBJECTID":610053},"geometry":{"x":167263.84999999963,"y":2544839.6500000004}},{"attributes":{"ID":610081,"DIS_CODE":0,"TOWNNAME":"中西區","LI":"協和里","LIN":"16鄰","STREET":"和美街","SECT":" ","MAREA":" ","LANE":" ","ALLEY":" ","HOUSE_NO":"３０號","E_COORD97":167165.81,"N_COORD97":2544749.4300000002,"ADDRESS":"和美街３０號","OBJECTID":610054},"geometry":{"x":167165.80999999959,"y":2544749.4299999997}},{"attributes":{"ID":610082,"DIS_CODE":0,"TOWNNAME":"永康區","LI":"永康里","LIN":"3鄰","STREET":"中山路","SECT":" ","MAREA":" ","LANE":" ","ALLEY":" ","HOUSE_NO":"３１號","E_COORD97":173823.73999999999,"N_COORD97":2547494.2400000002,"ADDRESS":"中山路３１號","OBJECTID":610055},"geometry":{"x":173823.74000000115,"y":2547494.2400000002}},{"attributes":{"ID":610083,"DIS_CODE":0,"TOWNNAME":"永康區","LI":"東灣里","LIN":"3鄰","STREET":"大安街","SECT":" ","MAREA":" ","LANE":" ","ALLEY":" ","HOUSE_NO":"１１８號","E_COORD97":174554.92000000001,"N_COORD97":2545062.8999999999,"ADDRESS":"大安街１１８號","OBJECTID":610056},"geometry":{"x":174554.91999999993,"y":2545062.9000000041}},{"attributes":{"ID":610084,"DIS_CODE":0,"TOWNNAME":"永康區","LI":"南灣里","LIN":"3鄰","STREET":"大灣一街","SECT":" ","MAREA":" ","LANE":" ","ALLEY":" ","HOUSE_NO":"１５６號","E_COORD97":174638.88,"N_COORD97":2544598.2400000002,"ADDRESS":"大灣一街１５６號","OBJECTID":610057},"geometry":{"x":174638.88000000175,"y":2544598.2400000002}},{"attributes":{"ID":610085,"DIS_CODE":0,"TOWNNAME":"西港區","LI":"西港里","LIN":"3鄰","STREET":"文化路","SECT":" ","MAREA":" ","LANE":" ","ALLEY":" ","HOUSE_NO":"９號之１","E_COORD97":168454.17999999999,"N_COORD97":2558141.7999999998,"ADDRESS":"文化路９號之１","OBJECTID":610058},"geometry":{"x":168454.18000000156,"y":2558141.8000000026}},{"attributes":{"ID":610086,"DIS_CODE":0,"TOWNNAME":"西港區","LI":"西港里","LIN":"3鄰","STREET":"文化路","SECT":" ","MAREA":" ","LANE":" ","ALLEY":" ","HOUSE_NO":"９號","E_COORD97":168450.62,"N_COORD97":2558139.7999999998,"ADDRESS":"文化路９號","OBJECTID":610059},"geometry":{"x":168450.62000000104,"y":2558139.8000000007}},{"attributes":{"ID":610087,"DIS_CODE":0,"TOWNNAME":"中西區","LI":"仙草里","LIN":"3鄰","STREET":"五妃街","SECT":" ","MAREA":" ","LANE":" ","ALLEY":" ","HOUSE_NO":"３０２號","E_COORD97":167843.67999999999,"N_COORD97":2542598.1600000001,"ADDRESS":"五妃街３０２號","OBJECTID":610060},"geometry":{"x":167843.6799999997,"y":2542598.1600000001}},{"attributes":{"ID":610088,"DIS_CODE":0,"TOWNNAME":"中西區","LI":"五妃里","LIN":"3鄰","STREET":"五妃街","SECT":" ","MAREA":" ","LANE":" ","ALLEY":" ","HOUSE_NO":"２０３號","E_COORD97":168441.23999999999,"N_COORD97":2542564.6000000001,"ADDRESS":"五妃街２０３號","OBJECTID":610061},"geometry":{"x":168441.24000000115,"y":2542564.5999999996}},{"attributes":{"ID":610089,"DIS_CODE":0,"TOWNNAME":"中西區","LI":"五妃里","LIN":"3鄰","STREET":"五妃街","SECT":" ","MAREA":" ","LANE":" ","ALLEY":" ","HOUSE_NO":"２０４號","E_COORD97":168521.04999999999,"N_COORD97":2542586.1800000002,"ADDRESS":"五妃街２０４號","OBJECTID":610062},"geometry":{"x":168521.04999999981,"y":2542586.1800000016}},{"attributes":{"ID":610090,"DIS_CODE":0,"TOWNNAME":"中西區","LI":"仙草里","LIN":"3鄰","STREET":"五妃街","SECT":" ","MAREA":" ","LANE":" ","ALLEY":" ","HOUSE_NO":"２９６號","E_COORD97":167855.57000000001,"N_COORD97":2542598.75,"ADDRESS":"五妃街２９６號","OBJECTID":610063},"geometry":{"x":167855.57000000216,"y":2542598.7500000037}},{"attributes":{"ID":610091,"DIS_CODE":0,"TOWNNAME":"中西區","LI":"法華里","LIN":"3鄰","STREET":"大同路","SECT":"一段","MAREA":" ","LANE":" ","ALLEY":" ","HOUSE_NO":"１６２號","E_COORD97":169105.82000000001,"N_COORD97":2542701.1099999999,"ADDRESS":"大同路一段１６２號","OBJECTID":610064},"geometry":{"x":169105.8200000003,"y":2542701.1100000013}},{"attributes":{"ID":610092,"DIS_CODE":0,"TOWNNAME":"中西區","LI":"法華里","LIN":"3鄰","STREET":"大同路","SECT":"一段","MAREA":" ","LANE":" ","ALLEY":" ","HOUSE_NO":"１６８號","E_COORD97":169106.14999999999,"N_COORD97":2542691.3799999999,"ADDRESS":"大同路一段１６８號","OBJECTID":610065},"geometry":{"x":169106.15000000224,"y":2542691.3799999971}},{"attributes":{"ID":610093,"DIS_CODE":0,"TOWNNAME":"中西區","LI":"郡王里","LIN":"3鄰","STREET":"樹林街","SECT":"二段","MAREA":" ","LANE":" ","ALLEY":" ","HOUSE_NO":"６２號","E_COORD97":168950.70999999999,"N_COORD97":2542982.04,"ADDRESS":"樹林街二段６２號","OBJECTID":610066},"geometry":{"x":168950.70999999996,"y":2542982.0399999972}},{"attributes":{"ID":610094,"DIS_CODE":0,"TOWNNAME":"中西區","LI":"郡王里","LIN":"3鄰","STREET":"樹林街","SECT":"二段","MAREA":" ","LANE":" ","ALLEY":" ","HOUSE_NO":"６８號","E_COORD97":168936.41,"N_COORD97":2542986.2599999998,"ADDRESS":"樹林街二段６８號","OBJECTID":610067},"geometry":{"x":168936.41000000108,"y":2542986.2600000016}},{"attributes":{"ID":610095,"DIS_CODE":0,"TOWNNAME":"中西區","LI":"郡王里","LIN":"3鄰","STREET":"樹林街","SECT":"二段","MAREA":" ","LANE":" ","ALLEY":" ","HOUSE_NO":"７０號","E_COORD97":168930.72,"N_COORD97":2542985.8100000001,"ADDRESS":"樹林街二段７０號","OBJECTID":610068},"geometry":{"x":168930.72000000067,"y":2542985.8100000024}},{"attributes":{"ID":610096,"DIS_CODE":0,"TOWNNAME":"中西區","LI":"郡王里","LIN":"3鄰","STREET":"樹林街","SECT":"二段","MAREA":" ","LANE":" ","ALLEY":" ","HOUSE_NO":"７４號","E_COORD97":168920.69,"N_COORD97":2542985.8999999999,"ADDRESS":"樹林街二段７４號","OBJECTID":610069},"geometry":{"x":168920.69000000041,"y":2542985.9000000022}},{"attributes":{"ID":610097,"DIS_CODE":0,"TOWNNAME":"中西區","LI":"郡王里","LIN":"3鄰","STREET":"樹林街","SECT":"二段","MAREA":" ","LANE":" ","ALLEY":" ","HOUSE_NO":"７６號","E_COORD97":168913.32999999999,"N_COORD97":2542986.6099999999,"ADDRESS":"樹林街二段７６號","OBJECTID":610070},"geometry":{"x":168913.33000000101,"y":2542986.6100000013}},{"attributes":{"ID":610098,"DIS_CODE":0,"TOWNNAME":"中西區","LI":"郡王里","LIN":"3鄰","STREET":"樹林街","SECT":"二段","MAREA":" ","LANE":" ","ALLEY":" ","HOUSE_NO":"７８號","E_COORD97":168934.67000000001,"N_COORD97":2543001.6600000001,"ADDRESS":"樹林街二段７８號","OBJECTID":610071},"geometry":{"x":168934.67000000086,"y":2543001.6600000001}},{"attributes":{"ID":610099,"DIS_CODE":0,"TOWNNAME":"中西區","LI":"福安里","LIN":"3鄰","STREET":"府前路","SECT":"一段","MAREA":" ","LANE":" ","ALLEY":" ","HOUSE_NO":"２９２號","E_COORD97":167907.35999999999,"N_COORD97":2543427.73,"ADDRESS":"府前路一段２９２號","OBJECTID":610072},"geometry":{"x":167907.36000000034,"y":2543427.7300000023}},{"attributes":{"ID":610100,"DIS_CODE":0,"TOWNNAME":"中西區","LI":"福安里","LIN":"3鄰","STREET":"府前路","SECT":"一段","MAREA":" ","LANE":" ","ALLEY":" ","HOUSE_NO":"２９４號","E_COORD97":167901.98000000001,"N_COORD97":2543428.0899999999,"ADDRESS":"府前路一段２９４號","OBJECTID":610073},"geometry":{"x":167901.98000000231,"y":2543428.0900000017}},{"attributes":{"ID":610101,"DIS_CODE":0,"TOWNNAME":"中西區","LI":"福安里","LIN":"3鄰","STREET":"府前路","SECT":"一段","MAREA":" ","LANE":" ","ALLEY":" ","HOUSE_NO":"２９６號","E_COORD97":167897.06,"N_COORD97":2543429.98,"ADDRESS":"府前路一段２９６號","OBJECTID":610074},"geometry":{"x":167897.05999999866,"y":2543429.9800000004}},{"attributes":{"ID":610102,"DIS_CODE":0,"TOWNNAME":"中西區","LI":"福安里","LIN":"3鄰","STREET":"府前路","SECT":"一段","MAREA":" ","LANE":" ","ALLEY":" ","HOUSE_NO":"２９８號","E_COORD97":167891.79999999999,"N_COORD97":2543431.2400000002,"ADDRESS":"府前路一段２９８號","OBJECTID":610075},"geometry":{"x":167891.79999999981,"y":2543431.2400000002}},{"attributes":{"ID":610103,"DIS_CODE":0,"TOWNNAME":"中西區","LI":"福安里","LIN":"3鄰","STREET":"府前路","SECT":"一段","MAREA":" ","LANE":" ","ALLEY":" ","HOUSE_NO":"３００號","E_COORD97":167886.75,"N_COORD97":2543432.02,"ADDRESS":"府前路一段３００號","OBJECTID":610076},"geometry":{"x":167886.75000000093,"y":2543432.0199999996}},{"attributes":{"ID":610104,"DIS_CODE":0,"TOWNNAME":"中西區","LI":"福安里","LIN":"3鄰","STREET":"府前路","SECT":"一段","MAREA":" ","LANE":" ","ALLEY":" ","HOUSE_NO":"３０２號","E_COORD97":167882.45000000001,"N_COORD97":2543432.7400000002,"ADDRESS":"府前路一段３０２號","OBJECTID":610077},"geometry":{"x":167882.45000000019,"y":2543432.7399999984}},{"attributes":{"ID":610105,"DIS_CODE":0,"TOWNNAME":"中西區","LI":"福安里","LIN":"3鄰","STREET":"府前路","SECT":"一段","MAREA":" ","LANE":" ","ALLEY":" ","HOUSE_NO":"３０６號","E_COORD97":167874.92000000001,"N_COORD97":2543433.46,"ADDRESS":"府前路一段３０６號","OBJECTID":610078},"geometry":{"x":167874.92000000086,"y":2543433.4600000028}},{"attributes":{"ID":610106,"DIS_CODE":0,"TOWNNAME":"中西區","LI":"福安里","LIN":"3鄰","STREET":"府前路","SECT":"一段","MAREA":" ","LANE":" ","ALLEY":" ","HOUSE_NO":"３１６號","E_COORD97":167856.29000000001,"N_COORD97":2543437.5699999998,"ADDRESS":"府前路一段３１６號","OBJECTID":610079},"geometry":{"x":167856.29000000004,"y":2543437.570000004}},{"attributes":{"ID":610107,"DIS_CODE":0,"TOWNNAME":"中西區","LI":"福安里","LIN":"3鄰","STREET":"府前路","SECT":"一段","MAREA":" ","LANE":" ","ALLEY":" ","HOUSE_NO":"３１８號","E_COORD97":167853.06,"N_COORD97":2543438.1099999999,"ADDRESS":"府前路一段３１８號","OBJECTID":610080},"geometry":{"x":167853.06000000145,"y":2543438.1099999994}},{"attributes":{"ID":610108,"DIS_CODE":0,"TOWNNAME":"中西區","LI":"福安里","LIN":"3鄰","STREET":"府前路","SECT":"一段","MAREA":" ","LANE":" ","ALLEY":" ","HOUSE_NO":"３２０號","E_COORD97":167848.22,"N_COORD97":2543438.1099999999,"ADDRESS":"府前路一段３２０號","OBJECTID":610081},"geometry":{"x":167848.21999999974,"y":2543438.1099999994}},{"attributes":{"ID":610109,"DIS_CODE":0,"TOWNNAME":"中西區","LI":"福安里","LIN":"3鄰","STREET":"府前路","SECT":"一段","MAREA":" ","LANE":" ","ALLEY":" ","HOUSE_NO":"３２２號","E_COORD97":167843.92000000001,"N_COORD97":2543439.0099999998,"ADDRESS":"府前路一段３２２號","OBJECTID":610082},"geometry":{"x":167843.91999999993,"y":2543439.0100000016}},{"attributes":{"ID":610110,"DIS_CODE":0,"TOWNNAME":"中西區","LI":"福安里","LIN":"3鄰","STREET":"府前路","SECT":"一段","MAREA":" ","LANE":" ","ALLEY":" ","HOUSE_NO":"３２４號","E_COORD97":167839.79999999999,"N_COORD97":2543439.54,"ADDRESS":"府前路一段３２４號","OBJECTID":610083},"geometry":{"x":167839.80000000168,"y":2543439.5399999991}},{"attributes":{"ID":610111,"DIS_CODE":0,"TOWNNAME":"中西區","LI":"福安里","LIN":"3鄰","STREET":"府前路","SECT":"一段","MAREA":" ","LANE":" ","ALLEY":" ","HOUSE_NO":"３２６號","E_COORD97":167835.5,"N_COORD97":2543440.4399999999,"ADDRESS":"府前路一段３２６號","OBJECTID":610084},"geometry":{"x":167835.50000000093,"y":2543440.4399999995}},{"attributes":{"ID":610112,"DIS_CODE":0,"TOWNNAME":"中西區","LI":"福安里","LIN":"3鄰","STREET":"府前路","SECT":"一段","MAREA":" ","LANE":" ","ALLEY":" ","HOUSE_NO":"３３２號","E_COORD97":167824.20999999999,"N_COORD97":2543442.4100000001,"ADDRESS":"府前路一段３３２號","OBJECTID":610085},"geometry":{"x":167824.21000000089,"y":2543442.410000002}},{"attributes":{"ID":610113,"DIS_CODE":0,"TOWNNAME":"中西區","LI":"福安里","LIN":"3鄰","STREET":"府前路","SECT":"一段","MAREA":" ","LANE":" ","ALLEY":" ","HOUSE_NO":"３３４號","E_COORD97":167820.09,"N_COORD97":2543443.2999999998,"ADDRESS":"府前路一段３３４號","OBJECTID":610086},"geometry":{"x":167820.09000000078,"y":2543443.3000000045}},{"attributes":{"ID":610114,"DIS_CODE":0,"TOWNNAME":"中西區","LI":"福安里","LIN":"3鄰","STREET":"府前路","SECT":"一段","MAREA":" ","LANE":" ","ALLEY":" ","HOUSE_NO":"３３６號","E_COORD97":167815.42999999999,"N_COORD97":2543443.6600000001,"ADDRESS":"府前路一段３３６號","OBJECTID":610087},"geometry":{"x":167815.43000000063,"y":2543443.6600000039}},{"attributes":{"ID":610115,"DIS_CODE":0,"TOWNNAME":"中西區","LI":"福安里","LIN":"3鄰","STREET":"府前路","SECT":"一段","MAREA":" ","LANE":" ","ALLEY":" ","HOUSE_NO":"３３８號","E_COORD97":167811.31,"N_COORD97":2543444.5600000001,"ADDRESS":"府前路一段３３８號","OBJECTID":610088},"geometry":{"x":167811.31000000052,"y":2543444.5600000042}},{"attributes":{"ID":610116,"DIS_CODE":0,"TOWNNAME":"中西區","LI":"福安里","LIN":"3鄰","STREET":"府前路","SECT":"一段","MAREA":" ","LANE":" ","ALLEY":" ","HOUSE_NO":"３４０號","E_COORD97":167807.19,"N_COORD97":2543450.46,"ADDRESS":"府前路一段３４０號","OBJECTID":610089},"geometry":{"x":167807.18999999948,"y":2543450.4600000028}},{"attributes":{"ID":610117,"DIS_CODE":0,"TOWNNAME":"中西區","LI":"仙草里","LIN":"3鄰","STREET":"五妃街","SECT":" ","MAREA":" ","LANE":" ","ALLEY":" ","HOUSE_NO":"３００號","E_COORD97":167847.64999999999,"N_COORD97":2542598.5499999998,"ADDRESS":"五妃街３００號","OBJECTID":610090},"geometry":{"x":167847.65000000037,"y":2542598.5500000026}},{"attributes":{"ID":610118,"DIS_CODE":0,"TOWNNAME":"中西區","LI":"法華里","LIN":"3鄰","STREET":"大同路","SECT":"一段","MAREA":" ","LANE":" ","ALLEY":" ","HOUSE_NO":"１８０號","E_COORD97":169104.20000000001,"N_COORD97":2542664.1200000001,"ADDRESS":"大同路一段１８０號","OBJECTID":610091},"geometry":{"x":169104.20000000112,"y":2542664.120000001}},{"attributes":{"ID":610119,"DIS_CODE":0,"TOWNNAME":"中西區","LI":"大南里","LIN":"3鄰","STREET":"南門路","SECT":" ","MAREA":" ","LANE":" ","ALLEY":" ","HOUSE_NO":"５２號","E_COORD97":168356.59,"N_COORD97":2542569.0600000001,"ADDRESS":"南門路５２號","OBJECTID":610092},"geometry":{"x":168356.59000000171,"y":2542569.0600000005}},{"attributes":{"ID":610120,"DIS_CODE":0,"TOWNNAME":"中西區","LI":"大南里","LIN":"3鄰","STREET":"南門路","SECT":" ","MAREA":" ","LANE":" ","ALLEY":" ","HOUSE_NO":"５４號","E_COORD97":168358.35000000001,"N_COORD97":2542566.5899999999,"ADDRESS":"南門路５４號","OBJECTID":610093},"geometry":{"x":168358.35000000056,"y":2542566.5900000017}},{"attributes":{"ID":610121,"DIS_CODE":0,"TOWNNAME":"中西區","LI":"大南里","LIN":"3鄰","STREET":"南門路","SECT":" ","MAREA":" ","LANE":" ","ALLEY":" ","HOUSE_NO":"５６號","E_COORD97":168357.64999999999,"N_COORD97":2542559.9100000001,"ADDRESS":"南門路５６號","OBJECTID":610094},"geometry":{"x":168357.65000000037,"y":2542559.9100000001}},{"attributes":{"ID":610122,"DIS_CODE":0,"TOWNNAME":"中西區","LI":"大南里","LIN":"3鄰","STREET":"南門路","SECT":" ","MAREA":" ","LANE":" ","ALLEY":" ","HOUSE_NO":"５８號","E_COORD97":168358,"N_COORD97":2542554.98,"ADDRESS":"南門路５８號","OBJECTID":610095},"geometry":{"x":168358.00000000093,"y":2542554.9800000023}},{"attributes":{"ID":610123,"DIS_CODE":0,"TOWNNAME":"中西區","LI":"大南里","LIN":"3鄰","STREET":"南門路","SECT":" ","MAREA":" ","LANE":" ","ALLEY":" ","HOUSE_NO":"６０號","E_COORD97":168356.59,"N_COORD97":2542550.4100000001,"ADDRESS":"南門路６０號","OBJECTID":610096},"geometry":{"x":168356.59000000171,"y":2542550.4100000039}},{"attributes":{"ID":610124,"DIS_CODE":0,"TOWNNAME":"中西區","LI":"大南里","LIN":"3鄰","STREET":"南門路","SECT":" ","MAREA":" ","LANE":" ","ALLEY":" ","HOUSE_NO":"６２號之１","E_COORD97":168354.82999999999,"N_COORD97":2542533.1699999999,"ADDRESS":"南門路６２號之１","OBJECTID":610097},"geometry":{"x":168354.83000000007,"y":2542533.1699999999}},{"attributes":{"ID":610125,"DIS_CODE":0,"TOWNNAME":"中西區","LI":"大南里","LIN":"3鄰","STREET":"南門路","SECT":" ","MAREA":" ","LANE":" ","ALLEY":" ","HOUSE_NO":"６４號","E_COORD97":168353.76999999999,"N_COORD97":2542526.4900000002,"ADDRESS":"南門路６４號","OBJECTID":610098},"geometry":{"x":168353.77000000048,"y":2542526.4900000021}},{"attributes":{"ID":610126,"DIS_CODE":0,"TOWNNAME":"中西區","LI":"大南里","LIN":"3鄰","STREET":"南門路","SECT":" ","MAREA":" ","LANE":" ","ALLEY":" ","HOUSE_NO":"６６號","E_COORD97":168354.48000000001,"N_COORD97":2542522.6200000001,"ADDRESS":"南門路６６號","OBJECTID":610099},"geometry":{"x":168354.47999999952,"y":2542522.6200000048}},{"attributes":{"ID":610127,"DIS_CODE":0,"TOWNNAME":"南區","LI":"喜東里","LIN":"3鄰","STREET":"喜樹路","SECT":" ","MAREA":" ","LANE":" ","ALLEY":" ","HOUSE_NO":"１１號","E_COORD97":166325.10999999999,"N_COORD97":2539030.71,"ADDRESS":"喜樹路１１號","OBJECTID":610100},"geometry":{"x":166325.11000000127,"y":2539030.7100000028}},{"attributes":{"ID":610128,"DIS_CODE":0,"TOWNNAME":"仁德區","LI":"田厝里","LIN":"3鄰","STREET":"田厝三街","SECT":" ","MAREA":" ","LANE":" ","ALLEY":" ","HOUSE_NO":"１２０號","E_COORD97":172631.38,"N_COORD97":2537514.5,"ADDRESS":"田厝三街１２０號","OBJECTID":610101},"geometry":{"x":172631.37999999989,"y":2537514.4999999981}},{"attributes":{"ID":610129,"DIS_CODE":0,"TOWNNAME":"南區","LI":"新昌里","LIN":"3鄰","STREET":"國華街","SECT":"一段","MAREA":" ","LANE":" ","ALLEY":" ","HOUSE_NO":"１３５號","E_COORD97":167592.62,"N_COORD97":2542889.48,"ADDRESS":"國華街一段１３５號","OBJECTID":610102},"geometry":{"x":167592.62000000104,"y":2542889.4800000023}},{"attributes":{"ID":610130,"DIS_CODE":0,"TOWNNAME":"南區","LI":"新昌里","LIN":"3鄰","STREET":"國華街","SECT":"一段","MAREA":" ","LANE":" ","ALLEY":" ","HOUSE_NO":"１３３號","E_COORD97":167592.94,"N_COORD97":2542884.4100000001,"ADDRESS":"國華街一段１３３號","OBJECTID":610103},"geometry":{"x":167592.94000000041,"y":2542884.4100000001}},{"attributes":{"ID":610131,"DIS_CODE":0,"TOWNNAME":"南區","LI":"新昌里","LIN":"3鄰","STREET":"國華街","SECT":"一段","MAREA":" ","LANE":" ","ALLEY":" ","HOUSE_NO":"１３１號","E_COORD97":167592.29999999999,"N_COORD97":2542879.9700000002,"ADDRESS":"國華街一段１３１號","OBJECTID":610104},"geometry":{"x":167592.30000000168,"y":2542879.9700000025}},{"attributes":{"ID":610132,"DIS_CODE":0,"TOWNNAME":"南區","LI":"新興里","LIN":"3鄰","STREET":"五妃街","SECT":" ","MAREA":" ","LANE":" ","ALLEY":" ","HOUSE_NO":"４３７號","E_COORD97":167552.89999999999,"N_COORD97":2542579.4500000002,"ADDRESS":"五妃街４３７號","OBJECTID":610105},"geometry":{"x":167552.90000000037,"y":2542579.450000003}},{"attributes":{"ID":610133,"DIS_CODE":0,"TOWNNAME":"南區","LI":"新興里","LIN":"3鄰","STREET":"五妃街","SECT":" ","MAREA":" ","LANE":" ","ALLEY":" ","HOUSE_NO":"４３９號","E_COORD97":167549.04999999999,"N_COORD97":2542579.8900000001,"ADDRESS":"五妃街４３９號","OBJECTID":610106},"geometry":{"x":167549.05000000075,"y":2542579.8900000006}},{"attributes":{"ID":610134,"DIS_CODE":0,"TOWNNAME":"南區","LI":"新興里","LIN":"3鄰","STREET":"五妃街","SECT":" ","MAREA":" ","LANE":" ","ALLEY":" ","HOUSE_NO":"４４５號","E_COORD97":167529.45999999999,"N_COORD97":2542573.0899999999,"ADDRESS":"五妃街４４５號","OBJECTID":610107},"geometry":{"x":167529.46000000089,"y":2542573.0900000017}},{"attributes":{"ID":610135,"DIS_CODE":0,"TOWNNAME":"南區","LI":"新興里","LIN":"3鄰","STREET":"五妃街","SECT":" ","MAREA":" ","LANE":" ","ALLEY":" ","HOUSE_NO":"４４７號","E_COORD97":167524.48999999999,"N_COORD97":2542578.3500000001,"ADDRESS":"五妃街４４７號","OBJECTID":610108},"geometry":{"x":167524.49000000115,"y":2542578.3500000015}},{"attributes":{"ID":610136,"DIS_CODE":0,"TOWNNAME":"南區","LI":"新興里","LIN":"3鄰","STREET":"五妃街","SECT":" ","MAREA":" ","LANE":" ","ALLEY":" ","HOUSE_NO":"４６１號","E_COORD97":167508.14000000001,"N_COORD97":2542575.8300000001,"ADDRESS":"五妃街４６１號","OBJECTID":610109},"geometry":{"x":167508.13999999966,"y":2542575.8300000019}},{"attributes":{"ID":610137,"DIS_CODE":0,"TOWNNAME":"南區","LI":"新興里","LIN":"3鄰","STREET":"五妃街","SECT":" ","MAREA":" ","LANE":" ","ALLEY":" ","HOUSE_NO":"４６３號","E_COORD97":167503.75,"N_COORD97":2542576.3300000001,"ADDRESS":"五妃街４６３號","OBJECTID":610110},"geometry":{"x":167503.75000000093,"y":2542576.3300000001}},{"attributes":{"ID":610138,"DIS_CODE":0,"TOWNNAME":"東區","LI":"東光里","LIN":"3鄰","STREET":"東興路","SECT":" ","MAREA":" ","LANE":" ","ALLEY":" ","HOUSE_NO":"８８號","E_COORD97":170987.48999999999,"N_COORD97":2543579.98,"ADDRESS":"東興路８８號","OBJECTID":610111},"geometry":{"x":170987.49000000115,"y":2543579.9800000004}},{"attributes":{"ID":610139,"DIS_CODE":0,"TOWNNAME":"東區","LI":"後甲里","LIN":"3鄰","STREET":"裕農路","SECT":" ","MAREA":" ","LANE":" ","ALLEY":" ","HOUSE_NO":"６２７號","E_COORD97":171648.44,"N_COORD97":2543241.8500000001,"ADDRESS":"裕農路６２７號","OBJECTID":610112},"geometry":{"x":171648.44000000041,"y":2543241.8500000034}},{"attributes":{"ID":610140,"DIS_CODE":0,"TOWNNAME":"東區","LI":"後甲里","LIN":"3鄰","STREET":"裕農路","SECT":" ","MAREA":" ","LANE":" ","ALLEY":" ","HOUSE_NO":"６３１號","E_COORD97":171656.16,"N_COORD97":2543239.9199999999,"ADDRESS":"裕農路６３１號","OBJECTID":610113},"geometry":{"x":171656.16000000015,"y":2543239.9199999999}},{"attributes":{"ID":610141,"DIS_CODE":0,"TOWNNAME":"東區","LI":"後甲里","LIN":"3鄰","STREET":"裕農路","SECT":" ","MAREA":" ","LANE":" ","ALLEY":" ","HOUSE_NO":"６３３號","E_COORD97":171660.01999999999,"N_COORD97":2543241.1299999999,"ADDRESS":"裕農路６３３號","OBJECTID":610114},"geometry":{"x":171660.01999999955,"y":2543241.129999999}},{"attributes":{"ID":610142,"DIS_CODE":0,"TOWNNAME":"東區","LI":"後甲里","LIN":"3鄰","STREET":"裕農路","SECT":" ","MAREA":" ","LANE":" ","ALLEY":" ","HOUSE_NO":"６４７號","E_COORD97":171685.35000000001,"N_COORD97":2543243.2999999998,"ADDRESS":"裕農路６４７號","OBJECTID":610115},"geometry":{"x":171685.34999999963,"y":2543243.3000000045}},{"attributes":{"ID":610143,"DIS_CODE":0,"TOWNNAME":"仁德區","LI":"仁德里","LIN":"3鄰","STREET":"仁中三街","SECT":" ","MAREA":" ","LANE":" ","ALLEY":" ","HOUSE_NO":"３３號","E_COORD97":173369.56,"N_COORD97":2540411.75,"ADDRESS":"仁中三街３３號","OBJECTID":610116},"geometry":{"x":173369.56000000052,"y":2540411.7500000037}},{"attributes":{"ID":610144,"DIS_CODE":0,"TOWNNAME":"永康區","LI":"\u25A0行里","LIN":"3鄰","STREET":"中正路","SECT":" ","MAREA":" ","LANE":" ","ALLEY":" ","HOUSE_NO":"８５２號","E_COORD97":172140.12,"N_COORD97":2548792,"ADDRESS":"中正路８５２號","OBJECTID":610117},"geometry":{"x":172140.12000000011,"y":2548792.0000000019}},{"attributes":{"ID":610145,"DIS_CODE":0,"TOWNNAME":"永康區","LI":"\u25A0行里","LIN":"3鄰","STREET":"中正路","SECT":" ","MAREA":" ","LANE":" ","ALLEY":" ","HOUSE_NO":"８５４號之２","E_COORD97":172125.41,"N_COORD97":2548778.54,"ADDRESS":"中正路８５４號之２","OBJECTID":610118},"geometry":{"x":172125.41000000108,"y":2548778.5399999991}},{"attributes":{"ID":610146,"DIS_CODE":0,"TOWNNAME":"永康區","LI":"龍潭里","LIN":"3鄰","STREET":"龍國街","SECT":" ","MAREA":" ","LANE":" ","ALLEY":" ","HOUSE_NO":"２９７號","E_COORD97":174647.92000000001,"N_COORD97":2548026.8500000001,"ADDRESS":"龍國街２９７號","OBJECTID":610119},"geometry":{"x":174647.91999999993,"y":2548026.8500000015}},{"attributes":{"ID":610147,"DIS_CODE":0,"TOWNNAME":"中西區","LI":"公正里","LIN":"3鄰","STREET":"北門路","SECT":"一段","MAREA":" ","LANE":" ","ALLEY":" ","HOUSE_NO":"１１３號","E_COORD97":169182.29000000001,"N_COORD97":2543909.6000000001,"ADDRESS":"北門路一段１１３號","OBJECTID":610120},"geometry":{"x":169182.29000000004,"y":2543909.5999999996}},{"attributes":{"ID":610148,"DIS_CODE":0,"TOWNNAME":"中西區","LI":"公正里","LIN":"3鄰","STREET":"北門路","SECT":"一段","MAREA":" ","LANE":" ","ALLEY":" ","HOUSE_NO":"１１５號","E_COORD97":169175.78,"N_COORD97":2543921.5,"ADDRESS":"北門路一段１１５號","OBJECTID":610121},"geometry":{"x":169175.78000000026,"y":2543921.5}},{"attributes":{"ID":610149,"DIS_CODE":0,"TOWNNAME":"中西區","LI":"公正里","LIN":"3鄰","STREET":"北門路","SECT":"一段","MAREA":" ","LANE":" ","ALLEY":" ","HOUSE_NO":"１１７號","E_COORD97":169175.78,"N_COORD97":2543926.8599999999,"ADDRESS":"北門路一段１１７號","OBJECTID":610122},"geometry":{"x":169175.78000000026,"y":2543926.8600000013}},{"attributes":{"ID":610150,"DIS_CODE":0,"TOWNNAME":"中西區","LI":"公正里","LIN":"3鄰","STREET":"北門路","SECT":"一段","MAREA":" ","LANE":" ","ALLEY":" ","HOUSE_NO":"１１９號","E_COORD97":169175.45000000001,"N_COORD97":2543930.5499999998,"ADDRESS":"北門路一段１１９號","OBJECTID":610123},"geometry":{"x":169175.45000000112,"y":2543930.5500000026}},{"attributes":{"ID":610151,"DIS_CODE":0,"TOWNNAME":"中西區","LI":"公正里","LIN":"3鄰","STREET":"北門路","SECT":"一段","MAREA":" ","LANE":" ","ALLEY":" ","HOUSE_NO":"１２１號","E_COORD97":169175.78,"N_COORD97":2543934.9100000001,"ADDRESS":"北門路一段１２１號","OBJECTID":610124},"geometry":{"x":169175.78000000026,"y":2543934.910000002}},{"attributes":{"ID":610152,"DIS_CODE":0,"TOWNNAME":"中西區","LI":"公正里","LIN":"3鄰","STREET":"民族路","SECT":"二段","MAREA":" ","LANE":" ","ALLEY":" ","HOUSE_NO":"１０號","E_COORD97":169153.14000000001,"N_COORD97":2543902.52,"ADDRESS":"民族路二段１０號","OBJECTID":610125},"geometry":{"x":169153.1400000006,"y":2543902.5200000014}},{"attributes":{"ID":610153,"DIS_CODE":0,"TOWNNAME":"中西區","LI":"公正里","LIN":"3鄰","STREET":"民族路","SECT":"二段","MAREA":" ","LANE":" ","ALLEY":" ","HOUSE_NO":"１０號之１","E_COORD97":169149.89999999999,"N_COORD97":2543902.3199999998,"ADDRESS":"民族路二段１０號之１","OBJECTID":610126},"geometry":{"x":169149.90000000037,"y":2543902.3200000003}},{"attributes":{"ID":610154,"DIS_CODE":0,"TOWNNAME":"中西區","LI":"公正里","LIN":"3鄰","STREET":"民族路","SECT":"二段","MAREA":" ","LANE":" ","ALLEY":" ","HOUSE_NO":"１２號","E_COORD97":169144.84,"N_COORD97":2543902.52,"ADDRESS":"民族路二段１２號","OBJECTID":610127},"geometry":{"x":169144.84000000171,"y":2543902.5200000014}},{"attributes":{"ID":610155,"DIS_CODE":0,"TOWNNAME":"中西區","LI":"公正里","LIN":"3鄰","STREET":"民族路","SECT":"二段","MAREA":" ","LANE":" ","ALLEY":" ","HOUSE_NO":"２號","E_COORD97":169175,"N_COORD97":2543904.75,"ADDRESS":"民族路二段２號","OBJECTID":610128},"geometry":{"x":169175.00000000093,"y":2543904.7500000019}},{"attributes":{"ID":610156,"DIS_CODE":0,"TOWNNAME":"中西區","LI":"公正里","LIN":"3鄰","STREET":"民族路","SECT":"二段","MAREA":" ","LANE":" ","ALLEY":" ","HOUSE_NO":"４號","E_COORD97":169170.95000000001,"N_COORD97":2543903.5299999998,"ADDRESS":"民族路二段４號","OBJECTID":610129},"geometry":{"x":169170.95000000019,"y":2543903.5299999993}},{"attributes":{"ID":610157,"DIS_CODE":0,"TOWNNAME":"中西區","LI":"公正里","LIN":"3鄰","STREET":"民族路","SECT":"二段","MAREA":" ","LANE":" ","ALLEY":" ","HOUSE_NO":"６號","E_COORD97":169164.07000000001,"N_COORD97":2543903.3300000001,"ADDRESS":"民族路二段６號","OBJECTID":610130},"geometry":{"x":169164.06999999937,"y":2543903.3300000038}},{"attributes":{"ID":610158,"DIS_CODE":0,"TOWNNAME":"中西區","LI":"公正里","LIN":"3鄰","STREET":"民族路","SECT":"二段","MAREA":" ","LANE":" ","ALLEY":" ","HOUSE_NO":"８號","E_COORD97":169157.79000000001,"N_COORD97":2543903.1299999999,"ADDRESS":"民族路二段８號","OBJECTID":610131},"geometry":{"x":169157.79000000097,"y":2543903.129999999}},{"attributes":{"ID":610159,"DIS_CODE":0,"TOWNNAME":"中西區","LI":"三民里","LIN":"3鄰","STREET":"公園路","SECT":" ","MAREA":" ","LANE":" ","ALLEY":" ","HOUSE_NO":"３號","E_COORD97":168454.17999999999,"N_COORD97":2543725.79,"ADDRESS":"公園路３號","OBJECTID":610132},"geometry":{"x":168454.18000000156,"y":2543725.7899999991}},{"attributes":{"ID":610160,"DIS_CODE":0,"TOWNNAME":"中西區","LI":"三民里","LIN":"3鄰","STREET":"公園路","SECT":" ","MAREA":" ","LANE":" ","ALLEY":" ","HOUSE_NO":"７號","E_COORD97":168457.76999999999,"N_COORD97":2543730.6899999999,"ADDRESS":"公園路７號","OBJECTID":610133},"geometry":{"x":168457.76999999955,"y":2543730.6899999976}},{"attributes":{"ID":610161,"DIS_CODE":0,"TOWNNAME":"中西區","LI":"三民里","LIN":"3鄰","STREET":"公園路","SECT":" ","MAREA":" ","LANE":" ","ALLEY":" ","HOUSE_NO":"９號","E_COORD97":168461.92000000001,"N_COORD97":2543734.46,"ADDRESS":"公園路９號","OBJECTID":610134},"geometry":{"x":168461.92000000086,"y":2543734.4600000028}},{"attributes":{"ID":610162,"DIS_CODE":0,"TOWNNAME":"中西區","LI":"三民里","LIN":"3鄰","STREET":"民生路","SECT":"一段","MAREA":" ","LANE":" ","ALLEY":" ","HOUSE_NO":"１２號","E_COORD97":168427.82000000001,"N_COORD97":2543738.96,"ADDRESS":"民生路一段１２號","OBJECTID":610135},"geometry":{"x":168427.8200000003,"y":2543738.9600000028}},{"attributes":{"ID":610163,"DIS_CODE":0,"TOWNNAME":"中西區","LI":"三民里","LIN":"3鄰","STREET":"民生路","SECT":"一段","MAREA":" ","LANE":" ","ALLEY":" ","HOUSE_NO":"１４號","E_COORD97":168429.06,"N_COORD97":2543733.4100000001,"ADDRESS":"民生路一段１４號","OBJECTID":610136},"geometry":{"x":168429.05999999959,"y":2543733.4100000039}},{"attributes":{"ID":610164,"DIS_CODE":0,"TOWNNAME":"中西區","LI":"三民里","LIN":"3鄰","STREET":"民生路","SECT":"一段","MAREA":" ","LANE":" ","ALLEY":" ","HOUSE_NO":"１６號","E_COORD97":168425.35000000001,"N_COORD97":2543741.7400000002,"ADDRESS":"民生路一段１６號","OBJECTID":610137},"geometry":{"x":168425.34999999963,"y":2543741.7400000021}},{"attributes":{"ID":610165,"DIS_CODE":0,"TOWNNAME":"中西區","LI":"三民里","LIN":"3鄰","STREET":"民生路","SECT":"一段","MAREA":" ","LANE":" ","ALLEY":" ","HOUSE_NO":"１８號","E_COORD97":168419.79000000001,"N_COORD97":2543741.1200000001,"ADDRESS":"民生路一段１８號","OBJECTID":610138},"geometry":{"x":168419.78999999911,"y":2543741.1200000029}},{"attributes":{"ID":610166,"DIS_CODE":0,"TOWNNAME":"中西區","LI":"三民里","LIN":"3鄰","STREET":"民生路","SECT":"一段","MAREA":" ","LANE":" ","ALLEY":" ","HOUSE_NO":"２０號","E_COORD97":168415.76999999999,"N_COORD97":2543744.21,"ADDRESS":"民生路一段２０號","OBJECTID":610139},"geometry":{"x":168415.76999999955,"y":2543744.2100000009}},{"attributes":{"ID":610167,"DIS_CODE":0,"TOWNNAME":"中西區","LI":"三民里","LIN":"3鄰","STREET":"民生路","SECT":"一段","MAREA":" ","LANE":" ","ALLEY":" ","HOUSE_NO":"２０號之１","E_COORD97":168421.95000000001,"N_COORD97":2543752.8500000001,"ADDRESS":"民生路一段２０號之１","OBJECTID":610140},"geometry":{"x":168421.95000000019,"y":2543752.8499999996}},{"attributes":{"ID":610168,"DIS_CODE":0,"TOWNNAME":"中西區","LI":"三民里","LIN":"3鄰","STREET":"民生路","SECT":"一段","MAREA":" ","LANE":" ","ALLEY":" ","HOUSE_NO":"２號","E_COORD97":168449.84,"N_COORD97":2543719.3799999999,"ADDRESS":"民生路一段２號","OBJECTID":610141},"geometry":{"x":168449.84000000171,"y":2543719.3800000008}},{"attributes":{"ID":610169,"DIS_CODE":0,"TOWNNAME":"中西區","LI":"三民里","LIN":"3鄰","STREET":"民生路","SECT":"一段","MAREA":" ","LANE":" ","ALLEY":" ","HOUSE_NO":"６號","E_COORD97":168444.73999999999,"N_COORD97":2543722.21,"ADDRESS":"民生路一段６號","OBJECTID":610142},"geometry":{"x":168444.74000000115,"y":2543722.2100000046}},{"attributes":{"ID":610170,"DIS_CODE":0,"TOWNNAME":"中西區","LI":"三民里","LIN":"3鄰","STREET":"民生路","SECT":"一段","MAREA":" ","LANE":" ","ALLEY":" ","HOUSE_NO":"８號","E_COORD97":168441.72,"N_COORD97":2543724.0899999999,"ADDRESS":"民生路一段８號","OBJECTID":610143},"geometry":{"x":168441.71999999974,"y":2543724.0899999999}},{"attributes":{"ID":610171,"DIS_CODE":0,"TOWNNAME":"新化區","LI":"竹林里","LIN":"3鄰","STREET":"民權街","SECT":" ","MAREA":" ","LANE":" ","ALLEY":" ","HOUSE_NO":"１８號","E_COORD97":178782.06,"N_COORD97":2548458.25,"ADDRESS":"民權街１８號","OBJECTID":610144},"geometry":{"x":178782.06000000145,"y":2548458.2500000019}},{"attributes":{"ID":610172,"DIS_CODE":0,"TOWNNAME":"新化區","LI":"竹林里","LIN":"3鄰","STREET":"長青街","SECT":" ","MAREA":" ","LANE":" ","ALLEY":" ","HOUSE_NO":"９號","E_COORD97":178806.73000000001,"N_COORD97":2548482.25,"ADDRESS":"長青街９號","OBJECTID":610145},"geometry":{"x":178806.73000000045,"y":2548482.2500000019}},{"attributes":{"ID":610173,"DIS_CODE":0,"TOWNNAME":"新化區","LI":"觀音里","LIN":"3鄰","STREET":"中山路","SECT":" ","MAREA":" ","LANE":" ","ALLEY":" ","HOUSE_NO":"３３２號","E_COORD97":178937.70999999999,"N_COORD97":2548429.25,"ADDRESS":"中山路３３２號","OBJECTID":610146},"geometry":{"x":178937.71000000089,"y":2548429.25}},{"attributes":{"ID":610174,"DIS_CODE":0,"TOWNNAME":"新化區","LI":"竹林里","LIN":"3鄰","STREET":"民權街","SECT":" ","MAREA":" ","LANE":" ","ALLEY":" ","HOUSE_NO":"１６號","E_COORD97":178785.76000000001,"N_COORD97":2548453.25,"ADDRESS":"民權街１６號","OBJECTID":610147},"geometry":{"x":178785.75999999885,"y":2548453.25}},{"attributes":{"ID":610175,"DIS_CODE":0,"TOWNNAME":"東區","LI":"大福里","LIN":"3鄰","STREET":"榮譽街","SECT":" ","MAREA":" ","LANE":" ","ALLEY":" ","HOUSE_NO":"４５號之１","E_COORD97":169644.16,"N_COORD97":2541658.75,"ADDRESS":"榮譽街４５號之１","OBJECTID":610148},"geometry":{"x":169644.16000000015,"y":2541658.75}},{"attributes":{"ID":610176,"DIS_CODE":0,"TOWNNAME":"東區","LI":"大福里","LIN":"3鄰","STREET":"榮譽街","SECT":" ","MAREA":" ","LANE":" ","ALLEY":" ","HOUSE_NO":"４５號","E_COORD97":169652.79999999999,"N_COORD97":2541662.0499999998,"ADDRESS":"榮譽街４５號","OBJECTID":610149},"geometry":{"x":169652.80000000075,"y":2541662.0500000026}},{"attributes":{"ID":610177,"DIS_CODE":0,"TOWNNAME":"東區","LI":"大福里","LIN":"3鄰","STREET":"榮譽街","SECT":" ","MAREA":" ","LANE":" ","ALLEY":" ","HOUSE_NO":"４５號之２","E_COORD97":169649.75,"N_COORD97":2541660.2799999998,"ADDRESS":"榮譽街４５號之２","OBJECTID":610150},"geometry":{"x":169649.75000000093,"y":2541660.2799999993}},{"attributes":{"ID":610178,"DIS_CODE":0,"TOWNNAME":"白河區","LI":"白河里","LIN":"3鄰","STREET":"九龍街","SECT":" ","MAREA":" ","LANE":" ","ALLEY":" ","HOUSE_NO":"６號","E_COORD97":190186.29000000001,"N_COORD97":2582873.1400000001,"ADDRESS":"九龍街６號","OBJECTID":610151},"geometry":{"x":190186.29000000097,"y":2582873.1400000006}},{"attributes":{"ID":610179,"DIS_CODE":0,"TOWNNAME":"永康區","LI":"尚頂里","LIN":"3鄰","STREET":"中正二街","SECT":" ","MAREA":" ","LANE":" ","ALLEY":" ","HOUSE_NO":"１７０號","E_COORD97":171389.57999999999,"N_COORD97":2547714.6800000002,"ADDRESS":"中正二街１７０號","OBJECTID":610152},"geometry":{"x":171389.58000000194,"y":2547714.6799999978}},{"attributes":{"ID":610180,"DIS_CODE":0,"TOWNNAME":"永康區","LI":"尚頂里","LIN":"3鄰","STREET":"中正二街","SECT":" ","MAREA":" ","LANE":" ","ALLEY":" ","HOUSE_NO":"１８０號","E_COORD97":171419.67000000001,"N_COORD97":2547731.6800000002,"ADDRESS":"中正二街１８０號","OBJECTID":610153},"geometry":{"x":171419.67000000086,"y":2547731.6800000034}},{"attributes":{"ID":610181,"DIS_CODE":0,"TOWNNAME":"永康區","LI":"西灣里","LIN":"3鄰","STREET":"大安街","SECT":" ","MAREA":" ","LANE":" ","ALLEY":" ","HOUSE_NO":"１７８號","E_COORD97":174645.59,"N_COORD97":2545204.8199999998,"ADDRESS":"大安街１７８號","OBJECTID":610154},"geometry":{"x":174645.58999999985,"y":2545204.8200000003}},{"attributes":{"ID":610182,"DIS_CODE":0,"TOWNNAME":"永康區","LI":"\u25A0行里","LIN":"3鄰","STREET":"中正路","SECT":" ","MAREA":" ","LANE":" ","ALLEY":" ","HOUSE_NO":"９２２號","E_COORD97":172017.39999999999,"N_COORD97":2548889.29,"ADDRESS":"中正路９２２號","OBJECTID":610155},"geometry":{"x":172017.4000000013,"y":2548889.2899999991}},{"attributes":{"ID":610183,"DIS_CODE":0,"TOWNNAME":"永康區","LI":"\u25A0洲里","LIN":"3鄰","STREET":"\u25A0洲二街","SECT":" ","MAREA":" ","LANE":" ","ALLEY":" ","HOUSE_NO":"１１２號","E_COORD97":171596.76000000001,"N_COORD97":2549264.5099999998,"ADDRESS":"\u25A0洲二街１１２號","OBJECTID":610156},"geometry":{"x":171596.76000000071,"y":2549264.5099999998}},{"attributes":{"ID":610184,"DIS_CODE":0,"TOWNNAME":"永康區","LI":"\u25A0行里","LIN":"3鄰","STREET":"中正路","SECT":" ","MAREA":" ","LANE":" ","ALLEY":" ","HOUSE_NO":"８６２號","E_COORD97":172110.60999999999,"N_COORD97":2548797.7999999998,"ADDRESS":"中正路８６２號","OBJECTID":610157},"geometry":{"x":172110.61000000127,"y":2548797.8000000026}},{"attributes":{"ID":610185,"DIS_CODE":0,"TOWNNAME":"永康區","LI":"龍潭里","LIN":"3鄰","STREET":"龍國街","SECT":" ","MAREA":" ","LANE":" ","ALLEY":" ","HOUSE_NO":"２０７號","E_COORD97":174443.70000000001,"N_COORD97":2548055.3999999999,"ADDRESS":"龍國街２０７號","OBJECTID":610158},"geometry":{"x":174443.70000000205,"y":2548055.4000000004}},{"attributes":{"ID":610186,"DIS_CODE":0,"TOWNNAME":"永康區","LI":"龍潭里","LIN":"3鄰","STREET":"龍國街","SECT":" ","MAREA":" ","LANE":" ","ALLEY":" ","HOUSE_NO":"２９３號","E_COORD97":174637.60999999999,"N_COORD97":2548028.1000000001,"ADDRESS":"龍國街２９３號","OBJECTID":610159},"geometry":{"x":174637.6099999994,"y":2548028.1000000015}},{"attributes":{"ID":610187,"DIS_CODE":0,"TOWNNAME":"永康區","LI":"新樹里","LIN":"3鄰","STREET":"富強路","SECT":"二段","MAREA":" ","LANE":" ","ALLEY":" ","HOUSE_NO":"３７０號","E_COORD97":175583.56,"N_COORD97":2547645.4900000002,"ADDRESS":"富強路二段３７０號","OBJECTID":610160},"geometry":{"x":175583.56000000052,"y":2547645.4900000039}},{"attributes":{"ID":610188,"DIS_CODE":0,"TOWNNAME":"永康區","LI":"龍潭里","LIN":"3鄰","STREET":"龍安街","SECT":" ","MAREA":" ","LANE":" ","ALLEY":" ","HOUSE_NO":"２１號","E_COORD97":174564.70999999999,"N_COORD97":2548092.27,"ADDRESS":"龍安街２１號","OBJECTID":610161},"geometry":{"x":174564.70999999996,"y":2548092.2699999996}},{"attributes":{"ID":610189,"DIS_CODE":0,"TOWNNAME":"永康區","LI":"新樹里","LIN":"3鄰","STREET":"富強路","SECT":"二段","MAREA":" ","LANE":" ","ALLEY":" ","HOUSE_NO":"３３３號之２","E_COORD97":175555.29000000001,"N_COORD97":2547579.8300000001,"ADDRESS":"富強路二段３３３號之２","OBJECTID":610162},"geometry":{"x":175555.29000000097,"y":2547579.8300000019}},{"attributes":{"ID":610190,"DIS_CODE":0,"TOWNNAME":"永康區","LI":"新樹里","LIN":"3鄰","STREET":"富強路","SECT":"二段","MAREA":" ","LANE":" ","ALLEY":" ","HOUSE_NO":"３４４號","E_COORD97":175589.64000000001,"N_COORD97":2547583.6699999999,"ADDRESS":"富強路二段３４４號","OBJECTID":610163},"geometry":{"x":175589.6400000006,"y":2547583.6700000018}},{"attributes":{"ID":610191,"DIS_CODE":0,"TOWNNAME":"永康區","LI":"新樹里","LIN":"3鄰","STREET":"富強路","SECT":"二段","MAREA":" ","LANE":" ","ALLEY":" ","HOUSE_NO":"３３７號","E_COORD97":175553.14000000001,"N_COORD97":2547591.8999999999,"ADDRESS":"富強路二段３３７號","OBJECTID":610164},"geometry":{"x":175553.13999999966,"y":2547591.9000000041}},{"attributes":{"ID":610192,"DIS_CODE":0,"TOWNNAME":"永康區","LI":"龍潭里","LIN":"3鄰","STREET":"龍安街","SECT":" ","MAREA":" ","LANE":" ","ALLEY":" ","HOUSE_NO":"１５號","E_COORD97":174561.81,"N_COORD97":2548074.1800000002,"ADDRESS":"龍安街１５號","OBJECTID":610165},"geometry":{"x":174561.80999999959,"y":2548074.1800000034}},{"attributes":{"ID":610193,"DIS_CODE":0,"TOWNNAME":"永康區","LI":"蔦松里","LIN":"3鄰","STREET":"中正北路","SECT":" ","MAREA":" ","LANE":" ","ALLEY":" ","HOUSE_NO":"６１５號","E_COORD97":174015.41,"N_COORD97":2549286.9900000002,"ADDRESS":"中正北路６１５號","OBJECTID":610166},"geometry":{"x":174015.41000000108,"y":2549286.9900000021}},{"attributes":{"ID":610194,"DIS_CODE":0,"TOWNNAME":"永康區","LI":"新樹里","LIN":"3鄰","STREET":"富強路","SECT":"二段","MAREA":" ","LANE":" ","ALLEY":" ","HOUSE_NO":"３３０號","E_COORD97":175594.95999999999,"N_COORD97":2547548.21,"ADDRESS":"富強路二段３３０號","OBJECTID":610167},"geometry":{"x":175594.96000000089,"y":2547548.2100000009}},{"attributes":{"ID":610195,"DIS_CODE":0,"TOWNNAME":"永康區","LI":"蔦松里","LIN":"3鄰","STREET":"中正北路","SECT":" ","MAREA":" ","LANE":" ","ALLEY":" ","HOUSE_NO":"６２１號","E_COORD97":174022.39999999999,"N_COORD97":2549294.4900000002,"ADDRESS":"中正北路６２１號","OBJECTID":610168},"geometry":{"x":174022.4000000013,"y":2549294.4900000021}},{"attributes":{"ID":610196,"DIS_CODE":0,"TOWNNAME":"仁德區","LI":"土庫里","LIN":"3鄰","STREET":"土庫三街","SECT":" ","MAREA":" ","LANE":" ","ALLEY":" ","HOUSE_NO":"７２號","E_COORD97":174278.16,"N_COORD97":2543064.4900000002,"ADDRESS":"土庫三街７２號","OBJECTID":610169},"geometry":{"x":174278.16000000108,"y":2543064.4900000002}},{"attributes":{"ID":610197,"DIS_CODE":0,"TOWNNAME":"仁德區","LI":"土庫里","LIN":"3鄰","STREET":"土庫路","SECT":" ","MAREA":" ","LANE":" ","ALLEY":" ","HOUSE_NO":"１３０號","E_COORD97":174345.20999999999,"N_COORD97":2542994.75,"ADDRESS":"土庫路１３０號","OBJECTID":610170},"geometry":{"x":174345.21000000089,"y":2542994.75}},{"attributes":{"ID":610198,"DIS_CODE":0,"TOWNNAME":"永康區","LI":"\u25A0洲里","LIN":"3鄰","STREET":"\u25A0洲二街","SECT":" ","MAREA":" ","LANE":" ","ALLEY":" ","HOUSE_NO":"１２０號","E_COORD97":171605.98999999999,"N_COORD97":2549274.0099999998,"ADDRESS":"\u25A0洲二街１２０號","OBJECTID":610171},"geometry":{"x":171605.99000000115,"y":2549274.0099999998}},{"attributes":{"ID":610199,"DIS_CODE":0,"TOWNNAME":"永康區","LI":"\u25A0洲里","LIN":"3鄰","STREET":"\u25A0行路","SECT":" ","MAREA":" ","LANE":" ","ALLEY":" ","HOUSE_NO":"７０號","E_COORD97":171600.98000000001,"N_COORD97":2549233.73,"ADDRESS":"\u25A0行路７０號","OBJECTID":610172},"geometry":{"x":171600.98000000231,"y":2549233.7300000004}},{"attributes":{"ID":610200,"DIS_CODE":0,"TOWNNAME":"永康區","LI":"\u25A0洲里","LIN":"3鄰","STREET":"\u25A0行路","SECT":" ","MAREA":" ","LANE":" ","ALLEY":" ","HOUSE_NO":"５８號","E_COORD97":171625.56,"N_COORD97":2549232.48,"ADDRESS":"\u25A0行路５８號","OBJECTID":610173},"geometry":{"x":171625.56000000052,"y":2549232.4800000042}},{"attributes":{"ID":610201,"DIS_CODE":0,"TOWNNAME":"永康區","LI":"\u25A0洲里","LIN":"3鄰","STREET":"\u25A0洲二街","SECT":" ","MAREA":" ","LANE":" ","ALLEY":" ","HOUSE_NO":"２０６號","E_COORD97":171767.16,"N_COORD97":2549408.8399999999,"ADDRESS":"\u25A0洲二街２０６號","OBJECTID":610174},"geometry":{"x":171767.16000000201,"y":2549408.839999998}},{"attributes":{"ID":610202,"DIS_CODE":0,"TOWNNAME":"永康區","LI":"甲頂里","LIN":"3鄰","STREET":"中正南路","SECT":" ","MAREA":" ","LANE":" ","ALLEY":" ","HOUSE_NO":"１５８號","E_COORD97":169731.84,"N_COORD97":2546975.7400000002,"ADDRESS":"中正南路１５８號","OBJECTID":610175},"geometry":{"x":169731.84000000078,"y":2546975.7400000039}},{"attributes":{"ID":610203,"DIS_CODE":0,"TOWNNAME":"善化區","LI":"坐駕里","LIN":"3鄰","STREET":"中興路","SECT":" ","MAREA":" ","LANE":" ","ALLEY":" ","HOUSE_NO":"１８號","E_COORD97":177747.69,"N_COORD97":2559015.75,"ADDRESS":"中興路１８號","OBJECTID":610176},"geometry":{"x":177747.69000000041,"y":2559015.7500000019}},{"attributes":{"ID":610204,"DIS_CODE":0,"TOWNNAME":"永康區","LI":"網寮里","LIN":"3鄰","STREET":"永二街","SECT":" ","MAREA":" ","LANE":" ","ALLEY":" ","HOUSE_NO":"６０號","E_COORD97":173605.48999999999,"N_COORD97":2546667.7400000002,"ADDRESS":"永二街６０號","OBJECTID":610177},"geometry":{"x":173605.49000000022,"y":2546667.7400000021}},{"attributes":{"ID":610205,"DIS_CODE":0,"TOWNNAME":"永康區","LI":"網寮里","LIN":"3鄰","STREET":"永二街","SECT":" ","MAREA":" ","LANE":" ","ALLEY":" ","HOUSE_NO":"６４號之５","E_COORD97":173594.31,"N_COORD97":2546629.9100000001,"ADDRESS":"永二街６４號之５","OBJECTID":610178},"geometry":{"x":173594.30999999959,"y":2546629.910000002}},{"attributes":{"ID":610206,"DIS_CODE":0,"TOWNNAME":"永康區","LI":"網寮里","LIN":"3鄰","STREET":"永二街","SECT":" ","MAREA":" ","LANE":" ","ALLEY":" ","HOUSE_NO":"６４號","E_COORD97":173595.54000000001,"N_COORD97":2546646.2799999998,"ADDRESS":"永二街６４號","OBJECTID":610179},"geometry":{"x":173595.54000000097,"y":2546646.2800000012}},{"attributes":{"ID":610207,"DIS_CODE":0,"TOWNNAME":"永康區","LI":"\u25A0行里","LIN":"3鄰","STREET":"中正七街","SECT":" ","MAREA":" ","LANE":" ","ALLEY":" ","HOUSE_NO":"３號","E_COORD97":172055.45000000001,"N_COORD97":2548875.7599999998,"ADDRESS":"中正七街３號","OBJECTID":610180},"geometry":{"x":172055.45000000112,"y":2548875.7599999998}},{"attributes":{"ID":610208,"DIS_CODE":0,"TOWNNAME":"永康區","LI":"\u25A0行里","LIN":"3鄰","STREET":"中正七街","SECT":" ","MAREA":" ","LANE":" ","ALLEY":" ","HOUSE_NO":"１５號底一層之１","E_COORD97":172079.75,"N_COORD97":2548890.8100000001,"ADDRESS":"中正七街１５號底一層之１","OBJECTID":610181},"geometry":{"x":172079.75,"y":2548890.8100000005}},{"attributes":{"ID":610209,"DIS_CODE":0,"TOWNNAME":"永康區","LI":"中華里","LIN":"3鄰","STREET":"小東路","SECT":" ","MAREA":" ","LANE":" ","ALLEY":" ","HOUSE_NO":"６６３號","E_COORD97":171979.32000000001,"N_COORD97":2544340.8700000001,"ADDRESS":"小東路６６３號","OBJECTID":610182},"geometry":{"x":171979.3200000003,"y":2544340.870000001}},{"attributes":{"ID":610210,"DIS_CODE":0,"TOWNNAME":"永康區","LI":"中華里","LIN":"3鄰","STREET":"小東路","SECT":" ","MAREA":" ","LANE":" ","ALLEY":" ","HOUSE_NO":"６７７號","E_COORD97":172013.17000000001,"N_COORD97":2544341.02,"ADDRESS":"小東路６７７號","OBJECTID":610183},"geometry":{"x":172013.17000000086,"y":2544341.0199999996}},{"attributes":{"ID":610211,"DIS_CODE":0,"TOWNNAME":"永康區","LI":"中華里","LIN":"3鄰","STREET":"小東路","SECT":" ","MAREA":" ","LANE":" ","ALLEY":" ","HOUSE_NO":"６６７號","E_COORD97":171990.12,"N_COORD97":2544341.02,"ADDRESS":"小東路６６７號","OBJECTID":610184},"geometry":{"x":171990.12000000104,"y":2544341.0199999996}},{"attributes":{"ID":610212,"DIS_CODE":0,"TOWNNAME":"永康區","LI":"中華里","LIN":"3鄰","STREET":"小東路","SECT":" ","MAREA":" ","LANE":" ","ALLEY":" ","HOUSE_NO":"６６９號","E_COORD97":171996.10000000001,"N_COORD97":2544341.02,"ADDRESS":"小東路６６９號","OBJECTID":610185},"geometry":{"x":171996.10000000056,"y":2544341.0199999996}},{"attributes":{"ID":610213,"DIS_CODE":0,"TOWNNAME":"永康區","LI":"中華里","LIN":"3鄰","STREET":"小東路","SECT":" ","MAREA":" ","LANE":" ","ALLEY":" ","HOUSE_NO":"６５９號","E_COORD97":171970.85999999999,"N_COORD97":2544341.02,"ADDRESS":"小東路６５９號","OBJECTID":610186},"geometry":{"x":171970.86000000034,"y":2544341.0199999996}},{"attributes":{"ID":610214,"DIS_CODE":0,"TOWNNAME":"永康區","LI":"二王里","LIN":"3鄰","STREET":"永二街","SECT":" ","MAREA":" ","LANE":" ","ALLEY":" ","HOUSE_NO":"２９０號","E_COORD97":173057.07999999999,"N_COORD97":2546535.25,"ADDRESS":"永二街２９０號","OBJECTID":610187},"geometry":{"x":173057.08000000007,"y":2546535.2500000019}},{"attributes":{"ID":610215,"DIS_CODE":0,"TOWNNAME":"永康區","LI":"二王里","LIN":"3鄰","STREET":"永二街","SECT":" ","MAREA":" ","LANE":" ","ALLEY":" ","HOUSE_NO":"３０２號","E_COORD97":173039.51000000001,"N_COORD97":2546551.75,"ADDRESS":"永二街３０２號","OBJECTID":610188},"geometry":{"x":173039.51000000071,"y":2546551.7500000037}},{"attributes":{"ID":610216,"DIS_CODE":0,"TOWNNAME":"仁德區","LI":"保安里","LIN":"3鄰","STREET":"保安路","SECT":"一段","MAREA":" ","LANE":" ","ALLEY":" ","HOUSE_NO":"４號","E_COORD97":170430.98000000001,"N_COORD97":2535980.0699999998,"ADDRESS":"保安路一段４號","OBJECTID":610189},"geometry":{"x":170430.98000000045,"y":2535980.0700000022}},{"attributes":{"ID":610217,"DIS_CODE":0,"TOWNNAME":"東區","LI":"富強里","LIN":"3鄰","STREET":"中華東路","SECT":"二段","MAREA":" ","LANE":" ","ALLEY":" ","HOUSE_NO":"２４號","E_COORD97":171389.14999999999,"N_COORD97":2543086.54,"ADDRESS":"中華東路二段２４號","OBJECTID":610190},"geometry":{"x":171389.15000000037,"y":2543086.5399999991}},{"attributes":{"ID":610218,"DIS_CODE":0,"TOWNNAME":"東區","LI":"泉南里","LIN":"3鄰","STREET":"慶東街","SECT":" ","MAREA":" ","LANE":" ","ALLEY":" ","HOUSE_NO":"５７號","E_COORD97":169602.73999999999,"N_COORD97":2543036.8399999999,"ADDRESS":"慶東街５７號","OBJECTID":610191},"geometry":{"x":169602.74000000115,"y":2543036.8400000017}},{"attributes":{"ID":610219,"DIS_CODE":0,"TOWNNAME":"東區","LI":"泉南里","LIN":"3鄰","STREET":"慶東街","SECT":" ","MAREA":" ","LANE":" ","ALLEY":" ","HOUSE_NO":"５９號","E_COORD97":169605.42000000001,"N_COORD97":2543041.75,"ADDRESS":"慶東街５９號","OBJECTID":610192},"geometry":{"x":169605.41999999899,"y":2543041.75}},{"attributes":{"ID":610220,"DIS_CODE":0,"TOWNNAME":"東區","LI":"泉南里","LIN":"3鄰","STREET":"慶東街","SECT":" ","MAREA":" ","LANE":" ","ALLEY":" ","HOUSE_NO":"６４號","E_COORD97":169619.09,"N_COORD97":2543031.6499999999,"ADDRESS":"慶東街６４號","OBJECTID":610193},"geometry":{"x":169619.08999999985,"y":2543031.6500000022}},{"attributes":{"ID":610221,"DIS_CODE":0,"TOWNNAME":"東區","LI":"泉南里","LIN":"3鄰","STREET":"慶東街","SECT":" ","MAREA":" ","LANE":" ","ALLEY":" ","HOUSE_NO":"６５號","E_COORD97":169612.10999999999,"N_COORD97":2543055.1099999999,"ADDRESS":"慶東街６５號","OBJECTID":610194},"geometry":{"x":169612.11000000127,"y":2543055.1099999994}},{"attributes":{"ID":610222,"DIS_CODE":0,"TOWNNAME":"東區","LI":"泉南里","LIN":"3鄰","STREET":"慶東街","SECT":" ","MAREA":" ","LANE":" ","ALLEY":" ","HOUSE_NO":"６６號","E_COORD97":169621.76999999999,"N_COORD97":2543036.5499999998,"ADDRESS":"慶東街６６號","OBJECTID":610195},"geometry":{"x":169621.77000000048,"y":2543036.5500000007}},{"attributes":{"ID":610223,"DIS_CODE":0,"TOWNNAME":"永康區","LI":"網寮里","LIN":"3鄰","STREET":"永和街","SECT":" ","MAREA":" ","LANE":" ","ALLEY":" ","HOUSE_NO":"２１７號","E_COORD97":173422.47,"N_COORD97":2546540.5699999998,"ADDRESS":"永和街２１７號","OBJECTID":610196},"geometry":{"x":173422.46999999881,"y":2546540.5700000022}},{"attributes":{"ID":610224,"DIS_CODE":0,"TOWNNAME":"永康區","LI":"網寮里","LIN":"3鄰","STREET":"永二街","SECT":" ","MAREA":" ","LANE":" ","ALLEY":" ","HOUSE_NO":"６２號","E_COORD97":173604.06,"N_COORD97":2546663.7400000002,"ADDRESS":"永二街６２號","OBJECTID":610197},"geometry":{"x":173604.05999999959,"y":2546663.7399999984}},{"attributes":{"ID":610225,"DIS_CODE":0,"TOWNNAME":"永康區","LI":"\u25A0行里","LIN":"3鄰","STREET":"中正七街","SECT":" ","MAREA":" ","LANE":" ","ALLEY":" ","HOUSE_NO":"９號","E_COORD97":172064.60999999999,"N_COORD97":2548883.7599999998,"ADDRESS":"中正七街９號","OBJECTID":610198},"geometry":{"x":172064.61000000127,"y":2548883.7599999998}},{"attributes":{"ID":610226,"DIS_CODE":0,"TOWNNAME":"永康區","LI":"三民里","LIN":"3鄰","STREET":"三民街","SECT":" ","MAREA":" ","LANE":" ","ALLEY":" ","HOUSE_NO":"５２號","E_COORD97":173011.04000000001,"N_COORD97":2550254.29,"ADDRESS":"三民街５２號","OBJECTID":610199},"geometry":{"x":173011.04000000097,"y":2550254.290000001}},{"attributes":{"ID":610227,"DIS_CODE":0,"TOWNNAME":"東區","LI":"崇德里","LIN":"3鄰","STREET":"崇德路","SECT":" ","MAREA":" ","LANE":" ","ALLEY":" ","HOUSE_NO":"４５９號","E_COORD97":170659.26999999999,"N_COORD97":2541743.8399999999,"ADDRESS":"崇德路４５９號","OBJECTID":610200},"geometry":{"x":170659.27000000048,"y":2541743.8400000017}}]}