{"displayFieldName":"TOWNNAME","fieldAliases":{"ID":"ID","DIS_CODE":"DIS_CODE","TOWNNAME":"TOWNNAME","LI":"LI","LIN":"LIN","STREET":"STREET","SECT":"SECT","MAREA":"MAREA","LANE":"LANE","ALLEY":"ALLEY","HOUSE_NO":"HOUSE_NO","E_COORD97":"E_COORD97","N_COORD97":"N_COORD97","ADDRESS":"ADDRESS","OBJECTID":"OBJECTID"},"geometryType":"esriGeometryPoint","spatialReference":{"wkid":102443,"latestWkid":3826},"fields":[{"name":"ID","type":"esriFieldTypeDouble","alias":"ID"},{"name":"DIS_CODE","type":"esriFieldTypeInteger","alias":"DIS_CODE"},{"name":"TOWNNAME","type":"esriFieldTypeString","alias":"TOWNNAME","length":8},{"name":"LI","type":"esriFieldTypeString","alias":"LI","length":8},{"name":"LIN","type":"esriFieldTypeString","alias":"LIN","length":12},{"name":"STREET","type":"esriFieldTypeString","alias":"STREET","length":20},{"name":"SECT","type":"esriFieldTypeString","alias":"SECT","length":8},{"name":"MAREA","type":"esriFieldTypeString","alias":"MAREA","length":12},{"name":"LANE","type":"esriFieldTypeString","alias":"LANE","length":10},{"name":"ALLEY","type":"esriFieldTypeString","alias":"ALLEY","length":10},{"name":"HOUSE_NO","type":"esriFieldTypeString","alias":"HOUSE_NO","length":20},{"name":"E_COORD97","type":"esriFieldTypeDouble","alias":"E_COORD97"},{"name":"N_COORD97","type":"esriFieldTypeDouble","alias":"N_COORD97"},{"name":"ADDRESS","type":"esriFieldTypeString","alias":"ADDRESS","length":50},{"name":"OBJECTID","type":"esriFieldTypeOID","alias":"OBJECTID"}],"features":[{"attributes":{"ID":663428,"DIS_CODE":0,"TOWNNAME":"安南區","LI":"\u25A0南里","LIN":"1鄰","STREET":"安昌街","SECT":" ","MAREA":" ","LANE":"１７４巷","ALLEY":"３９弄","HOUSE_NO":"２５號","E_COORD97":170206.28867899999,"N_COORD97":2552349.1481699999,"ADDRESS":"安昌街１７４巷３９弄２５號","OBJECTID":663401},"geometry":{"x":170206.28867899999,"y":2552349.1481720004}},{"attributes":{"ID":663429,"DIS_CODE":0,"TOWNNAME":"東山區","LI":"東中里","LIN":"10鄰","STREET":"永安街","SECT":" ","MAREA":" ","LANE":" ","ALLEY":" ","HOUSE_NO":"２５號","E_COORD97":188659.95941700001,"N_COORD97":2579632.2486700001,"ADDRESS":"永安街２５號","OBJECTID":663402},"geometry":{"x":188659.95941700041,"y":2579632.248670999}},{"attributes":{"ID":663430,"DIS_CODE":0,"TOWNNAME":"安南區","LI":"\u25A0南里","LIN":"1鄰","STREET":"安昌街","SECT":" ","MAREA":" ","LANE":"１７４巷","ALLEY":"３９弄","HOUSE_NO":"８３號","E_COORD97":170185.53101199999,"N_COORD97":2552359.0965,"ADDRESS":"安昌街１７４巷３９弄８３號","OBJECTID":663403},"geometry":{"x":170185.53101200052,"y":2552359.0965}},{"attributes":{"ID":663431,"DIS_CODE":0,"TOWNNAME":"安南區","LI":"\u25A0南里","LIN":"1鄰","STREET":"安昌街","SECT":" ","MAREA":" ","LANE":"１７４巷","ALLEY":"３９弄","HOUSE_NO":"８５號","E_COORD97":170186.86103599999,"N_COORD97":2552365.0231599999,"ADDRESS":"安昌街１７４巷３９弄８５號","OBJECTID":663404},"geometry":{"x":170186.86103599984,"y":2552365.023163002}},{"attributes":{"ID":663432,"DIS_CODE":0,"TOWNNAME":"新化區","LI":"知義里","LIN":"14鄰","STREET":"中正路","SECT":" ","MAREA":" ","LANE":" ","ALLEY":" ","HOUSE_NO":"５５號","E_COORD97":179115.808101,"N_COORD97":2547258.9854100002,"ADDRESS":"中正路５５號","OBJECTID":663405},"geometry":{"x":179115.80810100026,"y":2547258.9854090009}},{"attributes":{"ID":663433,"DIS_CODE":0,"TOWNNAME":"安南區","LI":"\u25A0南里","LIN":"1鄰","STREET":"安昌街","SECT":" ","MAREA":" ","LANE":"１７４巷","ALLEY":"３９弄","HOUSE_NO":"８７號","E_COORD97":170186.43741000001,"N_COORD97":2552372.4314899999,"ADDRESS":"安昌街１７４巷３９弄８７號","OBJECTID":663406},"geometry":{"x":170186.43741000071,"y":2552372.4314920027}},{"attributes":{"ID":663434,"DIS_CODE":0,"TOWNNAME":"安南區","LI":"\u25A0南里","LIN":"1鄰","STREET":"安昌街","SECT":" ","MAREA":" ","LANE":"１７４巷","ALLEY":"３９弄","HOUSE_NO":"８９號","E_COORD97":170185.59015800001,"N_COORD97":2552380.05149,"ADDRESS":"安昌街１７４巷３９弄８９號","OBJECTID":663407},"geometry":{"x":170185.59015799966,"y":2552380.0514880028}},{"attributes":{"ID":663435,"DIS_CODE":0,"TOWNNAME":"安南區","LI":"\u25A0南里","LIN":"1鄰","STREET":"安昌街","SECT":" ","MAREA":" ","LANE":"１７４巷","ALLEY":"３９弄","HOUSE_NO":"９１號","E_COORD97":170185.59015800001,"N_COORD97":2552388.0948200002,"ADDRESS":"安昌街１７４巷３９弄９１號","OBJECTID":663408},"geometry":{"x":170185.59015799966,"y":2552388.0948169995}},{"attributes":{"ID":663436,"DIS_CODE":0,"TOWNNAME":"鹽水區","LI":"岸內里","LIN":"22鄰","STREET":"北門路","SECT":" ","MAREA":" ","LANE":"７巷","ALLEY":"１５弄","HOUSE_NO":"１號","E_COORD97":175307.57404899999,"N_COORD97":2580361.4066699999,"ADDRESS":"北門路７巷１５弄１號","OBJECTID":663409},"geometry":{"x":175307.5740489997,"y":2580361.4066680018}},{"attributes":{"ID":663437,"DIS_CODE":0,"TOWNNAME":"鹽水區","LI":"岸內里","LIN":"22鄰","STREET":"北門路","SECT":" ","MAREA":" ","LANE":"７巷","ALLEY":"１５弄","HOUSE_NO":"３號","E_COORD97":175301.634968,"N_COORD97":2580362.0416700002,"ADDRESS":"北門路７巷１５弄３號","OBJECTID":663410},"geometry":{"x":175301.6349680014,"y":2580362.0416680016}},{"attributes":{"ID":663438,"DIS_CODE":0,"TOWNNAME":"鹽水區","LI":"岸內里","LIN":"22鄰","STREET":"北門路","SECT":" ","MAREA":" ","LANE":"７巷","ALLEY":"１５弄","HOUSE_NO":"５號","E_COORD97":175296.120107,"N_COORD97":2580361.8300000001,"ADDRESS":"北門路７巷１５弄５號","OBJECTID":663411},"geometry":{"x":175296.12010699976,"y":2580361.8300010003}},{"attributes":{"ID":663439,"DIS_CODE":0,"TOWNNAME":"新化區","LI":"知義里","LIN":"14鄰","STREET":"中正路","SECT":" ","MAREA":" ","LANE":" ","ALLEY":" ","HOUSE_NO":"１４１號","E_COORD97":179094.566356,"N_COORD97":2547502.0314500001,"ADDRESS":"中正路１４１號","OBJECTID":663412},"geometry":{"x":179094.56635600049,"y":2547502.0314520001}},{"attributes":{"ID":663440,"DIS_CODE":0,"TOWNNAME":"安南區","LI":"\u25A0南里","LIN":"1鄰","STREET":"安昌街","SECT":" ","MAREA":" ","LANE":"１７４巷","ALLEY":"３９弄","HOUSE_NO":"９３號","E_COORD97":170185.59015800001,"N_COORD97":2552395.5031499998,"ADDRESS":"安昌街１７４巷３９弄９３號","OBJECTID":663413},"geometry":{"x":170185.59015799966,"y":2552395.5031470004}},{"attributes":{"ID":663441,"DIS_CODE":0,"TOWNNAME":"安南區","LI":"\u25A0南里","LIN":"1鄰","STREET":"安昌街","SECT":" ","MAREA":" ","LANE":"１７４巷","ALLEY":"３９弄","HOUSE_NO":"９５號","E_COORD97":170185.59015800001,"N_COORD97":2552403.9698100002,"ADDRESS":"安昌街１７４巷３９弄９５號","OBJECTID":663414},"geometry":{"x":170185.59015799966,"y":2552403.9698090013}},{"attributes":{"ID":663442,"DIS_CODE":0,"TOWNNAME":"新營區","LI":"五興里","LIN":"10鄰","STREET":" ","SECT":" ","MAREA":"五間厝","LANE":" ","ALLEY":" ","HOUSE_NO":"１０５之１號","E_COORD97":175630.93615600001,"N_COORD97":2574814.5449199998,"ADDRESS":"五間厝１０５之１號","OBJECTID":663415},"geometry":{"x":175630.93615600001,"y":2574814.5449199993}},{"attributes":{"ID":663443,"DIS_CODE":0,"TOWNNAME":"新營區","LI":"五興里","LIN":"10鄰","STREET":" ","SECT":" ","MAREA":"五間厝","LANE":" ","ALLEY":" ","HOUSE_NO":"１０５之２號","E_COORD97":175620.765809,"N_COORD97":2574814.3332500001,"ADDRESS":"五間厝１０５之２號","OBJECTID":663416},"geometry":{"x":175620.7658090014,"y":2574814.3332530018}},{"attributes":{"ID":663444,"DIS_CODE":0,"TOWNNAME":"安南區","LI":"\u25A0南里","LIN":"9鄰","STREET":"安昌街","SECT":" ","MAREA":" ","LANE":"２７５巷","ALLEY":"５５弄","HOUSE_NO":"１５之１號","E_COORD97":170052.99526600001,"N_COORD97":2552564.4130500001,"ADDRESS":"安昌街２７５巷５５弄１５之１號","OBJECTID":663417},"geometry":{"x":170052.99526599981,"y":2552564.413054999}},{"attributes":{"ID":663445,"DIS_CODE":0,"TOWNNAME":"新化區","LI":"知義里","LIN":"14鄰","STREET":"中正路","SECT":" ","MAREA":" ","LANE":"２００巷","ALLEY":" ","HOUSE_NO":"５號","E_COORD97":179121.04978299999,"N_COORD97":2547586.8039099998,"ADDRESS":"中正路２００巷５號","OBJECTID":663418},"geometry":{"x":179121.04978300072,"y":2547586.8039070014}},{"attributes":{"ID":663446,"DIS_CODE":0,"TOWNNAME":"新化區","LI":"知義里","LIN":"11鄰","STREET":"中興路","SECT":" ","MAREA":" ","LANE":" ","ALLEY":" ","HOUSE_NO":"５１號","E_COORD97":181977.65820000001,"N_COORD97":2547270.6799099999,"ADDRESS":"中興路５１號","OBJECTID":663419},"geometry":{"x":181977.65820000041,"y":2547270.6799100023}},{"attributes":{"ID":663447,"DIS_CODE":0,"TOWNNAME":"新化區","LI":"知義里","LIN":"11鄰","STREET":"中興路","SECT":" ","MAREA":" ","LANE":" ","ALLEY":" ","HOUSE_NO":"５５號","E_COORD97":181964.73579800001,"N_COORD97":2547265.07075,"ADDRESS":"中興路５５號","OBJECTID":663420},"geometry":{"x":181964.73579800129,"y":2547265.0707469992}},{"attributes":{"ID":663448,"DIS_CODE":0,"TOWNNAME":"新化區","LI":"知義里","LIN":"11鄰","STREET":"中興路","SECT":" ","MAREA":" ","LANE":" ","ALLEY":" ","HOUSE_NO":"５７號","E_COORD97":181953.71869199999,"N_COORD97":2547277.8765699998,"ADDRESS":"中興路５７號","OBJECTID":663421},"geometry":{"x":181953.71869200002,"y":2547277.876573002}},{"attributes":{"ID":663449,"DIS_CODE":0,"TOWNNAME":"新化區","LI":"知義里","LIN":"11鄰","STREET":"中興路","SECT":" ","MAREA":" ","LANE":"８１巷","ALLEY":" ","HOUSE_NO":"１號","E_COORD97":181860.07329199999,"N_COORD97":2547288.6715699998,"ADDRESS":"中興路８１巷１號","OBJECTID":663422},"geometry":{"x":181860.07329200115,"y":2547288.6715680007}},{"attributes":{"ID":663450,"DIS_CODE":0,"TOWNNAME":"新化區","LI":"知義里","LIN":"11鄰","STREET":"中興路","SECT":" ","MAREA":" ","LANE":"８１巷","ALLEY":" ","HOUSE_NO":"３號","E_COORD97":181859.649557,"N_COORD97":2547278.08824,"ADDRESS":"中興路８１巷３號","OBJECTID":663423},"geometry":{"x":181859.64955700003,"y":2547278.0882399995}},{"attributes":{"ID":663451,"DIS_CODE":0,"TOWNNAME":"新化區","LI":"知義里","LIN":"11鄰","STREET":"中興路","SECT":" ","MAREA":" ","LANE":"８１巷","ALLEY":" ","HOUSE_NO":"９號","E_COORD97":181839.73402,"N_COORD97":2547224.64243,"ADDRESS":"中興路８１巷９號","OBJECTID":663424},"geometry":{"x":181839.73402000032,"y":2547224.6424349993}},{"attributes":{"ID":663452,"DIS_CODE":0,"TOWNNAME":"新化區","LI":"知義里","LIN":"11鄰","STREET":"中興路","SECT":" ","MAREA":" ","LANE":"８１巷","ALLEY":" ","HOUSE_NO":"１２號","E_COORD97":181812.82685799999,"N_COORD97":2547221.8907699999,"ADDRESS":"中興路８１巷１２號","OBJECTID":663425},"geometry":{"x":181812.82685800083,"y":2547221.8907700032}},{"attributes":{"ID":663453,"DIS_CODE":0,"TOWNNAME":"新化區","LI":"知義里","LIN":"11鄰","STREET":"中興路","SECT":" ","MAREA":" ","LANE":"８１巷","ALLEY":" ","HOUSE_NO":"１６號","E_COORD97":181806.0471,"N_COORD97":2547211.9424399999,"ADDRESS":"中興路８１巷１６號","OBJECTID":663426},"geometry":{"x":181806.04710000008,"y":2547211.9424420018}},{"attributes":{"ID":663454,"DIS_CODE":0,"TOWNNAME":"新化區","LI":"知義里","LIN":"11鄰","STREET":"中興路","SECT":" ","MAREA":" ","LANE":"８１巷","ALLEY":" ","HOUSE_NO":"２０號","E_COORD97":181760.283738,"N_COORD97":2547211.7307799999,"ADDRESS":"中興路８１巷２０號","OBJECTID":663427},"geometry":{"x":181760.28373800032,"y":2547211.7307760045}},{"attributes":{"ID":663455,"DIS_CODE":0,"TOWNNAME":"新化區","LI":"知義里","LIN":"11鄰","STREET":"中興路","SECT":" ","MAREA":" ","LANE":"８１巷","ALLEY":" ","HOUSE_NO":"１５號","E_COORD97":181786.34343000001,"N_COORD97":2547175.64163,"ADDRESS":"中興路８１巷１５號","OBJECTID":663428},"geometry":{"x":181786.34343000129,"y":2547175.6416290011}},{"attributes":{"ID":663456,"DIS_CODE":0,"TOWNNAME":"新化區","LI":"知義里","LIN":"11鄰","STREET":"中興路","SECT":" ","MAREA":" ","LANE":"２８９巷","ALLEY":" ","HOUSE_NO":"９號","E_COORD97":181334.64209199999,"N_COORD97":2547269.5157499998,"ADDRESS":"中興路２８９巷９號","OBJECTID":663429},"geometry":{"x":181334.64209199976,"y":2547269.5157449991}},{"attributes":{"ID":663457,"DIS_CODE":0,"TOWNNAME":"新化區","LI":"知義里","LIN":"16鄰","STREET":"中興路","SECT":" ","MAREA":" ","LANE":" ","ALLEY":" ","HOUSE_NO":"３２５號之１","E_COORD97":181053.70589300001,"N_COORD97":2547282.8507400001,"ADDRESS":"中興路３２５號之１","OBJECTID":663430},"geometry":{"x":181053.70589300059,"y":2547282.8507370017}},{"attributes":{"ID":663458,"DIS_CODE":0,"TOWNNAME":"新化區","LI":"知義里","LIN":"15鄰","STREET":"中興路","SECT":" ","MAREA":" ","LANE":" ","ALLEY":" ","HOUSE_NO":"３７３號","E_COORD97":180727.64193400001,"N_COORD97":2547441.28315,"ADDRESS":"中興路３７３號","OBJECTID":663431},"geometry":{"x":180727.64193399996,"y":2547441.2831519991}},{"attributes":{"ID":663459,"DIS_CODE":0,"TOWNNAME":"安南區","LI":"溪心里","LIN":"13鄰","STREET":"安中路","SECT":"三段","MAREA":" ","LANE":" ","ALLEY":" ","HOUSE_NO":"１３５號","E_COORD97":166072.87212399999,"N_COORD97":2549788.8439500001,"ADDRESS":"安中路三段１３５號","OBJECTID":663432},"geometry":{"x":166072.87212399952,"y":2549788.8439510018}},{"attributes":{"ID":663460,"DIS_CODE":0,"TOWNNAME":"北門區","LI":"中樞里","LIN":"11鄰","STREET":" ","SECT":" ","MAREA":"溪底寮","LANE":" ","ALLEY":" ","HOUSE_NO":"１００之１０號","E_COORD97":161448.516611,"N_COORD97":2570629.2858099998,"ADDRESS":"溪底寮１００之１０號","OBJECTID":663433},"geometry":{"x":161448.51661099959,"y":2570629.2858110033}},{"attributes":{"ID":663461,"DIS_CODE":0,"TOWNNAME":"安南區","LI":"溪心里","LIN":"13鄰","STREET":"安中路","SECT":"三段","MAREA":" ","LANE":" ","ALLEY":" ","HOUSE_NO":"１３７號","E_COORD97":166069.27130399999,"N_COORD97":2549792.23062,"ADDRESS":"安中路三段１３７號","OBJECTID":663434},"geometry":{"x":166069.27130400017,"y":2549792.2306160033}},{"attributes":{"ID":663462,"DIS_CODE":0,"TOWNNAME":"安南區","LI":"溪心里","LIN":"2鄰","STREET":"海環街","SECT":" ","MAREA":" ","LANE":"７１５巷","ALLEY":" ","HOUSE_NO":"５８號","E_COORD97":166453.92358100001,"N_COORD97":2549442.76914,"ADDRESS":"海環街７１５巷５８號","OBJECTID":663435},"geometry":{"x":166453.92358100042,"y":2549442.7691380028}},{"attributes":{"ID":663463,"DIS_CODE":0,"TOWNNAME":"新化區","LI":"知義里","LIN":"15鄰","STREET":"中興路","SECT":" ","MAREA":" ","LANE":"４１５巷","ALLEY":" ","HOUSE_NO":"４號","E_COORD97":180612.80979299999,"N_COORD97":2547482.4523,"ADDRESS":"中興路４１５巷４號","OBJECTID":663436},"geometry":{"x":180612.80979300197,"y":2547482.452296}},{"attributes":{"ID":663464,"DIS_CODE":0,"TOWNNAME":"北門區","LI":"中樞里","LIN":"11鄰","STREET":" ","SECT":" ","MAREA":"溪底寮","LANE":" ","ALLEY":" ","HOUSE_NO":"１００之９號","E_COORD97":161423.624213,"N_COORD97":2570632.1443099999,"ADDRESS":"溪底寮１００之９號","OBJECTID":663437},"geometry":{"x":161423.62421299983,"y":2570632.1443120018}},{"attributes":{"ID":663465,"DIS_CODE":0,"TOWNNAME":"安南區","LI":"溪心里","LIN":"18鄰","STREET":"仁安六街","SECT":" ","MAREA":" ","LANE":" ","ALLEY":" ","HOUSE_NO":"５號","E_COORD97":166086.639964,"N_COORD97":2549946.1121999999,"ADDRESS":"仁安六街５號","OBJECTID":663438},"geometry":{"x":166086.63996400125,"y":2549946.112199001}},{"attributes":{"ID":663466,"DIS_CODE":0,"TOWNNAME":"新化區","LI":"知義里","LIN":"15鄰","STREET":"中興路","SECT":" ","MAREA":" ","LANE":" ","ALLEY":" ","HOUSE_NO":"４３５號","E_COORD97":180548.40209700001,"N_COORD97":2547534.4164399998,"ADDRESS":"中興路４３５號","OBJECTID":663439},"geometry":{"x":180548.40209699981,"y":2547534.4164349996}},{"attributes":{"ID":663467,"DIS_CODE":0,"TOWNNAME":"新化區","LI":"知義里","LIN":"15鄰","STREET":"中興路","SECT":" ","MAREA":" ","LANE":" ","ALLEY":" ","HOUSE_NO":"４４１號之２","E_COORD97":180531.55788400001,"N_COORD97":2547531.87659,"ADDRESS":"中興路４４１號之２","OBJECTID":663440},"geometry":{"x":180531.55788400024,"y":2547531.8765870016}},{"attributes":{"ID":663468,"DIS_CODE":0,"TOWNNAME":"新化區","LI":"知義里","LIN":"15鄰","STREET":"中興路","SECT":" ","MAREA":" ","LANE":" ","ALLEY":" ","HOUSE_NO":"４５１號","E_COORD97":180522.44758400001,"N_COORD97":2547549.6565800002,"ADDRESS":"中興路４５１號","OBJECTID":663441},"geometry":{"x":180522.44758400228,"y":2547549.6565770004}},{"attributes":{"ID":663469,"DIS_CODE":0,"TOWNNAME":"安南區","LI":"布袋里","LIN":"6鄰","STREET":"長和路","SECT":"四段","MAREA":" ","LANE":" ","ALLEY":" ","HOUSE_NO":"１０６號","E_COORD97":169075.39468699999,"N_COORD97":2551616.1516999998,"ADDRESS":"長和路四段１０６號","OBJECTID":663442},"geometry":{"x":169075.39468700066,"y":2551616.1517000031}},{"attributes":{"ID":663470,"DIS_CODE":0,"TOWNNAME":"安南區","LI":"布袋里","LIN":"5鄰","STREET":"鎮安路","SECT":" ","MAREA":" ","LANE":"３０巷","ALLEY":" ","HOUSE_NO":"４１號","E_COORD97":167994.301504,"N_COORD97":2551542.9150700001,"ADDRESS":"鎮安路３０巷４１號","OBJECTID":663443},"geometry":{"x":167994.30150400102,"y":2551542.9150729999}},{"attributes":{"ID":663471,"DIS_CODE":0,"TOWNNAME":"安南區","LI":"布袋里","LIN":"5鄰","STREET":"鎮安路","SECT":" ","MAREA":" ","LANE":"３０巷","ALLEY":" ","HOUSE_NO":"４１號","E_COORD97":167994.301504,"N_COORD97":2551542.9150700001,"ADDRESS":"鎮安路３０巷４１號","OBJECTID":663444},"geometry":{"x":167994.30150400102,"y":2551542.9150729999}},{"attributes":{"ID":663472,"DIS_CODE":0,"TOWNNAME":"安南區","LI":"原佃里","LIN":"11鄰","STREET":"本原街","SECT":"一段","MAREA":" ","LANE":"７５巷","ALLEY":" ","HOUSE_NO":"２１號","E_COORD97":168062.71707899999,"N_COORD97":2550127.2891699998,"ADDRESS":"本原街一段７５巷２１號","OBJECTID":663445},"geometry":{"x":168062.71707900055,"y":2550127.2891700026}},{"attributes":{"ID":663473,"DIS_CODE":0,"TOWNNAME":"歸仁區","LI":"文化里","LIN":"5鄰","STREET":"國光街","SECT":" ","MAREA":" ","LANE":" ","ALLEY":" ","HOUSE_NO":"１７７號","E_COORD97":177330.50412200001,"N_COORD97":2541305.8603099999,"ADDRESS":"國光街１７７號","OBJECTID":663446},"geometry":{"x":177330.50412199926,"y":2541305.8603090029}},{"attributes":{"ID":663474,"DIS_CODE":0,"TOWNNAME":"歸仁區","LI":"文化里","LIN":"5鄰","STREET":"國光街","SECT":" ","MAREA":" ","LANE":" ","ALLEY":" ","HOUSE_NO":"１７９號","E_COORD97":177330.50412200001,"N_COORD97":2541305.8603099999,"ADDRESS":"國光街１７９號","OBJECTID":663447},"geometry":{"x":177330.50412199926,"y":2541305.8603090029}},{"attributes":{"ID":663475,"DIS_CODE":0,"TOWNNAME":"歸仁區","LI":"文化里","LIN":"5鄰","STREET":"國光街","SECT":" ","MAREA":" ","LANE":" ","ALLEY":" ","HOUSE_NO":"１８１號","E_COORD97":177326.69050900001,"N_COORD97":2541306.07198,"ADDRESS":"國光街１８１號","OBJECTID":663448},"geometry":{"x":177326.69050900079,"y":2541306.0719750002}},{"attributes":{"ID":663476,"DIS_CODE":0,"TOWNNAME":"新化區","LI":"知義里","LIN":"1鄰","STREET":" ","SECT":" ","MAREA":"知母義","LANE":" ","ALLEY":" ","HOUSE_NO":"１５號","E_COORD97":179304.20992200001,"N_COORD97":2547075.4176699999,"ADDRESS":"知母義１５號","OBJECTID":663449},"geometry":{"x":179304.20992200077,"y":2547075.4176669996}},{"attributes":{"ID":663477,"DIS_CODE":0,"TOWNNAME":"歸仁區","LI":"文化里","LIN":"5鄰","STREET":"國光街","SECT":" ","MAREA":" ","LANE":" ","ALLEY":" ","HOUSE_NO":"１８３號","E_COORD97":177322.02942599999,"N_COORD97":2541306.4953100001,"ADDRESS":"國光街１８３號","OBJECTID":663450},"geometry":{"x":177322.02942600194,"y":2541306.4953090027}},{"attributes":{"ID":663478,"DIS_CODE":0,"TOWNNAME":"新化區","LI":"知義里","LIN":"1鄰","STREET":" ","SECT":" ","MAREA":"知母義","LANE":" ","ALLEY":" ","HOUSE_NO":"１５號之２０","E_COORD97":179223.70030200001,"N_COORD97":2547066.42184,"ADDRESS":"知母義１５號之２０","OBJECTID":663451},"geometry":{"x":179223.70030200016,"y":2547066.4218380004}},{"attributes":{"ID":663479,"DIS_CODE":0,"TOWNNAME":"新化區","LI":"知義里","LIN":"1鄰","STREET":" ","SECT":" ","MAREA":"知母義","LANE":" ","ALLEY":" ","HOUSE_NO":"１９號","E_COORD97":179591.29027500001,"N_COORD97":2547107.3793199998,"ADDRESS":"知母義１９號","OBJECTID":663452},"geometry":{"x":179591.29027500097,"y":2547107.3793160003}},{"attributes":{"ID":663480,"DIS_CODE":0,"TOWNNAME":"新化區","LI":"知義里","LIN":"1鄰","STREET":" ","SECT":" ","MAREA":"知母義","LANE":" ","ALLEY":" ","HOUSE_NO":"２８號","E_COORD97":179632.18068699999,"N_COORD97":2547041.0218500001,"ADDRESS":"知母義２８號","OBJECTID":663453},"geometry":{"x":179632.18068700098,"y":2547041.0218520015}},{"attributes":{"ID":663481,"DIS_CODE":0,"TOWNNAME":"安南區","LI":"布袋里","LIN":"1鄰","STREET":"工明路","SECT":" ","MAREA":" ","LANE":" ","ALLEY":" ","HOUSE_NO":"３６之１號","E_COORD97":169130.466048,"N_COORD97":2551150.2736200001,"ADDRESS":"工明路３６之１號","OBJECTID":663454},"geometry":{"x":169130.46604800038,"y":2551150.2736180015}},{"attributes":{"ID":663482,"DIS_CODE":0,"TOWNNAME":"新化區","LI":"知義里","LIN":"5鄰","STREET":" ","SECT":" ","MAREA":"知母義","LANE":" ","ALLEY":" ","HOUSE_NO":"７９號","E_COORD97":180348.92816800001,"N_COORD97":2547244.6450700001,"ADDRESS":"知母義７９號","OBJECTID":663455},"geometry":{"x":180348.92816800158,"y":2547244.6450750008}},{"attributes":{"ID":663483,"DIS_CODE":0,"TOWNNAME":"新化區","LI":"知義里","LIN":"5鄰","STREET":" ","SECT":" ","MAREA":"知母義","LANE":" ","ALLEY":" ","HOUSE_NO":"７９號之２","E_COORD97":180369.90304199999,"N_COORD97":2547252.5825700001,"ADDRESS":"知母義７９號之２","OBJECTID":663456},"geometry":{"x":180369.90304199979,"y":2547252.5825710017}},{"attributes":{"ID":663484,"DIS_CODE":0,"TOWNNAME":"新化區","LI":"知義里","LIN":"5鄰","STREET":" ","SECT":" ","MAREA":"知母義","LANE":" ","ALLEY":" ","HOUSE_NO":"８６號","E_COORD97":180034.94034999999,"N_COORD97":2547231.09827,"ADDRESS":"知母義８６號","OBJECTID":663457},"geometry":{"x":180034.94034999982,"y":2547231.0982649997}},{"attributes":{"ID":663485,"DIS_CODE":0,"TOWNNAME":"新化區","LI":"知義里","LIN":"5鄰","STREET":" ","SECT":" ","MAREA":"知母義","LANE":" ","ALLEY":" ","HOUSE_NO":"９２號","E_COORD97":179932.184652,"N_COORD97":2547168.1274700002,"ADDRESS":"知母義９２號","OBJECTID":663458},"geometry":{"x":179932.1846520016,"y":2547168.1274659988}},{"attributes":{"ID":663486,"DIS_CODE":0,"TOWNNAME":"新化區","LI":"知義里","LIN":"4鄰","STREET":" ","SECT":" ","MAREA":"知母義","LANE":" ","ALLEY":" ","HOUSE_NO":"９９號","E_COORD97":179866.717619,"N_COORD97":2547204.21661,"ADDRESS":"知母義９９號","OBJECTID":663459},"geometry":{"x":179866.71761900093,"y":2547204.2166130021}},{"attributes":{"ID":663487,"DIS_CODE":0,"TOWNNAME":"新化區","LI":"知義里","LIN":"4鄰","STREET":" ","SECT":" ","MAREA":"知母義","LANE":" ","ALLEY":" ","HOUSE_NO":"１０２號之３","E_COORD97":179781.546917,"N_COORD97":2547316.6644700002,"ADDRESS":"知母義１０２號之３","OBJECTID":663460},"geometry":{"x":179781.54691700079,"y":2547316.6644690037}},{"attributes":{"ID":663488,"DIS_CODE":0,"TOWNNAME":"新化區","LI":"知義里","LIN":"4鄰","STREET":" ","SECT":" ","MAREA":"知母義","LANE":" ","ALLEY":" ","HOUSE_NO":"１０９號","E_COORD97":179854.21744099999,"N_COORD97":2547110.8187500001,"ADDRESS":"知母義１０９號","OBJECTID":663461},"geometry":{"x":179854.21744100004,"y":2547110.8187470008}},{"attributes":{"ID":663489,"DIS_CODE":0,"TOWNNAME":"新化區","LI":"知義里","LIN":"3鄰","STREET":" ","SECT":" ","MAREA":"知母義","LANE":" ","ALLEY":" ","HOUSE_NO":"１４０號","E_COORD97":179764.385656,"N_COORD97":2547061.07711,"ADDRESS":"知母義１４０號","OBJECTID":663462},"geometry":{"x":179764.38565600011,"y":2547061.0771070048}},{"attributes":{"ID":663490,"DIS_CODE":0,"TOWNNAME":"歸仁區","LI":"大潭里","LIN":"5鄰","STREET":"長榮路","SECT":"一段","MAREA":" ","LANE":"２４５巷","ALLEY":" ","HOUSE_NO":"８號","E_COORD97":175172.04762200001,"N_COORD97":2534572.8176699998,"ADDRESS":"長榮路一段２４５巷８號","OBJECTID":663463},"geometry":{"x":175172.0476220008,"y":2534572.8176730014}},{"attributes":{"ID":663491,"DIS_CODE":0,"TOWNNAME":"歸仁區","LI":"大潭里","LIN":"5鄰","STREET":"長榮路","SECT":"一段","MAREA":" ","LANE":"２４５巷","ALLEY":" ","HOUSE_NO":"８之１號","E_COORD97":175173.74286,"N_COORD97":2534571.97101,"ADDRESS":"長榮路一段２４５巷８之１號","OBJECTID":663464},"geometry":{"x":175173.74286000058,"y":2534571.9710070044}},{"attributes":{"ID":663492,"DIS_CODE":0,"TOWNNAME":"新化區","LI":"知義里","LIN":"3鄰","STREET":" ","SECT":" ","MAREA":"知母義","LANE":" ","ALLEY":" ","HOUSE_NO":"１４６號","E_COORD97":179766.29246200001,"N_COORD97":2547082.1379300002,"ADDRESS":"知母義１４６號","OBJECTID":663465},"geometry":{"x":179766.29246200062,"y":2547082.1379290018}},{"attributes":{"ID":663493,"DIS_CODE":0,"TOWNNAME":"歸仁區","LI":"大潭里","LIN":"5鄰","STREET":"長榮路","SECT":"一段","MAREA":" ","LANE":"２４５巷","ALLEY":" ","HOUSE_NO":"８之２號","E_COORD97":175175.01428800001,"N_COORD97":2534571.3360100002,"ADDRESS":"長榮路一段２４５巷８之２號","OBJECTID":663466},"geometry":{"x":175175.01428800169,"y":2534571.336008003}},{"attributes":{"ID":663494,"DIS_CODE":0,"TOWNNAME":"新化區","LI":"知義里","LIN":"2鄰","STREET":" ","SECT":" ","MAREA":"知母義","LANE":" ","ALLEY":" ","HOUSE_NO":"１４８號","E_COORD97":179749.1312,"N_COORD97":2547058.8546000002,"ADDRESS":"知母義１４８號","OBJECTID":663467},"geometry":{"x":179749.13120000158,"y":2547058.854600003}},{"attributes":{"ID":663495,"DIS_CODE":0,"TOWNNAME":"歸仁區","LI":"大潭里","LIN":"5鄰","STREET":"長榮路","SECT":"一段","MAREA":" ","LANE":"２４５巷","ALLEY":" ","HOUSE_NO":"８之３號","E_COORD97":175176.07381199999,"N_COORD97":2534571.1243400001,"ADDRESS":"長榮路一段２４５巷８之３號","OBJECTID":663468},"geometry":{"x":175176.07381200045,"y":2534571.1243410017}},{"attributes":{"ID":663496,"DIS_CODE":0,"TOWNNAME":"歸仁區","LI":"大潭里","LIN":"5鄰","STREET":"長榮路","SECT":"一段","MAREA":" ","LANE":"２４５巷","ALLEY":" ","HOUSE_NO":"８之５號","E_COORD97":175177.345241,"N_COORD97":2534570.4893399999,"ADDRESS":"長榮路一段２４５巷８之５號","OBJECTID":663469},"geometry":{"x":175177.34524099994,"y":2534570.489341002}},{"attributes":{"ID":663497,"DIS_CODE":0,"TOWNNAME":"新化區","LI":"知義里","LIN":"2鄰","STREET":" ","SECT":" ","MAREA":"知母義","LANE":" ","ALLEY":" ","HOUSE_NO":"１５０號","E_COORD97":179752.944815,"N_COORD97":2547040.86295,"ADDRESS":"知母義１５０號","OBJECTID":663470},"geometry":{"x":179752.94481500052,"y":2547040.8629509993}},{"attributes":{"ID":663498,"DIS_CODE":0,"TOWNNAME":"歸仁區","LI":"大潭里","LIN":"5鄰","STREET":"長榮路","SECT":"一段","MAREA":" ","LANE":"２４５巷","ALLEY":" ","HOUSE_NO":"８之６號","E_COORD97":175178.40476400001,"N_COORD97":2534570.70101,"ADDRESS":"長榮路一段２４５巷８之６號","OBJECTID":663471},"geometry":{"x":175178.40476400219,"y":2534570.7010079995}},{"attributes":{"ID":663499,"DIS_CODE":0,"TOWNNAME":"歸仁區","LI":"大潭里","LIN":"5鄰","STREET":"長榮路","SECT":"一段","MAREA":" ","LANE":"２４５巷","ALLEY":" ","HOUSE_NO":"８之７號","E_COORD97":175179.67619299999,"N_COORD97":2534570.0660100002,"ADDRESS":"長榮路一段２４５巷８之７號","OBJECTID":663472},"geometry":{"x":175179.67619299982,"y":2534570.0660079997}},{"attributes":{"ID":663500,"DIS_CODE":0,"TOWNNAME":"歸仁區","LI":"大潭里","LIN":"5鄰","STREET":"長榮路","SECT":"一段","MAREA":" ","LANE":"２４５巷","ALLEY":" ","HOUSE_NO":"８之８號","E_COORD97":175180.735716,"N_COORD97":2534569.64267,"ADDRESS":"長榮路一段２４５巷８之８號","OBJECTID":663473},"geometry":{"x":175180.73571600206,"y":2534569.6426750012}},{"attributes":{"ID":663501,"DIS_CODE":0,"TOWNNAME":"歸仁區","LI":"大潭里","LIN":"5鄰","STREET":"長榮路","SECT":"一段","MAREA":" ","LANE":"２４５巷","ALLEY":" ","HOUSE_NO":"８之９號","E_COORD97":175181.79524000001,"N_COORD97":2534569.2193399998,"ADDRESS":"長榮路一段２４５巷８之９號","OBJECTID":663474},"geometry":{"x":175181.79524000082,"y":2534569.2193420026}},{"attributes":{"ID":663502,"DIS_CODE":0,"TOWNNAME":"歸仁區","LI":"大潭里","LIN":"5鄰","STREET":"長榮路","SECT":"一段","MAREA":" ","LANE":"２４５巷","ALLEY":" ","HOUSE_NO":"８之１０號","E_COORD97":175182.64285900001,"N_COORD97":2534568.7960100002,"ADDRESS":"長榮路一段２４５巷８之１０號","OBJECTID":663475},"geometry":{"x":175182.64285899978,"y":2534568.7960089985}},{"attributes":{"ID":663503,"DIS_CODE":0,"TOWNNAME":"新化區","LI":"知義里","LIN":"1鄰","STREET":" ","SECT":" ","MAREA":"知母義","LANE":" ","ALLEY":" ","HOUSE_NO":"１６２號","E_COORD97":179716.07988400001,"N_COORD97":2547051.0229500001,"ADDRESS":"知母義１６２號","OBJECTID":663476},"geometry":{"x":179716.07988400012,"y":2547051.022946002}},{"attributes":{"ID":663504,"DIS_CODE":0,"TOWNNAME":"歸仁區","LI":"大潭里","LIN":"5鄰","STREET":"長榮路","SECT":"一段","MAREA":" ","LANE":"２４５巷","ALLEY":" ","HOUSE_NO":"１２號","E_COORD97":175178.40476400001,"N_COORD97":2534580.2259999998,"ADDRESS":"長榮路一段２４５巷１２號","OBJECTID":663477},"geometry":{"x":175178.40476400219,"y":2534580.2260030024}},{"attributes":{"ID":663505,"DIS_CODE":0,"TOWNNAME":"新化區","LI":"知義里","LIN":"1鄰","STREET":" ","SECT":" ","MAREA":"知母義","LANE":" ","ALLEY":" ","HOUSE_NO":"１６３號之６","E_COORD97":179686.41844499999,"N_COORD97":2547066.3687700001,"ADDRESS":"知母義１６３號之６","OBJECTID":663478},"geometry":{"x":179686.41844500136,"y":2547066.3687709998}},{"attributes":{"ID":663506,"DIS_CODE":0,"TOWNNAME":"歸仁區","LI":"大潭里","LIN":"5鄰","STREET":"長榮路","SECT":"一段","MAREA":" ","LANE":"２４５巷","ALLEY":" ","HOUSE_NO":"１２號二樓","E_COORD97":175179.25238300001,"N_COORD97":2534582.9776699999,"ADDRESS":"長榮路一段２４５巷１２號二樓","OBJECTID":663479},"geometry":{"x":175179.25238300115,"y":2534582.9776680022}},{"attributes":{"ID":663507,"DIS_CODE":0,"TOWNNAME":"歸仁區","LI":"大潭里","LIN":"5鄰","STREET":"長榮路","SECT":"一段","MAREA":" ","LANE":"２４５巷","ALLEY":" ","HOUSE_NO":"１２號三樓","E_COORD97":175179.46428799999,"N_COORD97":2534584.0359999998,"ADDRESS":"長榮路一段２４５巷１２號三樓","OBJECTID":663480},"geometry":{"x":175179.46428800095,"y":2534584.0360010006}},{"attributes":{"ID":663508,"DIS_CODE":0,"TOWNNAME":"新化區","LI":"知義里","LIN":"1鄰","STREET":" ","SECT":" ","MAREA":"知母義","LANE":" ","ALLEY":" ","HOUSE_NO":"１６８號","E_COORD97":179723.071509,"N_COORD97":2547081.2912599999,"ADDRESS":"知母義１６８號","OBJECTID":663481},"geometry":{"x":179723.07150900178,"y":2547081.2912629992}},{"attributes":{"ID":663509,"DIS_CODE":0,"TOWNNAME":"歸仁區","LI":"大潭里","LIN":"5鄰","STREET":"長榮路","SECT":"一段","MAREA":" ","LANE":"２４５巷","ALLEY":" ","HOUSE_NO":"１２號四樓","E_COORD97":175179.25238300001,"N_COORD97":2534585.3059999999,"ADDRESS":"長榮路一段２４５巷１２號四樓","OBJECTID":663482},"geometry":{"x":175179.25238300115,"y":2534585.3060000017}},{"attributes":{"ID":663510,"DIS_CODE":0,"TOWNNAME":"歸仁區","LI":"大潭里","LIN":"5鄰","STREET":"長榮路","SECT":"一段","MAREA":" ","LANE":"２４５巷","ALLEY":" ","HOUSE_NO":"１２號五樓","E_COORD97":175179.25238300001,"N_COORD97":2534586.3643299998,"ADDRESS":"長榮路一段２４５巷１２號五樓","OBJECTID":663483},"geometry":{"x":175179.25238300115,"y":2534586.364333}},{"attributes":{"ID":663511,"DIS_CODE":0,"TOWNNAME":"新化區","LI":"知義里","LIN":"1鄰","STREET":" ","SECT":" ","MAREA":"知母義","LANE":" ","ALLEY":" ","HOUSE_NO":"１７１號","E_COORD97":179663.32489600001,"N_COORD97":2547073.8829299998,"ADDRESS":"知母義１７１號","OBJECTID":663484},"geometry":{"x":179663.32489600126,"y":2547073.8829340022}},{"attributes":{"ID":663512,"DIS_CODE":0,"TOWNNAME":"新化區","LI":"知義里","LIN":"1鄰","STREET":" ","SECT":" ","MAREA":"知母義","LANE":" ","ALLEY":" ","HOUSE_NO":"１７４號之６","E_COORD97":179659.72315000001,"N_COORD97":2547091.7687599999,"ADDRESS":"知母義１７４號之６","OBJECTID":663485},"geometry":{"x":179659.72315000091,"y":2547091.7687570006}},{"attributes":{"ID":663513,"DIS_CODE":0,"TOWNNAME":"新化區","LI":"知義里","LIN":"14鄰","STREET":"復興路","SECT":" ","MAREA":" ","LANE":"１巷","ALLEY":" ","HOUSE_NO":"１３號","E_COORD97":179386.99658800001,"N_COORD97":2547176.91163,"ADDRESS":"復興路１巷１３號","OBJECTID":663486},"geometry":{"x":179386.99658800103,"y":2547176.9116280023}},{"attributes":{"ID":663514,"DIS_CODE":0,"TOWNNAME":"新化區","LI":"知義里","LIN":"14鄰","STREET":"復興路","SECT":" ","MAREA":" ","LANE":"１巷","ALLEY":" ","HOUSE_NO":"１０號","E_COORD97":179438.692239,"N_COORD97":2547185.6957899998,"ADDRESS":"復興路１巷１０號","OBJECTID":663487},"geometry":{"x":179438.69223900139,"y":2547185.6957900003}},{"attributes":{"ID":663515,"DIS_CODE":0,"TOWNNAME":"歸仁區","LI":"大潭里","LIN":"5鄰","STREET":"長榮路","SECT":"一段","MAREA":" ","LANE":"２４５巷","ALLEY":" ","HOUSE_NO":"１２之１號","E_COORD97":175180.693336,"N_COORD97":2534579.18884,"ADDRESS":"長榮路一段２４５巷１２之１號","OBJECTID":663488},"geometry":{"x":175180.69333599973,"y":2534579.1888370011}},{"attributes":{"ID":663516,"DIS_CODE":0,"TOWNNAME":"歸仁區","LI":"大潭里","LIN":"5鄰","STREET":"長榮路","SECT":"一段","MAREA":" ","LANE":"２４５巷","ALLEY":" ","HOUSE_NO":"１２之２號","E_COORD97":175182.60047800001,"N_COORD97":2534578.3421700001,"ADDRESS":"長榮路一段２４５巷１２之２號","OBJECTID":663489},"geometry":{"x":175182.60047800094,"y":2534578.3421700001}},{"attributes":{"ID":663517,"DIS_CODE":0,"TOWNNAME":"歸仁區","LI":"大潭里","LIN":"5鄰","STREET":"長榮路","SECT":"一段","MAREA":" ","LANE":"２４５巷","ALLEY":" ","HOUSE_NO":"１２之３號","E_COORD97":175184.29571599999,"N_COORD97":2534577.9188399999,"ADDRESS":"長榮路一段２４５巷１２之３號","OBJECTID":663490},"geometry":{"x":175184.29571599979,"y":2534577.9188370034}},{"attributes":{"ID":663518,"DIS_CODE":0,"TOWNNAME":"歸仁區","LI":"大潭里","LIN":"5鄰","STREET":"長榮路","SECT":"一段","MAREA":" ","LANE":"２４５巷","ALLEY":" ","HOUSE_NO":"１２之５號","E_COORD97":175185.779049,"N_COORD97":2534577.0721700001,"ADDRESS":"長榮路一段２４５巷１２之５號","OBJECTID":663491},"geometry":{"x":175185.77904899977,"y":2534577.0721710008}},{"attributes":{"ID":663519,"DIS_CODE":0,"TOWNNAME":"歸仁區","LI":"大潭里","LIN":"5鄰","STREET":"長榮路","SECT":"一段","MAREA":" ","LANE":"２４５巷","ALLEY":" ","HOUSE_NO":"１２之６號","E_COORD97":175187.47428699999,"N_COORD97":2534576.4371699998,"ADDRESS":"長榮路一段２４５巷１２之６號","OBJECTID":663492},"geometry":{"x":175187.47428699955,"y":2534576.437171001}},{"attributes":{"ID":663520,"DIS_CODE":0,"TOWNNAME":"歸仁區","LI":"大潭里","LIN":"5鄰","STREET":"長榮路","SECT":"一段","MAREA":" ","LANE":"２４５巷","ALLEY":" ","HOUSE_NO":"１２之６號二樓","E_COORD97":175187.898097,"N_COORD97":2534578.7655000002,"ADDRESS":"長榮路一段２４５巷１２之６號二樓","OBJECTID":663493},"geometry":{"x":175187.89809700008,"y":2534578.7655039988}},{"attributes":{"ID":663521,"DIS_CODE":0,"TOWNNAME":"歸仁區","LI":"大潭里","LIN":"5鄰","STREET":"長榮路","SECT":"一段","MAREA":" ","LANE":"２４５巷","ALLEY":" ","HOUSE_NO":"１２之６號三樓","E_COORD97":175187.898097,"N_COORD97":2534580.6705,"ADDRESS":"長榮路一段２４５巷１２之６號三樓","OBJECTID":663494},"geometry":{"x":175187.89809700008,"y":2534580.6705030035}},{"attributes":{"ID":663522,"DIS_CODE":0,"TOWNNAME":"歸仁區","LI":"大潭里","LIN":"5鄰","STREET":"長榮路","SECT":"一段","MAREA":" ","LANE":"２４５巷","ALLEY":" ","HOUSE_NO":"１２之６號四樓","E_COORD97":175187.68619199999,"N_COORD97":2534581.72884,"ADDRESS":"長榮路一段２４５巷１２之６號四樓","OBJECTID":663495},"geometry":{"x":175187.68619200028,"y":2534581.7288350016}},{"attributes":{"ID":663523,"DIS_CODE":0,"TOWNNAME":"歸仁區","LI":"大潭里","LIN":"5鄰","STREET":"長榮路","SECT":"一段","MAREA":" ","LANE":"２４５巷","ALLEY":" ","HOUSE_NO":"１２之６號五樓","E_COORD97":175187.898097,"N_COORD97":2534583.8454999998,"ADDRESS":"長榮路一段２４５巷１２之６號五樓","OBJECTID":663496},"geometry":{"x":175187.89809700008,"y":2534583.8455010019}},{"attributes":{"ID":663524,"DIS_CODE":0,"TOWNNAME":"新化區","LI":"知義里","LIN":"14鄰","STREET":"復興路","SECT":" ","MAREA":" ","LANE":"１巷","ALLEY":" ","HOUSE_NO":"２３號","E_COORD97":179468.777412,"N_COORD97":2547207.6032799999,"ADDRESS":"復興路１巷２３號","OBJECTID":663497},"geometry":{"x":179468.77741200104,"y":2547207.6032780018}},{"attributes":{"ID":663525,"DIS_CODE":0,"TOWNNAME":"歸仁區","LI":"大潭里","LIN":"5鄰","STREET":"大潭一街","SECT":" ","MAREA":" ","LANE":" ","ALLEY":" ","HOUSE_NO":"６２之６號","E_COORD97":175205.59214299999,"N_COORD97":2534586.3854999999,"ADDRESS":"大潭一街６２之６號","OBJECTID":663498},"geometry":{"x":175205.5921430001,"y":2534586.3854990024}},{"attributes":{"ID":663526,"DIS_CODE":0,"TOWNNAME":"歸仁區","LI":"大潭里","LIN":"5鄰","STREET":"大潭一街","SECT":" ","MAREA":" ","LANE":" ","ALLEY":" ","HOUSE_NO":"６２之７號","E_COORD97":175203.04928599999,"N_COORD97":2534587.4438299998,"ADDRESS":"大潭一街６２之７號","OBJECTID":663499},"geometry":{"x":175203.04928600136,"y":2534587.4438320007}},{"attributes":{"ID":663527,"DIS_CODE":0,"TOWNNAME":"歸仁區","LI":"大潭里","LIN":"5鄰","STREET":"大潭一街","SECT":" ","MAREA":" ","LANE":" ","ALLEY":" ","HOUSE_NO":"６２之８號","E_COORD97":175202.20166699999,"N_COORD97":2534589.7721600002,"ADDRESS":"大潭一街６２之８號","OBJECTID":663500},"geometry":{"x":175202.20166699961,"y":2534589.7721640039}},{"attributes":{"ID":663528,"DIS_CODE":0,"TOWNNAME":"歸仁區","LI":"大潭里","LIN":"5鄰","STREET":"大潭一街","SECT":" ","MAREA":" ","LANE":" ","ALLEY":" ","HOUSE_NO":"６２之９號","E_COORD97":175201.142143,"N_COORD97":2534592.3121600002,"ADDRESS":"大潭一街６２之９號","OBJECTID":663501},"geometry":{"x":175201.14214300085,"y":2534592.3121629991}},{"attributes":{"ID":663529,"DIS_CODE":0,"TOWNNAME":"歸仁區","LI":"大潭里","LIN":"5鄰","STREET":"大潭一街","SECT":" ","MAREA":" ","LANE":" ","ALLEY":" ","HOUSE_NO":"６２之１０號","E_COORD97":175200.294524,"N_COORD97":2534594.6404900001,"ADDRESS":"大潭一街６２之１０號","OBJECTID":663502},"geometry":{"x":175200.29452400096,"y":2534594.6404950004}},{"attributes":{"ID":663530,"DIS_CODE":0,"TOWNNAME":"歸仁區","LI":"大潭里","LIN":"5鄰","STREET":"大潭一街","SECT":" ","MAREA":" ","LANE":" ","ALLEY":" ","HOUSE_NO":"６２之１１號","E_COORD97":175199.23500099999,"N_COORD97":2534597.1804900002,"ADDRESS":"大潭一街６２之１１號","OBJECTID":663503},"geometry":{"x":175199.23500099964,"y":2534597.1804940011}},{"attributes":{"ID":663531,"DIS_CODE":0,"TOWNNAME":"歸仁區","LI":"大潭里","LIN":"5鄰","STREET":"大潭一街","SECT":" ","MAREA":" ","LANE":" ","ALLEY":" ","HOUSE_NO":"６２之１２號","E_COORD97":175192.665954,"N_COORD97":2534596.9688300001,"ADDRESS":"大潭一街６２之１２號","OBJECTID":663504},"geometry":{"x":175192.66595400218,"y":2534596.9688269999}},{"attributes":{"ID":663532,"DIS_CODE":0,"TOWNNAME":"歸仁區","LI":"大潭里","LIN":"5鄰","STREET":"大潭一街","SECT":" ","MAREA":" ","LANE":" ","ALLEY":" ","HOUSE_NO":"６２之１３號","E_COORD97":175194.14928700001,"N_COORD97":2534595.0638299999,"ADDRESS":"大潭一街６２之１３號","OBJECTID":663505},"geometry":{"x":175194.14928700216,"y":2534595.0638279989}},{"attributes":{"ID":663533,"DIS_CODE":0,"TOWNNAME":"歸仁區","LI":"大潭里","LIN":"5鄰","STREET":"大潭一街","SECT":" ","MAREA":" ","LANE":" ","ALLEY":" ","HOUSE_NO":"６２之１５號","E_COORD97":175194.99690599999,"N_COORD97":2534593.3705000002,"ADDRESS":"大潭一街６２之１５號","OBJECTID":663506},"geometry":{"x":175194.99690600112,"y":2534593.3704960011}},{"attributes":{"ID":663534,"DIS_CODE":0,"TOWNNAME":"歸仁區","LI":"大潭里","LIN":"5鄰","STREET":"大潭一街","SECT":" ","MAREA":" ","LANE":" ","ALLEY":" ","HOUSE_NO":"６２之１６號","E_COORD97":175195.42071499999,"N_COORD97":2534591.67716,"ADDRESS":"大潭一街６２之１６號","OBJECTID":663507},"geometry":{"x":175195.42071500048,"y":2534591.677163003}},{"attributes":{"ID":663535,"DIS_CODE":0,"TOWNNAME":"歸仁區","LI":"大潭里","LIN":"5鄰","STREET":"大潭一街","SECT":" ","MAREA":" ","LANE":" ","ALLEY":" ","HOUSE_NO":"６２之１７號","E_COORD97":175196.480239,"N_COORD97":2534590.1954999999,"ADDRESS":"大潭一街６２之１７號","OBJECTID":663508},"geometry":{"x":175196.4802390011,"y":2534590.1954970025}},{"attributes":{"ID":663536,"DIS_CODE":0,"TOWNNAME":"歸仁區","LI":"大潭里","LIN":"5鄰","STREET":"大潭一街","SECT":" ","MAREA":" ","LANE":" ","ALLEY":" ","HOUSE_NO":"６２之１８號","E_COORD97":175196.904049,"N_COORD97":2534588.5021700002,"ADDRESS":"大潭一街６２之１８號","OBJECTID":663509},"geometry":{"x":175196.90404899977,"y":2534588.5021650027}},{"attributes":{"ID":663537,"DIS_CODE":0,"TOWNNAME":"歸仁區","LI":"大潭里","LIN":"5鄰","STREET":"大潭一街","SECT":" ","MAREA":" ","LANE":" ","ALLEY":" ","HOUSE_NO":"６２之１９號","E_COORD97":175197.53976300001,"N_COORD97":2534586.80883,"ADDRESS":"大潭一街６２之１９號","OBJECTID":663510},"geometry":{"x":175197.53976299986,"y":2534586.8088330012}},{"attributes":{"ID":663538,"DIS_CODE":0,"TOWNNAME":"北門區","LI":"中樞里","LIN":"11鄰","STREET":" ","SECT":" ","MAREA":"溪底寮","LANE":" ","ALLEY":" ","HOUSE_NO":"１００之４號","E_COORD97":161343.55697500001,"N_COORD97":2570468.9860999999,"ADDRESS":"溪底寮１００之４號","OBJECTID":663511},"geometry":{"x":161343.55697500147,"y":2570468.986099001}},{"attributes":{"ID":663539,"DIS_CODE":0,"TOWNNAME":"歸仁區","LI":"大潭里","LIN":"3鄰","STREET":"長榮路","SECT":"一段","MAREA":" ","LANE":" ","ALLEY":" ","HOUSE_NO":"７１１號","E_COORD97":176229.72777500001,"N_COORD97":2534516.32387,"ADDRESS":"長榮路一段７１１號","OBJECTID":663512},"geometry":{"x":176229.72777500004,"y":2534516.3238709997}},{"attributes":{"ID":663540,"DIS_CODE":0,"TOWNNAME":"北門區","LI":"中樞里","LIN":"11鄰","STREET":" ","SECT":" ","MAREA":"溪底寮","LANE":" ","ALLEY":" ","HOUSE_NO":"１００之３號","E_COORD97":161013.88373999999,"N_COORD97":2570298.27703,"ADDRESS":"溪底寮１００之３號","OBJECTID":663513},"geometry":{"x":161013.88374000043,"y":2570298.2770249993}},{"attributes":{"ID":663541,"DIS_CODE":0,"TOWNNAME":"北門區","LI":"中樞里","LIN":"11鄰","STREET":" ","SECT":" ","MAREA":"溪底寮","LANE":" ","ALLEY":" ","HOUSE_NO":"１００之８號","E_COORD97":161489.69586499999,"N_COORD97":2570042.9277900001,"ADDRESS":"溪底寮１００之８號","OBJECTID":663514},"geometry":{"x":161489.69586499967,"y":2570042.9277870003}},{"attributes":{"ID":663542,"DIS_CODE":0,"TOWNNAME":"北門區","LI":"中樞里","LIN":"11鄰","STREET":" ","SECT":" ","MAREA":"溪底寮","LANE":" ","ALLEY":" ","HOUSE_NO":"１０１號","E_COORD97":160176.32150600001,"N_COORD97":2569977.8966600001,"ADDRESS":"溪底寮１０１號","OBJECTID":663515},"geometry":{"x":160176.32150600106,"y":2569977.8966649976}},{"attributes":{"ID":663543,"DIS_CODE":0,"TOWNNAME":"佳里區","LI":"鎮山里","LIN":"23鄰","STREET":"仁愛路","SECT":" ","MAREA":" ","LANE":" ","ALLEY":" ","HOUSE_NO":"１２３號","E_COORD97":166426.72330400001,"N_COORD97":2561342.1471099998,"ADDRESS":"仁愛路１２３號","OBJECTID":663516},"geometry":{"x":166426.72330399975,"y":2561342.1471090019}},{"attributes":{"ID":663544,"DIS_CODE":0,"TOWNNAME":"新化區","LI":"知義里","LIN":"14鄰","STREET":"復興路","SECT":" ","MAREA":" ","LANE":" ","ALLEY":" ","HOUSE_NO":"２號","E_COORD97":179646.95791200001,"N_COORD97":2547218.82161,"ADDRESS":"復興路２號","OBJECTID":663517},"geometry":{"x":179646.95791200083,"y":2547218.8216050044}},{"attributes":{"ID":663545,"DIS_CODE":0,"TOWNNAME":"新化區","LI":"知義里","LIN":"14鄰","STREET":"復興路","SECT":" ","MAREA":" ","LANE":" ","ALLEY":" ","HOUSE_NO":"５８號","E_COORD97":179582.550216,"N_COORD97":2547516.8481100001,"ADDRESS":"復興路５８號","OBJECTID":663518},"geometry":{"x":179582.55021600146,"y":2547516.8481109999}},{"attributes":{"ID":663546,"DIS_CODE":0,"TOWNNAME":"新化區","LI":"知義里","LIN":"14鄰","STREET":"復興路","SECT":" ","MAREA":" ","LANE":" ","ALLEY":" ","HOUSE_NO":"７３號","E_COORD97":179526.617218,"N_COORD97":2547555.26559,"ADDRESS":"復興路７３號","OBJECTID":663519},"geometry":{"x":179526.61721800081,"y":2547555.2655900046}},{"attributes":{"ID":663547,"DIS_CODE":0,"TOWNNAME":"新化區","LI":"知義里","LIN":"14鄰","STREET":"復興路","SECT":" ","MAREA":" ","LANE":" ","ALLEY":" ","HOUSE_NO":"１００號","E_COORD97":179524.40849999999,"N_COORD97":2547642.8331800001,"ADDRESS":"復興路１００號","OBJECTID":663520},"geometry":{"x":179524.40850000083,"y":2547642.8331770021}},{"attributes":{"ID":663548,"DIS_CODE":0,"TOWNNAME":"新化區","LI":"知義里","LIN":"14鄰","STREET":"復興路","SECT":" ","MAREA":" ","LANE":"１１４巷","ALLEY":" ","HOUSE_NO":"３號","E_COORD97":179570.73853199999,"N_COORD97":2547717.0849700002,"ADDRESS":"復興路１１４巷３號","OBJECTID":663521},"geometry":{"x":179570.73853200022,"y":2547717.0849709995}},{"attributes":{"ID":663549,"DIS_CODE":0,"TOWNNAME":"新化區","LI":"知義里","LIN":"14鄰","STREET":"復興路","SECT":" ","MAREA":" ","LANE":" ","ALLEY":" ","HOUSE_NO":"１２１號","E_COORD97":179471.16084500001,"N_COORD97":2547765.4507800001,"ADDRESS":"復興路１２１號","OBJECTID":663522},"geometry":{"x":179471.16084500216,"y":2547765.4507780001}},{"attributes":{"ID":663550,"DIS_CODE":0,"TOWNNAME":"新營區","LI":"民權里","LIN":"15鄰","STREET":"信義街","SECT":" ","MAREA":" ","LANE":" ","ALLEY":" ","HOUSE_NO":"６９號","E_COORD97":179897.12770899999,"N_COORD97":2578543.2215300002,"ADDRESS":"信義街６９號","OBJECTID":663523},"geometry":{"x":179897.12770899944,"y":2578543.2215330005}},{"attributes":{"ID":663551,"DIS_CODE":0,"TOWNNAME":"新營區","LI":"新東里","LIN":"9鄰","STREET":"東仁街","SECT":" ","MAREA":" ","LANE":"２１巷","ALLEY":" ","HOUSE_NO":"２號","E_COORD97":181266.69792000001,"N_COORD97":2579596.65699,"ADDRESS":"東２１巷２號","OBJECTID":663524},"geometry":{"x":181266.69792000111,"y":2579596.6569900028}},{"attributes":{"ID":663552,"DIS_CODE":0,"TOWNNAME":"新營區","LI":"新東里","LIN":"9鄰","STREET":"東仁街","SECT":" ","MAREA":" ","LANE":" ","ALLEY":" ","HOUSE_NO":"２３號","E_COORD97":181270.61842700001,"N_COORD97":2579600.6786600002,"ADDRESS":"東仁街２３號","OBJECTID":663525},"geometry":{"x":181270.61842700001,"y":2579600.6786589995}},{"attributes":{"ID":663553,"DIS_CODE":0,"TOWNNAME":"山上區","LI":"南洲里","LIN":"8鄰","STREET":" ","SECT":" ","MAREA":"南洲","LANE":" ","ALLEY":" ","HOUSE_NO":"３０之６號","E_COORD97":183779.31135999999,"N_COORD97":2555381.1186799998,"ADDRESS":"南洲３０之６號","OBJECTID":663526},"geometry":{"x":183779.31136000063,"y":2555381.1186770033}},{"attributes":{"ID":663554,"DIS_CODE":0,"TOWNNAME":"安定區","LI":"新吉里","LIN":"7鄰","STREET":" ","SECT":" ","MAREA":"新吉","LANE":" ","ALLEY":" ","HOUSE_NO":"５５之４５號","E_COORD97":168810.06517099999,"N_COORD97":2553885.1954399999,"ADDRESS":"新吉５５之４５號","OBJECTID":663527},"geometry":{"x":168810.06517099962,"y":2553885.1954380013}},{"attributes":{"ID":663555,"DIS_CODE":0,"TOWNNAME":"安定區","LI":"新吉里","LIN":"7鄰","STREET":" ","SECT":" ","MAREA":"新吉","LANE":" ","ALLEY":" ","HOUSE_NO":"５８之３號","E_COORD97":168813.13641199999,"N_COORD97":2553897.4720999999,"ADDRESS":"新吉５８之３號","OBJECTID":663528},"geometry":{"x":168813.13641200215,"y":2553897.4720980022}},{"attributes":{"ID":663556,"DIS_CODE":0,"TOWNNAME":"安定區","LI":"新吉里","LIN":"7鄰","STREET":" ","SECT":" ","MAREA":"新吉","LANE":" ","ALLEY":" ","HOUSE_NO":"５６之１６６號","E_COORD97":168687.72703099999,"N_COORD97":2553835.34797,"ADDRESS":"新吉５６之１６６號","OBJECTID":663529},"geometry":{"x":168687.72703099996,"y":2553835.3479650002}},{"attributes":{"ID":663557,"DIS_CODE":0,"TOWNNAME":"安定區","LI":"保西里","LIN":"6鄰","STREET":" ","SECT":" ","MAREA":"安定","LANE":" ","ALLEY":" ","HOUSE_NO":"３８３之１號","E_COORD97":171612.66034900001,"N_COORD97":2557691.8067200002,"ADDRESS":"安定３８３之１號","OBJECTID":663530},"geometry":{"x":171612.66034900118,"y":2557691.8067160044}},{"attributes":{"ID":663558,"DIS_CODE":0,"TOWNNAME":"安定區","LI":"中沙里","LIN":"1鄰","STREET":" ","SECT":" ","MAREA":"中崙","LANE":" ","ALLEY":" ","HOUSE_NO":"８６之５號","E_COORD97":168868.400719,"N_COORD97":2553241.62329,"ADDRESS":"中崙８６之５號","OBJECTID":663531},"geometry":{"x":168868.40071900003,"y":2553241.6232860014}},{"attributes":{"ID":663559,"DIS_CODE":0,"TOWNNAME":"安定區","LI":"中沙里","LIN":"1鄰","STREET":" ","SECT":" ","MAREA":"中崙","LANE":" ","ALLEY":" ","HOUSE_NO":"８６之６號","E_COORD97":168854.31537299999,"N_COORD97":2553234.7441199999,"ADDRESS":"中崙８６之６號","OBJECTID":663532},"geometry":{"x":168854.31537299976,"y":2553234.7441230025}},{"attributes":{"ID":663560,"DIS_CODE":0,"TOWNNAME":"安定區","LI":"蘇厝里","LIN":"16鄰","STREET":" ","SECT":" ","MAREA":"蘇厝","LANE":" ","ALLEY":" ","HOUSE_NO":"４３７號之４","E_COORD97":173189.10711099999,"N_COORD97":2558759.5586399999,"ADDRESS":"蘇厝４３７號之４","OBJECTID":663533},"geometry":{"x":173189.10711100046,"y":2558759.5586390048}},{"attributes":{"ID":663561,"DIS_CODE":0,"TOWNNAME":"安定區","LI":"蘇厝里","LIN":"16鄰","STREET":" ","SECT":" ","MAREA":"蘇厝","LANE":" ","ALLEY":" ","HOUSE_NO":"４３７號之６","E_COORD97":173189.318921,"N_COORD97":2558750.9861400002,"ADDRESS":"蘇厝４３７號之６","OBJECTID":663534},"geometry":{"x":173189.3189210007,"y":2558750.9861440025}},{"attributes":{"ID":663562,"DIS_CODE":0,"TOWNNAME":"新化區","LI":"山\u25A0里","LIN":"9鄰","STREET":" ","SECT":" ","MAREA":"五甲勢","LANE":" ","ALLEY":" ","HOUSE_NO":"２號","E_COORD97":181590.63067499999,"N_COORD97":2546178.90331,"ADDRESS":"五甲勢２號","OBJECTID":663535},"geometry":{"x":181590.63067500014,"y":2546178.9033060018}},{"attributes":{"ID":663563,"DIS_CODE":0,"TOWNNAME":"新化區","LI":"山\u25A0里","LIN":"9鄰","STREET":" ","SECT":" ","MAREA":"五甲勢","LANE":" ","ALLEY":" ","HOUSE_NO":"３號","E_COORD97":181587.34672999999,"N_COORD97":2546169.8016400002,"ADDRESS":"五甲勢３號","OBJECTID":663536},"geometry":{"x":181587.34673000127,"y":2546169.801644003}},{"attributes":{"ID":663564,"DIS_CODE":0,"TOWNNAME":"南區","LI":"日新里","LIN":"8鄰","STREET":"金華路","SECT":"一段","MAREA":" ","LANE":"５０３巷","ALLEY":" ","HOUSE_NO":"１９號","E_COORD97":166954.90818299999,"N_COORD97":2541677.13075,"ADDRESS":"金華路一段５０３巷１９號","OBJECTID":663537},"geometry":{"x":166954.90818300098,"y":2541677.1307490002}},{"attributes":{"ID":663565,"DIS_CODE":0,"TOWNNAME":"新化區","LI":"山\u25A0里","LIN":"9鄰","STREET":" ","SECT":" ","MAREA":"五甲勢","LANE":" ","ALLEY":" ","HOUSE_NO":"５號","E_COORD97":181483.95542899999,"N_COORD97":2546175.7812299998,"ADDRESS":"五甲勢５號","OBJECTID":663538},"geometry":{"x":181483.95542900078,"y":2546175.7812249996}},{"attributes":{"ID":663566,"DIS_CODE":0,"TOWNNAME":"新化區","LI":"山\u25A0里","LIN":"9鄰","STREET":" ","SECT":" ","MAREA":"五甲勢","LANE":" ","ALLEY":" ","HOUSE_NO":"６號","E_COORD97":181501.11669,"N_COORD97":2546227.6395299998,"ADDRESS":"五甲勢６號","OBJECTID":663539},"geometry":{"x":181501.11669000052,"y":2546227.6395299993}},{"attributes":{"ID":663567,"DIS_CODE":0,"TOWNNAME":"安定區","LI":"蘇厝里","LIN":"15鄰","STREET":" ","SECT":" ","MAREA":"蘇厝","LANE":" ","ALLEY":" ","HOUSE_NO":"４２９號","E_COORD97":173173.55848899999,"N_COORD97":2558719.9258500002,"ADDRESS":"蘇厝４２９號","OBJECTID":663540},"geometry":{"x":173173.55848900042,"y":2558719.9258469995}},{"attributes":{"ID":663568,"DIS_CODE":0,"TOWNNAME":"南區","LI":"日新里","LIN":"8鄰","STREET":"金華路","SECT":"一段","MAREA":" ","LANE":"５０３巷","ALLEY":" ","HOUSE_NO":"１７號","E_COORD97":166957.66167100001,"N_COORD97":2541682.6340800002,"ADDRESS":"金華路一段５０３巷１７號","OBJECTID":663541},"geometry":{"x":166957.66167100053,"y":2541682.6340800021}},{"attributes":{"ID":663569,"DIS_CODE":0,"TOWNNAME":"南區","LI":"日新里","LIN":"8鄰","STREET":"金華路","SECT":"一段","MAREA":" ","LANE":"５０３巷","ALLEY":" ","HOUSE_NO":"１５號","E_COORD97":166962.74503200001,"N_COORD97":2541684.3274099999,"ADDRESS":"金華路一段５０３巷１５號","OBJECTID":663542},"geometry":{"x":166962.74503200129,"y":2541684.3274119999}},{"attributes":{"ID":663570,"DIS_CODE":0,"TOWNNAME":"南區","LI":"日新里","LIN":"8鄰","STREET":"金華路","SECT":"一段","MAREA":" ","LANE":"５０３巷","ALLEY":" ","HOUSE_NO":"１３號","E_COORD97":166967.616587,"N_COORD97":2541684.9624100002,"ADDRESS":"金華路一段５０３巷１３號","OBJECTID":663543},"geometry":{"x":166967.61658700183,"y":2541684.9624119997}},{"attributes":{"ID":663571,"DIS_CODE":0,"TOWNNAME":"安定區","LI":"管寮里","LIN":"2鄰","STREET":" ","SECT":" ","MAREA":"管寮","LANE":" ","ALLEY":" ","HOUSE_NO":"１３號之９","E_COORD97":170310.79131999999,"N_COORD97":2555510.6375799999,"ADDRESS":"管寮１３之９號","OBJECTID":663544},"geometry":{"x":170310.79132000078,"y":2555510.6375800017}},{"attributes":{"ID":663572,"DIS_CODE":0,"TOWNNAME":"新化區","LI":"山\u25A0里","LIN":"9鄰","STREET":" ","SECT":" ","MAREA":"五甲勢","LANE":" ","ALLEY":" ","HOUSE_NO":"８號","E_COORD97":181373.57250400001,"N_COORD97":2546227.4278600002,"ADDRESS":"五甲勢８號","OBJECTID":663545},"geometry":{"x":181373.57250400074,"y":2546227.4278630018}},{"attributes":{"ID":663573,"DIS_CODE":0,"TOWNNAME":"新化區","LI":"山\u25A0里","LIN":"9鄰","STREET":" ","SECT":" ","MAREA":"五甲勢","LANE":" ","ALLEY":" ","HOUSE_NO":"９號","E_COORD97":181472.93832399999,"N_COORD97":2546151.12207,"ADDRESS":"五甲勢９號","OBJECTID":663546},"geometry":{"x":181472.93832399976,"y":2546151.1220710017}},{"attributes":{"ID":663574,"DIS_CODE":0,"TOWNNAME":"新化區","LI":"山\u25A0里","LIN":"9鄰","STREET":" ","SECT":" ","MAREA":"五甲勢","LANE":" ","ALLEY":" ","HOUSE_NO":"１０號","E_COORD97":181463.82802399999,"N_COORD97":2546128.2620799998,"ADDRESS":"五甲勢１０號","OBJECTID":663547},"geometry":{"x":181463.82802400086,"y":2546128.2620830014}},{"attributes":{"ID":663575,"DIS_CODE":0,"TOWNNAME":"新化區","LI":"山\u25A0里","LIN":"9鄰","STREET":" ","SECT":" ","MAREA":"五甲勢","LANE":" ","ALLEY":" ","HOUSE_NO":"１１號","E_COORD97":181886.50352699999,"N_COORD97":2545991.6313200002,"ADDRESS":"五甲勢１１號","OBJECTID":663548},"geometry":{"x":181886.50352699962,"y":2545991.6313240007}},{"attributes":{"ID":663576,"DIS_CODE":0,"TOWNNAME":"新化區","LI":"山\u25A0里","LIN":"9鄰","STREET":" ","SECT":" ","MAREA":"五甲勢","LANE":" ","ALLEY":" ","HOUSE_NO":"１６號","E_COORD97":182017.225725,"N_COORD97":2545966.5488399998,"ADDRESS":"五甲勢１６號","OBJECTID":663549},"geometry":{"x":182017.22572500072,"y":2545966.5488370024}},{"attributes":{"ID":663577,"DIS_CODE":0,"TOWNNAME":"南區","LI":"明亮里","LIN":"28鄰","STREET":"金華路","SECT":"一段","MAREA":" ","LANE":"４８４巷","ALLEY":" ","HOUSE_NO":"２０８號","E_COORD97":167377.674443,"N_COORD97":2541172.30602,"ADDRESS":"金華路一段４８４巷２０８號","OBJECTID":663550},"geometry":{"x":167377.67444300186,"y":2541172.3060219996}},{"attributes":{"ID":663578,"DIS_CODE":0,"TOWNNAME":"南區","LI":"明亮里","LIN":"28鄰","STREET":"金華路","SECT":"一段","MAREA":" ","LANE":"４８４巷","ALLEY":" ","HOUSE_NO":"２０６號","E_COORD97":167369.41398000001,"N_COORD97":2541183.7360200002,"ADDRESS":"金華路一段４８４巷２０６號","OBJECTID":663551},"geometry":{"x":167369.41398000158,"y":2541183.7360160016}},{"attributes":{"ID":663579,"DIS_CODE":0,"TOWNNAME":"南區","LI":"明亮里","LIN":"17鄰","STREET":"金華路","SECT":"一段","MAREA":" ","LANE":"３５２巷","ALLEY":"９７弄","HOUSE_NO":"４８號","E_COORD97":167315.61506700001,"N_COORD97":2541177.8093500002,"ADDRESS":"金華路一段３５２巷９７弄４８號","OBJECTID":663552},"geometry":{"x":167315.6150670005,"y":2541177.809352003}},{"attributes":{"ID":663580,"DIS_CODE":0,"TOWNNAME":"南區","LI":"明亮里","LIN":"17鄰","STREET":"金華路","SECT":"一段","MAREA":" ","LANE":"３５２巷","ALLEY":"９７弄","HOUSE_NO":"５０號","E_COORD97":167318.15674800001,"N_COORD97":2541171.4593600002,"ADDRESS":"金華路一段３５２巷９７弄５０號","OBJECTID":663553},"geometry":{"x":167318.1567479996,"y":2541171.4593560025}},{"attributes":{"ID":663581,"DIS_CODE":0,"TOWNNAME":"南區","LI":"明亮里","LIN":"17鄰","STREET":"金華路","SECT":"一段","MAREA":" ","LANE":"３５２巷","ALLEY":"９７弄","HOUSE_NO":"５２號","E_COORD97":167322.39288299999,"N_COORD97":2541163.41603,"ADDRESS":"金華路一段３５２巷９７弄５２號","OBJECTID":663554},"geometry":{"x":167322.3928830009,"y":2541163.416027002}},{"attributes":{"ID":663582,"DIS_CODE":0,"TOWNNAME":"南區","LI":"明亮里","LIN":"17鄰","STREET":"金華路","SECT":"一段","MAREA":" ","LANE":"３５２巷","ALLEY":"９７弄","HOUSE_NO":"５６號","E_COORD97":167325.569984,"N_COORD97":2541157.0660299999,"ADDRESS":"金華路一段３５２巷９７弄５６號","OBJECTID":663555},"geometry":{"x":167325.56998400111,"y":2541157.0660300031}},{"attributes":{"ID":663583,"DIS_CODE":0,"TOWNNAME":"新化區","LI":"山\u25A0里","LIN":"10鄰","STREET":" ","SECT":" ","MAREA":"五甲勢","LANE":" ","ALLEY":" ","HOUSE_NO":"４３號","E_COORD97":181844.34190999999,"N_COORD97":2545644.4981800001,"ADDRESS":"五甲勢４３號","OBJECTID":663556},"geometry":{"x":181844.34191000089,"y":2545644.4981780034}},{"attributes":{"ID":663584,"DIS_CODE":0,"TOWNNAME":"新化區","LI":"山\u25A0里","LIN":"10鄰","STREET":" ","SECT":" ","MAREA":"五甲勢","LANE":" ","ALLEY":" ","HOUSE_NO":"４４號","E_COORD97":181830.14679299999,"N_COORD97":2545636.66652,"ADDRESS":"五甲勢４４號","OBJECTID":663557},"geometry":{"x":181830.14679300133,"y":2545636.6665160023}},{"attributes":{"ID":663585,"DIS_CODE":0,"TOWNNAME":"南區","LI":"明亮里","LIN":"17鄰","STREET":"金華路","SECT":"一段","MAREA":" ","LANE":"３５２巷","ALLEY":"９７弄","HOUSE_NO":"５８號","E_COORD97":167333.83044699999,"N_COORD97":2541186.2760100001,"ADDRESS":"金華路一段３５２巷９７弄５８號","OBJECTID":663558},"geometry":{"x":167333.83044700138,"y":2541186.276014002}},{"attributes":{"ID":663586,"DIS_CODE":0,"TOWNNAME":"南區","LI":"明亮里","LIN":"17鄰","STREET":"金華路","SECT":"一段","MAREA":" ","LANE":"３５２巷","ALLEY":"９７弄","HOUSE_NO":"６０號","E_COORD97":167337.00754799999,"N_COORD97":2541179.71435,"ADDRESS":"金華路一段３５２巷９７弄６０號","OBJECTID":663559},"geometry":{"x":167337.00754800159,"y":2541179.7143510021}},{"attributes":{"ID":663587,"DIS_CODE":0,"TOWNNAME":"南區","LI":"明亮里","LIN":"17鄰","STREET":"金華路","SECT":"一段","MAREA":" ","LANE":"３５２巷","ALLEY":"９７弄","HOUSE_NO":"６２號","E_COORD97":167341.66729700001,"N_COORD97":2541172.30602,"ADDRESS":"金華路一段３５２巷９７弄６２號","OBJECTID":663560},"geometry":{"x":167341.66729700007,"y":2541172.3060219996}},{"attributes":{"ID":663588,"DIS_CODE":0,"TOWNNAME":"南區","LI":"明亮里","LIN":"17鄰","STREET":"金華路","SECT":"一段","MAREA":" ","LANE":"３５２巷","ALLEY":"９７弄","HOUSE_NO":"６６號","E_COORD97":167344.632591,"N_COORD97":2541167.0143599999,"ADDRESS":"金華路一段３５２巷９７弄６６號","OBJECTID":663561},"geometry":{"x":167344.63259100076,"y":2541167.014357999}},{"attributes":{"ID":663589,"DIS_CODE":0,"TOWNNAME":"新化區","LI":"山\u25A0里","LIN":"10鄰","STREET":" ","SECT":" ","MAREA":"五甲勢","LANE":" ","ALLEY":" ","HOUSE_NO":"５０號","E_COORD97":181883.74924999999,"N_COORD97":2545663.44233,"ADDRESS":"五甲勢５０號","OBJECTID":663562},"geometry":{"x":181883.74925000034,"y":2545663.442334}},{"attributes":{"ID":663590,"DIS_CODE":0,"TOWNNAME":"新化區","LI":"山\u25A0里","LIN":"11鄰","STREET":" ","SECT":" ","MAREA":"五甲勢","LANE":" ","ALLEY":" ","HOUSE_NO":"５９號","E_COORD97":181912.563219,"N_COORD97":2545519.9324099999,"ADDRESS":"五甲勢５９號","OBJECTID":663563},"geometry":{"x":181912.56321900152,"y":2545519.9324120004}},{"attributes":{"ID":663591,"DIS_CODE":0,"TOWNNAME":"南區","LI":"明亮里","LIN":"17鄰","STREET":"金華路","SECT":"一段","MAREA":" ","LANE":"３５２巷","ALLEY":"９７弄","HOUSE_NO":"６８號","E_COORD97":167349.821856,"N_COORD97":2541190.72101,"ADDRESS":"金華路一段３５２巷９７弄６８號","OBJECTID":663564},"geometry":{"x":167349.82185599953,"y":2541190.7210120019}},{"attributes":{"ID":663592,"DIS_CODE":0,"TOWNNAME":"南區","LI":"明亮里","LIN":"17鄰","STREET":"金華路","SECT":"一段","MAREA":" ","LANE":"３５２巷","ALLEY":"９７弄","HOUSE_NO":"７０號","E_COORD97":167271.66516800001,"N_COORD97":2541144.1543700001,"ADDRESS":"金華路一段３５２巷９７弄７０號","OBJECTID":663565},"geometry":{"x":167271.66516800132,"y":2541144.1543710027}},{"attributes":{"ID":663593,"DIS_CODE":0,"TOWNNAME":"南區","LI":"明亮里","LIN":"17鄰","STREET":"金華路","SECT":"一段","MAREA":" ","LANE":"３５２巷","ALLEY":"９７弄","HOUSE_NO":"７０號","E_COORD97":167360.20038699999,"N_COORD97":2541197.0710100001,"ADDRESS":"金華路一段３５２巷９７弄７０號","OBJECTID":663566},"geometry":{"x":167360.20038700011,"y":2541197.0710090008}},{"attributes":{"ID":663594,"DIS_CODE":0,"TOWNNAME":"新化區","LI":"山\u25A0里","LIN":"11鄰","STREET":" ","SECT":" ","MAREA":"五甲勢","LANE":" ","ALLEY":" ","HOUSE_NO":"６３號之３","E_COORD97":181973.79290299999,"N_COORD97":2545394.20248,"ADDRESS":"五甲勢６３號之３","OBJECTID":663567},"geometry":{"x":181973.79290300049,"y":2545394.2024799995}},{"attributes":{"ID":663595,"DIS_CODE":0,"TOWNNAME":"新化區","LI":"山\u25A0里","LIN":"5鄰","STREET":" ","SECT":" ","MAREA":"頂山\u25A0","LANE":" ","ALLEY":" ","HOUSE_NO":"２１號之４","E_COORD97":179550.77010299999,"N_COORD97":2546818.8245100002,"ADDRESS":"頂山\u25A0２１號之４","OBJECTID":663568},"geometry":{"x":179550.7701030001,"y":2546818.824512003}},{"attributes":{"ID":663596,"DIS_CODE":0,"TOWNNAME":"安定區","LI":"港南里","LIN":"3鄰","STREET":" ","SECT":" ","MAREA":"港口","LANE":" ","ALLEY":" ","HOUSE_NO":"２１之１６號","E_COORD97":171120.75167600001,"N_COORD97":2553867.3643,"ADDRESS":"港口２１之１６號","OBJECTID":663569},"geometry":{"x":171120.75167600065,"y":2553867.3643009998}},{"attributes":{"ID":663597,"DIS_CODE":0,"TOWNNAME":"新化區","LI":"山\u25A0里","LIN":"2鄰","STREET":" ","SECT":" ","MAREA":"頂山\u25A0","LANE":" ","ALLEY":" ","HOUSE_NO":"２４號","E_COORD97":179536.57498599999,"N_COORD97":2546718.3887299998,"ADDRESS":"頂山\u25A0２４號","OBJECTID":663570},"geometry":{"x":179536.57498600055,"y":2546718.3887330014}},{"attributes":{"ID":663598,"DIS_CODE":0,"TOWNNAME":"新化區","LI":"山\u25A0里","LIN":"2鄰","STREET":" ","SECT":" ","MAREA":"頂山\u25A0","LANE":" ","ALLEY":" ","HOUSE_NO":"４２號","E_COORD97":179394.83568300001,"N_COORD97":2546703.8895700001,"ADDRESS":"頂山\u25A0４２號","OBJECTID":663571},"geometry":{"x":179394.83568300027,"y":2546703.8895740006}},{"attributes":{"ID":663599,"DIS_CODE":0,"TOWNNAME":"新化區","LI":"山\u25A0里","LIN":"2鄰","STREET":" ","SECT":" ","MAREA":"頂山\u25A0","LANE":" ","ALLEY":" ","HOUSE_NO":"４３號","E_COORD97":179386.149118,"N_COORD97":2546717.8595699999,"ADDRESS":"頂山\u25A0４３號","OBJECTID":663572},"geometry":{"x":179386.14911800064,"y":2546717.8595660031}},{"attributes":{"ID":663600,"DIS_CODE":0,"TOWNNAME":"安定區","LI":"新吉里","LIN":"18鄰","STREET":" ","SECT":" ","MAREA":"新吉","LANE":" ","ALLEY":" ","HOUSE_NO":"２８５號","E_COORD97":168901.30356999999,"N_COORD97":2554158.1941399998,"ADDRESS":"新吉２８５號","OBJECTID":663573},"geometry":{"x":168901.30357000045,"y":2554158.1941439994}},{"attributes":{"ID":663601,"DIS_CODE":0,"TOWNNAME":"新化區","LI":"山\u25A0里","LIN":"2鄰","STREET":" ","SECT":" ","MAREA":"頂山\u25A0","LANE":" ","ALLEY":" ","HOUSE_NO":"４４號","E_COORD97":179291.86811700001,"N_COORD97":2546708.2287400002,"ADDRESS":"頂山\u25A0４４號","OBJECTID":663574},"geometry":{"x":179291.86811700091,"y":2546708.2287380025}},{"attributes":{"ID":663602,"DIS_CODE":0,"TOWNNAME":"新化區","LI":"山\u25A0里","LIN":"2鄰","STREET":" ","SECT":" ","MAREA":"頂山\u25A0","LANE":" ","ALLEY":" ","HOUSE_NO":"４４號之１","E_COORD97":179274.071253,"N_COORD97":2546703.3604100002,"ADDRESS":"頂山\u25A0４４號之１","OBJECTID":663575},"geometry":{"x":179274.07125299983,"y":2546703.3604080006}},{"attributes":{"ID":663603,"DIS_CODE":0,"TOWNNAME":"新化區","LI":"山\u25A0里","LIN":"2鄰","STREET":" ","SECT":" ","MAREA":"頂山\u25A0","LANE":" ","ALLEY":" ","HOUSE_NO":"５１號","E_COORD97":179224.91801200001,"N_COORD97":2546587.2612999999,"ADDRESS":"頂山\u25A0５１號","OBJECTID":663576},"geometry":{"x":179224.91801200062,"y":2546587.2613040023}},{"attributes":{"ID":663604,"DIS_CODE":0,"TOWNNAME":"新化區","LI":"山\u25A0里","LIN":"2鄰","STREET":" ","SECT":" ","MAREA":"頂山\u25A0","LANE":" ","ALLEY":" ","HOUSE_NO":"５３號之１","E_COORD97":179154.736703,"N_COORD97":2546003.3256799998,"ADDRESS":"頂山\u25A0５３號之１","OBJECTID":663577},"geometry":{"x":179154.73670300003,"y":2546003.3256749976}},{"attributes":{"ID":663605,"DIS_CODE":0,"TOWNNAME":"新化區","LI":"山\u25A0里","LIN":"2鄰","STREET":" ","SECT":" ","MAREA":"頂山\u25A0","LANE":" ","ALLEY":" ","HOUSE_NO":"５３號之２","E_COORD97":179182.27946799999,"N_COORD97":2546022.37567,"ADDRESS":"頂山\u25A0５３號之２","OBJECTID":663578},"geometry":{"x":179182.27946800087,"y":2546022.3756649997}},{"attributes":{"ID":663606,"DIS_CODE":0,"TOWNNAME":"新化區","LI":"山\u25A0里","LIN":"2鄰","STREET":" ","SECT":" ","MAREA":"頂山\u25A0","LANE":" ","ALLEY":" ","HOUSE_NO":"５３號之５","E_COORD97":179186.728684,"N_COORD97":2546172.1297499998,"ADDRESS":"頂山\u25A0５３號之５","OBJECTID":663579},"geometry":{"x":179186.7286840016,"y":2546172.1297500003}},{"attributes":{"ID":663607,"DIS_CODE":0,"TOWNNAME":"新化區","LI":"山\u25A0里","LIN":"2鄰","STREET":" ","SECT":" ","MAREA":"頂山\u25A0","LANE":" ","ALLEY":" ","HOUSE_NO":"５３號之２２","E_COORD97":179166.38941100001,"N_COORD97":2546593.2403600002,"ADDRESS":"頂山\u25A0５３號之２２","OBJECTID":663580},"geometry":{"x":179166.38941100053,"y":2546593.240356002}},{"attributes":{"ID":663608,"DIS_CODE":0,"TOWNNAME":"新化區","LI":"山\u25A0里","LIN":"2鄰","STREET":" ","SECT":" ","MAREA":"頂山\u25A0","LANE":" ","ALLEY":" ","HOUSE_NO":"５３號之２４","E_COORD97":179135.66863500001,"N_COORD97":2546603.1886800001,"ADDRESS":"頂山\u25A0５３號之２４","OBJECTID":663581},"geometry":{"x":179135.66863500141,"y":2546603.1886840034}},{"attributes":{"ID":663609,"DIS_CODE":0,"TOWNNAME":"新化區","LI":"山\u25A0里","LIN":"2鄰","STREET":" ","SECT":" ","MAREA":"頂山\u25A0","LANE":" ","ALLEY":" ","HOUSE_NO":"５３號之３５","E_COORD97":179138.63477900001,"N_COORD97":2546676.0019800002,"ADDRESS":"頂山\u25A0５３號之３５","OBJECTID":663582},"geometry":{"x":179138.63477899879,"y":2546676.0019780025}},{"attributes":{"ID":663610,"DIS_CODE":0,"TOWNNAME":"新化區","LI":"山\u25A0里","LIN":"2鄰","STREET":" ","SECT":" ","MAREA":"頂山\u25A0","LANE":" ","ALLEY":" ","HOUSE_NO":"５４號","E_COORD97":179298.170946,"N_COORD97":2546098.5756199998,"ADDRESS":"頂山\u25A0５４號","OBJECTID":663583},"geometry":{"x":179298.17094600014,"y":2546098.5756240003}},{"attributes":{"ID":663611,"DIS_CODE":0,"TOWNNAME":"新化區","LI":"山\u25A0里","LIN":"2鄰","STREET":" ","SECT":" ","MAREA":"頂山\u25A0","LANE":" ","ALLEY":" ","HOUSE_NO":"５４號之３２","E_COORD97":179323.38316900001,"N_COORD97":2546531.8570599998,"ADDRESS":"頂山\u25A0５４號之３２","OBJECTID":663584},"geometry":{"x":179323.38316900097,"y":2546531.8570559993}},{"attributes":{"ID":663612,"DIS_CODE":0,"TOWNNAME":"南區","LI":"明德里","LIN":"13鄰","STREET":"大成路","SECT":"一段","MAREA":" ","LANE":" ","ALLEY":" ","HOUSE_NO":"６０號","E_COORD97":168153.271412,"N_COORD97":2541754.8694000002,"ADDRESS":"大成路一段６０號","OBJECTID":663585},"geometry":{"x":168153.27141200099,"y":2541754.8693970013}},{"attributes":{"ID":663613,"DIS_CODE":0,"TOWNNAME":"南區","LI":"明德里","LIN":"13鄰","STREET":"大成路","SECT":"一段","MAREA":" ","LANE":" ","ALLEY":" ","HOUSE_NO":"５８號","E_COORD97":168157.71866700001,"N_COORD97":2541754.8694000002,"ADDRESS":"大成路一段５８號","OBJECTID":663586},"geometry":{"x":168157.71866700053,"y":2541754.8693970013}},{"attributes":{"ID":663614,"DIS_CODE":0,"TOWNNAME":"新化區","LI":"山\u25A0里","LIN":"2鄰","STREET":" ","SECT":" ","MAREA":"頂山\u25A0","LANE":" ","ALLEY":" ","HOUSE_NO":"５４號之３６","E_COORD97":179346.42382600001,"N_COORD97":2546534.5030399999,"ADDRESS":"頂山\u25A0５４號之３６","OBJECTID":663587},"geometry":{"x":179346.42382599972,"y":2546534.5030390024}},{"attributes":{"ID":663615,"DIS_CODE":0,"TOWNNAME":"新化區","LI":"山\u25A0里","LIN":"2鄰","STREET":" ","SECT":" ","MAREA":"頂山\u25A0","LANE":" ","ALLEY":" ","HOUSE_NO":"５４號之３７","E_COORD97":179363.161353,"N_COORD97":2546531.7513700002,"ADDRESS":"頂山\u25A0５４號之３７","OBJECTID":663588},"geometry":{"x":179363.1613530023,"y":2546531.7513740007}},{"attributes":{"ID":663616,"DIS_CODE":0,"TOWNNAME":"新化區","LI":"山\u25A0里","LIN":"2鄰","STREET":" ","SECT":" ","MAREA":"頂山\u25A0","LANE":" ","ALLEY":" ","HOUSE_NO":"５４號之３９","E_COORD97":179395.15333299999,"N_COORD97":2546542.9696999998,"ADDRESS":"頂山\u25A0５４號之３９","OBJECTID":663589},"geometry":{"x":179395.15333300177,"y":2546542.9697010033}},{"attributes":{"ID":663617,"DIS_CODE":0,"TOWNNAME":"新化區","LI":"山\u25A0里","LIN":"2鄰","STREET":" ","SECT":" ","MAREA":"頂山\u25A0","LANE":" ","ALLEY":" ","HOUSE_NO":"５４號之３９","E_COORD97":179395.15333299999,"N_COORD97":2546542.9696999998,"ADDRESS":"頂山\u25A0５４號之３９","OBJECTID":663590},"geometry":{"x":179395.15333300177,"y":2546542.9697010033}},{"attributes":{"ID":663618,"DIS_CODE":0,"TOWNNAME":"新化區","LI":"山\u25A0里","LIN":"2鄰","STREET":" ","SECT":" ","MAREA":"頂山\u25A0","LANE":" ","ALLEY":" ","HOUSE_NO":"５４號之９０","E_COORD97":179362.94948499999,"N_COORD97":2546070.52996,"ADDRESS":"頂山\u25A0５４號之９０","OBJECTID":663591},"geometry":{"x":179362.94948500209,"y":2546070.5299560018}},{"attributes":{"ID":663619,"DIS_CODE":0,"TOWNNAME":"新化區","LI":"山\u25A0里","LIN":"2鄰","STREET":" ","SECT":" ","MAREA":"頂山\u25A0","LANE":" ","ALLEY":" ","HOUSE_NO":"５５號之６０","E_COORD97":179452.357536,"N_COORD97":2546169.2724000001,"ADDRESS":"頂山\u25A0５５號之６０","OBJECTID":663592},"geometry":{"x":179452.35753600113,"y":2546169.2724030018}},{"attributes":{"ID":663620,"DIS_CODE":0,"TOWNNAME":"新化區","LI":"山\u25A0里","LIN":"2鄰","STREET":" ","SECT":" ","MAREA":"頂山\u25A0","LANE":" ","ALLEY":" ","HOUSE_NO":"５９號","E_COORD97":179410.19592,"N_COORD97":2546620.5454899999,"ADDRESS":"頂山\u25A0５９號","OBJECTID":663593},"geometry":{"x":179410.19592000078,"y":2546620.5454920046}},{"attributes":{"ID":663621,"DIS_CODE":0,"TOWNNAME":"新化區","LI":"山\u25A0里","LIN":"2鄰","STREET":" ","SECT":" ","MAREA":"頂山\u25A0","LANE":" ","ALLEY":" ","HOUSE_NO":"６０號","E_COORD97":179384.98369699999,"N_COORD97":2546587.4196799998,"ADDRESS":"頂山\u25A0６０號","OBJECTID":663594},"geometry":{"x":179384.98369700089,"y":2546587.4196770005}},{"attributes":{"ID":663622,"DIS_CODE":0,"TOWNNAME":"新化區","LI":"山\u25A0里","LIN":"2鄰","STREET":" ","SECT":" ","MAREA":"頂山\u25A0","LANE":" ","ALLEY":" ","HOUSE_NO":"６３號之１","E_COORD97":179449.39139199999,"N_COORD97":2546670.4988000002,"ADDRESS":"頂山\u25A0６３號之１","OBJECTID":663595},"geometry":{"x":179449.39139200095,"y":2546670.4987990018}},{"attributes":{"ID":663623,"DIS_CODE":0,"TOWNNAME":"新化區","LI":"山\u25A0里","LIN":"2鄰","STREET":" ","SECT":" ","MAREA":"頂山\u25A0","LANE":" ","ALLEY":" ","HOUSE_NO":"６６號","E_COORD97":179477.357892,"N_COORD97":2546625.7313199998,"ADDRESS":"頂山\u25A0６６號","OBJECTID":663596},"geometry":{"x":179477.35789200105,"y":2546625.731323}},{"attributes":{"ID":663624,"DIS_CODE":0,"TOWNNAME":"歸仁區","LI":"六甲里","LIN":"11鄰","STREET":"凱旋路","SECT":"三段","MAREA":" ","LANE":"１巷","ALLEY":" ","HOUSE_NO":"１０５號","E_COORD97":176504.404358,"N_COORD97":2538774.10672,"ADDRESS":"凱旋路三段１巷１０５號","OBJECTID":663597},"geometry":{"x":176504.40435799956,"y":2538774.1067230012}},{"attributes":{"ID":663625,"DIS_CODE":0,"TOWNNAME":"南區","LI":"明德里","LIN":"13鄰","STREET":"大成路","SECT":"一段","MAREA":" ","LANE":" ","ALLEY":" ","HOUSE_NO":"５６號","E_COORD97":168161.83734999999,"N_COORD97":2541755.02404,"ADDRESS":"大成路一段５６號","OBJECTID":663598},"geometry":{"x":168161.83735000063,"y":2541755.0240410026}},{"attributes":{"ID":663626,"DIS_CODE":0,"TOWNNAME":"南區","LI":"明德里","LIN":"13鄰","STREET":"大成路","SECT":"一段","MAREA":" ","LANE":" ","ALLEY":" ","HOUSE_NO":"５２號","E_COORD97":168166.70890500001,"N_COORD97":2541755.02404,"ADDRESS":"大成路一段５２號","OBJECTID":663599},"geometry":{"x":168166.70890500024,"y":2541755.0240410026}},{"attributes":{"ID":663627,"DIS_CODE":0,"TOWNNAME":"南區","LI":"明德里","LIN":"13鄰","STREET":"大成路","SECT":"一段","MAREA":" ","LANE":" ","ALLEY":" ","HOUSE_NO":"５０號","E_COORD97":168171.15684700001,"N_COORD97":2541754.8123699999,"ADDRESS":"大成路一段５０號","OBJECTID":663600},"geometry":{"x":168171.15684700012,"y":2541754.8123740014}}]}