{"displayFieldName":"TOWNNAME","fieldAliases":{"ID":"ID","DIS_CODE":"DIS_CODE","TOWNNAME":"TOWNNAME","LI":"LI","LIN":"LIN","STREET":"STREET","SECT":"SECT","MAREA":"MAREA","LANE":"LANE","ALLEY":"ALLEY","HOUSE_NO":"HOUSE_NO","E_COORD97":"E_COORD97","N_COORD97":"N_COORD97","ADDRESS":"ADDRESS","OBJECTID":"OBJECTID"},"geometryType":"esriGeometryPoint","spatialReference":{"wkid":102443,"latestWkid":3826},"fields":[{"name":"ID","type":"esriFieldTypeDouble","alias":"ID"},{"name":"DIS_CODE","type":"esriFieldTypeInteger","alias":"DIS_CODE"},{"name":"TOWNNAME","type":"esriFieldTypeString","alias":"TOWNNAME","length":8},{"name":"LI","type":"esriFieldTypeString","alias":"LI","length":8},{"name":"LIN","type":"esriFieldTypeString","alias":"LIN","length":12},{"name":"STREET","type":"esriFieldTypeString","alias":"STREET","length":20},{"name":"SECT","type":"esriFieldTypeString","alias":"SECT","length":8},{"name":"MAREA","type":"esriFieldTypeString","alias":"MAREA","length":12},{"name":"LANE","type":"esriFieldTypeString","alias":"LANE","length":10},{"name":"ALLEY","type":"esriFieldTypeString","alias":"ALLEY","length":10},{"name":"HOUSE_NO","type":"esriFieldTypeString","alias":"HOUSE_NO","length":20},{"name":"E_COORD97","type":"esriFieldTypeDouble","alias":"E_COORD97"},{"name":"N_COORD97","type":"esriFieldTypeDouble","alias":"N_COORD97"},{"name":"ADDRESS","type":"esriFieldTypeString","alias":"ADDRESS","length":50},{"name":"OBJECTID","type":"esriFieldTypeOID","alias":"OBJECTID"}],"features":[{"attributes":{"ID":138801,"DIS_CODE":0,"TOWNNAME":"仁德區","LI":"仁愛里","LIN":"6鄰","STREET":" ","SECT":" ","MAREA":"仁愛","LANE":" ","ALLEY":" ","HOUSE_NO":"１１１號","E_COORD97":170337.02587099999,"N_COORD97":2539769.5099999998,"ADDRESS":"仁愛１１１號","OBJECTID":138801},"geometry":{"x":170337.02587100212,"y":2539769.5100000016}},{"attributes":{"ID":138802,"DIS_CODE":0,"TOWNNAME":"永康區","LI":"埔園里","LIN":"22鄰","STREET":"四維街","SECT":" ","MAREA":" ","LANE":"５８巷","ALLEY":"９弄","HOUSE_NO":"１號","E_COORD97":173457.35000000001,"N_COORD97":2548088.75,"ADDRESS":"四維街５８巷９弄１號","OBJECTID":138802},"geometry":{"x":173457.35000000056,"y":2548088.7500000019}},{"attributes":{"ID":138803,"DIS_CODE":0,"TOWNNAME":"安南區","LI":"安順里","LIN":"22鄰","STREET":"總安街","SECT":"一段","MAREA":" ","LANE":"１４６巷","ALLEY":"６３弄","HOUSE_NO":"２號","E_COORD97":169594.14999999999,"N_COORD97":2550401.3199999998,"ADDRESS":"總安街一段１４６巷６３弄２號","OBJECTID":138803},"geometry":{"x":169594.14999999944,"y":2550401.3200000022}},{"attributes":{"ID":138804,"DIS_CODE":0,"TOWNNAME":"安南區","LI":"安順里","LIN":"22鄰","STREET":"總安街","SECT":"一段","MAREA":" ","LANE":"１４６巷","ALLEY":"６３弄","HOUSE_NO":"６號","E_COORD97":169589.39000000001,"N_COORD97":2550401.48,"ADDRESS":"總安街一段１４６巷６３弄６號","OBJECTID":138804},"geometry":{"x":169589.38999999966,"y":2550401.4800000004}},{"attributes":{"ID":138805,"DIS_CODE":0,"TOWNNAME":"安南區","LI":"安順里","LIN":"22鄰","STREET":"總安街","SECT":"一段","MAREA":" ","LANE":"１４６巷","ALLEY":"６３弄","HOUSE_NO":"１８號","E_COORD97":169567.48000000001,"N_COORD97":2550403.3900000001,"ADDRESS":"總安街一段１４６巷６３弄１８號","OBJECTID":138805},"geometry":{"x":169567.48000000138,"y":2550403.3900000025}},{"attributes":{"ID":138806,"DIS_CODE":0,"TOWNNAME":"安南區","LI":"安順里","LIN":"22鄰","STREET":"總安街","SECT":"一段","MAREA":" ","LANE":"１４６巷","ALLEY":"６３弄","HOUSE_NO":"２２號","E_COORD97":169558.91,"N_COORD97":2550404.02,"ADDRESS":"總安街一段１４６巷６３弄２２號","OBJECTID":138806},"geometry":{"x":169558.91000000108,"y":2550404.0199999996}},{"attributes":{"ID":138807,"DIS_CODE":0,"TOWNNAME":"中西區","LI":"西賢里","LIN":"16鄰","STREET":"西賢一街","SECT":" ","MAREA":" ","LANE":"２７巷","ALLEY":"２弄","HOUSE_NO":"１０號","E_COORD97":165673.59,"N_COORD97":2544512.8999999999,"ADDRESS":"西賢一街２７巷２弄１０號","OBJECTID":138807},"geometry":{"x":165673.59000000078,"y":2544512.9000000004}},{"attributes":{"ID":138808,"DIS_CODE":0,"TOWNNAME":"中西區","LI":"西賢里","LIN":"16鄰","STREET":"西賢一街","SECT":" ","MAREA":" ","LANE":"２７巷","ALLEY":"２弄","HOUSE_NO":"１２號","E_COORD97":165673.17999999999,"N_COORD97":2544518.2000000002,"ADDRESS":"西賢一街２７巷２弄１２號","OBJECTID":138808},"geometry":{"x":165673.18000000063,"y":2544518.2000000011}},{"attributes":{"ID":138809,"DIS_CODE":0,"TOWNNAME":"中西區","LI":"西賢里","LIN":"16鄰","STREET":"西賢一街","SECT":" ","MAREA":" ","LANE":"２７巷","ALLEY":"２弄","HOUSE_NO":"１６號","E_COORD97":165672.35999999999,"N_COORD97":2544522.8900000001,"ADDRESS":"西賢一街２７巷２弄１６號","OBJECTID":138809},"geometry":{"x":165672.36000000127,"y":2544522.8900000006}},{"attributes":{"ID":138810,"DIS_CODE":0,"TOWNNAME":"中西區","LI":"西賢里","LIN":"16鄰","STREET":"西賢一街","SECT":" ","MAREA":" ","LANE":"２７巷","ALLEY":"２弄","HOUSE_NO":"１８號","E_COORD97":165672.35999999999,"N_COORD97":2544528.3900000001,"ADDRESS":"西賢一街２７巷２弄１８號","OBJECTID":138810},"geometry":{"x":165672.36000000127,"y":2544528.3900000025}},{"attributes":{"ID":138811,"DIS_CODE":0,"TOWNNAME":"中西區","LI":"西賢里","LIN":"16鄰","STREET":"西賢一街","SECT":" ","MAREA":" ","LANE":"２７巷","ALLEY":"２弄","HOUSE_NO":"２０號","E_COORD97":165669.29999999999,"N_COORD97":2544534.71,"ADDRESS":"西賢一街２７巷２弄２０號","OBJECTID":138811},"geometry":{"x":165669.29999999981,"y":2544534.7100000009}},{"attributes":{"ID":138812,"DIS_CODE":0,"TOWNNAME":"歸仁區","LI":"歸南里","LIN":"22鄰","STREET":"民生八街","SECT":" ","MAREA":" ","LANE":"２８巷","ALLEY":"１９弄","HOUSE_NO":"４０號","E_COORD97":176020.60999999999,"N_COORD97":2540429.25,"ADDRESS":"民生八街２８巷１９弄４０號","OBJECTID":138812},"geometry":{"x":176020.61000000034,"y":2540429.2500000019}},{"attributes":{"ID":138813,"DIS_CODE":0,"TOWNNAME":"歸仁區","LI":"歸南里","LIN":"22鄰","STREET":"民生八街","SECT":" ","MAREA":" ","LANE":"２８巷","ALLEY":"１９弄","HOUSE_NO":"４８號","E_COORD97":176007.31,"N_COORD97":2540429.25,"ADDRESS":"民生八街２８巷１９弄４８號","OBJECTID":138813},"geometry":{"x":176007.31000000052,"y":2540429.2500000019}},{"attributes":{"ID":138814,"DIS_CODE":0,"TOWNNAME":"歸仁區","LI":"歸南里","LIN":"22鄰","STREET":"民生八街","SECT":" ","MAREA":" ","LANE":"２８巷","ALLEY":"１９弄","HOUSE_NO":"５０號","E_COORD97":176003.20999999999,"N_COORD97":2540429.25,"ADDRESS":"民生八街２８巷１９弄５０號","OBJECTID":138814},"geometry":{"x":176003.21000000089,"y":2540429.2500000019}},{"attributes":{"ID":138815,"DIS_CODE":0,"TOWNNAME":"歸仁區","LI":"歸南里","LIN":"22鄰","STREET":"民生八街","SECT":" ","MAREA":" ","LANE":"２８巷","ALLEY":"１９弄","HOUSE_NO":"２６號","E_COORD97":176051.41,"N_COORD97":2540429.25,"ADDRESS":"民生八街２８巷１９弄２６號","OBJECTID":138815},"geometry":{"x":176051.41000000108,"y":2540429.2500000019}},{"attributes":{"ID":138816,"DIS_CODE":0,"TOWNNAME":"歸仁區","LI":"歸南里","LIN":"22鄰","STREET":"民生八街","SECT":" ","MAREA":" ","LANE":"２８巷","ALLEY":"１９弄","HOUSE_NO":"５８號","E_COORD97":175986.81,"N_COORD97":2540429.25,"ADDRESS":"民生八街２８巷１９弄５８號","OBJECTID":138816},"geometry":{"x":175986.81000000052,"y":2540429.2500000019}},{"attributes":{"ID":138817,"DIS_CODE":0,"TOWNNAME":"歸仁區","LI":"歸南里","LIN":"22鄰","STREET":"民生八街","SECT":" ","MAREA":" ","LANE":"２８巷","ALLEY":"１９弄","HOUSE_NO":"３６號","E_COORD97":176029.91,"N_COORD97":2540429.25,"ADDRESS":"民生八街２８巷１９弄３６號","OBJECTID":138817},"geometry":{"x":176029.91000000015,"y":2540429.2500000019}},{"attributes":{"ID":138818,"DIS_CODE":0,"TOWNNAME":"新營區","LI":"忠政里","LIN":"22鄰","STREET":"府西路","SECT":" ","MAREA":" ","LANE":"２３１巷","ALLEY":"９弄","HOUSE_NO":"７號","E_COORD97":179762.95999999999,"N_COORD97":2579567.2200000002,"ADDRESS":"府西路２３１巷９弄７號","OBJECTID":138818},"geometry":{"x":179762.96000000183,"y":2579567.2200000007}},{"attributes":{"ID":138819,"DIS_CODE":0,"TOWNNAME":"北區","LI":"永祥里","LIN":"22鄰","STREET":"大武街","SECT":" ","MAREA":" ","LANE":"５９７巷","ALLEY":"３４弄","HOUSE_NO":"１１號","E_COORD97":170277.54000000001,"N_COORD97":2546538.3500000001,"ADDRESS":"大武街５９７巷３４弄１１號","OBJECTID":138819},"geometry":{"x":170277.54000000004,"y":2546538.3500000015}},{"attributes":{"ID":138820,"DIS_CODE":0,"TOWNNAME":"北區","LI":"永祥里","LIN":"22鄰","STREET":"大武街","SECT":" ","MAREA":" ","LANE":"５９７巷","ALLEY":"３４弄","HOUSE_NO":"１３號","E_COORD97":170281.67999999999,"N_COORD97":2546536.79,"ADDRESS":"大武街５９７巷３４弄１３號","OBJECTID":138820},"geometry":{"x":170281.68000000156,"y":2546536.7899999972}},{"attributes":{"ID":138821,"DIS_CODE":0,"TOWNNAME":"北區","LI":"永祥里","LIN":"22鄰","STREET":"大武街","SECT":" ","MAREA":" ","LANE":"５９７巷","ALLEY":"３４弄","HOUSE_NO":"１５號","E_COORD97":170285.60000000001,"N_COORD97":2546535.3100000001,"ADDRESS":"大武街５９７巷３４弄１５號","OBJECTID":138821},"geometry":{"x":170285.60000000056,"y":2546535.3100000024}},{"attributes":{"ID":138822,"DIS_CODE":0,"TOWNNAME":"北區","LI":"永祥里","LIN":"22鄰","STREET":"大武街","SECT":" ","MAREA":" ","LANE":"５９７巷","ALLEY":"３４弄","HOUSE_NO":"１７號","E_COORD97":170289.67000000001,"N_COORD97":2546533.4300000002,"ADDRESS":"大武街５９７巷３４弄１７號","OBJECTID":138822},"geometry":{"x":170289.66999999993,"y":2546533.4300000034}},{"attributes":{"ID":138823,"DIS_CODE":0,"TOWNNAME":"北區","LI":"永祥里","LIN":"22鄰","STREET":"大武街","SECT":" ","MAREA":" ","LANE":"５９７巷","ALLEY":"３４弄","HOUSE_NO":"１９號","E_COORD97":170293.03,"N_COORD97":2546532.1000000001,"ADDRESS":"大武街５９７巷３４弄１９號","OBJECTID":138823},"geometry":{"x":170293.03000000026,"y":2546532.1000000034}},{"attributes":{"ID":138824,"DIS_CODE":0,"TOWNNAME":"善化區","LI":"坐駕里","LIN":"6鄰","STREET":"民權路","SECT":" ","MAREA":" ","LANE":" ","ALLEY":" ","HOUSE_NO":"２８７號","E_COORD97":177928.54000000001,"N_COORD97":2558949.0099999998,"ADDRESS":"民權路２８７號","OBJECTID":138824},"geometry":{"x":177928.54000000097,"y":2558949.0100000016}},{"attributes":{"ID":138825,"DIS_CODE":0,"TOWNNAME":"善化區","LI":"坐駕里","LIN":"6鄰","STREET":"民生路","SECT":" ","MAREA":" ","LANE":" ","ALLEY":" ","HOUSE_NO":"３９２號","E_COORD97":177920.79000000001,"N_COORD97":2558886,"ADDRESS":"民生路３９２號","OBJECTID":138825},"geometry":{"x":177920.79000000004,"y":2558886}},{"attributes":{"ID":138826,"DIS_CODE":0,"TOWNNAME":"麻豆區","LI":"大埕里","LIN":"6鄰","STREET":"文昌路","SECT":" ","MAREA":" ","LANE":" ","ALLEY":" ","HOUSE_NO":"３９號","E_COORD97":173556.20999999999,"N_COORD97":2565351.4399999999,"ADDRESS":"文昌路３９號","OBJECTID":138826},"geometry":{"x":173556.20999999996,"y":2565351.4399999995}},{"attributes":{"ID":138827,"DIS_CODE":0,"TOWNNAME":"善化區","LI":"南關里","LIN":"6鄰","STREET":"文昌路","SECT":" ","MAREA":" ","LANE":" ","ALLEY":" ","HOUSE_NO":"５２之１號","E_COORD97":177149.78,"N_COORD97":2558690.7799999998,"ADDRESS":"文昌路５２之１號","OBJECTID":138827},"geometry":{"x":177149.78000000026,"y":2558690.7799999993}},{"attributes":{"ID":138828,"DIS_CODE":0,"TOWNNAME":"善化區","LI":"西關里","LIN":"6鄰","STREET":"三民路","SECT":" ","MAREA":" ","LANE":" ","ALLEY":" ","HOUSE_NO":"８１號","E_COORD97":177108.14999999999,"N_COORD97":2559130.5099999998,"ADDRESS":"三民路８１號","OBJECTID":138828},"geometry":{"x":177108.1500000013,"y":2559130.5099999998}},{"attributes":{"ID":138829,"DIS_CODE":0,"TOWNNAME":"善化區","LI":"南關里","LIN":"6鄰","STREET":"永安路","SECT":" ","MAREA":" ","LANE":" ","ALLEY":" ","HOUSE_NO":"２５號","E_COORD97":177143.88,"N_COORD97":2558600.02,"ADDRESS":"永安路２５號","OBJECTID":138829},"geometry":{"x":177143.87999999989,"y":2558600.0200000014}},{"attributes":{"ID":138830,"DIS_CODE":0,"TOWNNAME":"善化區","LI":"文昌里","LIN":"6鄰","STREET":"中華路","SECT":" ","MAREA":" ","LANE":" ","ALLEY":" ","HOUSE_NO":"７５號","E_COORD97":177234.47,"N_COORD97":2558800.25,"ADDRESS":"中華路７５號","OBJECTID":138830},"geometry":{"x":177234.46999999974,"y":2558800.25}},{"attributes":{"ID":138831,"DIS_CODE":0,"TOWNNAME":"善化區","LI":"嘉南里","LIN":"6鄰","STREET":" ","SECT":" ","MAREA":"茄拔","LANE":" ","ALLEY":" ","HOUSE_NO":"１００號","E_COORD97":181002.04000000001,"N_COORD97":2559494.7599999998,"ADDRESS":"茄拔１００號","OBJECTID":138831},"geometry":{"x":181002.04000000097,"y":2559494.7599999998}},{"attributes":{"ID":138832,"DIS_CODE":0,"TOWNNAME":"善化區","LI":"光文里","LIN":"6鄰","STREET":" ","SECT":" ","MAREA":"北子店","LANE":" ","ALLEY":" ","HOUSE_NO":"２５４號之４","E_COORD97":179129.97,"N_COORD97":2559556.02,"ADDRESS":"北子店２５４號之４","OBJECTID":138832},"geometry":{"x":179129.96999999974,"y":2559556.0200000014}},{"attributes":{"ID":138833,"DIS_CODE":0,"TOWNNAME":"善化區","LI":"牛庄里","LIN":"6鄰","STREET":" ","SECT":" ","MAREA":"牛庄","LANE":" ","ALLEY":" ","HOUSE_NO":"６５號之１","E_COORD97":180209.35000000001,"N_COORD97":2560034.52,"ADDRESS":"牛庄６５號之１","OBJECTID":138833},"geometry":{"x":180209.35000000056,"y":2560034.5200000014}},{"attributes":{"ID":138834,"DIS_CODE":0,"TOWNNAME":"善化區","LI":"胡家里","LIN":"6鄰","STREET":" ","SECT":" ","MAREA":"胡厝寮","LANE":" ","ALLEY":" ","HOUSE_NO":"４８之１號","E_COORD97":175472.10999999999,"N_COORD97":2560572.77,"ADDRESS":"胡厝寮４８之１號","OBJECTID":138834},"geometry":{"x":175472.11000000127,"y":2560572.7699999996}},{"attributes":{"ID":138835,"DIS_CODE":0,"TOWNNAME":"善化區","LI":"東昌里","LIN":"6鄰","STREET":" ","SECT":" ","MAREA":"東勢寮","LANE":" ","ALLEY":" ","HOUSE_NO":"６５之１３號","E_COORD97":180572.54000000001,"N_COORD97":2561836.77,"ADDRESS":"東勢寮６５之１３號","OBJECTID":138835},"geometry":{"x":180572.54000000004,"y":2561836.7699999996}},{"attributes":{"ID":138836,"DIS_CODE":0,"TOWNNAME":"善化區","LI":"牛庄里","LIN":"6鄰","STREET":" ","SECT":" ","MAREA":"牛庄","LANE":" ","ALLEY":" ","HOUSE_NO":"６７號","E_COORD97":180181.67999999999,"N_COORD97":2560041,"ADDRESS":"牛庄６７號","OBJECTID":138836},"geometry":{"x":180181.68000000063,"y":2560041.0000000019}},{"attributes":{"ID":138837,"DIS_CODE":0,"TOWNNAME":"善化區","LI":"田寮里","LIN":"6鄰","STREET":" ","SECT":" ","MAREA":"六分寮","LANE":" ","ALLEY":" ","HOUSE_NO":"８４號之１","E_COORD97":178555.41,"N_COORD97":2561277.27,"ADDRESS":"六分寮８４號之１","OBJECTID":138837},"geometry":{"x":178555.41000000108,"y":2561277.2700000014}},{"attributes":{"ID":138838,"DIS_CODE":0,"TOWNNAME":"善化區","LI":"田寮里","LIN":"6鄰","STREET":" ","SECT":" ","MAREA":"六分寮","LANE":" ","ALLEY":" ","HOUSE_NO":"８０號","E_COORD97":178473.66,"N_COORD97":2561346,"ADDRESS":"六分寮８０號","OBJECTID":138838},"geometry":{"x":178473.66000000108,"y":2561346.0000000019}},{"attributes":{"ID":138839,"DIS_CODE":0,"TOWNNAME":"善化區","LI":"光文里","LIN":"6鄰","STREET":" ","SECT":" ","MAREA":"北子店","LANE":"２２８巷","ALLEY":" ","HOUSE_NO":"２號","E_COORD97":179211.07999999999,"N_COORD97":2559591.75,"ADDRESS":"北子店２２８巷２號","OBJECTID":138839},"geometry":{"x":179211.08000000007,"y":2559591.7500000019}},{"attributes":{"ID":138840,"DIS_CODE":0,"TOWNNAME":"北區","LI":"永祥里","LIN":"22鄰","STREET":"大武街","SECT":" ","MAREA":" ","LANE":"５９７巷","ALLEY":"３４弄","HOUSE_NO":"１號","E_COORD97":170257.41,"N_COORD97":2546544.0899999999,"ADDRESS":"大武街５９７巷３４弄１號","OBJECTID":138840},"geometry":{"x":170257.41000000108,"y":2546544.0900000017}},{"attributes":{"ID":138841,"DIS_CODE":0,"TOWNNAME":"善化區","LI":"嘉北里","LIN":"6鄰","STREET":" ","SECT":" ","MAREA":"茄拔","LANE":" ","ALLEY":" ","HOUSE_NO":"１６６號之７","E_COORD97":181076.32999999999,"N_COORD97":2559843.77,"ADDRESS":"茄拔１６６號之７","OBJECTID":138841},"geometry":{"x":181076.33000000101,"y":2559843.7699999996}},{"attributes":{"ID":138842,"DIS_CODE":0,"TOWNNAME":"善化區","LI":"嘉北里","LIN":"6鄰","STREET":" ","SECT":" ","MAREA":"茄拔","LANE":" ","ALLEY":" ","HOUSE_NO":"１６０號之２","E_COORD97":181052.5,"N_COORD97":2559815.52,"ADDRESS":"茄拔１６０號之２","OBJECTID":138842},"geometry":{"x":181052.5,"y":2559815.5199999996}},{"attributes":{"ID":138843,"DIS_CODE":0,"TOWNNAME":"善化區","LI":"胡家里","LIN":"6鄰","STREET":" ","SECT":" ","MAREA":"胡厝寮","LANE":" ","ALLEY":" ","HOUSE_NO":"５２號","E_COORD97":175457.45000000001,"N_COORD97":2560640.25,"ADDRESS":"胡厝寮５２號","OBJECTID":138843},"geometry":{"x":175457.45000000205,"y":2560640.2500000019}},{"attributes":{"ID":138844,"DIS_CODE":0,"TOWNNAME":"善化區","LI":"六分里","LIN":"6鄰","STREET":" ","SECT":" ","MAREA":"東勢宅","LANE":" ","ALLEY":" ","HOUSE_NO":"３６之２號","E_COORD97":177676.82000000001,"N_COORD97":2561165.0099999998,"ADDRESS":"東勢宅３６之２號","OBJECTID":138844},"geometry":{"x":177676.8200000003,"y":2561165.0099999998}},{"attributes":{"ID":138845,"DIS_CODE":0,"TOWNNAME":"善化區","LI":"光文里","LIN":"6鄰","STREET":" ","SECT":" ","MAREA":"北子店","LANE":" ","ALLEY":" ","HOUSE_NO":"３０６號","E_COORD97":179120.81,"N_COORD97":2559484.75,"ADDRESS":"北子店３０６號","OBJECTID":138845},"geometry":{"x":179120.80999999959,"y":2559484.75}},{"attributes":{"ID":138846,"DIS_CODE":0,"TOWNNAME":"善化區","LI":"東昌里","LIN":"6鄰","STREET":" ","SECT":" ","MAREA":"東勢寮","LANE":" ","ALLEY":" ","HOUSE_NO":"６４號之３","E_COORD97":180518.23999999999,"N_COORD97":2562010.27,"ADDRESS":"東勢寮６４號之３","OBJECTID":138846},"geometry":{"x":180518.24000000022,"y":2562010.2699999996}},{"attributes":{"ID":138847,"DIS_CODE":0,"TOWNNAME":"善化區","LI":"六分里","LIN":"6鄰","STREET":" ","SECT":" ","MAREA":"東勢宅","LANE":" ","ALLEY":" ","HOUSE_NO":"３７號","E_COORD97":177671.22,"N_COORD97":2561100.2599999998,"ADDRESS":"東勢宅３７號","OBJECTID":138847},"geometry":{"x":177671.22000000067,"y":2561100.2600000016}},{"attributes":{"ID":138848,"DIS_CODE":0,"TOWNNAME":"北區","LI":"永祥里","LIN":"22鄰","STREET":"大武街","SECT":" ","MAREA":" ","LANE":"５９７巷","ALLEY":"３４弄","HOUSE_NO":"２１號","E_COORD97":170297.01999999999,"N_COORD97":2546530.1499999999,"ADDRESS":"大武街５９７巷３４弄２１號","OBJECTID":138848},"geometry":{"x":170297.01999999955,"y":2546530.1500000022}},{"attributes":{"ID":138849,"DIS_CODE":0,"TOWNNAME":"北區","LI":"永祥里","LIN":"22鄰","STREET":"大武街","SECT":" ","MAREA":" ","LANE":"５９７巷","ALLEY":"３４弄","HOUSE_NO":"２３號","E_COORD97":170300.89999999999,"N_COORD97":2546528.0899999999,"ADDRESS":"大武街５９７巷３４弄２３號","OBJECTID":138849},"geometry":{"x":170300.90000000037,"y":2546528.0899999999}},{"attributes":{"ID":138850,"DIS_CODE":0,"TOWNNAME":"善化區","LI":"溪美里","LIN":"6鄰","STREET":" ","SECT":" ","MAREA":"溪尾","LANE":" ","ALLEY":" ","HOUSE_NO":"５１之１２號","E_COORD97":176824.76999999999,"N_COORD97":2561146.27,"ADDRESS":"溪尾５１之１２號","OBJECTID":138850},"geometry":{"x":176824.77000000048,"y":2561146.2699999996}},{"attributes":{"ID":138851,"DIS_CODE":0,"TOWNNAME":"善化區","LI":"小新里","LIN":"6鄰","STREET":" ","SECT":" ","MAREA":"小新營","LANE":" ","ALLEY":" ","HOUSE_NO":"５０號","E_COORD97":179724.70488199999,"N_COORD97":2558272.67998,"ADDRESS":"小新營５０號","OBJECTID":138851},"geometry":{"x":179724.70488199964,"y":2558272.6799769998}},{"attributes":{"ID":138852,"DIS_CODE":0,"TOWNNAME":"善化區","LI":"六德里","LIN":"6鄰","STREET":" ","SECT":" ","MAREA":"六分寮","LANE":" ","ALLEY":" ","HOUSE_NO":"２４９號之３","E_COORD97":178821.26000000001,"N_COORD97":2561629.02,"ADDRESS":"六分寮２４９號之３","OBJECTID":138852},"geometry":{"x":178821.25999999978,"y":2561629.0199999996}},{"attributes":{"ID":138853,"DIS_CODE":0,"TOWNNAME":"善化區","LI":"六德里","LIN":"6鄰","STREET":" ","SECT":" ","MAREA":"六分寮","LANE":" ","ALLEY":" ","HOUSE_NO":"２５１號","E_COORD97":178786.62,"N_COORD97":2561608,"ADDRESS":"六分寮２５１號","OBJECTID":138853},"geometry":{"x":178786.62000000011,"y":2561608.0000000019}},{"attributes":{"ID":138854,"DIS_CODE":0,"TOWNNAME":"善化區","LI":"六分里","LIN":"6鄰","STREET":" ","SECT":" ","MAREA":"東勢宅","LANE":" ","ALLEY":" ","HOUSE_NO":"３７號之１","E_COORD97":177624.88,"N_COORD97":2561115.77,"ADDRESS":"東勢宅３７號之１","OBJECTID":138854},"geometry":{"x":177624.87999999989,"y":2561115.7699999996}},{"attributes":{"ID":138855,"DIS_CODE":0,"TOWNNAME":"七股區","LI":"後港里","LIN":" ","STREET":" ","SECT":" ","MAREA":"港東","LANE":" ","ALLEY":" ","HOUSE_NO":"６１之８號","E_COORD97":162684.10000000001,"N_COORD97":2565071.5800000001,"ADDRESS":"港東６１之８號","OBJECTID":138855},"geometry":{"x":162684.0999999987,"y":2565071.5800000019}},{"attributes":{"ID":138856,"DIS_CODE":0,"TOWNNAME":"善化區","LI":"六分里","LIN":"6鄰","STREET":" ","SECT":" ","MAREA":"東勢宅","LANE":" ","ALLEY":" ","HOUSE_NO":"４８之３０號","E_COORD97":177506.62,"N_COORD97":2560741.02,"ADDRESS":"東勢宅４８之３０號","OBJECTID":138856},"geometry":{"x":177506.62000000011,"y":2560741.0199999996}},{"attributes":{"ID":138857,"DIS_CODE":0,"TOWNNAME":"北區","LI":"永祥里","LIN":"22鄰","STREET":"大武街","SECT":" ","MAREA":" ","LANE":"５９７巷","ALLEY":"３４弄","HOUSE_NO":"２５號","E_COORD97":170304.81,"N_COORD97":2546526.6099999999,"ADDRESS":"大武街５９７巷３４弄２５號","OBJECTID":138857},"geometry":{"x":170304.81000000052,"y":2546526.6100000013}},{"attributes":{"ID":138858,"DIS_CODE":0,"TOWNNAME":"善化區","LI":"六德里","LIN":"6鄰","STREET":" ","SECT":" ","MAREA":"六分寮","LANE":" ","ALLEY":" ","HOUSE_NO":"２４９號之５","E_COORD97":178817.10000000001,"N_COORD97":2561626.52,"ADDRESS":"六分寮２４９號之５","OBJECTID":138858},"geometry":{"x":178817.09999999963,"y":2561626.5200000033}},{"attributes":{"ID":138859,"DIS_CODE":0,"TOWNNAME":"北區","LI":"永祥里","LIN":"22鄰","STREET":"大武街","SECT":" ","MAREA":" ","LANE":"５９７巷","ALLEY":"３４弄","HOUSE_NO":"２７號","E_COORD97":170309.19,"N_COORD97":2546525.2000000002,"ADDRESS":"大武街５９７巷３４弄２７號","OBJECTID":138859},"geometry":{"x":170309.19000000041,"y":2546525.2000000011}},{"attributes":{"ID":138860,"DIS_CODE":0,"TOWNNAME":"善化區","LI":"小新里","LIN":"6鄰","STREET":" ","SECT":" ","MAREA":"小新營","LANE":" ","ALLEY":" ","HOUSE_NO":"６７號之２","E_COORD97":179700.54999999999,"N_COORD97":2558245.27,"ADDRESS":"小新營６７號之２","OBJECTID":138860},"geometry":{"x":179700.54999999981,"y":2558245.2700000014}},{"attributes":{"ID":138861,"DIS_CODE":0,"TOWNNAME":"善化區","LI":"六分里","LIN":"6鄰","STREET":" ","SECT":" ","MAREA":"東勢宅","LANE":" ","ALLEY":" ","HOUSE_NO":"４７號之３","E_COORD97":177638.87,"N_COORD97":2561011.02,"ADDRESS":"東勢宅４７號之３","OBJECTID":138861},"geometry":{"x":177638.87000000011,"y":2561011.0200000014}},{"attributes":{"ID":138862,"DIS_CODE":0,"TOWNNAME":"善化區","LI":"六分里","LIN":"6鄰","STREET":" ","SECT":" ","MAREA":"東勢宅","LANE":" ","ALLEY":" ","HOUSE_NO":"４６號","E_COORD97":177656.25,"N_COORD97":2561065.0099999998,"ADDRESS":"東勢宅４６號","OBJECTID":138862},"geometry":{"x":177656.25000000093,"y":2561065.0100000016}},{"attributes":{"ID":138863,"DIS_CODE":0,"TOWNNAME":"善化區","LI":"六德里","LIN":"6鄰","STREET":" ","SECT":" ","MAREA":"六分寮","LANE":" ","ALLEY":" ","HOUSE_NO":"２４６號","E_COORD97":178790.95999999999,"N_COORD97":2561669,"ADDRESS":"六分寮２４６號","OBJECTID":138863},"geometry":{"x":178790.95999999996,"y":2561669.0000000019}},{"attributes":{"ID":138864,"DIS_CODE":0,"TOWNNAME":"北區","LI":"永祥里","LIN":"22鄰","STREET":"大武街","SECT":" ","MAREA":" ","LANE":"５９７巷","ALLEY":"３４弄","HOUSE_NO":"２９號","E_COORD97":170313.48999999999,"N_COORD97":2546523.3199999998,"ADDRESS":"大武街５９７巷３４弄２９號","OBJECTID":138864},"geometry":{"x":170313.49000000022,"y":2546523.3200000003}},{"attributes":{"ID":138865,"DIS_CODE":0,"TOWNNAME":"善化區","LI":"什乃里","LIN":"6鄰","STREET":" ","SECT":" ","MAREA":"什乃","LANE":" ","ALLEY":" ","HOUSE_NO":"４９號","E_COORD97":176137.92999999999,"N_COORD97":2560454.75,"ADDRESS":"什乃４９號","OBJECTID":138865},"geometry":{"x":176137.9299999997,"y":2560454.75}},{"attributes":{"ID":138866,"DIS_CODE":0,"TOWNNAME":"歸仁區","LI":"西埔里","LIN":"15鄰","STREET":"保吉路","SECT":" ","MAREA":" ","LANE":" ","ALLEY":" ","HOUSE_NO":"３５１號","E_COORD97":176447.70000000001,"N_COORD97":2545172.6400000001,"ADDRESS":"保吉路３５１號","OBJECTID":138866},"geometry":{"x":176447.70000000112,"y":2545172.6400000006}},{"attributes":{"ID":138867,"DIS_CODE":0,"TOWNNAME":"北區","LI":"永祥里","LIN":"22鄰","STREET":"大武街","SECT":" ","MAREA":" ","LANE":"５９７巷","ALLEY":"３４弄","HOUSE_NO":"３１號","E_COORD97":170317.17000000001,"N_COORD97":2546521.4500000002,"ADDRESS":"大武街５９７巷３４弄３１號","OBJECTID":138867},"geometry":{"x":170317.16999999993,"y":2546521.4499999993}},{"attributes":{"ID":138868,"DIS_CODE":0,"TOWNNAME":"北區","LI":"永祥里","LIN":"22鄰","STREET":"大武街","SECT":" ","MAREA":" ","LANE":"５９７巷","ALLEY":"３４弄","HOUSE_NO":"３３號","E_COORD97":170321.16,"N_COORD97":2546519.4900000002,"ADDRESS":"大武街５９７巷３４弄３３號","OBJECTID":138868},"geometry":{"x":170321.16000000201,"y":2546519.4900000002}},{"attributes":{"ID":138869,"DIS_CODE":0,"TOWNNAME":"北區","LI":"永祥里","LIN":"22鄰","STREET":"大武街","SECT":" ","MAREA":" ","LANE":"５９７巷","ALLEY":"３４弄","HOUSE_NO":"３號","E_COORD97":170262.42000000001,"N_COORD97":2546541.5099999998,"ADDRESS":"大武街５９７巷３４弄３號","OBJECTID":138869},"geometry":{"x":170262.41999999993,"y":2546541.5099999998}},{"attributes":{"ID":138870,"DIS_CODE":0,"TOWNNAME":"北區","LI":"永祥里","LIN":"22鄰","STREET":"大武街","SECT":" ","MAREA":" ","LANE":"５９７巷","ALLEY":"３４弄","HOUSE_NO":"５號","E_COORD97":170266.88,"N_COORD97":2546539.4700000002,"ADDRESS":"大武街５９７巷３４弄５號","OBJECTID":138870},"geometry":{"x":170266.88000000175,"y":2546539.4700000007}},{"attributes":{"ID":138871,"DIS_CODE":0,"TOWNNAME":"北區","LI":"永祥里","LIN":"22鄰","STREET":"大武街","SECT":" ","MAREA":" ","LANE":"５９７巷","ALLEY":"３４弄","HOUSE_NO":"７號","E_COORD97":170270.56,"N_COORD97":2546537.8300000001,"ADDRESS":"大武街５９７巷３４弄７號","OBJECTID":138871},"geometry":{"x":170270.56000000052,"y":2546537.8300000038}},{"attributes":{"ID":138872,"DIS_CODE":0,"TOWNNAME":"麻豆區","LI":"大埕里","LIN":"6鄰","STREET":"文昌路","SECT":" ","MAREA":" ","LANE":" ","ALLEY":" ","HOUSE_NO":"４７號","E_COORD97":173554.23999999999,"N_COORD97":2565403.7400000002,"ADDRESS":"文昌路４７號","OBJECTID":138872},"geometry":{"x":173554.24000000115,"y":2565403.7400000021}},{"attributes":{"ID":138873,"DIS_CODE":0,"TOWNNAME":"北區","LI":"永祥里","LIN":"22鄰","STREET":"大武街","SECT":" ","MAREA":" ","LANE":"５９７巷","ALLEY":"３４弄","HOUSE_NO":"９號","E_COORD97":170273.45000000001,"N_COORD97":2546536.27,"ADDRESS":"大武街５９７巷３４弄９號","OBJECTID":138873},"geometry":{"x":170273.45000000205,"y":2546536.2699999996}},{"attributes":{"ID":138874,"DIS_CODE":0,"TOWNNAME":"麻豆區","LI":"大埕里","LIN":"6鄰","STREET":"文昌路","SECT":" ","MAREA":" ","LANE":" ","ALLEY":" ","HOUSE_NO":"４９號","E_COORD97":173554.70999999999,"N_COORD97":2565406.9700000002,"ADDRESS":"文昌路４９號","OBJECTID":138874},"geometry":{"x":173554.70999999996,"y":2565406.9700000007}},{"attributes":{"ID":138875,"DIS_CODE":0,"TOWNNAME":"白河區","LI":"外角里","LIN":"6鄰","STREET":"光明街","SECT":" ","MAREA":" ","LANE":" ","ALLEY":" ","HOUSE_NO":"４號","E_COORD97":190555.85999999999,"N_COORD97":2583288.4199999999,"ADDRESS":"光明街４號","OBJECTID":138875},"geometry":{"x":190555.86000000127,"y":2583288.4199999981}},{"attributes":{"ID":138876,"DIS_CODE":0,"TOWNNAME":"北區","LI":"永祥里","LIN":"22鄰","STREET":"大武街","SECT":" ","MAREA":" ","LANE":"５９７巷","ALLEY":"５４弄","HOUSE_NO":"１０號","E_COORD97":170273.10999999999,"N_COORD97":2546574.3700000001,"ADDRESS":"大武街５９７巷５４弄１０號","OBJECTID":138876},"geometry":{"x":170273.11000000127,"y":2546574.370000001}},{"attributes":{"ID":138877,"DIS_CODE":0,"TOWNNAME":"北區","LI":"永祥里","LIN":"22鄰","STREET":"大武街","SECT":" ","MAREA":" ","LANE":"５９７巷","ALLEY":"５４弄","HOUSE_NO":"１２號","E_COORD97":170276.76000000001,"N_COORD97":2546571.1099999999,"ADDRESS":"大武街５９７巷５４弄１２號","OBJECTID":138877},"geometry":{"x":170276.76000000071,"y":2546571.1099999994}},{"attributes":{"ID":138878,"DIS_CODE":0,"TOWNNAME":"北區","LI":"永祥里","LIN":"22鄰","STREET":"大武街","SECT":" ","MAREA":" ","LANE":"５９７巷","ALLEY":"５４弄","HOUSE_NO":"１４號","E_COORD97":170280.28,"N_COORD97":2546569.0299999998,"ADDRESS":"大武街５９７巷５４弄１４號","OBJECTID":138878},"geometry":{"x":170280.28000000119,"y":2546569.0299999993}},{"attributes":{"ID":138879,"DIS_CODE":0,"TOWNNAME":"北區","LI":"永祥里","LIN":"22鄰","STREET":"大武街","SECT":" ","MAREA":" ","LANE":"５９７巷","ALLEY":"５４弄","HOUSE_NO":"１６號","E_COORD97":170283.85999999999,"N_COORD97":2546566.2200000002,"ADDRESS":"大武街５９７巷５４弄１６號","OBJECTID":138879},"geometry":{"x":170283.86000000034,"y":2546566.2200000044}},{"attributes":{"ID":138880,"DIS_CODE":0,"TOWNNAME":"北區","LI":"永祥里","LIN":"22鄰","STREET":"大武街","SECT":" ","MAREA":" ","LANE":"５９７巷","ALLEY":"５４弄","HOUSE_NO":"１８號","E_COORD97":170287.13,"N_COORD97":2546563.98,"ADDRESS":"大武街５９７巷５４弄１８號","OBJECTID":138880},"geometry":{"x":170287.12999999896,"y":2546563.9799999986}},{"attributes":{"ID":138881,"DIS_CODE":0,"TOWNNAME":"北區","LI":"永祥里","LIN":"22鄰","STREET":"大武街","SECT":" ","MAREA":" ","LANE":"５９７巷","ALLEY":"５４弄","HOUSE_NO":"２０號","E_COORD97":170290.19,"N_COORD97":2546561.9399999999,"ADDRESS":"大武街５９７巷５４弄２０號","OBJECTID":138881},"geometry":{"x":170290.19000000041,"y":2546561.9399999995}},{"attributes":{"ID":138882,"DIS_CODE":0,"TOWNNAME":"北區","LI":"永祥里","LIN":"22鄰","STREET":"大武街","SECT":" ","MAREA":" ","LANE":"５９７巷","ALLEY":"５４弄","HOUSE_NO":"２２號","E_COORD97":170293.70999999999,"N_COORD97":2546559.1800000002,"ADDRESS":"大武街５９７巷５４弄２２號","OBJECTID":138882},"geometry":{"x":170293.71000000089,"y":2546559.1800000016}},{"attributes":{"ID":138883,"DIS_CODE":0,"TOWNNAME":"北區","LI":"永祥里","LIN":"22鄰","STREET":"大武街","SECT":" ","MAREA":" ","LANE":"５９７巷","ALLEY":"５４弄","HOUSE_NO":"２４號","E_COORD97":170297.60999999999,"N_COORD97":2546557.3999999999,"ADDRESS":"大武街５９７巷５４弄２４號","OBJECTID":138883},"geometry":{"x":170297.61000000034,"y":2546557.4000000004}},{"attributes":{"ID":138884,"DIS_CODE":0,"TOWNNAME":"北區","LI":"永祥里","LIN":"22鄰","STREET":"大武街","SECT":" ","MAREA":" ","LANE":"５９７巷","ALLEY":"５４弄","HOUSE_NO":"２６號","E_COORD97":170301.45000000001,"N_COORD97":2546554.9100000001,"ADDRESS":"大武街５９７巷５４弄２６號","OBJECTID":138884},"geometry":{"x":170301.45000000112,"y":2546554.910000002}},{"attributes":{"ID":138885,"DIS_CODE":0,"TOWNNAME":"北區","LI":"永祥里","LIN":"22鄰","STREET":"大武街","SECT":" ","MAREA":" ","LANE":"５９７巷","ALLEY":"５４弄","HOUSE_NO":"２８號","E_COORD97":170304.39000000001,"N_COORD97":2546552.23,"ADDRESS":"大武街５９７巷５４弄２８號","OBJECTID":138885},"geometry":{"x":170304.3900000006,"y":2546552.2299999986}},{"attributes":{"ID":138886,"DIS_CODE":0,"TOWNNAME":"北區","LI":"永祥里","LIN":"22鄰","STREET":"大武街","SECT":" ","MAREA":" ","LANE":"５９７巷","ALLEY":"５４弄","HOUSE_NO":"２號","E_COORD97":170260.12,"N_COORD97":2546582.9500000002,"ADDRESS":"大武街５９７巷５４弄２號","OBJECTID":138886},"geometry":{"x":170260.12000000011,"y":2546582.9499999993}},{"attributes":{"ID":138887,"DIS_CODE":0,"TOWNNAME":"北區","LI":"永祥里","LIN":"22鄰","STREET":"大武街","SECT":" ","MAREA":" ","LANE":"５９７巷","ALLEY":"５４弄","HOUSE_NO":"３０號","E_COORD97":170309,"N_COORD97":2546548.3599999999,"ADDRESS":"大武街５９７巷５４弄３０號","OBJECTID":138887},"geometry":{"x":170309.00000000093,"y":2546548.3600000013}},{"attributes":{"ID":138888,"DIS_CODE":0,"TOWNNAME":"北區","LI":"永祥里","LIN":"22鄰","STREET":"大武街","SECT":" ","MAREA":" ","LANE":"５９７巷","ALLEY":"５４弄","HOUSE_NO":"３２號","E_COORD97":170316.73999999999,"N_COORD97":2546543.3199999998,"ADDRESS":"大武街５９７巷５４弄３２號","OBJECTID":138888},"geometry":{"x":170316.74000000022,"y":2546543.3200000003}},{"attributes":{"ID":138889,"DIS_CODE":0,"TOWNNAME":"北區","LI":"永祥里","LIN":"22鄰","STREET":"大武街","SECT":" ","MAREA":" ","LANE":"５９７巷","ALLEY":"５４弄","HOUSE_NO":"３４號","E_COORD97":170325.88,"N_COORD97":2546540.0600000001,"ADDRESS":"大武街５９７巷５４弄３４號","OBJECTID":138889},"geometry":{"x":170325.87999999989,"y":2546540.0600000042}},{"attributes":{"ID":138890,"DIS_CODE":0,"TOWNNAME":"北區","LI":"永祥里","LIN":"22鄰","STREET":"大武街","SECT":" ","MAREA":" ","LANE":"５９７巷","ALLEY":"５４弄","HOUSE_NO":"４號","E_COORD97":170262.67999999999,"N_COORD97":2546581.0299999998,"ADDRESS":"大武街５９７巷５４弄４號","OBJECTID":138890},"geometry":{"x":170262.6799999997,"y":2546581.0300000012}},{"attributes":{"ID":138891,"DIS_CODE":0,"TOWNNAME":"善化區","LI":"什乃里","LIN":"6鄰","STREET":" ","SECT":" ","MAREA":"什乃","LANE":" ","ALLEY":" ","HOUSE_NO":"５５號","E_COORD97":176120.85000000001,"N_COORD97":2560443.25,"ADDRESS":"什乃５５號","OBJECTID":138891},"geometry":{"x":176120.85000000056,"y":2560443.2500000019}},{"attributes":{"ID":138892,"DIS_CODE":0,"TOWNNAME":"善化區","LI":"六分里","LIN":"6鄰","STREET":" ","SECT":" ","MAREA":"東勢宅","LANE":" ","ALLEY":" ","HOUSE_NO":"４０號","E_COORD97":177687.87,"N_COORD97":2561046.0099999998,"ADDRESS":"東勢宅４０號","OBJECTID":138892},"geometry":{"x":177687.87000000011,"y":2561046.0099999998}},{"attributes":{"ID":138893,"DIS_CODE":0,"TOWNNAME":"善化區","LI":"什乃里","LIN":"6鄰","STREET":" ","SECT":" ","MAREA":"什乃","LANE":" ","ALLEY":" ","HOUSE_NO":"５６號","E_COORD97":176106.17000000001,"N_COORD97":2560447.5,"ADDRESS":"什乃５６號","OBJECTID":138893},"geometry":{"x":176106.16999999993,"y":2560447.5000000037}},{"attributes":{"ID":138894,"DIS_CODE":0,"TOWNNAME":"北區","LI":"永祥里","LIN":"22鄰","STREET":"大武街","SECT":" ","MAREA":" ","LANE":"５９７巷","ALLEY":"５４弄","HOUSE_NO":"６號","E_COORD97":170265.62,"N_COORD97":2546578.9300000002,"ADDRESS":"大武街５９７巷５４弄６號","OBJECTID":138894},"geometry":{"x":170265.62000000104,"y":2546578.9300000016}},{"attributes":{"ID":138895,"DIS_CODE":0,"TOWNNAME":"北區","LI":"永祥里","LIN":"22鄰","STREET":"大武街","SECT":" ","MAREA":" ","LANE":"５９７巷","ALLEY":"５４弄","HOUSE_NO":"８號","E_COORD97":170268.88,"N_COORD97":2546576.8799999999,"ADDRESS":"大武街５９７巷５４弄８號","OBJECTID":138895},"geometry":{"x":170268.88000000082,"y":2546576.8800000027}},{"attributes":{"ID":138896,"DIS_CODE":0,"TOWNNAME":"北區","LI":"永祥里","LIN":"22鄰","STREET":"大武街","SECT":" ","MAREA":" ","LANE":"５９７巷","ALLEY":"５４弄","HOUSE_NO":"１１號","E_COORD97":170293.82999999999,"N_COORD97":2546581.5600000001,"ADDRESS":"大武街５９７巷５４弄１１號","OBJECTID":138896},"geometry":{"x":170293.83000000007,"y":2546581.5600000024}},{"attributes":{"ID":138897,"DIS_CODE":0,"TOWNNAME":"北區","LI":"永祥里","LIN":"22鄰","STREET":"大武街","SECT":" ","MAREA":" ","LANE":"５９７巷","ALLEY":"５４弄","HOUSE_NO":"１３號","E_COORD97":170297.17000000001,"N_COORD97":2546579.8100000001,"ADDRESS":"大武街５９７巷５４弄１３號","OBJECTID":138897},"geometry":{"x":170297.17000000179,"y":2546579.8100000024}},{"attributes":{"ID":138898,"DIS_CODE":0,"TOWNNAME":"北區","LI":"永祥里","LIN":"22鄰","STREET":"大武街","SECT":" ","MAREA":" ","LANE":"５９７巷","ALLEY":"５４弄","HOUSE_NO":"１５號","E_COORD97":170301.45999999999,"N_COORD97":2546577.1899999999,"ADDRESS":"大武街５９７巷５４弄１５號","OBJECTID":138898},"geometry":{"x":170301.45999999996,"y":2546577.1899999995}},{"attributes":{"ID":138899,"DIS_CODE":0,"TOWNNAME":"北區","LI":"永祥里","LIN":"22鄰","STREET":"大武街","SECT":" ","MAREA":" ","LANE":"５９７巷","ALLEY":"５４弄","HOUSE_NO":"１７號","E_COORD97":170304.20999999999,"N_COORD97":2546574.1800000002,"ADDRESS":"大武街５９７巷５４弄１７號","OBJECTID":138899},"geometry":{"x":170304.21000000089,"y":2546574.1799999997}},{"attributes":{"ID":138900,"DIS_CODE":0,"TOWNNAME":"官田區","LI":"隆本里","LIN":"6鄰","STREET":"中華路","SECT":"二段","MAREA":" ","LANE":" ","ALLEY":" ","HOUSE_NO":"８９號","E_COORD97":179840.95999999999,"N_COORD97":2566788.6899999999,"ADDRESS":"中華路二段８９號","OBJECTID":138900},"geometry":{"x":179840.96000000183,"y":2566788.6900000032}},{"attributes":{"ID":138901,"DIS_CODE":0,"TOWNNAME":"官田區","LI":"隆本里","LIN":"6鄰","STREET":"中華路","SECT":"二段","MAREA":" ","LANE":" ","ALLEY":" ","HOUSE_NO":"９１號","E_COORD97":179836.60000000001,"N_COORD97":2566795.0600000001,"ADDRESS":"中華路二段９１號","OBJECTID":138901},"geometry":{"x":179836.60000000056,"y":2566795.0600000024}},{"attributes":{"ID":138902,"DIS_CODE":0,"TOWNNAME":"南區","LI":"佛壇里","LIN":"4鄰","STREET":"興南街","SECT":" ","MAREA":" ","LANE":" ","ALLEY":" ","HOUSE_NO":"１４８號","E_COORD97":166148.20999999999,"N_COORD97":2535885.21,"ADDRESS":"興南街１４８號","OBJECTID":138902},"geometry":{"x":166148.20999999996,"y":2535885.2100000009}},{"attributes":{"ID":138903,"DIS_CODE":0,"TOWNNAME":"官田區","LI":"東庄里","LIN":"6鄰","STREET":" ","SECT":" ","MAREA":"西庄","LANE":" ","ALLEY":" ","HOUSE_NO":"１３９號之２","E_COORD97":178258.32999999999,"N_COORD97":2565260.46,"ADDRESS":"西庄１３９號之２","OBJECTID":138903},"geometry":{"x":178258.33000000007,"y":2565260.4600000028}},{"attributes":{"ID":138904,"DIS_CODE":0,"TOWNNAME":"官田區","LI":"東庄里","LIN":"6鄰","STREET":" ","SECT":" ","MAREA":"西庄","LANE":" ","ALLEY":" ","HOUSE_NO":"１３９號之３０","E_COORD97":178172.07999999999,"N_COORD97":2565213.9700000002,"ADDRESS":"西庄１３９號之３０","OBJECTID":138904},"geometry":{"x":178172.08000000194,"y":2565213.9700000007}},{"attributes":{"ID":138905,"DIS_CODE":0,"TOWNNAME":"官田區","LI":"東庄里","LIN":"6鄰","STREET":" ","SECT":" ","MAREA":"西庄","LANE":" ","ALLEY":" ","HOUSE_NO":"１３９號之３２","E_COORD97":178219.28,"N_COORD97":2565211.48,"ADDRESS":"西庄１３９號之３２","OBJECTID":138905},"geometry":{"x":178219.28000000026,"y":2565211.4800000042}},{"attributes":{"ID":138906,"DIS_CODE":0,"TOWNNAME":"南區","LI":"府南里","LIN":"17鄰","STREET":"大成路","SECT":"二段","MAREA":" ","LANE":" ","ALLEY":" ","HOUSE_NO":"１６３號","E_COORD97":167263.92000000001,"N_COORD97":2541723.52,"ADDRESS":"大成路二段１６３號","OBJECTID":138906},"geometry":{"x":167263.91999999993,"y":2541723.5199999996}},{"attributes":{"ID":138907,"DIS_CODE":0,"TOWNNAME":"北區","LI":"永祥里","LIN":"22鄰","STREET":"大武街","SECT":" ","MAREA":" ","LANE":"５９７巷","ALLEY":"５４弄","HOUSE_NO":"２７之１號","E_COORD97":170326.22,"N_COORD97":2546557.4199999999,"ADDRESS":"大武街５９７巷５４弄２７之１號","OBJECTID":138907},"geometry":{"x":170326.22000000067,"y":2546557.4200000037}},{"attributes":{"ID":138908,"DIS_CODE":0,"TOWNNAME":"北區","LI":"永祥里","LIN":"22鄰","STREET":"大武街","SECT":" ","MAREA":" ","LANE":"５９７巷","ALLEY":"５４弄","HOUSE_NO":"２７號","E_COORD97":170321.60999999999,"N_COORD97":2546561.8900000001,"ADDRESS":"大武街５９７巷５４弄２７號","OBJECTID":138908},"geometry":{"x":170321.6099999994,"y":2546561.8900000043}},{"attributes":{"ID":138909,"DIS_CODE":0,"TOWNNAME":"官田區","LI":"西庄里","LIN":"6鄰","STREET":" ","SECT":" ","MAREA":"西庄","LANE":" ","ALLEY":" ","HOUSE_NO":"４７號","E_COORD97":177877.95000000001,"N_COORD97":2565151.5499999998,"ADDRESS":"西庄４７號","OBJECTID":138909},"geometry":{"x":177877.95000000019,"y":2565151.5500000026}},{"attributes":{"ID":138910,"DIS_CODE":0,"TOWNNAME":"北區","LI":"永祥里","LIN":"22鄰","STREET":"大武街","SECT":" ","MAREA":" ","LANE":"５９７巷","ALLEY":"５４弄","HOUSE_NO":"３號","E_COORD97":170278.23000000001,"N_COORD97":2546592.6699999999,"ADDRESS":"大武街５９７巷５４弄３號","OBJECTID":138910},"geometry":{"x":170278.23000000045,"y":2546592.6699999981}},{"attributes":{"ID":138911,"DIS_CODE":0,"TOWNNAME":"北區","LI":"永祥里","LIN":"22鄰","STREET":"大武街","SECT":" ","MAREA":" ","LANE":"５９７巷","ALLEY":"５４弄","HOUSE_NO":"５號","E_COORD97":170283.09,"N_COORD97":2546588.9700000002,"ADDRESS":"大武街５９７巷５４弄５號","OBJECTID":138911},"geometry":{"x":170283.09000000078,"y":2546588.9700000025}},{"attributes":{"ID":138912,"DIS_CODE":0,"TOWNNAME":"北區","LI":"永祥里","LIN":"22鄰","STREET":"大武街","SECT":" ","MAREA":" ","LANE":"５９７巷","ALLEY":"５４弄","HOUSE_NO":"７號","E_COORD97":170287.04999999999,"N_COORD97":2546586.73,"ADDRESS":"大武街５９７巷５４弄７號","OBJECTID":138912},"geometry":{"x":170287.04999999981,"y":2546586.7300000023}},{"attributes":{"ID":138913,"DIS_CODE":0,"TOWNNAME":"北區","LI":"永祥里","LIN":"22鄰","STREET":"大武街","SECT":" ","MAREA":" ","LANE":"５９７巷","ALLEY":"５４弄","HOUSE_NO":"９號","E_COORD97":170290.89000000001,"N_COORD97":2546584.0499999998,"ADDRESS":"大武街５９７巷５４弄９號","OBJECTID":138913},"geometry":{"x":170290.8900000006,"y":2546584.0500000007}},{"attributes":{"ID":138914,"DIS_CODE":0,"TOWNNAME":"北區","LI":"永祥里","LIN":"22鄰","STREET":"大武街","SECT":" ","MAREA":" ","LANE":"５９７巷","ALLEY":"７２弄","HOUSE_NO":"１０號","E_COORD97":170297.64999999999,"N_COORD97":2546603.5699999998,"ADDRESS":"大武街５９７巷７２弄１０號","OBJECTID":138914},"geometry":{"x":170297.64999999944,"y":2546603.5700000003}},{"attributes":{"ID":138915,"DIS_CODE":0,"TOWNNAME":"北區","LI":"永祥里","LIN":"22鄰","STREET":"大武街","SECT":" ","MAREA":" ","LANE":"５９７巷","ALLEY":"７２弄","HOUSE_NO":"１２號","E_COORD97":170300.85000000001,"N_COORD97":2546601.5899999999,"ADDRESS":"大武街５９７巷７２弄１２號","OBJECTID":138915},"geometry":{"x":170300.85000000056,"y":2546601.5900000017}},{"attributes":{"ID":138916,"DIS_CODE":0,"TOWNNAME":"北區","LI":"永祥里","LIN":"22鄰","STREET":"大武街","SECT":" ","MAREA":" ","LANE":"５９７巷","ALLEY":"７２弄","HOUSE_NO":"１４號","E_COORD97":170304.10999999999,"N_COORD97":2546599.1600000001,"ADDRESS":"大武街５９７巷７２弄１４號","OBJECTID":138916},"geometry":{"x":170304.11000000034,"y":2546599.1600000001}},{"attributes":{"ID":138917,"DIS_CODE":0,"TOWNNAME":"北區","LI":"永祥里","LIN":"22鄰","STREET":"大武街","SECT":" ","MAREA":" ","LANE":"５９７巷","ALLEY":"７２弄","HOUSE_NO":"１６號","E_COORD97":170307.95000000001,"N_COORD97":2546596.6000000001,"ADDRESS":"大武街５９７巷７２弄１６號","OBJECTID":138917},"geometry":{"x":170307.95000000112,"y":2546596.6000000034}},{"attributes":{"ID":138918,"DIS_CODE":0,"TOWNNAME":"北區","LI":"永祥里","LIN":"22鄰","STREET":"大武街","SECT":" ","MAREA":" ","LANE":"５９７巷","ALLEY":"７２弄","HOUSE_NO":"１８號","E_COORD97":170310.76000000001,"N_COORD97":2546594.1800000002,"ADDRESS":"大武街５９７巷７２弄１８號","OBJECTID":138918},"geometry":{"x":170310.76000000071,"y":2546594.1800000016}},{"attributes":{"ID":138919,"DIS_CODE":0,"TOWNNAME":"北區","LI":"永祥里","LIN":"22鄰","STREET":"大武街","SECT":" ","MAREA":" ","LANE":"５９７巷","ALLEY":"７２弄","HOUSE_NO":"２０號","E_COORD97":170314.47,"N_COORD97":2546591.8799999999,"ADDRESS":"大武街５９７巷７２弄２０號","OBJECTID":138919},"geometry":{"x":170314.46999999974,"y":2546591.8800000008}},{"attributes":{"ID":138920,"DIS_CODE":0,"TOWNNAME":"北區","LI":"永祥里","LIN":"22鄰","STREET":"大武街","SECT":" ","MAREA":" ","LANE":"５９７巷","ALLEY":"７２弄","HOUSE_NO":"２２之１號","E_COORD97":170329.75,"N_COORD97":2546586.3799999999,"ADDRESS":"大武街５９７巷７２弄２２之１號","OBJECTID":138920},"geometry":{"x":170329.75,"y":2546586.379999999}},{"attributes":{"ID":138921,"DIS_CODE":0,"TOWNNAME":"北區","LI":"永祥里","LIN":"22鄰","STREET":"大武街","SECT":" ","MAREA":" ","LANE":"５９７巷","ALLEY":"７２弄","HOUSE_NO":"２２號","E_COORD97":170318.95000000001,"N_COORD97":2546589.3900000001,"ADDRESS":"大武街５９７巷７２弄２２號","OBJECTID":138921},"geometry":{"x":170318.95000000019,"y":2546589.3900000025}},{"attributes":{"ID":138922,"DIS_CODE":0,"TOWNNAME":"北區","LI":"永祥里","LIN":"22鄰","STREET":"大武街","SECT":" ","MAREA":" ","LANE":"５９７巷","ALLEY":"７２弄","HOUSE_NO":"２號","E_COORD97":170279.92999999999,"N_COORD97":2546615.8700000001,"ADDRESS":"大武街５９７巷７２弄２號","OBJECTID":138922},"geometry":{"x":170279.93000000156,"y":2546615.870000001}},{"attributes":{"ID":138923,"DIS_CODE":0,"TOWNNAME":"北區","LI":"永祥里","LIN":"22鄰","STREET":"大武街","SECT":" ","MAREA":" ","LANE":"５９７巷","ALLEY":"７２弄","HOUSE_NO":"４號","E_COORD97":170283.25,"N_COORD97":2546613.3799999999,"ADDRESS":"大武街５９７巷７２弄４號","OBJECTID":138923},"geometry":{"x":170283.25000000186,"y":2546613.379999999}},{"attributes":{"ID":138924,"DIS_CODE":0,"TOWNNAME":"北區","LI":"永祥里","LIN":"22鄰","STREET":"大武街","SECT":" ","MAREA":" ","LANE":"５９７巷","ALLEY":"７２弄","HOUSE_NO":"６號","E_COORD97":170286.95999999999,"N_COORD97":2546609.5499999998,"ADDRESS":"大武街５９７巷７２弄６號","OBJECTID":138924},"geometry":{"x":170286.96000000089,"y":2546609.5500000026}},{"attributes":{"ID":138925,"DIS_CODE":0,"TOWNNAME":"安平區","LI":"建平里","LIN":"22鄰","STREET":"建平九街","SECT":" ","MAREA":" ","LANE":"２２巷","ALLEY":"２９弄","HOUSE_NO":"１０號","E_COORD97":166133.60000000001,"N_COORD97":2543602.96,"ADDRESS":"建平九街２２巷２９弄１０號","OBJECTID":138925},"geometry":{"x":166133.59999999963,"y":2543602.9600000028}},{"attributes":{"ID":138926,"DIS_CODE":0,"TOWNNAME":"仁德區","LI":"仁愛里","LIN":"6鄰","STREET":" ","SECT":" ","MAREA":"仁愛","LANE":" ","ALLEY":" ","HOUSE_NO":"１０５號","E_COORD97":170339.56812800001,"N_COORD97":2539779.5299999998,"ADDRESS":"仁愛１０５號","OBJECTID":138926},"geometry":{"x":170339.56812800094,"y":2539779.5300000012}},{"attributes":{"ID":138927,"DIS_CODE":0,"TOWNNAME":"仁德區","LI":"仁愛里","LIN":"6鄰","STREET":" ","SECT":" ","MAREA":"仁愛","LANE":" ","ALLEY":" ","HOUSE_NO":"１０４號","E_COORD97":170334.801396,"N_COORD97":2539779.5299999998,"ADDRESS":"仁愛１０４號","OBJECTID":138927},"geometry":{"x":170334.80139600113,"y":2539779.5300000012}},{"attributes":{"ID":138928,"DIS_CODE":0,"TOWNNAME":"仁德區","LI":"仁愛里","LIN":"6鄰","STREET":" ","SECT":" ","MAREA":"仁愛","LANE":" ","ALLEY":" ","HOUSE_NO":"１０２號","E_COORD97":170325.79756800001,"N_COORD97":2539779.5299999998,"ADDRESS":"仁愛１０２號","OBJECTID":138928},"geometry":{"x":170325.79756799992,"y":2539779.5300000012}},{"attributes":{"ID":138929,"DIS_CODE":0,"TOWNNAME":"仁德區","LI":"仁愛里","LIN":"6鄰","STREET":" ","SECT":" ","MAREA":"仁愛","LANE":" ","ALLEY":" ","HOUSE_NO":"１０９號","E_COORD97":170343.96411500001,"N_COORD97":2539769.5099999998,"ADDRESS":"仁愛１０９號","OBJECTID":138929},"geometry":{"x":170343.96411500126,"y":2539769.5100000016}},{"attributes":{"ID":138930,"DIS_CODE":0,"TOWNNAME":"安平區","LI":"建平里","LIN":"22鄰","STREET":"建平九街","SECT":" ","MAREA":" ","LANE":"２２巷","ALLEY":"２９弄","HOUSE_NO":"１１號","E_COORD97":166130.16,"N_COORD97":2543614.6200000001,"ADDRESS":"建平九街２２巷２９弄１１號","OBJECTID":138930},"geometry":{"x":166130.16000000015,"y":2543614.6200000029}},{"attributes":{"ID":138931,"DIS_CODE":0,"TOWNNAME":"安平區","LI":"建平里","LIN":"22鄰","STREET":"建平九街","SECT":" ","MAREA":" ","LANE":"２２巷","ALLEY":"２９弄","HOUSE_NO":"１２號","E_COORD97":166129.13,"N_COORD97":2543605.02,"ADDRESS":"建平九街２２巷２９弄１２號","OBJECTID":138931},"geometry":{"x":166129.13000000082,"y":2543605.0199999996}},{"attributes":{"ID":138932,"DIS_CODE":0,"TOWNNAME":"安平區","LI":"建平里","LIN":"22鄰","STREET":"建平九街","SECT":" ","MAREA":" ","LANE":"２２巷","ALLEY":"２９弄","HOUSE_NO":"１３號","E_COORD97":166125.01000000001,"N_COORD97":2543615.6499999999,"ADDRESS":"建平九街２２巷２９弄１３號","OBJECTID":138932},"geometry":{"x":166125.01000000071,"y":2543615.6500000004}},{"attributes":{"ID":138933,"DIS_CODE":0,"TOWNNAME":"安平區","LI":"建平里","LIN":"22鄰","STREET":"建平九街","SECT":" ","MAREA":" ","LANE":"２２巷","ALLEY":"２９弄","HOUSE_NO":"１４號","E_COORD97":166121.23999999999,"N_COORD97":2543615.48,"ADDRESS":"建平九街２２巷２９弄１４號","OBJECTID":138933},"geometry":{"x":166121.24000000022,"y":2543615.4800000023}},{"attributes":{"ID":138934,"DIS_CODE":0,"TOWNNAME":"安平區","LI":"建平里","LIN":"22鄰","STREET":"建平九街","SECT":" ","MAREA":" ","LANE":"２２巷","ALLEY":"２９弄","HOUSE_NO":"１號","E_COORD97":166153.67999999999,"N_COORD97":2543613.5899999999,"ADDRESS":"建平九街２２巷２９弄１號","OBJECTID":138934},"geometry":{"x":166153.67999999877,"y":2543613.5900000017}},{"attributes":{"ID":138935,"DIS_CODE":0,"TOWNNAME":"安平區","LI":"建平里","LIN":"22鄰","STREET":"建平九街","SECT":" ","MAREA":" ","LANE":"２２巷","ALLEY":"２９弄","HOUSE_NO":"２號","E_COORD97":166151.62,"N_COORD97":2543601.4100000001,"ADDRESS":"建平九街２２巷２９弄２號","OBJECTID":138935},"geometry":{"x":166151.62000000104,"y":2543601.4100000039}},{"attributes":{"ID":138936,"DIS_CODE":0,"TOWNNAME":"安平區","LI":"建平里","LIN":"22鄰","STREET":"建平九街","SECT":" ","MAREA":" ","LANE":"２２巷","ALLEY":"２９弄","HOUSE_NO":"３號","E_COORD97":166148.53,"N_COORD97":2543614.4500000002,"ADDRESS":"建平九街２２巷２９弄３號","OBJECTID":138936},"geometry":{"x":166148.52999999933,"y":2543614.4500000011}},{"attributes":{"ID":138937,"DIS_CODE":0,"TOWNNAME":"安平區","LI":"建平里","LIN":"22鄰","STREET":"建平九街","SECT":" ","MAREA":" ","LANE":"２２巷","ALLEY":"２９弄","HOUSE_NO":"４號","E_COORD97":166147.5,"N_COORD97":2543601.7599999998,"ADDRESS":"建平九街２２巷２９弄４號","OBJECTID":138937},"geometry":{"x":166147.50000000093,"y":2543601.7600000035}},{"attributes":{"ID":138938,"DIS_CODE":0,"TOWNNAME":"安平區","LI":"建平里","LIN":"22鄰","STREET":"建平九街","SECT":" ","MAREA":" ","LANE":"２２巷","ALLEY":"２９弄","HOUSE_NO":"５號","E_COORD97":166144.07000000001,"N_COORD97":2543613.7599999998,"ADDRESS":"建平九街２２巷２９弄５號","OBJECTID":138938},"geometry":{"x":166144.07000000123,"y":2543613.7599999998}},{"attributes":{"ID":138939,"DIS_CODE":0,"TOWNNAME":"安平區","LI":"建平里","LIN":"22鄰","STREET":"建平九街","SECT":" ","MAREA":" ","LANE":"２２巷","ALLEY":"２９弄","HOUSE_NO":"６號","E_COORD97":166141.82999999999,"N_COORD97":2543602.27,"ADDRESS":"建平九街２２巷２９弄６號","OBJECTID":138939},"geometry":{"x":166141.83000000101,"y":2543602.2700000014}},{"attributes":{"ID":138940,"DIS_CODE":0,"TOWNNAME":"安平區","LI":"建平里","LIN":"22鄰","STREET":"建平九街","SECT":" ","MAREA":" ","LANE":"２２巷","ALLEY":"２９弄","HOUSE_NO":"７號","E_COORD97":166139.60000000001,"N_COORD97":2543613.9300000002,"ADDRESS":"建平九街２２巷２９弄７號","OBJECTID":138940},"geometry":{"x":166139.60000000056,"y":2543613.9299999978}},{"attributes":{"ID":138941,"DIS_CODE":0,"TOWNNAME":"安平區","LI":"建平里","LIN":"22鄰","STREET":"建平九街","SECT":" ","MAREA":" ","LANE":"２２巷","ALLEY":"２９弄","HOUSE_NO":"８號","E_COORD97":166137.70999999999,"N_COORD97":2543603.1299999999,"ADDRESS":"建平九街２２巷２９弄８號","OBJECTID":138941},"geometry":{"x":166137.71000000089,"y":2543603.1300000008}},{"attributes":{"ID":138942,"DIS_CODE":0,"TOWNNAME":"安平區","LI":"建平里","LIN":"22鄰","STREET":"建平九街","SECT":" ","MAREA":" ","LANE":"２２巷","ALLEY":"２９弄","HOUSE_NO":"９號","E_COORD97":166134.79999999999,"N_COORD97":2543613.7599999998,"ADDRESS":"建平九街２２巷２９弄９號","OBJECTID":138942},"geometry":{"x":166134.80000000075,"y":2543613.7599999998}},{"attributes":{"ID":138943,"DIS_CODE":0,"TOWNNAME":"安平區","LI":"建平里","LIN":"22鄰","STREET":"建平九街","SECT":" ","MAREA":" ","LANE":"２２巷","ALLEY":"３１弄","HOUSE_NO":"１１號","E_COORD97":166132.04999999999,"N_COORD97":2543628.23,"ADDRESS":"建平九街２２巷３１弄１１號","OBJECTID":138943},"geometry":{"x":166132.04999999981,"y":2543628.2300000004}},{"attributes":{"ID":138944,"DIS_CODE":0,"TOWNNAME":"安平區","LI":"建平里","LIN":"22鄰","STREET":"建平九街","SECT":" ","MAREA":" ","LANE":"２２巷","ALLEY":"３１弄","HOUSE_NO":"１３號","E_COORD97":166126.89999999999,"N_COORD97":2543628.7400000002,"ADDRESS":"建平九街２２巷３１弄１３號","OBJECTID":138944},"geometry":{"x":166126.90000000037,"y":2543628.7400000002}},{"attributes":{"ID":138945,"DIS_CODE":0,"TOWNNAME":"仁德區","LI":"土庫里","LIN":"6鄰","STREET":"土庫三街","SECT":" ","MAREA":" ","LANE":" ","ALLEY":" ","HOUSE_NO":"７７號","E_COORD97":174307.26999999999,"N_COORD97":2543082.9900000002,"ADDRESS":"土庫三街７７號","OBJECTID":138945},"geometry":{"x":174307.27000000048,"y":2543082.9900000021}},{"attributes":{"ID":138946,"DIS_CODE":0,"TOWNNAME":"麻豆區","LI":"安正里","LIN":"6鄰","STREET":" ","SECT":" ","MAREA":"方厝寮","LANE":" ","ALLEY":" ","HOUSE_NO":"３０號","E_COORD97":171522.82000000001,"N_COORD97":2561696.9300000002,"ADDRESS":"方厝寮３０號","OBJECTID":138946},"geometry":{"x":171522.82000000123,"y":2561696.9299999997}},{"attributes":{"ID":138947,"DIS_CODE":0,"TOWNNAME":"七股區","LI":"後港里","LIN":" ","STREET":" ","SECT":" ","MAREA":"港東","LANE":" ","ALLEY":" ","HOUSE_NO":"６１之９號","E_COORD97":162679.92999999999,"N_COORD97":2565073.4300000002,"ADDRESS":"港東６１之９號","OBJECTID":138947},"geometry":{"x":162679.9299999997,"y":2565073.4300000016}},{"attributes":{"ID":138948,"DIS_CODE":0,"TOWNNAME":"七股區","LI":"溪南里","LIN":"8鄰","STREET":" ","SECT":" ","MAREA":"溪南","LANE":" ","ALLEY":" ","HOUSE_NO":"７７之５８號","E_COORD97":159370.14000000001,"N_COORD97":2557244.73,"ADDRESS":"溪南１０１之２號","OBJECTID":138948},"geometry":{"x":159370.1400000006,"y":2557244.7300000004}},{"attributes":{"ID":138949,"DIS_CODE":0,"TOWNNAME":"七股區","LI":"溪南里","LIN":" ","STREET":" ","SECT":" ","MAREA":"溪南","LANE":" ","ALLEY":" ","HOUSE_NO":"１４之９號","E_COORD97":160030.94,"N_COORD97":2558752.23,"ADDRESS":"溪南１４之９號","OBJECTID":138949},"geometry":{"x":160030.94000000041,"y":2558752.2300000023}},{"attributes":{"ID":138950,"DIS_CODE":0,"TOWNNAME":"七股區","LI":"溪南里","LIN":" ","STREET":" ","SECT":" ","MAREA":"溪南","LANE":" ","ALLEY":" ","HOUSE_NO":"１９５之３號","E_COORD97":160826.29999999999,"N_COORD97":2557246.6899999999,"ADDRESS":"溪南１９５之３號","OBJECTID":138950},"geometry":{"x":160826.29999999981,"y":2557246.6899999995}},{"attributes":{"ID":138951,"DIS_CODE":0,"TOWNNAME":"安平區","LI":"建平里","LIN":"22鄰","STREET":"建平九街","SECT":" ","MAREA":" ","LANE":"２２巷","ALLEY":"３１弄","HOUSE_NO":"１號","E_COORD97":166155.04999999999,"N_COORD97":2543626.6800000002,"ADDRESS":"建平九街２２巷３１弄１號","OBJECTID":138951},"geometry":{"x":166155.05000000075,"y":2543626.6800000016}},{"attributes":{"ID":138952,"DIS_CODE":0,"TOWNNAME":"安平區","LI":"建平里","LIN":"22鄰","STREET":"建平九街","SECT":" ","MAREA":" ","LANE":"２２巷","ALLEY":"３１弄","HOUSE_NO":"３號","E_COORD97":166150.25,"N_COORD97":2543627.3700000001,"ADDRESS":"建平九街２２巷３１弄３號","OBJECTID":138952},"geometry":{"x":166150.25000000186,"y":2543627.3700000029}},{"attributes":{"ID":138953,"DIS_CODE":0,"TOWNNAME":"安平區","LI":"建平里","LIN":"22鄰","STREET":"建平九街","SECT":" ","MAREA":" ","LANE":"２２巷","ALLEY":"３１弄","HOUSE_NO":"５號","E_COORD97":166145.95000000001,"N_COORD97":2543627.2000000002,"ADDRESS":"建平九街２２巷３１弄５號","OBJECTID":138953},"geometry":{"x":166145.95000000112,"y":2543627.1999999993}},{"attributes":{"ID":138954,"DIS_CODE":0,"TOWNNAME":"安平區","LI":"建平里","LIN":"22鄰","STREET":"建平九街","SECT":" ","MAREA":" ","LANE":"２２巷","ALLEY":"３１弄","HOUSE_NO":"７號","E_COORD97":166141.32000000001,"N_COORD97":2543627.8799999999,"ADDRESS":"建平九街２２巷３１弄７號","OBJECTID":138954},"geometry":{"x":166141.3200000003,"y":2543627.8800000008}},{"attributes":{"ID":138955,"DIS_CODE":0,"TOWNNAME":"安平區","LI":"建平里","LIN":"22鄰","STREET":"建平九街","SECT":" ","MAREA":" ","LANE":"２２巷","ALLEY":"３１弄","HOUSE_NO":"９號","E_COORD97":166136.51000000001,"N_COORD97":2543627.8799999999,"ADDRESS":"建平九街２２巷３１弄９號","OBJECTID":138955},"geometry":{"x":166136.51000000164,"y":2543627.8800000008}},{"attributes":{"ID":138956,"DIS_CODE":0,"TOWNNAME":"歸仁區","LI":"歸南里","LIN":"22鄰","STREET":"民生八街","SECT":" ","MAREA":" ","LANE":"２８巷","ALLEY":"１９弄","HOUSE_NO":"６０號","E_COORD97":175994.59,"N_COORD97":2540430.29,"ADDRESS":"民生八街２８巷１９弄６０號","OBJECTID":138956},"geometry":{"x":175994.58999999985,"y":2540430.2899999991}},{"attributes":{"ID":138957,"DIS_CODE":0,"TOWNNAME":"歸仁區","LI":"歸南里","LIN":"22鄰","STREET":"民生八街","SECT":" ","MAREA":" ","LANE":"２８巷","ALLEY":"１９弄","HOUSE_NO":"５２號","E_COORD97":176011.98999999999,"N_COORD97":2540430.29,"ADDRESS":"民生八街２８巷１９弄５２號","OBJECTID":138957},"geometry":{"x":176011.99000000115,"y":2540430.2899999991}},{"attributes":{"ID":138958,"DIS_CODE":0,"TOWNNAME":"仁德區","LI":"仁愛里","LIN":"6鄰","STREET":" ","SECT":" ","MAREA":"仁愛","LANE":" ","ALLEY":" ","HOUSE_NO":"１０１號","E_COORD97":170321.56047200001,"N_COORD97":2539779.5299999998,"ADDRESS":"仁愛１０１號","OBJECTID":138958},"geometry":{"x":170321.56047200225,"y":2539779.5300000012}},{"attributes":{"ID":138959,"DIS_CODE":0,"TOWNNAME":"仁德區","LI":"仁愛里","LIN":"6鄰","STREET":" ","SECT":" ","MAREA":"仁愛","LANE":" ","ALLEY":" ","HOUSE_NO":"１００號","E_COORD97":170316.79373999999,"N_COORD97":2539779.5299999998,"ADDRESS":"仁愛１００號","OBJECTID":138959},"geometry":{"x":170316.79373999964,"y":2539779.5300000012}},{"attributes":{"ID":138960,"DIS_CODE":0,"TOWNNAME":"仁德區","LI":"仁愛里","LIN":"6鄰","STREET":" ","SECT":" ","MAREA":"仁愛","LANE":" ","ALLEY":" ","HOUSE_NO":"１１４號","E_COORD97":170327.86315200001,"N_COORD97":2539769.5099999998,"ADDRESS":"仁愛１１４號","OBJECTID":138960},"geometry":{"x":170327.86315200198,"y":2539769.5100000016}},{"attributes":{"ID":138961,"DIS_CODE":0,"TOWNNAME":"七股區","LI":"溪南里","LIN":" ","STREET":" ","SECT":" ","MAREA":"溪南","LANE":" ","ALLEY":" ","HOUSE_NO":"３５之５號","E_COORD97":159951.95000000001,"N_COORD97":2559188.7799999998,"ADDRESS":"溪南３５之５號","OBJECTID":138961},"geometry":{"x":159951.95000000112,"y":2559188.7799999993}},{"attributes":{"ID":138962,"DIS_CODE":0,"TOWNNAME":"七股區","LI":"溪南里","LIN":" ","STREET":" ","SECT":" ","MAREA":"溪南","LANE":" ","ALLEY":" ","HOUSE_NO":"７１之１號","E_COORD97":160821.54999999999,"N_COORD97":2557246.04,"ADDRESS":"溪南７１之１號","OBJECTID":138962},"geometry":{"x":160821.54999999981,"y":2557246.040000001}},{"attributes":{"ID":138963,"DIS_CODE":0,"TOWNNAME":"七股區","LI":"溪南里","LIN":" ","STREET":" ","SECT":" ","MAREA":"溪南","LANE":" ","ALLEY":" ","HOUSE_NO":"７１之４５號","E_COORD97":159696.07000000001,"N_COORD97":2557989.02,"ADDRESS":"溪南７１之４５號","OBJECTID":138963},"geometry":{"x":159696.0700000003,"y":2557989.0200000014}},{"attributes":{"ID":138964,"DIS_CODE":0,"TOWNNAME":"七股區","LI":"溪南里","LIN":" ","STREET":" ","SECT":" ","MAREA":"溪南","LANE":" ","ALLEY":" ","HOUSE_NO":"８２號","E_COORD97":160993.41,"N_COORD97":2557264.5299999998,"ADDRESS":"溪南８２號","OBJECTID":138964},"geometry":{"x":160993.41000000108,"y":2557264.5299999993}},{"attributes":{"ID":138965,"DIS_CODE":0,"TOWNNAME":"七股區","LI":"義合里","LIN":" ","STREET":" ","SECT":" ","MAREA":"義合","LANE":" ","ALLEY":" ","HOUSE_NO":"７４之１０號","E_COORD97":162239.63,"N_COORD97":2555935.96,"ADDRESS":"義合７４之１０號","OBJECTID":138965},"geometry":{"x":162239.62999999989,"y":2555935.9600000046}},{"attributes":{"ID":138966,"DIS_CODE":0,"TOWNNAME":"七股區","LI":"義合里","LIN":" ","STREET":" ","SECT":" ","MAREA":"義合","LANE":" ","ALLEY":" ","HOUSE_NO":"７４之１６號","E_COORD97":162248.82000000001,"N_COORD97":2556013.6400000001,"ADDRESS":"義合７４之１６號","OBJECTID":138966},"geometry":{"x":162248.8200000003,"y":2556013.6400000025}},{"attributes":{"ID":138967,"DIS_CODE":0,"TOWNNAME":"七股區","LI":"義合里","LIN":" ","STREET":" ","SECT":" ","MAREA":"義合","LANE":" ","ALLEY":" ","HOUSE_NO":"７５之２８號","E_COORD97":162045.10000000001,"N_COORD97":2555745.0699999998,"ADDRESS":"義合７５之２８號","OBJECTID":138967},"geometry":{"x":162045.10000000149,"y":2555745.0700000022}},{"attributes":{"ID":138968,"DIS_CODE":0,"TOWNNAME":"七股區","LI":"義合里","LIN":" ","STREET":" ","SECT":" ","MAREA":"義合","LANE":" ","ALLEY":" ","HOUSE_NO":"７８之１８號","E_COORD97":161826.39999999999,"N_COORD97":2555697.5800000001,"ADDRESS":"義合７８之１８號","OBJECTID":138968},"geometry":{"x":161826.40000000037,"y":2555697.5800000019}},{"attributes":{"ID":138969,"DIS_CODE":0,"TOWNNAME":"七股區","LI":"義合里","LIN":" ","STREET":" ","SECT":" ","MAREA":"義合","LANE":" ","ALLEY":" ","HOUSE_NO":"７號","E_COORD97":162960.51000000001,"N_COORD97":2556437.4700000002,"ADDRESS":"義合７號","OBJECTID":138969},"geometry":{"x":162960.50999999978,"y":2556437.4700000044}},{"attributes":{"ID":138970,"DIS_CODE":0,"TOWNNAME":"七股區","LI":"樹林里","LIN":" ","STREET":" ","SECT":" ","MAREA":"樹林","LANE":" ","ALLEY":" ","HOUSE_NO":"１０８之１４號","E_COORD97":163881.39999999999,"N_COORD97":2556894.0099999998,"ADDRESS":"樹林１０８之１４號","OBJECTID":138970},"geometry":{"x":163881.39999999944,"y":2556894.0100000035}},{"attributes":{"ID":138971,"DIS_CODE":0,"TOWNNAME":"七股區","LI":"樹林里","LIN":" ","STREET":" ","SECT":" ","MAREA":"樹林","LANE":" ","ALLEY":" ","HOUSE_NO":"１１４之２號","E_COORD97":163852.13,"N_COORD97":2556889.75,"ADDRESS":"樹林１１４之２號","OBJECTID":138971},"geometry":{"x":163852.12999999989,"y":2556889.7500000019}},{"attributes":{"ID":138972,"DIS_CODE":0,"TOWNNAME":"七股區","LI":"樹林里","LIN":" ","STREET":" ","SECT":" ","MAREA":"樹林","LANE":" ","ALLEY":" ","HOUSE_NO":"１３５號","E_COORD97":161475.57000000001,"N_COORD97":2556992.3599999999,"ADDRESS":"樹林１３５號","OBJECTID":138972},"geometry":{"x":161475.57000000123,"y":2556992.3599999994}},{"attributes":{"ID":138973,"DIS_CODE":0,"TOWNNAME":"歸仁區","LI":"大廟里","LIN":"22鄰","STREET":"大廟一街","SECT":" ","MAREA":" ","LANE":"６０巷","ALLEY":"７弄","HOUSE_NO":"８號","E_COORD97":175753.47,"N_COORD97":2544021.25,"ADDRESS":"大廟一街６０巷７弄８號","OBJECTID":138973},"geometry":{"x":175753.4700000016,"y":2544021.25}},{"attributes":{"ID":138974,"DIS_CODE":0,"TOWNNAME":"歸仁區","LI":"大廟里","LIN":"22鄰","STREET":"大廟一街","SECT":" ","MAREA":" ","LANE":"６０巷","ALLEY":"７弄","HOUSE_NO":"６號","E_COORD97":175752.47,"N_COORD97":2544027.25,"ADDRESS":"大廟一街６０巷７弄６號","OBJECTID":138974},"geometry":{"x":175752.47000000067,"y":2544027.2500000019}},{"attributes":{"ID":138975,"DIS_CODE":0,"TOWNNAME":"東區","LI":"大德里","LIN":"6鄰","STREET":"立德十路","SECT":" ","MAREA":" ","LANE":"３０巷","ALLEY":" ","HOUSE_NO":"１１號","E_COORD97":169492.04000000001,"N_COORD97":2542015.9700000002,"ADDRESS":"立德十路３０巷１１號","OBJECTID":138975},"geometry":{"x":169492.04000000097,"y":2542015.9700000025}},{"attributes":{"ID":138976,"DIS_CODE":0,"TOWNNAME":"歸仁區","LI":"武東里","LIN":"15鄰","STREET":"高鐵十路","SECT":" ","MAREA":" ","LANE":" ","ALLEY":" ","HOUSE_NO":"６６號","E_COORD97":175961.97,"N_COORD97":2536203.4500000002,"ADDRESS":"高鐵十路６６號","OBJECTID":138976},"geometry":{"x":175961.9700000016,"y":2536203.4500000011}},{"attributes":{"ID":138977,"DIS_CODE":0,"TOWNNAME":"南區","LI":"廣州里","LIN":"15鄰","STREET":"福吉二街","SECT":" ","MAREA":" ","LANE":" ","ALLEY":" ","HOUSE_NO":"１１號","E_COORD97":167354.35000000001,"N_COORD97":2542677.2400000002,"ADDRESS":"福吉二街１１號","OBJECTID":138977},"geometry":{"x":167354.3499999987,"y":2542677.2400000021}},{"attributes":{"ID":138978,"DIS_CODE":0,"TOWNNAME":"南區","LI":"廣州里","LIN":"15鄰","STREET":"福吉二街","SECT":" ","MAREA":" ","LANE":" ","ALLEY":" ","HOUSE_NO":"１３號","E_COORD97":167351.39000000001,"N_COORD97":2542681.4500000002,"ADDRESS":"福吉二街１３號","OBJECTID":138978},"geometry":{"x":167351.3900000006,"y":2542681.450000003}},{"attributes":{"ID":138979,"DIS_CODE":0,"TOWNNAME":"南區","LI":"廣州里","LIN":"15鄰","STREET":"福吉二街","SECT":" ","MAREA":" ","LANE":" ","ALLEY":" ","HOUSE_NO":"１５號","E_COORD97":167347.17000000001,"N_COORD97":2542683.5600000001,"ADDRESS":"福吉二街１５號","OBJECTID":138979},"geometry":{"x":167347.16999999993,"y":2542683.5600000005}},{"attributes":{"ID":138980,"DIS_CODE":0,"TOWNNAME":"東區","LI":"莊敬里","LIN":"6鄰","STREET":"小東路","SECT":" ","MAREA":" ","LANE":" ","ALLEY":" ","HOUSE_NO":"３４６號","E_COORD97":171420.20000000001,"N_COORD97":2544305.5099999998,"ADDRESS":"小東路３４６號","OBJECTID":138980},"geometry":{"x":171420.20000000112,"y":2544305.5100000035}},{"attributes":{"ID":138981,"DIS_CODE":0,"TOWNNAME":"歸仁區","LI":"大廟里","LIN":"22鄰","STREET":"大廟一街","SECT":" ","MAREA":" ","LANE":"６０巷","ALLEY":"７弄","HOUSE_NO":"１０號","E_COORD97":175752.72,"N_COORD97":2544017.25,"ADDRESS":"大廟一街６０巷７弄１０號","OBJECTID":138981},"geometry":{"x":175752.71999999974,"y":2544017.2500000019}},{"attributes":{"ID":138982,"DIS_CODE":0,"TOWNNAME":"歸仁區","LI":"大廟里","LIN":"22鄰","STREET":"大廟一街","SECT":" ","MAREA":" ","LANE":"６０巷","ALLEY":"７弄","HOUSE_NO":"１４號","E_COORD97":175751.62,"N_COORD97":2544006.25,"ADDRESS":"大廟一街６０巷７弄１４號","OBJECTID":138982},"geometry":{"x":175751.62000000104,"y":2544006.2500000019}},{"attributes":{"ID":138983,"DIS_CODE":0,"TOWNNAME":"歸仁區","LI":"大廟里","LIN":"22鄰","STREET":"大廟一街","SECT":" ","MAREA":" ","LANE":"３８巷","ALLEY":"２５弄","HOUSE_NO":"９號","E_COORD97":175734.32000000001,"N_COORD97":2544044.25,"ADDRESS":"大廟一街３８巷２５弄９號","OBJECTID":138983},"geometry":{"x":175734.3200000003,"y":2544044.2500000019}},{"attributes":{"ID":138984,"DIS_CODE":0,"TOWNNAME":"歸仁區","LI":"大廟里","LIN":"22鄰","STREET":"大廟一街","SECT":" ","MAREA":" ","LANE":"３８巷","ALLEY":"２５弄","HOUSE_NO":"２７號","E_COORD97":175708.57000000001,"N_COORD97":2543975.25,"ADDRESS":"大廟一街３８巷２５弄２７號","OBJECTID":138984},"geometry":{"x":175708.5700000003,"y":2543975.2500000037}},{"attributes":{"ID":138985,"DIS_CODE":0,"TOWNNAME":"歸仁區","LI":"大廟里","LIN":"22鄰","STREET":"大廟一街","SECT":" ","MAREA":" ","LANE":"３８巷","ALLEY":"２５弄","HOUSE_NO":"２３號","E_COORD97":175716.87,"N_COORD97":2543990.25,"ADDRESS":"大廟一街３８巷２５弄２３號","OBJECTID":138985},"geometry":{"x":175716.87000000011,"y":2543990.2500000019}},{"attributes":{"ID":138986,"DIS_CODE":0,"TOWNNAME":"北區","LI":"文元里","LIN":"22鄰","STREET":"文賢二街","SECT":" ","MAREA":" ","LANE":"２３６巷","ALLEY":"１０弄","HOUSE_NO":"５號","E_COORD97":167759.60999999999,"N_COORD97":2545751.1600000001,"ADDRESS":"文賢二街２３６巷１０弄５號","OBJECTID":138986},"geometry":{"x":167759.61000000034,"y":2545751.1600000001}},{"attributes":{"ID":138987,"DIS_CODE":0,"TOWNNAME":"歸仁區","LI":"大廟里","LIN":"22鄰","STREET":"大廟一街","SECT":" ","MAREA":" ","LANE":"３８巷","ALLEY":"２５弄","HOUSE_NO":"１９號","E_COORD97":175723.17000000001,"N_COORD97":2544008.25,"ADDRESS":"大廟一街３８巷２５弄１９號","OBJECTID":138987},"geometry":{"x":175723.16999999993,"y":2544008.25}},{"attributes":{"ID":138988,"DIS_CODE":0,"TOWNNAME":"歸仁區","LI":"大廟里","LIN":"22鄰","STREET":"大廟一街","SECT":" ","MAREA":" ","LANE":"３８巷","ALLEY":"２５弄","HOUSE_NO":"２５號","E_COORD97":175713.76999999999,"N_COORD97":2543982.25,"ADDRESS":"大廟一街３８巷２５弄２５號","OBJECTID":138988},"geometry":{"x":175713.76999999955,"y":2543982.2500000019}},{"attributes":{"ID":138989,"DIS_CODE":0,"TOWNNAME":"歸仁區","LI":"大廟里","LIN":"22鄰","STREET":"大廟一街","SECT":" ","MAREA":" ","LANE":"３８巷","ALLEY":"２５弄","HOUSE_NO":"５號","E_COORD97":175740.51999999999,"N_COORD97":2544055.25,"ADDRESS":"大廟一街３８巷２５弄５號","OBJECTID":138989},"geometry":{"x":175740.51999999955,"y":2544055.25}},{"attributes":{"ID":138990,"DIS_CODE":0,"TOWNNAME":"新營區","LI":"南紙里","LIN":"22鄰","STREET":"建業路","SECT":" ","MAREA":" ","LANE":"１９３巷","ALLEY":"１０弄","HOUSE_NO":"１５號","E_COORD97":178143.03,"N_COORD97":2577453.1099999999,"ADDRESS":"建業路１９３巷１０弄１５號","OBJECTID":138990},"geometry":{"x":178143.03000000026,"y":2577453.1100000013}},{"attributes":{"ID":138991,"DIS_CODE":0,"TOWNNAME":"七股區","LI":"樹林里","LIN":" ","STREET":" ","SECT":" ","MAREA":"樹林","LANE":" ","ALLEY":" ","HOUSE_NO":"５７之１號","E_COORD97":163910.79999999999,"N_COORD97":2557126.0499999998,"ADDRESS":"樹林５７之１號","OBJECTID":138991},"geometry":{"x":163910.80000000075,"y":2557126.0500000026}},{"attributes":{"ID":138992,"DIS_CODE":0,"TOWNNAME":"七股區","LI":"樹林里","LIN":" ","STREET":" ","SECT":" ","MAREA":"樹林","LANE":" ","ALLEY":" ","HOUSE_NO":"５８之７號","E_COORD97":163841.14000000001,"N_COORD97":2557100.1299999999,"ADDRESS":"樹林５８之７號","OBJECTID":138992},"geometry":{"x":163841.13999999966,"y":2557100.1300000008}},{"attributes":{"ID":138993,"DIS_CODE":0,"TOWNNAME":"七股區","LI":"樹林里","LIN":" ","STREET":" ","SECT":" ","MAREA":"樹林","LANE":" ","ALLEY":" ","HOUSE_NO":"６５之１８號","E_COORD97":163555.14000000001,"N_COORD97":2557092.7200000002,"ADDRESS":"樹林６５之１８號","OBJECTID":138993},"geometry":{"x":163555.13999999966,"y":2557092.7200000007}},{"attributes":{"ID":138994,"DIS_CODE":0,"TOWNNAME":"七股區","LI":"樹林里","LIN":" ","STREET":" ","SECT":" ","MAREA":"樹林","LANE":" ","ALLEY":" ","HOUSE_NO":"９７之２２號","E_COORD97":164049.37,"N_COORD97":2557008.8300000001,"ADDRESS":"樹林９７之２２號","OBJECTID":138994},"geometry":{"x":164049.37000000104,"y":2557008.8300000019}},{"attributes":{"ID":138995,"DIS_CODE":0,"TOWNNAME":"七股區","LI":"篤加里","LIN":" ","STREET":" ","SECT":" ","MAREA":"篤加","LANE":" ","ALLEY":" ","HOUSE_NO":"１０４之７號","E_COORD97":160875.56,"N_COORD97":2560870.6099999999,"ADDRESS":"篤加１０４之７號","OBJECTID":138995},"geometry":{"x":160875.55999999866,"y":2560870.6100000013}},{"attributes":{"ID":138996,"DIS_CODE":0,"TOWNNAME":"七股區","LI":"篤加里","LIN":" ","STREET":" ","SECT":" ","MAREA":"篤加","LANE":" ","ALLEY":" ","HOUSE_NO":"１１６之６號","E_COORD97":162618.06,"N_COORD97":2562510.3100000001,"ADDRESS":"篤加１１６之６號","OBJECTID":138996},"geometry":{"x":162618.05999999959,"y":2562510.3100000042}},{"attributes":{"ID":138997,"DIS_CODE":0,"TOWNNAME":"七股區","LI":"篤加里","LIN":" ","STREET":" ","SECT":" ","MAREA":"篤加","LANE":" ","ALLEY":" ","HOUSE_NO":"１２０之３號","E_COORD97":161770.79999999999,"N_COORD97":2562554.98,"ADDRESS":"篤加１２０之３號","OBJECTID":138997},"geometry":{"x":161770.79999999981,"y":2562554.9800000004}},{"attributes":{"ID":138998,"DIS_CODE":0,"TOWNNAME":"七股區","LI":"篤加里","LIN":" ","STREET":" ","SECT":" ","MAREA":"篤加","LANE":" ","ALLEY":" ","HOUSE_NO":"１７０之４３號","E_COORD97":161533.98000000001,"N_COORD97":2562103.4199999999,"ADDRESS":"篤加１７０之４３號","OBJECTID":138998},"geometry":{"x":161533.98000000138,"y":2562103.4200000018}},{"attributes":{"ID":138999,"DIS_CODE":0,"TOWNNAME":"七股區","LI":"篤加里","LIN":" ","STREET":" ","SECT":" ","MAREA":"篤加","LANE":" ","ALLEY":" ","HOUSE_NO":"１７０之７３號","E_COORD97":161526.82999999999,"N_COORD97":2562187.1099999999,"ADDRESS":"篤加１７０之７３號","OBJECTID":138999},"geometry":{"x":161526.83000000007,"y":2562187.1099999994}},{"attributes":{"ID":139000,"DIS_CODE":0,"TOWNNAME":"新營區","LI":"忠政里","LIN":"22鄰","STREET":"府西路","SECT":" ","MAREA":" ","LANE":"２３１巷","ALLEY":"２９弄","HOUSE_NO":"１號","E_COORD97":179715.94,"N_COORD97":2579578.52,"ADDRESS":"府西路２３１巷２９弄１號","OBJECTID":139000},"geometry":{"x":179715.94000000227,"y":2579578.5200000033}}]}