{"displayFieldName":"TOWNNAME","fieldAliases":{"ID":"ID","DIS_CODE":"DIS_CODE","TOWNNAME":"TOWNNAME","LI":"LI","LIN":"LIN","STREET":"STREET","SECT":"SECT","MAREA":"MAREA","LANE":"LANE","ALLEY":"ALLEY","HOUSE_NO":"HOUSE_NO","E_COORD97":"E_COORD97","N_COORD97":"N_COORD97","ADDRESS":"ADDRESS","OBJECTID":"OBJECTID"},"geometryType":"esriGeometryPoint","spatialReference":{"wkid":102443,"latestWkid":3826},"fields":[{"name":"ID","type":"esriFieldTypeDouble","alias":"ID"},{"name":"DIS_CODE","type":"esriFieldTypeInteger","alias":"DIS_CODE"},{"name":"TOWNNAME","type":"esriFieldTypeString","alias":"TOWNNAME","length":8},{"name":"LI","type":"esriFieldTypeString","alias":"LI","length":8},{"name":"LIN","type":"esriFieldTypeString","alias":"LIN","length":12},{"name":"STREET","type":"esriFieldTypeString","alias":"STREET","length":20},{"name":"SECT","type":"esriFieldTypeString","alias":"SECT","length":8},{"name":"MAREA","type":"esriFieldTypeString","alias":"MAREA","length":12},{"name":"LANE","type":"esriFieldTypeString","alias":"LANE","length":10},{"name":"ALLEY","type":"esriFieldTypeString","alias":"ALLEY","length":10},{"name":"HOUSE_NO","type":"esriFieldTypeString","alias":"HOUSE_NO","length":20},{"name":"E_COORD97","type":"esriFieldTypeDouble","alias":"E_COORD97"},{"name":"N_COORD97","type":"esriFieldTypeDouble","alias":"N_COORD97"},{"name":"ADDRESS","type":"esriFieldTypeString","alias":"ADDRESS","length":50},{"name":"OBJECTID","type":"esriFieldTypeOID","alias":"OBJECTID"}],"features":[{"attributes":{"ID":130201,"DIS_CODE":0,"TOWNNAME":"東區","LI":"東聖里","LIN":"13鄰","STREET":"中華東路","SECT":"二段","MAREA":" ","LANE":"４１巷","ALLEY":"４７弄","HOUSE_NO":"６號","E_COORD97":171573.12,"N_COORD97":2543130.1299999999,"ADDRESS":"中華東路二段４１巷４７弄６號","OBJECTID":130201},"geometry":{"x":171573.12000000104,"y":2543130.129999999}},{"attributes":{"ID":130202,"DIS_CODE":0,"TOWNNAME":"東區","LI":"東聖里","LIN":"13鄰","STREET":"中華東路","SECT":"二段","MAREA":" ","LANE":"４１巷","ALLEY":"４７弄","HOUSE_NO":"７號","E_COORD97":171577.39999999999,"N_COORD97":2543127.9900000002,"ADDRESS":"中華東路二段４１巷４７弄７號","OBJECTID":130202},"geometry":{"x":171577.40000000037,"y":2543127.9900000002}},{"attributes":{"ID":130203,"DIS_CODE":0,"TOWNNAME":"東區","LI":"東聖里","LIN":"13鄰","STREET":"中華東路","SECT":"二段","MAREA":" ","LANE":"４１巷","ALLEY":"４７弄","HOUSE_NO":"８號","E_COORD97":171581.09,"N_COORD97":2543130.52,"ADDRESS":"中華東路二段４１巷４７弄８號","OBJECTID":130203},"geometry":{"x":171581.09000000078,"y":2543130.5199999996}},{"attributes":{"ID":130204,"DIS_CODE":0,"TOWNNAME":"永康區","LI":"烏竹里","LIN":"5鄰","STREET":"烏竹街","SECT":" ","MAREA":" ","LANE":" ","ALLEY":" ","HOUSE_NO":"５６號","E_COORD97":174503.31,"N_COORD97":2549338.4100000001,"ADDRESS":"烏竹街５６號","OBJECTID":130204},"geometry":{"x":174503.31000000145,"y":2549338.410000002}},{"attributes":{"ID":130205,"DIS_CODE":0,"TOWNNAME":"永康區","LI":"埔園里","LIN":"32鄰","STREET":"永大路","SECT":"三段","MAREA":" ","LANE":" ","ALLEY":" ","HOUSE_NO":"４５９號","E_COORD97":174033.22,"N_COORD97":2548697.0299999998,"ADDRESS":"永大路三段４５９號","OBJECTID":130205},"geometry":{"x":174033.22000000067,"y":2548697.0299999993}},{"attributes":{"ID":130206,"DIS_CODE":0,"TOWNNAME":"永康區","LI":"東灣里","LIN":"26鄰","STREET":"大灣一街","SECT":" ","MAREA":" ","LANE":" ","ALLEY":" ","HOUSE_NO":"２３８號","E_COORD97":174925.73999999999,"N_COORD97":2544614.9199999999,"ADDRESS":"大灣一街２３８號","OBJECTID":130206},"geometry":{"x":174925.74000000022,"y":2544614.9200000018}},{"attributes":{"ID":130207,"DIS_CODE":0,"TOWNNAME":"永康區","LI":"埔園里","LIN":"39鄰","STREET":"聖龍街","SECT":" ","MAREA":" ","LANE":" ","ALLEY":" ","HOUSE_NO":"１０１號","E_COORD97":174081.67999999999,"N_COORD97":2547858.8199999998,"ADDRESS":"聖龍街１０１號","OBJECTID":130207},"geometry":{"x":174081.6799999997,"y":2547858.8200000003}},{"attributes":{"ID":130208,"DIS_CODE":0,"TOWNNAME":"東區","LI":"東聖里","LIN":"13鄰","STREET":"中華東路","SECT":"二段","MAREA":" ","LANE":"４１巷","ALLEY":"４７弄","HOUSE_NO":"９號","E_COORD97":171585.17000000001,"N_COORD97":2543128.6699999999,"ADDRESS":"中華東路二段４１巷４７弄９號","OBJECTID":130208},"geometry":{"x":171585.16999999993,"y":2543128.6700000018}},{"attributes":{"ID":130209,"DIS_CODE":0,"TOWNNAME":"佳里區","LI":"鎮山里","LIN":"17鄰","STREET":"鎮山街","SECT":" ","MAREA":" ","LANE":" ","ALLEY":" ","HOUSE_NO":"６６號","E_COORD97":166296.26999999999,"N_COORD97":2561255.5299999998,"ADDRESS":"鎮山街６６號","OBJECTID":130209},"geometry":{"x":166296.27000000048,"y":2561255.5299999993}},{"attributes":{"ID":130210,"DIS_CODE":0,"TOWNNAME":"東區","LI":"東聖里","LIN":"17鄰","STREET":"中華東路","SECT":"二段","MAREA":" ","LANE":"１３３巷","ALLEY":"１７弄","HOUSE_NO":"２７號","E_COORD97":171475.07999999999,"N_COORD97":2542959.3199999998,"ADDRESS":"中華東路二段１３３巷１７弄２７號","OBJECTID":130210},"geometry":{"x":171475.08000000101,"y":2542959.3200000022}},{"attributes":{"ID":130211,"DIS_CODE":0,"TOWNNAME":"東區","LI":"東聖里","LIN":"17鄰","STREET":"中華東路","SECT":"二段","MAREA":" ","LANE":"１３３巷","ALLEY":"１７弄","HOUSE_NO":"２９號","E_COORD97":171482.32999999999,"N_COORD97":2542958.7599999998,"ADDRESS":"中華東路二段１３３巷１７弄２９號","OBJECTID":130211},"geometry":{"x":171482.33000000007,"y":2542958.7600000016}},{"attributes":{"ID":130212,"DIS_CODE":0,"TOWNNAME":"東區","LI":"東聖里","LIN":"17鄰","STREET":"中華東路","SECT":"二段","MAREA":" ","LANE":"１３３巷","ALLEY":"１７弄","HOUSE_NO":"３１號","E_COORD97":171491.26999999999,"N_COORD97":2542957.0899999999,"ADDRESS":"中華東路二段１３３巷１７弄３１號","OBJECTID":130212},"geometry":{"x":171491.27000000142,"y":2542957.0900000017}},{"attributes":{"ID":130213,"DIS_CODE":0,"TOWNNAME":"東區","LI":"東聖里","LIN":"17鄰","STREET":"中華東路","SECT":"二段","MAREA":" ","LANE":"１３３巷","ALLEY":"１７弄","HOUSE_NO":"３３號","E_COORD97":171500.01000000001,"N_COORD97":2542957.6400000001,"ADDRESS":"中華東路二段１３３巷１７弄３３號","OBJECTID":130213},"geometry":{"x":171500.01000000164,"y":2542957.6400000025}},{"attributes":{"ID":130214,"DIS_CODE":0,"TOWNNAME":"東區","LI":"東聖里","LIN":"17鄰","STREET":"中華東路","SECT":"二段","MAREA":" ","LANE":"１３３巷","ALLEY":"１７弄","HOUSE_NO":"３５號","E_COORD97":171509.31,"N_COORD97":2542956.71,"ADDRESS":"中華東路二段１３３巷１７弄３５號","OBJECTID":130214},"geometry":{"x":171509.30999999959,"y":2542956.7100000028}},{"attributes":{"ID":130215,"DIS_CODE":0,"TOWNNAME":"安定區","LI":"中沙里","LIN":"4鄰","STREET":" ","SECT":" ","MAREA":"中崙","LANE":" ","ALLEY":" ","HOUSE_NO":"１２８號","E_COORD97":169111.81,"N_COORD97":2553170.25,"ADDRESS":"中崙１２８號","OBJECTID":130215},"geometry":{"x":169111.80999999959,"y":2553170.2500000019}},{"attributes":{"ID":130216,"DIS_CODE":0,"TOWNNAME":"六甲區","LI":"中社里","LIN":"20鄰","STREET":" ","SECT":" ","MAREA":"林鳳營","LANE":" ","ALLEY":" ","HOUSE_NO":"２４０號之１１","E_COORD97":180256.07000000001,"N_COORD97":2571114.3599999999,"ADDRESS":"林鳳營２４０號之１１","OBJECTID":130216},"geometry":{"x":180256.07000000123,"y":2571114.3600000013}},{"attributes":{"ID":130217,"DIS_CODE":0,"TOWNNAME":"六甲區","LI":"中社里","LIN":"19鄰","STREET":" ","SECT":" ","MAREA":"林鳳營","LANE":" ","ALLEY":" ","HOUSE_NO":"２２１號之９","E_COORD97":180190.29000000001,"N_COORD97":2571329,"ADDRESS":"林鳳營２２１號之９","OBJECTID":130217},"geometry":{"x":180190.29000000097,"y":2571329}},{"attributes":{"ID":130218,"DIS_CODE":0,"TOWNNAME":"東區","LI":"東聖里","LIN":"17鄰","STREET":"中華東路","SECT":"二段","MAREA":" ","LANE":"１３３巷","ALLEY":"１７弄","HOUSE_NO":"３９號","E_COORD97":171525.13,"N_COORD97":2542956.8999999999,"ADDRESS":"中華東路二段１３３巷１７弄３９號","OBJECTID":130218},"geometry":{"x":171525.13000000082,"y":2542956.9000000004}},{"attributes":{"ID":130219,"DIS_CODE":0,"TOWNNAME":"北區","LI":"成功里","LIN":"6鄰","STREET":"北安路","SECT":"一段","MAREA":" ","LANE":" ","ALLEY":" ","HOUSE_NO":"１７８號","E_COORD97":168893.54999999999,"N_COORD97":2546480.7799999998,"ADDRESS":"北安路一段１７８號","OBJECTID":130219},"geometry":{"x":168893.54999999981,"y":2546480.7800000012}},{"attributes":{"ID":130220,"DIS_CODE":0,"TOWNNAME":"北區","LI":"成功里","LIN":"6鄰","STREET":"北安路","SECT":"一段","MAREA":" ","LANE":" ","ALLEY":" ","HOUSE_NO":"１８０號","E_COORD97":168888.95000000001,"N_COORD97":2546483.3199999998,"ADDRESS":"北安路一段１８０號","OBJECTID":130220},"geometry":{"x":168888.95000000112,"y":2546483.3200000003}},{"attributes":{"ID":130221,"DIS_CODE":0,"TOWNNAME":"北區","LI":"成功里","LIN":"6鄰","STREET":"北安路","SECT":"一段","MAREA":" ","LANE":" ","ALLEY":" ","HOUSE_NO":"１８２號","E_COORD97":168883.54999999999,"N_COORD97":2546486.8100000001,"ADDRESS":"北安路一段１８２號","OBJECTID":130221},"geometry":{"x":168883.54999999981,"y":2546486.8100000005}},{"attributes":{"ID":130222,"DIS_CODE":0,"TOWNNAME":"北區","LI":"成功里","LIN":"6鄰","STREET":"北安路","SECT":"一段","MAREA":" ","LANE":" ","ALLEY":" ","HOUSE_NO":"１８６號","E_COORD97":168877.98999999999,"N_COORD97":2546490.8599999999,"ADDRESS":"北安路一段１８６號","OBJECTID":130222},"geometry":{"x":168877.98999999929,"y":2546490.8600000013}},{"attributes":{"ID":130223,"DIS_CODE":0,"TOWNNAME":"東區","LI":"東聖里","LIN":"17鄰","STREET":"中華東路","SECT":"二段","MAREA":" ","LANE":"１３３巷","ALLEY":"１７弄","HOUSE_NO":"４１號","E_COORD97":171534.62,"N_COORD97":2542956.71,"ADDRESS":"中華東路二段１３３巷１７弄４１號","OBJECTID":130223},"geometry":{"x":171534.62000000011,"y":2542956.7100000028}},{"attributes":{"ID":130224,"DIS_CODE":0,"TOWNNAME":"新營區","LI":"南紙里","LIN":"11鄰","STREET":"太子路","SECT":" ","MAREA":" ","LANE":"２００巷","ALLEY":"１７弄","HOUSE_NO":"３１號","E_COORD97":177827.06,"N_COORD97":2577877.6899999999,"ADDRESS":"太子路２００巷１７弄３１號","OBJECTID":130224},"geometry":{"x":177827.05999999959,"y":2577877.6899999995}},{"attributes":{"ID":130225,"DIS_CODE":0,"TOWNNAME":"東區","LI":"東聖里","LIN":"17鄰","STREET":"中華東路","SECT":"二段","MAREA":" ","LANE":"１３３巷","ALLEY":"１７弄","HOUSE_NO":"４３號","E_COORD97":171541.87,"N_COORD97":2542956.5299999998,"ADDRESS":"中華東路二段１３３巷１７弄４３號","OBJECTID":130225},"geometry":{"x":171541.86999999918,"y":2542956.5300000012}},{"attributes":{"ID":130226,"DIS_CODE":0,"TOWNNAME":"北區","LI":"裕民里","LIN":"11鄰","STREET":"成功路","SECT":" ","MAREA":" ","LANE":"６１４巷","ALLEY":"１３弄","HOUSE_NO":"１０號","E_COORD97":167486.66,"N_COORD97":2544896.6899999999,"ADDRESS":"成功路６１４巷１３弄１０號","OBJECTID":130226},"geometry":{"x":167486.66000000015,"y":2544896.6899999995}},{"attributes":{"ID":130227,"DIS_CODE":0,"TOWNNAME":"北區","LI":"裕民里","LIN":"11鄰","STREET":"成功路","SECT":" ","MAREA":" ","LANE":"６１４巷","ALLEY":"１３弄","HOUSE_NO":"１１號","E_COORD97":167440.66,"N_COORD97":2544884.0099999998,"ADDRESS":"成功路６１４巷１３弄１１號","OBJECTID":130227},"geometry":{"x":167440.66000000015,"y":2544884.0099999998}},{"attributes":{"ID":130228,"DIS_CODE":0,"TOWNNAME":"北區","LI":"裕民里","LIN":"11鄰","STREET":"成功路","SECT":" ","MAREA":" ","LANE":"６１４巷","ALLEY":"１３弄","HOUSE_NO":"１２號","E_COORD97":167479.98999999999,"N_COORD97":2544894.5499999998,"ADDRESS":"成功路６１４巷１３弄１２號","OBJECTID":130228},"geometry":{"x":167479.99000000115,"y":2544894.5500000007}},{"attributes":{"ID":130229,"DIS_CODE":0,"TOWNNAME":"安平區","LI":"西門里","LIN":"11鄰","STREET":"國勝路","SECT":" ","MAREA":" ","LANE":"１２５巷","ALLEY":"１８弄","HOUSE_NO":"３號","E_COORD97":163875.04000000001,"N_COORD97":2544779.3599999999,"ADDRESS":"國勝路１２５巷１８弄３號","OBJECTID":130229},"geometry":{"x":163875.0400000019,"y":2544779.3599999994}},{"attributes":{"ID":130230,"DIS_CODE":0,"TOWNNAME":"新營區","LI":"嘉芳里","LIN":"11鄰","STREET":"復興路","SECT":" ","MAREA":" ","LANE":"８０３巷","ALLEY":"４弄","HOUSE_NO":"３之６號","E_COORD97":177078.62,"N_COORD97":2578522.6400000001,"ADDRESS":"復興路８０３巷４弄３之６號","OBJECTID":130230},"geometry":{"x":177078.62000000104,"y":2578522.6400000025}},{"attributes":{"ID":130231,"DIS_CODE":0,"TOWNNAME":"永康區","LI":"甲頂里","LIN":"11鄰","STREET":"中正南路","SECT":" ","MAREA":" ","LANE":"５２巷","ALLEY":"６８弄","HOUSE_NO":"３３號","E_COORD97":170045.54000000001,"N_COORD97":2546751.5,"ADDRESS":"中正南路５２巷６８弄３３號","OBJECTID":130231},"geometry":{"x":170045.5400000019,"y":2546751.5000000019}},{"attributes":{"ID":130232,"DIS_CODE":0,"TOWNNAME":"永康區","LI":"成功里","LIN":"11鄰","STREET":"忠孝路","SECT":" ","MAREA":" ","LANE":"１９５巷","ALLEY":"４０弄","HOUSE_NO":"７號","E_COORD97":171994.98999999999,"N_COORD97":2544862.8500000001,"ADDRESS":"忠孝路１９５巷４０弄７號","OBJECTID":130232},"geometry":{"x":171994.99000000022,"y":2544862.8500000015}},{"attributes":{"ID":130233,"DIS_CODE":0,"TOWNNAME":"永康區","LI":"甲頂里","LIN":"11鄰","STREET":"中正南路","SECT":" ","MAREA":" ","LANE":"５２巷","ALLEY":"６８弄","HOUSE_NO":"３１號","E_COORD97":170049.63,"N_COORD97":2546752.25,"ADDRESS":"中正南路５２巷６８弄３１號","OBJECTID":130233},"geometry":{"x":170049.62999999989,"y":2546752.2500000019}},{"attributes":{"ID":130234,"DIS_CODE":0,"TOWNNAME":"南區","LI":"再興里","LIN":"6鄰","STREET":"三官路","SECT":" ","MAREA":" ","LANE":" ","ALLEY":" ","HOUSE_NO":"２６號","E_COORD97":167328.82999999999,"N_COORD97":2542361.7999999998,"ADDRESS":"三官路２６號","OBJECTID":130234},"geometry":{"x":167328.83000000007,"y":2542361.8000000045}},{"attributes":{"ID":130235,"DIS_CODE":0,"TOWNNAME":"南區","LI":"再興里","LIN":"6鄰","STREET":"三官路","SECT":" ","MAREA":" ","LANE":" ","ALLEY":" ","HOUSE_NO":"２８號","E_COORD97":167328.92999999999,"N_COORD97":2542356.4100000001,"ADDRESS":"三官路２８號","OBJECTID":130235},"geometry":{"x":167328.93000000063,"y":2542356.4100000001}},{"attributes":{"ID":130236,"DIS_CODE":0,"TOWNNAME":"永康區","LI":"埔園里","LIN":"5鄰","STREET":"中山路","SECT":" ","MAREA":" ","LANE":" ","ALLEY":" ","HOUSE_NO":"１５２號","E_COORD97":173774.51000000001,"N_COORD97":2547781,"ADDRESS":"中山路１５２號","OBJECTID":130236},"geometry":{"x":173774.50999999978,"y":2547781.0000000037}},{"attributes":{"ID":130237,"DIS_CODE":0,"TOWNNAME":"永康區","LI":"東灣里","LIN":"26鄰","STREET":"大灣一街","SECT":" ","MAREA":" ","LANE":" ","ALLEY":" ","HOUSE_NO":"２２６號","E_COORD97":174901.26999999999,"N_COORD97":2544599.6699999999,"ADDRESS":"大灣一街２２６號","OBJECTID":130237},"geometry":{"x":174901.26999999955,"y":2544599.6700000018}},{"attributes":{"ID":130238,"DIS_CODE":0,"TOWNNAME":"北區","LI":"安民里","LIN":"6鄰","STREET":"海安路","SECT":"三段","MAREA":" ","LANE":" ","ALLEY":" ","HOUSE_NO":"４７號","E_COORD97":167891.60999999999,"N_COORD97":2544725.5299999998,"ADDRESS":"海安路三段４７號","OBJECTID":130238},"geometry":{"x":167891.61000000127,"y":2544725.5300000012}},{"attributes":{"ID":130239,"DIS_CODE":0,"TOWNNAME":"永康區","LI":"甲頂里","LIN":"11鄰","STREET":"中正南路","SECT":" ","MAREA":" ","LANE":"５２巷","ALLEY":"６８弄","HOUSE_NO":"８５號","E_COORD97":170105.42999999999,"N_COORD97":2546727.75,"ADDRESS":"中正南路５２巷６８弄８５號","OBJECTID":130239},"geometry":{"x":170105.43000000156,"y":2546727.75}},{"attributes":{"ID":130240,"DIS_CODE":0,"TOWNNAME":"永康區","LI":"甲頂里","LIN":"11鄰","STREET":"中正南路","SECT":" ","MAREA":" ","LANE":"５２巷","ALLEY":"６８弄","HOUSE_NO":"１８號","E_COORD97":170002.14000000001,"N_COORD97":2546748.48,"ADDRESS":"中正南路５２巷６８弄１８號","OBJECTID":130240},"geometry":{"x":170002.14000000153,"y":2546748.4800000023}},{"attributes":{"ID":130241,"DIS_CODE":0,"TOWNNAME":"永康區","LI":"甲頂里","LIN":"11鄰","STREET":"中正南路","SECT":" ","MAREA":" ","LANE":"５２巷","ALLEY":"６８弄","HOUSE_NO":"３５號","E_COORD97":170041.39999999999,"N_COORD97":2546751.25,"ADDRESS":"中正南路５２巷６８弄３５號","OBJECTID":130241},"geometry":{"x":170041.40000000037,"y":2546751.25}},{"attributes":{"ID":130242,"DIS_CODE":0,"TOWNNAME":"永康區","LI":"甲頂里","LIN":"11鄰","STREET":"中正南路","SECT":" ","MAREA":" ","LANE":"５２巷","ALLEY":"６６弄","HOUSE_NO":"３號","E_COORD97":169980.53,"N_COORD97":2546752.4900000002,"ADDRESS":"中正南路５２巷６６弄３號","OBJECTID":130242},"geometry":{"x":169980.53000000119,"y":2546752.4900000002}},{"attributes":{"ID":130243,"DIS_CODE":0,"TOWNNAME":"永康區","LI":"甲頂里","LIN":"11鄰","STREET":"中正南路","SECT":" ","MAREA":" ","LANE":"５２巷","ALLEY":"６８弄","HOUSE_NO":"７９號","E_COORD97":170093.28,"N_COORD97":2546725.75,"ADDRESS":"中正南路５２巷６８弄７９號","OBJECTID":130243},"geometry":{"x":170093.28000000212,"y":2546725.7500000019}},{"attributes":{"ID":130244,"DIS_CODE":0,"TOWNNAME":"永康區","LI":"成功里","LIN":"11鄰","STREET":"忠孝路","SECT":" ","MAREA":" ","LANE":"１９５巷","ALLEY":"４０弄","HOUSE_NO":"９號","E_COORD97":171994.85000000001,"N_COORD97":2544867.6000000001,"ADDRESS":"忠孝路１９５巷４０弄９號","OBJECTID":130244},"geometry":{"x":171994.85000000056,"y":2544867.6000000034}},{"attributes":{"ID":130245,"DIS_CODE":0,"TOWNNAME":"六甲區","LI":"中社里","LIN":"19鄰","STREET":" ","SECT":" ","MAREA":"林鳳營","LANE":" ","ALLEY":" ","HOUSE_NO":"２２１號","E_COORD97":180207.20999999999,"N_COORD97":2571378.3500000001,"ADDRESS":"林鳳營２２１號","OBJECTID":130245},"geometry":{"x":180207.21000000089,"y":2571378.3500000034}},{"attributes":{"ID":130246,"DIS_CODE":0,"TOWNNAME":"六甲區","LI":"中社里","LIN":"19鄰","STREET":" ","SECT":" ","MAREA":"林鳳營","LANE":" ","ALLEY":" ","HOUSE_NO":"２２２號","E_COORD97":180202.29000000001,"N_COORD97":2571379.6299999999,"ADDRESS":"林鳳營２２２號","OBJECTID":130246},"geometry":{"x":180202.29000000097,"y":2571379.6300000008}},{"attributes":{"ID":130247,"DIS_CODE":0,"TOWNNAME":"六甲區","LI":"中社里","LIN":"19鄰","STREET":" ","SECT":" ","MAREA":"林鳳營","LANE":" ","ALLEY":" ","HOUSE_NO":"２２３號","E_COORD97":180130.06,"N_COORD97":2571307.9700000002,"ADDRESS":"林鳳營２２３號","OBJECTID":130247},"geometry":{"x":180130.06000000052,"y":2571307.9700000025}},{"attributes":{"ID":130248,"DIS_CODE":0,"TOWNNAME":"六甲區","LI":"中社里","LIN":"19鄰","STREET":" ","SECT":" ","MAREA":"林鳳營","LANE":" ","ALLEY":" ","HOUSE_NO":"２２４號","E_COORD97":180134.41,"N_COORD97":2571392.1899999999,"ADDRESS":"林鳳營２２４號","OBJECTID":130248},"geometry":{"x":180134.41000000015,"y":2571392.1899999995}},{"attributes":{"ID":130249,"DIS_CODE":0,"TOWNNAME":"六甲區","LI":"中社里","LIN":"19鄰","STREET":" ","SECT":" ","MAREA":"林鳳營","LANE":" ","ALLEY":" ","HOUSE_NO":"２３１號之３","E_COORD97":180002.06,"N_COORD97":2571308.2000000002,"ADDRESS":"林鳳營２３１號之３","OBJECTID":130249},"geometry":{"x":180002.05999999959,"y":2571308.2000000011}},{"attributes":{"ID":130250,"DIS_CODE":0,"TOWNNAME":"六甲區","LI":"中社里","LIN":"19鄰","STREET":" ","SECT":" ","MAREA":"林鳳營","LANE":" ","ALLEY":" ","HOUSE_NO":"２３１號","E_COORD97":180089.98000000001,"N_COORD97":2571403.7400000002,"ADDRESS":"林鳳營２３１號","OBJECTID":130250},"geometry":{"x":180089.98000000045,"y":2571403.7400000039}},{"attributes":{"ID":130251,"DIS_CODE":0,"TOWNNAME":"永康區","LI":"甲頂里","LIN":"11鄰","STREET":"中正南路","SECT":" ","MAREA":" ","LANE":"５２巷","ALLEY":"６８弄","HOUSE_NO":"５５號","E_COORD97":170039.38,"N_COORD97":2546718.5,"ADDRESS":"中正南路５２巷６８弄５５號","OBJECTID":130251},"geometry":{"x":170039.37999999989,"y":2546718.5}},{"attributes":{"ID":130252,"DIS_CODE":0,"TOWNNAME":"東區","LI":"新東里","LIN":"11鄰","STREET":"裕農路","SECT":" ","MAREA":" ","LANE":"１９巷","ALLEY":"３２弄","HOUSE_NO":"１０號","E_COORD97":170503.09,"N_COORD97":2542949.1499999999,"ADDRESS":"裕農路１９巷３２弄１０號","OBJECTID":130252},"geometry":{"x":170503.09000000078,"y":2542949.1500000022}},{"attributes":{"ID":130253,"DIS_CODE":0,"TOWNNAME":"東區","LI":"崇信里","LIN":"11鄰","STREET":"崇學路","SECT":" ","MAREA":" ","LANE":"２３０巷","ALLEY":"９７弄","HOUSE_NO":"２９號","E_COORD97":170715.76999999999,"N_COORD97":2542351.1499999999,"ADDRESS":"崇學路２３０巷９７弄２９號","OBJECTID":130253},"geometry":{"x":170715.76999999955,"y":2542351.1500000004}},{"attributes":{"ID":130254,"DIS_CODE":0,"TOWNNAME":"中西區","LI":"銀同里","LIN":"11鄰","STREET":"開山路","SECT":" ","MAREA":" ","LANE":"３５巷","ALLEY":"３１弄","HOUSE_NO":"１１號","E_COORD97":168752.73999999999,"N_COORD97":2543484.6499999999,"ADDRESS":"開山路３５巷３１弄１１號","OBJECTID":130254},"geometry":{"x":168752.74000000209,"y":2543484.6500000041}},{"attributes":{"ID":130255,"DIS_CODE":0,"TOWNNAME":"中西區","LI":"銀同里","LIN":"11鄰","STREET":"開山路","SECT":" ","MAREA":" ","LANE":"３５巷","ALLEY":"３１弄","HOUSE_NO":"９號","E_COORD97":168749.09,"N_COORD97":2543493.2599999998,"ADDRESS":"開山路３５巷３１弄９號","OBJECTID":130255},"geometry":{"x":168749.08999999985,"y":2543493.2600000035}},{"attributes":{"ID":130256,"DIS_CODE":0,"TOWNNAME":"永康區","LI":"西勢里","LIN":"11鄰","STREET":"西勢路","SECT":" ","MAREA":" ","LANE":"１９９巷","ALLEY":"４７弄","HOUSE_NO":"１２號","E_COORD97":175896.04000000001,"N_COORD97":2546697.6699999999,"ADDRESS":"西勢路１９９巷４７弄１２號","OBJECTID":130256},"geometry":{"x":175896.04000000097,"y":2546697.6699999999}},{"attributes":{"ID":130257,"DIS_CODE":0,"TOWNNAME":"永康區","LI":"西勢里","LIN":"11鄰","STREET":"西勢路","SECT":" ","MAREA":" ","LANE":"１９９巷","ALLEY":"４９弄","HOUSE_NO":"２５號","E_COORD97":175905.57999999999,"N_COORD97":2546653.0600000001,"ADDRESS":"西勢路１９９巷４９弄２５號","OBJECTID":130257},"geometry":{"x":175905.58000000194,"y":2546653.0600000024}},{"attributes":{"ID":130258,"DIS_CODE":0,"TOWNNAME":"永康區","LI":"西橋里","LIN":"11鄰","STREET":"中華西街","SECT":" ","MAREA":" ","LANE":"１２７巷","ALLEY":"３０弄","HOUSE_NO":"１５號","E_COORD97":170522.89999999999,"N_COORD97":2546170.6000000001,"ADDRESS":"中華西街１２７巷３０弄１５號","OBJECTID":130258},"geometry":{"x":170522.90000000037,"y":2546170.6000000015}},{"attributes":{"ID":130259,"DIS_CODE":0,"TOWNNAME":"永康區","LI":"西橋里","LIN":"11鄰","STREET":"中華西街","SECT":" ","MAREA":" ","LANE":"１２７巷","ALLEY":"３０弄","HOUSE_NO":"７號","E_COORD97":170523.45000000001,"N_COORD97":2546137.8599999999,"ADDRESS":"中華西街１２７巷３０弄７號","OBJECTID":130259},"geometry":{"x":170523.45000000112,"y":2546137.8600000013}},{"attributes":{"ID":130260,"DIS_CODE":0,"TOWNNAME":"永康區","LI":"甲頂里","LIN":"11鄰","STREET":"中正南路","SECT":" ","MAREA":" ","LANE":"５２巷","ALLEY":"６８弄","HOUSE_NO":"５３號","E_COORD97":170035.07999999999,"N_COORD97":2546718,"ADDRESS":"中正南路５２巷６８弄５３號","OBJECTID":130260},"geometry":{"x":170035.07999999914,"y":2546718}},{"attributes":{"ID":130261,"DIS_CODE":0,"TOWNNAME":"南區","LI":"明興里","LIN":"6鄰","STREET":"永仁街","SECT":" ","MAREA":" ","LANE":" ","ALLEY":" ","HOUSE_NO":"２號","E_COORD97":167098.29000000001,"N_COORD97":2540694.3700000001,"ADDRESS":"永仁街２號","OBJECTID":130261},"geometry":{"x":167098.29000000097,"y":2540694.3700000029}},{"attributes":{"ID":130262,"DIS_CODE":0,"TOWNNAME":"南區","LI":"明興里","LIN":"6鄰","STREET":"永仁街","SECT":" ","MAREA":" ","LANE":" ","ALLEY":" ","HOUSE_NO":"２號之１","E_COORD97":167094.04000000001,"N_COORD97":2540695.0499999998,"ADDRESS":"永仁街２號之１","OBJECTID":130262},"geometry":{"x":167094.04000000004,"y":2540695.0500000007}},{"attributes":{"ID":130263,"DIS_CODE":0,"TOWNNAME":"南區","LI":"明興里","LIN":"6鄰","STREET":"永仁街","SECT":" ","MAREA":" ","LANE":" ","ALLEY":" ","HOUSE_NO":"４號","E_COORD97":167090.47,"N_COORD97":2540694.8799999999,"ADDRESS":"永仁街４號","OBJECTID":130263},"geometry":{"x":167090.46999999974,"y":2540694.8800000027}},{"attributes":{"ID":130264,"DIS_CODE":0,"TOWNNAME":"南區","LI":"明興里","LIN":"6鄰","STREET":"永仁街","SECT":" ","MAREA":" ","LANE":" ","ALLEY":" ","HOUSE_NO":"６號","E_COORD97":167085.63,"N_COORD97":2540695.8999999999,"ADDRESS":"永仁街６號","OBJECTID":130264},"geometry":{"x":167085.63000000082,"y":2540695.9000000041}},{"attributes":{"ID":130265,"DIS_CODE":0,"TOWNNAME":"六甲區","LI":"中社里","LIN":"19鄰","STREET":" ","SECT":" ","MAREA":"林鳳營","LANE":" ","ALLEY":" ","HOUSE_NO":"２３２號","E_COORD97":179992.31,"N_COORD97":2571431.8399999999,"ADDRESS":"林鳳營２３２號","OBJECTID":130265},"geometry":{"x":179992.31000000145,"y":2571431.8399999999}},{"attributes":{"ID":130266,"DIS_CODE":0,"TOWNNAME":"南區","LI":"建南里","LIN":"6鄰","STREET":"德興路","SECT":" ","MAREA":" ","LANE":" ","ALLEY":" ","HOUSE_NO":"２８５號","E_COORD97":167227.84,"N_COORD97":2539942.3100000001,"ADDRESS":"德興路２８５號","OBJECTID":130266},"geometry":{"x":167227.84000000078,"y":2539942.3100000024}},{"attributes":{"ID":130267,"DIS_CODE":0,"TOWNNAME":"南區","LI":"建南里","LIN":"6鄰","STREET":"德興路","SECT":" ","MAREA":" ","LANE":" ","ALLEY":" ","HOUSE_NO":"２８７號","E_COORD97":167229.06,"N_COORD97":2539936.2599999998,"ADDRESS":"德興路２８７號","OBJECTID":130267},"geometry":{"x":167229.05999999959,"y":2539936.2599999998}},{"attributes":{"ID":130268,"DIS_CODE":0,"TOWNNAME":"南區","LI":"建南里","LIN":"6鄰","STREET":"德興路","SECT":" ","MAREA":" ","LANE":" ","ALLEY":" ","HOUSE_NO":"２８９號","E_COORD97":167228.88,"N_COORD97":2539931.2400000002,"ADDRESS":"德興路２８９號","OBJECTID":130268},"geometry":{"x":167228.87999999989,"y":2539931.2400000021}},{"attributes":{"ID":130269,"DIS_CODE":0,"TOWNNAME":"南區","LI":"建南里","LIN":"6鄰","STREET":"德興路","SECT":" ","MAREA":" ","LANE":" ","ALLEY":" ","HOUSE_NO":"２９１號","E_COORD97":167228.70999999999,"N_COORD97":2539927.27,"ADDRESS":"德興路２９１號","OBJECTID":130269},"geometry":{"x":167228.71000000183,"y":2539927.2700000014}},{"attributes":{"ID":130270,"DIS_CODE":0,"TOWNNAME":"南區","LI":"建南里","LIN":"6鄰","STREET":"德興路","SECT":" ","MAREA":" ","LANE":" ","ALLEY":" ","HOUSE_NO":"２９３號","E_COORD97":167229.06,"N_COORD97":2539923.6400000001,"ADDRESS":"德興路２９３號","OBJECTID":130270},"geometry":{"x":167229.05999999959,"y":2539923.6400000006}},{"attributes":{"ID":130271,"DIS_CODE":0,"TOWNNAME":"仁德區","LI":"太子里","LIN":"11鄰","STREET":"長興二街","SECT":" ","MAREA":" ","LANE":"７０巷","ALLEY":"６弄","HOUSE_NO":"３４號","E_COORD97":174238.82000000001,"N_COORD97":2543768.25,"ADDRESS":"長興二街７０巷６弄３４號","OBJECTID":130271},"geometry":{"x":174238.8200000003,"y":2543768.2500000037}},{"attributes":{"ID":130272,"DIS_CODE":0,"TOWNNAME":"北區","LI":"安民里","LIN":"6鄰","STREET":"海安路","SECT":"三段","MAREA":" ","LANE":" ","ALLEY":" ","HOUSE_NO":"５１號","E_COORD97":167891.92999999999,"N_COORD97":2544729.3700000001,"ADDRESS":"海安路三段５１號","OBJECTID":130272},"geometry":{"x":167891.93000000063,"y":2544729.3700000029}},{"attributes":{"ID":130273,"DIS_CODE":0,"TOWNNAME":"仁德區","LI":"太子里","LIN":"11鄰","STREET":"長興二街","SECT":" ","MAREA":" ","LANE":"７０巷","ALLEY":"６弄","HOUSE_NO":"３６號","E_COORD97":174234.85000000001,"N_COORD97":2543769,"ADDRESS":"長興二街７０巷６弄３６號","OBJECTID":130273},"geometry":{"x":174234.84999999963,"y":2543769}},{"attributes":{"ID":130274,"DIS_CODE":0,"TOWNNAME":"仁德區","LI":"太子里","LIN":"11鄰","STREET":"長興二街","SECT":" ","MAREA":" ","LANE":"７０巷","ALLEY":"６弄","HOUSE_NO":"３８號","E_COORD97":174230.87,"N_COORD97":2543769.75,"ADDRESS":"長興二街７０巷６弄３８號","OBJECTID":130274},"geometry":{"x":174230.87000000104,"y":2543769.7500000019}},{"attributes":{"ID":130275,"DIS_CODE":0,"TOWNNAME":"南區","LI":"建南里","LIN":"6鄰","STREET":"德興路","SECT":" ","MAREA":" ","LANE":" ","ALLEY":" ","HOUSE_NO":"２９５號","E_COORD97":167229.23000000001,"N_COORD97":2539919.1400000001,"ADDRESS":"德興路２９５號","OBJECTID":130275},"geometry":{"x":167229.23000000138,"y":2539919.1400000025}},{"attributes":{"ID":130276,"DIS_CODE":0,"TOWNNAME":"六甲區","LI":"中社里","LIN":"19鄰","STREET":" ","SECT":" ","MAREA":"林鳳營","LANE":" ","ALLEY":" ","HOUSE_NO":"２３５號","E_COORD97":179929.23999999999,"N_COORD97":2571449.3300000001,"ADDRESS":"林鳳營２３５號","OBJECTID":130276},"geometry":{"x":179929.24000000115,"y":2571449.3300000001}},{"attributes":{"ID":130277,"DIS_CODE":0,"TOWNNAME":"六甲區","LI":"中社里","LIN":"19鄰","STREET":" ","SECT":" ","MAREA":"林鳳營","LANE":" ","ALLEY":" ","HOUSE_NO":"２３６號","E_COORD97":179937.10000000001,"N_COORD97":2571410.8599999999,"ADDRESS":"林鳳營２３６號","OBJECTID":130277},"geometry":{"x":179937.09999999963,"y":2571410.8599999994}},{"attributes":{"ID":130278,"DIS_CODE":0,"TOWNNAME":"六甲區","LI":"中社里","LIN":"19鄰","STREET":" ","SECT":" ","MAREA":"林鳳營","LANE":" ","ALLEY":" ","HOUSE_NO":"２３７號","E_COORD97":179963.63,"N_COORD97":2571432.04,"ADDRESS":"林鳳營２３７號","OBJECTID":130278},"geometry":{"x":179963.63000000082,"y":2571432.040000001}},{"attributes":{"ID":130279,"DIS_CODE":0,"TOWNNAME":"六甲區","LI":"中社里","LIN":"21鄰","STREET":" ","SECT":" ","MAREA":"林鳳營","LANE":" ","ALLEY":" ","HOUSE_NO":"２４０號之１００","E_COORD97":180333.17999999999,"N_COORD97":2571081.8999999999,"ADDRESS":"林鳳營２４０號之１００","OBJECTID":130279},"geometry":{"x":180333.18000000063,"y":2571081.9000000022}},{"attributes":{"ID":130280,"DIS_CODE":0,"TOWNNAME":"六甲區","LI":"中社里","LIN":"21鄰","STREET":" ","SECT":" ","MAREA":"林鳳營","LANE":" ","ALLEY":" ","HOUSE_NO":"２４０號之１０１","E_COORD97":180337.92999999999,"N_COORD97":2571082.6800000002,"ADDRESS":"林鳳營２４０號之１０１","OBJECTID":130280},"geometry":{"x":180337.93000000063,"y":2571082.6800000016}},{"attributes":{"ID":130281,"DIS_CODE":0,"TOWNNAME":"六甲區","LI":"中社里","LIN":"21鄰","STREET":" ","SECT":" ","MAREA":"林鳳營","LANE":" ","ALLEY":" ","HOUSE_NO":"２４０號之１０２","E_COORD97":180342.04000000001,"N_COORD97":2571083.5600000001,"ADDRESS":"林鳳營２４０號之１０２","OBJECTID":130281},"geometry":{"x":180342.03999999911,"y":2571083.5600000024}},{"attributes":{"ID":130282,"DIS_CODE":0,"TOWNNAME":"六甲區","LI":"中社里","LIN":"21鄰","STREET":" ","SECT":" ","MAREA":"林鳳營","LANE":" ","ALLEY":" ","HOUSE_NO":"２４０號之１０４","E_COORD97":180351.23999999999,"N_COORD97":2571085.46,"ADDRESS":"林鳳營２４０號之１０４","OBJECTID":130282},"geometry":{"x":180351.24000000209,"y":2571085.4600000028}},{"attributes":{"ID":130283,"DIS_CODE":0,"TOWNNAME":"六甲區","LI":"中社里","LIN":"21鄰","STREET":" ","SECT":" ","MAREA":"林鳳營","LANE":" ","ALLEY":" ","HOUSE_NO":"２４０號之６３","E_COORD97":180256.01999999999,"N_COORD97":2571105.1600000001,"ADDRESS":"林鳳營２４０號之６３","OBJECTID":130283},"geometry":{"x":180256.02000000048,"y":2571105.1600000001}},{"attributes":{"ID":130284,"DIS_CODE":0,"TOWNNAME":"六甲區","LI":"中社里","LIN":"21鄰","STREET":" ","SECT":" ","MAREA":"林鳳營","LANE":" ","ALLEY":" ","HOUSE_NO":"２４０號之６４","E_COORD97":180260.92999999999,"N_COORD97":2571105,"ADDRESS":"林鳳營２４０號之６４","OBJECTID":130284},"geometry":{"x":180260.9299999997,"y":2571105}},{"attributes":{"ID":130285,"DIS_CODE":0,"TOWNNAME":"六甲區","LI":"中社里","LIN":"21鄰","STREET":" ","SECT":" ","MAREA":"林鳳營","LANE":" ","ALLEY":" ","HOUSE_NO":"２４０號之６５","E_COORD97":180264.92999999999,"N_COORD97":2571104.98,"ADDRESS":"林鳳營２４０號之６５","OBJECTID":130285},"geometry":{"x":180264.93000000063,"y":2571104.9800000023}},{"attributes":{"ID":130286,"DIS_CODE":0,"TOWNNAME":"仁德區","LI":"太子里","LIN":"11鄰","STREET":"長興二街","SECT":" ","MAREA":" ","LANE":"７０巷","ALLEY":"６弄","HOUSE_NO":"２３號","E_COORD97":174240.20999999999,"N_COORD97":2543754.3399999999,"ADDRESS":"長興二街７０巷６弄２３號","OBJECTID":130286},"geometry":{"x":174240.21000000089,"y":2543754.3400000017}},{"attributes":{"ID":130287,"DIS_CODE":0,"TOWNNAME":"東區","LI":"新東里","LIN":"11鄰","STREET":"裕農路","SECT":" ","MAREA":" ","LANE":"１９巷","ALLEY":"３２弄","HOUSE_NO":"４號","E_COORD97":170484.95999999999,"N_COORD97":2542946.3799999999,"ADDRESS":"裕農路１９巷３２弄４號","OBJECTID":130287},"geometry":{"x":170484.95999999903,"y":2542946.3800000008}},{"attributes":{"ID":130288,"DIS_CODE":0,"TOWNNAME":"東區","LI":"新東里","LIN":"11鄰","STREET":"裕農路","SECT":" ","MAREA":" ","LANE":"１９巷","ALLEY":"３０弄","HOUSE_NO":"７號","E_COORD97":170498.67999999999,"N_COORD97":2542936.5899999999,"ADDRESS":"裕農路１９巷３０弄７號","OBJECTID":130288},"geometry":{"x":170498.68000000156,"y":2542936.5900000017}},{"attributes":{"ID":130289,"DIS_CODE":0,"TOWNNAME":"東區","LI":"新東里","LIN":"11鄰","STREET":"裕農路","SECT":" ","MAREA":" ","LANE":"１９巷","ALLEY":"３２弄","HOUSE_NO":"１１號","E_COORD97":170505.20999999999,"N_COORD97":2542970.6000000001,"ADDRESS":"裕農路１９巷３２弄１１號","OBJECTID":130289},"geometry":{"x":170505.20999999996,"y":2542970.5999999996}},{"attributes":{"ID":130290,"DIS_CODE":0,"TOWNNAME":"永康區","LI":"\u25A0洲里","LIN":"11鄰","STREET":"\u25A0行路","SECT":" ","MAREA":" ","LANE":"１４６巷","ALLEY":"２１弄","HOUSE_NO":"３３號","E_COORD97":171336.35000000001,"N_COORD97":2549245.6600000001,"ADDRESS":"\u25A0行路１４６巷２１弄３３號","OBJECTID":130290},"geometry":{"x":171336.3499999987,"y":2549245.660000002}},{"attributes":{"ID":130291,"DIS_CODE":0,"TOWNNAME":"永康區","LI":"三合里","LIN":"11鄰","STREET":"南工街","SECT":" ","MAREA":" ","LANE":"２４７巷","ALLEY":"６４弄","HOUSE_NO":"１１號之２","E_COORD97":171934.17999999999,"N_COORD97":2545717.4900000002,"ADDRESS":"南工街２４７巷６４弄１１號之２","OBJECTID":130291},"geometry":{"x":171934.1799999997,"y":2545717.4900000021}},{"attributes":{"ID":130292,"DIS_CODE":0,"TOWNNAME":"安南區","LI":"安富里","LIN":"11鄰","STREET":"安富街","SECT":" ","MAREA":" ","LANE":"２５１巷","ALLEY":"１４弄","HOUSE_NO":"４５號","E_COORD97":167356.70000000001,"N_COORD97":2547356.0099999998,"ADDRESS":"安富街２５１巷１４弄４５號","OBJECTID":130292},"geometry":{"x":167356.70000000112,"y":2547356.0099999998}},{"attributes":{"ID":130293,"DIS_CODE":0,"TOWNNAME":"安南區","LI":"國安里","LIN":"11鄰","STREET":"國安街","SECT":" ","MAREA":" ","LANE":"２１０巷","ALLEY":"１７５弄","HOUSE_NO":"３號","E_COORD97":166516.34,"N_COORD97":2547375.96,"ADDRESS":"國安街２１０巷１７５弄３號","OBJECTID":130293},"geometry":{"x":166516.34000000078,"y":2547375.9600000028}},{"attributes":{"ID":130294,"DIS_CODE":0,"TOWNNAME":"永康區","LI":"二王里","LIN":"11鄰","STREET":"永二街","SECT":" ","MAREA":" ","LANE":"３９３巷","ALLEY":"１６弄","HOUSE_NO":"７號","E_COORD97":172897.38,"N_COORD97":2546547.7599999998,"ADDRESS":"永二街３９３巷１６弄７號","OBJECTID":130294},"geometry":{"x":172897.37999999989,"y":2546547.7599999998}},{"attributes":{"ID":130295,"DIS_CODE":0,"TOWNNAME":"永康區","LI":"二王里","LIN":"23鄰","STREET":"中山南路","SECT":" ","MAREA":" ","LANE":"５４４巷","ALLEY":"５９弄","HOUSE_NO":"３２號","E_COORD97":172430.28,"N_COORD97":2546434.3300000001,"ADDRESS":"中山南路５４４巷５９弄３２號","OBJECTID":130295},"geometry":{"x":172430.28000000026,"y":2546434.3300000019}},{"attributes":{"ID":130296,"DIS_CODE":0,"TOWNNAME":"永康區","LI":"二王里","LIN":"11鄰","STREET":"永二街","SECT":" ","MAREA":" ","LANE":"３９３巷","ALLEY":"１６弄","HOUSE_NO":"７３號","E_COORD97":172891.67000000001,"N_COORD97":2546496.21,"ADDRESS":"永二街３９３巷１６弄７３號","OBJECTID":130296},"geometry":{"x":172891.66999999993,"y":2546496.2100000028}},{"attributes":{"ID":130297,"DIS_CODE":0,"TOWNNAME":"永康區","LI":"二王里","LIN":"11鄰","STREET":"永二街","SECT":" ","MAREA":" ","LANE":"３９３巷","ALLEY":"１６弄","HOUSE_NO":"６９號","E_COORD97":172900,"N_COORD97":2546495.71,"ADDRESS":"永二街３９３巷１６弄６９號","OBJECTID":130297},"geometry":{"x":172900,"y":2546495.7100000028}},{"attributes":{"ID":130298,"DIS_CODE":0,"TOWNNAME":"永康區","LI":"三合里","LIN":"11鄰","STREET":"南工街","SECT":" ","MAREA":" ","LANE":"２４７巷","ALLEY":"６４弄","HOUSE_NO":"８號之１","E_COORD97":171921.23000000001,"N_COORD97":2545787.8999999999,"ADDRESS":"南工街２４７巷６４弄８號之１","OBJECTID":130298},"geometry":{"x":171921.23000000231,"y":2545787.9000000004}},{"attributes":{"ID":130299,"DIS_CODE":0,"TOWNNAME":"永康區","LI":"二王里","LIN":"11鄰","STREET":"永二街","SECT":" ","MAREA":" ","LANE":"３９３巷","ALLEY":"１６弄","HOUSE_NO":"２１號","E_COORD97":172910.60999999999,"N_COORD97":2546528.6899999999,"ADDRESS":"永二街３９３巷１６弄２１號","OBJECTID":130299},"geometry":{"x":172910.61000000127,"y":2546528.6900000013}},{"attributes":{"ID":130300,"DIS_CODE":0,"TOWNNAME":"永康區","LI":"二王里","LIN":"11鄰","STREET":"永二街","SECT":" ","MAREA":" ","LANE":"３９３巷","ALLEY":"１６弄","HOUSE_NO":"６５號","E_COORD97":172908.67000000001,"N_COORD97":2546494.96,"ADDRESS":"永二街３９３巷１６弄６５號","OBJECTID":130300},"geometry":{"x":172908.66999999993,"y":2546494.9600000028}},{"attributes":{"ID":130301,"DIS_CODE":0,"TOWNNAME":"永康區","LI":"二王里","LIN":"11鄰","STREET":"永二街","SECT":" ","MAREA":" ","LANE":"３９３巷","ALLEY":"１６弄","HOUSE_NO":"７１號","E_COORD97":172896.35999999999,"N_COORD97":2546495.96,"ADDRESS":"永二街３９３巷１６弄７１號","OBJECTID":130301},"geometry":{"x":172896.36000000034,"y":2546495.9600000009}},{"attributes":{"ID":130302,"DIS_CODE":0,"TOWNNAME":"中西區","LI":"建國里","LIN":"11鄰","STREET":"民生路","SECT":"一段","MAREA":" ","LANE":"１８１巷","ALLEY":"１１弄","HOUSE_NO":"１０號","E_COORD97":168000.14000000001,"N_COORD97":2543796.2999999998,"ADDRESS":"民生路一段１８１巷１１弄１０號","OBJECTID":130302},"geometry":{"x":168000.14000000153,"y":2543796.3000000026}},{"attributes":{"ID":130303,"DIS_CODE":0,"TOWNNAME":"中西區","LI":"建國里","LIN":"11鄰","STREET":"民生路","SECT":"一段","MAREA":" ","LANE":"１８１巷","ALLEY":"１１弄","HOUSE_NO":"１２號","E_COORD97":168003.29000000001,"N_COORD97":2543795.02,"ADDRESS":"民生路一段１８１巷１１弄１２號","OBJECTID":130303},"geometry":{"x":168003.29000000097,"y":2543795.0199999996}},{"attributes":{"ID":130304,"DIS_CODE":0,"TOWNNAME":"中西區","LI":"建國里","LIN":"11鄰","STREET":"民生路","SECT":"一段","MAREA":" ","LANE":"１８１巷","ALLEY":"１１弄","HOUSE_NO":"１４號","E_COORD97":168007.57999999999,"N_COORD97":2543794.0099999998,"ADDRESS":"民生路一段１８１巷１１弄１４號","OBJECTID":130304},"geometry":{"x":168007.58000000007,"y":2543794.0100000016}},{"attributes":{"ID":130305,"DIS_CODE":0,"TOWNNAME":"中西區","LI":"建國里","LIN":"11鄰","STREET":"民生路","SECT":"一段","MAREA":" ","LANE":"１８１巷","ALLEY":"１１弄","HOUSE_NO":"１６號","E_COORD97":168011.59,"N_COORD97":2543793.73,"ADDRESS":"民生路一段１８１巷１１弄１６號","OBJECTID":130305},"geometry":{"x":168011.59000000078,"y":2543793.7300000023}},{"attributes":{"ID":130306,"DIS_CODE":0,"TOWNNAME":"中西區","LI":"建國里","LIN":"11鄰","STREET":"民生路","SECT":"一段","MAREA":" ","LANE":"１８１巷","ALLEY":"１１弄","HOUSE_NO":"１８號","E_COORD97":168015.17000000001,"N_COORD97":2543793.1600000001,"ADDRESS":"民生路一段１８１巷１１弄１８號","OBJECTID":130306},"geometry":{"x":168015.16999999993,"y":2543793.160000002}},{"attributes":{"ID":130307,"DIS_CODE":0,"TOWNNAME":"中西區","LI":"建國里","LIN":"11鄰","STREET":"民生路","SECT":"一段","MAREA":" ","LANE":"１８１巷","ALLEY":"１１弄","HOUSE_NO":"１號","E_COORD97":168010.29999999999,"N_COORD97":2543805.1600000001,"ADDRESS":"民生路一段１８１巷１１弄１號","OBJECTID":130307},"geometry":{"x":168010.29999999981,"y":2543805.1600000001}},{"attributes":{"ID":130308,"DIS_CODE":0,"TOWNNAME":"中西區","LI":"永華里","LIN":"11鄰","STREET":"開山路","SECT":" ","MAREA":" ","LANE":"１２２巷","ALLEY":"３６弄","HOUSE_NO":"２號","E_COORD97":168629.5,"N_COORD97":2543348.3900000001,"ADDRESS":"開山路１２２巷３６弄２號","OBJECTID":130308},"geometry":{"x":168629.5,"y":2543348.3900000025}},{"attributes":{"ID":130309,"DIS_CODE":0,"TOWNNAME":"永康區","LI":"復華里","LIN":"11鄰","STREET":"復國二路","SECT":" ","MAREA":" ","LANE":"２４３巷","ALLEY":"２１弄","HOUSE_NO":"２號","E_COORD97":172956.91,"N_COORD97":2546100.8399999999,"ADDRESS":"復國二路２４３巷２１弄２號","OBJECTID":130309},"geometry":{"x":172956.91000000015,"y":2546100.8400000017}},{"attributes":{"ID":130310,"DIS_CODE":0,"TOWNNAME":"永康區","LI":"復華里","LIN":"11鄰","STREET":"復國二路","SECT":" ","MAREA":" ","LANE":"２４３巷","ALLEY":"２１弄","HOUSE_NO":"１４號","E_COORD97":172949.37,"N_COORD97":2546080.0800000001,"ADDRESS":"復國二路２４３巷２１弄１４號","OBJECTID":130310},"geometry":{"x":172949.37000000104,"y":2546080.0800000001}},{"attributes":{"ID":130311,"DIS_CODE":0,"TOWNNAME":"永康區","LI":"復華里","LIN":"11鄰","STREET":"復國二路","SECT":" ","MAREA":" ","LANE":"２４３巷","ALLEY":"２１弄","HOUSE_NO":"３號","E_COORD97":172968.70000000001,"N_COORD97":2546092.7599999998,"ADDRESS":"復國二路２４３巷２１弄３號","OBJECTID":130311},"geometry":{"x":172968.70000000019,"y":2546092.7599999998}},{"attributes":{"ID":130312,"DIS_CODE":0,"TOWNNAME":"東區","LI":"東聖里","LIN":"11鄰","STREET":"中華東路","SECT":"二段","MAREA":" ","LANE":"１３３巷","ALLEY":"５７弄","HOUSE_NO":"１４號","E_COORD97":171555.20999999999,"N_COORD97":2542872.1099999999,"ADDRESS":"中華東路二段１３３巷５７弄１４號","OBJECTID":130312},"geometry":{"x":171555.21000000089,"y":2542872.1099999994}},{"attributes":{"ID":130313,"DIS_CODE":0,"TOWNNAME":"東區","LI":"東聖里","LIN":"11鄰","STREET":"中華東路","SECT":"二段","MAREA":" ","LANE":"１３３巷","ALLEY":"５７弄","HOUSE_NO":"１５號","E_COORD97":171530.38,"N_COORD97":2542885.96,"ADDRESS":"中華東路二段１３３巷５７弄１５號","OBJECTID":130313},"geometry":{"x":171530.38000000082,"y":2542885.9600000009}},{"attributes":{"ID":130314,"DIS_CODE":0,"TOWNNAME":"東區","LI":"東聖里","LIN":"11鄰","STREET":"中華東路","SECT":"二段","MAREA":" ","LANE":"１３３巷","ALLEY":"５７弄","HOUSE_NO":"１６號","E_COORD97":171555.29999999999,"N_COORD97":2542876.3399999999,"ADDRESS":"中華東路二段１３３巷５７弄１６號","OBJECTID":130314},"geometry":{"x":171555.29999999981,"y":2542876.3400000017}},{"attributes":{"ID":130315,"DIS_CODE":0,"TOWNNAME":"東區","LI":"東聖里","LIN":"11鄰","STREET":"中華東路","SECT":"二段","MAREA":" ","LANE":"１３３巷","ALLEY":"５７弄","HOUSE_NO":"１７號","E_COORD97":171531.04999999999,"N_COORD97":2542890.6499999999,"ADDRESS":"中華東路二段１３３巷５７弄１７號","OBJECTID":130315},"geometry":{"x":171531.05000000075,"y":2542890.6500000004}},{"attributes":{"ID":130316,"DIS_CODE":0,"TOWNNAME":"東區","LI":"東聖里","LIN":"11鄰","STREET":"中華東路","SECT":"二段","MAREA":" ","LANE":"１３３巷","ALLEY":"５７弄","HOUSE_NO":"１８號","E_COORD97":171554.70999999999,"N_COORD97":2542880.2799999998,"ADDRESS":"中華東路二段１３３巷５７弄１８號","OBJECTID":130316},"geometry":{"x":171554.71000000183,"y":2542880.2800000012}},{"attributes":{"ID":130317,"DIS_CODE":0,"TOWNNAME":"東區","LI":"東聖里","LIN":"11鄰","STREET":"中華東路","SECT":"二段","MAREA":" ","LANE":"１３３巷","ALLEY":"５７弄","HOUSE_NO":"１９號","E_COORD97":171532.04000000001,"N_COORD97":2542895.27,"ADDRESS":"中華東路二段１３３巷５７弄１９號","OBJECTID":130317},"geometry":{"x":171532.04000000004,"y":2542895.2699999996}},{"attributes":{"ID":130318,"DIS_CODE":0,"TOWNNAME":"東區","LI":"東聖里","LIN":"11鄰","STREET":"中華東路","SECT":"二段","MAREA":" ","LANE":"１３３巷","ALLEY":"５７弄","HOUSE_NO":"１號","E_COORD97":171530.22,"N_COORD97":2542854.9700000002,"ADDRESS":"中華東路二段１３３巷５７弄１號","OBJECTID":130318},"geometry":{"x":171530.21999999974,"y":2542854.9700000007}},{"attributes":{"ID":130319,"DIS_CODE":0,"TOWNNAME":"東區","LI":"東聖里","LIN":"11鄰","STREET":"中華東路","SECT":"二段","MAREA":" ","LANE":"１３３巷","ALLEY":"５７弄","HOUSE_NO":"２０號","E_COORD97":171554.38,"N_COORD97":2542884.46,"ADDRESS":"中華東路二段１３３巷５７弄２０號","OBJECTID":130319},"geometry":{"x":171554.37999999989,"y":2542884.4600000028}},{"attributes":{"ID":130320,"DIS_CODE":0,"TOWNNAME":"安南區","LI":"安慶里","LIN":"11鄰","STREET":"長溪路","SECT":"一段","MAREA":" ","LANE":"１６８巷","ALLEY":"８５弄","HOUSE_NO":"２０號","E_COORD97":169017.01000000001,"N_COORD97":2548766.5099999998,"ADDRESS":"長溪路一段１６８巷８５弄２０號","OBJECTID":130320},"geometry":{"x":169017.01000000071,"y":2548766.5099999998}},{"attributes":{"ID":130321,"DIS_CODE":0,"TOWNNAME":"安南區","LI":"安慶里","LIN":"11鄰","STREET":"長溪路","SECT":"一段","MAREA":" ","LANE":"１６８巷","ALLEY":"８５弄","HOUSE_NO":"２２號","E_COORD97":169011.35000000001,"N_COORD97":2548764.96,"ADDRESS":"長溪路一段１６８巷８５弄２２號","OBJECTID":130321},"geometry":{"x":169011.35000000056,"y":2548764.959999999}},{"attributes":{"ID":130322,"DIS_CODE":0,"TOWNNAME":"安南區","LI":"州北里","LIN":"11鄰","STREET":"安和路","SECT":"五段","MAREA":" ","LANE":"１７１巷","ALLEY":"９２弄","HOUSE_NO":"１６號","E_COORD97":169597.29000000001,"N_COORD97":2551826.3900000001,"ADDRESS":"安和路五段１７１巷９２弄１６號","OBJECTID":130322},"geometry":{"x":169597.29000000004,"y":2551826.3900000006}},{"attributes":{"ID":130323,"DIS_CODE":0,"TOWNNAME":"安南區","LI":"佃東里","LIN":"11鄰","STREET":"公學路","SECT":"四段","MAREA":" ","LANE":"１０巷","ALLEY":"２１弄","HOUSE_NO":"３８號","E_COORD97":165838.85000000001,"N_COORD97":2552097.2400000002,"ADDRESS":"公學路四段１０巷２１弄３８號","OBJECTID":130323},"geometry":{"x":165838.8499999987,"y":2552097.2400000002}},{"attributes":{"ID":130324,"DIS_CODE":0,"TOWNNAME":"安南區","LI":"佃東里","LIN":"11鄰","STREET":"公學路","SECT":"四段","MAREA":" ","LANE":"２巷","ALLEY":"６５弄","HOUSE_NO":"１號","E_COORD97":166016.81,"N_COORD97":2552247.2200000002,"ADDRESS":"公學路四段２巷６５弄１號","OBJECTID":130324},"geometry":{"x":166016.80999999959,"y":2552247.2200000007}},{"attributes":{"ID":130325,"DIS_CODE":0,"TOWNNAME":"永康區","LI":"大灣里","LIN":"27鄰","STREET":"大灣六街","SECT":" ","MAREA":" ","LANE":"８０巷","ALLEY":"３６弄","HOUSE_NO":"３１號","E_COORD97":175319.20999999999,"N_COORD97":2545268.7000000002,"ADDRESS":"大灣六街８０巷３６弄３１號","OBJECTID":130325},"geometry":{"x":175319.20999999996,"y":2545268.6999999993}},{"attributes":{"ID":130326,"DIS_CODE":0,"TOWNNAME":"安南區","LI":"海西里","LIN":"11鄰","STREET":"海中街","SECT":" ","MAREA":" ","LANE":"５１巷","ALLEY":"２０弄","HOUSE_NO":"４號","E_COORD97":166390.38,"N_COORD97":2548897.0899999999,"ADDRESS":"海中街５１巷２０弄４號","OBJECTID":130326},"geometry":{"x":166390.38000000082,"y":2548897.0900000017}},{"attributes":{"ID":130327,"DIS_CODE":0,"TOWNNAME":"永康區","LI":"三合里","LIN":"18鄰","STREET":"南工街","SECT":" ","MAREA":" ","LANE":"２６７巷","ALLEY":"１７弄","HOUSE_NO":"４號","E_COORD97":171911.82000000001,"N_COORD97":2545898.3599999999,"ADDRESS":"南工街２６７巷１７弄４號","OBJECTID":130327},"geometry":{"x":171911.8200000003,"y":2545898.3599999994}},{"attributes":{"ID":130328,"DIS_CODE":0,"TOWNNAME":"永康區","LI":"大灣里","LIN":"8鄰","STREET":"民族路","SECT":" ","MAREA":" ","LANE":"３９６巷","ALLEY":"１６弄","HOUSE_NO":"１７號","E_COORD97":174834.07000000001,"N_COORD97":2545431.8500000001,"ADDRESS":"民族路３９６巷１６弄１７號","OBJECTID":130328},"geometry":{"x":174834.0700000003,"y":2545431.8500000034}},{"attributes":{"ID":130329,"DIS_CODE":0,"TOWNNAME":"北區","LI":"東興里","LIN":"6鄰","STREET":"小東路","SECT":" ","MAREA":" ","LANE":" ","ALLEY":" ","HOUSE_NO":"２６７號","E_COORD97":170938.76000000001,"N_COORD97":2544476.3300000001,"ADDRESS":"小東路２６７號","OBJECTID":130329},"geometry":{"x":170938.75999999885,"y":2544476.3300000038}},{"attributes":{"ID":130330,"DIS_CODE":0,"TOWNNAME":"北區","LI":"東興里","LIN":"6鄰","STREET":"小東路","SECT":" ","MAREA":" ","LANE":" ","ALLEY":" ","HOUSE_NO":"２６９號","E_COORD97":170943.32999999999,"N_COORD97":2544474.3900000001,"ADDRESS":"小東路２６９號","OBJECTID":130330},"geometry":{"x":170943.33000000007,"y":2544474.3900000025}},{"attributes":{"ID":130331,"DIS_CODE":0,"TOWNNAME":"中西區","LI":"民生里","LIN":"13鄰","STREET":"金華路","SECT":"三段","MAREA":" ","LANE":" ","ALLEY":" ","HOUSE_NO":"８０號","E_COORD97":167230.10000000001,"N_COORD97":2543441.6499999999,"ADDRESS":"金華路三段８０號","OBJECTID":130331},"geometry":{"x":167230.09999999963,"y":2543441.6500000022}},{"attributes":{"ID":130332,"DIS_CODE":0,"TOWNNAME":"北區","LI":"東興里","LIN":"6鄰","STREET":"小東路","SECT":" ","MAREA":" ","LANE":" ","ALLEY":" ","HOUSE_NO":"２８１號之２","E_COORD97":170973.60000000001,"N_COORD97":2544466.8900000001,"ADDRESS":"小東路２８１號之２","OBJECTID":130332},"geometry":{"x":170973.5999999987,"y":2544466.8900000025}},{"attributes":{"ID":130333,"DIS_CODE":0,"TOWNNAME":"永康區","LI":"埔園里","LIN":"38鄰","STREET":"龍中街","SECT":" ","MAREA":" ","LANE":" ","ALLEY":" ","HOUSE_NO":"３５３號","E_COORD97":174419.62,"N_COORD97":2547930.4399999999,"ADDRESS":"龍中街３５３號","OBJECTID":130333},"geometry":{"x":174419.62000000011,"y":2547930.4400000013}},{"attributes":{"ID":130334,"DIS_CODE":0,"TOWNNAME":"永康區","LI":"烏竹里","LIN":"18鄰","STREET":"龍中街","SECT":" ","MAREA":" ","LANE":" ","ALLEY":" ","HOUSE_NO":"２４０號","E_COORD97":174373.07000000001,"N_COORD97":2548585.75,"ADDRESS":"龍中街２４０號","OBJECTID":130334},"geometry":{"x":174373.0700000003,"y":2548585.7499999981}},{"attributes":{"ID":130335,"DIS_CODE":0,"TOWNNAME":"永康區","LI":"埔園里","LIN":"32鄰","STREET":"永大路","SECT":"三段","MAREA":" ","LANE":" ","ALLEY":" ","HOUSE_NO":"４４９號","E_COORD97":174037.56,"N_COORD97":2548673.27,"ADDRESS":"永大路三段４４９號","OBJECTID":130335},"geometry":{"x":174037.56000000052,"y":2548673.2699999996}},{"attributes":{"ID":130336,"DIS_CODE":0,"TOWNNAME":"永康區","LI":"埔園里","LIN":"32鄰","STREET":"永大路","SECT":"三段","MAREA":" ","LANE":" ","ALLEY":" ","HOUSE_NO":"４６１號","E_COORD97":174033.45000000001,"N_COORD97":2548702.0299999998,"ADDRESS":"永大路三段４６１號","OBJECTID":130336},"geometry":{"x":174033.45000000205,"y":2548702.0300000031}},{"attributes":{"ID":130337,"DIS_CODE":0,"TOWNNAME":"六甲區","LI":"中社里","LIN":"6鄰","STREET":" ","SECT":" ","MAREA":"中社","LANE":" ","ALLEY":" ","HOUSE_NO":"１８５號","E_COORD97":181029.20999999999,"N_COORD97":2570774.6200000001,"ADDRESS":"中社１８５號","OBJECTID":130337},"geometry":{"x":181029.21000000183,"y":2570774.6200000048}},{"attributes":{"ID":130338,"DIS_CODE":0,"TOWNNAME":"六甲區","LI":"中社里","LIN":"21鄰","STREET":" ","SECT":" ","MAREA":"林鳳營","LANE":" ","ALLEY":" ","HOUSE_NO":"２４０號之６６","E_COORD97":180269.07999999999,"N_COORD97":2571104.54,"ADDRESS":"林鳳營２４０號之６６","OBJECTID":130338},"geometry":{"x":180269.08000000194,"y":2571104.5399999991}},{"attributes":{"ID":130339,"DIS_CODE":0,"TOWNNAME":"六甲區","LI":"中社里","LIN":"21鄰","STREET":" ","SECT":" ","MAREA":"林鳳營","LANE":" ","ALLEY":" ","HOUSE_NO":"２４０號之６７","E_COORD97":180281.44,"N_COORD97":2571101.3599999999,"ADDRESS":"林鳳營２４０號之６７","OBJECTID":130339},"geometry":{"x":180281.44000000041,"y":2571101.3600000013}},{"attributes":{"ID":130340,"DIS_CODE":0,"TOWNNAME":"六甲區","LI":"中社里","LIN":"21鄰","STREET":" ","SECT":" ","MAREA":"林鳳營","LANE":" ","ALLEY":" ","HOUSE_NO":"２４０號之６８","E_COORD97":180285.81,"N_COORD97":2571102.1800000002,"ADDRESS":"林鳳營２４０號之６８","OBJECTID":130340},"geometry":{"x":180285.81000000052,"y":2571102.1800000016}},{"attributes":{"ID":130341,"DIS_CODE":0,"TOWNNAME":"六甲區","LI":"中社里","LIN":"21鄰","STREET":" ","SECT":" ","MAREA":"林鳳營","LANE":" ","ALLEY":" ","HOUSE_NO":"２４０號之６９","E_COORD97":180290.54000000001,"N_COORD97":2571102.8199999998,"ADDRESS":"林鳳營２４０號之６９","OBJECTID":130341},"geometry":{"x":180290.54000000004,"y":2571102.8200000022}},{"attributes":{"ID":130342,"DIS_CODE":0,"TOWNNAME":"安南區","LI":"溪東里","LIN":"11鄰","STREET":"府安路","SECT":"五段","MAREA":" ","LANE":"１１巷","ALLEY":"３５弄","HOUSE_NO":"４號","E_COORD97":168440.95999999999,"N_COORD97":2547348.3700000001,"ADDRESS":"府安路五段１１巷３５弄４號","OBJECTID":130342},"geometry":{"x":168440.96000000089,"y":2547348.370000001}},{"attributes":{"ID":130343,"DIS_CODE":0,"TOWNNAME":"安南區","LI":"溪東里","LIN":"11鄰","STREET":"府安路","SECT":"五段","MAREA":" ","LANE":"１１巷","ALLEY":"３５弄","HOUSE_NO":"６號","E_COORD97":168434.12,"N_COORD97":2547352.4300000002,"ADDRESS":"府安路五段１１巷３５弄６號","OBJECTID":130343},"geometry":{"x":168434.12000000011,"y":2547352.4299999997}},{"attributes":{"ID":130344,"DIS_CODE":0,"TOWNNAME":"安南區","LI":"溪東里","LIN":"11鄰","STREET":"府安路","SECT":"五段","MAREA":" ","LANE":"１１巷","ALLEY":"３５弄","HOUSE_NO":"１５號","E_COORD97":168405.56,"N_COORD97":2547321.6699999999,"ADDRESS":"府安路五段１１巷３５弄１５號","OBJECTID":130344},"geometry":{"x":168405.55999999959,"y":2547321.6699999981}},{"attributes":{"ID":130345,"DIS_CODE":0,"TOWNNAME":"安南區","LI":"溪東里","LIN":"11鄰","STREET":"府安路","SECT":"五段","MAREA":" ","LANE":"１１巷","ALLEY":"３５弄","HOUSE_NO":"１６號","E_COORD97":168402.29000000001,"N_COORD97":2547347.5299999998,"ADDRESS":"府安路五段１１巷３５弄１６號","OBJECTID":130345},"geometry":{"x":168402.29000000004,"y":2547347.5300000012}},{"attributes":{"ID":130346,"DIS_CODE":0,"TOWNNAME":"安南區","LI":"溪東里","LIN":"11鄰","STREET":"府安路","SECT":"五段","MAREA":" ","LANE":"１１巷","ALLEY":"３５弄","HOUSE_NO":"４４號","E_COORD97":168302.29999999999,"N_COORD97":2547333.75,"ADDRESS":"府安路五段１１巷３５弄４４號","OBJECTID":130346},"geometry":{"x":168302.29999999981,"y":2547333.75}},{"attributes":{"ID":130347,"DIS_CODE":0,"TOWNNAME":"安南區","LI":"溪東里","LIN":"11鄰","STREET":"府安路","SECT":"五段","MAREA":" ","LANE":"１１巷","ALLEY":"３５弄","HOUSE_NO":"４６號","E_COORD97":168295.17999999999,"N_COORD97":2547333.7799999998,"ADDRESS":"府安路五段１１巷３５弄４６號","OBJECTID":130347},"geometry":{"x":168295.18000000063,"y":2547333.7799999975}},{"attributes":{"ID":130348,"DIS_CODE":0,"TOWNNAME":"安南區","LI":"溪東里","LIN":"11鄰","STREET":"府安路","SECT":"五段","MAREA":" ","LANE":"１１巷","ALLEY":"３５弄","HOUSE_NO":"４８號","E_COORD97":168289.75,"N_COORD97":2547333,"ADDRESS":"府安路五段１１巷３５弄４８號","OBJECTID":130348},"geometry":{"x":168289.75000000093,"y":2547332.9999999981}},{"attributes":{"ID":130349,"DIS_CODE":0,"TOWNNAME":"安南區","LI":"溪東里","LIN":"11鄰","STREET":"府安路","SECT":"五段","MAREA":" ","LANE":"１１巷","ALLEY":"３５弄","HOUSE_NO":"５４號","E_COORD97":168273.26000000001,"N_COORD97":2547331.4399999999,"ADDRESS":"府安路五段１１巷３５弄５４號","OBJECTID":130349},"geometry":{"x":168273.25999999978,"y":2547331.4399999995}},{"attributes":{"ID":130350,"DIS_CODE":0,"TOWNNAME":"安南區","LI":"溪東里","LIN":"11鄰","STREET":"府安路","SECT":"五段","MAREA":" ","LANE":"１１巷","ALLEY":"３５弄","HOUSE_NO":"７０號","E_COORD97":168234.97,"N_COORD97":2547318.52,"ADDRESS":"府安路五段１１巷３５弄７０號","OBJECTID":130350},"geometry":{"x":168234.96999999974,"y":2547318.5199999996}},{"attributes":{"ID":130351,"DIS_CODE":0,"TOWNNAME":"安南區","LI":"溪東里","LIN":"11鄰","STREET":"府安路","SECT":"五段","MAREA":" ","LANE":"１１巷","ALLEY":"３５弄","HOUSE_NO":"７２號","E_COORD97":168229.23999999999,"N_COORD97":2547316.6800000002,"ADDRESS":"府安路五段１１巷３５弄７２號","OBJECTID":130351},"geometry":{"x":168229.24000000115,"y":2547316.6799999997}},{"attributes":{"ID":130352,"DIS_CODE":0,"TOWNNAME":"中西區","LI":"光賢里","LIN":"11鄰","STREET":"和善街","SECT":" ","MAREA":" ","LANE":"１２５巷","ALLEY":"１２弄","HOUSE_NO":"８號","E_COORD97":166840.17000000001,"N_COORD97":2544816.9399999999,"ADDRESS":"和善街１２５巷１２弄８號","OBJECTID":130352},"geometry":{"x":166840.16999999993,"y":2544816.9399999995}},{"attributes":{"ID":130353,"DIS_CODE":0,"TOWNNAME":"中西區","LI":"光賢里","LIN":"11鄰","STREET":"和善街","SECT":" ","MAREA":" ","LANE":"１２５巷","ALLEY":"１２弄","HOUSE_NO":"１０號","E_COORD97":166836.63,"N_COORD97":2544819.73,"ADDRESS":"和善街１２５巷１２弄１０號","OBJECTID":130353},"geometry":{"x":166836.63000000082,"y":2544819.7299999986}},{"attributes":{"ID":130354,"DIS_CODE":0,"TOWNNAME":"中西區","LI":"光賢里","LIN":"11鄰","STREET":"和善街","SECT":" ","MAREA":" ","LANE":"１２５巷","ALLEY":"１２弄","HOUSE_NO":"１１號","E_COORD97":166822.06,"N_COORD97":2544809.3799999999,"ADDRESS":"和善街１２５巷１２弄１１號","OBJECTID":130354},"geometry":{"x":166822.05999999959,"y":2544809.379999999}},{"attributes":{"ID":130355,"DIS_CODE":0,"TOWNNAME":"中西區","LI":"光賢里","LIN":"11鄰","STREET":"和善街","SECT":" ","MAREA":" ","LANE":"１２５巷","ALLEY":"１２弄","HOUSE_NO":"１２號","E_COORD97":166833.66,"N_COORD97":2544822.0600000001,"ADDRESS":"和善街１２５巷１２弄１２號","OBJECTID":130355},"geometry":{"x":166833.66000000015,"y":2544822.0600000024}},{"attributes":{"ID":130356,"DIS_CODE":0,"TOWNNAME":"中西區","LI":"光賢里","LIN":"11鄰","STREET":"和善街","SECT":" ","MAREA":" ","LANE":"１２５巷","ALLEY":"１２弄","HOUSE_NO":"１３號","E_COORD97":166818.76000000001,"N_COORD97":2544812.1699999999,"ADDRESS":"和善街１２５巷１２弄１３號","OBJECTID":130356},"geometry":{"x":166818.75999999978,"y":2544812.1699999999}},{"attributes":{"ID":130357,"DIS_CODE":0,"TOWNNAME":"六甲區","LI":"中社里","LIN":"21鄰","STREET":" ","SECT":" ","MAREA":"林鳳營","LANE":" ","ALLEY":" ","HOUSE_NO":"２４０號之７０","E_COORD97":180294.94,"N_COORD97":2571103.5,"ADDRESS":"林鳳營２４０號之７０","OBJECTID":130357},"geometry":{"x":180294.94000000041,"y":2571103.5000000019}},{"attributes":{"ID":130358,"DIS_CODE":0,"TOWNNAME":"六甲區","LI":"中社里","LIN":"21鄰","STREET":" ","SECT":" ","MAREA":"林鳳營","LANE":" ","ALLEY":" ","HOUSE_NO":"２４０號之７１","E_COORD97":180299.53,"N_COORD97":2571104.3700000001,"ADDRESS":"林鳳營２４０號之７１","OBJECTID":130358},"geometry":{"x":180299.53000000026,"y":2571104.370000001}},{"attributes":{"ID":130359,"DIS_CODE":0,"TOWNNAME":"六甲區","LI":"中社里","LIN":"21鄰","STREET":" ","SECT":" ","MAREA":"林鳳營","LANE":" ","ALLEY":" ","HOUSE_NO":"２４０號之７２","E_COORD97":180303.95000000001,"N_COORD97":2571105.3100000001,"ADDRESS":"林鳳營２４０號之７２","OBJECTID":130359},"geometry":{"x":180303.95000000205,"y":2571105.3100000042}},{"attributes":{"ID":130360,"DIS_CODE":0,"TOWNNAME":"六甲區","LI":"中社里","LIN":"17鄰","STREET":" ","SECT":" ","MAREA":"林鳳營","LANE":" ","ALLEY":" ","HOUSE_NO":"６１號","E_COORD97":179863.35000000001,"N_COORD97":2571911.1800000002,"ADDRESS":"林鳳營６１號","OBJECTID":130360},"geometry":{"x":179863.35000000149,"y":2571911.1799999997}},{"attributes":{"ID":130361,"DIS_CODE":0,"TOWNNAME":"六甲區","LI":"大丘里","LIN":"13鄰","STREET":" ","SECT":" ","MAREA":"南勢坑","LANE":" ","ALLEY":" ","HOUSE_NO":"１３號","E_COORD97":192435.17000000001,"N_COORD97":2567663.6000000001,"ADDRESS":"南勢坑１３號","OBJECTID":130361},"geometry":{"x":192435.17000000086,"y":2567663.5999999996}},{"attributes":{"ID":130362,"DIS_CODE":0,"TOWNNAME":"中西區","LI":"光賢里","LIN":"11鄰","STREET":"和善街","SECT":" ","MAREA":" ","LANE":"１２５巷","ALLEY":"１２弄","HOUSE_NO":"１４號","E_COORD97":166830.70000000001,"N_COORD97":2544824.8100000001,"ADDRESS":"和善街１２５巷１２弄１４號","OBJECTID":130362},"geometry":{"x":166830.70000000205,"y":2544824.8100000005}},{"attributes":{"ID":130363,"DIS_CODE":0,"TOWNNAME":"中西區","LI":"光賢里","LIN":"11鄰","STREET":"和善街","SECT":" ","MAREA":" ","LANE":"１２５巷","ALLEY":"１２弄","HOUSE_NO":"１５號","E_COORD97":166815.45999999999,"N_COORD97":2544814.71,"ADDRESS":"和善街１２５巷１２弄１５號","OBJECTID":130363},"geometry":{"x":166815.46000000089,"y":2544814.7100000028}},{"attributes":{"ID":130364,"DIS_CODE":0,"TOWNNAME":"中西區","LI":"光賢里","LIN":"11鄰","STREET":"和善街","SECT":" ","MAREA":" ","LANE":"１２５巷","ALLEY":"１２弄","HOUSE_NO":"１６號","E_COORD97":166827.31,"N_COORD97":2544827.5600000001,"ADDRESS":"和善街１２５巷１２弄１６號","OBJECTID":130364},"geometry":{"x":166827.30999999959,"y":2544827.5600000005}},{"attributes":{"ID":130365,"DIS_CODE":0,"TOWNNAME":"中西區","LI":"光賢里","LIN":"11鄰","STREET":"和善街","SECT":" ","MAREA":" ","LANE":"１２５巷","ALLEY":"１２弄","HOUSE_NO":"１７號","E_COORD97":166812.16,"N_COORD97":2544817.5099999998,"ADDRESS":"和善街１２５巷１２弄１７號","OBJECTID":130365},"geometry":{"x":166812.16000000201,"y":2544817.5100000035}},{"attributes":{"ID":130366,"DIS_CODE":0,"TOWNNAME":"中西區","LI":"光賢里","LIN":"11鄰","STREET":"和善街","SECT":" ","MAREA":" ","LANE":"１２５巷","ALLEY":"１２弄","HOUSE_NO":"１８號","E_COORD97":166824.14000000001,"N_COORD97":2544829.8900000001,"ADDRESS":"和善街１２５巷１２弄１８號","OBJECTID":130366},"geometry":{"x":166824.1400000006,"y":2544829.8900000025}},{"attributes":{"ID":130367,"DIS_CODE":0,"TOWNNAME":"中西區","LI":"光賢里","LIN":"11鄰","STREET":"和善街","SECT":" ","MAREA":" ","LANE":"１２５巷","ALLEY":"１２弄","HOUSE_NO":"１９號","E_COORD97":166809.10999999999,"N_COORD97":2544820.2999999998,"ADDRESS":"和善街１２５巷１２弄１９號","OBJECTID":130367},"geometry":{"x":166809.11000000034,"y":2544820.3000000026}},{"attributes":{"ID":130368,"DIS_CODE":0,"TOWNNAME":"永康區","LI":"大灣里","LIN":"27鄰","STREET":"大灣六街","SECT":" ","MAREA":" ","LANE":"８０巷","ALLEY":"３６弄","HOUSE_NO":"３３號","E_COORD97":175323.69,"N_COORD97":2545268.2000000002,"ADDRESS":"大灣六街８０巷３６弄３３號","OBJECTID":130368},"geometry":{"x":175323.68999999948,"y":2545268.1999999993}},{"attributes":{"ID":130369,"DIS_CODE":0,"TOWNNAME":"中西區","LI":"光賢里","LIN":"11鄰","STREET":"和善街","SECT":" ","MAREA":" ","LANE":"１２５巷","ALLEY":"１２弄","HOUSE_NO":"１號","E_COORD97":166838.32000000001,"N_COORD97":2544795.6600000001,"ADDRESS":"和善街１２５巷１２弄１號","OBJECTID":130369},"geometry":{"x":166838.32000000216,"y":2544795.6600000001}},{"attributes":{"ID":130370,"DIS_CODE":0,"TOWNNAME":"六甲區","LI":"大丘里","LIN":"13鄰","STREET":" ","SECT":" ","MAREA":"南勢坑","LANE":" ","ALLEY":" ","HOUSE_NO":"１６號","E_COORD97":192896.54999999999,"N_COORD97":2567391.1000000001,"ADDRESS":"南勢坑１６號","OBJECTID":130370},"geometry":{"x":192896.55000000168,"y":2567391.1000000015}},{"attributes":{"ID":130371,"DIS_CODE":0,"TOWNNAME":"六甲區","LI":"大丘里","LIN":"13鄰","STREET":" ","SECT":" ","MAREA":"南勢坑","LANE":" ","ALLEY":" ","HOUSE_NO":"１８號","E_COORD97":192876.56,"N_COORD97":2567378,"ADDRESS":"南勢坑１８號","OBJECTID":130371},"geometry":{"x":192876.56000000052,"y":2567378.0000000019}},{"attributes":{"ID":130372,"DIS_CODE":0,"TOWNNAME":"東山區","LI":"水雲里","LIN":"1鄰","STREET":" ","SECT":" ","MAREA":"牛肉崎","LANE":" ","ALLEY":" ","HOUSE_NO":"１號","E_COORD97":189635.20999999999,"N_COORD97":2575159.3100000001,"ADDRESS":"牛肉崎１號","OBJECTID":130372},"geometry":{"x":189635.20999999996,"y":2575159.3100000005}},{"attributes":{"ID":130373,"DIS_CODE":0,"TOWNNAME":"六甲區","LI":"大丘里","LIN":"13鄰","STREET":" ","SECT":" ","MAREA":"南勢坑","LANE":" ","ALLEY":" ","HOUSE_NO":"１９號","E_COORD97":192873.47,"N_COORD97":2567400.0899999999,"ADDRESS":"南勢坑１９號","OBJECTID":130373},"geometry":{"x":192873.47000000067,"y":2567400.0900000036}},{"attributes":{"ID":130374,"DIS_CODE":0,"TOWNNAME":"六甲區","LI":"大丘里","LIN":"14鄰","STREET":" ","SECT":" ","MAREA":"南勢坑","LANE":" ","ALLEY":" ","HOUSE_NO":"３４號","E_COORD97":193873.10000000001,"N_COORD97":2567004.1699999999,"ADDRESS":"南勢坑３４號","OBJECTID":130374},"geometry":{"x":193873.10000000056,"y":2567004.1700000018}},{"attributes":{"ID":130375,"DIS_CODE":0,"TOWNNAME":"六甲區","LI":"大丘里","LIN":"14鄰","STREET":" ","SECT":" ","MAREA":"南勢坑","LANE":" ","ALLEY":" ","HOUSE_NO":"３５號","E_COORD97":194323.39000000001,"N_COORD97":2567021.54,"ADDRESS":"南勢坑３５號","OBJECTID":130375},"geometry":{"x":194323.3900000006,"y":2567021.540000001}},{"attributes":{"ID":130376,"DIS_CODE":0,"TOWNNAME":"六甲區","LI":"大丘里","LIN":"14鄰","STREET":" ","SECT":" ","MAREA":"南勢坑","LANE":" ","ALLEY":" ","HOUSE_NO":"３６號","E_COORD97":194414.22,"N_COORD97":2566658.3500000001,"ADDRESS":"南勢坑３６號","OBJECTID":130376},"geometry":{"x":194414.22000000067,"y":2566658.3499999996}},{"attributes":{"ID":130377,"DIS_CODE":0,"TOWNNAME":"六甲區","LI":"大丘里","LIN":"14鄰","STREET":" ","SECT":" ","MAREA":"南勢坑","LANE":" ","ALLEY":" ","HOUSE_NO":"３７號","E_COORD97":194364.25,"N_COORD97":2566856.3700000001,"ADDRESS":"南勢坑３７號","OBJECTID":130377},"geometry":{"x":194364.25,"y":2566856.370000001}},{"attributes":{"ID":130378,"DIS_CODE":0,"TOWNNAME":"六甲區","LI":"大丘里","LIN":"14鄰","STREET":" ","SECT":" ","MAREA":"南勢坑","LANE":" ","ALLEY":" ","HOUSE_NO":"３８號","E_COORD97":194378.51000000001,"N_COORD97":2566854,"ADDRESS":"南勢坑３８號","OBJECTID":130378},"geometry":{"x":194378.51000000071,"y":2566854}},{"attributes":{"ID":130379,"DIS_CODE":0,"TOWNNAME":"六甲區","LI":"大丘里","LIN":"14鄰","STREET":" ","SECT":" ","MAREA":"南勢坑","LANE":" ","ALLEY":" ","HOUSE_NO":"３９號","E_COORD97":194391.87,"N_COORD97":2566831.3900000001,"ADDRESS":"南勢坑３９號","OBJECTID":130379},"geometry":{"x":194391.87000000104,"y":2566831.3900000006}},{"attributes":{"ID":130380,"DIS_CODE":0,"TOWNNAME":"六甲區","LI":"大丘里","LIN":"14鄰","STREET":" ","SECT":" ","MAREA":"南勢坑","LANE":" ","ALLEY":" ","HOUSE_NO":"４０號","E_COORD97":194411.10000000001,"N_COORD97":2566813.0899999999,"ADDRESS":"南勢坑４０號","OBJECTID":130380},"geometry":{"x":194411.09999999963,"y":2566813.0899999999}},{"attributes":{"ID":130381,"DIS_CODE":0,"TOWNNAME":"六甲區","LI":"大丘里","LIN":"14鄰","STREET":" ","SECT":" ","MAREA":"南勢坑","LANE":" ","ALLEY":" ","HOUSE_NO":"４１號","E_COORD97":194490.45000000001,"N_COORD97":2566803.0600000001,"ADDRESS":"南勢坑４１號","OBJECTID":130381},"geometry":{"x":194490.45000000019,"y":2566803.0600000005}},{"attributes":{"ID":130382,"DIS_CODE":0,"TOWNNAME":"六甲區","LI":"大丘里","LIN":"15鄰","STREET":" ","SECT":" ","MAREA":"南勢坑","LANE":" ","ALLEY":" ","HOUSE_NO":"２９之８號","E_COORD97":194262.03,"N_COORD97":2567644.5800000001,"ADDRESS":"南勢坑２９之８號","OBJECTID":130382},"geometry":{"x":194262.03000000119,"y":2567644.5800000038}},{"attributes":{"ID":130383,"DIS_CODE":0,"TOWNNAME":"六甲區","LI":"大丘里","LIN":"15鄰","STREET":" ","SECT":" ","MAREA":"南勢坑","LANE":" ","ALLEY":" ","HOUSE_NO":"２９號","E_COORD97":193236.76999999999,"N_COORD97":2567381.6499999999,"ADDRESS":"南勢坑２９號","OBJECTID":130383},"geometry":{"x":193236.76999999955,"y":2567381.6500000004}},{"attributes":{"ID":130384,"DIS_CODE":0,"TOWNNAME":"六甲區","LI":"大丘里","LIN":"15鄰","STREET":" ","SECT":" ","MAREA":"南勢坑","LANE":" ","ALLEY":" ","HOUSE_NO":"３０號","E_COORD97":193250.13,"N_COORD97":2567383.9700000002,"ADDRESS":"南勢坑３０號","OBJECTID":130384},"geometry":{"x":193250.12999999896,"y":2567383.9700000007}},{"attributes":{"ID":130385,"DIS_CODE":0,"TOWNNAME":"六甲區","LI":"大丘里","LIN":"15鄰","STREET":" ","SECT":" ","MAREA":"南勢坑","LANE":" ","ALLEY":" ","HOUSE_NO":"３２號","E_COORD97":193902.73000000001,"N_COORD97":2566971.21,"ADDRESS":"南勢坑３２號","OBJECTID":130385},"geometry":{"x":193902.72999999952,"y":2566971.2100000028}},{"attributes":{"ID":130386,"DIS_CODE":0,"TOWNNAME":"六甲區","LI":"大丘里","LIN":"12鄰","STREET":" ","SECT":" ","MAREA":"南勢坑","LANE":" ","ALLEY":" ","HOUSE_NO":"２之１號","E_COORD97":191607.76000000001,"N_COORD97":2568187.4399999999,"ADDRESS":"南勢坑２之１號","OBJECTID":130386},"geometry":{"x":191607.75999999978,"y":2568187.4400000032}},{"attributes":{"ID":130387,"DIS_CODE":0,"TOWNNAME":"六甲區","LI":"大丘里","LIN":"12鄰","STREET":" ","SECT":" ","MAREA":"南勢坑","LANE":" ","ALLEY":" ","HOUSE_NO":"２之２號","E_COORD97":191608.42999999999,"N_COORD97":2568183.2599999998,"ADDRESS":"南勢坑２之２號","OBJECTID":130387},"geometry":{"x":191608.4299999997,"y":2568183.2600000016}},{"attributes":{"ID":130388,"DIS_CODE":0,"TOWNNAME":"六甲區","LI":"大丘里","LIN":"12鄰","STREET":" ","SECT":" ","MAREA":"南勢坑","LANE":" ","ALLEY":" ","HOUSE_NO":"２號之３","E_COORD97":191657.28,"N_COORD97":2568242.52,"ADDRESS":"南勢坑２號之３","OBJECTID":130388},"geometry":{"x":191657.28000000026,"y":2568242.5200000014}},{"attributes":{"ID":130389,"DIS_CODE":0,"TOWNNAME":"六甲區","LI":"大丘里","LIN":"12鄰","STREET":" ","SECT":" ","MAREA":"南勢坑","LANE":" ","ALLEY":" ","HOUSE_NO":"２之５號","E_COORD97":191617.04999999999,"N_COORD97":2568263.7200000002,"ADDRESS":"南勢坑２之５號","OBJECTID":130389},"geometry":{"x":191617.05000000075,"y":2568263.7200000007}},{"attributes":{"ID":130390,"DIS_CODE":0,"TOWNNAME":"六甲區","LI":"王爺里","LIN":"8鄰","STREET":" ","SECT":" ","MAREA":"番子坑","LANE":" ","ALLEY":" ","HOUSE_NO":"４９號","E_COORD97":188494.12,"N_COORD97":2569209.21,"ADDRESS":"番子坑４９號","OBJECTID":130390},"geometry":{"x":188494.12000000104,"y":2569209.2100000009}},{"attributes":{"ID":130391,"DIS_CODE":0,"TOWNNAME":"六甲區","LI":"王爺里","LIN":"8鄰","STREET":" ","SECT":" ","MAREA":"番子坑","LANE":" ","ALLEY":" ","HOUSE_NO":"５０號","E_COORD97":188574.76000000001,"N_COORD97":2569234.7799999998,"ADDRESS":"番子坑５０號","OBJECTID":130391},"geometry":{"x":188574.76000000071,"y":2569234.7799999993}},{"attributes":{"ID":130392,"DIS_CODE":0,"TOWNNAME":"六甲區","LI":"王爺里","LIN":"8鄰","STREET":" ","SECT":" ","MAREA":"番子坑","LANE":" ","ALLEY":" ","HOUSE_NO":"５１號","E_COORD97":188580.48000000001,"N_COORD97":2569179.4300000002,"ADDRESS":"番子坑５１號","OBJECTID":130392},"geometry":{"x":188580.48000000138,"y":2569179.4299999997}},{"attributes":{"ID":130393,"DIS_CODE":0,"TOWNNAME":"六甲區","LI":"王爺里","LIN":"8鄰","STREET":" ","SECT":" ","MAREA":"番子坑","LANE":" ","ALLEY":" ","HOUSE_NO":"５２號","E_COORD97":188640.37,"N_COORD97":2569255.3900000001,"ADDRESS":"番子坑５２號","OBJECTID":130393},"geometry":{"x":188640.37000000104,"y":2569255.3900000006}},{"attributes":{"ID":130394,"DIS_CODE":0,"TOWNNAME":"六甲區","LI":"菁埔里","LIN":"4鄰","STREET":" ","SECT":" ","MAREA":"菁埔","LANE":" ","ALLEY":" ","HOUSE_NO":"１４５號","E_COORD97":178716.01000000001,"N_COORD97":2570589.5699999998,"ADDRESS":"菁埔１４５號","OBJECTID":130394},"geometry":{"x":178716.00999999978,"y":2570589.5700000003}},{"attributes":{"ID":130395,"DIS_CODE":0,"TOWNNAME":"六甲區","LI":"菁埔里","LIN":"4鄰","STREET":" ","SECT":" ","MAREA":"菁埔","LANE":" ","ALLEY":" ","HOUSE_NO":"１４６號","E_COORD97":178708.64000000001,"N_COORD97":2570562.4700000002,"ADDRESS":"菁埔１４６號","OBJECTID":130395},"geometry":{"x":178708.64000000153,"y":2570562.4700000025}},{"attributes":{"ID":130396,"DIS_CODE":0,"TOWNNAME":"六甲區","LI":"菁埔里","LIN":"4鄰","STREET":" ","SECT":" ","MAREA":"菁埔","LANE":" ","ALLEY":" ","HOUSE_NO":"１４９號","E_COORD97":178737.28,"N_COORD97":2570511.5899999999,"ADDRESS":"菁埔１４９號","OBJECTID":130396},"geometry":{"x":178737.28000000119,"y":2570511.5899999999}},{"attributes":{"ID":130397,"DIS_CODE":0,"TOWNNAME":"六甲區","LI":"菁埔里","LIN":"4鄰","STREET":" ","SECT":" ","MAREA":"菁埔","LANE":" ","ALLEY":" ","HOUSE_NO":"１５０號","E_COORD97":178728.34,"N_COORD97":2570517.8100000001,"ADDRESS":"菁埔１５０號","OBJECTID":130397},"geometry":{"x":178728.34000000078,"y":2570517.8100000005}},{"attributes":{"ID":130398,"DIS_CODE":0,"TOWNNAME":"六甲區","LI":"菁埔里","LIN":"4鄰","STREET":" ","SECT":" ","MAREA":"菁埔","LANE":" ","ALLEY":" ","HOUSE_NO":"１５３號","E_COORD97":178743.97,"N_COORD97":2570559.6000000001,"ADDRESS":"菁埔１５３號","OBJECTID":130398},"geometry":{"x":178743.97000000067,"y":2570559.6000000034}},{"attributes":{"ID":130399,"DIS_CODE":0,"TOWNNAME":"六甲區","LI":"菁埔里","LIN":"4鄰","STREET":" ","SECT":" ","MAREA":"菁埔","LANE":" ","ALLEY":" ","HOUSE_NO":"１６號","E_COORD97":179462.51000000001,"N_COORD97":2570785.0099999998,"ADDRESS":"菁埔１６號","OBJECTID":130399},"geometry":{"x":179462.51000000071,"y":2570785.0100000016}},{"attributes":{"ID":130400,"DIS_CODE":0,"TOWNNAME":"六甲區","LI":"菁埔里","LIN":"7鄰","STREET":" ","SECT":" ","MAREA":"菁埔","LANE":" ","ALLEY":" ","HOUSE_NO":"２８６號","E_COORD97":179085.39999999999,"N_COORD97":2569813.3300000001,"ADDRESS":"菁埔２８６號","OBJECTID":130400},"geometry":{"x":179085.40000000037,"y":2569813.3300000019}}]}