{"displayFieldName":"TOWNNAME","fieldAliases":{"ID":"ID","DIS_CODE":"DIS_CODE","TOWNNAME":"TOWNNAME","LI":"LI","LIN":"LIN","STREET":"STREET","SECT":"SECT","MAREA":"MAREA","LANE":"LANE","ALLEY":"ALLEY","HOUSE_NO":"HOUSE_NO","E_COORD97":"E_COORD97","N_COORD97":"N_COORD97","ADDRESS":"ADDRESS","OBJECTID":"OBJECTID"},"geometryType":"esriGeometryPoint","spatialReference":{"wkid":102443,"latestWkid":3826},"fields":[{"name":"ID","type":"esriFieldTypeDouble","alias":"ID"},{"name":"DIS_CODE","type":"esriFieldTypeInteger","alias":"DIS_CODE"},{"name":"TOWNNAME","type":"esriFieldTypeString","alias":"TOWNNAME","length":8},{"name":"LI","type":"esriFieldTypeString","alias":"LI","length":8},{"name":"LIN","type":"esriFieldTypeString","alias":"LIN","length":12},{"name":"STREET","type":"esriFieldTypeString","alias":"STREET","length":20},{"name":"SECT","type":"esriFieldTypeString","alias":"SECT","length":8},{"name":"MAREA","type":"esriFieldTypeString","alias":"MAREA","length":12},{"name":"LANE","type":"esriFieldTypeString","alias":"LANE","length":10},{"name":"ALLEY","type":"esriFieldTypeString","alias":"ALLEY","length":10},{"name":"HOUSE_NO","type":"esriFieldTypeString","alias":"HOUSE_NO","length":20},{"name":"E_COORD97","type":"esriFieldTypeDouble","alias":"E_COORD97"},{"name":"N_COORD97","type":"esriFieldTypeDouble","alias":"N_COORD97"},{"name":"ADDRESS","type":"esriFieldTypeString","alias":"ADDRESS","length":50},{"name":"OBJECTID","type":"esriFieldTypeOID","alias":"OBJECTID"}],"features":[{"attributes":{"ID":441826,"DIS_CODE":0,"TOWNNAME":"永康區","LI":"東灣里","LIN":"36鄰","STREET":"民族路","SECT":" ","MAREA":" ","LANE":"２７３巷","ALLEY":" ","HOUSE_NO":"３１號四樓之２","E_COORD97":175064.01000000001,"N_COORD97":2544931.2000000002,"ADDRESS":"民族路２７３巷３１號四樓之２","OBJECTID":441801},"geometry":{"x":175064.01000000071,"y":2544931.2000000011}},{"attributes":{"ID":441827,"DIS_CODE":0,"TOWNNAME":"玉井區","LI":"玉田里","LIN":"36鄰","STREET":"玉安街","SECT":" ","MAREA":" ","LANE":"３０巷","ALLEY":" ","HOUSE_NO":"９號","E_COORD97":195095.70999999999,"N_COORD97":2558367.3100000001,"ADDRESS":"玉安街３０巷９號","OBJECTID":441802},"geometry":{"x":195095.70999999996,"y":2558367.3100000042}},{"attributes":{"ID":441828,"DIS_CODE":0,"TOWNNAME":"永康區","LI":"永康里","LIN":"36鄰","STREET":"永平街","SECT":" ","MAREA":" ","LANE":"５６巷","ALLEY":" ","HOUSE_NO":"２號七樓之６","E_COORD97":174356.54999999999,"N_COORD97":2546819.5499999998,"ADDRESS":"永平街５６巷２號七樓之６","OBJECTID":441803},"geometry":{"x":174356.55000000075,"y":2546819.5500000026}},{"attributes":{"ID":441829,"DIS_CODE":0,"TOWNNAME":"永康區","LI":"永康里","LIN":"36鄰","STREET":"永平街","SECT":" ","MAREA":" ","LANE":"５６巷","ALLEY":" ","HOUSE_NO":"２號五樓之７","E_COORD97":174356.53,"N_COORD97":2546819.5499999998,"ADDRESS":"永平街５６巷２號五樓之７","OBJECTID":441804},"geometry":{"x":174356.53000000026,"y":2546819.5500000026}},{"attributes":{"ID":441830,"DIS_CODE":0,"TOWNNAME":"永康區","LI":"永康里","LIN":"36鄰","STREET":"永平街","SECT":" ","MAREA":" ","LANE":"５６巷","ALLEY":" ","HOUSE_NO":"２號十八樓之８","E_COORD97":174357.85000000001,"N_COORD97":2546819.5499999998,"ADDRESS":"永平街５６巷２號十八樓之８","OBJECTID":441805},"geometry":{"x":174357.85000000056,"y":2546819.5500000026}},{"attributes":{"ID":441831,"DIS_CODE":0,"TOWNNAME":"永康區","LI":"永康里","LIN":"36鄰","STREET":"永平街","SECT":" ","MAREA":" ","LANE":"５６巷","ALLEY":" ","HOUSE_NO":"２號十八樓之６","E_COORD97":174357.79999999999,"N_COORD97":2546819.5499999998,"ADDRESS":"永平街５６巷２號十八樓之６","OBJECTID":441806},"geometry":{"x":174357.80000000168,"y":2546819.5500000026}},{"attributes":{"ID":441832,"DIS_CODE":0,"TOWNNAME":"永康區","LI":"永康里","LIN":"36鄰","STREET":"永平街","SECT":" ","MAREA":" ","LANE":"５６巷","ALLEY":" ","HOUSE_NO":"２號九樓之１２","E_COORD97":174357.82999999999,"N_COORD97":2546819.5499999998,"ADDRESS":"永平街５６巷２號九樓之１２","OBJECTID":441807},"geometry":{"x":174357.82999999914,"y":2546819.5500000026}},{"attributes":{"ID":441833,"DIS_CODE":0,"TOWNNAME":"永康區","LI":"永康里","LIN":"36鄰","STREET":"永平街","SECT":" ","MAREA":" ","LANE":"５６巷","ALLEY":" ","HOUSE_NO":"２號十五樓之８","E_COORD97":174357.85000000001,"N_COORD97":2546819.5499999998,"ADDRESS":"永平街５６巷２號十五樓之８","OBJECTID":441808},"geometry":{"x":174357.85000000056,"y":2546819.5500000026}},{"attributes":{"ID":441834,"DIS_CODE":0,"TOWNNAME":"永康區","LI":"永康里","LIN":"36鄰","STREET":"永平街","SECT":" ","MAREA":" ","LANE":"５６巷","ALLEY":" ","HOUSE_NO":"２號十三樓之１","E_COORD97":174357.70000000001,"N_COORD97":2546819.5499999998,"ADDRESS":"永平街５６巷２號十三樓之１","OBJECTID":441809},"geometry":{"x":174357.70000000112,"y":2546819.5500000026}},{"attributes":{"ID":441835,"DIS_CODE":0,"TOWNNAME":"永康區","LI":"永康里","LIN":"36鄰","STREET":"永平街","SECT":" ","MAREA":" ","LANE":"５６巷","ALLEY":" ","HOUSE_NO":"２號五樓之８","E_COORD97":174356.60000000001,"N_COORD97":2546819.5499999998,"ADDRESS":"永平街５６巷２號五樓之８","OBJECTID":441810},"geometry":{"x":174356.59999999963,"y":2546819.5500000026}},{"attributes":{"ID":441836,"DIS_CODE":0,"TOWNNAME":"永康區","LI":"永康里","LIN":"36鄰","STREET":"永平街","SECT":" ","MAREA":" ","LANE":"５６巷","ALLEY":" ","HOUSE_NO":"２號七樓之８","E_COORD97":174356.60000000001,"N_COORD97":2546819.5499999998,"ADDRESS":"永平街５６巷２號七樓之８","OBJECTID":441811},"geometry":{"x":174356.59999999963,"y":2546819.5500000026}},{"attributes":{"ID":441837,"DIS_CODE":0,"TOWNNAME":"永康區","LI":"永康里","LIN":"36鄰","STREET":"永平街","SECT":" ","MAREA":" ","LANE":"５６巷","ALLEY":" ","HOUSE_NO":"２號十三樓之８","E_COORD97":174357.85000000001,"N_COORD97":2546819.5499999998,"ADDRESS":"永平街５６巷２號十三樓之８","OBJECTID":441812},"geometry":{"x":174357.85000000056,"y":2546819.5500000026}},{"attributes":{"ID":441838,"DIS_CODE":0,"TOWNNAME":"永康區","LI":"永康里","LIN":"36鄰","STREET":"永平街","SECT":" ","MAREA":" ","LANE":"５６巷","ALLEY":" ","HOUSE_NO":"２號十六樓之１０","E_COORD97":174359,"N_COORD97":2546819.5499999998,"ADDRESS":"永平街５６巷２號十六樓之１０","OBJECTID":441813},"geometry":{"x":174359.00000000093,"y":2546819.5500000026}},{"attributes":{"ID":441839,"DIS_CODE":0,"TOWNNAME":"永康區","LI":"永康里","LIN":"36鄰","STREET":"永平街","SECT":" ","MAREA":" ","LANE":"５６巷","ALLEY":" ","HOUSE_NO":"２號五樓之３","E_COORD97":174356.54999999999,"N_COORD97":2546819.5499999998,"ADDRESS":"永平街５６巷２號五樓之３","OBJECTID":441814},"geometry":{"x":174356.55000000075,"y":2546819.5500000026}},{"attributes":{"ID":441840,"DIS_CODE":0,"TOWNNAME":"永康區","LI":"永康里","LIN":"36鄰","STREET":"永平街","SECT":" ","MAREA":" ","LANE":"５６巷","ALLEY":" ","HOUSE_NO":"２號九樓之３","E_COORD97":174356.54999999999,"N_COORD97":2546819.5499999998,"ADDRESS":"永平街５６巷２號九樓之３","OBJECTID":441815},"geometry":{"x":174356.55000000075,"y":2546819.5500000026}},{"attributes":{"ID":441841,"DIS_CODE":0,"TOWNNAME":"永康區","LI":"永康里","LIN":"36鄰","STREET":"永平街","SECT":" ","MAREA":" ","LANE":"５６巷","ALLEY":" ","HOUSE_NO":"２號十五樓之６","E_COORD97":174357.79999999999,"N_COORD97":2546819.5499999998,"ADDRESS":"永平街５６巷２號十五樓之６","OBJECTID":441816},"geometry":{"x":174357.80000000168,"y":2546819.5500000026}},{"attributes":{"ID":441842,"DIS_CODE":0,"TOWNNAME":"永康區","LI":"永康里","LIN":"36鄰","STREET":"永平街","SECT":" ","MAREA":" ","LANE":"５６巷","ALLEY":" ","HOUSE_NO":"２號十八樓之１０","E_COORD97":174359,"N_COORD97":2546819.5499999998,"ADDRESS":"永平街５６巷２號十八樓之１０","OBJECTID":441817},"geometry":{"x":174359.00000000093,"y":2546819.5500000026}},{"attributes":{"ID":441843,"DIS_CODE":0,"TOWNNAME":"永康區","LI":"永康里","LIN":"36鄰","STREET":"永平街","SECT":" ","MAREA":" ","LANE":"５６巷","ALLEY":" ","HOUSE_NO":"２號十二樓之５","E_COORD97":174357.85999999999,"N_COORD97":2546819.5499999998,"ADDRESS":"永平街５６巷２號十二樓之５","OBJECTID":441818},"geometry":{"x":174357.8599999994,"y":2546819.5500000026}},{"attributes":{"ID":441844,"DIS_CODE":0,"TOWNNAME":"永康區","LI":"永康里","LIN":"36鄰","STREET":"永平街","SECT":" ","MAREA":" ","LANE":"５６巷","ALLEY":" ","HOUSE_NO":"２號十二樓之６","E_COORD97":174357.79999999999,"N_COORD97":2546819.5499999998,"ADDRESS":"永平街５６巷２號十二樓之６","OBJECTID":441819},"geometry":{"x":174357.80000000168,"y":2546819.5500000026}},{"attributes":{"ID":441845,"DIS_CODE":0,"TOWNNAME":"永康區","LI":"永康里","LIN":"36鄰","STREET":"永平街","SECT":" ","MAREA":" ","LANE":"５６巷","ALLEY":" ","HOUSE_NO":"２號十一樓之５","E_COORD97":174357.85999999999,"N_COORD97":2546819.5499999998,"ADDRESS":"永平街５６巷２號十一樓之５","OBJECTID":441820},"geometry":{"x":174357.8599999994,"y":2546819.5500000026}},{"attributes":{"ID":441846,"DIS_CODE":0,"TOWNNAME":"永康區","LI":"永康里","LIN":"36鄰","STREET":"永平街","SECT":" ","MAREA":" ","LANE":"５６巷","ALLEY":" ","HOUSE_NO":"２號十七樓之３","E_COORD97":174357.79999999999,"N_COORD97":2546819.5499999998,"ADDRESS":"永平街５６巷２號十七樓之３","OBJECTID":441821},"geometry":{"x":174357.80000000168,"y":2546819.5500000026}},{"attributes":{"ID":441847,"DIS_CODE":0,"TOWNNAME":"永康區","LI":"永康里","LIN":"36鄰","STREET":"永平街","SECT":" ","MAREA":" ","LANE":"５６巷","ALLEY":" ","HOUSE_NO":"２號九樓之７","E_COORD97":174356.53,"N_COORD97":2546819.5499999998,"ADDRESS":"永平街５６巷２號九樓之７","OBJECTID":441822},"geometry":{"x":174356.53000000026,"y":2546819.5500000026}},{"attributes":{"ID":441848,"DIS_CODE":0,"TOWNNAME":"永康區","LI":"永康里","LIN":"36鄰","STREET":"永平街","SECT":" ","MAREA":" ","LANE":"５６巷","ALLEY":" ","HOUSE_NO":"２號五樓之１２","E_COORD97":174357.82999999999,"N_COORD97":2546819.5499999998,"ADDRESS":"永平街５６巷２號五樓之１２","OBJECTID":441823},"geometry":{"x":174357.82999999914,"y":2546819.5500000026}},{"attributes":{"ID":441849,"DIS_CODE":0,"TOWNNAME":"永康區","LI":"永康里","LIN":"36鄰","STREET":"永平街","SECT":" ","MAREA":" ","LANE":"５６巷","ALLEY":" ","HOUSE_NO":"２號十五樓之１","E_COORD97":174357.70000000001,"N_COORD97":2546819.5499999998,"ADDRESS":"永平街５６巷２號十五樓之１","OBJECTID":441824},"geometry":{"x":174357.70000000112,"y":2546819.5500000026}},{"attributes":{"ID":441850,"DIS_CODE":0,"TOWNNAME":"永康區","LI":"永康里","LIN":"36鄰","STREET":"永平街","SECT":" ","MAREA":" ","LANE":"５６巷","ALLEY":" ","HOUSE_NO":"２號十八樓之５","E_COORD97":174357.85999999999,"N_COORD97":2546819.5499999998,"ADDRESS":"永平街５６巷２號十八樓之５","OBJECTID":441825},"geometry":{"x":174357.8599999994,"y":2546819.5500000026}},{"attributes":{"ID":441851,"DIS_CODE":0,"TOWNNAME":"永康區","LI":"永康里","LIN":"36鄰","STREET":"永平街","SECT":" ","MAREA":" ","LANE":"５６巷","ALLEY":" ","HOUSE_NO":"２號九樓之６","E_COORD97":174356.54999999999,"N_COORD97":2546819.5499999998,"ADDRESS":"永平街５６巷２號九樓之６","OBJECTID":441826},"geometry":{"x":174356.55000000075,"y":2546819.5500000026}},{"attributes":{"ID":441852,"DIS_CODE":0,"TOWNNAME":"永康區","LI":"永康里","LIN":"36鄰","STREET":"永平街","SECT":" ","MAREA":" ","LANE":"５６巷","ALLEY":" ","HOUSE_NO":"２號八樓之３","E_COORD97":174356.54999999999,"N_COORD97":2546819.5499999998,"ADDRESS":"永平街５６巷２號八樓之３","OBJECTID":441827},"geometry":{"x":174356.55000000075,"y":2546819.5500000026}},{"attributes":{"ID":441853,"DIS_CODE":0,"TOWNNAME":"永康區","LI":"永康里","LIN":"36鄰","STREET":"永平街","SECT":" ","MAREA":" ","LANE":"５６巷","ALLEY":" ","HOUSE_NO":"２號十七樓之２","E_COORD97":174357.82999999999,"N_COORD97":2546819.5499999998,"ADDRESS":"永平街５６巷２號十七樓之２","OBJECTID":441828},"geometry":{"x":174357.82999999914,"y":2546819.5500000026}},{"attributes":{"ID":441854,"DIS_CODE":0,"TOWNNAME":"永康區","LI":"永康里","LIN":"36鄰","STREET":"永平街","SECT":" ","MAREA":" ","LANE":"５６巷","ALLEY":" ","HOUSE_NO":"２號十六樓之３","E_COORD97":174357.79999999999,"N_COORD97":2546819.5499999998,"ADDRESS":"永平街５６巷２號十六樓之３","OBJECTID":441829},"geometry":{"x":174357.80000000168,"y":2546819.5500000026}},{"attributes":{"ID":441855,"DIS_CODE":0,"TOWNNAME":"永康區","LI":"永康里","LIN":"36鄰","STREET":"永平街","SECT":" ","MAREA":" ","LANE":"５６巷","ALLEY":" ","HOUSE_NO":"２號十八樓之２","E_COORD97":174357.82999999999,"N_COORD97":2546819.5499999998,"ADDRESS":"永平街５６巷２號十八樓之２","OBJECTID":441830},"geometry":{"x":174357.82999999914,"y":2546819.5500000026}},{"attributes":{"ID":441856,"DIS_CODE":0,"TOWNNAME":"永康區","LI":"永康里","LIN":"36鄰","STREET":"永平街","SECT":" ","MAREA":" ","LANE":"５６巷","ALLEY":" ","HOUSE_NO":"２號十六樓之５","E_COORD97":174357.85999999999,"N_COORD97":2546819.5499999998,"ADDRESS":"永平街５６巷２號十六樓之５","OBJECTID":441831},"geometry":{"x":174357.8599999994,"y":2546819.5500000026}},{"attributes":{"ID":441857,"DIS_CODE":0,"TOWNNAME":"永康區","LI":"永康里","LIN":"36鄰","STREET":"永平街","SECT":" ","MAREA":" ","LANE":"５６巷","ALLEY":" ","HOUSE_NO":"２號九樓之５","E_COORD97":174356.60999999999,"N_COORD97":2546819.5499999998,"ADDRESS":"永平街５６巷２號九樓之５","OBJECTID":441832},"geometry":{"x":174356.61000000127,"y":2546819.5500000026}},{"attributes":{"ID":441858,"DIS_CODE":0,"TOWNNAME":"永康區","LI":"永康里","LIN":"36鄰","STREET":"永平街","SECT":" ","MAREA":" ","LANE":"５６巷","ALLEY":" ","HOUSE_NO":"２號十四樓之１０","E_COORD97":174359,"N_COORD97":2546819.5499999998,"ADDRESS":"永平街５６巷２號十四樓之１０","OBJECTID":441833},"geometry":{"x":174359.00000000093,"y":2546819.5500000026}},{"attributes":{"ID":441859,"DIS_CODE":0,"TOWNNAME":"永康區","LI":"永康里","LIN":"36鄰","STREET":"永平街","SECT":" ","MAREA":" ","LANE":"５６巷","ALLEY":" ","HOUSE_NO":"２號十四樓之５","E_COORD97":174357.85999999999,"N_COORD97":2546819.5499999998,"ADDRESS":"永平街５６巷２號十四樓之５","OBJECTID":441834},"geometry":{"x":174357.8599999994,"y":2546819.5500000026}},{"attributes":{"ID":441860,"DIS_CODE":0,"TOWNNAME":"永康區","LI":"永康里","LIN":"36鄰","STREET":"永平街","SECT":" ","MAREA":" ","LANE":"５６巷","ALLEY":" ","HOUSE_NO":"２號十一樓之３","E_COORD97":174357.79999999999,"N_COORD97":2546819.5499999998,"ADDRESS":"永平街５６巷２號十一樓之３","OBJECTID":441835},"geometry":{"x":174357.80000000168,"y":2546819.5500000026}},{"attributes":{"ID":441861,"DIS_CODE":0,"TOWNNAME":"永康區","LI":"永康里","LIN":"36鄰","STREET":"永平街","SECT":" ","MAREA":" ","LANE":"５６巷","ALLEY":" ","HOUSE_NO":"２號六樓之７","E_COORD97":174356.53,"N_COORD97":2546819.5499999998,"ADDRESS":"永平街５６巷２號六樓之７","OBJECTID":441836},"geometry":{"x":174356.53000000026,"y":2546819.5500000026}},{"attributes":{"ID":441862,"DIS_CODE":0,"TOWNNAME":"永康區","LI":"永康里","LIN":"36鄰","STREET":"永平街","SECT":" ","MAREA":" ","LANE":"５６巷","ALLEY":" ","HOUSE_NO":"２號十四樓之６","E_COORD97":174357.79999999999,"N_COORD97":2546819.5499999998,"ADDRESS":"永平街５６巷２號十四樓之６","OBJECTID":441837},"geometry":{"x":174357.80000000168,"y":2546819.5500000026}},{"attributes":{"ID":441863,"DIS_CODE":0,"TOWNNAME":"永康區","LI":"永康里","LIN":"36鄰","STREET":"永平街","SECT":" ","MAREA":" ","LANE":"５６巷","ALLEY":" ","HOUSE_NO":"２號八樓之１２","E_COORD97":174357.82999999999,"N_COORD97":2546819.5499999998,"ADDRESS":"永平街５６巷２號八樓之１２","OBJECTID":441838},"geometry":{"x":174357.82999999914,"y":2546819.5500000026}},{"attributes":{"ID":441864,"DIS_CODE":0,"TOWNNAME":"永康區","LI":"永康里","LIN":"36鄰","STREET":"永平街","SECT":" ","MAREA":" ","LANE":"５６巷","ALLEY":" ","HOUSE_NO":"２號八樓之５","E_COORD97":174356.60999999999,"N_COORD97":2546819.5499999998,"ADDRESS":"永平街５６巷２號八樓之５","OBJECTID":441839},"geometry":{"x":174356.61000000127,"y":2546819.5500000026}},{"attributes":{"ID":441865,"DIS_CODE":0,"TOWNNAME":"永康區","LI":"永康里","LIN":"36鄰","STREET":"永平街","SECT":" ","MAREA":" ","LANE":"５６巷","ALLEY":" ","HOUSE_NO":"２號八樓之６","E_COORD97":174356.54999999999,"N_COORD97":2546819.5499999998,"ADDRESS":"永平街５６巷２號八樓之６","OBJECTID":441840},"geometry":{"x":174356.55000000075,"y":2546819.5500000026}},{"attributes":{"ID":441866,"DIS_CODE":0,"TOWNNAME":"永康區","LI":"永康里","LIN":"36鄰","STREET":"永平街","SECT":" ","MAREA":" ","LANE":"５６巷","ALLEY":" ","HOUSE_NO":"２號十六樓之１","E_COORD97":174357.70000000001,"N_COORD97":2546819.5499999998,"ADDRESS":"永平街５６巷２號十六樓之１","OBJECTID":441841},"geometry":{"x":174357.70000000112,"y":2546819.5500000026}},{"attributes":{"ID":441867,"DIS_CODE":0,"TOWNNAME":"永康區","LI":"永康里","LIN":"36鄰","STREET":"永平街","SECT":" ","MAREA":" ","LANE":"５６巷","ALLEY":" ","HOUSE_NO":"２號九樓之８","E_COORD97":174356.60000000001,"N_COORD97":2546819.5499999998,"ADDRESS":"永平街５６巷２號九樓之８","OBJECTID":441842},"geometry":{"x":174356.59999999963,"y":2546819.5500000026}},{"attributes":{"ID":441868,"DIS_CODE":0,"TOWNNAME":"永康區","LI":"永康里","LIN":"36鄰","STREET":"永平街","SECT":" ","MAREA":" ","LANE":"５６巷","ALLEY":" ","HOUSE_NO":"２號十二樓之２","E_COORD97":174357.82999999999,"N_COORD97":2546819.5499999998,"ADDRESS":"永平街５６巷２號十二樓之２","OBJECTID":441843},"geometry":{"x":174357.82999999914,"y":2546819.5500000026}},{"attributes":{"ID":441869,"DIS_CODE":0,"TOWNNAME":"永康區","LI":"永康里","LIN":"36鄰","STREET":"永平街","SECT":" ","MAREA":" ","LANE":"５６巷","ALLEY":" ","HOUSE_NO":"２號九樓之１０","E_COORD97":174357.75,"N_COORD97":2546819.5499999998,"ADDRESS":"永平街５６巷２號九樓之１０","OBJECTID":441844},"geometry":{"x":174357.75,"y":2546819.5500000026}},{"attributes":{"ID":441870,"DIS_CODE":0,"TOWNNAME":"永康區","LI":"永康里","LIN":"36鄰","STREET":"永平街","SECT":" ","MAREA":" ","LANE":"５６巷","ALLEY":" ","HOUSE_NO":"２號十二樓之１０","E_COORD97":174359,"N_COORD97":2546819.5499999998,"ADDRESS":"永平街５６巷２號十二樓之１０","OBJECTID":441845},"geometry":{"x":174359.00000000093,"y":2546819.5500000026}},{"attributes":{"ID":441871,"DIS_CODE":0,"TOWNNAME":"永康區","LI":"二王里","LIN":"5鄰","STREET":"永二街","SECT":" ","MAREA":" ","LANE":"３５８巷","ALLEY":" ","HOUSE_NO":"５號","E_COORD97":172910.92999999999,"N_COORD97":2546691.7200000002,"ADDRESS":"永二街３５８巷５號","OBJECTID":441846},"geometry":{"x":172910.93000000156,"y":2546691.7200000044}},{"attributes":{"ID":441872,"DIS_CODE":0,"TOWNNAME":"永康區","LI":"永康里","LIN":"36鄰","STREET":"永平街","SECT":" ","MAREA":" ","LANE":"５６巷","ALLEY":" ","HOUSE_NO":"２號五樓之６","E_COORD97":174356.54999999999,"N_COORD97":2546819.5499999998,"ADDRESS":"永平街５６巷２號五樓之６","OBJECTID":441847},"geometry":{"x":174356.55000000075,"y":2546819.5500000026}},{"attributes":{"ID":441873,"DIS_CODE":0,"TOWNNAME":"永康區","LI":"永康里","LIN":"36鄰","STREET":"永平街","SECT":" ","MAREA":" ","LANE":"５６巷","ALLEY":" ","HOUSE_NO":"２號十五樓之２","E_COORD97":174357.82999999999,"N_COORD97":2546819.5499999998,"ADDRESS":"永平街５６巷２號十五樓之２","OBJECTID":441848},"geometry":{"x":174357.82999999914,"y":2546819.5500000026}},{"attributes":{"ID":441874,"DIS_CODE":0,"TOWNNAME":"永康區","LI":"永康里","LIN":"36鄰","STREET":"永平街","SECT":" ","MAREA":" ","LANE":"５６巷","ALLEY":" ","HOUSE_NO":"２號十七樓之６","E_COORD97":174357.79999999999,"N_COORD97":2546819.5499999998,"ADDRESS":"永平街５６巷２號十七樓之６","OBJECTID":441849},"geometry":{"x":174357.80000000168,"y":2546819.5500000026}},{"attributes":{"ID":441875,"DIS_CODE":0,"TOWNNAME":"永康區","LI":"永康里","LIN":"36鄰","STREET":"永平街","SECT":" ","MAREA":" ","LANE":"５６巷","ALLEY":" ","HOUSE_NO":"２號十二樓之３","E_COORD97":174357.79999999999,"N_COORD97":2546819.5499999998,"ADDRESS":"永平街５６巷２號十二樓之３","OBJECTID":441850},"geometry":{"x":174357.80000000168,"y":2546819.5500000026}},{"attributes":{"ID":441876,"DIS_CODE":0,"TOWNNAME":"永康區","LI":"永康里","LIN":"36鄰","STREET":"永平街","SECT":" ","MAREA":" ","LANE":"５６巷","ALLEY":" ","HOUSE_NO":"２號八樓之８","E_COORD97":174356.60000000001,"N_COORD97":2546819.5499999998,"ADDRESS":"永平街５６巷２號八樓之８","OBJECTID":441851},"geometry":{"x":174356.59999999963,"y":2546819.5500000026}},{"attributes":{"ID":441877,"DIS_CODE":0,"TOWNNAME":"永康區","LI":"永康里","LIN":"36鄰","STREET":"永平街","SECT":" ","MAREA":" ","LANE":"５６巷","ALLEY":" ","HOUSE_NO":"２號十三樓之３","E_COORD97":174357.79999999999,"N_COORD97":2546819.5499999998,"ADDRESS":"永平街５６巷２號十三樓之３","OBJECTID":441852},"geometry":{"x":174357.80000000168,"y":2546819.5500000026}},{"attributes":{"ID":441878,"DIS_CODE":0,"TOWNNAME":"永康區","LI":"永康里","LIN":"36鄰","STREET":"永平街","SECT":" ","MAREA":" ","LANE":"５６巷","ALLEY":" ","HOUSE_NO":"２號十六樓之６","E_COORD97":174357.79999999999,"N_COORD97":2546819.5499999998,"ADDRESS":"永平街５６巷２號十六樓之６","OBJECTID":441853},"geometry":{"x":174357.80000000168,"y":2546819.5500000026}},{"attributes":{"ID":441879,"DIS_CODE":0,"TOWNNAME":"永康區","LI":"永康里","LIN":"36鄰","STREET":"永平街","SECT":" ","MAREA":" ","LANE":"５６巷","ALLEY":" ","HOUSE_NO":"２號十七樓之５","E_COORD97":174357.85999999999,"N_COORD97":2546819.5499999998,"ADDRESS":"永平街５６巷２號十七樓之５","OBJECTID":441854},"geometry":{"x":174357.8599999994,"y":2546819.5500000026}},{"attributes":{"ID":441880,"DIS_CODE":0,"TOWNNAME":"永康區","LI":"永康里","LIN":"36鄰","STREET":"永平街","SECT":" ","MAREA":" ","LANE":"５６巷","ALLEY":" ","HOUSE_NO":"２號十一樓之１０","E_COORD97":174359,"N_COORD97":2546819.5499999998,"ADDRESS":"永平街５６巷２號十一樓之１０","OBJECTID":441855},"geometry":{"x":174359.00000000093,"y":2546819.5500000026}},{"attributes":{"ID":441881,"DIS_CODE":0,"TOWNNAME":"永康區","LI":"永康里","LIN":"36鄰","STREET":"永平街","SECT":" ","MAREA":" ","LANE":"５６巷","ALLEY":" ","HOUSE_NO":"２號六樓之２","E_COORD97":174356.57999999999,"N_COORD97":2546819.5499999998,"ADDRESS":"永平街５６巷２號六樓之２","OBJECTID":441856},"geometry":{"x":174356.58000000101,"y":2546819.5500000026}},{"attributes":{"ID":441882,"DIS_CODE":0,"TOWNNAME":"永康區","LI":"永康里","LIN":"36鄰","STREET":"永平街","SECT":" ","MAREA":" ","LANE":"５６巷","ALLEY":" ","HOUSE_NO":"２號七樓之２","E_COORD97":174356.57999999999,"N_COORD97":2546819.5499999998,"ADDRESS":"永平街５６巷２號七樓之２","OBJECTID":441857},"geometry":{"x":174356.58000000101,"y":2546819.5500000026}},{"attributes":{"ID":441883,"DIS_CODE":0,"TOWNNAME":"永康區","LI":"永康里","LIN":"36鄰","STREET":"永平街","SECT":" ","MAREA":" ","LANE":"５６巷","ALLEY":" ","HOUSE_NO":"２號五樓之５","E_COORD97":174356.60999999999,"N_COORD97":2546819.5499999998,"ADDRESS":"永平街５６巷２號五樓之５","OBJECTID":441858},"geometry":{"x":174356.61000000127,"y":2546819.5500000026}},{"attributes":{"ID":441884,"DIS_CODE":0,"TOWNNAME":"永康區","LI":"永康里","LIN":"36鄰","STREET":"永平街","SECT":" ","MAREA":" ","LANE":"５６巷","ALLEY":" ","HOUSE_NO":"２號六樓之１","E_COORD97":174356.45000000001,"N_COORD97":2546819.5499999998,"ADDRESS":"永平街５６巷２號六樓之１","OBJECTID":441859},"geometry":{"x":174356.45000000019,"y":2546819.5500000026}},{"attributes":{"ID":441885,"DIS_CODE":0,"TOWNNAME":"永康區","LI":"永康里","LIN":"36鄰","STREET":"永平街","SECT":" ","MAREA":" ","LANE":"５６巷","ALLEY":" ","HOUSE_NO":"２號四樓之１","E_COORD97":174356.45000000001,"N_COORD97":2546819.5499999998,"ADDRESS":"永平街５６巷２號四樓之１","OBJECTID":441860},"geometry":{"x":174356.45000000019,"y":2546819.5500000026}},{"attributes":{"ID":441886,"DIS_CODE":0,"TOWNNAME":"永康區","LI":"永康里","LIN":"36鄰","STREET":"永平街","SECT":" ","MAREA":" ","LANE":"５６巷","ALLEY":" ","HOUSE_NO":"２號四樓之３","E_COORD97":174356.54999999999,"N_COORD97":2546819.5499999998,"ADDRESS":"永平街５６巷２號四樓之３","OBJECTID":441861},"geometry":{"x":174356.55000000075,"y":2546819.5500000026}},{"attributes":{"ID":441887,"DIS_CODE":0,"TOWNNAME":"永康區","LI":"永康里","LIN":"36鄰","STREET":"永平街","SECT":" ","MAREA":" ","LANE":"５６巷","ALLEY":" ","HOUSE_NO":"２號四樓之１０","E_COORD97":174357.75,"N_COORD97":2546819.5499999998,"ADDRESS":"永平街５６巷２號四樓之１０","OBJECTID":441862},"geometry":{"x":174357.75,"y":2546819.5500000026}},{"attributes":{"ID":441888,"DIS_CODE":0,"TOWNNAME":"永康區","LI":"永康里","LIN":"36鄰","STREET":"永平街","SECT":" ","MAREA":" ","LANE":"５６巷","ALLEY":" ","HOUSE_NO":"２號十樓之２","E_COORD97":174356.57999999999,"N_COORD97":2546819.5499999998,"ADDRESS":"永平街５６巷２號十樓之２","OBJECTID":441863},"geometry":{"x":174356.58000000101,"y":2546819.5500000026}},{"attributes":{"ID":441889,"DIS_CODE":0,"TOWNNAME":"永康區","LI":"永康里","LIN":"36鄰","STREET":"永平街","SECT":" ","MAREA":" ","LANE":"５６巷","ALLEY":" ","HOUSE_NO":"２號六樓之８","E_COORD97":174356.60000000001,"N_COORD97":2546819.5499999998,"ADDRESS":"永平街５６巷２號六樓之８","OBJECTID":441864},"geometry":{"x":174356.59999999963,"y":2546819.5500000026}},{"attributes":{"ID":441890,"DIS_CODE":0,"TOWNNAME":"永康區","LI":"永康里","LIN":"36鄰","STREET":"永平街","SECT":" ","MAREA":" ","LANE":"５６巷","ALLEY":" ","HOUSE_NO":"２號五樓之２","E_COORD97":174356.57999999999,"N_COORD97":2546819.5499999998,"ADDRESS":"永平街５６巷２號五樓之２","OBJECTID":441865},"geometry":{"x":174356.58000000101,"y":2546819.5500000026}},{"attributes":{"ID":441891,"DIS_CODE":0,"TOWNNAME":"大內區","LI":"石湖里","LIN":"6鄰","STREET":" ","SECT":" ","MAREA":"石子瀨","LANE":" ","ALLEY":" ","HOUSE_NO":"２７４號之８","E_COORD97":184011.79556,"N_COORD97":2558497.78951,"ADDRESS":"石子瀨２７４號之８","OBJECTID":441866},"geometry":{"x":184011.79556000046,"y":2558497.7895100024}},{"attributes":{"ID":441892,"DIS_CODE":0,"TOWNNAME":"永康區","LI":"永康里","LIN":"36鄰","STREET":"永平街","SECT":" ","MAREA":" ","LANE":"５６巷","ALLEY":" ","HOUSE_NO":"２號十樓之３","E_COORD97":174356.54999999999,"N_COORD97":2546819.5499999998,"ADDRESS":"永平街５６巷２號十樓之３","OBJECTID":441867},"geometry":{"x":174356.55000000075,"y":2546819.5500000026}},{"attributes":{"ID":441893,"DIS_CODE":0,"TOWNNAME":"永康區","LI":"永康里","LIN":"36鄰","STREET":"永平街","SECT":" ","MAREA":" ","LANE":"５６巷","ALLEY":" ","HOUSE_NO":"２號十五樓之７","E_COORD97":174357.78,"N_COORD97":2546819.5499999998,"ADDRESS":"永平街５６巷２號十五樓之７","OBJECTID":441868},"geometry":{"x":174357.78000000026,"y":2546819.5500000026}},{"attributes":{"ID":441894,"DIS_CODE":0,"TOWNNAME":"東區","LI":"崇文里","LIN":"36鄰","STREET":"崇德二十一街","SECT":" ","MAREA":" ","LANE":"１３８巷","ALLEY":" ","HOUSE_NO":"２６號七樓","E_COORD97":171219.13,"N_COORD97":2540797,"ADDRESS":"崇德二十一街１３８巷２６號七樓","OBJECTID":441869},"geometry":{"x":171219.12999999989,"y":2540797.0000000019}},{"attributes":{"ID":441895,"DIS_CODE":0,"TOWNNAME":"東區","LI":"崇文里","LIN":"36鄰","STREET":"崇德二十一街","SECT":" ","MAREA":" ","LANE":"１３８巷","ALLEY":" ","HOUSE_NO":"２６號七樓之１","E_COORD97":171219.13,"N_COORD97":2540797,"ADDRESS":"崇德二十一街１３８巷２６號七樓之１","OBJECTID":441870},"geometry":{"x":171219.12999999989,"y":2540797.0000000019}},{"attributes":{"ID":441896,"DIS_CODE":0,"TOWNNAME":"東區","LI":"崇文里","LIN":"36鄰","STREET":"崇德二十一街","SECT":" ","MAREA":" ","LANE":"１３８巷","ALLEY":" ","HOUSE_NO":"２６號二樓","E_COORD97":171219.13,"N_COORD97":2540797,"ADDRESS":"崇德二十一街１３８巷２６號二樓","OBJECTID":441871},"geometry":{"x":171219.12999999989,"y":2540797.0000000019}},{"attributes":{"ID":441897,"DIS_CODE":0,"TOWNNAME":"東區","LI":"崇文里","LIN":"36鄰","STREET":"崇德二十一街","SECT":" ","MAREA":" ","LANE":"１３８巷","ALLEY":" ","HOUSE_NO":"２６號二樓之１","E_COORD97":171219.13,"N_COORD97":2540797,"ADDRESS":"崇德二十一街１３８巷２６號二樓之１","OBJECTID":441872},"geometry":{"x":171219.12999999989,"y":2540797.0000000019}},{"attributes":{"ID":441898,"DIS_CODE":0,"TOWNNAME":"東區","LI":"崇文里","LIN":"36鄰","STREET":"崇德二十一街","SECT":" ","MAREA":" ","LANE":"１３８巷","ALLEY":" ","HOUSE_NO":"２６號三樓","E_COORD97":171219.13,"N_COORD97":2540797,"ADDRESS":"崇德二十一街１３８巷２６號三樓","OBJECTID":441873},"geometry":{"x":171219.12999999989,"y":2540797.0000000019}},{"attributes":{"ID":441899,"DIS_CODE":0,"TOWNNAME":"東區","LI":"崇文里","LIN":"36鄰","STREET":"崇德二十一街","SECT":" ","MAREA":" ","LANE":"１３８巷","ALLEY":" ","HOUSE_NO":"２６號三樓之１","E_COORD97":171219.13,"N_COORD97":2540797,"ADDRESS":"崇德二十一街１３８巷２６號三樓之１","OBJECTID":441874},"geometry":{"x":171219.12999999989,"y":2540797.0000000019}},{"attributes":{"ID":441900,"DIS_CODE":0,"TOWNNAME":"東區","LI":"崇文里","LIN":"36鄰","STREET":"崇德二十一街","SECT":" ","MAREA":" ","LANE":"１３８巷","ALLEY":" ","HOUSE_NO":"２６號五樓之１","E_COORD97":171219.13,"N_COORD97":2540797,"ADDRESS":"崇德二十一街１３８巷２６號五樓之１","OBJECTID":441875},"geometry":{"x":171219.12999999989,"y":2540797.0000000019}},{"attributes":{"ID":441901,"DIS_CODE":0,"TOWNNAME":"東區","LI":"崇文里","LIN":"36鄰","STREET":"崇德二十一街","SECT":" ","MAREA":" ","LANE":"１３８巷","ALLEY":" ","HOUSE_NO":"２６號六樓","E_COORD97":171219.13,"N_COORD97":2540797,"ADDRESS":"崇德二十一街１３８巷２６號六樓","OBJECTID":441876},"geometry":{"x":171219.12999999989,"y":2540797.0000000019}},{"attributes":{"ID":441902,"DIS_CODE":0,"TOWNNAME":"東區","LI":"崇文里","LIN":"36鄰","STREET":"崇德二十一街","SECT":" ","MAREA":" ","LANE":"１３８巷","ALLEY":" ","HOUSE_NO":"２６號六樓之１","E_COORD97":171219.13,"N_COORD97":2540797,"ADDRESS":"崇德二十一街１３８巷２６號六樓之１","OBJECTID":441877},"geometry":{"x":171219.12999999989,"y":2540797.0000000019}},{"attributes":{"ID":441903,"DIS_CODE":0,"TOWNNAME":"東區","LI":"崇文里","LIN":"36鄰","STREET":"崇德二十一街","SECT":" ","MAREA":" ","LANE":"１３８巷","ALLEY":" ","HOUSE_NO":"２６號四樓","E_COORD97":171219.13,"N_COORD97":2540797,"ADDRESS":"崇德二十一街１３８巷２６號四樓","OBJECTID":441878},"geometry":{"x":171219.12999999989,"y":2540797.0000000019}},{"attributes":{"ID":441904,"DIS_CODE":0,"TOWNNAME":"永康區","LI":"永康里","LIN":"36鄰","STREET":"永平街","SECT":" ","MAREA":" ","LANE":"５６巷","ALLEY":" ","HOUSE_NO":"２號八樓之２","E_COORD97":174356.57999999999,"N_COORD97":2546819.5499999998,"ADDRESS":"永平街５６巷２號八樓之２","OBJECTID":441879},"geometry":{"x":174356.58000000101,"y":2546819.5500000026}},{"attributes":{"ID":441905,"DIS_CODE":0,"TOWNNAME":"永康區","LI":"崑山里","LIN":"36鄰","STREET":"大仁街","SECT":" ","MAREA":" ","LANE":"１９９巷","ALLEY":" ","HOUSE_NO":"７號二樓之２","E_COORD97":173902.23000000001,"N_COORD97":2545051.79,"ADDRESS":"大仁街１９９巷７號二樓之２","OBJECTID":441880},"geometry":{"x":173902.23000000045,"y":2545051.7899999972}},{"attributes":{"ID":441906,"DIS_CODE":0,"TOWNNAME":"永康區","LI":"崑山里","LIN":"36鄰","STREET":"大仁街","SECT":" ","MAREA":" ","LANE":"１９９巷","ALLEY":" ","HOUSE_NO":"７號六樓之３","E_COORD97":173902.19,"N_COORD97":2545051.79,"ADDRESS":"大仁街１９９巷７號六樓之３","OBJECTID":441881},"geometry":{"x":173902.19000000134,"y":2545051.7899999972}},{"attributes":{"ID":441907,"DIS_CODE":0,"TOWNNAME":"永康區","LI":"崑山里","LIN":"36鄰","STREET":"大仁街","SECT":" ","MAREA":" ","LANE":"１９９巷","ALLEY":" ","HOUSE_NO":"７號六樓之５","E_COORD97":173902.25,"N_COORD97":2545051.79,"ADDRESS":"大仁街１９９巷７號六樓之５","OBJECTID":441882},"geometry":{"x":173902.24999999907,"y":2545051.7899999972}},{"attributes":{"ID":441908,"DIS_CODE":0,"TOWNNAME":"永康區","LI":"崑山里","LIN":"36鄰","STREET":"大仁街","SECT":" ","MAREA":" ","LANE":"１９９巷","ALLEY":" ","HOUSE_NO":"７號五樓之４","E_COORD97":173902.12,"N_COORD97":2545051.79,"ADDRESS":"大仁街１９９巷７號五樓之４","OBJECTID":441883},"geometry":{"x":173902.12000000104,"y":2545051.7899999972}},{"attributes":{"ID":441909,"DIS_CODE":0,"TOWNNAME":"永康區","LI":"東灣里","LIN":"36鄰","STREET":"民族路","SECT":" ","MAREA":" ","LANE":"２７３巷","ALLEY":" ","HOUSE_NO":"３３號七樓之３","E_COORD97":175060.62,"N_COORD97":2544926.4500000002,"ADDRESS":"民族路２７３巷３３號七樓之３","OBJECTID":441884},"geometry":{"x":175060.62000000011,"y":2544926.4500000011}},{"attributes":{"ID":441910,"DIS_CODE":0,"TOWNNAME":"永康區","LI":"東灣里","LIN":"36鄰","STREET":"民族路","SECT":" ","MAREA":" ","LANE":"２７３巷","ALLEY":" ","HOUSE_NO":"３３號八樓之３","E_COORD97":175060.62,"N_COORD97":2544926.4500000002,"ADDRESS":"民族路２７３巷３３號八樓之３","OBJECTID":441885},"geometry":{"x":175060.62000000011,"y":2544926.4500000011}},{"attributes":{"ID":441911,"DIS_CODE":0,"TOWNNAME":"永康區","LI":"東灣里","LIN":"36鄰","STREET":"民族路","SECT":" ","MAREA":" ","LANE":"２７３巷","ALLEY":" ","HOUSE_NO":"３１號五樓之１","E_COORD97":175063.87,"N_COORD97":2544931.2000000002,"ADDRESS":"民族路２７３巷３１號五樓之１","OBJECTID":441886},"geometry":{"x":175063.87000000011,"y":2544931.2000000011}},{"attributes":{"ID":441912,"DIS_CODE":0,"TOWNNAME":"安南區","LI":"布袋里","LIN":"1鄰","STREET":"工明三路","SECT":" ","MAREA":" ","LANE":" ","ALLEY":" ","HOUSE_NO":"５號","E_COORD97":168489.92999999999,"N_COORD97":2551034.3100000001,"ADDRESS":"工明三路５號","OBJECTID":441887},"geometry":{"x":168489.93000000063,"y":2551034.3100000024}},{"attributes":{"ID":441913,"DIS_CODE":0,"TOWNNAME":"永康區","LI":"東灣里","LIN":"36鄰","STREET":"民族路","SECT":" ","MAREA":" ","LANE":"２７３巷","ALLEY":" ","HOUSE_NO":"３３號九樓之２","E_COORD97":175060.66,"N_COORD97":2544926.4500000002,"ADDRESS":"民族路２７３巷３３號九樓之２","OBJECTID":441888},"geometry":{"x":175060.66000000015,"y":2544926.4500000011}},{"attributes":{"ID":441914,"DIS_CODE":0,"TOWNNAME":"永康區","LI":"永康里","LIN":"36鄰","STREET":"永平街","SECT":" ","MAREA":" ","LANE":"５６巷","ALLEY":" ","HOUSE_NO":"２號十五樓之１０","E_COORD97":174359,"N_COORD97":2546819.5499999998,"ADDRESS":"永平街５６巷２號十五樓之１０","OBJECTID":441889},"geometry":{"x":174359.00000000093,"y":2546819.5500000026}},{"attributes":{"ID":441915,"DIS_CODE":0,"TOWNNAME":"永康區","LI":"永康里","LIN":"36鄰","STREET":"永平街","SECT":" ","MAREA":" ","LANE":"５６巷","ALLEY":" ","HOUSE_NO":"２號十三樓之６","E_COORD97":174357.79999999999,"N_COORD97":2546819.5499999998,"ADDRESS":"永平街５６巷２號十三樓之６","OBJECTID":441890},"geometry":{"x":174357.80000000168,"y":2546819.5500000026}},{"attributes":{"ID":441916,"DIS_CODE":0,"TOWNNAME":"永康區","LI":"崑山里","LIN":"36鄰","STREET":"大仁街","SECT":" ","MAREA":" ","LANE":"１９９巷","ALLEY":" ","HOUSE_NO":"７號二樓之３","E_COORD97":173902.19,"N_COORD97":2545051.79,"ADDRESS":"大仁街１９９巷７號二樓之３","OBJECTID":441891},"geometry":{"x":173902.19000000134,"y":2545051.7899999972}},{"attributes":{"ID":441917,"DIS_CODE":0,"TOWNNAME":"永康區","LI":"崑山里","LIN":"36鄰","STREET":"大仁街","SECT":" ","MAREA":" ","LANE":"１９９巷","ALLEY":" ","HOUSE_NO":"７號三樓之２","E_COORD97":173902.23000000001,"N_COORD97":2545051.79,"ADDRESS":"大仁街１９９巷７號三樓之２","OBJECTID":441892},"geometry":{"x":173902.23000000045,"y":2545051.7899999972}},{"attributes":{"ID":441918,"DIS_CODE":0,"TOWNNAME":"永康區","LI":"崑山里","LIN":"36鄰","STREET":"大仁街","SECT":" ","MAREA":" ","LANE":"１９９巷","ALLEY":" ","HOUSE_NO":"７號四樓之５","E_COORD97":173902.25,"N_COORD97":2545051.79,"ADDRESS":"大仁街１９９巷７號四樓之５","OBJECTID":441893},"geometry":{"x":173902.24999999907,"y":2545051.7899999972}},{"attributes":{"ID":441919,"DIS_CODE":0,"TOWNNAME":"永康區","LI":"東灣里","LIN":"36鄰","STREET":"民族路","SECT":" ","MAREA":" ","LANE":"２７３巷","ALLEY":" ","HOUSE_NO":"３１號七樓之２","E_COORD97":175064.01000000001,"N_COORD97":2544931.2000000002,"ADDRESS":"民族路２７３巷３１號七樓之２","OBJECTID":441894},"geometry":{"x":175064.01000000071,"y":2544931.2000000011}},{"attributes":{"ID":441920,"DIS_CODE":0,"TOWNNAME":"永康區","LI":"永康里","LIN":"36鄰","STREET":"永平街","SECT":" ","MAREA":" ","LANE":"５６巷","ALLEY":" ","HOUSE_NO":"２號八樓之１０","E_COORD97":174357.75,"N_COORD97":2546819.5499999998,"ADDRESS":"永平街５６巷２號八樓之１０","OBJECTID":441895},"geometry":{"x":174357.75,"y":2546819.5500000026}},{"attributes":{"ID":441921,"DIS_CODE":0,"TOWNNAME":"大內區","LI":"石湖里","LIN":"6鄰","STREET":" ","SECT":" ","MAREA":"石子瀨","LANE":" ","ALLEY":" ","HOUSE_NO":"２７７號","E_COORD97":184017.516382,"N_COORD97":2558460.7478700001,"ADDRESS":"石子瀨２７７號","OBJECTID":441896},"geometry":{"x":184017.51638200041,"y":2558460.7478730008}},{"attributes":{"ID":441922,"DIS_CODE":0,"TOWNNAME":"永康區","LI":"永康里","LIN":"36鄰","STREET":"永平街","SECT":" ","MAREA":" ","LANE":"５６巷","ALLEY":" ","HOUSE_NO":"２號四樓之６","E_COORD97":174356.54999999999,"N_COORD97":2546819.5499999998,"ADDRESS":"永平街５６巷２號四樓之６","OBJECTID":441897},"geometry":{"x":174356.55000000075,"y":2546819.5500000026}},{"attributes":{"ID":441923,"DIS_CODE":0,"TOWNNAME":"永康區","LI":"永康里","LIN":"36鄰","STREET":"永平街","SECT":" ","MAREA":" ","LANE":"５６巷","ALLEY":" ","HOUSE_NO":"２號十八樓之３","E_COORD97":174357.79999999999,"N_COORD97":2546819.5499999998,"ADDRESS":"永平街５６巷２號十八樓之３","OBJECTID":441898},"geometry":{"x":174357.80000000168,"y":2546819.5500000026}},{"attributes":{"ID":441924,"DIS_CODE":0,"TOWNNAME":"永康區","LI":"永康里","LIN":"36鄰","STREET":"永平街","SECT":" ","MAREA":" ","LANE":"５６巷","ALLEY":" ","HOUSE_NO":"２號六樓之１０","E_COORD97":174357.75,"N_COORD97":2546819.5499999998,"ADDRESS":"永平街５６巷２號六樓之１０","OBJECTID":441899},"geometry":{"x":174357.75,"y":2546819.5500000026}},{"attributes":{"ID":441925,"DIS_CODE":0,"TOWNNAME":"永康區","LI":"永康里","LIN":"36鄰","STREET":"永平街","SECT":" ","MAREA":" ","LANE":"５６巷","ALLEY":" ","HOUSE_NO":"２號五樓之１０","E_COORD97":174357.75,"N_COORD97":2546819.5499999998,"ADDRESS":"永平街５６巷２號五樓之１０","OBJECTID":441900},"geometry":{"x":174357.75,"y":2546819.5500000026}},{"attributes":{"ID":441926,"DIS_CODE":0,"TOWNNAME":"永康區","LI":"永康里","LIN":"36鄰","STREET":"永平街","SECT":" ","MAREA":" ","LANE":"５６巷","ALLEY":" ","HOUSE_NO":"２號七樓之１０","E_COORD97":174357.75,"N_COORD97":2546819.5499999998,"ADDRESS":"永平街５６巷２號七樓之１０","OBJECTID":441901},"geometry":{"x":174357.75,"y":2546819.5500000026}},{"attributes":{"ID":441927,"DIS_CODE":0,"TOWNNAME":"永康區","LI":"永康里","LIN":"36鄰","STREET":"永平街","SECT":" ","MAREA":" ","LANE":"５６巷","ALLEY":" ","HOUSE_NO":"２號九樓之２","E_COORD97":174356.57999999999,"N_COORD97":2546819.5499999998,"ADDRESS":"永平街５６巷２號九樓之２","OBJECTID":441902},"geometry":{"x":174356.58000000101,"y":2546819.5500000026}},{"attributes":{"ID":441928,"DIS_CODE":0,"TOWNNAME":"永康區","LI":"永康里","LIN":"36鄰","STREET":"永平街","SECT":" ","MAREA":" ","LANE":"５６巷","ALLEY":" ","HOUSE_NO":"２號十六樓之２","E_COORD97":174357.82999999999,"N_COORD97":2546819.5499999998,"ADDRESS":"永平街５６巷２號十六樓之２","OBJECTID":441903},"geometry":{"x":174357.82999999914,"y":2546819.5500000026}},{"attributes":{"ID":441929,"DIS_CODE":0,"TOWNNAME":"永康區","LI":"永康里","LIN":"36鄰","STREET":"永平街","SECT":" ","MAREA":" ","LANE":"５６巷","ALLEY":" ","HOUSE_NO":"２號十一樓之６","E_COORD97":174357.79999999999,"N_COORD97":2546819.5499999998,"ADDRESS":"永平街５６巷２號十一樓之６","OBJECTID":441904},"geometry":{"x":174357.80000000168,"y":2546819.5500000026}},{"attributes":{"ID":441930,"DIS_CODE":0,"TOWNNAME":"永康區","LI":"永康里","LIN":"36鄰","STREET":"永平街","SECT":" ","MAREA":" ","LANE":"５６巷","ALLEY":" ","HOUSE_NO":"２號八樓之７","E_COORD97":174356.53,"N_COORD97":2546819.5499999998,"ADDRESS":"永平街５６巷２號八樓之７","OBJECTID":441905},"geometry":{"x":174356.53000000026,"y":2546819.5500000026}},{"attributes":{"ID":441931,"DIS_CODE":0,"TOWNNAME":"永康區","LI":"永康里","LIN":"36鄰","STREET":"永平街","SECT":" ","MAREA":" ","LANE":"５６巷","ALLEY":" ","HOUSE_NO":"２號六樓之５","E_COORD97":174356.60999999999,"N_COORD97":2546819.5499999998,"ADDRESS":"永平街５６巷２號六樓之５","OBJECTID":441906},"geometry":{"x":174356.61000000127,"y":2546819.5500000026}},{"attributes":{"ID":441932,"DIS_CODE":0,"TOWNNAME":"佳里區","LI":"建南里","LIN":"5鄰","STREET":"中和街","SECT":" ","MAREA":" ","LANE":"１０１巷","ALLEY":" ","HOUSE_NO":"６號","E_COORD97":165559.20999999999,"N_COORD97":2562358.8700000001,"ADDRESS":"中和街１０１巷６號","OBJECTID":441907},"geometry":{"x":165559.21000000089,"y":2562358.8700000029}},{"attributes":{"ID":441933,"DIS_CODE":0,"TOWNNAME":"永康區","LI":"永康里","LIN":"36鄰","STREET":"永平街","SECT":" ","MAREA":" ","LANE":"５６巷","ALLEY":" ","HOUSE_NO":"２號十二樓之８","E_COORD97":174357.85000000001,"N_COORD97":2546819.5499999998,"ADDRESS":"永平街５６巷２號十二樓之８","OBJECTID":441908},"geometry":{"x":174357.85000000056,"y":2546819.5500000026}},{"attributes":{"ID":441934,"DIS_CODE":0,"TOWNNAME":"北區","LI":"和順里","LIN":"36鄰","STREET":"公園南路","SECT":" ","MAREA":" ","LANE":"３７０巷","ALLEY":" ","HOUSE_NO":"１８號十四樓之２","E_COORD97":168207.73000000001,"N_COORD97":2544915.8799999999,"ADDRESS":"公園南路３７０巷１８號十四樓之２","OBJECTID":441909},"geometry":{"x":168207.73000000138,"y":2544915.8800000027}},{"attributes":{"ID":441935,"DIS_CODE":0,"TOWNNAME":"北區","LI":"和順里","LIN":"36鄰","STREET":"公園南路","SECT":" ","MAREA":" ","LANE":"３７０巷","ALLEY":" ","HOUSE_NO":"１８號十四樓之３","E_COORD97":168207.73000000001,"N_COORD97":2544915.8799999999,"ADDRESS":"公園南路３７０巷１８號十四樓之３","OBJECTID":441910},"geometry":{"x":168207.73000000138,"y":2544915.8800000027}},{"attributes":{"ID":441936,"DIS_CODE":0,"TOWNNAME":"北區","LI":"和順里","LIN":"36鄰","STREET":"公園南路","SECT":" ","MAREA":" ","LANE":"３７０巷","ALLEY":" ","HOUSE_NO":"１８號十四樓之５","E_COORD97":168207.73000000001,"N_COORD97":2544915.8799999999,"ADDRESS":"公園南路３７０巷１８號十四樓之５","OBJECTID":441911},"geometry":{"x":168207.73000000138,"y":2544915.8800000027}},{"attributes":{"ID":441937,"DIS_CODE":0,"TOWNNAME":"北區","LI":"和順里","LIN":"36鄰","STREET":"公園南路","SECT":" ","MAREA":" ","LANE":"３７０巷","ALLEY":" ","HOUSE_NO":"１８號十樓之１","E_COORD97":168207.73000000001,"N_COORD97":2544915.8799999999,"ADDRESS":"公園南路３７０巷１８號十樓之１","OBJECTID":441912},"geometry":{"x":168207.73000000138,"y":2544915.8800000027}},{"attributes":{"ID":441938,"DIS_CODE":0,"TOWNNAME":"北區","LI":"和順里","LIN":"36鄰","STREET":"公園南路","SECT":" ","MAREA":" ","LANE":"３７０巷","ALLEY":" ","HOUSE_NO":"１８號十樓之２","E_COORD97":168207.73000000001,"N_COORD97":2544915.8799999999,"ADDRESS":"公園南路３７０巷１８號十樓之２","OBJECTID":441913},"geometry":{"x":168207.73000000138,"y":2544915.8800000027}},{"attributes":{"ID":441939,"DIS_CODE":0,"TOWNNAME":"北區","LI":"和順里","LIN":"36鄰","STREET":"公園南路","SECT":" ","MAREA":" ","LANE":"３７０巷","ALLEY":" ","HOUSE_NO":"１８號十樓之３","E_COORD97":168207.73000000001,"N_COORD97":2544915.8799999999,"ADDRESS":"公園南路３７０巷１８號十樓之３","OBJECTID":441914},"geometry":{"x":168207.73000000138,"y":2544915.8800000027}},{"attributes":{"ID":441940,"DIS_CODE":0,"TOWNNAME":"北區","LI":"和順里","LIN":"36鄰","STREET":"公園南路","SECT":" ","MAREA":" ","LANE":"３７０巷","ALLEY":" ","HOUSE_NO":"１８號十樓之５","E_COORD97":168207.73000000001,"N_COORD97":2544915.8799999999,"ADDRESS":"公園南路３７０巷１８號十樓之５","OBJECTID":441915},"geometry":{"x":168207.73000000138,"y":2544915.8800000027}},{"attributes":{"ID":441941,"DIS_CODE":0,"TOWNNAME":"北區","LI":"和順里","LIN":"36鄰","STREET":"公園南路","SECT":" ","MAREA":" ","LANE":"３７０巷","ALLEY":" ","HOUSE_NO":"１８號三樓之１","E_COORD97":168207.73000000001,"N_COORD97":2544915.8799999999,"ADDRESS":"公園南路３７０巷１８號三樓之１","OBJECTID":441916},"geometry":{"x":168207.73000000138,"y":2544915.8800000027}},{"attributes":{"ID":441942,"DIS_CODE":0,"TOWNNAME":"北區","LI":"和順里","LIN":"36鄰","STREET":"公園南路","SECT":" ","MAREA":" ","LANE":"３７０巷","ALLEY":" ","HOUSE_NO":"１８號三樓之２","E_COORD97":168207.73000000001,"N_COORD97":2544915.8799999999,"ADDRESS":"公園南路３７０巷１８號三樓之２","OBJECTID":441917},"geometry":{"x":168207.73000000138,"y":2544915.8800000027}},{"attributes":{"ID":441943,"DIS_CODE":0,"TOWNNAME":"北區","LI":"和順里","LIN":"36鄰","STREET":"公園南路","SECT":" ","MAREA":" ","LANE":"３７０巷","ALLEY":" ","HOUSE_NO":"１８號三樓之３","E_COORD97":168207.73000000001,"N_COORD97":2544915.8799999999,"ADDRESS":"公園南路３７０巷１８號三樓之３","OBJECTID":441918},"geometry":{"x":168207.73000000138,"y":2544915.8800000027}},{"attributes":{"ID":441944,"DIS_CODE":0,"TOWNNAME":"安南區","LI":"布袋里","LIN":"1鄰","STREET":"工明三路","SECT":" ","MAREA":" ","LANE":" ","ALLEY":" ","HOUSE_NO":"８號","E_COORD97":168515.48000000001,"N_COORD97":2551018.4100000001,"ADDRESS":"工明三路８號","OBJECTID":441919},"geometry":{"x":168515.48000000045,"y":2551018.4100000001}},{"attributes":{"ID":441945,"DIS_CODE":0,"TOWNNAME":"北區","LI":"和順里","LIN":"36鄰","STREET":"公園南路","SECT":" ","MAREA":" ","LANE":"３７０巷","ALLEY":" ","HOUSE_NO":"１８號三樓之５","E_COORD97":168207.73000000001,"N_COORD97":2544915.8799999999,"ADDRESS":"公園南路３７０巷１８號三樓之５","OBJECTID":441920},"geometry":{"x":168207.73000000138,"y":2544915.8800000027}},{"attributes":{"ID":441946,"DIS_CODE":0,"TOWNNAME":"北區","LI":"和順里","LIN":"36鄰","STREET":"公園南路","SECT":" ","MAREA":" ","LANE":"３７０巷","ALLEY":" ","HOUSE_NO":"１８號五樓之１","E_COORD97":168207.73000000001,"N_COORD97":2544915.8799999999,"ADDRESS":"公園南路３７０巷１８號五樓之１","OBJECTID":441921},"geometry":{"x":168207.73000000138,"y":2544915.8800000027}},{"attributes":{"ID":441947,"DIS_CODE":0,"TOWNNAME":"北區","LI":"成德里","LIN":"36鄰","STREET":"育德路","SECT":" ","MAREA":" ","LANE":"６０５巷","ALLEY":" ","HOUSE_NO":"９號","E_COORD97":168681.57000000001,"N_COORD97":2546337.96,"ADDRESS":"育德路６０５巷９號","OBJECTID":441922},"geometry":{"x":168681.57000000123,"y":2546337.9600000046}},{"attributes":{"ID":441948,"DIS_CODE":0,"TOWNNAME":"北區","LI":"和順里","LIN":"36鄰","STREET":"公園南路","SECT":" ","MAREA":" ","LANE":"３７０巷","ALLEY":" ","HOUSE_NO":"１８號五樓之２","E_COORD97":168207.73000000001,"N_COORD97":2544915.8799999999,"ADDRESS":"公園南路３７０巷１８號五樓之２","OBJECTID":441923},"geometry":{"x":168207.73000000138,"y":2544915.8800000027}},{"attributes":{"ID":441949,"DIS_CODE":0,"TOWNNAME":"北區","LI":"和順里","LIN":"36鄰","STREET":"公園南路","SECT":" ","MAREA":" ","LANE":"３７０巷","ALLEY":" ","HOUSE_NO":"１８號五樓之３","E_COORD97":168207.73000000001,"N_COORD97":2544915.8799999999,"ADDRESS":"公園南路３７０巷１８號五樓之３","OBJECTID":441924},"geometry":{"x":168207.73000000138,"y":2544915.8800000027}},{"attributes":{"ID":441950,"DIS_CODE":0,"TOWNNAME":"北區","LI":"和順里","LIN":"36鄰","STREET":"公園南路","SECT":" ","MAREA":" ","LANE":"３７０巷","ALLEY":" ","HOUSE_NO":"１８號五樓之５","E_COORD97":168207.73000000001,"N_COORD97":2544915.8799999999,"ADDRESS":"公園南路３７０巷１８號五樓之５","OBJECTID":441925},"geometry":{"x":168207.73000000138,"y":2544915.8800000027}},{"attributes":{"ID":441951,"DIS_CODE":0,"TOWNNAME":"北區","LI":"和順里","LIN":"36鄰","STREET":"公園南路","SECT":" ","MAREA":" ","LANE":"３７０巷","ALLEY":" ","HOUSE_NO":"１８號六樓之１","E_COORD97":168207.73000000001,"N_COORD97":2544915.8799999999,"ADDRESS":"公園南路３７０巷１８號六樓之１","OBJECTID":441926},"geometry":{"x":168207.73000000138,"y":2544915.8800000027}},{"attributes":{"ID":441952,"DIS_CODE":0,"TOWNNAME":"大內區","LI":"石湖里","LIN":"6鄰","STREET":" ","SECT":" ","MAREA":"石子瀨","LANE":" ","ALLEY":" ","HOUSE_NO":"２８４號","E_COORD97":183972.597351,"N_COORD97":2558436.1945500001,"ADDRESS":"石子瀨２８４號","OBJECTID":441927},"geometry":{"x":183972.59735099971,"y":2558436.1945520025}},{"attributes":{"ID":441953,"DIS_CODE":0,"TOWNNAME":"北區","LI":"和順里","LIN":"36鄰","STREET":"公園南路","SECT":" ","MAREA":" ","LANE":"３７０巷","ALLEY":" ","HOUSE_NO":"１８號六樓之２","E_COORD97":168207.73000000001,"N_COORD97":2544915.8799999999,"ADDRESS":"公園南路３７０巷１８號六樓之２","OBJECTID":441928},"geometry":{"x":168207.73000000138,"y":2544915.8800000027}},{"attributes":{"ID":441954,"DIS_CODE":0,"TOWNNAME":"北區","LI":"和順里","LIN":"36鄰","STREET":"公園南路","SECT":" ","MAREA":" ","LANE":"３７０巷","ALLEY":" ","HOUSE_NO":"１８號六樓之３","E_COORD97":168207.73000000001,"N_COORD97":2544915.8799999999,"ADDRESS":"公園南路３７０巷１８號六樓之３","OBJECTID":441929},"geometry":{"x":168207.73000000138,"y":2544915.8800000027}},{"attributes":{"ID":441955,"DIS_CODE":0,"TOWNNAME":"北區","LI":"和順里","LIN":"36鄰","STREET":"公園南路","SECT":" ","MAREA":" ","LANE":"３７０巷","ALLEY":" ","HOUSE_NO":"１８號六樓之５","E_COORD97":168207.73000000001,"N_COORD97":2544915.8799999999,"ADDRESS":"公園南路３７０巷１８號六樓之５","OBJECTID":441930},"geometry":{"x":168207.73000000138,"y":2544915.8800000027}},{"attributes":{"ID":441956,"DIS_CODE":0,"TOWNNAME":"北區","LI":"和順里","LIN":"36鄰","STREET":"公園南路","SECT":" ","MAREA":" ","LANE":"３７０巷","ALLEY":" ","HOUSE_NO":"１８號四樓之１","E_COORD97":168207.73000000001,"N_COORD97":2544915.8799999999,"ADDRESS":"公園南路３７０巷１８號四樓之１","OBJECTID":441931},"geometry":{"x":168207.73000000138,"y":2544915.8800000027}},{"attributes":{"ID":441957,"DIS_CODE":0,"TOWNNAME":"北區","LI":"和順里","LIN":"36鄰","STREET":"公園南路","SECT":" ","MAREA":" ","LANE":"３７０巷","ALLEY":" ","HOUSE_NO":"１８號四樓之２","E_COORD97":168207.73000000001,"N_COORD97":2544915.8799999999,"ADDRESS":"公園南路３７０巷１８號四樓之２","OBJECTID":441932},"geometry":{"x":168207.73000000138,"y":2544915.8800000027}},{"attributes":{"ID":441958,"DIS_CODE":0,"TOWNNAME":"北區","LI":"和順里","LIN":"36鄰","STREET":"公園南路","SECT":" ","MAREA":" ","LANE":"３７０巷","ALLEY":" ","HOUSE_NO":"１８號四樓之３","E_COORD97":168207.73000000001,"N_COORD97":2544915.8799999999,"ADDRESS":"公園南路３７０巷１８號四樓之３","OBJECTID":441933},"geometry":{"x":168207.73000000138,"y":2544915.8800000027}},{"attributes":{"ID":441959,"DIS_CODE":0,"TOWNNAME":"北區","LI":"和順里","LIN":"36鄰","STREET":"公園南路","SECT":" ","MAREA":" ","LANE":"３７０巷","ALLEY":" ","HOUSE_NO":"１８號四樓之５","E_COORD97":168207.73000000001,"N_COORD97":2544915.8799999999,"ADDRESS":"公園南路３７０巷１８號四樓之５","OBJECTID":441934},"geometry":{"x":168207.73000000138,"y":2544915.8800000027}},{"attributes":{"ID":441960,"DIS_CODE":0,"TOWNNAME":"北區","LI":"和順里","LIN":"36鄰","STREET":"公園南路","SECT":" ","MAREA":" ","LANE":"３７０巷","ALLEY":" ","HOUSE_NO":"１９之１號二樓","E_COORD97":168194.39999999999,"N_COORD97":2544934.5299999998,"ADDRESS":"公園南路３７０巷１９之１號二樓","OBJECTID":441935},"geometry":{"x":168194.4000000013,"y":2544934.5299999993}},{"attributes":{"ID":441961,"DIS_CODE":0,"TOWNNAME":"北區","LI":"成德里","LIN":"36鄰","STREET":"育德路","SECT":" ","MAREA":" ","LANE":"５９９巷","ALLEY":" ","HOUSE_NO":"２０號","E_COORD97":168667.94,"N_COORD97":2546326.48,"ADDRESS":"育德路５９９巷２０號","OBJECTID":441936},"geometry":{"x":168667.94000000041,"y":2546326.4800000004}},{"attributes":{"ID":441962,"DIS_CODE":0,"TOWNNAME":"北區","LI":"和順里","LIN":"36鄰","STREET":"公園南路","SECT":" ","MAREA":" ","LANE":"３７０巷","ALLEY":" ","HOUSE_NO":"６號七樓之１","E_COORD97":168199.89000000001,"N_COORD97":2544890.7200000002,"ADDRESS":"公園南路３７０巷６號七樓之１","OBJECTID":441937},"geometry":{"x":168199.88999999966,"y":2544890.7200000007}},{"attributes":{"ID":441963,"DIS_CODE":0,"TOWNNAME":"北區","LI":"和順里","LIN":"36鄰","STREET":"公園南路","SECT":" ","MAREA":" ","LANE":"３７０巷","ALLEY":" ","HOUSE_NO":"６號七樓之２","E_COORD97":168199.89000000001,"N_COORD97":2544890.7200000002,"ADDRESS":"公園南路３７０巷６號七樓之２","OBJECTID":441938},"geometry":{"x":168199.88999999966,"y":2544890.7200000007}},{"attributes":{"ID":441964,"DIS_CODE":0,"TOWNNAME":"北區","LI":"和順里","LIN":"36鄰","STREET":"公園南路","SECT":" ","MAREA":" ","LANE":"３７０巷","ALLEY":" ","HOUSE_NO":"６號七樓之３","E_COORD97":168199.89000000001,"N_COORD97":2544890.7200000002,"ADDRESS":"公園南路３７０巷６號七樓之３","OBJECTID":441939},"geometry":{"x":168199.88999999966,"y":2544890.7200000007}},{"attributes":{"ID":441965,"DIS_CODE":0,"TOWNNAME":"北區","LI":"和順里","LIN":"36鄰","STREET":"公園南路","SECT":" ","MAREA":" ","LANE":"３７０巷","ALLEY":" ","HOUSE_NO":"６號七樓之５","E_COORD97":168199.89000000001,"N_COORD97":2544890.7200000002,"ADDRESS":"公園南路３７０巷６號七樓之５","OBJECTID":441940},"geometry":{"x":168199.88999999966,"y":2544890.7200000007}},{"attributes":{"ID":441966,"DIS_CODE":0,"TOWNNAME":"北區","LI":"和順里","LIN":"36鄰","STREET":"公園南路","SECT":" ","MAREA":" ","LANE":"３７０巷","ALLEY":" ","HOUSE_NO":"６號九樓之１","E_COORD97":168199.89000000001,"N_COORD97":2544890.7200000002,"ADDRESS":"公園南路３７０巷６號九樓之１","OBJECTID":441941},"geometry":{"x":168199.88999999966,"y":2544890.7200000007}},{"attributes":{"ID":441967,"DIS_CODE":0,"TOWNNAME":"北區","LI":"和順里","LIN":"36鄰","STREET":"公園南路","SECT":" ","MAREA":" ","LANE":"３７０巷","ALLEY":" ","HOUSE_NO":"６號九樓之２","E_COORD97":168199.89000000001,"N_COORD97":2544890.7200000002,"ADDRESS":"公園南路３７０巷６號九樓之２","OBJECTID":441942},"geometry":{"x":168199.88999999966,"y":2544890.7200000007}},{"attributes":{"ID":441968,"DIS_CODE":0,"TOWNNAME":"北區","LI":"和順里","LIN":"36鄰","STREET":"公園南路","SECT":" ","MAREA":" ","LANE":"３７０巷","ALLEY":" ","HOUSE_NO":"６號九樓之３","E_COORD97":168199.89000000001,"N_COORD97":2544890.7200000002,"ADDRESS":"公園南路３７０巷６號九樓之３","OBJECTID":441943},"geometry":{"x":168199.88999999966,"y":2544890.7200000007}},{"attributes":{"ID":441969,"DIS_CODE":0,"TOWNNAME":"北區","LI":"和順里","LIN":"36鄰","STREET":"公園南路","SECT":" ","MAREA":" ","LANE":"３７０巷","ALLEY":" ","HOUSE_NO":"６號九樓之５","E_COORD97":168199.89000000001,"N_COORD97":2544890.7200000002,"ADDRESS":"公園南路３７０巷６號九樓之５","OBJECTID":441944},"geometry":{"x":168199.88999999966,"y":2544890.7200000007}},{"attributes":{"ID":441970,"DIS_CODE":0,"TOWNNAME":"北區","LI":"和順里","LIN":"36鄰","STREET":"公園南路","SECT":" ","MAREA":" ","LANE":"３７０巷","ALLEY":" ","HOUSE_NO":"６號八樓之１","E_COORD97":168199.89000000001,"N_COORD97":2544890.7200000002,"ADDRESS":"公園南路３７０巷６號八樓之１","OBJECTID":441945},"geometry":{"x":168199.88999999966,"y":2544890.7200000007}},{"attributes":{"ID":441971,"DIS_CODE":0,"TOWNNAME":"北區","LI":"和順里","LIN":"36鄰","STREET":"公園南路","SECT":" ","MAREA":" ","LANE":"３７０巷","ALLEY":" ","HOUSE_NO":"６號八樓之２","E_COORD97":168199.89000000001,"N_COORD97":2544890.7200000002,"ADDRESS":"公園南路３７０巷６號八樓之２","OBJECTID":441946},"geometry":{"x":168199.88999999966,"y":2544890.7200000007}},{"attributes":{"ID":441972,"DIS_CODE":0,"TOWNNAME":"北區","LI":"和順里","LIN":"36鄰","STREET":"公園南路","SECT":" ","MAREA":" ","LANE":"３７０巷","ALLEY":" ","HOUSE_NO":"６號八樓之３","E_COORD97":168199.89000000001,"N_COORD97":2544890.7200000002,"ADDRESS":"公園南路３７０巷６號八樓之３","OBJECTID":441947},"geometry":{"x":168199.88999999966,"y":2544890.7200000007}},{"attributes":{"ID":441973,"DIS_CODE":0,"TOWNNAME":"北區","LI":"和順里","LIN":"36鄰","STREET":"公園南路","SECT":" ","MAREA":" ","LANE":"３７０巷","ALLEY":" ","HOUSE_NO":"６號八樓之５","E_COORD97":168199.89000000001,"N_COORD97":2544890.7200000002,"ADDRESS":"公園南路３７０巷６號八樓之５","OBJECTID":441948},"geometry":{"x":168199.88999999966,"y":2544890.7200000007}},{"attributes":{"ID":441974,"DIS_CODE":0,"TOWNNAME":"北區","LI":"和順里","LIN":"36鄰","STREET":"公園南路","SECT":" ","MAREA":" ","LANE":"３７０巷","ALLEY":" ","HOUSE_NO":"６號十一樓之１","E_COORD97":168199.89000000001,"N_COORD97":2544890.7200000002,"ADDRESS":"公園南路３７０巷６號十一樓之１","OBJECTID":441949},"geometry":{"x":168199.88999999966,"y":2544890.7200000007}},{"attributes":{"ID":441975,"DIS_CODE":0,"TOWNNAME":"安南區","LI":"布袋里","LIN":"1鄰","STREET":"工明三路","SECT":" ","MAREA":" ","LANE":" ","ALLEY":" ","HOUSE_NO":"１０號","E_COORD97":168517.70000000001,"N_COORD97":2551025.79,"ADDRESS":"工明三路１０號","OBJECTID":441950},"geometry":{"x":168517.70000000112,"y":2551025.7900000028}},{"attributes":{"ID":441976,"DIS_CODE":0,"TOWNNAME":"關廟區","LI":"東勢里","LIN":"14鄰","STREET":"東榮街","SECT":" ","MAREA":" ","LANE":"９２巷","ALLEY":" ","HOUSE_NO":"７號","E_COORD97":182105.51999999999,"N_COORD97":2539300.25,"ADDRESS":"東榮街９２巷７號","OBJECTID":441951},"geometry":{"x":182105.52000000048,"y":2539300.2500000019}},{"attributes":{"ID":441977,"DIS_CODE":0,"TOWNNAME":"北區","LI":"和順里","LIN":"36鄰","STREET":"公園南路","SECT":" ","MAREA":" ","LANE":"３７０巷","ALLEY":" ","HOUSE_NO":"６號十一樓之２","E_COORD97":168199.89000000001,"N_COORD97":2544890.7200000002,"ADDRESS":"公園南路３７０巷６號十一樓之２","OBJECTID":441952},"geometry":{"x":168199.88999999966,"y":2544890.7200000007}},{"attributes":{"ID":441978,"DIS_CODE":0,"TOWNNAME":"北區","LI":"和順里","LIN":"36鄰","STREET":"公園南路","SECT":" ","MAREA":" ","LANE":"３７０巷","ALLEY":" ","HOUSE_NO":"６號十一樓之３","E_COORD97":168199.89000000001,"N_COORD97":2544890.7200000002,"ADDRESS":"公園南路３７０巷６號十一樓之３","OBJECTID":441953},"geometry":{"x":168199.88999999966,"y":2544890.7200000007}},{"attributes":{"ID":441979,"DIS_CODE":0,"TOWNNAME":"北區","LI":"和順里","LIN":"36鄰","STREET":"公園南路","SECT":" ","MAREA":" ","LANE":"３７０巷","ALLEY":" ","HOUSE_NO":"６號十一樓之５","E_COORD97":168199.89000000001,"N_COORD97":2544890.7200000002,"ADDRESS":"公園南路３７０巷６號十一樓之５","OBJECTID":441954},"geometry":{"x":168199.88999999966,"y":2544890.7200000007}},{"attributes":{"ID":441980,"DIS_CODE":0,"TOWNNAME":"北區","LI":"和順里","LIN":"36鄰","STREET":"公園南路","SECT":" ","MAREA":" ","LANE":"３７０巷","ALLEY":" ","HOUSE_NO":"６號十二樓之１","E_COORD97":168199.89000000001,"N_COORD97":2544890.7200000002,"ADDRESS":"公園南路３７０巷６號十二樓之１","OBJECTID":441955},"geometry":{"x":168199.88999999966,"y":2544890.7200000007}},{"attributes":{"ID":441981,"DIS_CODE":0,"TOWNNAME":"北區","LI":"和順里","LIN":"36鄰","STREET":"公園南路","SECT":" ","MAREA":" ","LANE":"３７０巷","ALLEY":" ","HOUSE_NO":"６號十二樓之２","E_COORD97":168199.89000000001,"N_COORD97":2544890.7200000002,"ADDRESS":"公園南路３７０巷６號十二樓之２","OBJECTID":441956},"geometry":{"x":168199.88999999966,"y":2544890.7200000007}},{"attributes":{"ID":441982,"DIS_CODE":0,"TOWNNAME":"北區","LI":"和順里","LIN":"36鄰","STREET":"公園南路","SECT":" ","MAREA":" ","LANE":"３７０巷","ALLEY":" ","HOUSE_NO":"６號十二樓之３","E_COORD97":168199.89000000001,"N_COORD97":2544890.7200000002,"ADDRESS":"公園南路３７０巷６號十二樓之３","OBJECTID":441957},"geometry":{"x":168199.88999999966,"y":2544890.7200000007}},{"attributes":{"ID":441983,"DIS_CODE":0,"TOWNNAME":"北區","LI":"和順里","LIN":"36鄰","STREET":"公園南路","SECT":" ","MAREA":" ","LANE":"３７０巷","ALLEY":" ","HOUSE_NO":"６號十二樓之５","E_COORD97":168199.89000000001,"N_COORD97":2544890.7200000002,"ADDRESS":"公園南路３７０巷６號十二樓之５","OBJECTID":441958},"geometry":{"x":168199.88999999966,"y":2544890.7200000007}},{"attributes":{"ID":441984,"DIS_CODE":0,"TOWNNAME":"北區","LI":"和順里","LIN":"36鄰","STREET":"公園南路","SECT":" ","MAREA":" ","LANE":"３７０巷","ALLEY":" ","HOUSE_NO":"６號十三樓之１","E_COORD97":168199.89000000001,"N_COORD97":2544890.7200000002,"ADDRESS":"公園南路３７０巷６號十三樓之１","OBJECTID":441959},"geometry":{"x":168199.88999999966,"y":2544890.7200000007}},{"attributes":{"ID":441985,"DIS_CODE":0,"TOWNNAME":"北區","LI":"和順里","LIN":"36鄰","STREET":"公園南路","SECT":" ","MAREA":" ","LANE":"３７０巷","ALLEY":" ","HOUSE_NO":"６號十三樓之２","E_COORD97":168199.89000000001,"N_COORD97":2544890.7200000002,"ADDRESS":"公園南路３７０巷６號十三樓之２","OBJECTID":441960},"geometry":{"x":168199.88999999966,"y":2544890.7200000007}},{"attributes":{"ID":441986,"DIS_CODE":0,"TOWNNAME":"北區","LI":"和順里","LIN":"36鄰","STREET":"公園南路","SECT":" ","MAREA":" ","LANE":"３７０巷","ALLEY":" ","HOUSE_NO":"６號十三樓之３","E_COORD97":168199.89000000001,"N_COORD97":2544890.7200000002,"ADDRESS":"公園南路３７０巷６號十三樓之３","OBJECTID":441961},"geometry":{"x":168199.88999999966,"y":2544890.7200000007}},{"attributes":{"ID":441987,"DIS_CODE":0,"TOWNNAME":"北區","LI":"和順里","LIN":"36鄰","STREET":"公園南路","SECT":" ","MAREA":" ","LANE":"３７０巷","ALLEY":" ","HOUSE_NO":"６號十三樓之５","E_COORD97":168199.89000000001,"N_COORD97":2544890.7200000002,"ADDRESS":"公園南路３７０巷６號十三樓之５","OBJECTID":441962},"geometry":{"x":168199.88999999966,"y":2544890.7200000007}},{"attributes":{"ID":441988,"DIS_CODE":0,"TOWNNAME":"北區","LI":"和順里","LIN":"36鄰","STREET":"公園南路","SECT":" ","MAREA":" ","LANE":"３７０巷","ALLEY":" ","HOUSE_NO":"６號十五樓之１","E_COORD97":168199.89000000001,"N_COORD97":2544890.7200000002,"ADDRESS":"公園南路３７０巷６號十五樓之１","OBJECTID":441963},"geometry":{"x":168199.88999999966,"y":2544890.7200000007}},{"attributes":{"ID":441989,"DIS_CODE":0,"TOWNNAME":"北區","LI":"和順里","LIN":"36鄰","STREET":"公園南路","SECT":" ","MAREA":" ","LANE":"３７０巷","ALLEY":" ","HOUSE_NO":"６號十五樓之２","E_COORD97":168199.89000000001,"N_COORD97":2544890.7200000002,"ADDRESS":"公園南路３７０巷６號十五樓之２","OBJECTID":441964},"geometry":{"x":168199.88999999966,"y":2544890.7200000007}},{"attributes":{"ID":441990,"DIS_CODE":0,"TOWNNAME":"北區","LI":"和順里","LIN":"36鄰","STREET":"公園南路","SECT":" ","MAREA":" ","LANE":"３７０巷","ALLEY":" ","HOUSE_NO":"６號十五樓之３","E_COORD97":168199.89000000001,"N_COORD97":2544890.7200000002,"ADDRESS":"公園南路３７０巷６號十五樓之３","OBJECTID":441965},"geometry":{"x":168199.88999999966,"y":2544890.7200000007}},{"attributes":{"ID":441991,"DIS_CODE":0,"TOWNNAME":"北區","LI":"和順里","LIN":"36鄰","STREET":"公園南路","SECT":" ","MAREA":" ","LANE":"３７０巷","ALLEY":" ","HOUSE_NO":"６號十五樓之５","E_COORD97":168199.89000000001,"N_COORD97":2544890.7200000002,"ADDRESS":"公園南路３７０巷６號十五樓之５","OBJECTID":441966},"geometry":{"x":168199.88999999966,"y":2544890.7200000007}},{"attributes":{"ID":441992,"DIS_CODE":0,"TOWNNAME":"北區","LI":"和順里","LIN":"36鄰","STREET":"公園南路","SECT":" ","MAREA":" ","LANE":"３７０巷","ALLEY":" ","HOUSE_NO":"６號十六樓之１","E_COORD97":168199.89000000001,"N_COORD97":2544890.7200000002,"ADDRESS":"公園南路３７０巷６號十六樓之１","OBJECTID":441967},"geometry":{"x":168199.88999999966,"y":2544890.7200000007}},{"attributes":{"ID":441993,"DIS_CODE":0,"TOWNNAME":"北區","LI":"和順里","LIN":"36鄰","STREET":"公園南路","SECT":" ","MAREA":" ","LANE":"３７０巷","ALLEY":" ","HOUSE_NO":"６號十六樓之５","E_COORD97":168199.89000000001,"N_COORD97":2544890.7200000002,"ADDRESS":"公園南路３７０巷６號十六樓之５","OBJECTID":441968},"geometry":{"x":168199.88999999966,"y":2544890.7200000007}},{"attributes":{"ID":441994,"DIS_CODE":0,"TOWNNAME":"北區","LI":"和順里","LIN":"36鄰","STREET":"公園南路","SECT":" ","MAREA":" ","LANE":"３７０巷","ALLEY":" ","HOUSE_NO":"６號十四樓之１","E_COORD97":168199.89000000001,"N_COORD97":2544890.7200000002,"ADDRESS":"公園南路３７０巷６號十四樓之１","OBJECTID":441969},"geometry":{"x":168199.88999999966,"y":2544890.7200000007}},{"attributes":{"ID":441995,"DIS_CODE":0,"TOWNNAME":"北區","LI":"和順里","LIN":"36鄰","STREET":"公園南路","SECT":" ","MAREA":" ","LANE":"３７０巷","ALLEY":" ","HOUSE_NO":"６號十四樓之２","E_COORD97":168199.89000000001,"N_COORD97":2544890.7200000002,"ADDRESS":"公園南路３７０巷６號十四樓之２","OBJECTID":441970},"geometry":{"x":168199.88999999966,"y":2544890.7200000007}},{"attributes":{"ID":441996,"DIS_CODE":0,"TOWNNAME":"北區","LI":"和順里","LIN":"36鄰","STREET":"公園南路","SECT":" ","MAREA":" ","LANE":"３７０巷","ALLEY":" ","HOUSE_NO":"６號十四樓之３","E_COORD97":168199.89000000001,"N_COORD97":2544890.7200000002,"ADDRESS":"公園南路３７０巷６號十四樓之３","OBJECTID":441971},"geometry":{"x":168199.88999999966,"y":2544890.7200000007}},{"attributes":{"ID":441997,"DIS_CODE":0,"TOWNNAME":"北區","LI":"和順里","LIN":"36鄰","STREET":"公園南路","SECT":" ","MAREA":" ","LANE":"３７０巷","ALLEY":" ","HOUSE_NO":"６號十四樓之５","E_COORD97":168199.89000000001,"N_COORD97":2544890.7200000002,"ADDRESS":"公園南路３７０巷６號十四樓之５","OBJECTID":441972},"geometry":{"x":168199.88999999966,"y":2544890.7200000007}},{"attributes":{"ID":441998,"DIS_CODE":0,"TOWNNAME":"北區","LI":"和順里","LIN":"36鄰","STREET":"公園南路","SECT":" ","MAREA":" ","LANE":"３７０巷","ALLEY":" ","HOUSE_NO":"６號十樓之１","E_COORD97":168199.89000000001,"N_COORD97":2544890.7200000002,"ADDRESS":"公園南路３７０巷６號十樓之１","OBJECTID":441973},"geometry":{"x":168199.88999999966,"y":2544890.7200000007}},{"attributes":{"ID":441999,"DIS_CODE":0,"TOWNNAME":"北區","LI":"和順里","LIN":"36鄰","STREET":"公園南路","SECT":" ","MAREA":" ","LANE":"３７０巷","ALLEY":" ","HOUSE_NO":"６號十樓之２","E_COORD97":168199.89000000001,"N_COORD97":2544890.7200000002,"ADDRESS":"公園南路３７０巷６號十樓之２","OBJECTID":441974},"geometry":{"x":168199.88999999966,"y":2544890.7200000007}},{"attributes":{"ID":442000,"DIS_CODE":0,"TOWNNAME":"北區","LI":"和順里","LIN":"36鄰","STREET":"公園南路","SECT":" ","MAREA":" ","LANE":"３７０巷","ALLEY":" ","HOUSE_NO":"６號十樓之３","E_COORD97":168199.89000000001,"N_COORD97":2544890.7200000002,"ADDRESS":"公園南路３７０巷６號十樓之３","OBJECTID":441975},"geometry":{"x":168199.88999999966,"y":2544890.7200000007}},{"attributes":{"ID":442001,"DIS_CODE":0,"TOWNNAME":"北區","LI":"和順里","LIN":"36鄰","STREET":"公園南路","SECT":" ","MAREA":" ","LANE":"３７０巷","ALLEY":" ","HOUSE_NO":"６號十樓之５","E_COORD97":168199.89000000001,"N_COORD97":2544890.7200000002,"ADDRESS":"公園南路３７０巷６號十樓之５","OBJECTID":441976},"geometry":{"x":168199.88999999966,"y":2544890.7200000007}},{"attributes":{"ID":442002,"DIS_CODE":0,"TOWNNAME":"北區","LI":"和順里","LIN":"36鄰","STREET":"公園南路","SECT":" ","MAREA":" ","LANE":"３７０巷","ALLEY":" ","HOUSE_NO":"６號三樓之１","E_COORD97":168199.89000000001,"N_COORD97":2544890.7200000002,"ADDRESS":"公園南路３７０巷６號三樓之１","OBJECTID":441977},"geometry":{"x":168199.88999999966,"y":2544890.7200000007}},{"attributes":{"ID":442003,"DIS_CODE":0,"TOWNNAME":"北區","LI":"和順里","LIN":"36鄰","STREET":"公園南路","SECT":" ","MAREA":" ","LANE":"３７０巷","ALLEY":" ","HOUSE_NO":"６號三樓之２","E_COORD97":168199.89000000001,"N_COORD97":2544890.7200000002,"ADDRESS":"公園南路３７０巷６號三樓之２","OBJECTID":441978},"geometry":{"x":168199.88999999966,"y":2544890.7200000007}},{"attributes":{"ID":442004,"DIS_CODE":0,"TOWNNAME":"東區","LI":"崇文里","LIN":"40鄰","STREET":"生產路","SECT":" ","MAREA":" ","LANE":" ","ALLEY":" ","HOUSE_NO":"２６９號二樓","E_COORD97":170885.10999999999,"N_COORD97":2540617.8100000001,"ADDRESS":"生產路２６９號二樓","OBJECTID":441979},"geometry":{"x":170885.11000000127,"y":2540617.8100000005}},{"attributes":{"ID":442005,"DIS_CODE":0,"TOWNNAME":"北區","LI":"和順里","LIN":"36鄰","STREET":"公園南路","SECT":" ","MAREA":" ","LANE":"３７０巷","ALLEY":" ","HOUSE_NO":"６號三樓之３","E_COORD97":168199.89000000001,"N_COORD97":2544890.7200000002,"ADDRESS":"公園南路３７０巷６號三樓之３","OBJECTID":441980},"geometry":{"x":168199.88999999966,"y":2544890.7200000007}},{"attributes":{"ID":442006,"DIS_CODE":0,"TOWNNAME":"北區","LI":"和順里","LIN":"36鄰","STREET":"公園南路","SECT":" ","MAREA":" ","LANE":"３７０巷","ALLEY":" ","HOUSE_NO":"６號三樓之５","E_COORD97":168199.89000000001,"N_COORD97":2544890.7200000002,"ADDRESS":"公園南路３７０巷６號三樓之５","OBJECTID":441981},"geometry":{"x":168199.88999999966,"y":2544890.7200000007}},{"attributes":{"ID":442007,"DIS_CODE":0,"TOWNNAME":"北區","LI":"和順里","LIN":"36鄰","STREET":"公園南路","SECT":" ","MAREA":" ","LANE":"３７０巷","ALLEY":" ","HOUSE_NO":"６號五樓之１","E_COORD97":168199.89000000001,"N_COORD97":2544890.7200000002,"ADDRESS":"公園南路３７０巷６號五樓之１","OBJECTID":441982},"geometry":{"x":168199.88999999966,"y":2544890.7200000007}},{"attributes":{"ID":442008,"DIS_CODE":0,"TOWNNAME":"北區","LI":"和順里","LIN":"36鄰","STREET":"公園南路","SECT":" ","MAREA":" ","LANE":"３７０巷","ALLEY":" ","HOUSE_NO":"６號五樓之２","E_COORD97":168199.89000000001,"N_COORD97":2544890.7200000002,"ADDRESS":"公園南路３７０巷６號五樓之２","OBJECTID":441983},"geometry":{"x":168199.88999999966,"y":2544890.7200000007}},{"attributes":{"ID":442009,"DIS_CODE":0,"TOWNNAME":"北區","LI":"和順里","LIN":"36鄰","STREET":"公園南路","SECT":" ","MAREA":" ","LANE":"３７０巷","ALLEY":" ","HOUSE_NO":"６號五樓之３","E_COORD97":168199.89000000001,"N_COORD97":2544890.7200000002,"ADDRESS":"公園南路３７０巷６號五樓之３","OBJECTID":441984},"geometry":{"x":168199.88999999966,"y":2544890.7200000007}},{"attributes":{"ID":442010,"DIS_CODE":0,"TOWNNAME":"北區","LI":"和順里","LIN":"36鄰","STREET":"公園南路","SECT":" ","MAREA":" ","LANE":"３７０巷","ALLEY":" ","HOUSE_NO":"６號五樓之５","E_COORD97":168199.89000000001,"N_COORD97":2544890.7200000002,"ADDRESS":"公園南路３７０巷６號五樓之５","OBJECTID":441985},"geometry":{"x":168199.88999999966,"y":2544890.7200000007}},{"attributes":{"ID":442011,"DIS_CODE":0,"TOWNNAME":"北區","LI":"和順里","LIN":"36鄰","STREET":"公園南路","SECT":" ","MAREA":" ","LANE":"３７０巷","ALLEY":" ","HOUSE_NO":"６號六樓之１","E_COORD97":168199.89000000001,"N_COORD97":2544890.7200000002,"ADDRESS":"公園南路３７０巷６號六樓之１","OBJECTID":441986},"geometry":{"x":168199.88999999966,"y":2544890.7200000007}},{"attributes":{"ID":442012,"DIS_CODE":0,"TOWNNAME":"北區","LI":"和順里","LIN":"36鄰","STREET":"公園南路","SECT":" ","MAREA":" ","LANE":"３７０巷","ALLEY":" ","HOUSE_NO":"６號六樓之２","E_COORD97":168199.89000000001,"N_COORD97":2544890.7200000002,"ADDRESS":"公園南路３７０巷６號六樓之２","OBJECTID":441987},"geometry":{"x":168199.88999999966,"y":2544890.7200000007}},{"attributes":{"ID":442013,"DIS_CODE":0,"TOWNNAME":"北區","LI":"和順里","LIN":"36鄰","STREET":"公園南路","SECT":" ","MAREA":" ","LANE":"３７０巷","ALLEY":" ","HOUSE_NO":"６號六樓之３","E_COORD97":168199.89000000001,"N_COORD97":2544890.7200000002,"ADDRESS":"公園南路３７０巷６號六樓之３","OBJECTID":441988},"geometry":{"x":168199.88999999966,"y":2544890.7200000007}},{"attributes":{"ID":442014,"DIS_CODE":0,"TOWNNAME":"北區","LI":"和順里","LIN":"36鄰","STREET":"公園南路","SECT":" ","MAREA":" ","LANE":"３７０巷","ALLEY":" ","HOUSE_NO":"６號六樓之５","E_COORD97":168199.89000000001,"N_COORD97":2544890.7200000002,"ADDRESS":"公園南路３７０巷６號六樓之５","OBJECTID":441989},"geometry":{"x":168199.88999999966,"y":2544890.7200000007}},{"attributes":{"ID":442015,"DIS_CODE":0,"TOWNNAME":"北區","LI":"和順里","LIN":"36鄰","STREET":"公園南路","SECT":" ","MAREA":" ","LANE":"３７０巷","ALLEY":" ","HOUSE_NO":"６號四樓之１","E_COORD97":168199.89000000001,"N_COORD97":2544890.7200000002,"ADDRESS":"公園南路３７０巷６號四樓之１","OBJECTID":441990},"geometry":{"x":168199.88999999966,"y":2544890.7200000007}},{"attributes":{"ID":442016,"DIS_CODE":0,"TOWNNAME":"北區","LI":"和順里","LIN":"36鄰","STREET":"公園南路","SECT":" ","MAREA":" ","LANE":"３７０巷","ALLEY":" ","HOUSE_NO":"６號四樓之２","E_COORD97":168199.89000000001,"N_COORD97":2544890.7200000002,"ADDRESS":"公園南路３７０巷６號四樓之２","OBJECTID":441991},"geometry":{"x":168199.88999999966,"y":2544890.7200000007}},{"attributes":{"ID":442017,"DIS_CODE":0,"TOWNNAME":"北區","LI":"和順里","LIN":"36鄰","STREET":"公園南路","SECT":" ","MAREA":" ","LANE":"３７０巷","ALLEY":" ","HOUSE_NO":"６號四樓之３","E_COORD97":168199.89000000001,"N_COORD97":2544890.7200000002,"ADDRESS":"公園南路３７０巷６號四樓之３","OBJECTID":441992},"geometry":{"x":168199.88999999966,"y":2544890.7200000007}},{"attributes":{"ID":442018,"DIS_CODE":0,"TOWNNAME":"北區","LI":"和順里","LIN":"36鄰","STREET":"公園南路","SECT":" ","MAREA":" ","LANE":"３７０巷","ALLEY":" ","HOUSE_NO":"６號四樓之５","E_COORD97":168199.89000000001,"N_COORD97":2544890.7200000002,"ADDRESS":"公園南路３７０巷６號四樓之５","OBJECTID":441993},"geometry":{"x":168199.88999999966,"y":2544890.7200000007}},{"attributes":{"ID":442019,"DIS_CODE":0,"TOWNNAME":"北區","LI":"和順里","LIN":"36鄰","STREET":"公園南路","SECT":" ","MAREA":" ","LANE":"３７０巷","ALLEY":" ","HOUSE_NO":"９之１號二樓","E_COORD97":168184.07999999999,"N_COORD97":2544901.3999999999,"ADDRESS":"公園南路３７０巷９之１號二樓","OBJECTID":441994},"geometry":{"x":168184.08000000194,"y":2544901.4000000022}},{"attributes":{"ID":442020,"DIS_CODE":0,"TOWNNAME":"歸仁區","LI":"辜厝里","LIN":"36鄰","STREET":"中正南路","SECT":"一段","MAREA":" ","LANE":"２１８巷","ALLEY":" ","HOUSE_NO":"２５號四樓之３","E_COORD97":177261.95999999999,"N_COORD97":2540344.2599999998,"ADDRESS":"中正南路一段２１８巷２５號四樓之３","OBJECTID":441995},"geometry":{"x":177261.95999999996,"y":2540344.2600000016}},{"attributes":{"ID":442021,"DIS_CODE":0,"TOWNNAME":"歸仁區","LI":"辜厝里","LIN":"36鄰","STREET":"中正南路","SECT":"一段","MAREA":" ","LANE":"２１８巷","ALLEY":" ","HOUSE_NO":"２５號一樓之１","E_COORD97":177261.94,"N_COORD97":2540344.2599999998,"ADDRESS":"中正南路一段２１８巷２５號一樓之１","OBJECTID":441996},"geometry":{"x":177261.94000000134,"y":2540344.2600000016}},{"attributes":{"ID":442022,"DIS_CODE":0,"TOWNNAME":"歸仁區","LI":"辜厝里","LIN":"36鄰","STREET":"中正南路","SECT":"一段","MAREA":" ","LANE":"２１８巷","ALLEY":" ","HOUSE_NO":"２５號一樓之３","E_COORD97":177261.95999999999,"N_COORD97":2540344.2599999998,"ADDRESS":"中正南路一段２１８巷２５號一樓之３","OBJECTID":441997},"geometry":{"x":177261.95999999996,"y":2540344.2600000016}},{"attributes":{"ID":442023,"DIS_CODE":0,"TOWNNAME":"歸仁區","LI":"辜厝里","LIN":"36鄰","STREET":"中正南路","SECT":"一段","MAREA":" ","LANE":"２１８巷","ALLEY":" ","HOUSE_NO":"２５號五樓之１","E_COORD97":177261.94,"N_COORD97":2540344.2599999998,"ADDRESS":"中正南路一段２１８巷２５號五樓之１","OBJECTID":441998},"geometry":{"x":177261.94000000134,"y":2540344.2600000016}},{"attributes":{"ID":442024,"DIS_CODE":0,"TOWNNAME":"歸仁區","LI":"辜厝里","LIN":"36鄰","STREET":"中正南路","SECT":"一段","MAREA":" ","LANE":"２１８巷","ALLEY":" ","HOUSE_NO":"２５號三樓之１","E_COORD97":177261.94,"N_COORD97":2540344.2599999998,"ADDRESS":"中正南路一段２１８巷２５號三樓之１","OBJECTID":441999},"geometry":{"x":177261.94000000134,"y":2540344.2600000016}},{"attributes":{"ID":442025,"DIS_CODE":0,"TOWNNAME":"歸仁區","LI":"辜厝里","LIN":"36鄰","STREET":"中正南路","SECT":"一段","MAREA":" ","LANE":"２１８巷","ALLEY":" ","HOUSE_NO":"２５號四樓之２","E_COORD97":177261.95999999999,"N_COORD97":2540344.2599999998,"ADDRESS":"中正南路一段２１８巷２５號四樓之２","OBJECTID":442000},"geometry":{"x":177261.95999999996,"y":2540344.2600000016}}]}