{"displayFieldName":"TOWNNAME","fieldAliases":{"ID":"ID","DIS_CODE":"DIS_CODE","TOWNNAME":"TOWNNAME","LI":"LI","LIN":"LIN","STREET":"STREET","SECT":"SECT","MAREA":"MAREA","LANE":"LANE","ALLEY":"ALLEY","HOUSE_NO":"HOUSE_NO","E_COORD97":"E_COORD97","N_COORD97":"N_COORD97","ADDRESS":"ADDRESS","OBJECTID":"OBJECTID"},"geometryType":"esriGeometryPoint","spatialReference":{"wkid":102443,"latestWkid":3826},"fields":[{"name":"ID","type":"esriFieldTypeDouble","alias":"ID"},{"name":"DIS_CODE","type":"esriFieldTypeInteger","alias":"DIS_CODE"},{"name":"TOWNNAME","type":"esriFieldTypeString","alias":"TOWNNAME","length":8},{"name":"LI","type":"esriFieldTypeString","alias":"LI","length":8},{"name":"LIN","type":"esriFieldTypeString","alias":"LIN","length":12},{"name":"STREET","type":"esriFieldTypeString","alias":"STREET","length":20},{"name":"SECT","type":"esriFieldTypeString","alias":"SECT","length":8},{"name":"MAREA","type":"esriFieldTypeString","alias":"MAREA","length":12},{"name":"LANE","type":"esriFieldTypeString","alias":"LANE","length":10},{"name":"ALLEY","type":"esriFieldTypeString","alias":"ALLEY","length":10},{"name":"HOUSE_NO","type":"esriFieldTypeString","alias":"HOUSE_NO","length":20},{"name":"E_COORD97","type":"esriFieldTypeDouble","alias":"E_COORD97"},{"name":"N_COORD97","type":"esriFieldTypeDouble","alias":"N_COORD97"},{"name":"ADDRESS","type":"esriFieldTypeString","alias":"ADDRESS","length":50},{"name":"OBJECTID","type":"esriFieldTypeOID","alias":"OBJECTID"}],"features":[{"attributes":{"ID":80001,"DIS_CODE":0,"TOWNNAME":"安南區","LI":"理想里","LIN":"19鄰","STREET":"大安街","SECT":" ","MAREA":" ","LANE":"４６１巷","ALLEY":"３７弄","HOUSE_NO":"５３號","E_COORD97":167254.89000000001,"N_COORD97":2548696.0899999999,"ADDRESS":"大安街４６１巷３７弄５３號","OBJECTID":80001},"geometry":{"x":167254.8900000006,"y":2548696.0900000017}},{"attributes":{"ID":80002,"DIS_CODE":0,"TOWNNAME":"安南區","LI":"理想里","LIN":"19鄰","STREET":"大安街","SECT":" ","MAREA":" ","LANE":"４６１巷","ALLEY":"３７弄","HOUSE_NO":"５５號","E_COORD97":167252.76000000001,"N_COORD97":2548691.8399999999,"ADDRESS":"大安街４６１巷３７弄５５號","OBJECTID":80002},"geometry":{"x":167252.75999999978,"y":2548691.8400000017}},{"attributes":{"ID":80003,"DIS_CODE":0,"TOWNNAME":"安南區","LI":"理想里","LIN":"19鄰","STREET":"大安街","SECT":" ","MAREA":" ","LANE":"４６１巷","ALLEY":"３７弄","HOUSE_NO":"５７號","E_COORD97":167250.63,"N_COORD97":2548687.8900000001,"ADDRESS":"大安街４６１巷３７弄５７號","OBJECTID":80003},"geometry":{"x":167250.62999999989,"y":2548687.8900000025}},{"attributes":{"ID":80004,"DIS_CODE":0,"TOWNNAME":"安南區","LI":"理想里","LIN":"19鄰","STREET":"大安街","SECT":" ","MAREA":" ","LANE":"４６１巷","ALLEY":"３７弄","HOUSE_NO":"５９號","E_COORD97":167263.19,"N_COORD97":2548677.46,"ADDRESS":"大安街４６１巷３７弄５９號","OBJECTID":80004},"geometry":{"x":167263.19000000227,"y":2548677.4600000028}},{"attributes":{"ID":80005,"DIS_CODE":0,"TOWNNAME":"安南區","LI":"理想里","LIN":"19鄰","STREET":"大安街","SECT":" ","MAREA":" ","LANE":"４６１巷","ALLEY":"３７弄","HOUSE_NO":"５號","E_COORD97":167233.45999999999,"N_COORD97":2548713.8500000001,"ADDRESS":"大安街４６１巷３７弄５號","OBJECTID":80005},"geometry":{"x":167233.45999999996,"y":2548713.8500000034}},{"attributes":{"ID":80006,"DIS_CODE":0,"TOWNNAME":"安南區","LI":"理想里","LIN":"19鄰","STREET":"大安街","SECT":" ","MAREA":" ","LANE":"４６１巷","ALLEY":"３７弄","HOUSE_NO":"６１號","E_COORD97":167266.95000000001,"N_COORD97":2548674.75,"ADDRESS":"大安街４６１巷３７弄６１號","OBJECTID":80006},"geometry":{"x":167266.95000000112,"y":2548674.7500000019}},{"attributes":{"ID":80007,"DIS_CODE":0,"TOWNNAME":"安南區","LI":"理想里","LIN":"19鄰","STREET":"大安街","SECT":" ","MAREA":" ","LANE":"４６１巷","ALLEY":"３７弄","HOUSE_NO":"６３號","E_COORD97":167269.14000000001,"N_COORD97":2548672.04,"ADDRESS":"大安街４６１巷３７弄６３號","OBJECTID":80007},"geometry":{"x":167269.13999999966,"y":2548672.040000001}},{"attributes":{"ID":80008,"DIS_CODE":0,"TOWNNAME":"安南區","LI":"理想里","LIN":"19鄰","STREET":"大安街","SECT":" ","MAREA":" ","LANE":"４６１巷","ALLEY":"３７弄","HOUSE_NO":"６５號","E_COORD97":167275.09,"N_COORD97":2548668.3700000001,"ADDRESS":"大安街４６１巷３７弄６５號","OBJECTID":80008},"geometry":{"x":167275.09000000171,"y":2548668.3700000029}},{"attributes":{"ID":80009,"DIS_CODE":0,"TOWNNAME":"安南區","LI":"理想里","LIN":"19鄰","STREET":"大安街","SECT":" ","MAREA":" ","LANE":"４６１巷","ALLEY":"３７弄","HOUSE_NO":"６７號","E_COORD97":167276.01000000001,"N_COORD97":2548691.8599999999,"ADDRESS":"大安街４６１巷３７弄６７號","OBJECTID":80009},"geometry":{"x":167276.01000000071,"y":2548691.8599999994}},{"attributes":{"ID":80010,"DIS_CODE":0,"TOWNNAME":"安南區","LI":"理想里","LIN":"19鄰","STREET":"大安街","SECT":" ","MAREA":" ","LANE":"４６１巷","ALLEY":"３７弄","HOUSE_NO":"６９號","E_COORD97":167278.44,"N_COORD97":2548695.5,"ADDRESS":"大安街４６１巷３７弄６９號","OBJECTID":80010},"geometry":{"x":167278.44000000227,"y":2548695.5}},{"attributes":{"ID":80011,"DIS_CODE":0,"TOWNNAME":"安南區","LI":"理想里","LIN":"19鄰","STREET":"大安街","SECT":" ","MAREA":" ","LANE":"４６１巷","ALLEY":"３７弄","HOUSE_NO":"７１號","E_COORD97":167281.48000000001,"N_COORD97":2548700.3599999999,"ADDRESS":"大安街４６１巷３７弄７１號","OBJECTID":80011},"geometry":{"x":167281.47999999952,"y":2548700.3600000013}},{"attributes":{"ID":80012,"DIS_CODE":0,"TOWNNAME":"安南區","LI":"理想里","LIN":"19鄰","STREET":"大安街","SECT":" ","MAREA":" ","LANE":"４６１巷","ALLEY":"３７弄","HOUSE_NO":"７３號","E_COORD97":167284.22,"N_COORD97":2548704.48,"ADDRESS":"大安街４６１巷３７弄７３號","OBJECTID":80012},"geometry":{"x":167284.2200000016,"y":2548704.4800000023}},{"attributes":{"ID":80013,"DIS_CODE":0,"TOWNNAME":"善化區","LI":"東昌里","LIN":"7鄰","STREET":" ","SECT":" ","MAREA":"東勢寮","LANE":" ","ALLEY":" ","HOUSE_NO":"７０號","E_COORD97":180444.60000000001,"N_COORD97":2561836.2599999998,"ADDRESS":"東勢寮７０號","OBJECTID":80013},"geometry":{"x":180444.5999999987,"y":2561836.2600000016}},{"attributes":{"ID":80014,"DIS_CODE":0,"TOWNNAME":"善化區","LI":"六分里","LIN":"7鄰","STREET":" ","SECT":" ","MAREA":"溪底寮","LANE":" ","ALLEY":" ","HOUSE_NO":"１號之１","E_COORD97":177956.76000000001,"N_COORD97":2561913.27,"ADDRESS":"溪底寮１號之１","OBJECTID":80014},"geometry":{"x":177956.75999999978,"y":2561913.2700000014}},{"attributes":{"ID":80015,"DIS_CODE":0,"TOWNNAME":"鹽水區","LI":"河南里","LIN":"3鄰","STREET":" ","SECT":" ","MAREA":"?頭港","LANE":" ","ALLEY":" ","HOUSE_NO":"３２號","E_COORD97":173259.57999999999,"N_COORD97":2572770.4100000001,"ADDRESS":"?頭港３２號","OBJECTID":80015},"geometry":{"x":173259.58000000101,"y":2572770.4100000001}},{"attributes":{"ID":80016,"DIS_CODE":0,"TOWNNAME":"鹽水區","LI":"河南里","LIN":"3鄰","STREET":" ","SECT":" ","MAREA":"?頭港","LANE":" ","ALLEY":" ","HOUSE_NO":"８號","E_COORD97":173113.32999999999,"N_COORD97":2572791.7400000002,"ADDRESS":"?頭港８號","OBJECTID":80016},"geometry":{"x":173113.33000000007,"y":2572791.7400000021}},{"attributes":{"ID":80017,"DIS_CODE":0,"TOWNNAME":"鹽水區","LI":"河南里","LIN":"3鄰","STREET":" ","SECT":" ","MAREA":"?頭港","LANE":" ","ALLEY":" ","HOUSE_NO":"９號","E_COORD97":173147.29000000001,"N_COORD97":2572801.8100000001,"ADDRESS":"?頭港９號","OBJECTID":80017},"geometry":{"x":173147.29000000004,"y":2572801.8100000024}},{"attributes":{"ID":80018,"DIS_CODE":0,"TOWNNAME":"鹽水區","LI":"竹埔里","LIN":"3鄰","STREET":" ","SECT":" ","MAREA":"竹子腳","LANE":" ","ALLEY":" ","HOUSE_NO":"２１號之５","E_COORD97":173007.64999999999,"N_COORD97":2574221.6299999999,"ADDRESS":"竹子腳２１號之５","OBJECTID":80018},"geometry":{"x":173007.65000000037,"y":2574221.6300000008}},{"attributes":{"ID":80019,"DIS_CODE":0,"TOWNNAME":"鹽水區","LI":"竹埔里","LIN":"3鄰","STREET":" ","SECT":" ","MAREA":"竹子腳","LANE":" ","ALLEY":" ","HOUSE_NO":"２１號之６","E_COORD97":173002.51000000001,"N_COORD97":2574204.3799999999,"ADDRESS":"竹子腳２１號之６","OBJECTID":80019},"geometry":{"x":173002.51000000071,"y":2574204.379999999}},{"attributes":{"ID":80020,"DIS_CODE":0,"TOWNNAME":"南區","LI":"文華里","LIN":"17鄰","STREET":"敬南街","SECT":" ","MAREA":" ","LANE":" ","ALLEY":" ","HOUSE_NO":"３號","E_COORD97":166768.64000000001,"N_COORD97":2543082.6000000001,"ADDRESS":"敬南街３號","OBJECTID":80020},"geometry":{"x":166768.63999999966,"y":2543082.5999999996}},{"attributes":{"ID":80021,"DIS_CODE":0,"TOWNNAME":"南區","LI":"文華里","LIN":"17鄰","STREET":"敬南街","SECT":" ","MAREA":" ","LANE":" ","ALLEY":" ","HOUSE_NO":"５號","E_COORD97":166775.28,"N_COORD97":2543076.3999999999,"ADDRESS":"敬南街５號","OBJECTID":80021},"geometry":{"x":166775.28000000026,"y":2543076.4000000022}},{"attributes":{"ID":80022,"DIS_CODE":0,"TOWNNAME":"安南區","LI":"理想里","LIN":"19鄰","STREET":"大安街","SECT":" ","MAREA":" ","LANE":"４６１巷","ALLEY":"３７弄","HOUSE_NO":"７５號","E_COORD97":167286.04000000001,"N_COORD97":2548709.04,"ADDRESS":"大安街４６１巷３７弄７５號","OBJECTID":80022},"geometry":{"x":167286.04000000097,"y":2548709.040000001}},{"attributes":{"ID":80023,"DIS_CODE":0,"TOWNNAME":"安南區","LI":"理想里","LIN":"19鄰","STREET":"大安街","SECT":" ","MAREA":" ","LANE":"４６１巷","ALLEY":"３７弄","HOUSE_NO":"７７號","E_COORD97":167289.23000000001,"N_COORD97":2548713.29,"ADDRESS":"大安街４６１巷３７弄７７號","OBJECTID":80023},"geometry":{"x":167289.23000000045,"y":2548713.2899999991}},{"attributes":{"ID":80024,"DIS_CODE":0,"TOWNNAME":"南區","LI":"文華里","LIN":"17鄰","STREET":"德南街","SECT":" ","MAREA":" ","LANE":" ","ALLEY":" ","HOUSE_NO":"８號","E_COORD97":166874.12,"N_COORD97":2543146.2400000002,"ADDRESS":"德南街８號","OBJECTID":80024},"geometry":{"x":166874.12000000104,"y":2543146.2400000021}},{"attributes":{"ID":80025,"DIS_CODE":0,"TOWNNAME":"南區","LI":"文華里","LIN":"17鄰","STREET":"德南街","SECT":" ","MAREA":" ","LANE":" ","ALLEY":" ","HOUSE_NO":"１０號","E_COORD97":166871.06,"N_COORD97":2543143.1000000001,"ADDRESS":"德南街１０號","OBJECTID":80025},"geometry":{"x":166871.05999999959,"y":2543143.1000000015}},{"attributes":{"ID":80026,"DIS_CODE":0,"TOWNNAME":"南區","LI":"文華里","LIN":"19鄰","STREET":"文南三街","SECT":" ","MAREA":" ","LANE":" ","ALLEY":" ","HOUSE_NO":"４２號","E_COORD97":166883.89999999999,"N_COORD97":2543017.1000000001,"ADDRESS":"文南三街４２號","OBJECTID":80026},"geometry":{"x":166883.9000000013,"y":2543017.1000000015}},{"attributes":{"ID":80027,"DIS_CODE":0,"TOWNNAME":"善化區","LI":"小新里","LIN":"7鄰","STREET":" ","SECT":" ","MAREA":"小新營","LANE":" ","ALLEY":" ","HOUSE_NO":"５６號之８０","E_COORD97":179566.42999999999,"N_COORD97":2558448.27,"ADDRESS":"小新營５６號之８０","OBJECTID":80027},"geometry":{"x":179566.43000000063,"y":2558448.2700000033}},{"attributes":{"ID":80028,"DIS_CODE":0,"TOWNNAME":"安南區","LI":"理想里","LIN":"19鄰","STREET":"大安街","SECT":" ","MAREA":" ","LANE":"４６１巷","ALLEY":"３７弄","HOUSE_NO":"７９號","E_COORD97":167291.35999999999,"N_COORD97":2548717.3799999999,"ADDRESS":"大安街４６１巷３７弄７９號","OBJECTID":80028},"geometry":{"x":167291.36000000127,"y":2548717.3800000008}},{"attributes":{"ID":80029,"DIS_CODE":0,"TOWNNAME":"安南區","LI":"理想里","LIN":"19鄰","STREET":"大安街","SECT":" ","MAREA":" ","LANE":"４６１巷","ALLEY":"３７弄","HOUSE_NO":"８１號","E_COORD97":167295.31,"N_COORD97":2548721.3300000001,"ADDRESS":"大安街４６１巷３７弄８１號","OBJECTID":80029},"geometry":{"x":167295.31000000145,"y":2548721.3300000038}},{"attributes":{"ID":80030,"DIS_CODE":0,"TOWNNAME":"安南區","LI":"理想里","LIN":"19鄰","STREET":"大安街","SECT":" ","MAREA":" ","LANE":"４６１巷","ALLEY":"３７弄","HOUSE_NO":"８３號","E_COORD97":167297.73999999999,"N_COORD97":2548725.4300000002,"ADDRESS":"大安街４６１巷３７弄８３號","OBJECTID":80030},"geometry":{"x":167297.74000000022,"y":2548725.4299999997}},{"attributes":{"ID":80031,"DIS_CODE":0,"TOWNNAME":"安南區","LI":"理想里","LIN":"19鄰","STREET":"大安街","SECT":" ","MAREA":" ","LANE":"４６１巷","ALLEY":"３７弄","HOUSE_NO":"８５號","E_COORD97":167299.72,"N_COORD97":2548730.1299999999,"ADDRESS":"大安街４６１巷３７弄８５號","OBJECTID":80031},"geometry":{"x":167299.72000000067,"y":2548730.129999999}},{"attributes":{"ID":80032,"DIS_CODE":0,"TOWNNAME":"善化區","LI":"光文里","LIN":"7鄰","STREET":"建業路","SECT":" ","MAREA":" ","LANE":" ","ALLEY":" ","HOUSE_NO":"４８號","E_COORD97":178935.20000000001,"N_COORD97":2559614.2799999998,"ADDRESS":"建業路４８號","OBJECTID":80032},"geometry":{"x":178935.20000000019,"y":2559614.2800000012}},{"attributes":{"ID":80033,"DIS_CODE":0,"TOWNNAME":"善化區","LI":"小新里","LIN":"7鄰","STREET":" ","SECT":" ","MAREA":"小新營","LANE":" ","ALLEY":" ","HOUSE_NO":"５６之８６號","E_COORD97":179476.09,"N_COORD97":2558436.77,"ADDRESS":"小新營５６之８６號","OBJECTID":80033},"geometry":{"x":179476.09000000078,"y":2558436.7699999996}},{"attributes":{"ID":80034,"DIS_CODE":0,"TOWNNAME":"善化區","LI":"田寮里","LIN":"7鄰","STREET":" ","SECT":" ","MAREA":"六分寮","LANE":" ","ALLEY":" ","HOUSE_NO":"７６號","E_COORD97":178465.39999999999,"N_COORD97":2561409,"ADDRESS":"六分寮７６號","OBJECTID":80034},"geometry":{"x":178465.4000000013,"y":2561409}},{"attributes":{"ID":80035,"DIS_CODE":0,"TOWNNAME":"善化區","LI":"田寮里","LIN":"7鄰","STREET":" ","SECT":" ","MAREA":"六分寮","LANE":" ","ALLEY":" ","HOUSE_NO":"８６號之３","E_COORD97":178500.26000000001,"N_COORD97":2561383.02,"ADDRESS":"六分寮８６號之３","OBJECTID":80035},"geometry":{"x":178500.25999999978,"y":2561383.0200000014}},{"attributes":{"ID":80036,"DIS_CODE":0,"TOWNNAME":"安南區","LI":"理想里","LIN":"19鄰","STREET":"大安街","SECT":" ","MAREA":" ","LANE":"４６１巷","ALLEY":"３７弄","HOUSE_NO":"８７號","E_COORD97":167317.26000000001,"N_COORD97":2548713.27,"ADDRESS":"大安街４６１巷３７弄８７號","OBJECTID":80036},"geometry":{"x":167317.25999999978,"y":2548713.2699999996}},{"attributes":{"ID":80037,"DIS_CODE":0,"TOWNNAME":"鹽水區","LI":"竹埔里","LIN":"3鄰","STREET":" ","SECT":" ","MAREA":"竹子腳","LANE":" ","ALLEY":" ","HOUSE_NO":"２１號之８","E_COORD97":173007.45999999999,"N_COORD97":2574238.52,"ADDRESS":"竹子腳２１號之８","OBJECTID":80037},"geometry":{"x":173007.45999999903,"y":2574238.5199999977}},{"attributes":{"ID":80038,"DIS_CODE":0,"TOWNNAME":"安南區","LI":"理想里","LIN":"19鄰","STREET":"大安街","SECT":" ","MAREA":" ","LANE":"４６１巷","ALLEY":"３７弄","HOUSE_NO":"８９號","E_COORD97":167313.79000000001,"N_COORD97":2548708.9100000001,"ADDRESS":"大安街４６１巷３７弄８９號","OBJECTID":80038},"geometry":{"x":167313.79000000004,"y":2548708.9100000001}},{"attributes":{"ID":80039,"DIS_CODE":0,"TOWNNAME":"安南區","LI":"理想里","LIN":"19鄰","STREET":"大安街","SECT":" ","MAREA":" ","LANE":"４６１巷","ALLEY":"３７弄","HOUSE_NO":"９１號","E_COORD97":167312.03,"N_COORD97":2548704.46,"ADDRESS":"大安街４６１巷３７弄９１號","OBJECTID":80039},"geometry":{"x":167312.03000000119,"y":2548704.4600000028}},{"attributes":{"ID":80040,"DIS_CODE":0,"TOWNNAME":"安南區","LI":"理想里","LIN":"19鄰","STREET":"大安街","SECT":" ","MAREA":" ","LANE":"４６１巷","ALLEY":"３７弄","HOUSE_NO":"９３號","E_COORD97":167309.60999999999,"N_COORD97":2548700.4300000002,"ADDRESS":"大安街４６１巷３７弄９３號","OBJECTID":80040},"geometry":{"x":167309.61000000127,"y":2548700.4300000016}},{"attributes":{"ID":80041,"DIS_CODE":0,"TOWNNAME":"安南區","LI":"公親里","LIN":"7鄰","STREET":"公學路","SECT":"一段","MAREA":" ","LANE":" ","ALLEY":" ","HOUSE_NO":"９５號","E_COORD97":168389.66,"N_COORD97":2553023.0600000001,"ADDRESS":"公學路一段９５號","OBJECTID":80041},"geometry":{"x":168389.66000000015,"y":2553023.0600000024}},{"attributes":{"ID":80042,"DIS_CODE":0,"TOWNNAME":"安南區","LI":"公親里","LIN":"7鄰","STREET":"公學路","SECT":"一段","MAREA":" ","LANE":" ","ALLEY":" ","HOUSE_NO":"９７號","E_COORD97":168385.76999999999,"N_COORD97":2553023.0600000001,"ADDRESS":"公學路一段９７號","OBJECTID":80042},"geometry":{"x":168385.77000000048,"y":2553023.0600000024}},{"attributes":{"ID":80043,"DIS_CODE":0,"TOWNNAME":"安南區","LI":"公親里","LIN":"7鄰","STREET":"公學路","SECT":"一段","MAREA":" ","LANE":" ","ALLEY":" ","HOUSE_NO":"９９號","E_COORD97":168380.57999999999,"N_COORD97":2553022.4100000001,"ADDRESS":"公學路一段９９號","OBJECTID":80043},"geometry":{"x":168380.57999999914,"y":2553022.4100000001}},{"attributes":{"ID":80044,"DIS_CODE":0,"TOWNNAME":"安南區","LI":"公親里","LIN":"7鄰","STREET":"公學路","SECT":"一段","MAREA":" ","LANE":" ","ALLEY":" ","HOUSE_NO":"５５號","E_COORD97":168504.45000000001,"N_COORD97":2553036.6600000001,"ADDRESS":"公學路一段５５號","OBJECTID":80044},"geometry":{"x":168504.45000000112,"y":2553036.6600000001}},{"attributes":{"ID":80045,"DIS_CODE":0,"TOWNNAME":"安南區","LI":"頂安里","LIN":"7鄰","STREET":"頂安街","SECT":" ","MAREA":" ","LANE":" ","ALLEY":" ","HOUSE_NO":"４８５號","E_COORD97":168774.89999999999,"N_COORD97":2549305.21,"ADDRESS":"頂安街４８５號","OBJECTID":80045},"geometry":{"x":168774.90000000037,"y":2549305.2100000009}},{"attributes":{"ID":80046,"DIS_CODE":0,"TOWNNAME":"善化區","LI":"坐駕里","LIN":"7鄰","STREET":"大成路","SECT":" ","MAREA":" ","LANE":" ","ALLEY":" ","HOUSE_NO":"３６４號","E_COORD97":177941.67000000001,"N_COORD97":2558810.5,"ADDRESS":"大成路３６４號","OBJECTID":80046},"geometry":{"x":177941.66999999993,"y":2558810.5000000019}},{"attributes":{"ID":80047,"DIS_CODE":0,"TOWNNAME":"善化區","LI":"南關里","LIN":"7鄰","STREET":"三民路","SECT":" ","MAREA":" ","LANE":" ","ALLEY":" ","HOUSE_NO":"３號之８","E_COORD97":177033.23999999999,"N_COORD97":2558754.02,"ADDRESS":"三民路３號之８","OBJECTID":80047},"geometry":{"x":177033.24000000022,"y":2558754.0199999996}},{"attributes":{"ID":80048,"DIS_CODE":0,"TOWNNAME":"善化區","LI":"南關里","LIN":"7鄰","STREET":"三民路","SECT":" ","MAREA":" ","LANE":" ","ALLEY":" ","HOUSE_NO":"３之１３號","E_COORD97":177021.17999999999,"N_COORD97":2558724.52,"ADDRESS":"三民路３之１３號","OBJECTID":80048},"geometry":{"x":177021.1799999997,"y":2558724.5200000033}},{"attributes":{"ID":80049,"DIS_CODE":0,"TOWNNAME":"鹽水區","LI":"竹埔里","LIN":"3鄰","STREET":" ","SECT":" ","MAREA":"竹子腳","LANE":" ","ALLEY":" ","HOUSE_NO":"２１號之９","E_COORD97":173004.88,"N_COORD97":2574180.6200000001,"ADDRESS":"竹子腳２１號之９","OBJECTID":80049},"geometry":{"x":173004.88000000082,"y":2574180.620000001}},{"attributes":{"ID":80050,"DIS_CODE":0,"TOWNNAME":"鹽水區","LI":"竹埔里","LIN":"3鄰","STREET":" ","SECT":" ","MAREA":"竹子腳","LANE":" ","ALLEY":" ","HOUSE_NO":"２７號","E_COORD97":173035.81,"N_COORD97":2574255.6899999999,"ADDRESS":"竹子腳２７號","OBJECTID":80050},"geometry":{"x":173035.81000000052,"y":2574255.6900000013}},{"attributes":{"ID":80051,"DIS_CODE":0,"TOWNNAME":"善化區","LI":"溪美里","LIN":"7鄰","STREET":" ","SECT":" ","MAREA":"溪尾","LANE":" ","ALLEY":" ","HOUSE_NO":"６８號","E_COORD97":176768.84,"N_COORD97":2561271.77,"ADDRESS":"溪尾６８號","OBJECTID":80051},"geometry":{"x":176768.84000000078,"y":2561271.7699999996}},{"attributes":{"ID":80052,"DIS_CODE":0,"TOWNNAME":"安南區","LI":"理想里","LIN":"19鄰","STREET":"大安街","SECT":" ","MAREA":" ","LANE":"４６１巷","ALLEY":"３７弄","HOUSE_NO":"９５號","E_COORD97":167307.38,"N_COORD97":2548696.0699999998,"ADDRESS":"大安街４６１巷３７弄９５號","OBJECTID":80052},"geometry":{"x":167307.38000000082,"y":2548696.070000004}},{"attributes":{"ID":80053,"DIS_CODE":0,"TOWNNAME":"善化區","LI":"溪美里","LIN":"7鄰","STREET":" ","SECT":" ","MAREA":"溪尾","LANE":" ","ALLEY":" ","HOUSE_NO":"６１號","E_COORD97":176808.45999999999,"N_COORD97":2561269.52,"ADDRESS":"溪尾６１號","OBJECTID":80053},"geometry":{"x":176808.46000000089,"y":2561269.5199999996}},{"attributes":{"ID":80054,"DIS_CODE":0,"TOWNNAME":"善化區","LI":"小新里","LIN":"7鄰","STREET":" ","SECT":" ","MAREA":"小新營","LANE":" ","ALLEY":" ","HOUSE_NO":"５６號之３８","E_COORD97":179456.79000000001,"N_COORD97":2558537.02,"ADDRESS":"小新營５６號之３８","OBJECTID":80054},"geometry":{"x":179456.79000000004,"y":2558537.0199999996}},{"attributes":{"ID":80055,"DIS_CODE":0,"TOWNNAME":"安南區","LI":"理想里","LIN":"19鄰","STREET":"大安街","SECT":" ","MAREA":" ","LANE":"４６１巷","ALLEY":"３７弄","HOUSE_NO":"９７號","E_COORD97":167303.76999999999,"N_COORD97":2548692.6800000002,"ADDRESS":"大安街４６１巷３７弄９７號","OBJECTID":80055},"geometry":{"x":167303.76999999955,"y":2548692.6800000016}},{"attributes":{"ID":80056,"DIS_CODE":0,"TOWNNAME":"善化區","LI":"嘉南里","LIN":"7鄰","STREET":" ","SECT":" ","MAREA":"茄拔","LANE":" ","ALLEY":" ","HOUSE_NO":"１１３號","E_COORD97":181010.76000000001,"N_COORD97":2559570.7599999998,"ADDRESS":"茄拔１１３號","OBJECTID":80056},"geometry":{"x":181010.76000000071,"y":2559570.7600000035}},{"attributes":{"ID":80057,"DIS_CODE":0,"TOWNNAME":"善化區","LI":"小新里","LIN":"7鄰","STREET":" ","SECT":" ","MAREA":"小新營","LANE":" ","ALLEY":" ","HOUSE_NO":"５６號之１７","E_COORD97":179624.85000000001,"N_COORD97":2558539.27,"ADDRESS":"小新營５６號之１７","OBJECTID":80057},"geometry":{"x":179624.85000000056,"y":2558539.2699999996}},{"attributes":{"ID":80058,"DIS_CODE":0,"TOWNNAME":"安南區","LI":"理想里","LIN":"19鄰","STREET":"大安街","SECT":" ","MAREA":" ","LANE":"４６１巷","ALLEY":"３７弄","HOUSE_NO":"９９號","E_COORD97":167301.39000000001,"N_COORD97":2548687.6499999999,"ADDRESS":"大安街４６１巷３７弄９９號","OBJECTID":80058},"geometry":{"x":167301.38999999966,"y":2548687.6500000004}},{"attributes":{"ID":80059,"DIS_CODE":0,"TOWNNAME":"安南區","LI":"理想里","LIN":"19鄰","STREET":"大安街","SECT":" ","MAREA":" ","LANE":"４６１巷","ALLEY":"３７弄","HOUSE_NO":"９號","E_COORD97":167237.70999999999,"N_COORD97":2548722.3500000001,"ADDRESS":"大安街４６１巷３７弄９號","OBJECTID":80059},"geometry":{"x":167237.71000000089,"y":2548722.3499999996}},{"attributes":{"ID":80060,"DIS_CODE":0,"TOWNNAME":"永康區","LI":"西橋里","LIN":"19鄰","STREET":"大橋三街","SECT":" ","MAREA":" ","LANE":"５７巷","ALLEY":"７弄","HOUSE_NO":"４３號","E_COORD97":170488.53,"N_COORD97":2546445.8799999999,"ADDRESS":"大橋三街５７巷７弄４３號","OBJECTID":80060},"geometry":{"x":170488.53000000119,"y":2546445.8800000008}},{"attributes":{"ID":80061,"DIS_CODE":0,"TOWNNAME":"永康區","LI":"西橋里","LIN":"19鄰","STREET":"大橋三街","SECT":" ","MAREA":" ","LANE":"５７巷","ALLEY":"７弄","HOUSE_NO":"８５號","E_COORD97":170434.87,"N_COORD97":2546361.3700000001,"ADDRESS":"大橋三街５７巷７弄８５號","OBJECTID":80061},"geometry":{"x":170434.86999999918,"y":2546361.370000001}},{"attributes":{"ID":80062,"DIS_CODE":0,"TOWNNAME":"永康區","LI":"西橋里","LIN":"19鄰","STREET":"大橋三街","SECT":" ","MAREA":" ","LANE":"５７巷","ALLEY":"７弄","HOUSE_NO":"６９號","E_COORD97":170460.98000000001,"N_COORD97":2546396.8700000001,"ADDRESS":"大橋三街５７巷７弄６９號","OBJECTID":80062},"geometry":{"x":170460.98000000045,"y":2546396.8700000029}},{"attributes":{"ID":80063,"DIS_CODE":0,"TOWNNAME":"善化區","LI":"嘉北里","LIN":"7鄰","STREET":" ","SECT":" ","MAREA":"茄拔","LANE":" ","ALLEY":" ","HOUSE_NO":"１７４之６號","E_COORD97":181063.98000000001,"N_COORD97":2559941.52,"ADDRESS":"茄拔１７４之６號","OBJECTID":80063},"geometry":{"x":181063.98000000138,"y":2559941.5200000033}},{"attributes":{"ID":80064,"DIS_CODE":0,"TOWNNAME":"善化區","LI":"小新里","LIN":"7鄰","STREET":" ","SECT":" ","MAREA":"小新營","LANE":" ","ALLEY":" ","HOUSE_NO":"５６號之５８","E_COORD97":179499.48999999999,"N_COORD97":2558539.02,"ADDRESS":"小新營５６號之５８","OBJECTID":80064},"geometry":{"x":179499.49000000022,"y":2558539.0200000014}},{"attributes":{"ID":80065,"DIS_CODE":0,"TOWNNAME":"善化區","LI":"南關里","LIN":"7鄰","STREET":"三民路","SECT":" ","MAREA":" ","LANE":" ","ALLEY":" ","HOUSE_NO":"１之２８號","E_COORD97":176806.44,"N_COORD97":2558274.27,"ADDRESS":"三民路１之２８號","OBJECTID":80065},"geometry":{"x":176806.44000000041,"y":2558274.2699999996}},{"attributes":{"ID":80066,"DIS_CODE":0,"TOWNNAME":"善化區","LI":"文昌里","LIN":"7鄰","STREET":"文昌路","SECT":" ","MAREA":" ","LANE":" ","ALLEY":" ","HOUSE_NO":"７１號之２","E_COORD97":177258.20999999999,"N_COORD97":2558705.2799999998,"ADDRESS":"文昌路７１號之２","OBJECTID":80066},"geometry":{"x":177258.21000000089,"y":2558705.2800000031}},{"attributes":{"ID":80067,"DIS_CODE":0,"TOWNNAME":"善化區","LI":"文昌里","LIN":"7鄰","STREET":"文昌路","SECT":" ","MAREA":" ","LANE":" ","ALLEY":" ","HOUSE_NO":"３９號","E_COORD97":177334.37,"N_COORD97":2558732.5299999998,"ADDRESS":"文昌路３９號","OBJECTID":80067},"geometry":{"x":177334.37000000197,"y":2558732.5299999993}},{"attributes":{"ID":80068,"DIS_CODE":0,"TOWNNAME":"永康區","LI":"西灣里","LIN":"19鄰","STREET":"大安街","SECT":" ","MAREA":" ","LANE":"２９３巷","ALLEY":"５２弄","HOUSE_NO":"４８號","E_COORD97":174590.23999999999,"N_COORD97":2545686.8799999999,"ADDRESS":"大安街２９３巷５２弄４８號","OBJECTID":80068},"geometry":{"x":174590.24000000022,"y":2545686.8800000008}},{"attributes":{"ID":80069,"DIS_CODE":0,"TOWNNAME":"善化區","LI":"東昌里","LIN":"7鄰","STREET":" ","SECT":" ","MAREA":"東勢寮","LANE":" ","ALLEY":" ","HOUSE_NO":"６９號之１","E_COORD97":180449.98000000001,"N_COORD97":2561797.02,"ADDRESS":"東勢寮６９號之１","OBJECTID":80069},"geometry":{"x":180449.98000000138,"y":2561797.0200000014}},{"attributes":{"ID":80070,"DIS_CODE":0,"TOWNNAME":"永康區","LI":"西勢里","LIN":"19鄰","STREET":"富強路","SECT":"一段","MAREA":" ","LANE":"１８５巷","ALLEY":"２弄","HOUSE_NO":"４６號","E_COORD97":175595.82999999999,"N_COORD97":2546524.1600000001,"ADDRESS":"富強路一段１８５巷２弄４６號","OBJECTID":80070},"geometry":{"x":175595.83000000101,"y":2546524.1600000001}},{"attributes":{"ID":80071,"DIS_CODE":0,"TOWNNAME":"永康區","LI":"西勢里","LIN":"19鄰","STREET":"富強路","SECT":"一段","MAREA":" ","LANE":"１８５巷","ALLEY":"２弄","HOUSE_NO":"４２號","E_COORD97":175603.42000000001,"N_COORD97":2546517.6600000001,"ADDRESS":"富強路一段１８５巷２弄４２號","OBJECTID":80071},"geometry":{"x":175603.42000000086,"y":2546517.6600000001}},{"attributes":{"ID":80072,"DIS_CODE":0,"TOWNNAME":"永康區","LI":"西橋里","LIN":"19鄰","STREET":"大橋三街","SECT":" ","MAREA":" ","LANE":"５７巷","ALLEY":"７弄","HOUSE_NO":"６７號","E_COORD97":170463,"N_COORD97":2546400.1200000001,"ADDRESS":"大橋三街５７巷７弄６７號","OBJECTID":80072},"geometry":{"x":170463.00000000093,"y":2546400.120000001}},{"attributes":{"ID":80073,"DIS_CODE":0,"TOWNNAME":"善化區","LI":"小新里","LIN":"7鄰","STREET":" ","SECT":" ","MAREA":"小新營","LANE":" ","ALLEY":" ","HOUSE_NO":"５６之８７號","E_COORD97":179475.64999999999,"N_COORD97":2558432.02,"ADDRESS":"小新營５６之８７號","OBJECTID":80073},"geometry":{"x":179475.65000000224,"y":2558432.0199999996}},{"attributes":{"ID":80074,"DIS_CODE":0,"TOWNNAME":"善化區","LI":"小新里","LIN":"7鄰","STREET":" ","SECT":" ","MAREA":"小新營","LANE":" ","ALLEY":" ","HOUSE_NO":"５４號之３","E_COORD97":179733.76000000001,"N_COORD97":2558342.77,"ADDRESS":"小新營５４號之３","OBJECTID":80074},"geometry":{"x":179733.76000000071,"y":2558342.7700000033}},{"attributes":{"ID":80075,"DIS_CODE":0,"TOWNNAME":"永康區","LI":"西橋里","LIN":"19鄰","STREET":"大橋三街","SECT":" ","MAREA":" ","LANE":"５７巷","ALLEY":"７弄","HOUSE_NO":"５１號","E_COORD97":170481.95999999999,"N_COORD97":2546435.6299999999,"ADDRESS":"大橋三街５７巷７弄５１號","OBJECTID":80075},"geometry":{"x":170481.96000000089,"y":2546435.629999999}},{"attributes":{"ID":80076,"DIS_CODE":0,"TOWNNAME":"永康區","LI":"西橋里","LIN":"19鄰","STREET":"大橋三街","SECT":" ","MAREA":" ","LANE":"５７巷","ALLEY":"７弄","HOUSE_NO":"６５號","E_COORD97":170463.70000000001,"N_COORD97":2546406.1699999999,"ADDRESS":"大橋三街５７巷７弄６５號","OBJECTID":80076},"geometry":{"x":170463.70000000112,"y":2546406.1699999999}},{"attributes":{"ID":80077,"DIS_CODE":0,"TOWNNAME":"永康區","LI":"西橋里","LIN":"19鄰","STREET":"大橋三街","SECT":" ","MAREA":" ","LANE":"５７巷","ALLEY":"７弄","HOUSE_NO":"８３號","E_COORD97":170437.07000000001,"N_COORD97":2546364.8700000001,"ADDRESS":"大橋三街５７巷７弄８３號","OBJECTID":80077},"geometry":{"x":170437.0700000003,"y":2546364.870000001}},{"attributes":{"ID":80078,"DIS_CODE":0,"TOWNNAME":"善化區","LI":"小新里","LIN":"7鄰","STREET":" ","SECT":" ","MAREA":"小新營","LANE":" ","ALLEY":" ","HOUSE_NO":"５６號之９","E_COORD97":179595.14999999999,"N_COORD97":2558621.52,"ADDRESS":"小新營５６號之９","OBJECTID":80078},"geometry":{"x":179595.15000000037,"y":2558621.5199999996}},{"attributes":{"ID":80079,"DIS_CODE":0,"TOWNNAME":"善化區","LI":"溪美里","LIN":"7鄰","STREET":" ","SECT":" ","MAREA":"溪尾","LANE":" ","ALLEY":" ","HOUSE_NO":"６５號（已半毀）","E_COORD97":176803.32000000001,"N_COORD97":2561301.27,"ADDRESS":"溪尾６５號（已半毀）","OBJECTID":80079},"geometry":{"x":176803.32000000123,"y":2561301.2699999996}},{"attributes":{"ID":80080,"DIS_CODE":0,"TOWNNAME":"善化區","LI":"六分里","LIN":"7鄰","STREET":" ","SECT":" ","MAREA":"溪底寮","LANE":" ","ALLEY":" ","HOUSE_NO":"６號","E_COORD97":177957.98999999999,"N_COORD97":2561995.77,"ADDRESS":"溪底寮６號","OBJECTID":80080},"geometry":{"x":177957.99000000115,"y":2561995.7700000014}},{"attributes":{"ID":80081,"DIS_CODE":0,"TOWNNAME":"永康區","LI":"西灣里","LIN":"19鄰","STREET":"大安街","SECT":" ","MAREA":" ","LANE":"２９３巷","ALLEY":"５２弄","HOUSE_NO":"４６號","E_COORD97":174594.34,"N_COORD97":2545685.8799999999,"ADDRESS":"大安街２９３巷５２弄４６號","OBJECTID":80081},"geometry":{"x":174594.33999999985,"y":2545685.8800000008}},{"attributes":{"ID":80082,"DIS_CODE":0,"TOWNNAME":"永康區","LI":"西勢里","LIN":"19鄰","STREET":"富強路","SECT":"一段","MAREA":" ","LANE":"１８５巷","ALLEY":"２弄","HOUSE_NO":"４８號","E_COORD97":175599.92999999999,"N_COORD97":2546528.2400000002,"ADDRESS":"富強路一段１８５巷２弄４８號","OBJECTID":80082},"geometry":{"x":175599.93000000063,"y":2546528.2400000039}},{"attributes":{"ID":80083,"DIS_CODE":0,"TOWNNAME":"善化區","LI":"小新里","LIN":"7鄰","STREET":" ","SECT":" ","MAREA":"小新營","LANE":" ","ALLEY":" ","HOUSE_NO":"５５號之６","E_COORD97":179820.82000000001,"N_COORD97":2558479.27,"ADDRESS":"小新營５５號之６","OBJECTID":80083},"geometry":{"x":179820.82000000123,"y":2558479.2700000014}},{"attributes":{"ID":80084,"DIS_CODE":0,"TOWNNAME":"善化區","LI":"小新里","LIN":"7鄰","STREET":" ","SECT":" ","MAREA":"小新營","LANE":" ","ALLEY":" ","HOUSE_NO":"５６號之７５","E_COORD97":179538.88,"N_COORD97":2558448.52,"ADDRESS":"小新營５６號之７５","OBJECTID":80084},"geometry":{"x":179538.87999999989,"y":2558448.5199999996}},{"attributes":{"ID":80085,"DIS_CODE":0,"TOWNNAME":"善化區","LI":"小新里","LIN":"7鄰","STREET":" ","SECT":" ","MAREA":"小新營","LANE":" ","ALLEY":" ","HOUSE_NO":"５６號之５０","E_COORD97":179451.88,"N_COORD97":2558506.27,"ADDRESS":"小新營５６號之５０","OBJECTID":80085},"geometry":{"x":179451.88000000082,"y":2558506.2700000014}},{"attributes":{"ID":80086,"DIS_CODE":0,"TOWNNAME":"永康區","LI":"西灣里","LIN":"19鄰","STREET":"大安街","SECT":" ","MAREA":" ","LANE":"２９３巷","ALLEY":"５２弄","HOUSE_NO":"１７之１號","E_COORD97":174576.67999999999,"N_COORD97":2545677.6200000001,"ADDRESS":"大安街２９３巷５２弄１７之１號","OBJECTID":80086},"geometry":{"x":174576.6799999997,"y":2545677.620000001}},{"attributes":{"ID":80087,"DIS_CODE":0,"TOWNNAME":"善化區","LI":"小新里","LIN":"7鄰","STREET":" ","SECT":" ","MAREA":"小新營","LANE":" ","ALLEY":" ","HOUSE_NO":"５６之５１號","E_COORD97":179447.17999999999,"N_COORD97":2558507.52,"ADDRESS":"小新營５６之５１號","OBJECTID":80087},"geometry":{"x":179447.1799999997,"y":2558507.5200000033}},{"attributes":{"ID":80088,"DIS_CODE":0,"TOWNNAME":"善化區","LI":"小新里","LIN":"7鄰","STREET":" ","SECT":" ","MAREA":"小新營","LANE":" ","ALLEY":" ","HOUSE_NO":"５６之９３號","E_COORD97":179505.44,"N_COORD97":2558444.02,"ADDRESS":"小新營５６之９３號","OBJECTID":80088},"geometry":{"x":179505.44000000041,"y":2558444.0200000014}},{"attributes":{"ID":80089,"DIS_CODE":0,"TOWNNAME":"善化區","LI":"小新里","LIN":"7鄰","STREET":" ","SECT":" ","MAREA":"小新營","LANE":" ","ALLEY":" ","HOUSE_NO":"５６之８２號","E_COORD97":179477.37,"N_COORD97":2558453.52,"ADDRESS":"小新營５６之８２號","OBJECTID":80089},"geometry":{"x":179477.37000000104,"y":2558453.5200000014}},{"attributes":{"ID":80090,"DIS_CODE":0,"TOWNNAME":"善化區","LI":"小新里","LIN":"7鄰","STREET":" ","SECT":" ","MAREA":"小新營","LANE":" ","ALLEY":" ","HOUSE_NO":"５６號之３５","E_COORD97":179478.45000000001,"N_COORD97":2558530.52,"ADDRESS":"小新營５６號之３５","OBJECTID":80090},"geometry":{"x":179478.45000000205,"y":2558530.5199999996}},{"attributes":{"ID":80091,"DIS_CODE":0,"TOWNNAME":"善化區","LI":"六分里","LIN":"7鄰","STREET":" ","SECT":" ","MAREA":"溪底寮","LANE":" ","ALLEY":" ","HOUSE_NO":"８號之３","E_COORD97":177907.23999999999,"N_COORD97":2562012.27,"ADDRESS":"溪底寮８號之３","OBJECTID":80091},"geometry":{"x":177907.24000000115,"y":2562012.2700000014}},{"attributes":{"ID":80092,"DIS_CODE":0,"TOWNNAME":"永康區","LI":"西灣里","LIN":"19鄰","STREET":"大安街","SECT":" ","MAREA":" ","LANE":"２９３巷","ALLEY":"５２弄","HOUSE_NO":"５６號","E_COORD97":174578.17999999999,"N_COORD97":2545689.6299999999,"ADDRESS":"大安街２９３巷５２弄５６號","OBJECTID":80092},"geometry":{"x":174578.1799999997,"y":2545689.629999999}},{"attributes":{"ID":80093,"DIS_CODE":0,"TOWNNAME":"永康區","LI":"西勢里","LIN":"19鄰","STREET":"富強路","SECT":"一段","MAREA":" ","LANE":"１８５巷","ALLEY":"２弄","HOUSE_NO":"５６號","E_COORD97":175616.88,"N_COORD97":2546548.6600000001,"ADDRESS":"富強路一段１８５巷２弄５６號","OBJECTID":80093},"geometry":{"x":175616.88000000175,"y":2546548.6600000001}},{"attributes":{"ID":80094,"DIS_CODE":0,"TOWNNAME":"永康區","LI":"西勢里","LIN":"19鄰","STREET":"富強路","SECT":"一段","MAREA":" ","LANE":"１８５巷","ALLEY":"２弄","HOUSE_NO":"５０號","E_COORD97":175603.59,"N_COORD97":2546532.7400000002,"ADDRESS":"富強路一段１８５巷２弄５０號","OBJECTID":80094},"geometry":{"x":175603.59000000171,"y":2546532.7400000021}},{"attributes":{"ID":80095,"DIS_CODE":0,"TOWNNAME":"永康區","LI":"西灣里","LIN":"19鄰","STREET":"大安街","SECT":" ","MAREA":" ","LANE":"２９３巷","ALLEY":"５２弄","HOUSE_NO":"５２號","E_COORD97":174582.22,"N_COORD97":2545688.8799999999,"ADDRESS":"大安街２９３巷５２弄５２號","OBJECTID":80095},"geometry":{"x":174582.22000000067,"y":2545688.8800000027}},{"attributes":{"ID":80096,"DIS_CODE":0,"TOWNNAME":"安南區","LI":"佃東里","LIN":"19鄰","STREET":"公學路","SECT":"四段","MAREA":" ","LANE":"１２２巷","ALLEY":"９６弄","HOUSE_NO":"５２號之１１","E_COORD97":165697.60000000001,"N_COORD97":2552262.48,"ADDRESS":"公學路四段１２２巷９６弄５２號之１１","OBJECTID":80096},"geometry":{"x":165697.59999999963,"y":2552262.4800000004}},{"attributes":{"ID":80097,"DIS_CODE":0,"TOWNNAME":"善化區","LI":"小新里","LIN":"7鄰","STREET":" ","SECT":" ","MAREA":"小新營","LANE":" ","ALLEY":" ","HOUSE_NO":"５６號之４３","E_COORD97":179454.09,"N_COORD97":2558514.52,"ADDRESS":"小新營５６號之４３","OBJECTID":80097},"geometry":{"x":179454.09000000078,"y":2558514.5200000014}},{"attributes":{"ID":80098,"DIS_CODE":0,"TOWNNAME":"安南區","LI":"佃東里","LIN":"19鄰","STREET":"公學路","SECT":"四段","MAREA":" ","LANE":"１２２巷","ALLEY":"９６弄","HOUSE_NO":"３４號","E_COORD97":165662.85000000001,"N_COORD97":2552296.7999999998,"ADDRESS":"公學路四段１２２巷９６弄３４號","OBJECTID":80098},"geometry":{"x":165662.85000000056,"y":2552296.8000000026}},{"attributes":{"ID":80099,"DIS_CODE":0,"TOWNNAME":"善化區","LI":"小新里","LIN":"7鄰","STREET":" ","SECT":" ","MAREA":"小新營","LANE":" ","ALLEY":" ","HOUSE_NO":"５６號之２３","E_COORD97":179606.25,"N_COORD97":2558509.52,"ADDRESS":"小新營５６號之２３","OBJECTID":80099},"geometry":{"x":179606.25,"y":2558509.5199999996}},{"attributes":{"ID":80100,"DIS_CODE":0,"TOWNNAME":"安南區","LI":"佃東里","LIN":"19鄰","STREET":"公學路","SECT":"四段","MAREA":" ","LANE":"１２２巷","ALLEY":"９６弄","HOUSE_NO":"３６號","E_COORD97":165667.95000000001,"N_COORD97":2552300.46,"ADDRESS":"公學路四段１２２巷９６弄３６號","OBJECTID":80100},"geometry":{"x":165667.95000000112,"y":2552300.4600000009}},{"attributes":{"ID":80101,"DIS_CODE":0,"TOWNNAME":"善化區","LI":"六分里","LIN":"7鄰","STREET":" ","SECT":" ","MAREA":"溪底寮","LANE":" ","ALLEY":" ","HOUSE_NO":"８號之２","E_COORD97":177916.85999999999,"N_COORD97":2561988.77,"ADDRESS":"溪底寮８號之２","OBJECTID":80101},"geometry":{"x":177916.86000000127,"y":2561988.7700000014}},{"attributes":{"ID":80102,"DIS_CODE":0,"TOWNNAME":"安南區","LI":"佃東里","LIN":"19鄰","STREET":"公學路","SECT":"四段","MAREA":" ","LANE":"１２２巷","ALLEY":"９６弄","HOUSE_NO":"４２號","E_COORD97":165680.82999999999,"N_COORD97":2552295.5800000001,"ADDRESS":"公學路四段１２２巷９６弄４２號","OBJECTID":80102},"geometry":{"x":165680.83000000101,"y":2552295.5800000001}},{"attributes":{"ID":80103,"DIS_CODE":0,"TOWNNAME":"安南區","LI":"佃東里","LIN":"19鄰","STREET":"公學路","SECT":"四段","MAREA":" ","LANE":"１２２巷","ALLEY":"９６弄","HOUSE_NO":"４６號","E_COORD97":165690.26000000001,"N_COORD97":2552295.6899999999,"ADDRESS":"公學路四段１２２巷９６弄４６號","OBJECTID":80103},"geometry":{"x":165690.25999999978,"y":2552295.6900000013}},{"attributes":{"ID":80104,"DIS_CODE":0,"TOWNNAME":"善化區","LI":"小新里","LIN":"7鄰","STREET":" ","SECT":" ","MAREA":"小新營","LANE":" ","ALLEY":" ","HOUSE_NO":"５６之４８號","E_COORD97":179461.07999999999,"N_COORD97":2558503.52,"ADDRESS":"小新營５６之４８號","OBJECTID":80104},"geometry":{"x":179461.08000000101,"y":2558503.5199999996}},{"attributes":{"ID":80105,"DIS_CODE":0,"TOWNNAME":"安南區","LI":"佃東里","LIN":"19鄰","STREET":"公學路","SECT":"四段","MAREA":" ","LANE":"１２２巷","ALLEY":"９６弄","HOUSE_NO":"４８號","E_COORD97":165694.37,"N_COORD97":2552300.02,"ADDRESS":"公學路四段１２２巷９６弄４８號","OBJECTID":80105},"geometry":{"x":165694.37000000104,"y":2552300.0200000014}},{"attributes":{"ID":80106,"DIS_CODE":0,"TOWNNAME":"善化區","LI":"小新里","LIN":"7鄰","STREET":" ","SECT":" ","MAREA":"小新營","LANE":" ","ALLEY":" ","HOUSE_NO":"５６之６９號","E_COORD97":179499.41,"N_COORD97":2558459.27,"ADDRESS":"小新營５６之６９號","OBJECTID":80106},"geometry":{"x":179499.41000000108,"y":2558459.2700000014}},{"attributes":{"ID":80107,"DIS_CODE":0,"TOWNNAME":"善化區","LI":"小新里","LIN":"7鄰","STREET":" ","SECT":" ","MAREA":"小新營","LANE":" ","ALLEY":" ","HOUSE_NO":"５６之４２號","E_COORD97":179458.72,"N_COORD97":2558513.02,"ADDRESS":"小新營５６之４２號","OBJECTID":80107},"geometry":{"x":179458.71999999974,"y":2558513.0199999996}},{"attributes":{"ID":80108,"DIS_CODE":0,"TOWNNAME":"安南區","LI":"佃東里","LIN":"19鄰","STREET":"公學路","SECT":"四段","MAREA":" ","LANE":"１２２巷","ALLEY":"９６弄","HOUSE_NO":"５２號","E_COORD97":165703.47,"N_COORD97":2552299.02,"ADDRESS":"公學路四段１２２巷９６弄５２號","OBJECTID":80108},"geometry":{"x":165703.47000000067,"y":2552299.0199999996}},{"attributes":{"ID":80109,"DIS_CODE":0,"TOWNNAME":"善化區","LI":"六德里","LIN":"7鄰","STREET":" ","SECT":" ","MAREA":"六分寮","LANE":" ","ALLEY":" ","HOUSE_NO":"２５５號","E_COORD97":178778.14999999999,"N_COORD97":2561603.75,"ADDRESS":"六分寮２５５號","OBJECTID":80109},"geometry":{"x":178778.15000000037,"y":2561603.75}},{"attributes":{"ID":80110,"DIS_CODE":0,"TOWNNAME":"安南區","LI":"佃東里","LIN":"19鄰","STREET":"公學路","SECT":"四段","MAREA":" ","LANE":"１２２巷","ALLEY":"９６弄","HOUSE_NO":"５２號之１","E_COORD97":165658.95999999999,"N_COORD97":2552275.02,"ADDRESS":"公學路四段１２２巷９６弄５２號之１","OBJECTID":80110},"geometry":{"x":165658.96000000183,"y":2552275.0199999996}},{"attributes":{"ID":80111,"DIS_CODE":0,"TOWNNAME":"安南區","LI":"佃東里","LIN":"19鄰","STREET":"公學路","SECT":"四段","MAREA":" ","LANE":"１２２巷","ALLEY":"９６弄","HOUSE_NO":"５２號之１０","E_COORD97":165697.48999999999,"N_COORD97":2552266.9100000001,"ADDRESS":"公學路四段１２２巷９６弄５２號之１０","OBJECTID":80111},"geometry":{"x":165697.49000000022,"y":2552266.9100000039}},{"attributes":{"ID":80112,"DIS_CODE":0,"TOWNNAME":"善化區","LI":"小新里","LIN":"7鄰","STREET":" ","SECT":" ","MAREA":"小新營","LANE":" ","ALLEY":" ","HOUSE_NO":"６３號","E_COORD97":179667.88,"N_COORD97":2558327,"ADDRESS":"小新營６３號","OBJECTID":80112},"geometry":{"x":179667.87999999989,"y":2558327}},{"attributes":{"ID":80113,"DIS_CODE":0,"TOWNNAME":"善化區","LI":"什乃里","LIN":"7鄰","STREET":" ","SECT":" ","MAREA":"什乃","LANE":" ","ALLEY":" ","HOUSE_NO":"５９之７號","E_COORD97":175986.17999999999,"N_COORD97":2560377.27,"ADDRESS":"什乃５９之７號","OBJECTID":80113},"geometry":{"x":175986.18000000063,"y":2560377.2700000033}},{"attributes":{"ID":80114,"DIS_CODE":0,"TOWNNAME":"安南區","LI":"佃東里","LIN":"19鄰","STREET":"公學路","SECT":"四段","MAREA":" ","LANE":"１２２巷","ALLEY":"９６弄","HOUSE_NO":"５２號之１２","E_COORD97":165697.70999999999,"N_COORD97":2552257.0499999998,"ADDRESS":"公學路四段１２２巷９６弄５２號之１２","OBJECTID":80114},"geometry":{"x":165697.70999999996,"y":2552257.0500000026}},{"attributes":{"ID":80115,"DIS_CODE":0,"TOWNNAME":"鹽水區","LI":"竹埔里","LIN":"3鄰","STREET":" ","SECT":" ","MAREA":"竹子腳","LANE":" ","ALLEY":" ","HOUSE_NO":"２８號","E_COORD97":172953.98000000001,"N_COORD97":2574336.29,"ADDRESS":"竹子腳２８號","OBJECTID":80115},"geometry":{"x":172953.98000000138,"y":2574336.290000001}},{"attributes":{"ID":80116,"DIS_CODE":0,"TOWNNAME":"鹽水區","LI":"竹埔里","LIN":"3鄰","STREET":" ","SECT":" ","MAREA":"竹子腳","LANE":" ","ALLEY":" ","HOUSE_NO":"２９號","E_COORD97":172966.26000000001,"N_COORD97":2574348.8999999999,"ADDRESS":"竹子腳２９號","OBJECTID":80116},"geometry":{"x":172966.26000000164,"y":2574348.9000000041}},{"attributes":{"ID":80117,"DIS_CODE":0,"TOWNNAME":"安南區","LI":"佃東里","LIN":"19鄰","STREET":"公學路","SECT":"四段","MAREA":" ","LANE":"１２２巷","ALLEY":"９６弄","HOUSE_NO":"５２號之１３","E_COORD97":165697.70999999999,"N_COORD97":2552239.2599999998,"ADDRESS":"公學路四段１２２巷９６弄５２號之１３","OBJECTID":80117},"geometry":{"x":165697.70999999996,"y":2552239.2599999998}},{"attributes":{"ID":80118,"DIS_CODE":0,"TOWNNAME":"安南區","LI":"佃東里","LIN":"19鄰","STREET":"公學路","SECT":"四段","MAREA":" ","LANE":"１２２巷","ALLEY":"９６弄","HOUSE_NO":"５２號之１４","E_COORD97":165699.23000000001,"N_COORD97":2552234.02,"ADDRESS":"公學路四段１２２巷９６弄５２號之１４","OBJECTID":80118},"geometry":{"x":165699.23000000045,"y":2552234.0199999996}},{"attributes":{"ID":80119,"DIS_CODE":0,"TOWNNAME":"安南區","LI":"佃東里","LIN":"19鄰","STREET":"公學路","SECT":"四段","MAREA":" ","LANE":"１２２巷","ALLEY":"９６弄","HOUSE_NO":"５２號之１５","E_COORD97":165699.39999999999,"N_COORD97":2552229.29,"ADDRESS":"公學路四段１２２巷９６弄５２號之１５","OBJECTID":80119},"geometry":{"x":165699.4000000013,"y":2552229.2899999972}},{"attributes":{"ID":80120,"DIS_CODE":0,"TOWNNAME":"鹽水區","LI":"竹埔里","LIN":"3鄰","STREET":" ","SECT":" ","MAREA":"竹子腳","LANE":" ","ALLEY":" ","HOUSE_NO":"３０號之１","E_COORD97":172974.51000000001,"N_COORD97":2574327.0600000001,"ADDRESS":"竹子腳３０號之１","OBJECTID":80120},"geometry":{"x":172974.50999999978,"y":2574327.0600000005}},{"attributes":{"ID":80121,"DIS_CODE":0,"TOWNNAME":"鹽水區","LI":"竹埔里","LIN":"3鄰","STREET":" ","SECT":" ","MAREA":"竹子腳","LANE":" ","ALLEY":" ","HOUSE_NO":"３０號","E_COORD97":172986.72,"N_COORD97":2574335,"ADDRESS":"竹子腳３０號","OBJECTID":80121},"geometry":{"x":172986.71999999974,"y":2574335.0000000019}},{"attributes":{"ID":80122,"DIS_CODE":0,"TOWNNAME":"鹽水區","LI":"竹埔里","LIN":"3鄰","STREET":" ","SECT":" ","MAREA":"竹子腳","LANE":" ","ALLEY":" ","HOUSE_NO":"３１號","E_COORD97":172985.57999999999,"N_COORD97":2574362.3300000001,"ADDRESS":"竹子腳３１號","OBJECTID":80122},"geometry":{"x":172985.58000000101,"y":2574362.3299999982}},{"attributes":{"ID":80123,"DIS_CODE":0,"TOWNNAME":"歸仁區","LI":"西埔里","LIN":"8鄰","STREET":"保大路","SECT":"二段","MAREA":" ","LANE":" ","ALLEY":" ","HOUSE_NO":"２５０號","E_COORD97":176646.67000000001,"N_COORD97":2544158.2799999998,"ADDRESS":"保大路二段２５０號","OBJECTID":80123},"geometry":{"x":176646.66999999993,"y":2544158.2800000012}},{"attributes":{"ID":80124,"DIS_CODE":0,"TOWNNAME":"鹽水區","LI":"竹埔里","LIN":"3鄰","STREET":" ","SECT":" ","MAREA":"竹子腳","LANE":" ","ALLEY":" ","HOUSE_NO":"６９號","E_COORD97":172926.95000000001,"N_COORD97":2574352.5699999998,"ADDRESS":"竹子腳６９號","OBJECTID":80124},"geometry":{"x":172926.95000000112,"y":2574352.5700000022}},{"attributes":{"ID":80125,"DIS_CODE":0,"TOWNNAME":"鹽水區","LI":"竹埔里","LIN":"3鄰","STREET":" ","SECT":" ","MAREA":"竹子腳","LANE":" ","ALLEY":" ","HOUSE_NO":"７０號","E_COORD97":172960.79000000001,"N_COORD97":2574368.27,"ADDRESS":"竹子腳７０號","OBJECTID":80125},"geometry":{"x":172960.79000000004,"y":2574368.2699999996}},{"attributes":{"ID":80126,"DIS_CODE":0,"TOWNNAME":"鹽水區","LI":"竹埔里","LIN":"3鄰","STREET":" ","SECT":" ","MAREA":"竹子腳","LANE":" ","ALLEY":" ","HOUSE_NO":"７１號","E_COORD97":172918.17000000001,"N_COORD97":2574340.1200000001,"ADDRESS":"竹子腳７１號","OBJECTID":80126},"geometry":{"x":172918.17000000086,"y":2574340.120000001}},{"attributes":{"ID":80127,"DIS_CODE":0,"TOWNNAME":"鹽水區","LI":"竹埔里","LIN":"3鄰","STREET":" ","SECT":" ","MAREA":"竹子腳","LANE":" ","ALLEY":" ","HOUSE_NO":"７３號","E_COORD97":172932.29000000001,"N_COORD97":2574321.7000000002,"ADDRESS":"竹子腳７３號","OBJECTID":80127},"geometry":{"x":172932.29000000004,"y":2574321.6999999974}},{"attributes":{"ID":80128,"DIS_CODE":0,"TOWNNAME":"安南區","LI":"佃東里","LIN":"19鄰","STREET":"公學路","SECT":"四段","MAREA":" ","LANE":"１２２巷","ALLEY":"９６弄","HOUSE_NO":"５２號之２","E_COORD97":165663.51000000001,"N_COORD97":2552275.46,"ADDRESS":"公學路四段１２２巷９６弄５２號之２","OBJECTID":80128},"geometry":{"x":165663.51000000164,"y":2552275.4600000028}},{"attributes":{"ID":80129,"DIS_CODE":0,"TOWNNAME":"安南區","LI":"佃東里","LIN":"19鄰","STREET":"公學路","SECT":"四段","MAREA":" ","LANE":"１２２巷","ALLEY":"９６弄","HOUSE_NO":"５２號之３","E_COORD97":165669.28,"N_COORD97":2552276.2400000002,"ADDRESS":"公學路四段１２２巷９６弄５２號之３","OBJECTID":80129},"geometry":{"x":165669.28000000119,"y":2552276.2400000021}},{"attributes":{"ID":80130,"DIS_CODE":0,"TOWNNAME":"善化區","LI":"六德里","LIN":"7鄰","STREET":" ","SECT":" ","MAREA":"六分寮","LANE":" ","ALLEY":" ","HOUSE_NO":"２５７號","E_COORD97":178722.23999999999,"N_COORD97":2561634.75,"ADDRESS":"六分寮２５７號","OBJECTID":80130},"geometry":{"x":178722.24000000115,"y":2561634.75}},{"attributes":{"ID":80131,"DIS_CODE":0,"TOWNNAME":"善化區","LI":"小新里","LIN":"7鄰","STREET":" ","SECT":" ","MAREA":"小新營","LANE":" ","ALLEY":" ","HOUSE_NO":"５６號之４７","E_COORD97":179465.78,"N_COORD97":2558502.02,"ADDRESS":"小新營５６號之４７","OBJECTID":80131},"geometry":{"x":179465.78000000026,"y":2558502.0200000014}},{"attributes":{"ID":80132,"DIS_CODE":0,"TOWNNAME":"安南區","LI":"佃東里","LIN":"19鄰","STREET":"公學路","SECT":"四段","MAREA":" ","LANE":"１２２巷","ALLEY":"９６弄","HOUSE_NO":"５２號之４","E_COORD97":165674.82999999999,"N_COORD97":2552276.2400000002,"ADDRESS":"公學路四段１２２巷９６弄５２號之４","OBJECTID":80132},"geometry":{"x":165674.83000000007,"y":2552276.2400000021}},{"attributes":{"ID":80133,"DIS_CODE":0,"TOWNNAME":"安南區","LI":"佃東里","LIN":"19鄰","STREET":"公學路","SECT":"四段","MAREA":" ","LANE":"１２２巷","ALLEY":"９６弄","HOUSE_NO":"５２號之５","E_COORD97":165680.26999999999,"N_COORD97":2552276.5699999998,"ADDRESS":"公學路四段１２２巷９６弄５２號之５","OBJECTID":80133},"geometry":{"x":165680.27000000048,"y":2552276.5700000022}},{"attributes":{"ID":80134,"DIS_CODE":0,"TOWNNAME":"安南區","LI":"佃東里","LIN":"19鄰","STREET":"公學路","SECT":"四段","MAREA":" ","LANE":"１２２巷","ALLEY":"９６弄","HOUSE_NO":"５４號之１１","E_COORD97":165731.91,"N_COORD97":2552250.29,"ADDRESS":"公學路四段１２２巷９６弄５４號之１１","OBJECTID":80134},"geometry":{"x":165731.91000000015,"y":2552250.290000001}},{"attributes":{"ID":80135,"DIS_CODE":0,"TOWNNAME":"安南區","LI":"佃東里","LIN":"19鄰","STREET":"公學路","SECT":"四段","MAREA":" ","LANE":"１２２巷","ALLEY":"９６弄","HOUSE_NO":"５４號之１２","E_COORD97":165738.85000000001,"N_COORD97":2552253.3300000001,"ADDRESS":"公學路四段１２２巷９６弄５４號之１２","OBJECTID":80135},"geometry":{"x":165738.8499999987,"y":2552253.3300000001}},{"attributes":{"ID":80136,"DIS_CODE":0,"TOWNNAME":"善化區","LI":"六分里","LIN":"7鄰","STREET":" ","SECT":" ","MAREA":"溪底寮","LANE":" ","ALLEY":" ","HOUSE_NO":"１號","E_COORD97":177941.95999999999,"N_COORD97":2561914.27,"ADDRESS":"溪底寮１號","OBJECTID":80136},"geometry":{"x":177941.95999999996,"y":2561914.2700000014}},{"attributes":{"ID":80137,"DIS_CODE":0,"TOWNNAME":"善化區","LI":"什乃里","LIN":"7鄰","STREET":" ","SECT":" ","MAREA":"什乃","LANE":" ","ALLEY":" ","HOUSE_NO":"６３號","E_COORD97":176113.48999999999,"N_COORD97":2560405.8900000001,"ADDRESS":"什乃６３號","OBJECTID":80137},"geometry":{"x":176113.49000000115,"y":2560405.8900000025}},{"attributes":{"ID":80138,"DIS_CODE":0,"TOWNNAME":"安南區","LI":"佃東里","LIN":"19鄰","STREET":"公學路","SECT":"四段","MAREA":" ","LANE":"１２２巷","ALLEY":"９６弄","HOUSE_NO":"５４號之１３","E_COORD97":165745.10999999999,"N_COORD97":2552248.0899999999,"ADDRESS":"公學路四段１２２巷９６弄５４號之１３","OBJECTID":80138},"geometry":{"x":165745.11000000127,"y":2552248.0899999999}},{"attributes":{"ID":80139,"DIS_CODE":0,"TOWNNAME":"安南區","LI":"佃東里","LIN":"19鄰","STREET":"公學路","SECT":"四段","MAREA":" ","LANE":"１２２巷","ALLEY":"９６弄","HOUSE_NO":"５４號之１４","E_COORD97":165750.51999999999,"N_COORD97":2552252.48,"ADDRESS":"公學路四段１２２巷９６弄５４號之１４","OBJECTID":80139},"geometry":{"x":165750.51999999955,"y":2552252.4800000004}},{"attributes":{"ID":80140,"DIS_CODE":0,"TOWNNAME":"安南區","LI":"佃東里","LIN":"19鄰","STREET":"公學路","SECT":"四段","MAREA":" ","LANE":"１２２巷","ALLEY":"９６弄","HOUSE_NO":"５４號之１５","E_COORD97":165751.37,"N_COORD97":2552232.54,"ADDRESS":"公學路四段１２２巷９６弄５４號之１５","OBJECTID":80140},"geometry":{"x":165751.37000000104,"y":2552232.540000001}},{"attributes":{"ID":80141,"DIS_CODE":0,"TOWNNAME":"善化區","LI":"田寮里","LIN":"7鄰","STREET":" ","SECT":" ","MAREA":"六分寮","LANE":" ","ALLEY":" ","HOUSE_NO":"７３號之３","E_COORD97":178423.66,"N_COORD97":2561391.52,"ADDRESS":"六分寮７３號之３","OBJECTID":80141},"geometry":{"x":178423.66000000015,"y":2561391.5199999996}},{"attributes":{"ID":80142,"DIS_CODE":0,"TOWNNAME":"安南區","LI":"佃東里","LIN":"19鄰","STREET":"公學路","SECT":"四段","MAREA":" ","LANE":"１２２巷","ALLEY":"９６弄","HOUSE_NO":"５４號之１６","E_COORD97":165744.76999999999,"N_COORD97":2552237.4399999999,"ADDRESS":"公學路四段１２２巷９６弄５４號之１６","OBJECTID":80142},"geometry":{"x":165744.77000000048,"y":2552237.4399999995}},{"attributes":{"ID":80143,"DIS_CODE":0,"TOWNNAME":"善化區","LI":"小新里","LIN":"7鄰","STREET":" ","SECT":" ","MAREA":"小新營","LANE":" ","ALLEY":" ","HOUSE_NO":"５６號之１６","E_COORD97":179592.22,"N_COORD97":2558657.52,"ADDRESS":"小新營５６號之１６","OBJECTID":80143},"geometry":{"x":179592.21999999974,"y":2558657.5200000014}},{"attributes":{"ID":80144,"DIS_CODE":0,"TOWNNAME":"安南區","LI":"佃東里","LIN":"19鄰","STREET":"公學路","SECT":"四段","MAREA":" ","LANE":"１２２巷","ALLEY":"９６弄","HOUSE_NO":"５４號之１７","E_COORD97":165737.48999999999,"N_COORD97":2552231.8599999999,"ADDRESS":"公學路四段１２２巷９６弄５４號之１７","OBJECTID":80144},"geometry":{"x":165737.49000000115,"y":2552231.8599999994}},{"attributes":{"ID":80145,"DIS_CODE":0,"TOWNNAME":"善化區","LI":"田寮里","LIN":"7鄰","STREET":" ","SECT":" ","MAREA":"六分寮","LANE":" ","ALLEY":" ","HOUSE_NO":"７３號之１","E_COORD97":178414.45999999999,"N_COORD97":2561386.52,"ADDRESS":"六分寮７３號之１","OBJECTID":80145},"geometry":{"x":178414.45999999996,"y":2561386.5200000014}},{"attributes":{"ID":80146,"DIS_CODE":0,"TOWNNAME":"善化區","LI":"六德里","LIN":"7鄰","STREET":" ","SECT":" ","MAREA":"六分寮","LANE":" ","ALLEY":" ","HOUSE_NO":"２５６號","E_COORD97":178754.87,"N_COORD97":2561604.75,"ADDRESS":"六分寮２５６號","OBJECTID":80146},"geometry":{"x":178754.86999999918,"y":2561604.75}},{"attributes":{"ID":80147,"DIS_CODE":0,"TOWNNAME":"善化區","LI":"什乃里","LIN":"7鄰","STREET":" ","SECT":" ","MAREA":"什乃","LANE":" ","ALLEY":" ","HOUSE_NO":"６４號","E_COORD97":176128.26999999999,"N_COORD97":2560418,"ADDRESS":"什乃６４號","OBJECTID":80147},"geometry":{"x":176128.27000000048,"y":2560418.0000000019}},{"attributes":{"ID":80148,"DIS_CODE":0,"TOWNNAME":"善化區","LI":"六分里","LIN":"7鄰","STREET":" ","SECT":" ","MAREA":"溪底寮","LANE":" ","ALLEY":" ","HOUSE_NO":"７號之１","E_COORD97":177945.01999999999,"N_COORD97":2561997.77,"ADDRESS":"溪底寮７號之１","OBJECTID":80148},"geometry":{"x":177945.02000000048,"y":2561997.7700000033}},{"attributes":{"ID":80149,"DIS_CODE":0,"TOWNNAME":"善化區","LI":"什乃里","LIN":"7鄰","STREET":" ","SECT":" ","MAREA":"什乃","LANE":" ","ALLEY":" ","HOUSE_NO":"５７號","E_COORD97":176087.26999999999,"N_COORD97":2560433.5,"ADDRESS":"什乃５７號","OBJECTID":80149},"geometry":{"x":176087.27000000048,"y":2560433.4999999981}},{"attributes":{"ID":80150,"DIS_CODE":0,"TOWNNAME":"善化區","LI":"六分里","LIN":"7鄰","STREET":" ","SECT":" ","MAREA":"溪底寮","LANE":" ","ALLEY":" ","HOUSE_NO":"７號","E_COORD97":177931.60000000001,"N_COORD97":2561987.02,"ADDRESS":"溪底寮７號","OBJECTID":80150},"geometry":{"x":177931.59999999963,"y":2561987.0200000014}},{"attributes":{"ID":80151,"DIS_CODE":0,"TOWNNAME":"善化區","LI":"田寮里","LIN":"7鄰","STREET":" ","SECT":" ","MAREA":"六分寮","LANE":" ","ALLEY":" ","HOUSE_NO":"７４之１號","E_COORD97":178433.45999999999,"N_COORD97":2561397.02,"ADDRESS":"六分寮７４之１號","OBJECTID":80151},"geometry":{"x":178433.45999999996,"y":2561397.0200000014}},{"attributes":{"ID":80152,"DIS_CODE":0,"TOWNNAME":"善化區","LI":"田寮里","LIN":"7鄰","STREET":" ","SECT":" ","MAREA":"六分寮","LANE":" ","ALLEY":" ","HOUSE_NO":"８６號之５","E_COORD97":178514.79000000001,"N_COORD97":2561443.27,"ADDRESS":"六分寮８６號之５","OBJECTID":80152},"geometry":{"x":178514.7900000019,"y":2561443.2700000014}},{"attributes":{"ID":80153,"DIS_CODE":0,"TOWNNAME":"善化區","LI":"小新里","LIN":"7鄰","STREET":" ","SECT":" ","MAREA":"小新營","LANE":" ","ALLEY":" ","HOUSE_NO":"５６號之１９","E_COORD97":179615.95999999999,"N_COORD97":2558542.02,"ADDRESS":"小新營５６號之１９","OBJECTID":80153},"geometry":{"x":179615.96000000089,"y":2558542.0200000014}},{"attributes":{"ID":80154,"DIS_CODE":0,"TOWNNAME":"善化區","LI":"什乃里","LIN":"7鄰","STREET":" ","SECT":" ","MAREA":"什乃","LANE":" ","ALLEY":" ","HOUSE_NO":"５９號之１","E_COORD97":176072.73000000001,"N_COORD97":2560390.02,"ADDRESS":"什乃５９號之１","OBJECTID":80154},"geometry":{"x":176072.72999999952,"y":2560390.0200000014}},{"attributes":{"ID":80155,"DIS_CODE":0,"TOWNNAME":"仁德區","LI":"中生里","LIN":"7鄰","STREET":" ","SECT":" ","MAREA":"中洲","LANE":" ","ALLEY":" ","HOUSE_NO":"１４０號","E_COORD97":173017.60000000001,"N_COORD97":2534038.4900000002,"ADDRESS":"中洲１４０號","OBJECTID":80155},"geometry":{"x":173017.59999999963,"y":2534038.4900000002}},{"attributes":{"ID":80156,"DIS_CODE":0,"TOWNNAME":"白河區","LI":"庄內里","LIN":"7鄰","STREET":" ","SECT":" ","MAREA":"客庄內","LANE":" ","ALLEY":" ","HOUSE_NO":"８６之１２２號","E_COORD97":190682.26000000001,"N_COORD97":2583885.5299999998,"ADDRESS":"客庄內８６之１２２號","OBJECTID":80156},"geometry":{"x":190682.25999999978,"y":2583885.5300000012}},{"attributes":{"ID":80157,"DIS_CODE":0,"TOWNNAME":"鹽水區","LI":"飯店里","LIN":"3鄰","STREET":" ","SECT":" ","MAREA":"麻油寮","LANE":" ","ALLEY":" ","HOUSE_NO":"５３號之２","E_COORD97":169401.04000000001,"N_COORD97":2573914.2200000002,"ADDRESS":"麻油寮５３號之２","OBJECTID":80157},"geometry":{"x":169401.04000000004,"y":2573914.2200000025}},{"attributes":{"ID":80158,"DIS_CODE":0,"TOWNNAME":"安南區","LI":"佃東里","LIN":"19鄰","STREET":"公學路","SECT":"四段","MAREA":" ","LANE":"１２２巷","ALLEY":"９６弄","HOUSE_NO":"５４號之１８","E_COORD97":165731.73999999999,"N_COORD97":2552236.2599999998,"ADDRESS":"公學路四段１２２巷９６弄５４號之１８","OBJECTID":80158},"geometry":{"x":165731.73999999929,"y":2552236.2599999998}},{"attributes":{"ID":80159,"DIS_CODE":0,"TOWNNAME":"鹽水區","LI":"下中里","LIN":"3鄰","STREET":" ","SECT":" ","MAREA":"樹子腳","LANE":" ","ALLEY":" ","HOUSE_NO":"１０號","E_COORD97":172672.94,"N_COORD97":2580040.02,"ADDRESS":"樹子腳１０號","OBJECTID":80159},"geometry":{"x":172672.94000000134,"y":2580040.0200000014}},{"attributes":{"ID":80160,"DIS_CODE":0,"TOWNNAME":"鹽水區","LI":"下中里","LIN":"3鄰","STREET":" ","SECT":" ","MAREA":"樹子腳","LANE":" ","ALLEY":" ","HOUSE_NO":"１１號之１","E_COORD97":172635.45999999999,"N_COORD97":2580072.3500000001,"ADDRESS":"樹子腳１１號之１","OBJECTID":80160},"geometry":{"x":172635.45999999996,"y":2580072.3500000015}},{"attributes":{"ID":80161,"DIS_CODE":0,"TOWNNAME":"安南區","LI":"佃東里","LIN":"19鄰","STREET":"公學路","SECT":"四段","MAREA":" ","LANE":"１２２巷","ALLEY":"９６弄","HOUSE_NO":"５４號之２","E_COORD97":165727.38,"N_COORD97":2552290.9300000002,"ADDRESS":"公學路四段１２２巷９６弄５４號之２","OBJECTID":80161},"geometry":{"x":165727.38000000082,"y":2552290.9300000016}},{"attributes":{"ID":80162,"DIS_CODE":0,"TOWNNAME":"安南區","LI":"佃東里","LIN":"19鄰","STREET":"公學路","SECT":"四段","MAREA":" ","LANE":"１２２巷","ALLEY":"９６弄","HOUSE_NO":"５４號之３","E_COORD97":165726.60999999999,"N_COORD97":2552286.6099999999,"ADDRESS":"公學路四段１２２巷９６弄５４號之３","OBJECTID":80162},"geometry":{"x":165726.61000000127,"y":2552286.6100000013}},{"attributes":{"ID":80163,"DIS_CODE":0,"TOWNNAME":"安南區","LI":"佃東里","LIN":"19鄰","STREET":"公學路","SECT":"四段","MAREA":" ","LANE":"１２２巷","ALLEY":"９６弄","HOUSE_NO":"５４號之４","E_COORD97":165726.5,"N_COORD97":2552281.6200000001,"ADDRESS":"公學路四段１２２巷９６弄５４號之４","OBJECTID":80163},"geometry":{"x":165726.50000000186,"y":2552281.6200000029}},{"attributes":{"ID":80164,"DIS_CODE":0,"TOWNNAME":"安南區","LI":"佃東里","LIN":"19鄰","STREET":"公學路","SECT":"四段","MAREA":" ","LANE":"１２２巷","ALLEY":"９６弄","HOUSE_NO":"５４號之５","E_COORD97":165726.94,"N_COORD97":2552277.2999999998,"ADDRESS":"公學路四段１２２巷９６弄５４號之５","OBJECTID":80164},"geometry":{"x":165726.94000000041,"y":2552277.3000000007}},{"attributes":{"ID":80165,"DIS_CODE":0,"TOWNNAME":"安南區","LI":"佃東里","LIN":"19鄰","STREET":"公學路","SECT":"四段","MAREA":" ","LANE":"１２２巷","ALLEY":"９６弄","HOUSE_NO":"５４號之６","E_COORD97":165725.26999999999,"N_COORD97":2552273.46,"ADDRESS":"公學路四段１２２巷９６弄５４號之６","OBJECTID":80165},"geometry":{"x":165725.26999999955,"y":2552273.4600000009}},{"attributes":{"ID":80166,"DIS_CODE":0,"TOWNNAME":"安南區","LI":"鳳凰里","LIN":"28鄰","STREET":"安中路","SECT":"一段","MAREA":" ","LANE":"６２２巷","ALLEY":"８８弄","HOUSE_NO":"１５號","E_COORD97":168076.64000000001,"N_COORD97":2549107.1499999999,"ADDRESS":"安中路一段６２２巷８８弄１５號","OBJECTID":80166},"geometry":{"x":168076.6400000006,"y":2549107.1500000022}},{"attributes":{"ID":80167,"DIS_CODE":0,"TOWNNAME":"關廟區","LI":"關廟里","LIN":"14鄰","STREET":"民生街","SECT":" ","MAREA":" ","LANE":" ","ALLEY":" ","HOUSE_NO":"１１３號","E_COORD97":180852.89000000001,"N_COORD97":2539754.29,"ADDRESS":"民生街１１３號","OBJECTID":80167},"geometry":{"x":180852.88999999873,"y":2539754.290000001}},{"attributes":{"ID":80168,"DIS_CODE":0,"TOWNNAME":"關廟區","LI":"龜洞里","LIN":"8鄰","STREET":"官崙街","SECT":" ","MAREA":" ","LANE":" ","ALLEY":" ","HOUSE_NO":"６０號","E_COORD97":183472.64000000001,"N_COORD97":2533372.2999999998,"ADDRESS":"官崙街６０號","OBJECTID":80168},"geometry":{"x":183472.6400000006,"y":2533372.3000000007}},{"attributes":{"ID":80169,"DIS_CODE":0,"TOWNNAME":"善化區","LI":"小新里","LIN":"7鄰","STREET":"成功路","SECT":" ","MAREA":" ","LANE":" ","ALLEY":" ","HOUSE_NO":"３４７號","E_COORD97":179495.57000000001,"N_COORD97":2558732.5,"ADDRESS":"成功路３４７號","OBJECTID":80169},"geometry":{"x":179495.5700000003,"y":2558732.5000000019}},{"attributes":{"ID":80170,"DIS_CODE":0,"TOWNNAME":"善化區","LI":"光文里","LIN":"7鄰","STREET":"建業路","SECT":" ","MAREA":" ","LANE":" ","ALLEY":" ","HOUSE_NO":"１８號","E_COORD97":179002.81,"N_COORD97":2559618.5299999998,"ADDRESS":"建業路１８號","OBJECTID":80170},"geometry":{"x":179002.81000000052,"y":2559618.5299999993}},{"attributes":{"ID":80171,"DIS_CODE":0,"TOWNNAME":"善化區","LI":"光文里","LIN":"7鄰","STREET":"建業路","SECT":" ","MAREA":" ","LANE":" ","ALLEY":" ","HOUSE_NO":"３０號","E_COORD97":178969.20999999999,"N_COORD97":2559620.2799999998,"ADDRESS":"建業路３０號","OBJECTID":80171},"geometry":{"x":178969.20999999996,"y":2559620.2799999993}},{"attributes":{"ID":80172,"DIS_CODE":0,"TOWNNAME":"善化區","LI":"文昌里","LIN":"7鄰","STREET":"光復路","SECT":" ","MAREA":" ","LANE":" ","ALLEY":" ","HOUSE_NO":"１８２號","E_COORD97":177288.10999999999,"N_COORD97":2558620.2599999998,"ADDRESS":"光復路１８２號","OBJECTID":80172},"geometry":{"x":177288.11000000034,"y":2558620.2599999998}},{"attributes":{"ID":80173,"DIS_CODE":0,"TOWNNAME":"善化區","LI":"文昌里","LIN":"7鄰","STREET":"中華路","SECT":" ","MAREA":" ","LANE":" ","ALLEY":" ","HOUSE_NO":"６０號","E_COORD97":177277.78,"N_COORD97":2558766.5,"ADDRESS":"中華路６０號","OBJECTID":80173},"geometry":{"x":177277.78000000119,"y":2558766.5000000019}},{"attributes":{"ID":80174,"DIS_CODE":0,"TOWNNAME":"善化區","LI":"光文里","LIN":"7鄰","STREET":"建業路","SECT":" ","MAREA":" ","LANE":" ","ALLEY":" ","HOUSE_NO":"２８號","E_COORD97":178974.13,"N_COORD97":2559620.7799999998,"ADDRESS":"建業路２８號","OBJECTID":80174},"geometry":{"x":178974.13000000082,"y":2559620.7800000031}},{"attributes":{"ID":80175,"DIS_CODE":0,"TOWNNAME":"南區","LI":"文華里","LIN":"19鄰","STREET":"敬南街","SECT":" ","MAREA":" ","LANE":" ","ALLEY":" ","HOUSE_NO":"２１號","E_COORD97":166831.20000000001,"N_COORD97":2543007.71,"ADDRESS":"敬南街２１號","OBJECTID":80175},"geometry":{"x":166831.20000000112,"y":2543007.7100000028}},{"attributes":{"ID":80176,"DIS_CODE":0,"TOWNNAME":"南區","LI":"文華里","LIN":"19鄰","STREET":"敬南街","SECT":" ","MAREA":" ","LANE":" ","ALLEY":" ","HOUSE_NO":"２３號","E_COORD97":166835.95999999999,"N_COORD97":2543002.5099999998,"ADDRESS":"敬南街２３號","OBJECTID":80176},"geometry":{"x":166835.96000000089,"y":2543002.5099999998}},{"attributes":{"ID":80177,"DIS_CODE":0,"TOWNNAME":"南區","LI":"文華里","LIN":"19鄰","STREET":"敬南街","SECT":" ","MAREA":" ","LANE":" ","ALLEY":" ","HOUSE_NO":"２５號","E_COORD97":166840.09,"N_COORD97":2542997.4900000002,"ADDRESS":"敬南街２５號","OBJECTID":80177},"geometry":{"x":166840.09000000078,"y":2542997.4900000039}},{"attributes":{"ID":80178,"DIS_CODE":0,"TOWNNAME":"南區","LI":"文華里","LIN":"19鄰","STREET":"敬南街","SECT":" ","MAREA":" ","LANE":" ","ALLEY":" ","HOUSE_NO":"２７號","E_COORD97":166843.76999999999,"N_COORD97":2542992.1099999999,"ADDRESS":"敬南街２７號","OBJECTID":80178},"geometry":{"x":166843.77000000048,"y":2542992.1100000031}},{"attributes":{"ID":80179,"DIS_CODE":0,"TOWNNAME":"南區","LI":"文華里","LIN":"19鄰","STREET":"敬南街","SECT":" ","MAREA":" ","LANE":" ","ALLEY":" ","HOUSE_NO":"２９號","E_COORD97":166847.72,"N_COORD97":2542987.4500000002,"ADDRESS":"敬南街２９號","OBJECTID":80179},"geometry":{"x":166847.72000000067,"y":2542987.4500000011}},{"attributes":{"ID":80180,"DIS_CODE":0,"TOWNNAME":"南區","LI":"文華里","LIN":"21鄰","STREET":"文南一街","SECT":" ","MAREA":" ","LANE":" ","ALLEY":" ","HOUSE_NO":"６號","E_COORD97":166921.60999999999,"N_COORD97":2542925.7000000002,"ADDRESS":"文南一街６號","OBJECTID":80180},"geometry":{"x":166921.61000000127,"y":2542925.6999999993}},{"attributes":{"ID":80181,"DIS_CODE":0,"TOWNNAME":"安南區","LI":"佃東里","LIN":"19鄰","STREET":"公學路","SECT":"四段","MAREA":" ","LANE":"１２２巷","ALLEY":"９６弄","HOUSE_NO":"５４號之７","E_COORD97":165726.48999999999,"N_COORD97":2552269.0299999998,"ADDRESS":"公學路四段１２２巷９６弄５４號之７","OBJECTID":80181},"geometry":{"x":165726.49000000022,"y":2552269.0300000012}},{"attributes":{"ID":80182,"DIS_CODE":0,"TOWNNAME":"安南區","LI":"佃東里","LIN":"19鄰","STREET":"公學路","SECT":"四段","MAREA":" ","LANE":"１２２巷","ALLEY":"９６弄","HOUSE_NO":"５４號之８","E_COORD97":165726.16,"N_COORD97":2552264.48,"ADDRESS":"公學路四段１２２巷９６弄５４號之８","OBJECTID":80182},"geometry":{"x":165726.16000000108,"y":2552264.4800000023}},{"attributes":{"ID":80183,"DIS_CODE":0,"TOWNNAME":"安南區","LI":"佃東里","LIN":"19鄰","STREET":"公學路","SECT":"四段","MAREA":" ","LANE":"１２２巷","ALLEY":"９６弄","HOUSE_NO":"５４號之９","E_COORD97":165720.73999999999,"N_COORD97":2552257.0499999998,"ADDRESS":"公學路四段１２２巷９６弄５４號之９","OBJECTID":80183},"geometry":{"x":165720.74000000115,"y":2552257.0500000026}},{"attributes":{"ID":80184,"DIS_CODE":0,"TOWNNAME":"安南區","LI":"梅花里","LIN":"19鄰","STREET":"安中路","SECT":"一段","MAREA":" ","LANE":"７０５巷","ALLEY":"３弄","HOUSE_NO":"１０號","E_COORD97":167430.42999999999,"N_COORD97":2549254.8900000001,"ADDRESS":"安中路一段７０５巷３弄１０號","OBJECTID":80184},"geometry":{"x":167430.43000000063,"y":2549254.8900000025}},{"attributes":{"ID":80185,"DIS_CODE":0,"TOWNNAME":"安南區","LI":"梅花里","LIN":"19鄰","STREET":"安中路","SECT":"一段","MAREA":" ","LANE":"７０５巷","ALLEY":"３弄","HOUSE_NO":"１１號","E_COORD97":167445.32000000001,"N_COORD97":2549219.7799999998,"ADDRESS":"安中路一段７０５巷３弄１１號","OBJECTID":80185},"geometry":{"x":167445.32000000216,"y":2549219.7800000012}},{"attributes":{"ID":80186,"DIS_CODE":0,"TOWNNAME":"安南區","LI":"梅花里","LIN":"19鄰","STREET":"安中路","SECT":"一段","MAREA":" ","LANE":"７０５巷","ALLEY":"３弄","HOUSE_NO":"１２號","E_COORD97":167427.01999999999,"N_COORD97":2549251.7000000002,"ADDRESS":"安中路一段７０５巷３弄１２號","OBJECTID":80186},"geometry":{"x":167427.01999999955,"y":2549251.7000000011}},{"attributes":{"ID":80187,"DIS_CODE":0,"TOWNNAME":"安南區","LI":"梅花里","LIN":"19鄰","STREET":"安中路","SECT":"一段","MAREA":" ","LANE":"７０５巷","ALLEY":"３弄","HOUSE_NO":"１３號","E_COORD97":167440,"N_COORD97":2549212.3399999999,"ADDRESS":"安中路一段７０５巷３弄１３號","OBJECTID":80187},"geometry":{"x":167440,"y":2549212.3400000036}},{"attributes":{"ID":80188,"DIS_CODE":0,"TOWNNAME":"安南區","LI":"梅花里","LIN":"19鄰","STREET":"安中路","SECT":"一段","MAREA":" ","LANE":"７０５巷","ALLEY":"３弄","HOUSE_NO":"１４號","E_COORD97":167424.26000000001,"N_COORD97":2549245.54,"ADDRESS":"安中路一段７０５巷３弄１４號","OBJECTID":80188},"geometry":{"x":167424.25999999978,"y":2549245.540000001}},{"attributes":{"ID":80189,"DIS_CODE":0,"TOWNNAME":"安南區","LI":"梅花里","LIN":"19鄰","STREET":"安中路","SECT":"一段","MAREA":" ","LANE":"７０５巷","ALLEY":"３弄","HOUSE_NO":"１５號","E_COORD97":167436.17000000001,"N_COORD97":2549205.96,"ADDRESS":"安中路一段７０５巷３弄１５號","OBJECTID":80189},"geometry":{"x":167436.17000000086,"y":2549205.9600000046}},{"attributes":{"ID":80190,"DIS_CODE":0,"TOWNNAME":"楠西區","LI":"灣丘里","LIN":"15鄰","STREET":" ","SECT":" ","MAREA":"鳳興","LANE":" ","ALLEY":" ","HOUSE_NO":"４６號","E_COORD97":199000.76999999999,"N_COORD97":2562494.25,"ADDRESS":"鳳興４６號","OBJECTID":80190},"geometry":{"x":199000.77000000142,"y":2562494.2500000019}},{"attributes":{"ID":80191,"DIS_CODE":0,"TOWNNAME":"安南區","LI":"梅花里","LIN":"19鄰","STREET":"安中路","SECT":"一段","MAREA":" ","LANE":"７０５巷","ALLEY":"３弄","HOUSE_NO":"１號","E_COORD97":167465.73999999999,"N_COORD97":2549252.9500000002,"ADDRESS":"安中路一段７０５巷３弄１號","OBJECTID":80191},"geometry":{"x":167465.74000000022,"y":2549252.9500000011}},{"attributes":{"ID":80192,"DIS_CODE":0,"TOWNNAME":"安南區","LI":"梅花里","LIN":"19鄰","STREET":"安中路","SECT":"一段","MAREA":" ","LANE":"７０５巷","ALLEY":"３弄","HOUSE_NO":"２０號","E_COORD97":167416.38,"N_COORD97":2549231.29,"ADDRESS":"安中路一段７０５巷３弄２０號","OBJECTID":80192},"geometry":{"x":167416.38000000082,"y":2549231.2899999991}},{"attributes":{"ID":80193,"DIS_CODE":0,"TOWNNAME":"南區","LI":"文華里","LIN":"21鄰","STREET":"文南一街","SECT":" ","MAREA":" ","LANE":" ","ALLEY":" ","HOUSE_NO":"８號","E_COORD97":166917.57000000001,"N_COORD97":2542922.1099999999,"ADDRESS":"文南一街８號","OBJECTID":80193},"geometry":{"x":166917.5700000003,"y":2542922.1100000013}},{"attributes":{"ID":80194,"DIS_CODE":0,"TOWNNAME":"南區","LI":"文華里","LIN":"21鄰","STREET":"文南一街","SECT":" ","MAREA":" ","LANE":" ","ALLEY":" ","HOUSE_NO":"１０號","E_COORD97":166912.63,"N_COORD97":2542918.6200000001,"ADDRESS":"文南一街１０號","OBJECTID":80194},"geometry":{"x":166912.63000000082,"y":2542918.620000001}},{"attributes":{"ID":80195,"DIS_CODE":0,"TOWNNAME":"南區","LI":"文華里","LIN":"21鄰","STREET":"文南二街","SECT":" ","MAREA":" ","LANE":" ","ALLEY":" ","HOUSE_NO":"１號","E_COORD97":166941.45000000001,"N_COORD97":2542982.6899999999,"ADDRESS":"文南二街１號","OBJECTID":80195},"geometry":{"x":166941.45000000112,"y":2542982.6900000013}},{"attributes":{"ID":80196,"DIS_CODE":0,"TOWNNAME":"南區","LI":"文華里","LIN":"21鄰","STREET":"文南二街","SECT":" ","MAREA":" ","LANE":" ","ALLEY":" ","HOUSE_NO":"３號","E_COORD97":166937.14000000001,"N_COORD97":2542978.75,"ADDRESS":"文南二街３號","OBJECTID":80196},"geometry":{"x":166937.13999999873,"y":2542978.7500000019}},{"attributes":{"ID":80197,"DIS_CODE":0,"TOWNNAME":"南區","LI":"文華里","LIN":"21鄰","STREET":"文南二街","SECT":" ","MAREA":" ","LANE":" ","ALLEY":" ","HOUSE_NO":"５號","E_COORD97":166931.92999999999,"N_COORD97":2542974.4399999999,"ADDRESS":"文南二街５號","OBJECTID":80197},"geometry":{"x":166931.93000000156,"y":2542974.4400000013}},{"attributes":{"ID":80198,"DIS_CODE":0,"TOWNNAME":"仁德區","LI":"中洲里","LIN":"7鄰","STREET":" ","SECT":" ","MAREA":"中洲","LANE":" ","ALLEY":" ","HOUSE_NO":"２７３號之２","E_COORD97":173197.17999999999,"N_COORD97":2534201.7999999998,"ADDRESS":"中洲２７３號之２","OBJECTID":80198},"geometry":{"x":173197.1799999997,"y":2534201.8000000026}},{"attributes":{"ID":80199,"DIS_CODE":0,"TOWNNAME":"安南區","LI":"梅花里","LIN":"19鄰","STREET":"安中路","SECT":"一段","MAREA":" ","LANE":"７０５巷","ALLEY":"３弄","HOUSE_NO":"２６號","E_COORD97":167407.01999999999,"N_COORD97":2549216.4100000001,"ADDRESS":"安中路一段７０５巷３弄２６號","OBJECTID":80199},"geometry":{"x":167407.01999999955,"y":2549216.410000002}},{"attributes":{"ID":80200,"DIS_CODE":0,"TOWNNAME":"安南區","LI":"梅花里","LIN":"19鄰","STREET":"安中路","SECT":"一段","MAREA":" ","LANE":"７０５巷","ALLEY":"３弄","HOUSE_NO":"３０號","E_COORD97":167400.85000000001,"N_COORD97":2549207.27,"ADDRESS":"安中路一段７０５巷３弄３０號","OBJECTID":80200},"geometry":{"x":167400.85000000056,"y":2549207.2700000014}}]}