{"displayFieldName":"TOWNNAME","fieldAliases":{"ID":"ID","DIS_CODE":"DIS_CODE","TOWNNAME":"TOWNNAME","LI":"LI","LIN":"LIN","STREET":"STREET","SECT":"SECT","MAREA":"MAREA","LANE":"LANE","ALLEY":"ALLEY","HOUSE_NO":"HOUSE_NO","E_COORD97":"E_COORD97","N_COORD97":"N_COORD97","ADDRESS":"ADDRESS","OBJECTID":"OBJECTID"},"geometryType":"esriGeometryPoint","spatialReference":{"wkid":102443,"latestWkid":3826},"fields":[{"name":"ID","type":"esriFieldTypeDouble","alias":"ID"},{"name":"DIS_CODE","type":"esriFieldTypeInteger","alias":"DIS_CODE"},{"name":"TOWNNAME","type":"esriFieldTypeString","alias":"TOWNNAME","length":8},{"name":"LI","type":"esriFieldTypeString","alias":"LI","length":8},{"name":"LIN","type":"esriFieldTypeString","alias":"LIN","length":12},{"name":"STREET","type":"esriFieldTypeString","alias":"STREET","length":20},{"name":"SECT","type":"esriFieldTypeString","alias":"SECT","length":8},{"name":"MAREA","type":"esriFieldTypeString","alias":"MAREA","length":12},{"name":"LANE","type":"esriFieldTypeString","alias":"LANE","length":10},{"name":"ALLEY","type":"esriFieldTypeString","alias":"ALLEY","length":10},{"name":"HOUSE_NO","type":"esriFieldTypeString","alias":"HOUSE_NO","length":20},{"name":"E_COORD97","type":"esriFieldTypeDouble","alias":"E_COORD97"},{"name":"N_COORD97","type":"esriFieldTypeDouble","alias":"N_COORD97"},{"name":"ADDRESS","type":"esriFieldTypeString","alias":"ADDRESS","length":50},{"name":"OBJECTID","type":"esriFieldTypeOID","alias":"OBJECTID"}],"features":[{"attributes":{"ID":343010,"DIS_CODE":0,"TOWNNAME":"東山區","LI":"大客里","LIN":"5鄰","STREET":" ","SECT":" ","MAREA":"大庄","LANE":" ","ALLEY":" ","HOUSE_NO":"３３號之５","E_COORD97":189742.95000000001,"N_COORD97":2578733.5600000001,"ADDRESS":"大庄３３號之５","OBJECTID":343001},"geometry":{"x":189742.95000000112,"y":2578733.5600000005}},{"attributes":{"ID":343011,"DIS_CODE":0,"TOWNNAME":"東山區","LI":"大客里","LIN":"5鄰","STREET":" ","SECT":" ","MAREA":"大庄","LANE":" ","ALLEY":" ","HOUSE_NO":"３３號","E_COORD97":189775.03,"N_COORD97":2578886.1099999999,"ADDRESS":"大庄３３號","OBJECTID":343002},"geometry":{"x":189775.03000000119,"y":2578886.1100000031}},{"attributes":{"ID":343012,"DIS_CODE":0,"TOWNNAME":"東山區","LI":"大客里","LIN":"5鄰","STREET":" ","SECT":" ","MAREA":"大庄","LANE":" ","ALLEY":" ","HOUSE_NO":"３４之１號","E_COORD97":189838.26000000001,"N_COORD97":2578912.4399999999,"ADDRESS":"大庄３４之１號","OBJECTID":343003},"geometry":{"x":189838.25999999978,"y":2578912.4400000013}},{"attributes":{"ID":343013,"DIS_CODE":0,"TOWNNAME":"北區","LI":"成功里","LIN":"5鄰","STREET":"北安路","SECT":"一段","MAREA":" ","LANE":"十四二巷","ALLEY":" ","HOUSE_NO":"５７號二樓之１","E_COORD97":169055.07999999999,"N_COORD97":2546577.02,"ADDRESS":"北安路一段十四二巷５７號二樓之１","OBJECTID":343004},"geometry":{"x":169055.08000000007,"y":2546577.0200000014}},{"attributes":{"ID":343014,"DIS_CODE":0,"TOWNNAME":"北區","LI":"成功里","LIN":"5鄰","STREET":"北安路","SECT":"一段","MAREA":" ","LANE":"十四二巷","ALLEY":" ","HOUSE_NO":"５７號五樓","E_COORD97":169055.07999999999,"N_COORD97":2546577.02,"ADDRESS":"北安路一段十四二巷５７號五樓","OBJECTID":343005},"geometry":{"x":169055.08000000007,"y":2546577.0200000014}},{"attributes":{"ID":343015,"DIS_CODE":0,"TOWNNAME":"北區","LI":"成功里","LIN":"5鄰","STREET":"北安路","SECT":"一段","MAREA":" ","LANE":"十四二巷","ALLEY":" ","HOUSE_NO":"５７號六樓","E_COORD97":169055.07999999999,"N_COORD97":2546577.02,"ADDRESS":"北安路一段十四二巷５７號六樓","OBJECTID":343006},"geometry":{"x":169055.08000000007,"y":2546577.0200000014}},{"attributes":{"ID":343016,"DIS_CODE":0,"TOWNNAME":"北區","LI":"實踐里","LIN":"5鄰","STREET":"長榮路","SECT":"五段","MAREA":" ","LANE":"２９８巷","ALLEY":" ","HOUSE_NO":"２６號九樓之２","E_COORD97":169786.69,"N_COORD97":2545992.79,"ADDRESS":"長榮路五段２９８巷２６號九樓之２","OBJECTID":343007},"geometry":{"x":169786.69000000041,"y":2545992.790000001}},{"attributes":{"ID":343017,"DIS_CODE":0,"TOWNNAME":"北區","LI":"實踐里","LIN":"5鄰","STREET":"長榮路","SECT":"五段","MAREA":" ","LANE":"２９８巷","ALLEY":" ","HOUSE_NO":"２６號十樓之１","E_COORD97":169786.69,"N_COORD97":2545992.79,"ADDRESS":"長榮路五段２９８巷２６號十樓之１","OBJECTID":343008},"geometry":{"x":169786.69000000041,"y":2545992.790000001}},{"attributes":{"ID":343018,"DIS_CODE":0,"TOWNNAME":"北區","LI":"實踐里","LIN":"5鄰","STREET":"長榮路","SECT":"五段","MAREA":" ","LANE":"２９８巷","ALLEY":" ","HOUSE_NO":"２６號十樓之２","E_COORD97":169786.69,"N_COORD97":2545992.79,"ADDRESS":"長榮路五段２９８巷２６號十樓之２","OBJECTID":343009},"geometry":{"x":169786.69000000041,"y":2545992.790000001}},{"attributes":{"ID":343019,"DIS_CODE":0,"TOWNNAME":"北區","LI":"實踐里","LIN":"5鄰","STREET":"長榮路","SECT":"五段","MAREA":" ","LANE":"２９８巷","ALLEY":" ","HOUSE_NO":"２６號十一樓之１","E_COORD97":169786.69,"N_COORD97":2545992.79,"ADDRESS":"長榮路五段２９８巷２６號十一樓之１","OBJECTID":343010},"geometry":{"x":169786.69000000041,"y":2545992.790000001}},{"attributes":{"ID":343020,"DIS_CODE":0,"TOWNNAME":"北區","LI":"實踐里","LIN":"5鄰","STREET":"長榮路","SECT":"五段","MAREA":" ","LANE":"２９８巷","ALLEY":" ","HOUSE_NO":"２６號十一樓之２","E_COORD97":169786.69,"N_COORD97":2545992.79,"ADDRESS":"長榮路五段２９８巷２６號十一樓之２","OBJECTID":343011},"geometry":{"x":169786.69000000041,"y":2545992.790000001}},{"attributes":{"ID":343021,"DIS_CODE":0,"TOWNNAME":"北區","LI":"實踐里","LIN":"5鄰","STREET":"長榮路","SECT":"五段","MAREA":" ","LANE":"２９８巷","ALLEY":" ","HOUSE_NO":"２６號十二樓之１","E_COORD97":169786.69,"N_COORD97":2545992.79,"ADDRESS":"長榮路五段２９８巷２６號十二樓之１","OBJECTID":343012},"geometry":{"x":169786.69000000041,"y":2545992.790000001}},{"attributes":{"ID":343022,"DIS_CODE":0,"TOWNNAME":"北區","LI":"實踐里","LIN":"5鄰","STREET":"長榮路","SECT":"五段","MAREA":" ","LANE":"２９８巷","ALLEY":" ","HOUSE_NO":"２６號十二樓之２","E_COORD97":169786.69,"N_COORD97":2545992.79,"ADDRESS":"長榮路五段２９８巷２６號十二樓之２","OBJECTID":343013},"geometry":{"x":169786.69000000041,"y":2545992.790000001}},{"attributes":{"ID":343023,"DIS_CODE":0,"TOWNNAME":"北區","LI":"實踐里","LIN":"5鄰","STREET":"長榮路","SECT":"五段","MAREA":" ","LANE":"２９８巷","ALLEY":" ","HOUSE_NO":"１２號三樓之１","E_COORD97":169776.38,"N_COORD97":2545961.7400000002,"ADDRESS":"長榮路五段２９８巷１２號三樓之１","OBJECTID":343014},"geometry":{"x":169776.37999999989,"y":2545961.7400000002}},{"attributes":{"ID":343024,"DIS_CODE":0,"TOWNNAME":"北區","LI":"實踐里","LIN":"5鄰","STREET":"長榮路","SECT":"五段","MAREA":" ","LANE":"２９８巷","ALLEY":" ","HOUSE_NO":"１２號三樓之２","E_COORD97":169776.38,"N_COORD97":2545961.7400000002,"ADDRESS":"長榮路五段２９８巷１２號三樓之２","OBJECTID":343015},"geometry":{"x":169776.37999999989,"y":2545961.7400000002}},{"attributes":{"ID":343025,"DIS_CODE":0,"TOWNNAME":"北區","LI":"實踐里","LIN":"5鄰","STREET":"長榮路","SECT":"五段","MAREA":" ","LANE":"２９８巷","ALLEY":" ","HOUSE_NO":"１２號四樓之１","E_COORD97":169776.38,"N_COORD97":2545961.7400000002,"ADDRESS":"長榮路五段２９８巷１２號四樓之１","OBJECTID":343016},"geometry":{"x":169776.37999999989,"y":2545961.7400000002}},{"attributes":{"ID":343026,"DIS_CODE":0,"TOWNNAME":"北區","LI":"實踐里","LIN":"5鄰","STREET":"長榮路","SECT":"五段","MAREA":" ","LANE":"２９８巷","ALLEY":" ","HOUSE_NO":"１２號四樓之２","E_COORD97":169776.38,"N_COORD97":2545961.7400000002,"ADDRESS":"長榮路五段２９８巷１２號四樓之２","OBJECTID":343017},"geometry":{"x":169776.37999999989,"y":2545961.7400000002}},{"attributes":{"ID":343027,"DIS_CODE":0,"TOWNNAME":"北區","LI":"實踐里","LIN":"5鄰","STREET":"長榮路","SECT":"五段","MAREA":" ","LANE":"２９８巷","ALLEY":" ","HOUSE_NO":"１２號五樓之１","E_COORD97":169776.38,"N_COORD97":2545961.7400000002,"ADDRESS":"長榮路五段２９８巷１２號五樓之１","OBJECTID":343018},"geometry":{"x":169776.37999999989,"y":2545961.7400000002}},{"attributes":{"ID":343028,"DIS_CODE":0,"TOWNNAME":"北區","LI":"實踐里","LIN":"5鄰","STREET":"長榮路","SECT":"五段","MAREA":" ","LANE":"２９８巷","ALLEY":" ","HOUSE_NO":"１２號五樓之２","E_COORD97":169776.38,"N_COORD97":2545961.7400000002,"ADDRESS":"長榮路五段２９８巷１２號五樓之２","OBJECTID":343019},"geometry":{"x":169776.37999999989,"y":2545961.7400000002}},{"attributes":{"ID":343029,"DIS_CODE":0,"TOWNNAME":"北區","LI":"實踐里","LIN":"5鄰","STREET":"長榮路","SECT":"五段","MAREA":" ","LANE":"２９８巷","ALLEY":" ","HOUSE_NO":"１２號六樓之１","E_COORD97":169776.38,"N_COORD97":2545961.7400000002,"ADDRESS":"長榮路五段２９８巷１２號六樓之１","OBJECTID":343020},"geometry":{"x":169776.37999999989,"y":2545961.7400000002}},{"attributes":{"ID":343030,"DIS_CODE":0,"TOWNNAME":"北區","LI":"實踐里","LIN":"5鄰","STREET":"長榮路","SECT":"五段","MAREA":" ","LANE":"２９８巷","ALLEY":" ","HOUSE_NO":"１２號六樓之２","E_COORD97":169776.38,"N_COORD97":2545961.7400000002,"ADDRESS":"長榮路五段２９８巷１２號六樓之２","OBJECTID":343021},"geometry":{"x":169776.37999999989,"y":2545961.7400000002}},{"attributes":{"ID":343031,"DIS_CODE":0,"TOWNNAME":"北區","LI":"實踐里","LIN":"5鄰","STREET":"長榮路","SECT":"五段","MAREA":" ","LANE":"２９８巷","ALLEY":" ","HOUSE_NO":"１２號七樓之１","E_COORD97":169776.38,"N_COORD97":2545961.7400000002,"ADDRESS":"長榮路五段２９８巷１２號七樓之１","OBJECTID":343022},"geometry":{"x":169776.37999999989,"y":2545961.7400000002}},{"attributes":{"ID":343032,"DIS_CODE":0,"TOWNNAME":"新化區","LI":"東榮里","LIN":"6鄰","STREET":"信義路","SECT":" ","MAREA":" ","LANE":"１１７巷","ALLEY":" ","HOUSE_NO":"１１號之２","E_COORD97":179706.73000000001,"N_COORD97":2548407.2599999998,"ADDRESS":"信義路１１７巷１１號之２","OBJECTID":343023},"geometry":{"x":179706.73000000045,"y":2548407.2600000016}},{"attributes":{"ID":343033,"DIS_CODE":0,"TOWNNAME":"北區","LI":"國興里","LIN":"5鄰","STREET":"開元路","SECT":" ","MAREA":" ","LANE":"３９４巷","ALLEY":" ","HOUSE_NO":"１６號","E_COORD97":170589.09,"N_COORD97":2545579.54,"ADDRESS":"開元路３９４巷１６號","OBJECTID":343024},"geometry":{"x":170589.08999999892,"y":2545579.540000001}},{"attributes":{"ID":343034,"DIS_CODE":0,"TOWNNAME":"北區","LI":"國興里","LIN":"5鄰","STREET":"開元路","SECT":" ","MAREA":" ","LANE":"３９４巷","ALLEY":" ","HOUSE_NO":"１８號","E_COORD97":170591.20000000001,"N_COORD97":2545576.3799999999,"ADDRESS":"開元路３９４巷１８號","OBJECTID":343025},"geometry":{"x":170591.20000000112,"y":2545576.379999999}},{"attributes":{"ID":343035,"DIS_CODE":0,"TOWNNAME":"北區","LI":"國興里","LIN":"5鄰","STREET":"開元路","SECT":" ","MAREA":" ","LANE":"３９４巷","ALLEY":" ","HOUSE_NO":"２０號","E_COORD97":170593.22,"N_COORD97":2545572.4399999999,"ADDRESS":"開元路３９４巷２０號","OBJECTID":343026},"geometry":{"x":170593.2200000016,"y":2545572.4399999995}},{"attributes":{"ID":343036,"DIS_CODE":0,"TOWNNAME":"北區","LI":"國興里","LIN":"5鄰","STREET":"開元路","SECT":" ","MAREA":" ","LANE":"３９４巷","ALLEY":" ","HOUSE_NO":"２２號","E_COORD97":170595.32999999999,"N_COORD97":2545568.7000000002,"ADDRESS":"開元路３９４巷２２號","OBJECTID":343027},"geometry":{"x":170595.33000000101,"y":2545568.7000000011}},{"attributes":{"ID":343037,"DIS_CODE":0,"TOWNNAME":"北區","LI":"國興里","LIN":"5鄰","STREET":"開元路","SECT":" ","MAREA":" ","LANE":"３９４巷","ALLEY":" ","HOUSE_NO":"２４號","E_COORD97":170597.54000000001,"N_COORD97":2545564.77,"ADDRESS":"開元路３９４巷２４號","OBJECTID":343028},"geometry":{"x":170597.54000000004,"y":2545564.7700000033}},{"attributes":{"ID":343038,"DIS_CODE":0,"TOWNNAME":"北區","LI":"國興里","LIN":"5鄰","STREET":"開元路","SECT":" ","MAREA":" ","LANE":"３９４巷","ALLEY":" ","HOUSE_NO":"２６號","E_COORD97":170600.42000000001,"N_COORD97":2545561.1200000001,"ADDRESS":"開元路３９４巷２６號","OBJECTID":343029},"geometry":{"x":170600.41999999993,"y":2545561.1200000029}},{"attributes":{"ID":343039,"DIS_CODE":0,"TOWNNAME":"北區","LI":"國興里","LIN":"5鄰","STREET":"開元路","SECT":" ","MAREA":" ","LANE":"３９４巷","ALLEY":" ","HOUSE_NO":"２８號","E_COORD97":170601.48000000001,"N_COORD97":2545557.0899999999,"ADDRESS":"開元路３９４巷２８號","OBJECTID":343030},"geometry":{"x":170601.48000000138,"y":2545557.0900000017}},{"attributes":{"ID":343040,"DIS_CODE":0,"TOWNNAME":"北區","LI":"國興里","LIN":"5鄰","STREET":"開元路","SECT":" ","MAREA":" ","LANE":"３９４巷","ALLEY":" ","HOUSE_NO":"３０號","E_COORD97":170605.41,"N_COORD97":2545553.1600000001,"ADDRESS":"開元路３９４巷３０號","OBJECTID":343031},"geometry":{"x":170605.41000000015,"y":2545553.160000002}},{"attributes":{"ID":343041,"DIS_CODE":0,"TOWNNAME":"新化區","LI":"清水里","LIN":"8鄰","STREET":"民權街","SECT":" ","MAREA":" ","LANE":"６１巷","ALLEY":" ","HOUSE_NO":"１０號","E_COORD97":178690.70999999999,"N_COORD97":2548574.25,"ADDRESS":"民權街６１巷１０號","OBJECTID":343032},"geometry":{"x":178690.70999999996,"y":2548574.25}},{"attributes":{"ID":343042,"DIS_CODE":0,"TOWNNAME":"新化區","LI":"清水里","LIN":"7鄰","STREET":"民權街","SECT":" ","MAREA":" ","LANE":"２７巷","ALLEY":" ","HOUSE_NO":"１６號","E_COORD97":178695.10999999999,"N_COORD97":2548513.25,"ADDRESS":"民權街２７巷１６號","OBJECTID":343033},"geometry":{"x":178695.11000000127,"y":2548513.25}},{"attributes":{"ID":343043,"DIS_CODE":0,"TOWNNAME":"北區","LI":"實踐里","LIN":"5鄰","STREET":"長榮路","SECT":"五段","MAREA":" ","LANE":"２９８巷","ALLEY":" ","HOUSE_NO":"１２號七樓之２","E_COORD97":169776.38,"N_COORD97":2545961.7400000002,"ADDRESS":"長榮路五段２９８巷１２號七樓之２","OBJECTID":343034},"geometry":{"x":169776.37999999989,"y":2545961.7400000002}},{"attributes":{"ID":343044,"DIS_CODE":0,"TOWNNAME":"北區","LI":"實踐里","LIN":"5鄰","STREET":"長榮路","SECT":"五段","MAREA":" ","LANE":"２９８巷","ALLEY":" ","HOUSE_NO":"１２號八樓之１","E_COORD97":169776.38,"N_COORD97":2545961.7400000002,"ADDRESS":"長榮路五段２９８巷１２號八樓之１","OBJECTID":343035},"geometry":{"x":169776.37999999989,"y":2545961.7400000002}},{"attributes":{"ID":343045,"DIS_CODE":0,"TOWNNAME":"北區","LI":"實踐里","LIN":"5鄰","STREET":"長榮路","SECT":"五段","MAREA":" ","LANE":"２９８巷","ALLEY":" ","HOUSE_NO":"１２號八樓之２","E_COORD97":169776.38,"N_COORD97":2545961.7400000002,"ADDRESS":"長榮路五段２９８巷１２號八樓之２","OBJECTID":343036},"geometry":{"x":169776.37999999989,"y":2545961.7400000002}},{"attributes":{"ID":343046,"DIS_CODE":0,"TOWNNAME":"北區","LI":"實踐里","LIN":"5鄰","STREET":"長榮路","SECT":"五段","MAREA":" ","LANE":"２９８巷","ALLEY":" ","HOUSE_NO":"１２號九樓之１","E_COORD97":169776.38,"N_COORD97":2545961.7400000002,"ADDRESS":"長榮路五段２９８巷１２號九樓之１","OBJECTID":343037},"geometry":{"x":169776.37999999989,"y":2545961.7400000002}},{"attributes":{"ID":343047,"DIS_CODE":0,"TOWNNAME":"北區","LI":"實踐里","LIN":"5鄰","STREET":"長榮路","SECT":"五段","MAREA":" ","LANE":"２９８巷","ALLEY":" ","HOUSE_NO":"１２號九樓之２","E_COORD97":169776.38,"N_COORD97":2545961.7400000002,"ADDRESS":"長榮路五段２９８巷１２號九樓之２","OBJECTID":343038},"geometry":{"x":169776.37999999989,"y":2545961.7400000002}},{"attributes":{"ID":343048,"DIS_CODE":0,"TOWNNAME":"北區","LI":"實踐里","LIN":"5鄰","STREET":"長榮路","SECT":"五段","MAREA":" ","LANE":"２９８巷","ALLEY":" ","HOUSE_NO":"１２號十樓之１","E_COORD97":169776.38,"N_COORD97":2545961.7400000002,"ADDRESS":"長榮路五段２９８巷１２號十樓之１","OBJECTID":343039},"geometry":{"x":169776.37999999989,"y":2545961.7400000002}},{"attributes":{"ID":343049,"DIS_CODE":0,"TOWNNAME":"北區","LI":"實踐里","LIN":"5鄰","STREET":"長榮路","SECT":"五段","MAREA":" ","LANE":"２９８巷","ALLEY":" ","HOUSE_NO":"１２號十樓之２","E_COORD97":169776.38,"N_COORD97":2545961.7400000002,"ADDRESS":"長榮路五段２９８巷１２號十樓之２","OBJECTID":343040},"geometry":{"x":169776.37999999989,"y":2545961.7400000002}},{"attributes":{"ID":343050,"DIS_CODE":0,"TOWNNAME":"北區","LI":"實踐里","LIN":"5鄰","STREET":"長榮路","SECT":"五段","MAREA":" ","LANE":"２９８巷","ALLEY":" ","HOUSE_NO":"１２號十一樓之１","E_COORD97":169776.38,"N_COORD97":2545961.7400000002,"ADDRESS":"長榮路五段２９８巷１２號十一樓之１","OBJECTID":343041},"geometry":{"x":169776.37999999989,"y":2545961.7400000002}},{"attributes":{"ID":343051,"DIS_CODE":0,"TOWNNAME":"北區","LI":"實踐里","LIN":"5鄰","STREET":"長榮路","SECT":"五段","MAREA":" ","LANE":"２９８巷","ALLEY":" ","HOUSE_NO":"１２號十一樓之２","E_COORD97":169776.38,"N_COORD97":2545961.7400000002,"ADDRESS":"長榮路五段２９８巷１２號十一樓之２","OBJECTID":343042},"geometry":{"x":169776.37999999989,"y":2545961.7400000002}},{"attributes":{"ID":343052,"DIS_CODE":0,"TOWNNAME":"北區","LI":"實踐里","LIN":"5鄰","STREET":"長榮路","SECT":"五段","MAREA":" ","LANE":"２９８巷","ALLEY":" ","HOUSE_NO":"１２號十二樓之１","E_COORD97":169776.38,"N_COORD97":2545961.7400000002,"ADDRESS":"長榮路五段２９８巷１２號十二樓之１","OBJECTID":343043},"geometry":{"x":169776.37999999989,"y":2545961.7400000002}},{"attributes":{"ID":343053,"DIS_CODE":0,"TOWNNAME":"新化區","LI":"北勢里","LIN":"8鄰","STREET":"永新路","SECT":" ","MAREA":" ","LANE":" ","ALLEY":" ","HOUSE_NO":"３７號二樓之２","E_COORD97":177802.42999999999,"N_COORD97":2550963.2999999998,"ADDRESS":"永新路３７號二樓之２","OBJECTID":343044},"geometry":{"x":177802.4299999997,"y":2550963.3000000045}},{"attributes":{"ID":343054,"DIS_CODE":0,"TOWNNAME":"新化區","LI":"北勢里","LIN":"8鄰","STREET":"永新路","SECT":" ","MAREA":" ","LANE":" ","ALLEY":" ","HOUSE_NO":"２５號五樓之３","E_COORD97":177802.39999999999,"N_COORD97":2550963.2999999998,"ADDRESS":"永新路２５號五樓之３","OBJECTID":343045},"geometry":{"x":177802.40000000224,"y":2550963.3000000045}},{"attributes":{"ID":343055,"DIS_CODE":0,"TOWNNAME":"新化區","LI":"北勢里","LIN":"8鄰","STREET":"永新路","SECT":" ","MAREA":" ","LANE":" ","ALLEY":" ","HOUSE_NO":"３５號三樓之３","E_COORD97":177802.39999999999,"N_COORD97":2550963.2999999998,"ADDRESS":"永新路３５號三樓之３","OBJECTID":343046},"geometry":{"x":177802.40000000224,"y":2550963.3000000045}},{"attributes":{"ID":343056,"DIS_CODE":0,"TOWNNAME":"新化區","LI":"北勢里","LIN":"8鄰","STREET":"永新路","SECT":" ","MAREA":" ","LANE":" ","ALLEY":" ","HOUSE_NO":"３５號八樓之３","E_COORD97":177802.39999999999,"N_COORD97":2550963.2999999998,"ADDRESS":"永新路３５號八樓之３","OBJECTID":343047},"geometry":{"x":177802.40000000224,"y":2550963.3000000045}},{"attributes":{"ID":343057,"DIS_CODE":0,"TOWNNAME":"新化區","LI":"北勢里","LIN":"8鄰","STREET":"永新路","SECT":" ","MAREA":" ","LANE":" ","ALLEY":" ","HOUSE_NO":"２５號三樓之１","E_COORD97":177802.29999999999,"N_COORD97":2550963.2999999998,"ADDRESS":"永新路２５號三樓之１","OBJECTID":343048},"geometry":{"x":177802.29999999981,"y":2550963.3000000045}},{"attributes":{"ID":343058,"DIS_CODE":0,"TOWNNAME":"新化區","LI":"北勢里","LIN":"8鄰","STREET":"永新路","SECT":" ","MAREA":" ","LANE":" ","ALLEY":" ","HOUSE_NO":"３５號五樓之３","E_COORD97":177802.39999999999,"N_COORD97":2550963.2999999998,"ADDRESS":"永新路３５號五樓之３","OBJECTID":343049},"geometry":{"x":177802.40000000224,"y":2550963.3000000045}},{"attributes":{"ID":343059,"DIS_CODE":0,"TOWNNAME":"新化區","LI":"北勢里","LIN":"8鄰","STREET":"永新路","SECT":" ","MAREA":" ","LANE":" ","ALLEY":" ","HOUSE_NO":"１３號五樓之２","E_COORD97":177802.42999999999,"N_COORD97":2550963.2999999998,"ADDRESS":"永新路１３號五樓之２","OBJECTID":343050},"geometry":{"x":177802.4299999997,"y":2550963.3000000045}},{"attributes":{"ID":343060,"DIS_CODE":0,"TOWNNAME":"新化區","LI":"北勢里","LIN":"8鄰","STREET":"永新路","SECT":" ","MAREA":" ","LANE":" ","ALLEY":" ","HOUSE_NO":"１３號六樓之１","E_COORD97":177802.29999999999,"N_COORD97":2550963.2999999998,"ADDRESS":"永新路１３號六樓之１","OBJECTID":343051},"geometry":{"x":177802.29999999981,"y":2550963.3000000045}},{"attributes":{"ID":343061,"DIS_CODE":0,"TOWNNAME":"北區","LI":"勝安里","LIN":"5鄰","STREET":"開元路","SECT":" ","MAREA":" ","LANE":"７３巷","ALLEY":" ","HOUSE_NO":"５２號","E_COORD97":169811.67000000001,"N_COORD97":2545292.46,"ADDRESS":"開元路７３巷５２號","OBJECTID":343052},"geometry":{"x":169811.66999999993,"y":2545292.4600000009}},{"attributes":{"ID":343062,"DIS_CODE":0,"TOWNNAME":"北區","LI":"華興里","LIN":"5鄰","STREET":"南園街","SECT":" ","MAREA":" ","LANE":"５４巷","ALLEY":" ","HOUSE_NO":"１１號","E_COORD97":170519.26999999999,"N_COORD97":2545399.9700000002,"ADDRESS":"南園街５４巷１１號","OBJECTID":343053},"geometry":{"x":170519.26999999955,"y":2545399.9700000007}},{"attributes":{"ID":343063,"DIS_CODE":0,"TOWNNAME":"安南區","LI":"安慶里","LIN":"5鄰","STREET":"怡安路","SECT":"一段","MAREA":" ","LANE":"２６２巷","ALLEY":" ","HOUSE_NO":"５３號","E_COORD97":169016.44,"N_COORD97":2549280.4700000002,"ADDRESS":"怡安路一段２６２巷５３號","OBJECTID":343054},"geometry":{"x":169016.44000000134,"y":2549280.4700000044}},{"attributes":{"ID":343064,"DIS_CODE":0,"TOWNNAME":"安南區","LI":"安慶里","LIN":"5鄰","STREET":"怡安路","SECT":"一段","MAREA":" ","LANE":"２６２巷","ALLEY":" ","HOUSE_NO":"５５號","E_COORD97":169015.95999999999,"N_COORD97":2549284.7599999998,"ADDRESS":"怡安路一段２６２巷５５號","OBJECTID":343055},"geometry":{"x":169015.96000000089,"y":2549284.7600000016}},{"attributes":{"ID":343065,"DIS_CODE":0,"TOWNNAME":"安南區","LI":"安慶里","LIN":"5鄰","STREET":"怡安路","SECT":"一段","MAREA":" ","LANE":"２６２巷","ALLEY":" ","HOUSE_NO":"５７號","E_COORD97":169015.48999999999,"N_COORD97":2549288.8900000001,"ADDRESS":"怡安路一段２６２巷５７號","OBJECTID":343056},"geometry":{"x":169015.49000000209,"y":2549288.8900000025}},{"attributes":{"ID":343066,"DIS_CODE":0,"TOWNNAME":"安南區","LI":"安慶里","LIN":"5鄰","STREET":"怡安路","SECT":"一段","MAREA":" ","LANE":"２６２巷","ALLEY":" ","HOUSE_NO":"５９號","E_COORD97":169014.85000000001,"N_COORD97":2549293.1699999999,"ADDRESS":"怡安路一段２６２巷５９號","OBJECTID":343057},"geometry":{"x":169014.85000000056,"y":2549293.1700000018}},{"attributes":{"ID":343067,"DIS_CODE":0,"TOWNNAME":"安南區","LI":"安慶里","LIN":"5鄰","STREET":"怡安路","SECT":"一段","MAREA":" ","LANE":"２６２巷","ALLEY":" ","HOUSE_NO":"６１號","E_COORD97":169035.64999999999,"N_COORD97":2549296.3500000001,"ADDRESS":"怡安路一段２６２巷６１號","OBJECTID":343058},"geometry":{"x":169035.6500000013,"y":2549296.3499999996}},{"attributes":{"ID":343068,"DIS_CODE":0,"TOWNNAME":"安南區","LI":"安慶里","LIN":"5鄰","STREET":"怡安路","SECT":"一段","MAREA":" ","LANE":"２６２巷","ALLEY":" ","HOUSE_NO":"６３號","E_COORD97":169035.81,"N_COORD97":2549286.1899999999,"ADDRESS":"怡安路一段２６２巷６３號","OBJECTID":343059},"geometry":{"x":169035.80999999959,"y":2549286.1899999995}},{"attributes":{"ID":343069,"DIS_CODE":0,"TOWNNAME":"安南區","LI":"安西里","LIN":"5鄰","STREET":"安通三街","SECT":" ","MAREA":" ","LANE":"９８巷","ALLEY":" ","HOUSE_NO":"１０號","E_COORD97":168591.18054100001,"N_COORD97":2548047.5944500002,"ADDRESS":"安通三街９８巷１０號","OBJECTID":343060},"geometry":{"x":168591.18054100219,"y":2548047.5944540016}},{"attributes":{"ID":343070,"DIS_CODE":0,"TOWNNAME":"安南區","LI":"安西里","LIN":"5鄰","STREET":"安通三街","SECT":" ","MAREA":" ","LANE":"９８巷","ALLEY":" ","HOUSE_NO":"１２號","E_COORD97":168597.11726,"N_COORD97":2548048.22945,"ADDRESS":"安通三街９８巷１２號","OBJECTID":343061},"geometry":{"x":168597.11726000067,"y":2548048.2294540014}},{"attributes":{"ID":343071,"DIS_CODE":0,"TOWNNAME":"南區","LI":"大林里","LIN":"5鄰","STREET":"大同路","SECT":"二段","MAREA":" ","LANE":"四三０巷","ALLEY":" ","HOUSE_NO":"３２號","E_COORD97":169284.14000000001,"N_COORD97":2541606.6099999999,"ADDRESS":"大同路二段四三０巷３２號","OBJECTID":343062},"geometry":{"x":169284.1400000006,"y":2541606.6100000013}},{"attributes":{"ID":343072,"DIS_CODE":0,"TOWNNAME":"南區","LI":"大林里","LIN":"5鄰","STREET":"大同路","SECT":"二段","MAREA":" ","LANE":"四三０巷","ALLEY":" ","HOUSE_NO":"３６號","E_COORD97":169271.44,"N_COORD97":2541605.02,"ADDRESS":"大同路二段四三０巷３６號","OBJECTID":343063},"geometry":{"x":169271.44000000041,"y":2541605.0199999996}},{"attributes":{"ID":343073,"DIS_CODE":0,"TOWNNAME":"南區","LI":"大林里","LIN":"5鄰","STREET":"大同路","SECT":"二段","MAREA":" ","LANE":"四三０巷","ALLEY":" ","HOUSE_NO":"３８號","E_COORD97":169273.5,"N_COORD97":2541598.9900000002,"ADDRESS":"大同路二段四三０巷３８號","OBJECTID":343064},"geometry":{"x":169273.50000000093,"y":2541598.9900000002}},{"attributes":{"ID":343074,"DIS_CODE":0,"TOWNNAME":"北區","LI":"成德里","LIN":"35鄰","STREET":"育德一街","SECT":" ","MAREA":" ","LANE":"２０８巷","ALLEY":" ","HOUSE_NO":"１號","E_COORD97":168554.12,"N_COORD97":2546213.77,"ADDRESS":"育德一街２０８巷１號","OBJECTID":343065},"geometry":{"x":168554.12000000104,"y":2546213.7700000014}},{"attributes":{"ID":343075,"DIS_CODE":0,"TOWNNAME":"北區","LI":"成德里","LIN":"35鄰","STREET":"育德路","SECT":" ","MAREA":" ","LANE":"５９９巷","ALLEY":" ","HOUSE_NO":"３９號","E_COORD97":168623.98999999999,"N_COORD97":2546307.2000000002,"ADDRESS":"育德路５９９巷３９號","OBJECTID":343066},"geometry":{"x":168623.99000000115,"y":2546307.200000003}},{"attributes":{"ID":343076,"DIS_CODE":0,"TOWNNAME":"北區","LI":"成德里","LIN":"35鄰","STREET":"育德路","SECT":" ","MAREA":" ","LANE":"５９９巷","ALLEY":" ","HOUSE_NO":"３７號","E_COORD97":168632.56,"N_COORD97":2546306.4100000001,"ADDRESS":"育德路５９９巷３７號","OBJECTID":343067},"geometry":{"x":168632.55999999959,"y":2546306.4100000001}},{"attributes":{"ID":343077,"DIS_CODE":0,"TOWNNAME":"北區","LI":"成德里","LIN":"35鄰","STREET":"育德路","SECT":" ","MAREA":" ","LANE":"５９９巷","ALLEY":" ","HOUSE_NO":"３５號","E_COORD97":168640.64999999999,"N_COORD97":2546306.25,"ADDRESS":"育德路５９９巷３５號","OBJECTID":343068},"geometry":{"x":168640.6500000013,"y":2546306.25}},{"attributes":{"ID":343078,"DIS_CODE":0,"TOWNNAME":"新化區","LI":"北勢里","LIN":"8鄰","STREET":"永新路","SECT":" ","MAREA":" ","LANE":" ","ALLEY":" ","HOUSE_NO":"２３號七樓之１","E_COORD97":177802.29999999999,"N_COORD97":2550963.2999999998,"ADDRESS":"永新路２３號七樓之１","OBJECTID":343069},"geometry":{"x":177802.29999999981,"y":2550963.3000000045}},{"attributes":{"ID":343079,"DIS_CODE":0,"TOWNNAME":"新化區","LI":"北勢里","LIN":"8鄰","STREET":"永新路","SECT":" ","MAREA":" ","LANE":" ","ALLEY":" ","HOUSE_NO":"１３號二樓之３","E_COORD97":177802.39999999999,"N_COORD97":2550963.2999999998,"ADDRESS":"永新路１３號二樓之３","OBJECTID":343070},"geometry":{"x":177802.40000000224,"y":2550963.3000000045}},{"attributes":{"ID":343080,"DIS_CODE":0,"TOWNNAME":"北區","LI":"成德里","LIN":"35鄰","STREET":"育德路","SECT":" ","MAREA":" ","LANE":"５９９巷","ALLEY":" ","HOUSE_NO":"３３號","E_COORD97":168649.07000000001,"N_COORD97":2546305.6200000001,"ADDRESS":"育德路５９９巷３３號","OBJECTID":343071},"geometry":{"x":168649.07000000123,"y":2546305.620000001}},{"attributes":{"ID":343081,"DIS_CODE":0,"TOWNNAME":"北區","LI":"成德里","LIN":"35鄰","STREET":"育德路","SECT":" ","MAREA":" ","LANE":"５９９巷","ALLEY":" ","HOUSE_NO":"３１號","E_COORD97":168657.32000000001,"N_COORD97":2546304.8199999998,"ADDRESS":"育德路５９９巷３１號","OBJECTID":343072},"geometry":{"x":168657.32000000216,"y":2546304.8200000022}},{"attributes":{"ID":343082,"DIS_CODE":0,"TOWNNAME":"北區","LI":"成德里","LIN":"35鄰","STREET":"育德路","SECT":" ","MAREA":" ","LANE":"５９９巷","ALLEY":" ","HOUSE_NO":"２９號","E_COORD97":168666.04999999999,"N_COORD97":2546304.0299999998,"ADDRESS":"育德路５９９巷２９號","OBJECTID":343073},"geometry":{"x":168666.05000000075,"y":2546304.0299999993}},{"attributes":{"ID":343083,"DIS_CODE":0,"TOWNNAME":"北區","LI":"成德里","LIN":"35鄰","STREET":"育德路","SECT":" ","MAREA":" ","LANE":"５９９巷","ALLEY":" ","HOUSE_NO":"２５號","E_COORD97":168677.48000000001,"N_COORD97":2546291.3300000001,"ADDRESS":"育德路５９９巷２５號","OBJECTID":343074},"geometry":{"x":168677.48000000138,"y":2546291.3300000019}},{"attributes":{"ID":343084,"DIS_CODE":0,"TOWNNAME":"新化區","LI":"豐榮里","LIN":"13鄰","STREET":"民治路","SECT":" ","MAREA":" ","LANE":"４３巷","ALLEY":" ","HOUSE_NO":"２３號","E_COORD97":178660.20999999999,"N_COORD97":2548081.25,"ADDRESS":"民治路４３巷２３號","OBJECTID":343075},"geometry":{"x":178660.20999999996,"y":2548081.2500000019}},{"attributes":{"ID":343085,"DIS_CODE":0,"TOWNNAME":"新化區","LI":"東榮里","LIN":"7鄰","STREET":"信義路","SECT":" ","MAREA":" ","LANE":"１３１巷","ALLEY":" ","HOUSE_NO":"２３號","E_COORD97":179669.48000000001,"N_COORD97":2548363.25,"ADDRESS":"信義路１３１巷２３號","OBJECTID":343076},"geometry":{"x":179669.48000000045,"y":2548363.2500000019}},{"attributes":{"ID":343086,"DIS_CODE":0,"TOWNNAME":"安平區","LI":"育平里","LIN":"35鄰","STREET":"平豐路","SECT":" ","MAREA":" ","LANE":"２３６巷","ALLEY":" ","HOUSE_NO":"１０號","E_COORD97":164373.51999999999,"N_COORD97":2543426.0800000001,"ADDRESS":"平豐路２３６巷１０號","OBJECTID":343077},"geometry":{"x":164373.52000000048,"y":2543426.0800000001}},{"attributes":{"ID":343087,"DIS_CODE":0,"TOWNNAME":"安平區","LI":"育平里","LIN":"35鄰","STREET":"平豐路","SECT":" ","MAREA":" ","LANE":"２３６巷","ALLEY":" ","HOUSE_NO":"１２號","E_COORD97":164378.31,"N_COORD97":2543425.1600000001,"ADDRESS":"平豐路２３６巷１２號","OBJECTID":343078},"geometry":{"x":164378.31000000052,"y":2543425.1600000001}},{"attributes":{"ID":343088,"DIS_CODE":0,"TOWNNAME":"安平區","LI":"育平里","LIN":"35鄰","STREET":"平豐路","SECT":" ","MAREA":" ","LANE":"２３６巷","ALLEY":" ","HOUSE_NO":"１４號","E_COORD97":164383.41,"N_COORD97":2543423.77,"ADDRESS":"平豐路２３６巷１４號","OBJECTID":343079},"geometry":{"x":164383.41000000108,"y":2543423.7699999996}},{"attributes":{"ID":343089,"DIS_CODE":0,"TOWNNAME":"安平區","LI":"育平里","LIN":"35鄰","STREET":"平豐路","SECT":" ","MAREA":" ","LANE":"２３６巷","ALLEY":" ","HOUSE_NO":"１６號","E_COORD97":164388.81,"N_COORD97":2543424.0800000001,"ADDRESS":"平豐路２３６巷１６號","OBJECTID":343080},"geometry":{"x":164388.81000000052,"y":2543424.0800000019}},{"attributes":{"ID":343090,"DIS_CODE":0,"TOWNNAME":"安平區","LI":"育平里","LIN":"35鄰","STREET":"平豐路","SECT":" ","MAREA":" ","LANE":"２３６巷","ALLEY":" ","HOUSE_NO":"１７號","E_COORD97":164392.10999999999,"N_COORD97":2543436.73,"ADDRESS":"平豐路２３６巷１７號","OBJECTID":343081},"geometry":{"x":164392.11000000127,"y":2543436.7300000042}},{"attributes":{"ID":343091,"DIS_CODE":0,"TOWNNAME":"安平區","LI":"育平里","LIN":"35鄰","STREET":"平豐路","SECT":" ","MAREA":" ","LANE":"２３６巷","ALLEY":" ","HOUSE_NO":"１８號","E_COORD97":164392.98000000001,"N_COORD97":2543423.1499999999,"ADDRESS":"平豐路２３６巷１８號","OBJECTID":343082},"geometry":{"x":164392.98000000231,"y":2543423.1500000004}},{"attributes":{"ID":343092,"DIS_CODE":0,"TOWNNAME":"北區","LI":"成德里","LIN":"35鄰","STREET":"文成二路","SECT":" ","MAREA":" ","LANE":"５２巷","ALLEY":" ","HOUSE_NO":"２號","E_COORD97":168644.56,"N_COORD97":2546184.9300000002,"ADDRESS":"文成二路５２巷２號","OBJECTID":343083},"geometry":{"x":168644.55999999959,"y":2546184.9300000016}},{"attributes":{"ID":343093,"DIS_CODE":0,"TOWNNAME":"北區","LI":"成德里","LIN":"35鄰","STREET":"文成二路","SECT":" ","MAREA":" ","LANE":"５２巷","ALLEY":" ","HOUSE_NO":"１號","E_COORD97":168636.42999999999,"N_COORD97":2546184.9300000002,"ADDRESS":"文成二路５２巷１號","OBJECTID":343084},"geometry":{"x":168636.4299999997,"y":2546184.9300000016}},{"attributes":{"ID":343094,"DIS_CODE":0,"TOWNNAME":"北區","LI":"成德里","LIN":"35鄰","STREET":"文成二路","SECT":" ","MAREA":" ","LANE":"５２巷","ALLEY":" ","HOUSE_NO":"３號","E_COORD97":168636.94,"N_COORD97":2546189.3799999999,"ADDRESS":"文成二路５２巷３號","OBJECTID":343085},"geometry":{"x":168636.94000000134,"y":2546189.379999999}},{"attributes":{"ID":343095,"DIS_CODE":0,"TOWNNAME":"新化區","LI":"東榮里","LIN":"8鄰","STREET":"信義路","SECT":" ","MAREA":" ","LANE":"１１７巷","ALLEY":" ","HOUSE_NO":"３０號之１２","E_COORD97":179756.88,"N_COORD97":2548269.2599999998,"ADDRESS":"信義路１１７巷３０號之１２","OBJECTID":343086},"geometry":{"x":179756.88000000082,"y":2548269.2599999998}},{"attributes":{"ID":343096,"DIS_CODE":0,"TOWNNAME":"北區","LI":"成德里","LIN":"35鄰","STREET":"文成二路","SECT":" ","MAREA":" ","LANE":"５２巷","ALLEY":" ","HOUSE_NO":"５號","E_COORD97":168637.57999999999,"N_COORD97":2546193.3199999998,"ADDRESS":"文成二路５２巷５號","OBJECTID":343087},"geometry":{"x":168637.58000000007,"y":2546193.3200000022}},{"attributes":{"ID":343097,"DIS_CODE":0,"TOWNNAME":"永康區","LI":"正強里","LIN":"35鄰","STREET":"正強街","SECT":" ","MAREA":" ","LANE":"３１３巷","ALLEY":" ","HOUSE_NO":"７號","E_COORD97":173223.63,"N_COORD97":2548247.8999999999,"ADDRESS":"正強街３１３巷７號","OBJECTID":343088},"geometry":{"x":173223.63000000082,"y":2548247.9000000022}},{"attributes":{"ID":343098,"DIS_CODE":0,"TOWNNAME":"仁德區","LI":"成功里","LIN":"35鄰","STREET":"成功一街","SECT":" ","MAREA":" ","LANE":"６７巷","ALLEY":" ","HOUSE_NO":"３號","E_COORD97":170558.20000000001,"N_COORD97":2540055.5099999998,"ADDRESS":"成功一街６７巷３號","OBJECTID":343089},"geometry":{"x":170558.19999999925,"y":2540055.5099999998}},{"attributes":{"ID":343099,"DIS_CODE":0,"TOWNNAME":"仁德區","LI":"成功里","LIN":"35鄰","STREET":"成功一街","SECT":" ","MAREA":" ","LANE":"７９巷","ALLEY":" ","HOUSE_NO":"３號","E_COORD97":170574.73000000001,"N_COORD97":2540025.77,"ADDRESS":"成功一街７９巷３號","OBJECTID":343090},"geometry":{"x":170574.73000000045,"y":2540025.7700000014}},{"attributes":{"ID":343100,"DIS_CODE":0,"TOWNNAME":"六甲區","LI":"龜港里","LIN":"5鄰","STREET":" ","SECT":" ","MAREA":"龜子港","LANE":"１６１巷","ALLEY":"４１弄","HOUSE_NO":"１３５號","E_COORD97":178957.57000000001,"N_COORD97":2572143.1699999999,"ADDRESS":"龜子港１６１巷４１弄１３５號","OBJECTID":343091},"geometry":{"x":178957.57000000123,"y":2572143.1700000018}},{"attributes":{"ID":343101,"DIS_CODE":0,"TOWNNAME":"六甲區","LI":"龜港里","LIN":"5鄰","STREET":" ","SECT":" ","MAREA":"龜子港","LANE":"１６１巷","ALLEY":"４１弄","HOUSE_NO":"１３７號","E_COORD97":178875.34,"N_COORD97":2572144.8700000001,"ADDRESS":"龜子港１６１巷４１弄１３７號","OBJECTID":343092},"geometry":{"x":178875.34000000171,"y":2572144.870000001}},{"attributes":{"ID":343102,"DIS_CODE":0,"TOWNNAME":"六甲區","LI":"龜港里","LIN":"5鄰","STREET":" ","SECT":" ","MAREA":"龜子港","LANE":"１６１巷","ALLEY":"４１弄","HOUSE_NO":"１４７號","E_COORD97":178777.57999999999,"N_COORD97":2572124.8799999999,"ADDRESS":"龜子港１６１巷４１弄１４７號","OBJECTID":343093},"geometry":{"x":178777.58000000101,"y":2572124.8800000008}},{"attributes":{"ID":343103,"DIS_CODE":0,"TOWNNAME":"六甲區","LI":"龜港里","LIN":"5鄰","STREET":" ","SECT":" ","MAREA":"龜子港","LANE":"１１１巷","ALLEY":" ","HOUSE_NO":"１１１號","E_COORD97":179407.45000000001,"N_COORD97":2571848.3799999999,"ADDRESS":"龜子港１１１巷１１１號","OBJECTID":343094},"geometry":{"x":179407.45000000112,"y":2571848.379999999}},{"attributes":{"ID":343104,"DIS_CODE":0,"TOWNNAME":"六甲區","LI":"龜港里","LIN":"5鄰","STREET":" ","SECT":" ","MAREA":"龜子港","LANE":"１１１巷","ALLEY":" ","HOUSE_NO":"１２０號","E_COORD97":179218.51000000001,"N_COORD97":2571879.7999999998,"ADDRESS":"龜子港１１１巷１２０號","OBJECTID":343095},"geometry":{"x":179218.51000000071,"y":2571879.8000000026}},{"attributes":{"ID":343105,"DIS_CODE":0,"TOWNNAME":"六甲區","LI":"龜港里","LIN":"5鄰","STREET":" ","SECT":" ","MAREA":"龜子港","LANE":"１１１巷","ALLEY":" ","HOUSE_NO":"１２２號","E_COORD97":179214.32999999999,"N_COORD97":2571880.1000000001,"ADDRESS":"龜子港１１１巷１２２號","OBJECTID":343096},"geometry":{"x":179214.33000000007,"y":2571880.1000000015}},{"attributes":{"ID":343106,"DIS_CODE":0,"TOWNNAME":"永康區","LI":"復國里","LIN":"35鄰","STREET":"復國一路","SECT":" ","MAREA":" ","LANE":"８５巷","ALLEY":" ","HOUSE_NO":"７號","E_COORD97":172666.91,"N_COORD97":2544961.7799999998,"ADDRESS":"復國一路８５巷７號","OBJECTID":343097},"geometry":{"x":172666.91000000015,"y":2544961.7800000012}},{"attributes":{"ID":343107,"DIS_CODE":0,"TOWNNAME":"六甲區","LI":"龜港里","LIN":"5鄰","STREET":" ","SECT":" ","MAREA":"龜子港","LANE":"１１１巷","ALLEY":" ","HOUSE_NO":"１５１號","E_COORD97":179097.06,"N_COORD97":2571827.6099999999,"ADDRESS":"龜子港１１１巷１５１號","OBJECTID":343098},"geometry":{"x":179097.05999999959,"y":2571827.6100000031}},{"attributes":{"ID":343108,"DIS_CODE":0,"TOWNNAME":"六甲區","LI":"龜港里","LIN":"5鄰","STREET":" ","SECT":" ","MAREA":"龜子港","LANE":"１１１巷","ALLEY":" ","HOUSE_NO":"１６１號","E_COORD97":179034.10999999999,"N_COORD97":2571818.4500000002,"ADDRESS":"龜子港１１１巷１６１號","OBJECTID":343099},"geometry":{"x":179034.11000000127,"y":2571818.4500000011}},{"attributes":{"ID":343109,"DIS_CODE":0,"TOWNNAME":"六甲區","LI":"龜港里","LIN":"5鄰","STREET":" ","SECT":" ","MAREA":"龜子港","LANE":"１１１巷","ALLEY":" ","HOUSE_NO":"１６２號","E_COORD97":179036.69,"N_COORD97":2571846.8399999999,"ADDRESS":"龜子港１１１巷１６２號","OBJECTID":343100},"geometry":{"x":179036.69000000134,"y":2571846.8400000036}},{"attributes":{"ID":343110,"DIS_CODE":0,"TOWNNAME":"六甲區","LI":"龜港里","LIN":"5鄰","STREET":" ","SECT":" ","MAREA":"龜子港","LANE":"１１１巷","ALLEY":" ","HOUSE_NO":"２００號","E_COORD97":178789.35000000001,"N_COORD97":2571849.2799999998,"ADDRESS":"龜子港１１１巷２００號","OBJECTID":343101},"geometry":{"x":178789.35000000056,"y":2571849.2799999993}},{"attributes":{"ID":343111,"DIS_CODE":0,"TOWNNAME":"六甲區","LI":"龜港里","LIN":"5鄰","STREET":" ","SECT":" ","MAREA":"龜子港","LANE":"１１１巷","ALLEY":" ","HOUSE_NO":"２５０號","E_COORD97":178624.76000000001,"N_COORD97":2571655.29,"ADDRESS":"龜子港１１１巷２５０號","OBJECTID":343102},"geometry":{"x":178624.75999999885,"y":2571655.2899999991}},{"attributes":{"ID":343112,"DIS_CODE":0,"TOWNNAME":"六甲區","LI":"龜港里","LIN":"5鄰","STREET":" ","SECT":" ","MAREA":"龜子港","LANE":"１１１巷","ALLEY":" ","HOUSE_NO":"２７１號","E_COORD97":178705.31,"N_COORD97":2571574.3599999999,"ADDRESS":"龜子港１１１巷２７１號","OBJECTID":343103},"geometry":{"x":178705.30999999959,"y":2571574.3599999994}},{"attributes":{"ID":343113,"DIS_CODE":0,"TOWNNAME":"六甲區","LI":"龜港里","LIN":"5鄰","STREET":" ","SECT":" ","MAREA":"龜子港","LANE":"２８１巷","ALLEY":" ","HOUSE_NO":"６９號","E_COORD97":179384.23999999999,"N_COORD97":2572257.5099999998,"ADDRESS":"龜子港２８１巷６９號","OBJECTID":343104},"geometry":{"x":179384.24000000022,"y":2572257.5099999998}},{"attributes":{"ID":343114,"DIS_CODE":0,"TOWNNAME":"六甲區","LI":"龜港里","LIN":"5鄰","STREET":" ","SECT":" ","MAREA":"龜子港","LANE":"２８１巷","ALLEY":" ","HOUSE_NO":"７１號","E_COORD97":179379.64999999999,"N_COORD97":2572239.9700000002,"ADDRESS":"龜子港２８１巷７１號","OBJECTID":343105},"geometry":{"x":179379.6500000013,"y":2572239.9700000044}},{"attributes":{"ID":343115,"DIS_CODE":0,"TOWNNAME":"六甲區","LI":"龜港里","LIN":"5鄰","STREET":" ","SECT":" ","MAREA":"龜子港","LANE":"２８１巷","ALLEY":" ","HOUSE_NO":"７７號","E_COORD97":179354.48000000001,"N_COORD97":2572235.21,"ADDRESS":"龜子港２８１巷７７號","OBJECTID":343106},"geometry":{"x":179354.48000000045,"y":2572235.2100000046}},{"attributes":{"ID":343116,"DIS_CODE":0,"TOWNNAME":"關廟區","LI":"五甲里","LIN":"5鄰","STREET":"南雄路","SECT":"一段","MAREA":" ","LANE":"８２３巷","ALLEY":" ","HOUSE_NO":"１號","E_COORD97":181332.69,"N_COORD97":2539099.2799999998,"ADDRESS":"南雄路一段８２３巷１號","OBJECTID":343107},"geometry":{"x":181332.69000000041,"y":2539099.2800000012}},{"attributes":{"ID":343117,"DIS_CODE":0,"TOWNNAME":"關廟區","LI":"北花里","LIN":"5鄰","STREET":"花園一街","SECT":" ","MAREA":" ","LANE":"４２巷","ALLEY":" ","HOUSE_NO":"６號","E_COORD97":182100.64000000001,"N_COORD97":2540185.25,"ADDRESS":"花園一街４２巷６號","OBJECTID":343108},"geometry":{"x":182100.64000000153,"y":2540185.2500000019}},{"attributes":{"ID":343118,"DIS_CODE":0,"TOWNNAME":"關廟區","LI":"北勢里","LIN":"5鄰","STREET":"中正路","SECT":" ","MAREA":" ","LANE":"７３８巷","ALLEY":" ","HOUSE_NO":"３９號","E_COORD97":181595.91,"N_COORD97":2540396.25,"ADDRESS":"中正路７３８巷３９號","OBJECTID":343109},"geometry":{"x":181595.91000000201,"y":2540396.2500000019}},{"attributes":{"ID":343119,"DIS_CODE":0,"TOWNNAME":"關廟區","LI":"深坑里","LIN":"5鄰","STREET":"深坑一街","SECT":" ","MAREA":" ","LANE":"１３巷","ALLEY":" ","HOUSE_NO":"６０號","E_COORD97":181800.26999999999,"N_COORD97":2537706.2999999998,"ADDRESS":"深坑一街１３巷６０號","OBJECTID":343110},"geometry":{"x":181800.27000000048,"y":2537706.3000000007}},{"attributes":{"ID":343120,"DIS_CODE":0,"TOWNNAME":"新化區","LI":"太平里","LIN":"17鄰","STREET":"太平街","SECT":" ","MAREA":" ","LANE":"９７巷","ALLEY":" ","HOUSE_NO":"１３號","E_COORD97":178641.51999999999,"N_COORD97":2548703.25,"ADDRESS":"太平街９７巷１３號","OBJECTID":343111},"geometry":{"x":178641.52000000142,"y":2548703.25}},{"attributes":{"ID":343121,"DIS_CODE":0,"TOWNNAME":"永康區","LI":"永康里","LIN":"35鄰","STREET":"大同街","SECT":" ","MAREA":" ","LANE":"９０６巷","ALLEY":" ","HOUSE_NO":"１號","E_COORD97":174467.32999999999,"N_COORD97":2546966.6699999999,"ADDRESS":"大同街９０６巷１號","OBJECTID":343112},"geometry":{"x":174467.33000000007,"y":2546966.6700000018}},{"attributes":{"ID":343122,"DIS_CODE":0,"TOWNNAME":"永康區","LI":"正強里","LIN":"35鄰","STREET":"正強街","SECT":" ","MAREA":" ","LANE":"３１５巷","ALLEY":" ","HOUSE_NO":"１７號","E_COORD97":173194.04000000001,"N_COORD97":2548287.8300000001,"ADDRESS":"正強街３１５巷１７號","OBJECTID":343113},"geometry":{"x":173194.04000000097,"y":2548287.8300000019}},{"attributes":{"ID":343123,"DIS_CODE":0,"TOWNNAME":"永康區","LI":"五王里","LIN":"35鄰","STREET":"中華路","SECT":" ","MAREA":" ","LANE":"５７８巷","ALLEY":" ","HOUSE_NO":"９號","E_COORD97":171251.73999999999,"N_COORD97":2545938.7400000002,"ADDRESS":"中華路５７８巷９號","OBJECTID":343114},"geometry":{"x":171251.74000000115,"y":2545938.7400000021}},{"attributes":{"ID":343124,"DIS_CODE":0,"TOWNNAME":"永康區","LI":"埔園里","LIN":"35鄰","STREET":"八德街","SECT":" ","MAREA":" ","LANE":"２１巷","ALLEY":" ","HOUSE_NO":"１號","E_COORD97":174308.07000000001,"N_COORD97":2548472.0499999998,"ADDRESS":"八德街２１巷１號","OBJECTID":343115},"geometry":{"x":174308.07000000123,"y":2548472.0500000007}},{"attributes":{"ID":343125,"DIS_CODE":0,"TOWNNAME":"新化區","LI":"北勢里","LIN":"8鄰","STREET":"永新路","SECT":" ","MAREA":" ","LANE":" ","ALLEY":" ","HOUSE_NO":"１３號六樓之３","E_COORD97":177802.39999999999,"N_COORD97":2550963.2999999998,"ADDRESS":"永新路１３號六樓之３","OBJECTID":343116},"geometry":{"x":177802.40000000224,"y":2550963.3000000045}},{"attributes":{"ID":343126,"DIS_CODE":0,"TOWNNAME":"新化區","LI":"北勢里","LIN":"8鄰","STREET":"永新路","SECT":" ","MAREA":" ","LANE":" ","ALLEY":" ","HOUSE_NO":"２５號七樓之１","E_COORD97":177802.29999999999,"N_COORD97":2550963.2999999998,"ADDRESS":"永新路２５號七樓之１","OBJECTID":343117},"geometry":{"x":177802.29999999981,"y":2550963.3000000045}},{"attributes":{"ID":343127,"DIS_CODE":0,"TOWNNAME":"新化區","LI":"北勢里","LIN":"8鄰","STREET":"永新路","SECT":" ","MAREA":" ","LANE":" ","ALLEY":" ","HOUSE_NO":"３７號三樓之３","E_COORD97":177802.39999999999,"N_COORD97":2550963.2999999998,"ADDRESS":"永新路３７號三樓之３","OBJECTID":343118},"geometry":{"x":177802.40000000224,"y":2550963.3000000045}},{"attributes":{"ID":343128,"DIS_CODE":0,"TOWNNAME":"東區","LI":"裕聖里","LIN":"1鄰","STREET":"裕忠路","SECT":" ","MAREA":" ","LANE":" ","ALLEY":" ","HOUSE_NO":"２３３號","E_COORD97":172275.48000000001,"N_COORD97":2542519.2599999998,"ADDRESS":"裕忠路２３３號","OBJECTID":343119},"geometry":{"x":172275.47999999952,"y":2542519.2599999998}},{"attributes":{"ID":343129,"DIS_CODE":0,"TOWNNAME":"六甲區","LI":"龜港里","LIN":"5鄰","STREET":" ","SECT":" ","MAREA":"龜子港","LANE":"２８１巷","ALLEY":" ","HOUSE_NO":"８３號","E_COORD97":179326.04999999999,"N_COORD97":2572220.27,"ADDRESS":"龜子港２８１巷８３號","OBJECTID":343120},"geometry":{"x":179326.04999999981,"y":2572220.2700000014}},{"attributes":{"ID":343130,"DIS_CODE":0,"TOWNNAME":"六甲區","LI":"龜港里","LIN":"5鄰","STREET":" ","SECT":" ","MAREA":"龜子港","LANE":"２８１巷","ALLEY":" ","HOUSE_NO":"８５號","E_COORD97":179310.73999999999,"N_COORD97":2572206.9900000002,"ADDRESS":"龜子港２８１巷８５號","OBJECTID":343121},"geometry":{"x":179310.74000000115,"y":2572206.9900000021}},{"attributes":{"ID":343131,"DIS_CODE":0,"TOWNNAME":"六甲區","LI":"龜港里","LIN":"5鄰","STREET":" ","SECT":" ","MAREA":"龜子港","LANE":"３１巷","ALLEY":" ","HOUSE_NO":"１１號","E_COORD97":179660.14999999999,"N_COORD97":2571718.0800000001,"ADDRESS":"龜子港３１巷１１號","OBJECTID":343122},"geometry":{"x":179660.15000000037,"y":2571718.0800000019}},{"attributes":{"ID":343132,"DIS_CODE":0,"TOWNNAME":"六甲區","LI":"龜港里","LIN":"5鄰","STREET":" ","SECT":" ","MAREA":"龜子港","LANE":"３１巷","ALLEY":" ","HOUSE_NO":"１５１號","E_COORD97":179165.45999999999,"N_COORD97":2572029.21,"ADDRESS":"龜子港３１巷１５１號","OBJECTID":343123},"geometry":{"x":179165.45999999996,"y":2572029.2100000028}},{"attributes":{"ID":343133,"DIS_CODE":0,"TOWNNAME":"六甲區","LI":"龜港里","LIN":"5鄰","STREET":" ","SECT":" ","MAREA":"龜子港","LANE":"３１巷","ALLEY":" ","HOUSE_NO":"１７１號","E_COORD97":179205.95000000001,"N_COORD97":2572083.9300000002,"ADDRESS":"龜子港３１巷１７１號","OBJECTID":343124},"geometry":{"x":179205.95000000112,"y":2572083.9300000016}},{"attributes":{"ID":343134,"DIS_CODE":0,"TOWNNAME":"六甲區","LI":"龜港里","LIN":"5鄰","STREET":" ","SECT":" ","MAREA":"龜子港","LANE":"３１巷","ALLEY":" ","HOUSE_NO":"２０號","E_COORD97":179605.69,"N_COORD97":2571759.5899999999,"ADDRESS":"龜子港３１巷２０號","OBJECTID":343125},"geometry":{"x":179605.68999999948,"y":2571759.5899999999}},{"attributes":{"ID":343135,"DIS_CODE":0,"TOWNNAME":"六甲區","LI":"龜港里","LIN":"5鄰","STREET":" ","SECT":" ","MAREA":"龜子港","LANE":"３１巷","ALLEY":" ","HOUSE_NO":"３０號","E_COORD97":179524.98999999999,"N_COORD97":2571710.1299999999,"ADDRESS":"龜子港３１巷３０號","OBJECTID":343126},"geometry":{"x":179524.99000000022,"y":2571710.129999999}},{"attributes":{"ID":343136,"DIS_CODE":0,"TOWNNAME":"六甲區","LI":"龜港里","LIN":"5鄰","STREET":" ","SECT":" ","MAREA":"龜子港","LANE":"３１巷","ALLEY":" ","HOUSE_NO":"３１號","E_COORD97":179538.98000000001,"N_COORD97":2571688.5699999998,"ADDRESS":"龜子港３１巷３１號","OBJECTID":343127},"geometry":{"x":179538.98000000045,"y":2571688.5700000003}},{"attributes":{"ID":343137,"DIS_CODE":0,"TOWNNAME":"六甲區","LI":"龜港里","LIN":"5鄰","STREET":" ","SECT":" ","MAREA":"龜子港","LANE":"３１巷","ALLEY":" ","HOUSE_NO":"４２號","E_COORD97":179448.84,"N_COORD97":2571709.7599999998,"ADDRESS":"龜子港３１巷４２號","OBJECTID":343128},"geometry":{"x":179448.84000000078,"y":2571709.7600000016}},{"attributes":{"ID":343138,"DIS_CODE":0,"TOWNNAME":"六甲區","LI":"龜港里","LIN":"5鄰","STREET":" ","SECT":" ","MAREA":"龜子港","LANE":"３１巷","ALLEY":" ","HOUSE_NO":"６１號","E_COORD97":179308.56,"N_COORD97":2571672.8199999998,"ADDRESS":"龜子港３１巷６１號","OBJECTID":343129},"geometry":{"x":179308.55999999959,"y":2571672.8200000003}},{"attributes":{"ID":343139,"DIS_CODE":0,"TOWNNAME":"關廟區","LI":"松腳里","LIN":"5鄰","STREET":"中山路","SECT":"一段","MAREA":" ","LANE":"２１巷","ALLEY":" ","HOUSE_NO":"２３號","E_COORD97":182073.45999999999,"N_COORD97":2539886.2799999998,"ADDRESS":"中山路一段２１巷２３號","OBJECTID":343130},"geometry":{"x":182073.46000000183,"y":2539886.2800000012}},{"attributes":{"ID":343140,"DIS_CODE":0,"TOWNNAME":"關廟區","LI":"松腳里","LIN":"5鄰","STREET":"中山路","SECT":"一段","MAREA":" ","LANE":"２１巷","ALLEY":" ","HOUSE_NO":"３３號","E_COORD97":182072.76000000001,"N_COORD97":2539859.2799999998,"ADDRESS":"中山路一段２１巷３３號","OBJECTID":343131},"geometry":{"x":182072.75999999885,"y":2539859.2800000012}},{"attributes":{"ID":343141,"DIS_CODE":0,"TOWNNAME":"關廟區","LI":"松腳里","LIN":"5鄰","STREET":"中山路","SECT":"一段","MAREA":" ","LANE":"２１巷","ALLEY":" ","HOUSE_NO":"１３號","E_COORD97":182072.76000000001,"N_COORD97":2539906.2799999998,"ADDRESS":"中山路一段２１巷１３號","OBJECTID":343132},"geometry":{"x":182072.75999999885,"y":2539906.2800000012}},{"attributes":{"ID":343142,"DIS_CODE":0,"TOWNNAME":"關廟區","LI":"松腳里","LIN":"5鄰","STREET":"中山路","SECT":"一段","MAREA":" ","LANE":"２１巷","ALLEY":" ","HOUSE_NO":"４８號","E_COORD97":182061.26000000001,"N_COORD97":2539848.2799999998,"ADDRESS":"中山路一段２１巷４８號","OBJECTID":343133},"geometry":{"x":182061.26000000071,"y":2539848.2800000031}},{"attributes":{"ID":343143,"DIS_CODE":0,"TOWNNAME":"關廟區","LI":"埤頭里","LIN":"5鄰","STREET":"保東路","SECT":" ","MAREA":" ","LANE":"３巷","ALLEY":" ","HOUSE_NO":"８號","E_COORD97":179038.22,"N_COORD97":2543989.2999999998,"ADDRESS":"保東路３巷８號","OBJECTID":343134},"geometry":{"x":179038.21999999974,"y":2543989.3000000045}},{"attributes":{"ID":343144,"DIS_CODE":0,"TOWNNAME":"永康區","LI":"埔園里","LIN":"35鄰","STREET":"八德街","SECT":" ","MAREA":" ","LANE":"２１巷","ALLEY":" ","HOUSE_NO":"３號","E_COORD97":174307.17000000001,"N_COORD97":2548466.7000000002,"ADDRESS":"八德街２１巷３號","OBJECTID":343135},"geometry":{"x":174307.16999999993,"y":2548466.6999999974}},{"attributes":{"ID":343145,"DIS_CODE":0,"TOWNNAME":"永康區","LI":"埔園里","LIN":"35鄰","STREET":"八德街","SECT":" ","MAREA":" ","LANE":"２１巷","ALLEY":" ","HOUSE_NO":"５號","E_COORD97":174307.31,"N_COORD97":2548461.6299999999,"ADDRESS":"八德街２１巷５號","OBJECTID":343136},"geometry":{"x":174307.31000000052,"y":2548461.6300000008}},{"attributes":{"ID":343146,"DIS_CODE":0,"TOWNNAME":"永康區","LI":"埔園里","LIN":"35鄰","STREET":"八德街","SECT":" ","MAREA":" ","LANE":"２１巷","ALLEY":" ","HOUSE_NO":"７號","E_COORD97":174306.60999999999,"N_COORD97":2548456.3799999999,"ADDRESS":"八德街２１巷７號","OBJECTID":343137},"geometry":{"x":174306.61000000034,"y":2548456.3800000008}},{"attributes":{"ID":343147,"DIS_CODE":0,"TOWNNAME":"永康區","LI":"埔園里","LIN":"35鄰","STREET":"八德街","SECT":" ","MAREA":" ","LANE":"２１巷","ALLEY":" ","HOUSE_NO":"９號","E_COORD97":174304.44,"N_COORD97":2548451.52,"ADDRESS":"八德街２１巷９號","OBJECTID":343138},"geometry":{"x":174304.44000000041,"y":2548451.5200000033}},{"attributes":{"ID":343148,"DIS_CODE":0,"TOWNNAME":"新化區","LI":"北勢里","LIN":"8鄰","STREET":"永新路","SECT":" ","MAREA":" ","LANE":" ","ALLEY":" ","HOUSE_NO":"２５號三樓之３","E_COORD97":177802.39999999999,"N_COORD97":2550963.2999999998,"ADDRESS":"永新路２５號三樓之３","OBJECTID":343139},"geometry":{"x":177802.40000000224,"y":2550963.3000000045}},{"attributes":{"ID":343149,"DIS_CODE":0,"TOWNNAME":"新化區","LI":"北勢里","LIN":"8鄰","STREET":"永新路","SECT":" ","MAREA":" ","LANE":" ","ALLEY":" ","HOUSE_NO":"２５號六樓之２","E_COORD97":177802.42999999999,"N_COORD97":2550963.2999999998,"ADDRESS":"永新路２５號六樓之２","OBJECTID":343140},"geometry":{"x":177802.4299999997,"y":2550963.3000000045}},{"attributes":{"ID":343150,"DIS_CODE":0,"TOWNNAME":"新化區","LI":"北勢里","LIN":"8鄰","STREET":"永新路","SECT":" ","MAREA":" ","LANE":" ","ALLEY":" ","HOUSE_NO":"４７號三樓之２","E_COORD97":177802.42999999999,"N_COORD97":2550963.2999999998,"ADDRESS":"永新路４７號三樓之２","OBJECTID":343141},"geometry":{"x":177802.4299999997,"y":2550963.3000000045}},{"attributes":{"ID":343151,"DIS_CODE":0,"TOWNNAME":"新化區","LI":"北勢里","LIN":"8鄰","STREET":"永新路","SECT":" ","MAREA":" ","LANE":" ","ALLEY":" ","HOUSE_NO":"２３號四樓之３","E_COORD97":177802.39999999999,"N_COORD97":2550963.2999999998,"ADDRESS":"永新路２３號四樓之３","OBJECTID":343142},"geometry":{"x":177802.40000000224,"y":2550963.3000000045}},{"attributes":{"ID":343152,"DIS_CODE":0,"TOWNNAME":"新化區","LI":"北勢里","LIN":"8鄰","STREET":"永新路","SECT":" ","MAREA":" ","LANE":" ","ALLEY":" ","HOUSE_NO":"４７號七樓之３","E_COORD97":177802.39999999999,"N_COORD97":2550963.2999999998,"ADDRESS":"永新路４７號七樓之３","OBJECTID":343143},"geometry":{"x":177802.40000000224,"y":2550963.3000000045}},{"attributes":{"ID":343153,"DIS_CODE":0,"TOWNNAME":"關廟區","LI":"布袋里","LIN":"5鄰","STREET":"長文街","SECT":" ","MAREA":" ","LANE":"１３５巷","ALLEY":" ","HOUSE_NO":"２５號","E_COORD97":182867.73999999999,"N_COORD97":2535331.2999999998,"ADDRESS":"長文街１３５巷２５號","OBJECTID":343144},"geometry":{"x":182867.74000000022,"y":2535331.3000000026}},{"attributes":{"ID":343154,"DIS_CODE":0,"TOWNNAME":"關廟區","LI":"布袋里","LIN":"5鄰","STREET":"長文街","SECT":" ","MAREA":" ","LANE":"１３５巷","ALLEY":" ","HOUSE_NO":"３３號","E_COORD97":182875.19,"N_COORD97":2535314.2999999998,"ADDRESS":"長文街１３５巷３３號","OBJECTID":343145},"geometry":{"x":182875.19000000041,"y":2535314.3000000026}},{"attributes":{"ID":343155,"DIS_CODE":0,"TOWNNAME":"關廟區","LI":"布袋里","LIN":"5鄰","STREET":"長文街","SECT":" ","MAREA":" ","LANE":"１０５巷","ALLEY":" ","HOUSE_NO":"１３號","E_COORD97":182934.29000000001,"N_COORD97":2535389.29,"ADDRESS":"長文街１０５巷１３號","OBJECTID":343146},"geometry":{"x":182934.29000000097,"y":2535389.2899999972}},{"attributes":{"ID":343156,"DIS_CODE":0,"TOWNNAME":"永康區","LI":"埔園里","LIN":"35鄰","STREET":"八德街","SECT":" ","MAREA":" ","LANE":"２１巷","ALLEY":" ","HOUSE_NO":"１１號","E_COORD97":174302.25,"N_COORD97":2548446.1000000001,"ADDRESS":"八德街２１巷１１號","OBJECTID":343147},"geometry":{"x":174302.25,"y":2548446.0999999996}},{"attributes":{"ID":343157,"DIS_CODE":0,"TOWNNAME":"永康區","LI":"埔園里","LIN":"35鄰","STREET":"八德街","SECT":" ","MAREA":" ","LANE":"５５巷","ALLEY":" ","HOUSE_NO":"１號","E_COORD97":174223.37,"N_COORD97":2548495.25,"ADDRESS":"八德街５５巷１號","OBJECTID":343148},"geometry":{"x":174223.37000000011,"y":2548495.2500000019}},{"attributes":{"ID":343158,"DIS_CODE":0,"TOWNNAME":"永康區","LI":"埔園里","LIN":"35鄰","STREET":"八德街","SECT":" ","MAREA":" ","LANE":"５５巷","ALLEY":" ","HOUSE_NO":"２號","E_COORD97":174209.32000000001,"N_COORD97":2548489.9199999999,"ADDRESS":"八德街５５巷２號","OBJECTID":343149},"geometry":{"x":174209.32000000123,"y":2548489.9200000037}},{"attributes":{"ID":343159,"DIS_CODE":0,"TOWNNAME":"永康區","LI":"埔園里","LIN":"35鄰","STREET":"八德街","SECT":" ","MAREA":" ","LANE":"５５巷","ALLEY":" ","HOUSE_NO":"６號","E_COORD97":174208.07000000001,"N_COORD97":2548482.3100000001,"ADDRESS":"八德街５５巷６號","OBJECTID":343150},"geometry":{"x":174208.07000000123,"y":2548482.3100000024}},{"attributes":{"ID":343160,"DIS_CODE":0,"TOWNNAME":"永康區","LI":"埔園里","LIN":"35鄰","STREET":"八德街","SECT":" ","MAREA":" ","LANE":"５５巷","ALLEY":" ","HOUSE_NO":"８號","E_COORD97":174213.17000000001,"N_COORD97":2548472.8799999999,"ADDRESS":"八德街５５巷８號","OBJECTID":343151},"geometry":{"x":174213.17000000179,"y":2548472.8800000008}},{"attributes":{"ID":343161,"DIS_CODE":0,"TOWNNAME":"永康區","LI":"埔園里","LIN":"35鄰","STREET":"八德街","SECT":" ","MAREA":" ","LANE":"５５巷","ALLEY":" ","HOUSE_NO":"１０號","E_COORD97":174201.82000000001,"N_COORD97":2548473.3599999999,"ADDRESS":"八德街５５巷１０號","OBJECTID":343152},"geometry":{"x":174201.8200000003,"y":2548473.3600000013}},{"attributes":{"ID":343162,"DIS_CODE":0,"TOWNNAME":"永康區","LI":"尚頂里","LIN":"35鄰","STREET":"國聖街","SECT":" ","MAREA":" ","LANE":"８６巷","ALLEY":" ","HOUSE_NO":"２０號","E_COORD97":170459.32000000001,"N_COORD97":2547919.75,"ADDRESS":"國聖街８６巷２０號","OBJECTID":343153},"geometry":{"x":170459.32000000216,"y":2547919.7500000019}},{"attributes":{"ID":343163,"DIS_CODE":0,"TOWNNAME":"永康區","LI":"正強里","LIN":"35鄰","STREET":"正強街","SECT":" ","MAREA":" ","LANE":"３１５巷","ALLEY":" ","HOUSE_NO":"９號","E_COORD97":173211.14999999999,"N_COORD97":2548291.8300000001,"ADDRESS":"正強街３１５巷９號","OBJECTID":343154},"geometry":{"x":173211.15000000037,"y":2548291.8300000019}},{"attributes":{"ID":343164,"DIS_CODE":0,"TOWNNAME":"永康區","LI":"勝利里","LIN":"35鄰","STREET":"勝利街","SECT":" ","MAREA":" ","LANE":"２巷","ALLEY":" ","HOUSE_NO":"１０號","E_COORD97":171121.19,"N_COORD97":2544706,"ADDRESS":"勝利街２巷１０號","OBJECTID":343155},"geometry":{"x":171121.19000000041,"y":2544706.0000000019}},{"attributes":{"ID":343165,"DIS_CODE":0,"TOWNNAME":"新化區","LI":"護國里","LIN":"8鄰","STREET":"信義路","SECT":" ","MAREA":" ","LANE":"５６巷","ALLEY":" ","HOUSE_NO":"７５號","E_COORD97":180096.73000000001,"N_COORD97":2548819.25,"ADDRESS":"信義路５６巷７５號","OBJECTID":343156},"geometry":{"x":180096.73000000045,"y":2548819.25}},{"attributes":{"ID":343166,"DIS_CODE":0,"TOWNNAME":"新化區","LI":"北勢里","LIN":"8鄰","STREET":"永新路","SECT":" ","MAREA":" ","LANE":" ","ALLEY":" ","HOUSE_NO":"４７號六樓之２","E_COORD97":177802.42999999999,"N_COORD97":2550963.2999999998,"ADDRESS":"永新路４７號六樓之２","OBJECTID":343157},"geometry":{"x":177802.4299999997,"y":2550963.3000000045}},{"attributes":{"ID":343167,"DIS_CODE":0,"TOWNNAME":"新化區","LI":"北勢里","LIN":"8鄰","STREET":"永新路","SECT":" ","MAREA":" ","LANE":" ","ALLEY":" ","HOUSE_NO":"４７號五樓之１","E_COORD97":177802.29999999999,"N_COORD97":2550963.2999999998,"ADDRESS":"永新路４７號五樓之１","OBJECTID":343158},"geometry":{"x":177802.29999999981,"y":2550963.3000000045}},{"attributes":{"ID":343168,"DIS_CODE":0,"TOWNNAME":"新化區","LI":"北勢里","LIN":"8鄰","STREET":"永新路","SECT":" ","MAREA":" ","LANE":" ","ALLEY":" ","HOUSE_NO":"４７號二樓之３","E_COORD97":177802.39999999999,"N_COORD97":2550963.2999999998,"ADDRESS":"永新路４７號二樓之３","OBJECTID":343159},"geometry":{"x":177802.40000000224,"y":2550963.3000000045}},{"attributes":{"ID":343169,"DIS_CODE":0,"TOWNNAME":"永康區","LI":"正強里","LIN":"35鄰","STREET":"正強街","SECT":" ","MAREA":" ","LANE":"３１３巷","ALLEY":" ","HOUSE_NO":"１５號","E_COORD97":173207.17999999999,"N_COORD97":2548244.1499999999,"ADDRESS":"正強街３１３巷１５號","OBJECTID":343160},"geometry":{"x":173207.1799999997,"y":2548244.1500000004}},{"attributes":{"ID":343170,"DIS_CODE":0,"TOWNNAME":"永康區","LI":"成功里","LIN":"35鄰","STREET":"中華一路","SECT":" ","MAREA":" ","LANE":"３９巷","ALLEY":" ","HOUSE_NO":"４２號","E_COORD97":171859.10000000001,"N_COORD97":2544871.25,"ADDRESS":"中華一路３９巷４２號","OBJECTID":343161},"geometry":{"x":171859.10000000056,"y":2544871.2500000019}},{"attributes":{"ID":343171,"DIS_CODE":0,"TOWNNAME":"永康區","LI":"尚頂里","LIN":"35鄰","STREET":"國聖街","SECT":" ","MAREA":" ","LANE":"８６巷","ALLEY":" ","HOUSE_NO":"２８號","E_COORD97":170475.09,"N_COORD97":2547901.2599999998,"ADDRESS":"國聖街８６巷２８號","OBJECTID":343162},"geometry":{"x":170475.08999999985,"y":2547901.2600000016}},{"attributes":{"ID":343172,"DIS_CODE":0,"TOWNNAME":"永康區","LI":"尚頂里","LIN":"35鄰","STREET":"國聖街","SECT":" ","MAREA":" ","LANE":"８６巷","ALLEY":" ","HOUSE_NO":"１５號","E_COORD97":170463.64000000001,"N_COORD97":2547942.8199999998,"ADDRESS":"國聖街８６巷１５號","OBJECTID":343163},"geometry":{"x":170463.6400000006,"y":2547942.8200000022}},{"attributes":{"ID":343173,"DIS_CODE":0,"TOWNNAME":"永康區","LI":"正強里","LIN":"35鄰","STREET":"正強街","SECT":" ","MAREA":" ","LANE":"３１５巷","ALLEY":" ","HOUSE_NO":"３號","E_COORD97":173226.16,"N_COORD97":2548293.8300000001,"ADDRESS":"正強街３１５巷３號","OBJECTID":343164},"geometry":{"x":173226.16000000015,"y":2548293.8300000038}},{"attributes":{"ID":343174,"DIS_CODE":0,"TOWNNAME":"永康區","LI":"永康里","LIN":"35鄰","STREET":"大同街","SECT":" ","MAREA":" ","LANE":"８０１巷","ALLEY":" ","HOUSE_NO":"２號","E_COORD97":174417.10000000001,"N_COORD97":2546995.0499999998,"ADDRESS":"大同街８０１巷２號","OBJECTID":343165},"geometry":{"x":174417.10000000056,"y":2546995.0500000026}},{"attributes":{"ID":343175,"DIS_CODE":0,"TOWNNAME":"新化區","LI":"武安里","LIN":"5鄰","STREET":"中正路","SECT":" ","MAREA":" ","LANE":"３６９巷","ALLEY":" ","HOUSE_NO":"１號","E_COORD97":179100.10999999999,"N_COORD97":2548271.25,"ADDRESS":"中正路３６９巷１號","OBJECTID":343166},"geometry":{"x":179100.11000000127,"y":2548271.2500000019}},{"attributes":{"ID":343176,"DIS_CODE":0,"TOWNNAME":"永康區","LI":"埔園里","LIN":"35鄰","STREET":"八德街","SECT":" ","MAREA":" ","LANE":"２７巷","ALLEY":" ","HOUSE_NO":"３１號","E_COORD97":174262.89000000001,"N_COORD97":2548415.1000000001,"ADDRESS":"八德街２７巷３１號","OBJECTID":343167},"geometry":{"x":174262.8900000006,"y":2548415.1000000015}},{"attributes":{"ID":343177,"DIS_CODE":0,"TOWNNAME":"仁德區","LI":"後壁里","LIN":"35鄰","STREET":"德洋二街","SECT":" ","MAREA":" ","LANE":"８巷","ALLEY":" ","HOUSE_NO":"１６號","E_COORD97":172415.92000000001,"N_COORD97":2539428.0099999998,"ADDRESS":"德洋二街８巷１６號","OBJECTID":343168},"geometry":{"x":172415.91999999993,"y":2539428.0100000016}},{"attributes":{"ID":343178,"DIS_CODE":0,"TOWNNAME":"仁德區","LI":"仁義里","LIN":"35鄰","STREET":"中正路","SECT":"二段","MAREA":" ","LANE":"６４２巷","ALLEY":" ","HOUSE_NO":"１１號","E_COORD97":173547.70000000001,"N_COORD97":2539710.52,"ADDRESS":"中正路二段６４２巷１１號","OBJECTID":343169},"geometry":{"x":173547.70000000112,"y":2539710.5199999996}},{"attributes":{"ID":343179,"DIS_CODE":0,"TOWNNAME":"中西區","LI":"西湖里","LIN":"35鄰","STREET":"頂美一街","SECT":" ","MAREA":" ","LANE":"６５巷","ALLEY":" ","HOUSE_NO":"１８號","E_COORD97":166244.35999999999,"N_COORD97":2544751.3399999999,"ADDRESS":"頂美一街６５巷１８號","OBJECTID":343170},"geometry":{"x":166244.36000000034,"y":2544751.3400000017}},{"attributes":{"ID":343180,"DIS_CODE":0,"TOWNNAME":"中西區","LI":"西湖里","LIN":"35鄰","STREET":"湖美三街","SECT":" ","MAREA":" ","LANE":" ","ALLEY":" ","HOUSE_NO":"８６號","E_COORD97":166228.10000000001,"N_COORD97":2544752.6899999999,"ADDRESS":"湖美三街８６號","OBJECTID":343171},"geometry":{"x":166228.09999999963,"y":2544752.6900000013}},{"attributes":{"ID":343181,"DIS_CODE":0,"TOWNNAME":"中西區","LI":"西湖里","LIN":"35鄰","STREET":"頂美一街","SECT":" ","MAREA":" ","LANE":"６５巷","ALLEY":" ","HOUSE_NO":"２２號","E_COORD97":166233.51999999999,"N_COORD97":2544752.1899999999,"ADDRESS":"頂美一街６５巷２２號","OBJECTID":343172},"geometry":{"x":166233.52000000048,"y":2544752.1900000013}},{"attributes":{"ID":343182,"DIS_CODE":0,"TOWNNAME":"中西區","LI":"西湖里","LIN":"35鄰","STREET":"頂美一街","SECT":" ","MAREA":" ","LANE":"６５巷","ALLEY":" ","HOUSE_NO":"２０號","E_COORD97":166239.10999999999,"N_COORD97":2544751.8500000001,"ADDRESS":"頂美一街６５巷２０號","OBJECTID":343173},"geometry":{"x":166239.11000000034,"y":2544751.8500000015}},{"attributes":{"ID":343183,"DIS_CODE":0,"TOWNNAME":"中西區","LI":"西湖里","LIN":"35鄰","STREET":"頂美一街","SECT":" ","MAREA":" ","LANE":"６５巷","ALLEY":" ","HOUSE_NO":"１２號","E_COORD97":166269.92999999999,"N_COORD97":2544750.8300000001,"ADDRESS":"頂美一街６５巷１２號","OBJECTID":343174},"geometry":{"x":166269.9299999997,"y":2544750.8299999982}},{"attributes":{"ID":343184,"DIS_CODE":0,"TOWNNAME":"中西區","LI":"西湖里","LIN":"35鄰","STREET":"頂美一街","SECT":" ","MAREA":" ","LANE":"６５巷","ALLEY":" ","HOUSE_NO":"１０號","E_COORD97":166275.85999999999,"N_COORD97":2544750.1499999999,"ADDRESS":"頂美一街６５巷１０號","OBJECTID":343175},"geometry":{"x":166275.86000000127,"y":2544750.1500000022}},{"attributes":{"ID":343185,"DIS_CODE":0,"TOWNNAME":"中西區","LI":"西湖里","LIN":"35鄰","STREET":"頂美一街","SECT":" ","MAREA":" ","LANE":"６５巷","ALLEY":" ","HOUSE_NO":"８號","E_COORD97":166282.29000000001,"N_COORD97":2544749.3100000001,"ADDRESS":"頂美一街６５巷８號","OBJECTID":343176},"geometry":{"x":166282.2900000019,"y":2544749.3100000024}},{"attributes":{"ID":343186,"DIS_CODE":0,"TOWNNAME":"中西區","LI":"西湖里","LIN":"35鄰","STREET":"頂美一街","SECT":" ","MAREA":" ","LANE":"６５巷","ALLEY":" ","HOUSE_NO":"６號","E_COORD97":166289.23000000001,"N_COORD97":2544748.6299999999,"ADDRESS":"頂美一街６５巷６號","OBJECTID":343177},"geometry":{"x":166289.23000000045,"y":2544748.6300000008}},{"attributes":{"ID":343187,"DIS_CODE":0,"TOWNNAME":"中西區","LI":"西湖里","LIN":"35鄰","STREET":"頂美一街","SECT":" ","MAREA":" ","LANE":"６５巷","ALLEY":" ","HOUSE_NO":"２號","E_COORD97":166296.01000000001,"N_COORD97":2544748.1200000001,"ADDRESS":"頂美一街６５巷２號","OBJECTID":343178},"geometry":{"x":166296.01000000071,"y":2544748.1200000029}},{"attributes":{"ID":343188,"DIS_CODE":0,"TOWNNAME":"中西區","LI":"西湖里","LIN":"35鄰","STREET":"頂美一街","SECT":" ","MAREA":" ","LANE":"６５巷","ALLEY":" ","HOUSE_NO":"１９號","E_COORD97":166246.04999999999,"N_COORD97":2544734.2400000002,"ADDRESS":"頂美一街６５巷１９號","OBJECTID":343179},"geometry":{"x":166246.04999999981,"y":2544734.2400000002}},{"attributes":{"ID":343189,"DIS_CODE":0,"TOWNNAME":"中西區","LI":"西湖里","LIN":"35鄰","STREET":"頂美一街","SECT":" ","MAREA":" ","LANE":"６５巷","ALLEY":" ","HOUSE_NO":"２３號","E_COORD97":166234.03,"N_COORD97":2544735.0800000001,"ADDRESS":"頂美一街６５巷２３號","OBJECTID":343180},"geometry":{"x":166234.03000000119,"y":2544735.0800000001}},{"attributes":{"ID":343190,"DIS_CODE":0,"TOWNNAME":"中西區","LI":"西湖里","LIN":"35鄰","STREET":"頂美一街","SECT":" ","MAREA":" ","LANE":"６５巷","ALLEY":" ","HOUSE_NO":"２１號","E_COORD97":166239.79000000001,"N_COORD97":2544734.7400000002,"ADDRESS":"頂美一街６５巷２１號","OBJECTID":343181},"geometry":{"x":166239.78999999911,"y":2544734.7400000039}},{"attributes":{"ID":343191,"DIS_CODE":0,"TOWNNAME":"中西區","LI":"西湖里","LIN":"35鄰","STREET":"湖美三街","SECT":" ","MAREA":" ","LANE":" ","ALLEY":" ","HOUSE_NO":"８２號","E_COORD97":166228.10000000001,"N_COORD97":2544735.5899999999,"ADDRESS":"湖美三街８２號","OBJECTID":343182},"geometry":{"x":166228.09999999963,"y":2544735.5900000036}},{"attributes":{"ID":343192,"DIS_CODE":0,"TOWNNAME":"永康區","LI":"埔園里","LIN":"35鄰","STREET":"八德街","SECT":" ","MAREA":" ","LANE":"２７巷","ALLEY":" ","HOUSE_NO":"２１號","E_COORD97":174272.10999999999,"N_COORD97":2548436.0899999999,"ADDRESS":"八德街２７巷２１號","OBJECTID":343183},"geometry":{"x":174272.11000000127,"y":2548436.0899999999}},{"attributes":{"ID":343193,"DIS_CODE":0,"TOWNNAME":"永康區","LI":"南灣里","LIN":"35鄰","STREET":"南灣街","SECT":" ","MAREA":" ","LANE":"６０巷","ALLEY":" ","HOUSE_NO":"５號","E_COORD97":174520.19,"N_COORD97":2544953.1200000001,"ADDRESS":"南灣街６０巷５號","OBJECTID":343184},"geometry":{"x":174520.19000000227,"y":2544953.120000001}},{"attributes":{"ID":343194,"DIS_CODE":0,"TOWNNAME":"東山區","LI":"三榮里","LIN":"5鄰","STREET":" ","SECT":" ","MAREA":"木柵","LANE":" ","ALLEY":" ","HOUSE_NO":"３號之１","E_COORD97":187728.84,"N_COORD97":2579884.2000000002,"ADDRESS":"木柵３號之１","OBJECTID":343185},"geometry":{"x":187728.83999999985,"y":2579884.1999999993}},{"attributes":{"ID":343195,"DIS_CODE":0,"TOWNNAME":"北區","LI":"長榮里","LIN":"5鄰","STREET":"長榮路","SECT":"五段","MAREA":" ","LANE":"４１巷","ALLEY":" ","HOUSE_NO":"２８號","E_COORD97":169953.97,"N_COORD97":2545600.4500000002,"ADDRESS":"長榮路五段４１巷２８號","OBJECTID":343186},"geometry":{"x":169953.96999999974,"y":2545600.450000003}},{"attributes":{"ID":343196,"DIS_CODE":0,"TOWNNAME":"永康區","LI":"埔園里","LIN":"35鄰","STREET":"八德街","SECT":" ","MAREA":" ","LANE":"２７巷","ALLEY":" ","HOUSE_NO":"３５號","E_COORD97":174265.19,"N_COORD97":2548405.1000000001,"ADDRESS":"八德街２７巷３５號","OBJECTID":343187},"geometry":{"x":174265.19000000041,"y":2548405.1000000015}},{"attributes":{"ID":343197,"DIS_CODE":0,"TOWNNAME":"永康區","LI":"尚頂里","LIN":"35鄰","STREET":"國聖街","SECT":" ","MAREA":" ","LANE":"８６巷","ALLEY":" ","HOUSE_NO":"１６號","E_COORD97":170447.17000000001,"N_COORD97":2547930.5,"ADDRESS":"國聖街８６巷１６號","OBJECTID":343188},"geometry":{"x":170447.17000000086,"y":2547930.5000000019}},{"attributes":{"ID":343198,"DIS_CODE":0,"TOWNNAME":"永康區","LI":"埔園里","LIN":"35鄰","STREET":"八德街","SECT":" ","MAREA":" ","LANE":"２７巷","ALLEY":" ","HOUSE_NO":"２２號","E_COORD97":174267.95000000001,"N_COORD97":2548458.3399999999,"ADDRESS":"八德街２７巷２２號","OBJECTID":343189},"geometry":{"x":174267.95000000112,"y":2548458.3399999999}},{"attributes":{"ID":343199,"DIS_CODE":0,"TOWNNAME":"永康區","LI":"尚頂里","LIN":"35鄰","STREET":"國聖街","SECT":" ","MAREA":" ","LANE":"８６巷","ALLEY":" ","HOUSE_NO":"１１號","E_COORD97":170450.03,"N_COORD97":2547959.3199999998,"ADDRESS":"國聖街８６巷１１號","OBJECTID":343190},"geometry":{"x":170450.03000000119,"y":2547959.3200000022}},{"attributes":{"ID":343200,"DIS_CODE":0,"TOWNNAME":"永康區","LI":"南灣里","LIN":"35鄰","STREET":"南灣街","SECT":" ","MAREA":" ","LANE":"６０巷","ALLEY":" ","HOUSE_NO":"１５號","E_COORD97":174549.32999999999,"N_COORD97":2544962.3500000001,"ADDRESS":"南灣街６０巷１５號","OBJECTID":343191},"geometry":{"x":174549.32999999914,"y":2544962.3499999996}},{"attributes":{"ID":343201,"DIS_CODE":0,"TOWNNAME":"新化區","LI":"北勢里","LIN":"8鄰","STREET":"永新路","SECT":" ","MAREA":" ","LANE":" ","ALLEY":" ","HOUSE_NO":"２３號三樓之２","E_COORD97":177802.42999999999,"N_COORD97":2550963.2999999998,"ADDRESS":"永新路２３號三樓之２","OBJECTID":343192},"geometry":{"x":177802.4299999997,"y":2550963.3000000045}},{"attributes":{"ID":343202,"DIS_CODE":0,"TOWNNAME":"東山區","LI":"三榮里","LIN":"5鄰","STREET":" ","SECT":" ","MAREA":"木柵","LANE":" ","ALLEY":" ","HOUSE_NO":"３號之２","E_COORD97":187705.07999999999,"N_COORD97":2579881.6899999999,"ADDRESS":"木柵３號之２","OBJECTID":343193},"geometry":{"x":187705.08000000007,"y":2579881.6899999995}},{"attributes":{"ID":343203,"DIS_CODE":0,"TOWNNAME":"東山區","LI":"三榮里","LIN":"5鄰","STREET":" ","SECT":" ","MAREA":"木柵","LANE":" ","ALLEY":" ","HOUSE_NO":"１４號","E_COORD97":187671.59,"N_COORD97":2579851.3199999998,"ADDRESS":"木柵１４號","OBJECTID":343194},"geometry":{"x":187671.59000000171,"y":2579851.3200000003}},{"attributes":{"ID":343204,"DIS_CODE":0,"TOWNNAME":"北區","LI":"長榮里","LIN":"5鄰","STREET":"長勝路","SECT":" ","MAREA":" ","LANE":" ","ALLEY":" ","HOUSE_NO":"３９號","E_COORD97":169974.13,"N_COORD97":2545596.7999999998,"ADDRESS":"長勝路３９號","OBJECTID":343195},"geometry":{"x":169974.13000000082,"y":2545596.8000000026}},{"attributes":{"ID":343205,"DIS_CODE":0,"TOWNNAME":"東山區","LI":"三榮里","LIN":"5鄰","STREET":" ","SECT":" ","MAREA":"木柵","LANE":" ","ALLEY":" ","HOUSE_NO":"１６號之１","E_COORD97":187645.91,"N_COORD97":2579922.1200000001,"ADDRESS":"木柵１６號之１","OBJECTID":343196},"geometry":{"x":187645.90999999922,"y":2579922.1200000048}},{"attributes":{"ID":343206,"DIS_CODE":0,"TOWNNAME":"東山區","LI":"三榮里","LIN":"5鄰","STREET":" ","SECT":" ","MAREA":"木柵","LANE":" ","ALLEY":" ","HOUSE_NO":"１６之２號","E_COORD97":187530.89000000001,"N_COORD97":2579875.54,"ADDRESS":"木柵１６之２號","OBJECTID":343197},"geometry":{"x":187530.8900000006,"y":2579875.5399999991}},{"attributes":{"ID":343207,"DIS_CODE":0,"TOWNNAME":"東山區","LI":"三榮里","LIN":"5鄰","STREET":" ","SECT":" ","MAREA":"木柵","LANE":" ","ALLEY":" ","HOUSE_NO":"１６號","E_COORD97":187664.39000000001,"N_COORD97":2579880.25,"ADDRESS":"木柵１６號","OBJECTID":343198},"geometry":{"x":187664.39000000153,"y":2579880.2500000019}},{"attributes":{"ID":343208,"DIS_CODE":0,"TOWNNAME":"新營區","LI":"新東里","LIN":"5鄰","STREET":"東大街","SECT":" ","MAREA":" ","LANE":"５２巷","ALLEY":" ","HOUSE_NO":"４５號","E_COORD97":181129.82999999999,"N_COORD97":2579159.9100000001,"ADDRESS":"東大街５２巷４５號","OBJECTID":343199},"geometry":{"x":181129.83000000007,"y":2579159.910000002}},{"attributes":{"ID":343209,"DIS_CODE":0,"TOWNNAME":"東山區","LI":"三榮里","LIN":"5鄰","STREET":" ","SECT":" ","MAREA":"木柵","LANE":" ","ALLEY":" ","HOUSE_NO":"１７號之１","E_COORD97":187635.85999999999,"N_COORD97":2579870.1899999999,"ADDRESS":"木柵１７號之１","OBJECTID":343200},"geometry":{"x":187635.86000000034,"y":2579870.1900000013}}]}