{"displayFieldName":"TOWNNAME","fieldAliases":{"ID":"ID","DIS_CODE":"DIS_CODE","TOWNNAME":"TOWNNAME","LI":"LI","LIN":"LIN","STREET":"STREET","SECT":"SECT","MAREA":"MAREA","LANE":"LANE","ALLEY":"ALLEY","HOUSE_NO":"HOUSE_NO","E_COORD97":"E_COORD97","N_COORD97":"N_COORD97","ADDRESS":"ADDRESS","OBJECTID":"OBJECTID"},"geometryType":"esriGeometryPoint","spatialReference":{"wkid":102443,"latestWkid":3826},"fields":[{"name":"ID","type":"esriFieldTypeDouble","alias":"ID"},{"name":"DIS_CODE","type":"esriFieldTypeInteger","alias":"DIS_CODE"},{"name":"TOWNNAME","type":"esriFieldTypeString","alias":"TOWNNAME","length":8},{"name":"LI","type":"esriFieldTypeString","alias":"LI","length":8},{"name":"LIN","type":"esriFieldTypeString","alias":"LIN","length":12},{"name":"STREET","type":"esriFieldTypeString","alias":"STREET","length":20},{"name":"SECT","type":"esriFieldTypeString","alias":"SECT","length":8},{"name":"MAREA","type":"esriFieldTypeString","alias":"MAREA","length":12},{"name":"LANE","type":"esriFieldTypeString","alias":"LANE","length":10},{"name":"ALLEY","type":"esriFieldTypeString","alias":"ALLEY","length":10},{"name":"HOUSE_NO","type":"esriFieldTypeString","alias":"HOUSE_NO","length":20},{"name":"E_COORD97","type":"esriFieldTypeDouble","alias":"E_COORD97"},{"name":"N_COORD97","type":"esriFieldTypeDouble","alias":"N_COORD97"},{"name":"ADDRESS","type":"esriFieldTypeString","alias":"ADDRESS","length":50},{"name":"OBJECTID","type":"esriFieldTypeOID","alias":"OBJECTID"}],"features":[{"attributes":{"ID":288207,"DIS_CODE":0,"TOWNNAME":"中西區","LI":"中正里","LIN":"11鄰","STREET":"民生路","SECT":"二段","MAREA":" ","LANE":" ","ALLEY":" ","HOUSE_NO":"１１５號","E_COORD97":167601.54000000001,"N_COORD97":2543984.4300000002,"ADDRESS":"民生路二段１１５號","OBJECTID":288201},"geometry":{"x":167601.54000000097,"y":2543984.4300000016}},{"attributes":{"ID":288208,"DIS_CODE":0,"TOWNNAME":"中西區","LI":"中正里","LIN":"11鄰","STREET":"民生路","SECT":"二段","MAREA":" ","LANE":" ","ALLEY":" ","HOUSE_NO":"１１７號","E_COORD97":167594.81,"N_COORD97":2543986.77,"ADDRESS":"民生路二段１１７號","OBJECTID":288202},"geometry":{"x":167594.80999999959,"y":2543986.7699999996}},{"attributes":{"ID":288209,"DIS_CODE":0,"TOWNNAME":"安南區","LI":"原佃里","LIN":"2鄰","STREET":"本原街","SECT":"一段","MAREA":" ","LANE":" ","ALLEY":" ","HOUSE_NO":"１６３號之１","E_COORD97":167846.19,"N_COORD97":2550108.5299999998,"ADDRESS":"本原街一段１６３號之１","OBJECTID":288203},"geometry":{"x":167846.18999999948,"y":2550108.5299999993}},{"attributes":{"ID":288210,"DIS_CODE":0,"TOWNNAME":"安南區","LI":"溪心里","LIN":"2鄰","STREET":"海佃路","SECT":"二段","MAREA":" ","LANE":" ","ALLEY":" ","HOUSE_NO":"６０３號","E_COORD97":166542.03,"N_COORD97":2549449.6400000001,"ADDRESS":"海佃路二段６０３號","OBJECTID":288204},"geometry":{"x":166542.03000000212,"y":2549449.6400000025}},{"attributes":{"ID":288211,"DIS_CODE":0,"TOWNNAME":"安南區","LI":"溪心里","LIN":"2鄰","STREET":"海佃路","SECT":"二段","MAREA":" ","LANE":" ","ALLEY":" ","HOUSE_NO":"６０５號","E_COORD97":166540.67000000001,"N_COORD97":2549454.1099999999,"ADDRESS":"海佃路二段６０５號","OBJECTID":288205},"geometry":{"x":166540.67000000179,"y":2549454.1099999975}},{"attributes":{"ID":288212,"DIS_CODE":0,"TOWNNAME":"中西區","LI":"民生里","LIN":"9鄰","STREET":"南華街","SECT":" ","MAREA":" ","LANE":" ","ALLEY":" ","HOUSE_NO":"３４號","E_COORD97":167100.31,"N_COORD97":2543368.79,"ADDRESS":"南華街３４號","OBJECTID":288206},"geometry":{"x":167100.30999999866,"y":2543368.7899999991}},{"attributes":{"ID":288213,"DIS_CODE":0,"TOWNNAME":"安南區","LI":"溪心里","LIN":"2鄰","STREET":"海佃路","SECT":"二段","MAREA":" ","LANE":" ","ALLEY":" ","HOUSE_NO":"６０７號","E_COORD97":166538.06,"N_COORD97":2549458.0800000001,"ADDRESS":"海佃路二段６０７號","OBJECTID":288207},"geometry":{"x":166538.06000000052,"y":2549458.0800000001}},{"attributes":{"ID":288214,"DIS_CODE":0,"TOWNNAME":"善化區","LI":"文正里","LIN":"14鄰","STREET":"興農路","SECT":" ","MAREA":" ","LANE":" ","ALLEY":" ","HOUSE_NO":"６４號","E_COORD97":176432.66,"N_COORD97":2559168.0099999998,"ADDRESS":"興農路６４號","OBJECTID":288208},"geometry":{"x":176432.66000000108,"y":2559168.0099999998}},{"attributes":{"ID":288215,"DIS_CODE":0,"TOWNNAME":"仁德區","LI":"保安里","LIN":"2鄰","STREET":"文賢路","SECT":"一段","MAREA":" ","LANE":" ","ALLEY":" ","HOUSE_NO":"５５３號","E_COORD97":171132.64000000001,"N_COORD97":2536975.8199999998,"ADDRESS":"文賢路一段５５３號","OBJECTID":288209},"geometry":{"x":171132.63999999966,"y":2536975.8200000003}},{"attributes":{"ID":288216,"DIS_CODE":0,"TOWNNAME":"北區","LI":"三德里","LIN":"10鄰","STREET":"裕民街","SECT":" ","MAREA":" ","LANE":"８３巷","ALLEY":" ","HOUSE_NO":"２號","E_COORD97":168469.25,"N_COORD97":2544590.1800000002,"ADDRESS":"裕民街８３巷２號","OBJECTID":288210},"geometry":{"x":168469.25000000186,"y":2544590.1800000016}},{"attributes":{"ID":288217,"DIS_CODE":0,"TOWNNAME":"安平區","LI":"平通里","LIN":"10鄰","STREET":"育平九街","SECT":" ","MAREA":" ","LANE":"２４６巷","ALLEY":" ","HOUSE_NO":"４１號","E_COORD97":164900.23389199999,"N_COORD97":2544118.8234799998,"ADDRESS":"育平九街２４６巷４１號","OBJECTID":288211},"geometry":{"x":164900.23389200121,"y":2544118.8234770037}},{"attributes":{"ID":288218,"DIS_CODE":0,"TOWNNAME":"南區","LI":"新興里","LIN":"10鄰","STREET":"夏林路","SECT":" ","MAREA":" ","LANE":"１６３巷","ALLEY":" ","HOUSE_NO":"１０號","E_COORD97":167523.14000000001,"N_COORD97":2542299.04,"ADDRESS":"夏林路１６３巷１０號","OBJECTID":288212},"geometry":{"x":167523.13999999966,"y":2542299.0399999991}},{"attributes":{"ID":288219,"DIS_CODE":0,"TOWNNAME":"仁德區","LI":"保安里","LIN":"2鄰","STREET":"文賢路","SECT":"一段","MAREA":" ","LANE":" ","ALLEY":" ","HOUSE_NO":"５３５號","E_COORD97":171128.42000000001,"N_COORD97":2537009.3300000001,"ADDRESS":"文賢路一段５３５號","OBJECTID":288213},"geometry":{"x":171128.42000000086,"y":2537009.3300000001}},{"attributes":{"ID":288220,"DIS_CODE":0,"TOWNNAME":"仁德區","LI":"保安里","LIN":"2鄰","STREET":"保安路","SECT":"一段","MAREA":" ","LANE":" ","ALLEY":" ","HOUSE_NO":"１０７號","E_COORD97":171083.45999999999,"N_COORD97":2536837.0600000001,"ADDRESS":"保安路一段１０７號","OBJECTID":288214},"geometry":{"x":171083.46000000183,"y":2536837.0600000042}},{"attributes":{"ID":288221,"DIS_CODE":0,"TOWNNAME":"南區","LI":"新興里","LIN":"10鄰","STREET":"夏林路","SECT":" ","MAREA":" ","LANE":"１６３巷","ALLEY":" ","HOUSE_NO":"１號","E_COORD97":167519.76999999999,"N_COORD97":2542321.6499999999,"ADDRESS":"夏林路１６３巷１號","OBJECTID":288215},"geometry":{"x":167519.77000000048,"y":2542321.6500000041}},{"attributes":{"ID":288222,"DIS_CODE":0,"TOWNNAME":"南區","LI":"新興里","LIN":"10鄰","STREET":"夏林路","SECT":" ","MAREA":" ","LANE":"１６３巷","ALLEY":" ","HOUSE_NO":"３號","E_COORD97":167524.48999999999,"N_COORD97":2542321.1400000001,"ADDRESS":"夏林路１６３巷３號","OBJECTID":288216},"geometry":{"x":167524.49000000115,"y":2542321.1400000006}},{"attributes":{"ID":288223,"DIS_CODE":0,"TOWNNAME":"南區","LI":"新興里","LIN":"10鄰","STREET":"夏林路","SECT":" ","MAREA":" ","LANE":"１６３巷","ALLEY":" ","HOUSE_NO":"５號","E_COORD97":167527.95000000001,"N_COORD97":2542321.5600000001,"ADDRESS":"夏林路１６３巷５號","OBJECTID":288217},"geometry":{"x":167527.95000000112,"y":2542321.5600000005}},{"attributes":{"ID":288224,"DIS_CODE":0,"TOWNNAME":"南區","LI":"新興里","LIN":"10鄰","STREET":"夏林路","SECT":" ","MAREA":" ","LANE":"１７１巷","ALLEY":" ","HOUSE_NO":"１號","E_COORD97":167514.88,"N_COORD97":2542299.04,"ADDRESS":"夏林路１７１巷１號","OBJECTID":288218},"geometry":{"x":167514.87999999989,"y":2542299.0399999991}},{"attributes":{"ID":288225,"DIS_CODE":0,"TOWNNAME":"北區","LI":"延平里","LIN":"10鄰","STREET":"公園路","SECT":" ","MAREA":" ","LANE":"８２０巷","ALLEY":" ","HOUSE_NO":"１１號","E_COORD97":169254.76000000001,"N_COORD97":2545813.7999999998,"ADDRESS":"公園路８２０巷１１號","OBJECTID":288219},"geometry":{"x":169254.75999999978,"y":2545813.8000000026}},{"attributes":{"ID":288226,"DIS_CODE":0,"TOWNNAME":"北區","LI":"延平里","LIN":"10鄰","STREET":"公園路","SECT":" ","MAREA":" ","LANE":"８２０巷","ALLEY":" ","HOUSE_NO":"１３號","E_COORD97":169258.25,"N_COORD97":2545812.3300000001,"ADDRESS":"公園路８２０巷１３號","OBJECTID":288220},"geometry":{"x":169258.25000000093,"y":2545812.3300000038}},{"attributes":{"ID":288227,"DIS_CODE":0,"TOWNNAME":"北區","LI":"延平里","LIN":"10鄰","STREET":"公園路","SECT":" ","MAREA":" ","LANE":"８２０巷","ALLEY":" ","HOUSE_NO":"１５號","E_COORD97":169262.48000000001,"N_COORD97":2545810.1299999999,"ADDRESS":"公園路８２０巷１５號","OBJECTID":288221},"geometry":{"x":169262.48000000045,"y":2545810.1300000008}},{"attributes":{"ID":288228,"DIS_CODE":0,"TOWNNAME":"北區","LI":"延平里","LIN":"10鄰","STREET":"公園路","SECT":" ","MAREA":" ","LANE":"８２０巷","ALLEY":" ","HOUSE_NO":"５號","E_COORD97":169243.73999999999,"N_COORD97":2545819.8599999999,"ADDRESS":"公園路８２０巷５號","OBJECTID":288222},"geometry":{"x":169243.74000000022,"y":2545819.8599999994}},{"attributes":{"ID":288229,"DIS_CODE":0,"TOWNNAME":"北區","LI":"三德里","LIN":"10鄰","STREET":"裕民街","SECT":" ","MAREA":" ","LANE":"８３巷","ALLEY":" ","HOUSE_NO":"４號","E_COORD97":168460.48000000001,"N_COORD97":2544589.7599999998,"ADDRESS":"裕民街８３巷４號","OBJECTID":288223},"geometry":{"x":168460.48000000138,"y":2544589.7600000016}},{"attributes":{"ID":288230,"DIS_CODE":0,"TOWNNAME":"安平區","LI":"華平里","LIN":"10鄰","STREET":"怡平路","SECT":" ","MAREA":" ","LANE":"４４２巷","ALLEY":" ","HOUSE_NO":"１０號","E_COORD97":165297.57000000001,"N_COORD97":2543874.9399999999,"ADDRESS":"怡平路４４２巷１０號","OBJECTID":288224},"geometry":{"x":165297.57000000123,"y":2543874.9400000032}},{"attributes":{"ID":288231,"DIS_CODE":0,"TOWNNAME":"歸仁區","LI":"許厝里","LIN":"10鄰","STREET":"公園路","SECT":" ","MAREA":" ","LANE":"３９巷","ALLEY":" ","HOUSE_NO":"１４號","E_COORD97":178168.92000000001,"N_COORD97":2540507.1000000001,"ADDRESS":"公園路３９巷１４號","OBJECTID":288225},"geometry":{"x":178168.91999999993,"y":2540507.0999999978}},{"attributes":{"ID":288232,"DIS_CODE":0,"TOWNNAME":"歸仁區","LI":"新厝里","LIN":"10鄰","STREET":"中正三街","SECT":" ","MAREA":" ","LANE":"５６巷","ALLEY":" ","HOUSE_NO":"４７號","E_COORD97":177719.81,"N_COORD97":2540458.5,"ADDRESS":"中正三街５６巷４７號","OBJECTID":288226},"geometry":{"x":177719.81000000052,"y":2540458.5000000019}},{"attributes":{"ID":288233,"DIS_CODE":0,"TOWNNAME":"玉井區","LI":"竹圍里","LIN":"10鄰","STREET":"武成街","SECT":" ","MAREA":" ","LANE":"１５５巷","ALLEY":" ","HOUSE_NO":"７號","E_COORD97":196206.64999999999,"N_COORD97":2559052.0800000001,"ADDRESS":"武成街１５５巷７號","OBJECTID":288227},"geometry":{"x":196206.65000000037,"y":2559052.0800000001}},{"attributes":{"ID":288234,"DIS_CODE":0,"TOWNNAME":"玉井區","LI":"中正里","LIN":"10鄰","STREET":"健康街","SECT":" ","MAREA":" ","LANE":"１００巷","ALLEY":" ","HOUSE_NO":"１號","E_COORD97":195588.39000000001,"N_COORD97":2558892.29,"ADDRESS":"健康街１００巷１號","OBJECTID":288228},"geometry":{"x":195588.3900000006,"y":2558892.290000001}},{"attributes":{"ID":288235,"DIS_CODE":0,"TOWNNAME":"玉井區","LI":"玉井里","LIN":"10鄰","STREET":"民生路","SECT":" ","MAREA":" ","LANE":"１１巷","ALLEY":" ","HOUSE_NO":"１號","E_COORD97":194747.84,"N_COORD97":2558210.2799999998,"ADDRESS":"民生路１１巷１號","OBJECTID":288229},"geometry":{"x":194747.84000000078,"y":2558210.2800000031}},{"attributes":{"ID":288236,"DIS_CODE":0,"TOWNNAME":"玉井區","LI":"玉井里","LIN":"10鄰","STREET":"民生路","SECT":" ","MAREA":" ","LANE":"１１巷","ALLEY":" ","HOUSE_NO":"１０號","E_COORD97":194740.88,"N_COORD97":2558225.29,"ADDRESS":"民生路１１巷１０號","OBJECTID":288230},"geometry":{"x":194740.88000000082,"y":2558225.290000001}},{"attributes":{"ID":288237,"DIS_CODE":0,"TOWNNAME":"玉井區","LI":"竹圍里","LIN":"10鄰","STREET":"武成街","SECT":" ","MAREA":" ","LANE":"１６７巷","ALLEY":" ","HOUSE_NO":"２５號","E_COORD97":196179.76000000001,"N_COORD97":2559058.6099999999,"ADDRESS":"武成街１６７巷２５號","OBJECTID":288231},"geometry":{"x":196179.75999999978,"y":2559058.6099999994}},{"attributes":{"ID":288238,"DIS_CODE":0,"TOWNNAME":"玉井區","LI":"竹圍里","LIN":"10鄰","STREET":"武成街","SECT":" ","MAREA":" ","LANE":"１４５巷","ALLEY":" ","HOUSE_NO":"５號","E_COORD97":196188.42000000001,"N_COORD97":2559023.3599999999,"ADDRESS":"武成街１４５巷５號","OBJECTID":288232},"geometry":{"x":196188.42000000086,"y":2559023.3599999975}},{"attributes":{"ID":288239,"DIS_CODE":0,"TOWNNAME":"玉井區","LI":"玉田里","LIN":"10鄰","STREET":"中華路","SECT":" ","MAREA":" ","LANE":"８２巷","ALLEY":" ","HOUSE_NO":"８號","E_COORD97":194946.51000000001,"N_COORD97":2557961.2400000002,"ADDRESS":"中華路８２巷８號","OBJECTID":288233},"geometry":{"x":194946.51000000071,"y":2557961.2400000021}},{"attributes":{"ID":288240,"DIS_CODE":0,"TOWNNAME":"北區","LI":"文元里","LIN":"10鄰","STREET":"文賢路","SECT":" ","MAREA":" ","LANE":"１１２２巷","ALLEY":" ","HOUSE_NO":"４０號","E_COORD97":167436.54999999999,"N_COORD97":2546334.6899999999,"ADDRESS":"文賢路１１２２巷４０號","OBJECTID":288234},"geometry":{"x":167436.55000000075,"y":2546334.6900000032}},{"attributes":{"ID":288241,"DIS_CODE":0,"TOWNNAME":"北區","LI":"安民里","LIN":"10鄰","STREET":"成功路","SECT":" ","MAREA":" ","LANE":"４１０巷","ALLEY":" ","HOUSE_NO":"９號","E_COORD97":167802.604131,"N_COORD97":2544627.20175,"ADDRESS":"成功路４１０巷９號","OBJECTID":288235},"geometry":{"x":167802.60413099919,"y":2544627.2017510012}},{"attributes":{"ID":288242,"DIS_CODE":0,"TOWNNAME":"北區","LI":"文元里","LIN":"10鄰","STREET":"文賢路","SECT":" ","MAREA":" ","LANE":"１１２２巷","ALLEY":" ","HOUSE_NO":"３２號","E_COORD97":167415.95999999999,"N_COORD97":2546331.5,"ADDRESS":"文賢路１１２２巷３２號","OBJECTID":288236},"geometry":{"x":167415.95999999996,"y":2546331.5}},{"attributes":{"ID":288243,"DIS_CODE":0,"TOWNNAME":"後壁區","LI":"嘉苳里","LIN":"2鄰","STREET":" ","SECT":" ","MAREA":"下茄苳","LANE":" ","ALLEY":" ","HOUSE_NO":"１７號","E_COORD97":185448.13,"N_COORD97":2583474.4900000002,"ADDRESS":"下茄苳１７號","OBJECTID":288237},"geometry":{"x":185448.13000000082,"y":2583474.4900000002}},{"attributes":{"ID":288244,"DIS_CODE":0,"TOWNNAME":"北區","LI":"文元里","LIN":"10鄰","STREET":"文賢路","SECT":" ","MAREA":" ","LANE":"１１２２巷","ALLEY":" ","HOUSE_NO":"３６號","E_COORD97":167430.42000000001,"N_COORD97":2546333.71,"ADDRESS":"文賢路１１２２巷３６號","OBJECTID":288238},"geometry":{"x":167430.41999999993,"y":2546333.7100000028}},{"attributes":{"ID":288245,"DIS_CODE":0,"TOWNNAME":"後壁區","LI":"嘉苳里","LIN":"2鄰","STREET":" ","SECT":" ","MAREA":"下茄苳","LANE":" ","ALLEY":" ","HOUSE_NO":"１４號","E_COORD97":185472.51000000001,"N_COORD97":2583501.79,"ADDRESS":"下茄苳１４號","OBJECTID":288239},"geometry":{"x":185472.51000000071,"y":2583501.7899999991}},{"attributes":{"ID":288246,"DIS_CODE":0,"TOWNNAME":"後壁區","LI":"嘉苳里","LIN":"2鄰","STREET":" ","SECT":" ","MAREA":"下茄苳","LANE":" ","ALLEY":" ","HOUSE_NO":"１６號之２０","E_COORD97":185556.95000000001,"N_COORD97":2583451.02,"ADDRESS":"下茄苳１６號之２０","OBJECTID":288240},"geometry":{"x":185556.95000000019,"y":2583451.0200000014}},{"attributes":{"ID":288247,"DIS_CODE":0,"TOWNNAME":"仁德區","LI":"上崙里","LIN":"1鄰","STREET":"德崙路","SECT":" ","MAREA":" ","LANE":" ","ALLEY":" ","HOUSE_NO":"１２１號","E_COORD97":173499.65387400001,"N_COORD97":2538431.0885399999,"ADDRESS":"德崙路１２１號","OBJECTID":288241},"geometry":{"x":173499.65387400147,"y":2538431.0885420013}},{"attributes":{"ID":288248,"DIS_CODE":0,"TOWNNAME":"北區","LI":"文元里","LIN":"10鄰","STREET":"文賢路","SECT":" ","MAREA":" ","LANE":"１１２２巷","ALLEY":" ","HOUSE_NO":"４２號","E_COORD97":167440.23000000001,"N_COORD97":2546336.6499999999,"ADDRESS":"文賢路１１２２巷４２號","OBJECTID":288242},"geometry":{"x":167440.23000000045,"y":2546336.6500000022}},{"attributes":{"ID":288249,"DIS_CODE":0,"TOWNNAME":"後壁區","LI":"嘉苳里","LIN":"2鄰","STREET":" ","SECT":" ","MAREA":"下茄苳","LANE":" ","ALLEY":" ","HOUSE_NO":"１６號之２１","E_COORD97":185550.84,"N_COORD97":2583441.0600000001,"ADDRESS":"下茄苳１６號之２１","OBJECTID":288243},"geometry":{"x":185550.83999999892,"y":2583441.0600000042}},{"attributes":{"ID":288250,"DIS_CODE":0,"TOWNNAME":"後壁區","LI":"嘉田里","LIN":"2鄰","STREET":" ","SECT":" ","MAREA":"上茄苳","LANE":" ","ALLEY":" ","HOUSE_NO":"１２號之１７","E_COORD97":186324.85000000001,"N_COORD97":2587774.98,"ADDRESS":"上茄苳１２號之１７","OBJECTID":288244},"geometry":{"x":186324.84999999963,"y":2587774.9800000023}},{"attributes":{"ID":288251,"DIS_CODE":0,"TOWNNAME":"北區","LI":"和順里","LIN":"10鄰","STREET":"民德路","SECT":" ","MAREA":" ","LANE":"１１５巷","ALLEY":" ","HOUSE_NO":"１０號","E_COORD97":168091.82000000001,"N_COORD97":2545190.7599999998,"ADDRESS":"民德路１１５巷１０號","OBJECTID":288245},"geometry":{"x":168091.82000000123,"y":2545190.7599999998}},{"attributes":{"ID":288252,"DIS_CODE":0,"TOWNNAME":"北區","LI":"和順里","LIN":"10鄰","STREET":"民德路","SECT":" ","MAREA":" ","LANE":"１１５巷","ALLEY":" ","HOUSE_NO":"１４號","E_COORD97":168076.10000000001,"N_COORD97":2545185.73,"ADDRESS":"民德路１１５巷１４號","OBJECTID":288246},"geometry":{"x":168076.09999999963,"y":2545185.7300000004}},{"attributes":{"ID":288253,"DIS_CODE":0,"TOWNNAME":"北區","LI":"和順里","LIN":"10鄰","STREET":"民德路","SECT":" ","MAREA":" ","LANE":"１１５巷","ALLEY":" ","HOUSE_NO":"１６號","E_COORD97":168067.29999999999,"N_COORD97":2545181.54,"ADDRESS":"民德路１１５巷１６號","OBJECTID":288247},"geometry":{"x":168067.30000000075,"y":2545181.5399999991}},{"attributes":{"ID":288254,"DIS_CODE":0,"TOWNNAME":"北區","LI":"和順里","LIN":"10鄰","STREET":"民德路","SECT":" ","MAREA":" ","LANE":"１１５巷","ALLEY":" ","HOUSE_NO":"２號","E_COORD97":168125.57000000001,"N_COORD97":2545203.3199999998,"ADDRESS":"民德路１１５巷２號","OBJECTID":288248},"geometry":{"x":168125.57000000123,"y":2545203.3200000022}},{"attributes":{"ID":288255,"DIS_CODE":0,"TOWNNAME":"北區","LI":"和順里","LIN":"10鄰","STREET":"民德路","SECT":" ","MAREA":" ","LANE":"１１５巷","ALLEY":" ","HOUSE_NO":"４號","E_COORD97":168115.09,"N_COORD97":2545199.3399999999,"ADDRESS":"民德路１１５巷４號","OBJECTID":288249},"geometry":{"x":168115.08999999985,"y":2545199.3400000017}},{"attributes":{"ID":288256,"DIS_CODE":0,"TOWNNAME":"後壁區","LI":"嘉民里","LIN":"2鄰","STREET":" ","SECT":" ","MAREA":"上茄苳","LANE":" ","ALLEY":" ","HOUSE_NO":"１４４號之１","E_COORD97":186495.48999999999,"N_COORD97":2587284.54,"ADDRESS":"上茄苳１４４號之１","OBJECTID":288250},"geometry":{"x":186495.49000000022,"y":2587284.540000001}},{"attributes":{"ID":288257,"DIS_CODE":0,"TOWNNAME":"後壁區","LI":"嘉民里","LIN":"2鄰","STREET":" ","SECT":" ","MAREA":"上茄苳","LANE":" ","ALLEY":" ","HOUSE_NO":"１４４號之３","E_COORD97":186496.13,"N_COORD97":2587270.8700000001,"ADDRESS":"上茄苳１４４號之３","OBJECTID":288251},"geometry":{"x":186496.12999999989,"y":2587270.8700000029}},{"attributes":{"ID":288258,"DIS_CODE":0,"TOWNNAME":"後壁區","LI":"嘉民里","LIN":"2鄰","STREET":" ","SECT":" ","MAREA":"上茄苳","LANE":" ","ALLEY":" ","HOUSE_NO":"１４４號","E_COORD97":186464.16,"N_COORD97":2587269.27,"ADDRESS":"上茄苳１４４號","OBJECTID":288252},"geometry":{"x":186464.16000000015,"y":2587269.2699999996}},{"attributes":{"ID":288259,"DIS_CODE":0,"TOWNNAME":"後壁區","LI":"嘉民里","LIN":"2鄰","STREET":" ","SECT":" ","MAREA":"上茄苳","LANE":" ","ALLEY":" ","HOUSE_NO":"１４５號","E_COORD97":186510.57000000001,"N_COORD97":2587247.5800000001,"ADDRESS":"上茄苳１４５號","OBJECTID":288253},"geometry":{"x":186510.5700000003,"y":2587247.5799999982}},{"attributes":{"ID":288260,"DIS_CODE":0,"TOWNNAME":"後壁區","LI":"嘉田里","LIN":"2鄰","STREET":" ","SECT":" ","MAREA":"上茄苳","LANE":" ","ALLEY":" ","HOUSE_NO":"１７號","E_COORD97":186768.03,"N_COORD97":2587496.9199999999,"ADDRESS":"上茄苳１７號","OBJECTID":288254},"geometry":{"x":186768.03000000119,"y":2587496.9200000018}},{"attributes":{"ID":288261,"DIS_CODE":0,"TOWNNAME":"後壁區","LI":"嘉田里","LIN":"2鄰","STREET":" ","SECT":" ","MAREA":"上茄苳","LANE":" ","ALLEY":" ","HOUSE_NO":"１４號之４","E_COORD97":186734.06,"N_COORD97":2587511.5099999998,"ADDRESS":"上茄苳１４號之４","OBJECTID":288255},"geometry":{"x":186734.06000000145,"y":2587511.5099999998}},{"attributes":{"ID":288262,"DIS_CODE":0,"TOWNNAME":"後壁區","LI":"嘉田里","LIN":"2鄰","STREET":" ","SECT":" ","MAREA":"上茄苳","LANE":" ","ALLEY":" ","HOUSE_NO":"９號","E_COORD97":186744.82999999999,"N_COORD97":2587582.98,"ADDRESS":"上茄苳９號","OBJECTID":288256},"geometry":{"x":186744.83000000101,"y":2587582.9800000004}},{"attributes":{"ID":288263,"DIS_CODE":0,"TOWNNAME":"後壁區","LI":"土溝里","LIN":"2鄰","STREET":" ","SECT":" ","MAREA":"土溝","LANE":" ","ALLEY":" ","HOUSE_NO":"１６號之３","E_COORD97":186768.73000000001,"N_COORD97":2585755.2599999998,"ADDRESS":"土溝１６號之３","OBJECTID":288257},"geometry":{"x":186768.73000000045,"y":2585755.2600000016}},{"attributes":{"ID":288264,"DIS_CODE":0,"TOWNNAME":"仁德區","LI":"上崙里","LIN":"1鄰","STREET":"德崙路","SECT":" ","MAREA":" ","LANE":" ","ALLEY":" ","HOUSE_NO":"１２３號","E_COORD97":173503.89131899999,"N_COORD97":2538429.1835400001,"ADDRESS":"德崙路１２３號","OBJECTID":288258},"geometry":{"x":173503.89131900109,"y":2538429.1835430022}},{"attributes":{"ID":288265,"DIS_CODE":0,"TOWNNAME":"北區","LI":"和順里","LIN":"10鄰","STREET":"民德路","SECT":" ","MAREA":" ","LANE":"１１５巷","ALLEY":" ","HOUSE_NO":"６號","E_COORD97":168106.91,"N_COORD97":2545196.8300000001,"ADDRESS":"民德路１１５巷６號","OBJECTID":288259},"geometry":{"x":168106.91000000015,"y":2545196.8300000019}},{"attributes":{"ID":288266,"DIS_CODE":0,"TOWNNAME":"學甲區","LI":"中洲里","LIN":"2鄰","STREET":" ","SECT":" ","MAREA":"中洲","LANE":" ","ALLEY":" ","HOUSE_NO":"２７號","E_COORD97":163970.34,"N_COORD97":2571521.6000000001,"ADDRESS":"中洲２７號","OBJECTID":288260},"geometry":{"x":163970.33999999985,"y":2571521.5999999996}},{"attributes":{"ID":288267,"DIS_CODE":0,"TOWNNAME":"北區","LI":"文元里","LIN":"10鄰","STREET":"文賢路","SECT":" ","MAREA":" ","LANE":"１１２２巷","ALLEY":" ","HOUSE_NO":"４４號","E_COORD97":167454.19,"N_COORD97":2546330.04,"ADDRESS":"文賢路１１２２巷４４號","OBJECTID":288261},"geometry":{"x":167454.19000000041,"y":2546330.040000001}},{"attributes":{"ID":288268,"DIS_CODE":0,"TOWNNAME":"東區","LI":"關聖里","LIN":"2鄰","STREET":"裕農路","SECT":" ","MAREA":" ","LANE":"６６８巷","ALLEY":" ","HOUSE_NO":"４６號之８","E_COORD97":171713.19,"N_COORD97":2542984.0299999998,"ADDRESS":"裕農路６６８巷４６號之８","OBJECTID":288262},"geometry":{"x":171713.19000000134,"y":2542984.0300000012}},{"attributes":{"ID":288269,"DIS_CODE":0,"TOWNNAME":"後壁區","LI":"土溝里","LIN":"2鄰","STREET":" ","SECT":" ","MAREA":"土溝","LANE":" ","ALLEY":" ","HOUSE_NO":"１６號之６","E_COORD97":186722.04999999999,"N_COORD97":2585785.4100000001,"ADDRESS":"土溝１６號之６","OBJECTID":288263},"geometry":{"x":186722.04999999981,"y":2585785.410000002}},{"attributes":{"ID":288270,"DIS_CODE":0,"TOWNNAME":"後壁區","LI":"土溝里","LIN":"2鄰","STREET":" ","SECT":" ","MAREA":"土溝","LANE":" ","ALLEY":" ","HOUSE_NO":"１６號之７","E_COORD97":186707.44,"N_COORD97":2585796.5800000001,"ADDRESS":"土溝１６號之７","OBJECTID":288264},"geometry":{"x":186707.44000000134,"y":2585796.5800000038}},{"attributes":{"ID":288271,"DIS_CODE":0,"TOWNNAME":"後壁區","LI":"土溝里","LIN":"2鄰","STREET":" ","SECT":" ","MAREA":"土溝","LANE":" ","ALLEY":" ","HOUSE_NO":"１６號","E_COORD97":186748.51000000001,"N_COORD97":2585769.8900000001,"ADDRESS":"土溝１６號","OBJECTID":288265},"geometry":{"x":186748.51000000071,"y":2585769.8900000006}},{"attributes":{"ID":288272,"DIS_CODE":0,"TOWNNAME":"仁德區","LI":"仁義里","LIN":"34鄰","STREET":"正義二街","SECT":" ","MAREA":" ","LANE":" ","ALLEY":" ","HOUSE_NO":"１４７號一樓","E_COORD97":173780.64000000001,"N_COORD97":2541601.0099999998,"ADDRESS":"正義二街１４７號一樓","OBJECTID":288266},"geometry":{"x":173780.64000000153,"y":2541601.0100000016}},{"attributes":{"ID":288273,"DIS_CODE":0,"TOWNNAME":"關廟區","LI":"布袋里","LIN":"5鄰","STREET":"長文街","SECT":" ","MAREA":" ","LANE":" ","ALLEY":" ","HOUSE_NO":"８７號","E_COORD97":182951.848788,"N_COORD97":2535434.9060499999,"ADDRESS":"長文街８７號","OBJECTID":288267},"geometry":{"x":182951.84878799971,"y":2535434.9060460012}},{"attributes":{"ID":288274,"DIS_CODE":0,"TOWNNAME":"北區","LI":"文元里","LIN":"10鄰","STREET":"文賢路","SECT":" ","MAREA":" ","LANE":"１１２２巷","ALLEY":" ","HOUSE_NO":"４６號","E_COORD97":167458.60000000001,"N_COORD97":2546328.0899999999,"ADDRESS":"文賢路１１２２巷４６號","OBJECTID":288268},"geometry":{"x":167458.60000000056,"y":2546328.0899999999}},{"attributes":{"ID":288275,"DIS_CODE":0,"TOWNNAME":"北區","LI":"文元里","LIN":"10鄰","STREET":"文賢路","SECT":" ","MAREA":" ","LANE":"１１２２巷","ALLEY":" ","HOUSE_NO":"４８號","E_COORD97":167463.01000000001,"N_COORD97":2546330.29,"ADDRESS":"文賢路１１２２巷４８號","OBJECTID":288269},"geometry":{"x":167463.00999999978,"y":2546330.2900000028}},{"attributes":{"ID":288276,"DIS_CODE":0,"TOWNNAME":"後壁區","LI":"長安里","LIN":"2鄰","STREET":" ","SECT":" ","MAREA":"中寮","LANE":" ","ALLEY":" ","HOUSE_NO":"４３號之１","E_COORD97":184417.29000000001,"N_COORD97":2581293.48,"ADDRESS":"中寮４３號之１","OBJECTID":288270},"geometry":{"x":184417.28999999911,"y":2581293.4800000023}},{"attributes":{"ID":288277,"DIS_CODE":0,"TOWNNAME":"後壁區","LI":"長安里","LIN":"2鄰","STREET":" ","SECT":" ","MAREA":"中寮","LANE":" ","ALLEY":" ","HOUSE_NO":"４３號之２","E_COORD97":184413.13,"N_COORD97":2581292.6899999999,"ADDRESS":"中寮４３號之２","OBJECTID":288271},"geometry":{"x":184413.12999999896,"y":2581292.6899999976}},{"attributes":{"ID":288278,"DIS_CODE":0,"TOWNNAME":"後壁區","LI":"長安里","LIN":"2鄰","STREET":" ","SECT":" ","MAREA":"中寮","LANE":" ","ALLEY":" ","HOUSE_NO":"４３號之３","E_COORD97":184409.5,"N_COORD97":2581291.7200000002,"ADDRESS":"中寮４３號之３","OBJECTID":288272},"geometry":{"x":184409.50000000093,"y":2581291.7200000025}},{"attributes":{"ID":288279,"DIS_CODE":0,"TOWNNAME":"後壁區","LI":"長安里","LIN":"2鄰","STREET":" ","SECT":" ","MAREA":"中寮","LANE":" ","ALLEY":" ","HOUSE_NO":"４３號之４","E_COORD97":184405.87,"N_COORD97":2581290.75,"ADDRESS":"中寮４３號之４","OBJECTID":288273},"geometry":{"x":184405.87000000104,"y":2581290.7500000019}},{"attributes":{"ID":288280,"DIS_CODE":0,"TOWNNAME":"後壁區","LI":"長安里","LIN":"2鄰","STREET":" ","SECT":" ","MAREA":"中寮","LANE":" ","ALLEY":" ","HOUSE_NO":"４３號之５","E_COORD97":184402.23999999999,"N_COORD97":2581289.7799999998,"ADDRESS":"中寮４３號之５","OBJECTID":288274},"geometry":{"x":184402.24000000022,"y":2581289.7800000012}},{"attributes":{"ID":288281,"DIS_CODE":0,"TOWNNAME":"仁德區","LI":"保安里","LIN":"2鄰","STREET":"文賢路","SECT":"一段","MAREA":" ","LANE":" ","ALLEY":" ","HOUSE_NO":"５３８號","E_COORD97":171115.95999999999,"N_COORD97":2536947.8199999998,"ADDRESS":"文賢路一段５３８號","OBJECTID":288275},"geometry":{"x":171115.96000000089,"y":2536947.8200000022}},{"attributes":{"ID":288282,"DIS_CODE":0,"TOWNNAME":"仁德區","LI":"保安里","LIN":"2鄰","STREET":"文賢路","SECT":"一段","MAREA":" ","LANE":" ","ALLEY":" ","HOUSE_NO":"５２４號","E_COORD97":171112.88,"N_COORD97":2536991.0800000001,"ADDRESS":"文賢路一段５２４號","OBJECTID":288276},"geometry":{"x":171112.88000000175,"y":2536991.0800000001}},{"attributes":{"ID":288283,"DIS_CODE":0,"TOWNNAME":"仁德區","LI":"田厝里","LIN":"2鄰","STREET":"保安路","SECT":"二段","MAREA":" ","LANE":" ","ALLEY":" ","HOUSE_NO":"５３２號","E_COORD97":172556.70000000001,"N_COORD97":2537542.0699999998,"ADDRESS":"保安路二段５３２號","OBJECTID":288277},"geometry":{"x":172556.70000000019,"y":2537542.0700000022}},{"attributes":{"ID":288284,"DIS_CODE":0,"TOWNNAME":"仁德區","LI":"保安里","LIN":"2鄰","STREET":"文賢路","SECT":"一段","MAREA":" ","LANE":" ","ALLEY":" ","HOUSE_NO":"５４８號","E_COORD97":171116.12,"N_COORD97":2536918.3300000001,"ADDRESS":"文賢路一段５４８號","OBJECTID":288278},"geometry":{"x":171116.12000000011,"y":2536918.3300000001}},{"attributes":{"ID":288285,"DIS_CODE":0,"TOWNNAME":"北區","LI":"文元里","LIN":"10鄰","STREET":"文賢路","SECT":" ","MAREA":" ","LANE":"１１２２巷","ALLEY":" ","HOUSE_NO":"５２號","E_COORD97":167476.98000000001,"N_COORD97":2546340.8100000001,"ADDRESS":"文賢路１１２２巷５２號","OBJECTID":288279},"geometry":{"x":167476.98000000138,"y":2546340.8100000005}},{"attributes":{"ID":288286,"DIS_CODE":0,"TOWNNAME":"北區","LI":"文元里","LIN":"10鄰","STREET":"文賢路","SECT":" ","MAREA":" ","LANE":"１１２２巷","ALLEY":" ","HOUSE_NO":"５４號","E_COORD97":167481.64000000001,"N_COORD97":2546343.0099999998,"ADDRESS":"文賢路１１２２巷５４號","OBJECTID":288280},"geometry":{"x":167481.6400000006,"y":2546343.0100000035}},{"attributes":{"ID":288287,"DIS_CODE":0,"TOWNNAME":"北區","LI":"文元里","LIN":"10鄰","STREET":"文賢路","SECT":" ","MAREA":" ","LANE":"１１２２巷","ALLEY":" ","HOUSE_NO":"５６號","E_COORD97":167485.79999999999,"N_COORD97":2546345.21,"ADDRESS":"文賢路１１２２巷５６號","OBJECTID":288281},"geometry":{"x":167485.80000000075,"y":2546345.2100000009}},{"attributes":{"ID":288288,"DIS_CODE":0,"TOWNNAME":"北區","LI":"文元里","LIN":"10鄰","STREET":"文賢路","SECT":" ","MAREA":" ","LANE":"１１２２巷","ALLEY":" ","HOUSE_NO":"５８號","E_COORD97":167489.48000000001,"N_COORD97":2546347.1699999999,"ADDRESS":"文賢路１１２２巷５８號","OBJECTID":288282},"geometry":{"x":167489.48000000045,"y":2546347.1699999999}},{"attributes":{"ID":288289,"DIS_CODE":0,"TOWNNAME":"北區","LI":"文元里","LIN":"10鄰","STREET":"文賢路","SECT":" ","MAREA":" ","LANE":"１１２２巷","ALLEY":" ","HOUSE_NO":"６０號","E_COORD97":167493.39999999999,"N_COORD97":2546349.3700000001,"ADDRESS":"文賢路１１２２巷６０號","OBJECTID":288283},"geometry":{"x":167493.40000000037,"y":2546349.3700000029}},{"attributes":{"ID":288290,"DIS_CODE":0,"TOWNNAME":"北區","LI":"延平里","LIN":"10鄰","STREET":"長榮路","SECT":"五段","MAREA":" ","LANE":"３９５巷","ALLEY":" ","HOUSE_NO":"１２號","E_COORD97":169366.25,"N_COORD97":2545825.98,"ADDRESS":"長榮路五段３９５巷１２號","OBJECTID":288284},"geometry":{"x":169366.25000000093,"y":2545825.9800000023}},{"attributes":{"ID":288291,"DIS_CODE":0,"TOWNNAME":"下營區","LI":"茅港里","LIN":"7鄰","STREET":" ","SECT":" ","MAREA":"茅港尾","LANE":" ","ALLEY":" ","HOUSE_NO":"１９０號之５","E_COORD97":176722.07438000001,"N_COORD97":2567968.31005,"ADDRESS":"茅港尾１９０號之５","OBJECTID":288285},"geometry":{"x":176722.07438000198,"y":2567968.3100500014}},{"attributes":{"ID":288292,"DIS_CODE":0,"TOWNNAME":"北區","LI":"延平里","LIN":"10鄰","STREET":"長榮路","SECT":"五段","MAREA":" ","LANE":"３９５巷","ALLEY":" ","HOUSE_NO":"１４號","E_COORD97":169361.44,"N_COORD97":2545815.6899999999,"ADDRESS":"長榮路五段３９５巷１４號","OBJECTID":288286},"geometry":{"x":169361.44000000041,"y":2545815.6899999976}},{"attributes":{"ID":288293,"DIS_CODE":0,"TOWNNAME":"北區","LI":"延平里","LIN":"10鄰","STREET":"長榮路","SECT":"五段","MAREA":" ","LANE":"３９５巷","ALLEY":" ","HOUSE_NO":"１６號","E_COORD97":169359.89000000001,"N_COORD97":2545806.25,"ADDRESS":"長榮路五段３９５巷１６號","OBJECTID":288287},"geometry":{"x":169359.8900000006,"y":2545806.2500000019}},{"attributes":{"ID":288294,"DIS_CODE":0,"TOWNNAME":"後壁區","LI":"新嘉里","LIN":"2鄰","STREET":" ","SECT":" ","MAREA":"白沙屯","LANE":" ","ALLEY":" ","HOUSE_NO":"２３號","E_COORD97":179662.92000000001,"N_COORD97":2585788.0600000001,"ADDRESS":"白沙屯２３號","OBJECTID":288288},"geometry":{"x":179662.91999999993,"y":2585788.0600000024}},{"attributes":{"ID":288295,"DIS_CODE":0,"TOWNNAME":"後壁區","LI":"新嘉里","LIN":"2鄰","STREET":" ","SECT":" ","MAREA":"白沙屯","LANE":" ","ALLEY":" ","HOUSE_NO":"２４號之１","E_COORD97":179662.56,"N_COORD97":2585846.0600000001,"ADDRESS":"白沙屯２４號之１","OBJECTID":288289},"geometry":{"x":179662.56000000052,"y":2585846.0600000024}},{"attributes":{"ID":288296,"DIS_CODE":0,"TOWNNAME":"後壁區","LI":"新嘉里","LIN":"2鄰","STREET":" ","SECT":" ","MAREA":"白沙屯","LANE":" ","ALLEY":" ","HOUSE_NO":"２４號之２","E_COORD97":179641.91,"N_COORD97":2585837.8100000001,"ADDRESS":"白沙屯２４號之２","OBJECTID":288290},"geometry":{"x":179641.91000000108,"y":2585837.8100000024}},{"attributes":{"ID":288297,"DIS_CODE":0,"TOWNNAME":"後壁區","LI":"新嘉里","LIN":"2鄰","STREET":" ","SECT":" ","MAREA":"白沙屯","LANE":" ","ALLEY":" ","HOUSE_NO":"２４號之３","E_COORD97":179636.26999999999,"N_COORD97":2585873.8599999999,"ADDRESS":"白沙屯２４號之３","OBJECTID":288291},"geometry":{"x":179636.26999999955,"y":2585873.8599999994}},{"attributes":{"ID":288298,"DIS_CODE":0,"TOWNNAME":"中西區","LI":"民主里","LIN":"5鄰","STREET":"友愛街","SECT":" ","MAREA":" ","LANE":" ","ALLEY":" ","HOUSE_NO":"３３３號","E_COORD97":167466.29000000001,"N_COORD97":2543657.6299999999,"ADDRESS":"友愛街３３３號","OBJECTID":288292},"geometry":{"x":167466.29000000097,"y":2543657.6300000008}},{"attributes":{"ID":288299,"DIS_CODE":0,"TOWNNAME":"中西區","LI":"民主里","LIN":"5鄰","STREET":"友愛街","SECT":" ","MAREA":" ","LANE":" ","ALLEY":" ","HOUSE_NO":"３３５號","E_COORD97":167462.72,"N_COORD97":2543659.5499999998,"ADDRESS":"友愛街３３５號","OBJECTID":288293},"geometry":{"x":167462.72000000067,"y":2543659.5500000026}},{"attributes":{"ID":288300,"DIS_CODE":0,"TOWNNAME":"仁德區","LI":"仁德里","LIN":"2鄰","STREET":"中正路","SECT":"二段","MAREA":" ","LANE":"７２９巷","ALLEY":" ","HOUSE_NO":"１７號","E_COORD97":173417.38126600001,"N_COORD97":2540145.6786400001,"ADDRESS":"中正路二段７２９巷１７號","OBJECTID":288294},"geometry":{"x":173417.38126600068,"y":2540145.6786410008}},{"attributes":{"ID":288301,"DIS_CODE":0,"TOWNNAME":"北區","LI":"延平里","LIN":"10鄰","STREET":"長榮路","SECT":"五段","MAREA":" ","LANE":"４０１巷","ALLEY":" ","HOUSE_NO":"１０１號","E_COORD97":169324.69,"N_COORD97":2545809.8599999999,"ADDRESS":"長榮路五段４０１巷１０１號","OBJECTID":288295},"geometry":{"x":169324.69000000134,"y":2545809.8599999994}},{"attributes":{"ID":288302,"DIS_CODE":0,"TOWNNAME":"楠西區","LI":"楠西里","LIN":"10鄰","STREET":"中華路","SECT":" ","MAREA":" ","LANE":"７３巷","ALLEY":" ","HOUSE_NO":"１２號","E_COORD97":197242.06,"N_COORD97":2564137.25,"ADDRESS":"中華路７３巷１２號","OBJECTID":288296},"geometry":{"x":197242.05999999959,"y":2564137.25}},{"attributes":{"ID":288303,"DIS_CODE":0,"TOWNNAME":"楠西區","LI":"楠西里","LIN":"10鄰","STREET":"中華路","SECT":" ","MAREA":" ","LANE":"７３巷","ALLEY":" ","HOUSE_NO":"１５號","E_COORD97":197249.95999999999,"N_COORD97":2564134.25,"ADDRESS":"中華路７３巷１５號","OBJECTID":288297},"geometry":{"x":197249.95999999996,"y":2564134.2500000037}},{"attributes":{"ID":288304,"DIS_CODE":0,"TOWNNAME":"新營區","LI":"南紙里","LIN":"10鄰","STREET":"南紙街","SECT":" ","MAREA":" ","LANE":"５４巷","ALLEY":" ","HOUSE_NO":"１２號","E_COORD97":177764.63,"N_COORD97":2577677.5499999998,"ADDRESS":"南紙街５４巷１２號","OBJECTID":288298},"geometry":{"x":177764.63000000175,"y":2577677.5500000045}},{"attributes":{"ID":288305,"DIS_CODE":0,"TOWNNAME":"新營區","LI":"新南里","LIN":"10鄰","STREET":"新北五街","SECT":" ","MAREA":" ","LANE":"１４３巷","ALLEY":" ","HOUSE_NO":"１９號","E_COORD97":178522.31,"N_COORD97":2579100.2799999998,"ADDRESS":"新北五街１４３巷１９號","OBJECTID":288299},"geometry":{"x":178522.30999999959,"y":2579100.2799999993}},{"attributes":{"ID":288306,"DIS_CODE":0,"TOWNNAME":"新營區","LI":"南興里","LIN":"10鄰","STREET":"和平路","SECT":" ","MAREA":" ","LANE":"１０４巷","ALLEY":" ","HOUSE_NO":"１０號","E_COORD97":179374.17000000001,"N_COORD97":2577566.79,"ADDRESS":"和平路１０４巷１０號","OBJECTID":288300},"geometry":{"x":179374.16999999993,"y":2577566.790000001}},{"attributes":{"ID":288307,"DIS_CODE":0,"TOWNNAME":"新營區","LI":"新南里","LIN":"10鄰","STREET":"新北五街","SECT":" ","MAREA":" ","LANE":"１４３巷","ALLEY":" ","HOUSE_NO":"１３號","E_COORD97":178531.54999999999,"N_COORD97":2579107.98,"ADDRESS":"新北五街１４３巷１３號","OBJECTID":288301},"geometry":{"x":178531.55000000075,"y":2579107.9800000004}},{"attributes":{"ID":288308,"DIS_CODE":0,"TOWNNAME":"新營區","LI":"嘉芳里","LIN":"10鄰","STREET":"嘉芳街","SECT":" ","MAREA":" ","LANE":"２５巷","ALLEY":" ","HOUSE_NO":"４１號","E_COORD97":177036.41,"N_COORD97":2578513.9300000002,"ADDRESS":"嘉芳街２５巷４１號","OBJECTID":288302},"geometry":{"x":177036.41000000108,"y":2578513.9299999997}},{"attributes":{"ID":288309,"DIS_CODE":0,"TOWNNAME":"新營區","LI":"好平里","LIN":"10鄰","STREET":"長春街","SECT":" ","MAREA":" ","LANE":"１３４巷","ALLEY":" ","HOUSE_NO":"１７號","E_COORD97":179483.10000000001,"N_COORD97":2577888.54,"ADDRESS":"長春街１３４巷１７號","OBJECTID":288303},"geometry":{"x":179483.09999999963,"y":2577888.5399999991}},{"attributes":{"ID":288310,"DIS_CODE":0,"TOWNNAME":"新營區","LI":"新東里","LIN":"10鄰","STREET":"東仁街","SECT":" ","MAREA":" ","LANE":"８２巷","ALLEY":" ","HOUSE_NO":"２４號","E_COORD97":181378.82999999999,"N_COORD97":2579700.29,"ADDRESS":"東仁街８２巷２４號","OBJECTID":288304},"geometry":{"x":181378.83000000007,"y":2579700.2899999991}},{"attributes":{"ID":288311,"DIS_CODE":0,"TOWNNAME":"新營區","LI":"大宏里","LIN":"10鄰","STREET":"民治路","SECT":" ","MAREA":" ","LANE":"２９巷","ALLEY":" ","HOUSE_NO":"２６號之１","E_COORD97":180175.69,"N_COORD97":2578740.2799999998,"ADDRESS":"民治路２９巷２６號之１","OBJECTID":288305},"geometry":{"x":180175.69000000134,"y":2578740.2800000012}},{"attributes":{"ID":288312,"DIS_CODE":0,"TOWNNAME":"新營區","LI":"新南里","LIN":"10鄰","STREET":"新北五街","SECT":" ","MAREA":" ","LANE":"１４３巷","ALLEY":" ","HOUSE_NO":"２４號","E_COORD97":178514.28,"N_COORD97":2579115.8199999998,"ADDRESS":"新北五街１４３巷２４號","OBJECTID":288306},"geometry":{"x":178514.28000000026,"y":2579115.8200000003}},{"attributes":{"ID":288313,"DIS_CODE":0,"TOWNNAME":"新營區","LI":"大宏里","LIN":"10鄰","STREET":"民治路","SECT":" ","MAREA":" ","LANE":"２９巷","ALLEY":" ","HOUSE_NO":"２之１號","E_COORD97":180174.85000000001,"N_COORD97":2578843.21,"ADDRESS":"民治路２９巷２之１號","OBJECTID":288307},"geometry":{"x":180174.84999999963,"y":2578843.2100000046}},{"attributes":{"ID":288314,"DIS_CODE":0,"TOWNNAME":"新營區","LI":"大宏里","LIN":"10鄰","STREET":"民治路","SECT":" ","MAREA":" ","LANE":"２９巷","ALLEY":" ","HOUSE_NO":"１０之６號","E_COORD97":180143.60999999999,"N_COORD97":2578813.52,"ADDRESS":"民治路２９巷１０之６號","OBJECTID":288308},"geometry":{"x":180143.6100000022,"y":2578813.5200000014}},{"attributes":{"ID":288315,"DIS_CODE":0,"TOWNNAME":"新營區","LI":"新東里","LIN":"10鄰","STREET":"東仁街","SECT":" ","MAREA":" ","LANE":"８２巷","ALLEY":" ","HOUSE_NO":"３６號","E_COORD97":181401.31,"N_COORD97":2579692.4399999999,"ADDRESS":"東仁街８２巷３６號","OBJECTID":288309},"geometry":{"x":181401.31000000052,"y":2579692.4400000013}},{"attributes":{"ID":288316,"DIS_CODE":0,"TOWNNAME":"學甲區","LI":"慈福里","LIN":"10鄰","STREET":"濟生路","SECT":" ","MAREA":" ","LANE":"２巷","ALLEY":" ","HOUSE_NO":"８號","E_COORD97":166998.94,"N_COORD97":2570253.3199999998,"ADDRESS":"濟生路２巷８號","OBJECTID":288310},"geometry":{"x":166998.94000000134,"y":2570253.3200000003}},{"attributes":{"ID":288317,"DIS_CODE":0,"TOWNNAME":"安平區","LI":"華平里","LIN":"10鄰","STREET":"怡平路","SECT":" ","MAREA":" ","LANE":"４４２巷","ALLEY":" ","HOUSE_NO":"１７號","E_COORD97":165285.16,"N_COORD97":2543878.8599999999,"ADDRESS":"怡平路４４２巷１７號","OBJECTID":288311},"geometry":{"x":165285.16000000108,"y":2543878.8600000031}},{"attributes":{"ID":288318,"DIS_CODE":0,"TOWNNAME":"安平區","LI":"華平里","LIN":"10鄰","STREET":"怡平路","SECT":" ","MAREA":" ","LANE":"４４２巷","ALLEY":" ","HOUSE_NO":"１９號","E_COORD97":165286,"N_COORD97":2543883.2200000002,"ADDRESS":"怡平路４４２巷１９號","OBJECTID":288312},"geometry":{"x":165286.00000000093,"y":2543883.2200000007}},{"attributes":{"ID":288319,"DIS_CODE":0,"TOWNNAME":"安平區","LI":"華平里","LIN":"10鄰","STREET":"怡平路","SECT":" ","MAREA":" ","LANE":"４４２巷","ALLEY":" ","HOUSE_NO":"２１號","E_COORD97":165286.67000000001,"N_COORD97":2543886.8999999999,"ADDRESS":"怡平路４４２巷２１號","OBJECTID":288313},"geometry":{"x":165286.67000000086,"y":2543886.9000000022}},{"attributes":{"ID":288320,"DIS_CODE":0,"TOWNNAME":"南區","LI":"永寧里","LIN":"10鄰","STREET":"灣裡路","SECT":" ","MAREA":" ","LANE":"２６６巷","ALLEY":" ","HOUSE_NO":"２號","E_COORD97":166090.69,"N_COORD97":2536438.5800000001,"ADDRESS":"灣裡路２６６巷２號","OBJECTID":288314},"geometry":{"x":166090.69000000134,"y":2536438.5800000001}},{"attributes":{"ID":288321,"DIS_CODE":0,"TOWNNAME":"南區","LI":"鯤鯓里","LIN":"10鄰","STREET":"鯤鯓路","SECT":" ","MAREA":" ","LANE":"１０１巷","ALLEY":" ","HOUSE_NO":"１０號","E_COORD97":165086.75,"N_COORD97":2539959.2799999998,"ADDRESS":"鯤鯓路１０１巷１０號","OBJECTID":288315},"geometry":{"x":165086.75,"y":2539959.2799999993}},{"attributes":{"ID":288322,"DIS_CODE":0,"TOWNNAME":"南區","LI":"大成里","LIN":"8鄰","STREET":"新興東路","SECT":" ","MAREA":" ","LANE":" ","ALLEY":" ","HOUSE_NO":"２５６號","E_COORD97":167911.39999999999,"N_COORD97":2542314.0899999999,"ADDRESS":"新興東路２５６號","OBJECTID":288316},"geometry":{"x":167911.4000000013,"y":2542314.0899999999}},{"attributes":{"ID":288323,"DIS_CODE":0,"TOWNNAME":"南區","LI":"金華里","LIN":"6鄰","STREET":"金華路","SECT":"二段","MAREA":" ","LANE":"１４７巷","ALLEY":" ","HOUSE_NO":"１５號","E_COORD97":167008.70000000001,"N_COORD97":2542375.6200000001,"ADDRESS":"金華路二段１４７巷１５號","OBJECTID":288317},"geometry":{"x":167008.70000000112,"y":2542375.620000001}},{"attributes":{"ID":288324,"DIS_CODE":0,"TOWNNAME":"中西區","LI":"民主里","LIN":"5鄰","STREET":"友愛街","SECT":" ","MAREA":" ","LANE":"３３１巷","ALLEY":" ","HOUSE_NO":"２號","E_COORD97":167459.03,"N_COORD97":2543640,"ADDRESS":"友愛街３３１巷２號","OBJECTID":288318},"geometry":{"x":167459.03000000212,"y":2543640}},{"attributes":{"ID":288325,"DIS_CODE":0,"TOWNNAME":"新營區","LI":"新北里","LIN":"32鄰","STREET":"新北街","SECT":" ","MAREA":" ","LANE":" ","ALLEY":" ","HOUSE_NO":"２５６號","E_COORD97":178630.43382800001,"N_COORD97":2579193.9752400001,"ADDRESS":"新北街２５６號","OBJECTID":288319},"geometry":{"x":178630.43382800091,"y":2579193.9752449989}},{"attributes":{"ID":288326,"DIS_CODE":0,"TOWNNAME":"中西區","LI":"民主里","LIN":"3鄰","STREET":"郡西路","SECT":" ","MAREA":" ","LANE":" ","ALLEY":" ","HOUSE_NO":"１４２號","E_COORD97":167469.88,"N_COORD97":2543585.7400000002,"ADDRESS":"郡西路１４２號","OBJECTID":288320},"geometry":{"x":167469.88000000175,"y":2543585.7400000039}},{"attributes":{"ID":288327,"DIS_CODE":0,"TOWNNAME":"中西區","LI":"民主里","LIN":"7鄰","STREET":"府前路","SECT":"二段","MAREA":" ","LANE":" ","ALLEY":" ","HOUSE_NO":"２０７號","E_COORD97":167174.39000000001,"N_COORD97":2543568.4399999999,"ADDRESS":"府前路二段２０７號","OBJECTID":288321},"geometry":{"x":167174.38999999966,"y":2543568.4399999995}},{"attributes":{"ID":288328,"DIS_CODE":0,"TOWNNAME":"中西區","LI":"民主里","LIN":"7鄰","STREET":"府前路","SECT":"二段","MAREA":" ","LANE":" ","ALLEY":" ","HOUSE_NO":"２０９號","E_COORD97":167169.67000000001,"N_COORD97":2543568.3199999998,"ADDRESS":"府前路二段２０９號","OBJECTID":288322},"geometry":{"x":167169.67000000086,"y":2543568.320000004}},{"attributes":{"ID":288329,"DIS_CODE":0,"TOWNNAME":"中西區","LI":"民主里","LIN":"7鄰","STREET":"府前路","SECT":"二段","MAREA":" ","LANE":" ","ALLEY":" ","HOUSE_NO":"２１１號","E_COORD97":167165.73000000001,"N_COORD97":2543570.3500000001,"ADDRESS":"府前路二段２１１號","OBJECTID":288323},"geometry":{"x":167165.73000000045,"y":2543570.3499999978}},{"attributes":{"ID":288330,"DIS_CODE":0,"TOWNNAME":"中西區","LI":"民主里","LIN":"7鄰","STREET":"府前路","SECT":"二段","MAREA":" ","LANE":" ","ALLEY":" ","HOUSE_NO":"２１３號","E_COORD97":167160.70999999999,"N_COORD97":2543570.4500000002,"ADDRESS":"府前路二段２１３號","OBJECTID":288324},"geometry":{"x":167160.70999999903,"y":2543570.4500000011}},{"attributes":{"ID":288331,"DIS_CODE":0,"TOWNNAME":"中西區","LI":"民主里","LIN":"7鄰","STREET":"府前路","SECT":"二段","MAREA":" ","LANE":" ","ALLEY":" ","HOUSE_NO":"２３３號","E_COORD97":167101.51000000001,"N_COORD97":2543587.79,"ADDRESS":"府前路二段２３３號","OBJECTID":288325},"geometry":{"x":167101.51000000071,"y":2543587.790000001}},{"attributes":{"ID":288332,"DIS_CODE":0,"TOWNNAME":"善化區","LI":"光文里","LIN":"25鄰","STREET":"中山路","SECT":" ","MAREA":" ","LANE":" ","ALLEY":" ","HOUSE_NO":"２３６號","E_COORD97":178100.97,"N_COORD97":2559118,"ADDRESS":"中山路２３６號","OBJECTID":288326},"geometry":{"x":178100.96999999974,"y":2559117.9999999981}},{"attributes":{"ID":288333,"DIS_CODE":0,"TOWNNAME":"善化區","LI":"文正里","LIN":"13鄰","STREET":"中山路","SECT":" ","MAREA":" ","LANE":" ","ALLEY":" ","HOUSE_NO":"５６４號之１","E_COORD97":176823.28,"N_COORD97":2559225.02,"ADDRESS":"中山路５６４號之１","OBJECTID":288327},"geometry":{"x":176823.28000000212,"y":2559225.0199999996}},{"attributes":{"ID":288334,"DIS_CODE":0,"TOWNNAME":"善化區","LI":"坐駕里","LIN":"14鄰","STREET":"自立路","SECT":" ","MAREA":" ","LANE":" ","ALLEY":" ","HOUSE_NO":"５５號","E_COORD97":178202.53,"N_COORD97":2558650.5,"ADDRESS":"自立路５５號","OBJECTID":288328},"geometry":{"x":178202.53000000026,"y":2558650.5000000037}},{"attributes":{"ID":288335,"DIS_CODE":0,"TOWNNAME":"善化區","LI":"文昌里","LIN":"13鄰","STREET":"大信路","SECT":" ","MAREA":" ","LANE":" ","ALLEY":" ","HOUSE_NO":"３４號","E_COORD97":177540.63,"N_COORD97":2558849.5,"ADDRESS":"大信路３４號","OBJECTID":288329},"geometry":{"x":177540.62999999989,"y":2558849.5}},{"attributes":{"ID":288336,"DIS_CODE":0,"TOWNNAME":"善化區","LI":"文昌里","LIN":"8鄰","STREET":"大同路","SECT":" ","MAREA":" ","LANE":" ","ALLEY":" ","HOUSE_NO":"２２７號","E_COORD97":177423.19,"N_COORD97":2558732,"ADDRESS":"大同路２２７號","OBJECTID":288330},"geometry":{"x":177423.19000000134,"y":2558732.0000000019}},{"attributes":{"ID":288337,"DIS_CODE":0,"TOWNNAME":"善化區","LI":"西關里","LIN":"4鄰","STREET":"中山路","SECT":" ","MAREA":" ","LANE":" ","ALLEY":" ","HOUSE_NO":"４９３號之１","E_COORD97":177189.01000000001,"N_COORD97":2559130.27,"ADDRESS":"中山路４９３號之１","OBJECTID":288331},"geometry":{"x":177189.01000000164,"y":2559130.2700000014}},{"attributes":{"ID":288338,"DIS_CODE":0,"TOWNNAME":"南區","LI":"喜東里","LIN":"12鄰","STREET":"明興路","SECT":" ","MAREA":" ","LANE":"６５５巷","ALLEY":" ","HOUSE_NO":"１１號","E_COORD97":166053.07000000001,"N_COORD97":2537744.6400000001,"ADDRESS":"明興路６５５巷１１號","OBJECTID":288332},"geometry":{"x":166053.0700000003,"y":2537744.6400000006}},{"attributes":{"ID":288339,"DIS_CODE":0,"TOWNNAME":"南區","LI":"喜南里","LIN":"10鄰","STREET":"喜樹路","SECT":" ","MAREA":" ","LANE":"２７０巷","ALLEY":" ","HOUSE_NO":"１３號","E_COORD97":165654.16,"N_COORD97":2537885.8300000001,"ADDRESS":"喜樹路２７０巷１３號","OBJECTID":288333},"geometry":{"x":165654.16000000015,"y":2537885.8300000019}},{"attributes":{"ID":288340,"DIS_CODE":0,"TOWNNAME":"南區","LI":"喜南里","LIN":"10鄰","STREET":"喜樹路","SECT":" ","MAREA":" ","LANE":"２７０巷","ALLEY":" ","HOUSE_NO":"１５號","E_COORD97":165656.32000000001,"N_COORD97":2537875.9500000002,"ADDRESS":"喜樹路２７０巷１５號","OBJECTID":288334},"geometry":{"x":165656.3200000003,"y":2537875.9499999993}},{"attributes":{"ID":288341,"DIS_CODE":0,"TOWNNAME":"南區","LI":"喜南里","LIN":"10鄰","STREET":"喜樹路","SECT":" ","MAREA":" ","LANE":"２７０巷","ALLEY":" ","HOUSE_NO":"１號","E_COORD97":165677.89999999999,"N_COORD97":2537885.4700000002,"ADDRESS":"喜樹路２７０巷１號","OBJECTID":288335},"geometry":{"x":165677.90000000037,"y":2537885.4700000025}},{"attributes":{"ID":288342,"DIS_CODE":0,"TOWNNAME":"南區","LI":"喜南里","LIN":"10鄰","STREET":"喜樹路","SECT":" ","MAREA":" ","LANE":"２７０巷","ALLEY":" ","HOUSE_NO":"２３號","E_COORD97":165633.48999999999,"N_COORD97":2537872.3500000001,"ADDRESS":"喜樹路２７０巷２３號","OBJECTID":288336},"geometry":{"x":165633.49000000209,"y":2537872.3500000015}},{"attributes":{"ID":288343,"DIS_CODE":0,"TOWNNAME":"南區","LI":"喜南里","LIN":"10鄰","STREET":"喜樹路","SECT":" ","MAREA":" ","LANE":"２７０巷","ALLEY":" ","HOUSE_NO":"２７號","E_COORD97":165604.64000000001,"N_COORD97":2537871.6600000001,"ADDRESS":"喜樹路２７０巷２７號","OBJECTID":288337},"geometry":{"x":165604.63999999966,"y":2537871.6600000001}},{"attributes":{"ID":288344,"DIS_CODE":0,"TOWNNAME":"善化區","LI":"文正里","LIN":"14鄰","STREET":"興農路","SECT":" ","MAREA":" ","LANE":" ","ALLEY":" ","HOUSE_NO":"８８號","E_COORD97":176331.23000000001,"N_COORD97":2559152.0099999998,"ADDRESS":"興農路８８號","OBJECTID":288338},"geometry":{"x":176331.23000000138,"y":2559152.0100000035}},{"attributes":{"ID":288345,"DIS_CODE":0,"TOWNNAME":"南區","LI":"喜南里","LIN":"10鄰","STREET":"喜樹路","SECT":" ","MAREA":" ","LANE":"２７０巷","ALLEY":" ","HOUSE_NO":"３號","E_COORD97":165678.79999999999,"N_COORD97":2537879.8999999999,"ADDRESS":"喜樹路２７０巷３號","OBJECTID":288339},"geometry":{"x":165678.80000000075,"y":2537879.9000000022}},{"attributes":{"ID":288346,"DIS_CODE":0,"TOWNNAME":"南區","LI":"喜南里","LIN":"10鄰","STREET":"喜樹路","SECT":" ","MAREA":" ","LANE":"２７０巷","ALLEY":" ","HOUSE_NO":"７號","E_COORD97":165684.19,"N_COORD97":2537867.8599999999,"ADDRESS":"喜樹路２７０巷７號","OBJECTID":288340},"geometry":{"x":165684.19000000041,"y":2537867.8600000031}},{"attributes":{"ID":288347,"DIS_CODE":0,"TOWNNAME":"南區","LI":"喜南里","LIN":"10鄰","STREET":"喜樹路","SECT":" ","MAREA":" ","LANE":"２７０巷","ALLEY":" ","HOUSE_NO":"９號","E_COORD97":165668.37,"N_COORD97":2537867.8599999999,"ADDRESS":"喜樹路２７０巷９號","OBJECTID":288341},"geometry":{"x":165668.37000000104,"y":2537867.8600000031}},{"attributes":{"ID":288348,"DIS_CODE":0,"TOWNNAME":"南區","LI":"喜南里","LIN":"10鄰","STREET":"喜樹路","SECT":" ","MAREA":" ","LANE":"２８８巷","ALLEY":" ","HOUSE_NO":"１６號","E_COORD97":165658.76000000001,"N_COORD97":2537857.7999999998,"ADDRESS":"喜樹路２８８巷１６號","OBJECTID":288342},"geometry":{"x":165658.76000000071,"y":2537857.8000000007}},{"attributes":{"ID":288349,"DIS_CODE":0,"TOWNNAME":"南區","LI":"喜南里","LIN":"10鄰","STREET":"喜樹路","SECT":" ","MAREA":" ","LANE":"２８８巷","ALLEY":" ","HOUSE_NO":"１８號","E_COORD97":165658.63,"N_COORD97":2537845.3799999999,"ADDRESS":"喜樹路２８８巷１８號","OBJECTID":288343},"geometry":{"x":165658.62999999989,"y":2537845.379999999}},{"attributes":{"ID":288350,"DIS_CODE":0,"TOWNNAME":"學甲區","LI":"慈福里","LIN":"10鄰","STREET":"濟生路","SECT":" ","MAREA":" ","LANE":"２巷","ALLEY":" ","HOUSE_NO":"１２號","E_COORD97":167139.51999999999,"N_COORD97":2570211.54,"ADDRESS":"濟生路２巷１２號","OBJECTID":288344},"geometry":{"x":167139.51999999862,"y":2570211.540000001}},{"attributes":{"ID":288351,"DIS_CODE":0,"TOWNNAME":"六甲區","LI":"七甲里","LIN":"10鄰","STREET":"七甲街","SECT":" ","MAREA":" ","LANE":"１６６巷","ALLEY":" ","HOUSE_NO":"１２號","E_COORD97":183132.70000000001,"N_COORD97":2569106.04,"ADDRESS":"七甲街１６６巷１２號","OBJECTID":288345},"geometry":{"x":183132.70000000019,"y":2569106.040000001}},{"attributes":{"ID":288352,"DIS_CODE":0,"TOWNNAME":"南區","LI":"喜東里","LIN":"10鄰","STREET":"明興路","SECT":" ","MAREA":" ","LANE":"６１１巷","ALLEY":" ","HOUSE_NO":"１５０號","E_COORD97":166448.81,"N_COORD97":2538102,"ADDRESS":"明興路６１１巷１５０號","OBJECTID":288346},"geometry":{"x":166448.80999999959,"y":2538102.0000000019}},{"attributes":{"ID":288353,"DIS_CODE":0,"TOWNNAME":"南區","LI":"喜東里","LIN":"10鄰","STREET":"明興路","SECT":" ","MAREA":" ","LANE":"６１１巷","ALLEY":" ","HOUSE_NO":"１３０號","E_COORD97":166414.38,"N_COORD97":2538081.6400000001,"ADDRESS":"明興路６１１巷１３０號","OBJECTID":288347},"geometry":{"x":166414.38000000082,"y":2538081.6400000025}},{"attributes":{"ID":288354,"DIS_CODE":0,"TOWNNAME":"南區","LI":"喜東里","LIN":"10鄰","STREET":"明興路","SECT":" ","MAREA":" ","LANE":"６１９巷","ALLEY":" ","HOUSE_NO":"３２６號之１０","E_COORD97":166718.57999999999,"N_COORD97":2537842.3300000001,"ADDRESS":"明興路６１９巷３２６號之１０","OBJECTID":288348},"geometry":{"x":166718.58000000007,"y":2537842.3300000019}},{"attributes":{"ID":288355,"DIS_CODE":0,"TOWNNAME":"中西區","LI":"民主里","LIN":"7鄰","STREET":"保安路","SECT":" ","MAREA":" ","LANE":" ","ALLEY":" ","HOUSE_NO":"１８２號","E_COORD97":167216.78,"N_COORD97":2543537.1800000002,"ADDRESS":"保安路１８２號","OBJECTID":288349},"geometry":{"x":167216.78000000119,"y":2543537.1799999997}},{"attributes":{"ID":288356,"DIS_CODE":0,"TOWNNAME":"六甲區","LI":"七甲里","LIN":"10鄰","STREET":"七甲街","SECT":" ","MAREA":" ","LANE":"９２巷","ALLEY":" ","HOUSE_NO":"１０號","E_COORD97":183138.32000000001,"N_COORD97":2569080.1200000001,"ADDRESS":"七甲街９２巷１０號","OBJECTID":288350},"geometry":{"x":183138.32000000123,"y":2569080.1200000029}},{"attributes":{"ID":288357,"DIS_CODE":0,"TOWNNAME":"六甲區","LI":"七甲里","LIN":"10鄰","STREET":"七甲街","SECT":" ","MAREA":" ","LANE":"９２巷","ALLEY":" ","HOUSE_NO":"１２號","E_COORD97":183129.29000000001,"N_COORD97":2569081.1299999999,"ADDRESS":"七甲街９２巷１２號","OBJECTID":288351},"geometry":{"x":183129.29000000097,"y":2569081.1300000008}},{"attributes":{"ID":288358,"DIS_CODE":0,"TOWNNAME":"六甲區","LI":"七甲里","LIN":"10鄰","STREET":"七甲街","SECT":" ","MAREA":" ","LANE":"９２巷","ALLEY":" ","HOUSE_NO":"１４號","E_COORD97":183121.85999999999,"N_COORD97":2569079.5499999998,"ADDRESS":"七甲街９２巷１４號","OBJECTID":288352},"geometry":{"x":183121.86000000034,"y":2569079.5500000045}},{"attributes":{"ID":288359,"DIS_CODE":0,"TOWNNAME":"六甲區","LI":"七甲里","LIN":"10鄰","STREET":"七甲街","SECT":" ","MAREA":" ","LANE":"９２巷","ALLEY":" ","HOUSE_NO":"４號","E_COORD97":183128.20999999999,"N_COORD97":2569029,"ADDRESS":"七甲街９２巷４號","OBJECTID":288353},"geometry":{"x":183128.21000000089,"y":2569029.0000000019}},{"attributes":{"ID":288360,"DIS_CODE":0,"TOWNNAME":"六甲區","LI":"七甲里","LIN":"10鄰","STREET":"七甲街","SECT":" ","MAREA":" ","LANE":"９２巷","ALLEY":" ","HOUSE_NO":"６號","E_COORD97":183131.25,"N_COORD97":2569047.5600000001,"ADDRESS":"七甲街９２巷６號","OBJECTID":288354},"geometry":{"x":183131.25000000093,"y":2569047.5600000005}},{"attributes":{"ID":288361,"DIS_CODE":0,"TOWNNAME":"六甲區","LI":"七甲里","LIN":"10鄰","STREET":"七甲街","SECT":" ","MAREA":" ","LANE":"９２巷","ALLEY":" ","HOUSE_NO":"８號","E_COORD97":183136.64000000001,"N_COORD97":2569068.3599999999,"ADDRESS":"七甲街９２巷８號","OBJECTID":288355},"geometry":{"x":183136.6400000006,"y":2569068.3599999994}},{"attributes":{"ID":288362,"DIS_CODE":0,"TOWNNAME":"六甲區","LI":"七甲里","LIN":"10鄰","STREET":"七甲街","SECT":" ","MAREA":" ","LANE":"９２巷","ALLEY":" ","HOUSE_NO":"９號","E_COORD97":183117.22,"N_COORD97":2569101.7000000002,"ADDRESS":"七甲街９２巷９號","OBJECTID":288356},"geometry":{"x":183117.21999999881,"y":2569101.7000000011}},{"attributes":{"ID":288363,"DIS_CODE":0,"TOWNNAME":"南區","LI":"喜東里","LIN":"10鄰","STREET":"明興路","SECT":" ","MAREA":" ","LANE":"６１１巷","ALLEY":" ","HOUSE_NO":"１９０號","E_COORD97":166618.70000000001,"N_COORD97":2538468.3999999999,"ADDRESS":"明興路６１１巷１９０號","OBJECTID":288357},"geometry":{"x":166618.70000000205,"y":2538468.4000000041}},{"attributes":{"ID":288364,"DIS_CODE":0,"TOWNNAME":"南區","LI":"喜東里","LIN":"10鄰","STREET":"明興路","SECT":" ","MAREA":" ","LANE":"６１９巷","ALLEY":" ","HOUSE_NO":"１０３之５號","E_COORD97":166382.81,"N_COORD97":2537955.5499999998,"ADDRESS":"明興路６１９巷１０３之５號","OBJECTID":288358},"geometry":{"x":166382.80999999959,"y":2537955.5500000007}},{"attributes":{"ID":288365,"DIS_CODE":0,"TOWNNAME":"北區","LI":"五福里","LIN":"10鄰","STREET":"自強街","SECT":" ","MAREA":" ","LANE":"６９巷","ALLEY":" ","HOUSE_NO":"１５號","E_COORD97":168243.97,"N_COORD97":2544592.6400000001,"ADDRESS":"自強街６９巷１５號","OBJECTID":288359},"geometry":{"x":168243.97000000067,"y":2544592.6400000006}},{"attributes":{"ID":288366,"DIS_CODE":0,"TOWNNAME":"北區","LI":"五福里","LIN":"10鄰","STREET":"自強街","SECT":" ","MAREA":" ","LANE":"６９巷","ALLEY":" ","HOUSE_NO":"１９號","E_COORD97":168251.20000000001,"N_COORD97":2544587.0499999998,"ADDRESS":"自強街６９巷１９號","OBJECTID":288360},"geometry":{"x":168251.20000000205,"y":2544587.0500000007}},{"attributes":{"ID":288367,"DIS_CODE":0,"TOWNNAME":"北區","LI":"五福里","LIN":"10鄰","STREET":"西門路","SECT":"三段","MAREA":" ","LANE":"２４巷","ALLEY":" ","HOUSE_NO":"１３號","E_COORD97":168209.45000000001,"N_COORD97":2544530.8900000001,"ADDRESS":"西門路三段２４巷１３號","OBJECTID":288361},"geometry":{"x":168209.45000000112,"y":2544530.8900000043}},{"attributes":{"ID":288368,"DIS_CODE":0,"TOWNNAME":"北區","LI":"五福里","LIN":"10鄰","STREET":"西門路","SECT":"三段","MAREA":" ","LANE":"２４巷","ALLEY":" ","HOUSE_NO":"１號","E_COORD97":168185.73000000001,"N_COORD97":2544532.9300000002,"ADDRESS":"西門路三段２４巷１號","OBJECTID":288362},"geometry":{"x":168185.73000000138,"y":2544532.9300000034}},{"attributes":{"ID":288369,"DIS_CODE":0,"TOWNNAME":"北區","LI":"五福里","LIN":"10鄰","STREET":"西門路","SECT":"三段","MAREA":" ","LANE":"２４巷","ALLEY":" ","HOUSE_NO":"３號","E_COORD97":168189.82000000001,"N_COORD97":2544531.98,"ADDRESS":"西門路三段２４巷３號","OBJECTID":288363},"geometry":{"x":168189.82000000123,"y":2544531.9800000004}},{"attributes":{"ID":288370,"DIS_CODE":0,"TOWNNAME":"北區","LI":"五福里","LIN":"10鄰","STREET":"西門路","SECT":"三段","MAREA":" ","LANE":"２４巷","ALLEY":" ","HOUSE_NO":"５號","E_COORD97":168195.54000000001,"N_COORD97":2544531.4399999999,"ADDRESS":"西門路三段２４巷５號","OBJECTID":288364},"geometry":{"x":168195.54000000004,"y":2544531.4399999995}},{"attributes":{"ID":288371,"DIS_CODE":0,"TOWNNAME":"北區","LI":"文成里","LIN":"10鄰","STREET":"文賢路","SECT":" ","MAREA":" ","LANE":"４８０巷","ALLEY":" ","HOUSE_NO":"１２號","E_COORD97":167383.23999999999,"N_COORD97":2545182.54,"ADDRESS":"文賢路４８０巷１２號","OBJECTID":288365},"geometry":{"x":167383.24000000115,"y":2545182.5400000028}},{"attributes":{"ID":288372,"DIS_CODE":0,"TOWNNAME":"北區","LI":"文成里","LIN":"10鄰","STREET":"文賢路","SECT":" ","MAREA":" ","LANE":"４８０巷","ALLEY":" ","HOUSE_NO":"１３號","E_COORD97":167401.60999999999,"N_COORD97":2545197,"ADDRESS":"文賢路４８０巷１３號","OBJECTID":288366},"geometry":{"x":167401.61000000127,"y":2545197}},{"attributes":{"ID":288373,"DIS_CODE":0,"TOWNNAME":"北區","LI":"文成里","LIN":"10鄰","STREET":"文賢路","SECT":" ","MAREA":" ","LANE":"４８０巷","ALLEY":" ","HOUSE_NO":"１５號","E_COORD97":167407.25,"N_COORD97":2545197,"ADDRESS":"文賢路４８０巷１５號","OBJECTID":288367},"geometry":{"x":167407.25,"y":2545197}},{"attributes":{"ID":288374,"DIS_CODE":0,"TOWNNAME":"南區","LI":"興農里","LIN":"11鄰","STREET":"萬年五街","SECT":" ","MAREA":" ","LANE":"４０巷","ALLEY":" ","HOUSE_NO":"１８號","E_COORD97":166862.60999999999,"N_COORD97":2536421.3900000001,"ADDRESS":"萬年五街４０巷１８號","OBJECTID":288368},"geometry":{"x":166862.61000000127,"y":2536421.3900000025}},{"attributes":{"ID":288375,"DIS_CODE":0,"TOWNNAME":"北區","LI":"文成里","LIN":"10鄰","STREET":"文賢路","SECT":" ","MAREA":" ","LANE":"４８０巷","ALLEY":" ","HOUSE_NO":"１６號","E_COORD97":167395.79000000001,"N_COORD97":2545182.54,"ADDRESS":"文賢路４８０巷１６號","OBJECTID":288369},"geometry":{"x":167395.79000000004,"y":2545182.5400000028}},{"attributes":{"ID":288376,"DIS_CODE":0,"TOWNNAME":"北區","LI":"文成里","LIN":"10鄰","STREET":"文賢路","SECT":" ","MAREA":" ","LANE":"４８０巷","ALLEY":" ","HOUSE_NO":"１７號","E_COORD97":167414.5,"N_COORD97":2545196.79,"ADDRESS":"文賢路４８０巷１７號","OBJECTID":288370},"geometry":{"x":167414.5,"y":2545196.7899999991}},{"attributes":{"ID":288377,"DIS_CODE":0,"TOWNNAME":"北區","LI":"文成里","LIN":"10鄰","STREET":"文賢路","SECT":" ","MAREA":" ","LANE":"４８０巷","ALLEY":" ","HOUSE_NO":"１８號","E_COORD97":167400.22,"N_COORD97":2545182.7400000002,"ADDRESS":"文賢路４８０巷１８號","OBJECTID":288371},"geometry":{"x":167400.22000000067,"y":2545182.7400000021}},{"attributes":{"ID":288378,"DIS_CODE":0,"TOWNNAME":"北區","LI":"大豐里","LIN":"10鄰","STREET":"和緯路","SECT":"四段","MAREA":" ","LANE":"９５巷","ALLEY":" ","HOUSE_NO":"４７號","E_COORD97":167116.56,"N_COORD97":2545337.0499999998,"ADDRESS":"和緯路四段９５巷４７號","OBJECTID":288372},"geometry":{"x":167116.55999999959,"y":2545337.0500000026}},{"attributes":{"ID":288379,"DIS_CODE":0,"TOWNNAME":"北區","LI":"大豐里","LIN":"10鄰","STREET":"和緯路","SECT":"四段","MAREA":" ","LANE":"９５巷","ALLEY":" ","HOUSE_NO":"４９號","E_COORD97":167115.23999999999,"N_COORD97":2545327.9900000002,"ADDRESS":"和緯路四段９５巷４９號","OBJECTID":288373},"geometry":{"x":167115.24000000209,"y":2545327.9900000021}},{"attributes":{"ID":288380,"DIS_CODE":0,"TOWNNAME":"仁德區","LI":"仁德里","LIN":"10鄰","STREET":"中正路","SECT":"二段","MAREA":" ","LANE":"１２０５巷","ALLEY":" ","HOUSE_NO":"１４號三樓之１","E_COORD97":173202.94,"N_COORD97":2541158.8100000001,"ADDRESS":"中正路二段１２０５巷１４號三樓之１","OBJECTID":288374},"geometry":{"x":173202.94000000041,"y":2541158.8100000024}},{"attributes":{"ID":288381,"DIS_CODE":0,"TOWNNAME":"仁德區","LI":"仁德里","LIN":"10鄰","STREET":"中正路","SECT":"二段","MAREA":" ","LANE":"１２０５巷","ALLEY":" ","HOUSE_NO":"２號三樓之２","E_COORD97":173228.76000000001,"N_COORD97":2541207.5499999998,"ADDRESS":"中正路二段１２０５巷２號三樓之２","OBJECTID":288375},"geometry":{"x":173228.75999999978,"y":2541207.5500000045}},{"attributes":{"ID":288382,"DIS_CODE":0,"TOWNNAME":"仁德區","LI":"仁德里","LIN":"10鄰","STREET":"中正路","SECT":"二段","MAREA":" ","LANE":"１２０５巷","ALLEY":" ","HOUSE_NO":"３號二樓之２","E_COORD97":173227.79000000001,"N_COORD97":2541226.3100000001,"ADDRESS":"中正路二段１２０５巷３號二樓之２","OBJECTID":288376},"geometry":{"x":173227.79000000097,"y":2541226.3100000024}},{"attributes":{"ID":288383,"DIS_CODE":0,"TOWNNAME":"仁德區","LI":"仁德里","LIN":"10鄰","STREET":"中正路","SECT":"二段","MAREA":" ","LANE":"１２０５巷","ALLEY":" ","HOUSE_NO":"４號四樓之２","E_COORD97":173226.92000000001,"N_COORD97":2541243.8100000001,"ADDRESS":"中正路二段１２０５巷４號四樓之２","OBJECTID":288377},"geometry":{"x":173226.92000000086,"y":2541243.8100000024}},{"attributes":{"ID":288384,"DIS_CODE":0,"TOWNNAME":"東區","LI":"仁和里","LIN":"10鄰","STREET":"仁和路","SECT":" ","MAREA":" ","LANE":"１３９巷","ALLEY":" ","HOUSE_NO":"１１號之５六樓","E_COORD97":171588.42000000001,"N_COORD97":2541154.1400000001,"ADDRESS":"仁和路１３９巷１１號之５六樓","OBJECTID":288378},"geometry":{"x":171588.41999999993,"y":2541154.1400000006}},{"attributes":{"ID":288385,"DIS_CODE":0,"TOWNNAME":"中西區","LI":"民主里","LIN":"8鄰","STREET":"大智街","SECT":" ","MAREA":" ","LANE":"２９巷","ALLEY":" ","HOUSE_NO":"１１號","E_COORD97":167363.38,"N_COORD97":2543596.0899999999,"ADDRESS":"大智街２９巷１１號","OBJECTID":288379},"geometry":{"x":167363.38000000082,"y":2543596.089999998}},{"attributes":{"ID":288386,"DIS_CODE":0,"TOWNNAME":"學甲區","LI":"仁得里","LIN":"1鄰","STREET":"公園街","SECT":" ","MAREA":" ","LANE":" ","ALLEY":" ","HOUSE_NO":"７６號之１","E_COORD97":166304.26999999999,"N_COORD97":2569917.0600000001,"ADDRESS":"公園街７６號之１","OBJECTID":288380},"geometry":{"x":166304.27000000048,"y":2569917.0600000024}},{"attributes":{"ID":288387,"DIS_CODE":0,"TOWNNAME":"學甲區","LI":"仁得里","LIN":"1鄰","STREET":"公園街","SECT":" ","MAREA":" ","LANE":" ","ALLEY":" ","HOUSE_NO":"７６號之２","E_COORD97":166309.73000000001,"N_COORD97":2569917.1299999999,"ADDRESS":"公園街７６號之２","OBJECTID":288381},"geometry":{"x":166309.73000000045,"y":2569917.129999999}},{"attributes":{"ID":288388,"DIS_CODE":0,"TOWNNAME":"學甲區","LI":"仁得里","LIN":"1鄰","STREET":"公園街","SECT":" ","MAREA":" ","LANE":" ","ALLEY":" ","HOUSE_NO":"７６號之３","E_COORD97":166315.60999999999,"N_COORD97":2569917.1899999999,"ADDRESS":"公園街７６號之３","OBJECTID":288382},"geometry":{"x":166315.61000000034,"y":2569917.1899999995}},{"attributes":{"ID":288389,"DIS_CODE":0,"TOWNNAME":"學甲區","LI":"仁得里","LIN":"1鄰","STREET":"公園街","SECT":" ","MAREA":" ","LANE":" ","ALLEY":" ","HOUSE_NO":"７６號之４","E_COORD97":166304.45000000001,"N_COORD97":2569927.6200000001,"ADDRESS":"公園街７６號之４","OBJECTID":288383},"geometry":{"x":166304.45000000019,"y":2569927.6200000029}},{"attributes":{"ID":288390,"DIS_CODE":0,"TOWNNAME":"學甲區","LI":"仁得里","LIN":"1鄰","STREET":"公園街","SECT":" ","MAREA":" ","LANE":" ","ALLEY":" ","HOUSE_NO":"７６號之５","E_COORD97":166304.76999999999,"N_COORD97":2569931.7200000002,"ADDRESS":"公園街７６號之５","OBJECTID":288384},"geometry":{"x":166304.76999999955,"y":2569931.7200000007}},{"attributes":{"ID":288391,"DIS_CODE":0,"TOWNNAME":"大內區","LI":"曲溪里","LIN":"1鄰","STREET":" ","SECT":" ","MAREA":"二重溪","LANE":" ","ALLEY":" ","HOUSE_NO":"８號","E_COORD97":187372.377798,"N_COORD97":2557633.70921,"ADDRESS":"二重溪８號","OBJECTID":288385},"geometry":{"x":187372.37779800128,"y":2557633.7092090026}},{"attributes":{"ID":288392,"DIS_CODE":0,"TOWNNAME":"新營區","LI":"新北里","LIN":"32鄰","STREET":"新北街","SECT":" ","MAREA":" ","LANE":" ","ALLEY":" ","HOUSE_NO":"２５２號","E_COORD97":178631.70486999999,"N_COORD97":2579188.4719199999,"ADDRESS":"新北街２５２號","OBJECTID":288386},"geometry":{"x":178631.70487000141,"y":2579188.471915001}},{"attributes":{"ID":288393,"DIS_CODE":0,"TOWNNAME":"東區","LI":"仁和里","LIN":"10鄰","STREET":"仁和路","SECT":" ","MAREA":" ","LANE":"１３９巷","ALLEY":" ","HOUSE_NO":"１１號之２六樓","E_COORD97":171594.48000000001,"N_COORD97":2541129.4399999999,"ADDRESS":"仁和路１３９巷１１號之２六樓","OBJECTID":288387},"geometry":{"x":171594.48000000138,"y":2541129.4400000013}},{"attributes":{"ID":288394,"DIS_CODE":0,"TOWNNAME":"中西區","LI":"民主里","LIN":"9鄰","STREET":"大智街","SECT":" ","MAREA":" ","LANE":" ","ALLEY":" ","HOUSE_NO":"５２號","E_COORD97":167313.06,"N_COORD97":2543613.8300000001,"ADDRESS":"大智街５２號","OBJECTID":288388},"geometry":{"x":167313.06000000052,"y":2543613.8300000001}},{"attributes":{"ID":288395,"DIS_CODE":0,"TOWNNAME":"東區","LI":"仁和里","LIN":"10鄰","STREET":"仁和路","SECT":" ","MAREA":" ","LANE":"１３９巷","ALLEY":" ","HOUSE_NO":"１１號之４八樓","E_COORD97":171592.04999999999,"N_COORD97":2541142.2799999998,"ADDRESS":"仁和路１３９巷１１號之４八樓","OBJECTID":288389},"geometry":{"x":171592.05000000075,"y":2541142.2799999993}},{"attributes":{"ID":288396,"DIS_CODE":0,"TOWNNAME":"中西區","LI":"民主里","LIN":"9鄰","STREET":"大智街","SECT":" ","MAREA":" ","LANE":" ","ALLEY":" ","HOUSE_NO":"５２號之１","E_COORD97":167311.97,"N_COORD97":2543610.2799999998,"ADDRESS":"大智街５２號之１","OBJECTID":288390},"geometry":{"x":167311.97000000067,"y":2543610.2799999993}},{"attributes":{"ID":288397,"DIS_CODE":0,"TOWNNAME":"東區","LI":"裕農里","LIN":"10鄰","STREET":"東寧路","SECT":" ","MAREA":" ","LANE":"５３８巷","ALLEY":" ","HOUSE_NO":"１１號三樓","E_COORD97":171223.39000000001,"N_COORD97":2543195.3799999999,"ADDRESS":"東寧路５３８巷１１號三樓","OBJECTID":288391},"geometry":{"x":171223.3900000006,"y":2543195.379999999}},{"attributes":{"ID":288398,"DIS_CODE":0,"TOWNNAME":"中西區","LI":"民主里","LIN":"9鄰","STREET":"大智街","SECT":" ","MAREA":" ","LANE":" ","ALLEY":" ","HOUSE_NO":"５２號之１０","E_COORD97":167307.95000000001,"N_COORD97":2543600.4300000002,"ADDRESS":"大智街５２號之１０","OBJECTID":288392},"geometry":{"x":167307.95000000019,"y":2543600.4299999978}},{"attributes":{"ID":288399,"DIS_CODE":0,"TOWNNAME":"中西區","LI":"民主里","LIN":"9鄰","STREET":"大智街","SECT":" ","MAREA":" ","LANE":" ","ALLEY":" ","HOUSE_NO":"５２號之２","E_COORD97":167311.51000000001,"N_COORD97":2543606.27,"ADDRESS":"大智街５２號之２","OBJECTID":288393},"geometry":{"x":167311.51000000071,"y":2543606.2700000014}},{"attributes":{"ID":288400,"DIS_CODE":0,"TOWNNAME":"永康區","LI":"中興里","LIN":"2鄰","STREET":"中山東路","SECT":" ","MAREA":" ","LANE":" ","ALLEY":" ","HOUSE_NO":"４３３號","E_COORD97":171974.57000000001,"N_COORD97":2545018.7400000002,"ADDRESS":"中山東路４３３號","OBJECTID":288394},"geometry":{"x":171974.5700000003,"y":2545018.7400000002}},{"attributes":{"ID":288401,"DIS_CODE":0,"TOWNNAME":"永康區","LI":"三合里","LIN":"2鄰","STREET":"南工街","SECT":" ","MAREA":" ","LANE":" ","ALLEY":" ","HOUSE_NO":"３號","E_COORD97":172100.94,"N_COORD97":2545464.0699999998,"ADDRESS":"南工街３號","OBJECTID":288395},"geometry":{"x":172100.94000000041,"y":2545464.0700000003}},{"attributes":{"ID":288402,"DIS_CODE":0,"TOWNNAME":"東區","LI":"裕農里","LIN":"10鄰","STREET":"東寧路","SECT":" ","MAREA":" ","LANE":"５３８巷","ALLEY":" ","HOUSE_NO":"１１號四樓","E_COORD97":171223.39000000001,"N_COORD97":2543195.3799999999,"ADDRESS":"東寧路５３８巷１１號四樓","OBJECTID":288396},"geometry":{"x":171223.3900000006,"y":2543195.379999999}},{"attributes":{"ID":288403,"DIS_CODE":0,"TOWNNAME":"仁德區","LI":"仁德里","LIN":"10鄰","STREET":"中正路","SECT":"二段","MAREA":" ","LANE":"１２０５巷","ALLEY":" ","HOUSE_NO":"３號六樓之１","E_COORD97":173227.64999999999,"N_COORD97":2541226.3100000001,"ADDRESS":"中正路二段１２０５巷３號六樓之１","OBJECTID":288397},"geometry":{"x":173227.6500000013,"y":2541226.3100000024}},{"attributes":{"ID":288404,"DIS_CODE":0,"TOWNNAME":"仁德區","LI":"仁德里","LIN":"10鄰","STREET":"中正路","SECT":"二段","MAREA":" ","LANE":"１２０５巷","ALLEY":" ","HOUSE_NO":"１６號四樓之１","E_COORD97":173221.95999999999,"N_COORD97":2541183.7999999998,"ADDRESS":"中正路二段１２０５巷１６號四樓之１","OBJECTID":288398},"geometry":{"x":173221.96000000089,"y":2541183.8000000007}},{"attributes":{"ID":288405,"DIS_CODE":0,"TOWNNAME":"仁德區","LI":"仁德里","LIN":"10鄰","STREET":"中正路","SECT":"二段","MAREA":" ","LANE":"１２０５巷","ALLEY":" ","HOUSE_NO":"１６號一樓","E_COORD97":173219.82000000001,"N_COORD97":2541183.7799999998,"ADDRESS":"中正路二段１２０５巷１６號一樓","OBJECTID":288399},"geometry":{"x":173219.82000000123,"y":2541183.7800000031}},{"attributes":{"ID":288406,"DIS_CODE":0,"TOWNNAME":"仁德區","LI":"仁德里","LIN":"10鄰","STREET":"中正路","SECT":"二段","MAREA":" ","LANE":"１２０５巷","ALLEY":" ","HOUSE_NO":"５號六樓之１","E_COORD97":173225.13,"N_COORD97":2541261.8100000001,"ADDRESS":"中正路二段１２０５巷５號六樓之１","OBJECTID":288400},"geometry":{"x":173225.13000000082,"y":2541261.8100000005}}]}