{"displayFieldName":"TOWNNAME","fieldAliases":{"ID":"ID","DIS_CODE":"DIS_CODE","TOWNNAME":"TOWNNAME","LI":"LI","LIN":"LIN","STREET":"STREET","SECT":"SECT","MAREA":"MAREA","LANE":"LANE","ALLEY":"ALLEY","HOUSE_NO":"HOUSE_NO","E_COORD97":"E_COORD97","N_COORD97":"N_COORD97","ADDRESS":"ADDRESS","OBJECTID":"OBJECTID"},"geometryType":"esriGeometryPoint","spatialReference":{"wkid":102443,"latestWkid":3826},"fields":[{"name":"ID","type":"esriFieldTypeDouble","alias":"ID"},{"name":"DIS_CODE","type":"esriFieldTypeInteger","alias":"DIS_CODE"},{"name":"TOWNNAME","type":"esriFieldTypeString","alias":"TOWNNAME","length":8},{"name":"LI","type":"esriFieldTypeString","alias":"LI","length":8},{"name":"LIN","type":"esriFieldTypeString","alias":"LIN","length":12},{"name":"STREET","type":"esriFieldTypeString","alias":"STREET","length":20},{"name":"SECT","type":"esriFieldTypeString","alias":"SECT","length":8},{"name":"MAREA","type":"esriFieldTypeString","alias":"MAREA","length":12},{"name":"LANE","type":"esriFieldTypeString","alias":"LANE","length":10},{"name":"ALLEY","type":"esriFieldTypeString","alias":"ALLEY","length":10},{"name":"HOUSE_NO","type":"esriFieldTypeString","alias":"HOUSE_NO","length":20},{"name":"E_COORD97","type":"esriFieldTypeDouble","alias":"E_COORD97"},{"name":"N_COORD97","type":"esriFieldTypeDouble","alias":"N_COORD97"},{"name":"ADDRESS","type":"esriFieldTypeString","alias":"ADDRESS","length":50},{"name":"OBJECTID","type":"esriFieldTypeOID","alias":"OBJECTID"}],"features":[{"attributes":{"ID":574428,"DIS_CODE":0,"TOWNNAME":"安平區","LI":"育平里","LIN":"23鄰","STREET":"郡平路","SECT":" ","MAREA":" ","LANE":" ","ALLEY":" ","HOUSE_NO":"１８０號","E_COORD97":164673.35999999999,"N_COORD97":2543338.4399999999,"ADDRESS":"郡平路１８０號","OBJECTID":574401},"geometry":{"x":164673.3600000022,"y":2543338.4399999995}},{"attributes":{"ID":574429,"DIS_CODE":0,"TOWNNAME":"安平區","LI":"育平里","LIN":"23鄰","STREET":"郡平路","SECT":" ","MAREA":" ","LANE":" ","ALLEY":" ","HOUSE_NO":"１８２號","E_COORD97":164668.47,"N_COORD97":2543339.02,"ADDRESS":"郡平路１８２號","OBJECTID":574402},"geometry":{"x":164668.46999999881,"y":2543339.0200000033}},{"attributes":{"ID":574430,"DIS_CODE":0,"TOWNNAME":"安平區","LI":"育平里","LIN":"23鄰","STREET":"郡平路","SECT":" ","MAREA":" ","LANE":" ","ALLEY":" ","HOUSE_NO":"１８４號","E_COORD97":164662.70999999999,"N_COORD97":2543339.8799999999,"ADDRESS":"郡平路１８４號","OBJECTID":574403},"geometry":{"x":164662.71000000089,"y":2543339.8800000008}},{"attributes":{"ID":574431,"DIS_CODE":0,"TOWNNAME":"安平區","LI":"育平里","LIN":"23鄰","STREET":"健康三街","SECT":" ","MAREA":" ","LANE":" ","ALLEY":" ","HOUSE_NO":"２０７號","E_COORD97":164761.95999999999,"N_COORD97":2543368.6699999999,"ADDRESS":"健康三街２０７號","OBJECTID":574404},"geometry":{"x":164761.95999999996,"y":2543368.6700000037}},{"attributes":{"ID":574432,"DIS_CODE":0,"TOWNNAME":"安平區","LI":"育平里","LIN":"23鄰","STREET":"郡平路","SECT":" ","MAREA":" ","LANE":" ","ALLEY":" ","HOUSE_NO":"１９０號","E_COORD97":164640.38,"N_COORD97":2543343.3300000001,"ADDRESS":"郡平路１９０號","OBJECTID":574405},"geometry":{"x":164640.37999999989,"y":2543343.3300000001}},{"attributes":{"ID":574433,"DIS_CODE":0,"TOWNNAME":"安平區","LI":"育平里","LIN":"23鄰","STREET":"郡平路","SECT":" ","MAREA":" ","LANE":" ","ALLEY":" ","HOUSE_NO":"１９２號","E_COORD97":164635.04999999999,"N_COORD97":2543343.7599999998,"ADDRESS":"郡平路１９２號","OBJECTID":574406},"geometry":{"x":164635.05000000075,"y":2543343.7599999998}},{"attributes":{"ID":574434,"DIS_CODE":0,"TOWNNAME":"安平區","LI":"育平里","LIN":"23鄰","STREET":"郡平路","SECT":" ","MAREA":" ","LANE":" ","ALLEY":" ","HOUSE_NO":"１９６號","E_COORD97":164623.67999999999,"N_COORD97":2543345.4900000002,"ADDRESS":"郡平路１９６號","OBJECTID":574407},"geometry":{"x":164623.68000000063,"y":2543345.4900000002}},{"attributes":{"ID":574435,"DIS_CODE":0,"TOWNNAME":"安平區","LI":"育平里","LIN":"23鄰","STREET":"郡平路","SECT":" ","MAREA":" ","LANE":" ","ALLEY":" ","HOUSE_NO":"１９８號","E_COORD97":164617.78,"N_COORD97":2543346.0600000001,"ADDRESS":"郡平路１９８號","OBJECTID":574408},"geometry":{"x":164617.77999999933,"y":2543346.0599999987}},{"attributes":{"ID":574436,"DIS_CODE":0,"TOWNNAME":"安平區","LI":"育平里","LIN":"23鄰","STREET":"郡平路","SECT":" ","MAREA":" ","LANE":" ","ALLEY":" ","HOUSE_NO":"２００號","E_COORD97":164612.31,"N_COORD97":2543346.7799999998,"ADDRESS":"郡平路２００號","OBJECTID":574409},"geometry":{"x":164612.31000000052,"y":2543346.7799999975}},{"attributes":{"ID":574437,"DIS_CODE":0,"TOWNNAME":"安平區","LI":"育平里","LIN":"23鄰","STREET":"郡平路","SECT":" ","MAREA":" ","LANE":" ","ALLEY":" ","HOUSE_NO":"２０２號","E_COORD97":164606.41,"N_COORD97":2543347.79,"ADDRESS":"郡平路２０２號","OBJECTID":574410},"geometry":{"x":164606.41000000015,"y":2543347.790000001}},{"attributes":{"ID":574438,"DIS_CODE":0,"TOWNNAME":"安平區","LI":"育平里","LIN":"23鄰","STREET":"健康三街","SECT":" ","MAREA":" ","LANE":" ","ALLEY":" ","HOUSE_NO":"１９７號","E_COORD97":164755.76999999999,"N_COORD97":2543334.8700000001,"ADDRESS":"健康三街１９７號","OBJECTID":574411},"geometry":{"x":164755.76999999955,"y":2543334.8700000029}},{"attributes":{"ID":574439,"DIS_CODE":0,"TOWNNAME":"安平區","LI":"育平里","LIN":"23鄰","STREET":"健康三街","SECT":" ","MAREA":" ","LANE":" ","ALLEY":" ","HOUSE_NO":"１９９號","E_COORD97":164756.48999999999,"N_COORD97":2543340.48,"ADDRESS":"健康三街１９９號","OBJECTID":574412},"geometry":{"x":164756.49000000022,"y":2543340.4800000023}},{"attributes":{"ID":574440,"DIS_CODE":0,"TOWNNAME":"安平區","LI":"育平里","LIN":"23鄰","STREET":"健康三街","SECT":" ","MAREA":" ","LANE":" ","ALLEY":" ","HOUSE_NO":"２０１號","E_COORD97":164757.92999999999,"N_COORD97":2543347.1000000001,"ADDRESS":"健康三街２０１號","OBJECTID":574413},"geometry":{"x":164757.9299999997,"y":2543347.0999999996}},{"attributes":{"ID":574441,"DIS_CODE":0,"TOWNNAME":"安平區","LI":"育平里","LIN":"23鄰","STREET":"健康三街","SECT":" ","MAREA":" ","LANE":" ","ALLEY":" ","HOUSE_NO":"２０３號","E_COORD97":164759.35999999999,"N_COORD97":2543356.0099999998,"ADDRESS":"健康三街２０３號","OBJECTID":574414},"geometry":{"x":164759.36000000034,"y":2543356.0100000035}},{"attributes":{"ID":574442,"DIS_CODE":0,"TOWNNAME":"安平區","LI":"育平里","LIN":"23鄰","STREET":"健康三街","SECT":" ","MAREA":" ","LANE":" ","ALLEY":" ","HOUSE_NO":"２０５號","E_COORD97":164760.95000000001,"N_COORD97":2543362.3399999999,"ADDRESS":"健康三街２０５號","OBJECTID":574415},"geometry":{"x":164760.95000000112,"y":2543362.3400000017}},{"attributes":{"ID":574443,"DIS_CODE":0,"TOWNNAME":"永康區","LI":"網寮里","LIN":"22鄰","STREET":"永大一路","SECT":" ","MAREA":" ","LANE":" ","ALLEY":" ","HOUSE_NO":"２５５號","E_COORD97":173643.42999999999,"N_COORD97":2546296.3900000001,"ADDRESS":"永大一路２５５號","OBJECTID":574416},"geometry":{"x":173643.43000000063,"y":2546296.3900000006}},{"attributes":{"ID":574444,"DIS_CODE":0,"TOWNNAME":"永康區","LI":"復國里","LIN":"36鄰","STREET":"復國一路","SECT":" ","MAREA":" ","LANE":" ","ALLEY":" ","HOUSE_NO":"２３號","E_COORD97":172692.09,"N_COORD97":2544820.52,"ADDRESS":"復國一路２３號","OBJECTID":574417},"geometry":{"x":172692.08999999985,"y":2544820.5200000033}},{"attributes":{"ID":574445,"DIS_CODE":0,"TOWNNAME":"永康區","LI":"復華里","LIN":"36鄰","STREET":"復華七街","SECT":" ","MAREA":" ","LANE":" ","ALLEY":" ","HOUSE_NO":"２３號","E_COORD97":172607.39000000001,"N_COORD97":2545982.9300000002,"ADDRESS":"復華七街２３號","OBJECTID":574418},"geometry":{"x":172607.38999999966,"y":2545982.9299999997}},{"attributes":{"ID":574446,"DIS_CODE":0,"TOWNNAME":"永康區","LI":"網寮里","LIN":"26鄰","STREET":"永吉路","SECT":" ","MAREA":" ","LANE":" ","ALLEY":" ","HOUSE_NO":"１３６號","E_COORD97":173975.45000000001,"N_COORD97":2546534.0600000001,"ADDRESS":"永吉路１３６號","OBJECTID":574419},"geometry":{"x":173975.45000000019,"y":2546534.0600000024}},{"attributes":{"ID":574447,"DIS_CODE":0,"TOWNNAME":"永康區","LI":"復國里","LIN":"15鄰","STREET":"復國二路","SECT":" ","MAREA":" ","LANE":" ","ALLEY":" ","HOUSE_NO":"１３９號","E_COORD97":172893.51000000001,"N_COORD97":2545645.77,"ADDRESS":"復國二路１３９號","OBJECTID":574420},"geometry":{"x":172893.51000000164,"y":2545645.7699999977}},{"attributes":{"ID":574448,"DIS_CODE":0,"TOWNNAME":"永康區","LI":"蔦松里","LIN":"9鄰","STREET":"正北一路","SECT":" ","MAREA":" ","LANE":" ","ALLEY":" ","HOUSE_NO":"８８號","E_COORD97":174411.73000000001,"N_COORD97":2549726.5,"ADDRESS":"正北一路８８號","OBJECTID":574421},"geometry":{"x":174411.73000000138,"y":2549726.5}},{"attributes":{"ID":574449,"DIS_CODE":0,"TOWNNAME":"新營區","LI":"新東里","LIN":"23鄰","STREET":"民治東路","SECT":" ","MAREA":" ","LANE":" ","ALLEY":" ","HOUSE_NO":"１８號","E_COORD97":180750.16,"N_COORD97":2578913.6000000001,"ADDRESS":"民治東路１８號","OBJECTID":574422},"geometry":{"x":180750.16000000108,"y":2578913.6000000034}},{"attributes":{"ID":574450,"DIS_CODE":0,"TOWNNAME":"善化區","LI":"東關里","LIN":"16鄰","STREET":"中和街","SECT":" ","MAREA":" ","LANE":" ","ALLEY":" ","HOUSE_NO":"３號","E_COORD97":177441.26000000001,"N_COORD97":2558984.75,"ADDRESS":"中和街３號","OBJECTID":574423},"geometry":{"x":177441.25999999978,"y":2558984.7500000019}},{"attributes":{"ID":574451,"DIS_CODE":0,"TOWNNAME":"新營區","LI":"三仙里","LIN":"23鄰","STREET":"民治路","SECT":" ","MAREA":" ","LANE":" ","ALLEY":" ","HOUSE_NO":"７８之１４號","E_COORD97":179539.44,"N_COORD97":2578829.6899999999,"ADDRESS":"民治路７８之１４號","OBJECTID":574424},"geometry":{"x":179539.44000000041,"y":2578829.6900000013}},{"attributes":{"ID":574452,"DIS_CODE":0,"TOWNNAME":"永康區","LI":"網寮里","LIN":"26鄰","STREET":"永吉路","SECT":" ","MAREA":" ","LANE":" ","ALLEY":" ","HOUSE_NO":"１３９號","E_COORD97":173949.01999999999,"N_COORD97":2546533.9900000002,"ADDRESS":"永吉路１３９號","OBJECTID":574425},"geometry":{"x":173949.01999999955,"y":2546533.9900000021}},{"attributes":{"ID":574453,"DIS_CODE":0,"TOWNNAME":"永康區","LI":"復國里","LIN":"35鄰","STREET":"復國一路","SECT":" ","MAREA":" ","LANE":" ","ALLEY":" ","HOUSE_NO":"９３號","E_COORD97":172694.07000000001,"N_COORD97":2544983.1200000001,"ADDRESS":"復國一路９３號","OBJECTID":574426},"geometry":{"x":172694.07000000123,"y":2544983.120000001}},{"attributes":{"ID":574454,"DIS_CODE":0,"TOWNNAME":"永康區","LI":"復國里","LIN":"35鄰","STREET":"復國一路","SECT":" ","MAREA":" ","LANE":" ","ALLEY":" ","HOUSE_NO":"７９號","E_COORD97":172691.54999999999,"N_COORD97":2544951.52,"ADDRESS":"復國一路７９號","OBJECTID":574427},"geometry":{"x":172691.55000000168,"y":2544951.5199999996}},{"attributes":{"ID":574455,"DIS_CODE":0,"TOWNNAME":"永康區","LI":"復華里","LIN":"33鄰","STREET":"復華十街","SECT":" ","MAREA":" ","LANE":" ","ALLEY":" ","HOUSE_NO":"２２號","E_COORD97":172531.19,"N_COORD97":2546168.77,"ADDRESS":"復華十街２２號","OBJECTID":574428},"geometry":{"x":172531.19000000041,"y":2546168.7700000014}},{"attributes":{"ID":574456,"DIS_CODE":0,"TOWNNAME":"永康區","LI":"復華里","LIN":"33鄰","STREET":"復華十街","SECT":" ","MAREA":" ","LANE":" ","ALLEY":" ","HOUSE_NO":"１９號","E_COORD97":172534.29000000001,"N_COORD97":2546200.2999999998,"ADDRESS":"復華十街１９號","OBJECTID":574429},"geometry":{"x":172534.29000000097,"y":2546200.3000000026}},{"attributes":{"ID":574457,"DIS_CODE":0,"TOWNNAME":"鹽水區","LI":"橋南里","LIN":"23鄰","STREET":"四維路","SECT":" ","MAREA":" ","LANE":" ","ALLEY":" ","HOUSE_NO":"２０８號","E_COORD97":175616.10000000001,"N_COORD97":2578666.7400000002,"ADDRESS":"四維路２０８號","OBJECTID":574430},"geometry":{"x":175616.09999999963,"y":2578666.7400000021}},{"attributes":{"ID":574458,"DIS_CODE":0,"TOWNNAME":"鹽水區","LI":"橋南里","LIN":"23鄰","STREET":"四維路","SECT":" ","MAREA":" ","LANE":" ","ALLEY":" ","HOUSE_NO":"２１０號","E_COORD97":175611.42000000001,"N_COORD97":2578666.2999999998,"ADDRESS":"四維路２１０號","OBJECTID":574431},"geometry":{"x":175611.41999999993,"y":2578666.3000000026}},{"attributes":{"ID":574459,"DIS_CODE":0,"TOWNNAME":"鹽水區","LI":"橋南里","LIN":"23鄰","STREET":"四維路","SECT":" ","MAREA":" ","LANE":" ","ALLEY":" ","HOUSE_NO":"２１２號","E_COORD97":175606.73999999999,"N_COORD97":2578665.8599999999,"ADDRESS":"四維路２１２號","OBJECTID":574432},"geometry":{"x":175606.74000000115,"y":2578665.8599999994}},{"attributes":{"ID":574460,"DIS_CODE":0,"TOWNNAME":"鹽水區","LI":"橋南里","LIN":"23鄰","STREET":"四維路","SECT":" ","MAREA":" ","LANE":" ","ALLEY":" ","HOUSE_NO":"２１４號","E_COORD97":175602.06,"N_COORD97":2578665.4199999999,"ADDRESS":"四維路２１４號","OBJECTID":574433},"geometry":{"x":175602.06000000052,"y":2578665.4200000018}},{"attributes":{"ID":574461,"DIS_CODE":0,"TOWNNAME":"鹽水區","LI":"橋南里","LIN":"23鄰","STREET":"四維路","SECT":" ","MAREA":" ","LANE":" ","ALLEY":" ","HOUSE_NO":"２１６號","E_COORD97":175597.38,"N_COORD97":2578664.9700000002,"ADDRESS":"四維路２１６號","OBJECTID":574434},"geometry":{"x":175597.38000000082,"y":2578664.9700000025}},{"attributes":{"ID":574462,"DIS_CODE":0,"TOWNNAME":"鹽水區","LI":"橋南里","LIN":"23鄰","STREET":"四維路","SECT":" ","MAREA":" ","LANE":" ","ALLEY":" ","HOUSE_NO":"２１８號","E_COORD97":175592.70000000001,"N_COORD97":2578664.5299999998,"ADDRESS":"四維路２１８號","OBJECTID":574435},"geometry":{"x":175592.70000000019,"y":2578664.5299999993}},{"attributes":{"ID":574463,"DIS_CODE":0,"TOWNNAME":"鹽水區","LI":"橋南里","LIN":"23鄰","STREET":"四維路","SECT":" ","MAREA":" ","LANE":" ","ALLEY":" ","HOUSE_NO":"２２０號","E_COORD97":175588.01999999999,"N_COORD97":2578664.0899999999,"ADDRESS":"四維路２２０號","OBJECTID":574436},"geometry":{"x":175588.01999999955,"y":2578664.0900000017}},{"attributes":{"ID":574464,"DIS_CODE":0,"TOWNNAME":"鹽水區","LI":"橋南里","LIN":"23鄰","STREET":"四維路","SECT":" ","MAREA":" ","LANE":" ","ALLEY":" ","HOUSE_NO":"２２２號","E_COORD97":175583.34,"N_COORD97":2578663.6499999999,"ADDRESS":"四維路２２２號","OBJECTID":574437},"geometry":{"x":175583.34000000171,"y":2578663.6500000022}},{"attributes":{"ID":574465,"DIS_CODE":0,"TOWNNAME":"鹽水區","LI":"橋南里","LIN":"23鄰","STREET":"四維路","SECT":" ","MAREA":" ","LANE":" ","ALLEY":" ","HOUSE_NO":"２２４號","E_COORD97":175578.66,"N_COORD97":2578663.21,"ADDRESS":"四維路２２４號","OBJECTID":574438},"geometry":{"x":175578.66000000108,"y":2578663.2100000046}},{"attributes":{"ID":574466,"DIS_CODE":0,"TOWNNAME":"鹽水區","LI":"橋南里","LIN":"23鄰","STREET":"四維路","SECT":" ","MAREA":" ","LANE":" ","ALLEY":" ","HOUSE_NO":"２２６號","E_COORD97":175573.98000000001,"N_COORD97":2578662.77,"ADDRESS":"四維路２２６號","OBJECTID":574439},"geometry":{"x":175573.98000000045,"y":2578662.7700000014}},{"attributes":{"ID":574467,"DIS_CODE":0,"TOWNNAME":"鹽水區","LI":"橋南里","LIN":"23鄰","STREET":"四維路","SECT":" ","MAREA":" ","LANE":" ","ALLEY":" ","HOUSE_NO":"２３０號","E_COORD97":175564.62,"N_COORD97":2578661.8900000001,"ADDRESS":"四維路２３０號","OBJECTID":574440},"geometry":{"x":175564.62000000197,"y":2578661.8900000043}},{"attributes":{"ID":574468,"DIS_CODE":0,"TOWNNAME":"永康區","LI":"網寮里","LIN":"26鄰","STREET":"永興路","SECT":" ","MAREA":" ","LANE":" ","ALLEY":" ","HOUSE_NO":"１０９號","E_COORD97":173909,"N_COORD97":2546579.5899999999,"ADDRESS":"永興路１０９號","OBJECTID":574441},"geometry":{"x":173909,"y":2546579.589999998}},{"attributes":{"ID":574469,"DIS_CODE":0,"TOWNNAME":"永康區","LI":"復國里","LIN":"13鄰","STREET":"復華三街","SECT":" ","MAREA":" ","LANE":" ","ALLEY":" ","HOUSE_NO":"２１號","E_COORD97":172886.73000000001,"N_COORD97":2545533.2200000002,"ADDRESS":"復華三街２１號","OBJECTID":574442},"geometry":{"x":172886.73000000045,"y":2545533.2200000025}},{"attributes":{"ID":574470,"DIS_CODE":0,"TOWNNAME":"永康區","LI":"網寮里","LIN":"17鄰","STREET":"永興路","SECT":" ","MAREA":" ","LANE":" ","ALLEY":" ","HOUSE_NO":"３４５號","E_COORD97":173425.78,"N_COORD97":2546802.4900000002,"ADDRESS":"永興路３４５號","OBJECTID":574443},"geometry":{"x":173425.78000000026,"y":2546802.4900000021}},{"attributes":{"ID":574471,"DIS_CODE":0,"TOWNNAME":"永康區","LI":"復國里","LIN":"35鄰","STREET":"復國一路","SECT":" ","MAREA":" ","LANE":" ","ALLEY":" ","HOUSE_NO":"７１號","E_COORD97":172690.14999999999,"N_COORD97":2544935.02,"ADDRESS":"復國一路７１號","OBJECTID":574444},"geometry":{"x":172690.1500000013,"y":2544935.0199999996}},{"attributes":{"ID":574472,"DIS_CODE":0,"TOWNNAME":"歸仁區","LI":"歸南里","LIN":"23鄰","STREET":"民生八街","SECT":" ","MAREA":" ","LANE":" ","ALLEY":" ","HOUSE_NO":"４６號","E_COORD97":176081.31,"N_COORD97":2540350.25,"ADDRESS":"民生八街４６號","OBJECTID":574445},"geometry":{"x":176081.30999999959,"y":2540350.25}},{"attributes":{"ID":574473,"DIS_CODE":0,"TOWNNAME":"歸仁區","LI":"歸南里","LIN":"23鄰","STREET":"民生八街","SECT":" ","MAREA":" ","LANE":" ","ALLEY":" ","HOUSE_NO":"６２號","E_COORD97":176047.51000000001,"N_COORD97":2540350.25,"ADDRESS":"民生八街６２號","OBJECTID":574446},"geometry":{"x":176047.50999999978,"y":2540350.25}},{"attributes":{"ID":574474,"DIS_CODE":0,"TOWNNAME":"永康區","LI":"蔦松里","LIN":"2鄰","STREET":"中正北路","SECT":" ","MAREA":" ","LANE":" ","ALLEY":" ","HOUSE_NO":"５３５號","E_COORD97":173886.01000000001,"N_COORD97":2549220.2400000002,"ADDRESS":"中正北路５３５號","OBJECTID":574447},"geometry":{"x":173886.00999999978,"y":2549220.2400000039}},{"attributes":{"ID":574475,"DIS_CODE":0,"TOWNNAME":"永康區","LI":"復國里","LIN":"35鄰","STREET":"復國一路","SECT":" ","MAREA":" ","LANE":" ","ALLEY":" ","HOUSE_NO":"１２３號","E_COORD97":172700.35999999999,"N_COORD97":2545054.3199999998,"ADDRESS":"復國一路１２３號","OBJECTID":574448},"geometry":{"x":172700.36000000127,"y":2545054.3200000022}},{"attributes":{"ID":574476,"DIS_CODE":0,"TOWNNAME":"歸仁區","LI":"歸南里","LIN":"23鄰","STREET":"民生八街","SECT":" ","MAREA":" ","LANE":" ","ALLEY":" ","HOUSE_NO":"３７號","E_COORD97":176080.20999999999,"N_COORD97":2540332.25,"ADDRESS":"民生八街３７號","OBJECTID":574449},"geometry":{"x":176080.20999999996,"y":2540332.25}},{"attributes":{"ID":574477,"DIS_CODE":0,"TOWNNAME":"歸仁區","LI":"歸南里","LIN":"23鄰","STREET":"民生八街","SECT":" ","MAREA":" ","LANE":" ","ALLEY":" ","HOUSE_NO":"３號","E_COORD97":176154.85999999999,"N_COORD97":2540335.25,"ADDRESS":"民生八街３號","OBJECTID":574450},"geometry":{"x":176154.8600000022,"y":2540335.2500000019}},{"attributes":{"ID":574478,"DIS_CODE":0,"TOWNNAME":"歸仁區","LI":"歸南里","LIN":"23鄰","STREET":"民生八街","SECT":" ","MAREA":" ","LANE":" ","ALLEY":" ","HOUSE_NO":"３６號","E_COORD97":176098.70999999999,"N_COORD97":2540349.25,"ADDRESS":"民生八街３６號","OBJECTID":574451},"geometry":{"x":176098.70999999996,"y":2540349.25}},{"attributes":{"ID":574479,"DIS_CODE":0,"TOWNNAME":"歸仁區","LI":"歸仁里","LIN":"23鄰","STREET":"文化二街","SECT":" ","MAREA":" ","LANE":" ","ALLEY":" ","HOUSE_NO":"３２號","E_COORD97":178025.85000000001,"N_COORD97":2541234.2599999998,"ADDRESS":"文化二街３２號","OBJECTID":574452},"geometry":{"x":178025.85000000056,"y":2541234.2599999998}},{"attributes":{"ID":574480,"DIS_CODE":0,"TOWNNAME":"歸仁區","LI":"歸仁里","LIN":"23鄰","STREET":"忠孝北路","SECT":" ","MAREA":" ","LANE":" ","ALLEY":" ","HOUSE_NO":"２３５號","E_COORD97":178022.39999999999,"N_COORD97":2541316.25,"ADDRESS":"忠孝北路２３５號","OBJECTID":574453},"geometry":{"x":178022.40000000037,"y":2541316.25}},{"attributes":{"ID":574481,"DIS_CODE":0,"TOWNNAME":"歸仁區","LI":"新厝里","LIN":"23鄰","STREET":"大成八街","SECT":" ","MAREA":" ","LANE":" ","ALLEY":" ","HOUSE_NO":"２７號","E_COORD97":177631.04000000001,"N_COORD97":2540238.1800000002,"ADDRESS":"大成八街２７號","OBJECTID":574454},"geometry":{"x":177631.04000000004,"y":2540238.1799999997}},{"attributes":{"ID":574482,"DIS_CODE":0,"TOWNNAME":"歸仁區","LI":"歸南里","LIN":"23鄰","STREET":"民生八街","SECT":" ","MAREA":" ","LANE":" ","ALLEY":" ","HOUSE_NO":"５６號","E_COORD97":176060.81,"N_COORD97":2540350.25,"ADDRESS":"民生八街５６號","OBJECTID":574455},"geometry":{"x":176060.80999999959,"y":2540350.25}},{"attributes":{"ID":574483,"DIS_CODE":0,"TOWNNAME":"新營區","LI":"南紙里","LIN":"23鄰","STREET":"南紙街","SECT":" ","MAREA":" ","LANE":" ","ALLEY":" ","HOUSE_NO":"１１９之１號","E_COORD97":177817.48000000001,"N_COORD97":2577469.1499999999,"ADDRESS":"南紙街１１９之１號","OBJECTID":574456},"geometry":{"x":177817.48000000138,"y":2577469.1500000004}},{"attributes":{"ID":574484,"DIS_CODE":0,"TOWNNAME":"新營區","LI":"三仙里","LIN":"23鄰","STREET":"育德街","SECT":" ","MAREA":" ","LANE":" ","ALLEY":" ","HOUSE_NO":"１９號","E_COORD97":179603.64000000001,"N_COORD97":2578927.8700000001,"ADDRESS":"育德街１９號","OBJECTID":574457},"geometry":{"x":179603.64000000153,"y":2578927.8700000029}},{"attributes":{"ID":574485,"DIS_CODE":0,"TOWNNAME":"楠西區","LI":"楠西里","LIN":"23鄰","STREET":"茄拔路","SECT":" ","MAREA":" ","LANE":" ","ALLEY":" ","HOUSE_NO":"１０３號","E_COORD97":197179.64000000001,"N_COORD97":2563801.2799999998,"ADDRESS":"茄拔路１０３號","OBJECTID":574458},"geometry":{"x":197179.6400000006,"y":2563801.2800000031}},{"attributes":{"ID":574486,"DIS_CODE":0,"TOWNNAME":"南區","LI":"明興里","LIN":"23鄰","STREET":"永春街","SECT":" ","MAREA":" ","LANE":" ","ALLEY":" ","HOUSE_NO":"２６號","E_COORD97":167115.10999999999,"N_COORD97":2540660.7999999998,"ADDRESS":"永春街２６號","OBJECTID":574459},"geometry":{"x":167115.11000000127,"y":2540660.8000000026}},{"attributes":{"ID":574487,"DIS_CODE":0,"TOWNNAME":"南區","LI":"明興里","LIN":"23鄰","STREET":"永春街","SECT":" ","MAREA":" ","LANE":" ","ALLEY":" ","HOUSE_NO":"４２號之１","E_COORD97":167116.81,"N_COORD97":2540701.8599999999,"ADDRESS":"永春街４２號之１","OBJECTID":574460},"geometry":{"x":167116.80999999959,"y":2540701.8600000031}},{"attributes":{"ID":574488,"DIS_CODE":0,"TOWNNAME":"南區","LI":"文華里","LIN":"23鄰","STREET":"文南三街","SECT":" ","MAREA":" ","LANE":" ","ALLEY":" ","HOUSE_NO":"８０號之１","E_COORD97":166770.85000000001,"N_COORD97":2542921.1899999999,"ADDRESS":"文南三街８０號之１","OBJECTID":574461},"geometry":{"x":166770.84999999963,"y":2542921.1900000013}},{"attributes":{"ID":574489,"DIS_CODE":0,"TOWNNAME":"南區","LI":"文華里","LIN":"23鄰","STREET":"美南街","SECT":" ","MAREA":" ","LANE":" ","ALLEY":" ","HOUSE_NO":"１０９號之１","E_COORD97":166746.12,"N_COORD97":2542946,"ADDRESS":"美南街１０９號之１","OBJECTID":574462},"geometry":{"x":166746.12000000011,"y":2542946.0000000037}},{"attributes":{"ID":574490,"DIS_CODE":0,"TOWNNAME":"永康區","LI":"復國里","LIN":"32鄰","STREET":"復華一街","SECT":" ","MAREA":" ","LANE":" ","ALLEY":" ","HOUSE_NO":"１２號","E_COORD97":172683.14000000001,"N_COORD97":2545087.2599999998,"ADDRESS":"復華一街１２號","OBJECTID":574463},"geometry":{"x":172683.13999999966,"y":2545087.2600000016}},{"attributes":{"ID":574491,"DIS_CODE":0,"TOWNNAME":"南區","LI":"文華里","LIN":"23鄰","STREET":"美南街","SECT":" ","MAREA":" ","LANE":" ","ALLEY":" ","HOUSE_NO":"１０９號之２","E_COORD97":166745.47,"N_COORD97":2542941.7200000002,"ADDRESS":"美南街１０９號之２","OBJECTID":574464},"geometry":{"x":166745.47000000067,"y":2542941.7199999988}},{"attributes":{"ID":574492,"DIS_CODE":0,"TOWNNAME":"南區","LI":"文華里","LIN":"23鄰","STREET":"美南街","SECT":" ","MAREA":" ","LANE":" ","ALLEY":" ","HOUSE_NO":"１０９號之３","E_COORD97":166743.87,"N_COORD97":2542935.2000000002,"ADDRESS":"美南街１０９號之３","OBJECTID":574465},"geometry":{"x":166743.87000000011,"y":2542935.2000000011}},{"attributes":{"ID":574493,"DIS_CODE":0,"TOWNNAME":"南區","LI":"文華里","LIN":"23鄰","STREET":"美南街","SECT":" ","MAREA":" ","LANE":" ","ALLEY":" ","HOUSE_NO":"１０９號之４","E_COORD97":166742.16,"N_COORD97":2542929.7400000002,"ADDRESS":"美南街１０９號之４","OBJECTID":574466},"geometry":{"x":166742.16000000015,"y":2542929.7400000002}},{"attributes":{"ID":574494,"DIS_CODE":0,"TOWNNAME":"南區","LI":"文華里","LIN":"23鄰","STREET":"美南街","SECT":" ","MAREA":" ","LANE":" ","ALLEY":" ","HOUSE_NO":"１０９號之５","E_COORD97":166741.51000000001,"N_COORD97":2542924.2799999998,"ADDRESS":"美南街１０９號之５","OBJECTID":574467},"geometry":{"x":166741.51000000164,"y":2542924.2800000012}},{"attributes":{"ID":574495,"DIS_CODE":0,"TOWNNAME":"安平區","LI":"國平里","LIN":"23鄰","STREET":"建平七街","SECT":" ","MAREA":" ","LANE":" ","ALLEY":" ","HOUSE_NO":"６７９號","E_COORD97":164841.29000000001,"N_COORD97":2543413.6899999999,"ADDRESS":"建平七街６７９號","OBJECTID":574468},"geometry":{"x":164841.2900000019,"y":2543413.6900000013}},{"attributes":{"ID":574496,"DIS_CODE":0,"TOWNNAME":"安平區","LI":"國平里","LIN":"23鄰","STREET":"建平七街","SECT":" ","MAREA":" ","LANE":" ","ALLEY":" ","HOUSE_NO":"６８１號","E_COORD97":164833.89000000001,"N_COORD97":2543415.1499999999,"ADDRESS":"建平七街６８１號","OBJECTID":574469},"geometry":{"x":164833.8900000006,"y":2543415.1500000004}},{"attributes":{"ID":574497,"DIS_CODE":0,"TOWNNAME":"安平區","LI":"國平里","LIN":"23鄰","STREET":"建平七街","SECT":" ","MAREA":" ","LANE":" ","ALLEY":" ","HOUSE_NO":"６８３號","E_COORD97":164821.20000000001,"N_COORD97":2543416,"ADDRESS":"建平七街６８３號","OBJECTID":574470},"geometry":{"x":164821.20000000019,"y":2543416}},{"attributes":{"ID":574498,"DIS_CODE":0,"TOWNNAME":"安平區","LI":"國平里","LIN":"23鄰","STREET":"建平七街","SECT":" ","MAREA":" ","LANE":" ","ALLEY":" ","HOUSE_NO":"６８５號","E_COORD97":164810.60000000001,"N_COORD97":2543417.6800000002,"ADDRESS":"建平七街６８５號","OBJECTID":574471},"geometry":{"x":164810.60000000056,"y":2543417.6799999997}},{"attributes":{"ID":574499,"DIS_CODE":0,"TOWNNAME":"安平區","LI":"國平里","LIN":"23鄰","STREET":"建平七街","SECT":" ","MAREA":" ","LANE":" ","ALLEY":" ","HOUSE_NO":"６８７號","E_COORD97":164802.69,"N_COORD97":2543419.3599999999,"ADDRESS":"建平七街６８７號","OBJECTID":574472},"geometry":{"x":164802.69000000041,"y":2543419.3600000013}},{"attributes":{"ID":574500,"DIS_CODE":0,"TOWNNAME":"安平區","LI":"國平里","LIN":"23鄰","STREET":"建平七街","SECT":" ","MAREA":" ","LANE":" ","ALLEY":" ","HOUSE_NO":"６８９號","E_COORD97":164789.73000000001,"N_COORD97":2543417.3399999999,"ADDRESS":"建平七街６８９號","OBJECTID":574473},"geometry":{"x":164789.73000000231,"y":2543417.3399999999}},{"attributes":{"ID":574501,"DIS_CODE":0,"TOWNNAME":"安平區","LI":"國平里","LIN":"23鄰","STREET":"健康三街","SECT":" ","MAREA":" ","LANE":" ","ALLEY":" ","HOUSE_NO":"２０４號","E_COORD97":164786.03,"N_COORD97":2543388.9399999999,"ADDRESS":"健康三街２０４號","OBJECTID":574474},"geometry":{"x":164786.03000000119,"y":2543388.9399999995}},{"attributes":{"ID":574502,"DIS_CODE":0,"TOWNNAME":"安平區","LI":"國平里","LIN":"23鄰","STREET":"健康三街","SECT":" ","MAREA":" ","LANE":" ","ALLEY":" ","HOUSE_NO":"２０６號","E_COORD97":164788.04999999999,"N_COORD97":2543403.0600000001,"ADDRESS":"健康三街２０６號","OBJECTID":574475},"geometry":{"x":164788.04999999981,"y":2543403.0600000005}},{"attributes":{"ID":574503,"DIS_CODE":0,"TOWNNAME":"安平區","LI":"國平里","LIN":"23鄰","STREET":"永華九街","SECT":" ","MAREA":" ","LANE":" ","ALLEY":" ","HOUSE_NO":"３９號","E_COORD97":164899.57000000001,"N_COORD97":2543384.29,"ADDRESS":"永華九街３９號","OBJECTID":574476},"geometry":{"x":164899.57000000123,"y":2543384.290000001}},{"attributes":{"ID":574504,"DIS_CODE":0,"TOWNNAME":"安平區","LI":"國平里","LIN":"23鄰","STREET":"育平四街","SECT":" ","MAREA":" ","LANE":" ","ALLEY":" ","HOUSE_NO":"１０號","E_COORD97":164859.78,"N_COORD97":2543375.0099999998,"ADDRESS":"育平四街１０號","OBJECTID":574477},"geometry":{"x":164859.78000000026,"y":2543375.0099999998}},{"attributes":{"ID":574505,"DIS_CODE":0,"TOWNNAME":"安平區","LI":"國平里","LIN":"23鄰","STREET":"育平四街","SECT":" ","MAREA":" ","LANE":" ","ALLEY":" ","HOUSE_NO":"１２號","E_COORD97":164850.78,"N_COORD97":2543376.29,"ADDRESS":"育平四街１２號","OBJECTID":574478},"geometry":{"x":164850.78000000119,"y":2543376.2899999991}},{"attributes":{"ID":574506,"DIS_CODE":0,"TOWNNAME":"安平區","LI":"國平里","LIN":"23鄰","STREET":"育平四街","SECT":" ","MAREA":" ","LANE":" ","ALLEY":" ","HOUSE_NO":"２號","E_COORD97":164896.64000000001,"N_COORD97":2543369.23,"ADDRESS":"育平四街２號","OBJECTID":574479},"geometry":{"x":164896.6400000006,"y":2543369.2300000023}},{"attributes":{"ID":574507,"DIS_CODE":0,"TOWNNAME":"安平區","LI":"國平里","LIN":"23鄰","STREET":"育平四街","SECT":" ","MAREA":" ","LANE":" ","ALLEY":" ","HOUSE_NO":"４號","E_COORD97":164887.85000000001,"N_COORD97":2543370.9399999999,"ADDRESS":"育平四街４號","OBJECTID":574480},"geometry":{"x":164887.8499999987,"y":2543370.9400000013}},{"attributes":{"ID":574508,"DIS_CODE":0,"TOWNNAME":"新營區","LI":"民生里","LIN":"23鄰","STREET":"民生路","SECT":" ","MAREA":" ","LANE":" ","ALLEY":" ","HOUSE_NO":"５９號","E_COORD97":179255.84,"N_COORD97":2578488.7599999998,"ADDRESS":"民生路５９號","OBJECTID":574481},"geometry":{"x":179255.84000000078,"y":2578488.7600000035}},{"attributes":{"ID":574509,"DIS_CODE":0,"TOWNNAME":"永康區","LI":"蔦松里","LIN":"2鄰","STREET":"中正北路","SECT":" ","MAREA":" ","LANE":" ","ALLEY":" ","HOUSE_NO":"５２３之５號","E_COORD97":173857.23000000001,"N_COORD97":2549178.79,"ADDRESS":"中正北路５２３之５號","OBJECTID":574482},"geometry":{"x":173857.23000000231,"y":2549178.790000001}},{"attributes":{"ID":574510,"DIS_CODE":0,"TOWNNAME":"永康區","LI":"網寮里","LIN":"26鄰","STREET":"永興路","SECT":" ","MAREA":" ","LANE":" ","ALLEY":" ","HOUSE_NO":"１１１號","E_COORD97":173905.28,"N_COORD97":2546584.3399999999,"ADDRESS":"永興路１１１號","OBJECTID":574483},"geometry":{"x":173905.28000000026,"y":2546584.3399999999}},{"attributes":{"ID":574511,"DIS_CODE":0,"TOWNNAME":"永康區","LI":"復國里","LIN":"35鄰","STREET":"復國一路","SECT":" ","MAREA":" ","LANE":" ","ALLEY":" ","HOUSE_NO":"７３號","E_COORD97":172690.44,"N_COORD97":2544938.77,"ADDRESS":"復國一路７３號","OBJECTID":574484},"geometry":{"x":172690.44000000041,"y":2544938.7700000014}},{"attributes":{"ID":574512,"DIS_CODE":0,"TOWNNAME":"永康區","LI":"復國里","LIN":"35鄰","STREET":"復國一路","SECT":" ","MAREA":" ","LANE":" ","ALLEY":" ","HOUSE_NO":"８９號","E_COORD97":172693.78,"N_COORD97":2544974.6200000001,"ADDRESS":"復國一路８９號","OBJECTID":574485},"geometry":{"x":172693.78000000212,"y":2544974.6200000029}},{"attributes":{"ID":574513,"DIS_CODE":0,"TOWNNAME":"永康區","LI":"復國里","LIN":"28鄰","STREET":"復華二街","SECT":" ","MAREA":" ","LANE":" ","ALLEY":" ","HOUSE_NO":"２０號","E_COORD97":172637.09,"N_COORD97":2545361.1099999999,"ADDRESS":"復華二街２０號","OBJECTID":574486},"geometry":{"x":172637.09000000171,"y":2545361.1099999994}},{"attributes":{"ID":574514,"DIS_CODE":0,"TOWNNAME":"安平區","LI":"國平里","LIN":"23鄰","STREET":"育平四街","SECT":" ","MAREA":" ","LANE":" ","ALLEY":" ","HOUSE_NO":"６號","E_COORD97":164878.64000000001,"N_COORD97":2543372.23,"ADDRESS":"育平四街６號","OBJECTID":574487},"geometry":{"x":164878.63999999966,"y":2543372.2300000042}},{"attributes":{"ID":574515,"DIS_CODE":0,"TOWNNAME":"安平區","LI":"國平里","LIN":"23鄰","STREET":"育平四街","SECT":" ","MAREA":" ","LANE":" ","ALLEY":" ","HOUSE_NO":"８號","E_COORD97":164868.98999999999,"N_COORD97":2543373.2999999998,"ADDRESS":"育平四街８號","OBJECTID":574488},"geometry":{"x":164868.99000000209,"y":2543373.3000000026}},{"attributes":{"ID":574516,"DIS_CODE":0,"TOWNNAME":"安平區","LI":"國平里","LIN":"23鄰","STREET":"建平七街","SECT":" ","MAREA":" ","LANE":" ","ALLEY":" ","HOUSE_NO":"６７１號","E_COORD97":164900.35999999999,"N_COORD97":2543405.3300000001,"ADDRESS":"建平七街６７１號","OBJECTID":574489},"geometry":{"x":164900.36000000034,"y":2543405.3300000019}},{"attributes":{"ID":574517,"DIS_CODE":0,"TOWNNAME":"安平區","LI":"國平里","LIN":"23鄰","STREET":"建平七街","SECT":" ","MAREA":" ","LANE":" ","ALLEY":" ","HOUSE_NO":"６７３號","E_COORD97":164891.38,"N_COORD97":2543406.5899999999,"ADDRESS":"建平七街６７３號","OBJECTID":574490},"geometry":{"x":164891.38000000175,"y":2543406.5900000036}},{"attributes":{"ID":574518,"DIS_CODE":0,"TOWNNAME":"安平區","LI":"國平里","LIN":"23鄰","STREET":"建平七街","SECT":" ","MAREA":" ","LANE":" ","ALLEY":" ","HOUSE_NO":"６７５號","E_COORD97":164881.76000000001,"N_COORD97":2543407.8599999999,"ADDRESS":"建平七街６７５號","OBJECTID":574491},"geometry":{"x":164881.75999999978,"y":2543407.8600000013}},{"attributes":{"ID":574519,"DIS_CODE":0,"TOWNNAME":"安平區","LI":"國平里","LIN":"23鄰","STREET":"郡平路","SECT":" ","MAREA":" ","LANE":" ","ALLEY":" ","HOUSE_NO":"４６號","E_COORD97":165152.25,"N_COORD97":2543271.8599999999,"ADDRESS":"郡平路４６號","OBJECTID":574492},"geometry":{"x":165152.25000000093,"y":2543271.8600000031}},{"attributes":{"ID":574520,"DIS_CODE":0,"TOWNNAME":"北區","LI":"文元里","LIN":"23鄰","STREET":"海安路","SECT":"三段","MAREA":" ","LANE":" ","ALLEY":" ","HOUSE_NO":"８４５號","E_COORD97":167994.98000000001,"N_COORD97":2546385.73,"ADDRESS":"海安路三段８４５號","OBJECTID":574493},"geometry":{"x":167994.98000000045,"y":2546385.7300000004}},{"attributes":{"ID":574521,"DIS_CODE":0,"TOWNNAME":"北區","LI":"文元里","LIN":"23鄰","STREET":"海安路","SECT":"三段","MAREA":" ","LANE":" ","ALLEY":" ","HOUSE_NO":"８４７號","E_COORD97":167994.34,"N_COORD97":2546390.9700000002,"ADDRESS":"海安路三段８４７號","OBJECTID":574494},"geometry":{"x":167994.34000000078,"y":2546390.9700000007}},{"attributes":{"ID":574522,"DIS_CODE":0,"TOWNNAME":"北區","LI":"文元里","LIN":"23鄰","STREET":"海安路","SECT":"三段","MAREA":" ","LANE":" ","ALLEY":" ","HOUSE_NO":"８４９號","E_COORD97":167994.17999999999,"N_COORD97":2546397.48,"ADDRESS":"海安路三段８４９號","OBJECTID":574495},"geometry":{"x":167994.1799999997,"y":2546397.4800000004}},{"attributes":{"ID":574523,"DIS_CODE":0,"TOWNNAME":"北區","LI":"文元里","LIN":"23鄰","STREET":"海安路","SECT":"三段","MAREA":" ","LANE":" ","ALLEY":" ","HOUSE_NO":"８５１號","E_COORD97":167993.85999999999,"N_COORD97":2546406.3700000001,"ADDRESS":"海安路三段８５１號","OBJECTID":574496},"geometry":{"x":167993.86000000034,"y":2546406.3700000048}},{"attributes":{"ID":574524,"DIS_CODE":0,"TOWNNAME":"北區","LI":"文元里","LIN":"23鄰","STREET":"海安路","SECT":"三段","MAREA":" ","LANE":" ","ALLEY":" ","HOUSE_NO":"８５３號","E_COORD97":167992.91,"N_COORD97":2546414.7799999998,"ADDRESS":"海安路三段８５３號","OBJECTID":574497},"geometry":{"x":167992.91000000015,"y":2546414.7799999993}},{"attributes":{"ID":574525,"DIS_CODE":0,"TOWNNAME":"北區","LI":"文元里","LIN":"23鄰","STREET":"海安路","SECT":"三段","MAREA":" ","LANE":" ","ALLEY":" ","HOUSE_NO":"８７７號","E_COORD97":167992.59,"N_COORD97":2546446.8500000001,"ADDRESS":"海安路三段８７７號","OBJECTID":574498},"geometry":{"x":167992.59000000078,"y":2546446.8500000015}},{"attributes":{"ID":574526,"DIS_CODE":0,"TOWNNAME":"北區","LI":"文元里","LIN":"23鄰","STREET":"海安路","SECT":"三段","MAREA":" ","LANE":" ","ALLEY":" ","HOUSE_NO":"８８１號","E_COORD97":167991.64000000001,"N_COORD97":2546458.4399999999,"ADDRESS":"海安路三段８８１號","OBJECTID":574499},"geometry":{"x":167991.64000000153,"y":2546458.4400000032}},{"attributes":{"ID":574527,"DIS_CODE":0,"TOWNNAME":"南區","LI":"大忠里","LIN":"23鄰","STREET":"中華南路","SECT":"一段","MAREA":" ","LANE":" ","ALLEY":" ","HOUSE_NO":"２０１號","E_COORD97":169067.28,"N_COORD97":2541120.02,"ADDRESS":"中華南路一段２０１號","OBJECTID":574500},"geometry":{"x":169067.28000000026,"y":2541120.0199999996}},{"attributes":{"ID":574528,"DIS_CODE":0,"TOWNNAME":"新營區","LI":"新南里","LIN":"23鄰","STREET":"復興路","SECT":" ","MAREA":" ","LANE":" ","ALLEY":" ","HOUSE_NO":"６９２號","E_COORD97":177792,"N_COORD97":2578419.4199999999,"ADDRESS":"復興路６９２號","OBJECTID":574501},"geometry":{"x":177792,"y":2578419.4199999999}},{"attributes":{"ID":574529,"DIS_CODE":0,"TOWNNAME":"新營區","LI":"新南里","LIN":"23鄰","STREET":"復興路","SECT":" ","MAREA":" ","LANE":" ","ALLEY":" ","HOUSE_NO":"６８８號","E_COORD97":177833.82000000001,"N_COORD97":2578393.7400000002,"ADDRESS":"復興路６８８號","OBJECTID":574502},"geometry":{"x":177833.82000000123,"y":2578393.7400000002}},{"attributes":{"ID":574530,"DIS_CODE":0,"TOWNNAME":"新營區","LI":"三仙里","LIN":"23鄰","STREET":"育德一街","SECT":" ","MAREA":" ","LANE":" ","ALLEY":" ","HOUSE_NO":"３３號","E_COORD97":179526.98000000001,"N_COORD97":2578919.3700000001,"ADDRESS":"育德一街３３號","OBJECTID":574503},"geometry":{"x":179526.98000000045,"y":2578919.370000001}},{"attributes":{"ID":574531,"DIS_CODE":0,"TOWNNAME":"永康區","LI":"蔦松里","LIN":"7鄰","STREET":"正北一路","SECT":" ","MAREA":" ","LANE":" ","ALLEY":" ","HOUSE_NO":"９６號","E_COORD97":174353.07999999999,"N_COORD97":2549765.25,"ADDRESS":"正北一路９６號","OBJECTID":574504},"geometry":{"x":174353.08000000101,"y":2549765.25}},{"attributes":{"ID":574532,"DIS_CODE":0,"TOWNNAME":"永康區","LI":"復華里","LIN":"33鄰","STREET":"復華十街","SECT":" ","MAREA":" ","LANE":" ","ALLEY":" ","HOUSE_NO":"３號","E_COORD97":172506.76999999999,"N_COORD97":2546164.6000000001,"ADDRESS":"復華十街３號","OBJECTID":574505},"geometry":{"x":172506.77000000048,"y":2546164.5999999996}},{"attributes":{"ID":574533,"DIS_CODE":0,"TOWNNAME":"新營區","LI":"新南里","LIN":"23鄰","STREET":"復興路","SECT":" ","MAREA":" ","LANE":" ","ALLEY":" ","HOUSE_NO":"６８４號","E_COORD97":177847.10000000001,"N_COORD97":2578391.46,"ADDRESS":"復興路６８４號","OBJECTID":574506},"geometry":{"x":177847.09999999963,"y":2578391.4600000028}},{"attributes":{"ID":574534,"DIS_CODE":0,"TOWNNAME":"新營區","LI":"三仙里","LIN":"23鄰","STREET":"育德一街","SECT":" ","MAREA":" ","LANE":" ","ALLEY":" ","HOUSE_NO":"１９號","E_COORD97":179554.53,"N_COORD97":2578925.8900000001,"ADDRESS":"育德一街１９號","OBJECTID":574507},"geometry":{"x":179554.53000000119,"y":2578925.8900000006}},{"attributes":{"ID":574535,"DIS_CODE":0,"TOWNNAME":"新營區","LI":"民權里","LIN":"23鄰","STREET":"民權路","SECT":" ","MAREA":" ","LANE":" ","ALLEY":" ","HOUSE_NO":"９６之２７號","E_COORD97":179668.56,"N_COORD97":2578677.3500000001,"ADDRESS":"民權路９６之２７號","OBJECTID":574508},"geometry":{"x":179668.56000000145,"y":2578677.3499999996}},{"attributes":{"ID":574536,"DIS_CODE":0,"TOWNNAME":"新營區","LI":"民權里","LIN":"23鄰","STREET":"民治路","SECT":" ","MAREA":" ","LANE":" ","ALLEY":" ","HOUSE_NO":"４１號","E_COORD97":179771.01999999999,"N_COORD97":2578834.0600000001,"ADDRESS":"民治路４１號","OBJECTID":574509},"geometry":{"x":179771.02000000048,"y":2578834.0600000024}},{"attributes":{"ID":574537,"DIS_CODE":0,"TOWNNAME":"鹽水區","LI":"橋南里","LIN":"23鄰","STREET":"自強街","SECT":" ","MAREA":" ","LANE":" ","ALLEY":" ","HOUSE_NO":"２號","E_COORD97":175794.45000000001,"N_COORD97":2578538.6699999999,"ADDRESS":"自強街２號","OBJECTID":574510},"geometry":{"x":175794.45000000019,"y":2578538.6700000018}},{"attributes":{"ID":574538,"DIS_CODE":0,"TOWNNAME":"永康區","LI":"復國里","LIN":"17鄰","STREET":"國華街","SECT":" ","MAREA":" ","LANE":" ","ALLEY":" ","HOUSE_NO":"７２號","E_COORD97":172861.60000000001,"N_COORD97":2545789.7999999998,"ADDRESS":"國華街７２號","OBJECTID":574511},"geometry":{"x":172861.59999999963,"y":2545789.8000000026}},{"attributes":{"ID":574539,"DIS_CODE":0,"TOWNNAME":"永康區","LI":"復國里","LIN":"35鄰","STREET":"復國一路","SECT":" ","MAREA":" ","LANE":" ","ALLEY":" ","HOUSE_NO":"９７號","E_COORD97":172694.82000000001,"N_COORD97":2544991.3700000001,"ADDRESS":"復國一路９７號","OBJECTID":574512},"geometry":{"x":172694.8200000003,"y":2544991.370000001}},{"attributes":{"ID":574540,"DIS_CODE":0,"TOWNNAME":"永康區","LI":"復國里","LIN":"31鄰","STREET":"復國一路","SECT":" ","MAREA":" ","LANE":" ","ALLEY":" ","HOUSE_NO":"１３５號","E_COORD97":172706.42999999999,"N_COORD97":2545115.27,"ADDRESS":"復國一路１３５號","OBJECTID":574513},"geometry":{"x":172706.43000000063,"y":2545115.2700000014}},{"attributes":{"ID":574541,"DIS_CODE":0,"TOWNNAME":"永康區","LI":"復華里","LIN":"33鄰","STREET":"復華十街","SECT":" ","MAREA":" ","LANE":" ","ALLEY":" ","HOUSE_NO":"１４號","E_COORD97":172520.23999999999,"N_COORD97":2546152.52,"ADDRESS":"復華十街１４號","OBJECTID":574514},"geometry":{"x":172520.24000000022,"y":2546152.5199999996}},{"attributes":{"ID":574542,"DIS_CODE":0,"TOWNNAME":"歸仁區","LI":"崙頂里","LIN":"23鄰","STREET":"崙頂二街","SECT":" ","MAREA":" ","LANE":" ","ALLEY":" ","HOUSE_NO":"５４號","E_COORD97":177758.69,"N_COORD97":2539983.48,"ADDRESS":"崙頂二街５４號","OBJECTID":574515},"geometry":{"x":177758.69000000134,"y":2539983.4800000042}},{"attributes":{"ID":574543,"DIS_CODE":0,"TOWNNAME":"新營區","LI":"王公里","LIN":"23鄰","STREET":"樂仁街","SECT":" ","MAREA":" ","LANE":" ","ALLEY":" ","HOUSE_NO":"２１號","E_COORD97":180509.84,"N_COORD97":2579126.25,"ADDRESS":"樂仁街２１號","OBJECTID":574516},"geometry":{"x":180509.84000000078,"y":2579126.25}},{"attributes":{"ID":574544,"DIS_CODE":0,"TOWNNAME":"楠西區","LI":"楠西里","LIN":"23鄰","STREET":"茄拔路","SECT":" ","MAREA":" ","LANE":" ","ALLEY":" ","HOUSE_NO":"２９號","E_COORD97":197114.48999999999,"N_COORD97":2563806.2799999998,"ADDRESS":"茄拔路２９號","OBJECTID":574517},"geometry":{"x":197114.49000000022,"y":2563806.2799999993}},{"attributes":{"ID":574545,"DIS_CODE":0,"TOWNNAME":"北區","LI":"長榮里","LIN":"23鄰","STREET":"開元路","SECT":" ","MAREA":" ","LANE":" ","ALLEY":" ","HOUSE_NO":"２９７號","E_COORD97":170169.41,"N_COORD97":2545392.3199999998,"ADDRESS":"開元路２９７號","OBJECTID":574518},"geometry":{"x":170169.41000000108,"y":2545392.320000004}},{"attributes":{"ID":574546,"DIS_CODE":0,"TOWNNAME":"南區","LI":"文南里","LIN":"23鄰","STREET":"中華西路","SECT":"一段","MAREA":" ","LANE":" ","ALLEY":" ","HOUSE_NO":"１１１號","E_COORD97":166492.17000000001,"N_COORD97":2542458.8900000001,"ADDRESS":"中華西路一段１１１號","OBJECTID":574519},"geometry":{"x":166492.17000000086,"y":2542458.8900000006}},{"attributes":{"ID":574547,"DIS_CODE":0,"TOWNNAME":"南區","LI":"文南里","LIN":"23鄰","STREET":"中華西路","SECT":"一段","MAREA":" ","LANE":" ","ALLEY":" ","HOUSE_NO":"１１１號地下層","E_COORD97":166482.47,"N_COORD97":2542446.98,"ADDRESS":"中華西路一段１１１號地下層","OBJECTID":574520},"geometry":{"x":166482.4700000016,"y":2542446.9800000004}},{"attributes":{"ID":574548,"DIS_CODE":0,"TOWNNAME":"永康區","LI":"永康里","LIN":"23鄰","STREET":"中山南路","SECT":" ","MAREA":" ","LANE":" ","ALLEY":" ","HOUSE_NO":"５８３號之２","E_COORD97":173502.51999999999,"N_COORD97":2547186.54,"ADDRESS":"中山南路５８３號之２","OBJECTID":574521},"geometry":{"x":173502.52000000048,"y":2547186.540000001}},{"attributes":{"ID":574549,"DIS_CODE":0,"TOWNNAME":"永康區","LI":"復國里","LIN":"33鄰","STREET":"復華一街","SECT":" ","MAREA":" ","LANE":" ","ALLEY":" ","HOUSE_NO":"３２號","E_COORD97":172614.57999999999,"N_COORD97":2545089.9199999999,"ADDRESS":"復華一街３２號","OBJECTID":574522},"geometry":{"x":172614.58000000007,"y":2545089.9200000018}},{"attributes":{"ID":574550,"DIS_CODE":0,"TOWNNAME":"永康區","LI":"甲頂里","LIN":"23鄰","STREET":"中正南路","SECT":" ","MAREA":" ","LANE":" ","ALLEY":" ","HOUSE_NO":"８２號","E_COORD97":169678.32000000001,"N_COORD97":2546814.1600000001,"ADDRESS":"中正南路８２號","OBJECTID":574523},"geometry":{"x":169678.32000000123,"y":2546814.160000002}},{"attributes":{"ID":574551,"DIS_CODE":0,"TOWNNAME":"東區","LI":"德光里","LIN":"23鄰","STREET":"崇學路","SECT":" ","MAREA":" ","LANE":" ","ALLEY":" ","HOUSE_NO":"１０１號","E_COORD97":170222.04000000001,"N_COORD97":2542123.4700000002,"ADDRESS":"崇學路１０１號","OBJECTID":574524},"geometry":{"x":170222.04000000097,"y":2542123.4700000025}},{"attributes":{"ID":574552,"DIS_CODE":0,"TOWNNAME":"東區","LI":"德光里","LIN":"23鄰","STREET":"崇學路","SECT":" ","MAREA":" ","LANE":" ","ALLEY":" ","HOUSE_NO":"１０３號","E_COORD97":170225.87,"N_COORD97":2542127.2999999998,"ADDRESS":"崇學路１０３號","OBJECTID":574525},"geometry":{"x":170225.87000000011,"y":2542127.3000000007}},{"attributes":{"ID":574553,"DIS_CODE":0,"TOWNNAME":"東區","LI":"德光里","LIN":"23鄰","STREET":"崇學路","SECT":" ","MAREA":" ","LANE":" ","ALLEY":" ","HOUSE_NO":"１０５號","E_COORD97":170229.45000000001,"N_COORD97":2542131.3900000001,"ADDRESS":"崇學路１０５號","OBJECTID":574526},"geometry":{"x":170229.45000000205,"y":2542131.3900000025}},{"attributes":{"ID":574554,"DIS_CODE":0,"TOWNNAME":"東區","LI":"德光里","LIN":"23鄰","STREET":"崇學路","SECT":" ","MAREA":" ","LANE":" ","ALLEY":" ","HOUSE_NO":"１０７號","E_COORD97":170233.04000000001,"N_COORD97":2542135.98,"ADDRESS":"崇學路１０７號","OBJECTID":574527},"geometry":{"x":170233.04000000004,"y":2542135.9800000004}},{"attributes":{"ID":574555,"DIS_CODE":0,"TOWNNAME":"東區","LI":"德光里","LIN":"23鄰","STREET":"崇學路","SECT":" ","MAREA":" ","LANE":" ","ALLEY":" ","HOUSE_NO":"１０９號","E_COORD97":170237.38,"N_COORD97":2542140.3300000001,"ADDRESS":"崇學路１０９號","OBJECTID":574528},"geometry":{"x":170237.37999999989,"y":2542140.3300000038}},{"attributes":{"ID":574556,"DIS_CODE":0,"TOWNNAME":"東區","LI":"德光里","LIN":"23鄰","STREET":"崇學路","SECT":" ","MAREA":" ","LANE":" ","ALLEY":" ","HOUSE_NO":"１１１號","E_COORD97":170241.48000000001,"N_COORD97":2542144.9199999999,"ADDRESS":"崇學路１１１號","OBJECTID":574529},"geometry":{"x":170241.48000000231,"y":2542144.9199999999}},{"attributes":{"ID":574557,"DIS_CODE":0,"TOWNNAME":"東區","LI":"德光里","LIN":"23鄰","STREET":"崇學路","SECT":" ","MAREA":" ","LANE":" ","ALLEY":" ","HOUSE_NO":"１１３號","E_COORD97":170245.31,"N_COORD97":2542149.7799999998,"ADDRESS":"崇學路１１３號","OBJECTID":574530},"geometry":{"x":170245.31000000052,"y":2542149.7799999993}},{"attributes":{"ID":574558,"DIS_CODE":0,"TOWNNAME":"東區","LI":"德光里","LIN":"23鄰","STREET":"崇學路","SECT":" ","MAREA":" ","LANE":" ","ALLEY":" ","HOUSE_NO":"１１５號","E_COORD97":170248.89000000001,"N_COORD97":2542153.6099999999,"ADDRESS":"崇學路１１５號","OBJECTID":574531},"geometry":{"x":170248.88999999966,"y":2542153.6099999994}},{"attributes":{"ID":574559,"DIS_CODE":0,"TOWNNAME":"東區","LI":"德光里","LIN":"23鄰","STREET":"崇學路","SECT":" ","MAREA":" ","LANE":" ","ALLEY":" ","HOUSE_NO":"１１７號","E_COORD97":170252.47,"N_COORD97":2542157.7000000002,"ADDRESS":"崇學路１１７號","OBJECTID":574532},"geometry":{"x":170252.46999999881,"y":2542157.7000000011}},{"attributes":{"ID":574560,"DIS_CODE":0,"TOWNNAME":"東區","LI":"德光里","LIN":"23鄰","STREET":"崇學路","SECT":" ","MAREA":" ","LANE":" ","ALLEY":" ","HOUSE_NO":"１１９號","E_COORD97":170256.04999999999,"N_COORD97":2542161.7799999998,"ADDRESS":"崇學路１１９號","OBJECTID":574533},"geometry":{"x":170256.05000000075,"y":2542161.7800000012}},{"attributes":{"ID":574561,"DIS_CODE":0,"TOWNNAME":"東區","LI":"德光里","LIN":"23鄰","STREET":"崇學路","SECT":" ","MAREA":" ","LANE":" ","ALLEY":" ","HOUSE_NO":"１２１號","E_COORD97":170259.89000000001,"N_COORD97":2542166.3799999999,"ADDRESS":"崇學路１２１號","OBJECTID":574534},"geometry":{"x":170259.89000000153,"y":2542166.3800000008}},{"attributes":{"ID":574562,"DIS_CODE":0,"TOWNNAME":"東區","LI":"德光里","LIN":"23鄰","STREET":"崇學路","SECT":" ","MAREA":" ","LANE":" ","ALLEY":" ","HOUSE_NO":"１２３號","E_COORD97":170263.47,"N_COORD97":2542170.4700000002,"ADDRESS":"崇學路１２３號","OBJECTID":574535},"geometry":{"x":170263.47000000067,"y":2542170.4699999988}},{"attributes":{"ID":574563,"DIS_CODE":0,"TOWNNAME":"東區","LI":"德光里","LIN":"23鄰","STREET":"崇學路","SECT":" ","MAREA":" ","LANE":" ","ALLEY":" ","HOUSE_NO":"１２５號","E_COORD97":170267.31,"N_COORD97":2542174.2999999998,"ADDRESS":"崇學路１２５號","OBJECTID":574536},"geometry":{"x":170267.31000000052,"y":2542174.3000000007}},{"attributes":{"ID":574564,"DIS_CODE":0,"TOWNNAME":"東區","LI":"德光里","LIN":"23鄰","STREET":"崇學路","SECT":" ","MAREA":" ","LANE":" ","ALLEY":" ","HOUSE_NO":"１２７號","E_COORD97":170270.89000000001,"N_COORD97":2542177.8700000001,"ADDRESS":"崇學路１２７號","OBJECTID":574537},"geometry":{"x":170270.88999999966,"y":2542177.870000001}},{"attributes":{"ID":574565,"DIS_CODE":0,"TOWNNAME":"東區","LI":"德光里","LIN":"23鄰","STREET":"崇學路","SECT":" ","MAREA":" ","LANE":" ","ALLEY":" ","HOUSE_NO":"１２９號","E_COORD97":170273.45000000001,"N_COORD97":2542181.4500000002,"ADDRESS":"崇學路１２９號","OBJECTID":574538},"geometry":{"x":170273.45000000205,"y":2542181.4499999993}},{"attributes":{"ID":574566,"DIS_CODE":0,"TOWNNAME":"東區","LI":"德光里","LIN":"23鄰","STREET":"崇學路","SECT":" ","MAREA":" ","LANE":" ","ALLEY":" ","HOUSE_NO":"１３１號","E_COORD97":170276,"N_COORD97":2542185.2799999998,"ADDRESS":"崇學路１３１號","OBJECTID":574539},"geometry":{"x":170276,"y":2542185.2800000012}},{"attributes":{"ID":574567,"DIS_CODE":0,"TOWNNAME":"東區","LI":"德光里","LIN":"23鄰","STREET":"崇學路","SECT":" ","MAREA":" ","LANE":" ","ALLEY":" ","HOUSE_NO":"１３３號","E_COORD97":170278.82000000001,"N_COORD97":2542188.8599999999,"ADDRESS":"崇學路１３３號","OBJECTID":574540},"geometry":{"x":170278.8200000003,"y":2542188.8599999994}},{"attributes":{"ID":574568,"DIS_CODE":0,"TOWNNAME":"永康區","LI":"復華里","LIN":"11鄰","STREET":"復國二路","SECT":" ","MAREA":" ","LANE":" ","ALLEY":" ","HOUSE_NO":"２１３號","E_COORD97":172986.35000000001,"N_COORD97":2546005.75,"ADDRESS":"復國二路２１３號","OBJECTID":574541},"geometry":{"x":172986.35000000056,"y":2546005.7499999981}},{"attributes":{"ID":574569,"DIS_CODE":0,"TOWNNAME":"永康區","LI":"復國里","LIN":"14鄰","STREET":"復國二路","SECT":" ","MAREA":" ","LANE":" ","ALLEY":" ","HOUSE_NO":"１７４號","E_COORD97":172926.98999999999,"N_COORD97":2545690.9300000002,"ADDRESS":"復國二路１７４號","OBJECTID":574542},"geometry":{"x":172926.99000000115,"y":2545690.9299999997}},{"attributes":{"ID":574570,"DIS_CODE":0,"TOWNNAME":"永康區","LI":"復國里","LIN":"31鄰","STREET":"復國一路","SECT":" ","MAREA":" ","LANE":" ","ALLEY":" ","HOUSE_NO":"１５５號","E_COORD97":172706.26000000001,"N_COORD97":2545160.52,"ADDRESS":"復國一路１５５號","OBJECTID":574543},"geometry":{"x":172706.25999999978,"y":2545160.5200000014}},{"attributes":{"ID":574571,"DIS_CODE":0,"TOWNNAME":"東區","LI":"德光里","LIN":"23鄰","STREET":"崇學路","SECT":" ","MAREA":" ","LANE":" ","ALLEY":" ","HOUSE_NO":"１３３號之１","E_COORD97":170281.37,"N_COORD97":2542191.6699999999,"ADDRESS":"崇學路１３３號之１","OBJECTID":574544},"geometry":{"x":170281.37000000104,"y":2542191.6699999999}},{"attributes":{"ID":574572,"DIS_CODE":0,"TOWNNAME":"仁德區","LI":"太子里","LIN":"23鄰","STREET":"太子路","SECT":" ","MAREA":" ","LANE":" ","ALLEY":" ","HOUSE_NO":"３７２號","E_COORD97":173736.70000000001,"N_COORD97":2543536.2599999998,"ADDRESS":"太子路３７２號","OBJECTID":574545},"geometry":{"x":173736.70000000205,"y":2543536.2599999998}},{"attributes":{"ID":574573,"DIS_CODE":0,"TOWNNAME":"仁德區","LI":"上崙里","LIN":"23鄰","STREET":"德崙路","SECT":" ","MAREA":" ","LANE":" ","ALLEY":" ","HOUSE_NO":"１７２號","E_COORD97":173597.07000000001,"N_COORD97":2538322.2599999998,"ADDRESS":"德崙路１７２號","OBJECTID":574546},"geometry":{"x":173597.07000000216,"y":2538322.2599999998}},{"attributes":{"ID":574574,"DIS_CODE":0,"TOWNNAME":"南區","LI":"明興里","LIN":"23鄰","STREET":"德興路","SECT":" ","MAREA":" ","LANE":" ","ALLEY":" ","HOUSE_NO":"８２號","E_COORD97":167150.25,"N_COORD97":2540642.4500000002,"ADDRESS":"德興路８２號","OBJECTID":574547},"geometry":{"x":167150.25,"y":2540642.4499999993}},{"attributes":{"ID":574575,"DIS_CODE":0,"TOWNNAME":"南區","LI":"明興里","LIN":"23鄰","STREET":"德興路","SECT":" ","MAREA":" ","LANE":" ","ALLEY":" ","HOUSE_NO":"８４號","E_COORD97":167150.92000000001,"N_COORD97":2540638.3500000001,"ADDRESS":"德興路８４號","OBJECTID":574548},"geometry":{"x":167150.92000000179,"y":2540638.3500000015}},{"attributes":{"ID":574576,"DIS_CODE":0,"TOWNNAME":"永康區","LI":"埔園里","LIN":"23鄰","STREET":"四維街","SECT":" ","MAREA":" ","LANE":" ","ALLEY":" ","HOUSE_NO":"６號","E_COORD97":173458.70000000001,"N_COORD97":2547939.0699999998,"ADDRESS":"四維街６號","OBJECTID":574549},"geometry":{"x":173458.70000000205,"y":2547939.0700000003}},{"attributes":{"ID":574577,"DIS_CODE":0,"TOWNNAME":"永康區","LI":"埔園里","LIN":"23鄰","STREET":"四維街","SECT":" ","MAREA":" ","LANE":" ","ALLEY":" ","HOUSE_NO":"１２號","E_COORD97":173456.10000000001,"N_COORD97":2547949.8199999998,"ADDRESS":"四維街１２號","OBJECTID":574550},"geometry":{"x":173456.10000000056,"y":2547949.8200000022}},{"attributes":{"ID":574578,"DIS_CODE":0,"TOWNNAME":"永康區","LI":"尚頂里","LIN":"23鄰","STREET":"南台街","SECT":" ","MAREA":" ","LANE":" ","ALLEY":" ","HOUSE_NO":"４３號","E_COORD97":170339.42000000001,"N_COORD97":2546966.1600000001,"ADDRESS":"南台街４３號","OBJECTID":574551},"geometry":{"x":170339.41999999899,"y":2546966.1600000039}},{"attributes":{"ID":574579,"DIS_CODE":0,"TOWNNAME":"永康區","LI":"尚頂里","LIN":"23鄰","STREET":"南台街","SECT":" ","MAREA":" ","LANE":" ","ALLEY":" ","HOUSE_NO":"６１號","E_COORD97":170284.14999999999,"N_COORD97":2546985.2400000002,"ADDRESS":"南台街６１號","OBJECTID":574552},"geometry":{"x":170284.15000000224,"y":2546985.2400000002}},{"attributes":{"ID":574580,"DIS_CODE":0,"TOWNNAME":"永康區","LI":"尚頂里","LIN":"23鄰","STREET":"南台街","SECT":" ","MAREA":" ","LANE":" ","ALLEY":" ","HOUSE_NO":"３５號","E_COORD97":170356.26000000001,"N_COORD97":2546958.9100000001,"ADDRESS":"南台街３５號","OBJECTID":574553},"geometry":{"x":170356.26000000071,"y":2546958.910000002}},{"attributes":{"ID":574581,"DIS_CODE":0,"TOWNNAME":"永康區","LI":"尚頂里","LIN":"23鄰","STREET":"南台街","SECT":" ","MAREA":" ","LANE":" ","ALLEY":" ","HOUSE_NO":"３３號","E_COORD97":170359.92999999999,"N_COORD97":2546957.1600000001,"ADDRESS":"南台街３３號","OBJECTID":574554},"geometry":{"x":170359.93000000063,"y":2546957.160000002}},{"attributes":{"ID":574582,"DIS_CODE":0,"TOWNNAME":"永康區","LI":"尚頂里","LIN":"23鄰","STREET":"南台街","SECT":" ","MAREA":" ","LANE":" ","ALLEY":" ","HOUSE_NO":"３０號","E_COORD97":170417.72,"N_COORD97":2546955.25,"ADDRESS":"南台街３０號","OBJECTID":574555},"geometry":{"x":170417.72000000067,"y":2546955.2500000037}},{"attributes":{"ID":574583,"DIS_CODE":0,"TOWNNAME":"南區","LI":"建南里","LIN":"23鄰","STREET":"永成路","SECT":"二段","MAREA":" ","LANE":" ","ALLEY":" ","HOUSE_NO":"５３６號","E_COORD97":167522.78,"N_COORD97":2539032.04,"ADDRESS":"永成路二段５３６號","OBJECTID":574556},"geometry":{"x":167522.78000000026,"y":2539032.0399999991}},{"attributes":{"ID":574584,"DIS_CODE":0,"TOWNNAME":"南區","LI":"廣州里","LIN":"23鄰","STREET":"福吉五街","SECT":" ","MAREA":" ","LANE":" ","ALLEY":" ","HOUSE_NO":"３３號","E_COORD97":167205.42999999999,"N_COORD97":2542543.3199999998,"ADDRESS":"福吉五街３３號","OBJECTID":574557},"geometry":{"x":167205.43000000063,"y":2542543.3200000003}},{"attributes":{"ID":574585,"DIS_CODE":0,"TOWNNAME":"善化區","LI":"光文里","LIN":"23鄰","STREET":"中山路","SECT":" ","MAREA":" ","LANE":" ","ALLEY":" ","HOUSE_NO":"１６８號之１","E_COORD97":178416.34,"N_COORD97":2559167.0099999998,"ADDRESS":"中山路１６８號之１","OBJECTID":574558},"geometry":{"x":178416.34000000078,"y":2559167.0100000016}},{"attributes":{"ID":574586,"DIS_CODE":0,"TOWNNAME":"仁德區","LI":"上崙里","LIN":"23鄰","STREET":"德崙路","SECT":" ","MAREA":" ","LANE":" ","ALLEY":" ","HOUSE_NO":"１５４號","E_COORD97":173559.67999999999,"N_COORD97":2538342.27,"ADDRESS":"德崙路１５４號","OBJECTID":574559},"geometry":{"x":173559.6799999997,"y":2538342.2699999996}},{"attributes":{"ID":574587,"DIS_CODE":0,"TOWNNAME":"仁德區","LI":"大甲里","LIN":"23鄰","STREET":"中正西路","SECT":" ","MAREA":" ","LANE":" ","ALLEY":" ","HOUSE_NO":"６９１號","E_COORD97":168837.53,"N_COORD97":2535629.9900000002,"ADDRESS":"中正西路６９１號","OBJECTID":574560},"geometry":{"x":168837.53000000119,"y":2535629.9900000039}},{"attributes":{"ID":574588,"DIS_CODE":0,"TOWNNAME":"仁德區","LI":"大甲里","LIN":"23鄰","STREET":"中正西路","SECT":" ","MAREA":" ","LANE":" ","ALLEY":" ","HOUSE_NO":"６８９號","E_COORD97":168897.20999999999,"N_COORD97":2535621.9900000002,"ADDRESS":"中正西路６８９號","OBJECTID":574561},"geometry":{"x":168897.21000000089,"y":2535621.9900000002}},{"attributes":{"ID":574589,"DIS_CODE":0,"TOWNNAME":"新化區","LI":"東榮里","LIN":"23鄰","STREET":"光明路","SECT":" ","MAREA":" ","LANE":" ","ALLEY":" ","HOUSE_NO":"２９號","E_COORD97":179332.67000000001,"N_COORD97":2548059.25,"ADDRESS":"光明路２９號","OBJECTID":574562},"geometry":{"x":179332.67000000086,"y":2548059.25}},{"attributes":{"ID":574590,"DIS_CODE":0,"TOWNNAME":"東區","LI":"忠孝里","LIN":"23鄰","STREET":"崇明五街","SECT":" ","MAREA":" ","LANE":" ","ALLEY":" ","HOUSE_NO":"３０號","E_COORD97":169694.37,"N_COORD97":2542254.4399999999,"ADDRESS":"崇明五街３０號","OBJECTID":574563},"geometry":{"x":169694.37000000104,"y":2542254.4400000032}},{"attributes":{"ID":574591,"DIS_CODE":0,"TOWNNAME":"東區","LI":"忠孝里","LIN":"23鄰","STREET":"崇明五街","SECT":" ","MAREA":" ","LANE":" ","ALLEY":" ","HOUSE_NO":"３４號","E_COORD97":169708.95000000001,"N_COORD97":2542265.8799999999,"ADDRESS":"崇明五街３４號","OBJECTID":574564},"geometry":{"x":169708.95000000205,"y":2542265.8800000008}},{"attributes":{"ID":574592,"DIS_CODE":0,"TOWNNAME":"東區","LI":"忠孝里","LIN":"23鄰","STREET":"崇明五街","SECT":" ","MAREA":" ","LANE":" ","ALLEY":" ","HOUSE_NO":"３６號","E_COORD97":169715.01000000001,"N_COORD97":2542267.2999999998,"ADDRESS":"崇明五街３６號","OBJECTID":574565},"geometry":{"x":169715.01000000164,"y":2542267.3000000026}},{"attributes":{"ID":574593,"DIS_CODE":0,"TOWNNAME":"東區","LI":"忠孝里","LIN":"23鄰","STREET":"崇明六街","SECT":" ","MAREA":" ","LANE":" ","ALLEY":" ","HOUSE_NO":"１３號","E_COORD97":169667.12,"N_COORD97":2542210.5600000001,"ADDRESS":"崇明六街１３號","OBJECTID":574566},"geometry":{"x":169667.12000000197,"y":2542210.5600000042}},{"attributes":{"ID":574594,"DIS_CODE":0,"TOWNNAME":"東區","LI":"忠孝里","LIN":"23鄰","STREET":"崇明六街","SECT":" ","MAREA":" ","LANE":" ","ALLEY":" ","HOUSE_NO":"２３號","E_COORD97":169688.57000000001,"N_COORD97":2542218.46,"ADDRESS":"崇明六街２３號","OBJECTID":574567},"geometry":{"x":169688.57000000123,"y":2542218.4600000046}},{"attributes":{"ID":574595,"DIS_CODE":0,"TOWNNAME":"永康區","LI":"復國里","LIN":"35鄰","STREET":"復國一路","SECT":" ","MAREA":" ","LANE":" ","ALLEY":" ","HOUSE_NO":"９１號","E_COORD97":172694.07000000001,"N_COORD97":2544978.8700000001,"ADDRESS":"復國一路９１號","OBJECTID":574568},"geometry":{"x":172694.07000000123,"y":2544978.8700000048}},{"attributes":{"ID":574596,"DIS_CODE":0,"TOWNNAME":"永康區","LI":"蔦松里","LIN":"9鄰","STREET":"正北一路","SECT":" ","MAREA":" ","LANE":" ","ALLEY":" ","HOUSE_NO":"１００號","E_COORD97":174361.89999999999,"N_COORD97":2549831.75,"ADDRESS":"正北一路１００號","OBJECTID":574569},"geometry":{"x":174361.9000000013,"y":2549831.7500000019}},{"attributes":{"ID":574597,"DIS_CODE":0,"TOWNNAME":"永康區","LI":"復華里","LIN":"29鄰","STREET":"復華八街","SECT":" ","MAREA":" ","LANE":" ","ALLEY":" ","HOUSE_NO":"２３號","E_COORD97":172687.45000000001,"N_COORD97":2546195.27,"ADDRESS":"復華八街２３號","OBJECTID":574570},"geometry":{"x":172687.45000000205,"y":2546195.2700000033}},{"attributes":{"ID":574598,"DIS_CODE":0,"TOWNNAME":"永康區","LI":"北灣里","LIN":"23鄰","STREET":"大灣路","SECT":" ","MAREA":" ","LANE":" ","ALLEY":" ","HOUSE_NO":"２６號","E_COORD97":175316.12,"N_COORD97":2545929.0499999998,"ADDRESS":"大灣路２６號","OBJECTID":574571},"geometry":{"x":175316.12000000104,"y":2545929.0500000007}},{"attributes":{"ID":574599,"DIS_CODE":0,"TOWNNAME":"永康區","LI":"尚頂里","LIN":"23鄰","STREET":"南台街","SECT":" ","MAREA":" ","LANE":" ","ALLEY":" ","HOUSE_NO":"２９號","E_COORD97":170368.07999999999,"N_COORD97":2546953.6600000001,"ADDRESS":"南台街２９號","OBJECTID":574572},"geometry":{"x":170368.08000000101,"y":2546953.660000002}},{"attributes":{"ID":574600,"DIS_CODE":0,"TOWNNAME":"永康區","LI":"復國里","LIN":"35鄰","STREET":"復國一路","SECT":" ","MAREA":" ","LANE":" ","ALLEY":" ","HOUSE_NO":"９５號","E_COORD97":172694.48999999999,"N_COORD97":2544987.3700000001,"ADDRESS":"復國一路９５號","OBJECTID":574573},"geometry":{"x":172694.49000000115,"y":2544987.3700000029}},{"attributes":{"ID":574601,"DIS_CODE":0,"TOWNNAME":"永康區","LI":"龍潭里","LIN":"23鄰","STREET":"龍安街","SECT":" ","MAREA":" ","LANE":" ","ALLEY":" ","HOUSE_NO":"１３３號","E_COORD97":174606.98000000001,"N_COORD97":2548391.0899999999,"ADDRESS":"龍安街１３３號","OBJECTID":574574},"geometry":{"x":174606.98000000138,"y":2548391.0900000017}},{"attributes":{"ID":574602,"DIS_CODE":0,"TOWNNAME":"永康區","LI":"龍潭里","LIN":"23鄰","STREET":"龍安街","SECT":" ","MAREA":" ","LANE":" ","ALLEY":" ","HOUSE_NO":"１６１號","E_COORD97":174608.57999999999,"N_COORD97":2548447.6800000002,"ADDRESS":"龍安街１６１號","OBJECTID":574575},"geometry":{"x":174608.58000000007,"y":2548447.6800000016}},{"attributes":{"ID":574603,"DIS_CODE":0,"TOWNNAME":"永康區","LI":"復興里","LIN":"6鄰","STREET":"復興路","SECT":" ","MAREA":" ","LANE":" ","ALLEY":" ","HOUSE_NO":"３９３號","E_COORD97":172119.22,"N_COORD97":2544310.27,"ADDRESS":"復興路３９３號","OBJECTID":574576},"geometry":{"x":172119.22000000067,"y":2544310.2700000033}},{"attributes":{"ID":574604,"DIS_CODE":0,"TOWNNAME":"東區","LI":"中西里","LIN":"23鄰","STREET":"長榮路","SECT":"二段","MAREA":" ","LANE":" ","ALLEY":" ","HOUSE_NO":"３０２號","E_COORD97":170193.54000000001,"N_COORD97":2543523.9900000002,"ADDRESS":"長榮路二段３０２號","OBJECTID":574577},"geometry":{"x":170193.54000000097,"y":2543523.9900000021}},{"attributes":{"ID":574605,"DIS_CODE":0,"TOWNNAME":"東區","LI":"中西里","LIN":"23鄰","STREET":"長榮路","SECT":"二段","MAREA":" ","LANE":" ","ALLEY":" ","HOUSE_NO":"３０２號地下一層","E_COORD97":170193.54000000001,"N_COORD97":2543523.9900000002,"ADDRESS":"長榮路二段３０２號地下一層","OBJECTID":574578},"geometry":{"x":170193.54000000097,"y":2543523.9900000021}},{"attributes":{"ID":574606,"DIS_CODE":0,"TOWNNAME":"東區","LI":"中西里","LIN":"23鄰","STREET":"長榮路","SECT":"二段","MAREA":" ","LANE":" ","ALLEY":" ","HOUSE_NO":"３０４號","E_COORD97":170198.78,"N_COORD97":2543529.9199999999,"ADDRESS":"長榮路二段３０４號","OBJECTID":574579},"geometry":{"x":170198.78000000119,"y":2543529.9200000037}},{"attributes":{"ID":574607,"DIS_CODE":0,"TOWNNAME":"永康區","LI":"龍潭里","LIN":"23鄰","STREET":"龍中街","SECT":" ","MAREA":" ","LANE":" ","ALLEY":" ","HOUSE_NO":"１６２號","E_COORD97":174409.22,"N_COORD97":2548341.27,"ADDRESS":"龍中街１６２號","OBJECTID":574580},"geometry":{"x":174409.2200000016,"y":2548341.2700000033}},{"attributes":{"ID":574608,"DIS_CODE":0,"TOWNNAME":"永康區","LI":"龍潭里","LIN":"23鄰","STREET":"龍中街","SECT":" ","MAREA":" ","LANE":" ","ALLEY":" ","HOUSE_NO":"１７８號","E_COORD97":174405.23000000001,"N_COORD97":2548386.8199999998,"ADDRESS":"龍中街１７８號","OBJECTID":574581},"geometry":{"x":174405.23000000138,"y":2548386.8200000022}},{"attributes":{"ID":574609,"DIS_CODE":0,"TOWNNAME":"永康區","LI":"龍潭里","LIN":"23鄰","STREET":"自強路","SECT":" ","MAREA":" ","LANE":" ","ALLEY":" ","HOUSE_NO":"７３０號","E_COORD97":174394.64999999999,"N_COORD97":2548458.8799999999,"ADDRESS":"自強路７３０號","OBJECTID":574582},"geometry":{"x":174394.65000000037,"y":2548458.8800000008}},{"attributes":{"ID":574610,"DIS_CODE":0,"TOWNNAME":"永康區","LI":"\u25A0洲里","LIN":"23鄰","STREET":"中正南路","SECT":" ","MAREA":" ","LANE":" ","ALLEY":" ","HOUSE_NO":"６４７號","E_COORD97":171332.14999999999,"N_COORD97":2548634.7400000002,"ADDRESS":"中正南路６４７號","OBJECTID":574583},"geometry":{"x":171332.1500000013,"y":2548634.7400000021}},{"attributes":{"ID":574611,"DIS_CODE":0,"TOWNNAME":"永康區","LI":"\u25A0洲里","LIN":"23鄰","STREET":"中正南路","SECT":" ","MAREA":" ","LANE":" ","ALLEY":" ","HOUSE_NO":"５６１號","E_COORD97":171124.14000000001,"N_COORD97":2548429.7400000002,"ADDRESS":"中正南路５６１號","OBJECTID":574584},"geometry":{"x":171124.13999999966,"y":2548429.7400000002}},{"attributes":{"ID":574612,"DIS_CODE":0,"TOWNNAME":"永康區","LI":"龍潭里","LIN":"23鄰","STREET":"自強路","SECT":" ","MAREA":" ","LANE":" ","ALLEY":" ","HOUSE_NO":"７４０號","E_COORD97":174407.73000000001,"N_COORD97":2548469.3799999999,"ADDRESS":"自強路７４０號","OBJECTID":574585},"geometry":{"x":174407.73000000045,"y":2548469.3800000008}},{"attributes":{"ID":574613,"DIS_CODE":0,"TOWNNAME":"永康區","LI":"蔦松里","LIN":"8鄰","STREET":"中正北路","SECT":" ","MAREA":" ","LANE":" ","ALLEY":" ","HOUSE_NO":"４３９號","E_COORD97":173616.98999999999,"N_COORD97":2549151.3799999999,"ADDRESS":"中正北路４３９號","OBJECTID":574586},"geometry":{"x":173616.99000000115,"y":2549151.3800000008}},{"attributes":{"ID":574614,"DIS_CODE":0,"TOWNNAME":"東區","LI":"虎尾里","LIN":"23鄰","STREET":"東成街","SECT":" ","MAREA":" ","LANE":" ","ALLEY":" ","HOUSE_NO":"１８４號","E_COORD97":171767.76000000001,"N_COORD97":2542297.5800000001,"ADDRESS":"東成街１８４號","OBJECTID":574587},"geometry":{"x":171767.76000000164,"y":2542297.5800000001}},{"attributes":{"ID":574615,"DIS_CODE":0,"TOWNNAME":"東區","LI":"虎尾里","LIN":"23鄰","STREET":"東成街","SECT":" ","MAREA":" ","LANE":" ","ALLEY":" ","HOUSE_NO":"１８６號","E_COORD97":171777.72,"N_COORD97":2542297.8799999999,"ADDRESS":"東成街１８６號","OBJECTID":574588},"geometry":{"x":171777.71999999974,"y":2542297.879999999}},{"attributes":{"ID":574616,"DIS_CODE":0,"TOWNNAME":"東區","LI":"虎尾里","LIN":"23鄰","STREET":"東成街","SECT":" ","MAREA":" ","LANE":" ","ALLEY":" ","HOUSE_NO":"１８８號","E_COORD97":171784.92999999999,"N_COORD97":2542298.0600000001,"ADDRESS":"東成街１８８號","OBJECTID":574589},"geometry":{"x":171784.9299999997,"y":2542298.0600000005}},{"attributes":{"ID":574617,"DIS_CODE":0,"TOWNNAME":"永康區","LI":"龍潭里","LIN":"23鄰","STREET":"龍安街","SECT":" ","MAREA":" ","LANE":" ","ALLEY":" ","HOUSE_NO":"１５９號","E_COORD97":174607.98999999999,"N_COORD97":2548443.6400000001,"ADDRESS":"龍安街１５９號","OBJECTID":574590},"geometry":{"x":174607.99000000209,"y":2548443.6400000006}},{"attributes":{"ID":574618,"DIS_CODE":0,"TOWNNAME":"永康區","LI":"\u25A0洲里","LIN":"23鄰","STREET":"中正南路","SECT":" ","MAREA":" ","LANE":" ","ALLEY":" ","HOUSE_NO":"５５９號","E_COORD97":171064.72,"N_COORD97":2548483.5,"ADDRESS":"中正南路５５９號","OBJECTID":574591},"geometry":{"x":171064.72000000067,"y":2548483.5000000019}},{"attributes":{"ID":574619,"DIS_CODE":0,"TOWNNAME":"永康區","LI":"復華里","LIN":"23鄰","STREET":"復華七街","SECT":" ","MAREA":" ","LANE":" ","ALLEY":" ","HOUSE_NO":"６９號","E_COORD97":172748.85000000001,"N_COORD97":2546073.77,"ADDRESS":"復華七街６９號","OBJECTID":574592},"geometry":{"x":172748.85000000056,"y":2546073.7700000014}},{"attributes":{"ID":574620,"DIS_CODE":0,"TOWNNAME":"永康區","LI":"復華里","LIN":"23鄰","STREET":"復華八街","SECT":" ","MAREA":" ","LANE":" ","ALLEY":" ","HOUSE_NO":"６號","E_COORD97":172665.14999999999,"N_COORD97":2546126.4900000002,"ADDRESS":"復華八街６號","OBJECTID":574593},"geometry":{"x":172665.15000000037,"y":2546126.4900000039}},{"attributes":{"ID":574621,"DIS_CODE":0,"TOWNNAME":"安南區","LI":"溪北里","LIN":"23鄰","STREET":"敦安街","SECT":" ","MAREA":" ","LANE":" ","ALLEY":" ","HOUSE_NO":"４２號","E_COORD97":169252.78,"N_COORD97":2547563.9900000002,"ADDRESS":"敦安街４２號","OBJECTID":574594},"geometry":{"x":169252.78000000119,"y":2547563.9900000039}},{"attributes":{"ID":574622,"DIS_CODE":0,"TOWNNAME":"善化區","LI":"光文里","LIN":"23鄰","STREET":"中山路","SECT":" ","MAREA":" ","LANE":" ","ALLEY":" ","HOUSE_NO":"１７４號","E_COORD97":178393.32999999999,"N_COORD97":2559160.5,"ADDRESS":"中山路１７４號","OBJECTID":574595},"geometry":{"x":178393.33000000007,"y":2559160.5000000019}},{"attributes":{"ID":574623,"DIS_CODE":0,"TOWNNAME":"永康區","LI":"復國里","LIN":"26鄰","STREET":"復華三街","SECT":" ","MAREA":" ","LANE":" ","ALLEY":" ","HOUSE_NO":"６０號","E_COORD97":172712.70000000001,"N_COORD97":2545561.4900000002,"ADDRESS":"復華三街６０號","OBJECTID":574596},"geometry":{"x":172712.70000000019,"y":2545561.4900000021}},{"attributes":{"ID":574624,"DIS_CODE":0,"TOWNNAME":"永康區","LI":"復興里","LIN":"7鄰","STREET":"復興路","SECT":" ","MAREA":" ","LANE":" ","ALLEY":" ","HOUSE_NO":"３６７號","E_COORD97":172170.20000000001,"N_COORD97":2544313.2200000002,"ADDRESS":"復興路３６７號","OBJECTID":574597},"geometry":{"x":172170.20000000019,"y":2544313.2200000025}},{"attributes":{"ID":574625,"DIS_CODE":0,"TOWNNAME":"永康區","LI":"復華里","LIN":"15鄰","STREET":"復華六街","SECT":" ","MAREA":" ","LANE":" ","ALLEY":" ","HOUSE_NO":"５０號","E_COORD97":172803.76999999999,"N_COORD97":2545851.9399999999,"ADDRESS":"復華六街５０號","OBJECTID":574598},"geometry":{"x":172803.77000000048,"y":2545851.9400000013}},{"attributes":{"ID":574626,"DIS_CODE":0,"TOWNNAME":"永康區","LI":"大灣里","LIN":"23鄰","STREET":"民族路","SECT":" ","MAREA":" ","LANE":" ","ALLEY":" ","HOUSE_NO":"３７９號","E_COORD97":174947.85999999999,"N_COORD97":2545248.8300000001,"ADDRESS":"民族路３７９號","OBJECTID":574599},"geometry":{"x":174947.8600000022,"y":2545248.8300000001}},{"attributes":{"ID":574627,"DIS_CODE":0,"TOWNNAME":"永康區","LI":"復華里","LIN":"39鄰","STREET":"復華六街","SECT":" ","MAREA":" ","LANE":" ","ALLEY":" ","HOUSE_NO":"６２號","E_COORD97":172726.57999999999,"N_COORD97":2545856.6299999999,"ADDRESS":"復華六街６２號","OBJECTID":574600},"geometry":{"x":172726.58000000007,"y":2545856.6300000027}}]}