{"displayFieldName":"TOWNNAME","fieldAliases":{"ID":"ID","DIS_CODE":"DIS_CODE","TOWNNAME":"TOWNNAME","LI":"LI","LIN":"LIN","STREET":"STREET","SECT":"SECT","MAREA":"MAREA","LANE":"LANE","ALLEY":"ALLEY","HOUSE_NO":"HOUSE_NO","E_COORD97":"E_COORD97","N_COORD97":"N_COORD97","ADDRESS":"ADDRESS","OBJECTID":"OBJECTID"},"geometryType":"esriGeometryPoint","spatialReference":{"wkid":102443,"latestWkid":3826},"fields":[{"name":"ID","type":"esriFieldTypeDouble","alias":"ID"},{"name":"DIS_CODE","type":"esriFieldTypeInteger","alias":"DIS_CODE"},{"name":"TOWNNAME","type":"esriFieldTypeString","alias":"TOWNNAME","length":8},{"name":"LI","type":"esriFieldTypeString","alias":"LI","length":8},{"name":"LIN","type":"esriFieldTypeString","alias":"LIN","length":12},{"name":"STREET","type":"esriFieldTypeString","alias":"STREET","length":20},{"name":"SECT","type":"esriFieldTypeString","alias":"SECT","length":8},{"name":"MAREA","type":"esriFieldTypeString","alias":"MAREA","length":12},{"name":"LANE","type":"esriFieldTypeString","alias":"LANE","length":10},{"name":"ALLEY","type":"esriFieldTypeString","alias":"ALLEY","length":10},{"name":"HOUSE_NO","type":"esriFieldTypeString","alias":"HOUSE_NO","length":20},{"name":"E_COORD97","type":"esriFieldTypeDouble","alias":"E_COORD97"},{"name":"N_COORD97","type":"esriFieldTypeDouble","alias":"N_COORD97"},{"name":"ADDRESS","type":"esriFieldTypeString","alias":"ADDRESS","length":50},{"name":"OBJECTID","type":"esriFieldTypeOID","alias":"OBJECTID"}],"features":[{"attributes":{"ID":362211,"DIS_CODE":0,"TOWNNAME":"鹽水區","LI":"橋南里","LIN":"19鄰","STREET":"忠孝路","SECT":" ","MAREA":" ","LANE":"１５５巷","ALLEY":" ","HOUSE_NO":"１８號","E_COORD97":175516.67000000001,"N_COORD97":2578851.3999999999,"ADDRESS":"忠孝路１５５巷１８號","OBJECTID":362201},"geometry":{"x":175516.67000000179,"y":2578851.4000000041}},{"attributes":{"ID":362212,"DIS_CODE":0,"TOWNNAME":"鹽水區","LI":"橋南里","LIN":"19鄰","STREET":"忠孝路","SECT":" ","MAREA":" ","LANE":"１５５巷","ALLEY":" ","HOUSE_NO":"１９號","E_COORD97":175534.23000000001,"N_COORD97":2578834.2400000002,"ADDRESS":"忠孝路１５５巷１９號","OBJECTID":362202},"geometry":{"x":175534.23000000138,"y":2578834.2400000002}},{"attributes":{"ID":362213,"DIS_CODE":0,"TOWNNAME":"鹽水區","LI":"橋南里","LIN":"19鄰","STREET":"忠孝路","SECT":" ","MAREA":" ","LANE":"１５５巷","ALLEY":" ","HOUSE_NO":"２０號","E_COORD97":175516.73999999999,"N_COORD97":2578846.29,"ADDRESS":"忠孝路１５５巷２０號","OBJECTID":362203},"geometry":{"x":175516.74000000115,"y":2578846.2899999991}},{"attributes":{"ID":362214,"DIS_CODE":0,"TOWNNAME":"鹽水區","LI":"橋南里","LIN":"19鄰","STREET":"忠孝路","SECT":" ","MAREA":" ","LANE":"１５５巷","ALLEY":" ","HOUSE_NO":"２１號","E_COORD97":175534.25,"N_COORD97":2578828.5699999998,"ADDRESS":"忠孝路１５５巷２１號","OBJECTID":362204},"geometry":{"x":175534.25,"y":2578828.5700000003}},{"attributes":{"ID":362215,"DIS_CODE":0,"TOWNNAME":"永康區","LI":"龍潭里","LIN":"32鄰","STREET":"龍國街","SECT":" ","MAREA":" ","LANE":"２４０巷","ALLEY":" ","HOUSE_NO":"１０號二樓","E_COORD97":174472.45999999999,"N_COORD97":2547999.1200000001,"ADDRESS":"龍國街２４０巷１０號二樓","OBJECTID":362205},"geometry":{"x":174472.46000000089,"y":2547999.1200000029}},{"attributes":{"ID":362216,"DIS_CODE":0,"TOWNNAME":"鹽水區","LI":"橋南里","LIN":"19鄰","STREET":"忠孝路","SECT":" ","MAREA":" ","LANE":"１５５巷","ALLEY":" ","HOUSE_NO":"２２號","E_COORD97":175516.53,"N_COORD97":2578839.9100000001,"ADDRESS":"忠孝路１５５巷２２號","OBJECTID":362206},"geometry":{"x":175516.53000000119,"y":2578839.9100000001}},{"attributes":{"ID":362217,"DIS_CODE":0,"TOWNNAME":"鹽水區","LI":"橋南里","LIN":"19鄰","STREET":"忠孝路","SECT":" ","MAREA":" ","LANE":"１５５巷","ALLEY":" ","HOUSE_NO":"２４號","E_COORD97":175516.60000000001,"N_COORD97":2578834.8100000001,"ADDRESS":"忠孝路１５５巷２４號","OBJECTID":362207},"geometry":{"x":175516.59999999963,"y":2578834.8100000005}},{"attributes":{"ID":362218,"DIS_CODE":0,"TOWNNAME":"鹽水區","LI":"橋南里","LIN":"19鄰","STREET":"忠孝路","SECT":" ","MAREA":" ","LANE":"１５５巷","ALLEY":" ","HOUSE_NO":"２５號","E_COORD97":175534.29000000001,"N_COORD97":2578817.2200000002,"ADDRESS":"忠孝路１５５巷２５號","OBJECTID":362208},"geometry":{"x":175534.29000000004,"y":2578817.2200000025}},{"attributes":{"ID":362219,"DIS_CODE":0,"TOWNNAME":"鹽水區","LI":"橋南里","LIN":"19鄰","STREET":"忠孝路","SECT":" ","MAREA":" ","LANE":"１５５巷","ALLEY":" ","HOUSE_NO":"２６號","E_COORD97":175516.67999999999,"N_COORD97":2578829.7000000002,"ADDRESS":"忠孝路１５５巷２６號","OBJECTID":362209},"geometry":{"x":175516.68000000063,"y":2578829.6999999993}},{"attributes":{"ID":362220,"DIS_CODE":0,"TOWNNAME":"鹽水區","LI":"橋南里","LIN":"19鄰","STREET":"忠孝路","SECT":" ","MAREA":" ","LANE":"１５５巷","ALLEY":" ","HOUSE_NO":"２７號","E_COORD97":175534.32000000001,"N_COORD97":2578811.5499999998,"ADDRESS":"忠孝路１５５巷２７號","OBJECTID":362210},"geometry":{"x":175534.3200000003,"y":2578811.5500000026}},{"attributes":{"ID":362221,"DIS_CODE":0,"TOWNNAME":"北區","LI":"成功里","LIN":"13鄰","STREET":"北成路","SECT":" ","MAREA":" ","LANE":" ","ALLEY":" ","HOUSE_NO":"７２號","E_COORD97":169018.06,"N_COORD97":2546626.8900000001,"ADDRESS":"北成路７２號","OBJECTID":362211},"geometry":{"x":169018.06000000052,"y":2546626.8900000025}},{"attributes":{"ID":362222,"DIS_CODE":0,"TOWNNAME":"鹽水區","LI":"橋南里","LIN":"19鄰","STREET":"忠孝路","SECT":" ","MAREA":" ","LANE":"１５５巷","ALLEY":" ","HOUSE_NO":"２８號","E_COORD97":175516.75,"N_COORD97":2578824.5899999999,"ADDRESS":"忠孝路１５５巷２８號","OBJECTID":362212},"geometry":{"x":175516.75000000093,"y":2578824.5899999999}},{"attributes":{"ID":362223,"DIS_CODE":0,"TOWNNAME":"南區","LI":"金華里","LIN":"19鄰","STREET":"惠南街","SECT":" ","MAREA":" ","LANE":"８４巷","ALLEY":" ","HOUSE_NO":"１號","E_COORD97":166765.35999999999,"N_COORD97":2542306.8999999999,"ADDRESS":"惠南街８４巷１號","OBJECTID":362213},"geometry":{"x":166765.36000000127,"y":2542306.9000000022}},{"attributes":{"ID":362224,"DIS_CODE":0,"TOWNNAME":"鹽水區","LI":"橋南里","LIN":"19鄰","STREET":"忠孝路","SECT":" ","MAREA":" ","LANE":"１５５巷","ALLEY":" ","HOUSE_NO":"２９號","E_COORD97":175534.34,"N_COORD97":2578805.8700000001,"ADDRESS":"忠孝路１５５巷２９號","OBJECTID":362214},"geometry":{"x":175534.34000000078,"y":2578805.8700000029}},{"attributes":{"ID":362225,"DIS_CODE":0,"TOWNNAME":"鹽水區","LI":"橋南里","LIN":"19鄰","STREET":"忠孝路","SECT":" ","MAREA":" ","LANE":"１５５巷","ALLEY":" ","HOUSE_NO":"３０號","E_COORD97":175516.82000000001,"N_COORD97":2578819.4900000002,"ADDRESS":"忠孝路１５５巷３０號","OBJECTID":362215},"geometry":{"x":175516.82000000123,"y":2578819.4900000002}},{"attributes":{"ID":362226,"DIS_CODE":0,"TOWNNAME":"鹽水區","LI":"橋南里","LIN":"19鄰","STREET":"忠孝路","SECT":" ","MAREA":" ","LANE":"１５５巷","ALLEY":" ","HOUSE_NO":"３１號","E_COORD97":175534.35999999999,"N_COORD97":2578800.2000000002,"ADDRESS":"忠孝路１５５巷３１號","OBJECTID":362216},"geometry":{"x":175534.3599999994,"y":2578800.1999999993}},{"attributes":{"ID":362227,"DIS_CODE":0,"TOWNNAME":"鹽水區","LI":"橋南里","LIN":"19鄰","STREET":"忠孝路","SECT":" ","MAREA":" ","LANE":"１５５巷","ALLEY":" ","HOUSE_NO":"３２號","E_COORD97":175516.57999999999,"N_COORD97":2578813.4199999999,"ADDRESS":"忠孝路１５５巷３２號","OBJECTID":362217},"geometry":{"x":175516.58000000007,"y":2578813.4200000037}},{"attributes":{"ID":362228,"DIS_CODE":0,"TOWNNAME":"鹽水區","LI":"橋南里","LIN":"19鄰","STREET":"忠孝路","SECT":" ","MAREA":" ","LANE":"１５５巷","ALLEY":" ","HOUSE_NO":"３３號","E_COORD97":175534.39000000001,"N_COORD97":2578794.5299999998,"ADDRESS":"忠孝路１５５巷３３號","OBJECTID":362218},"geometry":{"x":175534.38999999966,"y":2578794.5299999993}},{"attributes":{"ID":362229,"DIS_CODE":0,"TOWNNAME":"鹽水區","LI":"橋南里","LIN":"19鄰","STREET":"忠孝路","SECT":" ","MAREA":" ","LANE":"１５５巷","ALLEY":" ","HOUSE_NO":"３４號","E_COORD97":175516.64000000001,"N_COORD97":2578807.8599999999,"ADDRESS":"忠孝路１５５巷３４號","OBJECTID":362219},"geometry":{"x":175516.64000000153,"y":2578807.8600000013}},{"attributes":{"ID":362230,"DIS_CODE":0,"TOWNNAME":"鹽水區","LI":"橋南里","LIN":"19鄰","STREET":"忠孝路","SECT":" ","MAREA":" ","LANE":"１５５巷","ALLEY":" ","HOUSE_NO":"３６號","E_COORD97":175516.64000000001,"N_COORD97":2578803.0699999998,"ADDRESS":"忠孝路１５５巷３６號","OBJECTID":362220},"geometry":{"x":175516.64000000153,"y":2578803.0700000022}},{"attributes":{"ID":362231,"DIS_CODE":0,"TOWNNAME":"鹽水區","LI":"橋南里","LIN":"19鄰","STREET":"忠孝路","SECT":" ","MAREA":" ","LANE":"１５５巷","ALLEY":" ","HOUSE_NO":"３８號","E_COORD97":175516.85000000001,"N_COORD97":2578799.0699999998,"ADDRESS":"忠孝路１５５巷３８號","OBJECTID":362221},"geometry":{"x":175516.85000000149,"y":2578799.070000004}},{"attributes":{"ID":362232,"DIS_CODE":0,"TOWNNAME":"鹽水區","LI":"橋南里","LIN":"19鄰","STREET":"忠孝路","SECT":" ","MAREA":" ","LANE":"１５５巷","ALLEY":" ","HOUSE_NO":"４０號","E_COORD97":175516.39999999999,"N_COORD97":2578795.79,"ADDRESS":"忠孝路１５５巷４０號","OBJECTID":362222},"geometry":{"x":175516.4000000013,"y":2578795.7899999991}},{"attributes":{"ID":362233,"DIS_CODE":0,"TOWNNAME":"鹽水區","LI":"橋南里","LIN":"19鄰","STREET":"忠孝路","SECT":" ","MAREA":" ","LANE":"１５５巷","ALLEY":" ","HOUSE_NO":"４２號","E_COORD97":175516.60000000001,"N_COORD97":2578792.29,"ADDRESS":"忠孝路１５５巷４２號","OBJECTID":362223},"geometry":{"x":175516.59999999963,"y":2578792.2899999991}},{"attributes":{"ID":362234,"DIS_CODE":0,"TOWNNAME":"鹽水區","LI":"橋南里","LIN":"19鄰","STREET":"忠孝路","SECT":" ","MAREA":" ","LANE":"１５５巷","ALLEY":" ","HOUSE_NO":"５號","E_COORD97":175534.07000000001,"N_COORD97":2578873.9500000002,"ADDRESS":"忠孝路１５５巷５號","OBJECTID":362224},"geometry":{"x":175534.0700000003,"y":2578873.9500000011}},{"attributes":{"ID":362235,"DIS_CODE":0,"TOWNNAME":"鹽水區","LI":"橋南里","LIN":"19鄰","STREET":"忠孝路","SECT":" ","MAREA":" ","LANE":"１５５巷","ALLEY":" ","HOUSE_NO":"６號","E_COORD97":175515.92999999999,"N_COORD97":2578884.2000000002,"ADDRESS":"忠孝路１５５巷６號","OBJECTID":362225},"geometry":{"x":175515.9299999997,"y":2578884.1999999993}},{"attributes":{"ID":362236,"DIS_CODE":0,"TOWNNAME":"鹽水區","LI":"橋南里","LIN":"19鄰","STREET":"忠孝路","SECT":" ","MAREA":" ","LANE":"１５５巷","ALLEY":" ","HOUSE_NO":"７號","E_COORD97":175534.09,"N_COORD97":2578868.2799999998,"ADDRESS":"忠孝路１５５巷７號","OBJECTID":362226},"geometry":{"x":175534.09000000171,"y":2578868.2800000012}},{"attributes":{"ID":362237,"DIS_CODE":0,"TOWNNAME":"鹽水區","LI":"橋南里","LIN":"19鄰","STREET":"忠孝路","SECT":" ","MAREA":" ","LANE":"１５５巷","ALLEY":" ","HOUSE_NO":"８號","E_COORD97":175516,"N_COORD97":2578879.1000000001,"ADDRESS":"忠孝路１５５巷８號","OBJECTID":362227},"geometry":{"x":175516,"y":2578879.0999999996}},{"attributes":{"ID":362238,"DIS_CODE":0,"TOWNNAME":"鹽水區","LI":"橋南里","LIN":"19鄰","STREET":"忠孝路","SECT":" ","MAREA":" ","LANE":"１５５巷","ALLEY":" ","HOUSE_NO":"９號","E_COORD97":175534.10999999999,"N_COORD97":2578862.6099999999,"ADDRESS":"忠孝路１５５巷９號","OBJECTID":362228},"geometry":{"x":175534.11000000034,"y":2578862.6100000031}},{"attributes":{"ID":362239,"DIS_CODE":0,"TOWNNAME":"鹽水區","LI":"橋南里","LIN":"19鄰","STREET":"忠孝路","SECT":" ","MAREA":" ","LANE":"４３巷","ALLEY":" ","HOUSE_NO":"１０號","E_COORD97":175864.12,"N_COORD97":2578831.77,"ADDRESS":"忠孝路４３巷１０號","OBJECTID":362229},"geometry":{"x":175864.12000000011,"y":2578831.7700000014}},{"attributes":{"ID":362240,"DIS_CODE":0,"TOWNNAME":"鹽水區","LI":"橋南里","LIN":"19鄰","STREET":"忠孝路","SECT":" ","MAREA":" ","LANE":"４３巷","ALLEY":" ","HOUSE_NO":"１１號","E_COORD97":175918.10000000001,"N_COORD97":2578819.02,"ADDRESS":"忠孝路４３巷１１號","OBJECTID":362230},"geometry":{"x":175918.09999999963,"y":2578819.0200000033}},{"attributes":{"ID":362241,"DIS_CODE":0,"TOWNNAME":"鹽水區","LI":"橋南里","LIN":"19鄰","STREET":"忠孝路","SECT":" ","MAREA":" ","LANE":"４３巷","ALLEY":" ","HOUSE_NO":"１２號","E_COORD97":175857.44,"N_COORD97":2578832.2400000002,"ADDRESS":"忠孝路４３巷１２號","OBJECTID":362231},"geometry":{"x":175857.44000000041,"y":2578832.2400000021}},{"attributes":{"ID":362242,"DIS_CODE":0,"TOWNNAME":"鹽水區","LI":"橋南里","LIN":"19鄰","STREET":"忠孝路","SECT":" ","MAREA":" ","LANE":"４３巷","ALLEY":" ","HOUSE_NO":"１３號","E_COORD97":175922.35000000001,"N_COORD97":2578819.0499999998,"ADDRESS":"忠孝路４３巷１３號","OBJECTID":362232},"geometry":{"x":175922.35000000056,"y":2578819.0500000007}},{"attributes":{"ID":362243,"DIS_CODE":0,"TOWNNAME":"鹽水區","LI":"橋南里","LIN":"19鄰","STREET":"忠孝路","SECT":" ","MAREA":" ","LANE":"４３巷","ALLEY":" ","HOUSE_NO":"１４號","E_COORD97":175851.13,"N_COORD97":2578833.1600000001,"ADDRESS":"忠孝路４３巷１４號","OBJECTID":362233},"geometry":{"x":175851.13000000082,"y":2578833.160000002}},{"attributes":{"ID":362244,"DIS_CODE":0,"TOWNNAME":"鹽水區","LI":"橋南里","LIN":"19鄰","STREET":"忠孝路","SECT":" ","MAREA":" ","LANE":"４３巷","ALLEY":" ","HOUSE_NO":"１５號","E_COORD97":175926.60999999999,"N_COORD97":2578819.0800000001,"ADDRESS":"忠孝路４３巷１５號","OBJECTID":362234},"geometry":{"x":175926.61000000127,"y":2578819.0799999982}},{"attributes":{"ID":362245,"DIS_CODE":0,"TOWNNAME":"鹽水區","LI":"橋南里","LIN":"19鄰","STREET":"忠孝路","SECT":" ","MAREA":" ","LANE":"４３巷","ALLEY":" ","HOUSE_NO":"１６號","E_COORD97":175845.29000000001,"N_COORD97":2578833.5800000001,"ADDRESS":"忠孝路４３巷１６號","OBJECTID":362235},"geometry":{"x":175845.29000000097,"y":2578833.5800000019}},{"attributes":{"ID":362246,"DIS_CODE":0,"TOWNNAME":"鹽水區","LI":"橋南里","LIN":"19鄰","STREET":"忠孝路","SECT":" ","MAREA":" ","LANE":"４３巷","ALLEY":" ","HOUSE_NO":"１７號","E_COORD97":175930.85999999999,"N_COORD97":2578819.1099999999,"ADDRESS":"忠孝路４３巷１７號","OBJECTID":362236},"geometry":{"x":175930.86000000034,"y":2578819.1100000013}},{"attributes":{"ID":362247,"DIS_CODE":0,"TOWNNAME":"鹽水區","LI":"橋南里","LIN":"19鄰","STREET":"忠孝路","SECT":" ","MAREA":" ","LANE":"４３巷","ALLEY":" ","HOUSE_NO":"１８號","E_COORD97":175838.66,"N_COORD97":2578834.1600000001,"ADDRESS":"忠孝路４３巷１８號","OBJECTID":362237},"geometry":{"x":175838.66000000015,"y":2578834.1600000001}},{"attributes":{"ID":362248,"DIS_CODE":0,"TOWNNAME":"鹽水區","LI":"橋南里","LIN":"19鄰","STREET":"忠孝路","SECT":" ","MAREA":" ","LANE":"４３巷","ALLEY":" ","HOUSE_NO":"１９號","E_COORD97":175935.10999999999,"N_COORD97":2578819.1400000001,"ADDRESS":"忠孝路４３巷１９號","OBJECTID":362238},"geometry":{"x":175935.11000000127,"y":2578819.1399999987}},{"attributes":{"ID":362249,"DIS_CODE":0,"TOWNNAME":"鹽水區","LI":"橋南里","LIN":"19鄰","STREET":"忠孝路","SECT":" ","MAREA":" ","LANE":"４３巷","ALLEY":" ","HOUSE_NO":"１號","E_COORD97":175896.85000000001,"N_COORD97":2578818.8700000001,"ADDRESS":"忠孝路４３巷１號","OBJECTID":362239},"geometry":{"x":175896.85000000056,"y":2578818.8700000029}},{"attributes":{"ID":362250,"DIS_CODE":0,"TOWNNAME":"鹽水區","LI":"橋南里","LIN":"19鄰","STREET":"忠孝路","SECT":" ","MAREA":" ","LANE":"４３巷","ALLEY":" ","HOUSE_NO":"２０號","E_COORD97":175838.63,"N_COORD97":2578814.25,"ADDRESS":"忠孝路４３巷２０號","OBJECTID":362240},"geometry":{"x":175838.62999999989,"y":2578814.25}},{"attributes":{"ID":362251,"DIS_CODE":0,"TOWNNAME":"鹽水區","LI":"橋南里","LIN":"19鄰","STREET":"忠孝路","SECT":" ","MAREA":" ","LANE":"４３巷","ALLEY":" ","HOUSE_NO":"２２號","E_COORD97":175845.17999999999,"N_COORD97":2578814.0899999999,"ADDRESS":"忠孝路４３巷２２號","OBJECTID":362241},"geometry":{"x":175845.18000000156,"y":2578814.0899999999}},{"attributes":{"ID":362252,"DIS_CODE":0,"TOWNNAME":"鹽水區","LI":"橋南里","LIN":"19鄰","STREET":"忠孝路","SECT":" ","MAREA":" ","LANE":"４３巷","ALLEY":" ","HOUSE_NO":"２４號","E_COORD97":175851.44,"N_COORD97":2578813.2400000002,"ADDRESS":"忠孝路４３巷２４號","OBJECTID":362242},"geometry":{"x":175851.44000000134,"y":2578813.2400000002}},{"attributes":{"ID":362253,"DIS_CODE":0,"TOWNNAME":"鹽水區","LI":"橋南里","LIN":"19鄰","STREET":"忠孝路","SECT":" ","MAREA":" ","LANE":"４３巷","ALLEY":" ","HOUSE_NO":"２６號","E_COORD97":175857.45999999999,"N_COORD97":2578813.3700000001,"ADDRESS":"忠孝路４３巷２６號","OBJECTID":362243},"geometry":{"x":175857.46000000089,"y":2578813.370000001}},{"attributes":{"ID":362254,"DIS_CODE":0,"TOWNNAME":"鹽水區","LI":"橋南里","LIN":"19鄰","STREET":"忠孝路","SECT":" ","MAREA":" ","LANE":"４３巷","ALLEY":" ","HOUSE_NO":"２８號","E_COORD97":175864.17000000001,"N_COORD97":2578813,"ADDRESS":"忠孝路４３巷２８號","OBJECTID":362244},"geometry":{"x":175864.17000000179,"y":2578813.0000000037}},{"attributes":{"ID":362255,"DIS_CODE":0,"TOWNNAME":"鹽水區","LI":"橋南里","LIN":"19鄰","STREET":"忠孝路","SECT":" ","MAREA":" ","LANE":"４３巷","ALLEY":" ","HOUSE_NO":"２號","E_COORD97":175885.45000000001,"N_COORD97":2578830.46,"ADDRESS":"忠孝路４３巷２號","OBJECTID":362245},"geometry":{"x":175885.45000000019,"y":2578830.4600000009}},{"attributes":{"ID":362256,"DIS_CODE":0,"TOWNNAME":"鹽水區","LI":"橋南里","LIN":"19鄰","STREET":"忠孝路","SECT":" ","MAREA":" ","LANE":"４３巷","ALLEY":" ","HOUSE_NO":"３０號","E_COORD97":175870.70000000001,"N_COORD97":2578812.9500000002,"ADDRESS":"忠孝路４３巷３０號","OBJECTID":362246},"geometry":{"x":175870.70000000019,"y":2578812.9500000011}},{"attributes":{"ID":362257,"DIS_CODE":0,"TOWNNAME":"鹽水區","LI":"橋南里","LIN":"19鄰","STREET":"忠孝路","SECT":" ","MAREA":" ","LANE":"４３巷","ALLEY":" ","HOUSE_NO":"３２號","E_COORD97":175877.72,"N_COORD97":2578811.54,"ADDRESS":"忠孝路４３巷３２號","OBJECTID":362247},"geometry":{"x":175877.72000000067,"y":2578811.5399999972}},{"attributes":{"ID":362258,"DIS_CODE":0,"TOWNNAME":"鹽水區","LI":"橋南里","LIN":"19鄰","STREET":"忠孝路","SECT":" ","MAREA":" ","LANE":"４３巷","ALLEY":" ","HOUSE_NO":"３４號","E_COORD97":175884.78,"N_COORD97":2578811.4500000002,"ADDRESS":"忠孝路４３巷３４號","OBJECTID":362248},"geometry":{"x":175884.78000000119,"y":2578811.4499999993}},{"attributes":{"ID":362259,"DIS_CODE":0,"TOWNNAME":"鹽水區","LI":"橋南里","LIN":"19鄰","STREET":"忠孝路","SECT":" ","MAREA":" ","LANE":"４３巷","ALLEY":" ","HOUSE_NO":"３號","E_COORD97":175901.10000000001,"N_COORD97":2578818.8999999999,"ADDRESS":"忠孝路４３巷３號","OBJECTID":362249},"geometry":{"x":175901.09999999963,"y":2578818.9000000022}},{"attributes":{"ID":362260,"DIS_CODE":0,"TOWNNAME":"鹽水區","LI":"橋南里","LIN":"19鄰","STREET":"忠孝路","SECT":" ","MAREA":" ","LANE":"４３巷","ALLEY":" ","HOUSE_NO":"５號","E_COORD97":175905.35000000001,"N_COORD97":2578818.9300000002,"ADDRESS":"忠孝路４３巷５號","OBJECTID":362250},"geometry":{"x":175905.35000000056,"y":2578818.9299999997}},{"attributes":{"ID":362261,"DIS_CODE":0,"TOWNNAME":"鹽水區","LI":"橋南里","LIN":"19鄰","STREET":"忠孝路","SECT":" ","MAREA":" ","LANE":"４３巷","ALLEY":" ","HOUSE_NO":"６號","E_COORD97":175878.82000000001,"N_COORD97":2578831.04,"ADDRESS":"忠孝路４３巷６號","OBJECTID":362251},"geometry":{"x":175878.82000000216,"y":2578831.0399999991}},{"attributes":{"ID":362262,"DIS_CODE":0,"TOWNNAME":"鹽水區","LI":"橋南里","LIN":"19鄰","STREET":"忠孝路","SECT":" ","MAREA":" ","LANE":"４３巷","ALLEY":" ","HOUSE_NO":"７號","E_COORD97":175909.60000000001,"N_COORD97":2578818.96,"ADDRESS":"忠孝路４３巷７號","OBJECTID":362252},"geometry":{"x":175909.59999999963,"y":2578818.9600000028}},{"attributes":{"ID":362263,"DIS_CODE":0,"TOWNNAME":"鹽水區","LI":"橋南里","LIN":"19鄰","STREET":"忠孝路","SECT":" ","MAREA":" ","LANE":"９９巷","ALLEY":" ","HOUSE_NO":"１０號","E_COORD97":175667.10000000001,"N_COORD97":2578858.0699999998,"ADDRESS":"忠孝路９９巷１０號","OBJECTID":362253},"geometry":{"x":175667.09999999963,"y":2578858.0700000022}},{"attributes":{"ID":362264,"DIS_CODE":0,"TOWNNAME":"鹽水區","LI":"橋南里","LIN":"19鄰","STREET":"忠孝路","SECT":" ","MAREA":" ","LANE":"９９巷","ALLEY":" ","HOUSE_NO":"１１號","E_COORD97":175685.23999999999,"N_COORD97":2578846.2999999998,"ADDRESS":"忠孝路９９巷１１號","OBJECTID":362254},"geometry":{"x":175685.24000000022,"y":2578846.3000000026}},{"attributes":{"ID":362265,"DIS_CODE":0,"TOWNNAME":"鹽水區","LI":"橋南里","LIN":"19鄰","STREET":"忠孝路","SECT":" ","MAREA":" ","LANE":"９９巷","ALLEY":" ","HOUSE_NO":"１２號","E_COORD97":175667.42999999999,"N_COORD97":2578854.02,"ADDRESS":"忠孝路９９巷１２號","OBJECTID":362255},"geometry":{"x":175667.43000000063,"y":2578854.0200000014}},{"attributes":{"ID":362266,"DIS_CODE":0,"TOWNNAME":"鹽水區","LI":"橋南里","LIN":"19鄰","STREET":"忠孝路","SECT":" ","MAREA":" ","LANE":"９９巷","ALLEY":" ","HOUSE_NO":"１４號","E_COORD97":175667.57999999999,"N_COORD97":2578850.29,"ADDRESS":"忠孝路９９巷１４號","OBJECTID":362256},"geometry":{"x":175667.58000000007,"y":2578850.2899999991}},{"attributes":{"ID":362267,"DIS_CODE":0,"TOWNNAME":"鹽水區","LI":"橋南里","LIN":"19鄰","STREET":"忠孝路","SECT":" ","MAREA":" ","LANE":"９９巷","ALLEY":" ","HOUSE_NO":"１５號","E_COORD97":175685.57000000001,"N_COORD97":2578836.8599999999,"ADDRESS":"忠孝路９９巷１５號","OBJECTID":362257},"geometry":{"x":175685.57000000216,"y":2578836.8600000031}},{"attributes":{"ID":362268,"DIS_CODE":0,"TOWNNAME":"鹽水區","LI":"橋南里","LIN":"19鄰","STREET":"忠孝路","SECT":" ","MAREA":" ","LANE":"９９巷","ALLEY":" ","HOUSE_NO":"１６號","E_COORD97":175667.54000000001,"N_COORD97":2578846.27,"ADDRESS":"忠孝路９９巷１６號","OBJECTID":362258},"geometry":{"x":175667.54000000097,"y":2578846.2699999996}},{"attributes":{"ID":362269,"DIS_CODE":0,"TOWNNAME":"鹽水區","LI":"橋南里","LIN":"19鄰","STREET":"忠孝路","SECT":" ","MAREA":" ","LANE":"９９巷","ALLEY":" ","HOUSE_NO":"１８號","E_COORD97":175667.51000000001,"N_COORD97":2578842.3199999998,"ADDRESS":"忠孝路９９巷１８號","OBJECTID":362259},"geometry":{"x":175667.51000000071,"y":2578842.3200000022}},{"attributes":{"ID":362270,"DIS_CODE":0,"TOWNNAME":"鹽水區","LI":"橋南里","LIN":"19鄰","STREET":"忠孝路","SECT":" ","MAREA":" ","LANE":"９９巷","ALLEY":" ","HOUSE_NO":"１號","E_COORD97":175684.14999999999,"N_COORD97":2578866.3900000001,"ADDRESS":"忠孝路９９巷１號","OBJECTID":362260},"geometry":{"x":175684.1500000013,"y":2578866.3900000025}},{"attributes":{"ID":362271,"DIS_CODE":0,"TOWNNAME":"鹽水區","LI":"橋南里","LIN":"19鄰","STREET":"忠孝路","SECT":" ","MAREA":" ","LANE":"９９巷","ALLEY":" ","HOUSE_NO":"２０號","E_COORD97":175668.32999999999,"N_COORD97":2578837.73,"ADDRESS":"忠孝路９９巷２０號","OBJECTID":362261},"geometry":{"x":175668.33000000194,"y":2578837.7300000004}},{"attributes":{"ID":362272,"DIS_CODE":0,"TOWNNAME":"鹽水區","LI":"橋南里","LIN":"19鄰","STREET":"忠孝路","SECT":" ","MAREA":" ","LANE":"９９巷","ALLEY":" ","HOUSE_NO":"２２號","E_COORD97":175668.48999999999,"N_COORD97":2578834.3300000001,"ADDRESS":"忠孝路９９巷２２號","OBJECTID":362262},"geometry":{"x":175668.49000000022,"y":2578834.3299999982}},{"attributes":{"ID":362273,"DIS_CODE":0,"TOWNNAME":"鹽水區","LI":"橋南里","LIN":"19鄰","STREET":"忠孝路","SECT":" ","MAREA":" ","LANE":"９９巷","ALLEY":" ","HOUSE_NO":"２４號","E_COORD97":175668.72,"N_COORD97":2578829.7799999998,"ADDRESS":"忠孝路９９巷２４號","OBJECTID":362263},"geometry":{"x":175668.7200000016,"y":2578829.7799999993}},{"attributes":{"ID":362274,"DIS_CODE":0,"TOWNNAME":"鹽水區","LI":"橋南里","LIN":"19鄰","STREET":"忠孝路","SECT":" ","MAREA":" ","LANE":"９９巷","ALLEY":" ","HOUSE_NO":"２號","E_COORD97":175666.39000000001,"N_COORD97":2578869.8900000001,"ADDRESS":"忠孝路９９巷２號","OBJECTID":362264},"geometry":{"x":175666.3900000006,"y":2578869.8900000025}},{"attributes":{"ID":362275,"DIS_CODE":0,"TOWNNAME":"鹽水區","LI":"橋南里","LIN":"19鄰","STREET":"忠孝路","SECT":" ","MAREA":" ","LANE":"９９巷","ALLEY":" ","HOUSE_NO":"３號","E_COORD97":175684.37,"N_COORD97":2578862.3700000001,"ADDRESS":"忠孝路９９巷３號","OBJECTID":362265},"geometry":{"x":175684.37000000011,"y":2578862.3700000048}},{"attributes":{"ID":362276,"DIS_CODE":0,"TOWNNAME":"鹽水區","LI":"橋南里","LIN":"19鄰","STREET":"忠孝路","SECT":" ","MAREA":" ","LANE":"９９巷","ALLEY":" ","HOUSE_NO":"５號","E_COORD97":175684.59,"N_COORD97":2578858.3599999999,"ADDRESS":"忠孝路９９巷５號","OBJECTID":362266},"geometry":{"x":175684.58999999985,"y":2578858.3600000013}},{"attributes":{"ID":362277,"DIS_CODE":0,"TOWNNAME":"鹽水區","LI":"橋南里","LIN":"19鄰","STREET":"忠孝路","SECT":" ","MAREA":" ","LANE":"９９巷","ALLEY":" ","HOUSE_NO":"６號","E_COORD97":175666.60999999999,"N_COORD97":2578865.73,"ADDRESS":"忠孝路９９巷６號","OBJECTID":362267},"geometry":{"x":175666.6100000022,"y":2578865.7300000004}},{"attributes":{"ID":362278,"DIS_CODE":0,"TOWNNAME":"鹽水區","LI":"橋南里","LIN":"19鄰","STREET":"忠孝路","SECT":" ","MAREA":" ","LANE":"９９巷","ALLEY":" ","HOUSE_NO":"７號","E_COORD97":175684.79999999999,"N_COORD97":2578854.3399999999,"ADDRESS":"忠孝路９９巷７號","OBJECTID":362268},"geometry":{"x":175684.79999999981,"y":2578854.339999998}},{"attributes":{"ID":362279,"DIS_CODE":0,"TOWNNAME":"鹽水區","LI":"橋南里","LIN":"19鄰","STREET":"忠孝路","SECT":" ","MAREA":" ","LANE":"９９巷","ALLEY":" ","HOUSE_NO":"８號","E_COORD97":175666.94,"N_COORD97":2578862.0699999998,"ADDRESS":"忠孝路９９巷８號","OBJECTID":362269},"geometry":{"x":175666.94000000134,"y":2578862.0700000003}},{"attributes":{"ID":362280,"DIS_CODE":0,"TOWNNAME":"鹽水區","LI":"橋南里","LIN":"19鄰","STREET":"忠孝路","SECT":" ","MAREA":" ","LANE":"９９巷","ALLEY":" ","HOUSE_NO":"９號","E_COORD97":175685.01999999999,"N_COORD97":2578850.3199999998,"ADDRESS":"忠孝路９９巷９號","OBJECTID":362270},"geometry":{"x":175685.01999999862,"y":2578850.3200000003}},{"attributes":{"ID":362281,"DIS_CODE":0,"TOWNNAME":"安平區","LI":"西門里","LIN":"19鄰","STREET":"安平路","SECT":" ","MAREA":" ","LANE":"９９０巷","ALLEY":" ","HOUSE_NO":"１７號","E_COORD97":163258.45000000001,"N_COORD97":2544485.3900000001,"ADDRESS":"安平路９９０巷１７號","OBJECTID":362271},"geometry":{"x":163258.45000000019,"y":2544485.3900000006}},{"attributes":{"ID":362282,"DIS_CODE":0,"TOWNNAME":"安平區","LI":"西門里","LIN":"19鄰","STREET":"安平路","SECT":" ","MAREA":" ","LANE":"９９０巷","ALLEY":" ","HOUSE_NO":"１９號","E_COORD97":163258.88,"N_COORD97":2544490.1299999999,"ADDRESS":"安平路９９０巷１９號","OBJECTID":362272},"geometry":{"x":163258.87999999896,"y":2544490.1300000027}},{"attributes":{"ID":362283,"DIS_CODE":0,"TOWNNAME":"南區","LI":"彰南里","LIN":"19鄰","STREET":"新港路","SECT":" ","MAREA":" ","LANE":"２３巷","ALLEY":" ","HOUSE_NO":"１６號","E_COORD97":165339.07000000001,"N_COORD97":2541520.73,"ADDRESS":"新港路２３巷１６號","OBJECTID":362273},"geometry":{"x":165339.0700000003,"y":2541520.7300000004}},{"attributes":{"ID":362284,"DIS_CODE":0,"TOWNNAME":"南區","LI":"大忠里","LIN":"19鄰","STREET":"國民路","SECT":" ","MAREA":" ","LANE":"２３８巷","ALLEY":" ","HOUSE_NO":"２６號","E_COORD97":169146.09,"N_COORD97":2541073.6400000001,"ADDRESS":"國民路２３８巷２６號","OBJECTID":362274},"geometry":{"x":169146.08999999985,"y":2541073.6400000006}},{"attributes":{"ID":362285,"DIS_CODE":0,"TOWNNAME":"南區","LI":"明興里","LIN":"19鄰","STREET":"德興路","SECT":" ","MAREA":" ","LANE":"１３０巷","ALLEY":" ","HOUSE_NO":"５１號","E_COORD97":167109.79999999999,"N_COORD97":2540394.25,"ADDRESS":"德興路１３０巷５１號","OBJECTID":362275},"geometry":{"x":167109.80000000075,"y":2540394.25}},{"attributes":{"ID":362286,"DIS_CODE":0,"TOWNNAME":"北區","LI":"大和里","LIN":"19鄰","STREET":"文賢路","SECT":" ","MAREA":" ","LANE":"８３３巷","ALLEY":" ","HOUSE_NO":"５６號","E_COORD97":167149.57000000001,"N_COORD97":2546365.96,"ADDRESS":"文賢路８３３巷５６號","OBJECTID":362276},"geometry":{"x":167149.5700000003,"y":2546365.9600000028}},{"attributes":{"ID":362287,"DIS_CODE":0,"TOWNNAME":"北區","LI":"大和里","LIN":"19鄰","STREET":"文賢路","SECT":" ","MAREA":" ","LANE":"８３３巷","ALLEY":" ","HOUSE_NO":"５８號","E_COORD97":167137.98999999999,"N_COORD97":2546362.1899999999,"ADDRESS":"文賢路８３３巷５８號","OBJECTID":362277},"geometry":{"x":167137.99000000115,"y":2546362.1900000013}},{"attributes":{"ID":362288,"DIS_CODE":0,"TOWNNAME":"北區","LI":"大和里","LIN":"19鄰","STREET":"文賢路","SECT":" ","MAREA":" ","LANE":"８３３巷","ALLEY":" ","HOUSE_NO":"６０號","E_COORD97":167134.01000000001,"N_COORD97":2546374.6400000001,"ADDRESS":"文賢路８３３巷６０號","OBJECTID":362278},"geometry":{"x":167134.01000000071,"y":2546374.6400000025}},{"attributes":{"ID":362289,"DIS_CODE":0,"TOWNNAME":"北區","LI":"大和里","LIN":"19鄰","STREET":"文賢路","SECT":" ","MAREA":" ","LANE":"８３３巷","ALLEY":" ","HOUSE_NO":"６２號","E_COORD97":167138.95000000001,"N_COORD97":2546375.3700000001,"ADDRESS":"文賢路８３３巷６２號","OBJECTID":362279},"geometry":{"x":167138.95000000019,"y":2546375.370000001}},{"attributes":{"ID":362290,"DIS_CODE":0,"TOWNNAME":"北區","LI":"大和里","LIN":"19鄰","STREET":"文賢路","SECT":" ","MAREA":" ","LANE":"８３３巷","ALLEY":" ","HOUSE_NO":"６４號","E_COORD97":167152.79000000001,"N_COORD97":2546378.8399999999,"ADDRESS":"文賢路８３３巷６４號","OBJECTID":362280},"geometry":{"x":167152.79000000004,"y":2546378.8400000017}},{"attributes":{"ID":362291,"DIS_CODE":0,"TOWNNAME":"東區","LI":"小東里","LIN":"32鄰","STREET":"光明街","SECT":" ","MAREA":" ","LANE":"６６巷","ALLEY":" ","HOUSE_NO":"３９號四樓之９","E_COORD97":170820.35000000001,"N_COORD97":2544176.2999999998,"ADDRESS":"光明街６６巷３９號四樓之９","OBJECTID":362281},"geometry":{"x":170820.34999999963,"y":2544176.3000000026}},{"attributes":{"ID":362292,"DIS_CODE":0,"TOWNNAME":"仁德區","LI":"後壁里","LIN":"32鄰","STREET":"德洋路","SECT":" ","MAREA":" ","LANE":"２２７巷","ALLEY":" ","HOUSE_NO":"１７號","E_COORD97":172451.10000000001,"N_COORD97":2539551.0099999998,"ADDRESS":"德洋路２２７巷１７號","OBJECTID":362282},"geometry":{"x":172451.09999999963,"y":2539551.0099999998}},{"attributes":{"ID":362293,"DIS_CODE":0,"TOWNNAME":"永康區","LI":"復華里","LIN":"32鄰","STREET":"國華街","SECT":" ","MAREA":" ","LANE":"１２５巷","ALLEY":" ","HOUSE_NO":"１１號","E_COORD97":172572.42000000001,"N_COORD97":2546266.7400000002,"ADDRESS":"國華街１２５巷１１號","OBJECTID":362283},"geometry":{"x":172572.42000000086,"y":2546266.7400000002}},{"attributes":{"ID":362294,"DIS_CODE":0,"TOWNNAME":"永康區","LI":"復國里","LIN":"32鄰","STREET":"復華一街","SECT":" ","MAREA":" ","LANE":"２８巷","ALLEY":" ","HOUSE_NO":"７號","E_COORD97":172637.01999999999,"N_COORD97":2545110.4100000001,"ADDRESS":"復華一街２８巷７號","OBJECTID":362284},"geometry":{"x":172637.01999999862,"y":2545110.410000002}},{"attributes":{"ID":362295,"DIS_CODE":0,"TOWNNAME":"永康區","LI":"復國里","LIN":"32鄰","STREET":"復華一街","SECT":" ","MAREA":" ","LANE":"１９巷","ALLEY":" ","HOUSE_NO":"１號","E_COORD97":172649.92999999999,"N_COORD97":2545052.77,"ADDRESS":"復華一街１９巷１號","OBJECTID":362285},"geometry":{"x":172649.93000000063,"y":2545052.7700000033}},{"attributes":{"ID":362296,"DIS_CODE":0,"TOWNNAME":"永康區","LI":"復國里","LIN":"32鄰","STREET":"復華一街","SECT":" ","MAREA":" ","LANE":"１９巷","ALLEY":" ","HOUSE_NO":"１３號","E_COORD97":172652.62,"N_COORD97":2545003.5299999998,"ADDRESS":"復華一街１９巷１３號","OBJECTID":362286},"geometry":{"x":172652.62000000104,"y":2545003.5300000012}},{"attributes":{"ID":362297,"DIS_CODE":0,"TOWNNAME":"永康區","LI":"復國里","LIN":"32鄰","STREET":"復華一街","SECT":" ","MAREA":" ","LANE":"１９巷","ALLEY":" ","HOUSE_NO":"３５號","E_COORD97":172651.64999999999,"N_COORD97":2544957.5299999998,"ADDRESS":"復華一街１９巷３５號","OBJECTID":362287},"geometry":{"x":172651.65000000037,"y":2544957.5299999993}},{"attributes":{"ID":362298,"DIS_CODE":0,"TOWNNAME":"北區","LI":"大和里","LIN":"19鄰","STREET":"文賢路","SECT":" ","MAREA":" ","LANE":"８３３巷","ALLEY":" ","HOUSE_NO":"６６號","E_COORD97":167155.16,"N_COORD97":2546389.2999999998,"ADDRESS":"文賢路８３３巷６６號","OBJECTID":362288},"geometry":{"x":167155.16000000108,"y":2546389.2999999989}},{"attributes":{"ID":362299,"DIS_CODE":0,"TOWNNAME":"北區","LI":"大和里","LIN":"19鄰","STREET":"文賢路","SECT":" ","MAREA":" ","LANE":"８３３巷","ALLEY":" ","HOUSE_NO":"６８號","E_COORD97":167150.82000000001,"N_COORD97":2546388.1600000001,"ADDRESS":"文賢路８３３巷６８號","OBJECTID":362289},"geometry":{"x":167150.82000000123,"y":2546388.1600000001}},{"attributes":{"ID":362300,"DIS_CODE":0,"TOWNNAME":"北區","LI":"大和里","LIN":"19鄰","STREET":"文賢路","SECT":" ","MAREA":" ","LANE":"８３３巷","ALLEY":" ","HOUSE_NO":"７０號","E_COORD97":167146.28,"N_COORD97":2546387.2999999998,"ADDRESS":"文賢路８３３巷７０號","OBJECTID":362290},"geometry":{"x":167146.28000000026,"y":2546387.3000000026}},{"attributes":{"ID":362301,"DIS_CODE":0,"TOWNNAME":"北區","LI":"大和里","LIN":"19鄰","STREET":"文賢路","SECT":" ","MAREA":" ","LANE":"８３３巷","ALLEY":" ","HOUSE_NO":"７２號","E_COORD97":167141.29000000001,"N_COORD97":2546386.2400000002,"ADDRESS":"文賢路８３３巷７２號","OBJECTID":362291},"geometry":{"x":167141.29000000004,"y":2546386.2400000021}},{"attributes":{"ID":362302,"DIS_CODE":0,"TOWNNAME":"北區","LI":"大和里","LIN":"19鄰","STREET":"文賢路","SECT":" ","MAREA":" ","LANE":"８３３巷","ALLEY":" ","HOUSE_NO":"７４號","E_COORD97":167137.03,"N_COORD97":2546385.1400000001,"ADDRESS":"文賢路８３３巷７４號","OBJECTID":362292},"geometry":{"x":167137.03000000212,"y":2546385.1400000025}},{"attributes":{"ID":362303,"DIS_CODE":0,"TOWNNAME":"北區","LI":"大和里","LIN":"19鄰","STREET":"文賢路","SECT":" ","MAREA":" ","LANE":"８３３巷","ALLEY":" ","HOUSE_NO":"７６號","E_COORD97":167131.73000000001,"N_COORD97":2546384.8300000001,"ADDRESS":"文賢路８３３巷７６號","OBJECTID":362293},"geometry":{"x":167131.73000000045,"y":2546384.8300000001}},{"attributes":{"ID":362304,"DIS_CODE":0,"TOWNNAME":"北區","LI":"大港里","LIN":"19鄰","STREET":"大和路","SECT":" ","MAREA":" ","LANE":"２７９巷","ALLEY":" ","HOUSE_NO":"７８號","E_COORD97":166786.85999999999,"N_COORD97":2546076.2799999998,"ADDRESS":"大和路２７９巷７８號","OBJECTID":362294},"geometry":{"x":166786.86000000034,"y":2546076.2800000031}},{"attributes":{"ID":362305,"DIS_CODE":0,"TOWNNAME":"北區","LI":"成功里","LIN":"13鄰","STREET":"北成路","SECT":" ","MAREA":" ","LANE":" ","ALLEY":" ","HOUSE_NO":"７４號","E_COORD97":169014.04000000001,"N_COORD97":2546629.0600000001,"ADDRESS":"北成路７４號","OBJECTID":362295},"geometry":{"x":169014.04000000097,"y":2546629.0600000024}},{"attributes":{"ID":362306,"DIS_CODE":0,"TOWNNAME":"北區","LI":"成功里","LIN":"13鄰","STREET":"北成路","SECT":" ","MAREA":" ","LANE":" ","ALLEY":" ","HOUSE_NO":"７６號","E_COORD97":169009.70999999999,"N_COORD97":2546631.5299999998,"ADDRESS":"北成路７６號","OBJECTID":362296},"geometry":{"x":169009.70999999996,"y":2546631.5300000012}},{"attributes":{"ID":362307,"DIS_CODE":0,"TOWNNAME":"關廟區","LI":"北花里","LIN":"13鄰","STREET":"中正路","SECT":" ","MAREA":" ","LANE":" ","ALLEY":" ","HOUSE_NO":"２５５號","E_COORD97":183271.45999999999,"N_COORD97":2540870.25,"ADDRESS":"中正路２５５號","OBJECTID":362297},"geometry":{"x":183271.45999999996,"y":2540870.2500000019}},{"attributes":{"ID":362308,"DIS_CODE":0,"TOWNNAME":"關廟區","LI":"香洋里","LIN":"13鄰","STREET":"中山路","SECT":"一段","MAREA":" ","LANE":" ","ALLEY":" ","HOUSE_NO":"６３２號","E_COORD97":181111.76000000001,"N_COORD97":2540002.2799999998,"ADDRESS":"中山路一段６３２號","OBJECTID":362298},"geometry":{"x":181111.76000000164,"y":2540002.2800000012}},{"attributes":{"ID":362309,"DIS_CODE":0,"TOWNNAME":"關廟區","LI":"南花里","LIN":"13鄰","STREET":"和平路","SECT":" ","MAREA":" ","LANE":" ","ALLEY":" ","HOUSE_NO":"３７６號","E_COORD97":181633.34,"N_COORD97":2540222.25,"ADDRESS":"和平路３７６號","OBJECTID":362299},"geometry":{"x":181633.34000000171,"y":2540222.2500000019}},{"attributes":{"ID":362310,"DIS_CODE":0,"TOWNNAME":"關廟區","LI":"關廟里","LIN":"13鄰","STREET":"大仁街","SECT":" ","MAREA":" ","LANE":" ","ALLEY":" ","HOUSE_NO":"１０９號","E_COORD97":181046.07000000001,"N_COORD97":2539395.25,"ADDRESS":"大仁街１０９號","OBJECTID":362300},"geometry":{"x":181046.07000000123,"y":2539395.2500000019}},{"attributes":{"ID":362311,"DIS_CODE":0,"TOWNNAME":"新營區","LI":"南興里","LIN":"13鄰","STREET":"南昌街","SECT":" ","MAREA":" ","LANE":" ","ALLEY":" ","HOUSE_NO":"１５９號","E_COORD97":179185.57000000001,"N_COORD97":2577652.98,"ADDRESS":"南昌街１５９號","OBJECTID":362301},"geometry":{"x":179185.5700000003,"y":2577652.9800000004}},{"attributes":{"ID":362312,"DIS_CODE":0,"TOWNNAME":"永康區","LI":"復國里","LIN":"32鄰","STREET":"復華一街","SECT":" ","MAREA":" ","LANE":"２８巷","ALLEY":" ","HOUSE_NO":"１５號","E_COORD97":172623.79000000001,"N_COORD97":2545123.27,"ADDRESS":"復華一街２８巷１５號","OBJECTID":362302},"geometry":{"x":172623.79000000004,"y":2545123.2699999996}},{"attributes":{"ID":362313,"DIS_CODE":0,"TOWNNAME":"永康區","LI":"復華里","LIN":"32鄰","STREET":"國華街","SECT":" ","MAREA":" ","LANE":"１２５巷","ALLEY":" ","HOUSE_NO":"１７號","E_COORD97":172563.35000000001,"N_COORD97":2546254.9900000002,"ADDRESS":"國華街１２５巷１７號","OBJECTID":362303},"geometry":{"x":172563.34999999963,"y":2546254.9900000002}},{"attributes":{"ID":362314,"DIS_CODE":0,"TOWNNAME":"永康區","LI":"復國里","LIN":"32鄰","STREET":"復華一街","SECT":" ","MAREA":" ","LANE":"２８巷","ALLEY":" ","HOUSE_NO":"６號","E_COORD97":172663.20999999999,"N_COORD97":2545121.52,"ADDRESS":"復華一街２８巷６號","OBJECTID":362304},"geometry":{"x":172663.20999999996,"y":2545121.5199999996}},{"attributes":{"ID":362315,"DIS_CODE":0,"TOWNNAME":"永康區","LI":"復國里","LIN":"32鄰","STREET":"復華一街","SECT":" ","MAREA":" ","LANE":"２８巷","ALLEY":" ","HOUSE_NO":"３９號","E_COORD97":172644.03,"N_COORD97":2545200.5299999998,"ADDRESS":"復華一街２８巷３９號","OBJECTID":362305},"geometry":{"x":172644.03000000026,"y":2545200.5300000012}},{"attributes":{"ID":362316,"DIS_CODE":0,"TOWNNAME":"永康區","LI":"復國里","LIN":"32鄰","STREET":"復華一街","SECT":" ","MAREA":" ","LANE":"２８巷","ALLEY":" ","HOUSE_NO":"８號","E_COORD97":172664.14999999999,"N_COORD97":2545137.9900000002,"ADDRESS":"復華一街２８巷８號","OBJECTID":362306},"geometry":{"x":172664.14999999944,"y":2545137.9900000021}},{"attributes":{"ID":362317,"DIS_CODE":0,"TOWNNAME":"永康區","LI":"復華里","LIN":"32鄰","STREET":"國華街","SECT":" ","MAREA":" ","LANE":"１２７巷","ALLEY":" ","HOUSE_NO":"１４號","E_COORD97":172533.67000000001,"N_COORD97":2546287.9900000002,"ADDRESS":"國華街１２７巷１４號","OBJECTID":362307},"geometry":{"x":172533.67000000086,"y":2546287.9900000002}},{"attributes":{"ID":362318,"DIS_CODE":0,"TOWNNAME":"永康區","LI":"復國里","LIN":"32鄰","STREET":"復華一街","SECT":" ","MAREA":" ","LANE":"２８巷","ALLEY":" ","HOUSE_NO":"２１號","E_COORD97":172641.82999999999,"N_COORD97":2545135.27,"ADDRESS":"復華一街２８巷２１號","OBJECTID":362308},"geometry":{"x":172641.83000000007,"y":2545135.2700000014}},{"attributes":{"ID":362319,"DIS_CODE":0,"TOWNNAME":"永康區","LI":"復國里","LIN":"32鄰","STREET":"復華一街","SECT":" ","MAREA":" ","LANE":"２８巷","ALLEY":" ","HOUSE_NO":"３３號","E_COORD97":172644.79999999999,"N_COORD97":2545179.2799999998,"ADDRESS":"復華一街２８巷３３號","OBJECTID":362309},"geometry":{"x":172644.80000000075,"y":2545179.2800000012}},{"attributes":{"ID":362320,"DIS_CODE":0,"TOWNNAME":"永康區","LI":"復華里","LIN":"32鄰","STREET":"國華街","SECT":" ","MAREA":" ","LANE":"１２５巷","ALLEY":" ","HOUSE_NO":"５號","E_COORD97":172579.51000000001,"N_COORD97":2546279.2400000002,"ADDRESS":"國華街１２５巷５號","OBJECTID":362310},"geometry":{"x":172579.50999999978,"y":2546279.2400000002}},{"attributes":{"ID":362321,"DIS_CODE":0,"TOWNNAME":"永康區","LI":"復華里","LIN":"32鄰","STREET":"國華街","SECT":" ","MAREA":" ","LANE":"１２５巷","ALLEY":" ","HOUSE_NO":"８號","E_COORD97":172567.10000000001,"N_COORD97":2546287.7400000002,"ADDRESS":"國華街１２５巷８號","OBJECTID":362311},"geometry":{"x":172567.0999999987,"y":2546287.7400000039}},{"attributes":{"ID":362322,"DIS_CODE":0,"TOWNNAME":"永康區","LI":"復華里","LIN":"32鄰","STREET":"國華街","SECT":" ","MAREA":" ","LANE":"１２５巷","ALLEY":" ","HOUSE_NO":"１３號","E_COORD97":172569.76000000001,"N_COORD97":2546262.9900000002,"ADDRESS":"國華街１２５巷１３號","OBJECTID":362312},"geometry":{"x":172569.76000000164,"y":2546262.9900000021}},{"attributes":{"ID":362323,"DIS_CODE":0,"TOWNNAME":"北區","LI":"大港里","LIN":"19鄰","STREET":"大和路","SECT":" ","MAREA":" ","LANE":"２７９巷","ALLEY":" ","HOUSE_NO":"８０號","E_COORD97":166782.19,"N_COORD97":2546074.77,"ADDRESS":"大和路２７９巷８０號","OBJECTID":362313},"geometry":{"x":166782.19000000134,"y":2546074.7700000014}},{"attributes":{"ID":362324,"DIS_CODE":0,"TOWNNAME":"北區","LI":"大港里","LIN":"19鄰","STREET":"大和路","SECT":" ","MAREA":" ","LANE":"２７９巷","ALLEY":" ","HOUSE_NO":"８２號","E_COORD97":166778.34,"N_COORD97":2546072.9399999999,"ADDRESS":"大和路２７９巷８２號","OBJECTID":362314},"geometry":{"x":166778.34000000171,"y":2546072.9400000013}},{"attributes":{"ID":362325,"DIS_CODE":0,"TOWNNAME":"北區","LI":"大港里","LIN":"19鄰","STREET":"大和路","SECT":" ","MAREA":" ","LANE":"２７９巷","ALLEY":" ","HOUSE_NO":"８６號","E_COORD97":166773.66,"N_COORD97":2546071.4399999999,"ADDRESS":"大和路２７９巷８６號","OBJECTID":362315},"geometry":{"x":166773.66000000108,"y":2546071.4399999995}},{"attributes":{"ID":362326,"DIS_CODE":0,"TOWNNAME":"北區","LI":"大港里","LIN":"19鄰","STREET":"大和路","SECT":" ","MAREA":" ","LANE":"２７９巷","ALLEY":" ","HOUSE_NO":"８８號","E_COORD97":166769.48999999999,"N_COORD97":2546069.77,"ADDRESS":"大和路２７９巷８８號","OBJECTID":362316},"geometry":{"x":166769.49000000115,"y":2546069.7700000033}},{"attributes":{"ID":362327,"DIS_CODE":0,"TOWNNAME":"北區","LI":"大港里","LIN":"19鄰","STREET":"大和路","SECT":" ","MAREA":" ","LANE":"２７９巷","ALLEY":" ","HOUSE_NO":"９０號","E_COORD97":166765.81,"N_COORD97":2546068.4300000002,"ADDRESS":"大和路２７９巷９０號","OBJECTID":362317},"geometry":{"x":166765.80999999959,"y":2546068.4299999997}},{"attributes":{"ID":362328,"DIS_CODE":0,"TOWNNAME":"新營區","LI":"大宏里","LIN":"13鄰","STREET":"三民路","SECT":" ","MAREA":" ","LANE":" ","ALLEY":" ","HOUSE_NO":"５３號","E_COORD97":180263.29000000001,"N_COORD97":2578474.02,"ADDRESS":"三民路５３號","OBJECTID":362318},"geometry":{"x":180263.29000000097,"y":2578474.0200000014}},{"attributes":{"ID":362329,"DIS_CODE":0,"TOWNNAME":"新營區","LI":"民權里","LIN":"13鄰","STREET":"信義街","SECT":" ","MAREA":" ","LANE":" ","ALLEY":" ","HOUSE_NO":"５７號之２","E_COORD97":179919.41,"N_COORD97":2578384.8900000001,"ADDRESS":"信義街５７號之２","OBJECTID":362319},"geometry":{"x":179919.41000000201,"y":2578384.8900000025}},{"attributes":{"ID":362330,"DIS_CODE":0,"TOWNNAME":"新營區","LI":"三仙里","LIN":"13鄰","STREET":"中華路","SECT":" ","MAREA":" ","LANE":" ","ALLEY":" ","HOUSE_NO":"６０之１號","E_COORD97":179570.03,"N_COORD97":2578214.8999999999,"ADDRESS":"中華路６０之１號","OBJECTID":362320},"geometry":{"x":179570.03000000119,"y":2578214.9000000022}},{"attributes":{"ID":362331,"DIS_CODE":0,"TOWNNAME":"新營區","LI":"民生里","LIN":"13鄰","STREET":"民治路","SECT":" ","MAREA":" ","LANE":" ","ALLEY":" ","HOUSE_NO":"３２５號","E_COORD97":178703.42999999999,"N_COORD97":2578201.2599999998,"ADDRESS":"民治路３２５號","OBJECTID":362321},"geometry":{"x":178703.43000000156,"y":2578201.2600000016}},{"attributes":{"ID":362332,"DIS_CODE":0,"TOWNNAME":"新營區","LI":"新南里","LIN":"13鄰","STREET":"長榮路","SECT":"二段","MAREA":" ","LANE":" ","ALLEY":" ","HOUSE_NO":"７６５號","E_COORD97":178491.44,"N_COORD97":2579221.1400000001,"ADDRESS":"長榮路二段７６５號","OBJECTID":362322},"geometry":{"x":178491.44000000041,"y":2579221.1400000025}},{"attributes":{"ID":362333,"DIS_CODE":0,"TOWNNAME":"新營區","LI":"南興里","LIN":"13鄰","STREET":"南昌街","SECT":" ","MAREA":" ","LANE":" ","ALLEY":" ","HOUSE_NO":"１４３號之２","E_COORD97":179224.66,"N_COORD97":2577651.7400000002,"ADDRESS":"南昌街１４３號之２","OBJECTID":362323},"geometry":{"x":179224.66000000108,"y":2577651.7400000002}},{"attributes":{"ID":362334,"DIS_CODE":0,"TOWNNAME":"新營區","LI":"興安里","LIN":"13鄰","STREET":"延平路","SECT":" ","MAREA":" ","LANE":" ","ALLEY":" ","HOUSE_NO":"９１號","E_COORD97":179781.82000000001,"N_COORD97":2577684.46,"ADDRESS":"延平路９１號","OBJECTID":362324},"geometry":{"x":179781.82000000123,"y":2577684.4600000009}},{"attributes":{"ID":362335,"DIS_CODE":0,"TOWNNAME":"新營區","LI":"三仙里","LIN":"13鄰","STREET":"中華路","SECT":" ","MAREA":" ","LANE":" ","ALLEY":" ","HOUSE_NO":"６０號","E_COORD97":179565.51000000001,"N_COORD97":2578221.5,"ADDRESS":"中華路６０號","OBJECTID":362325},"geometry":{"x":179565.50999999978,"y":2578221.5}},{"attributes":{"ID":362336,"DIS_CODE":0,"TOWNNAME":"新營區","LI":"民權里","LIN":"13鄰","STREET":"信義街","SECT":" ","MAREA":" ","LANE":" ","ALLEY":" ","HOUSE_NO":"５７號之４","E_COORD97":179917.29000000001,"N_COORD97":2578392.6499999999,"ADDRESS":"信義街５７號之４","OBJECTID":362326},"geometry":{"x":179917.29000000097,"y":2578392.6500000022}},{"attributes":{"ID":362337,"DIS_CODE":0,"TOWNNAME":"新營區","LI":"南興里","LIN":"13鄰","STREET":"南昌街","SECT":" ","MAREA":" ","LANE":" ","ALLEY":" ","HOUSE_NO":"１４５號","E_COORD97":179217.26999999999,"N_COORD97":2577651.7200000002,"ADDRESS":"南昌街１４５號","OBJECTID":362327},"geometry":{"x":179217.26999999955,"y":2577651.7200000007}},{"attributes":{"ID":362338,"DIS_CODE":0,"TOWNNAME":"新營區","LI":"民權里","LIN":"13鄰","STREET":"信義街","SECT":" ","MAREA":" ","LANE":" ","ALLEY":" ","HOUSE_NO":"５７號","E_COORD97":179918.12,"N_COORD97":2578375.9700000002,"ADDRESS":"信義街５７號","OBJECTID":362328},"geometry":{"x":179918.12000000104,"y":2578375.9700000007}},{"attributes":{"ID":362339,"DIS_CODE":0,"TOWNNAME":"新營區","LI":"民權里","LIN":"13鄰","STREET":"武昌街","SECT":" ","MAREA":" ","LANE":" ","ALLEY":" ","HOUSE_NO":"２２號之８","E_COORD97":179921.41,"N_COORD97":2578362.73,"ADDRESS":"武昌街２２號之８","OBJECTID":362329},"geometry":{"x":179921.41000000108,"y":2578362.7300000004}},{"attributes":{"ID":362340,"DIS_CODE":0,"TOWNNAME":"安南區","LI":"\u25A0南里","LIN":"32鄰","STREET":"安昌街","SECT":" ","MAREA":" ","LANE":"１７４巷","ALLEY":" ","HOUSE_NO":"４１號","E_COORD97":170119.17999999999,"N_COORD97":2552335.3700000001,"ADDRESS":"安昌街１７４巷４１號","OBJECTID":362330},"geometry":{"x":170119.18000000063,"y":2552335.370000001}},{"attributes":{"ID":362341,"DIS_CODE":0,"TOWNNAME":"安南區","LI":"\u25A0南里","LIN":"32鄰","STREET":"安昌街","SECT":" ","MAREA":" ","LANE":"１７４巷","ALLEY":" ","HOUSE_NO":"４３號","E_COORD97":170119.57000000001,"N_COORD97":2552330.8500000001,"ADDRESS":"安昌街１７４巷４３號","OBJECTID":362331},"geometry":{"x":170119.5700000003,"y":2552330.8499999996}},{"attributes":{"ID":362342,"DIS_CODE":0,"TOWNNAME":"安南區","LI":"\u25A0南里","LIN":"32鄰","STREET":"安昌街","SECT":" ","MAREA":" ","LANE":"１７４巷","ALLEY":" ","HOUSE_NO":"４９號","E_COORD97":170119.04999999999,"N_COORD97":2552316.9900000002,"ADDRESS":"安昌街１７４巷４９號","OBJECTID":362332},"geometry":{"x":170119.04999999981,"y":2552316.9900000002}},{"attributes":{"ID":362343,"DIS_CODE":0,"TOWNNAME":"安南區","LI":"\u25A0南里","LIN":"32鄰","STREET":"安昌街","SECT":" ","MAREA":" ","LANE":"１７４巷","ALLEY":" ","HOUSE_NO":"５３號","E_COORD97":170119.57000000001,"N_COORD97":2552307.6899999999,"ADDRESS":"安昌街１７４巷５３號","OBJECTID":362333},"geometry":{"x":170119.5700000003,"y":2552307.6899999995}},{"attributes":{"ID":362344,"DIS_CODE":0,"TOWNNAME":"安南區","LI":"\u25A0南里","LIN":"32鄰","STREET":"安昌街","SECT":" ","MAREA":" ","LANE":"１７４巷","ALLEY":" ","HOUSE_NO":"５５號","E_COORD97":170119.95000000001,"N_COORD97":2552303.2999999998,"ADDRESS":"安昌街１７４巷５５號","OBJECTID":362334},"geometry":{"x":170119.95000000112,"y":2552303.3000000026}},{"attributes":{"ID":362345,"DIS_CODE":0,"TOWNNAME":"北區","LI":"大港里","LIN":"19鄰","STREET":"大和路","SECT":" ","MAREA":" ","LANE":"２７９巷","ALLEY":" ","HOUSE_NO":"９２號","E_COORD97":166762.64000000001,"N_COORD97":2546066.6000000001,"ADDRESS":"大和路２７９巷９２號","OBJECTID":362335},"geometry":{"x":166762.64000000153,"y":2546066.5999999996}},{"attributes":{"ID":362346,"DIS_CODE":0,"TOWNNAME":"北區","LI":"大港里","LIN":"19鄰","STREET":"大和路","SECT":" ","MAREA":" ","LANE":"２７９巷","ALLEY":" ","HOUSE_NO":"９６號","E_COORD97":166758.45999999999,"N_COORD97":2546065.1000000001,"ADDRESS":"大和路２７９巷９６號","OBJECTID":362336},"geometry":{"x":166758.45999999996,"y":2546065.1000000015}},{"attributes":{"ID":362347,"DIS_CODE":0,"TOWNNAME":"新營區","LI":"民生里","LIN":"19鄰","STREET":"進修街","SECT":" ","MAREA":" ","LANE":"２９巷","ALLEY":" ","HOUSE_NO":"２５號","E_COORD97":178912.07999999999,"N_COORD97":2578460.5099999998,"ADDRESS":"進修街２９巷２５號","OBJECTID":362337},"geometry":{"x":178912.08000000007,"y":2578460.5100000016}},{"attributes":{"ID":362348,"DIS_CODE":0,"TOWNNAME":"新營區","LI":"忠政里","LIN":"19鄰","STREET":"長榮路","SECT":"二段","MAREA":" ","LANE":"４３巷","ALLEY":" ","HOUSE_NO":"１２號","E_COORD97":179938.17000000001,"N_COORD97":2579806.71,"ADDRESS":"長榮路二段４３巷１２號","OBJECTID":362338},"geometry":{"x":179938.17000000086,"y":2579806.7100000028}},{"attributes":{"ID":362349,"DIS_CODE":0,"TOWNNAME":"新營區","LI":"民生里","LIN":"19鄰","STREET":"進修街","SECT":" ","MAREA":" ","LANE":"２９巷","ALLEY":" ","HOUSE_NO":"１９號","E_COORD97":178928.35999999999,"N_COORD97":2578457.1099999999,"ADDRESS":"進修街２９巷１９號","OBJECTID":362339},"geometry":{"x":178928.36000000127,"y":2578457.1100000013}},{"attributes":{"ID":362350,"DIS_CODE":0,"TOWNNAME":"新營區","LI":"南興里","LIN":"19鄰","STREET":"延平路","SECT":" ","MAREA":" ","LANE":"１４０巷","ALLEY":" ","HOUSE_NO":"１４號","E_COORD97":179686.76999999999,"N_COORD97":2577480.04,"ADDRESS":"延平路１４０巷１４號","OBJECTID":362340},"geometry":{"x":179686.76999999955,"y":2577480.040000001}},{"attributes":{"ID":362351,"DIS_CODE":0,"TOWNNAME":"新營區","LI":"忠政里","LIN":"19鄰","STREET":"長榮路","SECT":"二段","MAREA":" ","LANE":"４３巷","ALLEY":" ","HOUSE_NO":"２０號","E_COORD97":179936.10999999999,"N_COORD97":2579790.1099999999,"ADDRESS":"長榮路二段４３巷２０號","OBJECTID":362341},"geometry":{"x":179936.11000000034,"y":2579790.1099999994}},{"attributes":{"ID":362352,"DIS_CODE":0,"TOWNNAME":"新營區","LI":"忠政里","LIN":"19鄰","STREET":"長榮路","SECT":"二段","MAREA":" ","LANE":"４３巷","ALLEY":" ","HOUSE_NO":"４號","E_COORD97":179938.10000000001,"N_COORD97":2579823.3199999998,"ADDRESS":"長榮路二段４３巷４號","OBJECTID":362342},"geometry":{"x":179938.10000000056,"y":2579823.3200000003}},{"attributes":{"ID":362353,"DIS_CODE":0,"TOWNNAME":"新營區","LI":"新南里","LIN":"19鄰","STREET":"隋唐街","SECT":" ","MAREA":" ","LANE":"３１巷","ALLEY":" ","HOUSE_NO":"３４號","E_COORD97":178673.26999999999,"N_COORD97":2578357.5499999998,"ADDRESS":"隋唐街３１巷３４號","OBJECTID":362343},"geometry":{"x":178673.26999999955,"y":2578357.5500000007}},{"attributes":{"ID":362354,"DIS_CODE":0,"TOWNNAME":"新營區","LI":"忠政里","LIN":"19鄰","STREET":"長榮路","SECT":"二段","MAREA":" ","LANE":"４３巷","ALLEY":" ","HOUSE_NO":"９號","E_COORD97":179950.20000000001,"N_COORD97":2579809.9700000002,"ADDRESS":"長榮路二段４３巷９號","OBJECTID":362344},"geometry":{"x":179950.20000000112,"y":2579809.9700000007}},{"attributes":{"ID":362355,"DIS_CODE":0,"TOWNNAME":"新營區","LI":"忠政里","LIN":"19鄰","STREET":"長榮路","SECT":"二段","MAREA":" ","LANE":"４３巷","ALLEY":" ","HOUSE_NO":"５號","E_COORD97":179951.31,"N_COORD97":2579817.7200000002,"ADDRESS":"長榮路二段４３巷５號","OBJECTID":362345},"geometry":{"x":179951.30999999959,"y":2579817.7200000007}},{"attributes":{"ID":362356,"DIS_CODE":0,"TOWNNAME":"新營區","LI":"忠政里","LIN":"19鄰","STREET":"長榮路","SECT":"二段","MAREA":" ","LANE":"４３巷","ALLEY":" ","HOUSE_NO":"２３號","E_COORD97":179949.37,"N_COORD97":2579781.1899999999,"ADDRESS":"長榮路二段４３巷２３號","OBJECTID":362346},"geometry":{"x":179949.37000000011,"y":2579781.1900000013}},{"attributes":{"ID":362357,"DIS_CODE":0,"TOWNNAME":"新營區","LI":"忠政里","LIN":"19鄰","STREET":"長榮路","SECT":"二段","MAREA":" ","LANE":"４３巷","ALLEY":" ","HOUSE_NO":"２２號","E_COORD97":179936.10000000001,"N_COORD97":2579786.79,"ADDRESS":"長榮路二段４３巷２２號","OBJECTID":362347},"geometry":{"x":179936.10000000149,"y":2579786.790000001}},{"attributes":{"ID":362358,"DIS_CODE":0,"TOWNNAME":"新營區","LI":"忠政里","LIN":"19鄰","STREET":"長榮路","SECT":"二段","MAREA":" ","LANE":"４３巷","ALLEY":" ","HOUSE_NO":"１７號","E_COORD97":179950.38,"N_COORD97":2579794.4700000002,"ADDRESS":"長榮路二段４３巷１７號","OBJECTID":362348},"geometry":{"x":179950.38000000082,"y":2579794.4700000025}},{"attributes":{"ID":362359,"DIS_CODE":0,"TOWNNAME":"南區","LI":"建南里","LIN":"19鄰","STREET":"明興路","SECT":" ","MAREA":" ","LANE":"９９巷","ALLEY":" ","HOUSE_NO":"１５號","E_COORD97":166690.57000000001,"N_COORD97":2539916.6800000002,"ADDRESS":"明興路９９巷１５號","OBJECTID":362349},"geometry":{"x":166690.5700000003,"y":2539916.6799999997}},{"attributes":{"ID":362360,"DIS_CODE":0,"TOWNNAME":"南區","LI":"建南里","LIN":"19鄰","STREET":"明興路","SECT":" ","MAREA":" ","LANE":"９９巷","ALLEY":" ","HOUSE_NO":"１７號","E_COORD97":166698.31,"N_COORD97":2539916.48,"ADDRESS":"明興路９９巷１７號","OBJECTID":362350},"geometry":{"x":166698.30999999959,"y":2539916.4800000023}},{"attributes":{"ID":362361,"DIS_CODE":0,"TOWNNAME":"南區","LI":"建南里","LIN":"19鄰","STREET":"明興路","SECT":" ","MAREA":" ","LANE":"９９巷","ALLEY":" ","HOUSE_NO":"１９號","E_COORD97":166704.26000000001,"N_COORD97":2539917.27,"ADDRESS":"明興路９９巷１９號","OBJECTID":362351},"geometry":{"x":166704.26000000164,"y":2539917.2700000014}},{"attributes":{"ID":362362,"DIS_CODE":0,"TOWNNAME":"安平區","LI":"文平里","LIN":"19鄰","STREET":"健康一街","SECT":" ","MAREA":" ","LANE":"５７巷","ALLEY":" ","HOUSE_NO":"３５號","E_COORD97":165831.67999999999,"N_COORD97":2542801.8300000001,"ADDRESS":"健康一街５７巷３５號","OBJECTID":362352},"geometry":{"x":165831.68000000156,"y":2542801.8300000019}},{"attributes":{"ID":362363,"DIS_CODE":0,"TOWNNAME":"新化區","LI":"太平里","LIN":"13鄰","STREET":"太平街","SECT":" ","MAREA":" ","LANE":" ","ALLEY":" ","HOUSE_NO":"２６號","E_COORD97":178916.57000000001,"N_COORD97":2548813.25,"ADDRESS":"太平街２６號","OBJECTID":362353},"geometry":{"x":178916.57000000216,"y":2548813.2500000037}},{"attributes":{"ID":362364,"DIS_CODE":0,"TOWNNAME":"歸仁區","LI":"西埔里","LIN":"13鄰","STREET":"西埔二街","SECT":" ","MAREA":" ","LANE":" ","ALLEY":" ","HOUSE_NO":"１６號","E_COORD97":177003.84,"N_COORD97":2544759.25,"ADDRESS":"西埔二街１６號","OBJECTID":362354},"geometry":{"x":177003.84000000171,"y":2544759.2500000019}},{"attributes":{"ID":362365,"DIS_CODE":0,"TOWNNAME":"歸仁區","LI":"西埔里","LIN":"13鄰","STREET":"西埔二街","SECT":" ","MAREA":" ","LANE":" ","ALLEY":" ","HOUSE_NO":"６２號","E_COORD97":176895.23999999999,"N_COORD97":2544779.25,"ADDRESS":"西埔二街６２號","OBJECTID":362355},"geometry":{"x":176895.24000000115,"y":2544779.2500000019}},{"attributes":{"ID":362366,"DIS_CODE":0,"TOWNNAME":"北區","LI":"三德里","LIN":"5鄰","STREET":"裕民街","SECT":" ","MAREA":" ","LANE":" ","ALLEY":" ","HOUSE_NO":"５４號","E_COORD97":168480.45999999999,"N_COORD97":2544471.3500000001,"ADDRESS":"裕民街５４號","OBJECTID":362356},"geometry":{"x":168480.46000000089,"y":2544471.3499999996}},{"attributes":{"ID":362367,"DIS_CODE":0,"TOWNNAME":"歸仁區","LI":"六甲里","LIN":"13鄰","STREET":"中正二十街","SECT":" ","MAREA":" ","LANE":" ","ALLEY":" ","HOUSE_NO":"５１號","E_COORD97":175864.81,"N_COORD97":2539091.25,"ADDRESS":"中正二十街５１號","OBJECTID":362357},"geometry":{"x":175864.81000000052,"y":2539091.25}},{"attributes":{"ID":362368,"DIS_CODE":0,"TOWNNAME":"歸仁區","LI":"六甲里","LIN":"13鄰","STREET":"中正二十街","SECT":" ","MAREA":" ","LANE":" ","ALLEY":" ","HOUSE_NO":"６９號","E_COORD97":175822.70999999999,"N_COORD97":2539093.25,"ADDRESS":"中正二十街６９號","OBJECTID":362358},"geometry":{"x":175822.70999999996,"y":2539093.2500000019}},{"attributes":{"ID":362369,"DIS_CODE":0,"TOWNNAME":"安平區","LI":"文平里","LIN":"19鄰","STREET":"健康一街","SECT":" ","MAREA":" ","LANE":"５７巷","ALLEY":" ","HOUSE_NO":"３７號","E_COORD97":165827.23999999999,"N_COORD97":2542802.3100000001,"ADDRESS":"健康一街５７巷３７號","OBJECTID":362359},"geometry":{"x":165827.24000000115,"y":2542802.3100000042}},{"attributes":{"ID":362370,"DIS_CODE":0,"TOWNNAME":"安平區","LI":"文平里","LIN":"19鄰","STREET":"健康一街","SECT":" ","MAREA":" ","LANE":"５７巷","ALLEY":" ","HOUSE_NO":"３９號","E_COORD97":165822.32000000001,"N_COORD97":2542803.2599999998,"ADDRESS":"健康一街５７巷３９號","OBJECTID":362360},"geometry":{"x":165822.3200000003,"y":2542803.2600000016}},{"attributes":{"ID":362371,"DIS_CODE":0,"TOWNNAME":"安平區","LI":"文平里","LIN":"19鄰","STREET":"健康一街","SECT":" ","MAREA":" ","LANE":"５７巷","ALLEY":" ","HOUSE_NO":"４１號","E_COORD97":165817.23999999999,"N_COORD97":2542803.2599999998,"ADDRESS":"健康一街５７巷４１號","OBJECTID":362361},"geometry":{"x":165817.24000000115,"y":2542803.2600000016}},{"attributes":{"ID":362372,"DIS_CODE":0,"TOWNNAME":"安平區","LI":"文平里","LIN":"19鄰","STREET":"健康一街","SECT":" ","MAREA":" ","LANE":"５７巷","ALLEY":" ","HOUSE_NO":"４３號","E_COORD97":165813.10999999999,"N_COORD97":2542803.5800000001,"ADDRESS":"健康一街５７巷４３號","OBJECTID":362362},"geometry":{"x":165813.11000000127,"y":2542803.5800000019}},{"attributes":{"ID":362373,"DIS_CODE":0,"TOWNNAME":"安平區","LI":"文平里","LIN":"19鄰","STREET":"健康一街","SECT":" ","MAREA":" ","LANE":"５７巷","ALLEY":" ","HOUSE_NO":"４５號","E_COORD97":165808.35000000001,"N_COORD97":2542804.21,"ADDRESS":"健康一街５７巷４５號","OBJECTID":362363},"geometry":{"x":165808.3499999987,"y":2542804.2100000028}},{"attributes":{"ID":362374,"DIS_CODE":0,"TOWNNAME":"安平區","LI":"文平里","LIN":"19鄰","STREET":"健康一街","SECT":" ","MAREA":" ","LANE":"５７巷","ALLEY":" ","HOUSE_NO":"４９號","E_COORD97":165798.98000000001,"N_COORD97":2542805.3199999998,"ADDRESS":"健康一街５７巷４９號","OBJECTID":362364},"geometry":{"x":165798.98000000138,"y":2542805.320000004}},{"attributes":{"ID":362375,"DIS_CODE":0,"TOWNNAME":"安平區","LI":"文平里","LIN":"19鄰","STREET":"健康一街","SECT":" ","MAREA":" ","LANE":"５７巷","ALLEY":" ","HOUSE_NO":"５１號","E_COORD97":165794.38,"N_COORD97":2542806.2799999998,"ADDRESS":"健康一街５７巷５１號","OBJECTID":362365},"geometry":{"x":165794.37999999989,"y":2542806.2799999993}},{"attributes":{"ID":362376,"DIS_CODE":0,"TOWNNAME":"安平區","LI":"文平里","LIN":"19鄰","STREET":"健康一街","SECT":" ","MAREA":" ","LANE":"５７巷","ALLEY":" ","HOUSE_NO":"５１之１號","E_COORD97":165789.14000000001,"N_COORD97":2542806.5899999999,"ADDRESS":"健康一街５７巷５１之１號","OBJECTID":362366},"geometry":{"x":165789.13999999966,"y":2542806.5900000036}},{"attributes":{"ID":362377,"DIS_CODE":0,"TOWNNAME":"南區","LI":"永寧里","LIN":"19鄰","STREET":"灣裡路","SECT":" ","MAREA":" ","LANE":"２６３巷","ALLEY":" ","HOUSE_NO":"１５號之１","E_COORD97":166159.07999999999,"N_COORD97":2536417.23,"ADDRESS":"灣裡路２６３巷１５號之１","OBJECTID":362367},"geometry":{"x":166159.08000000101,"y":2536417.2300000004}},{"attributes":{"ID":362378,"DIS_CODE":0,"TOWNNAME":"南區","LI":"永寧里","LIN":"19鄰","STREET":"灣裡路","SECT":" ","MAREA":" ","LANE":"２６３巷","ALLEY":" ","HOUSE_NO":"１５號之２","E_COORD97":166163.45999999999,"N_COORD97":2536418.5099999998,"ADDRESS":"灣裡路２６３巷１５號之２","OBJECTID":362368},"geometry":{"x":166163.45999999996,"y":2536418.5099999998}},{"attributes":{"ID":362379,"DIS_CODE":0,"TOWNNAME":"南區","LI":"永寧里","LIN":"19鄰","STREET":"灣裡路","SECT":" ","MAREA":" ","LANE":"２６３巷","ALLEY":" ","HOUSE_NO":"１５號之３","E_COORD97":166167.75,"N_COORD97":2536418.4199999999,"ADDRESS":"灣裡路２６３巷１５號之３","OBJECTID":362369},"geometry":{"x":166167.75000000093,"y":2536418.4199999999}},{"attributes":{"ID":362380,"DIS_CODE":0,"TOWNNAME":"南區","LI":"永寧里","LIN":"19鄰","STREET":"灣裡路","SECT":" ","MAREA":" ","LANE":"２６３巷","ALLEY":" ","HOUSE_NO":"１５號之４","E_COORD97":166172.13,"N_COORD97":2536419.0499999998,"ADDRESS":"灣裡路２６３巷１５號之４","OBJECTID":362370},"geometry":{"x":166172.13000000082,"y":2536419.0500000007}},{"attributes":{"ID":362381,"DIS_CODE":0,"TOWNNAME":"南區","LI":"永寧里","LIN":"19鄰","STREET":"灣裡路","SECT":" ","MAREA":" ","LANE":"２６３巷","ALLEY":" ","HOUSE_NO":"１５號之５","E_COORD97":166177.32999999999,"N_COORD97":2536419.6000000001,"ADDRESS":"灣裡路２６３巷１５號之５","OBJECTID":362371},"geometry":{"x":166177.33000000101,"y":2536419.6000000015}},{"attributes":{"ID":362382,"DIS_CODE":0,"TOWNNAME":"南區","LI":"永寧里","LIN":"19鄰","STREET":"灣裡路","SECT":" ","MAREA":" ","LANE":"２６３巷","ALLEY":" ","HOUSE_NO":"１７號之２","E_COORD97":166162.64000000001,"N_COORD97":2536438.3799999999,"ADDRESS":"灣裡路２６３巷１７號之２","OBJECTID":362372},"geometry":{"x":166162.64000000153,"y":2536438.379999999}},{"attributes":{"ID":362383,"DIS_CODE":0,"TOWNNAME":"南區","LI":"永寧里","LIN":"19鄰","STREET":"灣裡路","SECT":" ","MAREA":" ","LANE":"２６３巷","ALLEY":" ","HOUSE_NO":"１９號","E_COORD97":166162.09,"N_COORD97":2536444.6699999999,"ADDRESS":"灣裡路２６３巷１９號","OBJECTID":362373},"geometry":{"x":166162.09000000078,"y":2536444.6699999999}},{"attributes":{"ID":362384,"DIS_CODE":0,"TOWNNAME":"南區","LI":"永寧里","LIN":"19鄰","STREET":"灣裡路","SECT":" ","MAREA":" ","LANE":"２６３巷","ALLEY":" ","HOUSE_NO":"１９號之１","E_COORD97":166162.09,"N_COORD97":2536449.6000000001,"ADDRESS":"灣裡路２６３巷１９號之１","OBJECTID":362374},"geometry":{"x":166162.09000000078,"y":2536449.6000000015}},{"attributes":{"ID":362385,"DIS_CODE":0,"TOWNNAME":"南區","LI":"永寧里","LIN":"19鄰","STREET":"灣裡路","SECT":" ","MAREA":" ","LANE":"２６３巷","ALLEY":" ","HOUSE_NO":"１９號之２","E_COORD97":166158.44,"N_COORD97":2536455.1099999999,"ADDRESS":"灣裡路２６３巷１９號之２","OBJECTID":362375},"geometry":{"x":166158.44000000134,"y":2536455.1099999994}},{"attributes":{"ID":362386,"DIS_CODE":0,"TOWNNAME":"南區","LI":"永寧里","LIN":"19鄰","STREET":"灣裡路","SECT":" ","MAREA":" ","LANE":"２６３巷","ALLEY":" ","HOUSE_NO":"１號","E_COORD97":166127.76999999999,"N_COORD97":2536409.3900000001,"ADDRESS":"灣裡路２６３巷１號","OBJECTID":362376},"geometry":{"x":166127.77000000048,"y":2536409.3900000006}},{"attributes":{"ID":362387,"DIS_CODE":0,"TOWNNAME":"安平區","LI":"文平里","LIN":"19鄰","STREET":"健康一街","SECT":" ","MAREA":" ","LANE":"５７巷","ALLEY":" ","HOUSE_NO":"５號","E_COORD97":165903.53,"N_COORD97":2542792.1400000001,"ADDRESS":"健康一街５７巷５號","OBJECTID":362377},"geometry":{"x":165903.53000000119,"y":2542792.1400000006}},{"attributes":{"ID":362388,"DIS_CODE":0,"TOWNNAME":"北區","LI":"大港里","LIN":"19鄰","STREET":"大和路","SECT":" ","MAREA":" ","LANE":"２７９巷","ALLEY":" ","HOUSE_NO":"１０號","E_COORD97":166886.92000000001,"N_COORD97":2546117.1299999999,"ADDRESS":"大和路２７９巷１０號","OBJECTID":362378},"geometry":{"x":166886.92000000086,"y":2546117.129999999}},{"attributes":{"ID":362389,"DIS_CODE":0,"TOWNNAME":"北區","LI":"大港里","LIN":"19鄰","STREET":"大和路","SECT":" ","MAREA":" ","LANE":"２７９巷","ALLEY":" ","HOUSE_NO":"１２號","E_COORD97":166882.5,"N_COORD97":2546115.5,"ADDRESS":"大和路２７９巷１２號","OBJECTID":362379},"geometry":{"x":166882.49999999907,"y":2546115.5}},{"attributes":{"ID":362390,"DIS_CODE":0,"TOWNNAME":"北區","LI":"大港里","LIN":"19鄰","STREET":"大和路","SECT":" ","MAREA":" ","LANE":"２７９巷","ALLEY":" ","HOUSE_NO":"１６號","E_COORD97":166878.39999999999,"N_COORD97":2546113.7000000002,"ADDRESS":"大和路２７９巷１６號","OBJECTID":362380},"geometry":{"x":166878.40000000037,"y":2546113.6999999974}},{"attributes":{"ID":362391,"DIS_CODE":0,"TOWNNAME":"北區","LI":"大港里","LIN":"19鄰","STREET":"大和路","SECT":" ","MAREA":" ","LANE":"２７９巷","ALLEY":" ","HOUSE_NO":"１８號","E_COORD97":166873.66,"N_COORD97":2546111.8999999999,"ADDRESS":"大和路２７９巷１８號","OBJECTID":362381},"geometry":{"x":166873.66000000108,"y":2546111.9000000022}},{"attributes":{"ID":362392,"DIS_CODE":0,"TOWNNAME":"北區","LI":"大港里","LIN":"19鄰","STREET":"大和路","SECT":" ","MAREA":" ","LANE":"２７９巷","ALLEY":" ","HOUSE_NO":"２０號","E_COORD97":166868.73999999999,"N_COORD97":2546109.9300000002,"ADDRESS":"大和路２７９巷２０號","OBJECTID":362382},"geometry":{"x":166868.74000000022,"y":2546109.9300000016}},{"attributes":{"ID":362393,"DIS_CODE":0,"TOWNNAME":"北區","LI":"大港里","LIN":"19鄰","STREET":"大和路","SECT":" ","MAREA":" ","LANE":"２７９巷","ALLEY":" ","HOUSE_NO":"２２號","E_COORD97":166864,"N_COORD97":2546108.1299999999,"ADDRESS":"大和路２７９巷２２號","OBJECTID":362383},"geometry":{"x":166864.00000000186,"y":2546108.1300000008}},{"attributes":{"ID":362394,"DIS_CODE":0,"TOWNNAME":"北區","LI":"大港里","LIN":"19鄰","STREET":"大和路","SECT":" ","MAREA":" ","LANE":"２７９巷","ALLEY":" ","HOUSE_NO":"２６號","E_COORD97":166859.07999999999,"N_COORD97":2546106.1600000001,"ADDRESS":"大和路２７９巷２６號","OBJECTID":362384},"geometry":{"x":166859.08000000101,"y":2546106.160000002}},{"attributes":{"ID":362395,"DIS_CODE":0,"TOWNNAME":"北區","LI":"大港里","LIN":"19鄰","STREET":"大和路","SECT":" ","MAREA":" ","LANE":"２７９巷","ALLEY":" ","HOUSE_NO":"２８號","E_COORD97":166854.98999999999,"N_COORD97":2546104.2000000002,"ADDRESS":"大和路２７９巷２８號","OBJECTID":362385},"geometry":{"x":166854.99000000022,"y":2546104.2000000011}},{"attributes":{"ID":362396,"DIS_CODE":0,"TOWNNAME":"北區","LI":"大港里","LIN":"19鄰","STREET":"大和路","SECT":" ","MAREA":" ","LANE":"２７９巷","ALLEY":" ","HOUSE_NO":"３０號","E_COORD97":166850.73000000001,"N_COORD97":2546102.5600000001,"ADDRESS":"大和路２７９巷３０號","OBJECTID":362386},"geometry":{"x":166850.73000000045,"y":2546102.5600000042}},{"attributes":{"ID":362397,"DIS_CODE":0,"TOWNNAME":"新營區","LI":"新北里","LIN":"19鄰","STREET":"民生路","SECT":" ","MAREA":" ","LANE":"２２６巷","ALLEY":" ","HOUSE_NO":"６號","E_COORD97":179082.48999999999,"N_COORD97":2579077.6400000001,"ADDRESS":"民生路２２６巷６號","OBJECTID":362387},"geometry":{"x":179082.49000000022,"y":2579077.6400000025}},{"attributes":{"ID":362398,"DIS_CODE":0,"TOWNNAME":"新營區","LI":"新北里","LIN":"19鄰","STREET":"民生路","SECT":" ","MAREA":" ","LANE":"２２６巷","ALLEY":" ","HOUSE_NO":"１８號","E_COORD97":179138.04999999999,"N_COORD97":2579100.6400000001,"ADDRESS":"民生路２２６巷１８號","OBJECTID":362388},"geometry":{"x":179138.04999999981,"y":2579100.6399999987}},{"attributes":{"ID":362399,"DIS_CODE":0,"TOWNNAME":"新營區","LI":"南紙里","LIN":"19鄰","STREET":"太子路","SECT":" ","MAREA":" ","LANE":"２３８巷","ALLEY":" ","HOUSE_NO":"１９號","E_COORD97":177780.98999999999,"N_COORD97":2577887.8799999999,"ADDRESS":"太子路２３８巷１９號","OBJECTID":362389},"geometry":{"x":177780.99000000022,"y":2577887.8800000008}},{"attributes":{"ID":362400,"DIS_CODE":0,"TOWNNAME":"新營區","LI":"新北里","LIN":"19鄰","STREET":"民生路","SECT":" ","MAREA":" ","LANE":"２２６巷","ALLEY":" ","HOUSE_NO":"８號","E_COORD97":179086.67000000001,"N_COORD97":2579082.0499999998,"ADDRESS":"民生路２２６巷８號","OBJECTID":362390},"geometry":{"x":179086.67000000179,"y":2579082.0500000026}},{"attributes":{"ID":362401,"DIS_CODE":0,"TOWNNAME":"新營區","LI":"民榮里","LIN":"19鄰","STREET":"裕民路","SECT":" ","MAREA":" ","LANE":"５８巷","ALLEY":" ","HOUSE_NO":"３４之２號","E_COORD97":179037.5,"N_COORD97":2577853.0800000001,"ADDRESS":"裕民路５８巷３４之２號","OBJECTID":362391},"geometry":{"x":179037.50000000093,"y":2577853.0800000038}},{"attributes":{"ID":362402,"DIS_CODE":0,"TOWNNAME":"新營區","LI":"新東里","LIN":"19鄰","STREET":"東學路","SECT":" ","MAREA":" ","LANE":"８０巷","ALLEY":" ","HOUSE_NO":"９號","E_COORD97":180920.60999999999,"N_COORD97":2579330.3100000001,"ADDRESS":"東學路８０巷９號","OBJECTID":362392},"geometry":{"x":180920.61000000127,"y":2579330.3100000042}},{"attributes":{"ID":362403,"DIS_CODE":0,"TOWNNAME":"新營區","LI":"新北里","LIN":"19鄰","STREET":"民生路","SECT":" ","MAREA":" ","LANE":"２０８巷","ALLEY":" ","HOUSE_NO":"５號","E_COORD97":179092.60000000001,"N_COORD97":2579048.7999999998,"ADDRESS":"民生路２０８巷５號","OBJECTID":362393},"geometry":{"x":179092.60000000056,"y":2579048.7999999989}},{"attributes":{"ID":362404,"DIS_CODE":0,"TOWNNAME":"新營區","LI":"民榮里","LIN":"19鄰","STREET":"裕民路","SECT":" ","MAREA":" ","LANE":"５８巷","ALLEY":" ","HOUSE_NO":"４２號","E_COORD97":179023.73999999999,"N_COORD97":2577853.0899999999,"ADDRESS":"裕民路５８巷４２號","OBJECTID":362394},"geometry":{"x":179023.73999999929,"y":2577853.0900000017}},{"attributes":{"ID":362405,"DIS_CODE":0,"TOWNNAME":"新營區","LI":"新北里","LIN":"19鄰","STREET":"民生路","SECT":" ","MAREA":" ","LANE":"２２６巷","ALLEY":" ","HOUSE_NO":"３０之１號","E_COORD97":179112.89999999999,"N_COORD97":2579074.25,"ADDRESS":"民生路２２６巷３０之１號","OBJECTID":362395},"geometry":{"x":179112.9000000013,"y":2579074.25}},{"attributes":{"ID":362406,"DIS_CODE":0,"TOWNNAME":"新營區","LI":"新北里","LIN":"19鄰","STREET":"民生路","SECT":" ","MAREA":" ","LANE":"２０８巷","ALLEY":" ","HOUSE_NO":"７號","E_COORD97":179089.54999999999,"N_COORD97":2579052.1400000001,"ADDRESS":"民生路２０８巷７號","OBJECTID":362396},"geometry":{"x":179089.55000000075,"y":2579052.1400000006}},{"attributes":{"ID":362407,"DIS_CODE":0,"TOWNNAME":"新營區","LI":"新北里","LIN":"19鄰","STREET":"民生路","SECT":" ","MAREA":" ","LANE":"２２６巷","ALLEY":" ","HOUSE_NO":"２４之１號","E_COORD97":179129.31,"N_COORD97":2579089.6699999999,"ADDRESS":"民生路２２６巷２４之１號","OBJECTID":362397},"geometry":{"x":179129.30999999959,"y":2579089.6700000037}},{"attributes":{"ID":362408,"DIS_CODE":0,"TOWNNAME":"新營區","LI":"新北里","LIN":"19鄰","STREET":"民生路","SECT":" ","MAREA":" ","LANE":"２２６巷","ALLEY":" ","HOUSE_NO":"２號","E_COORD97":179059.98999999999,"N_COORD97":2579064.46,"ADDRESS":"民生路２２６巷２號","OBJECTID":362398},"geometry":{"x":179059.99000000115,"y":2579064.4600000009}},{"attributes":{"ID":362409,"DIS_CODE":0,"TOWNNAME":"新營區","LI":"新北里","LIN":"19鄰","STREET":"民生路","SECT":" ","MAREA":" ","LANE":"２２６巷","ALLEY":" ","HOUSE_NO":"１８之１號","E_COORD97":179142.60999999999,"N_COORD97":2579102.8900000001,"ADDRESS":"民生路２２６巷１８之１號","OBJECTID":362399},"geometry":{"x":179142.61000000127,"y":2579102.8900000025}},{"attributes":{"ID":362410,"DIS_CODE":0,"TOWNNAME":"新營區","LI":"新北里","LIN":"19鄰","STREET":"民生路","SECT":" ","MAREA":" ","LANE":"２０８巷","ALLEY":" ","HOUSE_NO":"１２號","E_COORD97":179123.45000000001,"N_COORD97":2579042.02,"ADDRESS":"民生路２０８巷１２號","OBJECTID":362400},"geometry":{"x":179123.45000000019,"y":2579042.0199999996}}]}