{"displayFieldName":"TOWNNAME","fieldAliases":{"ID":"ID","DIS_CODE":"DIS_CODE","TOWNNAME":"TOWNNAME","LI":"LI","LIN":"LIN","STREET":"STREET","SECT":"SECT","MAREA":"MAREA","LANE":"LANE","ALLEY":"ALLEY","HOUSE_NO":"HOUSE_NO","E_COORD97":"E_COORD97","N_COORD97":"N_COORD97","ADDRESS":"ADDRESS","OBJECTID":"OBJECTID"},"geometryType":"esriGeometryPoint","spatialReference":{"wkid":102443,"latestWkid":3826},"fields":[{"name":"ID","type":"esriFieldTypeDouble","alias":"ID"},{"name":"DIS_CODE","type":"esriFieldTypeInteger","alias":"DIS_CODE"},{"name":"TOWNNAME","type":"esriFieldTypeString","alias":"TOWNNAME","length":8},{"name":"LI","type":"esriFieldTypeString","alias":"LI","length":8},{"name":"LIN","type":"esriFieldTypeString","alias":"LIN","length":12},{"name":"STREET","type":"esriFieldTypeString","alias":"STREET","length":20},{"name":"SECT","type":"esriFieldTypeString","alias":"SECT","length":8},{"name":"MAREA","type":"esriFieldTypeString","alias":"MAREA","length":12},{"name":"LANE","type":"esriFieldTypeString","alias":"LANE","length":10},{"name":"ALLEY","type":"esriFieldTypeString","alias":"ALLEY","length":10},{"name":"HOUSE_NO","type":"esriFieldTypeString","alias":"HOUSE_NO","length":20},{"name":"E_COORD97","type":"esriFieldTypeDouble","alias":"E_COORD97"},{"name":"N_COORD97","type":"esriFieldTypeDouble","alias":"N_COORD97"},{"name":"ADDRESS","type":"esriFieldTypeString","alias":"ADDRESS","length":50},{"name":"OBJECTID","type":"esriFieldTypeOID","alias":"OBJECTID"}],"features":[{"attributes":{"ID":466226,"DIS_CODE":0,"TOWNNAME":"北區","LI":"安民里","LIN":"5鄰","STREET":"康樂街","SECT":" ","MAREA":" ","LANE":" ","ALLEY":" ","HOUSE_NO":"４２４號","E_COORD97":167800.32999999999,"N_COORD97":2544752.9399999999,"ADDRESS":"康樂街４２４號","OBJECTID":466201},"geometry":{"x":167800.33000000007,"y":2544752.9400000032}},{"attributes":{"ID":466227,"DIS_CODE":0,"TOWNNAME":"北區","LI":"安民里","LIN":"5鄰","STREET":"康樂街","SECT":" ","MAREA":" ","LANE":" ","ALLEY":" ","HOUSE_NO":"４２６號","E_COORD97":167802.63,"N_COORD97":2544757.52,"ADDRESS":"康樂街４２６號","OBJECTID":466202},"geometry":{"x":167802.63000000082,"y":2544757.5200000014}},{"attributes":{"ID":466228,"DIS_CODE":0,"TOWNNAME":"北區","LI":"安民里","LIN":"5鄰","STREET":"康樂街","SECT":" ","MAREA":" ","LANE":" ","ALLEY":" ","HOUSE_NO":"４２８號","E_COORD97":167803.04000000001,"N_COORD97":2544761.27,"ADDRESS":"康樂街４２８號","OBJECTID":466203},"geometry":{"x":167803.04000000097,"y":2544761.2700000033}},{"attributes":{"ID":466229,"DIS_CODE":0,"TOWNNAME":"北區","LI":"安民里","LIN":"5鄰","STREET":"康樂街","SECT":" ","MAREA":" ","LANE":" ","ALLEY":" ","HOUSE_NO":"４３２號","E_COORD97":167804.92000000001,"N_COORD97":2544770.2200000002,"ADDRESS":"康樂街４３２號","OBJECTID":466204},"geometry":{"x":167804.91999999993,"y":2544770.2200000025}},{"attributes":{"ID":466230,"DIS_CODE":0,"TOWNNAME":"北區","LI":"安民里","LIN":"5鄰","STREET":"康樂街","SECT":" ","MAREA":" ","LANE":" ","ALLEY":" ","HOUSE_NO":"４３６號","E_COORD97":167811.59,"N_COORD97":2544783.0800000001,"ADDRESS":"康樂街４３６號","OBJECTID":466205},"geometry":{"x":167811.59000000078,"y":2544783.0799999982}},{"attributes":{"ID":466231,"DIS_CODE":0,"TOWNNAME":"北區","LI":"安民里","LIN":"5鄰","STREET":"康樂街","SECT":" ","MAREA":" ","LANE":" ","ALLEY":" ","HOUSE_NO":"４３８號","E_COORD97":167813.26000000001,"N_COORD97":2544790.1600000001,"ADDRESS":"康樂街４３８號","OBJECTID":466206},"geometry":{"x":167813.26000000071,"y":2544790.160000002}},{"attributes":{"ID":466232,"DIS_CODE":0,"TOWNNAME":"北區","LI":"安民里","LIN":"5鄰","STREET":"康樂街","SECT":" ","MAREA":" ","LANE":" ","ALLEY":" ","HOUSE_NO":"４４２號","E_COORD97":167819.10000000001,"N_COORD97":2544802.2400000002,"ADDRESS":"康樂街４４２號","OBJECTID":466207},"geometry":{"x":167819.10000000056,"y":2544802.2400000002}},{"attributes":{"ID":466233,"DIS_CODE":0,"TOWNNAME":"永康區","LI":"大橋里","LIN":"5鄰","STREET":"大橋三街","SECT":" ","MAREA":" ","LANE":" ","ALLEY":" ","HOUSE_NO":"１９１號四樓之４","E_COORD97":170843.04000000001,"N_COORD97":2546766.4100000001,"ADDRESS":"大橋三街１９１號四樓之４","OBJECTID":466208},"geometry":{"x":170843.04000000097,"y":2546766.4100000001}},{"attributes":{"ID":466234,"DIS_CODE":0,"TOWNNAME":"永康區","LI":"大橋里","LIN":"5鄰","STREET":"大橋三街","SECT":" ","MAREA":" ","LANE":" ","ALLEY":" ","HOUSE_NO":"１９１號四樓之１","E_COORD97":170843.01000000001,"N_COORD97":2546766.4100000001,"ADDRESS":"大橋三街１９１號四樓之１","OBJECTID":466209},"geometry":{"x":170843.01000000071,"y":2546766.4100000001}},{"attributes":{"ID":466235,"DIS_CODE":0,"TOWNNAME":"永康區","LI":"大橋里","LIN":"5鄰","STREET":"大橋三街","SECT":" ","MAREA":" ","LANE":" ","ALLEY":" ","HOUSE_NO":"１９１號五樓之２","E_COORD97":170843.14999999999,"N_COORD97":2546766.4100000001,"ADDRESS":"大橋三街１９１號五樓之２","OBJECTID":466210},"geometry":{"x":170843.15000000037,"y":2546766.4100000001}},{"attributes":{"ID":466236,"DIS_CODE":0,"TOWNNAME":"永康區","LI":"大橋里","LIN":"5鄰","STREET":"大橋五街","SECT":" ","MAREA":" ","LANE":" ","ALLEY":" ","HOUSE_NO":"１２號五樓","E_COORD97":170797.28,"N_COORD97":2546818.1800000002,"ADDRESS":"大橋五街１２號五樓","OBJECTID":466211},"geometry":{"x":170797.28000000119,"y":2546818.1799999997}},{"attributes":{"ID":466237,"DIS_CODE":0,"TOWNNAME":"中西區","LI":"文賢里","LIN":"5鄰","STREET":"文和街","SECT":" ","MAREA":" ","LANE":" ","ALLEY":" ","HOUSE_NO":"１１８號二樓之１","E_COORD97":167092.10000000001,"N_COORD97":2544827.7799999998,"ADDRESS":"文和街１１８號二樓之１","OBJECTID":466212},"geometry":{"x":167092.10000000056,"y":2544827.7799999993}},{"attributes":{"ID":466238,"DIS_CODE":0,"TOWNNAME":"中西區","LI":"文賢里","LIN":"5鄰","STREET":"文和街","SECT":" ","MAREA":" ","LANE":" ","ALLEY":" ","HOUSE_NO":"１１８號二樓之２","E_COORD97":167092.10000000001,"N_COORD97":2544827.7799999998,"ADDRESS":"文和街１１８號二樓之２","OBJECTID":466213},"geometry":{"x":167092.10000000056,"y":2544827.7799999993}},{"attributes":{"ID":466239,"DIS_CODE":0,"TOWNNAME":"中西區","LI":"文賢里","LIN":"5鄰","STREET":"文和街","SECT":" ","MAREA":" ","LANE":" ","ALLEY":" ","HOUSE_NO":"１１８號二樓之３","E_COORD97":167092.10000000001,"N_COORD97":2544827.7799999998,"ADDRESS":"文和街１１８號二樓之３","OBJECTID":466214},"geometry":{"x":167092.10000000056,"y":2544827.7799999993}},{"attributes":{"ID":466240,"DIS_CODE":0,"TOWNNAME":"東區","LI":"崇信里","LIN":"19鄰","STREET":"崇善一街","SECT":" ","MAREA":" ","LANE":" ","ALLEY":" ","HOUSE_NO":"４號","E_COORD97":170690.06,"N_COORD97":2542120.4199999999,"ADDRESS":"崇善一街４號","OBJECTID":466215},"geometry":{"x":170690.05999999959,"y":2542120.4200000018}},{"attributes":{"ID":466241,"DIS_CODE":0,"TOWNNAME":"東區","LI":"泉南里","LIN":"5鄰","STREET":"府東街","SECT":" ","MAREA":" ","LANE":" ","ALLEY":" ","HOUSE_NO":"２１４號三樓","E_COORD97":169436.37,"N_COORD97":2543091.5800000001,"ADDRESS":"府東街２１４號三樓","OBJECTID":466216},"geometry":{"x":169436.37000000011,"y":2543091.5800000038}},{"attributes":{"ID":466242,"DIS_CODE":0,"TOWNNAME":"東區","LI":"泉南里","LIN":"5鄰","STREET":"府東街","SECT":" ","MAREA":" ","LANE":" ","ALLEY":" ","HOUSE_NO":"２１４號三樓之１","E_COORD97":169436.37,"N_COORD97":2543091.5800000001,"ADDRESS":"府東街２１４號三樓之１","OBJECTID":466217},"geometry":{"x":169436.37000000011,"y":2543091.5800000038}},{"attributes":{"ID":466243,"DIS_CODE":0,"TOWNNAME":"東區","LI":"泉南里","LIN":"5鄰","STREET":"府東街","SECT":" ","MAREA":" ","LANE":" ","ALLEY":" ","HOUSE_NO":"２１４號三樓之２","E_COORD97":169436.37,"N_COORD97":2543091.5800000001,"ADDRESS":"府東街２１４號三樓之２","OBJECTID":466218},"geometry":{"x":169436.37000000011,"y":2543091.5800000038}},{"attributes":{"ID":466244,"DIS_CODE":0,"TOWNNAME":"東區","LI":"泉南里","LIN":"5鄰","STREET":"府東街","SECT":" ","MAREA":" ","LANE":" ","ALLEY":" ","HOUSE_NO":"２１４號四樓","E_COORD97":169436.37,"N_COORD97":2543091.5800000001,"ADDRESS":"府東街２１４號四樓","OBJECTID":466219},"geometry":{"x":169436.37000000011,"y":2543091.5800000038}},{"attributes":{"ID":466245,"DIS_CODE":0,"TOWNNAME":"東區","LI":"泉南里","LIN":"5鄰","STREET":"府東街","SECT":" ","MAREA":" ","LANE":" ","ALLEY":" ","HOUSE_NO":"２１４號四樓之１","E_COORD97":169436.37,"N_COORD97":2543091.5800000001,"ADDRESS":"府東街２１４號四樓之１","OBJECTID":466220},"geometry":{"x":169436.37000000011,"y":2543091.5800000038}},{"attributes":{"ID":466246,"DIS_CODE":0,"TOWNNAME":"東區","LI":"泉南里","LIN":"5鄰","STREET":"府東街","SECT":" ","MAREA":" ","LANE":" ","ALLEY":" ","HOUSE_NO":"２１４號四樓之２","E_COORD97":169436.37,"N_COORD97":2543091.5800000001,"ADDRESS":"府東街２１４號四樓之２","OBJECTID":466221},"geometry":{"x":169436.37000000011,"y":2543091.5800000038}},{"attributes":{"ID":466247,"DIS_CODE":0,"TOWNNAME":"東區","LI":"泉南里","LIN":"5鄰","STREET":"府東街","SECT":" ","MAREA":" ","LANE":" ","ALLEY":" ","HOUSE_NO":"２１４號四樓之３","E_COORD97":169436.37,"N_COORD97":2543091.5800000001,"ADDRESS":"府東街２１４號四樓之３","OBJECTID":466222},"geometry":{"x":169436.37000000011,"y":2543091.5800000038}},{"attributes":{"ID":466248,"DIS_CODE":0,"TOWNNAME":"東區","LI":"泉南里","LIN":"5鄰","STREET":"府東街","SECT":" ","MAREA":" ","LANE":" ","ALLEY":" ","HOUSE_NO":"２１４號五樓","E_COORD97":169436.37,"N_COORD97":2543091.5800000001,"ADDRESS":"府東街２１４號五樓","OBJECTID":466223},"geometry":{"x":169436.37000000011,"y":2543091.5800000038}},{"attributes":{"ID":466249,"DIS_CODE":0,"TOWNNAME":"東區","LI":"泉南里","LIN":"5鄰","STREET":"府東街","SECT":" ","MAREA":" ","LANE":" ","ALLEY":" ","HOUSE_NO":"２１４號五樓之１","E_COORD97":169436.37,"N_COORD97":2543091.5800000001,"ADDRESS":"府東街２１４號五樓之１","OBJECTID":466224},"geometry":{"x":169436.37000000011,"y":2543091.5800000038}},{"attributes":{"ID":466250,"DIS_CODE":0,"TOWNNAME":"東區","LI":"泉南里","LIN":"5鄰","STREET":"府東街","SECT":" ","MAREA":" ","LANE":" ","ALLEY":" ","HOUSE_NO":"２１４號五樓之２","E_COORD97":169436.37,"N_COORD97":2543091.5800000001,"ADDRESS":"府東街２１４號五樓之２","OBJECTID":466225},"geometry":{"x":169436.37000000011,"y":2543091.5800000038}},{"attributes":{"ID":466251,"DIS_CODE":0,"TOWNNAME":"東區","LI":"泉南里","LIN":"5鄰","STREET":"府東街","SECT":" ","MAREA":" ","LANE":" ","ALLEY":" ","HOUSE_NO":"２１４號五樓之３","E_COORD97":169436.37,"N_COORD97":2543091.5800000001,"ADDRESS":"府東街２１４號五樓之３","OBJECTID":466226},"geometry":{"x":169436.37000000011,"y":2543091.5800000038}},{"attributes":{"ID":466252,"DIS_CODE":0,"TOWNNAME":"東區","LI":"泉南里","LIN":"5鄰","STREET":"府東街","SECT":" ","MAREA":" ","LANE":" ","ALLEY":" ","HOUSE_NO":"２１４號六樓","E_COORD97":169436.37,"N_COORD97":2543091.5800000001,"ADDRESS":"府東街２１４號六樓","OBJECTID":466227},"geometry":{"x":169436.37000000011,"y":2543091.5800000038}},{"attributes":{"ID":466253,"DIS_CODE":0,"TOWNNAME":"東區","LI":"泉南里","LIN":"5鄰","STREET":"府東街","SECT":" ","MAREA":" ","LANE":" ","ALLEY":" ","HOUSE_NO":"２１４號六樓之１","E_COORD97":169436.37,"N_COORD97":2543091.5800000001,"ADDRESS":"府東街２１４號六樓之１","OBJECTID":466228},"geometry":{"x":169436.37000000011,"y":2543091.5800000038}},{"attributes":{"ID":466254,"DIS_CODE":0,"TOWNNAME":"東區","LI":"泉南里","LIN":"5鄰","STREET":"府東街","SECT":" ","MAREA":" ","LANE":" ","ALLEY":" ","HOUSE_NO":"２１４號六樓之２","E_COORD97":169436.37,"N_COORD97":2543091.5800000001,"ADDRESS":"府東街２１４號六樓之２","OBJECTID":466229},"geometry":{"x":169436.37000000011,"y":2543091.5800000038}},{"attributes":{"ID":466255,"DIS_CODE":0,"TOWNNAME":"東區","LI":"泉南里","LIN":"5鄰","STREET":"府東街","SECT":" ","MAREA":" ","LANE":" ","ALLEY":" ","HOUSE_NO":"２１４號六樓之３","E_COORD97":169436.37,"N_COORD97":2543091.5800000001,"ADDRESS":"府東街２１４號六樓之３","OBJECTID":466230},"geometry":{"x":169436.37000000011,"y":2543091.5800000038}},{"attributes":{"ID":466256,"DIS_CODE":0,"TOWNNAME":"東區","LI":"泉南里","LIN":"5鄰","STREET":"府東街","SECT":" ","MAREA":" ","LANE":" ","ALLEY":" ","HOUSE_NO":"２１４號七樓","E_COORD97":169436.37,"N_COORD97":2543091.5800000001,"ADDRESS":"府東街２１４號七樓","OBJECTID":466231},"geometry":{"x":169436.37000000011,"y":2543091.5800000038}},{"attributes":{"ID":466257,"DIS_CODE":0,"TOWNNAME":"東區","LI":"泉南里","LIN":"5鄰","STREET":"府東街","SECT":" ","MAREA":" ","LANE":" ","ALLEY":" ","HOUSE_NO":"２１４號七樓之１","E_COORD97":169436.37,"N_COORD97":2543091.5800000001,"ADDRESS":"府東街２１４號七樓之１","OBJECTID":466232},"geometry":{"x":169436.37000000011,"y":2543091.5800000038}},{"attributes":{"ID":466258,"DIS_CODE":0,"TOWNNAME":"東區","LI":"泉南里","LIN":"5鄰","STREET":"府東街","SECT":" ","MAREA":" ","LANE":" ","ALLEY":" ","HOUSE_NO":"２１４號七樓之２","E_COORD97":169436.37,"N_COORD97":2543091.5800000001,"ADDRESS":"府東街２１４號七樓之２","OBJECTID":466233},"geometry":{"x":169436.37000000011,"y":2543091.5800000038}},{"attributes":{"ID":466259,"DIS_CODE":0,"TOWNNAME":"東區","LI":"泉南里","LIN":"5鄰","STREET":"府東街","SECT":" ","MAREA":" ","LANE":" ","ALLEY":" ","HOUSE_NO":"２１４號八樓","E_COORD97":169436.37,"N_COORD97":2543091.5800000001,"ADDRESS":"府東街２１４號八樓","OBJECTID":466234},"geometry":{"x":169436.37000000011,"y":2543091.5800000038}},{"attributes":{"ID":466260,"DIS_CODE":0,"TOWNNAME":"東區","LI":"泉南里","LIN":"5鄰","STREET":"府東街","SECT":" ","MAREA":" ","LANE":" ","ALLEY":" ","HOUSE_NO":"２１４號八樓之１","E_COORD97":169436.37,"N_COORD97":2543091.5800000001,"ADDRESS":"府東街２１４號八樓之１","OBJECTID":466235},"geometry":{"x":169436.37000000011,"y":2543091.5800000038}},{"attributes":{"ID":466261,"DIS_CODE":0,"TOWNNAME":"東區","LI":"泉南里","LIN":"5鄰","STREET":"府東街","SECT":" ","MAREA":" ","LANE":" ","ALLEY":" ","HOUSE_NO":"２１４號八樓之２","E_COORD97":169436.37,"N_COORD97":2543091.5800000001,"ADDRESS":"府東街２１４號八樓之２","OBJECTID":466236},"geometry":{"x":169436.37000000011,"y":2543091.5800000038}},{"attributes":{"ID":466262,"DIS_CODE":0,"TOWNNAME":"東區","LI":"泉南里","LIN":"5鄰","STREET":"府東街","SECT":" ","MAREA":" ","LANE":" ","ALLEY":" ","HOUSE_NO":"２１４號九樓","E_COORD97":169436.37,"N_COORD97":2543091.5800000001,"ADDRESS":"府東街２１４號九樓","OBJECTID":466237},"geometry":{"x":169436.37000000011,"y":2543091.5800000038}},{"attributes":{"ID":466263,"DIS_CODE":0,"TOWNNAME":"東區","LI":"泉南里","LIN":"5鄰","STREET":"府東街","SECT":" ","MAREA":" ","LANE":" ","ALLEY":" ","HOUSE_NO":"２１４號九樓之１","E_COORD97":169436.37,"N_COORD97":2543091.5800000001,"ADDRESS":"府東街２１４號九樓之１","OBJECTID":466238},"geometry":{"x":169436.37000000011,"y":2543091.5800000038}},{"attributes":{"ID":466264,"DIS_CODE":0,"TOWNNAME":"東區","LI":"泉南里","LIN":"5鄰","STREET":"府東街","SECT":" ","MAREA":" ","LANE":" ","ALLEY":" ","HOUSE_NO":"２１４號九樓之２","E_COORD97":169436.37,"N_COORD97":2543091.5800000001,"ADDRESS":"府東街２１４號九樓之２","OBJECTID":466239},"geometry":{"x":169436.37000000011,"y":2543091.5800000038}},{"attributes":{"ID":466265,"DIS_CODE":0,"TOWNNAME":"東區","LI":"泉南里","LIN":"5鄰","STREET":"府東街","SECT":" ","MAREA":" ","LANE":" ","ALLEY":" ","HOUSE_NO":"２２２號三樓","E_COORD97":169415.5,"N_COORD97":2543099.4700000002,"ADDRESS":"府東街２２２號三樓","OBJECTID":466240},"geometry":{"x":169415.50000000093,"y":2543099.4700000044}},{"attributes":{"ID":466266,"DIS_CODE":0,"TOWNNAME":"東區","LI":"泉南里","LIN":"5鄰","STREET":"府東街","SECT":" ","MAREA":" ","LANE":" ","ALLEY":" ","HOUSE_NO":"２２２號三樓之１","E_COORD97":169415.5,"N_COORD97":2543099.4700000002,"ADDRESS":"府東街２２２號三樓之１","OBJECTID":466241},"geometry":{"x":169415.50000000093,"y":2543099.4700000044}},{"attributes":{"ID":466267,"DIS_CODE":0,"TOWNNAME":"東區","LI":"泉南里","LIN":"5鄰","STREET":"府東街","SECT":" ","MAREA":" ","LANE":" ","ALLEY":" ","HOUSE_NO":"２２２號三樓之２","E_COORD97":169415.5,"N_COORD97":2543099.4700000002,"ADDRESS":"府東街２２２號三樓之２","OBJECTID":466242},"geometry":{"x":169415.50000000093,"y":2543099.4700000044}},{"attributes":{"ID":466268,"DIS_CODE":0,"TOWNNAME":"東區","LI":"泉南里","LIN":"5鄰","STREET":"府東街","SECT":" ","MAREA":" ","LANE":" ","ALLEY":" ","HOUSE_NO":"２２２號三樓之３","E_COORD97":169415.5,"N_COORD97":2543099.4700000002,"ADDRESS":"府東街２２２號三樓之３","OBJECTID":466243},"geometry":{"x":169415.50000000093,"y":2543099.4700000044}},{"attributes":{"ID":466269,"DIS_CODE":0,"TOWNNAME":"東區","LI":"泉南里","LIN":"5鄰","STREET":"府東街","SECT":" ","MAREA":" ","LANE":" ","ALLEY":" ","HOUSE_NO":"２２２號四樓","E_COORD97":169415.5,"N_COORD97":2543099.4700000002,"ADDRESS":"府東街２２２號四樓","OBJECTID":466244},"geometry":{"x":169415.50000000093,"y":2543099.4700000044}},{"attributes":{"ID":466270,"DIS_CODE":0,"TOWNNAME":"東區","LI":"泉南里","LIN":"5鄰","STREET":"府東街","SECT":" ","MAREA":" ","LANE":" ","ALLEY":" ","HOUSE_NO":"２２２號四樓之１","E_COORD97":169415.5,"N_COORD97":2543099.4700000002,"ADDRESS":"府東街２２２號四樓之１","OBJECTID":466245},"geometry":{"x":169415.50000000093,"y":2543099.4700000044}},{"attributes":{"ID":466271,"DIS_CODE":0,"TOWNNAME":"東區","LI":"泉南里","LIN":"5鄰","STREET":"府東街","SECT":" ","MAREA":" ","LANE":" ","ALLEY":" ","HOUSE_NO":"２２２號四樓之２","E_COORD97":169415.5,"N_COORD97":2543099.4700000002,"ADDRESS":"府東街２２２號四樓之２","OBJECTID":466246},"geometry":{"x":169415.50000000093,"y":2543099.4700000044}},{"attributes":{"ID":466272,"DIS_CODE":0,"TOWNNAME":"東區","LI":"泉南里","LIN":"5鄰","STREET":"府東街","SECT":" ","MAREA":" ","LANE":" ","ALLEY":" ","HOUSE_NO":"２２２號五樓","E_COORD97":169415.5,"N_COORD97":2543099.4700000002,"ADDRESS":"府東街２２２號五樓","OBJECTID":466247},"geometry":{"x":169415.50000000093,"y":2543099.4700000044}},{"attributes":{"ID":466273,"DIS_CODE":0,"TOWNNAME":"東區","LI":"大智里","LIN":"5鄰","STREET":"長東街","SECT":" ","MAREA":" ","LANE":" ","ALLEY":" ","HOUSE_NO":"４３號三樓","E_COORD97":171012.04000000001,"N_COORD97":2540499.7999999998,"ADDRESS":"長東街４３號三樓","OBJECTID":466248},"geometry":{"x":171012.04000000097,"y":2540499.8000000007}},{"attributes":{"ID":466274,"DIS_CODE":0,"TOWNNAME":"東區","LI":"泉南里","LIN":"5鄰","STREET":"府東街","SECT":" ","MAREA":" ","LANE":" ","ALLEY":" ","HOUSE_NO":"２２２號五樓之１","E_COORD97":169415.5,"N_COORD97":2543099.4700000002,"ADDRESS":"府東街２２２號五樓之１","OBJECTID":466249},"geometry":{"x":169415.50000000093,"y":2543099.4700000044}},{"attributes":{"ID":466275,"DIS_CODE":0,"TOWNNAME":"東區","LI":"泉南里","LIN":"5鄰","STREET":"府東街","SECT":" ","MAREA":" ","LANE":" ","ALLEY":" ","HOUSE_NO":"２２２號五樓之２","E_COORD97":169415.5,"N_COORD97":2543099.4700000002,"ADDRESS":"府東街２２２號五樓之２","OBJECTID":466250},"geometry":{"x":169415.50000000093,"y":2543099.4700000044}},{"attributes":{"ID":466276,"DIS_CODE":0,"TOWNNAME":"東區","LI":"泉南里","LIN":"5鄰","STREET":"府東街","SECT":" ","MAREA":" ","LANE":" ","ALLEY":" ","HOUSE_NO":"２２２號六樓","E_COORD97":169415.5,"N_COORD97":2543099.4700000002,"ADDRESS":"府東街２２２號六樓","OBJECTID":466251},"geometry":{"x":169415.50000000093,"y":2543099.4700000044}},{"attributes":{"ID":466277,"DIS_CODE":0,"TOWNNAME":"東區","LI":"泉南里","LIN":"5鄰","STREET":"府東街","SECT":" ","MAREA":" ","LANE":" ","ALLEY":" ","HOUSE_NO":"２２２號六樓之１","E_COORD97":169415.5,"N_COORD97":2543099.4700000002,"ADDRESS":"府東街２２２號六樓之１","OBJECTID":466252},"geometry":{"x":169415.50000000093,"y":2543099.4700000044}},{"attributes":{"ID":466278,"DIS_CODE":0,"TOWNNAME":"東區","LI":"泉南里","LIN":"5鄰","STREET":"府東街","SECT":" ","MAREA":" ","LANE":" ","ALLEY":" ","HOUSE_NO":"２２２號六樓之２","E_COORD97":169415.5,"N_COORD97":2543099.4700000002,"ADDRESS":"府東街２２２號六樓之２","OBJECTID":466253},"geometry":{"x":169415.50000000093,"y":2543099.4700000044}},{"attributes":{"ID":466279,"DIS_CODE":0,"TOWNNAME":"東區","LI":"泉南里","LIN":"5鄰","STREET":"府東街","SECT":" ","MAREA":" ","LANE":" ","ALLEY":" ","HOUSE_NO":"２２２號六樓之３","E_COORD97":169415.5,"N_COORD97":2543099.4700000002,"ADDRESS":"府東街２２２號六樓之３","OBJECTID":466254},"geometry":{"x":169415.50000000093,"y":2543099.4700000044}},{"attributes":{"ID":466280,"DIS_CODE":0,"TOWNNAME":"東區","LI":"泉南里","LIN":"5鄰","STREET":"府東街","SECT":" ","MAREA":" ","LANE":" ","ALLEY":" ","HOUSE_NO":"２２２號七樓","E_COORD97":169415.5,"N_COORD97":2543099.4700000002,"ADDRESS":"府東街２２２號七樓","OBJECTID":466255},"geometry":{"x":169415.50000000093,"y":2543099.4700000044}},{"attributes":{"ID":466281,"DIS_CODE":0,"TOWNNAME":"東區","LI":"泉南里","LIN":"5鄰","STREET":"府東街","SECT":" ","MAREA":" ","LANE":" ","ALLEY":" ","HOUSE_NO":"２２２號七樓之１","E_COORD97":169415.5,"N_COORD97":2543099.4700000002,"ADDRESS":"府東街２２２號七樓之１","OBJECTID":466256},"geometry":{"x":169415.50000000093,"y":2543099.4700000044}},{"attributes":{"ID":466282,"DIS_CODE":0,"TOWNNAME":"東區","LI":"泉南里","LIN":"5鄰","STREET":"府東街","SECT":" ","MAREA":" ","LANE":" ","ALLEY":" ","HOUSE_NO":"２２２號七樓之２","E_COORD97":169415.5,"N_COORD97":2543099.4700000002,"ADDRESS":"府東街２２２號七樓之２","OBJECTID":466257},"geometry":{"x":169415.50000000093,"y":2543099.4700000044}},{"attributes":{"ID":466283,"DIS_CODE":0,"TOWNNAME":"東區","LI":"泉南里","LIN":"5鄰","STREET":"府東街","SECT":" ","MAREA":" ","LANE":" ","ALLEY":" ","HOUSE_NO":"２２２號八樓","E_COORD97":169415.5,"N_COORD97":2543099.4700000002,"ADDRESS":"府東街２２２號八樓","OBJECTID":466258},"geometry":{"x":169415.50000000093,"y":2543099.4700000044}},{"attributes":{"ID":466284,"DIS_CODE":0,"TOWNNAME":"東區","LI":"泉南里","LIN":"5鄰","STREET":"府東街","SECT":" ","MAREA":" ","LANE":" ","ALLEY":" ","HOUSE_NO":"２２２號八樓之１","E_COORD97":169415.5,"N_COORD97":2543099.4700000002,"ADDRESS":"府東街２２２號八樓之１","OBJECTID":466259},"geometry":{"x":169415.50000000093,"y":2543099.4700000044}},{"attributes":{"ID":466285,"DIS_CODE":0,"TOWNNAME":"東區","LI":"泉南里","LIN":"5鄰","STREET":"府東街","SECT":" ","MAREA":" ","LANE":" ","ALLEY":" ","HOUSE_NO":"２２２號八樓之２","E_COORD97":169415.5,"N_COORD97":2543099.4700000002,"ADDRESS":"府東街２２２號八樓之２","OBJECTID":466260},"geometry":{"x":169415.50000000093,"y":2543099.4700000044}},{"attributes":{"ID":466286,"DIS_CODE":0,"TOWNNAME":"東區","LI":"泉南里","LIN":"5鄰","STREET":"府東街","SECT":" ","MAREA":" ","LANE":" ","ALLEY":" ","HOUSE_NO":"２２２號九樓","E_COORD97":169415.5,"N_COORD97":2543099.4700000002,"ADDRESS":"府東街２２２號九樓","OBJECTID":466261},"geometry":{"x":169415.50000000093,"y":2543099.4700000044}},{"attributes":{"ID":466287,"DIS_CODE":0,"TOWNNAME":"東區","LI":"泉南里","LIN":"5鄰","STREET":"府東街","SECT":" ","MAREA":" ","LANE":" ","ALLEY":" ","HOUSE_NO":"２２２號九樓之１","E_COORD97":169415.5,"N_COORD97":2543099.4700000002,"ADDRESS":"府東街２２２號九樓之１","OBJECTID":466262},"geometry":{"x":169415.50000000093,"y":2543099.4700000044}},{"attributes":{"ID":466288,"DIS_CODE":0,"TOWNNAME":"東區","LI":"泉南里","LIN":"5鄰","STREET":"府東街","SECT":" ","MAREA":" ","LANE":" ","ALLEY":" ","HOUSE_NO":"２２２號九樓之２","E_COORD97":169415.5,"N_COORD97":2543099.4700000002,"ADDRESS":"府東街２２２號九樓之２","OBJECTID":466263},"geometry":{"x":169415.50000000093,"y":2543099.4700000044}},{"attributes":{"ID":466289,"DIS_CODE":0,"TOWNNAME":"永康區","LI":"大橋里","LIN":"5鄰","STREET":"大橋五街","SECT":" ","MAREA":" ","LANE":" ","ALLEY":" ","HOUSE_NO":"１２號六樓","E_COORD97":170797.28,"N_COORD97":2546818.1800000002,"ADDRESS":"大橋五街１２號六樓","OBJECTID":466264},"geometry":{"x":170797.28000000119,"y":2546818.1799999997}},{"attributes":{"ID":466290,"DIS_CODE":0,"TOWNNAME":"永康區","LI":"大橋里","LIN":"5鄰","STREET":"大橋五街","SECT":" ","MAREA":" ","LANE":" ","ALLEY":" ","HOUSE_NO":"１２號八樓","E_COORD97":170797.28,"N_COORD97":2546818.1800000002,"ADDRESS":"大橋五街１２號八樓","OBJECTID":466265},"geometry":{"x":170797.28000000119,"y":2546818.1799999997}},{"attributes":{"ID":466291,"DIS_CODE":0,"TOWNNAME":"永康區","LI":"大橋里","LIN":"5鄰","STREET":"大橋五街","SECT":" ","MAREA":" ","LANE":" ","ALLEY":" ","HOUSE_NO":"８號四樓之２","E_COORD97":170789.13,"N_COORD97":2546810.5,"ADDRESS":"大橋五街８號四樓之２","OBJECTID":466266},"geometry":{"x":170789.13000000082,"y":2546810.5}},{"attributes":{"ID":466292,"DIS_CODE":0,"TOWNNAME":"永康區","LI":"大橋里","LIN":"5鄰","STREET":"大橋五街","SECT":" ","MAREA":" ","LANE":" ","ALLEY":" ","HOUSE_NO":"８號六樓之２","E_COORD97":170789.13,"N_COORD97":2546810.5,"ADDRESS":"大橋五街８號六樓之２","OBJECTID":466267},"geometry":{"x":170789.13000000082,"y":2546810.5}},{"attributes":{"ID":466293,"DIS_CODE":0,"TOWNNAME":"永康區","LI":"大橋里","LIN":"5鄰","STREET":"大橋三街","SECT":" ","MAREA":" ","LANE":" ","ALLEY":" ","HOUSE_NO":"１９１號四樓之６","E_COORD97":170843.12,"N_COORD97":2546766.4100000001,"ADDRESS":"大橋三街１９１號四樓之６","OBJECTID":466268},"geometry":{"x":170843.12000000011,"y":2546766.4100000001}},{"attributes":{"ID":466294,"DIS_CODE":0,"TOWNNAME":"永康區","LI":"大橋里","LIN":"5鄰","STREET":"大橋五街","SECT":" ","MAREA":" ","LANE":" ","ALLEY":" ","HOUSE_NO":"１０號六樓之１","E_COORD97":170794.48999999999,"N_COORD97":2546814.75,"ADDRESS":"大橋五街１０號六樓之１","OBJECTID":466269},"geometry":{"x":170794.49000000115,"y":2546814.75}},{"attributes":{"ID":466295,"DIS_CODE":0,"TOWNNAME":"永康區","LI":"大橋里","LIN":"5鄰","STREET":"大橋五街","SECT":" ","MAREA":" ","LANE":" ","ALLEY":" ","HOUSE_NO":"８號四樓之１","E_COORD97":170788.98999999999,"N_COORD97":2546810.5,"ADDRESS":"大橋五街８號四樓之１","OBJECTID":466270},"geometry":{"x":170788.99000000115,"y":2546810.5}},{"attributes":{"ID":466296,"DIS_CODE":0,"TOWNNAME":"永康區","LI":"大橋里","LIN":"5鄰","STREET":"大橋五街","SECT":" ","MAREA":" ","LANE":" ","ALLEY":" ","HOUSE_NO":"８號六樓之１","E_COORD97":170788.98999999999,"N_COORD97":2546810.5,"ADDRESS":"大橋五街８號六樓之１","OBJECTID":466271},"geometry":{"x":170788.99000000115,"y":2546810.5}},{"attributes":{"ID":466297,"DIS_CODE":0,"TOWNNAME":"永康區","LI":"大橋里","LIN":"5鄰","STREET":"大橋五街","SECT":" ","MAREA":" ","LANE":" ","ALLEY":" ","HOUSE_NO":"１０號八樓之２","E_COORD97":170794.63,"N_COORD97":2546814.75,"ADDRESS":"大橋五街１０號八樓之２","OBJECTID":466272},"geometry":{"x":170794.63000000082,"y":2546814.75}},{"attributes":{"ID":466298,"DIS_CODE":0,"TOWNNAME":"永康區","LI":"大橋里","LIN":"5鄰","STREET":"大橋五街","SECT":" ","MAREA":" ","LANE":" ","ALLEY":" ","HOUSE_NO":"１２號七樓","E_COORD97":170797.28,"N_COORD97":2546818.1800000002,"ADDRESS":"大橋五街１２號七樓","OBJECTID":466273},"geometry":{"x":170797.28000000119,"y":2546818.1799999997}},{"attributes":{"ID":466299,"DIS_CODE":0,"TOWNNAME":"永康區","LI":"大橋里","LIN":"5鄰","STREET":"大橋五街","SECT":" ","MAREA":" ","LANE":" ","ALLEY":" ","HOUSE_NO":"２號四樓之１","E_COORD97":170770.03,"N_COORD97":2546837.54,"ADDRESS":"大橋五街２號四樓之１","OBJECTID":466274},"geometry":{"x":170770.03000000119,"y":2546837.540000001}},{"attributes":{"ID":466300,"DIS_CODE":0,"TOWNNAME":"永康區","LI":"大橋里","LIN":"5鄰","STREET":"大橋三街","SECT":" ","MAREA":" ","LANE":" ","ALLEY":" ","HOUSE_NO":"１９１號四樓之３","E_COORD97":170843.10999999999,"N_COORD97":2546766.4100000001,"ADDRESS":"大橋三街１９１號四樓之３","OBJECTID":466275},"geometry":{"x":170843.11000000034,"y":2546766.4100000001}},{"attributes":{"ID":466301,"DIS_CODE":0,"TOWNNAME":"永康區","LI":"大橋里","LIN":"5鄰","STREET":"大橋三街","SECT":" ","MAREA":" ","LANE":" ","ALLEY":" ","HOUSE_NO":"１９１號三樓之３","E_COORD97":170843.10999999999,"N_COORD97":2546766.4100000001,"ADDRESS":"大橋三街１９１號三樓之３","OBJECTID":466276},"geometry":{"x":170843.11000000034,"y":2546766.4100000001}},{"attributes":{"ID":466302,"DIS_CODE":0,"TOWNNAME":"永康區","LI":"大橋里","LIN":"5鄰","STREET":"大橋三街","SECT":" ","MAREA":" ","LANE":" ","ALLEY":" ","HOUSE_NO":"１９１號六樓之３","E_COORD97":170843.10999999999,"N_COORD97":2546766.4100000001,"ADDRESS":"大橋三街１９１號六樓之３","OBJECTID":466277},"geometry":{"x":170843.11000000034,"y":2546766.4100000001}},{"attributes":{"ID":466303,"DIS_CODE":0,"TOWNNAME":"東區","LI":"大智里","LIN":"5鄰","STREET":"長東街","SECT":" ","MAREA":" ","LANE":" ","ALLEY":" ","HOUSE_NO":"４３號五樓","E_COORD97":171012.04000000001,"N_COORD97":2540499.7999999998,"ADDRESS":"長東街４３號五樓","OBJECTID":466278},"geometry":{"x":171012.04000000097,"y":2540499.8000000007}},{"attributes":{"ID":466304,"DIS_CODE":0,"TOWNNAME":"永康區","LI":"大橋里","LIN":"5鄰","STREET":"大橋五街","SECT":" ","MAREA":" ","LANE":" ","ALLEY":" ","HOUSE_NO":"２號四樓之２","E_COORD97":170770.17000000001,"N_COORD97":2546837.54,"ADDRESS":"大橋五街２號四樓之２","OBJECTID":466279},"geometry":{"x":170770.17000000179,"y":2546837.540000001}},{"attributes":{"ID":466305,"DIS_CODE":0,"TOWNNAME":"永康區","LI":"大橋里","LIN":"5鄰","STREET":"大橋五街","SECT":" ","MAREA":" ","LANE":" ","ALLEY":" ","HOUSE_NO":"８號五樓之２","E_COORD97":170789.13,"N_COORD97":2546810.5,"ADDRESS":"大橋五街８號五樓之２","OBJECTID":466280},"geometry":{"x":170789.13000000082,"y":2546810.5}},{"attributes":{"ID":466306,"DIS_CODE":0,"TOWNNAME":"東區","LI":"大智里","LIN":"5鄰","STREET":"長東街","SECT":" ","MAREA":" ","LANE":" ","ALLEY":" ","HOUSE_NO":"４３號四樓","E_COORD97":171012.04000000001,"N_COORD97":2540499.7999999998,"ADDRESS":"長東街４３號四樓","OBJECTID":466281},"geometry":{"x":171012.04000000097,"y":2540499.8000000007}},{"attributes":{"ID":466307,"DIS_CODE":0,"TOWNNAME":"東區","LI":"崇善里","LIN":"5鄰","STREET":"崇善五街","SECT":" ","MAREA":" ","LANE":" ","ALLEY":" ","HOUSE_NO":"１０號四樓","E_COORD97":171032.59,"N_COORD97":2541552.3599999999,"ADDRESS":"崇善五街１０號四樓","OBJECTID":466282},"geometry":{"x":171032.58999999985,"y":2541552.3599999994}},{"attributes":{"ID":466308,"DIS_CODE":0,"TOWNNAME":"東區","LI":"崇善里","LIN":"5鄰","STREET":"崇善五街","SECT":" ","MAREA":" ","LANE":" ","ALLEY":" ","HOUSE_NO":"１０號四樓之１","E_COORD97":171032.59,"N_COORD97":2541552.3599999999,"ADDRESS":"崇善五街１０號四樓之１","OBJECTID":466283},"geometry":{"x":171032.58999999985,"y":2541552.3599999994}},{"attributes":{"ID":466309,"DIS_CODE":0,"TOWNNAME":"東區","LI":"崇善里","LIN":"5鄰","STREET":"崇善五街","SECT":" ","MAREA":" ","LANE":" ","ALLEY":" ","HOUSE_NO":"１０號五樓","E_COORD97":171032.59,"N_COORD97":2541552.3599999999,"ADDRESS":"崇善五街１０號五樓","OBJECTID":466284},"geometry":{"x":171032.58999999985,"y":2541552.3599999994}},{"attributes":{"ID":466310,"DIS_CODE":0,"TOWNNAME":"東區","LI":"崇善里","LIN":"5鄰","STREET":"崇善五街","SECT":" ","MAREA":" ","LANE":" ","ALLEY":" ","HOUSE_NO":"１０號五樓之１","E_COORD97":171032.59,"N_COORD97":2541552.3599999999,"ADDRESS":"崇善五街１０號五樓之１","OBJECTID":466285},"geometry":{"x":171032.58999999985,"y":2541552.3599999994}},{"attributes":{"ID":466311,"DIS_CODE":0,"TOWNNAME":"東區","LI":"崇善里","LIN":"5鄰","STREET":"崇善五街","SECT":" ","MAREA":" ","LANE":" ","ALLEY":" ","HOUSE_NO":"１０號六樓","E_COORD97":171032.59,"N_COORD97":2541552.3599999999,"ADDRESS":"崇善五街１０號六樓","OBJECTID":466286},"geometry":{"x":171032.58999999985,"y":2541552.3599999994}},{"attributes":{"ID":466312,"DIS_CODE":0,"TOWNNAME":"東區","LI":"崇善里","LIN":"5鄰","STREET":"崇善五街","SECT":" ","MAREA":" ","LANE":" ","ALLEY":" ","HOUSE_NO":"１０號六樓之１","E_COORD97":171032.59,"N_COORD97":2541552.3599999999,"ADDRESS":"崇善五街１０號六樓之１","OBJECTID":466287},"geometry":{"x":171032.58999999985,"y":2541552.3599999994}},{"attributes":{"ID":466313,"DIS_CODE":0,"TOWNNAME":"東區","LI":"崇善里","LIN":"5鄰","STREET":"崇善五街","SECT":" ","MAREA":" ","LANE":" ","ALLEY":" ","HOUSE_NO":"１０號七樓","E_COORD97":171032.59,"N_COORD97":2541552.3599999999,"ADDRESS":"崇善五街１０號七樓","OBJECTID":466288},"geometry":{"x":171032.58999999985,"y":2541552.3599999994}},{"attributes":{"ID":466314,"DIS_CODE":0,"TOWNNAME":"東區","LI":"崇善里","LIN":"5鄰","STREET":"崇善五街","SECT":" ","MAREA":" ","LANE":" ","ALLEY":" ","HOUSE_NO":"１０號七樓之１","E_COORD97":171032.59,"N_COORD97":2541552.3599999999,"ADDRESS":"崇善五街１０號七樓之１","OBJECTID":466289},"geometry":{"x":171032.58999999985,"y":2541552.3599999994}},{"attributes":{"ID":466315,"DIS_CODE":0,"TOWNNAME":"東區","LI":"崇善里","LIN":"5鄰","STREET":"崇善五街","SECT":" ","MAREA":" ","LANE":" ","ALLEY":" ","HOUSE_NO":"１０號八樓","E_COORD97":171032.59,"N_COORD97":2541552.3599999999,"ADDRESS":"崇善五街１０號八樓","OBJECTID":466290},"geometry":{"x":171032.58999999985,"y":2541552.3599999994}},{"attributes":{"ID":466316,"DIS_CODE":0,"TOWNNAME":"東區","LI":"崇善里","LIN":"5鄰","STREET":"崇善五街","SECT":" ","MAREA":" ","LANE":" ","ALLEY":" ","HOUSE_NO":"１０號八樓之１","E_COORD97":171032.59,"N_COORD97":2541552.3599999999,"ADDRESS":"崇善五街１０號八樓之１","OBJECTID":466291},"geometry":{"x":171032.58999999985,"y":2541552.3599999994}},{"attributes":{"ID":466317,"DIS_CODE":0,"TOWNNAME":"東區","LI":"崇善里","LIN":"5鄰","STREET":"崇善五街","SECT":" ","MAREA":" ","LANE":" ","ALLEY":" ","HOUSE_NO":"１８號二樓","E_COORD97":171081.78,"N_COORD97":2541558.0099999998,"ADDRESS":"崇善五街１８號二樓","OBJECTID":466292},"geometry":{"x":171081.78000000119,"y":2541558.0099999998}},{"attributes":{"ID":466318,"DIS_CODE":0,"TOWNNAME":"東區","LI":"崇善里","LIN":"5鄰","STREET":"崇善五街","SECT":" ","MAREA":" ","LANE":" ","ALLEY":" ","HOUSE_NO":"１８號二樓之１","E_COORD97":171081.78,"N_COORD97":2541558.0099999998,"ADDRESS":"崇善五街１８號二樓之１","OBJECTID":466293},"geometry":{"x":171081.78000000119,"y":2541558.0099999998}},{"attributes":{"ID":466319,"DIS_CODE":0,"TOWNNAME":"東區","LI":"崇善里","LIN":"5鄰","STREET":"崇善五街","SECT":" ","MAREA":" ","LANE":" ","ALLEY":" ","HOUSE_NO":"１８號二樓之２","E_COORD97":171081.78,"N_COORD97":2541558.0099999998,"ADDRESS":"崇善五街１８號二樓之２","OBJECTID":466294},"geometry":{"x":171081.78000000119,"y":2541558.0099999998}},{"attributes":{"ID":466320,"DIS_CODE":0,"TOWNNAME":"東區","LI":"崇善里","LIN":"5鄰","STREET":"崇善五街","SECT":" ","MAREA":" ","LANE":" ","ALLEY":" ","HOUSE_NO":"１８號三樓","E_COORD97":171081.78,"N_COORD97":2541558.0099999998,"ADDRESS":"崇善五街１８號三樓","OBJECTID":466295},"geometry":{"x":171081.78000000119,"y":2541558.0099999998}},{"attributes":{"ID":466321,"DIS_CODE":0,"TOWNNAME":"東區","LI":"崇善里","LIN":"5鄰","STREET":"崇善五街","SECT":" ","MAREA":" ","LANE":" ","ALLEY":" ","HOUSE_NO":"１８號三樓之１","E_COORD97":171081.78,"N_COORD97":2541558.0099999998,"ADDRESS":"崇善五街１８號三樓之１","OBJECTID":466296},"geometry":{"x":171081.78000000119,"y":2541558.0099999998}},{"attributes":{"ID":466322,"DIS_CODE":0,"TOWNNAME":"東區","LI":"崇善里","LIN":"5鄰","STREET":"崇善五街","SECT":" ","MAREA":" ","LANE":" ","ALLEY":" ","HOUSE_NO":"１８號三樓之２","E_COORD97":171081.78,"N_COORD97":2541558.0099999998,"ADDRESS":"崇善五街１８號三樓之２","OBJECTID":466297},"geometry":{"x":171081.78000000119,"y":2541558.0099999998}},{"attributes":{"ID":466323,"DIS_CODE":0,"TOWNNAME":"東區","LI":"崇善里","LIN":"5鄰","STREET":"崇善五街","SECT":" ","MAREA":" ","LANE":" ","ALLEY":" ","HOUSE_NO":"１８號四樓","E_COORD97":171081.78,"N_COORD97":2541558.0099999998,"ADDRESS":"崇善五街１８號四樓","OBJECTID":466298},"geometry":{"x":171081.78000000119,"y":2541558.0099999998}},{"attributes":{"ID":466324,"DIS_CODE":0,"TOWNNAME":"東區","LI":"崇善里","LIN":"5鄰","STREET":"崇善五街","SECT":" ","MAREA":" ","LANE":" ","ALLEY":" ","HOUSE_NO":"１８號四樓之１","E_COORD97":171081.78,"N_COORD97":2541558.0099999998,"ADDRESS":"崇善五街１８號四樓之１","OBJECTID":466299},"geometry":{"x":171081.78000000119,"y":2541558.0099999998}},{"attributes":{"ID":466325,"DIS_CODE":0,"TOWNNAME":"東區","LI":"崇善里","LIN":"5鄰","STREET":"崇善五街","SECT":" ","MAREA":" ","LANE":" ","ALLEY":" ","HOUSE_NO":"１８號四樓之２","E_COORD97":171081.78,"N_COORD97":2541558.0099999998,"ADDRESS":"崇善五街１８號四樓之２","OBJECTID":466300},"geometry":{"x":171081.78000000119,"y":2541558.0099999998}},{"attributes":{"ID":466326,"DIS_CODE":0,"TOWNNAME":"東區","LI":"崇善里","LIN":"5鄰","STREET":"崇善五街","SECT":" ","MAREA":" ","LANE":" ","ALLEY":" ","HOUSE_NO":"１８號四樓之３","E_COORD97":171081.78,"N_COORD97":2541558.0099999998,"ADDRESS":"崇善五街１８號四樓之３","OBJECTID":466301},"geometry":{"x":171081.78000000119,"y":2541558.0099999998}},{"attributes":{"ID":466327,"DIS_CODE":0,"TOWNNAME":"東區","LI":"崇善里","LIN":"5鄰","STREET":"崇善五街","SECT":" ","MAREA":" ","LANE":" ","ALLEY":" ","HOUSE_NO":"１８號四樓之４","E_COORD97":171081.78,"N_COORD97":2541558.0099999998,"ADDRESS":"崇善五街１８號四樓之４","OBJECTID":466302},"geometry":{"x":171081.78000000119,"y":2541558.0099999998}},{"attributes":{"ID":466328,"DIS_CODE":0,"TOWNNAME":"東區","LI":"崇善里","LIN":"5鄰","STREET":"崇善五街","SECT":" ","MAREA":" ","LANE":" ","ALLEY":" ","HOUSE_NO":"１８號四樓之５","E_COORD97":171081.78,"N_COORD97":2541558.0099999998,"ADDRESS":"崇善五街１８號四樓之５","OBJECTID":466303},"geometry":{"x":171081.78000000119,"y":2541558.0099999998}},{"attributes":{"ID":466329,"DIS_CODE":0,"TOWNNAME":"東區","LI":"崇善里","LIN":"5鄰","STREET":"崇善五街","SECT":" ","MAREA":" ","LANE":" ","ALLEY":" ","HOUSE_NO":"１８號五樓","E_COORD97":171081.78,"N_COORD97":2541558.0099999998,"ADDRESS":"崇善五街１８號五樓","OBJECTID":466304},"geometry":{"x":171081.78000000119,"y":2541558.0099999998}},{"attributes":{"ID":466330,"DIS_CODE":0,"TOWNNAME":"東區","LI":"崇善里","LIN":"5鄰","STREET":"崇善五街","SECT":" ","MAREA":" ","LANE":" ","ALLEY":" ","HOUSE_NO":"１８號五樓之１","E_COORD97":171081.78,"N_COORD97":2541558.0099999998,"ADDRESS":"崇善五街１８號五樓之１","OBJECTID":466305},"geometry":{"x":171081.78000000119,"y":2541558.0099999998}},{"attributes":{"ID":466331,"DIS_CODE":0,"TOWNNAME":"東區","LI":"崇善里","LIN":"5鄰","STREET":"崇善五街","SECT":" ","MAREA":" ","LANE":" ","ALLEY":" ","HOUSE_NO":"１８號五樓之２","E_COORD97":171081.78,"N_COORD97":2541558.0099999998,"ADDRESS":"崇善五街１８號五樓之２","OBJECTID":466306},"geometry":{"x":171081.78000000119,"y":2541558.0099999998}},{"attributes":{"ID":466332,"DIS_CODE":0,"TOWNNAME":"東區","LI":"崇善里","LIN":"5鄰","STREET":"崇善五街","SECT":" ","MAREA":" ","LANE":" ","ALLEY":" ","HOUSE_NO":"１８號五樓之３","E_COORD97":171081.78,"N_COORD97":2541558.0099999998,"ADDRESS":"崇善五街１８號五樓之３","OBJECTID":466307},"geometry":{"x":171081.78000000119,"y":2541558.0099999998}},{"attributes":{"ID":466333,"DIS_CODE":0,"TOWNNAME":"東區","LI":"崇善里","LIN":"5鄰","STREET":"崇善五街","SECT":" ","MAREA":" ","LANE":" ","ALLEY":" ","HOUSE_NO":"１８號五樓之４","E_COORD97":171081.78,"N_COORD97":2541558.0099999998,"ADDRESS":"崇善五街１８號五樓之４","OBJECTID":466308},"geometry":{"x":171081.78000000119,"y":2541558.0099999998}},{"attributes":{"ID":466334,"DIS_CODE":0,"TOWNNAME":"東區","LI":"崇善里","LIN":"5鄰","STREET":"崇善五街","SECT":" ","MAREA":" ","LANE":" ","ALLEY":" ","HOUSE_NO":"１８號五樓之５","E_COORD97":171081.78,"N_COORD97":2541558.0099999998,"ADDRESS":"崇善五街１８號五樓之５","OBJECTID":466309},"geometry":{"x":171081.78000000119,"y":2541558.0099999998}},{"attributes":{"ID":466335,"DIS_CODE":0,"TOWNNAME":"東區","LI":"崇善里","LIN":"5鄰","STREET":"崇善五街","SECT":" ","MAREA":" ","LANE":" ","ALLEY":" ","HOUSE_NO":"１８號六樓","E_COORD97":171081.78,"N_COORD97":2541558.0099999998,"ADDRESS":"崇善五街１８號六樓","OBJECTID":466310},"geometry":{"x":171081.78000000119,"y":2541558.0099999998}},{"attributes":{"ID":466336,"DIS_CODE":0,"TOWNNAME":"東區","LI":"崇善里","LIN":"5鄰","STREET":"崇善五街","SECT":" ","MAREA":" ","LANE":" ","ALLEY":" ","HOUSE_NO":"１８號六樓之１","E_COORD97":171081.78,"N_COORD97":2541558.0099999998,"ADDRESS":"崇善五街１８號六樓之１","OBJECTID":466311},"geometry":{"x":171081.78000000119,"y":2541558.0099999998}},{"attributes":{"ID":466337,"DIS_CODE":0,"TOWNNAME":"東區","LI":"崇善里","LIN":"5鄰","STREET":"崇善五街","SECT":" ","MAREA":" ","LANE":" ","ALLEY":" ","HOUSE_NO":"１８號六樓之２","E_COORD97":171081.78,"N_COORD97":2541558.0099999998,"ADDRESS":"崇善五街１８號六樓之２","OBJECTID":466312},"geometry":{"x":171081.78000000119,"y":2541558.0099999998}},{"attributes":{"ID":466338,"DIS_CODE":0,"TOWNNAME":"東區","LI":"崇善里","LIN":"5鄰","STREET":"崇善五街","SECT":" ","MAREA":" ","LANE":" ","ALLEY":" ","HOUSE_NO":"１８號六樓之３","E_COORD97":171081.78,"N_COORD97":2541558.0099999998,"ADDRESS":"崇善五街１８號六樓之３","OBJECTID":466313},"geometry":{"x":171081.78000000119,"y":2541558.0099999998}},{"attributes":{"ID":466339,"DIS_CODE":0,"TOWNNAME":"東區","LI":"崇善里","LIN":"5鄰","STREET":"崇善五街","SECT":" ","MAREA":" ","LANE":" ","ALLEY":" ","HOUSE_NO":"１８號六樓之４","E_COORD97":171081.78,"N_COORD97":2541558.0099999998,"ADDRESS":"崇善五街１８號六樓之４","OBJECTID":466314},"geometry":{"x":171081.78000000119,"y":2541558.0099999998}},{"attributes":{"ID":466340,"DIS_CODE":0,"TOWNNAME":"東區","LI":"崇善里","LIN":"5鄰","STREET":"崇善五街","SECT":" ","MAREA":" ","LANE":" ","ALLEY":" ","HOUSE_NO":"１８號六樓之５","E_COORD97":171081.78,"N_COORD97":2541558.0099999998,"ADDRESS":"崇善五街１８號六樓之５","OBJECTID":466315},"geometry":{"x":171081.78000000119,"y":2541558.0099999998}},{"attributes":{"ID":466341,"DIS_CODE":0,"TOWNNAME":"東區","LI":"崇善里","LIN":"5鄰","STREET":"崇善五街","SECT":" ","MAREA":" ","LANE":" ","ALLEY":" ","HOUSE_NO":"１８號七樓","E_COORD97":171081.78,"N_COORD97":2541558.0099999998,"ADDRESS":"崇善五街１８號七樓","OBJECTID":466316},"geometry":{"x":171081.78000000119,"y":2541558.0099999998}},{"attributes":{"ID":466342,"DIS_CODE":0,"TOWNNAME":"東區","LI":"崇善里","LIN":"5鄰","STREET":"崇善五街","SECT":" ","MAREA":" ","LANE":" ","ALLEY":" ","HOUSE_NO":"１８號七樓之１","E_COORD97":171081.78,"N_COORD97":2541558.0099999998,"ADDRESS":"崇善五街１８號七樓之１","OBJECTID":466317},"geometry":{"x":171081.78000000119,"y":2541558.0099999998}},{"attributes":{"ID":466343,"DIS_CODE":0,"TOWNNAME":"東區","LI":"崇善里","LIN":"5鄰","STREET":"崇善五街","SECT":" ","MAREA":" ","LANE":" ","ALLEY":" ","HOUSE_NO":"１８號七樓之２","E_COORD97":171081.78,"N_COORD97":2541558.0099999998,"ADDRESS":"崇善五街１８號七樓之２","OBJECTID":466318},"geometry":{"x":171081.78000000119,"y":2541558.0099999998}},{"attributes":{"ID":466344,"DIS_CODE":0,"TOWNNAME":"東區","LI":"崇善里","LIN":"5鄰","STREET":"崇善五街","SECT":" ","MAREA":" ","LANE":" ","ALLEY":" ","HOUSE_NO":"１８號七樓之３","E_COORD97":171081.78,"N_COORD97":2541558.0099999998,"ADDRESS":"崇善五街１８號七樓之３","OBJECTID":466319},"geometry":{"x":171081.78000000119,"y":2541558.0099999998}},{"attributes":{"ID":466345,"DIS_CODE":0,"TOWNNAME":"東區","LI":"大智里","LIN":"5鄰","STREET":"長東街","SECT":" ","MAREA":" ","LANE":" ","ALLEY":" ","HOUSE_NO":"７１號五樓","E_COORD97":171020.20000000001,"N_COORD97":2540438.7400000002,"ADDRESS":"長東街７１號五樓","OBJECTID":466320},"geometry":{"x":171020.20000000112,"y":2540438.7400000002}},{"attributes":{"ID":466346,"DIS_CODE":0,"TOWNNAME":"東區","LI":"崇善里","LIN":"5鄰","STREET":"崇善五街","SECT":" ","MAREA":" ","LANE":" ","ALLEY":" ","HOUSE_NO":"１８號七樓之４","E_COORD97":171081.78,"N_COORD97":2541558.0099999998,"ADDRESS":"崇善五街１８號七樓之４","OBJECTID":466321},"geometry":{"x":171081.78000000119,"y":2541558.0099999998}},{"attributes":{"ID":466347,"DIS_CODE":0,"TOWNNAME":"東區","LI":"崇善里","LIN":"5鄰","STREET":"崇善五街","SECT":" ","MAREA":" ","LANE":" ","ALLEY":" ","HOUSE_NO":"１８號七樓之５","E_COORD97":171081.78,"N_COORD97":2541558.0099999998,"ADDRESS":"崇善五街１８號七樓之５","OBJECTID":466322},"geometry":{"x":171081.78000000119,"y":2541558.0099999998}},{"attributes":{"ID":466348,"DIS_CODE":0,"TOWNNAME":"東區","LI":"崇善里","LIN":"5鄰","STREET":"崇善五街","SECT":" ","MAREA":" ","LANE":" ","ALLEY":" ","HOUSE_NO":"１８號八樓","E_COORD97":171081.78,"N_COORD97":2541558.0099999998,"ADDRESS":"崇善五街１８號八樓","OBJECTID":466323},"geometry":{"x":171081.78000000119,"y":2541558.0099999998}},{"attributes":{"ID":466349,"DIS_CODE":0,"TOWNNAME":"東區","LI":"崇善里","LIN":"5鄰","STREET":"崇善五街","SECT":" ","MAREA":" ","LANE":" ","ALLEY":" ","HOUSE_NO":"１８號八樓之１","E_COORD97":171081.78,"N_COORD97":2541558.0099999998,"ADDRESS":"崇善五街１８號八樓之１","OBJECTID":466324},"geometry":{"x":171081.78000000119,"y":2541558.0099999998}},{"attributes":{"ID":466350,"DIS_CODE":0,"TOWNNAME":"東區","LI":"崇善里","LIN":"5鄰","STREET":"崇善五街","SECT":" ","MAREA":" ","LANE":" ","ALLEY":" ","HOUSE_NO":"１８號八樓之２","E_COORD97":171081.78,"N_COORD97":2541558.0099999998,"ADDRESS":"崇善五街１８號八樓之２","OBJECTID":466325},"geometry":{"x":171081.78000000119,"y":2541558.0099999998}},{"attributes":{"ID":466351,"DIS_CODE":0,"TOWNNAME":"東區","LI":"崇善里","LIN":"5鄰","STREET":"崇善五街","SECT":" ","MAREA":" ","LANE":" ","ALLEY":" ","HOUSE_NO":"１８號八樓之３","E_COORD97":171081.78,"N_COORD97":2541558.0099999998,"ADDRESS":"崇善五街１８號八樓之３","OBJECTID":466326},"geometry":{"x":171081.78000000119,"y":2541558.0099999998}},{"attributes":{"ID":466352,"DIS_CODE":0,"TOWNNAME":"東區","LI":"崇善里","LIN":"5鄰","STREET":"崇善五街","SECT":" ","MAREA":" ","LANE":" ","ALLEY":" ","HOUSE_NO":"１８號八樓之５","E_COORD97":171081.78,"N_COORD97":2541558.0099999998,"ADDRESS":"崇善五街１８號八樓之５","OBJECTID":466327},"geometry":{"x":171081.78000000119,"y":2541558.0099999998}},{"attributes":{"ID":466353,"DIS_CODE":0,"TOWNNAME":"永康區","LI":"大橋里","LIN":"5鄰","STREET":"大橋五街","SECT":" ","MAREA":" ","LANE":" ","ALLEY":" ","HOUSE_NO":"２號六樓之２","E_COORD97":170770.17000000001,"N_COORD97":2546837.54,"ADDRESS":"大橋五街２號六樓之２","OBJECTID":466328},"geometry":{"x":170770.17000000179,"y":2546837.540000001}},{"attributes":{"ID":466354,"DIS_CODE":0,"TOWNNAME":"永康區","LI":"大橋里","LIN":"5鄰","STREET":"大橋三街","SECT":" ","MAREA":" ","LANE":" ","ALLEY":" ","HOUSE_NO":"１９１號三樓之２","E_COORD97":170843.14999999999,"N_COORD97":2546766.4100000001,"ADDRESS":"大橋三街１９１號三樓之２","OBJECTID":466329},"geometry":{"x":170843.15000000037,"y":2546766.4100000001}},{"attributes":{"ID":466355,"DIS_CODE":0,"TOWNNAME":"永康區","LI":"大橋里","LIN":"5鄰","STREET":"大橋三街","SECT":" ","MAREA":" ","LANE":" ","ALLEY":" ","HOUSE_NO":"１９１號二樓之３","E_COORD97":170843.10999999999,"N_COORD97":2546766.4100000001,"ADDRESS":"大橋三街１９１號二樓之３","OBJECTID":466330},"geometry":{"x":170843.11000000034,"y":2546766.4100000001}},{"attributes":{"ID":466356,"DIS_CODE":0,"TOWNNAME":"永康區","LI":"大橋里","LIN":"5鄰","STREET":"大橋五街","SECT":" ","MAREA":" ","LANE":" ","ALLEY":" ","HOUSE_NO":"２號五樓之２","E_COORD97":170770.17000000001,"N_COORD97":2546837.54,"ADDRESS":"大橋五街２號五樓之２","OBJECTID":466331},"geometry":{"x":170770.17000000179,"y":2546837.540000001}},{"attributes":{"ID":466357,"DIS_CODE":0,"TOWNNAME":"永康區","LI":"大橋里","LIN":"5鄰","STREET":"大橋五街","SECT":" ","MAREA":" ","LANE":" ","ALLEY":" ","HOUSE_NO":"２號八樓之１","E_COORD97":170770.03,"N_COORD97":2546837.54,"ADDRESS":"大橋五街２號八樓之１","OBJECTID":466332},"geometry":{"x":170770.03000000119,"y":2546837.540000001}},{"attributes":{"ID":466358,"DIS_CODE":0,"TOWNNAME":"永康區","LI":"大橋里","LIN":"5鄰","STREET":"大橋五街","SECT":" ","MAREA":" ","LANE":" ","ALLEY":" ","HOUSE_NO":"１０號四樓之１","E_COORD97":170794.48999999999,"N_COORD97":2546814.75,"ADDRESS":"大橋五街１０號四樓之１","OBJECTID":466333},"geometry":{"x":170794.49000000115,"y":2546814.75}},{"attributes":{"ID":466359,"DIS_CODE":0,"TOWNNAME":"永康區","LI":"大橋里","LIN":"5鄰","STREET":"大橋五街","SECT":" ","MAREA":" ","LANE":" ","ALLEY":" ","HOUSE_NO":"１０號四樓之２","E_COORD97":170794.63,"N_COORD97":2546814.75,"ADDRESS":"大橋五街１０號四樓之２","OBJECTID":466334},"geometry":{"x":170794.63000000082,"y":2546814.75}},{"attributes":{"ID":466360,"DIS_CODE":0,"TOWNNAME":"永康區","LI":"大橋里","LIN":"5鄰","STREET":"大橋五街","SECT":" ","MAREA":" ","LANE":" ","ALLEY":" ","HOUSE_NO":"８號七樓之１","E_COORD97":170788.98999999999,"N_COORD97":2546810.5,"ADDRESS":"大橋五街８號七樓之１","OBJECTID":466335},"geometry":{"x":170788.99000000115,"y":2546810.5}},{"attributes":{"ID":466361,"DIS_CODE":0,"TOWNNAME":"永康區","LI":"大橋里","LIN":"5鄰","STREET":"大橋五街","SECT":" ","MAREA":" ","LANE":" ","ALLEY":" ","HOUSE_NO":"８號八樓之１","E_COORD97":170788.98999999999,"N_COORD97":2546810.5,"ADDRESS":"大橋五街８號八樓之１","OBJECTID":466336},"geometry":{"x":170788.99000000115,"y":2546810.5}},{"attributes":{"ID":466362,"DIS_CODE":0,"TOWNNAME":"永康區","LI":"大橋里","LIN":"5鄰","STREET":"大橋五街","SECT":" ","MAREA":" ","LANE":" ","ALLEY":" ","HOUSE_NO":"２號五樓之１","E_COORD97":170770.03,"N_COORD97":2546837.54,"ADDRESS":"大橋五街２號五樓之１","OBJECTID":466337},"geometry":{"x":170770.03000000119,"y":2546837.540000001}},{"attributes":{"ID":466363,"DIS_CODE":0,"TOWNNAME":"永康區","LI":"大橋里","LIN":"5鄰","STREET":"大橋三街","SECT":" ","MAREA":" ","LANE":" ","ALLEY":" ","HOUSE_NO":"１９１號三樓之１","E_COORD97":170843.01000000001,"N_COORD97":2546766.4100000001,"ADDRESS":"大橋三街１９１號三樓之１","OBJECTID":466338},"geometry":{"x":170843.01000000071,"y":2546766.4100000001}},{"attributes":{"ID":466364,"DIS_CODE":0,"TOWNNAME":"永康區","LI":"大橋里","LIN":"5鄰","STREET":"大橋五街","SECT":" ","MAREA":" ","LANE":" ","ALLEY":" ","HOUSE_NO":"１０號七樓之２","E_COORD97":170794.63,"N_COORD97":2546814.75,"ADDRESS":"大橋五街１０號七樓之２","OBJECTID":466339},"geometry":{"x":170794.63000000082,"y":2546814.75}},{"attributes":{"ID":466365,"DIS_CODE":0,"TOWNNAME":"永康區","LI":"大橋里","LIN":"5鄰","STREET":"大橋五街","SECT":" ","MAREA":" ","LANE":" ","ALLEY":" ","HOUSE_NO":"２號七樓之１","E_COORD97":170770.03,"N_COORD97":2546837.54,"ADDRESS":"大橋五街２號七樓之１","OBJECTID":466340},"geometry":{"x":170770.03000000119,"y":2546837.540000001}},{"attributes":{"ID":466366,"DIS_CODE":0,"TOWNNAME":"永康區","LI":"大橋里","LIN":"5鄰","STREET":"大橋五街","SECT":" ","MAREA":" ","LANE":" ","ALLEY":" ","HOUSE_NO":"１０號五樓之１","E_COORD97":170794.48999999999,"N_COORD97":2546814.75,"ADDRESS":"大橋五街１０號五樓之１","OBJECTID":466341},"geometry":{"x":170794.49000000115,"y":2546814.75}},{"attributes":{"ID":466367,"DIS_CODE":0,"TOWNNAME":"永康區","LI":"大橋里","LIN":"5鄰","STREET":"大橋三街","SECT":" ","MAREA":" ","LANE":" ","ALLEY":" ","HOUSE_NO":"１９１號五樓之３","E_COORD97":170843.10999999999,"N_COORD97":2546766.4100000001,"ADDRESS":"大橋三街１９１號五樓之３","OBJECTID":466342},"geometry":{"x":170843.11000000034,"y":2546766.4100000001}},{"attributes":{"ID":466368,"DIS_CODE":0,"TOWNNAME":"永康區","LI":"大橋里","LIN":"5鄰","STREET":"大橋五街","SECT":" ","MAREA":" ","LANE":" ","ALLEY":" ","HOUSE_NO":"８號五樓之１","E_COORD97":170788.98999999999,"N_COORD97":2546810.5,"ADDRESS":"大橋五街８號五樓之１","OBJECTID":466343},"geometry":{"x":170788.99000000115,"y":2546810.5}},{"attributes":{"ID":466369,"DIS_CODE":0,"TOWNNAME":"永康區","LI":"大橋里","LIN":"5鄰","STREET":"大橋五街","SECT":" ","MAREA":" ","LANE":" ","ALLEY":" ","HOUSE_NO":"１０號八樓之１","E_COORD97":170794.48999999999,"N_COORD97":2546814.75,"ADDRESS":"大橋五街１０號八樓之１","OBJECTID":466344},"geometry":{"x":170794.49000000115,"y":2546814.75}},{"attributes":{"ID":466370,"DIS_CODE":0,"TOWNNAME":"永康區","LI":"大橋里","LIN":"5鄰","STREET":"大橋五街","SECT":" ","MAREA":" ","LANE":" ","ALLEY":" ","HOUSE_NO":"１０號五樓之２","E_COORD97":170794.63,"N_COORD97":2546814.75,"ADDRESS":"大橋五街１０號五樓之２","OBJECTID":466345},"geometry":{"x":170794.63000000082,"y":2546814.75}},{"attributes":{"ID":466371,"DIS_CODE":0,"TOWNNAME":"永康區","LI":"大橋里","LIN":"5鄰","STREET":"大橋三街","SECT":" ","MAREA":" ","LANE":" ","ALLEY":" ","HOUSE_NO":"１９１號四樓之２","E_COORD97":170843.14999999999,"N_COORD97":2546766.4100000001,"ADDRESS":"大橋三街１９１號四樓之２","OBJECTID":466346},"geometry":{"x":170843.15000000037,"y":2546766.4100000001}},{"attributes":{"ID":466372,"DIS_CODE":0,"TOWNNAME":"永康區","LI":"大橋里","LIN":"5鄰","STREET":"大橋三街","SECT":" ","MAREA":" ","LANE":" ","ALLEY":" ","HOUSE_NO":"１９１號二樓之１","E_COORD97":170843.01000000001,"N_COORD97":2546766.4100000001,"ADDRESS":"大橋三街１９１號二樓之１","OBJECTID":466347},"geometry":{"x":170843.01000000071,"y":2546766.4100000001}},{"attributes":{"ID":466373,"DIS_CODE":0,"TOWNNAME":"永康區","LI":"大橋里","LIN":"5鄰","STREET":"大橋五街","SECT":" ","MAREA":" ","LANE":" ","ALLEY":" ","HOUSE_NO":"１２號四樓","E_COORD97":170797.28,"N_COORD97":2546818.1800000002,"ADDRESS":"大橋五街１２號四樓","OBJECTID":466348},"geometry":{"x":170797.28000000119,"y":2546818.1799999997}},{"attributes":{"ID":466374,"DIS_CODE":0,"TOWNNAME":"永康區","LI":"大橋里","LIN":"5鄰","STREET":"大橋三街","SECT":" ","MAREA":" ","LANE":" ","ALLEY":" ","HOUSE_NO":"１９１號四樓之５","E_COORD97":170843.17000000001,"N_COORD97":2546766.4100000001,"ADDRESS":"大橋三街１９１號四樓之５","OBJECTID":466349},"geometry":{"x":170843.17000000086,"y":2546766.4100000001}},{"attributes":{"ID":466375,"DIS_CODE":0,"TOWNNAME":"永康區","LI":"大橋里","LIN":"5鄰","STREET":"大橋五街","SECT":" ","MAREA":" ","LANE":" ","ALLEY":" ","HOUSE_NO":"１２號二樓","E_COORD97":170797.28,"N_COORD97":2546818.1800000002,"ADDRESS":"大橋五街１２號二樓","OBJECTID":466350},"geometry":{"x":170797.28000000119,"y":2546818.1799999997}},{"attributes":{"ID":466376,"DIS_CODE":0,"TOWNNAME":"永康區","LI":"大橋里","LIN":"5鄰","STREET":"大橋五街","SECT":" ","MAREA":" ","LANE":" ","ALLEY":" ","HOUSE_NO":"８號七樓之２","E_COORD97":170789.13,"N_COORD97":2546810.5,"ADDRESS":"大橋五街８號七樓之２","OBJECTID":466351},"geometry":{"x":170789.13000000082,"y":2546810.5}},{"attributes":{"ID":466377,"DIS_CODE":0,"TOWNNAME":"中西區","LI":"文賢里","LIN":"5鄰","STREET":"文和街","SECT":" ","MAREA":" ","LANE":" ","ALLEY":" ","HOUSE_NO":"１１８號二樓之４","E_COORD97":167092.10000000001,"N_COORD97":2544827.7799999998,"ADDRESS":"文和街１１８號二樓之４","OBJECTID":466352},"geometry":{"x":167092.10000000056,"y":2544827.7799999993}},{"attributes":{"ID":466378,"DIS_CODE":0,"TOWNNAME":"中西區","LI":"文賢里","LIN":"5鄰","STREET":"文和街","SECT":" ","MAREA":" ","LANE":" ","ALLEY":" ","HOUSE_NO":"１１８號二樓之５","E_COORD97":167092.10000000001,"N_COORD97":2544827.7799999998,"ADDRESS":"文和街１１８號二樓之５","OBJECTID":466353},"geometry":{"x":167092.10000000056,"y":2544827.7799999993}},{"attributes":{"ID":466379,"DIS_CODE":0,"TOWNNAME":"中西區","LI":"文賢里","LIN":"5鄰","STREET":"文和街","SECT":" ","MAREA":" ","LANE":" ","ALLEY":" ","HOUSE_NO":"１１８號三樓之１","E_COORD97":167092.10000000001,"N_COORD97":2544827.7799999998,"ADDRESS":"文和街１１８號三樓之１","OBJECTID":466354},"geometry":{"x":167092.10000000056,"y":2544827.7799999993}},{"attributes":{"ID":466380,"DIS_CODE":0,"TOWNNAME":"中西區","LI":"文賢里","LIN":"5鄰","STREET":"文和街","SECT":" ","MAREA":" ","LANE":" ","ALLEY":" ","HOUSE_NO":"１１８號三樓之１０","E_COORD97":167092.10000000001,"N_COORD97":2544827.7799999998,"ADDRESS":"文和街１１８號三樓之１０","OBJECTID":466355},"geometry":{"x":167092.10000000056,"y":2544827.7799999993}},{"attributes":{"ID":466381,"DIS_CODE":0,"TOWNNAME":"中西區","LI":"文賢里","LIN":"5鄰","STREET":"文和街","SECT":" ","MAREA":" ","LANE":" ","ALLEY":" ","HOUSE_NO":"１１８號三樓之２","E_COORD97":167092.10000000001,"N_COORD97":2544827.7799999998,"ADDRESS":"文和街１１８號三樓之２","OBJECTID":466356},"geometry":{"x":167092.10000000056,"y":2544827.7799999993}},{"attributes":{"ID":466382,"DIS_CODE":0,"TOWNNAME":"中西區","LI":"文賢里","LIN":"5鄰","STREET":"文和街","SECT":" ","MAREA":" ","LANE":" ","ALLEY":" ","HOUSE_NO":"１１８號三樓之３","E_COORD97":167092.10000000001,"N_COORD97":2544827.7799999998,"ADDRESS":"文和街１１８號三樓之３","OBJECTID":466357},"geometry":{"x":167092.10000000056,"y":2544827.7799999993}},{"attributes":{"ID":466383,"DIS_CODE":0,"TOWNNAME":"中西區","LI":"文賢里","LIN":"5鄰","STREET":"文和街","SECT":" ","MAREA":" ","LANE":" ","ALLEY":" ","HOUSE_NO":"１１８號三樓之４","E_COORD97":167092.10000000001,"N_COORD97":2544827.7799999998,"ADDRESS":"文和街１１８號三樓之４","OBJECTID":466358},"geometry":{"x":167092.10000000056,"y":2544827.7799999993}},{"attributes":{"ID":466384,"DIS_CODE":0,"TOWNNAME":"中西區","LI":"文賢里","LIN":"5鄰","STREET":"文和街","SECT":" ","MAREA":" ","LANE":" ","ALLEY":" ","HOUSE_NO":"１１８號三樓之５","E_COORD97":167092.10000000001,"N_COORD97":2544827.7799999998,"ADDRESS":"文和街１１８號三樓之５","OBJECTID":466359},"geometry":{"x":167092.10000000056,"y":2544827.7799999993}},{"attributes":{"ID":466385,"DIS_CODE":0,"TOWNNAME":"中西區","LI":"文賢里","LIN":"5鄰","STREET":"文和街","SECT":" ","MAREA":" ","LANE":" ","ALLEY":" ","HOUSE_NO":"１１８號三樓之６","E_COORD97":167092.10000000001,"N_COORD97":2544827.7799999998,"ADDRESS":"文和街１１８號三樓之６","OBJECTID":466360},"geometry":{"x":167092.10000000056,"y":2544827.7799999993}},{"attributes":{"ID":466386,"DIS_CODE":0,"TOWNNAME":"中西區","LI":"文賢里","LIN":"5鄰","STREET":"文和街","SECT":" ","MAREA":" ","LANE":" ","ALLEY":" ","HOUSE_NO":"１１８號三樓之７","E_COORD97":167092.10000000001,"N_COORD97":2544827.7799999998,"ADDRESS":"文和街１１８號三樓之７","OBJECTID":466361},"geometry":{"x":167092.10000000056,"y":2544827.7799999993}},{"attributes":{"ID":466387,"DIS_CODE":0,"TOWNNAME":"中西區","LI":"文賢里","LIN":"5鄰","STREET":"文和街","SECT":" ","MAREA":" ","LANE":" ","ALLEY":" ","HOUSE_NO":"１１８號三樓之８","E_COORD97":167092.10000000001,"N_COORD97":2544827.7799999998,"ADDRESS":"文和街１１８號三樓之８","OBJECTID":466362},"geometry":{"x":167092.10000000056,"y":2544827.7799999993}},{"attributes":{"ID":466388,"DIS_CODE":0,"TOWNNAME":"中西區","LI":"文賢里","LIN":"5鄰","STREET":"文和街","SECT":" ","MAREA":" ","LANE":" ","ALLEY":" ","HOUSE_NO":"１１８號三樓之９","E_COORD97":167092.10000000001,"N_COORD97":2544827.7799999998,"ADDRESS":"文和街１１８號三樓之９","OBJECTID":466363},"geometry":{"x":167092.10000000056,"y":2544827.7799999993}},{"attributes":{"ID":466389,"DIS_CODE":0,"TOWNNAME":"中西區","LI":"文賢里","LIN":"5鄰","STREET":"文和街","SECT":" ","MAREA":" ","LANE":" ","ALLEY":" ","HOUSE_NO":"１１８號五樓之１","E_COORD97":167092.10000000001,"N_COORD97":2544827.7799999998,"ADDRESS":"文和街１１８號五樓之１","OBJECTID":466364},"geometry":{"x":167092.10000000056,"y":2544827.7799999993}},{"attributes":{"ID":466390,"DIS_CODE":0,"TOWNNAME":"中西區","LI":"文賢里","LIN":"5鄰","STREET":"文和街","SECT":" ","MAREA":" ","LANE":" ","ALLEY":" ","HOUSE_NO":"１１８號五樓之１０","E_COORD97":167092.10000000001,"N_COORD97":2544827.7799999998,"ADDRESS":"文和街１１８號五樓之１０","OBJECTID":466365},"geometry":{"x":167092.10000000056,"y":2544827.7799999993}},{"attributes":{"ID":466391,"DIS_CODE":0,"TOWNNAME":"中西區","LI":"文賢里","LIN":"5鄰","STREET":"文和街","SECT":" ","MAREA":" ","LANE":" ","ALLEY":" ","HOUSE_NO":"１１８號五樓之２","E_COORD97":167092.10000000001,"N_COORD97":2544827.7799999998,"ADDRESS":"文和街１１８號五樓之２","OBJECTID":466366},"geometry":{"x":167092.10000000056,"y":2544827.7799999993}},{"attributes":{"ID":466392,"DIS_CODE":0,"TOWNNAME":"中西區","LI":"文賢里","LIN":"5鄰","STREET":"文和街","SECT":" ","MAREA":" ","LANE":" ","ALLEY":" ","HOUSE_NO":"１１８號五樓之３","E_COORD97":167092.10000000001,"N_COORD97":2544827.7799999998,"ADDRESS":"文和街１１８號五樓之３","OBJECTID":466367},"geometry":{"x":167092.10000000056,"y":2544827.7799999993}},{"attributes":{"ID":466393,"DIS_CODE":0,"TOWNNAME":"中西區","LI":"文賢里","LIN":"5鄰","STREET":"文和街","SECT":" ","MAREA":" ","LANE":" ","ALLEY":" ","HOUSE_NO":"１１８號五樓之４","E_COORD97":167092.10000000001,"N_COORD97":2544827.7799999998,"ADDRESS":"文和街１１８號五樓之４","OBJECTID":466368},"geometry":{"x":167092.10000000056,"y":2544827.7799999993}},{"attributes":{"ID":466394,"DIS_CODE":0,"TOWNNAME":"中西區","LI":"文賢里","LIN":"5鄰","STREET":"文和街","SECT":" ","MAREA":" ","LANE":" ","ALLEY":" ","HOUSE_NO":"１１８號五樓之５","E_COORD97":167092.10000000001,"N_COORD97":2544827.7799999998,"ADDRESS":"文和街１１８號五樓之５","OBJECTID":466369},"geometry":{"x":167092.10000000056,"y":2544827.7799999993}},{"attributes":{"ID":466395,"DIS_CODE":0,"TOWNNAME":"中西區","LI":"文賢里","LIN":"5鄰","STREET":"文和街","SECT":" ","MAREA":" ","LANE":" ","ALLEY":" ","HOUSE_NO":"１１８號五樓之６","E_COORD97":167092.10000000001,"N_COORD97":2544827.7799999998,"ADDRESS":"文和街１１８號五樓之６","OBJECTID":466370},"geometry":{"x":167092.10000000056,"y":2544827.7799999993}},{"attributes":{"ID":466396,"DIS_CODE":0,"TOWNNAME":"中西區","LI":"文賢里","LIN":"5鄰","STREET":"文和街","SECT":" ","MAREA":" ","LANE":" ","ALLEY":" ","HOUSE_NO":"１１８號五樓之７","E_COORD97":167092.10000000001,"N_COORD97":2544827.7799999998,"ADDRESS":"文和街１１８號五樓之７","OBJECTID":466371},"geometry":{"x":167092.10000000056,"y":2544827.7799999993}},{"attributes":{"ID":466397,"DIS_CODE":0,"TOWNNAME":"中西區","LI":"文賢里","LIN":"5鄰","STREET":"文和街","SECT":" ","MAREA":" ","LANE":" ","ALLEY":" ","HOUSE_NO":"１１８號五樓之８","E_COORD97":167092.10000000001,"N_COORD97":2544827.7799999998,"ADDRESS":"文和街１１８號五樓之８","OBJECTID":466372},"geometry":{"x":167092.10000000056,"y":2544827.7799999993}},{"attributes":{"ID":466398,"DIS_CODE":0,"TOWNNAME":"中西區","LI":"文賢里","LIN":"5鄰","STREET":"文和街","SECT":" ","MAREA":" ","LANE":" ","ALLEY":" ","HOUSE_NO":"１１８號五樓之９","E_COORD97":167092.10000000001,"N_COORD97":2544827.7799999998,"ADDRESS":"文和街１１８號五樓之９","OBJECTID":466373},"geometry":{"x":167092.10000000056,"y":2544827.7799999993}},{"attributes":{"ID":466399,"DIS_CODE":0,"TOWNNAME":"中西區","LI":"文賢里","LIN":"5鄰","STREET":"文和街","SECT":" ","MAREA":" ","LANE":" ","ALLEY":" ","HOUSE_NO":"１１８號四樓之１","E_COORD97":167092.10000000001,"N_COORD97":2544827.7799999998,"ADDRESS":"文和街１１８號四樓之１","OBJECTID":466374},"geometry":{"x":167092.10000000056,"y":2544827.7799999993}},{"attributes":{"ID":466400,"DIS_CODE":0,"TOWNNAME":"中西區","LI":"文賢里","LIN":"5鄰","STREET":"文和街","SECT":" ","MAREA":" ","LANE":" ","ALLEY":" ","HOUSE_NO":"１１８號四樓之２","E_COORD97":167092.10000000001,"N_COORD97":2544827.7799999998,"ADDRESS":"文和街１１８號四樓之２","OBJECTID":466375},"geometry":{"x":167092.10000000056,"y":2544827.7799999993}},{"attributes":{"ID":466401,"DIS_CODE":0,"TOWNNAME":"中西區","LI":"文賢里","LIN":"5鄰","STREET":"文和街","SECT":" ","MAREA":" ","LANE":" ","ALLEY":" ","HOUSE_NO":"１１８號四樓之３","E_COORD97":167092.10000000001,"N_COORD97":2544827.7799999998,"ADDRESS":"文和街１１８號四樓之３","OBJECTID":466376},"geometry":{"x":167092.10000000056,"y":2544827.7799999993}},{"attributes":{"ID":466402,"DIS_CODE":0,"TOWNNAME":"中西區","LI":"文賢里","LIN":"5鄰","STREET":"文和街","SECT":" ","MAREA":" ","LANE":" ","ALLEY":" ","HOUSE_NO":"１１８號四樓之４","E_COORD97":167092.10000000001,"N_COORD97":2544827.7799999998,"ADDRESS":"文和街１１８號四樓之４","OBJECTID":466377},"geometry":{"x":167092.10000000056,"y":2544827.7799999993}},{"attributes":{"ID":466403,"DIS_CODE":0,"TOWNNAME":"中西區","LI":"文賢里","LIN":"5鄰","STREET":"文和街","SECT":" ","MAREA":" ","LANE":" ","ALLEY":" ","HOUSE_NO":"１１８號四樓之５","E_COORD97":167092.10000000001,"N_COORD97":2544827.7799999998,"ADDRESS":"文和街１１８號四樓之５","OBJECTID":466378},"geometry":{"x":167092.10000000056,"y":2544827.7799999993}},{"attributes":{"ID":466404,"DIS_CODE":0,"TOWNNAME":"中西區","LI":"文賢里","LIN":"5鄰","STREET":"文和街","SECT":" ","MAREA":" ","LANE":" ","ALLEY":" ","HOUSE_NO":"１１８號四樓之６","E_COORD97":167092.10000000001,"N_COORD97":2544827.7799999998,"ADDRESS":"文和街１１８號四樓之６","OBJECTID":466379},"geometry":{"x":167092.10000000056,"y":2544827.7799999993}},{"attributes":{"ID":466405,"DIS_CODE":0,"TOWNNAME":"中西區","LI":"文賢里","LIN":"5鄰","STREET":"文和街","SECT":" ","MAREA":" ","LANE":" ","ALLEY":" ","HOUSE_NO":"１１８號四樓之７","E_COORD97":167092.10000000001,"N_COORD97":2544827.7799999998,"ADDRESS":"文和街１１８號四樓之７","OBJECTID":466380},"geometry":{"x":167092.10000000056,"y":2544827.7799999993}},{"attributes":{"ID":466406,"DIS_CODE":0,"TOWNNAME":"中西區","LI":"文賢里","LIN":"5鄰","STREET":"文和街","SECT":" ","MAREA":" ","LANE":" ","ALLEY":" ","HOUSE_NO":"１１８號四樓之８","E_COORD97":167092.10000000001,"N_COORD97":2544827.7799999998,"ADDRESS":"文和街１１８號四樓之８","OBJECTID":466381},"geometry":{"x":167092.10000000056,"y":2544827.7799999993}},{"attributes":{"ID":466407,"DIS_CODE":0,"TOWNNAME":"中西區","LI":"文賢里","LIN":"5鄰","STREET":"文和街","SECT":" ","MAREA":" ","LANE":" ","ALLEY":" ","HOUSE_NO":"１１８號四樓之９","E_COORD97":167092.10000000001,"N_COORD97":2544827.7799999998,"ADDRESS":"文和街１１８號四樓之９","OBJECTID":466382},"geometry":{"x":167092.10000000056,"y":2544827.7799999993}},{"attributes":{"ID":466408,"DIS_CODE":0,"TOWNNAME":"中西區","LI":"銀同里","LIN":"5鄰","STREET":"開山路","SECT":" ","MAREA":" ","LANE":" ","ALLEY":" ","HOUSE_NO":"９９號七樓","E_COORD97":168730.69,"N_COORD97":2543361.79,"ADDRESS":"開山路９９號七樓","OBJECTID":466383},"geometry":{"x":168730.69000000041,"y":2543361.790000001}},{"attributes":{"ID":466409,"DIS_CODE":0,"TOWNNAME":"中西區","LI":"銀同里","LIN":"5鄰","STREET":"開山路","SECT":" ","MAREA":" ","LANE":" ","ALLEY":" ","HOUSE_NO":"９９號二樓","E_COORD97":168730.69,"N_COORD97":2543361.79,"ADDRESS":"開山路９９號二樓","OBJECTID":466384},"geometry":{"x":168730.69000000041,"y":2543361.790000001}},{"attributes":{"ID":466410,"DIS_CODE":0,"TOWNNAME":"中西區","LI":"銀同里","LIN":"5鄰","STREET":"開山路","SECT":" ","MAREA":" ","LANE":" ","ALLEY":" ","HOUSE_NO":"９９號五樓","E_COORD97":168730.69,"N_COORD97":2543361.79,"ADDRESS":"開山路９９號五樓","OBJECTID":466385},"geometry":{"x":168730.69000000041,"y":2543361.790000001}},{"attributes":{"ID":466411,"DIS_CODE":0,"TOWNNAME":"中西區","LI":"銀同里","LIN":"5鄰","STREET":"開山路","SECT":" ","MAREA":" ","LANE":" ","ALLEY":" ","HOUSE_NO":"９９號六樓","E_COORD97":168730.69,"N_COORD97":2543361.79,"ADDRESS":"開山路９９號六樓","OBJECTID":466386},"geometry":{"x":168730.69000000041,"y":2543361.790000001}},{"attributes":{"ID":466412,"DIS_CODE":0,"TOWNNAME":"中西區","LI":"銀同里","LIN":"5鄰","STREET":"開山路","SECT":" ","MAREA":" ","LANE":" ","ALLEY":" ","HOUSE_NO":"９９號四樓","E_COORD97":168730.69,"N_COORD97":2543361.79,"ADDRESS":"開山路９９號四樓","OBJECTID":466387},"geometry":{"x":168730.69000000041,"y":2543361.790000001}},{"attributes":{"ID":466413,"DIS_CODE":0,"TOWNNAME":"仁德區","LI":"成功里","LIN":"5鄰","STREET":"成功三街","SECT":" ","MAREA":" ","LANE":" ","ALLEY":" ","HOUSE_NO":"３４號一樓","E_COORD97":171166.04000000001,"N_COORD97":2539953.0099999998,"ADDRESS":"成功三街３４號一樓","OBJECTID":466388},"geometry":{"x":171166.0400000019,"y":2539953.0100000016}},{"attributes":{"ID":466414,"DIS_CODE":0,"TOWNNAME":"永康區","LI":"建國里","LIN":"5鄰","STREET":"復國路","SECT":" ","MAREA":" ","LANE":" ","ALLEY":" ","HOUSE_NO":"６０號二樓之１","E_COORD97":172762.79999999999,"N_COORD97":2544601.9700000002,"ADDRESS":"復國路６０號二樓之１","OBJECTID":466389},"geometry":{"x":172762.80000000075,"y":2544601.9700000025}},{"attributes":{"ID":466415,"DIS_CODE":0,"TOWNNAME":"永康區","LI":"建國里","LIN":"5鄰","STREET":"復國路","SECT":" ","MAREA":" ","LANE":" ","ALLEY":" ","HOUSE_NO":"６０號二樓之２","E_COORD97":172762.79999999999,"N_COORD97":2544601.9700000002,"ADDRESS":"復國路６０號二樓之２","OBJECTID":466390},"geometry":{"x":172762.80000000075,"y":2544601.9700000025}},{"attributes":{"ID":466416,"DIS_CODE":0,"TOWNNAME":"永康區","LI":"建國里","LIN":"5鄰","STREET":"復國路","SECT":" ","MAREA":" ","LANE":" ","ALLEY":" ","HOUSE_NO":"６０號二樓之３","E_COORD97":172762.79999999999,"N_COORD97":2544601.9700000002,"ADDRESS":"復國路６０號二樓之３","OBJECTID":466391},"geometry":{"x":172762.80000000075,"y":2544601.9700000025}},{"attributes":{"ID":466417,"DIS_CODE":0,"TOWNNAME":"永康區","LI":"建國里","LIN":"5鄰","STREET":"復國路","SECT":" ","MAREA":" ","LANE":" ","ALLEY":" ","HOUSE_NO":"６０號二樓之５","E_COORD97":172762.79999999999,"N_COORD97":2544601.9700000002,"ADDRESS":"復國路６０號二樓之５","OBJECTID":466392},"geometry":{"x":172762.80000000075,"y":2544601.9700000025}},{"attributes":{"ID":466418,"DIS_CODE":0,"TOWNNAME":"永康區","LI":"建國里","LIN":"5鄰","STREET":"復國路","SECT":" ","MAREA":" ","LANE":" ","ALLEY":" ","HOUSE_NO":"６０號三樓之１","E_COORD97":172762.79999999999,"N_COORD97":2544601.9700000002,"ADDRESS":"復國路６０號三樓之１","OBJECTID":466393},"geometry":{"x":172762.80000000075,"y":2544601.9700000025}},{"attributes":{"ID":466419,"DIS_CODE":0,"TOWNNAME":"永康區","LI":"建國里","LIN":"5鄰","STREET":"復國路","SECT":" ","MAREA":" ","LANE":" ","ALLEY":" ","HOUSE_NO":"６０號三樓之２","E_COORD97":172762.79999999999,"N_COORD97":2544601.9700000002,"ADDRESS":"復國路６０號三樓之２","OBJECTID":466394},"geometry":{"x":172762.80000000075,"y":2544601.9700000025}},{"attributes":{"ID":466420,"DIS_CODE":0,"TOWNNAME":"永康區","LI":"建國里","LIN":"5鄰","STREET":"復國路","SECT":" ","MAREA":" ","LANE":" ","ALLEY":" ","HOUSE_NO":"６０號三樓之３","E_COORD97":172762.79999999999,"N_COORD97":2544601.9700000002,"ADDRESS":"復國路６０號三樓之３","OBJECTID":466395},"geometry":{"x":172762.80000000075,"y":2544601.9700000025}},{"attributes":{"ID":466421,"DIS_CODE":0,"TOWNNAME":"永康區","LI":"建國里","LIN":"5鄰","STREET":"復國路","SECT":" ","MAREA":" ","LANE":" ","ALLEY":" ","HOUSE_NO":"６０號三樓之５","E_COORD97":172762.79999999999,"N_COORD97":2544601.9700000002,"ADDRESS":"復國路６０號三樓之５","OBJECTID":466396},"geometry":{"x":172762.80000000075,"y":2544601.9700000025}},{"attributes":{"ID":466422,"DIS_CODE":0,"TOWNNAME":"永康區","LI":"建國里","LIN":"5鄰","STREET":"復國路","SECT":" ","MAREA":" ","LANE":" ","ALLEY":" ","HOUSE_NO":"６０號四樓之１","E_COORD97":172762.79999999999,"N_COORD97":2544601.9700000002,"ADDRESS":"復國路６０號四樓之１","OBJECTID":466397},"geometry":{"x":172762.80000000075,"y":2544601.9700000025}},{"attributes":{"ID":466423,"DIS_CODE":0,"TOWNNAME":"永康區","LI":"建國里","LIN":"5鄰","STREET":"復國路","SECT":" ","MAREA":" ","LANE":" ","ALLEY":" ","HOUSE_NO":"６０號四樓之２","E_COORD97":172762.79999999999,"N_COORD97":2544601.9700000002,"ADDRESS":"復國路６０號四樓之２","OBJECTID":466398},"geometry":{"x":172762.80000000075,"y":2544601.9700000025}},{"attributes":{"ID":466424,"DIS_CODE":0,"TOWNNAME":"永康區","LI":"建國里","LIN":"5鄰","STREET":"復國路","SECT":" ","MAREA":" ","LANE":" ","ALLEY":" ","HOUSE_NO":"６０號四樓之３","E_COORD97":172762.79999999999,"N_COORD97":2544601.9700000002,"ADDRESS":"復國路６０號四樓之３","OBJECTID":466399},"geometry":{"x":172762.80000000075,"y":2544601.9700000025}},{"attributes":{"ID":466425,"DIS_CODE":0,"TOWNNAME":"永康區","LI":"網寮里","LIN":"24鄰","STREET":"永春街","SECT":" ","MAREA":" ","LANE":"３６巷","ALLEY":" ","HOUSE_NO":"５號","E_COORD97":173759,"N_COORD97":2546398.8399999999,"ADDRESS":"永春街３６巷５號","OBJECTID":466400},"geometry":{"x":173759.00000000093,"y":2546398.8400000017}}]}