{"displayFieldName":"TOWNNAME","fieldAliases":{"ID":"ID","DIS_CODE":"DIS_CODE","TOWNNAME":"TOWNNAME","LI":"LI","LIN":"LIN","STREET":"STREET","SECT":"SECT","MAREA":"MAREA","LANE":"LANE","ALLEY":"ALLEY","HOUSE_NO":"HOUSE_NO","E_COORD97":"E_COORD97","N_COORD97":"N_COORD97","ADDRESS":"ADDRESS","OBJECTID":"OBJECTID"},"geometryType":"esriGeometryPoint","spatialReference":{"wkid":102443,"latestWkid":3826},"fields":[{"name":"ID","type":"esriFieldTypeDouble","alias":"ID"},{"name":"DIS_CODE","type":"esriFieldTypeInteger","alias":"DIS_CODE"},{"name":"TOWNNAME","type":"esriFieldTypeString","alias":"TOWNNAME","length":8},{"name":"LI","type":"esriFieldTypeString","alias":"LI","length":8},{"name":"LIN","type":"esriFieldTypeString","alias":"LIN","length":12},{"name":"STREET","type":"esriFieldTypeString","alias":"STREET","length":20},{"name":"SECT","type":"esriFieldTypeString","alias":"SECT","length":8},{"name":"MAREA","type":"esriFieldTypeString","alias":"MAREA","length":12},{"name":"LANE","type":"esriFieldTypeString","alias":"LANE","length":10},{"name":"ALLEY","type":"esriFieldTypeString","alias":"ALLEY","length":10},{"name":"HOUSE_NO","type":"esriFieldTypeString","alias":"HOUSE_NO","length":20},{"name":"E_COORD97","type":"esriFieldTypeDouble","alias":"E_COORD97"},{"name":"N_COORD97","type":"esriFieldTypeDouble","alias":"N_COORD97"},{"name":"ADDRESS","type":"esriFieldTypeString","alias":"ADDRESS","length":50},{"name":"OBJECTID","type":"esriFieldTypeOID","alias":"OBJECTID"}],"features":[{"attributes":{"ID":110001,"DIS_CODE":0,"TOWNNAME":"佳里區","LI":"溪州里","LIN":"9鄰","STREET":" ","SECT":" ","MAREA":"溪州","LANE":" ","ALLEY":" ","HOUSE_NO":"８５號之２７","E_COORD97":166459.19,"N_COORD97":2567629.23,"ADDRESS":"溪州８５號之２７","OBJECTID":110001},"geometry":{"x":166459.19000000041,"y":2567629.2300000004}},{"attributes":{"ID":110002,"DIS_CODE":0,"TOWNNAME":"南區","LI":"喜東里","LIN":"9鄰","STREET":"喜樹路","SECT":" ","MAREA":" ","LANE":"１５１巷","ALLEY":"６３弄","HOUSE_NO":"１７號","E_COORD97":166019.54000000001,"N_COORD97":2538035.2200000002,"ADDRESS":"喜樹路１５１巷６３弄１７號","OBJECTID":110002},"geometry":{"x":166019.5400000019,"y":2538035.2200000007}},{"attributes":{"ID":110003,"DIS_CODE":0,"TOWNNAME":"南區","LI":"喜東里","LIN":"9鄰","STREET":"喜樹路","SECT":" ","MAREA":" ","LANE":"１５１巷","ALLEY":"６３弄","HOUSE_NO":"１８號","E_COORD97":166042.78,"N_COORD97":2538042.0600000001,"ADDRESS":"喜樹路１５１巷６３弄１８號","OBJECTID":110003},"geometry":{"x":166042.78000000026,"y":2538042.0600000024}},{"attributes":{"ID":110004,"DIS_CODE":0,"TOWNNAME":"南區","LI":"喜東里","LIN":"9鄰","STREET":"喜樹路","SECT":" ","MAREA":" ","LANE":"１５１巷","ALLEY":"６３弄","HOUSE_NO":"１９號","E_COORD97":166019.64000000001,"N_COORD97":2538039.5299999998,"ADDRESS":"喜樹路１５１巷６３弄１９號","OBJECTID":110004},"geometry":{"x":166019.63999999966,"y":2538039.5300000031}},{"attributes":{"ID":110005,"DIS_CODE":0,"TOWNNAME":"南區","LI":"喜東里","LIN":"9鄰","STREET":"喜樹路","SECT":" ","MAREA":" ","LANE":"１５１巷","ALLEY":"６３弄","HOUSE_NO":"１號","E_COORD97":166014.5,"N_COORD97":2537998.9500000002,"ADDRESS":"喜樹路１５１巷６３弄１號","OBJECTID":110005},"geometry":{"x":166014.5,"y":2537998.9499999974}},{"attributes":{"ID":110006,"DIS_CODE":0,"TOWNNAME":"佳里區","LI":"溪州里","LIN":"9鄰","STREET":" ","SECT":" ","MAREA":"溪州","LANE":" ","ALLEY":" ","HOUSE_NO":"８５號之５","E_COORD97":166493.62,"N_COORD97":2567614.5,"ADDRESS":"溪州８５號之５","OBJECTID":110006},"geometry":{"x":166493.62000000197,"y":2567614.5000000037}},{"attributes":{"ID":110007,"DIS_CODE":0,"TOWNNAME":"南區","LI":"喜東里","LIN":"9鄰","STREET":"喜樹路","SECT":" ","MAREA":" ","LANE":"１５１巷","ALLEY":"６３弄","HOUSE_NO":"２０號","E_COORD97":166042.88,"N_COORD97":2538046.5800000001,"ADDRESS":"喜樹路１５１巷６３弄２０號","OBJECTID":110007},"geometry":{"x":166042.88000000082,"y":2538046.5800000038}},{"attributes":{"ID":110008,"DIS_CODE":0,"TOWNNAME":"南區","LI":"喜東里","LIN":"9鄰","STREET":"喜樹路","SECT":" ","MAREA":" ","LANE":"１５１巷","ALLEY":"６３弄","HOUSE_NO":"２１號","E_COORD97":166019.38,"N_COORD97":2538044.1400000001,"ADDRESS":"喜樹路１５１巷６３弄２１號","OBJECTID":110008},"geometry":{"x":166019.38000000082,"y":2538044.1400000025}},{"attributes":{"ID":110009,"DIS_CODE":0,"TOWNNAME":"南區","LI":"喜東里","LIN":"9鄰","STREET":"喜樹路","SECT":" ","MAREA":" ","LANE":"１５１巷","ALLEY":"６３弄","HOUSE_NO":"２２號","E_COORD97":166043.19,"N_COORD97":2538051.5099999998,"ADDRESS":"喜樹路１５１巷６３弄２２號","OBJECTID":110009},"geometry":{"x":166043.19000000134,"y":2538051.5100000016}},{"attributes":{"ID":110010,"DIS_CODE":0,"TOWNNAME":"佳里區","LI":"溪州里","LIN":"9鄰","STREET":" ","SECT":" ","MAREA":"溪州","LANE":" ","ALLEY":" ","HOUSE_NO":"８５號之２０","E_COORD97":166501.63,"N_COORD97":2567653.2000000002,"ADDRESS":"溪州８５號之２０","OBJECTID":110010},"geometry":{"x":166501.62999999989,"y":2567653.200000003}},{"attributes":{"ID":110011,"DIS_CODE":0,"TOWNNAME":"佳里區","LI":"溪州里","LIN":"9鄰","STREET":" ","SECT":" ","MAREA":"溪州","LANE":" ","ALLEY":" ","HOUSE_NO":"８５號之２１","E_COORD97":166479.37,"N_COORD97":2567644.4199999999,"ADDRESS":"溪州８５號之２１","OBJECTID":110011},"geometry":{"x":166479.37000000011,"y":2567644.4199999999}},{"attributes":{"ID":110012,"DIS_CODE":0,"TOWNNAME":"佳里區","LI":"溪州里","LIN":"9鄰","STREET":" ","SECT":" ","MAREA":"溪州","LANE":" ","ALLEY":" ","HOUSE_NO":"８５號之２２","E_COORD97":166465.70999999999,"N_COORD97":2567608.9199999999,"ADDRESS":"溪州８５號之２２","OBJECTID":110012},"geometry":{"x":166465.70999999903,"y":2567608.9200000018}},{"attributes":{"ID":110013,"DIS_CODE":0,"TOWNNAME":"南區","LI":"喜東里","LIN":"9鄰","STREET":"喜樹路","SECT":" ","MAREA":" ","LANE":"１５１巷","ALLEY":"６３弄","HOUSE_NO":"２３號","E_COORD97":166019.81,"N_COORD97":2538048.6400000001,"ADDRESS":"喜樹路１５１巷６３弄２３號","OBJECTID":110013},"geometry":{"x":166019.80999999959,"y":2538048.6400000006}},{"attributes":{"ID":110014,"DIS_CODE":0,"TOWNNAME":"佳里區","LI":"溪州里","LIN":"9鄰","STREET":" ","SECT":" ","MAREA":"溪州","LANE":" ","ALLEY":" ","HOUSE_NO":"８５號之２３","E_COORD97":166463.95000000001,"N_COORD97":2567613.2799999998,"ADDRESS":"溪州８５號之２３","OBJECTID":110014},"geometry":{"x":166463.95000000019,"y":2567613.2800000012}},{"attributes":{"ID":110015,"DIS_CODE":0,"TOWNNAME":"南區","LI":"喜東里","LIN":"9鄰","STREET":"喜樹路","SECT":" ","MAREA":" ","LANE":"１５１巷","ALLEY":"６３弄","HOUSE_NO":"２４號","E_COORD97":166043.70000000001,"N_COORD97":2538057,"ADDRESS":"喜樹路１５１巷６３弄２４號","OBJECTID":110015},"geometry":{"x":166043.70000000019,"y":2538056.9999999981}},{"attributes":{"ID":110016,"DIS_CODE":0,"TOWNNAME":"南區","LI":"喜東里","LIN":"9鄰","STREET":"喜樹路","SECT":" ","MAREA":" ","LANE":"１５１巷","ALLEY":"６３弄","HOUSE_NO":"２５號","E_COORD97":166020.45000000001,"N_COORD97":2538053.1400000001,"ADDRESS":"喜樹路１５１巷６３弄２５號","OBJECTID":110016},"geometry":{"x":166020.45000000112,"y":2538053.1400000006}},{"attributes":{"ID":110017,"DIS_CODE":0,"TOWNNAME":"南區","LI":"喜東里","LIN":"9鄰","STREET":"喜樹路","SECT":" ","MAREA":" ","LANE":"１５１巷","ALLEY":"６３弄","HOUSE_NO":"２６號","E_COORD97":166043.60000000001,"N_COORD97":2538061.3100000001,"ADDRESS":"喜樹路１５１巷６３弄２６號","OBJECTID":110017},"geometry":{"x":166043.59999999963,"y":2538061.3100000005}},{"attributes":{"ID":110018,"DIS_CODE":0,"TOWNNAME":"南區","LI":"喜東里","LIN":"9鄰","STREET":"喜樹路","SECT":" ","MAREA":" ","LANE":"１５１巷","ALLEY":"６３弄","HOUSE_NO":"２號","E_COORD97":166037.22,"N_COORD97":2537977.75,"ADDRESS":"喜樹路１５１巷６３弄２號","OBJECTID":110018},"geometry":{"x":166037.22000000067,"y":2537977.7500000037}},{"attributes":{"ID":110019,"DIS_CODE":0,"TOWNNAME":"南區","LI":"喜東里","LIN":"9鄰","STREET":"喜樹路","SECT":" ","MAREA":" ","LANE":"１５１巷","ALLEY":"６３弄","HOUSE_NO":"３０號","E_COORD97":166043.79999999999,"N_COORD97":2538070.04,"ADDRESS":"喜樹路１５１巷６３弄３０號","OBJECTID":110019},"geometry":{"x":166043.79999999981,"y":2538070.040000001}},{"attributes":{"ID":110020,"DIS_CODE":0,"TOWNNAME":"南區","LI":"喜東里","LIN":"9鄰","STREET":"喜樹路","SECT":" ","MAREA":" ","LANE":"１５１巷","ALLEY":"６３弄","HOUSE_NO":"３１號","E_COORD97":166018.95000000001,"N_COORD97":2538066.4300000002,"ADDRESS":"喜樹路１５１巷６３弄３１號","OBJECTID":110020},"geometry":{"x":166018.95000000112,"y":2538066.4299999997}},{"attributes":{"ID":110021,"DIS_CODE":0,"TOWNNAME":"南區","LI":"喜東里","LIN":"9鄰","STREET":"喜樹路","SECT":" ","MAREA":" ","LANE":"１５１巷","ALLEY":"６３弄","HOUSE_NO":"３２號","E_COORD97":166044.01000000001,"N_COORD97":2538074.6600000001,"ADDRESS":"喜樹路１５１巷６３弄３２號","OBJECTID":110021},"geometry":{"x":166044.00999999978,"y":2538074.660000002}},{"attributes":{"ID":110022,"DIS_CODE":0,"TOWNNAME":"南區","LI":"喜東里","LIN":"9鄰","STREET":"喜樹路","SECT":" ","MAREA":" ","LANE":"１５１巷","ALLEY":"６３弄","HOUSE_NO":"３３號","E_COORD97":166020.45000000001,"N_COORD97":2538073.0800000001,"ADDRESS":"喜樹路１５１巷６３弄３３號","OBJECTID":110022},"geometry":{"x":166020.45000000112,"y":2538073.0800000001}},{"attributes":{"ID":110023,"DIS_CODE":0,"TOWNNAME":"南區","LI":"喜東里","LIN":"9鄰","STREET":"喜樹路","SECT":" ","MAREA":" ","LANE":"１５１巷","ALLEY":"６３弄","HOUSE_NO":"３４號","E_COORD97":166044.10999999999,"N_COORD97":2538079.2799999998,"ADDRESS":"喜樹路１５１巷６３弄３４號","OBJECTID":110023},"geometry":{"x":166044.11000000034,"y":2538079.2800000012}},{"attributes":{"ID":110024,"DIS_CODE":0,"TOWNNAME":"南區","LI":"喜東里","LIN":"9鄰","STREET":"喜樹路","SECT":" ","MAREA":" ","LANE":"１５１巷","ALLEY":"６３弄","HOUSE_NO":"３５號","E_COORD97":166020.23999999999,"N_COORD97":2538076.29,"ADDRESS":"喜樹路１５１巷６３弄３５號","OBJECTID":110024},"geometry":{"x":166020.24000000115,"y":2538076.290000001}},{"attributes":{"ID":110025,"DIS_CODE":0,"TOWNNAME":"南區","LI":"喜東里","LIN":"9鄰","STREET":"喜樹路","SECT":" ","MAREA":" ","LANE":"１５１巷","ALLEY":"６３弄","HOUSE_NO":"３６號","E_COORD97":166044.22,"N_COORD97":2538085.1400000001,"ADDRESS":"喜樹路１５１巷６３弄３６號","OBJECTID":110025},"geometry":{"x":166044.22000000067,"y":2538085.1400000025}},{"attributes":{"ID":110026,"DIS_CODE":0,"TOWNNAME":"南區","LI":"喜東里","LIN":"9鄰","STREET":"喜樹路","SECT":" ","MAREA":" ","LANE":"１５１巷","ALLEY":"６３弄","HOUSE_NO":"３７號","E_COORD97":166015.09,"N_COORD97":2538083.3700000001,"ADDRESS":"喜樹路１５１巷６３弄３７號","OBJECTID":110026},"geometry":{"x":166015.08999999985,"y":2538083.3700000029}},{"attributes":{"ID":110027,"DIS_CODE":0,"TOWNNAME":"南區","LI":"喜東里","LIN":"9鄰","STREET":"喜樹路","SECT":" ","MAREA":" ","LANE":"１５１巷","ALLEY":"６３弄","HOUSE_NO":"３８號","E_COORD97":166044.94,"N_COORD97":2538091.71,"ADDRESS":"喜樹路１５１巷６３弄３８號","OBJECTID":110027},"geometry":{"x":166044.94000000134,"y":2538091.7100000028}},{"attributes":{"ID":110028,"DIS_CODE":0,"TOWNNAME":"南區","LI":"喜東里","LIN":"9鄰","STREET":"喜樹路","SECT":" ","MAREA":" ","LANE":"１５１巷","ALLEY":"６３弄","HOUSE_NO":"３號","E_COORD97":166014.60000000001,"N_COORD97":2538002.96,"ADDRESS":"喜樹路１５１巷６３弄３號","OBJECTID":110028},"geometry":{"x":166014.59999999963,"y":2538002.9600000009}},{"attributes":{"ID":110029,"DIS_CODE":0,"TOWNNAME":"南區","LI":"喜東里","LIN":"9鄰","STREET":"喜樹路","SECT":" ","MAREA":" ","LANE":"１５１巷","ALLEY":"６３弄","HOUSE_NO":"４號","E_COORD97":166037.94,"N_COORD97":2537990.4900000002,"ADDRESS":"喜樹路１５１巷６３弄４號","OBJECTID":110029},"geometry":{"x":166037.94000000134,"y":2537990.4900000021}},{"attributes":{"ID":110030,"DIS_CODE":0,"TOWNNAME":"南區","LI":"喜東里","LIN":"9鄰","STREET":"喜樹路","SECT":" ","MAREA":" ","LANE":"１５１巷","ALLEY":"６３弄","HOUSE_NO":"６號","E_COORD97":166038.76000000001,"N_COORD97":2537999.2599999998,"ADDRESS":"喜樹路１５１巷６３弄６號","OBJECTID":110030},"geometry":{"x":166038.76000000071,"y":2537999.2599999998}},{"attributes":{"ID":110031,"DIS_CODE":0,"TOWNNAME":"麻豆區","LI":"大埕里","LIN":"8鄰","STREET":"新生北路","SECT":" ","MAREA":" ","LANE":" ","ALLEY":" ","HOUSE_NO":"６６８號","E_COORD97":173231.91,"N_COORD97":2565491.5299999998,"ADDRESS":"新生北路６６８號","OBJECTID":110031},"geometry":{"x":173231.91000000201,"y":2565491.5300000012}},{"attributes":{"ID":110032,"DIS_CODE":0,"TOWNNAME":"佳里區","LI":"溪州里","LIN":"9鄰","STREET":" ","SECT":" ","MAREA":"溪州","LANE":" ","ALLEY":" ","HOUSE_NO":"８５號之２４","E_COORD97":166462.67999999999,"N_COORD97":2567617.6899999999,"ADDRESS":"溪州８５號之２４","OBJECTID":110032},"geometry":{"x":166462.68000000063,"y":2567617.6900000013}},{"attributes":{"ID":110033,"DIS_CODE":0,"TOWNNAME":"佳里區","LI":"溪州里","LIN":"9鄰","STREET":" ","SECT":" ","MAREA":"溪州","LANE":" ","ALLEY":" ","HOUSE_NO":"８５號之２５","E_COORD97":166461.82999999999,"N_COORD97":2567620.79,"ADDRESS":"溪州８５號之２５","OBJECTID":110033},"geometry":{"x":166461.83000000194,"y":2567620.7899999991}},{"attributes":{"ID":110034,"DIS_CODE":0,"TOWNNAME":"佳里區","LI":"溪州里","LIN":"9鄰","STREET":" ","SECT":" ","MAREA":"溪州","LANE":" ","ALLEY":" ","HOUSE_NO":"８５號之２６","E_COORD97":166460.44,"N_COORD97":2567624.8300000001,"ADDRESS":"溪州８５號之２６","OBJECTID":110034},"geometry":{"x":166460.44000000134,"y":2567624.8300000001}},{"attributes":{"ID":110035,"DIS_CODE":0,"TOWNNAME":"佳里區","LI":"溪州里","LIN":"9鄰","STREET":" ","SECT":" ","MAREA":"溪州","LANE":" ","ALLEY":" ","HOUSE_NO":"８５號之２８","E_COORD97":166457.22,"N_COORD97":2567635.6200000001,"ADDRESS":"溪州８５號之２８","OBJECTID":110035},"geometry":{"x":166457.22000000067,"y":2567635.6200000029}},{"attributes":{"ID":110036,"DIS_CODE":0,"TOWNNAME":"佳里區","LI":"溪州里","LIN":"9鄰","STREET":" ","SECT":" ","MAREA":"溪州","LANE":" ","ALLEY":" ","HOUSE_NO":"８５號之２","E_COORD97":166528.01999999999,"N_COORD97":2567639.6899999999,"ADDRESS":"溪州８５號之２","OBJECTID":110036},"geometry":{"x":166528.02000000048,"y":2567639.6900000032}},{"attributes":{"ID":110037,"DIS_CODE":0,"TOWNNAME":"佳里區","LI":"溪州里","LIN":"9鄰","STREET":" ","SECT":" ","MAREA":"溪州","LANE":" ","ALLEY":" ","HOUSE_NO":"８５號之３２","E_COORD97":166426.79000000001,"N_COORD97":2567601.3500000001,"ADDRESS":"溪州８５號之３２","OBJECTID":110037},"geometry":{"x":166426.79000000097,"y":2567601.3499999978}},{"attributes":{"ID":110038,"DIS_CODE":0,"TOWNNAME":"佳里區","LI":"溪州里","LIN":"9鄰","STREET":" ","SECT":" ","MAREA":"溪州","LANE":" ","ALLEY":" ","HOUSE_NO":"８５號之４","E_COORD97":166498.29000000001,"N_COORD97":2567616.0699999998,"ADDRESS":"溪州８５號之４","OBJECTID":110038},"geometry":{"x":166498.29000000097,"y":2567616.0700000003}},{"attributes":{"ID":110039,"DIS_CODE":0,"TOWNNAME":"佳里區","LI":"溪州里","LIN":"9鄰","STREET":" ","SECT":" ","MAREA":"溪州","LANE":" ","ALLEY":" ","HOUSE_NO":"８５號之６５","E_COORD97":166091.64999999999,"N_COORD97":2567749.2799999998,"ADDRESS":"溪州８５號之６５","OBJECTID":110039},"geometry":{"x":166091.65000000037,"y":2567749.2799999993}},{"attributes":{"ID":110040,"DIS_CODE":0,"TOWNNAME":"南區","LI":"喜東里","LIN":"9鄰","STREET":"喜樹路","SECT":" ","MAREA":" ","LANE":"１５１巷","ALLEY":"６３弄","HOUSE_NO":"７號","E_COORD97":166018.82000000001,"N_COORD97":2538012.3199999998,"ADDRESS":"喜樹路１５１巷６３弄７號","OBJECTID":110040},"geometry":{"x":166018.8200000003,"y":2538012.3200000022}},{"attributes":{"ID":110041,"DIS_CODE":0,"TOWNNAME":"南區","LI":"喜東里","LIN":"9鄰","STREET":"喜樹路","SECT":" ","MAREA":" ","LANE":"１５１巷","ALLEY":"６３弄","HOUSE_NO":"８號","E_COORD97":166039.17999999999,"N_COORD97":2538008.71,"ADDRESS":"喜樹路１５１巷６３弄８號","OBJECTID":110041},"geometry":{"x":166039.18000000063,"y":2538008.7100000009}},{"attributes":{"ID":110042,"DIS_CODE":0,"TOWNNAME":"南區","LI":"喜東里","LIN":"9鄰","STREET":"喜樹路","SECT":" ","MAREA":" ","LANE":"１５１巷","ALLEY":"６３弄","HOUSE_NO":"９號","E_COORD97":166018.82000000001,"N_COORD97":2538015.71,"ADDRESS":"喜樹路１５１巷６３弄９號","OBJECTID":110042},"geometry":{"x":166018.8200000003,"y":2538015.7100000009}},{"attributes":{"ID":110043,"DIS_CODE":0,"TOWNNAME":"永康區","LI":"神洲里","LIN":"9鄰","STREET":"忠孝路","SECT":" ","MAREA":" ","LANE":"６巷","ALLEY":"３１弄","HOUSE_NO":"１０號","E_COORD97":172279.75,"N_COORD97":2544581.25,"ADDRESS":"忠孝路６巷３１弄１０號","OBJECTID":110043},"geometry":{"x":172279.75,"y":2544581.25}},{"attributes":{"ID":110044,"DIS_CODE":0,"TOWNNAME":"永康區","LI":"烏竹里","LIN":"9鄰","STREET":"龍橋街","SECT":" ","MAREA":" ","LANE":"３５０巷","ALLEY":"１３弄","HOUSE_NO":"１號之２","E_COORD97":174509.91,"N_COORD97":2549134.9399999999,"ADDRESS":"龍橋街３５０巷１３弄１號之２","OBJECTID":110044},"geometry":{"x":174509.90999999922,"y":2549134.9400000013}},{"attributes":{"ID":110045,"DIS_CODE":0,"TOWNNAME":"永康區","LI":"神洲里","LIN":"9鄰","STREET":"忠孝路","SECT":" ","MAREA":" ","LANE":"６巷","ALLEY":"３１弄","HOUSE_NO":"６號","E_COORD97":172273.67999999999,"N_COORD97":2544570,"ADDRESS":"忠孝路６巷３１弄６號","OBJECTID":110045},"geometry":{"x":172273.68000000063,"y":2544570.0000000037}},{"attributes":{"ID":110046,"DIS_CODE":0,"TOWNNAME":"永康區","LI":"神洲里","LIN":"9鄰","STREET":"忠孝路","SECT":" ","MAREA":" ","LANE":"６巷","ALLEY":"３１弄","HOUSE_NO":"１號","E_COORD97":172261.20000000001,"N_COORD97":2544562.5,"ADDRESS":"忠孝路６巷３１弄１號","OBJECTID":110046},"geometry":{"x":172261.20000000019,"y":2544562.5}},{"attributes":{"ID":110047,"DIS_CODE":0,"TOWNNAME":"永康區","LI":"神洲里","LIN":"9鄰","STREET":"忠孝路","SECT":" ","MAREA":" ","LANE":"６巷","ALLEY":"３１弄","HOUSE_NO":"７號","E_COORD97":172268.07000000001,"N_COORD97":2544579,"ADDRESS":"忠孝路６巷３１弄７號","OBJECTID":110047},"geometry":{"x":172268.07000000216,"y":2544579}},{"attributes":{"ID":110048,"DIS_CODE":0,"TOWNNAME":"永康區","LI":"神洲里","LIN":"9鄰","STREET":"忠孝路","SECT":" ","MAREA":" ","LANE":"６巷","ALLEY":"３７弄","HOUSE_NO":"５號","E_COORD97":172288.89999999999,"N_COORD97":2544556.75,"ADDRESS":"忠孝路６巷３７弄５號","OBJECTID":110048},"geometry":{"x":172288.90000000037,"y":2544556.75}},{"attributes":{"ID":110049,"DIS_CODE":0,"TOWNNAME":"永康區","LI":"烏竹里","LIN":"9鄰","STREET":"龍橋街","SECT":" ","MAREA":" ","LANE":"３５０巷","ALLEY":"１３弄","HOUSE_NO":"１號","E_COORD97":174513.88,"N_COORD97":2549140.3999999999,"ADDRESS":"龍橋街３５０巷１３弄１號","OBJECTID":110049},"geometry":{"x":174513.88000000082,"y":2549140.4000000004}},{"attributes":{"ID":110050,"DIS_CODE":0,"TOWNNAME":"佳里區","LI":"溪州里","LIN":"9鄰","STREET":" ","SECT":" ","MAREA":"溪州","LANE":" ","ALLEY":" ","HOUSE_NO":"８５號之６","E_COORD97":166508.04000000001,"N_COORD97":2567623.98,"ADDRESS":"溪州８５號之６","OBJECTID":110050},"geometry":{"x":166508.04000000097,"y":2567623.9800000004}},{"attributes":{"ID":110051,"DIS_CODE":0,"TOWNNAME":"佳里區","LI":"溪州里","LIN":"9鄰","STREET":" ","SECT":" ","MAREA":"溪州","LANE":" ","ALLEY":" ","HOUSE_NO":"８５號之７","E_COORD97":166512.22,"N_COORD97":2567625.25,"ADDRESS":"溪州８５號之７","OBJECTID":110051},"geometry":{"x":166512.21999999974,"y":2567625.25}},{"attributes":{"ID":110052,"DIS_CODE":0,"TOWNNAME":"佳里區","LI":"溪州里","LIN":"9鄰","STREET":" ","SECT":" ","MAREA":"溪州","LANE":" ","ALLEY":" ","HOUSE_NO":"８５號之８","E_COORD97":166516.60000000001,"N_COORD97":2567626.75,"ADDRESS":"溪州８５號之８","OBJECTID":110052},"geometry":{"x":166516.59999999963,"y":2567626.7500000019}},{"attributes":{"ID":110053,"DIS_CODE":0,"TOWNNAME":"佳里區","LI":"溪州里","LIN":"9鄰","STREET":" ","SECT":" ","MAREA":"溪州","LANE":" ","ALLEY":" ","HOUSE_NO":"８５號之９","E_COORD97":166521.19,"N_COORD97":2567628.0099999998,"ADDRESS":"溪州８５號之９","OBJECTID":110053},"geometry":{"x":166521.19000000134,"y":2567628.0100000035}},{"attributes":{"ID":110054,"DIS_CODE":0,"TOWNNAME":"永康區","LI":"烏竹里","LIN":"9鄰","STREET":"龍橋街","SECT":" ","MAREA":" ","LANE":"３５０巷","ALLEY":"１３弄","HOUSE_NO":"１號之１","E_COORD97":174512.81,"N_COORD97":2549137.6899999999,"ADDRESS":"龍橋街３５０巷１３弄１號之１","OBJECTID":110054},"geometry":{"x":174512.80999999959,"y":2549137.6899999995}},{"attributes":{"ID":110055,"DIS_CODE":0,"TOWNNAME":"永康區","LI":"烏竹里","LIN":"9鄰","STREET":"龍橋街","SECT":" ","MAREA":" ","LANE":"３５０巷","ALLEY":"１３弄","HOUSE_NO":"１號之３","E_COORD97":174506.72,"N_COORD97":2549132.1899999999,"ADDRESS":"龍橋街３５０巷１３弄１號之３","OBJECTID":110055},"geometry":{"x":174506.71999999974,"y":2549132.1900000013}},{"attributes":{"ID":110056,"DIS_CODE":0,"TOWNNAME":"永康區","LI":"神洲里","LIN":"9鄰","STREET":"忠孝路","SECT":" ","MAREA":" ","LANE":"６巷","ALLEY":"３１弄","HOUSE_NO":"４號","E_COORD97":172271.48000000001,"N_COORD97":2544564.75,"ADDRESS":"忠孝路６巷３１弄４號","OBJECTID":110056},"geometry":{"x":172271.48000000045,"y":2544564.7499999981}},{"attributes":{"ID":110057,"DIS_CODE":0,"TOWNNAME":"北區","LI":"開元里","LIN":"1鄰","STREET":"北園街","SECT":" ","MAREA":" ","LANE":"９９巷","ALLEY":" ","HOUSE_NO":"１１號","E_COORD97":170286.59,"N_COORD97":2545864.2000000002,"ADDRESS":"北園街９９巷１１號","OBJECTID":110057},"geometry":{"x":170286.59000000078,"y":2545864.2000000011}},{"attributes":{"ID":110058,"DIS_CODE":0,"TOWNNAME":"麻豆區","LI":"大埕里","LIN":"8鄰","STREET":"新生北路","SECT":" ","MAREA":" ","LANE":" ","ALLEY":" ","HOUSE_NO":"６７０號","E_COORD97":173236.79000000001,"N_COORD97":2565491.48,"ADDRESS":"新生北路６７０號","OBJECTID":110058},"geometry":{"x":173236.79000000004,"y":2565491.4800000004}},{"attributes":{"ID":110059,"DIS_CODE":0,"TOWNNAME":"麻豆區","LI":"大埕里","LIN":"8鄰","STREET":"新生北路","SECT":" ","MAREA":" ","LANE":" ","ALLEY":" ","HOUSE_NO":"６７２號","E_COORD97":173241.07000000001,"N_COORD97":2565491.6499999999,"ADDRESS":"新生北路６７２號","OBJECTID":110059},"geometry":{"x":173241.07000000216,"y":2565491.6500000041}},{"attributes":{"ID":110060,"DIS_CODE":0,"TOWNNAME":"麻豆區","LI":"大埕里","LIN":"8鄰","STREET":"新生北路","SECT":" ","MAREA":" ","LANE":" ","ALLEY":" ","HOUSE_NO":"６７６號","E_COORD97":173259.85999999999,"N_COORD97":2565489.21,"ADDRESS":"新生北路６７６號","OBJECTID":110060},"geometry":{"x":173259.86000000127,"y":2565489.2100000028}},{"attributes":{"ID":110061,"DIS_CODE":0,"TOWNNAME":"麻豆區","LI":"大埕里","LIN":"8鄰","STREET":"新生北路","SECT":" ","MAREA":" ","LANE":" ","ALLEY":" ","HOUSE_NO":"６９２號","E_COORD97":173305,"N_COORD97":2565476.3599999999,"ADDRESS":"新生北路６９２號","OBJECTID":110061},"geometry":{"x":173305,"y":2565476.3600000013}},{"attributes":{"ID":110062,"DIS_CODE":0,"TOWNNAME":"佳里區","LI":"溪州里","LIN":"9鄰","STREET":" ","SECT":" ","MAREA":"溪州","LANE":" ","ALLEY":" ","HOUSE_NO":"８５號","E_COORD97":166539.87,"N_COORD97":2567661.7400000002,"ADDRESS":"溪州８５號","OBJECTID":110062},"geometry":{"x":166539.87000000104,"y":2567661.7400000021}},{"attributes":{"ID":110063,"DIS_CODE":0,"TOWNNAME":"新營區","LI":"民生里","LIN":" ","STREET":"復興路","SECT":" ","MAREA":" ","LANE":" ","ALLEY":" ","HOUSE_NO":"２５６之１號","E_COORD97":178834.45999999999,"N_COORD97":2578132.04,"ADDRESS":"復興路２５６之１號","OBJECTID":110063},"geometry":{"x":178834.46000000089,"y":2578132.0399999991}},{"attributes":{"ID":110064,"DIS_CODE":0,"TOWNNAME":"麻豆區","LI":"新建里","LIN":"8鄰","STREET":"新生南路","SECT":" ","MAREA":" ","LANE":" ","ALLEY":" ","HOUSE_NO":"７８號","E_COORD97":172248.88,"N_COORD97":2564727.4199999999,"ADDRESS":"新生南路７８號","OBJECTID":110064},"geometry":{"x":172248.88000000082,"y":2564727.4200000018}},{"attributes":{"ID":110065,"DIS_CODE":0,"TOWNNAME":"麻豆區","LI":"新建里","LIN":"8鄰","STREET":"新生南路","SECT":" ","MAREA":" ","LANE":" ","ALLEY":" ","HOUSE_NO":"８０號","E_COORD97":172253.14999999999,"N_COORD97":2564728.54,"ADDRESS":"新生南路８０號","OBJECTID":110065},"geometry":{"x":172253.1500000013,"y":2564728.540000001}},{"attributes":{"ID":110066,"DIS_CODE":0,"TOWNNAME":"麻豆區","LI":"新建里","LIN":"8鄰","STREET":"新生南路","SECT":" ","MAREA":" ","LANE":" ","ALLEY":" ","HOUSE_NO":"８４號","E_COORD97":172295.04999999999,"N_COORD97":2564738.5,"ADDRESS":"新生南路８４號","OBJECTID":110066},"geometry":{"x":172295.05000000075,"y":2564738.5}},{"attributes":{"ID":110067,"DIS_CODE":0,"TOWNNAME":"麻豆區","LI":"新建里","LIN":"8鄰","STREET":"新生南路","SECT":" ","MAREA":" ","LANE":" ","ALLEY":" ","HOUSE_NO":"９２號","E_COORD97":172298.26000000001,"N_COORD97":2564725.2799999998,"ADDRESS":"新生南路９２號","OBJECTID":110067},"geometry":{"x":172298.25999999978,"y":2564725.2799999993}},{"attributes":{"ID":110068,"DIS_CODE":0,"TOWNNAME":"北區","LI":"賢北里","LIN":"1鄰","STREET":"中華北路","SECT":"一段","MAREA":" ","LANE":" ","ALLEY":" ","HOUSE_NO":"５１號","E_COORD97":166531.76999999999,"N_COORD97":2545379.6499999999,"ADDRESS":"中華北路一段５１號","OBJECTID":110068},"geometry":{"x":166531.77000000048,"y":2545379.6500000041}},{"attributes":{"ID":110069,"DIS_CODE":0,"TOWNNAME":"佳里區","LI":"營頂里","LIN":"9鄰","STREET":" ","SECT":" ","MAREA":"營頂","LANE":" ","ALLEY":" ","HOUSE_NO":"１０３號之１４","E_COORD97":167212.95999999999,"N_COORD97":2566742.0800000001,"ADDRESS":"營頂１０３號之１４","OBJECTID":110069},"geometry":{"x":167212.95999999996,"y":2566742.0800000001}},{"attributes":{"ID":110070,"DIS_CODE":0,"TOWNNAME":"佳里區","LI":"營頂里","LIN":"9鄰","STREET":" ","SECT":" ","MAREA":"營頂","LANE":" ","ALLEY":" ","HOUSE_NO":"１０３號之１５","E_COORD97":167218.57999999999,"N_COORD97":2566743.1400000001,"ADDRESS":"營頂１０３號之１５","OBJECTID":110070},"geometry":{"x":167218.58000000101,"y":2566743.1400000025}},{"attributes":{"ID":110071,"DIS_CODE":0,"TOWNNAME":"佳里區","LI":"營頂里","LIN":"9鄰","STREET":" ","SECT":" ","MAREA":"營頂","LANE":" ","ALLEY":" ","HOUSE_NO":"１０３號之１６","E_COORD97":167223.45000000001,"N_COORD97":2566744.2599999998,"ADDRESS":"營頂１０３號之１６","OBJECTID":110071},"geometry":{"x":167223.45000000019,"y":2566744.2599999998}},{"attributes":{"ID":110072,"DIS_CODE":0,"TOWNNAME":"佳里區","LI":"營頂里","LIN":"9鄰","STREET":" ","SECT":" ","MAREA":"營頂","LANE":" ","ALLEY":" ","HOUSE_NO":"１０３號之１７","E_COORD97":167229.57999999999,"N_COORD97":2566745.27,"ADDRESS":"營頂１０３號之１７","OBJECTID":110072},"geometry":{"x":167229.58000000194,"y":2566745.2700000014}},{"attributes":{"ID":110073,"DIS_CODE":0,"TOWNNAME":"佳里區","LI":"營頂里","LIN":"9鄰","STREET":" ","SECT":" ","MAREA":"營頂","LANE":" ","ALLEY":" ","HOUSE_NO":"１０３號之１８","E_COORD97":167235.54999999999,"N_COORD97":2566746.21,"ADDRESS":"營頂１０３號之１８","OBJECTID":110073},"geometry":{"x":167235.54999999981,"y":2566746.2100000046}},{"attributes":{"ID":110074,"DIS_CODE":0,"TOWNNAME":"佳里區","LI":"營頂里","LIN":"9鄰","STREET":" ","SECT":" ","MAREA":"營頂","LANE":" ","ALLEY":" ","HOUSE_NO":"１０３號之１９","E_COORD97":167240.82999999999,"N_COORD97":2566747.0899999999,"ADDRESS":"營頂１０３號之１９","OBJECTID":110074},"geometry":{"x":167240.83000000007,"y":2566747.0900000017}},{"attributes":{"ID":110075,"DIS_CODE":0,"TOWNNAME":"佳里區","LI":"營頂里","LIN":"9鄰","STREET":" ","SECT":" ","MAREA":"營頂","LANE":" ","ALLEY":" ","HOUSE_NO":"１０３號之１","E_COORD97":167208.91,"N_COORD97":2566762.2000000002,"ADDRESS":"營頂１０３號之１","OBJECTID":110075},"geometry":{"x":167208.91000000201,"y":2566762.2000000011}},{"attributes":{"ID":110076,"DIS_CODE":0,"TOWNNAME":"佳里區","LI":"營頂里","LIN":"9鄰","STREET":" ","SECT":" ","MAREA":"營頂","LANE":" ","ALLEY":" ","HOUSE_NO":"１０３號之２０","E_COORD97":167246.76999999999,"N_COORD97":2566748.27,"ADDRESS":"營頂１０３號之２０","OBJECTID":110076},"geometry":{"x":167246.77000000048,"y":2566748.2700000014}},{"attributes":{"ID":110077,"DIS_CODE":0,"TOWNNAME":"佳里區","LI":"營頂里","LIN":"9鄰","STREET":" ","SECT":" ","MAREA":"營頂","LANE":" ","ALLEY":" ","HOUSE_NO":"１０３號之２１","E_COORD97":167252.17999999999,"N_COORD97":2566749.1299999999,"ADDRESS":"營頂１０３號之２１","OBJECTID":110077},"geometry":{"x":167252.17999999877,"y":2566749.1300000008}},{"attributes":{"ID":110078,"DIS_CODE":0,"TOWNNAME":"佳里區","LI":"營頂里","LIN":"9鄰","STREET":" ","SECT":" ","MAREA":"營頂","LANE":" ","ALLEY":" ","HOUSE_NO":"１０３號之２２","E_COORD97":167257.64000000001,"N_COORD97":2566749.9399999999,"ADDRESS":"營頂１０３號之２２","OBJECTID":110078},"geometry":{"x":167257.64000000153,"y":2566749.9400000032}},{"attributes":{"ID":110079,"DIS_CODE":0,"TOWNNAME":"佳里區","LI":"營頂里","LIN":"9鄰","STREET":" ","SECT":" ","MAREA":"營頂","LANE":" ","ALLEY":" ","HOUSE_NO":"１０３號之２３","E_COORD97":167263.07000000001,"N_COORD97":2566751.5299999998,"ADDRESS":"營頂１０３號之２３","OBJECTID":110079},"geometry":{"x":167263.0700000003,"y":2566751.5299999993}},{"attributes":{"ID":110080,"DIS_CODE":0,"TOWNNAME":"北區","LI":"賢北里","LIN":"1鄰","STREET":"和緯路","SECT":"五段","MAREA":" ","LANE":" ","ALLEY":" ","HOUSE_NO":"５６之１號","E_COORD97":166433.14999999999,"N_COORD97":2545225.3999999999,"ADDRESS":"和緯路五段５６之１號","OBJECTID":110080},"geometry":{"x":166433.1500000013,"y":2545225.4000000041}},{"attributes":{"ID":110081,"DIS_CODE":0,"TOWNNAME":"永康區","LI":"崑山里","LIN":"9鄰","STREET":"崑大路","SECT":" ","MAREA":" ","LANE":"２０１巷","ALLEY":"３８弄","HOUSE_NO":"２６號","E_COORD97":173231.63,"N_COORD97":2544216.9900000002,"ADDRESS":"崑大路２０１巷３８弄２６號","OBJECTID":110081},"geometry":{"x":173231.62999999896,"y":2544216.9900000002}},{"attributes":{"ID":110082,"DIS_CODE":0,"TOWNNAME":"永康區","LI":"神洲里","LIN":"9鄰","STREET":"忠孝路","SECT":" ","MAREA":" ","LANE":"６巷","ALLEY":"３７弄","HOUSE_NO":"６號","E_COORD97":172296.70000000001,"N_COORD97":2544553.25,"ADDRESS":"忠孝路６巷３７弄６號","OBJECTID":110082},"geometry":{"x":172296.70000000112,"y":2544553.25}},{"attributes":{"ID":110083,"DIS_CODE":0,"TOWNNAME":"永康區","LI":"東橋里","LIN":"9鄰","STREET":"中山南路","SECT":" ","MAREA":" ","LANE":"２３１巷","ALLEY":"２６弄","HOUSE_NO":"５號","E_COORD97":171562.47,"N_COORD97":2546321.0499999998,"ADDRESS":"中山南路２３１巷２６弄５號","OBJECTID":110083},"geometry":{"x":171562.46999999974,"y":2546321.0500000026}},{"attributes":{"ID":110084,"DIS_CODE":0,"TOWNNAME":"佳里區","LI":"營頂里","LIN":"9鄰","STREET":" ","SECT":" ","MAREA":"營頂","LANE":" ","ALLEY":" ","HOUSE_NO":"１０３號之２４","E_COORD97":167268.98000000001,"N_COORD97":2566752.8100000001,"ADDRESS":"營頂１０３號之２４","OBJECTID":110084},"geometry":{"x":167268.98000000045,"y":2566752.8100000024}},{"attributes":{"ID":110085,"DIS_CODE":0,"TOWNNAME":"佳里區","LI":"營頂里","LIN":"9鄰","STREET":" ","SECT":" ","MAREA":"營頂","LANE":" ","ALLEY":" ","HOUSE_NO":"１０３號之２５","E_COORD97":167274.32000000001,"N_COORD97":2566753.6299999999,"ADDRESS":"營頂１０３號之２５","OBJECTID":110085},"geometry":{"x":167274.32000000123,"y":2566753.629999999}},{"attributes":{"ID":110086,"DIS_CODE":0,"TOWNNAME":"佳里區","LI":"營頂里","LIN":"9鄰","STREET":" ","SECT":" ","MAREA":"營頂","LANE":" ","ALLEY":" ","HOUSE_NO":"１０３號之２６","E_COORD97":167279.72,"N_COORD97":2566755.1899999999,"ADDRESS":"營頂１０３號之２６","OBJECTID":110086},"geometry":{"x":167279.72000000067,"y":2566755.1900000013}},{"attributes":{"ID":110087,"DIS_CODE":0,"TOWNNAME":"佳里區","LI":"營頂里","LIN":"9鄰","STREET":" ","SECT":" ","MAREA":"營頂","LANE":" ","ALLEY":" ","HOUSE_NO":"１０３號之２７","E_COORD97":167285.37,"N_COORD97":2566756.04,"ADDRESS":"營頂１０３號之２７","OBJECTID":110087},"geometry":{"x":167285.37000000197,"y":2566756.040000001}},{"attributes":{"ID":110088,"DIS_CODE":0,"TOWNNAME":"佳里區","LI":"營頂里","LIN":"9鄰","STREET":" ","SECT":" ","MAREA":"營頂","LANE":" ","ALLEY":" ","HOUSE_NO":"１０３號之２８","E_COORD97":167290.37,"N_COORD97":2566756.8599999999,"ADDRESS":"營頂１０３號之２８","OBJECTID":110088},"geometry":{"x":167290.37000000197,"y":2566756.8599999975}},{"attributes":{"ID":110089,"DIS_CODE":0,"TOWNNAME":"佳里區","LI":"營頂里","LIN":"9鄰","STREET":" ","SECT":" ","MAREA":"營頂","LANE":" ","ALLEY":" ","HOUSE_NO":"１０３號之２９","E_COORD97":167294.78,"N_COORD97":2566759.4100000001,"ADDRESS":"營頂１０３號之２９","OBJECTID":110089},"geometry":{"x":167294.78000000119,"y":2566759.4100000001}},{"attributes":{"ID":110090,"DIS_CODE":0,"TOWNNAME":"佳里區","LI":"營頂里","LIN":"9鄰","STREET":" ","SECT":" ","MAREA":"營頂","LANE":" ","ALLEY":" ","HOUSE_NO":"１０３號之２","E_COORD97":167215.25,"N_COORD97":2566763,"ADDRESS":"營頂１０３號之２","OBJECTID":110090},"geometry":{"x":167215.25000000093,"y":2566763}},{"attributes":{"ID":110091,"DIS_CODE":0,"TOWNNAME":"佳里區","LI":"營頂里","LIN":"9鄰","STREET":" ","SECT":" ","MAREA":"營頂","LANE":" ","ALLEY":" ","HOUSE_NO":"１０３號之３０","E_COORD97":167216.35999999999,"N_COORD97":2566723.71,"ADDRESS":"營頂１０３號之３０","OBJECTID":110091},"geometry":{"x":167216.36000000127,"y":2566723.7100000028}},{"attributes":{"ID":110092,"DIS_CODE":0,"TOWNNAME":"佳里區","LI":"營頂里","LIN":"9鄰","STREET":" ","SECT":" ","MAREA":"營頂","LANE":" ","ALLEY":" ","HOUSE_NO":"１０３號之３１","E_COORD97":167222.75,"N_COORD97":2566725.2400000002,"ADDRESS":"營頂１０３號之３１","OBJECTID":110092},"geometry":{"x":167222.75,"y":2566725.2400000021}},{"attributes":{"ID":110093,"DIS_CODE":0,"TOWNNAME":"佳里區","LI":"營頂里","LIN":"9鄰","STREET":" ","SECT":" ","MAREA":"營頂","LANE":" ","ALLEY":" ","HOUSE_NO":"１０３號之３２","E_COORD97":167228.35999999999,"N_COORD97":2566726,"ADDRESS":"營頂１０３號之３２","OBJECTID":110093},"geometry":{"x":167228.36000000127,"y":2566725.9999999981}},{"attributes":{"ID":110094,"DIS_CODE":0,"TOWNNAME":"佳里區","LI":"營頂里","LIN":"9鄰","STREET":" ","SECT":" ","MAREA":"營頂","LANE":" ","ALLEY":" ","HOUSE_NO":"１０３號之３３","E_COORD97":167233.66,"N_COORD97":2566727.1899999999,"ADDRESS":"營頂１０３號之３３","OBJECTID":110094},"geometry":{"x":167233.66000000015,"y":2566727.1899999995}},{"attributes":{"ID":110095,"DIS_CODE":0,"TOWNNAME":"佳里區","LI":"營頂里","LIN":"9鄰","STREET":" ","SECT":" ","MAREA":"營頂","LANE":" ","ALLEY":" ","HOUSE_NO":"１０３號之３４","E_COORD97":167238.79000000001,"N_COORD97":2566728.2799999998,"ADDRESS":"營頂１０３號之３４","OBJECTID":110095},"geometry":{"x":167238.79000000097,"y":2566728.2800000012}},{"attributes":{"ID":110096,"DIS_CODE":0,"TOWNNAME":"佳里區","LI":"營頂里","LIN":"9鄰","STREET":" ","SECT":" ","MAREA":"營頂","LANE":" ","ALLEY":" ","HOUSE_NO":"１０３號之３５","E_COORD97":167244.60000000001,"N_COORD97":2566729.3399999999,"ADDRESS":"營頂１０３號之３５","OBJECTID":110096},"geometry":{"x":167244.60000000056,"y":2566729.3399999999}},{"attributes":{"ID":110097,"DIS_CODE":0,"TOWNNAME":"佳里區","LI":"營頂里","LIN":"9鄰","STREET":" ","SECT":" ","MAREA":"營頂","LANE":" ","ALLEY":" ","HOUSE_NO":"１０３號之３６","E_COORD97":167249.48999999999,"N_COORD97":2566730.4500000002,"ADDRESS":"營頂１０３號之３６","OBJECTID":110097},"geometry":{"x":167249.49000000115,"y":2566730.4500000011}},{"attributes":{"ID":110098,"DIS_CODE":0,"TOWNNAME":"永康區","LI":"東橋里","LIN":"9鄰","STREET":"中山南路","SECT":" ","MAREA":" ","LANE":"２３１巷","ALLEY":"２６弄","HOUSE_NO":"７號","E_COORD97":171560.07000000001,"N_COORD97":2546324.0499999998,"ADDRESS":"中山南路２３１巷２６弄７號","OBJECTID":110098},"geometry":{"x":171560.07000000123,"y":2546324.0500000026}},{"attributes":{"ID":110099,"DIS_CODE":0,"TOWNNAME":"仁德區","LI":"田厝里","LIN":"9鄰","STREET":"田厝二街","SECT":" ","MAREA":" ","LANE":"６４巷","ALLEY":"９弄","HOUSE_NO":"８號","E_COORD97":172406.42999999999,"N_COORD97":2537690.2400000002,"ADDRESS":"田厝二街６４巷９弄８號","OBJECTID":110099},"geometry":{"x":172406.43000000063,"y":2537690.2400000021}},{"attributes":{"ID":110100,"DIS_CODE":0,"TOWNNAME":"仁德區","LI":"後壁里","LIN":"9鄰","STREET":"民安路","SECT":"二段","MAREA":" ","LANE":"１８２巷","ALLEY":"８弄","HOUSE_NO":"７號","E_COORD97":173752.20999999999,"N_COORD97":2538931.5600000001,"ADDRESS":"民安路二段１８２巷８弄７號","OBJECTID":110100},"geometry":{"x":173752.21000000089,"y":2538931.5600000005}},{"attributes":{"ID":110101,"DIS_CODE":0,"TOWNNAME":"仁德區","LI":"上崙里","LIN":"9鄰","STREET":"德善路","SECT":" ","MAREA":" ","LANE":"３０５巷","ALLEY":"１３弄","HOUSE_NO":"１９號","E_COORD97":174032.89000000001,"N_COORD97":2538502.1600000001,"ADDRESS":"德善路３０５巷１３弄１９號","OBJECTID":110101},"geometry":{"x":174032.88999999966,"y":2538502.1600000001}},{"attributes":{"ID":110102,"DIS_CODE":0,"TOWNNAME":"仁德區","LI":"上崙里","LIN":"9鄰","STREET":"民安路","SECT":"二段","MAREA":" ","LANE":"３８２巷","ALLEY":"５３弄","HOUSE_NO":"９號","E_COORD97":173993.22,"N_COORD97":2538634.5299999998,"ADDRESS":"民安路二段３８２巷５３弄９號","OBJECTID":110102},"geometry":{"x":173993.21999999974,"y":2538634.5299999993}},{"attributes":{"ID":110103,"DIS_CODE":0,"TOWNNAME":"仁德區","LI":"上崙里","LIN":"9鄰","STREET":"德善路","SECT":" ","MAREA":" ","LANE":"３０５巷","ALLEY":"１３弄","HOUSE_NO":"６號","E_COORD97":173999.17000000001,"N_COORD97":2538536.04,"ADDRESS":"德善路３０５巷１３弄６號","OBJECTID":110103},"geometry":{"x":173999.16999999993,"y":2538536.0399999991}},{"attributes":{"ID":110104,"DIS_CODE":0,"TOWNNAME":"仁德區","LI":"上崙里","LIN":"9鄰","STREET":"民安路","SECT":"二段","MAREA":" ","LANE":"３８２巷","ALLEY":"５３弄","HOUSE_NO":"１５號","E_COORD97":173997.79999999999,"N_COORD97":2538618.7799999998,"ADDRESS":"民安路二段３８２巷５３弄１５號","OBJECTID":110104},"geometry":{"x":173997.79999999981,"y":2538618.7800000012}},{"attributes":{"ID":110105,"DIS_CODE":0,"TOWNNAME":"仁德區","LI":"後壁里","LIN":"9鄰","STREET":"民安路","SECT":"二段","MAREA":" ","LANE":"１８２巷","ALLEY":"１８弄","HOUSE_NO":"２號","E_COORD97":173748.91,"N_COORD97":2538911.5600000001,"ADDRESS":"民安路二段１８２巷１８弄２號","OBJECTID":110105},"geometry":{"x":173748.91000000201,"y":2538911.5599999987}},{"attributes":{"ID":110106,"DIS_CODE":0,"TOWNNAME":"仁德區","LI":"二行里","LIN":"9鄰","STREET":"中正西路","SECT":" ","MAREA":" ","LANE":"２１１巷","ALLEY":"２９弄","HOUSE_NO":"２號","E_COORD97":170102.92999999999,"N_COORD97":2535250.6899999999,"ADDRESS":"中正西路２１１巷２９弄２號","OBJECTID":110106},"geometry":{"x":170102.9299999997,"y":2535250.6899999995}},{"attributes":{"ID":110107,"DIS_CODE":0,"TOWNNAME":"仁德區","LI":"二行里","LIN":"9鄰","STREET":"中正西路","SECT":" ","MAREA":" ","LANE":"２１１巷","ALLEY":"２９弄","HOUSE_NO":"８號","E_COORD97":170089.16,"N_COORD97":2535251.9500000002,"ADDRESS":"中正西路２１１巷２９弄８號","OBJECTID":110107},"geometry":{"x":170089.16000000108,"y":2535251.9499999993}},{"attributes":{"ID":110108,"DIS_CODE":0,"TOWNNAME":"仁德區","LI":"二行里","LIN":"9鄰","STREET":"中正西路","SECT":" ","MAREA":" ","LANE":"２１１巷","ALLEY":"２９弄","HOUSE_NO":"１２號","E_COORD97":170090.85999999999,"N_COORD97":2535238.7000000002,"ADDRESS":"中正西路２１１巷２９弄１２號","OBJECTID":110108},"geometry":{"x":170090.86000000034,"y":2535238.7000000011}},{"attributes":{"ID":110109,"DIS_CODE":0,"TOWNNAME":"佳里區","LI":"營頂里","LIN":"9鄰","STREET":" ","SECT":" ","MAREA":"營頂","LANE":" ","ALLEY":" ","HOUSE_NO":"１０３號之３７","E_COORD97":167255.17000000001,"N_COORD97":2566731.6499999999,"ADDRESS":"營頂１０３號之３７","OBJECTID":110109},"geometry":{"x":167255.16999999993,"y":2566731.6500000004}},{"attributes":{"ID":110110,"DIS_CODE":0,"TOWNNAME":"佳里區","LI":"營頂里","LIN":"9鄰","STREET":" ","SECT":" ","MAREA":"營頂","LANE":" ","ALLEY":" ","HOUSE_NO":"１０３號之３８","E_COORD97":167260.73999999999,"N_COORD97":2566732.7200000002,"ADDRESS":"營頂１０３號之３８","OBJECTID":110110},"geometry":{"x":167260.74000000022,"y":2566732.7200000025}},{"attributes":{"ID":110111,"DIS_CODE":0,"TOWNNAME":"佳里區","LI":"營頂里","LIN":"9鄰","STREET":" ","SECT":" ","MAREA":"營頂","LANE":" ","ALLEY":" ","HOUSE_NO":"１０３號之３９","E_COORD97":167265.59,"N_COORD97":2566733.6299999999,"ADDRESS":"營頂１０３號之３９","OBJECTID":110111},"geometry":{"x":167265.59000000078,"y":2566733.629999999}},{"attributes":{"ID":110112,"DIS_CODE":0,"TOWNNAME":"佳里區","LI":"營頂里","LIN":"9鄰","STREET":" ","SECT":" ","MAREA":"營頂","LANE":" ","ALLEY":" ","HOUSE_NO":"１０３號之３","E_COORD97":167221.54999999999,"N_COORD97":2566764.2799999998,"ADDRESS":"營頂１０３號之３","OBJECTID":110112},"geometry":{"x":167221.55000000075,"y":2566764.2800000031}},{"attributes":{"ID":110113,"DIS_CODE":0,"TOWNNAME":"佳里區","LI":"營頂里","LIN":"9鄰","STREET":" ","SECT":" ","MAREA":"營頂","LANE":" ","ALLEY":" ","HOUSE_NO":"１０３號之４０","E_COORD97":167271.54000000001,"N_COORD97":2566734.7799999998,"ADDRESS":"營頂１０３號之４０","OBJECTID":110113},"geometry":{"x":167271.54000000004,"y":2566734.7800000012}},{"attributes":{"ID":110114,"DIS_CODE":0,"TOWNNAME":"佳里區","LI":"營頂里","LIN":"9鄰","STREET":" ","SECT":" ","MAREA":"營頂","LANE":" ","ALLEY":" ","HOUSE_NO":"１０３號之４１","E_COORD97":167277.26000000001,"N_COORD97":2566736.0699999998,"ADDRESS":"營頂１０３號之４１","OBJECTID":110114},"geometry":{"x":167277.26000000164,"y":2566736.0699999984}},{"attributes":{"ID":110115,"DIS_CODE":0,"TOWNNAME":"佳里區","LI":"營頂里","LIN":"9鄰","STREET":" ","SECT":" ","MAREA":"營頂","LANE":" ","ALLEY":" ","HOUSE_NO":"１０３號之４２","E_COORD97":167281.92000000001,"N_COORD97":2566737.0499999998,"ADDRESS":"營頂１０３號之４２","OBJECTID":110115},"geometry":{"x":167281.92000000086,"y":2566737.0500000045}},{"attributes":{"ID":110116,"DIS_CODE":0,"TOWNNAME":"佳里區","LI":"營頂里","LIN":"9鄰","STREET":" ","SECT":" ","MAREA":"營頂","LANE":" ","ALLEY":" ","HOUSE_NO":"１０３號之４３","E_COORD97":167287.57999999999,"N_COORD97":2566738.23,"ADDRESS":"營頂１０３號之４３","OBJECTID":110116},"geometry":{"x":167287.58000000101,"y":2566738.2300000004}},{"attributes":{"ID":110117,"DIS_CODE":0,"TOWNNAME":"佳里區","LI":"營頂里","LIN":"9鄰","STREET":" ","SECT":" ","MAREA":"營頂","LANE":" ","ALLEY":" ","HOUSE_NO":"１０３號之４４","E_COORD97":167293.41,"N_COORD97":2566739.25,"ADDRESS":"營頂１０３號之４４","OBJECTID":110117},"geometry":{"x":167293.41000000015,"y":2566739.2500000019}},{"attributes":{"ID":110118,"DIS_CODE":0,"TOWNNAME":"佳里區","LI":"營頂里","LIN":"9鄰","STREET":" ","SECT":" ","MAREA":"營頂","LANE":" ","ALLEY":" ","HOUSE_NO":"１０３號之４５","E_COORD97":167298.66,"N_COORD97":2566740.3500000001,"ADDRESS":"營頂１０３號之４５","OBJECTID":110118},"geometry":{"x":167298.66000000201,"y":2566740.3500000034}},{"attributes":{"ID":110119,"DIS_CODE":0,"TOWNNAME":"仁德區","LI":"上崙里","LIN":"9鄰","STREET":"德善路","SECT":" ","MAREA":" ","LANE":"３０５巷","ALLEY":"１３弄","HOUSE_NO":"５９號","E_COORD97":174081.20000000001,"N_COORD97":2538439.7000000002,"ADDRESS":"德善路３０５巷１３弄５９號","OBJECTID":110119},"geometry":{"x":174081.20000000112,"y":2538439.7000000011}},{"attributes":{"ID":110120,"DIS_CODE":0,"TOWNNAME":"仁德區","LI":"二行里","LIN":"9鄰","STREET":"中正西路","SECT":" ","MAREA":" ","LANE":"２１１巷","ALLEY":"２９弄","HOUSE_NO":"２之１號","E_COORD97":170097.67000000001,"N_COORD97":2535250.96,"ADDRESS":"中正西路２１１巷２９弄２之１號","OBJECTID":110120},"geometry":{"x":170097.67000000086,"y":2535250.959999999}},{"attributes":{"ID":110121,"DIS_CODE":0,"TOWNNAME":"仁德區","LI":"上崙里","LIN":"9鄰","STREET":"民安路","SECT":"二段","MAREA":" ","LANE":"３８２巷","ALLEY":"５３弄","HOUSE_NO":"１３號","E_COORD97":173996.29000000001,"N_COORD97":2538623.5299999998,"ADDRESS":"民安路二段３８２巷５３弄１３號","OBJECTID":110121},"geometry":{"x":173996.29000000004,"y":2538623.5300000012}},{"attributes":{"ID":110122,"DIS_CODE":0,"TOWNNAME":"仁德區","LI":"上崙里","LIN":"9鄰","STREET":"德善路","SECT":" ","MAREA":" ","LANE":"３０５巷","ALLEY":"１３弄","HOUSE_NO":"５０號","E_COORD97":174008.32999999999,"N_COORD97":2538474.1099999999,"ADDRESS":"德善路３０５巷１３弄５０號","OBJECTID":110122},"geometry":{"x":174008.33000000007,"y":2538474.1100000013}},{"attributes":{"ID":110123,"DIS_CODE":0,"TOWNNAME":"仁德區","LI":"上崙里","LIN":"9鄰","STREET":"德善路","SECT":" ","MAREA":" ","LANE":"３０５巷","ALLEY":"１３弄","HOUSE_NO":"５１號","E_COORD97":174058.17000000001,"N_COORD97":2538460.6699999999,"ADDRESS":"德善路３０５巷１３弄５１號","OBJECTID":110123},"geometry":{"x":174058.16999999993,"y":2538460.6700000018}},{"attributes":{"ID":110124,"DIS_CODE":0,"TOWNNAME":"仁德區","LI":"上崙里","LIN":"9鄰","STREET":"德善路","SECT":" ","MAREA":" ","LANE":"３０５巷","ALLEY":"１３弄","HOUSE_NO":"１８號","E_COORD97":173989.10000000001,"N_COORD97":2538502.6000000001,"ADDRESS":"德善路３０５巷１３弄１８號","OBJECTID":110124},"geometry":{"x":173989.09999999963,"y":2538502.5999999996}},{"attributes":{"ID":110125,"DIS_CODE":0,"TOWNNAME":"佳里區","LI":"營頂里","LIN":"9鄰","STREET":" ","SECT":" ","MAREA":"營頂","LANE":" ","ALLEY":" ","HOUSE_NO":"１０３號之４６","E_COORD97":167305.35000000001,"N_COORD97":2566741.4199999999,"ADDRESS":"營頂１０３號之４６","OBJECTID":110125},"geometry":{"x":167305.35000000149,"y":2566741.4200000018}},{"attributes":{"ID":110126,"DIS_CODE":0,"TOWNNAME":"佳里區","LI":"營頂里","LIN":"9鄰","STREET":" ","SECT":" ","MAREA":"營頂","LANE":" ","ALLEY":" ","HOUSE_NO":"１０３號之４７","E_COORD97":167313.29000000001,"N_COORD97":2566743.0800000001,"ADDRESS":"營頂１０３號之４７","OBJECTID":110126},"geometry":{"x":167313.29000000097,"y":2566743.0800000019}},{"attributes":{"ID":110127,"DIS_CODE":0,"TOWNNAME":"佳里區","LI":"營頂里","LIN":"9鄰","STREET":" ","SECT":" ","MAREA":"營頂","LANE":" ","ALLEY":" ","HOUSE_NO":"１０３號之４","E_COORD97":167227.75,"N_COORD97":2566764.8999999999,"ADDRESS":"營頂１０３號之４","OBJECTID":110127},"geometry":{"x":167227.75,"y":2566764.9000000022}},{"attributes":{"ID":110128,"DIS_CODE":0,"TOWNNAME":"仁德區","LI":"上崙里","LIN":"9鄰","STREET":"德善路","SECT":" ","MAREA":" ","LANE":"３０５巷","ALLEY":"１３弄","HOUSE_NO":"３８號","E_COORD97":174007.69,"N_COORD97":2538484.8399999999,"ADDRESS":"德善路３０５巷１３弄３８號","OBJECTID":110128},"geometry":{"x":174007.69000000041,"y":2538484.8399999999}},{"attributes":{"ID":110129,"DIS_CODE":0,"TOWNNAME":"北區","LI":"重興里","LIN":"1鄰","STREET":"林森路","SECT":"三段","MAREA":" ","LANE":"７５巷","ALLEY":" ","HOUSE_NO":"７號","E_COORD97":170478.37,"N_COORD97":2544817.3100000001,"ADDRESS":"林森路三段７５巷７號","OBJECTID":110129},"geometry":{"x":170478.37000000011,"y":2544817.3100000024}},{"attributes":{"ID":110130,"DIS_CODE":0,"TOWNNAME":"麻豆區","LI":"新建里","LIN":"8鄰","STREET":"新生南路","SECT":" ","MAREA":" ","LANE":" ","ALLEY":" ","HOUSE_NO":"９８號","E_COORD97":172302.45000000001,"N_COORD97":2564708.1600000001,"ADDRESS":"新生南路９８號","OBJECTID":110130},"geometry":{"x":172302.45000000019,"y":2564708.1600000039}},{"attributes":{"ID":110131,"DIS_CODE":0,"TOWNNAME":"佳里區","LI":"營頂里","LIN":"9鄰","STREET":" ","SECT":" ","MAREA":"營頂","LANE":" ","ALLEY":" ","HOUSE_NO":"１０３號之５","E_COORD97":167233.92000000001,"N_COORD97":2566765.71,"ADDRESS":"營頂１０３號之５","OBJECTID":110131},"geometry":{"x":167233.92000000179,"y":2566765.7100000009}},{"attributes":{"ID":110132,"DIS_CODE":0,"TOWNNAME":"東山區","LI":"大客里","LIN":"1鄰","STREET":" ","SECT":" ","MAREA":"大庄","LANE":" ","ALLEY":" ","HOUSE_NO":"３號之２","E_COORD97":189607.04999999999,"N_COORD97":2578725.9199999999,"ADDRESS":"大庄３號之２","OBJECTID":110132},"geometry":{"x":189607.04999999981,"y":2578725.9200000018}},{"attributes":{"ID":110133,"DIS_CODE":0,"TOWNNAME":"東山區","LI":"大客里","LIN":"1鄰","STREET":" ","SECT":" ","MAREA":"大庄","LANE":" ","ALLEY":" ","HOUSE_NO":"３號之３","E_COORD97":189605.12,"N_COORD97":2578735.9399999999,"ADDRESS":"大庄３號之３","OBJECTID":110133},"geometry":{"x":189605.12000000011,"y":2578735.9400000013}},{"attributes":{"ID":110134,"DIS_CODE":0,"TOWNNAME":"東山區","LI":"大客里","LIN":"1鄰","STREET":" ","SECT":" ","MAREA":"大庄","LANE":" ","ALLEY":" ","HOUSE_NO":"３號","E_COORD97":189608.87,"N_COORD97":2578752,"ADDRESS":"大庄３號","OBJECTID":110134},"geometry":{"x":189608.87000000011,"y":2578752.0000000037}},{"attributes":{"ID":110135,"DIS_CODE":0,"TOWNNAME":"東山區","LI":"大客里","LIN":"1鄰","STREET":" ","SECT":" ","MAREA":"大庄","LANE":" ","ALLEY":" ","HOUSE_NO":"７號","E_COORD97":189643.41,"N_COORD97":2578794.6699999999,"ADDRESS":"大庄７號","OBJECTID":110135},"geometry":{"x":189643.41000000108,"y":2578794.6700000037}},{"attributes":{"ID":110136,"DIS_CODE":0,"TOWNNAME":"鹽水區","LI":"下中里","LIN":"1鄰","STREET":" ","SECT":" ","MAREA":"二庄","LANE":" ","ALLEY":" ","HOUSE_NO":"２號","E_COORD97":173391.82999999999,"N_COORD97":2580430.8700000001,"ADDRESS":"二庄２號","OBJECTID":110136},"geometry":{"x":173391.83000000101,"y":2580430.870000001}},{"attributes":{"ID":110137,"DIS_CODE":0,"TOWNNAME":"佳里區","LI":"營頂里","LIN":"9鄰","STREET":" ","SECT":" ","MAREA":"營頂","LANE":" ","ALLEY":" ","HOUSE_NO":"１０３號之６１","E_COORD97":167407.45999999999,"N_COORD97":2566682.5899999999,"ADDRESS":"營頂１０３號之６１","OBJECTID":110137},"geometry":{"x":167407.46000000089,"y":2566682.5900000017}},{"attributes":{"ID":110138,"DIS_CODE":0,"TOWNNAME":"佳里區","LI":"營頂里","LIN":"9鄰","STREET":" ","SECT":" ","MAREA":"營頂","LANE":" ","ALLEY":" ","HOUSE_NO":"１０３號之６","E_COORD97":167239.82999999999,"N_COORD97":2566766.6000000001,"ADDRESS":"營頂１０３號之６","OBJECTID":110138},"geometry":{"x":167239.83000000194,"y":2566766.6000000015}},{"attributes":{"ID":110139,"DIS_CODE":0,"TOWNNAME":"佳里區","LI":"營頂里","LIN":"9鄰","STREET":" ","SECT":" ","MAREA":"營頂","LANE":" ","ALLEY":" ","HOUSE_NO":"１０３號之７","E_COORD97":167246.17000000001,"N_COORD97":2566767.1099999999,"ADDRESS":"營頂１０３號之７","OBJECTID":110139},"geometry":{"x":167246.17000000086,"y":2566767.1100000013}},{"attributes":{"ID":110140,"DIS_CODE":0,"TOWNNAME":"仁德區","LI":"上崙里","LIN":"9鄰","STREET":"德善路","SECT":" ","MAREA":" ","LANE":"３０５巷","ALLEY":"１３弄","HOUSE_NO":"４２號","E_COORD97":173999.41,"N_COORD97":2538482.8500000001,"ADDRESS":"德善路３０５巷１３弄４２號","OBJECTID":110140},"geometry":{"x":173999.41000000015,"y":2538482.8500000015}},{"attributes":{"ID":110141,"DIS_CODE":0,"TOWNNAME":"仁德區","LI":"上崙里","LIN":"9鄰","STREET":"民安路","SECT":"二段","MAREA":" ","LANE":"３８２巷","ALLEY":"５３弄","HOUSE_NO":"２９號","E_COORD97":174033.37,"N_COORD97":2538588,"ADDRESS":"民安路二段３８２巷５３弄２９號","OBJECTID":110141},"geometry":{"x":174033.37000000011,"y":2538588}},{"attributes":{"ID":110142,"DIS_CODE":0,"TOWNNAME":"仁德區","LI":"上崙里","LIN":"9鄰","STREET":"德善路","SECT":" ","MAREA":" ","LANE":"３０５巷","ALLEY":"１３弄","HOUSE_NO":"４７號","E_COORD97":174043.72,"N_COORD97":2538459.4199999999,"ADDRESS":"德善路３０５巷１３弄４７號","OBJECTID":110142},"geometry":{"x":174043.72000000067,"y":2538459.4199999999}},{"attributes":{"ID":110143,"DIS_CODE":0,"TOWNNAME":"新化區","LI":"大坑里","LIN":"9鄰","STREET":" ","SECT":" ","MAREA":"大坑尾","LANE":" ","ALLEY":" ","HOUSE_NO":"４５號之５","E_COORD97":185439.73413200001,"N_COORD97":2545375.7870399999,"ADDRESS":"大坑尾４５號之５","OBJECTID":110143},"geometry":{"x":185439.73413200118,"y":2545375.787038004}},{"attributes":{"ID":110144,"DIS_CODE":0,"TOWNNAME":"新化區","LI":"大坑里","LIN":"9鄰","STREET":" ","SECT":" ","MAREA":"大坑尾","LANE":" ","ALLEY":" ","HOUSE_NO":"４５號之６","E_COORD97":185435.073049,"N_COORD97":2545372.1887099999,"ADDRESS":"大坑尾４５號之６","OBJECTID":110144},"geometry":{"x":185435.07304900046,"y":2545372.1887060013}},{"attributes":{"ID":110145,"DIS_CODE":0,"TOWNNAME":"新化區","LI":"知義里","LIN":"9鄰","STREET":" ","SECT":" ","MAREA":"新和庄","LANE":" ","ALLEY":" ","HOUSE_NO":"６９號","E_COORD97":181920.73999999999,"N_COORD97":2546559.2400000002,"ADDRESS":"新和庄６９號","OBJECTID":110145},"geometry":{"x":181920.74000000022,"y":2546559.2400000021}},{"attributes":{"ID":110146,"DIS_CODE":0,"TOWNNAME":"新化區","LI":"大坑里","LIN":"9鄰","STREET":" ","SECT":" ","MAREA":"大坑尾","LANE":" ","ALLEY":" ","HOUSE_NO":"４３號之１","E_COORD97":185334.01229000001,"N_COORD97":2545477.38698,"ADDRESS":"大坑尾４３號之１","OBJECTID":110146},"geometry":{"x":185334.01228999998,"y":2545477.3869829997}},{"attributes":{"ID":110147,"DIS_CODE":0,"TOWNNAME":"新化區","LI":"知義里","LIN":"9鄰","STREET":" ","SECT":" ","MAREA":"新和庄","LANE":" ","ALLEY":" ","HOUSE_NO":"１５１號","E_COORD97":181954.48999999999,"N_COORD97":2546558.25,"ADDRESS":"新和庄１５１號","OBJECTID":110147},"geometry":{"x":181954.49000000022,"y":2546558.25}},{"attributes":{"ID":110148,"DIS_CODE":0,"TOWNNAME":"新化區","LI":"\u25A0拔里","LIN":"9鄰","STREET":" ","SECT":" ","MAREA":"\u25A0拔林","LANE":" ","ALLEY":" ","HOUSE_NO":"３３７號","E_COORD97":183356.01999999999,"N_COORD97":2551859.25,"ADDRESS":"\u25A0拔林３３７號","OBJECTID":110148},"geometry":{"x":183356.02000000048,"y":2551859.2500000019}},{"attributes":{"ID":110149,"DIS_CODE":0,"TOWNNAME":"新化區","LI":"大坑里","LIN":"9鄰","STREET":" ","SECT":" ","MAREA":"大坑尾","LANE":" ","ALLEY":" ","HOUSE_NO":"４５號之１","E_COORD97":185453.29364700001,"N_COORD97":2545391.3445299999,"ADDRESS":"大坑尾４５號之１","OBJECTID":110149},"geometry":{"x":185453.2936470015,"y":2545391.3445289992}},{"attributes":{"ID":110150,"DIS_CODE":0,"TOWNNAME":"新化區","LI":"知義里","LIN":"9鄰","STREET":" ","SECT":" ","MAREA":"新和庄","LANE":" ","ALLEY":" ","HOUSE_NO":"７４號","E_COORD97":181946.091163,"N_COORD97":2546545.8275000001,"ADDRESS":"新和庄７４號","OBJECTID":110150},"geometry":{"x":181946.09116300009,"y":2546545.8275010008}},{"attributes":{"ID":110151,"DIS_CODE":0,"TOWNNAME":"西港區","LI":"西港里","LIN":"9鄰","STREET":" ","SECT":" ","MAREA":"西港","LANE":" ","ALLEY":" ","HOUSE_NO":"８號之４","E_COORD97":168477.39000000001,"N_COORD97":2558067.3999999999,"ADDRESS":"西港８號之４","OBJECTID":110151},"geometry":{"x":168477.38999999966,"y":2558067.4000000004}},{"attributes":{"ID":110152,"DIS_CODE":0,"TOWNNAME":"西港區","LI":"西港里","LIN":"9鄰","STREET":" ","SECT":" ","MAREA":"西港","LANE":" ","ALLEY":" ","HOUSE_NO":"８號之５","E_COORD97":168473.44,"N_COORD97":2558067.1200000001,"ADDRESS":"西港８號之５","OBJECTID":110152},"geometry":{"x":168473.44000000227,"y":2558067.120000001}},{"attributes":{"ID":110153,"DIS_CODE":0,"TOWNNAME":"西港區","LI":"西港里","LIN":"9鄰","STREET":" ","SECT":" ","MAREA":"西港","LANE":" ","ALLEY":" ","HOUSE_NO":"８號之６","E_COORD97":168469.54000000001,"N_COORD97":2558066.8999999999,"ADDRESS":"西港８號之６","OBJECTID":110153},"geometry":{"x":168469.54000000097,"y":2558066.9000000004}},{"attributes":{"ID":110154,"DIS_CODE":0,"TOWNNAME":"西港區","LI":"南海里","LIN":"9鄰","STREET":" ","SECT":" ","MAREA":"南海埔","LANE":" ","ALLEY":" ","HOUSE_NO":"７２號","E_COORD97":167636.23000000001,"N_COORD97":2557493.3500000001,"ADDRESS":"南海埔７２號","OBJECTID":110154},"geometry":{"x":167636.23000000138,"y":2557493.3499999996}},{"attributes":{"ID":110155,"DIS_CODE":0,"TOWNNAME":"西港區","LI":"南海里","LIN":"9鄰","STREET":" ","SECT":" ","MAREA":"南海埔","LANE":" ","ALLEY":" ","HOUSE_NO":"７３號","E_COORD97":167647.29000000001,"N_COORD97":2557480.8199999998,"ADDRESS":"南海埔７３號","OBJECTID":110155},"geometry":{"x":167647.29000000097,"y":2557480.8200000003}},{"attributes":{"ID":110156,"DIS_CODE":0,"TOWNNAME":"西港區","LI":"南海里","LIN":"9鄰","STREET":" ","SECT":" ","MAREA":"南海埔","LANE":" ","ALLEY":" ","HOUSE_NO":"７６號","E_COORD97":167645.04999999999,"N_COORD97":2557452.1600000001,"ADDRESS":"南海埔７６號","OBJECTID":110156},"geometry":{"x":167645.05000000075,"y":2557452.1600000001}},{"attributes":{"ID":110157,"DIS_CODE":0,"TOWNNAME":"西港區","LI":"南海里","LIN":"9鄰","STREET":" ","SECT":" ","MAREA":"南海埔","LANE":" ","ALLEY":" ","HOUSE_NO":"７７號","E_COORD97":167631.22,"N_COORD97":2557420.02,"ADDRESS":"南海埔７７號","OBJECTID":110157},"geometry":{"x":167631.21999999974,"y":2557420.0200000014}},{"attributes":{"ID":110158,"DIS_CODE":0,"TOWNNAME":"西港區","LI":"南海里","LIN":"9鄰","STREET":" ","SECT":" ","MAREA":"南海埔","LANE":" ","ALLEY":" ","HOUSE_NO":"７８號","E_COORD97":167660.70000000001,"N_COORD97":2557414.6400000001,"ADDRESS":"南海埔７８號","OBJECTID":110158},"geometry":{"x":167660.70000000019,"y":2557414.6400000006}},{"attributes":{"ID":110159,"DIS_CODE":0,"TOWNNAME":"新市區","LI":"大社里","LIN":"9鄰","STREET":" ","SECT":" ","MAREA":"大社","LANE":" ","ALLEY":" ","HOUSE_NO":"２９１號","E_COORD97":180354.20999999999,"N_COORD97":2554557.75,"ADDRESS":"大社２９１號","OBJECTID":110159},"geometry":{"x":180354.20999999996,"y":2554557.7500000019}},{"attributes":{"ID":110160,"DIS_CODE":0,"TOWNNAME":"新市區","LI":"大社里","LIN":"9鄰","STREET":" ","SECT":" ","MAREA":"大社","LANE":" ","ALLEY":" ","HOUSE_NO":"３０６號","E_COORD97":180240.06,"N_COORD97":2554563.75,"ADDRESS":"大社３０６號","OBJECTID":110160},"geometry":{"x":180240.06000000052,"y":2554563.7500000019}},{"attributes":{"ID":110161,"DIS_CODE":0,"TOWNNAME":"西港區","LI":"後營里","LIN":"9鄰","STREET":" ","SECT":" ","MAREA":"後營","LANE":" ","ALLEY":" ","HOUSE_NO":"２２４號之１","E_COORD97":169912.17000000001,"N_COORD97":2560149.96,"ADDRESS":"後營２２４號之１","OBJECTID":110161},"geometry":{"x":169912.16999999993,"y":2560149.959999999}},{"attributes":{"ID":110162,"DIS_CODE":0,"TOWNNAME":"西港區","LI":"後營里","LIN":"9鄰","STREET":" ","SECT":" ","MAREA":"後營","LANE":" ","ALLEY":" ","HOUSE_NO":"２２４號之２","E_COORD97":169907.91,"N_COORD97":2560134.0099999998,"ADDRESS":"後營２２４號之２","OBJECTID":110162},"geometry":{"x":169907.91000000108,"y":2560134.0099999998}},{"attributes":{"ID":110163,"DIS_CODE":0,"TOWNNAME":"西港區","LI":"後營里","LIN":"9鄰","STREET":" ","SECT":" ","MAREA":"後營","LANE":" ","ALLEY":" ","HOUSE_NO":"２２４號","E_COORD97":169915.14999999999,"N_COORD97":2560144.8199999998,"ADDRESS":"後營２２４號","OBJECTID":110163},"geometry":{"x":169915.1500000013,"y":2560144.8200000022}},{"attributes":{"ID":110164,"DIS_CODE":0,"TOWNNAME":"西港區","LI":"後營里","LIN":"9鄰","STREET":" ","SECT":" ","MAREA":"後營","LANE":" ","ALLEY":" ","HOUSE_NO":"２２５號之１","E_COORD97":169943.09,"N_COORD97":2560168.9100000001,"ADDRESS":"後營２２５號之１","OBJECTID":110164},"geometry":{"x":169943.08999999985,"y":2560168.9100000001}},{"attributes":{"ID":110165,"DIS_CODE":0,"TOWNNAME":"新營區","LI":"護鎮里","LIN":"1鄰","STREET":" ","SECT":" ","MAREA":"後鎮","LANE":" ","ALLEY":" ","HOUSE_NO":"３號之５","E_COORD97":179607.94,"N_COORD97":2581055.3300000001,"ADDRESS":"後鎮３之５號","OBJECTID":110165},"geometry":{"x":179607.94000000134,"y":2581055.3300000038}},{"attributes":{"ID":110166,"DIS_CODE":0,"TOWNNAME":"新營區","LI":"土庫里","LIN":"1鄰","STREET":" ","SECT":" ","MAREA":"土庫","LANE":" ","ALLEY":" ","HOUSE_NO":"５號","E_COORD97":183025.62,"N_COORD97":2580017.2200000002,"ADDRESS":"土庫５號","OBJECTID":110166},"geometry":{"x":183025.62000000104,"y":2580017.2200000025}},{"attributes":{"ID":110167,"DIS_CODE":0,"TOWNNAME":"新營區","LI":"埤寮里","LIN":"1鄰","STREET":"中正路","SECT":" ","MAREA":" ","LANE":" ","ALLEY":" ","HOUSE_NO":"４７２號","E_COORD97":180082.73000000001,"N_COORD97":2580683.1299999999,"ADDRESS":"中正路４７２號","OBJECTID":110167},"geometry":{"x":180082.73000000138,"y":2580683.1300000008}},{"attributes":{"ID":110168,"DIS_CODE":0,"TOWNNAME":"新營區","LI":"太北里","LIN":"1鄰","STREET":" ","SECT":" ","MAREA":"太子宮","LANE":" ","ALLEY":" ","HOUSE_NO":"５號","E_COORD97":176282.07999999999,"N_COORD97":2577242.9700000002,"ADDRESS":"太子宮５號","OBJECTID":110168},"geometry":{"x":176282.08000000101,"y":2577242.9700000007}},{"attributes":{"ID":110169,"DIS_CODE":0,"TOWNNAME":"新營區","LI":"民榮里","LIN":"1鄰","STREET":"復興路","SECT":" ","MAREA":" ","LANE":" ","ALLEY":" ","HOUSE_NO":"１２９之４號","E_COORD97":179379.14999999999,"N_COORD97":2578038.6200000001,"ADDRESS":"復興路１２９之４號","OBJECTID":110169},"geometry":{"x":179379.1500000013,"y":2578038.620000001}},{"attributes":{"ID":110170,"DIS_CODE":0,"TOWNNAME":"新營區","LI":"太北里","LIN":"1鄰","STREET":" ","SECT":" ","MAREA":"太子宮","LANE":" ","ALLEY":" ","HOUSE_NO":"５號之１１","E_COORD97":176374.17000000001,"N_COORD97":2577182.7799999998,"ADDRESS":"太子宮５號之１１","OBJECTID":110170},"geometry":{"x":176374.16999999993,"y":2577182.7799999975}},{"attributes":{"ID":110171,"DIS_CODE":0,"TOWNNAME":"新營區","LI":"太北里","LIN":"1鄰","STREET":" ","SECT":" ","MAREA":"太子宮","LANE":" ","ALLEY":" ","HOUSE_NO":"５號之１４","E_COORD97":176385.31,"N_COORD97":2577156.1400000001,"ADDRESS":"太子宮５號之１４","OBJECTID":110171},"geometry":{"x":176385.31000000052,"y":2577156.1400000025}},{"attributes":{"ID":110172,"DIS_CODE":0,"TOWNNAME":"仁德區","LI":"上崙里","LIN":"9鄰","STREET":"德善路","SECT":" ","MAREA":" ","LANE":"３０５巷","ALLEY":"１３弄","HOUSE_NO":"３３號","E_COORD97":174059.29999999999,"N_COORD97":2538486.6600000001,"ADDRESS":"德善路３０５巷１３弄３３號","OBJECTID":110172},"geometry":{"x":174059.29999999981,"y":2538486.6599999983}},{"attributes":{"ID":110173,"DIS_CODE":0,"TOWNNAME":"新營區","LI":"埤寮里","LIN":"1鄰","STREET":" ","SECT":" ","MAREA":"許丑","LANE":" ","ALLEY":" ","HOUSE_NO":"６號","E_COORD97":180073.17999999999,"N_COORD97":2580935.6699999999,"ADDRESS":"許丑６號","OBJECTID":110173},"geometry":{"x":180073.18000000063,"y":2580935.6700000018}},{"attributes":{"ID":110174,"DIS_CODE":0,"TOWNNAME":"新營區","LI":"太北里","LIN":"1鄰","STREET":" ","SECT":" ","MAREA":"太子宮","LANE":" ","ALLEY":" ","HOUSE_NO":"５號之９","E_COORD97":176367.01000000001,"N_COORD97":2577213.8199999998,"ADDRESS":"太子宮５號之９","OBJECTID":110174},"geometry":{"x":176367.01000000071,"y":2577213.8200000003}},{"attributes":{"ID":110175,"DIS_CODE":0,"TOWNNAME":"新營區","LI":"鐵線里","LIN":"1鄰","STREET":" ","SECT":" ","MAREA":"鐵線橋","LANE":" ","ALLEY":" ","HOUSE_NO":"１號","E_COORD97":176045.72,"N_COORD97":2574158.77,"ADDRESS":"鐵線橋１號","OBJECTID":110175},"geometry":{"x":176045.72000000067,"y":2574158.7699999977}},{"attributes":{"ID":110176,"DIS_CODE":0,"TOWNNAME":"仁德區","LI":"上崙里","LIN":"9鄰","STREET":"德善路","SECT":" ","MAREA":" ","LANE":"３０５巷","ALLEY":"１３弄","HOUSE_NO":"２１號","E_COORD97":174034.29999999999,"N_COORD97":2538496.9100000001,"ADDRESS":"德善路３０５巷１３弄２１號","OBJECTID":110176},"geometry":{"x":174034.30000000075,"y":2538496.910000002}},{"attributes":{"ID":110177,"DIS_CODE":0,"TOWNNAME":"西港區","LI":"後營里","LIN":"9鄰","STREET":" ","SECT":" ","MAREA":"後營","LANE":" ","ALLEY":" ","HOUSE_NO":"２２６號之２","E_COORD97":169940.51000000001,"N_COORD97":2560193.3700000001,"ADDRESS":"後營２２６號之２","OBJECTID":110177},"geometry":{"x":169940.51000000164,"y":2560193.370000001}},{"attributes":{"ID":110178,"DIS_CODE":0,"TOWNNAME":"西港區","LI":"後營里","LIN":"9鄰","STREET":" ","SECT":" ","MAREA":"後營","LANE":" ","ALLEY":" ","HOUSE_NO":"２２６號","E_COORD97":169942.28,"N_COORD97":2560177.5800000001,"ADDRESS":"後營２２６號","OBJECTID":110178},"geometry":{"x":169942.28000000026,"y":2560177.5800000001}},{"attributes":{"ID":110179,"DIS_CODE":0,"TOWNNAME":"西港區","LI":"後營里","LIN":"9鄰","STREET":" ","SECT":" ","MAREA":"後營","LANE":" ","ALLEY":" ","HOUSE_NO":"２２７號","E_COORD97":169914.89999999999,"N_COORD97":2560165.8199999998,"ADDRESS":"後營２２７號","OBJECTID":110179},"geometry":{"x":169914.9000000013,"y":2560165.8200000003}},{"attributes":{"ID":110180,"DIS_CODE":0,"TOWNNAME":"仁德區","LI":"上崙里","LIN":"9鄰","STREET":"民安路","SECT":"二段","MAREA":" ","LANE":"３８２巷","ALLEY":"５３弄","HOUSE_NO":"３９號","E_COORD97":174013.95999999999,"N_COORD97":2538586.8799999999,"ADDRESS":"民安路二段３８２巷５３弄３９號","OBJECTID":110180},"geometry":{"x":174013.95999999996,"y":2538586.8800000008}},{"attributes":{"ID":110181,"DIS_CODE":0,"TOWNNAME":"仁德區","LI":"上崙里","LIN":"9鄰","STREET":"德善路","SECT":" ","MAREA":" ","LANE":"３０５巷","ALLEY":"１３弄","HOUSE_NO":"４９號","E_COORD97":174045.13,"N_COORD97":2538454.1699999999,"ADDRESS":"德善路３０５巷１３弄４９號","OBJECTID":110181},"geometry":{"x":174045.12999999989,"y":2538454.1700000018}},{"attributes":{"ID":110182,"DIS_CODE":0,"TOWNNAME":"西港區","LI":"後營里","LIN":"9鄰","STREET":" ","SECT":" ","MAREA":"後營","LANE":" ","ALLEY":" ","HOUSE_NO":"２２８號之１","E_COORD97":169904.78,"N_COORD97":2560194.6000000001,"ADDRESS":"後營２２８號之１","OBJECTID":110182},"geometry":{"x":169904.78000000026,"y":2560194.5999999996}},{"attributes":{"ID":110183,"DIS_CODE":0,"TOWNNAME":"西港區","LI":"後營里","LIN":"9鄰","STREET":" ","SECT":" ","MAREA":"後營","LANE":" ","ALLEY":" ","HOUSE_NO":"２２８號之２","E_COORD97":169902.85000000001,"N_COORD97":2560182.1899999999,"ADDRESS":"後營２２８號之２","OBJECTID":110183},"geometry":{"x":169902.85000000056,"y":2560182.1900000013}},{"attributes":{"ID":110184,"DIS_CODE":0,"TOWNNAME":"西港區","LI":"後營里","LIN":"9鄰","STREET":" ","SECT":" ","MAREA":"後營","LANE":" ","ALLEY":" ","HOUSE_NO":"２２８號之３","E_COORD97":169902.64000000001,"N_COORD97":2560185.9100000001,"ADDRESS":"後營２２８號之３","OBJECTID":110184},"geometry":{"x":169902.6400000006,"y":2560185.9100000001}},{"attributes":{"ID":110185,"DIS_CODE":0,"TOWNNAME":"仁德區","LI":"上崙里","LIN":"9鄰","STREET":"民安路","SECT":"二段","MAREA":" ","LANE":"３８２巷","ALLEY":"５３弄","HOUSE_NO":"２３號","E_COORD97":174023.56,"N_COORD97":2538602.5,"ADDRESS":"民安路二段３８２巷５３弄２３號","OBJECTID":110185},"geometry":{"x":174023.56000000145,"y":2538602.5}},{"attributes":{"ID":110186,"DIS_CODE":0,"TOWNNAME":"西港區","LI":"後營里","LIN":"9鄰","STREET":" ","SECT":" ","MAREA":"後營","LANE":" ","ALLEY":" ","HOUSE_NO":"２２９號","E_COORD97":169944.34,"N_COORD97":2560215.4700000002,"ADDRESS":"後營２２９號","OBJECTID":110186},"geometry":{"x":169944.33999999985,"y":2560215.4700000025}},{"attributes":{"ID":110187,"DIS_CODE":0,"TOWNNAME":"西港區","LI":"後營里","LIN":"9鄰","STREET":" ","SECT":" ","MAREA":"後營","LANE":" ","ALLEY":" ","HOUSE_NO":"２３０號之１","E_COORD97":169924.88,"N_COORD97":2560229.9399999999,"ADDRESS":"後營２３０號之１","OBJECTID":110187},"geometry":{"x":169924.88000000082,"y":2560229.9399999976}},{"attributes":{"ID":110188,"DIS_CODE":0,"TOWNNAME":"仁德區","LI":"上崙里","LIN":"9鄰","STREET":"德善路","SECT":" ","MAREA":" ","LANE":"３０５巷","ALLEY":"１３弄","HOUSE_NO":"１７號","E_COORD97":174031.70999999999,"N_COORD97":2538506.9100000001,"ADDRESS":"德善路３０５巷１３弄１７號","OBJECTID":110188},"geometry":{"x":174031.71000000089,"y":2538506.910000002}},{"attributes":{"ID":110189,"DIS_CODE":0,"TOWNNAME":"仁德區","LI":"上崙里","LIN":"9鄰","STREET":"德善路","SECT":" ","MAREA":" ","LANE":"３０５巷","ALLEY":"１３弄","HOUSE_NO":"４１號","E_COORD97":174038.97,"N_COORD97":2538475.9199999999,"ADDRESS":"德善路３０５巷１３弄４１號","OBJECTID":110189},"geometry":{"x":174038.96999999974,"y":2538475.9200000018}},{"attributes":{"ID":110190,"DIS_CODE":0,"TOWNNAME":"仁德區","LI":"二行里","LIN":"9鄰","STREET":"中正西路","SECT":" ","MAREA":" ","LANE":"２１１巷","ALLEY":"２９弄","HOUSE_NO":"１４號","E_COORD97":170095.34,"N_COORD97":2535238.6899999999,"ADDRESS":"中正西路２１１巷２９弄１４號","OBJECTID":110190},"geometry":{"x":170095.33999999985,"y":2535238.6900000013}},{"attributes":{"ID":110191,"DIS_CODE":0,"TOWNNAME":"西港區","LI":"後營里","LIN":"9鄰","STREET":" ","SECT":" ","MAREA":"後營","LANE":" ","ALLEY":" ","HOUSE_NO":"２３０號之２","E_COORD97":169898.23999999999,"N_COORD97":2560247.3700000001,"ADDRESS":"後營２３０號之２","OBJECTID":110191},"geometry":{"x":169898.24000000022,"y":2560247.3700000029}},{"attributes":{"ID":110192,"DIS_CODE":0,"TOWNNAME":"西港區","LI":"後營里","LIN":"9鄰","STREET":" ","SECT":" ","MAREA":"後營","LANE":" ","ALLEY":" ","HOUSE_NO":"２３０號","E_COORD97":169944.04999999999,"N_COORD97":2560239.7400000002,"ADDRESS":"後營２３０號","OBJECTID":110192},"geometry":{"x":169944.05000000075,"y":2560239.7400000021}},{"attributes":{"ID":110193,"DIS_CODE":0,"TOWNNAME":"仁德區","LI":"上崙里","LIN":"9鄰","STREET":"民安路","SECT":"二段","MAREA":" ","LANE":"３８２巷","ALLEY":"５３弄","HOUSE_NO":"３５號","E_COORD97":174033.53,"N_COORD97":2538568.0099999998,"ADDRESS":"民安路二段３８２巷５３弄３５號","OBJECTID":110193},"geometry":{"x":174033.53000000119,"y":2538568.0099999998}},{"attributes":{"ID":110194,"DIS_CODE":0,"TOWNNAME":"新化區","LI":"護國里","LIN":"9鄰","STREET":"中山路","SECT":" ","MAREA":" ","LANE":"１１１巷","ALLEY":"８弄","HOUSE_NO":"３１號","E_COORD97":179718.35999999999,"N_COORD97":2549075.2400000002,"ADDRESS":"中山路１１１巷８弄３１號","OBJECTID":110194},"geometry":{"x":179718.36000000127,"y":2549075.2400000021}},{"attributes":{"ID":110195,"DIS_CODE":0,"TOWNNAME":"新化區","LI":"護國里","LIN":"9鄰","STREET":"中山路","SECT":" ","MAREA":" ","LANE":"１１１巷","ALLEY":"８弄","HOUSE_NO":"２５號","E_COORD97":179717.76000000001,"N_COORD97":2549090.25,"ADDRESS":"中山路１１１巷８弄２５號","OBJECTID":110195},"geometry":{"x":179717.75999999978,"y":2549090.25}},{"attributes":{"ID":110196,"DIS_CODE":0,"TOWNNAME":"新化區","LI":"護國里","LIN":"9鄰","STREET":"中山路","SECT":" ","MAREA":" ","LANE":"１１１巷","ALLEY":"８弄","HOUSE_NO":"３號","E_COORD97":179717.51000000001,"N_COORD97":2549142.25,"ADDRESS":"中山路１１１巷８弄３號","OBJECTID":110196},"geometry":{"x":179717.50999999978,"y":2549142.2500000037}},{"attributes":{"ID":110197,"DIS_CODE":0,"TOWNNAME":"新化區","LI":"護國里","LIN":"9鄰","STREET":"中山路","SECT":" ","MAREA":" ","LANE":"１１１巷","ALLEY":"８弄","HOUSE_NO":"３０號","E_COORD97":179702.26000000001,"N_COORD97":2549075.2400000002,"ADDRESS":"中山路１１１巷８弄３０號","OBJECTID":110197},"geometry":{"x":179702.25999999978,"y":2549075.2400000021}},{"attributes":{"ID":110198,"DIS_CODE":0,"TOWNNAME":"新營區","LI":"王公里","LIN":"1鄰","STREET":"中正路","SECT":" ","MAREA":" ","LANE":" ","ALLEY":" ","HOUSE_NO":"６４號","E_COORD97":180127.67000000001,"N_COORD97":2578998.48,"ADDRESS":"中正路６４號","OBJECTID":110198},"geometry":{"x":180127.67000000179,"y":2578998.4800000004}},{"attributes":{"ID":110199,"DIS_CODE":0,"TOWNNAME":"新營區","LI":"嘉芳里","LIN":"1鄰","STREET":" ","SECT":" ","MAREA":"茄苳腳","LANE":" ","ALLEY":" ","HOUSE_NO":"１３之９號","E_COORD97":177090.10999999999,"N_COORD97":2578334.3199999998,"ADDRESS":"茄苳腳１３之９號","OBJECTID":110199},"geometry":{"x":177090.11000000034,"y":2578334.3200000022}},{"attributes":{"ID":110200,"DIS_CODE":0,"TOWNNAME":"新營區","LI":"太北里","LIN":"1鄰","STREET":" ","SECT":" ","MAREA":"太子宮","LANE":" ","ALLEY":" ","HOUSE_NO":"３號","E_COORD97":176285.75,"N_COORD97":2577143.2799999998,"ADDRESS":"太子宮３號","OBJECTID":110200},"geometry":{"x":176285.75000000186,"y":2577143.2800000012}}]}