{"displayFieldName":"TOWNNAME","fieldAliases":{"ID":"ID","DIS_CODE":"DIS_CODE","TOWNNAME":"TOWNNAME","LI":"LI","LIN":"LIN","STREET":"STREET","SECT":"SECT","MAREA":"MAREA","LANE":"LANE","ALLEY":"ALLEY","HOUSE_NO":"HOUSE_NO","E_COORD97":"E_COORD97","N_COORD97":"N_COORD97","ADDRESS":"ADDRESS","OBJECTID":"OBJECTID"},"geometryType":"esriGeometryPoint","spatialReference":{"wkid":102443,"latestWkid":3826},"fields":[{"name":"ID","type":"esriFieldTypeDouble","alias":"ID"},{"name":"DIS_CODE","type":"esriFieldTypeInteger","alias":"DIS_CODE"},{"name":"TOWNNAME","type":"esriFieldTypeString","alias":"TOWNNAME","length":8},{"name":"LI","type":"esriFieldTypeString","alias":"LI","length":8},{"name":"LIN","type":"esriFieldTypeString","alias":"LIN","length":12},{"name":"STREET","type":"esriFieldTypeString","alias":"STREET","length":20},{"name":"SECT","type":"esriFieldTypeString","alias":"SECT","length":8},{"name":"MAREA","type":"esriFieldTypeString","alias":"MAREA","length":12},{"name":"LANE","type":"esriFieldTypeString","alias":"LANE","length":10},{"name":"ALLEY","type":"esriFieldTypeString","alias":"ALLEY","length":10},{"name":"HOUSE_NO","type":"esriFieldTypeString","alias":"HOUSE_NO","length":20},{"name":"E_COORD97","type":"esriFieldTypeDouble","alias":"E_COORD97"},{"name":"N_COORD97","type":"esriFieldTypeDouble","alias":"N_COORD97"},{"name":"ADDRESS","type":"esriFieldTypeString","alias":"ADDRESS","length":50},{"name":"OBJECTID","type":"esriFieldTypeOID","alias":"OBJECTID"}],"features":[{"attributes":{"ID":309009,"DIS_CODE":0,"TOWNNAME":"東區","LI":"復興里","LIN":"7鄰","STREET":"富農街","SECT":"一段","MAREA":" ","LANE":"１８８巷","ALLEY":" ","HOUSE_NO":"３９號","E_COORD97":171623.89000000001,"N_COORD97":2542496.0699999998,"ADDRESS":"富農街一段１８８巷３９號","OBJECTID":309001},"geometry":{"x":171623.88999999966,"y":2542496.0700000022}},{"attributes":{"ID":309010,"DIS_CODE":0,"TOWNNAME":"北區","LI":"公園里","LIN":"17鄰","STREET":"成功路","SECT":" ","MAREA":" ","LANE":" ","ALLEY":" ","HOUSE_NO":"５０號九樓之５","E_COORD97":168765.81,"N_COORD97":2544291.5699999998,"ADDRESS":"成功路５０號九樓之５","OBJECTID":309002},"geometry":{"x":168765.81000000052,"y":2544291.5700000003}},{"attributes":{"ID":309011,"DIS_CODE":0,"TOWNNAME":"永康區","LI":"西灣里","LIN":"39鄰","STREET":"永華路","SECT":" ","MAREA":" ","LANE":"２１２巷","ALLEY":" ","HOUSE_NO":"２２號七樓","E_COORD97":174160.76999999999,"N_COORD97":2545436.75,"ADDRESS":"永華路２１２巷２２號七樓","OBJECTID":309003},"geometry":{"x":174160.76999999955,"y":2545436.7500000019}},{"attributes":{"ID":309012,"DIS_CODE":0,"TOWNNAME":"東區","LI":"富裕里","LIN":"4鄰","STREET":"裕農路","SECT":" ","MAREA":" ","LANE":" ","ALLEY":" ","HOUSE_NO":"５６號四樓","E_COORD97":170626.98999999999,"N_COORD97":2542823.23,"ADDRESS":"裕農路５６號四樓","OBJECTID":309004},"geometry":{"x":170626.99000000022,"y":2542823.2300000042}},{"attributes":{"ID":309013,"DIS_CODE":0,"TOWNNAME":"東區","LI":"復興里","LIN":"7鄰","STREET":"富農街","SECT":"一段","MAREA":" ","LANE":"１８８巷","ALLEY":" ","HOUSE_NO":"４１號","E_COORD97":171627.73999999999,"N_COORD97":2542496.2000000002,"ADDRESS":"富農街一段１８８巷４１號","OBJECTID":309005},"geometry":{"x":171627.74000000209,"y":2542496.1999999974}},{"attributes":{"ID":309014,"DIS_CODE":0,"TOWNNAME":"東區","LI":"復興里","LIN":"7鄰","STREET":"富農街","SECT":"一段","MAREA":" ","LANE":"１８８巷","ALLEY":" ","HOUSE_NO":"４３號","E_COORD97":171631.59,"N_COORD97":2542495.5600000001,"ADDRESS":"富農街一段１８８巷４３號","OBJECTID":309006},"geometry":{"x":171631.58999999985,"y":2542495.5600000042}},{"attributes":{"ID":309015,"DIS_CODE":0,"TOWNNAME":"東區","LI":"復興里","LIN":"7鄰","STREET":"富農街","SECT":"一段","MAREA":" ","LANE":"１８８巷","ALLEY":" ","HOUSE_NO":"４７號","E_COORD97":171639.28,"N_COORD97":2542496.8399999999,"ADDRESS":"富農街一段１８８巷４７號","OBJECTID":309007},"geometry":{"x":171639.27999999933,"y":2542496.8400000017}},{"attributes":{"ID":309016,"DIS_CODE":0,"TOWNNAME":"東區","LI":"復興里","LIN":"7鄰","STREET":"富農街","SECT":"一段","MAREA":" ","LANE":"１８８巷","ALLEY":" ","HOUSE_NO":"４９號","E_COORD97":171643.76999999999,"N_COORD97":2542497.48,"ADDRESS":"富農街一段１８８巷４９號","OBJECTID":309008},"geometry":{"x":171643.77000000142,"y":2542497.4800000023}},{"attributes":{"ID":309017,"DIS_CODE":0,"TOWNNAME":"東區","LI":"復興里","LIN":"7鄰","STREET":"富農街","SECT":"一段","MAREA":" ","LANE":"１８８巷","ALLEY":" ","HOUSE_NO":"５１號","E_COORD97":171647.94,"N_COORD97":2542497.48,"ADDRESS":"富農街一段１８８巷５１號","OBJECTID":309009},"geometry":{"x":171647.94000000041,"y":2542497.4800000023}},{"attributes":{"ID":309018,"DIS_CODE":0,"TOWNNAME":"東區","LI":"復興里","LIN":"7鄰","STREET":"富農街","SECT":"一段","MAREA":" ","LANE":"１８８巷","ALLEY":" ","HOUSE_NO":"５３號","E_COORD97":171651.45999999999,"N_COORD97":2542497.48,"ADDRESS":"富農街一段１８８巷５３號","OBJECTID":309010},"geometry":{"x":171651.46000000183,"y":2542497.4800000023}},{"attributes":{"ID":309019,"DIS_CODE":0,"TOWNNAME":"東區","LI":"復興里","LIN":"7鄰","STREET":"富農街","SECT":"一段","MAREA":" ","LANE":"１８８巷","ALLEY":" ","HOUSE_NO":"５５號","E_COORD97":171655.95000000001,"N_COORD97":2542498.4399999999,"ADDRESS":"富農街一段１８８巷５５號","OBJECTID":309011},"geometry":{"x":171655.95000000019,"y":2542498.4400000032}},{"attributes":{"ID":309020,"DIS_CODE":0,"TOWNNAME":"東區","LI":"復興里","LIN":"7鄰","STREET":"富農街","SECT":"一段","MAREA":" ","LANE":"１８８巷","ALLEY":" ","HOUSE_NO":"５７號","E_COORD97":171649.54000000001,"N_COORD97":2542507.73,"ADDRESS":"富農街一段１８８巷５７號","OBJECTID":309012},"geometry":{"x":171649.54000000097,"y":2542507.7300000042}},{"attributes":{"ID":309021,"DIS_CODE":0,"TOWNNAME":"東區","LI":"復興里","LIN":"7鄰","STREET":"富農街","SECT":"一段","MAREA":" ","LANE":"１８８巷","ALLEY":" ","HOUSE_NO":"５９號","E_COORD97":171650.5,"N_COORD97":2542512.8500000001,"ADDRESS":"富農街一段１８８巷５９號","OBJECTID":309013},"geometry":{"x":171650.5,"y":2542512.8500000034}},{"attributes":{"ID":309022,"DIS_CODE":0,"TOWNNAME":"東區","LI":"復興里","LIN":"7鄰","STREET":"富農街","SECT":"一段","MAREA":" ","LANE":"１８８巷","ALLEY":" ","HOUSE_NO":"６１號","E_COORD97":171648.57999999999,"N_COORD97":2542516.6899999999,"ADDRESS":"富農街一段１８８巷６１號","OBJECTID":309014},"geometry":{"x":171648.58000000007,"y":2542516.6899999995}},{"attributes":{"ID":309023,"DIS_CODE":0,"TOWNNAME":"東區","LI":"復興里","LIN":"7鄰","STREET":"富農街","SECT":"一段","MAREA":" ","LANE":"２０４巷","ALLEY":" ","HOUSE_NO":"１６號","E_COORD97":171621.97,"N_COORD97":2542510.7999999998,"ADDRESS":"富農街一段２０４巷１６號","OBJECTID":309015},"geometry":{"x":171621.96999999974,"y":2542510.8000000045}},{"attributes":{"ID":309024,"DIS_CODE":0,"TOWNNAME":"東區","LI":"復興里","LIN":"7鄰","STREET":"富農街","SECT":"一段","MAREA":" ","LANE":"２０４巷","ALLEY":" ","HOUSE_NO":"１８號","E_COORD97":171626.45999999999,"N_COORD97":2542506.96,"ADDRESS":"富農街一段２０４巷１８號","OBJECTID":309016},"geometry":{"x":171626.46000000089,"y":2542506.9600000028}},{"attributes":{"ID":309025,"DIS_CODE":0,"TOWNNAME":"東區","LI":"復興里","LIN":"7鄰","STREET":"富農街","SECT":"一段","MAREA":" ","LANE":"２０４巷","ALLEY":" ","HOUSE_NO":"１９號","E_COORD97":171619.39999999999,"N_COORD97":2542526.8100000001,"ADDRESS":"富農街一段２０４巷１９號","OBJECTID":309017},"geometry":{"x":171619.40000000037,"y":2542526.8100000005}},{"attributes":{"ID":309026,"DIS_CODE":0,"TOWNNAME":"東區","LI":"復興里","LIN":"7鄰","STREET":"富農街","SECT":"一段","MAREA":" ","LANE":"２０４巷","ALLEY":" ","HOUSE_NO":"２０號","E_COORD97":171629.98000000001,"N_COORD97":2542512.5299999998,"ADDRESS":"富農街一段２０４巷２０號","OBJECTID":309018},"geometry":{"x":171629.98000000138,"y":2542512.5300000012}},{"attributes":{"ID":309027,"DIS_CODE":0,"TOWNNAME":"北區","LI":"公園里","LIN":"17鄰","STREET":"成功路","SECT":" ","MAREA":" ","LANE":" ","ALLEY":" ","HOUSE_NO":"５０號九樓之６","E_COORD97":168765.81,"N_COORD97":2544291.5699999998,"ADDRESS":"成功路５０號九樓之６","OBJECTID":309019},"geometry":{"x":168765.81000000052,"y":2544291.5700000003}},{"attributes":{"ID":309028,"DIS_CODE":0,"TOWNNAME":"北區","LI":"公園里","LIN":"17鄰","STREET":"成功路","SECT":" ","MAREA":" ","LANE":" ","ALLEY":" ","HOUSE_NO":"５０號八樓之１","E_COORD97":168765.81,"N_COORD97":2544291.5699999998,"ADDRESS":"成功路５０號八樓之１","OBJECTID":309020},"geometry":{"x":168765.81000000052,"y":2544291.5700000003}},{"attributes":{"ID":309029,"DIS_CODE":0,"TOWNNAME":"永康區","LI":"復華里","LIN":"18鄰","STREET":"國華街","SECT":" ","MAREA":" ","LANE":"１０２巷","ALLEY":" ","HOUSE_NO":"６１號三樓之３","E_COORD97":172855.85000000001,"N_COORD97":2546125.0099999998,"ADDRESS":"國華街１０２巷６１號三樓之３","OBJECTID":309021},"geometry":{"x":172855.85000000056,"y":2546125.0099999998}},{"attributes":{"ID":309030,"DIS_CODE":0,"TOWNNAME":"永康區","LI":"復國里","LIN":"25鄰","STREET":"復華三街","SECT":" ","MAREA":" ","LANE":"９０巷","ALLEY":" ","HOUSE_NO":"１８號十二樓之５","E_COORD97":172640.95000000001,"N_COORD97":2545614.2999999998,"ADDRESS":"復華三街９０巷１８號十二樓之５","OBJECTID":309022},"geometry":{"x":172640.95000000019,"y":2545614.3000000026}},{"attributes":{"ID":309031,"DIS_CODE":0,"TOWNNAME":"東區","LI":"復興里","LIN":"7鄰","STREET":"富農街","SECT":"一段","MAREA":" ","LANE":"２０４巷","ALLEY":" ","HOUSE_NO":"２１號","E_COORD97":171623.89000000001,"N_COORD97":2542524.25,"ADDRESS":"富農街一段２０４巷２１號","OBJECTID":309023},"geometry":{"x":171623.88999999966,"y":2542524.2500000037}},{"attributes":{"ID":309032,"DIS_CODE":0,"TOWNNAME":"東區","LI":"復興里","LIN":"7鄰","STREET":"富農街","SECT":"一段","MAREA":" ","LANE":"２０４巷","ALLEY":" ","HOUSE_NO":"２２號","E_COORD97":171633.82999999999,"N_COORD97":2542514.1299999999,"ADDRESS":"富農街一段２０４巷２２號","OBJECTID":309024},"geometry":{"x":171633.83000000194,"y":2542514.1300000008}},{"attributes":{"ID":309033,"DIS_CODE":0,"TOWNNAME":"東區","LI":"復興里","LIN":"7鄰","STREET":"富農街","SECT":"一段","MAREA":" ","LANE":"２０４巷","ALLEY":" ","HOUSE_NO":"２３號","E_COORD97":171627.10000000001,"N_COORD97":2542528.8599999999,"ADDRESS":"富農街一段２０４巷２３號","OBJECTID":309025},"geometry":{"x":171627.10000000056,"y":2542528.8599999994}},{"attributes":{"ID":309034,"DIS_CODE":0,"TOWNNAME":"東區","LI":"復興里","LIN":"7鄰","STREET":"富農街","SECT":"一段","MAREA":" ","LANE":"２０４巷","ALLEY":" ","HOUSE_NO":"２４號","E_COORD97":171638,"N_COORD97":2542511.25,"ADDRESS":"富農街一段２０４巷２４號","OBJECTID":309026},"geometry":{"x":171638.00000000093,"y":2542511.2500000019}},{"attributes":{"ID":309035,"DIS_CODE":0,"TOWNNAME":"東區","LI":"復興里","LIN":"7鄰","STREET":"富農街","SECT":"一段","MAREA":" ","LANE":"２０４巷","ALLEY":" ","HOUSE_NO":"２５號","E_COORD97":171631.91,"N_COORD97":2542528.54,"ADDRESS":"富農街一段２０４巷２５號","OBJECTID":309027},"geometry":{"x":171631.91000000108,"y":2542528.540000001}},{"attributes":{"ID":309036,"DIS_CODE":0,"TOWNNAME":"東區","LI":"復興里","LIN":"7鄰","STREET":"富農街","SECT":"一段","MAREA":" ","LANE":"２０４巷","ALLEY":" ","HOUSE_NO":"２６號","E_COORD97":171642.17000000001,"N_COORD97":2542513.4900000002,"ADDRESS":"富農街一段２０４巷２６號","OBJECTID":309028},"geometry":{"x":171642.17000000086,"y":2542513.4900000021}},{"attributes":{"ID":309037,"DIS_CODE":0,"TOWNNAME":"東區","LI":"復興里","LIN":"7鄰","STREET":"富農街","SECT":"一段","MAREA":" ","LANE":"２０４巷","ALLEY":" ","HOUSE_NO":"２７號","E_COORD97":171635.75,"N_COORD97":2542529.5,"ADDRESS":"富農街一段２０４巷２７號","OBJECTID":309029},"geometry":{"x":171635.75,"y":2542529.5000000019}},{"attributes":{"ID":309038,"DIS_CODE":0,"TOWNNAME":"東區","LI":"復興里","LIN":"7鄰","STREET":"富農街","SECT":"一段","MAREA":" ","LANE":"２０４巷","ALLEY":" ","HOUSE_NO":"２９號","E_COORD97":171639.92000000001,"N_COORD97":2542529.5,"ADDRESS":"富農街一段２０４巷２９號","OBJECTID":309030},"geometry":{"x":171639.92000000086,"y":2542529.5000000019}},{"attributes":{"ID":309039,"DIS_CODE":0,"TOWNNAME":"東區","LI":"復興里","LIN":"7鄰","STREET":"富農街","SECT":"一段","MAREA":" ","LANE":"２０４巷","ALLEY":" ","HOUSE_NO":"３１號","E_COORD97":171643.45000000001,"N_COORD97":2542530.1400000001,"ADDRESS":"富農街一段２０４巷３１號","OBJECTID":309031},"geometry":{"x":171643.45000000112,"y":2542530.1400000025}},{"attributes":{"ID":309040,"DIS_CODE":0,"TOWNNAME":"東區","LI":"復興里","LIN":"7鄰","STREET":"富農街","SECT":"一段","MAREA":" ","LANE":"２０４巷","ALLEY":" ","HOUSE_NO":"３３號","E_COORD97":171647.62,"N_COORD97":2542530.46,"ADDRESS":"富農街一段２０４巷３３號","OBJECTID":309032},"geometry":{"x":171647.62000000104,"y":2542530.4600000046}},{"attributes":{"ID":309041,"DIS_CODE":0,"TOWNNAME":"東區","LI":"復興里","LIN":"7鄰","STREET":"富農街","SECT":"一段","MAREA":" ","LANE":"２０４巷","ALLEY":" ","HOUSE_NO":"３５號","E_COORD97":171651.79000000001,"N_COORD97":2542532.3799999999,"ADDRESS":"富農街一段２０４巷３５號","OBJECTID":309033},"geometry":{"x":171651.79000000004,"y":2542532.3800000027}},{"attributes":{"ID":309042,"DIS_CODE":0,"TOWNNAME":"東區","LI":"復興里","LIN":"7鄰","STREET":"富農街","SECT":"一段","MAREA":" ","LANE":"２０４巷","ALLEY":" ","HOUSE_NO":"３７號","E_COORD97":171655.63,"N_COORD97":2542533.02,"ADDRESS":"富農街一段２０４巷３７號","OBJECTID":309034},"geometry":{"x":171655.63000000082,"y":2542533.0200000014}},{"attributes":{"ID":309043,"DIS_CODE":0,"TOWNNAME":"永康區","LI":"三民里","LIN":"7鄰","STREET":"三民街","SECT":" ","MAREA":" ","LANE":"１３６巷","ALLEY":" ","HOUSE_NO":"９號","E_COORD97":172791.35000000001,"N_COORD97":2550415.1499999999,"ADDRESS":"三民街１３６巷９號","OBJECTID":309035},"geometry":{"x":172791.35000000056,"y":2550415.1500000022}},{"attributes":{"ID":309044,"DIS_CODE":0,"TOWNNAME":"永康區","LI":"蔦松里","LIN":"7鄰","STREET":"蔦松一街","SECT":" ","MAREA":" ","LANE":"２２巷","ALLEY":" ","HOUSE_NO":"１７號","E_COORD97":174069.79000000001,"N_COORD97":2549453.9199999999,"ADDRESS":"蔦松一街２２巷１７號","OBJECTID":309036},"geometry":{"x":174069.79000000004,"y":2549453.9200000018}},{"attributes":{"ID":309045,"DIS_CODE":0,"TOWNNAME":"北區","LI":"公園里","LIN":"17鄰","STREET":"成功路","SECT":" ","MAREA":" ","LANE":" ","ALLEY":" ","HOUSE_NO":"５０號八樓之１０","E_COORD97":168765.81,"N_COORD97":2544291.5699999998,"ADDRESS":"成功路５０號八樓之１０","OBJECTID":309037},"geometry":{"x":168765.81000000052,"y":2544291.5700000003}},{"attributes":{"ID":309046,"DIS_CODE":0,"TOWNNAME":"北區","LI":"公園里","LIN":"17鄰","STREET":"成功路","SECT":" ","MAREA":" ","LANE":" ","ALLEY":" ","HOUSE_NO":"５０號八樓之２","E_COORD97":168765.81,"N_COORD97":2544291.5699999998,"ADDRESS":"成功路５０號八樓之２","OBJECTID":309038},"geometry":{"x":168765.81000000052,"y":2544291.5700000003}},{"attributes":{"ID":309047,"DIS_CODE":0,"TOWNNAME":"永康區","LI":"復華里","LIN":"18鄰","STREET":"國華街","SECT":" ","MAREA":" ","LANE":"１０２巷","ALLEY":" ","HOUSE_NO":"６１號七樓之１","E_COORD97":172855.75,"N_COORD97":2546125.0099999998,"ADDRESS":"國華街１０２巷６１號七樓之１","OBJECTID":309039},"geometry":{"x":172855.75,"y":2546125.0099999998}},{"attributes":{"ID":309048,"DIS_CODE":0,"TOWNNAME":"永康區","LI":"復國里","LIN":"25鄰","STREET":"復華三街","SECT":" ","MAREA":" ","LANE":"９０巷","ALLEY":" ","HOUSE_NO":"１８號十四樓之３","E_COORD97":172640.89000000001,"N_COORD97":2545614.2999999998,"ADDRESS":"復華三街９０巷１８號十四樓之３","OBJECTID":309040},"geometry":{"x":172640.88999999966,"y":2545614.3000000026}},{"attributes":{"ID":309049,"DIS_CODE":0,"TOWNNAME":"永康區","LI":"復國里","LIN":"25鄰","STREET":"復華三街","SECT":" ","MAREA":" ","LANE":"９０巷","ALLEY":" ","HOUSE_NO":"１６號五樓之１","E_COORD97":172656.10000000001,"N_COORD97":2545612.7999999998,"ADDRESS":"復華三街９０巷１６號五樓之１","OBJECTID":309041},"geometry":{"x":172656.10000000056,"y":2545612.8000000007}},{"attributes":{"ID":309050,"DIS_CODE":0,"TOWNNAME":"安南區","LI":"海西里","LIN":"7鄰","STREET":"海中街","SECT":" ","MAREA":" ","LANE":"１０１巷","ALLEY":" ","HOUSE_NO":"３８號","E_COORD97":166302.51999999999,"N_COORD97":2548972.7999999998,"ADDRESS":"海中街１０１巷３８號","OBJECTID":309042},"geometry":{"x":166302.52000000048,"y":2548972.7999999989}},{"attributes":{"ID":309051,"DIS_CODE":0,"TOWNNAME":"安南區","LI":"城南里","LIN":"7鄰","STREET":"城西街","SECT":"一段","MAREA":" ","LANE":"６１巷","ALLEY":" ","HOUSE_NO":"１９２號","E_COORD97":160528.76000000001,"N_COORD97":2551135.7000000002,"ADDRESS":"城西街一段６１巷１９２號","OBJECTID":309043},"geometry":{"x":160528.76000000164,"y":2551135.7000000011}},{"attributes":{"ID":309052,"DIS_CODE":0,"TOWNNAME":"安南區","LI":"城東里","LIN":"7鄰","STREET":"城北路","SECT":" ","MAREA":" ","LANE":"９８巷","ALLEY":" ","HOUSE_NO":"１０５號之１","E_COORD97":161171.26000000001,"N_COORD97":2551584.8100000001,"ADDRESS":"城北路９８巷１０５號之１","OBJECTID":309044},"geometry":{"x":161171.26000000164,"y":2551584.8100000024}},{"attributes":{"ID":309053,"DIS_CODE":0,"TOWNNAME":"中西區","LI":"赤嵌里","LIN":"7鄰","STREET":"公園路","SECT":" ","MAREA":" ","LANE":"９０巷","ALLEY":" ","HOUSE_NO":"１號","E_COORD97":168648.85999999999,"N_COORD97":2544099.5899999999,"ADDRESS":"公園路９０巷１號","OBJECTID":309045},"geometry":{"x":168648.86000000127,"y":2544099.5900000017}},{"attributes":{"ID":309054,"DIS_CODE":0,"TOWNNAME":"中西區","LI":"赤嵌里","LIN":"7鄰","STREET":"公園路","SECT":" ","MAREA":" ","LANE":"９０巷","ALLEY":" ","HOUSE_NO":"２號","E_COORD97":168638.60999999999,"N_COORD97":2544101.2400000002,"ADDRESS":"公園路９０巷２號","OBJECTID":309046},"geometry":{"x":168638.61000000127,"y":2544101.2400000021}},{"attributes":{"ID":309055,"DIS_CODE":0,"TOWNNAME":"中西區","LI":"赤嵌里","LIN":"7鄰","STREET":"公園路","SECT":" ","MAREA":" ","LANE":"９０巷","ALLEY":" ","HOUSE_NO":"３號","E_COORD97":168652.82000000001,"N_COORD97":2544097.6099999999,"ADDRESS":"公園路９０巷３號","OBJECTID":309047},"geometry":{"x":168652.82000000123,"y":2544097.6100000031}},{"attributes":{"ID":309056,"DIS_CODE":0,"TOWNNAME":"中西區","LI":"赤嵌里","LIN":"7鄰","STREET":"公園路","SECT":" ","MAREA":" ","LANE":"９０巷","ALLEY":" ","HOUSE_NO":"４號","E_COORD97":168645.22,"N_COORD97":2544090.3500000001,"ADDRESS":"公園路９０巷４號","OBJECTID":309048},"geometry":{"x":168645.21999999974,"y":2544090.3500000015}},{"attributes":{"ID":309057,"DIS_CODE":0,"TOWNNAME":"仁德區","LI":"新田里","LIN":"7鄰","STREET":"新田路","SECT":" ","MAREA":" ","LANE":"３４巷","ALLEY":" ","HOUSE_NO":"１２號","E_COORD97":174519.73000000001,"N_COORD97":2538905.4900000002,"ADDRESS":"新田路３４巷１２號","OBJECTID":309049},"geometry":{"x":174519.73000000045,"y":2538905.4900000021}},{"attributes":{"ID":309058,"DIS_CODE":0,"TOWNNAME":"仁德區","LI":"新田里","LIN":"7鄰","STREET":"新田路","SECT":" ","MAREA":" ","LANE":"９巷","ALLEY":" ","HOUSE_NO":"２號","E_COORD97":174416.31,"N_COORD97":2538955.5,"ADDRESS":"新田路９巷２號","OBJECTID":309050},"geometry":{"x":174416.30999999959,"y":2538955.5000000037}},{"attributes":{"ID":309059,"DIS_CODE":0,"TOWNNAME":"仁德區","LI":"一甲里","LIN":"7鄰","STREET":"中正路","SECT":"三段","MAREA":" ","LANE":"１６２巷","ALLEY":" ","HOUSE_NO":"２７之１號","E_COORD97":173592.17000000001,"N_COORD97":2541766.1800000002,"ADDRESS":"中正路三段１６２巷２７之１號","OBJECTID":309051},"geometry":{"x":173592.16999999993,"y":2541766.1800000016}},{"attributes":{"ID":309060,"DIS_CODE":0,"TOWNNAME":"仁德區","LI":"一甲里","LIN":"7鄰","STREET":"中正路","SECT":"三段","MAREA":" ","LANE":"１６２巷","ALLEY":" ","HOUSE_NO":"３３號","E_COORD97":173578.39999999999,"N_COORD97":2541751.0600000001,"ADDRESS":"中正路三段１６２巷３３號","OBJECTID":309052},"geometry":{"x":173578.4000000013,"y":2541751.0600000024}},{"attributes":{"ID":309061,"DIS_CODE":0,"TOWNNAME":"仁德區","LI":"一甲里","LIN":"7鄰","STREET":"中正路","SECT":"三段","MAREA":" ","LANE":"１６２巷","ALLEY":" ","HOUSE_NO":"３５號","E_COORD97":173575.94,"N_COORD97":2541745.79,"ADDRESS":"中正路三段１６２巷３５號","OBJECTID":309053},"geometry":{"x":173575.93999999948,"y":2541745.7899999991}},{"attributes":{"ID":309062,"DIS_CODE":0,"TOWNNAME":"仁德區","LI":"一甲里","LIN":"7鄰","STREET":"中正路","SECT":"三段","MAREA":" ","LANE":"１６２巷","ALLEY":" ","HOUSE_NO":"４７號","E_COORD97":173620.76000000001,"N_COORD97":2541731.6800000002,"ADDRESS":"中正路三段１６２巷４７號","OBJECTID":309054},"geometry":{"x":173620.76000000164,"y":2541731.6800000016}},{"attributes":{"ID":309063,"DIS_CODE":0,"TOWNNAME":"仁德區","LI":"大甲里","LIN":"7鄰","STREET":"行大街","SECT":" ","MAREA":" ","LANE":"３０７巷","ALLEY":" ","HOUSE_NO":"２０號","E_COORD97":169675.23999999999,"N_COORD97":2535088.1099999999,"ADDRESS":"行大街３０７巷２０號","OBJECTID":309055},"geometry":{"x":169675.24000000115,"y":2535088.1099999994}},{"attributes":{"ID":309064,"DIS_CODE":0,"TOWNNAME":"下營區","LI":"宅內里","LIN":"7鄰","STREET":"人和三街","SECT":" ","MAREA":" ","LANE":"７６巷","ALLEY":" ","HOUSE_NO":"１８號","E_COORD97":174263.13,"N_COORD97":2570773.7400000002,"ADDRESS":"人和三街７６巷１８號","OBJECTID":309056},"geometry":{"x":174263.13000000082,"y":2570773.7400000021}},{"attributes":{"ID":309065,"DIS_CODE":0,"TOWNNAME":"下營區","LI":"宅內里","LIN":"7鄰","STREET":"人和三街","SECT":" ","MAREA":" ","LANE":"７６巷","ALLEY":" ","HOUSE_NO":"５號","E_COORD97":174255.94,"N_COORD97":2570744.77,"ADDRESS":"人和三街７６巷５號","OBJECTID":309057},"geometry":{"x":174255.94000000134,"y":2570744.7699999977}},{"attributes":{"ID":309066,"DIS_CODE":0,"TOWNNAME":"北區","LI":"公園里","LIN":"17鄰","STREET":"成功路","SECT":" ","MAREA":" ","LANE":" ","ALLEY":" ","HOUSE_NO":"５０號八樓之３","E_COORD97":168765.81,"N_COORD97":2544291.5699999998,"ADDRESS":"成功路５０號八樓之３","OBJECTID":309058},"geometry":{"x":168765.81000000052,"y":2544291.5700000003}},{"attributes":{"ID":309067,"DIS_CODE":0,"TOWNNAME":"北區","LI":"公園里","LIN":"17鄰","STREET":"成功路","SECT":" ","MAREA":" ","LANE":" ","ALLEY":" ","HOUSE_NO":"５０號八樓之４","E_COORD97":168765.81,"N_COORD97":2544291.5699999998,"ADDRESS":"成功路５０號八樓之４","OBJECTID":309059},"geometry":{"x":168765.81000000052,"y":2544291.5700000003}},{"attributes":{"ID":309068,"DIS_CODE":0,"TOWNNAME":"北區","LI":"公園里","LIN":"17鄰","STREET":"成功路","SECT":" ","MAREA":" ","LANE":" ","ALLEY":" ","HOUSE_NO":"５０號八樓之５","E_COORD97":168765.81,"N_COORD97":2544291.5699999998,"ADDRESS":"成功路５０號八樓之５","OBJECTID":309060},"geometry":{"x":168765.81000000052,"y":2544291.5700000003}},{"attributes":{"ID":309069,"DIS_CODE":0,"TOWNNAME":"佳里區","LI":"東寧里","LIN":"1鄰","STREET":"中山路","SECT":" ","MAREA":" ","LANE":" ","ALLEY":" ","HOUSE_NO":"２７８號","E_COORD97":165724.73000000001,"N_COORD97":2562313.8199999998,"ADDRESS":"中山路２７８號","OBJECTID":309061},"geometry":{"x":165724.73000000045,"y":2562313.8200000022}},{"attributes":{"ID":309070,"DIS_CODE":0,"TOWNNAME":"永康區","LI":"網寮里","LIN":"13鄰","STREET":"永勝街","SECT":" ","MAREA":" ","LANE":"１６９巷","ALLEY":" ","HOUSE_NO":"２號六樓之５","E_COORD97":173315.35999999999,"N_COORD97":2546526.3700000001,"ADDRESS":"永勝街１６９巷２號六樓之５","OBJECTID":309062},"geometry":{"x":173315.3599999994,"y":2546526.3700000029}},{"attributes":{"ID":309071,"DIS_CODE":0,"TOWNNAME":"永康區","LI":"復國里","LIN":"24鄰","STREET":"復華三街","SECT":" ","MAREA":" ","LANE":"９０巷","ALLEY":" ","HOUSE_NO":"１４號五樓之１","E_COORD97":172647.76000000001,"N_COORD97":2545581.7999999998,"ADDRESS":"復華三街９０巷１４號五樓之１","OBJECTID":309063},"geometry":{"x":172647.76000000071,"y":2545581.8000000007}},{"attributes":{"ID":309072,"DIS_CODE":0,"TOWNNAME":"永康區","LI":"勝利里","LIN":"34鄰","STREET":"勝利街","SECT":" ","MAREA":" ","LANE":"１巷","ALLEY":" ","HOUSE_NO":"４７號四樓之３","E_COORD97":170989.37,"N_COORD97":2544676.5499999998,"ADDRESS":"勝利街１巷４７號四樓之３","OBJECTID":309064},"geometry":{"x":170989.37000000197,"y":2544676.5500000026}},{"attributes":{"ID":309073,"DIS_CODE":0,"TOWNNAME":"中西區","LI":"保安里","LIN":"7鄰","STREET":"海安路","SECT":"一段","MAREA":" ","LANE":"１９０巷","ALLEY":" ","HOUSE_NO":"２號","E_COORD97":167560.88,"N_COORD97":2543537.73,"ADDRESS":"海安路一段１９０巷２號","OBJECTID":309065},"geometry":{"x":167560.87999999989,"y":2543537.7300000004}},{"attributes":{"ID":309074,"DIS_CODE":0,"TOWNNAME":"中西區","LI":"西賢里","LIN":"7鄰","STREET":"湖美街","SECT":" ","MAREA":" ","LANE":"２６３巷","ALLEY":" ","HOUSE_NO":"１０號之１","E_COORD97":165888.51999999999,"N_COORD97":2545032.6200000001,"ADDRESS":"湖美街２６３巷１０號之１","OBJECTID":309066},"geometry":{"x":165888.51999999862,"y":2545032.6200000029}},{"attributes":{"ID":309075,"DIS_CODE":0,"TOWNNAME":"安南區","LI":"安慶里","LIN":"7鄰","STREET":"長溪路","SECT":"一段","MAREA":" ","LANE":"１６８巷","ALLEY":" ","HOUSE_NO":"２３０號","E_COORD97":168960.23999999999,"N_COORD97":2548992.3700000001,"ADDRESS":"長溪路一段１６８巷２３０號","OBJECTID":309067},"geometry":{"x":168960.24000000115,"y":2548992.370000001}},{"attributes":{"ID":309076,"DIS_CODE":0,"TOWNNAME":"安南區","LI":"安慶里","LIN":"7鄰","STREET":"長溪路","SECT":"一段","MAREA":" ","LANE":"１６８巷","ALLEY":" ","HOUSE_NO":"２３２號","E_COORD97":168956.04000000001,"N_COORD97":2548988.3900000001,"ADDRESS":"長溪路一段１６８巷２３２號","OBJECTID":309068},"geometry":{"x":168956.04000000097,"y":2548988.3900000006}},{"attributes":{"ID":309077,"DIS_CODE":0,"TOWNNAME":"安南區","LI":"安慶里","LIN":"7鄰","STREET":"長溪路","SECT":"一段","MAREA":" ","LANE":"１６８巷","ALLEY":" ","HOUSE_NO":"２３６號","E_COORD97":168948.94,"N_COORD97":2548984.98,"ADDRESS":"長溪路一段１６８巷２３６號","OBJECTID":309069},"geometry":{"x":168948.94000000134,"y":2548984.9800000042}},{"attributes":{"ID":309078,"DIS_CODE":0,"TOWNNAME":"安南區","LI":"安慶里","LIN":"7鄰","STREET":"長溪路","SECT":"一段","MAREA":" ","LANE":"１６８巷","ALLEY":" ","HOUSE_NO":"２４０號","E_COORD97":168935.45000000001,"N_COORD97":2548976.9399999999,"ADDRESS":"長溪路一段１６８巷２４０號","OBJECTID":309070},"geometry":{"x":168935.45000000019,"y":2548976.9399999995}},{"attributes":{"ID":309079,"DIS_CODE":0,"TOWNNAME":"安南區","LI":"安慶里","LIN":"7鄰","STREET":"長溪路","SECT":"一段","MAREA":" ","LANE":"１６８巷","ALLEY":" ","HOUSE_NO":"２４２號","E_COORD97":168931.57000000001,"N_COORD97":2548973.6000000001,"ADDRESS":"長溪路一段１６８巷２４２號","OBJECTID":309071},"geometry":{"x":168931.5700000003,"y":2548973.6000000015}},{"attributes":{"ID":309080,"DIS_CODE":0,"TOWNNAME":"安南區","LI":"安慶里","LIN":"7鄰","STREET":"長溪路","SECT":"一段","MAREA":" ","LANE":"１６８巷","ALLEY":" ","HOUSE_NO":"２４４號","E_COORD97":168923.76999999999,"N_COORD97":2548969.1299999999,"ADDRESS":"長溪路一段１６８巷２４４號","OBJECTID":309072},"geometry":{"x":168923.77000000048,"y":2548969.1300000008}},{"attributes":{"ID":309081,"DIS_CODE":0,"TOWNNAME":"東區","LI":"自強里","LIN":"7鄰","STREET":"東門路","SECT":"三段","MAREA":" ","LANE":"３７巷","ALLEY":" ","HOUSE_NO":"１９號","E_COORD97":171169.95999999999,"N_COORD97":2542310.8199999998,"ADDRESS":"東門路三段３７巷１９號","OBJECTID":309073},"geometry":{"x":171169.96000000183,"y":2542310.8200000022}},{"attributes":{"ID":309082,"DIS_CODE":0,"TOWNNAME":"東區","LI":"自強里","LIN":"7鄰","STREET":"東門路","SECT":"三段","MAREA":" ","LANE":"３７巷","ALLEY":" ","HOUSE_NO":"１號","E_COORD97":171125.82999999999,"N_COORD97":2542316.8700000001,"ADDRESS":"東門路三段３７巷１號","OBJECTID":309074},"geometry":{"x":171125.83000000101,"y":2542316.870000001}},{"attributes":{"ID":309083,"DIS_CODE":0,"TOWNNAME":"東區","LI":"自強里","LIN":"7鄰","STREET":"東門路","SECT":"三段","MAREA":" ","LANE":"３７巷","ALLEY":" ","HOUSE_NO":"２１號","E_COORD97":171174.07999999999,"N_COORD97":2542310.3500000001,"ADDRESS":"東門路三段３７巷２１號","OBJECTID":309075},"geometry":{"x":171174.08000000007,"y":2542310.3500000015}},{"attributes":{"ID":309084,"DIS_CODE":0,"TOWNNAME":"北區","LI":"公園里","LIN":"17鄰","STREET":"成功路","SECT":" ","MAREA":" ","LANE":" ","ALLEY":" ","HOUSE_NO":"５０號八樓之６","E_COORD97":168765.81,"N_COORD97":2544291.5699999998,"ADDRESS":"成功路５０號八樓之６","OBJECTID":309076},"geometry":{"x":168765.81000000052,"y":2544291.5700000003}},{"attributes":{"ID":309085,"DIS_CODE":0,"TOWNNAME":"北區","LI":"公園里","LIN":"17鄰","STREET":"成功路","SECT":" ","MAREA":" ","LANE":" ","ALLEY":" ","HOUSE_NO":"５０號八樓之７","E_COORD97":168765.81,"N_COORD97":2544291.5699999998,"ADDRESS":"成功路５０號八樓之７","OBJECTID":309077},"geometry":{"x":168765.81000000052,"y":2544291.5700000003}},{"attributes":{"ID":309086,"DIS_CODE":0,"TOWNNAME":"北區","LI":"公園里","LIN":"17鄰","STREET":"成功路","SECT":" ","MAREA":" ","LANE":" ","ALLEY":" ","HOUSE_NO":"５０號八樓之８","E_COORD97":168765.81,"N_COORD97":2544291.5699999998,"ADDRESS":"成功路５０號八樓之８","OBJECTID":309078},"geometry":{"x":168765.81000000052,"y":2544291.5700000003}},{"attributes":{"ID":309087,"DIS_CODE":0,"TOWNNAME":"永康區","LI":"網寮里","LIN":"13鄰","STREET":"永勝街","SECT":" ","MAREA":" ","LANE":"１６９巷","ALLEY":" ","HOUSE_NO":"２號六樓之１","E_COORD97":173315.20000000001,"N_COORD97":2546526.3700000001,"ADDRESS":"永勝街１６９巷２號六樓之１","OBJECTID":309079},"geometry":{"x":173315.20000000112,"y":2546526.3700000029}},{"attributes":{"ID":309088,"DIS_CODE":0,"TOWNNAME":"東區","LI":"自強里","LIN":"7鄰","STREET":"東門路","SECT":"三段","MAREA":" ","LANE":"３７巷","ALLEY":" ","HOUSE_NO":"２３號","E_COORD97":171178.5,"N_COORD97":2542309.8700000001,"ADDRESS":"東門路三段３７巷２３號","OBJECTID":309080},"geometry":{"x":171178.50000000093,"y":2542309.870000001}},{"attributes":{"ID":309089,"DIS_CODE":0,"TOWNNAME":"東區","LI":"自強里","LIN":"7鄰","STREET":"東門路","SECT":"三段","MAREA":" ","LANE":"３７巷","ALLEY":" ","HOUSE_NO":"２５號","E_COORD97":171181.98000000001,"N_COORD97":2542309.8700000001,"ADDRESS":"東門路三段３７巷２５號","OBJECTID":309081},"geometry":{"x":171181.98000000045,"y":2542309.870000001}},{"attributes":{"ID":309090,"DIS_CODE":0,"TOWNNAME":"東區","LI":"自強里","LIN":"7鄰","STREET":"東門路","SECT":"三段","MAREA":" ","LANE":"３７巷","ALLEY":" ","HOUSE_NO":"２７號","E_COORD97":171186.25,"N_COORD97":2542309.2400000002,"ADDRESS":"東門路三段３７巷２７號","OBJECTID":309082},"geometry":{"x":171186.25,"y":2542309.2400000002}},{"attributes":{"ID":309091,"DIS_CODE":0,"TOWNNAME":"東區","LI":"自強里","LIN":"7鄰","STREET":"東門路","SECT":"三段","MAREA":" ","LANE":"３７巷","ALLEY":" ","HOUSE_NO":"２９號","E_COORD97":171190.67999999999,"N_COORD97":2542308.1400000001,"ADDRESS":"東門路三段３７巷２９號","OBJECTID":309083},"geometry":{"x":171190.68000000063,"y":2542308.1399999987}},{"attributes":{"ID":309092,"DIS_CODE":0,"TOWNNAME":"東區","LI":"自強里","LIN":"7鄰","STREET":"東門路","SECT":"三段","MAREA":" ","LANE":"３７巷","ALLEY":" ","HOUSE_NO":"３１號","E_COORD97":171194,"N_COORD97":2542307.8199999998,"ADDRESS":"東門路三段３７巷３１號","OBJECTID":309084},"geometry":{"x":171194.00000000093,"y":2542307.8200000022}},{"attributes":{"ID":309093,"DIS_CODE":0,"TOWNNAME":"東區","LI":"自強里","LIN":"7鄰","STREET":"東門路","SECT":"三段","MAREA":" ","LANE":"３７巷","ALLEY":" ","HOUSE_NO":"３３號","E_COORD97":171197.79999999999,"N_COORD97":2542307.5,"ADDRESS":"東門路三段３７巷３３號","OBJECTID":309085},"geometry":{"x":171197.79999999981,"y":2542307.5}},{"attributes":{"ID":309094,"DIS_CODE":0,"TOWNNAME":"東區","LI":"自強里","LIN":"7鄰","STREET":"東門路","SECT":"三段","MAREA":" ","LANE":"３７巷","ALLEY":" ","HOUSE_NO":"３５號","E_COORD97":171201.59,"N_COORD97":2542306.8700000001,"ADDRESS":"東門路三段３７巷３５號","OBJECTID":309086},"geometry":{"x":171201.59000000078,"y":2542306.870000001}},{"attributes":{"ID":309095,"DIS_CODE":0,"TOWNNAME":"東區","LI":"自強里","LIN":"7鄰","STREET":"東門路","SECT":"三段","MAREA":" ","LANE":"３７巷","ALLEY":" ","HOUSE_NO":"３７號","E_COORD97":171205.85999999999,"N_COORD97":2542306.5600000001,"ADDRESS":"東門路三段３７巷３７號","OBJECTID":309087},"geometry":{"x":171205.86000000034,"y":2542306.5600000024}},{"attributes":{"ID":309096,"DIS_CODE":0,"TOWNNAME":"東區","LI":"自強里","LIN":"7鄰","STREET":"東門路","SECT":"三段","MAREA":" ","LANE":"３７巷","ALLEY":" ","HOUSE_NO":"３９號","E_COORD97":171209.87,"N_COORD97":2542306.71,"ADDRESS":"東門路三段３７巷３９號","OBJECTID":309088},"geometry":{"x":171209.87000000104,"y":2542306.7100000009}},{"attributes":{"ID":309097,"DIS_CODE":0,"TOWNNAME":"東區","LI":"自強里","LIN":"7鄰","STREET":"東門路","SECT":"三段","MAREA":" ","LANE":"３７巷","ALLEY":" ","HOUSE_NO":"３號","E_COORD97":171130.10000000001,"N_COORD97":2542315.29,"ADDRESS":"東門路三段３７巷３號","OBJECTID":309089},"geometry":{"x":171130.10000000056,"y":2542315.2899999991}},{"attributes":{"ID":309098,"DIS_CODE":0,"TOWNNAME":"東區","LI":"自強里","LIN":"7鄰","STREET":"東門路","SECT":"三段","MAREA":" ","LANE":"３７巷","ALLEY":" ","HOUSE_NO":"４５號","E_COORD97":171222.35999999999,"N_COORD97":2542310.5,"ADDRESS":"東門路三段３７巷４５號","OBJECTID":309090},"geometry":{"x":171222.36000000127,"y":2542310.5}},{"attributes":{"ID":309099,"DIS_CODE":0,"TOWNNAME":"東區","LI":"自強里","LIN":"7鄰","STREET":"東門路","SECT":"三段","MAREA":" ","LANE":"３７巷","ALLEY":" ","HOUSE_NO":"４７號","E_COORD97":171226.32000000001,"N_COORD97":2542312.2400000002,"ADDRESS":"東門路三段３７巷４７號","OBJECTID":309091},"geometry":{"x":171226.32000000123,"y":2542312.2400000021}},{"attributes":{"ID":309100,"DIS_CODE":0,"TOWNNAME":"東區","LI":"自強里","LIN":"7鄰","STREET":"東門路","SECT":"三段","MAREA":" ","LANE":"３７巷","ALLEY":" ","HOUSE_NO":"４９號","E_COORD97":171227.89999999999,"N_COORD97":2542325.8799999999,"ADDRESS":"東門路三段３７巷４９號","OBJECTID":309092},"geometry":{"x":171227.90000000037,"y":2542325.8800000008}},{"attributes":{"ID":309101,"DIS_CODE":0,"TOWNNAME":"東區","LI":"自強里","LIN":"7鄰","STREET":"東門路","SECT":"三段","MAREA":" ","LANE":"３７巷","ALLEY":" ","HOUSE_NO":"５１號","E_COORD97":171227.42000000001,"N_COORD97":2542330.6099999999,"ADDRESS":"東門路三段３７巷５１號","OBJECTID":309093},"geometry":{"x":171227.41999999993,"y":2542330.6099999994}},{"attributes":{"ID":309102,"DIS_CODE":0,"TOWNNAME":"東區","LI":"自強里","LIN":"7鄰","STREET":"東門路","SECT":"三段","MAREA":" ","LANE":"３７巷","ALLEY":" ","HOUSE_NO":"５３號","E_COORD97":171226.95000000001,"N_COORD97":2542334.8799999999,"ADDRESS":"東門路三段３７巷５３號","OBJECTID":309094},"geometry":{"x":171226.95000000112,"y":2542334.879999999}},{"attributes":{"ID":309103,"DIS_CODE":0,"TOWNNAME":"永康區","LI":"南灣里","LIN":"7鄰","STREET":"南興路","SECT":" ","MAREA":" ","LANE":"１１２巷","ALLEY":" ","HOUSE_NO":"６號","E_COORD97":174365.73999999999,"N_COORD97":2544458.1299999999,"ADDRESS":"南興路１１２巷６號","OBJECTID":309095},"geometry":{"x":174365.74000000115,"y":2544458.129999999}},{"attributes":{"ID":309104,"DIS_CODE":0,"TOWNNAME":"永康區","LI":"東橋里","LIN":"7鄰","STREET":"大橋一街","SECT":" ","MAREA":" ","LANE":"３２４巷","ALLEY":" ","HOUSE_NO":"１０１號","E_COORD97":171508.53,"N_COORD97":2546418.4900000002,"ADDRESS":"大橋一街３２４巷１０１號","OBJECTID":309096},"geometry":{"x":171508.53000000026,"y":2546418.4900000021}},{"attributes":{"ID":309105,"DIS_CODE":0,"TOWNNAME":"永康區","LI":"南灣里","LIN":"7鄰","STREET":"南興路","SECT":" ","MAREA":" ","LANE":"１１２巷","ALLEY":" ","HOUSE_NO":"１９號","E_COORD97":174366.28,"N_COORD97":2544483.9500000002,"ADDRESS":"南興路１１２巷１９號","OBJECTID":309097},"geometry":{"x":174366.28000000026,"y":2544483.9499999993}},{"attributes":{"ID":309106,"DIS_CODE":0,"TOWNNAME":"北區","LI":"公園里","LIN":"17鄰","STREET":"成功路","SECT":" ","MAREA":" ","LANE":" ","ALLEY":" ","HOUSE_NO":"５０號八樓之９","E_COORD97":168765.81,"N_COORD97":2544291.5699999998,"ADDRESS":"成功路５０號八樓之９","OBJECTID":309098},"geometry":{"x":168765.81000000052,"y":2544291.5700000003}},{"attributes":{"ID":309107,"DIS_CODE":0,"TOWNNAME":"永康區","LI":"二王里","LIN":"41鄰","STREET":"中山南路","SECT":" ","MAREA":" ","LANE":"３１６巷","ALLEY":" ","HOUSE_NO":"１８號四樓之１","E_COORD97":171991.59,"N_COORD97":2546124.29,"ADDRESS":"中山南路３１６巷１８號四樓之１","OBJECTID":309099},"geometry":{"x":171991.59000000078,"y":2546124.290000001}},{"attributes":{"ID":309108,"DIS_CODE":0,"TOWNNAME":"永康區","LI":"網寮里","LIN":"13鄰","STREET":"永勝街","SECT":" ","MAREA":" ","LANE":"１６９巷","ALLEY":" ","HOUSE_NO":"６號五樓之１","E_COORD97":173303.95999999999,"N_COORD97":2546537.0800000001,"ADDRESS":"永勝街１６９巷６號五樓之１","OBJECTID":309100},"geometry":{"x":173303.95999999996,"y":2546537.0800000019}},{"attributes":{"ID":309109,"DIS_CODE":0,"TOWNNAME":"永康區","LI":"復華里","LIN":"5鄰","STREET":"國華街","SECT":" ","MAREA":" ","LANE":"１０２巷","ALLEY":" ","HOUSE_NO":"８６號十二樓之１","E_COORD97":172978.35999999999,"N_COORD97":2546138.5299999998,"ADDRESS":"國華街１０２巷８６號十二樓之１","OBJECTID":309101},"geometry":{"x":172978.36000000127,"y":2546138.5299999993}},{"attributes":{"ID":309110,"DIS_CODE":0,"TOWNNAME":"永康區","LI":"東橋里","LIN":"7鄰","STREET":"大橋一街","SECT":" ","MAREA":" ","LANE":"３２４巷","ALLEY":" ","HOUSE_NO":"１０３號","E_COORD97":171511.34,"N_COORD97":2546415.2400000002,"ADDRESS":"大橋一街３２４巷１０３號","OBJECTID":309102},"geometry":{"x":171511.34000000171,"y":2546415.2400000002}},{"attributes":{"ID":309111,"DIS_CODE":0,"TOWNNAME":"永康區","LI":"南灣里","LIN":"7鄰","STREET":"南興路","SECT":" ","MAREA":" ","LANE":"１１２巷","ALLEY":" ","HOUSE_NO":"９號","E_COORD97":174335.44,"N_COORD97":2544467.1699999999,"ADDRESS":"南興路１１２巷９號","OBJECTID":309103},"geometry":{"x":174335.44000000227,"y":2544467.1700000037}},{"attributes":{"ID":309112,"DIS_CODE":0,"TOWNNAME":"永康區","LI":"南灣里","LIN":"7鄰","STREET":"南興路","SECT":" ","MAREA":" ","LANE":"１１２巷","ALLEY":" ","HOUSE_NO":"１１號","E_COORD97":174341.20000000001,"N_COORD97":2544467.9199999999,"ADDRESS":"南興路１１２巷１１號","OBJECTID":309104},"geometry":{"x":174341.20000000019,"y":2544467.9199999999}},{"attributes":{"ID":309113,"DIS_CODE":0,"TOWNNAME":"永康區","LI":"南灣里","LIN":"7鄰","STREET":"南興路","SECT":" ","MAREA":" ","LANE":"１１２巷","ALLEY":" ","HOUSE_NO":"８號","E_COORD97":174383.34,"N_COORD97":2544466.02,"ADDRESS":"南興路１１２巷８號","OBJECTID":309105},"geometry":{"x":174383.34000000078,"y":2544466.0200000014}},{"attributes":{"ID":309114,"DIS_CODE":0,"TOWNNAME":"永康區","LI":"南灣里","LIN":"7鄰","STREET":"南興路","SECT":" ","MAREA":" ","LANE":"１１２巷","ALLEY":" ","HOUSE_NO":"１３號","E_COORD97":174347.17999999999,"N_COORD97":2544469.6200000001,"ADDRESS":"南興路１１２巷１３號","OBJECTID":309106},"geometry":{"x":174347.18000000063,"y":2544469.6200000029}},{"attributes":{"ID":309115,"DIS_CODE":0,"TOWNNAME":"安南區","LI":"淵中里","LIN":"7鄰","STREET":"安中路","SECT":"四段","MAREA":" ","LANE":"２１０巷","ALLEY":" ","HOUSE_NO":"６６號","E_COORD97":164908.92999999999,"N_COORD97":2550191.27,"ADDRESS":"安中路四段２１０巷６６號","OBJECTID":309107},"geometry":{"x":164908.9299999997,"y":2550191.2699999996}},{"attributes":{"ID":309116,"DIS_CODE":0,"TOWNNAME":"安南區","LI":"淵中里","LIN":"7鄰","STREET":"安中路","SECT":"四段","MAREA":" ","LANE":"２１０巷","ALLEY":" ","HOUSE_NO":"６８號","E_COORD97":164914.34,"N_COORD97":2550194.8700000001,"ADDRESS":"安中路四段２１０巷６８號","OBJECTID":309108},"geometry":{"x":164914.34000000078,"y":2550194.8700000029}},{"attributes":{"ID":309117,"DIS_CODE":0,"TOWNNAME":"安南區","LI":"淵中里","LIN":"7鄰","STREET":"安中路","SECT":"四段","MAREA":" ","LANE":"２１０巷","ALLEY":" ","HOUSE_NO":"７０號","E_COORD97":164918.13,"N_COORD97":2550196.9399999999,"ADDRESS":"安中路四段２１０巷７０號","OBJECTID":309109},"geometry":{"x":164918.12999999989,"y":2550196.9399999995}},{"attributes":{"ID":309118,"DIS_CODE":0,"TOWNNAME":"安南區","LI":"淵中里","LIN":"7鄰","STREET":"安中路","SECT":"四段","MAREA":" ","LANE":"２１０巷","ALLEY":" ","HOUSE_NO":"７２號","E_COORD97":164921.64999999999,"N_COORD97":2550199.7400000002,"ADDRESS":"安中路四段２１０巷７２號","OBJECTID":309110},"geometry":{"x":164921.65000000037,"y":2550199.7400000002}},{"attributes":{"ID":309119,"DIS_CODE":0,"TOWNNAME":"安南區","LI":"淵中里","LIN":"7鄰","STREET":"安中路","SECT":"四段","MAREA":" ","LANE":"２１０巷","ALLEY":" ","HOUSE_NO":"７６號","E_COORD97":164925.70999999999,"N_COORD97":2550201.8999999999,"ADDRESS":"安中路四段２１０巷７６號","OBJECTID":309111},"geometry":{"x":164925.71000000089,"y":2550201.9000000004}},{"attributes":{"ID":309120,"DIS_CODE":0,"TOWNNAME":"安南區","LI":"城西里","LIN":"7鄰","STREET":"城西街","SECT":"三段","MAREA":" ","LANE":"５０１巷","ALLEY":" ","HOUSE_NO":"２５０之１號","E_COORD97":157378.17000000001,"N_COORD97":2549888.02,"ADDRESS":"城西街三段５０１巷２５０之１號","OBJECTID":309112},"geometry":{"x":157378.17000000179,"y":2549888.0199999996}},{"attributes":{"ID":309121,"DIS_CODE":0,"TOWNNAME":"安南區","LI":"城西里","LIN":"7鄰","STREET":"城西街","SECT":"三段","MAREA":" ","LANE":"５０１巷","ALLEY":" ","HOUSE_NO":"２５０之２號","E_COORD97":157380.54999999999,"N_COORD97":2549874.9399999999,"ADDRESS":"城西街三段５０１巷２５０之２號","OBJECTID":309113},"geometry":{"x":157380.55000000168,"y":2549874.9399999995}},{"attributes":{"ID":309122,"DIS_CODE":0,"TOWNNAME":"中西區","LI":"民生里","LIN":"7鄰","STREET":"武英街","SECT":" ","MAREA":" ","LANE":"６巷","ALLEY":" ","HOUSE_NO":"１３號","E_COORD97":167222.06,"N_COORD97":2543349.6200000001,"ADDRESS":"武英街６巷１３號","OBJECTID":309114},"geometry":{"x":167222.05999999959,"y":2543349.6199999992}},{"attributes":{"ID":309123,"DIS_CODE":0,"TOWNNAME":"北區","LI":"公園里","LIN":"17鄰","STREET":"成功路","SECT":" ","MAREA":" ","LANE":" ","ALLEY":" ","HOUSE_NO":"５０號十一樓之１","E_COORD97":168765.81,"N_COORD97":2544291.5699999998,"ADDRESS":"成功路５０號十一樓之１","OBJECTID":309115},"geometry":{"x":168765.81000000052,"y":2544291.5700000003}},{"attributes":{"ID":309124,"DIS_CODE":0,"TOWNNAME":"北區","LI":"公園里","LIN":"17鄰","STREET":"成功路","SECT":" ","MAREA":" ","LANE":" ","ALLEY":" ","HOUSE_NO":"５０號十一樓之２","E_COORD97":168765.81,"N_COORD97":2544291.5699999998,"ADDRESS":"成功路５０號十一樓之２","OBJECTID":309116},"geometry":{"x":168765.81000000052,"y":2544291.5700000003}},{"attributes":{"ID":309125,"DIS_CODE":0,"TOWNNAME":"北區","LI":"公園里","LIN":"17鄰","STREET":"成功路","SECT":" ","MAREA":" ","LANE":" ","ALLEY":" ","HOUSE_NO":"５０號十一樓之３","E_COORD97":168765.81,"N_COORD97":2544291.5699999998,"ADDRESS":"成功路５０號十一樓之３","OBJECTID":309117},"geometry":{"x":168765.81000000052,"y":2544291.5700000003}},{"attributes":{"ID":309126,"DIS_CODE":0,"TOWNNAME":"永康區","LI":"三合里","LIN":"24鄰","STREET":"南工街","SECT":" ","MAREA":" ","LANE":"２６７巷","ALLEY":" ","HOUSE_NO":"４６號九樓之２","E_COORD97":171855.38,"N_COORD97":2545843.79,"ADDRESS":"南工街２６７巷４６號九樓之２","OBJECTID":309118},"geometry":{"x":171855.38000000175,"y":2545843.7899999991}},{"attributes":{"ID":309127,"DIS_CODE":0,"TOWNNAME":"中西區","LI":"民生里","LIN":"7鄰","STREET":"武英街","SECT":" ","MAREA":" ","LANE":"６巷","ALLEY":" ","HOUSE_NO":"１號","E_COORD97":167218.41,"N_COORD97":2543326.48,"ADDRESS":"武英街６巷１號","OBJECTID":309119},"geometry":{"x":167218.41000000015,"y":2543326.4800000042}},{"attributes":{"ID":309128,"DIS_CODE":0,"TOWNNAME":"中西區","LI":"民生里","LIN":"7鄰","STREET":"武英街","SECT":" ","MAREA":" ","LANE":"６巷","ALLEY":" ","HOUSE_NO":"２號","E_COORD97":167229.09,"N_COORD97":2543318.9100000001,"ADDRESS":"武英街６巷２號","OBJECTID":309120},"geometry":{"x":167229.08999999985,"y":2543318.9100000001}},{"attributes":{"ID":309129,"DIS_CODE":0,"TOWNNAME":"中西區","LI":"民生里","LIN":"7鄰","STREET":"武英街","SECT":" ","MAREA":" ","LANE":"６巷","ALLEY":" ","HOUSE_NO":"３號","E_COORD97":167218.91,"N_COORD97":2543330.1099999999,"ADDRESS":"武英街６巷３號","OBJECTID":309121},"geometry":{"x":167218.90999999922,"y":2543330.1099999994}},{"attributes":{"ID":309130,"DIS_CODE":0,"TOWNNAME":"中西區","LI":"民生里","LIN":"7鄰","STREET":"武英街","SECT":" ","MAREA":" ","LANE":"６巷","ALLEY":" ","HOUSE_NO":"５號","E_COORD97":167220.07000000001,"N_COORD97":2543333.9199999999,"ADDRESS":"武英街６巷５號","OBJECTID":309122},"geometry":{"x":167220.07000000123,"y":2543333.9200000018}},{"attributes":{"ID":309131,"DIS_CODE":0,"TOWNNAME":"中西區","LI":"民生里","LIN":"7鄰","STREET":"武英街","SECT":" ","MAREA":" ","LANE":"６巷","ALLEY":" ","HOUSE_NO":"６號","E_COORD97":167231.35999999999,"N_COORD97":2543328.5,"ADDRESS":"武英街６巷６號","OBJECTID":309123},"geometry":{"x":167231.3600000022,"y":2543328.5}},{"attributes":{"ID":309132,"DIS_CODE":0,"TOWNNAME":"中西區","LI":"民生里","LIN":"7鄰","STREET":"武英街","SECT":" ","MAREA":" ","LANE":"６巷","ALLEY":" ","HOUSE_NO":"７號","E_COORD97":167220.57000000001,"N_COORD97":2543337.8799999999,"ADDRESS":"武英街６巷７號","OBJECTID":309124},"geometry":{"x":167220.57000000123,"y":2543337.879999999}},{"attributes":{"ID":309133,"DIS_CODE":0,"TOWNNAME":"中西區","LI":"民生里","LIN":"7鄰","STREET":"武英街","SECT":" ","MAREA":" ","LANE":"６巷","ALLEY":" ","HOUSE_NO":"９號","E_COORD97":167221.56,"N_COORD97":2543341.52,"ADDRESS":"武英街６巷９號","OBJECTID":309125},"geometry":{"x":167221.56000000052,"y":2543341.5199999996}},{"attributes":{"ID":309134,"DIS_CODE":0,"TOWNNAME":"北區","LI":"成功里","LIN":"5鄰","STREET":"北安路","SECT":"一段","MAREA":" ","LANE":"１４２巷","ALLEY":" ","HOUSE_NO":"２７號","E_COORD97":169010.16,"N_COORD97":2546482.96,"ADDRESS":"北安路一段１４２巷２７號","OBJECTID":309126},"geometry":{"x":169010.16000000015,"y":2546482.9600000009}},{"attributes":{"ID":309135,"DIS_CODE":0,"TOWNNAME":"北區","LI":"成功里","LIN":"5鄰","STREET":"北安路","SECT":"一段","MAREA":" ","LANE":"１４２巷","ALLEY":" ","HOUSE_NO":"２９號","E_COORD97":169012.09,"N_COORD97":2546486.8100000001,"ADDRESS":"北安路一段１４２巷２９號","OBJECTID":309127},"geometry":{"x":169012.08999999985,"y":2546486.8100000005}},{"attributes":{"ID":309136,"DIS_CODE":0,"TOWNNAME":"北區","LI":"成功里","LIN":"5鄰","STREET":"北安路","SECT":"一段","MAREA":" ","LANE":"１４２巷","ALLEY":" ","HOUSE_NO":"３１號","E_COORD97":169015.45999999999,"N_COORD97":2546490.1800000002,"ADDRESS":"北安路一段１４２巷３１號","OBJECTID":309128},"geometry":{"x":169015.46000000183,"y":2546490.1799999997}},{"attributes":{"ID":309137,"DIS_CODE":0,"TOWNNAME":"北區","LI":"成功里","LIN":"5鄰","STREET":"北安路","SECT":"一段","MAREA":" ","LANE":"１４２巷","ALLEY":" ","HOUSE_NO":"３３號","E_COORD97":169018.82999999999,"N_COORD97":2546493.54,"ADDRESS":"北安路一段１４２巷３３號","OBJECTID":309129},"geometry":{"x":169018.83000000101,"y":2546493.5399999991}},{"attributes":{"ID":309138,"DIS_CODE":0,"TOWNNAME":"北區","LI":"成功里","LIN":"5鄰","STREET":"北安路","SECT":"一段","MAREA":" ","LANE":"１４２巷","ALLEY":" ","HOUSE_NO":"３５號","E_COORD97":169021.29000000001,"N_COORD97":2546497.6200000001,"ADDRESS":"北安路一段１４２巷３５號","OBJECTID":309130},"geometry":{"x":169021.29000000004,"y":2546497.6200000029}},{"attributes":{"ID":309139,"DIS_CODE":0,"TOWNNAME":"北區","LI":"成功里","LIN":"5鄰","STREET":"北安路","SECT":"一段","MAREA":" ","LANE":"１４２巷","ALLEY":" ","HOUSE_NO":"３７號","E_COORD97":169023.64999999999,"N_COORD97":2546501.8500000001,"ADDRESS":"北安路一段１４２巷３７號","OBJECTID":309131},"geometry":{"x":169023.6500000013,"y":2546501.8499999996}},{"attributes":{"ID":309140,"DIS_CODE":0,"TOWNNAME":"中西區","LI":"三合里","LIN":"7鄰","STREET":"忠孝街","SECT":" ","MAREA":" ","LANE":"９３巷","ALLEY":" ","HOUSE_NO":"１３號","E_COORD97":167688.63,"N_COORD97":2544557.4700000002,"ADDRESS":"忠孝街９３巷１３號","OBJECTID":309132},"geometry":{"x":167688.63000000082,"y":2544557.4700000044}},{"attributes":{"ID":309141,"DIS_CODE":0,"TOWNNAME":"中西區","LI":"三合里","LIN":"7鄰","STREET":"忠孝街","SECT":" ","MAREA":" ","LANE":"９３巷","ALLEY":" ","HOUSE_NO":"１５號","E_COORD97":167687.28,"N_COORD97":2544557.96,"ADDRESS":"忠孝街９３巷１５號","OBJECTID":309133},"geometry":{"x":167687.28000000026,"y":2544557.9600000046}},{"attributes":{"ID":309142,"DIS_CODE":0,"TOWNNAME":"中西區","LI":"三合里","LIN":"7鄰","STREET":"忠孝街","SECT":" ","MAREA":" ","LANE":"９３巷","ALLEY":" ","HOUSE_NO":"１７號","E_COORD97":167684.20999999999,"N_COORD97":2544558.3199999998,"ADDRESS":"忠孝街９３巷１７號","OBJECTID":309134},"geometry":{"x":167684.20999999996,"y":2544558.320000004}},{"attributes":{"ID":309143,"DIS_CODE":0,"TOWNNAME":"中西區","LI":"三合里","LIN":"7鄰","STREET":"忠孝街","SECT":" ","MAREA":" ","LANE":"９３巷","ALLEY":" ","HOUSE_NO":"１９號","E_COORD97":167680.29000000001,"N_COORD97":2544559.6699999999,"ADDRESS":"忠孝街９３巷１９號","OBJECTID":309135},"geometry":{"x":167680.29000000004,"y":2544559.6700000018}},{"attributes":{"ID":309144,"DIS_CODE":0,"TOWNNAME":"中西區","LI":"三合里","LIN":"7鄰","STREET":"忠孝街","SECT":" ","MAREA":" ","LANE":"９３巷","ALLEY":" ","HOUSE_NO":"２１號","E_COORD97":167678.81,"N_COORD97":2544567.52,"ADDRESS":"忠孝街９３巷２１號","OBJECTID":309136},"geometry":{"x":167678.81000000052,"y":2544567.5200000014}},{"attributes":{"ID":309145,"DIS_CODE":0,"TOWNNAME":"中西區","LI":"三合里","LIN":"7鄰","STREET":"忠孝街","SECT":" ","MAREA":" ","LANE":"９３巷","ALLEY":" ","HOUSE_NO":"２３號","E_COORD97":167672.92000000001,"N_COORD97":2544562,"ADDRESS":"忠孝街９３巷２３號","OBJECTID":309137},"geometry":{"x":167672.91999999899,"y":2544562}},{"attributes":{"ID":309146,"DIS_CODE":0,"TOWNNAME":"中西區","LI":"三合里","LIN":"7鄰","STREET":"忠孝街","SECT":" ","MAREA":" ","LANE":"９３巷","ALLEY":" ","HOUSE_NO":"２５號","E_COORD97":167668.38,"N_COORD97":2544565.1899999999,"ADDRESS":"忠孝街９３巷２５號","OBJECTID":309138},"geometry":{"x":167668.38000000082,"y":2544565.1900000013}},{"attributes":{"ID":309147,"DIS_CODE":0,"TOWNNAME":"中西區","LI":"三合里","LIN":"7鄰","STREET":"忠孝街","SECT":" ","MAREA":" ","LANE":"９３巷","ALLEY":" ","HOUSE_NO":"２７號","E_COORD97":167664.07999999999,"N_COORD97":2544568.6299999999,"ADDRESS":"忠孝街９３巷２７號","OBJECTID":309139},"geometry":{"x":167664.08000000101,"y":2544568.6300000008}},{"attributes":{"ID":309148,"DIS_CODE":0,"TOWNNAME":"中西區","LI":"三合里","LIN":"7鄰","STREET":"信義街","SECT":" ","MAREA":" ","LANE":"４６巷","ALLEY":" ","HOUSE_NO":"２８號","E_COORD97":167644.29999999999,"N_COORD97":2544568.27,"ADDRESS":"信義街４６巷２８號","OBJECTID":309140},"geometry":{"x":167644.29999999981,"y":2544568.2700000014}},{"attributes":{"ID":309149,"DIS_CODE":0,"TOWNNAME":"中西區","LI":"三合里","LIN":"7鄰","STREET":"信義街","SECT":" ","MAREA":" ","LANE":"４６巷","ALLEY":" ","HOUSE_NO":"３０號","E_COORD97":167646.75,"N_COORD97":2544572.3100000001,"ADDRESS":"信義街４６巷３０號","OBJECTID":309141},"geometry":{"x":167646.75,"y":2544572.3100000024}},{"attributes":{"ID":309150,"DIS_CODE":0,"TOWNNAME":"下營區","LI":"新興里","LIN":"7鄰","STREET":"中山路","SECT":"一段","MAREA":" ","LANE":"１５１巷","ALLEY":" ","HOUSE_NO":"８號","E_COORD97":174760.60999999999,"N_COORD97":2570644.6499999999,"ADDRESS":"中山路一段１５１巷８號","OBJECTID":309142},"geometry":{"x":174760.61000000034,"y":2570644.6499999985}},{"attributes":{"ID":309151,"DIS_CODE":0,"TOWNNAME":"永康區","LI":"南灣里","LIN":"7鄰","STREET":"南興路","SECT":" ","MAREA":" ","LANE":"１１２巷","ALLEY":" ","HOUSE_NO":"６號之５","E_COORD97":174388.81,"N_COORD97":2544391.3900000001,"ADDRESS":"南興路１１２巷６號之５","OBJECTID":309143},"geometry":{"x":174388.81000000052,"y":2544391.3900000006}},{"attributes":{"ID":309152,"DIS_CODE":0,"TOWNNAME":"永康區","LI":"永康里","LIN":"7鄰","STREET":"中山南路","SECT":" ","MAREA":" ","LANE":"１１１６巷","ALLEY":" ","HOUSE_NO":"２５號","E_COORD97":173922.79999999999,"N_COORD97":2547247.25,"ADDRESS":"中山南路１１１６巷２５號","OBJECTID":309144},"geometry":{"x":173922.80000000075,"y":2547247.2500000019}},{"attributes":{"ID":309153,"DIS_CODE":0,"TOWNNAME":"永康區","LI":"永康里","LIN":"7鄰","STREET":"中山南路","SECT":" ","MAREA":" ","LANE":"１１１６巷","ALLEY":" ","HOUSE_NO":"１７號","E_COORD97":173912.47,"N_COORD97":2547281,"ADDRESS":"中山南路１１１６巷１７號","OBJECTID":309145},"geometry":{"x":173912.4700000016,"y":2547281}},{"attributes":{"ID":309154,"DIS_CODE":0,"TOWNNAME":"安南區","LI":"城西里","LIN":"7鄰","STREET":"城西街","SECT":"三段","MAREA":" ","LANE":"５０１巷","ALLEY":" ","HOUSE_NO":"３６２之３７５號","E_COORD97":157655.98000000001,"N_COORD97":2548510.5800000001,"ADDRESS":"城西街三段５０１巷３６２之３７５號","OBJECTID":309146},"geometry":{"x":157655.98000000045,"y":2548510.5800000019}},{"attributes":{"ID":309155,"DIS_CODE":0,"TOWNNAME":"安南區","LI":"城東里","LIN":"7鄰","STREET":"安中路","SECT":"六段","MAREA":" ","LANE":"５００巷","ALLEY":" ","HOUSE_NO":"８８號","E_COORD97":161108.66,"N_COORD97":2551501.54,"ADDRESS":"安中路六段５００巷８８號","OBJECTID":309147},"geometry":{"x":161108.66000000108,"y":2551501.5399999991}},{"attributes":{"ID":309156,"DIS_CODE":0,"TOWNNAME":"安南區","LI":"城東里","LIN":"7鄰","STREET":"城北路","SECT":" ","MAREA":" ","LANE":"９８巷","ALLEY":" ","HOUSE_NO":"１４０號","E_COORD97":161220.06,"N_COORD97":2551626.2200000002,"ADDRESS":"城北路９８巷１４０號","OBJECTID":309148},"geometry":{"x":161220.06000000052,"y":2551626.2200000025}},{"attributes":{"ID":309157,"DIS_CODE":0,"TOWNNAME":"北區","LI":"公園里","LIN":"17鄰","STREET":"成功路","SECT":" ","MAREA":" ","LANE":" ","ALLEY":" ","HOUSE_NO":"５０號十一樓之４","E_COORD97":168765.81,"N_COORD97":2544291.5699999998,"ADDRESS":"成功路５０號十一樓之４","OBJECTID":309149},"geometry":{"x":168765.81000000052,"y":2544291.5700000003}},{"attributes":{"ID":309158,"DIS_CODE":0,"TOWNNAME":"安南區","LI":"淵西里","LIN":"7鄰","STREET":"安中路","SECT":"四段","MAREA":" ","LANE":"３０６巷","ALLEY":" ","HOUSE_NO":"１１４號","E_COORD97":164725.51000000001,"N_COORD97":2550338.8100000001,"ADDRESS":"安中路四段３０６巷１１４號","OBJECTID":309150},"geometry":{"x":164725.50999999978,"y":2550338.8099999987}},{"attributes":{"ID":309159,"DIS_CODE":0,"TOWNNAME":"安南區","LI":"學東里","LIN":"7鄰","STREET":"公學路","SECT":"六段","MAREA":" ","LANE":"４６９巷","ALLEY":" ","HOUSE_NO":"９之１號","E_COORD97":162696.75,"N_COORD97":2553157.3900000001,"ADDRESS":"公學路六段４６９巷９之１號","OBJECTID":309151},"geometry":{"x":162696.75,"y":2553157.3900000025}},{"attributes":{"ID":309160,"DIS_CODE":0,"TOWNNAME":"安南區","LI":"城東里","LIN":"7鄰","STREET":"安中路","SECT":"六段","MAREA":" ","LANE":"５００巷","ALLEY":" ","HOUSE_NO":"９８號","E_COORD97":161117.82000000001,"N_COORD97":2551535.3300000001,"ADDRESS":"安中路六段５００巷９８號","OBJECTID":309152},"geometry":{"x":161117.82000000123,"y":2551535.3300000038}},{"attributes":{"ID":309161,"DIS_CODE":0,"TOWNNAME":"安南區","LI":"總頭里","LIN":"7鄰","STREET":"長溪路","SECT":"二段","MAREA":" ","LANE":"５９８巷","ALLEY":" ","HOUSE_NO":"１３號","E_COORD97":168268.17999999999,"N_COORD97":2550725.8300000001,"ADDRESS":"長溪路二段５９８巷１３號","OBJECTID":309153},"geometry":{"x":168268.18000000063,"y":2550725.8300000019}},{"attributes":{"ID":309162,"DIS_CODE":0,"TOWNNAME":"北區","LI":"延平里","LIN":"7鄰","STREET":"公園路","SECT":" ","MAREA":" ","LANE":"７７２巷","ALLEY":" ","HOUSE_NO":"６號","E_COORD97":169158,"N_COORD97":2545721.8799999999,"ADDRESS":"公園路７７２巷６號","OBJECTID":309154},"geometry":{"x":169158.00000000093,"y":2545721.879999999}},{"attributes":{"ID":309163,"DIS_CODE":0,"TOWNNAME":"安南區","LI":"原佃里","LIN":"7鄰","STREET":"安吉路","SECT":"一段","MAREA":" ","LANE":"５３２巷","ALLEY":" ","HOUSE_NO":"１３０號","E_COORD97":167210.42999999999,"N_COORD97":2550006.1099999999,"ADDRESS":"安吉路一段５３２巷１３０號","OBJECTID":309155},"geometry":{"x":167210.43000000063,"y":2550006.1099999994}},{"attributes":{"ID":309164,"DIS_CODE":0,"TOWNNAME":"安南區","LI":"原佃里","LIN":"7鄰","STREET":"安吉路","SECT":"一段","MAREA":" ","LANE":"５３２巷","ALLEY":" ","HOUSE_NO":"５０號","E_COORD97":166997.85999999999,"N_COORD97":2550026.1600000001,"ADDRESS":"安吉路一段５３２巷５０號","OBJECTID":309156},"geometry":{"x":166997.86000000127,"y":2550026.1600000001}},{"attributes":{"ID":309165,"DIS_CODE":0,"TOWNNAME":"安南區","LI":"城南里","LIN":"7鄰","STREET":"城西街","SECT":"一段","MAREA":" ","LANE":"１８１巷","ALLEY":" ","HOUSE_NO":"５７之１號","E_COORD97":160478.20999999999,"N_COORD97":2551126.2599999998,"ADDRESS":"城西街一段１８１巷５７之１號","OBJECTID":309157},"geometry":{"x":160478.20999999996,"y":2551126.2600000016}},{"attributes":{"ID":309166,"DIS_CODE":0,"TOWNNAME":"安南區","LI":"\u25A0田里","LIN":"7鄰","STREET":"\u25A0田路","SECT":" ","MAREA":" ","LANE":"３０巷","ALLEY":" ","HOUSE_NO":"２８號","E_COORD97":162710.31,"N_COORD97":2548454.8500000001,"ADDRESS":"\u25A0田路３０巷２８號","OBJECTID":309158},"geometry":{"x":162710.31000000052,"y":2548454.8499999996}},{"attributes":{"ID":309167,"DIS_CODE":0,"TOWNNAME":"安南區","LI":"\u25A0田里","LIN":"7鄰","STREET":"\u25A0田路","SECT":" ","MAREA":" ","LANE":"３０巷","ALLEY":" ","HOUSE_NO":"２６號","E_COORD97":162697.76999999999,"N_COORD97":2548446.4300000002,"ADDRESS":"\u25A0田路３０巷２６號","OBJECTID":309159},"geometry":{"x":162697.76999999955,"y":2548446.4300000016}},{"attributes":{"ID":309168,"DIS_CODE":0,"TOWNNAME":"安南區","LI":"\u25A0田里","LIN":"7鄰","STREET":"\u25A0田路","SECT":" ","MAREA":" ","LANE":"３０巷","ALLEY":" ","HOUSE_NO":"２２號","E_COORD97":162687.13,"N_COORD97":2548439.1299999999,"ADDRESS":"\u25A0田路３０巷２２號","OBJECTID":309160},"geometry":{"x":162687.12999999989,"y":2548439.129999999}},{"attributes":{"ID":309169,"DIS_CODE":0,"TOWNNAME":"安南區","LI":"\u25A0田里","LIN":"7鄰","STREET":"\u25A0田路","SECT":" ","MAREA":" ","LANE":"３０巷","ALLEY":" ","HOUSE_NO":"２０號","E_COORD97":162678.23999999999,"N_COORD97":2548430.8700000001,"ADDRESS":"\u25A0田路３０巷２０號","OBJECTID":309161},"geometry":{"x":162678.24000000022,"y":2548430.8700000029}},{"attributes":{"ID":309170,"DIS_CODE":0,"TOWNNAME":"安南區","LI":"\u25A0田里","LIN":"7鄰","STREET":"\u25A0田路","SECT":" ","MAREA":" ","LANE":"３０巷","ALLEY":" ","HOUSE_NO":"１８號","E_COORD97":162669.67000000001,"N_COORD97":2548422.46,"ADDRESS":"\u25A0田路３０巷１８號","OBJECTID":309162},"geometry":{"x":162669.66999999993,"y":2548422.4600000009}},{"attributes":{"ID":309171,"DIS_CODE":0,"TOWNNAME":"佳里區","LI":"忠仁里","LIN":"14鄰","STREET":" ","SECT":" ","MAREA":"忠仁","LANE":" ","ALLEY":" ","HOUSE_NO":"１０９號三樓之２","E_COORD97":166146.92999999999,"N_COORD97":2562157.27,"ADDRESS":"忠仁１０９號三樓之２","OBJECTID":309163},"geometry":{"x":166146.92999999877,"y":2562157.2700000033}},{"attributes":{"ID":309172,"DIS_CODE":0,"TOWNNAME":"佳里區","LI":"忠仁里","LIN":"14鄰","STREET":" ","SECT":" ","MAREA":"忠仁","LANE":" ","ALLEY":" ","HOUSE_NO":"１０９號三樓之３","E_COORD97":166146.92999999999,"N_COORD97":2562157.27,"ADDRESS":"忠仁１０９號三樓之３","OBJECTID":309164},"geometry":{"x":166146.92999999877,"y":2562157.2700000033}},{"attributes":{"ID":309173,"DIS_CODE":0,"TOWNNAME":"佳里區","LI":"忠仁里","LIN":"14鄰","STREET":" ","SECT":" ","MAREA":"忠仁","LANE":" ","ALLEY":" ","HOUSE_NO":"１０９號五樓","E_COORD97":166146.92999999999,"N_COORD97":2562157.27,"ADDRESS":"忠仁１０９號五樓","OBJECTID":309165},"geometry":{"x":166146.92999999877,"y":2562157.2700000033}},{"attributes":{"ID":309174,"DIS_CODE":0,"TOWNNAME":"佳里區","LI":"忠仁里","LIN":"14鄰","STREET":" ","SECT":" ","MAREA":"忠仁","LANE":" ","ALLEY":" ","HOUSE_NO":"１０９號五樓之１","E_COORD97":166146.92999999999,"N_COORD97":2562157.27,"ADDRESS":"忠仁１０９號五樓之１","OBJECTID":309166},"geometry":{"x":166146.92999999877,"y":2562157.2700000033}},{"attributes":{"ID":309175,"DIS_CODE":0,"TOWNNAME":"佳里區","LI":"忠仁里","LIN":"14鄰","STREET":" ","SECT":" ","MAREA":"忠仁","LANE":" ","ALLEY":" ","HOUSE_NO":"１０９號五樓之２","E_COORD97":166146.92999999999,"N_COORD97":2562157.27,"ADDRESS":"忠仁１０９號五樓之２","OBJECTID":309167},"geometry":{"x":166146.92999999877,"y":2562157.2700000033}},{"attributes":{"ID":309176,"DIS_CODE":0,"TOWNNAME":"佳里區","LI":"忠仁里","LIN":"14鄰","STREET":" ","SECT":" ","MAREA":"忠仁","LANE":" ","ALLEY":" ","HOUSE_NO":"１０９號五樓之３","E_COORD97":166146.92999999999,"N_COORD97":2562157.27,"ADDRESS":"忠仁１０９號五樓之３","OBJECTID":309168},"geometry":{"x":166146.92999999877,"y":2562157.2700000033}},{"attributes":{"ID":309177,"DIS_CODE":0,"TOWNNAME":"佳里區","LI":"忠仁里","LIN":"14鄰","STREET":" ","SECT":" ","MAREA":"忠仁","LANE":" ","ALLEY":" ","HOUSE_NO":"１０９號六樓之１","E_COORD97":166146.92999999999,"N_COORD97":2562157.27,"ADDRESS":"忠仁１０９號六樓之１","OBJECTID":309169},"geometry":{"x":166146.92999999877,"y":2562157.2700000033}},{"attributes":{"ID":309178,"DIS_CODE":0,"TOWNNAME":"佳里區","LI":"忠仁里","LIN":"14鄰","STREET":" ","SECT":" ","MAREA":"忠仁","LANE":" ","ALLEY":" ","HOUSE_NO":"１０９號六樓之２","E_COORD97":166146.92999999999,"N_COORD97":2562157.27,"ADDRESS":"忠仁１０９號六樓之２","OBJECTID":309170},"geometry":{"x":166146.92999999877,"y":2562157.2700000033}},{"attributes":{"ID":309179,"DIS_CODE":0,"TOWNNAME":"佳里區","LI":"忠仁里","LIN":"14鄰","STREET":" ","SECT":" ","MAREA":"忠仁","LANE":" ","ALLEY":" ","HOUSE_NO":"１０９號六樓之３","E_COORD97":166146.92999999999,"N_COORD97":2562157.27,"ADDRESS":"忠仁１０９號六樓之３","OBJECTID":309171},"geometry":{"x":166146.92999999877,"y":2562157.2700000033}},{"attributes":{"ID":309180,"DIS_CODE":0,"TOWNNAME":"佳里區","LI":"忠仁里","LIN":"14鄰","STREET":" ","SECT":" ","MAREA":"忠仁","LANE":" ","ALLEY":" ","HOUSE_NO":"１０９號四樓之１","E_COORD97":166146.92999999999,"N_COORD97":2562157.27,"ADDRESS":"忠仁１０９號四樓之１","OBJECTID":309172},"geometry":{"x":166146.92999999877,"y":2562157.2700000033}},{"attributes":{"ID":309181,"DIS_CODE":0,"TOWNNAME":"佳里區","LI":"忠仁里","LIN":"14鄰","STREET":" ","SECT":" ","MAREA":"忠仁","LANE":" ","ALLEY":" ","HOUSE_NO":"１０９號四樓之２","E_COORD97":166146.92999999999,"N_COORD97":2562157.27,"ADDRESS":"忠仁１０９號四樓之２","OBJECTID":309173},"geometry":{"x":166146.92999999877,"y":2562157.2700000033}},{"attributes":{"ID":309182,"DIS_CODE":0,"TOWNNAME":"佳里區","LI":"忠仁里","LIN":"14鄰","STREET":" ","SECT":" ","MAREA":"忠仁","LANE":" ","ALLEY":" ","HOUSE_NO":"１０９號四樓之３","E_COORD97":166146.92999999999,"N_COORD97":2562157.27,"ADDRESS":"忠仁１０９號四樓之３","OBJECTID":309174},"geometry":{"x":166146.92999999877,"y":2562157.2700000033}},{"attributes":{"ID":309183,"DIS_CODE":0,"TOWNNAME":"安南區","LI":"\u25A0田里","LIN":"7鄰","STREET":"\u25A0田路","SECT":" ","MAREA":" ","LANE":"３０巷","ALLEY":" ","HOUSE_NO":"１２號","E_COORD97":162651.89000000001,"N_COORD97":2548408.6499999999,"ADDRESS":"\u25A0田路３０巷１２號","OBJECTID":309175},"geometry":{"x":162651.89000000153,"y":2548408.6500000022}},{"attributes":{"ID":309184,"DIS_CODE":0,"TOWNNAME":"安南區","LI":"\u25A0田里","LIN":"7鄰","STREET":"\u25A0田路","SECT":" ","MAREA":" ","LANE":"３０巷","ALLEY":" ","HOUSE_NO":"１０號","E_COORD97":162640.94,"N_COORD97":2548400.8700000001,"ADDRESS":"\u25A0田路３０巷１０號","OBJECTID":309176},"geometry":{"x":162640.94000000134,"y":2548400.8700000029}},{"attributes":{"ID":309185,"DIS_CODE":0,"TOWNNAME":"安南區","LI":"\u25A0田里","LIN":"7鄰","STREET":"\u25A0田路","SECT":" ","MAREA":" ","LANE":"３０巷","ALLEY":" ","HOUSE_NO":"１６號","E_COORD97":162660.78,"N_COORD97":2548414.21,"ADDRESS":"\u25A0田路３０巷１６號","OBJECTID":309177},"geometry":{"x":162660.78000000119,"y":2548414.2100000046}},{"attributes":{"ID":309186,"DIS_CODE":0,"TOWNNAME":"安南區","LI":"\u25A0田里","LIN":"7鄰","STREET":"\u25A0田路","SECT":" ","MAREA":" ","LANE":"３０巷","ALLEY":" ","HOUSE_NO":"８號","E_COORD97":162631.89000000001,"N_COORD97":2548393.25,"ADDRESS":"\u25A0田路３０巷８號","OBJECTID":309178},"geometry":{"x":162631.8900000006,"y":2548393.2500000019}},{"attributes":{"ID":309187,"DIS_CODE":0,"TOWNNAME":"永康區","LI":"勝利里","LIN":"39鄰","STREET":"勝華街","SECT":" ","MAREA":" ","LANE":"３７巷","ALLEY":" ","HOUSE_NO":"５６號五樓之９","E_COORD97":171422.60000000001,"N_COORD97":2545110.29,"ADDRESS":"勝華街３７巷５６號五樓之９","OBJECTID":309179},"geometry":{"x":171422.59999999963,"y":2545110.290000001}},{"attributes":{"ID":309188,"DIS_CODE":0,"TOWNNAME":"永康區","LI":"中華里","LIN":"15鄰","STREET":"忠義街","SECT":" ","MAREA":" ","LANE":"６０巷","ALLEY":" ","HOUSE_NO":"１號十二樓之１６","E_COORD97":171787.73000000001,"N_COORD97":2544541.1200000001,"ADDRESS":"忠義街６０巷１號十二樓之１６","OBJECTID":309180},"geometry":{"x":171787.73000000138,"y":2544541.1200000029}},{"attributes":{"ID":309189,"DIS_CODE":0,"TOWNNAME":"永康區","LI":"復華里","LIN":"6鄰","STREET":"國華街","SECT":" ","MAREA":" ","LANE":"１０２巷","ALLEY":" ","HOUSE_NO":"９２號九樓之１","E_COORD97":173003.64000000001,"N_COORD97":2546148.5499999998,"ADDRESS":"國華街１０２巷９２號九樓之１","OBJECTID":309181},"geometry":{"x":173003.63999999966,"y":2546148.5500000026}},{"attributes":{"ID":309190,"DIS_CODE":0,"TOWNNAME":"永康區","LI":"復華里","LIN":"18鄰","STREET":"國華街","SECT":" ","MAREA":" ","LANE":"１０２巷","ALLEY":" ","HOUSE_NO":"５３號十樓之１","E_COORD97":172864.04999999999,"N_COORD97":2546091.7599999998,"ADDRESS":"國華街１０２巷５３號十樓之１","OBJECTID":309182},"geometry":{"x":172864.04999999981,"y":2546091.7600000016}},{"attributes":{"ID":309191,"DIS_CODE":0,"TOWNNAME":"安南區","LI":"\u25A0田里","LIN":"7鄰","STREET":"\u25A0田路","SECT":" ","MAREA":" ","LANE":"３０巷","ALLEY":" ","HOUSE_NO":"２號","E_COORD97":162613.63,"N_COORD97":2548379.2799999998,"ADDRESS":"\u25A0田路３０巷２號","OBJECTID":309183},"geometry":{"x":162613.63000000082,"y":2548379.2800000012}},{"attributes":{"ID":309192,"DIS_CODE":0,"TOWNNAME":"安南區","LI":"\u25A0田里","LIN":"7鄰","STREET":"\u25A0田路","SECT":" ","MAREA":" ","LANE":"３０巷","ALLEY":" ","HOUSE_NO":"１號","E_COORD97":162583.73000000001,"N_COORD97":2548358.0600000001,"ADDRESS":"\u25A0田路３０巷１號","OBJECTID":309184},"geometry":{"x":162583.73000000045,"y":2548358.0600000024}},{"attributes":{"ID":309193,"DIS_CODE":0,"TOWNNAME":"安南區","LI":"\u25A0田里","LIN":"7鄰","STREET":"\u25A0田路","SECT":" ","MAREA":" ","LANE":"３０巷","ALLEY":" ","HOUSE_NO":"３號","E_COORD97":162572.09,"N_COORD97":2548349.0699999998,"ADDRESS":"\u25A0田路３０巷３號","OBJECTID":309185},"geometry":{"x":162572.08999999985,"y":2548349.0700000003}},{"attributes":{"ID":309194,"DIS_CODE":0,"TOWNNAME":"安南區","LI":"\u25A0田里","LIN":"7鄰","STREET":"\u25A0田路","SECT":" ","MAREA":" ","LANE":"３０巷","ALLEY":" ","HOUSE_NO":"５號","E_COORD97":162562.57000000001,"N_COORD97":2548344.8300000001,"ADDRESS":"\u25A0田路３０巷５號","OBJECTID":309186},"geometry":{"x":162562.5700000003,"y":2548344.8300000038}},{"attributes":{"ID":309195,"DIS_CODE":0,"TOWNNAME":"北區","LI":"公園里","LIN":"17鄰","STREET":"成功路","SECT":" ","MAREA":" ","LANE":" ","ALLEY":" ","HOUSE_NO":"５０號十二樓之１","E_COORD97":168765.81,"N_COORD97":2544291.5699999998,"ADDRESS":"成功路５０號十二樓之１","OBJECTID":309187},"geometry":{"x":168765.81000000052,"y":2544291.5700000003}},{"attributes":{"ID":309196,"DIS_CODE":0,"TOWNNAME":"北區","LI":"公園里","LIN":"17鄰","STREET":"成功路","SECT":" ","MAREA":" ","LANE":" ","ALLEY":" ","HOUSE_NO":"５０號十二樓之２","E_COORD97":168765.81,"N_COORD97":2544291.5699999998,"ADDRESS":"成功路５０號十二樓之２","OBJECTID":309188},"geometry":{"x":168765.81000000052,"y":2544291.5700000003}},{"attributes":{"ID":309197,"DIS_CODE":0,"TOWNNAME":"北區","LI":"公園里","LIN":"17鄰","STREET":"成功路","SECT":" ","MAREA":" ","LANE":" ","ALLEY":" ","HOUSE_NO":"５０號十二樓之３","E_COORD97":168765.81,"N_COORD97":2544291.5699999998,"ADDRESS":"成功路５０號十二樓之３","OBJECTID":309189},"geometry":{"x":168765.81000000052,"y":2544291.5700000003}},{"attributes":{"ID":309198,"DIS_CODE":0,"TOWNNAME":"北區","LI":"公園里","LIN":"17鄰","STREET":"成功路","SECT":" ","MAREA":" ","LANE":" ","ALLEY":" ","HOUSE_NO":"５０號十二樓之４","E_COORD97":168765.81,"N_COORD97":2544291.5699999998,"ADDRESS":"成功路５０號十二樓之４","OBJECTID":309190},"geometry":{"x":168765.81000000052,"y":2544291.5700000003}},{"attributes":{"ID":309199,"DIS_CODE":0,"TOWNNAME":"北區","LI":"公園里","LIN":"17鄰","STREET":"成功路","SECT":" ","MAREA":" ","LANE":" ","ALLEY":" ","HOUSE_NO":"５０號十樓之１","E_COORD97":168765.81,"N_COORD97":2544291.5699999998,"ADDRESS":"成功路５０號十樓之１","OBJECTID":309191},"geometry":{"x":168765.81000000052,"y":2544291.5700000003}},{"attributes":{"ID":309200,"DIS_CODE":0,"TOWNNAME":"永康區","LI":"\u25A0行里","LIN":"20鄰","STREET":"正南五街","SECT":" ","MAREA":" ","LANE":"２８９巷","ALLEY":" ","HOUSE_NO":"１０１號三樓","E_COORD97":171810.51000000001,"N_COORD97":2548329.3599999999,"ADDRESS":"正南五街２８９巷１０１號三樓","OBJECTID":309192},"geometry":{"x":171810.51000000071,"y":2548329.3599999994}},{"attributes":{"ID":309201,"DIS_CODE":0,"TOWNNAME":"安南區","LI":"\u25A0田里","LIN":"7鄰","STREET":"\u25A0田路","SECT":" ","MAREA":" ","LANE":"３０巷","ALLEY":" ","HOUSE_NO":"７號","E_COORD97":162551.72,"N_COORD97":2548338.48,"ADDRESS":"\u25A0田路３０巷７號","OBJECTID":309193},"geometry":{"x":162551.72000000067,"y":2548338.4800000023}},{"attributes":{"ID":309202,"DIS_CODE":0,"TOWNNAME":"安南區","LI":"\u25A0田里","LIN":"7鄰","STREET":"\u25A0田路","SECT":" ","MAREA":" ","LANE":"３０巷","ALLEY":" ","HOUSE_NO":"９號","E_COORD97":162542.72,"N_COORD97":2548331.6000000001,"ADDRESS":"\u25A0田路３０巷９號","OBJECTID":309194},"geometry":{"x":162542.71999999881,"y":2548331.5999999996}},{"attributes":{"ID":309203,"DIS_CODE":0,"TOWNNAME":"安南區","LI":"\u25A0田里","LIN":"7鄰","STREET":"\u25A0田路","SECT":" ","MAREA":" ","LANE":"３０巷","ALLEY":" ","HOUSE_NO":"１１號","E_COORD97":162532.39999999999,"N_COORD97":2548324.9900000002,"ADDRESS":"\u25A0田路３０巷１１號","OBJECTID":309195},"geometry":{"x":162532.4000000013,"y":2548324.9900000021}},{"attributes":{"ID":309204,"DIS_CODE":0,"TOWNNAME":"安南區","LI":"\u25A0田里","LIN":"7鄰","STREET":"\u25A0田路","SECT":" ","MAREA":" ","LANE":"３０巷","ALLEY":" ","HOUSE_NO":"１３號","E_COORD97":162522.07999999999,"N_COORD97":2548318.6400000001,"ADDRESS":"\u25A0田路３０巷１３號","OBJECTID":309196},"geometry":{"x":162522.08000000194,"y":2548318.6400000006}},{"attributes":{"ID":309205,"DIS_CODE":0,"TOWNNAME":"安南區","LI":"\u25A0田里","LIN":"7鄰","STREET":"\u25A0田路","SECT":" ","MAREA":" ","LANE":"３０巷","ALLEY":" ","HOUSE_NO":"１５號","E_COORD97":162512.29000000001,"N_COORD97":2548312.02,"ADDRESS":"\u25A0田路３０巷１５號","OBJECTID":309197},"geometry":{"x":162512.29000000097,"y":2548312.0199999996}},{"attributes":{"ID":309206,"DIS_CODE":0,"TOWNNAME":"安南區","LI":"\u25A0田里","LIN":"7鄰","STREET":"\u25A0田路","SECT":" ","MAREA":" ","LANE":"３０巷","ALLEY":" ","HOUSE_NO":"１７號","E_COORD97":162501.70999999999,"N_COORD97":2548305.1400000001,"ADDRESS":"\u25A0田路３０巷１７號","OBJECTID":309198},"geometry":{"x":162501.70999999996,"y":2548305.1400000006}},{"attributes":{"ID":309207,"DIS_CODE":0,"TOWNNAME":"安南區","LI":"\u25A0田里","LIN":"7鄰","STREET":"\u25A0田路","SECT":" ","MAREA":" ","LANE":"３０巷","ALLEY":" ","HOUSE_NO":"１９號","E_COORD97":162490.60000000001,"N_COORD97":2548299.8500000001,"ADDRESS":"\u25A0田路３０巷１９號","OBJECTID":309199},"geometry":{"x":162490.59999999963,"y":2548299.8499999996}},{"attributes":{"ID":309208,"DIS_CODE":0,"TOWNNAME":"安南區","LI":"\u25A0田里","LIN":"7鄰","STREET":"\u25A0田路","SECT":" ","MAREA":" ","LANE":"３０巷","ALLEY":" ","HOUSE_NO":"２１號","E_COORD97":162478.42999999999,"N_COORD97":2548291.6499999999,"ADDRESS":"\u25A0田路３０巷２１號","OBJECTID":309200},"geometry":{"x":162478.4299999997,"y":2548291.6500000004}}]}