{"displayFieldName":"TOWNNAME","fieldAliases":{"ID":"ID","DIS_CODE":"DIS_CODE","TOWNNAME":"TOWNNAME","LI":"LI","LIN":"LIN","STREET":"STREET","SECT":"SECT","MAREA":"MAREA","LANE":"LANE","ALLEY":"ALLEY","HOUSE_NO":"HOUSE_NO","E_COORD97":"E_COORD97","N_COORD97":"N_COORD97","ADDRESS":"ADDRESS","OBJECTID":"OBJECTID"},"geometryType":"esriGeometryPoint","spatialReference":{"wkid":102443,"latestWkid":3826},"fields":[{"name":"ID","type":"esriFieldTypeDouble","alias":"ID"},{"name":"DIS_CODE","type":"esriFieldTypeInteger","alias":"DIS_CODE"},{"name":"TOWNNAME","type":"esriFieldTypeString","alias":"TOWNNAME","length":8},{"name":"LI","type":"esriFieldTypeString","alias":"LI","length":8},{"name":"LIN","type":"esriFieldTypeString","alias":"LIN","length":12},{"name":"STREET","type":"esriFieldTypeString","alias":"STREET","length":20},{"name":"SECT","type":"esriFieldTypeString","alias":"SECT","length":8},{"name":"MAREA","type":"esriFieldTypeString","alias":"MAREA","length":12},{"name":"LANE","type":"esriFieldTypeString","alias":"LANE","length":10},{"name":"ALLEY","type":"esriFieldTypeString","alias":"ALLEY","length":10},{"name":"HOUSE_NO","type":"esriFieldTypeString","alias":"HOUSE_NO","length":20},{"name":"E_COORD97","type":"esriFieldTypeDouble","alias":"E_COORD97"},{"name":"N_COORD97","type":"esriFieldTypeDouble","alias":"N_COORD97"},{"name":"ADDRESS","type":"esriFieldTypeString","alias":"ADDRESS","length":50},{"name":"OBJECTID","type":"esriFieldTypeOID","alias":"OBJECTID"}],"features":[{"attributes":{"ID":196602,"DIS_CODE":0,"TOWNNAME":"新市區","LI":"大洲里","LIN":"3鄰","STREET":" ","SECT":" ","MAREA":"大洲","LANE":" ","ALLEY":" ","HOUSE_NO":"２５之１號","E_COORD97":174468.07000000001,"N_COORD97":2552409.0499999998,"ADDRESS":"大洲２５之１號","OBJECTID":196601},"geometry":{"x":174468.0700000003,"y":2552409.0500000045}},{"attributes":{"ID":196603,"DIS_CODE":0,"TOWNNAME":"新市區","LI":"大洲里","LIN":"3鄰","STREET":" ","SECT":" ","MAREA":"大洲","LANE":" ","ALLEY":" ","HOUSE_NO":"２６號","E_COORD97":174445.87,"N_COORD97":2552393.25,"ADDRESS":"大洲２６號","OBJECTID":196602},"geometry":{"x":174445.87000000197,"y":2552393.2499999981}},{"attributes":{"ID":196604,"DIS_CODE":0,"TOWNNAME":"善化區","LI":"六分里","LIN":"8鄰","STREET":" ","SECT":" ","MAREA":"溪底寮","LANE":" ","ALLEY":" ","HOUSE_NO":"９號","E_COORD97":177909.87,"N_COORD97":2561947.77,"ADDRESS":"溪底寮９號","OBJECTID":196603},"geometry":{"x":177909.87000000104,"y":2561947.7700000014}},{"attributes":{"ID":196605,"DIS_CODE":0,"TOWNNAME":"南區","LI":"省躬里","LIN":"18鄰","STREET":"灣裡路","SECT":" ","MAREA":" ","LANE":"８８巷","ALLEY":"３６弄","HOUSE_NO":"４號","E_COORD97":165816.54000000001,"N_COORD97":2536847.3900000001,"ADDRESS":"灣裡路８８巷３６弄４號","OBJECTID":196604},"geometry":{"x":165816.54000000097,"y":2536847.3900000006}},{"attributes":{"ID":196606,"DIS_CODE":0,"TOWNNAME":"南區","LI":"大恩里","LIN":"18鄰","STREET":"國民路","SECT":" ","MAREA":" ","LANE":"１６５巷","ALLEY":"２１弄","HOUSE_NO":"１０號","E_COORD97":169212.16,"N_COORD97":2540794.1200000001,"ADDRESS":"國民路１６５巷２１弄１０號","OBJECTID":196605},"geometry":{"x":169212.16000000015,"y":2540794.1200000029}},{"attributes":{"ID":196607,"DIS_CODE":0,"TOWNNAME":"南區","LI":"大恩里","LIN":"18鄰","STREET":"國民路","SECT":" ","MAREA":" ","LANE":"１６５巷","ALLEY":"２１弄","HOUSE_NO":"１２號","E_COORD97":169218.07000000001,"N_COORD97":2540793.5899999999,"ADDRESS":"國民路１６５巷２１弄１２號","OBJECTID":196606},"geometry":{"x":169218.0700000003,"y":2540793.5900000017}},{"attributes":{"ID":196608,"DIS_CODE":0,"TOWNNAME":"南區","LI":"大恩里","LIN":"18鄰","STREET":"國民路","SECT":" ","MAREA":" ","LANE":"１６５巷","ALLEY":"２１弄","HOUSE_NO":"１４號","E_COORD97":169224.07999999999,"N_COORD97":2540792.1899999999,"ADDRESS":"國民路１６５巷２１弄１４號","OBJECTID":196607},"geometry":{"x":169224.08000000007,"y":2540792.1900000013}},{"attributes":{"ID":196609,"DIS_CODE":0,"TOWNNAME":"南區","LI":"大恩里","LIN":"18鄰","STREET":"國民路","SECT":" ","MAREA":" ","LANE":"１６５巷","ALLEY":"２１弄","HOUSE_NO":"１６號","E_COORD97":169230.45000000001,"N_COORD97":2540790.8100000001,"ADDRESS":"國民路１６５巷２１弄１６號","OBJECTID":196608},"geometry":{"x":169230.45000000019,"y":2540790.8100000005}},{"attributes":{"ID":196610,"DIS_CODE":0,"TOWNNAME":"南區","LI":"文南里","LIN":"21鄰","STREET":"健康路","SECT":"二段","MAREA":" ","LANE":" ","ALLEY":" ","HOUSE_NO":"４４１號","E_COORD97":166444.26999999999,"N_COORD97":2542534.9399999999,"ADDRESS":"健康路二段４４１號","OBJECTID":196609},"geometry":{"x":166444.26999999955,"y":2542534.9399999995}},{"attributes":{"ID":196611,"DIS_CODE":0,"TOWNNAME":"南區","LI":"文南里","LIN":"21鄰","STREET":"健康路","SECT":"二段","MAREA":" ","LANE":" ","ALLEY":" ","HOUSE_NO":"４４３號","E_COORD97":166439.01999999999,"N_COORD97":2542535.2999999998,"ADDRESS":"健康路二段４４３號","OBJECTID":196610},"geometry":{"x":166439.01999999955,"y":2542535.3000000026}},{"attributes":{"ID":196612,"DIS_CODE":0,"TOWNNAME":"新市區","LI":"社內里","LIN":"3鄰","STREET":" ","SECT":" ","MAREA":"社內","LANE":" ","ALLEY":" ","HOUSE_NO":"３３號","E_COORD97":176965.62,"N_COORD97":2552547.75,"ADDRESS":"社內３３號","OBJECTID":196611},"geometry":{"x":176965.62000000104,"y":2552547.75}},{"attributes":{"ID":196613,"DIS_CODE":0,"TOWNNAME":"新市區","LI":"社內里","LIN":"3鄰","STREET":" ","SECT":" ","MAREA":"社內","LANE":" ","ALLEY":" ","HOUSE_NO":"３６號","E_COORD97":176906.97,"N_COORD97":2552542.25,"ADDRESS":"社內３６號","OBJECTID":196612},"geometry":{"x":176906.97000000067,"y":2552542.25}},{"attributes":{"ID":196614,"DIS_CODE":0,"TOWNNAME":"新市區","LI":"社內里","LIN":"3鄰","STREET":" ","SECT":" ","MAREA":"社內","LANE":" ","ALLEY":" ","HOUSE_NO":"３７之２號","E_COORD97":176850.07999999999,"N_COORD97":2552545.0499999998,"ADDRESS":"社內３７之２號","OBJECTID":196613},"geometry":{"x":176850.08000000101,"y":2552545.0500000026}},{"attributes":{"ID":196615,"DIS_CODE":0,"TOWNNAME":"新市區","LI":"社內里","LIN":"3鄰","STREET":" ","SECT":" ","MAREA":"社內","LANE":" ","ALLEY":" ","HOUSE_NO":"３４之１號","E_COORD97":176931.73000000001,"N_COORD97":2552552.7999999998,"ADDRESS":"社內３４之１號","OBJECTID":196614},"geometry":{"x":176931.73000000045,"y":2552552.8000000007}},{"attributes":{"ID":196616,"DIS_CODE":0,"TOWNNAME":"新市區","LI":"社內里","LIN":"3鄰","STREET":" ","SECT":" ","MAREA":"社內","LANE":" ","ALLEY":" ","HOUSE_NO":"３７之１２０號","E_COORD97":176867.35999999999,"N_COORD97":2552132.7999999998,"ADDRESS":"社內３７之１２０號","OBJECTID":196615},"geometry":{"x":176867.36000000127,"y":2552132.8000000045}},{"attributes":{"ID":196617,"DIS_CODE":0,"TOWNNAME":"新市區","LI":"社內里","LIN":"3鄰","STREET":" ","SECT":" ","MAREA":"社內","LANE":" ","ALLEY":" ","HOUSE_NO":"３９號","E_COORD97":176826.81,"N_COORD97":2552625.75,"ADDRESS":"社內３９號","OBJECTID":196616},"geometry":{"x":176826.80999999959,"y":2552625.75}},{"attributes":{"ID":196618,"DIS_CODE":0,"TOWNNAME":"新市區","LI":"永就里","LIN":"3鄰","STREET":" ","SECT":" ","MAREA":"永就","LANE":" ","ALLEY":" ","HOUSE_NO":"２９號","E_COORD97":178439.92000000001,"N_COORD97":2551413,"ADDRESS":"永就２９號","OBJECTID":196617},"geometry":{"x":178439.92000000086,"y":2551413.0000000019}},{"attributes":{"ID":196619,"DIS_CODE":0,"TOWNNAME":"南區","LI":"大恩里","LIN":"18鄰","STREET":"國民路","SECT":" ","MAREA":" ","LANE":"１６５巷","ALLEY":"２１弄","HOUSE_NO":"１８號","E_COORD97":169236.14000000001,"N_COORD97":2540788.4500000002,"ADDRESS":"國民路１６５巷２１弄１８號","OBJECTID":196618},"geometry":{"x":169236.1400000006,"y":2540788.4499999993}},{"attributes":{"ID":196620,"DIS_CODE":0,"TOWNNAME":"新市區","LI":"社內里","LIN":"3鄰","STREET":" ","SECT":" ","MAREA":"社內","LANE":" ","ALLEY":" ","HOUSE_NO":"３１之１號","E_COORD97":177024.20000000001,"N_COORD97":2552593.2999999998,"ADDRESS":"社內３１之１號","OBJECTID":196619},"geometry":{"x":177024.20000000112,"y":2552593.3000000007}},{"attributes":{"ID":196621,"DIS_CODE":0,"TOWNNAME":"新市區","LI":"永就里","LIN":"3鄰","STREET":" ","SECT":" ","MAREA":"永就","LANE":" ","ALLEY":" ","HOUSE_NO":"３１號","E_COORD97":178413.82000000001,"N_COORD97":2551385.5,"ADDRESS":"永就３１號","OBJECTID":196620},"geometry":{"x":178413.82000000123,"y":2551385.5000000019}},{"attributes":{"ID":196622,"DIS_CODE":0,"TOWNNAME":"新市區","LI":"永就里","LIN":"3鄰","STREET":" ","SECT":" ","MAREA":"永就","LANE":" ","ALLEY":" ","HOUSE_NO":"３６號","E_COORD97":178432.81,"N_COORD97":2551425.25,"ADDRESS":"永就３６號","OBJECTID":196621},"geometry":{"x":178432.81000000145,"y":2551425.2500000019}},{"attributes":{"ID":196623,"DIS_CODE":0,"TOWNNAME":"山上區","LI":"玉\u25A0里","LIN":"3鄰","STREET":" ","SECT":" ","MAREA":"蚵\u25A0潭","LANE":" ","ALLEY":" ","HOUSE_NO":"２５號","E_COORD97":187436.01999999999,"N_COORD97":2555712.25,"ADDRESS":"蚵\u25A0潭２５號","OBJECTID":196622},"geometry":{"x":187436.01999999862,"y":2555712.25}},{"attributes":{"ID":196624,"DIS_CODE":0,"TOWNNAME":"山上區","LI":"平陽里","LIN":"3鄰","STREET":" ","SECT":" ","MAREA":"石子崎","LANE":" ","ALLEY":" ","HOUSE_NO":"２５之２號","E_COORD97":186594.51999999999,"N_COORD97":2553908.2999999998,"ADDRESS":"石子崎２５之２號","OBJECTID":196623},"geometry":{"x":186594.51999999955,"y":2553908.3000000007}},{"attributes":{"ID":196625,"DIS_CODE":0,"TOWNNAME":"南區","LI":"大恩里","LIN":"18鄰","STREET":"國民路","SECT":" ","MAREA":" ","LANE":"１６５巷","ALLEY":"２１弄","HOUSE_NO":"２０號","E_COORD97":169241.94,"N_COORD97":2540786.7400000002,"ADDRESS":"國民路１６５巷２１弄２０號","OBJECTID":196624},"geometry":{"x":169241.94000000134,"y":2540786.7400000002}},{"attributes":{"ID":196626,"DIS_CODE":0,"TOWNNAME":"南區","LI":"大恩里","LIN":"18鄰","STREET":"國民路","SECT":" ","MAREA":" ","LANE":"１６５巷","ALLEY":"２１弄","HOUSE_NO":"２４號","E_COORD97":169253.64000000001,"N_COORD97":2540784.1299999999,"ADDRESS":"國民路１６５巷２１弄２４號","OBJECTID":196625},"geometry":{"x":169253.6400000006,"y":2540784.129999999}},{"attributes":{"ID":196627,"DIS_CODE":0,"TOWNNAME":"山上區","LI":"新莊里","LIN":"3鄰","STREET":" ","SECT":" ","MAREA":"新庄","LANE":" ","ALLEY":" ","HOUSE_NO":"３４號","E_COORD97":184858.95999999999,"N_COORD97":2555334.25,"ADDRESS":"新庄３４號","OBJECTID":196626},"geometry":{"x":184858.96000000089,"y":2555334.2500000019}},{"attributes":{"ID":196628,"DIS_CODE":0,"TOWNNAME":"南區","LI":"大恩里","LIN":"18鄰","STREET":"國民路","SECT":" ","MAREA":" ","LANE":"１６５巷","ALLEY":"２１弄","HOUSE_NO":"２號","E_COORD97":169189.07000000001,"N_COORD97":2540799.9199999999,"ADDRESS":"國民路１６５巷２１弄２號","OBJECTID":196627},"geometry":{"x":169189.0700000003,"y":2540799.9199999999}},{"attributes":{"ID":196629,"DIS_CODE":0,"TOWNNAME":"南區","LI":"大恩里","LIN":"18鄰","STREET":"國民路","SECT":" ","MAREA":" ","LANE":"１６５巷","ALLEY":"２１弄","HOUSE_NO":"６號","E_COORD97":169200.78,"N_COORD97":2540797.5600000001,"ADDRESS":"國民路１６５巷２１弄６號","OBJECTID":196628},"geometry":{"x":169200.78000000119,"y":2540797.5600000024}},{"attributes":{"ID":196630,"DIS_CODE":0,"TOWNNAME":"新營區","LI":"新北里","LIN":"18鄰","STREET":"金華路","SECT":"二段","MAREA":" ","LANE":"１巷","ALLEY":"２弄","HOUSE_NO":"１１號","E_COORD97":178984.04999999999,"N_COORD97":2578979.5600000001,"ADDRESS":"金華路二段１巷２弄１１號","OBJECTID":196629},"geometry":{"x":178984.05000000168,"y":2578979.5600000024}},{"attributes":{"ID":196631,"DIS_CODE":0,"TOWNNAME":"山上區","LI":"山上里","LIN":"3鄰","STREET":" ","SECT":" ","MAREA":"山上","LANE":" ","ALLEY":" ","HOUSE_NO":"７４號","E_COORD97":184311.85999999999,"N_COORD97":2555616.25,"ADDRESS":"山上７４號","OBJECTID":196630},"geometry":{"x":184311.86000000034,"y":2555616.25}},{"attributes":{"ID":196632,"DIS_CODE":0,"TOWNNAME":"山上區","LI":"平陽里","LIN":"3鄰","STREET":" ","SECT":" ","MAREA":"石子崎","LANE":" ","ALLEY":" ","HOUSE_NO":"２８號","E_COORD97":186599.52944799999,"N_COORD97":2553956.9551200001,"ADDRESS":"石子崎２８號","OBJECTID":196631},"geometry":{"x":186599.52944799978,"y":2553956.955120001}},{"attributes":{"ID":196633,"DIS_CODE":0,"TOWNNAME":"新營區","LI":"新東里","LIN":"18鄰","STREET":"東興四街","SECT":" ","MAREA":" ","LANE":"３２巷","ALLEY":"１２弄","HOUSE_NO":"８號","E_COORD97":180866.60999999999,"N_COORD97":2579134.54,"ADDRESS":"東興四街３２巷１２弄８號","OBJECTID":196632},"geometry":{"x":180866.61000000127,"y":2579134.540000001}},{"attributes":{"ID":196634,"DIS_CODE":0,"TOWNNAME":"南區","LI":"大恩里","LIN":"18鄰","STREET":"國民路","SECT":" ","MAREA":" ","LANE":"１６５巷","ALLEY":"３５弄","HOUSE_NO":"１０號","E_COORD97":169213.34,"N_COORD97":2540759.6400000001,"ADDRESS":"國民路１６５巷３５弄１０號","OBJECTID":196633},"geometry":{"x":169213.34000000078,"y":2540759.6400000025}},{"attributes":{"ID":196635,"DIS_CODE":0,"TOWNNAME":"南區","LI":"文南里","LIN":"21鄰","STREET":"健康路","SECT":"二段","MAREA":" ","LANE":"４８９巷","ALLEY":" ","HOUSE_NO":"１號","E_COORD97":166332.92000000001,"N_COORD97":2542518,"ADDRESS":"健康路二段４８９巷１號","OBJECTID":196634},"geometry":{"x":166332.92000000086,"y":2542518}},{"attributes":{"ID":196636,"DIS_CODE":0,"TOWNNAME":"山上區","LI":"山上里","LIN":"3鄰","STREET":" ","SECT":" ","MAREA":"山上","LANE":" ","ALLEY":" ","HOUSE_NO":"７８號","E_COORD97":184289.45999999999,"N_COORD97":2555608.25,"ADDRESS":"山上７８號","OBJECTID":196635},"geometry":{"x":184289.46000000089,"y":2555608.2500000019}},{"attributes":{"ID":196637,"DIS_CODE":0,"TOWNNAME":"永康區","LI":"西勢里","LIN":"21鄰","STREET":"富強路","SECT":"一段","MAREA":" ","LANE":" ","ALLEY":" ","HOUSE_NO":"９５號","E_COORD97":175476.26999999999,"N_COORD97":2546198.6899999999,"ADDRESS":"富強路一段９５號","OBJECTID":196636},"geometry":{"x":175476.26999999955,"y":2546198.6899999995}},{"attributes":{"ID":196638,"DIS_CODE":0,"TOWNNAME":"永康區","LI":"西勢里","LIN":"21鄰","STREET":"富強路","SECT":"一段","MAREA":" ","LANE":" ","ALLEY":" ","HOUSE_NO":"１２１號","E_COORD97":175507.94,"N_COORD97":2546249.77,"ADDRESS":"富強路一段１２１號","OBJECTID":196637},"geometry":{"x":175507.94000000041,"y":2546249.7700000014}},{"attributes":{"ID":196639,"DIS_CODE":0,"TOWNNAME":"永康區","LI":"西勢里","LIN":"21鄰","STREET":"富強路","SECT":"一段","MAREA":" ","LANE":" ","ALLEY":" ","HOUSE_NO":"１０９號","E_COORD97":175494,"N_COORD97":2546224.7799999998,"ADDRESS":"富強路一段１０９號","OBJECTID":196638},"geometry":{"x":175494,"y":2546224.7799999993}},{"attributes":{"ID":196640,"DIS_CODE":0,"TOWNNAME":"永康區","LI":"西勢里","LIN":"21鄰","STREET":"富強路","SECT":"一段","MAREA":" ","LANE":" ","ALLEY":" ","HOUSE_NO":"１１５號","E_COORD97":175500.70999999999,"N_COORD97":2546237.0299999998,"ADDRESS":"富強路一段１１５號","OBJECTID":196639},"geometry":{"x":175500.70999999996,"y":2546237.0299999975}},{"attributes":{"ID":196641,"DIS_CODE":0,"TOWNNAME":"南區","LI":"大恩里","LIN":"18鄰","STREET":"國民路","SECT":" ","MAREA":" ","LANE":"１６５巷","ALLEY":"３５弄","HOUSE_NO":"１１號","E_COORD97":169215.06,"N_COORD97":2540781.0699999998,"ADDRESS":"國民路１６５巷３５弄１１號","OBJECTID":196640},"geometry":{"x":169215.06000000052,"y":2540781.0700000022}},{"attributes":{"ID":196642,"DIS_CODE":0,"TOWNNAME":"山上區","LI":"平陽里","LIN":"3鄰","STREET":" ","SECT":" ","MAREA":"石子崎","LANE":" ","ALLEY":" ","HOUSE_NO":"３３之１號","E_COORD97":186639.36143200001,"N_COORD97":2553959.7067800001,"ADDRESS":"石子崎３３之１號","OBJECTID":196641},"geometry":{"x":186639.36143200099,"y":2553959.7067850009}},{"attributes":{"ID":196643,"DIS_CODE":0,"TOWNNAME":"南區","LI":"大恩里","LIN":"18鄰","STREET":"國民路","SECT":" ","MAREA":" ","LANE":"１６５巷","ALLEY":"３５弄","HOUSE_NO":"１２號","E_COORD97":169218.38,"N_COORD97":2540754.9199999999,"ADDRESS":"國民路１６５巷３５弄１２號","OBJECTID":196642},"geometry":{"x":169218.38000000082,"y":2540754.9199999999}},{"attributes":{"ID":196644,"DIS_CODE":0,"TOWNNAME":"山上區","LI":"南洲里","LIN":"3鄰","STREET":" ","SECT":" ","MAREA":"南洲","LANE":" ","ALLEY":" ","HOUSE_NO":"６２號","E_COORD97":183903.48999999999,"N_COORD97":2555709.25,"ADDRESS":"南洲６２號","OBJECTID":196643},"geometry":{"x":183903.49000000022,"y":2555709.2500000037}},{"attributes":{"ID":196645,"DIS_CODE":0,"TOWNNAME":"山上區","LI":"玉\u25A0里","LIN":"3鄰","STREET":" ","SECT":" ","MAREA":"蚵\u25A0潭","LANE":" ","ALLEY":" ","HOUSE_NO":"３３號","E_COORD97":187434.42000000001,"N_COORD97":2555605.25,"ADDRESS":"蚵\u25A0潭３３號","OBJECTID":196644},"geometry":{"x":187434.42000000086,"y":2555605.2500000019}},{"attributes":{"ID":196646,"DIS_CODE":0,"TOWNNAME":"山上區","LI":"山上里","LIN":"3鄰","STREET":" ","SECT":" ","MAREA":"山上","LANE":" ","ALLEY":" ","HOUSE_NO":"６８號","E_COORD97":184344.76000000001,"N_COORD97":2555636.25,"ADDRESS":"山上６８號","OBJECTID":196645},"geometry":{"x":184344.76000000071,"y":2555636.2500000019}},{"attributes":{"ID":196647,"DIS_CODE":0,"TOWNNAME":"山上區","LI":"新莊里","LIN":"3鄰","STREET":" ","SECT":" ","MAREA":"新庄","LANE":" ","ALLEY":" ","HOUSE_NO":"２９號","E_COORD97":184759.26000000001,"N_COORD97":2555406.25,"ADDRESS":"新庄２９號","OBJECTID":196646},"geometry":{"x":184759.25999999978,"y":2555406.25}},{"attributes":{"ID":196648,"DIS_CODE":0,"TOWNNAME":"永康區","LI":"安康里","LIN":"21鄰","STREET":"中華路","SECT":" ","MAREA":" ","LANE":" ","ALLEY":" ","HOUSE_NO":"６７５號之１","E_COORD97":170965.89999999999,"N_COORD97":2546258.79,"ADDRESS":"中華路６７５號之１","OBJECTID":196647},"geometry":{"x":170965.9000000013,"y":2546258.7899999972}},{"attributes":{"ID":196649,"DIS_CODE":0,"TOWNNAME":"山上區","LI":"南洲里","LIN":"3鄰","STREET":" ","SECT":" ","MAREA":"南洲","LANE":" ","ALLEY":" ","HOUSE_NO":"６０號","E_COORD97":183911.48999999999,"N_COORD97":2555706.25,"ADDRESS":"南洲６０號","OBJECTID":196648},"geometry":{"x":183911.49000000115,"y":2555706.2500000019}},{"attributes":{"ID":196650,"DIS_CODE":0,"TOWNNAME":"南區","LI":"大恩里","LIN":"18鄰","STREET":"國民路","SECT":" ","MAREA":" ","LANE":"１６５巷","ALLEY":"３５弄","HOUSE_NO":"１３號","E_COORD97":169221.17999999999,"N_COORD97":2540779.6699999999,"ADDRESS":"國民路１６５巷３５弄１３號","OBJECTID":196649},"geometry":{"x":169221.18000000063,"y":2540779.6700000018}},{"attributes":{"ID":196651,"DIS_CODE":0,"TOWNNAME":"南區","LI":"大恩里","LIN":"18鄰","STREET":"國民路","SECT":" ","MAREA":" ","LANE":"１６５巷","ALLEY":"３５弄","HOUSE_NO":"１４號","E_COORD97":169221.92999999999,"N_COORD97":2540754.9199999999,"ADDRESS":"國民路１６５巷３５弄１４號","OBJECTID":196650},"geometry":{"x":169221.9299999997,"y":2540754.9199999999}},{"attributes":{"ID":196652,"DIS_CODE":0,"TOWNNAME":"南區","LI":"大恩里","LIN":"18鄰","STREET":"國民路","SECT":" ","MAREA":" ","LANE":"１６５巷","ALLEY":"３５弄","HOUSE_NO":"１５號","E_COORD97":169226.54000000001,"N_COORD97":2540777.5299999998,"ADDRESS":"國民路１６５巷３５弄１５號","OBJECTID":196651},"geometry":{"x":169226.54000000004,"y":2540777.5299999993}},{"attributes":{"ID":196653,"DIS_CODE":0,"TOWNNAME":"山上區","LI":"南洲里","LIN":"3鄰","STREET":" ","SECT":" ","MAREA":"南洲","LANE":" ","ALLEY":" ","HOUSE_NO":"６１號","E_COORD97":183907.48999999999,"N_COORD97":2555707.25,"ADDRESS":"南洲６１號","OBJECTID":196652},"geometry":{"x":183907.49000000022,"y":2555707.2500000019}},{"attributes":{"ID":196654,"DIS_CODE":0,"TOWNNAME":"南區","LI":"大恩里","LIN":"18鄰","STREET":"國民路","SECT":" ","MAREA":" ","LANE":"１６５巷","ALLEY":"３５弄","HOUSE_NO":"１６號","E_COORD97":169227.56,"N_COORD97":2540754.3700000001,"ADDRESS":"國民路１６５巷３５弄１６號","OBJECTID":196653},"geometry":{"x":169227.55999999959,"y":2540754.3699999992}},{"attributes":{"ID":196655,"DIS_CODE":0,"TOWNNAME":"山上區","LI":"明和里","LIN":"3鄰","STREET":" ","SECT":" ","MAREA":"明和","LANE":" ","ALLEY":" ","HOUSE_NO":"２７２號","E_COORD97":182786.04000000001,"N_COORD97":2556771.25,"ADDRESS":"明和２７２號","OBJECTID":196654},"geometry":{"x":182786.04000000004,"y":2556771.2500000019}},{"attributes":{"ID":196656,"DIS_CODE":0,"TOWNNAME":"山上區","LI":"南洲里","LIN":"3鄰","STREET":" ","SECT":" ","MAREA":"南洲","LANE":" ","ALLEY":" ","HOUSE_NO":"６４號","E_COORD97":183895.19,"N_COORD97":2555711.25,"ADDRESS":"南洲６４號","OBJECTID":196655},"geometry":{"x":183895.19000000134,"y":2555711.25}},{"attributes":{"ID":196657,"DIS_CODE":0,"TOWNNAME":"永康區","LI":"西勢里","LIN":"21鄰","STREET":"富強路","SECT":"一段","MAREA":" ","LANE":" ","ALLEY":" ","HOUSE_NO":"８號","E_COORD97":175392.64000000001,"N_COORD97":2545997.1200000001,"ADDRESS":"富強路一段８號","OBJECTID":196656},"geometry":{"x":175392.63999999966,"y":2545997.120000001}},{"attributes":{"ID":196658,"DIS_CODE":0,"TOWNNAME":"山上區","LI":"南洲里","LIN":"3鄰","STREET":" ","SECT":" ","MAREA":"南洲","LANE":" ","ALLEY":" ","HOUSE_NO":"５３號","E_COORD97":183949.59,"N_COORD97":2555685.25,"ADDRESS":"南洲５３號","OBJECTID":196657},"geometry":{"x":183949.59000000078,"y":2555685.2499999981}},{"attributes":{"ID":196659,"DIS_CODE":0,"TOWNNAME":"南區","LI":"大恩里","LIN":"18鄰","STREET":"國民路","SECT":" ","MAREA":" ","LANE":"１６５巷","ALLEY":"３５弄","HOUSE_NO":"１７號","E_COORD97":169232.70999999999,"N_COORD97":2540775.4700000002,"ADDRESS":"國民路１６５巷３５弄１７號","OBJECTID":196658},"geometry":{"x":169232.71000000089,"y":2540775.4700000025}},{"attributes":{"ID":196660,"DIS_CODE":0,"TOWNNAME":"山上區","LI":"南洲里","LIN":"3鄰","STREET":" ","SECT":" ","MAREA":"南洲","LANE":" ","ALLEY":" ","HOUSE_NO":"５５號之１","E_COORD97":183934.92000000001,"N_COORD97":2555699.2999999998,"ADDRESS":"南洲５５號之１","OBJECTID":196659},"geometry":{"x":183934.92000000179,"y":2555699.2999999989}},{"attributes":{"ID":196661,"DIS_CODE":0,"TOWNNAME":"山上區","LI":"明和里","LIN":"3鄰","STREET":" ","SECT":" ","MAREA":"明和","LANE":" ","ALLEY":" ","HOUSE_NO":"２７３號","E_COORD97":182733.64000000001,"N_COORD97":2556817.25,"ADDRESS":"明和２７３號","OBJECTID":196660},"geometry":{"x":182733.6400000006,"y":2556817.25}},{"attributes":{"ID":196662,"DIS_CODE":0,"TOWNNAME":"山上區","LI":"南洲里","LIN":"3鄰","STREET":" ","SECT":" ","MAREA":"南洲","LANE":" ","ALLEY":" ","HOUSE_NO":"５８號","E_COORD97":183919.48999999999,"N_COORD97":2555704.25,"ADDRESS":"南洲５８號","OBJECTID":196661},"geometry":{"x":183919.49000000209,"y":2555704.25}},{"attributes":{"ID":196663,"DIS_CODE":0,"TOWNNAME":"山上區","LI":"明和里","LIN":"3鄰","STREET":" ","SECT":" ","MAREA":"明和","LANE":" ","ALLEY":" ","HOUSE_NO":"２７５號","E_COORD97":182677.04000000001,"N_COORD97":2556884.25,"ADDRESS":"明和２７５號","OBJECTID":196662},"geometry":{"x":182677.04000000097,"y":2556884.25}},{"attributes":{"ID":196664,"DIS_CODE":0,"TOWNNAME":"山上區","LI":"南洲里","LIN":"3鄰","STREET":" ","SECT":" ","MAREA":"南洲","LANE":" ","ALLEY":" ","HOUSE_NO":"６９號","E_COORD97":183874.19,"N_COORD97":2555720.25,"ADDRESS":"南洲６９號","OBJECTID":196663},"geometry":{"x":183874.18999999948,"y":2555720.2500000019}},{"attributes":{"ID":196665,"DIS_CODE":0,"TOWNNAME":"山上區","LI":"南洲里","LIN":"3鄰","STREET":" ","SECT":" ","MAREA":"南洲","LANE":" ","ALLEY":" ","HOUSE_NO":"５４號","E_COORD97":183942.98999999999,"N_COORD97":2555695.25,"ADDRESS":"南洲５４號","OBJECTID":196664},"geometry":{"x":183942.99000000022,"y":2555695.25}},{"attributes":{"ID":196666,"DIS_CODE":0,"TOWNNAME":"山上區","LI":"南洲里","LIN":"3鄰","STREET":" ","SECT":" ","MAREA":"南洲","LANE":" ","ALLEY":" ","HOUSE_NO":"６６號","E_COORD97":183887.79000000001,"N_COORD97":2555716.25,"ADDRESS":"南洲６６號","OBJECTID":196665},"geometry":{"x":183887.79000000004,"y":2555716.2500000019}},{"attributes":{"ID":196667,"DIS_CODE":0,"TOWNNAME":"山上區","LI":"南洲里","LIN":"3鄰","STREET":" ","SECT":" ","MAREA":"南洲","LANE":" ","ALLEY":" ","HOUSE_NO":"７１號","E_COORD97":183862.09,"N_COORD97":2555724.25,"ADDRESS":"南洲７１號","OBJECTID":196666},"geometry":{"x":183862.08999999985,"y":2555724.2500000019}},{"attributes":{"ID":196668,"DIS_CODE":0,"TOWNNAME":"山上區","LI":"南洲里","LIN":"3鄰","STREET":" ","SECT":" ","MAREA":"南洲","LANE":" ","ALLEY":" ","HOUSE_NO":"５６號","E_COORD97":183925.79000000001,"N_COORD97":2555701.25,"ADDRESS":"南洲５６號","OBJECTID":196667},"geometry":{"x":183925.7900000019,"y":2555701.25}},{"attributes":{"ID":196669,"DIS_CODE":0,"TOWNNAME":"山上區","LI":"明和里","LIN":"3鄰","STREET":" ","SECT":" ","MAREA":"明和","LANE":" ","ALLEY":" ","HOUSE_NO":"１０５號","E_COORD97":183179.64000000001,"N_COORD97":2556284.25,"ADDRESS":"明和１０５號","OBJECTID":196668},"geometry":{"x":183179.6400000006,"y":2556284.25}},{"attributes":{"ID":196670,"DIS_CODE":0,"TOWNNAME":"山上區","LI":"明和里","LIN":"3鄰","STREET":" ","SECT":" ","MAREA":"明和","LANE":" ","ALLEY":" ","HOUSE_NO":"１０２之３號","E_COORD97":183151.34,"N_COORD97":2556303.2999999998,"ADDRESS":"明和１０２之３號","OBJECTID":196669},"geometry":{"x":183151.34000000078,"y":2556303.3000000026}},{"attributes":{"ID":196671,"DIS_CODE":0,"TOWNNAME":"南區","LI":"大恩里","LIN":"18鄰","STREET":"國民路","SECT":" ","MAREA":" ","LANE":"１６５巷","ALLEY":"３５弄","HOUSE_NO":"１８號","E_COORD97":169234.42999999999,"N_COORD97":2540754.7999999998,"ADDRESS":"國民路１６５巷３５弄１８號","OBJECTID":196670},"geometry":{"x":169234.43000000063,"y":2540754.8000000045}},{"attributes":{"ID":196672,"DIS_CODE":0,"TOWNNAME":"南區","LI":"大恩里","LIN":"18鄰","STREET":"國民路","SECT":" ","MAREA":" ","LANE":"１６５巷","ALLEY":"３５弄","HOUSE_NO":"１９號","E_COORD97":169238.07000000001,"N_COORD97":2540773.8599999999,"ADDRESS":"國民路１６５巷３５弄１９號","OBJECTID":196671},"geometry":{"x":169238.0700000003,"y":2540773.8600000013}},{"attributes":{"ID":196673,"DIS_CODE":0,"TOWNNAME":"山上區","LI":"平陽里","LIN":"3鄰","STREET":" ","SECT":" ","MAREA":"石子崎","LANE":" ","ALLEY":" ","HOUSE_NO":"３１號","E_COORD97":186628.82000000001,"N_COORD97":2553936.25,"ADDRESS":"石子崎３１號","OBJECTID":196672},"geometry":{"x":186628.82000000123,"y":2553936.2500000037}},{"attributes":{"ID":196674,"DIS_CODE":0,"TOWNNAME":"南區","LI":"大恩里","LIN":"18鄰","STREET":"國民路","SECT":" ","MAREA":" ","LANE":"１６５巷","ALLEY":"３５弄","HOUSE_NO":"１號","E_COORD97":169186.82000000001,"N_COORD97":2540788.8999999999,"ADDRESS":"國民路１６５巷３５弄１號","OBJECTID":196673},"geometry":{"x":169186.82000000123,"y":2540788.9000000022}},{"attributes":{"ID":196675,"DIS_CODE":0,"TOWNNAME":"永康區","LI":"西勢里","LIN":"21鄰","STREET":"富強路","SECT":"一段","MAREA":" ","LANE":" ","ALLEY":" ","HOUSE_NO":"３０號","E_COORD97":175416.67999999999,"N_COORD97":2546038.3700000001,"ADDRESS":"富強路一段３０號","OBJECTID":196674},"geometry":{"x":175416.68000000063,"y":2546038.3700000029}},{"attributes":{"ID":196676,"DIS_CODE":0,"TOWNNAME":"南區","LI":"大恩里","LIN":"18鄰","STREET":"國民路","SECT":" ","MAREA":" ","LANE":"１６５巷","ALLEY":"３５弄","HOUSE_NO":"２０號","E_COORD97":169242.04999999999,"N_COORD97":2540754.1499999999,"ADDRESS":"國民路１６５巷３５弄２０號","OBJECTID":196675},"geometry":{"x":169242.05000000075,"y":2540754.1500000004}},{"attributes":{"ID":196677,"DIS_CODE":0,"TOWNNAME":"南區","LI":"大恩里","LIN":"18鄰","STREET":"國民路","SECT":" ","MAREA":" ","LANE":"１６５巷","ALLEY":"３５弄","HOUSE_NO":"２１號","E_COORD97":169244.20000000001,"N_COORD97":2540771.9300000002,"ADDRESS":"國民路１６５巷３５弄２１號","OBJECTID":196676},"geometry":{"x":169244.20000000019,"y":2540771.9299999997}},{"attributes":{"ID":196678,"DIS_CODE":0,"TOWNNAME":"南區","LI":"大恩里","LIN":"18鄰","STREET":"國民路","SECT":" ","MAREA":" ","LANE":"１６５巷","ALLEY":"３５弄","HOUSE_NO":"２３號","E_COORD97":169249.89000000001,"N_COORD97":2540770.54,"ADDRESS":"國民路１６５巷３５弄２３號","OBJECTID":196677},"geometry":{"x":169249.8900000006,"y":2540770.5399999991}},{"attributes":{"ID":196679,"DIS_CODE":0,"TOWNNAME":"南區","LI":"大恩里","LIN":"18鄰","STREET":"國民路","SECT":" ","MAREA":" ","LANE":"１６５巷","ALLEY":"３５弄","HOUSE_NO":"２號","E_COORD97":169182.01999999999,"N_COORD97":2540769.6200000001,"ADDRESS":"國民路１６５巷３５弄２號","OBJECTID":196678},"geometry":{"x":169182.01999999955,"y":2540769.6199999992}},{"attributes":{"ID":196680,"DIS_CODE":0,"TOWNNAME":"南區","LI":"大恩里","LIN":"18鄰","STREET":"國民路","SECT":" ","MAREA":" ","LANE":"１６５巷","ALLEY":"３５弄","HOUSE_NO":"３號","E_COORD97":169191.42999999999,"N_COORD97":2540787.8300000001,"ADDRESS":"國民路１６５巷３５弄３號","OBJECTID":196679},"geometry":{"x":169191.4299999997,"y":2540787.8300000038}},{"attributes":{"ID":196681,"DIS_CODE":0,"TOWNNAME":"安定區","LI":"海寮里","LIN":"21鄰","STREET":" ","SECT":" ","MAREA":"海寮","LANE":" ","ALLEY":" ","HOUSE_NO":"１９９號","E_COORD97":169523.94,"N_COORD97":2555534.25,"ADDRESS":"海寮１９９號","OBJECTID":196680},"geometry":{"x":169523.94000000041,"y":2555534.2500000019}},{"attributes":{"ID":196682,"DIS_CODE":0,"TOWNNAME":"南區","LI":"大恩里","LIN":"18鄰","STREET":"國民路","SECT":" ","MAREA":" ","LANE":"１６５巷","ALLEY":"３５弄","HOUSE_NO":"４號之１","E_COORD97":169182.13,"N_COORD97":2540759.21,"ADDRESS":"國民路１６５巷３５弄４號之１","OBJECTID":196681},"geometry":{"x":169182.13000000082,"y":2540759.2100000028}},{"attributes":{"ID":196683,"DIS_CODE":0,"TOWNNAME":"安定區","LI":"海寮里","LIN":"21鄰","STREET":" ","SECT":" ","MAREA":"海寮","LANE":" ","ALLEY":" ","HOUSE_NO":"１９８之８號","E_COORD97":169529.14000000001,"N_COORD97":2555488.2999999998,"ADDRESS":"海寮１９８之８號","OBJECTID":196682},"geometry":{"x":169529.14000000153,"y":2555488.3000000007}},{"attributes":{"ID":196684,"DIS_CODE":0,"TOWNNAME":"南區","LI":"大恩里","LIN":"18鄰","STREET":"國民路","SECT":" ","MAREA":" ","LANE":"１６５巷","ALLEY":"３５弄","HOUSE_NO":"４號之２","E_COORD97":169181.06,"N_COORD97":2540753.4199999999,"ADDRESS":"國民路１６５巷３５弄４號之２","OBJECTID":196683},"geometry":{"x":169181.06000000052,"y":2540753.4200000018}},{"attributes":{"ID":196685,"DIS_CODE":0,"TOWNNAME":"安定區","LI":"港南里","LIN":"21鄰","STREET":" ","SECT":" ","MAREA":"港口","LANE":" ","ALLEY":" ","HOUSE_NO":"１６３號之４","E_COORD97":171404.59,"N_COORD97":2554507.2999999998,"ADDRESS":"港口１６３之４號","OBJECTID":196684},"geometry":{"x":171404.59000000171,"y":2554507.3000000026}},{"attributes":{"ID":196686,"DIS_CODE":0,"TOWNNAME":"安定區","LI":"海寮里","LIN":"21鄰","STREET":" ","SECT":" ","MAREA":"海寮","LANE":" ","ALLEY":" ","HOUSE_NO":"１９８之２號","E_COORD97":169534.54000000001,"N_COORD97":2555466.2999999998,"ADDRESS":"海寮１９８之２號","OBJECTID":196685},"geometry":{"x":169534.54000000004,"y":2555466.3000000026}},{"attributes":{"ID":196687,"DIS_CODE":0,"TOWNNAME":"安定區","LI":"港南里","LIN":"21鄰","STREET":" ","SECT":" ","MAREA":"港口","LANE":" ","ALLEY":" ","HOUSE_NO":"１６５號","E_COORD97":171403.24718400001,"N_COORD97":2554529.88876,"ADDRESS":"港口１６５號","OBJECTID":196686},"geometry":{"x":171403.24718399998,"y":2554529.8887609988}},{"attributes":{"ID":196688,"DIS_CODE":0,"TOWNNAME":"南區","LI":"大恩里","LIN":"18鄰","STREET":"國民路","SECT":" ","MAREA":" ","LANE":"１６５巷","ALLEY":"３５弄","HOUSE_NO":"４號之３","E_COORD97":169179.13,"N_COORD97":2540747.2999999998,"ADDRESS":"國民路１６５巷３５弄４號之３","OBJECTID":196687},"geometry":{"x":169179.13000000082,"y":2540747.3000000007}},{"attributes":{"ID":196689,"DIS_CODE":0,"TOWNNAME":"南區","LI":"大恩里","LIN":"18鄰","STREET":"國民路","SECT":" ","MAREA":" ","LANE":"１６５巷","ALLEY":"３５弄","HOUSE_NO":"４號之４","E_COORD97":169176.54999999999,"N_COORD97":2540741.9399999999,"ADDRESS":"國民路１６５巷３５弄４號之４","OBJECTID":196688},"geometry":{"x":169176.54999999981,"y":2540741.9399999995}},{"attributes":{"ID":196690,"DIS_CODE":0,"TOWNNAME":"永康區","LI":"甲頂里","LIN":"21鄰","STREET":"中正南路","SECT":" ","MAREA":" ","LANE":"５２巷","ALLEY":" ","HOUSE_NO":"１號","E_COORD97":169677.13,"N_COORD97":2546748.3500000001,"ADDRESS":"中正南路５２巷１號","OBJECTID":196689},"geometry":{"x":169677.13000000082,"y":2546748.3500000015}},{"attributes":{"ID":196691,"DIS_CODE":0,"TOWNNAME":"永康區","LI":"永康里","LIN":"21鄰","STREET":"中山南路","SECT":" ","MAREA":" ","LANE":" ","ALLEY":" ","HOUSE_NO":"９７６號","E_COORD97":173569.53,"N_COORD97":2547200.1299999999,"ADDRESS":"中山南路９７６號","OBJECTID":196690},"geometry":{"x":173569.53000000026,"y":2547200.1300000008}},{"attributes":{"ID":196692,"DIS_CODE":0,"TOWNNAME":"永康區","LI":"永康里","LIN":"21鄰","STREET":"中山南路","SECT":" ","MAREA":" ","LANE":" ","ALLEY":" ","HOUSE_NO":"１０３４號","E_COORD97":173683,"N_COORD97":2547274.3500000001,"ADDRESS":"中山南路１０３４號","OBJECTID":196691},"geometry":{"x":173683,"y":2547274.3500000015}},{"attributes":{"ID":196693,"DIS_CODE":0,"TOWNNAME":"安定區","LI":"蘇厝里","LIN":"21鄰","STREET":" ","SECT":" ","MAREA":"蘇厝","LANE":" ","ALLEY":" ","HOUSE_NO":"４８２之１７號","E_COORD97":173219.67000000001,"N_COORD97":2558912.2999999998,"ADDRESS":"蘇厝４８２之１７號","OBJECTID":196692},"geometry":{"x":173219.67000000179,"y":2558912.3000000007}},{"attributes":{"ID":196694,"DIS_CODE":0,"TOWNNAME":"安定區","LI":"蘇厝里","LIN":"21鄰","STREET":" ","SECT":" ","MAREA":"蘇厝","LANE":" ","ALLEY":" ","HOUSE_NO":"４８２之８號","E_COORD97":173219.22,"N_COORD97":2558950.2999999998,"ADDRESS":"蘇厝４８２之８號","OBJECTID":196693},"geometry":{"x":173219.2200000016,"y":2558950.3000000007}},{"attributes":{"ID":196695,"DIS_CODE":0,"TOWNNAME":"新化區","LI":"東榮里","LIN":"21鄰","STREET":"復興路","SECT":" ","MAREA":" ","LANE":" ","ALLEY":" ","HOUSE_NO":"１６７號","E_COORD97":179443.92000000001,"N_COORD97":2547884.25,"ADDRESS":"復興路１６７號","OBJECTID":196694},"geometry":{"x":179443.91999999993,"y":2547884.2500000037}},{"attributes":{"ID":196696,"DIS_CODE":0,"TOWNNAME":"新化區","LI":"東榮里","LIN":"21鄰","STREET":"復興路","SECT":" ","MAREA":" ","LANE":" ","ALLEY":" ","HOUSE_NO":"１７４號","E_COORD97":179444.51999999999,"N_COORD97":2547967.25,"ADDRESS":"復興路１７４號","OBJECTID":196695},"geometry":{"x":179444.51999999955,"y":2547967.2500000019}},{"attributes":{"ID":196697,"DIS_CODE":0,"TOWNNAME":"安定區","LI":"港口里","LIN":"21鄰","STREET":" ","SECT":" ","MAREA":"港口","LANE":" ","ALLEY":" ","HOUSE_NO":"４００之２號","E_COORD97":171563.69,"N_COORD97":2555067.2999999998,"ADDRESS":"港口４００之２號","OBJECTID":196696},"geometry":{"x":171563.69000000041,"y":2555067.3000000007}},{"attributes":{"ID":196698,"DIS_CODE":0,"TOWNNAME":"南區","LI":"大恩里","LIN":"18鄰","STREET":"國民路","SECT":" ","MAREA":" ","LANE":"１６５巷","ALLEY":"３５弄","HOUSE_NO":"５號","E_COORD97":169197.76999999999,"N_COORD97":2540786.54,"ADDRESS":"國民路１６５巷３５弄５號","OBJECTID":196697},"geometry":{"x":169197.77000000048,"y":2540786.540000001}},{"attributes":{"ID":196699,"DIS_CODE":0,"TOWNNAME":"南區","LI":"大恩里","LIN":"18鄰","STREET":"國民路","SECT":" ","MAREA":" ","LANE":"１６５巷","ALLEY":"３５弄","HOUSE_NO":"６號","E_COORD97":169202.06,"N_COORD97":2540763.3900000001,"ADDRESS":"國民路１６５巷３５弄６號","OBJECTID":196698},"geometry":{"x":169202.05999999959,"y":2540763.3900000006}},{"attributes":{"ID":196700,"DIS_CODE":0,"TOWNNAME":"安定區","LI":"海寮里","LIN":"21鄰","STREET":" ","SECT":" ","MAREA":"海寮","LANE":" ","ALLEY":" ","HOUSE_NO":"１９９之５號","E_COORD97":169523.04000000001,"N_COORD97":2555559.2999999998,"ADDRESS":"海寮１９９之５號","OBJECTID":196699},"geometry":{"x":169523.04000000004,"y":2555559.3000000007}},{"attributes":{"ID":196701,"DIS_CODE":0,"TOWNNAME":"安定區","LI":"海寮里","LIN":"21鄰","STREET":" ","SECT":" ","MAREA":"海寮","LANE":" ","ALLEY":" ","HOUSE_NO":"２０１之１７號","E_COORD97":169641.89000000001,"N_COORD97":2556183.2999999998,"ADDRESS":"海寮２０１之１７號","OBJECTID":196700},"geometry":{"x":169641.8900000006,"y":2556183.3000000007}},{"attributes":{"ID":196702,"DIS_CODE":0,"TOWNNAME":"南區","LI":"大恩里","LIN":"18鄰","STREET":"國民路","SECT":" ","MAREA":" ","LANE":"１６５巷","ALLEY":"３５弄","HOUSE_NO":"６號之１","E_COORD97":169205.60999999999,"N_COORD97":2540752.2400000002,"ADDRESS":"國民路１６５巷３５弄６號之１","OBJECTID":196701},"geometry":{"x":169205.61000000034,"y":2540752.2400000021}},{"attributes":{"ID":196703,"DIS_CODE":0,"TOWNNAME":"安定區","LI":"海寮里","LIN":"21鄰","STREET":" ","SECT":" ","MAREA":"海寮","LANE":" ","ALLEY":" ","HOUSE_NO":"２０５號","E_COORD97":169588.23999999999,"N_COORD97":2555487.25,"ADDRESS":"海寮２０５號","OBJECTID":196702},"geometry":{"x":169588.24000000022,"y":2555487.25}},{"attributes":{"ID":196704,"DIS_CODE":0,"TOWNNAME":"安定區","LI":"蘇林里","LIN":"21鄰","STREET":" ","SECT":" ","MAREA":"蘇厝","LANE":" ","ALLEY":" ","HOUSE_NO":"２４５之１號","E_COORD97":173274.12,"N_COORD97":2558750.2999999998,"ADDRESS":"蘇厝２４５之１號","OBJECTID":196703},"geometry":{"x":173274.12000000011,"y":2558750.3000000007}},{"attributes":{"ID":196705,"DIS_CODE":0,"TOWNNAME":"南區","LI":"大恩里","LIN":"18鄰","STREET":"國民路","SECT":" ","MAREA":" ","LANE":"１６５巷","ALLEY":"３５弄","HOUSE_NO":"６號之２","E_COORD97":169202.06,"N_COORD97":2540746.8700000001,"ADDRESS":"國民路１６５巷３５弄６號之２","OBJECTID":196704},"geometry":{"x":169202.05999999959,"y":2540746.870000001}},{"attributes":{"ID":196706,"DIS_CODE":0,"TOWNNAME":"南區","LI":"大恩里","LIN":"18鄰","STREET":"國民路","SECT":" ","MAREA":" ","LANE":"１６５巷","ALLEY":"３５弄","HOUSE_NO":"７號","E_COORD97":169203.78,"N_COORD97":2540784.8199999998,"ADDRESS":"國民路１６５巷３５弄７號","OBJECTID":196705},"geometry":{"x":169203.78000000119,"y":2540784.820000004}},{"attributes":{"ID":196707,"DIS_CODE":0,"TOWNNAME":"南區","LI":"大恩里","LIN":"18鄰","STREET":"國民路","SECT":" ","MAREA":" ","LANE":"１６５巷","ALLEY":"３５弄","HOUSE_NO":"８號","E_COORD97":169207.75,"N_COORD97":2540761.1400000001,"ADDRESS":"國民路１６５巷３５弄８號","OBJECTID":196706},"geometry":{"x":169207.75,"y":2540761.1400000006}},{"attributes":{"ID":196708,"DIS_CODE":0,"TOWNNAME":"南區","LI":"大恩里","LIN":"18鄰","STREET":"國民路","SECT":" ","MAREA":" ","LANE":"１６５巷","ALLEY":"３５弄","HOUSE_NO":"９號","E_COORD97":169208.92999999999,"N_COORD97":2540783.21,"ADDRESS":"國民路１６５巷３５弄９號","OBJECTID":196707},"geometry":{"x":169208.93000000063,"y":2540783.2100000028}},{"attributes":{"ID":196709,"DIS_CODE":0,"TOWNNAME":"南區","LI":"省躬里","LIN":"18鄰","STREET":"灣裡路","SECT":" ","MAREA":" ","LANE":"８８巷","ALLEY":"３６弄","HOUSE_NO":"１０號","E_COORD97":165805.10999999999,"N_COORD97":2536845.2200000002,"ADDRESS":"灣裡路８８巷３６弄１０號","OBJECTID":196708},"geometry":{"x":165805.11000000034,"y":2536845.2200000007}},{"attributes":{"ID":196710,"DIS_CODE":0,"TOWNNAME":"南區","LI":"省躬里","LIN":"18鄰","STREET":"灣裡路","SECT":" ","MAREA":" ","LANE":"８８巷","ALLEY":"３６弄","HOUSE_NO":"１１號","E_COORD97":165804.01999999999,"N_COORD97":2536812.7799999998,"ADDRESS":"灣裡路８８巷３６弄１１號","OBJECTID":196709},"geometry":{"x":165804.02000000048,"y":2536812.7799999993}},{"attributes":{"ID":196711,"DIS_CODE":0,"TOWNNAME":"南區","LI":"省躬里","LIN":"18鄰","STREET":"灣裡路","SECT":" ","MAREA":" ","LANE":"８８巷","ALLEY":"３６弄","HOUSE_NO":"１２號","E_COORD97":165800.48000000001,"N_COORD97":2536846.0299999998,"ADDRESS":"灣裡路８８巷３６弄１２號","OBJECTID":196710},"geometry":{"x":165800.48000000138,"y":2536846.0300000031}},{"attributes":{"ID":196712,"DIS_CODE":0,"TOWNNAME":"南區","LI":"省躬里","LIN":"18鄰","STREET":"灣裡路","SECT":" ","MAREA":" ","LANE":"８８巷","ALLEY":"３６弄","HOUSE_NO":"１３號","E_COORD97":165799.66,"N_COORD97":2536814.9500000002,"ADDRESS":"灣裡路８８巷３６弄１３號","OBJECTID":196711},"geometry":{"x":165799.66000000015,"y":2536814.9499999993}},{"attributes":{"ID":196713,"DIS_CODE":0,"TOWNNAME":"南區","LI":"省躬里","LIN":"18鄰","STREET":"灣裡路","SECT":" ","MAREA":" ","LANE":"８８巷","ALLEY":"３６弄","HOUSE_NO":"１４號","E_COORD97":165796.94,"N_COORD97":2536843.3100000001,"ADDRESS":"灣裡路８８巷３６弄１４號","OBJECTID":196712},"geometry":{"x":165796.94000000134,"y":2536843.3100000024}},{"attributes":{"ID":196714,"DIS_CODE":0,"TOWNNAME":"南區","LI":"省躬里","LIN":"18鄰","STREET":"灣裡路","SECT":" ","MAREA":" ","LANE":"８８巷","ALLEY":"３６弄","HOUSE_NO":"１５號","E_COORD97":165795.57000000001,"N_COORD97":2536811.6899999999,"ADDRESS":"灣裡路８８巷３６弄１５號","OBJECTID":196713},"geometry":{"x":165795.5700000003,"y":2536811.6900000013}},{"attributes":{"ID":196715,"DIS_CODE":0,"TOWNNAME":"南區","LI":"省躬里","LIN":"18鄰","STREET":"灣裡路","SECT":" ","MAREA":" ","LANE":"８８巷","ALLEY":"３６弄","HOUSE_NO":"１６號","E_COORD97":165792.85000000001,"N_COORD97":2536841.1400000001,"ADDRESS":"灣裡路８８巷３６弄１６號","OBJECTID":196714},"geometry":{"x":165792.84999999963,"y":2536841.1400000025}},{"attributes":{"ID":196716,"DIS_CODE":0,"TOWNNAME":"南區","LI":"省躬里","LIN":"18鄰","STREET":"灣裡路","SECT":" ","MAREA":" ","LANE":"８８巷","ALLEY":"３６弄","HOUSE_NO":"１７號","E_COORD97":165791.76000000001,"N_COORD97":2536813.8599999999,"ADDRESS":"灣裡路８８巷３６弄１７號","OBJECTID":196715},"geometry":{"x":165791.75999999978,"y":2536813.8600000013}},{"attributes":{"ID":196717,"DIS_CODE":0,"TOWNNAME":"南區","LI":"省躬里","LIN":"18鄰","STREET":"灣裡路","SECT":" ","MAREA":" ","LANE":"８８巷","ALLEY":"３６弄","HOUSE_NO":"１８號","E_COORD97":165788.76999999999,"N_COORD97":2536838.6899999999,"ADDRESS":"灣裡路８８巷３６弄１８號","OBJECTID":196716},"geometry":{"x":165788.77000000048,"y":2536838.6900000013}},{"attributes":{"ID":196718,"DIS_CODE":0,"TOWNNAME":"南區","LI":"省躬里","LIN":"18鄰","STREET":"灣裡路","SECT":" ","MAREA":" ","LANE":"８８巷","ALLEY":"３６弄","HOUSE_NO":"１９號","E_COORD97":165786.85999999999,"N_COORD97":2536814.4100000001,"ADDRESS":"灣裡路８８巷３６弄１９號","OBJECTID":196717},"geometry":{"x":165786.86000000034,"y":2536814.410000002}},{"attributes":{"ID":196719,"DIS_CODE":0,"TOWNNAME":"南區","LI":"省躬里","LIN":"18鄰","STREET":"灣裡路","SECT":" ","MAREA":" ","LANE":"８８巷","ALLEY":"３６弄","HOUSE_NO":"２０號","E_COORD97":165785.5,"N_COORD97":2536837.0600000001,"ADDRESS":"灣裡路８８巷３６弄２０號","OBJECTID":196718},"geometry":{"x":165785.5,"y":2536837.0600000042}},{"attributes":{"ID":196720,"DIS_CODE":0,"TOWNNAME":"南區","LI":"省躬里","LIN":"18鄰","STREET":"灣裡路","SECT":" ","MAREA":" ","LANE":"８８巷","ALLEY":"３６弄","HOUSE_NO":"２１號","E_COORD97":165782.76999999999,"N_COORD97":2536812.23,"ADDRESS":"灣裡路８８巷３６弄２１號","OBJECTID":196719},"geometry":{"x":165782.76999999955,"y":2536812.2300000023}},{"attributes":{"ID":196721,"DIS_CODE":0,"TOWNNAME":"南區","LI":"省躬里","LIN":"18鄰","STREET":"灣裡路","SECT":" ","MAREA":" ","LANE":"８８巷","ALLEY":"３６弄","HOUSE_NO":"２２號","E_COORD97":165780.60000000001,"N_COORD97":2536841.9500000002,"ADDRESS":"灣裡路８８巷３６弄２２號","OBJECTID":196720},"geometry":{"x":165780.59999999963,"y":2536841.9499999993}},{"attributes":{"ID":196722,"DIS_CODE":0,"TOWNNAME":"南區","LI":"省躬里","LIN":"18鄰","STREET":"灣裡路","SECT":" ","MAREA":" ","LANE":"８８巷","ALLEY":"３６弄","HOUSE_NO":"２３號","E_COORD97":165778.14000000001,"N_COORD97":2536813.5899999999,"ADDRESS":"灣裡路８８巷３６弄２３號","OBJECTID":196721},"geometry":{"x":165778.1400000006,"y":2536813.5900000017}},{"attributes":{"ID":196723,"DIS_CODE":0,"TOWNNAME":"南區","LI":"省躬里","LIN":"18鄰","STREET":"灣裡路","SECT":" ","MAREA":" ","LANE":"８８巷","ALLEY":"３６弄","HOUSE_NO":"２４號","E_COORD97":165776.23999999999,"N_COORD97":2536840.0499999998,"ADDRESS":"灣裡路８８巷３６弄２４號","OBJECTID":196722},"geometry":{"x":165776.24000000115,"y":2536840.0500000007}},{"attributes":{"ID":196724,"DIS_CODE":0,"TOWNNAME":"山上區","LI":"新莊里","LIN":"3鄰","STREET":" ","SECT":" ","MAREA":"新庄","LANE":" ","ALLEY":" ","HOUSE_NO":"３１號","E_COORD97":184818.56,"N_COORD97":2555356.25,"ADDRESS":"新庄３１號","OBJECTID":196723},"geometry":{"x":184818.56000000145,"y":2555356.25}},{"attributes":{"ID":196725,"DIS_CODE":0,"TOWNNAME":"山上區","LI":"玉\u25A0里","LIN":"3鄰","STREET":" ","SECT":" ","MAREA":"蚵\u25A0潭","LANE":" ","ALLEY":" ","HOUSE_NO":"３７號","E_COORD97":187417.12,"N_COORD97":2555537.25,"ADDRESS":"蚵\u25A0潭３７號","OBJECTID":196724},"geometry":{"x":187417.12000000011,"y":2555537.2500000019}},{"attributes":{"ID":196726,"DIS_CODE":0,"TOWNNAME":"山上區","LI":"玉\u25A0里","LIN":"3鄰","STREET":" ","SECT":" ","MAREA":"蚵\u25A0潭","LANE":" ","ALLEY":" ","HOUSE_NO":"３１號","E_COORD97":187420.22,"N_COORD97":2555675.25,"ADDRESS":"蚵\u25A0潭３１號","OBJECTID":196725},"geometry":{"x":187420.22000000067,"y":2555675.2500000037}},{"attributes":{"ID":196727,"DIS_CODE":0,"TOWNNAME":"山上區","LI":"玉\u25A0里","LIN":"3鄰","STREET":" ","SECT":" ","MAREA":"蚵\u25A0潭","LANE":" ","ALLEY":" ","HOUSE_NO":"３０號","E_COORD97":187389.12,"N_COORD97":2555660.25,"ADDRESS":"蚵\u25A0潭３０號","OBJECTID":196726},"geometry":{"x":187389.12000000104,"y":2555660.25}},{"attributes":{"ID":196728,"DIS_CODE":0,"TOWNNAME":"山上區","LI":"平陽里","LIN":"3鄰","STREET":" ","SECT":" ","MAREA":"石子崎","LANE":" ","ALLEY":" ","HOUSE_NO":"２７號","E_COORD97":186579.62,"N_COORD97":2553970.25,"ADDRESS":"石子崎２７號","OBJECTID":196727},"geometry":{"x":186579.62000000011,"y":2553970.2500000019}},{"attributes":{"ID":196729,"DIS_CODE":0,"TOWNNAME":"山上區","LI":"玉\u25A0里","LIN":"3鄰","STREET":" ","SECT":" ","MAREA":"蚵\u25A0潭","LANE":" ","ALLEY":" ","HOUSE_NO":"３１之１號","E_COORD97":187429.22,"N_COORD97":2555667.2999999998,"ADDRESS":"蚵\u25A0潭３１之１號","OBJECTID":196728},"geometry":{"x":187429.21999999974,"y":2555667.3000000007}},{"attributes":{"ID":196730,"DIS_CODE":0,"TOWNNAME":"山上區","LI":"玉\u25A0里","LIN":"3鄰","STREET":" ","SECT":" ","MAREA":"蚵\u25A0潭","LANE":" ","ALLEY":" ","HOUSE_NO":"２７號","E_COORD97":187410.02098500001,"N_COORD97":2555712.3579199999,"ADDRESS":"蚵\u25A0潭２７號","OBJECTID":196729},"geometry":{"x":187410.02098500077,"y":2555712.3579170033}},{"attributes":{"ID":196731,"DIS_CODE":0,"TOWNNAME":"山上區","LI":"玉\u25A0里","LIN":"3鄰","STREET":" ","SECT":" ","MAREA":"蚵\u25A0潭","LANE":" ","ALLEY":" ","HOUSE_NO":"２９號","E_COORD97":187380.12,"N_COORD97":2555686.25,"ADDRESS":"蚵\u25A0潭２９號","OBJECTID":196730},"geometry":{"x":187380.12000000197,"y":2555686.2500000019}},{"attributes":{"ID":196732,"DIS_CODE":0,"TOWNNAME":"山上區","LI":"玉\u25A0里","LIN":"3鄰","STREET":" ","SECT":" ","MAREA":"蚵\u25A0潭","LANE":" ","ALLEY":" ","HOUSE_NO":"３１之２號","E_COORD97":187441.72,"N_COORD97":2555660.2999999998,"ADDRESS":"蚵\u25A0潭３１之２號","OBJECTID":196731},"geometry":{"x":187441.7200000016,"y":2555660.3000000026}},{"attributes":{"ID":196733,"DIS_CODE":0,"TOWNNAME":"山上區","LI":"平陽里","LIN":"3鄰","STREET":" ","SECT":" ","MAREA":"石子崎","LANE":" ","ALLEY":" ","HOUSE_NO":"２９號","E_COORD97":186605.24999899999,"N_COORD97":2553937.58763,"ADDRESS":"石子崎２９號","OBJECTID":196732},"geometry":{"x":186605.24999900162,"y":2553937.5876300018}},{"attributes":{"ID":196734,"DIS_CODE":0,"TOWNNAME":"山上區","LI":"平陽里","LIN":"3鄰","STREET":" ","SECT":" ","MAREA":"石子崎","LANE":" ","ALLEY":" ","HOUSE_NO":"２６號","E_COORD97":186548.72,"N_COORD97":2553960.25,"ADDRESS":"石子崎２６號","OBJECTID":196733},"geometry":{"x":186548.72000000067,"y":2553960.2500000019}},{"attributes":{"ID":196735,"DIS_CODE":0,"TOWNNAME":"山上區","LI":"玉\u25A0里","LIN":"3鄰","STREET":" ","SECT":" ","MAREA":"蚵\u25A0潭","LANE":" ","ALLEY":" ","HOUSE_NO":"３２號","E_COORD97":187416.32000000001,"N_COORD97":2555649.25,"ADDRESS":"蚵\u25A0潭３２號","OBJECTID":196734},"geometry":{"x":187416.32000000216,"y":2555649.2500000019}},{"attributes":{"ID":196736,"DIS_CODE":0,"TOWNNAME":"山上區","LI":"山上里","LIN":"3鄰","STREET":" ","SECT":" ","MAREA":"山上","LANE":" ","ALLEY":" ","HOUSE_NO":"６９號","E_COORD97":184341.66,"N_COORD97":2555666.25,"ADDRESS":"山上６９號","OBJECTID":196735},"geometry":{"x":184341.66000000015,"y":2555666.2500000019}},{"attributes":{"ID":196737,"DIS_CODE":0,"TOWNNAME":"山上區","LI":"山上里","LIN":"3鄰","STREET":" ","SECT":" ","MAREA":"山上","LANE":" ","ALLEY":" ","HOUSE_NO":"６６號","E_COORD97":184342.56,"N_COORD97":2555622.25,"ADDRESS":"山上６６號","OBJECTID":196736},"geometry":{"x":184342.56000000052,"y":2555622.2500000019}},{"attributes":{"ID":196738,"DIS_CODE":0,"TOWNNAME":"山上區","LI":"平陽里","LIN":"3鄰","STREET":" ","SECT":" ","MAREA":"石子崎","LANE":" ","ALLEY":" ","HOUSE_NO":"２５之３號","E_COORD97":186585.42000000001,"N_COORD97":2553897.2999999998,"ADDRESS":"石子崎２５之３號","OBJECTID":196737},"geometry":{"x":186585.41999999993,"y":2553897.3000000026}},{"attributes":{"ID":196739,"DIS_CODE":0,"TOWNNAME":"山上區","LI":"平陽里","LIN":"3鄰","STREET":" ","SECT":" ","MAREA":"石子崎","LANE":" ","ALLEY":" ","HOUSE_NO":"２４號","E_COORD97":186561.12,"N_COORD97":2553920.25,"ADDRESS":"石子崎２４號","OBJECTID":196738},"geometry":{"x":186561.12000000011,"y":2553920.2500000019}},{"attributes":{"ID":196740,"DIS_CODE":0,"TOWNNAME":"山上區","LI":"山上里","LIN":"3鄰","STREET":" ","SECT":" ","MAREA":"山上","LANE":" ","ALLEY":" ","HOUSE_NO":"６３號","E_COORD97":184385.45999999999,"N_COORD97":2555643.25,"ADDRESS":"山上６３號","OBJECTID":196739},"geometry":{"x":184385.45999999996,"y":2555643.25}},{"attributes":{"ID":196741,"DIS_CODE":0,"TOWNNAME":"山上區","LI":"山上里","LIN":"3鄰","STREET":" ","SECT":" ","MAREA":"山上","LANE":" ","ALLEY":" ","HOUSE_NO":"７７號","E_COORD97":184299.06,"N_COORD97":2555585.25,"ADDRESS":"山上７７號","OBJECTID":196740},"geometry":{"x":184299.05999999959,"y":2555585.2500000019}},{"attributes":{"ID":196742,"DIS_CODE":0,"TOWNNAME":"山上區","LI":"平陽里","LIN":"3鄰","STREET":" ","SECT":" ","MAREA":"石子崎","LANE":" ","ALLEY":" ","HOUSE_NO":"２３號之１","E_COORD97":186566.14999999999,"N_COORD97":2553858.2999999998,"ADDRESS":"石子崎２３號之１","OBJECTID":196741},"geometry":{"x":186566.15000000037,"y":2553858.2999999989}},{"attributes":{"ID":196743,"DIS_CODE":0,"TOWNNAME":"山上區","LI":"平陽里","LIN":"3鄰","STREET":" ","SECT":" ","MAREA":"石子崎","LANE":" ","ALLEY":" ","HOUSE_NO":"２４號之１","E_COORD97":186567.25,"N_COORD97":2553929.2999999998,"ADDRESS":"石子崎２４號之１","OBJECTID":196742},"geometry":{"x":186567.25000000186,"y":2553929.3000000007}},{"attributes":{"ID":196744,"DIS_CODE":0,"TOWNNAME":"山上區","LI":"山上里","LIN":"3鄰","STREET":" ","SECT":" ","MAREA":"山上","LANE":" ","ALLEY":" ","HOUSE_NO":"６５號","E_COORD97":184365.35999999999,"N_COORD97":2555630.25,"ADDRESS":"山上６５號","OBJECTID":196743},"geometry":{"x":184365.36000000127,"y":2555630.25}},{"attributes":{"ID":196745,"DIS_CODE":0,"TOWNNAME":"山上區","LI":"平陽里","LIN":"3鄰","STREET":" ","SECT":" ","MAREA":"石子崎","LANE":" ","ALLEY":" ","HOUSE_NO":"２３號之４","E_COORD97":186565.38,"N_COORD97":2553882.2999999998,"ADDRESS":"石子崎２３號之４","OBJECTID":196744},"geometry":{"x":186565.37999999989,"y":2553882.3000000045}},{"attributes":{"ID":196746,"DIS_CODE":0,"TOWNNAME":"山上區","LI":"山上里","LIN":"3鄰","STREET":" ","SECT":" ","MAREA":"山上","LANE":" ","ALLEY":" ","HOUSE_NO":"７６號","E_COORD97":184288.66,"N_COORD97":2555582.25,"ADDRESS":"山上７６號","OBJECTID":196745},"geometry":{"x":184288.66000000108,"y":2555582.25}},{"attributes":{"ID":196747,"DIS_CODE":0,"TOWNNAME":"南區","LI":"省躬里","LIN":"18鄰","STREET":"灣裡路","SECT":" ","MAREA":" ","LANE":"８８巷","ALLEY":"３６弄","HOUSE_NO":"２５號","E_COORD97":165774.88,"N_COORD97":2536810.8700000001,"ADDRESS":"灣裡路８８巷３６弄２５號","OBJECTID":196746},"geometry":{"x":165774.88000000082,"y":2536810.870000001}},{"attributes":{"ID":196748,"DIS_CODE":0,"TOWNNAME":"南區","LI":"省躬里","LIN":"18鄰","STREET":"灣裡路","SECT":" ","MAREA":" ","LANE":"８８巷","ALLEY":"３６弄","HOUSE_NO":"２６號","E_COORD97":165772.97,"N_COORD97":2536842.23,"ADDRESS":"灣裡路８８巷３６弄２６號","OBJECTID":196747},"geometry":{"x":165772.97000000067,"y":2536842.2300000042}},{"attributes":{"ID":196749,"DIS_CODE":0,"TOWNNAME":"山上區","LI":"玉\u25A0里","LIN":"3鄰","STREET":" ","SECT":" ","MAREA":"明德山莊","LANE":" ","ALLEY":" ","HOUSE_NO":"１號","E_COORD97":188802.84,"N_COORD97":2555492.27,"ADDRESS":"明德山莊１號","OBJECTID":196748},"geometry":{"x":188802.84000000078,"y":2555492.2700000014}},{"attributes":{"ID":196750,"DIS_CODE":0,"TOWNNAME":"山上區","LI":"山上里","LIN":"3鄰","STREET":" ","SECT":" ","MAREA":"山上","LANE":" ","ALLEY":" ","HOUSE_NO":"５９號","E_COORD97":184355.66,"N_COORD97":2555568.25,"ADDRESS":"山上５９號","OBJECTID":196749},"geometry":{"x":184355.66000000201,"y":2555568.2500000019}},{"attributes":{"ID":196751,"DIS_CODE":0,"TOWNNAME":"山上區","LI":"山上里","LIN":"3鄰","STREET":" ","SECT":" ","MAREA":"山上","LANE":" ","ALLEY":" ","HOUSE_NO":"７５號","E_COORD97":184292.56,"N_COORD97":2555571.25,"ADDRESS":"山上７５號","OBJECTID":196750},"geometry":{"x":184292.55999999959,"y":2555571.2500000019}},{"attributes":{"ID":196752,"DIS_CODE":0,"TOWNNAME":"山上區","LI":"南洲里","LIN":"3鄰","STREET":" ","SECT":" ","MAREA":"南洲","LANE":" ","ALLEY":" ","HOUSE_NO":"５６號之１","E_COORD97":183930.92000000001,"N_COORD97":2555700.2999999998,"ADDRESS":"南洲５６號之１","OBJECTID":196751},"geometry":{"x":183930.91999999993,"y":2555700.3000000026}},{"attributes":{"ID":196753,"DIS_CODE":0,"TOWNNAME":"山上區","LI":"新莊里","LIN":"3鄰","STREET":" ","SECT":" ","MAREA":"新庄","LANE":" ","ALLEY":" ","HOUSE_NO":"２４號","E_COORD97":184913.06,"N_COORD97":2555346.25,"ADDRESS":"新庄２４號","OBJECTID":196752},"geometry":{"x":184913.05999999959,"y":2555346.2499999981}},{"attributes":{"ID":196754,"DIS_CODE":0,"TOWNNAME":"山上區","LI":"明和里","LIN":"3鄰","STREET":" ","SECT":" ","MAREA":"明和","LANE":" ","ALLEY":" ","HOUSE_NO":"１０４號","E_COORD97":183161.64000000001,"N_COORD97":2556290.25,"ADDRESS":"明和１０４號","OBJECTID":196753},"geometry":{"x":183161.63999999966,"y":2556290.2500000019}},{"attributes":{"ID":196755,"DIS_CODE":0,"TOWNNAME":"山上區","LI":"明和里","LIN":"3鄰","STREET":" ","SECT":" ","MAREA":"明和","LANE":" ","ALLEY":" ","HOUSE_NO":"１２８號","E_COORD97":183147.84,"N_COORD97":2556231.25,"ADDRESS":"明和１２８號","OBJECTID":196754},"geometry":{"x":183147.84000000078,"y":2556231.2500000037}},{"attributes":{"ID":196756,"DIS_CODE":0,"TOWNNAME":"山上區","LI":"明和里","LIN":"3鄰","STREET":" ","SECT":" ","MAREA":"明和","LANE":" ","ALLEY":" ","HOUSE_NO":"９５號","E_COORD97":183120.69,"N_COORD97":2556362.25,"ADDRESS":"明和９５號","OBJECTID":196755},"geometry":{"x":183120.69000000134,"y":2556362.25}},{"attributes":{"ID":196757,"DIS_CODE":0,"TOWNNAME":"山上區","LI":"玉\u25A0里","LIN":"3鄰","STREET":" ","SECT":" ","MAREA":"蚵\u25A0潭","LANE":" ","ALLEY":" ","HOUSE_NO":"３１之５號","E_COORD97":187418.88877200001,"N_COORD97":2555695.4868600001,"ADDRESS":"蚵\u25A0潭３１之５號","OBJECTID":196756},"geometry":{"x":187418.88877200149,"y":2555695.4868599996}},{"attributes":{"ID":196758,"DIS_CODE":0,"TOWNNAME":"山上區","LI":"玉\u25A0里","LIN":"3鄰","STREET":" ","SECT":" ","MAREA":"蚵\u25A0潭","LANE":" ","ALLEY":" ","HOUSE_NO":"３６號","E_COORD97":187403.72,"N_COORD97":2555557.25,"ADDRESS":"蚵\u25A0潭３６號","OBJECTID":196757},"geometry":{"x":187403.71999999974,"y":2555557.2500000019}},{"attributes":{"ID":196759,"DIS_CODE":0,"TOWNNAME":"山上區","LI":"明和里","LIN":"3鄰","STREET":" ","SECT":" ","MAREA":"明和","LANE":" ","ALLEY":" ","HOUSE_NO":"９５號之１","E_COORD97":183115.62,"N_COORD97":2556352.2999999998,"ADDRESS":"明和９５號之１","OBJECTID":196758},"geometry":{"x":183115.62000000104,"y":2556352.3000000007}},{"attributes":{"ID":196760,"DIS_CODE":0,"TOWNNAME":"山上區","LI":"明和里","LIN":"3鄰","STREET":" ","SECT":" ","MAREA":"明和","LANE":" ","ALLEY":" ","HOUSE_NO":"１２６號之１","E_COORD97":183141.07000000001,"N_COORD97":2556270.2999999998,"ADDRESS":"明和１２６號之１","OBJECTID":196759},"geometry":{"x":183141.07000000216,"y":2556270.3000000026}},{"attributes":{"ID":196761,"DIS_CODE":0,"TOWNNAME":"新市區","LI":"豐華里","LIN":"4鄰","STREET":" ","SECT":" ","MAREA":"豐華","LANE":" ","ALLEY":" ","HOUSE_NO":"２５之１號","E_COORD97":173798.64000000001,"N_COORD97":2554148.6099999999,"ADDRESS":"豐華２５之１號","OBJECTID":196760},"geometry":{"x":173798.63999999966,"y":2554148.6099999994}},{"attributes":{"ID":196762,"DIS_CODE":0,"TOWNNAME":"新市區","LI":"潭頂里","LIN":"14鄰","STREET":" ","SECT":" ","MAREA":"潭頂","LANE":" ","ALLEY":" ","HOUSE_NO":"５２３之１號","E_COORD97":180381.22,"N_COORD97":2552930.0099999998,"ADDRESS":"潭頂５２３之１號","OBJECTID":196761},"geometry":{"x":180381.21999999881,"y":2552930.0099999998}},{"attributes":{"ID":196763,"DIS_CODE":0,"TOWNNAME":"新市區","LI":"潭頂里","LIN":"14鄰","STREET":" ","SECT":" ","MAREA":"潭頂","LANE":" ","ALLEY":" ","HOUSE_NO":"５２３之６號","E_COORD97":180419.25,"N_COORD97":2552882.2999999998,"ADDRESS":"潭頂５２３之６號","OBJECTID":196762},"geometry":{"x":180419.25000000093,"y":2552882.3000000045}},{"attributes":{"ID":196764,"DIS_CODE":0,"TOWNNAME":"新市區","LI":"豐華里","LIN":"1鄰","STREET":" ","SECT":" ","MAREA":"豐華","LANE":" ","ALLEY":" ","HOUSE_NO":"１之１１號","E_COORD97":173877.31,"N_COORD97":2554085.6899999999,"ADDRESS":"豐華１之１１號","OBJECTID":196763},"geometry":{"x":173877.30999999959,"y":2554085.6900000013}},{"attributes":{"ID":196765,"DIS_CODE":0,"TOWNNAME":"南區","LI":"省躬里","LIN":"18鄰","STREET":"灣裡路","SECT":" ","MAREA":" ","LANE":"８８巷","ALLEY":"３６弄","HOUSE_NO":"２７號","E_COORD97":165769.97,"N_COORD97":2536812.23,"ADDRESS":"灣裡路８８巷３６弄２７號","OBJECTID":196764},"geometry":{"x":165769.96999999974,"y":2536812.2300000023}},{"attributes":{"ID":196766,"DIS_CODE":0,"TOWNNAME":"南區","LI":"省躬里","LIN":"18鄰","STREET":"灣裡路","SECT":" ","MAREA":" ","LANE":"８８巷","ALLEY":"３６弄","HOUSE_NO":"２８號","E_COORD97":165768.60999999999,"N_COORD97":2536840.0499999998,"ADDRESS":"灣裡路８８巷３６弄２８號","OBJECTID":196765},"geometry":{"x":165768.61000000127,"y":2536840.0500000007}},{"attributes":{"ID":196767,"DIS_CODE":0,"TOWNNAME":"南區","LI":"省躬里","LIN":"18鄰","STREET":"灣裡路","SECT":" ","MAREA":" ","LANE":"８８巷","ALLEY":"３６弄","HOUSE_NO":"２９號","E_COORD97":165766.42999999999,"N_COORD97":2536809.7799999998,"ADDRESS":"灣裡路８８巷３６弄２９號","OBJECTID":196766},"geometry":{"x":165766.43000000063,"y":2536809.7799999993}},{"attributes":{"ID":196768,"DIS_CODE":0,"TOWNNAME":"南區","LI":"省躬里","LIN":"18鄰","STREET":"灣裡路","SECT":" ","MAREA":" ","LANE":"８８巷","ALLEY":"３６弄","HOUSE_NO":"２號","E_COORD97":165821.17000000001,"N_COORD97":2536852.02,"ADDRESS":"灣裡路８８巷３６弄２號","OBJECTID":196767},"geometry":{"x":165821.16999999993,"y":2536852.0199999996}},{"attributes":{"ID":196769,"DIS_CODE":0,"TOWNNAME":"六甲區","LI":"水林里","LIN":"15鄰","STREET":"民族街","SECT":" ","MAREA":" ","LANE":" ","ALLEY":" ","HOUSE_NO":"２０５號","E_COORD97":183299.39999999999,"N_COORD97":2570323.8599999999,"ADDRESS":"民族街２０５號","OBJECTID":196768},"geometry":{"x":183299.40000000037,"y":2570323.8600000031}},{"attributes":{"ID":196770,"DIS_CODE":0,"TOWNNAME":"新市區","LI":"豐華里","LIN":"1鄰","STREET":" ","SECT":" ","MAREA":"豐華","LANE":" ","ALLEY":" ","HOUSE_NO":"５之１號","E_COORD97":173860.45000000001,"N_COORD97":2553991.6200000001,"ADDRESS":"豐華５之１號","OBJECTID":196769},"geometry":{"x":173860.45000000205,"y":2553991.620000001}},{"attributes":{"ID":196771,"DIS_CODE":0,"TOWNNAME":"山上區","LI":"平陽里","LIN":"3鄰","STREET":" ","SECT":" ","MAREA":"石子崎","LANE":" ","ALLEY":" ","HOUSE_NO":"３８號","E_COORD97":186621.071979,"N_COORD97":2553982.9681000002,"ADDRESS":"石子崎３８號","OBJECTID":196770},"geometry":{"x":186621.07197900116,"y":2553982.9681010023}},{"attributes":{"ID":196772,"DIS_CODE":0,"TOWNNAME":"山上區","LI":"平陽里","LIN":"3鄰","STREET":" ","SECT":" ","MAREA":"石子崎","LANE":" ","ALLEY":" ","HOUSE_NO":"３７號之１","E_COORD97":186650.73409499999,"N_COORD97":2553987.0956000001,"ADDRESS":"石子崎３７號之１","OBJECTID":196771},"geometry":{"x":186650.73409499973,"y":2553987.0955989994}},{"attributes":{"ID":196773,"DIS_CODE":0,"TOWNNAME":"新化區","LI":"全興里","LIN":"21鄰","STREET":" ","SECT":" ","MAREA":"竹子\u25A0","LANE":" ","ALLEY":" ","HOUSE_NO":"２４７號之５０４","E_COORD97":178387.17000000001,"N_COORD97":2546632.2599999998,"ADDRESS":"竹子\u25A0２４７號之５０４","OBJECTID":196772},"geometry":{"x":178387.17000000086,"y":2546632.2599999998}},{"attributes":{"ID":196774,"DIS_CODE":0,"TOWNNAME":"新化區","LI":"全興里","LIN":"21鄰","STREET":" ","SECT":" ","MAREA":"竹子\u25A0","LANE":" ","ALLEY":" ","HOUSE_NO":"２４７號之４６６","E_COORD97":178493.88,"N_COORD97":2546630.2599999998,"ADDRESS":"竹子\u25A0２４７號之４６６","OBJECTID":196773},"geometry":{"x":178493.88000000082,"y":2546630.2600000016}},{"attributes":{"ID":196775,"DIS_CODE":0,"TOWNNAME":"新化區","LI":"全興里","LIN":"21鄰","STREET":" ","SECT":" ","MAREA":"竹子\u25A0","LANE":" ","ALLEY":" ","HOUSE_NO":"２４７號之５８７","E_COORD97":178448.48000000001,"N_COORD97":2546603.2599999998,"ADDRESS":"竹子\u25A0２４７號之５８７","OBJECTID":196774},"geometry":{"x":178448.48000000138,"y":2546603.2600000016}},{"attributes":{"ID":196776,"DIS_CODE":0,"TOWNNAME":"新化區","LI":"全興里","LIN":"21鄰","STREET":" ","SECT":" ","MAREA":"竹子\u25A0","LANE":" ","ALLEY":" ","HOUSE_NO":"２４７號之４８２","E_COORD97":178439.59,"N_COORD97":2546630.2599999998,"ADDRESS":"竹子\u25A0２４７號之４８２","OBJECTID":196775},"geometry":{"x":178439.59000000171,"y":2546630.2600000016}},{"attributes":{"ID":196777,"DIS_CODE":0,"TOWNNAME":"新化區","LI":"全興里","LIN":"21鄰","STREET":" ","SECT":" ","MAREA":"竹子\u25A0","LANE":" ","ALLEY":" ","HOUSE_NO":"２４７號之４７６","E_COORD97":178470.57999999999,"N_COORD97":2546631.2599999998,"ADDRESS":"竹子\u25A0２４７號之４７６","OBJECTID":196776},"geometry":{"x":178470.58000000101,"y":2546631.2599999998}},{"attributes":{"ID":196778,"DIS_CODE":0,"TOWNNAME":"新化區","LI":"全興里","LIN":"21鄰","STREET":" ","SECT":" ","MAREA":"竹子\u25A0","LANE":" ","ALLEY":" ","HOUSE_NO":"２４７號之４６４","E_COORD97":178498.26999999999,"N_COORD97":2546630.2599999998,"ADDRESS":"竹子\u25A0２４７號之４６４","OBJECTID":196777},"geometry":{"x":178498.26999999955,"y":2546630.2600000016}},{"attributes":{"ID":196779,"DIS_CODE":0,"TOWNNAME":"新化區","LI":"全興里","LIN":"21鄰","STREET":" ","SECT":" ","MAREA":"竹子\u25A0","LANE":" ","ALLEY":" ","HOUSE_NO":"２４７號之５６７","E_COORD97":178499.57999999999,"N_COORD97":2546602.2599999998,"ADDRESS":"竹子\u25A0２４７號之５６７","OBJECTID":196778},"geometry":{"x":178499.58000000101,"y":2546602.2600000035}},{"attributes":{"ID":196780,"DIS_CODE":0,"TOWNNAME":"新化區","LI":"全興里","LIN":"21鄰","STREET":" ","SECT":" ","MAREA":"竹子\u25A0","LANE":" ","ALLEY":" ","HOUSE_NO":"２４７號之４６８","E_COORD97":178489.09,"N_COORD97":2546631.2599999998,"ADDRESS":"竹子\u25A0２４７號之４６８","OBJECTID":196779},"geometry":{"x":178489.09000000078,"y":2546631.2599999998}},{"attributes":{"ID":196781,"DIS_CODE":0,"TOWNNAME":"新化區","LI":"全興里","LIN":"21鄰","STREET":" ","SECT":" ","MAREA":"竹子\u25A0","LANE":" ","ALLEY":" ","HOUSE_NO":"２４７號之４６０","E_COORD97":178507.37,"N_COORD97":2546630.2599999998,"ADDRESS":"竹子\u25A0２４７號之４６０","OBJECTID":196780},"geometry":{"x":178507.36999999918,"y":2546630.2600000016}},{"attributes":{"ID":196782,"DIS_CODE":0,"TOWNNAME":"新化區","LI":"全興里","LIN":"21鄰","STREET":" ","SECT":" ","MAREA":"竹子\u25A0","LANE":" ","ALLEY":" ","HOUSE_NO":"２４７號之４５６","E_COORD97":178516.48000000001,"N_COORD97":2546630.2599999998,"ADDRESS":"竹子\u25A0２４７號之４５６","OBJECTID":196781},"geometry":{"x":178516.48000000045,"y":2546630.2600000016}},{"attributes":{"ID":196783,"DIS_CODE":0,"TOWNNAME":"新化區","LI":"全興里","LIN":"21鄰","STREET":" ","SECT":" ","MAREA":"竹子\u25A0","LANE":" ","ALLEY":" ","HOUSE_NO":"２４７號之５６５","E_COORD97":178504.29000000001,"N_COORD97":2546602.2599999998,"ADDRESS":"竹子\u25A0２４７號之５６５","OBJECTID":196782},"geometry":{"x":178504.29000000004,"y":2546602.2600000035}},{"attributes":{"ID":196784,"DIS_CODE":0,"TOWNNAME":"南區","LI":"省躬里","LIN":"18鄰","STREET":"灣裡路","SECT":" ","MAREA":" ","LANE":"８８巷","ALLEY":"３６弄","HOUSE_NO":"３０號","E_COORD97":165764.53,"N_COORD97":2536841.6800000002,"ADDRESS":"灣裡路８８巷３６弄３０號","OBJECTID":196783},"geometry":{"x":165764.53000000119,"y":2536841.6799999978}},{"attributes":{"ID":196785,"DIS_CODE":0,"TOWNNAME":"新化區","LI":"全興里","LIN":"21鄰","STREET":" ","SECT":" ","MAREA":"竹子\u25A0","LANE":" ","ALLEY":" ","HOUSE_NO":"２４７號之５８５","E_COORD97":178453.79000000001,"N_COORD97":2546603.2599999998,"ADDRESS":"竹子\u25A0２４７號之５８５","OBJECTID":196784},"geometry":{"x":178453.7900000019,"y":2546603.2600000016}},{"attributes":{"ID":196786,"DIS_CODE":0,"TOWNNAME":"新化區","LI":"全興里","LIN":"21鄰","STREET":" ","SECT":" ","MAREA":"竹子\u25A0","LANE":" ","ALLEY":" ","HOUSE_NO":"２４７號之４９０","E_COORD97":178418.97,"N_COORD97":2546631.2599999998,"ADDRESS":"竹子\u25A0２４７號之４９０","OBJECTID":196785},"geometry":{"x":178418.97000000067,"y":2546631.2599999998}},{"attributes":{"ID":196787,"DIS_CODE":0,"TOWNNAME":"南區","LI":"省躬里","LIN":"18鄰","STREET":"灣裡路","SECT":" ","MAREA":" ","LANE":"８８巷","ALLEY":"３６弄","HOUSE_NO":"３１號","E_COORD97":165761.53,"N_COORD97":2536811.6899999999,"ADDRESS":"灣裡路８８巷３６弄３１號","OBJECTID":196786},"geometry":{"x":165761.53000000026,"y":2536811.6900000013}},{"attributes":{"ID":196788,"DIS_CODE":0,"TOWNNAME":"安南區","LI":"海東里","LIN":"21鄰","STREET":"海佃路","SECT":"二段","MAREA":" ","LANE":" ","ALLEY":" ","HOUSE_NO":"５號","E_COORD97":167006.79000000001,"N_COORD97":2547823.3100000001,"ADDRESS":"海佃路二段５號","OBJECTID":196787},"geometry":{"x":167006.79000000097,"y":2547823.3100000042}},{"attributes":{"ID":196789,"DIS_CODE":0,"TOWNNAME":"東區","LI":"關聖里","LIN":"21鄰","STREET":"裕善街","SECT":" ","MAREA":" ","LANE":" ","ALLEY":" ","HOUSE_NO":"３２號","E_COORD97":172733.51999999999,"N_COORD97":2543053.8300000001,"ADDRESS":"裕善街３２號","OBJECTID":196788},"geometry":{"x":172733.51999999955,"y":2543053.8300000019}},{"attributes":{"ID":196790,"DIS_CODE":0,"TOWNNAME":"東區","LI":"關聖里","LIN":"21鄰","STREET":"裕和三街","SECT":" ","MAREA":" ","LANE":" ","ALLEY":" ","HOUSE_NO":"１６號","E_COORD97":172657.29000000001,"N_COORD97":2543093.3300000001,"ADDRESS":"裕和三街１６號","OBJECTID":196789},"geometry":{"x":172657.29000000004,"y":2543093.3300000038}},{"attributes":{"ID":196791,"DIS_CODE":0,"TOWNNAME":"東區","LI":"關聖里","LIN":"21鄰","STREET":"裕和三街","SECT":" ","MAREA":" ","LANE":" ","ALLEY":" ","HOUSE_NO":"１８號","E_COORD97":172651.35999999999,"N_COORD97":2543089.7799999998,"ADDRESS":"裕和三街１８號","OBJECTID":196790},"geometry":{"x":172651.36000000127,"y":2543089.7800000012}},{"attributes":{"ID":196792,"DIS_CODE":0,"TOWNNAME":"東區","LI":"關聖里","LIN":"21鄰","STREET":"裕和三街","SECT":" ","MAREA":" ","LANE":" ","ALLEY":" ","HOUSE_NO":"２０號","E_COORD97":172646.82000000001,"N_COORD97":2543093.1299999999,"ADDRESS":"裕和三街２０號","OBJECTID":196791},"geometry":{"x":172646.82000000123,"y":2543093.1299999971}},{"attributes":{"ID":196793,"DIS_CODE":0,"TOWNNAME":"東區","LI":"關聖里","LIN":"21鄰","STREET":"裕和三街","SECT":" ","MAREA":" ","LANE":" ","ALLEY":" ","HOUSE_NO":"２２號","E_COORD97":172641.09,"N_COORD97":2543089.1800000002,"ADDRESS":"裕和三街２２號","OBJECTID":196792},"geometry":{"x":172641.09000000078,"y":2543089.1799999997}},{"attributes":{"ID":196794,"DIS_CODE":0,"TOWNNAME":"東區","LI":"關聖里","LIN":"21鄰","STREET":"裕和三街","SECT":" ","MAREA":" ","LANE":" ","ALLEY":" ","HOUSE_NO":"２６號","E_COORD97":172640.89000000001,"N_COORD97":2543071.4100000001,"ADDRESS":"裕和三街２６號","OBJECTID":196793},"geometry":{"x":172640.88999999966,"y":2543071.4100000001}},{"attributes":{"ID":196795,"DIS_CODE":0,"TOWNNAME":"南區","LI":"省躬里","LIN":"18鄰","STREET":"灣裡路","SECT":" ","MAREA":" ","LANE":"８８巷","ALLEY":"３６弄","HOUSE_NO":"３２號","E_COORD97":165760.98999999999,"N_COORD97":2536838.6899999999,"ADDRESS":"灣裡路８８巷３６弄３２號","OBJECTID":196794},"geometry":{"x":165760.99000000115,"y":2536838.6900000013}},{"attributes":{"ID":196796,"DIS_CODE":0,"TOWNNAME":"南區","LI":"省躬里","LIN":"18鄰","STREET":"灣裡路","SECT":" ","MAREA":" ","LANE":"８８巷","ALLEY":"３６弄","HOUSE_NO":"３３號","E_COORD97":165757.98999999999,"N_COORD97":2536809.2400000002,"ADDRESS":"灣裡路８８巷３６弄３３號","OBJECTID":196795},"geometry":{"x":165757.99000000115,"y":2536809.2400000021}},{"attributes":{"ID":196797,"DIS_CODE":0,"TOWNNAME":"南區","LI":"省躬里","LIN":"18鄰","STREET":"灣裡路","SECT":" ","MAREA":" ","LANE":"８８巷","ALLEY":"３６弄","HOUSE_NO":"３４號","E_COORD97":165756.63,"N_COORD97":2536840.0499999998,"ADDRESS":"灣裡路８８巷３６弄３４號","OBJECTID":196796},"geometry":{"x":165756.63000000082,"y":2536840.0500000007}},{"attributes":{"ID":196798,"DIS_CODE":0,"TOWNNAME":"南區","LI":"省躬里","LIN":"18鄰","STREET":"灣裡路","SECT":" ","MAREA":" ","LANE":"８８巷","ALLEY":"３６弄","HOUSE_NO":"３５號","E_COORD97":165753.35999999999,"N_COORD97":2536810.6000000001,"ADDRESS":"灣裡路８８巷３６弄３５號","OBJECTID":196797},"geometry":{"x":165753.36000000127,"y":2536810.5999999996}},{"attributes":{"ID":196799,"DIS_CODE":0,"TOWNNAME":"南區","LI":"省躬里","LIN":"18鄰","STREET":"灣裡路","SECT":" ","MAREA":" ","LANE":"８８巷","ALLEY":"３６弄","HOUSE_NO":"３６號","E_COORD97":165752.54999999999,"N_COORD97":2536837.3300000001,"ADDRESS":"灣裡路８８巷３６弄３６號","OBJECTID":196798},"geometry":{"x":165752.54999999981,"y":2536837.3300000001}},{"attributes":{"ID":196800,"DIS_CODE":0,"TOWNNAME":"南區","LI":"省躬里","LIN":"18鄰","STREET":"灣裡路","SECT":" ","MAREA":" ","LANE":"８８巷","ALLEY":"３６弄","HOUSE_NO":"３８號","E_COORD97":165748.45999999999,"N_COORD97":2536834.3399999999,"ADDRESS":"灣裡路８８巷３６弄３８號","OBJECTID":196799},"geometry":{"x":165748.45999999996,"y":2536834.3400000036}},{"attributes":{"ID":196801,"DIS_CODE":0,"TOWNNAME":"南區","LI":"省躬里","LIN":"18鄰","STREET":"灣裡路","SECT":" ","MAREA":" ","LANE":"８８巷","ALLEY":"３６弄","HOUSE_NO":"４０號","E_COORD97":165744.10000000001,"N_COORD97":2536836.79,"ADDRESS":"灣裡路８８巷３６弄４０號","OBJECTID":196800},"geometry":{"x":165744.10000000149,"y":2536836.7899999991}}]}