{"displayFieldName":"TOWNNAME","fieldAliases":{"ID":"ID","DIS_CODE":"DIS_CODE","TOWNNAME":"TOWNNAME","LI":"LI","LIN":"LIN","STREET":"STREET","SECT":"SECT","MAREA":"MAREA","LANE":"LANE","ALLEY":"ALLEY","HOUSE_NO":"HOUSE_NO","E_COORD97":"E_COORD97","N_COORD97":"N_COORD97","ADDRESS":"ADDRESS","OBJECTID":"OBJECTID"},"geometryType":"esriGeometryPoint","spatialReference":{"wkid":102443,"latestWkid":3826},"fields":[{"name":"ID","type":"esriFieldTypeDouble","alias":"ID"},{"name":"DIS_CODE","type":"esriFieldTypeInteger","alias":"DIS_CODE"},{"name":"TOWNNAME","type":"esriFieldTypeString","alias":"TOWNNAME","length":8},{"name":"LI","type":"esriFieldTypeString","alias":"LI","length":8},{"name":"LIN","type":"esriFieldTypeString","alias":"LIN","length":12},{"name":"STREET","type":"esriFieldTypeString","alias":"STREET","length":20},{"name":"SECT","type":"esriFieldTypeString","alias":"SECT","length":8},{"name":"MAREA","type":"esriFieldTypeString","alias":"MAREA","length":12},{"name":"LANE","type":"esriFieldTypeString","alias":"LANE","length":10},{"name":"ALLEY","type":"esriFieldTypeString","alias":"ALLEY","length":10},{"name":"HOUSE_NO","type":"esriFieldTypeString","alias":"HOUSE_NO","length":20},{"name":"E_COORD97","type":"esriFieldTypeDouble","alias":"E_COORD97"},{"name":"N_COORD97","type":"esriFieldTypeDouble","alias":"N_COORD97"},{"name":"ADDRESS","type":"esriFieldTypeString","alias":"ADDRESS","length":50},{"name":"OBJECTID","type":"esriFieldTypeOID","alias":"OBJECTID"}],"features":[{"attributes":{"ID":321410,"DIS_CODE":0,"TOWNNAME":"仁德區","LI":"保安里","LIN":" ","STREET":"文賢路","SECT":"一段","MAREA":" ","LANE":"８６２巷","ALLEY":" ","HOUSE_NO":"１１號","E_COORD97":171499.81,"N_COORD97":2536043.8199999998,"ADDRESS":"文賢路一段８６２巷１１號","OBJECTID":321401},"geometry":{"x":171499.81000000052,"y":2536043.8200000003}},{"attributes":{"ID":321411,"DIS_CODE":0,"TOWNNAME":"永康區","LI":"中華里","LIN":"15鄰","STREET":"忠義街","SECT":" ","MAREA":" ","LANE":"６０巷","ALLEY":" ","HOUSE_NO":"１號十一樓之３","E_COORD97":171786.47,"N_COORD97":2544541.1200000001,"ADDRESS":"忠義街６０巷１號十一樓之３","OBJECTID":321402},"geometry":{"x":171786.46999999974,"y":2544541.1200000029}},{"attributes":{"ID":321412,"DIS_CODE":0,"TOWNNAME":"後壁區","LI":"後部里","LIN":"4鄰","STREET":" ","SECT":" ","MAREA":"後部","LANE":" ","ALLEY":" ","HOUSE_NO":"２８號之１","E_COORD97":182116.37,"N_COORD97":2586838.7999999998,"ADDRESS":"後部２８號之１","OBJECTID":321403},"geometry":{"x":182116.37000000011,"y":2586838.8000000007}},{"attributes":{"ID":321413,"DIS_CODE":0,"TOWNNAME":"永康區","LI":"中華里","LIN":"15鄰","STREET":"忠義街","SECT":" ","MAREA":" ","LANE":"６０巷","ALLEY":" ","HOUSE_NO":"３號七樓之１","E_COORD97":171785.13,"N_COORD97":2544541.1200000001,"ADDRESS":"忠義街６０巷３號七樓之１","OBJECTID":321404},"geometry":{"x":171785.12999999989,"y":2544541.1200000029}},{"attributes":{"ID":321414,"DIS_CODE":0,"TOWNNAME":"後壁區","LI":"後部里","LIN":"3鄰","STREET":" ","SECT":" ","MAREA":"後部","LANE":" ","ALLEY":" ","HOUSE_NO":"１９號","E_COORD97":182191.14999999999,"N_COORD97":2586909.71,"ADDRESS":"後部１９號","OBJECTID":321405},"geometry":{"x":182191.15000000224,"y":2586909.7100000028}},{"attributes":{"ID":321415,"DIS_CODE":0,"TOWNNAME":"仁德區","LI":"中生里","LIN":" ","STREET":" ","SECT":" ","MAREA":"中洲","LANE":" ","ALLEY":" ","HOUSE_NO":"１８３之１號","E_COORD97":173166.54000000001,"N_COORD97":2534124.5499999998,"ADDRESS":"中洲１８３之１號","OBJECTID":321406},"geometry":{"x":173166.5400000019,"y":2534124.5499999989}},{"attributes":{"ID":321416,"DIS_CODE":0,"TOWNNAME":"永康區","LI":"中華里","LIN":"15鄰","STREET":"忠義街","SECT":" ","MAREA":" ","LANE":"６０巷","ALLEY":" ","HOUSE_NO":"１號九樓之５","E_COORD97":171785.28,"N_COORD97":2544541.1200000001,"ADDRESS":"忠義街６０巷１號九樓之５","OBJECTID":321407},"geometry":{"x":171785.28000000119,"y":2544541.1200000029}},{"attributes":{"ID":321417,"DIS_CODE":0,"TOWNNAME":"永康區","LI":"中華里","LIN":"15鄰","STREET":"忠義街","SECT":" ","MAREA":" ","LANE":"６０巷","ALLEY":" ","HOUSE_NO":"３號九樓之７","E_COORD97":171785.20000000001,"N_COORD97":2544541.1200000001,"ADDRESS":"忠義街６０巷３號九樓之７","OBJECTID":321408},"geometry":{"x":171785.20000000019,"y":2544541.1200000029}},{"attributes":{"ID":321418,"DIS_CODE":0,"TOWNNAME":"永康區","LI":"中華里","LIN":"15鄰","STREET":"忠義街","SECT":" ","MAREA":" ","LANE":"６０巷","ALLEY":" ","HOUSE_NO":"１號九樓之６","E_COORD97":171785.23000000001,"N_COORD97":2544541.1200000001,"ADDRESS":"忠義街６０巷１號九樓之６","OBJECTID":321409},"geometry":{"x":171785.23000000045,"y":2544541.1200000029}},{"attributes":{"ID":321419,"DIS_CODE":0,"TOWNNAME":"永康區","LI":"中華里","LIN":"15鄰","STREET":"忠義街","SECT":" ","MAREA":" ","LANE":"６０巷","ALLEY":" ","HOUSE_NO":"１號十一樓之１１","E_COORD97":171787.63,"N_COORD97":2544541.1200000001,"ADDRESS":"忠義街６０巷１號十一樓之１１","OBJECTID":321410},"geometry":{"x":171787.63000000082,"y":2544541.1200000029}},{"attributes":{"ID":321420,"DIS_CODE":0,"TOWNNAME":"永康區","LI":"中華里","LIN":"15鄰","STREET":"忠義街","SECT":" ","MAREA":" ","LANE":"６０巷","ALLEY":" ","HOUSE_NO":"３號九樓之３","E_COORD97":171785.22,"N_COORD97":2544541.1200000001,"ADDRESS":"忠義街６０巷３號九樓之３","OBJECTID":321411},"geometry":{"x":171785.22000000067,"y":2544541.1200000029}},{"attributes":{"ID":321421,"DIS_CODE":0,"TOWNNAME":"安平區","LI":"育平里","LIN":"17鄰","STREET":"育平路","SECT":" ","MAREA":" ","LANE":" ","ALLEY":" ","HOUSE_NO":"２１２號五樓之２９","E_COORD97":164690.60999999999,"N_COORD97":2543415.9199999999,"ADDRESS":"育平路２１２號五樓之２９","OBJECTID":321412},"geometry":{"x":164690.61000000127,"y":2543415.9200000018}},{"attributes":{"ID":321422,"DIS_CODE":0,"TOWNNAME":"安平區","LI":"育平里","LIN":"17鄰","STREET":"育平路","SECT":" ","MAREA":" ","LANE":" ","ALLEY":" ","HOUSE_NO":"２１２號五樓之３１","E_COORD97":164690.60999999999,"N_COORD97":2543415.9199999999,"ADDRESS":"育平路２１２號五樓之３１","OBJECTID":321413},"geometry":{"x":164690.61000000127,"y":2543415.9200000018}},{"attributes":{"ID":321423,"DIS_CODE":0,"TOWNNAME":"永康區","LI":"中華里","LIN":"15鄰","STREET":"忠義街","SECT":" ","MAREA":" ","LANE":"６０巷","ALLEY":" ","HOUSE_NO":"３號十四樓之１３","E_COORD97":171787.72,"N_COORD97":2544541.1200000001,"ADDRESS":"忠義街６０巷３號十四樓之１３","OBJECTID":321414},"geometry":{"x":171787.71999999974,"y":2544541.1200000029}},{"attributes":{"ID":321424,"DIS_CODE":0,"TOWNNAME":"永康區","LI":"中華里","LIN":"15鄰","STREET":"忠義街","SECT":" ","MAREA":" ","LANE":"６０巷","ALLEY":" ","HOUSE_NO":"１號十一樓之６","E_COORD97":171786.48000000001,"N_COORD97":2544541.1200000001,"ADDRESS":"忠義街６０巷１號十一樓之６","OBJECTID":321415},"geometry":{"x":171786.48000000138,"y":2544541.1200000029}},{"attributes":{"ID":321425,"DIS_CODE":0,"TOWNNAME":"永康區","LI":"中華里","LIN":"15鄰","STREET":"忠義街","SECT":" ","MAREA":" ","LANE":"６０巷","ALLEY":" ","HOUSE_NO":"３號十四樓之４","E_COORD97":171786.39999999999,"N_COORD97":2544541.1200000001,"ADDRESS":"忠義街６０巷３號十四樓之４","OBJECTID":321416},"geometry":{"x":171786.4000000013,"y":2544541.1200000029}},{"attributes":{"ID":321426,"DIS_CODE":0,"TOWNNAME":"永康區","LI":"中華里","LIN":"15鄰","STREET":"忠義街","SECT":" ","MAREA":" ","LANE":"６０巷","ALLEY":" ","HOUSE_NO":"３號十四樓之９","E_COORD97":171786.45999999999,"N_COORD97":2544541.1200000001,"ADDRESS":"忠義街６０巷３號十四樓之９","OBJECTID":321417},"geometry":{"x":171786.45999999996,"y":2544541.1200000029}},{"attributes":{"ID":321427,"DIS_CODE":0,"TOWNNAME":"永康區","LI":"中華里","LIN":"15鄰","STREET":"忠義街","SECT":" ","MAREA":" ","LANE":"６０巷","ALLEY":" ","HOUSE_NO":"１號六樓之８","E_COORD97":171785.26999999999,"N_COORD97":2544541.1200000001,"ADDRESS":"忠義街６０巷１號六樓之８","OBJECTID":321418},"geometry":{"x":171785.27000000048,"y":2544541.1200000029}},{"attributes":{"ID":321428,"DIS_CODE":0,"TOWNNAME":"仁德區","LI":"中生里","LIN":" ","STREET":" ","SECT":" ","MAREA":"中洲","LANE":" ","ALLEY":" ","HOUSE_NO":"１３４之６號","E_COORD97":172947.76000000001,"N_COORD97":2534093.2999999998,"ADDRESS":"中洲１３４之６號","OBJECTID":321419},"geometry":{"x":172947.76000000164,"y":2534093.3000000026}},{"attributes":{"ID":321429,"DIS_CODE":0,"TOWNNAME":"後壁區","LI":"頂安里","LIN":"4鄰","STREET":" ","SECT":" ","MAREA":"頂寮","LANE":" ","ALLEY":" ","HOUSE_NO":"４１號之６３","E_COORD97":183978.88,"N_COORD97":2581406.0800000001,"ADDRESS":"頂寮４１之６３號","OBJECTID":321420},"geometry":{"x":183978.87999999989,"y":2581406.0800000038}},{"attributes":{"ID":321430,"DIS_CODE":0,"TOWNNAME":"永康區","LI":"中華里","LIN":"15鄰","STREET":"忠義街","SECT":" ","MAREA":" ","LANE":"６０巷","ALLEY":" ","HOUSE_NO":"１號八樓之７","E_COORD97":171785.20000000001,"N_COORD97":2544541.1200000001,"ADDRESS":"忠義街６０巷１號八樓之７","OBJECTID":321421},"geometry":{"x":171785.20000000019,"y":2544541.1200000029}},{"attributes":{"ID":321431,"DIS_CODE":0,"TOWNNAME":"仁德區","LI":"中洲里","LIN":" ","STREET":" ","SECT":" ","MAREA":"中洲","LANE":" ","ALLEY":" ","HOUSE_NO":"４０號","E_COORD97":173275.32000000001,"N_COORD97":2534358.2400000002,"ADDRESS":"中洲４０號","OBJECTID":321422},"geometry":{"x":173275.32000000123,"y":2534358.2400000021}},{"attributes":{"ID":321432,"DIS_CODE":0,"TOWNNAME":"仁德區","LI":"中洲里","LIN":" ","STREET":" ","SECT":" ","MAREA":"中洲","LANE":" ","ALLEY":" ","HOUSE_NO":"３３６之４號","E_COORD97":173252.67999999999,"N_COORD97":2534231.0499999998,"ADDRESS":"中洲３３６之４號","OBJECTID":321423},"geometry":{"x":173252.6799999997,"y":2534231.0500000026}},{"attributes":{"ID":321433,"DIS_CODE":0,"TOWNNAME":"永康區","LI":"中華里","LIN":"15鄰","STREET":"忠義街","SECT":" ","MAREA":" ","LANE":"６０巷","ALLEY":" ","HOUSE_NO":"３號九樓之４","E_COORD97":171785.14999999999,"N_COORD97":2544541.1200000001,"ADDRESS":"忠義街６０巷３號九樓之４","OBJECTID":321424},"geometry":{"x":171785.1500000013,"y":2544541.1200000029}},{"attributes":{"ID":321434,"DIS_CODE":0,"TOWNNAME":"仁德區","LI":"中洲里","LIN":" ","STREET":" ","SECT":" ","MAREA":"中洲","LANE":" ","ALLEY":" ","HOUSE_NO":"３８５之３號","E_COORD97":173407.35000000001,"N_COORD97":2534284.79,"ADDRESS":"中洲３８５之３號","OBJECTID":321425},"geometry":{"x":173407.34999999963,"y":2534284.790000001}},{"attributes":{"ID":321435,"DIS_CODE":0,"TOWNNAME":"仁德區","LI":"仁愛里","LIN":"20鄰","STREET":" ","SECT":" ","MAREA":"仁愛","LANE":" ","ALLEY":" ","HOUSE_NO":"４０３號","E_COORD97":170113.535099,"N_COORD97":2540191.4899200001,"ADDRESS":"仁愛４０３號","OBJECTID":321426},"geometry":{"x":170113.53509899974,"y":2540191.4899210017}},{"attributes":{"ID":321436,"DIS_CODE":0,"TOWNNAME":"仁德區","LI":"仁愛里","LIN":"23鄰","STREET":" ","SECT":" ","MAREA":"仁愛","LANE":" ","ALLEY":" ","HOUSE_NO":"４８４號","E_COORD97":170117.981528,"N_COORD97":2540051.9019200001,"ADDRESS":"仁愛４８４號","OBJECTID":321427},"geometry":{"x":170117.98152800091,"y":2540051.9019210022}},{"attributes":{"ID":321437,"DIS_CODE":0,"TOWNNAME":"仁德區","LI":"中洲里","LIN":" ","STREET":" ","SECT":" ","MAREA":"中洲","LANE":" ","ALLEY":" ","HOUSE_NO":"３７３之１號","E_COORD97":173410.37,"N_COORD97":2534165.29,"ADDRESS":"中洲３７３之１號","OBJECTID":321428},"geometry":{"x":173410.37000000104,"y":2534165.2899999972}},{"attributes":{"ID":321438,"DIS_CODE":0,"TOWNNAME":"仁德區","LI":"仁愛里","LIN":"28鄰","STREET":"機場路","SECT":" ","MAREA":" ","LANE":" ","ALLEY":" ","HOUSE_NO":"１２３８號","E_COORD97":169695.12,"N_COORD97":2539159.1499999999,"ADDRESS":"機場路１２３８號","OBJECTID":321429},"geometry":{"x":169695.12000000011,"y":2539159.1500000022}},{"attributes":{"ID":321439,"DIS_CODE":0,"TOWNNAME":"仁德區","LI":"中洲里","LIN":" ","STREET":" ","SECT":" ","MAREA":"中洲","LANE":" ","ALLEY":" ","HOUSE_NO":"１之４１號","E_COORD97":174720.54999999999,"N_COORD97":2533713.7999999998,"ADDRESS":"中洲１之４１號","OBJECTID":321430},"geometry":{"x":174720.55000000168,"y":2533713.8000000026}},{"attributes":{"ID":321440,"DIS_CODE":0,"TOWNNAME":"永康區","LI":"中華里","LIN":"15鄰","STREET":"忠義街","SECT":" ","MAREA":" ","LANE":"６０巷","ALLEY":" ","HOUSE_NO":"３號八樓之１０","E_COORD97":171786.42999999999,"N_COORD97":2544541.1200000001,"ADDRESS":"忠義街６０巷３號八樓之１０","OBJECTID":321431},"geometry":{"x":171786.4299999997,"y":2544541.1200000029}},{"attributes":{"ID":321441,"DIS_CODE":0,"TOWNNAME":"仁德區","LI":"中洲里","LIN":" ","STREET":" ","SECT":" ","MAREA":"中洲","LANE":" ","ALLEY":" ","HOUSE_NO":"３０之１號","E_COORD97":173225.26000000001,"N_COORD97":2534444.29,"ADDRESS":"中洲３０之１號","OBJECTID":321432},"geometry":{"x":173225.25999999978,"y":2534444.290000001}},{"attributes":{"ID":321442,"DIS_CODE":0,"TOWNNAME":"永康區","LI":"中華里","LIN":"15鄰","STREET":"忠義街","SECT":" ","MAREA":" ","LANE":"６０巷","ALLEY":" ","HOUSE_NO":"３號十樓之１５","E_COORD97":171786.53,"N_COORD97":2544541.1200000001,"ADDRESS":"忠義街６０巷３號十樓之１５","OBJECTID":321433},"geometry":{"x":171786.53000000026,"y":2544541.1200000029}},{"attributes":{"ID":321443,"DIS_CODE":0,"TOWNNAME":"永康區","LI":"中華里","LIN":"15鄰","STREET":"忠義街","SECT":" ","MAREA":" ","LANE":"６０巷","ALLEY":" ","HOUSE_NO":"３號十五樓之７","E_COORD97":171786.45000000001,"N_COORD97":2544541.1200000001,"ADDRESS":"忠義街６０巷３號十五樓之７","OBJECTID":321434},"geometry":{"x":171786.45000000112,"y":2544541.1200000029}},{"attributes":{"ID":321444,"DIS_CODE":0,"TOWNNAME":"永康區","LI":"中華里","LIN":"15鄰","STREET":"忠義街","SECT":" ","MAREA":" ","LANE":"６０巷","ALLEY":" ","HOUSE_NO":"３號七樓之５","E_COORD97":171785.28,"N_COORD97":2544541.1200000001,"ADDRESS":"忠義街６０巷３號七樓之５","OBJECTID":321435},"geometry":{"x":171785.28000000119,"y":2544541.1200000029}},{"attributes":{"ID":321445,"DIS_CODE":0,"TOWNNAME":"安平區","LI":"育平里","LIN":"17鄰","STREET":"育平路","SECT":" ","MAREA":" ","LANE":" ","ALLEY":" ","HOUSE_NO":"２１２號五樓之３３","E_COORD97":164690.60999999999,"N_COORD97":2543415.9199999999,"ADDRESS":"育平路２１２號五樓之３３","OBJECTID":321436},"geometry":{"x":164690.61000000127,"y":2543415.9200000018}},{"attributes":{"ID":321446,"DIS_CODE":0,"TOWNNAME":"新市區","LI":"大洲里","LIN":"6鄰","STREET":" ","SECT":" ","MAREA":"大洲","LANE":" ","ALLEY":" ","HOUSE_NO":"５４之１號","E_COORD97":174109.16883800001,"N_COORD97":2552298.5547500001,"ADDRESS":"大洲５４之１號","OBJECTID":321437},"geometry":{"x":174109.16883800179,"y":2552298.5547509994}},{"attributes":{"ID":321447,"DIS_CODE":0,"TOWNNAME":"永康區","LI":"中華里","LIN":"15鄰","STREET":"忠義街","SECT":" ","MAREA":" ","LANE":"６０巷","ALLEY":" ","HOUSE_NO":"１號八樓之９","E_COORD97":171785.20999999999,"N_COORD97":2544541.1200000001,"ADDRESS":"忠義街６０巷１號八樓之９","OBJECTID":321438},"geometry":{"x":171785.20999999903,"y":2544541.1200000029}},{"attributes":{"ID":321448,"DIS_CODE":0,"TOWNNAME":"仁德區","LI":"中洲里","LIN":" ","STREET":" ","SECT":" ","MAREA":"中洲","LANE":" ","ALLEY":" ","HOUSE_NO":"１之７號","E_COORD97":173909.79999999999,"N_COORD97":2534382.79,"ADDRESS":"中洲１之７號","OBJECTID":321439},"geometry":{"x":173909.79999999981,"y":2534382.790000001}},{"attributes":{"ID":321449,"DIS_CODE":0,"TOWNNAME":"仁德區","LI":"中生里","LIN":" ","STREET":" ","SECT":" ","MAREA":"中州","LANE":" ","ALLEY":" ","HOUSE_NO":"１３２之１０號","E_COORD97":172491.20999999999,"N_COORD97":2534112.0499999998,"ADDRESS":"中州１３２之１０號","OBJECTID":321440},"geometry":{"x":172491.21000000089,"y":2534112.0500000026}},{"attributes":{"ID":321450,"DIS_CODE":0,"TOWNNAME":"永康區","LI":"中華里","LIN":"15鄰","STREET":"忠義街","SECT":" ","MAREA":" ","LANE":"６０巷","ALLEY":" ","HOUSE_NO":"３號七樓之１２","E_COORD97":171786.51000000001,"N_COORD97":2544541.1200000001,"ADDRESS":"忠義街６０巷３號七樓之１２","OBJECTID":321441},"geometry":{"x":171786.51000000164,"y":2544541.1200000029}},{"attributes":{"ID":321451,"DIS_CODE":0,"TOWNNAME":"永康區","LI":"中華里","LIN":"15鄰","STREET":"忠義街","SECT":" ","MAREA":" ","LANE":"６０巷","ALLEY":" ","HOUSE_NO":"３號九樓之６","E_COORD97":171785.23000000001,"N_COORD97":2544541.1200000001,"ADDRESS":"忠義街６０巷３號九樓之６","OBJECTID":321442},"geometry":{"x":171785.23000000045,"y":2544541.1200000029}},{"attributes":{"ID":321452,"DIS_CODE":0,"TOWNNAME":"永康區","LI":"中華里","LIN":"15鄰","STREET":"忠義街","SECT":" ","MAREA":" ","LANE":"６０巷","ALLEY":" ","HOUSE_NO":"３號六樓之８","E_COORD97":171785.26999999999,"N_COORD97":2544541.1200000001,"ADDRESS":"忠義街６０巷３號六樓之８","OBJECTID":321443},"geometry":{"x":171785.27000000048,"y":2544541.1200000029}},{"attributes":{"ID":321453,"DIS_CODE":0,"TOWNNAME":"永康區","LI":"中華里","LIN":"15鄰","STREET":"忠義街","SECT":" ","MAREA":" ","LANE":"６０巷","ALLEY":" ","HOUSE_NO":"１號十二樓之４","E_COORD97":171786.39999999999,"N_COORD97":2544541.1200000001,"ADDRESS":"忠義街６０巷１號十二樓之４","OBJECTID":321444},"geometry":{"x":171786.4000000013,"y":2544541.1200000029}},{"attributes":{"ID":321454,"DIS_CODE":0,"TOWNNAME":"永康區","LI":"中華里","LIN":"15鄰","STREET":"忠義街","SECT":" ","MAREA":" ","LANE":"６０巷","ALLEY":" ","HOUSE_NO":"３號十樓之９","E_COORD97":171785.20999999999,"N_COORD97":2544541.1200000001,"ADDRESS":"忠義街６０巷３號十樓之９","OBJECTID":321445},"geometry":{"x":171785.20999999903,"y":2544541.1200000029}},{"attributes":{"ID":321455,"DIS_CODE":0,"TOWNNAME":"永康區","LI":"中華里","LIN":"15鄰","STREET":"忠義街","SECT":" ","MAREA":" ","LANE":"６０巷","ALLEY":" ","HOUSE_NO":"１號十一樓之５","E_COORD97":171786.53,"N_COORD97":2544541.1200000001,"ADDRESS":"忠義街６０巷１號十一樓之５","OBJECTID":321446},"geometry":{"x":171786.53000000026,"y":2544541.1200000029}},{"attributes":{"ID":321456,"DIS_CODE":0,"TOWNNAME":"永康區","LI":"中華里","LIN":"15鄰","STREET":"忠義街","SECT":" ","MAREA":" ","LANE":"６０巷","ALLEY":" ","HOUSE_NO":"３號七樓之１４","E_COORD97":171786.39999999999,"N_COORD97":2544541.1200000001,"ADDRESS":"忠義街６０巷３號七樓之１４","OBJECTID":321447},"geometry":{"x":171786.4000000013,"y":2544541.1200000029}},{"attributes":{"ID":321457,"DIS_CODE":0,"TOWNNAME":"永康區","LI":"中華里","LIN":"15鄰","STREET":"忠義街","SECT":" ","MAREA":" ","LANE":"６０巷","ALLEY":" ","HOUSE_NO":"１號十二樓之１０","E_COORD97":171787.67999999999,"N_COORD97":2544541.1200000001,"ADDRESS":"忠義街６０巷１號十二樓之１０","OBJECTID":321448},"geometry":{"x":171787.68000000063,"y":2544541.1200000029}},{"attributes":{"ID":321458,"DIS_CODE":0,"TOWNNAME":"東區","LI":"大同里","LIN":"1鄰","STREET":"大同路","SECT":"一段","MAREA":" ","LANE":" ","ALLEY":" ","HOUSE_NO":"９號","E_COORD97":169195.20999999999,"N_COORD97":2543224.1699999999,"ADDRESS":"大同路一段９號","OBJECTID":321449},"geometry":{"x":169195.21000000089,"y":2543224.1700000018}},{"attributes":{"ID":321459,"DIS_CODE":0,"TOWNNAME":"仁德區","LI":"仁義里","LIN":" ","STREET":" ","SECT":" ","MAREA":"仁義鄉","LANE":" ","ALLEY":" ","HOUSE_NO":"２８９號","E_COORD97":174046.13,"N_COORD97":2541177.7599999998,"ADDRESS":"仁義鄉２８９號","OBJECTID":321450},"geometry":{"x":174046.13000000082,"y":2541177.7600000035}},{"attributes":{"ID":321460,"DIS_CODE":0,"TOWNNAME":"仁德區","LI":"仁愛里","LIN":"28鄰","STREET":"機場路","SECT":" ","MAREA":" ","LANE":" ","ALLEY":" ","HOUSE_NO":"１２４０號","E_COORD97":169695.12,"N_COORD97":2539163.9500000002,"ADDRESS":"機場路１２４０號","OBJECTID":321451},"geometry":{"x":169695.12000000011,"y":2539163.9499999993}},{"attributes":{"ID":321461,"DIS_CODE":0,"TOWNNAME":"仁德區","LI":"中洲里","LIN":" ","STREET":" ","SECT":" ","MAREA":"中洲","LANE":" ","ALLEY":" ","HOUSE_NO":"２９８之１號","E_COORD97":173346.95999999999,"N_COORD97":2533857.54,"ADDRESS":"中洲２９８之１號","OBJECTID":321452},"geometry":{"x":173346.96000000089,"y":2533857.5399999991}},{"attributes":{"ID":321462,"DIS_CODE":0,"TOWNNAME":"官田區","LI":"湖山里","LIN":"1鄰","STREET":" ","SECT":" ","MAREA":"烏山頭","LANE":" ","ALLEY":" ","HOUSE_NO":"５號之３","E_COORD97":183307.54000000001,"N_COORD97":2567442.5499999998,"ADDRESS":"烏山頭５號之３","OBJECTID":321453},"geometry":{"x":183307.54000000097,"y":2567442.5500000026}},{"attributes":{"ID":321463,"DIS_CODE":0,"TOWNNAME":"永康區","LI":"中華里","LIN":"15鄰","STREET":"忠義街","SECT":" ","MAREA":" ","LANE":"６０巷","ALLEY":" ","HOUSE_NO":"３號七樓之１０","E_COORD97":171786.42999999999,"N_COORD97":2544541.1200000001,"ADDRESS":"忠義街６０巷３號七樓之１０","OBJECTID":321454},"geometry":{"x":171786.4299999997,"y":2544541.1200000029}},{"attributes":{"ID":321464,"DIS_CODE":0,"TOWNNAME":"永康區","LI":"中華里","LIN":"15鄰","STREET":"忠義街","SECT":" ","MAREA":" ","LANE":"６０巷","ALLEY":" ","HOUSE_NO":"３號十樓之８","E_COORD97":171785.26999999999,"N_COORD97":2544541.1200000001,"ADDRESS":"忠義街６０巷３號十樓之８","OBJECTID":321455},"geometry":{"x":171785.27000000048,"y":2544541.1200000029}},{"attributes":{"ID":321465,"DIS_CODE":0,"TOWNNAME":"永康區","LI":"中華里","LIN":"15鄰","STREET":"忠義街","SECT":" ","MAREA":" ","LANE":"６０巷","ALLEY":" ","HOUSE_NO":"１號十一樓之１２","E_COORD97":171787.76000000001,"N_COORD97":2544541.1200000001,"ADDRESS":"忠義街６０巷１號十一樓之１２","OBJECTID":321456},"geometry":{"x":171787.75999999978,"y":2544541.1200000029}},{"attributes":{"ID":321466,"DIS_CODE":0,"TOWNNAME":"永康區","LI":"中華里","LIN":"15鄰","STREET":"忠義街","SECT":" ","MAREA":" ","LANE":"６０巷","ALLEY":" ","HOUSE_NO":"１號十二樓之１１","E_COORD97":171787.63,"N_COORD97":2544541.1200000001,"ADDRESS":"忠義街６０巷１號十二樓之１１","OBJECTID":321457},"geometry":{"x":171787.63000000082,"y":2544541.1200000029}},{"attributes":{"ID":321467,"DIS_CODE":0,"TOWNNAME":"永康區","LI":"中華里","LIN":"15鄰","STREET":"忠義街","SECT":" ","MAREA":" ","LANE":"６０巷","ALLEY":" ","HOUSE_NO":"１號十一樓之８","E_COORD97":171786.51999999999,"N_COORD97":2544541.1200000001,"ADDRESS":"忠義街６０巷１號十一樓之８","OBJECTID":321458},"geometry":{"x":171786.52000000048,"y":2544541.1200000029}},{"attributes":{"ID":321468,"DIS_CODE":0,"TOWNNAME":"安平區","LI":"育平里","LIN":"17鄰","STREET":"育平路","SECT":" ","MAREA":" ","LANE":" ","ALLEY":" ","HOUSE_NO":"２１２號五樓之３５","E_COORD97":164690.60999999999,"N_COORD97":2543415.9199999999,"ADDRESS":"育平路２１２號五樓之３５","OBJECTID":321459},"geometry":{"x":164690.61000000127,"y":2543415.9200000018}},{"attributes":{"ID":321469,"DIS_CODE":0,"TOWNNAME":"仁德區","LI":"中洲里","LIN":" ","STREET":" ","SECT":" ","MAREA":"中洲","LANE":" ","ALLEY":" ","HOUSE_NO":"３１６之９號","E_COORD97":173368.95000000001,"N_COORD97":2534069.04,"ADDRESS":"中洲３１６之９號","OBJECTID":321460},"geometry":{"x":173368.95000000205,"y":2534069.0400000028}},{"attributes":{"ID":321470,"DIS_CODE":0,"TOWNNAME":"仁德區","LI":"中洲里","LIN":" ","STREET":" ","SECT":" ","MAREA":"中洲","LANE":" ","ALLEY":" ","HOUSE_NO":"３１７之３號","E_COORD97":173424.82000000001,"N_COORD97":2533989.0499999998,"ADDRESS":"中洲３１７之３號","OBJECTID":321461},"geometry":{"x":173424.82000000123,"y":2533989.0500000045}},{"attributes":{"ID":321471,"DIS_CODE":0,"TOWNNAME":"仁德區","LI":"仁愛里","LIN":"28鄰","STREET":"機場路","SECT":" ","MAREA":" ","LANE":" ","ALLEY":" ","HOUSE_NO":"１２４６號","E_COORD97":169695.12,"N_COORD97":2539173.0499999998,"ADDRESS":"機場路１２４６號","OBJECTID":321462},"geometry":{"x":169695.12000000011,"y":2539173.0500000045}},{"attributes":{"ID":321472,"DIS_CODE":0,"TOWNNAME":"安南區","LI":"海東里","LIN":"21鄰","STREET":"海東二街","SECT":" ","MAREA":" ","LANE":" ","ALLEY":" ","HOUSE_NO":"５７號","E_COORD97":166871.09213800001,"N_COORD97":2547893.2827499998,"ADDRESS":"海東二街５７號","OBJECTID":321463},"geometry":{"x":166871.09213800076,"y":2547893.2827480007}},{"attributes":{"ID":321473,"DIS_CODE":0,"TOWNNAME":"仁德區","LI":"保安里","LIN":" ","STREET":"中正路","SECT":"一段","MAREA":" ","LANE":"２５１巷","ALLEY":" ","HOUSE_NO":"１５號","E_COORD97":171747.42999999999,"N_COORD97":2536035.77,"ADDRESS":"中正路一段２５１巷１５號","OBJECTID":321464},"geometry":{"x":171747.4299999997,"y":2536035.7700000014}},{"attributes":{"ID":321474,"DIS_CODE":0,"TOWNNAME":"仁德區","LI":"新田里","LIN":" ","STREET":"新田二街","SECT":" ","MAREA":" ","LANE":"１１８巷","ALLEY":" ","HOUSE_NO":"１號","E_COORD97":174882.10000000001,"N_COORD97":2539860.9900000002,"ADDRESS":"新田二街１１８巷１號","OBJECTID":321465},"geometry":{"x":174882.09999999963,"y":2539860.9899999984}},{"attributes":{"ID":321475,"DIS_CODE":0,"TOWNNAME":"永康區","LI":"中華里","LIN":"15鄰","STREET":"忠義街","SECT":" ","MAREA":" ","LANE":"６０巷","ALLEY":" ","HOUSE_NO":"１號十二樓之１２","E_COORD97":171787.76000000001,"N_COORD97":2544541.1200000001,"ADDRESS":"忠義街６０巷１號十二樓之１２","OBJECTID":321466},"geometry":{"x":171787.75999999978,"y":2544541.1200000029}},{"attributes":{"ID":321476,"DIS_CODE":0,"TOWNNAME":"永康區","LI":"中華里","LIN":"15鄰","STREET":"忠義街","SECT":" ","MAREA":" ","LANE":"６０巷","ALLEY":" ","HOUSE_NO":"３號十樓之５","E_COORD97":171785.28,"N_COORD97":2544541.1200000001,"ADDRESS":"忠義街６０巷３號十樓之５","OBJECTID":321467},"geometry":{"x":171785.28000000119,"y":2544541.1200000029}},{"attributes":{"ID":321477,"DIS_CODE":0,"TOWNNAME":"永康區","LI":"中華里","LIN":"15鄰","STREET":"忠義街","SECT":" ","MAREA":" ","LANE":"６０巷","ALLEY":" ","HOUSE_NO":"３號七樓之１１","E_COORD97":171786.38,"N_COORD97":2544541.1200000001,"ADDRESS":"忠義街６０巷３號七樓之１１","OBJECTID":321468},"geometry":{"x":171786.38000000082,"y":2544541.1200000029}},{"attributes":{"ID":321478,"DIS_CODE":0,"TOWNNAME":"永康區","LI":"中華里","LIN":"15鄰","STREET":"忠義街","SECT":" ","MAREA":" ","LANE":"６０巷","ALLEY":" ","HOUSE_NO":"３號十五樓之８","E_COORD97":171786.51999999999,"N_COORD97":2544541.1200000001,"ADDRESS":"忠義街６０巷３號十五樓之８","OBJECTID":321469},"geometry":{"x":171786.52000000048,"y":2544541.1200000029}},{"attributes":{"ID":321479,"DIS_CODE":0,"TOWNNAME":"安平區","LI":"育平里","LIN":"17鄰","STREET":"育平路","SECT":" ","MAREA":" ","LANE":" ","ALLEY":" ","HOUSE_NO":"２１２號四樓之３７","E_COORD97":164690.60999999999,"N_COORD97":2543415.9199999999,"ADDRESS":"育平路２１２號四樓之３７","OBJECTID":321470},"geometry":{"x":164690.61000000127,"y":2543415.9200000018}},{"attributes":{"ID":321480,"DIS_CODE":0,"TOWNNAME":"新營區","LI":"民榮里","LIN":"17鄰","STREET":"富強街","SECT":" ","MAREA":" ","LANE":" ","ALLEY":" ","HOUSE_NO":"６１號七樓","E_COORD97":178879.03,"N_COORD97":2577887.02,"ADDRESS":"富強街６１號七樓","OBJECTID":321471},"geometry":{"x":178879.03000000026,"y":2577887.0200000014}},{"attributes":{"ID":321481,"DIS_CODE":0,"TOWNNAME":"新營區","LI":"民榮里","LIN":"17鄰","STREET":"富強街","SECT":" ","MAREA":" ","LANE":" ","ALLEY":" ","HOUSE_NO":"６１號六樓之１","E_COORD97":178881.16,"N_COORD97":2577887.0600000001,"ADDRESS":"富強街６１號六樓之１","OBJECTID":321472},"geometry":{"x":178881.16000000015,"y":2577887.0600000005}},{"attributes":{"ID":321482,"DIS_CODE":0,"TOWNNAME":"新營區","LI":"民榮里","LIN":"17鄰","STREET":"富強街","SECT":" ","MAREA":" ","LANE":" ","ALLEY":" ","HOUSE_NO":"３２號二樓","E_COORD97":178988.16,"N_COORD97":2577803.4500000002,"ADDRESS":"富強街３２號二樓","OBJECTID":321473},"geometry":{"x":178988.16000000015,"y":2577803.4500000011}},{"attributes":{"ID":321483,"DIS_CODE":0,"TOWNNAME":"仁德區","LI":"中洲里","LIN":" ","STREET":" ","SECT":" ","MAREA":"中洲","LANE":" ","ALLEY":" ","HOUSE_NO":"３１７之３１號","E_COORD97":173473.87,"N_COORD97":2534008.7999999998,"ADDRESS":"中洲３１７之３１號","OBJECTID":321474},"geometry":{"x":173473.87000000011,"y":2534008.8000000026}},{"attributes":{"ID":321484,"DIS_CODE":0,"TOWNNAME":"仁德區","LI":"仁愛里","LIN":"28鄰","STREET":"機場路","SECT":" ","MAREA":" ","LANE":" ","ALLEY":" ","HOUSE_NO":"１２４２號","E_COORD97":169695.12,"N_COORD97":2539168.7000000002,"ADDRESS":"機場路１２４２號","OBJECTID":321475},"geometry":{"x":169695.12000000011,"y":2539168.7000000011}},{"attributes":{"ID":321485,"DIS_CODE":0,"TOWNNAME":"仁德區","LI":"中洲里","LIN":" ","STREET":" ","SECT":" ","MAREA":"中洲","LANE":" ","ALLEY":" ","HOUSE_NO":"２９之２３號","E_COORD97":173131.06,"N_COORD97":2534825.7999999998,"ADDRESS":"中洲２９之２３號","OBJECTID":321476},"geometry":{"x":173131.05999999959,"y":2534825.8000000026}},{"attributes":{"ID":321486,"DIS_CODE":0,"TOWNNAME":"仁德區","LI":"中生里","LIN":" ","STREET":" ","SECT":" ","MAREA":"中洲","LANE":" ","ALLEY":" ","HOUSE_NO":"８９之２號","E_COORD97":173051.51999999999,"N_COORD97":2534296.0499999998,"ADDRESS":"中洲８９之２號","OBJECTID":321477},"geometry":{"x":173051.52000000048,"y":2534296.0500000007}},{"attributes":{"ID":321487,"DIS_CODE":0,"TOWNNAME":"仁德區","LI":"中洲里","LIN":" ","STREET":" ","SECT":" ","MAREA":"中洲","LANE":" ","ALLEY":" ","HOUSE_NO":"３４４之２號","E_COORD97":173313.13,"N_COORD97":2534158.29,"ADDRESS":"中洲３４４之２號","OBJECTID":321478},"geometry":{"x":173313.13000000175,"y":2534158.2899999991}},{"attributes":{"ID":321488,"DIS_CODE":0,"TOWNNAME":"仁德區","LI":"中生里","LIN":" ","STREET":" ","SECT":" ","MAREA":"中洲","LANE":" ","ALLEY":" ","HOUSE_NO":"７５之４號","E_COORD97":173078.60000000001,"N_COORD97":2534393.2999999998,"ADDRESS":"中洲７５之４號","OBJECTID":321479},"geometry":{"x":173078.59999999963,"y":2534393.3000000007}},{"attributes":{"ID":321489,"DIS_CODE":0,"TOWNNAME":"仁德區","LI":"仁愛里","LIN":"28鄰","STREET":"機場路","SECT":" ","MAREA":" ","LANE":" ","ALLEY":" ","HOUSE_NO":"１２２２號","E_COORD97":169695.01999999999,"N_COORD97":2539143.8100000001,"ADDRESS":"機場路１２２２號","OBJECTID":321480},"geometry":{"x":169695.02000000048,"y":2539143.8100000042}},{"attributes":{"ID":321490,"DIS_CODE":0,"TOWNNAME":"仁德區","LI":"中洲里","LIN":" ","STREET":" ","SECT":" ","MAREA":"中洲","LANE":" ","ALLEY":" ","HOUSE_NO":"３９３之３號","E_COORD97":173446.06,"N_COORD97":2534151.29,"ADDRESS":"中洲３９３之３號","OBJECTID":321481},"geometry":{"x":173446.06000000052,"y":2534151.2899999991}},{"attributes":{"ID":321491,"DIS_CODE":0,"TOWNNAME":"仁德區","LI":"大甲里","LIN":" ","STREET":"行大街","SECT":" ","MAREA":" ","LANE":"３０７巷","ALLEY":" ","HOUSE_NO":"２７號","E_COORD97":169698.62,"N_COORD97":2535098.9900000002,"ADDRESS":"行大街３０７巷２７號","OBJECTID":321482},"geometry":{"x":169698.62000000011,"y":2535098.9900000021}},{"attributes":{"ID":321492,"DIS_CODE":0,"TOWNNAME":"仁德區","LI":"大甲里","LIN":" ","STREET":"行大街","SECT":" ","MAREA":" ","LANE":"３４１巷","ALLEY":" ","HOUSE_NO":"５號","E_COORD97":169649.01000000001,"N_COORD97":2535180.7400000002,"ADDRESS":"行大街３４１巷５號","OBJECTID":321483},"geometry":{"x":169649.01000000071,"y":2535180.7400000039}},{"attributes":{"ID":321493,"DIS_CODE":0,"TOWNNAME":"仁德區","LI":"後壁里","LIN":" ","STREET":"德洋二街","SECT":" ","MAREA":" ","LANE":"５巷","ALLEY":" ","HOUSE_NO":"９號","E_COORD97":172501.20999999999,"N_COORD97":2539352.0099999998,"ADDRESS":"德洋二街５巷９號","OBJECTID":321484},"geometry":{"x":172501.21000000089,"y":2539352.0100000035}},{"attributes":{"ID":321494,"DIS_CODE":0,"TOWNNAME":"永康區","LI":"中華里","LIN":"15鄰","STREET":"忠義街","SECT":" ","MAREA":" ","LANE":"６０巷","ALLEY":" ","HOUSE_NO":"３號八樓之１５","E_COORD97":171786.53,"N_COORD97":2544541.1200000001,"ADDRESS":"忠義街６０巷３號八樓之１５","OBJECTID":321485},"geometry":{"x":171786.53000000026,"y":2544541.1200000029}},{"attributes":{"ID":321495,"DIS_CODE":0,"TOWNNAME":"新市區","LI":"新和里","LIN":"8鄰","STREET":"仁愛街","SECT":" ","MAREA":" ","LANE":" ","ALLEY":" ","HOUSE_NO":"１０９號","E_COORD97":177545.79831099999,"N_COORD97":2552558.6138300002,"ADDRESS":"仁愛街１０９號","OBJECTID":321486},"geometry":{"x":177545.79831100069,"y":2552558.6138330009}},{"attributes":{"ID":321496,"DIS_CODE":0,"TOWNNAME":"永康區","LI":"中華里","LIN":"15鄰","STREET":"忠義街","SECT":" ","MAREA":" ","LANE":"６０巷","ALLEY":" ","HOUSE_NO":"３號六樓之１３","E_COORD97":171786.47,"N_COORD97":2544541.1200000001,"ADDRESS":"忠義街６０巷３號六樓之１３","OBJECTID":321487},"geometry":{"x":171786.46999999974,"y":2544541.1200000029}},{"attributes":{"ID":321497,"DIS_CODE":0,"TOWNNAME":"永康區","LI":"中華里","LIN":"15鄰","STREET":"忠義街","SECT":" ","MAREA":" ","LANE":"６０巷","ALLEY":" ","HOUSE_NO":"３號十樓之１４","E_COORD97":171786.39999999999,"N_COORD97":2544541.1200000001,"ADDRESS":"忠義街６０巷３號十樓之１４","OBJECTID":321488},"geometry":{"x":171786.4000000013,"y":2544541.1200000029}},{"attributes":{"ID":321498,"DIS_CODE":0,"TOWNNAME":"永康區","LI":"中華里","LIN":"15鄰","STREET":"忠義街","SECT":" ","MAREA":" ","LANE":"６０巷","ALLEY":" ","HOUSE_NO":"３號七樓之３","E_COORD97":171785.22,"N_COORD97":2544541.1200000001,"ADDRESS":"忠義街６０巷３號七樓之３","OBJECTID":321489},"geometry":{"x":171785.22000000067,"y":2544541.1200000029}},{"attributes":{"ID":321499,"DIS_CODE":0,"TOWNNAME":"永康區","LI":"中華里","LIN":"15鄰","STREET":"忠義街","SECT":" ","MAREA":" ","LANE":"６０巷","ALLEY":" ","HOUSE_NO":"３號六樓之９","E_COORD97":171785.20999999999,"N_COORD97":2544541.1200000001,"ADDRESS":"忠義街６０巷３號六樓之９","OBJECTID":321490},"geometry":{"x":171785.20999999903,"y":2544541.1200000029}},{"attributes":{"ID":321500,"DIS_CODE":0,"TOWNNAME":"新營區","LI":"民榮里","LIN":"17鄰","STREET":"富強街","SECT":" ","MAREA":" ","LANE":" ","ALLEY":" ","HOUSE_NO":"６１號四樓之２","E_COORD97":178881.29000000001,"N_COORD97":2577887.0600000001,"ADDRESS":"富強街６１號四樓之２","OBJECTID":321491},"geometry":{"x":178881.29000000097,"y":2577887.0600000005}},{"attributes":{"ID":321501,"DIS_CODE":0,"TOWNNAME":"新營區","LI":"民榮里","LIN":"17鄰","STREET":"富強街","SECT":" ","MAREA":" ","LANE":" ","ALLEY":" ","HOUSE_NO":"６１號四樓之３","E_COORD97":178881.26000000001,"N_COORD97":2577887.0600000001,"ADDRESS":"富強街６１號四樓之３","OBJECTID":321492},"geometry":{"x":178881.26000000071,"y":2577887.0600000005}},{"attributes":{"ID":321502,"DIS_CODE":0,"TOWNNAME":"新營區","LI":"民榮里","LIN":"17鄰","STREET":"富強街","SECT":" ","MAREA":" ","LANE":" ","ALLEY":" ","HOUSE_NO":"３０號三樓","E_COORD97":178988.16,"N_COORD97":2577803.4500000002,"ADDRESS":"富強街３０號三樓","OBJECTID":321493},"geometry":{"x":178988.16000000015,"y":2577803.4500000011}},{"attributes":{"ID":321503,"DIS_CODE":0,"TOWNNAME":"新營區","LI":"民榮里","LIN":"17鄰","STREET":"富強街","SECT":" ","MAREA":" ","LANE":" ","ALLEY":" ","HOUSE_NO":"６１號五樓之１","E_COORD97":178881.16,"N_COORD97":2577887.0600000001,"ADDRESS":"富強街６１號五樓之１","OBJECTID":321494},"geometry":{"x":178881.16000000015,"y":2577887.0600000005}},{"attributes":{"ID":321504,"DIS_CODE":0,"TOWNNAME":"新營區","LI":"民榮里","LIN":"17鄰","STREET":"富強街","SECT":" ","MAREA":" ","LANE":" ","ALLEY":" ","HOUSE_NO":"２８號四樓","E_COORD97":178988.14000000001,"N_COORD97":2577803.4500000002,"ADDRESS":"富強街２８號四樓","OBJECTID":321495},"geometry":{"x":178988.13999999966,"y":2577803.4500000011}},{"attributes":{"ID":321505,"DIS_CODE":0,"TOWNNAME":"仁德區","LI":"中洲里","LIN":" ","STREET":" ","SECT":" ","MAREA":"中洲","LANE":" ","ALLEY":" ","HOUSE_NO":"１６之３３號","E_COORD97":172139.20000000001,"N_COORD97":2535283.54,"ADDRESS":"中洲１６之３３號","OBJECTID":321496},"geometry":{"x":172139.20000000019,"y":2535283.540000001}},{"attributes":{"ID":321506,"DIS_CODE":0,"TOWNNAME":"仁德區","LI":"三甲里","LIN":" ","STREET":" ","SECT":" ","MAREA":"三甲子","LANE":" ","ALLEY":" ","HOUSE_NO":"６０號","E_COORD97":172150.28,"N_COORD97":2536231.7400000002,"ADDRESS":"三甲子６０號","OBJECTID":321497},"geometry":{"x":172150.28000000119,"y":2536231.7400000039}},{"attributes":{"ID":321507,"DIS_CODE":0,"TOWNNAME":"仁德區","LI":"後壁里","LIN":" ","STREET":"德南路","SECT":" ","MAREA":" ","LANE":"１９４巷","ALLEY":" ","HOUSE_NO":"１０之１號","E_COORD97":173670.72,"N_COORD97":2538475.5,"ADDRESS":"德南路１９４巷１０之１號","OBJECTID":321498},"geometry":{"x":173670.72000000067,"y":2538475.5000000019}},{"attributes":{"ID":321508,"DIS_CODE":0,"TOWNNAME":"永康區","LI":"中華里","LIN":"15鄰","STREET":"忠義街","SECT":" ","MAREA":" ","LANE":"６０巷","ALLEY":" ","HOUSE_NO":"１號十一樓之１４","E_COORD97":171787.64999999999,"N_COORD97":2544541.1200000001,"ADDRESS":"忠義街６０巷１號十一樓之１４","OBJECTID":321499},"geometry":{"x":171787.65000000037,"y":2544541.1200000029}},{"attributes":{"ID":321509,"DIS_CODE":0,"TOWNNAME":"永康區","LI":"中華里","LIN":"15鄰","STREET":"忠義街","SECT":" ","MAREA":" ","LANE":"６０巷","ALLEY":" ","HOUSE_NO":"３號十樓之１１","E_COORD97":171786.38,"N_COORD97":2544541.1200000001,"ADDRESS":"忠義街６０巷３號十樓之１１","OBJECTID":321500},"geometry":{"x":171786.38000000082,"y":2544541.1200000029}},{"attributes":{"ID":321510,"DIS_CODE":0,"TOWNNAME":"永康區","LI":"中華里","LIN":"15鄰","STREET":"忠義街","SECT":" ","MAREA":" ","LANE":"６０巷","ALLEY":" ","HOUSE_NO":"３號六樓之６","E_COORD97":171785.23000000001,"N_COORD97":2544541.1200000001,"ADDRESS":"忠義街６０巷３號六樓之６","OBJECTID":321501},"geometry":{"x":171785.23000000045,"y":2544541.1200000029}},{"attributes":{"ID":321511,"DIS_CODE":0,"TOWNNAME":"永康區","LI":"中華里","LIN":"15鄰","STREET":"忠義街","SECT":" ","MAREA":" ","LANE":"６０巷","ALLEY":" ","HOUSE_NO":"１號十二樓之２","E_COORD97":171786.51000000001,"N_COORD97":2544541.1200000001,"ADDRESS":"忠義街６０巷１號十二樓之２","OBJECTID":321502},"geometry":{"x":171786.51000000164,"y":2544541.1200000029}},{"attributes":{"ID":321512,"DIS_CODE":0,"TOWNNAME":"永康區","LI":"中華里","LIN":"15鄰","STREET":"忠義街","SECT":" ","MAREA":" ","LANE":"６０巷","ALLEY":" ","HOUSE_NO":"１號十一樓之９","E_COORD97":171786.45999999999,"N_COORD97":2544541.1200000001,"ADDRESS":"忠義街６０巷１號十一樓之９","OBJECTID":321503},"geometry":{"x":171786.45999999996,"y":2544541.1200000029}},{"attributes":{"ID":321513,"DIS_CODE":0,"TOWNNAME":"永康區","LI":"中華里","LIN":"15鄰","STREET":"忠義街","SECT":" ","MAREA":" ","LANE":"６０巷","ALLEY":" ","HOUSE_NO":"３號十樓之１２","E_COORD97":171786.51000000001,"N_COORD97":2544541.1200000001,"ADDRESS":"忠義街６０巷３號十樓之１２","OBJECTID":321504},"geometry":{"x":171786.51000000164,"y":2544541.1200000029}},{"attributes":{"ID":321514,"DIS_CODE":0,"TOWNNAME":"永康區","LI":"中華里","LIN":"15鄰","STREET":"忠義街","SECT":" ","MAREA":" ","LANE":"６０巷","ALLEY":" ","HOUSE_NO":"３號九樓之９","E_COORD97":171785.20999999999,"N_COORD97":2544541.1200000001,"ADDRESS":"忠義街６０巷３號九樓之９","OBJECTID":321505},"geometry":{"x":171785.20999999903,"y":2544541.1200000029}},{"attributes":{"ID":321515,"DIS_CODE":0,"TOWNNAME":"永康區","LI":"中華里","LIN":"15鄰","STREET":"忠義街","SECT":" ","MAREA":" ","LANE":"６０巷","ALLEY":" ","HOUSE_NO":"１號八樓之４","E_COORD97":171785.14999999999,"N_COORD97":2544541.1200000001,"ADDRESS":"忠義街６０巷１號八樓之４","OBJECTID":321506},"geometry":{"x":171785.1500000013,"y":2544541.1200000029}},{"attributes":{"ID":321516,"DIS_CODE":0,"TOWNNAME":"永康區","LI":"中華里","LIN":"15鄰","STREET":"忠義街","SECT":" ","MAREA":" ","LANE":"６０巷","ALLEY":" ","HOUSE_NO":"３號十四樓之１６","E_COORD97":171787.73000000001,"N_COORD97":2544541.1200000001,"ADDRESS":"忠義街６０巷３號十四樓之１６","OBJECTID":321507},"geometry":{"x":171787.73000000138,"y":2544541.1200000029}},{"attributes":{"ID":321517,"DIS_CODE":0,"TOWNNAME":"永康區","LI":"中華里","LIN":"15鄰","STREET":"忠義街","SECT":" ","MAREA":" ","LANE":"６０巷","ALLEY":" ","HOUSE_NO":"３號九樓之１５","E_COORD97":171786.53,"N_COORD97":2544541.1200000001,"ADDRESS":"忠義街６０巷３號九樓之１５","OBJECTID":321508},"geometry":{"x":171786.53000000026,"y":2544541.1200000029}},{"attributes":{"ID":321518,"DIS_CODE":0,"TOWNNAME":"新營區","LI":"民榮里","LIN":"17鄰","STREET":"富強街","SECT":" ","MAREA":" ","LANE":" ","ALLEY":" ","HOUSE_NO":"３６號四樓","E_COORD97":178988.16,"N_COORD97":2577803.4500000002,"ADDRESS":"富強街３６號四樓","OBJECTID":321509},"geometry":{"x":178988.16000000015,"y":2577803.4500000011}},{"attributes":{"ID":321519,"DIS_CODE":0,"TOWNNAME":"七股區","LI":"義合里","LIN":"1鄰","STREET":" ","SECT":" ","MAREA":"義合","LANE":" ","ALLEY":" ","HOUSE_NO":"３號之２","E_COORD97":163096.74109900001,"N_COORD97":2556457.1760900002,"ADDRESS":"義合３號之２","OBJECTID":321510},"geometry":{"x":163096.74109899998,"y":2556457.176089}},{"attributes":{"ID":321520,"DIS_CODE":0,"TOWNNAME":"仁德區","LI":"太子里","LIN":" ","STREET":"長興一街","SECT":" ","MAREA":" ","LANE":"８６巷","ALLEY":" ","HOUSE_NO":"８之３號","E_COORD97":174483.04000000001,"N_COORD97":2543921.2999999998,"ADDRESS":"長興一街８６巷８之３號","OBJECTID":321511},"geometry":{"x":174483.04000000004,"y":2543921.3000000045}},{"attributes":{"ID":321521,"DIS_CODE":0,"TOWNNAME":"仁德區","LI":"三甲里","LIN":" ","STREET":" ","SECT":" ","MAREA":"三甲子","LANE":" ","ALLEY":" ","HOUSE_NO":"１１號","E_COORD97":171911.95999999999,"N_COORD97":2537145.4900000002,"ADDRESS":"三甲子１１號","OBJECTID":321512},"geometry":{"x":171911.95999999996,"y":2537145.4900000039}},{"attributes":{"ID":321522,"DIS_CODE":0,"TOWNNAME":"仁德區","LI":"仁愛里","LIN":" ","STREET":" ","SECT":" ","MAREA":"仁愛","LANE":" ","ALLEY":" ","HOUSE_NO":"２６３之２號","E_COORD97":170313.37,"N_COORD97":2540150.04,"ADDRESS":"仁愛２６３之２號","OBJECTID":321513},"geometry":{"x":170313.37000000104,"y":2540150.0399999991}},{"attributes":{"ID":321523,"DIS_CODE":0,"TOWNNAME":"官田區","LI":"二鎮里","LIN":"3鄰","STREET":" ","SECT":" ","MAREA":"二鎮","LANE":" ","ALLEY":" ","HOUSE_NO":"２０號之１","E_COORD97":181251.01000000001,"N_COORD97":2568220.1000000001,"ADDRESS":"二鎮２０號之１","OBJECTID":321514},"geometry":{"x":181251.01000000071,"y":2568220.0999999978}},{"attributes":{"ID":321524,"DIS_CODE":0,"TOWNNAME":"永康區","LI":"中華里","LIN":"15鄰","STREET":"忠義街","SECT":" ","MAREA":" ","LANE":"６０巷","ALLEY":" ","HOUSE_NO":"３號十四樓之１５","E_COORD97":171787.78,"N_COORD97":2544541.1200000001,"ADDRESS":"忠義街６０巷３號十四樓之１５","OBJECTID":321515},"geometry":{"x":171787.78000000026,"y":2544541.1200000029}},{"attributes":{"ID":321525,"DIS_CODE":0,"TOWNNAME":"永康區","LI":"中華里","LIN":"15鄰","STREET":"忠義街","SECT":" ","MAREA":" ","LANE":"６０巷","ALLEY":" ","HOUSE_NO":"３號七樓之４","E_COORD97":171785.14999999999,"N_COORD97":2544541.1200000001,"ADDRESS":"忠義街６０巷３號七樓之４","OBJECTID":321516},"geometry":{"x":171785.1500000013,"y":2544541.1200000029}},{"attributes":{"ID":321526,"DIS_CODE":0,"TOWNNAME":"永康區","LI":"中華里","LIN":"15鄰","STREET":"忠義街","SECT":" ","MAREA":" ","LANE":"６０巷","ALLEY":" ","HOUSE_NO":"３號九樓之２","E_COORD97":171785.26000000001,"N_COORD97":2544541.1200000001,"ADDRESS":"忠義街６０巷３號九樓之２","OBJECTID":321517},"geometry":{"x":171785.26000000071,"y":2544541.1200000029}},{"attributes":{"ID":321527,"DIS_CODE":0,"TOWNNAME":"永康區","LI":"中華里","LIN":"15鄰","STREET":"忠義街","SECT":" ","MAREA":" ","LANE":"６０巷","ALLEY":" ","HOUSE_NO":"３號九樓之１","E_COORD97":171785.13,"N_COORD97":2544541.1200000001,"ADDRESS":"忠義街６０巷３號九樓之１","OBJECTID":321518},"geometry":{"x":171785.12999999989,"y":2544541.1200000029}},{"attributes":{"ID":321528,"DIS_CODE":0,"TOWNNAME":"關廟區","LI":"關廟里","LIN":"3鄰","STREET":"武聖路","SECT":" ","MAREA":" ","LANE":" ","ALLEY":" ","HOUSE_NO":"２５號","E_COORD97":180928.407171,"N_COORD97":2540185.1100900001,"ADDRESS":"武聖路２５號","OBJECTID":321519},"geometry":{"x":180928.4071709998,"y":2540185.1100910027}},{"attributes":{"ID":321529,"DIS_CODE":0,"TOWNNAME":"永康區","LI":"中華里","LIN":"15鄰","STREET":"忠義街","SECT":" ","MAREA":" ","LANE":"６０巷","ALLEY":" ","HOUSE_NO":"３號九樓之１０","E_COORD97":171786.42999999999,"N_COORD97":2544541.1200000001,"ADDRESS":"忠義街６０巷３號九樓之１０","OBJECTID":321520},"geometry":{"x":171786.4299999997,"y":2544541.1200000029}},{"attributes":{"ID":321530,"DIS_CODE":0,"TOWNNAME":"永康區","LI":"中華里","LIN":"15鄰","STREET":"忠義街","SECT":" ","MAREA":" ","LANE":"６０巷","ALLEY":" ","HOUSE_NO":"３號九樓之１３","E_COORD97":171786.47,"N_COORD97":2544541.1200000001,"ADDRESS":"忠義街６０巷３號九樓之１３","OBJECTID":321521},"geometry":{"x":171786.46999999974,"y":2544541.1200000029}},{"attributes":{"ID":321531,"DIS_CODE":0,"TOWNNAME":"永康區","LI":"中華里","LIN":"15鄰","STREET":"忠義街","SECT":" ","MAREA":" ","LANE":"６０巷","ALLEY":" ","HOUSE_NO":"３號六樓之１","E_COORD97":171785.13,"N_COORD97":2544541.1200000001,"ADDRESS":"忠義街６０巷３號六樓之１","OBJECTID":321522},"geometry":{"x":171785.12999999989,"y":2544541.1200000029}},{"attributes":{"ID":321532,"DIS_CODE":0,"TOWNNAME":"永康區","LI":"中華里","LIN":"15鄰","STREET":"忠義街","SECT":" ","MAREA":" ","LANE":"６０巷","ALLEY":" ","HOUSE_NO":"３號六樓之５","E_COORD97":171785.28,"N_COORD97":2544541.1200000001,"ADDRESS":"忠義街６０巷３號六樓之５","OBJECTID":321523},"geometry":{"x":171785.28000000119,"y":2544541.1200000029}},{"attributes":{"ID":321533,"DIS_CODE":0,"TOWNNAME":"永康區","LI":"中華里","LIN":"15鄰","STREET":"忠義街","SECT":" ","MAREA":" ","LANE":"６０巷","ALLEY":" ","HOUSE_NO":"３號十四樓之６","E_COORD97":171786.48000000001,"N_COORD97":2544541.1200000001,"ADDRESS":"忠義街６０巷３號十四樓之６","OBJECTID":321524},"geometry":{"x":171786.48000000138,"y":2544541.1200000029}},{"attributes":{"ID":321534,"DIS_CODE":0,"TOWNNAME":"新營區","LI":"民榮里","LIN":"17鄰","STREET":"富強街","SECT":" ","MAREA":" ","LANE":" ","ALLEY":" ","HOUSE_NO":"６１號五樓之４","E_COORD97":178881.19,"N_COORD97":2577887.0600000001,"ADDRESS":"富強街６１號五樓之４","OBJECTID":321525},"geometry":{"x":178881.19000000041,"y":2577887.0600000005}},{"attributes":{"ID":321535,"DIS_CODE":0,"TOWNNAME":"官田區","LI":"二鎮里","LIN":"4鄰","STREET":" ","SECT":" ","MAREA":"二鎮","LANE":" ","ALLEY":" ","HOUSE_NO":"２６號之１","E_COORD97":181351.32000000001,"N_COORD97":2568207.1400000001,"ADDRESS":"二鎮２６號之１","OBJECTID":321526},"geometry":{"x":181351.32000000123,"y":2568207.1400000006}},{"attributes":{"ID":321536,"DIS_CODE":0,"TOWNNAME":"官田區","LI":"二鎮里","LIN":"8鄰","STREET":" ","SECT":" ","MAREA":"二鎮","LANE":" ","ALLEY":" ","HOUSE_NO":"６７號之１","E_COORD97":181356.82999999999,"N_COORD97":2568439.3500000001,"ADDRESS":"二鎮６７號之１","OBJECTID":321527},"geometry":{"x":181356.83000000007,"y":2568439.3500000015}},{"attributes":{"ID":321537,"DIS_CODE":0,"TOWNNAME":"官田區","LI":"二鎮里","LIN":"1鄰","STREET":" ","SECT":" ","MAREA":"二鎮","LANE":" ","ALLEY":" ","HOUSE_NO":"７號之１０","E_COORD97":181182.54999999999,"N_COORD97":2568167.5,"ADDRESS":"二鎮７號之１０","OBJECTID":321528},"geometry":{"x":181182.54999999888,"y":2568167.5000000019}},{"attributes":{"ID":321538,"DIS_CODE":0,"TOWNNAME":"官田區","LI":"二鎮里","LIN":"1鄰","STREET":" ","SECT":" ","MAREA":"二鎮","LANE":" ","ALLEY":" ","HOUSE_NO":"７號之９","E_COORD97":181185.47,"N_COORD97":2568164.96,"ADDRESS":"二鎮７號之９","OBJECTID":321529},"geometry":{"x":181185.47000000067,"y":2568164.9600000046}},{"attributes":{"ID":321539,"DIS_CODE":0,"TOWNNAME":"官田區","LI":"二鎮里","LIN":"10鄰","STREET":" ","SECT":" ","MAREA":"二鎮","LANE":" ","ALLEY":" ","HOUSE_NO":"８７號之５３","E_COORD97":181656.84,"N_COORD97":2568447.0699999998,"ADDRESS":"二鎮８７號之５３","OBJECTID":321530},"geometry":{"x":181656.83999999985,"y":2568447.0700000003}},{"attributes":{"ID":321540,"DIS_CODE":0,"TOWNNAME":"官田區","LI":"南\u25A0里","LIN":"1鄰","STREET":" ","SECT":" ","MAREA":"南\u25A0","LANE":" ","ALLEY":" ","HOUSE_NO":"１９號之４２","E_COORD97":179733.01000000001,"N_COORD97":2568408.6000000001,"ADDRESS":"南\u25A0１９號之４２","OBJECTID":321531},"geometry":{"x":179733.00999999978,"y":2568408.5999999996}},{"attributes":{"ID":321541,"DIS_CODE":0,"TOWNNAME":"永康區","LI":"中華里","LIN":"15鄰","STREET":"忠義街","SECT":" ","MAREA":" ","LANE":"６０巷","ALLEY":" ","HOUSE_NO":"３號十樓之２","E_COORD97":171785.26000000001,"N_COORD97":2544541.1200000001,"ADDRESS":"忠義街６０巷３號十樓之２","OBJECTID":321532},"geometry":{"x":171785.26000000071,"y":2544541.1200000029}},{"attributes":{"ID":321542,"DIS_CODE":0,"TOWNNAME":"官田區","LI":"南\u25A0里","LIN":"13鄰","STREET":" ","SECT":" ","MAREA":"三結義","LANE":" ","ALLEY":" ","HOUSE_NO":"２５號之１","E_COORD97":180021.16,"N_COORD97":2568131.7200000002,"ADDRESS":"三結義２５號之１","OBJECTID":321533},"geometry":{"x":180021.16000000201,"y":2568131.7200000007}},{"attributes":{"ID":321543,"DIS_CODE":0,"TOWNNAME":"官田區","LI":"南\u25A0里","LIN":"13鄰","STREET":" ","SECT":" ","MAREA":"三結義","LANE":" ","ALLEY":" ","HOUSE_NO":"３０號之５","E_COORD97":179783.03,"N_COORD97":2566996.8900000001,"ADDRESS":"三結義３０號之５","OBJECTID":321534},"geometry":{"x":179783.03000000212,"y":2566996.8900000025}},{"attributes":{"ID":321544,"DIS_CODE":0,"TOWNNAME":"官田區","LI":"二鎮里","LIN":" ","STREET":"力行街","SECT":" ","MAREA":" ","LANE":" ","ALLEY":" ","HOUSE_NO":"１號","E_COORD97":181257.89999999999,"N_COORD97":2566947.0899999999,"ADDRESS":"力行街１號","OBJECTID":321535},"geometry":{"x":181257.9000000013,"y":2566947.0900000017}},{"attributes":{"ID":321545,"DIS_CODE":0,"TOWNNAME":"官田區","LI":"東庄里","LIN":"1鄰","STREET":" ","SECT":" ","MAREA":"西庄","LANE":" ","ALLEY":" ","HOUSE_NO":"９８號之２","E_COORD97":177918.18137400001,"N_COORD97":2565202.1319400002,"ADDRESS":"西庄９８號之２","OBJECTID":321536},"geometry":{"x":177918.18137400039,"y":2565202.1319430042}},{"attributes":{"ID":321546,"DIS_CODE":0,"TOWNNAME":"官田區","LI":"東庄里","LIN":"18鄰","STREET":" ","SECT":" ","MAREA":"瓦\u25A0","LANE":" ","ALLEY":" ","HOUSE_NO":"６號之５","E_COORD97":179058.04000000001,"N_COORD97":2564951.21,"ADDRESS":"瓦\u25A0６號之５","OBJECTID":321537},"geometry":{"x":179058.04000000097,"y":2564951.2100000009}},{"attributes":{"ID":321547,"DIS_CODE":0,"TOWNNAME":"官田區","LI":"東庄里","LIN":"1鄰","STREET":" ","SECT":" ","MAREA":"西庄","LANE":" ","ALLEY":" ","HOUSE_NO":"１０４號之１","E_COORD97":177896.85999999999,"N_COORD97":2565198.8500000001,"ADDRESS":"西庄１０４號之１","OBJECTID":321538},"geometry":{"x":177896.86000000034,"y":2565198.8500000015}},{"attributes":{"ID":321548,"DIS_CODE":0,"TOWNNAME":"官田區","LI":"隆田里","LIN":" ","STREET":"中山路","SECT":"一段","MAREA":" ","LANE":"１０２巷","ALLEY":" ","HOUSE_NO":"１７號","E_COORD97":180088.54000000001,"N_COORD97":2565864.23,"ADDRESS":"中山路一段１０２巷１７號","OBJECTID":321539},"geometry":{"x":180088.54000000097,"y":2565864.2300000042}},{"attributes":{"ID":321549,"DIS_CODE":0,"TOWNNAME":"官田區","LI":"隆本里","LIN":" ","STREET":"中華路","SECT":"二段","MAREA":" ","LANE":"１５巷","ALLEY":" ","HOUSE_NO":"２１號","E_COORD97":179965.95000000001,"N_COORD97":2566483.7400000002,"ADDRESS":"中華路二段１５巷２１號","OBJECTID":321540},"geometry":{"x":179965.95000000019,"y":2566483.7400000002}},{"attributes":{"ID":321550,"DIS_CODE":0,"TOWNNAME":"官田區","LI":"隆本里","LIN":" ","STREET":"中華路","SECT":"二段","MAREA":" ","LANE":"５８巷","ALLEY":" ","HOUSE_NO":"１４號","E_COORD97":180246.51999999999,"N_COORD97":2566423.8300000001,"ADDRESS":"中華路二段５８巷１４號","OBJECTID":321541},"geometry":{"x":180246.51999999955,"y":2566423.8300000019}},{"attributes":{"ID":321551,"DIS_CODE":0,"TOWNNAME":"官田區","LI":"隆田里","LIN":" ","STREET":"中興路","SECT":" ","MAREA":" ","LANE":"１巷","ALLEY":" ","HOUSE_NO":"６３號","E_COORD97":180409.76000000001,"N_COORD97":2565522.0499999998,"ADDRESS":"中興路１巷６３號","OBJECTID":321542},"geometry":{"x":180409.75999999885,"y":2565522.0500000007}},{"attributes":{"ID":321552,"DIS_CODE":0,"TOWNNAME":"官田區","LI":"隆田里","LIN":" ","STREET":"四維街","SECT":" ","MAREA":" ","LANE":"７２巷","ALLEY":" ","HOUSE_NO":"５號","E_COORD97":180244.07000000001,"N_COORD97":2566149.3100000001,"ADDRESS":"四維街７２巷５號","OBJECTID":321543},"geometry":{"x":180244.07000000123,"y":2566149.3100000024}},{"attributes":{"ID":321553,"DIS_CODE":0,"TOWNNAME":"安平區","LI":"西門里","LIN":"17鄰","STREET":"安北路","SECT":" ","MAREA":" ","LANE":"３７０巷","ALLEY":" ","HOUSE_NO":"２５號","E_COORD97":163171.41,"N_COORD97":2544652.9500000002,"ADDRESS":"安北路３７０巷２５號","OBJECTID":321544},"geometry":{"x":163171.41000000108,"y":2544652.9499999993}},{"attributes":{"ID":321554,"DIS_CODE":0,"TOWNNAME":"永康區","LI":"中華里","LIN":"15鄰","STREET":"忠義街","SECT":" ","MAREA":" ","LANE":"６０巷","ALLEY":" ","HOUSE_NO":"１號十樓之１６","E_COORD97":171786.48000000001,"N_COORD97":2544541.1200000001,"ADDRESS":"忠義街６０巷１號十樓之１６","OBJECTID":321545},"geometry":{"x":171786.48000000138,"y":2544541.1200000029}},{"attributes":{"ID":321555,"DIS_CODE":0,"TOWNNAME":"官田區","LI":"東庄里","LIN":" ","STREET":" ","SECT":" ","MAREA":"西庄","LANE":" ","ALLEY":" ","HOUSE_NO":"１０６號","E_COORD97":177889.42000000001,"N_COORD97":2565220.0499999998,"ADDRESS":"西庄１０６號","OBJECTID":321546},"geometry":{"x":177889.41999999993,"y":2565220.0500000007}},{"attributes":{"ID":321556,"DIS_CODE":0,"TOWNNAME":"官田區","LI":"東庄里","LIN":"2鄰","STREET":" ","SECT":" ","MAREA":"西庄","LANE":" ","ALLEY":" ","HOUSE_NO":"１１３號之１","E_COORD97":177834.42999999999,"N_COORD97":2565214.8700000001,"ADDRESS":"西庄１１３號之１","OBJECTID":321547},"geometry":{"x":177834.43000000063,"y":2565214.870000001}},{"attributes":{"ID":321557,"DIS_CODE":0,"TOWNNAME":"永康區","LI":"中華里","LIN":"15鄰","STREET":"忠義街","SECT":" ","MAREA":" ","LANE":"６０巷","ALLEY":" ","HOUSE_NO":"１號十樓之１５","E_COORD97":171786.53,"N_COORD97":2544541.1200000001,"ADDRESS":"忠義街６０巷１號十樓之１５","OBJECTID":321548},"geometry":{"x":171786.53000000026,"y":2544541.1200000029}},{"attributes":{"ID":321558,"DIS_CODE":0,"TOWNNAME":"官田區","LI":"東庄里","LIN":"2鄰","STREET":" ","SECT":" ","MAREA":"西庄","LANE":" ","ALLEY":" ","HOUSE_NO":"１１６號之１","E_COORD97":177767.14000000001,"N_COORD97":2565192.54,"ADDRESS":"西庄１１６號之１","OBJECTID":321549},"geometry":{"x":177767.13999999966,"y":2565192.5400000028}},{"attributes":{"ID":321559,"DIS_CODE":0,"TOWNNAME":"永康區","LI":"中華里","LIN":"15鄰","STREET":"忠義街","SECT":" ","MAREA":" ","LANE":"６０巷","ALLEY":" ","HOUSE_NO":"３號十五樓之１０","E_COORD97":171787.67999999999,"N_COORD97":2544541.1200000001,"ADDRESS":"忠義街６０巷３號十五樓之１０","OBJECTID":321550},"geometry":{"x":171787.68000000063,"y":2544541.1200000029}},{"attributes":{"ID":321560,"DIS_CODE":0,"TOWNNAME":"新營區","LI":"民榮里","LIN":"17鄰","STREET":"富強街","SECT":" ","MAREA":" ","LANE":" ","ALLEY":" ","HOUSE_NO":"３０號四樓","E_COORD97":178988.16,"N_COORD97":2577803.4500000002,"ADDRESS":"富強街３０號四樓","OBJECTID":321551},"geometry":{"x":178988.16000000015,"y":2577803.4500000011}},{"attributes":{"ID":321561,"DIS_CODE":0,"TOWNNAME":"官田區","LI":"東庄里","LIN":"3鄰","STREET":" ","SECT":" ","MAREA":"西庄","LANE":" ","ALLEY":" ","HOUSE_NO":"１２１號之５","E_COORD97":177905.51999999999,"N_COORD97":2565257.3599999999,"ADDRESS":"西庄１２１號之５","OBJECTID":321552},"geometry":{"x":177905.51999999955,"y":2565257.3599999994}},{"attributes":{"ID":321562,"DIS_CODE":0,"TOWNNAME":"新市區","LI":"新和里","LIN":"8鄰","STREET":"仁愛街","SECT":" ","MAREA":" ","LANE":" ","ALLEY":" ","HOUSE_NO":"１１１號","E_COORD97":177545.79831099999,"N_COORD97":2552563.2705000001,"ADDRESS":"仁愛街１１１號","OBJECTID":321553},"geometry":{"x":177545.79831100069,"y":2552563.2704970017}},{"attributes":{"ID":321563,"DIS_CODE":0,"TOWNNAME":"官田區","LI":"東庄里","LIN":"3鄰","STREET":" ","SECT":" ","MAREA":"西庄","LANE":" ","ALLEY":" ","HOUSE_NO":"１２５號之７","E_COORD97":177927.94,"N_COORD97":2565322.0699999998,"ADDRESS":"西庄１２５號之７","OBJECTID":321554},"geometry":{"x":177927.94000000134,"y":2565322.0700000003}},{"attributes":{"ID":321564,"DIS_CODE":0,"TOWNNAME":"官田區","LI":"東庄里","LIN":"5鄰","STREET":" ","SECT":" ","MAREA":"西庄","LANE":" ","ALLEY":" ","HOUSE_NO":"１３７號之５","E_COORD97":178033.45000000001,"N_COORD97":2565248.71,"ADDRESS":"西庄１３７號之５","OBJECTID":321555},"geometry":{"x":178033.45000000019,"y":2565248.7100000028}},{"attributes":{"ID":321565,"DIS_CODE":0,"TOWNNAME":"官田區","LI":"東庄里","LIN":"8鄰","STREET":" ","SECT":" ","MAREA":"西庄","LANE":" ","ALLEY":" ","HOUSE_NO":"１４８號之１","E_COORD97":178095.19,"N_COORD97":2565141.54,"ADDRESS":"西庄１４８號之１","OBJECTID":321556},"geometry":{"x":178095.19000000041,"y":2565141.5399999972}},{"attributes":{"ID":321566,"DIS_CODE":0,"TOWNNAME":"新營區","LI":"民榮里","LIN":"17鄰","STREET":"富強街","SECT":" ","MAREA":" ","LANE":" ","ALLEY":" ","HOUSE_NO":"３０號八樓","E_COORD97":178988.16,"N_COORD97":2577803.4500000002,"ADDRESS":"富強街３０號八樓","OBJECTID":321557},"geometry":{"x":178988.16000000015,"y":2577803.4500000011}},{"attributes":{"ID":321567,"DIS_CODE":0,"TOWNNAME":"新營區","LI":"民榮里","LIN":"17鄰","STREET":"富強街","SECT":" ","MAREA":" ","LANE":" ","ALLEY":" ","HOUSE_NO":"３４號六樓","E_COORD97":178988.16,"N_COORD97":2577803.4500000002,"ADDRESS":"富強街３４號六樓","OBJECTID":321558},"geometry":{"x":178988.16000000015,"y":2577803.4500000011}},{"attributes":{"ID":321568,"DIS_CODE":0,"TOWNNAME":"新營區","LI":"民榮里","LIN":"17鄰","STREET":"富強街","SECT":" ","MAREA":" ","LANE":" ","ALLEY":" ","HOUSE_NO":"２８號五樓","E_COORD97":178988.14000000001,"N_COORD97":2577803.4500000002,"ADDRESS":"富強街２８號五樓","OBJECTID":321559},"geometry":{"x":178988.13999999966,"y":2577803.4500000011}},{"attributes":{"ID":321569,"DIS_CODE":0,"TOWNNAME":"新營區","LI":"民榮里","LIN":"17鄰","STREET":"富強街","SECT":" ","MAREA":" ","LANE":" ","ALLEY":" ","HOUSE_NO":"３４號八樓","E_COORD97":178988.16,"N_COORD97":2577803.4500000002,"ADDRESS":"富強街３４號八樓","OBJECTID":321560},"geometry":{"x":178988.16000000015,"y":2577803.4500000011}},{"attributes":{"ID":321570,"DIS_CODE":0,"TOWNNAME":"官田區","LI":"南\u25A0里","LIN":" ","STREET":" ","SECT":" ","MAREA":"南\u25A0","LANE":" ","ALLEY":" ","HOUSE_NO":"９號","E_COORD97":179359.62,"N_COORD97":2567643.79,"ADDRESS":"南\u25A0９號","OBJECTID":321561},"geometry":{"x":179359.62000000011,"y":2567643.790000001}},{"attributes":{"ID":321571,"DIS_CODE":0,"TOWNNAME":"官田區","LI":"湖山里","LIN":" ","STREET":" ","SECT":" ","MAREA":"烏山頭","LANE":" ","ALLEY":" ","HOUSE_NO":"６０之１號","E_COORD97":183461.95999999999,"N_COORD97":2567744.9199999999,"ADDRESS":"烏山頭６０之１號","OBJECTID":321562},"geometry":{"x":183461.96000000089,"y":2567744.9200000018}},{"attributes":{"ID":321572,"DIS_CODE":0,"TOWNNAME":"官田區","LI":"湖山里","LIN":"13鄰","STREET":" ","SECT":" ","MAREA":"烏山頭","LANE":" ","ALLEY":" ","HOUSE_NO":"８１號之４","E_COORD97":183507.60999999999,"N_COORD97":2567900.73,"ADDRESS":"烏山頭８１號之４","OBJECTID":321563},"geometry":{"x":183507.61000000127,"y":2567900.7300000004}},{"attributes":{"ID":321573,"DIS_CODE":0,"TOWNNAME":"官田區","LI":"渡頭里","LIN":"18鄰","STREET":" ","SECT":" ","MAREA":"渡子頭","LANE":" ","ALLEY":" ","HOUSE_NO":"１３９號之１","E_COORD97":181283.87,"N_COORD97":2563000.3300000001,"ADDRESS":"渡子頭１３９號之１","OBJECTID":321564},"geometry":{"x":181283.87000000011,"y":2563000.3300000001}},{"attributes":{"ID":321574,"DIS_CODE":0,"TOWNNAME":"官田區","LI":"渡頭里","LIN":"22鄰","STREET":" ","SECT":" ","MAREA":"渡子頭","LANE":" ","ALLEY":" ","HOUSE_NO":"１６８號之１","E_COORD97":181283.82999999999,"N_COORD97":2563072.0800000001,"ADDRESS":"渡子頭１６８號之１","OBJECTID":321565},"geometry":{"x":181283.83000000007,"y":2563072.0800000019}},{"attributes":{"ID":321575,"DIS_CODE":0,"TOWNNAME":"南區","LI":"白雪里","LIN":" ","STREET":"鹽埕路","SECT":" ","MAREA":" ","LANE":"２９１巷","ALLEY":" ","HOUSE_NO":"２號","E_COORD97":166687.72,"N_COORD97":2541207.0899999999,"ADDRESS":"鹽埕路２９１巷２號","OBJECTID":321566},"geometry":{"x":166687.72000000067,"y":2541207.0900000017}},{"attributes":{"ID":321576,"DIS_CODE":0,"TOWNNAME":"官田區","LI":"渡頭里","LIN":"24鄰","STREET":" ","SECT":" ","MAREA":"渡子頭","LANE":" ","ALLEY":" ","HOUSE_NO":"２２３號之５","E_COORD97":182181.79000000001,"N_COORD97":2563649.3199999998,"ADDRESS":"渡子頭２２３號之５","OBJECTID":321567},"geometry":{"x":182181.79000000097,"y":2563649.320000004}},{"attributes":{"ID":321577,"DIS_CODE":0,"TOWNNAME":"官田區","LI":"渡頭里","LIN":"24鄰","STREET":" ","SECT":" ","MAREA":"渡子頭","LANE":" ","ALLEY":" ","HOUSE_NO":"２２６號之１","E_COORD97":182210.63,"N_COORD97":2563677.1699999999,"ADDRESS":"渡子頭２２６號之１","OBJECTID":321568},"geometry":{"x":182210.62999999989,"y":2563677.1700000037}},{"attributes":{"ID":321578,"DIS_CODE":0,"TOWNNAME":"官田區","LI":"渡頭里","LIN":"24鄰","STREET":" ","SECT":" ","MAREA":"渡子頭","LANE":" ","ALLEY":" ","HOUSE_NO":"２２９號","E_COORD97":182229.01000000001,"N_COORD97":2563677.52,"ADDRESS":"渡子頭２２９號","OBJECTID":321569},"geometry":{"x":182229.01000000071,"y":2563677.5199999977}},{"attributes":{"ID":321579,"DIS_CODE":0,"TOWNNAME":"官田區","LI":"渡頭里","LIN":"6鄰","STREET":" ","SECT":" ","MAREA":"渡子頭","LANE":" ","ALLEY":" ","HOUSE_NO":"４７號之３","E_COORD97":181220.47,"N_COORD97":2562903.2400000002,"ADDRESS":"渡子頭４７號之３","OBJECTID":321570},"geometry":{"x":181220.4700000016,"y":2562903.2400000002}},{"attributes":{"ID":321580,"DIS_CODE":0,"TOWNNAME":"官田區","LI":"渡頭里","LIN":" ","STREET":" ","SECT":" ","MAREA":"渡子頭","LANE":" ","ALLEY":" ","HOUSE_NO":"５０９號","E_COORD97":181925.81,"N_COORD97":2563607.75,"ADDRESS":"渡子頭５０９號","OBJECTID":321571},"geometry":{"x":181925.80999999959,"y":2563607.75}},{"attributes":{"ID":321581,"DIS_CODE":0,"TOWNNAME":"官田區","LI":"渡頭里","LIN":"9鄰","STREET":" ","SECT":" ","MAREA":"渡子頭","LANE":" ","ALLEY":" ","HOUSE_NO":"６４號之２","E_COORD97":181088.5,"N_COORD97":2563069.6699999999,"ADDRESS":"渡子頭６４號之２","OBJECTID":321572},"geometry":{"x":181088.50000000093,"y":2563069.6699999999}},{"attributes":{"ID":321582,"DIS_CODE":0,"TOWNNAME":"官田區","LI":"隆田里","LIN":" ","STREET":"勝利路","SECT":" ","MAREA":" ","LANE":" ","ALLEY":" ","HOUSE_NO":"１６３號","E_COORD97":180222.01999999999,"N_COORD97":2566192.6099999999,"ADDRESS":"勝利路１６３號","OBJECTID":321573},"geometry":{"x":180222.02000000048,"y":2566192.6100000031}},{"attributes":{"ID":321583,"DIS_CODE":0,"TOWNNAME":"官田區","LI":"渡頭里","LIN":"11鄰","STREET":" ","SECT":" ","MAREA":"渡子頭","LANE":" ","ALLEY":" ","HOUSE_NO":"７６號之３","E_COORD97":181018.31,"N_COORD97":2563116.1000000001,"ADDRESS":"渡子頭７６號之３","OBJECTID":321574},"geometry":{"x":181018.31000000052,"y":2563116.0999999996}},{"attributes":{"ID":321584,"DIS_CODE":0,"TOWNNAME":"官田區","LI":"渡頭里","LIN":"13鄰","STREET":" ","SECT":" ","MAREA":"渡子頭","LANE":" ","ALLEY":" ","HOUSE_NO":"９８號之２","E_COORD97":181091.87,"N_COORD97":2563144.8799999999,"ADDRESS":"渡子頭９８號之２","OBJECTID":321575},"geometry":{"x":181091.87000000011,"y":2563144.879999999}},{"attributes":{"ID":321585,"DIS_CODE":0,"TOWNNAME":"官田區","LI":"隆田里","LIN":" ","STREET":"隆西街","SECT":" ","MAREA":" ","LANE":" ","ALLEY":" ","HOUSE_NO":"１４號","E_COORD97":179101.29999999999,"N_COORD97":2565886.9199999999,"ADDRESS":"隆西街１４號","OBJECTID":321576},"geometry":{"x":179101.30000000075,"y":2565886.9200000018}},{"attributes":{"ID":321586,"DIS_CODE":0,"TOWNNAME":"官田區","LI":"嘉南里","LIN":" ","STREET":" ","SECT":" ","MAREA":"嘉南","LANE":" ","ALLEY":" ","HOUSE_NO":"９２號","E_COORD97":185486.88,"N_COORD97":2567705.75,"ADDRESS":"嘉南９２號","OBJECTID":321577},"geometry":{"x":185486.88000000082,"y":2567705.7500000019}},{"attributes":{"ID":321587,"DIS_CODE":0,"TOWNNAME":"新市區","LI":"大社里","LIN":" ","STREET":" ","SECT":" ","MAREA":"大社","LANE":" ","ALLEY":" ","HOUSE_NO":"３０４之１號","E_COORD97":180263.13,"N_COORD97":2554535.2999999998,"ADDRESS":"大社３０４之１號","OBJECTID":321578},"geometry":{"x":180263.12999999989,"y":2554535.3000000007}},{"attributes":{"ID":321588,"DIS_CODE":0,"TOWNNAME":"新市區","LI":"潭頂里","LIN":" ","STREET":" ","SECT":" ","MAREA":"潭頂","LANE":" ","ALLEY":" ","HOUSE_NO":"２０４之６號","E_COORD97":180955.03,"N_COORD97":2553195.0499999998,"ADDRESS":"潭頂２０４之６號","OBJECTID":321579},"geometry":{"x":180955.03000000119,"y":2553195.0500000007}},{"attributes":{"ID":321589,"DIS_CODE":0,"TOWNNAME":"新市區","LI":"港墘里","LIN":"1鄰","STREET":"中山路","SECT":" ","MAREA":" ","LANE":" ","ALLEY":" ","HOUSE_NO":"６號","E_COORD97":178790.95999999999,"N_COORD97":2553970.25,"ADDRESS":"中山路６號","OBJECTID":321580},"geometry":{"x":178790.95999999996,"y":2553970.2500000019}},{"attributes":{"ID":321590,"DIS_CODE":0,"TOWNNAME":"新市區","LI":"新市里","LIN":" ","STREET":"復興路","SECT":" ","MAREA":" ","LANE":"６２巷","ALLEY":" ","HOUSE_NO":"９之１９號","E_COORD97":177975.14999999999,"N_COORD97":2553492.0499999998,"ADDRESS":"復興路６２巷９之１９號","OBJECTID":321581},"geometry":{"x":177975.14999999944,"y":2553492.0500000026}},{"attributes":{"ID":321591,"DIS_CODE":0,"TOWNNAME":"永康區","LI":"中華里","LIN":"15鄰","STREET":"忠義街","SECT":" ","MAREA":" ","LANE":"６０巷","ALLEY":" ","HOUSE_NO":"３號十五樓之３","E_COORD97":171786.47,"N_COORD97":2544541.1200000001,"ADDRESS":"忠義街６０巷３號十五樓之３","OBJECTID":321582},"geometry":{"x":171786.46999999974,"y":2544541.1200000029}},{"attributes":{"ID":321592,"DIS_CODE":0,"TOWNNAME":"新市區","LI":"永就里","LIN":"4鄰","STREET":" ","SECT":" ","MAREA":"永就","LANE":" ","ALLEY":" ","HOUSE_NO":"４０之３號","E_COORD97":178464.45999999999,"N_COORD97":2551480.2999999998,"ADDRESS":"永就４０之３號","OBJECTID":321583},"geometry":{"x":178464.46000000183,"y":2551480.3000000007}},{"attributes":{"ID":321593,"DIS_CODE":0,"TOWNNAME":"新市區","LI":"永就里","LIN":" ","STREET":" ","SECT":" ","MAREA":"永就","LANE":" ","ALLEY":" ","HOUSE_NO":"９３之３號","E_COORD97":177576.17000000001,"N_COORD97":2551389.7999999998,"ADDRESS":"永就９３之３號","OBJECTID":321584},"geometry":{"x":177576.16999999899,"y":2551389.8000000007}},{"attributes":{"ID":321594,"DIS_CODE":0,"TOWNNAME":"永康區","LI":"中華里","LIN":"15鄰","STREET":"忠義街","SECT":" ","MAREA":" ","LANE":"６０巷","ALLEY":" ","HOUSE_NO":"１號十三樓之３","E_COORD97":171786.47,"N_COORD97":2544541.1200000001,"ADDRESS":"忠義街６０巷１號十三樓之３","OBJECTID":321585},"geometry":{"x":171786.46999999974,"y":2544541.1200000029}},{"attributes":{"ID":321595,"DIS_CODE":0,"TOWNNAME":"永康區","LI":"中華里","LIN":"15鄰","STREET":"忠義街","SECT":" ","MAREA":" ","LANE":"６０巷","ALLEY":" ","HOUSE_NO":"３號十一樓之１１","E_COORD97":171787.63,"N_COORD97":2544541.1200000001,"ADDRESS":"忠義街６０巷３號十一樓之１１","OBJECTID":321586},"geometry":{"x":171787.63000000082,"y":2544541.1200000029}},{"attributes":{"ID":321596,"DIS_CODE":0,"TOWNNAME":"新市區","LI":"社內里","LIN":" ","STREET":" ","SECT":" ","MAREA":"社內","LANE":" ","ALLEY":" ","HOUSE_NO":"１３５之３號","E_COORD97":176330.75,"N_COORD97":2552728.0499999998,"ADDRESS":"社內１３５之３號","OBJECTID":321587},"geometry":{"x":176330.75,"y":2552728.0500000045}},{"attributes":{"ID":321597,"DIS_CODE":0,"TOWNNAME":"永康區","LI":"中華里","LIN":"15鄰","STREET":"忠義街","SECT":" ","MAREA":" ","LANE":"６０巷","ALLEY":" ","HOUSE_NO":"１號十五樓之５","E_COORD97":171786.53,"N_COORD97":2544541.1200000001,"ADDRESS":"忠義街６０巷１號十五樓之５","OBJECTID":321588},"geometry":{"x":171786.53000000026,"y":2544541.1200000029}},{"attributes":{"ID":321598,"DIS_CODE":0,"TOWNNAME":"永康區","LI":"中華里","LIN":"15鄰","STREET":"忠義街","SECT":" ","MAREA":" ","LANE":"６０巷","ALLEY":" ","HOUSE_NO":"３號八樓之３","E_COORD97":171785.22,"N_COORD97":2544541.1200000001,"ADDRESS":"忠義街６０巷３號八樓之３","OBJECTID":321589},"geometry":{"x":171785.22000000067,"y":2544541.1200000029}},{"attributes":{"ID":321599,"DIS_CODE":0,"TOWNNAME":"永康區","LI":"中華里","LIN":"15鄰","STREET":"忠義街","SECT":" ","MAREA":" ","LANE":"６０巷","ALLEY":" ","HOUSE_NO":"３號十三樓之１","E_COORD97":171786.38,"N_COORD97":2544541.1200000001,"ADDRESS":"忠義街６０巷３號十三樓之１","OBJECTID":321590},"geometry":{"x":171786.38000000082,"y":2544541.1200000029}},{"attributes":{"ID":321600,"DIS_CODE":0,"TOWNNAME":"永康區","LI":"中華里","LIN":"15鄰","STREET":"忠義街","SECT":" ","MAREA":" ","LANE":"６０巷","ALLEY":" ","HOUSE_NO":"３號十三樓之１１","E_COORD97":171787.63,"N_COORD97":2544541.1200000001,"ADDRESS":"忠義街６０巷３號十三樓之１１","OBJECTID":321591},"geometry":{"x":171787.63000000082,"y":2544541.1200000029}},{"attributes":{"ID":321601,"DIS_CODE":0,"TOWNNAME":"新市區","LI":"大社里","LIN":" ","STREET":" ","SECT":" ","MAREA":"大社","LANE":" ","ALLEY":" ","HOUSE_NO":"２６８之１號","E_COORD97":180277.17999999999,"N_COORD97":2554518.7999999998,"ADDRESS":"大社２６８之１號","OBJECTID":321592},"geometry":{"x":180277.18000000063,"y":2554518.8000000007}},{"attributes":{"ID":321602,"DIS_CODE":0,"TOWNNAME":"永康區","LI":"中華里","LIN":"15鄰","STREET":"忠義街","SECT":" ","MAREA":" ","LANE":"６０巷","ALLEY":" ","HOUSE_NO":"３號十二樓之１","E_COORD97":171786.38,"N_COORD97":2544541.1200000001,"ADDRESS":"忠義街６０巷３號十二樓之１","OBJECTID":321593},"geometry":{"x":171786.38000000082,"y":2544541.1200000029}},{"attributes":{"ID":321603,"DIS_CODE":0,"TOWNNAME":"永康區","LI":"中華里","LIN":"15鄰","STREET":"忠義街","SECT":" ","MAREA":" ","LANE":"６０巷","ALLEY":" ","HOUSE_NO":"３號十二樓之３","E_COORD97":171786.47,"N_COORD97":2544541.1200000001,"ADDRESS":"忠義街６０巷３號十二樓之３","OBJECTID":321594},"geometry":{"x":171786.46999999974,"y":2544541.1200000029}},{"attributes":{"ID":321604,"DIS_CODE":0,"TOWNNAME":"永康區","LI":"中華里","LIN":"15鄰","STREET":"忠義街","SECT":" ","MAREA":" ","LANE":"６０巷","ALLEY":" ","HOUSE_NO":"３號十二樓之５","E_COORD97":171786.53,"N_COORD97":2544541.1200000001,"ADDRESS":"忠義街６０巷３號十二樓之５","OBJECTID":321595},"geometry":{"x":171786.53000000026,"y":2544541.1200000029}},{"attributes":{"ID":321605,"DIS_CODE":0,"TOWNNAME":"永康區","LI":"中華里","LIN":"15鄰","STREET":"忠義街","SECT":" ","MAREA":" ","LANE":"６０巷","ALLEY":" ","HOUSE_NO":"１號六樓之１５","E_COORD97":171786.53,"N_COORD97":2544541.1200000001,"ADDRESS":"忠義街６０巷１號六樓之１５","OBJECTID":321596},"geometry":{"x":171786.53000000026,"y":2544541.1200000029}},{"attributes":{"ID":321606,"DIS_CODE":0,"TOWNNAME":"永康區","LI":"中華里","LIN":"15鄰","STREET":"忠義街","SECT":" ","MAREA":" ","LANE":"６０巷","ALLEY":" ","HOUSE_NO":"３號八樓之１４","E_COORD97":171786.39999999999,"N_COORD97":2544541.1200000001,"ADDRESS":"忠義街６０巷３號八樓之１４","OBJECTID":321597},"geometry":{"x":171786.4000000013,"y":2544541.1200000029}},{"attributes":{"ID":321607,"DIS_CODE":0,"TOWNNAME":"新營區","LI":"民榮里","LIN":"17鄰","STREET":"富強街","SECT":" ","MAREA":" ","LANE":" ","ALLEY":" ","HOUSE_NO":"６１號三樓之３","E_COORD97":178881.26000000001,"N_COORD97":2577887.0600000001,"ADDRESS":"富強街６１號三樓之３","OBJECTID":321598},"geometry":{"x":178881.26000000071,"y":2577887.0600000005}},{"attributes":{"ID":321608,"DIS_CODE":0,"TOWNNAME":"新營區","LI":"民榮里","LIN":"17鄰","STREET":"富強街","SECT":" ","MAREA":" ","LANE":" ","ALLEY":" ","HOUSE_NO":"６１號五樓之３","E_COORD97":178881.26000000001,"N_COORD97":2577887.0600000001,"ADDRESS":"富強街６１號五樓之３","OBJECTID":321599},"geometry":{"x":178881.26000000071,"y":2577887.0600000005}},{"attributes":{"ID":321609,"DIS_CODE":0,"TOWNNAME":"新市區","LI":"社內里","LIN":" ","STREET":" ","SECT":" ","MAREA":"社內","LANE":" ","ALLEY":" ","HOUSE_NO":"７４之２６號","E_COORD97":176731.20000000001,"N_COORD97":2552849.5499999998,"ADDRESS":"社內７４之２６號","OBJECTID":321600},"geometry":{"x":176731.20000000112,"y":2552849.5500000007}}]}