{"displayFieldName":"TOWNNAME","fieldAliases":{"ID":"ID","DIS_CODE":"DIS_CODE","TOWNNAME":"TOWNNAME","LI":"LI","LIN":"LIN","STREET":"STREET","SECT":"SECT","MAREA":"MAREA","LANE":"LANE","ALLEY":"ALLEY","HOUSE_NO":"HOUSE_NO","E_COORD97":"E_COORD97","N_COORD97":"N_COORD97","ADDRESS":"ADDRESS","OBJECTID":"OBJECTID"},"geometryType":"esriGeometryPoint","spatialReference":{"wkid":102443,"latestWkid":3826},"fields":[{"name":"ID","type":"esriFieldTypeDouble","alias":"ID"},{"name":"DIS_CODE","type":"esriFieldTypeInteger","alias":"DIS_CODE"},{"name":"TOWNNAME","type":"esriFieldTypeString","alias":"TOWNNAME","length":8},{"name":"LI","type":"esriFieldTypeString","alias":"LI","length":8},{"name":"LIN","type":"esriFieldTypeString","alias":"LIN","length":12},{"name":"STREET","type":"esriFieldTypeString","alias":"STREET","length":20},{"name":"SECT","type":"esriFieldTypeString","alias":"SECT","length":8},{"name":"MAREA","type":"esriFieldTypeString","alias":"MAREA","length":12},{"name":"LANE","type":"esriFieldTypeString","alias":"LANE","length":10},{"name":"ALLEY","type":"esriFieldTypeString","alias":"ALLEY","length":10},{"name":"HOUSE_NO","type":"esriFieldTypeString","alias":"HOUSE_NO","length":20},{"name":"E_COORD97","type":"esriFieldTypeDouble","alias":"E_COORD97"},{"name":"N_COORD97","type":"esriFieldTypeDouble","alias":"N_COORD97"},{"name":"ADDRESS","type":"esriFieldTypeString","alias":"ADDRESS","length":50},{"name":"OBJECTID","type":"esriFieldTypeOID","alias":"OBJECTID"}],"features":[{"attributes":{"ID":191202,"DIS_CODE":0,"TOWNNAME":"仁德區","LI":"上崙里","LIN":"26鄰","STREET":"中正路","SECT":"一段","MAREA":" ","LANE":" ","ALLEY":" ","HOUSE_NO":"７５６號","E_COORD97":172958.63,"N_COORD97":2537832.2799999998,"ADDRESS":"中正路一段７５６號","OBJECTID":191201},"geometry":{"x":172958.62999999989,"y":2537832.2800000012}},{"attributes":{"ID":191203,"DIS_CODE":0,"TOWNNAME":"北區","LI":"六甲里","LIN":"5鄰","STREET":"公園路","SECT":" ","MAREA":" ","LANE":"５０９巷","ALLEY":"８弄","HOUSE_NO":"４６號","E_COORD97":169040.57000000001,"N_COORD97":2545673.3199999998,"ADDRESS":"公園路５０９巷８弄４６號","OBJECTID":191202},"geometry":{"x":169040.57000000123,"y":2545673.3199999984}},{"attributes":{"ID":191204,"DIS_CODE":0,"TOWNNAME":"仁德區","LI":"上崙里","LIN":"25鄰","STREET":"上崙街","SECT":" ","MAREA":" ","LANE":" ","ALLEY":" ","HOUSE_NO":"３８４號","E_COORD97":173046.09,"N_COORD97":2537636.75,"ADDRESS":"上崙街３８４號","OBJECTID":191203},"geometry":{"x":173046.09000000078,"y":2537636.7500000019}},{"attributes":{"ID":191205,"DIS_CODE":0,"TOWNNAME":"仁德區","LI":"二行里","LIN":"20鄰","STREET":"行大街","SECT":" ","MAREA":" ","LANE":" ","ALLEY":" ","HOUSE_NO":"２２０號","E_COORD97":169845.20000000001,"N_COORD97":2535114.25,"ADDRESS":"行大街２２０號","OBJECTID":191204},"geometry":{"x":169845.20000000112,"y":2535114.2500000019}},{"attributes":{"ID":191206,"DIS_CODE":0,"TOWNNAME":"仁德區","LI":"一甲里","LIN":"20鄰","STREET":"太乙三街","SECT":" ","MAREA":" ","LANE":" ","ALLEY":" ","HOUSE_NO":"７６號","E_COORD97":173305.79000000001,"N_COORD97":2542200.2599999998,"ADDRESS":"太乙三街７６號","OBJECTID":191205},"geometry":{"x":173305.79000000097,"y":2542200.2599999998}},{"attributes":{"ID":191207,"DIS_CODE":0,"TOWNNAME":"仁德區","LI":"上崙里","LIN":"20鄰","STREET":"上崙一街","SECT":" ","MAREA":" ","LANE":" ","ALLEY":" ","HOUSE_NO":"１６２號","E_COORD97":173838.28,"N_COORD97":2537696.7400000002,"ADDRESS":"上崙一街１６２號","OBJECTID":191206},"geometry":{"x":173838.28000000119,"y":2537696.7400000021}},{"attributes":{"ID":191208,"DIS_CODE":0,"TOWNNAME":"仁德區","LI":"一甲里","LIN":"17鄰","STREET":"中清路","SECT":" ","MAREA":" ","LANE":" ","ALLEY":" ","HOUSE_NO":"２７８號","E_COORD97":173757.14999999999,"N_COORD97":2541806.29,"ADDRESS":"中清路２７８號","OBJECTID":191207},"geometry":{"x":173757.15000000037,"y":2541806.2899999991}},{"attributes":{"ID":191209,"DIS_CODE":0,"TOWNNAME":"仁德區","LI":"上崙里","LIN":"20鄰","STREET":"上崙街","SECT":" ","MAREA":" ","LANE":" ","ALLEY":" ","HOUSE_NO":"３５號","E_COORD97":173747.60000000001,"N_COORD97":2538100.2400000002,"ADDRESS":"上崙街３５號","OBJECTID":191208},"geometry":{"x":173747.60000000056,"y":2538100.2400000021}},{"attributes":{"ID":191210,"DIS_CODE":0,"TOWNNAME":"北區","LI":"六甲里","LIN":"5鄰","STREET":"公園路","SECT":" ","MAREA":" ","LANE":"５０９巷","ALLEY":"８弄","HOUSE_NO":"４８號","E_COORD97":169041.84,"N_COORD97":2545677.3599999999,"ADDRESS":"公園路５０９巷８弄４８號","OBJECTID":191209},"geometry":{"x":169041.84000000078,"y":2545677.3600000013}},{"attributes":{"ID":191211,"DIS_CODE":0,"TOWNNAME":"北區","LI":"文元里","LIN":"5鄰","STREET":"文賢路","SECT":" ","MAREA":" ","LANE":"１１２２巷","ALLEY":"５９弄","HOUSE_NO":"４６號","E_COORD97":167498.79999999999,"N_COORD97":2546490.5800000001,"ADDRESS":"文賢路１１２２巷５９弄４６號","OBJECTID":191210},"geometry":{"x":167498.79999999981,"y":2546490.5800000001}},{"attributes":{"ID":191212,"DIS_CODE":0,"TOWNNAME":"北區","LI":"文元里","LIN":"5鄰","STREET":"文賢路","SECT":" ","MAREA":" ","LANE":"１１２２巷","ALLEY":"５９弄","HOUSE_NO":"４８號","E_COORD97":167496.85000000001,"N_COORD97":2546496.25,"ADDRESS":"文賢路１１２２巷５９弄４８號","OBJECTID":191211},"geometry":{"x":167496.85000000149,"y":2546496.25}},{"attributes":{"ID":191213,"DIS_CODE":0,"TOWNNAME":"北區","LI":"文元里","LIN":"5鄰","STREET":"文賢路","SECT":" ","MAREA":" ","LANE":"１１２２巷","ALLEY":"５９弄","HOUSE_NO":"５０號","E_COORD97":167496.22,"N_COORD97":2546501.71,"ADDRESS":"文賢路１１２２巷５９弄５０號","OBJECTID":191212},"geometry":{"x":167496.2200000016,"y":2546501.7100000009}},{"attributes":{"ID":191214,"DIS_CODE":0,"TOWNNAME":"北區","LI":"文元里","LIN":"5鄰","STREET":"文賢路","SECT":" ","MAREA":" ","LANE":"１１２２巷","ALLEY":"５９弄","HOUSE_NO":"５２號","E_COORD97":167494.95999999999,"N_COORD97":2546508.6400000001,"ADDRESS":"文賢路１１２２巷５９弄５２號","OBJECTID":191213},"geometry":{"x":167494.96000000089,"y":2546508.6400000006}},{"attributes":{"ID":191215,"DIS_CODE":0,"TOWNNAME":"北區","LI":"文元里","LIN":"5鄰","STREET":"文賢路","SECT":" ","MAREA":" ","LANE":"１１２２巷","ALLEY":"５９弄","HOUSE_NO":"５４號","E_COORD97":167494.12,"N_COORD97":2546514.73,"ADDRESS":"文賢路１１２２巷５９弄５４號","OBJECTID":191214},"geometry":{"x":167494.12000000104,"y":2546514.7300000004}},{"attributes":{"ID":191216,"DIS_CODE":0,"TOWNNAME":"北區","LI":"文元里","LIN":"5鄰","STREET":"文賢路","SECT":" ","MAREA":" ","LANE":"１１２２巷","ALLEY":"５９弄","HOUSE_NO":"５６號","E_COORD97":167492.64999999999,"N_COORD97":2546520.3999999999,"ADDRESS":"文賢路１１２２巷５９弄５６號","OBJECTID":191215},"geometry":{"x":167492.6500000013,"y":2546520.3999999985}},{"attributes":{"ID":191217,"DIS_CODE":0,"TOWNNAME":"北區","LI":"文元里","LIN":"5鄰","STREET":"文賢路","SECT":" ","MAREA":" ","LANE":"１１２２巷","ALLEY":"５９弄","HOUSE_NO":"５８號","E_COORD97":167492.23000000001,"N_COORD97":2546526.29,"ADDRESS":"文賢路１１２２巷５９弄５８號","OBJECTID":191216},"geometry":{"x":167492.23000000138,"y":2546526.2899999991}},{"attributes":{"ID":191218,"DIS_CODE":0,"TOWNNAME":"北區","LI":"文元里","LIN":"5鄰","STREET":"文賢路","SECT":" ","MAREA":" ","LANE":"１１２２巷","ALLEY":"５９弄","HOUSE_NO":"６２號","E_COORD97":167489.48999999999,"N_COORD97":2546537.21,"ADDRESS":"文賢路１１２２巷５９弄６２號","OBJECTID":191217},"geometry":{"x":167489.49000000022,"y":2546537.2100000028}},{"attributes":{"ID":191219,"DIS_CODE":0,"TOWNNAME":"北區","LI":"文元里","LIN":"5鄰","STREET":"文賢路","SECT":" ","MAREA":" ","LANE":"１１２２巷","ALLEY":"５９弄","HOUSE_NO":"１號","E_COORD97":167495.69,"N_COORD97":2546395.6299999999,"ADDRESS":"文賢路１１２２巷５９弄１號","OBJECTID":191218},"geometry":{"x":167495.69000000134,"y":2546395.6300000027}},{"attributes":{"ID":191220,"DIS_CODE":0,"TOWNNAME":"北區","LI":"文元里","LIN":"5鄰","STREET":"文賢路","SECT":" ","MAREA":" ","LANE":"１１２２巷","ALLEY":"５９弄","HOUSE_NO":"３號","E_COORD97":167496.06,"N_COORD97":2546400.4300000002,"ADDRESS":"文賢路１１２２巷５９弄３號","OBJECTID":191219},"geometry":{"x":167496.06000000052,"y":2546400.4299999997}},{"attributes":{"ID":191221,"DIS_CODE":0,"TOWNNAME":"北區","LI":"文元里","LIN":"5鄰","STREET":"文賢路","SECT":" ","MAREA":" ","LANE":"１１２２巷","ALLEY":"５９弄","HOUSE_NO":"５號","E_COORD97":167495.69,"N_COORD97":2546404.8599999999,"ADDRESS":"文賢路１１２２巷５９弄５號","OBJECTID":191220},"geometry":{"x":167495.69000000134,"y":2546404.8600000031}},{"attributes":{"ID":191222,"DIS_CODE":0,"TOWNNAME":"新市區","LI":"新市里","LIN":"21鄰","STREET":"和平街","SECT":" ","MAREA":" ","LANE":"５０巷","ALLEY":" ","HOUSE_NO":"５號","E_COORD97":177666.32000000001,"N_COORD97":2553477,"ADDRESS":"和平街５０巷５號","OBJECTID":191221},"geometry":{"x":177666.32000000123,"y":2553477.0000000019}},{"attributes":{"ID":191223,"DIS_CODE":0,"TOWNNAME":"北區","LI":"文元里","LIN":"5鄰","STREET":"文賢路","SECT":" ","MAREA":" ","LANE":"１１２２巷","ALLEY":"５９弄","HOUSE_NO":"７號","E_COORD97":167495.45999999999,"N_COORD97":2546408.3599999999,"ADDRESS":"文賢路１１２２巷５９弄７號","OBJECTID":191222},"geometry":{"x":167495.46000000089,"y":2546408.3600000013}},{"attributes":{"ID":191224,"DIS_CODE":0,"TOWNNAME":"北區","LI":"文元里","LIN":"5鄰","STREET":"文賢路","SECT":" ","MAREA":" ","LANE":"１１２２巷","ALLEY":"５９弄","HOUSE_NO":"９號","E_COORD97":167495.12,"N_COORD97":2546412.73,"ADDRESS":"文賢路１１２２巷５９弄９號","OBJECTID":191223},"geometry":{"x":167495.12000000011,"y":2546412.7300000004}},{"attributes":{"ID":191225,"DIS_CODE":0,"TOWNNAME":"永康區","LI":"\u25A0行里","LIN":"14鄰","STREET":"中正六街","SECT":" ","MAREA":" ","LANE":" ","ALLEY":" ","HOUSE_NO":"１７９號","E_COORD97":171869.22,"N_COORD97":2548863.7000000002,"ADDRESS":"中正六街１７９號","OBJECTID":191224},"geometry":{"x":171869.21999999974,"y":2548863.700000003}},{"attributes":{"ID":191226,"DIS_CODE":0,"TOWNNAME":"北區","LI":"文元里","LIN":"5鄰","STREET":"文賢路","SECT":" ","MAREA":" ","LANE":"１１２２巷","ALLEY":"５９弄","HOUSE_NO":"１１號","E_COORD97":167495.12,"N_COORD97":2546416.4399999999,"ADDRESS":"文賢路１１２２巷５９弄１１號","OBJECTID":191225},"geometry":{"x":167495.12000000011,"y":2546416.4399999995}},{"attributes":{"ID":191227,"DIS_CODE":0,"TOWNNAME":"關廟區","LI":"新光里","LIN":"1鄰","STREET":"新湖街","SECT":" ","MAREA":" ","LANE":" ","ALLEY":" ","HOUSE_NO":"２６２號","E_COORD97":183021.42759800001,"N_COORD97":2542469.5388799999,"ADDRESS":"新湖街２６２號","OBJECTID":191226},"geometry":{"x":183021.42759799957,"y":2542469.5388769992}},{"attributes":{"ID":191228,"DIS_CODE":0,"TOWNNAME":"永康區","LI":"\u25A0行里","LIN":"7鄰","STREET":"中正路","SECT":" ","MAREA":" ","LANE":" ","ALLEY":" ","HOUSE_NO":"８１８號","E_COORD97":172192.41,"N_COORD97":2548713.6800000002,"ADDRESS":"中正路８１８號","OBJECTID":191227},"geometry":{"x":172192.41000000015,"y":2548713.6799999997}},{"attributes":{"ID":191229,"DIS_CODE":0,"TOWNNAME":"新市區","LI":"新和里","LIN":"21鄰","STREET":"中正路","SECT":" ","MAREA":" ","LANE":" ","ALLEY":" ","HOUSE_NO":"８２之２號","E_COORD97":177468.41,"N_COORD97":2552445.0499999998,"ADDRESS":"中正路８２之２號","OBJECTID":191228},"geometry":{"x":177468.41000000108,"y":2552445.0500000007}},{"attributes":{"ID":191230,"DIS_CODE":0,"TOWNNAME":"新市區","LI":"新和里","LIN":"21鄰","STREET":"中正路","SECT":" ","MAREA":" ","LANE":" ","ALLEY":" ","HOUSE_NO":"８２之４號","E_COORD97":177472.95999999999,"N_COORD97":2552446.2999999998,"ADDRESS":"中正路８２之４號","OBJECTID":191229},"geometry":{"x":177472.96000000089,"y":2552446.3000000026}},{"attributes":{"ID":191231,"DIS_CODE":0,"TOWNNAME":"北區","LI":"文元里","LIN":"5鄰","STREET":"文賢路","SECT":" ","MAREA":" ","LANE":"１１２２巷","ALLEY":"５９弄","HOUSE_NO":"１３號","E_COORD97":167494.10999999999,"N_COORD97":2546421.1499999999,"ADDRESS":"文賢路１１２２巷５９弄１３號","OBJECTID":191230},"geometry":{"x":167494.1100000022,"y":2546421.1500000022}},{"attributes":{"ID":191232,"DIS_CODE":0,"TOWNNAME":"新市區","LI":"新和里","LIN":"21鄰","STREET":"中正路","SECT":" ","MAREA":" ","LANE":" ","ALLEY":" ","HOUSE_NO":"８０號","E_COORD97":177449.16,"N_COORD97":2552426.25,"ADDRESS":"中正路８０號","OBJECTID":191231},"geometry":{"x":177449.16000000015,"y":2552426.25}},{"attributes":{"ID":191233,"DIS_CODE":0,"TOWNNAME":"新市區","LI":"新和里","LIN":"21鄰","STREET":"中正路","SECT":" ","MAREA":" ","LANE":" ","ALLEY":" ","HOUSE_NO":"８２之１號","E_COORD97":177471.07000000001,"N_COORD97":2552434.7999999998,"ADDRESS":"中正路８２之１號","OBJECTID":191232},"geometry":{"x":177471.07000000123,"y":2552434.8000000045}},{"attributes":{"ID":191234,"DIS_CODE":0,"TOWNNAME":"北區","LI":"文元里","LIN":"5鄰","STREET":"文賢路","SECT":" ","MAREA":" ","LANE":"１１２２巷","ALLEY":"５９弄","HOUSE_NO":"１５號","E_COORD97":167493.76999999999,"N_COORD97":2546425.5299999998,"ADDRESS":"文賢路１１２２巷５９弄１５號","OBJECTID":191233},"geometry":{"x":167493.76999999955,"y":2546425.5299999993}},{"attributes":{"ID":191235,"DIS_CODE":0,"TOWNNAME":"北區","LI":"文元里","LIN":"5鄰","STREET":"文賢路","SECT":" ","MAREA":" ","LANE":"１１２２巷","ALLEY":"５９弄","HOUSE_NO":"１７號","E_COORD97":167493.10000000001,"N_COORD97":2546429.5699999998,"ADDRESS":"文賢路１１２２巷５９弄１７號","OBJECTID":191234},"geometry":{"x":167493.09999999963,"y":2546429.5700000003}},{"attributes":{"ID":191236,"DIS_CODE":0,"TOWNNAME":"新市區","LI":"新和里","LIN":"21鄰","STREET":"中正路","SECT":" ","MAREA":" ","LANE":" ","ALLEY":" ","HOUSE_NO":"８２之７號","E_COORD97":177484.91,"N_COORD97":2552438.5499999998,"ADDRESS":"中正路８２之７號","OBJECTID":191235},"geometry":{"x":177484.91000000015,"y":2552438.5500000007}},{"attributes":{"ID":191237,"DIS_CODE":0,"TOWNNAME":"新市區","LI":"新和里","LIN":"21鄰","STREET":"中正路","SECT":" ","MAREA":" ","LANE":" ","ALLEY":" ","HOUSE_NO":"８１號","E_COORD97":177376.10000000001,"N_COORD97":2552593,"ADDRESS":"中正路８１號","OBJECTID":191236},"geometry":{"x":177376.09999999963,"y":2552593.0000000019}},{"attributes":{"ID":191238,"DIS_CODE":0,"TOWNNAME":"新市區","LI":"新和里","LIN":"21鄰","STREET":"中正路","SECT":" ","MAREA":" ","LANE":" ","ALLEY":" ","HOUSE_NO":"７６號","E_COORD97":177451.32000000001,"N_COORD97":2552418,"ADDRESS":"中正路７６號","OBJECTID":191237},"geometry":{"x":177451.3200000003,"y":2552418}},{"attributes":{"ID":191239,"DIS_CODE":0,"TOWNNAME":"北區","LI":"文元里","LIN":"5鄰","STREET":"文賢路","SECT":" ","MAREA":" ","LANE":"１１２２巷","ALLEY":"５９弄","HOUSE_NO":"１９號","E_COORD97":167492.42999999999,"N_COORD97":2546433.9500000002,"ADDRESS":"文賢路１１２２巷５９弄１９號","OBJECTID":191238},"geometry":{"x":167492.4299999997,"y":2546433.9499999993}},{"attributes":{"ID":191240,"DIS_CODE":0,"TOWNNAME":"北區","LI":"文元里","LIN":"5鄰","STREET":"文賢路","SECT":" ","MAREA":" ","LANE":"１１２２巷","ALLEY":"５９弄","HOUSE_NO":"２１號","E_COORD97":167491.75,"N_COORD97":2546437.9900000002,"ADDRESS":"文賢路１１２２巷５９弄２１號","OBJECTID":191239},"geometry":{"x":167491.75000000093,"y":2546437.9900000002}},{"attributes":{"ID":191241,"DIS_CODE":0,"TOWNNAME":"善化區","LI":"小新里","LIN":"22鄰","STREET":" ","SECT":" ","MAREA":"成功新村","LANE":" ","ALLEY":" ","HOUSE_NO":"９０號六樓","E_COORD97":180449.17999999999,"N_COORD97":2558612.5,"ADDRESS":"成功新村９０號六樓","OBJECTID":191240},"geometry":{"x":180449.1799999997,"y":2558612.5}},{"attributes":{"ID":191242,"DIS_CODE":0,"TOWNNAME":"善化區","LI":"小新里","LIN":"22鄰","STREET":" ","SECT":" ","MAREA":"成功新村","LANE":" ","ALLEY":" ","HOUSE_NO":"２７號三樓","E_COORD97":180386.45999999999,"N_COORD97":2558667.4900000002,"ADDRESS":"成功新村２７號三樓","OBJECTID":191241},"geometry":{"x":180386.45999999996,"y":2558667.4900000039}},{"attributes":{"ID":191243,"DIS_CODE":0,"TOWNNAME":"善化區","LI":"小新里","LIN":"22鄰","STREET":" ","SECT":" ","MAREA":"成功新村","LANE":" ","ALLEY":" ","HOUSE_NO":"５０號七樓","E_COORD97":180333.73999999999,"N_COORD97":2558665.5,"ADDRESS":"成功新村５０號七樓","OBJECTID":191242},"geometry":{"x":180333.74000000022,"y":2558665.5000000019}},{"attributes":{"ID":191244,"DIS_CODE":0,"TOWNNAME":"永康區","LI":"復國里","LIN":"21鄰","STREET":"復華六街","SECT":" ","MAREA":" ","LANE":" ","ALLEY":" ","HOUSE_NO":"８５號","E_COORD97":172640.44,"N_COORD97":2545837.1600000001,"ADDRESS":"復華六街８５號","OBJECTID":191243},"geometry":{"x":172640.44000000134,"y":2545837.1600000039}},{"attributes":{"ID":191245,"DIS_CODE":0,"TOWNNAME":"北區","LI":"文元里","LIN":"5鄰","STREET":"文賢路","SECT":" ","MAREA":" ","LANE":"１１２２巷","ALLEY":"５９弄","HOUSE_NO":"２３號","E_COORD97":167491.75,"N_COORD97":2546442.0299999998,"ADDRESS":"文賢路１１２２巷５９弄２３號","OBJECTID":191244},"geometry":{"x":167491.75000000093,"y":2546442.0300000012}},{"attributes":{"ID":191246,"DIS_CODE":0,"TOWNNAME":"善化區","LI":"小新里","LIN":"22鄰","STREET":" ","SECT":" ","MAREA":"成功新村","LANE":" ","ALLEY":" ","HOUSE_NO":"２９號三樓","E_COORD97":180417.51000000001,"N_COORD97":2558657.25,"ADDRESS":"成功新村２９號三樓","OBJECTID":191245},"geometry":{"x":180417.51000000071,"y":2558657.25}},{"attributes":{"ID":191247,"DIS_CODE":0,"TOWNNAME":"新市區","LI":"新和里","LIN":"21鄰","STREET":"中正路","SECT":" ","MAREA":" ","LANE":" ","ALLEY":" ","HOUSE_NO":"６５號","E_COORD97":177395.23000000001,"N_COORD97":2552529.25,"ADDRESS":"中正路６５號","OBJECTID":191246},"geometry":{"x":177395.23000000138,"y":2552529.2500000037}},{"attributes":{"ID":191248,"DIS_CODE":0,"TOWNNAME":"善化區","LI":"小新里","LIN":"22鄰","STREET":" ","SECT":" ","MAREA":"成功新村","LANE":" ","ALLEY":" ","HOUSE_NO":"６２號四樓","E_COORD97":180302.48000000001,"N_COORD97":2558661.25,"ADDRESS":"成功新村６２號四樓","OBJECTID":191247},"geometry":{"x":180302.48000000138,"y":2558661.25}},{"attributes":{"ID":191249,"DIS_CODE":0,"TOWNNAME":"善化區","LI":"小新里","LIN":"22鄰","STREET":" ","SECT":" ","MAREA":"成功新村","LANE":" ","ALLEY":" ","HOUSE_NO":"３５號三樓","E_COORD97":180431.26000000001,"N_COORD97":2558667.25,"ADDRESS":"成功新村３５號三樓","OBJECTID":191248},"geometry":{"x":180431.25999999978,"y":2558667.2500000019}},{"attributes":{"ID":191250,"DIS_CODE":0,"TOWNNAME":"善化區","LI":"小新里","LIN":"22鄰","STREET":" ","SECT":" ","MAREA":"成功新村","LANE":" ","ALLEY":" ","HOUSE_NO":"６２號六樓","E_COORD97":180302.48000000001,"N_COORD97":2558661.25,"ADDRESS":"成功新村６２號六樓","OBJECTID":191249},"geometry":{"x":180302.48000000138,"y":2558661.25}},{"attributes":{"ID":191251,"DIS_CODE":0,"TOWNNAME":"善化區","LI":"小新里","LIN":"22鄰","STREET":" ","SECT":" ","MAREA":"成功新村","LANE":" ","ALLEY":" ","HOUSE_NO":"６０號五樓","E_COORD97":180299.57000000001,"N_COORD97":2558652.75,"ADDRESS":"成功新村６０號五樓","OBJECTID":191250},"geometry":{"x":180299.5700000003,"y":2558652.7500000019}},{"attributes":{"ID":191252,"DIS_CODE":0,"TOWNNAME":"善化區","LI":"小新里","LIN":"22鄰","STREET":" ","SECT":" ","MAREA":"成功新村","LANE":" ","ALLEY":" ","HOUSE_NO":"５５號四樓","E_COORD97":180334.48999999999,"N_COORD97":2558644.5,"ADDRESS":"成功新村５５號四樓","OBJECTID":191251},"geometry":{"x":180334.49000000115,"y":2558644.5000000019}},{"attributes":{"ID":191253,"DIS_CODE":0,"TOWNNAME":"善化區","LI":"小新里","LIN":"22鄰","STREET":" ","SECT":" ","MAREA":"成功新村","LANE":" ","ALLEY":" ","HOUSE_NO":"３６號七樓","E_COORD97":180439,"N_COORD97":2558664,"ADDRESS":"成功新村３６號七樓","OBJECTID":191252},"geometry":{"x":180439.00000000186,"y":2558664.0000000037}},{"attributes":{"ID":191254,"DIS_CODE":0,"TOWNNAME":"善化區","LI":"小新里","LIN":"22鄰","STREET":" ","SECT":" ","MAREA":"成功新村","LANE":" ","ALLEY":" ","HOUSE_NO":"５８號七樓","E_COORD97":180295.67999999999,"N_COORD97":2558645,"ADDRESS":"成功新村５８號七樓","OBJECTID":191253},"geometry":{"x":180295.68000000063,"y":2558645.0000000019}},{"attributes":{"ID":191255,"DIS_CODE":0,"TOWNNAME":"善化區","LI":"小新里","LIN":"22鄰","STREET":" ","SECT":" ","MAREA":"成功新村","LANE":" ","ALLEY":" ","HOUSE_NO":"４５號二樓","E_COORD97":180453.35000000001,"N_COORD97":2558659,"ADDRESS":"成功新村４５號二樓","OBJECTID":191254},"geometry":{"x":180453.35000000056,"y":2558659}},{"attributes":{"ID":191256,"DIS_CODE":0,"TOWNNAME":"善化區","LI":"小新里","LIN":"22鄰","STREET":" ","SECT":" ","MAREA":"成功新村","LANE":" ","ALLEY":" ","HOUSE_NO":"３４號五樓","E_COORD97":180420.60000000001,"N_COORD97":2558670.75,"ADDRESS":"成功新村３４號五樓","OBJECTID":191255},"geometry":{"x":180420.59999999963,"y":2558670.75}},{"attributes":{"ID":191257,"DIS_CODE":0,"TOWNNAME":"善化區","LI":"小新里","LIN":"22鄰","STREET":" ","SECT":" ","MAREA":"成功新村","LANE":" ","ALLEY":" ","HOUSE_NO":"６６號八樓","E_COORD97":180318.45000000001,"N_COORD97":2558670.5,"ADDRESS":"成功新村６６號八樓","OBJECTID":191256},"geometry":{"x":180318.45000000019,"y":2558670.4999999981}},{"attributes":{"ID":191258,"DIS_CODE":0,"TOWNNAME":"永康區","LI":"復國里","LIN":"21鄰","STREET":"復華五街","SECT":" ","MAREA":" ","LANE":" ","ALLEY":" ","HOUSE_NO":"４１號","E_COORD97":172717.75,"N_COORD97":2545699.98,"ADDRESS":"復華五街４１號","OBJECTID":191257},"geometry":{"x":172717.75000000093,"y":2545699.9800000023}},{"attributes":{"ID":191259,"DIS_CODE":0,"TOWNNAME":"北區","LI":"文元里","LIN":"5鄰","STREET":"文賢路","SECT":" ","MAREA":" ","LANE":"１１２２巷","ALLEY":"５９弄","HOUSE_NO":"２５號","E_COORD97":167490.73999999999,"N_COORD97":2546446.0699999998,"ADDRESS":"文賢路１１２２巷５９弄２５號","OBJECTID":191258},"geometry":{"x":167490.74000000022,"y":2546446.0700000022}},{"attributes":{"ID":191260,"DIS_CODE":0,"TOWNNAME":"永康區","LI":"復國里","LIN":"21鄰","STREET":"復華六街","SECT":" ","MAREA":" ","LANE":" ","ALLEY":" ","HOUSE_NO":"８７號","E_COORD97":172636.22,"N_COORD97":2545837.1600000001,"ADDRESS":"復華六街８７號","OBJECTID":191259},"geometry":{"x":172636.22000000067,"y":2545837.1600000039}},{"attributes":{"ID":191261,"DIS_CODE":0,"TOWNNAME":"北門區","LI":"保吉里","LIN":"3鄰","STREET":" ","SECT":" ","MAREA":"蚵寮","LANE":" ","ALLEY":" ","HOUSE_NO":"２９號","E_COORD97":161480.38,"N_COORD97":2575716.9500000002,"ADDRESS":"蚵寮２９號","OBJECTID":191260},"geometry":{"x":161480.37999999989,"y":2575716.950000003}},{"attributes":{"ID":191262,"DIS_CODE":0,"TOWNNAME":"北區","LI":"文元里","LIN":"5鄰","STREET":"文賢路","SECT":" ","MAREA":" ","LANE":"１１２２巷","ALLEY":"５９弄","HOUSE_NO":"３３號","E_COORD97":167489.41,"N_COORD97":2546462.6000000001,"ADDRESS":"文賢路１１２２巷５９弄３３號","OBJECTID":191261},"geometry":{"x":167489.41000000015,"y":2546462.5999999996}},{"attributes":{"ID":191263,"DIS_CODE":0,"TOWNNAME":"北區","LI":"文元里","LIN":"5鄰","STREET":"文賢路","SECT":" ","MAREA":" ","LANE":"１１２２巷","ALLEY":"５９弄","HOUSE_NO":"３５號","E_COORD97":167488.35000000001,"N_COORD97":2546466.8300000001,"ADDRESS":"文賢路１１２２巷５９弄３５號","OBJECTID":191262},"geometry":{"x":167488.35000000149,"y":2546466.8300000019}},{"attributes":{"ID":191264,"DIS_CODE":0,"TOWNNAME":"北區","LI":"文元里","LIN":"5鄰","STREET":"文賢路","SECT":" ","MAREA":" ","LANE":"１１２２巷","ALLEY":"５９弄","HOUSE_NO":"３７號","E_COORD97":167486.23000000001,"N_COORD97":2546471.0600000001,"ADDRESS":"文賢路１１２２巷５９弄３７號","OBJECTID":191263},"geometry":{"x":167486.23000000045,"y":2546471.0600000005}},{"attributes":{"ID":191265,"DIS_CODE":0,"TOWNNAME":"北區","LI":"文元里","LIN":"5鄰","STREET":"文賢路","SECT":" ","MAREA":" ","LANE":"１１２２巷","ALLEY":"５９弄","HOUSE_NO":"４３號","E_COORD97":167480.67999999999,"N_COORD97":2546483.73,"ADDRESS":"文賢路１１２２巷５９弄４３號","OBJECTID":191264},"geometry":{"x":167480.6799999997,"y":2546483.7300000004}},{"attributes":{"ID":191266,"DIS_CODE":0,"TOWNNAME":"永康區","LI":"龍潭里","LIN":"3鄰","STREET":"龍國街","SECT":" ","MAREA":" ","LANE":" ","ALLEY":" ","HOUSE_NO":"３０７號","E_COORD97":174673.07000000001,"N_COORD97":2548025.1000000001,"ADDRESS":"龍國街３０７號","OBJECTID":191265},"geometry":{"x":174673.0700000003,"y":2548025.1000000015}},{"attributes":{"ID":191267,"DIS_CODE":0,"TOWNNAME":"永康區","LI":"\u25A0行里","LIN":"43鄰","STREET":"中正二街","SECT":" ","MAREA":" ","LANE":" ","ALLEY":" ","HOUSE_NO":"２０１號","E_COORD97":171469.60000000001,"N_COORD97":2547792.75,"ADDRESS":"中正二街２０１號","OBJECTID":191266},"geometry":{"x":171469.59999999963,"y":2547792.7500000037}},{"attributes":{"ID":191268,"DIS_CODE":0,"TOWNNAME":"永康區","LI":"龍潭里","LIN":"43鄰","STREET":"國民路","SECT":" ","MAREA":" ","LANE":" ","ALLEY":" ","HOUSE_NO":"２２３號","E_COORD97":174519.88,"N_COORD97":2547033.2599999998,"ADDRESS":"國民路２２３號","OBJECTID":191267},"geometry":{"x":174519.87999999989,"y":2547033.2600000016}},{"attributes":{"ID":191269,"DIS_CODE":0,"TOWNNAME":"北區","LI":"文元里","LIN":"5鄰","STREET":"文賢路","SECT":" ","MAREA":" ","LANE":"１１２２巷","ALLEY":"５９弄","HOUSE_NO":"４９號","E_COORD97":167480.23999999999,"N_COORD97":2546497.0899999999,"ADDRESS":"文賢路１１２２巷５９弄４９號","OBJECTID":191268},"geometry":{"x":167480.24000000115,"y":2546497.0899999999}},{"attributes":{"ID":191270,"DIS_CODE":0,"TOWNNAME":"永康區","LI":"\u25A0洲里","LIN":"40鄰","STREET":"洲工街","SECT":" ","MAREA":" ","LANE":" ","ALLEY":" ","HOUSE_NO":"１５７號","E_COORD97":170702.94,"N_COORD97":2548634.52,"ADDRESS":"洲工街１５７號","OBJECTID":191269},"geometry":{"x":170702.94000000134,"y":2548634.5200000033}},{"attributes":{"ID":191271,"DIS_CODE":0,"TOWNNAME":"永康區","LI":"龍潭里","LIN":"1鄰","STREET":"龍國街","SECT":" ","MAREA":" ","LANE":" ","ALLEY":" ","HOUSE_NO":"３３６號","E_COORD97":174663.07000000001,"N_COORD97":2548007.1499999999,"ADDRESS":"龍國街３３６號","OBJECTID":191270},"geometry":{"x":174663.0700000003,"y":2548007.1499999985}},{"attributes":{"ID":191272,"DIS_CODE":0,"TOWNNAME":"北區","LI":"文元里","LIN":"5鄰","STREET":"文賢路","SECT":" ","MAREA":" ","LANE":"１１２２巷","ALLEY":"５９弄","HOUSE_NO":"５３號","E_COORD97":167479.17999999999,"N_COORD97":2546506.54,"ADDRESS":"文賢路１１２２巷５９弄５３號","OBJECTID":191271},"geometry":{"x":167479.1799999997,"y":2546506.5399999991}},{"attributes":{"ID":191273,"DIS_CODE":0,"TOWNNAME":"北區","LI":"文元里","LIN":"5鄰","STREET":"文賢路","SECT":" ","MAREA":" ","LANE":"１１２２巷","ALLEY":"５９弄","HOUSE_NO":"５５號","E_COORD97":167477.92000000001,"N_COORD97":2546510.9500000002,"ADDRESS":"文賢路１１２２巷５９弄５５號","OBJECTID":191272},"geometry":{"x":167477.91999999899,"y":2546510.9499999993}},{"attributes":{"ID":191274,"DIS_CODE":0,"TOWNNAME":"北區","LI":"文元里","LIN":"5鄰","STREET":"文賢路","SECT":" ","MAREA":" ","LANE":"１１２２巷","ALLEY":"５９弄","HOUSE_NO":"５７號","E_COORD97":167476.66,"N_COORD97":2546514.9399999999,"ADDRESS":"文賢路１１２２巷５９弄５７號","OBJECTID":191273},"geometry":{"x":167476.66000000201,"y":2546514.9399999995}},{"attributes":{"ID":191275,"DIS_CODE":0,"TOWNNAME":"北區","LI":"文元里","LIN":"5鄰","STREET":"文賢路","SECT":" ","MAREA":" ","LANE":"１１２２巷","ALLEY":"５９弄","HOUSE_NO":"５９號","E_COORD97":167476.23999999999,"N_COORD97":2546519.3500000001,"ADDRESS":"文賢路１１２２巷５９弄５９號","OBJECTID":191274},"geometry":{"x":167476.24000000209,"y":2546519.3499999996}},{"attributes":{"ID":191276,"DIS_CODE":0,"TOWNNAME":"永康區","LI":"\u25A0行里","LIN":"44鄰","STREET":"\u25A0和街","SECT":" ","MAREA":" ","LANE":" ","ALLEY":" ","HOUSE_NO":"２１６號","E_COORD97":171813.63,"N_COORD97":2548106.6899999999,"ADDRESS":"\u25A0和街２１６號","OBJECTID":191275},"geometry":{"x":171813.63000000082,"y":2548106.6899999995}},{"attributes":{"ID":191277,"DIS_CODE":0,"TOWNNAME":"善化區","LI":"小新里","LIN":"22鄰","STREET":" ","SECT":" ","MAREA":"成功新村","LANE":" ","ALLEY":" ","HOUSE_NO":"６４號八樓","E_COORD97":180305.73000000001,"N_COORD97":2558670.25,"ADDRESS":"成功新村６４號八樓","OBJECTID":191276},"geometry":{"x":180305.73000000231,"y":2558670.2500000019}},{"attributes":{"ID":191278,"DIS_CODE":0,"TOWNNAME":"善化區","LI":"小新里","LIN":"22鄰","STREET":" ","SECT":" ","MAREA":"成功新村","LANE":" ","ALLEY":" ","HOUSE_NO":"３１號七樓","E_COORD97":180409.51000000001,"N_COORD97":2558660.25,"ADDRESS":"成功新村３１號七樓","OBJECTID":191277},"geometry":{"x":180409.50999999978,"y":2558660.2500000019}},{"attributes":{"ID":191279,"DIS_CODE":0,"TOWNNAME":"善化區","LI":"小新里","LIN":"22鄰","STREET":" ","SECT":" ","MAREA":"成功新村","LANE":" ","ALLEY":" ","HOUSE_NO":"４８號五樓","E_COORD97":180471.64999999999,"N_COORD97":2558636.75,"ADDRESS":"成功新村４８號五樓","OBJECTID":191278},"geometry":{"x":180471.65000000037,"y":2558636.7500000019}},{"attributes":{"ID":191280,"DIS_CODE":0,"TOWNNAME":"善化區","LI":"小新里","LIN":"22鄰","STREET":" ","SECT":" ","MAREA":"成功新村","LANE":" ","ALLEY":" ","HOUSE_NO":"４１號四樓","E_COORD97":180459.14999999999,"N_COORD97":2558641.25,"ADDRESS":"成功新村４１號四樓","OBJECTID":191279},"geometry":{"x":180459.1500000013,"y":2558641.25}},{"attributes":{"ID":191281,"DIS_CODE":0,"TOWNNAME":"善化區","LI":"小新里","LIN":"22鄰","STREET":" ","SECT":" ","MAREA":"成功新村","LANE":" ","ALLEY":" ","HOUSE_NO":"８９號八樓","E_COORD97":180458.92999999999,"N_COORD97":2558608.75,"ADDRESS":"成功新村８９號八樓","OBJECTID":191280},"geometry":{"x":180458.9299999997,"y":2558608.7500000019}},{"attributes":{"ID":191282,"DIS_CODE":0,"TOWNNAME":"善化區","LI":"小新里","LIN":"22鄰","STREET":" ","SECT":" ","MAREA":"成功新村","LANE":" ","ALLEY":" ","HOUSE_NO":"５２號七樓","E_COORD97":180341.95999999999,"N_COORD97":2558662.25,"ADDRESS":"成功新村５２號七樓","OBJECTID":191281},"geometry":{"x":180341.95999999996,"y":2558662.2500000037}},{"attributes":{"ID":191283,"DIS_CODE":0,"TOWNNAME":"善化區","LI":"小新里","LIN":"22鄰","STREET":" ","SECT":" ","MAREA":"成功新村","LANE":" ","ALLEY":" ","HOUSE_NO":"５７號四樓","E_COORD97":180313.26000000001,"N_COORD97":2558647.5,"ADDRESS":"成功新村５７號四樓","OBJECTID":191282},"geometry":{"x":180313.26000000164,"y":2558647.5000000019}},{"attributes":{"ID":191284,"DIS_CODE":0,"TOWNNAME":"善化區","LI":"小新里","LIN":"22鄰","STREET":" ","SECT":" ","MAREA":"成功新村","LANE":" ","ALLEY":" ","HOUSE_NO":"４６號八樓","E_COORD97":180462.64000000001,"N_COORD97":2558655.5,"ADDRESS":"成功新村４６號八樓","OBJECTID":191283},"geometry":{"x":180462.63999999966,"y":2558655.5}},{"attributes":{"ID":191285,"DIS_CODE":0,"TOWNNAME":"善化區","LI":"小新里","LIN":"22鄰","STREET":" ","SECT":" ","MAREA":"成功新村","LANE":" ","ALLEY":" ","HOUSE_NO":"４６號四樓","E_COORD97":180462.64000000001,"N_COORD97":2558655.5,"ADDRESS":"成功新村４６號四樓","OBJECTID":191284},"geometry":{"x":180462.63999999966,"y":2558655.5}},{"attributes":{"ID":191286,"DIS_CODE":0,"TOWNNAME":"善化區","LI":"小新里","LIN":"22鄰","STREET":" ","SECT":" ","MAREA":"成功新村","LANE":" ","ALLEY":" ","HOUSE_NO":"６４號三樓","E_COORD97":180305.73000000001,"N_COORD97":2558670.25,"ADDRESS":"成功新村６４號三樓","OBJECTID":191285},"geometry":{"x":180305.73000000231,"y":2558670.2500000019}},{"attributes":{"ID":191287,"DIS_CODE":0,"TOWNNAME":"善化區","LI":"小新里","LIN":"22鄰","STREET":" ","SECT":" ","MAREA":"成功新村","LANE":" ","ALLEY":" ","HOUSE_NO":"３５號四樓","E_COORD97":180431.26000000001,"N_COORD97":2558667.25,"ADDRESS":"成功新村３５號四樓","OBJECTID":191286},"geometry":{"x":180431.25999999978,"y":2558667.2500000019}},{"attributes":{"ID":191288,"DIS_CODE":0,"TOWNNAME":"善化區","LI":"小新里","LIN":"22鄰","STREET":" ","SECT":" ","MAREA":"成功新村","LANE":" ","ALLEY":" ","HOUSE_NO":"５８號六樓","E_COORD97":180295.67999999999,"N_COORD97":2558645,"ADDRESS":"成功新村５８號六樓","OBJECTID":191287},"geometry":{"x":180295.68000000063,"y":2558645.0000000019}},{"attributes":{"ID":191289,"DIS_CODE":0,"TOWNNAME":"善化區","LI":"小新里","LIN":"22鄰","STREET":" ","SECT":" ","MAREA":"成功新村","LANE":" ","ALLEY":" ","HOUSE_NO":"５７號五樓","E_COORD97":180313.26000000001,"N_COORD97":2558647.5,"ADDRESS":"成功新村５７號五樓","OBJECTID":191288},"geometry":{"x":180313.26000000164,"y":2558647.5000000019}},{"attributes":{"ID":191290,"DIS_CODE":0,"TOWNNAME":"善化區","LI":"小新里","LIN":"22鄰","STREET":" ","SECT":" ","MAREA":"成功新村","LANE":" ","ALLEY":" ","HOUSE_NO":"５號六樓","E_COORD97":180316.79000000001,"N_COORD97":2558700.25,"ADDRESS":"成功新村５號六樓","OBJECTID":191289},"geometry":{"x":180316.7900000019,"y":2558700.2500000019}},{"attributes":{"ID":191291,"DIS_CODE":0,"TOWNNAME":"永康區","LI":"復國里","LIN":"21鄰","STREET":"復華六街","SECT":" ","MAREA":" ","LANE":" ","ALLEY":" ","HOUSE_NO":"５３號","E_COORD97":172730.17000000001,"N_COORD97":2545835.27,"ADDRESS":"復華六街５３號","OBJECTID":191290},"geometry":{"x":172730.17000000086,"y":2545835.2699999996}},{"attributes":{"ID":191292,"DIS_CODE":0,"TOWNNAME":"永康區","LI":"復國里","LIN":"21鄰","STREET":"復華五街","SECT":" ","MAREA":" ","LANE":" ","ALLEY":" ","HOUSE_NO":"４５號","E_COORD97":172707.48000000001,"N_COORD97":2545700.23,"ADDRESS":"復華五街４５號","OBJECTID":191291},"geometry":{"x":172707.48000000045,"y":2545700.2300000004}},{"attributes":{"ID":191293,"DIS_CODE":0,"TOWNNAME":"善化區","LI":"小新里","LIN":"22鄰","STREET":" ","SECT":" ","MAREA":"成功新村","LANE":" ","ALLEY":" ","HOUSE_NO":"２３號二樓","E_COORD97":180388.35000000001,"N_COORD97":2558682.25,"ADDRESS":"成功新村２３號二樓","OBJECTID":191292},"geometry":{"x":180388.34999999963,"y":2558682.25}},{"attributes":{"ID":191294,"DIS_CODE":0,"TOWNNAME":"北區","LI":"文元里","LIN":"5鄰","STREET":"文賢路","SECT":" ","MAREA":" ","LANE":"１１２２巷","ALLEY":"５９弄","HOUSE_NO":"６１號","E_COORD97":167475.19,"N_COORD97":2546523.77,"ADDRESS":"文賢路１１２２巷５９弄６１號","OBJECTID":191293},"geometry":{"x":167475.19000000134,"y":2546523.7699999996}},{"attributes":{"ID":191295,"DIS_CODE":0,"TOWNNAME":"善化區","LI":"小新里","LIN":"22鄰","STREET":" ","SECT":" ","MAREA":"成功新村","LANE":" ","ALLEY":" ","HOUSE_NO":"２４號二樓","E_COORD97":180396.85000000001,"N_COORD97":2558678.9900000002,"ADDRESS":"成功新村２４號二樓","OBJECTID":191294},"geometry":{"x":180396.84999999963,"y":2558678.9900000021}},{"attributes":{"ID":191296,"DIS_CODE":0,"TOWNNAME":"北區","LI":"文元里","LIN":"5鄰","STREET":"文賢路","SECT":" ","MAREA":" ","LANE":"１１２２巷","ALLEY":"５９弄","HOUSE_NO":"６３號","E_COORD97":167474.98000000001,"N_COORD97":2546528.6000000001,"ADDRESS":"文賢路１１２２巷５９弄６３號","OBJECTID":191295},"geometry":{"x":167474.98000000138,"y":2546528.6000000034}},{"attributes":{"ID":191297,"DIS_CODE":0,"TOWNNAME":"善化區","LI":"小新里","LIN":"22鄰","STREET":" ","SECT":" ","MAREA":"成功新村","LANE":" ","ALLEY":" ","HOUSE_NO":"３４號八樓","E_COORD97":180420.60000000001,"N_COORD97":2558670.75,"ADDRESS":"成功新村３４號八樓","OBJECTID":191296},"geometry":{"x":180420.59999999963,"y":2558670.75}},{"attributes":{"ID":191298,"DIS_CODE":0,"TOWNNAME":"善化區","LI":"小新里","LIN":"22鄰","STREET":" ","SECT":" ","MAREA":"成功新村","LANE":" ","ALLEY":" ","HOUSE_NO":"５４號六樓","E_COORD97":180336.69,"N_COORD97":2558651.25,"ADDRESS":"成功新村５４號六樓","OBJECTID":191297},"geometry":{"x":180336.69000000134,"y":2558651.25}},{"attributes":{"ID":191299,"DIS_CODE":0,"TOWNNAME":"北區","LI":"文元里","LIN":"5鄰","STREET":"文賢路","SECT":" ","MAREA":" ","LANE":"１１２２巷","ALLEY":"５９弄","HOUSE_NO":"６５號","E_COORD97":167473.51000000001,"N_COORD97":2546532.7999999998,"ADDRESS":"文賢路１１２２巷５９弄６５號","OBJECTID":191298},"geometry":{"x":167473.50999999978,"y":2546532.8000000026}},{"attributes":{"ID":191300,"DIS_CODE":0,"TOWNNAME":"善化區","LI":"小新里","LIN":"22鄰","STREET":" ","SECT":" ","MAREA":"成功新村","LANE":" ","ALLEY":" ","HOUSE_NO":"５號八樓","E_COORD97":180316.79000000001,"N_COORD97":2558700.25,"ADDRESS":"成功新村５號八樓","OBJECTID":191299},"geometry":{"x":180316.7900000019,"y":2558700.2500000019}},{"attributes":{"ID":191301,"DIS_CODE":0,"TOWNNAME":"善化區","LI":"小新里","LIN":"22鄰","STREET":" ","SECT":" ","MAREA":"成功新村","LANE":" ","ALLEY":" ","HOUSE_NO":"５４號七樓","E_COORD97":180336.69,"N_COORD97":2558651.25,"ADDRESS":"成功新村５４號七樓","OBJECTID":191300},"geometry":{"x":180336.69000000134,"y":2558651.25}},{"attributes":{"ID":191302,"DIS_CODE":0,"TOWNNAME":"善化區","LI":"小新里","LIN":"22鄰","STREET":" ","SECT":" ","MAREA":"成功新村","LANE":" ","ALLEY":" ","HOUSE_NO":"６０號三樓","E_COORD97":180299.57000000001,"N_COORD97":2558652.75,"ADDRESS":"成功新村６０號三樓","OBJECTID":191301},"geometry":{"x":180299.5700000003,"y":2558652.7500000019}},{"attributes":{"ID":191303,"DIS_CODE":0,"TOWNNAME":"佳里區","LI":"鎮山里","LIN":"20鄰","STREET":"鎮山街","SECT":" ","MAREA":" ","LANE":"１６０巷","ALLEY":"３５弄","HOUSE_NO":"６號","E_COORD97":166179.79999999999,"N_COORD97":2560930.4500000002,"ADDRESS":"鎮山街１６０巷３５弄６號","OBJECTID":191302},"geometry":{"x":166179.79999999981,"y":2560930.4499999993}},{"attributes":{"ID":191304,"DIS_CODE":0,"TOWNNAME":"北區","LI":"文元里","LIN":"5鄰","STREET":"文賢路","SECT":" ","MAREA":" ","LANE":"１１２２巷","ALLEY":"５９弄","HOUSE_NO":"６７號","E_COORD97":167472.23999999999,"N_COORD97":2546537.21,"ADDRESS":"文賢路１１２２巷５９弄６７號","OBJECTID":191303},"geometry":{"x":167472.24000000022,"y":2546537.2100000028}},{"attributes":{"ID":191305,"DIS_CODE":0,"TOWNNAME":"新營區","LI":"南紙里","LIN":"5鄰","STREET":"南紙街","SECT":" ","MAREA":" ","LANE":"２９巷","ALLEY":"６弄","HOUSE_NO":"３號","E_COORD97":177857.59,"N_COORD97":2577680.4100000001,"ADDRESS":"南紙街２９巷６弄３號","OBJECTID":191304},"geometry":{"x":177857.58999999985,"y":2577680.4100000001}},{"attributes":{"ID":191306,"DIS_CODE":0,"TOWNNAME":"永康區","LI":"甲頂里","LIN":"5鄰","STREET":"中正南路","SECT":" ","MAREA":" ","LANE":"１６８巷","ALLEY":"２弄","HOUSE_NO":"７２號","E_COORD97":169856.56,"N_COORD97":2546874.2400000002,"ADDRESS":"中正南路１６８巷２弄７２號","OBJECTID":191305},"geometry":{"x":169856.55999999959,"y":2546874.2400000039}},{"attributes":{"ID":191307,"DIS_CODE":0,"TOWNNAME":"永康區","LI":"甲頂里","LIN":"5鄰","STREET":"中正南路","SECT":" ","MAREA":" ","LANE":"１６８巷","ALLEY":"２弄","HOUSE_NO":"６４號","E_COORD97":169868.25,"N_COORD97":2546883.7400000002,"ADDRESS":"中正南路１６８巷２弄６４號","OBJECTID":191306},"geometry":{"x":169868.25000000093,"y":2546883.7400000002}},{"attributes":{"ID":191308,"DIS_CODE":0,"TOWNNAME":"永康區","LI":"甲頂里","LIN":"5鄰","STREET":"中正南路","SECT":" ","MAREA":" ","LANE":"１６８巷","ALLEY":"２弄","HOUSE_NO":"８６號","E_COORD97":169836.01000000001,"N_COORD97":2546857,"ADDRESS":"中正南路１６８巷２弄８６號","OBJECTID":191307},"geometry":{"x":169836.01000000071,"y":2546857}},{"attributes":{"ID":191309,"DIS_CODE":0,"TOWNNAME":"永康區","LI":"甲頂里","LIN":"5鄰","STREET":"中正南路","SECT":" ","MAREA":" ","LANE":"１６８巷","ALLEY":"２弄","HOUSE_NO":"８０號","E_COORD97":169844.56,"N_COORD97":2546864.5,"ADDRESS":"中正南路１６８巷２弄８０號","OBJECTID":191308},"geometry":{"x":169844.55999999959,"y":2546864.5}},{"attributes":{"ID":191310,"DIS_CODE":0,"TOWNNAME":"永康區","LI":"甲頂里","LIN":"5鄰","STREET":"中正南路","SECT":" ","MAREA":" ","LANE":"１６８巷","ALLEY":"２弄","HOUSE_NO":"１２０號","E_COORD97":169871.95999999999,"N_COORD97":2546868.75,"ADDRESS":"中正南路１６８巷２弄１２０號","OBJECTID":191309},"geometry":{"x":169871.96000000089,"y":2546868.7500000019}},{"attributes":{"ID":191311,"DIS_CODE":0,"TOWNNAME":"善化區","LI":"小新里","LIN":"22鄰","STREET":" ","SECT":" ","MAREA":"成功新村","LANE":" ","ALLEY":" ","HOUSE_NO":"４７號二樓","E_COORD97":180473.26000000001,"N_COORD97":2558651.5,"ADDRESS":"成功新村４７號二樓","OBJECTID":191310},"geometry":{"x":180473.26000000071,"y":2558651.5000000019}},{"attributes":{"ID":191312,"DIS_CODE":0,"TOWNNAME":"善化區","LI":"小新里","LIN":"22鄰","STREET":" ","SECT":" ","MAREA":"成功新村","LANE":" ","ALLEY":" ","HOUSE_NO":"６２號三樓","E_COORD97":180302.48000000001,"N_COORD97":2558661.25,"ADDRESS":"成功新村６２號三樓","OBJECTID":191311},"geometry":{"x":180302.48000000138,"y":2558661.25}},{"attributes":{"ID":191313,"DIS_CODE":0,"TOWNNAME":"善化區","LI":"小新里","LIN":"22鄰","STREET":" ","SECT":" ","MAREA":"成功新村","LANE":" ","ALLEY":" ","HOUSE_NO":"６０號六樓","E_COORD97":180299.57000000001,"N_COORD97":2558652.75,"ADDRESS":"成功新村６０號六樓","OBJECTID":191312},"geometry":{"x":180299.5700000003,"y":2558652.7500000019}},{"attributes":{"ID":191314,"DIS_CODE":0,"TOWNNAME":"善化區","LI":"小新里","LIN":"22鄰","STREET":" ","SECT":" ","MAREA":"成功新村","LANE":" ","ALLEY":" ","HOUSE_NO":"６６號五樓","E_COORD97":180318.45000000001,"N_COORD97":2558670.5,"ADDRESS":"成功新村６６號五樓","OBJECTID":191313},"geometry":{"x":180318.45000000019,"y":2558670.4999999981}},{"attributes":{"ID":191315,"DIS_CODE":0,"TOWNNAME":"善化區","LI":"小新里","LIN":"22鄰","STREET":" ","SECT":" ","MAREA":"成功新村","LANE":" ","ALLEY":" ","HOUSE_NO":"１２號八樓","E_COORD97":180352.79999999999,"N_COORD97":2558689.75,"ADDRESS":"成功新村１２號八樓","OBJECTID":191314},"geometry":{"x":180352.80000000075,"y":2558689.7500000019}},{"attributes":{"ID":191316,"DIS_CODE":0,"TOWNNAME":"善化區","LI":"小新里","LIN":"22鄰","STREET":" ","SECT":" ","MAREA":"成功新村","LANE":" ","ALLEY":" ","HOUSE_NO":"５８號四樓","E_COORD97":180295.67999999999,"N_COORD97":2558645,"ADDRESS":"成功新村５８號四樓","OBJECTID":191315},"geometry":{"x":180295.68000000063,"y":2558645.0000000019}},{"attributes":{"ID":191317,"DIS_CODE":0,"TOWNNAME":"善化區","LI":"小新里","LIN":"22鄰","STREET":" ","SECT":" ","MAREA":"成功新村","LANE":" ","ALLEY":" ","HOUSE_NO":"５４號三樓","E_COORD97":180336.69,"N_COORD97":2558651.25,"ADDRESS":"成功新村５４號三樓","OBJECTID":191316},"geometry":{"x":180336.69000000134,"y":2558651.25}},{"attributes":{"ID":191318,"DIS_CODE":0,"TOWNNAME":"善化區","LI":"小新里","LIN":"22鄰","STREET":" ","SECT":" ","MAREA":"成功新村","LANE":" ","ALLEY":" ","HOUSE_NO":"８９號五樓","E_COORD97":180458.92999999999,"N_COORD97":2558608.75,"ADDRESS":"成功新村８９號五樓","OBJECTID":191317},"geometry":{"x":180458.9299999997,"y":2558608.7500000019}},{"attributes":{"ID":191319,"DIS_CODE":0,"TOWNNAME":"善化區","LI":"小新里","LIN":"22鄰","STREET":" ","SECT":" ","MAREA":"成功新村","LANE":" ","ALLEY":" ","HOUSE_NO":"２４號八樓","E_COORD97":180396.85000000001,"N_COORD97":2558678.9900000002,"ADDRESS":"成功新村２４號八樓","OBJECTID":191318},"geometry":{"x":180396.84999999963,"y":2558678.9900000021}},{"attributes":{"ID":191320,"DIS_CODE":0,"TOWNNAME":"善化區","LI":"小新里","LIN":"22鄰","STREET":" ","SECT":" ","MAREA":"成功新村","LANE":" ","ALLEY":" ","HOUSE_NO":"５８號三樓","E_COORD97":180295.67999999999,"N_COORD97":2558645,"ADDRESS":"成功新村５８號三樓","OBJECTID":191319},"geometry":{"x":180295.68000000063,"y":2558645.0000000019}},{"attributes":{"ID":191321,"DIS_CODE":0,"TOWNNAME":"善化區","LI":"小新里","LIN":"22鄰","STREET":" ","SECT":" ","MAREA":"成功新村","LANE":" ","ALLEY":" ","HOUSE_NO":"２７號六樓","E_COORD97":180386.45999999999,"N_COORD97":2558667.4900000002,"ADDRESS":"成功新村２７號六樓","OBJECTID":191320},"geometry":{"x":180386.45999999996,"y":2558667.4900000039}},{"attributes":{"ID":191322,"DIS_CODE":0,"TOWNNAME":"善化區","LI":"小新里","LIN":"22鄰","STREET":" ","SECT":" ","MAREA":"成功新村","LANE":" ","ALLEY":" ","HOUSE_NO":"７０號七樓","E_COORD97":180363.85000000001,"N_COORD97":2558654.75,"ADDRESS":"成功新村７０號七樓","OBJECTID":191321},"geometry":{"x":180363.85000000056,"y":2558654.75}},{"attributes":{"ID":191323,"DIS_CODE":0,"TOWNNAME":"善化區","LI":"小新里","LIN":"22鄰","STREET":" ","SECT":" ","MAREA":"成功新村","LANE":" ","ALLEY":" ","HOUSE_NO":"４８號四樓","E_COORD97":180471.64999999999,"N_COORD97":2558636.75,"ADDRESS":"成功新村４８號四樓","OBJECTID":191322},"geometry":{"x":180471.65000000037,"y":2558636.7500000019}},{"attributes":{"ID":191324,"DIS_CODE":0,"TOWNNAME":"善化區","LI":"小新里","LIN":"22鄰","STREET":" ","SECT":" ","MAREA":"成功新村","LANE":" ","ALLEY":" ","HOUSE_NO":"２５號四樓","E_COORD97":180393.70999999999,"N_COORD97":2558664.5,"ADDRESS":"成功新村２５號四樓","OBJECTID":191323},"geometry":{"x":180393.71000000089,"y":2558664.5000000019}},{"attributes":{"ID":191325,"DIS_CODE":0,"TOWNNAME":"永康區","LI":"甲頂里","LIN":"5鄰","STREET":"中正南路","SECT":" ","MAREA":" ","LANE":"１６８巷","ALLEY":"２弄","HOUSE_NO":"１２２號","E_COORD97":169876.29000000001,"N_COORD97":2546870.4900000002,"ADDRESS":"中正南路１６８巷２弄１２２號","OBJECTID":191324},"geometry":{"x":169876.29000000097,"y":2546870.4900000021}},{"attributes":{"ID":191326,"DIS_CODE":0,"TOWNNAME":"關廟區","LI":"新光里","LIN":"1鄰","STREET":"新湖街","SECT":" ","MAREA":" ","LANE":" ","ALLEY":" ","HOUSE_NO":"２５６號","E_COORD97":183041.34359,"N_COORD97":2542481.0747099998,"ADDRESS":"新湖街２５６號","OBJECTID":191325},"geometry":{"x":183041.34358999878,"y":2542481.0747050028}},{"attributes":{"ID":191327,"DIS_CODE":0,"TOWNNAME":"永康區","LI":"甲頂里","LIN":"5鄰","STREET":"中正南路","SECT":" ","MAREA":" ","LANE":"１６８巷","ALLEY":"２弄","HOUSE_NO":"６６號","E_COORD97":169865.14999999999,"N_COORD97":2546881.4900000002,"ADDRESS":"中正南路１６８巷２弄６６號","OBJECTID":191326},"geometry":{"x":169865.15000000037,"y":2546881.4900000002}},{"attributes":{"ID":191328,"DIS_CODE":0,"TOWNNAME":"永康區","LI":"甲頂里","LIN":"5鄰","STREET":"中正南路","SECT":" ","MAREA":" ","LANE":"１６８巷","ALLEY":"２弄","HOUSE_NO":"６０號","E_COORD97":169875.98999999999,"N_COORD97":2546886.9900000002,"ADDRESS":"中正南路１６８巷２弄６０號","OBJECTID":191327},"geometry":{"x":169875.99000000022,"y":2546886.9900000021}},{"attributes":{"ID":191329,"DIS_CODE":0,"TOWNNAME":"永康區","LI":"甲頂里","LIN":"5鄰","STREET":"中正南路","SECT":" ","MAREA":" ","LANE":"１６８巷","ALLEY":"２弄","HOUSE_NO":"５６號","E_COORD97":169881.39999999999,"N_COORD97":2546886.4900000002,"ADDRESS":"中正南路１６８巷２弄５６號","OBJECTID":191328},"geometry":{"x":169881.4000000013,"y":2546886.4900000021}},{"attributes":{"ID":191330,"DIS_CODE":0,"TOWNNAME":"安南區","LI":"新順里","LIN":"5鄰","STREET":"安豐六街","SECT":" ","MAREA":" ","LANE":"１０巷","ALLEY":"５１弄","HOUSE_NO":"９號","E_COORD97":169299.28,"N_COORD97":2549532.6600000001,"ADDRESS":"安豐六街１０巷５１弄９號","OBJECTID":191329},"geometry":{"x":169299.28000000026,"y":2549532.6600000039}},{"attributes":{"ID":191331,"DIS_CODE":0,"TOWNNAME":"安南區","LI":"城中里","LIN":"5鄰","STREET":"城西街","SECT":"一段","MAREA":" ","LANE":"６１巷","ALLEY":"４１弄","HOUSE_NO":"２號之２","E_COORD97":160778.79999999999,"N_COORD97":2551285.0499999998,"ADDRESS":"城西街一段６１巷４１弄２號之２","OBJECTID":191330},"geometry":{"x":160778.79999999981,"y":2551285.0500000026}},{"attributes":{"ID":191332,"DIS_CODE":0,"TOWNNAME":"善化區","LI":"小新里","LIN":"22鄰","STREET":" ","SECT":" ","MAREA":"成功新村","LANE":" ","ALLEY":" ","HOUSE_NO":"９０號八樓","E_COORD97":180449.17999999999,"N_COORD97":2558612.5,"ADDRESS":"成功新村９０號八樓","OBJECTID":191331},"geometry":{"x":180449.1799999997,"y":2558612.5}},{"attributes":{"ID":191333,"DIS_CODE":0,"TOWNNAME":"善化區","LI":"小新里","LIN":"22鄰","STREET":" ","SECT":" ","MAREA":"成功新村","LANE":" ","ALLEY":" ","HOUSE_NO":"４８號六樓","E_COORD97":180471.64999999999,"N_COORD97":2558636.75,"ADDRESS":"成功新村４８號六樓","OBJECTID":191332},"geometry":{"x":180471.65000000037,"y":2558636.7500000019}},{"attributes":{"ID":191334,"DIS_CODE":0,"TOWNNAME":"善化區","LI":"小新里","LIN":"22鄰","STREET":" ","SECT":" ","MAREA":"成功新村","LANE":" ","ALLEY":" ","HOUSE_NO":"１１號二樓","E_COORD97":180355.04999999999,"N_COORD97":2558698.5,"ADDRESS":"成功新村１１號二樓","OBJECTID":191333},"geometry":{"x":180355.04999999981,"y":2558698.5000000019}},{"attributes":{"ID":191335,"DIS_CODE":0,"TOWNNAME":"善化區","LI":"小新里","LIN":"22鄰","STREET":" ","SECT":" ","MAREA":"成功新村","LANE":" ","ALLEY":" ","HOUSE_NO":"５７號六樓","E_COORD97":180313.26000000001,"N_COORD97":2558647.5,"ADDRESS":"成功新村５７號六樓","OBJECTID":191334},"geometry":{"x":180313.26000000164,"y":2558647.5000000019}},{"attributes":{"ID":191336,"DIS_CODE":0,"TOWNNAME":"善化區","LI":"小新里","LIN":"22鄰","STREET":" ","SECT":" ","MAREA":"成功新村","LANE":" ","ALLEY":" ","HOUSE_NO":"３號四樓","E_COORD97":180313.72,"N_COORD97":2558691.25,"ADDRESS":"成功新村３號四樓","OBJECTID":191335},"geometry":{"x":180313.72000000067,"y":2558691.25}},{"attributes":{"ID":191337,"DIS_CODE":0,"TOWNNAME":"善化區","LI":"小新里","LIN":"22鄰","STREET":" ","SECT":" ","MAREA":"成功新村","LANE":" ","ALLEY":" ","HOUSE_NO":"５號五樓","E_COORD97":180316.79000000001,"N_COORD97":2558700.25,"ADDRESS":"成功新村５號五樓","OBJECTID":191336},"geometry":{"x":180316.7900000019,"y":2558700.2500000019}},{"attributes":{"ID":191338,"DIS_CODE":0,"TOWNNAME":"善化區","LI":"小新里","LIN":"22鄰","STREET":" ","SECT":" ","MAREA":"成功新村","LANE":" ","ALLEY":" ","HOUSE_NO":"１號五樓","E_COORD97":180329.69,"N_COORD97":2558687,"ADDRESS":"成功新村１號五樓","OBJECTID":191337},"geometry":{"x":180329.69000000227,"y":2558687}},{"attributes":{"ID":191339,"DIS_CODE":0,"TOWNNAME":"善化區","LI":"小新里","LIN":"22鄰","STREET":" ","SECT":" ","MAREA":"成功新村","LANE":" ","ALLEY":" ","HOUSE_NO":"６６號六樓","E_COORD97":180318.45000000001,"N_COORD97":2558670.5,"ADDRESS":"成功新村６６號六樓","OBJECTID":191338},"geometry":{"x":180318.45000000019,"y":2558670.4999999981}},{"attributes":{"ID":191340,"DIS_CODE":0,"TOWNNAME":"善化區","LI":"小新里","LIN":"22鄰","STREET":" ","SECT":" ","MAREA":"成功新村","LANE":" ","ALLEY":" ","HOUSE_NO":"５４號四樓","E_COORD97":180336.69,"N_COORD97":2558651.25,"ADDRESS":"成功新村５４號四樓","OBJECTID":191339},"geometry":{"x":180336.69000000134,"y":2558651.25}},{"attributes":{"ID":191341,"DIS_CODE":0,"TOWNNAME":"善化區","LI":"小新里","LIN":"22鄰","STREET":" ","SECT":" ","MAREA":"成功新村","LANE":" ","ALLEY":" ","HOUSE_NO":"４７號四樓","E_COORD97":180473.26000000001,"N_COORD97":2558651.5,"ADDRESS":"成功新村４７號四樓","OBJECTID":191340},"geometry":{"x":180473.26000000071,"y":2558651.5000000019}},{"attributes":{"ID":191342,"DIS_CODE":0,"TOWNNAME":"善化區","LI":"小新里","LIN":"22鄰","STREET":" ","SECT":" ","MAREA":"成功新村","LANE":" ","ALLEY":" ","HOUSE_NO":"２５號六樓","E_COORD97":180393.70999999999,"N_COORD97":2558664.5,"ADDRESS":"成功新村２５號六樓","OBJECTID":191341},"geometry":{"x":180393.71000000089,"y":2558664.5000000019}},{"attributes":{"ID":191343,"DIS_CODE":0,"TOWNNAME":"善化區","LI":"小新里","LIN":"22鄰","STREET":" ","SECT":" ","MAREA":"成功新村","LANE":" ","ALLEY":" ","HOUSE_NO":"４５號六樓","E_COORD97":180453.35000000001,"N_COORD97":2558659,"ADDRESS":"成功新村４５號六樓","OBJECTID":191342},"geometry":{"x":180453.35000000056,"y":2558659}},{"attributes":{"ID":191344,"DIS_CODE":0,"TOWNNAME":"善化區","LI":"小新里","LIN":"22鄰","STREET":" ","SECT":" ","MAREA":"成功新村","LANE":" ","ALLEY":" ","HOUSE_NO":"３號五樓","E_COORD97":180313.72,"N_COORD97":2558691.25,"ADDRESS":"成功新村３號五樓","OBJECTID":191343},"geometry":{"x":180313.72000000067,"y":2558691.25}},{"attributes":{"ID":191345,"DIS_CODE":0,"TOWNNAME":"善化區","LI":"小新里","LIN":"22鄰","STREET":" ","SECT":" ","MAREA":"成功新村","LANE":" ","ALLEY":" ","HOUSE_NO":"７號六樓","E_COORD97":180319.69,"N_COORD97":2558709.75,"ADDRESS":"成功新村７號六樓","OBJECTID":191344},"geometry":{"x":180319.69000000134,"y":2558709.7500000037}},{"attributes":{"ID":191346,"DIS_CODE":0,"TOWNNAME":"善化區","LI":"小新里","LIN":"22鄰","STREET":" ","SECT":" ","MAREA":"成功新村","LANE":" ","ALLEY":" ","HOUSE_NO":"２５號八樓","E_COORD97":180393.70999999999,"N_COORD97":2558664.5,"ADDRESS":"成功新村２５號八樓","OBJECTID":191345},"geometry":{"x":180393.71000000089,"y":2558664.5000000019}},{"attributes":{"ID":191347,"DIS_CODE":0,"TOWNNAME":"善化區","LI":"小新里","LIN":"22鄰","STREET":" ","SECT":" ","MAREA":"成功新村","LANE":" ","ALLEY":" ","HOUSE_NO":"７１號三樓","E_COORD97":180367.79999999999,"N_COORD97":2558653.25,"ADDRESS":"成功新村７１號三樓","OBJECTID":191346},"geometry":{"x":180367.80000000075,"y":2558653.2500000019}},{"attributes":{"ID":191348,"DIS_CODE":0,"TOWNNAME":"善化區","LI":"小新里","LIN":"22鄰","STREET":" ","SECT":" ","MAREA":"成功新村","LANE":" ","ALLEY":" ","HOUSE_NO":"７１號七樓","E_COORD97":180367.79999999999,"N_COORD97":2558653.25,"ADDRESS":"成功新村７１號七樓","OBJECTID":191347},"geometry":{"x":180367.80000000075,"y":2558653.2500000019}},{"attributes":{"ID":191349,"DIS_CODE":0,"TOWNNAME":"安南區","LI":"安順里","LIN":"5鄰","STREET":"安和路","SECT":"四段","MAREA":" ","LANE":"７５巷","ALLEY":"２４弄","HOUSE_NO":"３１號","E_COORD97":169835.76999999999,"N_COORD97":2550217.3599999999,"ADDRESS":"安和路四段７５巷２４弄３１號","OBJECTID":191348},"geometry":{"x":169835.77000000048,"y":2550217.3599999994}},{"attributes":{"ID":191350,"DIS_CODE":0,"TOWNNAME":"佳里區","LI":"忠仁里","LIN":"15鄰","STREET":"延平路","SECT":" ","MAREA":" ","LANE":" ","ALLEY":" ","HOUSE_NO":"１４１號","E_COORD97":165899.22,"N_COORD97":2561943.4199999999,"ADDRESS":"延平路１４１號","OBJECTID":191349},"geometry":{"x":165899.21999999881,"y":2561943.4200000018}},{"attributes":{"ID":191351,"DIS_CODE":0,"TOWNNAME":"善化區","LI":"小新里","LIN":"22鄰","STREET":" ","SECT":" ","MAREA":"成功新村","LANE":" ","ALLEY":" ","HOUSE_NO":"７０號四樓","E_COORD97":180363.85000000001,"N_COORD97":2558654.75,"ADDRESS":"成功新村７０號四樓","OBJECTID":191350},"geometry":{"x":180363.85000000056,"y":2558654.75}},{"attributes":{"ID":191352,"DIS_CODE":0,"TOWNNAME":"善化區","LI":"小新里","LIN":"22鄰","STREET":" ","SECT":" ","MAREA":"成功新村","LANE":" ","ALLEY":" ","HOUSE_NO":"４７號六樓","E_COORD97":180473.26000000001,"N_COORD97":2558651.5,"ADDRESS":"成功新村４７號六樓","OBJECTID":191351},"geometry":{"x":180473.26000000071,"y":2558651.5000000019}},{"attributes":{"ID":191353,"DIS_CODE":0,"TOWNNAME":"佳里區","LI":"忠仁里","LIN":"15鄰","STREET":"延平路","SECT":" ","MAREA":" ","LANE":" ","ALLEY":" ","HOUSE_NO":"１４７號","E_COORD97":165894.35000000001,"N_COORD97":2561954.73,"ADDRESS":"延平路１４７號","OBJECTID":191352},"geometry":{"x":165894.34999999963,"y":2561954.7299999986}},{"attributes":{"ID":191354,"DIS_CODE":0,"TOWNNAME":"善化區","LI":"小新里","LIN":"22鄰","STREET":" ","SECT":" ","MAREA":"成功新村","LANE":" ","ALLEY":" ","HOUSE_NO":"１７號六樓","E_COORD97":180374.23999999999,"N_COORD97":2558672.5,"ADDRESS":"成功新村１７號六樓","OBJECTID":191353},"geometry":{"x":180374.24000000022,"y":2558672.5}},{"attributes":{"ID":191355,"DIS_CODE":0,"TOWNNAME":"善化區","LI":"小新里","LIN":"22鄰","STREET":" ","SECT":" ","MAREA":"成功新村","LANE":" ","ALLEY":" ","HOUSE_NO":"６４號七樓","E_COORD97":180305.73000000001,"N_COORD97":2558670.25,"ADDRESS":"成功新村６４號七樓","OBJECTID":191354},"geometry":{"x":180305.73000000231,"y":2558670.2500000019}},{"attributes":{"ID":191356,"DIS_CODE":0,"TOWNNAME":"善化區","LI":"小新里","LIN":"22鄰","STREET":" ","SECT":" ","MAREA":"成功新村","LANE":" ","ALLEY":" ","HOUSE_NO":"１９號七樓","E_COORD97":180366.81,"N_COORD97":2558675.25,"ADDRESS":"成功新村１９號七樓","OBJECTID":191355},"geometry":{"x":180366.80999999959,"y":2558675.25}},{"attributes":{"ID":191357,"DIS_CODE":0,"TOWNNAME":"佳里區","LI":"忠仁里","LIN":"15鄰","STREET":"延平路","SECT":" ","MAREA":" ","LANE":" ","ALLEY":" ","HOUSE_NO":"１５１號","E_COORD97":165895.23000000001,"N_COORD97":2561968.8100000001,"ADDRESS":"延平路１５１號","OBJECTID":191356},"geometry":{"x":165895.23000000138,"y":2561968.8100000024}},{"attributes":{"ID":191358,"DIS_CODE":0,"TOWNNAME":"善化區","LI":"小新里","LIN":"22鄰","STREET":" ","SECT":" ","MAREA":"成功新村","LANE":" ","ALLEY":" ","HOUSE_NO":"５４號二樓","E_COORD97":180336.69,"N_COORD97":2558651.25,"ADDRESS":"成功新村５４號二樓","OBJECTID":191357},"geometry":{"x":180336.69000000134,"y":2558651.25}},{"attributes":{"ID":191359,"DIS_CODE":0,"TOWNNAME":"善化區","LI":"小新里","LIN":"22鄰","STREET":" ","SECT":" ","MAREA":"成功新村","LANE":" ","ALLEY":" ","HOUSE_NO":"６８號四樓","E_COORD97":180355.70999999999,"N_COORD97":2558658,"ADDRESS":"成功新村６８號四樓","OBJECTID":191358},"geometry":{"x":180355.70999999996,"y":2558658.0000000019}},{"attributes":{"ID":191360,"DIS_CODE":0,"TOWNNAME":"安南區","LI":"安順里","LIN":"5鄰","STREET":"安和路","SECT":"四段","MAREA":" ","LANE":"７５巷","ALLEY":"２４弄","HOUSE_NO":"３２號","E_COORD97":169835.62,"N_COORD97":2550228.5800000001,"ADDRESS":"安和路四段７５巷２４弄３２號","OBJECTID":191359},"geometry":{"x":169835.62000000104,"y":2550228.5800000019}},{"attributes":{"ID":191361,"DIS_CODE":0,"TOWNNAME":"安南區","LI":"安順里","LIN":"5鄰","STREET":"安和路","SECT":"四段","MAREA":" ","LANE":"７５巷","ALLEY":"２４弄","HOUSE_NO":"３４號","E_COORD97":169829.67000000001,"N_COORD97":2550235.5600000001,"ADDRESS":"安和路四段７５巷２４弄３４號","OBJECTID":191360},"geometry":{"x":169829.67000000086,"y":2550235.5600000042}},{"attributes":{"ID":191362,"DIS_CODE":0,"TOWNNAME":"安南區","LI":"安順里","LIN":"5鄰","STREET":"安和路","SECT":"四段","MAREA":" ","LANE":"７５巷","ALLEY":"２４弄","HOUSE_NO":"３６號","E_COORD97":169826.39999999999,"N_COORD97":2550249.23,"ADDRESS":"安和路四段７５巷２４弄３６號","OBJECTID":191361},"geometry":{"x":169826.39999999944,"y":2550249.2300000023}},{"attributes":{"ID":191363,"DIS_CODE":0,"TOWNNAME":"善化區","LI":"小新里","LIN":"22鄰","STREET":" ","SECT":" ","MAREA":"成功新村","LANE":" ","ALLEY":" ","HOUSE_NO":"１號七樓","E_COORD97":180329.69,"N_COORD97":2558687,"ADDRESS":"成功新村１號七樓","OBJECTID":191362},"geometry":{"x":180329.69000000227,"y":2558687}},{"attributes":{"ID":191364,"DIS_CODE":0,"TOWNNAME":"善化區","LI":"小新里","LIN":"22鄰","STREET":" ","SECT":" ","MAREA":"成功新村","LANE":" ","ALLEY":" ","HOUSE_NO":"２４號七樓","E_COORD97":180396.85000000001,"N_COORD97":2558678.9900000002,"ADDRESS":"成功新村２４號七樓","OBJECTID":191363},"geometry":{"x":180396.84999999963,"y":2558678.9900000021}},{"attributes":{"ID":191365,"DIS_CODE":0,"TOWNNAME":"善化區","LI":"小新里","LIN":"22鄰","STREET":" ","SECT":" ","MAREA":"成功新村","LANE":" ","ALLEY":" ","HOUSE_NO":"９０號七樓","E_COORD97":180449.17999999999,"N_COORD97":2558612.5,"ADDRESS":"成功新村９０號七樓","OBJECTID":191364},"geometry":{"x":180449.1799999997,"y":2558612.5}},{"attributes":{"ID":191366,"DIS_CODE":0,"TOWNNAME":"善化區","LI":"小新里","LIN":"22鄰","STREET":" ","SECT":" ","MAREA":"成功新村","LANE":" ","ALLEY":" ","HOUSE_NO":"６０號七樓","E_COORD97":180299.57000000001,"N_COORD97":2558652.75,"ADDRESS":"成功新村６０號七樓","OBJECTID":191365},"geometry":{"x":180299.5700000003,"y":2558652.7500000019}},{"attributes":{"ID":191367,"DIS_CODE":0,"TOWNNAME":"善化區","LI":"小新里","LIN":"22鄰","STREET":" ","SECT":" ","MAREA":"成功新村","LANE":" ","ALLEY":" ","HOUSE_NO":"６８號六樓","E_COORD97":180355.70999999999,"N_COORD97":2558658,"ADDRESS":"成功新村６８號六樓","OBJECTID":191366},"geometry":{"x":180355.70999999996,"y":2558658.0000000019}},{"attributes":{"ID":191368,"DIS_CODE":0,"TOWNNAME":"安南區","LI":"新順里","LIN":"5鄰","STREET":"安生街","SECT":" ","MAREA":" ","LANE":"１７１巷","ALLEY":"２６弄","HOUSE_NO":"１２號","E_COORD97":169368.04999999999,"N_COORD97":2549467.1200000001,"ADDRESS":"安生街１７１巷２６弄１２號","OBJECTID":191367},"geometry":{"x":169368.04999999981,"y":2549467.1200000029}},{"attributes":{"ID":191369,"DIS_CODE":0,"TOWNNAME":"安南區","LI":"新順里","LIN":"5鄰","STREET":"安生街","SECT":" ","MAREA":" ","LANE":"１７１巷","ALLEY":"２６弄","HOUSE_NO":"１４號","E_COORD97":169362.04999999999,"N_COORD97":2549467.9300000002,"ADDRESS":"安生街１７１巷２６弄１４號","OBJECTID":191368},"geometry":{"x":169362.05000000168,"y":2549467.9299999997}},{"attributes":{"ID":191370,"DIS_CODE":0,"TOWNNAME":"安南區","LI":"新順里","LIN":"5鄰","STREET":"安生街","SECT":" ","MAREA":" ","LANE":"１７１巷","ALLEY":"２６弄","HOUSE_NO":"１６號","E_COORD97":169356.63,"N_COORD97":2549468.8500000001,"ADDRESS":"安生街１７１巷２６弄１６號","OBJECTID":191369},"geometry":{"x":169356.63000000175,"y":2549468.8499999996}},{"attributes":{"ID":191371,"DIS_CODE":0,"TOWNNAME":"安南區","LI":"新順里","LIN":"5鄰","STREET":"安生街","SECT":" ","MAREA":" ","LANE":"１７１巷","ALLEY":"２６弄","HOUSE_NO":"１８號","E_COORD97":169351.54999999999,"N_COORD97":2549469.8900000001,"ADDRESS":"安生街１７１巷２６弄１８號","OBJECTID":191370},"geometry":{"x":169351.54999999981,"y":2549469.8900000006}},{"attributes":{"ID":191372,"DIS_CODE":0,"TOWNNAME":"安南區","LI":"新順里","LIN":"5鄰","STREET":"安生街","SECT":" ","MAREA":" ","LANE":"１７１巷","ALLEY":"２６弄","HOUSE_NO":"２號","E_COORD97":169379.70000000001,"N_COORD97":2549467.3500000001,"ADDRESS":"安生街１７１巷２６弄２號","OBJECTID":191371},"geometry":{"x":169379.70000000019,"y":2549467.3500000015}},{"attributes":{"ID":191373,"DIS_CODE":0,"TOWNNAME":"善化區","LI":"小新里","LIN":"22鄰","STREET":" ","SECT":" ","MAREA":"成功新村","LANE":" ","ALLEY":" ","HOUSE_NO":"９０號五樓","E_COORD97":180449.17999999999,"N_COORD97":2558612.5,"ADDRESS":"成功新村９０號五樓","OBJECTID":191372},"geometry":{"x":180449.1799999997,"y":2558612.5}},{"attributes":{"ID":191374,"DIS_CODE":0,"TOWNNAME":"善化區","LI":"小新里","LIN":"22鄰","STREET":" ","SECT":" ","MAREA":"成功新村","LANE":" ","ALLEY":" ","HOUSE_NO":"６０號四樓","E_COORD97":180299.57000000001,"N_COORD97":2558652.75,"ADDRESS":"成功新村６０號四樓","OBJECTID":191373},"geometry":{"x":180299.5700000003,"y":2558652.7500000019}},{"attributes":{"ID":191375,"DIS_CODE":0,"TOWNNAME":"安南區","LI":"新順里","LIN":"5鄰","STREET":"安豐六街","SECT":" ","MAREA":" ","LANE":"１０巷","ALLEY":"５１弄","HOUSE_NO":"１０號","E_COORD97":169297.22,"N_COORD97":2549517.04,"ADDRESS":"安豐六街１０巷５１弄１０號","OBJECTID":191374},"geometry":{"x":169297.22000000067,"y":2549517.040000001}},{"attributes":{"ID":191376,"DIS_CODE":0,"TOWNNAME":"善化區","LI":"小新里","LIN":"22鄰","STREET":" ","SECT":" ","MAREA":"成功新村","LANE":" ","ALLEY":" ","HOUSE_NO":"５２號三樓","E_COORD97":180341.95999999999,"N_COORD97":2558662.25,"ADDRESS":"成功新村５２號三樓","OBJECTID":191375},"geometry":{"x":180341.95999999996,"y":2558662.2500000037}},{"attributes":{"ID":191377,"DIS_CODE":0,"TOWNNAME":"安南區","LI":"新順里","LIN":"5鄰","STREET":"安豐六街","SECT":" ","MAREA":" ","LANE":"１０巷","ALLEY":"５１弄","HOUSE_NO":"１１號","E_COORD97":169302.78,"N_COORD97":2549531.02,"ADDRESS":"安豐六街１０巷５１弄１１號","OBJECTID":191376},"geometry":{"x":169302.78000000026,"y":2549531.0200000014}},{"attributes":{"ID":191378,"DIS_CODE":0,"TOWNNAME":"善化區","LI":"小新里","LIN":"22鄰","STREET":" ","SECT":" ","MAREA":"成功新村","LANE":" ","ALLEY":" ","HOUSE_NO":"３號六樓","E_COORD97":180313.72,"N_COORD97":2558691.25,"ADDRESS":"成功新村３號六樓","OBJECTID":191377},"geometry":{"x":180313.72000000067,"y":2558691.25}},{"attributes":{"ID":191379,"DIS_CODE":0,"TOWNNAME":"安南區","LI":"新順里","LIN":"5鄰","STREET":"安豐六街","SECT":" ","MAREA":" ","LANE":"１０巷","ALLEY":"５１弄","HOUSE_NO":"１２號","E_COORD97":169300.51000000001,"N_COORD97":2549514.3700000001,"ADDRESS":"安豐六街１０巷５１弄１２號","OBJECTID":191378},"geometry":{"x":169300.50999999978,"y":2549514.370000001}},{"attributes":{"ID":191380,"DIS_CODE":0,"TOWNNAME":"安南區","LI":"新順里","LIN":"5鄰","STREET":"安豐六街","SECT":" ","MAREA":" ","LANE":"１０巷","ALLEY":"５１弄","HOUSE_NO":"１３號","E_COORD97":169306.89000000001,"N_COORD97":2549532.0499999998,"ADDRESS":"安豐六街１０巷５１弄１３號","OBJECTID":191379},"geometry":{"x":169306.88999999966,"y":2549532.0500000026}},{"attributes":{"ID":191381,"DIS_CODE":0,"TOWNNAME":"安南區","LI":"新順里","LIN":"5鄰","STREET":"安豐六街","SECT":" ","MAREA":" ","LANE":"１０巷","ALLEY":"５１弄","HOUSE_NO":"１４號","E_COORD97":169305.04000000001,"N_COORD97":2549516.8399999999,"ADDRESS":"安豐六街１０巷５１弄１４號","OBJECTID":191380},"geometry":{"x":169305.04000000097,"y":2549516.8399999999}},{"attributes":{"ID":191382,"DIS_CODE":0,"TOWNNAME":"安南區","LI":"新順里","LIN":"5鄰","STREET":"安豐六街","SECT":" ","MAREA":" ","LANE":"１０巷","ALLEY":"５１弄","HOUSE_NO":"１５號","E_COORD97":169311.41,"N_COORD97":2549531.02,"ADDRESS":"安豐六街１０巷５１弄１５號","OBJECTID":191381},"geometry":{"x":169311.41000000108,"y":2549531.0200000014}},{"attributes":{"ID":191383,"DIS_CODE":0,"TOWNNAME":"安南區","LI":"新順里","LIN":"5鄰","STREET":"安豐六街","SECT":" ","MAREA":" ","LANE":"１０巷","ALLEY":"５１弄","HOUSE_NO":"１６號","E_COORD97":169309.14999999999,"N_COORD97":2549514.7799999998,"ADDRESS":"安豐六街１０巷５１弄１６號","OBJECTID":191382},"geometry":{"x":169309.15000000037,"y":2549514.7800000012}},{"attributes":{"ID":191384,"DIS_CODE":0,"TOWNNAME":"安南區","LI":"新順里","LIN":"5鄰","STREET":"安豐六街","SECT":" ","MAREA":" ","LANE":"１０巷","ALLEY":"５１弄","HOUSE_NO":"１８號","E_COORD97":169313.06,"N_COORD97":2549517.25,"ADDRESS":"安豐六街１０巷５１弄１８號","OBJECTID":191383},"geometry":{"x":169313.06000000052,"y":2549517.25}},{"attributes":{"ID":191385,"DIS_CODE":0,"TOWNNAME":"安南區","LI":"新順里","LIN":"5鄰","STREET":"安豐六街","SECT":" ","MAREA":" ","LANE":"１０巷","ALLEY":"５１弄","HOUSE_NO":"１號","E_COORD97":169282.82000000001,"N_COORD97":2549532.8700000001,"ADDRESS":"安豐六街１０巷５１弄１號","OBJECTID":191384},"geometry":{"x":169282.82000000216,"y":2549532.8700000029}},{"attributes":{"ID":191386,"DIS_CODE":0,"TOWNNAME":"東區","LI":"後甲里","LIN":"21鄰","STREET":"建東街","SECT":" ","MAREA":" ","LANE":"３５巷","ALLEY":" ","HOUSE_NO":"４號","E_COORD97":171765.75,"N_COORD97":2543369.9700000002,"ADDRESS":"建東街３５巷４號","OBJECTID":191385},"geometry":{"x":171765.75,"y":2543369.9700000007}},{"attributes":{"ID":191387,"DIS_CODE":0,"TOWNNAME":"佳里區","LI":"忠仁里","LIN":"15鄰","STREET":"延平路","SECT":" ","MAREA":" ","LANE":" ","ALLEY":" ","HOUSE_NO":"１５５號","E_COORD97":165894.67999999999,"N_COORD97":2561973.1000000001,"ADDRESS":"延平路１５５號","OBJECTID":191386},"geometry":{"x":165894.68000000063,"y":2561973.1000000015}},{"attributes":{"ID":191388,"DIS_CODE":0,"TOWNNAME":"佳里區","LI":"忠仁里","LIN":"15鄰","STREET":"延平路","SECT":" ","MAREA":" ","LANE":" ","ALLEY":" ","HOUSE_NO":"１５７號","E_COORD97":165894.17000000001,"N_COORD97":2561977.3100000001,"ADDRESS":"延平路１５７號","OBJECTID":191387},"geometry":{"x":165894.16999999993,"y":2561977.3100000005}},{"attributes":{"ID":191389,"DIS_CODE":0,"TOWNNAME":"佳里區","LI":"忠仁里","LIN":"15鄰","STREET":"延平路","SECT":" ","MAREA":" ","LANE":" ","ALLEY":" ","HOUSE_NO":"１５９號","E_COORD97":165893.70999999999,"N_COORD97":2561981.5699999998,"ADDRESS":"延平路１５９號","OBJECTID":191388},"geometry":{"x":165893.70999999996,"y":2561981.5700000003}},{"attributes":{"ID":191390,"DIS_CODE":0,"TOWNNAME":"永康區","LI":"龍潭里","LIN":"39鄰","STREET":"國民路","SECT":" ","MAREA":" ","LANE":" ","ALLEY":" ","HOUSE_NO":"１０５號","E_COORD97":174390.92999999999,"N_COORD97":2547264.5600000001,"ADDRESS":"國民路１０５號","OBJECTID":191389},"geometry":{"x":174390.93000000063,"y":2547264.5600000005}},{"attributes":{"ID":191391,"DIS_CODE":0,"TOWNNAME":"永康區","LI":"\u25A0行里","LIN":"42鄰","STREET":"永安二街","SECT":" ","MAREA":" ","LANE":" ","ALLEY":" ","HOUSE_NO":"２０號","E_COORD97":172443.53,"N_COORD97":2549612.3100000001,"ADDRESS":"永安二街２０號","OBJECTID":191390},"geometry":{"x":172443.53000000119,"y":2549612.3100000005}},{"attributes":{"ID":191392,"DIS_CODE":0,"TOWNNAME":"永康區","LI":"\u25A0行里","LIN":"43鄰","STREET":"\u25A0平街","SECT":" ","MAREA":" ","LANE":" ","ALLEY":" ","HOUSE_NO":"２２號","E_COORD97":171576.28,"N_COORD97":2548012.7400000002,"ADDRESS":"\u25A0平街２２號","OBJECTID":191391},"geometry":{"x":171576.28000000026,"y":2548012.7400000002}},{"attributes":{"ID":191393,"DIS_CODE":0,"TOWNNAME":"安南區","LI":"新順里","LIN":"5鄰","STREET":"安豐六街","SECT":" ","MAREA":" ","LANE":"１０巷","ALLEY":"５１弄","HOUSE_NO":"２０號","E_COORD97":169317.38,"N_COORD97":2549514.9900000002,"ADDRESS":"安豐六街１０巷５１弄２０號","OBJECTID":191392},"geometry":{"x":169317.37999999989,"y":2549514.9900000021}},{"attributes":{"ID":191394,"DIS_CODE":0,"TOWNNAME":"安南區","LI":"新順里","LIN":"5鄰","STREET":"安豐六街","SECT":" ","MAREA":" ","LANE":"１０巷","ALLEY":"５１弄","HOUSE_NO":"２號","E_COORD97":169280.14999999999,"N_COORD97":2549516.6299999999,"ADDRESS":"安豐六街１０巷５１弄２號","OBJECTID":191393},"geometry":{"x":169280.15000000037,"y":2549516.629999999}},{"attributes":{"ID":191395,"DIS_CODE":0,"TOWNNAME":"安南區","LI":"新順里","LIN":"5鄰","STREET":"安豐六街","SECT":" ","MAREA":" ","LANE":"１０巷","ALLEY":"５１弄","HOUSE_NO":"３號","E_COORD97":169286.94,"N_COORD97":2549531.4300000002,"ADDRESS":"安豐六街１０巷５１弄３號","OBJECTID":191394},"geometry":{"x":169286.94000000041,"y":2549531.4300000016}},{"attributes":{"ID":191396,"DIS_CODE":0,"TOWNNAME":"安南區","LI":"新順里","LIN":"5鄰","STREET":"安豐六街","SECT":" ","MAREA":" ","LANE":"１０巷","ALLEY":"５１弄","HOUSE_NO":"４號","E_COORD97":169284.26000000001,"N_COORD97":2549514.3700000001,"ADDRESS":"安豐六街１０巷５１弄４號","OBJECTID":191395},"geometry":{"x":169284.25999999885,"y":2549514.370000001}},{"attributes":{"ID":191397,"DIS_CODE":0,"TOWNNAME":"安南區","LI":"新順里","LIN":"5鄰","STREET":"安豐六街","SECT":" ","MAREA":" ","LANE":"１０巷","ALLEY":"５１弄","HOUSE_NO":"５號","E_COORD97":169290.23000000001,"N_COORD97":2549532.6600000001,"ADDRESS":"安豐六街１０巷５１弄５號","OBJECTID":191396},"geometry":{"x":169290.22999999952,"y":2549532.6600000039}},{"attributes":{"ID":191398,"DIS_CODE":0,"TOWNNAME":"安南區","LI":"新順里","LIN":"5鄰","STREET":"安豐六街","SECT":" ","MAREA":" ","LANE":"１０巷","ALLEY":"５１弄","HOUSE_NO":"６號","E_COORD97":169289.20000000001,"N_COORD97":2549516.8399999999,"ADDRESS":"安豐六街１０巷５１弄６號","OBJECTID":191397},"geometry":{"x":169289.20000000112,"y":2549516.8399999999}},{"attributes":{"ID":191399,"DIS_CODE":0,"TOWNNAME":"安南區","LI":"新順里","LIN":"5鄰","STREET":"安豐六街","SECT":" ","MAREA":" ","LANE":"１０巷","ALLEY":"５１弄","HOUSE_NO":"７號","E_COORD97":169294.95999999999,"N_COORD97":2549531.02,"ADDRESS":"安豐六街１０巷５１弄７號","OBJECTID":191398},"geometry":{"x":169294.95999999903,"y":2549531.0200000014}},{"attributes":{"ID":191400,"DIS_CODE":0,"TOWNNAME":"安南區","LI":"新順里","LIN":"5鄰","STREET":"安豐六街","SECT":" ","MAREA":" ","LANE":"１０巷","ALLEY":"５１弄","HOUSE_NO":"８號","E_COORD97":169293.31,"N_COORD97":2549514.3700000001,"ADDRESS":"安豐六街１０巷５１弄８號","OBJECTID":191399},"geometry":{"x":169293.30999999959,"y":2549514.370000001}},{"attributes":{"ID":191401,"DIS_CODE":0,"TOWNNAME":"安南區","LI":"新順里","LIN":"5鄰","STREET":"安豐六街","SECT":" ","MAREA":" ","LANE":"１０巷","ALLEY":"５３弄","HOUSE_NO":"１號","E_COORD97":169331.16,"N_COORD97":2549514.1699999999,"ADDRESS":"安豐六街１０巷５３弄１號","OBJECTID":191400},"geometry":{"x":169331.16000000201,"y":2549514.1699999999}}]}