{"displayFieldName":"TOWNNAME","fieldAliases":{"ID":"ID","DIS_CODE":"DIS_CODE","TOWNNAME":"TOWNNAME","LI":"LI","LIN":"LIN","STREET":"STREET","SECT":"SECT","MAREA":"MAREA","LANE":"LANE","ALLEY":"ALLEY","HOUSE_NO":"HOUSE_NO","E_COORD97":"E_COORD97","N_COORD97":"N_COORD97","ADDRESS":"ADDRESS","OBJECTID":"OBJECTID"},"geometryType":"esriGeometryPoint","spatialReference":{"wkid":102443,"latestWkid":3826},"fields":[{"name":"ID","type":"esriFieldTypeDouble","alias":"ID"},{"name":"DIS_CODE","type":"esriFieldTypeInteger","alias":"DIS_CODE"},{"name":"TOWNNAME","type":"esriFieldTypeString","alias":"TOWNNAME","length":8},{"name":"LI","type":"esriFieldTypeString","alias":"LI","length":8},{"name":"LIN","type":"esriFieldTypeString","alias":"LIN","length":12},{"name":"STREET","type":"esriFieldTypeString","alias":"STREET","length":20},{"name":"SECT","type":"esriFieldTypeString","alias":"SECT","length":8},{"name":"MAREA","type":"esriFieldTypeString","alias":"MAREA","length":12},{"name":"LANE","type":"esriFieldTypeString","alias":"LANE","length":10},{"name":"ALLEY","type":"esriFieldTypeString","alias":"ALLEY","length":10},{"name":"HOUSE_NO","type":"esriFieldTypeString","alias":"HOUSE_NO","length":20},{"name":"E_COORD97","type":"esriFieldTypeDouble","alias":"E_COORD97"},{"name":"N_COORD97","type":"esriFieldTypeDouble","alias":"N_COORD97"},{"name":"ADDRESS","type":"esriFieldTypeString","alias":"ADDRESS","length":50},{"name":"OBJECTID","type":"esriFieldTypeOID","alias":"OBJECTID"}],"features":[{"attributes":{"ID":253205,"DIS_CODE":0,"TOWNNAME":"關廟區","LI":"北勢里","LIN":"14鄰","STREET":"成功路","SECT":" ","MAREA":" ","LANE":"３０２巷","ALLEY":" ","HOUSE_NO":"３號","E_COORD97":181390.57000000001,"N_COORD97":2540518.27,"ADDRESS":"成功路３０２巷３號","OBJECTID":253201},"geometry":{"x":181390.57000000123,"y":2540518.2699999996}},{"attributes":{"ID":253206,"DIS_CODE":0,"TOWNNAME":"關廟區","LI":"深坑里","LIN":"14鄰","STREET":"南雄路","SECT":"一段","MAREA":" ","LANE":"３５９巷","ALLEY":" ","HOUSE_NO":"２０號","E_COORD97":181731.57000000001,"N_COORD97":2537461.2999999998,"ADDRESS":"南雄路一段３５９巷２０號","OBJECTID":253202},"geometry":{"x":181731.5700000003,"y":2537461.3000000007}},{"attributes":{"ID":253207,"DIS_CODE":0,"TOWNNAME":"關廟區","LI":"香洋里","LIN":"14鄰","STREET":"仁愛路","SECT":" ","MAREA":" ","LANE":"１８巷","ALLEY":" ","HOUSE_NO":"５號","E_COORD97":181295.64000000001,"N_COORD97":2540094.2799999998,"ADDRESS":"仁愛路１８巷５號","OBJECTID":253203},"geometry":{"x":181295.6400000006,"y":2540094.2799999993}},{"attributes":{"ID":253208,"DIS_CODE":0,"TOWNNAME":"安平區","LI":"怡平里","LIN":"24鄰","STREET":"文平路","SECT":" ","MAREA":" ","LANE":" ","ALLEY":" ","HOUSE_NO":"３４１號","E_COORD97":165756.25,"N_COORD97":2543536.4700000002,"ADDRESS":"文平路３４１號","OBJECTID":253204},"geometry":{"x":165756.25,"y":2543536.4700000007}},{"attributes":{"ID":253209,"DIS_CODE":0,"TOWNNAME":"北區","LI":"大道里","LIN":"11鄰","STREET":"北門路","SECT":"二段","MAREA":" ","LANE":"５２７巷","ALLEY":" ","HOUSE_NO":"７號二樓之２","E_COORD97":169596.32000000001,"N_COORD97":2545592.9500000002,"ADDRESS":"北門路二段５２７巷７號二樓之２","OBJECTID":253205},"geometry":{"x":169596.31999999937,"y":2545592.9499999993}},{"attributes":{"ID":253210,"DIS_CODE":0,"TOWNNAME":"北區","LI":"大道里","LIN":"11鄰","STREET":"北門路","SECT":"二段","MAREA":" ","LANE":"５２７巷","ALLEY":" ","HOUSE_NO":"７號二樓之１","E_COORD97":169596.32000000001,"N_COORD97":2545592.9500000002,"ADDRESS":"北門路二段５２７巷７號二樓之１","OBJECTID":253206},"geometry":{"x":169596.31999999937,"y":2545592.9499999993}},{"attributes":{"ID":253211,"DIS_CODE":0,"TOWNNAME":"北區","LI":"大道里","LIN":"11鄰","STREET":"北門路","SECT":"二段","MAREA":" ","LANE":"５２７巷","ALLEY":" ","HOUSE_NO":"７號三樓之３","E_COORD97":169596.32000000001,"N_COORD97":2545592.9500000002,"ADDRESS":"北門路二段５２７巷７號三樓之３","OBJECTID":253207},"geometry":{"x":169596.31999999937,"y":2545592.9499999993}},{"attributes":{"ID":253212,"DIS_CODE":0,"TOWNNAME":"北區","LI":"大道里","LIN":"11鄰","STREET":"北門路","SECT":"二段","MAREA":" ","LANE":"５２７巷","ALLEY":" ","HOUSE_NO":"７號三樓之２","E_COORD97":169596.32000000001,"N_COORD97":2545592.9500000002,"ADDRESS":"北門路二段５２７巷７號三樓之２","OBJECTID":253208},"geometry":{"x":169596.31999999937,"y":2545592.9499999993}},{"attributes":{"ID":253213,"DIS_CODE":0,"TOWNNAME":"北區","LI":"大道里","LIN":"11鄰","STREET":"北門路","SECT":"二段","MAREA":" ","LANE":"５２７巷","ALLEY":" ","HOUSE_NO":"７號三樓之１","E_COORD97":169596.32000000001,"N_COORD97":2545592.9500000002,"ADDRESS":"北門路二段５２７巷７號三樓之１","OBJECTID":253209},"geometry":{"x":169596.31999999937,"y":2545592.9499999993}},{"attributes":{"ID":253214,"DIS_CODE":0,"TOWNNAME":"關廟區","LI":"深坑里","LIN":"14鄰","STREET":"南雄路","SECT":"一段","MAREA":" ","LANE":"３７７巷","ALLEY":" ","HOUSE_NO":"２３號","E_COORD97":181719.01999999999,"N_COORD97":2537490.2999999998,"ADDRESS":"南雄路一段３７７巷２３號","OBJECTID":253210},"geometry":{"x":181719.02000000048,"y":2537490.3000000026}},{"attributes":{"ID":253215,"DIS_CODE":0,"TOWNNAME":"關廟區","LI":"松腳里","LIN":"14鄰","STREET":"東興路","SECT":" ","MAREA":" ","LANE":"２５１巷","ALLEY":" ","HOUSE_NO":"１１號","E_COORD97":181845.92000000001,"N_COORD97":2539593.25,"ADDRESS":"東興路２５１巷１１號","OBJECTID":253211},"geometry":{"x":181845.91999999993,"y":2539593.25}},{"attributes":{"ID":253216,"DIS_CODE":0,"TOWNNAME":"關廟區","LI":"香洋里","LIN":"14鄰","STREET":"仁愛路","SECT":" ","MAREA":" ","LANE":"２０巷","ALLEY":" ","HOUSE_NO":"８號","E_COORD97":181298.73999999999,"N_COORD97":2540103.2799999998,"ADDRESS":"仁愛路２０巷８號","OBJECTID":253212},"geometry":{"x":181298.74000000209,"y":2540103.2800000012}},{"attributes":{"ID":253217,"DIS_CODE":0,"TOWNNAME":"關廟區","LI":"香洋里","LIN":"14鄰","STREET":"仁愛路","SECT":" ","MAREA":" ","LANE":"２０巷","ALLEY":" ","HOUSE_NO":"９號","E_COORD97":181310.23999999999,"N_COORD97":2540104.2799999998,"ADDRESS":"仁愛路２０巷９號","OBJECTID":253213},"geometry":{"x":181310.24000000022,"y":2540104.2799999993}},{"attributes":{"ID":253218,"DIS_CODE":0,"TOWNNAME":"關廟區","LI":"香洋里","LIN":"14鄰","STREET":"仁愛路","SECT":" ","MAREA":" ","LANE":"４２巷","ALLEY":" ","HOUSE_NO":"１號","E_COORD97":181328.64000000001,"N_COORD97":2540150.2799999998,"ADDRESS":"仁愛路４２巷１號","OBJECTID":253214},"geometry":{"x":181328.63999999966,"y":2540150.2800000012}},{"attributes":{"ID":253219,"DIS_CODE":0,"TOWNNAME":"關廟區","LI":"香洋里","LIN":"14鄰","STREET":"仁愛路","SECT":" ","MAREA":" ","LANE":"２０巷","ALLEY":" ","HOUSE_NO":"７號","E_COORD97":181303.73999999999,"N_COORD97":2540106.2799999998,"ADDRESS":"仁愛路２０巷７號","OBJECTID":253215},"geometry":{"x":181303.73999999929,"y":2540106.2800000012}},{"attributes":{"ID":253220,"DIS_CODE":0,"TOWNNAME":"關廟區","LI":"五甲里","LIN":"14鄰","STREET":"光復街","SECT":" ","MAREA":" ","LANE":"６３巷","ALLEY":" ","HOUSE_NO":"５號","E_COORD97":181449.48999999999,"N_COORD97":2539295.2799999998,"ADDRESS":"光復街６３巷５號","OBJECTID":253216},"geometry":{"x":181449.49000000022,"y":2539295.2799999975}},{"attributes":{"ID":253221,"DIS_CODE":0,"TOWNNAME":"新化區","LI":"知義里","LIN":"14鄰","STREET":"中正路","SECT":" ","MAREA":" ","LANE":"２００巷","ALLEY":" ","HOUSE_NO":"５號","E_COORD97":179132.41,"N_COORD97":2547567.25,"ADDRESS":"中正路２００巷５號","OBJECTID":253217},"geometry":{"x":179132.41000000015,"y":2547567.25}},{"attributes":{"ID":253222,"DIS_CODE":0,"TOWNNAME":"新化區","LI":"協興里","LIN":"14鄰","STREET":"太平街","SECT":" ","MAREA":" ","LANE":"１５０巷","ALLEY":" ","HOUSE_NO":"１５號","E_COORD97":178332.76999999999,"N_COORD97":2548737.25,"ADDRESS":"太平街１５０巷１５號","OBJECTID":253218},"geometry":{"x":178332.76999999955,"y":2548737.25}},{"attributes":{"ID":253223,"DIS_CODE":0,"TOWNNAME":"新化區","LI":"協興里","LIN":"14鄰","STREET":"太平街","SECT":" ","MAREA":" ","LANE":"１５０巷","ALLEY":" ","HOUSE_NO":"１３號","E_COORD97":178333.57000000001,"N_COORD97":2548733.25,"ADDRESS":"太平街１５０巷１３號","OBJECTID":253219},"geometry":{"x":178333.57000000123,"y":2548733.2500000019}},{"attributes":{"ID":253224,"DIS_CODE":0,"TOWNNAME":"南區","LI":"同安里","LIN":"14鄰","STREET":"明興路","SECT":" ","MAREA":" ","LANE":"１３６５巷","ALLEY":" ","HOUSE_NO":"１１號","E_COORD97":166422.12,"N_COORD97":2535910.9700000002,"ADDRESS":"明興路１３６５巷１１號","OBJECTID":253220},"geometry":{"x":166422.12000000011,"y":2535910.9700000007}},{"attributes":{"ID":253225,"DIS_CODE":0,"TOWNNAME":"南區","LI":"同安里","LIN":"14鄰","STREET":"明興路","SECT":" ","MAREA":" ","LANE":"１３６５巷","ALLEY":" ","HOUSE_NO":"１３號","E_COORD97":166426.19,"N_COORD97":2535908.7200000002,"ADDRESS":"明興路１３６５巷１３號","OBJECTID":253221},"geometry":{"x":166426.19000000134,"y":2535908.7200000007}},{"attributes":{"ID":253226,"DIS_CODE":0,"TOWNNAME":"南區","LI":"同安里","LIN":"14鄰","STREET":"明興路","SECT":" ","MAREA":" ","LANE":"１３６５巷","ALLEY":" ","HOUSE_NO":"１５號","E_COORD97":166429.48000000001,"N_COORD97":2535906.73,"ADDRESS":"明興路１３６５巷１５號","OBJECTID":253222},"geometry":{"x":166429.48000000138,"y":2535906.7300000042}},{"attributes":{"ID":253227,"DIS_CODE":0,"TOWNNAME":"南區","LI":"同安里","LIN":"14鄰","STREET":"明興路","SECT":" ","MAREA":" ","LANE":"１３６５巷","ALLEY":" ","HOUSE_NO":"１７號","E_COORD97":166433.89999999999,"N_COORD97":2535904.6499999999,"ADDRESS":"明興路１３６５巷１７號","OBJECTID":253223},"geometry":{"x":166433.90000000037,"y":2535904.6500000022}},{"attributes":{"ID":253228,"DIS_CODE":0,"TOWNNAME":"南區","LI":"同安里","LIN":"14鄰","STREET":"明興路","SECT":" ","MAREA":" ","LANE":"１３６５巷","ALLEY":" ","HOUSE_NO":"１９號","E_COORD97":166437.62,"N_COORD97":2535903.1800000002,"ADDRESS":"明興路１３６５巷１９號","OBJECTID":253224},"geometry":{"x":166437.61999999918,"y":2535903.1800000016}},{"attributes":{"ID":253229,"DIS_CODE":0,"TOWNNAME":"南區","LI":"同安里","LIN":"14鄰","STREET":"明興路","SECT":" ","MAREA":" ","LANE":"１３６５巷","ALLEY":" ","HOUSE_NO":"１號","E_COORD97":166402.89999999999,"N_COORD97":2535916.6800000002,"ADDRESS":"明興路１３６５巷１號","OBJECTID":253225},"geometry":{"x":166402.9000000013,"y":2535916.6800000016}},{"attributes":{"ID":253230,"DIS_CODE":0,"TOWNNAME":"南區","LI":"同安里","LIN":"14鄰","STREET":"明興路","SECT":" ","MAREA":" ","LANE":"１３６５巷","ALLEY":" ","HOUSE_NO":"３號","E_COORD97":166406.54000000001,"N_COORD97":2535914.9500000002,"ADDRESS":"明興路１３６５巷３號","OBJECTID":253226},"geometry":{"x":166406.54000000097,"y":2535914.9500000011}},{"attributes":{"ID":253231,"DIS_CODE":0,"TOWNNAME":"南區","LI":"同安里","LIN":"14鄰","STREET":"明興路","SECT":" ","MAREA":" ","LANE":"１３６５巷","ALLEY":" ","HOUSE_NO":"５號","E_COORD97":166410.17000000001,"N_COORD97":2535912.27,"ADDRESS":"明興路１３６５巷５號","OBJECTID":253227},"geometry":{"x":166410.17000000179,"y":2535912.2700000033}},{"attributes":{"ID":253232,"DIS_CODE":0,"TOWNNAME":"安平區","LI":"怡平里","LIN":"24鄰","STREET":"文平路","SECT":" ","MAREA":" ","LANE":" ","ALLEY":" ","HOUSE_NO":"３４３號","E_COORD97":165756.70000000001,"N_COORD97":2543541.2799999998,"ADDRESS":"文平路３４３號","OBJECTID":253228},"geometry":{"x":165756.70000000019,"y":2543541.2800000012}},{"attributes":{"ID":253233,"DIS_CODE":0,"TOWNNAME":"安平區","LI":"怡平里","LIN":"24鄰","STREET":"建平八街","SECT":" ","MAREA":" ","LANE":" ","ALLEY":" ","HOUSE_NO":"１１６號","E_COORD97":165733.44,"N_COORD97":2543522.7599999998,"ADDRESS":"建平八街１１６號","OBJECTID":253229},"geometry":{"x":165733.44000000041,"y":2543522.7599999998}},{"attributes":{"ID":253234,"DIS_CODE":0,"TOWNNAME":"安平區","LI":"怡平里","LIN":"24鄰","STREET":"建平八街","SECT":" ","MAREA":" ","LANE":" ","ALLEY":" ","HOUSE_NO":"１１４號","E_COORD97":165737.47,"N_COORD97":2543522.25,"ADDRESS":"建平八街１１４號","OBJECTID":253230},"geometry":{"x":165737.46999999974,"y":2543522.2500000019}},{"attributes":{"ID":253235,"DIS_CODE":0,"TOWNNAME":"安平區","LI":"怡平里","LIN":"24鄰","STREET":"建平八街","SECT":" ","MAREA":" ","LANE":" ","ALLEY":" ","HOUSE_NO":"１１８號","E_COORD97":165729.14999999999,"N_COORD97":2543523.7599999998,"ADDRESS":"建平八街１１８號","OBJECTID":253231},"geometry":{"x":165729.14999999944,"y":2543523.7600000035}},{"attributes":{"ID":253236,"DIS_CODE":0,"TOWNNAME":"安平區","LI":"怡平里","LIN":"24鄰","STREET":"建平八街","SECT":" ","MAREA":" ","LANE":" ","ALLEY":" ","HOUSE_NO":"１２０號","E_COORD97":165724.62,"N_COORD97":2543524.0099999998,"ADDRESS":"建平八街１２０號","OBJECTID":253232},"geometry":{"x":165724.62000000104,"y":2543524.0099999998}},{"attributes":{"ID":253237,"DIS_CODE":0,"TOWNNAME":"安平區","LI":"怡平里","LIN":"24鄰","STREET":"建平八街","SECT":" ","MAREA":" ","LANE":" ","ALLEY":" ","HOUSE_NO":"１２２號","E_COORD97":165720.34,"N_COORD97":2543525.02,"ADDRESS":"建平八街１２２號","OBJECTID":253233},"geometry":{"x":165720.33999999985,"y":2543525.0199999977}},{"attributes":{"ID":253238,"DIS_CODE":0,"TOWNNAME":"南區","LI":"同安里","LIN":"14鄰","STREET":"明興路","SECT":" ","MAREA":" ","LANE":"１３６５巷","ALLEY":" ","HOUSE_NO":"７號","E_COORD97":166414.92999999999,"N_COORD97":2535913.6499999999,"ADDRESS":"明興路１３６５巷７號","OBJECTID":253234},"geometry":{"x":166414.93000000156,"y":2535913.6499999985}},{"attributes":{"ID":253239,"DIS_CODE":0,"TOWNNAME":"南區","LI":"同安里","LIN":"14鄰","STREET":"明興路","SECT":" ","MAREA":" ","LANE":"１３６５巷","ALLEY":" ","HOUSE_NO":"９號","E_COORD97":166418.04999999999,"N_COORD97":2535911.9199999999,"ADDRESS":"明興路１３６５巷９號","OBJECTID":253235},"geometry":{"x":166418.05000000075,"y":2535911.9200000018}},{"attributes":{"ID":253240,"DIS_CODE":0,"TOWNNAME":"北區","LI":"新勝里","LIN":"14鄰","STREET":"長榮路","SECT":"五段","MAREA":" ","LANE":"１７５巷","ALLEY":" ","HOUSE_NO":"１１號","E_COORD97":170025.01000000001,"N_COORD97":2545782.02,"ADDRESS":"長榮路五段１７５巷１１號","OBJECTID":253236},"geometry":{"x":170025.00999999978,"y":2545782.0199999996}},{"attributes":{"ID":253241,"DIS_CODE":0,"TOWNNAME":"北區","LI":"新勝里","LIN":"14鄰","STREET":"長榮路","SECT":"五段","MAREA":" ","LANE":"１７５巷","ALLEY":" ","HOUSE_NO":"１３號","E_COORD97":170022.31,"N_COORD97":2545780.9199999999,"ADDRESS":"長榮路五段１７５巷１３號","OBJECTID":253237},"geometry":{"x":170022.30999999959,"y":2545780.9200000037}},{"attributes":{"ID":253242,"DIS_CODE":0,"TOWNNAME":"北區","LI":"新勝里","LIN":"14鄰","STREET":"長榮路","SECT":"五段","MAREA":" ","LANE":"１７５巷","ALLEY":" ","HOUSE_NO":"１５號","E_COORD97":170018.88,"N_COORD97":2545782.29,"ADDRESS":"長榮路五段１７５巷１５號","OBJECTID":253238},"geometry":{"x":170018.87999999989,"y":2545782.290000001}},{"attributes":{"ID":253243,"DIS_CODE":0,"TOWNNAME":"北區","LI":"新勝里","LIN":"14鄰","STREET":"長榮路","SECT":"五段","MAREA":" ","LANE":"１７５巷","ALLEY":" ","HOUSE_NO":"１７號","E_COORD97":170015.10000000001,"N_COORD97":2545780.7999999998,"ADDRESS":"長榮路五段１７５巷１７號","OBJECTID":253239},"geometry":{"x":170015.09999999963,"y":2545780.8000000026}},{"attributes":{"ID":253244,"DIS_CODE":0,"TOWNNAME":"北區","LI":"新勝里","LIN":"14鄰","STREET":"長榮路","SECT":"五段","MAREA":" ","LANE":"１７５巷","ALLEY":" ","HOUSE_NO":"１９號","E_COORD97":170010.73999999999,"N_COORD97":2545781.71,"ADDRESS":"長榮路五段１７５巷１９號","OBJECTID":253240},"geometry":{"x":170010.74000000115,"y":2545781.7100000009}},{"attributes":{"ID":253245,"DIS_CODE":0,"TOWNNAME":"北區","LI":"新勝里","LIN":"14鄰","STREET":"長榮路","SECT":"五段","MAREA":" ","LANE":"１７５巷","ALLEY":" ","HOUSE_NO":"１號","E_COORD97":170043.95000000001,"N_COORD97":2545786.52,"ADDRESS":"長榮路五段１７５巷１號","OBJECTID":253241},"geometry":{"x":170043.95000000019,"y":2545786.5200000033}},{"attributes":{"ID":253246,"DIS_CODE":0,"TOWNNAME":"北區","LI":"新勝里","LIN":"14鄰","STREET":"長榮路","SECT":"五段","MAREA":" ","LANE":"１７５巷","ALLEY":" ","HOUSE_NO":"２１號","E_COORD97":170005.20000000001,"N_COORD97":2545780.27,"ADDRESS":"長榮路五段１７５巷２１號","OBJECTID":253242},"geometry":{"x":170005.20000000019,"y":2545780.2699999996}},{"attributes":{"ID":253247,"DIS_CODE":0,"TOWNNAME":"北區","LI":"新勝里","LIN":"14鄰","STREET":"長榮路","SECT":"五段","MAREA":" ","LANE":"１７５巷","ALLEY":" ","HOUSE_NO":"２３號","E_COORD97":170000.31,"N_COORD97":2545780.8599999999,"ADDRESS":"長榮路五段１７５巷２３號","OBJECTID":253243},"geometry":{"x":170000.30999999959,"y":2545780.8600000031}},{"attributes":{"ID":253248,"DIS_CODE":0,"TOWNNAME":"北區","LI":"新勝里","LIN":"14鄰","STREET":"長榮路","SECT":"五段","MAREA":" ","LANE":"１７５巷","ALLEY":" ","HOUSE_NO":"２５號","E_COORD97":169996.60999999999,"N_COORD97":2545779.3599999999,"ADDRESS":"長榮路五段１７５巷２５號","OBJECTID":253244},"geometry":{"x":169996.61000000127,"y":2545779.3599999994}},{"attributes":{"ID":253249,"DIS_CODE":0,"TOWNNAME":"北區","LI":"新勝里","LIN":"14鄰","STREET":"長榮路","SECT":"五段","MAREA":" ","LANE":"１７５巷","ALLEY":" ","HOUSE_NO":"２７號","E_COORD97":169992.31,"N_COORD97":2545780.6600000001,"ADDRESS":"長榮路五段１７５巷２７號","OBJECTID":253245},"geometry":{"x":169992.30999999866,"y":2545780.660000002}},{"attributes":{"ID":253250,"DIS_CODE":0,"TOWNNAME":"北區","LI":"新勝里","LIN":"14鄰","STREET":"長榮路","SECT":"五段","MAREA":" ","LANE":"１７５巷","ALLEY":" ","HOUSE_NO":"２９號","E_COORD97":169987.92000000001,"N_COORD97":2545779.0099999998,"ADDRESS":"長榮路五段１７５巷２９號","OBJECTID":253246},"geometry":{"x":169987.91999999993,"y":2545779.0099999998}},{"attributes":{"ID":253251,"DIS_CODE":0,"TOWNNAME":"北區","LI":"新勝里","LIN":"14鄰","STREET":"長榮路","SECT":"五段","MAREA":" ","LANE":"１７５巷","ALLEY":" ","HOUSE_NO":"３１號","E_COORD97":169983.76000000001,"N_COORD97":2545780.1800000002,"ADDRESS":"長榮路五段１７５巷３１號","OBJECTID":253247},"geometry":{"x":169983.75999999978,"y":2545780.1800000016}},{"attributes":{"ID":253252,"DIS_CODE":0,"TOWNNAME":"北區","LI":"新勝里","LIN":"14鄰","STREET":"長榮路","SECT":"五段","MAREA":" ","LANE":"１７５巷","ALLEY":" ","HOUSE_NO":"３３號","E_COORD97":169979.85000000001,"N_COORD97":2545778.8199999998,"ADDRESS":"長榮路五段１７５巷３３號","OBJECTID":253248},"geometry":{"x":169979.84999999963,"y":2545778.820000004}},{"attributes":{"ID":253253,"DIS_CODE":0,"TOWNNAME":"北區","LI":"新勝里","LIN":"14鄰","STREET":"長榮路","SECT":"五段","MAREA":" ","LANE":"１７５巷","ALLEY":" ","HOUSE_NO":"３５號","E_COORD97":169975.17000000001,"N_COORD97":2545779.73,"ADDRESS":"長榮路五段１７５巷３５號","OBJECTID":253249},"geometry":{"x":169975.17000000179,"y":2545779.7300000023}},{"attributes":{"ID":253254,"DIS_CODE":0,"TOWNNAME":"北區","LI":"新勝里","LIN":"14鄰","STREET":"長榮路","SECT":"五段","MAREA":" ","LANE":"１７５巷","ALLEY":" ","HOUSE_NO":"３號","E_COORD97":170040.04999999999,"N_COORD97":2545785.7400000002,"ADDRESS":"長榮路五段１７５巷３號","OBJECTID":253250},"geometry":{"x":170040.04999999888,"y":2545785.7400000039}},{"attributes":{"ID":253255,"DIS_CODE":0,"TOWNNAME":"北區","LI":"新勝里","LIN":"14鄰","STREET":"長榮路","SECT":"五段","MAREA":" ","LANE":"１７５巷","ALLEY":" ","HOUSE_NO":"７號","E_COORD97":170032.17000000001,"N_COORD97":2545784.5699999998,"ADDRESS":"長榮路五段１７５巷７號","OBJECTID":253251},"geometry":{"x":170032.16999999993,"y":2545784.5700000022}},{"attributes":{"ID":253256,"DIS_CODE":0,"TOWNNAME":"北區","LI":"成德里","LIN":"14鄰","STREET":"海安路","SECT":"三段","MAREA":" ","LANE":"５２０巷","ALLEY":" ","HOUSE_NO":"４６號","E_COORD97":168169.09,"N_COORD97":2545749.4900000002,"ADDRESS":"海安路三段５２０巷４６號","OBJECTID":253252},"geometry":{"x":168169.09000000078,"y":2545749.4900000002}},{"attributes":{"ID":253257,"DIS_CODE":0,"TOWNNAME":"北區","LI":"成德里","LIN":"14鄰","STREET":"海安路","SECT":"三段","MAREA":" ","LANE":"５２０巷","ALLEY":" ","HOUSE_NO":"４８號","E_COORD97":168173.60000000001,"N_COORD97":2545749.7999999998,"ADDRESS":"海安路三段５２０巷４８號","OBJECTID":253253},"geometry":{"x":168173.60000000056,"y":2545749.8000000026}},{"attributes":{"ID":253258,"DIS_CODE":0,"TOWNNAME":"北區","LI":"成德里","LIN":"14鄰","STREET":"海安路","SECT":"三段","MAREA":" ","LANE":"５２０巷","ALLEY":" ","HOUSE_NO":"５０號","E_COORD97":168177.57999999999,"N_COORD97":2545749.9100000001,"ADDRESS":"海安路三段５２０巷５０號","OBJECTID":253254},"geometry":{"x":168177.58000000101,"y":2545749.9100000001}},{"attributes":{"ID":253259,"DIS_CODE":0,"TOWNNAME":"北區","LI":"成德里","LIN":"14鄰","STREET":"海安路","SECT":"三段","MAREA":" ","LANE":"５２０巷","ALLEY":" ","HOUSE_NO":"５２號","E_COORD97":168181.98000000001,"N_COORD97":2545750.1099999999,"ADDRESS":"海安路三段５２０巷５２號","OBJECTID":253255},"geometry":{"x":168181.98000000138,"y":2545750.1100000013}},{"attributes":{"ID":253260,"DIS_CODE":0,"TOWNNAME":"北區","LI":"成德里","LIN":"14鄰","STREET":"海安路","SECT":"三段","MAREA":" ","LANE":"５００巷","ALLEY":" ","HOUSE_NO":"３５號","E_COORD97":168138.76000000001,"N_COORD97":2545729.46,"ADDRESS":"海安路三段５００巷３５號","OBJECTID":253256},"geometry":{"x":168138.76000000071,"y":2545729.4600000009}},{"attributes":{"ID":253261,"DIS_CODE":0,"TOWNNAME":"北區","LI":"成德里","LIN":"14鄰","STREET":"海安路","SECT":"三段","MAREA":" ","LANE":"５００巷","ALLEY":" ","HOUSE_NO":"２５號","E_COORD97":168138.76000000001,"N_COORD97":2545699.2999999998,"ADDRESS":"海安路三段５００巷２５號","OBJECTID":253257},"geometry":{"x":168138.76000000071,"y":2545699.3000000026}},{"attributes":{"ID":253262,"DIS_CODE":0,"TOWNNAME":"北區","LI":"成德里","LIN":"14鄰","STREET":"海安路","SECT":"三段","MAREA":" ","LANE":"５００巷","ALLEY":" ","HOUSE_NO":"２７號","E_COORD97":168139.14000000001,"N_COORD97":2545705.6400000001,"ADDRESS":"海安路三段５００巷２７號","OBJECTID":253258},"geometry":{"x":168139.14000000153,"y":2545705.6400000043}},{"attributes":{"ID":253263,"DIS_CODE":0,"TOWNNAME":"北區","LI":"成德里","LIN":"14鄰","STREET":"海安路","SECT":"三段","MAREA":" ","LANE":"５００巷","ALLEY":" ","HOUSE_NO":"２９號","E_COORD97":168139.14000000001,"N_COORD97":2545711.3399999999,"ADDRESS":"海安路三段５００巷２９號","OBJECTID":253259},"geometry":{"x":168139.14000000153,"y":2545711.3400000017}},{"attributes":{"ID":253264,"DIS_CODE":0,"TOWNNAME":"北區","LI":"成德里","LIN":"14鄰","STREET":"海安路","SECT":"三段","MAREA":" ","LANE":"５００巷","ALLEY":" ","HOUSE_NO":"３１號","E_COORD97":168139.26999999999,"N_COORD97":2545717.7999999998,"ADDRESS":"海安路三段５００巷３１號","OBJECTID":253260},"geometry":{"x":168139.26999999955,"y":2545717.8000000007}},{"attributes":{"ID":253265,"DIS_CODE":0,"TOWNNAME":"北區","LI":"成德里","LIN":"14鄰","STREET":"海安路","SECT":"三段","MAREA":" ","LANE":"５００巷","ALLEY":" ","HOUSE_NO":"３３號","E_COORD97":168138.89000000001,"N_COORD97":2545723.25,"ADDRESS":"海安路三段５００巷３３號","OBJECTID":253261},"geometry":{"x":168138.88999999966,"y":2545723.25}},{"attributes":{"ID":253266,"DIS_CODE":0,"TOWNNAME":"北區","LI":"成德里","LIN":"14鄰","STREET":"海安路","SECT":"三段","MAREA":" ","LANE":"５００巷","ALLEY":" ","HOUSE_NO":"３７號","E_COORD97":168157.03,"N_COORD97":2545735.29,"ADDRESS":"海安路三段５００巷３７號","OBJECTID":253262},"geometry":{"x":168157.03000000026,"y":2545735.2899999991}},{"attributes":{"ID":253267,"DIS_CODE":0,"TOWNNAME":"北區","LI":"成德里","LIN":"14鄰","STREET":"海安路","SECT":"三段","MAREA":" ","LANE":"５００巷","ALLEY":" ","HOUSE_NO":"３９號","E_COORD97":168157.03,"N_COORD97":2545729.21,"ADDRESS":"海安路三段５００巷３９號","OBJECTID":253263},"geometry":{"x":168157.03000000026,"y":2545729.2100000046}},{"attributes":{"ID":253268,"DIS_CODE":0,"TOWNNAME":"北區","LI":"成德里","LIN":"14鄰","STREET":"海安路","SECT":"三段","MAREA":" ","LANE":"５００巷","ALLEY":" ","HOUSE_NO":"４１號","E_COORD97":168157.41,"N_COORD97":2545723.1299999999,"ADDRESS":"海安路三段５００巷４１號","OBJECTID":253264},"geometry":{"x":168157.41000000015,"y":2545723.129999999}},{"attributes":{"ID":253269,"DIS_CODE":0,"TOWNNAME":"北區","LI":"成德里","LIN":"14鄰","STREET":"海安路","SECT":"三段","MAREA":" ","LANE":"５００巷","ALLEY":" ","HOUSE_NO":"４３號","E_COORD97":168157.28,"N_COORD97":2545717.7999999998,"ADDRESS":"海安路三段５００巷４３號","OBJECTID":253265},"geometry":{"x":168157.28000000026,"y":2545717.8000000007}},{"attributes":{"ID":253270,"DIS_CODE":0,"TOWNNAME":"北區","LI":"成德里","LIN":"14鄰","STREET":"海安路","SECT":"三段","MAREA":" ","LANE":"５００巷","ALLEY":" ","HOUSE_NO":"４５號","E_COORD97":168157.28,"N_COORD97":2545711.5899999999,"ADDRESS":"海安路三段５００巷４５號","OBJECTID":253266},"geometry":{"x":168157.28000000026,"y":2545711.5899999999}},{"attributes":{"ID":253271,"DIS_CODE":0,"TOWNNAME":"北區","LI":"成德里","LIN":"14鄰","STREET":"海安路","SECT":"三段","MAREA":" ","LANE":"５００巷","ALLEY":" ","HOUSE_NO":"４７號","E_COORD97":168156.78,"N_COORD97":2545705.6400000001,"ADDRESS":"海安路三段５００巷４７號","OBJECTID":253267},"geometry":{"x":168156.78000000026,"y":2545705.6400000043}},{"attributes":{"ID":253272,"DIS_CODE":0,"TOWNNAME":"北區","LI":"成德里","LIN":"14鄰","STREET":"海安路","SECT":"三段","MAREA":" ","LANE":"５００巷","ALLEY":" ","HOUSE_NO":"４９號","E_COORD97":168156.51999999999,"N_COORD97":2545699.1699999999,"ADDRESS":"海安路三段５００巷４９號","OBJECTID":253268},"geometry":{"x":168156.51999999955,"y":2545699.1700000018}},{"attributes":{"ID":253273,"DIS_CODE":0,"TOWNNAME":"北區","LI":"成德里","LIN":"14鄰","STREET":"海安路","SECT":"三段","MAREA":" ","LANE":"５２０巷","ALLEY":" ","HOUSE_NO":"３６號","E_COORD97":168140.16,"N_COORD97":2545737.9500000002,"ADDRESS":"海安路三段５２０巷３６號","OBJECTID":253269},"geometry":{"x":168140.16000000108,"y":2545737.9499999993}},{"attributes":{"ID":253274,"DIS_CODE":0,"TOWNNAME":"北區","LI":"成德里","LIN":"14鄰","STREET":"海安路","SECT":"三段","MAREA":" ","LANE":"５２０巷","ALLEY":" ","HOUSE_NO":"３８號","E_COORD97":168158.29999999999,"N_COORD97":2545743.5299999998,"ADDRESS":"海安路三段５２０巷３８號","OBJECTID":253270},"geometry":{"x":168158.29999999981,"y":2545743.5300000012}},{"attributes":{"ID":253275,"DIS_CODE":0,"TOWNNAME":"南區","LI":"明興里","LIN":"14鄰","STREET":"金華路","SECT":"一段","MAREA":" ","LANE":"８巷","ALLEY":" ","HOUSE_NO":"３９號","E_COORD97":166976.76999999999,"N_COORD97":2540275.1000000001,"ADDRESS":"金華路一段８巷３９號","OBJECTID":253271},"geometry":{"x":166976.76999999862,"y":2540275.1000000015}},{"attributes":{"ID":253276,"DIS_CODE":0,"TOWNNAME":"安平區","LI":"億載里","LIN":"14鄰","STREET":"平豐路","SECT":" ","MAREA":" ","LANE":"１０１巷","ALLEY":" ","HOUSE_NO":"１１號","E_COORD97":164270.39000000001,"N_COORD97":2543252.9700000002,"ADDRESS":"平豐路１０１巷１１號","OBJECTID":253272},"geometry":{"x":164270.38999999966,"y":2543252.9700000025}},{"attributes":{"ID":253277,"DIS_CODE":0,"TOWNNAME":"安平區","LI":"億載里","LIN":"14鄰","STREET":"平豐路","SECT":" ","MAREA":" ","LANE":"１０１巷","ALLEY":" ","HOUSE_NO":"１５號","E_COORD97":164251.07000000001,"N_COORD97":2543253.8799999999,"ADDRESS":"平豐路１０１巷１５號","OBJECTID":253273},"geometry":{"x":164251.0700000003,"y":2543253.879999999}},{"attributes":{"ID":253278,"DIS_CODE":0,"TOWNNAME":"安平區","LI":"億載里","LIN":"14鄰","STREET":"平豐路","SECT":" ","MAREA":" ","LANE":"１０１巷","ALLEY":" ","HOUSE_NO":"１７號","E_COORD97":164244.13,"N_COORD97":2543253.8799999999,"ADDRESS":"平豐路１０１巷１７號","OBJECTID":253274},"geometry":{"x":164244.13000000082,"y":2543253.879999999}},{"attributes":{"ID":253279,"DIS_CODE":0,"TOWNNAME":"安平區","LI":"億載里","LIN":"14鄰","STREET":"平豐路","SECT":" ","MAREA":" ","LANE":"１０１巷","ALLEY":" ","HOUSE_NO":"１８號","E_COORD97":164261.63,"N_COORD97":2543265.6400000001,"ADDRESS":"平豐路１０１巷１８號","OBJECTID":253275},"geometry":{"x":164261.63000000082,"y":2543265.6400000025}},{"attributes":{"ID":253280,"DIS_CODE":0,"TOWNNAME":"安平區","LI":"億載里","LIN":"14鄰","STREET":"平豐路","SECT":" ","MAREA":" ","LANE":"１０１巷","ALLEY":" ","HOUSE_NO":"１８號之１","E_COORD97":164261.92999999999,"N_COORD97":2543271.0699999998,"ADDRESS":"平豐路１０１巷１８號之１","OBJECTID":253276},"geometry":{"x":164261.93000000156,"y":2543271.0700000003}},{"attributes":{"ID":253281,"DIS_CODE":0,"TOWNNAME":"安平區","LI":"億載里","LIN":"14鄰","STREET":"平豐路","SECT":" ","MAREA":" ","LANE":"１０１巷","ALLEY":" ","HOUSE_NO":"１８號之２","E_COORD97":164261.63,"N_COORD97":2543276.2000000002,"ADDRESS":"平豐路１０１巷１８號之２","OBJECTID":253277},"geometry":{"x":164261.63000000082,"y":2543276.200000003}},{"attributes":{"ID":253282,"DIS_CODE":0,"TOWNNAME":"安平區","LI":"億載里","LIN":"14鄰","STREET":"平豐路","SECT":" ","MAREA":" ","LANE":"１０１巷","ALLEY":" ","HOUSE_NO":"１８號之３","E_COORD97":164261.32999999999,"N_COORD97":2543281.3199999998,"ADDRESS":"平豐路１０１巷１８號之３","OBJECTID":253278},"geometry":{"x":164261.33000000194,"y":2543281.3200000022}},{"attributes":{"ID":253283,"DIS_CODE":0,"TOWNNAME":"安平區","LI":"億載里","LIN":"14鄰","STREET":"平豐路","SECT":" ","MAREA":" ","LANE":"１０１巷","ALLEY":" ","HOUSE_NO":"１９號","E_COORD97":164239.29999999999,"N_COORD97":2543253.2799999998,"ADDRESS":"平豐路１０１巷１９號","OBJECTID":253279},"geometry":{"x":164239.30000000168,"y":2543253.2800000012}},{"attributes":{"ID":253284,"DIS_CODE":0,"TOWNNAME":"安平區","LI":"億載里","LIN":"14鄰","STREET":"平豐路","SECT":" ","MAREA":" ","LANE":"１０１巷","ALLEY":" ","HOUSE_NO":"２０之２號","E_COORD97":164245.32999999999,"N_COORD97":2543275.8900000001,"ADDRESS":"平豐路１０１巷２０之２號","OBJECTID":253280},"geometry":{"x":164245.33000000007,"y":2543275.8900000006}},{"attributes":{"ID":253285,"DIS_CODE":0,"TOWNNAME":"安平區","LI":"億載里","LIN":"14鄰","STREET":"平豐路","SECT":" ","MAREA":" ","LANE":"１０１巷","ALLEY":" ","HOUSE_NO":"２０之３號","E_COORD97":164245.03,"N_COORD97":2543280.7200000002,"ADDRESS":"平豐路１０１巷２０之３號","OBJECTID":253281},"geometry":{"x":164245.03000000212,"y":2543280.7199999988}},{"attributes":{"ID":253286,"DIS_CODE":0,"TOWNNAME":"安平區","LI":"億載里","LIN":"14鄰","STREET":"平豐路","SECT":" ","MAREA":" ","LANE":"１０１巷","ALLEY":" ","HOUSE_NO":"２０號","E_COORD97":164245.94,"N_COORD97":2543265.3399999999,"ADDRESS":"平豐路１０１巷２０號","OBJECTID":253282},"geometry":{"x":164245.94000000134,"y":2543265.3399999999}},{"attributes":{"ID":253287,"DIS_CODE":0,"TOWNNAME":"安平區","LI":"億載里","LIN":"14鄰","STREET":"平豐路","SECT":" ","MAREA":" ","LANE":"１０１巷","ALLEY":" ","HOUSE_NO":"２０號之１","E_COORD97":164245.94,"N_COORD97":2543270.4700000002,"ADDRESS":"平豐路１０１巷２０號之１","OBJECTID":253283},"geometry":{"x":164245.94000000134,"y":2543270.4700000025}},{"attributes":{"ID":253288,"DIS_CODE":0,"TOWNNAME":"安平區","LI":"億載里","LIN":"14鄰","STREET":"平豐路","SECT":" ","MAREA":" ","LANE":"１０１巷","ALLEY":" ","HOUSE_NO":"２１號","E_COORD97":164235.67999999999,"N_COORD97":2543253.5800000001,"ADDRESS":"平豐路１０１巷２１號","OBJECTID":253284},"geometry":{"x":164235.68000000063,"y":2543253.5800000001}},{"attributes":{"ID":253289,"DIS_CODE":0,"TOWNNAME":"安平區","LI":"億載里","LIN":"14鄰","STREET":"平豐路","SECT":" ","MAREA":" ","LANE":"１０１巷","ALLEY":" ","HOUSE_NO":"２６號","E_COORD97":164231.75,"N_COORD97":2543264.7400000002,"ADDRESS":"平豐路１０１巷２６號","OBJECTID":253285},"geometry":{"x":164231.75000000093,"y":2543264.7400000021}},{"attributes":{"ID":253290,"DIS_CODE":0,"TOWNNAME":"安平區","LI":"億載里","LIN":"14鄰","STREET":"平豐路","SECT":" ","MAREA":" ","LANE":"１０１巷","ALLEY":" ","HOUSE_NO":"２８號","E_COORD97":164226.32000000001,"N_COORD97":2543264.7400000002,"ADDRESS":"平豐路１０１巷２８號","OBJECTID":253286},"geometry":{"x":164226.32000000123,"y":2543264.7400000021}},{"attributes":{"ID":253291,"DIS_CODE":0,"TOWNNAME":"安平區","LI":"億載里","LIN":"14鄰","STREET":"平豐路","SECT":" ","MAREA":" ","LANE":"１０１巷","ALLEY":" ","HOUSE_NO":"３０號","E_COORD97":164221.79000000001,"N_COORD97":2543264.4300000002,"ADDRESS":"平豐路１０１巷３０號","OBJECTID":253287},"geometry":{"x":164221.79000000004,"y":2543264.4299999997}},{"attributes":{"ID":253292,"DIS_CODE":0,"TOWNNAME":"北區","LI":"成德里","LIN":"14鄰","STREET":"海安路","SECT":"三段","MAREA":" ","LANE":"５２０巷","ALLEY":" ","HOUSE_NO":"２８號","E_COORD97":168115.34,"N_COORD97":2545729.0699999998,"ADDRESS":"海安路三段５２０巷２８號","OBJECTID":253288},"geometry":{"x":168115.33999999985,"y":2545729.0700000003}},{"attributes":{"ID":253293,"DIS_CODE":0,"TOWNNAME":"北區","LI":"成德里","LIN":"14鄰","STREET":"海安路","SECT":"三段","MAREA":" ","LANE":"５２０巷","ALLEY":" ","HOUSE_NO":"２６號","E_COORD97":168106.60999999999,"N_COORD97":2545726.5299999998,"ADDRESS":"海安路三段５２０巷２６號","OBJECTID":253289},"geometry":{"x":168106.61000000127,"y":2545726.5300000012}},{"attributes":{"ID":253294,"DIS_CODE":0,"TOWNNAME":"北區","LI":"成德里","LIN":"14鄰","STREET":"海安路","SECT":"三段","MAREA":" ","LANE":"５２０巷","ALLEY":" ","HOUSE_NO":"１９號","E_COORD97":168138.67999999999,"N_COORD97":2545756.21,"ADDRESS":"海安路三段５２０巷１９號","OBJECTID":253290},"geometry":{"x":168138.6799999997,"y":2545756.2100000046}},{"attributes":{"ID":253295,"DIS_CODE":0,"TOWNNAME":"北區","LI":"正覺里","LIN":"4鄰","STREET":"公園路","SECT":" ","MAREA":" ","LANE":"５９７巷","ALLEY":" ","HOUSE_NO":"１１號","E_COORD97":169200.98000000001,"N_COORD97":2546027.8300000001,"ADDRESS":"公園路５９７巷１１號","OBJECTID":253291},"geometry":{"x":169200.98000000138,"y":2546027.8300000001}},{"attributes":{"ID":253296,"DIS_CODE":0,"TOWNNAME":"北區","LI":"成德里","LIN":"14鄰","STREET":"海安路","SECT":"三段","MAREA":" ","LANE":"５２０巷","ALLEY":" ","HOUSE_NO":"１７號","E_COORD97":168133.44,"N_COORD97":2545755.4199999999,"ADDRESS":"海安路三段５２０巷１７號","OBJECTID":253292},"geometry":{"x":168133.44000000134,"y":2545755.4200000018}},{"attributes":{"ID":253297,"DIS_CODE":0,"TOWNNAME":"北區","LI":"成德里","LIN":"14鄰","STREET":"海安路","SECT":"三段","MAREA":" ","LANE":"５２０巷","ALLEY":" ","HOUSE_NO":"１３號","E_COORD97":168115.03,"N_COORD97":2545747.96,"ADDRESS":"海安路三段５２０巷１３號","OBJECTID":253293},"geometry":{"x":168115.03000000212,"y":2545747.9600000046}},{"attributes":{"ID":253298,"DIS_CODE":0,"TOWNNAME":"北區","LI":"成德里","LIN":"14鄰","STREET":"海安路","SECT":"三段","MAREA":" ","LANE":"５２０巷","ALLEY":" ","HOUSE_NO":"１１號","E_COORD97":168108.04000000001,"N_COORD97":2545743.8300000001,"ADDRESS":"海安路三段５２０巷１１號","OBJECTID":253294},"geometry":{"x":168108.0400000019,"y":2545743.8300000001}},{"attributes":{"ID":253299,"DIS_CODE":0,"TOWNNAME":"北區","LI":"成德里","LIN":"14鄰","STREET":"海安路","SECT":"三段","MAREA":" ","LANE":"５００巷","ALLEY":" ","HOUSE_NO":"１９號","E_COORD97":168124.70999999999,"N_COORD97":2545703.9900000002,"ADDRESS":"海安路三段５００巷１９號","OBJECTID":253295},"geometry":{"x":168124.70999999996,"y":2545703.9900000021}},{"attributes":{"ID":253300,"DIS_CODE":0,"TOWNNAME":"北區","LI":"成德里","LIN":"14鄰","STREET":"海安路","SECT":"三段","MAREA":" ","LANE":"５００巷","ALLEY":" ","HOUSE_NO":"１７號","E_COORD97":168118.20000000001,"N_COORD97":2545703.5099999998,"ADDRESS":"海安路三段５００巷１７號","OBJECTID":253296},"geometry":{"x":168118.20000000019,"y":2545703.5100000016}},{"attributes":{"ID":253301,"DIS_CODE":0,"TOWNNAME":"東山區","LI":"東中里","LIN":"24鄰","STREET":"東仁街","SECT":" ","MAREA":" ","LANE":" ","ALLEY":" ","HOUSE_NO":"１號","E_COORD97":188928.34,"N_COORD97":2579775.6400000001,"ADDRESS":"東仁街１號","OBJECTID":253297},"geometry":{"x":188928.34000000078,"y":2579775.6400000043}},{"attributes":{"ID":253302,"DIS_CODE":0,"TOWNNAME":"北區","LI":"成德里","LIN":"14鄰","STREET":"海安路","SECT":"三段","MAREA":" ","LANE":"５００巷","ALLEY":" ","HOUSE_NO":"１５號","E_COORD97":168108.84,"N_COORD97":2545703.5099999998,"ADDRESS":"海安路三段５００巷１５號","OBJECTID":253298},"geometry":{"x":168108.83999999985,"y":2545703.5100000016}},{"attributes":{"ID":253303,"DIS_CODE":0,"TOWNNAME":"北區","LI":"成德里","LIN":"14鄰","STREET":"海安路","SECT":"三段","MAREA":" ","LANE":"５２０巷","ALLEY":" ","HOUSE_NO":"４７號","E_COORD97":168195.98999999999,"N_COORD97":2545778.52,"ADDRESS":"海安路三段５２０巷４７號","OBJECTID":253299},"geometry":{"x":168195.99000000022,"y":2545778.5199999996}},{"attributes":{"ID":253304,"DIS_CODE":0,"TOWNNAME":"北區","LI":"成德里","LIN":"14鄰","STREET":"海安路","SECT":"三段","MAREA":" ","LANE":"５２０巷","ALLEY":" ","HOUSE_NO":"５１號","E_COORD97":168209.64000000001,"N_COORD97":2545782.7999999998,"ADDRESS":"海安路三段５２０巷５１號","OBJECTID":253300},"geometry":{"x":168209.63999999966,"y":2545782.8000000045}},{"attributes":{"ID":253305,"DIS_CODE":0,"TOWNNAME":"北區","LI":"成德里","LIN":"14鄰","STREET":"海安路","SECT":"三段","MAREA":" ","LANE":"５２０巷","ALLEY":" ","HOUSE_NO":"４９號","E_COORD97":168202.82000000001,"N_COORD97":2545780.5800000001,"ADDRESS":"海安路三段５２０巷４９號","OBJECTID":253301},"geometry":{"x":168202.8200000003,"y":2545780.5800000019}},{"attributes":{"ID":253306,"DIS_CODE":0,"TOWNNAME":"北區","LI":"成功里","LIN":"14鄰","STREET":"北成路","SECT":" ","MAREA":" ","LANE":"３８巷","ALLEY":" ","HOUSE_NO":"３０號","E_COORD97":169156.85000000001,"N_COORD97":2546667.8999999999,"ADDRESS":"北成路３８巷３０號","OBJECTID":253302},"geometry":{"x":169156.85000000056,"y":2546667.9000000022}},{"attributes":{"ID":253307,"DIS_CODE":0,"TOWNNAME":"北區","LI":"成功里","LIN":"14鄰","STREET":"北成路","SECT":" ","MAREA":" ","LANE":"３８巷","ALLEY":" ","HOUSE_NO":"３２號","E_COORD97":169159.01999999999,"N_COORD97":2546673.1499999999,"ADDRESS":"北成路３８巷３２號","OBJECTID":253303},"geometry":{"x":169159.02000000048,"y":2546673.1500000022}},{"attributes":{"ID":253308,"DIS_CODE":0,"TOWNNAME":"北區","LI":"成功里","LIN":"14鄰","STREET":"北成路","SECT":" ","MAREA":" ","LANE":"３８巷","ALLEY":" ","HOUSE_NO":"３４號","E_COORD97":169161.48999999999,"N_COORD97":2546677.48,"ADDRESS":"北成路３８巷３４號","OBJECTID":253304},"geometry":{"x":169161.49000000115,"y":2546677.4800000023}},{"attributes":{"ID":253309,"DIS_CODE":0,"TOWNNAME":"北區","LI":"成功里","LIN":"14鄰","STREET":"北成路","SECT":" ","MAREA":" ","LANE":"３８巷","ALLEY":" ","HOUSE_NO":"３６號","E_COORD97":169164.59,"N_COORD97":2546680.8700000001,"ADDRESS":"北成路３８巷３６號","OBJECTID":253305},"geometry":{"x":169164.58999999985,"y":2546680.8700000048}},{"attributes":{"ID":253310,"DIS_CODE":0,"TOWNNAME":"北區","LI":"成功里","LIN":"14鄰","STREET":"北成路","SECT":" ","MAREA":" ","LANE":"３８巷","ALLEY":" ","HOUSE_NO":"３８號","E_COORD97":169165.51000000001,"N_COORD97":2546685.2000000002,"ADDRESS":"北成路３８巷３８號","OBJECTID":253306},"geometry":{"x":169165.50999999978,"y":2546685.2000000011}},{"attributes":{"ID":253311,"DIS_CODE":0,"TOWNNAME":"關廟區","LI":"北勢里","LIN":"14鄰","STREET":"成功路","SECT":" ","MAREA":" ","LANE":"３０２巷","ALLEY":" ","HOUSE_NO":"６號","E_COORD97":181404.76999999999,"N_COORD97":2540514.27,"ADDRESS":"成功路３０２巷６號","OBJECTID":253307},"geometry":{"x":181404.77000000142,"y":2540514.2700000014}},{"attributes":{"ID":253312,"DIS_CODE":0,"TOWNNAME":"關廟區","LI":"關廟里","LIN":"14鄰","STREET":"大仁街","SECT":" ","MAREA":" ","LANE":"３４６巷","ALLEY":" ","HOUSE_NO":"１８號","E_COORD97":180845.92000000001,"N_COORD97":2539661.25,"ADDRESS":"大仁街３４６巷１８號","OBJECTID":253308},"geometry":{"x":180845.91999999993,"y":2539661.25}},{"attributes":{"ID":253313,"DIS_CODE":0,"TOWNNAME":"關廟區","LI":"關廟里","LIN":"14鄰","STREET":"民生街","SECT":" ","MAREA":" ","LANE":"１１５巷","ALLEY":" ","HOUSE_NO":"９號","E_COORD97":180807.39000000001,"N_COORD97":2539737.29,"ADDRESS":"民生街１１５巷９號","OBJECTID":253309},"geometry":{"x":180807.39000000153,"y":2539737.290000001}},{"attributes":{"ID":253314,"DIS_CODE":0,"TOWNNAME":"關廟區","LI":"松腳里","LIN":"14鄰","STREET":"東興路","SECT":" ","MAREA":" ","LANE":"２５１巷","ALLEY":" ","HOUSE_NO":"７號","E_COORD97":181835.07000000001,"N_COORD97":2539594.25,"ADDRESS":"東興路２５１巷７號","OBJECTID":253310},"geometry":{"x":181835.0700000003,"y":2539594.25}},{"attributes":{"ID":253315,"DIS_CODE":0,"TOWNNAME":"關廟區","LI":"關廟里","LIN":"14鄰","STREET":"大仁街","SECT":" ","MAREA":" ","LANE":"３４６巷","ALLEY":" ","HOUSE_NO":"３號","E_COORD97":180863.97,"N_COORD97":2539701.25,"ADDRESS":"大仁街３４６巷３號","OBJECTID":253311},"geometry":{"x":180863.96999999974,"y":2539701.2500000019}},{"attributes":{"ID":253316,"DIS_CODE":0,"TOWNNAME":"關廟區","LI":"松腳里","LIN":"14鄰","STREET":"東興路","SECT":" ","MAREA":" ","LANE":"２５１巷","ALLEY":" ","HOUSE_NO":"４０號","E_COORD97":181840.51999999999,"N_COORD97":2539641.25,"ADDRESS":"東興路２５１巷４０號","OBJECTID":253312},"geometry":{"x":181840.52000000048,"y":2539641.25}},{"attributes":{"ID":253317,"DIS_CODE":0,"TOWNNAME":"關廟區","LI":"香洋里","LIN":"14鄰","STREET":"仁愛路","SECT":" ","MAREA":" ","LANE":"２０巷","ALLEY":" ","HOUSE_NO":"１０號","E_COORD97":181303.79000000001,"N_COORD97":2540102.2799999998,"ADDRESS":"仁愛路２０巷１０號","OBJECTID":253313},"geometry":{"x":181303.79000000097,"y":2540102.2800000031}},{"attributes":{"ID":253318,"DIS_CODE":0,"TOWNNAME":"關廟區","LI":"松腳里","LIN":"14鄰","STREET":"東興路","SECT":" ","MAREA":" ","LANE":"２５１巷","ALLEY":" ","HOUSE_NO":"５號","E_COORD97":181829.67000000001,"N_COORD97":2539594.25,"ADDRESS":"東興路２５１巷５號","OBJECTID":253314},"geometry":{"x":181829.67000000086,"y":2539594.25}},{"attributes":{"ID":253319,"DIS_CODE":0,"TOWNNAME":"關廟區","LI":"香洋里","LIN":"14鄰","STREET":"仁愛路","SECT":" ","MAREA":" ","LANE":"２０巷","ALLEY":" ","HOUSE_NO":"２０號","E_COORD97":181318.39000000001,"N_COORD97":2540096.2799999998,"ADDRESS":"仁愛路２０巷２０號","OBJECTID":253315},"geometry":{"x":181318.38999999966,"y":2540096.2800000012}},{"attributes":{"ID":253320,"DIS_CODE":0,"TOWNNAME":"關廟區","LI":"五甲里","LIN":"14鄰","STREET":"光復街","SECT":" ","MAREA":" ","LANE":"３７巷","ALLEY":" ","HOUSE_NO":"１３號","E_COORD97":181412.73999999999,"N_COORD97":2539235.2799999998,"ADDRESS":"光復街３７巷１３號","OBJECTID":253316},"geometry":{"x":181412.74000000115,"y":2539235.2800000012}},{"attributes":{"ID":253321,"DIS_CODE":0,"TOWNNAME":"關廟區","LI":"關廟里","LIN":"14鄰","STREET":"大仁街","SECT":" ","MAREA":" ","LANE":"３４６巷","ALLEY":" ","HOUSE_NO":"２６號","E_COORD97":180842.92000000001,"N_COORD97":2539646.25,"ADDRESS":"大仁街３４６巷２６號","OBJECTID":253317},"geometry":{"x":180842.92000000179,"y":2539646.2500000019}},{"attributes":{"ID":253322,"DIS_CODE":0,"TOWNNAME":"關廟區","LI":"香洋里","LIN":"14鄰","STREET":"仁愛路","SECT":" ","MAREA":" ","LANE":"２０巷","ALLEY":" ","HOUSE_NO":"１５號","E_COORD97":181319.59,"N_COORD97":2540101.2799999998,"ADDRESS":"仁愛路２０巷１５號","OBJECTID":253318},"geometry":{"x":181319.58999999985,"y":2540101.2799999993}},{"attributes":{"ID":253323,"DIS_CODE":0,"TOWNNAME":"關廟區","LI":"香洋里","LIN":"14鄰","STREET":"仁愛路","SECT":" ","MAREA":" ","LANE":"１８巷","ALLEY":" ","HOUSE_NO":"１５號","E_COORD97":181315.69,"N_COORD97":2540087.2799999998,"ADDRESS":"仁愛路１８巷１５號","OBJECTID":253319},"geometry":{"x":181315.69000000041,"y":2540087.2799999993}},{"attributes":{"ID":253324,"DIS_CODE":0,"TOWNNAME":"關廟區","LI":"香洋里","LIN":"14鄰","STREET":"仁愛路","SECT":" ","MAREA":" ","LANE":"２０巷","ALLEY":" ","HOUSE_NO":"１３號","E_COORD97":181316.89000000001,"N_COORD97":2540102.2799999998,"ADDRESS":"仁愛路２０巷１３號","OBJECTID":253320},"geometry":{"x":181316.88999999966,"y":2540102.2800000031}},{"attributes":{"ID":253325,"DIS_CODE":0,"TOWNNAME":"新營區","LI":"新南里","LIN":"14鄰","STREET":"民治路","SECT":" ","MAREA":" ","LANE":"３００巷","ALLEY":" ","HOUSE_NO":"６０號","E_COORD97":178635.57000000001,"N_COORD97":2578616.8799999999,"ADDRESS":"民治路３００巷６０號","OBJECTID":253321},"geometry":{"x":178635.57000000123,"y":2578616.8800000008}},{"attributes":{"ID":253326,"DIS_CODE":0,"TOWNNAME":"新營區","LI":"新南里","LIN":"14鄰","STREET":"民治路","SECT":" ","MAREA":" ","LANE":"３００巷","ALLEY":" ","HOUSE_NO":"６８之７號","E_COORD97":178596.26000000001,"N_COORD97":2578642.6099999999,"ADDRESS":"民治路３００巷６８之７號","OBJECTID":253322},"geometry":{"x":178596.26000000071,"y":2578642.6100000013}},{"attributes":{"ID":253327,"DIS_CODE":0,"TOWNNAME":"東區","LI":"崇善里","LIN":"5鄰","STREET":"崇善五街","SECT":" ","MAREA":" ","LANE":" ","ALLEY":" ","HOUSE_NO":"２２號","E_COORD97":171057.67000000001,"N_COORD97":2541564.1699999999,"ADDRESS":"崇善五街２２號","OBJECTID":253323},"geometry":{"x":171057.66999999993,"y":2541564.1699999999}},{"attributes":{"ID":253328,"DIS_CODE":0,"TOWNNAME":"北區","LI":"大豐里","LIN":"11鄰","STREET":"和緯路","SECT":"四段","MAREA":" ","LANE":"９５巷","ALLEY":" ","HOUSE_NO":"６０號五樓","E_COORD97":167084.07999999999,"N_COORD97":2545280.6499999999,"ADDRESS":"和緯路四段９５巷６０號五樓","OBJECTID":253324},"geometry":{"x":167084.08000000101,"y":2545280.6500000004}},{"attributes":{"ID":253329,"DIS_CODE":0,"TOWNNAME":"新營區","LI":"民權里","LIN":"11鄰","STREET":"信義街","SECT":" ","MAREA":" ","LANE":"５３巷","ALLEY":" ","HOUSE_NO":"３之４號五樓之１０","E_COORD97":179880.95000000001,"N_COORD97":2578280.9900000002,"ADDRESS":"信義街５３巷３之４號五樓之１０","OBJECTID":253325},"geometry":{"x":179880.95000000112,"y":2578280.9900000039}},{"attributes":{"ID":253330,"DIS_CODE":0,"TOWNNAME":"新營區","LI":"民權里","LIN":"11鄰","STREET":"信義街","SECT":" ","MAREA":" ","LANE":"５３巷","ALLEY":" ","HOUSE_NO":"３之４號三樓之２","E_COORD97":179879.78,"N_COORD97":2578280.9900000002,"ADDRESS":"信義街５３巷３之４號三樓之２","OBJECTID":253326},"geometry":{"x":179879.78000000212,"y":2578280.9900000039}},{"attributes":{"ID":253331,"DIS_CODE":0,"TOWNNAME":"東區","LI":"東光里","LIN":"21鄰","STREET":"東安路","SECT":" ","MAREA":" ","LANE":"１３４巷","ALLEY":" ","HOUSE_NO":"４２號之１","E_COORD97":170821.47,"N_COORD97":2543811.0600000001,"ADDRESS":"東安路１３４巷４２號之１","OBJECTID":253327},"geometry":{"x":170821.46999999974,"y":2543811.0600000042}},{"attributes":{"ID":253332,"DIS_CODE":0,"TOWNNAME":"東區","LI":"富強里","LIN":"16鄰","STREET":"裕農路","SECT":" ","MAREA":" ","LANE":"２８８巷","ALLEY":" ","HOUSE_NO":"５３號","E_COORD97":170991.82999999999,"N_COORD97":2542957.1000000001,"ADDRESS":"裕農路２８８巷５３號","OBJECTID":253328},"geometry":{"x":170991.83000000101,"y":2542957.0999999996}},{"attributes":{"ID":253333,"DIS_CODE":0,"TOWNNAME":"新營區","LI":"新南里","LIN":"14鄰","STREET":"民治路","SECT":" ","MAREA":" ","LANE":"３００巷","ALLEY":" ","HOUSE_NO":"７０之５號","E_COORD97":178602.51000000001,"N_COORD97":2578662.5099999998,"ADDRESS":"民治路３００巷７０之５號","OBJECTID":253329},"geometry":{"x":178602.50999999978,"y":2578662.5099999998}},{"attributes":{"ID":253334,"DIS_CODE":0,"TOWNNAME":"新營區","LI":"新南里","LIN":"14鄰","STREET":"民治路","SECT":" ","MAREA":" ","LANE":"３００巷","ALLEY":" ","HOUSE_NO":"６２號","E_COORD97":178630.45999999999,"N_COORD97":2578618.02,"ADDRESS":"民治路３００巷６２號","OBJECTID":253330},"geometry":{"x":178630.46000000183,"y":2578618.0199999996}},{"attributes":{"ID":253335,"DIS_CODE":0,"TOWNNAME":"新營區","LI":"新南里","LIN":"14鄰","STREET":"民治路","SECT":" ","MAREA":" ","LANE":"３００巷","ALLEY":" ","HOUSE_NO":"２２號","E_COORD97":178721.34,"N_COORD97":2578572.1699999999,"ADDRESS":"民治路３００巷２２號","OBJECTID":253331},"geometry":{"x":178721.34000000078,"y":2578572.1700000018}},{"attributes":{"ID":253336,"DIS_CODE":0,"TOWNNAME":"南區","LI":"大恩里","LIN":"14鄰","STREET":"國民路","SECT":" ","MAREA":" ","LANE":"１６５巷","ALLEY":" ","HOUSE_NO":"６２號","E_COORD97":169132.70999999999,"N_COORD97":2540726.2599999998,"ADDRESS":"國民路１６５巷６２號","OBJECTID":253332},"geometry":{"x":169132.71000000089,"y":2540726.2599999998}},{"attributes":{"ID":253337,"DIS_CODE":0,"TOWNNAME":"歸仁區","LI":"後市里","LIN":"14鄰","STREET":"大吉一街","SECT":" ","MAREA":" ","LANE":"１２巷","ALLEY":" ","HOUSE_NO":"１１號","E_COORD97":177150.54000000001,"N_COORD97":2540781.5899999999,"ADDRESS":"大吉一街１２巷１１號","OBJECTID":253333},"geometry":{"x":177150.54000000097,"y":2540781.5899999999}},{"attributes":{"ID":253338,"DIS_CODE":0,"TOWNNAME":"北區","LI":"正覺里","LIN":"18鄰","STREET":"公園路","SECT":" ","MAREA":" ","LANE":"６６３巷","ALLEY":" ","HOUSE_NO":"１１號","E_COORD97":169381.91,"N_COORD97":2546295.8300000001,"ADDRESS":"公園路６６３巷１１號","OBJECTID":253334},"geometry":{"x":169381.91000000015,"y":2546295.8300000001}},{"attributes":{"ID":253339,"DIS_CODE":0,"TOWNNAME":"北區","LI":"正覺里","LIN":"18鄰","STREET":"公園路","SECT":" ","MAREA":" ","LANE":"６６３巷","ALLEY":" ","HOUSE_NO":"１２號","E_COORD97":169392.42000000001,"N_COORD97":2546306.79,"ADDRESS":"公園路６６３巷１２號","OBJECTID":253335},"geometry":{"x":169392.42000000086,"y":2546306.790000001}},{"attributes":{"ID":253340,"DIS_CODE":0,"TOWNNAME":"安平區","LI":"怡平里","LIN":"24鄰","STREET":"建平八街","SECT":" ","MAREA":" ","LANE":" ","ALLEY":" ","HOUSE_NO":"１２４號","E_COORD97":165716.31,"N_COORD97":2543525.7799999998,"ADDRESS":"建平八街１２４號","OBJECTID":253336},"geometry":{"x":165716.30999999959,"y":2543525.7799999993}},{"attributes":{"ID":253341,"DIS_CODE":0,"TOWNNAME":"安平區","LI":"怡平里","LIN":"24鄰","STREET":"建平八街","SECT":" ","MAREA":" ","LANE":" ","ALLEY":" ","HOUSE_NO":"１２６號","E_COORD97":165712.03,"N_COORD97":2543526.7799999998,"ADDRESS":"建平八街１２６號","OBJECTID":253337},"geometry":{"x":165712.03000000119,"y":2543526.7800000031}},{"attributes":{"ID":253342,"DIS_CODE":0,"TOWNNAME":"安平區","LI":"文平里","LIN":"24鄰","STREET":"建平三街","SECT":" ","MAREA":" ","LANE":" ","ALLEY":" ","HOUSE_NO":"１９號","E_COORD97":165996.44,"N_COORD97":2542877.02,"ADDRESS":"建平三街１９號","OBJECTID":253338},"geometry":{"x":165996.44000000041,"y":2542877.0199999996}},{"attributes":{"ID":253343,"DIS_CODE":0,"TOWNNAME":"安平區","LI":"文平里","LIN":"24鄰","STREET":"建平三街","SECT":" ","MAREA":" ","LANE":" ","ALLEY":" ","HOUSE_NO":"２３號","E_COORD97":165983.39000000001,"N_COORD97":2542878.8799999999,"ADDRESS":"建平三街２３號","OBJECTID":253339},"geometry":{"x":165983.3900000006,"y":2542878.8800000008}},{"attributes":{"ID":253344,"DIS_CODE":0,"TOWNNAME":"安平區","LI":"文平里","LIN":"24鄰","STREET":"建平三街","SECT":" ","MAREA":" ","LANE":" ","ALLEY":" ","HOUSE_NO":"２５號","E_COORD97":165978.20000000001,"N_COORD97":2542878.8799999999,"ADDRESS":"建平三街２５號","OBJECTID":253340},"geometry":{"x":165978.20000000112,"y":2542878.8800000008}},{"attributes":{"ID":253345,"DIS_CODE":0,"TOWNNAME":"南區","LI":"大忠里","LIN":"24鄰","STREET":"中華南路","SECT":"一段","MAREA":" ","LANE":" ","ALLEY":" ","HOUSE_NO":"１０１號","E_COORD97":169241.88,"N_COORD97":2541277.2799999998,"ADDRESS":"中華南路一段１０１號","OBJECTID":253341},"geometry":{"x":169241.88000000082,"y":2541277.2799999993}},{"attributes":{"ID":253346,"DIS_CODE":0,"TOWNNAME":"北區","LI":"正覺里","LIN":"18鄰","STREET":"公園路","SECT":" ","MAREA":" ","LANE":"６６３巷","ALLEY":" ","HOUSE_NO":"１３號","E_COORD97":169371.57999999999,"N_COORD97":2546310.1899999999,"ADDRESS":"公園路６６３巷１３號","OBJECTID":253342},"geometry":{"x":169371.58000000007,"y":2546310.1899999995}},{"attributes":{"ID":253347,"DIS_CODE":0,"TOWNNAME":"北區","LI":"正覺里","LIN":"18鄰","STREET":"公園路","SECT":" ","MAREA":" ","LANE":"６６３巷","ALLEY":" ","HOUSE_NO":"１４號","E_COORD97":169384.69,"N_COORD97":2546314.8700000001,"ADDRESS":"公園路６６３巷１４號","OBJECTID":253343},"geometry":{"x":169384.69000000041,"y":2546314.8700000048}},{"attributes":{"ID":253348,"DIS_CODE":0,"TOWNNAME":"北區","LI":"正覺里","LIN":"18鄰","STREET":"公園路","SECT":" ","MAREA":" ","LANE":"６６３巷","ALLEY":" ","HOUSE_NO":"１６號","E_COORD97":169379.66,"N_COORD97":2546318.6400000001,"ADDRESS":"公園路６６３巷１６號","OBJECTID":253344},"geometry":{"x":169379.66000000015,"y":2546318.6400000006}},{"attributes":{"ID":253349,"DIS_CODE":0,"TOWNNAME":"北區","LI":"正覺里","LIN":"18鄰","STREET":"公園路","SECT":" ","MAREA":" ","LANE":"６６３巷","ALLEY":" ","HOUSE_NO":"１８號","E_COORD97":169373.91,"N_COORD97":2546322.4300000002,"ADDRESS":"公園路６６３巷１８號","OBJECTID":253345},"geometry":{"x":169373.91000000108,"y":2546322.4299999997}},{"attributes":{"ID":253350,"DIS_CODE":0,"TOWNNAME":"北區","LI":"正覺里","LIN":"18鄰","STREET":"公園路","SECT":" ","MAREA":" ","LANE":"６６３巷","ALLEY":" ","HOUSE_NO":"２０號","E_COORD97":169368.70000000001,"N_COORD97":2546325.3900000001,"ADDRESS":"公園路６６３巷２０號","OBJECTID":253346},"geometry":{"x":169368.70000000112,"y":2546325.3900000025}},{"attributes":{"ID":253351,"DIS_CODE":0,"TOWNNAME":"歸仁區","LI":"後市里","LIN":"14鄰","STREET":"大吉一街","SECT":" ","MAREA":" ","LANE":"１２巷","ALLEY":" ","HOUSE_NO":"１３號","E_COORD97":177150.82999999999,"N_COORD97":2540786.0099999998,"ADDRESS":"大吉一街１２巷１３號","OBJECTID":253347},"geometry":{"x":177150.83000000007,"y":2540786.0100000035}},{"attributes":{"ID":253352,"DIS_CODE":0,"TOWNNAME":"歸仁區","LI":"後市里","LIN":"14鄰","STREET":"大吉一街","SECT":" ","MAREA":" ","LANE":"１２巷","ALLEY":" ","HOUSE_NO":"１５號","E_COORD97":177150.79000000001,"N_COORD97":2540790.3799999999,"ADDRESS":"大吉一街１２巷１５號","OBJECTID":253348},"geometry":{"x":177150.79000000097,"y":2540790.3800000008}},{"attributes":{"ID":253353,"DIS_CODE":0,"TOWNNAME":"歸仁區","LI":"後市里","LIN":"14鄰","STREET":"大吉一街","SECT":" ","MAREA":" ","LANE":"１２巷","ALLEY":" ","HOUSE_NO":"１７號","E_COORD97":177150.92000000001,"N_COORD97":2540794.7400000002,"ADDRESS":"大吉一街１２巷１７號","OBJECTID":253349},"geometry":{"x":177150.92000000179,"y":2540794.7400000002}},{"attributes":{"ID":253354,"DIS_CODE":0,"TOWNNAME":"歸仁區","LI":"後市里","LIN":"14鄰","STREET":"大吉一街","SECT":" ","MAREA":" ","LANE":"１２巷","ALLEY":" ","HOUSE_NO":"１９號","E_COORD97":177151.10000000001,"N_COORD97":2540798.96,"ADDRESS":"大吉一街１２巷１９號","OBJECTID":253350},"geometry":{"x":177151.10000000149,"y":2540798.9600000028}},{"attributes":{"ID":253355,"DIS_CODE":0,"TOWNNAME":"歸仁區","LI":"後市里","LIN":"14鄰","STREET":"大吉一街","SECT":" ","MAREA":" ","LANE":"１２巷","ALLEY":" ","HOUSE_NO":"９號","E_COORD97":177150.12,"N_COORD97":2540777.4500000002,"ADDRESS":"大吉一街１２巷９號","OBJECTID":253351},"geometry":{"x":177150.12000000104,"y":2540777.4500000011}},{"attributes":{"ID":253356,"DIS_CODE":0,"TOWNNAME":"歸仁區","LI":"大廟里","LIN":"14鄰","STREET":"大廟六街","SECT":" ","MAREA":" ","LANE":"２９６巷","ALLEY":" ","HOUSE_NO":"１００號","E_COORD97":176629.95000000001,"N_COORD97":2544398.7000000002,"ADDRESS":"大廟六街２９６巷１００號","OBJECTID":253352},"geometry":{"x":176629.95000000019,"y":2544398.700000003}},{"attributes":{"ID":253357,"DIS_CODE":0,"TOWNNAME":"歸仁區","LI":"西埔里","LIN":"14鄰","STREET":"大廟六街","SECT":" ","MAREA":" ","LANE":"２９６巷","ALLEY":" ","HOUSE_NO":"１０１號","E_COORD97":176719.73000000001,"N_COORD97":2544449.6200000001,"ADDRESS":"大廟六街２９６巷１０１號","OBJECTID":253353},"geometry":{"x":176719.73000000045,"y":2544449.6200000029}},{"attributes":{"ID":253358,"DIS_CODE":0,"TOWNNAME":"歸仁區","LI":"西埔里","LIN":"14鄰","STREET":"大廟六街","SECT":" ","MAREA":" ","LANE":"２９６巷","ALLEY":" ","HOUSE_NO":"９７號","E_COORD97":176648.67000000001,"N_COORD97":2544483.2599999998,"ADDRESS":"大廟六街２９６巷９７號","OBJECTID":253354},"geometry":{"x":176648.66999999993,"y":2544483.2600000035}},{"attributes":{"ID":253359,"DIS_CODE":0,"TOWNNAME":"歸仁區","LI":"武東里","LIN":"14鄰","STREET":"中正南路","SECT":"二段","MAREA":" ","LANE":"９２巷","ALLEY":" ","HOUSE_NO":"１０號","E_COORD97":175727.73999999999,"N_COORD97":2536286.3599999999,"ADDRESS":"中正南路二段９２巷１０號","OBJECTID":253355},"geometry":{"x":175727.74000000022,"y":2536286.3599999994}},{"attributes":{"ID":253360,"DIS_CODE":0,"TOWNNAME":"歸仁區","LI":"武東里","LIN":"14鄰","STREET":"中正南路","SECT":"二段","MAREA":" ","LANE":"９２巷","ALLEY":" ","HOUSE_NO":"２號","E_COORD97":175743.39999999999,"N_COORD97":2536279.7400000002,"ADDRESS":"中正南路二段９２巷２號","OBJECTID":253356},"geometry":{"x":175743.4000000013,"y":2536279.7400000021}},{"attributes":{"ID":253361,"DIS_CODE":0,"TOWNNAME":"歸仁區","LI":"武東里","LIN":"14鄰","STREET":"中正南路","SECT":"二段","MAREA":" ","LANE":"９２巷","ALLEY":" ","HOUSE_NO":"６號","E_COORD97":175737.87,"N_COORD97":2536281.4199999999,"ADDRESS":"中正南路二段９２巷６號","OBJECTID":253357},"geometry":{"x":175737.87000000104,"y":2536281.4200000018}},{"attributes":{"ID":253362,"DIS_CODE":0,"TOWNNAME":"歸仁區","LI":"武東里","LIN":"14鄰","STREET":"中正南路","SECT":"二段","MAREA":" ","LANE":"９２巷","ALLEY":" ","HOUSE_NO":"８號","E_COORD97":175732.39000000001,"N_COORD97":2536284.21,"ADDRESS":"中正南路二段９２巷８號","OBJECTID":253358},"geometry":{"x":175732.3900000006,"y":2536284.2100000028}},{"attributes":{"ID":253363,"DIS_CODE":0,"TOWNNAME":"歸仁區","LI":"六甲里","LIN":"14鄰","STREET":"六甲路","SECT":" ","MAREA":" ","LANE":"２５７巷","ALLEY":" ","HOUSE_NO":"２２號","E_COORD97":175881.23000000001,"N_COORD97":2539104.9900000002,"ADDRESS":"六甲路２５７巷２２號","OBJECTID":253359},"geometry":{"x":175881.23000000231,"y":2539104.9900000039}},{"attributes":{"ID":253364,"DIS_CODE":0,"TOWNNAME":"歸仁區","LI":"後市里","LIN":"14鄰","STREET":"大吉一街","SECT":" ","MAREA":" ","LANE":"１２巷","ALLEY":" ","HOUSE_NO":"５號","E_COORD97":177149.89000000001,"N_COORD97":2540769.1299999999,"ADDRESS":"大吉一街１２巷５號","OBJECTID":253360},"geometry":{"x":177149.88999999966,"y":2540769.1300000008}},{"attributes":{"ID":253365,"DIS_CODE":0,"TOWNNAME":"歸仁區","LI":"後市里","LIN":"14鄰","STREET":"大吉一街","SECT":" ","MAREA":" ","LANE":"１２巷","ALLEY":" ","HOUSE_NO":"７號","E_COORD97":177149.82000000001,"N_COORD97":2540773.4399999999,"ADDRESS":"大吉一街１２巷７號","OBJECTID":253361},"geometry":{"x":177149.8200000003,"y":2540773.4400000013}},{"attributes":{"ID":253366,"DIS_CODE":0,"TOWNNAME":"安平區","LI":"金城里","LIN":"14鄰","STREET":"世平四街","SECT":" ","MAREA":" ","LANE":"４９巷","ALLEY":" ","HOUSE_NO":"２８號","E_COORD97":162887.14000000001,"N_COORD97":2544095.8399999999,"ADDRESS":"世平四街４９巷２８號","OBJECTID":253362},"geometry":{"x":162887.13999999966,"y":2544095.8399999999}},{"attributes":{"ID":253367,"DIS_CODE":0,"TOWNNAME":"安平區","LI":"金城里","LIN":"14鄰","STREET":"世平四街","SECT":" ","MAREA":" ","LANE":"４９巷","ALLEY":" ","HOUSE_NO":"３０號","E_COORD97":162890.98000000001,"N_COORD97":2544091.5699999998,"ADDRESS":"世平四街４９巷３０號","OBJECTID":253363},"geometry":{"x":162890.98000000231,"y":2544091.5700000003}},{"attributes":{"ID":253368,"DIS_CODE":0,"TOWNNAME":"安平區","LI":"金城里","LIN":"14鄰","STREET":"世平四街","SECT":" ","MAREA":" ","LANE":"４９巷","ALLEY":" ","HOUSE_NO":"３２號","E_COORD97":162893.97,"N_COORD97":2544087.2999999998,"ADDRESS":"世平四街４９巷３２號","OBJECTID":253364},"geometry":{"x":162893.97000000067,"y":2544087.3000000045}},{"attributes":{"ID":253369,"DIS_CODE":0,"TOWNNAME":"安平區","LI":"金城里","LIN":"14鄰","STREET":"世平四街","SECT":" ","MAREA":" ","LANE":"４９巷","ALLEY":" ","HOUSE_NO":"３４號","E_COORD97":162903.79000000001,"N_COORD97":2544108.2200000002,"ADDRESS":"世平四街４９巷３４號","OBJECTID":253365},"geometry":{"x":162903.7900000019,"y":2544108.2200000044}},{"attributes":{"ID":253370,"DIS_CODE":0,"TOWNNAME":"安平區","LI":"金城里","LIN":"14鄰","STREET":"世平四街","SECT":" ","MAREA":" ","LANE":"４９巷","ALLEY":" ","HOUSE_NO":"３６號","E_COORD97":162906.35999999999,"N_COORD97":2544103.52,"ADDRESS":"世平四街４９巷３６號","OBJECTID":253366},"geometry":{"x":162906.36000000034,"y":2544103.5199999996}},{"attributes":{"ID":253371,"DIS_CODE":0,"TOWNNAME":"安平區","LI":"金城里","LIN":"14鄰","STREET":"世平四街","SECT":" ","MAREA":" ","LANE":"４９巷","ALLEY":" ","HOUSE_NO":"３８號","E_COORD97":162909.35000000001,"N_COORD97":2544099.25,"ADDRESS":"世平四街４９巷３８號","OBJECTID":253367},"geometry":{"x":162909.34999999963,"y":2544099.25}},{"attributes":{"ID":253372,"DIS_CODE":0,"TOWNNAME":"安平區","LI":"平安里","LIN":"14鄰","STREET":"安平路","SECT":" ","MAREA":" ","LANE":"５５０巷","ALLEY":" ","HOUSE_NO":"３０號","E_COORD97":165022.95999999999,"N_COORD97":2544462.1400000001,"ADDRESS":"安平路５５０巷３０號","OBJECTID":253368},"geometry":{"x":165022.95999999996,"y":2544462.1400000025}},{"attributes":{"ID":253373,"DIS_CODE":0,"TOWNNAME":"安平區","LI":"建平里","LIN":"14鄰","STREET":"建平十一街","SECT":" ","MAREA":" ","LANE":"１６４巷","ALLEY":" ","HOUSE_NO":"１６號","E_COORD97":166000.73000000001,"N_COORD97":2544005.6200000001,"ADDRESS":"建平十一街１６４巷１６號","OBJECTID":253369},"geometry":{"x":166000.73000000138,"y":2544005.6200000029}},{"attributes":{"ID":253374,"DIS_CODE":0,"TOWNNAME":"安平區","LI":"建平里","LIN":"14鄰","STREET":"建平十一街","SECT":" ","MAREA":" ","LANE":"１６４巷","ALLEY":" ","HOUSE_NO":"１８號","E_COORD97":166000.57000000001,"N_COORD97":2544010.2999999998,"ADDRESS":"建平十一街１６４巷１８號","OBJECTID":253370},"geometry":{"x":166000.5700000003,"y":2544010.3000000026}},{"attributes":{"ID":253375,"DIS_CODE":0,"TOWNNAME":"安平區","LI":"建平里","LIN":"14鄰","STREET":"建平十一街","SECT":" ","MAREA":" ","LANE":"１６４巷","ALLEY":" ","HOUSE_NO":"２０號","E_COORD97":166003.32000000001,"N_COORD97":2544016.2799999998,"ADDRESS":"建平十一街１６４巷２０號","OBJECTID":253371},"geometry":{"x":166003.32000000123,"y":2544016.2800000012}},{"attributes":{"ID":253376,"DIS_CODE":0,"TOWNNAME":"安平區","LI":"建平里","LIN":"14鄰","STREET":"建平十一街","SECT":" ","MAREA":" ","LANE":"１６４巷","ALLEY":" ","HOUSE_NO":"２２號","E_COORD97":166004.94,"N_COORD97":2544020,"ADDRESS":"建平十一街１６４巷２２號","OBJECTID":253372},"geometry":{"x":166004.94000000041,"y":2544020}},{"attributes":{"ID":253377,"DIS_CODE":0,"TOWNNAME":"安平區","LI":"建平里","LIN":"14鄰","STREET":"建平十一街","SECT":" ","MAREA":" ","LANE":"１６４巷","ALLEY":" ","HOUSE_NO":"２４號","E_COORD97":166005.42000000001,"N_COORD97":2544025.4900000002,"ADDRESS":"建平十一街１６４巷２４號","OBJECTID":253373},"geometry":{"x":166005.42000000086,"y":2544025.4900000021}},{"attributes":{"ID":253378,"DIS_CODE":0,"TOWNNAME":"仁德區","LI":"保安里","LIN":"12鄰","STREET":"開發四路","SECT":" ","MAREA":" ","LANE":" ","ALLEY":" ","HOUSE_NO":"２１號","E_COORD97":172834.46162399999,"N_COORD97":2535893.0635500001,"ADDRESS":"開發四路２１號","OBJECTID":253374},"geometry":{"x":172834.46162400115,"y":2535893.0635470022}},{"attributes":{"ID":253379,"DIS_CODE":0,"TOWNNAME":"安平區","LI":"建平里","LIN":"14鄰","STREET":"建平十一街","SECT":" ","MAREA":" ","LANE":"１６４巷","ALLEY":" ","HOUSE_NO":"２６號","E_COORD97":166006.54999999999,"N_COORD97":2544030.8199999998,"ADDRESS":"建平十一街１６４巷２６號","OBJECTID":253375},"geometry":{"x":166006.54999999981,"y":2544030.8200000022}},{"attributes":{"ID":253380,"DIS_CODE":0,"TOWNNAME":"歸仁區","LI":"看東里","LIN":"14鄰","STREET":"忠孝南路","SECT":" ","MAREA":" ","LANE":"２５巷","ALLEY":" ","HOUSE_NO":"２１號","E_COORD97":178583.76000000001,"N_COORD97":2540563.8900000001,"ADDRESS":"忠孝南路２５巷２１號","OBJECTID":253376},"geometry":{"x":178583.75999999978,"y":2540563.8899999987}},{"attributes":{"ID":253381,"DIS_CODE":0,"TOWNNAME":"北區","LI":"實踐里","LIN":"14鄰","STREET":"大武街","SECT":" ","MAREA":" ","LANE":"２０５巷","ALLEY":" ","HOUSE_NO":"２５號","E_COORD97":169596.35999999999,"N_COORD97":2546076.1299999999,"ADDRESS":"大武街２０５巷２５號","OBJECTID":253377},"geometry":{"x":169596.36000000127,"y":2546076.129999999}},{"attributes":{"ID":253382,"DIS_CODE":0,"TOWNNAME":"北區","LI":"實踐里","LIN":"14鄰","STREET":"大武街","SECT":" ","MAREA":" ","LANE":"２０５巷","ALLEY":" ","HOUSE_NO":"２７號","E_COORD97":169588.59,"N_COORD97":2546079.2799999998,"ADDRESS":"大武街２０５巷２７號","OBJECTID":253378},"geometry":{"x":169588.58999999985,"y":2546079.2799999993}},{"attributes":{"ID":253383,"DIS_CODE":0,"TOWNNAME":"北區","LI":"實踐里","LIN":"14鄰","STREET":"大武街","SECT":" ","MAREA":" ","LANE":"１９９巷","ALLEY":" ","HOUSE_NO":"２號","E_COORD97":169614.35999999999,"N_COORD97":2546054.7400000002,"ADDRESS":"大武街１９９巷２號","OBJECTID":253379},"geometry":{"x":169614.36000000034,"y":2546054.7400000021}},{"attributes":{"ID":253384,"DIS_CODE":0,"TOWNNAME":"新營區","LI":"南興里","LIN":"14鄰","STREET":"興農街","SECT":" ","MAREA":" ","LANE":"１３８巷","ALLEY":" ","HOUSE_NO":"２４號","E_COORD97":179148.19,"N_COORD97":2577571.1899999999,"ADDRESS":"興農街１３８巷２４號","OBJECTID":253380},"geometry":{"x":179148.19000000227,"y":2577571.1900000013}},{"attributes":{"ID":253385,"DIS_CODE":0,"TOWNNAME":"新營區","LI":"忠政里","LIN":"14鄰","STREET":"府西路","SECT":" ","MAREA":" ","LANE":"２３０巷","ALLEY":" ","HOUSE_NO":"７號","E_COORD97":179843.97,"N_COORD97":2579610.02,"ADDRESS":"府西路２３０巷７號","OBJECTID":253381},"geometry":{"x":179843.9700000016,"y":2579610.0200000014}},{"attributes":{"ID":253386,"DIS_CODE":0,"TOWNNAME":"新營區","LI":"忠政里","LIN":"14鄰","STREET":"府西路","SECT":" ","MAREA":" ","LANE":"２３０巷","ALLEY":" ","HOUSE_NO":"８號","E_COORD97":179838.84,"N_COORD97":2579598.9700000002,"ADDRESS":"府西路２３０巷８號","OBJECTID":253382},"geometry":{"x":179838.84000000078,"y":2579598.9700000007}},{"attributes":{"ID":253387,"DIS_CODE":0,"TOWNNAME":"新營區","LI":"中營里","LIN":"14鄰","STREET":"東昇街","SECT":" ","MAREA":" ","LANE":"１７７巷","ALLEY":" ","HOUSE_NO":"２１號","E_COORD97":181895.92000000001,"N_COORD97":2579161.8999999999,"ADDRESS":"東昇街１７７巷２１號","OBJECTID":253383},"geometry":{"x":181895.92000000086,"y":2579161.9000000004}},{"attributes":{"ID":253388,"DIS_CODE":0,"TOWNNAME":"新營區","LI":"民生里","LIN":"14鄰","STREET":"公園路","SECT":"一段","MAREA":" ","LANE":"１６０巷","ALLEY":" ","HOUSE_NO":"８０號","E_COORD97":178846.64000000001,"N_COORD97":2578252.6200000001,"ADDRESS":"公園路一段１６０巷８０號","OBJECTID":253384},"geometry":{"x":178846.6400000006,"y":2578252.620000001}},{"attributes":{"ID":253389,"DIS_CODE":0,"TOWNNAME":"新營區","LI":"中營里","LIN":"14鄰","STREET":"東昇街","SECT":" ","MAREA":" ","LANE":"１７７巷","ALLEY":" ","HOUSE_NO":"３２號","E_COORD97":181895.04999999999,"N_COORD97":2579192.9100000001,"ADDRESS":"東昇街１７７巷３２號","OBJECTID":253385},"geometry":{"x":181895.05000000075,"y":2579192.9100000001}},{"attributes":{"ID":253390,"DIS_CODE":0,"TOWNNAME":"新營區","LI":"中營里","LIN":"14鄰","STREET":"東昇街","SECT":" ","MAREA":" ","LANE":"１７７巷","ALLEY":" ","HOUSE_NO":"３０號","E_COORD97":181918.48999999999,"N_COORD97":2579173.98,"ADDRESS":"東昇街１７７巷３０號","OBJECTID":253386},"geometry":{"x":181918.49000000022,"y":2579173.9800000023}},{"attributes":{"ID":253391,"DIS_CODE":0,"TOWNNAME":"新營區","LI":"新東里","LIN":"14鄰","STREET":"東興六街","SECT":" ","MAREA":" ","LANE":"８９巷","ALLEY":" ","HOUSE_NO":"８號","E_COORD97":180965.38,"N_COORD97":2579257.02,"ADDRESS":"東興六街８９巷８號","OBJECTID":253387},"geometry":{"x":180965.38000000082,"y":2579257.0200000014}},{"attributes":{"ID":253392,"DIS_CODE":0,"TOWNNAME":"新營區","LI":"中營里","LIN":"14鄰","STREET":"東昇街","SECT":" ","MAREA":" ","LANE":"１７７巷","ALLEY":" ","HOUSE_NO":"２９號","E_COORD97":181864.45999999999,"N_COORD97":2579217.4100000001,"ADDRESS":"東昇街１７７巷２９號","OBJECTID":253388},"geometry":{"x":181864.45999999996,"y":2579217.4100000039}},{"attributes":{"ID":253393,"DIS_CODE":0,"TOWNNAME":"新營區","LI":"三仙里","LIN":"14鄰","STREET":"中華路","SECT":" ","MAREA":" ","LANE":"５２巷","ALLEY":" ","HOUSE_NO":"２０號之２","E_COORD97":179542.35000000001,"N_COORD97":2578239.3900000001,"ADDRESS":"中華路５２巷２０號之２","OBJECTID":253389},"geometry":{"x":179542.34999999963,"y":2578239.3900000025}},{"attributes":{"ID":253394,"DIS_CODE":0,"TOWNNAME":"新營區","LI":"三仙里","LIN":"14鄰","STREET":"中華路","SECT":" ","MAREA":" ","LANE":"５２巷","ALLEY":" ","HOUSE_NO":"１３號","E_COORD97":179494.03,"N_COORD97":2578247.3100000001,"ADDRESS":"中華路５２巷１３號","OBJECTID":253390},"geometry":{"x":179494.03000000026,"y":2578247.3100000005}},{"attributes":{"ID":253395,"DIS_CODE":0,"TOWNNAME":"新營區","LI":"三仙里","LIN":"14鄰","STREET":"中華路","SECT":" ","MAREA":" ","LANE":"５２巷","ALLEY":" ","HOUSE_NO":"２０號之３","E_COORD97":179538.23000000001,"N_COORD97":2578240.52,"ADDRESS":"中華路５２巷２０號之３","OBJECTID":253391},"geometry":{"x":179538.23000000138,"y":2578240.5200000014}},{"attributes":{"ID":253396,"DIS_CODE":0,"TOWNNAME":"新營區","LI":"南興里","LIN":"14鄰","STREET":"興農街","SECT":" ","MAREA":" ","LANE":"１３８巷","ALLEY":" ","HOUSE_NO":"２２號","E_COORD97":179159.44,"N_COORD97":2577571.1400000001,"ADDRESS":"興農街１３８巷２２號","OBJECTID":253392},"geometry":{"x":179159.44000000041,"y":2577571.1400000006}},{"attributes":{"ID":253397,"DIS_CODE":0,"TOWNNAME":"新營區","LI":"中營里","LIN":"14鄰","STREET":"東昇街","SECT":" ","MAREA":" ","LANE":"１７７巷","ALLEY":" ","HOUSE_NO":"５號","E_COORD97":181901.39999999999,"N_COORD97":2579078.8100000001,"ADDRESS":"東昇街１７７巷５號","OBJECTID":253393},"geometry":{"x":181901.40000000224,"y":2579078.8100000005}},{"attributes":{"ID":253398,"DIS_CODE":0,"TOWNNAME":"新營區","LI":"民生里","LIN":"14鄰","STREET":"公園路","SECT":"一段","MAREA":" ","LANE":"１６０巷","ALLEY":" ","HOUSE_NO":"３１號","E_COORD97":178858.62,"N_COORD97":2578189.4300000002,"ADDRESS":"公園路一段１６０巷３１號","OBJECTID":253394},"geometry":{"x":178858.62000000104,"y":2578189.4300000034}},{"attributes":{"ID":253399,"DIS_CODE":0,"TOWNNAME":"楠西區","LI":"東勢里","LIN":"14鄰","STREET":"茄拔路","SECT":" ","MAREA":" ","LANE":"１７７巷","ALLEY":" ","HOUSE_NO":"１６號","E_COORD97":197448.73000000001,"N_COORD97":2563808.2000000002,"ADDRESS":"茄拔路１７７巷１６號","OBJECTID":253395},"geometry":{"x":197448.73000000045,"y":2563808.1999999974}},{"attributes":{"ID":253400,"DIS_CODE":0,"TOWNNAME":"新化區","LI":"知義里","LIN":"14鄰","STREET":"中正路","SECT":" ","MAREA":" ","LANE":"２００巷","ALLEY":" ","HOUSE_NO":"２１號","E_COORD97":179261.85999999999,"N_COORD97":2547651.25,"ADDRESS":"中正路２００巷２１號","OBJECTID":253396},"geometry":{"x":179261.86000000034,"y":2547651.2500000019}},{"attributes":{"ID":253401,"DIS_CODE":0,"TOWNNAME":"新化區","LI":"知義里","LIN":"14鄰","STREET":"中正路","SECT":" ","MAREA":" ","LANE":"２００巷","ALLEY":" ","HOUSE_NO":"６７號","E_COORD97":179295.76000000001,"N_COORD97":2547314.25,"ADDRESS":"中正路２００巷６７號","OBJECTID":253397},"geometry":{"x":179295.75999999978,"y":2547314.25}},{"attributes":{"ID":253402,"DIS_CODE":0,"TOWNNAME":"新化區","LI":"太平里","LIN":"14鄰","STREET":"太平街","SECT":" ","MAREA":" ","LANE":"４８巷","ALLEY":" ","HOUSE_NO":"３號","E_COORD97":178784.47,"N_COORD97":2548842.25,"ADDRESS":"太平街４８巷３號","OBJECTID":253398},"geometry":{"x":178784.4700000016,"y":2548842.25}},{"attributes":{"ID":253403,"DIS_CODE":0,"TOWNNAME":"新化區","LI":"東榮里","LIN":"14鄰","STREET":"中興路","SECT":" ","MAREA":" ","LANE":"５８０巷","ALLEY":" ","HOUSE_NO":"１７號","E_COORD97":179847.76000000001,"N_COORD97":2548015.25,"ADDRESS":"中興路５８０巷１７號","OBJECTID":253399},"geometry":{"x":179847.76000000071,"y":2548015.25}},{"attributes":{"ID":253404,"DIS_CODE":0,"TOWNNAME":"新化區","LI":"協興里","LIN":"14鄰","STREET":"太平街","SECT":" ","MAREA":" ","LANE":"１５０巷","ALLEY":" ","HOUSE_NO":"２７號","E_COORD97":178326.67000000001,"N_COORD97":2548765.25,"ADDRESS":"太平街１５０巷２７號","OBJECTID":253400},"geometry":{"x":178326.66999999993,"y":2548765.25}}]}