{"displayFieldName":"TOWNNAME","fieldAliases":{"ID":"ID","DIS_CODE":"DIS_CODE","TOWNNAME":"TOWNNAME","LI":"LI","LIN":"LIN","STREET":"STREET","SECT":"SECT","MAREA":"MAREA","LANE":"LANE","ALLEY":"ALLEY","HOUSE_NO":"HOUSE_NO","E_COORD97":"E_COORD97","N_COORD97":"N_COORD97","ADDRESS":"ADDRESS","OBJECTID":"OBJECTID"},"geometryType":"esriGeometryPoint","spatialReference":{"wkid":102443,"latestWkid":3826},"fields":[{"name":"ID","type":"esriFieldTypeDouble","alias":"ID"},{"name":"DIS_CODE","type":"esriFieldTypeInteger","alias":"DIS_CODE"},{"name":"TOWNNAME","type":"esriFieldTypeString","alias":"TOWNNAME","length":8},{"name":"LI","type":"esriFieldTypeString","alias":"LI","length":8},{"name":"LIN","type":"esriFieldTypeString","alias":"LIN","length":12},{"name":"STREET","type":"esriFieldTypeString","alias":"STREET","length":20},{"name":"SECT","type":"esriFieldTypeString","alias":"SECT","length":8},{"name":"MAREA","type":"esriFieldTypeString","alias":"MAREA","length":12},{"name":"LANE","type":"esriFieldTypeString","alias":"LANE","length":10},{"name":"ALLEY","type":"esriFieldTypeString","alias":"ALLEY","length":10},{"name":"HOUSE_NO","type":"esriFieldTypeString","alias":"HOUSE_NO","length":20},{"name":"E_COORD97","type":"esriFieldTypeDouble","alias":"E_COORD97"},{"name":"N_COORD97","type":"esriFieldTypeDouble","alias":"N_COORD97"},{"name":"ADDRESS","type":"esriFieldTypeString","alias":"ADDRESS","length":50},{"name":"OBJECTID","type":"esriFieldTypeOID","alias":"OBJECTID"}],"features":[{"attributes":{"ID":322210,"DIS_CODE":0,"TOWNNAME":"永康區","LI":"西橋里","LIN":"4鄰","STREET":"中山南路","SECT":" ","MAREA":" ","LANE":"４３巷","ALLEY":" ","HOUSE_NO":"２６號","E_COORD97":170731.25,"N_COORD97":2545900.8999999999,"ADDRESS":"中山南路４３巷２６號","OBJECTID":322201},"geometry":{"x":170731.25000000093,"y":2545900.9000000022}},{"attributes":{"ID":322211,"DIS_CODE":0,"TOWNNAME":"永康區","LI":"西橋里","LIN":"4鄰","STREET":"中山南路","SECT":" ","MAREA":" ","LANE":"４３巷","ALLEY":" ","HOUSE_NO":"１６號","E_COORD97":170742.07999999999,"N_COORD97":2545882.1400000001,"ADDRESS":"中山南路４３巷１６號","OBJECTID":322202},"geometry":{"x":170742.08000000194,"y":2545882.1400000025}},{"attributes":{"ID":322212,"DIS_CODE":0,"TOWNNAME":"永康區","LI":"西勢里","LIN":"25鄰","STREET":"廣興街","SECT":" ","MAREA":" ","LANE":"２６巷","ALLEY":" ","HOUSE_NO":"６８號","E_COORD97":175985.95999999999,"N_COORD97":2546396.2400000002,"ADDRESS":"廣興街２６巷６８號","OBJECTID":322203},"geometry":{"x":175985.96000000183,"y":2546396.2400000039}},{"attributes":{"ID":322213,"DIS_CODE":0,"TOWNNAME":"永康區","LI":"西橋里","LIN":"4鄰","STREET":"中山南路","SECT":" ","MAREA":" ","LANE":"４３巷","ALLEY":" ","HOUSE_NO":"１８號","E_COORD97":170740.13,"N_COORD97":2545885.6400000001,"ADDRESS":"中山南路４３巷１８號","OBJECTID":322204},"geometry":{"x":170740.13000000082,"y":2545885.6400000025}},{"attributes":{"ID":322214,"DIS_CODE":0,"TOWNNAME":"永康區","LI":"成功里","LIN":"38鄰","STREET":"中華路","SECT":" ","MAREA":" ","LANE":"１５４巷","ALLEY":" ","HOUSE_NO":"８４號","E_COORD97":171809,"N_COORD97":2544896.4399999999,"ADDRESS":"中華路１５４巷８４號","OBJECTID":322205},"geometry":{"x":171809.00000000093,"y":2544896.4400000013}},{"attributes":{"ID":322215,"DIS_CODE":0,"TOWNNAME":"永康區","LI":"安康里","LIN":"20鄰","STREET":"中華西街","SECT":" ","MAREA":" ","LANE":"１２２巷","ALLEY":" ","HOUSE_NO":"７８號","E_COORD97":170888.87,"N_COORD97":2546223.25,"ADDRESS":"中華西街１２２巷７８號","OBJECTID":322206},"geometry":{"x":170888.87000000011,"y":2546223.2500000019}},{"attributes":{"ID":322216,"DIS_CODE":0,"TOWNNAME":"永康區","LI":"成功里","LIN":"41鄰","STREET":"中華路","SECT":" ","MAREA":" ","LANE":"１５４巷","ALLEY":" ","HOUSE_NO":"７號","E_COORD97":171660.79000000001,"N_COORD97":2544886.5,"ADDRESS":"中華路１５４巷７號","OBJECTID":322207},"geometry":{"x":171660.79000000004,"y":2544886.5000000019}},{"attributes":{"ID":322217,"DIS_CODE":0,"TOWNNAME":"永康區","LI":"成功里","LIN":"34鄰","STREET":"中華一路","SECT":" ","MAREA":" ","LANE":"３９巷","ALLEY":" ","HOUSE_NO":"２號","E_COORD97":171859.73999999999,"N_COORD97":2544962.75,"ADDRESS":"中華一路３９巷２號","OBJECTID":322208},"geometry":{"x":171859.74000000022,"y":2544962.7500000019}},{"attributes":{"ID":322218,"DIS_CODE":0,"TOWNNAME":"永康區","LI":"安康里","LIN":"18鄰","STREET":"中華西街","SECT":" ","MAREA":" ","LANE":" ","ALLEY":" ","HOUSE_NO":"８２號","E_COORD97":170753.82999999999,"N_COORD97":2546071.7400000002,"ADDRESS":"中華西街８２號","OBJECTID":322209},"geometry":{"x":170753.82999999914,"y":2546071.7400000021}},{"attributes":{"ID":322219,"DIS_CODE":0,"TOWNNAME":"永康區","LI":"安康里","LIN":"18鄰","STREET":"中華西街","SECT":" ","MAREA":" ","LANE":" ","ALLEY":" ","HOUSE_NO":"４６號","E_COORD97":170797.48999999999,"N_COORD97":2545999,"ADDRESS":"中華西街４６號","OBJECTID":322210},"geometry":{"x":170797.49000000115,"y":2545999.0000000019}},{"attributes":{"ID":322220,"DIS_CODE":0,"TOWNNAME":"永康區","LI":"甲頂里","LIN":"26鄰","STREET":"中央路","SECT":" ","MAREA":" ","LANE":" ","ALLEY":" ","HOUSE_NO":"２１號","E_COORD97":169635.10000000001,"N_COORD97":2546998.3999999999,"ADDRESS":"中央路２１號","OBJECTID":322211},"geometry":{"x":169635.10000000056,"y":2546998.4000000004}},{"attributes":{"ID":322221,"DIS_CODE":0,"TOWNNAME":"仁德區","LI":"太子里","LIN":"32鄰","STREET":"太子三街","SECT":" ","MAREA":" ","LANE":" ","ALLEY":" ","HOUSE_NO":"２２號","E_COORD97":173980.81,"N_COORD97":2543460.75,"ADDRESS":"太子三街２２號","OBJECTID":322212},"geometry":{"x":173980.80999999959,"y":2543460.7500000019}},{"attributes":{"ID":322222,"DIS_CODE":0,"TOWNNAME":"仁德區","LI":"仁義里","LIN":"4鄰","STREET":"仁義三街","SECT":" ","MAREA":" ","LANE":" ","ALLEY":" ","HOUSE_NO":"１７７號","E_COORD97":173809.95000000001,"N_COORD97":2541129.77,"ADDRESS":"仁義三街１７７號","OBJECTID":322213},"geometry":{"x":173809.95000000112,"y":2541129.7699999977}},{"attributes":{"ID":322223,"DIS_CODE":0,"TOWNNAME":"仁德區","LI":"仁義里","LIN":"18鄰","STREET":"正義路","SECT":" ","MAREA":" ","LANE":" ","ALLEY":" ","HOUSE_NO":"２３９號","E_COORD97":174001.70999999999,"N_COORD97":2541396.0099999998,"ADDRESS":"正義路２３９號","OBJECTID":322214},"geometry":{"x":174001.71000000089,"y":2541396.0099999998}},{"attributes":{"ID":322224,"DIS_CODE":0,"TOWNNAME":"仁德區","LI":"仁義里","LIN":"26鄰","STREET":"中山路","SECT":" ","MAREA":" ","LANE":" ","ALLEY":" ","HOUSE_NO":"５６６號","E_COORD97":173338.70999999999,"N_COORD97":2541341.25,"ADDRESS":"中山路５６６號","OBJECTID":322215},"geometry":{"x":173338.71000000089,"y":2541341.2500000019}},{"attributes":{"ID":322225,"DIS_CODE":0,"TOWNNAME":"仁德區","LI":"仁德里","LIN":"39鄰","STREET":"文山路","SECT":" ","MAREA":" ","LANE":" ","ALLEY":" ","HOUSE_NO":"２７５號","E_COORD97":172616.32000000001,"N_COORD97":2541757.8300000001,"ADDRESS":"文山路２７５號","OBJECTID":322216},"geometry":{"x":172616.32000000123,"y":2541757.8300000019}},{"attributes":{"ID":322226,"DIS_CODE":0,"TOWNNAME":"仁德區","LI":"仁德里","LIN":"39鄰","STREET":"文山路","SECT":" ","MAREA":" ","LANE":" ","ALLEY":" ","HOUSE_NO":"２０３號","E_COORD97":172675.16,"N_COORD97":2541779.5800000001,"ADDRESS":"文山路２０３號","OBJECTID":322217},"geometry":{"x":172675.16000000015,"y":2541779.5800000038}},{"attributes":{"ID":322227,"DIS_CODE":0,"TOWNNAME":"歸仁區","LI":"武東里","LIN":"9鄰","STREET":"大武路","SECT":"三段","MAREA":" ","LANE":" ","ALLEY":" ","HOUSE_NO":"２８３號","E_COORD97":175022.16475500001,"N_COORD97":2535259.3022500002,"ADDRESS":"大武路三段２８３號","OBJECTID":322218},"geometry":{"x":175022.16475500166,"y":2535259.302248003}},{"attributes":{"ID":322228,"DIS_CODE":0,"TOWNNAME":"仁德區","LI":"仁德里","LIN":"4鄰","STREET":"仁中二街","SECT":" ","MAREA":" ","LANE":" ","ALLEY":" ","HOUSE_NO":"１６號","E_COORD97":173326.39999999999,"N_COORD97":2540562.2400000002,"ADDRESS":"仁中二街１６號","OBJECTID":322219},"geometry":{"x":173326.40000000037,"y":2540562.2400000021}},{"attributes":{"ID":322229,"DIS_CODE":0,"TOWNNAME":"仁德區","LI":"仁義里","LIN":"18鄰","STREET":"正義路","SECT":" ","MAREA":" ","LANE":" ","ALLEY":" ","HOUSE_NO":"１８２號","E_COORD97":173876.28,"N_COORD97":2541387.5099999998,"ADDRESS":"正義路１８２號","OBJECTID":322220},"geometry":{"x":173876.28000000026,"y":2541387.5100000016}},{"attributes":{"ID":322230,"DIS_CODE":0,"TOWNNAME":"仁德區","LI":"仁義里","LIN":"26鄰","STREET":"中山路","SECT":" ","MAREA":" ","LANE":" ","ALLEY":" ","HOUSE_NO":"５３８號","E_COORD97":173396.19,"N_COORD97":2541334.5,"ADDRESS":"中山路５３８號","OBJECTID":322221},"geometry":{"x":173396.19000000041,"y":2541334.5}},{"attributes":{"ID":322231,"DIS_CODE":0,"TOWNNAME":"仁德區","LI":"仁德里","LIN":"39鄰","STREET":"文山路","SECT":" ","MAREA":" ","LANE":" ","ALLEY":" ","HOUSE_NO":"１９６號","E_COORD97":172698.45000000001,"N_COORD97":2541796.3199999998,"ADDRESS":"文山路１９６號","OBJECTID":322222},"geometry":{"x":172698.45000000112,"y":2541796.3200000022}},{"attributes":{"ID":322232,"DIS_CODE":0,"TOWNNAME":"白河區","LI":"永安里","LIN":"4鄰","STREET":"九龍街","SECT":" ","MAREA":" ","LANE":" ","ALLEY":" ","HOUSE_NO":"８４號","E_COORD97":190030.94,"N_COORD97":2583038.7200000002,"ADDRESS":"九龍街８４號","OBJECTID":322223},"geometry":{"x":190030.94000000041,"y":2583038.7200000007}},{"attributes":{"ID":322233,"DIS_CODE":0,"TOWNNAME":"仁德區","LI":"仁義里","LIN":"25鄰","STREET":"中山路","SECT":" ","MAREA":" ","LANE":" ","ALLEY":" ","HOUSE_NO":"５０４號","E_COORD97":173490.98999999999,"N_COORD97":2541322.2400000002,"ADDRESS":"中山路５０４號","OBJECTID":322224},"geometry":{"x":173490.99000000115,"y":2541322.2400000021}},{"attributes":{"ID":322234,"DIS_CODE":0,"TOWNNAME":"仁德區","LI":"仁德里","LIN":"39鄰","STREET":"文山路","SECT":" ","MAREA":" ","LANE":" ","ALLEY":" ","HOUSE_NO":"２６０號","E_COORD97":172616.57999999999,"N_COORD97":2541828.5699999998,"ADDRESS":"文山路２６０號","OBJECTID":322225},"geometry":{"x":172616.58000000007,"y":2541828.5700000022}},{"attributes":{"ID":322235,"DIS_CODE":0,"TOWNNAME":"仁德區","LI":"仁義里","LIN":"4鄰","STREET":"仁義三街","SECT":" ","MAREA":" ","LANE":" ","ALLEY":" ","HOUSE_NO":"１７９號","E_COORD97":173813.51000000001,"N_COORD97":2541129.77,"ADDRESS":"仁義三街１７９號","OBJECTID":322226},"geometry":{"x":173813.50999999978,"y":2541129.7699999977}},{"attributes":{"ID":322236,"DIS_CODE":0,"TOWNNAME":"永康區","LI":"永康里","LIN":"5鄰","STREET":"中山北路","SECT":" ","MAREA":" ","LANE":"１８巷","ALLEY":" ","HOUSE_NO":"７號","E_COORD97":173956.20999999999,"N_COORD97":2547324.4900000002,"ADDRESS":"中山北路１８巷７號","OBJECTID":322227},"geometry":{"x":173956.20999999996,"y":2547324.4900000021}},{"attributes":{"ID":322237,"DIS_CODE":0,"TOWNNAME":"永康區","LI":"永康里","LIN":"4鄰","STREET":"永中街","SECT":" ","MAREA":" ","LANE":"１０５巷","ALLEY":" ","HOUSE_NO":"９號","E_COORD97":173993.95999999999,"N_COORD97":2547335.4900000002,"ADDRESS":"永中街１０５巷９號","OBJECTID":322228},"geometry":{"x":173993.95999999996,"y":2547335.4900000002}},{"attributes":{"ID":322238,"DIS_CODE":0,"TOWNNAME":"永康區","LI":"正強里","LIN":"38鄰","STREET":"正強街","SECT":" ","MAREA":" ","LANE":"３０７巷","ALLEY":" ","HOUSE_NO":"３５號","E_COORD97":173166.07999999999,"N_COORD97":2548093.1299999999,"ADDRESS":"正強街３０７巷３５號","OBJECTID":322229},"geometry":{"x":173166.07999999914,"y":2548093.129999999}},{"attributes":{"ID":322239,"DIS_CODE":0,"TOWNNAME":"永康區","LI":"永康里","LIN":"18鄰","STREET":"永中街","SECT":" ","MAREA":" ","LANE":"１３８巷","ALLEY":" ","HOUSE_NO":"１６號","E_COORD97":174026.84,"N_COORD97":2547236.75,"ADDRESS":"永中街１３８巷１６號","OBJECTID":322230},"geometry":{"x":174026.83999999985,"y":2547236.7500000037}},{"attributes":{"ID":322240,"DIS_CODE":0,"TOWNNAME":"永康區","LI":"永康里","LIN":"20鄰","STREET":"永中街","SECT":" ","MAREA":" ","LANE":"１６６巷","ALLEY":" ","HOUSE_NO":"２９號","E_COORD97":174106.54000000001,"N_COORD97":2547261.4500000002,"ADDRESS":"永中街１６６巷２９號","OBJECTID":322231},"geometry":{"x":174106.54000000004,"y":2547261.4499999974}},{"attributes":{"ID":322241,"DIS_CODE":0,"TOWNNAME":"永康區","LI":"永康里","LIN":"25鄰","STREET":"埔聖街","SECT":" ","MAREA":" ","LANE":"１６２巷","ALLEY":" ","HOUSE_NO":"２８號","E_COORD97":174135.73000000001,"N_COORD97":2547576.71,"ADDRESS":"埔聖街１６２巷２８號","OBJECTID":322232},"geometry":{"x":174135.73000000138,"y":2547576.709999999}},{"attributes":{"ID":322242,"DIS_CODE":0,"TOWNNAME":"永康區","LI":"永康里","LIN":"38鄰","STREET":"大同街","SECT":" ","MAREA":" ","LANE":"７１５巷","ALLEY":" ","HOUSE_NO":"２３號","E_COORD97":174449.28,"N_COORD97":2546662.3799999999,"ADDRESS":"大同街７１５巷２３號","OBJECTID":322233},"geometry":{"x":174449.28000000026,"y":2546662.3800000008}},{"attributes":{"ID":322243,"DIS_CODE":0,"TOWNNAME":"中西區","LI":"五妃里","LIN":"7鄰","STREET":"南門路","SECT":" ","MAREA":" ","LANE":" ","ALLEY":" ","HOUSE_NO":"２２９之３號","E_COORD97":168400.23914699999,"N_COORD97":2542720.79837,"ADDRESS":"南門路２２９之３號","OBJECTID":322234},"geometry":{"x":168400.23914700095,"y":2542720.7983689997}},{"attributes":{"ID":322244,"DIS_CODE":0,"TOWNNAME":"永康區","LI":"安康里","LIN":"20鄰","STREET":"中華路","SECT":" ","MAREA":" ","LANE":"６６１巷","ALLEY":" ","HOUSE_NO":"１８號之１４","E_COORD97":170902.89999999999,"N_COORD97":2546177.54,"ADDRESS":"中華路６６１巷１８號之１４","OBJECTID":322235},"geometry":{"x":170902.90000000224,"y":2546177.540000001}},{"attributes":{"ID":322245,"DIS_CODE":0,"TOWNNAME":"永康區","LI":"成功里","LIN":"13鄰","STREET":"忠孝路","SECT":" ","MAREA":" ","LANE":"２０７巷","ALLEY":" ","HOUSE_NO":"３７號","E_COORD97":171984.10000000001,"N_COORD97":2544914.9900000002,"ADDRESS":"忠孝路２０７巷３７號","OBJECTID":322236},"geometry":{"x":171984.10000000149,"y":2544914.9900000002}},{"attributes":{"ID":322246,"DIS_CODE":0,"TOWNNAME":"永康區","LI":"正強里","LIN":"38鄰","STREET":"正強街","SECT":" ","MAREA":" ","LANE":"３０７巷","ALLEY":" ","HOUSE_NO":"２１號","E_COORD97":173198.48000000001,"N_COORD97":2548100.3799999999,"ADDRESS":"正強街３０７巷２１號","OBJECTID":322237},"geometry":{"x":173198.48000000138,"y":2548100.3800000008}},{"attributes":{"ID":322247,"DIS_CODE":0,"TOWNNAME":"永康區","LI":"西灣里","LIN":"26鄰","STREET":"大勇路","SECT":" ","MAREA":" ","LANE":" ","ALLEY":" ","HOUSE_NO":"１４２號之４","E_COORD97":174307.42000000001,"N_COORD97":2545710.0499999998,"ADDRESS":"大勇路１４２號之４","OBJECTID":322238},"geometry":{"x":174307.41999999993,"y":2545710.0500000026}},{"attributes":{"ID":322248,"DIS_CODE":0,"TOWNNAME":"永康區","LI":"永康里","LIN":"5鄰","STREET":"永中街","SECT":" ","MAREA":" ","LANE":" ","ALLEY":" ","HOUSE_NO":"１０３號","E_COORD97":173969.75,"N_COORD97":2547290.2400000002,"ADDRESS":"永中街１０３號","OBJECTID":322239},"geometry":{"x":173969.75,"y":2547290.2400000002}},{"attributes":{"ID":322249,"DIS_CODE":0,"TOWNNAME":"永康區","LI":"永康里","LIN":"26鄰","STREET":"中山北路","SECT":" ","MAREA":" ","LANE":" ","ALLEY":" ","HOUSE_NO":"１２０號","E_COORD97":174158.41,"N_COORD97":2547472.9500000002,"ADDRESS":"中山北路１２０號","OBJECTID":322240},"geometry":{"x":174158.41000000015,"y":2547472.9500000011}},{"attributes":{"ID":322250,"DIS_CODE":0,"TOWNNAME":"永康區","LI":"永康里","LIN":"26鄰","STREET":"中山北路","SECT":" ","MAREA":" ","LANE":" ","ALLEY":" ","HOUSE_NO":"１３０號","E_COORD97":174194.45000000001,"N_COORD97":2547491.3399999999,"ADDRESS":"中山北路１３０號","OBJECTID":322241},"geometry":{"x":174194.45000000205,"y":2547491.3400000017}},{"attributes":{"ID":322251,"DIS_CODE":0,"TOWNNAME":"永康區","LI":"安康里","LIN":"25鄰","STREET":"大橋一街","SECT":" ","MAREA":" ","LANE":" ","ALLEY":" ","HOUSE_NO":"１３８號","E_COORD97":170846.89999999999,"N_COORD97":2546368.7400000002,"ADDRESS":"大橋一街１３８號","OBJECTID":322242},"geometry":{"x":170846.89999999944,"y":2546368.7399999984}},{"attributes":{"ID":322252,"DIS_CODE":0,"TOWNNAME":"永康區","LI":"永康里","LIN":"5鄰","STREET":"永中街","SECT":" ","MAREA":" ","LANE":" ","ALLEY":" ","HOUSE_NO":"９１號","E_COORD97":173960.79000000001,"N_COORD97":2547277,"ADDRESS":"永中街９１號","OBJECTID":322243},"geometry":{"x":173960.79000000004,"y":2547277.0000000019}},{"attributes":{"ID":322253,"DIS_CODE":0,"TOWNNAME":"永康區","LI":"永康里","LIN":"39鄰","STREET":"文化路","SECT":" ","MAREA":" ","LANE":" ","ALLEY":" ","HOUSE_NO":"２６號","E_COORD97":174329.73999999999,"N_COORD97":2546374.5699999998,"ADDRESS":"文化路２６號","OBJECTID":322244},"geometry":{"x":174329.73999999929,"y":2546374.5700000022}},{"attributes":{"ID":322254,"DIS_CODE":0,"TOWNNAME":"永康區","LI":"永康里","LIN":"25鄰","STREET":"中山北路","SECT":" ","MAREA":" ","LANE":" ","ALLEY":" ","HOUSE_NO":"１４５號","E_COORD97":174169.82999999999,"N_COORD97":2547512.6299999999,"ADDRESS":"中山北路１４５號","OBJECTID":322245},"geometry":{"x":174169.83000000194,"y":2547512.6300000008}},{"attributes":{"ID":322255,"DIS_CODE":0,"TOWNNAME":"永康區","LI":"安康里","LIN":"25鄰","STREET":"中華路","SECT":" ","MAREA":" ","LANE":" ","ALLEY":" ","HOUSE_NO":"７０７號","E_COORD97":170882.98999999999,"N_COORD97":2546353.2400000002,"ADDRESS":"中華路７０７號","OBJECTID":322246},"geometry":{"x":170882.99000000022,"y":2546353.2400000021}},{"attributes":{"ID":322256,"DIS_CODE":0,"TOWNNAME":"永康區","LI":"安康里","LIN":"25鄰","STREET":"中華路","SECT":" ","MAREA":" ","LANE":" ","ALLEY":" ","HOUSE_NO":"７２１號","E_COORD97":170871.69,"N_COORD97":2546373.7400000002,"ADDRESS":"中華路７２１號","OBJECTID":322247},"geometry":{"x":170871.69000000041,"y":2546373.7400000021}},{"attributes":{"ID":322257,"DIS_CODE":0,"TOWNNAME":"永康區","LI":"永康里","LIN":"18鄰","STREET":"永華路","SECT":" ","MAREA":" ","LANE":" ","ALLEY":" ","HOUSE_NO":"４９１號","E_COORD97":174100.17999999999,"N_COORD97":2547173.9199999999,"ADDRESS":"永華路４９１號","OBJECTID":322248},"geometry":{"x":174100.1799999997,"y":2547173.9199999999}},{"attributes":{"ID":322258,"DIS_CODE":0,"TOWNNAME":"永康區","LI":"永康里","LIN":"20鄰","STREET":"永中街","SECT":" ","MAREA":" ","LANE":" ","ALLEY":" ","HOUSE_NO":"１７６號","E_COORD97":174025.41,"N_COORD97":2547334.1800000002,"ADDRESS":"永中街１７６號","OBJECTID":322249},"geometry":{"x":174025.41000000108,"y":2547334.1799999997}},{"attributes":{"ID":322259,"DIS_CODE":0,"TOWNNAME":"仁德區","LI":"仁義里","LIN":"18鄰","STREET":"正義路","SECT":" ","MAREA":" ","LANE":" ","ALLEY":" ","HOUSE_NO":"１７８號","E_COORD97":173867.73000000001,"N_COORD97":2541388.0099999998,"ADDRESS":"正義路１７８號","OBJECTID":322250},"geometry":{"x":173867.73000000138,"y":2541388.0099999998}},{"attributes":{"ID":322260,"DIS_CODE":0,"TOWNNAME":"安定區","LI":"港口里","LIN":"18鄰","STREET":" ","SECT":" ","MAREA":"港口","LANE":" ","ALLEY":" ","HOUSE_NO":"３８０號","E_COORD97":171377.29000000001,"N_COORD97":2555000.25,"ADDRESS":"港口３８０號","OBJECTID":322251},"geometry":{"x":171377.29000000004,"y":2555000.25}},{"attributes":{"ID":322261,"DIS_CODE":0,"TOWNNAME":"永康區","LI":"永康里","LIN":"38鄰","STREET":"大同街","SECT":" ","MAREA":" ","LANE":"７１５巷","ALLEY":" ","HOUSE_NO":"３號","E_COORD97":174474.92000000001,"N_COORD97":2546668.2400000002,"ADDRESS":"大同街７１５巷３號","OBJECTID":322252},"geometry":{"x":174474.92000000086,"y":2546668.2400000021}},{"attributes":{"ID":322262,"DIS_CODE":0,"TOWNNAME":"永康區","LI":"永康里","LIN":"18鄰","STREET":"永中街","SECT":" ","MAREA":" ","LANE":"１６６巷","ALLEY":" ","HOUSE_NO":"４２號","E_COORD97":174100.48999999999,"N_COORD97":2547218.4900000002,"ADDRESS":"永中街１６６巷４２號","OBJECTID":322253},"geometry":{"x":174100.49000000022,"y":2547218.4900000039}},{"attributes":{"ID":322263,"DIS_CODE":0,"TOWNNAME":"永康區","LI":"永康里","LIN":"20鄰","STREET":"永中街","SECT":" ","MAREA":" ","LANE":"１６６巷","ALLEY":" ","HOUSE_NO":"２１號","E_COORD97":174091.70000000001,"N_COORD97":2547275,"ADDRESS":"永中街１６６巷２１號","OBJECTID":322254},"geometry":{"x":174091.70000000112,"y":2547275}},{"attributes":{"ID":322264,"DIS_CODE":0,"TOWNNAME":"永康區","LI":"永康里","LIN":"14鄰","STREET":"永中街","SECT":" ","MAREA":" ","LANE":"６０巷","ALLEY":" ","HOUSE_NO":"３２號","E_COORD97":173998.07999999999,"N_COORD97":2547103.3500000001,"ADDRESS":"永中街６０巷３２號","OBJECTID":322255},"geometry":{"x":173998.08000000007,"y":2547103.3500000034}},{"attributes":{"ID":322265,"DIS_CODE":0,"TOWNNAME":"永康區","LI":"永康里","LIN":"25鄰","STREET":"中山北路","SECT":" ","MAREA":" ","LANE":"１２３巷","ALLEY":" ","HOUSE_NO":"１７號","E_COORD97":174123.42000000001,"N_COORD97":2547561.7999999998,"ADDRESS":"中山北路１２３巷１７號","OBJECTID":322256},"geometry":{"x":174123.42000000086,"y":2547561.8000000007}},{"attributes":{"ID":322266,"DIS_CODE":0,"TOWNNAME":"永康區","LI":"永康里","LIN":"38鄰","STREET":"大同街","SECT":" ","MAREA":" ","LANE":"７１５巷","ALLEY":" ","HOUSE_NO":"１９號","E_COORD97":174457.16,"N_COORD97":2546664.3799999999,"ADDRESS":"大同街７１５巷１９號","OBJECTID":322257},"geometry":{"x":174457.16000000015,"y":2546664.379999999}},{"attributes":{"ID":322267,"DIS_CODE":0,"TOWNNAME":"永康區","LI":"大灣里","LIN":"15鄰","STREET":"民族路","SECT":" ","MAREA":" ","LANE":"４１５巷","ALLEY":" ","HOUSE_NO":"７號","E_COORD97":174773.81,"N_COORD97":2545298.6600000001,"ADDRESS":"民族路４１５巷７號","OBJECTID":322258},"geometry":{"x":174773.80999999959,"y":2545298.660000002}},{"attributes":{"ID":322268,"DIS_CODE":0,"TOWNNAME":"永康區","LI":"大橋里","LIN":"15鄰","STREET":"大橋一街","SECT":" ","MAREA":" ","LANE":"７３巷","ALLEY":" ","HOUSE_NO":"２２號","E_COORD97":170897.76000000001,"N_COORD97":2546483.4900000002,"ADDRESS":"大橋一街７３巷２２號","OBJECTID":322259},"geometry":{"x":170897.75999999978,"y":2546483.4900000021}},{"attributes":{"ID":322269,"DIS_CODE":0,"TOWNNAME":"永康區","LI":"三合里","LIN":"15鄰","STREET":"南工街","SECT":" ","MAREA":" ","LANE":"２４７巷","ALLEY":" ","HOUSE_NO":"２５號","E_COORD97":171975.76999999999,"N_COORD97":2545879.3399999999,"ADDRESS":"南工街２４７巷２５號","OBJECTID":322260},"geometry":{"x":171975.76999999955,"y":2545879.3399999999}},{"attributes":{"ID":322270,"DIS_CODE":0,"TOWNNAME":"安南區","LI":"安富里","LIN":"15鄰","STREET":"海佃路","SECT":"一段","MAREA":" ","LANE":"１５８巷","ALLEY":" ","HOUSE_NO":"１２７號","E_COORD97":167508.19,"N_COORD97":2547265.3999999999,"ADDRESS":"海佃路一段１５８巷１２７號","OBJECTID":322261},"geometry":{"x":167508.19000000041,"y":2547265.4000000004}},{"attributes":{"ID":322271,"DIS_CODE":0,"TOWNNAME":"安南區","LI":"安富里","LIN":"15鄰","STREET":"海佃路","SECT":"一段","MAREA":" ","LANE":"１５８巷","ALLEY":" ","HOUSE_NO":"１２９號","E_COORD97":167513.91,"N_COORD97":2547262.7000000002,"ADDRESS":"海佃路一段１５８巷１２９號","OBJECTID":322262},"geometry":{"x":167513.91000000201,"y":2547262.6999999993}},{"attributes":{"ID":322272,"DIS_CODE":0,"TOWNNAME":"安南區","LI":"安富里","LIN":"15鄰","STREET":"海佃路","SECT":"一段","MAREA":" ","LANE":"１５８巷","ALLEY":" ","HOUSE_NO":"１３１號","E_COORD97":167517.51999999999,"N_COORD97":2547265.7000000002,"ADDRESS":"海佃路一段１５８巷１３１號","OBJECTID":322263},"geometry":{"x":167517.51999999955,"y":2547265.6999999993}},{"attributes":{"ID":322273,"DIS_CODE":0,"TOWNNAME":"安南區","LI":"安富里","LIN":"15鄰","STREET":"海佃路","SECT":"一段","MAREA":" ","LANE":"１５８巷","ALLEY":" ","HOUSE_NO":"７７號","E_COORD97":167385.48999999999,"N_COORD97":2547249.2999999998,"ADDRESS":"海佃路一段１５８巷７７號","OBJECTID":322264},"geometry":{"x":167385.49000000115,"y":2547249.3000000007}},{"attributes":{"ID":322274,"DIS_CODE":0,"TOWNNAME":"安南區","LI":"安富里","LIN":"15鄰","STREET":"海佃路","SECT":"一段","MAREA":" ","LANE":"１５８巷","ALLEY":" ","HOUSE_NO":"８１號","E_COORD97":167394.64000000001,"N_COORD97":2547249.0699999998,"ADDRESS":"海佃路一段１５８巷８１號","OBJECTID":322265},"geometry":{"x":167394.63999999966,"y":2547249.0700000022}},{"attributes":{"ID":322275,"DIS_CODE":0,"TOWNNAME":"下營區","LI":"仁里里","LIN":"17鄰","STREET":"公園路","SECT":" ","MAREA":" ","LANE":" ","ALLEY":" ","HOUSE_NO":"６６號","E_COORD97":174274.75,"N_COORD97":2570340.2200000002,"ADDRESS":"公園路６６號","OBJECTID":322266},"geometry":{"x":174274.75,"y":2570340.2200000025}},{"attributes":{"ID":322276,"DIS_CODE":0,"TOWNNAME":"下營區","LI":"仁里里","LIN":"17鄰","STREET":"公園路","SECT":" ","MAREA":" ","LANE":" ","ALLEY":" ","HOUSE_NO":"６８號","E_COORD97":174270.45999999999,"N_COORD97":2570339.5499999998,"ADDRESS":"公園路６８號","OBJECTID":322267},"geometry":{"x":174270.46000000183,"y":2570339.5500000007}},{"attributes":{"ID":322277,"DIS_CODE":0,"TOWNNAME":"下營區","LI":"營前里","LIN":"17鄰","STREET":"文明街","SECT":" ","MAREA":" ","LANE":" ","ALLEY":" ","HOUSE_NO":"２５號","E_COORD97":174755.37,"N_COORD97":2570317.52,"ADDRESS":"文明街２５號","OBJECTID":322268},"geometry":{"x":174755.37000000011,"y":2570317.5200000014}},{"attributes":{"ID":322278,"DIS_CODE":0,"TOWNNAME":"下營區","LI":"營前里","LIN":"17鄰","STREET":"文明街","SECT":" ","MAREA":" ","LANE":" ","ALLEY":" ","HOUSE_NO":"３５號","E_COORD97":174721.16,"N_COORD97":2570331.79,"ADDRESS":"文明街３５號","OBJECTID":322269},"geometry":{"x":174721.16000000015,"y":2570331.790000001}},{"attributes":{"ID":322279,"DIS_CODE":0,"TOWNNAME":"下營區","LI":"營前里","LIN":"17鄰","STREET":"文明街","SECT":" ","MAREA":" ","LANE":" ","ALLEY":" ","HOUSE_NO":"４７號","E_COORD97":174691.17999999999,"N_COORD97":2570331.0699999998,"ADDRESS":"文明街４７號","OBJECTID":322270},"geometry":{"x":174691.18000000063,"y":2570331.0700000022}},{"attributes":{"ID":322280,"DIS_CODE":0,"TOWNNAME":"下營區","LI":"營前里","LIN":"17鄰","STREET":"文明街","SECT":" ","MAREA":" ","LANE":" ","ALLEY":" ","HOUSE_NO":"４９號","E_COORD97":174686.39999999999,"N_COORD97":2570329.96,"ADDRESS":"文明街４９號","OBJECTID":322271},"geometry":{"x":174686.40000000037,"y":2570329.9600000009}},{"attributes":{"ID":322281,"DIS_CODE":0,"TOWNNAME":"下營區","LI":"營前里","LIN":"17鄰","STREET":"文明街","SECT":" ","MAREA":" ","LANE":" ","ALLEY":" ","HOUSE_NO":"６０號","E_COORD97":174677.92000000001,"N_COORD97":2570384.2799999998,"ADDRESS":"文明街６０號","OBJECTID":322272},"geometry":{"x":174677.92000000086,"y":2570384.2799999993}},{"attributes":{"ID":322282,"DIS_CODE":0,"TOWNNAME":"安南區","LI":"海東里","LIN":"21鄰","STREET":"海東三街","SECT":" ","MAREA":" ","LANE":" ","ALLEY":" ","HOUSE_NO":"６０號","E_COORD97":166880.13735800001,"N_COORD97":2547968.7040400002,"ADDRESS":"海東三街６０號","OBJECTID":322273},"geometry":{"x":166880.1373580005,"y":2547968.7040439993}},{"attributes":{"ID":322283,"DIS_CODE":0,"TOWNNAME":"永康區","LI":"永康里","LIN":"38鄰","STREET":"大同街","SECT":" ","MAREA":" ","LANE":"７１５巷","ALLEY":" ","HOUSE_NO":"２２號","E_COORD97":174443.20999999999,"N_COORD97":2546669.9300000002,"ADDRESS":"大同街７１５巷２２號","OBJECTID":322274},"geometry":{"x":174443.20999999996,"y":2546669.9300000016}},{"attributes":{"ID":322284,"DIS_CODE":0,"TOWNNAME":"永康區","LI":"安康里","LIN":"18鄰","STREET":"中華路","SECT":" ","MAREA":" ","LANE":"６６１巷","ALLEY":" ","HOUSE_NO":"８８號","E_COORD97":170831.73999999999,"N_COORD97":2546136.75,"ADDRESS":"中華路６６１巷８８號","OBJECTID":322275},"geometry":{"x":170831.74000000115,"y":2546136.75}},{"attributes":{"ID":322285,"DIS_CODE":0,"TOWNNAME":"永康區","LI":"安康里","LIN":"20鄰","STREET":"中華路","SECT":" ","MAREA":" ","LANE":"６６１巷","ALLEY":" ","HOUSE_NO":"２６號","E_COORD97":170853.84,"N_COORD97":2546174.7400000002,"ADDRESS":"中華路６６１巷２６號","OBJECTID":322276},"geometry":{"x":170853.84000000078,"y":2546174.7400000002}},{"attributes":{"ID":322286,"DIS_CODE":0,"TOWNNAME":"安南區","LI":"安富里","LIN":"15鄰","STREET":"海佃路","SECT":"一段","MAREA":" ","LANE":"１５８巷","ALLEY":" ","HOUSE_NO":"８３號","E_COORD97":167399.44,"N_COORD97":2547250.21,"ADDRESS":"海佃路一段１５８巷８３號","OBJECTID":322277},"geometry":{"x":167399.44000000134,"y":2547250.2100000009}},{"attributes":{"ID":322287,"DIS_CODE":0,"TOWNNAME":"安南區","LI":"安富里","LIN":"15鄰","STREET":"海佃路","SECT":"一段","MAREA":" ","LANE":"１５８巷","ALLEY":" ","HOUSE_NO":"８５號","E_COORD97":167404.01000000001,"N_COORD97":2547252.4900000002,"ADDRESS":"海佃路一段１５８巷８５號","OBJECTID":322278},"geometry":{"x":167404.00999999978,"y":2547252.4900000021}},{"attributes":{"ID":322288,"DIS_CODE":0,"TOWNNAME":"安南區","LI":"安富里","LIN":"15鄰","STREET":"海佃路","SECT":"一段","MAREA":" ","LANE":"１５８巷","ALLEY":" ","HOUSE_NO":"８７號","E_COORD97":167409.03,"N_COORD97":2547249.98,"ADDRESS":"海佃路一段１５８巷８７號","OBJECTID":322279},"geometry":{"x":167409.03000000026,"y":2547249.9800000023}},{"attributes":{"ID":322289,"DIS_CODE":0,"TOWNNAME":"安南區","LI":"安富里","LIN":"15鄰","STREET":"海佃路","SECT":"一段","MAREA":" ","LANE":"１５８巷","ALLEY":" ","HOUSE_NO":"８９號","E_COORD97":167413.14999999999,"N_COORD97":2547252.2599999998,"ADDRESS":"海佃路一段１５８巷８９號","OBJECTID":322280},"geometry":{"x":167413.1500000013,"y":2547252.2599999998}},{"attributes":{"ID":322290,"DIS_CODE":0,"TOWNNAME":"安南區","LI":"安富里","LIN":"15鄰","STREET":"海佃路","SECT":"一段","MAREA":" ","LANE":"１５８巷","ALLEY":" ","HOUSE_NO":"９１號","E_COORD97":167418.17999999999,"N_COORD97":2547251.3500000001,"ADDRESS":"海佃路一段１５８巷９１號","OBJECTID":322281},"geometry":{"x":167418.1799999997,"y":2547251.3499999996}},{"attributes":{"ID":322291,"DIS_CODE":0,"TOWNNAME":"安南區","LI":"安富里","LIN":"15鄰","STREET":"海佃路","SECT":"一段","MAREA":" ","LANE":"１５８巷","ALLEY":" ","HOUSE_NO":"９３號","E_COORD97":167422.06,"N_COORD97":2547253.1800000002,"ADDRESS":"海佃路一段１５８巷９３號","OBJECTID":322282},"geometry":{"x":167422.05999999959,"y":2547253.1799999997}},{"attributes":{"ID":322292,"DIS_CODE":0,"TOWNNAME":"安南區","LI":"安富里","LIN":"15鄰","STREET":"海佃路","SECT":"一段","MAREA":" ","LANE":"１５８巷","ALLEY":" ","HOUSE_NO":"９７號","E_COORD97":167432.12,"N_COORD97":2547252.2599999998,"ADDRESS":"海佃路一段１５８巷９７號","OBJECTID":322283},"geometry":{"x":167432.12000000011,"y":2547252.2599999998}},{"attributes":{"ID":322293,"DIS_CODE":0,"TOWNNAME":"安南區","LI":"安富里","LIN":"15鄰","STREET":"海佃路","SECT":"一段","MAREA":" ","LANE":"１５８巷","ALLEY":" ","HOUSE_NO":"９９號","E_COORD97":167436,"N_COORD97":2547255.46,"ADDRESS":"海佃路一段１５８巷９９號","OBJECTID":322284},"geometry":{"x":167436.00000000093,"y":2547255.4600000009}},{"attributes":{"ID":322294,"DIS_CODE":0,"TOWNNAME":"安南區","LI":"溪東里","LIN":"15鄰","STREET":"府安路","SECT":"五段","MAREA":" ","LANE":"１１巷","ALLEY":" ","HOUSE_NO":"１００號","E_COORD97":168447.57000000001,"N_COORD97":2547473.27,"ADDRESS":"府安路五段１１巷１００號","OBJECTID":322285},"geometry":{"x":168447.57000000123,"y":2547473.2700000033}},{"attributes":{"ID":322295,"DIS_CODE":0,"TOWNNAME":"安南區","LI":"溪東里","LIN":"15鄰","STREET":"府安路","SECT":"五段","MAREA":" ","LANE":"１１巷","ALLEY":" ","HOUSE_NO":"１０２號","E_COORD97":168453.44,"N_COORD97":2547473.7799999998,"ADDRESS":"府安路五段１１巷１０２號","OBJECTID":322286},"geometry":{"x":168453.44000000134,"y":2547473.7800000012}},{"attributes":{"ID":322296,"DIS_CODE":0,"TOWNNAME":"安平區","LI":"平安里","LIN":" ","STREET":"安平路","SECT":" ","MAREA":" ","LANE":"８０巷","ALLEY":" ","HOUSE_NO":"７號","E_COORD97":166402.23999999999,"N_COORD97":2544354.0800000001,"ADDRESS":"安平路８０巷７號","OBJECTID":322287},"geometry":{"x":166402.24000000115,"y":2544354.0800000019}},{"attributes":{"ID":322297,"DIS_CODE":0,"TOWNNAME":"安南區","LI":"溪東里","LIN":"15鄰","STREET":"府安路","SECT":"五段","MAREA":" ","LANE":"１１巷","ALLEY":" ","HOUSE_NO":"１０４號","E_COORD97":168459.82000000001,"N_COORD97":2547474.4199999999,"ADDRESS":"府安路五段１１巷１０４號","OBJECTID":322288},"geometry":{"x":168459.8200000003,"y":2547474.4200000018}},{"attributes":{"ID":322298,"DIS_CODE":0,"TOWNNAME":"安南區","LI":"溪東里","LIN":"15鄰","STREET":"府安路","SECT":"五段","MAREA":" ","LANE":"１１巷","ALLEY":" ","HOUSE_NO":"１０８號","E_COORD97":168464.67000000001,"N_COORD97":2547495.1600000001,"ADDRESS":"府安路五段１１巷１０８號","OBJECTID":322289},"geometry":{"x":168464.67000000179,"y":2547495.1600000039}},{"attributes":{"ID":322299,"DIS_CODE":0,"TOWNNAME":"下營區","LI":"營前里","LIN":"17鄰","STREET":"文明街","SECT":" ","MAREA":" ","LANE":" ","ALLEY":" ","HOUSE_NO":"６６號","E_COORD97":174674.79999999999,"N_COORD97":2570351.1099999999,"ADDRESS":"文明街６６號","OBJECTID":322290},"geometry":{"x":174674.80000000168,"y":2570351.1099999994}},{"attributes":{"ID":322300,"DIS_CODE":0,"TOWNNAME":"下營區","LI":"後街里","LIN":"17鄰","STREET":"和平街","SECT":" ","MAREA":" ","LANE":" ","ALLEY":" ","HOUSE_NO":"３９號","E_COORD97":174678.20000000001,"N_COORD97":2570782,"ADDRESS":"和平街３９號","OBJECTID":322291},"geometry":{"x":174678.20000000112,"y":2570782.0000000019}},{"attributes":{"ID":322301,"DIS_CODE":0,"TOWNNAME":"下營區","LI":"後街里","LIN":"17鄰","STREET":"和平街","SECT":" ","MAREA":" ","LANE":" ","ALLEY":" ","HOUSE_NO":"４９號","E_COORD97":174672.45999999999,"N_COORD97":2570820.04,"ADDRESS":"和平街４９號","OBJECTID":322292},"geometry":{"x":174672.46000000089,"y":2570820.0399999991}},{"attributes":{"ID":322302,"DIS_CODE":0,"TOWNNAME":"下營區","LI":"後街里","LIN":"17鄰","STREET":"和平街","SECT":" ","MAREA":" ","LANE":" ","ALLEY":" ","HOUSE_NO":"５１號","E_COORD97":174674.51999999999,"N_COORD97":2570826.7999999998,"ADDRESS":"和平街５１號","OBJECTID":322293},"geometry":{"x":174674.51999999955,"y":2570826.8000000007}},{"attributes":{"ID":322303,"DIS_CODE":0,"TOWNNAME":"安南區","LI":"溪東里","LIN":"15鄰","STREET":"府安路","SECT":"五段","MAREA":" ","LANE":"１１巷","ALLEY":" ","HOUSE_NO":"１１２號","E_COORD97":168451.78,"N_COORD97":2547494.27,"ADDRESS":"府安路五段１１巷１１２號","OBJECTID":322294},"geometry":{"x":168451.78000000026,"y":2547494.2700000014}},{"attributes":{"ID":322304,"DIS_CODE":0,"TOWNNAME":"安南區","LI":"溪東里","LIN":"15鄰","STREET":"府安路","SECT":"五段","MAREA":" ","LANE":"１１巷","ALLEY":" ","HOUSE_NO":"１１４號","E_COORD97":168445.01000000001,"N_COORD97":2547493.3700000001,"ADDRESS":"府安路五段１１巷１１４號","OBJECTID":322295},"geometry":{"x":168445.00999999978,"y":2547493.370000001}},{"attributes":{"ID":322305,"DIS_CODE":0,"TOWNNAME":"中西區","LI":"西賢里","LIN":"15鄰","STREET":"西賢一街","SECT":" ","MAREA":" ","LANE":"２５８巷","ALLEY":" ","HOUSE_NO":"３號","E_COORD97":165719.10000000001,"N_COORD97":2545034.1400000001,"ADDRESS":"西賢一街２５８巷３號","OBJECTID":322296},"geometry":{"x":165719.10000000056,"y":2545034.1400000043}},{"attributes":{"ID":322306,"DIS_CODE":0,"TOWNNAME":"中西區","LI":"西賢里","LIN":"15鄰","STREET":"西賢一街","SECT":" ","MAREA":" ","LANE":"２５８巷","ALLEY":" ","HOUSE_NO":"３０號","E_COORD97":165757.07000000001,"N_COORD97":2545016.6899999999,"ADDRESS":"西賢一街２５８巷３０號","OBJECTID":322297},"geometry":{"x":165757.07000000123,"y":2545016.6900000013}},{"attributes":{"ID":322307,"DIS_CODE":0,"TOWNNAME":"中西區","LI":"西賢里","LIN":"15鄰","STREET":"西賢一街","SECT":" ","MAREA":" ","LANE":"２５８巷","ALLEY":" ","HOUSE_NO":"３２號","E_COORD97":165764.56,"N_COORD97":2545016.8599999999,"ADDRESS":"西賢一街２５８巷３２號","OBJECTID":322298},"geometry":{"x":165764.56000000145,"y":2545016.8599999994}},{"attributes":{"ID":322308,"DIS_CODE":0,"TOWNNAME":"中西區","LI":"西賢里","LIN":"15鄰","STREET":"西賢一街","SECT":" ","MAREA":" ","LANE":"２５８巷","ALLEY":" ","HOUSE_NO":"３６號","E_COORD97":165770.85000000001,"N_COORD97":2545016.8599999999,"ADDRESS":"西賢一街２５８巷３６號","OBJECTID":322299},"geometry":{"x":165770.84999999963,"y":2545016.8599999994}},{"attributes":{"ID":322309,"DIS_CODE":0,"TOWNNAME":"中西區","LI":"西賢里","LIN":"15鄰","STREET":"西賢一街","SECT":" ","MAREA":" ","LANE":"２５８巷","ALLEY":" ","HOUSE_NO":"３８號","E_COORD97":165776.64000000001,"N_COORD97":2545015.8399999999,"ADDRESS":"西賢一街２５８巷３８號","OBJECTID":322300},"geometry":{"x":165776.6400000006,"y":2545015.8400000017}},{"attributes":{"ID":322310,"DIS_CODE":0,"TOWNNAME":"安平區","LI":"億載里","LIN":"5鄰","STREET":"永華十一街","SECT":" ","MAREA":" ","LANE":"１１３巷","ALLEY":" ","HOUSE_NO":"６６號","E_COORD97":163910.56,"N_COORD97":2543701.5600000001,"ADDRESS":"永華十一街１１３巷６６號","OBJECTID":322301},"geometry":{"x":163910.56000000052,"y":2543701.5600000005}},{"attributes":{"ID":322311,"DIS_CODE":0,"TOWNNAME":"安平區","LI":"億載里","LIN":"5鄰","STREET":"永華十一街","SECT":" ","MAREA":" ","LANE":"１１３巷","ALLEY":" ","HOUSE_NO":"５０號","E_COORD97":163942.35999999999,"N_COORD97":2543688.6099999999,"ADDRESS":"永華十一街１１３巷５０號","OBJECTID":322302},"geometry":{"x":163942.36000000034,"y":2543688.6100000013}},{"attributes":{"ID":322312,"DIS_CODE":0,"TOWNNAME":"安平區","LI":"億載里","LIN":"8鄰","STREET":"永華十一街","SECT":" ","MAREA":" ","LANE":"１７巷","ALLEY":" ","HOUSE_NO":"４２號","E_COORD97":163985,"N_COORD97":2543431.0499999998,"ADDRESS":"永華十一街１７巷４２號","OBJECTID":322303},"geometry":{"x":163985,"y":2543431.0500000007}},{"attributes":{"ID":322313,"DIS_CODE":0,"TOWNNAME":"安平區","LI":"億載里","LIN":"7鄰","STREET":"永華十一街","SECT":" ","MAREA":" ","LANE":"１７巷","ALLEY":" ","HOUSE_NO":"３７號","E_COORD97":163993.64999999999,"N_COORD97":2543418.7999999998,"ADDRESS":"永華十一街１７巷３７號","OBJECTID":322304},"geometry":{"x":163993.6500000013,"y":2543418.8000000007}},{"attributes":{"ID":322314,"DIS_CODE":0,"TOWNNAME":"安平區","LI":"億載里","LIN":"7鄰","STREET":"永華十一街","SECT":" ","MAREA":" ","LANE":"１７巷","ALLEY":" ","HOUSE_NO":"３３號","E_COORD97":164002.31,"N_COORD97":2543419.8799999999,"ADDRESS":"永華十一街１７巷３３號","OBJECTID":322305},"geometry":{"x":164002.31000000052,"y":2543419.879999999}},{"attributes":{"ID":322315,"DIS_CODE":0,"TOWNNAME":"中西區","LI":"西賢里","LIN":"15鄰","STREET":"西賢一街","SECT":" ","MAREA":" ","LANE":"２５８巷","ALLEY":" ","HOUSE_NO":"４０號","E_COORD97":165783.95000000001,"N_COORD97":2545015.8399999999,"ADDRESS":"西賢一街２５８巷４０號","OBJECTID":322306},"geometry":{"x":165783.95000000019,"y":2545015.8400000017}},{"attributes":{"ID":322316,"DIS_CODE":0,"TOWNNAME":"中西區","LI":"西賢里","LIN":"15鄰","STREET":"西賢一街","SECT":" ","MAREA":" ","LANE":"２５８巷","ALLEY":" ","HOUSE_NO":"４２號","E_COORD97":165790.42000000001,"N_COORD97":2545015.6699999999,"ADDRESS":"西賢一街２５８巷４２號","OBJECTID":322307},"geometry":{"x":165790.42000000086,"y":2545015.6699999999}},{"attributes":{"ID":322317,"DIS_CODE":0,"TOWNNAME":"中西區","LI":"西賢里","LIN":"15鄰","STREET":"西賢一街","SECT":" ","MAREA":" ","LANE":"２５８巷","ALLEY":" ","HOUSE_NO":"４６號","E_COORD97":165796.70999999999,"N_COORD97":2545015.5,"ADDRESS":"西賢一街２５８巷４６號","OBJECTID":322308},"geometry":{"x":165796.71000000089,"y":2545015.5000000019}},{"attributes":{"ID":322318,"DIS_CODE":0,"TOWNNAME":"新市區","LI":"永就里","LIN":"22鄰","STREET":"永新路","SECT":" ","MAREA":" ","LANE":" ","ALLEY":" ","HOUSE_NO":"７８之１號","E_COORD97":177368.72435500001,"N_COORD97":2550725.5948800002,"ADDRESS":"永新路７８之１號","OBJECTID":322309},"geometry":{"x":177368.72435499914,"y":2550725.5948820002}},{"attributes":{"ID":322319,"DIS_CODE":0,"TOWNNAME":"中西區","LI":"西賢里","LIN":"15鄰","STREET":"西賢一街","SECT":" ","MAREA":" ","LANE":"２５８巷","ALLEY":" ","HOUSE_NO":"４８號","E_COORD97":165802.14999999999,"N_COORD97":2545015.1600000001,"ADDRESS":"西賢一街２５８巷４８號","OBJECTID":322310},"geometry":{"x":165802.15000000224,"y":2545015.1600000001}},{"attributes":{"ID":322320,"DIS_CODE":0,"TOWNNAME":"中西區","LI":"西賢里","LIN":"15鄰","STREET":"西賢一街","SECT":" ","MAREA":" ","LANE":"２５８巷","ALLEY":" ","HOUSE_NO":"５０號","E_COORD97":165807.09,"N_COORD97":2545015.1600000001,"ADDRESS":"西賢一街２５８巷５０號","OBJECTID":322311},"geometry":{"x":165807.09000000171,"y":2545015.1600000001}},{"attributes":{"ID":322321,"DIS_CODE":0,"TOWNNAME":"中西區","LI":"西賢里","LIN":"15鄰","STREET":"西賢一街","SECT":" ","MAREA":" ","LANE":"２５８巷","ALLEY":" ","HOUSE_NO":"６號","E_COORD97":165705.01000000001,"N_COORD97":2545015.3300000001,"ADDRESS":"西賢一街２５８巷６號","OBJECTID":322312},"geometry":{"x":165705.00999999978,"y":2545015.3299999982}},{"attributes":{"ID":322322,"DIS_CODE":0,"TOWNNAME":"中西區","LI":"西賢里","LIN":"15鄰","STREET":"西賢一街","SECT":" ","MAREA":" ","LANE":"２５８巷","ALLEY":" ","HOUSE_NO":"７號","E_COORD97":165726.78,"N_COORD97":2545035.29,"ADDRESS":"西賢一街２５８巷７號","OBJECTID":322313},"geometry":{"x":165726.78000000119,"y":2545035.2900000028}},{"attributes":{"ID":322323,"DIS_CODE":0,"TOWNNAME":"中西區","LI":"西賢里","LIN":"15鄰","STREET":"西賢一街","SECT":" ","MAREA":" ","LANE":"２５８巷","ALLEY":" ","HOUSE_NO":"８號","E_COORD97":165709.10000000001,"N_COORD97":2545015.5,"ADDRESS":"西賢一街２５８巷８號","OBJECTID":322314},"geometry":{"x":165709.10000000056,"y":2545015.5000000019}},{"attributes":{"ID":322324,"DIS_CODE":0,"TOWNNAME":"中西區","LI":"西賢里","LIN":"15鄰","STREET":"西賢一街","SECT":" ","MAREA":" ","LANE":"２５８巷","ALLEY":" ","HOUSE_NO":"９號","E_COORD97":165731.67999999999,"N_COORD97":2545034.96,"ADDRESS":"西賢一街２５８巷９號","OBJECTID":322315},"geometry":{"x":165731.68000000156,"y":2545034.9600000009}},{"attributes":{"ID":322325,"DIS_CODE":0,"TOWNNAME":"安平區","LI":"億載里","LIN":" ","STREET":"永華十一街","SECT":" ","MAREA":" ","LANE":"１５９巷","ALLEY":" ","HOUSE_NO":"３３號","E_COORD97":163976.25,"N_COORD97":2543822.8799999999,"ADDRESS":"永華十一街１５９巷３３號","OBJECTID":322316},"geometry":{"x":163976.25,"y":2543822.879999999}},{"attributes":{"ID":322326,"DIS_CODE":0,"TOWNNAME":"安平區","LI":"平安里","LIN":"18鄰","STREET":"安北路","SECT":" ","MAREA":" ","LANE":"１６巷","ALLEY":" ","HOUSE_NO":"３０號","E_COORD97":164764.44,"N_COORD97":2544578.9500000002,"ADDRESS":"安北路１６巷３０號","OBJECTID":322317},"geometry":{"x":164764.44000000227,"y":2544578.9499999993}},{"attributes":{"ID":322327,"DIS_CODE":0,"TOWNNAME":"安平區","LI":"海頭里","LIN":" ","STREET":"古堡街","SECT":" ","MAREA":" ","LANE":"７２巷","ALLEY":" ","HOUSE_NO":"２號","E_COORD97":163991.88,"N_COORD97":2544909.8799999999,"ADDRESS":"古堡街７２巷２號","OBJECTID":322318},"geometry":{"x":163991.88000000082,"y":2544909.8800000008}},{"attributes":{"ID":322328,"DIS_CODE":0,"TOWNNAME":"安平區","LI":"國平里","LIN":" ","STREET":"健康三街","SECT":" ","MAREA":" ","LANE":"１２巷","ALLEY":" ","HOUSE_NO":"１號","E_COORD97":164774.88,"N_COORD97":2542904.3999999999,"ADDRESS":"健康三街１２巷１號","OBJECTID":322319},"geometry":{"x":164774.88000000082,"y":2542904.4000000022}},{"attributes":{"ID":322329,"DIS_CODE":0,"TOWNNAME":"安平區","LI":"平安里","LIN":" ","STREET":"安平路","SECT":" ","MAREA":" ","LANE":"８０巷","ALLEY":" ","HOUSE_NO":"１６號","E_COORD97":166419.35000000001,"N_COORD97":2544366.3100000001,"ADDRESS":"安平路８０巷１６號","OBJECTID":322320},"geometry":{"x":166419.35000000056,"y":2544366.3100000024}},{"attributes":{"ID":322330,"DIS_CODE":0,"TOWNNAME":"永康區","LI":"東橋里","LIN":"15鄰","STREET":"東橋七路","SECT":" ","MAREA":" ","LANE":"１６３巷","ALLEY":" ","HOUSE_NO":"１５號","E_COORD97":171807.56,"N_COORD97":2546721.3500000001,"ADDRESS":"東橋七路１６３巷１５號","OBJECTID":322321},"geometry":{"x":171807.55999999959,"y":2546721.3500000015}},{"attributes":{"ID":322331,"DIS_CODE":0,"TOWNNAME":"永康區","LI":"東橋里","LIN":"15鄰","STREET":"東橋七路","SECT":" ","MAREA":" ","LANE":"１６３巷","ALLEY":" ","HOUSE_NO":"１６號","E_COORD97":171775.12,"N_COORD97":2546778.3999999999,"ADDRESS":"東橋七路１６３巷１６號","OBJECTID":322322},"geometry":{"x":171775.12000000011,"y":2546778.4000000041}},{"attributes":{"ID":322332,"DIS_CODE":0,"TOWNNAME":"永康區","LI":"東橋里","LIN":"15鄰","STREET":"東橋七路","SECT":" ","MAREA":" ","LANE":"１６３巷","ALLEY":" ","HOUSE_NO":"１７號","E_COORD97":171801.37,"N_COORD97":2546717.46,"ADDRESS":"東橋七路１６３巷１７號","OBJECTID":322323},"geometry":{"x":171801.37000000197,"y":2546717.4600000046}},{"attributes":{"ID":322333,"DIS_CODE":0,"TOWNNAME":"永康區","LI":"東橋里","LIN":"15鄰","STREET":"東橋七路","SECT":" ","MAREA":" ","LANE":"１６３巷","ALLEY":" ","HOUSE_NO":"１８號","E_COORD97":171772.51000000001,"N_COORD97":2546783.1099999999,"ADDRESS":"東橋七路１６３巷１８號","OBJECTID":322324},"geometry":{"x":171772.50999999978,"y":2546783.1100000013}},{"attributes":{"ID":322334,"DIS_CODE":0,"TOWNNAME":"永康區","LI":"東橋里","LIN":"15鄰","STREET":"東橋七路","SECT":" ","MAREA":" ","LANE":"１６３巷","ALLEY":" ","HOUSE_NO":"１９號","E_COORD97":171799.51999999999,"N_COORD97":2546721.9500000002,"ADDRESS":"東橋七路１６３巷１９號","OBJECTID":322325},"geometry":{"x":171799.51999999955,"y":2546721.9499999993}},{"attributes":{"ID":322335,"DIS_CODE":0,"TOWNNAME":"永康區","LI":"東橋里","LIN":"15鄰","STREET":"東橋七路","SECT":" ","MAREA":" ","LANE":"１６３巷","ALLEY":" ","HOUSE_NO":"１號","E_COORD97":171789.84,"N_COORD97":2546749.6299999999,"ADDRESS":"東橋七路１６３巷１號","OBJECTID":322326},"geometry":{"x":171789.84000000078,"y":2546749.6300000008}},{"attributes":{"ID":322336,"DIS_CODE":0,"TOWNNAME":"永康區","LI":"東橋里","LIN":"15鄰","STREET":"東橋七路","SECT":" ","MAREA":" ","LANE":"１６３巷","ALLEY":" ","HOUSE_NO":"２０號","E_COORD97":171766.69,"N_COORD97":2546778.3399999999,"ADDRESS":"東橋七路１６３巷２０號","OBJECTID":322327},"geometry":{"x":171766.69000000041,"y":2546778.3400000036}},{"attributes":{"ID":322337,"DIS_CODE":0,"TOWNNAME":"永康區","LI":"東橋里","LIN":"15鄰","STREET":"東橋七路","SECT":" ","MAREA":" ","LANE":"１６３巷","ALLEY":" ","HOUSE_NO":"２１號","E_COORD97":171797.16,"N_COORD97":2546725.8599999999,"ADDRESS":"東橋七路１６３巷２１號","OBJECTID":322328},"geometry":{"x":171797.16000000015,"y":2546725.8599999994}},{"attributes":{"ID":322338,"DIS_CODE":0,"TOWNNAME":"永康區","LI":"東橋里","LIN":"15鄰","STREET":"東橋七路","SECT":" ","MAREA":" ","LANE":"１６３巷","ALLEY":" ","HOUSE_NO":"２２號","E_COORD97":171769.17000000001,"N_COORD97":2546774.6600000001,"ADDRESS":"東橋七路１６３巷２２號","OBJECTID":322329},"geometry":{"x":171769.17000000086,"y":2546774.6600000001}},{"attributes":{"ID":322339,"DIS_CODE":0,"TOWNNAME":"永康區","LI":"東橋里","LIN":"15鄰","STREET":"東橋七路","SECT":" ","MAREA":" ","LANE":"１６３巷","ALLEY":" ","HOUSE_NO":"２３號","E_COORD97":171794.91,"N_COORD97":2546729.9199999999,"ADDRESS":"東橋七路１６３巷２３號","OBJECTID":322330},"geometry":{"x":171794.91000000108,"y":2546729.9199999999}},{"attributes":{"ID":322340,"DIS_CODE":0,"TOWNNAME":"永康區","LI":"東橋里","LIN":"15鄰","STREET":"東橋七路","SECT":" ","MAREA":" ","LANE":"１６３巷","ALLEY":" ","HOUSE_NO":"２５號","E_COORD97":171792.76999999999,"N_COORD97":2546734.2000000002,"ADDRESS":"東橋七路１６３巷２５號","OBJECTID":322331},"geometry":{"x":171792.76999999955,"y":2546734.1999999974}},{"attributes":{"ID":322341,"DIS_CODE":0,"TOWNNAME":"永康區","LI":"東橋里","LIN":"15鄰","STREET":"東橋七路","SECT":" ","MAREA":" ","LANE":"１６３巷","ALLEY":" ","HOUSE_NO":"２６號","E_COORD97":171771.85999999999,"N_COORD97":2546770.4900000002,"ADDRESS":"東橋七路１６３巷２６號","OBJECTID":322332},"geometry":{"x":171771.86000000127,"y":2546770.4899999984}},{"attributes":{"ID":322342,"DIS_CODE":0,"TOWNNAME":"永康區","LI":"東橋里","LIN":"15鄰","STREET":"東橋七路","SECT":" ","MAREA":" ","LANE":"１６３巷","ALLEY":" ","HOUSE_NO":"２７號","E_COORD97":171790.17000000001,"N_COORD97":2546738.2599999998,"ADDRESS":"東橋七路１６３巷２７號","OBJECTID":322333},"geometry":{"x":171790.16999999993,"y":2546738.2600000016}},{"attributes":{"ID":322343,"DIS_CODE":0,"TOWNNAME":"永康區","LI":"東橋里","LIN":"15鄰","STREET":"東橋七路","SECT":" ","MAREA":" ","LANE":"１６３巷","ALLEY":" ","HOUSE_NO":"２８號","E_COORD97":171774.04000000001,"N_COORD97":2546766.5099999998,"ADDRESS":"東橋七路１６３巷２８號","OBJECTID":322334},"geometry":{"x":171774.04000000004,"y":2546766.5099999979}},{"attributes":{"ID":322344,"DIS_CODE":0,"TOWNNAME":"安定區","LI":"大同里","LIN":"8鄰","STREET":" ","SECT":" ","MAREA":"大同","LANE":" ","ALLEY":" ","HOUSE_NO":"８９號之５","E_COORD97":170420.16,"N_COORD97":2553731.2999999998,"ADDRESS":"大同８９號之５","OBJECTID":322335},"geometry":{"x":170420.16000000108,"y":2553731.3000000026}},{"attributes":{"ID":322345,"DIS_CODE":0,"TOWNNAME":"永康區","LI":"東橋里","LIN":"15鄰","STREET":"東橋七路","SECT":" ","MAREA":" ","LANE":"１６３巷","ALLEY":" ","HOUSE_NO":"２９號","E_COORD97":171788.26000000001,"N_COORD97":2546742.4300000002,"ADDRESS":"東橋七路１６３巷２９號","OBJECTID":322336},"geometry":{"x":171788.26000000164,"y":2546742.4299999997}},{"attributes":{"ID":322346,"DIS_CODE":0,"TOWNNAME":"永康區","LI":"東橋里","LIN":"15鄰","STREET":"東橋七路","SECT":" ","MAREA":" ","LANE":"１６３巷","ALLEY":" ","HOUSE_NO":"２號","E_COORD97":171784.59,"N_COORD97":2546757.5600000001,"ADDRESS":"東橋七路１６３巷２號","OBJECTID":322337},"geometry":{"x":171784.59000000078,"y":2546757.5600000024}},{"attributes":{"ID":322347,"DIS_CODE":0,"TOWNNAME":"永康區","LI":"東橋里","LIN":"15鄰","STREET":"東橋七路","SECT":" ","MAREA":" ","LANE":"１６３巷","ALLEY":" ","HOUSE_NO":"３０號","E_COORD97":171776.42999999999,"N_COORD97":2546762.25,"ADDRESS":"東橋七路１６３巷３０號","OBJECTID":322338},"geometry":{"x":171776.4299999997,"y":2546762.2500000037}},{"attributes":{"ID":322348,"DIS_CODE":0,"TOWNNAME":"永康區","LI":"東橋里","LIN":"15鄰","STREET":"東橋七路","SECT":" ","MAREA":" ","LANE":"１６３巷","ALLEY":" ","HOUSE_NO":"３１號","E_COORD97":171786.12,"N_COORD97":2546746.3700000001,"ADDRESS":"東橋七路１６３巷３１號","OBJECTID":322339},"geometry":{"x":171786.12000000197,"y":2546746.3700000029}},{"attributes":{"ID":322349,"DIS_CODE":0,"TOWNNAME":"永康區","LI":"東橋里","LIN":"15鄰","STREET":"東橋七路","SECT":" ","MAREA":" ","LANE":"１６３巷","ALLEY":" ","HOUSE_NO":"３２號","E_COORD97":171778.70999999999,"N_COORD97":2546758.1800000002,"ADDRESS":"東橋七路１６３巷３２號","OBJECTID":322340},"geometry":{"x":171778.71000000089,"y":2546758.1799999997}},{"attributes":{"ID":322350,"DIS_CODE":0,"TOWNNAME":"永康區","LI":"東橋里","LIN":"15鄰","STREET":"東橋七路","SECT":" ","MAREA":" ","LANE":"１６３巷","ALLEY":" ","HOUSE_NO":"３６號","E_COORD97":171781,"N_COORD97":2546754.1099999999,"ADDRESS":"東橋七路１６３巷３６號","OBJECTID":322341},"geometry":{"x":171781,"y":2546754.1099999994}},{"attributes":{"ID":322351,"DIS_CODE":0,"TOWNNAME":"永康區","LI":"東橋里","LIN":"15鄰","STREET":"東橋七路","SECT":" ","MAREA":" ","LANE":"１６３巷","ALLEY":" ","HOUSE_NO":"３８號","E_COORD97":171783.64000000001,"N_COORD97":2546750.4300000002,"ADDRESS":"東橋七路１６３巷３８號","OBJECTID":322342},"geometry":{"x":171783.63999999873,"y":2546750.4300000034}},{"attributes":{"ID":322352,"DIS_CODE":0,"TOWNNAME":"永康區","LI":"東橋里","LIN":"15鄰","STREET":"東橋七路","SECT":" ","MAREA":" ","LANE":"１６３巷","ALLEY":" ","HOUSE_NO":"３號","E_COORD97":171791.82000000001,"N_COORD97":2546745.3999999999,"ADDRESS":"東橋七路１６３巷３號","OBJECTID":322343},"geometry":{"x":171791.82000000216,"y":2546745.4000000022}},{"attributes":{"ID":322353,"DIS_CODE":0,"TOWNNAME":"安定區","LI":"六嘉里","LIN":"4鄰","STREET":" ","SECT":" ","MAREA":"六塊寮","LANE":" ","ALLEY":" ","HOUSE_NO":"２７號之１","E_COORD97":169950.14999999999,"N_COORD97":2553501.2999999998,"ADDRESS":"六塊寮２７號之１","OBJECTID":322344},"geometry":{"x":169950.14999999944,"y":2553501.3000000007}},{"attributes":{"ID":322354,"DIS_CODE":0,"TOWNNAME":"安定區","LI":"海寮里","LIN":"14鄰","STREET":" ","SECT":" ","MAREA":"海寮","LANE":" ","ALLEY":" ","HOUSE_NO":"１３２之３５號","E_COORD97":169050.19,"N_COORD97":2555431.2999999998,"ADDRESS":"海寮１３２之３５號","OBJECTID":322345},"geometry":{"x":169050.19000000134,"y":2555431.3000000007}},{"attributes":{"ID":322355,"DIS_CODE":0,"TOWNNAME":"安定區","LI":"大同里","LIN":"8鄰","STREET":" ","SECT":" ","MAREA":"大同","LANE":" ","ALLEY":" ","HOUSE_NO":"９６號","E_COORD97":170376.67000000001,"N_COORD97":2553755.25,"ADDRESS":"大同９６號","OBJECTID":322346},"geometry":{"x":170376.66999999993,"y":2553755.25}},{"attributes":{"ID":322356,"DIS_CODE":0,"TOWNNAME":"安定區","LI":"安加里","LIN":"4鄰","STREET":" ","SECT":" ","MAREA":"安定","LANE":" ","ALLEY":" ","HOUSE_NO":"１７７號","E_COORD97":171881.72,"N_COORD97":2557711.3199999998,"ADDRESS":"安定１７７號","OBJECTID":322347},"geometry":{"x":171881.7200000016,"y":2557711.3200000003}},{"attributes":{"ID":322357,"DIS_CODE":0,"TOWNNAME":"安定區","LI":"港口里","LIN":"18鄰","STREET":" ","SECT":" ","MAREA":"港口","LANE":" ","ALLEY":" ","HOUSE_NO":"３８１號之２","E_COORD97":171400.76000000001,"N_COORD97":2554993.2999999998,"ADDRESS":"港口３８１號之２","OBJECTID":322348},"geometry":{"x":171400.76000000071,"y":2554993.3000000007}},{"attributes":{"ID":322358,"DIS_CODE":0,"TOWNNAME":"永康區","LI":"東橋里","LIN":"15鄰","STREET":"東橋七路","SECT":" ","MAREA":" ","LANE":"１６３巷","ALLEY":" ","HOUSE_NO":"５號","E_COORD97":171794.14000000001,"N_COORD97":2546741.52,"ADDRESS":"東橋七路１６３巷５號","OBJECTID":322349},"geometry":{"x":171794.1400000006,"y":2546741.5199999996}},{"attributes":{"ID":322359,"DIS_CODE":0,"TOWNNAME":"永康區","LI":"東橋里","LIN":"15鄰","STREET":"東橋七路","SECT":" ","MAREA":" ","LANE":"１６３巷","ALLEY":" ","HOUSE_NO":"６號","E_COORD97":171782.35000000001,"N_COORD97":2546761.73,"ADDRESS":"東橋七路１６３巷６號","OBJECTID":322350},"geometry":{"x":171782.35000000149,"y":2546761.7300000004}},{"attributes":{"ID":322360,"DIS_CODE":0,"TOWNNAME":"永康區","LI":"東橋里","LIN":"15鄰","STREET":"東橋七路","SECT":" ","MAREA":" ","LANE":"１６３巷","ALLEY":" ","HOUSE_NO":"７號","E_COORD97":171796.22,"N_COORD97":2546737.23,"ADDRESS":"東橋七路１６３巷７號","OBJECTID":322351},"geometry":{"x":171796.21999999974,"y":2546737.2300000004}},{"attributes":{"ID":322361,"DIS_CODE":0,"TOWNNAME":"安定區","LI":"港口里","LIN":"18鄰","STREET":" ","SECT":" ","MAREA":"港口","LANE":" ","ALLEY":" ","HOUSE_NO":"３８２號之１","E_COORD97":171415.39000000001,"N_COORD97":2555030.2999999998,"ADDRESS":"港口３８２之１號","OBJECTID":322352},"geometry":{"x":171415.38999999966,"y":2555030.3000000007}},{"attributes":{"ID":322362,"DIS_CODE":0,"TOWNNAME":"安定區","LI":"港口里","LIN":"18鄰","STREET":" ","SECT":" ","MAREA":"港口","LANE":" ","ALLEY":" ","HOUSE_NO":"３７５號","E_COORD97":171333.09,"N_COORD97":2554965.25,"ADDRESS":"港口３７５號","OBJECTID":322353},"geometry":{"x":171333.08999999985,"y":2554965.25}},{"attributes":{"ID":322363,"DIS_CODE":0,"TOWNNAME":"安定區","LI":"港口里","LIN":"20鄰","STREET":" ","SECT":" ","MAREA":"港口","LANE":" ","ALLEY":" ","HOUSE_NO":"３９３號之２７","E_COORD97":171513.64999999999,"N_COORD97":2555038.2999999998,"ADDRESS":"港口３９３號之２７","OBJECTID":322354},"geometry":{"x":171513.6500000013,"y":2555038.3000000045}},{"attributes":{"ID":322364,"DIS_CODE":0,"TOWNNAME":"永康區","LI":"東橋里","LIN":"15鄰","STREET":"東橋七路","SECT":" ","MAREA":" ","LANE":"１６３巷","ALLEY":" ","HOUSE_NO":"８號","E_COORD97":171780.17999999999,"N_COORD97":2546765.7799999998,"ADDRESS":"東橋七路１６３巷８號","OBJECTID":322355},"geometry":{"x":171780.18000000156,"y":2546765.7800000012}},{"attributes":{"ID":322365,"DIS_CODE":0,"TOWNNAME":"永康區","LI":"東橋里","LIN":"15鄰","STREET":"東橋七路","SECT":" ","MAREA":" ","LANE":"１６３巷","ALLEY":" ","HOUSE_NO":"９號","E_COORD97":171799.31,"N_COORD97":2546733.6899999999,"ADDRESS":"東橋七路１６３巷９號","OBJECTID":322356},"geometry":{"x":171799.30999999959,"y":2546733.6899999995}},{"attributes":{"ID":322366,"DIS_CODE":0,"TOWNNAME":"安定區","LI":"海寮里","LIN":"14鄰","STREET":" ","SECT":" ","MAREA":"海寮","LANE":" ","ALLEY":" ","HOUSE_NO":"１３２之２１號","E_COORD97":169026.39000000001,"N_COORD97":2555433.2999999998,"ADDRESS":"海寮１３２之２１號","OBJECTID":322357},"geometry":{"x":169026.3900000006,"y":2555433.3000000026}},{"attributes":{"ID":322367,"DIS_CODE":0,"TOWNNAME":"安定區","LI":"新吉里","LIN":"17鄰","STREET":" ","SECT":" ","MAREA":"新吉","LANE":" ","ALLEY":" ","HOUSE_NO":"１９７號","E_COORD97":168967.42000000001,"N_COORD97":2554088.25,"ADDRESS":"新吉１９７號","OBJECTID":322358},"geometry":{"x":168967.41999999993,"y":2554088.25}},{"attributes":{"ID":322368,"DIS_CODE":0,"TOWNNAME":"永康區","LI":"東橋里","LIN":"15鄰","STREET":"東橋二街","SECT":" ","MAREA":" ","LANE":"１２３巷","ALLEY":" ","HOUSE_NO":"１０號","E_COORD97":171847.81,"N_COORD97":2546620.2599999998,"ADDRESS":"東橋二街１２３巷１０號","OBJECTID":322359},"geometry":{"x":171847.80999999959,"y":2546620.2600000016}},{"attributes":{"ID":322369,"DIS_CODE":0,"TOWNNAME":"永康區","LI":"東橋里","LIN":"15鄰","STREET":"東橋二街","SECT":" ","MAREA":" ","LANE":"１２３巷","ALLEY":" ","HOUSE_NO":"１１號","E_COORD97":171830.41,"N_COORD97":2546623.2599999998,"ADDRESS":"東橋二街１２３巷１１號","OBJECTID":322360},"geometry":{"x":171830.41000000108,"y":2546623.2600000016}},{"attributes":{"ID":322370,"DIS_CODE":0,"TOWNNAME":"永康區","LI":"東橋里","LIN":"15鄰","STREET":"東橋二街","SECT":" ","MAREA":" ","LANE":"１２３巷","ALLEY":" ","HOUSE_NO":"１２號","E_COORD97":171844.95000000001,"N_COORD97":2546625.3500000001,"ADDRESS":"東橋二街１２３巷１２號","OBJECTID":322361},"geometry":{"x":171844.95000000205,"y":2546625.3500000034}},{"attributes":{"ID":322371,"DIS_CODE":0,"TOWNNAME":"永康區","LI":"東橋里","LIN":"15鄰","STREET":"東橋二街","SECT":" ","MAREA":" ","LANE":"１２３巷","ALLEY":" ","HOUSE_NO":"１３號","E_COORD97":171827.53,"N_COORD97":2546628.0899999999,"ADDRESS":"東橋二街１２３巷１３號","OBJECTID":322362},"geometry":{"x":171827.53000000212,"y":2546628.0900000017}},{"attributes":{"ID":322372,"DIS_CODE":0,"TOWNNAME":"永康區","LI":"東橋里","LIN":"15鄰","STREET":"東橋二街","SECT":" ","MAREA":" ","LANE":"１２３巷","ALLEY":" ","HOUSE_NO":"１５號","E_COORD97":171824.29999999999,"N_COORD97":2546633.3900000001,"ADDRESS":"東橋二街１２３巷１５號","OBJECTID":322363},"geometry":{"x":171824.30000000075,"y":2546633.3900000025}},{"attributes":{"ID":322373,"DIS_CODE":0,"TOWNNAME":"仁德區","LI":"仁義里","LIN":"18鄰","STREET":"正義路","SECT":" ","MAREA":" ","LANE":" ","ALLEY":" ","HOUSE_NO":"２３３號","E_COORD97":173988.98000000001,"N_COORD97":2541397.5099999998,"ADDRESS":"正義路２３３號","OBJECTID":322364},"geometry":{"x":173988.98000000045,"y":2541397.5100000016}},{"attributes":{"ID":322374,"DIS_CODE":0,"TOWNNAME":"仁德區","LI":"仁義里","LIN":"25鄰","STREET":"正義路","SECT":" ","MAREA":" ","LANE":" ","ALLEY":" ","HOUSE_NO":"７２號","E_COORD97":173506.56,"N_COORD97":2541428.5099999998,"ADDRESS":"正義路７２號","OBJECTID":322365},"geometry":{"x":173506.56000000145,"y":2541428.5100000016}},{"attributes":{"ID":322375,"DIS_CODE":0,"TOWNNAME":"歸仁區","LI":"南興里","LIN":"22鄰","STREET":"南興街","SECT":" ","MAREA":" ","LANE":" ","ALLEY":" ","HOUSE_NO":"３０８號二樓之１","E_COORD97":175536.648568,"N_COORD97":2541267.2976600002,"ADDRESS":"南興街３０８號二樓之１","OBJECTID":322366},"geometry":{"x":175536.64856799971,"y":2541267.297662003}},{"attributes":{"ID":322376,"DIS_CODE":0,"TOWNNAME":"佳里區","LI":"營頂里","LIN":"1鄰","STREET":" ","SECT":" ","MAREA":"營頂","LANE":" ","ALLEY":" ","HOUSE_NO":"１６號","E_COORD97":166782.49160400001,"N_COORD97":2566478.8464299999,"ADDRESS":"營頂１６號","OBJECTID":322367},"geometry":{"x":166782.49160400033,"y":2566478.8464320023}},{"attributes":{"ID":322377,"DIS_CODE":0,"TOWNNAME":"安定區","LI":"安定里","LIN":"8鄰","STREET":" ","SECT":" ","MAREA":"安定","LANE":" ","ALLEY":" ","HOUSE_NO":"５８號之２９","E_COORD97":171935.34,"N_COORD97":2558068.3199999998,"ADDRESS":"安定５８號之２９","OBJECTID":322368},"geometry":{"x":171935.34000000078,"y":2558068.3200000003}},{"attributes":{"ID":322378,"DIS_CODE":0,"TOWNNAME":"安定區","LI":"港尾里","LIN":"8鄰","STREET":" ","SECT":" ","MAREA":"港子尾","LANE":" ","ALLEY":" ","HOUSE_NO":"５２號之２","E_COORD97":171629.76000000001,"N_COORD97":2555900.2999999998,"ADDRESS":"港子尾５２號之２","OBJECTID":322369},"geometry":{"x":171629.75999999978,"y":2555900.3000000026}},{"attributes":{"ID":322379,"DIS_CODE":0,"TOWNNAME":"安定區","LI":"安定里","LIN":"8鄰","STREET":" ","SECT":" ","MAREA":"安定","LANE":" ","ALLEY":" ","HOUSE_NO":"５８號之３７","E_COORD97":171933.42999999999,"N_COORD97":2558031.3199999998,"ADDRESS":"安定５８號之３７","OBJECTID":322370},"geometry":{"x":171933.43000000063,"y":2558031.320000004}},{"attributes":{"ID":322380,"DIS_CODE":0,"TOWNNAME":"安定區","LI":"安定里","LIN":"8鄰","STREET":" ","SECT":" ","MAREA":"安定","LANE":" ","ALLEY":" ","HOUSE_NO":"５８號之３０","E_COORD97":171935.29999999999,"N_COORD97":2558065.3199999998,"ADDRESS":"安定５８號之３０","OBJECTID":322371},"geometry":{"x":171935.29999999888,"y":2558065.320000004}},{"attributes":{"ID":322381,"DIS_CODE":0,"TOWNNAME":"安定區","LI":"六嘉里","LIN":"1鄰","STREET":" ","SECT":" ","MAREA":"六塊寮","LANE":" ","ALLEY":" ","HOUSE_NO":"１０之４號","E_COORD97":170373.86449199999,"N_COORD97":2553650.0817499999,"ADDRESS":"六塊寮１０之４號","OBJECTID":322372},"geometry":{"x":170373.86449200101,"y":2553650.0817450024}},{"attributes":{"ID":322382,"DIS_CODE":0,"TOWNNAME":"安定區","LI":"港口里","LIN":"6鄰","STREET":" ","SECT":" ","MAREA":"港口","LANE":" ","ALLEY":" ","HOUSE_NO":"２２７號","E_COORD97":171498.79000000001,"N_COORD97":2554549.25,"ADDRESS":"港口２２７號","OBJECTID":322373},"geometry":{"x":171498.79000000097,"y":2554549.25}},{"attributes":{"ID":322383,"DIS_CODE":0,"TOWNNAME":"新化區","LI":"全興里","LIN":"18鄰","STREET":" ","SECT":" ","MAREA":"竹子\u25A0","LANE":" ","ALLEY":" ","HOUSE_NO":"２４７號之９５","E_COORD97":178490.44,"N_COORD97":2546756.2599999998,"ADDRESS":"竹子\u25A0２４７號之９５","OBJECTID":322374},"geometry":{"x":178490.44000000227,"y":2546756.2600000016}},{"attributes":{"ID":322384,"DIS_CODE":0,"TOWNNAME":"安定區","LI":"新吉里","LIN":"17鄰","STREET":" ","SECT":" ","MAREA":"新吉","LANE":" ","ALLEY":" ","HOUSE_NO":"２０３號","E_COORD97":168956.22,"N_COORD97":2554088.25,"ADDRESS":"新吉２０３號","OBJECTID":322375},"geometry":{"x":168956.22000000067,"y":2554088.25}},{"attributes":{"ID":322385,"DIS_CODE":0,"TOWNNAME":"歸仁區","LI":"歸仁里","LIN":"28鄰","STREET":"中山路","SECT":"一段","MAREA":" ","LANE":" ","ALLEY":" ","HOUSE_NO":"２５０號","E_COORD97":178738.36418100001,"N_COORD97":2540605.6140600001,"ADDRESS":"中山路一段２５０號","OBJECTID":322376},"geometry":{"x":178738.36418099981,"y":2540605.6140600014}},{"attributes":{"ID":322386,"DIS_CODE":0,"TOWNNAME":"永康區","LI":"東橋里","LIN":"15鄰","STREET":"東橋二街","SECT":" ","MAREA":" ","LANE":"１２３巷","ALLEY":" ","HOUSE_NO":"１６號","E_COORD97":171842,"N_COORD97":2546630.71,"ADDRESS":"東橋二街１２３巷１６號","OBJECTID":322377},"geometry":{"x":171842,"y":2546630.709999999}},{"attributes":{"ID":322387,"DIS_CODE":0,"TOWNNAME":"新化區","LI":"羊林里","LIN":"4鄰","STREET":" ","SECT":" ","MAREA":"\u25A0拔林","LANE":" ","ALLEY":" ","HOUSE_NO":"４４９號","E_COORD97":183653.82000000001,"N_COORD97":2551740.25,"ADDRESS":"\u25A0拔林４４９號","OBJECTID":322378},"geometry":{"x":183653.8200000003,"y":2551740.2500000019}},{"attributes":{"ID":322388,"DIS_CODE":0,"TOWNNAME":"新化區","LI":"北勢里","LIN":"4鄰","STREET":" ","SECT":" ","MAREA":"北勢","LANE":" ","ALLEY":" ","HOUSE_NO":"５０號","E_COORD97":177321.82999999999,"N_COORD97":2549625.2599999998,"ADDRESS":"北勢５０號","OBJECTID":322379},"geometry":{"x":177321.83000000101,"y":2549625.2599999998}},{"attributes":{"ID":322389,"DIS_CODE":0,"TOWNNAME":"永康區","LI":"東橋里","LIN":"15鄰","STREET":"東橋二街","SECT":" ","MAREA":" ","LANE":"１２３巷","ALLEY":" ","HOUSE_NO":"１７號","E_COORD97":171821.42999999999,"N_COORD97":2546638.79,"ADDRESS":"東橋二街１２３巷１７號","OBJECTID":322380},"geometry":{"x":171821.43000000063,"y":2546638.7900000028}},{"attributes":{"ID":322390,"DIS_CODE":0,"TOWNNAME":"新化區","LI":"全興里","LIN":"18鄰","STREET":" ","SECT":" ","MAREA":"竹子\u25A0","LANE":" ","ALLEY":" ","HOUSE_NO":"２４７號之１７７","E_COORD97":178506.38,"N_COORD97":2546741.2599999998,"ADDRESS":"竹子\u25A0２４７號之１７７","OBJECTID":322381},"geometry":{"x":178506.37999999989,"y":2546741.2600000035}},{"attributes":{"ID":322391,"DIS_CODE":0,"TOWNNAME":"永康區","LI":"東橋里","LIN":"15鄰","STREET":"東橋二街","SECT":" ","MAREA":" ","LANE":"１２３巷","ALLEY":" ","HOUSE_NO":"１８號","E_COORD97":171839.59,"N_COORD97":2546635.79,"ADDRESS":"東橋二街１２３巷１８號","OBJECTID":322382},"geometry":{"x":171839.58999999985,"y":2546635.790000001}},{"attributes":{"ID":322392,"DIS_CODE":0,"TOWNNAME":"下營區","LI":"後街里","LIN":"17鄰","STREET":"和平街","SECT":" ","MAREA":" ","LANE":" ","ALLEY":" ","HOUSE_NO":"５３號","E_COORD97":174674.19,"N_COORD97":2570830.25,"ADDRESS":"和平街５３號","OBJECTID":322383},"geometry":{"x":174674.19000000041,"y":2570830.2500000037}},{"attributes":{"ID":322393,"DIS_CODE":0,"TOWNNAME":"新化區","LI":"全興里","LIN":"20鄰","STREET":" ","SECT":" ","MAREA":"竹子\u25A0","LANE":" ","ALLEY":" ","HOUSE_NO":"２４７號之３６２","E_COORD97":178392.48999999999,"N_COORD97":2546676.2599999998,"ADDRESS":"竹子\u25A0２４７號之３６２","OBJECTID":322384},"geometry":{"x":178392.49000000022,"y":2546676.2599999998}},{"attributes":{"ID":322394,"DIS_CODE":0,"TOWNNAME":"新化區","LI":"北勢里","LIN":"4鄰","STREET":" ","SECT":" ","MAREA":"北勢","LANE":" ","ALLEY":" ","HOUSE_NO":"４５號","E_COORD97":177278.23000000001,"N_COORD97":2549577.2599999998,"ADDRESS":"北勢４５號","OBJECTID":322385},"geometry":{"x":177278.23000000138,"y":2549577.2600000016}},{"attributes":{"ID":322395,"DIS_CODE":0,"TOWNNAME":"新化區","LI":"清水里","LIN":"4鄰","STREET":"民權街","SECT":" ","MAREA":" ","LANE":" ","ALLEY":" ","HOUSE_NO":"９號","E_COORD97":178740.51000000001,"N_COORD97":2548453.25,"ADDRESS":"民權街９號","OBJECTID":322386},"geometry":{"x":178740.51000000071,"y":2548453.25}},{"attributes":{"ID":322396,"DIS_CODE":0,"TOWNNAME":"新化區","LI":"全興里","LIN":"18鄰","STREET":" ","SECT":" ","MAREA":"竹子\u25A0","LANE":" ","ALLEY":" ","HOUSE_NO":"２４７號之８７","E_COORD97":178416.23000000001,"N_COORD97":2546759.2599999998,"ADDRESS":"竹子\u25A0２４７號之８７","OBJECTID":322387},"geometry":{"x":178416.23000000138,"y":2546759.2600000016}},{"attributes":{"ID":322397,"DIS_CODE":0,"TOWNNAME":"新化區","LI":"全興里","LIN":"18鄰","STREET":" ","SECT":" ","MAREA":"竹子\u25A0","LANE":" ","ALLEY":" ","HOUSE_NO":"２４７號之９９","E_COORD97":178510.92999999999,"N_COORD97":2546755.2599999998,"ADDRESS":"竹子\u25A0２４７號之９９","OBJECTID":322388},"geometry":{"x":178510.9299999997,"y":2546755.2600000016}},{"attributes":{"ID":322398,"DIS_CODE":0,"TOWNNAME":"新化區","LI":"全興里","LIN":"13鄰","STREET":" ","SECT":" ","MAREA":"竹子\u25A0","LANE":" ","ALLEY":" ","HOUSE_NO":"２４７號之１５１","E_COORD97":178193.56,"N_COORD97":2546792.2599999998,"ADDRESS":"竹子\u25A0２４７號之１５１","OBJECTID":322389},"geometry":{"x":178193.55999999959,"y":2546792.2600000035}},{"attributes":{"ID":322399,"DIS_CODE":0,"TOWNNAME":"新化區","LI":"羊林里","LIN":"4鄰","STREET":" ","SECT":" ","MAREA":"\u25A0拔林","LANE":" ","ALLEY":" ","HOUSE_NO":"４５０號","E_COORD97":183666.01999999999,"N_COORD97":2551712.25,"ADDRESS":"\u25A0拔林４５０號","OBJECTID":322390},"geometry":{"x":183666.02000000142,"y":2551712.2500000019}},{"attributes":{"ID":322400,"DIS_CODE":0,"TOWNNAME":"永康區","LI":"東橋里","LIN":"15鄰","STREET":"東橋二街","SECT":" ","MAREA":" ","LANE":"１２３巷","ALLEY":" ","HOUSE_NO":"１號","E_COORD97":171843.32000000001,"N_COORD97":2546597.2599999998,"ADDRESS":"東橋二街１２３巷１號","OBJECTID":322391},"geometry":{"x":171843.32000000123,"y":2546597.2599999998}},{"attributes":{"ID":322401,"DIS_CODE":0,"TOWNNAME":"新化區","LI":"北勢里","LIN":"4鄰","STREET":" ","SECT":" ","MAREA":"北勢","LANE":" ","ALLEY":" ","HOUSE_NO":"５７號","E_COORD97":177371.03,"N_COORD97":2549591.2599999998,"ADDRESS":"北勢５７號","OBJECTID":322392},"geometry":{"x":177371.03000000119,"y":2549591.2599999998}},{"attributes":{"ID":322402,"DIS_CODE":0,"TOWNNAME":"新化區","LI":"北勢里","LIN":"4鄰","STREET":" ","SECT":" ","MAREA":"北勢","LANE":" ","ALLEY":" ","HOUSE_NO":"５３號","E_COORD97":177346.13,"N_COORD97":2549609.2599999998,"ADDRESS":"北勢５３號","OBJECTID":322393},"geometry":{"x":177346.13000000082,"y":2549609.2599999998}},{"attributes":{"ID":322403,"DIS_CODE":0,"TOWNNAME":"新化區","LI":"北勢里","LIN":"4鄰","STREET":" ","SECT":" ","MAREA":"北勢","LANE":" ","ALLEY":" ","HOUSE_NO":"４０號之２","E_COORD97":177342.59,"N_COORD97":2549547.2599999998,"ADDRESS":"北勢４０號之２","OBJECTID":322394},"geometry":{"x":177342.58999999985,"y":2549547.2599999998}},{"attributes":{"ID":322404,"DIS_CODE":0,"TOWNNAME":"新化區","LI":"全興里","LIN":"18鄰","STREET":" ","SECT":" ","MAREA":"竹子\u25A0","LANE":" ","ALLEY":" ","HOUSE_NO":"２４７號之１９５","E_COORD97":178445.79000000001,"N_COORD97":2546740.2599999998,"ADDRESS":"竹子\u25A0２４７號之１９５","OBJECTID":322395},"geometry":{"x":178445.79000000097,"y":2546740.2599999998}},{"attributes":{"ID":322405,"DIS_CODE":0,"TOWNNAME":"新化區","LI":"全興里","LIN":"18鄰","STREET":" ","SECT":" ","MAREA":"竹子\u25A0","LANE":" ","ALLEY":" ","HOUSE_NO":"２４７號之８１","E_COORD97":178388.91,"N_COORD97":2546759.2599999998,"ADDRESS":"竹子\u25A0２４７號之８１","OBJECTID":322396},"geometry":{"x":178388.91000000108,"y":2546759.2600000016}},{"attributes":{"ID":322406,"DIS_CODE":0,"TOWNNAME":"新化區","LI":"北勢里","LIN":"4鄰","STREET":" ","SECT":" ","MAREA":"北勢","LANE":" ","ALLEY":" ","HOUSE_NO":"５５號","E_COORD97":177368.92999999999,"N_COORD97":2549549.2599999998,"ADDRESS":"北勢５５號","OBJECTID":322397},"geometry":{"x":177368.9299999997,"y":2549549.2600000016}},{"attributes":{"ID":322407,"DIS_CODE":0,"TOWNNAME":"新化區","LI":"全興里","LIN":"18鄰","STREET":" ","SECT":" ","MAREA":"竹子\u25A0","LANE":" ","ALLEY":" ","HOUSE_NO":"２４７號之９２","E_COORD97":178477.23999999999,"N_COORD97":2546756.2599999998,"ADDRESS":"竹子\u25A0２４７號之９２","OBJECTID":322398},"geometry":{"x":178477.24000000022,"y":2546756.2600000016}},{"attributes":{"ID":322408,"DIS_CODE":0,"TOWNNAME":"新化區","LI":"北勢里","LIN":"4鄰","STREET":" ","SECT":" ","MAREA":"北勢","LANE":" ","ALLEY":" ","HOUSE_NO":"１３５號","E_COORD97":177289.98000000001,"N_COORD97":2549549.2599999998,"ADDRESS":"北勢１３５號","OBJECTID":322399},"geometry":{"x":177289.98000000231,"y":2549549.2600000016}},{"attributes":{"ID":322409,"DIS_CODE":0,"TOWNNAME":"新化區","LI":"全興里","LIN":"18鄰","STREET":" ","SECT":" ","MAREA":"竹子\u25A0","LANE":" ","ALLEY":" ","HOUSE_NO":"２４７號之２１７","E_COORD97":178393.17999999999,"N_COORD97":2546742.2599999998,"ADDRESS":"竹子\u25A0２４７號之２１７","OBJECTID":322400},"geometry":{"x":178393.18000000156,"y":2546742.2600000016}}]}