{"displayFieldName":"TOWNNAME","fieldAliases":{"ID":"ID","DIS_CODE":"DIS_CODE","TOWNNAME":"TOWNNAME","LI":"LI","LIN":"LIN","STREET":"STREET","SECT":"SECT","MAREA":"MAREA","LANE":"LANE","ALLEY":"ALLEY","HOUSE_NO":"HOUSE_NO","E_COORD97":"E_COORD97","N_COORD97":"N_COORD97","ADDRESS":"ADDRESS","OBJECTID":"OBJECTID"},"geometryType":"esriGeometryPoint","spatialReference":{"wkid":102443,"latestWkid":3826},"fields":[{"name":"ID","type":"esriFieldTypeDouble","alias":"ID"},{"name":"DIS_CODE","type":"esriFieldTypeInteger","alias":"DIS_CODE"},{"name":"TOWNNAME","type":"esriFieldTypeString","alias":"TOWNNAME","length":8},{"name":"LI","type":"esriFieldTypeString","alias":"LI","length":8},{"name":"LIN","type":"esriFieldTypeString","alias":"LIN","length":12},{"name":"STREET","type":"esriFieldTypeString","alias":"STREET","length":20},{"name":"SECT","type":"esriFieldTypeString","alias":"SECT","length":8},{"name":"MAREA","type":"esriFieldTypeString","alias":"MAREA","length":12},{"name":"LANE","type":"esriFieldTypeString","alias":"LANE","length":10},{"name":"ALLEY","type":"esriFieldTypeString","alias":"ALLEY","length":10},{"name":"HOUSE_NO","type":"esriFieldTypeString","alias":"HOUSE_NO","length":20},{"name":"E_COORD97","type":"esriFieldTypeDouble","alias":"E_COORD97"},{"name":"N_COORD97","type":"esriFieldTypeDouble","alias":"N_COORD97"},{"name":"ADDRESS","type":"esriFieldTypeString","alias":"ADDRESS","length":50},{"name":"OBJECTID","type":"esriFieldTypeOID","alias":"OBJECTID"}],"features":[{"attributes":{"ID":257605,"DIS_CODE":0,"TOWNNAME":"永康區","LI":"中華里","LIN":"17鄰","STREET":"中華路","SECT":" ","MAREA":" ","LANE":"１０巷","ALLEY":" ","HOUSE_NO":"１６號之２５七樓","E_COORD97":171659.54000000001,"N_COORD97":2544438.0099999998,"ADDRESS":"中華路１０巷１６號之２５七樓","OBJECTID":257601},"geometry":{"x":171659.54000000097,"y":2544438.0100000016}},{"attributes":{"ID":257606,"DIS_CODE":0,"TOWNNAME":"永康區","LI":"中華里","LIN":"17鄰","STREET":"中華路","SECT":" ","MAREA":" ","LANE":"１０巷","ALLEY":" ","HOUSE_NO":"１６號之２０六樓","E_COORD97":171659.54000000001,"N_COORD97":2544438.0099999998,"ADDRESS":"中華路１０巷１６號之２０六樓","OBJECTID":257602},"geometry":{"x":171659.54000000097,"y":2544438.0100000016}},{"attributes":{"ID":257607,"DIS_CODE":0,"TOWNNAME":"東區","LI":"泉南里","LIN":"24鄰","STREET":"長榮路","SECT":"一段","MAREA":" ","LANE":" ","ALLEY":" ","HOUSE_NO":"７號四樓之３","E_COORD97":169595.51999999999,"N_COORD97":2542609.46,"ADDRESS":"長榮路一段７號四樓之３","OBJECTID":257603},"geometry":{"x":169595.51999999955,"y":2542609.4600000028}},{"attributes":{"ID":257608,"DIS_CODE":0,"TOWNNAME":"東區","LI":"泉南里","LIN":"24鄰","STREET":"長榮路","SECT":"一段","MAREA":" ","LANE":" ","ALLEY":" ","HOUSE_NO":"７號五樓之３","E_COORD97":169595.51999999999,"N_COORD97":2542609.46,"ADDRESS":"長榮路一段７號五樓之３","OBJECTID":257604},"geometry":{"x":169595.51999999955,"y":2542609.4600000028}},{"attributes":{"ID":257609,"DIS_CODE":0,"TOWNNAME":"東區","LI":"泉南里","LIN":"24鄰","STREET":"長榮路","SECT":"一段","MAREA":" ","LANE":" ","ALLEY":" ","HOUSE_NO":"９號二樓之１","E_COORD97":169599.67000000001,"N_COORD97":2542589.3599999999,"ADDRESS":"長榮路一段９號二樓之１","OBJECTID":257605},"geometry":{"x":169599.66999999993,"y":2542589.3599999994}},{"attributes":{"ID":257610,"DIS_CODE":0,"TOWNNAME":"永康區","LI":"勝利里","LIN":"23鄰","STREET":"中華一路","SECT":" ","MAREA":" ","LANE":"１８１巷","ALLEY":" ","HOUSE_NO":"２４號","E_COORD97":171489.10999999999,"N_COORD97":2544888,"ADDRESS":"中華一路１８１巷２４號","OBJECTID":257606},"geometry":{"x":171489.11000000034,"y":2544888}},{"attributes":{"ID":257611,"DIS_CODE":0,"TOWNNAME":"永康區","LI":"復國里","LIN":"11鄰","STREET":"復國一路","SECT":" ","MAREA":" ","LANE":"２７６巷","ALLEY":" ","HOUSE_NO":"１０號","E_COORD97":172809.20000000001,"N_COORD97":2545406.1699999999,"ADDRESS":"復國一路２７６巷１０號","OBJECTID":257607},"geometry":{"x":172809.20000000019,"y":2545406.1700000037}},{"attributes":{"ID":257612,"DIS_CODE":0,"TOWNNAME":"永康區","LI":"中華里","LIN":"17鄰","STREET":"中華路","SECT":" ","MAREA":" ","LANE":"１０巷","ALLEY":" ","HOUSE_NO":"１６號之３２八樓","E_COORD97":171633.06,"N_COORD97":2544437.71,"ADDRESS":"中華路１０巷１６號之３２八樓","OBJECTID":257608},"geometry":{"x":171633.05999999959,"y":2544437.7100000028}},{"attributes":{"ID":257613,"DIS_CODE":0,"TOWNNAME":"永康區","LI":"中華里","LIN":"17鄰","STREET":"中華路","SECT":" ","MAREA":" ","LANE":"１０巷","ALLEY":" ","HOUSE_NO":"１６號之２３六樓","E_COORD97":171659.54000000001,"N_COORD97":2544438.0099999998,"ADDRESS":"中華路１０巷１６號之２３六樓","OBJECTID":257609},"geometry":{"x":171659.54000000097,"y":2544438.0100000016}},{"attributes":{"ID":257614,"DIS_CODE":0,"TOWNNAME":"東區","LI":"泉南里","LIN":"24鄰","STREET":"長榮路","SECT":"一段","MAREA":" ","LANE":" ","ALLEY":" ","HOUSE_NO":"９號三樓之１","E_COORD97":169599.67000000001,"N_COORD97":2542589.3599999999,"ADDRESS":"長榮路一段９號三樓之１","OBJECTID":257610},"geometry":{"x":169599.66999999993,"y":2542589.3599999994}},{"attributes":{"ID":257615,"DIS_CODE":0,"TOWNNAME":"東區","LI":"泉南里","LIN":"24鄰","STREET":"長榮路","SECT":"一段","MAREA":" ","LANE":" ","ALLEY":" ","HOUSE_NO":"９號四樓之１","E_COORD97":169599.67000000001,"N_COORD97":2542589.3599999999,"ADDRESS":"長榮路一段９號四樓之１","OBJECTID":257611},"geometry":{"x":169599.66999999993,"y":2542589.3599999994}},{"attributes":{"ID":257616,"DIS_CODE":0,"TOWNNAME":"東區","LI":"泉南里","LIN":"24鄰","STREET":"長榮路","SECT":"一段","MAREA":" ","LANE":" ","ALLEY":" ","HOUSE_NO":"９號五樓之１","E_COORD97":169599.67000000001,"N_COORD97":2542589.3599999999,"ADDRESS":"長榮路一段９號五樓之１","OBJECTID":257612},"geometry":{"x":169599.66999999993,"y":2542589.3599999994}},{"attributes":{"ID":257617,"DIS_CODE":0,"TOWNNAME":"東區","LI":"小東里","LIN":"15鄰","STREET":"光明街","SECT":" ","MAREA":" ","LANE":" ","ALLEY":" ","HOUSE_NO":"８６號","E_COORD97":170899.23000000001,"N_COORD97":2544133.29,"ADDRESS":"光明街８６號","OBJECTID":257613},"geometry":{"x":170899.23000000138,"y":2544133.2900000028}},{"attributes":{"ID":257618,"DIS_CODE":0,"TOWNNAME":"永康區","LI":"勝利里","LIN":"35鄰","STREET":"勝利街","SECT":" ","MAREA":" ","LANE":"２巷","ALLEY":" ","HOUSE_NO":"１號","E_COORD97":171119.26000000001,"N_COORD97":2544689.7599999998,"ADDRESS":"勝利街２巷１號","OBJECTID":257614},"geometry":{"x":171119.26000000071,"y":2544689.7599999998}},{"attributes":{"ID":257619,"DIS_CODE":0,"TOWNNAME":"永康區","LI":"中華里","LIN":"17鄰","STREET":"中華路","SECT":" ","MAREA":" ","LANE":"１０巷","ALLEY":" ","HOUSE_NO":"１６號之３三樓","E_COORD97":171658.29000000001,"N_COORD97":2544438.0099999998,"ADDRESS":"中華路１０巷１６號之３三樓","OBJECTID":257615},"geometry":{"x":171658.29000000097,"y":2544438.0100000016}},{"attributes":{"ID":257620,"DIS_CODE":0,"TOWNNAME":"新營區","LI":"興業里","LIN":" ","STREET":"公誠街","SECT":" ","MAREA":" ","LANE":"１１巷","ALLEY":" ","HOUSE_NO":"１２之４號","E_COORD97":180346.20000000001,"N_COORD97":2577958.7200000002,"ADDRESS":"公誠街１１巷１２之４號","OBJECTID":257616},"geometry":{"x":180346.19999999925,"y":2577958.7200000025}},{"attributes":{"ID":257621,"DIS_CODE":0,"TOWNNAME":"新營區","LI":"新東里","LIN":"25鄰","STREET":"民族路","SECT":" ","MAREA":" ","LANE":"１５０巷","ALLEY":" ","HOUSE_NO":"７４號之１","E_COORD97":180621.51000000001,"N_COORD97":2579295.23,"ADDRESS":"民族路１５０巷７４號之１","OBJECTID":257617},"geometry":{"x":180621.50999999978,"y":2579295.2300000004}},{"attributes":{"ID":257622,"DIS_CODE":0,"TOWNNAME":"新營區","LI":"興業里","LIN":" ","STREET":"中興路","SECT":" ","MAREA":" ","LANE":"１５巷","ALLEY":" ","HOUSE_NO":"２０之２號","E_COORD97":180239.69,"N_COORD97":2577917.1499999999,"ADDRESS":"中興路１５巷２０之２號","OBJECTID":257618},"geometry":{"x":180239.68999999948,"y":2577917.1500000041}},{"attributes":{"ID":257623,"DIS_CODE":0,"TOWNNAME":"永康區","LI":"中華里","LIN":"17鄰","STREET":"中華路","SECT":" ","MAREA":" ","LANE":"１０巷","ALLEY":" ","HOUSE_NO":"１６號之２６七樓","E_COORD97":171659.54000000001,"N_COORD97":2544438.0099999998,"ADDRESS":"中華路１０巷１６號之２６七樓","OBJECTID":257619},"geometry":{"x":171659.54000000097,"y":2544438.0100000016}},{"attributes":{"ID":257624,"DIS_CODE":0,"TOWNNAME":"永康區","LI":"中華里","LIN":"17鄰","STREET":"中華路","SECT":" ","MAREA":" ","LANE":"１０巷","ALLEY":" ","HOUSE_NO":"１６號之４３十樓","E_COORD97":171633.06,"N_COORD97":2544437.71,"ADDRESS":"中華路１０巷１６號之４３十樓","OBJECTID":257620},"geometry":{"x":171633.05999999959,"y":2544437.7100000028}},{"attributes":{"ID":257625,"DIS_CODE":0,"TOWNNAME":"東區","LI":"泉南里","LIN":"24鄰","STREET":"長榮路","SECT":"一段","MAREA":" ","LANE":" ","ALLEY":" ","HOUSE_NO":"９號六樓之１","E_COORD97":169599.67000000001,"N_COORD97":2542589.3599999999,"ADDRESS":"長榮路一段９號六樓之１","OBJECTID":257621},"geometry":{"x":169599.66999999993,"y":2542589.3599999994}},{"attributes":{"ID":257626,"DIS_CODE":0,"TOWNNAME":"永康區","LI":"中華里","LIN":"17鄰","STREET":"中華路","SECT":" ","MAREA":" ","LANE":"１０巷","ALLEY":" ","HOUSE_NO":"１６號之３３八樓","E_COORD97":171633.06,"N_COORD97":2544437.71,"ADDRESS":"中華路１０巷１６號之３３八樓","OBJECTID":257622},"geometry":{"x":171633.05999999959,"y":2544437.7100000028}},{"attributes":{"ID":257627,"DIS_CODE":0,"TOWNNAME":"永康區","LI":"中華里","LIN":"17鄰","STREET":"中華路","SECT":" ","MAREA":" ","LANE":"１０巷","ALLEY":" ","HOUSE_NO":"１６號之３６八樓","E_COORD97":171633.06,"N_COORD97":2544437.71,"ADDRESS":"中華路１０巷１６號之３６八樓","OBJECTID":257623},"geometry":{"x":171633.05999999959,"y":2544437.7100000028}},{"attributes":{"ID":257628,"DIS_CODE":0,"TOWNNAME":"永康區","LI":"中華里","LIN":"17鄰","STREET":"中華路","SECT":" ","MAREA":" ","LANE":"１０巷","ALLEY":" ","HOUSE_NO":"１６號之１１四樓","E_COORD97":171659.54000000001,"N_COORD97":2544438.0099999998,"ADDRESS":"中華路１０巷１６號之１１四樓","OBJECTID":257624},"geometry":{"x":171659.54000000097,"y":2544438.0100000016}},{"attributes":{"ID":257629,"DIS_CODE":0,"TOWNNAME":"東區","LI":"泉南里","LIN":"24鄰","STREET":"長榮路","SECT":"一段","MAREA":" ","LANE":" ","ALLEY":" ","HOUSE_NO":"９號七樓之１","E_COORD97":169599.67000000001,"N_COORD97":2542589.3599999999,"ADDRESS":"長榮路一段９號七樓之１","OBJECTID":257625},"geometry":{"x":169599.66999999993,"y":2542589.3599999994}},{"attributes":{"ID":257630,"DIS_CODE":0,"TOWNNAME":"東區","LI":"泉南里","LIN":"24鄰","STREET":"長榮路","SECT":"一段","MAREA":" ","LANE":" ","ALLEY":" ","HOUSE_NO":"９號八樓之１","E_COORD97":169599.67000000001,"N_COORD97":2542589.3599999999,"ADDRESS":"長榮路一段９號八樓之１","OBJECTID":257626},"geometry":{"x":169599.66999999993,"y":2542589.3599999994}},{"attributes":{"ID":257631,"DIS_CODE":0,"TOWNNAME":"永康區","LI":"崑山里","LIN":"3鄰","STREET":"永大路","SECT":"一段","MAREA":" ","LANE":"２８７巷","ALLEY":" ","HOUSE_NO":"１２２號","E_COORD97":173694.03,"N_COORD97":2544349.48,"ADDRESS":"永大路一段２８７巷１２２號","OBJECTID":257627},"geometry":{"x":173694.03000000212,"y":2544349.4800000004}},{"attributes":{"ID":257632,"DIS_CODE":0,"TOWNNAME":"永康區","LI":"勝利里","LIN":"1鄰","STREET":"勝利街","SECT":" ","MAREA":" ","LANE":"１巷","ALLEY":" ","HOUSE_NO":"５號","E_COORD97":171118.72,"N_COORD97":2544575.5099999998,"ADDRESS":"勝利街１巷５號","OBJECTID":257628},"geometry":{"x":171118.7200000016,"y":2544575.5099999998}},{"attributes":{"ID":257633,"DIS_CODE":0,"TOWNNAME":"永康區","LI":"中華里","LIN":"17鄰","STREET":"中華路","SECT":" ","MAREA":" ","LANE":"１０巷","ALLEY":" ","HOUSE_NO":"１６號之１９六樓","E_COORD97":171659.54000000001,"N_COORD97":2544438.0099999998,"ADDRESS":"中華路１０巷１６號之１９六樓","OBJECTID":257629},"geometry":{"x":171659.54000000097,"y":2544438.0100000016}},{"attributes":{"ID":257634,"DIS_CODE":0,"TOWNNAME":"永康區","LI":"中華里","LIN":"17鄰","STREET":"中華路","SECT":" ","MAREA":" ","LANE":"１０巷","ALLEY":" ","HOUSE_NO":"１６號之１２四樓","E_COORD97":171659.54000000001,"N_COORD97":2544438.0099999998,"ADDRESS":"中華路１０巷１６號之１２四樓","OBJECTID":257630},"geometry":{"x":171659.54000000097,"y":2544438.0100000016}},{"attributes":{"ID":257635,"DIS_CODE":0,"TOWNNAME":"永康區","LI":"中華里","LIN":"17鄰","STREET":"中華路","SECT":" ","MAREA":" ","LANE":"１０巷","ALLEY":" ","HOUSE_NO":"１６號之５５十二樓","E_COORD97":171634.31,"N_COORD97":2544437.71,"ADDRESS":"中華路１０巷１６號之５５十二樓","OBJECTID":257631},"geometry":{"x":171634.30999999959,"y":2544437.7100000028}},{"attributes":{"ID":257636,"DIS_CODE":0,"TOWNNAME":"永康區","LI":"中華里","LIN":"17鄰","STREET":"中華路","SECT":" ","MAREA":" ","LANE":"１０巷","ALLEY":" ","HOUSE_NO":"１６號之３７九樓","E_COORD97":171633.06,"N_COORD97":2544437.71,"ADDRESS":"中華路１０巷１６號之３７九樓","OBJECTID":257632},"geometry":{"x":171633.05999999959,"y":2544437.7100000028}},{"attributes":{"ID":257637,"DIS_CODE":0,"TOWNNAME":"永康區","LI":"中華里","LIN":"17鄰","STREET":"中華路","SECT":" ","MAREA":" ","LANE":"１０巷","ALLEY":" ","HOUSE_NO":"１６號之５９十二樓","E_COORD97":171634.31,"N_COORD97":2544437.71,"ADDRESS":"中華路１０巷１６號之５９十二樓","OBJECTID":257633},"geometry":{"x":171634.30999999959,"y":2544437.7100000028}},{"attributes":{"ID":257638,"DIS_CODE":0,"TOWNNAME":"永康區","LI":"中華里","LIN":"17鄰","STREET":"中華路","SECT":" ","MAREA":" ","LANE":"１０巷","ALLEY":" ","HOUSE_NO":"１６號之４８十樓","E_COORD97":171633.06,"N_COORD97":2544437.71,"ADDRESS":"中華路１０巷１６號之４８十樓","OBJECTID":257634},"geometry":{"x":171633.05999999959,"y":2544437.7100000028}},{"attributes":{"ID":257639,"DIS_CODE":0,"TOWNNAME":"永康區","LI":"中華里","LIN":"17鄰","STREET":"中華路","SECT":" ","MAREA":" ","LANE":"１０巷","ALLEY":" ","HOUSE_NO":"１６號之１三樓","E_COORD97":171658.29000000001,"N_COORD97":2544438.0099999998,"ADDRESS":"中華路１０巷１６號之１三樓","OBJECTID":257635},"geometry":{"x":171658.29000000097,"y":2544438.0100000016}},{"attributes":{"ID":257640,"DIS_CODE":0,"TOWNNAME":"東區","LI":"泉南里","LIN":"24鄰","STREET":"長榮路","SECT":"一段","MAREA":" ","LANE":" ","ALLEY":" ","HOUSE_NO":"９號九樓之１","E_COORD97":169599.67000000001,"N_COORD97":2542589.3599999999,"ADDRESS":"長榮路一段９號九樓之１","OBJECTID":257636},"geometry":{"x":169599.66999999993,"y":2542589.3599999994}},{"attributes":{"ID":257641,"DIS_CODE":0,"TOWNNAME":"東區","LI":"泉南里","LIN":"24鄰","STREET":"長榮路","SECT":"一段","MAREA":" ","LANE":" ","ALLEY":" ","HOUSE_NO":"９號十樓之１","E_COORD97":169599.67000000001,"N_COORD97":2542589.3599999999,"ADDRESS":"長榮路一段９號十樓之１","OBJECTID":257637},"geometry":{"x":169599.66999999993,"y":2542589.3599999994}},{"attributes":{"ID":257642,"DIS_CODE":0,"TOWNNAME":"安南區","LI":"\u25A0南里","LIN":"28鄰","STREET":"安昌街","SECT":" ","MAREA":" ","LANE":"３１０巷","ALLEY":" ","HOUSE_NO":"２３號","E_COORD97":170219.33760200001,"N_COORD97":2552825.5429400001,"ADDRESS":"安昌街３１０巷２３號","OBJECTID":257638},"geometry":{"x":170219.33760200068,"y":2552825.5429389998}},{"attributes":{"ID":257643,"DIS_CODE":0,"TOWNNAME":"南區","LI":"文南里","LIN":"22鄰","STREET":"中華西路","SECT":"一段","MAREA":" ","LANE":"１３７巷","ALLEY":" ","HOUSE_NO":"２３號","E_COORD97":166398.63,"N_COORD97":2542473.8399999999,"ADDRESS":"中華西路一段１３７巷２３號","OBJECTID":257639},"geometry":{"x":166398.63000000082,"y":2542473.8400000017}},{"attributes":{"ID":257644,"DIS_CODE":0,"TOWNNAME":"永康區","LI":"中華里","LIN":"17鄰","STREET":"中華路","SECT":" ","MAREA":" ","LANE":"１０巷","ALLEY":" ","HOUSE_NO":"１６號之８四樓","E_COORD97":171658.29000000001,"N_COORD97":2544438.0099999998,"ADDRESS":"中華路１０巷１６號之８四樓","OBJECTID":257640},"geometry":{"x":171658.29000000097,"y":2544438.0100000016}},{"attributes":{"ID":257645,"DIS_CODE":0,"TOWNNAME":"永康區","LI":"中華里","LIN":"17鄰","STREET":"中華路","SECT":" ","MAREA":" ","LANE":"１０巷","ALLEY":" ","HOUSE_NO":"１６號之１６五樓","E_COORD97":171659.54000000001,"N_COORD97":2544438.0099999998,"ADDRESS":"中華路１０巷１６號之１６五樓","OBJECTID":257641},"geometry":{"x":171659.54000000097,"y":2544438.0100000016}},{"attributes":{"ID":257646,"DIS_CODE":0,"TOWNNAME":"永康區","LI":"中華里","LIN":"17鄰","STREET":"中華路","SECT":" ","MAREA":" ","LANE":"１０巷","ALLEY":" ","HOUSE_NO":"１６號之３１八樓","E_COORD97":171633.06,"N_COORD97":2544437.71,"ADDRESS":"中華路１０巷１６號之３１八樓","OBJECTID":257642},"geometry":{"x":171633.05999999959,"y":2544437.7100000028}},{"attributes":{"ID":257647,"DIS_CODE":0,"TOWNNAME":"東區","LI":"泉南里","LIN":"24鄰","STREET":"長榮路","SECT":"一段","MAREA":" ","LANE":" ","ALLEY":" ","HOUSE_NO":"９號十一樓之１","E_COORD97":169599.67000000001,"N_COORD97":2542589.3599999999,"ADDRESS":"長榮路一段９號十一樓之１","OBJECTID":257643},"geometry":{"x":169599.66999999993,"y":2542589.3599999994}},{"attributes":{"ID":257648,"DIS_CODE":0,"TOWNNAME":"東區","LI":"泉南里","LIN":"24鄰","STREET":"長榮路","SECT":"一段","MAREA":" ","LANE":" ","ALLEY":" ","HOUSE_NO":"９號十二樓之１","E_COORD97":169599.67000000001,"N_COORD97":2542589.3599999999,"ADDRESS":"長榮路一段９號十二樓之１","OBJECTID":257644},"geometry":{"x":169599.66999999993,"y":2542589.3599999994}},{"attributes":{"ID":257649,"DIS_CODE":0,"TOWNNAME":"仁德區","LI":"仁德里","LIN":"24鄰","STREET":"文孝路","SECT":" ","MAREA":" ","LANE":" ","ALLEY":" ","HOUSE_NO":"６５號","E_COORD97":172036.07000000001,"N_COORD97":2541376.3300000001,"ADDRESS":"文孝路６５號","OBJECTID":257645},"geometry":{"x":172036.07000000123,"y":2541376.3300000001}},{"attributes":{"ID":257650,"DIS_CODE":0,"TOWNNAME":"永康區","LI":"復國里","LIN":"5鄰","STREET":"復國二路","SECT":" ","MAREA":" ","LANE":"４０巷","ALLEY":" ","HOUSE_NO":"１４號","E_COORD97":172867.98000000001,"N_COORD97":2544977.5299999998,"ADDRESS":"復國二路４０巷１４號","OBJECTID":257646},"geometry":{"x":172867.98000000138,"y":2544977.5300000012}},{"attributes":{"ID":257651,"DIS_CODE":0,"TOWNNAME":"永康區","LI":"復國里","LIN":"5鄰","STREET":"復國二路","SECT":" ","MAREA":" ","LANE":"３８巷","ALLEY":" ","HOUSE_NO":"１３號","E_COORD97":172868.67999999999,"N_COORD97":2544944.27,"ADDRESS":"復國二路３８巷１３號","OBJECTID":257647},"geometry":{"x":172868.68000000063,"y":2544944.2700000033}},{"attributes":{"ID":257652,"DIS_CODE":0,"TOWNNAME":"永康區","LI":"復國里","LIN":"8鄰","STREET":"復國二路","SECT":" ","MAREA":" ","LANE":"６３巷","ALLEY":" ","HOUSE_NO":"７號","E_COORD97":172811.32000000001,"N_COORD97":2545127.52,"ADDRESS":"復國二路６３巷７號","OBJECTID":257648},"geometry":{"x":172811.32000000123,"y":2545127.5199999996}},{"attributes":{"ID":257653,"DIS_CODE":0,"TOWNNAME":"永康區","LI":"復國里","LIN":"1鄰","STREET":"復國二路","SECT":" ","MAREA":" ","LANE":"１８巷","ALLEY":" ","HOUSE_NO":"１６號","E_COORD97":172874.94,"N_COORD97":2544848.8799999999,"ADDRESS":"復國二路１８巷１６號","OBJECTID":257649},"geometry":{"x":172874.94000000134,"y":2544848.8800000008}},{"attributes":{"ID":257654,"DIS_CODE":0,"TOWNNAME":"永康區","LI":"神洲里","LIN":"6鄰","STREET":"忠孝路","SECT":" ","MAREA":" ","LANE":"４４巷","ALLEY":" ","HOUSE_NO":"２１號","E_COORD97":172174.82000000001,"N_COORD97":2544738.7400000002,"ADDRESS":"忠孝路４４巷２１號","OBJECTID":257650},"geometry":{"x":172174.82000000216,"y":2544738.7400000021}},{"attributes":{"ID":257655,"DIS_CODE":0,"TOWNNAME":"永康區","LI":"復國里","LIN":"6鄰","STREET":"復國一路","SECT":" ","MAREA":" ","LANE":"１２０巷","ALLEY":" ","HOUSE_NO":"７號","E_COORD97":172751.10999999999,"N_COORD97":2545042.3599999999,"ADDRESS":"復國一路１２０巷７號","OBJECTID":257651},"geometry":{"x":172751.11000000127,"y":2545042.3600000013}},{"attributes":{"ID":257656,"DIS_CODE":0,"TOWNNAME":"永康區","LI":"中華里","LIN":"17鄰","STREET":"中華路","SECT":" ","MAREA":" ","LANE":"１０巷","ALLEY":" ","HOUSE_NO":"１６號之４７十樓","E_COORD97":171633.06,"N_COORD97":2544437.71,"ADDRESS":"中華路１０巷１６號之４７十樓","OBJECTID":257652},"geometry":{"x":171633.05999999959,"y":2544437.7100000028}},{"attributes":{"ID":257657,"DIS_CODE":0,"TOWNNAME":"永康區","LI":"中華里","LIN":"17鄰","STREET":"中華路","SECT":" ","MAREA":" ","LANE":"１０巷","ALLEY":" ","HOUSE_NO":"１６號之１７五樓","E_COORD97":171659.54000000001,"N_COORD97":2544438.0099999998,"ADDRESS":"中華路１０巷１６號之１７五樓","OBJECTID":257653},"geometry":{"x":171659.54000000097,"y":2544438.0100000016}},{"attributes":{"ID":257658,"DIS_CODE":0,"TOWNNAME":"東區","LI":"泉南里","LIN":"24鄰","STREET":"長榮路","SECT":"一段","MAREA":" ","LANE":" ","ALLEY":" ","HOUSE_NO":"９號十三樓之１","E_COORD97":169599.67000000001,"N_COORD97":2542589.3599999999,"ADDRESS":"長榮路一段９號十三樓之１","OBJECTID":257654},"geometry":{"x":169599.66999999993,"y":2542589.3599999994}},{"attributes":{"ID":257659,"DIS_CODE":0,"TOWNNAME":"東區","LI":"泉南里","LIN":"24鄰","STREET":"長榮路","SECT":"一段","MAREA":" ","LANE":" ","ALLEY":" ","HOUSE_NO":"９號十四樓之１","E_COORD97":169599.67000000001,"N_COORD97":2542589.3599999999,"ADDRESS":"長榮路一段９號十四樓之１","OBJECTID":257655},"geometry":{"x":169599.66999999993,"y":2542589.3599999994}},{"attributes":{"ID":257660,"DIS_CODE":0,"TOWNNAME":"東區","LI":"泉南里","LIN":"24鄰","STREET":"長榮路","SECT":"一段","MAREA":" ","LANE":" ","ALLEY":" ","HOUSE_NO":"９號二樓之２","E_COORD97":169599.67000000001,"N_COORD97":2542589.3599999999,"ADDRESS":"長榮路一段９號二樓之２","OBJECTID":257656},"geometry":{"x":169599.66999999993,"y":2542589.3599999994}},{"attributes":{"ID":257661,"DIS_CODE":0,"TOWNNAME":"東區","LI":"泉南里","LIN":"24鄰","STREET":"長榮路","SECT":"一段","MAREA":" ","LANE":" ","ALLEY":" ","HOUSE_NO":"９號三樓之２","E_COORD97":169599.67000000001,"N_COORD97":2542589.3599999999,"ADDRESS":"長榮路一段９號三樓之２","OBJECTID":257657},"geometry":{"x":169599.66999999993,"y":2542589.3599999994}},{"attributes":{"ID":257662,"DIS_CODE":0,"TOWNNAME":"東區","LI":"泉南里","LIN":"24鄰","STREET":"長榮路","SECT":"一段","MAREA":" ","LANE":" ","ALLEY":" ","HOUSE_NO":"９號四樓之２","E_COORD97":169599.67000000001,"N_COORD97":2542589.3599999999,"ADDRESS":"長榮路一段９號四樓之２","OBJECTID":257658},"geometry":{"x":169599.66999999993,"y":2542589.3599999994}},{"attributes":{"ID":257663,"DIS_CODE":0,"TOWNNAME":"東區","LI":"泉南里","LIN":"24鄰","STREET":"長榮路","SECT":"一段","MAREA":" ","LANE":" ","ALLEY":" ","HOUSE_NO":"９號五樓之２","E_COORD97":169599.67000000001,"N_COORD97":2542589.3599999999,"ADDRESS":"長榮路一段９號五樓之２","OBJECTID":257659},"geometry":{"x":169599.66999999993,"y":2542589.3599999994}},{"attributes":{"ID":257664,"DIS_CODE":0,"TOWNNAME":"永康區","LI":"復華里","LIN":"29鄰","STREET":"國華街","SECT":" ","MAREA":" ","LANE":"１３６巷","ALLEY":" ","HOUSE_NO":"９號","E_COORD97":172658.26999999999,"N_COORD97":2546216.0800000001,"ADDRESS":"國華街１３６巷９號","OBJECTID":257660},"geometry":{"x":172658.27000000048,"y":2546216.0800000001}},{"attributes":{"ID":257665,"DIS_CODE":0,"TOWNNAME":"永康區","LI":"復國里","LIN":"3鄰","STREET":"復國一路","SECT":" ","MAREA":" ","LANE":"４４巷","ALLEY":" ","HOUSE_NO":"３６號","E_COORD97":172813.64999999999,"N_COORD97":2544805.3100000001,"ADDRESS":"復國一路４４巷３６號","OBJECTID":257661},"geometry":{"x":172813.6500000013,"y":2544805.3100000005}},{"attributes":{"ID":257666,"DIS_CODE":0,"TOWNNAME":"永康區","LI":"復國里","LIN":"4鄰","STREET":"復國一路","SECT":" ","MAREA":" ","LANE":"６８巷","ALLEY":" ","HOUSE_NO":"３０號","E_COORD97":172794.60999999999,"N_COORD97":2544860.4900000002,"ADDRESS":"復國一路６８巷３０號","OBJECTID":257662},"geometry":{"x":172794.61000000034,"y":2544860.4900000002}},{"attributes":{"ID":257667,"DIS_CODE":0,"TOWNNAME":"永康區","LI":"中華里","LIN":"17鄰","STREET":"中華路","SECT":" ","MAREA":" ","LANE":"１０巷","ALLEY":" ","HOUSE_NO":"１６號之５８十二樓","E_COORD97":171634.31,"N_COORD97":2544437.71,"ADDRESS":"中華路１０巷１６號之５８十二樓","OBJECTID":257663},"geometry":{"x":171634.30999999959,"y":2544437.7100000028}},{"attributes":{"ID":257668,"DIS_CODE":0,"TOWNNAME":"永康區","LI":"中華里","LIN":"17鄰","STREET":"中華路","SECT":" ","MAREA":" ","LANE":"１０巷","ALLEY":" ","HOUSE_NO":"１６號之５０十一樓","E_COORD97":171634.31,"N_COORD97":2544437.71,"ADDRESS":"中華路１０巷１６號之５０十一樓","OBJECTID":257664},"geometry":{"x":171634.30999999959,"y":2544437.7100000028}},{"attributes":{"ID":257669,"DIS_CODE":0,"TOWNNAME":"東區","LI":"泉南里","LIN":"24鄰","STREET":"長榮路","SECT":"一段","MAREA":" ","LANE":" ","ALLEY":" ","HOUSE_NO":"９號六樓之２","E_COORD97":169599.67000000001,"N_COORD97":2542589.3599999999,"ADDRESS":"長榮路一段９號六樓之２","OBJECTID":257665},"geometry":{"x":169599.66999999993,"y":2542589.3599999994}},{"attributes":{"ID":257670,"DIS_CODE":0,"TOWNNAME":"東區","LI":"泉南里","LIN":"24鄰","STREET":"長榮路","SECT":"一段","MAREA":" ","LANE":" ","ALLEY":" ","HOUSE_NO":"９號七樓之２","E_COORD97":169599.67000000001,"N_COORD97":2542589.3599999999,"ADDRESS":"長榮路一段９號七樓之２","OBJECTID":257666},"geometry":{"x":169599.66999999993,"y":2542589.3599999994}},{"attributes":{"ID":257671,"DIS_CODE":0,"TOWNNAME":"東區","LI":"泉南里","LIN":"24鄰","STREET":"長榮路","SECT":"一段","MAREA":" ","LANE":" ","ALLEY":" ","HOUSE_NO":"９號八樓之２","E_COORD97":169599.67000000001,"N_COORD97":2542589.3599999999,"ADDRESS":"長榮路一段９號八樓之２","OBJECTID":257667},"geometry":{"x":169599.66999999993,"y":2542589.3599999994}},{"attributes":{"ID":257672,"DIS_CODE":0,"TOWNNAME":"永康區","LI":"復國里","LIN":"3鄰","STREET":"復國一路","SECT":" ","MAREA":" ","LANE":"４４巷","ALLEY":" ","HOUSE_NO":"２８號","E_COORD97":172793.87,"N_COORD97":2544803.2599999998,"ADDRESS":"復國一路４４巷２８號","OBJECTID":257668},"geometry":{"x":172793.87000000011,"y":2544803.2600000016}},{"attributes":{"ID":257673,"DIS_CODE":0,"TOWNNAME":"永康區","LI":"崑山里","LIN":"48鄰","STREET":"永華路","SECT":" ","MAREA":" ","LANE":"５２巷","ALLEY":" ","HOUSE_NO":"４０號","E_COORD97":174189.70999999999,"N_COORD97":2545227.6499999999,"ADDRESS":"永華路５２巷４０號","OBJECTID":257669},"geometry":{"x":174189.71000000089,"y":2545227.6500000022}},{"attributes":{"ID":257674,"DIS_CODE":0,"TOWNNAME":"永康區","LI":"中華里","LIN":"17鄰","STREET":"中華路","SECT":" ","MAREA":" ","LANE":"１０巷","ALLEY":" ","HOUSE_NO":"１６號之１３五樓","E_COORD97":171659.54000000001,"N_COORD97":2544438.0099999998,"ADDRESS":"中華路１０巷１６號之１３五樓","OBJECTID":257670},"geometry":{"x":171659.54000000097,"y":2544438.0100000016}},{"attributes":{"ID":257675,"DIS_CODE":0,"TOWNNAME":"永康區","LI":"中華里","LIN":"17鄰","STREET":"中華路","SECT":" ","MAREA":" ","LANE":"１０巷","ALLEY":" ","HOUSE_NO":"１６號之３４八樓","E_COORD97":171633.06,"N_COORD97":2544437.71,"ADDRESS":"中華路１０巷１６號之３４八樓","OBJECTID":257671},"geometry":{"x":171633.05999999959,"y":2544437.7100000028}},{"attributes":{"ID":257676,"DIS_CODE":0,"TOWNNAME":"永康區","LI":"中華里","LIN":"17鄰","STREET":"中華路","SECT":" ","MAREA":" ","LANE":"１０巷","ALLEY":" ","HOUSE_NO":"１６號之４三樓","E_COORD97":171658.29000000001,"N_COORD97":2544438.0099999998,"ADDRESS":"中華路１０巷１６號之４三樓","OBJECTID":257672},"geometry":{"x":171658.29000000097,"y":2544438.0100000016}},{"attributes":{"ID":257677,"DIS_CODE":0,"TOWNNAME":"東區","LI":"泉南里","LIN":"24鄰","STREET":"長榮路","SECT":"一段","MAREA":" ","LANE":" ","ALLEY":" ","HOUSE_NO":"９號九樓之２","E_COORD97":169599.67000000001,"N_COORD97":2542589.3599999999,"ADDRESS":"長榮路一段９號九樓之２","OBJECTID":257673},"geometry":{"x":169599.66999999993,"y":2542589.3599999994}},{"attributes":{"ID":257678,"DIS_CODE":0,"TOWNNAME":"東區","LI":"泉南里","LIN":"24鄰","STREET":"長榮路","SECT":"一段","MAREA":" ","LANE":" ","ALLEY":" ","HOUSE_NO":"９號十樓之２","E_COORD97":169599.67000000001,"N_COORD97":2542589.3599999999,"ADDRESS":"長榮路一段９號十樓之２","OBJECTID":257674},"geometry":{"x":169599.66999999993,"y":2542589.3599999994}},{"attributes":{"ID":257679,"DIS_CODE":0,"TOWNNAME":"永康區","LI":"復國里","LIN":"6鄰","STREET":"復國一路","SECT":" ","MAREA":" ","LANE":"１２０巷","ALLEY":" ","HOUSE_NO":"１０號","E_COORD97":172755.51000000001,"N_COORD97":2544992.7799999998,"ADDRESS":"復國一路１２０巷１０號","OBJECTID":257675},"geometry":{"x":172755.50999999978,"y":2544992.7800000012}},{"attributes":{"ID":257680,"DIS_CODE":0,"TOWNNAME":"永康區","LI":"復華里","LIN":"29鄰","STREET":"國華街","SECT":" ","MAREA":" ","LANE":"１３６巷","ALLEY":" ","HOUSE_NO":"１６號","E_COORD97":172671.75,"N_COORD97":2546211.75,"ADDRESS":"國華街１３６巷１６號","OBJECTID":257676},"geometry":{"x":172671.75000000186,"y":2546211.75}},{"attributes":{"ID":257681,"DIS_CODE":0,"TOWNNAME":"永康區","LI":"復華里","LIN":"23鄰","STREET":"國華街","SECT":" ","MAREA":" ","LANE":"１３４巷","ALLEY":" ","HOUSE_NO":"２５號","E_COORD97":172740.25,"N_COORD97":2546196.7400000002,"ADDRESS":"國華街１３４巷２５號","OBJECTID":257677},"geometry":{"x":172740.25000000093,"y":2546196.7400000021}},{"attributes":{"ID":257682,"DIS_CODE":0,"TOWNNAME":"永康區","LI":"崑山里","LIN":"11鄰","STREET":"大灣路","SECT":" ","MAREA":" ","LANE":"１０２０巷","ALLEY":" ","HOUSE_NO":"６０號","E_COORD97":173335.04999999999,"N_COORD97":2544425.8199999998,"ADDRESS":"大灣路１０２０巷６０號","OBJECTID":257678},"geometry":{"x":173335.04999999981,"y":2544425.820000004}},{"attributes":{"ID":257683,"DIS_CODE":0,"TOWNNAME":"永康區","LI":"中華里","LIN":"17鄰","STREET":"中華路","SECT":" ","MAREA":" ","LANE":"１０巷","ALLEY":" ","HOUSE_NO":"１６號之４６十樓","E_COORD97":171633.06,"N_COORD97":2544437.71,"ADDRESS":"中華路１０巷１６號之４６十樓","OBJECTID":257679},"geometry":{"x":171633.05999999959,"y":2544437.7100000028}},{"attributes":{"ID":257684,"DIS_CODE":0,"TOWNNAME":"永康區","LI":"中華里","LIN":"17鄰","STREET":"中華路","SECT":" ","MAREA":" ","LANE":"１０巷","ALLEY":" ","HOUSE_NO":"１６號之２８七樓","E_COORD97":171659.54000000001,"N_COORD97":2544438.0099999998,"ADDRESS":"中華路１０巷１６號之２８七樓","OBJECTID":257680},"geometry":{"x":171659.54000000097,"y":2544438.0100000016}},{"attributes":{"ID":257685,"DIS_CODE":0,"TOWNNAME":"永康區","LI":"中華里","LIN":"17鄰","STREET":"中華路","SECT":" ","MAREA":" ","LANE":"１０巷","ALLEY":" ","HOUSE_NO":"１６號之３９九樓","E_COORD97":171633.06,"N_COORD97":2544437.71,"ADDRESS":"中華路１０巷１６號之３９九樓","OBJECTID":257681},"geometry":{"x":171633.05999999959,"y":2544437.7100000028}},{"attributes":{"ID":257686,"DIS_CODE":0,"TOWNNAME":"東區","LI":"泉南里","LIN":"24鄰","STREET":"長榮路","SECT":"一段","MAREA":" ","LANE":" ","ALLEY":" ","HOUSE_NO":"９號十一樓之２","E_COORD97":169599.67000000001,"N_COORD97":2542589.3599999999,"ADDRESS":"長榮路一段９號十一樓之２","OBJECTID":257682},"geometry":{"x":169599.66999999993,"y":2542589.3599999994}},{"attributes":{"ID":257687,"DIS_CODE":0,"TOWNNAME":"東區","LI":"泉南里","LIN":"24鄰","STREET":"長榮路","SECT":"一段","MAREA":" ","LANE":" ","ALLEY":" ","HOUSE_NO":"９號十二樓之２","E_COORD97":169599.67000000001,"N_COORD97":2542589.3599999999,"ADDRESS":"長榮路一段９號十二樓之２","OBJECTID":257683},"geometry":{"x":169599.66999999993,"y":2542589.3599999994}},{"attributes":{"ID":257688,"DIS_CODE":0,"TOWNNAME":"東區","LI":"泉南里","LIN":"24鄰","STREET":"長榮路","SECT":"一段","MAREA":" ","LANE":" ","ALLEY":" ","HOUSE_NO":"９號十三樓之２","E_COORD97":169599.67000000001,"N_COORD97":2542589.3599999999,"ADDRESS":"長榮路一段９號十三樓之２","OBJECTID":257684},"geometry":{"x":169599.66999999993,"y":2542589.3599999994}},{"attributes":{"ID":257689,"DIS_CODE":0,"TOWNNAME":"東區","LI":"泉南里","LIN":"24鄰","STREET":"長榮路","SECT":"一段","MAREA":" ","LANE":" ","ALLEY":" ","HOUSE_NO":"９號十四樓之２","E_COORD97":169599.67000000001,"N_COORD97":2542589.3599999999,"ADDRESS":"長榮路一段９號十四樓之２","OBJECTID":257685},"geometry":{"x":169599.66999999993,"y":2542589.3599999994}},{"attributes":{"ID":257690,"DIS_CODE":0,"TOWNNAME":"永康區","LI":"復國里","LIN":"11鄰","STREET":"復國一路","SECT":" ","MAREA":" ","LANE":"２７６巷","ALLEY":" ","HOUSE_NO":"７號","E_COORD97":172786.47,"N_COORD97":2545433.6400000001,"ADDRESS":"復國一路２７６巷７號","OBJECTID":257686},"geometry":{"x":172786.46999999974,"y":2545433.6400000006}},{"attributes":{"ID":257691,"DIS_CODE":0,"TOWNNAME":"永康區","LI":"崑山里","LIN":"11鄰","STREET":"大灣路","SECT":" ","MAREA":" ","LANE":"１０９０巷","ALLEY":" ","HOUSE_NO":"１６號","E_COORD97":173313.63,"N_COORD97":2544459.8300000001,"ADDRESS":"大灣路１０９０巷１６號","OBJECTID":257687},"geometry":{"x":173313.63000000082,"y":2544459.8300000019}},{"attributes":{"ID":257692,"DIS_CODE":0,"TOWNNAME":"永康區","LI":"勝利里","LIN":"24鄰","STREET":"勝利街","SECT":" ","MAREA":" ","LANE":"１１６巷","ALLEY":" ","HOUSE_NO":"３３號","E_COORD97":171430.01999999999,"N_COORD97":2544864.5099999998,"ADDRESS":"勝利街１１６巷３３號","OBJECTID":257688},"geometry":{"x":171430.01999999955,"y":2544864.5099999979}},{"attributes":{"ID":257693,"DIS_CODE":0,"TOWNNAME":"永康區","LI":"中華里","LIN":"17鄰","STREET":"中華路","SECT":" ","MAREA":" ","LANE":"１０巷","ALLEY":" ","HOUSE_NO":"１６號之１８五樓","E_COORD97":171659.54000000001,"N_COORD97":2544438.0099999998,"ADDRESS":"中華路１０巷１６號之１８五樓","OBJECTID":257689},"geometry":{"x":171659.54000000097,"y":2544438.0100000016}},{"attributes":{"ID":257694,"DIS_CODE":0,"TOWNNAME":"永康區","LI":"中華里","LIN":"17鄰","STREET":"中華路","SECT":" ","MAREA":" ","LANE":"１０巷","ALLEY":" ","HOUSE_NO":"１６號之５３十一樓","E_COORD97":171634.31,"N_COORD97":2544437.71,"ADDRESS":"中華路１０巷１６號之５３十一樓","OBJECTID":257690},"geometry":{"x":171634.30999999959,"y":2544437.7100000028}},{"attributes":{"ID":257695,"DIS_CODE":0,"TOWNNAME":"永康區","LI":"中華里","LIN":"17鄰","STREET":"中華路","SECT":" ","MAREA":" ","LANE":"１０巷","ALLEY":" ","HOUSE_NO":"１６號之４９十一樓","E_COORD97":171634.31,"N_COORD97":2544437.71,"ADDRESS":"中華路１０巷１６號之４９十一樓","OBJECTID":257691},"geometry":{"x":171634.30999999959,"y":2544437.7100000028}},{"attributes":{"ID":257696,"DIS_CODE":0,"TOWNNAME":"永康區","LI":"中華里","LIN":"17鄰","STREET":"中華路","SECT":" ","MAREA":" ","LANE":"１０巷","ALLEY":" ","HOUSE_NO":"１６號之４１九樓","E_COORD97":171633.06,"N_COORD97":2544437.71,"ADDRESS":"中華路１０巷１６號之４１九樓","OBJECTID":257692},"geometry":{"x":171633.05999999959,"y":2544437.7100000028}},{"attributes":{"ID":257697,"DIS_CODE":0,"TOWNNAME":"東區","LI":"泉南里","LIN":"24鄰","STREET":"長榮路","SECT":"一段","MAREA":" ","LANE":" ","ALLEY":" ","HOUSE_NO":"９號二樓之３","E_COORD97":169599.67000000001,"N_COORD97":2542589.3599999999,"ADDRESS":"長榮路一段９號二樓之３","OBJECTID":257693},"geometry":{"x":169599.66999999993,"y":2542589.3599999994}},{"attributes":{"ID":257698,"DIS_CODE":0,"TOWNNAME":"東區","LI":"泉南里","LIN":"24鄰","STREET":"長榮路","SECT":"一段","MAREA":" ","LANE":" ","ALLEY":" ","HOUSE_NO":"９號三樓之３","E_COORD97":169599.67000000001,"N_COORD97":2542589.3599999999,"ADDRESS":"長榮路一段９號三樓之３","OBJECTID":257694},"geometry":{"x":169599.66999999993,"y":2542589.3599999994}},{"attributes":{"ID":257699,"DIS_CODE":0,"TOWNNAME":"東區","LI":"泉南里","LIN":"24鄰","STREET":"長榮路","SECT":"一段","MAREA":" ","LANE":" ","ALLEY":" ","HOUSE_NO":"９號四樓之３","E_COORD97":169599.67000000001,"N_COORD97":2542589.3599999999,"ADDRESS":"長榮路一段９號四樓之３","OBJECTID":257695},"geometry":{"x":169599.66999999993,"y":2542589.3599999994}},{"attributes":{"ID":257700,"DIS_CODE":0,"TOWNNAME":"新營區","LI":"新南里","LIN":"27鄰","STREET":"復興路","SECT":" ","MAREA":" ","LANE":"６２０巷","ALLEY":" ","HOUSE_NO":"６３號四樓之１","E_COORD97":178045.57999999999,"N_COORD97":2578545.6099999999,"ADDRESS":"復興路６２０巷６３號四樓之１","OBJECTID":257696},"geometry":{"x":178045.58000000101,"y":2578545.6099999994}},{"attributes":{"ID":257701,"DIS_CODE":0,"TOWNNAME":"永康區","LI":"復國里","LIN":"5鄰","STREET":"復國二路","SECT":" ","MAREA":" ","LANE":"４０巷","ALLEY":" ","HOUSE_NO":"１６號","E_COORD97":172872.03,"N_COORD97":2544977.5299999998,"ADDRESS":"復國二路４０巷１６號","OBJECTID":257697},"geometry":{"x":172872.03000000119,"y":2544977.5300000012}},{"attributes":{"ID":257702,"DIS_CODE":0,"TOWNNAME":"永康區","LI":"中華里","LIN":"17鄰","STREET":"中華路","SECT":" ","MAREA":" ","LANE":"１０巷","ALLEY":" ","HOUSE_NO":"１６號之６０十二樓","E_COORD97":171634.31,"N_COORD97":2544437.71,"ADDRESS":"中華路１０巷１６號之６０十二樓","OBJECTID":257698},"geometry":{"x":171634.30999999959,"y":2544437.7100000028}},{"attributes":{"ID":257703,"DIS_CODE":0,"TOWNNAME":"永康區","LI":"中華里","LIN":"17鄰","STREET":"中華路","SECT":" ","MAREA":" ","LANE":"１０巷","ALLEY":" ","HOUSE_NO":"１６號之４４十樓","E_COORD97":171633.06,"N_COORD97":2544437.71,"ADDRESS":"中華路１０巷１６號之４４十樓","OBJECTID":257699},"geometry":{"x":171633.05999999959,"y":2544437.7100000028}},{"attributes":{"ID":257704,"DIS_CODE":0,"TOWNNAME":"永康區","LI":"中華里","LIN":"17鄰","STREET":"中華路","SECT":" ","MAREA":" ","LANE":"１０巷","ALLEY":" ","HOUSE_NO":"１６號之２７七樓","E_COORD97":171659.54000000001,"N_COORD97":2544438.0099999998,"ADDRESS":"中華路１０巷１６號之２７七樓","OBJECTID":257700},"geometry":{"x":171659.54000000097,"y":2544438.0100000016}},{"attributes":{"ID":257705,"DIS_CODE":0,"TOWNNAME":"東區","LI":"東明里","LIN":"17鄰","STREET":"東安路","SECT":" ","MAREA":" ","LANE":"７６巷","ALLEY":" ","HOUSE_NO":"１２號二樓","E_COORD97":170754.88,"N_COORD97":2543655.2200000002,"ADDRESS":"東安路７６巷１２號二樓","OBJECTID":257701},"geometry":{"x":170754.87999999989,"y":2543655.2200000025}},{"attributes":{"ID":257706,"DIS_CODE":0,"TOWNNAME":"東區","LI":"泉南里","LIN":"24鄰","STREET":"長榮路","SECT":"一段","MAREA":" ","LANE":" ","ALLEY":" ","HOUSE_NO":"９號六樓之３","E_COORD97":169599.67000000001,"N_COORD97":2542589.3599999999,"ADDRESS":"長榮路一段９號六樓之３","OBJECTID":257702},"geometry":{"x":169599.66999999993,"y":2542589.3599999994}},{"attributes":{"ID":257707,"DIS_CODE":0,"TOWNNAME":"東區","LI":"泉南里","LIN":"24鄰","STREET":"長榮路","SECT":"一段","MAREA":" ","LANE":" ","ALLEY":" ","HOUSE_NO":"９號七樓之３","E_COORD97":169599.67000000001,"N_COORD97":2542589.3599999999,"ADDRESS":"長榮路一段９號七樓之３","OBJECTID":257703},"geometry":{"x":169599.66999999993,"y":2542589.3599999994}},{"attributes":{"ID":257708,"DIS_CODE":0,"TOWNNAME":"永康區","LI":"崑山里","LIN":"6鄰","STREET":"永大路","SECT":"一段","MAREA":" ","LANE":"５巷","ALLEY":" ","HOUSE_NO":"５６號","E_COORD97":173729.25,"N_COORD97":2543793.8500000001,"ADDRESS":"永大路一段５巷５６號","OBJECTID":257704},"geometry":{"x":173729.25,"y":2543793.8499999996}},{"attributes":{"ID":257709,"DIS_CODE":0,"TOWNNAME":"永康區","LI":"復國里","LIN":"10鄰","STREET":"復國二路","SECT":" ","MAREA":" ","LANE":"８７巷","ALLEY":" ","HOUSE_NO":"１８號","E_COORD97":172807.26000000001,"N_COORD97":2545387.6800000002,"ADDRESS":"復國二路８７巷１８號","OBJECTID":257705},"geometry":{"x":172807.26000000071,"y":2545387.6799999997}},{"attributes":{"ID":257710,"DIS_CODE":0,"TOWNNAME":"永康區","LI":"勝利里","LIN":"28鄰","STREET":"勝利街","SECT":" ","MAREA":" ","LANE":"４２巷","ALLEY":" ","HOUSE_NO":"９號","E_COORD97":171378.25,"N_COORD97":2544633.25,"ADDRESS":"勝利街４２巷９號","OBJECTID":257706},"geometry":{"x":171378.25000000186,"y":2544633.2500000019}},{"attributes":{"ID":257711,"DIS_CODE":0,"TOWNNAME":"東區","LI":"東明里","LIN":"17鄰","STREET":"東安路","SECT":" ","MAREA":" ","LANE":"７６巷","ALLEY":" ","HOUSE_NO":"１２號三樓","E_COORD97":170754.88,"N_COORD97":2543655.2200000002,"ADDRESS":"東安路７６巷１２號三樓","OBJECTID":257707},"geometry":{"x":170754.87999999989,"y":2543655.2200000025}},{"attributes":{"ID":257712,"DIS_CODE":0,"TOWNNAME":"北區","LI":"文成里","LIN":"17鄰","STREET":"文賢路","SECT":" ","MAREA":" ","LANE":"２１８巷","ALLEY":" ","HOUSE_NO":"５號","E_COORD97":167402.54000000001,"N_COORD97":2544964.1299999999,"ADDRESS":"文賢路２１８巷５號","OBJECTID":257708},"geometry":{"x":167402.54000000004,"y":2544964.129999999}},{"attributes":{"ID":257713,"DIS_CODE":0,"TOWNNAME":"東區","LI":"東明里","LIN":"17鄰","STREET":"東安路","SECT":" ","MAREA":" ","LANE":"７６巷","ALLEY":" ","HOUSE_NO":"１２號五樓","E_COORD97":170754.88,"N_COORD97":2543655.2200000002,"ADDRESS":"東安路７６巷１２號五樓","OBJECTID":257709},"geometry":{"x":170754.87999999989,"y":2543655.2200000025}},{"attributes":{"ID":257714,"DIS_CODE":0,"TOWNNAME":"東區","LI":"東明里","LIN":"17鄰","STREET":"東安路","SECT":" ","MAREA":" ","LANE":"７６巷","ALLEY":" ","HOUSE_NO":"１２號四樓","E_COORD97":170754.88,"N_COORD97":2543655.2200000002,"ADDRESS":"東安路７６巷１２號四樓","OBJECTID":257710},"geometry":{"x":170754.87999999989,"y":2543655.2200000025}},{"attributes":{"ID":257715,"DIS_CODE":0,"TOWNNAME":"東區","LI":"東明里","LIN":"17鄰","STREET":"東安路","SECT":" ","MAREA":" ","LANE":"７６巷","ALLEY":" ","HOUSE_NO":"１４號二樓","E_COORD97":170762.92000000001,"N_COORD97":2543653.9300000002,"ADDRESS":"東安路７６巷１４號二樓","OBJECTID":257711},"geometry":{"x":170762.91999999993,"y":2543653.9299999997}},{"attributes":{"ID":257716,"DIS_CODE":0,"TOWNNAME":"東區","LI":"東明里","LIN":"17鄰","STREET":"東安路","SECT":" ","MAREA":" ","LANE":"７６巷","ALLEY":" ","HOUSE_NO":"１４號三樓","E_COORD97":170762.92000000001,"N_COORD97":2543653.9300000002,"ADDRESS":"東安路７６巷１４號三樓","OBJECTID":257712},"geometry":{"x":170762.91999999993,"y":2543653.9299999997}},{"attributes":{"ID":257717,"DIS_CODE":0,"TOWNNAME":"東區","LI":"東明里","LIN":"17鄰","STREET":"東安路","SECT":" ","MAREA":" ","LANE":"７６巷","ALLEY":" ","HOUSE_NO":"１４號五樓","E_COORD97":170762.92000000001,"N_COORD97":2543653.9300000002,"ADDRESS":"東安路７６巷１４號五樓","OBJECTID":257713},"geometry":{"x":170762.91999999993,"y":2543653.9299999997}},{"attributes":{"ID":257718,"DIS_CODE":0,"TOWNNAME":"東區","LI":"東明里","LIN":"17鄰","STREET":"東安路","SECT":" ","MAREA":" ","LANE":"７６巷","ALLEY":" ","HOUSE_NO":"１４號四樓","E_COORD97":170762.92000000001,"N_COORD97":2543653.9300000002,"ADDRESS":"東安路７６巷１４號四樓","OBJECTID":257714},"geometry":{"x":170762.91999999993,"y":2543653.9299999997}},{"attributes":{"ID":257719,"DIS_CODE":0,"TOWNNAME":"東區","LI":"東明里","LIN":"17鄰","STREET":"東安路","SECT":" ","MAREA":" ","LANE":"７６巷","ALLEY":" ","HOUSE_NO":"１６號二樓","E_COORD97":170769.67999999999,"N_COORD97":2543652.8100000001,"ADDRESS":"東安路７６巷１６號二樓","OBJECTID":257715},"geometry":{"x":170769.67999999877,"y":2543652.8100000005}},{"attributes":{"ID":257720,"DIS_CODE":0,"TOWNNAME":"東區","LI":"東明里","LIN":"17鄰","STREET":"東安路","SECT":" ","MAREA":" ","LANE":"７６巷","ALLEY":" ","HOUSE_NO":"１６號三樓","E_COORD97":170769.67999999999,"N_COORD97":2543652.8100000001,"ADDRESS":"東安路７６巷１６號三樓","OBJECTID":257716},"geometry":{"x":170769.67999999877,"y":2543652.8100000005}},{"attributes":{"ID":257721,"DIS_CODE":0,"TOWNNAME":"東區","LI":"東明里","LIN":"17鄰","STREET":"東安路","SECT":" ","MAREA":" ","LANE":"７６巷","ALLEY":" ","HOUSE_NO":"１６號五樓","E_COORD97":170769.67999999999,"N_COORD97":2543652.8100000001,"ADDRESS":"東安路７６巷１６號五樓","OBJECTID":257717},"geometry":{"x":170769.67999999877,"y":2543652.8100000005}},{"attributes":{"ID":257722,"DIS_CODE":0,"TOWNNAME":"東區","LI":"東明里","LIN":"17鄰","STREET":"東安路","SECT":" ","MAREA":" ","LANE":"７６巷","ALLEY":" ","HOUSE_NO":"１６號四樓","E_COORD97":170769.67999999999,"N_COORD97":2543652.8100000001,"ADDRESS":"東安路７６巷１６號四樓","OBJECTID":257718},"geometry":{"x":170769.67999999877,"y":2543652.8100000005}},{"attributes":{"ID":257723,"DIS_CODE":0,"TOWNNAME":"東區","LI":"東明里","LIN":"17鄰","STREET":"東安路","SECT":" ","MAREA":" ","LANE":"７６巷","ALLEY":" ","HOUSE_NO":"４號四樓","E_COORD97":170729.45000000001,"N_COORD97":2543657.9500000002,"ADDRESS":"東安路７６巷４號四樓","OBJECTID":257719},"geometry":{"x":170729.45000000205,"y":2543657.9500000011}},{"attributes":{"ID":257724,"DIS_CODE":0,"TOWNNAME":"東區","LI":"泉南里","LIN":"24鄰","STREET":"長榮路","SECT":"一段","MAREA":" ","LANE":" ","ALLEY":" ","HOUSE_NO":"９號八樓之３","E_COORD97":169599.67000000001,"N_COORD97":2542589.3599999999,"ADDRESS":"長榮路一段９號八樓之３","OBJECTID":257720},"geometry":{"x":169599.66999999993,"y":2542589.3599999994}},{"attributes":{"ID":257725,"DIS_CODE":0,"TOWNNAME":"東區","LI":"泉南里","LIN":"24鄰","STREET":"長榮路","SECT":"一段","MAREA":" ","LANE":" ","ALLEY":" ","HOUSE_NO":"９號九樓之３","E_COORD97":169599.67000000001,"N_COORD97":2542589.3599999999,"ADDRESS":"長榮路一段９號九樓之３","OBJECTID":257721},"geometry":{"x":169599.66999999993,"y":2542589.3599999994}},{"attributes":{"ID":257726,"DIS_CODE":0,"TOWNNAME":"東區","LI":"泉南里","LIN":"24鄰","STREET":"長榮路","SECT":"一段","MAREA":" ","LANE":" ","ALLEY":" ","HOUSE_NO":"９號十樓之３","E_COORD97":169599.67000000001,"N_COORD97":2542589.3599999999,"ADDRESS":"長榮路一段９號十樓之３","OBJECTID":257722},"geometry":{"x":169599.66999999993,"y":2542589.3599999994}},{"attributes":{"ID":257727,"DIS_CODE":0,"TOWNNAME":"中西區","LI":"大涼里","LIN":"27鄰","STREET":"永華一街","SECT":" ","MAREA":" ","LANE":"４４巷","ALLEY":" ","HOUSE_NO":"１０號五樓之３","E_COORD97":166887.70999999999,"N_COORD97":2543347.3799999999,"ADDRESS":"永華一街４４巷１０號五樓之３","OBJECTID":257723},"geometry":{"x":166887.70999999996,"y":2543347.3800000008}},{"attributes":{"ID":257728,"DIS_CODE":0,"TOWNNAME":"東區","LI":"東明里","LIN":"17鄰","STREET":"東安路","SECT":" ","MAREA":" ","LANE":"７６巷","ALLEY":" ","HOUSE_NO":"６號二樓","E_COORD97":170737.5,"N_COORD97":2543657.6299999999,"ADDRESS":"東安路７６巷６號二樓","OBJECTID":257724},"geometry":{"x":170737.50000000186,"y":2543657.6300000008}},{"attributes":{"ID":257729,"DIS_CODE":0,"TOWNNAME":"東區","LI":"東明里","LIN":"17鄰","STREET":"東安路","SECT":" ","MAREA":" ","LANE":"７６巷","ALLEY":" ","HOUSE_NO":"６號三樓","E_COORD97":170737.5,"N_COORD97":2543657.6299999999,"ADDRESS":"東安路７６巷６號三樓","OBJECTID":257725},"geometry":{"x":170737.50000000186,"y":2543657.6300000008}},{"attributes":{"ID":257730,"DIS_CODE":0,"TOWNNAME":"東區","LI":"東明里","LIN":"17鄰","STREET":"東安路","SECT":" ","MAREA":" ","LANE":"７６巷","ALLEY":" ","HOUSE_NO":"６號四樓","E_COORD97":170737.5,"N_COORD97":2543657.6299999999,"ADDRESS":"東安路７６巷６號四樓","OBJECTID":257726},"geometry":{"x":170737.50000000186,"y":2543657.6300000008}},{"attributes":{"ID":257731,"DIS_CODE":0,"TOWNNAME":"東區","LI":"東明里","LIN":"17鄰","STREET":"東安路","SECT":" ","MAREA":" ","LANE":"７６巷","ALLEY":" ","HOUSE_NO":"８號二樓","E_COORD97":170742.81,"N_COORD97":2543656.8300000001,"ADDRESS":"東安路７６巷８號二樓","OBJECTID":257727},"geometry":{"x":170742.80999999959,"y":2543656.8300000019}},{"attributes":{"ID":257732,"DIS_CODE":0,"TOWNNAME":"中西區","LI":"郡王里","LIN":"17鄰","STREET":"南門路","SECT":" ","MAREA":" ","LANE":"９７巷","ALLEY":" ","HOUSE_NO":"２號之２四樓","E_COORD97":168480.10999999999,"N_COORD97":2543227.8700000001,"ADDRESS":"南門路９７巷２號之２四樓","OBJECTID":257728},"geometry":{"x":168480.11000000034,"y":2543227.870000001}},{"attributes":{"ID":257733,"DIS_CODE":0,"TOWNNAME":"中西區","LI":"郡王里","LIN":"17鄰","STREET":"南門路","SECT":" ","MAREA":" ","LANE":"９７巷","ALLEY":" ","HOUSE_NO":"２號之３二樓","E_COORD97":168490.04999999999,"N_COORD97":2543228.2000000002,"ADDRESS":"南門路９７巷２號之３二樓","OBJECTID":257729},"geometry":{"x":168490.04999999981,"y":2543228.1999999993}},{"attributes":{"ID":257734,"DIS_CODE":0,"TOWNNAME":"中西區","LI":"郡王里","LIN":"17鄰","STREET":"南門路","SECT":" ","MAREA":" ","LANE":"９７巷","ALLEY":" ","HOUSE_NO":"２號之３三樓","E_COORD97":168490.04999999999,"N_COORD97":2543228.2000000002,"ADDRESS":"南門路９７巷２號之３三樓","OBJECTID":257730},"geometry":{"x":168490.04999999981,"y":2543228.1999999993}},{"attributes":{"ID":257735,"DIS_CODE":0,"TOWNNAME":"中西區","LI":"郡王里","LIN":"17鄰","STREET":"南門路","SECT":" ","MAREA":" ","LANE":"９７巷","ALLEY":" ","HOUSE_NO":"２號之３五樓","E_COORD97":168490.04999999999,"N_COORD97":2543228.2000000002,"ADDRESS":"南門路９７巷２號之３五樓","OBJECTID":257731},"geometry":{"x":168490.04999999981,"y":2543228.1999999993}},{"attributes":{"ID":257736,"DIS_CODE":0,"TOWNNAME":"中西區","LI":"郡王里","LIN":"17鄰","STREET":"南門路","SECT":" ","MAREA":" ","LANE":"９７巷","ALLEY":" ","HOUSE_NO":"２號之３四樓","E_COORD97":168490.04999999999,"N_COORD97":2543228.2000000002,"ADDRESS":"南門路９７巷２號之３四樓","OBJECTID":257732},"geometry":{"x":168490.04999999981,"y":2543228.1999999993}},{"attributes":{"ID":257737,"DIS_CODE":0,"TOWNNAME":"中西區","LI":"郡王里","LIN":"17鄰","STREET":"南門路","SECT":" ","MAREA":" ","LANE":"９７巷","ALLEY":" ","HOUSE_NO":"２號之４二樓","E_COORD97":168502.5,"N_COORD97":2543228.0299999998,"ADDRESS":"南門路９７巷２號之４二樓","OBJECTID":257733},"geometry":{"x":168502.5,"y":2543228.0300000012}},{"attributes":{"ID":257738,"DIS_CODE":0,"TOWNNAME":"中西區","LI":"郡王里","LIN":"17鄰","STREET":"南門路","SECT":" ","MAREA":" ","LANE":"９７巷","ALLEY":" ","HOUSE_NO":"２號之４三樓","E_COORD97":168502.5,"N_COORD97":2543228.0299999998,"ADDRESS":"南門路９７巷２號之４三樓","OBJECTID":257734},"geometry":{"x":168502.5,"y":2543228.0300000012}},{"attributes":{"ID":257739,"DIS_CODE":0,"TOWNNAME":"中西區","LI":"郡王里","LIN":"17鄰","STREET":"南門路","SECT":" ","MAREA":" ","LANE":"９７巷","ALLEY":" ","HOUSE_NO":"２號之４五樓","E_COORD97":168502.5,"N_COORD97":2543228.0299999998,"ADDRESS":"南門路９７巷２號之４五樓","OBJECTID":257735},"geometry":{"x":168502.5,"y":2543228.0300000012}},{"attributes":{"ID":257740,"DIS_CODE":0,"TOWNNAME":"中西區","LI":"郡王里","LIN":"17鄰","STREET":"南門路","SECT":" ","MAREA":" ","LANE":"９７巷","ALLEY":" ","HOUSE_NO":"２號之４四樓","E_COORD97":168502.5,"N_COORD97":2543228.0299999998,"ADDRESS":"南門路９７巷２號之４四樓","OBJECTID":257736},"geometry":{"x":168502.5,"y":2543228.0300000012}},{"attributes":{"ID":257741,"DIS_CODE":0,"TOWNNAME":"中西區","LI":"郡王里","LIN":"17鄰","STREET":"南門路","SECT":" ","MAREA":" ","LANE":"９７巷","ALLEY":" ","HOUSE_NO":"２號之５二樓","E_COORD97":168510.23999999999,"N_COORD97":2543226.6899999999,"ADDRESS":"南門路９７巷２號之５二樓","OBJECTID":257737},"geometry":{"x":168510.24000000209,"y":2543226.6900000013}},{"attributes":{"ID":257742,"DIS_CODE":0,"TOWNNAME":"中西區","LI":"郡王里","LIN":"17鄰","STREET":"南門路","SECT":" ","MAREA":" ","LANE":"９７巷","ALLEY":" ","HOUSE_NO":"２號之５三樓","E_COORD97":168510.23999999999,"N_COORD97":2543226.6899999999,"ADDRESS":"南門路９７巷２號之５三樓","OBJECTID":257738},"geometry":{"x":168510.24000000209,"y":2543226.6900000013}},{"attributes":{"ID":257743,"DIS_CODE":0,"TOWNNAME":"中西區","LI":"郡王里","LIN":"17鄰","STREET":"南門路","SECT":" ","MAREA":" ","LANE":"９７巷","ALLEY":" ","HOUSE_NO":"２號之５五樓","E_COORD97":168510.23999999999,"N_COORD97":2543226.6899999999,"ADDRESS":"南門路９７巷２號之５五樓","OBJECTID":257739},"geometry":{"x":168510.24000000209,"y":2543226.6900000013}},{"attributes":{"ID":257744,"DIS_CODE":0,"TOWNNAME":"仁德區","LI":"仁德里","LIN":"24鄰","STREET":"文孝路","SECT":" ","MAREA":" ","LANE":" ","ALLEY":" ","HOUSE_NO":"５３號","E_COORD97":172061.60000000001,"N_COORD97":2541373.3300000001,"ADDRESS":"文孝路５３號","OBJECTID":257740},"geometry":{"x":172061.59999999963,"y":2541373.3300000001}},{"attributes":{"ID":257745,"DIS_CODE":0,"TOWNNAME":"中西區","LI":"郡王里","LIN":"17鄰","STREET":"南門路","SECT":" ","MAREA":" ","LANE":"９７巷","ALLEY":" ","HOUSE_NO":"２號之５四樓","E_COORD97":168510.23999999999,"N_COORD97":2543226.6899999999,"ADDRESS":"南門路９７巷２號之５四樓","OBJECTID":257741},"geometry":{"x":168510.24000000209,"y":2543226.6900000013}},{"attributes":{"ID":257746,"DIS_CODE":0,"TOWNNAME":"中西區","LI":"郡王里","LIN":"17鄰","STREET":"南門路","SECT":" ","MAREA":" ","LANE":"９７巷","ALLEY":" ","HOUSE_NO":"２號之６二樓","E_COORD97":168499.47,"N_COORD97":2543201.2999999998,"ADDRESS":"南門路９７巷２號之６二樓","OBJECTID":257742},"geometry":{"x":168499.46999999974,"y":2543201.3000000007}},{"attributes":{"ID":257747,"DIS_CODE":0,"TOWNNAME":"中西區","LI":"郡王里","LIN":"17鄰","STREET":"南門路","SECT":" ","MAREA":" ","LANE":"９７巷","ALLEY":" ","HOUSE_NO":"２號之６三樓","E_COORD97":168499.47,"N_COORD97":2543201.2999999998,"ADDRESS":"南門路９７巷２號之６三樓","OBJECTID":257743},"geometry":{"x":168499.46999999974,"y":2543201.3000000007}},{"attributes":{"ID":257748,"DIS_CODE":0,"TOWNNAME":"中西區","LI":"郡王里","LIN":"17鄰","STREET":"南門路","SECT":" ","MAREA":" ","LANE":"９７巷","ALLEY":" ","HOUSE_NO":"２號之６五樓","E_COORD97":168499.47,"N_COORD97":2543201.2999999998,"ADDRESS":"南門路９７巷２號之６五樓","OBJECTID":257744},"geometry":{"x":168499.46999999974,"y":2543201.3000000007}},{"attributes":{"ID":257749,"DIS_CODE":0,"TOWNNAME":"北區","LI":"文成里","LIN":"17鄰","STREET":"文賢路","SECT":" ","MAREA":" ","LANE":"２１８巷","ALLEY":" ","HOUSE_NO":"７號","E_COORD97":167407.20999999999,"N_COORD97":2544966.0899999999,"ADDRESS":"文賢路２１８巷７號","OBJECTID":257745},"geometry":{"x":167407.21000000089,"y":2544966.0900000036}},{"attributes":{"ID":257750,"DIS_CODE":0,"TOWNNAME":"中西區","LI":"郡王里","LIN":"17鄰","STREET":"南門路","SECT":" ","MAREA":" ","LANE":"９７巷","ALLEY":" ","HOUSE_NO":"２號之６四樓","E_COORD97":168499.47,"N_COORD97":2543201.2999999998,"ADDRESS":"南門路９７巷２號之６四樓","OBJECTID":257746},"geometry":{"x":168499.46999999974,"y":2543201.3000000007}},{"attributes":{"ID":257751,"DIS_CODE":0,"TOWNNAME":"中西區","LI":"郡王里","LIN":"17鄰","STREET":"南門路","SECT":" ","MAREA":" ","LANE":"９７巷","ALLEY":" ","HOUSE_NO":"２號四樓","E_COORD97":168472.54000000001,"N_COORD97":2543201.6400000001,"ADDRESS":"南門路９７巷２號四樓","OBJECTID":257747},"geometry":{"x":168472.5400000019,"y":2543201.6400000025}},{"attributes":{"ID":257752,"DIS_CODE":0,"TOWNNAME":"東區","LI":"泉南里","LIN":"24鄰","STREET":"長榮路","SECT":"一段","MAREA":" ","LANE":" ","ALLEY":" ","HOUSE_NO":"９號十一樓之３","E_COORD97":169599.67000000001,"N_COORD97":2542589.3599999999,"ADDRESS":"長榮路一段９號十一樓之３","OBJECTID":257748},"geometry":{"x":169599.66999999993,"y":2542589.3599999994}},{"attributes":{"ID":257753,"DIS_CODE":0,"TOWNNAME":"東區","LI":"泉南里","LIN":"24鄰","STREET":"長榮路","SECT":"一段","MAREA":" ","LANE":" ","ALLEY":" ","HOUSE_NO":"９號十二樓之３","E_COORD97":169599.67000000001,"N_COORD97":2542589.3599999999,"ADDRESS":"長榮路一段９號十二樓之３","OBJECTID":257749},"geometry":{"x":169599.66999999993,"y":2542589.3599999994}},{"attributes":{"ID":257754,"DIS_CODE":0,"TOWNNAME":"中西區","LI":"大涼里","LIN":"27鄰","STREET":"永華一街","SECT":" ","MAREA":" ","LANE":"４４巷","ALLEY":" ","HOUSE_NO":"１８號二樓之１","E_COORD97":166911.91,"N_COORD97":2543327.7999999998,"ADDRESS":"永華一街４４巷１８號二樓之１","OBJECTID":257750},"geometry":{"x":166911.91000000015,"y":2543327.7999999989}},{"attributes":{"ID":257755,"DIS_CODE":0,"TOWNNAME":"中西區","LI":"大涼里","LIN":"27鄰","STREET":"永華一街","SECT":" ","MAREA":" ","LANE":"４４巷","ALLEY":" ","HOUSE_NO":"１８號二樓之２","E_COORD97":166911.91,"N_COORD97":2543327.7999999998,"ADDRESS":"永華一街４４巷１８號二樓之２","OBJECTID":257751},"geometry":{"x":166911.91000000015,"y":2543327.7999999989}},{"attributes":{"ID":257756,"DIS_CODE":0,"TOWNNAME":"中西區","LI":"大涼里","LIN":"27鄰","STREET":"永華一街","SECT":" ","MAREA":" ","LANE":"４４巷","ALLEY":" ","HOUSE_NO":"１８號三樓之１","E_COORD97":166911.91,"N_COORD97":2543327.7999999998,"ADDRESS":"永華一街４４巷１８號三樓之１","OBJECTID":257752},"geometry":{"x":166911.91000000015,"y":2543327.7999999989}},{"attributes":{"ID":257757,"DIS_CODE":0,"TOWNNAME":"中西區","LI":"大涼里","LIN":"27鄰","STREET":"永華一街","SECT":" ","MAREA":" ","LANE":"４４巷","ALLEY":" ","HOUSE_NO":"１８號三樓之２","E_COORD97":166911.91,"N_COORD97":2543327.7999999998,"ADDRESS":"永華一街４４巷１８號三樓之２","OBJECTID":257753},"geometry":{"x":166911.91000000015,"y":2543327.7999999989}},{"attributes":{"ID":257758,"DIS_CODE":0,"TOWNNAME":"中西區","LI":"大涼里","LIN":"27鄰","STREET":"永華一街","SECT":" ","MAREA":" ","LANE":"４４巷","ALLEY":" ","HOUSE_NO":"１８號三樓之３","E_COORD97":166911.91,"N_COORD97":2543327.7999999998,"ADDRESS":"永華一街４４巷１８號三樓之３","OBJECTID":257754},"geometry":{"x":166911.91000000015,"y":2543327.7999999989}},{"attributes":{"ID":257759,"DIS_CODE":0,"TOWNNAME":"永康區","LI":"勝利里","LIN":"36鄰","STREET":"勝學路","SECT":" ","MAREA":" ","LANE":"１０８巷","ALLEY":" ","HOUSE_NO":"１８號","E_COORD97":171218.59,"N_COORD97":2544825.5800000001,"ADDRESS":"勝學路１０８巷１８號","OBJECTID":257755},"geometry":{"x":171218.59000000078,"y":2544825.5800000019}},{"attributes":{"ID":257760,"DIS_CODE":0,"TOWNNAME":"永康區","LI":"神洲里","LIN":"5鄰","STREET":"忠孝路","SECT":" ","MAREA":" ","LANE":"４４巷","ALLEY":" ","HOUSE_NO":"２０號","E_COORD97":172168.85000000001,"N_COORD97":2544727.7400000002,"ADDRESS":"忠孝路４４巷２０號","OBJECTID":257756},"geometry":{"x":172168.85000000149,"y":2544727.7400000002}},{"attributes":{"ID":257761,"DIS_CODE":0,"TOWNNAME":"永康區","LI":"勝利里","LIN":"26鄰","STREET":"勝利街","SECT":" ","MAREA":" ","LANE":"７４巷","ALLEY":" ","HOUSE_NO":"１６號","E_COORD97":171406.09,"N_COORD97":2544700.25,"ADDRESS":"勝利街７４巷１６號","OBJECTID":257757},"geometry":{"x":171406.08999999985,"y":2544700.25}},{"attributes":{"ID":257762,"DIS_CODE":0,"TOWNNAME":"永康區","LI":"崑山里","LIN":"39鄰","STREET":"國光三街","SECT":" ","MAREA":" ","LANE":"１０巷","ALLEY":" ","HOUSE_NO":"１０號","E_COORD97":174155.98000000001,"N_COORD97":2544897.6699999999,"ADDRESS":"國光三街１０巷１０號","OBJECTID":257758},"geometry":{"x":174155.98000000138,"y":2544897.6700000037}},{"attributes":{"ID":257763,"DIS_CODE":0,"TOWNNAME":"永康區","LI":"勝利里","LIN":"26鄰","STREET":"勝利街","SECT":" ","MAREA":" ","LANE":"７４巷","ALLEY":" ","HOUSE_NO":"５號","E_COORD97":171374.72,"N_COORD97":2544712.5,"ADDRESS":"勝利街７４巷５號","OBJECTID":257759},"geometry":{"x":171374.7200000016,"y":2544712.5000000037}},{"attributes":{"ID":257764,"DIS_CODE":0,"TOWNNAME":"永康區","LI":"復華里","LIN":"17鄰","STREET":"國華街","SECT":" ","MAREA":" ","LANE":"１０２巷","ALLEY":" ","HOUSE_NO":"５１號四樓之３","E_COORD97":172885.09,"N_COORD97":2546112.2799999998,"ADDRESS":"國華街１０２巷５１號四樓之３","OBJECTID":257760},"geometry":{"x":172885.09000000078,"y":2546112.2799999993}},{"attributes":{"ID":257765,"DIS_CODE":0,"TOWNNAME":"永康區","LI":"復華里","LIN":"17鄰","STREET":"國華街","SECT":" ","MAREA":" ","LANE":"１０２巷","ALLEY":" ","HOUSE_NO":"５１號五樓之３","E_COORD97":172885.09,"N_COORD97":2546112.2799999998,"ADDRESS":"國華街１０２巷５１號五樓之３","OBJECTID":257761},"geometry":{"x":172885.09000000078,"y":2546112.2799999993}},{"attributes":{"ID":257766,"DIS_CODE":0,"TOWNNAME":"永康區","LI":"復華里","LIN":"17鄰","STREET":"國華街","SECT":" ","MAREA":" ","LANE":"１０２巷","ALLEY":" ","HOUSE_NO":"５１號四樓之２","E_COORD97":172885.12,"N_COORD97":2546112.2799999998,"ADDRESS":"國華街１０２巷５１號四樓之２","OBJECTID":257762},"geometry":{"x":172885.12000000104,"y":2546112.2799999993}},{"attributes":{"ID":257767,"DIS_CODE":0,"TOWNNAME":"東區","LI":"泉南里","LIN":"24鄰","STREET":"長榮路","SECT":"一段","MAREA":" ","LANE":" ","ALLEY":" ","HOUSE_NO":"９號十三樓之３","E_COORD97":169599.67000000001,"N_COORD97":2542589.3599999999,"ADDRESS":"長榮路一段９號十三樓之３","OBJECTID":257763},"geometry":{"x":169599.66999999993,"y":2542589.3599999994}},{"attributes":{"ID":257768,"DIS_CODE":0,"TOWNNAME":"東區","LI":"泉南里","LIN":"24鄰","STREET":"長榮路","SECT":"一段","MAREA":" ","LANE":" ","ALLEY":" ","HOUSE_NO":"９號十四樓之３","E_COORD97":169599.67000000001,"N_COORD97":2542589.3599999999,"ADDRESS":"長榮路一段９號十四樓之３","OBJECTID":257764},"geometry":{"x":169599.66999999993,"y":2542589.3599999994}},{"attributes":{"ID":257769,"DIS_CODE":0,"TOWNNAME":"東區","LI":"泉南里","LIN":"24鄰","STREET":"長榮路","SECT":"一段","MAREA":" ","LANE":" ","ALLEY":" ","HOUSE_NO":"９號二樓之５","E_COORD97":169599.67000000001,"N_COORD97":2542589.3599999999,"ADDRESS":"長榮路一段９號二樓之５","OBJECTID":257765},"geometry":{"x":169599.66999999993,"y":2542589.3599999994}},{"attributes":{"ID":257770,"DIS_CODE":0,"TOWNNAME":"東區","LI":"泉南里","LIN":"24鄰","STREET":"長榮路","SECT":"一段","MAREA":" ","LANE":" ","ALLEY":" ","HOUSE_NO":"９號三樓之５","E_COORD97":169599.67000000001,"N_COORD97":2542589.3599999999,"ADDRESS":"長榮路一段９號三樓之５","OBJECTID":257766},"geometry":{"x":169599.66999999993,"y":2542589.3599999994}},{"attributes":{"ID":257771,"DIS_CODE":0,"TOWNNAME":"東區","LI":"泉南里","LIN":"24鄰","STREET":"長榮路","SECT":"一段","MAREA":" ","LANE":" ","ALLEY":" ","HOUSE_NO":"９號四樓之５","E_COORD97":169599.67000000001,"N_COORD97":2542589.3599999999,"ADDRESS":"長榮路一段９號四樓之５","OBJECTID":257767},"geometry":{"x":169599.66999999993,"y":2542589.3599999994}},{"attributes":{"ID":257772,"DIS_CODE":0,"TOWNNAME":"東區","LI":"泉南里","LIN":"24鄰","STREET":"長榮路","SECT":"一段","MAREA":" ","LANE":" ","ALLEY":" ","HOUSE_NO":"９號五樓之５","E_COORD97":169599.67000000001,"N_COORD97":2542589.3599999999,"ADDRESS":"長榮路一段９號五樓之５","OBJECTID":257768},"geometry":{"x":169599.66999999993,"y":2542589.3599999994}},{"attributes":{"ID":257773,"DIS_CODE":0,"TOWNNAME":"東區","LI":"泉南里","LIN":"24鄰","STREET":"長榮路","SECT":"一段","MAREA":" ","LANE":" ","ALLEY":" ","HOUSE_NO":"９號六樓之５","E_COORD97":169599.67000000001,"N_COORD97":2542589.3599999999,"ADDRESS":"長榮路一段９號六樓之５","OBJECTID":257769},"geometry":{"x":169599.66999999993,"y":2542589.3599999994}},{"attributes":{"ID":257774,"DIS_CODE":0,"TOWNNAME":"東區","LI":"泉南里","LIN":"24鄰","STREET":"長榮路","SECT":"一段","MAREA":" ","LANE":" ","ALLEY":" ","HOUSE_NO":"９號七樓之５","E_COORD97":169599.67000000001,"N_COORD97":2542589.3599999999,"ADDRESS":"長榮路一段９號七樓之５","OBJECTID":257770},"geometry":{"x":169599.66999999993,"y":2542589.3599999994}},{"attributes":{"ID":257775,"DIS_CODE":0,"TOWNNAME":"東區","LI":"泉南里","LIN":"24鄰","STREET":"長榮路","SECT":"一段","MAREA":" ","LANE":" ","ALLEY":" ","HOUSE_NO":"９號八樓之５","E_COORD97":169599.67000000001,"N_COORD97":2542589.3599999999,"ADDRESS":"長榮路一段９號八樓之５","OBJECTID":257771},"geometry":{"x":169599.66999999993,"y":2542589.3599999994}},{"attributes":{"ID":257776,"DIS_CODE":0,"TOWNNAME":"東區","LI":"泉南里","LIN":"24鄰","STREET":"長榮路","SECT":"一段","MAREA":" ","LANE":" ","ALLEY":" ","HOUSE_NO":"９號九樓之５","E_COORD97":169599.67000000001,"N_COORD97":2542589.3599999999,"ADDRESS":"長榮路一段９號九樓之５","OBJECTID":257772},"geometry":{"x":169599.66999999993,"y":2542589.3599999994}},{"attributes":{"ID":257777,"DIS_CODE":0,"TOWNNAME":"永康區","LI":"復國里","LIN":"8鄰","STREET":"復國二路","SECT":" ","MAREA":" ","LANE":"６１巷","ALLEY":" ","HOUSE_NO":"２５號","E_COORD97":172754.39999999999,"N_COORD97":2545106.0899999999,"ADDRESS":"復國二路６１巷２５號","OBJECTID":257773},"geometry":{"x":172754.4000000013,"y":2545106.0900000017}},{"attributes":{"ID":257778,"DIS_CODE":0,"TOWNNAME":"永康區","LI":"神洲里","LIN":"7鄰","STREET":"忠孝路","SECT":" ","MAREA":" ","LANE":"５４巷","ALLEY":" ","HOUSE_NO":"７號","E_COORD97":172126.70000000001,"N_COORD97":2544771,"ADDRESS":"忠孝路５４巷７號","OBJECTID":257774},"geometry":{"x":172126.70000000112,"y":2544771.0000000019}},{"attributes":{"ID":257779,"DIS_CODE":0,"TOWNNAME":"永康區","LI":"勝利里","LIN":"35鄰","STREET":"勝利街","SECT":" ","MAREA":" ","LANE":"２巷","ALLEY":" ","HOUSE_NO":"１號之２７","E_COORD97":171135.32999999999,"N_COORD97":2544690.5499999998,"ADDRESS":"勝利街２巷１號之２７","OBJECTID":257775},"geometry":{"x":171135.33000000194,"y":2544690.5500000026}},{"attributes":{"ID":257780,"DIS_CODE":0,"TOWNNAME":"永康區","LI":"復國里","LIN":"6鄰","STREET":"復國一路","SECT":" ","MAREA":" ","LANE":"１２０巷","ALLEY":" ","HOUSE_NO":"５號","E_COORD97":172751.07999999999,"N_COORD97":2545046.1099999999,"ADDRESS":"復國一路１２０巷５號","OBJECTID":257776},"geometry":{"x":172751.08000000101,"y":2545046.1099999994}},{"attributes":{"ID":257781,"DIS_CODE":0,"TOWNNAME":"永康區","LI":"崑山里","LIN":"28鄰","STREET":"大灣路","SECT":" ","MAREA":" ","LANE":"９４２巷","ALLEY":" ","HOUSE_NO":"１７７號","E_COORD97":173724.14000000001,"N_COORD97":2544803.9900000002,"ADDRESS":"大灣路９４２巷１７７號","OBJECTID":257777},"geometry":{"x":173724.13999999966,"y":2544803.9900000002}},{"attributes":{"ID":257782,"DIS_CODE":0,"TOWNNAME":"南區","LI":"文南里","LIN":"22鄰","STREET":"中華西路","SECT":"一段","MAREA":" ","LANE":"１３７巷","ALLEY":" ","HOUSE_NO":"４１號","E_COORD97":166354.82000000001,"N_COORD97":2542478.9900000002,"ADDRESS":"中華西路一段１３７巷４１號","OBJECTID":257778},"geometry":{"x":166354.8200000003,"y":2542478.9900000021}},{"attributes":{"ID":257783,"DIS_CODE":0,"TOWNNAME":"永康區","LI":"神洲里","LIN":"5鄰","STREET":"忠孝路","SECT":" ","MAREA":" ","LANE":"４４巷","ALLEY":" ","HOUSE_NO":"１６號","E_COORD97":172156.42999999999,"N_COORD97":2544727.2400000002,"ADDRESS":"忠孝路４４巷１６號","OBJECTID":257779},"geometry":{"x":172156.43000000156,"y":2544727.2400000002}},{"attributes":{"ID":257784,"DIS_CODE":0,"TOWNNAME":"永康區","LI":"復國里","LIN":"5鄰","STREET":"復國二路","SECT":" ","MAREA":" ","LANE":"３８巷","ALLEY":" ","HOUSE_NO":"２號","E_COORD97":172845.64999999999,"N_COORD97":2544929.27,"ADDRESS":"復國二路３８巷２號","OBJECTID":257780},"geometry":{"x":172845.65000000224,"y":2544929.2699999996}},{"attributes":{"ID":257785,"DIS_CODE":0,"TOWNNAME":"永康區","LI":"勝利里","LIN":"39鄰","STREET":"勝華街","SECT":" ","MAREA":" ","LANE":"３７巷","ALLEY":" ","HOUSE_NO":"６８號","E_COORD97":171435.42000000001,"N_COORD97":2545072.7599999998,"ADDRESS":"勝華街３７巷６８號","OBJECTID":257781},"geometry":{"x":171435.42000000086,"y":2545072.7599999998}},{"attributes":{"ID":257786,"DIS_CODE":0,"TOWNNAME":"永康區","LI":"崑山里","LIN":"47鄰","STREET":"國光五街","SECT":" ","MAREA":" ","LANE":"２２巷","ALLEY":" ","HOUSE_NO":"４２號","E_COORD97":174273.06,"N_COORD97":2545223.1499999999,"ADDRESS":"國光五街２２巷４２號","OBJECTID":257782},"geometry":{"x":174273.06000000052,"y":2545223.1500000004}},{"attributes":{"ID":257787,"DIS_CODE":0,"TOWNNAME":"永康區","LI":"崑山里","LIN":"30鄰","STREET":"國光二街","SECT":" ","MAREA":" ","LANE":"７０巷","ALLEY":" ","HOUSE_NO":"７號","E_COORD97":173878.59,"N_COORD97":2544773.79,"ADDRESS":"國光二街７０巷７號","OBJECTID":257783},"geometry":{"x":173878.59000000078,"y":2544773.7899999972}},{"attributes":{"ID":257788,"DIS_CODE":0,"TOWNNAME":"永康區","LI":"崑山里","LIN":"28鄰","STREET":"大灣路","SECT":" ","MAREA":" ","LANE":"９４２巷","ALLEY":" ","HOUSE_NO":"２０５號","E_COORD97":173737.91,"N_COORD97":2544848.9900000002,"ADDRESS":"大灣路９４２巷２０５號","OBJECTID":257784},"geometry":{"x":173737.91000000015,"y":2544848.9900000021}},{"attributes":{"ID":257789,"DIS_CODE":0,"TOWNNAME":"永康區","LI":"勝利里","LIN":"36鄰","STREET":"勝學路","SECT":" ","MAREA":" ","LANE":"１０８巷","ALLEY":" ","HOUSE_NO":"８號","E_COORD97":171207.88,"N_COORD97":2544850.98,"ADDRESS":"勝學路１０８巷８號","OBJECTID":257785},"geometry":{"x":171207.88000000082,"y":2544850.9800000004}},{"attributes":{"ID":257790,"DIS_CODE":0,"TOWNNAME":"永康區","LI":"復華里","LIN":"17鄰","STREET":"國華街","SECT":" ","MAREA":" ","LANE":"１０２巷","ALLEY":" ","HOUSE_NO":"５１號三樓之３","E_COORD97":172885.09,"N_COORD97":2546112.2799999998,"ADDRESS":"國華街１０２巷５１號三樓之３","OBJECTID":257786},"geometry":{"x":172885.09000000078,"y":2546112.2799999993}},{"attributes":{"ID":257791,"DIS_CODE":0,"TOWNNAME":"東區","LI":"泉南里","LIN":"24鄰","STREET":"長榮路","SECT":"一段","MAREA":" ","LANE":" ","ALLEY":" ","HOUSE_NO":"９號十樓之５","E_COORD97":169599.67000000001,"N_COORD97":2542589.3599999999,"ADDRESS":"長榮路一段９號十樓之５","OBJECTID":257787},"geometry":{"x":169599.66999999993,"y":2542589.3599999994}},{"attributes":{"ID":257792,"DIS_CODE":0,"TOWNNAME":"東區","LI":"泉南里","LIN":"24鄰","STREET":"長榮路","SECT":"一段","MAREA":" ","LANE":" ","ALLEY":" ","HOUSE_NO":"９號十一樓之５","E_COORD97":169599.67000000001,"N_COORD97":2542589.3599999999,"ADDRESS":"長榮路一段９號十一樓之５","OBJECTID":257788},"geometry":{"x":169599.66999999993,"y":2542589.3599999994}},{"attributes":{"ID":257793,"DIS_CODE":0,"TOWNNAME":"東區","LI":"泉南里","LIN":"24鄰","STREET":"長榮路","SECT":"一段","MAREA":" ","LANE":" ","ALLEY":" ","HOUSE_NO":"９號十二樓之５","E_COORD97":169599.67000000001,"N_COORD97":2542589.3599999999,"ADDRESS":"長榮路一段９號十二樓之５","OBJECTID":257789},"geometry":{"x":169599.66999999993,"y":2542589.3599999994}},{"attributes":{"ID":257794,"DIS_CODE":0,"TOWNNAME":"東區","LI":"泉南里","LIN":"24鄰","STREET":"長榮路","SECT":"一段","MAREA":" ","LANE":" ","ALLEY":" ","HOUSE_NO":"９號十三樓之５","E_COORD97":169599.67000000001,"N_COORD97":2542589.3599999999,"ADDRESS":"長榮路一段９號十三樓之５","OBJECTID":257790},"geometry":{"x":169599.66999999993,"y":2542589.3599999994}},{"attributes":{"ID":257795,"DIS_CODE":0,"TOWNNAME":"東區","LI":"泉南里","LIN":"24鄰","STREET":"長榮路","SECT":"一段","MAREA":" ","LANE":" ","ALLEY":" ","HOUSE_NO":"９號十四樓之５","E_COORD97":169599.67000000001,"N_COORD97":2542589.3599999999,"ADDRESS":"長榮路一段９號十四樓之５","OBJECTID":257791},"geometry":{"x":169599.66999999993,"y":2542589.3599999994}},{"attributes":{"ID":257796,"DIS_CODE":0,"TOWNNAME":"東區","LI":"大福里","LIN":"24鄰","STREET":"中華東路","SECT":"三段","MAREA":" ","LANE":" ","ALLEY":" ","HOUSE_NO":"５２４號四樓之７","E_COORD97":169690.23000000001,"N_COORD97":2541533.2999999998,"ADDRESS":"中華東路三段５２４號四樓之７","OBJECTID":257792},"geometry":{"x":169690.23000000045,"y":2541533.3000000007}},{"attributes":{"ID":257797,"DIS_CODE":0,"TOWNNAME":"安平區","LI":"西門里","LIN":"20鄰","STREET":"安北路","SECT":" ","MAREA":" ","LANE":" ","ALLEY":" ","HOUSE_NO":"４２９號","E_COORD97":163218,"N_COORD97":2544528.79,"ADDRESS":"安北路４２９號","OBJECTID":257793},"geometry":{"x":163218.00000000093,"y":2544528.7899999991}},{"attributes":{"ID":257798,"DIS_CODE":0,"TOWNNAME":"安平區","LI":"西門里","LIN":"20鄰","STREET":"安北路","SECT":" ","MAREA":" ","LANE":" ","ALLEY":" ","HOUSE_NO":"４３１號","E_COORD97":163213.95999999999,"N_COORD97":2544526.6200000001,"ADDRESS":"安北路４３１號","OBJECTID":257794},"geometry":{"x":163213.95999999996,"y":2544526.6200000029}},{"attributes":{"ID":257799,"DIS_CODE":0,"TOWNNAME":"安平區","LI":"西門里","LIN":"20鄰","STREET":"安北路","SECT":" ","MAREA":" ","LANE":" ","ALLEY":" ","HOUSE_NO":"４３３號","E_COORD97":163210.44,"N_COORD97":2544524.3500000001,"ADDRESS":"安北路４３３號","OBJECTID":257795},"geometry":{"x":163210.44000000134,"y":2544524.3500000015}},{"attributes":{"ID":257800,"DIS_CODE":0,"TOWNNAME":"安平區","LI":"西門里","LIN":"20鄰","STREET":"安北路","SECT":" ","MAREA":" ","LANE":" ","ALLEY":" ","HOUSE_NO":"４３５號","E_COORD97":163206.72,"N_COORD97":2544522.7999999998,"ADDRESS":"安北路４３５號","OBJECTID":257796},"geometry":{"x":163206.71999999974,"y":2544522.8000000026}},{"attributes":{"ID":257801,"DIS_CODE":0,"TOWNNAME":"安平區","LI":"西門里","LIN":"20鄰","STREET":"安北路","SECT":" ","MAREA":" ","LANE":" ","ALLEY":" ","HOUSE_NO":"４３７號","E_COORD97":163202.57999999999,"N_COORD97":2544521.04,"ADDRESS":"安北路４３７號","OBJECTID":257797},"geometry":{"x":163202.58000000101,"y":2544521.0399999991}},{"attributes":{"ID":257802,"DIS_CODE":0,"TOWNNAME":"新營區","LI":"民生里","LIN":" ","STREET":"進修街","SECT":" ","MAREA":" ","LANE":" ","ALLEY":" ","HOUSE_NO":"１９之２號","E_COORD97":179059.57999999999,"N_COORD97":2578424.4300000002,"ADDRESS":"進修街１９之２號","OBJECTID":257798},"geometry":{"x":179059.58000000007,"y":2578424.4300000016}},{"attributes":{"ID":257803,"DIS_CODE":0,"TOWNNAME":"安南區","LI":"鳳凰里","LIN":"24鄰","STREET":"安中路","SECT":"一段","MAREA":" ","LANE":" ","ALLEY":" ","HOUSE_NO":"８１０號四樓","E_COORD97":167487.54000000001,"N_COORD97":2549335.8799999999,"ADDRESS":"安中路一段８１０號四樓","OBJECTID":257799},"geometry":{"x":167487.5400000019,"y":2549335.879999999}},{"attributes":{"ID":257804,"DIS_CODE":0,"TOWNNAME":"永康區","LI":"復國里","LIN":"5鄰","STREET":"復國二路","SECT":" ","MAREA":" ","LANE":"３８巷","ALLEY":" ","HOUSE_NO":"５號","E_COORD97":172851.57999999999,"N_COORD97":2544943.77,"ADDRESS":"復國二路３８巷５號","OBJECTID":257800},"geometry":{"x":172851.58000000101,"y":2544943.7699999996}}]}