{"displayFieldName":"TOWNNAME","fieldAliases":{"ID":"ID","DIS_CODE":"DIS_CODE","TOWNNAME":"TOWNNAME","LI":"LI","LIN":"LIN","STREET":"STREET","SECT":"SECT","MAREA":"MAREA","LANE":"LANE","ALLEY":"ALLEY","HOUSE_NO":"HOUSE_NO","E_COORD97":"E_COORD97","N_COORD97":"N_COORD97","ADDRESS":"ADDRESS","OBJECTID":"OBJECTID"},"geometryType":"esriGeometryPoint","spatialReference":{"wkid":102443,"latestWkid":3826},"fields":[{"name":"ID","type":"esriFieldTypeDouble","alias":"ID"},{"name":"DIS_CODE","type":"esriFieldTypeInteger","alias":"DIS_CODE"},{"name":"TOWNNAME","type":"esriFieldTypeString","alias":"TOWNNAME","length":8},{"name":"LI","type":"esriFieldTypeString","alias":"LI","length":8},{"name":"LIN","type":"esriFieldTypeString","alias":"LIN","length":12},{"name":"STREET","type":"esriFieldTypeString","alias":"STREET","length":20},{"name":"SECT","type":"esriFieldTypeString","alias":"SECT","length":8},{"name":"MAREA","type":"esriFieldTypeString","alias":"MAREA","length":12},{"name":"LANE","type":"esriFieldTypeString","alias":"LANE","length":10},{"name":"ALLEY","type":"esriFieldTypeString","alias":"ALLEY","length":10},{"name":"HOUSE_NO","type":"esriFieldTypeString","alias":"HOUSE_NO","length":20},{"name":"E_COORD97","type":"esriFieldTypeDouble","alias":"E_COORD97"},{"name":"N_COORD97","type":"esriFieldTypeDouble","alias":"N_COORD97"},{"name":"ADDRESS","type":"esriFieldTypeString","alias":"ADDRESS","length":50},{"name":"OBJECTID","type":"esriFieldTypeOID","alias":"OBJECTID"}],"features":[{"attributes":{"ID":579028,"DIS_CODE":0,"TOWNNAME":"鹽水區","LI":"水秀里","LIN":"16鄰","STREET":"朝琴路","SECT":" ","MAREA":" ","LANE":" ","ALLEY":" ","HOUSE_NO":"１８４號","E_COORD97":175663.81,"N_COORD97":2580327.3700000001,"ADDRESS":"朝琴路１８４號","OBJECTID":579001},"geometry":{"x":175663.80999999959,"y":2580327.3700000029}},{"attributes":{"ID":579029,"DIS_CODE":0,"TOWNNAME":"鹽水區","LI":"水秀里","LIN":"16鄰","STREET":"朝琴路","SECT":" ","MAREA":" ","LANE":" ","ALLEY":" ","HOUSE_NO":"１８６號","E_COORD97":175668.04999999999,"N_COORD97":2580329.48,"ADDRESS":"朝琴路１８６號","OBJECTID":579002},"geometry":{"x":175668.04999999981,"y":2580329.4800000023}},{"attributes":{"ID":579030,"DIS_CODE":0,"TOWNNAME":"鹽水區","LI":"水秀里","LIN":"16鄰","STREET":"朝琴路","SECT":" ","MAREA":" ","LANE":" ","ALLEY":" ","HOUSE_NO":"１８８之６號","E_COORD97":175718.42999999999,"N_COORD97":2580354.1200000001,"ADDRESS":"朝琴路１８８之６號","OBJECTID":579003},"geometry":{"x":175718.43000000063,"y":2580354.1200000029}},{"attributes":{"ID":579031,"DIS_CODE":0,"TOWNNAME":"鹽水區","LI":"水秀里","LIN":"16鄰","STREET":"朝琴路","SECT":" ","MAREA":" ","LANE":" ","ALLEY":" ","HOUSE_NO":"１９０號","E_COORD97":176084.34,"N_COORD97":2580520.9500000002,"ADDRESS":"朝琴路１９０號","OBJECTID":579004},"geometry":{"x":176084.33999999985,"y":2580520.9499999993}},{"attributes":{"ID":579032,"DIS_CODE":0,"TOWNNAME":"鹽水區","LI":"水秀里","LIN":"16鄰","STREET":"朝琴路","SECT":" ","MAREA":" ","LANE":" ","ALLEY":" ","HOUSE_NO":"１９２號","E_COORD97":176093.37,"N_COORD97":2580526.1600000001,"ADDRESS":"朝琴路１９２號","OBJECTID":579005},"geometry":{"x":176093.37000000011,"y":2580526.1600000001}},{"attributes":{"ID":579033,"DIS_CODE":0,"TOWNNAME":"鹽水區","LI":"水秀里","LIN":"16鄰","STREET":"朝琴路","SECT":" ","MAREA":" ","LANE":" ","ALLEY":" ","HOUSE_NO":"１９６號","E_COORD97":176119.44,"N_COORD97":2580501.5699999998,"ADDRESS":"朝琴路１９６號","OBJECTID":579006},"geometry":{"x":176119.44000000134,"y":2580501.5700000022}},{"attributes":{"ID":579034,"DIS_CODE":0,"TOWNNAME":"鹽水區","LI":"水秀里","LIN":"16鄰","STREET":"朝琴路","SECT":" ","MAREA":" ","LANE":" ","ALLEY":" ","HOUSE_NO":"１９８號","E_COORD97":176143.82000000001,"N_COORD97":2580543.9100000001,"ADDRESS":"朝琴路１９８號","OBJECTID":579007},"geometry":{"x":176143.82000000123,"y":2580543.910000002}},{"attributes":{"ID":579035,"DIS_CODE":0,"TOWNNAME":"安平區","LI":"億載里","LIN":"16鄰","STREET":"府平路","SECT":" ","MAREA":" ","LANE":" ","ALLEY":" ","HOUSE_NO":"５３９號","E_COORD97":164150.23999999999,"N_COORD97":2543085.0800000001,"ADDRESS":"府平路５３９號","OBJECTID":579008},"geometry":{"x":164150.24000000209,"y":2543085.0800000019}},{"attributes":{"ID":579036,"DIS_CODE":0,"TOWNNAME":"安平區","LI":"建平里","LIN":"16鄰","STREET":"建平十二街","SECT":" ","MAREA":" ","LANE":" ","ALLEY":" ","HOUSE_NO":"５５號","E_COORD97":166276.39000000001,"N_COORD97":2543948.1400000001,"ADDRESS":"建平十二街５５號","OBJECTID":579009},"geometry":{"x":166276.3900000006,"y":2543948.1400000006}},{"attributes":{"ID":579037,"DIS_CODE":0,"TOWNNAME":"安平區","LI":"建平里","LIN":"16鄰","STREET":"建平十二街","SECT":" ","MAREA":" ","LANE":" ","ALLEY":" ","HOUSE_NO":"５７號","E_COORD97":166271.85000000001,"N_COORD97":2543948.6200000001,"ADDRESS":"建平十二街５７號","OBJECTID":579010},"geometry":{"x":166271.85000000056,"y":2543948.620000001}},{"attributes":{"ID":579038,"DIS_CODE":0,"TOWNNAME":"安平區","LI":"建平里","LIN":"16鄰","STREET":"建平十二街","SECT":" ","MAREA":" ","LANE":" ","ALLEY":" ","HOUSE_NO":"５９號","E_COORD97":166266.82999999999,"N_COORD97":2543946.1099999999,"ADDRESS":"建平十二街５９號","OBJECTID":579011},"geometry":{"x":166266.83000000194,"y":2543946.1100000013}},{"attributes":{"ID":579039,"DIS_CODE":0,"TOWNNAME":"安平區","LI":"建平里","LIN":"16鄰","STREET":"建平十二街","SECT":" ","MAREA":" ","LANE":" ","ALLEY":" ","HOUSE_NO":"５９號之１","E_COORD97":166262.29000000001,"N_COORD97":2543946.5899999999,"ADDRESS":"建平十二街５９號之１","OBJECTID":579012},"geometry":{"x":166262.29000000097,"y":2543946.5900000017}},{"attributes":{"ID":579040,"DIS_CODE":0,"TOWNNAME":"安平區","LI":"建平里","LIN":"16鄰","STREET":"建平十二街","SECT":" ","MAREA":" ","LANE":" ","ALLEY":" ","HOUSE_NO":"５９號之１０","E_COORD97":166224.01000000001,"N_COORD97":2543947.4300000002,"ADDRESS":"建平十二街５９號之１０","OBJECTID":579013},"geometry":{"x":166224.00999999978,"y":2543947.4300000016}},{"attributes":{"ID":579041,"DIS_CODE":0,"TOWNNAME":"安平區","LI":"建平里","LIN":"16鄰","STREET":"建平十二街","SECT":" ","MAREA":" ","LANE":" ","ALLEY":" ","HOUSE_NO":"５９號之１１","E_COORD97":166220.19,"N_COORD97":2543948.02,"ADDRESS":"建平十二街５９號之１１","OBJECTID":579014},"geometry":{"x":166220.19000000041,"y":2543948.0199999996}},{"attributes":{"ID":579042,"DIS_CODE":0,"TOWNNAME":"安平區","LI":"建平里","LIN":"16鄰","STREET":"建平十二街","SECT":" ","MAREA":" ","LANE":" ","ALLEY":" ","HOUSE_NO":"５９號之１２","E_COORD97":166215.89000000001,"N_COORD97":2543948.7400000002,"ADDRESS":"建平十二街５９號之１２","OBJECTID":579015},"geometry":{"x":166215.8900000006,"y":2543948.7400000021}},{"attributes":{"ID":579043,"DIS_CODE":0,"TOWNNAME":"安平區","LI":"建平里","LIN":"16鄰","STREET":"建平十二街","SECT":" ","MAREA":" ","LANE":" ","ALLEY":" ","HOUSE_NO":"５９號之２","E_COORD97":166258.10000000001,"N_COORD97":2543946.71,"ADDRESS":"建平十二街５９號之２","OBJECTID":579016},"geometry":{"x":166258.10000000056,"y":2543946.7100000028}},{"attributes":{"ID":579044,"DIS_CODE":0,"TOWNNAME":"安平區","LI":"建平里","LIN":"16鄰","STREET":"建平十二街","SECT":" ","MAREA":" ","LANE":" ","ALLEY":" ","HOUSE_NO":"５９號之３","E_COORD97":166253.92000000001,"N_COORD97":2543946.9500000002,"ADDRESS":"建平十二街５９號之３","OBJECTID":579017},"geometry":{"x":166253.91999999993,"y":2543946.9500000011}},{"attributes":{"ID":579045,"DIS_CODE":0,"TOWNNAME":"安平區","LI":"建平里","LIN":"16鄰","STREET":"建平十二街","SECT":" ","MAREA":" ","LANE":" ","ALLEY":" ","HOUSE_NO":"５９號之４","E_COORD97":166249.85999999999,"N_COORD97":2543947.0699999998,"ADDRESS":"建平十二街５９號之４","OBJECTID":579018},"geometry":{"x":166249.8600000022,"y":2543947.0700000022}},{"attributes":{"ID":579046,"DIS_CODE":0,"TOWNNAME":"安平區","LI":"建平里","LIN":"16鄰","STREET":"建平十二街","SECT":" ","MAREA":" ","LANE":" ","ALLEY":" ","HOUSE_NO":"５９號之５","E_COORD97":166245.56,"N_COORD97":2543946.5899999999,"ADDRESS":"建平十二街５９號之５","OBJECTID":579019},"geometry":{"x":166245.55999999959,"y":2543946.5900000017}},{"attributes":{"ID":579047,"DIS_CODE":0,"TOWNNAME":"安平區","LI":"建平里","LIN":"16鄰","STREET":"建平十二街","SECT":" ","MAREA":" ","LANE":" ","ALLEY":" ","HOUSE_NO":"５９號之６","E_COORD97":166241.38,"N_COORD97":2543946.71,"ADDRESS":"建平十二街５９號之６","OBJECTID":579020},"geometry":{"x":166241.38000000082,"y":2543946.7100000028}},{"attributes":{"ID":579048,"DIS_CODE":0,"TOWNNAME":"安平區","LI":"建平里","LIN":"16鄰","STREET":"建平十二街","SECT":" ","MAREA":" ","LANE":" ","ALLEY":" ","HOUSE_NO":"５９號之７","E_COORD97":166237.54999999999,"N_COORD97":2543946.9500000002,"ADDRESS":"建平十二街５９號之７","OBJECTID":579021},"geometry":{"x":166237.54999999981,"y":2543946.9500000011}},{"attributes":{"ID":579049,"DIS_CODE":0,"TOWNNAME":"安平區","LI":"建平里","LIN":"16鄰","STREET":"建平十二街","SECT":" ","MAREA":" ","LANE":" ","ALLEY":" ","HOUSE_NO":"５９號之８","E_COORD97":166233.13,"N_COORD97":2543947.3100000001,"ADDRESS":"建平十二街５９號之８","OBJECTID":579022},"geometry":{"x":166233.13000000082,"y":2543947.3100000005}},{"attributes":{"ID":579050,"DIS_CODE":0,"TOWNNAME":"安平區","LI":"建平里","LIN":"16鄰","STREET":"建平十二街","SECT":" ","MAREA":" ","LANE":" ","ALLEY":" ","HOUSE_NO":"５９號之９","E_COORD97":166229.07000000001,"N_COORD97":2543946.9500000002,"ADDRESS":"建平十二街５９號之９","OBJECTID":579023},"geometry":{"x":166229.0700000003,"y":2543946.9500000011}},{"attributes":{"ID":579051,"DIS_CODE":0,"TOWNNAME":"安平區","LI":"建平里","LIN":"16鄰","STREET":"建平十二街","SECT":" ","MAREA":" ","LANE":" ","ALLEY":" ","HOUSE_NO":"６７號","E_COORD97":166089.434675,"N_COORD97":2543967.9466599999,"ADDRESS":"建平十二街６７號","OBJECTID":579024},"geometry":{"x":166089.43467500061,"y":2543967.9466600027}},{"attributes":{"ID":579052,"DIS_CODE":0,"TOWNNAME":"鹽水區","LI":"水正里","LIN":"16鄰","STREET":"中正路","SECT":" ","MAREA":" ","LANE":" ","ALLEY":" ","HOUSE_NO":"１４０號","E_COORD97":175057.57000000001,"N_COORD97":2579708.2799999998,"ADDRESS":"中正路１４０號","OBJECTID":579025},"geometry":{"x":175057.5700000003,"y":2579708.2799999993}},{"attributes":{"ID":579053,"DIS_CODE":0,"TOWNNAME":"南區","LI":"大忠里","LIN":"16鄰","STREET":"公英七街","SECT":" ","MAREA":" ","LANE":" ","ALLEY":" ","HOUSE_NO":"２號","E_COORD97":169431.01000000001,"N_COORD97":2541079.6400000001,"ADDRESS":"公英七街２號","OBJECTID":579026},"geometry":{"x":169431.00999999978,"y":2541079.6400000006}},{"attributes":{"ID":579054,"DIS_CODE":0,"TOWNNAME":"麻豆區","LI":"新建里","LIN":"5鄰","STREET":"中山路","SECT":" ","MAREA":" ","LANE":" ","ALLEY":" ","HOUSE_NO":"１５７號之３","E_COORD97":172592.54000000001,"N_COORD97":2564815,"ADDRESS":"中山路１５７號之３","OBJECTID":579027},"geometry":{"x":172592.54000000097,"y":2564815.0000000019}},{"attributes":{"ID":579055,"DIS_CODE":0,"TOWNNAME":"麻豆區","LI":"新建里","LIN":"5鄰","STREET":"中山路","SECT":" ","MAREA":" ","LANE":" ","ALLEY":" ","HOUSE_NO":"１５９號","E_COORD97":172577.5,"N_COORD97":2564828.1499999999,"ADDRESS":"中山路１５９號","OBJECTID":579028},"geometry":{"x":172577.50000000093,"y":2564828.1500000022}},{"attributes":{"ID":579056,"DIS_CODE":0,"TOWNNAME":"麻豆區","LI":"新建里","LIN":"5鄰","STREET":"中山路","SECT":" ","MAREA":" ","LANE":" ","ALLEY":" ","HOUSE_NO":"１６１號之１","E_COORD97":172546.5,"N_COORD97":2564806.4399999999,"ADDRESS":"中山路１６１號之１","OBJECTID":579029},"geometry":{"x":172546.50000000093,"y":2564806.4399999995}},{"attributes":{"ID":579057,"DIS_CODE":0,"TOWNNAME":"麻豆區","LI":"新建里","LIN":"5鄰","STREET":"中山路","SECT":" ","MAREA":" ","LANE":" ","ALLEY":" ","HOUSE_NO":"１６１號","E_COORD97":172573.95000000001,"N_COORD97":2564829.8700000001,"ADDRESS":"中山路１６１號","OBJECTID":579030},"geometry":{"x":172573.95000000205,"y":2564829.8700000029}},{"attributes":{"ID":579058,"DIS_CODE":0,"TOWNNAME":"麻豆區","LI":"新建里","LIN":"5鄰","STREET":"中山路","SECT":" ","MAREA":" ","LANE":" ","ALLEY":" ","HOUSE_NO":"１６３號之１","E_COORD97":172543.66,"N_COORD97":2564843.2599999998,"ADDRESS":"中山路１６３號之１","OBJECTID":579031},"geometry":{"x":172543.66000000201,"y":2564843.2600000016}},{"attributes":{"ID":579059,"DIS_CODE":0,"TOWNNAME":"麻豆區","LI":"新建里","LIN":"5鄰","STREET":"中山路","SECT":" ","MAREA":" ","LANE":" ","ALLEY":" ","HOUSE_NO":"１６３號","E_COORD97":172554.32999999999,"N_COORD97":2564841.1200000001,"ADDRESS":"中山路１６３號","OBJECTID":579032},"geometry":{"x":172554.33000000194,"y":2564841.120000001}},{"attributes":{"ID":579060,"DIS_CODE":0,"TOWNNAME":"麻豆區","LI":"新建里","LIN":"5鄰","STREET":"中山路","SECT":" ","MAREA":" ","LANE":" ","ALLEY":" ","HOUSE_NO":"１６５號之１","E_COORD97":172535.76000000001,"N_COORD97":2564848.1899999999,"ADDRESS":"中山路１６５號之１","OBJECTID":579033},"geometry":{"x":172535.76000000164,"y":2564848.1899999995}},{"attributes":{"ID":579061,"DIS_CODE":0,"TOWNNAME":"南區","LI":"大忠里","LIN":"16鄰","STREET":"公英七街","SECT":" ","MAREA":" ","LANE":" ","ALLEY":" ","HOUSE_NO":"３號","E_COORD97":169427.17999999999,"N_COORD97":2541062.96,"ADDRESS":"公英七街３號","OBJECTID":579034},"geometry":{"x":169427.18000000156,"y":2541062.9600000028}},{"attributes":{"ID":579062,"DIS_CODE":0,"TOWNNAME":"南區","LI":"大忠里","LIN":"16鄰","STREET":"公英七街","SECT":" ","MAREA":" ","LANE":" ","ALLEY":" ","HOUSE_NO":"４號","E_COORD97":169427.17999999999,"N_COORD97":2541079.3999999999,"ADDRESS":"公英七街４號","OBJECTID":579035},"geometry":{"x":169427.18000000156,"y":2541079.4000000022}},{"attributes":{"ID":579063,"DIS_CODE":0,"TOWNNAME":"南區","LI":"大忠里","LIN":"16鄰","STREET":"公英七街","SECT":" ","MAREA":" ","LANE":" ","ALLEY":" ","HOUSE_NO":"１０號","E_COORD97":169415.23999999999,"N_COORD97":2541077.4900000002,"ADDRESS":"公英七街１０號","OBJECTID":579036},"geometry":{"x":169415.24000000022,"y":2541077.4900000002}},{"attributes":{"ID":579064,"DIS_CODE":0,"TOWNNAME":"南區","LI":"大忠里","LIN":"16鄰","STREET":"公英七街","SECT":" ","MAREA":" ","LANE":" ","ALLEY":" ","HOUSE_NO":"１２號","E_COORD97":169411.41,"N_COORD97":2541076.7799999998,"ADDRESS":"公英七街１２號","OBJECTID":579037},"geometry":{"x":169411.41000000108,"y":2541076.7800000012}},{"attributes":{"ID":579065,"DIS_CODE":0,"TOWNNAME":"南區","LI":"大忠里","LIN":"16鄰","STREET":"公英七街","SECT":" ","MAREA":" ","LANE":" ","ALLEY":" ","HOUSE_NO":"１４號","E_COORD97":169404.95999999999,"N_COORD97":2541075.8300000001,"ADDRESS":"公英七街１４號","OBJECTID":579038},"geometry":{"x":169404.95999999996,"y":2541075.8300000038}},{"attributes":{"ID":579066,"DIS_CODE":0,"TOWNNAME":"南區","LI":"大忠里","LIN":"16鄰","STREET":"公英七街","SECT":" ","MAREA":" ","LANE":" ","ALLEY":" ","HOUSE_NO":"１號","E_COORD97":169432.67999999999,"N_COORD97":2541062.25,"ADDRESS":"公英七街１號","OBJECTID":579039},"geometry":{"x":169432.68000000063,"y":2541062.25}},{"attributes":{"ID":579067,"DIS_CODE":0,"TOWNNAME":"南區","LI":"大忠里","LIN":"16鄰","STREET":"公英七街","SECT":" ","MAREA":" ","LANE":" ","ALLEY":" ","HOUSE_NO":"５號","E_COORD97":169419.78,"N_COORD97":2541062.96,"ADDRESS":"公英七街５號","OBJECTID":579040},"geometry":{"x":169419.78000000026,"y":2541062.9600000028}},{"attributes":{"ID":579068,"DIS_CODE":0,"TOWNNAME":"南區","LI":"大忠里","LIN":"16鄰","STREET":"公英七街","SECT":" ","MAREA":" ","LANE":" ","ALLEY":" ","HOUSE_NO":"６號","E_COORD97":169422.88,"N_COORD97":2541079.1600000001,"ADDRESS":"公英七街６號","OBJECTID":579041},"geometry":{"x":169422.88000000082,"y":2541079.1600000001}},{"attributes":{"ID":579069,"DIS_CODE":0,"TOWNNAME":"麻豆區","LI":"新建里","LIN":"6鄰","STREET":"中山路","SECT":" ","MAREA":" ","LANE":" ","ALLEY":" ","HOUSE_NO":"１７１號之１５","E_COORD97":172514.25,"N_COORD97":2564844.98,"ADDRESS":"中山路１７１號之１５","OBJECTID":579042},"geometry":{"x":172514.25000000093,"y":2564844.9799999986}},{"attributes":{"ID":579070,"DIS_CODE":0,"TOWNNAME":"麻豆區","LI":"新建里","LIN":"6鄰","STREET":"中山路","SECT":" ","MAREA":" ","LANE":" ","ALLEY":" ","HOUSE_NO":"１７１號之１","E_COORD97":172490.75,"N_COORD97":2564821.96,"ADDRESS":"中山路１７１號之１","OBJECTID":579043},"geometry":{"x":172490.75000000093,"y":2564821.9600000046}},{"attributes":{"ID":579071,"DIS_CODE":0,"TOWNNAME":"新營區","LI":"民生里","LIN":"16鄰","STREET":"中華路","SECT":" ","MAREA":" ","LANE":" ","ALLEY":" ","HOUSE_NO":"１１８號","E_COORD97":179140.04000000001,"N_COORD97":2578185.8799999999,"ADDRESS":"中華路１１８號","OBJECTID":579044},"geometry":{"x":179140.04000000004,"y":2578185.8800000008}},{"attributes":{"ID":579072,"DIS_CODE":0,"TOWNNAME":"歸仁區","LI":"崙頂里","LIN":"16鄰","STREET":"崙頂一街","SECT":" ","MAREA":" ","LANE":" ","ALLEY":" ","HOUSE_NO":"３１號","E_COORD97":177987.17000000001,"N_COORD97":2539997.6800000002,"ADDRESS":"崙頂一街３１號","OBJECTID":579045},"geometry":{"x":177987.17000000086,"y":2539997.6799999997}},{"attributes":{"ID":579073,"DIS_CODE":0,"TOWNNAME":"歸仁區","LI":"許厝里","LIN":"16鄰","STREET":"忠孝北路","SECT":" ","MAREA":" ","LANE":" ","ALLEY":" ","HOUSE_NO":"６５號","E_COORD97":178403.01999999999,"N_COORD97":2540784.25,"ADDRESS":"忠孝北路６５號","OBJECTID":579046},"geometry":{"x":178403.02000000048,"y":2540784.25}},{"attributes":{"ID":579074,"DIS_CODE":0,"TOWNNAME":"歸仁區","LI":"許厝里","LIN":"16鄰","STREET":"中山路","SECT":"一段","MAREA":" ","LANE":" ","ALLEY":" ","HOUSE_NO":"３３２號","E_COORD97":178400.01000000001,"N_COORD97":2540691.25,"ADDRESS":"中山路一段３３２號","OBJECTID":579047},"geometry":{"x":178400.01000000071,"y":2540691.2500000019}},{"attributes":{"ID":579075,"DIS_CODE":0,"TOWNNAME":"歸仁區","LI":"崙頂里","LIN":"16鄰","STREET":"崙頂街","SECT":" ","MAREA":" ","LANE":" ","ALLEY":" ","HOUSE_NO":"４１號","E_COORD97":177865.35999999999,"N_COORD97":2539997.1099999999,"ADDRESS":"崙頂街４１號","OBJECTID":579048},"geometry":{"x":177865.3600000022,"y":2539997.1099999994}},{"attributes":{"ID":579076,"DIS_CODE":0,"TOWNNAME":"歸仁區","LI":"看西里","LIN":"16鄰","STREET":"仁愛南街","SECT":" ","MAREA":" ","LANE":" ","ALLEY":" ","HOUSE_NO":"３２１號","E_COORD97":178285.35999999999,"N_COORD97":2540017.1200000001,"ADDRESS":"仁愛南街３２１號","OBJECTID":579049},"geometry":{"x":178285.36000000034,"y":2540017.1200000048}},{"attributes":{"ID":579077,"DIS_CODE":0,"TOWNNAME":"歸仁區","LI":"許厝里","LIN":"16鄰","STREET":"忠孝北路","SECT":" ","MAREA":" ","LANE":" ","ALLEY":" ","HOUSE_NO":"４９號","E_COORD97":178426.51999999999,"N_COORD97":2540754.25,"ADDRESS":"忠孝北路４９號","OBJECTID":579050},"geometry":{"x":178426.52000000048,"y":2540754.2500000037}},{"attributes":{"ID":579078,"DIS_CODE":0,"TOWNNAME":"歸仁區","LI":"看西里","LIN":"16鄰","STREET":"成功路","SECT":"一段","MAREA":" ","LANE":" ","ALLEY":" ","HOUSE_NO":"２９２號","E_COORD97":178308.10999999999,"N_COORD97":2540009.1200000001,"ADDRESS":"成功路一段２９２號","OBJECTID":579051},"geometry":{"x":178308.11000000127,"y":2540009.120000001}},{"attributes":{"ID":579079,"DIS_CODE":0,"TOWNNAME":"歸仁區","LI":"許厝里","LIN":"16鄰","STREET":"忠孝北路","SECT":" ","MAREA":" ","LANE":" ","ALLEY":" ","HOUSE_NO":"５７號","E_COORD97":178415.22,"N_COORD97":2540768.25,"ADDRESS":"忠孝北路５７號","OBJECTID":579052},"geometry":{"x":178415.22000000067,"y":2540768.2500000019}},{"attributes":{"ID":579080,"DIS_CODE":0,"TOWNNAME":"歸仁區","LI":"許厝里","LIN":"16鄰","STREET":"忠孝北路","SECT":" ","MAREA":" ","LANE":" ","ALLEY":" ","HOUSE_NO":"５５號","E_COORD97":178417.32000000001,"N_COORD97":2540764.25,"ADDRESS":"忠孝北路５５號","OBJECTID":579053},"geometry":{"x":178417.32000000123,"y":2540764.2499999981}},{"attributes":{"ID":579081,"DIS_CODE":0,"TOWNNAME":"歸仁區","LI":"看西里","LIN":"16鄰","STREET":"成功路","SECT":"一段","MAREA":" ","LANE":" ","ALLEY":" ","HOUSE_NO":"２８６號","E_COORD97":178317.41,"N_COORD97":2540017.1200000001,"ADDRESS":"成功路一段２８６號","OBJECTID":579054},"geometry":{"x":178317.41000000201,"y":2540017.1200000048}},{"attributes":{"ID":579082,"DIS_CODE":0,"TOWNNAME":"歸仁區","LI":"許厝里","LIN":"16鄰","STREET":"忠孝北路","SECT":" ","MAREA":" ","LANE":" ","ALLEY":" ","HOUSE_NO":"１３號","E_COORD97":178451.92000000001,"N_COORD97":2540716.25,"ADDRESS":"忠孝北路１３號","OBJECTID":579055},"geometry":{"x":178451.91999999993,"y":2540716.25}},{"attributes":{"ID":579083,"DIS_CODE":0,"TOWNNAME":"歸仁區","LI":"崙頂里","LIN":"16鄰","STREET":"崙頂一街","SECT":" ","MAREA":" ","LANE":" ","ALLEY":" ","HOUSE_NO":"１９號","E_COORD97":177944.51000000001,"N_COORD97":2539994.1099999999,"ADDRESS":"崙頂一街１９號","OBJECTID":579056},"geometry":{"x":177944.50999999978,"y":2539994.1099999994}},{"attributes":{"ID":579084,"DIS_CODE":0,"TOWNNAME":"歸仁區","LI":"許厝里","LIN":"16鄰","STREET":"忠孝北路","SECT":" ","MAREA":" ","LANE":" ","ALLEY":" ","HOUSE_NO":"４５號","E_COORD97":178430.51999999999,"N_COORD97":2540747.25,"ADDRESS":"忠孝北路４５號","OBJECTID":579057},"geometry":{"x":178430.51999999955,"y":2540747.2499999981}},{"attributes":{"ID":579085,"DIS_CODE":0,"TOWNNAME":"歸仁區","LI":"看西里","LIN":"16鄰","STREET":"仁愛南街","SECT":" ","MAREA":" ","LANE":" ","ALLEY":" ","HOUSE_NO":"３０５號","E_COORD97":178273.26000000001,"N_COORD97":2540047.1200000001,"ADDRESS":"仁愛南街３０５號","OBJECTID":579058},"geometry":{"x":178273.25999999978,"y":2540047.120000001}},{"attributes":{"ID":579086,"DIS_CODE":0,"TOWNNAME":"歸仁區","LI":"許厝里","LIN":"16鄰","STREET":"忠孝北路","SECT":" ","MAREA":" ","LANE":" ","ALLEY":" ","HOUSE_NO":"４３號","E_COORD97":178432.62,"N_COORD97":2540744.25,"ADDRESS":"忠孝北路４３號","OBJECTID":579059},"geometry":{"x":178432.62000000011,"y":2540744.2500000037}},{"attributes":{"ID":579087,"DIS_CODE":0,"TOWNNAME":"歸仁區","LI":"許厝里","LIN":"16鄰","STREET":"忠孝北路","SECT":" ","MAREA":" ","LANE":" ","ALLEY":" ","HOUSE_NO":"６７號","E_COORD97":178400.01999999999,"N_COORD97":2540788.25,"ADDRESS":"忠孝北路６７號","OBJECTID":579060},"geometry":{"x":178400.01999999955,"y":2540788.2500000037}},{"attributes":{"ID":579088,"DIS_CODE":0,"TOWNNAME":"歸仁區","LI":"崙頂里","LIN":"16鄰","STREET":"崙頂街","SECT":" ","MAREA":" ","LANE":" ","ALLEY":" ","HOUSE_NO":"３９號","E_COORD97":177864.35999999999,"N_COORD97":2540002.1099999999,"ADDRESS":"崙頂街３９號","OBJECTID":579061},"geometry":{"x":177864.36000000127,"y":2540002.1100000031}},{"attributes":{"ID":579089,"DIS_CODE":0,"TOWNNAME":"歸仁區","LI":"崙頂里","LIN":"16鄰","STREET":"崙頂街","SECT":" ","MAREA":" ","LANE":" ","ALLEY":" ","HOUSE_NO":"４５號","E_COORD97":177869.35999999999,"N_COORD97":2539985.1099999999,"ADDRESS":"崙頂街４５號","OBJECTID":579062},"geometry":{"x":177869.36000000127,"y":2539985.1100000031}},{"attributes":{"ID":579090,"DIS_CODE":0,"TOWNNAME":"歸仁區","LI":"辜厝里","LIN":"16鄰","STREET":"大順街","SECT":" ","MAREA":" ","LANE":" ","ALLEY":" ","HOUSE_NO":"１號","E_COORD97":177456.92999999999,"N_COORD97":2540505.9500000002,"ADDRESS":"大順街１號","OBJECTID":579063},"geometry":{"x":177456.9299999997,"y":2540505.9500000011}},{"attributes":{"ID":579091,"DIS_CODE":0,"TOWNNAME":"歸仁區","LI":"許厝里","LIN":"16鄰","STREET":"忠孝北路","SECT":" ","MAREA":" ","LANE":" ","ALLEY":" ","HOUSE_NO":"１１號","E_COORD97":178450.92000000001,"N_COORD97":2540721.25,"ADDRESS":"忠孝北路１１號","OBJECTID":579064},"geometry":{"x":178450.91999999899,"y":2540721.2500000019}},{"attributes":{"ID":579092,"DIS_CODE":0,"TOWNNAME":"歸仁區","LI":"看西里","LIN":"16鄰","STREET":"成功路","SECT":"一段","MAREA":" ","LANE":" ","ALLEY":" ","HOUSE_NO":"２８０號","E_COORD97":178321.60999999999,"N_COORD97":2540031.1200000001,"ADDRESS":"成功路一段２８０號","OBJECTID":579065},"geometry":{"x":178321.61000000127,"y":2540031.1200000029}},{"attributes":{"ID":579093,"DIS_CODE":0,"TOWNNAME":"歸仁區","LI":"看西里","LIN":"16鄰","STREET":"仁愛南街","SECT":" ","MAREA":" ","LANE":" ","ALLEY":" ","HOUSE_NO":"３０９號","E_COORD97":178275.26000000001,"N_COORD97":2540039.1200000001,"ADDRESS":"仁愛南街３０９號","OBJECTID":579066},"geometry":{"x":178275.25999999978,"y":2540039.1200000029}},{"attributes":{"ID":579094,"DIS_CODE":0,"TOWNNAME":"歸仁區","LI":"許厝里","LIN":"16鄰","STREET":"忠孝北路","SECT":" ","MAREA":" ","LANE":" ","ALLEY":" ","HOUSE_NO":"３５號","E_COORD97":178439.72,"N_COORD97":2540734.25,"ADDRESS":"忠孝北路３５號","OBJECTID":579067},"geometry":{"x":178439.71999999974,"y":2540734.2500000019}},{"attributes":{"ID":579095,"DIS_CODE":0,"TOWNNAME":"歸仁區","LI":"許厝里","LIN":"16鄰","STREET":"忠孝北路","SECT":" ","MAREA":" ","LANE":" ","ALLEY":" ","HOUSE_NO":"４７號","E_COORD97":178428.51999999999,"N_COORD97":2540751.25,"ADDRESS":"忠孝北路４７號","OBJECTID":579068},"geometry":{"x":178428.52000000048,"y":2540751.2500000019}},{"attributes":{"ID":579096,"DIS_CODE":0,"TOWNNAME":"歸仁區","LI":"看西里","LIN":"16鄰","STREET":"成功路","SECT":"一段","MAREA":" ","LANE":" ","ALLEY":" ","HOUSE_NO":"２８８號","E_COORD97":178314.31,"N_COORD97":2540013.1200000001,"ADDRESS":"成功路一段２８８號","OBJECTID":579069},"geometry":{"x":178314.31000000052,"y":2540013.120000001}},{"attributes":{"ID":579097,"DIS_CODE":0,"TOWNNAME":"歸仁區","LI":"看西里","LIN":"16鄰","STREET":"成功路","SECT":"一段","MAREA":" ","LANE":" ","ALLEY":" ","HOUSE_NO":"２９８號","E_COORD97":178298.91,"N_COORD97":2540001.1200000001,"ADDRESS":"成功路一段２９８號","OBJECTID":579070},"geometry":{"x":178298.91000000108,"y":2540001.1200000029}},{"attributes":{"ID":579098,"DIS_CODE":0,"TOWNNAME":"歸仁區","LI":"許厝里","LIN":"16鄰","STREET":"忠孝北路","SECT":" ","MAREA":" ","LANE":" ","ALLEY":" ","HOUSE_NO":"５１號","E_COORD97":178422.42000000001,"N_COORD97":2540757.25,"ADDRESS":"忠孝北路５１號","OBJECTID":579071},"geometry":{"x":178422.42000000086,"y":2540757.25}},{"attributes":{"ID":579099,"DIS_CODE":0,"TOWNNAME":"歸仁區","LI":"看西里","LIN":"16鄰","STREET":"仁愛南街","SECT":" ","MAREA":" ","LANE":" ","ALLEY":" ","HOUSE_NO":"３２３號","E_COORD97":178288.45999999999,"N_COORD97":2540012.1200000001,"ADDRESS":"仁愛南街３２３號","OBJECTID":579072},"geometry":{"x":178288.46000000089,"y":2540012.120000001}},{"attributes":{"ID":579100,"DIS_CODE":0,"TOWNNAME":"歸仁區","LI":"看西里","LIN":"16鄰","STREET":"仁愛南街","SECT":" ","MAREA":" ","LANE":" ","ALLEY":" ","HOUSE_NO":"３１３號","E_COORD97":178278.26000000001,"N_COORD97":2540030.1200000001,"ADDRESS":"仁愛南街３１３號","OBJECTID":579073},"geometry":{"x":178278.25999999978,"y":2540030.120000001}},{"attributes":{"ID":579101,"DIS_CODE":0,"TOWNNAME":"歸仁區","LI":"看西里","LIN":"16鄰","STREET":"仁愛南街","SECT":" ","MAREA":" ","LANE":" ","ALLEY":" ","HOUSE_NO":"２９９號","E_COORD97":178273.26000000001,"N_COORD97":2540060.1200000001,"ADDRESS":"仁愛南街２９９號","OBJECTID":579074},"geometry":{"x":178273.25999999978,"y":2540060.120000001}},{"attributes":{"ID":579102,"DIS_CODE":0,"TOWNNAME":"北區","LI":"大豐里","LIN":"16鄰","STREET":"武聖路","SECT":" ","MAREA":" ","LANE":" ","ALLEY":" ","HOUSE_NO":"１６４號","E_COORD97":166934.95000000001,"N_COORD97":2545271.9100000001,"ADDRESS":"武聖路１６４號","OBJECTID":579075},"geometry":{"x":166934.95000000019,"y":2545271.9100000001}},{"attributes":{"ID":579103,"DIS_CODE":0,"TOWNNAME":"新營區","LI":"王公里","LIN":"16鄰","STREET":"大仁街","SECT":" ","MAREA":" ","LANE":" ","ALLEY":" ","HOUSE_NO":"１６號","E_COORD97":180209.10000000001,"N_COORD97":2579368.0800000001,"ADDRESS":"大仁街１６號","OBJECTID":579076},"geometry":{"x":180209.10000000149,"y":2579368.0800000001}},{"attributes":{"ID":579104,"DIS_CODE":0,"TOWNNAME":"新營區","LI":"民生里","LIN":"16鄰","STREET":"中華路","SECT":" ","MAREA":" ","LANE":" ","ALLEY":" ","HOUSE_NO":"１１８之１５號","E_COORD97":179162.45000000001,"N_COORD97":2578237.8900000001,"ADDRESS":"中華路１１８之１５號","OBJECTID":579077},"geometry":{"x":179162.45000000019,"y":2578237.8900000043}},{"attributes":{"ID":579105,"DIS_CODE":0,"TOWNNAME":"新營區","LI":"民生里","LIN":"16鄰","STREET":"中華路","SECT":" ","MAREA":" ","LANE":" ","ALLEY":" ","HOUSE_NO":"１１８之３號","E_COORD97":179145.64999999999,"N_COORD97":2578195.8799999999,"ADDRESS":"中華路１１８之３號","OBJECTID":579078},"geometry":{"x":179145.6500000013,"y":2578195.8800000008}},{"attributes":{"ID":579106,"DIS_CODE":0,"TOWNNAME":"新營區","LI":"民生里","LIN":"16鄰","STREET":"中華路","SECT":" ","MAREA":" ","LANE":" ","ALLEY":" ","HOUSE_NO":"１１８之８號","E_COORD97":179151.85999999999,"N_COORD97":2578209.1499999999,"ADDRESS":"中華路１１８之８號","OBJECTID":579079},"geometry":{"x":179151.8599999994,"y":2578209.1500000022}},{"attributes":{"ID":579107,"DIS_CODE":0,"TOWNNAME":"新營區","LI":"三仙里","LIN":"16鄰","STREET":"武昌街","SECT":" ","MAREA":" ","LANE":" ","ALLEY":" ","HOUSE_NO":"９２號之１","E_COORD97":179534.23999999999,"N_COORD97":2578302.5499999998,"ADDRESS":"武昌街９２號之１","OBJECTID":579080},"geometry":{"x":179534.24000000115,"y":2578302.5500000026}},{"attributes":{"ID":579108,"DIS_CODE":0,"TOWNNAME":"新營區","LI":"三仙里","LIN":"16鄰","STREET":"武昌街","SECT":" ","MAREA":" ","LANE":" ","ALLEY":" ","HOUSE_NO":"９２號之２","E_COORD97":179530.26999999999,"N_COORD97":2578301.46,"ADDRESS":"武昌街９２號之２","OBJECTID":579081},"geometry":{"x":179530.27000000048,"y":2578301.4600000009}},{"attributes":{"ID":579109,"DIS_CODE":0,"TOWNNAME":"新營區","LI":"三仙里","LIN":"16鄰","STREET":"武昌街","SECT":" ","MAREA":" ","LANE":" ","ALLEY":" ","HOUSE_NO":"８２號之１","E_COORD97":179551.75,"N_COORD97":2578305.79,"ADDRESS":"武昌街８２號之１","OBJECTID":579082},"geometry":{"x":179551.75,"y":2578305.790000001}},{"attributes":{"ID":579110,"DIS_CODE":0,"TOWNNAME":"新營區","LI":"三仙里","LIN":"16鄰","STREET":"武昌街","SECT":" ","MAREA":" ","LANE":" ","ALLEY":" ","HOUSE_NO":"９４號之１","E_COORD97":179517.85999999999,"N_COORD97":2578299.2999999998,"ADDRESS":"武昌街９４號之１","OBJECTID":579083},"geometry":{"x":179517.86000000034,"y":2578299.3000000007}},{"attributes":{"ID":579111,"DIS_CODE":0,"TOWNNAME":"麻豆區","LI":"保安里","LIN":"1鄰","STREET":"中正路","SECT":" ","MAREA":" ","LANE":" ","ALLEY":" ","HOUSE_NO":"５號","E_COORD97":173061.10999999999,"N_COORD97":2564862.5699999998,"ADDRESS":"中正路５號","OBJECTID":579084},"geometry":{"x":173061.1100000022,"y":2564862.5700000022}},{"attributes":{"ID":579112,"DIS_CODE":0,"TOWNNAME":"新營區","LI":"三仙里","LIN":"16鄰","STREET":"武昌街","SECT":" ","MAREA":" ","LANE":" ","ALLEY":" ","HOUSE_NO":"９６號","E_COORD97":179502.41,"N_COORD97":2578297.1000000001,"ADDRESS":"武昌街９６號","OBJECTID":579085},"geometry":{"x":179502.41000000201,"y":2578297.1000000015}},{"attributes":{"ID":579113,"DIS_CODE":0,"TOWNNAME":"新營區","LI":"王公里","LIN":"16鄰","STREET":"大仁街","SECT":" ","MAREA":" ","LANE":" ","ALLEY":" ","HOUSE_NO":"２０號","E_COORD97":180223.04000000001,"N_COORD97":2579368.9300000002,"ADDRESS":"大仁街２０號","OBJECTID":579086},"geometry":{"x":180223.04000000004,"y":2579368.9299999978}},{"attributes":{"ID":579114,"DIS_CODE":0,"TOWNNAME":"新營區","LI":"大宏里","LIN":"16鄰","STREET":"民治東路","SECT":" ","MAREA":" ","LANE":" ","ALLEY":" ","HOUSE_NO":"３９號","E_COORD97":180815.60000000001,"N_COORD97":2578891.1499999999,"ADDRESS":"民治東路３９號","OBJECTID":579087},"geometry":{"x":180815.59999999963,"y":2578891.1500000022}},{"attributes":{"ID":579115,"DIS_CODE":0,"TOWNNAME":"新營區","LI":"新東里","LIN":"16鄰","STREET":"東泰七街","SECT":" ","MAREA":" ","LANE":" ","ALLEY":" ","HOUSE_NO":"５３號","E_COORD97":181004.60000000001,"N_COORD97":2579744.3799999999,"ADDRESS":"東泰七街５３號","OBJECTID":579088},"geometry":{"x":181004.60000000056,"y":2579744.379999999}},{"attributes":{"ID":579116,"DIS_CODE":0,"TOWNNAME":"新營區","LI":"新東里","LIN":"16鄰","STREET":"東泰七街","SECT":" ","MAREA":" ","LANE":" ","ALLEY":" ","HOUSE_NO":"５５號","E_COORD97":181000.57999999999,"N_COORD97":2579744.2200000002,"ADDRESS":"東泰七街５５號","OBJECTID":579089},"geometry":{"x":181000.58000000007,"y":2579744.2200000007}},{"attributes":{"ID":579117,"DIS_CODE":0,"TOWNNAME":"新營區","LI":"新東里","LIN":"16鄰","STREET":"東泰五街","SECT":" ","MAREA":" ","LANE":" ","ALLEY":" ","HOUSE_NO":"１２號","E_COORD97":181093.79999999999,"N_COORD97":2579661.3799999999,"ADDRESS":"東泰五街１２號","OBJECTID":579090},"geometry":{"x":181093.79999999981,"y":2579661.3800000008}},{"attributes":{"ID":579118,"DIS_CODE":0,"TOWNNAME":"新營區","LI":"新東里","LIN":"16鄰","STREET":"東泰五街","SECT":" ","MAREA":" ","LANE":" ","ALLEY":" ","HOUSE_NO":"１６號","E_COORD97":181086.37,"N_COORD97":2579661.1299999999,"ADDRESS":"東泰五街１６號","OBJECTID":579091},"geometry":{"x":181086.37000000104,"y":2579661.129999999}},{"attributes":{"ID":579119,"DIS_CODE":0,"TOWNNAME":"新營區","LI":"新東里","LIN":"16鄰","STREET":"東泰路","SECT":" ","MAREA":" ","LANE":" ","ALLEY":" ","HOUSE_NO":"３７號","E_COORD97":181114.84,"N_COORD97":2579669.5,"ADDRESS":"東泰路３７號","OBJECTID":579092},"geometry":{"x":181114.84000000078,"y":2579669.5}},{"attributes":{"ID":579120,"DIS_CODE":0,"TOWNNAME":"新營區","LI":"新東里","LIN":"16鄰","STREET":"東泰路","SECT":" ","MAREA":" ","LANE":" ","ALLEY":" ","HOUSE_NO":"３９號","E_COORD97":181114.84,"N_COORD97":2579674.6600000001,"ADDRESS":"東泰路３９號","OBJECTID":579093},"geometry":{"x":181114.84000000078,"y":2579674.660000002}},{"attributes":{"ID":579121,"DIS_CODE":0,"TOWNNAME":"新營區","LI":"新東里","LIN":"16鄰","STREET":"東智街","SECT":" ","MAREA":" ","LANE":" ","ALLEY":" ","HOUSE_NO":"７１號","E_COORD97":180975.56,"N_COORD97":2579791.2599999998,"ADDRESS":"東智街７１號","OBJECTID":579094},"geometry":{"x":180975.56000000145,"y":2579791.2600000016}},{"attributes":{"ID":579122,"DIS_CODE":0,"TOWNNAME":"新營區","LI":"新東里","LIN":"16鄰","STREET":"東智街","SECT":" ","MAREA":" ","LANE":" ","ALLEY":" ","HOUSE_NO":"７５號","E_COORD97":180963.64999999999,"N_COORD97":2579801.0499999998,"ADDRESS":"東智街７５號","OBJECTID":579095},"geometry":{"x":180963.65000000037,"y":2579801.0500000026}},{"attributes":{"ID":579123,"DIS_CODE":0,"TOWNNAME":"新營區","LI":"新東里","LIN":"16鄰","STREET":"東智街","SECT":" ","MAREA":" ","LANE":" ","ALLEY":" ","HOUSE_NO":"７７號","E_COORD97":180968.92000000001,"N_COORD97":2579801.3599999999,"ADDRESS":"東智街７７號","OBJECTID":579096},"geometry":{"x":180968.92000000086,"y":2579801.3600000013}},{"attributes":{"ID":579124,"DIS_CODE":0,"TOWNNAME":"新營區","LI":"新東里","LIN":"16鄰","STREET":"東智街","SECT":" ","MAREA":" ","LANE":" ","ALLEY":" ","HOUSE_NO":"７９號","E_COORD97":180974.06,"N_COORD97":2579801.3199999998,"ADDRESS":"東智街７９號","OBJECTID":579097},"geometry":{"x":180974.06000000052,"y":2579801.320000004}},{"attributes":{"ID":579125,"DIS_CODE":0,"TOWNNAME":"楠西區","LI":"東勢里","LIN":"16鄰","STREET":"茄拔路","SECT":" ","MAREA":" ","LANE":" ","ALLEY":" ","HOUSE_NO":"３１５號","E_COORD97":197948.44,"N_COORD97":2563707.2799999998,"ADDRESS":"茄拔路３１５號","OBJECTID":579098},"geometry":{"x":197948.44000000134,"y":2563707.2800000012}},{"attributes":{"ID":579126,"DIS_CODE":0,"TOWNNAME":"新營區","LI":"延平里","LIN":"16鄰","STREET":"長春街","SECT":" ","MAREA":" ","LANE":" ","ALLEY":" ","HOUSE_NO":"８８之１５號","E_COORD97":179643.75,"N_COORD97":2577877,"ADDRESS":"長春街８８之１５號","OBJECTID":579099},"geometry":{"x":179643.75,"y":2577876.9999999981}},{"attributes":{"ID":579127,"DIS_CODE":0,"TOWNNAME":"楠西區","LI":"東勢里","LIN":"16鄰","STREET":"茄拔路","SECT":" ","MAREA":" ","LANE":" ","ALLEY":" ","HOUSE_NO":"２０３號","E_COORD97":197510.72,"N_COORD97":2563762.2000000002,"ADDRESS":"茄拔路２０３號","OBJECTID":579100},"geometry":{"x":197510.71999999974,"y":2563762.2000000011}},{"attributes":{"ID":579128,"DIS_CODE":0,"TOWNNAME":"楠西區","LI":"楠西里","LIN":"16鄰","STREET":"中正路","SECT":" ","MAREA":" ","LANE":" ","ALLEY":" ","HOUSE_NO":"７９號","E_COORD97":197228.81,"N_COORD97":2564038.25,"ADDRESS":"中正路７９號","OBJECTID":579101},"geometry":{"x":197228.80999999959,"y":2564038.25}},{"attributes":{"ID":579129,"DIS_CODE":0,"TOWNNAME":"楠西區","LI":"楠西里","LIN":"16鄰","STREET":"中正路","SECT":" ","MAREA":" ","LANE":" ","ALLEY":" ","HOUSE_NO":"７７號","E_COORD97":197222.70999999999,"N_COORD97":2564023.25,"ADDRESS":"中正路７７號","OBJECTID":579102},"geometry":{"x":197222.70999999996,"y":2564023.2500000019}},{"attributes":{"ID":579130,"DIS_CODE":0,"TOWNNAME":"新化區","LI":"協興里","LIN":"16鄰","STREET":"中山路","SECT":" ","MAREA":" ","LANE":" ","ALLEY":" ","HOUSE_NO":"６７０號","E_COORD97":178095.41,"N_COORD97":2548534.25,"ADDRESS":"中山路６７０號","OBJECTID":579103},"geometry":{"x":178095.41000000201,"y":2548534.25}},{"attributes":{"ID":579131,"DIS_CODE":0,"TOWNNAME":"新化區","LI":"協興里","LIN":"16鄰","STREET":"中山路","SECT":" ","MAREA":" ","LANE":" ","ALLEY":" ","HOUSE_NO":"６８２號","E_COORD97":178061.70999999999,"N_COORD97":2548522.25,"ADDRESS":"中山路６８２號","OBJECTID":579104},"geometry":{"x":178061.71000000089,"y":2548522.2500000019}},{"attributes":{"ID":579132,"DIS_CODE":0,"TOWNNAME":"新化區","LI":"太平里","LIN":"16鄰","STREET":"忠孝路","SECT":" ","MAREA":" ","LANE":" ","ALLEY":" ","HOUSE_NO":"８４號","E_COORD97":178867.97,"N_COORD97":2548691.25,"ADDRESS":"忠孝路８４號","OBJECTID":579105},"geometry":{"x":178867.97000000067,"y":2548691.2500000037}},{"attributes":{"ID":579133,"DIS_CODE":0,"TOWNNAME":"新化區","LI":"太平里","LIN":"16鄰","STREET":"忠孝路","SECT":" ","MAREA":" ","LANE":" ","ALLEY":" ","HOUSE_NO":"６４號","E_COORD97":178924.07000000001,"N_COORD97":2548702.25,"ADDRESS":"忠孝路６４號","OBJECTID":579106},"geometry":{"x":178924.07000000123,"y":2548702.2500000019}},{"attributes":{"ID":579134,"DIS_CODE":0,"TOWNNAME":"新化區","LI":"太平里","LIN":"16鄰","STREET":"中正路","SECT":" ","MAREA":" ","LANE":" ","ALLEY":" ","HOUSE_NO":"５６９號","E_COORD97":178980.05186499999,"N_COORD97":2548728.7987000002,"ADDRESS":"中正路５６９號","OBJECTID":579107},"geometry":{"x":178980.05186500028,"y":2548728.7987020016}},{"attributes":{"ID":579135,"DIS_CODE":0,"TOWNNAME":"新化區","LI":"太平里","LIN":"16鄰","STREET":"忠孝路","SECT":" ","MAREA":" ","LANE":" ","ALLEY":" ","HOUSE_NO":"６２號","E_COORD97":178947.17000000001,"N_COORD97":2548707.25,"ADDRESS":"忠孝路６２號","OBJECTID":579108},"geometry":{"x":178947.16999999993,"y":2548707.25}},{"attributes":{"ID":579136,"DIS_CODE":0,"TOWNNAME":"新化區","LI":"太平里","LIN":"16鄰","STREET":"忠孝路","SECT":" ","MAREA":" ","LANE":" ","ALLEY":" ","HOUSE_NO":"８２號","E_COORD97":178871.87,"N_COORD97":2548692.25,"ADDRESS":"忠孝路８２號","OBJECTID":579109},"geometry":{"x":178871.86999999918,"y":2548692.2500000019}},{"attributes":{"ID":579137,"DIS_CODE":0,"TOWNNAME":"新化區","LI":"太平里","LIN":"16鄰","STREET":"忠孝路","SECT":" ","MAREA":" ","LANE":" ","ALLEY":" ","HOUSE_NO":"６０號之１","E_COORD97":178967.79999999999,"N_COORD97":2548711.2599999998,"ADDRESS":"忠孝路６０號之１","OBJECTID":579110},"geometry":{"x":178967.80000000075,"y":2548711.2600000035}},{"attributes":{"ID":579138,"DIS_CODE":0,"TOWNNAME":"新化區","LI":"協興里","LIN":"16鄰","STREET":"中山路","SECT":" ","MAREA":" ","LANE":" ","ALLEY":" ","HOUSE_NO":"７８０號之３","E_COORD97":177761.06,"N_COORD97":2548432.2599999998,"ADDRESS":"中山路７８０號之３","OBJECTID":579111},"geometry":{"x":177761.05999999959,"y":2548432.2599999998}},{"attributes":{"ID":579139,"DIS_CODE":0,"TOWNNAME":"新化區","LI":"協興里","LIN":"16鄰","STREET":"大新路","SECT":" ","MAREA":" ","LANE":" ","ALLEY":" ","HOUSE_NO":"１３號","E_COORD97":178218.07999999999,"N_COORD97":2548560.25,"ADDRESS":"大新路１３號","OBJECTID":579112},"geometry":{"x":178218.08000000101,"y":2548560.2500000019}},{"attributes":{"ID":579140,"DIS_CODE":0,"TOWNNAME":"新化區","LI":"協興里","LIN":"16鄰","STREET":"大新路","SECT":" ","MAREA":" ","LANE":" ","ALLEY":" ","HOUSE_NO":"２３號","E_COORD97":178198.38,"N_COORD97":2548581.25,"ADDRESS":"大新路２３號","OBJECTID":579113},"geometry":{"x":178198.37999999989,"y":2548581.25}},{"attributes":{"ID":579141,"DIS_CODE":0,"TOWNNAME":"新化區","LI":"太平里","LIN":"16鄰","STREET":"中正路","SECT":" ","MAREA":" ","LANE":" ","ALLEY":" ","HOUSE_NO":"５７１號","E_COORD97":178979.70999999999,"N_COORD97":2548732.25,"ADDRESS":"中正路５７１號","OBJECTID":579114},"geometry":{"x":178979.71000000183,"y":2548732.2500000019}},{"attributes":{"ID":579142,"DIS_CODE":0,"TOWNNAME":"新化區","LI":"太平里","LIN":"16鄰","STREET":"忠孝路","SECT":" ","MAREA":" ","LANE":" ","ALLEY":" ","HOUSE_NO":"６２號之５","E_COORD97":178935.73000000001,"N_COORD97":2548703.2599999998,"ADDRESS":"忠孝路６２號之５","OBJECTID":579115},"geometry":{"x":178935.73000000045,"y":2548703.2599999998}},{"attributes":{"ID":579143,"DIS_CODE":0,"TOWNNAME":"新化區","LI":"知義里","LIN":"16鄰","STREET":"中興路","SECT":" ","MAREA":" ","LANE":" ","ALLEY":" ","HOUSE_NO":"３２５號","E_COORD97":181058.81,"N_COORD97":2547285.25,"ADDRESS":"中興路３２５號","OBJECTID":579116},"geometry":{"x":181058.81000000052,"y":2547285.2500000019}},{"attributes":{"ID":579144,"DIS_CODE":0,"TOWNNAME":"新化區","LI":"協興里","LIN":"16鄰","STREET":"大新路","SECT":" ","MAREA":" ","LANE":" ","ALLEY":" ","HOUSE_NO":"５３號","E_COORD97":178140.95049700001,"N_COORD97":2548646.7249199999,"ADDRESS":"大新路５３號","OBJECTID":579117},"geometry":{"x":178140.95049700141,"y":2548646.7249210011}},{"attributes":{"ID":579145,"DIS_CODE":0,"TOWNNAME":"新化區","LI":"太平里","LIN":"16鄰","STREET":"中正路","SECT":" ","MAREA":" ","LANE":" ","ALLEY":" ","HOUSE_NO":"５７７號","E_COORD97":178978.81,"N_COORD97":2548744.25,"ADDRESS":"中正路５７７號","OBJECTID":579118},"geometry":{"x":178978.81000000052,"y":2548744.25}},{"attributes":{"ID":579146,"DIS_CODE":0,"TOWNNAME":"新化區","LI":"協興里","LIN":"16鄰","STREET":"中山路","SECT":" ","MAREA":" ","LANE":" ","ALLEY":" ","HOUSE_NO":"９００號","E_COORD97":177187.01000000001,"N_COORD97":2548358.25,"ADDRESS":"中山路９００號","OBJECTID":579119},"geometry":{"x":177187.00999999978,"y":2548358.25}},{"attributes":{"ID":579147,"DIS_CODE":0,"TOWNNAME":"新化區","LI":"協興里","LIN":"16鄰","STREET":"中山路","SECT":" ","MAREA":" ","LANE":" ","ALLEY":" ","HOUSE_NO":"８１２號","E_COORD97":177658.31,"N_COORD97":2548408.25,"ADDRESS":"中山路８１２號","OBJECTID":579120},"geometry":{"x":177658.31000000052,"y":2548408.25}},{"attributes":{"ID":579148,"DIS_CODE":0,"TOWNNAME":"新化區","LI":"協興里","LIN":"16鄰","STREET":"中山路","SECT":" ","MAREA":" ","LANE":" ","ALLEY":" ","HOUSE_NO":"６３２號","E_COORD97":178207.20999999999,"N_COORD97":2548522.25,"ADDRESS":"中山路６３２號","OBJECTID":579121},"geometry":{"x":178207.21000000089,"y":2548522.2500000019}},{"attributes":{"ID":579149,"DIS_CODE":0,"TOWNNAME":"新化區","LI":"協興里","LIN":"16鄰","STREET":"中山路","SECT":" ","MAREA":" ","LANE":" ","ALLEY":" ","HOUSE_NO":"６３６號","E_COORD97":178198.91,"N_COORD97":2548521.25,"ADDRESS":"中山路６３６號","OBJECTID":579122},"geometry":{"x":178198.91000000108,"y":2548521.25}},{"attributes":{"ID":579150,"DIS_CODE":0,"TOWNNAME":"新化區","LI":"協興里","LIN":"16鄰","STREET":"中山路","SECT":" ","MAREA":" ","LANE":" ","ALLEY":" ","HOUSE_NO":"７２８號之５","E_COORD97":177933.87,"N_COORD97":2548470.2599999998,"ADDRESS":"中山路７２８號之５","OBJECTID":579123},"geometry":{"x":177933.87000000011,"y":2548470.2599999979}},{"attributes":{"ID":579151,"DIS_CODE":0,"TOWNNAME":"新化區","LI":"協興里","LIN":"16鄰","STREET":"中山路","SECT":" ","MAREA":" ","LANE":" ","ALLEY":" ","HOUSE_NO":"８３２號之１","E_COORD97":177645.94,"N_COORD97":2548396.2599999998,"ADDRESS":"中山路８３２號之１","OBJECTID":579124},"geometry":{"x":177645.94000000041,"y":2548396.2600000016}},{"attributes":{"ID":579152,"DIS_CODE":0,"TOWNNAME":"新化區","LI":"協興里","LIN":"16鄰","STREET":"中山路","SECT":" ","MAREA":" ","LANE":" ","ALLEY":" ","HOUSE_NO":"６４２號","E_COORD97":178171.51000000001,"N_COORD97":2548528.25,"ADDRESS":"中山路６４２號","OBJECTID":579125},"geometry":{"x":178171.50999999978,"y":2548528.2500000037}},{"attributes":{"ID":579153,"DIS_CODE":0,"TOWNNAME":"新化區","LI":"協興里","LIN":"16鄰","STREET":"中山路","SECT":" ","MAREA":" ","LANE":" ","ALLEY":" ","HOUSE_NO":"７１４號","E_COORD97":177982.60999999999,"N_COORD97":2548484.25,"ADDRESS":"中山路７１４號","OBJECTID":579126},"geometry":{"x":177982.61000000127,"y":2548484.2500000037}},{"attributes":{"ID":579154,"DIS_CODE":0,"TOWNNAME":"新化區","LI":"協興里","LIN":"16鄰","STREET":"中山路","SECT":" ","MAREA":" ","LANE":" ","ALLEY":" ","HOUSE_NO":"６３８號","E_COORD97":178195.01000000001,"N_COORD97":2548521.25,"ADDRESS":"中山路６３８號","OBJECTID":579127},"geometry":{"x":178195.01000000071,"y":2548521.25}},{"attributes":{"ID":579155,"DIS_CODE":0,"TOWNNAME":"新化區","LI":"協興里","LIN":"16鄰","STREET":"中山路","SECT":" ","MAREA":" ","LANE":" ","ALLEY":" ","HOUSE_NO":"６５０號","E_COORD97":178161.81,"N_COORD97":2548550.25,"ADDRESS":"中山路６５０號","OBJECTID":579128},"geometry":{"x":178161.81000000052,"y":2548550.2500000019}},{"attributes":{"ID":579156,"DIS_CODE":0,"TOWNNAME":"新化區","LI":"協興里","LIN":"16鄰","STREET":"中山路","SECT":" ","MAREA":" ","LANE":" ","ALLEY":" ","HOUSE_NO":"６３０號","E_COORD97":178210.91,"N_COORD97":2548519.25,"ADDRESS":"中山路６３０號","OBJECTID":579129},"geometry":{"x":178210.91000000108,"y":2548519.2500000019}},{"attributes":{"ID":579157,"DIS_CODE":0,"TOWNNAME":"新化區","LI":"協興里","LIN":"16鄰","STREET":"中山路","SECT":" ","MAREA":" ","LANE":" ","ALLEY":" ","HOUSE_NO":"７１８號","E_COORD97":177976.541379,"N_COORD97":2548481.7308399999,"ADDRESS":"中山路７１８號","OBJECTID":579130},"geometry":{"x":177976.54137900006,"y":2548481.7308430001}},{"attributes":{"ID":579158,"DIS_CODE":0,"TOWNNAME":"新化區","LI":"協興里","LIN":"16鄰","STREET":"中山路","SECT":" ","MAREA":" ","LANE":" ","ALLEY":" ","HOUSE_NO":"８４２號","E_COORD97":177598.70999999999,"N_COORD97":2548395.25,"ADDRESS":"中山路８４２號","OBJECTID":579131},"geometry":{"x":177598.71000000089,"y":2548395.25}},{"attributes":{"ID":579159,"DIS_CODE":0,"TOWNNAME":"新化區","LI":"協興里","LIN":"16鄰","STREET":"中山路","SECT":" ","MAREA":" ","LANE":" ","ALLEY":" ","HOUSE_NO":"６３４號","E_COORD97":178202.20999999999,"N_COORD97":2548520.25,"ADDRESS":"中山路６３４號","OBJECTID":579132},"geometry":{"x":178202.21000000089,"y":2548520.25}},{"attributes":{"ID":579160,"DIS_CODE":0,"TOWNNAME":"新化區","LI":"協興里","LIN":"16鄰","STREET":"中山路","SECT":" ","MAREA":" ","LANE":" ","ALLEY":" ","HOUSE_NO":"６４０號","E_COORD97":178188.91,"N_COORD97":2548544.25,"ADDRESS":"中山路６４０號","OBJECTID":579133},"geometry":{"x":178188.91000000108,"y":2548544.25}},{"attributes":{"ID":579161,"DIS_CODE":0,"TOWNNAME":"新化區","LI":"協興里","LIN":"16鄰","STREET":"中山路","SECT":" ","MAREA":" ","LANE":" ","ALLEY":" ","HOUSE_NO":"７８０號","E_COORD97":177823.01000000001,"N_COORD97":2548471.25,"ADDRESS":"中山路７８０號","OBJECTID":579134},"geometry":{"x":177823.01000000164,"y":2548471.2500000019}},{"attributes":{"ID":579162,"DIS_CODE":0,"TOWNNAME":"新化區","LI":"太平里","LIN":"16鄰","STREET":"中正路","SECT":" ","MAREA":" ","LANE":" ","ALLEY":" ","HOUSE_NO":"５７９號","E_COORD97":178975.91,"N_COORD97":2548750.25,"ADDRESS":"中正路５７９號","OBJECTID":579135},"geometry":{"x":178975.91000000108,"y":2548750.2500000019}},{"attributes":{"ID":579163,"DIS_CODE":0,"TOWNNAME":"新化區","LI":"東榮里","LIN":"16鄰","STREET":"中興路","SECT":" ","MAREA":" ","LANE":" ","ALLEY":" ","HOUSE_NO":"７２２號","E_COORD97":179524.70999999999,"N_COORD97":2548150.25,"ADDRESS":"中興路７２２號","OBJECTID":579136},"geometry":{"x":179524.70999999996,"y":2548150.2500000019}},{"attributes":{"ID":579164,"DIS_CODE":0,"TOWNNAME":"新化區","LI":"協興里","LIN":"16鄰","STREET":"中山路","SECT":" ","MAREA":" ","LANE":" ","ALLEY":" ","HOUSE_NO":"７２６號","E_COORD97":177949.91,"N_COORD97":2548474.25,"ADDRESS":"中山路７２６號","OBJECTID":579137},"geometry":{"x":177949.91000000108,"y":2548474.2500000037}},{"attributes":{"ID":579165,"DIS_CODE":0,"TOWNNAME":"新化區","LI":"東榮里","LIN":"16鄰","STREET":"中興路","SECT":" ","MAREA":" ","LANE":" ","ALLEY":" ","HOUSE_NO":"６７６號","E_COORD97":179619.81,"N_COORD97":2548109.25,"ADDRESS":"中興路６７６號","OBJECTID":579138},"geometry":{"x":179619.81000000052,"y":2548109.2500000019}},{"attributes":{"ID":579166,"DIS_CODE":0,"TOWNNAME":"新化區","LI":"協興里","LIN":"16鄰","STREET":"中山路","SECT":" ","MAREA":" ","LANE":" ","ALLEY":" ","HOUSE_NO":"７０４號","E_COORD97":177999.10999999999,"N_COORD97":2548489.25,"ADDRESS":"中山路７０４號","OBJECTID":579139},"geometry":{"x":177999.1099999994,"y":2548489.2500000019}},{"attributes":{"ID":579167,"DIS_CODE":0,"TOWNNAME":"中西區","LI":"保安里","LIN":"3鄰","STREET":"保安路","SECT":" ","MAREA":" ","LANE":" ","ALLEY":" ","HOUSE_NO":"６號","E_COORD97":167709.56,"N_COORD97":2543433.0800000001,"ADDRESS":"保安路６號","OBJECTID":579140},"geometry":{"x":167709.56000000052,"y":2543433.0800000001}},{"attributes":{"ID":579168,"DIS_CODE":0,"TOWNNAME":"新化區","LI":"太平里","LIN":"16鄰","STREET":"中正路","SECT":" ","MAREA":" ","LANE":" ","ALLEY":" ","HOUSE_NO":"５７５號","E_COORD97":178979.51000000001,"N_COORD97":2548741.25,"ADDRESS":"中正路５７５號","OBJECTID":579141},"geometry":{"x":178979.51000000071,"y":2548741.25}},{"attributes":{"ID":579169,"DIS_CODE":0,"TOWNNAME":"新化區","LI":"協興里","LIN":"16鄰","STREET":"中山路","SECT":" ","MAREA":" ","LANE":" ","ALLEY":" ","HOUSE_NO":"６６８號","E_COORD97":178102.91,"N_COORD97":2548535.25,"ADDRESS":"中山路６６８號","OBJECTID":579142},"geometry":{"x":178102.91000000108,"y":2548535.2500000037}},{"attributes":{"ID":579170,"DIS_CODE":0,"TOWNNAME":"新化區","LI":"太平里","LIN":"16鄰","STREET":"忠孝路","SECT":" ","MAREA":" ","LANE":" ","ALLEY":" ","HOUSE_NO":"１０６號","E_COORD97":178831.42000000001,"N_COORD97":2548685.25,"ADDRESS":"忠孝路１０６號","OBJECTID":579143},"geometry":{"x":178831.42000000086,"y":2548685.2500000019}},{"attributes":{"ID":579171,"DIS_CODE":0,"TOWNNAME":"新化區","LI":"協興里","LIN":"16鄰","STREET":"中山路","SECT":" ","MAREA":" ","LANE":" ","ALLEY":" ","HOUSE_NO":"６７６號","E_COORD97":178085.01000000001,"N_COORD97":2548530.25,"ADDRESS":"中山路６７６號","OBJECTID":579144},"geometry":{"x":178085.00999999978,"y":2548530.25}},{"attributes":{"ID":579172,"DIS_CODE":0,"TOWNNAME":"新化區","LI":"協興里","LIN":"16鄰","STREET":"中山路","SECT":" ","MAREA":" ","LANE":" ","ALLEY":" ","HOUSE_NO":"９９０號之６","E_COORD97":177167.45999999999,"N_COORD97":2548397.2599999998,"ADDRESS":"中山路９９０號之６","OBJECTID":579145},"geometry":{"x":177167.46000000183,"y":2548397.2600000016}},{"attributes":{"ID":579173,"DIS_CODE":0,"TOWNNAME":"新化區","LI":"協興里","LIN":"16鄰","STREET":"中山路","SECT":" ","MAREA":" ","LANE":" ","ALLEY":" ","HOUSE_NO":"７２４號","E_COORD97":177958.10999999999,"N_COORD97":2548476.25,"ADDRESS":"中山路７２４號","OBJECTID":579146},"geometry":{"x":177958.11000000034,"y":2548476.25}},{"attributes":{"ID":579174,"DIS_CODE":0,"TOWNNAME":"新化區","LI":"東榮里","LIN":"16鄰","STREET":"中興路","SECT":" ","MAREA":" ","LANE":" ","ALLEY":" ","HOUSE_NO":"６８４號","E_COORD97":179602.70999999999,"N_COORD97":2548115.25,"ADDRESS":"中興路６８４號","OBJECTID":579147},"geometry":{"x":179602.70999999996,"y":2548115.2500000019}},{"attributes":{"ID":579175,"DIS_CODE":0,"TOWNNAME":"新化區","LI":"協興里","LIN":"16鄰","STREET":"中山路","SECT":" ","MAREA":" ","LANE":" ","ALLEY":" ","HOUSE_NO":"６９８號","E_COORD97":178024.01000000001,"N_COORD97":2548496.25,"ADDRESS":"中山路６９８號","OBJECTID":579148},"geometry":{"x":178024.00999999978,"y":2548496.25}},{"attributes":{"ID":579176,"DIS_CODE":0,"TOWNNAME":"新化區","LI":"東榮里","LIN":"16鄰","STREET":"中興路","SECT":" ","MAREA":" ","LANE":" ","ALLEY":" ","HOUSE_NO":"６８６號","E_COORD97":179598.51000000001,"N_COORD97":2548116.25,"ADDRESS":"中興路６８６號","OBJECTID":579149},"geometry":{"x":179598.51000000071,"y":2548116.2500000019}},{"attributes":{"ID":579177,"DIS_CODE":0,"TOWNNAME":"新化區","LI":"東榮里","LIN":"16鄰","STREET":"中興路","SECT":" ","MAREA":" ","LANE":" ","ALLEY":" ","HOUSE_NO":"６５８號","E_COORD97":179663.10999999999,"N_COORD97":2548080.25,"ADDRESS":"中興路６５８號","OBJECTID":579150},"geometry":{"x":179663.11000000034,"y":2548080.25}},{"attributes":{"ID":579178,"DIS_CODE":0,"TOWNNAME":"新化區","LI":"東榮里","LIN":"16鄰","STREET":"中興路","SECT":" ","MAREA":" ","LANE":" ","ALLEY":" ","HOUSE_NO":"６５６號","E_COORD97":179670.31,"N_COORD97":2548080.25,"ADDRESS":"中興路６５６號","OBJECTID":579151},"geometry":{"x":179670.31000000145,"y":2548080.25}},{"attributes":{"ID":579179,"DIS_CODE":0,"TOWNNAME":"新化區","LI":"協興里","LIN":"16鄰","STREET":"大新路","SECT":" ","MAREA":" ","LANE":" ","ALLEY":" ","HOUSE_NO":"５號","E_COORD97":178223.03,"N_COORD97":2548555.25,"ADDRESS":"大新路５號","OBJECTID":579152},"geometry":{"x":178223.03000000026,"y":2548555.2499999981}},{"attributes":{"ID":579180,"DIS_CODE":0,"TOWNNAME":"新化區","LI":"太平里","LIN":"16鄰","STREET":"忠孝路","SECT":" ","MAREA":" ","LANE":" ","ALLEY":" ","HOUSE_NO":"６８號","E_COORD97":178908.97,"N_COORD97":2548698.25,"ADDRESS":"忠孝路６８號","OBJECTID":579153},"geometry":{"x":178908.97000000067,"y":2548698.2500000019}},{"attributes":{"ID":579181,"DIS_CODE":0,"TOWNNAME":"新化區","LI":"協興里","LIN":"16鄰","STREET":"中山路","SECT":" ","MAREA":" ","LANE":" ","ALLEY":" ","HOUSE_NO":"６７２號","E_COORD97":178090.20999999999,"N_COORD97":2548531.25,"ADDRESS":"中山路６７２號","OBJECTID":579154},"geometry":{"x":178090.21000000089,"y":2548531.25}},{"attributes":{"ID":579182,"DIS_CODE":0,"TOWNNAME":"新化區","LI":"協興里","LIN":"16鄰","STREET":"中山路","SECT":" ","MAREA":" ","LANE":" ","ALLEY":" ","HOUSE_NO":"９９２號之２６","E_COORD97":177018.56,"N_COORD97":2548734.1600000001,"ADDRESS":"中山路９９２號之２６","OBJECTID":579155},"geometry":{"x":177018.55999999959,"y":2548734.160000002}},{"attributes":{"ID":579183,"DIS_CODE":0,"TOWNNAME":"新化區","LI":"協興里","LIN":"16鄰","STREET":"中山路","SECT":" ","MAREA":" ","LANE":" ","ALLEY":" ","HOUSE_NO":"７２８號","E_COORD97":177939.44,"N_COORD97":2548487.1299999999,"ADDRESS":"中山路７２８號","OBJECTID":579156},"geometry":{"x":177939.44000000227,"y":2548487.1299999971}},{"attributes":{"ID":579184,"DIS_CODE":0,"TOWNNAME":"安平區","LI":"億載里","LIN":"16鄰","STREET":"光州二街","SECT":" ","MAREA":" ","LANE":" ","ALLEY":" ","HOUSE_NO":"２７號","E_COORD97":164050.97,"N_COORD97":2543035.3300000001,"ADDRESS":"光州二街２７號","OBJECTID":579157},"geometry":{"x":164050.96999999974,"y":2543035.3299999982}},{"attributes":{"ID":579185,"DIS_CODE":0,"TOWNNAME":"安平區","LI":"文平里","LIN":"16鄰","STREET":"建平五街","SECT":" ","MAREA":" ","LANE":" ","ALLEY":" ","HOUSE_NO":"１２０之１號","E_COORD97":165815.78,"N_COORD97":2543172.7400000002,"ADDRESS":"建平五街１２０之１號","OBJECTID":579158},"geometry":{"x":165815.78000000026,"y":2543172.7400000021}},{"attributes":{"ID":579186,"DIS_CODE":0,"TOWNNAME":"安平區","LI":"文平里","LIN":"16鄰","STREET":"建平五街","SECT":" ","MAREA":" ","LANE":" ","ALLEY":" ","HOUSE_NO":"１２０之２號","E_COORD97":165807.95999999999,"N_COORD97":2543172.0099999998,"ADDRESS":"建平五街１２０之２號","OBJECTID":579159},"geometry":{"x":165807.95999999903,"y":2543172.0099999998}},{"attributes":{"ID":579187,"DIS_CODE":0,"TOWNNAME":"安平區","LI":"文平里","LIN":"16鄰","STREET":"建平五街","SECT":" ","MAREA":" ","LANE":" ","ALLEY":" ","HOUSE_NO":"１２０之３號","E_COORD97":165802,"N_COORD97":2543172.7599999998,"ADDRESS":"建平五街１２０之３號","OBJECTID":579160},"geometry":{"x":165802,"y":2543172.7600000016}},{"attributes":{"ID":579188,"DIS_CODE":0,"TOWNNAME":"安平區","LI":"文平里","LIN":"16鄰","STREET":"建平五街","SECT":" ","MAREA":" ","LANE":" ","ALLEY":" ","HOUSE_NO":"１２０之５號","E_COORD97":165796.53,"N_COORD97":2543176.3399999999,"ADDRESS":"建平五街１２０之５號","OBJECTID":579161},"geometry":{"x":165796.53000000119,"y":2543176.3399999999}},{"attributes":{"ID":579189,"DIS_CODE":0,"TOWNNAME":"安平區","LI":"文平里","LIN":"16鄰","STREET":"建平五街","SECT":" ","MAREA":" ","LANE":" ","ALLEY":" ","HOUSE_NO":"１２０之６號","E_COORD97":165791.5,"N_COORD97":2543179.2799999998,"ADDRESS":"建平五街１２０之６號","OBJECTID":579162},"geometry":{"x":165791.50000000093,"y":2543179.2799999993}},{"attributes":{"ID":579190,"DIS_CODE":0,"TOWNNAME":"安平區","LI":"文平里","LIN":"16鄰","STREET":"建平五街","SECT":" ","MAREA":" ","LANE":" ","ALLEY":" ","HOUSE_NO":"１２０之７號","E_COORD97":165784.17000000001,"N_COORD97":2543175.23,"ADDRESS":"建平五街１２０之７號","OBJECTID":579163},"geometry":{"x":165784.16999999993,"y":2543175.2300000004}},{"attributes":{"ID":579191,"DIS_CODE":0,"TOWNNAME":"安平區","LI":"文平里","LIN":"16鄰","STREET":"建平五街","SECT":" ","MAREA":" ","LANE":" ","ALLEY":" ","HOUSE_NO":"１２０之８號","E_COORD97":165778.22,"N_COORD97":2543175.98,"ADDRESS":"建平五街１２０之８號","OBJECTID":579164},"geometry":{"x":165778.21999999974,"y":2543175.9800000004}},{"attributes":{"ID":579192,"DIS_CODE":0,"TOWNNAME":"安平區","LI":"文平里","LIN":"16鄰","STREET":"建平五街","SECT":" ","MAREA":" ","LANE":" ","ALLEY":" ","HOUSE_NO":"１２０之９號","E_COORD97":165771.88,"N_COORD97":2543179.7000000002,"ADDRESS":"建平五街１２０之９號","OBJECTID":579165},"geometry":{"x":165771.88000000082,"y":2543179.6999999993}},{"attributes":{"ID":579193,"DIS_CODE":0,"TOWNNAME":"安平區","LI":"建平里","LIN":"16鄰","STREET":"建平十二街","SECT":" ","MAREA":" ","LANE":" ","ALLEY":" ","HOUSE_NO":"５９之１８號","E_COORD97":166193.45999999999,"N_COORD97":2543954.48,"ADDRESS":"建平十二街５９之１８號","OBJECTID":579166},"geometry":{"x":166193.46000000089,"y":2543954.4800000023}},{"attributes":{"ID":579194,"DIS_CODE":0,"TOWNNAME":"安平區","LI":"建平里","LIN":"16鄰","STREET":"建平十二街","SECT":" ","MAREA":" ","LANE":" ","ALLEY":" ","HOUSE_NO":"５９之１９號","E_COORD97":166183.04000000001,"N_COORD97":2543955.8599999999,"ADDRESS":"建平十二街５９之１９號","OBJECTID":579167},"geometry":{"x":166183.04000000097,"y":2543955.8599999994}},{"attributes":{"ID":579195,"DIS_CODE":0,"TOWNNAME":"安平區","LI":"億載里","LIN":"16鄰","STREET":"府平路","SECT":" ","MAREA":" ","LANE":" ","ALLEY":" ","HOUSE_NO":"５５９號","E_COORD97":164091.141515,"N_COORD97":2543077.0595399998,"ADDRESS":"府平路５５９號","OBJECTID":579168},"geometry":{"x":164091.14151500072,"y":2543077.0595389996}},{"attributes":{"ID":579196,"DIS_CODE":0,"TOWNNAME":"楠西區","LI":"楠西里","LIN":"16鄰","STREET":"中正路","SECT":" ","MAREA":" ","LANE":" ","ALLEY":" ","HOUSE_NO":"６１號","E_COORD97":197222.09,"N_COORD97":2564079.1800000002,"ADDRESS":"中正路６１號","OBJECTID":579169},"geometry":{"x":197222.08999999985,"y":2564079.1799999997}},{"attributes":{"ID":579197,"DIS_CODE":0,"TOWNNAME":"永康區","LI":"東橋里","LIN":"16鄰","STREET":"東橋二街","SECT":" ","MAREA":" ","LANE":" ","ALLEY":" ","HOUSE_NO":"１０３號","E_COORD97":171789.85000000001,"N_COORD97":2546544.1200000001,"ADDRESS":"東橋二街１０３號","OBJECTID":579170},"geometry":{"x":171789.85000000056,"y":2546544.1200000029}},{"attributes":{"ID":579198,"DIS_CODE":0,"TOWNNAME":"永康區","LI":"東橋里","LIN":"16鄰","STREET":"東橋二街","SECT":" ","MAREA":" ","LANE":" ","ALLEY":" ","HOUSE_NO":"１０９號","E_COORD97":171804.57000000001,"N_COORD97":2546551.0499999998,"ADDRESS":"東橋二街１０９號","OBJECTID":579171},"geometry":{"x":171804.5700000003,"y":2546551.0500000026}},{"attributes":{"ID":579199,"DIS_CODE":0,"TOWNNAME":"永康區","LI":"埔園里","LIN":"16鄰","STREET":"八德街","SECT":" ","MAREA":" ","LANE":" ","ALLEY":" ","HOUSE_NO":"２９１號","E_COORD97":173351.23000000001,"N_COORD97":2548516.3100000001,"ADDRESS":"八德街２９１號","OBJECTID":579172},"geometry":{"x":173351.23000000045,"y":2548516.3100000024}},{"attributes":{"ID":579200,"DIS_CODE":0,"TOWNNAME":"永康區","LI":"埔園里","LIN":"16鄰","STREET":"八德街","SECT":" ","MAREA":" ","LANE":" ","ALLEY":" ","HOUSE_NO":"２８１號","E_COORD97":173377.95999999999,"N_COORD97":2548518.2999999998,"ADDRESS":"八德街２８１號","OBJECTID":579173},"geometry":{"x":173377.95999999996,"y":2548518.3000000007}},{"attributes":{"ID":579201,"DIS_CODE":0,"TOWNNAME":"永康區","LI":"王行里","LIN":"16鄰","STREET":"永科環路","SECT":" ","MAREA":" ","LANE":" ","ALLEY":" ","HOUSE_NO":"３０１號","E_COORD97":175657.70000000001,"N_COORD97":2548800.6299999999,"ADDRESS":"永科環路３０１號","OBJECTID":579174},"geometry":{"x":175657.70000000112,"y":2548800.6300000008}},{"attributes":{"ID":579202,"DIS_CODE":0,"TOWNNAME":"永康區","LI":"王行里","LIN":"16鄰","STREET":"永科環路","SECT":" ","MAREA":" ","LANE":" ","ALLEY":" ","HOUSE_NO":"１０８號","E_COORD97":176221.98000000001,"N_COORD97":2548496.75,"ADDRESS":"永科環路１０８號","OBJECTID":579175},"geometry":{"x":176221.98000000231,"y":2548496.75}},{"attributes":{"ID":579203,"DIS_CODE":0,"TOWNNAME":"永康區","LI":"埔園里","LIN":"16鄰","STREET":"八德街","SECT":" ","MAREA":" ","LANE":" ","ALLEY":" ","HOUSE_NO":"２６９號","E_COORD97":173416.67000000001,"N_COORD97":2548534.4700000002,"ADDRESS":"八德街２６９號","OBJECTID":579176},"geometry":{"x":173416.67000000086,"y":2548534.4700000044}},{"attributes":{"ID":579204,"DIS_CODE":0,"TOWNNAME":"永康區","LI":"東橋里","LIN":"16鄰","STREET":"東橋二街","SECT":" ","MAREA":" ","LANE":" ","ALLEY":" ","HOUSE_NO":"１０７號","E_COORD97":171798.95000000001,"N_COORD97":2546548.6800000002,"ADDRESS":"東橋二街１０７號","OBJECTID":579177},"geometry":{"x":171798.95000000019,"y":2546548.6800000034}},{"attributes":{"ID":579205,"DIS_CODE":0,"TOWNNAME":"永康區","LI":"埔園里","LIN":"16鄰","STREET":"八德街","SECT":" ","MAREA":" ","LANE":" ","ALLEY":" ","HOUSE_NO":"２７５號","E_COORD97":173391.5,"N_COORD97":2548521.3100000001,"ADDRESS":"八德街２７５號","OBJECTID":579178},"geometry":{"x":173391.5,"y":2548521.3100000005}},{"attributes":{"ID":579206,"DIS_CODE":0,"TOWNNAME":"永康區","LI":"王行里","LIN":"16鄰","STREET":"永科環路","SECT":" ","MAREA":" ","LANE":" ","ALLEY":" ","HOUSE_NO":"３８５號","E_COORD97":175627.07999999999,"N_COORD97":2549264.6000000001,"ADDRESS":"永科環路３８５號","OBJECTID":579179},"geometry":{"x":175627.08000000007,"y":2549264.6000000034}},{"attributes":{"ID":579207,"DIS_CODE":0,"TOWNNAME":"永康區","LI":"東橋里","LIN":"16鄰","STREET":"東橋二街","SECT":" ","MAREA":" ","LANE":" ","ALLEY":" ","HOUSE_NO":"１０５號","E_COORD97":171791.82000000001,"N_COORD97":2546549.9199999999,"ADDRESS":"東橋二街１０５號","OBJECTID":579180},"geometry":{"x":171791.82000000216,"y":2546549.9199999999}},{"attributes":{"ID":579208,"DIS_CODE":0,"TOWNNAME":"永康區","LI":"埔園里","LIN":"16鄰","STREET":"八德街","SECT":" ","MAREA":" ","LANE":" ","ALLEY":" ","HOUSE_NO":"２７３號","E_COORD97":173395.94,"N_COORD97":2548522.2999999998,"ADDRESS":"八德街２７３號","OBJECTID":579181},"geometry":{"x":173395.94000000041,"y":2548522.3000000045}},{"attributes":{"ID":579209,"DIS_CODE":0,"TOWNNAME":"永康區","LI":"埔園里","LIN":"16鄰","STREET":"八德街","SECT":" ","MAREA":" ","LANE":" ","ALLEY":" ","HOUSE_NO":"２８５號","E_COORD97":173367.89999999999,"N_COORD97":2548516.0699999998,"ADDRESS":"八德街２８５號","OBJECTID":579182},"geometry":{"x":173367.9000000013,"y":2548516.0699999984}},{"attributes":{"ID":579210,"DIS_CODE":0,"TOWNNAME":"永康區","LI":"王行里","LIN":"16鄰","STREET":"永科環路","SECT":" ","MAREA":" ","LANE":" ","ALLEY":" ","HOUSE_NO":"５０號","E_COORD97":176439.97,"N_COORD97":2548559.1899999999,"ADDRESS":"永科環路５０號","OBJECTID":579183},"geometry":{"x":176439.9700000016,"y":2548559.1900000013}},{"attributes":{"ID":579211,"DIS_CODE":0,"TOWNNAME":"永康區","LI":"埔園里","LIN":"16鄰","STREET":"八德街","SECT":" ","MAREA":" ","LANE":" ","ALLEY":" ","HOUSE_NO":"２８７號","E_COORD97":173362.75,"N_COORD97":2548514.9300000002,"ADDRESS":"八德街２８７號","OBJECTID":579184},"geometry":{"x":173362.75,"y":2548514.9300000016}},{"attributes":{"ID":579212,"DIS_CODE":0,"TOWNNAME":"永康區","LI":"王行里","LIN":"16鄰","STREET":"永科一路","SECT":" ","MAREA":" ","LANE":" ","ALLEY":" ","HOUSE_NO":"９２號","E_COORD97":176033.41,"N_COORD97":2549329.5699999998,"ADDRESS":"永科一路９２號","OBJECTID":579185},"geometry":{"x":176033.41000000015,"y":2549329.5700000003}},{"attributes":{"ID":579213,"DIS_CODE":0,"TOWNNAME":"永康區","LI":"東橋里","LIN":"16鄰","STREET":"東橋二街","SECT":" ","MAREA":" ","LANE":" ","ALLEY":" ","HOUSE_NO":"９９號","E_COORD97":171782.17999999999,"N_COORD97":2546539.0600000001,"ADDRESS":"東橋二街９９號","OBJECTID":579186},"geometry":{"x":171782.18000000063,"y":2546539.0600000005}},{"attributes":{"ID":579214,"DIS_CODE":0,"TOWNNAME":"永康區","LI":"埔園里","LIN":"16鄰","STREET":"八德街","SECT":" ","MAREA":" ","LANE":" ","ALLEY":" ","HOUSE_NO":"２９３號","E_COORD97":173346.29999999999,"N_COORD97":2548514.7200000002,"ADDRESS":"八德街２９３號","OBJECTID":579187},"geometry":{"x":173346.30000000075,"y":2548514.7200000007}},{"attributes":{"ID":579215,"DIS_CODE":0,"TOWNNAME":"永康區","LI":"埔園里","LIN":"16鄰","STREET":"八德街","SECT":" ","MAREA":" ","LANE":" ","ALLEY":" ","HOUSE_NO":"２８３號","E_COORD97":173373.04000000001,"N_COORD97":2548517.21,"ADDRESS":"八德街２８３號","OBJECTID":579188},"geometry":{"x":173373.04000000004,"y":2548517.2100000028}},{"attributes":{"ID":579216,"DIS_CODE":0,"TOWNNAME":"永康區","LI":"埔園里","LIN":"16鄰","STREET":"八德街","SECT":" ","MAREA":" ","LANE":" ","ALLEY":" ","HOUSE_NO":"２７７號","E_COORD97":173387.04000000001,"N_COORD97":2548520.3199999998,"ADDRESS":"八德街２７７號","OBJECTID":579189},"geometry":{"x":173387.04000000097,"y":2548520.3200000003}},{"attributes":{"ID":579217,"DIS_CODE":0,"TOWNNAME":"永康區","LI":"埔園里","LIN":"16鄰","STREET":"八德街","SECT":" ","MAREA":" ","LANE":" ","ALLEY":" ","HOUSE_NO":"２７９號","E_COORD97":173382.51999999999,"N_COORD97":2548519.3199999998,"ADDRESS":"八德街２７９號","OBJECTID":579190},"geometry":{"x":173382.51999999955,"y":2548519.3200000022}},{"attributes":{"ID":579218,"DIS_CODE":0,"TOWNNAME":"永康區","LI":"王行里","LIN":"16鄰","STREET":"永科環路","SECT":" ","MAREA":" ","LANE":" ","ALLEY":" ","HOUSE_NO":"１１５號","E_COORD97":176072.39000000001,"N_COORD97":2548330.8399999999,"ADDRESS":"永科環路１１５號","OBJECTID":579191},"geometry":{"x":176072.38999999966,"y":2548330.8400000036}},{"attributes":{"ID":579219,"DIS_CODE":0,"TOWNNAME":"歸仁區","LI":"歸仁里","LIN":"16鄰","STREET":"信義北路","SECT":" ","MAREA":" ","LANE":" ","ALLEY":" ","HOUSE_NO":"７８號","E_COORD97":177998.78,"N_COORD97":2540961,"ADDRESS":"信義北路７８號","OBJECTID":579192},"geometry":{"x":177998.78000000119,"y":2540961.0000000019}},{"attributes":{"ID":579220,"DIS_CODE":0,"TOWNNAME":"永康區","LI":"東橋里","LIN":"16鄰","STREET":"東橋二街","SECT":" ","MAREA":" ","LANE":" ","ALLEY":" ","HOUSE_NO":"１０１號","E_COORD97":171786.09,"N_COORD97":2546541.6400000001,"ADDRESS":"東橋二街１０１號","OBJECTID":579193},"geometry":{"x":171786.09000000171,"y":2546541.6400000006}},{"attributes":{"ID":579221,"DIS_CODE":0,"TOWNNAME":"永康區","LI":"埔園里","LIN":"16鄰","STREET":"八德街","SECT":" ","MAREA":" ","LANE":" ","ALLEY":" ","HOUSE_NO":"２６３號","E_COORD97":173435.64000000001,"N_COORD97":2548538.3900000001,"ADDRESS":"八德街２６３號","OBJECTID":579194},"geometry":{"x":173435.6400000006,"y":2548538.3900000043}},{"attributes":{"ID":579222,"DIS_CODE":0,"TOWNNAME":"永康區","LI":"王行里","LIN":"16鄰","STREET":"永科環路","SECT":" ","MAREA":" ","LANE":" ","ALLEY":" ","HOUSE_NO":"２６１號","E_COORD97":175727.70000000001,"N_COORD97":2548616.4900000002,"ADDRESS":"永科環路２６１號","OBJECTID":579195},"geometry":{"x":175727.70000000112,"y":2548616.4900000021}},{"attributes":{"ID":579223,"DIS_CODE":0,"TOWNNAME":"永康區","LI":"王行里","LIN":"16鄰","STREET":"永科一路","SECT":" ","MAREA":" ","LANE":" ","ALLEY":" ","HOUSE_NO":"９８號","E_COORD97":175969.22,"N_COORD97":2549311.5699999998,"ADDRESS":"永科一路９８號","OBJECTID":579196},"geometry":{"x":175969.22000000067,"y":2549311.5700000003}},{"attributes":{"ID":579224,"DIS_CODE":0,"TOWNNAME":"永康區","LI":"埔園里","LIN":"16鄰","STREET":"八德街","SECT":" ","MAREA":" ","LANE":" ","ALLEY":" ","HOUSE_NO":"２８９號","E_COORD97":173357.60999999999,"N_COORD97":2548513.7799999998,"ADDRESS":"八德街２８９號","OBJECTID":579197},"geometry":{"x":173357.61000000034,"y":2548513.7800000031}},{"attributes":{"ID":579225,"DIS_CODE":0,"TOWNNAME":"永康區","LI":"王行里","LIN":"16鄰","STREET":"永科環路","SECT":" ","MAREA":" ","LANE":" ","ALLEY":" ","HOUSE_NO":"３６號","E_COORD97":176476.59,"N_COORD97":2548569.6800000002,"ADDRESS":"永科環路３６號","OBJECTID":579198},"geometry":{"x":176476.59000000171,"y":2548569.6800000016}},{"attributes":{"ID":579226,"DIS_CODE":0,"TOWNNAME":"永康區","LI":"埔園里","LIN":"16鄰","STREET":"八德街","SECT":" ","MAREA":" ","LANE":" ","ALLEY":" ","HOUSE_NO":"２７１號","E_COORD97":173401.95000000001,"N_COORD97":2548523.3999999999,"ADDRESS":"八德街２７１號","OBJECTID":579199},"geometry":{"x":173401.95000000112,"y":2548523.4000000004}},{"attributes":{"ID":579227,"DIS_CODE":0,"TOWNNAME":"永康區","LI":"王行里","LIN":"16鄰","STREET":"永科環路","SECT":" ","MAREA":" ","LANE":" ","ALLEY":" ","HOUSE_NO":"１０７號","E_COORD97":176166.26999999999,"N_COORD97":2548347.8300000001,"ADDRESS":"永科環路１０７號","OBJECTID":579200},"geometry":{"x":176166.26999999955,"y":2548347.8300000001}}]}