{"displayFieldName":"TOWNNAME","fieldAliases":{"ID":"ID","DIS_CODE":"DIS_CODE","TOWNNAME":"TOWNNAME","LI":"LI","LIN":"LIN","STREET":"STREET","SECT":"SECT","MAREA":"MAREA","LANE":"LANE","ALLEY":"ALLEY","HOUSE_NO":"HOUSE_NO","E_COORD97":"E_COORD97","N_COORD97":"N_COORD97","ADDRESS":"ADDRESS","OBJECTID":"OBJECTID"},"geometryType":"esriGeometryPoint","spatialReference":{"wkid":102443,"latestWkid":3826},"fields":[{"name":"ID","type":"esriFieldTypeDouble","alias":"ID"},{"name":"DIS_CODE","type":"esriFieldTypeInteger","alias":"DIS_CODE"},{"name":"TOWNNAME","type":"esriFieldTypeString","alias":"TOWNNAME","length":8},{"name":"LI","type":"esriFieldTypeString","alias":"LI","length":8},{"name":"LIN","type":"esriFieldTypeString","alias":"LIN","length":12},{"name":"STREET","type":"esriFieldTypeString","alias":"STREET","length":20},{"name":"SECT","type":"esriFieldTypeString","alias":"SECT","length":8},{"name":"MAREA","type":"esriFieldTypeString","alias":"MAREA","length":12},{"name":"LANE","type":"esriFieldTypeString","alias":"LANE","length":10},{"name":"ALLEY","type":"esriFieldTypeString","alias":"ALLEY","length":10},{"name":"HOUSE_NO","type":"esriFieldTypeString","alias":"HOUSE_NO","length":20},{"name":"E_COORD97","type":"esriFieldTypeDouble","alias":"E_COORD97"},{"name":"N_COORD97","type":"esriFieldTypeDouble","alias":"N_COORD97"},{"name":"ADDRESS","type":"esriFieldTypeString","alias":"ADDRESS","length":50},{"name":"OBJECTID","type":"esriFieldTypeOID","alias":"OBJECTID"}],"features":[{"attributes":{"ID":638828,"DIS_CODE":0,"TOWNNAME":"新營區","LI":"新南里","LIN":"13鄰","STREET":"長榮路","SECT":"二段","MAREA":" ","LANE":" ","ALLEY":" ","HOUSE_NO":"７８９號","E_COORD97":178456.51000000001,"N_COORD97":2579188.0899999999,"ADDRESS":"長榮路二段７８９號","OBJECTID":638801},"geometry":{"x":178456.50999999978,"y":2579188.0899999999}},{"attributes":{"ID":638829,"DIS_CODE":0,"TOWNNAME":"六甲區","LI":"二甲里","LIN":"24鄰","STREET":"中山路","SECT":" ","MAREA":" ","LANE":" ","ALLEY":" ","HOUSE_NO":"７７號","E_COORD97":183457.76000000001,"N_COORD97":2570008.8799999999,"ADDRESS":"中山路７７號","OBJECTID":638802},"geometry":{"x":183457.75999999885,"y":2570008.8800000008}},{"attributes":{"ID":638830,"DIS_CODE":0,"TOWNNAME":"新營區","LI":"延平里","LIN":"4鄰","STREET":"成功街","SECT":" ","MAREA":" ","LANE":" ","ALLEY":" ","HOUSE_NO":"１５號","E_COORD97":179689.45931000001,"N_COORD97":2577832.8686199998,"ADDRESS":"成功街１５號","OBJECTID":638803},"geometry":{"x":179689.45931000076,"y":2577832.8686220013}},{"attributes":{"ID":638831,"DIS_CODE":0,"TOWNNAME":"新營區","LI":"中營里","LIN":"4鄰","STREET":"中山路","SECT":" ","MAREA":" ","LANE":" ","ALLEY":" ","HOUSE_NO":"７１號","E_COORD97":180564.48000000001,"N_COORD97":2578354.1099999999,"ADDRESS":"中山路７１號","OBJECTID":638804},"geometry":{"x":180564.48000000045,"y":2578354.1100000031}},{"attributes":{"ID":638832,"DIS_CODE":0,"TOWNNAME":"新營區","LI":"三仙里","LIN":"4鄰","STREET":"正義街","SECT":" ","MAREA":" ","LANE":" ","ALLEY":" ","HOUSE_NO":"１５號","E_COORD97":179656.82999999999,"N_COORD97":2578068.23,"ADDRESS":"正義街１５號","OBJECTID":638805},"geometry":{"x":179656.83000000007,"y":2578068.2300000004}},{"attributes":{"ID":638833,"DIS_CODE":0,"TOWNNAME":"新營區","LI":"延平里","LIN":" ","STREET":"復興路","SECT":" ","MAREA":" ","LANE":" ","ALLEY":" ","HOUSE_NO":"１之１３６號","E_COORD97":179715.17999999999,"N_COORD97":2577935.1299999999,"ADDRESS":"復興路１之１３６號","OBJECTID":638806},"geometry":{"x":179715.1799999997,"y":2577935.129999999}},{"attributes":{"ID":638834,"DIS_CODE":0,"TOWNNAME":"新營區","LI":"大宏里","LIN":" ","STREET":"三民路","SECT":" ","MAREA":" ","LANE":" ","ALLEY":" ","HOUSE_NO":"２８之５號","E_COORD97":180368.81,"N_COORD97":2578619.77,"ADDRESS":"三民路２８之５號","OBJECTID":638807},"geometry":{"x":180368.81000000052,"y":2578619.7699999996}},{"attributes":{"ID":638835,"DIS_CODE":0,"TOWNNAME":"新營區","LI":"新南里","LIN":" ","STREET":"復興路","SECT":" ","MAREA":" ","LANE":" ","ALLEY":" ","HOUSE_NO":"４０２號","E_COORD97":178468.19,"N_COORD97":2578207.9399999999,"ADDRESS":"復興路４０２號","OBJECTID":638808},"geometry":{"x":178468.19000000041,"y":2578207.9399999995}},{"attributes":{"ID":638836,"DIS_CODE":0,"TOWNNAME":"新營區","LI":"王公里","LIN":"18鄰","STREET":"樂利街","SECT":" ","MAREA":" ","LANE":" ","ALLEY":" ","HOUSE_NO":"３７號","E_COORD97":180247.67000000001,"N_COORD97":2579269.2400000002,"ADDRESS":"樂利街３７號","OBJECTID":638809},"geometry":{"x":180247.66999999993,"y":2579269.2400000039}},{"attributes":{"ID":638837,"DIS_CODE":0,"TOWNNAME":"新營區","LI":"王公里","LIN":"20鄰","STREET":"樂仁街","SECT":" ","MAREA":" ","LANE":" ","ALLEY":" ","HOUSE_NO":"９０號","E_COORD97":180537.04999999999,"N_COORD97":2579278.96,"ADDRESS":"樂仁街９０號","OBJECTID":638810},"geometry":{"x":180537.05000000075,"y":2579278.9600000028}},{"attributes":{"ID":638838,"DIS_CODE":0,"TOWNNAME":"新營區","LI":"大宏里","LIN":"20鄰","STREET":"三民路","SECT":" ","MAREA":" ","LANE":" ","ALLEY":" ","HOUSE_NO":"４５之１２號","E_COORD97":180308.01000000001,"N_COORD97":2578473.8700000001,"ADDRESS":"三民路４５之１２號","OBJECTID":638811},"geometry":{"x":180308.00999999978,"y":2578473.8700000029}},{"attributes":{"ID":638839,"DIS_CODE":0,"TOWNNAME":"新營區","LI":"新北里","LIN":"26鄰","STREET":"民生路","SECT":" ","MAREA":" ","LANE":" ","ALLEY":" ","HOUSE_NO":"１６７號","E_COORD97":179181.69,"N_COORD97":2578768.2000000002,"ADDRESS":"民生路１６７號","OBJECTID":638812},"geometry":{"x":179181.69000000041,"y":2578768.2000000011}},{"attributes":{"ID":638840,"DIS_CODE":0,"TOWNNAME":"新營區","LI":"三仙里","LIN":"24鄰","STREET":"民治路","SECT":" ","MAREA":" ","LANE":" ","ALLEY":" ","HOUSE_NO":"８６號之４","E_COORD97":179448.78,"N_COORD97":2578803.52,"ADDRESS":"民治路８６號之４","OBJECTID":638813},"geometry":{"x":179448.78000000026,"y":2578803.5200000014}},{"attributes":{"ID":638841,"DIS_CODE":0,"TOWNNAME":"新營區","LI":"大宏里","LIN":" ","STREET":"大同路","SECT":" ","MAREA":" ","LANE":" ","ALLEY":" ","HOUSE_NO":"２７之２４號","E_COORD97":180678.20000000001,"N_COORD97":2578675.9100000001,"ADDRESS":"大同路２７之２４號","OBJECTID":638814},"geometry":{"x":180678.20000000019,"y":2578675.910000002}},{"attributes":{"ID":638842,"DIS_CODE":0,"TOWNNAME":"新營區","LI":"民生里","LIN":" ","STREET":"復興路","SECT":" ","MAREA":" ","LANE":" ","ALLEY":" ","HOUSE_NO":"２１０之１號","E_COORD97":179025.32000000001,"N_COORD97":2578044.7400000002,"ADDRESS":"復興路２１０之１號","OBJECTID":638815},"geometry":{"x":179025.32000000123,"y":2578044.7400000002}},{"attributes":{"ID":638843,"DIS_CODE":0,"TOWNNAME":"新營區","LI":"興業里","LIN":" ","STREET":"中山路","SECT":" ","MAREA":" ","LANE":" ","ALLEY":" ","HOUSE_NO":"９１之３２號","E_COORD97":180458.04999999999,"N_COORD97":2578210.71,"ADDRESS":"中山路９１之３２號","OBJECTID":638816},"geometry":{"x":180458.04999999981,"y":2578210.7100000009}},{"attributes":{"ID":638844,"DIS_CODE":0,"TOWNNAME":"新營區","LI":"三仙里","LIN":" ","STREET":"民權路","SECT":" ","MAREA":" ","LANE":" ","ALLEY":" ","HOUSE_NO":"２９之１號","E_COORD97":179716.22,"N_COORD97":2578187.6200000001,"ADDRESS":"民權路２９之１號","OBJECTID":638817},"geometry":{"x":179716.21999999974,"y":2578187.6200000029}},{"attributes":{"ID":638845,"DIS_CODE":0,"TOWNNAME":"新營區","LI":"三仙里","LIN":" ","STREET":"民權路","SECT":" ","MAREA":" ","LANE":" ","ALLEY":" ","HOUSE_NO":"１０７之９號","E_COORD97":179570,"N_COORD97":2578808.4900000002,"ADDRESS":"民權路１０７之９號","OBJECTID":638818},"geometry":{"x":179570.00000000093,"y":2578808.4900000002}},{"attributes":{"ID":638846,"DIS_CODE":0,"TOWNNAME":"新營區","LI":"南興里","LIN":"18鄰","STREET":"建業路","SECT":" ","MAREA":" ","LANE":" ","ALLEY":" ","HOUSE_NO":"１６３號","E_COORD97":178384.84,"N_COORD97":2577486.2799999998,"ADDRESS":"建業路１６３號","OBJECTID":638819},"geometry":{"x":178384.83999999985,"y":2577486.2800000012}},{"attributes":{"ID":638847,"DIS_CODE":0,"TOWNNAME":"新營區","LI":"忠政里","LIN":"25鄰","STREET":"府西路","SECT":" ","MAREA":" ","LANE":" ","ALLEY":" ","HOUSE_NO":"１９６號","E_COORD97":179812.25,"N_COORD97":2579518.27,"ADDRESS":"府西路１９６號","OBJECTID":638820},"geometry":{"x":179812.25000000093,"y":2579518.2699999996}},{"attributes":{"ID":638848,"DIS_CODE":0,"TOWNNAME":"新營區","LI":"新南里","LIN":"4鄰","STREET":"新北三街","SECT":" ","MAREA":" ","LANE":" ","ALLEY":" ","HOUSE_NO":"５號","E_COORD97":178661.98999999999,"N_COORD97":2578838.2400000002,"ADDRESS":"新北三街５號","OBJECTID":638821},"geometry":{"x":178661.99000000022,"y":2578838.2400000002}},{"attributes":{"ID":638849,"DIS_CODE":0,"TOWNNAME":"新營區","LI":"中營里","LIN":" ","STREET":"工業街","SECT":" ","MAREA":" ","LANE":" ","ALLEY":" ","HOUSE_NO":"１２之５號","E_COORD97":180919.38,"N_COORD97":2578474.3300000001,"ADDRESS":"工業街１２之５號","OBJECTID":638822},"geometry":{"x":180919.38000000175,"y":2578474.3300000001}},{"attributes":{"ID":638850,"DIS_CODE":0,"TOWNNAME":"新營區","LI":"民權里","LIN":"18鄰","STREET":"博愛街","SECT":" ","MAREA":" ","LANE":" ","ALLEY":" ","HOUSE_NO":"６４號","E_COORD97":179773.79999999999,"N_COORD97":2578141.8799999999,"ADDRESS":"博愛街６４號","OBJECTID":638823},"geometry":{"x":179773.79999999981,"y":2578141.8800000008}},{"attributes":{"ID":638851,"DIS_CODE":0,"TOWNNAME":"新營區","LI":"民榮里","LIN":" ","STREET":"太子路","SECT":" ","MAREA":" ","LANE":" ","ALLEY":" ","HOUSE_NO":"２５之１號","E_COORD97":178379.95999999999,"N_COORD97":2578109.8599999999,"ADDRESS":"太子路２５之１號","OBJECTID":638824},"geometry":{"x":178379.96000000089,"y":2578109.8599999994}},{"attributes":{"ID":638852,"DIS_CODE":0,"TOWNNAME":"新營區","LI":"永生里","LIN":" ","STREET":"中山路","SECT":" ","MAREA":" ","LANE":" ","ALLEY":" ","HOUSE_NO":"１５３之２號","E_COORD97":180072.01999999999,"N_COORD97":2578118.3900000001,"ADDRESS":"中山路１５３之２號","OBJECTID":638825},"geometry":{"x":180072.01999999955,"y":2578118.3900000006}},{"attributes":{"ID":638853,"DIS_CODE":0,"TOWNNAME":"新營區","LI":"民生里","LIN":"7鄰","STREET":"中華路","SECT":" ","MAREA":" ","LANE":" ","ALLEY":" ","HOUSE_NO":"９０號之１","E_COORD97":179334.51000000001,"N_COORD97":2578169.5,"ADDRESS":"中華路９０號之１","OBJECTID":638826},"geometry":{"x":179334.50999999978,"y":2578169.5000000019}},{"attributes":{"ID":638854,"DIS_CODE":0,"TOWNNAME":"新營區","LI":"南紙里","LIN":"18鄰","STREET":"太子路","SECT":" ","MAREA":" ","LANE":" ","ALLEY":" ","HOUSE_NO":"２２５號","E_COORD97":177747.92999999999,"N_COORD97":2577760.6899999999,"ADDRESS":"太子路２２５號","OBJECTID":638827},"geometry":{"x":177747.93000000063,"y":2577760.6900000013}},{"attributes":{"ID":638855,"DIS_CODE":0,"TOWNNAME":"新營區","LI":"新南里","LIN":"13鄰","STREET":"長榮路","SECT":"二段","MAREA":" ","LANE":" ","ALLEY":" ","HOUSE_NO":"８０１號","E_COORD97":178438.07000000001,"N_COORD97":2579172.6800000002,"ADDRESS":"長榮路二段８０１號","OBJECTID":638828},"geometry":{"x":178438.0700000003,"y":2579172.6799999997}},{"attributes":{"ID":638856,"DIS_CODE":0,"TOWNNAME":"新營區","LI":"埤寮里","LIN":"13鄰","STREET":"中正路","SECT":" ","MAREA":" ","LANE":" ","ALLEY":" ","HOUSE_NO":"４６９號","E_COORD97":180048.85000000001,"N_COORD97":2580437.4399999999,"ADDRESS":"中正路４６９號","OBJECTID":638829},"geometry":{"x":180048.85000000056,"y":2580437.4400000013}},{"attributes":{"ID":638857,"DIS_CODE":0,"TOWNNAME":"新營區","LI":"民生里","LIN":" ","STREET":"進修街","SECT":" ","MAREA":" ","LANE":" ","ALLEY":" ","HOUSE_NO":"１１之２６號","E_COORD97":179088.34,"N_COORD97":2578402.1400000001,"ADDRESS":"進修街１１之２６號","OBJECTID":638830},"geometry":{"x":179088.33999999985,"y":2578402.1399999987}},{"attributes":{"ID":638858,"DIS_CODE":0,"TOWNNAME":"新營區","LI":"太北里","LIN":" ","STREET":"新中路","SECT":" ","MAREA":" ","LANE":" ","ALLEY":" ","HOUSE_NO":"１２８號","E_COORD97":175973.76999999999,"N_COORD97":2577894.6000000001,"ADDRESS":"新中路１２８號","OBJECTID":638831},"geometry":{"x":175973.77000000048,"y":2577894.6000000015}},{"attributes":{"ID":638859,"DIS_CODE":0,"TOWNNAME":"新營區","LI":"忠政里","LIN":"18鄰","STREET":"中正路","SECT":" ","MAREA":" ","LANE":" ","ALLEY":" ","HOUSE_NO":"２２７號之２","E_COORD97":180065.64000000001,"N_COORD97":2579834.9700000002,"ADDRESS":"中正路２２７號之２","OBJECTID":638832},"geometry":{"x":180065.63999999966,"y":2579834.9700000025}},{"attributes":{"ID":638860,"DIS_CODE":0,"TOWNNAME":"新營區","LI":"南興里","LIN":" ","STREET":"延平路","SECT":" ","MAREA":" ","LANE":" ","ALLEY":" ","HOUSE_NO":"１４２之５號","E_COORD97":179702.29999999999,"N_COORD97":2577375.9399999999,"ADDRESS":"延平路１４２之５號","OBJECTID":638833},"geometry":{"x":179702.29999999981,"y":2577375.9400000013}},{"attributes":{"ID":638861,"DIS_CODE":0,"TOWNNAME":"新營區","LI":"王公里","LIN":"17鄰","STREET":"大智街","SECT":" ","MAREA":" ","LANE":" ","ALLEY":" ","HOUSE_NO":"３１號","E_COORD97":180240.76999999999,"N_COORD97":2579324.6400000001,"ADDRESS":"大智街３１號","OBJECTID":638834},"geometry":{"x":180240.77000000048,"y":2579324.6400000043}},{"attributes":{"ID":638862,"DIS_CODE":0,"TOWNNAME":"新營區","LI":"新南里","LIN":" ","STREET":"長榮路","SECT":"二段","MAREA":" ","LANE":" ","ALLEY":" ","HOUSE_NO":"１０９２號","E_COORD97":177875.57999999999,"N_COORD97":2578734.6499999999,"ADDRESS":"長榮路二段１０９２號","OBJECTID":638835},"geometry":{"x":177875.58000000101,"y":2578734.6500000022}},{"attributes":{"ID":638863,"DIS_CODE":0,"TOWNNAME":"新營區","LI":"王公里","LIN":"6鄰","STREET":"民治路","SECT":" ","MAREA":" ","LANE":" ","ALLEY":" ","HOUSE_NO":"１６號之２","E_COORD97":180380.26999999999,"N_COORD97":2578896.5699999998,"ADDRESS":"民治路１６號之２","OBJECTID":638836},"geometry":{"x":180380.26999999955,"y":2578896.5700000003}},{"attributes":{"ID":638864,"DIS_CODE":0,"TOWNNAME":"新營區","LI":"三仙里","LIN":"13鄰","STREET":"武昌街","SECT":" ","MAREA":" ","LANE":" ","ALLEY":" ","HOUSE_NO":"６１號","E_COORD97":179605.73000000001,"N_COORD97":2578288.8599999999,"ADDRESS":"武昌街６１號","OBJECTID":638837},"geometry":{"x":179605.73000000138,"y":2578288.8600000013}},{"attributes":{"ID":638865,"DIS_CODE":0,"TOWNNAME":"新營區","LI":"好平里","LIN":"4鄰","STREET":"長春街","SECT":" ","MAREA":" ","LANE":" ","ALLEY":" ","HOUSE_NO":"１４４號","E_COORD97":179543.41,"N_COORD97":2577830.6800000002,"ADDRESS":"長春街１４４號","OBJECTID":638838},"geometry":{"x":179543.41000000108,"y":2577830.6799999997}},{"attributes":{"ID":638866,"DIS_CODE":0,"TOWNNAME":"新營區","LI":"民生里","LIN":"7鄰","STREET":"中華路","SECT":" ","MAREA":" ","LANE":" ","ALLEY":" ","HOUSE_NO":"８１號之４","E_COORD97":179350.89999999999,"N_COORD97":2578153.9199999999,"ADDRESS":"中華路８１號之４","OBJECTID":638839},"geometry":{"x":179350.9000000013,"y":2578153.9200000018}},{"attributes":{"ID":638867,"DIS_CODE":0,"TOWNNAME":"新營區","LI":"忠政里","LIN":"18鄰","STREET":"中正路","SECT":" ","MAREA":" ","LANE":" ","ALLEY":" ","HOUSE_NO":"２２１號之３","E_COORD97":180066.5,"N_COORD97":2579806.1699999999,"ADDRESS":"中正路２２１號之３","OBJECTID":638840},"geometry":{"x":180066.50000000093,"y":2579806.1700000018}},{"attributes":{"ID":638868,"DIS_CODE":0,"TOWNNAME":"新營區","LI":"大宏里","LIN":"20鄰","STREET":"三民路","SECT":" ","MAREA":" ","LANE":" ","ALLEY":" ","HOUSE_NO":"４３之１號","E_COORD97":180368.14999999999,"N_COORD97":2578475.7999999998,"ADDRESS":"三民路４３之１號","OBJECTID":638841},"geometry":{"x":180368.15000000037,"y":2578475.7999999989}},{"attributes":{"ID":638869,"DIS_CODE":0,"TOWNNAME":"新營區","LI":"民生里","LIN":"24鄰","STREET":"民生路","SECT":" ","MAREA":" ","LANE":" ","ALLEY":" ","HOUSE_NO":"１１５之１號","E_COORD97":179259.79999999999,"N_COORD97":2578535.3300000001,"ADDRESS":"民生路１１５之１號","OBJECTID":638842},"geometry":{"x":179259.79999999981,"y":2578535.3300000001}},{"attributes":{"ID":638870,"DIS_CODE":0,"TOWNNAME":"新營區","LI":"延平里","LIN":"7鄰","STREET":"復興路","SECT":" ","MAREA":" ","LANE":" ","ALLEY":" ","HOUSE_NO":"１號之２","E_COORD97":179755.15554499999,"N_COORD97":2577948.1623300002,"ADDRESS":"復興路１號之２","OBJECTID":638843},"geometry":{"x":179755.15554500092,"y":2577948.1623320021}},{"attributes":{"ID":638871,"DIS_CODE":0,"TOWNNAME":"新營區","LI":"大宏里","LIN":" ","STREET":"大同路","SECT":" ","MAREA":" ","LANE":" ","ALLEY":" ","HOUSE_NO":"２７之６號","E_COORD97":180683.97,"N_COORD97":2578645.98,"ADDRESS":"大同路２７之６號","OBJECTID":638844},"geometry":{"x":180683.96999999974,"y":2578645.9800000004}},{"attributes":{"ID":638872,"DIS_CODE":0,"TOWNNAME":"新營區","LI":"土庫里","LIN":" ","STREET":"開元路","SECT":" ","MAREA":" ","LANE":" ","ALLEY":" ","HOUSE_NO":"３１９之５號","E_COORD97":182218.28,"N_COORD97":2580166.04,"ADDRESS":"開元路３１９之５號","OBJECTID":638845},"geometry":{"x":182218.28000000026,"y":2580166.040000001}},{"attributes":{"ID":638873,"DIS_CODE":0,"TOWNNAME":"新營區","LI":"好平里","LIN":"1鄰","STREET":"南昌街","SECT":" ","MAREA":" ","LANE":" ","ALLEY":" ","HOUSE_NO":"３２號之１","E_COORD97":179585.91,"N_COORD97":2577666.6299999999,"ADDRESS":"南昌街３２號之１","OBJECTID":638846},"geometry":{"x":179585.91000000108,"y":2577666.6300000008}},{"attributes":{"ID":638874,"DIS_CODE":0,"TOWNNAME":"新營區","LI":"新北里","LIN":"5鄰","STREET":"三興街","SECT":" ","MAREA":" ","LANE":" ","ALLEY":" ","HOUSE_NO":"１０５號之１","E_COORD97":179413.07999999999,"N_COORD97":2579223.4199999999,"ADDRESS":"三興街１０５號之１","OBJECTID":638847},"geometry":{"x":179413.08000000194,"y":2579223.4199999981}},{"attributes":{"ID":638875,"DIS_CODE":0,"TOWNNAME":"新營區","LI":"新北里","LIN":"20鄰","STREET":"金華路","SECT":"一段","MAREA":" ","LANE":" ","ALLEY":" ","HOUSE_NO":"３８６號","E_COORD97":179017.85999999999,"N_COORD97":2579139.9900000002,"ADDRESS":"金華路一段３８６號","OBJECTID":638848},"geometry":{"x":179017.86000000034,"y":2579139.9900000021}},{"attributes":{"ID":638876,"DIS_CODE":0,"TOWNNAME":"新營區","LI":"大宏里","LIN":"24鄰","STREET":"民治路","SECT":" ","MAREA":" ","LANE":" ","ALLEY":" ","HOUSE_NO":"１１號","E_COORD97":180465.59,"N_COORD97":2578865.1099999999,"ADDRESS":"民治路１１號","OBJECTID":638849},"geometry":{"x":180465.59000000078,"y":2578865.1099999994}},{"attributes":{"ID":638877,"DIS_CODE":0,"TOWNNAME":"新營區","LI":"大宏里","LIN":" ","STREET":"大同路","SECT":" ","MAREA":" ","LANE":" ","ALLEY":" ","HOUSE_NO":"３０之１４號","E_COORD97":180724.95999999999,"N_COORD97":2578828.52,"ADDRESS":"大同路３０之１４號","OBJECTID":638850},"geometry":{"x":180724.95999999996,"y":2578828.5199999996}},{"attributes":{"ID":638878,"DIS_CODE":0,"TOWNNAME":"新營區","LI":"王公里","LIN":"4鄰","STREET":"民族路","SECT":" ","MAREA":" ","LANE":" ","ALLEY":" ","HOUSE_NO":"８０號之４","E_COORD97":180326.56,"N_COORD97":2578986.5299999998,"ADDRESS":"民族路８０號之４","OBJECTID":638851},"geometry":{"x":180326.56000000052,"y":2578986.5300000012}},{"attributes":{"ID":638879,"DIS_CODE":0,"TOWNNAME":"新營區","LI":"民權里","LIN":" ","STREET":"三民路","SECT":" ","MAREA":" ","LANE":" ","ALLEY":" ","HOUSE_NO":"９４號","E_COORD97":179954.53,"N_COORD97":2578515.3500000001,"ADDRESS":"三民路９４號","OBJECTID":638852},"geometry":{"x":179954.53000000119,"y":2578515.3500000034}},{"attributes":{"ID":638880,"DIS_CODE":0,"TOWNNAME":"新營區","LI":"忠政里","LIN":"32鄰","STREET":"府西路","SECT":" ","MAREA":" ","LANE":" ","ALLEY":" ","HOUSE_NO":"４５之３號","E_COORD97":179810.20999999999,"N_COORD97":2579022.1899999999,"ADDRESS":"府西路４５之３號","OBJECTID":638853},"geometry":{"x":179810.20999999903,"y":2579022.1900000013}},{"attributes":{"ID":638881,"DIS_CODE":0,"TOWNNAME":"新營區","LI":"好平里","LIN":" ","STREET":"新進路","SECT":"二段","MAREA":" ","LANE":" ","ALLEY":" ","HOUSE_NO":"６５號","E_COORD97":179573.38,"N_COORD97":2577725.3199999998,"ADDRESS":"新進路二段６５號","OBJECTID":638854},"geometry":{"x":179573.37999999896,"y":2577725.3200000003}},{"attributes":{"ID":638882,"DIS_CODE":0,"TOWNNAME":"新營區","LI":"民生里","LIN":" ","STREET":"進修街","SECT":" ","MAREA":" ","LANE":" ","ALLEY":" ","HOUSE_NO":"２５之１７號","E_COORD97":179088.64999999999,"N_COORD97":2578454.1899999999,"ADDRESS":"進修街２５之１７號","OBJECTID":638855},"geometry":{"x":179088.65000000037,"y":2578454.1899999995}},{"attributes":{"ID":638883,"DIS_CODE":0,"TOWNNAME":"新營區","LI":"民生里","LIN":" ","STREET":"民治路","SECT":" ","MAREA":" ","LANE":" ","ALLEY":" ","HOUSE_NO":"３３３號","E_COORD97":178696.19,"N_COORD97":2578184.6800000002,"ADDRESS":"民治路３３３號","OBJECTID":638856},"geometry":{"x":178696.19000000134,"y":2578184.6800000016}},{"attributes":{"ID":638884,"DIS_CODE":0,"TOWNNAME":"新營區","LI":"好平里","LIN":"5鄰","STREET":"南昌街","SECT":" ","MAREA":" ","LANE":" ","ALLEY":" ","HOUSE_NO":"４２號之６","E_COORD97":179490.73000000001,"N_COORD97":2577659.3300000001,"ADDRESS":"南昌街４２號之６","OBJECTID":638857},"geometry":{"x":179490.73000000138,"y":2577659.3300000019}},{"attributes":{"ID":638885,"DIS_CODE":0,"TOWNNAME":"新營區","LI":"大宏里","LIN":" ","STREET":"三民路","SECT":" ","MAREA":" ","LANE":" ","ALLEY":" ","HOUSE_NO":"７２號","E_COORD97":180178.62,"N_COORD97":2578519.8300000001,"ADDRESS":"三民路７２號","OBJECTID":638858},"geometry":{"x":180178.62000000011,"y":2578519.8300000019}},{"attributes":{"ID":638886,"DIS_CODE":0,"TOWNNAME":"新營區","LI":"新南里","LIN":"5鄰","STREET":"新北三街","SECT":" ","MAREA":" ","LANE":" ","ALLEY":" ","HOUSE_NO":"１０６號","E_COORD97":178548.85000000001,"N_COORD97":2578829.9399999999,"ADDRESS":"新北三街１０６號","OBJECTID":638859},"geometry":{"x":178548.84999999963,"y":2578829.9400000032}},{"attributes":{"ID":638887,"DIS_CODE":0,"TOWNNAME":"新營區","LI":"南紙里","LIN":"20鄰","STREET":"建業路","SECT":" ","MAREA":" ","LANE":" ","ALLEY":" ","HOUSE_NO":"３０１號","E_COORD97":177873.60999999999,"N_COORD97":2577518.6600000001,"ADDRESS":"建業路３０１號","OBJECTID":638860},"geometry":{"x":177873.61000000034,"y":2577518.6600000001}},{"attributes":{"ID":638888,"DIS_CODE":0,"TOWNNAME":"安平區","LI":"文平里","LIN":"4鄰","STREET":"建平六街","SECT":" ","MAREA":" ","LANE":" ","ALLEY":" ","HOUSE_NO":"１號","E_COORD97":166523.39000000001,"N_COORD97":2543066.9500000002,"ADDRESS":"建平六街１號","OBJECTID":638861},"geometry":{"x":166523.38999999966,"y":2543066.9499999993}},{"attributes":{"ID":638889,"DIS_CODE":0,"TOWNNAME":"安平區","LI":"文平里","LIN":"4鄰","STREET":"建平六街","SECT":" ","MAREA":" ","LANE":" ","ALLEY":" ","HOUSE_NO":"２０號","E_COORD97":166488.39999999999,"N_COORD97":2543099.8999999999,"ADDRESS":"建平六街２０號","OBJECTID":638862},"geometry":{"x":166488.40000000037,"y":2543099.9000000041}},{"attributes":{"ID":638890,"DIS_CODE":0,"TOWNNAME":"安平區","LI":"文平里","LIN":"4鄰","STREET":"建平六街","SECT":" ","MAREA":" ","LANE":" ","ALLEY":" ","HOUSE_NO":"２１號","E_COORD97":166481.03,"N_COORD97":2543073.21,"ADDRESS":"建平六街２１號","OBJECTID":638863},"geometry":{"x":166481.03000000119,"y":2543073.2100000009}},{"attributes":{"ID":638891,"DIS_CODE":0,"TOWNNAME":"安平區","LI":"文平里","LIN":"4鄰","STREET":"建平六街","SECT":" ","MAREA":" ","LANE":" ","ALLEY":" ","HOUSE_NO":"２２號","E_COORD97":166484.64000000001,"N_COORD97":2543100.3300000001,"ADDRESS":"建平六街２２號","OBJECTID":638864},"geometry":{"x":166484.64000000153,"y":2543100.3300000019}},{"attributes":{"ID":638892,"DIS_CODE":0,"TOWNNAME":"安平區","LI":"文平里","LIN":"4鄰","STREET":"建平六街","SECT":" ","MAREA":" ","LANE":" ","ALLEY":" ","HOUSE_NO":"２３號","E_COORD97":166477,"N_COORD97":2543072.7799999998,"ADDRESS":"建平六街２３號","OBJECTID":638865},"geometry":{"x":166477,"y":2543072.7800000012}},{"attributes":{"ID":638893,"DIS_CODE":0,"TOWNNAME":"安平區","LI":"文平里","LIN":"4鄰","STREET":"建平六街","SECT":" ","MAREA":" ","LANE":" ","ALLEY":" ","HOUSE_NO":"２４號","E_COORD97":166480.26000000001,"N_COORD97":2543100.8500000001,"ADDRESS":"建平六街２４號","OBJECTID":638866},"geometry":{"x":166480.25999999978,"y":2543100.8500000015}},{"attributes":{"ID":638894,"DIS_CODE":0,"TOWNNAME":"安平區","LI":"文平里","LIN":"4鄰","STREET":"建平六街","SECT":" ","MAREA":" ","LANE":" ","ALLEY":" ","HOUSE_NO":"２５號","E_COORD97":166472.63,"N_COORD97":2543073.4700000002,"ADDRESS":"建平六街２５號","OBJECTID":638867},"geometry":{"x":166472.62999999989,"y":2543073.4700000025}},{"attributes":{"ID":638895,"DIS_CODE":0,"TOWNNAME":"安平區","LI":"文平里","LIN":"4鄰","STREET":"建平六街","SECT":" ","MAREA":" ","LANE":" ","ALLEY":" ","HOUSE_NO":"２６號","E_COORD97":166476.39999999999,"N_COORD97":2543101.1000000001,"ADDRESS":"建平六街２６號","OBJECTID":638868},"geometry":{"x":166476.40000000037,"y":2543101.1000000034}},{"attributes":{"ID":638896,"DIS_CODE":0,"TOWNNAME":"新營區","LI":"民生里","LIN":" ","STREET":"中華路","SECT":" ","MAREA":" ","LANE":" ","ALLEY":" ","HOUSE_NO":"１３８之５號","E_COORD97":179102.89000000001,"N_COORD97":2578235.96,"ADDRESS":"中華路１３８之５號","OBJECTID":638869},"geometry":{"x":179102.88999999966,"y":2578235.9600000028}},{"attributes":{"ID":638897,"DIS_CODE":0,"TOWNNAME":"新營區","LI":"民生里","LIN":"9鄰","STREET":"復興路","SECT":" ","MAREA":" ","LANE":" ","ALLEY":" ","HOUSE_NO":"１４４號之２","E_COORD97":179297.32999999999,"N_COORD97":2578043.4399999999,"ADDRESS":"復興路１４４號之２","OBJECTID":638870},"geometry":{"x":179297.33000000007,"y":2578043.4400000013}},{"attributes":{"ID":638898,"DIS_CODE":0,"TOWNNAME":"新營區","LI":"忠政里","LIN":"18鄰","STREET":"中正路","SECT":" ","MAREA":" ","LANE":" ","ALLEY":" ","HOUSE_NO":"２０７號之４","E_COORD97":180016.94,"N_COORD97":2579724.4500000002,"ADDRESS":"中正路２０７號之４","OBJECTID":638871},"geometry":{"x":180016.94000000041,"y":2579724.450000003}},{"attributes":{"ID":638899,"DIS_CODE":0,"TOWNNAME":"新營區","LI":"王公里","LIN":"24鄰","STREET":"中正路","SECT":" ","MAREA":" ","LANE":" ","ALLEY":" ","HOUSE_NO":"１１２之２號","E_COORD97":180104.98000000001,"N_COORD97":2579466,"ADDRESS":"中正路１１２之２號","OBJECTID":638872},"geometry":{"x":180104.98000000045,"y":2579466}},{"attributes":{"ID":638900,"DIS_CODE":0,"TOWNNAME":"新營區","LI":"民榮里","LIN":"34鄰","STREET":"新進路","SECT":"二段","MAREA":" ","LANE":" ","ALLEY":" ","HOUSE_NO":"４５１號","E_COORD97":178632.23000000001,"N_COORD97":2578073.1400000001,"ADDRESS":"新進路二段４５１號","OBJECTID":638873},"geometry":{"x":178632.23000000045,"y":2578073.1400000006}},{"attributes":{"ID":638901,"DIS_CODE":0,"TOWNNAME":"安平區","LI":"文平里","LIN":"4鄰","STREET":"建平六街","SECT":" ","MAREA":" ","LANE":" ","ALLEY":" ","HOUSE_NO":"２７號","E_COORD97":166468.85999999999,"N_COORD97":2543073.98,"ADDRESS":"建平六街２７號","OBJECTID":638874},"geometry":{"x":166468.86000000127,"y":2543073.9800000004}},{"attributes":{"ID":638902,"DIS_CODE":0,"TOWNNAME":"安平區","LI":"文平里","LIN":"4鄰","STREET":"建平六街","SECT":" ","MAREA":" ","LANE":" ","ALLEY":" ","HOUSE_NO":"２８號","E_COORD97":166472.37,"N_COORD97":2543101.96,"ADDRESS":"建平六街２８號","OBJECTID":638875},"geometry":{"x":166472.37000000104,"y":2543101.9600000009}},{"attributes":{"ID":638903,"DIS_CODE":0,"TOWNNAME":"安平區","LI":"文平里","LIN":"4鄰","STREET":"建平六街","SECT":" ","MAREA":" ","LANE":" ","ALLEY":" ","HOUSE_NO":"２９號","E_COORD97":166464.57000000001,"N_COORD97":2543074.75,"ADDRESS":"建平六街２９號","OBJECTID":638876},"geometry":{"x":166464.5700000003,"y":2543074.7500000019}},{"attributes":{"ID":638904,"DIS_CODE":0,"TOWNNAME":"安平區","LI":"文平里","LIN":"4鄰","STREET":"建平六街","SECT":" ","MAREA":" ","LANE":" ","ALLEY":" ","HOUSE_NO":"２號","E_COORD97":166525.70999999999,"N_COORD97":2543095.5299999998,"ADDRESS":"建平六街２號","OBJECTID":638877},"geometry":{"x":166525.71000000089,"y":2543095.5300000012}},{"attributes":{"ID":638905,"DIS_CODE":0,"TOWNNAME":"安平區","LI":"文平里","LIN":"4鄰","STREET":"建平六街","SECT":" ","MAREA":" ","LANE":" ","ALLEY":" ","HOUSE_NO":"３０號","E_COORD97":166467.82999999999,"N_COORD97":2543102.2999999998,"ADDRESS":"建平六街３０號","OBJECTID":638878},"geometry":{"x":166467.83000000007,"y":2543102.3000000026}},{"attributes":{"ID":638906,"DIS_CODE":0,"TOWNNAME":"安平區","LI":"文平里","LIN":"4鄰","STREET":"建平六街","SECT":" ","MAREA":" ","LANE":" ","ALLEY":" ","HOUSE_NO":"３１號","E_COORD97":166460.97,"N_COORD97":2543075.3500000001,"ADDRESS":"建平六街３１號","OBJECTID":638879},"geometry":{"x":166460.97000000067,"y":2543075.3499999978}},{"attributes":{"ID":638907,"DIS_CODE":0,"TOWNNAME":"安平區","LI":"文平里","LIN":"4鄰","STREET":"建平六街","SECT":" ","MAREA":" ","LANE":" ","ALLEY":" ","HOUSE_NO":"３２號","E_COORD97":166463.88,"N_COORD97":2543102.3900000001,"ADDRESS":"建平六街３２號","OBJECTID":638880},"geometry":{"x":166463.87999999989,"y":2543102.3900000006}},{"attributes":{"ID":638908,"DIS_CODE":0,"TOWNNAME":"安平區","LI":"文平里","LIN":"4鄰","STREET":"建平六街","SECT":" ","MAREA":" ","LANE":" ","ALLEY":" ","HOUSE_NO":"３３號","E_COORD97":166456.59,"N_COORD97":2543075.9500000002,"ADDRESS":"建平六街３３號","OBJECTID":638881},"geometry":{"x":166456.59000000078,"y":2543075.9500000011}},{"attributes":{"ID":638909,"DIS_CODE":0,"TOWNNAME":"安平區","LI":"文平里","LIN":"4鄰","STREET":"建平六街","SECT":" ","MAREA":" ","LANE":" ","ALLEY":" ","HOUSE_NO":"３４號","E_COORD97":166459.51000000001,"N_COORD97":2543102.8199999998,"ADDRESS":"建平六街３４號","OBJECTID":638882},"geometry":{"x":166459.50999999978,"y":2543102.8200000003}},{"attributes":{"ID":638910,"DIS_CODE":0,"TOWNNAME":"安平區","LI":"文平里","LIN":"4鄰","STREET":"建平六街","SECT":" ","MAREA":" ","LANE":" ","ALLEY":" ","HOUSE_NO":"３５號","E_COORD97":166452.56,"N_COORD97":2543076.7200000002,"ADDRESS":"建平六街３５號","OBJECTID":638883},"geometry":{"x":166452.55999999959,"y":2543076.7200000007}},{"attributes":{"ID":638911,"DIS_CODE":0,"TOWNNAME":"安平區","LI":"文平里","LIN":"4鄰","STREET":"建平六街","SECT":" ","MAREA":" ","LANE":" ","ALLEY":" ","HOUSE_NO":"３６號","E_COORD97":166455.57000000001,"N_COORD97":2543103.1600000001,"ADDRESS":"建平六街３６號","OBJECTID":638884},"geometry":{"x":166455.57000000123,"y":2543103.1600000001}},{"attributes":{"ID":638912,"DIS_CODE":0,"TOWNNAME":"安平區","LI":"文平里","LIN":"4鄰","STREET":"建平六街","SECT":" ","MAREA":" ","LANE":" ","ALLEY":" ","HOUSE_NO":"３７號","E_COORD97":166448.28,"N_COORD97":2543077.1499999999,"ADDRESS":"建平六街３７號","OBJECTID":638885},"geometry":{"x":166448.28000000026,"y":2543077.1500000004}},{"attributes":{"ID":638913,"DIS_CODE":0,"TOWNNAME":"安平區","LI":"文平里","LIN":"4鄰","STREET":"建平六街","SECT":" ","MAREA":" ","LANE":" ","ALLEY":" ","HOUSE_NO":"３８號","E_COORD97":166451.45000000001,"N_COORD97":2543104.1899999999,"ADDRESS":"建平六街３８號","OBJECTID":638886},"geometry":{"x":166451.45000000112,"y":2543104.1900000013}},{"attributes":{"ID":638914,"DIS_CODE":0,"TOWNNAME":"安平區","LI":"文平里","LIN":"4鄰","STREET":"建平六街","SECT":" ","MAREA":" ","LANE":" ","ALLEY":" ","HOUSE_NO":"３９號","E_COORD97":166444.32999999999,"N_COORD97":2543078.0099999998,"ADDRESS":"建平六街３９號","OBJECTID":638887},"geometry":{"x":166444.33000000007,"y":2543078.0100000035}},{"attributes":{"ID":638915,"DIS_CODE":0,"TOWNNAME":"安平區","LI":"文平里","LIN":"4鄰","STREET":"建平六街","SECT":" ","MAREA":" ","LANE":" ","ALLEY":" ","HOUSE_NO":"３號","E_COORD97":166519.01999999999,"N_COORD97":2543067.4700000002,"ADDRESS":"建平六街３號","OBJECTID":638888},"geometry":{"x":166519.01999999955,"y":2543067.4700000007}},{"attributes":{"ID":638916,"DIS_CODE":0,"TOWNNAME":"安平區","LI":"文平里","LIN":"4鄰","STREET":"建平六街","SECT":" ","MAREA":" ","LANE":" ","ALLEY":" ","HOUSE_NO":"４０號","E_COORD97":166447.5,"N_COORD97":2543105.1299999999,"ADDRESS":"建平六街４０號","OBJECTID":638889},"geometry":{"x":166447.50000000093,"y":2543105.1300000008}},{"attributes":{"ID":638917,"DIS_CODE":0,"TOWNNAME":"安平區","LI":"國平里","LIN":"14鄰","STREET":"健康路","SECT":"三段","MAREA":" ","LANE":" ","ALLEY":" ","HOUSE_NO":"２３２號","E_COORD97":165392.79999999999,"N_COORD97":2542717.8700000001,"ADDRESS":"健康路三段２３２號","OBJECTID":638890},"geometry":{"x":165392.80000000075,"y":2542717.8700000029}},{"attributes":{"ID":638918,"DIS_CODE":0,"TOWNNAME":"安平區","LI":"國平里","LIN":"14鄰","STREET":"健康路","SECT":"三段","MAREA":" ","LANE":" ","ALLEY":" ","HOUSE_NO":"２３４號","E_COORD97":165389.62,"N_COORD97":2542718.4700000002,"ADDRESS":"健康路三段２３４號","OBJECTID":638891},"geometry":{"x":165389.62000000011,"y":2542718.4700000007}},{"attributes":{"ID":638919,"DIS_CODE":0,"TOWNNAME":"安平區","LI":"國平里","LIN":"14鄰","STREET":"健康路","SECT":"三段","MAREA":" ","LANE":" ","ALLEY":" ","HOUSE_NO":"２３６號","E_COORD97":165384.85000000001,"N_COORD97":2542719.0600000001,"ADDRESS":"健康路三段２３６號","OBJECTID":638892},"geometry":{"x":165384.85000000056,"y":2542719.0600000042}},{"attributes":{"ID":638920,"DIS_CODE":0,"TOWNNAME":"安平區","LI":"國平里","LIN":"14鄰","STREET":"健康路","SECT":"三段","MAREA":" ","LANE":" ","ALLEY":" ","HOUSE_NO":"２３８號","E_COORD97":165356.57000000001,"N_COORD97":2542726.2400000002,"ADDRESS":"健康路三段２３８號","OBJECTID":638893},"geometry":{"x":165356.5700000003,"y":2542726.2400000002}},{"attributes":{"ID":638921,"DIS_CODE":0,"TOWNNAME":"安平區","LI":"國平里","LIN":"17鄰","STREET":"健康路","SECT":"三段","MAREA":" ","LANE":" ","ALLEY":" ","HOUSE_NO":"２７６號","E_COORD97":165225.63,"N_COORD97":2542750.1299999999,"ADDRESS":"健康路三段２７６號","OBJECTID":638894},"geometry":{"x":165225.63000000082,"y":2542750.129999999}},{"attributes":{"ID":638922,"DIS_CODE":0,"TOWNNAME":"安平區","LI":"國平里","LIN":"17鄰","STREET":"健康路","SECT":"三段","MAREA":" ","LANE":" ","ALLEY":" ","HOUSE_NO":"２７８號","E_COORD97":165219.48000000001,"N_COORD97":2542751.52,"ADDRESS":"健康路三段２７８號","OBJECTID":638895},"geometry":{"x":165219.48000000045,"y":2542751.5199999996}},{"attributes":{"ID":638923,"DIS_CODE":0,"TOWNNAME":"安平區","LI":"文平里","LIN":"27鄰","STREET":"永華二街","SECT":" ","MAREA":" ","LANE":" ","ALLEY":" ","HOUSE_NO":"５５號","E_COORD97":166338.98999999999,"N_COORD97":2542983.4399999999,"ADDRESS":"永華二街５５號","OBJECTID":638896},"geometry":{"x":166338.99000000115,"y":2542983.4400000032}},{"attributes":{"ID":638924,"DIS_CODE":0,"TOWNNAME":"安平區","LI":"文平里","LIN":"27鄰","STREET":"永華二街","SECT":" ","MAREA":" ","LANE":" ","ALLEY":" ","HOUSE_NO":"５７號","E_COORD97":166338.70000000001,"N_COORD97":2542988.1400000001,"ADDRESS":"永華二街５７號","OBJECTID":638897},"geometry":{"x":166338.70000000019,"y":2542988.1400000025}},{"attributes":{"ID":638925,"DIS_CODE":0,"TOWNNAME":"安平區","LI":"國平里","LIN":"4鄰","STREET":"建平五街","SECT":" ","MAREA":" ","LANE":" ","ALLEY":" ","HOUSE_NO":"１５２號","E_COORD97":165618.79000000001,"N_COORD97":2543183.96,"ADDRESS":"建平五街１５２號","OBJECTID":638898},"geometry":{"x":165618.79000000004,"y":2543183.9600000009}},{"attributes":{"ID":638926,"DIS_CODE":0,"TOWNNAME":"安平區","LI":"國平里","LIN":"4鄰","STREET":"建平五街","SECT":" ","MAREA":" ","LANE":" ","ALLEY":" ","HOUSE_NO":"１５４號","E_COORD97":165608.60999999999,"N_COORD97":2543185.7599999998,"ADDRESS":"建平五街１５４號","OBJECTID":638899},"geometry":{"x":165608.61000000034,"y":2543185.7600000016}},{"attributes":{"ID":638927,"DIS_CODE":0,"TOWNNAME":"安平區","LI":"國平里","LIN":"4鄰","STREET":"建平五街","SECT":" ","MAREA":" ","LANE":" ","ALLEY":" ","HOUSE_NO":"１５６號","E_COORD97":165599.91,"N_COORD97":2543186.75,"ADDRESS":"建平五街１５６號","OBJECTID":638900},"geometry":{"x":165599.91000000015,"y":2543186.7500000019}},{"attributes":{"ID":638928,"DIS_CODE":0,"TOWNNAME":"安平區","LI":"國平里","LIN":"4鄰","STREET":"建平五街","SECT":" ","MAREA":" ","LANE":" ","ALLEY":" ","HOUSE_NO":"１５８號","E_COORD97":165591.37,"N_COORD97":2543188.3900000001,"ADDRESS":"建平五街１５８號","OBJECTID":638901},"geometry":{"x":165591.37000000011,"y":2543188.3900000043}},{"attributes":{"ID":638929,"DIS_CODE":0,"TOWNNAME":"安平區","LI":"怡平里","LIN":"15鄰","STREET":"建平十一街","SECT":" ","MAREA":" ","LANE":" ","ALLEY":" ","HOUSE_NO":"２８５號","E_COORD97":165663.10999999999,"N_COORD97":2543973.21,"ADDRESS":"建平十一街２８５號","OBJECTID":638902},"geometry":{"x":165663.11000000034,"y":2543973.2100000028}},{"attributes":{"ID":638930,"DIS_CODE":0,"TOWNNAME":"安平區","LI":"文平里","LIN":"10鄰","STREET":"建平七街","SECT":" ","MAREA":" ","LANE":" ","ALLEY":" ","HOUSE_NO":"２９０號","E_COORD97":165840.70000000001,"N_COORD97":2543302.7200000002,"ADDRESS":"建平七街２９０號","OBJECTID":638903},"geometry":{"x":165840.70000000205,"y":2543302.7200000025}},{"attributes":{"ID":638931,"DIS_CODE":0,"TOWNNAME":"安平區","LI":"文平里","LIN":"10鄰","STREET":"建平七街","SECT":" ","MAREA":" ","LANE":" ","ALLEY":" ","HOUSE_NO":"２９２號","E_COORD97":165836.38,"N_COORD97":2543303.6600000001,"ADDRESS":"建平七街２９２號","OBJECTID":638904},"geometry":{"x":165836.38000000082,"y":2543303.6600000001}},{"attributes":{"ID":638932,"DIS_CODE":0,"TOWNNAME":"安平區","LI":"文平里","LIN":"10鄰","STREET":"建平七街","SECT":" ","MAREA":" ","LANE":" ","ALLEY":" ","HOUSE_NO":"２９４號","E_COORD97":165832.06,"N_COORD97":2543304.0099999998,"ADDRESS":"建平七街２９４號","OBJECTID":638905},"geometry":{"x":165832.05999999959,"y":2543304.0099999998}},{"attributes":{"ID":638933,"DIS_CODE":0,"TOWNNAME":"安平區","LI":"文平里","LIN":"10鄰","STREET":"建平七街","SECT":" ","MAREA":" ","LANE":" ","ALLEY":" ","HOUSE_NO":"２９６號","E_COORD97":165828.44,"N_COORD97":2543304.5899999999,"ADDRESS":"建平七街２９６號","OBJECTID":638906},"geometry":{"x":165828.44000000041,"y":2543304.5900000036}},{"attributes":{"ID":638934,"DIS_CODE":0,"TOWNNAME":"安平區","LI":"文平里","LIN":"15鄰","STREET":"建平五街","SECT":" ","MAREA":" ","LANE":" ","ALLEY":" ","HOUSE_NO":"２６號","E_COORD97":166074.23000000001,"N_COORD97":2543135.2200000002,"ADDRESS":"建平五街２６號","OBJECTID":638907},"geometry":{"x":166074.23000000045,"y":2543135.2200000044}},{"attributes":{"ID":638935,"DIS_CODE":0,"TOWNNAME":"安平區","LI":"怡平里","LIN":"24鄰","STREET":"文平路","SECT":" ","MAREA":" ","LANE":" ","ALLEY":" ","HOUSE_NO":"３４５號","E_COORD97":165757.94,"N_COORD97":2543546.48,"ADDRESS":"文平路３４５號","OBJECTID":638908},"geometry":{"x":165757.94000000227,"y":2543546.4800000004}},{"attributes":{"ID":638936,"DIS_CODE":0,"TOWNNAME":"安平區","LI":"怡平里","LIN":"24鄰","STREET":"文平路","SECT":" ","MAREA":" ","LANE":" ","ALLEY":" ","HOUSE_NO":"３４７號","E_COORD97":165763.45000000001,"N_COORD97":2543553.4300000002,"ADDRESS":"文平路３４７號","OBJECTID":638909},"geometry":{"x":165763.45000000019,"y":2543553.4300000016}},{"attributes":{"ID":638937,"DIS_CODE":0,"TOWNNAME":"安平區","LI":"國平里","LIN":"17鄰","STREET":"健康路","SECT":"三段","MAREA":" ","LANE":" ","ALLEY":" ","HOUSE_NO":"３１０號","E_COORD97":164962.75,"N_COORD97":2542802.98,"ADDRESS":"健康路三段３１０號","OBJECTID":638910},"geometry":{"x":164962.75000000093,"y":2542802.9800000004}},{"attributes":{"ID":638938,"DIS_CODE":0,"TOWNNAME":"安平區","LI":"億載里","LIN":"4鄰","STREET":"永華路","SECT":"二段","MAREA":" ","LANE":" ","ALLEY":" ","HOUSE_NO":"１３１６號","E_COORD97":163735.42999999999,"N_COORD97":2543574.6099999999,"ADDRESS":"永華路二段１３１６號","OBJECTID":638911},"geometry":{"x":163735.43000000063,"y":2543574.6099999994}},{"attributes":{"ID":638939,"DIS_CODE":0,"TOWNNAME":"安平區","LI":"怡平里","LIN":"25鄰","STREET":"永華路","SECT":"二段","MAREA":" ","LANE":" ","ALLEY":" ","HOUSE_NO":"４６８號","E_COORD97":165550.38,"N_COORD97":2543508.96,"ADDRESS":"永華路二段４６８號","OBJECTID":638912},"geometry":{"x":165550.37999999989,"y":2543508.9600000009}},{"attributes":{"ID":638940,"DIS_CODE":0,"TOWNNAME":"安平區","LI":"億載里","LIN":"4鄰","STREET":"永華路","SECT":"二段","MAREA":" ","LANE":" ","ALLEY":" ","HOUSE_NO":"１３１８號","E_COORD97":163730.32000000001,"N_COORD97":2543573.8199999998,"ADDRESS":"永華路二段１３１８號","OBJECTID":638913},"geometry":{"x":163730.3200000003,"y":2543573.8200000003}},{"attributes":{"ID":638941,"DIS_CODE":0,"TOWNNAME":"安平區","LI":"怡平里","LIN":"25鄰","STREET":"永華路","SECT":"二段","MAREA":" ","LANE":" ","ALLEY":" ","HOUSE_NO":"４７８號","E_COORD97":165520.48999999999,"N_COORD97":2543512.7200000002,"ADDRESS":"永華路二段４７８號","OBJECTID":638914},"geometry":{"x":165520.49000000115,"y":2543512.7200000025}},{"attributes":{"ID":638942,"DIS_CODE":0,"TOWNNAME":"安平區","LI":"怡平里","LIN":"20鄰","STREET":"怡平路","SECT":" ","MAREA":" ","LANE":" ","ALLEY":" ","HOUSE_NO":"３９０號","E_COORD97":165632.14999999999,"N_COORD97":2543812.6099999999,"ADDRESS":"怡平路３９０號","OBJECTID":638915},"geometry":{"x":165632.15000000037,"y":2543812.6100000031}},{"attributes":{"ID":638943,"DIS_CODE":0,"TOWNNAME":"安平區","LI":"國平里","LIN":"17鄰","STREET":"府平路","SECT":" ","MAREA":" ","LANE":" ","ALLEY":" ","HOUSE_NO":"１２１之１號","E_COORD97":165030.66,"N_COORD97":2543031.0899999999,"ADDRESS":"府平路１２１之１號","OBJECTID":638916},"geometry":{"x":165030.66000000108,"y":2543031.0900000017}},{"attributes":{"ID":638944,"DIS_CODE":0,"TOWNNAME":"安平區","LI":"國平里","LIN":"17鄰","STREET":"府平路","SECT":" ","MAREA":" ","LANE":" ","ALLEY":" ","HOUSE_NO":"１２１之２號","E_COORD97":165055.29999999999,"N_COORD97":2543029.1000000001,"ADDRESS":"府平路１２１之２號","OBJECTID":638917},"geometry":{"x":165055.30000000075,"y":2543029.0999999996}},{"attributes":{"ID":638945,"DIS_CODE":0,"TOWNNAME":"安平區","LI":"國平里","LIN":"17鄰","STREET":"府平路","SECT":" ","MAREA":" ","LANE":" ","ALLEY":" ","HOUSE_NO":"１２１之３號","E_COORD97":165053.31,"N_COORD97":2543020.77,"ADDRESS":"府平路１２１之３號","OBJECTID":638918},"geometry":{"x":165053.31000000052,"y":2543020.7699999996}},{"attributes":{"ID":638946,"DIS_CODE":0,"TOWNNAME":"安平區","LI":"國平里","LIN":"17鄰","STREET":"府平路","SECT":" ","MAREA":" ","LANE":" ","ALLEY":" ","HOUSE_NO":"１２１之５號","E_COORD97":165029.47,"N_COORD97":2543023.1499999999,"ADDRESS":"府平路１２１之５號","OBJECTID":638919},"geometry":{"x":165029.46999999974,"y":2543023.1500000004}},{"attributes":{"ID":638947,"DIS_CODE":0,"TOWNNAME":"安平區","LI":"國平里","LIN":"17鄰","STREET":"府平路","SECT":" ","MAREA":" ","LANE":" ","ALLEY":" ","HOUSE_NO":"１２１之６號","E_COORD97":165001.47,"N_COORD97":2543027.71,"ADDRESS":"府平路１２１之６號","OBJECTID":638920},"geometry":{"x":165001.47000000067,"y":2543027.7100000028}},{"attributes":{"ID":638948,"DIS_CODE":0,"TOWNNAME":"安平區","LI":"國平里","LIN":"17鄰","STREET":"府平路","SECT":" ","MAREA":" ","LANE":" ","ALLEY":" ","HOUSE_NO":"１２１之７號","E_COORD97":164978.62,"N_COORD97":2543031.8799999999,"ADDRESS":"府平路１２１之７號","OBJECTID":638921},"geometry":{"x":164978.62000000104,"y":2543031.8800000008}},{"attributes":{"ID":638949,"DIS_CODE":0,"TOWNNAME":"安平區","LI":"國平里","LIN":"17鄰","STREET":"府平路","SECT":" ","MAREA":" ","LANE":" ","ALLEY":" ","HOUSE_NO":"１２１之８號","E_COORD97":164979.81,"N_COORD97":2543036.4399999999,"ADDRESS":"府平路１２１之８號","OBJECTID":638922},"geometry":{"x":164979.81000000145,"y":2543036.4399999995}},{"attributes":{"ID":638950,"DIS_CODE":0,"TOWNNAME":"安平區","LI":"國平里","LIN":"17鄰","STREET":"府平路","SECT":" ","MAREA":" ","LANE":" ","ALLEY":" ","HOUSE_NO":"１２１之９號","E_COORD97":165002.85999999999,"N_COORD97":2543034.0600000001,"ADDRESS":"府平路１２１之９號","OBJECTID":638923},"geometry":{"x":165002.86000000127,"y":2543034.0600000005}},{"attributes":{"ID":638951,"DIS_CODE":0,"TOWNNAME":"安平區","LI":"怡平里","LIN":"9鄰","STREET":"建平十二街","SECT":" ","MAREA":" ","LANE":" ","ALLEY":" ","HOUSE_NO":"１４０號","E_COORD97":165802.07999999999,"N_COORD97":2544028.0699999998,"ADDRESS":"建平十二街１４０號","OBJECTID":638924},"geometry":{"x":165802.08000000007,"y":2544028.0700000022}},{"attributes":{"ID":638952,"DIS_CODE":0,"TOWNNAME":"安平區","LI":"國平里","LIN":"27鄰","STREET":"健康三街","SECT":" ","MAREA":" ","LANE":" ","ALLEY":" ","HOUSE_NO":"１７６號","E_COORD97":164765.13,"N_COORD97":2543247.6800000002,"ADDRESS":"健康三街１７６號","OBJECTID":638925},"geometry":{"x":164765.13000000082,"y":2543247.6800000016}},{"attributes":{"ID":638953,"DIS_CODE":0,"TOWNNAME":"安平區","LI":"國平里","LIN":"27鄰","STREET":"健康三街","SECT":" ","MAREA":" ","LANE":" ","ALLEY":" ","HOUSE_NO":"１７８號","E_COORD97":164765.25,"N_COORD97":2543255.7000000002,"ADDRESS":"健康三街１７８號","OBJECTID":638926},"geometry":{"x":164765.25000000186,"y":2543255.6999999974}},{"attributes":{"ID":638954,"DIS_CODE":0,"TOWNNAME":"新營區","LI":"新南里","LIN":"4鄰","STREET":"金華路","SECT":"二段","MAREA":" ","LANE":" ","ALLEY":" ","HOUSE_NO":"１１６號","E_COORD97":178629.41,"N_COORD97":2578778.6000000001,"ADDRESS":"金華路二段１１６號","OBJECTID":638927},"geometry":{"x":178629.41000000201,"y":2578778.6000000015}},{"attributes":{"ID":638955,"DIS_CODE":0,"TOWNNAME":"新營區","LI":"中營里","LIN":"4鄰","STREET":"新進路","SECT":" ","MAREA":" ","LANE":" ","ALLEY":" ","HOUSE_NO":"２０號","E_COORD97":180643.20999999999,"N_COORD97":2578339.3399999999,"ADDRESS":"新進路２０號","OBJECTID":638928},"geometry":{"x":180643.21000000089,"y":2578339.3400000036}},{"attributes":{"ID":638956,"DIS_CODE":0,"TOWNNAME":"新營區","LI":"興業里","LIN":" ","STREET":"中山路","SECT":" ","MAREA":" ","LANE":" ","ALLEY":" ","HOUSE_NO":"１１１號","E_COORD97":180365.75,"N_COORD97":2578249.8399999999,"ADDRESS":"中山路１１１號","OBJECTID":638929},"geometry":{"x":180365.75,"y":2578249.8399999999}},{"attributes":{"ID":638957,"DIS_CODE":0,"TOWNNAME":"安平區","LI":"西門里","LIN":"20鄰","STREET":"安北路","SECT":" ","MAREA":" ","LANE":" ","ALLEY":" ","HOUSE_NO":"４２３號","E_COORD97":163229.51999999999,"N_COORD97":2544534.4700000002,"ADDRESS":"安北路４２３號","OBJECTID":638930},"geometry":{"x":163229.52000000048,"y":2544534.4700000025}},{"attributes":{"ID":638958,"DIS_CODE":0,"TOWNNAME":"安平區","LI":"西門里","LIN":"20鄰","STREET":"安北路","SECT":" ","MAREA":" ","LANE":" ","ALLEY":" ","HOUSE_NO":"４２５號","E_COORD97":163226.28,"N_COORD97":2544532.1000000001,"ADDRESS":"安北路４２５號","OBJECTID":638931},"geometry":{"x":163226.28000000119,"y":2544532.1000000015}},{"attributes":{"ID":638959,"DIS_CODE":0,"TOWNNAME":"安平區","LI":"西門里","LIN":"20鄰","STREET":"安北路","SECT":" ","MAREA":" ","LANE":" ","ALLEY":" ","HOUSE_NO":"４３９號","E_COORD97":163197.09,"N_COORD97":2544519.1800000002,"ADDRESS":"安北路４３９號","OBJECTID":638932},"geometry":{"x":163197.09000000078,"y":2544519.1800000016}},{"attributes":{"ID":638960,"DIS_CODE":0,"TOWNNAME":"安平區","LI":"西門里","LIN":"20鄰","STREET":"安北路","SECT":" ","MAREA":" ","LANE":" ","ALLEY":" ","HOUSE_NO":"４４１號","E_COORD97":163193.57000000001,"N_COORD97":2544517.3199999998,"ADDRESS":"安北路４４１號","OBJECTID":638933},"geometry":{"x":163193.56999999937,"y":2544517.320000004}},{"attributes":{"ID":638961,"DIS_CODE":0,"TOWNNAME":"新營區","LI":"興安里","LIN":"13鄰","STREET":"延平路","SECT":" ","MAREA":" ","LANE":" ","ALLEY":" ","HOUSE_NO":"８７號","E_COORD97":179787.07999999999,"N_COORD97":2577695.52,"ADDRESS":"延平路８７號","OBJECTID":638934},"geometry":{"x":179787.08000000007,"y":2577695.5199999996}},{"attributes":{"ID":638962,"DIS_CODE":0,"TOWNNAME":"新營區","LI":"新北里","LIN":"13鄰","STREET":"周武街","SECT":" ","MAREA":" ","LANE":" ","ALLEY":" ","HOUSE_NO":"９５號","E_COORD97":179353.45000000001,"N_COORD97":2579019.8700000001,"ADDRESS":"周武街９５號","OBJECTID":638935},"geometry":{"x":179353.45000000112,"y":2579019.8700000029}},{"attributes":{"ID":638963,"DIS_CODE":0,"TOWNNAME":"新營區","LI":"三仙里","LIN":"17鄰","STREET":"三民路","SECT":" ","MAREA":" ","LANE":" ","ALLEY":" ","HOUSE_NO":"１０１號之１０","E_COORD97":179609.79000000001,"N_COORD97":2578374.1899999999,"ADDRESS":"三民路１０１號之１０","OBJECTID":638936},"geometry":{"x":179609.7900000019,"y":2578374.1900000013}},{"attributes":{"ID":638964,"DIS_CODE":0,"TOWNNAME":"新營區","LI":"新南里","LIN":"7鄰","STREET":"新北街","SECT":" ","MAREA":" ","LANE":" ","ALLEY":" ","HOUSE_NO":"２０５號","E_COORD97":178641.01999999999,"N_COORD97":2579050.9900000002,"ADDRESS":"新北街２０５號","OBJECTID":638937},"geometry":{"x":178641.01999999955,"y":2579050.9900000021}},{"attributes":{"ID":638965,"DIS_CODE":0,"TOWNNAME":"新營區","LI":"興業里","LIN":"19鄰","STREET":"中山路","SECT":" ","MAREA":" ","LANE":" ","ALLEY":" ","HOUSE_NO":"１０９之１號","E_COORD97":180387.79000000001,"N_COORD97":2578271.9399999999,"ADDRESS":"中山路１０９之１號","OBJECTID":638938},"geometry":{"x":180387.78999999911,"y":2578271.9400000013}},{"attributes":{"ID":638966,"DIS_CODE":0,"TOWNNAME":"新營區","LI":"王公里","LIN":"4鄰","STREET":"民治路","SECT":" ","MAREA":" ","LANE":" ","ALLEY":" ","HOUSE_NO":"２２號","E_COORD97":180300.09,"N_COORD97":2578892.46,"ADDRESS":"民治路２２號","OBJECTID":638939},"geometry":{"x":180300.08999999985,"y":2578892.4600000028}},{"attributes":{"ID":638967,"DIS_CODE":0,"TOWNNAME":"新營區","LI":"新南里","LIN":"4鄰","STREET":"新北三街","SECT":" ","MAREA":" ","LANE":" ","ALLEY":" ","HOUSE_NO":"５之３號","E_COORD97":178671.60000000001,"N_COORD97":2578827.1800000002,"ADDRESS":"新北三街５之３號","OBJECTID":638940},"geometry":{"x":178671.60000000149,"y":2578827.1799999997}},{"attributes":{"ID":638968,"DIS_CODE":0,"TOWNNAME":"新營區","LI":"新南里","LIN":"4鄰","STREET":"金華路","SECT":"二段","MAREA":" ","LANE":" ","ALLEY":" ","HOUSE_NO":"１１０號","E_COORD97":178639.69,"N_COORD97":2578788.52,"ADDRESS":"金華路二段１１０號","OBJECTID":638941},"geometry":{"x":178639.69000000227,"y":2578788.5200000033}},{"attributes":{"ID":638969,"DIS_CODE":0,"TOWNNAME":"新營區","LI":"民榮里","LIN":"4鄰","STREET":"濟安街","SECT":" ","MAREA":" ","LANE":" ","ALLEY":" ","HOUSE_NO":"４３號","E_COORD97":179347.34,"N_COORD97":2577930.1699999999,"ADDRESS":"濟安街４３號","OBJECTID":638942},"geometry":{"x":179347.34000000078,"y":2577930.1700000037}},{"attributes":{"ID":638970,"DIS_CODE":0,"TOWNNAME":"新營區","LI":"延平里","LIN":"1鄰","STREET":"延平路","SECT":" ","MAREA":" ","LANE":" ","ALLEY":" ","HOUSE_NO":"４６之１２９號","E_COORD97":179744.771301,"N_COORD97":2577765.7703200001,"ADDRESS":"延平路４６之１２９號","OBJECTID":638943},"geometry":{"x":179744.77130100224,"y":2577765.7703250013}},{"attributes":{"ID":638971,"DIS_CODE":0,"TOWNNAME":"新營區","LI":"新南里","LIN":"13鄰","STREET":"長榮路","SECT":"二段","MAREA":" ","LANE":" ","ALLEY":" ","HOUSE_NO":"７７９號","E_COORD97":178471.91,"N_COORD97":2579201.2999999998,"ADDRESS":"長榮路二段７７９號","OBJECTID":638944},"geometry":{"x":178471.91000000108,"y":2579201.2999999989}},{"attributes":{"ID":638972,"DIS_CODE":0,"TOWNNAME":"新營區","LI":"新南里","LIN":"4鄰","STREET":"新北三街","SECT":" ","MAREA":" ","LANE":" ","ALLEY":" ","HOUSE_NO":"３０之５號","E_COORD97":178580.95000000001,"N_COORD97":2578846.4500000002,"ADDRESS":"新北三街３０之５號","OBJECTID":638945},"geometry":{"x":178580.95000000019,"y":2578846.450000003}},{"attributes":{"ID":638973,"DIS_CODE":0,"TOWNNAME":"新營區","LI":"大宏里","LIN":" ","STREET":"民族路","SECT":" ","MAREA":" ","LANE":" ","ALLEY":" ","HOUSE_NO":"１０之１號","E_COORD97":180332.06,"N_COORD97":2578433.8900000001,"ADDRESS":"民族路１０之１號","OBJECTID":638946},"geometry":{"x":180332.06000000052,"y":2578433.8900000006}},{"attributes":{"ID":638974,"DIS_CODE":0,"TOWNNAME":"新營區","LI":"民生里","LIN":" ","STREET":"民生路","SECT":" ","MAREA":" ","LANE":" ","ALLEY":" ","HOUSE_NO":"１０５之９號","E_COORD97":179163.60999999999,"N_COORD97":2578529.1400000001,"ADDRESS":"民生路１０５之９號","OBJECTID":638947},"geometry":{"x":179163.61000000034,"y":2578529.1400000025}},{"attributes":{"ID":638975,"DIS_CODE":0,"TOWNNAME":"新營區","LI":"民生里","LIN":" ","STREET":"進修街","SECT":" ","MAREA":" ","LANE":" ","ALLEY":" ","HOUSE_NO":"１１之２０號","E_COORD97":179073.92000000001,"N_COORD97":2578381.1699999999,"ADDRESS":"進修街１１之２０號","OBJECTID":638948},"geometry":{"x":179073.92000000086,"y":2578381.1700000037}},{"attributes":{"ID":638976,"DIS_CODE":0,"TOWNNAME":"新營區","LI":"民生里","LIN":" ","STREET":"進修街","SECT":" ","MAREA":" ","LANE":" ","ALLEY":" ","HOUSE_NO":"２３之６號","E_COORD97":179110.85000000001,"N_COORD97":2578438.5800000001,"ADDRESS":"進修街２３之６號","OBJECTID":638949},"geometry":{"x":179110.85000000056,"y":2578438.5800000001}},{"attributes":{"ID":638977,"DIS_CODE":0,"TOWNNAME":"新營區","LI":"民榮里","LIN":"39鄰","STREET":"公園路","SECT":"二段","MAREA":" ","LANE":" ","ALLEY":" ","HOUSE_NO":"１６６號","E_COORD97":178325.14000000001,"N_COORD97":2577832.0899999999,"ADDRESS":"公園路二段１６６號","OBJECTID":638950},"geometry":{"x":178325.13999999966,"y":2577832.089999998}},{"attributes":{"ID":638978,"DIS_CODE":0,"TOWNNAME":"新營區","LI":"新南里","LIN":"4鄰","STREET":"新北三街","SECT":" ","MAREA":" ","LANE":" ","ALLEY":" ","HOUSE_NO":"１０之２號","E_COORD97":178636.14000000001,"N_COORD97":2578853.9399999999,"ADDRESS":"新北三街１０之２號","OBJECTID":638951},"geometry":{"x":178636.1400000006,"y":2578853.9400000013}},{"attributes":{"ID":638979,"DIS_CODE":0,"TOWNNAME":"新營區","LI":"王公里","LIN":"18鄰","STREET":"樂利街","SECT":" ","MAREA":" ","LANE":" ","ALLEY":" ","HOUSE_NO":"５９號","E_COORD97":180302.87,"N_COORD97":2579276.7400000002,"ADDRESS":"樂利街５９號","OBJECTID":638952},"geometry":{"x":180302.87000000104,"y":2579276.7400000021}},{"attributes":{"ID":638980,"DIS_CODE":0,"TOWNNAME":"新營區","LI":"民榮里","LIN":"39鄰","STREET":"公園路","SECT":"二段","MAREA":" ","LANE":" ","ALLEY":" ","HOUSE_NO":"１６８號","E_COORD97":178320.01000000001,"N_COORD97":2577829.8999999999,"ADDRESS":"公園路二段１６８號","OBJECTID":638953},"geometry":{"x":178320.01000000071,"y":2577829.9000000004}},{"attributes":{"ID":638981,"DIS_CODE":0,"TOWNNAME":"新營區","LI":"新南里","LIN":"4鄰","STREET":"金華路","SECT":"二段","MAREA":" ","LANE":" ","ALLEY":" ","HOUSE_NO":"１０２號","E_COORD97":178650.98999999999,"N_COORD97":2578798.4300000002,"ADDRESS":"金華路二段１０２號","OBJECTID":638954},"geometry":{"x":178650.99000000209,"y":2578798.4299999997}},{"attributes":{"ID":638982,"DIS_CODE":0,"TOWNNAME":"新營區","LI":"延平里","LIN":"1鄰","STREET":"延平路","SECT":" ","MAREA":" ","LANE":" ","ALLEY":" ","HOUSE_NO":"４６之１６１號","E_COORD97":179690.412965,"N_COORD97":2577782.9153100001,"ADDRESS":"延平路４６之１６１號","OBJECTID":638955},"geometry":{"x":179690.41296500061,"y":2577782.9153150041}},{"attributes":{"ID":638983,"DIS_CODE":0,"TOWNNAME":"新營區","LI":"延平里","LIN":" ","STREET":"復興路","SECT":" ","MAREA":" ","LANE":" ","ALLEY":" ","HOUSE_NO":"１之８３號","E_COORD97":179713.92999999999,"N_COORD97":2577935.1299999999,"ADDRESS":"復興路１之８３號","OBJECTID":638956},"geometry":{"x":179713.93000000063,"y":2577935.129999999}},{"attributes":{"ID":638984,"DIS_CODE":0,"TOWNNAME":"新營區","LI":"中營里","LIN":" ","STREET":"中山路","SECT":" ","MAREA":" ","LANE":" ","ALLEY":" ","HOUSE_NO":"２號","E_COORD97":180779.51000000001,"N_COORD97":2578442.7999999998,"ADDRESS":"中山路２號","OBJECTID":638957},"geometry":{"x":180779.51000000164,"y":2578442.8000000026}},{"attributes":{"ID":638985,"DIS_CODE":0,"TOWNNAME":"新營區","LI":"民生里","LIN":"6鄰","STREET":"民生路","SECT":" ","MAREA":" ","LANE":" ","ALLEY":" ","HOUSE_NO":"４０號之１","E_COORD97":179352.59,"N_COORD97":2578292.3399999999,"ADDRESS":"民生路４０號之１","OBJECTID":638958},"geometry":{"x":179352.58999999985,"y":2578292.3400000017}},{"attributes":{"ID":638986,"DIS_CODE":0,"TOWNNAME":"新營區","LI":"好平里","LIN":"4鄰","STREET":"長春街","SECT":" ","MAREA":" ","LANE":" ","ALLEY":" ","HOUSE_NO":"１４６號","E_COORD97":179538.29999999999,"N_COORD97":2577830.7000000002,"ADDRESS":"長春街１４６號","OBJECTID":638959},"geometry":{"x":179538.30000000168,"y":2577830.6999999974}},{"attributes":{"ID":638987,"DIS_CODE":0,"TOWNNAME":"新營區","LI":"民生里","LIN":"1鄰","STREET":"復興路","SECT":" ","MAREA":" ","LANE":" ","ALLEY":" ","HOUSE_NO":"１１０號之７","E_COORD97":179478.73999999999,"N_COORD97":2578116.77,"ADDRESS":"復興路１１０號之７","OBJECTID":638960},"geometry":{"x":179478.74000000115,"y":2578116.7700000014}},{"attributes":{"ID":638988,"DIS_CODE":0,"TOWNNAME":"新營區","LI":"大宏里","LIN":" ","STREET":"民族路","SECT":" ","MAREA":" ","LANE":" ","ALLEY":" ","HOUSE_NO":"１０之１１號","E_COORD97":180348.73000000001,"N_COORD97":2578448.21,"ADDRESS":"民族路１０之１１號","OBJECTID":638961},"geometry":{"x":180348.73000000138,"y":2578448.2100000009}},{"attributes":{"ID":638989,"DIS_CODE":0,"TOWNNAME":"新營區","LI":"永生里","LIN":"18鄰","STREET":"康樂街","SECT":" ","MAREA":" ","LANE":" ","ALLEY":" ","HOUSE_NO":"４７號","E_COORD97":179873.75,"N_COORD97":2577850.1499999999,"ADDRESS":"康樂街４７號","OBJECTID":638962},"geometry":{"x":179873.75,"y":2577850.1500000022}},{"attributes":{"ID":638990,"DIS_CODE":0,"TOWNNAME":"新營區","LI":"新東里","LIN":"13鄰","STREET":"東興六街","SECT":" ","MAREA":" ","LANE":" ","ALLEY":" ","HOUSE_NO":"１０５號","E_COORD97":181017.85999999999,"N_COORD97":2579243.4900000002,"ADDRESS":"東興六街１０５號","OBJECTID":638963},"geometry":{"x":181017.86000000034,"y":2579243.4900000002}},{"attributes":{"ID":638991,"DIS_CODE":0,"TOWNNAME":"新營區","LI":"新南里","LIN":"7鄰","STREET":"新北街","SECT":" ","MAREA":" ","LANE":" ","ALLEY":" ","HOUSE_NO":"２５７號","E_COORD97":178614.04999999999,"N_COORD97":2579186.2200000002,"ADDRESS":"新北街２５７號","OBJECTID":638964},"geometry":{"x":178614.04999999981,"y":2579186.2200000025}},{"attributes":{"ID":638992,"DIS_CODE":0,"TOWNNAME":"新營區","LI":"三仙里","LIN":"4鄰","STREET":"復興路","SECT":" ","MAREA":" ","LANE":" ","ALLEY":" ","HOUSE_NO":"４８號","E_COORD97":179611.79000000001,"N_COORD97":2578044.0899999999,"ADDRESS":"復興路４８號","OBJECTID":638965},"geometry":{"x":179611.79000000097,"y":2578044.0900000017}},{"attributes":{"ID":638993,"DIS_CODE":0,"TOWNNAME":"新營區","LI":"三仙里","LIN":"4鄰","STREET":"復興路","SECT":" ","MAREA":" ","LANE":" ","ALLEY":" ","HOUSE_NO":"５０號","E_COORD97":179605.60000000001,"N_COORD97":2578045.2200000002,"ADDRESS":"復興路５０號","OBJECTID":638966},"geometry":{"x":179605.60000000149,"y":2578045.2200000007}},{"attributes":{"ID":638994,"DIS_CODE":0,"TOWNNAME":"新營區","LI":"大宏里","LIN":" ","STREET":"大同路","SECT":" ","MAREA":" ","LANE":" ","ALLEY":" ","HOUSE_NO":"３０之１８號","E_COORD97":180724.95999999999,"N_COORD97":2578828.52,"ADDRESS":"大同路３０之１８號","OBJECTID":638967},"geometry":{"x":180724.95999999996,"y":2578828.5199999996}},{"attributes":{"ID":638995,"DIS_CODE":0,"TOWNNAME":"新營區","LI":"王公里","LIN":"18鄰","STREET":"樂利街","SECT":" ","MAREA":" ","LANE":" ","ALLEY":" ","HOUSE_NO":"４９號","E_COORD97":180281.44,"N_COORD97":2579275.73,"ADDRESS":"樂利街４９號","OBJECTID":638968},"geometry":{"x":180281.44000000041,"y":2579275.7300000004}},{"attributes":{"ID":638996,"DIS_CODE":0,"TOWNNAME":"新營區","LI":"大宏里","LIN":"13鄰","STREET":"文昌街","SECT":" ","MAREA":" ","LANE":" ","ALLEY":" ","HOUSE_NO":"４８號","E_COORD97":180256.42999999999,"N_COORD97":2578309.04,"ADDRESS":"文昌街４８號","OBJECTID":638969},"geometry":{"x":180256.43000000063,"y":2578309.0399999991}},{"attributes":{"ID":638997,"DIS_CODE":0,"TOWNNAME":"新營區","LI":"王公里","LIN":"4鄰","STREET":"民族路","SECT":" ","MAREA":" ","LANE":" ","ALLEY":" ","HOUSE_NO":"７４號","E_COORD97":180294.16,"N_COORD97":2578945.6499999999,"ADDRESS":"民族路７４號","OBJECTID":638970},"geometry":{"x":180294.16000000108,"y":2578945.6500000022}},{"attributes":{"ID":638998,"DIS_CODE":0,"TOWNNAME":"新營區","LI":"三仙里","LIN":"4鄰","STREET":"復興路","SECT":" ","MAREA":" ","LANE":" ","ALLEY":" ","HOUSE_NO":"３６號","E_COORD97":179647.53,"N_COORD97":2578029.52,"ADDRESS":"復興路３６號","OBJECTID":638971},"geometry":{"x":179647.53000000212,"y":2578029.5200000014}},{"attributes":{"ID":638999,"DIS_CODE":0,"TOWNNAME":"新營區","LI":"三仙里","LIN":" ","STREET":"復興路","SECT":" ","MAREA":" ","LANE":" ","ALLEY":" ","HOUSE_NO":"８６號","E_COORD97":179533.04999999999,"N_COORD97":2578052.21,"ADDRESS":"復興路８６號","OBJECTID":638972},"geometry":{"x":179533.04999999981,"y":2578052.2100000009}},{"attributes":{"ID":639000,"DIS_CODE":0,"TOWNNAME":"新營區","LI":"民生里","LIN":" ","STREET":"民生路","SECT":" ","MAREA":" ","LANE":" ","ALLEY":" ","HOUSE_NO":"１０５之５號","E_COORD97":179148.25,"N_COORD97":2578524.79,"ADDRESS":"民生路１０５之５號","OBJECTID":638973},"geometry":{"x":179148.25,"y":2578524.7899999991}},{"attributes":{"ID":639001,"DIS_CODE":0,"TOWNNAME":"新營區","LI":"民生里","LIN":"7鄰","STREET":"中華路","SECT":" ","MAREA":" ","LANE":" ","ALLEY":" ","HOUSE_NO":"８１號之５","E_COORD97":179347.82999999999,"N_COORD97":2578153.9300000002,"ADDRESS":"中華路８１號之５","OBJECTID":638974},"geometry":{"x":179347.83000000007,"y":2578153.9299999997}},{"attributes":{"ID":639002,"DIS_CODE":0,"TOWNNAME":"新營區","LI":"好平里","LIN":"4鄰","STREET":"長春街","SECT":" ","MAREA":" ","LANE":" ","ALLEY":" ","HOUSE_NO":"１４８號","E_COORD97":179531.20999999999,"N_COORD97":2577845.1299999999,"ADDRESS":"長春街１４８號","OBJECTID":638975},"geometry":{"x":179531.21000000089,"y":2577845.1300000008}},{"attributes":{"ID":639003,"DIS_CODE":0,"TOWNNAME":"新營區","LI":"民榮里","LIN":" ","STREET":"太子路","SECT":" ","MAREA":" ","LANE":" ","ALLEY":" ","HOUSE_NO":"１１８號","E_COORD97":178116.20999999999,"N_COORD97":2577992.5699999998,"ADDRESS":"太子路１１８號","OBJECTID":638976},"geometry":{"x":178116.20999999996,"y":2577992.5700000022}},{"attributes":{"ID":639004,"DIS_CODE":0,"TOWNNAME":"新營區","LI":"民生里","LIN":" ","STREET":"進修街","SECT":" ","MAREA":" ","LANE":" ","ALLEY":" ","HOUSE_NO":"１１之１６號","E_COORD97":179074.03,"N_COORD97":2578404.4199999999,"ADDRESS":"進修街１１之１６號","OBJECTID":638977},"geometry":{"x":179074.03000000026,"y":2578404.4200000018}},{"attributes":{"ID":639005,"DIS_CODE":0,"TOWNNAME":"新營區","LI":"民生里","LIN":"1鄰","STREET":"復興路","SECT":" ","MAREA":" ","LANE":" ","ALLEY":" ","HOUSE_NO":"１１０號之６","E_COORD97":179457.19,"N_COORD97":2578101.3700000001,"ADDRESS":"復興路１１０號之６","OBJECTID":638978},"geometry":{"x":179457.19000000134,"y":2578101.370000001}},{"attributes":{"ID":639006,"DIS_CODE":0,"TOWNNAME":"新營區","LI":"大宏里","LIN":" ","STREET":"民族路","SECT":" ","MAREA":" ","LANE":" ","ALLEY":" ","HOUSE_NO":"１０之３號","E_COORD97":180334.22,"N_COORD97":2578458.2400000002,"ADDRESS":"民族路１０之３號","OBJECTID":638979},"geometry":{"x":180334.22000000067,"y":2578458.2400000002}},{"attributes":{"ID":639007,"DIS_CODE":0,"TOWNNAME":"新營區","LI":"延平里","LIN":" ","STREET":"復興路","SECT":" ","MAREA":" ","LANE":" ","ALLEY":" ","HOUSE_NO":"１之７８號","E_COORD97":179713.92999999999,"N_COORD97":2577935.1299999999,"ADDRESS":"復興路１之７８號","OBJECTID":638980},"geometry":{"x":179713.93000000063,"y":2577935.129999999}},{"attributes":{"ID":639008,"DIS_CODE":0,"TOWNNAME":"新營區","LI":"新南里","LIN":"20鄰","STREET":"復興路","SECT":" ","MAREA":" ","LANE":" ","ALLEY":" ","HOUSE_NO":"３６０號","E_COORD97":178573.44,"N_COORD97":2578184.1699999999,"ADDRESS":"復興路３６０號","OBJECTID":638981},"geometry":{"x":178573.44000000227,"y":2578184.1699999999}},{"attributes":{"ID":639009,"DIS_CODE":0,"TOWNNAME":"新營區","LI":"新東里","LIN":"13鄰","STREET":"東興六街","SECT":" ","MAREA":" ","LANE":" ","ALLEY":" ","HOUSE_NO":"９３號","E_COORD97":180982.79999999999,"N_COORD97":2579238.1099999999,"ADDRESS":"東興六街９３號","OBJECTID":638982},"geometry":{"x":180982.80000000075,"y":2579238.1099999994}},{"attributes":{"ID":639010,"DIS_CODE":0,"TOWNNAME":"新營區","LI":"新北里","LIN":"13鄰","STREET":"金華路","SECT":"一段","MAREA":" ","LANE":" ","ALLEY":" ","HOUSE_NO":"２９９號","E_COORD97":179155.17000000001,"N_COORD97":2579195.7999999998,"ADDRESS":"金華路一段２９９號","OBJECTID":638983},"geometry":{"x":179155.17000000086,"y":2579195.8000000026}},{"attributes":{"ID":639011,"DIS_CODE":0,"TOWNNAME":"新營區","LI":"民生里","LIN":" ","STREET":"民生路","SECT":" ","MAREA":" ","LANE":" ","ALLEY":" ","HOUSE_NO":"１２１號","E_COORD97":179236.89999999999,"N_COORD97":2578547.5600000001,"ADDRESS":"民生路１２１號","OBJECTID":638984},"geometry":{"x":179236.9000000013,"y":2578547.5600000005}},{"attributes":{"ID":639012,"DIS_CODE":0,"TOWNNAME":"新營區","LI":"民生里","LIN":" ","STREET":"進修街","SECT":" ","MAREA":" ","LANE":" ","ALLEY":" ","HOUSE_NO":"１１之２５號","E_COORD97":179085.25,"N_COORD97":2578398.8300000001,"ADDRESS":"進修街１１之２５號","OBJECTID":638985},"geometry":{"x":179085.25000000093,"y":2578398.8300000019}},{"attributes":{"ID":639013,"DIS_CODE":0,"TOWNNAME":"新營區","LI":"好平里","LIN":" ","STREET":"新進路","SECT":"二段","MAREA":" ","LANE":" ","ALLEY":" ","HOUSE_NO":"１１８號","E_COORD97":179440.69,"N_COORD97":2577739.25,"ADDRESS":"新進路二段１１８號","OBJECTID":638986},"geometry":{"x":179440.69000000041,"y":2577739.25}},{"attributes":{"ID":639014,"DIS_CODE":0,"TOWNNAME":"新營區","LI":"民生里","LIN":"1鄰","STREET":"復興路","SECT":" ","MAREA":" ","LANE":" ","ALLEY":" ","HOUSE_NO":"１１０號之３","E_COORD97":179473.56,"N_COORD97":2578102.3999999999,"ADDRESS":"復興路１１０號之３","OBJECTID":638987},"geometry":{"x":179473.56000000145,"y":2578102.4000000022}},{"attributes":{"ID":639015,"DIS_CODE":0,"TOWNNAME":"新營區","LI":"三仙里","LIN":"18鄰","STREET":"三民路","SECT":" ","MAREA":" ","LANE":" ","ALLEY":" ","HOUSE_NO":"１３６之１５號","E_COORD97":179641.07999999999,"N_COORD97":2578437.1699999999,"ADDRESS":"三民路１３６之１５號","OBJECTID":638988},"geometry":{"x":179641.08000000007,"y":2578437.1699999999}},{"attributes":{"ID":639016,"DIS_CODE":0,"TOWNNAME":"新營區","LI":"新南里","LIN":"7鄰","STREET":"新北街","SECT":" ","MAREA":" ","LANE":" ","ALLEY":" ","HOUSE_NO":"２３１號","E_COORD97":178625.01999999999,"N_COORD97":2579127.4700000002,"ADDRESS":"新北街２３１號","OBJECTID":638989},"geometry":{"x":178625.02000000048,"y":2579127.4700000007}},{"attributes":{"ID":639017,"DIS_CODE":0,"TOWNNAME":"新營區","LI":"埤寮里","LIN":"4鄰","STREET":"建國路","SECT":" ","MAREA":" ","LANE":" ","ALLEY":" ","HOUSE_NO":"１０２號","E_COORD97":179775.62,"N_COORD97":2581066.6600000001,"ADDRESS":"建國路１０２號","OBJECTID":638990},"geometry":{"x":179775.62000000197,"y":2581066.6600000039}},{"attributes":{"ID":639018,"DIS_CODE":0,"TOWNNAME":"新營區","LI":"大宏里","LIN":"4鄰","STREET":"綠川北街","SECT":" ","MAREA":" ","LANE":" ","ALLEY":" ","HOUSE_NO":"１２６號","E_COORD97":180233.70000000001,"N_COORD97":2578662.4300000002,"ADDRESS":"綠川北街１２６號","OBJECTID":638991},"geometry":{"x":180233.70000000019,"y":2578662.4299999997}},{"attributes":{"ID":639019,"DIS_CODE":0,"TOWNNAME":"新營區","LI":"大宏里","LIN":"4鄰","STREET":"綠川北街","SECT":" ","MAREA":" ","LANE":" ","ALLEY":" ","HOUSE_NO":"１２１號","E_COORD97":180256.23999999999,"N_COORD97":2578670.0800000001,"ADDRESS":"綠川北街１２１號","OBJECTID":638992},"geometry":{"x":180256.24000000209,"y":2578670.0800000038}},{"attributes":{"ID":639020,"DIS_CODE":0,"TOWNNAME":"新營區","LI":"大宏里","LIN":" ","STREET":"三民路","SECT":" ","MAREA":" ","LANE":" ","ALLEY":" ","HOUSE_NO":"４１之６號","E_COORD97":180384.39999999999,"N_COORD97":2578451.3599999999,"ADDRESS":"三民路４１之６號","OBJECTID":638993},"geometry":{"x":180384.4000000013,"y":2578451.3600000013}},{"attributes":{"ID":639021,"DIS_CODE":0,"TOWNNAME":"新營區","LI":"民生里","LIN":" ","STREET":"民生路","SECT":" ","MAREA":" ","LANE":" ","ALLEY":" ","HOUSE_NO":"６９之２號","E_COORD97":179214.34,"N_COORD97":2578487.9100000001,"ADDRESS":"民生路６９之２號","OBJECTID":638994},"geometry":{"x":179214.34000000171,"y":2578487.9100000001}},{"attributes":{"ID":639022,"DIS_CODE":0,"TOWNNAME":"新營區","LI":"新北里","LIN":" ","STREET":"新北街","SECT":" ","MAREA":" ","LANE":" ","ALLEY":" ","HOUSE_NO":"３６號","E_COORD97":178864.14000000001,"N_COORD97":2578698.8399999999,"ADDRESS":"新北街３６號","OBJECTID":638995},"geometry":{"x":178864.13999999966,"y":2578698.8400000036}},{"attributes":{"ID":639023,"DIS_CODE":0,"TOWNNAME":"新營區","LI":"民生里","LIN":"1鄰","STREET":"復興路","SECT":" ","MAREA":" ","LANE":" ","ALLEY":" ","HOUSE_NO":"１１０號之４","E_COORD97":179466.39000000001,"N_COORD97":2578101.3300000001,"ADDRESS":"復興路１１０號之４","OBJECTID":638996},"geometry":{"x":179466.39000000153,"y":2578101.3300000001}},{"attributes":{"ID":639024,"DIS_CODE":0,"TOWNNAME":"新營區","LI":"新東里","LIN":" ","STREET":"東大路","SECT":" ","MAREA":" ","LANE":" ","ALLEY":" ","HOUSE_NO":"５０號","E_COORD97":181013.06,"N_COORD97":2579134.9700000002,"ADDRESS":"東大路５０號","OBJECTID":638997},"geometry":{"x":181013.06000000052,"y":2579134.9700000007}},{"attributes":{"ID":639025,"DIS_CODE":0,"TOWNNAME":"新營區","LI":"三仙里","LIN":"4鄰","STREET":"復興路","SECT":" ","MAREA":" ","LANE":" ","ALLEY":" ","HOUSE_NO":"３４號","E_COORD97":179650.59,"N_COORD97":2578028.3999999999,"ADDRESS":"復興路３４號","OBJECTID":638998},"geometry":{"x":179650.59000000078,"y":2578028.4000000022}},{"attributes":{"ID":639026,"DIS_CODE":0,"TOWNNAME":"新營區","LI":"新南里","LIN":"4鄰","STREET":"新北三街","SECT":" ","MAREA":" ","LANE":" ","ALLEY":" ","HOUSE_NO":"５之２號","E_COORD97":178669.57000000001,"N_COORD97":2578831.6200000001,"ADDRESS":"新北三街５之２號","OBJECTID":638999},"geometry":{"x":178669.57000000123,"y":2578831.6200000029}},{"attributes":{"ID":639027,"DIS_CODE":0,"TOWNNAME":"新營區","LI":"延平里","LIN":"1鄰","STREET":"延平路","SECT":" ","MAREA":" ","LANE":" ","ALLEY":" ","HOUSE_NO":"４６之１６３號","E_COORD97":179682.46583999999,"N_COORD97":2577781.14261,"ADDRESS":"延平路４６之１６３號","OBJECTID":639000},"geometry":{"x":179682.46584000066,"y":2577781.1426080018}}]}