{"displayFieldName":"TOWNNAME","fieldAliases":{"ID":"ID","DIS_CODE":"DIS_CODE","TOWNNAME":"TOWNNAME","LI":"LI","LIN":"LIN","STREET":"STREET","SECT":"SECT","MAREA":"MAREA","LANE":"LANE","ALLEY":"ALLEY","HOUSE_NO":"HOUSE_NO","E_COORD97":"E_COORD97","N_COORD97":"N_COORD97","ADDRESS":"ADDRESS","OBJECTID":"OBJECTID"},"geometryType":"esriGeometryPoint","spatialReference":{"wkid":102443,"latestWkid":3826},"fields":[{"name":"ID","type":"esriFieldTypeDouble","alias":"ID"},{"name":"DIS_CODE","type":"esriFieldTypeInteger","alias":"DIS_CODE"},{"name":"TOWNNAME","type":"esriFieldTypeString","alias":"TOWNNAME","length":8},{"name":"LI","type":"esriFieldTypeString","alias":"LI","length":8},{"name":"LIN","type":"esriFieldTypeString","alias":"LIN","length":12},{"name":"STREET","type":"esriFieldTypeString","alias":"STREET","length":20},{"name":"SECT","type":"esriFieldTypeString","alias":"SECT","length":8},{"name":"MAREA","type":"esriFieldTypeString","alias":"MAREA","length":12},{"name":"LANE","type":"esriFieldTypeString","alias":"LANE","length":10},{"name":"ALLEY","type":"esriFieldTypeString","alias":"ALLEY","length":10},{"name":"HOUSE_NO","type":"esriFieldTypeString","alias":"HOUSE_NO","length":20},{"name":"E_COORD97","type":"esriFieldTypeDouble","alias":"E_COORD97"},{"name":"N_COORD97","type":"esriFieldTypeDouble","alias":"N_COORD97"},{"name":"ADDRESS","type":"esriFieldTypeString","alias":"ADDRESS","length":50},{"name":"OBJECTID","type":"esriFieldTypeOID","alias":"OBJECTID"}],"features":[{"attributes":{"ID":618228,"DIS_CODE":0,"TOWNNAME":"安南區","LI":"城北里","LIN":"2鄰","STREET":"城北路","SECT":" ","MAREA":" ","LANE":" ","ALLEY":" ","HOUSE_NO":"８４號","E_COORD97":160990.53,"N_COORD97":2551562.9199999999,"ADDRESS":"城北路８４號","OBJECTID":618201},"geometry":{"x":160990.53000000119,"y":2551562.9200000018}},{"attributes":{"ID":618229,"DIS_CODE":0,"TOWNNAME":"中西區","LI":"永福里","LIN":"2鄰","STREET":"友愛街","SECT":" ","MAREA":" ","LANE":" ","ALLEY":" ","HOUSE_NO":"４６號之１","E_COORD97":168102.72,"N_COORD97":2543532.1899999999,"ADDRESS":"友愛街４６號之１","OBJECTID":618202},"geometry":{"x":168102.71999999974,"y":2543532.1900000013}},{"attributes":{"ID":618230,"DIS_CODE":0,"TOWNNAME":"中西區","LI":"永福里","LIN":"2鄰","STREET":"友愛街","SECT":" ","MAREA":" ","LANE":" ","ALLEY":" ","HOUSE_NO":"４８號","E_COORD97":168097.66,"N_COORD97":2543537.5800000001,"ADDRESS":"友愛街４８號","OBJECTID":618203},"geometry":{"x":168097.66000000108,"y":2543537.5800000001}},{"attributes":{"ID":618231,"DIS_CODE":0,"TOWNNAME":"中西區","LI":"永福里","LIN":"2鄰","STREET":"友愛街","SECT":" ","MAREA":" ","LANE":" ","ALLEY":" ","HOUSE_NO":"５０號","E_COORD97":168092.59,"N_COORD97":2543538.6000000001,"ADDRESS":"友愛街５０號","OBJECTID":618204},"geometry":{"x":168092.59000000078,"y":2543538.6000000034}},{"attributes":{"ID":618232,"DIS_CODE":0,"TOWNNAME":"中西區","LI":"永福里","LIN":"2鄰","STREET":"友愛街","SECT":" ","MAREA":" ","LANE":" ","ALLEY":" ","HOUSE_NO":"５２號","E_COORD97":168073.01000000001,"N_COORD97":2543538.2599999998,"ADDRESS":"友愛街５２號","OBJECTID":618205},"geometry":{"x":168073.01000000071,"y":2543538.2600000016}},{"attributes":{"ID":618233,"DIS_CODE":0,"TOWNNAME":"中西區","LI":"永福里","LIN":"2鄰","STREET":"友愛街","SECT":" ","MAREA":" ","LANE":" ","ALLEY":" ","HOUSE_NO":"５４號","E_COORD97":168060.51999999999,"N_COORD97":2543543.4900000002,"ADDRESS":"友愛街５４號","OBJECTID":618206},"geometry":{"x":168060.52000000048,"y":2543543.4900000021}},{"attributes":{"ID":618234,"DIS_CODE":0,"TOWNNAME":"中西區","LI":"永福里","LIN":"2鄰","STREET":"府前路","SECT":"一段","MAREA":" ","LANE":" ","ALLEY":" ","HOUSE_NO":"２５８號","E_COORD97":168061.82999999999,"N_COORD97":2543405.0600000001,"ADDRESS":"府前路一段２５８號","OBJECTID":618207},"geometry":{"x":168061.83000000007,"y":2543405.0600000024}},{"attributes":{"ID":618235,"DIS_CODE":0,"TOWNNAME":"中西區","LI":"永福里","LIN":"2鄰","STREET":"府前路","SECT":"一段","MAREA":" ","LANE":" ","ALLEY":" ","HOUSE_NO":"２６０號","E_COORD97":168050.69,"N_COORD97":2543427.1400000001,"ADDRESS":"府前路一段２６０號","OBJECTID":618208},"geometry":{"x":168050.69000000041,"y":2543427.1400000043}},{"attributes":{"ID":618236,"DIS_CODE":0,"TOWNNAME":"中西區","LI":"永福里","LIN":"2鄰","STREET":"忠義路","SECT":"二段","MAREA":" ","LANE":" ","ALLEY":" ","HOUSE_NO":"１號","E_COORD97":168200.28,"N_COORD97":2543410.9300000002,"ADDRESS":"忠義路二段１號","OBJECTID":618209},"geometry":{"x":168200.28000000119,"y":2543410.9300000034}},{"attributes":{"ID":618237,"DIS_CODE":0,"TOWNNAME":"中西區","LI":"天后里","LIN":"2鄰","STREET":"民權路","SECT":"二段","MAREA":" ","LANE":" ","ALLEY":" ","HOUSE_NO":"２０２號","E_COORD97":168156.92000000001,"N_COORD97":2544015.6000000001,"ADDRESS":"民權路二段２０２號","OBJECTID":618210},"geometry":{"x":168156.92000000086,"y":2544015.5999999996}},{"attributes":{"ID":618238,"DIS_CODE":0,"TOWNNAME":"中西區","LI":"天后里","LIN":"2鄰","STREET":"民權路","SECT":"二段","MAREA":" ","LANE":" ","ALLEY":" ","HOUSE_NO":"２０４號","E_COORD97":168142.85999999999,"N_COORD97":2544024.8199999998,"ADDRESS":"民權路二段２０４號","OBJECTID":618211},"geometry":{"x":168142.86000000034,"y":2544024.8200000003}},{"attributes":{"ID":618239,"DIS_CODE":0,"TOWNNAME":"中西區","LI":"天后里","LIN":"2鄰","STREET":"民權路","SECT":"二段","MAREA":" ","LANE":" ","ALLEY":" ","HOUSE_NO":"２０６號","E_COORD97":168139.34,"N_COORD97":2544025.7000000002,"ADDRESS":"民權路二段２０６號","OBJECTID":618212},"geometry":{"x":168139.33999999985,"y":2544025.700000003}},{"attributes":{"ID":618240,"DIS_CODE":0,"TOWNNAME":"中西區","LI":"天后里","LIN":"2鄰","STREET":"民權路","SECT":"二段","MAREA":" ","LANE":" ","ALLEY":" ","HOUSE_NO":"２０８號","E_COORD97":168135.67999999999,"N_COORD97":2544027.3100000001,"ADDRESS":"民權路二段２０８號","OBJECTID":618213},"geometry":{"x":168135.68000000063,"y":2544027.3100000024}},{"attributes":{"ID":618241,"DIS_CODE":0,"TOWNNAME":"中西區","LI":"天后里","LIN":"2鄰","STREET":"民權路","SECT":"二段","MAREA":" ","LANE":" ","ALLEY":" ","HOUSE_NO":"２１０號","E_COORD97":168131.85999999999,"N_COORD97":2544029.6499999999,"ADDRESS":"民權路二段２１０號","OBJECTID":618214},"geometry":{"x":168131.86000000127,"y":2544029.6500000004}},{"attributes":{"ID":618242,"DIS_CODE":0,"TOWNNAME":"中西區","LI":"天后里","LIN":"2鄰","STREET":"民權路","SECT":"二段","MAREA":" ","LANE":" ","ALLEY":" ","HOUSE_NO":"２１０號之１","E_COORD97":168128.35000000001,"N_COORD97":2544029.9399999999,"ADDRESS":"民權路二段２１０號之１","OBJECTID":618215},"geometry":{"x":168128.34999999963,"y":2544029.9399999995}},{"attributes":{"ID":618243,"DIS_CODE":0,"TOWNNAME":"中西區","LI":"天后里","LIN":"2鄰","STREET":"民權路","SECT":"二段","MAREA":" ","LANE":" ","ALLEY":" ","HOUSE_NO":"２１２號","E_COORD97":168125.26999999999,"N_COORD97":2544031.8500000001,"ADDRESS":"民權路二段２１２號","OBJECTID":618216},"geometry":{"x":168125.27000000048,"y":2544031.8500000034}},{"attributes":{"ID":618244,"DIS_CODE":0,"TOWNNAME":"中西區","LI":"天后里","LIN":"2鄰","STREET":"民權路","SECT":"二段","MAREA":" ","LANE":" ","ALLEY":" ","HOUSE_NO":"２１４號","E_COORD97":168120.72,"N_COORD97":2544032.1400000001,"ADDRESS":"民權路二段２１４號","OBJECTID":618217},"geometry":{"x":168120.72000000067,"y":2544032.1400000025}},{"attributes":{"ID":618245,"DIS_CODE":0,"TOWNNAME":"中西區","LI":"天后里","LIN":"2鄰","STREET":"民權路","SECT":"二段","MAREA":" ","LANE":" ","ALLEY":" ","HOUSE_NO":"２１６號","E_COORD97":168113.69,"N_COORD97":2544035.2200000002,"ADDRESS":"民權路二段２１６號","OBJECTID":618218},"geometry":{"x":168113.69000000041,"y":2544035.2200000025}},{"attributes":{"ID":618246,"DIS_CODE":0,"TOWNNAME":"中西區","LI":"天后里","LIN":"2鄰","STREET":"民權路","SECT":"二段","MAREA":" ","LANE":" ","ALLEY":" ","HOUSE_NO":"２２０號","E_COORD97":168109.88,"N_COORD97":2544036.9700000002,"ADDRESS":"民權路二段２２０號","OBJECTID":618219},"geometry":{"x":168109.87999999989,"y":2544036.9700000025}},{"attributes":{"ID":618247,"DIS_CODE":0,"TOWNNAME":"中西區","LI":"天后里","LIN":"2鄰","STREET":"民權路","SECT":"二段","MAREA":" ","LANE":" ","ALLEY":" ","HOUSE_NO":"２２２號","E_COORD97":168103.72,"N_COORD97":2544037.4100000001,"ADDRESS":"民權路二段２２２號","OBJECTID":618220},"geometry":{"x":168103.72000000067,"y":2544037.4100000001}},{"attributes":{"ID":618248,"DIS_CODE":0,"TOWNNAME":"中西區","LI":"天后里","LIN":"2鄰","STREET":"民權路","SECT":"二段","MAREA":" ","LANE":" ","ALLEY":" ","HOUSE_NO":"２２４號","E_COORD97":168098.73000000001,"N_COORD97":2544041.8100000001,"ADDRESS":"民權路二段２２４號","OBJECTID":618221},"geometry":{"x":168098.73000000231,"y":2544041.8100000005}},{"attributes":{"ID":618249,"DIS_CODE":0,"TOWNNAME":"中西區","LI":"天后里","LIN":"2鄰","STREET":"民權路","SECT":"二段","MAREA":" ","LANE":" ","ALLEY":" ","HOUSE_NO":"２２６號","E_COORD97":168095.64999999999,"N_COORD97":2544042.6800000002,"ADDRESS":"民權路二段２２６號","OBJECTID":618222},"geometry":{"x":168095.65000000224,"y":2544042.6799999997}},{"attributes":{"ID":618250,"DIS_CODE":0,"TOWNNAME":"中西區","LI":"天后里","LIN":"2鄰","STREET":"永福路","SECT":"二段","MAREA":" ","LANE":" ","ALLEY":" ","HOUSE_NO":"１９３號","E_COORD97":168154.54000000001,"N_COORD97":2544030.3900000001,"ADDRESS":"永福路二段１９３號","OBJECTID":618223},"geometry":{"x":168154.54000000097,"y":2544030.3900000025}},{"attributes":{"ID":618251,"DIS_CODE":0,"TOWNNAME":"中西區","LI":"天后里","LIN":"2鄰","STREET":"永福路","SECT":"二段","MAREA":" ","LANE":" ","ALLEY":" ","HOUSE_NO":"１９５號","E_COORD97":168160.70000000001,"N_COORD97":2544032,"ADDRESS":"永福路二段１９５號","OBJECTID":618224},"geometry":{"x":168160.70000000019,"y":2544032.0000000019}},{"attributes":{"ID":618252,"DIS_CODE":0,"TOWNNAME":"中西區","LI":"天后里","LIN":"2鄰","STREET":"永福路","SECT":"二段","MAREA":" ","LANE":" ","ALLEY":" ","HOUSE_NO":"１９９號","E_COORD97":168164.79999999999,"N_COORD97":2544039.1699999999,"ADDRESS":"永福路二段１９９號","OBJECTID":618225},"geometry":{"x":168164.79999999981,"y":2544039.1699999999}},{"attributes":{"ID":618253,"DIS_CODE":0,"TOWNNAME":"中西區","LI":"天后里","LIN":"2鄰","STREET":"永福路","SECT":"二段","MAREA":" ","LANE":" ","ALLEY":" ","HOUSE_NO":"２０１號","E_COORD97":168166.12,"N_COORD97":2544043.4199999999,"ADDRESS":"永福路二段２０１號","OBJECTID":618226},"geometry":{"x":168166.12000000011,"y":2544043.4199999999}},{"attributes":{"ID":618254,"DIS_CODE":0,"TOWNNAME":"中西區","LI":"天后里","LIN":"2鄰","STREET":"永福路","SECT":"二段","MAREA":" ","LANE":" ","ALLEY":" ","HOUSE_NO":"２０３號","E_COORD97":168168.32000000001,"N_COORD97":2544047.0800000001,"ADDRESS":"永福路二段２０３號","OBJECTID":618227},"geometry":{"x":168168.3200000003,"y":2544047.0800000001}},{"attributes":{"ID":618255,"DIS_CODE":0,"TOWNNAME":"中西區","LI":"天后里","LIN":"2鄰","STREET":"永福路","SECT":"二段","MAREA":" ","LANE":" ","ALLEY":" ","HOUSE_NO":"２０５號","E_COORD97":168169.20000000001,"N_COORD97":2544050.6000000001,"ADDRESS":"永福路二段２０５號","OBJECTID":618228},"geometry":{"x":168169.20000000019,"y":2544050.6000000015}},{"attributes":{"ID":618256,"DIS_CODE":0,"TOWNNAME":"中西區","LI":"法華里","LIN":"2鄰","STREET":"大同路","SECT":"一段","MAREA":" ","LANE":" ","ALLEY":" ","HOUSE_NO":"１４２號","E_COORD97":169106.79999999999,"N_COORD97":2542759.1800000002,"ADDRESS":"大同路一段１４２號","OBJECTID":618229},"geometry":{"x":169106.80000000075,"y":2542759.1800000016}},{"attributes":{"ID":618257,"DIS_CODE":0,"TOWNNAME":"中西區","LI":"法華里","LIN":"2鄰","STREET":"大同路","SECT":"一段","MAREA":" ","LANE":" ","ALLEY":" ","HOUSE_NO":"１４４號","E_COORD97":169107.12,"N_COORD97":2542752.6899999999,"ADDRESS":"大同路一段１４４號","OBJECTID":618230},"geometry":{"x":169107.12000000011,"y":2542752.6900000013}},{"attributes":{"ID":618258,"DIS_CODE":0,"TOWNNAME":"中西區","LI":"法華里","LIN":"2鄰","STREET":"大同路","SECT":"一段","MAREA":" ","LANE":" ","ALLEY":" ","HOUSE_NO":"１４６號","E_COORD97":169107.45000000001,"N_COORD97":2542746.8500000001,"ADDRESS":"大同路一段１４６號","OBJECTID":618231},"geometry":{"x":169107.45000000112,"y":2542746.8500000034}},{"attributes":{"ID":618259,"DIS_CODE":0,"TOWNNAME":"中西區","LI":"法華里","LIN":"2鄰","STREET":"大同路","SECT":"一段","MAREA":" ","LANE":" ","ALLEY":" ","HOUSE_NO":"１４８號","E_COORD97":169106.47,"N_COORD97":2542737.4399999999,"ADDRESS":"大同路一段１４８號","OBJECTID":618232},"geometry":{"x":169106.46999999881,"y":2542737.4400000013}},{"attributes":{"ID":618260,"DIS_CODE":0,"TOWNNAME":"中西區","LI":"法華里","LIN":"2鄰","STREET":"大同路","SECT":"一段","MAREA":" ","LANE":" ","ALLEY":" ","HOUSE_NO":"１５０號","E_COORD97":169107.12,"N_COORD97":2542730.9500000002,"ADDRESS":"大同路一段１５０號","OBJECTID":618233},"geometry":{"x":169107.12000000011,"y":2542730.9499999993}},{"attributes":{"ID":618261,"DIS_CODE":0,"TOWNNAME":"中西區","LI":"法華里","LIN":"2鄰","STREET":"大同路","SECT":"一段","MAREA":" ","LANE":" ","ALLEY":" ","HOUSE_NO":"１５２號","E_COORD97":169107.12,"N_COORD97":2542727.0499999998,"ADDRESS":"大同路一段１５２號","OBJECTID":618234},"geometry":{"x":169107.12000000011,"y":2542727.0500000026}},{"attributes":{"ID":618262,"DIS_CODE":0,"TOWNNAME":"中西區","LI":"法華里","LIN":"2鄰","STREET":"府連路","SECT":" ","MAREA":" ","LANE":" ","ALLEY":" ","HOUSE_NO":"１１０號","E_COORD97":169070.39999999999,"N_COORD97":2542695.9700000002,"ADDRESS":"府連路１１０號","OBJECTID":618235},"geometry":{"x":169070.40000000224,"y":2542695.9699999988}},{"attributes":{"ID":618263,"DIS_CODE":0,"TOWNNAME":"中西區","LI":"法華里","LIN":"2鄰","STREET":"府連路","SECT":" ","MAREA":" ","LANE":" ","ALLEY":" ","HOUSE_NO":"１１４號","E_COORD97":169075.26999999999,"N_COORD97":2542703.7599999998,"ADDRESS":"府連路１１４號","OBJECTID":618236},"geometry":{"x":169075.26999999955,"y":2542703.7600000016}},{"attributes":{"ID":618264,"DIS_CODE":0,"TOWNNAME":"中西區","LI":"法華里","LIN":"2鄰","STREET":"府連路","SECT":" ","MAREA":" ","LANE":" ","ALLEY":" ","HOUSE_NO":"１１６號","E_COORD97":169076.89999999999,"N_COORD97":2542706.6800000002,"ADDRESS":"府連路１１６號","OBJECTID":618237},"geometry":{"x":169076.90000000037,"y":2542706.6799999997}},{"attributes":{"ID":618265,"DIS_CODE":0,"TOWNNAME":"中西區","LI":"法華里","LIN":"2鄰","STREET":"府連路","SECT":" ","MAREA":" ","LANE":" ","ALLEY":" ","HOUSE_NO":"１１８號","E_COORD97":169080.79999999999,"N_COORD97":2542708.9500000002,"ADDRESS":"府連路１１８號","OBJECTID":618238},"geometry":{"x":169080.80000000168,"y":2542708.9500000011}},{"attributes":{"ID":618266,"DIS_CODE":0,"TOWNNAME":"中西區","LI":"法華里","LIN":"2鄰","STREET":"府連路","SECT":" ","MAREA":" ","LANE":" ","ALLEY":" ","HOUSE_NO":"１２０號","E_COORD97":169081.45000000001,"N_COORD97":2542713.4900000002,"ADDRESS":"府連路１２０號","OBJECTID":618239},"geometry":{"x":169081.45000000019,"y":2542713.4900000021}},{"attributes":{"ID":618267,"DIS_CODE":0,"TOWNNAME":"中西區","LI":"法華里","LIN":"2鄰","STREET":"府連路","SECT":" ","MAREA":" ","LANE":" ","ALLEY":" ","HOUSE_NO":"１２２號","E_COORD97":169084.04999999999,"N_COORD97":2542716.4100000001,"ADDRESS":"府連路１２２號","OBJECTID":618240},"geometry":{"x":169084.05000000168,"y":2542716.4100000039}},{"attributes":{"ID":618268,"DIS_CODE":0,"TOWNNAME":"中西區","LI":"法華里","LIN":"2鄰","STREET":"府連路","SECT":" ","MAREA":" ","LANE":" ","ALLEY":" ","HOUSE_NO":"１２４號","E_COORD97":169085.01999999999,"N_COORD97":2542719.6600000001,"ADDRESS":"府連路１２４號","OBJECTID":618241},"geometry":{"x":169085.01999999955,"y":2542719.660000002}},{"attributes":{"ID":618269,"DIS_CODE":0,"TOWNNAME":"中西區","LI":"法華里","LIN":"2鄰","STREET":"府連路","SECT":" ","MAREA":" ","LANE":" ","ALLEY":" ","HOUSE_NO":"１２６號","E_COORD97":169086.32000000001,"N_COORD97":2542723.23,"ADDRESS":"府連路１２６號","OBJECTID":618242},"geometry":{"x":169086.32000000123,"y":2542723.2300000004}},{"attributes":{"ID":618270,"DIS_CODE":0,"TOWNNAME":"中西區","LI":"法華里","LIN":"2鄰","STREET":"府連路","SECT":" ","MAREA":" ","LANE":" ","ALLEY":" ","HOUSE_NO":"１２８號","E_COORD97":169087.95000000001,"N_COORD97":2542727.4500000002,"ADDRESS":"府連路１２８號","OBJECTID":618243},"geometry":{"x":169087.95000000019,"y":2542727.4499999993}},{"attributes":{"ID":618271,"DIS_CODE":0,"TOWNNAME":"中西區","LI":"法華里","LIN":"2鄰","STREET":"府連路","SECT":" ","MAREA":" ","LANE":" ","ALLEY":" ","HOUSE_NO":"１３０號","E_COORD97":169088.60000000001,"N_COORD97":2542731.9900000002,"ADDRESS":"府連路１３０號","OBJECTID":618244},"geometry":{"x":169088.60000000149,"y":2542731.9900000002}},{"attributes":{"ID":618272,"DIS_CODE":0,"TOWNNAME":"中西區","LI":"法華里","LIN":"2鄰","STREET":"府連路","SECT":" ","MAREA":" ","LANE":" ","ALLEY":" ","HOUSE_NO":"１３２號","E_COORD97":169090.22,"N_COORD97":2542735.5600000001,"ADDRESS":"府連路１３２號","OBJECTID":618245},"geometry":{"x":169090.22000000067,"y":2542735.5600000005}},{"attributes":{"ID":618273,"DIS_CODE":0,"TOWNNAME":"安南區","LI":"安順里","LIN":"2鄰","STREET":"總安街","SECT":"一段","MAREA":" ","LANE":" ","ALLEY":" ","HOUSE_NO":"５０號","E_COORD97":169854.57999999999,"N_COORD97":2550122.4100000001,"ADDRESS":"總安街一段５０號","OBJECTID":618246},"geometry":{"x":169854.58000000101,"y":2550122.410000002}},{"attributes":{"ID":618274,"DIS_CODE":0,"TOWNNAME":"安南區","LI":"安順里","LIN":"2鄰","STREET":"總安街","SECT":"一段","MAREA":" ","LANE":" ","ALLEY":" ","HOUSE_NO":"５２號","E_COORD97":169849.57000000001,"N_COORD97":2550122.4100000001,"ADDRESS":"總安街一段５２號","OBJECTID":618247},"geometry":{"x":169849.57000000123,"y":2550122.410000002}},{"attributes":{"ID":618275,"DIS_CODE":0,"TOWNNAME":"安南區","LI":"安順里","LIN":"2鄰","STREET":"總安街","SECT":"一段","MAREA":" ","LANE":" ","ALLEY":" ","HOUSE_NO":"６７號","E_COORD97":169793.67999999999,"N_COORD97":2550094.48,"ADDRESS":"總安街一段６７號","OBJECTID":618248},"geometry":{"x":169793.68000000063,"y":2550094.4800000023}},{"attributes":{"ID":618276,"DIS_CODE":0,"TOWNNAME":"安南區","LI":"安順里","LIN":"2鄰","STREET":"總安街","SECT":"一段","MAREA":" ","LANE":" ","ALLEY":" ","HOUSE_NO":"６９號","E_COORD97":169788.20999999999,"N_COORD97":2550095.0899999999,"ADDRESS":"總安街一段６９號","OBJECTID":618249},"geometry":{"x":169788.20999999996,"y":2550095.0899999999}},{"attributes":{"ID":618277,"DIS_CODE":0,"TOWNNAME":"安南區","LI":"安順里","LIN":"2鄰","STREET":"總安街","SECT":"一段","MAREA":" ","LANE":" ","ALLEY":" ","HOUSE_NO":"６９號之１","E_COORD97":169784.26000000001,"N_COORD97":2550096.1499999999,"ADDRESS":"總安街一段６９號之１","OBJECTID":618250},"geometry":{"x":169784.25999999978,"y":2550096.1500000022}},{"attributes":{"ID":618278,"DIS_CODE":0,"TOWNNAME":"安南區","LI":"安順里","LIN":"2鄰","STREET":"總安街","SECT":"一段","MAREA":" ","LANE":" ","ALLEY":" ","HOUSE_NO":"６９號之３","E_COORD97":169775.75,"N_COORD97":2550098.1200000001,"ADDRESS":"總安街一段６９號之３","OBJECTID":618251},"geometry":{"x":169775.75,"y":2550098.1200000029}},{"attributes":{"ID":618279,"DIS_CODE":0,"TOWNNAME":"永康區","LI":"東灣里","LIN":"5鄰","STREET":"大灣三街","SECT":" ","MAREA":" ","LANE":" ","ALLEY":" ","HOUSE_NO":"１２６號","E_COORD97":174693.88,"N_COORD97":2545042.7799999998,"ADDRESS":"大灣三街１２６號","OBJECTID":618252},"geometry":{"x":174693.87999999989,"y":2545042.7800000012}},{"attributes":{"ID":618280,"DIS_CODE":0,"TOWNNAME":"永康區","LI":"尚頂里","LIN":"26鄰","STREET":"南台街","SECT":" ","MAREA":" ","LANE":" ","ALLEY":" ","HOUSE_NO":"２０號","E_COORD97":170446.53,"N_COORD97":2546968,"ADDRESS":"南台街２０號","OBJECTID":618253},"geometry":{"x":170446.53000000119,"y":2546968.0000000019}},{"attributes":{"ID":618281,"DIS_CODE":0,"TOWNNAME":"永康區","LI":"南灣里","LIN":"8鄰","STREET":"南興路","SECT":" ","MAREA":" ","LANE":" ","ALLEY":" ","HOUSE_NO":"２０號","E_COORD97":174195.81,"N_COORD97":2543928.5,"ADDRESS":"南興路２０號","OBJECTID":618254},"geometry":{"x":174195.80999999959,"y":2543928.5}},{"attributes":{"ID":618282,"DIS_CODE":0,"TOWNNAME":"安南區","LI":"青草里","LIN":"2鄰","STREET":"青砂街","SECT":"二段","MAREA":" ","LANE":" ","ALLEY":" ","HOUSE_NO":"３７６號","E_COORD97":158991.35000000001,"N_COORD97":2553080.8700000001,"ADDRESS":"青砂街二段３７６號","OBJECTID":618255},"geometry":{"x":158991.34999999963,"y":2553080.870000001}},{"attributes":{"ID":618283,"DIS_CODE":0,"TOWNNAME":"安南區","LI":"城中里","LIN":"2鄰","STREET":"安中路","SECT":"六段","MAREA":" ","LANE":" ","ALLEY":" ","HOUSE_NO":"５６３號","E_COORD97":160875.73000000001,"N_COORD97":2551388.8399999999,"ADDRESS":"安中路六段５６３號","OBJECTID":618256},"geometry":{"x":160875.73000000138,"y":2551388.839999998}},{"attributes":{"ID":618284,"DIS_CODE":0,"TOWNNAME":"安南區","LI":"城中里","LIN":"2鄰","STREET":"安中路","SECT":"六段","MAREA":" ","LANE":" ","ALLEY":" ","HOUSE_NO":"５６７號","E_COORD97":160867.47,"N_COORD97":2551401.3500000001,"ADDRESS":"安中路六段５６７號","OBJECTID":618257},"geometry":{"x":160867.46999999974,"y":2551401.3499999996}},{"attributes":{"ID":618285,"DIS_CODE":0,"TOWNNAME":"安南區","LI":"城中里","LIN":"2鄰","STREET":"安中路","SECT":"六段","MAREA":" ","LANE":" ","ALLEY":" ","HOUSE_NO":"５６９號","E_COORD97":160862.42999999999,"N_COORD97":2551403.3399999999,"ADDRESS":"安中路六段５６９號","OBJECTID":618258},"geometry":{"x":160862.4299999997,"y":2551403.3400000017}},{"attributes":{"ID":618286,"DIS_CODE":0,"TOWNNAME":"安南區","LI":"城中里","LIN":"2鄰","STREET":"安中路","SECT":"六段","MAREA":" ","LANE":" ","ALLEY":" ","HOUSE_NO":"５９３號","E_COORD97":160830.07999999999,"N_COORD97":2551436.46,"ADDRESS":"安中路六段５９３號","OBJECTID":618259},"geometry":{"x":160830.08000000007,"y":2551436.4600000009}},{"attributes":{"ID":618287,"DIS_CODE":0,"TOWNNAME":"安南區","LI":"城北里","LIN":"2鄰","STREET":"城北路","SECT":" ","MAREA":" ","LANE":" ","ALLEY":" ","HOUSE_NO":"９０號","E_COORD97":160997.48000000001,"N_COORD97":2551568.8900000001,"ADDRESS":"城北路９０號","OBJECTID":618260},"geometry":{"x":160997.48000000231,"y":2551568.8900000006}},{"attributes":{"ID":618288,"DIS_CODE":0,"TOWNNAME":"中西區","LI":"西湖里","LIN":"2鄰","STREET":"頂美三街","SECT":" ","MAREA":" ","LANE":" ","ALLEY":" ","HOUSE_NO":"６６號","E_COORD97":166575.92000000001,"N_COORD97":2544599.46,"ADDRESS":"頂美三街６６號","OBJECTID":618261},"geometry":{"x":166575.91999999993,"y":2544599.4600000028}},{"attributes":{"ID":618289,"DIS_CODE":0,"TOWNNAME":"永康區","LI":"南灣里","LIN":"30鄰","STREET":"南灣街","SECT":" ","MAREA":" ","LANE":" ","ALLEY":" ","HOUSE_NO":"９１號","E_COORD97":174359.04000000001,"N_COORD97":2544964,"ADDRESS":"南灣街９１號","OBJECTID":618262},"geometry":{"x":174359.04000000004,"y":2544964.0000000019}},{"attributes":{"ID":618290,"DIS_CODE":0,"TOWNNAME":"中西區","LI":"協和里","LIN":"2鄰","STREET":"文賢路","SECT":" ","MAREA":" ","LANE":" ","ALLEY":" ","HOUSE_NO":"７１號","E_COORD97":167392.5,"N_COORD97":2544598.8900000001,"ADDRESS":"文賢路７１號","OBJECTID":618263},"geometry":{"x":167392.5,"y":2544598.8900000025}},{"attributes":{"ID":618291,"DIS_CODE":0,"TOWNNAME":"中西區","LI":"協和里","LIN":"2鄰","STREET":"文賢路","SECT":" ","MAREA":" ","LANE":" ","ALLEY":" ","HOUSE_NO":"７３號","E_COORD97":167394.59,"N_COORD97":2544603.1899999999,"ADDRESS":"文賢路７３號","OBJECTID":618264},"geometry":{"x":167394.59000000078,"y":2544603.1900000013}},{"attributes":{"ID":618292,"DIS_CODE":0,"TOWNNAME":"中西區","LI":"光賢里","LIN":"2鄰","STREET":"武聖路","SECT":" ","MAREA":" ","LANE":" ","ALLEY":" ","HOUSE_NO":"４３號","E_COORD97":167215.29999999999,"N_COORD97":2545095.4199999999,"ADDRESS":"武聖路４３號","OBJECTID":618265},"geometry":{"x":167215.29999999981,"y":2545095.4199999999}},{"attributes":{"ID":618293,"DIS_CODE":0,"TOWNNAME":"中西區","LI":"協和里","LIN":"2鄰","STREET":"文賢路","SECT":" ","MAREA":" ","LANE":" ","ALLEY":" ","HOUSE_NO":"７７號","E_COORD97":167395.76000000001,"N_COORD97":2544610.2799999998,"ADDRESS":"文賢路７７號","OBJECTID":618266},"geometry":{"x":167395.75999999978,"y":2544610.2799999993}},{"attributes":{"ID":618294,"DIS_CODE":0,"TOWNNAME":"中西區","LI":"協和里","LIN":"2鄰","STREET":"文賢路","SECT":" ","MAREA":" ","LANE":" ","ALLEY":" ","HOUSE_NO":"７９號之１","E_COORD97":167398.32999999999,"N_COORD97":2544619.7599999998,"ADDRESS":"文賢路７９號之１","OBJECTID":618267},"geometry":{"x":167398.33000000007,"y":2544619.7600000016}},{"attributes":{"ID":618295,"DIS_CODE":0,"TOWNNAME":"永康區","LI":"中華里","LIN":"2鄰","STREET":"華興街","SECT":" ","MAREA":" ","LANE":" ","ALLEY":" ","HOUSE_NO":"７號","E_COORD97":172042.51999999999,"N_COORD97":2544548.1600000001,"ADDRESS":"華興街７號","OBJECTID":618268},"geometry":{"x":172042.52000000048,"y":2544548.1600000001}},{"attributes":{"ID":618296,"DIS_CODE":0,"TOWNNAME":"永康區","LI":"中華里","LIN":"2鄰","STREET":"忠孝路","SECT":" ","MAREA":" ","LANE":" ","ALLEY":" ","HOUSE_NO":"５１號","E_COORD97":172070.92000000001,"N_COORD97":2544476.5099999998,"ADDRESS":"忠孝路５１號","OBJECTID":618269},"geometry":{"x":172070.92000000086,"y":2544476.5100000016}},{"attributes":{"ID":618297,"DIS_CODE":0,"TOWNNAME":"永康區","LI":"中華里","LIN":"2鄰","STREET":"忠孝路","SECT":" ","MAREA":" ","LANE":" ","ALLEY":" ","HOUSE_NO":"４３號","E_COORD97":172071.35000000001,"N_COORD97":2544460.02,"ADDRESS":"忠孝路４３號","OBJECTID":618270},"geometry":{"x":172071.34999999963,"y":2544460.0199999996}},{"attributes":{"ID":618298,"DIS_CODE":0,"TOWNNAME":"麻豆區","LI":"新建里","LIN":"2鄰","STREET":"三民路","SECT":" ","MAREA":" ","LANE":" ","ALLEY":" ","HOUSE_NO":"１０號之５","E_COORD97":172767.92000000001,"N_COORD97":2564853.23,"ADDRESS":"三民路１０號之５","OBJECTID":618271},"geometry":{"x":172767.91999999993,"y":2564853.2300000004}},{"attributes":{"ID":618299,"DIS_CODE":0,"TOWNNAME":"永康區","LI":"新樹里","LIN":"2鄰","STREET":"富強路","SECT":"二段","MAREA":" ","LANE":" ","ALLEY":" ","HOUSE_NO":"３０６號","E_COORD97":175630.70000000001,"N_COORD97":2547501.21,"ADDRESS":"富強路二段３０６號","OBJECTID":618272},"geometry":{"x":175630.70000000112,"y":2547501.2100000009}},{"attributes":{"ID":618300,"DIS_CODE":0,"TOWNNAME":"永康區","LI":"二王里","LIN":"2鄰","STREET":"永二街","SECT":" ","MAREA":" ","LANE":" ","ALLEY":" ","HOUSE_NO":"２６４號","E_COORD97":173104.92999999999,"N_COORD97":2546497.9900000002,"ADDRESS":"永二街２６４號","OBJECTID":618273},"geometry":{"x":173104.93000000063,"y":2546497.9900000002}},{"attributes":{"ID":618301,"DIS_CODE":0,"TOWNNAME":"永康區","LI":"大橋里","LIN":"2鄰","STREET":"大橋二街","SECT":" ","MAREA":" ","LANE":" ","ALLEY":" ","HOUSE_NO":"７３號","E_COORD97":170763.89000000001,"N_COORD97":2546550.71,"ADDRESS":"大橋二街７３號","OBJECTID":618274},"geometry":{"x":170763.8900000006,"y":2546550.7100000028}},{"attributes":{"ID":618302,"DIS_CODE":0,"TOWNNAME":"永康區","LI":"大橋里","LIN":"2鄰","STREET":"大橋二街","SECT":" ","MAREA":" ","LANE":" ","ALLEY":" ","HOUSE_NO":"７９號","E_COORD97":170772.70999999999,"N_COORD97":2546561.2000000002,"ADDRESS":"大橋二街７９號","OBJECTID":618275},"geometry":{"x":170772.70999999996,"y":2546561.1999999993}},{"attributes":{"ID":618303,"DIS_CODE":0,"TOWNNAME":"永康區","LI":"大灣里","LIN":"2鄰","STREET":"大安街","SECT":" ","MAREA":" ","LANE":" ","ALLEY":" ","HOUSE_NO":"３４６號","E_COORD97":174674.07000000001,"N_COORD97":2545630.2599999998,"ADDRESS":"大安街３４６號","OBJECTID":618276},"geometry":{"x":174674.07000000123,"y":2545630.2600000016}},{"attributes":{"ID":618304,"DIS_CODE":0,"TOWNNAME":"永康區","LI":"二王里","LIN":"2鄰","STREET":"永二街","SECT":" ","MAREA":" ","LANE":" ","ALLEY":" ","HOUSE_NO":"２６８號","E_COORD97":173096.10999999999,"N_COORD97":2546504.7400000002,"ADDRESS":"永二街２６８號","OBJECTID":618277},"geometry":{"x":173096.11000000034,"y":2546504.7400000039}},{"attributes":{"ID":618305,"DIS_CODE":0,"TOWNNAME":"永康區","LI":"大灣里","LIN":"2鄰","STREET":"大安街","SECT":" ","MAREA":" ","LANE":" ","ALLEY":" ","HOUSE_NO":"３６６號","E_COORD97":174677.04999999999,"N_COORD97":2545692.48,"ADDRESS":"大安街３６６號","OBJECTID":618278},"geometry":{"x":174677.05000000075,"y":2545692.4800000004}},{"attributes":{"ID":618306,"DIS_CODE":0,"TOWNNAME":"永康區","LI":"南灣里","LIN":"10鄰","STREET":"南興路","SECT":" ","MAREA":" ","LANE":" ","ALLEY":" ","HOUSE_NO":"４９號","E_COORD97":174213.56,"N_COORD97":2544166.5,"ADDRESS":"南興路４９號","OBJECTID":618279},"geometry":{"x":174213.56000000145,"y":2544166.4999999981}},{"attributes":{"ID":618307,"DIS_CODE":0,"TOWNNAME":"仁德區","LI":"仁義里","LIN":"2鄰","STREET":"仁義三街","SECT":" ","MAREA":" ","LANE":" ","ALLEY":" ","HOUSE_NO":"２６３號","E_COORD97":173977.42000000001,"N_COORD97":2541079.2599999998,"ADDRESS":"仁義三街２６３號","OBJECTID":618280},"geometry":{"x":173977.42000000179,"y":2541079.2599999979}},{"attributes":{"ID":618308,"DIS_CODE":0,"TOWNNAME":"仁德區","LI":"仁義里","LIN":"2鄰","STREET":"中山路","SECT":" ","MAREA":" ","LANE":" ","ALLEY":" ","HOUSE_NO":"３３１號","E_COORD97":174022.17000000001,"N_COORD97":2541226.25,"ADDRESS":"中山路３３１號","OBJECTID":618281},"geometry":{"x":174022.17000000086,"y":2541226.2500000019}},{"attributes":{"ID":618309,"DIS_CODE":0,"TOWNNAME":"仁德區","LI":"仁義里","LIN":"2鄰","STREET":"仁義路","SECT":" ","MAREA":" ","LANE":" ","ALLEY":" ","HOUSE_NO":"２６５號","E_COORD97":174026.39999999999,"N_COORD97":2541056.02,"ADDRESS":"仁義路２６５號","OBJECTID":618282},"geometry":{"x":174026.40000000037,"y":2541056.0199999996}},{"attributes":{"ID":618310,"DIS_CODE":0,"TOWNNAME":"仁德區","LI":"仁義里","LIN":"2鄰","STREET":"仁義二街","SECT":" ","MAREA":" ","LANE":" ","ALLEY":" ","HOUSE_NO":"１０７號","E_COORD97":174022.31,"N_COORD97":2541194.7599999998,"ADDRESS":"仁義二街１０７號","OBJECTID":618283},"geometry":{"x":174022.31000000052,"y":2541194.7600000035}},{"attributes":{"ID":618311,"DIS_CODE":0,"TOWNNAME":"仁德區","LI":"大甲里","LIN":"2鄰","STREET":"行大一街","SECT":" ","MAREA":" ","LANE":" ","ALLEY":" ","HOUSE_NO":"１０２號","E_COORD97":169963.66,"N_COORD97":2534988.2400000002,"ADDRESS":"行大一街１０２號","OBJECTID":618284},"geometry":{"x":169963.66000000108,"y":2534988.2400000021}},{"attributes":{"ID":618312,"DIS_CODE":0,"TOWNNAME":"仁德區","LI":"大甲里","LIN":"2鄰","STREET":"行大一街","SECT":" ","MAREA":" ","LANE":" ","ALLEY":" ","HOUSE_NO":"１００號","E_COORD97":169969.98999999999,"N_COORD97":2534990.7400000002,"ADDRESS":"行大一街１００號","OBJECTID":618285},"geometry":{"x":169969.99000000115,"y":2534990.7399999984}},{"attributes":{"ID":618313,"DIS_CODE":0,"TOWNNAME":"仁德區","LI":"大甲里","LIN":"2鄰","STREET":"行大一街","SECT":" ","MAREA":" ","LANE":" ","ALLEY":" ","HOUSE_NO":"１２８號","E_COORD97":169910.81,"N_COORD97":2534996.9900000002,"ADDRESS":"行大一街１２８號","OBJECTID":618286},"geometry":{"x":169910.80999999959,"y":2534996.9900000021}},{"attributes":{"ID":618314,"DIS_CODE":0,"TOWNNAME":"仁德區","LI":"大甲里","LIN":"2鄰","STREET":"行大一街","SECT":" ","MAREA":" ","LANE":" ","ALLEY":" ","HOUSE_NO":"１０４號","E_COORD97":169952.37,"N_COORD97":2534984.7400000002,"ADDRESS":"行大一街１０４號","OBJECTID":618287},"geometry":{"x":169952.37000000104,"y":2534984.7400000021}},{"attributes":{"ID":618315,"DIS_CODE":0,"TOWNNAME":"仁德區","LI":"大甲里","LIN":"2鄰","STREET":"行大一街","SECT":" ","MAREA":" ","LANE":" ","ALLEY":" ","HOUSE_NO":"１１８號","E_COORD97":169930.54999999999,"N_COORD97":2534990.7400000002,"ADDRESS":"行大一街１１８號","OBJECTID":618288},"geometry":{"x":169930.55000000075,"y":2534990.7399999984}},{"attributes":{"ID":618316,"DIS_CODE":0,"TOWNNAME":"仁德區","LI":"仁義里","LIN":"2鄰","STREET":"義林二街","SECT":" ","MAREA":" ","LANE":" ","ALLEY":" ","HOUSE_NO":"６７號","E_COORD97":174109.95999999999,"N_COORD97":2541153.52,"ADDRESS":"義林二街６７號","OBJECTID":618289},"geometry":{"x":174109.96000000089,"y":2541153.5200000014}},{"attributes":{"ID":618317,"DIS_CODE":0,"TOWNNAME":"仁德區","LI":"仁義里","LIN":"2鄰","STREET":"仁義二街","SECT":" ","MAREA":" ","LANE":" ","ALLEY":" ","HOUSE_NO":"１０７之１號","E_COORD97":174028.48000000001,"N_COORD97":2541193.79,"ADDRESS":"仁義二街１０７之１號","OBJECTID":618290},"geometry":{"x":174028.48000000231,"y":2541193.7900000028}},{"attributes":{"ID":618318,"DIS_CODE":0,"TOWNNAME":"仁德區","LI":"仁義里","LIN":"2鄰","STREET":"仁義路","SECT":" ","MAREA":" ","LANE":" ","ALLEY":" ","HOUSE_NO":"３２９號","E_COORD97":174051.81,"N_COORD97":2541202.5099999998,"ADDRESS":"仁義路３２９號","OBJECTID":618291},"geometry":{"x":174051.80999999959,"y":2541202.5099999998}},{"attributes":{"ID":618319,"DIS_CODE":0,"TOWNNAME":"仁德區","LI":"大甲里","LIN":"2鄰","STREET":"行大一街","SECT":" ","MAREA":" ","LANE":" ","ALLEY":" ","HOUSE_NO":"９４號","E_COORD97":169979.82999999999,"N_COORD97":2534996.4900000002,"ADDRESS":"行大一街９４號","OBJECTID":618292},"geometry":{"x":169979.83000000101,"y":2534996.4900000021}},{"attributes":{"ID":618320,"DIS_CODE":0,"TOWNNAME":"仁德區","LI":"大甲里","LIN":"2鄰","STREET":"行大一街","SECT":" ","MAREA":" ","LANE":" ","ALLEY":" ","HOUSE_NO":"１２４號","E_COORD97":169918.81,"N_COORD97":2534994.4900000002,"ADDRESS":"行大一街１２４號","OBJECTID":618293},"geometry":{"x":169918.80999999959,"y":2534994.4900000002}},{"attributes":{"ID":618321,"DIS_CODE":0,"TOWNNAME":"仁德區","LI":"大甲里","LIN":"2鄰","STREET":"行大一街","SECT":" ","MAREA":" ","LANE":" ","ALLEY":" ","HOUSE_NO":"１１４號","E_COORD97":169938.66,"N_COORD97":2534988.2400000002,"ADDRESS":"行大一街１１４號","OBJECTID":618294},"geometry":{"x":169938.66000000108,"y":2534988.2400000021}},{"attributes":{"ID":618322,"DIS_CODE":0,"TOWNNAME":"仁德區","LI":"大甲里","LIN":"2鄰","STREET":"行大一街","SECT":" ","MAREA":" ","LANE":" ","ALLEY":" ","HOUSE_NO":"９２號","E_COORD97":169983.26999999999,"N_COORD97":2534998.4900000002,"ADDRESS":"行大一街９２號","OBJECTID":618295},"geometry":{"x":169983.27000000048,"y":2534998.4900000002}},{"attributes":{"ID":618323,"DIS_CODE":0,"TOWNNAME":"仁德區","LI":"大甲里","LIN":"2鄰","STREET":"行大一街","SECT":" ","MAREA":" ","LANE":" ","ALLEY":" ","HOUSE_NO":"１２２號","E_COORD97":169923.20999999999,"N_COORD97":2534993.4900000002,"ADDRESS":"行大一街１２２號","OBJECTID":618296},"geometry":{"x":169923.20999999996,"y":2534993.4900000021}},{"attributes":{"ID":618324,"DIS_CODE":0,"TOWNNAME":"仁德區","LI":"仁義里","LIN":"2鄰","STREET":"中山路","SECT":" ","MAREA":" ","LANE":" ","ALLEY":" ","HOUSE_NO":"３３９號","E_COORD97":173984.54999999999,"N_COORD97":2541229.25,"ADDRESS":"中山路３３９號","OBJECTID":618297},"geometry":{"x":173984.54999999981,"y":2541229.2500000019}},{"attributes":{"ID":618325,"DIS_CODE":0,"TOWNNAME":"永康區","LI":"東灣里","LIN":"5鄰","STREET":"大灣三街","SECT":" ","MAREA":" ","LANE":" ","ALLEY":" ","HOUSE_NO":"１３２號","E_COORD97":174682.92999999999,"N_COORD97":2545046.5299999998,"ADDRESS":"大灣三街１３２號","OBJECTID":618298},"geometry":{"x":174682.93000000063,"y":2545046.5299999993}},{"attributes":{"ID":618326,"DIS_CODE":0,"TOWNNAME":"仁德區","LI":"保安里","LIN":"2鄰","STREET":"保安路","SECT":"一段","MAREA":" ","LANE":" ","ALLEY":" ","HOUSE_NO":"７９之２號","E_COORD97":170913.04000000001,"N_COORD97":2536761.3100000001,"ADDRESS":"保安路一段７９之２號","OBJECTID":618299},"geometry":{"x":170913.04000000004,"y":2536761.3100000024}},{"attributes":{"ID":618327,"DIS_CODE":0,"TOWNNAME":"仁德區","LI":"保安里","LIN":"2鄰","STREET":"文賢路","SECT":"一段","MAREA":" ","LANE":" ","ALLEY":" ","HOUSE_NO":"５１０號","E_COORD97":171052.95999999999,"N_COORD97":2537070.5699999998,"ADDRESS":"文賢路一段５１０號","OBJECTID":618300},"geometry":{"x":171052.96000000183,"y":2537070.570000004}},{"attributes":{"ID":618328,"DIS_CODE":0,"TOWNNAME":"仁德區","LI":"田厝里","LIN":"2鄰","STREET":"保安路","SECT":"二段","MAREA":" ","LANE":" ","ALLEY":" ","HOUSE_NO":"５４０號","E_COORD97":172573.53,"N_COORD97":2537549.0600000001,"ADDRESS":"保安路二段５４０號","OBJECTID":618301},"geometry":{"x":172573.53000000212,"y":2537549.0600000024}},{"attributes":{"ID":618329,"DIS_CODE":0,"TOWNNAME":"仁德區","LI":"保安里","LIN":"2鄰","STREET":"保安路","SECT":"一段","MAREA":" ","LANE":" ","ALLEY":" ","HOUSE_NO":"３７號之１","E_COORD97":170600.39000000001,"N_COORD97":2536345.8100000001,"ADDRESS":"保安路一段３７號之１","OBJECTID":618302},"geometry":{"x":170600.38999999873,"y":2536345.8100000005}},{"attributes":{"ID":618330,"DIS_CODE":0,"TOWNNAME":"仁德區","LI":"仁德里","LIN":"2鄰","STREET":"中正路","SECT":"二段","MAREA":" ","LANE":" ","ALLEY":" ","HOUSE_NO":"７３３號","E_COORD97":173461.04000000001,"N_COORD97":2540198.0299999998,"ADDRESS":"中正路二段７３３號","OBJECTID":618303},"geometry":{"x":173461.04000000004,"y":2540198.0299999993}},{"attributes":{"ID":618331,"DIS_CODE":0,"TOWNNAME":"仁德區","LI":"保安里","LIN":"2鄰","STREET":"保安路","SECT":"一段","MAREA":" ","LANE":" ","ALLEY":" ","HOUSE_NO":"１０９號","E_COORD97":171089.57000000001,"N_COORD97":2536835.3100000001,"ADDRESS":"保安路一段１０９號","OBJECTID":618304},"geometry":{"x":171089.5700000003,"y":2536835.3100000042}},{"attributes":{"ID":618332,"DIS_CODE":0,"TOWNNAME":"東區","LI":"東明里","LIN":"2鄰","STREET":"怡東路","SECT":" ","MAREA":" ","LANE":" ","ALLEY":" ","HOUSE_NO":"２６號","E_COORD97":170829.06,"N_COORD97":2543495.3700000001,"ADDRESS":"怡東路２６號","OBJECTID":618305},"geometry":{"x":170829.05999999959,"y":2543495.3700000029}},{"attributes":{"ID":618333,"DIS_CODE":0,"TOWNNAME":"麻豆區","LI":"新建里","LIN":"2鄰","STREET":"三民路","SECT":" ","MAREA":" ","LANE":" ","ALLEY":" ","HOUSE_NO":"１０號之３","E_COORD97":172768.22,"N_COORD97":2564858.5600000001,"ADDRESS":"三民路１０號之３","OBJECTID":618306},"geometry":{"x":172768.2200000016,"y":2564858.5600000024}},{"attributes":{"ID":618334,"DIS_CODE":0,"TOWNNAME":"麻豆區","LI":"新建里","LIN":"2鄰","STREET":"三民路","SECT":" ","MAREA":" ","LANE":" ","ALLEY":" ","HOUSE_NO":"１０號","E_COORD97":172767.69,"N_COORD97":2564848.5499999998,"ADDRESS":"三民路１０號","OBJECTID":618307},"geometry":{"x":172767.69000000134,"y":2564848.5500000045}},{"attributes":{"ID":618335,"DIS_CODE":0,"TOWNNAME":"麻豆區","LI":"新建里","LIN":"2鄰","STREET":"三民路","SECT":" ","MAREA":" ","LANE":" ","ALLEY":" ","HOUSE_NO":"１２號之１","E_COORD97":172750.97,"N_COORD97":2564859.8500000001,"ADDRESS":"三民路１２號之１","OBJECTID":618308},"geometry":{"x":172750.96999999974,"y":2564859.8500000015}},{"attributes":{"ID":618336,"DIS_CODE":0,"TOWNNAME":"永康區","LI":"南灣里","LIN":"35鄰","STREET":"南灣街","SECT":" ","MAREA":" ","LANE":" ","ALLEY":" ","HOUSE_NO":"８０號","E_COORD97":174477.91,"N_COORD97":2544946.0600000001,"ADDRESS":"南灣街８０號","OBJECTID":618309},"geometry":{"x":174477.91000000201,"y":2544946.0600000005}},{"attributes":{"ID":618337,"DIS_CODE":0,"TOWNNAME":"麻豆區","LI":"中興里","LIN":"2鄰","STREET":"三民路","SECT":" ","MAREA":" ","LANE":" ","ALLEY":" ","HOUSE_NO":"１３號之１","E_COORD97":172792.39999999999,"N_COORD97":2564713.8199999998,"ADDRESS":"三民路１３號之１","OBJECTID":618310},"geometry":{"x":172792.40000000037,"y":2564713.820000004}},{"attributes":{"ID":618338,"DIS_CODE":0,"TOWNNAME":"麻豆區","LI":"中興里","LIN":"2鄰","STREET":"三民路","SECT":" ","MAREA":" ","LANE":" ","ALLEY":" ","HOUSE_NO":"１３號之２","E_COORD97":172792.54000000001,"N_COORD97":2564718.0299999998,"ADDRESS":"三民路１３號之２","OBJECTID":618311},"geometry":{"x":172792.54000000097,"y":2564718.0299999975}},{"attributes":{"ID":618339,"DIS_CODE":0,"TOWNNAME":"麻豆區","LI":"中興里","LIN":"2鄰","STREET":"三民路","SECT":" ","MAREA":" ","LANE":" ","ALLEY":" ","HOUSE_NO":"１５號","E_COORD97":172801.04999999999,"N_COORD97":2564706.1499999999,"ADDRESS":"三民路１５號","OBJECTID":618312},"geometry":{"x":172801.04999999981,"y":2564706.1500000022}},{"attributes":{"ID":618340,"DIS_CODE":0,"TOWNNAME":"麻豆區","LI":"中興里","LIN":"2鄰","STREET":"三民路","SECT":" ","MAREA":" ","LANE":" ","ALLEY":" ","HOUSE_NO":"１９號之１","E_COORD97":172801.89999999999,"N_COORD97":2564693.5699999998,"ADDRESS":"三民路１９號之１","OBJECTID":618313},"geometry":{"x":172801.9000000013,"y":2564693.5700000003}},{"attributes":{"ID":618341,"DIS_CODE":0,"TOWNNAME":"麻豆區","LI":"中興里","LIN":"2鄰","STREET":"三民路","SECT":" ","MAREA":" ","LANE":" ","ALLEY":" ","HOUSE_NO":"１９號之２","E_COORD97":172802.26000000001,"N_COORD97":2564689.71,"ADDRESS":"三民路１９號之２","OBJECTID":618314},"geometry":{"x":172802.26000000071,"y":2564689.7100000028}},{"attributes":{"ID":618342,"DIS_CODE":0,"TOWNNAME":"麻豆區","LI":"中興里","LIN":"2鄰","STREET":"三民路","SECT":" ","MAREA":" ","LANE":" ","ALLEY":" ","HOUSE_NO":"１９號","E_COORD97":172801.82999999999,"N_COORD97":2564697.8900000001,"ADDRESS":"三民路１９號","OBJECTID":618315},"geometry":{"x":172801.83000000194,"y":2564697.8900000025}},{"attributes":{"ID":618343,"DIS_CODE":0,"TOWNNAME":"安南區","LI":"海佃里","LIN":"2鄰","STREET":"國安街","SECT":" ","MAREA":" ","LANE":" ","ALLEY":" ","HOUSE_NO":"５２號","E_COORD97":167010.70999999999,"N_COORD97":2547022.0299999998,"ADDRESS":"國安街５２號","OBJECTID":618316},"geometry":{"x":167010.71000000089,"y":2547022.0300000012}},{"attributes":{"ID":618344,"DIS_CODE":0,"TOWNNAME":"安南區","LI":"海佃里","LIN":"2鄰","STREET":"國安街","SECT":" ","MAREA":" ","LANE":" ","ALLEY":" ","HOUSE_NO":"４８號","E_COORD97":167020.03,"N_COORD97":2547024.6899999999,"ADDRESS":"國安街４８號","OBJECTID":618317},"geometry":{"x":167020.03000000212,"y":2547024.6899999995}},{"attributes":{"ID":618345,"DIS_CODE":0,"TOWNNAME":"安南區","LI":"海佃里","LIN":"2鄰","STREET":"國安街","SECT":" ","MAREA":" ","LANE":" ","ALLEY":" ","HOUSE_NO":"５０號","E_COORD97":167015.37,"N_COORD97":2547022.6899999999,"ADDRESS":"國安街５０號","OBJECTID":618318},"geometry":{"x":167015.37000000011,"y":2547022.6899999976}},{"attributes":{"ID":618346,"DIS_CODE":0,"TOWNNAME":"安南區","LI":"海佃里","LIN":"2鄰","STREET":"國安街","SECT":" ","MAREA":" ","LANE":" ","ALLEY":" ","HOUSE_NO":"５４號","E_COORD97":167006.72,"N_COORD97":2547022.0299999998,"ADDRESS":"國安街５４號","OBJECTID":618319},"geometry":{"x":167006.72000000067,"y":2547022.0300000012}},{"attributes":{"ID":618347,"DIS_CODE":0,"TOWNNAME":"安南區","LI":"海佃里","LIN":"2鄰","STREET":"國安街","SECT":" ","MAREA":" ","LANE":" ","ALLEY":" ","HOUSE_NO":"５８號","E_COORD97":166992.76000000001,"N_COORD97":2547020.7000000002,"ADDRESS":"國安街５８號","OBJECTID":618320},"geometry":{"x":166992.76000000071,"y":2547020.7000000011}},{"attributes":{"ID":618348,"DIS_CODE":0,"TOWNNAME":"安南區","LI":"海佃里","LIN":"2鄰","STREET":"國安街","SECT":" ","MAREA":" ","LANE":" ","ALLEY":" ","HOUSE_NO":"６２號","E_COORD97":166984.10999999999,"N_COORD97":2547019.3700000001,"ADDRESS":"國安街６２號","OBJECTID":618321},"geometry":{"x":166984.11000000127,"y":2547019.370000001}},{"attributes":{"ID":618349,"DIS_CODE":0,"TOWNNAME":"安南區","LI":"海佃里","LIN":"2鄰","STREET":"國安街","SECT":" ","MAREA":" ","LANE":" ","ALLEY":" ","HOUSE_NO":"７０號","E_COORD97":166968.82000000001,"N_COORD97":2547016.7200000002,"ADDRESS":"國安街７０號","OBJECTID":618322},"geometry":{"x":166968.82000000216,"y":2547016.7200000007}},{"attributes":{"ID":618350,"DIS_CODE":0,"TOWNNAME":"安南區","LI":"海佃里","LIN":"2鄰","STREET":"國安街","SECT":" ","MAREA":" ","LANE":" ","ALLEY":" ","HOUSE_NO":"７６號","E_COORD97":166948.20000000001,"N_COORD97":2547013.3900000001,"ADDRESS":"國安街７６號","OBJECTID":618323},"geometry":{"x":166948.20000000112,"y":2547013.3900000025}},{"attributes":{"ID":618351,"DIS_CODE":0,"TOWNNAME":"安南區","LI":"海佃里","LIN":"2鄰","STREET":"國安街","SECT":" ","MAREA":" ","LANE":" ","ALLEY":" ","HOUSE_NO":"７８號","E_COORD97":166943.54999999999,"N_COORD97":2547012.0699999998,"ADDRESS":"國安街７８號","OBJECTID":618324},"geometry":{"x":166943.55000000075,"y":2547012.0700000022}},{"attributes":{"ID":618352,"DIS_CODE":0,"TOWNNAME":"善化區","LI":"坐駕里","LIN":"2鄰","STREET":"中山路","SECT":" ","MAREA":" ","LANE":" ","ALLEY":" ","HOUSE_NO":"３２１號","E_COORD97":177781.64999999999,"N_COORD97":2559071,"ADDRESS":"中山路３２１號","OBJECTID":618325},"geometry":{"x":177781.65000000037,"y":2559071.0000000037}},{"attributes":{"ID":618353,"DIS_CODE":0,"TOWNNAME":"善化區","LI":"北關里","LIN":"2鄰","STREET":"三民路","SECT":" ","MAREA":" ","LANE":" ","ALLEY":" ","HOUSE_NO":"８７號之１","E_COORD97":177120.22,"N_COORD97":2559202.02,"ADDRESS":"三民路８７號之１","OBJECTID":618326},"geometry":{"x":177120.22000000067,"y":2559202.0199999996}},{"attributes":{"ID":618354,"DIS_CODE":0,"TOWNNAME":"善化區","LI":"坐駕里","LIN":"2鄰","STREET":"中山路","SECT":" ","MAREA":" ","LANE":" ","ALLEY":" ","HOUSE_NO":"３１５號","E_COORD97":177794.39999999999,"N_COORD97":2559073,"ADDRESS":"中山路３１５號","OBJECTID":618327},"geometry":{"x":177794.4000000013,"y":2559073}},{"attributes":{"ID":618355,"DIS_CODE":0,"TOWNNAME":"善化區","LI":"坐駕里","LIN":"2鄰","STREET":"中山路","SECT":" ","MAREA":" ","LANE":" ","ALLEY":" ","HOUSE_NO":"３２７號","E_COORD97":177768.51000000001,"N_COORD97":2559071.25,"ADDRESS":"中山路３２７號","OBJECTID":618328},"geometry":{"x":177768.50999999978,"y":2559071.25}},{"attributes":{"ID":618356,"DIS_CODE":0,"TOWNNAME":"善化區","LI":"北關里","LIN":"2鄰","STREET":"中山路","SECT":" ","MAREA":" ","LANE":" ","ALLEY":" ","HOUSE_NO":"５２６號","E_COORD97":177062.03,"N_COORD97":2559177.25,"ADDRESS":"中山路５２６號","OBJECTID":618329},"geometry":{"x":177062.03000000026,"y":2559177.25}},{"attributes":{"ID":618357,"DIS_CODE":0,"TOWNNAME":"善化區","LI":"北關里","LIN":"2鄰","STREET":"中山路","SECT":" ","MAREA":" ","LANE":" ","ALLEY":" ","HOUSE_NO":"５１８號","E_COORD97":177112.62,"N_COORD97":2559164.25,"ADDRESS":"中山路５１８號","OBJECTID":618330},"geometry":{"x":177112.62000000104,"y":2559164.2500000037}},{"attributes":{"ID":618358,"DIS_CODE":0,"TOWNNAME":"善化區","LI":"北關里","LIN":"2鄰","STREET":"中山路","SECT":" ","MAREA":" ","LANE":" ","ALLEY":" ","HOUSE_NO":"５２８號","E_COORD97":177045.92000000001,"N_COORD97":2559174.75,"ADDRESS":"中山路５２８號","OBJECTID":618331},"geometry":{"x":177045.92000000086,"y":2559174.7500000019}},{"attributes":{"ID":618359,"DIS_CODE":0,"TOWNNAME":"永康區","LI":"蔦松里","LIN":"2鄰","STREET":"中正北路","SECT":" ","MAREA":" ","LANE":" ","ALLEY":" ","HOUSE_NO":"５２３之１０號","E_COORD97":173877.67999999999,"N_COORD97":2549187.04,"ADDRESS":"中正北路５２３之１０號","OBJECTID":618332},"geometry":{"x":173877.68000000063,"y":2549187.040000001}},{"attributes":{"ID":618360,"DIS_CODE":0,"TOWNNAME":"善化區","LI":"東關里","LIN":"2鄰","STREET":"中山路","SECT":" ","MAREA":" ","LANE":" ","ALLEY":" ","HOUSE_NO":"３６８號","E_COORD97":177575.22,"N_COORD97":2559116.5,"ADDRESS":"中山路３６８號","OBJECTID":618333},"geometry":{"x":177575.21999999974,"y":2559116.5000000019}},{"attributes":{"ID":618361,"DIS_CODE":0,"TOWNNAME":"永康區","LI":"南灣里","LIN":"32鄰","STREET":"大灣一街","SECT":" ","MAREA":" ","LANE":" ","ALLEY":" ","HOUSE_NO":"３５號","E_COORD97":174284.09,"N_COORD97":2544796.3399999999,"ADDRESS":"大灣一街３５號","OBJECTID":618334},"geometry":{"x":174284.08999999985,"y":2544796.3400000017}},{"attributes":{"ID":618362,"DIS_CODE":0,"TOWNNAME":"永康區","LI":"蔦松里","LIN":"2鄰","STREET":"中正北路","SECT":" ","MAREA":" ","LANE":" ","ALLEY":" ","HOUSE_NO":"５２３號","E_COORD97":173837.73999999999,"N_COORD97":2549172.9900000002,"ADDRESS":"中正北路５２３號","OBJECTID":618335},"geometry":{"x":173837.74000000022,"y":2549172.9900000002}},{"attributes":{"ID":618363,"DIS_CODE":0,"TOWNNAME":"永康區","LI":"蔦松里","LIN":"2鄰","STREET":"中正北路","SECT":" ","MAREA":" ","LANE":" ","ALLEY":" ","HOUSE_NO":"５０３號","E_COORD97":173792.10999999999,"N_COORD97":2549159.2400000002,"ADDRESS":"中正北路５０３號","OBJECTID":618336},"geometry":{"x":173792.11000000127,"y":2549159.2400000039}},{"attributes":{"ID":618364,"DIS_CODE":0,"TOWNNAME":"永康區","LI":"蔦松里","LIN":"2鄰","STREET":"中正北路","SECT":" ","MAREA":" ","LANE":" ","ALLEY":" ","HOUSE_NO":"５０５號","E_COORD97":173796.60000000001,"N_COORD97":2549159.9900000002,"ADDRESS":"中正北路５０５號","OBJECTID":618337},"geometry":{"x":173796.60000000056,"y":2549159.9900000002}},{"attributes":{"ID":618365,"DIS_CODE":0,"TOWNNAME":"永康區","LI":"蔦松里","LIN":"2鄰","STREET":"中正北路","SECT":" ","MAREA":" ","LANE":" ","ALLEY":" ","HOUSE_NO":"５２３之９號","E_COORD97":173872.53,"N_COORD97":2549185.54,"ADDRESS":"中正北路５２３之９號","OBJECTID":618338},"geometry":{"x":173872.53000000119,"y":2549185.5399999991}},{"attributes":{"ID":618366,"DIS_CODE":0,"TOWNNAME":"永康區","LI":"蔦松里","LIN":"2鄰","STREET":"中正北路","SECT":" ","MAREA":" ","LANE":" ","ALLEY":" ","HOUSE_NO":"５１５號","E_COORD97":173818.70000000001,"N_COORD97":2549163.9900000002,"ADDRESS":"中正北路５１５號","OBJECTID":618339},"geometry":{"x":173818.70000000112,"y":2549163.9900000002}},{"attributes":{"ID":618367,"DIS_CODE":0,"TOWNNAME":"永康區","LI":"蔦松里","LIN":"2鄰","STREET":"中正北路","SECT":" ","MAREA":" ","LANE":" ","ALLEY":" ","HOUSE_NO":"５１１號","E_COORD97":173809.76000000001,"N_COORD97":2549161.9900000002,"ADDRESS":"中正北路５１１號","OBJECTID":618340},"geometry":{"x":173809.75999999978,"y":2549161.9900000021}},{"attributes":{"ID":618368,"DIS_CODE":0,"TOWNNAME":"永康區","LI":"復華里","LIN":"2鄰","STREET":"復國二路","SECT":" ","MAREA":" ","LANE":" ","ALLEY":" ","HOUSE_NO":"２６２號","E_COORD97":173020.78,"N_COORD97":2545985.3399999999,"ADDRESS":"復國二路２６２號","OBJECTID":618341},"geometry":{"x":173020.78000000026,"y":2545985.3400000017}},{"attributes":{"ID":618369,"DIS_CODE":0,"TOWNNAME":"永康區","LI":"蔦松里","LIN":"2鄰","STREET":"中正北路","SECT":" ","MAREA":" ","LANE":" ","ALLEY":" ","HOUSE_NO":"５２３之１號","E_COORD97":173845.23000000001,"N_COORD97":2549174.54,"ADDRESS":"中正北路５２３之１號","OBJECTID":618342},"geometry":{"x":173845.22999999952,"y":2549174.540000001}},{"attributes":{"ID":618370,"DIS_CODE":0,"TOWNNAME":"永康區","LI":"復華里","LIN":"2鄰","STREET":"復國二路","SECT":" ","MAREA":" ","LANE":" ","ALLEY":" ","HOUSE_NO":"２６４號","E_COORD97":173036.16,"N_COORD97":2545975.8999999999,"ADDRESS":"復國二路２６４號","OBJECTID":618343},"geometry":{"x":173036.16000000015,"y":2545975.9000000022}},{"attributes":{"ID":618371,"DIS_CODE":0,"TOWNNAME":"永康區","LI":"蔦松里","LIN":"2鄰","STREET":"中正北路","SECT":" ","MAREA":" ","LANE":" ","ALLEY":" ","HOUSE_NO":"５０１號","E_COORD97":173775.60000000001,"N_COORD97":2549157.4900000002,"ADDRESS":"中正北路５０１號","OBJECTID":618344},"geometry":{"x":173775.59999999963,"y":2549157.4900000039}},{"attributes":{"ID":618372,"DIS_CODE":0,"TOWNNAME":"永康區","LI":"蔦松里","LIN":"2鄰","STREET":"中正北路","SECT":" ","MAREA":" ","LANE":" ","ALLEY":" ","HOUSE_NO":"５２３之８號","E_COORD97":173868.92999999999,"N_COORD97":2549184.04,"ADDRESS":"中正北路５２３之８號","OBJECTID":618345},"geometry":{"x":173868.93000000063,"y":2549184.040000001}},{"attributes":{"ID":618373,"DIS_CODE":0,"TOWNNAME":"永康區","LI":"蔦松里","LIN":"2鄰","STREET":"中正北路","SECT":" ","MAREA":" ","LANE":" ","ALLEY":" ","HOUSE_NO":"５２３之１２號","E_COORD97":173885.59,"N_COORD97":2549190.04,"ADDRESS":"中正北路５２３之１２號","OBJECTID":618346},"geometry":{"x":173885.58999999985,"y":2549190.0400000028}},{"attributes":{"ID":618374,"DIS_CODE":0,"TOWNNAME":"永康區","LI":"蔦松里","LIN":"2鄰","STREET":"中正北路","SECT":" ","MAREA":" ","LANE":" ","ALLEY":" ","HOUSE_NO":"５２３之１１號","E_COORD97":173881.42999999999,"N_COORD97":2549188.54,"ADDRESS":"中正北路５２３之１１號","OBJECTID":618347},"geometry":{"x":173881.4299999997,"y":2549188.5399999991}},{"attributes":{"ID":618375,"DIS_CODE":0,"TOWNNAME":"永康區","LI":"蔦松里","LIN":"2鄰","STREET":"中正北路","SECT":" ","MAREA":" ","LANE":" ","ALLEY":" ","HOUSE_NO":"５２５號","E_COORD97":173894.89000000001,"N_COORD97":2549190.98,"ADDRESS":"中正北路５２５號","OBJECTID":618348},"geometry":{"x":173894.8900000006,"y":2549190.9800000004}},{"attributes":{"ID":618376,"DIS_CODE":0,"TOWNNAME":"善化區","LI":"坐駕里","LIN":"2鄰","STREET":"青年路","SECT":" ","MAREA":" ","LANE":" ","ALLEY":" ","HOUSE_NO":"１７３號","E_COORD97":177793.89000000001,"N_COORD97":2559045.25,"ADDRESS":"青年路１７３號","OBJECTID":618349},"geometry":{"x":177793.8900000006,"y":2559045.2500000037}},{"attributes":{"ID":618377,"DIS_CODE":0,"TOWNNAME":"善化區","LI":"坐駕里","LIN":"2鄰","STREET":"青年路","SECT":" ","MAREA":" ","LANE":" ","ALLEY":" ","HOUSE_NO":"２０６號","E_COORD97":177817.28,"N_COORD97":2559038.25,"ADDRESS":"青年路２０６號","OBJECTID":618350},"geometry":{"x":177817.28000000119,"y":2559038.25}},{"attributes":{"ID":618378,"DIS_CODE":0,"TOWNNAME":"善化區","LI":"南關里","LIN":"2鄰","STREET":"中華路","SECT":" ","MAREA":" ","LANE":" ","ALLEY":" ","HOUSE_NO":"１２７號","E_COORD97":177211.59,"N_COORD97":2558973,"ADDRESS":"中華路１２７號","OBJECTID":618351},"geometry":{"x":177211.58999999985,"y":2558973.0000000019}},{"attributes":{"ID":618379,"DIS_CODE":0,"TOWNNAME":"善化區","LI":"東關里","LIN":"2鄰","STREET":"中山路","SECT":" ","MAREA":" ","LANE":" ","ALLEY":" ","HOUSE_NO":"３８０號","E_COORD97":177498.73000000001,"N_COORD97":2559114,"ADDRESS":"中山路３８０號","OBJECTID":618352},"geometry":{"x":177498.73000000138,"y":2559114}},{"attributes":{"ID":618380,"DIS_CODE":0,"TOWNNAME":"善化區","LI":"東關里","LIN":"2鄰","STREET":"中山路","SECT":" ","MAREA":" ","LANE":" ","ALLEY":" ","HOUSE_NO":"３７６號","E_COORD97":177508.07999999999,"N_COORD97":2559113,"ADDRESS":"中山路３７６號","OBJECTID":618353},"geometry":{"x":177508.08000000101,"y":2559113.0000000019}},{"attributes":{"ID":618381,"DIS_CODE":0,"TOWNNAME":"永康區","LI":"南灣里","LIN":"15鄰","STREET":"立興街","SECT":" ","MAREA":" ","LANE":" ","ALLEY":" ","HOUSE_NO":"１１７號","E_COORD97":174458.59,"N_COORD97":2544689.4500000002,"ADDRESS":"立興街１１７號","OBJECTID":618354},"geometry":{"x":174458.58999999985,"y":2544689.4500000011}},{"attributes":{"ID":618382,"DIS_CODE":0,"TOWNNAME":"永康區","LI":"南灣里","LIN":"2鄰","STREET":"大灣路","SECT":" ","MAREA":" ","LANE":" ","ALLEY":" ","HOUSE_NO":"４５７號","E_COORD97":174666.85000000001,"N_COORD97":2544711.7000000002,"ADDRESS":"大灣路４５７號","OBJECTID":618355},"geometry":{"x":174666.84999999963,"y":2544711.7000000011}},{"attributes":{"ID":618383,"DIS_CODE":0,"TOWNNAME":"善化區","LI":"東關里","LIN":"2鄰","STREET":"中山路","SECT":" ","MAREA":" ","LANE":" ","ALLEY":" ","HOUSE_NO":"３７２號","E_COORD97":177520.92000000001,"N_COORD97":2559111.75,"ADDRESS":"中山路３７２號","OBJECTID":618356},"geometry":{"x":177520.92000000086,"y":2559111.75}},{"attributes":{"ID":618384,"DIS_CODE":0,"TOWNNAME":"善化區","LI":"東關里","LIN":"2鄰","STREET":"中山路","SECT":" ","MAREA":" ","LANE":" ","ALLEY":" ","HOUSE_NO":"３８８號","E_COORD97":177479.82999999999,"N_COORD97":2559115.5,"ADDRESS":"中山路３８８號","OBJECTID":618357},"geometry":{"x":177479.83000000007,"y":2559115.5000000019}},{"attributes":{"ID":618385,"DIS_CODE":0,"TOWNNAME":"善化區","LI":"東關里","LIN":"2鄰","STREET":"中山路","SECT":" ","MAREA":" ","LANE":" ","ALLEY":" ","HOUSE_NO":"３８６號","E_COORD97":177484.42000000001,"N_COORD97":2559115,"ADDRESS":"中山路３８６號","OBJECTID":618358},"geometry":{"x":177484.41999999993,"y":2559115.0000000037}},{"attributes":{"ID":618386,"DIS_CODE":0,"TOWNNAME":"善化區","LI":"坐駕里","LIN":"2鄰","STREET":"青年路","SECT":" ","MAREA":" ","LANE":" ","ALLEY":" ","HOUSE_NO":"１６１號","E_COORD97":177795.01000000001,"N_COORD97":2559013,"ADDRESS":"青年路１６１號","OBJECTID":618359},"geometry":{"x":177795.01000000071,"y":2559013.0000000037}},{"attributes":{"ID":618387,"DIS_CODE":0,"TOWNNAME":"善化區","LI":"坐駕里","LIN":"2鄰","STREET":"青年路","SECT":" ","MAREA":" ","LANE":" ","ALLEY":" ","HOUSE_NO":"１６３號","E_COORD97":177795.45999999999,"N_COORD97":2559017.25,"ADDRESS":"青年路１６３號","OBJECTID":618360},"geometry":{"x":177795.46000000089,"y":2559017.25}},{"attributes":{"ID":618388,"DIS_CODE":0,"TOWNNAME":"善化區","LI":"南關里","LIN":"2鄰","STREET":"中華路","SECT":" ","MAREA":" ","LANE":" ","ALLEY":" ","HOUSE_NO":"１２９號","E_COORD97":177211.45000000001,"N_COORD97":2558978.25,"ADDRESS":"中華路１２９號","OBJECTID":618361},"geometry":{"x":177211.45000000019,"y":2558978.2500000019}},{"attributes":{"ID":618389,"DIS_CODE":0,"TOWNNAME":"善化區","LI":"東關里","LIN":"2鄰","STREET":"中山路","SECT":" ","MAREA":" ","LANE":" ","ALLEY":" ","HOUSE_NO":"３８４號","E_COORD97":177489.03,"N_COORD97":2559114.75,"ADDRESS":"中山路３８４號","OBJECTID":618362},"geometry":{"x":177489.03000000026,"y":2559114.7500000019}},{"attributes":{"ID":618390,"DIS_CODE":0,"TOWNNAME":"善化區","LI":"東關里","LIN":"2鄰","STREET":"中山路","SECT":" ","MAREA":" ","LANE":" ","ALLEY":" ","HOUSE_NO":"３７０號之１","E_COORD97":177526.39000000001,"N_COORD97":2559111.52,"ADDRESS":"中山路３７０號之１","OBJECTID":618363},"geometry":{"x":177526.38999999966,"y":2559111.5200000014}},{"attributes":{"ID":618391,"DIS_CODE":0,"TOWNNAME":"善化區","LI":"坐駕里","LIN":"2鄰","STREET":"青年路","SECT":" ","MAREA":" ","LANE":" ","ALLEY":" ","HOUSE_NO":"１７５號","E_COORD97":177794.01000000001,"N_COORD97":2559048.75,"ADDRESS":"青年路１７５號","OBJECTID":618364},"geometry":{"x":177794.00999999978,"y":2559048.7500000037}},{"attributes":{"ID":618392,"DIS_CODE":0,"TOWNNAME":"安南區","LI":"幸福里","LIN":"2鄰","STREET":"國安街","SECT":" ","MAREA":" ","LANE":" ","ALLEY":" ","HOUSE_NO":"３７號","E_COORD97":167049.22,"N_COORD97":2547003.8799999999,"ADDRESS":"國安街３７號","OBJECTID":618365},"geometry":{"x":167049.22000000067,"y":2547003.8799999971}},{"attributes":{"ID":618393,"DIS_CODE":0,"TOWNNAME":"安南區","LI":"幸福里","LIN":"2鄰","STREET":"國安街","SECT":" ","MAREA":" ","LANE":" ","ALLEY":" ","HOUSE_NO":"２９號","E_COORD97":167068.14000000001,"N_COORD97":2547007.1200000001,"ADDRESS":"國安街２９號","OBJECTID":618366},"geometry":{"x":167068.1400000006,"y":2547007.120000001}},{"attributes":{"ID":618394,"DIS_CODE":0,"TOWNNAME":"安南區","LI":"幸福里","LIN":"2鄰","STREET":"國安街","SECT":" ","MAREA":" ","LANE":" ","ALLEY":" ","HOUSE_NO":"３１號","E_COORD97":167063.56,"N_COORD97":2547005.52,"ADDRESS":"國安街３１號","OBJECTID":618367},"geometry":{"x":167063.56000000052,"y":2547005.5199999996}},{"attributes":{"ID":618395,"DIS_CODE":0,"TOWNNAME":"安南區","LI":"幸福里","LIN":"2鄰","STREET":"國安街","SECT":" ","MAREA":" ","LANE":" ","ALLEY":" ","HOUSE_NO":"３３號","E_COORD97":167058.98000000001,"N_COORD97":2547004.77,"ADDRESS":"國安街３３號","OBJECTID":618368},"geometry":{"x":167058.98000000045,"y":2547004.7699999996}},{"attributes":{"ID":618396,"DIS_CODE":0,"TOWNNAME":"安南區","LI":"幸福里","LIN":"2鄰","STREET":"國安街","SECT":" ","MAREA":" ","LANE":" ","ALLEY":" ","HOUSE_NO":"３５號","E_COORD97":167054.53,"N_COORD97":2547004.4100000001,"ADDRESS":"國安街３５號","OBJECTID":618369},"geometry":{"x":167054.53000000119,"y":2547004.4100000001}},{"attributes":{"ID":618397,"DIS_CODE":0,"TOWNNAME":"永康區","LI":"東橋里","LIN":"20鄰","STREET":"自強路","SECT":" ","MAREA":" ","LANE":" ","ALLEY":" ","HOUSE_NO":"２０號","E_COORD97":172698.67000000001,"N_COORD97":2547144.4300000002,"ADDRESS":"自強路２０號","OBJECTID":618370},"geometry":{"x":172698.66999999993,"y":2547144.4300000016}},{"attributes":{"ID":618398,"DIS_CODE":0,"TOWNNAME":"安南區","LI":"幸福里","LIN":"2鄰","STREET":"國安街","SECT":" ","MAREA":" ","LANE":" ","ALLEY":" ","HOUSE_NO":"４９號","E_COORD97":167019.56,"N_COORD97":2546999.6299999999,"ADDRESS":"國安街４９號","OBJECTID":618371},"geometry":{"x":167019.56000000052,"y":2546999.6300000008}},{"attributes":{"ID":618399,"DIS_CODE":0,"TOWNNAME":"永康區","LI":"大橋里","LIN":"2鄰","STREET":"大橋二街","SECT":" ","MAREA":" ","LANE":" ","ALLEY":" ","HOUSE_NO":"８３號","E_COORD97":170776.29999999999,"N_COORD97":2546569.4500000002,"ADDRESS":"大橋二街８３號","OBJECTID":618372},"geometry":{"x":170776.30000000075,"y":2546569.4499999993}},{"attributes":{"ID":618400,"DIS_CODE":0,"TOWNNAME":"永康區","LI":"二王里","LIN":"2鄰","STREET":"永二街","SECT":" ","MAREA":" ","LANE":" ","ALLEY":" ","HOUSE_NO":"２６０號","E_COORD97":173111.12,"N_COORD97":2546492.2400000002,"ADDRESS":"永二街２６０號","OBJECTID":618373},"geometry":{"x":173111.12000000011,"y":2546492.2400000021}},{"attributes":{"ID":618401,"DIS_CODE":0,"TOWNNAME":"永康區","LI":"二王里","LIN":"2鄰","STREET":"永二街","SECT":" ","MAREA":" ","LANE":" ","ALLEY":" ","HOUSE_NO":"２５８號","E_COORD97":173114.17999999999,"N_COORD97":2546489.7400000002,"ADDRESS":"永二街２５８號","OBJECTID":618374},"geometry":{"x":173114.17999999877,"y":2546489.7400000002}},{"attributes":{"ID":618402,"DIS_CODE":0,"TOWNNAME":"永康區","LI":"二王里","LIN":"2鄰","STREET":"永二街","SECT":" ","MAREA":" ","LANE":" ","ALLEY":" ","HOUSE_NO":"２７８號","E_COORD97":173080.28,"N_COORD97":2546518.25,"ADDRESS":"永二街２７８號","OBJECTID":618375},"geometry":{"x":173080.28000000212,"y":2546518.2500000019}},{"attributes":{"ID":618403,"DIS_CODE":0,"TOWNNAME":"永康區","LI":"三合里","LIN":"2鄰","STREET":"南工街","SECT":" ","MAREA":" ","LANE":" ","ALLEY":" ","HOUSE_NO":"１５號","E_COORD97":172101.09,"N_COORD97":2545499.8300000001,"ADDRESS":"南工街１５號","OBJECTID":618376},"geometry":{"x":172101.08999999985,"y":2545499.8300000001}},{"attributes":{"ID":618404,"DIS_CODE":0,"TOWNNAME":"永康區","LI":"二王里","LIN":"2鄰","STREET":"永二街","SECT":" ","MAREA":" ","LANE":" ","ALLEY":" ","HOUSE_NO":"２７２號","E_COORD97":173089.32999999999,"N_COORD97":2546510.25,"ADDRESS":"永二街２７２號","OBJECTID":618377},"geometry":{"x":173089.33000000007,"y":2546510.25}},{"attributes":{"ID":618405,"DIS_CODE":0,"TOWNNAME":"永康區","LI":"三民里","LIN":"2鄰","STREET":"三民街","SECT":" ","MAREA":" ","LANE":" ","ALLEY":" ","HOUSE_NO":"１２４號","E_COORD97":172829.48000000001,"N_COORD97":2550337.5299999998,"ADDRESS":"三民街１２４號","OBJECTID":618378},"geometry":{"x":172829.48000000045,"y":2550337.5300000012}},{"attributes":{"ID":618406,"DIS_CODE":0,"TOWNNAME":"永康區","LI":"三合里","LIN":"2鄰","STREET":"南工街","SECT":" ","MAREA":" ","LANE":" ","ALLEY":" ","HOUSE_NO":"３７號","E_COORD97":172097.26999999999,"N_COORD97":2545574.5899999999,"ADDRESS":"南工街３７號","OBJECTID":618379},"geometry":{"x":172097.26999999955,"y":2545574.5899999999}},{"attributes":{"ID":618407,"DIS_CODE":0,"TOWNNAME":"永康區","LI":"三合里","LIN":"2鄰","STREET":"南工街","SECT":" ","MAREA":" ","LANE":" ","ALLEY":" ","HOUSE_NO":"９號","E_COORD97":172100.35000000001,"N_COORD97":2545482.0800000001,"ADDRESS":"南工街９號","OBJECTID":618380},"geometry":{"x":172100.34999999963,"y":2545482.0800000019}},{"attributes":{"ID":618408,"DIS_CODE":0,"TOWNNAME":"永康區","LI":"三民里","LIN":"2鄰","STREET":"三民街","SECT":" ","MAREA":" ","LANE":" ","ALLEY":" ","HOUSE_NO":"１１１之２號","E_COORD97":172762.16,"N_COORD97":2550361.0499999998,"ADDRESS":"三民街１１１之２號","OBJECTID":618381},"geometry":{"x":172762.15999999922,"y":2550361.0499999989}},{"attributes":{"ID":618409,"DIS_CODE":0,"TOWNNAME":"永康區","LI":"三民里","LIN":"2鄰","STREET":"三民街","SECT":" ","MAREA":" ","LANE":" ","ALLEY":" ","HOUSE_NO":"１１１號之１","E_COORD97":172749.56,"N_COORD97":2550366.7999999998,"ADDRESS":"三民街１１１號之１","OBJECTID":618382},"geometry":{"x":172749.56000000052,"y":2550366.8000000026}},{"attributes":{"ID":618410,"DIS_CODE":0,"TOWNNAME":"永康區","LI":"三民里","LIN":"2鄰","STREET":"三民街","SECT":" ","MAREA":" ","LANE":" ","ALLEY":" ","HOUSE_NO":"１０８號","E_COORD97":172873.10000000001,"N_COORD97":2550307.0299999998,"ADDRESS":"三民街１０８號","OBJECTID":618383},"geometry":{"x":172873.10000000056,"y":2550307.0300000012}},{"attributes":{"ID":618411,"DIS_CODE":0,"TOWNNAME":"永康區","LI":"東灣里","LIN":"13鄰","STREET":"大灣路","SECT":" ","MAREA":" ","LANE":" ","ALLEY":" ","HOUSE_NO":"３４９號","E_COORD97":174787.48999999999,"N_COORD97":2544926.9900000002,"ADDRESS":"大灣路３４９號","OBJECTID":618384},"geometry":{"x":174787.49000000209,"y":2544926.9900000021}},{"attributes":{"ID":618412,"DIS_CODE":0,"TOWNNAME":"永康區","LI":"南灣里","LIN":"9鄰","STREET":"大灣東路","SECT":" ","MAREA":" ","LANE":" ","ALLEY":" ","HOUSE_NO":"５之２號","E_COORD97":174057.42000000001,"N_COORD97":2544284.6099999999,"ADDRESS":"大灣東路５之２號","OBJECTID":618385},"geometry":{"x":174057.42000000086,"y":2544284.6100000013}},{"attributes":{"ID":618413,"DIS_CODE":0,"TOWNNAME":"永康區","LI":"三合里","LIN":"2鄰","STREET":"南工街","SECT":" ","MAREA":" ","LANE":" ","ALLEY":" ","HOUSE_NO":"２５號","E_COORD97":172098.88,"N_COORD97":2545535.8399999999,"ADDRESS":"南工街２５號","OBJECTID":618386},"geometry":{"x":172098.87999999989,"y":2545535.8399999999}},{"attributes":{"ID":618414,"DIS_CODE":0,"TOWNNAME":"永康區","LI":"三合里","LIN":"2鄰","STREET":"南工街","SECT":" ","MAREA":" ","LANE":" ","ALLEY":" ","HOUSE_NO":"１７號","E_COORD97":172100.85000000001,"N_COORD97":2545505.8300000001,"ADDRESS":"南工街１７號","OBJECTID":618387},"geometry":{"x":172100.84999999963,"y":2545505.8300000001}},{"attributes":{"ID":618415,"DIS_CODE":0,"TOWNNAME":"永康區","LI":"三合里","LIN":"2鄰","STREET":"南工街","SECT":" ","MAREA":" ","LANE":" ","ALLEY":" ","HOUSE_NO":"４５號","E_COORD97":172096.42000000001,"N_COORD97":2545595.25,"ADDRESS":"南工街４５號","OBJECTID":618388},"geometry":{"x":172096.42000000086,"y":2545595.25}},{"attributes":{"ID":618416,"DIS_CODE":0,"TOWNNAME":"永康區","LI":"二王里","LIN":"2鄰","STREET":"永二街","SECT":" ","MAREA":" ","LANE":" ","ALLEY":" ","HOUSE_NO":"２７０號","E_COORD97":173094.92000000001,"N_COORD97":2546505.04,"ADDRESS":"永二街２７０號","OBJECTID":618389},"geometry":{"x":173094.92000000086,"y":2546505.0400000028}},{"attributes":{"ID":618417,"DIS_CODE":0,"TOWNNAME":"永康區","LI":"三民里","LIN":"2鄰","STREET":"三民街","SECT":" ","MAREA":" ","LANE":" ","ALLEY":" ","HOUSE_NO":"８９號","E_COORD97":172821.04000000001,"N_COORD97":2550319.6299999999,"ADDRESS":"三民街８９號","OBJECTID":618390},"geometry":{"x":172821.04000000097,"y":2550319.6300000008}},{"attributes":{"ID":618418,"DIS_CODE":0,"TOWNNAME":"永康區","LI":"五王里","LIN":"2鄰","STREET":"成功路","SECT":" ","MAREA":" ","LANE":" ","ALLEY":" ","HOUSE_NO":"５３號","E_COORD97":171489.17999999999,"N_COORD97":2545495.6600000001,"ADDRESS":"成功路５３號","OBJECTID":618391},"geometry":{"x":171489.18000000063,"y":2545495.660000002}},{"attributes":{"ID":618419,"DIS_CODE":0,"TOWNNAME":"永康區","LI":"六合里","LIN":"2鄰","STREET":"中山南路","SECT":" ","MAREA":" ","LANE":" ","ALLEY":" ","HOUSE_NO":"６號","E_COORD97":170733.5,"N_COORD97":2545768.7000000002,"ADDRESS":"中山南路６號","OBJECTID":618392},"geometry":{"x":170733.5,"y":2545768.7000000011}},{"attributes":{"ID":618420,"DIS_CODE":0,"TOWNNAME":"永康區","LI":"五王里","LIN":"2鄰","STREET":"成功路","SECT":" ","MAREA":" ","LANE":" ","ALLEY":" ","HOUSE_NO":"９３號","E_COORD97":171448.10000000001,"N_COORD97":2545570.2599999998,"ADDRESS":"成功路９３號","OBJECTID":618393},"geometry":{"x":171448.09999999963,"y":2545570.2599999998}},{"attributes":{"ID":618421,"DIS_CODE":0,"TOWNNAME":"永康區","LI":"五王里","LIN":"2鄰","STREET":"中華路","SECT":" ","MAREA":" ","LANE":" ","ALLEY":" ","HOUSE_NO":"３６０號","E_COORD97":171461.23999999999,"N_COORD97":2545478.25,"ADDRESS":"中華路３６０號","OBJECTID":618394},"geometry":{"x":171461.24000000022,"y":2545478.2500000019}},{"attributes":{"ID":618422,"DIS_CODE":0,"TOWNNAME":"永康區","LI":"三合里","LIN":"2鄰","STREET":"南工街","SECT":" ","MAREA":" ","LANE":" ","ALLEY":" ","HOUSE_NO":"３１號","E_COORD97":172098.28,"N_COORD97":2545554.8399999999,"ADDRESS":"南工街３１號","OBJECTID":618395},"geometry":{"x":172098.28000000026,"y":2545554.8400000017}},{"attributes":{"ID":618423,"DIS_CODE":0,"TOWNNAME":"永康區","LI":"三合里","LIN":"2鄰","STREET":"南工街","SECT":" ","MAREA":" ","LANE":" ","ALLEY":" ","HOUSE_NO":"１９號","E_COORD97":172100.25,"N_COORD97":2545512.5800000001,"ADDRESS":"南工街１９號","OBJECTID":618396},"geometry":{"x":172100.24999999907,"y":2545512.5800000019}},{"attributes":{"ID":618424,"DIS_CODE":0,"TOWNNAME":"永康區","LI":"三合里","LIN":"2鄰","STREET":"南工街","SECT":" ","MAREA":" ","LANE":" ","ALLEY":" ","HOUSE_NO":"２９號","E_COORD97":172098.62,"N_COORD97":2545548.8399999999,"ADDRESS":"南工街２９號","OBJECTID":618397},"geometry":{"x":172098.62000000104,"y":2545548.8400000017}},{"attributes":{"ID":618425,"DIS_CODE":0,"TOWNNAME":"永康區","LI":"三合里","LIN":"2鄰","STREET":"南工街","SECT":" ","MAREA":" ","LANE":" ","ALLEY":" ","HOUSE_NO":"１１號","E_COORD97":172101.34,"N_COORD97":2545488.3300000001,"ADDRESS":"南工街１１號","OBJECTID":618398},"geometry":{"x":172101.34000000171,"y":2545488.3300000019}},{"attributes":{"ID":618426,"DIS_CODE":0,"TOWNNAME":"永康區","LI":"三民里","LIN":"2鄰","STREET":"三民街","SECT":" ","MAREA":" ","LANE":" ","ALLEY":" ","HOUSE_NO":"１０６號","E_COORD97":172878.82000000001,"N_COORD97":2550302.4500000002,"ADDRESS":"三民街１０６號","OBJECTID":618399},"geometry":{"x":172878.82000000123,"y":2550302.4499999993}},{"attributes":{"ID":618427,"DIS_CODE":0,"TOWNNAME":"永康區","LI":"三合里","LIN":"2鄰","STREET":"南工街","SECT":" ","MAREA":" ","LANE":" ","ALLEY":" ","HOUSE_NO":"５１號","E_COORD97":172097.28,"N_COORD97":2545607.25,"ADDRESS":"南工街５１號","OBJECTID":618400},"geometry":{"x":172097.28000000119,"y":2545607.2500000019}}]}