{"displayFieldName":"TOWNNAME","fieldAliases":{"ID":"ID","DIS_CODE":"DIS_CODE","TOWNNAME":"TOWNNAME","LI":"LI","LIN":"LIN","STREET":"STREET","SECT":"SECT","MAREA":"MAREA","LANE":"LANE","ALLEY":"ALLEY","HOUSE_NO":"HOUSE_NO","E_COORD97":"E_COORD97","N_COORD97":"N_COORD97","ADDRESS":"ADDRESS","OBJECTID":"OBJECTID"},"geometryType":"esriGeometryPoint","spatialReference":{"wkid":102443,"latestWkid":3826},"fields":[{"name":"ID","type":"esriFieldTypeDouble","alias":"ID"},{"name":"DIS_CODE","type":"esriFieldTypeInteger","alias":"DIS_CODE"},{"name":"TOWNNAME","type":"esriFieldTypeString","alias":"TOWNNAME","length":8},{"name":"LI","type":"esriFieldTypeString","alias":"LI","length":8},{"name":"LIN","type":"esriFieldTypeString","alias":"LIN","length":12},{"name":"STREET","type":"esriFieldTypeString","alias":"STREET","length":20},{"name":"SECT","type":"esriFieldTypeString","alias":"SECT","length":8},{"name":"MAREA","type":"esriFieldTypeString","alias":"MAREA","length":12},{"name":"LANE","type":"esriFieldTypeString","alias":"LANE","length":10},{"name":"ALLEY","type":"esriFieldTypeString","alias":"ALLEY","length":10},{"name":"HOUSE_NO","type":"esriFieldTypeString","alias":"HOUSE_NO","length":20},{"name":"E_COORD97","type":"esriFieldTypeDouble","alias":"E_COORD97"},{"name":"N_COORD97","type":"esriFieldTypeDouble","alias":"N_COORD97"},{"name":"ADDRESS","type":"esriFieldTypeString","alias":"ADDRESS","length":50},{"name":"OBJECTID","type":"esriFieldTypeOID","alias":"OBJECTID"}],"features":[{"attributes":{"ID":147202,"DIS_CODE":0,"TOWNNAME":"永康區","LI":"網寮里","LIN":"3鄰","STREET":"永和街","SECT":" ","MAREA":" ","LANE":"２３８巷","ALLEY":"２２弄","HOUSE_NO":"１３號","E_COORD97":173538.95999999999,"N_COORD97":2546626.2400000002,"ADDRESS":"永和街２３８巷２２弄１３號","OBJECTID":147201},"geometry":{"x":173538.96000000089,"y":2546626.2400000002}},{"attributes":{"ID":147203,"DIS_CODE":0,"TOWNNAME":"永康區","LI":"網寮里","LIN":"3鄰","STREET":"永和街","SECT":" ","MAREA":" ","LANE":"２３８巷","ALLEY":"２２弄","HOUSE_NO":"１５號","E_COORD97":173534.26000000001,"N_COORD97":2546619.8700000001,"ADDRESS":"永和街２３８巷２２弄１５號","OBJECTID":147202},"geometry":{"x":173534.26000000164,"y":2546619.8700000048}},{"attributes":{"ID":147204,"DIS_CODE":0,"TOWNNAME":"新市區","LI":"大社里","LIN":"30鄰","STREET":" ","SECT":" ","MAREA":"大社","LANE":" ","ALLEY":" ","HOUSE_NO":"９９２之２號","E_COORD97":180260.85000000001,"N_COORD97":2553701.2999999998,"ADDRESS":"大社９９２之２號","OBJECTID":147203},"geometry":{"x":180260.84999999963,"y":2553701.3000000007}},{"attributes":{"ID":147205,"DIS_CODE":0,"TOWNNAME":"永康區","LI":"網寮里","LIN":"3鄰","STREET":"永和街","SECT":" ","MAREA":" ","LANE":"２６０巷","ALLEY":"２６弄","HOUSE_NO":"２５號","E_COORD97":173506.60000000001,"N_COORD97":2546648.25,"ADDRESS":"永和街２６０巷２６弄２５號","OBJECTID":147204},"geometry":{"x":173506.60000000056,"y":2546648.2500000019}},{"attributes":{"ID":147206,"DIS_CODE":0,"TOWNNAME":"新市區","LI":"大社里","LIN":"30鄰","STREET":" ","SECT":" ","MAREA":"大社","LANE":" ","ALLEY":" ","HOUSE_NO":"９９２之１３號","E_COORD97":180271.57000000001,"N_COORD97":2553652.5499999998,"ADDRESS":"大社９９２之１３號","OBJECTID":147205},"geometry":{"x":180271.57000000123,"y":2553652.5500000007}},{"attributes":{"ID":147207,"DIS_CODE":0,"TOWNNAME":"新市區","LI":"大社里","LIN":"30鄰","STREET":" ","SECT":" ","MAREA":"大社","LANE":" ","ALLEY":" ","HOUSE_NO":"９８５之４號","E_COORD97":180232.92000000001,"N_COORD97":2553769.7999999998,"ADDRESS":"大社９８５之４號","OBJECTID":147206},"geometry":{"x":180232.92000000086,"y":2553769.8000000007}},{"attributes":{"ID":147208,"DIS_CODE":0,"TOWNNAME":"新市區","LI":"大社里","LIN":"30鄰","STREET":" ","SECT":" ","MAREA":"大社","LANE":" ","ALLEY":" ","HOUSE_NO":"９８５之１４號","E_COORD97":180266.76000000001,"N_COORD97":2553746.0499999998,"ADDRESS":"大社９８５之１４號","OBJECTID":147207},"geometry":{"x":180266.75999999978,"y":2553746.0500000026}},{"attributes":{"ID":147209,"DIS_CODE":0,"TOWNNAME":"新市區","LI":"大社里","LIN":"30鄰","STREET":" ","SECT":" ","MAREA":"大社","LANE":" ","ALLEY":" ","HOUSE_NO":"９８５之３號","E_COORD97":180230.13,"N_COORD97":2553784.0499999998,"ADDRESS":"大社９８５之３號","OBJECTID":147208},"geometry":{"x":180230.13000000082,"y":2553784.0500000007}},{"attributes":{"ID":147210,"DIS_CODE":0,"TOWNNAME":"新市區","LI":"大社里","LIN":"30鄰","STREET":" ","SECT":" ","MAREA":"大社","LANE":" ","ALLEY":" ","HOUSE_NO":"９９２之４號","E_COORD97":180250.26000000001,"N_COORD97":2553699.7999999998,"ADDRESS":"大社９９２之４號","OBJECTID":147209},"geometry":{"x":180250.25999999978,"y":2553699.8000000026}},{"attributes":{"ID":147211,"DIS_CODE":0,"TOWNNAME":"永康區","LI":"網寮里","LIN":"3鄰","STREET":"永和街","SECT":" ","MAREA":" ","LANE":"２６０巷","ALLEY":"２６弄","HOUSE_NO":"３１號","E_COORD97":173500.44,"N_COORD97":2546633.7200000002,"ADDRESS":"永和街２６０巷２６弄３１號","OBJECTID":147210},"geometry":{"x":173500.44000000134,"y":2546633.7200000007}},{"attributes":{"ID":147212,"DIS_CODE":0,"TOWNNAME":"永康區","LI":"正強里","LIN":"15鄰","STREET":"中山南路","SECT":" ","MAREA":" ","LANE":"４７１巷","ALLEY":"８１弄","HOUSE_NO":"１０號","E_COORD97":173329.14999999999,"N_COORD97":2547227.2400000002,"ADDRESS":"中山南路４７１巷８１弄１０號","OBJECTID":147211},"geometry":{"x":173329.1500000013,"y":2547227.2400000021}},{"attributes":{"ID":147213,"DIS_CODE":0,"TOWNNAME":"關廟區","LI":"龜洞里","LIN":"3鄰","STREET":"中崙街","SECT":" ","MAREA":" ","LANE":"１１巷","ALLEY":"６弄","HOUSE_NO":"２５號","E_COORD97":183305.34,"N_COORD97":2533578.2999999998,"ADDRESS":"中崙街１１巷６弄２５號","OBJECTID":147212},"geometry":{"x":183305.34000000078,"y":2533578.3000000026}},{"attributes":{"ID":147214,"DIS_CODE":0,"TOWNNAME":"關廟區","LI":"布袋里","LIN":"3鄰","STREET":"長文街","SECT":" ","MAREA":" ","LANE":"１６８巷","ALLEY":"２８弄","HOUSE_NO":"８號","E_COORD97":182711.98999999999,"N_COORD97":2535456.2999999998,"ADDRESS":"長文街１６８２８８號","OBJECTID":147213},"geometry":{"x":182711.99000000022,"y":2535456.3000000026}},{"attributes":{"ID":147215,"DIS_CODE":0,"TOWNNAME":"永康區","LI":"北灣里","LIN":"28鄰","STREET":"文賢街","SECT":" ","MAREA":" ","LANE":"７８巷","ALLEY":"１９弄","HOUSE_NO":"９２號","E_COORD97":175469.14999999999,"N_COORD97":2545491.6600000001,"ADDRESS":"文賢街７８巷１９弄９２號","OBJECTID":147214},"geometry":{"x":175469.15000000037,"y":2545491.660000002}},{"attributes":{"ID":147216,"DIS_CODE":0,"TOWNNAME":"佳里區","LI":"六安里","LIN":"30鄰","STREET":"進學路","SECT":" ","MAREA":" ","LANE":" ","ALLEY":" ","HOUSE_NO":"２７２號","E_COORD97":165574.10000000001,"N_COORD97":2562707.9300000002,"ADDRESS":"進學路２７２號","OBJECTID":147215},"geometry":{"x":165574.09999999963,"y":2562707.9299999997}},{"attributes":{"ID":147217,"DIS_CODE":0,"TOWNNAME":"永康區","LI":"北灣里","LIN":"29鄰","STREET":"文賢街","SECT":" ","MAREA":" ","LANE":"７８巷","ALLEY":"５弄","HOUSE_NO":"５號","E_COORD97":175387.89000000001,"N_COORD97":2545346.7200000002,"ADDRESS":"文賢街７８巷５弄５號","OBJECTID":147216},"geometry":{"x":175387.8900000006,"y":2545346.7200000025}},{"attributes":{"ID":147218,"DIS_CODE":0,"TOWNNAME":"關廟區","LI":"布袋里","LIN":"3鄰","STREET":"長文街","SECT":" ","MAREA":" ","LANE":"１６８巷","ALLEY":"２８弄","HOUSE_NO":"１６號","E_COORD97":182702.34,"N_COORD97":2535484.2999999998,"ADDRESS":"長文街１６８２８１６號","OBJECTID":147217},"geometry":{"x":182702.33999999985,"y":2535484.3000000026}},{"attributes":{"ID":147219,"DIS_CODE":0,"TOWNNAME":"永康區","LI":"北灣里","LIN":"38鄰","STREET":"大灣路","SECT":" ","MAREA":" ","LANE":"４０巷","ALLEY":"２０９弄","HOUSE_NO":"２０號","E_COORD97":174757.91,"N_COORD97":2546317.8799999999,"ADDRESS":"大灣路４０巷２０９弄２０號","OBJECTID":147218},"geometry":{"x":174757.91000000108,"y":2546317.879999999}},{"attributes":{"ID":147220,"DIS_CODE":0,"TOWNNAME":"永康區","LI":"北灣里","LIN":"39鄰","STREET":"永大路","SECT":"二段","MAREA":" ","LANE":"９５２巷","ALLEY":"２０弄","HOUSE_NO":"３３號","E_COORD97":174549.32000000001,"N_COORD97":2546249.6099999999,"ADDRESS":"永大路二段９５２巷２０弄３３號","OBJECTID":147219},"geometry":{"x":174549.3200000003,"y":2546249.6099999994}},{"attributes":{"ID":147221,"DIS_CODE":0,"TOWNNAME":"永康區","LI":"王行里","LIN":"1鄰","STREET":"中山北路","SECT":" ","MAREA":" ","LANE":"４９９巷","ALLEY":"２４弄","HOUSE_NO":"１０號","E_COORD97":175281.29000000001,"N_COORD97":2548177.2400000002,"ADDRESS":"中山北路４９９巷２４弄１０號","OBJECTID":147220},"geometry":{"x":175281.29000000004,"y":2548177.2400000021}},{"attributes":{"ID":147222,"DIS_CODE":0,"TOWNNAME":"永康區","LI":"北灣里","LIN":"36鄰","STREET":"大灣路","SECT":" ","MAREA":" ","LANE":"４０巷","ALLEY":"１８２弄","HOUSE_NO":"２２號","E_COORD97":174851.87,"N_COORD97":2546368.5800000001,"ADDRESS":"大灣路４０巷１８２弄２２號","OBJECTID":147221},"geometry":{"x":174851.87000000011,"y":2546368.5800000001}},{"attributes":{"ID":147223,"DIS_CODE":0,"TOWNNAME":"永康區","LI":"北灣里","LIN":"34鄰","STREET":"大灣路","SECT":" ","MAREA":" ","LANE":"４０巷","ALLEY":"２６弄","HOUSE_NO":"１９號之２","E_COORD97":175216.89999999999,"N_COORD97":2546090.8399999999,"ADDRESS":"大灣路４０巷２６弄１９號之２","OBJECTID":147222},"geometry":{"x":175216.90000000037,"y":2546090.8400000017}},{"attributes":{"ID":147224,"DIS_CODE":0,"TOWNNAME":"永康區","LI":"北灣里","LIN":"21鄰","STREET":"大同街","SECT":" ","MAREA":" ","LANE":"３８０巷","ALLEY":"４１弄","HOUSE_NO":"１５號","E_COORD97":174862.60999999999,"N_COORD97":2546087.6000000001,"ADDRESS":"大同街３８０巷４１弄１５號","OBJECTID":147223},"geometry":{"x":174862.61000000034,"y":2546087.5999999996}},{"attributes":{"ID":147225,"DIS_CODE":0,"TOWNNAME":"仁德區","LI":"太子里","LIN":"44鄰","STREET":"太子路","SECT":" ","MAREA":" ","LANE":"１０１巷","ALLEY":" ","HOUSE_NO":"１８之１號","E_COORD97":174904.313372,"N_COORD97":2543428.1203000001,"ADDRESS":"太子路１０１巷１８之１號","OBJECTID":147224},"geometry":{"x":174904.31337200012,"y":2543428.1202959996}},{"attributes":{"ID":147226,"DIS_CODE":0,"TOWNNAME":"佳里區","LI":"六安里","LIN":"30鄰","STREET":"進學路","SECT":" ","MAREA":" ","LANE":" ","ALLEY":" ","HOUSE_NO":"２７４號","E_COORD97":165569.51999999999,"N_COORD97":2562710.77,"ADDRESS":"進學路２７４號","OBJECTID":147225},"geometry":{"x":165569.51999999955,"y":2562710.7700000014}},{"attributes":{"ID":147227,"DIS_CODE":0,"TOWNNAME":"新市區","LI":"大社里","LIN":"30鄰","STREET":" ","SECT":" ","MAREA":"大社","LANE":" ","ALLEY":" ","HOUSE_NO":"９９２之１１號","E_COORD97":180279.17999999999,"N_COORD97":2553667.5499999998,"ADDRESS":"大社９９２之１１號","OBJECTID":147226},"geometry":{"x":180279.1799999997,"y":2553667.5500000026}},{"attributes":{"ID":147228,"DIS_CODE":0,"TOWNNAME":"佳里區","LI":"六安里","LIN":"30鄰","STREET":"進學路","SECT":" ","MAREA":" ","LANE":" ","ALLEY":" ","HOUSE_NO":"２７６號","E_COORD97":165564.48000000001,"N_COORD97":2562711.1499999999,"ADDRESS":"進學路２７６號","OBJECTID":147227},"geometry":{"x":165564.48000000138,"y":2562711.1499999985}},{"attributes":{"ID":147229,"DIS_CODE":0,"TOWNNAME":"新市區","LI":"大社里","LIN":"30鄰","STREET":" ","SECT":" ","MAREA":"大社","LANE":" ","ALLEY":" ","HOUSE_NO":"９８５之１號","E_COORD97":180239.23000000001,"N_COORD97":2553785.0499999998,"ADDRESS":"大社９８５之１號","OBJECTID":147228},"geometry":{"x":180239.23000000045,"y":2553785.0500000007}},{"attributes":{"ID":147230,"DIS_CODE":0,"TOWNNAME":"永康區","LI":"永康里","LIN":"30鄰","STREET":"永華路","SECT":" ","MAREA":" ","LANE":" ","ALLEY":" ","HOUSE_NO":"７５０號","E_COORD97":174129.60000000001,"N_COORD97":2547157.4300000002,"ADDRESS":"永華路７５０號","OBJECTID":147229},"geometry":{"x":174129.59999999963,"y":2547157.4300000016}},{"attributes":{"ID":147231,"DIS_CODE":0,"TOWNNAME":"永康區","LI":"北灣里","LIN":"34鄰","STREET":"大灣路","SECT":" ","MAREA":" ","LANE":"４０巷","ALLEY":"２６弄","HOUSE_NO":"１９號之１","E_COORD97":175213.35999999999,"N_COORD97":2546086.8399999999,"ADDRESS":"大灣路４０巷２６弄１９號之１","OBJECTID":147230},"geometry":{"x":175213.36000000034,"y":2546086.8400000017}},{"attributes":{"ID":147232,"DIS_CODE":0,"TOWNNAME":"永康區","LI":"正強里","LIN":"19鄰","STREET":"中山南路","SECT":" ","MAREA":" ","LANE":"４７１巷","ALLEY":"６３弄","HOUSE_NO":"２號","E_COORD97":173235.82000000001,"N_COORD97":2547197.4900000002,"ADDRESS":"中山南路４７１巷６３弄２號","OBJECTID":147231},"geometry":{"x":173235.8200000003,"y":2547197.4900000002}},{"attributes":{"ID":147233,"DIS_CODE":0,"TOWNNAME":"永康區","LI":"永康里","LIN":"30鄰","STREET":"永康街","SECT":" ","MAREA":" ","LANE":" ","ALLEY":" ","HOUSE_NO":"２４３號","E_COORD97":174228.26000000001,"N_COORD97":2547048.04,"ADDRESS":"永康街２４３號","OBJECTID":147232},"geometry":{"x":174228.26000000071,"y":2547048.040000001}},{"attributes":{"ID":147234,"DIS_CODE":0,"TOWNNAME":"白河區","LI":"仙草里","LIN":" ","STREET":" ","SECT":" ","MAREA":"仙草","LANE":" ","ALLEY":" ","HOUSE_NO":"６２之９號","E_COORD97":196770.32999999999,"N_COORD97":2582409.73,"ADDRESS":"仙草６２之９號","OBJECTID":147233},"geometry":{"x":196770.33000000101,"y":2582409.7300000023}},{"attributes":{"ID":147235,"DIS_CODE":0,"TOWNNAME":"白河區","LI":"仙草里","LIN":" ","STREET":" ","SECT":" ","MAREA":"仙草","LANE":" ","ALLEY":" ","HOUSE_NO":"６６之１３號","E_COORD97":196871.95999999999,"N_COORD97":2582216.9700000002,"ADDRESS":"仙草６６之１３號","OBJECTID":147234},"geometry":{"x":196871.95999999996,"y":2582216.9700000007}},{"attributes":{"ID":147236,"DIS_CODE":0,"TOWNNAME":"白河區","LI":"仙草里","LIN":" ","STREET":" ","SECT":" ","MAREA":"仙草","LANE":" ","ALLEY":" ","HOUSE_NO":"６６之１５號","E_COORD97":196864.56,"N_COORD97":2582274.5299999998,"ADDRESS":"仙草６６之１５號","OBJECTID":147235},"geometry":{"x":196864.56000000145,"y":2582274.5300000012}},{"attributes":{"ID":147237,"DIS_CODE":0,"TOWNNAME":"白河區","LI":"仙草里","LIN":" ","STREET":" ","SECT":" ","MAREA":"仙草","LANE":" ","ALLEY":" ","HOUSE_NO":"６６之１７號","E_COORD97":196881.87,"N_COORD97":2582285.4399999999,"ADDRESS":"仙草６６之１７號","OBJECTID":147236},"geometry":{"x":196881.87000000104,"y":2582285.4400000013}},{"attributes":{"ID":147238,"DIS_CODE":0,"TOWNNAME":"白河區","LI":"仙草里","LIN":" ","STREET":" ","SECT":" ","MAREA":"仙草","LANE":" ","ALLEY":" ","HOUSE_NO":"６６之１８號","E_COORD97":196884.98000000001,"N_COORD97":2582285.6699999999,"ADDRESS":"仙草６６之１８號","OBJECTID":147237},"geometry":{"x":196884.98000000138,"y":2582285.6699999999}},{"attributes":{"ID":147239,"DIS_CODE":0,"TOWNNAME":"白河區","LI":"仙草里","LIN":" ","STREET":" ","SECT":" ","MAREA":"仙草","LANE":" ","ALLEY":" ","HOUSE_NO":"６６之１９號","E_COORD97":196859.60000000001,"N_COORD97":2582279.5,"ADDRESS":"仙草６６之１９號","OBJECTID":147238},"geometry":{"x":196859.60000000056,"y":2582279.5000000019}},{"attributes":{"ID":147240,"DIS_CODE":0,"TOWNNAME":"白河區","LI":"仙草里","LIN":" ","STREET":" ","SECT":" ","MAREA":"仙草","LANE":" ","ALLEY":" ","HOUSE_NO":"６６之１號","E_COORD97":196868.35999999999,"N_COORD97":2582284.4900000002,"ADDRESS":"仙草６６之１號","OBJECTID":147239},"geometry":{"x":196868.3600000022,"y":2582284.4900000002}},{"attributes":{"ID":147241,"DIS_CODE":0,"TOWNNAME":"新化區","LI":"東榮里","LIN":"30鄰","STREET":"信義路","SECT":" ","MAREA":" ","LANE":" ","ALLEY":" ","HOUSE_NO":"１５７號之２３","E_COORD97":179308.42999999999,"N_COORD97":2548342.2599999998,"ADDRESS":"信義路１５７號之２３","OBJECTID":147240},"geometry":{"x":179308.43000000156,"y":2548342.2600000016}},{"attributes":{"ID":147242,"DIS_CODE":0,"TOWNNAME":"新化區","LI":"東榮里","LIN":"30鄰","STREET":"信義路","SECT":" ","MAREA":" ","LANE":" ","ALLEY":" ","HOUSE_NO":"１５７號之３０","E_COORD97":179307.32000000001,"N_COORD97":2548347.2599999998,"ADDRESS":"信義路１５７號之３０","OBJECTID":147241},"geometry":{"x":179307.3200000003,"y":2548347.2599999998}},{"attributes":{"ID":147243,"DIS_CODE":0,"TOWNNAME":"新化區","LI":"東榮里","LIN":"30鄰","STREET":"信義路","SECT":" ","MAREA":" ","LANE":" ","ALLEY":" ","HOUSE_NO":"１５７號之２０","E_COORD97":179309.92000000001,"N_COORD97":2548328.2599999998,"ADDRESS":"信義路１５７號之２０","OBJECTID":147242},"geometry":{"x":179309.91999999993,"y":2548328.2600000035}},{"attributes":{"ID":147244,"DIS_CODE":0,"TOWNNAME":"新化區","LI":"東榮里","LIN":"30鄰","STREET":"護安街","SECT":" ","MAREA":" ","LANE":" ","ALLEY":" ","HOUSE_NO":"２６號","E_COORD97":179238.28,"N_COORD97":2548298.2599999998,"ADDRESS":"護安街２６號","OBJECTID":147243},"geometry":{"x":179238.28000000026,"y":2548298.2600000016}},{"attributes":{"ID":147245,"DIS_CODE":0,"TOWNNAME":"新化區","LI":"東榮里","LIN":"30鄰","STREET":"信義路","SECT":" ","MAREA":" ","LANE":" ","ALLEY":" ","HOUSE_NO":"１５７號之２８","E_COORD97":179285.64000000001,"N_COORD97":2548366.2599999998,"ADDRESS":"信義路１５７號之２８","OBJECTID":147244},"geometry":{"x":179285.6400000006,"y":2548366.2600000016}},{"attributes":{"ID":147246,"DIS_CODE":0,"TOWNNAME":"永康區","LI":"北灣里","LIN":"29鄰","STREET":"文賢街","SECT":" ","MAREA":" ","LANE":"７８巷","ALLEY":"５弄","HOUSE_NO":"７號","E_COORD97":175387.44,"N_COORD97":2545363.0699999998,"ADDRESS":"文賢街７８巷５弄７號","OBJECTID":147245},"geometry":{"x":175387.44000000041,"y":2545363.0699999984}},{"attributes":{"ID":147247,"DIS_CODE":0,"TOWNNAME":"永康區","LI":"北灣里","LIN":"26鄰","STREET":"文賢街","SECT":" ","MAREA":" ","LANE":"７８巷","ALLEY":"１９弄","HOUSE_NO":"１０７號","E_COORD97":175456.62,"N_COORD97":2545501.27,"ADDRESS":"文賢街７８巷１９弄１０７號","OBJECTID":147246},"geometry":{"x":175456.62000000104,"y":2545501.2700000014}},{"attributes":{"ID":147248,"DIS_CODE":0,"TOWNNAME":"白河區","LI":"仙草里","LIN":" ","STREET":" ","SECT":" ","MAREA":"仙草","LANE":" ","ALLEY":" ","HOUSE_NO":"６６之２４號","E_COORD97":196919.17999999999,"N_COORD97":2582275.6000000001,"ADDRESS":"仙草６６之２４號","OBJECTID":147247},"geometry":{"x":196919.1799999997,"y":2582275.5999999996}},{"attributes":{"ID":147249,"DIS_CODE":0,"TOWNNAME":"鹽水區","LI":"歡雅里","LIN":"5鄰","STREET":" ","SECT":" ","MAREA":"歡雅","LANE":" ","ALLEY":" ","HOUSE_NO":"８０號","E_COORD97":172575.57000000001,"N_COORD97":2576583.79,"ADDRESS":"歡雅８０號","OBJECTID":147248},"geometry":{"x":172575.57000000123,"y":2576583.790000001}},{"attributes":{"ID":147250,"DIS_CODE":0,"TOWNNAME":"永康區","LI":"北灣里","LIN":"21鄰","STREET":"大同街","SECT":" ","MAREA":" ","LANE":"３８０巷","ALLEY":"３１弄","HOUSE_NO":"２１號","E_COORD97":174848.19,"N_COORD97":2546111.3199999998,"ADDRESS":"大同街３８０巷３１弄２１號","OBJECTID":147249},"geometry":{"x":174848.19000000134,"y":2546111.3200000022}},{"attributes":{"ID":147251,"DIS_CODE":0,"TOWNNAME":"永康區","LI":"北灣里","LIN":"38鄰","STREET":"大灣路","SECT":" ","MAREA":" ","LANE":"４０巷","ALLEY":"２０９弄","HOUSE_NO":"１６號","E_COORD97":174764.79000000001,"N_COORD97":2546324.1899999999,"ADDRESS":"大灣路４０巷２０９弄１６號","OBJECTID":147250},"geometry":{"x":174764.79000000004,"y":2546324.1899999995}},{"attributes":{"ID":147252,"DIS_CODE":0,"TOWNNAME":"永康區","LI":"北灣里","LIN":"21鄰","STREET":"大同街","SECT":" ","MAREA":" ","LANE":"３８０巷","ALLEY":"４１弄","HOUSE_NO":"５６號","E_COORD97":174910.23000000001,"N_COORD97":2546129.3199999998,"ADDRESS":"大同街３８０巷４１弄５６號","OBJECTID":147251},"geometry":{"x":174910.23000000138,"y":2546129.3200000022}},{"attributes":{"ID":147253,"DIS_CODE":0,"TOWNNAME":"白河區","LI":"仙草里","LIN":" ","STREET":" ","SECT":" ","MAREA":"仙草","LANE":" ","ALLEY":" ","HOUSE_NO":"６６之９號","E_COORD97":196875.35000000001,"N_COORD97":2582285.04,"ADDRESS":"仙草６６之９號","OBJECTID":147252},"geometry":{"x":196875.34999999963,"y":2582285.040000001}},{"attributes":{"ID":147254,"DIS_CODE":0,"TOWNNAME":"永康區","LI":"北灣里","LIN":"38鄰","STREET":"大灣路","SECT":" ","MAREA":" ","LANE":"４０巷","ALLEY":"２０９弄","HOUSE_NO":"３８號","E_COORD97":174735.23000000001,"N_COORD97":2546296.1800000002,"ADDRESS":"大灣路４０巷２０９弄３８號","OBJECTID":147253},"geometry":{"x":174735.22999999952,"y":2546296.1799999997}},{"attributes":{"ID":147255,"DIS_CODE":0,"TOWNNAME":"永康區","LI":"北灣里","LIN":"38鄰","STREET":"大灣路","SECT":" ","MAREA":" ","LANE":"４０巷","ALLEY":"１８１弄","HOUSE_NO":"３０號","E_COORD97":174806.10999999999,"N_COORD97":2546238.71,"ADDRESS":"大灣路４０巷１８１弄３０號","OBJECTID":147254},"geometry":{"x":174806.11000000127,"y":2546238.7100000028}},{"attributes":{"ID":147256,"DIS_CODE":0,"TOWNNAME":"永康區","LI":"北灣里","LIN":"26鄰","STREET":"文賢街","SECT":" ","MAREA":" ","LANE":"７８巷","ALLEY":"１９弄","HOUSE_NO":"１０３號","E_COORD97":175455.91,"N_COORD97":2545493.27,"ADDRESS":"文賢街７８巷１９弄１０３號","OBJECTID":147255},"geometry":{"x":175455.91000000201,"y":2545493.2700000033}},{"attributes":{"ID":147257,"DIS_CODE":0,"TOWNNAME":"白河區","LI":"仙草里","LIN":" ","STREET":" ","SECT":" ","MAREA":"仙草","LANE":" ","ALLEY":" ","HOUSE_NO":"７之１號","E_COORD97":196141.79999999999,"N_COORD97":2582626.1899999999,"ADDRESS":"仙草７之１號","OBJECTID":147256},"geometry":{"x":196141.80000000075,"y":2582626.1900000013}},{"attributes":{"ID":147258,"DIS_CODE":0,"TOWNNAME":"白河區","LI":"仙草里","LIN":" ","STREET":" ","SECT":" ","MAREA":"仙草","LANE":" ","ALLEY":" ","HOUSE_NO":"７之２號","E_COORD97":196141.57999999999,"N_COORD97":2582652.8700000001,"ADDRESS":"仙草７之２號","OBJECTID":147257},"geometry":{"x":196141.58000000101,"y":2582652.8700000048}},{"attributes":{"ID":147259,"DIS_CODE":0,"TOWNNAME":"白河區","LI":"仙草里","LIN":" ","STREET":" ","SECT":" ","MAREA":"仙草","LANE":" ","ALLEY":" ","HOUSE_NO":"８４之３號","E_COORD97":197017.44,"N_COORD97":2582117.96,"ADDRESS":"仙草８４之３號","OBJECTID":147258},"geometry":{"x":197017.44000000134,"y":2582117.9600000028}},{"attributes":{"ID":147260,"DIS_CODE":0,"TOWNNAME":"白河區","LI":"仙草里","LIN":" ","STREET":" ","SECT":" ","MAREA":"仙草","LANE":" ","ALLEY":" ","HOUSE_NO":"８８之６號","E_COORD97":197009.76999999999,"N_COORD97":2582296.29,"ADDRESS":"仙草８８之６號","OBJECTID":147259},"geometry":{"x":197009.76999999955,"y":2582296.290000001}},{"attributes":{"ID":147261,"DIS_CODE":0,"TOWNNAME":"白河區","LI":"蓮潭里","LIN":" ","STREET":" ","SECT":" ","MAREA":"北埔","LANE":" ","ALLEY":" ","HOUSE_NO":"１０之１號","E_COORD97":189089.60000000001,"N_COORD97":2589602.4300000002,"ADDRESS":"北埔１０之１號","OBJECTID":147260},"geometry":{"x":189089.59999999963,"y":2589602.4300000016}},{"attributes":{"ID":147262,"DIS_CODE":0,"TOWNNAME":"白河區","LI":"蓮潭里","LIN":" ","STREET":" ","SECT":" ","MAREA":"北埔","LANE":" ","ALLEY":" ","HOUSE_NO":"１５號","E_COORD97":189104.06,"N_COORD97":2589563.8500000001,"ADDRESS":"北埔１５號","OBJECTID":147261},"geometry":{"x":189104.06000000145,"y":2589563.8499999996}},{"attributes":{"ID":147263,"DIS_CODE":0,"TOWNNAME":"白河區","LI":"蓮潭里","LIN":" ","STREET":" ","SECT":" ","MAREA":"北埔","LANE":" ","ALLEY":" ","HOUSE_NO":"１之２號","E_COORD97":189573.26999999999,"N_COORD97":2589711.0299999998,"ADDRESS":"北埔１之２號","OBJECTID":147262},"geometry":{"x":189573.26999999955,"y":2589711.0299999993}},{"attributes":{"ID":147264,"DIS_CODE":0,"TOWNNAME":"永康區","LI":"永康里","LIN":"1鄰","STREET":"永埔街","SECT":" ","MAREA":" ","LANE":"３３巷","ALLEY":"２８弄","HOUSE_NO":"６號","E_COORD97":173951.53,"N_COORD97":2547548,"ADDRESS":"永埔街３３巷２８弄６號","OBJECTID":147263},"geometry":{"x":173951.53000000212,"y":2547548.0000000019}},{"attributes":{"ID":147265,"DIS_CODE":0,"TOWNNAME":"永康區","LI":"西勢里","LIN":"3鄰","STREET":"富強路","SECT":"一段","MAREA":" ","LANE":"３２１巷","ALLEY":"３６弄","HOUSE_NO":"１５號","E_COORD97":175623.97,"N_COORD97":2546777.6000000001,"ADDRESS":"富強路一段３２１巷３６弄１５號","OBJECTID":147264},"geometry":{"x":175623.96999999974,"y":2546777.6000000015}},{"attributes":{"ID":147266,"DIS_CODE":0,"TOWNNAME":"永康區","LI":"六合里","LIN":"3鄰","STREET":"新興街","SECT":" ","MAREA":" ","LANE":"３５巷","ALLEY":"１５弄","HOUSE_NO":"８號之４","E_COORD97":170980.01999999999,"N_COORD97":2545874.9399999999,"ADDRESS":"新興街３５巷１５弄８號之４","OBJECTID":147265},"geometry":{"x":170980.02000000048,"y":2545874.9399999995}},{"attributes":{"ID":147267,"DIS_CODE":0,"TOWNNAME":"永康區","LI":"六合里","LIN":"3鄰","STREET":"新興街","SECT":" ","MAREA":" ","LANE":"３５巷","ALLEY":"１５弄","HOUSE_NO":"８號之３","E_COORD97":170977.42999999999,"N_COORD97":2545884.8599999999,"ADDRESS":"新興街３５巷１５弄８號之３","OBJECTID":147266},"geometry":{"x":170977.43000000063,"y":2545884.8599999994}},{"attributes":{"ID":147268,"DIS_CODE":0,"TOWNNAME":"永康區","LI":"甲頂里","LIN":"3鄰","STREET":"中正南路","SECT":" ","MAREA":" ","LANE":"１６８巷","ALLEY":"２弄","HOUSE_NO":"２０號","E_COORD97":169845.5,"N_COORD97":2546962,"ADDRESS":"中正南路１６８巷２弄２０號","OBJECTID":147267},"geometry":{"x":169845.5,"y":2546962.0000000019}},{"attributes":{"ID":147269,"DIS_CODE":0,"TOWNNAME":"仁德區","LI":"仁義里","LIN":"30鄰","STREET":"中清一街","SECT":" ","MAREA":" ","LANE":" ","ALLEY":" ","HOUSE_NO":"７９號","E_COORD97":173638.32000000001,"N_COORD97":2541532.04,"ADDRESS":"中清一街７９號","OBJECTID":147268},"geometry":{"x":173638.32000000123,"y":2541532.040000001}},{"attributes":{"ID":147270,"DIS_CODE":0,"TOWNNAME":"仁德區","LI":"太子里","LIN":"30鄰","STREET":"中正路","SECT":"三段","MAREA":" ","LANE":" ","ALLEY":" ","HOUSE_NO":"５４８號","E_COORD97":173928.67999999999,"N_COORD97":2543186.52,"ADDRESS":"中正路三段５４８號","OBJECTID":147269},"geometry":{"x":173928.68000000063,"y":2543186.5200000014}},{"attributes":{"ID":147271,"DIS_CODE":0,"TOWNNAME":"永康區","LI":"永康里","LIN":"30鄰","STREET":"永華路","SECT":" ","MAREA":" ","LANE":" ","ALLEY":" ","HOUSE_NO":"７４８號","E_COORD97":174128.01000000001,"N_COORD97":2547154.1800000002,"ADDRESS":"永華路７４８號","OBJECTID":147270},"geometry":{"x":174128.01000000071,"y":2547154.1799999997}},{"attributes":{"ID":147272,"DIS_CODE":0,"TOWNNAME":"永康區","LI":"南灣里","LIN":"30鄰","STREET":"南灣街","SECT":" ","MAREA":" ","LANE":" ","ALLEY":" ","HOUSE_NO":"８３號","E_COORD97":174409.48000000001,"N_COORD97":2544928.2400000002,"ADDRESS":"南灣街８３號","OBJECTID":147271},"geometry":{"x":174409.48000000045,"y":2544928.2400000039}},{"attributes":{"ID":147273,"DIS_CODE":0,"TOWNNAME":"西港區","LI":"西港里","LIN":"4鄰","STREET":"文化路","SECT":" ","MAREA":" ","LANE":" ","ALLEY":" ","HOUSE_NO":"２３號","E_COORD97":168514.76000000001,"N_COORD97":2558173.1299999999,"ADDRESS":"文化路２３號","OBJECTID":147272},"geometry":{"x":168514.76000000164,"y":2558173.129999999}},{"attributes":{"ID":147274,"DIS_CODE":0,"TOWNNAME":"西港區","LI":"西港里","LIN":"4鄰","STREET":"文化路","SECT":" ","MAREA":" ","LANE":" ","ALLEY":" ","HOUSE_NO":"２５號","E_COORD97":168518.57999999999,"N_COORD97":2558175.2999999998,"ADDRESS":"文化路２５號","OBJECTID":147273},"geometry":{"x":168518.58000000101,"y":2558175.3000000026}},{"attributes":{"ID":147275,"DIS_CODE":0,"TOWNNAME":"永康區","LI":"甲頂里","LIN":"3鄰","STREET":"中正南路","SECT":" ","MAREA":" ","LANE":"１６８巷","ALLEY":"２弄","HOUSE_NO":"４號","E_COORD97":169866.85999999999,"N_COORD97":2546981.4900000002,"ADDRESS":"中正南路１６８巷２弄４號","OBJECTID":147274},"geometry":{"x":169866.86000000034,"y":2546981.4900000021}},{"attributes":{"ID":147276,"DIS_CODE":0,"TOWNNAME":"永康區","LI":"甲頂里","LIN":"3鄰","STREET":"中正南路","SECT":" ","MAREA":" ","LANE":"１６８巷","ALLEY":"２弄","HOUSE_NO":"２４號","E_COORD97":169839.95999999999,"N_COORD97":2546957.5,"ADDRESS":"中正南路１６８巷２弄２４號","OBJECTID":147275},"geometry":{"x":169839.96000000089,"y":2546957.5000000019}},{"attributes":{"ID":147277,"DIS_CODE":0,"TOWNNAME":"永康區","LI":"甲頂里","LIN":"3鄰","STREET":"中正南路","SECT":" ","MAREA":" ","LANE":"１６８巷","ALLEY":"２弄","HOUSE_NO":"８號","E_COORD97":169861.13,"N_COORD97":2546976.4900000002,"ADDRESS":"中正南路１６８巷２弄８號","OBJECTID":147276},"geometry":{"x":169861.12999999989,"y":2546976.4900000002}},{"attributes":{"ID":147278,"DIS_CODE":0,"TOWNNAME":"永康區","LI":"甲頂里","LIN":"3鄰","STREET":"中正南路","SECT":" ","MAREA":" ","LANE":"１６８巷","ALLEY":"２弄","HOUSE_NO":"２２號","E_COORD97":169842.64999999999,"N_COORD97":2546959.75,"ADDRESS":"中正南路１６８巷２弄２２號","OBJECTID":147277},"geometry":{"x":169842.65000000037,"y":2546959.7500000019}},{"attributes":{"ID":147279,"DIS_CODE":0,"TOWNNAME":"永康區","LI":"正強里","LIN":"15鄰","STREET":"中山南路","SECT":" ","MAREA":" ","LANE":"４７１巷","ALLEY":"８１弄","HOUSE_NO":"２９號","E_COORD97":173275.85000000001,"N_COORD97":2547257.6000000001,"ADDRESS":"中山南路４７１巷８１弄２９號","OBJECTID":147278},"geometry":{"x":173275.85000000149,"y":2547257.6000000034}},{"attributes":{"ID":147280,"DIS_CODE":0,"TOWNNAME":"永康區","LI":"正強里","LIN":"27鄰","STREET":"中正路","SECT":" ","MAREA":" ","LANE":"１５５巷","ALLEY":"４弄","HOUSE_NO":"２９號","E_COORD97":173150.59,"N_COORD97":2547855.75,"ADDRESS":"中正路１５５巷４弄２９號","OBJECTID":147279},"geometry":{"x":173150.59000000171,"y":2547855.75}},{"attributes":{"ID":147281,"DIS_CODE":0,"TOWNNAME":"永康區","LI":"六合里","LIN":"3鄰","STREET":"中山南路","SECT":" ","MAREA":" ","LANE":"１１８巷","ALLEY":"１弄","HOUSE_NO":"３號","E_COORD97":171120.57999999999,"N_COORD97":2545926.25,"ADDRESS":"中山南路１１８巷１弄３號","OBJECTID":147280},"geometry":{"x":171120.58000000101,"y":2545926.25}},{"attributes":{"ID":147282,"DIS_CODE":0,"TOWNNAME":"永康區","LI":"甲頂里","LIN":"3鄰","STREET":"中正南路","SECT":" ","MAREA":" ","LANE":"１６８巷","ALLEY":"２弄","HOUSE_NO":"１８號","E_COORD97":169848.17999999999,"N_COORD97":2546964.5,"ADDRESS":"中正南路１６８巷２弄１８號","OBJECTID":147281},"geometry":{"x":169848.18000000063,"y":2546964.5000000019}},{"attributes":{"ID":147283,"DIS_CODE":0,"TOWNNAME":"永康區","LI":"西勢里","LIN":"3鄰","STREET":"富強路","SECT":"一段","MAREA":" ","LANE":"３２１巷","ALLEY":"３６弄","HOUSE_NO":"１０號","E_COORD97":175638.47,"N_COORD97":2546769.96,"ADDRESS":"富強路一段３２１巷３６弄１０號","OBJECTID":147282},"geometry":{"x":175638.47000000067,"y":2546769.9600000028}},{"attributes":{"ID":147284,"DIS_CODE":0,"TOWNNAME":"永康區","LI":"六合里","LIN":"3鄰","STREET":"中山南路","SECT":" ","MAREA":" ","LANE":"１１８巷","ALLEY":"１弄","HOUSE_NO":"１號","E_COORD97":171111.20999999999,"N_COORD97":2545923.5,"ADDRESS":"中山南路１１８巷１弄１號","OBJECTID":147283},"geometry":{"x":171111.21000000089,"y":2545923.5000000019}},{"attributes":{"ID":147285,"DIS_CODE":0,"TOWNNAME":"永康區","LI":"六合里","LIN":"3鄰","STREET":"新興街","SECT":" ","MAREA":" ","LANE":"３５巷","ALLEY":"１５弄","HOUSE_NO":"８號之２","E_COORD97":170985.14000000001,"N_COORD97":2545886.7999999998,"ADDRESS":"新興街３５巷１５弄８號之２","OBJECTID":147284},"geometry":{"x":170985.13999999966,"y":2545886.8000000007}},{"attributes":{"ID":147286,"DIS_CODE":0,"TOWNNAME":"永康區","LI":"六合里","LIN":"3鄰","STREET":"新興街","SECT":" ","MAREA":" ","LANE":"３５巷","ALLEY":"１５弄","HOUSE_NO":"２號","E_COORD97":171001.16,"N_COORD97":2545852.2400000002,"ADDRESS":"新興街３５巷１５弄２號","OBJECTID":147285},"geometry":{"x":171001.16000000108,"y":2545852.2400000002}},{"attributes":{"ID":147287,"DIS_CODE":0,"TOWNNAME":"仁德區","LI":"仁義里","LIN":"30鄰","STREET":"中清一街","SECT":" ","MAREA":" ","LANE":"８３巷","ALLEY":" ","HOUSE_NO":"１０號","E_COORD97":173611.51999999999,"N_COORD97":2541502.54,"ADDRESS":"中清一街８３巷１０號","OBJECTID":147286},"geometry":{"x":173611.51999999955,"y":2541502.5399999991}},{"attributes":{"ID":147288,"DIS_CODE":0,"TOWNNAME":"仁德區","LI":"成功里","LIN":"30鄰","STREET":"成功一街","SECT":" ","MAREA":" ","LANE":"３巷","ALLEY":" ","HOUSE_NO":"２號","E_COORD97":170561.92999999999,"N_COORD97":2540212.77,"ADDRESS":"成功一街３巷２號","OBJECTID":147287},"geometry":{"x":170561.93000000063,"y":2540212.7700000014}},{"attributes":{"ID":147289,"DIS_CODE":0,"TOWNNAME":"仁德區","LI":"後壁里","LIN":"30鄰","STREET":"德洋一街","SECT":" ","MAREA":" ","LANE":"３７巷","ALLEY":" ","HOUSE_NO":"１３號","E_COORD97":173082.14999999999,"N_COORD97":2539188.02,"ADDRESS":"德洋一街３７巷１３號","OBJECTID":147288},"geometry":{"x":173082.15000000037,"y":2539188.0199999996}},{"attributes":{"ID":147290,"DIS_CODE":0,"TOWNNAME":"仁德區","LI":"仁義里","LIN":"30鄰","STREET":"中清一街","SECT":" ","MAREA":" ","LANE":"８３巷","ALLEY":" ","HOUSE_NO":"１６號","E_COORD97":173608.54000000001,"N_COORD97":2541476.2999999998,"ADDRESS":"中清一街８３巷１６號","OBJECTID":147289},"geometry":{"x":173608.54000000004,"y":2541476.3000000007}},{"attributes":{"ID":147291,"DIS_CODE":0,"TOWNNAME":"永康區","LI":"永康里","LIN":"30鄰","STREET":"永華路","SECT":" ","MAREA":" ","LANE":"７４０巷","ALLEY":" ","HOUSE_NO":"２號","E_COORD97":174130.69,"N_COORD97":2547130.0600000001,"ADDRESS":"永華路７４０巷２號","OBJECTID":147290},"geometry":{"x":174130.69000000134,"y":2547130.0600000042}},{"attributes":{"ID":147292,"DIS_CODE":0,"TOWNNAME":"西港區","LI":"西港里","LIN":"4鄰","STREET":"文化路","SECT":" ","MAREA":" ","LANE":" ","ALLEY":" ","HOUSE_NO":"２７號","E_COORD97":168522.10000000001,"N_COORD97":2558177.7599999998,"ADDRESS":"文化路２７號","OBJECTID":147291},"geometry":{"x":168522.09999999963,"y":2558177.7600000016}},{"attributes":{"ID":147293,"DIS_CODE":0,"TOWNNAME":"白河區","LI":"外角里","LIN":" ","STREET":" ","SECT":" ","MAREA":"外角","LANE":" ","ALLEY":" ","HOUSE_NO":"１３之１號","E_COORD97":190655.76999999999,"N_COORD97":2583249.7400000002,"ADDRESS":"外角１３之１號","OBJECTID":147292},"geometry":{"x":190655.77000000048,"y":2583249.7400000039}},{"attributes":{"ID":147294,"DIS_CODE":0,"TOWNNAME":"白河區","LI":"外角里","LIN":" ","STREET":" ","SECT":" ","MAREA":"外角","LANE":" ","ALLEY":" ","HOUSE_NO":"３１號","E_COORD97":190464.95000000001,"N_COORD97":2583283.1699999999,"ADDRESS":"外角３１號","OBJECTID":147293},"geometry":{"x":190464.95000000205,"y":2583283.1699999999}},{"attributes":{"ID":147295,"DIS_CODE":0,"TOWNNAME":"白河區","LI":"仙草里","LIN":"7鄰","STREET":" ","SECT":" ","MAREA":"仙草","LANE":" ","ALLEY":" ","HOUSE_NO":"８６之３號","E_COORD97":197045.76000000001,"N_COORD97":2582191.6000000001,"ADDRESS":"仙草８６之３號","OBJECTID":147294},"geometry":{"x":197045.75999999978,"y":2582191.5999999996}},{"attributes":{"ID":147296,"DIS_CODE":0,"TOWNNAME":"白河區","LI":"仙草里","LIN":"1鄰","STREET":" ","SECT":" ","MAREA":"仙草","LANE":" ","ALLEY":" ","HOUSE_NO":"６之１０號","E_COORD97":196129.22,"N_COORD97":2582889.6699999999,"ADDRESS":"仙草６之１０號","OBJECTID":147295},"geometry":{"x":196129.21999999974,"y":2582889.6699999999}},{"attributes":{"ID":147297,"DIS_CODE":0,"TOWNNAME":"白河區","LI":"仙草里","LIN":"1鄰","STREET":" ","SECT":" ","MAREA":"仙草","LANE":" ","ALLEY":" ","HOUSE_NO":"６之５號","E_COORD97":196313.03,"N_COORD97":2583130.3599999999,"ADDRESS":"仙草６之５號","OBJECTID":147296},"geometry":{"x":196313.03000000119,"y":2583130.3600000013}},{"attributes":{"ID":147298,"DIS_CODE":0,"TOWNNAME":"白河區","LI":"外角里","LIN":" ","STREET":" ","SECT":" ","MAREA":"外角","LANE":" ","ALLEY":" ","HOUSE_NO":"４１號","E_COORD97":190512.48999999999,"N_COORD97":2583155.9900000002,"ADDRESS":"外角４１號","OBJECTID":147297},"geometry":{"x":190512.49000000115,"y":2583155.9900000002}},{"attributes":{"ID":147299,"DIS_CODE":0,"TOWNNAME":"白河區","LI":"外角里","LIN":" ","STREET":" ","SECT":" ","MAREA":"外角","LANE":" ","ALLEY":" ","HOUSE_NO":"６１號","E_COORD97":190554.70999999999,"N_COORD97":2583206.7000000002,"ADDRESS":"外角６１號","OBJECTID":147298},"geometry":{"x":190554.71000000089,"y":2583206.6999999993}},{"attributes":{"ID":147300,"DIS_CODE":0,"TOWNNAME":"白河區","LI":"外角里","LIN":" ","STREET":" ","SECT":" ","MAREA":"外角","LANE":" ","ALLEY":" ","HOUSE_NO":"６５號","E_COORD97":190551.01000000001,"N_COORD97":2583234.8300000001,"ADDRESS":"外角６５號","OBJECTID":147299},"geometry":{"x":190551.01000000071,"y":2583234.8300000001}},{"attributes":{"ID":147301,"DIS_CODE":0,"TOWNNAME":"永康區","LI":"北灣里","LIN":"34鄰","STREET":"大灣路","SECT":" ","MAREA":" ","LANE":"４０巷","ALLEY":"２６弄","HOUSE_NO":"１７號","E_COORD97":175210.97,"N_COORD97":2546061.4300000002,"ADDRESS":"大灣路４０巷２６弄１７號","OBJECTID":147300},"geometry":{"x":175210.9700000016,"y":2546061.4299999997}},{"attributes":{"ID":147302,"DIS_CODE":0,"TOWNNAME":"白河區","LI":"外角里","LIN":" ","STREET":" ","SECT":" ","MAREA":"外角","LANE":" ","ALLEY":" ","HOUSE_NO":"７４號","E_COORD97":190595.39999999999,"N_COORD97":2583293.2400000002,"ADDRESS":"外角７４號","OBJECTID":147301},"geometry":{"x":190595.40000000037,"y":2583293.2400000002}},{"attributes":{"ID":147303,"DIS_CODE":0,"TOWNNAME":"永康區","LI":"北灣里","LIN":"38鄰","STREET":"大灣路","SECT":" ","MAREA":" ","LANE":"４０巷","ALLEY":"２０９弄","HOUSE_NO":"８號","E_COORD97":174772.19,"N_COORD97":2546334.1400000001,"ADDRESS":"大灣路４０巷２０９弄８號","OBJECTID":147302},"geometry":{"x":174772.19000000041,"y":2546334.1400000025}},{"attributes":{"ID":147304,"DIS_CODE":0,"TOWNNAME":"永康區","LI":"北灣里","LIN":"39鄰","STREET":"永大路","SECT":"二段","MAREA":" ","LANE":"９８６巷","ALLEY":"２弄","HOUSE_NO":"２２號","E_COORD97":174511.95000000001,"N_COORD97":2546323.5099999998,"ADDRESS":"永大路二段９８６巷２弄２２號","OBJECTID":147303},"geometry":{"x":174511.95000000112,"y":2546323.5100000016}},{"attributes":{"ID":147305,"DIS_CODE":0,"TOWNNAME":"白河區","LI":"崎內里","LIN":" ","STREET":" ","SECT":" ","MAREA":"外崎內","LANE":" ","ALLEY":" ","HOUSE_NO":"１０號","E_COORD97":194203,"N_COORD97":2586510.4500000002,"ADDRESS":"外崎內１０號","OBJECTID":147304},"geometry":{"x":194203.00000000093,"y":2586510.4499999993}},{"attributes":{"ID":147306,"DIS_CODE":0,"TOWNNAME":"永康區","LI":"北灣里","LIN":"36鄰","STREET":"大灣路","SECT":" ","MAREA":" ","LANE":"４０巷","ALLEY":"１５８弄","HOUSE_NO":"２２號","E_COORD97":174890.23999999999,"N_COORD97":2546349.1400000001,"ADDRESS":"大灣路４０巷１５８弄２２號","OBJECTID":147305},"geometry":{"x":174890.24000000022,"y":2546349.1400000006}},{"attributes":{"ID":147307,"DIS_CODE":0,"TOWNNAME":"白河區","LI":"白河里","LIN":" ","STREET":" ","SECT":" ","MAREA":"市場二樓","LANE":" ","ALLEY":" ","HOUSE_NO":"１７號","E_COORD97":190198.01000000001,"N_COORD97":2583078.4300000002,"ADDRESS":"市場二樓１７號","OBJECTID":147306},"geometry":{"x":190198.01000000164,"y":2583078.4300000034}},{"attributes":{"ID":147308,"DIS_CODE":0,"TOWNNAME":"白河區","LI":"白河里","LIN":" ","STREET":" ","SECT":" ","MAREA":"市場二樓","LANE":" ","ALLEY":" ","HOUSE_NO":"１９號","E_COORD97":190199.92000000001,"N_COORD97":2583084.0099999998,"ADDRESS":"市場二樓１９號","OBJECTID":147307},"geometry":{"x":190199.91999999993,"y":2583084.0099999998}},{"attributes":{"ID":147309,"DIS_CODE":0,"TOWNNAME":"永康區","LI":"正強里","LIN":"29鄰","STREET":"中正路","SECT":" ","MAREA":" ","LANE":"１５５巷","ALLEY":"１０弄","HOUSE_NO":"８號","E_COORD97":173214.76000000001,"N_COORD97":2547754.25,"ADDRESS":"中正路１５５巷１０弄８號","OBJECTID":147308},"geometry":{"x":173214.75999999978,"y":2547754.25}},{"attributes":{"ID":147310,"DIS_CODE":0,"TOWNNAME":"永康區","LI":"北灣里","LIN":"34鄰","STREET":"大灣路","SECT":" ","MAREA":" ","LANE":"４０巷","ALLEY":"２６弄","HOUSE_NO":"１９號之６","E_COORD97":175203.79000000001,"N_COORD97":2546092.9500000002,"ADDRESS":"大灣路４０巷２６弄１９號之６","OBJECTID":147309},"geometry":{"x":175203.79000000004,"y":2546092.9500000011}},{"attributes":{"ID":147311,"DIS_CODE":0,"TOWNNAME":"白河區","LI":"白河里","LIN":" ","STREET":" ","SECT":" ","MAREA":"市場二樓","LANE":" ","ALLEY":" ","HOUSE_NO":"２６號","E_COORD97":190209.89000000001,"N_COORD97":2583092.0600000001,"ADDRESS":"市場二樓２６號","OBJECTID":147310},"geometry":{"x":190209.88999999966,"y":2583092.0600000024}},{"attributes":{"ID":147312,"DIS_CODE":0,"TOWNNAME":"永康區","LI":"正強里","LIN":"19鄰","STREET":"中山南路","SECT":" ","MAREA":" ","LANE":"４７１巷","ALLEY":"６３弄","HOUSE_NO":"１２號","E_COORD97":173230.41,"N_COORD97":2547233.75,"ADDRESS":"中山南路４７１巷６３弄１２號","OBJECTID":147311},"geometry":{"x":173230.41000000108,"y":2547233.7500000019}},{"attributes":{"ID":147313,"DIS_CODE":0,"TOWNNAME":"白河區","LI":"白河里","LIN":" ","STREET":" ","SECT":" ","MAREA":"市場二樓","LANE":" ","ALLEY":" ","HOUSE_NO":"２８號","E_COORD97":190212,"N_COORD97":2583091.8100000001,"ADDRESS":"市場二樓２８號","OBJECTID":147312},"geometry":{"x":190212.00000000093,"y":2583091.8100000005}},{"attributes":{"ID":147314,"DIS_CODE":0,"TOWNNAME":"白河區","LI":"白河里","LIN":" ","STREET":" ","SECT":" ","MAREA":"市場二樓","LANE":" ","ALLEY":" ","HOUSE_NO":"３０號","E_COORD97":190214.54999999999,"N_COORD97":2583091.2599999998,"ADDRESS":"市場二樓３０號","OBJECTID":147313},"geometry":{"x":190214.54999999888,"y":2583091.2600000016}},{"attributes":{"ID":147315,"DIS_CODE":0,"TOWNNAME":"永康區","LI":"正強里","LIN":"27鄰","STREET":"中正路","SECT":" ","MAREA":" ","LANE":"１５５巷","ALLEY":"６弄","HOUSE_NO":"６號","E_COORD97":173210.32000000001,"N_COORD97":2547832.7400000002,"ADDRESS":"中正路１５５巷６弄６號","OBJECTID":147314},"geometry":{"x":173210.3200000003,"y":2547832.7400000002}},{"attributes":{"ID":147316,"DIS_CODE":0,"TOWNNAME":"白河區","LI":"白河里","LIN":" ","STREET":" ","SECT":" ","MAREA":"市場二樓","LANE":" ","ALLEY":" ","HOUSE_NO":"３２號","E_COORD97":190217.5,"N_COORD97":2583090.5800000001,"ADDRESS":"市場二樓３２號","OBJECTID":147315},"geometry":{"x":190217.50000000093,"y":2583090.5800000001}},{"attributes":{"ID":147317,"DIS_CODE":0,"TOWNNAME":"永康區","LI":"北灣里","LIN":"21鄰","STREET":"大同街","SECT":" ","MAREA":" ","LANE":"３８０巷","ALLEY":"３１弄","HOUSE_NO":"１３號","E_COORD97":174822.70000000001,"N_COORD97":2546088.75,"ADDRESS":"大同街３８０巷３１弄１３號","OBJECTID":147316},"geometry":{"x":174822.70000000019,"y":2546088.7500000019}},{"attributes":{"ID":147318,"DIS_CODE":0,"TOWNNAME":"永康區","LI":"北灣里","LIN":"21鄰","STREET":"大同街","SECT":" ","MAREA":" ","LANE":"３８０巷","ALLEY":"４１弄","HOUSE_NO":"５０號","E_COORD97":174898.37,"N_COORD97":2546130.8199999998,"ADDRESS":"大同街３８０巷４１弄５０號","OBJECTID":147317},"geometry":{"x":174898.37000000197,"y":2546130.8200000003}},{"attributes":{"ID":147319,"DIS_CODE":0,"TOWNNAME":"永康區","LI":"五王里","LIN":"18鄰","STREET":"成功路","SECT":" ","MAREA":" ","LANE":"１７２巷","ALLEY":"４３弄","HOUSE_NO":"１３號","E_COORD97":171505.97,"N_COORD97":2545749.4199999999,"ADDRESS":"成功路１７２巷４３弄１３號","OBJECTID":147318},"geometry":{"x":171505.97000000067,"y":2545749.4199999999}},{"attributes":{"ID":147320,"DIS_CODE":0,"TOWNNAME":"白河區","LI":"白河里","LIN":" ","STREET":" ","SECT":" ","MAREA":"市場二樓","LANE":" ","ALLEY":" ","HOUSE_NO":"３６號","E_COORD97":190224.51000000001,"N_COORD97":2583088.4900000002,"ADDRESS":"市場二樓３６號","OBJECTID":147319},"geometry":{"x":190224.50999999978,"y":2583088.4900000039}},{"attributes":{"ID":147321,"DIS_CODE":0,"TOWNNAME":"永康區","LI":"五王里","LIN":"18鄰","STREET":"成功路","SECT":" ","MAREA":" ","LANE":"１７２巷","ALLEY":"４３弄","HOUSE_NO":"８號","E_COORD97":171513.60000000001,"N_COORD97":2545738.5099999998,"ADDRESS":"成功路１７２巷４３弄８號","OBJECTID":147320},"geometry":{"x":171513.60000000056,"y":2545738.5099999998}},{"attributes":{"ID":147322,"DIS_CODE":0,"TOWNNAME":"白河區","LI":"白河里","LIN":" ","STREET":" ","SECT":" ","MAREA":"市場二樓","LANE":" ","ALLEY":" ","HOUSE_NO":"３８號","E_COORD97":190227.10000000001,"N_COORD97":2583087.8100000001,"ADDRESS":"市場二樓３８號","OBJECTID":147321},"geometry":{"x":190227.09999999963,"y":2583087.8100000024}},{"attributes":{"ID":147323,"DIS_CODE":0,"TOWNNAME":"永康區","LI":"王行里","LIN":"12鄰","STREET":"王行路","SECT":" ","MAREA":" ","LANE":"８６６巷","ALLEY":"２９弄","HOUSE_NO":"１２號","E_COORD97":175989.94,"N_COORD97":2549911.2400000002,"ADDRESS":"王行路８６６巷２９弄１２號","OBJECTID":147322},"geometry":{"x":175989.94000000227,"y":2549911.2400000002}},{"attributes":{"ID":147324,"DIS_CODE":0,"TOWNNAME":"永康區","LI":"王行里","LIN":"12鄰","STREET":"王行路","SECT":" ","MAREA":" ","LANE":"８６６巷","ALLEY":"２９弄","HOUSE_NO":"７９號","E_COORD97":175970.07000000001,"N_COORD97":2550039.5,"ADDRESS":"王行路８６６巷２９弄７９號","OBJECTID":147323},"geometry":{"x":175970.0700000003,"y":2550039.5000000019}},{"attributes":{"ID":147325,"DIS_CODE":0,"TOWNNAME":"永康區","LI":"王行里","LIN":"12鄰","STREET":"王行路","SECT":" ","MAREA":" ","LANE":"８６６巷","ALLEY":"２９弄","HOUSE_NO":"２９號","E_COORD97":176014.45000000001,"N_COORD97":2550008.4900000002,"ADDRESS":"王行路８６６巷２９弄２９號","OBJECTID":147324},"geometry":{"x":176014.45000000019,"y":2550008.4900000039}},{"attributes":{"ID":147326,"DIS_CODE":0,"TOWNNAME":"永康區","LI":"埔園里","LIN":"30鄰","STREET":"龍埔街","SECT":" ","MAREA":" ","LANE":"４３０巷","ALLEY":" ","HOUSE_NO":"１７號","E_COORD97":173962.25,"N_COORD97":2548435.5899999999,"ADDRESS":"龍埔街４３０巷１７號","OBJECTID":147325},"geometry":{"x":173962.25000000093,"y":2548435.5900000017}},{"attributes":{"ID":147327,"DIS_CODE":0,"TOWNNAME":"白河區","LI":"甘宅里","LIN":" ","STREET":" ","SECT":" ","MAREA":"甘宅","LANE":" ","ALLEY":" ","HOUSE_NO":"２９號","E_COORD97":192801.09,"N_COORD97":2586740.4399999999,"ADDRESS":"甘宅２９號","OBJECTID":147326},"geometry":{"x":192801.08999999985,"y":2586740.4400000013}},{"attributes":{"ID":147328,"DIS_CODE":0,"TOWNNAME":"北區","LI":"賢北里","LIN":"15鄰","STREET":"大興街","SECT":" ","MAREA":" ","LANE":" ","ALLEY":" ","HOUSE_NO":"５１９號","E_COORD97":166110.41,"N_COORD97":2545474.9900000002,"ADDRESS":"大興街５１９號","OBJECTID":147327},"geometry":{"x":166110.41000000201,"y":2545474.9900000002}},{"attributes":{"ID":147329,"DIS_CODE":0,"TOWNNAME":"北區","LI":"賢北里","LIN":"15鄰","STREET":"大興街","SECT":" ","MAREA":" ","LANE":" ","ALLEY":" ","HOUSE_NO":"５２１號","E_COORD97":166107.13,"N_COORD97":2545473.5099999998,"ADDRESS":"大興街５２１號","OBJECTID":147328},"geometry":{"x":166107.13000000082,"y":2545473.5099999998}},{"attributes":{"ID":147330,"DIS_CODE":0,"TOWNNAME":"北區","LI":"賢北里","LIN":"15鄰","STREET":"大興街","SECT":" ","MAREA":" ","LANE":" ","ALLEY":" ","HOUSE_NO":"５２３號","E_COORD97":166103.37,"N_COORD97":2545472.04,"ADDRESS":"大興街５２３號","OBJECTID":147329},"geometry":{"x":166103.37000000011,"y":2545472.040000001}},{"attributes":{"ID":147331,"DIS_CODE":0,"TOWNNAME":"白河區","LI":"白河里","LIN":" ","STREET":" ","SECT":" ","MAREA":"市場二樓","LANE":" ","ALLEY":" ","HOUSE_NO":"４０號","E_COORD97":190229.51000000001,"N_COORD97":2583087.0299999998,"ADDRESS":"市場二樓４０號","OBJECTID":147330},"geometry":{"x":190229.50999999978,"y":2583087.0299999975}},{"attributes":{"ID":147332,"DIS_CODE":0,"TOWNNAME":"白河區","LI":"白河里","LIN":" ","STREET":" ","SECT":" ","MAREA":"市場二樓","LANE":" ","ALLEY":" ","HOUSE_NO":"４６號","E_COORD97":190234.26999999999,"N_COORD97":2583085.8199999998,"ADDRESS":"市場二樓４６號","OBJECTID":147331},"geometry":{"x":190234.26999999955,"y":2583085.8200000003}},{"attributes":{"ID":147333,"DIS_CODE":0,"TOWNNAME":"白河區","LI":"白河里","LIN":" ","STREET":" ","SECT":" ","MAREA":"市場二樓","LANE":" ","ALLEY":" ","HOUSE_NO":"５２號","E_COORD97":190244.56,"N_COORD97":2583083.0499999998,"ADDRESS":"市場二樓５２號","OBJECTID":147332},"geometry":{"x":190244.55999999959,"y":2583083.0500000026}},{"attributes":{"ID":147334,"DIS_CODE":0,"TOWNNAME":"白河區","LI":"白河里","LIN":" ","STREET":" ","SECT":" ","MAREA":"市場二樓","LANE":" ","ALLEY":" ","HOUSE_NO":"５４號","E_COORD97":190247.23999999999,"N_COORD97":2583082.3399999999,"ADDRESS":"市場二樓５４號","OBJECTID":147333},"geometry":{"x":190247.24000000022,"y":2583082.3400000036}},{"attributes":{"ID":147335,"DIS_CODE":0,"TOWNNAME":"善化區","LI":"溪美里","LIN":"18鄰","STREET":" ","SECT":" ","MAREA":"溪尾","LANE":" ","ALLEY":" ","HOUSE_NO":"２０４號","E_COORD97":177130.01999999999,"N_COORD97":2561400.77,"ADDRESS":"溪尾２０４號","OBJECTID":147334},"geometry":{"x":177130.02000000048,"y":2561400.7699999977}},{"attributes":{"ID":147336,"DIS_CODE":0,"TOWNNAME":"善化區","LI":"坐駕里","LIN":"20鄰","STREET":" ","SECT":" ","MAREA":"坐駕","LANE":" ","ALLEY":" ","HOUSE_NO":"１０２號","E_COORD97":178283.13,"N_COORD97":2558322,"ADDRESS":"坐駕１０２號","OBJECTID":147335},"geometry":{"x":178283.12999999989,"y":2558322.0000000019}},{"attributes":{"ID":147337,"DIS_CODE":0,"TOWNNAME":"善化區","LI":"田寮里","LIN":"14鄰","STREET":" ","SECT":" ","MAREA":"六分寮","LANE":" ","ALLEY":" ","HOUSE_NO":"１４８之１號","E_COORD97":178708.64999999999,"N_COORD97":2561433.52,"ADDRESS":"六分寮１４８之１號","OBJECTID":147336},"geometry":{"x":178708.65000000037,"y":2561433.5200000014}},{"attributes":{"ID":147338,"DIS_CODE":0,"TOWNNAME":"善化區","LI":"胡家里","LIN":"18鄰","STREET":" ","SECT":" ","MAREA":"胡厝寮","LANE":" ","ALLEY":" ","HOUSE_NO":"１２３號之３","E_COORD97":175255.60000000001,"N_COORD97":2560675.77,"ADDRESS":"胡厝寮１２３號之３","OBJECTID":147337},"geometry":{"x":175255.59999999963,"y":2560675.7700000014}},{"attributes":{"ID":147339,"DIS_CODE":0,"TOWNNAME":"善化區","LI":"胡家里","LIN":"20鄰","STREET":" ","SECT":" ","MAREA":"胡厝寮","LANE":" ","ALLEY":" ","HOUSE_NO":"１０４號","E_COORD97":175319.35000000001,"N_COORD97":2560556,"ADDRESS":"胡厝寮１０４號","OBJECTID":147338},"geometry":{"x":175319.34999999963,"y":2560556.0000000037}},{"attributes":{"ID":147340,"DIS_CODE":0,"TOWNNAME":"善化區","LI":"小新里","LIN":"20鄰","STREET":" ","SECT":" ","MAREA":"小新營","LANE":" ","ALLEY":" ","HOUSE_NO":"１６５之１７號","E_COORD97":180128.64999999999,"N_COORD97":2558207.77,"ADDRESS":"小新營１６５之１７號","OBJECTID":147339},"geometry":{"x":180128.6500000013,"y":2558207.7700000014}},{"attributes":{"ID":147341,"DIS_CODE":0,"TOWNNAME":"善化區","LI":"胡厝里","LIN":"13鄰","STREET":" ","SECT":" ","MAREA":"胡厝寮","LANE":" ","ALLEY":" ","HOUSE_NO":"２２２號之７","E_COORD97":175039.97,"N_COORD97":2560273.52,"ADDRESS":"胡厝寮２２２號之７","OBJECTID":147340},"geometry":{"x":175039.97000000067,"y":2560273.5199999977}},{"attributes":{"ID":147342,"DIS_CODE":0,"TOWNNAME":"善化區","LI":"坐駕里","LIN":"20鄰","STREET":" ","SECT":" ","MAREA":"坐駕","LANE":" ","ALLEY":" ","HOUSE_NO":"７０號","E_COORD97":178274.35000000001,"N_COORD97":2558342.25,"ADDRESS":"坐駕７０號","OBJECTID":147341},"geometry":{"x":178274.34999999963,"y":2558342.25}},{"attributes":{"ID":147343,"DIS_CODE":0,"TOWNNAME":"永康區","LI":"五王里","LIN":"16鄰","STREET":"成功路","SECT":" ","MAREA":" ","LANE":"１７２巷","ALLEY":"７６弄","HOUSE_NO":"３０號","E_COORD97":171647.13,"N_COORD97":2545789.52,"ADDRESS":"成功路１７２巷７６弄３０號","OBJECTID":147342},"geometry":{"x":171647.13000000082,"y":2545789.5199999996}},{"attributes":{"ID":147344,"DIS_CODE":0,"TOWNNAME":"永康區","LI":"五王里","LIN":"18鄰","STREET":"成功路","SECT":" ","MAREA":" ","LANE":"１７２巷","ALLEY":"４３弄","HOUSE_NO":"１號","E_COORD97":171534.20000000001,"N_COORD97":2545713.52,"ADDRESS":"成功路１７２巷４３弄１號","OBJECTID":147343},"geometry":{"x":171534.20000000019,"y":2545713.5200000014}},{"attributes":{"ID":147345,"DIS_CODE":0,"TOWNNAME":"安南區","LI":"淵東里","LIN":"3鄰","STREET":"本原街","SECT":"三段","MAREA":" ","LANE":"２３４巷","ALLEY":"１５０弄","HOUSE_NO":"２４號","E_COORD97":165272.37,"N_COORD97":2550645.1899999999,"ADDRESS":"本原街三段２３４巷１５０弄２４號","OBJECTID":147344},"geometry":{"x":165272.37000000011,"y":2550645.1900000013}},{"attributes":{"ID":147346,"DIS_CODE":0,"TOWNNAME":"安南區","LI":"淵東里","LIN":"3鄰","STREET":"本原街","SECT":"三段","MAREA":" ","LANE":"２３４巷","ALLEY":"１０６弄","HOUSE_NO":"１００號","E_COORD97":165443.79000000001,"N_COORD97":2550700.9300000002,"ADDRESS":"本原街三段２３４巷１０６弄１００號","OBJECTID":147345},"geometry":{"x":165443.79000000097,"y":2550700.9300000016}},{"attributes":{"ID":147347,"DIS_CODE":0,"TOWNNAME":"安南區","LI":"淵東里","LIN":"3鄰","STREET":"本原街","SECT":"三段","MAREA":" ","LANE":"２３４巷","ALLEY":"１０６弄","HOUSE_NO":"１０２號","E_COORD97":165448.25,"N_COORD97":2550702.6299999999,"ADDRESS":"本原街三段２３４巷１０６弄１０２號","OBJECTID":147346},"geometry":{"x":165448.25,"y":2550702.6300000008}},{"attributes":{"ID":147348,"DIS_CODE":0,"TOWNNAME":"安南區","LI":"淵東里","LIN":"3鄰","STREET":"本原街","SECT":"三段","MAREA":" ","LANE":"２３４巷","ALLEY":"１０６弄","HOUSE_NO":"１０４號","E_COORD97":165453.29000000001,"N_COORD97":2550704.4700000002,"ADDRESS":"本原街三段２３４巷１０６弄１０４號","OBJECTID":147347},"geometry":{"x":165453.2900000019,"y":2550704.4700000044}},{"attributes":{"ID":147349,"DIS_CODE":0,"TOWNNAME":"仁德區","LI":"仁義里","LIN":"30鄰","STREET":"中清二街","SECT":" ","MAREA":" ","LANE":" ","ALLEY":" ","HOUSE_NO":"５２號","E_COORD97":173579.92999999999,"N_COORD97":2541526.04,"ADDRESS":"中清二街５２號","OBJECTID":147348},"geometry":{"x":173579.9299999997,"y":2541526.0399999991}},{"attributes":{"ID":147350,"DIS_CODE":0,"TOWNNAME":"安南區","LI":"淵東里","LIN":"3鄰","STREET":"本原街","SECT":"三段","MAREA":" ","LANE":"２３４巷","ALLEY":"１０６弄","HOUSE_NO":"１０８號","E_COORD97":165444.44,"N_COORD97":2550718.8999999999,"ADDRESS":"本原街三段２３４巷１０６弄１０８號","OBJECTID":147349},"geometry":{"x":165444.44000000134,"y":2550718.9000000022}},{"attributes":{"ID":147351,"DIS_CODE":0,"TOWNNAME":"安南區","LI":"淵東里","LIN":"3鄰","STREET":"本原街","SECT":"三段","MAREA":" ","LANE":"２３４巷","ALLEY":"１０６弄","HOUSE_NO":"１１０號","E_COORD97":165439.51000000001,"N_COORD97":2550717.6299999999,"ADDRESS":"本原街三段２３４巷１０６弄１１０號","OBJECTID":147350},"geometry":{"x":165439.50999999978,"y":2550717.629999999}},{"attributes":{"ID":147352,"DIS_CODE":0,"TOWNNAME":"安南區","LI":"淵東里","LIN":"3鄰","STREET":"本原街","SECT":"三段","MAREA":" ","LANE":"２３４巷","ALLEY":"１０６弄","HOUSE_NO":"１１２號","E_COORD97":165435.09,"N_COORD97":2550716.5299999998,"ADDRESS":"本原街三段２３４巷１０６弄１１２號","OBJECTID":147351},"geometry":{"x":165435.08999999985,"y":2550716.5300000012}},{"attributes":{"ID":147353,"DIS_CODE":0,"TOWNNAME":"安南區","LI":"淵東里","LIN":"3鄰","STREET":"本原街","SECT":"三段","MAREA":" ","LANE":"２３４巷","ALLEY":"１０６弄","HOUSE_NO":"１１４號","E_COORD97":165430.23999999999,"N_COORD97":2550714.3199999998,"ADDRESS":"本原街三段２３４巷１０６弄１１４號","OBJECTID":147352},"geometry":{"x":165430.24000000209,"y":2550714.3200000003}},{"attributes":{"ID":147354,"DIS_CODE":0,"TOWNNAME":"安南區","LI":"淵東里","LIN":"3鄰","STREET":"本原街","SECT":"三段","MAREA":" ","LANE":"２３４巷","ALLEY":"１０６弄","HOUSE_NO":"１１６號","E_COORD97":165425.31,"N_COORD97":2550712.4500000002,"ADDRESS":"本原街三段２３４巷１０６弄１１６號","OBJECTID":147353},"geometry":{"x":165425.30999999959,"y":2550712.4499999993}},{"attributes":{"ID":147355,"DIS_CODE":0,"TOWNNAME":"安南區","LI":"淵東里","LIN":"3鄰","STREET":"本原街","SECT":"三段","MAREA":" ","LANE":"２３４巷","ALLEY":"１０６弄","HOUSE_NO":"１１８號","E_COORD97":165420.89000000001,"N_COORD97":2550710.0699999998,"ADDRESS":"本原街三段２３４巷１０６弄１１８號","OBJECTID":147354},"geometry":{"x":165420.88999999966,"y":2550710.070000004}},{"attributes":{"ID":147356,"DIS_CODE":0,"TOWNNAME":"善化區","LI":"田寮里","LIN":"13鄰","STREET":" ","SECT":" ","MAREA":"六分寮","LANE":" ","ALLEY":" ","HOUSE_NO":"１４３號之１","E_COORD97":178766.89999999999,"N_COORD97":2561261.77,"ADDRESS":"六分寮１４３號之１","OBJECTID":147355},"geometry":{"x":178766.90000000224,"y":2561261.7699999977}},{"attributes":{"ID":147357,"DIS_CODE":0,"TOWNNAME":"善化區","LI":"田寮里","LIN":"4鄰","STREET":" ","SECT":" ","MAREA":"六分寮","LANE":" ","ALLEY":" ","HOUSE_NO":"５３號之９","E_COORD97":178424.92999999999,"N_COORD97":2561045.77,"ADDRESS":"六分寮５３號之９","OBJECTID":147356},"geometry":{"x":178424.9299999997,"y":2561045.7700000014}},{"attributes":{"ID":147358,"DIS_CODE":0,"TOWNNAME":"善化區","LI":"胡家里","LIN":"4鄰","STREET":" ","SECT":" ","MAREA":"胡厝寮","LANE":" ","ALLEY":" ","HOUSE_NO":"３９９之１５號","E_COORD97":175627.09,"N_COORD97":2560103.52,"ADDRESS":"胡厝寮３９９之１５號","OBJECTID":147357},"geometry":{"x":175627.08999999985,"y":2560103.5199999996}},{"attributes":{"ID":147359,"DIS_CODE":0,"TOWNNAME":"善化區","LI":"田寮里","LIN":"4鄰","STREET":" ","SECT":" ","MAREA":"六分寮","LANE":" ","ALLEY":" ","HOUSE_NO":"５３號之４","E_COORD97":178423.37,"N_COORD97":2561066.77,"ADDRESS":"六分寮５３號之４","OBJECTID":147358},"geometry":{"x":178423.37000000104,"y":2561066.7700000014}},{"attributes":{"ID":147360,"DIS_CODE":0,"TOWNNAME":"善化區","LI":"胡家里","LIN":"4鄰","STREET":" ","SECT":" ","MAREA":"胡厝寮","LANE":" ","ALLEY":" ","HOUSE_NO":"３１８之１號","E_COORD97":175605.44,"N_COORD97":2560233.27,"ADDRESS":"胡厝寮３１８之１號","OBJECTID":147359},"geometry":{"x":175605.44000000134,"y":2560233.2699999996}},{"attributes":{"ID":147361,"DIS_CODE":0,"TOWNNAME":"新市區","LI":"大社里","LIN":"30鄰","STREET":" ","SECT":" ","MAREA":"大社","LANE":" ","ALLEY":" ","HOUSE_NO":"９８７號","E_COORD97":180265.56,"N_COORD97":2553730,"ADDRESS":"大社９８７號","OBJECTID":147360},"geometry":{"x":180265.56000000052,"y":2553730}},{"attributes":{"ID":147362,"DIS_CODE":0,"TOWNNAME":"新市區","LI":"大社里","LIN":"30鄰","STREET":" ","SECT":" ","MAREA":"大社","LANE":" ","ALLEY":" ","HOUSE_NO":"９８６之４號","E_COORD97":180239.07000000001,"N_COORD97":2553727.0499999998,"ADDRESS":"大社９８６之４號","OBJECTID":147361},"geometry":{"x":180239.07000000123,"y":2553727.0500000007}},{"attributes":{"ID":147363,"DIS_CODE":0,"TOWNNAME":"新市區","LI":"大社里","LIN":"30鄰","STREET":" ","SECT":" ","MAREA":"大社","LANE":" ","ALLEY":" ","HOUSE_NO":"９９１號","E_COORD97":180269.35000000001,"N_COORD97":2553711.75,"ADDRESS":"大社９９１號","OBJECTID":147362},"geometry":{"x":180269.34999999963,"y":2553711.75}},{"attributes":{"ID":147364,"DIS_CODE":0,"TOWNNAME":"新市區","LI":"大社里","LIN":"30鄰","STREET":" ","SECT":" ","MAREA":"大社","LANE":" ","ALLEY":" ","HOUSE_NO":"９８４號","E_COORD97":180251.64999999999,"N_COORD97":2553792.75,"ADDRESS":"大社９８４號","OBJECTID":147363},"geometry":{"x":180251.65000000037,"y":2553792.75}},{"attributes":{"ID":147365,"DIS_CODE":0,"TOWNNAME":"新市區","LI":"大社里","LIN":"30鄰","STREET":" ","SECT":" ","MAREA":"大社","LANE":" ","ALLEY":" ","HOUSE_NO":"９２４號","E_COORD97":179985.29000000001,"N_COORD97":2553867.5,"ADDRESS":"大社９２４號","OBJECTID":147364},"geometry":{"x":179985.29000000097,"y":2553867.5000000019}},{"attributes":{"ID":147366,"DIS_CODE":0,"TOWNNAME":"新市區","LI":"大社里","LIN":"30鄰","STREET":" ","SECT":" ","MAREA":"大社","LANE":" ","ALLEY":" ","HOUSE_NO":"９９２號","E_COORD97":180270.85000000001,"N_COORD97":2553707.5,"ADDRESS":"大社９９２號","OBJECTID":147365},"geometry":{"x":180270.85000000056,"y":2553707.5000000019}},{"attributes":{"ID":147367,"DIS_CODE":0,"TOWNNAME":"新市區","LI":"大社里","LIN":"30鄰","STREET":" ","SECT":" ","MAREA":"大社","LANE":" ","ALLEY":" ","HOUSE_NO":"９８３號","E_COORD97":180250.76000000001,"N_COORD97":2553797,"ADDRESS":"大社９８３號","OBJECTID":147366},"geometry":{"x":180250.76000000071,"y":2553797.0000000019}},{"attributes":{"ID":147368,"DIS_CODE":0,"TOWNNAME":"新市區","LI":"大社里","LIN":"30鄰","STREET":" ","SECT":" ","MAREA":"大社","LANE":" ","ALLEY":" ","HOUSE_NO":"９９２之１８號","E_COORD97":180246.95999999999,"N_COORD97":2553685.2999999998,"ADDRESS":"大社９９２之１８號","OBJECTID":147367},"geometry":{"x":180246.95999999996,"y":2553685.3000000007}},{"attributes":{"ID":147369,"DIS_CODE":0,"TOWNNAME":"新市區","LI":"大社里","LIN":"30鄰","STREET":" ","SECT":" ","MAREA":"大社","LANE":" ","ALLEY":" ","HOUSE_NO":"９９２之１號","E_COORD97":180275.06,"N_COORD97":2553703.0499999998,"ADDRESS":"大社９９２之１號","OBJECTID":147368},"geometry":{"x":180275.05999999959,"y":2553703.0500000007}},{"attributes":{"ID":147370,"DIS_CODE":0,"TOWNNAME":"東區","LI":"忠孝里","LIN":"30鄰","STREET":"崇明十街","SECT":" ","MAREA":" ","LANE":" ","ALLEY":" ","HOUSE_NO":"３１號","E_COORD97":170051.42000000001,"N_COORD97":2541772.02,"ADDRESS":"崇明十街３１號","OBJECTID":147369},"geometry":{"x":170051.42000000179,"y":2541772.0199999996}},{"attributes":{"ID":147371,"DIS_CODE":0,"TOWNNAME":"安南區","LI":"淵東里","LIN":"3鄰","STREET":"本原街","SECT":"三段","MAREA":" ","LANE":"２３４巷","ALLEY":"１０６弄","HOUSE_NO":"１２０號","E_COORD97":165415.98000000001,"N_COORD97":2550707.7799999998,"ADDRESS":"本原街三段２３４巷１０６弄１２０號","OBJECTID":147370},"geometry":{"x":165415.98000000138,"y":2550707.7800000012}},{"attributes":{"ID":147372,"DIS_CODE":0,"TOWNNAME":"安南區","LI":"淵東里","LIN":"3鄰","STREET":"本原街","SECT":"三段","MAREA":" ","LANE":"２３４巷","ALLEY":"１０６弄","HOUSE_NO":"１２２號","E_COORD97":165411.39999999999,"N_COORD97":2550705.73,"ADDRESS":"本原街三段２３４巷１０６弄１２２號","OBJECTID":147371},"geometry":{"x":165411.40000000037,"y":2550705.7300000042}},{"attributes":{"ID":147373,"DIS_CODE":0,"TOWNNAME":"安南區","LI":"淵東里","LIN":"3鄰","STREET":"本原街","SECT":"三段","MAREA":" ","LANE":"２３４巷","ALLEY":"１０６弄","HOUSE_NO":"１２４號","E_COORD97":165407.39999999999,"N_COORD97":2550703.7799999998,"ADDRESS":"本原街三段２３４巷１０６弄１２４號","OBJECTID":147372},"geometry":{"x":165407.4000000013,"y":2550703.7799999993}},{"attributes":{"ID":147374,"DIS_CODE":0,"TOWNNAME":"東區","LI":"忠孝里","LIN":"30鄰","STREET":"崇明十街","SECT":" ","MAREA":" ","LANE":" ","ALLEY":" ","HOUSE_NO":"３３號","E_COORD97":170056.51999999999,"N_COORD97":2541777.1899999999,"ADDRESS":"崇明十街３３號","OBJECTID":147373},"geometry":{"x":170056.51999999955,"y":2541777.1899999995}},{"attributes":{"ID":147375,"DIS_CODE":0,"TOWNNAME":"安南區","LI":"淵東里","LIN":"3鄰","STREET":"本原街","SECT":"三段","MAREA":" ","LANE":"２３４巷","ALLEY":"１０６弄","HOUSE_NO":"１２６號","E_COORD97":165402.48000000001,"N_COORD97":2550701.96,"ADDRESS":"本原街三段２３４巷１０６弄１２６號","OBJECTID":147374},"geometry":{"x":165402.48000000045,"y":2550701.9600000028}},{"attributes":{"ID":147376,"DIS_CODE":0,"TOWNNAME":"安南區","LI":"淵東里","LIN":"3鄰","STREET":"本原街","SECT":"三段","MAREA":" ","LANE":"２３４巷","ALLEY":"１０６弄","HOUSE_NO":"１２８號","E_COORD97":165390.53,"N_COORD97":2550696.7599999998,"ADDRESS":"本原街三段２３４巷１０６弄１２８號","OBJECTID":147375},"geometry":{"x":165390.53000000026,"y":2550696.7599999998}},{"attributes":{"ID":147377,"DIS_CODE":0,"TOWNNAME":"安南區","LI":"淵東里","LIN":"3鄰","STREET":"本原街","SECT":"三段","MAREA":" ","LANE":"２３４巷","ALLEY":"１０６弄","HOUSE_NO":"１２號","E_COORD97":165309.25,"N_COORD97":2550570.9300000002,"ADDRESS":"本原街三段２３４巷１０６弄１２號","OBJECTID":147376},"geometry":{"x":165309.25,"y":2550570.9299999997}},{"attributes":{"ID":147378,"DIS_CODE":0,"TOWNNAME":"安南區","LI":"淵東里","LIN":"3鄰","STREET":"本原街","SECT":"三段","MAREA":" ","LANE":"２３４巷","ALLEY":"１０６弄","HOUSE_NO":"１３０號","E_COORD97":165390.82000000001,"N_COORD97":2550691.1200000001,"ADDRESS":"本原街三段２３４巷１０６弄１３０號","OBJECTID":147377},"geometry":{"x":165390.82000000123,"y":2550691.1200000029}},{"attributes":{"ID":147379,"DIS_CODE":0,"TOWNNAME":"安南區","LI":"淵東里","LIN":"3鄰","STREET":"本原街","SECT":"三段","MAREA":" ","LANE":"２３４巷","ALLEY":"１０６弄","HOUSE_NO":"８０號","E_COORD97":165396.32999999999,"N_COORD97":2550674.1899999999,"ADDRESS":"本原街三段２３４巷１０６弄８０號","OBJECTID":147378},"geometry":{"x":165396.33000000007,"y":2550674.1899999976}},{"attributes":{"ID":147380,"DIS_CODE":0,"TOWNNAME":"安南區","LI":"淵東里","LIN":"3鄰","STREET":"本原街","SECT":"三段","MAREA":" ","LANE":"２３４巷","ALLEY":"１０６弄","HOUSE_NO":"８２號","E_COORD97":165395.34,"N_COORD97":2550678.8500000001,"ADDRESS":"本原街三段２３４巷１０６弄８２號","OBJECTID":147379},"geometry":{"x":165395.34000000078,"y":2550678.8499999996}},{"attributes":{"ID":147381,"DIS_CODE":0,"TOWNNAME":"安南區","LI":"淵東里","LIN":"3鄰","STREET":"本原街","SECT":"三段","MAREA":" ","LANE":"２３４巷","ALLEY":"１０６弄","HOUSE_NO":"８４號","E_COORD97":165406.94,"N_COORD97":2550683.8999999999,"ADDRESS":"本原街三段２３４巷１０６弄８４號","OBJECTID":147380},"geometry":{"x":165406.94000000227,"y":2550683.9000000041}},{"attributes":{"ID":147382,"DIS_CODE":0,"TOWNNAME":"安南區","LI":"淵東里","LIN":"3鄰","STREET":"本原街","SECT":"三段","MAREA":" ","LANE":"２３４巷","ALLEY":"１０６弄","HOUSE_NO":"８６號","E_COORD97":165411.29000000001,"N_COORD97":2550685.1600000001,"ADDRESS":"本原街三段２３４巷１０６弄８６號","OBJECTID":147381},"geometry":{"x":165411.29000000097,"y":2550685.1599999983}},{"attributes":{"ID":147383,"DIS_CODE":0,"TOWNNAME":"安南區","LI":"淵東里","LIN":"3鄰","STREET":"本原街","SECT":"三段","MAREA":" ","LANE":"２３４巷","ALLEY":"１０６弄","HOUSE_NO":"８８號","E_COORD97":165415.98000000001,"N_COORD97":2550686.4199999999,"ADDRESS":"本原街三段２３４巷１０６弄８８號","OBJECTID":147382},"geometry":{"x":165415.98000000138,"y":2550686.4199999999}},{"attributes":{"ID":147384,"DIS_CODE":0,"TOWNNAME":"安南區","LI":"淵東里","LIN":"3鄰","STREET":"本原街","SECT":"三段","MAREA":" ","LANE":"２３４巷","ALLEY":"１０６弄","HOUSE_NO":"９０號","E_COORD97":165421.47,"N_COORD97":2550687.8999999999,"ADDRESS":"本原街三段２３４巷１０６弄９０號","OBJECTID":147383},"geometry":{"x":165421.47000000067,"y":2550687.9000000022}},{"attributes":{"ID":147385,"DIS_CODE":0,"TOWNNAME":"安南區","LI":"淵東里","LIN":"3鄰","STREET":"本原街","SECT":"三段","MAREA":" ","LANE":"２３４巷","ALLEY":"１０６弄","HOUSE_NO":"９２號","E_COORD97":165425.70999999999,"N_COORD97":2550689.3900000001,"ADDRESS":"本原街三段２３４巷１０６弄９２號","OBJECTID":147384},"geometry":{"x":165425.71000000089,"y":2550689.3900000025}},{"attributes":{"ID":147386,"DIS_CODE":0,"TOWNNAME":"安南區","LI":"淵東里","LIN":"3鄰","STREET":"本原街","SECT":"三段","MAREA":" ","LANE":"２３４巷","ALLEY":"１０６弄","HOUSE_NO":"９４號","E_COORD97":165431.09,"N_COORD97":2550690.1899999999,"ADDRESS":"本原街三段２３４巷１０６弄９４號","OBJECTID":147385},"geometry":{"x":165431.09000000078,"y":2550690.1899999995}},{"attributes":{"ID":147387,"DIS_CODE":0,"TOWNNAME":"安南區","LI":"淵東里","LIN":"3鄰","STREET":"本原街","SECT":"三段","MAREA":" ","LANE":"２３４巷","ALLEY":"１０６弄","HOUSE_NO":"９６號","E_COORD97":165433.82999999999,"N_COORD97":2550698.6400000001,"ADDRESS":"本原街三段２３４巷１０６弄９６號","OBJECTID":147386},"geometry":{"x":165433.83000000007,"y":2550698.6400000006}},{"attributes":{"ID":147388,"DIS_CODE":0,"TOWNNAME":"白河區","LI":"甘宅里","LIN":" ","STREET":" ","SECT":" ","MAREA":"甘宅","LANE":" ","ALLEY":" ","HOUSE_NO":"２號","E_COORD97":192578.04000000001,"N_COORD97":2586601.96,"ADDRESS":"甘宅２號","OBJECTID":147387},"geometry":{"x":192578.0400000019,"y":2586601.9600000046}},{"attributes":{"ID":147389,"DIS_CODE":0,"TOWNNAME":"安南區","LI":"淵東里","LIN":"3鄰","STREET":"本原街","SECT":"三段","MAREA":" ","LANE":"２３４巷","ALLEY":"１０６弄","HOUSE_NO":"９８號","E_COORD97":165438.75,"N_COORD97":2550700.1299999999,"ADDRESS":"本原街三段２３４巷１０６弄９８號","OBJECTID":147388},"geometry":{"x":165438.75000000093,"y":2550700.129999999}},{"attributes":{"ID":147390,"DIS_CODE":0,"TOWNNAME":"安南區","LI":"淵東里","LIN":"3鄰","STREET":"本原街","SECT":"三段","MAREA":" ","LANE":"２３４巷","ALLEY":"１０６弄","HOUSE_NO":"１０６號","E_COORD97":165449.54999999999,"N_COORD97":2550720.1800000002,"ADDRESS":"本原街三段２３４巷１０６弄１０６號","OBJECTID":147389},"geometry":{"x":165449.55000000168,"y":2550720.1800000016}},{"attributes":{"ID":147391,"DIS_CODE":0,"TOWNNAME":"安南區","LI":"南興里","LIN":"3鄰","STREET":"安興街","SECT":" ","MAREA":" ","LANE":"３８１巷","ALLEY":"２８弄","HOUSE_NO":"２號","E_COORD97":163650.97,"N_COORD97":2552275.7000000002,"ADDRESS":"安興街３８１巷２８弄２號","OBJECTID":147390},"geometry":{"x":163650.96999999974,"y":2552275.7000000011}},{"attributes":{"ID":147392,"DIS_CODE":0,"TOWNNAME":"安南區","LI":"城北里","LIN":"3鄰","STREET":"安中路","SECT":"六段","MAREA":" ","LANE":"５７８巷","ALLEY":"８７弄","HOUSE_NO":"１號","E_COORD97":161031.23000000001,"N_COORD97":2551501.6299999999,"ADDRESS":"安中路六段５７８巷８７弄１號","OBJECTID":147391},"geometry":{"x":161031.23000000045,"y":2551501.6300000027}},{"attributes":{"ID":147393,"DIS_CODE":0,"TOWNNAME":"安南區","LI":"城北里","LIN":"3鄰","STREET":"安中路","SECT":"六段","MAREA":" ","LANE":"５７８巷","ALLEY":"８７弄","HOUSE_NO":"３號","E_COORD97":161029.73999999999,"N_COORD97":2551505.9100000001,"ADDRESS":"安中路六段５７８巷８７弄３號","OBJECTID":147392},"geometry":{"x":161029.74000000115,"y":2551505.9100000001}},{"attributes":{"ID":147394,"DIS_CODE":0,"TOWNNAME":"安南區","LI":"城北里","LIN":"3鄰","STREET":"安中路","SECT":"六段","MAREA":" ","LANE":"５７８巷","ALLEY":"８７弄","HOUSE_NO":"５號","E_COORD97":161028.26000000001,"N_COORD97":2551510.5299999998,"ADDRESS":"安中路六段５７８巷８７弄５號","OBJECTID":147393},"geometry":{"x":161028.25999999978,"y":2551510.5300000012}},{"attributes":{"ID":147395,"DIS_CODE":0,"TOWNNAME":"永康區","LI":"埔園里","LIN":"30鄰","STREET":"八德街","SECT":" ","MAREA":" ","LANE":" ","ALLEY":" ","HOUSE_NO":"１４５號","E_COORD97":173968.53,"N_COORD97":2548532.0600000001,"ADDRESS":"八德街１４５號","OBJECTID":147394},"geometry":{"x":173968.53000000212,"y":2548532.0600000005}},{"attributes":{"ID":147396,"DIS_CODE":0,"TOWNNAME":"安南區","LI":"城北里","LIN":"3鄰","STREET":"安中路","SECT":"六段","MAREA":" ","LANE":"５７８巷","ALLEY":"８７弄","HOUSE_NO":"７號","E_COORD97":161026.28,"N_COORD97":2551515.96,"ADDRESS":"安中路六段５７８巷８７弄７號","OBJECTID":147395},"geometry":{"x":161026.28000000119,"y":2551515.9600000028}},{"attributes":{"ID":147397,"DIS_CODE":0,"TOWNNAME":"安南區","LI":"南興里","LIN":"3鄰","STREET":"安興街","SECT":" ","MAREA":" ","LANE":"３８１巷","ALLEY":"７弄","HOUSE_NO":"５號","E_COORD97":163715.70000000001,"N_COORD97":2552313.02,"ADDRESS":"安興街３８１巷７弄５號","OBJECTID":147396},"geometry":{"x":163715.70000000019,"y":2552313.0200000033}},{"attributes":{"ID":147398,"DIS_CODE":0,"TOWNNAME":"安南區","LI":"南興里","LIN":"3鄰","STREET":"安興街","SECT":" ","MAREA":" ","LANE":"３８１巷","ALLEY":"７弄","HOUSE_NO":"７號","E_COORD97":163718.85999999999,"N_COORD97":2552307.2400000002,"ADDRESS":"安興街３８１巷７弄７號","OBJECTID":147397},"geometry":{"x":163718.8599999994,"y":2552307.2400000021}},{"attributes":{"ID":147399,"DIS_CODE":0,"TOWNNAME":"安南區","LI":"南興里","LIN":"3鄰","STREET":"安興街","SECT":" ","MAREA":" ","LANE":"３８１巷","ALLEY":"７弄","HOUSE_NO":"９號","E_COORD97":163720.44,"N_COORD97":2552299.3500000001,"ADDRESS":"安興街３８１巷７弄９號","OBJECTID":147398},"geometry":{"x":163720.44000000134,"y":2552299.3499999996}},{"attributes":{"ID":147400,"DIS_CODE":0,"TOWNNAME":"安南區","LI":"南興里","LIN":"3鄰","STREET":"安興街","SECT":" ","MAREA":" ","LANE":"３８１巷","ALLEY":"７弄","HOUSE_NO":"１１號","E_COORD97":163724.12,"N_COORD97":2552294.1000000001,"ADDRESS":"安興街３８１巷７弄１１號","OBJECTID":147399},"geometry":{"x":163724.12000000104,"y":2552294.0999999996}},{"attributes":{"ID":147401,"DIS_CODE":0,"TOWNNAME":"安南區","LI":"南興里","LIN":"3鄰","STREET":"安興街","SECT":" ","MAREA":" ","LANE":"３８１巷","ALLEY":"２８弄","HOUSE_NO":"２號之１","E_COORD97":163653.07999999999,"N_COORD97":2552286.21,"ADDRESS":"安興街３８１巷２８弄２號之１","OBJECTID":147400},"geometry":{"x":163653.08000000101,"y":2552286.2100000046}}]}