{"displayFieldName":"TOWNNAME","fieldAliases":{"ID":"ID","DIS_CODE":"DIS_CODE","TOWNNAME":"TOWNNAME","LI":"LI","LIN":"LIN","STREET":"STREET","SECT":"SECT","MAREA":"MAREA","LANE":"LANE","ALLEY":"ALLEY","HOUSE_NO":"HOUSE_NO","E_COORD97":"E_COORD97","N_COORD97":"N_COORD97","ADDRESS":"ADDRESS","OBJECTID":"OBJECTID"},"geometryType":"esriGeometryPoint","spatialReference":{"wkid":102443,"latestWkid":3826},"fields":[{"name":"ID","type":"esriFieldTypeDouble","alias":"ID"},{"name":"DIS_CODE","type":"esriFieldTypeInteger","alias":"DIS_CODE"},{"name":"TOWNNAME","type":"esriFieldTypeString","alias":"TOWNNAME","length":8},{"name":"LI","type":"esriFieldTypeString","alias":"LI","length":8},{"name":"LIN","type":"esriFieldTypeString","alias":"LIN","length":12},{"name":"STREET","type":"esriFieldTypeString","alias":"STREET","length":20},{"name":"SECT","type":"esriFieldTypeString","alias":"SECT","length":8},{"name":"MAREA","type":"esriFieldTypeString","alias":"MAREA","length":12},{"name":"LANE","type":"esriFieldTypeString","alias":"LANE","length":10},{"name":"ALLEY","type":"esriFieldTypeString","alias":"ALLEY","length":10},{"name":"HOUSE_NO","type":"esriFieldTypeString","alias":"HOUSE_NO","length":20},{"name":"E_COORD97","type":"esriFieldTypeDouble","alias":"E_COORD97"},{"name":"N_COORD97","type":"esriFieldTypeDouble","alias":"N_COORD97"},{"name":"ADDRESS","type":"esriFieldTypeString","alias":"ADDRESS","length":50},{"name":"OBJECTID","type":"esriFieldTypeOID","alias":"OBJECTID"}],"features":[{"attributes":{"ID":647228,"DIS_CODE":0,"TOWNNAME":"仁德區","LI":"中洲里","LIN":"12鄰","STREET":" ","SECT":" ","MAREA":"中洲","LANE":" ","ALLEY":" ","HOUSE_NO":"３６１號之２","E_COORD97":173372.70699100001,"N_COORD97":2534206.9633599999,"ADDRESS":"中洲３６１號之２","OBJECTID":647201},"geometry":{"x":173372.70699100103,"y":2534206.9633559994}},{"attributes":{"ID":647229,"DIS_CODE":0,"TOWNNAME":"新營區","LI":"舊部里","LIN":"1鄰","STREET":" ","SECT":" ","MAREA":"舊部","LANE":" ","ALLEY":" ","HOUSE_NO":"９號","E_COORD97":177007.48371,"N_COORD97":2575394.14751,"ADDRESS":"舊部９號","OBJECTID":647202},"geometry":{"x":177007.48371000215,"y":2575394.1475069989}},{"attributes":{"ID":647230,"DIS_CODE":0,"TOWNNAME":"仁德區","LI":"大甲里","LIN":"23鄰","STREET":"中正西路","SECT":" ","MAREA":" ","LANE":" ","ALLEY":" ","HOUSE_NO":"１０６２號","E_COORD97":168068.58312299999,"N_COORD97":2535903.3097799998,"ADDRESS":"中正西路１０６２號","OBJECTID":647203},"geometry":{"x":168068.58312300127,"y":2535903.3097760025}},{"attributes":{"ID":647231,"DIS_CODE":0,"TOWNNAME":"仁德區","LI":"大甲里","LIN":"23鄰","STREET":"中正西路","SECT":" ","MAREA":" ","LANE":" ","ALLEY":" ","HOUSE_NO":"１０６２之１號","E_COORD97":168070.27878699999,"N_COORD97":2535946.4897500002,"ADDRESS":"中正西路１０６２之１號","OBJECTID":647204},"geometry":{"x":168070.27878700197,"y":2535946.4897520002}},{"attributes":{"ID":647232,"DIS_CODE":0,"TOWNNAME":"仁德區","LI":"大甲里","LIN":"23鄰","STREET":"中正西路","SECT":" ","MAREA":" ","LANE":"１０７３巷","ALLEY":" ","HOUSE_NO":"１１號","E_COORD97":167783.71152700001,"N_COORD97":2535926.16976,"ADDRESS":"中正西路１０７３巷１１號","OBJECTID":647205},"geometry":{"x":167783.71152700018,"y":2535926.1697630025}},{"attributes":{"ID":647233,"DIS_CODE":0,"TOWNNAME":"仁德區","LI":"大甲里","LIN":"23鄰","STREET":"中正西路","SECT":" ","MAREA":" ","LANE":"１０７３巷","ALLEY":" ","HOUSE_NO":"１５號","E_COORD97":167730.08614500001,"N_COORD97":2535904.5797799998,"ADDRESS":"中正西路１０７３巷１５號","OBJECTID":647206},"geometry":{"x":167730.0861449996,"y":2535904.5797750019}},{"attributes":{"ID":647234,"DIS_CODE":0,"TOWNNAME":"北門區","LI":"錦湖里","LIN":"1鄰","STREET":" ","SECT":" ","MAREA":"渡子頭","LANE":" ","ALLEY":" ","HOUSE_NO":"７號之１０","E_COORD97":165161.945435,"N_COORD97":2576375.0053599998,"ADDRESS":"渡子頭７號之１０","OBJECTID":647207},"geometry":{"x":165161.94543500058,"y":2576375.0053560026}},{"attributes":{"ID":647235,"DIS_CODE":0,"TOWNNAME":"仁德區","LI":"大甲里","LIN":"23鄰","STREET":"中正西路","SECT":" ","MAREA":" ","LANE":"１１９６巷","ALLEY":" ","HOUSE_NO":"２５號","E_COORD97":167884.39159300001,"N_COORD97":2536038.9880400002,"ADDRESS":"中正西路１１９６巷２５號","OBJECTID":647208},"geometry":{"x":167884.39159300085,"y":2536038.9880359992}},{"attributes":{"ID":647236,"DIS_CODE":0,"TOWNNAME":"仁德區","LI":"大甲里","LIN":"23鄰","STREET":"中正西路","SECT":" ","MAREA":" ","LANE":"１１９６巷","ALLEY":" ","HOUSE_NO":"５０號","E_COORD97":167866.587118,"N_COORD97":2536087.88301,"ADDRESS":"中正西路１１９６巷５０號","OBJECTID":647209},"geometry":{"x":167866.58711800072,"y":2536087.8830090016}},{"attributes":{"ID":647237,"DIS_CODE":0,"TOWNNAME":"北門區","LI":"錦湖里","LIN":"1鄰","STREET":" ","SECT":" ","MAREA":"渡子頭","LANE":" ","ALLEY":" ","HOUSE_NO":"７之１５號","E_COORD97":165161.09796499999,"N_COORD97":2576432.89616,"ADDRESS":"渡子頭７之１５號","OBJECTID":647210},"geometry":{"x":165161.0979650002,"y":2576432.8961580023}},{"attributes":{"ID":647238,"DIS_CODE":0,"TOWNNAME":"仁德區","LI":"大甲里","LIN":"23鄰","STREET":"中正西路","SECT":" ","MAREA":" ","LANE":"１１９６巷","ALLEY":" ","HOUSE_NO":"５００之６號","E_COORD97":169016.883359,"N_COORD97":2536306.5345600001,"ADDRESS":"中正西路１１９６巷５００之６號","OBJECTID":647211},"geometry":{"x":169016.88335900102,"y":2536306.534558}},{"attributes":{"ID":647239,"DIS_CODE":0,"TOWNNAME":"新營區","LI":"舊部里","LIN":"1鄰","STREET":" ","SECT":" ","MAREA":"舊部","LANE":" ","ALLEY":" ","HOUSE_NO":"８９號","E_COORD97":176659.149339,"N_COORD97":2576279.2311999998,"ADDRESS":"舊部８９號","OBJECTID":647212},"geometry":{"x":176659.14933900069,"y":2576279.2311960012}},{"attributes":{"ID":647240,"DIS_CODE":0,"TOWNNAME":"仁德區","LI":"大甲里","LIN":"23鄰","STREET":"中正西路","SECT":" ","MAREA":" ","LANE":"１１９６巷","ALLEY":"５５０弄","HOUSE_NO":"１３２號","E_COORD97":169294.336423,"N_COORD97":2536505.7127800002,"ADDRESS":"中正西路１１９６巷５５０弄１３２號","OBJECTID":647213},"geometry":{"x":169294.33642300218,"y":2536505.7127840016}},{"attributes":{"ID":647241,"DIS_CODE":0,"TOWNNAME":"北門區","LI":"錦湖里","LIN":"1鄰","STREET":" ","SECT":" ","MAREA":"渡子頭","LANE":" ","ALLEY":" ","HOUSE_NO":"７之６號","E_COORD97":165004.73980899999,"N_COORD97":2576248.5345899998,"ADDRESS":"渡子頭７之６號","OBJECTID":647214},"geometry":{"x":165004.73980899993,"y":2576248.5345910005}},{"attributes":{"ID":647242,"DIS_CODE":0,"TOWNNAME":"仁德區","LI":"大甲里","LIN":"23鄰","STREET":"中正西路","SECT":" ","MAREA":" ","LANE":"１１９６巷","ALLEY":"５５０弄","HOUSE_NO":"１４５號","E_COORD97":169115.01992699999,"N_COORD97":2536549.7394300001,"ADDRESS":"中正西路１１９６巷５５０弄１４５號","OBJECTID":647215},"geometry":{"x":169115.0199269997,"y":2536549.7394270003}},{"attributes":{"ID":647243,"DIS_CODE":0,"TOWNNAME":"仁德區","LI":"仁愛里","LIN":"22鄰","STREET":"保仁路","SECT":" ","MAREA":" ","LANE":" ","ALLEY":" ","HOUSE_NO":"６８號","E_COORD97":170244.69412999999,"N_COORD97":2540087.7117699999,"ADDRESS":"保仁路６８號","OBJECTID":647216},"geometry":{"x":170244.69412999973,"y":2540087.7117699999}},{"attributes":{"ID":647244,"DIS_CODE":0,"TOWNNAME":"仁德區","LI":"大甲里","LIN":"23鄰","STREET":"中正西路","SECT":" ","MAREA":" ","LANE":"１１９６巷","ALLEY":"５５０弄","HOUSE_NO":"８號","E_COORD97":169147.237548,"N_COORD97":2536478.1961300001,"ADDRESS":"中正西路１１９６巷５５０弄８號","OBJECTID":647217},"geometry":{"x":169147.23754800018,"y":2536478.1961320005}},{"attributes":{"ID":647245,"DIS_CODE":0,"TOWNNAME":"仁德區","LI":"仁愛里","LIN":"22鄰","STREET":"保仁路","SECT":" ","MAREA":" ","LANE":" ","ALLEY":" ","HOUSE_NO":"１０８號","E_COORD97":170212.70105900001,"N_COORD97":2540065.9101200001,"ADDRESS":"保仁路１０８號","OBJECTID":647218},"geometry":{"x":170212.70105899964,"y":2540065.9101199992}},{"attributes":{"ID":647246,"DIS_CODE":0,"TOWNNAME":"中西區","LI":"普濟里","LIN":"17鄰","STREET":"普濟街","SECT":" ","MAREA":" ","LANE":" ","ALLEY":" ","HOUSE_NO":"４號","E_COORD97":167826.65637099999,"N_COORD97":2544257.8695399999,"ADDRESS":"普濟街４號","OBJECTID":647219},"geometry":{"x":167826.65637099929,"y":2544257.8695390001}},{"attributes":{"ID":647247,"DIS_CODE":0,"TOWNNAME":"中西區","LI":"普濟里","LIN":"17鄰","STREET":"普濟街","SECT":" ","MAREA":" ","LANE":" ","ALLEY":" ","HOUSE_NO":"３０號","E_COORD97":167828.35131,"N_COORD97":2544262.3145400002,"ADDRESS":"普濟街３０號","OBJECTID":647220},"geometry":{"x":167828.35131000075,"y":2544262.3145359997}},{"attributes":{"ID":647248,"DIS_CODE":0,"TOWNNAME":"安南區","LI":"安順里","LIN":"8鄰","STREET":"安和路","SECT":"四段","MAREA":" ","LANE":"８７巷","ALLEY":" ","HOUSE_NO":"１４號","E_COORD97":169861.13310000001,"N_COORD97":2550330.9720299998,"ADDRESS":"安和路四段８７巷１４號","OBJECTID":647221},"geometry":{"x":169861.13310000114,"y":2550330.9720320031}},{"attributes":{"ID":647249,"DIS_CODE":0,"TOWNNAME":"仁德區","LI":"仁愛里","LIN":"22鄰","STREET":" ","SECT":" ","MAREA":"仁愛","LANE":" ","ALLEY":" ","HOUSE_NO":"４６２號","E_COORD97":170131.44713300001,"N_COORD97":2540086.1242800001,"ADDRESS":"仁愛４６２號","OBJECTID":647222},"geometry":{"x":170131.44713300094,"y":2540086.1242760047}},{"attributes":{"ID":647250,"DIS_CODE":0,"TOWNNAME":"仁德區","LI":"大甲里","LIN":"23鄰","STREET":"中正西路","SECT":" ","MAREA":" ","LANE":"１１９６巷","ALLEY":"８８０弄","HOUSE_NO":"１４５號","E_COORD97":169572.637319,"N_COORD97":2536805.8559599998,"ADDRESS":"中正西路１１９６巷８８０弄１４５號","OBJECTID":647223},"geometry":{"x":169572.63731900044,"y":2536805.8559550028}},{"attributes":{"ID":647251,"DIS_CODE":0,"TOWNNAME":"關廟區","LI":"新光里","LIN":"14鄰","STREET":"新光街","SECT":" ","MAREA":" ","LANE":" ","ALLEY":" ","HOUSE_NO":"１３５號","E_COORD97":183996.85810799999,"N_COORD97":2541507.9744099998,"ADDRESS":"新光街１３５號","OBJECTID":647224},"geometry":{"x":183996.85810800083,"y":2541507.9744050018}},{"attributes":{"ID":647252,"DIS_CODE":0,"TOWNNAME":"仁德區","LI":"大甲里","LIN":"23鄰","STREET":"中正西路","SECT":" ","MAREA":" ","LANE":"１１９６巷","ALLEY":"８８０弄","HOUSE_NO":"１４５之５號","E_COORD97":169446.94620599999,"N_COORD97":2536737.06433,"ADDRESS":"中正西路１１９６巷８８０弄１４５之５號","OBJECTID":647225},"geometry":{"x":169446.94620600063,"y":2536737.0643259995}},{"attributes":{"ID":647253,"DIS_CODE":0,"TOWNNAME":"仁德區","LI":"大甲里","LIN":"23鄰","STREET":"中正西路","SECT":" ","MAREA":" ","LANE":"１１９６巷","ALLEY":"８８０弄","HOUSE_NO":"１７５號","E_COORD97":169360.04341300001,"N_COORD97":2536760.3476499999,"ADDRESS":"中正西路１１９６巷８８０弄１７５號","OBJECTID":647226},"geometry":{"x":169360.04341300111,"y":2536760.3476460036}},{"attributes":{"ID":647254,"DIS_CODE":0,"TOWNNAME":"新營區","LI":"民生里","LIN":"24鄰","STREET":"民生路","SECT":" ","MAREA":" ","LANE":" ","ALLEY":" ","HOUSE_NO":"１２５號","E_COORD97":179247.952942,"N_COORD97":2578566.1396599999,"ADDRESS":"民生路１２５號","OBJECTID":647227},"geometry":{"x":179247.9529420007,"y":2578566.1396600008}},{"attributes":{"ID":647255,"DIS_CODE":0,"TOWNNAME":"安南區","LI":"城西里","LIN":"6鄰","STREET":"城西街","SECT":"三段","MAREA":" ","LANE":"５０１巷","ALLEY":"２９弄","HOUSE_NO":"６５號之１００","E_COORD97":157415.87252599999,"N_COORD97":2550798.35732,"ADDRESS":"城西街三段５０１巷２９弄６５號之１００","OBJECTID":647228},"geometry":{"x":157415.87252600119,"y":2550798.357319003}},{"attributes":{"ID":647256,"DIS_CODE":0,"TOWNNAME":"仁德區","LI":"仁愛里","LIN":"22鄰","STREET":" ","SECT":" ","MAREA":"仁愛","LANE":" ","ALLEY":" ","HOUSE_NO":"４５２號","E_COORD97":170161.745207,"N_COORD97":2540081.57345,"ADDRESS":"仁愛４５２號","OBJECTID":647229},"geometry":{"x":170161.74520700052,"y":2540081.5734449998}},{"attributes":{"ID":647257,"DIS_CODE":0,"TOWNNAME":"新營區","LI":"民生里","LIN":"23鄰","STREET":"民生路","SECT":" ","MAREA":" ","LANE":" ","ALLEY":" ","HOUSE_NO":"９３號","E_COORD97":179265.75104800001,"N_COORD97":2578506.1321899998,"ADDRESS":"民生路９３號","OBJECTID":647230},"geometry":{"x":179265.75104800146,"y":2578506.1321920007}},{"attributes":{"ID":647258,"DIS_CODE":0,"TOWNNAME":"善化區","LI":"文昌里","LIN":"16鄰","STREET":"光復路","SECT":" ","MAREA":" ","LANE":" ","ALLEY":" ","HOUSE_NO":"５５號","E_COORD97":177564.03419199999,"N_COORD97":2558685.2499199999,"ADDRESS":"光復路５５號","OBJECTID":647231},"geometry":{"x":177564.03419200145,"y":2558685.2499170043}},{"attributes":{"ID":647259,"DIS_CODE":0,"TOWNNAME":"仁德區","LI":"大甲里","LIN":"23鄰","STREET":"中正西路","SECT":" ","MAREA":" ","LANE":"６２５巷","ALLEY":" ","HOUSE_NO":"７７號","E_COORD97":168925.52944700001,"N_COORD97":2535511.7266500001,"ADDRESS":"中正西路６２５巷７７號","OBJECTID":647232},"geometry":{"x":168925.52944700047,"y":2535511.7266540024}},{"attributes":{"ID":647260,"DIS_CODE":0,"TOWNNAME":"新營區","LI":"民生里","LIN":"23鄰","STREET":"民生路","SECT":" ","MAREA":" ","LANE":" ","ALLEY":" ","HOUSE_NO":"９９號","E_COORD97":179225.06966199999,"N_COORD97":2578493.6438699998,"ADDRESS":"民生路９９號","OBJECTID":647233},"geometry":{"x":179225.06966199912,"y":2578493.6438660044}},{"attributes":{"ID":647261,"DIS_CODE":0,"TOWNNAME":"中西區","LI":"普濟里","LIN":"6鄰","STREET":"海安路","SECT":"二段","MAREA":" ","LANE":"３０２巷","ALLEY":" ","HOUSE_NO":"１９號","E_COORD97":167842.97016200001,"N_COORD97":2544335.6570000001,"ADDRESS":"海安路二段３０２巷１９號","OBJECTID":647234},"geometry":{"x":167842.97016199958,"y":2544335.6569969989}},{"attributes":{"ID":647262,"DIS_CODE":0,"TOWNNAME":"中西區","LI":"普濟里","LIN":"6鄰","STREET":"海安路","SECT":"二段","MAREA":" ","LANE":"３０２巷","ALLEY":" ","HOUSE_NO":"１７號","E_COORD97":167839.156548,"N_COORD97":2544337.1386600002,"ADDRESS":"海安路二段３０２巷１７號","OBJECTID":647235},"geometry":{"x":167839.15654800087,"y":2544337.1386629995}},{"attributes":{"ID":647263,"DIS_CODE":0,"TOWNNAME":"仁德區","LI":"大甲里","LIN":"23鄰","STREET":"中正西路","SECT":" ","MAREA":" ","LANE":" ","ALLEY":" ","HOUSE_NO":"６６０號","E_COORD97":168798.99050099999,"N_COORD97":2535685.9282300002,"ADDRESS":"中正西路６６０號","OBJECTID":647236},"geometry":{"x":168798.99050099961,"y":2535685.9282260016}},{"attributes":{"ID":647264,"DIS_CODE":0,"TOWNNAME":"仁德區","LI":"仁義里","LIN":"10鄰","STREET":"中山路","SECT":" ","MAREA":" ","LANE":"５３９巷","ALLEY":"２弄","HOUSE_NO":"７號","E_COORD97":173447.567778,"N_COORD97":2541244.3199300002,"ADDRESS":"中山路５３９巷２弄７號","OBJECTID":647237},"geometry":{"x":173447.56777799968,"y":2541244.319926003}},{"attributes":{"ID":647265,"DIS_CODE":0,"TOWNNAME":"中西區","LI":"普濟里","LIN":"6鄰","STREET":"海安路","SECT":"二段","MAREA":" ","LANE":"３０２巷","ALLEY":" ","HOUSE_NO":"１５號","E_COORD97":167835.34293499999,"N_COORD97":2544338.7261600001,"ADDRESS":"海安路二段３０２巷１５號","OBJECTID":647238},"geometry":{"x":167835.34293500055,"y":2544338.7261620015}},{"attributes":{"ID":647266,"DIS_CODE":0,"TOWNNAME":"仁德區","LI":"仁義里","LIN":"10鄰","STREET":"中山路","SECT":" ","MAREA":" ","LANE":"５３９巷","ALLEY":"２弄","HOUSE_NO":"９號","E_COORD97":173433.989783,"N_COORD97":2541245.0910399999,"ADDRESS":"中山路５３９巷２弄９號","OBJECTID":647239},"geometry":{"x":173433.98978300113,"y":2541245.0910420027}},{"attributes":{"ID":647267,"DIS_CODE":0,"TOWNNAME":"中西區","LI":"普濟里","LIN":"6鄰","STREET":"海安路","SECT":"二段","MAREA":" ","LANE":"３０２巷","ALLEY":" ","HOUSE_NO":"１３號","E_COORD97":167833.64799500001,"N_COORD97":2544341.9011599999,"ADDRESS":"海安路二段３０２巷１３號","OBJECTID":647240},"geometry":{"x":167833.64799499977,"y":2544341.9011600018}},{"attributes":{"ID":647268,"DIS_CODE":0,"TOWNNAME":"中西區","LI":"普濟里","LIN":"6鄰","STREET":"海安路","SECT":"二段","MAREA":" ","LANE":"３０２巷","ALLEY":" ","HOUSE_NO":"１１號","E_COORD97":167828.98691199999,"N_COORD97":2544343.59449,"ADDRESS":"海安路二段３０２巷１１號","OBJECTID":647241},"geometry":{"x":167828.98691200092,"y":2544343.5944929998}},{"attributes":{"ID":647269,"DIS_CODE":0,"TOWNNAME":"仁德區","LI":"仁愛里","LIN":"21鄰","STREET":" ","SECT":" ","MAREA":"仁愛","LANE":" ","ALLEY":" ","HOUSE_NO":"４３２號","E_COORD97":170105.81030099999,"N_COORD97":2540134.0667500002,"ADDRESS":"仁愛４３２號","OBJECTID":647242},"geometry":{"x":170105.81030100025,"y":2540134.066750003}},{"attributes":{"ID":647270,"DIS_CODE":0,"TOWNNAME":"仁德區","LI":"大甲里","LIN":"23鄰","STREET":"中正西路","SECT":" ","MAREA":" ","LANE":" ","ALLEY":" ","HOUSE_NO":"７８９號","E_COORD97":168690.467989,"N_COORD97":2535690.2673900002,"ADDRESS":"中正西路７８９號","OBJECTID":647243},"geometry":{"x":168690.46798900049,"y":2535690.2673909999}},{"attributes":{"ID":647271,"DIS_CODE":0,"TOWNNAME":"仁德區","LI":"大甲里","LIN":"23鄰","STREET":"中正西路","SECT":" ","MAREA":" ","LANE":" ","ALLEY":" ","HOUSE_NO":"８６７號","E_COORD97":168441.84121700001,"N_COORD97":2535762.0223500002,"ADDRESS":"中正西路８６７號","OBJECTID":647244},"geometry":{"x":168441.84121700097,"y":2535762.0223520007}},{"attributes":{"ID":647272,"DIS_CODE":0,"TOWNNAME":"仁德區","LI":"大甲里","LIN":"23鄰","STREET":"中正西路","SECT":" ","MAREA":" ","LANE":" ","ALLEY":" ","HOUSE_NO":"８７１號","E_COORD97":168419.373666,"N_COORD97":2535764.7740199999,"ADDRESS":"中正西路８７１號","OBJECTID":647245},"geometry":{"x":168419.37366599962,"y":2535764.7740170024}},{"attributes":{"ID":647273,"DIS_CODE":0,"TOWNNAME":"後壁區","LI":"頂長里","LIN":"4鄰","STREET":" ","SECT":" ","MAREA":"長短樹","LANE":" ","ALLEY":" ","HOUSE_NO":"２４號之１５","E_COORD97":181357.351043,"N_COORD97":2584905.4227300002,"ADDRESS":"長短樹２４號之１５","OBJECTID":647246},"geometry":{"x":181357.35104300082,"y":2584905.4227340017}},{"attributes":{"ID":647274,"DIS_CODE":0,"TOWNNAME":"仁德區","LI":"大甲里","LIN":"23鄰","STREET":"中正西路","SECT":" ","MAREA":" ","LANE":" ","ALLEY":" ","HOUSE_NO":"８７６號","E_COORD97":168418.313876,"N_COORD97":2535798.6406700001,"ADDRESS":"中正西路８７６號","OBJECTID":647247},"geometry":{"x":168418.3138759993,"y":2535798.6406660024}},{"attributes":{"ID":647275,"DIS_CODE":0,"TOWNNAME":"關廟區","LI":"埤頭里","LIN":"9鄰","STREET":"關新路","SECT":"二段","MAREA":" ","LANE":" ","ALLEY":" ","HOUSE_NO":"３１號","E_COORD97":179067.60615100001,"N_COORD97":2544127.5887000002,"ADDRESS":"關新路二段３１號","OBJECTID":647248},"geometry":{"x":179067.6061510006,"y":2544127.5887010023}},{"attributes":{"ID":647276,"DIS_CODE":0,"TOWNNAME":"仁德區","LI":"中洲里","LIN":"14鄰","STREET":" ","SECT":" ","MAREA":"中洲","LANE":" ","ALLEY":" ","HOUSE_NO":"３６１之３號","E_COORD97":173381.181545,"N_COORD97":2534226.0133400001,"ADDRESS":"中洲３６１之３號","OBJECTID":647249},"geometry":{"x":173381.18154500145,"y":2534226.0133450013}},{"attributes":{"ID":647277,"DIS_CODE":0,"TOWNNAME":"安南區","LI":"安順里","LIN":"12鄰","STREET":"安和路","SECT":"三段","MAREA":" ","LANE":"１９０巷","ALLEY":" ","HOUSE_NO":"７５號之３５","E_COORD97":170147.18444000001,"N_COORD97":2549728.1456900002,"ADDRESS":"安和路三段１９０巷７５號之３５","OBJECTID":647250},"geometry":{"x":170147.18444000091,"y":2549728.1456900015}},{"attributes":{"ID":647278,"DIS_CODE":0,"TOWNNAME":"安南區","LI":"安順里","LIN":"12鄰","STREET":"安和路","SECT":"三段","MAREA":" ","LANE":"１９０巷","ALLEY":" ","HOUSE_NO":"７５號之３６","E_COORD97":170127.0698,"N_COORD97":2549730.4740200001,"ADDRESS":"安和路三段１９０巷７５號之３６","OBJECTID":647251},"geometry":{"x":170127.06979999971,"y":2549730.4740200005}},{"attributes":{"ID":647279,"DIS_CODE":0,"TOWNNAME":"仁德區","LI":"中洲里","LIN":"14鄰","STREET":" ","SECT":" ","MAREA":"中洲","LANE":" ","ALLEY":" ","HOUSE_NO":"３７０之２號","E_COORD97":173392.62219299999,"N_COORD97":2534229.8233400001,"ADDRESS":"中洲３７０之２號","OBJECTID":647252},"geometry":{"x":173392.62219300028,"y":2534229.8233430013}},{"attributes":{"ID":647280,"DIS_CODE":0,"TOWNNAME":"仁德區","LI":"大甲里","LIN":"23鄰","STREET":"中正西路","SECT":" ","MAREA":" ","LANE":" ","ALLEY":" ","HOUSE_NO":"９６６號","E_COORD97":168211.442836,"N_COORD97":2535862.5639599999,"ADDRESS":"中正西路９６６號","OBJECTID":647253},"geometry":{"x":168211.44283600058,"y":2535862.563964}},{"attributes":{"ID":647281,"DIS_CODE":0,"TOWNNAME":"玉井區","LI":"豐里里","LIN":"8鄰","STREET":" ","SECT":" ","MAREA":"豐里","LANE":" ","ALLEY":" ","HOUSE_NO":"７４之１５號","E_COORD97":192821.48084999999,"N_COORD97":2559324.2569800001,"ADDRESS":"豐里７４之１５號","OBJECTID":647254},"geometry":{"x":192821.48084999993,"y":2559324.2569780014}},{"attributes":{"ID":647282,"DIS_CODE":0,"TOWNNAME":"仁德區","LI":"大甲里","LIN":"23鄰","STREET":"中正西路","SECT":" ","MAREA":" ","LANE":" ","ALLEY":" ","HOUSE_NO":"９８６號","E_COORD97":168174.26044400001,"N_COORD97":2535870.3854399999,"ADDRESS":"中正西路９８６號","OBJECTID":647255},"geometry":{"x":168174.26044400129,"y":2535870.385439001}},{"attributes":{"ID":647283,"DIS_CODE":0,"TOWNNAME":"仁德區","LI":"大甲里","LIN":"23鄰","STREET":"中正西路","SECT":" ","MAREA":" ","LANE":" ","ALLEY":" ","HOUSE_NO":"９８２號","E_COORD97":168186.21983099999,"N_COORD97":2535865.5273000002,"ADDRESS":"中正西路９８２號","OBJECTID":647256},"geometry":{"x":168186.21983100008,"y":2535865.5272960011}},{"attributes":{"ID":647284,"DIS_CODE":0,"TOWNNAME":"仁德區","LI":"仁義里","LIN":"1鄰","STREET":"中山路","SECT":" ","MAREA":" ","LANE":"３０５巷","ALLEY":" ","HOUSE_NO":"３６０號","E_COORD97":174132.32576800001,"N_COORD97":2540670.9514500001,"ADDRESS":"中山路３０５巷３６０號","OBJECTID":647257},"geometry":{"x":174132.32576800138,"y":2540670.9514490031}},{"attributes":{"ID":647285,"DIS_CODE":0,"TOWNNAME":"仁德區","LI":"仁愛里","LIN":"21鄰","STREET":" ","SECT":" ","MAREA":"仁愛","LANE":" ","ALLEY":" ","HOUSE_NO":"４３８號","E_COORD97":170136.002438,"N_COORD97":2540148.6717400001,"ADDRESS":"仁愛４３８號","OBJECTID":647258},"geometry":{"x":170136.00243800133,"y":2540148.6717419997}},{"attributes":{"ID":647286,"DIS_CODE":0,"TOWNNAME":"安南區","LI":"安順里","LIN":"12鄰","STREET":"安和路","SECT":"三段","MAREA":" ","LANE":"１９０巷","ALLEY":" ","HOUSE_NO":"７５號之３８","E_COORD97":170105.88321999999,"N_COORD97":2549716.4361800002,"ADDRESS":"安和路三段１９０巷７５號之３８","OBJECTID":647259},"geometry":{"x":170105.88322000019,"y":2549716.4361790027}},{"attributes":{"ID":647287,"DIS_CODE":0,"TOWNNAME":"安南區","LI":"安順里","LIN":"12鄰","STREET":"安和路","SECT":"三段","MAREA":" ","LANE":"１９０巷","ALLEY":" ","HOUSE_NO":"７５號之３９","E_COORD97":170103.847041,"N_COORD97":2549704.2229499999,"ADDRESS":"安和路三段１９０巷７５號之３９","OBJECTID":647260},"geometry":{"x":170103.84704100061,"y":2549704.222945001}},{"attributes":{"ID":647288,"DIS_CODE":0,"TOWNNAME":"仁德區","LI":"仁愛里","LIN":"21鄰","STREET":" ","SECT":" ","MAREA":"仁愛","LANE":" ","ALLEY":" ","HOUSE_NO":"４３９號","E_COORD97":170146.59617,"N_COORD97":2540143.6975799999,"ADDRESS":"仁愛４３９號","OBJECTID":647261},"geometry":{"x":170146.59617000073,"y":2540143.6975780018}},{"attributes":{"ID":647289,"DIS_CODE":0,"TOWNNAME":"玉井區","LI":"豐里里","LIN":"10鄰","STREET":" ","SECT":" ","MAREA":"豐里","LANE":" ","ALLEY":" ","HOUSE_NO":"９９之９號","E_COORD97":193090.98236200001,"N_COORD97":2560169.7590200002,"ADDRESS":"豐里９９之９號","OBJECTID":647262},"geometry":{"x":193090.9823620012,"y":2560169.7590209991}},{"attributes":{"ID":647290,"DIS_CODE":0,"TOWNNAME":"玉井區","LI":"豐里里","LIN":"10鄰","STREET":" ","SECT":" ","MAREA":"豐里","LANE":" ","ALLEY":" ","HOUSE_NO":"９９之６號","E_COORD97":193082.083728,"N_COORD97":2560176.1090199999,"ADDRESS":"豐里９９之６號","OBJECTID":647263},"geometry":{"x":193082.08372799959,"y":2560176.1090180017}},{"attributes":{"ID":647291,"DIS_CODE":0,"TOWNNAME":"仁德區","LI":"中洲里","LIN":"15鄰","STREET":" ","SECT":" ","MAREA":"中洲","LANE":" ","ALLEY":" ","HOUSE_NO":"３７１號","E_COORD97":173390.71541800001,"N_COORD97":2534196.8033599998,"ADDRESS":"中洲３７１號","OBJECTID":647264},"geometry":{"x":173390.71541799977,"y":2534196.8033610024}},{"attributes":{"ID":647292,"DIS_CODE":0,"TOWNNAME":"安南區","LI":"安順里","LIN":"12鄰","STREET":"安和路","SECT":"三段","MAREA":" ","LANE":"１９０巷","ALLEY":" ","HOUSE_NO":"７５號之４０","E_COORD97":170086.743143,"N_COORD97":2549738.2164500002,"ADDRESS":"安和路三段１９０巷７５號之４０","OBJECTID":647265},"geometry":{"x":170086.74314300064,"y":2549738.2164460048}},{"attributes":{"ID":647293,"DIS_CODE":0,"TOWNNAME":"玉井區","LI":"豐里里","LIN":"10鄰","STREET":" ","SECT":" ","MAREA":"豐里","LANE":" ","ALLEY":" ","HOUSE_NO":"９９之８號","E_COORD97":193076.151304,"N_COORD97":2560169.12402,"ADDRESS":"豐里９９之８號","OBJECTID":647266},"geometry":{"x":193076.15130400006,"y":2560169.1240219995}},{"attributes":{"ID":647294,"DIS_CODE":0,"TOWNNAME":"關廟區","LI":"埤頭里","LIN":"7鄰","STREET":"關新路","SECT":"二段","MAREA":" ","LANE":"２３巷","ALLEY":"１弄","HOUSE_NO":"２２號","E_COORD97":178974.27855300001,"N_COORD97":2544071.92032,"ADDRESS":"關新路二段２３巷１弄２２號","OBJECTID":647267},"geometry":{"x":178974.27855300065,"y":2544071.9203220028}},{"attributes":{"ID":647295,"DIS_CODE":0,"TOWNNAME":"仁德區","LI":"大甲里","LIN":"23鄰","STREET":"中正西路","SECT":" ","MAREA":" ","LANE":"８６９巷","ALLEY":" ","HOUSE_NO":"１３９號","E_COORD97":168413.014925,"N_COORD97":2535564.1141300001,"ADDRESS":"中正西路８６９巷１３９號","OBJECTID":647268},"geometry":{"x":168413.01492500212,"y":2535564.1141260006}},{"attributes":{"ID":647296,"DIS_CODE":0,"TOWNNAME":"安南區","LI":"安順里","LIN":"12鄰","STREET":"安和路","SECT":"三段","MAREA":" ","LANE":"１９０巷","ALLEY":" ","HOUSE_NO":"７５號之４２","E_COORD97":170043.372543,"N_COORD97":2549741.0661999998,"ADDRESS":"安和路三段１９０巷７５號之４２","OBJECTID":647269},"geometry":{"x":170043.37254300062,"y":2549741.0662000012}},{"attributes":{"ID":647297,"DIS_CODE":0,"TOWNNAME":"玉井區","LI":"豐里里","LIN":"10鄰","STREET":" ","SECT":" ","MAREA":"豐里","LANE":" ","ALLEY":" ","HOUSE_NO":"９９之２０號","E_COORD97":193048.607911,"N_COORD97":2560159.3873600001,"ADDRESS":"豐里９９之２０號","OBJECTID":647270},"geometry":{"x":193048.60791100189,"y":2560159.3873599991}},{"attributes":{"ID":647298,"DIS_CODE":0,"TOWNNAME":"新營區","LI":"民生里","LIN":"14鄰","STREET":"公園路","SECT":"一段","MAREA":" ","LANE":"１６０巷","ALLEY":" ","HOUSE_NO":"１５之３號","E_COORD97":178918.605186,"N_COORD97":2578183.9574799999,"ADDRESS":"公園路一段１６０巷１５之３號","OBJECTID":647271},"geometry":{"x":178918.60518600233,"y":2578183.9574830029}},{"attributes":{"ID":647299,"DIS_CODE":0,"TOWNNAME":"仁德區","LI":"中洲里","LIN":"15鄰","STREET":" ","SECT":" ","MAREA":"中洲","LANE":" ","ALLEY":" ","HOUSE_NO":"３６１號之２","E_COORD97":173356.18161100001,"N_COORD97":2534224.1083499999,"ADDRESS":"中洲３６１號之２","OBJECTID":647272},"geometry":{"x":173356.18161099963,"y":2534224.1083470006}},{"attributes":{"ID":647300,"DIS_CODE":0,"TOWNNAME":"仁德區","LI":"大甲里","LIN":"23鄰","STREET":"行大街","SECT":" ","MAREA":" ","LANE":"４０２巷","ALLEY":" ","HOUSE_NO":"７５號","E_COORD97":169622.02353999999,"N_COORD97":2535261.8542900002,"ADDRESS":"行大街４０２巷７５號","OBJECTID":647273},"geometry":{"x":169622.02354000043,"y":2535261.854288999}},{"attributes":{"ID":647301,"DIS_CODE":0,"TOWNNAME":"仁德區","LI":"仁義里","LIN":"1鄰","STREET":"中山路","SECT":" ","MAREA":" ","LANE":"３０５巷","ALLEY":" ","HOUSE_NO":"３６７號","E_COORD97":174221.69091599999,"N_COORD97":2540591.6823200001,"ADDRESS":"中山路３０５巷３６７號","OBJECTID":647274},"geometry":{"x":174221.6909160018,"y":2540591.6823249981}},{"attributes":{"ID":647302,"DIS_CODE":0,"TOWNNAME":"玉井區","LI":"豐里里","LIN":"9鄰","STREET":" ","SECT":" ","MAREA":"豐里","LANE":" ","ALLEY":" ","HOUSE_NO":"８９之１０號","E_COORD97":192126.539842,"N_COORD97":2559727.69343,"ADDRESS":"豐里８９之１０號","OBJECTID":647275},"geometry":{"x":192126.53984200023,"y":2559727.6934270021}},{"attributes":{"ID":647303,"DIS_CODE":0,"TOWNNAME":"玉井區","LI":"豐里里","LIN":"9鄰","STREET":" ","SECT":" ","MAREA":"豐里","LANE":" ","ALLEY":" ","HOUSE_NO":"８９之１２號","E_COORD97":192152.176385,"N_COORD97":2559733.6200899999,"ADDRESS":"豐里８９之１２號","OBJECTID":647276},"geometry":{"x":192152.17638500035,"y":2559733.6200900022}},{"attributes":{"ID":647304,"DIS_CODE":0,"TOWNNAME":"玉井區","LI":"豐里里","LIN":"1鄰","STREET":" ","SECT":" ","MAREA":"豐里","LANE":" ","ALLEY":" ","HOUSE_NO":"１３之１號","E_COORD97":193250.31030099999,"N_COORD97":2558142.4167800001,"ADDRESS":"豐里１３之１號","OBJECTID":647277},"geometry":{"x":193250.31030100025,"y":2558142.4167829994}},{"attributes":{"ID":647305,"DIS_CODE":0,"TOWNNAME":"玉井區","LI":"豐里里","LIN":"1鄰","STREET":" ","SECT":" ","MAREA":"豐里","LANE":" ","ALLEY":" ","HOUSE_NO":"１４號","E_COORD97":193288.871052,"N_COORD97":2558121.2501300001,"ADDRESS":"豐里１４號","OBJECTID":647278},"geometry":{"x":193288.8710520016,"y":2558121.2501269989}},{"attributes":{"ID":647306,"DIS_CODE":0,"TOWNNAME":"玉井區","LI":"豐里里","LIN":"1鄰","STREET":" ","SECT":" ","MAREA":"豐里","LANE":" ","ALLEY":" ","HOUSE_NO":"１４之１號","E_COORD97":193294.59160300001,"N_COORD97":2558116.3818000001,"ADDRESS":"豐里１４之１號","OBJECTID":647279},"geometry":{"x":193294.59160299972,"y":2558116.3817969989}},{"attributes":{"ID":647307,"DIS_CODE":0,"TOWNNAME":"安南區","LI":"安順里","LIN":"12鄰","STREET":"安和路","SECT":"三段","MAREA":" ","LANE":"１９０巷","ALLEY":" ","HOUSE_NO":"７５號之４３","E_COORD97":170040.521893,"N_COORD97":2549705.24071,"ADDRESS":"安和路三段１９０巷７５號之４３","OBJECTID":647280},"geometry":{"x":170040.52189300116,"y":2549705.2407139987}},{"attributes":{"ID":647308,"DIS_CODE":0,"TOWNNAME":"玉井區","LI":"豐里里","LIN":"1鄰","STREET":" ","SECT":" ","MAREA":"豐里","LANE":" ","ALLEY":" ","HOUSE_NO":"１之３號","E_COORD97":193593.119615,"N_COORD97":2558031.3976799999,"ADDRESS":"豐里１之３號","OBJECTID":647281},"geometry":{"x":193593.11961500067,"y":2558031.3976760022}},{"attributes":{"ID":647309,"DIS_CODE":0,"TOWNNAME":"安南區","LI":"安順里","LIN":"12鄰","STREET":"安和路","SECT":"三段","MAREA":" ","LANE":"１９０巷","ALLEY":" ","HOUSE_NO":"７５號之４４","E_COORD97":170038.48571400001,"N_COORD97":2549681.8320200001,"ADDRESS":"安和路三段１９０巷７５號之４４","OBJECTID":647282},"geometry":{"x":170038.48571399972,"y":2549681.8320160024}},{"attributes":{"ID":647310,"DIS_CODE":0,"TOWNNAME":"玉井區","LI":"豐里里","LIN":"1鄰","STREET":" ","SECT":" ","MAREA":"豐里","LANE":" ","ALLEY":" ","HOUSE_NO":"１之６號","E_COORD97":193589.94153099999,"N_COORD97":2558072.4609900001,"ADDRESS":"豐里１之６號","OBJECTID":647283},"geometry":{"x":193589.94153100066,"y":2558072.4609870017}},{"attributes":{"ID":647311,"DIS_CODE":0,"TOWNNAME":"安南區","LI":"安順里","LIN":"12鄰","STREET":"安和路","SECT":"三段","MAREA":" ","LANE":"１９０巷","ALLEY":" ","HOUSE_NO":"７５號之４５","E_COORD97":170064.956034,"N_COORD97":2549681.6284599998,"ADDRESS":"安和路三段１９０巷７５號之４５","OBJECTID":647284},"geometry":{"x":170064.95603400189,"y":2549681.6284619998}},{"attributes":{"ID":647312,"DIS_CODE":0,"TOWNNAME":"安南區","LI":"安順里","LIN":"12鄰","STREET":"安和路","SECT":"三段","MAREA":" ","LANE":"１９０巷","ALLEY":" ","HOUSE_NO":"７５號之４６","E_COORD97":170073.09779599999,"N_COORD97":2549680.8585000001,"ADDRESS":"安和路三段１９０巷７５號之４６","OBJECTID":647285},"geometry":{"x":170073.09779599961,"y":2549680.8584980015}},{"attributes":{"ID":647313,"DIS_CODE":0,"TOWNNAME":"玉井區","LI":"豐里里","LIN":"1鄰","STREET":" ","SECT":" ","MAREA":"豐里","LANE":" ","ALLEY":" ","HOUSE_NO":"１之１號","E_COORD97":193257.09021299999,"N_COORD97":2557959.1135499999,"ADDRESS":"豐里１之１號","OBJECTID":647286},"geometry":{"x":193257.09021300171,"y":2557959.1135480013}},{"attributes":{"ID":647314,"DIS_CODE":0,"TOWNNAME":"新營區","LI":"民生里","LIN":"14鄰","STREET":"公園路","SECT":"一段","MAREA":" ","LANE":"１６０巷","ALLEY":" ","HOUSE_NO":"１５之５號","E_COORD97":178916.91012799999,"N_COORD97":2578180.7824800001,"ADDRESS":"公園路一段１６０巷１５之５號","OBJECTID":647287},"geometry":{"x":178916.91012800112,"y":2578180.7824850027}},{"attributes":{"ID":647315,"DIS_CODE":0,"TOWNNAME":"玉井區","LI":"豐里里","LIN":"1鄰","STREET":" ","SECT":" ","MAREA":"豐里","LANE":" ","ALLEY":" ","HOUSE_NO":"２號","E_COORD97":193225.521247,"N_COORD97":2557968.6385400002,"ADDRESS":"豐里２號","OBJECTID":647288},"geometry":{"x":193225.52124700043,"y":2557968.6385430004}},{"attributes":{"ID":647316,"DIS_CODE":0,"TOWNNAME":"仁德區","LI":"大甲里","LIN":"23鄰","STREET":"二仁路","SECT":"一段","MAREA":" ","LANE":" ","ALLEY":" ","HOUSE_NO":"２５５之１０號","E_COORD97":169372.76089500001,"N_COORD97":2536254.9937499999,"ADDRESS":"二仁路一段２５５之１０號","OBJECTID":647289},"geometry":{"x":169372.7608950017,"y":2536254.9937530048}},{"attributes":{"ID":647317,"DIS_CODE":0,"TOWNNAME":"新營區","LI":"民生里","LIN":"14鄰","STREET":"公園路","SECT":"一段","MAREA":" ","LANE":"１６０巷","ALLEY":" ","HOUSE_NO":"１５之６號","E_COORD97":178916.16854000001,"N_COORD97":2578179.0362399998,"ADDRESS":"公園路一段１６０巷１５之６號","OBJECTID":647290},"geometry":{"x":178916.16854000092,"y":2578179.0362360012}},{"attributes":{"ID":647318,"DIS_CODE":0,"TOWNNAME":"玉井區","LI":"豐里里","LIN":"1鄰","STREET":" ","SECT":" ","MAREA":"豐里","LANE":" ","ALLEY":" ","HOUSE_NO":"５之２號","E_COORD97":193307.51581099999,"N_COORD97":2558005.78602,"ADDRESS":"豐里５之２號","OBJECTID":647291},"geometry":{"x":193307.51581100095,"y":2558005.7860230003}},{"attributes":{"ID":647319,"DIS_CODE":0,"TOWNNAME":"白河區","LI":"關嶺里","LIN":"1鄰","STREET":" ","SECT":" ","MAREA":"關子嶺","LANE":" ","ALLEY":" ","HOUSE_NO":"１０號","E_COORD97":199436.51358900001,"N_COORD97":2581929.0005299998,"ADDRESS":"關子嶺１０號","OBJECTID":647292},"geometry":{"x":199436.51358900126,"y":2581929.0005259998}},{"attributes":{"ID":647320,"DIS_CODE":0,"TOWNNAME":"東區","LI":"大智里","LIN":"40鄰","STREET":"明東街","SECT":" ","MAREA":" ","LANE":" ","ALLEY":" ","HOUSE_NO":"２２號","E_COORD97":171624.041608,"N_COORD97":2540206.1194699998,"ADDRESS":"明東街２２號","OBJECTID":647293},"geometry":{"x":171624.04160800111,"y":2540206.1194690019}},{"attributes":{"ID":647321,"DIS_CODE":0,"TOWNNAME":"東區","LI":"大智里","LIN":"40鄰","STREET":"明東街","SECT":" ","MAREA":" ","LANE":" ","ALLEY":" ","HOUSE_NO":"２５號","E_COORD97":171612.37386699999,"N_COORD97":2540197.6200600001,"ADDRESS":"明東街２５號","OBJECTID":647294},"geometry":{"x":171612.37386699952,"y":2540197.6200590022}},{"attributes":{"ID":647322,"DIS_CODE":0,"TOWNNAME":"東區","LI":"大智里","LIN":"40鄰","STREET":"明東街","SECT":" ","MAREA":" ","LANE":" ","ALLEY":" ","HOUSE_NO":"２６號","E_COORD97":171616.99234699999,"N_COORD97":2540204.90527,"ADDRESS":"明東街２６號","OBJECTID":647295},"geometry":{"x":171616.9923470011,"y":2540204.9052680004}},{"attributes":{"ID":647323,"DIS_CODE":0,"TOWNNAME":"仁德區","LI":"大甲里","LIN":"24鄰","STREET":"行大二街","SECT":" ","MAREA":" ","LANE":" ","ALLEY":" ","HOUSE_NO":"２８號","E_COORD97":169698.54039000001,"N_COORD97":2535325.56592,"ADDRESS":"行大二街２８號","OBJECTID":647296},"geometry":{"x":169698.54039000068,"y":2535325.565921003}},{"attributes":{"ID":647324,"DIS_CODE":0,"TOWNNAME":"東區","LI":"大智里","LIN":"40鄰","STREET":"明東街","SECT":" ","MAREA":" ","LANE":" ","ALLEY":" ","HOUSE_NO":"２７號","E_COORD97":171605.32460600001,"N_COORD97":2540196.1630199999,"ADDRESS":"明東街２７號","OBJECTID":647297},"geometry":{"x":171605.32460600231,"y":2540196.1630180012}},{"attributes":{"ID":647325,"DIS_CODE":0,"TOWNNAME":"安南區","LI":"安順里","LIN":"12鄰","STREET":"安和路","SECT":"三段","MAREA":" ","LANE":"１９０巷","ALLEY":" ","HOUSE_NO":"７５號之６","E_COORD97":170215.226,"N_COORD97":2549796.6364099998,"ADDRESS":"安和路三段１９０巷７５號之６","OBJECTID":647298},"geometry":{"x":170215.22599999979,"y":2549796.6364139989}},{"attributes":{"ID":647326,"DIS_CODE":0,"TOWNNAME":"東區","LI":"大智里","LIN":"40鄰","STREET":"明東街","SECT":" ","MAREA":" ","LANE":" ","ALLEY":" ","HOUSE_NO":"２８號","E_COORD97":171609.94308699999,"N_COORD97":2540206.3623100002,"ADDRESS":"明東街２８號","OBJECTID":647299},"geometry":{"x":171609.94308700133,"y":2540206.3623100016}},{"attributes":{"ID":647327,"DIS_CODE":0,"TOWNNAME":"東區","LI":"大智里","LIN":"40鄰","STREET":"明東街","SECT":" ","MAREA":" ","LANE":" ","ALLEY":" ","HOUSE_NO":"２９號","E_COORD97":171600.46304800001,"N_COORD97":2540199.0770999999,"ADDRESS":"明東街２９號","OBJECTID":647300},"geometry":{"x":171600.46304800082,"y":2540199.0771009997}},{"attributes":{"ID":647328,"DIS_CODE":0,"TOWNNAME":"玉井區","LI":"豐里里","LIN":"1鄰","STREET":" ","SECT":" ","MAREA":"豐里","LANE":" ","ALLEY":" ","HOUSE_NO":"８號","E_COORD97":193262.22077300001,"N_COORD97":2558065.2708700001,"ADDRESS":"豐里８號","OBJECTID":647301},"geometry":{"x":193262.22077300027,"y":2558065.2708730008}},{"attributes":{"ID":647329,"DIS_CODE":0,"TOWNNAME":"東區","LI":"大智里","LIN":"40鄰","STREET":"信東街","SECT":" ","MAREA":" ","LANE":" ","ALLEY":" ","HOUSE_NO":"２號","E_COORD97":171548.930524,"N_COORD97":2540166.29366,"ADDRESS":"信東街２號","OBJECTID":647302},"geometry":{"x":171548.9305240009,"y":2540166.2936630007}},{"attributes":{"ID":647330,"DIS_CODE":0,"TOWNNAME":"安南區","LI":"安順里","LIN":"12鄰","STREET":"安和路","SECT":"三段","MAREA":" ","LANE":"１９０巷","ALLEY":" ","HOUSE_NO":"７５號之５","E_COORD97":170199.751044,"N_COORD97":2549801.1146,"ADDRESS":"安和路三段１９０巷７５號之５","OBJECTID":647303},"geometry":{"x":170199.75104399957,"y":2549801.1146000009}},{"attributes":{"ID":647331,"DIS_CODE":0,"TOWNNAME":"東區","LI":"大智里","LIN":"40鄰","STREET":"明東街","SECT":" ","MAREA":" ","LANE":" ","ALLEY":" ","HOUSE_NO":"３０號","E_COORD97":171603.37998299999,"N_COORD97":2540206.3623100002,"ADDRESS":"明東街３０號","OBJECTID":647304},"geometry":{"x":171603.37998300139,"y":2540206.3623100016}},{"attributes":{"ID":647332,"DIS_CODE":0,"TOWNNAME":"東區","LI":"大智里","LIN":"40鄰","STREET":"明東街","SECT":" ","MAREA":" ","LANE":" ","ALLEY":" ","HOUSE_NO":"３１號","E_COORD97":171595.11533299999,"N_COORD97":2540195.6773399999,"ADDRESS":"明東街３１號","OBJECTID":647305},"geometry":{"x":171595.1153330002,"y":2540195.6773370039}},{"attributes":{"ID":647333,"DIS_CODE":0,"TOWNNAME":"安南區","LI":"安順里","LIN":"12鄰","STREET":"安和路","SECT":"三段","MAREA":" ","LANE":"１９０巷","ALLEY":" ","HOUSE_NO":"７５號之４","E_COORD97":170175.927757,"N_COORD97":2549803.5572500001,"ADDRESS":"安和路三段１９０巷７５號之４","OBJECTID":647306},"geometry":{"x":170175.92775700055,"y":2549803.5572470017}},{"attributes":{"ID":647334,"DIS_CODE":0,"TOWNNAME":"玉井區","LI":"豐里里","LIN":"1鄰","STREET":" ","SECT":" ","MAREA":"豐里","LANE":" ","ALLEY":" ","HOUSE_NO":"９號","E_COORD97":193213.913898,"N_COORD97":2558046.6442200001,"ADDRESS":"豐里９號","OBJECTID":647307},"geometry":{"x":193213.91389800049,"y":2558046.644216001}},{"attributes":{"ID":647335,"DIS_CODE":0,"TOWNNAME":"東區","LI":"大智里","LIN":"40鄰","STREET":"明東街","SECT":" ","MAREA":" ","LANE":" ","ALLEY":" ","HOUSE_NO":"３２號","E_COORD97":171597.05995600001,"N_COORD97":2540206.1194699998,"ADDRESS":"明東街３２號","OBJECTID":647308},"geometry":{"x":171597.05995600112,"y":2540206.1194690019}},{"attributes":{"ID":647336,"DIS_CODE":0,"TOWNNAME":"安南區","LI":"安順里","LIN":"12鄰","STREET":"安和路","SECT":"三段","MAREA":" ","LANE":"１９０巷","ALLEY":" ","HOUSE_NO":"７５號之３","E_COORD97":170145.18146299999,"N_COORD97":2549807.6283200001,"ADDRESS":"安和路三段１９０巷７５號之３","OBJECTID":647309},"geometry":{"x":170145.18146300223,"y":2549807.6283250004}},{"attributes":{"ID":647337,"DIS_CODE":0,"TOWNNAME":"麻豆區","LI":"興農里","LIN":"11鄰","STREET":"新生南路","SECT":" ","MAREA":" ","LANE":" ","ALLEY":" ","HOUSE_NO":"９５號","E_COORD97":172343.27087000001,"N_COORD97":2564664.4825499998,"ADDRESS":"新生南路９５號","OBJECTID":647310},"geometry":{"x":172343.27087000199,"y":2564664.4825490024}},{"attributes":{"ID":647338,"DIS_CODE":0,"TOWNNAME":"安南區","LI":"安順里","LIN":"12鄰","STREET":"安和路","SECT":"三段","MAREA":" ","LANE":"１９０巷","ALLEY":" ","HOUSE_NO":"７５號之７","E_COORD97":170184.07247000001,"N_COORD97":2549769.5637500002,"ADDRESS":"安和路三段１９０巷７５號之７","OBJECTID":647311},"geometry":{"x":170184.07247000095,"y":2549769.5637459997}},{"attributes":{"ID":647339,"DIS_CODE":0,"TOWNNAME":"玉井區","LI":"豐里里","LIN":"1鄰","STREET":" ","SECT":" ","MAREA":"豐里","LANE":" ","ALLEY":" ","HOUSE_NO":"１０號","E_COORD97":193225.143128,"N_COORD97":2558044.9508799999,"ADDRESS":"豐里１０號","OBJECTID":647312},"geometry":{"x":193225.1431280002,"y":2558044.9508839995}},{"attributes":{"ID":647340,"DIS_CODE":0,"TOWNNAME":"東區","LI":"大智里","LIN":"40鄰","STREET":"明東街","SECT":" ","MAREA":" ","LANE":" ","ALLEY":" ","HOUSE_NO":"３３號","E_COORD97":171589.52454000001,"N_COORD97":2540198.34858,"ADDRESS":"明東街３３號","OBJECTID":647313},"geometry":{"x":171589.5245400006,"y":2540198.3485799991}},{"attributes":{"ID":647341,"DIS_CODE":0,"TOWNNAME":"安南區","LI":"安順里","LIN":"12鄰","STREET":"安和路","SECT":"三段","MAREA":" ","LANE":"１９０巷","ALLEY":" ","HOUSE_NO":"７５號之８","E_COORD97":170161.47089,"N_COORD97":2549772.8206099998,"ADDRESS":"安和路三段１９０巷７５號之８","OBJECTID":647314},"geometry":{"x":170161.47089000046,"y":2549772.8206080012}},{"attributes":{"ID":647342,"DIS_CODE":0,"TOWNNAME":"東區","LI":"大智里","LIN":"40鄰","STREET":"明東街","SECT":" ","MAREA":" ","LANE":" ","ALLEY":" ","HOUSE_NO":"３５號","E_COORD97":171584.906059,"N_COORD97":2540195.6773399999,"ADDRESS":"明東街３５號","OBJECTID":647315},"geometry":{"x":171584.90605899971,"y":2540195.6773370039}},{"attributes":{"ID":647343,"DIS_CODE":0,"TOWNNAME":"玉井區","LI":"豐里里","LIN":"1鄰","STREET":" ","SECT":" ","MAREA":"豐里","LANE":" ","ALLEY":" ","HOUSE_NO":"１０之１號","E_COORD97":193230.65180699999,"N_COORD97":2558045.3742200001,"ADDRESS":"豐里１０之１號","OBJECTID":647316},"geometry":{"x":193230.65180700179,"y":2558045.3742170017}},{"attributes":{"ID":647344,"DIS_CODE":0,"TOWNNAME":"東區","LI":"大智里","LIN":"40鄰","STREET":"明東街","SECT":" ","MAREA":" ","LANE":" ","ALLEY":" ","HOUSE_NO":"３６號","E_COORD97":171590.01069600001,"N_COORD97":2540206.8479900002,"ADDRESS":"明東街３６號","OBJECTID":647317},"geometry":{"x":171590.01069600135,"y":2540206.8479900025}},{"attributes":{"ID":647345,"DIS_CODE":0,"TOWNNAME":"麻豆區","LI":"興農里","LIN":"11鄰","STREET":"新生南路","SECT":" ","MAREA":" ","LANE":" ","ALLEY":" ","HOUSE_NO":"９７號","E_COORD97":172343.05902700001,"N_COORD97":2564660.8842199999,"ADDRESS":"新生南路９７號","OBJECTID":647318},"geometry":{"x":172343.0590269994,"y":2564660.8842179999}},{"attributes":{"ID":647346,"DIS_CODE":0,"TOWNNAME":"東山區","LI":"東山里","LIN":"15鄰","STREET":" ","SECT":" ","MAREA":"東山","LANE":" ","ALLEY":" ","HOUSE_NO":"２４２號之５","E_COORD97":189214.306231,"N_COORD97":2580673.7435499998,"ADDRESS":"東山２４２號之５","OBJECTID":647319},"geometry":{"x":189214.30623100139,"y":2580673.7435529996}},{"attributes":{"ID":647347,"DIS_CODE":0,"TOWNNAME":"安南區","LI":"安順里","LIN":"12鄰","STREET":"安和路","SECT":"三段","MAREA":" ","LANE":"１９０巷","ALLEY":" ","HOUSE_NO":"７５號之９","E_COORD97":170141.92357700001,"N_COORD97":2549775.6703599999,"ADDRESS":"安和路三段１９０巷７５號之９","OBJECTID":647320},"geometry":{"x":170141.92357700225,"y":2549775.6703630034}},{"attributes":{"ID":647348,"DIS_CODE":0,"TOWNNAME":"東區","LI":"大智里","LIN":"40鄰","STREET":"明東街","SECT":" ","MAREA":" ","LANE":" ","ALLEY":" ","HOUSE_NO":"３７號","E_COORD97":171579.315267,"N_COORD97":2540196.1630199999,"ADDRESS":"明東街３７號","OBJECTID":647321},"geometry":{"x":171579.31526700128,"y":2540196.1630180012}},{"attributes":{"ID":647349,"DIS_CODE":0,"TOWNNAME":"仁德區","LI":"仁義里","LIN":"1鄰","STREET":"中山路","SECT":" ","MAREA":" ","LANE":"３０５巷","ALLEY":" ","HOUSE_NO":"３６３號","E_COORD97":174187.59662999999,"N_COORD97":2540632.8514700001,"ADDRESS":"中山路３０５巷３６３號","OBJECTID":647322},"geometry":{"x":174187.59662999958,"y":2540632.8514690008}},{"attributes":{"ID":647350,"DIS_CODE":0,"TOWNNAME":"東區","LI":"大智里","LIN":"40鄰","STREET":"明東街","SECT":" ","MAREA":" ","LANE":" ","ALLEY":" ","HOUSE_NO":"３８號","E_COORD97":171584.419903,"N_COORD97":2540207.0908300001,"ADDRESS":"明東街３８號","OBJECTID":647323},"geometry":{"x":171584.41990300082,"y":2540207.0908310022}},{"attributes":{"ID":647351,"DIS_CODE":0,"TOWNNAME":"仁德區","LI":"大甲里","LIN":"24鄰","STREET":"中正西路","SECT":" ","MAREA":" ","LANE":" ","ALLEY":" ","HOUSE_NO":"３５９號","E_COORD97":169713.16549399999,"N_COORD97":2535394.3575499998,"ADDRESS":"中正西路３５９號","OBJECTID":647324},"geometry":{"x":169713.16549399961,"y":2535394.357551001}},{"attributes":{"ID":647352,"DIS_CODE":0,"TOWNNAME":"東區","LI":"大智里","LIN":"40鄰","STREET":"明東街","SECT":" ","MAREA":" ","LANE":" ","ALLEY":" ","HOUSE_NO":"３９號","E_COORD97":171575.18294200001,"N_COORD97":2540193.9774500001,"ADDRESS":"明東街３９號","OBJECTID":647325},"geometry":{"x":171575.18294200022,"y":2540193.9774549995}},{"attributes":{"ID":647353,"DIS_CODE":0,"TOWNNAME":"東區","LI":"大智里","LIN":"40鄰","STREET":"明東街","SECT":" ","MAREA":" ","LANE":" ","ALLEY":" ","HOUSE_NO":"４０號","E_COORD97":171579.315267,"N_COORD97":2540208.06219,"ADDRESS":"明東街４０號","OBJECTID":647326},"geometry":{"x":171579.31526700128,"y":2540208.0621920004}},{"attributes":{"ID":647354,"DIS_CODE":0,"TOWNNAME":"玉井區","LI":"豐里里","LIN":"1鄰","STREET":" ","SECT":" ","MAREA":"豐里","LANE":" ","ALLEY":" ","HOUSE_NO":"１６號","E_COORD97":193319.63815499999,"N_COORD97":2558156.9224899998,"ADDRESS":"豐里１６號","OBJECTID":647327},"geometry":{"x":193319.63815500028,"y":2558156.9224900045}},{"attributes":{"ID":647355,"DIS_CODE":0,"TOWNNAME":"山上區","LI":"山上里","LIN":"13鄰","STREET":" ","SECT":" ","MAREA":"山上","LANE":" ","ALLEY":" ","HOUSE_NO":"２０１號之７","E_COORD97":184038.97193299999,"N_COORD97":2555515.8903199998,"ADDRESS":"山上２０１號之７","OBJECTID":647328},"geometry":{"x":184038.97193299979,"y":2555515.8903200012}},{"attributes":{"ID":647356,"DIS_CODE":0,"TOWNNAME":"東區","LI":"大智里","LIN":"40鄰","STREET":"明東街","SECT":" ","MAREA":" ","LANE":" ","ALLEY":" ","HOUSE_NO":"４１號","E_COORD97":171566.18905799999,"N_COORD97":2540198.8342599999,"ADDRESS":"明東街４１號","OBJECTID":647329},"geometry":{"x":171566.18905800022,"y":2540198.8342610002}},{"attributes":{"ID":647357,"DIS_CODE":0,"TOWNNAME":"玉井區","LI":"豐里里","LIN":"2鄰","STREET":" ","SECT":" ","MAREA":"豐里","LANE":" ","ALLEY":" ","HOUSE_NO":"１７號","E_COORD97":193356.71580100001,"N_COORD97":2558183.5924800001,"ADDRESS":"豐里１７號","OBJECTID":647330},"geometry":{"x":193356.71580099966,"y":2558183.5924759991}},{"attributes":{"ID":647358,"DIS_CODE":0,"TOWNNAME":"玉井區","LI":"豐里里","LIN":"2鄰","STREET":" ","SECT":" ","MAREA":"豐里","LANE":" ","ALLEY":" ","HOUSE_NO":"１８號","E_COORD97":193360.317629,"N_COORD97":2558193.7524700002,"ADDRESS":"豐里１８號","OBJECTID":647331},"geometry":{"x":193360.3176290011,"y":2558193.7524700016}},{"attributes":{"ID":647359,"DIS_CODE":0,"TOWNNAME":"安南區","LI":"安順里","LIN":"12鄰","STREET":"安和路","SECT":"三段","MAREA":" ","LANE":"１９０巷","ALLEY":" ","HOUSE_NO":"７５號之１０","E_COORD97":170137.03674899999,"N_COORD97":2549754.0936500002,"ADDRESS":"安和路三段１９０巷７５號之１０","OBJECTID":647332},"geometry":{"x":170137.03674899973,"y":2549754.0936500002}},{"attributes":{"ID":647360,"DIS_CODE":0,"TOWNNAME":"東區","LI":"大智里","LIN":"40鄰","STREET":"明東街","SECT":" ","MAREA":" ","LANE":" ","ALLEY":" ","HOUSE_NO":"４２號","E_COORD97":171572.99523999999,"N_COORD97":2540207.57651,"ADDRESS":"明東街４２號","OBJECTID":647333},"geometry":{"x":171572.99524000101,"y":2540207.5765109994}},{"attributes":{"ID":647361,"DIS_CODE":0,"TOWNNAME":"玉井區","LI":"豐里里","LIN":"2鄰","STREET":" ","SECT":" ","MAREA":"豐里","LANE":" ","ALLEY":" ","HOUSE_NO":"２０號","E_COORD97":193349.93588800001,"N_COORD97":2558205.1824599998,"ADDRESS":"豐里２０號","OBJECTID":647334},"geometry":{"x":193349.9358880017,"y":2558205.1824639998}},{"attributes":{"ID":647362,"DIS_CODE":0,"TOWNNAME":"東區","LI":"大智里","LIN":"40鄰","STREET":"明東街","SECT":" ","MAREA":" ","LANE":" ","ALLEY":" ","HOUSE_NO":"４３號","E_COORD97":171558.41056399999,"N_COORD97":2540197.1343800002,"ADDRESS":"明東街４３號","OBJECTID":647335},"geometry":{"x":171558.41056399979,"y":2540197.1343789995}},{"attributes":{"ID":647363,"DIS_CODE":0,"TOWNNAME":"東區","LI":"大智里","LIN":"40鄰","STREET":"明東街","SECT":" ","MAREA":" ","LANE":" ","ALLEY":" ","HOUSE_NO":"４５號","E_COORD97":171550.63206999999,"N_COORD97":2540197.1343800002,"ADDRESS":"明東街４５號","OBJECTID":647336},"geometry":{"x":171550.63207000215,"y":2540197.1343789995}},{"attributes":{"ID":647364,"DIS_CODE":0,"TOWNNAME":"玉井區","LI":"豐里里","LIN":"2鄰","STREET":" ","SECT":" ","MAREA":"豐里","LANE":" ","ALLEY":" ","HOUSE_NO":"２２之１號","E_COORD97":193285.31485,"N_COORD97":2558169.6224799999,"ADDRESS":"豐里２２之１號","OBJECTID":647337},"geometry":{"x":193285.31485000066,"y":2558169.622483002}},{"attributes":{"ID":647365,"DIS_CODE":0,"TOWNNAME":"東區","LI":"大智里","LIN":"40鄰","STREET":"明東街","SECT":" ","MAREA":" ","LANE":" ","ALLEY":" ","HOUSE_NO":"４６號","E_COORD97":171566.91829199999,"N_COORD97":2540207.57651,"ADDRESS":"明東街４６號","OBJECTID":647338},"geometry":{"x":171566.91829199996,"y":2540207.5765109994}},{"attributes":{"ID":647366,"DIS_CODE":0,"TOWNNAME":"佳里區","LI":"東寧里","LIN":"19鄰","STREET":"新生東路","SECT":" ","MAREA":" ","LANE":" ","ALLEY":" ","HOUSE_NO":"９號","E_COORD97":166253.256712,"N_COORD97":2562468.3324199999,"ADDRESS":"新生東路９號","OBJECTID":647339},"geometry":{"x":166253.25671200082,"y":2562468.3324180022}},{"attributes":{"ID":647367,"DIS_CODE":0,"TOWNNAME":"安南區","LI":"安順里","LIN":"12鄰","STREET":"安和路","SECT":"三段","MAREA":" ","LANE":"１９０巷","ALLEY":" ","HOUSE_NO":"７５號之１１","E_COORD97":170158.009387,"N_COORD97":2549751.8545599999,"ADDRESS":"安和路三段１９０巷７５號之１１","OBJECTID":647340},"geometry":{"x":170158.0093870014,"y":2549751.8545570001}},{"attributes":{"ID":647368,"DIS_CODE":0,"TOWNNAME":"仁德區","LI":"大甲里","LIN":"24鄰","STREET":"中正西路","SECT":" ","MAREA":" ","LANE":"３６０巷","ALLEY":" ","HOUSE_NO":"３３１號","E_COORD97":169706.38283700001,"N_COORD97":2536011.5772199999,"ADDRESS":"中正西路３６０巷３３１號","OBJECTID":647341},"geometry":{"x":169706.38283700123,"y":2536011.5772169996}},{"attributes":{"ID":647369,"DIS_CODE":0,"TOWNNAME":"東區","LI":"大智里","LIN":"40鄰","STREET":"明東街","SECT":" ","MAREA":" ","LANE":" ","ALLEY":" ","HOUSE_NO":"５０號","E_COORD97":171562.299811,"N_COORD97":2540207.57651,"ADDRESS":"明東街５０號","OBJECTID":647342},"geometry":{"x":171562.29981100094,"y":2540207.5765109994}},{"attributes":{"ID":647370,"DIS_CODE":0,"TOWNNAME":"玉井區","LI":"豐里里","LIN":"2鄰","STREET":" ","SECT":" ","MAREA":"豐里","LANE":" ","ALLEY":" ","HOUSE_NO":"１８之１號","E_COORD97":193359.682012,"N_COORD97":2558200.3141299998,"ADDRESS":"豐里１８之１號","OBJECTID":647343},"geometry":{"x":193359.68201200012,"y":2558200.3141330034}},{"attributes":{"ID":647371,"DIS_CODE":0,"TOWNNAME":"東區","LI":"大智里","LIN":"40鄰","STREET":"明東街","SECT":" ","MAREA":" ","LANE":" ","ALLEY":" ","HOUSE_NO":"５２號","E_COORD97":171557.43825199999,"N_COORD97":2540207.57651,"ADDRESS":"明東街５２號","OBJECTID":647344},"geometry":{"x":171557.43825200107,"y":2540207.5765109994}},{"attributes":{"ID":647372,"DIS_CODE":0,"TOWNNAME":"安南區","LI":"安順里","LIN":"12鄰","STREET":"安和路","SECT":"三段","MAREA":" ","LANE":"１９０巷","ALLEY":" ","HOUSE_NO":"７５號之１２","E_COORD97":170178.982024,"N_COORD97":2549748.80125,"ADDRESS":"安和路三段１９０巷７５號之１２","OBJECTID":647345},"geometry":{"x":170178.98202400096,"y":2549748.8012480009}},{"attributes":{"ID":647373,"DIS_CODE":0,"TOWNNAME":"東山區","LI":"東山里","LIN":"7鄰","STREET":" ","SECT":" ","MAREA":"東山","LANE":" ","ALLEY":" ","HOUSE_NO":"１４７號之１","E_COORD97":189019.64741100001,"N_COORD97":2580356.08482,"ADDRESS":"東山１４７號之１","OBJECTID":647346},"geometry":{"x":189019.64741100091,"y":2580356.0848239977}},{"attributes":{"ID":647374,"DIS_CODE":0,"TOWNNAME":"東區","LI":"大智里","LIN":"40鄰","STREET":"明東街","SECT":" ","MAREA":" ","LANE":" ","ALLEY":" ","HOUSE_NO":"５６號","E_COORD97":171554.27823900001,"N_COORD97":2540207.3336700001,"ADDRESS":"明東街５６號","OBJECTID":647347},"geometry":{"x":171554.27823899966,"y":2540207.3336709999}},{"attributes":{"ID":647375,"DIS_CODE":0,"TOWNNAME":"東區","LI":"大智里","LIN":"40鄰","STREET":"明東街","SECT":" ","MAREA":" ","LANE":" ","ALLEY":" ","HOUSE_NO":"５８號","E_COORD97":171551.36130399999,"N_COORD97":2540212.1904799999,"ADDRESS":"明東街５８號","OBJECTID":647348},"geometry":{"x":171551.36130400188,"y":2540212.1904760022}},{"attributes":{"ID":647376,"DIS_CODE":0,"TOWNNAME":"東區","LI":"大智里","LIN":"40鄰","STREET":"明東街","SECT":" ","MAREA":" ","LANE":" ","ALLEY":" ","HOUSE_NO":"６０號","E_COORD97":171547.958212,"N_COORD97":2540208.06219,"ADDRESS":"明東街６０號","OBJECTID":647349},"geometry":{"x":171547.95821200125,"y":2540208.0621920004}},{"attributes":{"ID":647377,"DIS_CODE":0,"TOWNNAME":"東區","LI":"大智里","LIN":"40鄰","STREET":"明東街","SECT":" ","MAREA":" ","LANE":" ","ALLEY":" ","HOUSE_NO":"６２號","E_COORD97":171544.55512100001,"N_COORD97":2540208.5478699999,"ADDRESS":"明東街６２號","OBJECTID":647350},"geometry":{"x":171544.55512100086,"y":2540208.5478719994}},{"attributes":{"ID":647378,"DIS_CODE":0,"TOWNNAME":"玉井區","LI":"豐里里","LIN":"2鄰","STREET":" ","SECT":" ","MAREA":"豐里","LANE":" ","ALLEY":" ","HOUSE_NO":"２７號","E_COORD97":193257.983328,"N_COORD97":2558276.3024300002,"ADDRESS":"豐里２７號","OBJECTID":647351},"geometry":{"x":193257.98332800064,"y":2558276.3024260011}},{"attributes":{"ID":647379,"DIS_CODE":0,"TOWNNAME":"玉井區","LI":"豐里里","LIN":"2鄰","STREET":" ","SECT":" ","MAREA":"豐里","LANE":" ","ALLEY":" ","HOUSE_NO":"２６號","E_COORD97":193280.01804299999,"N_COORD97":2558273.1274299999,"ADDRESS":"豐里２６號","OBJECTID":647352},"geometry":{"x":193280.01804300118,"y":2558273.1274270024}},{"attributes":{"ID":647380,"DIS_CODE":0,"TOWNNAME":"仁德區","LI":"大甲里","LIN":"24鄰","STREET":"中正西路","SECT":" ","MAREA":" ","LANE":" ","ALLEY":" ","HOUSE_NO":"４０５號","E_COORD97":169610.36584899999,"N_COORD97":2535397.9558799998,"ADDRESS":"中正西路４０５號","OBJECTID":647353},"geometry":{"x":169610.36584900133,"y":2535397.9558819998}},{"attributes":{"ID":647381,"DIS_CODE":0,"TOWNNAME":"東區","LI":"大智里","LIN":"40鄰","STREET":"信東街","SECT":" ","MAREA":" ","LANE":" ","ALLEY":" ","HOUSE_NO":"６號","E_COORD97":171547.71513500001,"N_COORD97":2540178.92136,"ADDRESS":"信東街６號","OBJECTID":647354},"geometry":{"x":171547.71513499971,"y":2540178.9213580005}},{"attributes":{"ID":647382,"DIS_CODE":0,"TOWNNAME":"仁德區","LI":"大甲里","LIN":"24鄰","STREET":"中正西路","SECT":" ","MAREA":" ","LANE":" ","ALLEY":" ","HOUSE_NO":"４０９號","E_COORD97":169595.74074400001,"N_COORD97":2535399.6492099999,"ADDRESS":"中正西路４０９號","OBJECTID":647355},"geometry":{"x":169595.74074400123,"y":2535399.6492140014}},{"attributes":{"ID":647383,"DIS_CODE":0,"TOWNNAME":"東區","LI":"大智里","LIN":"40鄰","STREET":"永東街","SECT":" ","MAREA":" ","LANE":" ","ALLEY":" ","HOUSE_NO":"７２號","E_COORD97":171613.04097,"N_COORD97":2540159.44221,"ADDRESS":"永東街７２號","OBJECTID":647356},"geometry":{"x":171613.04096999951,"y":2540159.4422079995}},{"attributes":{"ID":647384,"DIS_CODE":0,"TOWNNAME":"玉井區","LI":"豐里里","LIN":"3鄰","STREET":" ","SECT":" ","MAREA":"豐里","LANE":" ","ALLEY":" ","HOUSE_NO":"２７之１２號","E_COORD97":193292.73037899999,"N_COORD97":2558453.5731600001,"ADDRESS":"豐里２７之１２號","OBJECTID":647357},"geometry":{"x":193292.73037900031,"y":2558453.573162999}},{"attributes":{"ID":647385,"DIS_CODE":0,"TOWNNAME":"東區","LI":"大智里","LIN":"40鄰","STREET":"永東街","SECT":" ","MAREA":" ","LANE":" ","ALLEY":" ","HOUSE_NO":"７６號","E_COORD97":171612.40534900001,"N_COORD97":2540166.0038700001,"ADDRESS":"永東街７６號","OBJECTID":647358},"geometry":{"x":171612.40534900222,"y":2540166.0038719997}},{"attributes":{"ID":647386,"DIS_CODE":0,"TOWNNAME":"東區","LI":"大智里","LIN":"40鄰","STREET":"永東街","SECT":" ","MAREA":" ","LANE":" ","ALLEY":" ","HOUSE_NO":"７８號","E_COORD97":171612.40534900001,"N_COORD97":2540172.3538700002,"ADDRESS":"永東街７８號","OBJECTID":647359},"geometry":{"x":171612.40534900222,"y":2540172.3538680021}},{"attributes":{"ID":647387,"DIS_CODE":0,"TOWNNAME":"仁德區","LI":"中洲里","LIN":"15鄰","STREET":" ","SECT":" ","MAREA":"中洲","LANE":" ","ALLEY":" ","HOUSE_NO":"３７３號","E_COORD97":173432.041811,"N_COORD97":2534125.0484000002,"ADDRESS":"中洲３７３號","OBJECTID":647360},"geometry":{"x":173432.04181099962,"y":2534125.0483999997}},{"attributes":{"ID":647388,"DIS_CODE":0,"TOWNNAME":"仁德區","LI":"大甲里","LIN":"24鄰","STREET":"行大二街","SECT":" ","MAREA":" ","LANE":" ","ALLEY":" ","HOUSE_NO":"３６號","E_COORD97":169691.75773300001,"N_COORD97":2535308.42093,"ADDRESS":"行大二街３６號","OBJECTID":647361},"geometry":{"x":169691.75773300044,"y":2535308.4209300019}},{"attributes":{"ID":647389,"DIS_CODE":0,"TOWNNAME":"山上區","LI":"山上里","LIN":"13鄰","STREET":" ","SECT":" ","MAREA":"山上","LANE":" ","ALLEY":" ","HOUSE_NO":"２０１之１號","E_COORD97":184031.76844099999,"N_COORD97":2555541.1844700002,"ADDRESS":"山上２０１之１號","OBJECTID":647362},"geometry":{"x":184031.76844100188,"y":2555541.1844730005}},{"attributes":{"ID":647390,"DIS_CODE":0,"TOWNNAME":"玉井區","LI":"豐里里","LIN":"5鄰","STREET":" ","SECT":" ","MAREA":"豐里","LANE":" ","ALLEY":" ","HOUSE_NO":"４５號","E_COORD97":193164.971407,"N_COORD97":2558088.5541900001,"ADDRESS":"豐里４５號","OBJECTID":647363},"geometry":{"x":193164.97140700184,"y":2558088.5541939996}},{"attributes":{"ID":647391,"DIS_CODE":0,"TOWNNAME":"玉井區","LI":"豐里里","LIN":"5鄰","STREET":" ","SECT":" ","MAREA":"豐里","LANE":" ","ALLEY":" ","HOUSE_NO":"４４之１號","E_COORD97":193224.719384,"N_COORD97":2558155.4408200001,"ADDRESS":"豐里４４之１號","OBJECTID":647364},"geometry":{"x":193224.71938400064,"y":2558155.440824002}},{"attributes":{"ID":647392,"DIS_CODE":0,"TOWNNAME":"玉井區","LI":"豐里里","LIN":"5鄰","STREET":" ","SECT":" ","MAREA":"豐里","LANE":" ","ALLEY":" ","HOUSE_NO":"４４之２號","E_COORD97":193232.346785,"N_COORD97":2558152.47749,"ADDRESS":"豐里４４之２號","OBJECTID":647365},"geometry":{"x":193232.34678500053,"y":2558152.4774929993}},{"attributes":{"ID":647393,"DIS_CODE":0,"TOWNNAME":"仁德區","LI":"仁義里","LIN":"1鄰","STREET":"中山路","SECT":" ","MAREA":" ","LANE":"３０５巷","ALLEY":" ","HOUSE_NO":"３６９號","E_COORD97":174231.00860900001,"N_COORD97":2540572.31483,"ADDRESS":"中山路３０５巷３６９號","OBJECTID":647366},"geometry":{"x":174231.00860900059,"y":2540572.3148350008}},{"attributes":{"ID":647394,"DIS_CODE":0,"TOWNNAME":"玉井區","LI":"豐里里","LIN":"5鄰","STREET":" ","SECT":" ","MAREA":"豐里","LANE":" ","ALLEY":" ","HOUSE_NO":"５３之３號","E_COORD97":193135.09741799999,"N_COORD97":2558003.3584099999,"ADDRESS":"豐里５３之３號","OBJECTID":647367},"geometry":{"x":193135.09741799999,"y":2558003.3584059998}},{"attributes":{"ID":647395,"DIS_CODE":0,"TOWNNAME":"安南區","LI":"安順里","LIN":"12鄰","STREET":"安和路","SECT":"三段","MAREA":" ","LANE":"１９０巷","ALLEY":" ","HOUSE_NO":"７５號之５２","E_COORD97":170117.28581900001,"N_COORD97":2549653.7415800001,"ADDRESS":"安和路三段１９０巷７５號之５２","OBJECTID":647368},"geometry":{"x":170117.28581900056,"y":2549653.7415779997}},{"attributes":{"ID":647396,"DIS_CODE":0,"TOWNNAME":"新營區","LI":"舊部里","LIN":"1鄰","STREET":" ","SECT":" ","MAREA":"舊部","LANE":" ","ALLEY":" ","HOUSE_NO":"１０之１號","E_COORD97":176992.91362000001,"N_COORD97":2575391.2819099999,"ADDRESS":"舊部１０之１號","OBJECTID":647369},"geometry":{"x":176992.91362000071,"y":2575391.2819079999}},{"attributes":{"ID":647397,"DIS_CODE":0,"TOWNNAME":"安南區","LI":"安順里","LIN":"12鄰","STREET":"安和路","SECT":"三段","MAREA":" ","LANE":"１９０巷","ALLEY":" ","HOUSE_NO":"７５號之５３","E_COORD97":170137.24036699999,"N_COORD97":2549651.5024899999,"ADDRESS":"安和路三段１９０巷７５號之５３","OBJECTID":647370},"geometry":{"x":170137.24036699999,"y":2549651.5024859998}},{"attributes":{"ID":647398,"DIS_CODE":0,"TOWNNAME":"玉井區","LI":"豐里里","LIN":"5鄰","STREET":" ","SECT":" ","MAREA":"豐里","LANE":" ","ALLEY":" ","HOUSE_NO":"５５號","E_COORD97":193118.14763799999,"N_COORD97":2558028.7583900001,"ADDRESS":"豐里５５號","OBJECTID":647371},"geometry":{"x":193118.14763800055,"y":2558028.7583930045}},{"attributes":{"ID":647399,"DIS_CODE":0,"TOWNNAME":"玉井區","LI":"豐里里","LIN":"5鄰","STREET":" ","SECT":" ","MAREA":"豐里","LANE":" ","ALLEY":" ","HOUSE_NO":"５９之１號","E_COORD97":193093.99419999999,"N_COORD97":2558044.42172,"ADDRESS":"豐里５９之１號","OBJECTID":647372},"geometry":{"x":193093.99419999961,"y":2558044.4217179995}},{"attributes":{"ID":647400,"DIS_CODE":0,"TOWNNAME":"玉井區","LI":"豐里里","LIN":"5鄰","STREET":" ","SECT":" ","MAREA":"豐里","LANE":" ","ALLEY":" ","HOUSE_NO":"５９之２號","E_COORD97":193092.93483899999,"N_COORD97":2558048.6550500002,"ADDRESS":"豐里５９之２號","OBJECTID":647373},"geometry":{"x":193092.93483899999,"y":2558048.6550490018}},{"attributes":{"ID":647401,"DIS_CODE":0,"TOWNNAME":"安南區","LI":"安順里","LIN":"12鄰","STREET":"安和路","SECT":"三段","MAREA":" ","LANE":"１９０巷","ALLEY":" ","HOUSE_NO":"７５號之４８","E_COORD97":170101.81086299999,"N_COORD97":2549689.1599599998,"ADDRESS":"安和路三段１９０巷７５號之４８","OBJECTID":647374},"geometry":{"x":170101.81086300034,"y":2549689.159957001}},{"attributes":{"ID":647402,"DIS_CODE":0,"TOWNNAME":"安南區","LI":"安順里","LIN":"12鄰","STREET":"安和路","SECT":"三段","MAREA":" ","LANE":"１９０巷","ALLEY":" ","HOUSE_NO":"７５號之２４","E_COORD97":170221.945389,"N_COORD97":2549673.0792,"ADDRESS":"安和路三段１９０巷７５號之２４","OBJECTID":647375},"geometry":{"x":170221.94538900163,"y":2549673.0791989993}},{"attributes":{"ID":647403,"DIS_CODE":0,"TOWNNAME":"安南區","LI":"安順里","LIN":"12鄰","STREET":"安和路","SECT":"三段","MAREA":" ","LANE":"１９０巷","ALLEY":" ","HOUSE_NO":"７５號之２５","E_COORD97":170219.50197499999,"N_COORD97":2549655.5735599999,"ADDRESS":"安和路三段１９０巷７５號之２５","OBJECTID":647376},"geometry":{"x":170219.5019749999,"y":2549655.5735640023}},{"attributes":{"ID":647404,"DIS_CODE":0,"TOWNNAME":"玉井區","LI":"豐里里","LIN":"5鄰","STREET":" ","SECT":" ","MAREA":"豐里","LANE":" ","ALLEY":" ","HOUSE_NO":"６０之２５號","E_COORD97":193092.93483899999,"N_COORD97":2558048.6550500002,"ADDRESS":"豐里６０之２５號","OBJECTID":647377},"geometry":{"x":193092.93483899999,"y":2558048.6550490018}},{"attributes":{"ID":647405,"DIS_CODE":0,"TOWNNAME":"安南區","LI":"安順里","LIN":"12鄰","STREET":"安和路","SECT":"三段","MAREA":" ","LANE":"１９０巷","ALLEY":" ","HOUSE_NO":"７５號之４９","E_COORD97":170120.13646800001,"N_COORD97":2549685.6995399999,"ADDRESS":"安和路三段１９０巷７５號之４９","OBJECTID":647378},"geometry":{"x":170120.13646800071,"y":2549685.6995400023}},{"attributes":{"ID":647406,"DIS_CODE":0,"TOWNNAME":"安南區","LI":"安順里","LIN":"12鄰","STREET":"安和路","SECT":"三段","MAREA":" ","LANE":"１９０巷","ALLEY":" ","HOUSE_NO":"７５號之５０","E_COORD97":170139.887399,"N_COORD97":2549683.6639999999,"ADDRESS":"安和路三段１９０巷７５號之５０","OBJECTID":647379},"geometry":{"x":170139.88739900198,"y":2549683.664001001}},{"attributes":{"ID":647407,"DIS_CODE":0,"TOWNNAME":"玉井區","LI":"豐里里","LIN":"6鄰","STREET":" ","SECT":" ","MAREA":"豐里","LANE":" ","ALLEY":" ","HOUSE_NO":"６３號","E_COORD97":193053.92752999999,"N_COORD97":2558057.8625400001,"ADDRESS":"豐里６３號","OBJECTID":647380},"geometry":{"x":193053.92752999999,"y":2558057.862544002}},{"attributes":{"ID":647408,"DIS_CODE":0,"TOWNNAME":"新化區","LI":"知義里","LIN":"14鄰","STREET":"中正路","SECT":" ","MAREA":" ","LANE":"１２７巷","ALLEY":" ","HOUSE_NO":"２５號之１２","E_COORD97":178996.090031,"N_COORD97":2547360.6852000002,"ADDRESS":"中正路１２７巷２５號之１２","OBJECTID":647381},"geometry":{"x":178996.09003099985,"y":2547360.6851989999}},{"attributes":{"ID":647409,"DIS_CODE":0,"TOWNNAME":"玉井區","LI":"豐里里","LIN":"6鄰","STREET":" ","SECT":" ","MAREA":"豐里","LANE":" ","ALLEY":" ","HOUSE_NO":"６５號","E_COORD97":193066.63986600001,"N_COORD97":2558007.5917400001,"ADDRESS":"豐里６５號","OBJECTID":647382},"geometry":{"x":193066.63986600097,"y":2558007.5917370021}},{"attributes":{"ID":647410,"DIS_CODE":0,"TOWNNAME":"新營區","LI":"舊部里","LIN":"2鄰","STREET":" ","SECT":" ","MAREA":"舊部","LANE":" ","ALLEY":" ","HOUSE_NO":"１６號","E_COORD97":176968.92114600001,"N_COORD97":2575371.18169,"ADDRESS":"舊部１６號","OBJECTID":647383},"geometry":{"x":176968.92114600074,"y":2575371.181685999}},{"attributes":{"ID":647411,"DIS_CODE":0,"TOWNNAME":"山上區","LI":"明和里","LIN":"23鄰","STREET":" ","SECT":" ","MAREA":"北勢洲","LANE":" ","ALLEY":" ","HOUSE_NO":"９０之５號","E_COORD97":182151.219381,"N_COORD97":2556058.2025600001,"ADDRESS":"北勢洲９０之５號","OBJECTID":647384},"geometry":{"x":182151.21938100178,"y":2556058.2025590017}},{"attributes":{"ID":647412,"DIS_CODE":0,"TOWNNAME":"關廟區","LI":"埤頭里","LIN":"10鄰","STREET":"關新路","SECT":"二段","MAREA":" ","LANE":"５１巷","ALLEY":"１８弄","HOUSE_NO":"７號","E_COORD97":179008.23030699999,"N_COORD97":2544214.05449,"ADDRESS":"關新路二段５１巷１８弄７號","OBJECTID":647385},"geometry":{"x":179008.23030699976,"y":2544214.054487003}},{"attributes":{"ID":647413,"DIS_CODE":0,"TOWNNAME":"仁德區","LI":"上崙里","LIN":"5鄰","STREET":"德善路","SECT":" ","MAREA":" ","LANE":" ","ALLEY":" ","HOUSE_NO":"３８８號","E_COORD97":174030.886065,"N_COORD97":2538177.70089,"ADDRESS":"德善路３８８號","OBJECTID":647386},"geometry":{"x":174030.88606500067,"y":2538177.7008880023}},{"attributes":{"ID":647414,"DIS_CODE":0,"TOWNNAME":"新營區","LI":"舊部里","LIN":"2鄰","STREET":" ","SECT":" ","MAREA":"舊部","LANE":" ","ALLEY":" ","HOUSE_NO":"１８號","E_COORD97":176957.055742,"N_COORD97":2575344.30003,"ADDRESS":"舊部１８號","OBJECTID":647387},"geometry":{"x":176957.05574200209,"y":2575344.3000340015}},{"attributes":{"ID":647415,"DIS_CODE":0,"TOWNNAME":"仁德區","LI":"上崙里","LIN":"5鄰","STREET":"德善路","SECT":" ","MAREA":" ","LANE":" ","ALLEY":" ","HOUSE_NO":"３９０號","E_COORD97":174029.19108700001,"N_COORD97":2538170.0808899999,"ADDRESS":"德善路３９０號","OBJECTID":647388},"geometry":{"x":174029.19108700007,"y":2538170.0808919985}},{"attributes":{"ID":647416,"DIS_CODE":0,"TOWNNAME":"安南區","LI":"安順里","LIN":"12鄰","STREET":"安和路","SECT":"三段","MAREA":" ","LANE":"１９０巷","ALLEY":" ","HOUSE_NO":"７５號之２２","E_COORD97":170248.20102400001,"N_COORD97":2549703.9301499999,"ADDRESS":"安和路三段１９０巷７５號之２２","OBJECTID":647389},"geometry":{"x":170248.2010239996,"y":2549703.930151999}},{"attributes":{"ID":647417,"DIS_CODE":0,"TOWNNAME":"安南區","LI":"安順里","LIN":"12鄰","STREET":"安和路","SECT":"三段","MAREA":" ","LANE":"１９０巷","ALLEY":" ","HOUSE_NO":"７５號之２３","E_COORD97":170246.71889300001,"N_COORD97":2549691.86516,"ADDRESS":"安和路三段１９０巷７５號之２３","OBJECTID":647390},"geometry":{"x":170246.71889300179,"y":2549691.865158001}},{"attributes":{"ID":647418,"DIS_CODE":0,"TOWNNAME":"關廟區","LI":"埤頭里","LIN":"10鄰","STREET":"關新路","SECT":"二段","MAREA":" ","LANE":"５１巷","ALLEY":" ","HOUSE_NO":"２６號","E_COORD97":179002.03318500001,"N_COORD97":2544180.8757500001,"ADDRESS":"關新路二段５１巷２６號","OBJECTID":647391},"geometry":{"x":179002.0331849996,"y":2544180.8757550009}},{"attributes":{"ID":647419,"DIS_CODE":0,"TOWNNAME":"安南區","LI":"淵西里","LIN":"9鄰","STREET":"安中路","SECT":"四段","MAREA":" ","LANE":" ","ALLEY":" ","HOUSE_NO":"２８８之１２號","E_COORD97":164568.10033300001,"N_COORD97":2550219.2654900001,"ADDRESS":"安中路四段２８８之１２號","OBJECTID":647392},"geometry":{"x":164568.1003329996,"y":2550219.2654920015}},{"attributes":{"ID":647420,"DIS_CODE":0,"TOWNNAME":"玉井區","LI":"豐里里","LIN":"7鄰","STREET":" ","SECT":" ","MAREA":"豐里","LANE":" ","ALLEY":" ","HOUSE_NO":"７２之１號","E_COORD97":192971.72109400001,"N_COORD97":2558037.8600499998,"ADDRESS":"豐里７２之１號","OBJECTID":647393},"geometry":{"x":192971.72109399922,"y":2558037.8600539993}},{"attributes":{"ID":647421,"DIS_CODE":0,"TOWNNAME":"山上區","LI":"山上里","LIN":"13鄰","STREET":" ","SECT":" ","MAREA":"山上","LANE":" ","ALLEY":" ","HOUSE_NO":"２０１號之８","E_COORD97":184041.090608,"N_COORD97":2555510.1753199999,"ADDRESS":"山上２０１號之８","OBJECTID":647394},"geometry":{"x":184041.09060800169,"y":2555510.175323002}},{"attributes":{"ID":647422,"DIS_CODE":0,"TOWNNAME":"東山區","LI":"三榮里","LIN":"13鄰","STREET":" ","SECT":" ","MAREA":"下寮子","LANE":" ","ALLEY":" ","HOUSE_NO":"１３號","E_COORD97":187427.792972,"N_COORD97":2581184.77306,"ADDRESS":"下寮子１３號","OBJECTID":647395},"geometry":{"x":187427.79297200032,"y":2581184.7730590031}},{"attributes":{"ID":647423,"DIS_CODE":0,"TOWNNAME":"佳里區","LI":"安西里","LIN":"18鄰","STREET":"光復路","SECT":" ","MAREA":" ","LANE":" ","ALLEY":" ","HOUSE_NO":"３７５號","E_COORD97":165495.34467399999,"N_COORD97":2562749.4273700002,"ADDRESS":"光復路３７５號","OBJECTID":647396},"geometry":{"x":165495.34467399865,"y":2562749.427370999}},{"attributes":{"ID":647424,"DIS_CODE":0,"TOWNNAME":"佳里區","LI":"安西里","LIN":"18鄰","STREET":"光復路","SECT":" ","MAREA":" ","LANE":" ","ALLEY":" ","HOUSE_NO":"３７３號","E_COORD97":165499.370322,"N_COORD97":2562745.8290400002,"ADDRESS":"光復路３７３號","OBJECTID":647397},"geometry":{"x":165499.37032200117,"y":2562745.8290400002}},{"attributes":{"ID":647425,"DIS_CODE":0,"TOWNNAME":"新營區","LI":"舊部里","LIN":"2鄰","STREET":" ","SECT":" ","MAREA":"舊部","LANE":" ","ALLEY":" ","HOUSE_NO":"１５號","E_COORD97":176982.946765,"N_COORD97":2575369.0650200001,"ADDRESS":"舊部１５號","OBJECTID":647398},"geometry":{"x":176982.946765,"y":2575369.0650200024}},{"attributes":{"ID":647426,"DIS_CODE":0,"TOWNNAME":"佳里區","LI":"安西里","LIN":"18鄰","STREET":"光復路","SECT":" ","MAREA":" ","LANE":" ","ALLEY":" ","HOUSE_NO":"３７１號","E_COORD97":165500.21782699999,"N_COORD97":2562740.1140399999,"ADDRESS":"光復路３７１號","OBJECTID":647399},"geometry":{"x":165500.21782700159,"y":2562740.1140430011}},{"attributes":{"ID":647427,"DIS_CODE":0,"TOWNNAME":"佳里區","LI":"安西里","LIN":"18鄰","STREET":"光復路","SECT":" ","MAREA":" ","LANE":" ","ALLEY":" ","HOUSE_NO":"３６９號","E_COORD97":165501.70095999999,"N_COORD97":2562733.5523799998,"ADDRESS":"光復路３６９號","OBJECTID":647400},"geometry":{"x":165501.70096000191,"y":2562733.5523800012}}]}