{"displayFieldName":"TOWNNAME","fieldAliases":{"ID":"ID","DIS_CODE":"DIS_CODE","TOWNNAME":"TOWNNAME","LI":"LI","LIN":"LIN","STREET":"STREET","SECT":"SECT","MAREA":"MAREA","LANE":"LANE","ALLEY":"ALLEY","HOUSE_NO":"HOUSE_NO","E_COORD97":"E_COORD97","N_COORD97":"N_COORD97","ADDRESS":"ADDRESS","OBJECTID":"OBJECTID"},"geometryType":"esriGeometryPoint","spatialReference":{"wkid":102443,"latestWkid":3826},"fields":[{"name":"ID","type":"esriFieldTypeDouble","alias":"ID"},{"name":"DIS_CODE","type":"esriFieldTypeInteger","alias":"DIS_CODE"},{"name":"TOWNNAME","type":"esriFieldTypeString","alias":"TOWNNAME","length":8},{"name":"LI","type":"esriFieldTypeString","alias":"LI","length":8},{"name":"LIN","type":"esriFieldTypeString","alias":"LIN","length":12},{"name":"STREET","type":"esriFieldTypeString","alias":"STREET","length":20},{"name":"SECT","type":"esriFieldTypeString","alias":"SECT","length":8},{"name":"MAREA","type":"esriFieldTypeString","alias":"MAREA","length":12},{"name":"LANE","type":"esriFieldTypeString","alias":"LANE","length":10},{"name":"ALLEY","type":"esriFieldTypeString","alias":"ALLEY","length":10},{"name":"HOUSE_NO","type":"esriFieldTypeString","alias":"HOUSE_NO","length":20},{"name":"E_COORD97","type":"esriFieldTypeDouble","alias":"E_COORD97"},{"name":"N_COORD97","type":"esriFieldTypeDouble","alias":"N_COORD97"},{"name":"ADDRESS","type":"esriFieldTypeString","alias":"ADDRESS","length":50},{"name":"OBJECTID","type":"esriFieldTypeOID","alias":"OBJECTID"}],"features":[{"attributes":{"ID":390225,"DIS_CODE":0,"TOWNNAME":"新市區","LI":"新市里","LIN":"29鄰","STREET":"復興路","SECT":" ","MAREA":" ","LANE":"６２巷","ALLEY":" ","HOUSE_NO":"２０號","E_COORD97":177893.34,"N_COORD97":2553473.5299999998,"ADDRESS":"復興路６２巷２０號","OBJECTID":390201},"geometry":{"x":177893.33999999985,"y":2553473.5300000012}},{"attributes":{"ID":390226,"DIS_CODE":0,"TOWNNAME":"新市區","LI":"新市里","LIN":"29鄰","STREET":"復興路","SECT":" ","MAREA":" ","LANE":"６２巷","ALLEY":" ","HOUSE_NO":"３４號","E_COORD97":177924.48000000001,"N_COORD97":2553474.5299999998,"ADDRESS":"復興路６２巷３４號","OBJECTID":390202},"geometry":{"x":177924.48000000138,"y":2553474.5299999993}},{"attributes":{"ID":390227,"DIS_CODE":0,"TOWNNAME":"新市區","LI":"新市里","LIN":"29鄰","STREET":"復興路","SECT":" ","MAREA":" ","LANE":"６２巷","ALLEY":" ","HOUSE_NO":"４０號","E_COORD97":177937.73000000001,"N_COORD97":2553475.0299999998,"ADDRESS":"復興路６２巷４０號","OBJECTID":390203},"geometry":{"x":177937.73000000138,"y":2553475.0299999993}},{"attributes":{"ID":390228,"DIS_CODE":0,"TOWNNAME":"安南區","LI":"海佃里","LIN":"29鄰","STREET":"國安街","SECT":" ","MAREA":" ","LANE":"１５６巷","ALLEY":" ","HOUSE_NO":"２０４號","E_COORD97":166650.07999999999,"N_COORD97":2547522.1699999999,"ADDRESS":"國安街１５６巷２０４號","OBJECTID":390204},"geometry":{"x":166650.08000000101,"y":2547522.1700000018}},{"attributes":{"ID":390229,"DIS_CODE":0,"TOWNNAME":"安南區","LI":"海佃里","LIN":"29鄰","STREET":"國安街","SECT":" ","MAREA":" ","LANE":"１５６巷","ALLEY":" ","HOUSE_NO":"２０６號","E_COORD97":166650.75,"N_COORD97":2547527.4900000002,"ADDRESS":"國安街１５６巷２０６號","OBJECTID":390205},"geometry":{"x":166650.75000000093,"y":2547527.4900000021}},{"attributes":{"ID":390230,"DIS_CODE":0,"TOWNNAME":"安南區","LI":"海佃里","LIN":"29鄰","STREET":"國安街","SECT":" ","MAREA":" ","LANE":"１５６巷","ALLEY":" ","HOUSE_NO":"２０８號","E_COORD97":166649.42000000001,"N_COORD97":2547532.7999999998,"ADDRESS":"國安街１５６巷２０８號","OBJECTID":390206},"geometry":{"x":166649.42000000086,"y":2547532.8000000026}},{"attributes":{"ID":390231,"DIS_CODE":0,"TOWNNAME":"安南區","LI":"海佃里","LIN":"29鄰","STREET":"國安街","SECT":" ","MAREA":" ","LANE":"１５６巷","ALLEY":" ","HOUSE_NO":"２１０號","E_COORD97":166648.75,"N_COORD97":2547536.79,"ADDRESS":"國安街１５６巷２１０號","OBJECTID":390207},"geometry":{"x":166648.75000000186,"y":2547536.7899999991}},{"attributes":{"ID":390232,"DIS_CODE":0,"TOWNNAME":"安南區","LI":"海佃里","LIN":"29鄰","STREET":"國安街","SECT":" ","MAREA":" ","LANE":"１５６巷","ALLEY":" ","HOUSE_NO":"２１２號","E_COORD97":166648.09,"N_COORD97":2547542.1000000001,"ADDRESS":"國安街１５６巷２１２號","OBJECTID":390208},"geometry":{"x":166648.09000000078,"y":2547542.0999999996}},{"attributes":{"ID":390233,"DIS_CODE":0,"TOWNNAME":"安南區","LI":"海佃里","LIN":"29鄰","STREET":"國安街","SECT":" ","MAREA":" ","LANE":"１５６巷","ALLEY":" ","HOUSE_NO":"２１４號","E_COORD97":166649.42000000001,"N_COORD97":2547547.4199999999,"ADDRESS":"國安街１５６巷２１４號","OBJECTID":390209},"geometry":{"x":166649.42000000086,"y":2547547.4200000037}},{"attributes":{"ID":390234,"DIS_CODE":0,"TOWNNAME":"安南區","LI":"海佃里","LIN":"29鄰","STREET":"國安街","SECT":" ","MAREA":" ","LANE":"１５６巷","ALLEY":" ","HOUSE_NO":"２１６號","E_COORD97":166647.42000000001,"N_COORD97":2547552,"ADDRESS":"國安街１５６巷２１６號","OBJECTID":390210},"geometry":{"x":166647.42000000179,"y":2547552}},{"attributes":{"ID":390235,"DIS_CODE":0,"TOWNNAME":"安南區","LI":"海佃里","LIN":"29鄰","STREET":"國安街","SECT":" ","MAREA":" ","LANE":"１５６巷","ALLEY":" ","HOUSE_NO":"２１８號","E_COORD97":166647.42000000001,"N_COORD97":2547557.3199999998,"ADDRESS":"國安街１５６巷２１８號","OBJECTID":390211},"geometry":{"x":166647.42000000179,"y":2547557.3200000003}},{"attributes":{"ID":390236,"DIS_CODE":0,"TOWNNAME":"東區","LI":"虎尾里","LIN":"29鄰","STREET":"東成街","SECT":" ","MAREA":" ","LANE":"２００巷","ALLEY":" ","HOUSE_NO":"９０號","E_COORD97":171872.23999999999,"N_COORD97":2542078.3500000001,"ADDRESS":"東成街２００巷９０號","OBJECTID":390212},"geometry":{"x":171872.24000000115,"y":2542078.3499999996}},{"attributes":{"ID":390237,"DIS_CODE":0,"TOWNNAME":"東區","LI":"虎尾里","LIN":"29鄰","STREET":"東成街","SECT":" ","MAREA":" ","LANE":"２００巷","ALLEY":" ","HOUSE_NO":"９２號","E_COORD97":171871.98000000001,"N_COORD97":2542074.5499999998,"ADDRESS":"東成街２００巷９２號","OBJECTID":390213},"geometry":{"x":171871.98000000045,"y":2542074.5500000007}},{"attributes":{"ID":390238,"DIS_CODE":0,"TOWNNAME":"東區","LI":"成大里","LIN":"29鄰","STREET":"勝利路","SECT":" ","MAREA":" ","LANE":"１７７巷","ALLEY":" ","HOUSE_NO":"１０號","E_COORD97":169756.03,"N_COORD97":2544059.8500000001,"ADDRESS":"勝利路１７７巷１０號","OBJECTID":390214},"geometry":{"x":169756.03000000212,"y":2544059.8500000015}},{"attributes":{"ID":390239,"DIS_CODE":0,"TOWNNAME":"東區","LI":"成大里","LIN":"29鄰","STREET":"勝利路","SECT":" ","MAREA":" ","LANE":"１７７巷","ALLEY":" ","HOUSE_NO":"１１號","E_COORD97":169750.37,"N_COORD97":2544061.3799999999,"ADDRESS":"勝利路１７７巷１１號","OBJECTID":390215},"geometry":{"x":169750.37000000104,"y":2544061.3800000027}},{"attributes":{"ID":390240,"DIS_CODE":0,"TOWNNAME":"東區","LI":"成大里","LIN":"29鄰","STREET":"勝利路","SECT":" ","MAREA":" ","LANE":"１７７巷","ALLEY":" ","HOUSE_NO":"１１號之１","E_COORD97":169746.85000000001,"N_COORD97":2544062.1400000001,"ADDRESS":"勝利路１７７巷１１號之１","OBJECTID":390216},"geometry":{"x":169746.85000000056,"y":2544062.1400000025}},{"attributes":{"ID":390241,"DIS_CODE":0,"TOWNNAME":"東區","LI":"成大里","LIN":"29鄰","STREET":"勝利路","SECT":" ","MAREA":" ","LANE":"１７７巷","ALLEY":" ","HOUSE_NO":"１２號之１","E_COORD97":169740.42999999999,"N_COORD97":2544061.6800000002,"ADDRESS":"勝利路１７７巷１２號之１","OBJECTID":390217},"geometry":{"x":169740.4299999997,"y":2544061.6800000016}},{"attributes":{"ID":390242,"DIS_CODE":0,"TOWNNAME":"東區","LI":"成大里","LIN":"29鄰","STREET":"勝利路","SECT":" ","MAREA":" ","LANE":"１７７巷","ALLEY":" ","HOUSE_NO":"１２號","E_COORD97":169740.89000000001,"N_COORD97":2544070.8399999999,"ADDRESS":"勝利路１７７巷１２號","OBJECTID":390218},"geometry":{"x":169740.88999999966,"y":2544070.8400000017}},{"attributes":{"ID":390243,"DIS_CODE":0,"TOWNNAME":"東區","LI":"成大里","LIN":"29鄰","STREET":"勝利路","SECT":" ","MAREA":" ","LANE":"１７７巷","ALLEY":" ","HOUSE_NO":"１３號","E_COORD97":169727.79999999999,"N_COORD97":2544064.5099999998,"ADDRESS":"勝利路１７７巷１３號","OBJECTID":390219},"geometry":{"x":169727.79999999981,"y":2544064.5100000035}},{"attributes":{"ID":390244,"DIS_CODE":0,"TOWNNAME":"東區","LI":"成大里","LIN":"29鄰","STREET":"勝利路","SECT":" ","MAREA":" ","LANE":"１７７巷","ALLEY":" ","HOUSE_NO":"１５號","E_COORD97":169728.57999999999,"N_COORD97":2544074.29,"ADDRESS":"勝利路１７７巷１５號","OBJECTID":390220},"geometry":{"x":169728.58000000101,"y":2544074.2899999991}},{"attributes":{"ID":390245,"DIS_CODE":0,"TOWNNAME":"東區","LI":"成大里","LIN":"29鄰","STREET":"勝利路","SECT":" ","MAREA":" ","LANE":"１７７巷","ALLEY":" ","HOUSE_NO":"３號","E_COORD97":169811.67000000001,"N_COORD97":2544055.8799999999,"ADDRESS":"勝利路１７７巷３號","OBJECTID":390221},"geometry":{"x":169811.66999999993,"y":2544055.8800000008}},{"attributes":{"ID":390246,"DIS_CODE":0,"TOWNNAME":"東區","LI":"成大里","LIN":"29鄰","STREET":"勝利路","SECT":" ","MAREA":" ","LANE":"１７７巷","ALLEY":" ","HOUSE_NO":"４號","E_COORD97":169801.73999999999,"N_COORD97":2544054.3599999999,"ADDRESS":"勝利路１７７巷４號","OBJECTID":390222},"geometry":{"x":169801.74000000022,"y":2544054.3599999994}},{"attributes":{"ID":390247,"DIS_CODE":0,"TOWNNAME":"東區","LI":"成大里","LIN":"29鄰","STREET":"勝利路","SECT":" ","MAREA":" ","LANE":"１７７巷","ALLEY":" ","HOUSE_NO":"５號","E_COORD97":169794.70000000001,"N_COORD97":2544053.75,"ADDRESS":"勝利路１７７巷５號","OBJECTID":390223},"geometry":{"x":169794.70000000019,"y":2544053.7500000019}},{"attributes":{"ID":390248,"DIS_CODE":0,"TOWNNAME":"東區","LI":"成大里","LIN":"29鄰","STREET":"勝利路","SECT":" ","MAREA":" ","LANE":"１７７巷","ALLEY":" ","HOUSE_NO":"６號","E_COORD97":169788.13,"N_COORD97":2544055.1200000001,"ADDRESS":"勝利路１７７巷６號","OBJECTID":390224},"geometry":{"x":169788.12999999989,"y":2544055.1200000048}},{"attributes":{"ID":390249,"DIS_CODE":0,"TOWNNAME":"東區","LI":"成大里","LIN":"29鄰","STREET":"勝利路","SECT":" ","MAREA":" ","LANE":"１７７巷","ALLEY":" ","HOUSE_NO":"７號","E_COORD97":169784.31,"N_COORD97":2544056.4900000002,"ADDRESS":"勝利路１７７巷７號","OBJECTID":390225},"geometry":{"x":169784.31000000052,"y":2544056.4900000021}},{"attributes":{"ID":390250,"DIS_CODE":0,"TOWNNAME":"東區","LI":"成大里","LIN":"29鄰","STREET":"勝利路","SECT":" ","MAREA":" ","LANE":"１７７巷","ALLEY":" ","HOUSE_NO":"８號","E_COORD97":169779.87,"N_COORD97":2544058.48,"ADDRESS":"勝利路１７７巷８號","OBJECTID":390226},"geometry":{"x":169779.87000000011,"y":2544058.4800000004}},{"attributes":{"ID":390251,"DIS_CODE":0,"TOWNNAME":"東區","LI":"成大里","LIN":"29鄰","STREET":"勝利路","SECT":" ","MAREA":" ","LANE":"１７７巷","ALLEY":" ","HOUSE_NO":"８號之１","E_COORD97":169772.07999999999,"N_COORD97":2544057.71,"ADDRESS":"勝利路１７７巷８號之１","OBJECTID":390227},"geometry":{"x":169772.08000000007,"y":2544057.7100000046}},{"attributes":{"ID":390252,"DIS_CODE":0,"TOWNNAME":"東區","LI":"成大里","LIN":"29鄰","STREET":"勝利路","SECT":" ","MAREA":" ","LANE":"１７７巷","ALLEY":" ","HOUSE_NO":"９號","E_COORD97":169766.88,"N_COORD97":2544059.5499999998,"ADDRESS":"勝利路１７７巷９號","OBJECTID":390228},"geometry":{"x":169766.88000000175,"y":2544059.5500000026}},{"attributes":{"ID":390253,"DIS_CODE":0,"TOWNNAME":"佳里區","LI":"建南里","LIN":"29鄰","STREET":"四維一街","SECT":" ","MAREA":" ","LANE":"１６５巷","ALLEY":" ","HOUSE_NO":"１號","E_COORD97":165853.20999999999,"N_COORD97":2561018.54,"ADDRESS":"四維一街１６５巷１號","OBJECTID":390229},"geometry":{"x":165853.20999999996,"y":2561018.5399999991}},{"attributes":{"ID":390254,"DIS_CODE":0,"TOWNNAME":"佳里區","LI":"建南里","LIN":"29鄰","STREET":"四維一街","SECT":" ","MAREA":" ","LANE":"１６５巷","ALLEY":" ","HOUSE_NO":"３號","E_COORD97":165858.69,"N_COORD97":2561019.29,"ADDRESS":"四維一街１６５巷３號","OBJECTID":390230},"geometry":{"x":165858.69000000041,"y":2561019.2899999991}},{"attributes":{"ID":390255,"DIS_CODE":0,"TOWNNAME":"佳里區","LI":"建南里","LIN":"29鄰","STREET":"四維一街","SECT":" ","MAREA":" ","LANE":"１６５巷","ALLEY":" ","HOUSE_NO":"５號","E_COORD97":165864.95000000001,"N_COORD97":2561020.8199999998,"ADDRESS":"四維一街１６５巷５號","OBJECTID":390231},"geometry":{"x":165864.95000000112,"y":2561020.8200000003}},{"attributes":{"ID":390256,"DIS_CODE":0,"TOWNNAME":"永康區","LI":"北灣里","LIN":"29鄰","STREET":"文賢街","SECT":" ","MAREA":" ","LANE":"７８巷","ALLEY":" ","HOUSE_NO":"３號","E_COORD97":175373.67999999999,"N_COORD97":2545315.48,"ADDRESS":"文賢街７８巷３號","OBJECTID":390232},"geometry":{"x":175373.6799999997,"y":2545315.4800000004}},{"attributes":{"ID":390257,"DIS_CODE":0,"TOWNNAME":"永康區","LI":"復國里","LIN":"29鄰","STREET":"復華二街","SECT":" ","MAREA":" ","LANE":"１３巷","ALLEY":" ","HOUSE_NO":"５號","E_COORD97":172629.31,"N_COORD97":2545321.77,"ADDRESS":"復華二街１３巷５號","OBJECTID":390233},"geometry":{"x":172629.30999999959,"y":2545321.7700000014}},{"attributes":{"ID":390258,"DIS_CODE":0,"TOWNNAME":"永康區","LI":"尚頂里","LIN":"29鄰","STREET":"南台街","SECT":" ","MAREA":" ","LANE":"７５巷","ALLEY":" ","HOUSE_NO":"１２號","E_COORD97":170237.98000000001,"N_COORD97":2546927.25,"ADDRESS":"南台街７５巷１２號","OBJECTID":390234},"geometry":{"x":170237.98000000231,"y":2546927.25}},{"attributes":{"ID":390259,"DIS_CODE":0,"TOWNNAME":"永康區","LI":"南灣里","LIN":"29鄰","STREET":"立興街","SECT":" ","MAREA":" ","LANE":"６４巷","ALLEY":" ","HOUSE_NO":"１３號","E_COORD97":174490.82000000001,"N_COORD97":2544881.73,"ADDRESS":"立興街６４巷１３號","OBJECTID":390235},"geometry":{"x":174490.82000000123,"y":2544881.7300000023}},{"attributes":{"ID":390260,"DIS_CODE":0,"TOWNNAME":"永康區","LI":"南灣里","LIN":"29鄰","STREET":"立興街","SECT":" ","MAREA":" ","LANE":"６４巷","ALLEY":" ","HOUSE_NO":"１２號","E_COORD97":174507.41,"N_COORD97":2544892.6499999999,"ADDRESS":"立興街６４巷１２號","OBJECTID":390236},"geometry":{"x":174507.41000000108,"y":2544892.6500000022}},{"attributes":{"ID":390261,"DIS_CODE":0,"TOWNNAME":"安南區","LI":"海佃里","LIN":"29鄰","STREET":"郡安路","SECT":"六段","MAREA":" ","LANE":"５５巷","ALLEY":" ","HOUSE_NO":"１０號","E_COORD97":166711.62,"N_COORD97":2547560.3100000001,"ADDRESS":"郡安路六段５５巷１０號","OBJECTID":390237},"geometry":{"x":166711.62000000011,"y":2547560.3100000024}},{"attributes":{"ID":390262,"DIS_CODE":0,"TOWNNAME":"安南區","LI":"海佃里","LIN":"29鄰","STREET":"郡安路","SECT":"六段","MAREA":" ","LANE":"５５巷","ALLEY":" ","HOUSE_NO":"１２號","E_COORD97":166706.73000000001,"N_COORD97":2547561.3900000001,"ADDRESS":"郡安路六段５５巷１２號","OBJECTID":390238},"geometry":{"x":166706.73000000045,"y":2547561.3900000006}},{"attributes":{"ID":390263,"DIS_CODE":0,"TOWNNAME":"安南區","LI":"海佃里","LIN":"29鄰","STREET":"郡安路","SECT":"六段","MAREA":" ","LANE":"５５巷","ALLEY":" ","HOUSE_NO":"１６號","E_COORD97":166700.76000000001,"N_COORD97":2547560.8500000001,"ADDRESS":"郡安路六段５５巷１６號","OBJECTID":390239},"geometry":{"x":166700.75999999885,"y":2547560.8499999978}},{"attributes":{"ID":390264,"DIS_CODE":0,"TOWNNAME":"安南區","LI":"海佃里","LIN":"29鄰","STREET":"郡安路","SECT":"六段","MAREA":" ","LANE":"５５巷","ALLEY":" ","HOUSE_NO":"１８號","E_COORD97":166696.95999999999,"N_COORD97":2547559.77,"ADDRESS":"郡安路六段５５巷１８號","OBJECTID":390240},"geometry":{"x":166696.96000000089,"y":2547559.7700000014}},{"attributes":{"ID":390265,"DIS_CODE":0,"TOWNNAME":"安南區","LI":"海佃里","LIN":"29鄰","STREET":"郡安路","SECT":"六段","MAREA":" ","LANE":"５５巷","ALLEY":" ","HOUSE_NO":"２０號","E_COORD97":166692.07000000001,"N_COORD97":2547558.6800000002,"ADDRESS":"郡安路六段５５巷２０號","OBJECTID":390241},"geometry":{"x":166692.0700000003,"y":2547558.6799999978}},{"attributes":{"ID":390266,"DIS_CODE":0,"TOWNNAME":"安南區","LI":"海佃里","LIN":"29鄰","STREET":"郡安路","SECT":"六段","MAREA":" ","LANE":"５５巷","ALLEY":" ","HOUSE_NO":"２２號","E_COORD97":166687.73000000001,"N_COORD97":2547557.0499999998,"ADDRESS":"郡安路六段５５巷２２號","OBJECTID":390242},"geometry":{"x":166687.73000000045,"y":2547557.0500000007}},{"attributes":{"ID":390267,"DIS_CODE":0,"TOWNNAME":"安南區","LI":"海佃里","LIN":"29鄰","STREET":"郡安路","SECT":"六段","MAREA":" ","LANE":"５５巷","ALLEY":" ","HOUSE_NO":"２６號","E_COORD97":166681.76000000001,"N_COORD97":2547557.6000000001,"ADDRESS":"郡安路六段５５巷２６號","OBJECTID":390243},"geometry":{"x":166681.75999999978,"y":2547557.6000000015}},{"attributes":{"ID":390268,"DIS_CODE":0,"TOWNNAME":"安南區","LI":"海佃里","LIN":"29鄰","STREET":"郡安路","SECT":"六段","MAREA":" ","LANE":"５５巷","ALLEY":" ","HOUSE_NO":"２８號","E_COORD97":166677.41,"N_COORD97":2547555.9700000002,"ADDRESS":"郡安路六段５５巷２８號","OBJECTID":390244},"geometry":{"x":166677.41000000015,"y":2547555.9700000025}},{"attributes":{"ID":390269,"DIS_CODE":0,"TOWNNAME":"安南區","LI":"海佃里","LIN":"29鄰","STREET":"郡安路","SECT":"六段","MAREA":" ","LANE":"５５巷","ALLEY":" ","HOUSE_NO":"３０號","E_COORD97":166672.53,"N_COORD97":2547554.8900000001,"ADDRESS":"郡安路六段５５巷３０號","OBJECTID":390245},"geometry":{"x":166672.53000000212,"y":2547554.8900000043}},{"attributes":{"ID":390270,"DIS_CODE":0,"TOWNNAME":"安南區","LI":"海佃里","LIN":"29鄰","STREET":"郡安路","SECT":"六段","MAREA":" ","LANE":"５５巷","ALLEY":" ","HOUSE_NO":"３２號","E_COORD97":166668.17999999999,"N_COORD97":2547554.3399999999,"ADDRESS":"郡安路六段５５巷３２號","OBJECTID":390246},"geometry":{"x":166668.18000000063,"y":2547554.339999998}},{"attributes":{"ID":390271,"DIS_CODE":0,"TOWNNAME":"安南區","LI":"海佃里","LIN":"29鄰","STREET":"郡安路","SECT":"六段","MAREA":" ","LANE":"５５巷","ALLEY":" ","HOUSE_NO":"２號","E_COORD97":166716.59,"N_COORD97":2547575.25,"ADDRESS":"郡安路六段５５巷２號","OBJECTID":390247},"geometry":{"x":166716.58999999985,"y":2547575.25}},{"attributes":{"ID":390272,"DIS_CODE":0,"TOWNNAME":"安南區","LI":"海佃里","LIN":"29鄰","STREET":"郡安路","SECT":"六段","MAREA":" ","LANE":"５５巷","ALLEY":" ","HOUSE_NO":"３６號","E_COORD97":166662.76000000001,"N_COORD97":2547553.7999999998,"ADDRESS":"郡安路六段５５巷３６號","OBJECTID":390248},"geometry":{"x":166662.75999999978,"y":2547553.8000000026}},{"attributes":{"ID":390273,"DIS_CODE":0,"TOWNNAME":"安南區","LI":"海佃里","LIN":"29鄰","STREET":"郡安路","SECT":"六段","MAREA":" ","LANE":"５５巷","ALLEY":" ","HOUSE_NO":"３８號","E_COORD97":166657.87,"N_COORD97":2547553.2599999998,"ADDRESS":"郡安路六段５５巷３８號","OBJECTID":390249},"geometry":{"x":166657.87000000011,"y":2547553.2600000016}},{"attributes":{"ID":390274,"DIS_CODE":0,"TOWNNAME":"安南區","LI":"海佃里","LIN":"29鄰","STREET":"郡安路","SECT":"六段","MAREA":" ","LANE":"５５巷","ALLEY":" ","HOUSE_NO":"４０號","E_COORD97":166662.76000000001,"N_COORD97":2547532.1099999999,"ADDRESS":"郡安路六段５５巷４０號","OBJECTID":390250},"geometry":{"x":166662.75999999978,"y":2547532.1100000031}},{"attributes":{"ID":390275,"DIS_CODE":0,"TOWNNAME":"新營區","LI":"忠政里","LIN":"29鄰","STREET":"府西路","SECT":" ","MAREA":" ","LANE":"８７巷","ALLEY":" ","HOUSE_NO":"５號","E_COORD97":179771.42999999999,"N_COORD97":2579198.3900000001,"ADDRESS":"府西路８７巷５號","OBJECTID":390251},"geometry":{"x":179771.43000000063,"y":2579198.3900000025}},{"attributes":{"ID":390276,"DIS_CODE":0,"TOWNNAME":"安南區","LI":"海佃里","LIN":"29鄰","STREET":"郡安路","SECT":"六段","MAREA":" ","LANE":"５５巷","ALLEY":" ","HOUSE_NO":"４２號","E_COORD97":166667.10000000001,"N_COORD97":2547533.1899999999,"ADDRESS":"郡安路六段５５巷４２號","OBJECTID":390252},"geometry":{"x":166667.09999999963,"y":2547533.1899999995}},{"attributes":{"ID":390277,"DIS_CODE":0,"TOWNNAME":"安南區","LI":"海佃里","LIN":"29鄰","STREET":"郡安路","SECT":"六段","MAREA":" ","LANE":"５５巷","ALLEY":" ","HOUSE_NO":"４６號","E_COORD97":166671.44,"N_COORD97":2547534.2799999998,"ADDRESS":"郡安路六段５５巷４６號","OBJECTID":390253},"geometry":{"x":166671.43999999948,"y":2547534.2800000031}},{"attributes":{"ID":390278,"DIS_CODE":0,"TOWNNAME":"安南區","LI":"海佃里","LIN":"29鄰","STREET":"郡安路","SECT":"六段","MAREA":" ","LANE":"５５巷","ALLEY":" ","HOUSE_NO":"４８號","E_COORD97":166676.87,"N_COORD97":2547535.3599999999,"ADDRESS":"郡安路六段５５巷４８號","OBJECTID":390254},"geometry":{"x":166676.87000000197,"y":2547535.3599999994}},{"attributes":{"ID":390279,"DIS_CODE":0,"TOWNNAME":"安南區","LI":"海佃里","LIN":"29鄰","STREET":"郡安路","SECT":"六段","MAREA":" ","LANE":"５５巷","ALLEY":" ","HOUSE_NO":"５０號","E_COORD97":166681.76000000001,"N_COORD97":2547536.9900000002,"ADDRESS":"郡安路六段５５巷５０號","OBJECTID":390255},"geometry":{"x":166681.75999999978,"y":2547536.9900000039}},{"attributes":{"ID":390280,"DIS_CODE":0,"TOWNNAME":"安南區","LI":"海佃里","LIN":"29鄰","STREET":"郡安路","SECT":"六段","MAREA":" ","LANE":"５５巷","ALLEY":" ","HOUSE_NO":"６０號","E_COORD97":166700.22,"N_COORD97":2547540.2400000002,"ADDRESS":"郡安路六段５５巷６０號","OBJECTID":390256},"geometry":{"x":166700.22000000067,"y":2547540.2400000021}},{"attributes":{"ID":390281,"DIS_CODE":0,"TOWNNAME":"安南區","LI":"海佃里","LIN":"29鄰","STREET":"郡安路","SECT":"六段","MAREA":" ","LANE":"５５巷","ALLEY":" ","HOUSE_NO":"６２號","E_COORD97":166705.10000000001,"N_COORD97":2547540.7799999998,"ADDRESS":"郡安路六段５５巷６２號","OBJECTID":390257},"geometry":{"x":166705.0999999987,"y":2547540.7800000031}},{"attributes":{"ID":390282,"DIS_CODE":0,"TOWNNAME":"安南區","LI":"安富里","LIN":"32鄰","STREET":"海佃路","SECT":"一段","MAREA":" ","LANE":"１５８巷","ALLEY":" ","HOUSE_NO":"１７６號","E_COORD97":167767.78,"N_COORD97":2547279.29,"ADDRESS":"海佃路一段１５８巷１７６號","OBJECTID":390258},"geometry":{"x":167767.78000000119,"y":2547279.2899999972}},{"attributes":{"ID":390283,"DIS_CODE":0,"TOWNNAME":"安南區","LI":"溪東里","LIN":"17鄰","STREET":"府安路","SECT":"五段","MAREA":" ","LANE":"１１巷","ALLEY":" ","HOUSE_NO":"８７號","E_COORD97":168415.14999999999,"N_COORD97":2547586.0499999998,"ADDRESS":"府安路五段１１巷８７號","OBJECTID":390259},"geometry":{"x":168415.1500000013,"y":2547586.0500000026}},{"attributes":{"ID":390284,"DIS_CODE":0,"TOWNNAME":"安南區","LI":"國安里","LIN":"7鄰","STREET":"國安街","SECT":" ","MAREA":" ","LANE":"２１０巷","ALLEY":" ","HOUSE_NO":"７６號","E_COORD97":166589.19,"N_COORD97":2547155.0600000001,"ADDRESS":"國安街２１０巷７６號","OBJECTID":390260},"geometry":{"x":166589.19000000134,"y":2547155.0600000024}},{"attributes":{"ID":390285,"DIS_CODE":0,"TOWNNAME":"安南區","LI":"國安里","LIN":"1鄰","STREET":"國安街","SECT":" ","MAREA":" ","LANE":"１５６巷","ALLEY":" ","HOUSE_NO":"３３號","E_COORD97":166704.91,"N_COORD97":2547058.9700000002,"ADDRESS":"國安街１５６巷３３號","OBJECTID":390261},"geometry":{"x":166704.91000000015,"y":2547058.9700000007}},{"attributes":{"ID":390286,"DIS_CODE":0,"TOWNNAME":"安南區","LI":"國安里","LIN":"9鄰","STREET":"國安街","SECT":" ","MAREA":" ","LANE":"２３６巷","ALLEY":" ","HOUSE_NO":"４７號","E_COORD97":166491.23000000001,"N_COORD97":2547057.2400000002,"ADDRESS":"國安街２３６巷４７號","OBJECTID":390262},"geometry":{"x":166491.23000000045,"y":2547057.2400000039}},{"attributes":{"ID":390287,"DIS_CODE":0,"TOWNNAME":"安南區","LI":"海佃里","LIN":"29鄰","STREET":"郡安路","SECT":"六段","MAREA":" ","LANE":"５５巷","ALLEY":" ","HOUSE_NO":"６６號","E_COORD97":166710.53,"N_COORD97":2547541.8700000001,"ADDRESS":"郡安路六段５５巷６６號","OBJECTID":390263},"geometry":{"x":166710.53000000119,"y":2547541.8699999992}},{"attributes":{"ID":390288,"DIS_CODE":0,"TOWNNAME":"安南區","LI":"海佃里","LIN":"29鄰","STREET":"郡安路","SECT":"六段","MAREA":" ","LANE":"５５巷","ALLEY":" ","HOUSE_NO":"６８號","E_COORD97":166715.42000000001,"N_COORD97":2547542.4100000001,"ADDRESS":"郡安路六段５５巷６８號","OBJECTID":390264},"geometry":{"x":166715.42000000086,"y":2547542.410000002}},{"attributes":{"ID":390289,"DIS_CODE":0,"TOWNNAME":"安南區","LI":"海佃里","LIN":"29鄰","STREET":"郡安路","SECT":"六段","MAREA":" ","LANE":"５５巷","ALLEY":" ","HOUSE_NO":"７０號","E_COORD97":166721.23999999999,"N_COORD97":2547552,"ADDRESS":"郡安路六段５５巷７０號","OBJECTID":390265},"geometry":{"x":166721.24000000022,"y":2547552}},{"attributes":{"ID":390290,"DIS_CODE":0,"TOWNNAME":"安南區","LI":"海佃里","LIN":"29鄰","STREET":"郡安路","SECT":"六段","MAREA":" ","LANE":"５５巷","ALLEY":" ","HOUSE_NO":"７２號","E_COORD97":166721.91,"N_COORD97":2547546.6899999999,"ADDRESS":"郡安路六段５５巷７２號","OBJECTID":390266},"geometry":{"x":166721.91000000015,"y":2547546.6900000013}},{"attributes":{"ID":390291,"DIS_CODE":0,"TOWNNAME":"安南區","LI":"海佃里","LIN":"29鄰","STREET":"郡安路","SECT":"六段","MAREA":" ","LANE":"５５巷","ALLEY":" ","HOUSE_NO":"７６號","E_COORD97":166723.89999999999,"N_COORD97":2547540.04,"ADDRESS":"郡安路六段５５巷７６號","OBJECTID":390267},"geometry":{"x":166723.90000000037,"y":2547540.040000001}},{"attributes":{"ID":390292,"DIS_CODE":0,"TOWNNAME":"安南區","LI":"海佃里","LIN":"29鄰","STREET":"郡安路","SECT":"六段","MAREA":" ","LANE":"５５巷","ALLEY":" ","HOUSE_NO":"６號","E_COORD97":166717.25,"N_COORD97":2547571.27,"ADDRESS":"郡安路六段５５巷６號","OBJECTID":390268},"geometry":{"x":166717.25000000093,"y":2547571.2699999996}},{"attributes":{"ID":390293,"DIS_CODE":0,"TOWNNAME":"安南區","LI":"海佃里","LIN":"29鄰","STREET":"郡安路","SECT":"六段","MAREA":" ","LANE":"５５巷","ALLEY":" ","HOUSE_NO":"８號","E_COORD97":166718.57999999999,"N_COORD97":2547565.29,"ADDRESS":"郡安路六段５５巷８號","OBJECTID":390269},"geometry":{"x":166718.58000000007,"y":2547565.290000001}},{"attributes":{"ID":390294,"DIS_CODE":0,"TOWNNAME":"永康區","LI":"尚頂里","LIN":"29鄰","STREET":"南台街","SECT":" ","MAREA":" ","LANE":"８９巷","ALLEY":" ","HOUSE_NO":"２８號","E_COORD97":170182.76999999999,"N_COORD97":2546945.75,"ADDRESS":"南台街８９巷２８號","OBJECTID":390270},"geometry":{"x":170182.77000000048,"y":2546945.7500000019}},{"attributes":{"ID":390295,"DIS_CODE":0,"TOWNNAME":"永康區","LI":"尚頂里","LIN":"29鄰","STREET":"南台街","SECT":" ","MAREA":" ","LANE":"７５巷","ALLEY":" ","HOUSE_NO":"１５號","E_COORD97":170234.60999999999,"N_COORD97":2546887.9900000002,"ADDRESS":"南台街７５巷１５號","OBJECTID":390271},"geometry":{"x":170234.61000000034,"y":2546887.9900000002}},{"attributes":{"ID":390296,"DIS_CODE":0,"TOWNNAME":"永康區","LI":"北灣里","LIN":"29鄰","STREET":"文賢街","SECT":" ","MAREA":" ","LANE":"７８巷","ALLEY":" ","HOUSE_NO":"７號","E_COORD97":175404.31,"N_COORD97":2545318.3199999998,"ADDRESS":"文賢街７８巷７號","OBJECTID":390272},"geometry":{"x":175404.30999999959,"y":2545318.3200000022}},{"attributes":{"ID":390297,"DIS_CODE":0,"TOWNNAME":"安南區","LI":"州北里","LIN":"29鄰","STREET":"安昌街","SECT":" ","MAREA":" ","LANE":"１０３巷","ALLEY":" ","HOUSE_NO":"３７號","E_COORD97":169843.60000000001,"N_COORD97":2552276.6699999999,"ADDRESS":"安昌街１０３巷３７號","OBJECTID":390273},"geometry":{"x":169843.60000000056,"y":2552276.6700000018}},{"attributes":{"ID":390298,"DIS_CODE":0,"TOWNNAME":"官田區","LI":"隆本里","LIN":"29鄰","STREET":"中山路","SECT":"一段","MAREA":" ","LANE":"２６８巷","ALLEY":" ","HOUSE_NO":"５號","E_COORD97":179540.92999999999,"N_COORD97":2565907.3900000001,"ADDRESS":"中山路一段２６８巷５號","OBJECTID":390274},"geometry":{"x":179540.93000000063,"y":2565907.3900000043}},{"attributes":{"ID":390299,"DIS_CODE":0,"TOWNNAME":"官田區","LI":"隆本里","LIN":"29鄰","STREET":"中山路","SECT":"一段","MAREA":" ","LANE":"２６８巷","ALLEY":" ","HOUSE_NO":"７號","E_COORD97":179545.37,"N_COORD97":2565907.8700000001,"ADDRESS":"中山路一段２６８巷７號","OBJECTID":390275},"geometry":{"x":179545.37000000104,"y":2565907.8700000048}},{"attributes":{"ID":390300,"DIS_CODE":0,"TOWNNAME":"官田區","LI":"隆本里","LIN":"29鄰","STREET":"中山路","SECT":"一段","MAREA":" ","LANE":"２６８巷","ALLEY":" ","HOUSE_NO":"９號","E_COORD97":179550.32999999999,"N_COORD97":2565907.79,"ADDRESS":"中山路一段２６８巷９號","OBJECTID":390276},"geometry":{"x":179550.33000000194,"y":2565907.790000001}},{"attributes":{"ID":390301,"DIS_CODE":0,"TOWNNAME":"官田區","LI":"隆田里","LIN":"29鄰","STREET":"中山路","SECT":"二段","MAREA":" ","LANE":"１３７巷","ALLEY":" ","HOUSE_NO":"１０號","E_COORD97":178738.01999999999,"N_COORD97":2566047.96,"ADDRESS":"中山路二段１３７巷１０號","OBJECTID":390277},"geometry":{"x":178738.01999999862,"y":2566047.9600000009}},{"attributes":{"ID":390302,"DIS_CODE":0,"TOWNNAME":"官田區","LI":"隆田里","LIN":"29鄰","STREET":"中山路","SECT":"二段","MAREA":" ","LANE":"１３７巷","ALLEY":" ","HOUSE_NO":"１１號","E_COORD97":178760.59,"N_COORD97":2566053.7200000002,"ADDRESS":"中山路二段１３７巷１１號","OBJECTID":390278},"geometry":{"x":178760.59000000078,"y":2566053.7200000007}},{"attributes":{"ID":390303,"DIS_CODE":0,"TOWNNAME":"官田區","LI":"隆田里","LIN":"29鄰","STREET":"中山路","SECT":"二段","MAREA":" ","LANE":"１３７巷","ALLEY":" ","HOUSE_NO":"１２號","E_COORD97":178743.73000000001,"N_COORD97":2566046.0499999998,"ADDRESS":"中山路二段１３７巷１２號","OBJECTID":390279},"geometry":{"x":178743.73000000045,"y":2566046.0500000026}},{"attributes":{"ID":390304,"DIS_CODE":0,"TOWNNAME":"官田區","LI":"隆田里","LIN":"29鄰","STREET":"中山路","SECT":"二段","MAREA":" ","LANE":"１３７巷","ALLEY":" ","HOUSE_NO":"１３號","E_COORD97":178766.69,"N_COORD97":2566050.7000000002,"ADDRESS":"中山路二段１３７巷１３號","OBJECTID":390280},"geometry":{"x":178766.69000000227,"y":2566050.7000000011}},{"attributes":{"ID":390305,"DIS_CODE":0,"TOWNNAME":"官田區","LI":"隆田里","LIN":"29鄰","STREET":"中山路","SECT":"二段","MAREA":" ","LANE":"１３７巷","ALLEY":" ","HOUSE_NO":"１４號","E_COORD97":178748.81,"N_COORD97":2566043.8999999999,"ADDRESS":"中山路二段１３７巷１４號","OBJECTID":390281},"geometry":{"x":178748.81000000052,"y":2566043.9000000022}},{"attributes":{"ID":390306,"DIS_CODE":0,"TOWNNAME":"官田區","LI":"隆田里","LIN":"29鄰","STREET":"中山路","SECT":"二段","MAREA":" ","LANE":"１３７巷","ALLEY":" ","HOUSE_NO":"１５號","E_COORD97":178772.44,"N_COORD97":2566048.02,"ADDRESS":"中山路二段１３７巷１５號","OBJECTID":390282},"geometry":{"x":178772.44000000134,"y":2566048.0200000014}},{"attributes":{"ID":390307,"DIS_CODE":0,"TOWNNAME":"官田區","LI":"隆田里","LIN":"29鄰","STREET":"中山路","SECT":"二段","MAREA":" ","LANE":"１３７巷","ALLEY":" ","HOUSE_NO":"１６號","E_COORD97":178754.85000000001,"N_COORD97":2566040.96,"ADDRESS":"中山路二段１３７巷１６號","OBJECTID":390283},"geometry":{"x":178754.85000000056,"y":2566040.9600000009}},{"attributes":{"ID":390308,"DIS_CODE":0,"TOWNNAME":"官田區","LI":"隆田里","LIN":"29鄰","STREET":"中山路","SECT":"二段","MAREA":" ","LANE":"１３７巷","ALLEY":" ","HOUSE_NO":"１７號","E_COORD97":178778.62,"N_COORD97":2566045.52,"ADDRESS":"中山路二段１３７巷１７號","OBJECTID":390284},"geometry":{"x":178778.61999999918,"y":2566045.5200000014}},{"attributes":{"ID":390309,"DIS_CODE":0,"TOWNNAME":"官田區","LI":"隆田里","LIN":"29鄰","STREET":"中山路","SECT":"二段","MAREA":" ","LANE":"１３７巷","ALLEY":" ","HOUSE_NO":"１８號","E_COORD97":178760.69,"N_COORD97":2566038.5499999998,"ADDRESS":"中山路二段１３７巷１８號","OBJECTID":390285},"geometry":{"x":178760.69000000134,"y":2566038.5500000045}},{"attributes":{"ID":390310,"DIS_CODE":0,"TOWNNAME":"官田區","LI":"隆田里","LIN":"29鄰","STREET":"中山路","SECT":"二段","MAREA":" ","LANE":"１３７巷","ALLEY":" ","HOUSE_NO":"１９號","E_COORD97":178784.42000000001,"N_COORD97":2566042.2599999998,"ADDRESS":"中山路二段１３７巷１９號","OBJECTID":390286},"geometry":{"x":178784.41999999993,"y":2566042.2599999998}},{"attributes":{"ID":390311,"DIS_CODE":0,"TOWNNAME":"官田區","LI":"隆田里","LIN":"29鄰","STREET":"中山路","SECT":"二段","MAREA":" ","LANE":"１３７巷","ALLEY":" ","HOUSE_NO":"１號","E_COORD97":178730.98000000001,"N_COORD97":2566068.23,"ADDRESS":"中山路二段１３７巷１號","OBJECTID":390287},"geometry":{"x":178730.98000000231,"y":2566068.2300000023}},{"attributes":{"ID":390312,"DIS_CODE":0,"TOWNNAME":"官田區","LI":"隆田里","LIN":"29鄰","STREET":"中山路","SECT":"二段","MAREA":" ","LANE":"１３７巷","ALLEY":" ","HOUSE_NO":"２０號","E_COORD97":178767.92000000001,"N_COORD97":2566036.6499999999,"ADDRESS":"中山路二段１３７巷２０號","OBJECTID":390288},"geometry":{"x":178767.91999999899,"y":2566036.6500000004}},{"attributes":{"ID":390313,"DIS_CODE":0,"TOWNNAME":"官田區","LI":"隆田里","LIN":"29鄰","STREET":"中山路","SECT":"二段","MAREA":" ","LANE":"１３７巷","ALLEY":" ","HOUSE_NO":"２１號","E_COORD97":178790.85999999999,"N_COORD97":2566039.6400000001,"ADDRESS":"中山路二段１３７巷２１號","OBJECTID":390289},"geometry":{"x":178790.8600000022,"y":2566039.6400000006}},{"attributes":{"ID":390314,"DIS_CODE":0,"TOWNNAME":"官田區","LI":"隆田里","LIN":"29鄰","STREET":"中山路","SECT":"二段","MAREA":" ","LANE":"１３７巷","ALLEY":" ","HOUSE_NO":"３號","E_COORD97":178736.87,"N_COORD97":2566065.7799999998,"ADDRESS":"中山路二段１３７巷３號","OBJECTID":390290},"geometry":{"x":178736.87000000104,"y":2566065.7800000031}},{"attributes":{"ID":390315,"DIS_CODE":0,"TOWNNAME":"官田區","LI":"隆田里","LIN":"29鄰","STREET":"中山路","SECT":"二段","MAREA":" ","LANE":"１３７巷","ALLEY":" ","HOUSE_NO":"５號","E_COORD97":178742.56,"N_COORD97":2566062.9700000002,"ADDRESS":"中山路二段１３７巷５號","OBJECTID":390291},"geometry":{"x":178742.55999999959,"y":2566062.9700000025}},{"attributes":{"ID":390316,"DIS_CODE":0,"TOWNNAME":"官田區","LI":"隆田里","LIN":"29鄰","STREET":"中山路","SECT":"二段","MAREA":" ","LANE":"１３７巷","ALLEY":" ","HOUSE_NO":"７號","E_COORD97":178749.07999999999,"N_COORD97":2566059.9900000002,"ADDRESS":"中山路二段１３７巷７號","OBJECTID":390292},"geometry":{"x":178749.08000000101,"y":2566059.9900000021}},{"attributes":{"ID":390317,"DIS_CODE":0,"TOWNNAME":"歸仁區","LI":"後市里","LIN":"29鄰","STREET":"民族北街","SECT":" ","MAREA":" ","LANE":"１７巷","ALLEY":" ","HOUSE_NO":"２號四樓之１０","E_COORD97":177400.82000000001,"N_COORD97":2540892.75,"ADDRESS":"民族北街１７巷２號四樓之１０","OBJECTID":390293},"geometry":{"x":177400.8200000003,"y":2540892.75}},{"attributes":{"ID":390318,"DIS_CODE":0,"TOWNNAME":"北區","LI":"大豐里","LIN":"29鄰","STREET":"和緯路","SECT":"四段","MAREA":" ","LANE":"１１７巷","ALLEY":" ","HOUSE_NO":"３號二樓","E_COORD97":167091.09,"N_COORD97":2545460.3199999998,"ADDRESS":"和緯路四段１１７巷３號二樓","OBJECTID":390294},"geometry":{"x":167091.09000000078,"y":2545460.3200000022}},{"attributes":{"ID":390319,"DIS_CODE":0,"TOWNNAME":"北區","LI":"大豐里","LIN":"29鄰","STREET":"和緯路","SECT":"四段","MAREA":" ","LANE":"１１７巷","ALLEY":" ","HOUSE_NO":"３號三樓","E_COORD97":167091.09,"N_COORD97":2545460.3199999998,"ADDRESS":"和緯路四段１１７巷３號三樓","OBJECTID":390295},"geometry":{"x":167091.09000000078,"y":2545460.3200000022}},{"attributes":{"ID":390320,"DIS_CODE":0,"TOWNNAME":"北區","LI":"大豐里","LIN":"29鄰","STREET":"和緯路","SECT":"四段","MAREA":" ","LANE":"１１７巷","ALLEY":" ","HOUSE_NO":"３號五樓","E_COORD97":167091.09,"N_COORD97":2545460.3199999998,"ADDRESS":"和緯路四段１１７巷３號五樓","OBJECTID":390296},"geometry":{"x":167091.09000000078,"y":2545460.3200000022}},{"attributes":{"ID":390321,"DIS_CODE":0,"TOWNNAME":"北區","LI":"大豐里","LIN":"29鄰","STREET":"和緯路","SECT":"四段","MAREA":" ","LANE":"１１７巷","ALLEY":" ","HOUSE_NO":"３號四樓","E_COORD97":167091.09,"N_COORD97":2545460.3199999998,"ADDRESS":"和緯路四段１１７巷３號四樓","OBJECTID":390297},"geometry":{"x":167091.09000000078,"y":2545460.3200000022}},{"attributes":{"ID":390322,"DIS_CODE":0,"TOWNNAME":"北區","LI":"大豐里","LIN":"29鄰","STREET":"和緯路","SECT":"四段","MAREA":" ","LANE":"１１７巷","ALLEY":" ","HOUSE_NO":"５號二樓","E_COORD97":167090.82000000001,"N_COORD97":2545450.4100000001,"ADDRESS":"和緯路四段１１７巷５號二樓","OBJECTID":390298},"geometry":{"x":167090.81999999937,"y":2545450.410000002}},{"attributes":{"ID":390323,"DIS_CODE":0,"TOWNNAME":"北區","LI":"大豐里","LIN":"29鄰","STREET":"和緯路","SECT":"四段","MAREA":" ","LANE":"１１７巷","ALLEY":" ","HOUSE_NO":"５號三樓","E_COORD97":167090.82000000001,"N_COORD97":2545450.4100000001,"ADDRESS":"和緯路四段１１７巷５號三樓","OBJECTID":390299},"geometry":{"x":167090.81999999937,"y":2545450.410000002}},{"attributes":{"ID":390324,"DIS_CODE":0,"TOWNNAME":"北區","LI":"大豐里","LIN":"29鄰","STREET":"和緯路","SECT":"四段","MAREA":" ","LANE":"１１７巷","ALLEY":" ","HOUSE_NO":"５號五樓","E_COORD97":167090.82000000001,"N_COORD97":2545450.4100000001,"ADDRESS":"和緯路四段１１７巷５號五樓","OBJECTID":390300},"geometry":{"x":167090.81999999937,"y":2545450.410000002}},{"attributes":{"ID":390325,"DIS_CODE":0,"TOWNNAME":"北區","LI":"大豐里","LIN":"29鄰","STREET":"和緯路","SECT":"四段","MAREA":" ","LANE":"１１７巷","ALLEY":" ","HOUSE_NO":"５號四樓","E_COORD97":167090.82000000001,"N_COORD97":2545450.4100000001,"ADDRESS":"和緯路四段１１７巷５號四樓","OBJECTID":390301},"geometry":{"x":167090.81999999937,"y":2545450.410000002}},{"attributes":{"ID":390326,"DIS_CODE":0,"TOWNNAME":"北區","LI":"大豐里","LIN":"29鄰","STREET":"和緯路","SECT":"四段","MAREA":" ","LANE":"１１７巷","ALLEY":" ","HOUSE_NO":"７９號二樓","E_COORD97":167067.47,"N_COORD97":2545294.5099999998,"ADDRESS":"和緯路四段１１７巷７９號二樓","OBJECTID":390302},"geometry":{"x":167067.47000000067,"y":2545294.5099999998}},{"attributes":{"ID":390327,"DIS_CODE":0,"TOWNNAME":"北區","LI":"大豐里","LIN":"29鄰","STREET":"和緯路","SECT":"四段","MAREA":" ","LANE":"１１７巷","ALLEY":" ","HOUSE_NO":"７９號三樓","E_COORD97":167067.47,"N_COORD97":2545294.5099999998,"ADDRESS":"和緯路四段１１７巷７９號三樓","OBJECTID":390303},"geometry":{"x":167067.47000000067,"y":2545294.5099999998}},{"attributes":{"ID":390328,"DIS_CODE":0,"TOWNNAME":"北區","LI":"大豐里","LIN":"29鄰","STREET":"和緯路","SECT":"四段","MAREA":" ","LANE":"１１７巷","ALLEY":" ","HOUSE_NO":"７９號五樓","E_COORD97":167067.47,"N_COORD97":2545294.5099999998,"ADDRESS":"和緯路四段１１７巷７９號五樓","OBJECTID":390304},"geometry":{"x":167067.47000000067,"y":2545294.5099999998}},{"attributes":{"ID":390329,"DIS_CODE":0,"TOWNNAME":"北區","LI":"大豐里","LIN":"29鄰","STREET":"和緯路","SECT":"四段","MAREA":" ","LANE":"１１７巷","ALLEY":" ","HOUSE_NO":"７９號四樓","E_COORD97":167067.47,"N_COORD97":2545294.5099999998,"ADDRESS":"和緯路四段１１７巷７９號四樓","OBJECTID":390305},"geometry":{"x":167067.47000000067,"y":2545294.5099999998}},{"attributes":{"ID":390330,"DIS_CODE":0,"TOWNNAME":"歸仁區","LI":"後市里","LIN":"29鄰","STREET":"民族北街","SECT":" ","MAREA":" ","LANE":"１７巷","ALLEY":" ","HOUSE_NO":"２號四樓之３","E_COORD97":177400.57999999999,"N_COORD97":2540892.75,"ADDRESS":"民族北街１７巷２號四樓之３","OBJECTID":390306},"geometry":{"x":177400.58000000007,"y":2540892.75}},{"attributes":{"ID":390331,"DIS_CODE":0,"TOWNNAME":"歸仁區","LI":"後市里","LIN":"29鄰","STREET":"民族北街","SECT":" ","MAREA":" ","LANE":"１７巷","ALLEY":" ","HOUSE_NO":"２號四樓之１１","E_COORD97":177400.81,"N_COORD97":2540892.75,"ADDRESS":"民族北街１７巷２號四樓之１１","OBJECTID":390307},"geometry":{"x":177400.81000000052,"y":2540892.75}},{"attributes":{"ID":390332,"DIS_CODE":0,"TOWNNAME":"歸仁區","LI":"後市里","LIN":"29鄰","STREET":"民族北街","SECT":" ","MAREA":" ","LANE":"１７巷","ALLEY":" ","HOUSE_NO":"２號五樓之３","E_COORD97":177400.57999999999,"N_COORD97":2540892.75,"ADDRESS":"民族北街１７巷２號五樓之３","OBJECTID":390308},"geometry":{"x":177400.58000000007,"y":2540892.75}},{"attributes":{"ID":390333,"DIS_CODE":0,"TOWNNAME":"歸仁區","LI":"後市里","LIN":"29鄰","STREET":"民族北街","SECT":" ","MAREA":" ","LANE":"１７巷","ALLEY":" ","HOUSE_NO":"２號五樓之１１","E_COORD97":177400.81,"N_COORD97":2540892.75,"ADDRESS":"民族北街１７巷２號五樓之１１","OBJECTID":390309},"geometry":{"x":177400.81000000052,"y":2540892.75}},{"attributes":{"ID":390334,"DIS_CODE":0,"TOWNNAME":"歸仁區","LI":"後市里","LIN":"29鄰","STREET":"民族北街","SECT":" ","MAREA":" ","LANE":"１７巷","ALLEY":" ","HOUSE_NO":"２號五樓之６","E_COORD97":177400.57999999999,"N_COORD97":2540892.75,"ADDRESS":"民族北街１７巷２號五樓之６","OBJECTID":390310},"geometry":{"x":177400.58000000007,"y":2540892.75}},{"attributes":{"ID":390335,"DIS_CODE":0,"TOWNNAME":"歸仁區","LI":"後市里","LIN":"29鄰","STREET":"民族北街","SECT":" ","MAREA":" ","LANE":"１７巷","ALLEY":" ","HOUSE_NO":"２號四樓之９","E_COORD97":177400.57999999999,"N_COORD97":2540892.75,"ADDRESS":"民族北街１７巷２號四樓之９","OBJECTID":390311},"geometry":{"x":177400.58000000007,"y":2540892.75}},{"attributes":{"ID":390336,"DIS_CODE":0,"TOWNNAME":"歸仁區","LI":"後市里","LIN":"29鄰","STREET":"民族北街","SECT":" ","MAREA":" ","LANE":"１７巷","ALLEY":" ","HOUSE_NO":"２號二樓之２","E_COORD97":177400.59,"N_COORD97":2540892.75,"ADDRESS":"民族北街１７巷２號二樓之２","OBJECTID":390312},"geometry":{"x":177400.59000000171,"y":2540892.75}},{"attributes":{"ID":390337,"DIS_CODE":0,"TOWNNAME":"歸仁區","LI":"後市里","LIN":"29鄰","STREET":"民族北街","SECT":" ","MAREA":" ","LANE":"１７巷","ALLEY":" ","HOUSE_NO":"２號五樓之１","E_COORD97":177400.56,"N_COORD97":2540892.75,"ADDRESS":"民族北街１７巷２號五樓之１","OBJECTID":390313},"geometry":{"x":177400.56000000052,"y":2540892.75}},{"attributes":{"ID":390338,"DIS_CODE":0,"TOWNNAME":"安南區","LI":"安富里","LIN":"20鄰","STREET":"郡安路","SECT":"五段","MAREA":" ","LANE":"１７８巷","ALLEY":" ","HOUSE_NO":"１１０號","E_COORD97":167558.85999999999,"N_COORD97":2547470.25,"ADDRESS":"郡安路五段１７８巷１１０號","OBJECTID":390314},"geometry":{"x":167558.86000000127,"y":2547470.25}},{"attributes":{"ID":390339,"DIS_CODE":0,"TOWNNAME":"善化區","LI":"坐駕里","LIN":"13鄰","STREET":"自強路","SECT":" ","MAREA":" ","LANE":" ","ALLEY":" ","HOUSE_NO":"２０號","E_COORD97":178239.57999999999,"N_COORD97":2558759.25,"ADDRESS":"自強路２０號","OBJECTID":390315},"geometry":{"x":178239.58000000007,"y":2558759.25}},{"attributes":{"ID":390340,"DIS_CODE":0,"TOWNNAME":"安南區","LI":"安富里","LIN":"15鄰","STREET":"海佃路","SECT":"一段","MAREA":" ","LANE":"１５８巷","ALLEY":" ","HOUSE_NO":"７９號","E_COORD97":167390.29000000001,"N_COORD97":2547247.9300000002,"ADDRESS":"海佃路一段１５８巷７９號","OBJECTID":390316},"geometry":{"x":167390.29000000004,"y":2547247.9299999997}},{"attributes":{"ID":390341,"DIS_CODE":0,"TOWNNAME":"安南區","LI":"溪頂里","LIN":"29鄰","STREET":"北安路","SECT":"二段","MAREA":" ","LANE":"６０巷","ALLEY":" ","HOUSE_NO":"６０號八樓","E_COORD97":168687.26000000001,"N_COORD97":2547517.3500000001,"ADDRESS":"北安路二段６０巷６０號八樓","OBJECTID":390317},"geometry":{"x":168687.25999999978,"y":2547517.3500000015}},{"attributes":{"ID":390342,"DIS_CODE":0,"TOWNNAME":"安南區","LI":"溪頂里","LIN":"29鄰","STREET":"北安路","SECT":"二段","MAREA":" ","LANE":"６０巷","ALLEY":" ","HOUSE_NO":"６０號十樓","E_COORD97":168687.26000000001,"N_COORD97":2547517.3500000001,"ADDRESS":"北安路二段６０巷６０號十樓","OBJECTID":390318},"geometry":{"x":168687.25999999978,"y":2547517.3500000015}},{"attributes":{"ID":390343,"DIS_CODE":0,"TOWNNAME":"安南區","LI":"溪頂里","LIN":"29鄰","STREET":"北安路","SECT":"二段","MAREA":" ","LANE":"６０巷","ALLEY":" ","HOUSE_NO":"６０號三樓","E_COORD97":168687.26000000001,"N_COORD97":2547517.3500000001,"ADDRESS":"北安路二段６０巷６０號三樓","OBJECTID":390319},"geometry":{"x":168687.25999999978,"y":2547517.3500000015}},{"attributes":{"ID":390344,"DIS_CODE":0,"TOWNNAME":"安南區","LI":"溪頂里","LIN":"29鄰","STREET":"北安路","SECT":"二段","MAREA":" ","LANE":"６０巷","ALLEY":" ","HOUSE_NO":"６０號五樓","E_COORD97":168687.26000000001,"N_COORD97":2547517.3500000001,"ADDRESS":"北安路二段６０巷６０號五樓","OBJECTID":390320},"geometry":{"x":168687.25999999978,"y":2547517.3500000015}},{"attributes":{"ID":390345,"DIS_CODE":0,"TOWNNAME":"安南區","LI":"溪頂里","LIN":"29鄰","STREET":"北安路","SECT":"二段","MAREA":" ","LANE":"６０巷","ALLEY":" ","HOUSE_NO":"６０號六樓","E_COORD97":168687.26000000001,"N_COORD97":2547517.3500000001,"ADDRESS":"北安路二段６０巷６０號六樓","OBJECTID":390321},"geometry":{"x":168687.25999999978,"y":2547517.3500000015}},{"attributes":{"ID":390346,"DIS_CODE":0,"TOWNNAME":"安南區","LI":"溪頂里","LIN":"29鄰","STREET":"北安路","SECT":"二段","MAREA":" ","LANE":"６０巷","ALLEY":" ","HOUSE_NO":"６０號四樓","E_COORD97":168687.26000000001,"N_COORD97":2547517.3500000001,"ADDRESS":"北安路二段６０巷６０號四樓","OBJECTID":390322},"geometry":{"x":168687.25999999978,"y":2547517.3500000015}},{"attributes":{"ID":390347,"DIS_CODE":0,"TOWNNAME":"安南區","LI":"溪頂里","LIN":"29鄰","STREET":"北安路","SECT":"二段","MAREA":" ","LANE":"６０巷","ALLEY":" ","HOUSE_NO":"６２號七樓","E_COORD97":168693.81,"N_COORD97":2547517.8199999998,"ADDRESS":"北安路二段６０巷６２號七樓","OBJECTID":390323},"geometry":{"x":168693.80999999866,"y":2547517.820000004}},{"attributes":{"ID":390348,"DIS_CODE":0,"TOWNNAME":"安南區","LI":"安富里","LIN":"1鄰","STREET":"郡安路","SECT":"五段","MAREA":" ","LANE":"１９２巷","ALLEY":" ","HOUSE_NO":"４５號","E_COORD97":167293.73999999999,"N_COORD97":2547706.3700000001,"ADDRESS":"郡安路五段１９２巷４５號","OBJECTID":390324},"geometry":{"x":167293.74000000115,"y":2547706.3700000029}},{"attributes":{"ID":390349,"DIS_CODE":0,"TOWNNAME":"安南區","LI":"溪頂里","LIN":"29鄰","STREET":"北安路","SECT":"二段","MAREA":" ","LANE":"６０巷","ALLEY":" ","HOUSE_NO":"６２號九樓","E_COORD97":168693.81,"N_COORD97":2547517.8199999998,"ADDRESS":"北安路二段６０巷６２號九樓","OBJECTID":390325},"geometry":{"x":168693.80999999866,"y":2547517.820000004}},{"attributes":{"ID":390350,"DIS_CODE":0,"TOWNNAME":"安南區","LI":"溪頂里","LIN":"29鄰","STREET":"北安路","SECT":"二段","MAREA":" ","LANE":"６０巷","ALLEY":" ","HOUSE_NO":"６２號二樓","E_COORD97":168693.81,"N_COORD97":2547517.8199999998,"ADDRESS":"北安路二段６０巷６２號二樓","OBJECTID":390326},"geometry":{"x":168693.80999999866,"y":2547517.820000004}},{"attributes":{"ID":390351,"DIS_CODE":0,"TOWNNAME":"安南區","LI":"溪頂里","LIN":"29鄰","STREET":"北安路","SECT":"二段","MAREA":" ","LANE":"６０巷","ALLEY":" ","HOUSE_NO":"６２號八樓","E_COORD97":168693.81,"N_COORD97":2547517.8199999998,"ADDRESS":"北安路二段６０巷６２號八樓","OBJECTID":390327},"geometry":{"x":168693.80999999866,"y":2547517.820000004}},{"attributes":{"ID":390352,"DIS_CODE":0,"TOWNNAME":"安南區","LI":"溪頂里","LIN":"29鄰","STREET":"北安路","SECT":"二段","MAREA":" ","LANE":"６０巷","ALLEY":" ","HOUSE_NO":"６２號十樓","E_COORD97":168693.81,"N_COORD97":2547517.8199999998,"ADDRESS":"北安路二段６０巷６２號十樓","OBJECTID":390328},"geometry":{"x":168693.80999999866,"y":2547517.820000004}},{"attributes":{"ID":390353,"DIS_CODE":0,"TOWNNAME":"安南區","LI":"溪頂里","LIN":"29鄰","STREET":"北安路","SECT":"二段","MAREA":" ","LANE":"６０巷","ALLEY":" ","HOUSE_NO":"６２號三樓","E_COORD97":168693.81,"N_COORD97":2547517.8199999998,"ADDRESS":"北安路二段６０巷６２號三樓","OBJECTID":390329},"geometry":{"x":168693.80999999866,"y":2547517.820000004}},{"attributes":{"ID":390354,"DIS_CODE":0,"TOWNNAME":"善化區","LI":"光文里","LIN":"29鄰","STREET":"建國路","SECT":" ","MAREA":" ","LANE":"３２９巷","ALLEY":" ","HOUSE_NO":"６號","E_COORD97":177700.35000000001,"N_COORD97":2559298.3700000001,"ADDRESS":"建國路３２９巷６號","OBJECTID":390330},"geometry":{"x":177700.35000000056,"y":2559298.370000001}},{"attributes":{"ID":390355,"DIS_CODE":0,"TOWNNAME":"安南區","LI":"溪頂里","LIN":"29鄰","STREET":"北安路","SECT":"二段","MAREA":" ","LANE":"６０巷","ALLEY":" ","HOUSE_NO":"６２號五樓","E_COORD97":168693.81,"N_COORD97":2547517.8199999998,"ADDRESS":"北安路二段６０巷６２號五樓","OBJECTID":390331},"geometry":{"x":168693.80999999866,"y":2547517.820000004}},{"attributes":{"ID":390356,"DIS_CODE":0,"TOWNNAME":"安南區","LI":"溪頂里","LIN":"29鄰","STREET":"北安路","SECT":"二段","MAREA":" ","LANE":"６０巷","ALLEY":" ","HOUSE_NO":"６２號六樓","E_COORD97":168693.81,"N_COORD97":2547517.8199999998,"ADDRESS":"北安路二段６０巷６２號六樓","OBJECTID":390332},"geometry":{"x":168693.80999999866,"y":2547517.820000004}},{"attributes":{"ID":390357,"DIS_CODE":0,"TOWNNAME":"安南區","LI":"溪頂里","LIN":"29鄰","STREET":"北安路","SECT":"二段","MAREA":" ","LANE":"６０巷","ALLEY":" ","HOUSE_NO":"６２號四樓","E_COORD97":168693.81,"N_COORD97":2547517.8199999998,"ADDRESS":"北安路二段６０巷６２號四樓","OBJECTID":390333},"geometry":{"x":168693.80999999866,"y":2547517.820000004}},{"attributes":{"ID":390358,"DIS_CODE":0,"TOWNNAME":"安南區","LI":"溪頂里","LIN":"29鄰","STREET":"北安路","SECT":"二段","MAREA":" ","LANE":"６０巷","ALLEY":" ","HOUSE_NO":"６６號七樓","E_COORD97":168699.89999999999,"N_COORD97":2547517.8199999998,"ADDRESS":"北安路二段６０巷６６號七樓","OBJECTID":390334},"geometry":{"x":168699.9000000013,"y":2547517.820000004}},{"attributes":{"ID":390359,"DIS_CODE":0,"TOWNNAME":"安南區","LI":"溪頂里","LIN":"29鄰","STREET":"北安路","SECT":"二段","MAREA":" ","LANE":"６０巷","ALLEY":" ","HOUSE_NO":"６６號九樓","E_COORD97":168699.89999999999,"N_COORD97":2547517.8199999998,"ADDRESS":"北安路二段６０巷６６號九樓","OBJECTID":390335},"geometry":{"x":168699.9000000013,"y":2547517.820000004}},{"attributes":{"ID":390360,"DIS_CODE":0,"TOWNNAME":"安南區","LI":"溪頂里","LIN":"29鄰","STREET":"北安路","SECT":"二段","MAREA":" ","LANE":"６０巷","ALLEY":" ","HOUSE_NO":"６６號二樓","E_COORD97":168699.89999999999,"N_COORD97":2547517.8199999998,"ADDRESS":"北安路二段６０巷６６號二樓","OBJECTID":390336},"geometry":{"x":168699.9000000013,"y":2547517.820000004}},{"attributes":{"ID":390361,"DIS_CODE":0,"TOWNNAME":"安南區","LI":"溪頂里","LIN":"29鄰","STREET":"北安路","SECT":"二段","MAREA":" ","LANE":"６０巷","ALLEY":" ","HOUSE_NO":"６６號十樓","E_COORD97":168699.89999999999,"N_COORD97":2547517.8199999998,"ADDRESS":"北安路二段６０巷６６號十樓","OBJECTID":390337},"geometry":{"x":168699.9000000013,"y":2547517.820000004}},{"attributes":{"ID":390362,"DIS_CODE":0,"TOWNNAME":"安南區","LI":"溪頂里","LIN":"29鄰","STREET":"北安路","SECT":"二段","MAREA":" ","LANE":"６０巷","ALLEY":" ","HOUSE_NO":"６６號三樓","E_COORD97":168699.89999999999,"N_COORD97":2547517.8199999998,"ADDRESS":"北安路二段６０巷６６號三樓","OBJECTID":390338},"geometry":{"x":168699.9000000013,"y":2547517.820000004}},{"attributes":{"ID":390363,"DIS_CODE":0,"TOWNNAME":"安南區","LI":"溪頂里","LIN":"29鄰","STREET":"北安路","SECT":"二段","MAREA":" ","LANE":"６０巷","ALLEY":" ","HOUSE_NO":"６６號五樓","E_COORD97":168699.89999999999,"N_COORD97":2547517.8199999998,"ADDRESS":"北安路二段６０巷６６號五樓","OBJECTID":390339},"geometry":{"x":168699.9000000013,"y":2547517.820000004}},{"attributes":{"ID":390364,"DIS_CODE":0,"TOWNNAME":"安南區","LI":"溪頂里","LIN":"29鄰","STREET":"北安路","SECT":"二段","MAREA":" ","LANE":"６０巷","ALLEY":" ","HOUSE_NO":"６６號六樓","E_COORD97":168699.89999999999,"N_COORD97":2547517.8199999998,"ADDRESS":"北安路二段６０巷６６號六樓","OBJECTID":390340},"geometry":{"x":168699.9000000013,"y":2547517.820000004}},{"attributes":{"ID":390365,"DIS_CODE":0,"TOWNNAME":"安南區","LI":"溪頂里","LIN":"29鄰","STREET":"北安路","SECT":"二段","MAREA":" ","LANE":"６０巷","ALLEY":" ","HOUSE_NO":"６６號四樓","E_COORD97":168699.89999999999,"N_COORD97":2547517.8199999998,"ADDRESS":"北安路二段６０巷６６號四樓","OBJECTID":390341},"geometry":{"x":168699.9000000013,"y":2547517.820000004}},{"attributes":{"ID":390366,"DIS_CODE":0,"TOWNNAME":"安南區","LI":"溪頂里","LIN":"29鄰","STREET":"北安路","SECT":"二段","MAREA":" ","LANE":"６０巷","ALLEY":" ","HOUSE_NO":"６８號七樓","E_COORD97":168705.54000000001,"N_COORD97":2547519.3599999999,"ADDRESS":"北安路二段６０巷６８號七樓","OBJECTID":390342},"geometry":{"x":168705.54000000004,"y":2547519.3599999994}},{"attributes":{"ID":390367,"DIS_CODE":0,"TOWNNAME":"安南區","LI":"溪頂里","LIN":"29鄰","STREET":"北安路","SECT":"二段","MAREA":" ","LANE":"６０巷","ALLEY":" ","HOUSE_NO":"６８號九樓","E_COORD97":168705.54000000001,"N_COORD97":2547519.3599999999,"ADDRESS":"北安路二段６０巷６８號九樓","OBJECTID":390343},"geometry":{"x":168705.54000000004,"y":2547519.3599999994}},{"attributes":{"ID":390368,"DIS_CODE":0,"TOWNNAME":"安南區","LI":"溪頂里","LIN":"29鄰","STREET":"北安路","SECT":"二段","MAREA":" ","LANE":"６０巷","ALLEY":" ","HOUSE_NO":"６８號二樓","E_COORD97":168705.54000000001,"N_COORD97":2547519.3599999999,"ADDRESS":"北安路二段６０巷６８號二樓","OBJECTID":390344},"geometry":{"x":168705.54000000004,"y":2547519.3599999994}},{"attributes":{"ID":390369,"DIS_CODE":0,"TOWNNAME":"善化區","LI":"光文里","LIN":"13鄰","STREET":"民權路","SECT":" ","MAREA":" ","LANE":" ","ALLEY":" ","HOUSE_NO":"１０６號","E_COORD97":178477.35000000001,"N_COORD97":2559058.0099999998,"ADDRESS":"民權路１０６號","OBJECTID":390345},"geometry":{"x":178477.35000000056,"y":2559058.0100000016}},{"attributes":{"ID":390370,"DIS_CODE":0,"TOWNNAME":"安南區","LI":"溪頂里","LIN":"29鄰","STREET":"北安路","SECT":"二段","MAREA":" ","LANE":"６０巷","ALLEY":" ","HOUSE_NO":"６８號八樓","E_COORD97":168705.54000000001,"N_COORD97":2547519.3599999999,"ADDRESS":"北安路二段６０巷６８號八樓","OBJECTID":390346},"geometry":{"x":168705.54000000004,"y":2547519.3599999994}},{"attributes":{"ID":390371,"DIS_CODE":0,"TOWNNAME":"安南區","LI":"溪頂里","LIN":"29鄰","STREET":"北安路","SECT":"二段","MAREA":" ","LANE":"６０巷","ALLEY":" ","HOUSE_NO":"６８號十樓","E_COORD97":168705.54000000001,"N_COORD97":2547519.3599999999,"ADDRESS":"北安路二段６０巷６８號十樓","OBJECTID":390347},"geometry":{"x":168705.54000000004,"y":2547519.3599999994}},{"attributes":{"ID":390372,"DIS_CODE":0,"TOWNNAME":"安南區","LI":"溪頂里","LIN":"29鄰","STREET":"北安路","SECT":"二段","MAREA":" ","LANE":"６０巷","ALLEY":" ","HOUSE_NO":"６８號三樓","E_COORD97":168705.54000000001,"N_COORD97":2547519.3599999999,"ADDRESS":"北安路二段６０巷６８號三樓","OBJECTID":390348},"geometry":{"x":168705.54000000004,"y":2547519.3599999994}},{"attributes":{"ID":390373,"DIS_CODE":0,"TOWNNAME":"安南區","LI":"溪頂里","LIN":"29鄰","STREET":"北安路","SECT":"二段","MAREA":" ","LANE":"６０巷","ALLEY":" ","HOUSE_NO":"６８號五樓","E_COORD97":168705.54000000001,"N_COORD97":2547519.3599999999,"ADDRESS":"北安路二段６０巷６８號五樓","OBJECTID":390349},"geometry":{"x":168705.54000000004,"y":2547519.3599999994}},{"attributes":{"ID":390374,"DIS_CODE":0,"TOWNNAME":"安南區","LI":"溪頂里","LIN":"29鄰","STREET":"北安路","SECT":"二段","MAREA":" ","LANE":"６０巷","ALLEY":" ","HOUSE_NO":"６８號六樓","E_COORD97":168705.54000000001,"N_COORD97":2547519.3599999999,"ADDRESS":"北安路二段６０巷６８號六樓","OBJECTID":390350},"geometry":{"x":168705.54000000004,"y":2547519.3599999994}},{"attributes":{"ID":390375,"DIS_CODE":0,"TOWNNAME":"安南區","LI":"溪頂里","LIN":"29鄰","STREET":"北安路","SECT":"二段","MAREA":" ","LANE":"６０巷","ALLEY":" ","HOUSE_NO":"６８號四樓","E_COORD97":168705.54000000001,"N_COORD97":2547519.3599999999,"ADDRESS":"北安路二段６０巷６８號四樓","OBJECTID":390351},"geometry":{"x":168705.54000000004,"y":2547519.3599999994}},{"attributes":{"ID":390376,"DIS_CODE":0,"TOWNNAME":"安南區","LI":"溪頂里","LIN":"29鄰","STREET":"郡安路","SECT":"四段","MAREA":" ","LANE":"２５３巷","ALLEY":" ","HOUSE_NO":"６３號三樓","E_COORD97":168706.94,"N_COORD97":2547545.21,"ADDRESS":"郡安路四段２５３巷６３號三樓","OBJECTID":390352},"geometry":{"x":168706.94000000041,"y":2547545.2100000009}},{"attributes":{"ID":390377,"DIS_CODE":0,"TOWNNAME":"安南區","LI":"溪頂里","LIN":"29鄰","STREET":"郡安路","SECT":"四段","MAREA":" ","LANE":"２５３巷","ALLEY":" ","HOUSE_NO":"６３號五樓","E_COORD97":168706.94,"N_COORD97":2547545.21,"ADDRESS":"郡安路四段２５３巷６３號五樓","OBJECTID":390353},"geometry":{"x":168706.94000000041,"y":2547545.2100000009}},{"attributes":{"ID":390378,"DIS_CODE":0,"TOWNNAME":"安南區","LI":"溪頂里","LIN":"29鄰","STREET":"郡安路","SECT":"四段","MAREA":" ","LANE":"２５３巷","ALLEY":" ","HOUSE_NO":"６３號六樓","E_COORD97":168706.94,"N_COORD97":2547545.21,"ADDRESS":"郡安路四段２５３巷６３號六樓","OBJECTID":390354},"geometry":{"x":168706.94000000041,"y":2547545.2100000009}},{"attributes":{"ID":390379,"DIS_CODE":0,"TOWNNAME":"安南區","LI":"溪頂里","LIN":"29鄰","STREET":"郡安路","SECT":"四段","MAREA":" ","LANE":"２５３巷","ALLEY":" ","HOUSE_NO":"６３號四樓","E_COORD97":168706.94,"N_COORD97":2547545.21,"ADDRESS":"郡安路四段２５３巷６３號四樓","OBJECTID":390355},"geometry":{"x":168706.94000000041,"y":2547545.2100000009}},{"attributes":{"ID":390380,"DIS_CODE":0,"TOWNNAME":"安南區","LI":"溪頂里","LIN":"29鄰","STREET":"郡安路","SECT":"四段","MAREA":" ","LANE":"２５３巷","ALLEY":" ","HOUSE_NO":"６５號七樓","E_COORD97":168708.13,"N_COORD97":2547532.7799999998,"ADDRESS":"郡安路四段２５３巷６５號七樓","OBJECTID":390356},"geometry":{"x":168708.13000000082,"y":2547532.7799999993}},{"attributes":{"ID":390381,"DIS_CODE":0,"TOWNNAME":"安南區","LI":"溪頂里","LIN":"29鄰","STREET":"郡安路","SECT":"四段","MAREA":" ","LANE":"２５３巷","ALLEY":" ","HOUSE_NO":"６５號二樓","E_COORD97":168708.13,"N_COORD97":2547532.7799999998,"ADDRESS":"郡安路四段２５３巷６５號二樓","OBJECTID":390357},"geometry":{"x":168708.13000000082,"y":2547532.7799999993}},{"attributes":{"ID":390382,"DIS_CODE":0,"TOWNNAME":"安南區","LI":"溪頂里","LIN":"29鄰","STREET":"郡安路","SECT":"四段","MAREA":" ","LANE":"２５３巷","ALLEY":" ","HOUSE_NO":"６５號三樓","E_COORD97":168708.13,"N_COORD97":2547532.7799999998,"ADDRESS":"郡安路四段２５３巷６５號三樓","OBJECTID":390358},"geometry":{"x":168708.13000000082,"y":2547532.7799999993}},{"attributes":{"ID":390383,"DIS_CODE":0,"TOWNNAME":"安南區","LI":"溪頂里","LIN":"29鄰","STREET":"郡安路","SECT":"四段","MAREA":" ","LANE":"２５３巷","ALLEY":" ","HOUSE_NO":"６５號五樓","E_COORD97":168708.13,"N_COORD97":2547532.7799999998,"ADDRESS":"郡安路四段２５３巷６５號五樓","OBJECTID":390359},"geometry":{"x":168708.13000000082,"y":2547532.7799999993}},{"attributes":{"ID":390384,"DIS_CODE":0,"TOWNNAME":"安南區","LI":"溪頂里","LIN":"29鄰","STREET":"郡安路","SECT":"四段","MAREA":" ","LANE":"２５３巷","ALLEY":" ","HOUSE_NO":"６５號六樓","E_COORD97":168708.13,"N_COORD97":2547532.7799999998,"ADDRESS":"郡安路四段２５３巷６５號六樓","OBJECTID":390360},"geometry":{"x":168708.13000000082,"y":2547532.7799999993}},{"attributes":{"ID":390385,"DIS_CODE":0,"TOWNNAME":"安南區","LI":"溪頂里","LIN":"29鄰","STREET":"郡安路","SECT":"四段","MAREA":" ","LANE":"２５３巷","ALLEY":" ","HOUSE_NO":"６５號四樓","E_COORD97":168708.13,"N_COORD97":2547532.7799999998,"ADDRESS":"郡安路四段２５３巷６５號四樓","OBJECTID":390361},"geometry":{"x":168708.13000000082,"y":2547532.7799999993}},{"attributes":{"ID":390386,"DIS_CODE":0,"TOWNNAME":"安南區","LI":"溪頂里","LIN":"29鄰","STREET":"郡安路","SECT":"四段","MAREA":" ","LANE":"２５３巷","ALLEY":" ","HOUSE_NO":"６７號七樓","E_COORD97":168708.87,"N_COORD97":2547519.7599999998,"ADDRESS":"郡安路四段２５３巷６７號七樓","OBJECTID":390362},"geometry":{"x":168708.87000000011,"y":2547519.7599999998}},{"attributes":{"ID":390387,"DIS_CODE":0,"TOWNNAME":"安南區","LI":"溪頂里","LIN":"29鄰","STREET":"郡安路","SECT":"四段","MAREA":" ","LANE":"２５３巷","ALLEY":" ","HOUSE_NO":"６７號二樓","E_COORD97":168708.87,"N_COORD97":2547519.7599999998,"ADDRESS":"郡安路四段２５３巷６７號二樓","OBJECTID":390363},"geometry":{"x":168708.87000000011,"y":2547519.7599999998}},{"attributes":{"ID":390388,"DIS_CODE":0,"TOWNNAME":"安南區","LI":"溪頂里","LIN":"29鄰","STREET":"郡安路","SECT":"四段","MAREA":" ","LANE":"２５３巷","ALLEY":" ","HOUSE_NO":"６７號三樓","E_COORD97":168708.87,"N_COORD97":2547519.7599999998,"ADDRESS":"郡安路四段２５３巷６７號三樓","OBJECTID":390364},"geometry":{"x":168708.87000000011,"y":2547519.7599999998}},{"attributes":{"ID":390389,"DIS_CODE":0,"TOWNNAME":"安南區","LI":"溪頂里","LIN":"29鄰","STREET":"郡安路","SECT":"四段","MAREA":" ","LANE":"２５３巷","ALLEY":" ","HOUSE_NO":"６７號五樓","E_COORD97":168708.87,"N_COORD97":2547519.7599999998,"ADDRESS":"郡安路四段２５３巷６７號五樓","OBJECTID":390365},"geometry":{"x":168708.87000000011,"y":2547519.7599999998}},{"attributes":{"ID":390390,"DIS_CODE":0,"TOWNNAME":"安南區","LI":"溪頂里","LIN":"29鄰","STREET":"郡安路","SECT":"四段","MAREA":" ","LANE":"２５３巷","ALLEY":" ","HOUSE_NO":"６７號六樓","E_COORD97":168708.87,"N_COORD97":2547519.7599999998,"ADDRESS":"郡安路四段２５３巷６７號六樓","OBJECTID":390366},"geometry":{"x":168708.87000000011,"y":2547519.7599999998}},{"attributes":{"ID":390391,"DIS_CODE":0,"TOWNNAME":"安南區","LI":"溪頂里","LIN":"29鄰","STREET":"郡安路","SECT":"四段","MAREA":" ","LANE":"２５３巷","ALLEY":" ","HOUSE_NO":"６７號四樓","E_COORD97":168708.87,"N_COORD97":2547519.7599999998,"ADDRESS":"郡安路四段２５３巷６７號四樓","OBJECTID":390367},"geometry":{"x":168708.87000000011,"y":2547519.7599999998}},{"attributes":{"ID":390392,"DIS_CODE":0,"TOWNNAME":"永康區","LI":"尚頂里","LIN":"29鄰","STREET":"南台街","SECT":" ","MAREA":" ","LANE":"８９巷","ALLEY":" ","HOUSE_NO":"１５號十樓之２","E_COORD97":170213.29999999999,"N_COORD97":2546941.0499999998,"ADDRESS":"南台街８９巷１５號十樓之２","OBJECTID":390368},"geometry":{"x":170213.30000000075,"y":2546941.0500000026}},{"attributes":{"ID":390393,"DIS_CODE":0,"TOWNNAME":"永康區","LI":"尚頂里","LIN":"29鄰","STREET":"南台街","SECT":" ","MAREA":" ","LANE":"８９巷","ALLEY":" ","HOUSE_NO":"１３號之１四樓之２","E_COORD97":170218.39000000001,"N_COORD97":2546957.0499999998,"ADDRESS":"南台街８９巷１３號之１四樓之２","OBJECTID":390369},"geometry":{"x":170218.38999999966,"y":2546957.0500000007}},{"attributes":{"ID":390394,"DIS_CODE":0,"TOWNNAME":"永康區","LI":"尚頂里","LIN":"29鄰","STREET":"南台街","SECT":" ","MAREA":" ","LANE":"８９巷","ALLEY":" ","HOUSE_NO":"１５號八樓之１","E_COORD97":170213.16,"N_COORD97":2546941.0499999998,"ADDRESS":"南台街８９巷１５號八樓之１","OBJECTID":390370},"geometry":{"x":170213.16000000108,"y":2546941.0500000026}},{"attributes":{"ID":390395,"DIS_CODE":0,"TOWNNAME":"永康區","LI":"尚頂里","LIN":"29鄰","STREET":"南台街","SECT":" ","MAREA":" ","LANE":"８９巷","ALLEY":" ","HOUSE_NO":"１３號十一樓之３","E_COORD97":170216.10999999999,"N_COORD97":2546972.7999999998,"ADDRESS":"南台街８９巷１３號十一樓之３","OBJECTID":390371},"geometry":{"x":170216.11000000034,"y":2546972.8000000045}},{"attributes":{"ID":390396,"DIS_CODE":0,"TOWNNAME":"永康區","LI":"尚頂里","LIN":"29鄰","STREET":"南台街","SECT":" ","MAREA":" ","LANE":"８９巷","ALLEY":" ","HOUSE_NO":"１９號八樓之２","E_COORD97":170206.14999999999,"N_COORD97":2546925.7999999998,"ADDRESS":"南台街８９巷１９號八樓之２","OBJECTID":390372},"geometry":{"x":170206.14999999944,"y":2546925.8000000026}},{"attributes":{"ID":390397,"DIS_CODE":0,"TOWNNAME":"永康區","LI":"尚頂里","LIN":"29鄰","STREET":"南台街","SECT":" ","MAREA":" ","LANE":"８９巷","ALLEY":" ","HOUSE_NO":"１５號五樓之１","E_COORD97":170213.16,"N_COORD97":2546941.0499999998,"ADDRESS":"南台街８９巷１５號五樓之１","OBJECTID":390373},"geometry":{"x":170213.16000000108,"y":2546941.0500000026}},{"attributes":{"ID":390398,"DIS_CODE":0,"TOWNNAME":"永康區","LI":"尚頂里","LIN":"29鄰","STREET":"南台街","SECT":" ","MAREA":" ","LANE":"８９巷","ALLEY":" ","HOUSE_NO":"１５號三樓之１","E_COORD97":170213.16,"N_COORD97":2546941.0499999998,"ADDRESS":"南台街８９巷１５號三樓之１","OBJECTID":390374},"geometry":{"x":170213.16000000108,"y":2546941.0500000026}},{"attributes":{"ID":390399,"DIS_CODE":0,"TOWNNAME":"永康區","LI":"尚頂里","LIN":"29鄰","STREET":"南台街","SECT":" ","MAREA":" ","LANE":"８９巷","ALLEY":" ","HOUSE_NO":"１３號三樓之３","E_COORD97":170214.85999999999,"N_COORD97":2546972.7999999998,"ADDRESS":"南台街８９巷１３號三樓之３","OBJECTID":390375},"geometry":{"x":170214.8599999994,"y":2546972.8000000045}},{"attributes":{"ID":390400,"DIS_CODE":0,"TOWNNAME":"永康區","LI":"尚頂里","LIN":"29鄰","STREET":"南台街","SECT":" ","MAREA":" ","LANE":"８９巷","ALLEY":" ","HOUSE_NO":"１５號四樓之２","E_COORD97":170213.29999999999,"N_COORD97":2546941.0499999998,"ADDRESS":"南台街８９巷１５號四樓之２","OBJECTID":390376},"geometry":{"x":170213.30000000075,"y":2546941.0500000026}},{"attributes":{"ID":390401,"DIS_CODE":0,"TOWNNAME":"永康區","LI":"尚頂里","LIN":"29鄰","STREET":"南台街","SECT":" ","MAREA":" ","LANE":"８９巷","ALLEY":" ","HOUSE_NO":"１３號十三樓之２","E_COORD97":170216.14999999999,"N_COORD97":2546972.7999999998,"ADDRESS":"南台街８９巷１３號十三樓之２","OBJECTID":390377},"geometry":{"x":170216.15000000037,"y":2546972.8000000045}},{"attributes":{"ID":390402,"DIS_CODE":0,"TOWNNAME":"永康區","LI":"尚頂里","LIN":"29鄰","STREET":"南台街","SECT":" ","MAREA":" ","LANE":"８９巷","ALLEY":" ","HOUSE_NO":"１７號十三樓","E_COORD97":170197.26999999999,"N_COORD97":2546926.7599999998,"ADDRESS":"南台街８９巷１７號十三樓","OBJECTID":390378},"geometry":{"x":170197.26999999955,"y":2546926.7599999998}},{"attributes":{"ID":390403,"DIS_CODE":0,"TOWNNAME":"永康區","LI":"尚頂里","LIN":"29鄰","STREET":"南台街","SECT":" ","MAREA":" ","LANE":"８９巷","ALLEY":" ","HOUSE_NO":"１３號十樓之１","E_COORD97":170214.76000000001,"N_COORD97":2546972.7999999998,"ADDRESS":"南台街８９巷１３號十樓之１","OBJECTID":390379},"geometry":{"x":170214.75999999978,"y":2546972.8000000045}},{"attributes":{"ID":390404,"DIS_CODE":0,"TOWNNAME":"東區","LI":"崇誨里","LIN":"29鄰","STREET":"林森路","SECT":"二段","MAREA":" ","LANE":"１９２巷","ALLEY":" ","HOUSE_NO":"１００號二樓之２","E_COORD97":170769.01999999999,"N_COORD97":2543338.6200000001,"ADDRESS":"林森路二段１９２巷１００號二樓之２","OBJECTID":390380},"geometry":{"x":170769.02000000142,"y":2543338.620000001}},{"attributes":{"ID":390405,"DIS_CODE":0,"TOWNNAME":"東區","LI":"崇誨里","LIN":"29鄰","STREET":"林森路","SECT":"二段","MAREA":" ","LANE":"１９２巷","ALLEY":" ","HOUSE_NO":"１００號二樓之３","E_COORD97":170778.60999999999,"N_COORD97":2543341.0499999998,"ADDRESS":"林森路二段１９２巷１００號二樓之３","OBJECTID":390381},"geometry":{"x":170778.61000000034,"y":2543341.0500000026}},{"attributes":{"ID":390406,"DIS_CODE":0,"TOWNNAME":"東區","LI":"崇誨里","LIN":"29鄰","STREET":"林森路","SECT":"二段","MAREA":" ","LANE":"１９２巷","ALLEY":" ","HOUSE_NO":"１００號三樓之３","E_COORD97":170778.60999999999,"N_COORD97":2543341.0499999998,"ADDRESS":"林森路二段１９２巷１００號三樓之３","OBJECTID":390382},"geometry":{"x":170778.61000000034,"y":2543341.0500000026}},{"attributes":{"ID":390407,"DIS_CODE":0,"TOWNNAME":"東區","LI":"崇誨里","LIN":"29鄰","STREET":"林森路","SECT":"二段","MAREA":" ","LANE":"１９２巷","ALLEY":" ","HOUSE_NO":"１００號五樓之１","E_COORD97":170775.85999999999,"N_COORD97":2543329.46,"ADDRESS":"林森路二段１９２巷１００號五樓之１","OBJECTID":390383},"geometry":{"x":170775.86000000034,"y":2543329.4600000009}},{"attributes":{"ID":390408,"DIS_CODE":0,"TOWNNAME":"東區","LI":"崇誨里","LIN":"29鄰","STREET":"林森路","SECT":"二段","MAREA":" ","LANE":"１９２巷","ALLEY":" ","HOUSE_NO":"１００號五樓之３","E_COORD97":170778.60999999999,"N_COORD97":2543341.0499999998,"ADDRESS":"林森路二段１９２巷１００號五樓之３","OBJECTID":390384},"geometry":{"x":170778.61000000034,"y":2543341.0500000026}},{"attributes":{"ID":390409,"DIS_CODE":0,"TOWNNAME":"東區","LI":"崇誨里","LIN":"29鄰","STREET":"林森路","SECT":"二段","MAREA":" ","LANE":"１９２巷","ALLEY":" ","HOUSE_NO":"１００號四樓之２","E_COORD97":170769.01999999999,"N_COORD97":2543338.6200000001,"ADDRESS":"林森路二段１９２巷１００號四樓之２","OBJECTID":390385},"geometry":{"x":170769.02000000142,"y":2543338.620000001}},{"attributes":{"ID":390410,"DIS_CODE":0,"TOWNNAME":"東區","LI":"崇誨里","LIN":"29鄰","STREET":"林森路","SECT":"二段","MAREA":" ","LANE":"１９２巷","ALLEY":" ","HOUSE_NO":"１００號四樓之３","E_COORD97":170778.60999999999,"N_COORD97":2543341.0499999998,"ADDRESS":"林森路二段１９２巷１００號四樓之３","OBJECTID":390386},"geometry":{"x":170778.61000000034,"y":2543341.0500000026}},{"attributes":{"ID":390411,"DIS_CODE":0,"TOWNNAME":"東區","LI":"崇誨里","LIN":"29鄰","STREET":"林森路","SECT":"二段","MAREA":" ","LANE":"１９２巷","ALLEY":" ","HOUSE_NO":"１００號四樓之１","E_COORD97":170775.85999999999,"N_COORD97":2543329.46,"ADDRESS":"林森路二段１９２巷１００號四樓之１","OBJECTID":390387},"geometry":{"x":170775.86000000034,"y":2543329.4600000009}},{"attributes":{"ID":390412,"DIS_CODE":0,"TOWNNAME":"永康區","LI":"尚頂里","LIN":"29鄰","STREET":"南台街","SECT":" ","MAREA":" ","LANE":"８９巷","ALLEY":" ","HOUSE_NO":"１３號之１二樓之１","E_COORD97":170218.25,"N_COORD97":2546957.0499999998,"ADDRESS":"南台街８９巷１３號之１二樓之１","OBJECTID":390388},"geometry":{"x":170218.25,"y":2546957.0500000007}},{"attributes":{"ID":390413,"DIS_CODE":0,"TOWNNAME":"東區","LI":"泉南里","LIN":"29鄰","STREET":"府連路","SECT":" ","MAREA":" ","LANE":"３４４巷","ALLEY":" ","HOUSE_NO":"５３號二樓之１","E_COORD97":169639.94,"N_COORD97":2542605.2599999998,"ADDRESS":"府連路３４４巷５３號二樓之１","OBJECTID":390389},"geometry":{"x":169639.94000000134,"y":2542605.2600000035}},{"attributes":{"ID":390414,"DIS_CODE":0,"TOWNNAME":"東區","LI":"泉南里","LIN":"29鄰","STREET":"府連路","SECT":" ","MAREA":" ","LANE":"３４４巷","ALLEY":" ","HOUSE_NO":"５３號二樓之２","E_COORD97":169639.94,"N_COORD97":2542605.2599999998,"ADDRESS":"府連路３４４巷５３號二樓之２","OBJECTID":390390},"geometry":{"x":169639.94000000134,"y":2542605.2600000035}},{"attributes":{"ID":390415,"DIS_CODE":0,"TOWNNAME":"東區","LI":"泉南里","LIN":"29鄰","STREET":"府連路","SECT":" ","MAREA":" ","LANE":"３４４巷","ALLEY":" ","HOUSE_NO":"５３號二樓之３","E_COORD97":169639.94,"N_COORD97":2542605.2599999998,"ADDRESS":"府連路３４４巷５３號二樓之３","OBJECTID":390391},"geometry":{"x":169639.94000000134,"y":2542605.2600000035}},{"attributes":{"ID":390416,"DIS_CODE":0,"TOWNNAME":"東區","LI":"泉南里","LIN":"29鄰","STREET":"府連路","SECT":" ","MAREA":" ","LANE":"３４４巷","ALLEY":" ","HOUSE_NO":"５３號二樓之５","E_COORD97":169639.94,"N_COORD97":2542605.2599999998,"ADDRESS":"府連路３４４巷５３號二樓之５","OBJECTID":390392},"geometry":{"x":169639.94000000134,"y":2542605.2600000035}},{"attributes":{"ID":390417,"DIS_CODE":0,"TOWNNAME":"東區","LI":"泉南里","LIN":"29鄰","STREET":"府連路","SECT":" ","MAREA":" ","LANE":"３４４巷","ALLEY":" ","HOUSE_NO":"５３號三樓之１","E_COORD97":169639.94,"N_COORD97":2542605.2599999998,"ADDRESS":"府連路３４４巷５３號三樓之１","OBJECTID":390393},"geometry":{"x":169639.94000000134,"y":2542605.2600000035}},{"attributes":{"ID":390418,"DIS_CODE":0,"TOWNNAME":"東區","LI":"泉南里","LIN":"29鄰","STREET":"府連路","SECT":" ","MAREA":" ","LANE":"３４４巷","ALLEY":" ","HOUSE_NO":"５３號三樓之２","E_COORD97":169639.94,"N_COORD97":2542605.2599999998,"ADDRESS":"府連路３４４巷５３號三樓之２","OBJECTID":390394},"geometry":{"x":169639.94000000134,"y":2542605.2600000035}},{"attributes":{"ID":390419,"DIS_CODE":0,"TOWNNAME":"東區","LI":"泉南里","LIN":"29鄰","STREET":"府連路","SECT":" ","MAREA":" ","LANE":"３４４巷","ALLEY":" ","HOUSE_NO":"５３號三樓之３","E_COORD97":169639.94,"N_COORD97":2542605.2599999998,"ADDRESS":"府連路３４４巷５３號三樓之３","OBJECTID":390395},"geometry":{"x":169639.94000000134,"y":2542605.2600000035}},{"attributes":{"ID":390420,"DIS_CODE":0,"TOWNNAME":"東區","LI":"泉南里","LIN":"29鄰","STREET":"府連路","SECT":" ","MAREA":" ","LANE":"３４４巷","ALLEY":" ","HOUSE_NO":"５３號三樓之５","E_COORD97":169639.94,"N_COORD97":2542605.2599999998,"ADDRESS":"府連路３４４巷５３號三樓之５","OBJECTID":390396},"geometry":{"x":169639.94000000134,"y":2542605.2600000035}},{"attributes":{"ID":390421,"DIS_CODE":0,"TOWNNAME":"東區","LI":"泉南里","LIN":"29鄰","STREET":"府連路","SECT":" ","MAREA":" ","LANE":"３４４巷","ALLEY":" ","HOUSE_NO":"５３號四樓之１","E_COORD97":169639.94,"N_COORD97":2542605.2599999998,"ADDRESS":"府連路３４４巷５３號四樓之１","OBJECTID":390397},"geometry":{"x":169639.94000000134,"y":2542605.2600000035}},{"attributes":{"ID":390422,"DIS_CODE":0,"TOWNNAME":"東區","LI":"泉南里","LIN":"29鄰","STREET":"府連路","SECT":" ","MAREA":" ","LANE":"３４４巷","ALLEY":" ","HOUSE_NO":"５３號四樓之２","E_COORD97":169639.94,"N_COORD97":2542605.2599999998,"ADDRESS":"府連路３４４巷５３號四樓之２","OBJECTID":390398},"geometry":{"x":169639.94000000134,"y":2542605.2600000035}},{"attributes":{"ID":390423,"DIS_CODE":0,"TOWNNAME":"東區","LI":"泉南里","LIN":"29鄰","STREET":"府連路","SECT":" ","MAREA":" ","LANE":"３４４巷","ALLEY":" ","HOUSE_NO":"５３號四樓之３","E_COORD97":169639.94,"N_COORD97":2542605.2599999998,"ADDRESS":"府連路３４４巷５３號四樓之３","OBJECTID":390399},"geometry":{"x":169639.94000000134,"y":2542605.2600000035}},{"attributes":{"ID":390424,"DIS_CODE":0,"TOWNNAME":"東區","LI":"泉南里","LIN":"29鄰","STREET":"府連路","SECT":" ","MAREA":" ","LANE":"３４４巷","ALLEY":" ","HOUSE_NO":"５３號四樓之５","E_COORD97":169639.94,"N_COORD97":2542605.2599999998,"ADDRESS":"府連路３４４巷５３號四樓之５","OBJECTID":390400},"geometry":{"x":169639.94000000134,"y":2542605.2600000035}}]}