{"displayFieldName":"TOWNNAME","fieldAliases":{"ID":"ID","DIS_CODE":"DIS_CODE","TOWNNAME":"TOWNNAME","LI":"LI","LIN":"LIN","STREET":"STREET","SECT":"SECT","MAREA":"MAREA","LANE":"LANE","ALLEY":"ALLEY","HOUSE_NO":"HOUSE_NO","E_COORD97":"E_COORD97","N_COORD97":"N_COORD97","ADDRESS":"ADDRESS","OBJECTID":"OBJECTID"},"geometryType":"esriGeometryPoint","spatialReference":{"wkid":102443,"latestWkid":3826},"fields":[{"name":"ID","type":"esriFieldTypeDouble","alias":"ID"},{"name":"DIS_CODE","type":"esriFieldTypeInteger","alias":"DIS_CODE"},{"name":"TOWNNAME","type":"esriFieldTypeString","alias":"TOWNNAME","length":8},{"name":"LI","type":"esriFieldTypeString","alias":"LI","length":8},{"name":"LIN","type":"esriFieldTypeString","alias":"LIN","length":12},{"name":"STREET","type":"esriFieldTypeString","alias":"STREET","length":20},{"name":"SECT","type":"esriFieldTypeString","alias":"SECT","length":8},{"name":"MAREA","type":"esriFieldTypeString","alias":"MAREA","length":12},{"name":"LANE","type":"esriFieldTypeString","alias":"LANE","length":10},{"name":"ALLEY","type":"esriFieldTypeString","alias":"ALLEY","length":10},{"name":"HOUSE_NO","type":"esriFieldTypeString","alias":"HOUSE_NO","length":20},{"name":"E_COORD97","type":"esriFieldTypeDouble","alias":"E_COORD97"},{"name":"N_COORD97","type":"esriFieldTypeDouble","alias":"N_COORD97"},{"name":"ADDRESS","type":"esriFieldTypeString","alias":"ADDRESS","length":50},{"name":"OBJECTID","type":"esriFieldTypeOID","alias":"OBJECTID"}],"features":[{"attributes":{"ID":443826,"DIS_CODE":0,"TOWNNAME":"東區","LI":"東明里","LIN":"5鄰","STREET":"怡東路","SECT":" ","MAREA":" ","LANE":"７２巷","ALLEY":" ","HOUSE_NO":"１０號二樓","E_COORD97":170901.35999999999,"N_COORD97":2543621.4399999999,"ADDRESS":"怡東路７２巷１０號二樓","OBJECTID":443801},"geometry":{"x":170901.3599999994,"y":2543621.4400000013}},{"attributes":{"ID":443827,"DIS_CODE":0,"TOWNNAME":"永康區","LI":"復國里","LIN":"4鄰","STREET":"復國一路","SECT":" ","MAREA":" ","LANE":"６８巷","ALLEY":" ","HOUSE_NO":"３３號","E_COORD97":172801.48000000001,"N_COORD97":2544878.5299999998,"ADDRESS":"復國一路６８巷３３號","OBJECTID":443802},"geometry":{"x":172801.48000000138,"y":2544878.5300000012}},{"attributes":{"ID":443828,"DIS_CODE":0,"TOWNNAME":"善化區","LI":"南關里","LIN":"5鄰","STREET":"永安路","SECT":" ","MAREA":" ","LANE":"６６巷","ALLEY":" ","HOUSE_NO":"５號","E_COORD97":177065.82000000001,"N_COORD97":2558722.3900000001,"ADDRESS":"永安路６６巷５號","OBJECTID":443803},"geometry":{"x":177065.82000000123,"y":2558722.3900000006}},{"attributes":{"ID":443829,"DIS_CODE":0,"TOWNNAME":"永康區","LI":"復華里","LIN":"1鄰","STREET":"復國二路","SECT":" ","MAREA":" ","LANE":"２１２巷","ALLEY":" ","HOUSE_NO":"６號","E_COORD97":172988.76999999999,"N_COORD97":2545864.52,"ADDRESS":"復國二路２１２巷６號","OBJECTID":443804},"geometry":{"x":172988.77000000048,"y":2545864.5200000033}},{"attributes":{"ID":443830,"DIS_CODE":0,"TOWNNAME":"新化區","LI":"東榮里","LIN":"14鄰","STREET":"中興路","SECT":" ","MAREA":" ","LANE":"５９５巷","ALLEY":" ","HOUSE_NO":"９號","E_COORD97":179840.91,"N_COORD97":2547900.25,"ADDRESS":"中興路５９５巷９號","OBJECTID":443805},"geometry":{"x":179840.91000000015,"y":2547900.25}},{"attributes":{"ID":443831,"DIS_CODE":0,"TOWNNAME":"永康區","LI":"復華里","LIN":"32鄰","STREET":"復華十街","SECT":" ","MAREA":" ","LANE":"３９巷","ALLEY":" ","HOUSE_NO":"１７號","E_COORD97":172590.17999999999,"N_COORD97":2546352.27,"ADDRESS":"復華十街３９巷１７號","OBJECTID":443806},"geometry":{"x":172590.1799999997,"y":2546352.2700000014}},{"attributes":{"ID":443832,"DIS_CODE":0,"TOWNNAME":"中西區","LI":"郡王里","LIN":"5鄰","STREET":"大埔街","SECT":" ","MAREA":" ","LANE":"８９巷","ALLEY":" ","HOUSE_NO":"５３號一樓","E_COORD97":168828.51000000001,"N_COORD97":2543004.79,"ADDRESS":"大埔街８９巷５３號一樓","OBJECTID":443807},"geometry":{"x":168828.51000000071,"y":2543004.790000001}},{"attributes":{"ID":443833,"DIS_CODE":0,"TOWNNAME":"中西區","LI":"郡王里","LIN":"5鄰","STREET":"大埔街","SECT":" ","MAREA":" ","LANE":"８９巷","ALLEY":" ","HOUSE_NO":"５３號二樓之１","E_COORD97":168828.51000000001,"N_COORD97":2543004.79,"ADDRESS":"大埔街８９巷５３號二樓之１","OBJECTID":443808},"geometry":{"x":168828.51000000071,"y":2543004.790000001}},{"attributes":{"ID":443834,"DIS_CODE":0,"TOWNNAME":"中西區","LI":"郡王里","LIN":"5鄰","STREET":"大埔街","SECT":" ","MAREA":" ","LANE":"８９巷","ALLEY":" ","HOUSE_NO":"５３號二樓之２","E_COORD97":168828.20999999999,"N_COORD97":2543001.4300000002,"ADDRESS":"大埔街８９巷５３號二樓之２","OBJECTID":443809},"geometry":{"x":168828.20999999996,"y":2543001.4300000016}},{"attributes":{"ID":443835,"DIS_CODE":0,"TOWNNAME":"中西區","LI":"郡王里","LIN":"5鄰","STREET":"大埔街","SECT":" ","MAREA":" ","LANE":"８９巷","ALLEY":" ","HOUSE_NO":"５３號三樓之１","E_COORD97":168828.51000000001,"N_COORD97":2543004.79,"ADDRESS":"大埔街８９巷５３號三樓之１","OBJECTID":443810},"geometry":{"x":168828.51000000071,"y":2543004.790000001}},{"attributes":{"ID":443836,"DIS_CODE":0,"TOWNNAME":"中西區","LI":"郡王里","LIN":"5鄰","STREET":"大埔街","SECT":" ","MAREA":" ","LANE":"８９巷","ALLEY":" ","HOUSE_NO":"５３號三樓之２","E_COORD97":168828.20999999999,"N_COORD97":2543001.4300000002,"ADDRESS":"大埔街８９巷５３號三樓之２","OBJECTID":443811},"geometry":{"x":168828.20999999996,"y":2543001.4300000016}},{"attributes":{"ID":443837,"DIS_CODE":0,"TOWNNAME":"東山區","LI":"東中里","LIN":"26鄰","STREET":"成功街","SECT":" ","MAREA":" ","LANE":" ","ALLEY":" ","HOUSE_NO":"６號","E_COORD97":188796.28,"N_COORD97":2579869.25,"ADDRESS":"成功街６號","OBJECTID":443812},"geometry":{"x":188796.27999999933,"y":2579869.2500000037}},{"attributes":{"ID":443838,"DIS_CODE":0,"TOWNNAME":"中西區","LI":"郡王里","LIN":"5鄰","STREET":"大埔街","SECT":" ","MAREA":" ","LANE":"８９巷","ALLEY":" ","HOUSE_NO":"５３號五樓","E_COORD97":168828.51000000001,"N_COORD97":2543004.79,"ADDRESS":"大埔街８９巷５３號五樓","OBJECTID":443813},"geometry":{"x":168828.51000000071,"y":2543004.790000001}},{"attributes":{"ID":443839,"DIS_CODE":0,"TOWNNAME":"七股區","LI":"義合里","LIN":"2鄰","STREET":" ","SECT":" ","MAREA":"義合","LANE":" ","ALLEY":" ","HOUSE_NO":"１５號之５","E_COORD97":162923.19905200001,"N_COORD97":2556452.7310899999,"ADDRESS":"義合１５號之５","OBJECTID":443814},"geometry":{"x":162923.19905200042,"y":2556452.731091002}},{"attributes":{"ID":443840,"DIS_CODE":0,"TOWNNAME":"中西區","LI":"郡王里","LIN":"5鄰","STREET":"大埔街","SECT":" ","MAREA":" ","LANE":"８９巷","ALLEY":" ","HOUSE_NO":"５３號四樓之１","E_COORD97":168828.51000000001,"N_COORD97":2543004.79,"ADDRESS":"大埔街８９巷５３號四樓之１","OBJECTID":443815},"geometry":{"x":168828.51000000071,"y":2543004.790000001}},{"attributes":{"ID":443841,"DIS_CODE":0,"TOWNNAME":"中西區","LI":"郡王里","LIN":"5鄰","STREET":"大埔街","SECT":" ","MAREA":" ","LANE":"８９巷","ALLEY":" ","HOUSE_NO":"５３號四樓之２","E_COORD97":168828.20999999999,"N_COORD97":2543001.4300000002,"ADDRESS":"大埔街８９巷５３號四樓之２","OBJECTID":443816},"geometry":{"x":168828.20999999996,"y":2543001.4300000016}},{"attributes":{"ID":443842,"DIS_CODE":0,"TOWNNAME":"永康區","LI":"崑山里","LIN":"34鄰","STREET":"大仁街","SECT":" ","MAREA":" ","LANE":"１２５巷","ALLEY":" ","HOUSE_NO":"２２號","E_COORD97":173807.07000000001,"N_COORD97":2544873.6600000001,"ADDRESS":"大仁街１２５巷２２號","OBJECTID":443817},"geometry":{"x":173807.0700000003,"y":2544873.6600000001}},{"attributes":{"ID":443843,"DIS_CODE":0,"TOWNNAME":"中西區","LI":"永華里","LIN":"5鄰","STREET":"府前路","SECT":"一段","MAREA":" ","LANE":"１９６巷","ALLEY":" ","HOUSE_NO":"１８號一樓之１","E_COORD97":168529.79000000001,"N_COORD97":2543362.1000000001,"ADDRESS":"府前路一段１９６巷１８號一樓之１","OBJECTID":443818},"geometry":{"x":168529.79000000004,"y":2543362.1000000034}},{"attributes":{"ID":443844,"DIS_CODE":0,"TOWNNAME":"中西區","LI":"永華里","LIN":"5鄰","STREET":"府前路","SECT":"一段","MAREA":" ","LANE":"１９６巷","ALLEY":" ","HOUSE_NO":"１８號一樓之２","E_COORD97":168529.79000000001,"N_COORD97":2543362.1000000001,"ADDRESS":"府前路一段１９６巷１８號一樓之２","OBJECTID":443819},"geometry":{"x":168529.79000000004,"y":2543362.1000000034}},{"attributes":{"ID":443845,"DIS_CODE":0,"TOWNNAME":"中西區","LI":"永華里","LIN":"5鄰","STREET":"府前路","SECT":"一段","MAREA":" ","LANE":"１９６巷","ALLEY":" ","HOUSE_NO":"１８號一樓之３","E_COORD97":168529.79000000001,"N_COORD97":2543362.1000000001,"ADDRESS":"府前路一段１９６巷１８號一樓之３","OBJECTID":443820},"geometry":{"x":168529.79000000004,"y":2543362.1000000034}},{"attributes":{"ID":443846,"DIS_CODE":0,"TOWNNAME":"中西區","LI":"永華里","LIN":"5鄰","STREET":"府前路","SECT":"一段","MAREA":" ","LANE":"１９６巷","ALLEY":" ","HOUSE_NO":"１８號一樓之４","E_COORD97":168529.79000000001,"N_COORD97":2543362.1000000001,"ADDRESS":"府前路一段１９６巷１８號一樓之４","OBJECTID":443821},"geometry":{"x":168529.79000000004,"y":2543362.1000000034}},{"attributes":{"ID":443847,"DIS_CODE":0,"TOWNNAME":"中西區","LI":"永華里","LIN":"5鄰","STREET":"府前路","SECT":"一段","MAREA":" ","LANE":"１９６巷","ALLEY":" ","HOUSE_NO":"１８號二樓之１","E_COORD97":168529.79000000001,"N_COORD97":2543362.1000000001,"ADDRESS":"府前路一段１９６巷１８號二樓之１","OBJECTID":443822},"geometry":{"x":168529.79000000004,"y":2543362.1000000034}},{"attributes":{"ID":443848,"DIS_CODE":0,"TOWNNAME":"中西區","LI":"永華里","LIN":"5鄰","STREET":"府前路","SECT":"一段","MAREA":" ","LANE":"１９６巷","ALLEY":" ","HOUSE_NO":"１８號二樓之２","E_COORD97":168529.79000000001,"N_COORD97":2543362.1000000001,"ADDRESS":"府前路一段１９６巷１８號二樓之２","OBJECTID":443823},"geometry":{"x":168529.79000000004,"y":2543362.1000000034}},{"attributes":{"ID":443849,"DIS_CODE":0,"TOWNNAME":"中西區","LI":"永華里","LIN":"5鄰","STREET":"府前路","SECT":"一段","MAREA":" ","LANE":"１９６巷","ALLEY":" ","HOUSE_NO":"１８號二樓之３","E_COORD97":168529.79000000001,"N_COORD97":2543362.1000000001,"ADDRESS":"府前路一段１９６巷１８號二樓之３","OBJECTID":443824},"geometry":{"x":168529.79000000004,"y":2543362.1000000034}},{"attributes":{"ID":443850,"DIS_CODE":0,"TOWNNAME":"中西區","LI":"永華里","LIN":"5鄰","STREET":"府前路","SECT":"一段","MAREA":" ","LANE":"１９６巷","ALLEY":" ","HOUSE_NO":"１８號三樓之３","E_COORD97":168529.79000000001,"N_COORD97":2543362.1000000001,"ADDRESS":"府前路一段１９６巷１８號三樓之３","OBJECTID":443825},"geometry":{"x":168529.79000000004,"y":2543362.1000000034}},{"attributes":{"ID":443851,"DIS_CODE":0,"TOWNNAME":"中西區","LI":"永華里","LIN":"5鄰","STREET":"府前路","SECT":"一段","MAREA":" ","LANE":"１９６巷","ALLEY":" ","HOUSE_NO":"１８號三樓之４","E_COORD97":168529.79000000001,"N_COORD97":2543362.1000000001,"ADDRESS":"府前路一段１９６巷１８號三樓之４","OBJECTID":443826},"geometry":{"x":168529.79000000004,"y":2543362.1000000034}},{"attributes":{"ID":443852,"DIS_CODE":0,"TOWNNAME":"中西區","LI":"永華里","LIN":"5鄰","STREET":"府前路","SECT":"一段","MAREA":" ","LANE":"１９６巷","ALLEY":" ","HOUSE_NO":"１８號五樓之１","E_COORD97":168529.79000000001,"N_COORD97":2543362.1000000001,"ADDRESS":"府前路一段１９６巷１８號五樓之１","OBJECTID":443827},"geometry":{"x":168529.79000000004,"y":2543362.1000000034}},{"attributes":{"ID":443853,"DIS_CODE":0,"TOWNNAME":"中西區","LI":"永華里","LIN":"5鄰","STREET":"府前路","SECT":"一段","MAREA":" ","LANE":"１９６巷","ALLEY":" ","HOUSE_NO":"１８號五樓之２","E_COORD97":168529.79000000001,"N_COORD97":2543362.1000000001,"ADDRESS":"府前路一段１９６巷１８號五樓之２","OBJECTID":443828},"geometry":{"x":168529.79000000004,"y":2543362.1000000034}},{"attributes":{"ID":443854,"DIS_CODE":0,"TOWNNAME":"中西區","LI":"永華里","LIN":"5鄰","STREET":"府前路","SECT":"一段","MAREA":" ","LANE":"１９６巷","ALLEY":" ","HOUSE_NO":"１８號五樓之３","E_COORD97":168529.79000000001,"N_COORD97":2543362.1000000001,"ADDRESS":"府前路一段１９６巷１８號五樓之３","OBJECTID":443829},"geometry":{"x":168529.79000000004,"y":2543362.1000000034}},{"attributes":{"ID":443855,"DIS_CODE":0,"TOWNNAME":"中西區","LI":"永華里","LIN":"5鄰","STREET":"府前路","SECT":"一段","MAREA":" ","LANE":"１９６巷","ALLEY":" ","HOUSE_NO":"１８號五樓之４","E_COORD97":168529.79000000001,"N_COORD97":2543362.1000000001,"ADDRESS":"府前路一段１９６巷１８號五樓之４","OBJECTID":443830},"geometry":{"x":168529.79000000004,"y":2543362.1000000034}},{"attributes":{"ID":443856,"DIS_CODE":0,"TOWNNAME":"中西區","LI":"永華里","LIN":"5鄰","STREET":"府前路","SECT":"一段","MAREA":" ","LANE":"１９６巷","ALLEY":" ","HOUSE_NO":"１８號五樓之５","E_COORD97":168529.79000000001,"N_COORD97":2543362.1000000001,"ADDRESS":"府前路一段１９６巷１８號五樓之５","OBJECTID":443831},"geometry":{"x":168529.79000000004,"y":2543362.1000000034}},{"attributes":{"ID":443857,"DIS_CODE":0,"TOWNNAME":"中西區","LI":"永華里","LIN":"5鄰","STREET":"府前路","SECT":"一段","MAREA":" ","LANE":"１９６巷","ALLEY":" ","HOUSE_NO":"１８號四樓之１","E_COORD97":168529.79000000001,"N_COORD97":2543362.1000000001,"ADDRESS":"府前路一段１９６巷１８號四樓之１","OBJECTID":443832},"geometry":{"x":168529.79000000004,"y":2543362.1000000034}},{"attributes":{"ID":443858,"DIS_CODE":0,"TOWNNAME":"中西區","LI":"永華里","LIN":"5鄰","STREET":"府前路","SECT":"一段","MAREA":" ","LANE":"１９６巷","ALLEY":" ","HOUSE_NO":"１８號四樓之２","E_COORD97":168529.79000000001,"N_COORD97":2543362.1000000001,"ADDRESS":"府前路一段１９６巷１８號四樓之２","OBJECTID":443833},"geometry":{"x":168529.79000000004,"y":2543362.1000000034}},{"attributes":{"ID":443859,"DIS_CODE":0,"TOWNNAME":"東區","LI":"崇文里","LIN":"40鄰","STREET":"生產路","SECT":" ","MAREA":" ","LANE":" ","ALLEY":" ","HOUSE_NO":"２６９號十二樓","E_COORD97":170885.10999999999,"N_COORD97":2540617.8100000001,"ADDRESS":"生產路２６９號十二樓","OBJECTID":443834},"geometry":{"x":170885.11000000127,"y":2540617.8100000005}},{"attributes":{"ID":443860,"DIS_CODE":0,"TOWNNAME":"中西區","LI":"永華里","LIN":"5鄰","STREET":"府前路","SECT":"一段","MAREA":" ","LANE":"１９６巷","ALLEY":" ","HOUSE_NO":"１８號四樓之３","E_COORD97":168529.79000000001,"N_COORD97":2543362.1000000001,"ADDRESS":"府前路一段１９６巷１８號四樓之３","OBJECTID":443835},"geometry":{"x":168529.79000000004,"y":2543362.1000000034}},{"attributes":{"ID":443861,"DIS_CODE":0,"TOWNNAME":"中西區","LI":"永華里","LIN":"5鄰","STREET":"府前路","SECT":"一段","MAREA":" ","LANE":"１９６巷","ALLEY":" ","HOUSE_NO":"１８號四樓之４","E_COORD97":168529.79000000001,"N_COORD97":2543362.1000000001,"ADDRESS":"府前路一段１９６巷１８號四樓之４","OBJECTID":443836},"geometry":{"x":168529.79000000004,"y":2543362.1000000034}},{"attributes":{"ID":443862,"DIS_CODE":0,"TOWNNAME":"中西區","LI":"永華里","LIN":"5鄰","STREET":"府前路","SECT":"一段","MAREA":" ","LANE":"１９６巷","ALLEY":" ","HOUSE_NO":"１８號四樓之５","E_COORD97":168529.79000000001,"N_COORD97":2543362.1000000001,"ADDRESS":"府前路一段１９６巷１８號四樓之５","OBJECTID":443837},"geometry":{"x":168529.79000000004,"y":2543362.1000000034}},{"attributes":{"ID":443863,"DIS_CODE":0,"TOWNNAME":"中西區","LI":"永華里","LIN":"5鄰","STREET":"府前路","SECT":"一段","MAREA":" ","LANE":"１９６巷","ALLEY":" ","HOUSE_NO":"１８號四樓之６","E_COORD97":168529.79000000001,"N_COORD97":2543362.1000000001,"ADDRESS":"府前路一段１９６巷１８號四樓之６","OBJECTID":443838},"geometry":{"x":168529.79000000004,"y":2543362.1000000034}},{"attributes":{"ID":443864,"DIS_CODE":0,"TOWNNAME":"永康區","LI":"復國里","LIN":"4鄰","STREET":"復國一路","SECT":" ","MAREA":" ","LANE":"６８巷","ALLEY":" ","HOUSE_NO":"２８號","E_COORD97":172790.51999999999,"N_COORD97":2544860.2400000002,"ADDRESS":"復國一路６８巷２８號","OBJECTID":443839},"geometry":{"x":172790.52000000048,"y":2544860.2400000039}},{"attributes":{"ID":443865,"DIS_CODE":0,"TOWNNAME":"永康區","LI":"網寮里","LIN":"5鄰","STREET":"永勝街","SECT":" ","MAREA":" ","LANE":"１０６巷","ALLEY":" ","HOUSE_NO":"１１號六樓之２","E_COORD97":173578.42999999999,"N_COORD97":2546357.4700000002,"ADDRESS":"永勝街１０６巷１１號六樓之２","OBJECTID":443840},"geometry":{"x":173578.4299999997,"y":2546357.4699999988}},{"attributes":{"ID":443866,"DIS_CODE":0,"TOWNNAME":"永康區","LI":"網寮里","LIN":"5鄰","STREET":"永勝街","SECT":" ","MAREA":" ","LANE":"１０６巷","ALLEY":" ","HOUSE_NO":"１７號六樓之２","E_COORD97":173587.39000000001,"N_COORD97":2546361.21,"ADDRESS":"永勝街１０６巷１７號六樓之２","OBJECTID":443841},"geometry":{"x":173587.39000000153,"y":2546361.2100000028}},{"attributes":{"ID":443867,"DIS_CODE":0,"TOWNNAME":"永康區","LI":"網寮里","LIN":"5鄰","STREET":"永勝街","SECT":" ","MAREA":" ","LANE":"１０６巷","ALLEY":" ","HOUSE_NO":"１１號五樓之２","E_COORD97":173578.42999999999,"N_COORD97":2546357.4700000002,"ADDRESS":"永勝街１０６巷１１號五樓之２","OBJECTID":443842},"geometry":{"x":173578.4299999997,"y":2546357.4699999988}},{"attributes":{"ID":443868,"DIS_CODE":0,"TOWNNAME":"永康區","LI":"網寮里","LIN":"5鄰","STREET":"永勝街","SECT":" ","MAREA":" ","LANE":"１０６巷","ALLEY":" ","HOUSE_NO":"１１號七樓之２","E_COORD97":173578.42999999999,"N_COORD97":2546357.4700000002,"ADDRESS":"永勝街１０６巷１１號七樓之２","OBJECTID":443843},"geometry":{"x":173578.4299999997,"y":2546357.4699999988}},{"attributes":{"ID":443869,"DIS_CODE":0,"TOWNNAME":"永康區","LI":"網寮里","LIN":"5鄰","STREET":"永勝街","SECT":" ","MAREA":" ","LANE":"１０６巷","ALLEY":" ","HOUSE_NO":"１１號六樓之３","E_COORD97":173578.39999999999,"N_COORD97":2546357.4700000002,"ADDRESS":"永勝街１０６巷１１號六樓之３","OBJECTID":443844},"geometry":{"x":173578.4000000013,"y":2546357.4699999988}},{"attributes":{"ID":443870,"DIS_CODE":0,"TOWNNAME":"永康區","LI":"網寮里","LIN":"5鄰","STREET":"永勝街","SECT":" ","MAREA":" ","LANE":"１０６巷","ALLEY":" ","HOUSE_NO":"１５號二樓","E_COORD97":173577.38,"N_COORD97":2546386.7599999998,"ADDRESS":"永勝街１０６巷１５號二樓","OBJECTID":443845},"geometry":{"x":173577.37999999989,"y":2546386.7600000016}},{"attributes":{"ID":443871,"DIS_CODE":0,"TOWNNAME":"永康區","LI":"復華里","LIN":"5鄰","STREET":"國華街","SECT":" ","MAREA":" ","LANE":"１０２巷","ALLEY":" ","HOUSE_NO":"８８號六樓之２","E_COORD97":172989.14999999999,"N_COORD97":2546133.2799999998,"ADDRESS":"國華街１０２巷８８號六樓之２","OBJECTID":443846},"geometry":{"x":172989.15000000037,"y":2546133.2799999993}},{"attributes":{"ID":443872,"DIS_CODE":0,"TOWNNAME":"永康區","LI":"復華里","LIN":"5鄰","STREET":"國華街","SECT":" ","MAREA":" ","LANE":"１０２巷","ALLEY":" ","HOUSE_NO":"８８號五樓之２","E_COORD97":172989.14999999999,"N_COORD97":2546133.2799999998,"ADDRESS":"國華街１０２巷８８號五樓之２","OBJECTID":443847},"geometry":{"x":172989.15000000037,"y":2546133.2799999993}},{"attributes":{"ID":443873,"DIS_CODE":0,"TOWNNAME":"永康區","LI":"復華里","LIN":"5鄰","STREET":"國華街","SECT":" ","MAREA":" ","LANE":"１０２巷","ALLEY":" ","HOUSE_NO":"８６號九樓之１","E_COORD97":172977.10999999999,"N_COORD97":2546138.5299999998,"ADDRESS":"國華街１０２巷８６號九樓之１","OBJECTID":443848},"geometry":{"x":172977.11000000127,"y":2546138.5299999993}},{"attributes":{"ID":443874,"DIS_CODE":0,"TOWNNAME":"永康區","LI":"復華里","LIN":"5鄰","STREET":"國華街","SECT":" ","MAREA":" ","LANE":"１０２巷","ALLEY":" ","HOUSE_NO":"８６號七樓之２","E_COORD97":172977.23999999999,"N_COORD97":2546138.5299999998,"ADDRESS":"國華街１０２巷８６號七樓之２","OBJECTID":443849},"geometry":{"x":172977.24000000115,"y":2546138.5299999993}},{"attributes":{"ID":443875,"DIS_CODE":0,"TOWNNAME":"永康區","LI":"復華里","LIN":"5鄰","STREET":"國華街","SECT":" ","MAREA":" ","LANE":"１０２巷","ALLEY":" ","HOUSE_NO":"８６號九樓之２","E_COORD97":172977.23999999999,"N_COORD97":2546138.5299999998,"ADDRESS":"國華街１０２巷８６號九樓之２","OBJECTID":443850},"geometry":{"x":172977.24000000115,"y":2546138.5299999993}},{"attributes":{"ID":443876,"DIS_CODE":0,"TOWNNAME":"永康區","LI":"復華里","LIN":"5鄰","STREET":"國華街","SECT":" ","MAREA":" ","LANE":"１０２巷","ALLEY":" ","HOUSE_NO":"８０號七樓之１","E_COORD97":172951.17999999999,"N_COORD97":2546166.52,"ADDRESS":"國華街１０２巷８０號七樓之１","OBJECTID":443851},"geometry":{"x":172951.1799999997,"y":2546166.5200000033}},{"attributes":{"ID":443877,"DIS_CODE":0,"TOWNNAME":"永康區","LI":"復華里","LIN":"5鄰","STREET":"國華街","SECT":" ","MAREA":" ","LANE":"１０２巷","ALLEY":" ","HOUSE_NO":"８８號三樓之２","E_COORD97":172989.14999999999,"N_COORD97":2546133.2799999998,"ADDRESS":"國華街１０２巷８８號三樓之２","OBJECTID":443852},"geometry":{"x":172989.15000000037,"y":2546133.2799999993}},{"attributes":{"ID":443878,"DIS_CODE":0,"TOWNNAME":"永康區","LI":"復華里","LIN":"5鄰","STREET":"國華街","SECT":" ","MAREA":" ","LANE":"１０２巷","ALLEY":" ","HOUSE_NO":"８８號九樓之１","E_COORD97":172989.01999999999,"N_COORD97":2546133.2799999998,"ADDRESS":"國華街１０２巷８８號九樓之１","OBJECTID":443853},"geometry":{"x":172989.01999999955,"y":2546133.2799999993}},{"attributes":{"ID":443879,"DIS_CODE":0,"TOWNNAME":"永康區","LI":"復華里","LIN":"5鄰","STREET":"國華街","SECT":" ","MAREA":" ","LANE":"１０２巷","ALLEY":" ","HOUSE_NO":"８８號十二樓之２","E_COORD97":172990.39999999999,"N_COORD97":2546133.2799999998,"ADDRESS":"國華街１０２巷８８號十二樓之２","OBJECTID":443854},"geometry":{"x":172990.4000000013,"y":2546133.2799999993}},{"attributes":{"ID":443880,"DIS_CODE":0,"TOWNNAME":"永康區","LI":"崑山里","LIN":"13鄰","STREET":"大灣路","SECT":" ","MAREA":" ","LANE":"１０２０巷","ALLEY":" ","HOUSE_NO":"２號","E_COORD97":173437.64999999999,"N_COORD97":2544414.3599999999,"ADDRESS":"大灣路１０２０巷２號","OBJECTID":443855},"geometry":{"x":173437.6500000013,"y":2544414.3600000031}},{"attributes":{"ID":443881,"DIS_CODE":0,"TOWNNAME":"永康區","LI":"復華里","LIN":"5鄰","STREET":"國華街","SECT":" ","MAREA":" ","LANE":"１０２巷","ALLEY":" ","HOUSE_NO":"８６號七樓之１","E_COORD97":172977.10999999999,"N_COORD97":2546138.5299999998,"ADDRESS":"國華街１０２巷８６號七樓之１","OBJECTID":443856},"geometry":{"x":172977.11000000127,"y":2546138.5299999993}},{"attributes":{"ID":443882,"DIS_CODE":0,"TOWNNAME":"永康區","LI":"復華里","LIN":"5鄰","STREET":"國華街","SECT":" ","MAREA":" ","LANE":"１０２巷","ALLEY":" ","HOUSE_NO":"８８號三樓之１","E_COORD97":172989.01999999999,"N_COORD97":2546133.2799999998,"ADDRESS":"國華街１０２巷８８號三樓之１","OBJECTID":443857},"geometry":{"x":172989.01999999955,"y":2546133.2799999993}},{"attributes":{"ID":443883,"DIS_CODE":0,"TOWNNAME":"永康區","LI":"復華里","LIN":"5鄰","STREET":"國華街","SECT":" ","MAREA":" ","LANE":"１０２巷","ALLEY":" ","HOUSE_NO":"８８號四樓之２","E_COORD97":172989.14999999999,"N_COORD97":2546133.2799999998,"ADDRESS":"國華街１０２巷８８號四樓之２","OBJECTID":443858},"geometry":{"x":172989.15000000037,"y":2546133.2799999993}},{"attributes":{"ID":443884,"DIS_CODE":0,"TOWNNAME":"永康區","LI":"網寮里","LIN":"5鄰","STREET":"永勝街","SECT":" ","MAREA":" ","LANE":"１０６巷","ALLEY":" ","HOUSE_NO":"９號","E_COORD97":173569.66,"N_COORD97":2546353.9300000002,"ADDRESS":"永勝街１０６巷９號","OBJECTID":443859},"geometry":{"x":173569.66000000108,"y":2546353.9300000016}},{"attributes":{"ID":443885,"DIS_CODE":0,"TOWNNAME":"永康區","LI":"復國里","LIN":"5鄰","STREET":"復國一路","SECT":" ","MAREA":" ","LANE":"９０巷","ALLEY":" ","HOUSE_NO":"６０號","E_COORD97":172811.39000000001,"N_COORD97":2544926.02,"ADDRESS":"復國一路９０巷６０號","OBJECTID":443860},"geometry":{"x":172811.3900000006,"y":2544926.0200000014}},{"attributes":{"ID":443886,"DIS_CODE":0,"TOWNNAME":"永康區","LI":"復國里","LIN":"5鄰","STREET":"復國一路","SECT":" ","MAREA":" ","LANE":"９０巷","ALLEY":" ","HOUSE_NO":"５８號","E_COORD97":172807.25,"N_COORD97":2544925.52,"ADDRESS":"復國一路９０巷５８號","OBJECTID":443861},"geometry":{"x":172807.25000000186,"y":2544925.5200000033}},{"attributes":{"ID":443887,"DIS_CODE":0,"TOWNNAME":"永康區","LI":"復國里","LIN":"5鄰","STREET":"復國一路","SECT":" ","MAREA":" ","LANE":"９０巷","ALLEY":" ","HOUSE_NO":"６４號","E_COORD97":172819.64999999999,"N_COORD97":2544926.52,"ADDRESS":"復國一路９０巷６４號","OBJECTID":443862},"geometry":{"x":172819.65000000037,"y":2544926.5200000014}},{"attributes":{"ID":443888,"DIS_CODE":0,"TOWNNAME":"永康區","LI":"復國里","LIN":"5鄰","STREET":"復國一路","SECT":" ","MAREA":" ","LANE":"９０巷","ALLEY":" ","HOUSE_NO":"３９號","E_COORD97":172769.54000000001,"N_COORD97":2544939.2999999998,"ADDRESS":"復國一路９０巷３９號","OBJECTID":443863},"geometry":{"x":172769.54000000004,"y":2544939.3000000026}},{"attributes":{"ID":443889,"DIS_CODE":0,"TOWNNAME":"永康區","LI":"復國里","LIN":"5鄰","STREET":"復國一路","SECT":" ","MAREA":" ","LANE":"９０巷","ALLEY":" ","HOUSE_NO":"５６號","E_COORD97":172802.48999999999,"N_COORD97":2544925.02,"ADDRESS":"復國一路９０巷５６號","OBJECTID":443864},"geometry":{"x":172802.49000000209,"y":2544925.0199999996}},{"attributes":{"ID":443890,"DIS_CODE":0,"TOWNNAME":"永康區","LI":"復國里","LIN":"5鄰","STREET":"復國一路","SECT":" ","MAREA":" ","LANE":"９０巷","ALLEY":" ","HOUSE_NO":"４８號","E_COORD97":172800.45000000001,"N_COORD97":2544899.2799999998,"ADDRESS":"復國一路９０巷４８號","OBJECTID":443865},"geometry":{"x":172800.45000000019,"y":2544899.2799999993}},{"attributes":{"ID":443891,"DIS_CODE":0,"TOWNNAME":"永康區","LI":"復國里","LIN":"5鄰","STREET":"復國一路","SECT":" ","MAREA":" ","LANE":"９０巷","ALLEY":" ","HOUSE_NO":"５２號","E_COORD97":172800.04999999999,"N_COORD97":2544907.02,"ADDRESS":"復國一路９０巷５２號","OBJECTID":443866},"geometry":{"x":172800.05000000168,"y":2544907.0199999996}},{"attributes":{"ID":443892,"DIS_CODE":0,"TOWNNAME":"永康區","LI":"復國里","LIN":"5鄰","STREET":"復國一路","SECT":" ","MAREA":" ","LANE":"９０巷","ALLEY":" ","HOUSE_NO":"４２號","E_COORD97":172790.84,"N_COORD97":2544898.5299999998,"ADDRESS":"復國一路９０巷４２號","OBJECTID":443867},"geometry":{"x":172790.83999999985,"y":2544898.5300000012}},{"attributes":{"ID":443893,"DIS_CODE":0,"TOWNNAME":"永康區","LI":"復國里","LIN":"5鄰","STREET":"復國一路","SECT":" ","MAREA":" ","LANE":"９０巷","ALLEY":" ","HOUSE_NO":"３７號","E_COORD97":172765.48999999999,"N_COORD97":2544938.7999999998,"ADDRESS":"復國一路９０巷３７號","OBJECTID":443868},"geometry":{"x":172765.49000000115,"y":2544938.8000000026}},{"attributes":{"ID":443894,"DIS_CODE":0,"TOWNNAME":"永康區","LI":"二王里","LIN":"5鄰","STREET":"永二街","SECT":" ","MAREA":" ","LANE":"３５８巷","ALLEY":" ","HOUSE_NO":"１３號之１","E_COORD97":172911.73000000001,"N_COORD97":2546728.25,"ADDRESS":"永二街３５８巷１３號之１","OBJECTID":443869},"geometry":{"x":172911.73000000138,"y":2546728.2500000037}},{"attributes":{"ID":443895,"DIS_CODE":0,"TOWNNAME":"永康區","LI":"三合里","LIN":"5鄰","STREET":"南工街","SECT":" ","MAREA":" ","LANE":"６６巷","ALLEY":" ","HOUSE_NO":"６號","E_COORD97":172129.79999999999,"N_COORD97":2545646.1099999999,"ADDRESS":"南工街６６巷６號","OBJECTID":443870},"geometry":{"x":172129.79999999981,"y":2545646.1099999994}},{"attributes":{"ID":443896,"DIS_CODE":0,"TOWNNAME":"東區","LI":"崇善里","LIN":"5鄰","STREET":"崇善五街","SECT":" ","MAREA":" ","LANE":"６８巷","ALLEY":" ","HOUSE_NO":"７號","E_COORD97":171167.66,"N_COORD97":2541593.8799999999,"ADDRESS":"崇善五街６８巷７號","OBJECTID":443871},"geometry":{"x":171167.66000000108,"y":2541593.8800000008}},{"attributes":{"ID":443897,"DIS_CODE":0,"TOWNNAME":"永康區","LI":"三民里","LIN":"5鄰","STREET":"三民街","SECT":" ","MAREA":" ","LANE":"９０巷","ALLEY":" ","HOUSE_NO":"４５號","E_COORD97":173019.31,"N_COORD97":2550388.4500000002,"ADDRESS":"三民街９０巷４５號","OBJECTID":443872},"geometry":{"x":173019.30999999959,"y":2550388.4500000011}},{"attributes":{"ID":443898,"DIS_CODE":0,"TOWNNAME":"永康區","LI":"大灣里","LIN":"5鄰","STREET":"大民街","SECT":" ","MAREA":" ","LANE":"１２９巷","ALLEY":" ","HOUSE_NO":"３號","E_COORD97":174910.23000000001,"N_COORD97":2545615.71,"ADDRESS":"大民街１２９巷３號","OBJECTID":443873},"geometry":{"x":174910.23000000138,"y":2545615.7100000009}},{"attributes":{"ID":443899,"DIS_CODE":0,"TOWNNAME":"永康區","LI":"三民里","LIN":"5鄰","STREET":"三民街","SECT":" ","MAREA":" ","LANE":"９０巷","ALLEY":" ","HOUSE_NO":"３３號","E_COORD97":172987.85000000001,"N_COORD97":2550368.3100000001,"ADDRESS":"三民街９０巷３３號","OBJECTID":443874},"geometry":{"x":172987.85000000056,"y":2550368.3100000005}},{"attributes":{"ID":443900,"DIS_CODE":0,"TOWNNAME":"永康區","LI":"大灣里","LIN":"5鄰","STREET":"大民街","SECT":" ","MAREA":" ","LANE":"１２９巷","ALLEY":" ","HOUSE_NO":"１０號","E_COORD97":174902.39000000001,"N_COORD97":2545627.48,"ADDRESS":"大民街１２９巷１０號","OBJECTID":443875},"geometry":{"x":174902.38999999966,"y":2545627.4800000004}},{"attributes":{"ID":443901,"DIS_CODE":0,"TOWNNAME":"永康區","LI":"三民里","LIN":"5鄰","STREET":"三民街","SECT":" ","MAREA":" ","LANE":"９０巷","ALLEY":" ","HOUSE_NO":"４１號","E_COORD97":173010.41,"N_COORD97":2550372.7799999998,"ADDRESS":"三民街９０巷４１號","OBJECTID":443876},"geometry":{"x":173010.41000000108,"y":2550372.7800000012}},{"attributes":{"ID":443902,"DIS_CODE":0,"TOWNNAME":"永康區","LI":"三民里","LIN":"5鄰","STREET":"三民街","SECT":" ","MAREA":" ","LANE":"９０巷","ALLEY":" ","HOUSE_NO":"３１號","E_COORD97":172974.84,"N_COORD97":2550425.5299999998,"ADDRESS":"三民街９０巷３１號","OBJECTID":443877},"geometry":{"x":172974.84000000078,"y":2550425.5300000012}},{"attributes":{"ID":443903,"DIS_CODE":0,"TOWNNAME":"永康區","LI":"大灣里","LIN":"5鄰","STREET":"大民街","SECT":" ","MAREA":" ","LANE":"１２９巷","ALLEY":" ","HOUSE_NO":"１號","E_COORD97":174914.88,"N_COORD97":2545615.96,"ADDRESS":"大民街１２９巷１號","OBJECTID":443878},"geometry":{"x":174914.87999999989,"y":2545615.9600000028}},{"attributes":{"ID":443904,"DIS_CODE":0,"TOWNNAME":"永康區","LI":"大橋里","LIN":"5鄰","STREET":"大橋一街","SECT":" ","MAREA":" ","LANE":"１０３巷","ALLEY":" ","HOUSE_NO":"２１４號","E_COORD97":170775.56,"N_COORD97":2546817.4900000002,"ADDRESS":"大橋一街１０３巷２１４號","OBJECTID":443879},"geometry":{"x":170775.56000000145,"y":2546817.4900000002}},{"attributes":{"ID":443905,"DIS_CODE":0,"TOWNNAME":"永康區","LI":"中興里","LIN":"5鄰","STREET":"中華路","SECT":" ","MAREA":" ","LANE":"２１４巷","ALLEY":" ","HOUSE_NO":"７號","E_COORD97":171723.35000000001,"N_COORD97":2545062.9199999999,"ADDRESS":"中華路２１４巷７號","OBJECTID":443880},"geometry":{"x":171723.35000000056,"y":2545062.9200000018}},{"attributes":{"ID":443906,"DIS_CODE":0,"TOWNNAME":"東區","LI":"虎尾里","LIN":"5鄰","STREET":"富農街","SECT":"一段","MAREA":" ","LANE":"４８巷","ALLEY":" ","HOUSE_NO":"５１號","E_COORD97":171656.22,"N_COORD97":2542163.8300000001,"ADDRESS":"富農街一段４８巷５１號","OBJECTID":443881},"geometry":{"x":171656.2200000016,"y":2542163.8300000001}},{"attributes":{"ID":443907,"DIS_CODE":0,"TOWNNAME":"東區","LI":"虎尾里","LIN":"5鄰","STREET":"富農街","SECT":"一段","MAREA":" ","LANE":"７２巷","ALLEY":" ","HOUSE_NO":"３２號","E_COORD97":171617.79999999999,"N_COORD97":2542178.52,"ADDRESS":"富農街一段７２巷３２號","OBJECTID":443882},"geometry":{"x":171617.79999999981,"y":2542178.5199999996}},{"attributes":{"ID":443908,"DIS_CODE":0,"TOWNNAME":"東區","LI":"虎尾里","LIN":"5鄰","STREET":"富農街","SECT":"一段","MAREA":" ","LANE":"７２巷","ALLEY":" ","HOUSE_NO":"３８號","E_COORD97":171633.16,"N_COORD97":2542180.7999999998,"ADDRESS":"富農街一段７２巷３８號","OBJECTID":443883},"geometry":{"x":171633.15999999922,"y":2542180.8000000007}},{"attributes":{"ID":443909,"DIS_CODE":0,"TOWNNAME":"東區","LI":"虎尾里","LIN":"5鄰","STREET":"富農街","SECT":"一段","MAREA":" ","LANE":"７２巷","ALLEY":" ","HOUSE_NO":"４２號","E_COORD97":171642.69,"N_COORD97":2542182.46,"ADDRESS":"富農街一段７２巷４２號","OBJECTID":443884},"geometry":{"x":171642.69000000041,"y":2542182.4600000028}},{"attributes":{"ID":443910,"DIS_CODE":0,"TOWNNAME":"東區","LI":"虎尾里","LIN":"5鄰","STREET":"富農街","SECT":"一段","MAREA":" ","LANE":"７２巷","ALLEY":" ","HOUSE_NO":"４４號","E_COORD97":171647.51999999999,"N_COORD97":2542182.8700000001,"ADDRESS":"富農街一段７２巷４４號","OBJECTID":443885},"geometry":{"x":171647.52000000048,"y":2542182.8700000029}},{"attributes":{"ID":443911,"DIS_CODE":0,"TOWNNAME":"東區","LI":"虎尾里","LIN":"5鄰","STREET":"富農街","SECT":"一段","MAREA":" ","LANE":"７２巷","ALLEY":" ","HOUSE_NO":"４６號","E_COORD97":171652.63,"N_COORD97":2542183.4300000002,"ADDRESS":"富農街一段７２巷４６號","OBJECTID":443886},"geometry":{"x":171652.63000000082,"y":2542183.4300000034}},{"attributes":{"ID":443912,"DIS_CODE":0,"TOWNNAME":"東區","LI":"虎尾里","LIN":"5鄰","STREET":"富農街","SECT":"一段","MAREA":" ","LANE":"７２巷","ALLEY":" ","HOUSE_NO":"３６號","E_COORD97":171627.91,"N_COORD97":2542179.7000000002,"ADDRESS":"富農街一段７２巷３６號","OBJECTID":443887},"geometry":{"x":171627.91000000015,"y":2542179.6999999993}},{"attributes":{"ID":443913,"DIS_CODE":0,"TOWNNAME":"東區","LI":"虎尾里","LIN":"5鄰","STREET":"富農街","SECT":"一段","MAREA":" ","LANE":"４８巷","ALLEY":" ","HOUSE_NO":"４１號","E_COORD97":171630.12,"N_COORD97":2542159,"ADDRESS":"富農街一段４８巷４１號","OBJECTID":443888},"geometry":{"x":171630.12000000197,"y":2542159}},{"attributes":{"ID":443914,"DIS_CODE":0,"TOWNNAME":"東區","LI":"虎尾里","LIN":"5鄰","STREET":"富農街","SECT":"一段","MAREA":" ","LANE":"７２巷","ALLEY":" ","HOUSE_NO":"４０號","E_COORD97":171637.85000000001,"N_COORD97":2542181.2200000002,"ADDRESS":"富農街一段７２巷４０號","OBJECTID":443889},"geometry":{"x":171637.84999999963,"y":2542181.2200000007}},{"attributes":{"ID":443915,"DIS_CODE":0,"TOWNNAME":"永康區","LI":"大灣里","LIN":"5鄰","STREET":"大民街","SECT":" ","MAREA":" ","LANE":"１２９巷","ALLEY":" ","HOUSE_NO":"１８號","E_COORD97":174889.35000000001,"N_COORD97":2545627.2799999998,"ADDRESS":"大民街１２９巷１８號","OBJECTID":443890},"geometry":{"x":174889.34999999963,"y":2545627.2799999993}},{"attributes":{"ID":443916,"DIS_CODE":0,"TOWNNAME":"永康區","LI":"中興里","LIN":"5鄰","STREET":"中華路","SECT":" ","MAREA":" ","LANE":"２１４巷","ALLEY":" ","HOUSE_NO":"１２號","E_COORD97":171730.76000000001,"N_COORD97":2545048.9900000002,"ADDRESS":"中華路２１４巷１２號","OBJECTID":443891},"geometry":{"x":171730.76000000071,"y":2545048.9900000021}},{"attributes":{"ID":443917,"DIS_CODE":0,"TOWNNAME":"永康區","LI":"中興里","LIN":"5鄰","STREET":"中華路","SECT":" ","MAREA":" ","LANE":"２１４巷","ALLEY":" ","HOUSE_NO":"３６號","E_COORD97":171784.48999999999,"N_COORD97":2545053.4900000002,"ADDRESS":"中華路２１４巷３６號","OBJECTID":443892},"geometry":{"x":171784.49000000115,"y":2545053.4900000021}},{"attributes":{"ID":443918,"DIS_CODE":0,"TOWNNAME":"永康區","LI":"中興里","LIN":"5鄰","STREET":"中華路","SECT":" ","MAREA":" ","LANE":"２１４巷","ALLEY":" ","HOUSE_NO":"７１號","E_COORD97":171882.70000000001,"N_COORD97":2545090.4300000002,"ADDRESS":"中華路２１４巷７１號","OBJECTID":443893},"geometry":{"x":171882.70000000112,"y":2545090.4300000016}},{"attributes":{"ID":443919,"DIS_CODE":0,"TOWNNAME":"永康區","LI":"大橋里","LIN":"5鄰","STREET":"大橋一街","SECT":" ","MAREA":" ","LANE":"１０３巷","ALLEY":" ","HOUSE_NO":"２０４號","E_COORD97":170786.20000000001,"N_COORD97":2546800.9900000002,"ADDRESS":"大橋一街１０３巷２０４號","OBJECTID":443894},"geometry":{"x":170786.20000000112,"y":2546800.9900000002}},{"attributes":{"ID":443920,"DIS_CODE":0,"TOWNNAME":"永康區","LI":"中興里","LIN":"5鄰","STREET":"中華路","SECT":" ","MAREA":" ","LANE":"２１４巷","ALLEY":" ","HOUSE_NO":"３５號","E_COORD97":171790.12,"N_COORD97":2545068.3799999999,"ADDRESS":"中華路２１４巷３５號","OBJECTID":443895},"geometry":{"x":171790.12000000104,"y":2545068.3800000027}},{"attributes":{"ID":443921,"DIS_CODE":0,"TOWNNAME":"永康區","LI":"中興里","LIN":"5鄰","STREET":"中華路","SECT":" ","MAREA":" ","LANE":"２１４巷","ALLEY":" ","HOUSE_NO":"６３號","E_COORD97":171872.39999999999,"N_COORD97":2545074,"ADDRESS":"中華路２１４巷６３號","OBJECTID":443896},"geometry":{"x":171872.40000000037,"y":2545074}},{"attributes":{"ID":443922,"DIS_CODE":0,"TOWNNAME":"永康區","LI":"中興里","LIN":"5鄰","STREET":"中華路","SECT":" ","MAREA":" ","LANE":"２１４巷","ALLEY":" ","HOUSE_NO":"１號","E_COORD97":171709.60000000001,"N_COORD97":2545061.5,"ADDRESS":"中華路２１４巷１號","OBJECTID":443897},"geometry":{"x":171709.60000000056,"y":2545061.4999999981}},{"attributes":{"ID":443923,"DIS_CODE":0,"TOWNNAME":"永康區","LI":"中興里","LIN":"5鄰","STREET":"中華路","SECT":" ","MAREA":" ","LANE":"２１４巷","ALLEY":" ","HOUSE_NO":"２４號","E_COORD97":171757.95000000001,"N_COORD97":2545051.4900000002,"ADDRESS":"中華路２１４巷２４號","OBJECTID":443898},"geometry":{"x":171757.95000000019,"y":2545051.4900000002}},{"attributes":{"ID":443924,"DIS_CODE":0,"TOWNNAME":"永康區","LI":"中興里","LIN":"5鄰","STREET":"中華路","SECT":" ","MAREA":" ","LANE":"２１４巷","ALLEY":" ","HOUSE_NO":"５號","E_COORD97":171719.51999999999,"N_COORD97":2545062.9199999999,"ADDRESS":"中華路２１４巷５號","OBJECTID":443899},"geometry":{"x":171719.51999999955,"y":2545062.9200000018}},{"attributes":{"ID":443925,"DIS_CODE":0,"TOWNNAME":"永康區","LI":"中興里","LIN":"5鄰","STREET":"中華路","SECT":" ","MAREA":" ","LANE":"２１４巷","ALLEY":" ","HOUSE_NO":"９３號","E_COORD97":171902.84,"N_COORD97":2545075.5499999998,"ADDRESS":"中華路２１４巷９３號","OBJECTID":443900},"geometry":{"x":171902.83999999892,"y":2545075.5499999989}},{"attributes":{"ID":443926,"DIS_CODE":0,"TOWNNAME":"永康區","LI":"中興里","LIN":"5鄰","STREET":"中華路","SECT":" ","MAREA":" ","LANE":"２１４巷","ALLEY":" ","HOUSE_NO":"３７號","E_COORD97":171794.34,"N_COORD97":2545068.8799999999,"ADDRESS":"中華路２１４巷３７號","OBJECTID":443901},"geometry":{"x":171794.33999999892,"y":2545068.8800000008}},{"attributes":{"ID":443927,"DIS_CODE":0,"TOWNNAME":"永康區","LI":"三合里","LIN":"5鄰","STREET":"南工街","SECT":" ","MAREA":" ","LANE":"６６巷","ALLEY":" ","HOUSE_NO":"５號","E_COORD97":172127.73999999999,"N_COORD97":2545660.0600000001,"ADDRESS":"南工街６６巷５號","OBJECTID":443902},"geometry":{"x":172127.74000000209,"y":2545660.0600000024}},{"attributes":{"ID":443928,"DIS_CODE":0,"TOWNNAME":"永康區","LI":"三合里","LIN":"5鄰","STREET":"南工街","SECT":" ","MAREA":" ","LANE":"８２巷","ALLEY":" ","HOUSE_NO":"１０號","E_COORD97":172136.92000000001,"N_COORD97":2545679.8300000001,"ADDRESS":"南工街８２巷１０號","OBJECTID":443903},"geometry":{"x":172136.92000000086,"y":2545679.8299999982}},{"attributes":{"ID":443929,"DIS_CODE":0,"TOWNNAME":"永康區","LI":"三合里","LIN":"5鄰","STREET":"南工街","SECT":" ","MAREA":" ","LANE":"６６巷","ALLEY":" ","HOUSE_NO":"１２號","E_COORD97":172143.91,"N_COORD97":2545646.1099999999,"ADDRESS":"南工街６６巷１２號","OBJECTID":443904},"geometry":{"x":172143.91000000108,"y":2545646.1099999994}},{"attributes":{"ID":443930,"DIS_CODE":0,"TOWNNAME":"仁德區","LI":"保安里","LIN":"5鄰","STREET":"中正路","SECT":"一段","MAREA":" ","LANE":"２００巷","ALLEY":" ","HOUSE_NO":"２２號","E_COORD97":171626.98000000001,"N_COORD97":2535732.52,"ADDRESS":"中正路一段２００巷２２號","OBJECTID":443905},"geometry":{"x":171626.98000000138,"y":2535732.5199999996}},{"attributes":{"ID":443931,"DIS_CODE":0,"TOWNNAME":"仁德區","LI":"成功里","LIN":"5鄰","STREET":"成功三街","SECT":" ","MAREA":" ","LANE":"８１巷","ALLEY":" ","HOUSE_NO":"１號","E_COORD97":171199.73000000001,"N_COORD97":2539838.7599999998,"ADDRESS":"成功三街８１巷１號","OBJECTID":443906},"geometry":{"x":171199.73000000138,"y":2539838.7600000035}},{"attributes":{"ID":443932,"DIS_CODE":0,"TOWNNAME":"仁德區","LI":"保安里","LIN":"5鄰","STREET":"中正路","SECT":"一段","MAREA":" ","LANE":"２００巷","ALLEY":" ","HOUSE_NO":"２６號","E_COORD97":171631.38,"N_COORD97":2535725.77,"ADDRESS":"中正路一段２００巷２６號","OBJECTID":443907},"geometry":{"x":171631.37999999896,"y":2535725.7700000033}},{"attributes":{"ID":443933,"DIS_CODE":0,"TOWNNAME":"善化區","LI":"南關里","LIN":"5鄰","STREET":"永安路","SECT":" ","MAREA":" ","LANE":"６６巷","ALLEY":" ","HOUSE_NO":"１號","E_COORD97":177080.35000000001,"N_COORD97":2558719.4399999999,"ADDRESS":"永安路６６巷１號","OBJECTID":443908},"geometry":{"x":177080.35000000056,"y":2558719.4400000013}},{"attributes":{"ID":443934,"DIS_CODE":0,"TOWNNAME":"善化區","LI":"南關里","LIN":"5鄰","STREET":"永安路","SECT":" ","MAREA":" ","LANE":"６６巷","ALLEY":" ","HOUSE_NO":"２號","E_COORD97":177075.54000000001,"N_COORD97":2558720.4399999999,"ADDRESS":"永安路６６巷２號","OBJECTID":443909},"geometry":{"x":177075.5400000019,"y":2558720.4399999995}},{"attributes":{"ID":443935,"DIS_CODE":0,"TOWNNAME":"善化區","LI":"南關里","LIN":"5鄰","STREET":"永安路","SECT":" ","MAREA":" ","LANE":"６６巷","ALLEY":" ","HOUSE_NO":"３號","E_COORD97":177070.54000000001,"N_COORD97":2558721.5099999998,"ADDRESS":"永安路６６巷３號","OBJECTID":443910},"geometry":{"x":177070.5400000019,"y":2558721.5100000016}},{"attributes":{"ID":443936,"DIS_CODE":0,"TOWNNAME":"善化區","LI":"南關里","LIN":"5鄰","STREET":"永安路","SECT":" ","MAREA":" ","LANE":"６６巷","ALLEY":" ","HOUSE_NO":"６號","E_COORD97":177061.70000000001,"N_COORD97":2558723.25,"ADDRESS":"永安路６６巷６號","OBJECTID":443911},"geometry":{"x":177061.70000000112,"y":2558723.2500000037}},{"attributes":{"ID":443937,"DIS_CODE":0,"TOWNNAME":"善化區","LI":"南關里","LIN":"5鄰","STREET":"永安路","SECT":" ","MAREA":" ","LANE":"６６巷","ALLEY":" ","HOUSE_NO":"７號","E_COORD97":177057.35000000001,"N_COORD97":2558724.0699999998,"ADDRESS":"永安路６６巷７號","OBJECTID":443912},"geometry":{"x":177057.34999999963,"y":2558724.0700000003}},{"attributes":{"ID":443938,"DIS_CODE":0,"TOWNNAME":"善化區","LI":"南關里","LIN":"5鄰","STREET":"永安路","SECT":" ","MAREA":" ","LANE":"６６巷","ALLEY":" ","HOUSE_NO":"８號","E_COORD97":177052.60000000001,"N_COORD97":2558725.0299999998,"ADDRESS":"永安路６６巷８號","OBJECTID":443913},"geometry":{"x":177052.60000000149,"y":2558725.0300000012}},{"attributes":{"ID":443939,"DIS_CODE":0,"TOWNNAME":"善化區","LI":"南關里","LIN":"5鄰","STREET":"永安路","SECT":" ","MAREA":" ","LANE":"６６巷","ALLEY":" ","HOUSE_NO":"９號","E_COORD97":177047.69,"N_COORD97":2558725.9199999999,"ADDRESS":"永安路６６巷９號","OBJECTID":443914},"geometry":{"x":177047.68999999948,"y":2558725.9200000018}},{"attributes":{"ID":443940,"DIS_CODE":0,"TOWNNAME":"中西區","LI":"郡西里","LIN":"5鄰","STREET":"永華路","SECT":"一段","MAREA":" ","LANE":"１４４巷","ALLEY":" ","HOUSE_NO":"１１號","E_COORD97":167271.48000000001,"N_COORD97":2543225.25,"ADDRESS":"永華路一段１４４巷１１號","OBJECTID":443915},"geometry":{"x":167271.48000000231,"y":2543225.25}},{"attributes":{"ID":443941,"DIS_CODE":0,"TOWNNAME":"中西區","LI":"郡西里","LIN":"5鄰","STREET":"永華路","SECT":"一段","MAREA":" ","LANE":"１４４巷","ALLEY":" ","HOUSE_NO":"１３號","E_COORD97":167272.29000000001,"N_COORD97":2543228.1000000001,"ADDRESS":"永華路一段１４４巷１３號","OBJECTID":443916},"geometry":{"x":167272.2900000019,"y":2543228.1000000015}},{"attributes":{"ID":443942,"DIS_CODE":0,"TOWNNAME":"中西區","LI":"郡西里","LIN":"5鄰","STREET":"永華路","SECT":"一段","MAREA":" ","LANE":"１４４巷","ALLEY":" ","HOUSE_NO":"１５號","E_COORD97":167273.01999999999,"N_COORD97":2543234.0699999998,"ADDRESS":"永華路一段１４４巷１５號","OBJECTID":443917},"geometry":{"x":167273.01999999955,"y":2543234.070000004}},{"attributes":{"ID":443943,"DIS_CODE":0,"TOWNNAME":"中西區","LI":"郡西里","LIN":"5鄰","STREET":"永華路","SECT":"一段","MAREA":" ","LANE":"１４４巷","ALLEY":" ","HOUSE_NO":"１９號","E_COORD97":167274.26999999999,"N_COORD97":2543239.0600000001,"ADDRESS":"永華路一段１４４巷１９號","OBJECTID":443918},"geometry":{"x":167274.27000000048,"y":2543239.0600000024}},{"attributes":{"ID":443944,"DIS_CODE":0,"TOWNNAME":"中西區","LI":"郡西里","LIN":"5鄰","STREET":"永華路","SECT":"一段","MAREA":" ","LANE":"１４４巷","ALLEY":" ","HOUSE_NO":"２１號","E_COORD97":167274.98000000001,"N_COORD97":2543242.8900000001,"ADDRESS":"永華路一段１４４巷２１號","OBJECTID":443919},"geometry":{"x":167274.98000000138,"y":2543242.8900000025}},{"attributes":{"ID":443945,"DIS_CODE":0,"TOWNNAME":"中西區","LI":"郡西里","LIN":"5鄰","STREET":"永華路","SECT":"一段","MAREA":" ","LANE":"１４４巷","ALLEY":" ","HOUSE_NO":"２３號","E_COORD97":167275.34,"N_COORD97":2543247.0699999998,"ADDRESS":"永華路一段１４４巷２３號","OBJECTID":443920},"geometry":{"x":167275.34000000078,"y":2543247.0700000003}},{"attributes":{"ID":443946,"DIS_CODE":0,"TOWNNAME":"中西區","LI":"郡西里","LIN":"5鄰","STREET":"永華路","SECT":"一段","MAREA":" ","LANE":"１４４巷","ALLEY":" ","HOUSE_NO":"２５號","E_COORD97":167276.76000000001,"N_COORD97":2543250.8999999999,"ADDRESS":"永華路一段１４４巷２５號","OBJECTID":443921},"geometry":{"x":167276.75999999978,"y":2543250.9000000004}},{"attributes":{"ID":443947,"DIS_CODE":0,"TOWNNAME":"中西區","LI":"郡西里","LIN":"5鄰","STREET":"永華路","SECT":"一段","MAREA":" ","LANE":"１４４巷","ALLEY":" ","HOUSE_NO":"２７號","E_COORD97":167277.29999999999,"N_COORD97":2543254.46,"ADDRESS":"永華路一段１４４巷２７號","OBJECTID":443922},"geometry":{"x":167277.30000000075,"y":2543254.4600000009}},{"attributes":{"ID":443948,"DIS_CODE":0,"TOWNNAME":"中西區","LI":"郡西里","LIN":"5鄰","STREET":"永華路","SECT":"一段","MAREA":" ","LANE":"１４４巷","ALLEY":" ","HOUSE_NO":"２９號","E_COORD97":167278.10000000001,"N_COORD97":2543257.7599999998,"ADDRESS":"永華路一段１４４巷２９號","OBJECTID":443923},"geometry":{"x":167278.0999999987,"y":2543257.7599999998}},{"attributes":{"ID":443949,"DIS_CODE":0,"TOWNNAME":"中西區","LI":"郡西里","LIN":"5鄰","STREET":"永華路","SECT":"一段","MAREA":" ","LANE":"１４４巷","ALLEY":" ","HOUSE_NO":"３１號","E_COORD97":167278.72,"N_COORD97":2543261.4100000001,"ADDRESS":"永華路一段１４４巷３１號","OBJECTID":443924},"geometry":{"x":167278.71999999974,"y":2543261.4100000001}},{"attributes":{"ID":443950,"DIS_CODE":0,"TOWNNAME":"中西區","LI":"郡西里","LIN":"5鄰","STREET":"永華路","SECT":"一段","MAREA":" ","LANE":"１４４巷","ALLEY":" ","HOUSE_NO":"３３號","E_COORD97":167280.06,"N_COORD97":2543264.9700000002,"ADDRESS":"永華路一段１４４巷３３號","OBJECTID":443925},"geometry":{"x":167280.06000000145,"y":2543264.9700000007}},{"attributes":{"ID":443951,"DIS_CODE":0,"TOWNNAME":"中西區","LI":"郡西里","LIN":"5鄰","STREET":"永華路","SECT":"一段","MAREA":" ","LANE":"１４４巷","ALLEY":" ","HOUSE_NO":"３５號","E_COORD97":167281.67000000001,"N_COORD97":2543268.4199999999,"ADDRESS":"永華路一段１４４巷３５號","OBJECTID":443926},"geometry":{"x":167281.67000000086,"y":2543268.4199999981}},{"attributes":{"ID":443952,"DIS_CODE":0,"TOWNNAME":"中西區","LI":"郡西里","LIN":"5鄰","STREET":"永華路","SECT":"一段","MAREA":" ","LANE":"１４４巷","ALLEY":" ","HOUSE_NO":"３７號","E_COORD97":167283.09,"N_COORD97":2543271.8100000001,"ADDRESS":"永華路一段１４４巷３７號","OBJECTID":443927},"geometry":{"x":167283.08999999985,"y":2543271.8100000005}},{"attributes":{"ID":443953,"DIS_CODE":0,"TOWNNAME":"中西區","LI":"郡西里","LIN":"5鄰","STREET":"永華路","SECT":"一段","MAREA":" ","LANE":"１４４巷","ALLEY":" ","HOUSE_NO":"３９號","E_COORD97":167290.31,"N_COORD97":2543276.2599999998,"ADDRESS":"永華路一段１４４巷３９號","OBJECTID":443928},"geometry":{"x":167290.31000000145,"y":2543276.2600000035}},{"attributes":{"ID":443954,"DIS_CODE":0,"TOWNNAME":"永康區","LI":"復國里","LIN":"9鄰","STREET":"復國一路","SECT":" ","MAREA":" ","LANE":"２１０巷","ALLEY":" ","HOUSE_NO":"１２號","E_COORD97":172783.59,"N_COORD97":2545197.0600000001,"ADDRESS":"復國一路２１０巷１２號","OBJECTID":443929},"geometry":{"x":172783.59000000078,"y":2545197.0600000005}},{"attributes":{"ID":443955,"DIS_CODE":0,"TOWNNAME":"永康區","LI":"崑山里","LIN":"36鄰","STREET":"大仁街","SECT":" ","MAREA":" ","LANE":"１９９巷","ALLEY":" ","HOUSE_NO":"７號之１","E_COORD97":173892.5,"N_COORD97":2545054.29,"ADDRESS":"大仁街１９９巷７號之１","OBJECTID":443930},"geometry":{"x":173892.50000000093,"y":2545054.2899999991}},{"attributes":{"ID":443956,"DIS_CODE":0,"TOWNNAME":"中西區","LI":"郡西里","LIN":"5鄰","STREET":"永華路","SECT":"一段","MAREA":" ","LANE":"１４４巷","ALLEY":" ","HOUSE_NO":"４１號","E_COORD97":167287.19,"N_COORD97":2543276.79,"ADDRESS":"永華路一段１４４巷４１號","OBJECTID":443931},"geometry":{"x":167287.19000000134,"y":2543276.790000001}},{"attributes":{"ID":443957,"DIS_CODE":0,"TOWNNAME":"中西區","LI":"郡西里","LIN":"5鄰","STREET":"永華路","SECT":"一段","MAREA":" ","LANE":"１４４巷","ALLEY":" ","HOUSE_NO":"４３號","E_COORD97":167283.63,"N_COORD97":2543277.6800000002,"ADDRESS":"永華路一段１４４巷４３號","OBJECTID":443932},"geometry":{"x":167283.63000000082,"y":2543277.6800000016}},{"attributes":{"ID":443958,"DIS_CODE":0,"TOWNNAME":"中西區","LI":"郡西里","LIN":"5鄰","STREET":"永華路","SECT":"一段","MAREA":" ","LANE":"１４４巷","ALLEY":" ","HOUSE_NO":"４５號","E_COORD97":167279.97,"N_COORD97":2543278.75,"ADDRESS":"永華路一段１４４巷４５號","OBJECTID":443933},"geometry":{"x":167279.97000000067,"y":2543278.75}},{"attributes":{"ID":443959,"DIS_CODE":0,"TOWNNAME":"中西區","LI":"郡西里","LIN":"5鄰","STREET":"永華路","SECT":"一段","MAREA":" ","LANE":"１４４巷","ALLEY":" ","HOUSE_NO":"４７號","E_COORD97":167281.48999999999,"N_COORD97":2543287.3900000001,"ADDRESS":"永華路一段１４４巷４７號","OBJECTID":443934},"geometry":{"x":167281.49000000115,"y":2543287.3900000025}},{"attributes":{"ID":443960,"DIS_CODE":0,"TOWNNAME":"中西區","LI":"郡西里","LIN":"5鄰","STREET":"永華路","SECT":"一段","MAREA":" ","LANE":"１４４巷","ALLEY":" ","HOUSE_NO":"４９號","E_COORD97":167285.32000000001,"N_COORD97":2543287.1200000001,"ADDRESS":"永華路一段１４４巷４９號","OBJECTID":443935},"geometry":{"x":167285.3200000003,"y":2543287.1200000029}},{"attributes":{"ID":443961,"DIS_CODE":0,"TOWNNAME":"中西區","LI":"郡西里","LIN":"5鄰","STREET":"永華路","SECT":"一段","MAREA":" ","LANE":"１４４巷","ALLEY":" ","HOUSE_NO":"５１號","E_COORD97":167288.35000000001,"N_COORD97":2543285.96,"ADDRESS":"永華路一段１４４巷５１號","OBJECTID":443936},"geometry":{"x":167288.35000000149,"y":2543285.9600000009}},{"attributes":{"ID":443962,"DIS_CODE":0,"TOWNNAME":"中西區","LI":"郡西里","LIN":"5鄰","STREET":"永華路","SECT":"一段","MAREA":" ","LANE":"１４４巷","ALLEY":" ","HOUSE_NO":"５３號","E_COORD97":167292.17999999999,"N_COORD97":2543285.1600000001,"ADDRESS":"永華路一段１４４巷５３號","OBJECTID":443937},"geometry":{"x":167292.1799999997,"y":2543285.160000002}},{"attributes":{"ID":443963,"DIS_CODE":0,"TOWNNAME":"中西區","LI":"郡西里","LIN":"5鄰","STREET":"永華路","SECT":"一段","MAREA":" ","LANE":"１４４巷","ALLEY":" ","HOUSE_NO":"５５號","E_COORD97":167286.66,"N_COORD97":2543295.3100000001,"ADDRESS":"永華路一段１４４巷５５號","OBJECTID":443938},"geometry":{"x":167286.66000000015,"y":2543295.3100000024}},{"attributes":{"ID":443964,"DIS_CODE":0,"TOWNNAME":"中西區","LI":"郡西里","LIN":"5鄰","STREET":"永華路","SECT":"一段","MAREA":" ","LANE":"１４４巷","ALLEY":" ","HOUSE_NO":"５７號","E_COORD97":167287.10000000001,"N_COORD97":2543298.7000000002,"ADDRESS":"永華路一段１４４巷５７號","OBJECTID":443939},"geometry":{"x":167287.10000000056,"y":2543298.6999999993}},{"attributes":{"ID":443965,"DIS_CODE":0,"TOWNNAME":"中西區","LI":"郡西里","LIN":"5鄰","STREET":"永華路","SECT":"一段","MAREA":" ","LANE":"１４４巷","ALLEY":" ","HOUSE_NO":"５號","E_COORD97":167271.31,"N_COORD97":2543214.29,"ADDRESS":"永華路一段１４４巷５號","OBJECTID":443940},"geometry":{"x":167271.30999999959,"y":2543214.2900000028}},{"attributes":{"ID":443966,"DIS_CODE":0,"TOWNNAME":"中西區","LI":"郡西里","LIN":"5鄰","STREET":"永華路","SECT":"一段","MAREA":" ","LANE":"１４４巷","ALLEY":" ","HOUSE_NO":"７號","E_COORD97":167271.48000000001,"N_COORD97":2543217.23,"ADDRESS":"永華路一段１４４巷７號","OBJECTID":443941},"geometry":{"x":167271.48000000231,"y":2543217.2300000023}},{"attributes":{"ID":443967,"DIS_CODE":0,"TOWNNAME":"中西區","LI":"郡西里","LIN":"5鄰","STREET":"永華路","SECT":"一段","MAREA":" ","LANE":"１４４巷","ALLEY":" ","HOUSE_NO":"９號","E_COORD97":167270.59,"N_COORD97":2543221.1499999999,"ADDRESS":"永華路一段１４４巷９號","OBJECTID":443942},"geometry":{"x":167270.59000000078,"y":2543221.1500000022}},{"attributes":{"ID":443968,"DIS_CODE":0,"TOWNNAME":"中西區","LI":"郡西里","LIN":"5鄰","STREET":"大智街","SECT":" ","MAREA":" ","LANE":"１２９巷","ALLEY":" ","HOUSE_NO":"４號","E_COORD97":167287.19,"N_COORD97":2543302.29,"ADDRESS":"大智街１２９巷４號","OBJECTID":443943},"geometry":{"x":167287.19000000134,"y":2543302.2899999991}},{"attributes":{"ID":443969,"DIS_CODE":0,"TOWNNAME":"中西區","LI":"郡西里","LIN":"5鄰","STREET":"大智街","SECT":" ","MAREA":" ","LANE":"１２９巷","ALLEY":" ","HOUSE_NO":"６號","E_COORD97":167293.51999999999,"N_COORD97":2543300.6899999999,"ADDRESS":"大智街１２９巷６號","OBJECTID":443944},"geometry":{"x":167293.51999999955,"y":2543300.6900000013}},{"attributes":{"ID":443970,"DIS_CODE":0,"TOWNNAME":"永康區","LI":"蔦松里","LIN":"5鄰","STREET":"蔦松一街","SECT":" ","MAREA":" ","LANE":"１１３巷","ALLEY":" ","HOUSE_NO":"９號","E_COORD97":173720.20000000001,"N_COORD97":2549466.9900000002,"ADDRESS":"蔦松一街１１３巷９號","OBJECTID":443945},"geometry":{"x":173720.20000000112,"y":2549466.9900000021}},{"attributes":{"ID":443971,"DIS_CODE":0,"TOWNNAME":"永康區","LI":"埔園里","LIN":"4鄰","STREET":"中山路","SECT":" ","MAREA":" ","LANE":"１５８巷","ALLEY":" ","HOUSE_NO":"５０號之２","E_COORD97":173932.53,"N_COORD97":2547849.04,"ADDRESS":"中山路１５８巷５０號之２","OBJECTID":443946},"geometry":{"x":173932.53000000026,"y":2547849.040000001}},{"attributes":{"ID":443972,"DIS_CODE":0,"TOWNNAME":"中西區","LI":"開山里","LIN":"5鄰","STREET":"府前路","SECT":"一段","MAREA":" ","LANE":"８５巷","ALLEY":" ","HOUSE_NO":"２２號","E_COORD97":168930.81,"N_COORD97":2543204.3599999999,"ADDRESS":"府前路一段８５巷２２號","OBJECTID":443947},"geometry":{"x":168930.80999999959,"y":2543204.3600000031}},{"attributes":{"ID":443973,"DIS_CODE":0,"TOWNNAME":"中西區","LI":"開山里","LIN":"5鄰","STREET":"府前路","SECT":"一段","MAREA":" ","LANE":"８５巷","ALLEY":" ","HOUSE_NO":"２４號","E_COORD97":168928.20000000001,"N_COORD97":2543199.77,"ADDRESS":"府前路一段８５巷２４號","OBJECTID":443948},"geometry":{"x":168928.20000000112,"y":2543199.7700000014}},{"attributes":{"ID":443974,"DIS_CODE":0,"TOWNNAME":"中西區","LI":"開山里","LIN":"5鄰","STREET":"府前路","SECT":"一段","MAREA":" ","LANE":"８５巷","ALLEY":" ","HOUSE_NO":"２６號","E_COORD97":168925.42999999999,"N_COORD97":2543194.0899999999,"ADDRESS":"府前路一段８５巷２６號","OBJECTID":443949},"geometry":{"x":168925.43000000156,"y":2543194.0900000017}},{"attributes":{"ID":443975,"DIS_CODE":0,"TOWNNAME":"中西區","LI":"開山里","LIN":"5鄰","STREET":"府前路","SECT":"一段","MAREA":" ","LANE":"８５巷","ALLEY":" ","HOUSE_NO":"３０號","E_COORD97":168925.95000000001,"N_COORD97":2543189.1200000001,"ADDRESS":"府前路一段８５巷３０號","OBJECTID":443950},"geometry":{"x":168925.95000000205,"y":2543189.120000001}},{"attributes":{"ID":443976,"DIS_CODE":0,"TOWNNAME":"中西區","LI":"開山里","LIN":"5鄰","STREET":"府前路","SECT":"一段","MAREA":" ","LANE":"８５巷","ALLEY":" ","HOUSE_NO":"３２號","E_COORD97":168928.35999999999,"N_COORD97":2543181.27,"ADDRESS":"府前路一段８５巷３２號","OBJECTID":443951},"geometry":{"x":168928.3600000022,"y":2543181.2700000033}},{"attributes":{"ID":443977,"DIS_CODE":0,"TOWNNAME":"中西區","LI":"開山里","LIN":"5鄰","STREET":"府前路","SECT":"一段","MAREA":" ","LANE":"８５巷","ALLEY":" ","HOUSE_NO":"３６號","E_COORD97":168922.14000000001,"N_COORD97":2543170.8799999999,"ADDRESS":"府前路一段８５巷３６號","OBJECTID":443952},"geometry":{"x":168922.13999999966,"y":2543170.8800000008}},{"attributes":{"ID":443978,"DIS_CODE":0,"TOWNNAME":"中西區","LI":"開山里","LIN":"5鄰","STREET":"府前路","SECT":"一段","MAREA":" ","LANE":"８５巷","ALLEY":" ","HOUSE_NO":"３８號","E_COORD97":168921.26000000001,"N_COORD97":2543163.1499999999,"ADDRESS":"府前路一段８５巷３８號","OBJECTID":443953},"geometry":{"x":168921.25999999978,"y":2543163.1500000022}},{"attributes":{"ID":443979,"DIS_CODE":0,"TOWNNAME":"永康區","LI":"龍潭里","LIN":"44鄰","STREET":"永平街","SECT":" ","MAREA":" ","LANE":"２９８巷","ALLEY":" ","HOUSE_NO":"２之１６號","E_COORD97":174661.41,"N_COORD97":2547120.04,"ADDRESS":"永平街２９８巷２之１６號","OBJECTID":443954},"geometry":{"x":174661.41000000108,"y":2547120.040000001}},{"attributes":{"ID":443980,"DIS_CODE":0,"TOWNNAME":"新市區","LI":"港墘里","LIN":"5鄰","STREET":"民族路","SECT":" ","MAREA":" ","LANE":"１２１巷","ALLEY":" ","HOUSE_NO":"１２號","E_COORD97":178318.39999999999,"N_COORD97":2553541.54,"ADDRESS":"民族路１２１巷１２號","OBJECTID":443955},"geometry":{"x":178318.4000000013,"y":2553541.5399999991}},{"attributes":{"ID":443981,"DIS_CODE":0,"TOWNNAME":"永康區","LI":"復華里","LIN":"4鄰","STREET":"復國二路","SECT":" ","MAREA":" ","LANE":"２４３巷","ALLEY":" ","HOUSE_NO":"２２號","E_COORD97":172955.73999999999,"N_COORD97":2546137.3199999998,"ADDRESS":"復國二路２４３巷２２號","OBJECTID":443956},"geometry":{"x":172955.74000000115,"y":2546137.3200000003}},{"attributes":{"ID":443982,"DIS_CODE":0,"TOWNNAME":"永康區","LI":"龍潭里","LIN":"34鄰","STREET":"龍埔街","SECT":" ","MAREA":" ","LANE":"１８１巷","ALLEY":" ","HOUSE_NO":"３０號","E_COORD97":174445.64999999999,"N_COORD97":2548163.6800000002,"ADDRESS":"龍埔街１８１巷３０號","OBJECTID":443957},"geometry":{"x":174445.65000000037,"y":2548163.6800000016}},{"attributes":{"ID":443983,"DIS_CODE":0,"TOWNNAME":"永康區","LI":"龍潭里","LIN":"39鄰","STREET":"永明街","SECT":" ","MAREA":" ","LANE":"２３１巷","ALLEY":" ","HOUSE_NO":"４７號","E_COORD97":174563.23999999999,"N_COORD97":2547322.1000000001,"ADDRESS":"永明街２３１巷４７號","OBJECTID":443958},"geometry":{"x":174563.24000000022,"y":2547322.1000000034}},{"attributes":{"ID":443984,"DIS_CODE":0,"TOWNNAME":"永康區","LI":"埔園里","LIN":"26鄰","STREET":"自強路","SECT":" ","MAREA":" ","LANE":"４１７巷","ALLEY":" ","HOUSE_NO":"４９號","E_COORD97":173717.47,"N_COORD97":2548093,"ADDRESS":"自強路４１７巷４９號","OBJECTID":443959},"geometry":{"x":173717.4700000016,"y":2548093.0000000019}},{"attributes":{"ID":443985,"DIS_CODE":0,"TOWNNAME":"東區","LI":"崇善里","LIN":"5鄰","STREET":"崇善五街","SECT":" ","MAREA":" ","LANE":"４６巷","ALLEY":" ","HOUSE_NO":"９號","E_COORD97":171127.95999999999,"N_COORD97":2541568.8700000001,"ADDRESS":"崇善五街４６巷９號","OBJECTID":443960},"geometry":{"x":171127.96000000089,"y":2541568.8700000029}},{"attributes":{"ID":443986,"DIS_CODE":0,"TOWNNAME":"東區","LI":"崇善里","LIN":"5鄰","STREET":"崇善五街","SECT":" ","MAREA":" ","LANE":"６８巷","ALLEY":" ","HOUSE_NO":"１０號","E_COORD97":171144.14999999999,"N_COORD97":2541577.3799999999,"ADDRESS":"崇善五街６８巷１０號","OBJECTID":443961},"geometry":{"x":171144.1500000013,"y":2541577.3800000008}},{"attributes":{"ID":443987,"DIS_CODE":0,"TOWNNAME":"東區","LI":"崇善里","LIN":"5鄰","STREET":"崇善五街","SECT":" ","MAREA":" ","LANE":"６８巷","ALLEY":" ","HOUSE_NO":"１１號","E_COORD97":171172.60000000001,"N_COORD97":2541585.3900000001,"ADDRESS":"崇善五街６８巷１１號","OBJECTID":443962},"geometry":{"x":171172.60000000056,"y":2541585.3900000025}},{"attributes":{"ID":443988,"DIS_CODE":0,"TOWNNAME":"東區","LI":"崇善里","LIN":"5鄰","STREET":"崇善五街","SECT":" ","MAREA":" ","LANE":"６８巷","ALLEY":" ","HOUSE_NO":"１２號","E_COORD97":171146.48999999999,"N_COORD97":2541573.21,"ADDRESS":"崇善五街６８巷１２號","OBJECTID":443963},"geometry":{"x":171146.49000000115,"y":2541573.2100000028}},{"attributes":{"ID":443989,"DIS_CODE":0,"TOWNNAME":"東區","LI":"崇善里","LIN":"5鄰","STREET":"崇善五街","SECT":" ","MAREA":" ","LANE":"６８巷","ALLEY":" ","HOUSE_NO":"１號","E_COORD97":171159.42999999999,"N_COORD97":2541604.02,"ADDRESS":"崇善五街６８巷１號","OBJECTID":443964},"geometry":{"x":171159.4299999997,"y":2541604.0200000014}},{"attributes":{"ID":443990,"DIS_CODE":0,"TOWNNAME":"東區","LI":"崇善里","LIN":"5鄰","STREET":"崇善五街","SECT":" ","MAREA":" ","LANE":"６８巷","ALLEY":" ","HOUSE_NO":"２號","E_COORD97":171136.31,"N_COORD97":2541592.0600000001,"ADDRESS":"崇善五街６８巷２號","OBJECTID":443965},"geometry":{"x":171136.30999999959,"y":2541592.0600000005}},{"attributes":{"ID":443991,"DIS_CODE":0,"TOWNNAME":"東區","LI":"崇善里","LIN":"5鄰","STREET":"崇善五街","SECT":" ","MAREA":" ","LANE":"６８巷","ALLEY":" ","HOUSE_NO":"３號","E_COORD97":171163.54999999999,"N_COORD97":2541601.8300000001,"ADDRESS":"崇善五街６８巷３號","OBJECTID":443966},"geometry":{"x":171163.54999999981,"y":2541601.8300000019}},{"attributes":{"ID":443992,"DIS_CODE":0,"TOWNNAME":"東區","LI":"崇善里","LIN":"5鄰","STREET":"崇善五街","SECT":" ","MAREA":" ","LANE":"６８巷","ALLEY":" ","HOUSE_NO":"４號","E_COORD97":171138.98000000001,"N_COORD97":2541588.2200000002,"ADDRESS":"崇善五街６８巷４號","OBJECTID":443967},"geometry":{"x":171138.98000000045,"y":2541588.2200000007}},{"attributes":{"ID":443993,"DIS_CODE":0,"TOWNNAME":"東區","LI":"崇善里","LIN":"5鄰","STREET":"崇善五街","SECT":" ","MAREA":" ","LANE":"６８巷","ALLEY":" ","HOUSE_NO":"５號","E_COORD97":171166.84,"N_COORD97":2541597.9900000002,"ADDRESS":"崇善五街６８巷５號","OBJECTID":443968},"geometry":{"x":171166.83999999985,"y":2541597.9900000021}},{"attributes":{"ID":443994,"DIS_CODE":0,"TOWNNAME":"東區","LI":"崇善里","LIN":"5鄰","STREET":"崇善五街","SECT":" ","MAREA":" ","LANE":"６８巷","ALLEY":" ","HOUSE_NO":"６號","E_COORD97":171140.48000000001,"N_COORD97":2541584.8900000001,"ADDRESS":"崇善五街６８巷６號","OBJECTID":443969},"geometry":{"x":171140.48000000138,"y":2541584.8900000025}},{"attributes":{"ID":443995,"DIS_CODE":0,"TOWNNAME":"東區","LI":"崇善里","LIN":"5鄰","STREET":"崇善五街","SECT":" ","MAREA":" ","LANE":"６８巷","ALLEY":" ","HOUSE_NO":"９號","E_COORD97":171170.13,"N_COORD97":2541590.5899999999,"ADDRESS":"崇善五街６８巷９號","OBJECTID":443970},"geometry":{"x":171170.12999999989,"y":2541590.5900000017}},{"attributes":{"ID":443996,"DIS_CODE":0,"TOWNNAME":"永康區","LI":"復華里","LIN":"32鄰","STREET":"復華十街","SECT":" ","MAREA":" ","LANE":"４５巷","ALLEY":" ","HOUSE_NO":"１號","E_COORD97":172621.04000000001,"N_COORD97":2546372.3300000001,"ADDRESS":"復華十街４５巷１號","OBJECTID":443971},"geometry":{"x":172621.04000000097,"y":2546372.3300000019}},{"attributes":{"ID":443997,"DIS_CODE":0,"TOWNNAME":"東區","LI":"東聖里","LIN":"5鄰","STREET":"富農街","SECT":"二段","MAREA":" ","LANE":"７９巷","ALLEY":" ","HOUSE_NO":"１１號之１","E_COORD97":171557.63,"N_COORD97":2543059.29,"ADDRESS":"富農街二段７９巷１１號之１","OBJECTID":443972},"geometry":{"x":171557.63000000082,"y":2543059.290000001}},{"attributes":{"ID":443998,"DIS_CODE":0,"TOWNNAME":"永康區","LI":"勝利里","LIN":"34鄰","STREET":"勝利街","SECT":" ","MAREA":" ","LANE":"１巷","ALLEY":" ","HOUSE_NO":"２９號底層之１","E_COORD97":171035.56,"N_COORD97":2544644.5499999998,"ADDRESS":"勝利街１巷２９號底層之１","OBJECTID":443973},"geometry":{"x":171035.56000000052,"y":2544644.5500000007}},{"attributes":{"ID":443999,"DIS_CODE":0,"TOWNNAME":"東區","LI":"東聖里","LIN":"5鄰","STREET":"富農街","SECT":"二段","MAREA":" ","LANE":"７９巷","ALLEY":" ","HOUSE_NO":"１３號","E_COORD97":171547.42999999999,"N_COORD97":2543059.4399999999,"ADDRESS":"富農街二段７９巷１３號","OBJECTID":443974},"geometry":{"x":171547.4299999997,"y":2543059.4400000013}},{"attributes":{"ID":444000,"DIS_CODE":0,"TOWNNAME":"東區","LI":"東聖里","LIN":"5鄰","STREET":"富農街","SECT":"二段","MAREA":" ","LANE":"７９巷","ALLEY":" ","HOUSE_NO":"１號之１","E_COORD97":171610.38,"N_COORD97":2543056.3500000001,"ADDRESS":"富農街二段７９巷１號之１","OBJECTID":443975},"geometry":{"x":171610.37999999989,"y":2543056.3500000015}},{"attributes":{"ID":444001,"DIS_CODE":0,"TOWNNAME":"東區","LI":"東聖里","LIN":"5鄰","STREET":"富農街","SECT":"二段","MAREA":" ","LANE":"７９巷","ALLEY":" ","HOUSE_NO":"３號","E_COORD97":171601.88,"N_COORD97":2543056.2000000002,"ADDRESS":"富農街二段７９巷３號","OBJECTID":443976},"geometry":{"x":171601.87999999989,"y":2543056.2000000011}},{"attributes":{"ID":444002,"DIS_CODE":0,"TOWNNAME":"東區","LI":"東聖里","LIN":"5鄰","STREET":"富農街","SECT":"二段","MAREA":" ","LANE":"７９巷","ALLEY":" ","HOUSE_NO":"５號","E_COORD97":171592.44,"N_COORD97":2543055.8900000001,"ADDRESS":"富農街二段７９巷５號","OBJECTID":443977},"geometry":{"x":171592.44000000041,"y":2543055.8900000043}},{"attributes":{"ID":444003,"DIS_CODE":0,"TOWNNAME":"永康區","LI":"三合里","LIN":"5鄰","STREET":"南工街","SECT":" ","MAREA":" ","LANE":"８２巷","ALLEY":" ","HOUSE_NO":"４號","E_COORD97":172122.85999999999,"N_COORD97":2545679.8300000001,"ADDRESS":"南工街８２巷４號","OBJECTID":443978},"geometry":{"x":172122.86000000127,"y":2545679.8299999982}},{"attributes":{"ID":444004,"DIS_CODE":0,"TOWNNAME":"永康區","LI":"三民里","LIN":"5鄰","STREET":"三民街","SECT":" ","MAREA":" ","LANE":"９０巷","ALLEY":" ","HOUSE_NO":"２９號","E_COORD97":172962.63,"N_COORD97":2550423.5299999998,"ADDRESS":"三民街９０巷２９號","OBJECTID":443979},"geometry":{"x":172962.63000000082,"y":2550423.5299999993}},{"attributes":{"ID":444005,"DIS_CODE":0,"TOWNNAME":"永康區","LI":"三合里","LIN":"5鄰","STREET":"南工街","SECT":" ","MAREA":" ","LANE":"８２巷","ALLEY":" ","HOUSE_NO":"１２號","E_COORD97":172141.06,"N_COORD97":2545680.0800000001,"ADDRESS":"南工街８２巷１２號","OBJECTID":443980},"geometry":{"x":172141.06000000052,"y":2545680.0800000001}},{"attributes":{"ID":444006,"DIS_CODE":0,"TOWNNAME":"永康區","LI":"三民里","LIN":"5鄰","STREET":"三民街","SECT":" ","MAREA":" ","LANE":"９０巷","ALLEY":" ","HOUSE_NO":"４３號","E_COORD97":173007.94,"N_COORD97":2550390.7000000002,"ADDRESS":"三民街９０巷４３號","OBJECTID":443981},"geometry":{"x":173007.94000000041,"y":2550390.7000000011}},{"attributes":{"ID":444007,"DIS_CODE":0,"TOWNNAME":"永康區","LI":"三民里","LIN":"5鄰","STREET":"三民街","SECT":" ","MAREA":" ","LANE":"９０巷","ALLEY":" ","HOUSE_NO":"５１號","E_COORD97":173034.42999999999,"N_COORD97":2550408.5299999998,"ADDRESS":"三民街９０巷５１號","OBJECTID":443982},"geometry":{"x":173034.4299999997,"y":2550408.5300000012}},{"attributes":{"ID":444008,"DIS_CODE":0,"TOWNNAME":"永康區","LI":"大橋里","LIN":"5鄰","STREET":"大橋一街","SECT":" ","MAREA":" ","LANE":"１０３巷","ALLEY":" ","HOUSE_NO":"２００號","E_COORD97":170804.14999999999,"N_COORD97":2546802.7400000002,"ADDRESS":"大橋一街１０３巷２００號","OBJECTID":443983},"geometry":{"x":170804.15000000037,"y":2546802.7399999984}},{"attributes":{"ID":444009,"DIS_CODE":0,"TOWNNAME":"永康區","LI":"中興里","LIN":"5鄰","STREET":"中華路","SECT":" ","MAREA":" ","LANE":"２１４巷","ALLEY":" ","HOUSE_NO":"１４號","E_COORD97":171735.20999999999,"N_COORD97":2545048.9900000002,"ADDRESS":"中華路２１４巷１４號","OBJECTID":443984},"geometry":{"x":171735.21000000089,"y":2545048.9900000021}},{"attributes":{"ID":444010,"DIS_CODE":0,"TOWNNAME":"永康區","LI":"崑山里","LIN":"38鄰","STREET":"崑山街","SECT":" ","MAREA":" ","LANE":"１８３巷","ALLEY":" ","HOUSE_NO":"７號","E_COORD97":174029.57000000001,"N_COORD97":2544947.9900000002,"ADDRESS":"崑山街１８３巷７號","OBJECTID":443985},"geometry":{"x":174029.57000000123,"y":2544947.9900000021}},{"attributes":{"ID":444011,"DIS_CODE":0,"TOWNNAME":"永康區","LI":"\u25A0行里","LIN":"43鄰","STREET":"中正二街","SECT":" ","MAREA":" ","LANE":"２８５巷","ALLEY":" ","HOUSE_NO":"１９號","E_COORD97":171687.09,"N_COORD97":2547962.75,"ADDRESS":"中正二街２８５巷１９號","OBJECTID":443986},"geometry":{"x":171687.08999999985,"y":2547962.7500000019}},{"attributes":{"ID":444012,"DIS_CODE":0,"TOWNNAME":"永康區","LI":"復國里","LIN":"5鄰","STREET":"復國二路","SECT":" ","MAREA":" ","LANE":"４０巷","ALLEY":" ","HOUSE_NO":"１３號","E_COORD97":172871.63,"N_COORD97":2544995.5299999998,"ADDRESS":"復國二路４０巷１３號","OBJECTID":443987},"geometry":{"x":172871.62999999989,"y":2544995.5299999993}},{"attributes":{"ID":444013,"DIS_CODE":0,"TOWNNAME":"永康區","LI":"中興里","LIN":"5鄰","STREET":"中華路","SECT":" ","MAREA":" ","LANE":"２１４巷","ALLEY":" ","HOUSE_NO":"８７號","E_COORD97":171896.06,"N_COORD97":2545096.25,"ADDRESS":"中華路２１４巷８７號","OBJECTID":443988},"geometry":{"x":171896.06000000145,"y":2545096.25}},{"attributes":{"ID":444014,"DIS_CODE":0,"TOWNNAME":"永康區","LI":"復國里","LIN":"4鄰","STREET":"復國一路","SECT":" ","MAREA":" ","LANE":"６８巷","ALLEY":" ","HOUSE_NO":"１４號","E_COORD97":172762.79999999999,"N_COORD97":2544858.02,"ADDRESS":"復國一路６８巷１４號","OBJECTID":443989},"geometry":{"x":172762.80000000075,"y":2544858.0200000014}},{"attributes":{"ID":444015,"DIS_CODE":0,"TOWNNAME":"永康區","LI":"大橋里","LIN":"5鄰","STREET":"大橋一街","SECT":" ","MAREA":" ","LANE":"１０３巷","ALLEY":" ","HOUSE_NO":"２２２號","E_COORD97":170766.20000000001,"N_COORD97":2546832,"ADDRESS":"大橋一街１０３巷２２２號","OBJECTID":443990},"geometry":{"x":170766.20000000019,"y":2546832.0000000019}},{"attributes":{"ID":444016,"DIS_CODE":0,"TOWNNAME":"永康區","LI":"大橋里","LIN":"5鄰","STREET":"大橋一街","SECT":" ","MAREA":" ","LANE":"１０３巷","ALLEY":" ","HOUSE_NO":"１８８號","E_COORD97":170805,"N_COORD97":2546772.7400000002,"ADDRESS":"大橋一街１０３巷１８８號","OBJECTID":443991},"geometry":{"x":170805,"y":2546772.7400000021}},{"attributes":{"ID":444017,"DIS_CODE":0,"TOWNNAME":"永康區","LI":"大灣里","LIN":"5鄰","STREET":"大同街","SECT":" ","MAREA":" ","LANE":"１５３巷","ALLEY":" ","HOUSE_NO":"１０號","E_COORD97":174801.48999999999,"N_COORD97":2545606.8999999999,"ADDRESS":"大同街１５３巷１０號","OBJECTID":443992},"geometry":{"x":174801.49000000115,"y":2545606.9000000022}},{"attributes":{"ID":444018,"DIS_CODE":0,"TOWNNAME":"永康區","LI":"王行里","LIN":"5鄰","STREET":"育樂街","SECT":" ","MAREA":" ","LANE":"１４３巷","ALLEY":" ","HOUSE_NO":"１８號","E_COORD97":175077.92000000001,"N_COORD97":2548265.52,"ADDRESS":"育樂街１４３巷１８號","OBJECTID":443993},"geometry":{"x":175077.92000000086,"y":2548265.5200000014}},{"attributes":{"ID":444019,"DIS_CODE":0,"TOWNNAME":"中西區","LI":"民生里","LIN":"1鄰","STREET":"大智街","SECT":" ","MAREA":" ","LANE":" ","ALLEY":" ","HOUSE_NO":"１３０號","E_COORD97":167238.42999999999,"N_COORD97":2543288.23,"ADDRESS":"大智街１３０號","OBJECTID":443994},"geometry":{"x":167238.4299999997,"y":2543288.2300000023}},{"attributes":{"ID":444020,"DIS_CODE":0,"TOWNNAME":"永康區","LI":"中興里","LIN":"5鄰","STREET":"中華一路","SECT":" ","MAREA":" ","LANE":"５８巷","ALLEY":" ","HOUSE_NO":"２１號","E_COORD97":171847.09,"N_COORD97":2545048.4900000002,"ADDRESS":"中華一路５８巷２１號","OBJECTID":443995},"geometry":{"x":171847.09000000171,"y":2545048.4900000039}},{"attributes":{"ID":444021,"DIS_CODE":0,"TOWNNAME":"永康區","LI":"中興里","LIN":"5鄰","STREET":"中華一路","SECT":" ","MAREA":" ","LANE":"５８巷","ALLEY":" ","HOUSE_NO":"１９號","E_COORD97":171847.72,"N_COORD97":2545043.7400000002,"ADDRESS":"中華一路５８巷１９號","OBJECTID":443996},"geometry":{"x":171847.7200000016,"y":2545043.7400000021}},{"attributes":{"ID":444022,"DIS_CODE":0,"TOWNNAME":"永康區","LI":"復國里","LIN":"5鄰","STREET":"復國一路","SECT":" ","MAREA":" ","LANE":"９０巷","ALLEY":" ","HOUSE_NO":"７號","E_COORD97":172746.76000000001,"N_COORD97":2544937.4100000001,"ADDRESS":"復國一路９０巷７號","OBJECTID":443997},"geometry":{"x":172746.76000000071,"y":2544937.410000002}},{"attributes":{"ID":444023,"DIS_CODE":0,"TOWNNAME":"永康區","LI":"\u25A0行里","LIN":"4鄰","STREET":"新行街","SECT":" ","MAREA":" ","LANE":"４巷","ALLEY":" ","HOUSE_NO":"７號","E_COORD97":172247.14000000001,"N_COORD97":2548732.25,"ADDRESS":"新行街４巷７號","OBJECTID":443998},"geometry":{"x":172247.1400000006,"y":2548732.2500000019}},{"attributes":{"ID":444024,"DIS_CODE":0,"TOWNNAME":"永康區","LI":"復國里","LIN":"5鄰","STREET":"復國一路","SECT":" ","MAREA":" ","LANE":"９０巷","ALLEY":" ","HOUSE_NO":"２４號","E_COORD97":172762.89999999999,"N_COORD97":2544923.02,"ADDRESS":"復國一路９０巷２４號","OBJECTID":443999},"geometry":{"x":172762.9000000013,"y":2544923.0200000014}},{"attributes":{"ID":444025,"DIS_CODE":0,"TOWNNAME":"永康區","LI":"神洲里","LIN":"5鄰","STREET":"忠孝路","SECT":" ","MAREA":" ","LANE":"４４巷","ALLEY":" ","HOUSE_NO":"１０號","E_COORD97":172104.01000000001,"N_COORD97":2544724.4900000002,"ADDRESS":"忠孝路４４巷１０號","OBJECTID":444000},"geometry":{"x":172104.01000000071,"y":2544724.4900000021}}]}