{"displayFieldName":"TOWNNAME","fieldAliases":{"ID":"ID","DIS_CODE":"DIS_CODE","TOWNNAME":"TOWNNAME","LI":"LI","LIN":"LIN","STREET":"STREET","SECT":"SECT","MAREA":"MAREA","LANE":"LANE","ALLEY":"ALLEY","HOUSE_NO":"HOUSE_NO","E_COORD97":"E_COORD97","N_COORD97":"N_COORD97","ADDRESS":"ADDRESS","OBJECTID":"OBJECTID"},"geometryType":"esriGeometryPoint","spatialReference":{"wkid":102443,"latestWkid":3826},"fields":[{"name":"ID","type":"esriFieldTypeDouble","alias":"ID"},{"name":"DIS_CODE","type":"esriFieldTypeInteger","alias":"DIS_CODE"},{"name":"TOWNNAME","type":"esriFieldTypeString","alias":"TOWNNAME","length":8},{"name":"LI","type":"esriFieldTypeString","alias":"LI","length":8},{"name":"LIN","type":"esriFieldTypeString","alias":"LIN","length":12},{"name":"STREET","type":"esriFieldTypeString","alias":"STREET","length":20},{"name":"SECT","type":"esriFieldTypeString","alias":"SECT","length":8},{"name":"MAREA","type":"esriFieldTypeString","alias":"MAREA","length":12},{"name":"LANE","type":"esriFieldTypeString","alias":"LANE","length":10},{"name":"ALLEY","type":"esriFieldTypeString","alias":"ALLEY","length":10},{"name":"HOUSE_NO","type":"esriFieldTypeString","alias":"HOUSE_NO","length":20},{"name":"E_COORD97","type":"esriFieldTypeDouble","alias":"E_COORD97"},{"name":"N_COORD97","type":"esriFieldTypeDouble","alias":"N_COORD97"},{"name":"ADDRESS","type":"esriFieldTypeString","alias":"ADDRESS","length":50},{"name":"OBJECTID","type":"esriFieldTypeOID","alias":"OBJECTID"}],"features":[{"attributes":{"ID":54001,"DIS_CODE":0,"TOWNNAME":"北門區","LI":"仁里里","LIN":"1鄰","STREET":" ","SECT":" ","MAREA":"二重港","LANE":" ","ALLEY":" ","HOUSE_NO":"１７號","E_COORD97":161855.39000000001,"N_COORD97":2571305.1600000001,"ADDRESS":"二重港１７號","OBJECTID":54001},"geometry":{"x":161855.3900000006,"y":2571305.1600000001}},{"attributes":{"ID":54002,"DIS_CODE":0,"TOWNNAME":"北門區","LI":"仁里里","LIN":"1鄰","STREET":" ","SECT":" ","MAREA":"二重港","LANE":" ","ALLEY":" ","HOUSE_NO":"１８號","E_COORD97":161846.79999999999,"N_COORD97":2571303.8199999998,"ADDRESS":"二重港１８號","OBJECTID":54002},"geometry":{"x":161846.79999999981,"y":2571303.8200000003}},{"attributes":{"ID":54003,"DIS_CODE":0,"TOWNNAME":"北門區","LI":"仁里里","LIN":"1鄰","STREET":" ","SECT":" ","MAREA":"二重港","LANE":" ","ALLEY":" ","HOUSE_NO":"１９號","E_COORD97":161847.59,"N_COORD97":2571297.8900000001,"ADDRESS":"二重港１９號","OBJECTID":54003},"geometry":{"x":161847.59000000078,"y":2571297.8900000043}},{"attributes":{"ID":54004,"DIS_CODE":0,"TOWNNAME":"安南區","LI":"\u25A0田里","LIN":"1鄰","STREET":"\u25A0田路","SECT":" ","MAREA":" ","LANE":"３２９巷","ALLEY":"１０弄","HOUSE_NO":"４１號","E_COORD97":161913.91,"N_COORD97":2548003.3399999999,"ADDRESS":"\u25A0田路３２９巷１０弄４１號","OBJECTID":54004},"geometry":{"x":161913.91000000015,"y":2548003.3400000017}},{"attributes":{"ID":54005,"DIS_CODE":0,"TOWNNAME":"安南區","LI":"\u25A0田里","LIN":"1鄰","STREET":"\u25A0田路","SECT":" ","MAREA":" ","LANE":"３２９巷","ALLEY":"１０弄","HOUSE_NO":"４２號","E_COORD97":161934.28,"N_COORD97":2548032.8399999999,"ADDRESS":"\u25A0田路３２９巷１０弄４２號","OBJECTID":54005},"geometry":{"x":161934.27999999933,"y":2548032.8400000036}},{"attributes":{"ID":54006,"DIS_CODE":0,"TOWNNAME":"安南區","LI":"\u25A0田里","LIN":"1鄰","STREET":"\u25A0田路","SECT":" ","MAREA":" ","LANE":"３２９巷","ALLEY":"１０弄","HOUSE_NO":"４３號","E_COORD97":161907.07999999999,"N_COORD97":2548002.0699999998,"ADDRESS":"\u25A0田路３２９巷１０弄４３號","OBJECTID":54006},"geometry":{"x":161907.08000000101,"y":2548002.0700000022}},{"attributes":{"ID":54007,"DIS_CODE":0,"TOWNNAME":"安南區","LI":"\u25A0田里","LIN":"1鄰","STREET":"\u25A0田路","SECT":" ","MAREA":" ","LANE":"３２９巷","ALLEY":"１０弄","HOUSE_NO":"４５號","E_COORD97":161901.37,"N_COORD97":2547999.5299999998,"ADDRESS":"\u25A0田路３２９巷１０弄４５號","OBJECTID":54007},"geometry":{"x":161901.37000000197,"y":2547999.5299999993}},{"attributes":{"ID":54008,"DIS_CODE":0,"TOWNNAME":"安南區","LI":"\u25A0田里","LIN":"1鄰","STREET":"\u25A0田路","SECT":" ","MAREA":" ","LANE":"３２９巷","ALLEY":"１０弄","HOUSE_NO":"４６號","E_COORD97":161929.51999999999,"N_COORD97":2548031.4100000001,"ADDRESS":"\u25A0田路３２９巷１０弄４６號","OBJECTID":54008},"geometry":{"x":161929.51999999955,"y":2548031.4100000001}},{"attributes":{"ID":54009,"DIS_CODE":0,"TOWNNAME":"北門區","LI":"仁里里","LIN":"1鄰","STREET":" ","SECT":" ","MAREA":"二重港","LANE":" ","ALLEY":" ","HOUSE_NO":"２４號","E_COORD97":161801.42000000001,"N_COORD97":2571337.75,"ADDRESS":"二重港２４號","OBJECTID":54009},"geometry":{"x":161801.42000000086,"y":2571337.75}},{"attributes":{"ID":54010,"DIS_CODE":0,"TOWNNAME":"安南區","LI":"\u25A0田里","LIN":"1鄰","STREET":"\u25A0田路","SECT":" ","MAREA":" ","LANE":"３２９巷","ALLEY":"１０弄","HOUSE_NO":"４７號","E_COORD97":161893.10999999999,"N_COORD97":2547997.7799999998,"ADDRESS":"\u25A0田路３２９巷１０弄４７號","OBJECTID":54010},"geometry":{"x":161893.1099999994,"y":2547997.7799999993}},{"attributes":{"ID":54011,"DIS_CODE":0,"TOWNNAME":"永康區","LI":"北灣里","LIN":"8鄰","STREET":"大灣七街","SECT":" ","MAREA":" ","LANE":" ","ALLEY":" ","HOUSE_NO":"７號","E_COORD97":175072.48999999999,"N_COORD97":2545553.1400000001,"ADDRESS":"大灣七街７號","OBJECTID":54011},"geometry":{"x":175072.49000000115,"y":2545553.1400000043}},{"attributes":{"ID":54012,"DIS_CODE":0,"TOWNNAME":"新市區","LI":"潭頂里","LIN":"8鄰","STREET":" ","SECT":" ","MAREA":"潭頂","LANE":" ","ALLEY":" ","HOUSE_NO":"３０８號","E_COORD97":180690.56,"N_COORD97":2552953,"ADDRESS":"潭頂３０８號","OBJECTID":54012},"geometry":{"x":180690.55999999959,"y":2552953}},{"attributes":{"ID":54013,"DIS_CODE":0,"TOWNNAME":"新市區","LI":"潭頂里","LIN":"8鄰","STREET":" ","SECT":" ","MAREA":"潭頂","LANE":" ","ALLEY":" ","HOUSE_NO":"３１２號","E_COORD97":180667.78,"N_COORD97":2552991,"ADDRESS":"潭頂３１２號","OBJECTID":54013},"geometry":{"x":180667.78000000026,"y":2552991}},{"attributes":{"ID":54014,"DIS_CODE":0,"TOWNNAME":"新市區","LI":"潭頂里","LIN":"8鄰","STREET":" ","SECT":" ","MAREA":"潭頂","LANE":" ","ALLEY":" ","HOUSE_NO":"３１９之２號","E_COORD97":180690.47,"N_COORD97":2553095.0499999998,"ADDRESS":"潭頂３１９之２號","OBJECTID":54014},"geometry":{"x":180690.47000000067,"y":2553095.0500000026}},{"attributes":{"ID":54015,"DIS_CODE":0,"TOWNNAME":"新市區","LI":"潭頂里","LIN":"8鄰","STREET":" ","SECT":" ","MAREA":"潭頂","LANE":" ","ALLEY":" ","HOUSE_NO":"３１８之３號","E_COORD97":180670.75,"N_COORD97":2553010.5499999998,"ADDRESS":"潭頂３１８之３號","OBJECTID":54015},"geometry":{"x":180670.75,"y":2553010.5500000026}},{"attributes":{"ID":54016,"DIS_CODE":0,"TOWNNAME":"新市區","LI":"潭頂里","LIN":"8鄰","STREET":" ","SECT":" ","MAREA":"潭頂","LANE":" ","ALLEY":" ","HOUSE_NO":"３２３之５號","E_COORD97":180711.42000000001,"N_COORD97":2553242.2999999998,"ADDRESS":"潭頂３２３之５號","OBJECTID":54016},"geometry":{"x":180711.42000000086,"y":2553242.3000000026}},{"attributes":{"ID":54017,"DIS_CODE":0,"TOWNNAME":"新市區","LI":"潭頂里","LIN":"8鄰","STREET":" ","SECT":" ","MAREA":"潭頂","LANE":" ","ALLEY":" ","HOUSE_NO":"３２３之９８號","E_COORD97":180956.98000000001,"N_COORD97":2553540.0499999998,"ADDRESS":"潭頂３２３之９８號","OBJECTID":54017},"geometry":{"x":180956.98000000138,"y":2553540.0500000007}},{"attributes":{"ID":54018,"DIS_CODE":0,"TOWNNAME":"安南區","LI":"\u25A0田里","LIN":"1鄰","STREET":"\u25A0田路","SECT":" ","MAREA":" ","LANE":"３２９巷","ALLEY":"１０弄","HOUSE_NO":"４８號","E_COORD97":161922.69,"N_COORD97":2548029.5,"ADDRESS":"\u25A0田路３２９巷１０弄４８號","OBJECTID":54018},"geometry":{"x":161922.69000000041,"y":2548029.5000000019}},{"attributes":{"ID":54019,"DIS_CODE":0,"TOWNNAME":"安南區","LI":"\u25A0田里","LIN":"1鄰","STREET":"\u25A0田路","SECT":" ","MAREA":" ","LANE":"３２９巷","ALLEY":"１０弄","HOUSE_NO":"４９號","E_COORD97":161883.57999999999,"N_COORD97":2547992.6400000001,"ADDRESS":"\u25A0田路３２９巷１０弄４９號","OBJECTID":54019},"geometry":{"x":161883.58000000101,"y":2547992.6400000006}},{"attributes":{"ID":54020,"DIS_CODE":0,"TOWNNAME":"安南區","LI":"\u25A0田里","LIN":"1鄰","STREET":"\u25A0田路","SECT":" ","MAREA":" ","LANE":"３２９巷","ALLEY":"１０弄","HOUSE_NO":"５０號","E_COORD97":161918.72,"N_COORD97":2548027.7599999998,"ADDRESS":"\u25A0田路３２９巷１０弄５０號","OBJECTID":54020},"geometry":{"x":161918.71999999974,"y":2548027.7600000016}},{"attributes":{"ID":54021,"DIS_CODE":0,"TOWNNAME":"安南區","LI":"\u25A0田里","LIN":"1鄰","STREET":"\u25A0田路","SECT":" ","MAREA":" ","LANE":"３２９巷","ALLEY":"１０弄","HOUSE_NO":"５１號","E_COORD97":161874.06,"N_COORD97":2547991.6899999999,"ADDRESS":"\u25A0田路３２９巷１０弄５１號","OBJECTID":54021},"geometry":{"x":161874.05999999866,"y":2547991.6899999995}},{"attributes":{"ID":54022,"DIS_CODE":0,"TOWNNAME":"安南區","LI":"\u25A0田里","LIN":"1鄰","STREET":"\u25A0田路","SECT":" ","MAREA":" ","LANE":"３２９巷","ALLEY":"１０弄","HOUSE_NO":"５２號","E_COORD97":161914.60000000001,"N_COORD97":2548026.4900000002,"ADDRESS":"\u25A0田路３２９巷１０弄５２號","OBJECTID":54022},"geometry":{"x":161914.60000000149,"y":2548026.4900000021}},{"attributes":{"ID":54023,"DIS_CODE":0,"TOWNNAME":"安南區","LI":"\u25A0田里","LIN":"1鄰","STREET":"\u25A0田路","SECT":" ","MAREA":" ","LANE":"３２９巷","ALLEY":"１０弄","HOUSE_NO":"５３號","E_COORD97":161865.79999999999,"N_COORD97":2547991.5299999998,"ADDRESS":"\u25A0田路３２９巷１０弄５３號","OBJECTID":54023},"geometry":{"x":161865.79999999981,"y":2547991.5300000012}},{"attributes":{"ID":54024,"DIS_CODE":0,"TOWNNAME":"安南區","LI":"\u25A0田里","LIN":"1鄰","STREET":"\u25A0田路","SECT":" ","MAREA":" ","LANE":"３２９巷","ALLEY":"１０弄","HOUSE_NO":"５５號","E_COORD97":161858.82000000001,"N_COORD97":2547991.5299999998,"ADDRESS":"\u25A0田路３２９巷１０弄５５號","OBJECTID":54024},"geometry":{"x":161858.8200000003,"y":2547991.5300000012}},{"attributes":{"ID":54025,"DIS_CODE":0,"TOWNNAME":"安南區","LI":"\u25A0田里","LIN":"1鄰","STREET":"\u25A0田路","SECT":" ","MAREA":" ","LANE":"３２９巷","ALLEY":"１０弄","HOUSE_NO":"５６號","E_COORD97":161910.31,"N_COORD97":2548024.8999999999,"ADDRESS":"\u25A0田路３２９巷１０弄５６號","OBJECTID":54025},"geometry":{"x":161910.31000000052,"y":2548024.9000000004}},{"attributes":{"ID":54026,"DIS_CODE":0,"TOWNNAME":"安南區","LI":"\u25A0田里","LIN":"1鄰","STREET":"\u25A0田路","SECT":" ","MAREA":" ","LANE":"３２９巷","ALLEY":"１０弄","HOUSE_NO":"５７號","E_COORD97":161851.67999999999,"N_COORD97":2547989.6200000001,"ADDRESS":"\u25A0田路３２９巷１０弄５７號","OBJECTID":54026},"geometry":{"x":161851.68000000063,"y":2547989.620000001}},{"attributes":{"ID":54027,"DIS_CODE":0,"TOWNNAME":"安南區","LI":"\u25A0田里","LIN":"1鄰","STREET":"\u25A0田路","SECT":" ","MAREA":" ","LANE":"３２９巷","ALLEY":"１０弄","HOUSE_NO":"５８號","E_COORD97":161905.70999999999,"N_COORD97":2548022.2000000002,"ADDRESS":"\u25A0田路３２９巷１０弄５８號","OBJECTID":54027},"geometry":{"x":161905.71000000183,"y":2548022.1999999993}},{"attributes":{"ID":54028,"DIS_CODE":0,"TOWNNAME":"新市區","LI":"新市里","LIN":"8鄰","STREET":"民生路","SECT":" ","MAREA":" ","LANE":"２巷","ALLEY":" ","HOUSE_NO":"８號","E_COORD97":177406.69,"N_COORD97":2553151.3500000001,"ADDRESS":"民生路２巷８號","OBJECTID":54028},"geometry":{"x":177406.69000000041,"y":2553151.3499999996}},{"attributes":{"ID":54029,"DIS_CODE":0,"TOWNNAME":"新市區","LI":"新和里","LIN":"8鄰","STREET":"仁愛街","SECT":" ","MAREA":" ","LANE":" ","ALLEY":" ","HOUSE_NO":"４３號","E_COORD97":177498.29000000001,"N_COORD97":2552330.2799999998,"ADDRESS":"仁愛街４３號","OBJECTID":54029},"geometry":{"x":177498.29000000097,"y":2552330.2799999993}},{"attributes":{"ID":54030,"DIS_CODE":0,"TOWNNAME":"新市區","LI":"新和里","LIN":"8鄰","STREET":"仁愛街","SECT":" ","MAREA":" ","LANE":" ","ALLEY":" ","HOUSE_NO":"４７號","E_COORD97":177496.54000000001,"N_COORD97":2552339.2799999998,"ADDRESS":"仁愛街４７號","OBJECTID":54030},"geometry":{"x":177496.54000000097,"y":2552339.2800000012}},{"attributes":{"ID":54031,"DIS_CODE":0,"TOWNNAME":"安南區","LI":"\u25A0田里","LIN":"1鄰","STREET":"\u25A0田路","SECT":" ","MAREA":" ","LANE":"３２９巷","ALLEY":"１０弄","HOUSE_NO":"６０號","E_COORD97":161899.51000000001,"N_COORD97":2548020.4500000002,"ADDRESS":"\u25A0田路３２９巷１０弄６０號","OBJECTID":54031},"geometry":{"x":161899.50999999978,"y":2548020.4499999993}},{"attributes":{"ID":54032,"DIS_CODE":0,"TOWNNAME":"新市區","LI":"港墘里","LIN":"8鄰","STREET":" ","SECT":" ","MAREA":"崙頂","LANE":" ","ALLEY":" ","HOUSE_NO":"１７之１０號","E_COORD97":179070.38,"N_COORD97":2552584.6099999999,"ADDRESS":"崙頂１７之１０號","OBJECTID":54032},"geometry":{"x":179070.38000000082,"y":2552584.6100000013}},{"attributes":{"ID":54033,"DIS_CODE":0,"TOWNNAME":"新市區","LI":"港墘里","LIN":"8鄰","STREET":" ","SECT":" ","MAREA":"崙頂","LANE":" ","ALLEY":" ","HOUSE_NO":"１８之５號","E_COORD97":178999.87,"N_COORD97":2552583.8700000001,"ADDRESS":"崙頂１８之５號","OBJECTID":54033},"geometry":{"x":178999.87000000104,"y":2552583.8700000029}},{"attributes":{"ID":54034,"DIS_CODE":0,"TOWNNAME":"北門區","LI":"仁里里","LIN":"1鄰","STREET":" ","SECT":" ","MAREA":"二重港","LANE":" ","ALLEY":" ","HOUSE_NO":"１號","E_COORD97":162246.25,"N_COORD97":2571368.8599999999,"ADDRESS":"二重港１號","OBJECTID":54034},"geometry":{"x":162246.25000000186,"y":2571368.8600000013}},{"attributes":{"ID":54035,"DIS_CODE":0,"TOWNNAME":"北門區","LI":"仁里里","LIN":"1鄰","STREET":" ","SECT":" ","MAREA":"二重港","LANE":" ","ALLEY":" ","HOUSE_NO":"２０號","E_COORD97":161845.82000000001,"N_COORD97":2571293.9399999999,"ADDRESS":"二重港２０號","OBJECTID":54035},"geometry":{"x":161845.8200000003,"y":2571293.9400000013}},{"attributes":{"ID":54036,"DIS_CODE":0,"TOWNNAME":"北門區","LI":"仁里里","LIN":"1鄰","STREET":" ","SECT":" ","MAREA":"二重港","LANE":" ","ALLEY":" ","HOUSE_NO":"２１號","E_COORD97":161843.92999999999,"N_COORD97":2571290.23,"ADDRESS":"二重港２１號","OBJECTID":54036},"geometry":{"x":161843.9299999997,"y":2571290.2300000023}},{"attributes":{"ID":54037,"DIS_CODE":0,"TOWNNAME":"安南區","LI":"\u25A0田里","LIN":"1鄰","STREET":"\u25A0田路","SECT":" ","MAREA":" ","LANE":"３２９巷","ALLEY":"１０弄","HOUSE_NO":"６２號","E_COORD97":161894.75,"N_COORD97":2548019.0299999998,"ADDRESS":"\u25A0田路３２９巷１０弄６２號","OBJECTID":54037},"geometry":{"x":161894.75,"y":2548019.0299999993}},{"attributes":{"ID":54038,"DIS_CODE":0,"TOWNNAME":"北門區","LI":"仁里里","LIN":"1鄰","STREET":" ","SECT":" ","MAREA":"二重港","LANE":" ","ALLEY":" ","HOUSE_NO":"２３號","E_COORD97":161810.12,"N_COORD97":2571303.5299999998,"ADDRESS":"二重港２３號","OBJECTID":54038},"geometry":{"x":161810.12000000104,"y":2571303.5300000012}},{"attributes":{"ID":54039,"DIS_CODE":0,"TOWNNAME":"安南區","LI":"\u25A0田里","LIN":"1鄰","STREET":"\u25A0田路","SECT":" ","MAREA":" ","LANE":"３２９巷","ALLEY":"１０弄","HOUSE_NO":"６６號","E_COORD97":161888.88,"N_COORD97":2548016.0099999998,"ADDRESS":"\u25A0田路３２９巷１０弄６６號","OBJECTID":54039},"geometry":{"x":161888.87999999989,"y":2548016.0100000016}},{"attributes":{"ID":54040,"DIS_CODE":0,"TOWNNAME":"安南區","LI":"\u25A0田里","LIN":"1鄰","STREET":"\u25A0田路","SECT":" ","MAREA":" ","LANE":"３２９巷","ALLEY":"１０弄","HOUSE_NO":"６８號","E_COORD97":161882.69,"N_COORD97":2548012.6800000002,"ADDRESS":"\u25A0田路３２９巷１０弄６８號","OBJECTID":54040},"geometry":{"x":161882.69000000227,"y":2548012.6799999997}},{"attributes":{"ID":54041,"DIS_CODE":0,"TOWNNAME":"安南區","LI":"\u25A0田里","LIN":"1鄰","STREET":"\u25A0田路","SECT":" ","MAREA":" ","LANE":"３２９巷","ALLEY":"１０弄","HOUSE_NO":"７０號","E_COORD97":161875.07000000001,"N_COORD97":2548009.6499999999,"ADDRESS":"\u25A0田路３２９巷１０弄７０號","OBJECTID":54041},"geometry":{"x":161875.07000000123,"y":2548009.6500000004}},{"attributes":{"ID":54042,"DIS_CODE":0,"TOWNNAME":"北門區","LI":"仁里里","LIN":"1鄰","STREET":" ","SECT":" ","MAREA":"二重港","LANE":" ","ALLEY":" ","HOUSE_NO":"２５號","E_COORD97":161754.81,"N_COORD97":2571342.5099999998,"ADDRESS":"二重港２５號","OBJECTID":54042},"geometry":{"x":161754.80999999959,"y":2571342.5099999998}},{"attributes":{"ID":54043,"DIS_CODE":0,"TOWNNAME":"北門區","LI":"仁里里","LIN":"1鄰","STREET":" ","SECT":" ","MAREA":"二重港","LANE":" ","ALLEY":" ","HOUSE_NO":"２６號","E_COORD97":161750.29000000001,"N_COORD97":2571340.8199999998,"ADDRESS":"二重港２６號","OBJECTID":54043},"geometry":{"x":161750.29000000004,"y":2571340.8200000003}},{"attributes":{"ID":54044,"DIS_CODE":0,"TOWNNAME":"北門區","LI":"仁里里","LIN":"1鄰","STREET":" ","SECT":" ","MAREA":"二重港","LANE":" ","ALLEY":" ","HOUSE_NO":"２號","E_COORD97":162241.04999999999,"N_COORD97":2571406.9500000002,"ADDRESS":"二重港２號","OBJECTID":54044},"geometry":{"x":162241.05000000075,"y":2571406.9499999993}},{"attributes":{"ID":54045,"DIS_CODE":0,"TOWNNAME":"安南區","LI":"\u25A0田里","LIN":"1鄰","STREET":"\u25A0田路","SECT":" ","MAREA":" ","LANE":"３２９巷","ALLEY":"１０弄","HOUSE_NO":"７２號","E_COORD97":161868.72,"N_COORD97":2548007.9100000001,"ADDRESS":"\u25A0田路３２９巷１０弄７２號","OBJECTID":54045},"geometry":{"x":161868.72000000067,"y":2548007.9100000001}},{"attributes":{"ID":54046,"DIS_CODE":0,"TOWNNAME":"北門區","LI":"三光里","LIN":"1鄰","STREET":" ","SECT":" ","MAREA":"三寮灣","LANE":" ","ALLEY":" ","HOUSE_NO":"３４號","E_COORD97":159334.84,"N_COORD97":2570897.71,"ADDRESS":"三寮灣３４號","OBJECTID":54046},"geometry":{"x":159334.84000000171,"y":2570897.7100000009}},{"attributes":{"ID":54047,"DIS_CODE":0,"TOWNNAME":"安南區","LI":"\u25A0田里","LIN":"1鄰","STREET":"\u25A0田路","SECT":" ","MAREA":" ","LANE":"３２９巷","ALLEY":"１０弄","HOUSE_NO":"７６號","E_COORD97":161860.29999999999,"N_COORD97":2548005.0600000001,"ADDRESS":"\u25A0田路３２９巷１０弄７６號","OBJECTID":54047},"geometry":{"x":161860.29999999981,"y":2548005.0600000024}},{"attributes":{"ID":54048,"DIS_CODE":0,"TOWNNAME":"安南區","LI":"\u25A0田里","LIN":"1鄰","STREET":"\u25A0田路","SECT":" ","MAREA":" ","LANE":"３２９巷","ALLEY":"１０弄","HOUSE_NO":"７８號","E_COORD97":161852.51999999999,"N_COORD97":2548002.04,"ADDRESS":"\u25A0田路３２９巷１０弄７８號","OBJECTID":54048},"geometry":{"x":161852.52000000048,"y":2548002.0399999991}},{"attributes":{"ID":54049,"DIS_CODE":0,"TOWNNAME":"永康區","LI":"永康里","LIN":"1鄰","STREET":"中山北路","SECT":" ","MAREA":" ","LANE":"３５巷","ALLEY":"３６弄","HOUSE_NO":"５號","E_COORD97":173924.67000000001,"N_COORD97":2547544.25,"ADDRESS":"中山北路３５巷３６弄５號","OBJECTID":54049},"geometry":{"x":173924.66999999993,"y":2547544.25}},{"attributes":{"ID":54050,"DIS_CODE":0,"TOWNNAME":"永康區","LI":"永康里","LIN":"1鄰","STREET":"中山北路","SECT":" ","MAREA":" ","LANE":"３５巷","ALLEY":"３６弄","HOUSE_NO":"６號","E_COORD97":173918.13,"N_COORD97":2547532.4900000002,"ADDRESS":"中山北路３５巷３６弄６號","OBJECTID":54050},"geometry":{"x":173918.12999999989,"y":2547532.4900000002}},{"attributes":{"ID":54051,"DIS_CODE":0,"TOWNNAME":"永康區","LI":"永康里","LIN":"1鄰","STREET":"中山北路","SECT":" ","MAREA":" ","LANE":"３５巷","ALLEY":"３６弄","HOUSE_NO":"１０號","E_COORD97":173929.23999999999,"N_COORD97":2547535.9900000002,"ADDRESS":"中山北路３５巷３６弄１０號","OBJECTID":54051},"geometry":{"x":173929.24000000022,"y":2547535.9900000002}},{"attributes":{"ID":54052,"DIS_CODE":0,"TOWNNAME":"永康區","LI":"正強里","LIN":"1鄰","STREET":"中正路","SECT":" ","MAREA":" ","LANE":"１巷","ALLEY":"１弄","HOUSE_NO":"１號","E_COORD97":173731.57000000001,"N_COORD97":2547649,"ADDRESS":"中正路１巷１弄１號","OBJECTID":54052},"geometry":{"x":173731.57000000123,"y":2547649.0000000019}},{"attributes":{"ID":54053,"DIS_CODE":0,"TOWNNAME":"永康區","LI":"正強里","LIN":"1鄰","STREET":"中正路","SECT":" ","MAREA":" ","LANE":"１巷","ALLEY":"７弄","HOUSE_NO":"５號","E_COORD97":173719.73000000001,"N_COORD97":2547624.7400000002,"ADDRESS":"中正路１巷７弄５號","OBJECTID":54053},"geometry":{"x":173719.73000000045,"y":2547624.7400000021}},{"attributes":{"ID":54054,"DIS_CODE":0,"TOWNNAME":"永康區","LI":"永康里","LIN":"1鄰","STREET":"永埔街","SECT":" ","MAREA":" ","LANE":"３３巷","ALLEY":"２８弄","HOUSE_NO":"３號","E_COORD97":173937.82999999999,"N_COORD97":2547542.4900000002,"ADDRESS":"永埔街３３巷２８弄３號","OBJECTID":54054},"geometry":{"x":173937.83000000101,"y":2547542.4900000002}},{"attributes":{"ID":54055,"DIS_CODE":0,"TOWNNAME":"永康區","LI":"正強里","LIN":"1鄰","STREET":"中正路","SECT":" ","MAREA":" ","LANE":"１巷","ALLEY":"１弄","HOUSE_NO":"１６號","E_COORD97":173718.03,"N_COORD97":2547595.7400000002,"ADDRESS":"中正路１巷１弄１６號","OBJECTID":54055},"geometry":{"x":173718.03000000119,"y":2547595.7400000002}},{"attributes":{"ID":54056,"DIS_CODE":0,"TOWNNAME":"新化區","LI":"中央里","LIN":"1鄰","STREET":"中央路","SECT":" ","MAREA":" ","LANE":"１２巷","ALLEY":"１３弄","HOUSE_NO":"１之２號３樓之４５","E_COORD97":181852.89000000001,"N_COORD97":2548498.8799999999,"ADDRESS":"中央路１２巷１３弄１之２號３樓之４５","OBJECTID":54056},"geometry":{"x":181852.88999999966,"y":2548498.879999999}},{"attributes":{"ID":54057,"DIS_CODE":0,"TOWNNAME":"北門區","LI":"仁里里","LIN":"1鄰","STREET":" ","SECT":" ","MAREA":"二重港","LANE":" ","ALLEY":" ","HOUSE_NO":"６號","E_COORD97":162029.26000000001,"N_COORD97":2571358.5499999998,"ADDRESS":"二重港６號","OBJECTID":54057},"geometry":{"x":162029.26000000071,"y":2571358.5500000026}},{"attributes":{"ID":54058,"DIS_CODE":0,"TOWNNAME":"北門區","LI":"三光里","LIN":"1鄰","STREET":" ","SECT":" ","MAREA":"三寮灣","LANE":" ","ALLEY":" ","HOUSE_NO":"１１號","E_COORD97":159304.23999999999,"N_COORD97":2570963.48,"ADDRESS":"三寮灣１１號","OBJECTID":54058},"geometry":{"x":159304.24000000115,"y":2570963.4800000004}},{"attributes":{"ID":54059,"DIS_CODE":0,"TOWNNAME":"北門區","LI":"三光里","LIN":"1鄰","STREET":" ","SECT":" ","MAREA":"三寮灣","LANE":" ","ALLEY":" ","HOUSE_NO":"１２號","E_COORD97":159828.76000000001,"N_COORD97":2571054.5099999998,"ADDRESS":"三寮灣１２號","OBJECTID":54059},"geometry":{"x":159828.76000000071,"y":2571054.5099999998}},{"attributes":{"ID":54060,"DIS_CODE":0,"TOWNNAME":"北門區","LI":"三光里","LIN":"1鄰","STREET":" ","SECT":" ","MAREA":"三寮灣","LANE":" ","ALLEY":" ","HOUSE_NO":"１３之１號","E_COORD97":159556.95999999999,"N_COORD97":2571007.96,"ADDRESS":"三寮灣１３之１號","OBJECTID":54060},"geometry":{"x":159556.96000000089,"y":2571007.9600000009}},{"attributes":{"ID":54061,"DIS_CODE":0,"TOWNNAME":"北門區","LI":"三光里","LIN":"1鄰","STREET":" ","SECT":" ","MAREA":"三寮灣","LANE":" ","ALLEY":" ","HOUSE_NO":"１３之８號","E_COORD97":159513.47,"N_COORD97":2571005.3900000001,"ADDRESS":"三寮灣１３之８號","OBJECTID":54061},"geometry":{"x":159513.4700000016,"y":2571005.3900000006}},{"attributes":{"ID":54062,"DIS_CODE":0,"TOWNNAME":"新市區","LI":"豐華里","LIN":"8鄰","STREET":"看西路","SECT":" ","MAREA":" ","LANE":" ","ALLEY":" ","HOUSE_NO":"５號","E_COORD97":174627.48999999999,"N_COORD97":2554737.2200000002,"ADDRESS":"看西路５號","OBJECTID":54062},"geometry":{"x":174627.49000000022,"y":2554737.2200000044}},{"attributes":{"ID":54063,"DIS_CODE":0,"TOWNNAME":"南區","LI":"竹溪里","LIN":"1鄰","STREET":"健康路","SECT":"一段","MAREA":" ","LANE":"１１３巷","ALLEY":"５５弄","HOUSE_NO":"２２號","E_COORD97":168956.26999999999,"N_COORD97":2542132.1800000002,"ADDRESS":"健康路一段１１３巷５５弄２２號","OBJECTID":54063},"geometry":{"x":168956.26999999955,"y":2542132.1800000016}},{"attributes":{"ID":54064,"DIS_CODE":0,"TOWNNAME":"南區","LI":"竹溪里","LIN":"1鄰","STREET":"健康路","SECT":"一段","MAREA":" ","LANE":"１１３巷","ALLEY":"６３弄","HOUSE_NO":"１號","E_COORD97":168950.85999999999,"N_COORD97":2542101.9100000001,"ADDRESS":"健康路一段１１３巷６３弄１號","OBJECTID":54064},"geometry":{"x":168950.86000000127,"y":2542101.9100000001}},{"attributes":{"ID":54065,"DIS_CODE":0,"TOWNNAME":"南區","LI":"竹溪里","LIN":"1鄰","STREET":"健康路","SECT":"一段","MAREA":" ","LANE":"１１３巷","ALLEY":"６３弄","HOUSE_NO":"２號","E_COORD97":168953.56,"N_COORD97":2542121.9100000001,"ADDRESS":"健康路一段１１３巷６３弄２號","OBJECTID":54065},"geometry":{"x":168953.56000000052,"y":2542121.9100000001}},{"attributes":{"ID":54066,"DIS_CODE":0,"TOWNNAME":"南區","LI":"竹溪里","LIN":"1鄰","STREET":"健康路","SECT":"一段","MAREA":" ","LANE":"１１３巷","ALLEY":"６３弄","HOUSE_NO":"３號","E_COORD97":168954.10999999999,"N_COORD97":2542101.3700000001,"ADDRESS":"健康路一段１１３巷６３弄３號","OBJECTID":54066},"geometry":{"x":168954.11000000127,"y":2542101.3700000029}},{"attributes":{"ID":54067,"DIS_CODE":0,"TOWNNAME":"南區","LI":"竹溪里","LIN":"1鄰","STREET":"健康路","SECT":"一段","MAREA":" ","LANE":"１１３巷","ALLEY":"６３弄","HOUSE_NO":"５號","E_COORD97":168957.35000000001,"N_COORD97":2542101.3700000001,"ADDRESS":"健康路一段１１３巷６３弄５號","OBJECTID":54067},"geometry":{"x":168957.34999999963,"y":2542101.3700000029}},{"attributes":{"ID":54068,"DIS_CODE":0,"TOWNNAME":"北門區","LI":"三光里","LIN":"1鄰","STREET":" ","SECT":" ","MAREA":"三寮灣","LANE":" ","ALLEY":" ","HOUSE_NO":"１３號之８","E_COORD97":159513.47,"N_COORD97":2571005.3900000001,"ADDRESS":"三寮灣１３號之８","OBJECTID":54068},"geometry":{"x":159513.4700000016,"y":2571005.3900000006}},{"attributes":{"ID":54069,"DIS_CODE":0,"TOWNNAME":"北門區","LI":"三光里","LIN":"1鄰","STREET":" ","SECT":" ","MAREA":"三寮灣","LANE":" ","ALLEY":" ","HOUSE_NO":"１４號","E_COORD97":159428.85999999999,"N_COORD97":2570872.2599999998,"ADDRESS":"三寮灣１４號","OBJECTID":54069},"geometry":{"x":159428.86000000127,"y":2570872.2600000016}},{"attributes":{"ID":54070,"DIS_CODE":0,"TOWNNAME":"南區","LI":"竹溪里","LIN":"1鄰","STREET":"健康路","SECT":"一段","MAREA":" ","LANE":"１１３巷","ALLEY":"６３弄","HOUSE_NO":"６號","E_COORD97":168956.26999999999,"N_COORD97":2542121.9100000001,"ADDRESS":"健康路一段１１３巷６３弄６號","OBJECTID":54070},"geometry":{"x":168956.26999999955,"y":2542121.9100000001}},{"attributes":{"ID":54071,"DIS_CODE":0,"TOWNNAME":"南區","LI":"竹溪里","LIN":"1鄰","STREET":"健康路","SECT":"一段","MAREA":" ","LANE":"１１３巷","ALLEY":"６３弄","HOUSE_NO":"７號","E_COORD97":168961.14000000001,"N_COORD97":2542101.9100000001,"ADDRESS":"健康路一段１１３巷６３弄７號","OBJECTID":54071},"geometry":{"x":168961.13999999873,"y":2542101.9100000001}},{"attributes":{"ID":54072,"DIS_CODE":0,"TOWNNAME":"南區","LI":"竹溪里","LIN":"1鄰","STREET":"健康路","SECT":"一段","MAREA":" ","LANE":"１１３巷","ALLEY":"６３弄","HOUSE_NO":"８號","E_COORD97":168960.06,"N_COORD97":2542121.3700000001,"ADDRESS":"健康路一段１１３巷６３弄８號","OBJECTID":54072},"geometry":{"x":168960.06000000145,"y":2542121.3700000029}},{"attributes":{"ID":54073,"DIS_CODE":0,"TOWNNAME":"南區","LI":"竹溪里","LIN":"1鄰","STREET":"健康路","SECT":"一段","MAREA":" ","LANE":"１１３巷","ALLEY":"６３弄","HOUSE_NO":"９號","E_COORD97":168963.31,"N_COORD97":2542102.4500000002,"ADDRESS":"健康路一段１１３巷６３弄９號","OBJECTID":54073},"geometry":{"x":168963.30999999866,"y":2542102.4500000011}},{"attributes":{"ID":54074,"DIS_CODE":0,"TOWNNAME":"北門區","LI":"三光里","LIN":"1鄰","STREET":" ","SECT":" ","MAREA":"三寮灣","LANE":" ","ALLEY":" ","HOUSE_NO":"４之５號","E_COORD97":159888.95000000001,"N_COORD97":2570269.1000000001,"ADDRESS":"三寮灣４之５號","OBJECTID":54074},"geometry":{"x":159888.95000000112,"y":2570269.1000000015}},{"attributes":{"ID":54075,"DIS_CODE":0,"TOWNNAME":"南區","LI":"竹溪里","LIN":"1鄰","STREET":"健康路","SECT":"一段","MAREA":" ","LANE":"１１３巷","ALLEY":"６５弄","HOUSE_NO":"２０號三樓之１","E_COORD97":168959.48000000001,"N_COORD97":2542070.3999999999,"ADDRESS":"健康路一段１１３巷６５弄２０號三樓之１","OBJECTID":54075},"geometry":{"x":168959.48000000045,"y":2542070.4000000022}},{"attributes":{"ID":54076,"DIS_CODE":0,"TOWNNAME":"南區","LI":"竹溪里","LIN":"1鄰","STREET":"健康路","SECT":"一段","MAREA":" ","LANE":"１１３巷","ALLEY":"６５弄","HOUSE_NO":"２０號三樓之２","E_COORD97":168959.48000000001,"N_COORD97":2542070.3999999999,"ADDRESS":"健康路一段１１３巷６５弄２０號三樓之２","OBJECTID":54076},"geometry":{"x":168959.48000000045,"y":2542070.4000000022}},{"attributes":{"ID":54077,"DIS_CODE":0,"TOWNNAME":"南區","LI":"竹溪里","LIN":"1鄰","STREET":"健康路","SECT":"一段","MAREA":" ","LANE":"１１３巷","ALLEY":"６５弄","HOUSE_NO":"２０號四樓之１","E_COORD97":168959.48000000001,"N_COORD97":2542070.3999999999,"ADDRESS":"健康路一段１１３巷６５弄２０號四樓之１","OBJECTID":54077},"geometry":{"x":168959.48000000045,"y":2542070.4000000022}},{"attributes":{"ID":54078,"DIS_CODE":0,"TOWNNAME":"南區","LI":"竹溪里","LIN":"1鄰","STREET":"健康路","SECT":"一段","MAREA":" ","LANE":"１１３巷","ALLEY":"６５弄","HOUSE_NO":"２０號四樓之２","E_COORD97":168959.48000000001,"N_COORD97":2542070.3999999999,"ADDRESS":"健康路一段１１３巷６５弄２０號四樓之２","OBJECTID":54078},"geometry":{"x":168959.48000000045,"y":2542070.4000000022}},{"attributes":{"ID":54079,"DIS_CODE":0,"TOWNNAME":"南區","LI":"竹溪里","LIN":"1鄰","STREET":"健康路","SECT":"一段","MAREA":" ","LANE":"１１３巷","ALLEY":"６５弄","HOUSE_NO":"２０號五樓之１","E_COORD97":168959.48000000001,"N_COORD97":2542070.3999999999,"ADDRESS":"健康路一段１１３巷６５弄２０號五樓之１","OBJECTID":54079},"geometry":{"x":168959.48000000045,"y":2542070.4000000022}},{"attributes":{"ID":54080,"DIS_CODE":0,"TOWNNAME":"南區","LI":"竹溪里","LIN":"1鄰","STREET":"健康路","SECT":"一段","MAREA":" ","LANE":"１１３巷","ALLEY":"６５弄","HOUSE_NO":"２０號五樓之２","E_COORD97":168959.48000000001,"N_COORD97":2542070.3999999999,"ADDRESS":"健康路一段１１３巷６５弄２０號五樓之２","OBJECTID":54080},"geometry":{"x":168959.48000000045,"y":2542070.4000000022}},{"attributes":{"ID":54081,"DIS_CODE":0,"TOWNNAME":"南區","LI":"竹溪里","LIN":"1鄰","STREET":"健康路","SECT":"一段","MAREA":" ","LANE":"１１３巷","ALLEY":"６５弄","HOUSE_NO":"２０號六樓之１","E_COORD97":168959.48000000001,"N_COORD97":2542070.3999999999,"ADDRESS":"健康路一段１１３巷６５弄２０號六樓之１","OBJECTID":54081},"geometry":{"x":168959.48000000045,"y":2542070.4000000022}},{"attributes":{"ID":54082,"DIS_CODE":0,"TOWNNAME":"南區","LI":"竹溪里","LIN":"1鄰","STREET":"健康路","SECT":"一段","MAREA":" ","LANE":"１１３巷","ALLEY":"６５弄","HOUSE_NO":"２０號六樓之２","E_COORD97":168959.48000000001,"N_COORD97":2542070.3999999999,"ADDRESS":"健康路一段１１３巷６５弄２０號六樓之２","OBJECTID":54082},"geometry":{"x":168959.48000000045,"y":2542070.4000000022}},{"attributes":{"ID":54083,"DIS_CODE":0,"TOWNNAME":"南區","LI":"竹溪里","LIN":"1鄰","STREET":"健康路","SECT":"一段","MAREA":" ","LANE":"１１３巷","ALLEY":"６５弄","HOUSE_NO":"２０號七樓之１","E_COORD97":168959.48000000001,"N_COORD97":2542070.3999999999,"ADDRESS":"健康路一段１１３巷６５弄２０號七樓之１","OBJECTID":54083},"geometry":{"x":168959.48000000045,"y":2542070.4000000022}},{"attributes":{"ID":54084,"DIS_CODE":0,"TOWNNAME":"南區","LI":"竹溪里","LIN":"1鄰","STREET":"健康路","SECT":"一段","MAREA":" ","LANE":"１１３巷","ALLEY":"６５弄","HOUSE_NO":"２０號七樓之２","E_COORD97":168959.48000000001,"N_COORD97":2542070.3999999999,"ADDRESS":"健康路一段１１３巷６５弄２０號七樓之２","OBJECTID":54084},"geometry":{"x":168959.48000000045,"y":2542070.4000000022}},{"attributes":{"ID":54085,"DIS_CODE":0,"TOWNNAME":"南區","LI":"竹溪里","LIN":"1鄰","STREET":"健康路","SECT":"一段","MAREA":" ","LANE":"１１３巷","ALLEY":"６５弄","HOUSE_NO":"２２號三樓之１","E_COORD97":168959.48000000001,"N_COORD97":2542070.3999999999,"ADDRESS":"健康路一段１１３巷６５弄２２號三樓之１","OBJECTID":54085},"geometry":{"x":168959.48000000045,"y":2542070.4000000022}},{"attributes":{"ID":54086,"DIS_CODE":0,"TOWNNAME":"北門區","LI":"三光里","LIN":"1鄰","STREET":" ","SECT":" ","MAREA":"三寮灣","LANE":" ","ALLEY":" ","HOUSE_NO":"１５號","E_COORD97":159361.56,"N_COORD97":2570961.0699999998,"ADDRESS":"三寮灣１５號","OBJECTID":54086},"geometry":{"x":159361.55999999959,"y":2570961.0700000022}},{"attributes":{"ID":54087,"DIS_CODE":0,"TOWNNAME":"北門區","LI":"三光里","LIN":"1鄰","STREET":" ","SECT":" ","MAREA":"三寮灣","LANE":" ","ALLEY":" ","HOUSE_NO":"１６號","E_COORD97":159358.57999999999,"N_COORD97":2570958.1299999999,"ADDRESS":"三寮灣１６號","OBJECTID":54087},"geometry":{"x":159358.58000000007,"y":2570958.129999999}},{"attributes":{"ID":54088,"DIS_CODE":0,"TOWNNAME":"北門區","LI":"三光里","LIN":"1鄰","STREET":" ","SECT":" ","MAREA":"三寮灣","LANE":" ","ALLEY":" ","HOUSE_NO":"１７號","E_COORD97":159355.85000000001,"N_COORD97":2570955.3100000001,"ADDRESS":"三寮灣１７號","OBJECTID":54088},"geometry":{"x":159355.84999999963,"y":2570955.3100000005}},{"attributes":{"ID":54089,"DIS_CODE":0,"TOWNNAME":"北門區","LI":"三光里","LIN":"1鄰","STREET":" ","SECT":" ","MAREA":"三寮灣","LANE":" ","ALLEY":" ","HOUSE_NO":"１８號","E_COORD97":159352.25,"N_COORD97":2570953.3100000001,"ADDRESS":"三寮灣１８號","OBJECTID":54089},"geometry":{"x":159352.25,"y":2570953.3100000024}},{"attributes":{"ID":54090,"DIS_CODE":0,"TOWNNAME":"北門區","LI":"三光里","LIN":"1鄰","STREET":" ","SECT":" ","MAREA":"三寮灣","LANE":" ","ALLEY":" ","HOUSE_NO":"１之１０號","E_COORD97":159432.39000000001,"N_COORD97":2569886.4900000002,"ADDRESS":"三寮灣１之１０號","OBJECTID":54090},"geometry":{"x":159432.38999999966,"y":2569886.4900000039}},{"attributes":{"ID":54091,"DIS_CODE":0,"TOWNNAME":"北門區","LI":"三光里","LIN":"1鄰","STREET":" ","SECT":" ","MAREA":"三寮灣","LANE":" ","ALLEY":" ","HOUSE_NO":"１號之１０","E_COORD97":159432.39000000001,"N_COORD97":2569886.4900000002,"ADDRESS":"三寮灣１號之１０","OBJECTID":54091},"geometry":{"x":159432.38999999966,"y":2569886.4900000039}},{"attributes":{"ID":54092,"DIS_CODE":0,"TOWNNAME":"北門區","LI":"三光里","LIN":"1鄰","STREET":" ","SECT":" ","MAREA":"三寮灣","LANE":" ","ALLEY":" ","HOUSE_NO":"１之１號","E_COORD97":159491.60999999999,"N_COORD97":2569879.3300000001,"ADDRESS":"三寮灣１之１號","OBJECTID":54092},"geometry":{"x":159491.61000000127,"y":2569879.3300000001}},{"attributes":{"ID":54093,"DIS_CODE":0,"TOWNNAME":"北門區","LI":"三光里","LIN":"1鄰","STREET":" ","SECT":" ","MAREA":"三寮灣","LANE":" ","ALLEY":" ","HOUSE_NO":"２４號","E_COORD97":159332.67000000001,"N_COORD97":2570913.2000000002,"ADDRESS":"三寮灣２４號","OBJECTID":54093},"geometry":{"x":159332.67000000179,"y":2570913.1999999993}},{"attributes":{"ID":54094,"DIS_CODE":0,"TOWNNAME":"北門區","LI":"三光里","LIN":"1鄰","STREET":" ","SECT":" ","MAREA":"三寮灣","LANE":" ","ALLEY":" ","HOUSE_NO":"２５號","E_COORD97":159336.64000000001,"N_COORD97":2570912.8999999999,"ADDRESS":"三寮灣２５號","OBJECTID":54094},"geometry":{"x":159336.6400000006,"y":2570912.9000000004}},{"attributes":{"ID":54095,"DIS_CODE":0,"TOWNNAME":"北門區","LI":"三光里","LIN":"1鄰","STREET":" ","SECT":" ","MAREA":"三寮灣","LANE":" ","ALLEY":" ","HOUSE_NO":"２６號","E_COORD97":159340.62,"N_COORD97":2570912.6000000001,"ADDRESS":"三寮灣２６號","OBJECTID":54095},"geometry":{"x":159340.62000000104,"y":2570912.6000000015}},{"attributes":{"ID":54096,"DIS_CODE":0,"TOWNNAME":"北門區","LI":"三光里","LIN":"1鄰","STREET":" ","SECT":" ","MAREA":"三寮灣","LANE":" ","ALLEY":" ","HOUSE_NO":"２７號","E_COORD97":159344.59,"N_COORD97":2570912.2999999998,"ADDRESS":"三寮灣２７號","OBJECTID":54096},"geometry":{"x":159344.58999999985,"y":2570912.3000000045}},{"attributes":{"ID":54097,"DIS_CODE":0,"TOWNNAME":"北門區","LI":"三光里","LIN":"1鄰","STREET":" ","SECT":" ","MAREA":"三寮灣","LANE":" ","ALLEY":" ","HOUSE_NO":"２８號","E_COORD97":159348.57000000001,"N_COORD97":2570912,"ADDRESS":"三寮灣２８號","OBJECTID":54097},"geometry":{"x":159348.5700000003,"y":2570912}},{"attributes":{"ID":54098,"DIS_CODE":0,"TOWNNAME":"南區","LI":"竹溪里","LIN":"1鄰","STREET":"健康路","SECT":"一段","MAREA":" ","LANE":"１１３巷","ALLEY":"６５弄","HOUSE_NO":"２２號三樓之２","E_COORD97":168959.48000000001,"N_COORD97":2542070.3999999999,"ADDRESS":"健康路一段１１３巷６５弄２２號三樓之２","OBJECTID":54098},"geometry":{"x":168959.48000000045,"y":2542070.4000000022}},{"attributes":{"ID":54099,"DIS_CODE":0,"TOWNNAME":"南區","LI":"竹溪里","LIN":"1鄰","STREET":"健康路","SECT":"一段","MAREA":" ","LANE":"１１３巷","ALLEY":"６５弄","HOUSE_NO":"２２號四樓之１","E_COORD97":168959.48000000001,"N_COORD97":2542070.3999999999,"ADDRESS":"健康路一段１１３巷６５弄２２號四樓之１","OBJECTID":54099},"geometry":{"x":168959.48000000045,"y":2542070.4000000022}},{"attributes":{"ID":54100,"DIS_CODE":0,"TOWNNAME":"南區","LI":"竹溪里","LIN":"1鄰","STREET":"健康路","SECT":"一段","MAREA":" ","LANE":"１１３巷","ALLEY":"６５弄","HOUSE_NO":"２２號四樓之２","E_COORD97":168959.48000000001,"N_COORD97":2542070.3999999999,"ADDRESS":"健康路一段１１３巷６５弄２２號四樓之２","OBJECTID":54100},"geometry":{"x":168959.48000000045,"y":2542070.4000000022}},{"attributes":{"ID":54101,"DIS_CODE":0,"TOWNNAME":"南區","LI":"竹溪里","LIN":"1鄰","STREET":"健康路","SECT":"一段","MAREA":" ","LANE":"１１３巷","ALLEY":"６５弄","HOUSE_NO":"２２號五樓之１","E_COORD97":168959.48000000001,"N_COORD97":2542070.3999999999,"ADDRESS":"健康路一段１１３巷６５弄２２號五樓之１","OBJECTID":54101},"geometry":{"x":168959.48000000045,"y":2542070.4000000022}},{"attributes":{"ID":54102,"DIS_CODE":0,"TOWNNAME":"中西區","LI":"協和里","LIN":"8鄰","STREET":"臨安路","SECT":"一段","MAREA":" ","LANE":" ","ALLEY":" ","HOUSE_NO":"２５５號","E_COORD97":167348.01999999999,"N_COORD97":2544708.9900000002,"ADDRESS":"臨安路一段２５５號","OBJECTID":54102},"geometry":{"x":167348.01999999862,"y":2544708.9900000002}},{"attributes":{"ID":54103,"DIS_CODE":0,"TOWNNAME":"北門區","LI":"三光里","LIN":"1鄰","STREET":" ","SECT":" ","MAREA":"三寮灣","LANE":" ","ALLEY":" ","HOUSE_NO":"２９號","E_COORD97":159352.54000000001,"N_COORD97":2570911.7000000002,"ADDRESS":"三寮灣２９號","OBJECTID":54103},"geometry":{"x":159352.54000000097,"y":2570911.7000000011}},{"attributes":{"ID":54104,"DIS_CODE":0,"TOWNNAME":"北門區","LI":"三光里","LIN":"1鄰","STREET":" ","SECT":" ","MAREA":"三寮灣","LANE":" ","ALLEY":" ","HOUSE_NO":"２號","E_COORD97":160088.76999999999,"N_COORD97":2570816.9700000002,"ADDRESS":"三寮灣２號","OBJECTID":54104},"geometry":{"x":160088.76999999955,"y":2570816.9700000025}},{"attributes":{"ID":54105,"DIS_CODE":0,"TOWNNAME":"北門區","LI":"三光里","LIN":"1鄰","STREET":" ","SECT":" ","MAREA":"三寮灣","LANE":" ","ALLEY":" ","HOUSE_NO":"３０之１２號","E_COORD97":159484.34,"N_COORD97":2570355.71,"ADDRESS":"三寮灣３０之１２號","OBJECTID":54105},"geometry":{"x":159484.34000000078,"y":2570355.7100000009}},{"attributes":{"ID":54106,"DIS_CODE":0,"TOWNNAME":"北門區","LI":"三光里","LIN":"1鄰","STREET":" ","SECT":" ","MAREA":"三寮灣","LANE":" ","ALLEY":" ","HOUSE_NO":"３０號之１２","E_COORD97":159484.34,"N_COORD97":2570355.71,"ADDRESS":"三寮灣３０號之１２","OBJECTID":54106},"geometry":{"x":159484.34000000078,"y":2570355.7100000009}},{"attributes":{"ID":54107,"DIS_CODE":0,"TOWNNAME":"北門區","LI":"三光里","LIN":"1鄰","STREET":" ","SECT":" ","MAREA":"三寮灣","LANE":" ","ALLEY":" ","HOUSE_NO":"３０號","E_COORD97":159350.69,"N_COORD97":2570896.6800000002,"ADDRESS":"三寮灣３０號","OBJECTID":54107},"geometry":{"x":159350.69000000134,"y":2570896.6799999997}},{"attributes":{"ID":54108,"DIS_CODE":0,"TOWNNAME":"北門區","LI":"三光里","LIN":"1鄰","STREET":" ","SECT":" ","MAREA":"三寮灣","LANE":" ","ALLEY":" ","HOUSE_NO":"３１號","E_COORD97":159346.78,"N_COORD97":2570896.8999999999,"ADDRESS":"三寮灣３１號","OBJECTID":54108},"geometry":{"x":159346.78000000026,"y":2570896.9000000004}},{"attributes":{"ID":54109,"DIS_CODE":0,"TOWNNAME":"北門區","LI":"三光里","LIN":"1鄰","STREET":" ","SECT":" ","MAREA":"三寮灣","LANE":" ","ALLEY":" ","HOUSE_NO":"３２號","E_COORD97":159342.70999999999,"N_COORD97":2570897.1499999999,"ADDRESS":"三寮灣３２號","OBJECTID":54109},"geometry":{"x":159342.71000000183,"y":2570897.1500000022}},{"attributes":{"ID":54110,"DIS_CODE":0,"TOWNNAME":"北門區","LI":"三光里","LIN":"1鄰","STREET":" ","SECT":" ","MAREA":"三寮灣","LANE":" ","ALLEY":" ","HOUSE_NO":"３３號","E_COORD97":159338.94,"N_COORD97":2570897.5099999998,"ADDRESS":"三寮灣３３號","OBJECTID":54110},"geometry":{"x":159338.94000000134,"y":2570897.5100000016}},{"attributes":{"ID":54111,"DIS_CODE":0,"TOWNNAME":"北門區","LI":"三光里","LIN":"1鄰","STREET":" ","SECT":" ","MAREA":"三寮灣","LANE":" ","ALLEY":" ","HOUSE_NO":"３５號","E_COORD97":159330.82999999999,"N_COORD97":2570898,"ADDRESS":"三寮灣３５號","OBJECTID":54111},"geometry":{"x":159330.83000000101,"y":2570898.0000000019}},{"attributes":{"ID":54112,"DIS_CODE":0,"TOWNNAME":"北門區","LI":"三光里","LIN":"1鄰","STREET":" ","SECT":" ","MAREA":"三寮灣","LANE":" ","ALLEY":" ","HOUSE_NO":"３７號","E_COORD97":159331.73999999999,"N_COORD97":2570878.5099999998,"ADDRESS":"三寮灣３７號","OBJECTID":54112},"geometry":{"x":159331.74000000022,"y":2570878.5099999998}},{"attributes":{"ID":54113,"DIS_CODE":0,"TOWNNAME":"北門區","LI":"慈安里","LIN":"1鄰","STREET":" ","SECT":" ","MAREA":"三寮灣","LANE":" ","ALLEY":" ","HOUSE_NO":"３８０號","E_COORD97":158835.20000000001,"N_COORD97":2570962.4399999999,"ADDRESS":"三寮灣３８０號","OBJECTID":54113},"geometry":{"x":158835.20000000112,"y":2570962.4399999995}},{"attributes":{"ID":54114,"DIS_CODE":0,"TOWNNAME":"北門區","LI":"慈安里","LIN":"1鄰","STREET":" ","SECT":" ","MAREA":"三寮灣","LANE":" ","ALLEY":" ","HOUSE_NO":"３８１號","E_COORD97":158898.32999999999,"N_COORD97":2571049.7799999998,"ADDRESS":"三寮灣３８１號","OBJECTID":54114},"geometry":{"x":158898.33000000101,"y":2571049.7800000031}},{"attributes":{"ID":54115,"DIS_CODE":0,"TOWNNAME":"北門區","LI":"慈安里","LIN":"1鄰","STREET":" ","SECT":" ","MAREA":"三寮灣","LANE":" ","ALLEY":" ","HOUSE_NO":"３８２號之１１","E_COORD97":158527.5,"N_COORD97":2571801.1299999999,"ADDRESS":"三寮灣３８２號之１１","OBJECTID":54115},"geometry":{"x":158527.50000000093,"y":2571801.1300000008}},{"attributes":{"ID":54116,"DIS_CODE":0,"TOWNNAME":"北門區","LI":"慈安里","LIN":"1鄰","STREET":" ","SECT":" ","MAREA":"三寮灣","LANE":" ","ALLEY":" ","HOUSE_NO":"３８２之１２號","E_COORD97":158305.73999999999,"N_COORD97":2571723.1400000001,"ADDRESS":"三寮灣３８２之１２號","OBJECTID":54116},"geometry":{"x":158305.74000000115,"y":2571723.1399999987}},{"attributes":{"ID":54117,"DIS_CODE":0,"TOWNNAME":"北門區","LI":"慈安里","LIN":"1鄰","STREET":" ","SECT":" ","MAREA":"三寮灣","LANE":" ","ALLEY":" ","HOUSE_NO":"３８２之１６號","E_COORD97":158076.09,"N_COORD97":2571730.0800000001,"ADDRESS":"三寮灣３８２之１６號","OBJECTID":54117},"geometry":{"x":158076.09000000078,"y":2571730.0800000038}},{"attributes":{"ID":54118,"DIS_CODE":0,"TOWNNAME":"北門區","LI":"慈安里","LIN":"1鄰","STREET":" ","SECT":" ","MAREA":"三寮灣","LANE":" ","ALLEY":" ","HOUSE_NO":"３８２號之１６","E_COORD97":158076.09,"N_COORD97":2571730.0800000001,"ADDRESS":"三寮灣３８２號之１６","OBJECTID":54118},"geometry":{"x":158076.09000000078,"y":2571730.0800000038}},{"attributes":{"ID":54119,"DIS_CODE":0,"TOWNNAME":"北門區","LI":"慈安里","LIN":"1鄰","STREET":" ","SECT":" ","MAREA":"三寮灣","LANE":" ","ALLEY":" ","HOUSE_NO":"３８２之２０號","E_COORD97":158871.76000000001,"N_COORD97":2571668.7000000002,"ADDRESS":"三寮灣３８２之２０號","OBJECTID":54119},"geometry":{"x":158871.75999999978,"y":2571668.7000000011}},{"attributes":{"ID":54120,"DIS_CODE":0,"TOWNNAME":"北門區","LI":"慈安里","LIN":"1鄰","STREET":" ","SECT":" ","MAREA":"三寮灣","LANE":" ","ALLEY":" ","HOUSE_NO":"３８２號之８","E_COORD97":158494.64000000001,"N_COORD97":2571680.4199999999,"ADDRESS":"三寮灣３８２號之８","OBJECTID":54120},"geometry":{"x":158494.63999999966,"y":2571680.4200000018}},{"attributes":{"ID":54121,"DIS_CODE":0,"TOWNNAME":"北門區","LI":"慈安里","LIN":"1鄰","STREET":" ","SECT":" ","MAREA":"三寮灣","LANE":" ","ALLEY":" ","HOUSE_NO":"３８２號","E_COORD97":159018.82000000001,"N_COORD97":2571097.2999999998,"ADDRESS":"三寮灣３８２號","OBJECTID":54121},"geometry":{"x":159018.82000000123,"y":2571097.3000000007}},{"attributes":{"ID":54122,"DIS_CODE":0,"TOWNNAME":"北門區","LI":"慈安里","LIN":"1鄰","STREET":" ","SECT":" ","MAREA":"三寮灣","LANE":" ","ALLEY":" ","HOUSE_NO":"３８３之１２號","E_COORD97":158253.94,"N_COORD97":2571917.8700000001,"ADDRESS":"三寮灣３８３之１２號","OBJECTID":54122},"geometry":{"x":158253.94000000134,"y":2571917.870000001}},{"attributes":{"ID":54123,"DIS_CODE":0,"TOWNNAME":"北門區","LI":"永隆里","LIN":"1鄰","STREET":" ","SECT":" ","MAREA":"北門","LANE":" ","ALLEY":" ","HOUSE_NO":"６號","E_COORD97":160341.82000000001,"N_COORD97":2574319.5499999998,"ADDRESS":"北門６號","OBJECTID":54123},"geometry":{"x":160341.8200000003,"y":2574319.5500000007}},{"attributes":{"ID":54124,"DIS_CODE":0,"TOWNNAME":"北門區","LI":"慈安里","LIN":"1鄰","STREET":" ","SECT":" ","MAREA":"三寮灣","LANE":" ","ALLEY":" ","HOUSE_NO":"３８３號之１２","E_COORD97":158253.94,"N_COORD97":2571917.8700000001,"ADDRESS":"三寮灣３８３號之１２","OBJECTID":54124},"geometry":{"x":158253.94000000134,"y":2571917.870000001}},{"attributes":{"ID":54125,"DIS_CODE":0,"TOWNNAME":"北門區","LI":"慈安里","LIN":"1鄰","STREET":" ","SECT":" ","MAREA":"三寮灣","LANE":" ","ALLEY":" ","HOUSE_NO":"３８３之１號","E_COORD97":158377,"N_COORD97":2571913.0899999999,"ADDRESS":"三寮灣３８３之１號","OBJECTID":54125},"geometry":{"x":158377,"y":2571913.0900000017}},{"attributes":{"ID":54126,"DIS_CODE":0,"TOWNNAME":"北門區","LI":"慈安里","LIN":"1鄰","STREET":" ","SECT":" ","MAREA":"三寮灣","LANE":" ","ALLEY":" ","HOUSE_NO":"３８３號之１","E_COORD97":158377,"N_COORD97":2571913.0899999999,"ADDRESS":"三寮灣３８３號之１","OBJECTID":54126},"geometry":{"x":158377,"y":2571913.0900000017}},{"attributes":{"ID":54127,"DIS_CODE":0,"TOWNNAME":"北門區","LI":"慈安里","LIN":"1鄰","STREET":" ","SECT":" ","MAREA":"三寮灣","LANE":" ","ALLEY":" ","HOUSE_NO":"３８３號之２","E_COORD97":158076.48999999999,"N_COORD97":2571086.98,"ADDRESS":"三寮灣３８３號之２","OBJECTID":54127},"geometry":{"x":158076.49000000209,"y":2571086.9800000042}},{"attributes":{"ID":54128,"DIS_CODE":0,"TOWNNAME":"北門區","LI":"慈安里","LIN":"1鄰","STREET":" ","SECT":" ","MAREA":"三寮灣","LANE":" ","ALLEY":" ","HOUSE_NO":"３８４號","E_COORD97":158701.54000000001,"N_COORD97":2572408.1499999999,"ADDRESS":"三寮灣３８４號","OBJECTID":54128},"geometry":{"x":158701.54000000097,"y":2572408.1500000022}},{"attributes":{"ID":54129,"DIS_CODE":0,"TOWNNAME":"北門區","LI":"慈安里","LIN":"1鄰","STREET":" ","SECT":" ","MAREA":"三寮灣","LANE":" ","ALLEY":" ","HOUSE_NO":"３８７之１０號","E_COORD97":159202.84,"N_COORD97":2571884.1800000002,"ADDRESS":"三寮灣３８７之１０號","OBJECTID":54129},"geometry":{"x":159202.84000000078,"y":2571884.1799999997}},{"attributes":{"ID":54130,"DIS_CODE":0,"TOWNNAME":"北門區","LI":"慈安里","LIN":"1鄰","STREET":" ","SECT":" ","MAREA":"三寮灣","LANE":" ","ALLEY":" ","HOUSE_NO":"３８７號之１０","E_COORD97":159202.84,"N_COORD97":2571884.1800000002,"ADDRESS":"三寮灣３８７號之１０","OBJECTID":54130},"geometry":{"x":159202.84000000078,"y":2571884.1799999997}},{"attributes":{"ID":54131,"DIS_CODE":0,"TOWNNAME":"北門區","LI":"慈安里","LIN":"1鄰","STREET":" ","SECT":" ","MAREA":"三寮灣","LANE":" ","ALLEY":" ","HOUSE_NO":"３８７之１２號","E_COORD97":159528.92999999999,"N_COORD97":2572158.5600000001,"ADDRESS":"三寮灣３８７之１２號","OBJECTID":54131},"geometry":{"x":159528.92999999877,"y":2572158.5600000024}},{"attributes":{"ID":54132,"DIS_CODE":0,"TOWNNAME":"北門區","LI":"慈安里","LIN":"1鄰","STREET":" ","SECT":" ","MAREA":"三寮灣","LANE":" ","ALLEY":" ","HOUSE_NO":"３８７號之１２","E_COORD97":159528.92999999999,"N_COORD97":2572158.5600000001,"ADDRESS":"三寮灣３８７號之１２","OBJECTID":54132},"geometry":{"x":159528.92999999877,"y":2572158.5600000024}},{"attributes":{"ID":54133,"DIS_CODE":0,"TOWNNAME":"北門區","LI":"慈安里","LIN":"1鄰","STREET":" ","SECT":" ","MAREA":"三寮灣","LANE":" ","ALLEY":" ","HOUSE_NO":"３８７之２０號","E_COORD97":159090.60000000001,"N_COORD97":2571937.1699999999,"ADDRESS":"三寮灣３８７之２０號","OBJECTID":54133},"geometry":{"x":159090.60000000056,"y":2571937.1700000018}},{"attributes":{"ID":54134,"DIS_CODE":0,"TOWNNAME":"北門區","LI":"三光里","LIN":"1鄰","STREET":" ","SECT":" ","MAREA":"三寮灣","LANE":" ","ALLEY":" ","HOUSE_NO":"３８號","E_COORD97":159362.94,"N_COORD97":2570985.0499999998,"ADDRESS":"三寮灣３８號","OBJECTID":54134},"geometry":{"x":159362.94000000041,"y":2570985.0500000045}},{"attributes":{"ID":54135,"DIS_CODE":0,"TOWNNAME":"北門區","LI":"三光里","LIN":"1鄰","STREET":" ","SECT":" ","MAREA":"三寮灣","LANE":" ","ALLEY":" ","HOUSE_NO":"３９號","E_COORD97":159351.69,"N_COORD97":2570979.02,"ADDRESS":"三寮灣３９號","OBJECTID":54135},"geometry":{"x":159351.69000000227,"y":2570979.0199999996}},{"attributes":{"ID":54136,"DIS_CODE":0,"TOWNNAME":"北門區","LI":"三光里","LIN":"1鄰","STREET":" ","SECT":" ","MAREA":"三寮灣","LANE":" ","ALLEY":" ","HOUSE_NO":"３之３號","E_COORD97":159564.70000000001,"N_COORD97":2570145.2000000002,"ADDRESS":"三寮灣３之３號","OBJECTID":54136},"geometry":{"x":159564.70000000019,"y":2570145.200000003}},{"attributes":{"ID":54137,"DIS_CODE":0,"TOWNNAME":"北門區","LI":"三光里","LIN":"1鄰","STREET":" ","SECT":" ","MAREA":"三寮灣","LANE":" ","ALLEY":" ","HOUSE_NO":"３號","E_COORD97":159976.06,"N_COORD97":2571060.8500000001,"ADDRESS":"三寮灣３號","OBJECTID":54137},"geometry":{"x":159976.06000000052,"y":2571060.8500000015}},{"attributes":{"ID":54138,"DIS_CODE":0,"TOWNNAME":"北門區","LI":"三光里","LIN":"1鄰","STREET":" ","SECT":" ","MAREA":"三寮灣","LANE":" ","ALLEY":" ","HOUSE_NO":"４０號","E_COORD97":159340.34,"N_COORD97":2570964.2400000002,"ADDRESS":"三寮灣４０號","OBJECTID":54138},"geometry":{"x":159340.34000000078,"y":2570964.2400000021}},{"attributes":{"ID":54139,"DIS_CODE":0,"TOWNNAME":"北門區","LI":"三光里","LIN":"1鄰","STREET":" ","SECT":" ","MAREA":"三寮灣","LANE":" ","ALLEY":" ","HOUSE_NO":"４號之５","E_COORD97":159888.95000000001,"N_COORD97":2570269.1000000001,"ADDRESS":"三寮灣４號之５","OBJECTID":54139},"geometry":{"x":159888.95000000112,"y":2570269.1000000015}},{"attributes":{"ID":54140,"DIS_CODE":0,"TOWNNAME":"北門區","LI":"三光里","LIN":"1鄰","STREET":" ","SECT":" ","MAREA":"三寮灣","LANE":" ","ALLEY":" ","HOUSE_NO":"５號","E_COORD97":159984.72,"N_COORD97":2569993.9100000001,"ADDRESS":"三寮灣５號","OBJECTID":54140},"geometry":{"x":159984.7200000016,"y":2569993.9100000001}},{"attributes":{"ID":54141,"DIS_CODE":0,"TOWNNAME":"北門區","LI":"三光里","LIN":"1鄰","STREET":" ","SECT":" ","MAREA":"三寮灣","LANE":" ","ALLEY":" ","HOUSE_NO":"７之５號","E_COORD97":160101.28,"N_COORD97":2570340.6600000001,"ADDRESS":"三寮灣７之５號","OBJECTID":54141},"geometry":{"x":160101.28000000026,"y":2570340.660000002}},{"attributes":{"ID":54142,"DIS_CODE":0,"TOWNNAME":"北門區","LI":"三光里","LIN":"1鄰","STREET":" ","SECT":" ","MAREA":"三寮灣","LANE":" ","ALLEY":" ","HOUSE_NO":"７號","E_COORD97":160099.38,"N_COORD97":2570431.9900000002,"ADDRESS":"三寮灣７號","OBJECTID":54142},"geometry":{"x":160099.38000000082,"y":2570431.9899999984}},{"attributes":{"ID":54143,"DIS_CODE":0,"TOWNNAME":"北門區","LI":"三光里","LIN":"1鄰","STREET":" ","SECT":" ","MAREA":"三寮灣","LANE":" ","ALLEY":" ","HOUSE_NO":"８號之１","E_COORD97":160091.73000000001,"N_COORD97":2570721.8799999999,"ADDRESS":"三寮灣８號之１","OBJECTID":54143},"geometry":{"x":160091.73000000045,"y":2570721.879999999}},{"attributes":{"ID":54144,"DIS_CODE":0,"TOWNNAME":"北門區","LI":"三光里","LIN":"1鄰","STREET":" ","SECT":" ","MAREA":"三寮灣","LANE":" ","ALLEY":" ","HOUSE_NO":"８號","E_COORD97":160104.23000000001,"N_COORD97":2570728.1699999999,"ADDRESS":"三寮灣８號","OBJECTID":54144},"geometry":{"x":160104.23000000231,"y":2570728.1699999999}},{"attributes":{"ID":54145,"DIS_CODE":0,"TOWNNAME":"北門區","LI":"北門里","LIN":"1鄰","STREET":" ","SECT":" ","MAREA":"北門","LANE":" ","ALLEY":" ","HOUSE_NO":"１４１號","E_COORD97":160160.35000000001,"N_COORD97":2574449.0600000001,"ADDRESS":"北門１４１號","OBJECTID":54145},"geometry":{"x":160160.35000000056,"y":2574449.0600000005}},{"attributes":{"ID":54146,"DIS_CODE":0,"TOWNNAME":"北門區","LI":"北門里","LIN":"1鄰","STREET":" ","SECT":" ","MAREA":"北門","LANE":" ","ALLEY":" ","HOUSE_NO":"１４２號","E_COORD97":160135.87,"N_COORD97":2574462.5299999998,"ADDRESS":"北門１４２號","OBJECTID":54146},"geometry":{"x":160135.87000000104,"y":2574462.5300000012}},{"attributes":{"ID":54147,"DIS_CODE":0,"TOWNNAME":"北門區","LI":"北門里","LIN":"1鄰","STREET":" ","SECT":" ","MAREA":"北門","LANE":" ","ALLEY":" ","HOUSE_NO":"１４３號","E_COORD97":160139.22,"N_COORD97":2574472.7599999998,"ADDRESS":"北門１４３號","OBJECTID":54147},"geometry":{"x":160139.22000000067,"y":2574472.7600000016}},{"attributes":{"ID":54148,"DIS_CODE":0,"TOWNNAME":"北門區","LI":"北門里","LIN":"1鄰","STREET":" ","SECT":" ","MAREA":"北門","LANE":" ","ALLEY":" ","HOUSE_NO":"１４４號","E_COORD97":160139.51999999999,"N_COORD97":2574396.4399999999,"ADDRESS":"北門１４４號","OBJECTID":54148},"geometry":{"x":160139.51999999955,"y":2574396.4400000013}},{"attributes":{"ID":54149,"DIS_CODE":0,"TOWNNAME":"北門區","LI":"北門里","LIN":"1鄰","STREET":" ","SECT":" ","MAREA":"北門","LANE":" ","ALLEY":" ","HOUSE_NO":"１４５號","E_COORD97":160117.31,"N_COORD97":2574491.4700000002,"ADDRESS":"北門１４５號","OBJECTID":54149},"geometry":{"x":160117.30999999959,"y":2574491.4700000025}},{"attributes":{"ID":54150,"DIS_CODE":0,"TOWNNAME":"北門區","LI":"北門里","LIN":"1鄰","STREET":" ","SECT":" ","MAREA":"北門","LANE":" ","ALLEY":" ","HOUSE_NO":"１４６號","E_COORD97":160105.82999999999,"N_COORD97":2574441.02,"ADDRESS":"北門１４６號","OBJECTID":54150},"geometry":{"x":160105.83000000007,"y":2574441.0199999996}},{"attributes":{"ID":54151,"DIS_CODE":0,"TOWNNAME":"北門區","LI":"北門里","LIN":"1鄰","STREET":" ","SECT":" ","MAREA":"北門","LANE":" ","ALLEY":" ","HOUSE_NO":"１４７號","E_COORD97":160121.26999999999,"N_COORD97":2574461.5899999999,"ADDRESS":"北門１４７號","OBJECTID":54151},"geometry":{"x":160121.26999999955,"y":2574461.5899999999}},{"attributes":{"ID":54152,"DIS_CODE":0,"TOWNNAME":"北門區","LI":"北門里","LIN":"1鄰","STREET":" ","SECT":" ","MAREA":"北門","LANE":" ","ALLEY":" ","HOUSE_NO":"１４８號","E_COORD97":160128.70999999999,"N_COORD97":2574451.2999999998,"ADDRESS":"北門１４８號","OBJECTID":54152},"geometry":{"x":160128.70999999996,"y":2574451.3000000007}},{"attributes":{"ID":54153,"DIS_CODE":0,"TOWNNAME":"北門區","LI":"北門里","LIN":"1鄰","STREET":" ","SECT":" ","MAREA":"北門","LANE":" ","ALLEY":" ","HOUSE_NO":"１４９之５號","E_COORD97":160150.01999999999,"N_COORD97":2574424.4399999999,"ADDRESS":"北門１４９之５號","OBJECTID":54153},"geometry":{"x":160150.01999999955,"y":2574424.4399999995}},{"attributes":{"ID":54154,"DIS_CODE":0,"TOWNNAME":"北門區","LI":"北門里","LIN":"1鄰","STREET":" ","SECT":" ","MAREA":"北門","LANE":" ","ALLEY":" ","HOUSE_NO":"１４９號","E_COORD97":160126.97,"N_COORD97":2574438.1499999999,"ADDRESS":"北門１４９號","OBJECTID":54154},"geometry":{"x":160126.96999999974,"y":2574438.1500000004}},{"attributes":{"ID":54155,"DIS_CODE":0,"TOWNNAME":"北門區","LI":"永隆里","LIN":"1鄰","STREET":" ","SECT":" ","MAREA":"北門","LANE":" ","ALLEY":" ","HOUSE_NO":"１４號","E_COORD97":160327.73000000001,"N_COORD97":2574342.6099999999,"ADDRESS":"北門１４號","OBJECTID":54155},"geometry":{"x":160327.73000000045,"y":2574342.6099999994}},{"attributes":{"ID":54156,"DIS_CODE":0,"TOWNNAME":"北門區","LI":"永隆里","LIN":"1鄰","STREET":" ","SECT":" ","MAREA":"北門","LANE":" ","ALLEY":" ","HOUSE_NO":"１５號","E_COORD97":160325.41,"N_COORD97":2574345.3300000001,"ADDRESS":"北門１５號","OBJECTID":54156},"geometry":{"x":160325.41000000108,"y":2574345.3300000001}},{"attributes":{"ID":54157,"DIS_CODE":0,"TOWNNAME":"後壁區","LI":"頂安里","LIN":"8鄰","STREET":" ","SECT":" ","MAREA":"頂寮","LANE":" ","ALLEY":" ","HOUSE_NO":"８４號","E_COORD97":183780.79999999999,"N_COORD97":2581371.9199999999,"ADDRESS":"頂寮８４號","OBJECTID":54157},"geometry":{"x":183780.79999999981,"y":2581371.9199999999}},{"attributes":{"ID":54158,"DIS_CODE":0,"TOWNNAME":"後壁區","LI":"頂安里","LIN":"8鄰","STREET":" ","SECT":" ","MAREA":"頂寮","LANE":" ","ALLEY":" ","HOUSE_NO":"８６號","E_COORD97":183746.95000000001,"N_COORD97":2581329.9100000001,"ADDRESS":"頂寮８６號","OBJECTID":54158},"geometry":{"x":183746.95000000205,"y":2581329.910000002}},{"attributes":{"ID":54159,"DIS_CODE":0,"TOWNNAME":"後壁區","LI":"頂安里","LIN":"8鄰","STREET":" ","SECT":" ","MAREA":"頂寮","LANE":" ","ALLEY":" ","HOUSE_NO":"８７號之２","E_COORD97":183727.91,"N_COORD97":2581355.8599999999,"ADDRESS":"頂寮８７號之２","OBJECTID":54159},"geometry":{"x":183727.91000000015,"y":2581355.8599999975}},{"attributes":{"ID":54160,"DIS_CODE":0,"TOWNNAME":"後壁區","LI":"頂安里","LIN":"8鄰","STREET":" ","SECT":" ","MAREA":"頂寮","LANE":" ","ALLEY":" ","HOUSE_NO":"８７號","E_COORD97":183755.84,"N_COORD97":2581350.8799999999,"ADDRESS":"頂寮８７號","OBJECTID":54160},"geometry":{"x":183755.84000000171,"y":2581350.879999999}},{"attributes":{"ID":54161,"DIS_CODE":0,"TOWNNAME":"後壁區","LI":"頂安里","LIN":"8鄰","STREET":" ","SECT":" ","MAREA":"頂寮","LANE":" ","ALLEY":" ","HOUSE_NO":"９０號之１０","E_COORD97":183730.29999999999,"N_COORD97":2581286.8399999999,"ADDRESS":"頂寮９０號之１０","OBJECTID":54161},"geometry":{"x":183730.29999999981,"y":2581286.8400000017}},{"attributes":{"ID":54162,"DIS_CODE":0,"TOWNNAME":"後壁區","LI":"頂安里","LIN":"8鄰","STREET":" ","SECT":" ","MAREA":"頂寮","LANE":" ","ALLEY":" ","HOUSE_NO":"９０號之１１","E_COORD97":183731.79000000001,"N_COORD97":2581266.2400000002,"ADDRESS":"頂寮９０號之１１","OBJECTID":54162},"geometry":{"x":183731.79000000004,"y":2581266.2400000039}},{"attributes":{"ID":54163,"DIS_CODE":0,"TOWNNAME":"後壁區","LI":"頂安里","LIN":"8鄰","STREET":" ","SECT":" ","MAREA":"頂寮","LANE":" ","ALLEY":" ","HOUSE_NO":"９０號之１２","E_COORD97":183726.32000000001,"N_COORD97":2581285.8199999998,"ADDRESS":"頂寮９０號之１２","OBJECTID":54163},"geometry":{"x":183726.32000000123,"y":2581285.8199999984}},{"attributes":{"ID":54164,"DIS_CODE":0,"TOWNNAME":"後壁區","LI":"頂安里","LIN":"8鄰","STREET":" ","SECT":" ","MAREA":"頂寮","LANE":" ","ALLEY":" ","HOUSE_NO":"９０號之１３","E_COORD97":183724.60999999999,"N_COORD97":2581242.0800000001,"ADDRESS":"頂寮９０號之１３","OBJECTID":54164},"geometry":{"x":183724.61000000127,"y":2581242.0800000001}},{"attributes":{"ID":54165,"DIS_CODE":0,"TOWNNAME":"後壁區","LI":"頂安里","LIN":"8鄰","STREET":" ","SECT":" ","MAREA":"頂寮","LANE":" ","ALLEY":" ","HOUSE_NO":"９０號之１４","E_COORD97":183722.88,"N_COORD97":2581247.27,"ADDRESS":"頂寮９０號之１４","OBJECTID":54165},"geometry":{"x":183722.87999999989,"y":2581247.2699999996}},{"attributes":{"ID":54166,"DIS_CODE":0,"TOWNNAME":"後壁區","LI":"頂安里","LIN":"8鄰","STREET":" ","SECT":" ","MAREA":"頂寮","LANE":" ","ALLEY":" ","HOUSE_NO":"９０號之１５","E_COORD97":183722.09,"N_COORD97":2581251.0800000001,"ADDRESS":"頂寮９０號之１５","OBJECTID":54166},"geometry":{"x":183722.09000000078,"y":2581251.0800000019}},{"attributes":{"ID":54167,"DIS_CODE":0,"TOWNNAME":"後壁區","LI":"頂安里","LIN":"8鄰","STREET":" ","SECT":" ","MAREA":"頂寮","LANE":" ","ALLEY":" ","HOUSE_NO":"９０號之１６","E_COORD97":183721.32000000001,"N_COORD97":2581255.1200000001,"ADDRESS":"頂寮９０號之１６","OBJECTID":54167},"geometry":{"x":183721.32000000123,"y":2581255.1200000029}},{"attributes":{"ID":54168,"DIS_CODE":0,"TOWNNAME":"北門區","LI":"永隆里","LIN":"1鄰","STREET":" ","SECT":" ","MAREA":"北門","LANE":" ","ALLEY":" ","HOUSE_NO":"１６號","E_COORD97":160322.10000000001,"N_COORD97":2574347.0299999998,"ADDRESS":"北門１６號","OBJECTID":54168},"geometry":{"x":160322.09999999963,"y":2574347.0300000031}},{"attributes":{"ID":54169,"DIS_CODE":0,"TOWNNAME":"北門區","LI":"永隆里","LIN":"1鄰","STREET":" ","SECT":" ","MAREA":"北門","LANE":" ","ALLEY":" ","HOUSE_NO":"１７號","E_COORD97":160320.70000000001,"N_COORD97":2574350.1899999999,"ADDRESS":"北門１７號","OBJECTID":54169},"geometry":{"x":160320.70000000019,"y":2574350.1900000013}},{"attributes":{"ID":54170,"DIS_CODE":0,"TOWNNAME":"北門區","LI":"永隆里","LIN":"1鄰","STREET":" ","SECT":" ","MAREA":"北門","LANE":" ","ALLEY":" ","HOUSE_NO":"１號","E_COORD97":160401.78,"N_COORD97":2574253.1899999999,"ADDRESS":"北門１號","OBJECTID":54170},"geometry":{"x":160401.78000000026,"y":2574253.1899999995}},{"attributes":{"ID":54171,"DIS_CODE":0,"TOWNNAME":"北門區","LI":"保吉里","LIN":"1鄰","STREET":" ","SECT":" ","MAREA":"蚵寮","LANE":" ","ALLEY":" ","HOUSE_NO":"１０號","E_COORD97":161231.17999999999,"N_COORD97":2576535.27,"ADDRESS":"蚵寮１０號","OBJECTID":54171},"geometry":{"x":161231.18000000063,"y":2576535.2699999996}},{"attributes":{"ID":54172,"DIS_CODE":0,"TOWNNAME":"北門區","LI":"保吉里","LIN":"1鄰","STREET":" ","SECT":" ","MAREA":"蚵寮","LANE":" ","ALLEY":" ","HOUSE_NO":"２之２號","E_COORD97":161413.82000000001,"N_COORD97":2575745.0600000001,"ADDRESS":"蚵寮２之２號","OBJECTID":54172},"geometry":{"x":161413.82000000216,"y":2575745.0600000024}},{"attributes":{"ID":54173,"DIS_CODE":0,"TOWNNAME":"北門區","LI":"保吉里","LIN":"1鄰","STREET":" ","SECT":" ","MAREA":"蚵寮","LANE":" ","ALLEY":" ","HOUSE_NO":"２號","E_COORD97":161425.95999999999,"N_COORD97":2575755.5299999998,"ADDRESS":"蚵寮２號","OBJECTID":54173},"geometry":{"x":161425.96000000183,"y":2575755.5300000012}},{"attributes":{"ID":54174,"DIS_CODE":0,"TOWNNAME":"北門區","LI":"東壁里","LIN":"1鄰","STREET":" ","SECT":" ","MAREA":"蚵寮","LANE":" ","ALLEY":" ","HOUSE_NO":"５５５號","E_COORD97":161696.95000000001,"N_COORD97":2576583.2000000002,"ADDRESS":"蚵寮５５５號","OBJECTID":54174},"geometry":{"x":161696.95000000019,"y":2576583.200000003}},{"attributes":{"ID":54175,"DIS_CODE":0,"TOWNNAME":"北門區","LI":"東壁里","LIN":"1鄰","STREET":" ","SECT":" ","MAREA":"蚵寮","LANE":" ","ALLEY":" ","HOUSE_NO":"５５６號","E_COORD97":161694.75,"N_COORD97":2576507.54,"ADDRESS":"蚵寮５５６號","OBJECTID":54175},"geometry":{"x":161694.75,"y":2576507.540000001}},{"attributes":{"ID":54176,"DIS_CODE":0,"TOWNNAME":"北門區","LI":"東壁里","LIN":"1鄰","STREET":" ","SECT":" ","MAREA":"蚵寮","LANE":" ","ALLEY":" ","HOUSE_NO":"５５７號","E_COORD97":161709.57000000001,"N_COORD97":2576487.5699999998,"ADDRESS":"蚵寮５５７號","OBJECTID":54176},"geometry":{"x":161709.5700000003,"y":2576487.5700000022}},{"attributes":{"ID":54177,"DIS_CODE":0,"TOWNNAME":"北門區","LI":"東壁里","LIN":"1鄰","STREET":" ","SECT":" ","MAREA":"蚵寮","LANE":" ","ALLEY":" ","HOUSE_NO":"５５８號","E_COORD97":161695.64999999999,"N_COORD97":2576486.25,"ADDRESS":"蚵寮５５８號","OBJECTID":54177},"geometry":{"x":161695.65000000037,"y":2576486.2500000019}},{"attributes":{"ID":54178,"DIS_CODE":0,"TOWNNAME":"北門區","LI":"東壁里","LIN":"1鄰","STREET":" ","SECT":" ","MAREA":"蚵寮","LANE":" ","ALLEY":" ","HOUSE_NO":"５６０號","E_COORD97":161726.13,"N_COORD97":2576459.71,"ADDRESS":"蚵寮５６０號","OBJECTID":54178},"geometry":{"x":161726.12999999989,"y":2576459.7100000046}},{"attributes":{"ID":54179,"DIS_CODE":0,"TOWNNAME":"北門區","LI":"東壁里","LIN":"1鄰","STREET":" ","SECT":" ","MAREA":"蚵寮","LANE":" ","ALLEY":" ","HOUSE_NO":"５６１號","E_COORD97":161685.48000000001,"N_COORD97":2576462.6499999999,"ADDRESS":"蚵寮５６１號","OBJECTID":54179},"geometry":{"x":161685.48000000045,"y":2576462.6500000041}},{"attributes":{"ID":54180,"DIS_CODE":0,"TOWNNAME":"北門區","LI":"東壁里","LIN":"1鄰","STREET":" ","SECT":" ","MAREA":"蚵寮","LANE":" ","ALLEY":" ","HOUSE_NO":"５６２號","E_COORD97":161675.42999999999,"N_COORD97":2576482.7400000002,"ADDRESS":"蚵寮５６２號","OBJECTID":54180},"geometry":{"x":161675.43000000063,"y":2576482.7400000021}},{"attributes":{"ID":54181,"DIS_CODE":0,"TOWNNAME":"北門區","LI":"東壁里","LIN":"1鄰","STREET":" ","SECT":" ","MAREA":"蚵寮","LANE":" ","ALLEY":" ","HOUSE_NO":"５６３之１０號","E_COORD97":161634.12,"N_COORD97":2576528.54,"ADDRESS":"蚵寮５６３之１０號","OBJECTID":54181},"geometry":{"x":161634.12000000104,"y":2576528.5399999991}},{"attributes":{"ID":54182,"DIS_CODE":0,"TOWNNAME":"北門區","LI":"東壁里","LIN":"1鄰","STREET":" ","SECT":" ","MAREA":"蚵寮","LANE":" ","ALLEY":" ","HOUSE_NO":"５６３之７號","E_COORD97":161643.84,"N_COORD97":2576502.2200000002,"ADDRESS":"蚵寮５６３之７號","OBJECTID":54182},"geometry":{"x":161643.84000000078,"y":2576502.2200000007}},{"attributes":{"ID":54183,"DIS_CODE":0,"TOWNNAME":"北門區","LI":"東壁里","LIN":"1鄰","STREET":" ","SECT":" ","MAREA":"蚵寮","LANE":" ","ALLEY":" ","HOUSE_NO":"５６３號","E_COORD97":161660.53,"N_COORD97":2576473.29,"ADDRESS":"蚵寮５６３號","OBJECTID":54183},"geometry":{"x":161660.53000000119,"y":2576473.2899999991}},{"attributes":{"ID":54184,"DIS_CODE":0,"TOWNNAME":"北門區","LI":"鯤江里","LIN":"1鄰","STREET":" ","SECT":" ","MAREA":"蚵寮","LANE":" ","ALLEY":" ","HOUSE_NO":"７６１號","E_COORD97":161674.79999999999,"N_COORD97":2576225.6000000001,"ADDRESS":"蚵寮７６１號","OBJECTID":54184},"geometry":{"x":161674.80000000075,"y":2576225.6000000015}},{"attributes":{"ID":54185,"DIS_CODE":0,"TOWNNAME":"後壁區","LI":"平安里","LIN":"8鄰","STREET":" ","SECT":" ","MAREA":"葯店口","LANE":" ","ALLEY":" ","HOUSE_NO":"８１號之６","E_COORD97":181745.84,"N_COORD97":2584693.9100000001,"ADDRESS":"葯店口８１號之６","OBJECTID":54185},"geometry":{"x":181745.84000000078,"y":2584693.910000002}},{"attributes":{"ID":54186,"DIS_CODE":0,"TOWNNAME":"南區","LI":"竹溪里","LIN":"1鄰","STREET":"健康路","SECT":"一段","MAREA":" ","LANE":"１１３巷","ALLEY":"６５弄","HOUSE_NO":"２２號五樓之２","E_COORD97":168959.48000000001,"N_COORD97":2542070.3999999999,"ADDRESS":"健康路一段１１３巷６５弄２２號五樓之２","OBJECTID":54186},"geometry":{"x":168959.48000000045,"y":2542070.4000000022}},{"attributes":{"ID":54187,"DIS_CODE":0,"TOWNNAME":"後壁區","LI":"平安里","LIN":"8鄰","STREET":" ","SECT":" ","MAREA":"葯店口","LANE":" ","ALLEY":" ","HOUSE_NO":"８１號","E_COORD97":181829.75,"N_COORD97":2584781.2599999998,"ADDRESS":"葯店口８１號","OBJECTID":54187},"geometry":{"x":181829.75000000093,"y":2584781.2600000035}},{"attributes":{"ID":54188,"DIS_CODE":0,"TOWNNAME":"永康區","LI":"正強里","LIN":"8鄰","STREET":"永正路","SECT":" ","MAREA":" ","LANE":"８５巷","ALLEY":" ","HOUSE_NO":"１號","E_COORD97":173489.29999999999,"N_COORD97":2547465.1800000002,"ADDRESS":"永正路８５巷１號","OBJECTID":54188},"geometry":{"x":173489.29999999981,"y":2547465.1800000016}},{"attributes":{"ID":54189,"DIS_CODE":0,"TOWNNAME":"永康區","LI":"復國里","LIN":"8鄰","STREET":"復國二路","SECT":" ","MAREA":" ","LANE":" ","ALLEY":" ","HOUSE_NO":"４６號","E_COORD97":172846.70000000001,"N_COORD97":2545037.3999999999,"ADDRESS":"復國二路４６號","OBJECTID":54189},"geometry":{"x":172846.69999999925,"y":2545037.4000000004}},{"attributes":{"ID":54190,"DIS_CODE":0,"TOWNNAME":"永康區","LI":"尚頂里","LIN":"8鄰","STREET":"中正二街","SECT":" ","MAREA":" ","LANE":" ","ALLEY":" ","HOUSE_NO":"９５號","E_COORD97":170971.70999999999,"N_COORD97":2547486.1800000002,"ADDRESS":"中正二街９５號","OBJECTID":54190},"geometry":{"x":170971.71000000183,"y":2547486.1799999997}},{"attributes":{"ID":54191,"DIS_CODE":0,"TOWNNAME":"南區","LI":"竹溪里","LIN":"1鄰","STREET":"健康路","SECT":"一段","MAREA":" ","LANE":"１１３巷","ALLEY":"６５弄","HOUSE_NO":"２２號六樓之１","E_COORD97":168959.48000000001,"N_COORD97":2542070.3999999999,"ADDRESS":"健康路一段１１３巷６５弄２２號六樓之１","OBJECTID":54191},"geometry":{"x":168959.48000000045,"y":2542070.4000000022}},{"attributes":{"ID":54192,"DIS_CODE":0,"TOWNNAME":"新化區","LI":"唪口里","LIN":"8鄰","STREET":" ","SECT":" ","MAREA":"唪口","LANE":" ","ALLEY":" ","HOUSE_NO":"８８號之３","E_COORD97":177988.44,"N_COORD97":2549152.2599999998,"ADDRESS":"唪口８８號之３","OBJECTID":54192},"geometry":{"x":177988.44000000041,"y":2549152.2600000016}},{"attributes":{"ID":54193,"DIS_CODE":0,"TOWNNAME":"新化區","LI":"唪口里","LIN":"8鄰","STREET":" ","SECT":" ","MAREA":"唪口","LANE":" ","ALLEY":" ","HOUSE_NO":"９２號之１６","E_COORD97":177973.79999999999,"N_COORD97":2549192.2599999998,"ADDRESS":"唪口９２號之１６","OBJECTID":54193},"geometry":{"x":177973.80000000168,"y":2549192.2599999998}},{"attributes":{"ID":54194,"DIS_CODE":0,"TOWNNAME":"新化區","LI":"礁坑里","LIN":"8鄰","STREET":" ","SECT":" ","MAREA":"三十六崙","LANE":" ","ALLEY":" ","HOUSE_NO":"６２號","E_COORD97":185062.42000000001,"N_COORD97":2548929.25,"ADDRESS":"三十六崙６２號","OBJECTID":54194},"geometry":{"x":185062.42000000086,"y":2548929.2500000019}},{"attributes":{"ID":54195,"DIS_CODE":0,"TOWNNAME":"新化區","LI":"唪口里","LIN":"8鄰","STREET":" ","SECT":" ","MAREA":"唪口","LANE":" ","ALLEY":" ","HOUSE_NO":"９４號之２","E_COORD97":177936.54999999999,"N_COORD97":2549084.2599999998,"ADDRESS":"唪口９４號之２","OBJECTID":54195},"geometry":{"x":177936.55000000075,"y":2549084.2600000035}},{"attributes":{"ID":54196,"DIS_CODE":0,"TOWNNAME":"新化區","LI":"\u25A0拔里","LIN":"8鄰","STREET":" ","SECT":" ","MAREA":"\u25A0拔林","LANE":" ","ALLEY":" ","HOUSE_NO":"３０５號之１","E_COORD97":183455.54999999999,"N_COORD97":2551901.2599999998,"ADDRESS":"\u25A0拔林３０５號之１","OBJECTID":54196},"geometry":{"x":183455.54999999981,"y":2551901.2599999979}},{"attributes":{"ID":54197,"DIS_CODE":0,"TOWNNAME":"新化區","LI":"唪口里","LIN":"8鄰","STREET":" ","SECT":" ","MAREA":"唪口","LANE":" ","ALLEY":" ","HOUSE_NO":"１２９號之１","E_COORD97":177917.38,"N_COORD97":2549003.2599999998,"ADDRESS":"唪口１２９號之１","OBJECTID":54197},"geometry":{"x":177917.38000000175,"y":2549003.2600000016}},{"attributes":{"ID":54198,"DIS_CODE":0,"TOWNNAME":"新化區","LI":"唪口里","LIN":"8鄰","STREET":" ","SECT":" ","MAREA":"唪口","LANE":" ","ALLEY":" ","HOUSE_NO":"９６號之１","E_COORD97":177964.92999999999,"N_COORD97":2549073.2599999998,"ADDRESS":"唪口９６號之１","OBJECTID":54198},"geometry":{"x":177964.93000000063,"y":2549073.2599999998}},{"attributes":{"ID":54199,"DIS_CODE":0,"TOWNNAME":"新化區","LI":"唪口里","LIN":"8鄰","STREET":" ","SECT":" ","MAREA":"唪口","LANE":" ","ALLEY":" ","HOUSE_NO":"９２號之８","E_COORD97":177955.54999999999,"N_COORD97":2549166.2599999998,"ADDRESS":"唪口９２號之８","OBJECTID":54199},"geometry":{"x":177955.55000000075,"y":2549166.2600000016}},{"attributes":{"ID":54200,"DIS_CODE":0,"TOWNNAME":"新化區","LI":"大坑里","LIN":"8鄰","STREET":" ","SECT":" ","MAREA":"大坑尾","LANE":" ","ALLEY":" ","HOUSE_NO":"２０５號之１","E_COORD97":186063.85999999999,"N_COORD97":2545258.2599999998,"ADDRESS":"大坑尾２０５號之１","OBJECTID":54200},"geometry":{"x":186063.86000000127,"y":2545258.2599999998}}]}