{"displayFieldName":"TOWNNAME","fieldAliases":{"ID":"ID","DIS_CODE":"DIS_CODE","TOWNNAME":"TOWNNAME","LI":"LI","LIN":"LIN","STREET":"STREET","SECT":"SECT","MAREA":"MAREA","LANE":"LANE","ALLEY":"ALLEY","HOUSE_NO":"HOUSE_NO","E_COORD97":"E_COORD97","N_COORD97":"N_COORD97","ADDRESS":"ADDRESS","OBJECTID":"OBJECTID"},"geometryType":"esriGeometryPoint","spatialReference":{"wkid":102443,"latestWkid":3826},"fields":[{"name":"ID","type":"esriFieldTypeDouble","alias":"ID"},{"name":"DIS_CODE","type":"esriFieldTypeInteger","alias":"DIS_CODE"},{"name":"TOWNNAME","type":"esriFieldTypeString","alias":"TOWNNAME","length":8},{"name":"LI","type":"esriFieldTypeString","alias":"LI","length":8},{"name":"LIN","type":"esriFieldTypeString","alias":"LIN","length":12},{"name":"STREET","type":"esriFieldTypeString","alias":"STREET","length":20},{"name":"SECT","type":"esriFieldTypeString","alias":"SECT","length":8},{"name":"MAREA","type":"esriFieldTypeString","alias":"MAREA","length":12},{"name":"LANE","type":"esriFieldTypeString","alias":"LANE","length":10},{"name":"ALLEY","type":"esriFieldTypeString","alias":"ALLEY","length":10},{"name":"HOUSE_NO","type":"esriFieldTypeString","alias":"HOUSE_NO","length":20},{"name":"E_COORD97","type":"esriFieldTypeDouble","alias":"E_COORD97"},{"name":"N_COORD97","type":"esriFieldTypeDouble","alias":"N_COORD97"},{"name":"ADDRESS","type":"esriFieldTypeString","alias":"ADDRESS","length":50},{"name":"OBJECTID","type":"esriFieldTypeOID","alias":"OBJECTID"}],"features":[{"attributes":{"ID":416225,"DIS_CODE":0,"TOWNNAME":"北區","LI":"文成里","LIN":"2鄰","STREET":"文賢路","SECT":" ","MAREA":" ","LANE":"６１８巷","ALLEY":" ","HOUSE_NO":"５９號","E_COORD97":167498.82000000001,"N_COORD97":2545527.0600000001,"ADDRESS":"文賢路６１８巷５９號","OBJECTID":416201},"geometry":{"x":167498.8200000003,"y":2545527.0600000024}},{"attributes":{"ID":416226,"DIS_CODE":0,"TOWNNAME":"北區","LI":"文成里","LIN":"2鄰","STREET":"文賢路","SECT":" ","MAREA":" ","LANE":"６１８巷","ALLEY":" ","HOUSE_NO":"５號","E_COORD97":167407.41,"N_COORD97":2545528.4100000001,"ADDRESS":"文賢路６１８巷５號","OBJECTID":416202},"geometry":{"x":167407.41000000108,"y":2545528.410000002}},{"attributes":{"ID":416227,"DIS_CODE":0,"TOWNNAME":"北區","LI":"文成里","LIN":"2鄰","STREET":"文賢路","SECT":" ","MAREA":" ","LANE":"６１８巷","ALLEY":" ","HOUSE_NO":"６１號","E_COORD97":167503.59,"N_COORD97":2545527.4399999999,"ADDRESS":"文賢路６１８巷６１號","OBJECTID":416203},"geometry":{"x":167503.58999999985,"y":2545527.4400000013}},{"attributes":{"ID":416228,"DIS_CODE":0,"TOWNNAME":"北區","LI":"文成里","LIN":"2鄰","STREET":"文賢路","SECT":" ","MAREA":" ","LANE":"６１８巷","ALLEY":" ","HOUSE_NO":"６３號","E_COORD97":167506.64000000001,"N_COORD97":2545527.0600000001,"ADDRESS":"文賢路６１８巷６３號","OBJECTID":416204},"geometry":{"x":167506.63999999966,"y":2545527.0600000024}},{"attributes":{"ID":416229,"DIS_CODE":0,"TOWNNAME":"北區","LI":"文成里","LIN":"2鄰","STREET":"文賢路","SECT":" ","MAREA":" ","LANE":"６１８巷","ALLEY":" ","HOUSE_NO":"６５號","E_COORD97":167509.88,"N_COORD97":2545526.8700000001,"ADDRESS":"文賢路６１８巷６５號","OBJECTID":416205},"geometry":{"x":167509.87999999989,"y":2545526.870000001}},{"attributes":{"ID":416230,"DIS_CODE":0,"TOWNNAME":"北區","LI":"文成里","LIN":"2鄰","STREET":"文賢路","SECT":" ","MAREA":" ","LANE":"６１８巷","ALLEY":" ","HOUSE_NO":"７號","E_COORD97":167411.23000000001,"N_COORD97":2545528.4100000001,"ADDRESS":"文賢路６１８巷７號","OBJECTID":416206},"geometry":{"x":167411.23000000138,"y":2545528.410000002}},{"attributes":{"ID":416231,"DIS_CODE":0,"TOWNNAME":"北區","LI":"文成里","LIN":"2鄰","STREET":"文賢路","SECT":" ","MAREA":" ","LANE":"６１８巷","ALLEY":" ","HOUSE_NO":"９號","E_COORD97":167409.32000000001,"N_COORD97":2545543.6499999999,"ADDRESS":"文賢路６１８巷９號","OBJECTID":416207},"geometry":{"x":167409.3200000003,"y":2545543.6500000022}},{"attributes":{"ID":416232,"DIS_CODE":0,"TOWNNAME":"東區","LI":"新東里","LIN":"2鄰","STREET":"東門路","SECT":"二段","MAREA":" ","LANE":"１６１巷","ALLEY":" ","HOUSE_NO":"１７號","E_COORD97":170327.48999999999,"N_COORD97":2542922.5699999998,"ADDRESS":"東門路二段１６１巷１７號","OBJECTID":416208},"geometry":{"x":170327.49000000209,"y":2542922.5700000022}},{"attributes":{"ID":416233,"DIS_CODE":0,"TOWNNAME":"北區","LI":"文元里","LIN":"2鄰","STREET":"中華北路","SECT":"二段","MAREA":" ","LANE":"８０巷","ALLEY":" ","HOUSE_NO":"１１號","E_COORD97":167710.10000000001,"N_COORD97":2546623.1200000001,"ADDRESS":"中華北路二段８０巷１１號","OBJECTID":416209},"geometry":{"x":167710.09999999963,"y":2546623.1200000029}},{"attributes":{"ID":416234,"DIS_CODE":0,"TOWNNAME":"北區","LI":"文元里","LIN":"2鄰","STREET":"中華北路","SECT":"二段","MAREA":" ","LANE":"８０巷","ALLEY":" ","HOUSE_NO":"１５號","E_COORD97":167710.73999999999,"N_COORD97":2546616.0099999998,"ADDRESS":"中華北路二段８０巷１５號","OBJECTID":416210},"geometry":{"x":167710.74000000115,"y":2546616.0099999998}},{"attributes":{"ID":416235,"DIS_CODE":0,"TOWNNAME":"北區","LI":"文元里","LIN":"2鄰","STREET":"中華北路","SECT":"二段","MAREA":" ","LANE":"８０巷","ALLEY":" ","HOUSE_NO":"１７號","E_COORD97":167711.12,"N_COORD97":2546612.7000000002,"ADDRESS":"中華北路二段８０巷１７號","OBJECTID":416211},"geometry":{"x":167711.12000000104,"y":2546612.7000000011}},{"attributes":{"ID":416236,"DIS_CODE":0,"TOWNNAME":"北區","LI":"文元里","LIN":"2鄰","STREET":"中華北路","SECT":"二段","MAREA":" ","LANE":"８０巷","ALLEY":" ","HOUSE_NO":"１９號","E_COORD97":167711.5,"N_COORD97":2546608.8900000001,"ADDRESS":"中華北路二段８０巷１９號","OBJECTID":416212},"geometry":{"x":167711.50000000186,"y":2546608.8899999987}},{"attributes":{"ID":416237,"DIS_CODE":0,"TOWNNAME":"北區","LI":"大仁里","LIN":"2鄰","STREET":"北門路","SECT":"二段","MAREA":" ","LANE":"２８４巷","ALLEY":" ","HOUSE_NO":"１２號","E_COORD97":169552.73000000001,"N_COORD97":2545292.1400000001,"ADDRESS":"北門路二段２８４巷１２號","OBJECTID":416213},"geometry":{"x":169552.73000000045,"y":2545292.1400000043}},{"attributes":{"ID":416238,"DIS_CODE":0,"TOWNNAME":"南區","LI":"田寮里","LIN":"2鄰","STREET":"大成路","SECT":"二段","MAREA":" ","LANE":"１６４巷","ALLEY":" ","HOUSE_NO":"６號","E_COORD97":167304.29000000001,"N_COORD97":2541763.4199999999,"ADDRESS":"大成路二段１６４巷６號","OBJECTID":416214},"geometry":{"x":167304.29000000004,"y":2541763.4200000037}},{"attributes":{"ID":416239,"DIS_CODE":0,"TOWNNAME":"北區","LI":"振興里","LIN":"2鄰","STREET":"開元路","SECT":" ","MAREA":" ","LANE":"１４８巷","ALLEY":" ","HOUSE_NO":"２４號","E_COORD97":170004.73000000001,"N_COORD97":2545137.0800000001,"ADDRESS":"開元路１４８巷２４號","OBJECTID":416215},"geometry":{"x":170004.73000000138,"y":2545137.0800000019}},{"attributes":{"ID":416240,"DIS_CODE":0,"TOWNNAME":"北區","LI":"振興里","LIN":"2鄰","STREET":"開元路","SECT":" ","MAREA":" ","LANE":"１４８巷","ALLEY":" ","HOUSE_NO":"２８號","E_COORD97":170006.78,"N_COORD97":2545124.2799999998,"ADDRESS":"開元路１４８巷２８號","OBJECTID":416216},"geometry":{"x":170006.77999999933,"y":2545124.2800000012}},{"attributes":{"ID":416241,"DIS_CODE":0,"TOWNNAME":"北區","LI":"振興里","LIN":"2鄰","STREET":"開元路","SECT":" ","MAREA":" ","LANE":"１４８巷","ALLEY":" ","HOUSE_NO":"３０號","E_COORD97":170012.84,"N_COORD97":2545120.4900000002,"ADDRESS":"開元路１４８巷３０號","OBJECTID":416217},"geometry":{"x":170012.84000000171,"y":2545120.4900000021}},{"attributes":{"ID":416242,"DIS_CODE":0,"TOWNNAME":"北區","LI":"振興里","LIN":"2鄰","STREET":"開元路","SECT":" ","MAREA":" ","LANE":"１４８巷","ALLEY":" ","HOUSE_NO":"３２號","E_COORD97":170014.35999999999,"N_COORD97":2545116.8199999998,"ADDRESS":"開元路１４８巷３２號","OBJECTID":416218},"geometry":{"x":170014.36000000034,"y":2545116.8200000003}},{"attributes":{"ID":416243,"DIS_CODE":0,"TOWNNAME":"北區","LI":"六甲里","LIN":"2鄰","STREET":"公園路","SECT":" ","MAREA":" ","LANE":"４５１巷","ALLEY":" ","HOUSE_NO":"５２號","E_COORD97":168860.57000000001,"N_COORD97":2545564.77,"ADDRESS":"公園路４５１巷５２號","OBJECTID":416219},"geometry":{"x":168860.56999999937,"y":2545564.7700000033}},{"attributes":{"ID":416244,"DIS_CODE":0,"TOWNNAME":"北區","LI":"裕民里","LIN":"2鄰","STREET":"康樂街","SECT":" ","MAREA":" ","LANE":"４３５巷","ALLEY":" ","HOUSE_NO":"８號","E_COORD97":167744.81,"N_COORD97":2544679.75,"ADDRESS":"康樂街４３５巷８號","OBJECTID":416220},"geometry":{"x":167744.81000000052,"y":2544679.75}},{"attributes":{"ID":416245,"DIS_CODE":0,"TOWNNAME":"北區","LI":"文元里","LIN":"2鄰","STREET":"中華北路","SECT":"二段","MAREA":" ","LANE":"８５巷","ALLEY":" ","HOUSE_NO":"１０號","E_COORD97":167727.48999999999,"N_COORD97":2546641.4100000001,"ADDRESS":"中華北路二段８５巷１０號","OBJECTID":416221},"geometry":{"x":167727.49000000115,"y":2546641.4100000001}},{"attributes":{"ID":416246,"DIS_CODE":0,"TOWNNAME":"北區","LI":"文元里","LIN":"2鄰","STREET":"中華北路","SECT":"二段","MAREA":" ","LANE":"８５巷","ALLEY":" ","HOUSE_NO":"１１號","E_COORD97":167747.92000000001,"N_COORD97":2546601.5299999998,"ADDRESS":"中華北路二段８５巷１１號","OBJECTID":416222},"geometry":{"x":167747.92000000086,"y":2546601.5300000012}},{"attributes":{"ID":416247,"DIS_CODE":0,"TOWNNAME":"北區","LI":"文元里","LIN":"2鄰","STREET":"中華北路","SECT":"二段","MAREA":" ","LANE":"８５巷","ALLEY":" ","HOUSE_NO":"１２號","E_COORD97":167728.10999999999,"N_COORD97":2546637.3799999999,"ADDRESS":"中華北路二段８５巷１２號","OBJECTID":416223},"geometry":{"x":167728.1100000022,"y":2546637.379999999}},{"attributes":{"ID":416248,"DIS_CODE":0,"TOWNNAME":"北區","LI":"文元里","LIN":"2鄰","STREET":"中華北路","SECT":"二段","MAREA":" ","LANE":"８５巷","ALLEY":" ","HOUSE_NO":"１３號","E_COORD97":167754.67000000001,"N_COORD97":2546582.77,"ADDRESS":"中華北路二段８５巷１３號","OBJECTID":416224},"geometry":{"x":167754.67000000086,"y":2546582.7700000014}},{"attributes":{"ID":416249,"DIS_CODE":0,"TOWNNAME":"北區","LI":"文元里","LIN":"2鄰","STREET":"中華北路","SECT":"二段","MAREA":" ","LANE":"８５巷","ALLEY":" ","HOUSE_NO":"１４號","E_COORD97":167728.42000000001,"N_COORD97":2546633.6499999999,"ADDRESS":"中華北路二段８５巷１４號","OBJECTID":416225},"geometry":{"x":167728.41999999993,"y":2546633.6500000004}},{"attributes":{"ID":416250,"DIS_CODE":0,"TOWNNAME":"北區","LI":"文元里","LIN":"2鄰","STREET":"中華北路","SECT":"二段","MAREA":" ","LANE":"８５巷","ALLEY":" ","HOUSE_NO":"１５號","E_COORD97":167750.56,"N_COORD97":2546580.7200000002,"ADDRESS":"中華北路二段８５巷１５號","OBJECTID":416226},"geometry":{"x":167750.55999999959,"y":2546580.7200000025}},{"attributes":{"ID":416251,"DIS_CODE":0,"TOWNNAME":"北區","LI":"文元里","LIN":"2鄰","STREET":"中華北路","SECT":"二段","MAREA":" ","LANE":"８５巷","ALLEY":" ","HOUSE_NO":"１６號","E_COORD97":167728.73000000001,"N_COORD97":2546629.9300000002,"ADDRESS":"中華北路二段８５巷１６號","OBJECTID":416227},"geometry":{"x":167728.73000000045,"y":2546629.9299999997}},{"attributes":{"ID":416252,"DIS_CODE":0,"TOWNNAME":"東區","LI":"和平里","LIN":"1鄰","STREET":"文化一街","SECT":" ","MAREA":" ","LANE":" ","ALLEY":" ","HOUSE_NO":"６號七樓","E_COORD97":171099.45000000001,"N_COORD97":2542097.2200000002,"ADDRESS":"文化一街６號七樓","OBJECTID":416228},"geometry":{"x":171099.45000000112,"y":2542097.2200000007}},{"attributes":{"ID":416253,"DIS_CODE":0,"TOWNNAME":"北區","LI":"文元里","LIN":"2鄰","STREET":"中華北路","SECT":"二段","MAREA":" ","LANE":"８５巷","ALLEY":" ","HOUSE_NO":"１８號","E_COORD97":167729.98000000001,"N_COORD97":2546625.8999999999,"ADDRESS":"中華北路二段８５巷１８號","OBJECTID":416229},"geometry":{"x":167729.98000000045,"y":2546625.9000000041}},{"attributes":{"ID":416254,"DIS_CODE":0,"TOWNNAME":"北區","LI":"文元里","LIN":"2鄰","STREET":"中華北路","SECT":"二段","MAREA":" ","LANE":"８５巷","ALLEY":" ","HOUSE_NO":"１號","E_COORD97":167747.32999999999,"N_COORD97":2546636.98,"ADDRESS":"中華北路二段８５巷１號","OBJECTID":416230},"geometry":{"x":167747.33000000101,"y":2546636.9800000023}},{"attributes":{"ID":416255,"DIS_CODE":0,"TOWNNAME":"北區","LI":"文元里","LIN":"2鄰","STREET":"中華北路","SECT":"二段","MAREA":" ","LANE":"８５巷","ALLEY":" ","HOUSE_NO":"２２號","E_COORD97":167731.22,"N_COORD97":2546617.52,"ADDRESS":"中華北路二段８５巷２２號","OBJECTID":416231},"geometry":{"x":167731.21999999974,"y":2546617.5200000033}},{"attributes":{"ID":416256,"DIS_CODE":0,"TOWNNAME":"北區","LI":"文元里","LIN":"2鄰","STREET":"中華北路","SECT":"二段","MAREA":" ","LANE":"８５巷","ALLEY":" ","HOUSE_NO":"２４號","E_COORD97":167731.84,"N_COORD97":2546613.79,"ADDRESS":"中華北路二段８５巷２４號","OBJECTID":416232},"geometry":{"x":167731.84000000078,"y":2546613.7899999991}},{"attributes":{"ID":416257,"DIS_CODE":0,"TOWNNAME":"北區","LI":"文元里","LIN":"2鄰","STREET":"中華北路","SECT":"二段","MAREA":" ","LANE":"８５巷","ALLEY":" ","HOUSE_NO":"２６號","E_COORD97":167731.53,"N_COORD97":2546609.4500000002,"ADDRESS":"中華北路二段８５巷２６號","OBJECTID":416233},"geometry":{"x":167731.53000000026,"y":2546609.4499999993}},{"attributes":{"ID":416258,"DIS_CODE":0,"TOWNNAME":"北區","LI":"文元里","LIN":"2鄰","STREET":"中華北路","SECT":"二段","MAREA":" ","LANE":"８５巷","ALLEY":" ","HOUSE_NO":"２８號","E_COORD97":167732.76999999999,"N_COORD97":2546605.7200000002,"ADDRESS":"中華北路二段８５巷２８號","OBJECTID":416234},"geometry":{"x":167732.76999999955,"y":2546605.7200000007}},{"attributes":{"ID":416259,"DIS_CODE":0,"TOWNNAME":"北區","LI":"文元里","LIN":"2鄰","STREET":"中華北路","SECT":"二段","MAREA":" ","LANE":"８５巷","ALLEY":" ","HOUSE_NO":"２號","E_COORD97":167724.38,"N_COORD97":2546657.2400000002,"ADDRESS":"中華北路二段８５巷２號","OBJECTID":416235},"geometry":{"x":167724.38000000082,"y":2546657.2400000039}},{"attributes":{"ID":416260,"DIS_CODE":0,"TOWNNAME":"北區","LI":"文元里","LIN":"2鄰","STREET":"中華北路","SECT":"二段","MAREA":" ","LANE":"８５巷","ALLEY":" ","HOUSE_NO":"３０號","E_COORD97":167733.39000000001,"N_COORD97":2546602,"ADDRESS":"中華北路二段８５巷３０號","OBJECTID":416236},"geometry":{"x":167733.38999999966,"y":2546602.0000000019}},{"attributes":{"ID":416261,"DIS_CODE":0,"TOWNNAME":"北區","LI":"文元里","LIN":"2鄰","STREET":"中華北路","SECT":"二段","MAREA":" ","LANE":"８５巷","ALLEY":" ","HOUSE_NO":"３２號","E_COORD97":167733.39000000001,"N_COORD97":2546597.3399999999,"ADDRESS":"中華北路二段８５巷３２號","OBJECTID":416237},"geometry":{"x":167733.38999999966,"y":2546597.3399999999}},{"attributes":{"ID":416262,"DIS_CODE":0,"TOWNNAME":"北區","LI":"文元里","LIN":"2鄰","STREET":"中華北路","SECT":"二段","MAREA":" ","LANE":"８５巷","ALLEY":" ","HOUSE_NO":"３４號","E_COORD97":167734.01999999999,"N_COORD97":2546593,"ADDRESS":"中華北路二段８５巷３４號","OBJECTID":416238},"geometry":{"x":167734.01999999955,"y":2546593}},{"attributes":{"ID":416263,"DIS_CODE":0,"TOWNNAME":"北區","LI":"文元里","LIN":"2鄰","STREET":"中華北路","SECT":"二段","MAREA":" ","LANE":"８５巷","ALLEY":" ","HOUSE_NO":"３６號","E_COORD97":167734.64000000001,"N_COORD97":2546589.27,"ADDRESS":"中華北路二段８５巷３６號","OBJECTID":416239},"geometry":{"x":167734.6400000006,"y":2546589.2700000014}},{"attributes":{"ID":416264,"DIS_CODE":0,"TOWNNAME":"北區","LI":"文元里","LIN":"2鄰","STREET":"中華北路","SECT":"二段","MAREA":" ","LANE":"８５巷","ALLEY":" ","HOUSE_NO":"３８號","E_COORD97":167735.26000000001,"N_COORD97":2546585.8599999999,"ADDRESS":"中華北路二段８５巷３８號","OBJECTID":416240},"geometry":{"x":167735.26000000071,"y":2546585.8600000013}},{"attributes":{"ID":416265,"DIS_CODE":0,"TOWNNAME":"北區","LI":"文元里","LIN":"2鄰","STREET":"中華北路","SECT":"二段","MAREA":" ","LANE":"８５巷","ALLEY":" ","HOUSE_NO":"３號","E_COORD97":167743.81,"N_COORD97":2546634.9199999999,"ADDRESS":"中華北路二段８５巷３號","OBJECTID":416241},"geometry":{"x":167743.80999999959,"y":2546634.9199999999}},{"attributes":{"ID":416266,"DIS_CODE":0,"TOWNNAME":"北區","LI":"文元里","LIN":"2鄰","STREET":"中華北路","SECT":"二段","MAREA":" ","LANE":"８５巷","ALLEY":" ","HOUSE_NO":"４０號","E_COORD97":167735.57000000001,"N_COORD97":2546581.52,"ADDRESS":"中華北路二段８５巷４０號","OBJECTID":416242},"geometry":{"x":167735.57000000123,"y":2546581.5200000014}},{"attributes":{"ID":416267,"DIS_CODE":0,"TOWNNAME":"北區","LI":"文元里","LIN":"2鄰","STREET":"中華北路","SECT":"二段","MAREA":" ","LANE":"８５巷","ALLEY":" ","HOUSE_NO":"４２號","E_COORD97":167735.88,"N_COORD97":2546577.1699999999,"ADDRESS":"中華北路二段８５巷４２號","OBJECTID":416243},"geometry":{"x":167735.87999999896,"y":2546577.1700000018}},{"attributes":{"ID":416268,"DIS_CODE":0,"TOWNNAME":"北區","LI":"文元里","LIN":"2鄰","STREET":"中華北路","SECT":"二段","MAREA":" ","LANE":"８５巷","ALLEY":" ","HOUSE_NO":"４４號","E_COORD97":167736.5,"N_COORD97":2546573.7599999998,"ADDRESS":"中華北路二段８５巷４４號","OBJECTID":416244},"geometry":{"x":167736.5,"y":2546573.7599999998}},{"attributes":{"ID":416269,"DIS_CODE":0,"TOWNNAME":"北區","LI":"文元里","LIN":"2鄰","STREET":"中華北路","SECT":"二段","MAREA":" ","LANE":"８５巷","ALLEY":" ","HOUSE_NO":"４６號","E_COORD97":167737.42999999999,"N_COORD97":2546569.7200000002,"ADDRESS":"中華北路二段８５巷４６號","OBJECTID":416245},"geometry":{"x":167737.43000000063,"y":2546569.7200000044}},{"attributes":{"ID":416270,"DIS_CODE":0,"TOWNNAME":"北區","LI":"文元里","LIN":"2鄰","STREET":"中華北路","SECT":"二段","MAREA":" ","LANE":"８５巷","ALLEY":" ","HOUSE_NO":"４８號","E_COORD97":167737.73999999999,"N_COORD97":2546565.3799999999,"ADDRESS":"中華北路二段８５巷４８號","OBJECTID":416246},"geometry":{"x":167737.74000000115,"y":2546565.379999999}},{"attributes":{"ID":416271,"DIS_CODE":0,"TOWNNAME":"北區","LI":"文元里","LIN":"2鄰","STREET":"中華北路","SECT":"二段","MAREA":" ","LANE":"８５巷","ALLEY":" ","HOUSE_NO":"４號","E_COORD97":167725.31,"N_COORD97":2546653.21,"ADDRESS":"中華北路二段８５巷４號","OBJECTID":416247},"geometry":{"x":167725.30999999959,"y":2546653.2100000009}},{"attributes":{"ID":416272,"DIS_CODE":0,"TOWNNAME":"北區","LI":"文元里","LIN":"2鄰","STREET":"中華北路","SECT":"二段","MAREA":" ","LANE":"８５巷","ALLEY":" ","HOUSE_NO":"５０號","E_COORD97":167738.06,"N_COORD97":2546561.0299999998,"ADDRESS":"中華北路二段８５巷５０號","OBJECTID":416248},"geometry":{"x":167738.06000000052,"y":2546561.0300000012}},{"attributes":{"ID":416273,"DIS_CODE":0,"TOWNNAME":"北區","LI":"重興里","LIN":"2鄰","STREET":"東豐路","SECT":" ","MAREA":" ","LANE":"３０５巷","ALLEY":" ","HOUSE_NO":"４２號","E_COORD97":170442.88,"N_COORD97":2544911.04,"ADDRESS":"東豐路３０５巷４２號","OBJECTID":416249},"geometry":{"x":170442.87999999989,"y":2544911.0399999972}},{"attributes":{"ID":416274,"DIS_CODE":0,"TOWNNAME":"北區","LI":"重興里","LIN":"2鄰","STREET":"東豐路","SECT":" ","MAREA":" ","LANE":"３０５巷","ALLEY":" ","HOUSE_NO":"４６號","E_COORD97":170443.45000000001,"N_COORD97":2544915.2999999998,"ADDRESS":"東豐路３０５巷４６號","OBJECTID":416250},"geometry":{"x":170443.45000000112,"y":2544915.3000000026}},{"attributes":{"ID":416275,"DIS_CODE":0,"TOWNNAME":"北區","LI":"重興里","LIN":"2鄰","STREET":"東豐路","SECT":" ","MAREA":" ","LANE":"３０５巷","ALLEY":" ","HOUSE_NO":"４８號","E_COORD97":170444.48000000001,"N_COORD97":2544919.27,"ADDRESS":"東豐路３０５巷４８號","OBJECTID":416251},"geometry":{"x":170444.48000000045,"y":2544919.2699999996}},{"attributes":{"ID":416276,"DIS_CODE":0,"TOWNNAME":"北區","LI":"重興里","LIN":"2鄰","STREET":"東豐路","SECT":" ","MAREA":" ","LANE":"３０５巷","ALLEY":" ","HOUSE_NO":"５０號","E_COORD97":170444.48000000001,"N_COORD97":2544923.4500000002,"ADDRESS":"東豐路３０５巷５０號","OBJECTID":416252},"geometry":{"x":170444.48000000045,"y":2544923.4500000011}},{"attributes":{"ID":416277,"DIS_CODE":0,"TOWNNAME":"中西區","LI":"赤嵌里","LIN":"3鄰","STREET":"廣慈街","SECT":" ","MAREA":" ","LANE":"３２巷","ALLEY":" ","HOUSE_NO":"５號","E_COORD97":168695.31,"N_COORD97":2544078.96,"ADDRESS":"廣慈街３２巷５號","OBJECTID":416253},"geometry":{"x":168695.30999999959,"y":2544078.9600000009}},{"attributes":{"ID":416278,"DIS_CODE":0,"TOWNNAME":"北區","LI":"重興里","LIN":"2鄰","STREET":"東豐路","SECT":" ","MAREA":" ","LANE":"３０５巷","ALLEY":" ","HOUSE_NO":"５４號","E_COORD97":170448.45000000001,"N_COORD97":2544934.8999999999,"ADDRESS":"東豐路３０５巷５４號","OBJECTID":416254},"geometry":{"x":170448.45000000112,"y":2544934.9000000022}},{"attributes":{"ID":416279,"DIS_CODE":0,"TOWNNAME":"北區","LI":"重興里","LIN":"2鄰","STREET":"東豐路","SECT":" ","MAREA":" ","LANE":"３０５巷","ALLEY":" ","HOUSE_NO":"５６號","E_COORD97":170448.34,"N_COORD97":2544938.9700000002,"ADDRESS":"東豐路３０５巷５６號","OBJECTID":416255},"geometry":{"x":170448.33999999985,"y":2544938.9700000007}},{"attributes":{"ID":416280,"DIS_CODE":0,"TOWNNAME":"北區","LI":"重興里","LIN":"2鄰","STREET":"東豐路","SECT":" ","MAREA":" ","LANE":"３０５巷","ALLEY":" ","HOUSE_NO":"５８號","E_COORD97":170448.66,"N_COORD97":2544942.4199999999,"ADDRESS":"東豐路３０５巷５８號","OBJECTID":416256},"geometry":{"x":170448.66000000108,"y":2544942.4199999999}},{"attributes":{"ID":416281,"DIS_CODE":0,"TOWNNAME":"北區","LI":"重興里","LIN":"2鄰","STREET":"東豐路","SECT":" ","MAREA":" ","LANE":"３０５巷","ALLEY":" ","HOUSE_NO":"６０號","E_COORD97":170449.91,"N_COORD97":2544946.3799999999,"ADDRESS":"東豐路３０５巷６０號","OBJECTID":416257},"geometry":{"x":170449.90999999922,"y":2544946.3800000027}},{"attributes":{"ID":416282,"DIS_CODE":0,"TOWNNAME":"北區","LI":"重興里","LIN":"2鄰","STREET":"東豐路","SECT":" ","MAREA":" ","LANE":"３０５巷","ALLEY":" ","HOUSE_NO":"６２號","E_COORD97":170454.84,"N_COORD97":2544954.8100000001,"ADDRESS":"東豐路３０５巷６２號","OBJECTID":416258},"geometry":{"x":170454.83999999985,"y":2544954.8099999987}},{"attributes":{"ID":416283,"DIS_CODE":0,"TOWNNAME":"北區","LI":"重興里","LIN":"2鄰","STREET":"東豐路","SECT":" ","MAREA":" ","LANE":"３０５巷","ALLEY":" ","HOUSE_NO":"６８號","E_COORD97":170455.19,"N_COORD97":2544963.5699999998,"ADDRESS":"東豐路３０５巷６８號","OBJECTID":416259},"geometry":{"x":170455.19000000227,"y":2544963.5700000022}},{"attributes":{"ID":416284,"DIS_CODE":0,"TOWNNAME":"北區","LI":"安民里","LIN":"2鄰","STREET":"海安路","SECT":"三段","MAREA":" ","LANE":"３２巷","ALLEY":" ","HOUSE_NO":"６號","E_COORD97":167983.07000000001,"N_COORD97":2544672.46,"ADDRESS":"海安路三段３２巷６號","OBJECTID":416260},"geometry":{"x":167983.07000000123,"y":2544672.4600000009}},{"attributes":{"ID":416285,"DIS_CODE":0,"TOWNNAME":"北區","LI":"安民里","LIN":"2鄰","STREET":"國華街","SECT":"四段","MAREA":" ","LANE":"２７巷","ALLEY":" ","HOUSE_NO":"１０號","E_COORD97":168010.82999999999,"N_COORD97":2544647.5899999999,"ADDRESS":"國華街四段２７巷１０號","OBJECTID":416261},"geometry":{"x":168010.83000000007,"y":2544647.5900000017}},{"attributes":{"ID":416286,"DIS_CODE":0,"TOWNNAME":"北區","LI":"安民里","LIN":"2鄰","STREET":"國華街","SECT":"四段","MAREA":" ","LANE":"２７巷","ALLEY":" ","HOUSE_NO":"１２號","E_COORD97":168006.45000000001,"N_COORD97":2544646.71,"ADDRESS":"國華街四段２７巷１２號","OBJECTID":416262},"geometry":{"x":168006.45000000019,"y":2544646.7100000009}},{"attributes":{"ID":416287,"DIS_CODE":0,"TOWNNAME":"北區","LI":"安民里","LIN":"2鄰","STREET":"國華街","SECT":"四段","MAREA":" ","LANE":"２７巷","ALLEY":" ","HOUSE_NO":"１４號","E_COORD97":168002.35999999999,"N_COORD97":2544645.25,"ADDRESS":"國華街四段２７巷１４號","OBJECTID":416263},"geometry":{"x":168002.36000000034,"y":2544645.25}},{"attributes":{"ID":416288,"DIS_CODE":0,"TOWNNAME":"北區","LI":"安民里","LIN":"2鄰","STREET":"國華街","SECT":"四段","MAREA":" ","LANE":"２７巷","ALLEY":" ","HOUSE_NO":"１６號","E_COORD97":167997.39000000001,"N_COORD97":2544644.96,"ADDRESS":"國華街四段２７巷１６號","OBJECTID":416264},"geometry":{"x":167997.3900000006,"y":2544644.9600000009}},{"attributes":{"ID":416289,"DIS_CODE":0,"TOWNNAME":"北區","LI":"安民里","LIN":"2鄰","STREET":"國華街","SECT":"四段","MAREA":" ","LANE":"２７巷","ALLEY":" ","HOUSE_NO":"２號","E_COORD97":168023.39999999999,"N_COORD97":2544647,"ADDRESS":"國華街四段２７巷２號","OBJECTID":416265},"geometry":{"x":168023.4000000013,"y":2544647}},{"attributes":{"ID":416290,"DIS_CODE":0,"TOWNNAME":"北區","LI":"安民里","LIN":"2鄰","STREET":"國華街","SECT":"四段","MAREA":" ","LANE":"２７巷","ALLEY":" ","HOUSE_NO":"６號","E_COORD97":168019.31,"N_COORD97":2544645.5499999998,"ADDRESS":"國華街四段２７巷６號","OBJECTID":416266},"geometry":{"x":168019.31000000145,"y":2544645.5500000026}},{"attributes":{"ID":416291,"DIS_CODE":0,"TOWNNAME":"北區","LI":"安民里","LIN":"2鄰","STREET":"國華街","SECT":"四段","MAREA":" ","LANE":"２７巷","ALLEY":" ","HOUSE_NO":"８號","E_COORD97":168015.51000000001,"N_COORD97":2544645.5499999998,"ADDRESS":"國華街四段２７巷８號","OBJECTID":416267},"geometry":{"x":168015.50999999978,"y":2544645.5500000026}},{"attributes":{"ID":416292,"DIS_CODE":0,"TOWNNAME":"東區","LI":"東光里","LIN":"2鄰","STREET":"東興路","SECT":" ","MAREA":" ","LANE":"２０巷","ALLEY":" ","HOUSE_NO":"４８號二樓","E_COORD97":171109.97,"N_COORD97":2543389.27,"ADDRESS":"東興路２０巷４８號二樓","OBJECTID":416268},"geometry":{"x":171109.96999999974,"y":2543389.2700000014}},{"attributes":{"ID":416293,"DIS_CODE":0,"TOWNNAME":"東區","LI":"東光里","LIN":"2鄰","STREET":"東興路","SECT":" ","MAREA":" ","LANE":"２０巷","ALLEY":" ","HOUSE_NO":"４８號五樓","E_COORD97":171109.97,"N_COORD97":2543389.27,"ADDRESS":"東興路２０巷４８號五樓","OBJECTID":416269},"geometry":{"x":171109.96999999974,"y":2543389.2700000014}},{"attributes":{"ID":416294,"DIS_CODE":0,"TOWNNAME":"東區","LI":"東光里","LIN":"2鄰","STREET":"東興路","SECT":" ","MAREA":" ","LANE":"２０巷","ALLEY":" ","HOUSE_NO":"４８號三樓","E_COORD97":171109.97,"N_COORD97":2543389.27,"ADDRESS":"東興路２０巷４８號三樓","OBJECTID":416270},"geometry":{"x":171109.96999999974,"y":2543389.2700000014}},{"attributes":{"ID":416295,"DIS_CODE":0,"TOWNNAME":"東區","LI":"東光里","LIN":"2鄰","STREET":"東興路","SECT":" ","MAREA":" ","LANE":"２０巷","ALLEY":" ","HOUSE_NO":"４８號四樓","E_COORD97":171109.97,"N_COORD97":2543389.27,"ADDRESS":"東興路２０巷４８號四樓","OBJECTID":416271},"geometry":{"x":171109.96999999974,"y":2543389.2700000014}},{"attributes":{"ID":416296,"DIS_CODE":0,"TOWNNAME":"東區","LI":"自強里","LIN":"22鄰","STREET":"富農街","SECT":"一段","MAREA":" ","LANE":"１５３巷","ALLEY":" ","HOUSE_NO":"４６號","E_COORD97":171458.87,"N_COORD97":2542535.4399999999,"ADDRESS":"富農街一段１５３巷４６號","OBJECTID":416272},"geometry":{"x":171458.87000000197,"y":2542535.4399999995}},{"attributes":{"ID":416297,"DIS_CODE":0,"TOWNNAME":"東區","LI":"自強里","LIN":"22鄰","STREET":"富農街","SECT":"一段","MAREA":" ","LANE":"１５３巷","ALLEY":" ","HOUSE_NO":"４號","E_COORD97":171523.29000000001,"N_COORD97":2542537.1699999999,"ADDRESS":"富農街一段１５３巷４號","OBJECTID":416273},"geometry":{"x":171523.29000000004,"y":2542537.1699999999}},{"attributes":{"ID":416298,"DIS_CODE":0,"TOWNNAME":"東區","LI":"自強里","LIN":"22鄰","STREET":"富農街","SECT":"一段","MAREA":" ","LANE":"１５３巷","ALLEY":" ","HOUSE_NO":"５號","E_COORD97":171499.63,"N_COORD97":2542524.8700000001,"ADDRESS":"富農街一段１５３巷５號","OBJECTID":416274},"geometry":{"x":171499.63000000082,"y":2542524.8700000029}},{"attributes":{"ID":416299,"DIS_CODE":0,"TOWNNAME":"東區","LI":"自強里","LIN":"22鄰","STREET":"富農街","SECT":"一段","MAREA":" ","LANE":"１５３巷","ALLEY":" ","HOUSE_NO":"６號","E_COORD97":171518.70000000001,"N_COORD97":2542537.0299999998,"ADDRESS":"富農街一段１５３巷６號","OBJECTID":416275},"geometry":{"x":171518.70000000019,"y":2542537.0299999993}},{"attributes":{"ID":416300,"DIS_CODE":0,"TOWNNAME":"東區","LI":"自強里","LIN":"22鄰","STREET":"富農街","SECT":"一段","MAREA":" ","LANE":"１５３巷","ALLEY":" ","HOUSE_NO":"７號","E_COORD97":171492.75,"N_COORD97":2542524.5899999999,"ADDRESS":"富農街一段１５３巷７號","OBJECTID":416276},"geometry":{"x":171492.75,"y":2542524.5899999999}},{"attributes":{"ID":416301,"DIS_CODE":0,"TOWNNAME":"東區","LI":"自強里","LIN":"22鄰","STREET":"富農街","SECT":"一段","MAREA":" ","LANE":"１５３巷","ALLEY":" ","HOUSE_NO":"８號","E_COORD97":171517.70000000001,"N_COORD97":2542553.9399999999,"ADDRESS":"富農街一段１５３巷８號","OBJECTID":416277},"geometry":{"x":171517.70000000205,"y":2542553.9400000013}},{"attributes":{"ID":416302,"DIS_CODE":0,"TOWNNAME":"東區","LI":"自強里","LIN":"22鄰","STREET":"富農街","SECT":"一段","MAREA":" ","LANE":"１５３巷","ALLEY":" ","HOUSE_NO":"９號","E_COORD97":171485.57000000001,"N_COORD97":2542524.4399999999,"ADDRESS":"富農街一段１５３巷９號","OBJECTID":416278},"geometry":{"x":171485.57000000123,"y":2542524.4399999995}},{"attributes":{"ID":416303,"DIS_CODE":0,"TOWNNAME":"東區","LI":"自強里","LIN":"23鄰","STREET":"富農街","SECT":"一段","MAREA":" ","LANE":"１９１巷","ALLEY":" ","HOUSE_NO":"２號","E_COORD97":171543.20999999999,"N_COORD97":2542588.54,"ADDRESS":"富農街一段１９１巷２號","OBJECTID":416279},"geometry":{"x":171543.21000000089,"y":2542588.5399999991}},{"attributes":{"ID":416304,"DIS_CODE":0,"TOWNNAME":"東區","LI":"自強里","LIN":"23鄰","STREET":"富農街","SECT":"一段","MAREA":" ","LANE":"１９１巷","ALLEY":" ","HOUSE_NO":"６號","E_COORD97":171524.39999999999,"N_COORD97":2542593.5499999998,"ADDRESS":"富農街一段１９１巷６號","OBJECTID":416280},"geometry":{"x":171524.40000000037,"y":2542593.5500000007}},{"attributes":{"ID":416305,"DIS_CODE":0,"TOWNNAME":"東區","LI":"自強里","LIN":"22鄰","STREET":"富農街","SECT":"一段","MAREA":" ","LANE":"１９１巷","ALLEY":" ","HOUSE_NO":"１號地下層","E_COORD97":171514.41,"N_COORD97":2542578.6400000001,"ADDRESS":"富農街一段１９１巷１號地下層","OBJECTID":416281},"geometry":{"x":171514.41000000015,"y":2542578.6400000006}},{"attributes":{"ID":416306,"DIS_CODE":0,"TOWNNAME":"東區","LI":"自強里","LIN":"22鄰","STREET":"富農街","SECT":"一段","MAREA":" ","LANE":"１９１巷","ALLEY":" ","HOUSE_NO":"３號","E_COORD97":171503.07000000001,"N_COORD97":2542578.6400000001,"ADDRESS":"富農街一段１９１巷３號","OBJECTID":416282},"geometry":{"x":171503.0700000003,"y":2542578.6400000006}},{"attributes":{"ID":416307,"DIS_CODE":0,"TOWNNAME":"東區","LI":"自強里","LIN":"22鄰","STREET":"富農街","SECT":"一段","MAREA":" ","LANE":"１９１巷","ALLEY":" ","HOUSE_NO":"５號","E_COORD97":171492.60000000001,"N_COORD97":2542578.79,"ADDRESS":"富農街一段１９１巷５號","OBJECTID":416283},"geometry":{"x":171492.60000000056,"y":2542578.7899999991}},{"attributes":{"ID":416308,"DIS_CODE":0,"TOWNNAME":"東區","LI":"自強里","LIN":"22鄰","STREET":"富農街","SECT":"一段","MAREA":" ","LANE":"１９１巷","ALLEY":" ","HOUSE_NO":"７號","E_COORD97":171481.98000000001,"N_COORD97":2542578.0699999998,"ADDRESS":"富農街一段１９１巷７號","OBJECTID":416284},"geometry":{"x":171481.98000000045,"y":2542578.0700000022}},{"attributes":{"ID":416309,"DIS_CODE":0,"TOWNNAME":"東區","LI":"關聖里","LIN":"2鄰","STREET":"裕農路","SECT":" ","MAREA":" ","LANE":"６６８巷","ALLEY":" ","HOUSE_NO":"５２號三樓","E_COORD97":171739.45999999999,"N_COORD97":2542962.5899999999,"ADDRESS":"裕農路６６８巷５２號三樓","OBJECTID":416285},"geometry":{"x":171739.45999999903,"y":2542962.5900000017}},{"attributes":{"ID":416310,"DIS_CODE":0,"TOWNNAME":"中西區","LI":"赤嵌里","LIN":"3鄰","STREET":"廣慈街","SECT":" ","MAREA":" ","LANE":"３２巷","ALLEY":" ","HOUSE_NO":"７號","E_COORD97":168695.64000000001,"N_COORD97":2544087.54,"ADDRESS":"廣慈街３２巷７號","OBJECTID":416286},"geometry":{"x":168695.6400000006,"y":2544087.5400000028}},{"attributes":{"ID":416311,"DIS_CODE":0,"TOWNNAME":"東區","LI":"關聖里","LIN":"2鄰","STREET":"裕農路","SECT":" ","MAREA":" ","LANE":"６６８巷","ALLEY":" ","HOUSE_NO":"５２號三樓之１","E_COORD97":171739.45999999999,"N_COORD97":2542962.5899999999,"ADDRESS":"裕農路６６８巷５２號三樓之１","OBJECTID":416287},"geometry":{"x":171739.45999999903,"y":2542962.5900000017}},{"attributes":{"ID":416312,"DIS_CODE":0,"TOWNNAME":"東區","LI":"關聖里","LIN":"2鄰","STREET":"裕農路","SECT":" ","MAREA":" ","LANE":"６６８巷","ALLEY":" ","HOUSE_NO":"５２號五樓之１","E_COORD97":171739.45999999999,"N_COORD97":2542962.5899999999,"ADDRESS":"裕農路６６８巷５２號五樓之１","OBJECTID":416288},"geometry":{"x":171739.45999999903,"y":2542962.5900000017}},{"attributes":{"ID":416313,"DIS_CODE":0,"TOWNNAME":"東區","LI":"關聖里","LIN":"2鄰","STREET":"裕農路","SECT":" ","MAREA":" ","LANE":"６６８巷","ALLEY":" ","HOUSE_NO":"５２號六樓","E_COORD97":171739.45999999999,"N_COORD97":2542962.5899999999,"ADDRESS":"裕農路６６８巷５２號六樓","OBJECTID":416289},"geometry":{"x":171739.45999999903,"y":2542962.5900000017}},{"attributes":{"ID":416314,"DIS_CODE":0,"TOWNNAME":"東區","LI":"關聖里","LIN":"2鄰","STREET":"裕農路","SECT":" ","MAREA":" ","LANE":"６６８巷","ALLEY":" ","HOUSE_NO":"５２號四樓之１","E_COORD97":171739.45999999999,"N_COORD97":2542962.5899999999,"ADDRESS":"裕農路６６８巷５２號四樓之１","OBJECTID":416290},"geometry":{"x":171739.45999999903,"y":2542962.5900000017}},{"attributes":{"ID":416315,"DIS_CODE":0,"TOWNNAME":"東區","LI":"關聖里","LIN":"2鄰","STREET":"裕農路","SECT":" ","MAREA":" ","LANE":"６６８巷","ALLEY":" ","HOUSE_NO":"５４號二樓","E_COORD97":171740.44,"N_COORD97":2542955.6299999999,"ADDRESS":"裕農路６６８巷５４號二樓","OBJECTID":416291},"geometry":{"x":171740.44000000134,"y":2542955.6300000008}},{"attributes":{"ID":416316,"DIS_CODE":0,"TOWNNAME":"東區","LI":"關聖里","LIN":"2鄰","STREET":"裕農路","SECT":" ","MAREA":" ","LANE":"６６８巷","ALLEY":" ","HOUSE_NO":"５４號二樓之１","E_COORD97":171740.44,"N_COORD97":2542955.6299999999,"ADDRESS":"裕農路６６８巷５４號二樓之１","OBJECTID":416292},"geometry":{"x":171740.44000000134,"y":2542955.6300000008}},{"attributes":{"ID":416317,"DIS_CODE":0,"TOWNNAME":"東區","LI":"關聖里","LIN":"2鄰","STREET":"裕農路","SECT":" ","MAREA":" ","LANE":"６６８巷","ALLEY":" ","HOUSE_NO":"５４號二樓之２","E_COORD97":171740.44,"N_COORD97":2542955.6299999999,"ADDRESS":"裕農路６６８巷５４號二樓之２","OBJECTID":416293},"geometry":{"x":171740.44000000134,"y":2542955.6300000008}},{"attributes":{"ID":416318,"DIS_CODE":0,"TOWNNAME":"東區","LI":"關聖里","LIN":"2鄰","STREET":"裕農路","SECT":" ","MAREA":" ","LANE":"６６８巷","ALLEY":" ","HOUSE_NO":"５４號三樓","E_COORD97":171740.44,"N_COORD97":2542955.6299999999,"ADDRESS":"裕農路６６８巷５４號三樓","OBJECTID":416294},"geometry":{"x":171740.44000000134,"y":2542955.6300000008}},{"attributes":{"ID":416319,"DIS_CODE":0,"TOWNNAME":"東區","LI":"關聖里","LIN":"2鄰","STREET":"裕農路","SECT":" ","MAREA":" ","LANE":"６６８巷","ALLEY":" ","HOUSE_NO":"５４號三樓之１","E_COORD97":171740.44,"N_COORD97":2542955.6299999999,"ADDRESS":"裕農路６６８巷５４號三樓之１","OBJECTID":416295},"geometry":{"x":171740.44000000134,"y":2542955.6300000008}},{"attributes":{"ID":416320,"DIS_CODE":0,"TOWNNAME":"東區","LI":"關聖里","LIN":"2鄰","STREET":"裕農路","SECT":" ","MAREA":" ","LANE":"６６８巷","ALLEY":" ","HOUSE_NO":"５４號五樓","E_COORD97":171740.44,"N_COORD97":2542955.6299999999,"ADDRESS":"裕農路６６８巷５４號五樓","OBJECTID":416296},"geometry":{"x":171740.44000000134,"y":2542955.6300000008}},{"attributes":{"ID":416321,"DIS_CODE":0,"TOWNNAME":"東區","LI":"關聖里","LIN":"2鄰","STREET":"裕農路","SECT":" ","MAREA":" ","LANE":"６６８巷","ALLEY":" ","HOUSE_NO":"５４號五樓之１","E_COORD97":171740.44,"N_COORD97":2542955.6299999999,"ADDRESS":"裕農路６６８巷５４號五樓之１","OBJECTID":416297},"geometry":{"x":171740.44000000134,"y":2542955.6300000008}},{"attributes":{"ID":416322,"DIS_CODE":0,"TOWNNAME":"東區","LI":"關聖里","LIN":"2鄰","STREET":"裕農路","SECT":" ","MAREA":" ","LANE":"６６８巷","ALLEY":" ","HOUSE_NO":"５４號六樓","E_COORD97":171740.44,"N_COORD97":2542955.6299999999,"ADDRESS":"裕農路６６８巷５４號六樓","OBJECTID":416298},"geometry":{"x":171740.44000000134,"y":2542955.6300000008}},{"attributes":{"ID":416323,"DIS_CODE":0,"TOWNNAME":"東區","LI":"關聖里","LIN":"2鄰","STREET":"裕農路","SECT":" ","MAREA":" ","LANE":"６６８巷","ALLEY":" ","HOUSE_NO":"５４號六樓之１","E_COORD97":171740.44,"N_COORD97":2542955.6299999999,"ADDRESS":"裕農路６６８巷５４號六樓之１","OBJECTID":416299},"geometry":{"x":171740.44000000134,"y":2542955.6300000008}},{"attributes":{"ID":416324,"DIS_CODE":0,"TOWNNAME":"東區","LI":"關聖里","LIN":"2鄰","STREET":"裕農路","SECT":" ","MAREA":" ","LANE":"６６８巷","ALLEY":" ","HOUSE_NO":"５４號四樓","E_COORD97":171740.44,"N_COORD97":2542955.6299999999,"ADDRESS":"裕農路６６８巷５４號四樓","OBJECTID":416300},"geometry":{"x":171740.44000000134,"y":2542955.6300000008}},{"attributes":{"ID":416325,"DIS_CODE":0,"TOWNNAME":"東區","LI":"關聖里","LIN":"2鄰","STREET":"裕農路","SECT":" ","MAREA":" ","LANE":"６６８巷","ALLEY":" ","HOUSE_NO":"５４號四樓之２","E_COORD97":171740.44,"N_COORD97":2542955.6299999999,"ADDRESS":"裕農路６６８巷５４號四樓之２","OBJECTID":416301},"geometry":{"x":171740.44000000134,"y":2542955.6300000008}},{"attributes":{"ID":416326,"DIS_CODE":0,"TOWNNAME":"東區","LI":"自強里","LIN":"2鄰","STREET":"富農街","SECT":"一段","MAREA":" ","LANE":"１３１巷","ALLEY":" ","HOUSE_NO":"１６號四樓","E_COORD97":171491.17000000001,"N_COORD97":2542487.9100000001,"ADDRESS":"富農街一段１３１巷１６號四樓","OBJECTID":416302},"geometry":{"x":171491.17000000086,"y":2542487.9100000001}},{"attributes":{"ID":416327,"DIS_CODE":0,"TOWNNAME":"東區","LI":"自強里","LIN":"2鄰","STREET":"富農街","SECT":"一段","MAREA":" ","LANE":"１３１巷","ALLEY":" ","HOUSE_NO":"２４號七樓","E_COORD97":171472.23000000001,"N_COORD97":2542487.6200000001,"ADDRESS":"富農街一段１３１巷２４號七樓","OBJECTID":416303},"geometry":{"x":171472.23000000138,"y":2542487.620000001}},{"attributes":{"ID":416328,"DIS_CODE":0,"TOWNNAME":"東區","LI":"自強里","LIN":"2鄰","STREET":"富農街","SECT":"一段","MAREA":" ","LANE":"１３１巷","ALLEY":" ","HOUSE_NO":"２４號五樓之１","E_COORD97":171472.23000000001,"N_COORD97":2542487.6200000001,"ADDRESS":"富農街一段１３１巷２４號五樓之１","OBJECTID":416304},"geometry":{"x":171472.23000000138,"y":2542487.620000001}},{"attributes":{"ID":416329,"DIS_CODE":0,"TOWNNAME":"東區","LI":"自強里","LIN":"2鄰","STREET":"富農街","SECT":"一段","MAREA":" ","LANE":"１３１巷","ALLEY":" ","HOUSE_NO":"２號七樓之１","E_COORD97":171523.17000000001,"N_COORD97":2542487.9100000001,"ADDRESS":"富農街一段１３１巷２號七樓之１","OBJECTID":416305},"geometry":{"x":171523.17000000086,"y":2542487.9100000001}},{"attributes":{"ID":416330,"DIS_CODE":0,"TOWNNAME":"東區","LI":"自強里","LIN":"2鄰","STREET":"富農街","SECT":"一段","MAREA":" ","LANE":"１３１巷","ALLEY":" ","HOUSE_NO":"６號六樓","E_COORD97":171518.42999999999,"N_COORD97":2542488.0499999998,"ADDRESS":"富農街一段１３１巷６號六樓","OBJECTID":416306},"geometry":{"x":171518.4299999997,"y":2542488.0500000007}},{"attributes":{"ID":416331,"DIS_CODE":0,"TOWNNAME":"東區","LI":"自強里","LIN":"2鄰","STREET":"富農街","SECT":"一段","MAREA":" ","LANE":"１３１巷","ALLEY":" ","HOUSE_NO":"２４號三樓之２","E_COORD97":171472.23000000001,"N_COORD97":2542487.6200000001,"ADDRESS":"富農街一段１３１巷２４號三樓之２","OBJECTID":416307},"geometry":{"x":171472.23000000138,"y":2542487.620000001}},{"attributes":{"ID":416332,"DIS_CODE":0,"TOWNNAME":"東區","LI":"自強里","LIN":"2鄰","STREET":"富農街","SECT":"一段","MAREA":" ","LANE":"１３１巷","ALLEY":" ","HOUSE_NO":"２號四樓","E_COORD97":171523.17000000001,"N_COORD97":2542487.9100000001,"ADDRESS":"富農街一段１３１巷２號四樓","OBJECTID":416308},"geometry":{"x":171523.17000000086,"y":2542487.9100000001}},{"attributes":{"ID":416333,"DIS_CODE":0,"TOWNNAME":"東區","LI":"自強里","LIN":"2鄰","STREET":"富農街","SECT":"一段","MAREA":" ","LANE":"１３１巷","ALLEY":" ","HOUSE_NO":"２號四樓之１","E_COORD97":171523.17000000001,"N_COORD97":2542487.9100000001,"ADDRESS":"富農街一段１３１巷２號四樓之１","OBJECTID":416309},"geometry":{"x":171523.17000000086,"y":2542487.9100000001}},{"attributes":{"ID":416334,"DIS_CODE":0,"TOWNNAME":"東區","LI":"自強里","LIN":"2鄰","STREET":"富農街","SECT":"一段","MAREA":" ","LANE":"１３１巷","ALLEY":" ","HOUSE_NO":"６號四樓","E_COORD97":171518.42999999999,"N_COORD97":2542488.0499999998,"ADDRESS":"富農街一段１３１巷６號四樓","OBJECTID":416310},"geometry":{"x":171518.4299999997,"y":2542488.0500000007}},{"attributes":{"ID":416335,"DIS_CODE":0,"TOWNNAME":"東區","LI":"自強里","LIN":"2鄰","STREET":"富農街","SECT":"一段","MAREA":" ","LANE":"１３１巷","ALLEY":" ","HOUSE_NO":"６號四樓之１","E_COORD97":171518.42999999999,"N_COORD97":2542488.0499999998,"ADDRESS":"富農街一段１３１巷６號四樓之１","OBJECTID":416311},"geometry":{"x":171518.4299999997,"y":2542488.0500000007}},{"attributes":{"ID":416336,"DIS_CODE":0,"TOWNNAME":"東區","LI":"自強里","LIN":"2鄰","STREET":"富農街","SECT":"一段","MAREA":" ","LANE":"１３１巷","ALLEY":" ","HOUSE_NO":"１６號四樓之１","E_COORD97":171491.17000000001,"N_COORD97":2542487.9100000001,"ADDRESS":"富農街一段１３１巷１６號四樓之１","OBJECTID":416312},"geometry":{"x":171491.17000000086,"y":2542487.9100000001}},{"attributes":{"ID":416337,"DIS_CODE":0,"TOWNNAME":"東區","LI":"自強里","LIN":"2鄰","STREET":"富農街","SECT":"一段","MAREA":" ","LANE":"１３１巷","ALLEY":" ","HOUSE_NO":"１６號五樓","E_COORD97":171491.17000000001,"N_COORD97":2542487.9100000001,"ADDRESS":"富農街一段１３１巷１６號五樓","OBJECTID":416313},"geometry":{"x":171491.17000000086,"y":2542487.9100000001}},{"attributes":{"ID":416338,"DIS_CODE":0,"TOWNNAME":"東區","LI":"自強里","LIN":"2鄰","STREET":"富農街","SECT":"一段","MAREA":" ","LANE":"１３１巷","ALLEY":" ","HOUSE_NO":"２４號四樓","E_COORD97":171472.23000000001,"N_COORD97":2542487.6200000001,"ADDRESS":"富農街一段１３１巷２４號四樓","OBJECTID":416314},"geometry":{"x":171472.23000000138,"y":2542487.620000001}},{"attributes":{"ID":416339,"DIS_CODE":0,"TOWNNAME":"東區","LI":"自強里","LIN":"2鄰","STREET":"富農街","SECT":"一段","MAREA":" ","LANE":"１３１巷","ALLEY":" ","HOUSE_NO":"２４號四樓之１","E_COORD97":171472.23000000001,"N_COORD97":2542487.6200000001,"ADDRESS":"富農街一段１３１巷２４號四樓之１","OBJECTID":416315},"geometry":{"x":171472.23000000138,"y":2542487.620000001}},{"attributes":{"ID":416340,"DIS_CODE":0,"TOWNNAME":"東區","LI":"自強里","LIN":"2鄰","STREET":"富農街","SECT":"一段","MAREA":" ","LANE":"１３１巷","ALLEY":" ","HOUSE_NO":"２號五樓","E_COORD97":171523.17000000001,"N_COORD97":2542487.9100000001,"ADDRESS":"富農街一段１３１巷２號五樓","OBJECTID":416316},"geometry":{"x":171523.17000000086,"y":2542487.9100000001}},{"attributes":{"ID":416341,"DIS_CODE":0,"TOWNNAME":"東區","LI":"自強里","LIN":"2鄰","STREET":"富農街","SECT":"一段","MAREA":" ","LANE":"１３１巷","ALLEY":" ","HOUSE_NO":"２號五樓之１","E_COORD97":171523.17000000001,"N_COORD97":2542487.9100000001,"ADDRESS":"富農街一段１３１巷２號五樓之１","OBJECTID":416317},"geometry":{"x":171523.17000000086,"y":2542487.9100000001}},{"attributes":{"ID":416342,"DIS_CODE":0,"TOWNNAME":"東區","LI":"自強里","LIN":"2鄰","STREET":"富農街","SECT":"一段","MAREA":" ","LANE":"１３１巷","ALLEY":" ","HOUSE_NO":"６號五樓","E_COORD97":171518.42999999999,"N_COORD97":2542488.0499999998,"ADDRESS":"富農街一段１３１巷６號五樓","OBJECTID":416318},"geometry":{"x":171518.4299999997,"y":2542488.0500000007}},{"attributes":{"ID":416343,"DIS_CODE":0,"TOWNNAME":"東區","LI":"自強里","LIN":"2鄰","STREET":"富農街","SECT":"一段","MAREA":" ","LANE":"１３１巷","ALLEY":" ","HOUSE_NO":"６號五樓之１","E_COORD97":171518.42999999999,"N_COORD97":2542488.0499999998,"ADDRESS":"富農街一段１３１巷６號五樓之１","OBJECTID":416319},"geometry":{"x":171518.4299999997,"y":2542488.0500000007}},{"attributes":{"ID":416344,"DIS_CODE":0,"TOWNNAME":"東區","LI":"自強里","LIN":"2鄰","STREET":"富農街","SECT":"一段","MAREA":" ","LANE":"１３１巷","ALLEY":" ","HOUSE_NO":"１６號五樓之１","E_COORD97":171491.17000000001,"N_COORD97":2542487.9100000001,"ADDRESS":"富農街一段１３１巷１６號五樓之１","OBJECTID":416320},"geometry":{"x":171491.17000000086,"y":2542487.9100000001}},{"attributes":{"ID":416345,"DIS_CODE":0,"TOWNNAME":"東區","LI":"自強里","LIN":"2鄰","STREET":"富農街","SECT":"一段","MAREA":" ","LANE":"１３１巷","ALLEY":" ","HOUSE_NO":"２４號五樓","E_COORD97":171472.23000000001,"N_COORD97":2542487.6200000001,"ADDRESS":"富農街一段１３１巷２４號五樓","OBJECTID":416321},"geometry":{"x":171472.23000000138,"y":2542487.620000001}},{"attributes":{"ID":416346,"DIS_CODE":0,"TOWNNAME":"東區","LI":"自強里","LIN":"2鄰","STREET":"富農街","SECT":"一段","MAREA":" ","LANE":"１３１巷","ALLEY":" ","HOUSE_NO":"２號六樓","E_COORD97":171523.17000000001,"N_COORD97":2542487.9100000001,"ADDRESS":"富農街一段１３１巷２號六樓","OBJECTID":416322},"geometry":{"x":171523.17000000086,"y":2542487.9100000001}},{"attributes":{"ID":416347,"DIS_CODE":0,"TOWNNAME":"東區","LI":"自強里","LIN":"2鄰","STREET":"富農街","SECT":"一段","MAREA":" ","LANE":"１３１巷","ALLEY":" ","HOUSE_NO":"２號六樓之１","E_COORD97":171523.17000000001,"N_COORD97":2542487.9100000001,"ADDRESS":"富農街一段１３１巷２號六樓之１","OBJECTID":416323},"geometry":{"x":171523.17000000086,"y":2542487.9100000001}},{"attributes":{"ID":416348,"DIS_CODE":0,"TOWNNAME":"東區","LI":"自強里","LIN":"2鄰","STREET":"富農街","SECT":"一段","MAREA":" ","LANE":"１３１巷","ALLEY":" ","HOUSE_NO":"１６號六樓","E_COORD97":171491.17000000001,"N_COORD97":2542487.9100000001,"ADDRESS":"富農街一段１３１巷１６號六樓","OBJECTID":416324},"geometry":{"x":171491.17000000086,"y":2542487.9100000001}},{"attributes":{"ID":416349,"DIS_CODE":0,"TOWNNAME":"東區","LI":"自強里","LIN":"2鄰","STREET":"富農街","SECT":"一段","MAREA":" ","LANE":"１３１巷","ALLEY":" ","HOUSE_NO":"１６號六樓之１","E_COORD97":171491.17000000001,"N_COORD97":2542487.9100000001,"ADDRESS":"富農街一段１３１巷１６號六樓之１","OBJECTID":416325},"geometry":{"x":171491.17000000086,"y":2542487.9100000001}},{"attributes":{"ID":416350,"DIS_CODE":0,"TOWNNAME":"東區","LI":"自強里","LIN":"2鄰","STREET":"富農街","SECT":"一段","MAREA":" ","LANE":"１３１巷","ALLEY":" ","HOUSE_NO":"２４號六樓","E_COORD97":171472.23000000001,"N_COORD97":2542487.6200000001,"ADDRESS":"富農街一段１３１巷２４號六樓","OBJECTID":416326},"geometry":{"x":171472.23000000138,"y":2542487.620000001}},{"attributes":{"ID":416351,"DIS_CODE":0,"TOWNNAME":"東區","LI":"自強里","LIN":"2鄰","STREET":"富農街","SECT":"一段","MAREA":" ","LANE":"１３１巷","ALLEY":" ","HOUSE_NO":"２４號六樓之１","E_COORD97":171472.23000000001,"N_COORD97":2542487.6200000001,"ADDRESS":"富農街一段１３１巷２４號六樓之１","OBJECTID":416327},"geometry":{"x":171472.23000000138,"y":2542487.620000001}},{"attributes":{"ID":416352,"DIS_CODE":0,"TOWNNAME":"東區","LI":"自強里","LIN":"27鄰","STREET":"中華東路","SECT":"二段","MAREA":" ","LANE":"１３３巷","ALLEY":" ","HOUSE_NO":"１２號","E_COORD97":171408.79000000001,"N_COORD97":2542849.9399999999,"ADDRESS":"中華東路二段１３３巷１２號","OBJECTID":416328},"geometry":{"x":171408.79000000097,"y":2542849.9399999995}},{"attributes":{"ID":416353,"DIS_CODE":0,"TOWNNAME":"東區","LI":"自強里","LIN":"27鄰","STREET":"中華東路","SECT":"二段","MAREA":" ","LANE":"１３３巷","ALLEY":" ","HOUSE_NO":"１４號","E_COORD97":171413.54999999999,"N_COORD97":2542849.1299999999,"ADDRESS":"中華東路二段１３３巷１４號","OBJECTID":416329},"geometry":{"x":171413.55000000075,"y":2542849.1300000027}},{"attributes":{"ID":416354,"DIS_CODE":0,"TOWNNAME":"東區","LI":"自強里","LIN":"27鄰","STREET":"中華東路","SECT":"二段","MAREA":" ","LANE":"１３３巷","ALLEY":" ","HOUSE_NO":"１６號","E_COORD97":171417.95999999999,"N_COORD97":2542848.5499999998,"ADDRESS":"中華東路二段１３３巷１６號","OBJECTID":416330},"geometry":{"x":171417.96000000089,"y":2542848.5500000026}},{"attributes":{"ID":416355,"DIS_CODE":0,"TOWNNAME":"東區","LI":"自強里","LIN":"27鄰","STREET":"中華東路","SECT":"二段","MAREA":" ","LANE":"１３３巷","ALLEY":" ","HOUSE_NO":"１８號","E_COORD97":171423.13,"N_COORD97":2542845.0299999998,"ADDRESS":"中華東路二段１３３巷１８號","OBJECTID":416331},"geometry":{"x":171423.13000000082,"y":2542845.0300000012}},{"attributes":{"ID":416356,"DIS_CODE":0,"TOWNNAME":"東區","LI":"大同里","LIN":"2鄰","STREET":"大同路","SECT":"一段","MAREA":" ","LANE":"４５巷","ALLEY":" ","HOUSE_NO":"７號二樓","E_COORD97":169195.54000000001,"N_COORD97":2543178.0600000001,"ADDRESS":"大同路一段４５巷７號二樓","OBJECTID":416332},"geometry":{"x":169195.54000000004,"y":2543178.0600000024}},{"attributes":{"ID":416357,"DIS_CODE":0,"TOWNNAME":"東區","LI":"自強里","LIN":"27鄰","STREET":"中華東路","SECT":"二段","MAREA":" ","LANE":"１３３巷","ALLEY":" ","HOUSE_NO":"２０號","E_COORD97":171427.54000000001,"N_COORD97":2542844.3399999999,"ADDRESS":"中華東路二段１３３巷２０號","OBJECTID":416333},"geometry":{"x":171427.54000000097,"y":2542844.3399999999}},{"attributes":{"ID":416358,"DIS_CODE":0,"TOWNNAME":"東區","LI":"自強里","LIN":"27鄰","STREET":"中華東路","SECT":"二段","MAREA":" ","LANE":"１３３巷","ALLEY":" ","HOUSE_NO":"２２號","E_COORD97":171431.37,"N_COORD97":2542843.6400000001,"ADDRESS":"中華東路二段１３３巷２２號","OBJECTID":416334},"geometry":{"x":171431.37000000011,"y":2542843.6400000006}},{"attributes":{"ID":416359,"DIS_CODE":0,"TOWNNAME":"東區","LI":"自強里","LIN":"27鄰","STREET":"中華東路","SECT":"二段","MAREA":" ","LANE":"１３３巷","ALLEY":" ","HOUSE_NO":"２４號","E_COORD97":171435.42999999999,"N_COORD97":2542842.9500000002,"ADDRESS":"中華東路二段１３３巷２４號","OBJECTID":416335},"geometry":{"x":171435.4299999997,"y":2542842.9499999993}},{"attributes":{"ID":416360,"DIS_CODE":0,"TOWNNAME":"東區","LI":"自強里","LIN":"27鄰","STREET":"中華東路","SECT":"二段","MAREA":" ","LANE":"１３３巷","ALLEY":" ","HOUSE_NO":"２６號","E_COORD97":171439.60999999999,"N_COORD97":2542841.79,"ADDRESS":"中華東路二段１３３巷２６號","OBJECTID":416336},"geometry":{"x":171439.61000000127,"y":2542841.790000001}},{"attributes":{"ID":416361,"DIS_CODE":0,"TOWNNAME":"東區","LI":"自強里","LIN":"27鄰","STREET":"中華東路","SECT":"二段","MAREA":" ","LANE":"１３３巷","ALLEY":" ","HOUSE_NO":"２８號","E_COORD97":171443.09,"N_COORD97":2542841.3199999998,"ADDRESS":"中華東路二段１３３巷２８號","OBJECTID":416337},"geometry":{"x":171443.08999999985,"y":2542841.3200000003}},{"attributes":{"ID":416362,"DIS_CODE":0,"TOWNNAME":"東區","LI":"自強里","LIN":"27鄰","STREET":"中華東路","SECT":"二段","MAREA":" ","LANE":"１３３巷","ALLEY":" ","HOUSE_NO":"３０號","E_COORD97":171447.62,"N_COORD97":2542840.3999999999,"ADDRESS":"中華東路二段１３３巷３０號","OBJECTID":416338},"geometry":{"x":171447.62000000104,"y":2542840.4000000004}},{"attributes":{"ID":416363,"DIS_CODE":0,"TOWNNAME":"東區","LI":"自強里","LIN":"27鄰","STREET":"中華東路","SECT":"二段","MAREA":" ","LANE":"１３３巷","ALLEY":" ","HOUSE_NO":"３２號","E_COORD97":171452.26999999999,"N_COORD97":2542839.5800000001,"ADDRESS":"中華東路二段１３３巷３２號","OBJECTID":416339},"geometry":{"x":171452.27000000142,"y":2542839.5800000001}},{"attributes":{"ID":416364,"DIS_CODE":0,"TOWNNAME":"東區","LI":"復興里","LIN":"1鄰","STREET":"富農街","SECT":"一段","MAREA":" ","LANE":"２５８巷","ALLEY":" ","HOUSE_NO":"８號","E_COORD97":171622.98999999999,"N_COORD97":2542638.6299999999,"ADDRESS":"富農街一段２５８巷８號","OBJECTID":416340},"geometry":{"x":171622.99000000115,"y":2542638.629999999}},{"attributes":{"ID":416365,"DIS_CODE":0,"TOWNNAME":"東區","LI":"復興里","LIN":"1鄰","STREET":"富農街","SECT":"一段","MAREA":" ","LANE":"２５８巷","ALLEY":" ","HOUSE_NO":"９號","E_COORD97":171630.91,"N_COORD97":2542657.48,"ADDRESS":"富農街一段２５８巷９號","OBJECTID":416341},"geometry":{"x":171630.91000000015,"y":2542657.4800000004}},{"attributes":{"ID":416366,"DIS_CODE":0,"TOWNNAME":"中西區","LI":"協進里","LIN":"2鄰","STREET":"民生路","SECT":"二段","MAREA":" ","LANE":"２３０巷","ALLEY":" ","HOUSE_NO":"６號二樓之１","E_COORD97":167204.38,"N_COORD97":2544178.5699999998,"ADDRESS":"民生路二段２３０巷６號二樓之１","OBJECTID":416342},"geometry":{"x":167204.38000000082,"y":2544178.5700000003}},{"attributes":{"ID":416367,"DIS_CODE":0,"TOWNNAME":"中西區","LI":"協進里","LIN":"2鄰","STREET":"民生路","SECT":"二段","MAREA":" ","LANE":"２３０巷","ALLEY":" ","HOUSE_NO":"６號二樓之２","E_COORD97":167204.38,"N_COORD97":2544178.5699999998,"ADDRESS":"民生路二段２３０巷６號二樓之２","OBJECTID":416343},"geometry":{"x":167204.38000000082,"y":2544178.5700000003}},{"attributes":{"ID":416368,"DIS_CODE":0,"TOWNNAME":"中西區","LI":"協進里","LIN":"2鄰","STREET":"民生路","SECT":"二段","MAREA":" ","LANE":"２３０巷","ALLEY":" ","HOUSE_NO":"６號三樓之１","E_COORD97":167204.38,"N_COORD97":2544178.5699999998,"ADDRESS":"民生路二段２３０巷６號三樓之１","OBJECTID":416344},"geometry":{"x":167204.38000000082,"y":2544178.5700000003}},{"attributes":{"ID":416369,"DIS_CODE":0,"TOWNNAME":"中西區","LI":"協進里","LIN":"2鄰","STREET":"民生路","SECT":"二段","MAREA":" ","LANE":"２３０巷","ALLEY":" ","HOUSE_NO":"６號三樓之２","E_COORD97":167204.38,"N_COORD97":2544178.5699999998,"ADDRESS":"民生路二段２３０巷６號三樓之２","OBJECTID":416345},"geometry":{"x":167204.38000000082,"y":2544178.5700000003}},{"attributes":{"ID":416370,"DIS_CODE":0,"TOWNNAME":"中西區","LI":"協進里","LIN":"2鄰","STREET":"民生路","SECT":"二段","MAREA":" ","LANE":"２３０巷","ALLEY":" ","HOUSE_NO":"６號五樓之１","E_COORD97":167204.38,"N_COORD97":2544178.5699999998,"ADDRESS":"民生路二段２３０巷６號五樓之１","OBJECTID":416346},"geometry":{"x":167204.38000000082,"y":2544178.5700000003}},{"attributes":{"ID":416371,"DIS_CODE":0,"TOWNNAME":"中西區","LI":"協進里","LIN":"2鄰","STREET":"民生路","SECT":"二段","MAREA":" ","LANE":"２３０巷","ALLEY":" ","HOUSE_NO":"６號五樓之２","E_COORD97":167204.38,"N_COORD97":2544178.5699999998,"ADDRESS":"民生路二段２３０巷６號五樓之２","OBJECTID":416347},"geometry":{"x":167204.38000000082,"y":2544178.5700000003}},{"attributes":{"ID":416372,"DIS_CODE":0,"TOWNNAME":"中西區","LI":"協進里","LIN":"2鄰","STREET":"民生路","SECT":"二段","MAREA":" ","LANE":"２３０巷","ALLEY":" ","HOUSE_NO":"６號四樓之１","E_COORD97":167204.38,"N_COORD97":2544178.5699999998,"ADDRESS":"民生路二段２３０巷６號四樓之１","OBJECTID":416348},"geometry":{"x":167204.38000000082,"y":2544178.5700000003}},{"attributes":{"ID":416373,"DIS_CODE":0,"TOWNNAME":"中西區","LI":"協進里","LIN":"2鄰","STREET":"民生路","SECT":"二段","MAREA":" ","LANE":"２３０巷","ALLEY":" ","HOUSE_NO":"６號四樓之２","E_COORD97":167204.38,"N_COORD97":2544178.5699999998,"ADDRESS":"民生路二段２３０巷６號四樓之２","OBJECTID":416349},"geometry":{"x":167204.38000000082,"y":2544178.5700000003}},{"attributes":{"ID":416374,"DIS_CODE":0,"TOWNNAME":"東區","LI":"大同里","LIN":"2鄰","STREET":"大同路","SECT":"一段","MAREA":" ","LANE":"４５巷","ALLEY":" ","HOUSE_NO":"１４號二樓","E_COORD97":169240.73000000001,"N_COORD97":2543149.1600000001,"ADDRESS":"大同路一段４５巷１４號二樓","OBJECTID":416350},"geometry":{"x":169240.73000000045,"y":2543149.160000002}},{"attributes":{"ID":416375,"DIS_CODE":0,"TOWNNAME":"永康區","LI":"正強里","LIN":"32鄰","STREET":"中正路","SECT":" ","MAREA":" ","LANE":"２２２巷","ALLEY":" ","HOUSE_NO":"４號","E_COORD97":173313.95999999999,"N_COORD97":2547916.2400000002,"ADDRESS":"中正路２２２巷４號","OBJECTID":416351},"geometry":{"x":173313.95999999996,"y":2547916.2400000021}},{"attributes":{"ID":416376,"DIS_CODE":0,"TOWNNAME":"東區","LI":"大同里","LIN":"2鄰","STREET":"大同路","SECT":"一段","MAREA":" ","LANE":"４５巷","ALLEY":" ","HOUSE_NO":"１４號三樓","E_COORD97":169240.73000000001,"N_COORD97":2543149.1600000001,"ADDRESS":"大同路一段４５巷１４號三樓","OBJECTID":416352},"geometry":{"x":169240.73000000045,"y":2543149.160000002}},{"attributes":{"ID":416377,"DIS_CODE":0,"TOWNNAME":"東區","LI":"大同里","LIN":"2鄰","STREET":"大同路","SECT":"一段","MAREA":" ","LANE":"４５巷","ALLEY":" ","HOUSE_NO":"１４號四樓","E_COORD97":169240.73000000001,"N_COORD97":2543149.1600000001,"ADDRESS":"大同路一段４５巷１４號四樓","OBJECTID":416353},"geometry":{"x":169240.73000000045,"y":2543149.160000002}},{"attributes":{"ID":416378,"DIS_CODE":0,"TOWNNAME":"東區","LI":"大同里","LIN":"2鄰","STREET":"大同路","SECT":"一段","MAREA":" ","LANE":"４５巷","ALLEY":" ","HOUSE_NO":"１６號二樓","E_COORD97":169252.54999999999,"N_COORD97":2543145.98,"ADDRESS":"大同路一段４５巷１６號二樓","OBJECTID":416354},"geometry":{"x":169252.55000000075,"y":2543145.9800000004}},{"attributes":{"ID":416379,"DIS_CODE":0,"TOWNNAME":"東區","LI":"大同里","LIN":"2鄰","STREET":"大同路","SECT":"一段","MAREA":" ","LANE":"４５巷","ALLEY":" ","HOUSE_NO":"１６號三樓","E_COORD97":169252.54999999999,"N_COORD97":2543145.98,"ADDRESS":"大同路一段４５巷１６號三樓","OBJECTID":416355},"geometry":{"x":169252.55000000075,"y":2543145.9800000004}},{"attributes":{"ID":416380,"DIS_CODE":0,"TOWNNAME":"東區","LI":"大同里","LIN":"2鄰","STREET":"大同路","SECT":"一段","MAREA":" ","LANE":"４５巷","ALLEY":" ","HOUSE_NO":"１６號四樓","E_COORD97":169252.54999999999,"N_COORD97":2543145.98,"ADDRESS":"大同路一段４５巷１６號四樓","OBJECTID":416356},"geometry":{"x":169252.55000000075,"y":2543145.9800000004}},{"attributes":{"ID":416381,"DIS_CODE":0,"TOWNNAME":"東區","LI":"大同里","LIN":"2鄰","STREET":"大同路","SECT":"一段","MAREA":" ","LANE":"４５巷","ALLEY":" ","HOUSE_NO":"１７號二樓","E_COORD97":169227.98999999999,"N_COORD97":2543172.4300000002,"ADDRESS":"大同路一段４５巷１７號二樓","OBJECTID":416357},"geometry":{"x":169227.99000000115,"y":2543172.4299999997}},{"attributes":{"ID":416382,"DIS_CODE":0,"TOWNNAME":"東區","LI":"大同里","LIN":"2鄰","STREET":"大同路","SECT":"一段","MAREA":" ","LANE":"４５巷","ALLEY":" ","HOUSE_NO":"１７號三樓","E_COORD97":169227.98999999999,"N_COORD97":2543172.4300000002,"ADDRESS":"大同路一段４５巷１７號三樓","OBJECTID":416358},"geometry":{"x":169227.99000000115,"y":2543172.4299999997}},{"attributes":{"ID":416383,"DIS_CODE":0,"TOWNNAME":"東區","LI":"大同里","LIN":"2鄰","STREET":"大同路","SECT":"一段","MAREA":" ","LANE":"４５巷","ALLEY":" ","HOUSE_NO":"１７號四樓","E_COORD97":169227.98999999999,"N_COORD97":2543172.4300000002,"ADDRESS":"大同路一段４５巷１７號四樓","OBJECTID":416359},"geometry":{"x":169227.99000000115,"y":2543172.4299999997}},{"attributes":{"ID":416384,"DIS_CODE":0,"TOWNNAME":"東區","LI":"大同里","LIN":"2鄰","STREET":"大同路","SECT":"一段","MAREA":" ","LANE":"４５巷","ALLEY":" ","HOUSE_NO":"６號二樓","E_COORD97":169195.41,"N_COORD97":2543162.7200000002,"ADDRESS":"大同路一段４５巷６號二樓","OBJECTID":416360},"geometry":{"x":169195.41000000015,"y":2543162.7200000025}},{"attributes":{"ID":416385,"DIS_CODE":0,"TOWNNAME":"東區","LI":"大同里","LIN":"2鄰","STREET":"大同路","SECT":"一段","MAREA":" ","LANE":"４５巷","ALLEY":" ","HOUSE_NO":"６號三樓","E_COORD97":169195.41,"N_COORD97":2543162.7200000002,"ADDRESS":"大同路一段４５巷６號三樓","OBJECTID":416361},"geometry":{"x":169195.41000000015,"y":2543162.7200000025}},{"attributes":{"ID":416386,"DIS_CODE":0,"TOWNNAME":"東區","LI":"大同里","LIN":"2鄰","STREET":"大同路","SECT":"一段","MAREA":" ","LANE":"４５巷","ALLEY":" ","HOUSE_NO":"６號四樓","E_COORD97":169195.41,"N_COORD97":2543162.7200000002,"ADDRESS":"大同路一段４５巷６號四樓","OBJECTID":416362},"geometry":{"x":169195.41000000015,"y":2543162.7200000025}},{"attributes":{"ID":416387,"DIS_CODE":0,"TOWNNAME":"東區","LI":"大同里","LIN":"2鄰","STREET":"大同路","SECT":"一段","MAREA":" ","LANE":"４５巷","ALLEY":" ","HOUSE_NO":"７號三樓","E_COORD97":169195.54000000001,"N_COORD97":2543178.0600000001,"ADDRESS":"大同路一段４５巷７號三樓","OBJECTID":416363},"geometry":{"x":169195.54000000004,"y":2543178.0600000024}},{"attributes":{"ID":416388,"DIS_CODE":0,"TOWNNAME":"東區","LI":"大同里","LIN":"2鄰","STREET":"大同路","SECT":"一段","MAREA":" ","LANE":"４５巷","ALLEY":" ","HOUSE_NO":"７號四樓","E_COORD97":169195.54000000001,"N_COORD97":2543178.0600000001,"ADDRESS":"大同路一段４５巷７號四樓","OBJECTID":416364},"geometry":{"x":169195.54000000004,"y":2543178.0600000024}},{"attributes":{"ID":416389,"DIS_CODE":0,"TOWNNAME":"東區","LI":"大同里","LIN":"2鄰","STREET":"大同路","SECT":"一段","MAREA":" ","LANE":"４５巷","ALLEY":" ","HOUSE_NO":"８號二樓","E_COORD97":169205.84,"N_COORD97":2543159.6600000001,"ADDRESS":"大同路一段４５巷８號二樓","OBJECTID":416365},"geometry":{"x":169205.83999999892,"y":2543159.660000002}},{"attributes":{"ID":416390,"DIS_CODE":0,"TOWNNAME":"東區","LI":"大同里","LIN":"2鄰","STREET":"大同路","SECT":"一段","MAREA":" ","LANE":"４５巷","ALLEY":" ","HOUSE_NO":"８號三樓","E_COORD97":169205.84,"N_COORD97":2543159.6600000001,"ADDRESS":"大同路一段４５巷８號三樓","OBJECTID":416366},"geometry":{"x":169205.83999999892,"y":2543159.660000002}},{"attributes":{"ID":416391,"DIS_CODE":0,"TOWNNAME":"東區","LI":"大同里","LIN":"2鄰","STREET":"大同路","SECT":"一段","MAREA":" ","LANE":"４５巷","ALLEY":" ","HOUSE_NO":"８號四樓","E_COORD97":169205.84,"N_COORD97":2543159.6600000001,"ADDRESS":"大同路一段４５巷８號四樓","OBJECTID":416367},"geometry":{"x":169205.83999999892,"y":2543159.660000002}},{"attributes":{"ID":416392,"DIS_CODE":0,"TOWNNAME":"東區","LI":"大同里","LIN":"2鄰","STREET":"大同路","SECT":"一段","MAREA":" ","LANE":"４５巷","ALLEY":" ","HOUSE_NO":"９號二樓","E_COORD97":169203.54000000001,"N_COORD97":2543179.8199999998,"ADDRESS":"大同路一段４５巷９號二樓","OBJECTID":416368},"geometry":{"x":169203.54000000097,"y":2543179.8200000022}},{"attributes":{"ID":416393,"DIS_CODE":0,"TOWNNAME":"東區","LI":"大同里","LIN":"2鄰","STREET":"大同路","SECT":"一段","MAREA":" ","LANE":"４５巷","ALLEY":" ","HOUSE_NO":"９號三樓","E_COORD97":169203.54000000001,"N_COORD97":2543179.8199999998,"ADDRESS":"大同路一段４５巷９號三樓","OBJECTID":416369},"geometry":{"x":169203.54000000097,"y":2543179.8200000022}},{"attributes":{"ID":416394,"DIS_CODE":0,"TOWNNAME":"中西區","LI":"天后里","LIN":"13鄰","STREET":"赤嵌街","SECT":" ","MAREA":" ","LANE":"３巷","ALLEY":" ","HOUSE_NO":"３號","E_COORD97":168189.85999999999,"N_COORD97":2544211.1099999999,"ADDRESS":"赤嵌街３巷３號","OBJECTID":416370},"geometry":{"x":168189.86000000127,"y":2544211.1099999994}},{"attributes":{"ID":416395,"DIS_CODE":0,"TOWNNAME":"東區","LI":"大同里","LIN":"2鄰","STREET":"大同路","SECT":"一段","MAREA":" ","LANE":"４５巷","ALLEY":" ","HOUSE_NO":"９號四樓","E_COORD97":169203.54000000001,"N_COORD97":2543179.8199999998,"ADDRESS":"大同路一段４５巷９號四樓","OBJECTID":416371},"geometry":{"x":169203.54000000097,"y":2543179.8200000022}},{"attributes":{"ID":416396,"DIS_CODE":0,"TOWNNAME":"東區","LI":"復興里","LIN":"8鄰","STREET":"裕學路","SECT":" ","MAREA":" ","LANE":"１８５巷","ALLEY":" ","HOUSE_NO":"２０號","E_COORD97":171674.20000000001,"N_COORD97":2542787.5,"ADDRESS":"裕學路１８５巷２０號","OBJECTID":416372},"geometry":{"x":171674.20000000112,"y":2542787.5000000019}},{"attributes":{"ID":416397,"DIS_CODE":0,"TOWNNAME":"東區","LI":"復興里","LIN":"8鄰","STREET":"裕學路","SECT":" ","MAREA":" ","LANE":"１８５巷","ALLEY":" ","HOUSE_NO":"２３號","E_COORD97":171697.38,"N_COORD97":2542779.6099999999,"ADDRESS":"裕學路１８５巷２３號","OBJECTID":416373},"geometry":{"x":171697.37999999989,"y":2542779.6100000013}},{"attributes":{"ID":416398,"DIS_CODE":0,"TOWNNAME":"東區","LI":"復興里","LIN":"8鄰","STREET":"裕學路","SECT":" ","MAREA":" ","LANE":"１８５巷","ALLEY":" ","HOUSE_NO":"２２號","E_COORD97":171675.91,"N_COORD97":2542784.1000000001,"ADDRESS":"裕學路１８５巷２２號","OBJECTID":416374},"geometry":{"x":171675.91000000108,"y":2542784.0999999996}},{"attributes":{"ID":416399,"DIS_CODE":0,"TOWNNAME":"中西區","LI":"赤嵌里","LIN":"2鄰","STREET":"西華南街","SECT":" ","MAREA":" ","LANE":"１２０巷","ALLEY":" ","HOUSE_NO":"１６號三樓","E_COORD97":169059.26999999999,"N_COORD97":2544137.9700000002,"ADDRESS":"西華南街１２０巷１６號三樓","OBJECTID":416375},"geometry":{"x":169059.27000000048,"y":2544137.9700000025}},{"attributes":{"ID":416400,"DIS_CODE":0,"TOWNNAME":"中西區","LI":"赤嵌里","LIN":"2鄰","STREET":"西華南街","SECT":" ","MAREA":" ","LANE":"１２０巷","ALLEY":" ","HOUSE_NO":"１６號五樓","E_COORD97":169059.26999999999,"N_COORD97":2544137.9700000002,"ADDRESS":"西華南街１２０巷１６號五樓","OBJECTID":416376},"geometry":{"x":169059.27000000048,"y":2544137.9700000025}},{"attributes":{"ID":416401,"DIS_CODE":0,"TOWNNAME":"中西區","LI":"赤嵌里","LIN":"2鄰","STREET":"西華南街","SECT":" ","MAREA":" ","LANE":"１２０巷","ALLEY":" ","HOUSE_NO":"１６號四樓","E_COORD97":169059.26999999999,"N_COORD97":2544137.9700000002,"ADDRESS":"西華南街１２０巷１６號四樓","OBJECTID":416377},"geometry":{"x":169059.27000000048,"y":2544137.9700000025}},{"attributes":{"ID":416402,"DIS_CODE":0,"TOWNNAME":"中西區","LI":"赤嵌里","LIN":"2鄰","STREET":"西華南街","SECT":" ","MAREA":" ","LANE":"１２０巷","ALLEY":" ","HOUSE_NO":"１８號一樓之１","E_COORD97":169081.37,"N_COORD97":2544135.2400000002,"ADDRESS":"西華南街１２０巷１８號一樓之１","OBJECTID":416378},"geometry":{"x":169081.37000000104,"y":2544135.2400000021}},{"attributes":{"ID":416403,"DIS_CODE":0,"TOWNNAME":"中西區","LI":"赤嵌里","LIN":"2鄰","STREET":"西華南街","SECT":" ","MAREA":" ","LANE":"１２０巷","ALLEY":" ","HOUSE_NO":"１８號一樓之２","E_COORD97":169074.53,"N_COORD97":2544133.8700000001,"ADDRESS":"西華南街１２０巷１８號一樓之２","OBJECTID":416379},"geometry":{"x":169074.53000000212,"y":2544133.870000001}},{"attributes":{"ID":416404,"DIS_CODE":0,"TOWNNAME":"中西區","LI":"赤嵌里","LIN":"2鄰","STREET":"西華南街","SECT":" ","MAREA":" ","LANE":"１２０巷","ALLEY":" ","HOUSE_NO":"１８號一樓之３","E_COORD97":169070.20000000001,"N_COORD97":2544135.4700000002,"ADDRESS":"西華南街１２０巷１８號一樓之３","OBJECTID":416380},"geometry":{"x":169070.20000000112,"y":2544135.4700000007}},{"attributes":{"ID":416405,"DIS_CODE":0,"TOWNNAME":"中西區","LI":"赤嵌里","LIN":"2鄰","STREET":"西華南街","SECT":" ","MAREA":" ","LANE":"１２０巷","ALLEY":" ","HOUSE_NO":"１８號一樓之４","E_COORD97":169063.82000000001,"N_COORD97":2544136.8300000001,"ADDRESS":"西華南街１２０巷１８號一樓之４","OBJECTID":416381},"geometry":{"x":169063.8200000003,"y":2544136.8300000001}},{"attributes":{"ID":416406,"DIS_CODE":0,"TOWNNAME":"中西區","LI":"赤嵌里","LIN":"2鄰","STREET":"西華南街","SECT":" ","MAREA":" ","LANE":"１２０巷","ALLEY":" ","HOUSE_NO":"１８號二樓之１","E_COORD97":169081.37,"N_COORD97":2544135.2400000002,"ADDRESS":"西華南街１２０巷１８號二樓之１","OBJECTID":416382},"geometry":{"x":169081.37000000104,"y":2544135.2400000021}},{"attributes":{"ID":416407,"DIS_CODE":0,"TOWNNAME":"永康區","LI":"正強里","LIN":"4鄰","STREET":"正義街","SECT":" ","MAREA":" ","LANE":"２２巷","ALLEY":" ","HOUSE_NO":"３號","E_COORD97":173584.57999999999,"N_COORD97":2547718.2599999998,"ADDRESS":"正義街２２巷３號","OBJECTID":416383},"geometry":{"x":173584.58000000007,"y":2547718.2600000016}},{"attributes":{"ID":416408,"DIS_CODE":0,"TOWNNAME":"永康區","LI":"勝利里","LIN":"23鄰","STREET":"中華一路","SECT":" ","MAREA":" ","LANE":"２２３巷","ALLEY":" ","HOUSE_NO":"９號","E_COORD97":171409.31,"N_COORD97":2544930.2400000002,"ADDRESS":"中華一路２２３巷９號","OBJECTID":416384},"geometry":{"x":171409.30999999959,"y":2544930.2400000002}},{"attributes":{"ID":416409,"DIS_CODE":0,"TOWNNAME":"中西區","LI":"赤嵌里","LIN":"2鄰","STREET":"西華南街","SECT":" ","MAREA":" ","LANE":"１２０巷","ALLEY":" ","HOUSE_NO":"１８號二樓之２","E_COORD97":169081.37,"N_COORD97":2544135.2400000002,"ADDRESS":"西華南街１２０巷１８號二樓之２","OBJECTID":416385},"geometry":{"x":169081.37000000104,"y":2544135.2400000021}},{"attributes":{"ID":416410,"DIS_CODE":0,"TOWNNAME":"中西區","LI":"赤嵌里","LIN":"2鄰","STREET":"西華南街","SECT":" ","MAREA":" ","LANE":"１２０巷","ALLEY":" ","HOUSE_NO":"１８號二樓之３","E_COORD97":169081.37,"N_COORD97":2544135.2400000002,"ADDRESS":"西華南街１２０巷１８號二樓之３","OBJECTID":416386},"geometry":{"x":169081.37000000104,"y":2544135.2400000021}},{"attributes":{"ID":416411,"DIS_CODE":0,"TOWNNAME":"中西區","LI":"赤嵌里","LIN":"2鄰","STREET":"西華南街","SECT":" ","MAREA":" ","LANE":"１２０巷","ALLEY":" ","HOUSE_NO":"１８號二樓之４","E_COORD97":169074.53,"N_COORD97":2544133.8700000001,"ADDRESS":"西華南街１２０巷１８號二樓之４","OBJECTID":416387},"geometry":{"x":169074.53000000212,"y":2544133.870000001}},{"attributes":{"ID":416412,"DIS_CODE":0,"TOWNNAME":"中西區","LI":"赤嵌里","LIN":"2鄰","STREET":"西華南街","SECT":" ","MAREA":" ","LANE":"１２０巷","ALLEY":" ","HOUSE_NO":"１８號二樓之５","E_COORD97":169074.53,"N_COORD97":2544133.8700000001,"ADDRESS":"西華南街１２０巷１８號二樓之５","OBJECTID":416388},"geometry":{"x":169074.53000000212,"y":2544133.870000001}},{"attributes":{"ID":416413,"DIS_CODE":0,"TOWNNAME":"中西區","LI":"赤嵌里","LIN":"2鄰","STREET":"西華南街","SECT":" ","MAREA":" ","LANE":"１２０巷","ALLEY":" ","HOUSE_NO":"１８號二樓之６","E_COORD97":169074.53,"N_COORD97":2544133.8700000001,"ADDRESS":"西華南街１２０巷１８號二樓之６","OBJECTID":416389},"geometry":{"x":169074.53000000212,"y":2544133.870000001}},{"attributes":{"ID":416414,"DIS_CODE":0,"TOWNNAME":"中西區","LI":"赤嵌里","LIN":"2鄰","STREET":"西華南街","SECT":" ","MAREA":" ","LANE":"１２０巷","ALLEY":" ","HOUSE_NO":"１８號二樓之７","E_COORD97":169070.20000000001,"N_COORD97":2544135.4700000002,"ADDRESS":"西華南街１２０巷１８號二樓之７","OBJECTID":416390},"geometry":{"x":169070.20000000112,"y":2544135.4700000007}},{"attributes":{"ID":416415,"DIS_CODE":0,"TOWNNAME":"中西區","LI":"赤嵌里","LIN":"2鄰","STREET":"西華南街","SECT":" ","MAREA":" ","LANE":"１２０巷","ALLEY":" ","HOUSE_NO":"１８號二樓之８","E_COORD97":169070.20000000001,"N_COORD97":2544135.4700000002,"ADDRESS":"西華南街１２０巷１８號二樓之８","OBJECTID":416391},"geometry":{"x":169070.20000000112,"y":2544135.4700000007}},{"attributes":{"ID":416416,"DIS_CODE":0,"TOWNNAME":"中西區","LI":"赤嵌里","LIN":"2鄰","STREET":"西華南街","SECT":" ","MAREA":" ","LANE":"１２０巷","ALLEY":" ","HOUSE_NO":"１８號二樓之９","E_COORD97":169063.82000000001,"N_COORD97":2544136.8300000001,"ADDRESS":"西華南街１２０巷１８號二樓之９","OBJECTID":416392},"geometry":{"x":169063.8200000003,"y":2544136.8300000001}},{"attributes":{"ID":416417,"DIS_CODE":0,"TOWNNAME":"中西區","LI":"赤嵌里","LIN":"2鄰","STREET":"西華南街","SECT":" ","MAREA":" ","LANE":"１２０巷","ALLEY":" ","HOUSE_NO":"１８號三樓之１","E_COORD97":169081.37,"N_COORD97":2544135.2400000002,"ADDRESS":"西華南街１２０巷１８號三樓之１","OBJECTID":416393},"geometry":{"x":169081.37000000104,"y":2544135.2400000021}},{"attributes":{"ID":416418,"DIS_CODE":0,"TOWNNAME":"中西區","LI":"赤嵌里","LIN":"2鄰","STREET":"西華南街","SECT":" ","MAREA":" ","LANE":"１２０巷","ALLEY":" ","HOUSE_NO":"１８號三樓之２","E_COORD97":169081.37,"N_COORD97":2544135.2400000002,"ADDRESS":"西華南街１２０巷１８號三樓之２","OBJECTID":416394},"geometry":{"x":169081.37000000104,"y":2544135.2400000021}},{"attributes":{"ID":416419,"DIS_CODE":0,"TOWNNAME":"中西區","LI":"赤嵌里","LIN":"2鄰","STREET":"西華南街","SECT":" ","MAREA":" ","LANE":"１２０巷","ALLEY":" ","HOUSE_NO":"１８號三樓之３","E_COORD97":169074.53,"N_COORD97":2544133.8700000001,"ADDRESS":"西華南街１２０巷１８號三樓之３","OBJECTID":416395},"geometry":{"x":169074.53000000212,"y":2544133.870000001}},{"attributes":{"ID":416420,"DIS_CODE":0,"TOWNNAME":"中西區","LI":"赤嵌里","LIN":"2鄰","STREET":"西華南街","SECT":" ","MAREA":" ","LANE":"１２０巷","ALLEY":" ","HOUSE_NO":"１８號三樓之４","E_COORD97":169074.53,"N_COORD97":2544133.8700000001,"ADDRESS":"西華南街１２０巷１８號三樓之４","OBJECTID":416396},"geometry":{"x":169074.53000000212,"y":2544133.870000001}},{"attributes":{"ID":416421,"DIS_CODE":0,"TOWNNAME":"中西區","LI":"赤嵌里","LIN":"2鄰","STREET":"西華南街","SECT":" ","MAREA":" ","LANE":"１２０巷","ALLEY":" ","HOUSE_NO":"１８號三樓之５","E_COORD97":169070.20000000001,"N_COORD97":2544135.4700000002,"ADDRESS":"西華南街１２０巷１８號三樓之５","OBJECTID":416397},"geometry":{"x":169070.20000000112,"y":2544135.4700000007}},{"attributes":{"ID":416422,"DIS_CODE":0,"TOWNNAME":"中西區","LI":"赤嵌里","LIN":"2鄰","STREET":"西華南街","SECT":" ","MAREA":" ","LANE":"１２０巷","ALLEY":" ","HOUSE_NO":"１８號三樓之７","E_COORD97":169063.82000000001,"N_COORD97":2544136.8300000001,"ADDRESS":"西華南街１２０巷１８號三樓之７","OBJECTID":416398},"geometry":{"x":169063.8200000003,"y":2544136.8300000001}},{"attributes":{"ID":416423,"DIS_CODE":0,"TOWNNAME":"中西區","LI":"赤嵌里","LIN":"2鄰","STREET":"西華南街","SECT":" ","MAREA":" ","LANE":"１２０巷","ALLEY":" ","HOUSE_NO":"１８號三樓之８","E_COORD97":169063.82000000001,"N_COORD97":2544136.8300000001,"ADDRESS":"西華南街１２０巷１８號三樓之８","OBJECTID":416399},"geometry":{"x":169063.8200000003,"y":2544136.8300000001}},{"attributes":{"ID":416424,"DIS_CODE":0,"TOWNNAME":"中西區","LI":"赤嵌里","LIN":"2鄰","STREET":"西華南街","SECT":" ","MAREA":" ","LANE":"１２０巷","ALLEY":" ","HOUSE_NO":"１８號五樓之１","E_COORD97":169081.37,"N_COORD97":2544135.2400000002,"ADDRESS":"西華南街１２０巷１８號五樓之１","OBJECTID":416400},"geometry":{"x":169081.37000000104,"y":2544135.2400000021}}]}