{"displayFieldName":"TOWNNAME","fieldAliases":{"ID":"ID","DIS_CODE":"DIS_CODE","TOWNNAME":"TOWNNAME","LI":"LI","LIN":"LIN","STREET":"STREET","SECT":"SECT","MAREA":"MAREA","LANE":"LANE","ALLEY":"ALLEY","HOUSE_NO":"HOUSE_NO","E_COORD97":"E_COORD97","N_COORD97":"N_COORD97","ADDRESS":"ADDRESS","OBJECTID":"OBJECTID"},"geometryType":"esriGeometryPoint","spatialReference":{"wkid":102443,"latestWkid":3826},"fields":[{"name":"ID","type":"esriFieldTypeDouble","alias":"ID"},{"name":"DIS_CODE","type":"esriFieldTypeInteger","alias":"DIS_CODE"},{"name":"TOWNNAME","type":"esriFieldTypeString","alias":"TOWNNAME","length":8},{"name":"LI","type":"esriFieldTypeString","alias":"LI","length":8},{"name":"LIN","type":"esriFieldTypeString","alias":"LIN","length":12},{"name":"STREET","type":"esriFieldTypeString","alias":"STREET","length":20},{"name":"SECT","type":"esriFieldTypeString","alias":"SECT","length":8},{"name":"MAREA","type":"esriFieldTypeString","alias":"MAREA","length":12},{"name":"LANE","type":"esriFieldTypeString","alias":"LANE","length":10},{"name":"ALLEY","type":"esriFieldTypeString","alias":"ALLEY","length":10},{"name":"HOUSE_NO","type":"esriFieldTypeString","alias":"HOUSE_NO","length":20},{"name":"E_COORD97","type":"esriFieldTypeDouble","alias":"E_COORD97"},{"name":"N_COORD97","type":"esriFieldTypeDouble","alias":"N_COORD97"},{"name":"ADDRESS","type":"esriFieldTypeString","alias":"ADDRESS","length":50},{"name":"OBJECTID","type":"esriFieldTypeOID","alias":"OBJECTID"}],"features":[{"attributes":{"ID":485026,"DIS_CODE":0,"TOWNNAME":"歸仁區","LI":"南興里","LIN":"39鄰","STREET":"中山十街","SECT":" ","MAREA":" ","LANE":" ","ALLEY":" ","HOUSE_NO":"４５號","E_COORD97":175678.76000000001,"N_COORD97":2541139.25,"ADDRESS":"中山十街４５號","OBJECTID":485001},"geometry":{"x":175678.76000000071,"y":2541139.25}},{"attributes":{"ID":485027,"DIS_CODE":0,"TOWNNAME":"歸仁區","LI":"南保里","LIN":"39鄰","STREET":"中山路","SECT":"三段","MAREA":" ","LANE":" ","ALLEY":" ","HOUSE_NO":"１６４號","E_COORD97":176610.35999999999,"N_COORD97":2540926.0800000001,"ADDRESS":"中山路三段１６４號","OBJECTID":485002},"geometry":{"x":176610.36000000034,"y":2540926.0800000019}},{"attributes":{"ID":485028,"DIS_CODE":0,"TOWNNAME":"歸仁區","LI":"南興里","LIN":"39鄰","STREET":"中山十街","SECT":" ","MAREA":" ","LANE":" ","ALLEY":" ","HOUSE_NO":"２７號","E_COORD97":175681.66,"N_COORD97":2541104.25,"ADDRESS":"中山十街２７號","OBJECTID":485003},"geometry":{"x":175681.66000000108,"y":2541104.2500000019}},{"attributes":{"ID":485029,"DIS_CODE":0,"TOWNNAME":"北區","LI":"成德里","LIN":"39鄰","STREET":"文成五街","SECT":" ","MAREA":" ","LANE":" ","ALLEY":" ","HOUSE_NO":"２１２號","E_COORD97":168210.73999999999,"N_COORD97":2546512.9100000001,"ADDRESS":"文成五街２１２號","OBJECTID":485004},"geometry":{"x":168210.74000000115,"y":2546512.9100000001}},{"attributes":{"ID":485030,"DIS_CODE":0,"TOWNNAME":"北區","LI":"成德里","LIN":"39鄰","STREET":"文成五街","SECT":" ","MAREA":" ","LANE":" ","ALLEY":" ","HOUSE_NO":"２０８號","E_COORD97":168220.10999999999,"N_COORD97":2546515.9900000002,"ADDRESS":"文成五街２０８號","OBJECTID":485005},"geometry":{"x":168220.11000000127,"y":2546515.9900000002}},{"attributes":{"ID":485031,"DIS_CODE":0,"TOWNNAME":"北區","LI":"成德里","LIN":"39鄰","STREET":"文成五街","SECT":" ","MAREA":" ","LANE":" ","ALLEY":" ","HOUSE_NO":"２１０號","E_COORD97":168215.57000000001,"N_COORD97":2546514.1800000002,"ADDRESS":"文成五街２１０號","OBJECTID":485006},"geometry":{"x":168215.57000000123,"y":2546514.1799999997}},{"attributes":{"ID":485032,"DIS_CODE":0,"TOWNNAME":"北區","LI":"成德里","LIN":"39鄰","STREET":"文成五街","SECT":" ","MAREA":" ","LANE":" ","ALLEY":" ","HOUSE_NO":"２０６號","E_COORD97":168224.67999999999,"N_COORD97":2546517.52,"ADDRESS":"文成五街２０６號","OBJECTID":485007},"geometry":{"x":168224.6799999997,"y":2546517.5199999996}},{"attributes":{"ID":485033,"DIS_CODE":0,"TOWNNAME":"北區","LI":"成德里","LIN":"39鄰","STREET":"文成五街","SECT":" ","MAREA":" ","LANE":" ","ALLEY":" ","HOUSE_NO":"２０２號","E_COORD97":168229.51000000001,"N_COORD97":2546518.79,"ADDRESS":"文成五街２０２號","OBJECTID":485008},"geometry":{"x":168229.50999999978,"y":2546518.7899999991}},{"attributes":{"ID":485034,"DIS_CODE":0,"TOWNNAME":"北區","LI":"成德里","LIN":"39鄰","STREET":"文成五街","SECT":" ","MAREA":" ","LANE":" ","ALLEY":" ","HOUSE_NO":"２００號","E_COORD97":168234.59,"N_COORD97":2546519.7999999998,"ADDRESS":"文成五街２００號","OBJECTID":485009},"geometry":{"x":168234.59000000171,"y":2546519.8000000026}},{"attributes":{"ID":485035,"DIS_CODE":0,"TOWNNAME":"北區","LI":"成德里","LIN":"39鄰","STREET":"文成五街","SECT":" ","MAREA":" ","LANE":" ","ALLEY":" ","HOUSE_NO":"１９８號","E_COORD97":168239.92000000001,"N_COORD97":2546521.3199999998,"ADDRESS":"文成五街１９８號","OBJECTID":485010},"geometry":{"x":168239.92000000086,"y":2546521.320000004}},{"attributes":{"ID":485036,"DIS_CODE":0,"TOWNNAME":"北區","LI":"成德里","LIN":"39鄰","STREET":"文成五街","SECT":" ","MAREA":" ","LANE":" ","ALLEY":" ","HOUSE_NO":"１９６號","E_COORD97":168245,"N_COORD97":2546522.5899999999,"ADDRESS":"文成五街１９６號","OBJECTID":485011},"geometry":{"x":168245,"y":2546522.5900000017}},{"attributes":{"ID":485037,"DIS_CODE":0,"TOWNNAME":"北區","LI":"成德里","LIN":"39鄰","STREET":"文成五街","SECT":" ","MAREA":" ","LANE":" ","ALLEY":" ","HOUSE_NO":"１９２號","E_COORD97":168250.34,"N_COORD97":2546524.1200000001,"ADDRESS":"文成五街１９２號","OBJECTID":485012},"geometry":{"x":168250.34000000078,"y":2546524.1200000029}},{"attributes":{"ID":485038,"DIS_CODE":0,"TOWNNAME":"北區","LI":"成德里","LIN":"39鄰","STREET":"文成五街","SECT":" ","MAREA":" ","LANE":" ","ALLEY":" ","HOUSE_NO":"１９０號","E_COORD97":168255.42000000001,"N_COORD97":2546525.8999999999,"ADDRESS":"文成五街１９０號","OBJECTID":485013},"geometry":{"x":168255.41999999993,"y":2546525.9000000004}},{"attributes":{"ID":485039,"DIS_CODE":0,"TOWNNAME":"北區","LI":"成德里","LIN":"39鄰","STREET":"文成五街","SECT":" ","MAREA":" ","LANE":" ","ALLEY":" ","HOUSE_NO":"１８８號","E_COORD97":168260.75,"N_COORD97":2546527.6699999999,"ADDRESS":"文成五街１８８號","OBJECTID":485014},"geometry":{"x":168260.75000000186,"y":2546527.6699999999}},{"attributes":{"ID":485040,"DIS_CODE":0,"TOWNNAME":"北區","LI":"成德里","LIN":"39鄰","STREET":"文成五街","SECT":" ","MAREA":" ","LANE":" ","ALLEY":" ","HOUSE_NO":"１８６號","E_COORD97":168265.82999999999,"N_COORD97":2546529.2000000002,"ADDRESS":"文成五街１８６號","OBJECTID":485015},"geometry":{"x":168265.83000000101,"y":2546529.2000000011}},{"attributes":{"ID":485041,"DIS_CODE":0,"TOWNNAME":"北區","LI":"成德里","LIN":"39鄰","STREET":"文成五街","SECT":" ","MAREA":" ","LANE":" ","ALLEY":" ","HOUSE_NO":"１８２號","E_COORD97":168271.42000000001,"N_COORD97":2546530.4700000002,"ADDRESS":"文成五街１８２號","OBJECTID":485016},"geometry":{"x":168271.42000000179,"y":2546530.4699999988}},{"attributes":{"ID":485042,"DIS_CODE":0,"TOWNNAME":"北區","LI":"成德里","LIN":"39鄰","STREET":"文成五街","SECT":" ","MAREA":" ","LANE":" ","ALLEY":" ","HOUSE_NO":"１８０號","E_COORD97":168276.75,"N_COORD97":2546532.25,"ADDRESS":"文成五街１８０號","OBJECTID":485017},"geometry":{"x":168276.75000000093,"y":2546532.2500000019}},{"attributes":{"ID":485043,"DIS_CODE":0,"TOWNNAME":"北區","LI":"成德里","LIN":"39鄰","STREET":"文成五街","SECT":" ","MAREA":" ","LANE":" ","ALLEY":" ","HOUSE_NO":"１７８號","E_COORD97":168282.60000000001,"N_COORD97":2546534.02,"ADDRESS":"文成五街１７８號","OBJECTID":485018},"geometry":{"x":168282.59999999963,"y":2546534.0200000014}},{"attributes":{"ID":485044,"DIS_CODE":0,"TOWNNAME":"北區","LI":"成德里","LIN":"39鄰","STREET":"文成五街","SECT":" ","MAREA":" ","LANE":" ","ALLEY":" ","HOUSE_NO":"１７２號","E_COORD97":168300.63,"N_COORD97":2546538.8500000001,"ADDRESS":"文成五街１７２號","OBJECTID":485019},"geometry":{"x":168300.63000000082,"y":2546538.8499999996}},{"attributes":{"ID":485045,"DIS_CODE":0,"TOWNNAME":"北區","LI":"成德里","LIN":"39鄰","STREET":"文成五街","SECT":" ","MAREA":" ","LANE":" ","ALLEY":" ","HOUSE_NO":"１７０號","E_COORD97":168309.01000000001,"N_COORD97":2546541.6400000001,"ADDRESS":"文成五街１７０號","OBJECTID":485020},"geometry":{"x":168309.00999999978,"y":2546541.6400000006}},{"attributes":{"ID":485046,"DIS_CODE":0,"TOWNNAME":"北區","LI":"成德里","LIN":"39鄰","STREET":"文成五街","SECT":" ","MAREA":" ","LANE":" ","ALLEY":" ","HOUSE_NO":"１６８號","E_COORD97":168315.35999999999,"N_COORD97":2546543.4199999999,"ADDRESS":"文成五街１６８號","OBJECTID":485021},"geometry":{"x":168315.36000000127,"y":2546543.4199999999}},{"attributes":{"ID":485047,"DIS_CODE":0,"TOWNNAME":"北區","LI":"成德里","LIN":"39鄰","STREET":"文成五街","SECT":" ","MAREA":" ","LANE":" ","ALLEY":" ","HOUSE_NO":"１６６號","E_COORD97":168321.20000000001,"N_COORD97":2546545.2000000002,"ADDRESS":"文成五街１６６號","OBJECTID":485022},"geometry":{"x":168321.20000000112,"y":2546545.2000000011}},{"attributes":{"ID":485048,"DIS_CODE":0,"TOWNNAME":"北區","LI":"成德里","LIN":"39鄰","STREET":"文成五街","SECT":" ","MAREA":" ","LANE":" ","ALLEY":" ","HOUSE_NO":"１６２號","E_COORD97":168327.81,"N_COORD97":2546547.23,"ADDRESS":"文成五街１６２號","OBJECTID":485023},"geometry":{"x":168327.81000000145,"y":2546547.2300000023}},{"attributes":{"ID":485049,"DIS_CODE":0,"TOWNNAME":"北區","LI":"成德里","LIN":"39鄰","STREET":"文成五街","SECT":" ","MAREA":" ","LANE":" ","ALLEY":" ","HOUSE_NO":"１５０號","E_COORD97":168333.64999999999,"N_COORD97":2546549.0099999998,"ADDRESS":"文成五街１５０號","OBJECTID":485024},"geometry":{"x":168333.6500000013,"y":2546549.0099999998}},{"attributes":{"ID":485050,"DIS_CODE":0,"TOWNNAME":"北區","LI":"成德里","LIN":"39鄰","STREET":"文成五街","SECT":" ","MAREA":" ","LANE":" ","ALLEY":" ","HOUSE_NO":"１４８號","E_COORD97":168339.48999999999,"N_COORD97":2546550.79,"ADDRESS":"文成五街１４８號","OBJECTID":485025},"geometry":{"x":168339.49000000115,"y":2546550.7900000028}},{"attributes":{"ID":485051,"DIS_CODE":0,"TOWNNAME":"北區","LI":"成德里","LIN":"39鄰","STREET":"文成五街","SECT":" ","MAREA":" ","LANE":" ","ALLEY":" ","HOUSE_NO":"１４６號","E_COORD97":168345.59,"N_COORD97":2546552.0600000001,"ADDRESS":"文成五街１４６號","OBJECTID":485026},"geometry":{"x":168345.59000000078,"y":2546552.0600000005}},{"attributes":{"ID":485052,"DIS_CODE":0,"TOWNNAME":"北區","LI":"成德里","LIN":"39鄰","STREET":"文成五街","SECT":" ","MAREA":" ","LANE":" ","ALLEY":" ","HOUSE_NO":"１４２號","E_COORD97":168351.20000000001,"N_COORD97":2546553.5499999998,"ADDRESS":"文成五街１４２號","OBJECTID":485027},"geometry":{"x":168351.20000000205,"y":2546553.5500000007}},{"attributes":{"ID":485053,"DIS_CODE":0,"TOWNNAME":"佳里區","LI":"建南里","LIN":"32鄰","STREET":"南勢街","SECT":" ","MAREA":" ","LANE":" ","ALLEY":" ","HOUSE_NO":"２３５號","E_COORD97":165692.32000000001,"N_COORD97":2560694.6699999999,"ADDRESS":"南勢街２３５號","OBJECTID":485028},"geometry":{"x":165692.31999999937,"y":2560694.6700000018}},{"attributes":{"ID":485054,"DIS_CODE":0,"TOWNNAME":"仁德區","LI":"後壁里","LIN":"39鄰","STREET":"德安路","SECT":" ","MAREA":" ","LANE":" ","ALLEY":" ","HOUSE_NO":"８８之１號四樓之５","E_COORD97":173468.03,"N_COORD97":2539065.5699999998,"ADDRESS":"德安路８８之１號四樓之５","OBJECTID":485029},"geometry":{"x":173468.03000000026,"y":2539065.5700000022}},{"attributes":{"ID":485055,"DIS_CODE":0,"TOWNNAME":"仁德區","LI":"後壁里","LIN":"39鄰","STREET":"德安路","SECT":" ","MAREA":" ","LANE":" ","ALLEY":" ","HOUSE_NO":"８８之１號一樓之２","E_COORD97":173468.01000000001,"N_COORD97":2539065.5699999998,"ADDRESS":"德安路８８之１號一樓之２","OBJECTID":485030},"geometry":{"x":173468.00999999885,"y":2539065.5700000022}},{"attributes":{"ID":485056,"DIS_CODE":0,"TOWNNAME":"仁德區","LI":"後壁里","LIN":"39鄰","STREET":"德安路","SECT":" ","MAREA":" ","LANE":" ","ALLEY":" ","HOUSE_NO":"８８之１號三樓之５","E_COORD97":173468.03,"N_COORD97":2539065.5699999998,"ADDRESS":"德安路８８之１號三樓之５","OBJECTID":485031},"geometry":{"x":173468.03000000026,"y":2539065.5700000022}},{"attributes":{"ID":485057,"DIS_CODE":0,"TOWNNAME":"仁德區","LI":"後壁里","LIN":"39鄰","STREET":"德安路","SECT":" ","MAREA":" ","LANE":" ","ALLEY":" ","HOUSE_NO":"８８之１號四樓之１","E_COORD97":173467.87,"N_COORD97":2539065.5699999998,"ADDRESS":"德安路８８之１號四樓之１","OBJECTID":485032},"geometry":{"x":173467.87000000104,"y":2539065.5700000022}},{"attributes":{"ID":485058,"DIS_CODE":0,"TOWNNAME":"仁德區","LI":"後壁里","LIN":"39鄰","STREET":"德安路","SECT":" ","MAREA":" ","LANE":" ","ALLEY":" ","HOUSE_NO":"８８之１號五樓之２","E_COORD97":173468.01000000001,"N_COORD97":2539065.5699999998,"ADDRESS":"德安路８８之１號五樓之２","OBJECTID":485033},"geometry":{"x":173468.00999999885,"y":2539065.5700000022}},{"attributes":{"ID":485059,"DIS_CODE":0,"TOWNNAME":"仁德區","LI":"後壁里","LIN":"39鄰","STREET":"德安路","SECT":" ","MAREA":" ","LANE":" ","ALLEY":" ","HOUSE_NO":"８８之１號二樓之２","E_COORD97":173468.01000000001,"N_COORD97":2539065.5699999998,"ADDRESS":"德安路８８之１號二樓之２","OBJECTID":485034},"geometry":{"x":173468.00999999885,"y":2539065.5700000022}},{"attributes":{"ID":485060,"DIS_CODE":0,"TOWNNAME":"仁德區","LI":"後壁里","LIN":"39鄰","STREET":"德安路","SECT":" ","MAREA":" ","LANE":" ","ALLEY":" ","HOUSE_NO":"８８之１號五樓之４","E_COORD97":173467.89999999999,"N_COORD97":2539065.5699999998,"ADDRESS":"德安路８８之１號五樓之４","OBJECTID":485035},"geometry":{"x":173467.90000000224,"y":2539065.5700000022}},{"attributes":{"ID":485061,"DIS_CODE":0,"TOWNNAME":"仁德區","LI":"後壁里","LIN":"39鄰","STREET":"德安路","SECT":" ","MAREA":" ","LANE":" ","ALLEY":" ","HOUSE_NO":"８８之１號三樓之１","E_COORD97":173467.87,"N_COORD97":2539065.5699999998,"ADDRESS":"德安路８８之１號三樓之１","OBJECTID":485036},"geometry":{"x":173467.87000000104,"y":2539065.5700000022}},{"attributes":{"ID":485062,"DIS_CODE":0,"TOWNNAME":"東區","LI":"忠孝里","LIN":"39鄰","STREET":"崇明路","SECT":" ","MAREA":" ","LANE":" ","ALLEY":" ","HOUSE_NO":"２６８號七樓","E_COORD97":169957.01000000001,"N_COORD97":2542086.5899999999,"ADDRESS":"崇明路２６８號七樓","OBJECTID":485037},"geometry":{"x":169957.00999999978,"y":2542086.5899999999}},{"attributes":{"ID":485063,"DIS_CODE":0,"TOWNNAME":"東區","LI":"忠孝里","LIN":"39鄰","STREET":"崇明路","SECT":" ","MAREA":" ","LANE":" ","ALLEY":" ","HOUSE_NO":"２６８號七樓之１","E_COORD97":169957.01000000001,"N_COORD97":2542086.5899999999,"ADDRESS":"崇明路２６８號七樓之１","OBJECTID":485038},"geometry":{"x":169957.00999999978,"y":2542086.5899999999}},{"attributes":{"ID":485064,"DIS_CODE":0,"TOWNNAME":"東區","LI":"忠孝里","LIN":"39鄰","STREET":"崇明路","SECT":" ","MAREA":" ","LANE":" ","ALLEY":" ","HOUSE_NO":"２６８號七樓之２","E_COORD97":169957.01000000001,"N_COORD97":2542086.5899999999,"ADDRESS":"崇明路２６８號七樓之２","OBJECTID":485039},"geometry":{"x":169957.00999999978,"y":2542086.5899999999}},{"attributes":{"ID":485065,"DIS_CODE":0,"TOWNNAME":"東區","LI":"忠孝里","LIN":"39鄰","STREET":"崇明路","SECT":" ","MAREA":" ","LANE":" ","ALLEY":" ","HOUSE_NO":"２６８號七樓之３","E_COORD97":169957.01000000001,"N_COORD97":2542086.5899999999,"ADDRESS":"崇明路２６８號七樓之３","OBJECTID":485040},"geometry":{"x":169957.00999999978,"y":2542086.5899999999}},{"attributes":{"ID":485066,"DIS_CODE":0,"TOWNNAME":"東區","LI":"忠孝里","LIN":"39鄰","STREET":"崇明路","SECT":" ","MAREA":" ","LANE":" ","ALLEY":" ","HOUSE_NO":"２６８號九樓","E_COORD97":169957.01000000001,"N_COORD97":2542086.5899999999,"ADDRESS":"崇明路２６８號九樓","OBJECTID":485041},"geometry":{"x":169957.00999999978,"y":2542086.5899999999}},{"attributes":{"ID":485067,"DIS_CODE":0,"TOWNNAME":"東區","LI":"忠孝里","LIN":"39鄰","STREET":"崇明路","SECT":" ","MAREA":" ","LANE":" ","ALLEY":" ","HOUSE_NO":"２６８號九樓之１","E_COORD97":169957.01000000001,"N_COORD97":2542086.5899999999,"ADDRESS":"崇明路２６８號九樓之１","OBJECTID":485042},"geometry":{"x":169957.00999999978,"y":2542086.5899999999}},{"attributes":{"ID":485068,"DIS_CODE":0,"TOWNNAME":"東區","LI":"忠孝里","LIN":"39鄰","STREET":"崇明路","SECT":" ","MAREA":" ","LANE":" ","ALLEY":" ","HOUSE_NO":"２６８號九樓之２","E_COORD97":169957.01000000001,"N_COORD97":2542086.5899999999,"ADDRESS":"崇明路２６８號九樓之２","OBJECTID":485043},"geometry":{"x":169957.00999999978,"y":2542086.5899999999}},{"attributes":{"ID":485069,"DIS_CODE":0,"TOWNNAME":"東區","LI":"忠孝里","LIN":"39鄰","STREET":"崇明路","SECT":" ","MAREA":" ","LANE":" ","ALLEY":" ","HOUSE_NO":"２６８號九樓之３","E_COORD97":169957.01000000001,"N_COORD97":2542086.5899999999,"ADDRESS":"崇明路２６８號九樓之３","OBJECTID":485044},"geometry":{"x":169957.00999999978,"y":2542086.5899999999}},{"attributes":{"ID":485070,"DIS_CODE":0,"TOWNNAME":"東區","LI":"忠孝里","LIN":"39鄰","STREET":"崇明路","SECT":" ","MAREA":" ","LANE":" ","ALLEY":" ","HOUSE_NO":"２６８號八樓","E_COORD97":169957.01000000001,"N_COORD97":2542086.5899999999,"ADDRESS":"崇明路２６８號八樓","OBJECTID":485045},"geometry":{"x":169957.00999999978,"y":2542086.5899999999}},{"attributes":{"ID":485071,"DIS_CODE":0,"TOWNNAME":"東區","LI":"忠孝里","LIN":"39鄰","STREET":"崇明路","SECT":" ","MAREA":" ","LANE":" ","ALLEY":" ","HOUSE_NO":"２６８號八樓之１","E_COORD97":169957.01000000001,"N_COORD97":2542086.5899999999,"ADDRESS":"崇明路２６８號八樓之１","OBJECTID":485046},"geometry":{"x":169957.00999999978,"y":2542086.5899999999}},{"attributes":{"ID":485072,"DIS_CODE":0,"TOWNNAME":"東區","LI":"忠孝里","LIN":"39鄰","STREET":"崇明路","SECT":" ","MAREA":" ","LANE":" ","ALLEY":" ","HOUSE_NO":"２６８號八樓之２","E_COORD97":169957.01000000001,"N_COORD97":2542086.5899999999,"ADDRESS":"崇明路２６８號八樓之２","OBJECTID":485047},"geometry":{"x":169957.00999999978,"y":2542086.5899999999}},{"attributes":{"ID":485073,"DIS_CODE":0,"TOWNNAME":"東區","LI":"忠孝里","LIN":"39鄰","STREET":"崇明路","SECT":" ","MAREA":" ","LANE":" ","ALLEY":" ","HOUSE_NO":"２６８號八樓之３","E_COORD97":169957.01000000001,"N_COORD97":2542086.5899999999,"ADDRESS":"崇明路２６８號八樓之３","OBJECTID":485048},"geometry":{"x":169957.00999999978,"y":2542086.5899999999}},{"attributes":{"ID":485074,"DIS_CODE":0,"TOWNNAME":"東區","LI":"忠孝里","LIN":"39鄰","STREET":"崇明路","SECT":" ","MAREA":" ","LANE":" ","ALLEY":" ","HOUSE_NO":"２６８號十一樓","E_COORD97":169957.01000000001,"N_COORD97":2542086.5899999999,"ADDRESS":"崇明路２６８號十一樓","OBJECTID":485049},"geometry":{"x":169957.00999999978,"y":2542086.5899999999}},{"attributes":{"ID":485075,"DIS_CODE":0,"TOWNNAME":"東區","LI":"忠孝里","LIN":"39鄰","STREET":"崇明路","SECT":" ","MAREA":" ","LANE":" ","ALLEY":" ","HOUSE_NO":"２６８號十一樓之２","E_COORD97":169957.01000000001,"N_COORD97":2542086.5899999999,"ADDRESS":"崇明路２６８號十一樓之２","OBJECTID":485050},"geometry":{"x":169957.00999999978,"y":2542086.5899999999}},{"attributes":{"ID":485076,"DIS_CODE":0,"TOWNNAME":"東區","LI":"忠孝里","LIN":"39鄰","STREET":"崇明路","SECT":" ","MAREA":" ","LANE":" ","ALLEY":" ","HOUSE_NO":"２６８號十一樓之３","E_COORD97":169957.01000000001,"N_COORD97":2542086.5899999999,"ADDRESS":"崇明路２６８號十一樓之３","OBJECTID":485051},"geometry":{"x":169957.00999999978,"y":2542086.5899999999}},{"attributes":{"ID":485077,"DIS_CODE":0,"TOWNNAME":"麻豆區","LI":"大埕里","LIN":"8鄰","STREET":" ","SECT":" ","MAREA":"大埕","LANE":" ","ALLEY":" ","HOUSE_NO":"１５號之２６","E_COORD97":173170.25036000001,"N_COORD97":2565365.3829899998,"ADDRESS":"大埕１５號之２６","OBJECTID":485052},"geometry":{"x":173170.25035999995,"y":2565365.3829899989}},{"attributes":{"ID":485078,"DIS_CODE":0,"TOWNNAME":"東區","LI":"忠孝里","LIN":"39鄰","STREET":"崇明路","SECT":" ","MAREA":" ","LANE":" ","ALLEY":" ","HOUSE_NO":"２６８號十二樓","E_COORD97":169957.01000000001,"N_COORD97":2542086.5899999999,"ADDRESS":"崇明路２６８號十二樓","OBJECTID":485053},"geometry":{"x":169957.00999999978,"y":2542086.5899999999}},{"attributes":{"ID":485079,"DIS_CODE":0,"TOWNNAME":"東區","LI":"忠孝里","LIN":"39鄰","STREET":"崇明路","SECT":" ","MAREA":" ","LANE":" ","ALLEY":" ","HOUSE_NO":"２６８號十二樓之１","E_COORD97":169957.01000000001,"N_COORD97":2542086.5899999999,"ADDRESS":"崇明路２６８號十二樓之１","OBJECTID":485054},"geometry":{"x":169957.00999999978,"y":2542086.5899999999}},{"attributes":{"ID":485080,"DIS_CODE":0,"TOWNNAME":"東區","LI":"忠孝里","LIN":"39鄰","STREET":"崇明路","SECT":" ","MAREA":" ","LANE":" ","ALLEY":" ","HOUSE_NO":"２６８號十二樓之２","E_COORD97":169957.01000000001,"N_COORD97":2542086.5899999999,"ADDRESS":"崇明路２６８號十二樓之２","OBJECTID":485055},"geometry":{"x":169957.00999999978,"y":2542086.5899999999}},{"attributes":{"ID":485081,"DIS_CODE":0,"TOWNNAME":"東區","LI":"忠孝里","LIN":"39鄰","STREET":"崇明路","SECT":" ","MAREA":" ","LANE":" ","ALLEY":" ","HOUSE_NO":"２６８號十二樓之３","E_COORD97":169957.01000000001,"N_COORD97":2542086.5899999999,"ADDRESS":"崇明路２６８號十二樓之３","OBJECTID":485056},"geometry":{"x":169957.00999999978,"y":2542086.5899999999}},{"attributes":{"ID":485082,"DIS_CODE":0,"TOWNNAME":"東區","LI":"忠孝里","LIN":"39鄰","STREET":"崇明路","SECT":" ","MAREA":" ","LANE":" ","ALLEY":" ","HOUSE_NO":"２６８號十三樓","E_COORD97":169957.01000000001,"N_COORD97":2542086.5899999999,"ADDRESS":"崇明路２６８號十三樓","OBJECTID":485057},"geometry":{"x":169957.00999999978,"y":2542086.5899999999}},{"attributes":{"ID":485083,"DIS_CODE":0,"TOWNNAME":"東區","LI":"忠孝里","LIN":"39鄰","STREET":"崇明路","SECT":" ","MAREA":" ","LANE":" ","ALLEY":" ","HOUSE_NO":"２６８號十三樓之１","E_COORD97":169957.01000000001,"N_COORD97":2542086.5899999999,"ADDRESS":"崇明路２６８號十三樓之１","OBJECTID":485058},"geometry":{"x":169957.00999999978,"y":2542086.5899999999}},{"attributes":{"ID":485084,"DIS_CODE":0,"TOWNNAME":"東區","LI":"忠孝里","LIN":"39鄰","STREET":"崇明路","SECT":" ","MAREA":" ","LANE":" ","ALLEY":" ","HOUSE_NO":"２６８號十三樓之２","E_COORD97":169957.01000000001,"N_COORD97":2542086.5899999999,"ADDRESS":"崇明路２６８號十三樓之２","OBJECTID":485059},"geometry":{"x":169957.00999999978,"y":2542086.5899999999}},{"attributes":{"ID":485085,"DIS_CODE":0,"TOWNNAME":"東區","LI":"忠孝里","LIN":"39鄰","STREET":"崇明路","SECT":" ","MAREA":" ","LANE":" ","ALLEY":" ","HOUSE_NO":"２６８號十三樓之３","E_COORD97":169957.01000000001,"N_COORD97":2542086.5899999999,"ADDRESS":"崇明路２６８號十三樓之３","OBJECTID":485060},"geometry":{"x":169957.00999999978,"y":2542086.5899999999}},{"attributes":{"ID":485086,"DIS_CODE":0,"TOWNNAME":"東區","LI":"忠孝里","LIN":"39鄰","STREET":"崇明路","SECT":" ","MAREA":" ","LANE":" ","ALLEY":" ","HOUSE_NO":"２６８號十五樓","E_COORD97":169957.01000000001,"N_COORD97":2542086.5899999999,"ADDRESS":"崇明路２６８號十五樓","OBJECTID":485061},"geometry":{"x":169957.00999999978,"y":2542086.5899999999}},{"attributes":{"ID":485087,"DIS_CODE":0,"TOWNNAME":"東區","LI":"忠孝里","LIN":"39鄰","STREET":"崇明路","SECT":" ","MAREA":" ","LANE":" ","ALLEY":" ","HOUSE_NO":"２６８號十五樓之１","E_COORD97":169957.01000000001,"N_COORD97":2542086.5899999999,"ADDRESS":"崇明路２６８號十五樓之１","OBJECTID":485062},"geometry":{"x":169957.00999999978,"y":2542086.5899999999}},{"attributes":{"ID":485088,"DIS_CODE":0,"TOWNNAME":"東區","LI":"忠孝里","LIN":"39鄰","STREET":"崇明路","SECT":" ","MAREA":" ","LANE":" ","ALLEY":" ","HOUSE_NO":"２６８號十五樓之２","E_COORD97":169957.01000000001,"N_COORD97":2542086.5899999999,"ADDRESS":"崇明路２６８號十五樓之２","OBJECTID":485063},"geometry":{"x":169957.00999999978,"y":2542086.5899999999}},{"attributes":{"ID":485089,"DIS_CODE":0,"TOWNNAME":"東區","LI":"忠孝里","LIN":"39鄰","STREET":"崇明路","SECT":" ","MAREA":" ","LANE":" ","ALLEY":" ","HOUSE_NO":"２６８號十五樓之３","E_COORD97":169957.01000000001,"N_COORD97":2542086.5899999999,"ADDRESS":"崇明路２６８號十五樓之３","OBJECTID":485064},"geometry":{"x":169957.00999999978,"y":2542086.5899999999}},{"attributes":{"ID":485090,"DIS_CODE":0,"TOWNNAME":"東區","LI":"忠孝里","LIN":"39鄰","STREET":"崇明路","SECT":" ","MAREA":" ","LANE":" ","ALLEY":" ","HOUSE_NO":"２６８號十四樓","E_COORD97":169957.01000000001,"N_COORD97":2542086.5899999999,"ADDRESS":"崇明路２６８號十四樓","OBJECTID":485065},"geometry":{"x":169957.00999999978,"y":2542086.5899999999}},{"attributes":{"ID":485091,"DIS_CODE":0,"TOWNNAME":"東區","LI":"忠孝里","LIN":"39鄰","STREET":"崇明路","SECT":" ","MAREA":" ","LANE":" ","ALLEY":" ","HOUSE_NO":"２６８號十四樓之１","E_COORD97":169957.01000000001,"N_COORD97":2542086.5899999999,"ADDRESS":"崇明路２６８號十四樓之１","OBJECTID":485066},"geometry":{"x":169957.00999999978,"y":2542086.5899999999}},{"attributes":{"ID":485092,"DIS_CODE":0,"TOWNNAME":"東區","LI":"忠孝里","LIN":"39鄰","STREET":"崇明路","SECT":" ","MAREA":" ","LANE":" ","ALLEY":" ","HOUSE_NO":"２６８號十四樓之２","E_COORD97":169957.01000000001,"N_COORD97":2542086.5899999999,"ADDRESS":"崇明路２６８號十四樓之２","OBJECTID":485067},"geometry":{"x":169957.00999999978,"y":2542086.5899999999}},{"attributes":{"ID":485093,"DIS_CODE":0,"TOWNNAME":"東區","LI":"忠孝里","LIN":"39鄰","STREET":"崇明路","SECT":" ","MAREA":" ","LANE":" ","ALLEY":" ","HOUSE_NO":"２６８號十四樓之３","E_COORD97":169957.01000000001,"N_COORD97":2542086.5899999999,"ADDRESS":"崇明路２６８號十四樓之３","OBJECTID":485068},"geometry":{"x":169957.00999999978,"y":2542086.5899999999}},{"attributes":{"ID":485094,"DIS_CODE":0,"TOWNNAME":"東區","LI":"忠孝里","LIN":"39鄰","STREET":"崇明路","SECT":" ","MAREA":" ","LANE":" ","ALLEY":" ","HOUSE_NO":"２６８號十樓","E_COORD97":169957.01000000001,"N_COORD97":2542086.5899999999,"ADDRESS":"崇明路２６８號十樓","OBJECTID":485069},"geometry":{"x":169957.00999999978,"y":2542086.5899999999}},{"attributes":{"ID":485095,"DIS_CODE":0,"TOWNNAME":"東區","LI":"忠孝里","LIN":"39鄰","STREET":"崇明路","SECT":" ","MAREA":" ","LANE":" ","ALLEY":" ","HOUSE_NO":"２６８號十樓之１","E_COORD97":169957.01000000001,"N_COORD97":2542086.5899999999,"ADDRESS":"崇明路２６８號十樓之１","OBJECTID":485070},"geometry":{"x":169957.00999999978,"y":2542086.5899999999}},{"attributes":{"ID":485096,"DIS_CODE":0,"TOWNNAME":"東區","LI":"忠孝里","LIN":"39鄰","STREET":"崇明路","SECT":" ","MAREA":" ","LANE":" ","ALLEY":" ","HOUSE_NO":"２６８號十樓之２","E_COORD97":169957.01000000001,"N_COORD97":2542086.5899999999,"ADDRESS":"崇明路２６８號十樓之２","OBJECTID":485071},"geometry":{"x":169957.00999999978,"y":2542086.5899999999}},{"attributes":{"ID":485097,"DIS_CODE":0,"TOWNNAME":"東區","LI":"忠孝里","LIN":"39鄰","STREET":"崇明路","SECT":" ","MAREA":" ","LANE":" ","ALLEY":" ","HOUSE_NO":"２６８號十樓之３","E_COORD97":169957.01000000001,"N_COORD97":2542086.5899999999,"ADDRESS":"崇明路２６８號十樓之３","OBJECTID":485072},"geometry":{"x":169957.00999999978,"y":2542086.5899999999}},{"attributes":{"ID":485098,"DIS_CODE":0,"TOWNNAME":"東區","LI":"忠孝里","LIN":"39鄰","STREET":"崇明路","SECT":" ","MAREA":" ","LANE":" ","ALLEY":" ","HOUSE_NO":"２６８號三樓","E_COORD97":169957.01000000001,"N_COORD97":2542086.5899999999,"ADDRESS":"崇明路２６８號三樓","OBJECTID":485073},"geometry":{"x":169957.00999999978,"y":2542086.5899999999}},{"attributes":{"ID":485099,"DIS_CODE":0,"TOWNNAME":"東區","LI":"忠孝里","LIN":"39鄰","STREET":"崇明路","SECT":" ","MAREA":" ","LANE":" ","ALLEY":" ","HOUSE_NO":"２６８號三樓之１","E_COORD97":169957.01000000001,"N_COORD97":2542086.5899999999,"ADDRESS":"崇明路２６８號三樓之１","OBJECTID":485074},"geometry":{"x":169957.00999999978,"y":2542086.5899999999}},{"attributes":{"ID":485100,"DIS_CODE":0,"TOWNNAME":"東區","LI":"忠孝里","LIN":"39鄰","STREET":"崇明路","SECT":" ","MAREA":" ","LANE":" ","ALLEY":" ","HOUSE_NO":"２６８號三樓之２","E_COORD97":169957.01000000001,"N_COORD97":2542086.5899999999,"ADDRESS":"崇明路２６８號三樓之２","OBJECTID":485075},"geometry":{"x":169957.00999999978,"y":2542086.5899999999}},{"attributes":{"ID":485101,"DIS_CODE":0,"TOWNNAME":"東區","LI":"忠孝里","LIN":"39鄰","STREET":"崇明路","SECT":" ","MAREA":" ","LANE":" ","ALLEY":" ","HOUSE_NO":"２６８號五樓","E_COORD97":169957.01000000001,"N_COORD97":2542086.5899999999,"ADDRESS":"崇明路２６８號五樓","OBJECTID":485076},"geometry":{"x":169957.00999999978,"y":2542086.5899999999}},{"attributes":{"ID":485102,"DIS_CODE":0,"TOWNNAME":"東區","LI":"忠孝里","LIN":"39鄰","STREET":"崇明路","SECT":" ","MAREA":" ","LANE":" ","ALLEY":" ","HOUSE_NO":"２６８號五樓之１","E_COORD97":169957.01000000001,"N_COORD97":2542086.5899999999,"ADDRESS":"崇明路２６８號五樓之１","OBJECTID":485077},"geometry":{"x":169957.00999999978,"y":2542086.5899999999}},{"attributes":{"ID":485103,"DIS_CODE":0,"TOWNNAME":"東區","LI":"忠孝里","LIN":"39鄰","STREET":"崇明路","SECT":" ","MAREA":" ","LANE":" ","ALLEY":" ","HOUSE_NO":"２６８號五樓之２","E_COORD97":169957.01000000001,"N_COORD97":2542086.5899999999,"ADDRESS":"崇明路２６８號五樓之２","OBJECTID":485078},"geometry":{"x":169957.00999999978,"y":2542086.5899999999}},{"attributes":{"ID":485104,"DIS_CODE":0,"TOWNNAME":"東區","LI":"忠孝里","LIN":"39鄰","STREET":"崇明路","SECT":" ","MAREA":" ","LANE":" ","ALLEY":" ","HOUSE_NO":"２６８號五樓之３","E_COORD97":169957.01000000001,"N_COORD97":2542086.5899999999,"ADDRESS":"崇明路２６８號五樓之３","OBJECTID":485079},"geometry":{"x":169957.00999999978,"y":2542086.5899999999}},{"attributes":{"ID":485105,"DIS_CODE":0,"TOWNNAME":"東區","LI":"忠孝里","LIN":"39鄰","STREET":"崇明路","SECT":" ","MAREA":" ","LANE":" ","ALLEY":" ","HOUSE_NO":"２６８號六樓","E_COORD97":169957.01000000001,"N_COORD97":2542086.5899999999,"ADDRESS":"崇明路２６８號六樓","OBJECTID":485080},"geometry":{"x":169957.00999999978,"y":2542086.5899999999}},{"attributes":{"ID":485106,"DIS_CODE":0,"TOWNNAME":"東區","LI":"忠孝里","LIN":"39鄰","STREET":"崇明路","SECT":" ","MAREA":" ","LANE":" ","ALLEY":" ","HOUSE_NO":"２６８號六樓之１","E_COORD97":169957.01000000001,"N_COORD97":2542086.5899999999,"ADDRESS":"崇明路２６８號六樓之１","OBJECTID":485081},"geometry":{"x":169957.00999999978,"y":2542086.5899999999}},{"attributes":{"ID":485107,"DIS_CODE":0,"TOWNNAME":"東區","LI":"忠孝里","LIN":"39鄰","STREET":"崇明路","SECT":" ","MAREA":" ","LANE":" ","ALLEY":" ","HOUSE_NO":"２６８號六樓之２","E_COORD97":169957.01000000001,"N_COORD97":2542086.5899999999,"ADDRESS":"崇明路２６８號六樓之２","OBJECTID":485082},"geometry":{"x":169957.00999999978,"y":2542086.5899999999}},{"attributes":{"ID":485108,"DIS_CODE":0,"TOWNNAME":"善化區","LI":"光文里","LIN":"7鄰","STREET":"光文路","SECT":" ","MAREA":" ","LANE":"３９巷","ALLEY":" ","HOUSE_NO":"１８號","E_COORD97":178960.79999999999,"N_COORD97":2559510.5299999998,"ADDRESS":"光文路３９巷１８號","OBJECTID":485083},"geometry":{"x":178960.80000000075,"y":2559510.5300000031}},{"attributes":{"ID":485109,"DIS_CODE":0,"TOWNNAME":"東區","LI":"忠孝里","LIN":"39鄰","STREET":"崇明路","SECT":" ","MAREA":" ","LANE":" ","ALLEY":" ","HOUSE_NO":"２６８號六樓之３","E_COORD97":169957.01000000001,"N_COORD97":2542086.5899999999,"ADDRESS":"崇明路２６８號六樓之３","OBJECTID":485084},"geometry":{"x":169957.00999999978,"y":2542086.5899999999}},{"attributes":{"ID":485110,"DIS_CODE":0,"TOWNNAME":"東區","LI":"忠孝里","LIN":"39鄰","STREET":"崇明路","SECT":" ","MAREA":" ","LANE":" ","ALLEY":" ","HOUSE_NO":"２６８號四樓","E_COORD97":169957.01000000001,"N_COORD97":2542086.5899999999,"ADDRESS":"崇明路２６８號四樓","OBJECTID":485085},"geometry":{"x":169957.00999999978,"y":2542086.5899999999}},{"attributes":{"ID":485111,"DIS_CODE":0,"TOWNNAME":"東區","LI":"忠孝里","LIN":"39鄰","STREET":"崇明路","SECT":" ","MAREA":" ","LANE":" ","ALLEY":" ","HOUSE_NO":"２６８號四樓之１","E_COORD97":169957.01000000001,"N_COORD97":2542086.5899999999,"ADDRESS":"崇明路２６８號四樓之１","OBJECTID":485086},"geometry":{"x":169957.00999999978,"y":2542086.5899999999}},{"attributes":{"ID":485112,"DIS_CODE":0,"TOWNNAME":"東區","LI":"忠孝里","LIN":"39鄰","STREET":"崇明路","SECT":" ","MAREA":" ","LANE":" ","ALLEY":" ","HOUSE_NO":"２６８號四樓之２","E_COORD97":169957.01000000001,"N_COORD97":2542086.5899999999,"ADDRESS":"崇明路２６８號四樓之２","OBJECTID":485087},"geometry":{"x":169957.00999999978,"y":2542086.5899999999}},{"attributes":{"ID":485113,"DIS_CODE":0,"TOWNNAME":"東區","LI":"忠孝里","LIN":"39鄰","STREET":"崇明路","SECT":" ","MAREA":" ","LANE":" ","ALLEY":" ","HOUSE_NO":"２６８號四樓之３","E_COORD97":169957.01000000001,"N_COORD97":2542086.5899999999,"ADDRESS":"崇明路２６８號四樓之３","OBJECTID":485088},"geometry":{"x":169957.00999999978,"y":2542086.5899999999}},{"attributes":{"ID":485114,"DIS_CODE":0,"TOWNNAME":"東區","LI":"忠孝里","LIN":"39鄰","STREET":"崇明路","SECT":" ","MAREA":" ","LANE":" ","ALLEY":" ","HOUSE_NO":"２７０號七樓","E_COORD97":169958.98999999999,"N_COORD97":2542084.8700000001,"ADDRESS":"崇明路２７０號七樓","OBJECTID":485089},"geometry":{"x":169958.99000000022,"y":2542084.8700000029}},{"attributes":{"ID":485115,"DIS_CODE":0,"TOWNNAME":"東區","LI":"忠孝里","LIN":"39鄰","STREET":"崇明路","SECT":" ","MAREA":" ","LANE":" ","ALLEY":" ","HOUSE_NO":"２７０號七樓之１","E_COORD97":169958.98999999999,"N_COORD97":2542084.8700000001,"ADDRESS":"崇明路２７０號七樓之１","OBJECTID":485090},"geometry":{"x":169958.99000000022,"y":2542084.8700000029}},{"attributes":{"ID":485116,"DIS_CODE":0,"TOWNNAME":"東區","LI":"忠孝里","LIN":"39鄰","STREET":"崇明路","SECT":" ","MAREA":" ","LANE":" ","ALLEY":" ","HOUSE_NO":"２７０號七樓之２","E_COORD97":169958.98999999999,"N_COORD97":2542084.8700000001,"ADDRESS":"崇明路２７０號七樓之２","OBJECTID":485091},"geometry":{"x":169958.99000000022,"y":2542084.8700000029}},{"attributes":{"ID":485117,"DIS_CODE":0,"TOWNNAME":"東區","LI":"忠孝里","LIN":"39鄰","STREET":"崇明路","SECT":" ","MAREA":" ","LANE":" ","ALLEY":" ","HOUSE_NO":"２７０號七樓之３","E_COORD97":169958.98999999999,"N_COORD97":2542084.8700000001,"ADDRESS":"崇明路２７０號七樓之３","OBJECTID":485092},"geometry":{"x":169958.99000000022,"y":2542084.8700000029}},{"attributes":{"ID":485118,"DIS_CODE":0,"TOWNNAME":"東區","LI":"忠孝里","LIN":"39鄰","STREET":"崇明路","SECT":" ","MAREA":" ","LANE":" ","ALLEY":" ","HOUSE_NO":"２７０號七樓之４","E_COORD97":169958.98999999999,"N_COORD97":2542084.8700000001,"ADDRESS":"崇明路２７０號七樓之４","OBJECTID":485093},"geometry":{"x":169958.99000000022,"y":2542084.8700000029}},{"attributes":{"ID":485119,"DIS_CODE":0,"TOWNNAME":"東區","LI":"忠孝里","LIN":"39鄰","STREET":"崇明路","SECT":" ","MAREA":" ","LANE":" ","ALLEY":" ","HOUSE_NO":"２７０號七樓之５","E_COORD97":169958.98999999999,"N_COORD97":2542084.8700000001,"ADDRESS":"崇明路２７０號七樓之５","OBJECTID":485094},"geometry":{"x":169958.99000000022,"y":2542084.8700000029}},{"attributes":{"ID":485120,"DIS_CODE":0,"TOWNNAME":"東區","LI":"忠孝里","LIN":"39鄰","STREET":"崇明路","SECT":" ","MAREA":" ","LANE":" ","ALLEY":" ","HOUSE_NO":"２７０號七樓之６","E_COORD97":169958.98999999999,"N_COORD97":2542084.8700000001,"ADDRESS":"崇明路２７０號七樓之６","OBJECTID":485095},"geometry":{"x":169958.99000000022,"y":2542084.8700000029}},{"attributes":{"ID":485121,"DIS_CODE":0,"TOWNNAME":"東區","LI":"忠孝里","LIN":"39鄰","STREET":"崇明路","SECT":" ","MAREA":" ","LANE":" ","ALLEY":" ","HOUSE_NO":"２７０號九樓","E_COORD97":169958.98999999999,"N_COORD97":2542084.8700000001,"ADDRESS":"崇明路２７０號九樓","OBJECTID":485096},"geometry":{"x":169958.99000000022,"y":2542084.8700000029}},{"attributes":{"ID":485122,"DIS_CODE":0,"TOWNNAME":"東區","LI":"忠孝里","LIN":"39鄰","STREET":"崇明路","SECT":" ","MAREA":" ","LANE":" ","ALLEY":" ","HOUSE_NO":"２７０號九樓之１","E_COORD97":169958.98999999999,"N_COORD97":2542084.8700000001,"ADDRESS":"崇明路２７０號九樓之１","OBJECTID":485097},"geometry":{"x":169958.99000000022,"y":2542084.8700000029}},{"attributes":{"ID":485123,"DIS_CODE":0,"TOWNNAME":"東區","LI":"忠孝里","LIN":"39鄰","STREET":"崇明路","SECT":" ","MAREA":" ","LANE":" ","ALLEY":" ","HOUSE_NO":"２７０號九樓之２","E_COORD97":169958.98999999999,"N_COORD97":2542084.8700000001,"ADDRESS":"崇明路２７０號九樓之２","OBJECTID":485098},"geometry":{"x":169958.99000000022,"y":2542084.8700000029}},{"attributes":{"ID":485124,"DIS_CODE":0,"TOWNNAME":"東區","LI":"忠孝里","LIN":"39鄰","STREET":"崇明路","SECT":" ","MAREA":" ","LANE":" ","ALLEY":" ","HOUSE_NO":"２７０號九樓之３","E_COORD97":169958.98999999999,"N_COORD97":2542084.8700000001,"ADDRESS":"崇明路２７０號九樓之３","OBJECTID":485099},"geometry":{"x":169958.99000000022,"y":2542084.8700000029}},{"attributes":{"ID":485125,"DIS_CODE":0,"TOWNNAME":"東區","LI":"忠孝里","LIN":"39鄰","STREET":"崇明路","SECT":" ","MAREA":" ","LANE":" ","ALLEY":" ","HOUSE_NO":"２７０號九樓之４","E_COORD97":169958.98999999999,"N_COORD97":2542084.8700000001,"ADDRESS":"崇明路２７０號九樓之４","OBJECTID":485100},"geometry":{"x":169958.99000000022,"y":2542084.8700000029}},{"attributes":{"ID":485126,"DIS_CODE":0,"TOWNNAME":"東區","LI":"忠孝里","LIN":"39鄰","STREET":"崇明路","SECT":" ","MAREA":" ","LANE":" ","ALLEY":" ","HOUSE_NO":"２７０號九樓之５","E_COORD97":169958.98999999999,"N_COORD97":2542084.8700000001,"ADDRESS":"崇明路２７０號九樓之５","OBJECTID":485101},"geometry":{"x":169958.99000000022,"y":2542084.8700000029}},{"attributes":{"ID":485127,"DIS_CODE":0,"TOWNNAME":"東區","LI":"忠孝里","LIN":"39鄰","STREET":"崇明路","SECT":" ","MAREA":" ","LANE":" ","ALLEY":" ","HOUSE_NO":"２７０號九樓之６","E_COORD97":169958.98999999999,"N_COORD97":2542084.8700000001,"ADDRESS":"崇明路２７０號九樓之６","OBJECTID":485102},"geometry":{"x":169958.99000000022,"y":2542084.8700000029}},{"attributes":{"ID":485128,"DIS_CODE":0,"TOWNNAME":"東區","LI":"忠孝里","LIN":"39鄰","STREET":"崇明路","SECT":" ","MAREA":" ","LANE":" ","ALLEY":" ","HOUSE_NO":"２７０號八樓","E_COORD97":169958.98999999999,"N_COORD97":2542084.8700000001,"ADDRESS":"崇明路２７０號八樓","OBJECTID":485103},"geometry":{"x":169958.99000000022,"y":2542084.8700000029}},{"attributes":{"ID":485129,"DIS_CODE":0,"TOWNNAME":"東區","LI":"忠孝里","LIN":"39鄰","STREET":"崇明路","SECT":" ","MAREA":" ","LANE":" ","ALLEY":" ","HOUSE_NO":"２７０號八樓之１","E_COORD97":169958.98999999999,"N_COORD97":2542084.8700000001,"ADDRESS":"崇明路２７０號八樓之１","OBJECTID":485104},"geometry":{"x":169958.99000000022,"y":2542084.8700000029}},{"attributes":{"ID":485130,"DIS_CODE":0,"TOWNNAME":"東區","LI":"忠孝里","LIN":"39鄰","STREET":"崇明路","SECT":" ","MAREA":" ","LANE":" ","ALLEY":" ","HOUSE_NO":"２７０號八樓之２","E_COORD97":169958.98999999999,"N_COORD97":2542084.8700000001,"ADDRESS":"崇明路２７０號八樓之２","OBJECTID":485105},"geometry":{"x":169958.99000000022,"y":2542084.8700000029}},{"attributes":{"ID":485131,"DIS_CODE":0,"TOWNNAME":"東區","LI":"忠孝里","LIN":"39鄰","STREET":"崇明路","SECT":" ","MAREA":" ","LANE":" ","ALLEY":" ","HOUSE_NO":"２７０號八樓之３","E_COORD97":169958.98999999999,"N_COORD97":2542084.8700000001,"ADDRESS":"崇明路２７０號八樓之３","OBJECTID":485106},"geometry":{"x":169958.99000000022,"y":2542084.8700000029}},{"attributes":{"ID":485132,"DIS_CODE":0,"TOWNNAME":"東區","LI":"忠孝里","LIN":"39鄰","STREET":"崇明路","SECT":" ","MAREA":" ","LANE":" ","ALLEY":" ","HOUSE_NO":"２７０號八樓之４","E_COORD97":169958.98999999999,"N_COORD97":2542084.8700000001,"ADDRESS":"崇明路２７０號八樓之４","OBJECTID":485107},"geometry":{"x":169958.99000000022,"y":2542084.8700000029}},{"attributes":{"ID":485133,"DIS_CODE":0,"TOWNNAME":"東區","LI":"忠孝里","LIN":"39鄰","STREET":"崇明路","SECT":" ","MAREA":" ","LANE":" ","ALLEY":" ","HOUSE_NO":"２７０號八樓之５","E_COORD97":169958.98999999999,"N_COORD97":2542084.8700000001,"ADDRESS":"崇明路２７０號八樓之５","OBJECTID":485108},"geometry":{"x":169958.99000000022,"y":2542084.8700000029}},{"attributes":{"ID":485134,"DIS_CODE":0,"TOWNNAME":"東區","LI":"忠孝里","LIN":"39鄰","STREET":"崇明路","SECT":" ","MAREA":" ","LANE":" ","ALLEY":" ","HOUSE_NO":"２７０號八樓之６","E_COORD97":169958.98999999999,"N_COORD97":2542084.8700000001,"ADDRESS":"崇明路２７０號八樓之６","OBJECTID":485109},"geometry":{"x":169958.99000000022,"y":2542084.8700000029}},{"attributes":{"ID":485135,"DIS_CODE":0,"TOWNNAME":"東區","LI":"忠孝里","LIN":"39鄰","STREET":"崇明路","SECT":" ","MAREA":" ","LANE":" ","ALLEY":" ","HOUSE_NO":"２７０號十一樓","E_COORD97":169958.98999999999,"N_COORD97":2542084.8700000001,"ADDRESS":"崇明路２７０號十一樓","OBJECTID":485110},"geometry":{"x":169958.99000000022,"y":2542084.8700000029}},{"attributes":{"ID":485136,"DIS_CODE":0,"TOWNNAME":"東區","LI":"忠孝里","LIN":"39鄰","STREET":"崇明路","SECT":" ","MAREA":" ","LANE":" ","ALLEY":" ","HOUSE_NO":"２７０號十一樓之１","E_COORD97":169958.98999999999,"N_COORD97":2542084.8700000001,"ADDRESS":"崇明路２７０號十一樓之１","OBJECTID":485111},"geometry":{"x":169958.99000000022,"y":2542084.8700000029}},{"attributes":{"ID":485137,"DIS_CODE":0,"TOWNNAME":"東區","LI":"忠孝里","LIN":"39鄰","STREET":"崇明路","SECT":" ","MAREA":" ","LANE":" ","ALLEY":" ","HOUSE_NO":"２７０號十一樓之２","E_COORD97":169958.98999999999,"N_COORD97":2542084.8700000001,"ADDRESS":"崇明路２７０號十一樓之２","OBJECTID":485112},"geometry":{"x":169958.99000000022,"y":2542084.8700000029}},{"attributes":{"ID":485138,"DIS_CODE":0,"TOWNNAME":"東區","LI":"忠孝里","LIN":"39鄰","STREET":"崇明路","SECT":" ","MAREA":" ","LANE":" ","ALLEY":" ","HOUSE_NO":"２７０號十一樓之３","E_COORD97":169958.98999999999,"N_COORD97":2542084.8700000001,"ADDRESS":"崇明路２７０號十一樓之３","OBJECTID":485113},"geometry":{"x":169958.99000000022,"y":2542084.8700000029}},{"attributes":{"ID":485139,"DIS_CODE":0,"TOWNNAME":"麻豆區","LI":"大埕里","LIN":"8鄰","STREET":" ","SECT":" ","MAREA":"大埕","LANE":" ","ALLEY":" ","HOUSE_NO":"１５號之２７","E_COORD97":173168.97886,"N_COORD97":2565369.1929799998,"ADDRESS":"大埕１５號之２７","OBJECTID":485114},"geometry":{"x":173168.97886000201,"y":2565369.1929799989}},{"attributes":{"ID":485140,"DIS_CODE":0,"TOWNNAME":"東區","LI":"忠孝里","LIN":"39鄰","STREET":"崇明路","SECT":" ","MAREA":" ","LANE":" ","ALLEY":" ","HOUSE_NO":"２７０號十一樓之４","E_COORD97":169958.98999999999,"N_COORD97":2542084.8700000001,"ADDRESS":"崇明路２７０號十一樓之４","OBJECTID":485115},"geometry":{"x":169958.99000000022,"y":2542084.8700000029}},{"attributes":{"ID":485141,"DIS_CODE":0,"TOWNNAME":"東區","LI":"忠孝里","LIN":"39鄰","STREET":"崇明路","SECT":" ","MAREA":" ","LANE":" ","ALLEY":" ","HOUSE_NO":"２７０號十一樓之５","E_COORD97":169958.98999999999,"N_COORD97":2542084.8700000001,"ADDRESS":"崇明路２７０號十一樓之５","OBJECTID":485116},"geometry":{"x":169958.99000000022,"y":2542084.8700000029}},{"attributes":{"ID":485142,"DIS_CODE":0,"TOWNNAME":"東區","LI":"忠孝里","LIN":"39鄰","STREET":"崇明路","SECT":" ","MAREA":" ","LANE":" ","ALLEY":" ","HOUSE_NO":"２７０號十一樓之６","E_COORD97":169958.98999999999,"N_COORD97":2542084.8700000001,"ADDRESS":"崇明路２７０號十一樓之６","OBJECTID":485117},"geometry":{"x":169958.99000000022,"y":2542084.8700000029}},{"attributes":{"ID":485143,"DIS_CODE":0,"TOWNNAME":"東區","LI":"忠孝里","LIN":"39鄰","STREET":"崇明路","SECT":" ","MAREA":" ","LANE":" ","ALLEY":" ","HOUSE_NO":"２７０號十二樓","E_COORD97":169958.98999999999,"N_COORD97":2542084.8700000001,"ADDRESS":"崇明路２７０號十二樓","OBJECTID":485118},"geometry":{"x":169958.99000000022,"y":2542084.8700000029}},{"attributes":{"ID":485144,"DIS_CODE":0,"TOWNNAME":"東區","LI":"忠孝里","LIN":"39鄰","STREET":"崇明路","SECT":" ","MAREA":" ","LANE":" ","ALLEY":" ","HOUSE_NO":"２７０號十二樓之１","E_COORD97":169958.98999999999,"N_COORD97":2542084.8700000001,"ADDRESS":"崇明路２７０號十二樓之１","OBJECTID":485119},"geometry":{"x":169958.99000000022,"y":2542084.8700000029}},{"attributes":{"ID":485145,"DIS_CODE":0,"TOWNNAME":"東區","LI":"忠孝里","LIN":"39鄰","STREET":"崇明路","SECT":" ","MAREA":" ","LANE":" ","ALLEY":" ","HOUSE_NO":"２７０號十二樓之２","E_COORD97":169958.98999999999,"N_COORD97":2542084.8700000001,"ADDRESS":"崇明路２７０號十二樓之２","OBJECTID":485120},"geometry":{"x":169958.99000000022,"y":2542084.8700000029}},{"attributes":{"ID":485146,"DIS_CODE":0,"TOWNNAME":"東區","LI":"忠孝里","LIN":"39鄰","STREET":"崇明路","SECT":" ","MAREA":" ","LANE":" ","ALLEY":" ","HOUSE_NO":"２７０號十二樓之３","E_COORD97":169958.98999999999,"N_COORD97":2542084.8700000001,"ADDRESS":"崇明路２７０號十二樓之３","OBJECTID":485121},"geometry":{"x":169958.99000000022,"y":2542084.8700000029}},{"attributes":{"ID":485147,"DIS_CODE":0,"TOWNNAME":"東區","LI":"忠孝里","LIN":"39鄰","STREET":"崇明路","SECT":" ","MAREA":" ","LANE":" ","ALLEY":" ","HOUSE_NO":"２７０號十二樓之４","E_COORD97":169958.98999999999,"N_COORD97":2542084.8700000001,"ADDRESS":"崇明路２７０號十二樓之４","OBJECTID":485122},"geometry":{"x":169958.99000000022,"y":2542084.8700000029}},{"attributes":{"ID":485148,"DIS_CODE":0,"TOWNNAME":"東區","LI":"忠孝里","LIN":"39鄰","STREET":"崇明路","SECT":" ","MAREA":" ","LANE":" ","ALLEY":" ","HOUSE_NO":"２７０號十二樓之５","E_COORD97":169958.98999999999,"N_COORD97":2542084.8700000001,"ADDRESS":"崇明路２７０號十二樓之５","OBJECTID":485123},"geometry":{"x":169958.99000000022,"y":2542084.8700000029}},{"attributes":{"ID":485149,"DIS_CODE":0,"TOWNNAME":"東區","LI":"忠孝里","LIN":"39鄰","STREET":"崇明路","SECT":" ","MAREA":" ","LANE":" ","ALLEY":" ","HOUSE_NO":"２７０號十二樓之６","E_COORD97":169958.98999999999,"N_COORD97":2542084.8700000001,"ADDRESS":"崇明路２７０號十二樓之６","OBJECTID":485124},"geometry":{"x":169958.99000000022,"y":2542084.8700000029}},{"attributes":{"ID":485150,"DIS_CODE":0,"TOWNNAME":"東區","LI":"忠孝里","LIN":"39鄰","STREET":"崇明路","SECT":" ","MAREA":" ","LANE":" ","ALLEY":" ","HOUSE_NO":"２７０號十三樓","E_COORD97":169958.98999999999,"N_COORD97":2542084.8700000001,"ADDRESS":"崇明路２７０號十三樓","OBJECTID":485125},"geometry":{"x":169958.99000000022,"y":2542084.8700000029}},{"attributes":{"ID":485151,"DIS_CODE":0,"TOWNNAME":"東區","LI":"忠孝里","LIN":"39鄰","STREET":"崇明路","SECT":" ","MAREA":" ","LANE":" ","ALLEY":" ","HOUSE_NO":"２７０號十三樓之１","E_COORD97":169958.98999999999,"N_COORD97":2542084.8700000001,"ADDRESS":"崇明路２７０號十三樓之１","OBJECTID":485126},"geometry":{"x":169958.99000000022,"y":2542084.8700000029}},{"attributes":{"ID":485152,"DIS_CODE":0,"TOWNNAME":"東區","LI":"忠孝里","LIN":"39鄰","STREET":"崇明路","SECT":" ","MAREA":" ","LANE":" ","ALLEY":" ","HOUSE_NO":"２７０號十三樓之２","E_COORD97":169958.98999999999,"N_COORD97":2542084.8700000001,"ADDRESS":"崇明路２７０號十三樓之２","OBJECTID":485127},"geometry":{"x":169958.99000000022,"y":2542084.8700000029}},{"attributes":{"ID":485153,"DIS_CODE":0,"TOWNNAME":"佳里區","LI":"建南里","LIN":"32鄰","STREET":"南勢街","SECT":" ","MAREA":" ","LANE":" ","ALLEY":" ","HOUSE_NO":"２３６號","E_COORD97":165667.91,"N_COORD97":2560736.98,"ADDRESS":"南勢街２３６號","OBJECTID":485128},"geometry":{"x":165667.91000000201,"y":2560736.9800000023}},{"attributes":{"ID":485154,"DIS_CODE":0,"TOWNNAME":"東區","LI":"忠孝里","LIN":"39鄰","STREET":"崇明路","SECT":" ","MAREA":" ","LANE":" ","ALLEY":" ","HOUSE_NO":"２７０號十三樓之３","E_COORD97":169958.98999999999,"N_COORD97":2542084.8700000001,"ADDRESS":"崇明路２７０號十三樓之３","OBJECTID":485129},"geometry":{"x":169958.99000000022,"y":2542084.8700000029}},{"attributes":{"ID":485155,"DIS_CODE":0,"TOWNNAME":"東區","LI":"忠孝里","LIN":"39鄰","STREET":"崇明路","SECT":" ","MAREA":" ","LANE":" ","ALLEY":" ","HOUSE_NO":"２７０號十三樓之４","E_COORD97":169958.98999999999,"N_COORD97":2542084.8700000001,"ADDRESS":"崇明路２７０號十三樓之４","OBJECTID":485130},"geometry":{"x":169958.99000000022,"y":2542084.8700000029}},{"attributes":{"ID":485156,"DIS_CODE":0,"TOWNNAME":"佳里區","LI":"建南里","LIN":"32鄰","STREET":"南勢街","SECT":" ","MAREA":" ","LANE":" ","ALLEY":" ","HOUSE_NO":"２４０號","E_COORD97":165668.97,"N_COORD97":2560752.79,"ADDRESS":"南勢街２４０號","OBJECTID":485131},"geometry":{"x":165668.97000000067,"y":2560752.7900000028}},{"attributes":{"ID":485157,"DIS_CODE":0,"TOWNNAME":"東區","LI":"忠孝里","LIN":"39鄰","STREET":"崇明路","SECT":" ","MAREA":" ","LANE":" ","ALLEY":" ","HOUSE_NO":"２７０號十三樓之５","E_COORD97":169958.98999999999,"N_COORD97":2542084.8700000001,"ADDRESS":"崇明路２７０號十三樓之５","OBJECTID":485132},"geometry":{"x":169958.99000000022,"y":2542084.8700000029}},{"attributes":{"ID":485158,"DIS_CODE":0,"TOWNNAME":"東區","LI":"忠孝里","LIN":"39鄰","STREET":"崇明路","SECT":" ","MAREA":" ","LANE":" ","ALLEY":" ","HOUSE_NO":"２７０號十三樓之６","E_COORD97":169958.98999999999,"N_COORD97":2542084.8700000001,"ADDRESS":"崇明路２７０號十三樓之６","OBJECTID":485133},"geometry":{"x":169958.99000000022,"y":2542084.8700000029}},{"attributes":{"ID":485159,"DIS_CODE":0,"TOWNNAME":"東區","LI":"忠孝里","LIN":"39鄰","STREET":"崇明路","SECT":" ","MAREA":" ","LANE":" ","ALLEY":" ","HOUSE_NO":"２７０號十五樓","E_COORD97":169958.98999999999,"N_COORD97":2542084.8700000001,"ADDRESS":"崇明路２７０號十五樓","OBJECTID":485134},"geometry":{"x":169958.99000000022,"y":2542084.8700000029}},{"attributes":{"ID":485160,"DIS_CODE":0,"TOWNNAME":"東區","LI":"忠孝里","LIN":"39鄰","STREET":"崇明路","SECT":" ","MAREA":" ","LANE":" ","ALLEY":" ","HOUSE_NO":"２７０號十五樓之１","E_COORD97":169958.98999999999,"N_COORD97":2542084.8700000001,"ADDRESS":"崇明路２７０號十五樓之１","OBJECTID":485135},"geometry":{"x":169958.99000000022,"y":2542084.8700000029}},{"attributes":{"ID":485161,"DIS_CODE":0,"TOWNNAME":"東區","LI":"忠孝里","LIN":"39鄰","STREET":"崇明路","SECT":" ","MAREA":" ","LANE":" ","ALLEY":" ","HOUSE_NO":"２７０號十五樓之２","E_COORD97":169958.98999999999,"N_COORD97":2542084.8700000001,"ADDRESS":"崇明路２７０號十五樓之２","OBJECTID":485136},"geometry":{"x":169958.99000000022,"y":2542084.8700000029}},{"attributes":{"ID":485162,"DIS_CODE":0,"TOWNNAME":"東區","LI":"忠孝里","LIN":"39鄰","STREET":"崇明路","SECT":" ","MAREA":" ","LANE":" ","ALLEY":" ","HOUSE_NO":"２７０號十五樓之３","E_COORD97":169958.98999999999,"N_COORD97":2542084.8700000001,"ADDRESS":"崇明路２７０號十五樓之３","OBJECTID":485137},"geometry":{"x":169958.99000000022,"y":2542084.8700000029}},{"attributes":{"ID":485163,"DIS_CODE":0,"TOWNNAME":"東區","LI":"忠孝里","LIN":"39鄰","STREET":"崇明路","SECT":" ","MAREA":" ","LANE":" ","ALLEY":" ","HOUSE_NO":"２７０號十五樓之４","E_COORD97":169958.98999999999,"N_COORD97":2542084.8700000001,"ADDRESS":"崇明路２７０號十五樓之４","OBJECTID":485138},"geometry":{"x":169958.99000000022,"y":2542084.8700000029}},{"attributes":{"ID":485164,"DIS_CODE":0,"TOWNNAME":"東區","LI":"忠孝里","LIN":"39鄰","STREET":"崇明路","SECT":" ","MAREA":" ","LANE":" ","ALLEY":" ","HOUSE_NO":"２７０號四樓之６","E_COORD97":169958.98999999999,"N_COORD97":2542084.8700000001,"ADDRESS":"崇明路２７０號四樓之６","OBJECTID":485139},"geometry":{"x":169958.99000000022,"y":2542084.8700000029}},{"attributes":{"ID":485165,"DIS_CODE":0,"TOWNNAME":"東區","LI":"忠孝里","LIN":"39鄰","STREET":"崇明路","SECT":" ","MAREA":" ","LANE":" ","ALLEY":" ","HOUSE_NO":"２７０號十五樓之５","E_COORD97":169958.98999999999,"N_COORD97":2542084.8700000001,"ADDRESS":"崇明路２７０號十五樓之５","OBJECTID":485140},"geometry":{"x":169958.99000000022,"y":2542084.8700000029}},{"attributes":{"ID":485166,"DIS_CODE":0,"TOWNNAME":"東區","LI":"忠孝里","LIN":"39鄰","STREET":"崇明路","SECT":" ","MAREA":" ","LANE":" ","ALLEY":" ","HOUSE_NO":"２７０號十五樓之６","E_COORD97":169958.98999999999,"N_COORD97":2542084.8700000001,"ADDRESS":"崇明路２７０號十五樓之６","OBJECTID":485141},"geometry":{"x":169958.99000000022,"y":2542084.8700000029}},{"attributes":{"ID":485167,"DIS_CODE":0,"TOWNNAME":"東區","LI":"忠孝里","LIN":"39鄰","STREET":"崇明路","SECT":" ","MAREA":" ","LANE":" ","ALLEY":" ","HOUSE_NO":"２７０號十四樓","E_COORD97":169958.98999999999,"N_COORD97":2542084.8700000001,"ADDRESS":"崇明路２７０號十四樓","OBJECTID":485142},"geometry":{"x":169958.99000000022,"y":2542084.8700000029}},{"attributes":{"ID":485168,"DIS_CODE":0,"TOWNNAME":"東區","LI":"忠孝里","LIN":"39鄰","STREET":"崇明路","SECT":" ","MAREA":" ","LANE":" ","ALLEY":" ","HOUSE_NO":"２７０號十四樓之１","E_COORD97":169958.98999999999,"N_COORD97":2542084.8700000001,"ADDRESS":"崇明路２７０號十四樓之１","OBJECTID":485143},"geometry":{"x":169958.99000000022,"y":2542084.8700000029}},{"attributes":{"ID":485169,"DIS_CODE":0,"TOWNNAME":"東區","LI":"忠孝里","LIN":"39鄰","STREET":"崇明路","SECT":" ","MAREA":" ","LANE":" ","ALLEY":" ","HOUSE_NO":"２７０號十四樓之２","E_COORD97":169958.98999999999,"N_COORD97":2542084.8700000001,"ADDRESS":"崇明路２７０號十四樓之２","OBJECTID":485144},"geometry":{"x":169958.99000000022,"y":2542084.8700000029}},{"attributes":{"ID":485170,"DIS_CODE":0,"TOWNNAME":"東區","LI":"忠孝里","LIN":"39鄰","STREET":"崇明路","SECT":" ","MAREA":" ","LANE":" ","ALLEY":" ","HOUSE_NO":"２７０號十四樓之３","E_COORD97":169958.98999999999,"N_COORD97":2542084.8700000001,"ADDRESS":"崇明路２７０號十四樓之３","OBJECTID":485145},"geometry":{"x":169958.99000000022,"y":2542084.8700000029}},{"attributes":{"ID":485171,"DIS_CODE":0,"TOWNNAME":"東區","LI":"忠孝里","LIN":"39鄰","STREET":"崇明路","SECT":" ","MAREA":" ","LANE":" ","ALLEY":" ","HOUSE_NO":"２７０號十四樓之４","E_COORD97":169958.98999999999,"N_COORD97":2542084.8700000001,"ADDRESS":"崇明路２７０號十四樓之４","OBJECTID":485146},"geometry":{"x":169958.99000000022,"y":2542084.8700000029}},{"attributes":{"ID":485172,"DIS_CODE":0,"TOWNNAME":"東區","LI":"忠孝里","LIN":"39鄰","STREET":"崇明路","SECT":" ","MAREA":" ","LANE":" ","ALLEY":" ","HOUSE_NO":"２７０號十四樓之５","E_COORD97":169958.98999999999,"N_COORD97":2542084.8700000001,"ADDRESS":"崇明路２７０號十四樓之５","OBJECTID":485147},"geometry":{"x":169958.99000000022,"y":2542084.8700000029}},{"attributes":{"ID":485173,"DIS_CODE":0,"TOWNNAME":"東區","LI":"忠孝里","LIN":"39鄰","STREET":"崇明路","SECT":" ","MAREA":" ","LANE":" ","ALLEY":" ","HOUSE_NO":"２７０號十四樓之６","E_COORD97":169958.98999999999,"N_COORD97":2542084.8700000001,"ADDRESS":"崇明路２７０號十四樓之６","OBJECTID":485148},"geometry":{"x":169958.99000000022,"y":2542084.8700000029}},{"attributes":{"ID":485174,"DIS_CODE":0,"TOWNNAME":"東區","LI":"忠孝里","LIN":"39鄰","STREET":"崇明路","SECT":" ","MAREA":" ","LANE":" ","ALLEY":" ","HOUSE_NO":"２７０號十樓","E_COORD97":169958.98999999999,"N_COORD97":2542084.8700000001,"ADDRESS":"崇明路２７０號十樓","OBJECTID":485149},"geometry":{"x":169958.99000000022,"y":2542084.8700000029}},{"attributes":{"ID":485175,"DIS_CODE":0,"TOWNNAME":"東區","LI":"忠孝里","LIN":"39鄰","STREET":"崇明路","SECT":" ","MAREA":" ","LANE":" ","ALLEY":" ","HOUSE_NO":"２７０號十樓之１","E_COORD97":169958.98999999999,"N_COORD97":2542084.8700000001,"ADDRESS":"崇明路２７０號十樓之１","OBJECTID":485150},"geometry":{"x":169958.99000000022,"y":2542084.8700000029}},{"attributes":{"ID":485176,"DIS_CODE":0,"TOWNNAME":"東區","LI":"忠孝里","LIN":"39鄰","STREET":"崇明路","SECT":" ","MAREA":" ","LANE":" ","ALLEY":" ","HOUSE_NO":"２７０號十樓之２","E_COORD97":169958.98999999999,"N_COORD97":2542084.8700000001,"ADDRESS":"崇明路２７０號十樓之２","OBJECTID":485151},"geometry":{"x":169958.99000000022,"y":2542084.8700000029}},{"attributes":{"ID":485177,"DIS_CODE":0,"TOWNNAME":"東區","LI":"忠孝里","LIN":"39鄰","STREET":"崇明路","SECT":" ","MAREA":" ","LANE":" ","ALLEY":" ","HOUSE_NO":"２７０號十樓之３","E_COORD97":169958.98999999999,"N_COORD97":2542084.8700000001,"ADDRESS":"崇明路２７０號十樓之３","OBJECTID":485152},"geometry":{"x":169958.99000000022,"y":2542084.8700000029}},{"attributes":{"ID":485178,"DIS_CODE":0,"TOWNNAME":"東區","LI":"忠孝里","LIN":"39鄰","STREET":"崇明路","SECT":" ","MAREA":" ","LANE":" ","ALLEY":" ","HOUSE_NO":"２７０號十樓之４","E_COORD97":169958.98999999999,"N_COORD97":2542084.8700000001,"ADDRESS":"崇明路２７０號十樓之４","OBJECTID":485153},"geometry":{"x":169958.99000000022,"y":2542084.8700000029}},{"attributes":{"ID":485179,"DIS_CODE":0,"TOWNNAME":"東區","LI":"忠孝里","LIN":"39鄰","STREET":"崇明路","SECT":" ","MAREA":" ","LANE":" ","ALLEY":" ","HOUSE_NO":"２７０號十樓之５","E_COORD97":169958.98999999999,"N_COORD97":2542084.8700000001,"ADDRESS":"崇明路２７０號十樓之５","OBJECTID":485154},"geometry":{"x":169958.99000000022,"y":2542084.8700000029}},{"attributes":{"ID":485180,"DIS_CODE":0,"TOWNNAME":"東區","LI":"忠孝里","LIN":"39鄰","STREET":"崇明路","SECT":" ","MAREA":" ","LANE":" ","ALLEY":" ","HOUSE_NO":"２７０號十樓之６","E_COORD97":169958.98999999999,"N_COORD97":2542084.8700000001,"ADDRESS":"崇明路２７０號十樓之６","OBJECTID":485155},"geometry":{"x":169958.99000000022,"y":2542084.8700000029}},{"attributes":{"ID":485181,"DIS_CODE":0,"TOWNNAME":"東區","LI":"忠孝里","LIN":"39鄰","STREET":"崇明路","SECT":" ","MAREA":" ","LANE":" ","ALLEY":" ","HOUSE_NO":"２７０號三樓","E_COORD97":169958.98999999999,"N_COORD97":2542084.8700000001,"ADDRESS":"崇明路２７０號三樓","OBJECTID":485156},"geometry":{"x":169958.99000000022,"y":2542084.8700000029}},{"attributes":{"ID":485182,"DIS_CODE":0,"TOWNNAME":"東區","LI":"忠孝里","LIN":"39鄰","STREET":"崇明路","SECT":" ","MAREA":" ","LANE":" ","ALLEY":" ","HOUSE_NO":"２７０號三樓之１","E_COORD97":169958.98999999999,"N_COORD97":2542084.8700000001,"ADDRESS":"崇明路２７０號三樓之１","OBJECTID":485157},"geometry":{"x":169958.99000000022,"y":2542084.8700000029}},{"attributes":{"ID":485183,"DIS_CODE":0,"TOWNNAME":"東區","LI":"忠孝里","LIN":"39鄰","STREET":"崇明路","SECT":" ","MAREA":" ","LANE":" ","ALLEY":" ","HOUSE_NO":"２７０號三樓之２","E_COORD97":169958.98999999999,"N_COORD97":2542084.8700000001,"ADDRESS":"崇明路２７０號三樓之２","OBJECTID":485158},"geometry":{"x":169958.99000000022,"y":2542084.8700000029}},{"attributes":{"ID":485184,"DIS_CODE":0,"TOWNNAME":"東區","LI":"忠孝里","LIN":"39鄰","STREET":"崇明路","SECT":" ","MAREA":" ","LANE":" ","ALLEY":" ","HOUSE_NO":"２７０號三樓之３","E_COORD97":169958.98999999999,"N_COORD97":2542084.8700000001,"ADDRESS":"崇明路２７０號三樓之３","OBJECTID":485159},"geometry":{"x":169958.99000000022,"y":2542084.8700000029}},{"attributes":{"ID":485185,"DIS_CODE":0,"TOWNNAME":"安南區","LI":"安慶里","LIN":"32鄰","STREET":"頂安街","SECT":" ","MAREA":" ","LANE":" ","ALLEY":" ","HOUSE_NO":"４７５號","E_COORD97":168801.95999999999,"N_COORD97":2549312.1499999999,"ADDRESS":"頂安街４７５號","OBJECTID":485160},"geometry":{"x":168801.96000000089,"y":2549312.1500000004}},{"attributes":{"ID":485186,"DIS_CODE":0,"TOWNNAME":"東區","LI":"忠孝里","LIN":"39鄰","STREET":"崇明路","SECT":" ","MAREA":" ","LANE":" ","ALLEY":" ","HOUSE_NO":"２７０號三樓之４","E_COORD97":169958.98999999999,"N_COORD97":2542084.8700000001,"ADDRESS":"崇明路２７０號三樓之４","OBJECTID":485161},"geometry":{"x":169958.99000000022,"y":2542084.8700000029}},{"attributes":{"ID":485187,"DIS_CODE":0,"TOWNNAME":"東區","LI":"忠孝里","LIN":"39鄰","STREET":"崇明路","SECT":" ","MAREA":" ","LANE":" ","ALLEY":" ","HOUSE_NO":"２７０號五樓","E_COORD97":169958.98999999999,"N_COORD97":2542084.8700000001,"ADDRESS":"崇明路２７０號五樓","OBJECTID":485162},"geometry":{"x":169958.99000000022,"y":2542084.8700000029}},{"attributes":{"ID":485188,"DIS_CODE":0,"TOWNNAME":"東區","LI":"忠孝里","LIN":"39鄰","STREET":"崇明路","SECT":" ","MAREA":" ","LANE":" ","ALLEY":" ","HOUSE_NO":"２７０號五樓之１","E_COORD97":169958.98999999999,"N_COORD97":2542084.8700000001,"ADDRESS":"崇明路２７０號五樓之１","OBJECTID":485163},"geometry":{"x":169958.99000000022,"y":2542084.8700000029}},{"attributes":{"ID":485189,"DIS_CODE":0,"TOWNNAME":"東區","LI":"忠孝里","LIN":"39鄰","STREET":"崇明路","SECT":" ","MAREA":" ","LANE":" ","ALLEY":" ","HOUSE_NO":"２７０號五樓之２","E_COORD97":169958.98999999999,"N_COORD97":2542084.8700000001,"ADDRESS":"崇明路２７０號五樓之２","OBJECTID":485164},"geometry":{"x":169958.99000000022,"y":2542084.8700000029}},{"attributes":{"ID":485190,"DIS_CODE":0,"TOWNNAME":"東區","LI":"忠孝里","LIN":"39鄰","STREET":"崇明路","SECT":" ","MAREA":" ","LANE":" ","ALLEY":" ","HOUSE_NO":"２７０號五樓之３","E_COORD97":169958.98999999999,"N_COORD97":2542084.8700000001,"ADDRESS":"崇明路２７０號五樓之３","OBJECTID":485165},"geometry":{"x":169958.99000000022,"y":2542084.8700000029}},{"attributes":{"ID":485191,"DIS_CODE":0,"TOWNNAME":"東區","LI":"忠孝里","LIN":"39鄰","STREET":"崇明路","SECT":" ","MAREA":" ","LANE":" ","ALLEY":" ","HOUSE_NO":"２７０號五樓之４","E_COORD97":169958.98999999999,"N_COORD97":2542084.8700000001,"ADDRESS":"崇明路２７０號五樓之４","OBJECTID":485166},"geometry":{"x":169958.99000000022,"y":2542084.8700000029}},{"attributes":{"ID":485192,"DIS_CODE":0,"TOWNNAME":"東區","LI":"忠孝里","LIN":"39鄰","STREET":"崇明路","SECT":" ","MAREA":" ","LANE":" ","ALLEY":" ","HOUSE_NO":"２７０號五樓之５","E_COORD97":169958.98999999999,"N_COORD97":2542084.8700000001,"ADDRESS":"崇明路２７０號五樓之５","OBJECTID":485167},"geometry":{"x":169958.99000000022,"y":2542084.8700000029}},{"attributes":{"ID":485193,"DIS_CODE":0,"TOWNNAME":"佳里區","LI":"建南里","LIN":"32鄰","STREET":"南勢街","SECT":" ","MAREA":" ","LANE":" ","ALLEY":" ","HOUSE_NO":"２３０號","E_COORD97":165680.97,"N_COORD97":2560737.2200000002,"ADDRESS":"南勢街２３０號","OBJECTID":485168},"geometry":{"x":165680.97000000067,"y":2560737.2200000007}},{"attributes":{"ID":485194,"DIS_CODE":0,"TOWNNAME":"東區","LI":"忠孝里","LIN":"39鄰","STREET":"崇明路","SECT":" ","MAREA":" ","LANE":" ","ALLEY":" ","HOUSE_NO":"２７０號五樓之６","E_COORD97":169958.98999999999,"N_COORD97":2542084.8700000001,"ADDRESS":"崇明路２７０號五樓之６","OBJECTID":485169},"geometry":{"x":169958.99000000022,"y":2542084.8700000029}},{"attributes":{"ID":485195,"DIS_CODE":0,"TOWNNAME":"東區","LI":"忠孝里","LIN":"39鄰","STREET":"崇明路","SECT":" ","MAREA":" ","LANE":" ","ALLEY":" ","HOUSE_NO":"２７０號六樓","E_COORD97":169958.98999999999,"N_COORD97":2542084.8700000001,"ADDRESS":"崇明路２７０號六樓","OBJECTID":485170},"geometry":{"x":169958.99000000022,"y":2542084.8700000029}},{"attributes":{"ID":485196,"DIS_CODE":0,"TOWNNAME":"東區","LI":"忠孝里","LIN":"39鄰","STREET":"崇明路","SECT":" ","MAREA":" ","LANE":" ","ALLEY":" ","HOUSE_NO":"２７０號六樓之１","E_COORD97":169958.98999999999,"N_COORD97":2542084.8700000001,"ADDRESS":"崇明路２７０號六樓之１","OBJECTID":485171},"geometry":{"x":169958.99000000022,"y":2542084.8700000029}},{"attributes":{"ID":485197,"DIS_CODE":0,"TOWNNAME":"東區","LI":"忠孝里","LIN":"39鄰","STREET":"崇明路","SECT":" ","MAREA":" ","LANE":" ","ALLEY":" ","HOUSE_NO":"２７０號六樓之２","E_COORD97":169958.98999999999,"N_COORD97":2542084.8700000001,"ADDRESS":"崇明路２７０號六樓之２","OBJECTID":485172},"geometry":{"x":169958.99000000022,"y":2542084.8700000029}},{"attributes":{"ID":485198,"DIS_CODE":0,"TOWNNAME":"東區","LI":"忠孝里","LIN":"39鄰","STREET":"崇明路","SECT":" ","MAREA":" ","LANE":" ","ALLEY":" ","HOUSE_NO":"２７０號六樓之３","E_COORD97":169958.98999999999,"N_COORD97":2542084.8700000001,"ADDRESS":"崇明路２７０號六樓之３","OBJECTID":485173},"geometry":{"x":169958.99000000022,"y":2542084.8700000029}},{"attributes":{"ID":485199,"DIS_CODE":0,"TOWNNAME":"東區","LI":"忠孝里","LIN":"39鄰","STREET":"崇明路","SECT":" ","MAREA":" ","LANE":" ","ALLEY":" ","HOUSE_NO":"２７０號六樓之４","E_COORD97":169958.98999999999,"N_COORD97":2542084.8700000001,"ADDRESS":"崇明路２７０號六樓之４","OBJECTID":485174},"geometry":{"x":169958.99000000022,"y":2542084.8700000029}},{"attributes":{"ID":485200,"DIS_CODE":0,"TOWNNAME":"東區","LI":"忠孝里","LIN":"39鄰","STREET":"崇明路","SECT":" ","MAREA":" ","LANE":" ","ALLEY":" ","HOUSE_NO":"２７０號六樓之５","E_COORD97":169958.98999999999,"N_COORD97":2542084.8700000001,"ADDRESS":"崇明路２７０號六樓之５","OBJECTID":485175},"geometry":{"x":169958.99000000022,"y":2542084.8700000029}},{"attributes":{"ID":485201,"DIS_CODE":0,"TOWNNAME":"東區","LI":"忠孝里","LIN":"39鄰","STREET":"崇明路","SECT":" ","MAREA":" ","LANE":" ","ALLEY":" ","HOUSE_NO":"２７０號六樓之６","E_COORD97":169958.98999999999,"N_COORD97":2542084.8700000001,"ADDRESS":"崇明路２７０號六樓之６","OBJECTID":485176},"geometry":{"x":169958.99000000022,"y":2542084.8700000029}},{"attributes":{"ID":485202,"DIS_CODE":0,"TOWNNAME":"東區","LI":"忠孝里","LIN":"39鄰","STREET":"崇明路","SECT":" ","MAREA":" ","LANE":" ","ALLEY":" ","HOUSE_NO":"２７０號四樓","E_COORD97":169958.98999999999,"N_COORD97":2542084.8700000001,"ADDRESS":"崇明路２７０號四樓","OBJECTID":485177},"geometry":{"x":169958.99000000022,"y":2542084.8700000029}},{"attributes":{"ID":485203,"DIS_CODE":0,"TOWNNAME":"麻豆區","LI":"大埕里","LIN":"8鄰","STREET":" ","SECT":" ","MAREA":"大埕","LANE":" ","ALLEY":" ","HOUSE_NO":"１５號之２９","E_COORD97":173168.3431,"N_COORD97":2565378.0829799999,"ADDRESS":"大埕１５號之２９","OBJECTID":485178},"geometry":{"x":173168.34309999924,"y":2565378.0829799995}},{"attributes":{"ID":485204,"DIS_CODE":0,"TOWNNAME":"東區","LI":"忠孝里","LIN":"39鄰","STREET":"崇明路","SECT":" ","MAREA":" ","LANE":" ","ALLEY":" ","HOUSE_NO":"２７０號四樓之１","E_COORD97":169958.98999999999,"N_COORD97":2542084.8700000001,"ADDRESS":"崇明路２７０號四樓之１","OBJECTID":485179},"geometry":{"x":169958.99000000022,"y":2542084.8700000029}},{"attributes":{"ID":485205,"DIS_CODE":0,"TOWNNAME":"東區","LI":"忠孝里","LIN":"39鄰","STREET":"崇明路","SECT":" ","MAREA":" ","LANE":" ","ALLEY":" ","HOUSE_NO":"２７０號四樓之２","E_COORD97":169958.98999999999,"N_COORD97":2542084.8700000001,"ADDRESS":"崇明路２７０號四樓之２","OBJECTID":485180},"geometry":{"x":169958.99000000022,"y":2542084.8700000029}},{"attributes":{"ID":485206,"DIS_CODE":0,"TOWNNAME":"東區","LI":"忠孝里","LIN":"39鄰","STREET":"崇明路","SECT":" ","MAREA":" ","LANE":" ","ALLEY":" ","HOUSE_NO":"２７０號四樓之３","E_COORD97":169958.98999999999,"N_COORD97":2542084.8700000001,"ADDRESS":"崇明路２７０號四樓之３","OBJECTID":485181},"geometry":{"x":169958.99000000022,"y":2542084.8700000029}},{"attributes":{"ID":485207,"DIS_CODE":0,"TOWNNAME":"東區","LI":"忠孝里","LIN":"39鄰","STREET":"崇明路","SECT":" ","MAREA":" ","LANE":" ","ALLEY":" ","HOUSE_NO":"２７０號四樓之７","E_COORD97":169958.98999999999,"N_COORD97":2542084.8700000001,"ADDRESS":"崇明路２７０號四樓之７","OBJECTID":485182},"geometry":{"x":169958.99000000022,"y":2542084.8700000029}},{"attributes":{"ID":485208,"DIS_CODE":0,"TOWNNAME":"東區","LI":"忠孝里","LIN":"39鄰","STREET":"崇明路","SECT":" ","MAREA":" ","LANE":" ","ALLEY":" ","HOUSE_NO":"２７０號四樓之５","E_COORD97":169958.98999999999,"N_COORD97":2542084.8700000001,"ADDRESS":"崇明路２７０號四樓之５","OBJECTID":485183},"geometry":{"x":169958.99000000022,"y":2542084.8700000029}},{"attributes":{"ID":485209,"DIS_CODE":0,"TOWNNAME":"仁德區","LI":"後壁里","LIN":"39鄰","STREET":"德安路","SECT":" ","MAREA":" ","LANE":" ","ALLEY":" ","HOUSE_NO":"８８之１號四樓之３","E_COORD97":173467.97,"N_COORD97":2539065.5699999998,"ADDRESS":"德安路８８之１號四樓之３","OBJECTID":485184},"geometry":{"x":173467.96999999974,"y":2539065.5700000022}},{"attributes":{"ID":485210,"DIS_CODE":0,"TOWNNAME":"仁德區","LI":"後壁里","LIN":"39鄰","STREET":"德安路","SECT":" ","MAREA":" ","LANE":" ","ALLEY":" ","HOUSE_NO":"８８之１號六樓之１","E_COORD97":173467.87,"N_COORD97":2539065.5699999998,"ADDRESS":"德安路８８之１號六樓之１","OBJECTID":485185},"geometry":{"x":173467.87000000104,"y":2539065.5700000022}},{"attributes":{"ID":485211,"DIS_CODE":0,"TOWNNAME":"仁德區","LI":"後壁里","LIN":"39鄰","STREET":"德安路","SECT":" ","MAREA":" ","LANE":" ","ALLEY":" ","HOUSE_NO":"８８之１號六樓之５","E_COORD97":173468.03,"N_COORD97":2539065.5699999998,"ADDRESS":"德安路８８之１號六樓之５","OBJECTID":485186},"geometry":{"x":173468.03000000026,"y":2539065.5700000022}},{"attributes":{"ID":485212,"DIS_CODE":0,"TOWNNAME":"仁德區","LI":"後壁里","LIN":"39鄰","STREET":"德安路","SECT":" ","MAREA":" ","LANE":" ","ALLEY":" ","HOUSE_NO":"８８之１號三樓之４","E_COORD97":173467.89999999999,"N_COORD97":2539065.5699999998,"ADDRESS":"德安路８８之１號三樓之４","OBJECTID":485187},"geometry":{"x":173467.90000000224,"y":2539065.5700000022}},{"attributes":{"ID":485213,"DIS_CODE":0,"TOWNNAME":"仁德區","LI":"後壁里","LIN":"39鄰","STREET":"德安路","SECT":" ","MAREA":" ","LANE":" ","ALLEY":" ","HOUSE_NO":"８８之１號五樓之１","E_COORD97":173467.87,"N_COORD97":2539065.5699999998,"ADDRESS":"德安路８８之１號五樓之１","OBJECTID":485188},"geometry":{"x":173467.87000000104,"y":2539065.5700000022}},{"attributes":{"ID":485214,"DIS_CODE":0,"TOWNNAME":"仁德區","LI":"後壁里","LIN":"39鄰","STREET":"德安路","SECT":" ","MAREA":" ","LANE":" ","ALLEY":" ","HOUSE_NO":"８８之１號七樓之３","E_COORD97":173467.97,"N_COORD97":2539065.5699999998,"ADDRESS":"德安路８８之１號七樓之３","OBJECTID":485189},"geometry":{"x":173467.96999999974,"y":2539065.5700000022}},{"attributes":{"ID":485215,"DIS_CODE":0,"TOWNNAME":"仁德區","LI":"後壁里","LIN":"39鄰","STREET":"德安路","SECT":" ","MAREA":" ","LANE":" ","ALLEY":" ","HOUSE_NO":"８８之１號六樓之４","E_COORD97":173467.89999999999,"N_COORD97":2539065.5699999998,"ADDRESS":"德安路８８之１號六樓之４","OBJECTID":485190},"geometry":{"x":173467.90000000224,"y":2539065.5700000022}},{"attributes":{"ID":485216,"DIS_CODE":0,"TOWNNAME":"仁德區","LI":"後壁里","LIN":"39鄰","STREET":"德安路","SECT":" ","MAREA":" ","LANE":" ","ALLEY":" ","HOUSE_NO":"８８之１號七樓之１","E_COORD97":173467.87,"N_COORD97":2539065.5699999998,"ADDRESS":"德安路８８之１號七樓之１","OBJECTID":485191},"geometry":{"x":173467.87000000104,"y":2539065.5700000022}},{"attributes":{"ID":485217,"DIS_CODE":0,"TOWNNAME":"安南區","LI":"安慶里","LIN":"32鄰","STREET":"頂安街","SECT":" ","MAREA":" ","LANE":" ","ALLEY":" ","HOUSE_NO":"４７７號","E_COORD97":168797.72,"N_COORD97":2549311.2599999998,"ADDRESS":"頂安街４７７號","OBJECTID":485192},"geometry":{"x":168797.71999999974,"y":2549311.2600000035}},{"attributes":{"ID":485218,"DIS_CODE":0,"TOWNNAME":"仁德區","LI":"後壁里","LIN":"39鄰","STREET":"德安路","SECT":" ","MAREA":" ","LANE":" ","ALLEY":" ","HOUSE_NO":"８８之１號三樓之３","E_COORD97":173467.97,"N_COORD97":2539065.5699999998,"ADDRESS":"德安路８８之１號三樓之３","OBJECTID":485193},"geometry":{"x":173467.96999999974,"y":2539065.5700000022}},{"attributes":{"ID":485219,"DIS_CODE":0,"TOWNNAME":"仁德區","LI":"後壁里","LIN":"39鄰","STREET":"德安路","SECT":" ","MAREA":" ","LANE":" ","ALLEY":" ","HOUSE_NO":"８８之１號四樓之２","E_COORD97":173468.01000000001,"N_COORD97":2539065.5699999998,"ADDRESS":"德安路８８之１號四樓之２","OBJECTID":485194},"geometry":{"x":173468.00999999885,"y":2539065.5700000022}},{"attributes":{"ID":485220,"DIS_CODE":0,"TOWNNAME":"仁德區","LI":"後壁里","LIN":"39鄰","STREET":"德安路","SECT":" ","MAREA":" ","LANE":" ","ALLEY":" ","HOUSE_NO":"８８之１號七樓之４","E_COORD97":173467.89999999999,"N_COORD97":2539065.5699999998,"ADDRESS":"德安路８８之１號七樓之４","OBJECTID":485195},"geometry":{"x":173467.90000000224,"y":2539065.5700000022}},{"attributes":{"ID":485221,"DIS_CODE":0,"TOWNNAME":"仁德區","LI":"後壁里","LIN":"39鄰","STREET":"德安路","SECT":" ","MAREA":" ","LANE":" ","ALLEY":" ","HOUSE_NO":"８８之１號七樓之５","E_COORD97":173468.03,"N_COORD97":2539065.5699999998,"ADDRESS":"德安路８８之１號七樓之５","OBJECTID":485196},"geometry":{"x":173468.03000000026,"y":2539065.5700000022}},{"attributes":{"ID":485222,"DIS_CODE":0,"TOWNNAME":"永康區","LI":"正強里","LIN":"39鄰","STREET":"中正路","SECT":" ","MAREA":" ","LANE":" ","ALLEY":" ","HOUSE_NO":"２３８號六樓","E_COORD97":173239.51000000001,"N_COORD97":2547913.25,"ADDRESS":"中正路２３８號六樓","OBJECTID":485197},"geometry":{"x":173239.51000000071,"y":2547913.25}},{"attributes":{"ID":485223,"DIS_CODE":0,"TOWNNAME":"永康區","LI":"正強里","LIN":"39鄰","STREET":"中正路","SECT":" ","MAREA":" ","LANE":" ","ALLEY":" ","HOUSE_NO":"２３８號五樓","E_COORD97":173239.51000000001,"N_COORD97":2547913.25,"ADDRESS":"中正路２３８號五樓","OBJECTID":485198},"geometry":{"x":173239.51000000071,"y":2547913.25}},{"attributes":{"ID":485224,"DIS_CODE":0,"TOWNNAME":"永康區","LI":"正強里","LIN":"39鄰","STREET":"中正路","SECT":" ","MAREA":" ","LANE":" ","ALLEY":" ","HOUSE_NO":"２３２號六樓","E_COORD97":173259.45999999999,"N_COORD97":2547907.5,"ADDRESS":"中正路２３２號六樓","OBJECTID":485199},"geometry":{"x":173259.45999999996,"y":2547907.5000000019}},{"attributes":{"ID":485225,"DIS_CODE":0,"TOWNNAME":"永康區","LI":"正強里","LIN":"39鄰","STREET":"中正路","SECT":" ","MAREA":" ","LANE":" ","ALLEY":" ","HOUSE_NO":"２４２號十樓","E_COORD97":173228.26999999999,"N_COORD97":2547919,"ADDRESS":"中正路２４２號十樓","OBJECTID":485200},"geometry":{"x":173228.26999999955,"y":2547919}}]}