{"displayFieldName":"TOWNNAME","fieldAliases":{"ID":"ID","DIS_CODE":"DIS_CODE","TOWNNAME":"TOWNNAME","LI":"LI","LIN":"LIN","STREET":"STREET","SECT":"SECT","MAREA":"MAREA","LANE":"LANE","ALLEY":"ALLEY","HOUSE_NO":"HOUSE_NO","E_COORD97":"E_COORD97","N_COORD97":"N_COORD97","ADDRESS":"ADDRESS","OBJECTID":"OBJECTID"},"geometryType":"esriGeometryPoint","spatialReference":{"wkid":102443,"latestWkid":3826},"fields":[{"name":"ID","type":"esriFieldTypeDouble","alias":"ID"},{"name":"DIS_CODE","type":"esriFieldTypeInteger","alias":"DIS_CODE"},{"name":"TOWNNAME","type":"esriFieldTypeString","alias":"TOWNNAME","length":8},{"name":"LI","type":"esriFieldTypeString","alias":"LI","length":8},{"name":"LIN","type":"esriFieldTypeString","alias":"LIN","length":12},{"name":"STREET","type":"esriFieldTypeString","alias":"STREET","length":20},{"name":"SECT","type":"esriFieldTypeString","alias":"SECT","length":8},{"name":"MAREA","type":"esriFieldTypeString","alias":"MAREA","length":12},{"name":"LANE","type":"esriFieldTypeString","alias":"LANE","length":10},{"name":"ALLEY","type":"esriFieldTypeString","alias":"ALLEY","length":10},{"name":"HOUSE_NO","type":"esriFieldTypeString","alias":"HOUSE_NO","length":20},{"name":"E_COORD97","type":"esriFieldTypeDouble","alias":"E_COORD97"},{"name":"N_COORD97","type":"esriFieldTypeDouble","alias":"N_COORD97"},{"name":"ADDRESS","type":"esriFieldTypeString","alias":"ADDRESS","length":50},{"name":"OBJECTID","type":"esriFieldTypeOID","alias":"OBJECTID"}],"features":[{"attributes":{"ID":501828,"DIS_CODE":0,"TOWNNAME":"佳里區","LI":"安西里","LIN":"7鄰","STREET":"中山路","SECT":" ","MAREA":" ","LANE":" ","ALLEY":" ","HOUSE_NO":"３５１號","E_COORD97":165683.39000000001,"N_COORD97":2562525.5600000001,"ADDRESS":"中山路３５１號","OBJECTID":501801},"geometry":{"x":165683.3900000006,"y":2562525.5600000042}},{"attributes":{"ID":501829,"DIS_CODE":0,"TOWNNAME":"永康區","LI":"\u25A0行里","LIN":"7鄰","STREET":"中正三街","SECT":" ","MAREA":" ","LANE":" ","ALLEY":" ","HOUSE_NO":"２３之１號","E_COORD97":172398.98000000001,"N_COORD97":2548560.4700000002,"ADDRESS":"中正三街２３之１號","OBJECTID":501802},"geometry":{"x":172398.98000000045,"y":2548560.4700000007}},{"attributes":{"ID":501830,"DIS_CODE":0,"TOWNNAME":"佳里區","LI":"建南里","LIN":"7鄰","STREET":"中山路","SECT":" ","MAREA":" ","LANE":" ","ALLEY":" ","HOUSE_NO":"２２１號","E_COORD97":165710.64000000001,"N_COORD97":2562191.21,"ADDRESS":"中山路２２１號","OBJECTID":501803},"geometry":{"x":165710.6400000006,"y":2562191.2100000009}},{"attributes":{"ID":501831,"DIS_CODE":0,"TOWNNAME":"佳里區","LI":"建南里","LIN":"7鄰","STREET":"中山路","SECT":" ","MAREA":" ","LANE":" ","ALLEY":" ","HOUSE_NO":"２２３號","E_COORD97":165712.51000000001,"N_COORD97":2562200.1000000001,"ADDRESS":"中山路２２３號","OBJECTID":501804},"geometry":{"x":165712.50999999885,"y":2562200.1000000015}},{"attributes":{"ID":501832,"DIS_CODE":0,"TOWNNAME":"佳里區","LI":"建南里","LIN":"7鄰","STREET":"中山路","SECT":" ","MAREA":" ","LANE":" ","ALLEY":" ","HOUSE_NO":"２２７號之１","E_COORD97":165708.35000000001,"N_COORD97":2562221.9500000002,"ADDRESS":"中山路２２７號之１","OBJECTID":501805},"geometry":{"x":165708.3499999987,"y":2562221.9499999993}},{"attributes":{"ID":501833,"DIS_CODE":0,"TOWNNAME":"佳里區","LI":"建南里","LIN":"7鄰","STREET":"中山路","SECT":" ","MAREA":" ","LANE":" ","ALLEY":" ","HOUSE_NO":"２２７號","E_COORD97":165712.19,"N_COORD97":2562217.96,"ADDRESS":"中山路２２７號","OBJECTID":501806},"geometry":{"x":165712.19000000134,"y":2562217.9600000009}},{"attributes":{"ID":501834,"DIS_CODE":0,"TOWNNAME":"佳里區","LI":"建南里","LIN":"7鄰","STREET":"中山路","SECT":" ","MAREA":" ","LANE":" ","ALLEY":" ","HOUSE_NO":"２２９號","E_COORD97":165710.87,"N_COORD97":2562226.52,"ADDRESS":"中山路２２９號","OBJECTID":501807},"geometry":{"x":165710.87000000104,"y":2562226.5200000033}},{"attributes":{"ID":501835,"DIS_CODE":0,"TOWNNAME":"佳里區","LI":"建南里","LIN":"7鄰","STREET":"中山路","SECT":" ","MAREA":" ","LANE":" ","ALLEY":" ","HOUSE_NO":"２３１號","E_COORD97":165710.10000000001,"N_COORD97":2562230.27,"ADDRESS":"中山路２３１號","OBJECTID":501808},"geometry":{"x":165710.10000000149,"y":2562230.2699999996}},{"attributes":{"ID":501836,"DIS_CODE":0,"TOWNNAME":"佳里區","LI":"建南里","LIN":"7鄰","STREET":"中山路","SECT":" ","MAREA":" ","LANE":" ","ALLEY":" ","HOUSE_NO":"２３３號","E_COORD97":165709.60999999999,"N_COORD97":2562234.3900000001,"ADDRESS":"中山路２３３號","OBJECTID":501809},"geometry":{"x":165709.61000000127,"y":2562234.3900000006}},{"attributes":{"ID":501837,"DIS_CODE":0,"TOWNNAME":"佳里區","LI":"建南里","LIN":"7鄰","STREET":"中山路","SECT":" ","MAREA":" ","LANE":" ","ALLEY":" ","HOUSE_NO":"２３５號","E_COORD97":165710.17000000001,"N_COORD97":2562239.23,"ADDRESS":"中山路２３５號","OBJECTID":501810},"geometry":{"x":165710.17000000086,"y":2562239.2300000004}},{"attributes":{"ID":501838,"DIS_CODE":0,"TOWNNAME":"佳里區","LI":"建南里","LIN":"7鄰","STREET":"中山路","SECT":" ","MAREA":" ","LANE":" ","ALLEY":" ","HOUSE_NO":"２３７號","E_COORD97":165709.29000000001,"N_COORD97":2562243.4399999999,"ADDRESS":"中山路２３７號","OBJECTID":501811},"geometry":{"x":165709.2900000019,"y":2562243.4399999995}},{"attributes":{"ID":501839,"DIS_CODE":0,"TOWNNAME":"佳里區","LI":"建南里","LIN":"7鄰","STREET":"中山路","SECT":" ","MAREA":" ","LANE":" ","ALLEY":" ","HOUSE_NO":"２３９號","E_COORD97":165708.42999999999,"N_COORD97":2562247.3999999999,"ADDRESS":"中山路２３９號","OBJECTID":501812},"geometry":{"x":165708.43000000063,"y":2562247.4000000004}},{"attributes":{"ID":501840,"DIS_CODE":0,"TOWNNAME":"佳里區","LI":"建南里","LIN":"7鄰","STREET":"中山路","SECT":" ","MAREA":" ","LANE":" ","ALLEY":" ","HOUSE_NO":"２４１號","E_COORD97":165707.79999999999,"N_COORD97":2562251.54,"ADDRESS":"中山路２４１號","OBJECTID":501813},"geometry":{"x":165707.80000000075,"y":2562251.5399999991}},{"attributes":{"ID":501841,"DIS_CODE":0,"TOWNNAME":"佳里區","LI":"建南里","LIN":"7鄰","STREET":"中山路","SECT":" ","MAREA":" ","LANE":" ","ALLEY":" ","HOUSE_NO":"２４３號","E_COORD97":165706.89000000001,"N_COORD97":2562255.3599999999,"ADDRESS":"中山路２４３號","OBJECTID":501814},"geometry":{"x":165706.8900000006,"y":2562255.3600000013}},{"attributes":{"ID":501842,"DIS_CODE":0,"TOWNNAME":"佳里區","LI":"建南里","LIN":"7鄰","STREET":"中山路","SECT":" ","MAREA":" ","LANE":" ","ALLEY":" ","HOUSE_NO":"２４５號","E_COORD97":165706.23000000001,"N_COORD97":2562259.1299999999,"ADDRESS":"中山路２４５號","OBJECTID":501815},"geometry":{"x":165706.23000000045,"y":2562259.1300000027}},{"attributes":{"ID":501843,"DIS_CODE":0,"TOWNNAME":"佳里區","LI":"建南里","LIN":"7鄰","STREET":"中山路","SECT":" ","MAREA":" ","LANE":" ","ALLEY":" ","HOUSE_NO":"２４７號","E_COORD97":165705.5,"N_COORD97":2562263.6800000002,"ADDRESS":"中山路２４７號","OBJECTID":501816},"geometry":{"x":165705.5,"y":2562263.6800000016}},{"attributes":{"ID":501844,"DIS_CODE":0,"TOWNNAME":"佳里區","LI":"鎮山里","LIN":"7鄰","STREET":"中興街","SECT":" ","MAREA":" ","LANE":" ","ALLEY":" ","HOUSE_NO":"２７３號","E_COORD97":166145.85000000001,"N_COORD97":2561677.7000000002,"ADDRESS":"中興街２７３號","OBJECTID":501817},"geometry":{"x":166145.85000000149,"y":2561677.6999999993}},{"attributes":{"ID":501845,"DIS_CODE":0,"TOWNNAME":"東區","LI":"大同里","LIN":"7鄰","STREET":"大同路","SECT":"一段","MAREA":" ","LANE":" ","ALLEY":" ","HOUSE_NO":"１０９號","E_COORD97":169152.31,"N_COORD97":2542982.04,"ADDRESS":"大同路一段１０９號","OBJECTID":501818},"geometry":{"x":169152.31000000052,"y":2542982.0399999972}},{"attributes":{"ID":501846,"DIS_CODE":0,"TOWNNAME":"東區","LI":"大同里","LIN":"7鄰","STREET":"大同路","SECT":"一段","MAREA":" ","LANE":" ","ALLEY":" ","HOUSE_NO":"１１１號","E_COORD97":169152.85999999999,"N_COORD97":2542974.1699999999,"ADDRESS":"大同路一段１１１號","OBJECTID":501819},"geometry":{"x":169152.86000000127,"y":2542974.1699999999}},{"attributes":{"ID":501847,"DIS_CODE":0,"TOWNNAME":"東區","LI":"大同里","LIN":"7鄰","STREET":"大同路","SECT":"一段","MAREA":" ","LANE":" ","ALLEY":" ","HOUSE_NO":"１１３號","E_COORD97":169150.37,"N_COORD97":2542968.5099999998,"ADDRESS":"大同路一段１１３號","OBJECTID":501820},"geometry":{"x":169150.37000000104,"y":2542968.5099999998}},{"attributes":{"ID":501848,"DIS_CODE":0,"TOWNNAME":"東區","LI":"大同里","LIN":"7鄰","STREET":"大同路","SECT":"一段","MAREA":" ","LANE":" ","ALLEY":" ","HOUSE_NO":"７５號","E_COORD97":169158.39000000001,"N_COORD97":2543056.4199999999,"ADDRESS":"大同路一段７５號","OBJECTID":501821},"geometry":{"x":169158.3900000006,"y":2543056.4200000018}},{"attributes":{"ID":501849,"DIS_CODE":0,"TOWNNAME":"東區","LI":"大同里","LIN":"7鄰","STREET":"大同路","SECT":"一段","MAREA":" ","LANE":" ","ALLEY":" ","HOUSE_NO":"７７號","E_COORD97":169158.10999999999,"N_COORD97":2543051.5899999999,"ADDRESS":"大同路一段７７號","OBJECTID":501822},"geometry":{"x":169158.11000000034,"y":2543051.5900000017}},{"attributes":{"ID":501850,"DIS_CODE":0,"TOWNNAME":"東區","LI":"大同里","LIN":"7鄰","STREET":"大同路","SECT":"一段","MAREA":" ","LANE":" ","ALLEY":" ","HOUSE_NO":"７９號","E_COORD97":169159.22,"N_COORD97":2543046.2000000002,"ADDRESS":"大同路一段７９號","OBJECTID":501823},"geometry":{"x":169159.2200000016,"y":2543046.2000000011}},{"attributes":{"ID":501851,"DIS_CODE":0,"TOWNNAME":"東區","LI":"大同里","LIN":"7鄰","STREET":"大同路","SECT":"一段","MAREA":" ","LANE":" ","ALLEY":" ","HOUSE_NO":"８１號","E_COORD97":169159.63,"N_COORD97":2543041.6499999999,"ADDRESS":"大同路一段８１號","OBJECTID":501824},"geometry":{"x":169159.62999999989,"y":2543041.6500000022}},{"attributes":{"ID":501852,"DIS_CODE":0,"TOWNNAME":"東區","LI":"大同里","LIN":"7鄰","STREET":"大同路","SECT":"一段","MAREA":" ","LANE":" ","ALLEY":" ","HOUSE_NO":"８３號","E_COORD97":169157.97,"N_COORD97":2543037.0899999999,"ADDRESS":"大同路一段８３號","OBJECTID":501825},"geometry":{"x":169157.97000000067,"y":2543037.0900000036}},{"attributes":{"ID":501853,"DIS_CODE":0,"TOWNNAME":"東區","LI":"大同里","LIN":"7鄰","STREET":"大同路","SECT":"一段","MAREA":" ","LANE":" ","ALLEY":" ","HOUSE_NO":"８５號","E_COORD97":169158.79999999999,"N_COORD97":2543032.54,"ADDRESS":"大同路一段８５號","OBJECTID":501826},"geometry":{"x":169158.80000000168,"y":2543032.5399999991}},{"attributes":{"ID":501854,"DIS_CODE":0,"TOWNNAME":"東區","LI":"大同里","LIN":"7鄰","STREET":"大同路","SECT":"一段","MAREA":" ","LANE":" ","ALLEY":" ","HOUSE_NO":"８７號","E_COORD97":169160.73999999999,"N_COORD97":2543027.2799999998,"ADDRESS":"大同路一段８７號","OBJECTID":501827},"geometry":{"x":169160.74000000022,"y":2543027.2799999993}},{"attributes":{"ID":501855,"DIS_CODE":0,"TOWNNAME":"東區","LI":"大同里","LIN":"7鄰","STREET":"大同路","SECT":"一段","MAREA":" ","LANE":" ","ALLEY":" ","HOUSE_NO":"８９號","E_COORD97":169157.28,"N_COORD97":2543020.79,"ADDRESS":"大同路一段８９號","OBJECTID":501828},"geometry":{"x":169157.28000000026,"y":2543020.7899999991}},{"attributes":{"ID":501856,"DIS_CODE":0,"TOWNNAME":"東區","LI":"大同里","LIN":"7鄰","STREET":"大同路","SECT":"一段","MAREA":" ","LANE":" ","ALLEY":" ","HOUSE_NO":"９１號","E_COORD97":169158.53,"N_COORD97":2543014.1699999999,"ADDRESS":"大同路一段９１號","OBJECTID":501829},"geometry":{"x":169158.53000000026,"y":2543014.1700000018}},{"attributes":{"ID":501857,"DIS_CODE":0,"TOWNNAME":"東區","LI":"大同里","LIN":"7鄰","STREET":"樹林街","SECT":"一段","MAREA":" ","LANE":" ","ALLEY":" ","HOUSE_NO":"１５０號","E_COORD97":169257.79000000001,"N_COORD97":2543031.25,"ADDRESS":"樹林街一段１５０號","OBJECTID":501830},"geometry":{"x":169257.79000000097,"y":2543031.25}},{"attributes":{"ID":501858,"DIS_CODE":0,"TOWNNAME":"東區","LI":"大同里","LIN":"7鄰","STREET":"樹林街","SECT":"一段","MAREA":" ","LANE":" ","ALLEY":" ","HOUSE_NO":"１５２號","E_COORD97":169254.17999999999,"N_COORD97":2543031,"ADDRESS":"樹林街一段１５２號","OBJECTID":501831},"geometry":{"x":169254.17999999877,"y":2543031.0000000037}},{"attributes":{"ID":501859,"DIS_CODE":0,"TOWNNAME":"東區","LI":"大同里","LIN":"7鄰","STREET":"樹林街","SECT":"一段","MAREA":" ","LANE":" ","ALLEY":" ","HOUSE_NO":"１５４號","E_COORD97":169249.95999999999,"N_COORD97":2543030.75,"ADDRESS":"樹林街一段１５４號","OBJECTID":501832},"geometry":{"x":169249.96000000089,"y":2543030.7500000019}},{"attributes":{"ID":501860,"DIS_CODE":0,"TOWNNAME":"東區","LI":"大同里","LIN":"7鄰","STREET":"樹林街","SECT":"一段","MAREA":" ","LANE":" ","ALLEY":" ","HOUSE_NO":"１５６號","E_COORD97":169246.60999999999,"N_COORD97":2543029.7599999998,"ADDRESS":"樹林街一段１５６號","OBJECTID":501833},"geometry":{"x":169246.61000000034,"y":2543029.7600000016}},{"attributes":{"ID":501861,"DIS_CODE":0,"TOWNNAME":"東區","LI":"大同里","LIN":"7鄰","STREET":"樹林街","SECT":"一段","MAREA":" ","LANE":" ","ALLEY":" ","HOUSE_NO":"１５８號","E_COORD97":169241.76000000001,"N_COORD97":2543032.8599999999,"ADDRESS":"樹林街一段１５８號","OBJECTID":501834},"geometry":{"x":169241.75999999978,"y":2543032.8600000013}},{"attributes":{"ID":501862,"DIS_CODE":0,"TOWNNAME":"東區","LI":"大同里","LIN":"7鄰","STREET":"樹林街","SECT":"一段","MAREA":" ","LANE":" ","ALLEY":" ","HOUSE_NO":"１６０號","E_COORD97":169237.91,"N_COORD97":2543031,"ADDRESS":"樹林街一段１６０號","OBJECTID":501835},"geometry":{"x":169237.91000000201,"y":2543031.0000000037}},{"attributes":{"ID":501863,"DIS_CODE":0,"TOWNNAME":"東區","LI":"大同里","LIN":"7鄰","STREET":"樹林街","SECT":"一段","MAREA":" ","LANE":" ","ALLEY":" ","HOUSE_NO":"１６２號","E_COORD97":169234.67999999999,"N_COORD97":2543028.8900000001,"ADDRESS":"樹林街一段１６２號","OBJECTID":501836},"geometry":{"x":169234.68000000063,"y":2543028.8900000043}},{"attributes":{"ID":501864,"DIS_CODE":0,"TOWNNAME":"東區","LI":"大同里","LIN":"7鄰","STREET":"樹林街","SECT":"一段","MAREA":" ","LANE":" ","ALLEY":" ","HOUSE_NO":"１６４號","E_COORD97":169230.95000000001,"N_COORD97":2543026.2799999998,"ADDRESS":"樹林街一段１６４號","OBJECTID":501837},"geometry":{"x":169230.95000000205,"y":2543026.2800000012}},{"attributes":{"ID":501865,"DIS_CODE":0,"TOWNNAME":"東區","LI":"大同里","LIN":"7鄰","STREET":"樹林街","SECT":"一段","MAREA":" ","LANE":" ","ALLEY":" ","HOUSE_NO":"１６６號","E_COORD97":169226.92000000001,"N_COORD97":2543028.1099999999,"ADDRESS":"樹林街一段１６６號","OBJECTID":501838},"geometry":{"x":169226.91999999993,"y":2543028.1099999994}},{"attributes":{"ID":501866,"DIS_CODE":0,"TOWNNAME":"東區","LI":"大同里","LIN":"7鄰","STREET":"樹林街","SECT":"一段","MAREA":" ","LANE":" ","ALLEY":" ","HOUSE_NO":"１６８號","E_COORD97":169220.42000000001,"N_COORD97":2543026.73,"ADDRESS":"樹林街一段１６８號","OBJECTID":501839},"geometry":{"x":169220.41999999993,"y":2543026.7300000023}},{"attributes":{"ID":501867,"DIS_CODE":0,"TOWNNAME":"東區","LI":"大同里","LIN":"7鄰","STREET":"樹林街","SECT":"一段","MAREA":" ","LANE":" ","ALLEY":" ","HOUSE_NO":"１７０號","E_COORD97":169213.51999999999,"N_COORD97":2543026.04,"ADDRESS":"樹林街一段１７０號","OBJECTID":501840},"geometry":{"x":169213.52000000048,"y":2543026.0399999972}},{"attributes":{"ID":501868,"DIS_CODE":0,"TOWNNAME":"東區","LI":"大同里","LIN":"7鄰","STREET":"樹林街","SECT":"一段","MAREA":" ","LANE":" ","ALLEY":" ","HOUSE_NO":"１７２號","E_COORD97":169208.54000000001,"N_COORD97":2543024.7999999998,"ADDRESS":"樹林街一段１７２號","OBJECTID":501841},"geometry":{"x":169208.54000000097,"y":2543024.8000000007}},{"attributes":{"ID":501869,"DIS_CODE":0,"TOWNNAME":"東區","LI":"大同里","LIN":"7鄰","STREET":"樹林街","SECT":"一段","MAREA":" ","LANE":" ","ALLEY":" ","HOUSE_NO":"１７６號","E_COORD97":169201.22,"N_COORD97":2543023.2799999998,"ADDRESS":"樹林街一段１７６號","OBJECTID":501842},"geometry":{"x":169201.21999999974,"y":2543023.2799999993}},{"attributes":{"ID":501870,"DIS_CODE":0,"TOWNNAME":"永康區","LI":"蔦松里","LIN":"7鄰","STREET":"中正北路","SECT":" ","MAREA":" ","LANE":" ","ALLEY":" ","HOUSE_NO":"５７２號","E_COORD97":174232.54000000001,"N_COORD97":2549430.5,"ADDRESS":"中正北路５７２號","OBJECTID":501843},"geometry":{"x":174232.54000000004,"y":2549430.5}},{"attributes":{"ID":501871,"DIS_CODE":0,"TOWNNAME":"永康區","LI":"東灣里","LIN":"7鄰","STREET":"大灣路","SECT":" ","MAREA":" ","LANE":" ","ALLEY":" ","HOUSE_NO":"３９６號","E_COORD97":174799.20999999999,"N_COORD97":2545048.2400000002,"ADDRESS":"大灣路３９６號","OBJECTID":501844},"geometry":{"x":174799.20999999903,"y":2545048.2400000021}},{"attributes":{"ID":501872,"DIS_CODE":0,"TOWNNAME":"永康區","LI":"甲頂里","LIN":"7鄰","STREET":"中華路","SECT":" ","MAREA":" ","LANE":" ","ALLEY":" ","HOUSE_NO":"９１５號","E_COORD97":170171.48000000001,"N_COORD97":2546879.9900000002,"ADDRESS":"中華路９１５號","OBJECTID":501845},"geometry":{"x":170171.48000000045,"y":2546879.9900000021}},{"attributes":{"ID":501873,"DIS_CODE":0,"TOWNNAME":"永康區","LI":"西勢里","LIN":"7鄰","STREET":"富強路","SECT":"一段","MAREA":" ","LANE":" ","ALLEY":" ","HOUSE_NO":"３０３號","E_COORD97":175712.82000000001,"N_COORD97":2546654.73,"ADDRESS":"富強路一段３０３號","OBJECTID":501846},"geometry":{"x":175712.82000000123,"y":2546654.7300000023}},{"attributes":{"ID":501874,"DIS_CODE":0,"TOWNNAME":"永康區","LI":"南灣里","LIN":"7鄰","STREET":"大灣路","SECT":" ","MAREA":" ","LANE":" ","ALLEY":" ","HOUSE_NO":"５８７號","E_COORD97":174330.85999999999,"N_COORD97":2544538.3300000001,"ADDRESS":"大灣路５８７號","OBJECTID":501847},"geometry":{"x":174330.8600000022,"y":2544538.3300000019}},{"attributes":{"ID":501875,"DIS_CODE":0,"TOWNNAME":"永康區","LI":"西勢里","LIN":"7鄰","STREET":"富強路","SECT":"一段","MAREA":" ","LANE":" ","ALLEY":" ","HOUSE_NO":"２２９號之５","E_COORD97":175643.94,"N_COORD97":2546482.79,"ADDRESS":"富強路一段２２９號之５","OBJECTID":501848},"geometry":{"x":175643.94000000041,"y":2546482.7900000028}},{"attributes":{"ID":501876,"DIS_CODE":0,"TOWNNAME":"永康區","LI":"西勢里","LIN":"7鄰","STREET":"富強路","SECT":"一段","MAREA":" ","LANE":" ","ALLEY":" ","HOUSE_NO":"２２９號之１","E_COORD97":175643.78,"N_COORD97":2546482.79,"ADDRESS":"富強路一段２２９號之１","OBJECTID":501849},"geometry":{"x":175643.78000000119,"y":2546482.7900000028}},{"attributes":{"ID":501877,"DIS_CODE":0,"TOWNNAME":"安南區","LI":"公親里","LIN":"7鄰","STREET":"公學路","SECT":"一段","MAREA":" ","LANE":" ","ALLEY":" ","HOUSE_NO":"７８號","E_COORD97":168412.35999999999,"N_COORD97":2553058.6800000002,"ADDRESS":"公學路一段７８號","OBJECTID":501850},"geometry":{"x":168412.36000000034,"y":2553058.6800000016}},{"attributes":{"ID":501878,"DIS_CODE":0,"TOWNNAME":"安南區","LI":"城北里","LIN":"7鄰","STREET":"安中路","SECT":"六段","MAREA":" ","LANE":" ","ALLEY":" ","HOUSE_NO":"２０６號之１００","E_COORD97":161406.04000000001,"N_COORD97":2551309.2400000002,"ADDRESS":"安中路六段２０６號之１００","OBJECTID":501851},"geometry":{"x":161406.04000000004,"y":2551309.2400000021}},{"attributes":{"ID":501879,"DIS_CODE":0,"TOWNNAME":"下營區","LI":"營前里","LIN":"7鄰","STREET":"中山路","SECT":"二段","MAREA":" ","LANE":" ","ALLEY":" ","HOUSE_NO":"１０７號","E_COORD97":174491.89999999999,"N_COORD97":2570199.52,"ADDRESS":"中山路二段１０７號","OBJECTID":501852},"geometry":{"x":174491.9000000013,"y":2570199.5199999996}},{"attributes":{"ID":501880,"DIS_CODE":0,"TOWNNAME":"下營區","LI":"營前里","LIN":"7鄰","STREET":"中山路","SECT":"二段","MAREA":" ","LANE":" ","ALLEY":" ","HOUSE_NO":"１１３號","E_COORD97":174493.67999999999,"N_COORD97":2570181.8900000001,"ADDRESS":"中山路二段１１３號","OBJECTID":501853},"geometry":{"x":174493.6799999997,"y":2570181.8900000006}},{"attributes":{"ID":501881,"DIS_CODE":0,"TOWNNAME":"下營區","LI":"營前里","LIN":"7鄰","STREET":"中山路","SECT":"二段","MAREA":" ","LANE":" ","ALLEY":" ","HOUSE_NO":"１１５號","E_COORD97":174494.60000000001,"N_COORD97":2570177.6899999999,"ADDRESS":"中山路二段１１５號","OBJECTID":501854},"geometry":{"x":174494.60000000149,"y":2570177.6899999995}},{"attributes":{"ID":501882,"DIS_CODE":0,"TOWNNAME":"下營區","LI":"營前里","LIN":"7鄰","STREET":"中山路","SECT":"二段","MAREA":" ","LANE":" ","ALLEY":" ","HOUSE_NO":"１１９號","E_COORD97":174495.67999999999,"N_COORD97":2570171.8700000001,"ADDRESS":"中山路二段１１９號","OBJECTID":501855},"geometry":{"x":174495.6799999997,"y":2570171.870000001}},{"attributes":{"ID":501883,"DIS_CODE":0,"TOWNNAME":"永康區","LI":"尚頂里","LIN":"7鄰","STREET":"尚頂路","SECT":" ","MAREA":" ","LANE":" ","ALLEY":" ","HOUSE_NO":"６１號","E_COORD97":171143.29000000001,"N_COORD97":2547504.3399999999,"ADDRESS":"尚頂路６１號","OBJECTID":501856},"geometry":{"x":171143.29000000004,"y":2547504.3400000017}},{"attributes":{"ID":501884,"DIS_CODE":0,"TOWNNAME":"永康區","LI":"尚頂里","LIN":"7鄰","STREET":"尚頂路","SECT":" ","MAREA":" ","LANE":" ","ALLEY":" ","HOUSE_NO":"８１號","E_COORD97":171043.57000000001,"N_COORD97":2547604.52,"ADDRESS":"尚頂路８１號","OBJECTID":501857},"geometry":{"x":171043.5700000003,"y":2547604.5200000014}},{"attributes":{"ID":501885,"DIS_CODE":0,"TOWNNAME":"永康區","LI":"尚頂里","LIN":"7鄰","STREET":"尚頂路","SECT":" ","MAREA":" ","LANE":" ","ALLEY":" ","HOUSE_NO":"８２號","E_COORD97":171098.13,"N_COORD97":2547591.1200000001,"ADDRESS":"尚頂路８２號","OBJECTID":501858},"geometry":{"x":171098.13000000082,"y":2547591.1200000048}},{"attributes":{"ID":501886,"DIS_CODE":0,"TOWNNAME":"永康區","LI":"東灣里","LIN":"7鄰","STREET":"大灣路","SECT":" ","MAREA":" ","LANE":" ","ALLEY":" ","HOUSE_NO":"３９４號","E_COORD97":174800.98999999999,"N_COORD97":2545051.2799999998,"ADDRESS":"大灣路３９４號","OBJECTID":501859},"geometry":{"x":174800.98999999929,"y":2545051.2799999993}},{"attributes":{"ID":501887,"DIS_CODE":0,"TOWNNAME":"永康區","LI":"尚頂里","LIN":"7鄰","STREET":"尚頂路","SECT":" ","MAREA":" ","LANE":" ","ALLEY":" ","HOUSE_NO":"６７號","E_COORD97":171111.10999999999,"N_COORD97":2547535.27,"ADDRESS":"尚頂路６７號","OBJECTID":501860},"geometry":{"x":171111.11000000034,"y":2547535.2700000014}},{"attributes":{"ID":501888,"DIS_CODE":0,"TOWNNAME":"永康區","LI":"尚頂里","LIN":"7鄰","STREET":"尚頂路","SECT":" ","MAREA":" ","LANE":" ","ALLEY":" ","HOUSE_NO":"８３號","E_COORD97":171039.57000000001,"N_COORD97":2547607.77,"ADDRESS":"尚頂路８３號","OBJECTID":501861},"geometry":{"x":171039.57000000123,"y":2547607.7699999996}},{"attributes":{"ID":501889,"DIS_CODE":0,"TOWNNAME":"永康區","LI":"尚頂里","LIN":"7鄰","STREET":"中正二街","SECT":" ","MAREA":" ","LANE":" ","ALLEY":" ","HOUSE_NO":"１４３號","E_COORD97":171197.20000000001,"N_COORD97":2547618.8300000001,"ADDRESS":"中正二街１４３號","OBJECTID":501862},"geometry":{"x":171197.20000000019,"y":2547618.8300000001}},{"attributes":{"ID":501890,"DIS_CODE":0,"TOWNNAME":"永康區","LI":"尚頂里","LIN":"7鄰","STREET":"尚頂路","SECT":" ","MAREA":" ","LANE":" ","ALLEY":" ","HOUSE_NO":"１０５號","E_COORD97":170945.04000000001,"N_COORD97":2547706.4399999999,"ADDRESS":"尚頂路１０５號","OBJECTID":501863},"geometry":{"x":170945.04000000004,"y":2547706.4400000013}},{"attributes":{"ID":501891,"DIS_CODE":0,"TOWNNAME":"永康區","LI":"尚頂里","LIN":"7鄰","STREET":"尚頂路","SECT":" ","MAREA":" ","LANE":" ","ALLEY":" ","HOUSE_NO":"７２號","E_COORD97":171140.69,"N_COORD97":2547554.6499999999,"ADDRESS":"尚頂路７２號","OBJECTID":501864},"geometry":{"x":171140.69000000134,"y":2547554.6500000022}},{"attributes":{"ID":501892,"DIS_CODE":0,"TOWNNAME":"永康區","LI":"尚頂里","LIN":"7鄰","STREET":"\u25A0信街","SECT":" ","MAREA":" ","LANE":" ","ALLEY":" ","HOUSE_NO":"１７５號","E_COORD97":171024.04000000001,"N_COORD97":2547773.25,"ADDRESS":"\u25A0信街１７５號","OBJECTID":501865},"geometry":{"x":171024.04000000097,"y":2547773.2500000019}},{"attributes":{"ID":501893,"DIS_CODE":0,"TOWNNAME":"永康區","LI":"東灣里","LIN":"7鄰","STREET":"大灣路","SECT":" ","MAREA":" ","LANE":" ","ALLEY":" ","HOUSE_NO":"４０２號","E_COORD97":174794.26000000001,"N_COORD97":2545040.1499999999,"ADDRESS":"大灣路４０２號","OBJECTID":501866},"geometry":{"x":174794.26000000071,"y":2545040.1500000004}},{"attributes":{"ID":501894,"DIS_CODE":0,"TOWNNAME":"永康區","LI":"尚頂里","LIN":"7鄰","STREET":"尚頂路","SECT":" ","MAREA":" ","LANE":" ","ALLEY":" ","HOUSE_NO":"６３號","E_COORD97":171119.97,"N_COORD97":2547527.2000000002,"ADDRESS":"尚頂路６３號","OBJECTID":501867},"geometry":{"x":171119.96999999974,"y":2547527.1999999993}},{"attributes":{"ID":501895,"DIS_CODE":0,"TOWNNAME":"永康區","LI":"尚頂里","LIN":"7鄰","STREET":"尚頂路","SECT":" ","MAREA":" ","LANE":" ","ALLEY":" ","HOUSE_NO":"９７號","E_COORD97":170985.51000000001,"N_COORD97":2547659.5299999998,"ADDRESS":"尚頂路９７號","OBJECTID":501868},"geometry":{"x":170985.50999999978,"y":2547659.5299999993}},{"attributes":{"ID":501896,"DIS_CODE":0,"TOWNNAME":"永康區","LI":"東灣里","LIN":"7鄰","STREET":"大灣路","SECT":" ","MAREA":" ","LANE":" ","ALLEY":" ","HOUSE_NO":"４３４號","E_COORD97":174763.20999999999,"N_COORD97":2544977.71,"ADDRESS":"大灣路４３４號","OBJECTID":501869},"geometry":{"x":174763.20999999996,"y":2544977.7100000028}},{"attributes":{"ID":501897,"DIS_CODE":0,"TOWNNAME":"永康區","LI":"尚頂里","LIN":"7鄰","STREET":"尚頂路","SECT":" ","MAREA":" ","LANE":" ","ALLEY":" ","HOUSE_NO":"９８號","E_COORD97":171055.17999999999,"N_COORD97":2547636.9900000002,"ADDRESS":"尚頂路９８號","OBJECTID":501870},"geometry":{"x":171055.18000000063,"y":2547636.9900000021}},{"attributes":{"ID":501898,"DIS_CODE":0,"TOWNNAME":"永康區","LI":"尚頂里","LIN":"7鄰","STREET":"中正二街","SECT":" ","MAREA":" ","LANE":" ","ALLEY":" ","HOUSE_NO":"１３７號","E_COORD97":171168.51000000001,"N_COORD97":2547605.0800000001,"ADDRESS":"中正二街１３７號","OBJECTID":501871},"geometry":{"x":171168.51000000071,"y":2547605.0800000019}},{"attributes":{"ID":501899,"DIS_CODE":0,"TOWNNAME":"永康區","LI":"東灣里","LIN":"7鄰","STREET":"大灣路","SECT":" ","MAREA":" ","LANE":" ","ALLEY":" ","HOUSE_NO":"３９２號","E_COORD97":174802.73999999999,"N_COORD97":2545054.0600000001,"ADDRESS":"大灣路３９２號","OBJECTID":501872},"geometry":{"x":174802.74000000209,"y":2545054.0600000005}},{"attributes":{"ID":501900,"DIS_CODE":0,"TOWNNAME":"永康區","LI":"尚頂里","LIN":"7鄰","STREET":"尚頂路","SECT":" ","MAREA":" ","LANE":" ","ALLEY":" ","HOUSE_NO":"１０６號","E_COORD97":171027.38,"N_COORD97":2547664.2599999998,"ADDRESS":"尚頂路１０６號","OBJECTID":501873},"geometry":{"x":171027.37999999989,"y":2547664.2600000016}},{"attributes":{"ID":501901,"DIS_CODE":0,"TOWNNAME":"永康區","LI":"尚頂里","LIN":"7鄰","STREET":"\u25A0信街","SECT":" ","MAREA":" ","LANE":" ","ALLEY":" ","HOUSE_NO":"１３８號","E_COORD97":171065.23999999999,"N_COORD97":2547784.5,"ADDRESS":"\u25A0信街１３８號","OBJECTID":501874},"geometry":{"x":171065.24000000115,"y":2547784.5000000019}},{"attributes":{"ID":501902,"DIS_CODE":0,"TOWNNAME":"永康區","LI":"尚頂里","LIN":"7鄰","STREET":"尚頂路","SECT":" ","MAREA":" ","LANE":" ","ALLEY":" ","HOUSE_NO":"８６號","E_COORD97":171090.20000000001,"N_COORD97":2547599.1099999999,"ADDRESS":"尚頂路８６號","OBJECTID":501875},"geometry":{"x":171090.20000000019,"y":2547599.1099999994}},{"attributes":{"ID":501903,"DIS_CODE":0,"TOWNNAME":"永康區","LI":"尚頂里","LIN":"7鄰","STREET":"\u25A0信街","SECT":" ","MAREA":" ","LANE":" ","ALLEY":" ","HOUSE_NO":"１２８號","E_COORD97":171031.73999999999,"N_COORD97":2547753,"ADDRESS":"\u25A0信街１２８號","OBJECTID":501876},"geometry":{"x":171031.74000000115,"y":2547753}},{"attributes":{"ID":501904,"DIS_CODE":0,"TOWNNAME":"永康區","LI":"尚頂里","LIN":"7鄰","STREET":"\u25A0信街","SECT":" ","MAREA":" ","LANE":" ","ALLEY":" ","HOUSE_NO":"１５１號","E_COORD97":170925.62,"N_COORD97":2547694.2000000002,"ADDRESS":"\u25A0信街１５１號","OBJECTID":501877},"geometry":{"x":170925.62000000104,"y":2547694.2000000011}},{"attributes":{"ID":501905,"DIS_CODE":0,"TOWNNAME":"永康區","LI":"尚頂里","LIN":"7鄰","STREET":"尚頂路","SECT":" ","MAREA":" ","LANE":" ","ALLEY":" ","HOUSE_NO":"１１６號","E_COORD97":170995.07999999999,"N_COORD97":2547694.1499999999,"ADDRESS":"尚頂路１１６號","OBJECTID":501878},"geometry":{"x":170995.08000000101,"y":2547694.1500000004}},{"attributes":{"ID":501906,"DIS_CODE":0,"TOWNNAME":"永康區","LI":"正強里","LIN":"7鄰","STREET":"正義街","SECT":" ","MAREA":" ","LANE":" ","ALLEY":" ","HOUSE_NO":"６２號","E_COORD97":173513.10999999999,"N_COORD97":2547632.5099999998,"ADDRESS":"正義街６２號","OBJECTID":501879},"geometry":{"x":173513.11000000034,"y":2547632.5100000016}},{"attributes":{"ID":501907,"DIS_CODE":0,"TOWNNAME":"永康區","LI":"正強里","LIN":"7鄰","STREET":"正義街","SECT":" ","MAREA":" ","LANE":" ","ALLEY":" ","HOUSE_NO":"９６號","E_COORD97":173445.92999999999,"N_COORD97":2547587.02,"ADDRESS":"正義街９６號","OBJECTID":501880},"geometry":{"x":173445.9299999997,"y":2547587.0200000033}},{"attributes":{"ID":501908,"DIS_CODE":0,"TOWNNAME":"永康區","LI":"正強里","LIN":"7鄰","STREET":"正義街","SECT":" ","MAREA":" ","LANE":" ","ALLEY":" ","HOUSE_NO":"９２號","E_COORD97":173456.23000000001,"N_COORD97":2547589.27,"ADDRESS":"正義街９２號","OBJECTID":501881},"geometry":{"x":173456.23000000138,"y":2547589.2700000014}},{"attributes":{"ID":501909,"DIS_CODE":0,"TOWNNAME":"永康區","LI":"正強里","LIN":"7鄰","STREET":"正義街","SECT":" ","MAREA":" ","LANE":" ","ALLEY":" ","HOUSE_NO":"５８號","E_COORD97":173521.34,"N_COORD97":2547640.5099999998,"ADDRESS":"正義街５８號","OBJECTID":501882},"geometry":{"x":173521.33999999985,"y":2547640.5099999998}},{"attributes":{"ID":501910,"DIS_CODE":0,"TOWNNAME":"永康區","LI":"甲頂里","LIN":"7鄰","STREET":"中華路","SECT":" ","MAREA":" ","LANE":" ","ALLEY":" ","HOUSE_NO":"９１３號","E_COORD97":170175.01999999999,"N_COORD97":2546877.4900000002,"ADDRESS":"中華路９１３號","OBJECTID":501883},"geometry":{"x":170175.01999999955,"y":2546877.4900000021}},{"attributes":{"ID":501911,"DIS_CODE":0,"TOWNNAME":"安南區","LI":"溪心里","LIN":"7鄰","STREET":"本原街","SECT":"二段","MAREA":" ","LANE":" ","ALLEY":" ","HOUSE_NO":"１１８號","E_COORD97":166744.60000000001,"N_COORD97":2550766.4900000002,"ADDRESS":"本原街二段１１８號","OBJECTID":501884},"geometry":{"x":166744.60000000056,"y":2550766.4900000002}},{"attributes":{"ID":501912,"DIS_CODE":0,"TOWNNAME":"安南區","LI":"溪心里","LIN":"7鄰","STREET":"本原街","SECT":"二段","MAREA":" ","LANE":" ","ALLEY":" ","HOUSE_NO":"１２０號","E_COORD97":166741.57999999999,"N_COORD97":2550767.29,"ADDRESS":"本原街二段１２０號","OBJECTID":501885},"geometry":{"x":166741.58000000101,"y":2550767.2899999991}},{"attributes":{"ID":501913,"DIS_CODE":0,"TOWNNAME":"安南區","LI":"溪心里","LIN":"7鄰","STREET":"本原街","SECT":"二段","MAREA":" ","LANE":" ","ALLEY":" ","HOUSE_NO":"２１７號","E_COORD97":166555.84,"N_COORD97":2550696.3300000001,"ADDRESS":"本原街二段２１７號","OBJECTID":501886},"geometry":{"x":166555.83999999985,"y":2550696.3300000001}},{"attributes":{"ID":501914,"DIS_CODE":0,"TOWNNAME":"安南區","LI":"溪心里","LIN":"7鄰","STREET":"本原街","SECT":"二段","MAREA":" ","LANE":" ","ALLEY":" ","HOUSE_NO":"２６３號","E_COORD97":166510.28,"N_COORD97":2550678.5499999998,"ADDRESS":"本原街二段２６３號","OBJECTID":501887},"geometry":{"x":166510.28000000119,"y":2550678.5500000007}},{"attributes":{"ID":501915,"DIS_CODE":0,"TOWNNAME":"安南區","LI":"\u25A0田里","LIN":"7鄰","STREET":"工業二路","SECT":" ","MAREA":" ","LANE":" ","ALLEY":" ","HOUSE_NO":"３１號","E_COORD97":163753.94,"N_COORD97":2548252.7799999998,"ADDRESS":"工業二路３１號","OBJECTID":501888},"geometry":{"x":163753.94000000041,"y":2548252.7800000031}},{"attributes":{"ID":501916,"DIS_CODE":0,"TOWNNAME":"安南區","LI":"\u25A0田里","LIN":"7鄰","STREET":"工業二路","SECT":" ","MAREA":" ","LANE":" ","ALLEY":" ","HOUSE_NO":"３５號","E_COORD97":163121.72,"N_COORD97":2548902.2000000002,"ADDRESS":"工業二路３５號","OBJECTID":501889},"geometry":{"x":163121.72000000067,"y":2548902.2000000011}},{"attributes":{"ID":501917,"DIS_CODE":0,"TOWNNAME":"安南區","LI":"\u25A0田里","LIN":"7鄰","STREET":"工業三路","SECT":" ","MAREA":" ","LANE":" ","ALLEY":" ","HOUSE_NO":"３３號","E_COORD97":163135.04999999999,"N_COORD97":2548462.7999999998,"ADDRESS":"工業三路３３號","OBJECTID":501890},"geometry":{"x":163135.04999999981,"y":2548462.8000000007}},{"attributes":{"ID":501918,"DIS_CODE":0,"TOWNNAME":"安南區","LI":"\u25A0田里","LIN":"7鄰","STREET":"工業三路","SECT":" ","MAREA":" ","LANE":" ","ALLEY":" ","HOUSE_NO":"５１號","E_COORD97":162844.26000000001,"N_COORD97":2548682.71,"ADDRESS":"工業三路５１號","OBJECTID":501891},"geometry":{"x":162844.25999999885,"y":2548682.7100000028}},{"attributes":{"ID":501919,"DIS_CODE":0,"TOWNNAME":"安南區","LI":"\u25A0田里","LIN":"7鄰","STREET":"工業三路","SECT":" ","MAREA":" ","LANE":" ","ALLEY":" ","HOUSE_NO":"３７號","E_COORD97":162902.60000000001,"N_COORD97":2548648.1800000002,"ADDRESS":"工業三路３７號","OBJECTID":501892},"geometry":{"x":162902.59999999963,"y":2548648.1800000016}},{"attributes":{"ID":501920,"DIS_CODE":0,"TOWNNAME":"安南區","LI":"\u25A0田里","LIN":"7鄰","STREET":"工業三路","SECT":" ","MAREA":" ","LANE":" ","ALLEY":" ","HOUSE_NO":"３５號","E_COORD97":162932.35999999999,"N_COORD97":2548631.1000000001,"ADDRESS":"工業三路３５號","OBJECTID":501893},"geometry":{"x":162932.3600000022,"y":2548631.1000000015}},{"attributes":{"ID":501921,"DIS_CODE":0,"TOWNNAME":"安南區","LI":"\u25A0田里","LIN":"7鄰","STREET":"工環路","SECT":" ","MAREA":" ","LANE":" ","ALLEY":" ","HOUSE_NO":"２２號","E_COORD97":163843.69,"N_COORD97":2548462.9100000001,"ADDRESS":"工環路２２號","OBJECTID":501894},"geometry":{"x":163843.69000000041,"y":2548462.9100000039}},{"attributes":{"ID":501922,"DIS_CODE":0,"TOWNNAME":"安南區","LI":"\u25A0田里","LIN":"7鄰","STREET":"工環路","SECT":" ","MAREA":" ","LANE":" ","ALLEY":" ","HOUSE_NO":"２７號","E_COORD97":163812.12,"N_COORD97":2548352.9700000002,"ADDRESS":"工環路２７號","OBJECTID":501895},"geometry":{"x":163812.12000000104,"y":2548352.9700000025}},{"attributes":{"ID":501923,"DIS_CODE":0,"TOWNNAME":"安南區","LI":"青草里","LIN":"7鄰","STREET":"青砂街","SECT":"二段","MAREA":" ","LANE":" ","ALLEY":" ","HOUSE_NO":"９１４號之２０","E_COORD97":157831.98999999999,"N_COORD97":2552665.9199999999,"ADDRESS":"青砂街二段９１４號之２０","OBJECTID":501896},"geometry":{"x":157831.99000000022,"y":2552665.9199999999}},{"attributes":{"ID":501924,"DIS_CODE":0,"TOWNNAME":"安南區","LI":"淵東里","LIN":"7鄰","STREET":"本原街","SECT":"三段","MAREA":" ","LANE":" ","ALLEY":" ","HOUSE_NO":"１９３號","E_COORD97":165472.57999999999,"N_COORD97":2550328.2400000002,"ADDRESS":"本原街三段１９３號","OBJECTID":501897},"geometry":{"x":165472.58000000007,"y":2550328.2400000002}},{"attributes":{"ID":501925,"DIS_CODE":0,"TOWNNAME":"安南區","LI":"淵東里","LIN":"7鄰","STREET":"本原街","SECT":"三段","MAREA":" ","LANE":" ","ALLEY":" ","HOUSE_NO":"１９５號","E_COORD97":165462.42000000001,"N_COORD97":2550325.4500000002,"ADDRESS":"本原街三段１９５號","OBJECTID":501898},"geometry":{"x":165462.42000000179,"y":2550325.4499999993}},{"attributes":{"ID":501926,"DIS_CODE":0,"TOWNNAME":"安南區","LI":"州南里","LIN":"7鄰","STREET":"北安路","SECT":"四段","MAREA":" ","LANE":" ","ALLEY":" ","HOUSE_NO":"３０６號","E_COORD97":169485.62,"N_COORD97":2551321.0099999998,"ADDRESS":"北安路四段３０６號","OBJECTID":501899},"geometry":{"x":169485.61999999918,"y":2551321.0100000016}},{"attributes":{"ID":501927,"DIS_CODE":0,"TOWNNAME":"北區","LI":"成德里","LIN":"5鄰","STREET":"育德路","SECT":" ","MAREA":" ","LANE":" ","ALLEY":" ","HOUSE_NO":"１１８號","E_COORD97":168486.97,"N_COORD97":2545402.7599999998,"ADDRESS":"育德路１１８號","OBJECTID":501900},"geometry":{"x":168486.97000000067,"y":2545402.7600000016}},{"attributes":{"ID":501928,"DIS_CODE":0,"TOWNNAME":"北區","LI":"成德里","LIN":"5鄰","STREET":"育德路","SECT":" ","MAREA":" ","LANE":" ","ALLEY":" ","HOUSE_NO":"１２０號","E_COORD97":168491.44,"N_COORD97":2545416.3700000001,"ADDRESS":"育德路１２０號","OBJECTID":501901},"geometry":{"x":168491.44000000041,"y":2545416.3700000048}},{"attributes":{"ID":501929,"DIS_CODE":0,"TOWNNAME":"北區","LI":"成德里","LIN":"5鄰","STREET":"育德路","SECT":" ","MAREA":" ","LANE":" ","ALLEY":" ","HOUSE_NO":"７８號","E_COORD97":168439.51000000001,"N_COORD97":2545331.0499999998,"ADDRESS":"育德路７８號","OBJECTID":501902},"geometry":{"x":168439.50999999978,"y":2545331.0500000026}},{"attributes":{"ID":501930,"DIS_CODE":0,"TOWNNAME":"北區","LI":"成德里","LIN":"5鄰","STREET":"育德路","SECT":" ","MAREA":" ","LANE":" ","ALLEY":" ","HOUSE_NO":"８０號","E_COORD97":168441.39000000001,"N_COORD97":2545334.46,"ADDRESS":"育德路８０號","OBJECTID":501903},"geometry":{"x":168441.3900000006,"y":2545334.4600000028}},{"attributes":{"ID":501931,"DIS_CODE":0,"TOWNNAME":"北區","LI":"成德里","LIN":"5鄰","STREET":"育德路","SECT":" ","MAREA":" ","LANE":" ","ALLEY":" ","HOUSE_NO":"８２號","E_COORD97":168443.73999999999,"N_COORD97":2545338.6800000002,"ADDRESS":"育德路８２號","OBJECTID":501904},"geometry":{"x":168443.74000000022,"y":2545338.6800000016}},{"attributes":{"ID":501932,"DIS_CODE":0,"TOWNNAME":"北區","LI":"成德里","LIN":"5鄰","STREET":"育德路","SECT":" ","MAREA":" ","LANE":" ","ALLEY":" ","HOUSE_NO":"８４號","E_COORD97":168446.09,"N_COORD97":2545342.2000000002,"ADDRESS":"育德路８４號","OBJECTID":501905},"geometry":{"x":168446.08999999985,"y":2545342.2000000011}},{"attributes":{"ID":501933,"DIS_CODE":0,"TOWNNAME":"安南區","LI":"州南里","LIN":"7鄰","STREET":"長和路","SECT":"三段","MAREA":" ","LANE":" ","ALLEY":" ","HOUSE_NO":"１３７號","E_COORD97":169669.06,"N_COORD97":2551524.23,"ADDRESS":"長和路三段１３７號","OBJECTID":501906},"geometry":{"x":169669.06000000052,"y":2551524.2300000023}},{"attributes":{"ID":501934,"DIS_CODE":0,"TOWNNAME":"安南區","LI":"州南里","LIN":"7鄰","STREET":"長和路","SECT":"三段","MAREA":" ","LANE":" ","ALLEY":" ","HOUSE_NO":"１５３號","E_COORD97":169630.57000000001,"N_COORD97":2551528.04,"ADDRESS":"長和路三段１５３號","OBJECTID":501907},"geometry":{"x":169630.57000000123,"y":2551528.0399999991}},{"attributes":{"ID":501935,"DIS_CODE":0,"TOWNNAME":"安南區","LI":"州南里","LIN":"7鄰","STREET":"長和路","SECT":"三段","MAREA":" ","LANE":" ","ALLEY":" ","HOUSE_NO":"１５５號","E_COORD97":169622.19,"N_COORD97":2551528.1699999999,"ADDRESS":"長和路三段１５５號","OBJECTID":501908},"geometry":{"x":169622.19000000041,"y":2551528.1699999999}},{"attributes":{"ID":501936,"DIS_CODE":0,"TOWNNAME":"安南區","LI":"原佃里","LIN":"7鄰","STREET":"安吉路","SECT":"一段","MAREA":" ","LANE":" ","ALLEY":" ","HOUSE_NO":"４９０號","E_COORD97":166937.42000000001,"N_COORD97":2550014.8199999998,"ADDRESS":"安吉路一段４９０號","OBJECTID":501909},"geometry":{"x":166937.42000000179,"y":2550014.8200000022}},{"attributes":{"ID":501937,"DIS_CODE":0,"TOWNNAME":"安南區","LI":"原佃里","LIN":"7鄰","STREET":"安吉路","SECT":"一段","MAREA":" ","LANE":" ","ALLEY":" ","HOUSE_NO":"５３８號","E_COORD97":166988.79999999999,"N_COORD97":2550297.29,"ADDRESS":"安吉路一段５３８號","OBJECTID":501910},"geometry":{"x":166988.80000000168,"y":2550297.290000001}},{"attributes":{"ID":501938,"DIS_CODE":0,"TOWNNAME":"安南區","LI":"州南里","LIN":"7鄰","STREET":"北安路","SECT":"四段","MAREA":" ","LANE":" ","ALLEY":" ","HOUSE_NO":"３０６號","E_COORD97":169485.89999999999,"N_COORD97":2551321,"ADDRESS":"北安路四段３０６號","OBJECTID":501911},"geometry":{"x":169485.90000000224,"y":2551321.0000000019}},{"attributes":{"ID":501939,"DIS_CODE":0,"TOWNNAME":"安南區","LI":"青草里","LIN":"7鄰","STREET":"青砂街","SECT":"二段","MAREA":" ","LANE":" ","ALLEY":" ","HOUSE_NO":"８９１號","E_COORD97":157849.29000000001,"N_COORD97":2552608.5800000001,"ADDRESS":"青砂街二段８９１號","OBJECTID":501912},"geometry":{"x":157849.29000000097,"y":2552608.5800000019}},{"attributes":{"ID":501940,"DIS_CODE":0,"TOWNNAME":"安南區","LI":"城北里","LIN":"7鄰","STREET":"安中路","SECT":"六段","MAREA":" ","LANE":" ","ALLEY":" ","HOUSE_NO":"４８６之２號","E_COORD97":161007.95000000001,"N_COORD97":2551332.2599999998,"ADDRESS":"安中路六段４８６之２號","OBJECTID":501913},"geometry":{"x":161007.95000000112,"y":2551332.2600000016}},{"attributes":{"ID":501941,"DIS_CODE":0,"TOWNNAME":"安南區","LI":"安和里","LIN":"7鄰","STREET":"郡安路","SECT":"三段","MAREA":" ","LANE":" ","ALLEY":" ","HOUSE_NO":"６６號","E_COORD97":170152.34,"N_COORD97":2548492.27,"ADDRESS":"郡安路三段６６號","OBJECTID":501914},"geometry":{"x":170152.34000000078,"y":2548492.2699999996}},{"attributes":{"ID":501942,"DIS_CODE":0,"TOWNNAME":"安南區","LI":"城北里","LIN":"7鄰","STREET":"安中路","SECT":"六段","MAREA":" ","LANE":" ","ALLEY":" ","HOUSE_NO":"４８６之１號","E_COORD97":161012.56,"N_COORD97":2551331.7799999998,"ADDRESS":"安中路六段４８６之１號","OBJECTID":501915},"geometry":{"x":161012.55999999959,"y":2551331.7800000012}},{"attributes":{"ID":501943,"DIS_CODE":0,"TOWNNAME":"安南區","LI":"城北里","LIN":"7鄰","STREET":"安中路","SECT":"六段","MAREA":" ","LANE":" ","ALLEY":" ","HOUSE_NO":"４５３之３號","E_COORD97":161038.53,"N_COORD97":2551303.6699999999,"ADDRESS":"安中路六段４５３之３號","OBJECTID":501916},"geometry":{"x":161038.53000000026,"y":2551303.6700000018}},{"attributes":{"ID":501944,"DIS_CODE":0,"TOWNNAME":"安南區","LI":"城北里","LIN":"7鄰","STREET":"安中路","SECT":"六段","MAREA":" ","LANE":" ","ALLEY":" ","HOUSE_NO":"３４６之６號","E_COORD97":161304.76000000001,"N_COORD97":2551321.9199999999,"ADDRESS":"安中路六段３４６之６號","OBJECTID":501917},"geometry":{"x":161304.75999999978,"y":2551321.9200000018}},{"attributes":{"ID":501945,"DIS_CODE":0,"TOWNNAME":"安南區","LI":"城北里","LIN":"7鄰","STREET":"安中路","SECT":"六段","MAREA":" ","LANE":" ","ALLEY":" ","HOUSE_NO":"５０６之１號","E_COORD97":160979.07000000001,"N_COORD97":2551340.1400000001,"ADDRESS":"安中路六段５０６之１號","OBJECTID":501918},"geometry":{"x":160979.0700000003,"y":2551340.1399999987}},{"attributes":{"ID":501946,"DIS_CODE":0,"TOWNNAME":"安南區","LI":"州南里","LIN":"7鄰","STREET":"長和一街","SECT":" ","MAREA":" ","LANE":" ","ALLEY":" ","HOUSE_NO":"１７號","E_COORD97":169557.95126199999,"N_COORD97":2551498.08849,"ADDRESS":"長和一街１７號","OBJECTID":501919},"geometry":{"x":169557.95126200002,"y":2551498.0884939991}},{"attributes":{"ID":501947,"DIS_CODE":0,"TOWNNAME":"安南區","LI":"城中里","LIN":"7鄰","STREET":"城安西街","SECT":" ","MAREA":" ","LANE":" ","ALLEY":" ","HOUSE_NO":"１１６號","E_COORD97":160637.42999999999,"N_COORD97":2551703.5299999998,"ADDRESS":"城安西街１１６號","OBJECTID":501920},"geometry":{"x":160637.4299999997,"y":2551703.5300000012}},{"attributes":{"ID":501948,"DIS_CODE":0,"TOWNNAME":"安南區","LI":"城中里","LIN":"7鄰","STREET":"安中路","SECT":"六段","MAREA":" ","LANE":" ","ALLEY":" ","HOUSE_NO":"７５７號","E_COORD97":160605.92000000001,"N_COORD97":2551846.6699999999,"ADDRESS":"安中路六段７５７號","OBJECTID":501921},"geometry":{"x":160605.92000000086,"y":2551846.6699999999}},{"attributes":{"ID":501949,"DIS_CODE":0,"TOWNNAME":"安南區","LI":"城中里","LIN":"7鄰","STREET":"安中路","SECT":"六段","MAREA":" ","LANE":" ","ALLEY":" ","HOUSE_NO":"７５５號","E_COORD97":160609.04999999999,"N_COORD97":2551842.4500000002,"ADDRESS":"安中路六段７５５號","OBJECTID":501922},"geometry":{"x":160609.04999999981,"y":2551842.4500000011}},{"attributes":{"ID":501950,"DIS_CODE":0,"TOWNNAME":"安南區","LI":"城中里","LIN":"7鄰","STREET":"安中路","SECT":"六段","MAREA":" ","LANE":" ","ALLEY":" ","HOUSE_NO":"７５３號","E_COORD97":160612.17999999999,"N_COORD97":2551838.96,"ADDRESS":"安中路六段７５３號","OBJECTID":501923},"geometry":{"x":160612.18000000156,"y":2551838.9600000009}},{"attributes":{"ID":501951,"DIS_CODE":0,"TOWNNAME":"安南區","LI":"城中里","LIN":"7鄰","STREET":"安中路","SECT":"六段","MAREA":" ","LANE":" ","ALLEY":" ","HOUSE_NO":"６６３號","E_COORD97":160707.85000000001,"N_COORD97":2551654.02,"ADDRESS":"安中路六段６６３號","OBJECTID":501924},"geometry":{"x":160707.85000000056,"y":2551654.0199999996}},{"attributes":{"ID":501952,"DIS_CODE":0,"TOWNNAME":"安南區","LI":"城中里","LIN":"7鄰","STREET":"安中路","SECT":"六段","MAREA":" ","LANE":" ","ALLEY":" ","HOUSE_NO":"６６５號","E_COORD97":160706.88,"N_COORD97":2551660.3999999999,"ADDRESS":"安中路六段６６５號","OBJECTID":501925},"geometry":{"x":160706.87999999989,"y":2551660.4000000041}},{"attributes":{"ID":501953,"DIS_CODE":0,"TOWNNAME":"安南區","LI":"城中里","LIN":"7鄰","STREET":"安中路","SECT":"六段","MAREA":" ","LANE":" ","ALLEY":" ","HOUSE_NO":"６６７號","E_COORD97":160704.35000000001,"N_COORD97":2551664.7400000002,"ADDRESS":"安中路六段６６７號","OBJECTID":501926},"geometry":{"x":160704.35000000149,"y":2551664.7400000039}},{"attributes":{"ID":501954,"DIS_CODE":0,"TOWNNAME":"安南區","LI":"城中里","LIN":"7鄰","STREET":"安中路","SECT":"六段","MAREA":" ","LANE":" ","ALLEY":" ","HOUSE_NO":"６６９號","E_COORD97":160703.87,"N_COORD97":2551668.4700000002,"ADDRESS":"安中路六段６６９號","OBJECTID":501927},"geometry":{"x":160703.87000000011,"y":2551668.4700000025}},{"attributes":{"ID":501955,"DIS_CODE":0,"TOWNNAME":"安南區","LI":"城中里","LIN":"7鄰","STREET":"安中路","SECT":"六段","MAREA":" ","LANE":" ","ALLEY":" ","HOUSE_NO":"６８３號","E_COORD97":160685.60000000001,"N_COORD97":2551698.6499999999,"ADDRESS":"安中路六段６８３號","OBJECTID":501928},"geometry":{"x":160685.60000000149,"y":2551698.6500000004}},{"attributes":{"ID":501956,"DIS_CODE":0,"TOWNNAME":"安南區","LI":"城中里","LIN":"7鄰","STREET":"城安三街","SECT":" ","MAREA":" ","LANE":" ","ALLEY":" ","HOUSE_NO":"５２號","E_COORD97":160688.45000000001,"N_COORD97":2551648.9500000002,"ADDRESS":"城安三街５２號","OBJECTID":501929},"geometry":{"x":160688.45000000019,"y":2551648.950000003}},{"attributes":{"ID":501957,"DIS_CODE":0,"TOWNNAME":"安南區","LI":"城中里","LIN":"7鄰","STREET":"城安西街","SECT":" ","MAREA":" ","LANE":" ","ALLEY":" ","HOUSE_NO":"８６號","E_COORD97":160653.51000000001,"N_COORD97":2551669.7999999998,"ADDRESS":"城安西街８６號","OBJECTID":501930},"geometry":{"x":160653.50999999978,"y":2551669.8000000026}},{"attributes":{"ID":501958,"DIS_CODE":0,"TOWNNAME":"安南區","LI":"城中里","LIN":"7鄰","STREET":"城安西街","SECT":" ","MAREA":" ","LANE":" ","ALLEY":" ","HOUSE_NO":"５０號","E_COORD97":160681.17286799999,"N_COORD97":2551613.38234,"ADDRESS":"城安西街５０號","OBJECTID":501931},"geometry":{"x":160681.17286800221,"y":2551613.3823370002}},{"attributes":{"ID":501959,"DIS_CODE":0,"TOWNNAME":"安南區","LI":"原佃里","LIN":"7鄰","STREET":"安吉路","SECT":"一段","MAREA":" ","LANE":" ","ALLEY":" ","HOUSE_NO":"７７０號","E_COORD97":167039.45000000001,"N_COORD97":2550541.7400000002,"ADDRESS":"安吉路一段７７０號","OBJECTID":501932},"geometry":{"x":167039.45000000112,"y":2550541.7400000002}},{"attributes":{"ID":501960,"DIS_CODE":0,"TOWNNAME":"安南區","LI":"溪頂里","LIN":"7鄰","STREET":"府安路","SECT":"四段","MAREA":" ","LANE":" ","ALLEY":" ","HOUSE_NO":"２２０號","E_COORD97":168554.01000000001,"N_COORD97":2547225.5499999998,"ADDRESS":"府安路四段２２０號","OBJECTID":501933},"geometry":{"x":168554.01000000071,"y":2547225.5500000026}},{"attributes":{"ID":501961,"DIS_CODE":0,"TOWNNAME":"安南區","LI":"砂崙里","LIN":"7鄰","STREET":"青砂街","SECT":"一段","MAREA":" ","LANE":" ","ALLEY":" ","HOUSE_NO":"６３２之１號","E_COORD97":159975.64000000001,"N_COORD97":2552746.5099999998,"ADDRESS":"青砂街一段６３２之１號","OBJECTID":501934},"geometry":{"x":159975.6400000006,"y":2552746.5099999998}},{"attributes":{"ID":501962,"DIS_CODE":0,"TOWNNAME":"安南區","LI":"青草里","LIN":"7鄰","STREET":"青砂街","SECT":"二段","MAREA":" ","LANE":" ","ALLEY":" ","HOUSE_NO":"８９１之３９號","E_COORD97":157829.5,"N_COORD97":2552622.0299999998,"ADDRESS":"青砂街二段８９１之３９號","OBJECTID":501935},"geometry":{"x":157829.5,"y":2552622.0300000012}},{"attributes":{"ID":501963,"DIS_CODE":0,"TOWNNAME":"安南區","LI":"青草里","LIN":"7鄰","STREET":"青砂街","SECT":"二段","MAREA":" ","LANE":" ","ALLEY":" ","HOUSE_NO":"８９１之８９號","E_COORD97":157815.29000000001,"N_COORD97":2552601.3700000001,"ADDRESS":"青砂街二段８９１之８９號","OBJECTID":501936},"geometry":{"x":157815.29000000097,"y":2552601.3700000029}},{"attributes":{"ID":501964,"DIS_CODE":0,"TOWNNAME":"安南區","LI":"青草里","LIN":"7鄰","STREET":"青砂街","SECT":"二段","MAREA":" ","LANE":" ","ALLEY":" ","HOUSE_NO":"４３１號","E_COORD97":158891.17999999999,"N_COORD97":2552952.3199999998,"ADDRESS":"青砂街二段４３１號","OBJECTID":501937},"geometry":{"x":158891.1799999997,"y":2552952.3200000003}},{"attributes":{"ID":501965,"DIS_CODE":0,"TOWNNAME":"安南區","LI":"東和里","LIN":"7鄰","STREET":"慶和路","SECT":"一段","MAREA":" ","LANE":" ","ALLEY":" ","HOUSE_NO":"１３號","E_COORD97":172469.82000000001,"N_COORD97":2551518.7200000002,"ADDRESS":"慶和路一段１３號","OBJECTID":501938},"geometry":{"x":172469.82000000216,"y":2551518.7200000007}},{"attributes":{"ID":501966,"DIS_CODE":0,"TOWNNAME":"安南區","LI":"東和里","LIN":"7鄰","STREET":"慶和路","SECT":"一段","MAREA":" ","LANE":" ","ALLEY":" ","HOUSE_NO":"２５號","E_COORD97":172448.48000000001,"N_COORD97":2551475.54,"ADDRESS":"慶和路一段２５號","OBJECTID":501939},"geometry":{"x":172448.48000000231,"y":2551475.540000001}},{"attributes":{"ID":501967,"DIS_CODE":0,"TOWNNAME":"安南區","LI":"東和里","LIN":"7鄰","STREET":"慶和路","SECT":"一段","MAREA":" ","LANE":" ","ALLEY":" ","HOUSE_NO":"３７號","E_COORD97":172390.06,"N_COORD97":2551406.96,"ADDRESS":"慶和路一段３７號","OBJECTID":501940},"geometry":{"x":172390.06000000052,"y":2551406.9600000028}},{"attributes":{"ID":501968,"DIS_CODE":0,"TOWNNAME":"安南區","LI":"\u25A0田里","LIN":"7鄰","STREET":"\u25A0田路","SECT":" ","MAREA":" ","LANE":" ","ALLEY":" ","HOUSE_NO":"１２號","E_COORD97":162687.70999999999,"N_COORD97":2548407.6400000001,"ADDRESS":"\u25A0田路１２號","OBJECTID":501941},"geometry":{"x":162687.71000000089,"y":2548407.6400000043}},{"attributes":{"ID":501969,"DIS_CODE":0,"TOWNNAME":"安南區","LI":"\u25A0田里","LIN":"7鄰","STREET":"\u25A0田路","SECT":" ","MAREA":" ","LANE":" ","ALLEY":" ","HOUSE_NO":"１６號","E_COORD97":162675.01000000001,"N_COORD97":2548400.02,"ADDRESS":"\u25A0田路１６號","OBJECTID":501942},"geometry":{"x":162675.01000000071,"y":2548400.0199999996}},{"attributes":{"ID":501970,"DIS_CODE":0,"TOWNNAME":"安南區","LI":"\u25A0田里","LIN":"7鄰","STREET":"\u25A0田路","SECT":" ","MAREA":" ","LANE":" ","ALLEY":" ","HOUSE_NO":"１８號","E_COORD97":162667.07999999999,"N_COORD97":2548394.3100000001,"ADDRESS":"\u25A0田路１８號","OBJECTID":501943},"geometry":{"x":162667.08000000007,"y":2548394.3100000024}},{"attributes":{"ID":501971,"DIS_CODE":0,"TOWNNAME":"安南區","LI":"\u25A0田里","LIN":"7鄰","STREET":"\u25A0田路","SECT":" ","MAREA":" ","LANE":" ","ALLEY":" ","HOUSE_NO":"２０號","E_COORD97":162655.95999999999,"N_COORD97":2548386.3700000001,"ADDRESS":"\u25A0田路２０號","OBJECTID":501944},"geometry":{"x":162655.95999999996,"y":2548386.3700000048}},{"attributes":{"ID":501972,"DIS_CODE":0,"TOWNNAME":"安南區","LI":"\u25A0田里","LIN":"7鄰","STREET":"\u25A0田路","SECT":" ","MAREA":" ","LANE":" ","ALLEY":" ","HOUSE_NO":"２２號","E_COORD97":162646.76000000001,"N_COORD97":2548379.9399999999,"ADDRESS":"\u25A0田路２２號","OBJECTID":501945},"geometry":{"x":162646.76000000071,"y":2548379.9399999995}},{"attributes":{"ID":501973,"DIS_CODE":0,"TOWNNAME":"安南區","LI":"\u25A0田里","LIN":"7鄰","STREET":"\u25A0田路","SECT":" ","MAREA":" ","LANE":" ","ALLEY":" ","HOUSE_NO":"２６號","E_COORD97":162637.39000000001,"N_COORD97":2548372,"ADDRESS":"\u25A0田路２６號","OBJECTID":501946},"geometry":{"x":162637.38999999966,"y":2548372.0000000019}},{"attributes":{"ID":501974,"DIS_CODE":0,"TOWNNAME":"安南區","LI":"\u25A0田里","LIN":"7鄰","STREET":"\u25A0田路","SECT":" ","MAREA":" ","LANE":" ","ALLEY":" ","HOUSE_NO":"３２號","E_COORD97":162616.75,"N_COORD97":2548352,"ADDRESS":"\u25A0田路３２號","OBJECTID":501947},"geometry":{"x":162616.75,"y":2548352.0000000019}},{"attributes":{"ID":501975,"DIS_CODE":0,"TOWNNAME":"安南區","LI":"\u25A0田里","LIN":"7鄰","STREET":"\u25A0田路","SECT":" ","MAREA":" ","LANE":" ","ALLEY":" ","HOUSE_NO":"３６號","E_COORD97":162596.75,"N_COORD97":2548341.8399999999,"ADDRESS":"\u25A0田路３６號","OBJECTID":501948},"geometry":{"x":162596.75,"y":2548341.8400000017}},{"attributes":{"ID":501976,"DIS_CODE":0,"TOWNNAME":"安南區","LI":"\u25A0田里","LIN":"7鄰","STREET":"\u25A0田路","SECT":" ","MAREA":" ","LANE":" ","ALLEY":" ","HOUSE_NO":"３８號","E_COORD97":162587.70000000001,"N_COORD97":2548335.1699999999,"ADDRESS":"\u25A0田路３８號","OBJECTID":501949},"geometry":{"x":162587.70000000112,"y":2548335.1699999999}},{"attributes":{"ID":501977,"DIS_CODE":0,"TOWNNAME":"安南區","LI":"\u25A0田里","LIN":"7鄰","STREET":"\u25A0田路","SECT":" ","MAREA":" ","LANE":" ","ALLEY":" ","HOUSE_NO":"４０號","E_COORD97":162576.26999999999,"N_COORD97":2548329.46,"ADDRESS":"\u25A0田路４０號","OBJECTID":501950},"geometry":{"x":162576.27000000142,"y":2548329.4600000028}},{"attributes":{"ID":501978,"DIS_CODE":0,"TOWNNAME":"安南區","LI":"\u25A0田里","LIN":"7鄰","STREET":"\u25A0田路","SECT":" ","MAREA":" ","LANE":" ","ALLEY":" ","HOUSE_NO":"４２號","E_COORD97":162567.70000000001,"N_COORD97":2548323.27,"ADDRESS":"\u25A0田路４２號","OBJECTID":501951},"geometry":{"x":162567.70000000112,"y":2548323.2699999996}},{"attributes":{"ID":501979,"DIS_CODE":0,"TOWNNAME":"安南區","LI":"\u25A0田里","LIN":"7鄰","STREET":"\u25A0田路","SECT":" ","MAREA":" ","LANE":" ","ALLEY":" ","HOUSE_NO":"４６號","E_COORD97":162557.70000000001,"N_COORD97":2548315.8100000001,"ADDRESS":"\u25A0田路４６號","OBJECTID":501952},"geometry":{"x":162557.70000000112,"y":2548315.8100000024}},{"attributes":{"ID":501980,"DIS_CODE":0,"TOWNNAME":"安南區","LI":"\u25A0田里","LIN":"7鄰","STREET":"\u25A0田路","SECT":" ","MAREA":" ","LANE":" ","ALLEY":" ","HOUSE_NO":"４８號","E_COORD97":162547.06,"N_COORD97":2548309.6200000001,"ADDRESS":"\u25A0田路４８號","OBJECTID":501953},"geometry":{"x":162547.05999999866,"y":2548309.620000001}},{"attributes":{"ID":501981,"DIS_CODE":0,"TOWNNAME":"北區","LI":"元寶里","LIN":"7鄰","STREET":"北園街","SECT":" ","MAREA":" ","LANE":" ","ALLEY":" ","HOUSE_NO":"２２號九樓之８","E_COORD97":170389.20999999999,"N_COORD97":2545683.5299999998,"ADDRESS":"北園街２２號九樓之８","OBJECTID":501954},"geometry":{"x":170389.21000000089,"y":2545683.5299999993}},{"attributes":{"ID":501982,"DIS_CODE":0,"TOWNNAME":"北區","LI":"元寶里","LIN":"7鄰","STREET":"北園街","SECT":" ","MAREA":" ","LANE":" ","ALLEY":" ","HOUSE_NO":"２２號八樓之１","E_COORD97":170389.20999999999,"N_COORD97":2545683.5299999998,"ADDRESS":"北園街２２號八樓之１","OBJECTID":501955},"geometry":{"x":170389.21000000089,"y":2545683.5299999993}},{"attributes":{"ID":501983,"DIS_CODE":0,"TOWNNAME":"北區","LI":"元寶里","LIN":"7鄰","STREET":"北園街","SECT":" ","MAREA":" ","LANE":" ","ALLEY":" ","HOUSE_NO":"２２號八樓之２","E_COORD97":170389.20999999999,"N_COORD97":2545683.5299999998,"ADDRESS":"北園街２２號八樓之２","OBJECTID":501956},"geometry":{"x":170389.21000000089,"y":2545683.5299999993}},{"attributes":{"ID":501984,"DIS_CODE":0,"TOWNNAME":"北區","LI":"元寶里","LIN":"7鄰","STREET":"北園街","SECT":" ","MAREA":" ","LANE":" ","ALLEY":" ","HOUSE_NO":"２２號八樓之３","E_COORD97":170389.20999999999,"N_COORD97":2545683.5299999998,"ADDRESS":"北園街２２號八樓之３","OBJECTID":501957},"geometry":{"x":170389.21000000089,"y":2545683.5299999993}},{"attributes":{"ID":501985,"DIS_CODE":0,"TOWNNAME":"北區","LI":"元寶里","LIN":"7鄰","STREET":"北園街","SECT":" ","MAREA":" ","LANE":" ","ALLEY":" ","HOUSE_NO":"２２號八樓之５","E_COORD97":170389.20999999999,"N_COORD97":2545683.5299999998,"ADDRESS":"北園街２２號八樓之５","OBJECTID":501958},"geometry":{"x":170389.21000000089,"y":2545683.5299999993}},{"attributes":{"ID":501986,"DIS_CODE":0,"TOWNNAME":"北區","LI":"元寶里","LIN":"7鄰","STREET":"北園街","SECT":" ","MAREA":" ","LANE":" ","ALLEY":" ","HOUSE_NO":"２２號八樓之６","E_COORD97":170389.20999999999,"N_COORD97":2545683.5299999998,"ADDRESS":"北園街２２號八樓之６","OBJECTID":501959},"geometry":{"x":170389.21000000089,"y":2545683.5299999993}},{"attributes":{"ID":501987,"DIS_CODE":0,"TOWNNAME":"北區","LI":"元寶里","LIN":"7鄰","STREET":"北園街","SECT":" ","MAREA":" ","LANE":" ","ALLEY":" ","HOUSE_NO":"２２號八樓之７","E_COORD97":170389.20999999999,"N_COORD97":2545683.5299999998,"ADDRESS":"北園街２２號八樓之７","OBJECTID":501960},"geometry":{"x":170389.21000000089,"y":2545683.5299999993}},{"attributes":{"ID":501988,"DIS_CODE":0,"TOWNNAME":"北區","LI":"元寶里","LIN":"7鄰","STREET":"北園街","SECT":" ","MAREA":" ","LANE":" ","ALLEY":" ","HOUSE_NO":"２２號八樓之８","E_COORD97":170389.20999999999,"N_COORD97":2545683.5299999998,"ADDRESS":"北園街２２號八樓之８","OBJECTID":501961},"geometry":{"x":170389.21000000089,"y":2545683.5299999993}},{"attributes":{"ID":501989,"DIS_CODE":0,"TOWNNAME":"北區","LI":"元寶里","LIN":"7鄰","STREET":"北園街","SECT":" ","MAREA":" ","LANE":" ","ALLEY":" ","HOUSE_NO":"２２號八樓之９","E_COORD97":170389.20999999999,"N_COORD97":2545683.5299999998,"ADDRESS":"北園街２２號八樓之９","OBJECTID":501962},"geometry":{"x":170389.21000000089,"y":2545683.5299999993}},{"attributes":{"ID":501990,"DIS_CODE":0,"TOWNNAME":"北區","LI":"元寶里","LIN":"7鄰","STREET":"北園街","SECT":" ","MAREA":" ","LANE":" ","ALLEY":" ","HOUSE_NO":"２２號十一樓之１","E_COORD97":170389.20999999999,"N_COORD97":2545683.5299999998,"ADDRESS":"北園街２２號十一樓之１","OBJECTID":501963},"geometry":{"x":170389.21000000089,"y":2545683.5299999993}},{"attributes":{"ID":501991,"DIS_CODE":0,"TOWNNAME":"北區","LI":"元寶里","LIN":"7鄰","STREET":"北園街","SECT":" ","MAREA":" ","LANE":" ","ALLEY":" ","HOUSE_NO":"２２號十一樓之２","E_COORD97":170389.20999999999,"N_COORD97":2545683.5299999998,"ADDRESS":"北園街２２號十一樓之２","OBJECTID":501964},"geometry":{"x":170389.21000000089,"y":2545683.5299999993}},{"attributes":{"ID":501992,"DIS_CODE":0,"TOWNNAME":"北區","LI":"元寶里","LIN":"7鄰","STREET":"北園街","SECT":" ","MAREA":" ","LANE":" ","ALLEY":" ","HOUSE_NO":"２２號十一樓之３","E_COORD97":170389.20999999999,"N_COORD97":2545683.5299999998,"ADDRESS":"北園街２２號十一樓之３","OBJECTID":501965},"geometry":{"x":170389.21000000089,"y":2545683.5299999993}},{"attributes":{"ID":501993,"DIS_CODE":0,"TOWNNAME":"北區","LI":"元寶里","LIN":"7鄰","STREET":"北園街","SECT":" ","MAREA":" ","LANE":" ","ALLEY":" ","HOUSE_NO":"２２號十一樓之５","E_COORD97":170389.20999999999,"N_COORD97":2545683.5299999998,"ADDRESS":"北園街２２號十一樓之５","OBJECTID":501966},"geometry":{"x":170389.21000000089,"y":2545683.5299999993}},{"attributes":{"ID":501994,"DIS_CODE":0,"TOWNNAME":"北區","LI":"元寶里","LIN":"7鄰","STREET":"北園街","SECT":" ","MAREA":" ","LANE":" ","ALLEY":" ","HOUSE_NO":"２２號十一樓之６","E_COORD97":170389.20999999999,"N_COORD97":2545683.5299999998,"ADDRESS":"北園街２２號十一樓之６","OBJECTID":501967},"geometry":{"x":170389.21000000089,"y":2545683.5299999993}},{"attributes":{"ID":501995,"DIS_CODE":0,"TOWNNAME":"北區","LI":"元寶里","LIN":"7鄰","STREET":"北園街","SECT":" ","MAREA":" ","LANE":" ","ALLEY":" ","HOUSE_NO":"２２號十一樓之７","E_COORD97":170389.20999999999,"N_COORD97":2545683.5299999998,"ADDRESS":"北園街２２號十一樓之７","OBJECTID":501968},"geometry":{"x":170389.21000000089,"y":2545683.5299999993}},{"attributes":{"ID":501996,"DIS_CODE":0,"TOWNNAME":"北區","LI":"元寶里","LIN":"7鄰","STREET":"北園街","SECT":" ","MAREA":" ","LANE":" ","ALLEY":" ","HOUSE_NO":"２２號十一樓之８","E_COORD97":170389.20999999999,"N_COORD97":2545683.5299999998,"ADDRESS":"北園街２２號十一樓之８","OBJECTID":501969},"geometry":{"x":170389.21000000089,"y":2545683.5299999993}},{"attributes":{"ID":501997,"DIS_CODE":0,"TOWNNAME":"北區","LI":"元寶里","LIN":"7鄰","STREET":"北園街","SECT":" ","MAREA":" ","LANE":" ","ALLEY":" ","HOUSE_NO":"２２號十一樓之９","E_COORD97":170389.20999999999,"N_COORD97":2545683.5299999998,"ADDRESS":"北園街２２號十一樓之９","OBJECTID":501970},"geometry":{"x":170389.21000000089,"y":2545683.5299999993}},{"attributes":{"ID":501998,"DIS_CODE":0,"TOWNNAME":"北區","LI":"元寶里","LIN":"7鄰","STREET":"北園街","SECT":" ","MAREA":" ","LANE":" ","ALLEY":" ","HOUSE_NO":"２２號十二樓之２","E_COORD97":170389.20999999999,"N_COORD97":2545683.5299999998,"ADDRESS":"北園街２２號十二樓之２","OBJECTID":501971},"geometry":{"x":170389.21000000089,"y":2545683.5299999993}},{"attributes":{"ID":501999,"DIS_CODE":0,"TOWNNAME":"北區","LI":"元寶里","LIN":"7鄰","STREET":"北園街","SECT":" ","MAREA":" ","LANE":" ","ALLEY":" ","HOUSE_NO":"２２號十二樓之３","E_COORD97":170389.20999999999,"N_COORD97":2545683.5299999998,"ADDRESS":"北園街２２號十二樓之３","OBJECTID":501972},"geometry":{"x":170389.21000000089,"y":2545683.5299999993}},{"attributes":{"ID":502000,"DIS_CODE":0,"TOWNNAME":"北區","LI":"元寶里","LIN":"7鄰","STREET":"北園街","SECT":" ","MAREA":" ","LANE":" ","ALLEY":" ","HOUSE_NO":"２２號十二樓之５","E_COORD97":170389.20999999999,"N_COORD97":2545683.5299999998,"ADDRESS":"北園街２２號十二樓之５","OBJECTID":501973},"geometry":{"x":170389.21000000089,"y":2545683.5299999993}},{"attributes":{"ID":502001,"DIS_CODE":0,"TOWNNAME":"北區","LI":"元寶里","LIN":"7鄰","STREET":"北園街","SECT":" ","MAREA":" ","LANE":" ","ALLEY":" ","HOUSE_NO":"２２號十二樓之６","E_COORD97":170389.20999999999,"N_COORD97":2545683.5299999998,"ADDRESS":"北園街２２號十二樓之６","OBJECTID":501974},"geometry":{"x":170389.21000000089,"y":2545683.5299999993}},{"attributes":{"ID":502002,"DIS_CODE":0,"TOWNNAME":"北區","LI":"元寶里","LIN":"7鄰","STREET":"北園街","SECT":" ","MAREA":" ","LANE":" ","ALLEY":" ","HOUSE_NO":"２２號十二樓之７","E_COORD97":170389.20999999999,"N_COORD97":2545683.5299999998,"ADDRESS":"北園街２２號十二樓之７","OBJECTID":501975},"geometry":{"x":170389.21000000089,"y":2545683.5299999993}},{"attributes":{"ID":502003,"DIS_CODE":0,"TOWNNAME":"北區","LI":"元寶里","LIN":"7鄰","STREET":"北園街","SECT":" ","MAREA":" ","LANE":" ","ALLEY":" ","HOUSE_NO":"２２號十二樓之８","E_COORD97":170389.20999999999,"N_COORD97":2545683.5299999998,"ADDRESS":"北園街２２號十二樓之８","OBJECTID":501976},"geometry":{"x":170389.21000000089,"y":2545683.5299999993}},{"attributes":{"ID":502004,"DIS_CODE":0,"TOWNNAME":"北區","LI":"元寶里","LIN":"7鄰","STREET":"北園街","SECT":" ","MAREA":" ","LANE":" ","ALLEY":" ","HOUSE_NO":"２２號十二樓之９","E_COORD97":170389.20999999999,"N_COORD97":2545683.5299999998,"ADDRESS":"北園街２２號十二樓之９","OBJECTID":501977},"geometry":{"x":170389.21000000089,"y":2545683.5299999993}},{"attributes":{"ID":502005,"DIS_CODE":0,"TOWNNAME":"北區","LI":"元寶里","LIN":"7鄰","STREET":"北園街","SECT":" ","MAREA":" ","LANE":" ","ALLEY":" ","HOUSE_NO":"２２號十三樓之１","E_COORD97":170389.20999999999,"N_COORD97":2545683.5299999998,"ADDRESS":"北園街２２號十三樓之１","OBJECTID":501978},"geometry":{"x":170389.21000000089,"y":2545683.5299999993}},{"attributes":{"ID":502006,"DIS_CODE":0,"TOWNNAME":"北區","LI":"元寶里","LIN":"7鄰","STREET":"北園街","SECT":" ","MAREA":" ","LANE":" ","ALLEY":" ","HOUSE_NO":"２２號十三樓之２","E_COORD97":170389.20999999999,"N_COORD97":2545683.5299999998,"ADDRESS":"北園街２２號十三樓之２","OBJECTID":501979},"geometry":{"x":170389.21000000089,"y":2545683.5299999993}},{"attributes":{"ID":502007,"DIS_CODE":0,"TOWNNAME":"北區","LI":"元寶里","LIN":"7鄰","STREET":"北園街","SECT":" ","MAREA":" ","LANE":" ","ALLEY":" ","HOUSE_NO":"２２號十三樓之３","E_COORD97":170389.20999999999,"N_COORD97":2545683.5299999998,"ADDRESS":"北園街２２號十三樓之３","OBJECTID":501980},"geometry":{"x":170389.21000000089,"y":2545683.5299999993}},{"attributes":{"ID":502008,"DIS_CODE":0,"TOWNNAME":"北區","LI":"元寶里","LIN":"7鄰","STREET":"北園街","SECT":" ","MAREA":" ","LANE":" ","ALLEY":" ","HOUSE_NO":"２２號十三樓之５","E_COORD97":170389.20999999999,"N_COORD97":2545683.5299999998,"ADDRESS":"北園街２２號十三樓之５","OBJECTID":501981},"geometry":{"x":170389.21000000089,"y":2545683.5299999993}},{"attributes":{"ID":502009,"DIS_CODE":0,"TOWNNAME":"北區","LI":"元寶里","LIN":"7鄰","STREET":"北園街","SECT":" ","MAREA":" ","LANE":" ","ALLEY":" ","HOUSE_NO":"２２號十三樓之６","E_COORD97":170389.20999999999,"N_COORD97":2545683.5299999998,"ADDRESS":"北園街２２號十三樓之６","OBJECTID":501982},"geometry":{"x":170389.21000000089,"y":2545683.5299999993}},{"attributes":{"ID":502010,"DIS_CODE":0,"TOWNNAME":"北區","LI":"元寶里","LIN":"7鄰","STREET":"北園街","SECT":" ","MAREA":" ","LANE":" ","ALLEY":" ","HOUSE_NO":"２２號十三樓之７","E_COORD97":170389.20999999999,"N_COORD97":2545683.5299999998,"ADDRESS":"北園街２２號十三樓之７","OBJECTID":501983},"geometry":{"x":170389.21000000089,"y":2545683.5299999993}},{"attributes":{"ID":502011,"DIS_CODE":0,"TOWNNAME":"北區","LI":"元寶里","LIN":"7鄰","STREET":"北園街","SECT":" ","MAREA":" ","LANE":" ","ALLEY":" ","HOUSE_NO":"２２號十三樓之８","E_COORD97":170389.20999999999,"N_COORD97":2545683.5299999998,"ADDRESS":"北園街２２號十三樓之８","OBJECTID":501984},"geometry":{"x":170389.21000000089,"y":2545683.5299999993}},{"attributes":{"ID":502012,"DIS_CODE":0,"TOWNNAME":"北區","LI":"元寶里","LIN":"7鄰","STREET":"北園街","SECT":" ","MAREA":" ","LANE":" ","ALLEY":" ","HOUSE_NO":"２２號十三樓之９","E_COORD97":170389.20999999999,"N_COORD97":2545683.5299999998,"ADDRESS":"北園街２２號十三樓之９","OBJECTID":501985},"geometry":{"x":170389.21000000089,"y":2545683.5299999993}},{"attributes":{"ID":502013,"DIS_CODE":0,"TOWNNAME":"北區","LI":"元寶里","LIN":"7鄰","STREET":"北園街","SECT":" ","MAREA":" ","LANE":" ","ALLEY":" ","HOUSE_NO":"２２號十四樓之１","E_COORD97":170389.20999999999,"N_COORD97":2545683.5299999998,"ADDRESS":"北園街２２號十四樓之１","OBJECTID":501986},"geometry":{"x":170389.21000000089,"y":2545683.5299999993}},{"attributes":{"ID":502014,"DIS_CODE":0,"TOWNNAME":"北區","LI":"元寶里","LIN":"7鄰","STREET":"北園街","SECT":" ","MAREA":" ","LANE":" ","ALLEY":" ","HOUSE_NO":"２２號十四樓之２","E_COORD97":170389.20999999999,"N_COORD97":2545683.5299999998,"ADDRESS":"北園街２２號十四樓之２","OBJECTID":501987},"geometry":{"x":170389.21000000089,"y":2545683.5299999993}},{"attributes":{"ID":502015,"DIS_CODE":0,"TOWNNAME":"北區","LI":"元寶里","LIN":"7鄰","STREET":"北園街","SECT":" ","MAREA":" ","LANE":" ","ALLEY":" ","HOUSE_NO":"２２號十四樓之３","E_COORD97":170389.20999999999,"N_COORD97":2545683.5299999998,"ADDRESS":"北園街２２號十四樓之３","OBJECTID":501988},"geometry":{"x":170389.21000000089,"y":2545683.5299999993}},{"attributes":{"ID":502016,"DIS_CODE":0,"TOWNNAME":"北區","LI":"元寶里","LIN":"7鄰","STREET":"北園街","SECT":" ","MAREA":" ","LANE":" ","ALLEY":" ","HOUSE_NO":"２２號十四樓之５","E_COORD97":170389.20999999999,"N_COORD97":2545683.5299999998,"ADDRESS":"北園街２２號十四樓之５","OBJECTID":501989},"geometry":{"x":170389.21000000089,"y":2545683.5299999993}},{"attributes":{"ID":502017,"DIS_CODE":0,"TOWNNAME":"北區","LI":"元寶里","LIN":"7鄰","STREET":"北園街","SECT":" ","MAREA":" ","LANE":" ","ALLEY":" ","HOUSE_NO":"２２號十四樓之６","E_COORD97":170389.20999999999,"N_COORD97":2545683.5299999998,"ADDRESS":"北園街２２號十四樓之６","OBJECTID":501990},"geometry":{"x":170389.21000000089,"y":2545683.5299999993}},{"attributes":{"ID":502018,"DIS_CODE":0,"TOWNNAME":"北區","LI":"元寶里","LIN":"7鄰","STREET":"北園街","SECT":" ","MAREA":" ","LANE":" ","ALLEY":" ","HOUSE_NO":"２２號十四樓之７","E_COORD97":170389.20999999999,"N_COORD97":2545683.5299999998,"ADDRESS":"北園街２２號十四樓之７","OBJECTID":501991},"geometry":{"x":170389.21000000089,"y":2545683.5299999993}},{"attributes":{"ID":502019,"DIS_CODE":0,"TOWNNAME":"北區","LI":"元寶里","LIN":"7鄰","STREET":"北園街","SECT":" ","MAREA":" ","LANE":" ","ALLEY":" ","HOUSE_NO":"２２號十四樓之８","E_COORD97":170389.20999999999,"N_COORD97":2545683.5299999998,"ADDRESS":"北園街２２號十四樓之８","OBJECTID":501992},"geometry":{"x":170389.21000000089,"y":2545683.5299999993}},{"attributes":{"ID":502020,"DIS_CODE":0,"TOWNNAME":"北區","LI":"元寶里","LIN":"7鄰","STREET":"北園街","SECT":" ","MAREA":" ","LANE":" ","ALLEY":" ","HOUSE_NO":"２２號十四樓之９","E_COORD97":170389.20999999999,"N_COORD97":2545683.5299999998,"ADDRESS":"北園街２２號十四樓之９","OBJECTID":501993},"geometry":{"x":170389.21000000089,"y":2545683.5299999993}},{"attributes":{"ID":502021,"DIS_CODE":0,"TOWNNAME":"北區","LI":"元寶里","LIN":"7鄰","STREET":"北園街","SECT":" ","MAREA":" ","LANE":" ","ALLEY":" ","HOUSE_NO":"２２號十樓之１","E_COORD97":170389.20999999999,"N_COORD97":2545683.5299999998,"ADDRESS":"北園街２２號十樓之１","OBJECTID":501994},"geometry":{"x":170389.21000000089,"y":2545683.5299999993}},{"attributes":{"ID":502022,"DIS_CODE":0,"TOWNNAME":"北區","LI":"元寶里","LIN":"7鄰","STREET":"北園街","SECT":" ","MAREA":" ","LANE":" ","ALLEY":" ","HOUSE_NO":"２２號十樓之２","E_COORD97":170389.20999999999,"N_COORD97":2545683.5299999998,"ADDRESS":"北園街２２號十樓之２","OBJECTID":501995},"geometry":{"x":170389.21000000089,"y":2545683.5299999993}},{"attributes":{"ID":502023,"DIS_CODE":0,"TOWNNAME":"北區","LI":"元寶里","LIN":"7鄰","STREET":"北園街","SECT":" ","MAREA":" ","LANE":" ","ALLEY":" ","HOUSE_NO":"２２號十樓之３","E_COORD97":170389.20999999999,"N_COORD97":2545683.5299999998,"ADDRESS":"北園街２２號十樓之３","OBJECTID":501996},"geometry":{"x":170389.21000000089,"y":2545683.5299999993}},{"attributes":{"ID":502024,"DIS_CODE":0,"TOWNNAME":"北區","LI":"元寶里","LIN":"7鄰","STREET":"北園街","SECT":" ","MAREA":" ","LANE":" ","ALLEY":" ","HOUSE_NO":"２２號十樓之５","E_COORD97":170389.20999999999,"N_COORD97":2545683.5299999998,"ADDRESS":"北園街２２號十樓之５","OBJECTID":501997},"geometry":{"x":170389.21000000089,"y":2545683.5299999993}},{"attributes":{"ID":502025,"DIS_CODE":0,"TOWNNAME":"北區","LI":"元寶里","LIN":"7鄰","STREET":"北園街","SECT":" ","MAREA":" ","LANE":" ","ALLEY":" ","HOUSE_NO":"２２號十樓之６","E_COORD97":170389.20999999999,"N_COORD97":2545683.5299999998,"ADDRESS":"北園街２２號十樓之６","OBJECTID":501998},"geometry":{"x":170389.21000000089,"y":2545683.5299999993}},{"attributes":{"ID":502026,"DIS_CODE":0,"TOWNNAME":"北區","LI":"元寶里","LIN":"7鄰","STREET":"北園街","SECT":" ","MAREA":" ","LANE":" ","ALLEY":" ","HOUSE_NO":"２２號十樓之７","E_COORD97":170389.20999999999,"N_COORD97":2545683.5299999998,"ADDRESS":"北園街２２號十樓之７","OBJECTID":501999},"geometry":{"x":170389.21000000089,"y":2545683.5299999993}},{"attributes":{"ID":502027,"DIS_CODE":0,"TOWNNAME":"北區","LI":"元寶里","LIN":"7鄰","STREET":"北園街","SECT":" ","MAREA":" ","LANE":" ","ALLEY":" ","HOUSE_NO":"２２號十樓之８","E_COORD97":170389.20999999999,"N_COORD97":2545683.5299999998,"ADDRESS":"北園街２２號十樓之８","OBJECTID":502000},"geometry":{"x":170389.21000000089,"y":2545683.5299999993}}]}