{"displayFieldName":"TOWNNAME","fieldAliases":{"ID":"ID","DIS_CODE":"DIS_CODE","TOWNNAME":"TOWNNAME","LI":"LI","LIN":"LIN","STREET":"STREET","SECT":"SECT","MAREA":"MAREA","LANE":"LANE","ALLEY":"ALLEY","HOUSE_NO":"HOUSE_NO","E_COORD97":"E_COORD97","N_COORD97":"N_COORD97","ADDRESS":"ADDRESS","OBJECTID":"OBJECTID"},"geometryType":"esriGeometryPoint","spatialReference":{"wkid":102443,"latestWkid":3826},"fields":[{"name":"ID","type":"esriFieldTypeDouble","alias":"ID"},{"name":"DIS_CODE","type":"esriFieldTypeInteger","alias":"DIS_CODE"},{"name":"TOWNNAME","type":"esriFieldTypeString","alias":"TOWNNAME","length":8},{"name":"LI","type":"esriFieldTypeString","alias":"LI","length":8},{"name":"LIN","type":"esriFieldTypeString","alias":"LIN","length":12},{"name":"STREET","type":"esriFieldTypeString","alias":"STREET","length":20},{"name":"SECT","type":"esriFieldTypeString","alias":"SECT","length":8},{"name":"MAREA","type":"esriFieldTypeString","alias":"MAREA","length":12},{"name":"LANE","type":"esriFieldTypeString","alias":"LANE","length":10},{"name":"ALLEY","type":"esriFieldTypeString","alias":"ALLEY","length":10},{"name":"HOUSE_NO","type":"esriFieldTypeString","alias":"HOUSE_NO","length":20},{"name":"E_COORD97","type":"esriFieldTypeDouble","alias":"E_COORD97"},{"name":"N_COORD97","type":"esriFieldTypeDouble","alias":"N_COORD97"},{"name":"ADDRESS","type":"esriFieldTypeString","alias":"ADDRESS","length":50},{"name":"OBJECTID","type":"esriFieldTypeOID","alias":"OBJECTID"}],"features":[{"attributes":{"ID":224405,"DIS_CODE":0,"TOWNNAME":"永康區","LI":"中華里","LIN":"14鄰","STREET":"忠義街","SECT":" ","MAREA":" ","LANE":"４４巷","ALLEY":" ","HOUSE_NO":"８號","E_COORD97":171746.22,"N_COORD97":2544463.1699999999,"ADDRESS":"忠義街４４巷８號","OBJECTID":224401},"geometry":{"x":171746.22000000067,"y":2544463.1699999999}},{"attributes":{"ID":224406,"DIS_CODE":0,"TOWNNAME":"永康區","LI":"中華里","LIN":"8鄰","STREET":"小東路","SECT":" ","MAREA":" ","LANE":"６４７巷","ALLEY":" ","HOUSE_NO":"６３號","E_COORD97":171917.79999999999,"N_COORD97":2544490.3500000001,"ADDRESS":"小東路６４７巷６３號","OBJECTID":224402},"geometry":{"x":171917.79999999981,"y":2544490.3500000015}},{"attributes":{"ID":224407,"DIS_CODE":0,"TOWNNAME":"永康區","LI":"中華里","LIN":"10鄰","STREET":"忠義街","SECT":" ","MAREA":" ","LANE":"１０巷","ALLEY":" ","HOUSE_NO":"３０號","E_COORD97":171819.82999999999,"N_COORD97":2544371.9399999999,"ADDRESS":"忠義街１０巷３０號","OBJECTID":224403},"geometry":{"x":171819.83000000007,"y":2544371.9399999995}},{"attributes":{"ID":224408,"DIS_CODE":0,"TOWNNAME":"永康區","LI":"龍潭里","LIN":"45鄰","STREET":"中山北路","SECT":" ","MAREA":" ","LANE":"２６４巷","ALLEY":" ","HOUSE_NO":"３１２號","E_COORD97":174695.29999999999,"N_COORD97":2546822.4199999999,"ADDRESS":"中山北路２６４巷３１２號","OBJECTID":224404},"geometry":{"x":174695.30000000168,"y":2546822.4200000018}},{"attributes":{"ID":224409,"DIS_CODE":0,"TOWNNAME":"永康區","LI":"龍潭里","LIN":"45鄰","STREET":"中山北路","SECT":" ","MAREA":" ","LANE":"２６４巷","ALLEY":" ","HOUSE_NO":"３１６號","E_COORD97":174697.17999999999,"N_COORD97":2546817.5899999999,"ADDRESS":"中山北路２６４巷３１６號","OBJECTID":224405},"geometry":{"x":174697.1799999997,"y":2546817.5900000017}},{"attributes":{"ID":224410,"DIS_CODE":0,"TOWNNAME":"永康區","LI":"龍潭里","LIN":"45鄰","STREET":"中山北路","SECT":" ","MAREA":" ","LANE":"２６４巷","ALLEY":" ","HOUSE_NO":"３１８號","E_COORD97":174697.26999999999,"N_COORD97":2546813.1899999999,"ADDRESS":"中山北路２６４巷３１８號","OBJECTID":224406},"geometry":{"x":174697.27000000048,"y":2546813.1900000013}},{"attributes":{"ID":224411,"DIS_CODE":0,"TOWNNAME":"永康區","LI":"中華里","LIN":"23鄰","STREET":"忠勇街","SECT":" ","MAREA":" ","LANE":"６３巷","ALLEY":" ","HOUSE_NO":"８號","E_COORD97":171863.89000000001,"N_COORD97":2544628.7000000002,"ADDRESS":"忠勇街６３巷８號","OBJECTID":224407},"geometry":{"x":171863.8900000006,"y":2544628.6999999993}},{"attributes":{"ID":224412,"DIS_CODE":0,"TOWNNAME":"永康區","LI":"中華里","LIN":"23鄰","STREET":"忠勇街","SECT":" ","MAREA":" ","LANE":"６３巷","ALLEY":" ","HOUSE_NO":"２０號","E_COORD97":171826.95000000001,"N_COORD97":2544628.3199999998,"ADDRESS":"忠勇街６３巷２０號","OBJECTID":224408},"geometry":{"x":171826.95000000112,"y":2544628.3200000003}},{"attributes":{"ID":224413,"DIS_CODE":0,"TOWNNAME":"永康區","LI":"中華里","LIN":"5鄰","STREET":"小東路","SECT":" ","MAREA":" ","LANE":"６４７巷","ALLEY":" ","HOUSE_NO":"３２號","E_COORD97":171949.84,"N_COORD97":2544458.8799999999,"ADDRESS":"小東路６４７巷３２號","OBJECTID":224409},"geometry":{"x":171949.83999999985,"y":2544458.8800000008}},{"attributes":{"ID":224414,"DIS_CODE":0,"TOWNNAME":"永康區","LI":"中華里","LIN":"18鄰","STREET":"中華路","SECT":" ","MAREA":" ","LANE":"１０巷","ALLEY":" ","HOUSE_NO":"３５號","E_COORD97":171682.70999999999,"N_COORD97":2544482.0899999999,"ADDRESS":"中華路１０巷３５號","OBJECTID":224410},"geometry":{"x":171682.71000000089,"y":2544482.0900000017}},{"attributes":{"ID":224415,"DIS_CODE":0,"TOWNNAME":"永康區","LI":"龍潭里","LIN":"45鄰","STREET":"中山北路","SECT":" ","MAREA":" ","LANE":"２６４巷","ALLEY":" ","HOUSE_NO":"３２０號","E_COORD97":174696.57000000001,"N_COORD97":2546808.0299999998,"ADDRESS":"中山北路２６４巷３２０號","OBJECTID":224411},"geometry":{"x":174696.5700000003,"y":2546808.0300000012}},{"attributes":{"ID":224416,"DIS_CODE":0,"TOWNNAME":"東區","LI":"關聖里","LIN":"16鄰","STREET":"裕英街","SECT":" ","MAREA":" ","LANE":" ","ALLEY":" ","HOUSE_NO":"１２８號","E_COORD97":172370.14000000001,"N_COORD97":2542998.3100000001,"ADDRESS":"裕英街１２８號","OBJECTID":224412},"geometry":{"x":172370.13999999966,"y":2542998.3100000005}},{"attributes":{"ID":224417,"DIS_CODE":0,"TOWNNAME":"歸仁區","LI":"辜厝里","LIN":"45鄰","STREET":"中正八街","SECT":" ","MAREA":" ","LANE":"１２巷","ALLEY":" ","HOUSE_NO":"７號","E_COORD97":177177.69,"N_COORD97":2540284.9500000002,"ADDRESS":"中正八街１２巷７號","OBJECTID":224413},"geometry":{"x":177177.69000000041,"y":2540284.9500000011}},{"attributes":{"ID":224418,"DIS_CODE":0,"TOWNNAME":"歸仁區","LI":"辜厝里","LIN":"45鄰","STREET":"中正八街","SECT":" ","MAREA":" ","LANE":"１２巷","ALLEY":" ","HOUSE_NO":"３號","E_COORD97":177167.48999999999,"N_COORD97":2540284.9500000002,"ADDRESS":"中正八街１２巷３號","OBJECTID":224414},"geometry":{"x":177167.48999999929,"y":2540284.9500000011}},{"attributes":{"ID":224419,"DIS_CODE":0,"TOWNNAME":"永康區","LI":"中華里","LIN":"25鄰","STREET":"忠義街","SECT":" ","MAREA":" ","LANE":"７１巷","ALLEY":" ","HOUSE_NO":"３號","E_COORD97":171689.45999999999,"N_COORD97":2544612.3999999999,"ADDRESS":"忠義街７１巷３號","OBJECTID":224415},"geometry":{"x":171689.46000000089,"y":2544612.4000000022}},{"attributes":{"ID":224420,"DIS_CODE":0,"TOWNNAME":"永康區","LI":"中華里","LIN":"15鄰","STREET":"忠義街","SECT":" ","MAREA":" ","LANE":"６０巷","ALLEY":" ","HOUSE_NO":"３２號","E_COORD97":171806.92999999999,"N_COORD97":2544512.2799999998,"ADDRESS":"忠義街６０巷３２號","OBJECTID":224416},"geometry":{"x":171806.9299999997,"y":2544512.2799999993}},{"attributes":{"ID":224421,"DIS_CODE":0,"TOWNNAME":"永康區","LI":"三合里","LIN":"24鄰","STREET":"南工街","SECT":" ","MAREA":" ","LANE":"２６７巷","ALLEY":" ","HOUSE_NO":"２０號","E_COORD97":171873.38,"N_COORD97":2545890.2200000002,"ADDRESS":"南工街２６７巷２０號","OBJECTID":224417},"geometry":{"x":171873.37999999989,"y":2545890.2200000007}},{"attributes":{"ID":224422,"DIS_CODE":0,"TOWNNAME":"永康區","LI":"西灣里","LIN":"18鄰","STREET":"民族路","SECT":" ","MAREA":" ","LANE":" ","ALLEY":" ","HOUSE_NO":"４７６號","E_COORD97":174608.89999999999,"N_COORD97":2545445.3199999998,"ADDRESS":"民族路４７６號","OBJECTID":224418},"geometry":{"x":174608.9000000013,"y":2545445.3200000003}},{"attributes":{"ID":224423,"DIS_CODE":0,"TOWNNAME":"永康區","LI":"西灣里","LIN":"39鄰","STREET":"永華路","SECT":" ","MAREA":" ","LANE":" ","ALLEY":" ","HOUSE_NO":"２２２號","E_COORD97":174121.03,"N_COORD97":2545517.1699999999,"ADDRESS":"永華路２２２號","OBJECTID":224419},"geometry":{"x":174121.02999999933,"y":2545517.1699999999}},{"attributes":{"ID":224424,"DIS_CODE":0,"TOWNNAME":"永康區","LI":"西灣里","LIN":"39鄰","STREET":"國光七街","SECT":" ","MAREA":" ","LANE":" ","ALLEY":" ","HOUSE_NO":"４７號","E_COORD97":174208.06,"N_COORD97":2545520.71,"ADDRESS":"國光七街４７號","OBJECTID":224420},"geometry":{"x":174208.05999999959,"y":2545520.7100000009}},{"attributes":{"ID":224425,"DIS_CODE":0,"TOWNNAME":"永康區","LI":"尚頂里","LIN":"5鄰","STREET":"\u25A0信街","SECT":" ","MAREA":" ","LANE":" ","ALLEY":" ","HOUSE_NO":"６６號","E_COORD97":170876.17999999999,"N_COORD97":2547506.1299999999,"ADDRESS":"\u25A0信街６６號","OBJECTID":224421},"geometry":{"x":170876.1799999997,"y":2547506.129999999}},{"attributes":{"ID":224426,"DIS_CODE":0,"TOWNNAME":"永康區","LI":"西橋里","LIN":"18鄰","STREET":"大橋三街","SECT":" ","MAREA":" ","LANE":" ","ALLEY":" ","HOUSE_NO":"５０號之４","E_COORD97":174353.48000000001,"N_COORD97":2547362.2000000002,"ADDRESS":"大橋三街５０號之４","OBJECTID":224422},"geometry":{"x":174353.48000000045,"y":2547362.2000000011}},{"attributes":{"ID":224427,"DIS_CODE":0,"TOWNNAME":"永康區","LI":"西灣里","LIN":"18鄰","STREET":"民族路","SECT":" ","MAREA":" ","LANE":" ","ALLEY":" ","HOUSE_NO":"４３６號","E_COORD97":174676.78,"N_COORD97":2545425.2400000002,"ADDRESS":"民族路４３６號","OBJECTID":224423},"geometry":{"x":174676.78000000026,"y":2545425.2400000002}},{"attributes":{"ID":224428,"DIS_CODE":0,"TOWNNAME":"永康區","LI":"西橋里","LIN":"20鄰","STREET":"大橋三街","SECT":" ","MAREA":" ","LANE":" ","ALLEY":" ","HOUSE_NO":"４３號","E_COORD97":170551.92000000001,"N_COORD97":2546463.2400000002,"ADDRESS":"大橋三街４３號","OBJECTID":224424},"geometry":{"x":170551.92000000086,"y":2546463.2400000002}},{"attributes":{"ID":224429,"DIS_CODE":0,"TOWNNAME":"永康區","LI":"西灣里","LIN":"42鄰","STREET":"國光六街","SECT":" ","MAREA":" ","LANE":" ","ALLEY":" ","HOUSE_NO":"９８號","E_COORD97":174011.10000000001,"N_COORD97":2545364.3599999999,"ADDRESS":"國光六街９８號","OBJECTID":224425},"geometry":{"x":174011.09999999963,"y":2545364.3600000013}},{"attributes":{"ID":224430,"DIS_CODE":0,"TOWNNAME":"永康區","LI":"西灣里","LIN":"18鄰","STREET":"民族路","SECT":" ","MAREA":" ","LANE":" ","ALLEY":" ","HOUSE_NO":"５３０號","E_COORD97":174480.03,"N_COORD97":2545503.1800000002,"ADDRESS":"民族路５３０號","OBJECTID":224426},"geometry":{"x":174480.03000000026,"y":2545503.1799999997}},{"attributes":{"ID":224431,"DIS_CODE":0,"TOWNNAME":"永康區","LI":"尚頂里","LIN":"5鄰","STREET":"\u25A0信街","SECT":" ","MAREA":" ","LANE":" ","ALLEY":" ","HOUSE_NO":"７８號","E_COORD97":170909.75,"N_COORD97":2547531.77,"ADDRESS":"\u25A0信街７８號","OBJECTID":224427},"geometry":{"x":170909.75,"y":2547531.7700000014}},{"attributes":{"ID":224432,"DIS_CODE":0,"TOWNNAME":"永康區","LI":"尚頂里","LIN":"5鄰","STREET":"\u25A0信街","SECT":" ","MAREA":" ","LANE":" ","ALLEY":" ","HOUSE_NO":"８６號","E_COORD97":170877.79999999999,"N_COORD97":2547587.0699999998,"ADDRESS":"\u25A0信街８６號","OBJECTID":224428},"geometry":{"x":170877.80000000075,"y":2547587.0700000003}},{"attributes":{"ID":224433,"DIS_CODE":0,"TOWNNAME":"永康區","LI":"西灣里","LIN":"18鄰","STREET":"民族路","SECT":" ","MAREA":" ","LANE":" ","ALLEY":" ","HOUSE_NO":"５２２號","E_COORD97":174510.29000000001,"N_COORD97":2545473.1499999999,"ADDRESS":"民族路５２２號","OBJECTID":224429},"geometry":{"x":174510.29000000004,"y":2545473.1500000004}},{"attributes":{"ID":224434,"DIS_CODE":0,"TOWNNAME":"永康區","LI":"二王里","LIN":" ","STREET":"中山南路","SECT":" ","MAREA":" ","LANE":" ","ALLEY":" ","HOUSE_NO":"５２２號","E_COORD97":172124.67000000001,"N_COORD97":2546506.8500000001,"ADDRESS":"中山南路５２２號","OBJECTID":224430},"geometry":{"x":172124.67000000179,"y":2546506.8500000034}},{"attributes":{"ID":224435,"DIS_CODE":0,"TOWNNAME":"永康區","LI":"西灣里","LIN":"41鄰","STREET":"國光六街","SECT":" ","MAREA":" ","LANE":" ","ALLEY":" ","HOUSE_NO":"８２號","E_COORD97":174053.64999999999,"N_COORD97":2545345.1800000002,"ADDRESS":"國光六街８２號","OBJECTID":224431},"geometry":{"x":174053.65000000037,"y":2545345.1800000034}},{"attributes":{"ID":224436,"DIS_CODE":0,"TOWNNAME":"永康區","LI":"大橋里","LIN":" ","STREET":"大橋一街","SECT":" ","MAREA":" ","LANE":" ","ALLEY":" ","HOUSE_NO":"１９１號","E_COORD97":171164.89999999999,"N_COORD97":2546578.9900000002,"ADDRESS":"大橋一街１９１號","OBJECTID":224432},"geometry":{"x":171164.90000000037,"y":2546578.9900000021}},{"attributes":{"ID":224437,"DIS_CODE":0,"TOWNNAME":"永康區","LI":"二王里","LIN":"17鄰","STREET":"忠孝路","SECT":" ","MAREA":" ","LANE":"４１０巷","ALLEY":" ","HOUSE_NO":"６２號","E_COORD97":172634.85999999999,"N_COORD97":2546531.25,"ADDRESS":"忠孝路４１０巷６２號","OBJECTID":224433},"geometry":{"x":172634.86000000034,"y":2546531.2499999981}},{"attributes":{"ID":224438,"DIS_CODE":0,"TOWNNAME":"永康區","LI":"二王里","LIN":"31鄰","STREET":"中山南路","SECT":" ","MAREA":" ","LANE":"４９０巷","ALLEY":" ","HOUSE_NO":"５號","E_COORD97":172107.09,"N_COORD97":2546396.79,"ADDRESS":"中山南路４９０巷５號","OBJECTID":224434},"geometry":{"x":172107.09000000078,"y":2546396.7899999991}},{"attributes":{"ID":224439,"DIS_CODE":0,"TOWNNAME":"永康區","LI":"\u25A0行里","LIN":"45鄰","STREET":"正南五街","SECT":" ","MAREA":" ","LANE":"５２０巷","ALLEY":" ","HOUSE_NO":"８３號七樓之１","E_COORD97":171797.32999999999,"N_COORD97":2548809.0499999998,"ADDRESS":"正南五街５２０巷８３號七樓之１","OBJECTID":224435},"geometry":{"x":171797.33000000007,"y":2548809.0500000026}},{"attributes":{"ID":224440,"DIS_CODE":0,"TOWNNAME":"永康區","LI":"大灣里","LIN":"8鄰","STREET":"民族路","SECT":" ","MAREA":" ","LANE":"３９６巷","ALLEY":" ","HOUSE_NO":"４６號","E_COORD97":174760.75,"N_COORD97":2545496.9700000002,"ADDRESS":"民族路３９６巷４６號","OBJECTID":224436},"geometry":{"x":174760.75000000093,"y":2545496.9700000025}},{"attributes":{"ID":224441,"DIS_CODE":0,"TOWNNAME":"永康區","LI":"\u25A0行里","LIN":"45鄰","STREET":"正南五街","SECT":" ","MAREA":" ","LANE":"５２０巷","ALLEY":" ","HOUSE_NO":"８３號四樓之３","E_COORD97":171797.42999999999,"N_COORD97":2548809.0499999998,"ADDRESS":"正南五街５２０巷８３號四樓之３","OBJECTID":224437},"geometry":{"x":171797.43000000063,"y":2548809.0500000026}},{"attributes":{"ID":224442,"DIS_CODE":0,"TOWNNAME":"永康區","LI":"\u25A0行里","LIN":"45鄰","STREET":"正南五街","SECT":" ","MAREA":" ","LANE":"５２０巷","ALLEY":" ","HOUSE_NO":"８３號六樓之２","E_COORD97":171797.45999999999,"N_COORD97":2548809.0499999998,"ADDRESS":"正南五街５２０巷８３號六樓之２","OBJECTID":224438},"geometry":{"x":171797.46000000089,"y":2548809.0500000026}},{"attributes":{"ID":224443,"DIS_CODE":0,"TOWNNAME":"永康區","LI":"正強里","LIN":"45鄰","STREET":"中正路","SECT":" ","MAREA":" ","LANE":"２５６巷","ALLEY":" ","HOUSE_NO":"７號之３８","E_COORD97":173183.06,"N_COORD97":2547985.3100000001,"ADDRESS":"中正路２５６巷７號之３８","OBJECTID":224439},"geometry":{"x":173183.06000000052,"y":2547985.3100000005}},{"attributes":{"ID":224444,"DIS_CODE":0,"TOWNNAME":"永康區","LI":"正強里","LIN":"45鄰","STREET":"中正路","SECT":" ","MAREA":" ","LANE":"２５６巷","ALLEY":" ","HOUSE_NO":"７號之７","E_COORD97":173181.73999999999,"N_COORD97":2547985.3100000001,"ADDRESS":"中正路２５６巷７號之７","OBJECTID":224440},"geometry":{"x":173181.74000000022,"y":2547985.3100000005}},{"attributes":{"ID":224445,"DIS_CODE":0,"TOWNNAME":"永康區","LI":"正強里","LIN":"45鄰","STREET":"中正路","SECT":" ","MAREA":" ","LANE":"２５６巷","ALLEY":" ","HOUSE_NO":"７號之３０","E_COORD97":173182.95999999999,"N_COORD97":2547985.3100000001,"ADDRESS":"中正路２５６巷７號之３０","OBJECTID":224441},"geometry":{"x":173182.96000000089,"y":2547985.3100000005}},{"attributes":{"ID":224446,"DIS_CODE":0,"TOWNNAME":"永康區","LI":"正強里","LIN":"45鄰","STREET":"中正路","SECT":" ","MAREA":" ","LANE":"２５６巷","ALLEY":" ","HOUSE_NO":"７號之１８","E_COORD97":173183.06,"N_COORD97":2547985.3100000001,"ADDRESS":"中正路２５６巷７號之１８","OBJECTID":224442},"geometry":{"x":173183.06000000052,"y":2547985.3100000005}},{"attributes":{"ID":224447,"DIS_CODE":0,"TOWNNAME":"永康區","LI":"正強里","LIN":"45鄰","STREET":"中正路","SECT":" ","MAREA":" ","LANE":"２５６巷","ALLEY":" ","HOUSE_NO":"７號之３５","E_COORD97":173183.06,"N_COORD97":2547985.3100000001,"ADDRESS":"中正路２５６巷７號之３５","OBJECTID":224443},"geometry":{"x":173183.06000000052,"y":2547985.3100000005}},{"attributes":{"ID":224448,"DIS_CODE":0,"TOWNNAME":"永康區","LI":"正強里","LIN":"45鄰","STREET":"中正路","SECT":" ","MAREA":" ","LANE":"２５６巷","ALLEY":" ","HOUSE_NO":"７號之４９","E_COORD97":173182.98999999999,"N_COORD97":2547985.3100000001,"ADDRESS":"中正路２５６巷７號之４９","OBJECTID":224444},"geometry":{"x":173182.99000000115,"y":2547985.3100000005}},{"attributes":{"ID":224449,"DIS_CODE":0,"TOWNNAME":"永康區","LI":"正強里","LIN":"45鄰","STREET":"中正路","SECT":" ","MAREA":" ","LANE":"２５６巷","ALLEY":" ","HOUSE_NO":"７號之１７","E_COORD97":173182.98999999999,"N_COORD97":2547985.3100000001,"ADDRESS":"中正路２５６巷７號之１７","OBJECTID":224445},"geometry":{"x":173182.99000000115,"y":2547985.3100000005}},{"attributes":{"ID":224450,"DIS_CODE":0,"TOWNNAME":"永康區","LI":"正強里","LIN":"45鄰","STREET":"中正路","SECT":" ","MAREA":" ","LANE":"２５６巷","ALLEY":" ","HOUSE_NO":"７號之６","E_COORD97":173181.76000000001,"N_COORD97":2547985.3100000001,"ADDRESS":"中正路２５６巷７號之６","OBJECTID":224446},"geometry":{"x":173181.76000000071,"y":2547985.3100000005}},{"attributes":{"ID":224451,"DIS_CODE":0,"TOWNNAME":"永康區","LI":"正強里","LIN":"45鄰","STREET":"中正路","SECT":" ","MAREA":" ","LANE":"２５６巷","ALLEY":" ","HOUSE_NO":"７號之２５","E_COORD97":173183.06,"N_COORD97":2547985.3100000001,"ADDRESS":"中正路２５６巷７號之２５","OBJECTID":224447},"geometry":{"x":173183.06000000052,"y":2547985.3100000005}},{"attributes":{"ID":224452,"DIS_CODE":0,"TOWNNAME":"永康區","LI":"正強里","LIN":"45鄰","STREET":"中正路","SECT":" ","MAREA":" ","LANE":"２５６巷","ALLEY":" ","HOUSE_NO":"７號之２９","E_COORD97":173182.98999999999,"N_COORD97":2547985.3100000001,"ADDRESS":"中正路２５６巷７號之２９","OBJECTID":224448},"geometry":{"x":173182.99000000115,"y":2547985.3100000005}},{"attributes":{"ID":224453,"DIS_CODE":0,"TOWNNAME":"歸仁區","LI":"南保里","LIN":"45鄰","STREET":"民權十街","SECT":" ","MAREA":" ","LANE":"６３巷","ALLEY":" ","HOUSE_NO":"１０號","E_COORD97":176769.01000000001,"N_COORD97":2540706.2999999998,"ADDRESS":"民權十街６３巷１０號","OBJECTID":224449},"geometry":{"x":176769.01000000071,"y":2540706.3000000007}},{"attributes":{"ID":224454,"DIS_CODE":0,"TOWNNAME":"永康區","LI":"西灣里","LIN":"42鄰","STREET":"國光六街","SECT":" ","MAREA":" ","LANE":" ","ALLEY":" ","HOUSE_NO":"１２４號","E_COORD97":173956.20000000001,"N_COORD97":2545381.8799999999,"ADDRESS":"國光六街１２４號","OBJECTID":224450},"geometry":{"x":173956.20000000112,"y":2545381.879999999}},{"attributes":{"ID":224455,"DIS_CODE":0,"TOWNNAME":"永康區","LI":"烏竹里","LIN":" ","STREET":"龍橋街","SECT":" ","MAREA":" ","LANE":" ","ALLEY":" ","HOUSE_NO":"４２３號","E_COORD97":174410.84,"N_COORD97":2549237.1000000001,"ADDRESS":"龍橋街４２３號","OBJECTID":224451},"geometry":{"x":174410.84000000078,"y":2549237.0999999996}},{"attributes":{"ID":224456,"DIS_CODE":0,"TOWNNAME":"歸仁區","LI":"南保里","LIN":"45鄰","STREET":"民權十街","SECT":" ","MAREA":" ","LANE":"６３巷","ALLEY":" ","HOUSE_NO":"８號","E_COORD97":176767.76000000001,"N_COORD97":2540711.2999999998,"ADDRESS":"民權十街６３巷８號","OBJECTID":224452},"geometry":{"x":176767.76000000071,"y":2540711.3000000026}},{"attributes":{"ID":224457,"DIS_CODE":0,"TOWNNAME":"永康區","LI":"三合里","LIN":"5鄰","STREET":"南工街","SECT":" ","MAREA":" ","LANE":"５０巷","ALLEY":" ","HOUSE_NO":"９號","E_COORD97":172138.79999999999,"N_COORD97":2545623.9300000002,"ADDRESS":"南工街５０巷９號","OBJECTID":224453},"geometry":{"x":172138.80000000168,"y":2545623.9299999997}},{"attributes":{"ID":224458,"DIS_CODE":0,"TOWNNAME":"永康區","LI":"二王里","LIN":"13鄰","STREET":"永二街","SECT":" ","MAREA":" ","LANE":"４５９巷","ALLEY":" ","HOUSE_NO":"２３號","E_COORD97":172629.17999999999,"N_COORD97":2546619.1499999999,"ADDRESS":"永二街４５９巷２３號","OBJECTID":224454},"geometry":{"x":172629.1799999997,"y":2546619.1500000004}},{"attributes":{"ID":224459,"DIS_CODE":0,"TOWNNAME":"永康區","LI":"三民里","LIN":"7鄰","STREET":"三民街","SECT":" ","MAREA":" ","LANE":"１３６巷","ALLEY":" ","HOUSE_NO":"７號","E_COORD97":172796.25,"N_COORD97":2550413.3999999999,"ADDRESS":"三民街１３６巷７號","OBJECTID":224455},"geometry":{"x":172796.25,"y":2550413.4000000022}},{"attributes":{"ID":224460,"DIS_CODE":0,"TOWNNAME":"永康區","LI":"三合里","LIN":"23鄰","STREET":"南工街","SECT":" ","MAREA":" ","LANE":"３２３巷","ALLEY":" ","HOUSE_NO":"２０號","E_COORD97":171777.57999999999,"N_COORD97":2545980.2400000002,"ADDRESS":"南工街３２３巷２０號","OBJECTID":224456},"geometry":{"x":171777.58000000007,"y":2545980.2400000021}},{"attributes":{"ID":224461,"DIS_CODE":0,"TOWNNAME":"永康區","LI":"三合里","LIN":"23鄰","STREET":"南工街","SECT":" ","MAREA":" ","LANE":"３２３巷","ALLEY":" ","HOUSE_NO":"２６號","E_COORD97":171775.59,"N_COORD97":2545967.7400000002,"ADDRESS":"南工街３２３巷２６號","OBJECTID":224457},"geometry":{"x":171775.58999999985,"y":2545967.7400000002}},{"attributes":{"ID":224462,"DIS_CODE":0,"TOWNNAME":"中西區","LI":"西湖里","LIN":"5鄰","STREET":"頂美一街","SECT":" ","MAREA":" ","LANE":"６０巷","ALLEY":" ","HOUSE_NO":"２號","E_COORD97":166327.67999999999,"N_COORD97":2544603.27,"ADDRESS":"頂美一街６０巷２號","OBJECTID":224458},"geometry":{"x":166327.6799999997,"y":2544603.2700000014}},{"attributes":{"ID":224463,"DIS_CODE":0,"TOWNNAME":"中西區","LI":"西湖里","LIN":"1鄰","STREET":"頂美二街","SECT":" ","MAREA":" ","LANE":"１８巷","ALLEY":" ","HOUSE_NO":"２６號","E_COORD97":166503.31,"N_COORD97":2544466.6400000001,"ADDRESS":"頂美二街１８巷２６號","OBJECTID":224459},"geometry":{"x":166503.30999999959,"y":2544466.6400000006}},{"attributes":{"ID":224464,"DIS_CODE":0,"TOWNNAME":"新市區","LI":"新和里","LIN":"45鄰","STREET":"富林路","SECT":" ","MAREA":" ","LANE":" ","ALLEY":" ","HOUSE_NO":"３５７號","E_COORD97":177214.89999999999,"N_COORD97":2553193.79,"ADDRESS":"民生路７１巷１號","OBJECTID":224460},"geometry":{"x":177214.9000000013,"y":2553193.790000001}},{"attributes":{"ID":224465,"DIS_CODE":0,"TOWNNAME":"仁德區","LI":"太子里","LIN":"45鄰","STREET":"太子路","SECT":" ","MAREA":" ","LANE":"１０１巷","ALLEY":" ","HOUSE_NO":"４２號","E_COORD97":174887.63,"N_COORD97":2543305.5099999998,"ADDRESS":"太子路１０１巷４２號","OBJECTID":224461},"geometry":{"x":174887.62999999989,"y":2543305.5100000016}},{"attributes":{"ID":224466,"DIS_CODE":0,"TOWNNAME":"仁德區","LI":"太子里","LIN":"45鄰","STREET":"太子一街","SECT":" ","MAREA":" ","LANE":"２７巷","ALLEY":" ","HOUSE_NO":"９號","E_COORD97":174854.29999999999,"N_COORD97":2543350.75,"ADDRESS":"太子一街２７巷９號","OBJECTID":224462},"geometry":{"x":174854.29999999981,"y":2543350.75}},{"attributes":{"ID":224467,"DIS_CODE":0,"TOWNNAME":"仁德區","LI":"太子里","LIN":"45鄰","STREET":"太子一街","SECT":" ","MAREA":" ","LANE":"２７巷","ALLEY":" ","HOUSE_NO":"２２號","E_COORD97":174878.29999999999,"N_COORD97":2543335.0099999998,"ADDRESS":"太子一街２７巷２２號","OBJECTID":224463},"geometry":{"x":174878.30000000168,"y":2543335.0099999998}},{"attributes":{"ID":224468,"DIS_CODE":0,"TOWNNAME":"仁德區","LI":"仁義里","LIN":"45鄰","STREET":"仁義路","SECT":" ","MAREA":" ","LANE":"９８巷","ALLEY":" ","HOUSE_NO":"１６號","E_COORD97":173614.89000000001,"N_COORD97":2540909.0099999998,"ADDRESS":"仁義路９８巷１６號","OBJECTID":224464},"geometry":{"x":173614.8900000006,"y":2540909.0100000016}},{"attributes":{"ID":224469,"DIS_CODE":0,"TOWNNAME":"仁德區","LI":"仁義里","LIN":"45鄰","STREET":"仁義路","SECT":" ","MAREA":" ","LANE":"９８巷","ALLEY":" ","HOUSE_NO":"４２號","E_COORD97":173600.56,"N_COORD97":2540844.52,"ADDRESS":"仁義路９８巷４２號","OBJECTID":224465},"geometry":{"x":173600.56000000052,"y":2540844.5200000014}},{"attributes":{"ID":224470,"DIS_CODE":0,"TOWNNAME":"仁德區","LI":"仁義里","LIN":"45鄰","STREET":"仁義路","SECT":" ","MAREA":" ","LANE":"９８巷","ALLEY":" ","HOUSE_NO":"８號","E_COORD97":173614,"N_COORD97":2540928.52,"ADDRESS":"仁義路９８巷８號","OBJECTID":224466},"geometry":{"x":173614,"y":2540928.5200000014}},{"attributes":{"ID":224471,"DIS_CODE":0,"TOWNNAME":"永康區","LI":"二王里","LIN":"17鄰","STREET":"忠孝路","SECT":" ","MAREA":" ","LANE":"４１０巷","ALLEY":" ","HOUSE_NO":"４０號","E_COORD97":172569.32000000001,"N_COORD97":2546507.3900000001,"ADDRESS":"忠孝路４１０巷４０號","OBJECTID":224467},"geometry":{"x":172569.3200000003,"y":2546507.3900000043}},{"attributes":{"ID":224472,"DIS_CODE":0,"TOWNNAME":"永康區","LI":"大灣里","LIN":"8鄰","STREET":"民族路","SECT":" ","MAREA":" ","LANE":"３９６巷","ALLEY":" ","HOUSE_NO":"３２號","E_COORD97":174771,"N_COORD97":2545458.3700000001,"ADDRESS":"民族路３９６巷３２號","OBJECTID":224468},"geometry":{"x":174771.00000000093,"y":2545458.3700000029}},{"attributes":{"ID":224473,"DIS_CODE":0,"TOWNNAME":"永康區","LI":"二王里","LIN":"6鄰","STREET":"永二街","SECT":" ","MAREA":" ","LANE":"３７６巷","ALLEY":" ","HOUSE_NO":"２０號","E_COORD97":172869.60999999999,"N_COORD97":2546772.1699999999,"ADDRESS":"永二街３７６巷２０號","OBJECTID":224469},"geometry":{"x":172869.6100000022,"y":2546772.1699999999}},{"attributes":{"ID":224474,"DIS_CODE":0,"TOWNNAME":"安平區","LI":"平安里","LIN":"14鄰","STREET":"安平路","SECT":" ","MAREA":" ","LANE":"５５０巷","ALLEY":" ","HOUSE_NO":"２７號","E_COORD97":165005.06,"N_COORD97":2544456.6299999999,"ADDRESS":"安平路５５０巷２７號","OBJECTID":224470},"geometry":{"x":165005.05999999866,"y":2544456.6300000008}},{"attributes":{"ID":224475,"DIS_CODE":0,"TOWNNAME":"安平區","LI":"平安里","LIN":"14鄰","STREET":"安平路","SECT":" ","MAREA":" ","LANE":"５５０巷","ALLEY":" ","HOUSE_NO":"２９號","E_COORD97":165006.28,"N_COORD97":2544459.8399999999,"ADDRESS":"安平路５５０巷２９號","OBJECTID":224471},"geometry":{"x":165006.28000000119,"y":2544459.8400000017}},{"attributes":{"ID":224476,"DIS_CODE":0,"TOWNNAME":"安南區","LI":"溪東里","LIN":"14鄰","STREET":"北安路","SECT":"二段","MAREA":" ","LANE":"９３巷","ALLEY":" ","HOUSE_NO":"４４號","E_COORD97":168326.26000000001,"N_COORD97":2547443.3999999999,"ADDRESS":"北安路二段９３巷４４號","OBJECTID":224472},"geometry":{"x":168326.25999999978,"y":2547443.4000000022}},{"attributes":{"ID":224477,"DIS_CODE":0,"TOWNNAME":"柳營區","LI":"光福里","LIN":"29鄰","STREET":"柳營路","SECT":"一段","MAREA":" ","LANE":" ","ALLEY":" ","HOUSE_NO":"６０號","E_COORD97":179720.13,"N_COORD97":2573286.9399999999,"ADDRESS":"柳營路一段６０號","OBJECTID":224473},"geometry":{"x":179720.12999999989,"y":2573286.9400000013}},{"attributes":{"ID":224478,"DIS_CODE":0,"TOWNNAME":"永康區","LI":"\u25A0洲里","LIN":" ","STREET":"鹽忠街","SECT":" ","MAREA":" ","LANE":" ","ALLEY":" ","HOUSE_NO":"５１號","E_COORD97":171397.70999999999,"N_COORD97":2549053.2400000002,"ADDRESS":"鹽忠街５１號","OBJECTID":224474},"geometry":{"x":171397.71000000089,"y":2549053.2400000002}},{"attributes":{"ID":224479,"DIS_CODE":0,"TOWNNAME":"安平區","LI":"平通里","LIN":"14鄰","STREET":"健康三街","SECT":" ","MAREA":" ","LANE":"４６０巷","ALLEY":" ","HOUSE_NO":"６２號七樓","E_COORD97":164931.53,"N_COORD97":2543888.5299999998,"ADDRESS":"健康三街４６０巷６２號七樓","OBJECTID":224475},"geometry":{"x":164931.53000000212,"y":2543888.5300000012}},{"attributes":{"ID":224480,"DIS_CODE":0,"TOWNNAME":"永康區","LI":"大灣里","LIN":"27鄰","STREET":"大灣六街","SECT":" ","MAREA":" ","LANE":"８０巷","ALLEY":" ","HOUSE_NO":"２８號","E_COORD97":175230.87,"N_COORD97":2545297.48,"ADDRESS":"大灣六街８０巷２８號","OBJECTID":224476},"geometry":{"x":175230.87000000104,"y":2545297.4800000023}},{"attributes":{"ID":224481,"DIS_CODE":0,"TOWNNAME":"永康區","LI":"大灣里","LIN":"26鄰","STREET":"民族路","SECT":" ","MAREA":" ","LANE":"１９０巷","ALLEY":" ","HOUSE_NO":"１１號","E_COORD97":175200.10999999999,"N_COORD97":2545115.02,"ADDRESS":"民族路１９０巷１１號","OBJECTID":224477},"geometry":{"x":175200.11000000034,"y":2545115.0199999996}},{"attributes":{"ID":224482,"DIS_CODE":0,"TOWNNAME":"永康區","LI":"二王里","LIN":"17鄰","STREET":"忠孝路","SECT":" ","MAREA":" ","LANE":"４１０巷","ALLEY":" ","HOUSE_NO":"３５號","E_COORD97":172572.81,"N_COORD97":2546541.6600000001,"ADDRESS":"忠孝路４１０巷３５號","OBJECTID":224478},"geometry":{"x":172572.81000000052,"y":2546541.6600000001}},{"attributes":{"ID":224483,"DIS_CODE":0,"TOWNNAME":"永康區","LI":"二王里","LIN":"17鄰","STREET":"忠孝路","SECT":" ","MAREA":" ","LANE":"４１０巷","ALLEY":" ","HOUSE_NO":"５４號","E_COORD97":172605.48999999999,"N_COORD97":2546531.25,"ADDRESS":"忠孝路４１０巷５４號","OBJECTID":224479},"geometry":{"x":172605.49000000022,"y":2546531.2499999981}},{"attributes":{"ID":224484,"DIS_CODE":0,"TOWNNAME":"北區","LI":"大和里","LIN":"14鄰","STREET":"文賢路","SECT":" ","MAREA":" ","LANE":"７９９巷","ALLEY":" ","HOUSE_NO":"６號","E_COORD97":167287.14000000001,"N_COORD97":2546304.6600000001,"ADDRESS":"文賢路７９９巷６號","OBJECTID":224480},"geometry":{"x":167287.1400000006,"y":2546304.6600000001}},{"attributes":{"ID":224485,"DIS_CODE":0,"TOWNNAME":"仁德區","LI":"仁義里","LIN":"1鄰","STREET":"義林五街","SECT":" ","MAREA":" ","LANE":" ","ALLEY":" ","HOUSE_NO":"３２號","E_COORD97":174375.07000000001,"N_COORD97":2541025.02,"ADDRESS":"義林五街３２號","OBJECTID":224481},"geometry":{"x":174375.06999999937,"y":2541025.0199999996}},{"attributes":{"ID":224486,"DIS_CODE":0,"TOWNNAME":"南區","LI":"白雪里","LIN":"14鄰","STREET":"鹽埕路","SECT":" ","MAREA":" ","LANE":"１０３巷","ALLEY":" ","HOUSE_NO":"４２號之１","E_COORD97":166732.29000000001,"N_COORD97":2540732.7799999998,"ADDRESS":"鹽埕路１０３巷４２號之１","OBJECTID":224482},"geometry":{"x":166732.29000000097,"y":2540732.7799999975}},{"attributes":{"ID":224487,"DIS_CODE":0,"TOWNNAME":"安平區","LI":"平安里","LIN":"14鄰","STREET":"安平路","SECT":" ","MAREA":" ","LANE":"５５０巷","ALLEY":" ","HOUSE_NO":"２２號","E_COORD97":165016.23000000001,"N_COORD97":2544443.1600000001,"ADDRESS":"安平路５５０巷２２號","OBJECTID":224483},"geometry":{"x":165016.23000000045,"y":2544443.1600000001}},{"attributes":{"ID":224488,"DIS_CODE":0,"TOWNNAME":"永康區","LI":"三合里","LIN":"23鄰","STREET":"南工街","SECT":" ","MAREA":" ","LANE":"３２３巷","ALLEY":" ","HOUSE_NO":"１９號","E_COORD97":171789.32000000001,"N_COORD97":2545987.4900000002,"ADDRESS":"南工街３２３巷１９號","OBJECTID":224484},"geometry":{"x":171789.3200000003,"y":2545987.4900000039}},{"attributes":{"ID":224489,"DIS_CODE":0,"TOWNNAME":"中西區","LI":"西湖里","LIN":"7鄰","STREET":"頂美一街","SECT":" ","MAREA":" ","LANE":" ","ALLEY":" ","HOUSE_NO":"２９號","E_COORD97":166290.38,"N_COORD97":2544622.27,"ADDRESS":"頂美一街２９號","OBJECTID":224485},"geometry":{"x":166290.38000000082,"y":2544622.2700000033}},{"attributes":{"ID":224490,"DIS_CODE":0,"TOWNNAME":"永康區","LI":"二王里","LIN":"6鄰","STREET":"永二街","SECT":" ","MAREA":" ","LANE":"３５８巷","ALLEY":" ","HOUSE_NO":"１８號","E_COORD97":172915.45000000001,"N_COORD97":2546752.0099999998,"ADDRESS":"永二街３５８巷１８號","OBJECTID":224486},"geometry":{"x":172915.45000000019,"y":2546752.0099999998}},{"attributes":{"ID":224491,"DIS_CODE":0,"TOWNNAME":"南區","LI":"光明里","LIN":"14鄰","STREET":"鹽埕路","SECT":" ","MAREA":" ","LANE":"２９１巷","ALLEY":" ","HOUSE_NO":"６６號","E_COORD97":166697.23000000001,"N_COORD97":2541280.71,"ADDRESS":"鹽埕路２９１巷６６號","OBJECTID":224487},"geometry":{"x":166697.23000000138,"y":2541280.709999999}},{"attributes":{"ID":224492,"DIS_CODE":0,"TOWNNAME":"永康區","LI":"三合里","LIN":"5鄰","STREET":"南工街","SECT":" ","MAREA":" ","LANE":"８２巷","ALLEY":" ","HOUSE_NO":"２號","E_COORD97":172118.67000000001,"N_COORD97":2545679.5699999998,"ADDRESS":"南工街８２巷２號","OBJECTID":224488},"geometry":{"x":172118.66999999993,"y":2545679.5700000022}},{"attributes":{"ID":224493,"DIS_CODE":0,"TOWNNAME":"永康區","LI":"中興里","LIN":"26鄰","STREET":"中山東路","SECT":" ","MAREA":" ","LANE":"３８６巷","ALLEY":" ","HOUSE_NO":"９號","E_COORD97":171864.51000000001,"N_COORD97":2545239.7799999998,"ADDRESS":"中山東路３８６巷９號","OBJECTID":224489},"geometry":{"x":171864.51000000164,"y":2545239.7800000012}},{"attributes":{"ID":224494,"DIS_CODE":0,"TOWNNAME":"永康區","LI":"二王里","LIN":"7鄰","STREET":"中山南路","SECT":" ","MAREA":" ","LANE":"８１４巷","ALLEY":" ","HOUSE_NO":"１號","E_COORD97":172819.17000000001,"N_COORD97":2546731.6299999999,"ADDRESS":"中山南路８１４巷１號","OBJECTID":224490},"geometry":{"x":172819.16999999993,"y":2546731.6300000008}},{"attributes":{"ID":224495,"DIS_CODE":0,"TOWNNAME":"永康區","LI":"大灣里","LIN":"31鄰","STREET":"民族路","SECT":" ","MAREA":" ","LANE":"１２６巷","ALLEY":" ","HOUSE_NO":"１５號","E_COORD97":175370.73999999999,"N_COORD97":2544944.8300000001,"ADDRESS":"民族路１２６巷１５號","OBJECTID":224491},"geometry":{"x":175370.74000000209,"y":2544944.8300000019}},{"attributes":{"ID":224496,"DIS_CODE":0,"TOWNNAME":"南區","LI":"光明里","LIN":"14鄰","STREET":"鹽埕路","SECT":" ","MAREA":" ","LANE":"２９１巷","ALLEY":" ","HOUSE_NO":"６２號","E_COORD97":166700.13,"N_COORD97":2541289.3999999999,"ADDRESS":"鹽埕路２９１巷６２號","OBJECTID":224492},"geometry":{"x":166700.13000000175,"y":2541289.4000000041}},{"attributes":{"ID":224497,"DIS_CODE":0,"TOWNNAME":"南區","LI":"光明里","LIN":"14鄰","STREET":"鹽埕路","SECT":" ","MAREA":" ","LANE":"２９１巷","ALLEY":" ","HOUSE_NO":"７６號","E_COORD97":166691.92000000001,"N_COORD97":2541257.9199999999,"ADDRESS":"鹽埕路２９１巷７６號","OBJECTID":224493},"geometry":{"x":166691.92000000086,"y":2541257.9199999981}},{"attributes":{"ID":224498,"DIS_CODE":0,"TOWNNAME":"中西區","LI":"西湖里","LIN":"9鄰","STREET":"湖美一街","SECT":" ","MAREA":" ","LANE":"１４巷","ALLEY":" ","HOUSE_NO":"３號","E_COORD97":166084.70999999999,"N_COORD97":2544481.4399999999,"ADDRESS":"湖美一街１４巷３號","OBJECTID":224494},"geometry":{"x":166084.71000000089,"y":2544481.4399999995}},{"attributes":{"ID":224499,"DIS_CODE":0,"TOWNNAME":"南區","LI":"光明里","LIN":"14鄰","STREET":"鹽埕路","SECT":" ","MAREA":" ","LANE":"２９１巷","ALLEY":" ","HOUSE_NO":"６４號","E_COORD97":166698.92000000001,"N_COORD97":2541285.0600000001,"ADDRESS":"鹽埕路２９１巷６４號","OBJECTID":224495},"geometry":{"x":166698.92000000086,"y":2541285.0600000042}},{"attributes":{"ID":224500,"DIS_CODE":0,"TOWNNAME":"南區","LI":"白雪里","LIN":"14鄰","STREET":"鹽埕路","SECT":" ","MAREA":" ","LANE":"１０３巷","ALLEY":" ","HOUSE_NO":"４６號","E_COORD97":166732.64999999999,"N_COORD97":2540729.75,"ADDRESS":"鹽埕路１０３巷４６號","OBJECTID":224496},"geometry":{"x":166732.64999999944,"y":2540729.75}},{"attributes":{"ID":224501,"DIS_CODE":0,"TOWNNAME":"永康區","LI":"二王里","LIN":"16鄰","STREET":"忠孝路","SECT":" ","MAREA":" ","LANE":"４５０巷","ALLEY":" ","HOUSE_NO":"２號","E_COORD97":172494.12,"N_COORD97":2546609.4399999999,"ADDRESS":"忠孝路４５０巷２號","OBJECTID":224497},"geometry":{"x":172494.12000000011,"y":2546609.4399999995}},{"attributes":{"ID":224502,"DIS_CODE":0,"TOWNNAME":"永康區","LI":"二王里","LIN":"14鄰","STREET":"永二街","SECT":" ","MAREA":" ","LANE":"４５９巷","ALLEY":" ","HOUSE_NO":"１６號","E_COORD97":172563.54000000001,"N_COORD97":2546631.4199999999,"ADDRESS":"永二街４５９巷１６號","OBJECTID":224498},"geometry":{"x":172563.54000000097,"y":2546631.4199999999}},{"attributes":{"ID":224503,"DIS_CODE":0,"TOWNNAME":"永康區","LI":"二王里","LIN":"14鄰","STREET":"永二街","SECT":" ","MAREA":" ","LANE":"４５９巷","ALLEY":" ","HOUSE_NO":"２０號","E_COORD97":172575.69,"N_COORD97":2546616.5600000001,"ADDRESS":"永二街４５９巷２０號","OBJECTID":224499},"geometry":{"x":172575.69000000041,"y":2546616.5600000005}},{"attributes":{"ID":224504,"DIS_CODE":0,"TOWNNAME":"永康區","LI":"三合里","LIN":"8鄰","STREET":"南工街","SECT":" ","MAREA":" ","LANE":"１３５巷","ALLEY":" ","HOUSE_NO":"５號","E_COORD97":172069.85000000001,"N_COORD97":2545781.7400000002,"ADDRESS":"南工街１３５巷５號","OBJECTID":224500},"geometry":{"x":172069.84999999963,"y":2545781.7400000002}},{"attributes":{"ID":224505,"DIS_CODE":0,"TOWNNAME":"安平區","LI":"平安里","LIN":"14鄰","STREET":"安平路","SECT":" ","MAREA":" ","LANE":"５５０巷","ALLEY":" ","HOUSE_NO":"２８號","E_COORD97":165020.97,"N_COORD97":2544457.8599999999,"ADDRESS":"安平路５５０巷２８號","OBJECTID":224501},"geometry":{"x":165020.96999999974,"y":2544457.8599999994}},{"attributes":{"ID":224506,"DIS_CODE":0,"TOWNNAME":"安平區","LI":"平安里","LIN":"14鄰","STREET":"安平路","SECT":" ","MAREA":" ","LANE":"５５０巷","ALLEY":" ","HOUSE_NO":"２６號","E_COORD97":165019.29000000001,"N_COORD97":2544453.2599999998,"ADDRESS":"安平路５５０巷２６號","OBJECTID":224502},"geometry":{"x":165019.2900000019,"y":2544453.2600000016}},{"attributes":{"ID":224507,"DIS_CODE":0,"TOWNNAME":"安平區","LI":"平安里","LIN":"14鄰","STREET":"安平路","SECT":" ","MAREA":" ","LANE":"５５０巷","ALLEY":" ","HOUSE_NO":"２４號","E_COORD97":165017.76000000001,"N_COORD97":2544448.0600000001,"ADDRESS":"安平路５５０巷２４號","OBJECTID":224503},"geometry":{"x":165017.76000000071,"y":2544448.0600000042}},{"attributes":{"ID":224508,"DIS_CODE":0,"TOWNNAME":"柳營區","LI":"光福里","LIN":"29鄰","STREET":" ","SECT":" ","MAREA":"柳營","LANE":" ","ALLEY":" ","HOUSE_NO":"１３２號之１２","E_COORD97":179978.42000000001,"N_COORD97":2574192.0099999998,"ADDRESS":"柳營１３２號之１２","OBJECTID":224504},"geometry":{"x":179978.42000000179,"y":2574192.0100000016}},{"attributes":{"ID":224509,"DIS_CODE":0,"TOWNNAME":"柳營區","LI":"光福里","LIN":"29鄰","STREET":" ","SECT":" ","MAREA":"柳營","LANE":" ","ALLEY":" ","HOUSE_NO":"１３２之８５號","E_COORD97":179914.39999999999,"N_COORD97":2574321.1400000001,"ADDRESS":"柳營１３２之８５號","OBJECTID":224505},"geometry":{"x":179914.40000000037,"y":2574321.1400000025}},{"attributes":{"ID":224510,"DIS_CODE":0,"TOWNNAME":"安南區","LI":"溪東里","LIN":"14鄰","STREET":"北安路","SECT":"二段","MAREA":" ","LANE":"九三巷","ALLEY":" ","HOUSE_NO":"３９號","E_COORD97":168257.97,"N_COORD97":2547410.7599999998,"ADDRESS":"北安路二段九三巷３９號","OBJECTID":224506},"geometry":{"x":168257.97000000067,"y":2547410.7600000016}},{"attributes":{"ID":224511,"DIS_CODE":0,"TOWNNAME":"永康區","LI":"二王里","LIN":"7鄰","STREET":"中山南路","SECT":" ","MAREA":" ","LANE":"８１４巷","ALLEY":" ","HOUSE_NO":"１８號","E_COORD97":172804.48000000001,"N_COORD97":2546711.4100000001,"ADDRESS":"中山南路８１４巷１８號","OBJECTID":224507},"geometry":{"x":172804.48000000231,"y":2546711.410000002}},{"attributes":{"ID":224512,"DIS_CODE":0,"TOWNNAME":"永康區","LI":"二王里","LIN":"32鄰","STREET":"中山南路","SECT":" ","MAREA":" ","LANE":"４９０巷","ALLEY":" ","HOUSE_NO":"２１號","E_COORD97":172151.95000000001,"N_COORD97":2546367.73,"ADDRESS":"中山南路４９０巷２１號","OBJECTID":224508},"geometry":{"x":172151.95000000112,"y":2546367.7300000004}},{"attributes":{"ID":224513,"DIS_CODE":0,"TOWNNAME":"永康區","LI":"三民里","LIN":"12鄰","STREET":"和平路","SECT":" ","MAREA":" ","LANE":"２４１巷","ALLEY":" ","HOUSE_NO":"４號","E_COORD97":174716.04999999999,"N_COORD97":2550754.4900000002,"ADDRESS":"和平路２４１巷４號","OBJECTID":224509},"geometry":{"x":174716.05000000075,"y":2550754.4900000039}},{"attributes":{"ID":224514,"DIS_CODE":0,"TOWNNAME":"永康區","LI":"二王里","LIN":"7鄰","STREET":"中山南路","SECT":" ","MAREA":" ","LANE":"８１４巷","ALLEY":" ","HOUSE_NO":"７號","E_COORD97":172827.28,"N_COORD97":2546708.1200000001,"ADDRESS":"中山南路８１４巷７號","OBJECTID":224510},"geometry":{"x":172827.28000000026,"y":2546708.120000001}},{"attributes":{"ID":224515,"DIS_CODE":0,"TOWNNAME":"永康區","LI":"三合里","LIN":"23鄰","STREET":"南工街","SECT":" ","MAREA":" ","LANE":"３２３巷","ALLEY":" ","HOUSE_NO":"１６號","E_COORD97":171776.82999999999,"N_COORD97":2545989.2400000002,"ADDRESS":"南工街３２３巷１６號","OBJECTID":224511},"geometry":{"x":171776.83000000101,"y":2545989.2400000039}},{"attributes":{"ID":224516,"DIS_CODE":0,"TOWNNAME":"永康區","LI":"三民里","LIN":"7鄰","STREET":"三民街","SECT":" ","MAREA":" ","LANE":"１３６巷","ALLEY":" ","HOUSE_NO":"４號","E_COORD97":172848.20999999999,"N_COORD97":2550403.0299999998,"ADDRESS":"三民街１３６巷４號","OBJECTID":224512},"geometry":{"x":172848.21000000183,"y":2550403.0299999993}},{"attributes":{"ID":224517,"DIS_CODE":0,"TOWNNAME":"永康區","LI":"二王里","LIN":"6鄰","STREET":"永二街","SECT":" ","MAREA":" ","LANE":"３７６巷","ALLEY":" ","HOUSE_NO":"９號","E_COORD97":172861.57999999999,"N_COORD97":2546713.9100000001,"ADDRESS":"永二街３７６巷９號","OBJECTID":224513},"geometry":{"x":172861.58000000101,"y":2546713.910000002}},{"attributes":{"ID":224518,"DIS_CODE":0,"TOWNNAME":"永康區","LI":"大灣里","LIN":"28鄰","STREET":"民族路","SECT":" ","MAREA":" ","LANE":"１９０巷","ALLEY":" ","HOUSE_NO":"２２號之１","E_COORD97":175289.66,"N_COORD97":2545091.8199999998,"ADDRESS":"民族路１９０巷２２號之１","OBJECTID":224514},"geometry":{"x":175289.65999999922,"y":2545091.8200000022}},{"attributes":{"ID":224519,"DIS_CODE":0,"TOWNNAME":"永康區","LI":"大灣里","LIN":"26鄰","STREET":"民族路","SECT":" ","MAREA":" ","LANE":"１９０巷","ALLEY":" ","HOUSE_NO":"１５號","E_COORD97":175223.73999999999,"N_COORD97":2545119,"ADDRESS":"民族路１９０巷１５號","OBJECTID":224515},"geometry":{"x":175223.74000000115,"y":2545119}},{"attributes":{"ID":224520,"DIS_CODE":0,"TOWNNAME":"永康區","LI":"大灣里","LIN":"8鄰","STREET":"民族路","SECT":" ","MAREA":" ","LANE":"３９６巷","ALLEY":" ","HOUSE_NO":"２０號","E_COORD97":174784.76000000001,"N_COORD97":2545458.73,"ADDRESS":"民族路３９６巷２０號","OBJECTID":224516},"geometry":{"x":174784.75999999978,"y":2545458.7300000023}},{"attributes":{"ID":224521,"DIS_CODE":0,"TOWNNAME":"歸仁區","LI":"南保里","LIN":"29鄰","STREET":"民權北路","SECT":" ","MAREA":" ","LANE":"６１巷","ALLEY":" ","HOUSE_NO":"２１號","E_COORD97":176897.14000000001,"N_COORD97":2541030.29,"ADDRESS":"民權北路６１巷２１號","OBJECTID":224517},"geometry":{"x":176897.1400000006,"y":2541030.2899999991}},{"attributes":{"ID":224522,"DIS_CODE":0,"TOWNNAME":"柳營區","LI":"東昇里","LIN":"29鄰","STREET":" ","SECT":" ","MAREA":"柳營","LANE":" ","ALLEY":" ","HOUSE_NO":"５４２號之１６","E_COORD97":181038.54000000001,"N_COORD97":2574746.25,"ADDRESS":"柳營５４２號之１６","OBJECTID":224518},"geometry":{"x":181038.54000000004,"y":2574746.2500000037}},{"attributes":{"ID":224523,"DIS_CODE":0,"TOWNNAME":"歸仁區","LI":"六甲里","LIN":"29鄰","STREET":"六甲二街","SECT":" ","MAREA":" ","LANE":" ","ALLEY":" ","HOUSE_NO":"２６號","E_COORD97":175822.57000000001,"N_COORD97":2539292.25,"ADDRESS":"六甲二街２６號","OBJECTID":224519},"geometry":{"x":175822.5700000003,"y":2539292.25}},{"attributes":{"ID":224524,"DIS_CODE":0,"TOWNNAME":"柳營區","LI":"光福里","LIN":"29鄰","STREET":"柳營路","SECT":"一段","MAREA":" ","LANE":" ","ALLEY":" ","HOUSE_NO":"２２６之１號","E_COORD97":179729.66,"N_COORD97":2573601.6099999999,"ADDRESS":"柳營路一段２２６之１號","OBJECTID":224520},"geometry":{"x":179729.66000000108,"y":2573601.6100000013}},{"attributes":{"ID":224525,"DIS_CODE":0,"TOWNNAME":"歸仁區","LI":"南保里","LIN":"29鄰","STREET":"民權北路","SECT":" ","MAREA":" ","LANE":"６１巷","ALLEY":" ","HOUSE_NO":"１７號","E_COORD97":176905.34,"N_COORD97":2541029.29,"ADDRESS":"民權北路６１巷１７號","OBJECTID":224521},"geometry":{"x":176905.33999999892,"y":2541029.290000001}},{"attributes":{"ID":224526,"DIS_CODE":0,"TOWNNAME":"柳營區","LI":"東昇里","LIN":"29鄰","STREET":" ","SECT":" ","MAREA":"柳營","LANE":" ","ALLEY":" ","HOUSE_NO":"５４２之５０號","E_COORD97":181151.23999999999,"N_COORD97":2573405.46,"ADDRESS":"柳營５４２之５０號","OBJECTID":224522},"geometry":{"x":181151.24000000209,"y":2573405.4600000009}},{"attributes":{"ID":224527,"DIS_CODE":0,"TOWNNAME":"歸仁區","LI":"南保里","LIN":"29鄰","STREET":"民權北路","SECT":" ","MAREA":" ","LANE":"６１巷","ALLEY":" ","HOUSE_NO":"１５號","E_COORD97":176909.44,"N_COORD97":2541029.29,"ADDRESS":"民權北路６１巷１５號","OBJECTID":224523},"geometry":{"x":176909.44000000134,"y":2541029.290000001}},{"attributes":{"ID":224528,"DIS_CODE":0,"TOWNNAME":"玉井區","LI":"玉田里","LIN":"29鄰","STREET":"仁愛街","SECT":" ","MAREA":" ","LANE":"１５０巷","ALLEY":" ","HOUSE_NO":"７號","E_COORD97":195417.09,"N_COORD97":2557815.2799999998,"ADDRESS":"仁愛街１５０巷７號","OBJECTID":224524},"geometry":{"x":195417.09000000078,"y":2557815.2800000012}},{"attributes":{"ID":224529,"DIS_CODE":0,"TOWNNAME":"柳營區","LI":"東昇里","LIN":"29鄰","STREET":" ","SECT":" ","MAREA":"柳營","LANE":" ","ALLEY":" ","HOUSE_NO":"５４２之５號","E_COORD97":180992.31,"N_COORD97":2575281.96,"ADDRESS":"柳營５４２之５號","OBJECTID":224525},"geometry":{"x":180992.30999999959,"y":2575281.9600000028}},{"attributes":{"ID":224530,"DIS_CODE":0,"TOWNNAME":"玉井區","LI":"玉田里","LIN":"29鄰","STREET":"仁愛街","SECT":" ","MAREA":" ","LANE":"１５０巷","ALLEY":" ","HOUSE_NO":"１３號","E_COORD97":195430.23000000001,"N_COORD97":2557815.2799999998,"ADDRESS":"仁愛街１５０巷１３號","OBJECTID":224526},"geometry":{"x":195430.23000000231,"y":2557815.2800000012}},{"attributes":{"ID":224531,"DIS_CODE":0,"TOWNNAME":"柳營區","LI":"東昇里","LIN":"29鄰","STREET":" ","SECT":" ","MAREA":"柳營","LANE":" ","ALLEY":" ","HOUSE_NO":"５４２號之７","E_COORD97":180983.25,"N_COORD97":2575050.4399999999,"ADDRESS":"柳營５４２號之７","OBJECTID":224527},"geometry":{"x":180983.25000000186,"y":2575050.4400000013}},{"attributes":{"ID":224532,"DIS_CODE":0,"TOWNNAME":"玉井區","LI":"玉田里","LIN":"29鄰","STREET":"仁愛街","SECT":" ","MAREA":" ","LANE":"１５０巷","ALLEY":" ","HOUSE_NO":"１９號","E_COORD97":195443.53,"N_COORD97":2557815.2799999998,"ADDRESS":"仁愛街１５０巷１９號","OBJECTID":224528},"geometry":{"x":195443.53000000119,"y":2557815.2800000012}},{"attributes":{"ID":224533,"DIS_CODE":0,"TOWNNAME":"玉井區","LI":"玉田里","LIN":"29鄰","STREET":"仁愛街","SECT":" ","MAREA":" ","LANE":"１５０巷","ALLEY":" ","HOUSE_NO":"３號","E_COORD97":195410.28,"N_COORD97":2557815.2799999998,"ADDRESS":"仁愛街１５０巷３號","OBJECTID":224529},"geometry":{"x":195410.28000000026,"y":2557815.2800000012}},{"attributes":{"ID":224534,"DIS_CODE":0,"TOWNNAME":"玉井區","LI":"玉田里","LIN":"29鄰","STREET":"仁愛街","SECT":" ","MAREA":" ","LANE":"１５０巷","ALLEY":" ","HOUSE_NO":"１７號","E_COORD97":195437.23000000001,"N_COORD97":2557814.2799999998,"ADDRESS":"仁愛街１５０巷１７號","OBJECTID":224530},"geometry":{"x":195437.23000000138,"y":2557814.2800000012}},{"attributes":{"ID":224535,"DIS_CODE":0,"TOWNNAME":"歸仁區","LI":"許厝里","LIN":"29鄰","STREET":"中山路","SECT":"一段","MAREA":" ","LANE":"５１５巷","ALLEY":" ","HOUSE_NO":"５號","E_COORD97":177965.06,"N_COORD97":2540693.54,"ADDRESS":"中山路一段５１５巷５號","OBJECTID":224531},"geometry":{"x":177965.06000000052,"y":2540693.5399999972}},{"attributes":{"ID":224536,"DIS_CODE":0,"TOWNNAME":"歸仁區","LI":"南保里","LIN":"29鄰","STREET":"民權北路","SECT":" ","MAREA":" ","LANE":"６１巷","ALLEY":" ","HOUSE_NO":"３３號","E_COORD97":176863.76000000001,"N_COORD97":2541033.25,"ADDRESS":"民權北路６１巷３３號","OBJECTID":224532},"geometry":{"x":176863.76000000071,"y":2541033.2500000019}},{"attributes":{"ID":224537,"DIS_CODE":0,"TOWNNAME":"歸仁區","LI":"新厝里","LIN":"29鄰","STREET":"中正南路","SECT":"一段","MAREA":" ","LANE":"４５３巷","ALLEY":" ","HOUSE_NO":"４６號","E_COORD97":176971.07000000001,"N_COORD97":2539969.79,"ADDRESS":"中正南路一段４５３巷４６號","OBJECTID":224533},"geometry":{"x":176971.07000000123,"y":2539969.7900000028}},{"attributes":{"ID":224538,"DIS_CODE":0,"TOWNNAME":"六甲區","LI":"甲東里","LIN":"29鄰","STREET":"裕農街","SECT":" ","MAREA":" ","LANE":"２２巷","ALLEY":" ","HOUSE_NO":"２８號","E_COORD97":184065.37,"N_COORD97":2569541.6600000001,"ADDRESS":"裕農街２２巷２８號","OBJECTID":224534},"geometry":{"x":184065.37000000011,"y":2569541.6600000001}},{"attributes":{"ID":224539,"DIS_CODE":0,"TOWNNAME":"六甲區","LI":"甲東里","LIN":"29鄰","STREET":"裕農街","SECT":" ","MAREA":" ","LANE":"２２巷","ALLEY":" ","HOUSE_NO":"２９號","E_COORD97":184100.94,"N_COORD97":2569572.71,"ADDRESS":"裕農街２２巷２９號","OBJECTID":224535},"geometry":{"x":184100.94000000041,"y":2569572.7100000009}},{"attributes":{"ID":224540,"DIS_CODE":0,"TOWNNAME":"六甲區","LI":"甲東里","LIN":"29鄰","STREET":"裕農街","SECT":" ","MAREA":" ","LANE":"２２巷","ALLEY":" ","HOUSE_NO":"３５號","E_COORD97":184119.19,"N_COORD97":2569552.8799999999,"ADDRESS":"裕農街２２巷３５號","OBJECTID":224536},"geometry":{"x":184119.19000000134,"y":2569552.879999999}},{"attributes":{"ID":224541,"DIS_CODE":0,"TOWNNAME":"中西區","LI":"西湖里","LIN":"4鄰","STREET":"頂美一街","SECT":" ","MAREA":" ","LANE":"３６巷","ALLEY":" ","HOUSE_NO":"１１號","E_COORD97":166373.01000000001,"N_COORD97":2544527.1000000001,"ADDRESS":"頂美一街３６巷１１號","OBJECTID":224537},"geometry":{"x":166373.00999999978,"y":2544527.0999999996}},{"attributes":{"ID":224542,"DIS_CODE":0,"TOWNNAME":"六甲區","LI":"甲東里","LIN":"29鄰","STREET":"裕農街","SECT":" ","MAREA":" ","LANE":"２２巷","ALLEY":" ","HOUSE_NO":"６２號","E_COORD97":184201.79999999999,"N_COORD97":2569428.7999999998,"ADDRESS":"裕農街２２巷６２號","OBJECTID":224538},"geometry":{"x":184201.80000000168,"y":2569428.8000000026}},{"attributes":{"ID":224543,"DIS_CODE":0,"TOWNNAME":"新營區","LI":"南興里","LIN":"29鄰","STREET":"建業路","SECT":" ","MAREA":" ","LANE":"１３７巷","ALLEY":" ","HOUSE_NO":"２０號","E_COORD97":178426.32999999999,"N_COORD97":2577426.2599999998,"ADDRESS":"建業路１３７巷２０號","OBJECTID":224539},"geometry":{"x":178426.33000000194,"y":2577426.2599999998}},{"attributes":{"ID":224544,"DIS_CODE":0,"TOWNNAME":"新營區","LI":"南興里","LIN":"29鄰","STREET":"建業路","SECT":" ","MAREA":" ","LANE":"１３７巷","ALLEY":" ","HOUSE_NO":"３０號","E_COORD97":178424.20999999999,"N_COORD97":2577406.3500000001,"ADDRESS":"建業路１３７巷３０號","OBJECTID":224540},"geometry":{"x":178424.21000000089,"y":2577406.3499999978}},{"attributes":{"ID":224545,"DIS_CODE":0,"TOWNNAME":"新營區","LI":"南興里","LIN":"29鄰","STREET":"建業路","SECT":" ","MAREA":" ","LANE":"１３７巷","ALLEY":" ","HOUSE_NO":"２６號","E_COORD97":178425.25,"N_COORD97":2577415.2000000002,"ADDRESS":"建業路１３７巷２６號","OBJECTID":224541},"geometry":{"x":178425.25000000186,"y":2577415.2000000011}},{"attributes":{"ID":224546,"DIS_CODE":0,"TOWNNAME":"新營區","LI":"南興里","LIN":"29鄰","STREET":"建業路","SECT":" ","MAREA":" ","LANE":"１３７巷","ALLEY":" ","HOUSE_NO":"２４號","E_COORD97":178425.26999999999,"N_COORD97":2577418.52,"ADDRESS":"建業路１３７巷２４號","OBJECTID":224542},"geometry":{"x":178425.27000000048,"y":2577418.5199999996}},{"attributes":{"ID":224547,"DIS_CODE":0,"TOWNNAME":"新營區","LI":"南興里","LIN":"29鄰","STREET":"建業路","SECT":" ","MAREA":" ","LANE":"１３７巷","ALLEY":" ","HOUSE_NO":"３４號","E_COORD97":178423.14999999999,"N_COORD97":2577398.6000000001,"ADDRESS":"建業路１３７巷３４號","OBJECTID":224543},"geometry":{"x":178423.1500000013,"y":2577398.6000000015}},{"attributes":{"ID":224548,"DIS_CODE":0,"TOWNNAME":"新營區","LI":"南興里","LIN":"29鄰","STREET":"建業路","SECT":" ","MAREA":" ","LANE":"１３７巷","ALLEY":" ","HOUSE_NO":"２８號","E_COORD97":178424.20999999999,"N_COORD97":2577410.7799999998,"ADDRESS":"建業路１３７巷２８號","OBJECTID":224544},"geometry":{"x":178424.21000000089,"y":2577410.7800000012}},{"attributes":{"ID":224549,"DIS_CODE":0,"TOWNNAME":"新營區","LI":"南興里","LIN":"29鄰","STREET":"建業路","SECT":" ","MAREA":" ","LANE":"１３７巷","ALLEY":" ","HOUSE_NO":"４號","E_COORD97":178429.34,"N_COORD97":2577459.4700000002,"ADDRESS":"建業路１３７巷４號","OBJECTID":224545},"geometry":{"x":178429.33999999892,"y":2577459.4700000007}},{"attributes":{"ID":224550,"DIS_CODE":0,"TOWNNAME":"新營區","LI":"忠政里","LIN":"29鄰","STREET":"府西路","SECT":" ","MAREA":" ","LANE":"８７巷","ALLEY":" ","HOUSE_NO":"１５號","E_COORD97":179748.10999999999,"N_COORD97":2579197.3999999999,"ADDRESS":"府西路８７巷１５號","OBJECTID":224546},"geometry":{"x":179748.11000000034,"y":2579197.4000000022}},{"attributes":{"ID":224551,"DIS_CODE":0,"TOWNNAME":"新營區","LI":"新北里","LIN":"29鄰","STREET":"金華路","SECT":"二段","MAREA":" ","LANE":" ","ALLEY":" ","HOUSE_NO":"７９號","E_COORD97":178911.25,"N_COORD97":2578937.8300000001,"ADDRESS":"金華路二段７９號","OBJECTID":224547},"geometry":{"x":178911.25,"y":2578937.8300000019}},{"attributes":{"ID":224552,"DIS_CODE":0,"TOWNNAME":"柳營區","LI":"光福里","LIN":"29鄰","STREET":"柳營路","SECT":"一段","MAREA":" ","LANE":" ","ALLEY":" ","HOUSE_NO":"５３２號","E_COORD97":179778.54000000001,"N_COORD97":2574163.5299999998,"ADDRESS":"柳營路一段５３２號","OBJECTID":224548},"geometry":{"x":179778.54000000004,"y":2574163.5299999975}},{"attributes":{"ID":224553,"DIS_CODE":0,"TOWNNAME":"柳營區","LI":"光福里","LIN":"29鄰","STREET":"柳營路","SECT":"一段","MAREA":" ","LANE":" ","ALLEY":" ","HOUSE_NO":"５４６號","E_COORD97":179782.42000000001,"N_COORD97":2574193.5800000001,"ADDRESS":"柳營路一段５４６號","OBJECTID":224549},"geometry":{"x":179782.42000000086,"y":2574193.5800000001}},{"attributes":{"ID":224554,"DIS_CODE":0,"TOWNNAME":"新營區","LI":"民生里","LIN":"29鄰","STREET":"民治路","SECT":" ","MAREA":" ","LANE":"２２５巷","ALLEY":" ","HOUSE_NO":"５１號","E_COORD97":178864.59,"N_COORD97":2578381,"ADDRESS":"民治路２２５巷５１號","OBJECTID":224550},"geometry":{"x":178864.58999999985,"y":2578381}},{"attributes":{"ID":224555,"DIS_CODE":0,"TOWNNAME":"新營區","LI":"民榮里","LIN":"29鄰","STREET":"太子路","SECT":" ","MAREA":" ","LANE":"４４巷","ALLEY":" ","HOUSE_NO":"２號","E_COORD97":178269.87,"N_COORD97":2578116.9700000002,"ADDRESS":"太子路４４巷２號","OBJECTID":224551},"geometry":{"x":178269.87000000011,"y":2578116.9700000025}},{"attributes":{"ID":224556,"DIS_CODE":0,"TOWNNAME":"新營區","LI":"民生里","LIN":"29鄰","STREET":"民治路","SECT":" ","MAREA":" ","LANE":"２２５巷","ALLEY":" ","HOUSE_NO":"１１號","E_COORD97":178832.76999999999,"N_COORD97":2578362.3199999998,"ADDRESS":"民治路２２５巷１１號","OBJECTID":224552},"geometry":{"x":178832.76999999955,"y":2578362.3200000003}},{"attributes":{"ID":224557,"DIS_CODE":0,"TOWNNAME":"新營區","LI":"民生里","LIN":"29鄰","STREET":"民治路","SECT":" ","MAREA":" ","LANE":"２２５巷","ALLEY":" ","HOUSE_NO":"７號","E_COORD97":178827.41,"N_COORD97":2578352.3799999999,"ADDRESS":"民治路２２５巷７號","OBJECTID":224553},"geometry":{"x":178827.41000000015,"y":2578352.3800000008}},{"attributes":{"ID":224558,"DIS_CODE":0,"TOWNNAME":"新營區","LI":"民生里","LIN":"29鄰","STREET":"民治路","SECT":" ","MAREA":" ","LANE":"２２５巷","ALLEY":" ","HOUSE_NO":"１７號","E_COORD97":178841.03,"N_COORD97":2578378.8900000001,"ADDRESS":"民治路２２５巷１７號","OBJECTID":224554},"geometry":{"x":178841.03000000119,"y":2578378.8900000006}},{"attributes":{"ID":224559,"DIS_CODE":0,"TOWNNAME":"新營區","LI":"民生里","LIN":"29鄰","STREET":"民治路","SECT":" ","MAREA":" ","LANE":"２２５巷","ALLEY":" ","HOUSE_NO":"１５號","E_COORD97":178837.94,"N_COORD97":2578373.3700000001,"ADDRESS":"民治路２２５巷１５號","OBJECTID":224555},"geometry":{"x":178837.94000000227,"y":2578373.370000001}},{"attributes":{"ID":224560,"DIS_CODE":0,"TOWNNAME":"北區","LI":"和順里","LIN":"29鄰","STREET":"海安路","SECT":"三段","MAREA":" ","LANE":"１３５巷","ALLEY":" ","HOUSE_NO":"１６號","E_COORD97":167933.95999999999,"N_COORD97":2545033.0800000001,"ADDRESS":"海安路三段１３５巷１６號","OBJECTID":224556},"geometry":{"x":167933.96000000183,"y":2545033.0800000001}},{"attributes":{"ID":224561,"DIS_CODE":0,"TOWNNAME":"北區","LI":"和順里","LIN":"29鄰","STREET":"海安路","SECT":"三段","MAREA":" ","LANE":"１３５巷","ALLEY":" ","HOUSE_NO":"１８號","E_COORD97":167929.48999999999,"N_COORD97":2545034.8199999998,"ADDRESS":"海安路三段１３５巷１８號","OBJECTID":224557},"geometry":{"x":167929.49000000115,"y":2545034.8200000003}},{"attributes":{"ID":224562,"DIS_CODE":0,"TOWNNAME":"北區","LI":"和順里","LIN":"29鄰","STREET":"海安路","SECT":"三段","MAREA":" ","LANE":"１３５巷","ALLEY":" ","HOUSE_NO":"２０號","E_COORD97":167925.01999999999,"N_COORD97":2545035.0099999998,"ADDRESS":"海安路三段１３５巷２０號","OBJECTID":224558},"geometry":{"x":167925.02000000048,"y":2545035.0100000016}},{"attributes":{"ID":224563,"DIS_CODE":0,"TOWNNAME":"北區","LI":"和順里","LIN":"29鄰","STREET":"海安路","SECT":"三段","MAREA":" ","LANE":"１３５巷","ALLEY":" ","HOUSE_NO":"２２號","E_COORD97":167919.98000000001,"N_COORD97":2545035.0099999998,"ADDRESS":"海安路三段１３５巷２２號","OBJECTID":224559},"geometry":{"x":167919.98000000045,"y":2545035.0100000016}},{"attributes":{"ID":224564,"DIS_CODE":0,"TOWNNAME":"北區","LI":"和順里","LIN":"29鄰","STREET":"海安路","SECT":"三段","MAREA":" ","LANE":"１３５巷","ALLEY":" ","HOUSE_NO":"２６號","E_COORD97":167916.25,"N_COORD97":2545035.0099999998,"ADDRESS":"海安路三段１３５巷２６號","OBJECTID":224560},"geometry":{"x":167916.25,"y":2545035.0100000016}},{"attributes":{"ID":224565,"DIS_CODE":0,"TOWNNAME":"北區","LI":"和順里","LIN":"29鄰","STREET":"海安路","SECT":"三段","MAREA":" ","LANE":"１３５巷","ALLEY":" ","HOUSE_NO":"２８號","E_COORD97":167911.95999999999,"N_COORD97":2545035.2000000002,"ADDRESS":"海安路三段１３５巷２８號","OBJECTID":224561},"geometry":{"x":167911.96000000089,"y":2545035.1999999993}},{"attributes":{"ID":224566,"DIS_CODE":0,"TOWNNAME":"北區","LI":"和順里","LIN":"29鄰","STREET":"臨安路","SECT":"二段","MAREA":" ","LANE":"１９５巷","ALLEY":" ","HOUSE_NO":"３８號","E_COORD97":167914.39000000001,"N_COORD97":2545097.04,"ADDRESS":"臨安路二段１９５巷３８號","OBJECTID":224562},"geometry":{"x":167914.3900000006,"y":2545097.0399999991}},{"attributes":{"ID":224567,"DIS_CODE":0,"TOWNNAME":"北區","LI":"和順里","LIN":"29鄰","STREET":"臨安路","SECT":"二段","MAREA":" ","LANE":"１９５巷","ALLEY":" ","HOUSE_NO":"３６號","E_COORD97":167914.95000000001,"N_COORD97":2545093.1299999999,"ADDRESS":"臨安路二段１９５巷３６號","OBJECTID":224563},"geometry":{"x":167914.95000000019,"y":2545093.129999999}},{"attributes":{"ID":224568,"DIS_CODE":0,"TOWNNAME":"北區","LI":"和順里","LIN":"29鄰","STREET":"海安路","SECT":"三段","MAREA":" ","LANE":"１３５巷","ALLEY":" ","HOUSE_NO":"５０號","E_COORD97":167869.60000000001,"N_COORD97":2545033.3300000001,"ADDRESS":"海安路三段１３５巷５０號","OBJECTID":224564},"geometry":{"x":167869.59999999963,"y":2545033.3300000019}},{"attributes":{"ID":224569,"DIS_CODE":0,"TOWNNAME":"北區","LI":"和順里","LIN":"29鄰","STREET":"海安路","SECT":"三段","MAREA":" ","LANE":"１３５巷","ALLEY":" ","HOUSE_NO":"５２號","E_COORD97":167865.14000000001,"N_COORD97":2545033.0800000001,"ADDRESS":"海安路三段１３５巷５２號","OBJECTID":224565},"geometry":{"x":167865.1400000006,"y":2545033.0800000001}},{"attributes":{"ID":224570,"DIS_CODE":0,"TOWNNAME":"北區","LI":"和順里","LIN":"29鄰","STREET":"海安路","SECT":"三段","MAREA":" ","LANE":"１３５巷","ALLEY":" ","HOUSE_NO":"５６號","E_COORD97":167860.17999999999,"N_COORD97":2545032.8399999999,"ADDRESS":"海安路三段１３５巷５６號","OBJECTID":224566},"geometry":{"x":167860.1799999997,"y":2545032.8400000017}},{"attributes":{"ID":224571,"DIS_CODE":0,"TOWNNAME":"北區","LI":"和順里","LIN":"29鄰","STREET":"海安路","SECT":"三段","MAREA":" ","LANE":"１３５巷","ALLEY":" ","HOUSE_NO":"５８號","E_COORD97":167854.98000000001,"N_COORD97":2545032.8399999999,"ADDRESS":"海安路三段１３５巷５８號","OBJECTID":224567},"geometry":{"x":167854.98000000138,"y":2545032.8400000017}},{"attributes":{"ID":224572,"DIS_CODE":0,"TOWNNAME":"北區","LI":"和順里","LIN":"29鄰","STREET":"海安路","SECT":"三段","MAREA":" ","LANE":"１３５巷","ALLEY":" ","HOUSE_NO":"６０號","E_COORD97":167850.26999999999,"N_COORD97":2545032.3399999999,"ADDRESS":"海安路三段１３５巷６０號","OBJECTID":224568},"geometry":{"x":167850.27000000048,"y":2545032.3400000036}},{"attributes":{"ID":224573,"DIS_CODE":0,"TOWNNAME":"北區","LI":"和順里","LIN":"29鄰","STREET":"海安路","SECT":"三段","MAREA":" ","LANE":"１３５巷","ALLEY":" ","HOUSE_NO":"６２號","E_COORD97":167845.57000000001,"N_COORD97":2545032.3399999999,"ADDRESS":"海安路三段１３５巷６２號","OBJECTID":224569},"geometry":{"x":167845.57000000123,"y":2545032.3400000036}},{"attributes":{"ID":224574,"DIS_CODE":0,"TOWNNAME":"北區","LI":"和順里","LIN":"29鄰","STREET":"海安路","SECT":"三段","MAREA":" ","LANE":"１３５巷","ALLEY":" ","HOUSE_NO":"６６號","E_COORD97":167840.60999999999,"N_COORD97":2545032.3399999999,"ADDRESS":"海安路三段１３５巷６６號","OBJECTID":224570},"geometry":{"x":167840.61000000127,"y":2545032.3400000036}},{"attributes":{"ID":224575,"DIS_CODE":0,"TOWNNAME":"北區","LI":"和順里","LIN":"29鄰","STREET":"海安路","SECT":"三段","MAREA":" ","LANE":"１３５巷","ALLEY":" ","HOUSE_NO":"６８號","E_COORD97":167835.41,"N_COORD97":2545032.3399999999,"ADDRESS":"海安路三段１３５巷６８號","OBJECTID":224571},"geometry":{"x":167835.41000000015,"y":2545032.3400000036}},{"attributes":{"ID":224576,"DIS_CODE":0,"TOWNNAME":"北區","LI":"和順里","LIN":"29鄰","STREET":"海安路","SECT":"三段","MAREA":" ","LANE":"１３５巷","ALLEY":" ","HOUSE_NO":"７０號","E_COORD97":167831.20000000001,"N_COORD97":2545032.5899999999,"ADDRESS":"海安路三段１３５巷７０號","OBJECTID":224572},"geometry":{"x":167831.20000000112,"y":2545032.5899999999}},{"attributes":{"ID":224577,"DIS_CODE":0,"TOWNNAME":"北區","LI":"和順里","LIN":"29鄰","STREET":"海安路","SECT":"三段","MAREA":" ","LANE":"１３５巷","ALLEY":" ","HOUSE_NO":"７２號","E_COORD97":167825.98999999999,"N_COORD97":2545032.3399999999,"ADDRESS":"海安路三段１３５巷７２號","OBJECTID":224573},"geometry":{"x":167825.99000000115,"y":2545032.3400000036}},{"attributes":{"ID":224578,"DIS_CODE":0,"TOWNNAME":"北區","LI":"和順里","LIN":"29鄰","STREET":"海安路","SECT":"三段","MAREA":" ","LANE":"１３５巷","ALLEY":" ","HOUSE_NO":"７６號","E_COORD97":167821.78,"N_COORD97":2545031.8500000001,"ADDRESS":"海安路三段１３５巷７６號","OBJECTID":224574},"geometry":{"x":167821.78000000212,"y":2545031.8500000034}},{"attributes":{"ID":224579,"DIS_CODE":0,"TOWNNAME":"北區","LI":"和順里","LIN":"29鄰","STREET":"海安路","SECT":"三段","MAREA":" ","LANE":"１３５巷","ALLEY":" ","HOUSE_NO":"７８號","E_COORD97":167817.07999999999,"N_COORD97":2545032.1000000001,"ADDRESS":"海安路三段１３５巷７８號","OBJECTID":224575},"geometry":{"x":167817.08000000007,"y":2545032.0999999996}},{"attributes":{"ID":224580,"DIS_CODE":0,"TOWNNAME":"北區","LI":"和順里","LIN":"29鄰","STREET":"海安路","SECT":"三段","MAREA":" ","LANE":"１３５巷","ALLEY":" ","HOUSE_NO":"８０號","E_COORD97":167811.87,"N_COORD97":2545031.8500000001,"ADDRESS":"海安路三段１３５巷８０號","OBJECTID":224576},"geometry":{"x":167811.87000000011,"y":2545031.8500000034}},{"attributes":{"ID":224581,"DIS_CODE":0,"TOWNNAME":"北區","LI":"和順里","LIN":"29鄰","STREET":"海安路","SECT":"三段","MAREA":" ","LANE":"１３５巷","ALLEY":" ","HOUSE_NO":"８２號","E_COORD97":167807.66,"N_COORD97":2545031.8500000001,"ADDRESS":"海安路三段１３５巷８２號","OBJECTID":224577},"geometry":{"x":167807.66000000108,"y":2545031.8500000034}},{"attributes":{"ID":224582,"DIS_CODE":0,"TOWNNAME":"中西區","LI":"西湖里","LIN":"9鄰","STREET":"湖美一街","SECT":" ","MAREA":" ","LANE":"１４巷","ALLEY":" ","HOUSE_NO":"２號","E_COORD97":166078.17999999999,"N_COORD97":2544461.8999999999,"ADDRESS":"湖美一街１４巷２號","OBJECTID":224578},"geometry":{"x":166078.18000000063,"y":2544461.9000000004}},{"attributes":{"ID":224583,"DIS_CODE":0,"TOWNNAME":"新營區","LI":"忠政里","LIN":"29鄰","STREET":"府西路","SECT":" ","MAREA":" ","LANE":"８７巷","ALLEY":" ","HOUSE_NO":"２號","E_COORD97":179779.70999999999,"N_COORD97":2579209.4300000002,"ADDRESS":"府西路８７巷２號","OBJECTID":224579},"geometry":{"x":179779.70999999903,"y":2579209.4299999997}},{"attributes":{"ID":224584,"DIS_CODE":0,"TOWNNAME":"柳營區","LI":"光福里","LIN":"29鄰","STREET":"柳營路","SECT":"一段","MAREA":" ","LANE":"１３２巷","ALLEY":" ","HOUSE_NO":"１號","E_COORD97":179745.92000000001,"N_COORD97":2573526.3900000001,"ADDRESS":"柳營路一段１３２巷１號","OBJECTID":224580},"geometry":{"x":179745.91999999993,"y":2573526.3900000025}},{"attributes":{"ID":224585,"DIS_CODE":0,"TOWNNAME":"柳營區","LI":"光福里","LIN":"29鄰","STREET":"柳營路","SECT":"一段","MAREA":" ","LANE":"５２２巷","ALLEY":" ","HOUSE_NO":"２１２號","E_COORD97":180150.17999999999,"N_COORD97":2574118.3999999999,"ADDRESS":"柳營路一段５２２巷２１２號","OBJECTID":224581},"geometry":{"x":180150.1799999997,"y":2574118.4000000041}},{"attributes":{"ID":224586,"DIS_CODE":0,"TOWNNAME":"柳營區","LI":"光福里","LIN":"29鄰","STREET":"柳營路","SECT":"一段","MAREA":" ","LANE":"５２２巷","ALLEY":" ","HOUSE_NO":"２１６號","E_COORD97":180149.60000000001,"N_COORD97":2574113.7000000002,"ADDRESS":"柳營路一段５２２巷２１６號","OBJECTID":224582},"geometry":{"x":180149.59999999963,"y":2574113.6999999993}},{"attributes":{"ID":224587,"DIS_CODE":0,"TOWNNAME":"柳營區","LI":"光福里","LIN":"29鄰","STREET":"柳營路","SECT":"一段","MAREA":" ","LANE":"５２２巷","ALLEY":" ","HOUSE_NO":"２１８號","E_COORD97":180149.01999999999,"N_COORD97":2574109.0099999998,"ADDRESS":"柳營路一段５２２巷２１８號","OBJECTID":224583},"geometry":{"x":180149.02000000048,"y":2574109.0099999998}},{"attributes":{"ID":224588,"DIS_CODE":0,"TOWNNAME":"永康區","LI":"埔園里","LIN":"29鄰","STREET":"龍埔街","SECT":" ","MAREA":" ","LANE":"３０３巷","ALLEY":" ","HOUSE_NO":"１７號","E_COORD97":173911.69,"N_COORD97":2548234.9900000002,"ADDRESS":"龍埔街３０３巷１７號","OBJECTID":224584},"geometry":{"x":173911.69000000227,"y":2548234.9900000002}},{"attributes":{"ID":224589,"DIS_CODE":0,"TOWNNAME":"西港區","LI":"慶安里","LIN":"29鄰","STREET":"新興街","SECT":" ","MAREA":" ","LANE":"１５巷","ALLEY":" ","HOUSE_NO":"９０號","E_COORD97":168010.69,"N_COORD97":2557756.2000000002,"ADDRESS":"新興街１５巷９０號","OBJECTID":224585},"geometry":{"x":168010.69000000227,"y":2557756.1999999993}},{"attributes":{"ID":224590,"DIS_CODE":0,"TOWNNAME":"永康區","LI":"永康里","LIN":"29鄰","STREET":"永大路","SECT":"二段","MAREA":" ","LANE":"８３１巷","ALLEY":" ","HOUSE_NO":"１００號","E_COORD97":174097.76000000001,"N_COORD97":2546982.02,"ADDRESS":"永大路二段８３１巷１００號","OBJECTID":224586},"geometry":{"x":174097.76000000071,"y":2546982.0199999996}},{"attributes":{"ID":224591,"DIS_CODE":0,"TOWNNAME":"永康區","LI":"復華里","LIN":"29鄰","STREET":"國華街","SECT":" ","MAREA":" ","LANE":"１０３巷","ALLEY":" ","HOUSE_NO":"５號","E_COORD97":172615.26000000001,"N_COORD97":2546187.6499999999,"ADDRESS":"國華街１０３巷５號","OBJECTID":224587},"geometry":{"x":172615.25999999978,"y":2546187.6500000022}},{"attributes":{"ID":224592,"DIS_CODE":0,"TOWNNAME":"永康區","LI":"復華里","LIN":"29鄰","STREET":"國華街","SECT":" ","MAREA":" ","LANE":"１２３巷","ALLEY":" ","HOUSE_NO":"２號","E_COORD97":172611.76999999999,"N_COORD97":2546269.1800000002,"ADDRESS":"國華街１２３巷２號","OBJECTID":224588},"geometry":{"x":172611.77000000142,"y":2546269.1799999997}},{"attributes":{"ID":224593,"DIS_CODE":0,"TOWNNAME":"歸仁區","LI":"後市里","LIN":"29鄰","STREET":"民族北街","SECT":" ","MAREA":" ","LANE":"１７巷","ALLEY":" ","HOUSE_NO":"２號六樓之６","E_COORD97":177400.57999999999,"N_COORD97":2540892.75,"ADDRESS":"民族北街１７巷２號六樓之６","OBJECTID":224589},"geometry":{"x":177400.58000000007,"y":2540892.75}},{"attributes":{"ID":224594,"DIS_CODE":0,"TOWNNAME":"歸仁區","LI":"大廟里","LIN":"23鄰","STREET":"大廟一街","SECT":" ","MAREA":" ","LANE":"９０巷","ALLEY":" ","HOUSE_NO":"４１號","E_COORD97":175634.01999999999,"N_COORD97":2543948.25,"ADDRESS":"大廟一街９０巷４１號","OBJECTID":224590},"geometry":{"x":175634.01999999955,"y":2543948.2500000019}},{"attributes":{"ID":224595,"DIS_CODE":0,"TOWNNAME":"歸仁區","LI":"崙頂里","LIN":"23鄰","STREET":"崙頂二街","SECT":" ","MAREA":" ","LANE":"５０巷","ALLEY":" ","HOUSE_NO":"４５號","E_COORD97":177745.23999999999,"N_COORD97":2540006.48,"ADDRESS":"崙頂二街５０巷４５號","OBJECTID":224591},"geometry":{"x":177745.24000000022,"y":2540006.4800000004}},{"attributes":{"ID":224596,"DIS_CODE":0,"TOWNNAME":"新市區","LI":"港墘里","LIN":"23鄰","STREET":"南昌街","SECT":" ","MAREA":" ","LANE":"１７巷","ALLEY":" ","HOUSE_NO":"３號","E_COORD97":177963.87,"N_COORD97":2552868.75,"ADDRESS":"南昌街１７巷３號","OBJECTID":224592},"geometry":{"x":177963.87000000104,"y":2552868.7500000019}},{"attributes":{"ID":224597,"DIS_CODE":0,"TOWNNAME":"安南區","LI":"海東里","LIN":"23鄰","STREET":"同安路","SECT":" ","MAREA":" ","LANE":"１４５巷","ALLEY":" ","HOUSE_NO":"１８號","E_COORD97":167015.56,"N_COORD97":2549104.25,"ADDRESS":"同安路１４５巷１８號","OBJECTID":224593},"geometry":{"x":167015.55999999866,"y":2549104.25}},{"attributes":{"ID":224598,"DIS_CODE":0,"TOWNNAME":"東區","LI":"富強里","LIN":"23鄰","STREET":"裕農路","SECT":" ","MAREA":" ","LANE":"４４６巷","ALLEY":" ","HOUSE_NO":"１９號之２","E_COORD97":171257.25,"N_COORD97":2543089.73,"ADDRESS":"裕農路４４６巷１９號之２","OBJECTID":224594},"geometry":{"x":171257.25,"y":2543089.7300000004}},{"attributes":{"ID":224599,"DIS_CODE":0,"TOWNNAME":"永康區","LI":"\u25A0行里","LIN":"23鄰","STREET":"中正南路","SECT":" ","MAREA":" ","LANE":"５９２巷","ALLEY":" ","HOUSE_NO":"３４號","E_COORD97":171594.60999999999,"N_COORD97":2548573.2000000002,"ADDRESS":"中正南路５９２巷３４號","OBJECTID":224595},"geometry":{"x":171594.61000000034,"y":2548573.2000000011}},{"attributes":{"ID":224600,"DIS_CODE":0,"TOWNNAME":"歸仁區","LI":"六甲里","LIN":"23鄰","STREET":"中正南路","SECT":"一段","MAREA":" ","LANE":"８００巷","ALLEY":" ","HOUSE_NO":"７號","E_COORD97":176365.65959200001,"N_COORD97":2539623.0045599998,"ADDRESS":"中正南路一段８００巷７號","OBJECTID":224596},"geometry":{"x":176365.65959199984,"y":2539623.004556004}},{"attributes":{"ID":224601,"DIS_CODE":0,"TOWNNAME":"歸仁區","LI":"六甲里","LIN":"23鄰","STREET":"中正南路","SECT":"一段","MAREA":" ","LANE":"８００巷","ALLEY":" ","HOUSE_NO":"１１號","E_COORD97":176365.447724,"N_COORD97":2539630.6245499998,"ADDRESS":"中正南路一段８００巷１１號","OBJECTID":224597},"geometry":{"x":176365.44772399962,"y":2539630.6245510019}},{"attributes":{"ID":224602,"DIS_CODE":0,"TOWNNAME":"善化區","LI":"坐駕里","LIN":"11鄰","STREET":"自強路","SECT":" ","MAREA":" ","LANE":"１４０巷","ALLEY":" ","HOUSE_NO":"５號","E_COORD97":177957.79000000001,"N_COORD97":2558732.75,"ADDRESS":"自強路１４０巷５號","OBJECTID":224598},"geometry":{"x":177957.79000000097,"y":2558732.75}},{"attributes":{"ID":224603,"DIS_CODE":0,"TOWNNAME":"安南區","LI":"溪墘里","LIN":"23鄰","STREET":"安寧街","SECT":" ","MAREA":" ","LANE":"９１巷","ALLEY":" ","HOUSE_NO":"３８號","E_COORD97":167272.51999999999,"N_COORD97":2547096.21,"ADDRESS":"安寧街９１巷３８號","OBJECTID":224599},"geometry":{"x":167272.52000000048,"y":2547096.2100000028}},{"attributes":{"ID":224604,"DIS_CODE":0,"TOWNNAME":"下營區","LI":"仁里里","LIN":"23鄰","STREET":"仁中街","SECT":" ","MAREA":" ","LANE":"４８巷","ALLEY":" ","HOUSE_NO":"２６號","E_COORD97":174514.59,"N_COORD97":2569870.6600000001,"ADDRESS":"仁中街４８巷２６號","OBJECTID":224600},"geometry":{"x":174514.58999999985,"y":2569870.6600000001}}]}