{"displayFieldName":"TOWNNAME","fieldAliases":{"ID":"ID","DIS_CODE":"DIS_CODE","TOWNNAME":"TOWNNAME","LI":"LI","LIN":"LIN","STREET":"STREET","SECT":"SECT","MAREA":"MAREA","LANE":"LANE","ALLEY":"ALLEY","HOUSE_NO":"HOUSE_NO","E_COORD97":"E_COORD97","N_COORD97":"N_COORD97","ADDRESS":"ADDRESS","OBJECTID":"OBJECTID"},"geometryType":"esriGeometryPoint","spatialReference":{"wkid":102443,"latestWkid":3826},"fields":[{"name":"ID","type":"esriFieldTypeDouble","alias":"ID"},{"name":"DIS_CODE","type":"esriFieldTypeInteger","alias":"DIS_CODE"},{"name":"TOWNNAME","type":"esriFieldTypeString","alias":"TOWNNAME","length":8},{"name":"LI","type":"esriFieldTypeString","alias":"LI","length":8},{"name":"LIN","type":"esriFieldTypeString","alias":"LIN","length":12},{"name":"STREET","type":"esriFieldTypeString","alias":"STREET","length":20},{"name":"SECT","type":"esriFieldTypeString","alias":"SECT","length":8},{"name":"MAREA","type":"esriFieldTypeString","alias":"MAREA","length":12},{"name":"LANE","type":"esriFieldTypeString","alias":"LANE","length":10},{"name":"ALLEY","type":"esriFieldTypeString","alias":"ALLEY","length":10},{"name":"HOUSE_NO","type":"esriFieldTypeString","alias":"HOUSE_NO","length":20},{"name":"E_COORD97","type":"esriFieldTypeDouble","alias":"E_COORD97"},{"name":"N_COORD97","type":"esriFieldTypeDouble","alias":"N_COORD97"},{"name":"ADDRESS","type":"esriFieldTypeString","alias":"ADDRESS","length":50},{"name":"OBJECTID","type":"esriFieldTypeOID","alias":"OBJECTID"}],"features":[{"attributes":{"ID":583628,"DIS_CODE":0,"TOWNNAME":"仁德區","LI":"後壁里","LIN":"16鄰","STREET":"德南路","SECT":" ","MAREA":" ","LANE":" ","ALLEY":" ","HOUSE_NO":"３７號","E_COORD97":173367.48000000001,"N_COORD97":2538779.27,"ADDRESS":"德南路３７號","OBJECTID":583601},"geometry":{"x":173367.48000000138,"y":2538779.2699999996}},{"attributes":{"ID":583629,"DIS_CODE":0,"TOWNNAME":"仁德區","LI":"太子里","LIN":"16鄰","STREET":"長興四街","SECT":" ","MAREA":" ","LANE":" ","ALLEY":" ","HOUSE_NO":"２５號","E_COORD97":174033.51000000001,"N_COORD97":2543638.2599999998,"ADDRESS":"長興四街２５號","OBJECTID":583602},"geometry":{"x":174033.50999999978,"y":2543638.2599999998}},{"attributes":{"ID":583630,"DIS_CODE":0,"TOWNNAME":"永康區","LI":"東橋里","LIN":"16鄰","STREET":"東橋三路","SECT":" ","MAREA":" ","LANE":" ","ALLEY":" ","HOUSE_NO":"７３號","E_COORD97":171579.75,"N_COORD97":2546622.5,"ADDRESS":"東橋三路７３號","OBJECTID":583603},"geometry":{"x":171579.75,"y":2546622.5000000019}},{"attributes":{"ID":583631,"DIS_CODE":0,"TOWNNAME":"東區","LI":"後甲里","LIN":"22鄰","STREET":"中華東路","SECT":"一段","MAREA":" ","LANE":" ","ALLEY":" ","HOUSE_NO":"２０９號","E_COORD97":171465.09,"N_COORD97":2543385.6600000001,"ADDRESS":"中華東路一段２０９號","OBJECTID":583604},"geometry":{"x":171465.08999999985,"y":2543385.6599999983}},{"attributes":{"ID":583632,"DIS_CODE":0,"TOWNNAME":"東區","LI":"崇德里","LIN":"20鄰","STREET":"崇明十四街","SECT":" ","MAREA":" ","LANE":" ","ALLEY":" ","HOUSE_NO":"２７號","E_COORD97":170570.23999999999,"N_COORD97":2541567.1099999999,"ADDRESS":"崇明十四街２７號","OBJECTID":583605},"geometry":{"x":170570.24000000115,"y":2541567.1099999994}},{"attributes":{"ID":583633,"DIS_CODE":0,"TOWNNAME":"東區","LI":"後甲里","LIN":"26鄰","STREET":"中華東路","SECT":"一段","MAREA":" ","LANE":" ","ALLEY":" ","HOUSE_NO":"２４７號","E_COORD97":171451.26000000001,"N_COORD97":2543297.3900000001,"ADDRESS":"中華東路一段２４７號","OBJECTID":583606},"geometry":{"x":171451.26000000071,"y":2543297.3900000025}},{"attributes":{"ID":583634,"DIS_CODE":0,"TOWNNAME":"東區","LI":"崇德里","LIN":"13鄰","STREET":"中華東路","SECT":"三段","MAREA":" ","LANE":" ","ALLEY":" ","HOUSE_NO":"２７３號","E_COORD97":170447.38,"N_COORD97":2541703.5,"ADDRESS":"中華東路三段２７３號","OBJECTID":583607},"geometry":{"x":170447.38000000082,"y":2541703.5000000019}},{"attributes":{"ID":583635,"DIS_CODE":0,"TOWNNAME":"東區","LI":"崇德里","LIN":"13鄰","STREET":"中華東路","SECT":"三段","MAREA":" ","LANE":" ","ALLEY":" ","HOUSE_NO":"２７５號","E_COORD97":170437.82999999999,"N_COORD97":2541696.1400000001,"ADDRESS":"中華東路三段２７５號","OBJECTID":583608},"geometry":{"x":170437.83000000007,"y":2541696.1400000025}},{"attributes":{"ID":583636,"DIS_CODE":0,"TOWNNAME":"東區","LI":"崇德里","LIN":"10鄰","STREET":"崇德九街","SECT":" ","MAREA":" ","LANE":" ","ALLEY":" ","HOUSE_NO":"５２號","E_COORD97":170926.25,"N_COORD97":2541561.6899999999,"ADDRESS":"崇德九街５２號","OBJECTID":583609},"geometry":{"x":170926.25000000093,"y":2541561.6900000013}},{"attributes":{"ID":583637,"DIS_CODE":0,"TOWNNAME":"東區","LI":"莊敬里","LIN":"10鄰","STREET":"東光路","SECT":"二段","MAREA":" ","LANE":" ","ALLEY":" ","HOUSE_NO":"１０４號","E_COORD97":171264.89000000001,"N_COORD97":2544222.3999999999,"ADDRESS":"東光路二段１０４號","OBJECTID":583610},"geometry":{"x":171264.88999999966,"y":2544222.4000000022}},{"attributes":{"ID":583638,"DIS_CODE":0,"TOWNNAME":"東區","LI":"泉南里","LIN":"23鄰","STREET":"光華街","SECT":" ","MAREA":" ","LANE":" ","ALLEY":" ","HOUSE_NO":"２２８號","E_COORD97":169357.25,"N_COORD97":2543049.1699999999,"ADDRESS":"光華街２２８號","OBJECTID":583611},"geometry":{"x":169357.25,"y":2543049.1699999999}},{"attributes":{"ID":583639,"DIS_CODE":0,"TOWNNAME":"東區","LI":"泉南里","LIN":"23鄰","STREET":"光華街","SECT":" ","MAREA":" ","LANE":" ","ALLEY":" ","HOUSE_NO":"２３２號","E_COORD97":169349.34,"N_COORD97":2543049.0099999998,"ADDRESS":"光華街２３２號","OBJECTID":583612},"geometry":{"x":169349.33999999985,"y":2543049.0100000016}},{"attributes":{"ID":583640,"DIS_CODE":0,"TOWNNAME":"東區","LI":"泉南里","LIN":"23鄰","STREET":"光華街","SECT":" ","MAREA":" ","LANE":" ","ALLEY":" ","HOUSE_NO":"２３４號","E_COORD97":169343.01000000001,"N_COORD97":2543049.4900000002,"ADDRESS":"光華街２３４號","OBJECTID":583613},"geometry":{"x":169343.00999999978,"y":2543049.4900000021}},{"attributes":{"ID":583641,"DIS_CODE":0,"TOWNNAME":"仁德區","LI":"新田里","LIN":"16鄰","STREET":"北保東路","SECT":" ","MAREA":" ","LANE":" ","ALLEY":" ","HOUSE_NO":"２０號","E_COORD97":173424.56,"N_COORD97":2539384,"ADDRESS":"北保東路２０號","OBJECTID":583614},"geometry":{"x":173424.55999999959,"y":2539384.0000000019}},{"attributes":{"ID":583642,"DIS_CODE":0,"TOWNNAME":"永康區","LI":"東橋里","LIN":"16鄰","STREET":"東橋三路","SECT":" ","MAREA":" ","LANE":" ","ALLEY":" ","HOUSE_NO":"６５號","E_COORD97":171592.97,"N_COORD97":2546601.48,"ADDRESS":"東橋三路６５號","OBJECTID":583615},"geometry":{"x":171592.96999999974,"y":2546601.4800000042}},{"attributes":{"ID":583643,"DIS_CODE":0,"TOWNNAME":"永康區","LI":"東橋里","LIN":"16鄰","STREET":"東橋三路","SECT":" ","MAREA":" ","LANE":" ","ALLEY":" ","HOUSE_NO":"６７號","E_COORD97":171590.14000000001,"N_COORD97":2546606.3199999998,"ADDRESS":"東橋三路６７號","OBJECTID":583616},"geometry":{"x":171590.13999999966,"y":2546606.3200000022}},{"attributes":{"ID":583644,"DIS_CODE":0,"TOWNNAME":"永康區","LI":"東橋里","LIN":"16鄰","STREET":"東橋三路","SECT":" ","MAREA":" ","LANE":" ","ALLEY":" ","HOUSE_NO":"６９號","E_COORD97":171585.48000000001,"N_COORD97":2546613.3999999999,"ADDRESS":"東橋三路６９號","OBJECTID":583617},"geometry":{"x":171585.48000000045,"y":2546613.4000000022}},{"attributes":{"ID":583645,"DIS_CODE":0,"TOWNNAME":"永康區","LI":"東橋里","LIN":"16鄰","STREET":"東橋三路","SECT":" ","MAREA":" ","LANE":" ","ALLEY":" ","HOUSE_NO":"７１號","E_COORD97":171582.19,"N_COORD97":2546617.6400000001,"ADDRESS":"東橋三路７１號","OBJECTID":583618},"geometry":{"x":171582.19000000041,"y":2546617.6400000043}},{"attributes":{"ID":583646,"DIS_CODE":0,"TOWNNAME":"東區","LI":"莊敬里","LIN":"12鄰","STREET":"東光路","SECT":"二段","MAREA":" ","LANE":" ","ALLEY":" ","HOUSE_NO":"４６號","E_COORD97":171226.98000000001,"N_COORD97":2544088.7000000002,"ADDRESS":"東光路二段４６號","OBJECTID":583619},"geometry":{"x":171226.98000000138,"y":2544088.6999999993}},{"attributes":{"ID":583647,"DIS_CODE":0,"TOWNNAME":"東區","LI":"莊敬里","LIN":"12鄰","STREET":"東光路","SECT":"二段","MAREA":" ","LANE":" ","ALLEY":" ","HOUSE_NO":"５４號","E_COORD97":171228.17999999999,"N_COORD97":2544106.8500000001,"ADDRESS":"東光路二段５４號","OBJECTID":583620},"geometry":{"x":171228.18000000063,"y":2544106.8500000015}},{"attributes":{"ID":583648,"DIS_CODE":0,"TOWNNAME":"東區","LI":"莊敬里","LIN":"12鄰","STREET":"東光路","SECT":"二段","MAREA":" ","LANE":" ","ALLEY":" ","HOUSE_NO":"５６號","E_COORD97":171229.13,"N_COORD97":2544111.5800000001,"ADDRESS":"東光路二段５６號","OBJECTID":583621},"geometry":{"x":171229.12999999989,"y":2544111.5800000001}},{"attributes":{"ID":583649,"DIS_CODE":0,"TOWNNAME":"東區","LI":"莊敬里","LIN":"12鄰","STREET":"東光路","SECT":"二段","MAREA":" ","LANE":" ","ALLEY":" ","HOUSE_NO":"４８號","E_COORD97":171227.01000000001,"N_COORD97":2544093.2599999998,"ADDRESS":"東光路二段４８號","OBJECTID":583622},"geometry":{"x":171227.01000000164,"y":2544093.2599999979}},{"attributes":{"ID":583650,"DIS_CODE":0,"TOWNNAME":"永康區","LI":"東橋里","LIN":"16鄰","STREET":"東橋三路","SECT":" ","MAREA":" ","LANE":" ","ALLEY":" ","HOUSE_NO":"７５號","E_COORD97":171577.23999999999,"N_COORD97":2546627.1600000001,"ADDRESS":"東橋三路７５號","OBJECTID":583623},"geometry":{"x":171577.24000000115,"y":2546627.1600000039}},{"attributes":{"ID":583651,"DIS_CODE":0,"TOWNNAME":"永康區","LI":"東橋里","LIN":"16鄰","STREET":"東橋三路","SECT":" ","MAREA":" ","LANE":" ","ALLEY":" ","HOUSE_NO":"７９號","E_COORD97":171572.82999999999,"N_COORD97":2546634.79,"ADDRESS":"東橋三路７９號","OBJECTID":583624},"geometry":{"x":171572.83000000194,"y":2546634.7899999991}},{"attributes":{"ID":583652,"DIS_CODE":0,"TOWNNAME":"永康區","LI":"東橋里","LIN":"16鄰","STREET":"東橋三路","SECT":" ","MAREA":" ","LANE":" ","ALLEY":" ","HOUSE_NO":"８１號","E_COORD97":171570.67999999999,"N_COORD97":2546639.6600000001,"ADDRESS":"東橋三路８１號","OBJECTID":583625},"geometry":{"x":171570.68000000063,"y":2546639.6600000001}},{"attributes":{"ID":583653,"DIS_CODE":0,"TOWNNAME":"東區","LI":"圍下里","LIN":"15鄰","STREET":"育樂街","SECT":" ","MAREA":" ","LANE":" ","ALLEY":" ","HOUSE_NO":"２４４號","E_COORD97":169463.45000000001,"N_COORD97":2543627.3199999998,"ADDRESS":"育樂街２４４號","OBJECTID":583626},"geometry":{"x":169463.45000000112,"y":2543627.3200000022}},{"attributes":{"ID":583654,"DIS_CODE":0,"TOWNNAME":"東區","LI":"圍下里","LIN":"15鄰","STREET":"育樂街","SECT":" ","MAREA":" ","LANE":" ","ALLEY":" ","HOUSE_NO":"２４６號","E_COORD97":169463.04000000001,"N_COORD97":2543620.96,"ADDRESS":"育樂街２４６號","OBJECTID":583627},"geometry":{"x":169463.04000000097,"y":2543620.9600000009}},{"attributes":{"ID":583655,"DIS_CODE":0,"TOWNNAME":"東區","LI":"圍下里","LIN":"15鄰","STREET":"育樂街","SECT":" ","MAREA":" ","LANE":" ","ALLEY":" ","HOUSE_NO":"２５６號","E_COORD97":169460.60000000001,"N_COORD97":2543590.23,"ADDRESS":"育樂街２５６號","OBJECTID":583628},"geometry":{"x":169460.60000000056,"y":2543590.2300000023}},{"attributes":{"ID":583656,"DIS_CODE":0,"TOWNNAME":"東區","LI":"圍下里","LIN":"15鄰","STREET":"育樂街","SECT":" ","MAREA":" ","LANE":" ","ALLEY":" ","HOUSE_NO":"２５４號","E_COORD97":169460.60000000001,"N_COORD97":2543595.0899999999,"ADDRESS":"育樂街２５４號","OBJECTID":583629},"geometry":{"x":169460.60000000056,"y":2543595.0899999999}},{"attributes":{"ID":583657,"DIS_CODE":0,"TOWNNAME":"東區","LI":"和平里","LIN":"1鄰","STREET":"仁和路","SECT":" ","MAREA":" ","LANE":" ","ALLEY":" ","HOUSE_NO":"９號之１","E_COORD97":171029.85999999999,"N_COORD97":2542301.98,"ADDRESS":"仁和路９號之１","OBJECTID":583630},"geometry":{"x":171029.86000000034,"y":2542301.9800000004}},{"attributes":{"ID":583658,"DIS_CODE":0,"TOWNNAME":"東區","LI":"和平里","LIN":"1鄰","STREET":"仁和路","SECT":" ","MAREA":" ","LANE":" ","ALLEY":" ","HOUSE_NO":"９號之３","E_COORD97":171030.79000000001,"N_COORD97":2542296.9900000002,"ADDRESS":"仁和路９號之３","OBJECTID":583631},"geometry":{"x":171030.79000000097,"y":2542296.9900000021}},{"attributes":{"ID":583659,"DIS_CODE":0,"TOWNNAME":"東區","LI":"忠孝里","LIN":"10鄰","STREET":"崇明路","SECT":" ","MAREA":" ","LANE":" ","ALLEY":" ","HOUSE_NO":"３３６號","E_COORD97":170061.73000000001,"N_COORD97":2541949.6899999999,"ADDRESS":"崇明路３３６號","OBJECTID":583632},"geometry":{"x":170061.73000000231,"y":2541949.6899999995}},{"attributes":{"ID":583660,"DIS_CODE":0,"TOWNNAME":"東區","LI":"龍山里","LIN":"21鄰","STREET":"富德街","SECT":" ","MAREA":" ","LANE":" ","ALLEY":" ","HOUSE_NO":"１４號","E_COORD97":170511.73000000001,"N_COORD97":2542751.8999999999,"ADDRESS":"富德街１４號","OBJECTID":583633},"geometry":{"x":170511.73000000138,"y":2542751.9000000022}},{"attributes":{"ID":583661,"DIS_CODE":0,"TOWNNAME":"東區","LI":"後甲里","LIN":"16鄰","STREET":"裕農路","SECT":" ","MAREA":" ","LANE":" ","ALLEY":" ","HOUSE_NO":"５７３號","E_COORD97":171471.51999999999,"N_COORD97":2543238.6299999999,"ADDRESS":"裕農路５７３號","OBJECTID":583634},"geometry":{"x":171471.52000000048,"y":2543238.629999999}},{"attributes":{"ID":583662,"DIS_CODE":0,"TOWNNAME":"東區","LI":"崇德里","LIN":"12鄰","STREET":"崇德十一街","SECT":" ","MAREA":" ","LANE":" ","ALLEY":" ","HOUSE_NO":"６４號","E_COORD97":170961.70000000001,"N_COORD97":2541452.25,"ADDRESS":"崇德十一街６４號","OBJECTID":583635},"geometry":{"x":170961.70000000205,"y":2541452.25}},{"attributes":{"ID":583663,"DIS_CODE":0,"TOWNNAME":"東區","LI":"東明里","LIN":"28鄰","STREET":"東寧路","SECT":" ","MAREA":" ","LANE":" ","ALLEY":" ","HOUSE_NO":"２６９號地下一層","E_COORD97":170791.64000000001,"N_COORD97":2543436.3500000001,"ADDRESS":"東寧路２６９號地下一層","OBJECTID":583636},"geometry":{"x":170791.63999999966,"y":2543436.3500000015}},{"attributes":{"ID":583664,"DIS_CODE":0,"TOWNNAME":"東區","LI":"東明里","LIN":"28鄰","STREET":"東寧路","SECT":" ","MAREA":" ","LANE":" ","ALLEY":" ","HOUSE_NO":"２６９號","E_COORD97":170791.64000000001,"N_COORD97":2543436.3500000001,"ADDRESS":"東寧路２６９號","OBJECTID":583637},"geometry":{"x":170791.63999999966,"y":2543436.3500000015}},{"attributes":{"ID":583665,"DIS_CODE":0,"TOWNNAME":"東區","LI":"崇德里","LIN":"3鄰","STREET":"崇德六街","SECT":" ","MAREA":" ","LANE":" ","ALLEY":" ","HOUSE_NO":"６３號","E_COORD97":170793.88,"N_COORD97":2541838.3199999998,"ADDRESS":"崇德六街６３號","OBJECTID":583638},"geometry":{"x":170793.87999999989,"y":2541838.3200000003}},{"attributes":{"ID":583666,"DIS_CODE":0,"TOWNNAME":"東區","LI":"崇德里","LIN":"15鄰","STREET":"崇明十三街","SECT":" ","MAREA":" ","LANE":" ","ALLEY":" ","HOUSE_NO":"３３號","E_COORD97":170501.94,"N_COORD97":2541640.0499999998,"ADDRESS":"崇明十三街３３號","OBJECTID":583639},"geometry":{"x":170501.94000000041,"y":2541640.0500000007}},{"attributes":{"ID":583667,"DIS_CODE":0,"TOWNNAME":"永康區","LI":"埔園里","LIN":"16鄰","STREET":"八德街","SECT":" ","MAREA":" ","LANE":" ","ALLEY":" ","HOUSE_NO":"３８０號","E_COORD97":173450.37,"N_COORD97":2548567.5600000001,"ADDRESS":"八德街３８０號","OBJECTID":583640},"geometry":{"x":173450.37000000011,"y":2548567.5600000042}},{"attributes":{"ID":583668,"DIS_CODE":0,"TOWNNAME":"永康區","LI":"埔園里","LIN":"16鄰","STREET":"八德街","SECT":" ","MAREA":" ","LANE":" ","ALLEY":" ","HOUSE_NO":"３８６號","E_COORD97":173439.89000000001,"N_COORD97":2548565.1600000001,"ADDRESS":"八德街３８６號","OBJECTID":583641},"geometry":{"x":173439.88999999873,"y":2548565.1600000001}},{"attributes":{"ID":583669,"DIS_CODE":0,"TOWNNAME":"東區","LI":"莊敬里","LIN":"1鄰","STREET":"東和路","SECT":" ","MAREA":" ","LANE":" ","ALLEY":" ","HOUSE_NO":"１８號","E_COORD97":171032.04999999999,"N_COORD97":2544357.7799999998,"ADDRESS":"東和路１８號","OBJECTID":583642},"geometry":{"x":171032.05000000075,"y":2544357.7800000012}},{"attributes":{"ID":583670,"DIS_CODE":0,"TOWNNAME":"東區","LI":"富強里","LIN":"6鄰","STREET":"中華東路","SECT":"二段","MAREA":" ","LANE":" ","ALLEY":" ","HOUSE_NO":"８２號","E_COORD97":171365.04999999999,"N_COORD97":2542927.3100000001,"ADDRESS":"中華東路二段８２號","OBJECTID":583643},"geometry":{"x":171365.04999999981,"y":2542927.3100000005}},{"attributes":{"ID":583671,"DIS_CODE":0,"TOWNNAME":"東區","LI":"圍下里","LIN":"19鄰","STREET":"慶東街","SECT":" ","MAREA":" ","LANE":" ","ALLEY":" ","HOUSE_NO":"１３９號","E_COORD97":169641.28,"N_COORD97":2543463.6699999999,"ADDRESS":"慶東街１３９號","OBJECTID":583644},"geometry":{"x":169641.28000000119,"y":2543463.6700000037}},{"attributes":{"ID":583672,"DIS_CODE":0,"TOWNNAME":"東區","LI":"崇善里","LIN":"12鄰","STREET":"崇善九街","SECT":" ","MAREA":" ","LANE":" ","ALLEY":" ","HOUSE_NO":"５５號","E_COORD97":171221.19,"N_COORD97":2541394.8900000001,"ADDRESS":"崇善九街５５號","OBJECTID":583645},"geometry":{"x":171221.19000000041,"y":2541394.8900000043}},{"attributes":{"ID":583673,"DIS_CODE":0,"TOWNNAME":"東區","LI":"崇德里","LIN":"10鄰","STREET":"崇德八街","SECT":" ","MAREA":" ","LANE":" ","ALLEY":" ","HOUSE_NO":"２９號","E_COORD97":170886.48999999999,"N_COORD97":2541629.79,"ADDRESS":"崇德八街２９號","OBJECTID":583646},"geometry":{"x":170886.49000000022,"y":2541629.7899999991}},{"attributes":{"ID":583674,"DIS_CODE":0,"TOWNNAME":"東區","LI":"小東里","LIN":"18鄰","STREET":"東和路","SECT":" ","MAREA":" ","LANE":" ","ALLEY":" ","HOUSE_NO":"５０號","E_COORD97":170942,"N_COORD97":2544342.3999999999,"ADDRESS":"東和路５０號","OBJECTID":583647},"geometry":{"x":170942,"y":2544342.4000000004}},{"attributes":{"ID":583675,"DIS_CODE":0,"TOWNNAME":"東區","LI":"小東里","LIN":"34鄰","STREET":"東興路","SECT":" ","MAREA":" ","LANE":" ","ALLEY":" ","HOUSE_NO":"２７９號","E_COORD97":171045.48999999999,"N_COORD97":2544061.5899999999,"ADDRESS":"東興路２７９號","OBJECTID":583648},"geometry":{"x":171045.49000000022,"y":2544061.5900000017}},{"attributes":{"ID":583676,"DIS_CODE":0,"TOWNNAME":"東區","LI":"小東里","LIN":"35鄰","STREET":"東興路","SECT":" ","MAREA":" ","LANE":" ","ALLEY":" ","HOUSE_NO":"３５５號","E_COORD97":171017.54000000001,"N_COORD97":2544261.98,"ADDRESS":"東興路３５５號","OBJECTID":583649},"geometry":{"x":171017.54000000097,"y":2544261.9799999986}},{"attributes":{"ID":583677,"DIS_CODE":0,"TOWNNAME":"東區","LI":"圍下里","LIN":"19鄰","STREET":"慶東街","SECT":" ","MAREA":" ","LANE":" ","ALLEY":" ","HOUSE_NO":"１３９號地下層","E_COORD97":169641.28,"N_COORD97":2543463.6699999999,"ADDRESS":"慶東街１３９號地下層","OBJECTID":583650},"geometry":{"x":169641.28000000119,"y":2543463.6700000037}},{"attributes":{"ID":583678,"DIS_CODE":0,"TOWNNAME":"東區","LI":"崇德里","LIN":"7鄰","STREET":"崇德六街","SECT":" ","MAREA":" ","LANE":" ","ALLEY":" ","HOUSE_NO":"３０號","E_COORD97":170752.06,"N_COORD97":2541754.6699999999,"ADDRESS":"崇德六街３０號","OBJECTID":583651},"geometry":{"x":170752.06000000052,"y":2541754.6699999981}},{"attributes":{"ID":583679,"DIS_CODE":0,"TOWNNAME":"東區","LI":"崇德里","LIN":"12鄰","STREET":"崇德十一街","SECT":" ","MAREA":" ","LANE":" ","ALLEY":" ","HOUSE_NO":"５４號地下層","E_COORD97":170946.79000000001,"N_COORD97":2541454.1099999999,"ADDRESS":"崇德十一街５４號地下層","OBJECTID":583652},"geometry":{"x":170946.79000000004,"y":2541454.1100000013}},{"attributes":{"ID":583680,"DIS_CODE":0,"TOWNNAME":"東區","LI":"崇德里","LIN":"12鄰","STREET":"崇德十一街","SECT":" ","MAREA":" ","LANE":" ","ALLEY":" ","HOUSE_NO":"５４號","E_COORD97":170937.92000000001,"N_COORD97":2541443.1600000001,"ADDRESS":"崇德十一街５４號","OBJECTID":583653},"geometry":{"x":170937.92000000179,"y":2541443.1600000039}},{"attributes":{"ID":583681,"DIS_CODE":0,"TOWNNAME":"東區","LI":"崇德里","LIN":"12鄰","STREET":"崇德十一街","SECT":" ","MAREA":" ","LANE":" ","ALLEY":" ","HOUSE_NO":"５６號","E_COORD97":170945.53,"N_COORD97":2541444.9900000002,"ADDRESS":"崇德十一街５６號","OBJECTID":583654},"geometry":{"x":170945.53000000026,"y":2541444.9900000021}},{"attributes":{"ID":583682,"DIS_CODE":0,"TOWNNAME":"東區","LI":"龍山里","LIN":"21鄰","STREET":"東門路","SECT":"二段","MAREA":" ","LANE":" ","ALLEY":" ","HOUSE_NO":"１９６號","E_COORD97":170368.19,"N_COORD97":2542843.4399999999,"ADDRESS":"東門路二段１９６號","OBJECTID":583655},"geometry":{"x":170368.19000000041,"y":2542843.4399999995}},{"attributes":{"ID":583683,"DIS_CODE":0,"TOWNNAME":"東區","LI":"小東里","LIN":"18鄰","STREET":"東和路","SECT":" ","MAREA":" ","LANE":" ","ALLEY":" ","HOUSE_NO":"３４號","E_COORD97":170988.51000000001,"N_COORD97":2544350.5699999998,"ADDRESS":"東和路３４號","OBJECTID":583656},"geometry":{"x":170988.51000000071,"y":2544350.5700000022}},{"attributes":{"ID":583684,"DIS_CODE":0,"TOWNNAME":"東區","LI":"富強里","LIN":"10鄰","STREET":"中華東路","SECT":"二段","MAREA":" ","LANE":" ","ALLEY":" ","HOUSE_NO":"２１０號","E_COORD97":171124.31,"N_COORD97":2542593.71,"ADDRESS":"中華東路二段２１０號","OBJECTID":583657},"geometry":{"x":171124.30999999959,"y":2542593.7100000028}},{"attributes":{"ID":583685,"DIS_CODE":0,"TOWNNAME":"下營區","LI":"新興里","LIN":"16鄰","STREET":"裕農街","SECT":" ","MAREA":" ","LANE":" ","ALLEY":" ","HOUSE_NO":"１２１號","E_COORD97":175539.89999999999,"N_COORD97":2570312.3900000001,"ADDRESS":"裕農街１２１號","OBJECTID":583658},"geometry":{"x":175539.9000000013,"y":2570312.3900000025}},{"attributes":{"ID":583686,"DIS_CODE":0,"TOWNNAME":"下營區","LI":"新興里","LIN":"16鄰","STREET":"裕農街","SECT":" ","MAREA":" ","LANE":" ","ALLEY":" ","HOUSE_NO":"１２３號","E_COORD97":175548.57999999999,"N_COORD97":2570313.1299999999,"ADDRESS":"裕農街１２３號","OBJECTID":583659},"geometry":{"x":175548.58000000101,"y":2570313.129999999}},{"attributes":{"ID":583687,"DIS_CODE":0,"TOWNNAME":"下營區","LI":"新興里","LIN":"16鄰","STREET":"裕農街","SECT":" ","MAREA":" ","LANE":" ","ALLEY":" ","HOUSE_NO":"１５６號","E_COORD97":175362.41,"N_COORD97":2570254.21,"ADDRESS":"裕農街１５６號","OBJECTID":583660},"geometry":{"x":175362.41000000015,"y":2570254.2100000009}},{"attributes":{"ID":583688,"DIS_CODE":0,"TOWNNAME":"下營區","LI":"新興里","LIN":"16鄰","STREET":"裕農街","SECT":" ","MAREA":" ","LANE":" ","ALLEY":" ","HOUSE_NO":"１５８號","E_COORD97":175367.97,"N_COORD97":2570254.96,"ADDRESS":"裕農街１５８號","OBJECTID":583661},"geometry":{"x":175367.96999999974,"y":2570254.9600000028}},{"attributes":{"ID":583689,"DIS_CODE":0,"TOWNNAME":"下營區","LI":"新興里","LIN":"16鄰","STREET":"裕農街","SECT":" ","MAREA":" ","LANE":" ","ALLEY":" ","HOUSE_NO":"１７２號","E_COORD97":175416.95000000001,"N_COORD97":2570277.3100000001,"ADDRESS":"裕農街１７２號","OBJECTID":583662},"geometry":{"x":175416.95000000112,"y":2570277.3100000005}},{"attributes":{"ID":583690,"DIS_CODE":0,"TOWNNAME":"下營區","LI":"新興里","LIN":"16鄰","STREET":"裕農街","SECT":" ","MAREA":" ","LANE":" ","ALLEY":" ","HOUSE_NO":"１８０號","E_COORD97":175442.41,"N_COORD97":2570269.7400000002,"ADDRESS":"裕農街１８０號","OBJECTID":583663},"geometry":{"x":175442.41000000201,"y":2570269.7400000002}},{"attributes":{"ID":583691,"DIS_CODE":0,"TOWNNAME":"下營區","LI":"新興里","LIN":"16鄰","STREET":"裕農街","SECT":" ","MAREA":" ","LANE":" ","ALLEY":" ","HOUSE_NO":"１８８號","E_COORD97":175463.42000000001,"N_COORD97":2570268.54,"ADDRESS":"裕農街１８８號","OBJECTID":583664},"geometry":{"x":175463.41999999993,"y":2570268.540000001}},{"attributes":{"ID":583692,"DIS_CODE":0,"TOWNNAME":"下營區","LI":"新興里","LIN":"16鄰","STREET":"裕農街","SECT":" ","MAREA":" ","LANE":" ","ALLEY":" ","HOUSE_NO":"２０７號","E_COORD97":175641.81,"N_COORD97":2570342.54,"ADDRESS":"裕農街２０７號","OBJECTID":583665},"geometry":{"x":175641.80999999959,"y":2570342.5400000028}},{"attributes":{"ID":583693,"DIS_CODE":0,"TOWNNAME":"下營區","LI":"新興里","LIN":"16鄰","STREET":"裕農街","SECT":" ","MAREA":" ","LANE":" ","ALLEY":" ","HOUSE_NO":"２０號","E_COORD97":175065.81,"N_COORD97":2570283.23,"ADDRESS":"裕農街２０號","OBJECTID":583666},"geometry":{"x":175065.80999999959,"y":2570283.2300000023}},{"attributes":{"ID":583694,"DIS_CODE":0,"TOWNNAME":"下營區","LI":"新興里","LIN":"16鄰","STREET":"裕農街","SECT":" ","MAREA":" ","LANE":" ","ALLEY":" ","HOUSE_NO":"２６９號","E_COORD97":175739.01000000001,"N_COORD97":2570354.0899999999,"ADDRESS":"裕農街２６９號","OBJECTID":583667},"geometry":{"x":175739.00999999978,"y":2570354.0900000017}},{"attributes":{"ID":583695,"DIS_CODE":0,"TOWNNAME":"下營區","LI":"新興里","LIN":"16鄰","STREET":"裕農街","SECT":" ","MAREA":" ","LANE":" ","ALLEY":" ","HOUSE_NO":"３２０號","E_COORD97":175596.53,"N_COORD97":2570282.4199999999,"ADDRESS":"裕農街３２０號","OBJECTID":583668},"geometry":{"x":175596.53000000119,"y":2570282.4199999999}},{"attributes":{"ID":583696,"DIS_CODE":0,"TOWNNAME":"下營區","LI":"新興里","LIN":"16鄰","STREET":"裕農街","SECT":" ","MAREA":" ","LANE":" ","ALLEY":" ","HOUSE_NO":"３２８號","E_COORD97":175641.51000000001,"N_COORD97":2570294.2200000002,"ADDRESS":"裕農街３２８號","OBJECTID":583669},"geometry":{"x":175641.51000000071,"y":2570294.2200000007}},{"attributes":{"ID":583697,"DIS_CODE":0,"TOWNNAME":"下營區","LI":"新興里","LIN":"16鄰","STREET":"裕農街","SECT":" ","MAREA":" ","LANE":" ","ALLEY":" ","HOUSE_NO":"３３６號","E_COORD97":175662.76999999999,"N_COORD97":2570279.7000000002,"ADDRESS":"裕農街３３６號","OBJECTID":583670},"geometry":{"x":175662.76999999955,"y":2570279.6999999993}},{"attributes":{"ID":583698,"DIS_CODE":0,"TOWNNAME":"下營區","LI":"新興里","LIN":"16鄰","STREET":"裕農街","SECT":" ","MAREA":" ","LANE":" ","ALLEY":" ","HOUSE_NO":"３４２號","E_COORD97":175672.60999999999,"N_COORD97":2570296.4300000002,"ADDRESS":"裕農街３４２號","OBJECTID":583671},"geometry":{"x":175672.61000000034,"y":2570296.4300000034}},{"attributes":{"ID":583699,"DIS_CODE":0,"TOWNNAME":"下營區","LI":"新興里","LIN":"16鄰","STREET":"裕農街","SECT":" ","MAREA":" ","LANE":" ","ALLEY":" ","HOUSE_NO":"３７０號","E_COORD97":175756.26000000001,"N_COORD97":2570292.6200000001,"ADDRESS":"裕農街３７０號","OBJECTID":583672},"geometry":{"x":175756.25999999978,"y":2570292.620000001}},{"attributes":{"ID":583700,"DIS_CODE":0,"TOWNNAME":"下營區","LI":"新興里","LIN":"16鄰","STREET":"裕農街","SECT":" ","MAREA":" ","LANE":" ","ALLEY":" ","HOUSE_NO":"５７號","E_COORD97":175323.44,"N_COORD97":2570302.3599999999,"ADDRESS":"裕農街５７號","OBJECTID":583673},"geometry":{"x":175323.44000000041,"y":2570302.3599999994}},{"attributes":{"ID":583701,"DIS_CODE":0,"TOWNNAME":"下營區","LI":"新興里","LIN":"16鄰","STREET":"裕農街","SECT":" ","MAREA":" ","LANE":" ","ALLEY":" ","HOUSE_NO":"５９號","E_COORD97":175354.95000000001,"N_COORD97":2570314.71,"ADDRESS":"裕農街５９號","OBJECTID":583674},"geometry":{"x":175354.95000000019,"y":2570314.7100000009}},{"attributes":{"ID":583702,"DIS_CODE":0,"TOWNNAME":"下營區","LI":"新興里","LIN":"16鄰","STREET":"裕農街","SECT":" ","MAREA":" ","LANE":" ","ALLEY":" ","HOUSE_NO":"６３５號","E_COORD97":176443.72,"N_COORD97":2570428.1299999999,"ADDRESS":"裕農街６３５號","OBJECTID":583675},"geometry":{"x":176443.72000000067,"y":2570428.1300000008}},{"attributes":{"ID":583703,"DIS_CODE":0,"TOWNNAME":"下營區","LI":"新興里","LIN":"16鄰","STREET":"裕農街","SECT":" ","MAREA":" ","LANE":" ","ALLEY":" ","HOUSE_NO":"６６１號","E_COORD97":176560.82000000001,"N_COORD97":2570404.21,"ADDRESS":"裕農街６６１號","OBJECTID":583676},"geometry":{"x":176560.82000000123,"y":2570404.2100000046}},{"attributes":{"ID":583704,"DIS_CODE":0,"TOWNNAME":"下營區","LI":"新興里","LIN":"16鄰","STREET":"裕農街","SECT":" ","MAREA":" ","LANE":" ","ALLEY":" ","HOUSE_NO":"６９號","E_COORD97":175389.82000000001,"N_COORD97":2570306.3900000001,"ADDRESS":"裕農街６９號","OBJECTID":583677},"geometry":{"x":175389.8200000003,"y":2570306.3900000006}},{"attributes":{"ID":583705,"DIS_CODE":0,"TOWNNAME":"下營區","LI":"新興里","LIN":"16鄰","STREET":"寮前一街","SECT":" ","MAREA":" ","LANE":" ","ALLEY":" ","HOUSE_NO":"２０號","E_COORD97":175312.23999999999,"N_COORD97":2570351.7000000002,"ADDRESS":"寮前一街２０號","OBJECTID":583678},"geometry":{"x":175312.24000000022,"y":2570351.700000003}},{"attributes":{"ID":583706,"DIS_CODE":0,"TOWNNAME":"下營區","LI":"新興里","LIN":"16鄰","STREET":"寮前一街","SECT":" ","MAREA":" ","LANE":" ","ALLEY":" ","HOUSE_NO":"２２號","E_COORD97":175313.13,"N_COORD97":2570355.6099999999,"ADDRESS":"寮前一街２２號","OBJECTID":583679},"geometry":{"x":175313.12999999989,"y":2570355.6099999994}},{"attributes":{"ID":583707,"DIS_CODE":0,"TOWNNAME":"下營區","LI":"新興里","LIN":"16鄰","STREET":"寮前一街","SECT":" ","MAREA":" ","LANE":" ","ALLEY":" ","HOUSE_NO":"４１號","E_COORD97":175321.67000000001,"N_COORD97":2570460.4100000001,"ADDRESS":"寮前一街４１號","OBJECTID":583680},"geometry":{"x":175321.67000000179,"y":2570460.410000002}},{"attributes":{"ID":583708,"DIS_CODE":0,"TOWNNAME":"下營區","LI":"新興里","LIN":"16鄰","STREET":"寮前一街","SECT":" ","MAREA":" ","LANE":" ","ALLEY":" ","HOUSE_NO":"５２號","E_COORD97":175321.81,"N_COORD97":2570424.8799999999,"ADDRESS":"寮前一街５２號","OBJECTID":583681},"geometry":{"x":175321.80999999959,"y":2570424.8800000027}},{"attributes":{"ID":583709,"DIS_CODE":0,"TOWNNAME":"下營區","LI":"新興里","LIN":"16鄰","STREET":"寮前一街","SECT":" ","MAREA":" ","LANE":" ","ALLEY":" ","HOUSE_NO":"６８號","E_COORD97":175303.07999999999,"N_COORD97":2570530.02,"ADDRESS":"寮前一街６８號","OBJECTID":583682},"geometry":{"x":175303.08000000007,"y":2570530.0200000014}},{"attributes":{"ID":583710,"DIS_CODE":0,"TOWNNAME":"下營區","LI":"新興里","LIN":"16鄰","STREET":"寮前二街","SECT":" ","MAREA":" ","LANE":" ","ALLEY":" ","HOUSE_NO":"３０號","E_COORD97":175270.69,"N_COORD97":2570478.7400000002,"ADDRESS":"寮前二街３０號","OBJECTID":583683},"geometry":{"x":175270.69000000041,"y":2570478.7400000021}},{"attributes":{"ID":583711,"DIS_CODE":0,"TOWNNAME":"東區","LI":"莊敬里","LIN":"1鄰","STREET":"東和路","SECT":" ","MAREA":" ","LANE":" ","ALLEY":" ","HOUSE_NO":"２２號","E_COORD97":171023.87,"N_COORD97":2544356.6099999999,"ADDRESS":"東和路２２號","OBJECTID":583684},"geometry":{"x":171023.87000000104,"y":2544356.6100000013}},{"attributes":{"ID":583712,"DIS_CODE":0,"TOWNNAME":"東區","LI":"忠孝里","LIN":"24鄰","STREET":"崇明四街","SECT":" ","MAREA":" ","LANE":" ","ALLEY":" ","HOUSE_NO":"５０號","E_COORD97":169697.12,"N_COORD97":2542314.1400000001,"ADDRESS":"崇明四街５０號","OBJECTID":583685},"geometry":{"x":169697.12000000011,"y":2542314.1400000006}},{"attributes":{"ID":583713,"DIS_CODE":0,"TOWNNAME":"東區","LI":"忠孝里","LIN":"24鄰","STREET":"崇明路","SECT":" ","MAREA":" ","LANE":" ","ALLEY":" ","HOUSE_NO":"８０號","E_COORD97":169717.45999999999,"N_COORD97":2542315.77,"ADDRESS":"崇明路８０號","OBJECTID":583686},"geometry":{"x":169717.46000000089,"y":2542315.7699999996}},{"attributes":{"ID":583714,"DIS_CODE":0,"TOWNNAME":"東區","LI":"忠孝里","LIN":"24鄰","STREET":"崇明四街","SECT":" ","MAREA":" ","LANE":" ","ALLEY":" ","HOUSE_NO":"４６號地下層","E_COORD97":169690.45999999999,"N_COORD97":2542311.4199999999,"ADDRESS":"崇明四街４６號地下層","OBJECTID":583687},"geometry":{"x":169690.46000000089,"y":2542311.4199999999}},{"attributes":{"ID":583715,"DIS_CODE":0,"TOWNNAME":"東區","LI":"忠孝里","LIN":"24鄰","STREET":"崇明四街","SECT":" ","MAREA":" ","LANE":" ","ALLEY":" ","HOUSE_NO":"４６號地下層之１","E_COORD97":169690.45999999999,"N_COORD97":2542311.4199999999,"ADDRESS":"崇明四街４６號地下層之１","OBJECTID":583688},"geometry":{"x":169690.46000000089,"y":2542311.4199999999}},{"attributes":{"ID":583716,"DIS_CODE":0,"TOWNNAME":"東區","LI":"忠孝里","LIN":"24鄰","STREET":"崇明四街","SECT":" ","MAREA":" ","LANE":" ","ALLEY":" ","HOUSE_NO":"４６號地下層之２","E_COORD97":169690.45999999999,"N_COORD97":2542311.4199999999,"ADDRESS":"崇明四街４６號地下層之２","OBJECTID":583689},"geometry":{"x":169690.46000000089,"y":2542311.4199999999}},{"attributes":{"ID":583717,"DIS_CODE":0,"TOWNNAME":"新化區","LI":"協興里","LIN":"16鄰","STREET":"大新路","SECT":" ","MAREA":" ","LANE":" ","ALLEY":" ","HOUSE_NO":"３號","E_COORD97":178226.03,"N_COORD97":2548551.25,"ADDRESS":"大新路３號","OBJECTID":583690},"geometry":{"x":178226.03000000026,"y":2548551.25}},{"attributes":{"ID":583718,"DIS_CODE":0,"TOWNNAME":"新化區","LI":"協興里","LIN":"16鄰","STREET":"大新路","SECT":" ","MAREA":" ","LANE":" ","ALLEY":" ","HOUSE_NO":"６３號","E_COORD97":178133.11140299999,"N_COORD97":2548657.3082499998,"ADDRESS":"大新路６３號","OBJECTID":583691},"geometry":{"x":178133.11140300054,"y":2548657.3082490023}},{"attributes":{"ID":583719,"DIS_CODE":0,"TOWNNAME":"佳里區","LI":"鎮山里","LIN":"16鄰","STREET":"祥和二街","SECT":" ","MAREA":" ","LANE":" ","ALLEY":" ","HOUSE_NO":"１號","E_COORD97":166157.14999999999,"N_COORD97":2561233.7999999998,"ADDRESS":"祥和二街１號","OBJECTID":583692},"geometry":{"x":166157.1500000013,"y":2561233.8000000026}},{"attributes":{"ID":583720,"DIS_CODE":0,"TOWNNAME":"佳里區","LI":"鎮山里","LIN":"16鄰","STREET":"祥和二街","SECT":" ","MAREA":" ","LANE":" ","ALLEY":" ","HOUSE_NO":"１０號","E_COORD97":166125.98999999999,"N_COORD97":2561239.1699999999,"ADDRESS":"祥和二街１０號","OBJECTID":583693},"geometry":{"x":166125.99000000022,"y":2561239.1699999981}},{"attributes":{"ID":583721,"DIS_CODE":0,"TOWNNAME":"佳里區","LI":"鎮山里","LIN":"16鄰","STREET":"祥和二街","SECT":" ","MAREA":" ","LANE":" ","ALLEY":" ","HOUSE_NO":"６號","E_COORD97":166134.10000000001,"N_COORD97":2561242.1099999999,"ADDRESS":"祥和二街６號","OBJECTID":583694},"geometry":{"x":166134.10000000056,"y":2561242.1099999994}},{"attributes":{"ID":583722,"DIS_CODE":0,"TOWNNAME":"佳里區","LI":"鎮山里","LIN":"16鄰","STREET":"祥和二街","SECT":" ","MAREA":" ","LANE":" ","ALLEY":" ","HOUSE_NO":"８號","E_COORD97":166130.45999999999,"N_COORD97":2561240.4399999999,"ADDRESS":"祥和二街８號","OBJECTID":583695},"geometry":{"x":166130.46000000089,"y":2561240.4400000032}},{"attributes":{"ID":583723,"DIS_CODE":0,"TOWNNAME":"中西區","LI":"文賢里","LIN":"2鄰","STREET":"文和街","SECT":" ","MAREA":" ","LANE":" ","ALLEY":" ","HOUSE_NO":"１８號","E_COORD97":167273.29000000001,"N_COORD97":2544979.54,"ADDRESS":"文和街１８號","OBJECTID":583696},"geometry":{"x":167273.29000000004,"y":2544979.540000001}},{"attributes":{"ID":583724,"DIS_CODE":0,"TOWNNAME":"東區","LI":"忠孝里","LIN":"20鄰","STREET":"崇明路","SECT":" ","MAREA":" ","LANE":" ","ALLEY":" ","HOUSE_NO":"２７８號","E_COORD97":169966.89000000001,"N_COORD97":2542075.1299999999,"ADDRESS":"崇明路２７８號","OBJECTID":583697},"geometry":{"x":169966.8900000006,"y":2542075.129999999}},{"attributes":{"ID":583725,"DIS_CODE":0,"TOWNNAME":"東區","LI":"忠孝里","LIN":"20鄰","STREET":"崇明路","SECT":" ","MAREA":" ","LANE":" ","ALLEY":" ","HOUSE_NO":"２８０號","E_COORD97":169973.25,"N_COORD97":2542062.9700000002,"ADDRESS":"崇明路２８０號","OBJECTID":583698},"geometry":{"x":169973.25000000093,"y":2542062.9700000025}},{"attributes":{"ID":583726,"DIS_CODE":0,"TOWNNAME":"東區","LI":"忠孝里","LIN":"20鄰","STREET":"崇明路","SECT":" ","MAREA":" ","LANE":" ","ALLEY":" ","HOUSE_NO":"２８２號","E_COORD97":169976.14999999999,"N_COORD97":2542058.8900000001,"ADDRESS":"崇明路２８２號","OBJECTID":583699},"geometry":{"x":169976.1500000013,"y":2542058.8900000006}},{"attributes":{"ID":583727,"DIS_CODE":0,"TOWNNAME":"東區","LI":"忠孝里","LIN":"39鄰","STREET":"崇明路","SECT":" ","MAREA":" ","LANE":" ","ALLEY":" ","HOUSE_NO":"２７２號","E_COORD97":169960.95999999999,"N_COORD97":2542082.6400000001,"ADDRESS":"崇明路２７２號","OBJECTID":583700},"geometry":{"x":169960.95999999996,"y":2542082.6400000025}},{"attributes":{"ID":583728,"DIS_CODE":0,"TOWNNAME":"東區","LI":"小東里","LIN":"34鄰","STREET":"東興路","SECT":" ","MAREA":" ","LANE":" ","ALLEY":" ","HOUSE_NO":"２７３號","E_COORD97":171040.57000000001,"N_COORD97":2544042.46,"ADDRESS":"東興路２７３號","OBJECTID":583701},"geometry":{"x":171040.5700000003,"y":2544042.4600000046}},{"attributes":{"ID":583729,"DIS_CODE":0,"TOWNNAME":"東區","LI":"小東里","LIN":"34鄰","STREET":"東興路","SECT":" ","MAREA":" ","LANE":" ","ALLEY":" ","HOUSE_NO":"２７５號","E_COORD97":171041.07999999999,"N_COORD97":2544047.3700000001,"ADDRESS":"東興路２７５號","OBJECTID":583702},"geometry":{"x":171041.08000000101,"y":2544047.3700000029}},{"attributes":{"ID":583730,"DIS_CODE":0,"TOWNNAME":"東區","LI":"小東里","LIN":"34鄰","STREET":"東興路","SECT":" ","MAREA":" ","LANE":" ","ALLEY":" ","HOUSE_NO":"２７７號","E_COORD97":171022.17999999999,"N_COORD97":2544046.1600000001,"ADDRESS":"東興路２７７號","OBJECTID":583703},"geometry":{"x":171022.1799999997,"y":2544046.1600000001}},{"attributes":{"ID":583731,"DIS_CODE":0,"TOWNNAME":"東區","LI":"忠孝里","LIN":"20鄰","STREET":"崇明路","SECT":" ","MAREA":" ","LANE":" ","ALLEY":" ","HOUSE_NO":"２７４號","E_COORD97":169963.20000000001,"N_COORD97":2542080,"ADDRESS":"崇明路２７４號","OBJECTID":583704},"geometry":{"x":169963.19999999925,"y":2542080}},{"attributes":{"ID":583732,"DIS_CODE":0,"TOWNNAME":"東區","LI":"忠孝里","LIN":"20鄰","STREET":"崇明路","SECT":" ","MAREA":" ","LANE":" ","ALLEY":" ","HOUSE_NO":"２７６號","E_COORD97":169964.92000000001,"N_COORD97":2542077.3700000001,"ADDRESS":"崇明路２７６號","OBJECTID":583705},"geometry":{"x":169964.92000000179,"y":2542077.3700000029}},{"attributes":{"ID":583733,"DIS_CODE":0,"TOWNNAME":"東區","LI":"小東里","LIN":"33鄰","STREET":"東平路","SECT":" ","MAREA":" ","LANE":" ","ALLEY":" ","HOUSE_NO":"１２４號","E_COORD97":171082.84,"N_COORD97":2543978.2000000002,"ADDRESS":"東平路１２４號","OBJECTID":583706},"geometry":{"x":171082.84000000078,"y":2543978.200000003}},{"attributes":{"ID":583734,"DIS_CODE":0,"TOWNNAME":"東區","LI":"忠孝里","LIN":"10鄰","STREET":"榮譽街","SECT":" ","MAREA":" ","LANE":" ","ALLEY":" ","HOUSE_NO":"１８８號","E_COORD97":170026.14999999999,"N_COORD97":2541840.9100000001,"ADDRESS":"榮譽街１８８號","OBJECTID":583707},"geometry":{"x":170026.15000000037,"y":2541840.9100000001}},{"attributes":{"ID":583735,"DIS_CODE":0,"TOWNNAME":"佳里區","LI":"忠仁里","LIN":"16鄰","STREET":"博愛街","SECT":" ","MAREA":" ","LANE":" ","ALLEY":" ","HOUSE_NO":"８３號","E_COORD97":165956.63,"N_COORD97":2561996.3300000001,"ADDRESS":"博愛街８３號","OBJECTID":583708},"geometry":{"x":165956.63000000082,"y":2561996.3300000001}},{"attributes":{"ID":583736,"DIS_CODE":0,"TOWNNAME":"東區","LI":"東光里","LIN":"7鄰","STREET":"怡東路","SECT":" ","MAREA":" ","LANE":" ","ALLEY":" ","HOUSE_NO":"１１０號","E_COORD97":170902.29999999999,"N_COORD97":2543824.9100000001,"ADDRESS":"怡東路１１０號","OBJECTID":583709},"geometry":{"x":170902.29999999981,"y":2543824.9100000039}},{"attributes":{"ID":583737,"DIS_CODE":0,"TOWNNAME":"東區","LI":"東明里","LIN":"7鄰","STREET":"東興路","SECT":" ","MAREA":" ","LANE":" ","ALLEY":" ","HOUSE_NO":"１０７號","E_COORD97":170951.60999999999,"N_COORD97":2543641.3100000001,"ADDRESS":"東興路１０７號","OBJECTID":583710},"geometry":{"x":170951.61000000034,"y":2543641.3100000005}},{"attributes":{"ID":583738,"DIS_CODE":0,"TOWNNAME":"東區","LI":"小東里","LIN":"33鄰","STREET":"東平路","SECT":" ","MAREA":" ","LANE":" ","ALLEY":" ","HOUSE_NO":"１１０號","E_COORD97":171123.23000000001,"N_COORD97":2543973.0299999998,"ADDRESS":"東平路１１０號","OBJECTID":583711},"geometry":{"x":171123.23000000138,"y":2543973.0300000012}},{"attributes":{"ID":583739,"DIS_CODE":0,"TOWNNAME":"東區","LI":"小東里","LIN":"33鄰","STREET":"東平路","SECT":" ","MAREA":" ","LANE":" ","ALLEY":" ","HOUSE_NO":"１１０號之１","E_COORD97":171118.57000000001,"N_COORD97":2543973.2799999998,"ADDRESS":"東平路１１０號之１","OBJECTID":583712},"geometry":{"x":171118.56999999937,"y":2543973.2799999993}},{"attributes":{"ID":583740,"DIS_CODE":0,"TOWNNAME":"東區","LI":"小東里","LIN":"33鄰","STREET":"東平路","SECT":" ","MAREA":" ","LANE":" ","ALLEY":" ","HOUSE_NO":"１１０號之２","E_COORD97":171115.20000000001,"N_COORD97":2543974.0600000001,"ADDRESS":"東平路１１０號之２","OBJECTID":583713},"geometry":{"x":171115.20000000019,"y":2543974.0600000024}},{"attributes":{"ID":583741,"DIS_CODE":0,"TOWNNAME":"東區","LI":"泉南里","LIN":"23鄰","STREET":"光華街","SECT":" ","MAREA":" ","LANE":" ","ALLEY":" ","HOUSE_NO":"２２６號","E_COORD97":169360.42000000001,"N_COORD97":2543051.54,"ADDRESS":"光華街２２６號","OBJECTID":583714},"geometry":{"x":169360.42000000086,"y":2543051.540000001}},{"attributes":{"ID":583742,"DIS_CODE":0,"TOWNNAME":"東區","LI":"泉南里","LIN":"23鄰","STREET":"光華街","SECT":" ","MAREA":" ","LANE":" ","ALLEY":" ","HOUSE_NO":"２３０號","E_COORD97":169354.56,"N_COORD97":2543051.3900000001,"ADDRESS":"光華街２３０號","OBJECTID":583715},"geometry":{"x":169354.55999999959,"y":2543051.3900000006}},{"attributes":{"ID":583743,"DIS_CODE":0,"TOWNNAME":"東區","LI":"裕農里","LIN":"14鄰","STREET":"東寧路","SECT":" ","MAREA":" ","LANE":" ","ALLEY":" ","HOUSE_NO":"３５２號","E_COORD97":170843.47,"N_COORD97":2543362.29,"ADDRESS":"東寧路３５２號","OBJECTID":583716},"geometry":{"x":170843.46999999974,"y":2543362.2899999991}},{"attributes":{"ID":583744,"DIS_CODE":0,"TOWNNAME":"東區","LI":"崇德里","LIN":"7鄰","STREET":"崇德七街","SECT":" ","MAREA":" ","LANE":" ","ALLEY":" ","HOUSE_NO":"２１號","E_COORD97":170770.91,"N_COORD97":2541729.3599999999,"ADDRESS":"崇德七街２１號","OBJECTID":583717},"geometry":{"x":170770.91000000108,"y":2541729.3600000031}},{"attributes":{"ID":583745,"DIS_CODE":0,"TOWNNAME":"東區","LI":"小東里","LIN":"35鄰","STREET":"東和路","SECT":" ","MAREA":" ","LANE":" ","ALLEY":" ","HOUSE_NO":"４５號","E_COORD97":171010.79999999999,"N_COORD97":2544329.2200000002,"ADDRESS":"東和路４５號","OBJECTID":583718},"geometry":{"x":171010.79999999981,"y":2544329.2200000025}},{"attributes":{"ID":583746,"DIS_CODE":0,"TOWNNAME":"東區","LI":"小東里","LIN":"35鄰","STREET":"東和路","SECT":" ","MAREA":" ","LANE":" ","ALLEY":" ","HOUSE_NO":"４７號","E_COORD97":171005.47,"N_COORD97":2544329.6899999999,"ADDRESS":"東和路４７號","OBJECTID":583719},"geometry":{"x":171005.47000000067,"y":2544329.6899999995}},{"attributes":{"ID":583747,"DIS_CODE":0,"TOWNNAME":"東區","LI":"小東里","LIN":"35鄰","STREET":"東和路","SECT":" ","MAREA":" ","LANE":" ","ALLEY":" ","HOUSE_NO":"４９號","E_COORD97":171001.85999999999,"N_COORD97":2544328.8999999999,"ADDRESS":"東和路４９號","OBJECTID":583720},"geometry":{"x":171001.86000000127,"y":2544328.9000000004}},{"attributes":{"ID":583748,"DIS_CODE":0,"TOWNNAME":"東區","LI":"小東里","LIN":"35鄰","STREET":"東和路","SECT":" ","MAREA":" ","LANE":" ","ALLEY":" ","HOUSE_NO":"５３號","E_COORD97":170994.64999999999,"N_COORD97":2544327.8100000001,"ADDRESS":"東和路５３號","OBJECTID":583721},"geometry":{"x":170994.6500000013,"y":2544327.8100000042}},{"attributes":{"ID":583749,"DIS_CODE":0,"TOWNNAME":"東區","LI":"小東里","LIN":"35鄰","STREET":"東和路","SECT":" ","MAREA":" ","LANE":" ","ALLEY":" ","HOUSE_NO":"５５號","E_COORD97":170989.95000000001,"N_COORD97":2544326.8700000001,"ADDRESS":"東和路５５號","OBJECTID":583722},"geometry":{"x":170989.95000000019,"y":2544326.870000001}},{"attributes":{"ID":583750,"DIS_CODE":0,"TOWNNAME":"東區","LI":"小東里","LIN":"35鄰","STREET":"東和路","SECT":" ","MAREA":" ","LANE":" ","ALLEY":" ","HOUSE_NO":"４５號地下一層","E_COORD97":171010.79999999999,"N_COORD97":2544329.2200000002,"ADDRESS":"東和路４５號地下一層","OBJECTID":583723},"geometry":{"x":171010.79999999981,"y":2544329.2200000025}},{"attributes":{"ID":583751,"DIS_CODE":0,"TOWNNAME":"東區","LI":"富強里","LIN":"1鄰","STREET":"裕農路","SECT":" ","MAREA":" ","LANE":" ","ALLEY":" ","HOUSE_NO":"３１２號","E_COORD97":170944.60999999999,"N_COORD97":2543006.8399999999,"ADDRESS":"裕農路３１２號","OBJECTID":583724},"geometry":{"x":170944.61000000127,"y":2543006.8399999999}},{"attributes":{"ID":583752,"DIS_CODE":0,"TOWNNAME":"東區","LI":"小東里","LIN":"35鄰","STREET":"東和路","SECT":" ","MAREA":" ","LANE":" ","ALLEY":" ","HOUSE_NO":"５１號","E_COORD97":170998.57000000001,"N_COORD97":2544328.5899999999,"ADDRESS":"東和路５１號","OBJECTID":583725},"geometry":{"x":170998.57000000123,"y":2544328.5900000036}},{"attributes":{"ID":583753,"DIS_CODE":0,"TOWNNAME":"學甲區","LI":"慈福里","LIN":"16鄰","STREET":"中山路","SECT":" ","MAREA":" ","LANE":" ","ALLEY":" ","HOUSE_NO":"１０３號","E_COORD97":166175.39999999999,"N_COORD97":2570475.7000000002,"ADDRESS":"中山路１０３號","OBJECTID":583726},"geometry":{"x":166175.4000000013,"y":2570475.6999999993}},{"attributes":{"ID":583754,"DIS_CODE":0,"TOWNNAME":"學甲區","LI":"慈福里","LIN":"16鄰","STREET":"中山路","SECT":" ","MAREA":" ","LANE":" ","ALLEY":" ","HOUSE_NO":"１０５號","E_COORD97":166167.75,"N_COORD97":2570478.0600000001,"ADDRESS":"中山路１０５號","OBJECTID":583727},"geometry":{"x":166167.75000000093,"y":2570478.0600000005}},{"attributes":{"ID":583755,"DIS_CODE":0,"TOWNNAME":"學甲區","LI":"慈福里","LIN":"16鄰","STREET":"中山路","SECT":" ","MAREA":" ","LANE":" ","ALLEY":" ","HOUSE_NO":"１０７號","E_COORD97":166160.89999999999,"N_COORD97":2570479.8599999999,"ADDRESS":"中山路１０７號","OBJECTID":583728},"geometry":{"x":166160.90000000037,"y":2570479.8600000031}},{"attributes":{"ID":583756,"DIS_CODE":0,"TOWNNAME":"學甲區","LI":"明宜里","LIN":"16鄰","STREET":"中山路","SECT":" ","MAREA":" ","LANE":" ","ALLEY":" ","HOUSE_NO":"１３０號","E_COORD97":166091.45999999999,"N_COORD97":2570523.7200000002,"ADDRESS":"中山路１３０號","OBJECTID":583729},"geometry":{"x":166091.46000000089,"y":2570523.7200000025}},{"attributes":{"ID":583757,"DIS_CODE":0,"TOWNNAME":"學甲區","LI":"明宜里","LIN":"16鄰","STREET":"中山路","SECT":" ","MAREA":" ","LANE":" ","ALLEY":" ","HOUSE_NO":"１３２號","E_COORD97":166087.88,"N_COORD97":2570524.54,"ADDRESS":"中山路１３２號","OBJECTID":583730},"geometry":{"x":166087.87999999989,"y":2570524.5399999991}},{"attributes":{"ID":583758,"DIS_CODE":0,"TOWNNAME":"學甲區","LI":"明宜里","LIN":"16鄰","STREET":"中山路","SECT":" ","MAREA":" ","LANE":" ","ALLEY":" ","HOUSE_NO":"１３４號","E_COORD97":166084.51999999999,"N_COORD97":2570525.4300000002,"ADDRESS":"中山路１３４號","OBJECTID":583731},"geometry":{"x":166084.51999999955,"y":2570525.4299999997}},{"attributes":{"ID":583759,"DIS_CODE":0,"TOWNNAME":"學甲區","LI":"明宜里","LIN":"16鄰","STREET":"中山路","SECT":" ","MAREA":" ","LANE":" ","ALLEY":" ","HOUSE_NO":"１３６號","E_COORD97":166080.97,"N_COORD97":2570526.0899999999,"ADDRESS":"中山路１３６號","OBJECTID":583732},"geometry":{"x":166080.97000000067,"y":2570526.0900000036}},{"attributes":{"ID":583760,"DIS_CODE":0,"TOWNNAME":"學甲區","LI":"明宜里","LIN":"16鄰","STREET":"中山路","SECT":" ","MAREA":" ","LANE":" ","ALLEY":" ","HOUSE_NO":"１４０號","E_COORD97":166076.89000000001,"N_COORD97":2570527.8500000001,"ADDRESS":"中山路１４０號","OBJECTID":583733},"geometry":{"x":166076.8900000006,"y":2570527.8500000015}},{"attributes":{"ID":583761,"DIS_CODE":0,"TOWNNAME":"學甲區","LI":"明宜里","LIN":"16鄰","STREET":"中山路","SECT":" ","MAREA":" ","LANE":" ","ALLEY":" ","HOUSE_NO":"１４２號","E_COORD97":166071.34,"N_COORD97":2570528.4100000001,"ADDRESS":"中山路１４２號","OBJECTID":583734},"geometry":{"x":166071.33999999985,"y":2570528.410000002}},{"attributes":{"ID":583762,"DIS_CODE":0,"TOWNNAME":"學甲區","LI":"明宜里","LIN":"16鄰","STREET":"中山路","SECT":" ","MAREA":" ","LANE":" ","ALLEY":" ","HOUSE_NO":"１４４號","E_COORD97":166066.62,"N_COORD97":2570529.46,"ADDRESS":"中山路１４４號","OBJECTID":583735},"geometry":{"x":166066.62000000197,"y":2570529.4600000028}},{"attributes":{"ID":583763,"DIS_CODE":0,"TOWNNAME":"學甲區","LI":"明宜里","LIN":"16鄰","STREET":"中山路","SECT":" ","MAREA":" ","LANE":" ","ALLEY":" ","HOUSE_NO":"１４６號","E_COORD97":166061.98999999999,"N_COORD97":2570530.9700000002,"ADDRESS":"中山路１４６號","OBJECTID":583736},"geometry":{"x":166061.99000000022,"y":2570530.9699999988}},{"attributes":{"ID":583764,"DIS_CODE":0,"TOWNNAME":"學甲區","LI":"明宜里","LIN":"16鄰","STREET":"中山路","SECT":" ","MAREA":" ","LANE":" ","ALLEY":" ","HOUSE_NO":"１４８號","E_COORD97":166052.81,"N_COORD97":2570532.3500000001,"ADDRESS":"中山路１４８號","OBJECTID":583737},"geometry":{"x":166052.81000000145,"y":2570532.3500000015}},{"attributes":{"ID":583765,"DIS_CODE":0,"TOWNNAME":"學甲區","LI":"明宜里","LIN":"16鄰","STREET":"中山路","SECT":" ","MAREA":" ","LANE":" ","ALLEY":" ","HOUSE_NO":"１５２號","E_COORD97":166044.14000000001,"N_COORD97":2570536.6600000001,"ADDRESS":"中山路１５２號","OBJECTID":583738},"geometry":{"x":166044.1400000006,"y":2570536.660000002}},{"attributes":{"ID":583766,"DIS_CODE":0,"TOWNNAME":"東區","LI":"崇明里","LIN":"1鄰","STREET":"中華東路","SECT":"三段","MAREA":" ","LANE":" ","ALLEY":" ","HOUSE_NO":"５０９號","E_COORD97":169680.22,"N_COORD97":2541467.8599999999,"ADDRESS":"中華東路三段５０９號","OBJECTID":583739},"geometry":{"x":169680.22000000067,"y":2541467.8599999994}},{"attributes":{"ID":583767,"DIS_CODE":0,"TOWNNAME":"東區","LI":"富強里","LIN":"1鄰","STREET":"裕農路","SECT":" ","MAREA":" ","LANE":" ","ALLEY":" ","HOUSE_NO":"３００號","E_COORD97":170915.17999999999,"N_COORD97":2542994.1099999999,"ADDRESS":"裕農路３００號","OBJECTID":583740},"geometry":{"x":170915.1799999997,"y":2542994.1099999994}},{"attributes":{"ID":583768,"DIS_CODE":0,"TOWNNAME":"東區","LI":"富強里","LIN":"1鄰","STREET":"裕農路","SECT":" ","MAREA":" ","LANE":" ","ALLEY":" ","HOUSE_NO":"３０４號","E_COORD97":170930.64999999999,"N_COORD97":2542999.8700000001,"ADDRESS":"裕農路３０４號","OBJECTID":583741},"geometry":{"x":170930.6500000013,"y":2542999.8700000029}},{"attributes":{"ID":583769,"DIS_CODE":0,"TOWNNAME":"東區","LI":"富強里","LIN":"1鄰","STREET":"裕農路","SECT":" ","MAREA":" ","LANE":" ","ALLEY":" ","HOUSE_NO":"３０６號","E_COORD97":170933.07999999999,"N_COORD97":2543001.0800000001,"ADDRESS":"裕農路３０６號","OBJECTID":583742},"geometry":{"x":170933.08000000007,"y":2543001.0800000019}},{"attributes":{"ID":583770,"DIS_CODE":0,"TOWNNAME":"東區","LI":"富強里","LIN":"1鄰","STREET":"裕農路","SECT":" ","MAREA":" ","LANE":" ","ALLEY":" ","HOUSE_NO":"３０８號","E_COORD97":170937.63,"N_COORD97":2543003.2000000002,"ADDRESS":"裕農路３０８號","OBJECTID":583743},"geometry":{"x":170937.62999999989,"y":2543003.2000000011}},{"attributes":{"ID":583771,"DIS_CODE":0,"TOWNNAME":"學甲區","LI":"明宜里","LIN":"16鄰","STREET":"中山路","SECT":" ","MAREA":" ","LANE":" ","ALLEY":" ","HOUSE_NO":"１５４號","E_COORD97":166038.63,"N_COORD97":2570538.79,"ADDRESS":"中山路１５４號","OBJECTID":583744},"geometry":{"x":166038.62999999989,"y":2570538.790000001}},{"attributes":{"ID":583772,"DIS_CODE":0,"TOWNNAME":"學甲區","LI":"明宜里","LIN":"16鄰","STREET":"中山路","SECT":" ","MAREA":" ","LANE":" ","ALLEY":" ","HOUSE_NO":"１５６號","E_COORD97":166030.70000000001,"N_COORD97":2570534.9700000002,"ADDRESS":"中山路１５６號","OBJECTID":583745},"geometry":{"x":166030.70000000112,"y":2570534.9700000025}},{"attributes":{"ID":583773,"DIS_CODE":0,"TOWNNAME":"學甲區","LI":"慈福里","LIN":"16鄰","STREET":"中正路","SECT":" ","MAREA":" ","LANE":" ","ALLEY":" ","HOUSE_NO":"２７４號","E_COORD97":166128.32000000001,"N_COORD97":2570443.54,"ADDRESS":"中正路２７４號","OBJECTID":583746},"geometry":{"x":166128.32000000123,"y":2570443.5399999991}},{"attributes":{"ID":583774,"DIS_CODE":0,"TOWNNAME":"學甲區","LI":"慈福里","LIN":"16鄰","STREET":"中正路","SECT":" ","MAREA":" ","LANE":" ","ALLEY":" ","HOUSE_NO":"２７６號","E_COORD97":166129.76000000001,"N_COORD97":2570447.71,"ADDRESS":"中正路２７６號","OBJECTID":583747},"geometry":{"x":166129.76000000071,"y":2570447.7100000009}},{"attributes":{"ID":583775,"DIS_CODE":0,"TOWNNAME":"學甲區","LI":"慈福里","LIN":"16鄰","STREET":"中正路","SECT":" ","MAREA":" ","LANE":" ","ALLEY":" ","HOUSE_NO":"２７８號","E_COORD97":166130.76999999999,"N_COORD97":2570451.46,"ADDRESS":"中正路２７８號","OBJECTID":583748},"geometry":{"x":166130.76999999955,"y":2570451.4600000028}},{"attributes":{"ID":583776,"DIS_CODE":0,"TOWNNAME":"學甲區","LI":"慈福里","LIN":"16鄰","STREET":"中正路","SECT":" ","MAREA":" ","LANE":" ","ALLEY":" ","HOUSE_NO":"２８２號","E_COORD97":166138.97,"N_COORD97":2570455.5600000001,"ADDRESS":"中正路２８２號","OBJECTID":583749},"geometry":{"x":166138.97000000067,"y":2570455.5599999987}},{"attributes":{"ID":583777,"DIS_CODE":0,"TOWNNAME":"學甲區","LI":"慈福里","LIN":"16鄰","STREET":"中正路","SECT":" ","MAREA":" ","LANE":" ","ALLEY":" ","HOUSE_NO":"２８６號","E_COORD97":166140.48000000001,"N_COORD97":2570460.5099999998,"ADDRESS":"中正路２８６號","OBJECTID":583750},"geometry":{"x":166140.48000000045,"y":2570460.5099999998}},{"attributes":{"ID":583778,"DIS_CODE":0,"TOWNNAME":"學甲區","LI":"慈福里","LIN":"16鄰","STREET":"中正路","SECT":" ","MAREA":" ","LANE":" ","ALLEY":" ","HOUSE_NO":"２８８號","E_COORD97":166142.38,"N_COORD97":2570463.8799999999,"ADDRESS":"中正路２８８號","OBJECTID":583751},"geometry":{"x":166142.37999999896,"y":2570463.879999999}},{"attributes":{"ID":583779,"DIS_CODE":0,"TOWNNAME":"學甲區","LI":"慈福里","LIN":"16鄰","STREET":"中正路","SECT":" ","MAREA":" ","LANE":" ","ALLEY":" ","HOUSE_NO":"２９０號","E_COORD97":166144.91,"N_COORD97":2570467.48,"ADDRESS":"中正路２９０號","OBJECTID":583752},"geometry":{"x":166144.91000000108,"y":2570467.4800000023}},{"attributes":{"ID":583780,"DIS_CODE":0,"TOWNNAME":"學甲區","LI":"慈福里","LIN":"16鄰","STREET":"中正路","SECT":" ","MAREA":" ","LANE":" ","ALLEY":" ","HOUSE_NO":"２９２號","E_COORD97":166147.54000000001,"N_COORD97":2570470.29,"ADDRESS":"中正路２９２號","OBJECTID":583753},"geometry":{"x":166147.54000000004,"y":2570470.290000001}},{"attributes":{"ID":583781,"DIS_CODE":0,"TOWNNAME":"學甲區","LI":"慈福里","LIN":"16鄰","STREET":"中正路","SECT":" ","MAREA":" ","LANE":" ","ALLEY":" ","HOUSE_NO":"２９４號","E_COORD97":166149.22,"N_COORD97":2570473.8599999999,"ADDRESS":"中正路２９４號","OBJECTID":583754},"geometry":{"x":166149.22000000067,"y":2570473.8600000013}},{"attributes":{"ID":583782,"DIS_CODE":0,"TOWNNAME":"學甲區","LI":"慈福里","LIN":"16鄰","STREET":"中正路","SECT":" ","MAREA":" ","LANE":" ","ALLEY":" ","HOUSE_NO":"２９６號","E_COORD97":166147.26999999999,"N_COORD97":2570477.98,"ADDRESS":"中正路２９６號","OBJECTID":583755},"geometry":{"x":166147.26999999955,"y":2570477.9800000023}},{"attributes":{"ID":583783,"DIS_CODE":0,"TOWNNAME":"學甲區","LI":"慈福里","LIN":"16鄰","STREET":"中正路","SECT":" ","MAREA":" ","LANE":" ","ALLEY":" ","HOUSE_NO":"２９８號","E_COORD97":166150.54000000001,"N_COORD97":2570482.2599999998,"ADDRESS":"中正路２９８號","OBJECTID":583756},"geometry":{"x":166150.54000000097,"y":2570482.2600000016}},{"attributes":{"ID":583784,"DIS_CODE":0,"TOWNNAME":"東區","LI":"富強里","LIN":"1鄰","STREET":"裕農路","SECT":" ","MAREA":" ","LANE":" ","ALLEY":" ","HOUSE_NO":"２９８號","E_COORD97":170908.97,"N_COORD97":2542987.1400000001,"ADDRESS":"裕農路２９８號","OBJECTID":583757},"geometry":{"x":170908.97000000067,"y":2542987.1400000025}},{"attributes":{"ID":583785,"DIS_CODE":0,"TOWNNAME":"東區","LI":"富強里","LIN":"1鄰","STREET":"裕農路","SECT":" ","MAREA":" ","LANE":" ","ALLEY":" ","HOUSE_NO":"３０２號","E_COORD97":170923.67999999999,"N_COORD97":2542997.75,"ADDRESS":"裕農路３０２號","OBJECTID":583758},"geometry":{"x":170923.6799999997,"y":2542997.75}},{"attributes":{"ID":583786,"DIS_CODE":0,"TOWNNAME":"歸仁區","LI":"南興里","LIN":"16鄰","STREET":"南興一街","SECT":" ","MAREA":" ","LANE":" ","ALLEY":" ","HOUSE_NO":"５４號","E_COORD97":175746.70999999999,"N_COORD97":2541331.25,"ADDRESS":"南興一街５４號","OBJECTID":583759},"geometry":{"x":175746.70999999996,"y":2541331.2500000019}},{"attributes":{"ID":583787,"DIS_CODE":0,"TOWNNAME":"歸仁區","LI":"後市里","LIN":"16鄰","STREET":"民族南街","SECT":" ","MAREA":" ","LANE":" ","ALLEY":" ","HOUSE_NO":"１２號","E_COORD97":177409.48999999999,"N_COORD97":2540750.5499999998,"ADDRESS":"民族南街１２號","OBJECTID":583760},"geometry":{"x":177409.49000000022,"y":2540750.5500000026}},{"attributes":{"ID":583788,"DIS_CODE":0,"TOWNNAME":"歸仁區","LI":"看西里","LIN":"16鄰","STREET":"仁愛南街","SECT":" ","MAREA":" ","LANE":" ","ALLEY":" ","HOUSE_NO":"３１１號","E_COORD97":178276.26000000001,"N_COORD97":2540035.1200000001,"ADDRESS":"仁愛南街３１１號","OBJECTID":583761},"geometry":{"x":178276.26000000071,"y":2540035.1200000029}},{"attributes":{"ID":583789,"DIS_CODE":0,"TOWNNAME":"歸仁區","LI":"後市里","LIN":"16鄰","STREET":"民族南街","SECT":" ","MAREA":" ","LANE":" ","ALLEY":" ","HOUSE_NO":"１４號","E_COORD97":177409.48999999999,"N_COORD97":2540745.5499999998,"ADDRESS":"民族南街１４號","OBJECTID":583762},"geometry":{"x":177409.49000000022,"y":2540745.5500000007}},{"attributes":{"ID":583790,"DIS_CODE":0,"TOWNNAME":"歸仁區","LI":"看西里","LIN":"16鄰","STREET":"仁愛南街","SECT":" ","MAREA":" ","LANE":" ","ALLEY":" ","HOUSE_NO":"３０７號","E_COORD97":178274.26000000001,"N_COORD97":2540042.1200000001,"ADDRESS":"仁愛南街３０７號","OBJECTID":583763},"geometry":{"x":178274.26000000071,"y":2540042.1200000029}},{"attributes":{"ID":583791,"DIS_CODE":0,"TOWNNAME":"歸仁區","LI":"歸仁里","LIN":"16鄰","STREET":"信義北路","SECT":" ","MAREA":" ","LANE":" ","ALLEY":" ","HOUSE_NO":"５０號","E_COORD97":178003.41,"N_COORD97":2540871.6699999999,"ADDRESS":"信義北路５０號","OBJECTID":583764},"geometry":{"x":178003.41000000015,"y":2540871.6699999999}},{"attributes":{"ID":583792,"DIS_CODE":0,"TOWNNAME":"歸仁區","LI":"看西里","LIN":"16鄰","STREET":"仁愛南街","SECT":" ","MAREA":" ","LANE":" ","ALLEY":" ","HOUSE_NO":"３１７號","E_COORD97":178310.16,"N_COORD97":2540048.1200000001,"ADDRESS":"仁愛南街３１７號","OBJECTID":583765},"geometry":{"x":178310.16000000015,"y":2540048.1200000029}},{"attributes":{"ID":583793,"DIS_CODE":0,"TOWNNAME":"歸仁區","LI":"媽廟里","LIN":"16鄰","STREET":"媽廟二街","SECT":" ","MAREA":" ","LANE":" ","ALLEY":" ","HOUSE_NO":"３９號","E_COORD97":177750.23000000001,"N_COORD97":2543736.7200000002,"ADDRESS":"媽廟二街３９號","OBJECTID":583766},"geometry":{"x":177750.23000000045,"y":2543736.7200000025}},{"attributes":{"ID":583794,"DIS_CODE":0,"TOWNNAME":"歸仁區","LI":"許厝里","LIN":"16鄰","STREET":"中山路","SECT":"一段","MAREA":" ","LANE":" ","ALLEY":" ","HOUSE_NO":"３１２號","E_COORD97":178446.10999999999,"N_COORD97":2540685.25,"ADDRESS":"中山路一段３１２號","OBJECTID":583767},"geometry":{"x":178446.11000000034,"y":2540685.25}},{"attributes":{"ID":583795,"DIS_CODE":0,"TOWNNAME":"歸仁區","LI":"許厝里","LIN":"16鄰","STREET":"中山路","SECT":"一段","MAREA":" ","LANE":" ","ALLEY":" ","HOUSE_NO":"３１６號","E_COORD97":178435.91,"N_COORD97":2540687.25,"ADDRESS":"中山路一段３１６號","OBJECTID":583768},"geometry":{"x":178435.91000000015,"y":2540687.2500000019}},{"attributes":{"ID":583796,"DIS_CODE":0,"TOWNNAME":"歸仁區","LI":"歸南里","LIN":"16鄰","STREET":"民生十一街","SECT":" ","MAREA":" ","LANE":" ","ALLEY":" ","HOUSE_NO":"４１號","E_COORD97":176209.85999999999,"N_COORD97":2539739.25,"ADDRESS":"民生十一街４１號","OBJECTID":583769},"geometry":{"x":176209.86000000127,"y":2539739.25}},{"attributes":{"ID":583797,"DIS_CODE":0,"TOWNNAME":"歸仁區","LI":"歸仁里","LIN":"16鄰","STREET":"信義北路","SECT":" ","MAREA":" ","LANE":" ","ALLEY":" ","HOUSE_NO":"７２號","E_COORD97":178008.81,"N_COORD97":2540933.6699999999,"ADDRESS":"信義北路７２號","OBJECTID":583770},"geometry":{"x":178008.80999999959,"y":2540933.6699999999}},{"attributes":{"ID":583798,"DIS_CODE":0,"TOWNNAME":"歸仁區","LI":"看西里","LIN":"16鄰","STREET":"成功路","SECT":"一段","MAREA":" ","LANE":" ","ALLEY":" ","HOUSE_NO":"２９０號","E_COORD97":178311.20999999999,"N_COORD97":2540011.1200000001,"ADDRESS":"成功路一段２９０號","OBJECTID":583771},"geometry":{"x":178311.20999999996,"y":2540011.1200000029}},{"attributes":{"ID":583799,"DIS_CODE":0,"TOWNNAME":"歸仁區","LI":"許厝里","LIN":"16鄰","STREET":"忠孝北路","SECT":" ","MAREA":" ","LANE":" ","ALLEY":" ","HOUSE_NO":"６３號","E_COORD97":178406.12,"N_COORD97":2540781.25,"ADDRESS":"忠孝北路６３號","OBJECTID":583772},"geometry":{"x":178406.12000000104,"y":2540781.2500000037}},{"attributes":{"ID":583800,"DIS_CODE":0,"TOWNNAME":"歸仁區","LI":"歸仁里","LIN":"16鄰","STREET":"信義北路","SECT":" ","MAREA":" ","LANE":" ","ALLEY":" ","HOUSE_NO":"８４號","E_COORD97":178012.60999999999,"N_COORD97":2540990.6800000002,"ADDRESS":"信義北路８４號","OBJECTID":583773},"geometry":{"x":178012.61000000034,"y":2540990.6799999997}},{"attributes":{"ID":583801,"DIS_CODE":0,"TOWNNAME":"歸仁區","LI":"歸南里","LIN":"16鄰","STREET":"民生十一街","SECT":" ","MAREA":" ","LANE":" ","ALLEY":" ","HOUSE_NO":"４３號","E_COORD97":176217.06,"N_COORD97":2539740.25,"ADDRESS":"民生十一街４３號","OBJECTID":583774},"geometry":{"x":176217.05999999866,"y":2539740.2499999981}},{"attributes":{"ID":583802,"DIS_CODE":0,"TOWNNAME":"東區","LI":"小東里","LIN":"14鄰","STREET":"光明街","SECT":" ","MAREA":" ","LANE":" ","ALLEY":" ","HOUSE_NO":"１２９號","E_COORD97":170914.44,"N_COORD97":2544291.52,"ADDRESS":"光明街１２９號","OBJECTID":583775},"geometry":{"x":170914.44000000041,"y":2544291.5200000033}},{"attributes":{"ID":583803,"DIS_CODE":0,"TOWNNAME":"東區","LI":"富強里","LIN":"1鄰","STREET":"裕農路","SECT":" ","MAREA":" ","LANE":" ","ALLEY":" ","HOUSE_NO":"３１０號","E_COORD97":170940.82000000001,"N_COORD97":2543005.1699999999,"ADDRESS":"裕農路３１０號","OBJECTID":583776},"geometry":{"x":170940.82000000216,"y":2543005.1699999999}},{"attributes":{"ID":583804,"DIS_CODE":0,"TOWNNAME":"東區","LI":"富強里","LIN":"1鄰","STREET":"裕農路","SECT":" ","MAREA":" ","LANE":" ","ALLEY":" ","HOUSE_NO":"３１４號","E_COORD97":170950.98000000001,"N_COORD97":2543008.8100000001,"ADDRESS":"裕農路３１４號","OBJECTID":583777},"geometry":{"x":170950.98000000045,"y":2543008.8099999987}},{"attributes":{"ID":583805,"DIS_CODE":0,"TOWNNAME":"東區","LI":"富強里","LIN":"1鄰","STREET":"裕農路","SECT":" ","MAREA":" ","LANE":" ","ALLEY":" ","HOUSE_NO":"３１６號","E_COORD97":170956.73999999999,"N_COORD97":2543005.6200000001,"ADDRESS":"裕農路３１６號","OBJECTID":583778},"geometry":{"x":170956.74000000115,"y":2543005.6200000029}},{"attributes":{"ID":583806,"DIS_CODE":0,"TOWNNAME":"東區","LI":"富強里","LIN":"1鄰","STREET":"裕農路","SECT":" ","MAREA":" ","LANE":" ","ALLEY":" ","HOUSE_NO":"３１２號地下壹層","E_COORD97":170955.67999999999,"N_COORD97":2543010.7799999998,"ADDRESS":"裕農路３１２號地下壹層","OBJECTID":583779},"geometry":{"x":170955.6799999997,"y":2543010.7799999993}},{"attributes":{"ID":583807,"DIS_CODE":0,"TOWNNAME":"東區","LI":"崇明里","LIN":"1鄰","STREET":"中華東路","SECT":"三段","MAREA":" ","LANE":" ","ALLEY":" ","HOUSE_NO":"５０７號","E_COORD97":169685.07999999999,"N_COORD97":2541469.4199999999,"ADDRESS":"中華東路三段５０７號","OBJECTID":583780},"geometry":{"x":169685.08000000101,"y":2541469.4200000018}},{"attributes":{"ID":583808,"DIS_CODE":0,"TOWNNAME":"南區","LI":"新興里","LIN":"16鄰","STREET":"三官路","SECT":" ","MAREA":" ","LANE":" ","ALLEY":" ","HOUSE_NO":"４７號","E_COORD97":167361.14000000001,"N_COORD97":2542333.02,"ADDRESS":"三官路４７號","OBJECTID":583781},"geometry":{"x":167361.14000000153,"y":2542333.0200000014}},{"attributes":{"ID":583809,"DIS_CODE":0,"TOWNNAME":"南區","LI":"新興里","LIN":"16鄰","STREET":"三官路","SECT":" ","MAREA":" ","LANE":" ","ALLEY":" ","HOUSE_NO":"５１號","E_COORD97":167360.81,"N_COORD97":2542324.0299999998,"ADDRESS":"三官路５１號","OBJECTID":583782},"geometry":{"x":167360.80999999959,"y":2542324.0299999993}},{"attributes":{"ID":583810,"DIS_CODE":0,"TOWNNAME":"南區","LI":"新興里","LIN":"16鄰","STREET":"三官路","SECT":" ","MAREA":" ","LANE":" ","ALLEY":" ","HOUSE_NO":"５３號","E_COORD97":167359.73000000001,"N_COORD97":2542319.3700000001,"ADDRESS":"三官路５３號","OBJECTID":583783},"geometry":{"x":167359.73000000138,"y":2542319.370000001}},{"attributes":{"ID":583811,"DIS_CODE":0,"TOWNNAME":"東區","LI":"大德里","LIN":"14鄰","STREET":"立德十路","SECT":" ","MAREA":" ","LANE":" ","ALLEY":" ","HOUSE_NO":"１５號","E_COORD97":169443.60999999999,"N_COORD97":2542051.1200000001,"ADDRESS":"立德十路１５號","OBJECTID":583784},"geometry":{"x":169443.6100000022,"y":2542051.1199999992}},{"attributes":{"ID":583812,"DIS_CODE":0,"TOWNNAME":"東區","LI":"大德里","LIN":"14鄰","STREET":"立德十路","SECT":" ","MAREA":" ","LANE":" ","ALLEY":" ","HOUSE_NO":"２１號地下室","E_COORD97":169457.45000000001,"N_COORD97":2542053.2400000002,"ADDRESS":"立德十路２１號地下室","OBJECTID":583785},"geometry":{"x":169457.45000000019,"y":2542053.2400000039}},{"attributes":{"ID":583813,"DIS_CODE":0,"TOWNNAME":"南區","LI":"新興里","LIN":"16鄰","STREET":"三官路","SECT":" ","MAREA":" ","LANE":" ","ALLEY":" ","HOUSE_NO":"５７號","E_COORD97":167361.51999999999,"N_COORD97":2542310.77,"ADDRESS":"三官路５７號","OBJECTID":583786},"geometry":{"x":167361.51999999955,"y":2542310.7700000014}},{"attributes":{"ID":583814,"DIS_CODE":0,"TOWNNAME":"東區","LI":"大德里","LIN":"14鄰","STREET":"立德十路","SECT":" ","MAREA":" ","LANE":" ","ALLEY":" ","HOUSE_NO":"３號","E_COORD97":169421.59,"N_COORD97":2542056.4399999999,"ADDRESS":"立德十路３號","OBJECTID":583787},"geometry":{"x":169421.59000000078,"y":2542056.4399999995}},{"attributes":{"ID":583815,"DIS_CODE":0,"TOWNNAME":"東區","LI":"大德里","LIN":"14鄰","STREET":"立德十路","SECT":" ","MAREA":" ","LANE":" ","ALLEY":" ","HOUSE_NO":"５號","E_COORD97":169423.37,"N_COORD97":2542050.0499999998,"ADDRESS":"立德十路５號","OBJECTID":583788},"geometry":{"x":169423.37000000104,"y":2542050.0500000007}},{"attributes":{"ID":583816,"DIS_CODE":0,"TOWNNAME":"東區","LI":"大德里","LIN":"14鄰","STREET":"立德十路","SECT":" ","MAREA":" ","LANE":" ","ALLEY":" ","HOUSE_NO":"７號","E_COORD97":169424.42999999999,"N_COORD97":2542045.4399999999,"ADDRESS":"立德十路７號","OBJECTID":583789},"geometry":{"x":169424.43000000063,"y":2542045.4400000013}},{"attributes":{"ID":583817,"DIS_CODE":0,"TOWNNAME":"東區","LI":"大德里","LIN":"14鄰","STREET":"立德十路","SECT":" ","MAREA":" ","LANE":" ","ALLEY":" ","HOUSE_NO":"９號","E_COORD97":169429.39999999999,"N_COORD97":2542046.8599999999,"ADDRESS":"立德十路９號","OBJECTID":583790},"geometry":{"x":169429.40000000037,"y":2542046.8599999994}},{"attributes":{"ID":583818,"DIS_CODE":0,"TOWNNAME":"東區","LI":"大德里","LIN":"14鄰","STREET":"立德十路","SECT":" ","MAREA":" ","LANE":" ","ALLEY":" ","HOUSE_NO":"１１號","E_COORD97":169434.73000000001,"N_COORD97":2542048.2799999998,"ADDRESS":"立德十路１１號","OBJECTID":583791},"geometry":{"x":169434.73000000138,"y":2542048.2799999975}},{"attributes":{"ID":583819,"DIS_CODE":0,"TOWNNAME":"東區","LI":"大德里","LIN":"14鄰","STREET":"立德十路","SECT":" ","MAREA":" ","LANE":" ","ALLEY":" ","HOUSE_NO":"１３號","E_COORD97":169439.70000000001,"N_COORD97":2542049.3399999999,"ADDRESS":"立德十路１３號","OBJECTID":583792},"geometry":{"x":169439.70000000112,"y":2542049.3400000017}},{"attributes":{"ID":583820,"DIS_CODE":0,"TOWNNAME":"東區","LI":"大德里","LIN":"14鄰","STREET":"立德十路","SECT":" ","MAREA":" ","LANE":" ","ALLEY":" ","HOUSE_NO":"１７號","E_COORD97":169447.16,"N_COORD97":2542051.8300000001,"ADDRESS":"立德十路１７號","OBJECTID":583793},"geometry":{"x":169447.16000000108,"y":2542051.8300000001}},{"attributes":{"ID":583821,"DIS_CODE":0,"TOWNNAME":"東區","LI":"大德里","LIN":"14鄰","STREET":"立德十路","SECT":" ","MAREA":" ","LANE":" ","ALLEY":" ","HOUSE_NO":"１９號","E_COORD97":169453.54999999999,"N_COORD97":2542052.54,"ADDRESS":"立德十路１９號","OBJECTID":583794},"geometry":{"x":169453.54999999888,"y":2542052.5399999991}},{"attributes":{"ID":583822,"DIS_CODE":0,"TOWNNAME":"東區","LI":"大德里","LIN":"14鄰","STREET":"立德十路","SECT":" ","MAREA":" ","LANE":" ","ALLEY":" ","HOUSE_NO":"２１號","E_COORD97":169457.45000000001,"N_COORD97":2542053.2400000002,"ADDRESS":"立德十路２１號","OBJECTID":583795},"geometry":{"x":169457.45000000019,"y":2542053.2400000039}},{"attributes":{"ID":583823,"DIS_CODE":0,"TOWNNAME":"東區","LI":"大德里","LIN":"14鄰","STREET":"立德十路","SECT":" ","MAREA":" ","LANE":" ","ALLEY":" ","HOUSE_NO":"２１號之１","E_COORD97":169458.51999999999,"N_COORD97":2542056.79,"ADDRESS":"立德十路２１號之１","OBJECTID":583796},"geometry":{"x":169458.51999999955,"y":2542056.7899999991}},{"attributes":{"ID":583824,"DIS_CODE":0,"TOWNNAME":"東區","LI":"大德里","LIN":"14鄰","STREET":"立德十路","SECT":" ","MAREA":" ","LANE":" ","ALLEY":" ","HOUSE_NO":"２１號之２","E_COORD97":169457.45000000001,"N_COORD97":2542063.5299999998,"ADDRESS":"立德十路２１號之２","OBJECTID":583797},"geometry":{"x":169457.45000000019,"y":2542063.5299999975}},{"attributes":{"ID":583825,"DIS_CODE":0,"TOWNNAME":"北區","LI":"小康里","LIN":"16鄰","STREET":"大武街","SECT":" ","MAREA":" ","LANE":" ","ALLEY":" ","HOUSE_NO":"４０５號","E_COORD97":169775.07999999999,"N_COORD97":2546476.7200000002,"ADDRESS":"大武街４０５號","OBJECTID":583798},"geometry":{"x":169775.08000000007,"y":2546476.7200000007}},{"attributes":{"ID":583826,"DIS_CODE":0,"TOWNNAME":"北區","LI":"小康里","LIN":"16鄰","STREET":"大武街","SECT":" ","MAREA":" ","LANE":" ","ALLEY":" ","HOUSE_NO":"４０９號","E_COORD97":169783,"N_COORD97":2546474.8599999999,"ADDRESS":"大武街４０９號","OBJECTID":583799},"geometry":{"x":169783.00000000186,"y":2546474.8599999994}},{"attributes":{"ID":583827,"DIS_CODE":0,"TOWNNAME":"東區","LI":"東光里","LIN":"1鄰","STREET":"東光路","SECT":"一段","MAREA":" ","LANE":" ","ALLEY":" ","HOUSE_NO":"９號","E_COORD97":171126.01000000001,"N_COORD97":2543366.3300000001,"ADDRESS":"東光路一段９號","OBJECTID":583800},"geometry":{"x":171126.01000000071,"y":2543366.3300000001}}]}