{"displayFieldName":"TOWNNAME","fieldAliases":{"ID":"ID","DIS_CODE":"DIS_CODE","TOWNNAME":"TOWNNAME","LI":"LI","LIN":"LIN","STREET":"STREET","SECT":"SECT","MAREA":"MAREA","LANE":"LANE","ALLEY":"ALLEY","HOUSE_NO":"HOUSE_NO","E_COORD97":"E_COORD97","N_COORD97":"N_COORD97","ADDRESS":"ADDRESS","OBJECTID":"OBJECTID"},"geometryType":"esriGeometryPoint","spatialReference":{"wkid":102443,"latestWkid":3826},"fields":[{"name":"ID","type":"esriFieldTypeDouble","alias":"ID"},{"name":"DIS_CODE","type":"esriFieldTypeInteger","alias":"DIS_CODE"},{"name":"TOWNNAME","type":"esriFieldTypeString","alias":"TOWNNAME","length":8},{"name":"LI","type":"esriFieldTypeString","alias":"LI","length":8},{"name":"LIN","type":"esriFieldTypeString","alias":"LIN","length":12},{"name":"STREET","type":"esriFieldTypeString","alias":"STREET","length":20},{"name":"SECT","type":"esriFieldTypeString","alias":"SECT","length":8},{"name":"MAREA","type":"esriFieldTypeString","alias":"MAREA","length":12},{"name":"LANE","type":"esriFieldTypeString","alias":"LANE","length":10},{"name":"ALLEY","type":"esriFieldTypeString","alias":"ALLEY","length":10},{"name":"HOUSE_NO","type":"esriFieldTypeString","alias":"HOUSE_NO","length":20},{"name":"E_COORD97","type":"esriFieldTypeDouble","alias":"E_COORD97"},{"name":"N_COORD97","type":"esriFieldTypeDouble","alias":"N_COORD97"},{"name":"ADDRESS","type":"esriFieldTypeString","alias":"ADDRESS","length":50},{"name":"OBJECTID","type":"esriFieldTypeOID","alias":"OBJECTID"}],"features":[{"attributes":{"ID":597028,"DIS_CODE":0,"TOWNNAME":"永康區","LI":"中興里","LIN":"16鄰","STREET":"中華二路","SECT":" ","MAREA":" ","LANE":" ","ALLEY":" ","HOUSE_NO":"１２９號","E_COORD97":171998.28,"N_COORD97":2545425.4900000002,"ADDRESS":"中華二路１２９號","OBJECTID":597001},"geometry":{"x":171998.28000000026,"y":2545425.4900000021}},{"attributes":{"ID":597029,"DIS_CODE":0,"TOWNNAME":"永康區","LI":"三合里","LIN":"25鄰","STREET":"中山東路","SECT":" ","MAREA":" ","LANE":" ","ALLEY":" ","HOUSE_NO":"１７１號","E_COORD97":171801.20999999999,"N_COORD97":2545733.1400000001,"ADDRESS":"中山東路１７１號","OBJECTID":597002},"geometry":{"x":171801.21000000089,"y":2545733.1400000025}},{"attributes":{"ID":597030,"DIS_CODE":0,"TOWNNAME":"永康區","LI":"三合里","LIN":"7鄰","STREET":"南工街","SECT":" ","MAREA":" ","LANE":" ","ALLEY":" ","HOUSE_NO":"５９號","E_COORD97":172089.85999999999,"N_COORD97":2545627.7999999998,"ADDRESS":"南工街５９號","OBJECTID":597003},"geometry":{"x":172089.8600000022,"y":2545627.8000000026}},{"attributes":{"ID":597031,"DIS_CODE":0,"TOWNNAME":"北區","LI":"文元里","LIN":"27鄰","STREET":"中華北路","SECT":"二段","MAREA":" ","LANE":" ","ALLEY":" ","HOUSE_NO":"５９號","E_COORD97":167599.54999999999,"N_COORD97":2546606.98,"ADDRESS":"中華北路二段５９號","OBJECTID":597004},"geometry":{"x":167599.55000000075,"y":2546606.9800000004}},{"attributes":{"ID":597032,"DIS_CODE":0,"TOWNNAME":"永康區","LI":"三合里","LIN":"25鄰","STREET":"中山東路","SECT":" ","MAREA":" ","LANE":" ","ALLEY":" ","HOUSE_NO":"１５３號","E_COORD97":171793.20999999999,"N_COORD97":2545768.8599999999,"ADDRESS":"中山東路１５３號","OBJECTID":597005},"geometry":{"x":171793.20999999996,"y":2545768.8600000013}},{"attributes":{"ID":597033,"DIS_CODE":0,"TOWNNAME":"永康區","LI":"大灣里","LIN":"8鄰","STREET":"大安街","SECT":" ","MAREA":" ","LANE":" ","ALLEY":" ","HOUSE_NO":"２８８號","E_COORD97":174729.78,"N_COORD97":2545465.27,"ADDRESS":"大安街２８８號","OBJECTID":597006},"geometry":{"x":174729.78000000212,"y":2545465.2699999996}},{"attributes":{"ID":597034,"DIS_CODE":0,"TOWNNAME":"永康區","LI":"二王里","LIN":"11鄰","STREET":"二王路","SECT":" ","MAREA":" ","LANE":" ","ALLEY":" ","HOUSE_NO":"１７５號","E_COORD97":172965.34,"N_COORD97":2546450.8700000001,"ADDRESS":"二王路１７５號","OBJECTID":597007},"geometry":{"x":172965.33999999985,"y":2546450.8700000029}},{"attributes":{"ID":597035,"DIS_CODE":0,"TOWNNAME":"北區","LI":"文元里","LIN":"27鄰","STREET":"中華北路","SECT":"二段","MAREA":" ","LANE":" ","ALLEY":" ","HOUSE_NO":"６０號","E_COORD97":167604.12,"N_COORD97":2546608.1899999999,"ADDRESS":"中華北路二段６０號","OBJECTID":597008},"geometry":{"x":167604.12000000197,"y":2546608.1899999995}},{"attributes":{"ID":597036,"DIS_CODE":0,"TOWNNAME":"北區","LI":"文元里","LIN":"27鄰","STREET":"中華北路","SECT":"二段","MAREA":" ","LANE":" ","ALLEY":" ","HOUSE_NO":"６１號","E_COORD97":167609.20000000001,"N_COORD97":2546610.5699999998,"ADDRESS":"中華北路二段６１號","OBJECTID":597009},"geometry":{"x":167609.20000000112,"y":2546610.5700000003}},{"attributes":{"ID":597037,"DIS_CODE":0,"TOWNNAME":"北區","LI":"文元里","LIN":"27鄰","STREET":"中華北路","SECT":"二段","MAREA":" ","LANE":" ","ALLEY":" ","HOUSE_NO":"６３號","E_COORD97":167633.17000000001,"N_COORD97":2546619.6200000001,"ADDRESS":"中華北路二段６３號","OBJECTID":597010},"geometry":{"x":167633.16999999993,"y":2546619.6200000029}},{"attributes":{"ID":597038,"DIS_CODE":0,"TOWNNAME":"北區","LI":"文元里","LIN":"27鄰","STREET":"中華北路","SECT":"二段","MAREA":" ","LANE":" ","ALLEY":" ","HOUSE_NO":"６５號","E_COORD97":167638.35000000001,"N_COORD97":2546620.98,"ADDRESS":"中華北路二段６５號","OBJECTID":597011},"geometry":{"x":167638.35000000056,"y":2546620.9800000004}},{"attributes":{"ID":597039,"DIS_CODE":0,"TOWNNAME":"北區","LI":"文元里","LIN":"27鄰","STREET":"中華北路","SECT":"二段","MAREA":" ","LANE":" ","ALLEY":" ","HOUSE_NO":"６６號","E_COORD97":167641.84,"N_COORD97":2546622.25,"ADDRESS":"中華北路二段６６號","OBJECTID":597012},"geometry":{"x":167641.84000000078,"y":2546622.25}},{"attributes":{"ID":597040,"DIS_CODE":0,"TOWNNAME":"北區","LI":"文元里","LIN":"27鄰","STREET":"中華北路","SECT":"二段","MAREA":" ","LANE":" ","ALLEY":" ","HOUSE_NO":"７６號","E_COORD97":167675.17999999999,"N_COORD97":2546637.0099999998,"ADDRESS":"中華北路二段７６號","OBJECTID":597013},"geometry":{"x":167675.18000000063,"y":2546637.0099999998}},{"attributes":{"ID":597041,"DIS_CODE":0,"TOWNNAME":"北區","LI":"文元里","LIN":"27鄰","STREET":"中華北路","SECT":"二段","MAREA":" ","LANE":" ","ALLEY":" ","HOUSE_NO":"７７號","E_COORD97":167681.20999999999,"N_COORD97":2546637.8100000001,"ADDRESS":"中華北路二段７７號","OBJECTID":597014},"geometry":{"x":167681.21000000183,"y":2546637.8100000024}},{"attributes":{"ID":597042,"DIS_CODE":0,"TOWNNAME":"北區","LI":"文元里","LIN":"27鄰","STREET":"中華北路","SECT":"二段","MAREA":" ","LANE":" ","ALLEY":" ","HOUSE_NO":"７８號","E_COORD97":167687.88,"N_COORD97":2546639.0800000001,"ADDRESS":"中華北路二段７８號","OBJECTID":597015},"geometry":{"x":167687.87999999989,"y":2546639.0800000019}},{"attributes":{"ID":597043,"DIS_CODE":0,"TOWNNAME":"永康區","LI":"三合里","LIN":"25鄰","STREET":"中山東路","SECT":" ","MAREA":" ","LANE":" ","ALLEY":" ","HOUSE_NO":"１２９號","E_COORD97":171771.64999999999,"N_COORD97":2545854.3100000001,"ADDRESS":"中山東路１２９號","OBJECTID":597016},"geometry":{"x":171771.6500000013,"y":2545854.3100000024}},{"attributes":{"ID":597044,"DIS_CODE":0,"TOWNNAME":"永康區","LI":"五王里","LIN":"41鄰","STREET":"中山南路","SECT":" ","MAREA":" ","LANE":" ","ALLEY":" ","HOUSE_NO":"２２８號","E_COORD97":171426.54999999999,"N_COORD97":2546058.2400000002,"ADDRESS":"中山南路２２８號","OBJECTID":597017},"geometry":{"x":171426.54999999981,"y":2546058.2400000021}},{"attributes":{"ID":597045,"DIS_CODE":0,"TOWNNAME":"永康區","LI":"大橋里","LIN":"6鄰","STREET":"大橋五街","SECT":" ","MAREA":" ","LANE":" ","ALLEY":" ","HOUSE_NO":"１０８號","E_COORD97":170945.5,"N_COORD97":2546952.46,"ADDRESS":"大橋五街１０８號","OBJECTID":597018},"geometry":{"x":170945.5,"y":2546952.4600000028}},{"attributes":{"ID":597046,"DIS_CODE":0,"TOWNNAME":"永康區","LI":"中興里","LIN":"22鄰","STREET":"中華路","SECT":" ","MAREA":" ","LANE":" ","ALLEY":" ","HOUSE_NO":"１９６號之１１","E_COORD97":171634.51000000001,"N_COORD97":2544991.2999999998,"ADDRESS":"中華路１９６號之１１","OBJECTID":597019},"geometry":{"x":171634.51000000071,"y":2544991.3000000007}},{"attributes":{"ID":597047,"DIS_CODE":0,"TOWNNAME":"永康區","LI":"三合里","LIN":"5鄰","STREET":"南工街","SECT":" ","MAREA":" ","LANE":" ","ALLEY":" ","HOUSE_NO":"７４號","E_COORD97":172104.87,"N_COORD97":2545669.3300000001,"ADDRESS":"南工街７４號","OBJECTID":597020},"geometry":{"x":172104.87000000197,"y":2545669.3300000001}},{"attributes":{"ID":597048,"DIS_CODE":0,"TOWNNAME":"永康區","LI":"六合里","LIN":"1鄰","STREET":"新興街","SECT":" ","MAREA":" ","LANE":" ","ALLEY":" ","HOUSE_NO":"８之１號地下一層之１","E_COORD97":170950.37,"N_COORD97":2545766.79,"ADDRESS":"新興街８之１號地下一層之１","OBJECTID":597021},"geometry":{"x":170950.37000000197,"y":2545766.7899999991}},{"attributes":{"ID":597049,"DIS_CODE":0,"TOWNNAME":"永康區","LI":"埔園里","LIN":"21鄰","STREET":"埔園街","SECT":" ","MAREA":" ","LANE":" ","ALLEY":" ","HOUSE_NO":"２８５號","E_COORD97":173423.14999999999,"N_COORD97":2548161.3100000001,"ADDRESS":"埔園街２８５號","OBJECTID":597022},"geometry":{"x":173423.15000000037,"y":2548161.3100000005}},{"attributes":{"ID":597050,"DIS_CODE":0,"TOWNNAME":"北區","LI":"大豐里","LIN":"27鄰","STREET":"文賢路","SECT":" ","MAREA":" ","LANE":" ","ALLEY":" ","HOUSE_NO":"３４７號","E_COORD97":167328.607341,"N_COORD97":2545333.4691300001,"ADDRESS":"文賢路３４７號","OBJECTID":597023},"geometry":{"x":167328.60734099988,"y":2545333.4691320024}},{"attributes":{"ID":597051,"DIS_CODE":0,"TOWNNAME":"北區","LI":"大豐里","LIN":"27鄰","STREET":"文賢路","SECT":" ","MAREA":" ","LANE":" ","ALLEY":" ","HOUSE_NO":"３４９號","E_COORD97":167328.819151,"N_COORD97":2545336.8558,"ADDRESS":"文賢路３４９號","OBJECTID":597024},"geometry":{"x":167328.81915100012,"y":2545336.8557970002}},{"attributes":{"ID":597052,"DIS_CODE":0,"TOWNNAME":"北區","LI":"大豐里","LIN":"27鄰","STREET":"文賢路","SECT":" ","MAREA":" ","LANE":" ","ALLEY":" ","HOUSE_NO":"３５１號","E_COORD97":167329.66638800001,"N_COORD97":2545340.0307999998,"ADDRESS":"文賢路３５１號","OBJECTID":597025},"geometry":{"x":167329.66638800129,"y":2545340.0307950042}},{"attributes":{"ID":597053,"DIS_CODE":0,"TOWNNAME":"北區","LI":"大豐里","LIN":"27鄰","STREET":"文賢路","SECT":" ","MAREA":" ","LANE":" ","ALLEY":" ","HOUSE_NO":"３５３號","E_COORD97":167330.19,"N_COORD97":2545343.0699999998,"ADDRESS":"文賢路３５３號","OBJECTID":597026},"geometry":{"x":167330.19000000041,"y":2545343.070000004}},{"attributes":{"ID":597054,"DIS_CODE":0,"TOWNNAME":"北區","LI":"大豐里","LIN":"27鄰","STREET":"文賢路","SECT":" ","MAREA":" ","LANE":" ","ALLEY":" ","HOUSE_NO":"３５５號","E_COORD97":167331.14000000001,"N_COORD97":2545346.3500000001,"ADDRESS":"文賢路３５５號","OBJECTID":597027},"geometry":{"x":167331.1400000006,"y":2545346.3499999996}},{"attributes":{"ID":597055,"DIS_CODE":0,"TOWNNAME":"北區","LI":"大豐里","LIN":"27鄰","STREET":"文賢路","SECT":" ","MAREA":" ","LANE":" ","ALLEY":" ","HOUSE_NO":"３５７號","E_COORD97":167331.23000000001,"N_COORD97":2545349.7200000002,"ADDRESS":"文賢路３５７號","OBJECTID":597028},"geometry":{"x":167331.23000000138,"y":2545349.7200000025}},{"attributes":{"ID":597056,"DIS_CODE":0,"TOWNNAME":"北區","LI":"大豐里","LIN":"27鄰","STREET":"文賢路","SECT":" ","MAREA":" ","LANE":" ","ALLEY":" ","HOUSE_NO":"３５９號","E_COORD97":167331.39999999999,"N_COORD97":2545352.48,"ADDRESS":"文賢路３５９號","OBJECTID":597029},"geometry":{"x":167331.4000000013,"y":2545352.4800000004}},{"attributes":{"ID":597057,"DIS_CODE":0,"TOWNNAME":"北區","LI":"大豐里","LIN":"27鄰","STREET":"文賢路","SECT":" ","MAREA":" ","LANE":" ","ALLEY":" ","HOUSE_NO":"３６１號","E_COORD97":167331.23000000001,"N_COORD97":2545358.7000000002,"ADDRESS":"文賢路３６１號","OBJECTID":597030},"geometry":{"x":167331.23000000138,"y":2545358.7000000011}},{"attributes":{"ID":597058,"DIS_CODE":0,"TOWNNAME":"北區","LI":"大豐里","LIN":"27鄰","STREET":"文賢路","SECT":" ","MAREA":" ","LANE":" ","ALLEY":" ","HOUSE_NO":"３６３號","E_COORD97":167332.44,"N_COORD97":2545366.48,"ADDRESS":"文賢路３６３號","OBJECTID":597031},"geometry":{"x":167332.44000000041,"y":2545366.4800000004}},{"attributes":{"ID":597059,"DIS_CODE":0,"TOWNNAME":"關廟區","LI":"東勢里","LIN":"27鄰","STREET":"東安街","SECT":" ","MAREA":" ","LANE":" ","ALLEY":" ","HOUSE_NO":"２４７號","E_COORD97":181669.37,"N_COORD97":2539355.3199999998,"ADDRESS":"東安街２４７號","OBJECTID":597032},"geometry":{"x":181669.37000000104,"y":2539355.3200000022}},{"attributes":{"ID":597060,"DIS_CODE":0,"TOWNNAME":"關廟區","LI":"香洋里","LIN":"27鄰","STREET":"民權街","SECT":" ","MAREA":" ","LANE":" ","ALLEY":" ","HOUSE_NO":"１３３號","E_COORD97":181168.79000000001,"N_COORD97":2539781.29,"ADDRESS":"民權街１３３號","OBJECTID":597033},"geometry":{"x":181168.79000000004,"y":2539781.290000001}},{"attributes":{"ID":597061,"DIS_CODE":0,"TOWNNAME":"關廟區","LI":"香洋里","LIN":"27鄰","STREET":"南雄路","SECT":"一段","MAREA":" ","LANE":" ","ALLEY":" ","HOUSE_NO":"１０９８號","E_COORD97":181108.44,"N_COORD97":2539753.2799999998,"ADDRESS":"南雄路一段１０９８號","OBJECTID":597034},"geometry":{"x":181108.44000000134,"y":2539753.2800000031}},{"attributes":{"ID":597062,"DIS_CODE":0,"TOWNNAME":"關廟區","LI":"香洋里","LIN":"27鄰","STREET":"民權街","SECT":" ","MAREA":" ","LANE":" ","ALLEY":" ","HOUSE_NO":"１２５號","E_COORD97":181183.79000000001,"N_COORD97":2539783.29,"ADDRESS":"民權街１２５號","OBJECTID":597035},"geometry":{"x":181183.79000000097,"y":2539783.2900000028}},{"attributes":{"ID":597063,"DIS_CODE":0,"TOWNNAME":"永康區","LI":"北灣里","LIN":"32鄰","STREET":"大同街","SECT":" ","MAREA":" ","LANE":" ","ALLEY":" ","HOUSE_NO":"８１號","E_COORD97":175134.01999999999,"N_COORD97":2545450.5299999998,"ADDRESS":"大同街８１號","OBJECTID":597036},"geometry":{"x":175134.01999999862,"y":2545450.5299999975}},{"attributes":{"ID":597064,"DIS_CODE":0,"TOWNNAME":"永康區","LI":"大橋里","LIN":"30鄰","STREET":"大橋一街","SECT":" ","MAREA":" ","LANE":" ","ALLEY":" ","HOUSE_NO":"２６８號","E_COORD97":171120.01999999999,"N_COORD97":2546531.75,"ADDRESS":"大橋一街２６８號","OBJECTID":597037},"geometry":{"x":171120.02000000142,"y":2546531.7500000019}},{"attributes":{"ID":597065,"DIS_CODE":0,"TOWNNAME":"關廟區","LI":"香洋里","LIN":"27鄰","STREET":"民權街","SECT":" ","MAREA":" ","LANE":" ","ALLEY":" ","HOUSE_NO":"１４９號","E_COORD97":181119.29000000001,"N_COORD97":2539766.29,"ADDRESS":"民權街１４９號","OBJECTID":597038},"geometry":{"x":181119.29000000097,"y":2539766.2900000028}},{"attributes":{"ID":597066,"DIS_CODE":0,"TOWNNAME":"關廟區","LI":"香洋里","LIN":"27鄰","STREET":"民權街","SECT":" ","MAREA":" ","LANE":" ","ALLEY":" ","HOUSE_NO":"２４０號","E_COORD97":181120.39000000001,"N_COORD97":2539782.29,"ADDRESS":"民權街２４０號","OBJECTID":597039},"geometry":{"x":181120.38999999966,"y":2539782.2899999991}},{"attributes":{"ID":597067,"DIS_CODE":0,"TOWNNAME":"關廟區","LI":"香洋里","LIN":"27鄰","STREET":"民權街","SECT":" ","MAREA":" ","LANE":" ","ALLEY":" ","HOUSE_NO":"１３５號","E_COORD97":181161.09,"N_COORD97":2539780.29,"ADDRESS":"民權街１３５號","OBJECTID":597040},"geometry":{"x":181161.09000000078,"y":2539780.290000001}},{"attributes":{"ID":597068,"DIS_CODE":0,"TOWNNAME":"關廟區","LI":"香洋里","LIN":"27鄰","STREET":"民權街","SECT":" ","MAREA":" ","LANE":" ","ALLEY":" ","HOUSE_NO":"２２０號","E_COORD97":181161.48999999999,"N_COORD97":2539793.29,"ADDRESS":"民權街２２０號","OBJECTID":597041},"geometry":{"x":181161.49000000209,"y":2539793.2899999972}},{"attributes":{"ID":597069,"DIS_CODE":0,"TOWNNAME":"關廟區","LI":"香洋里","LIN":"27鄰","STREET":"民權街","SECT":" ","MAREA":" ","LANE":" ","ALLEY":" ","HOUSE_NO":"１６０號","E_COORD97":181255.59,"N_COORD97":2539796.29,"ADDRESS":"民權街１６０號","OBJECTID":597042},"geometry":{"x":181255.59000000078,"y":2539796.2899999991}},{"attributes":{"ID":597070,"DIS_CODE":0,"TOWNNAME":"新營區","LI":"三仙里","LIN":"27鄰","STREET":"育德街","SECT":" ","MAREA":" ","LANE":" ","ALLEY":" ","HOUSE_NO":"３７號","E_COORD97":179595.95999999999,"N_COORD97":2579014.29,"ADDRESS":"育德街３７號","OBJECTID":597043},"geometry":{"x":179595.95999999996,"y":2579014.290000001}},{"attributes":{"ID":597071,"DIS_CODE":0,"TOWNNAME":"新營區","LI":"王公里","LIN":"27鄰","STREET":"大公街","SECT":" ","MAREA":" ","LANE":" ","ALLEY":" ","HOUSE_NO":"９２號","E_COORD97":180349.48999999999,"N_COORD97":2579630.8999999999,"ADDRESS":"大公街９２號","OBJECTID":597044},"geometry":{"x":180349.49000000209,"y":2579630.8999999985}},{"attributes":{"ID":597072,"DIS_CODE":0,"TOWNNAME":"新營區","LI":"新東里","LIN":"27鄰","STREET":"東興路","SECT":" ","MAREA":" ","LANE":" ","ALLEY":" ","HOUSE_NO":"２１７號","E_COORD97":180746.20999999999,"N_COORD97":2579537.1200000001,"ADDRESS":"東興路２１７號","OBJECTID":597045},"geometry":{"x":180746.21000000089,"y":2579537.120000001}},{"attributes":{"ID":597073,"DIS_CODE":0,"TOWNNAME":"新營區","LI":"新東里","LIN":"27鄰","STREET":"東興路","SECT":" ","MAREA":" ","LANE":" ","ALLEY":" ","HOUSE_NO":"２１３號","E_COORD97":180746.20999999999,"N_COORD97":2579537.1200000001,"ADDRESS":"東興路２１３號","OBJECTID":597046},"geometry":{"x":180746.21000000089,"y":2579537.120000001}},{"attributes":{"ID":597074,"DIS_CODE":0,"TOWNNAME":"新營區","LI":"三仙里","LIN":"27鄰","STREET":"健康路","SECT":" ","MAREA":" ","LANE":" ","ALLEY":" ","HOUSE_NO":"１１３號","E_COORD97":179635.87,"N_COORD97":2579205.6899999999,"ADDRESS":"健康路１１３號","OBJECTID":597047},"geometry":{"x":179635.87000000011,"y":2579205.6900000013}},{"attributes":{"ID":597075,"DIS_CODE":0,"TOWNNAME":"永康區","LI":"五王里","LIN":"25鄰","STREET":"五福街","SECT":" ","MAREA":" ","LANE":" ","ALLEY":" ","HOUSE_NO":"４８號","E_COORD97":171361.57000000001,"N_COORD97":2545886.0600000001,"ADDRESS":"五福街４８號","OBJECTID":597048},"geometry":{"x":171361.57000000123,"y":2545886.0600000024}},{"attributes":{"ID":597076,"DIS_CODE":0,"TOWNNAME":"永康區","LI":"三合里","LIN":"13鄰","STREET":"南工街","SECT":" ","MAREA":" ","LANE":" ","ALLEY":" ","HOUSE_NO":"１６７號","E_COORD97":172048.94,"N_COORD97":2545830.0699999998,"ADDRESS":"南工街１６７號","OBJECTID":597049},"geometry":{"x":172048.94000000134,"y":2545830.0700000003}},{"attributes":{"ID":597077,"DIS_CODE":0,"TOWNNAME":"永康區","LI":"大橋里","LIN":"30鄰","STREET":"大橋一街","SECT":" ","MAREA":" ","LANE":" ","ALLEY":" ","HOUSE_NO":"３０８號","E_COORD97":171198.04999999999,"N_COORD97":2546586.7400000002,"ADDRESS":"大橋一街３０８號","OBJECTID":597050},"geometry":{"x":171198.05000000168,"y":2546586.7400000021}},{"attributes":{"ID":597078,"DIS_CODE":0,"TOWNNAME":"永康區","LI":"網寮里","LIN":"21鄰","STREET":"永勝街","SECT":" ","MAREA":" ","LANE":" ","ALLEY":" ","HOUSE_NO":"２５號","E_COORD97":173612.09,"N_COORD97":2546231.1899999999,"ADDRESS":"永勝街２５號","OBJECTID":597051},"geometry":{"x":173612.09000000078,"y":2546231.1900000013}},{"attributes":{"ID":597079,"DIS_CODE":0,"TOWNNAME":"新營區","LI":"新東里","LIN":"27鄰","STREET":"東興五街","SECT":" ","MAREA":" ","LANE":" ","ALLEY":" ","HOUSE_NO":"２號","E_COORD97":180728.85999999999,"N_COORD97":2579532.54,"ADDRESS":"東興五街２號","OBJECTID":597052},"geometry":{"x":180728.86000000127,"y":2579532.5399999991}},{"attributes":{"ID":597080,"DIS_CODE":0,"TOWNNAME":"新營區","LI":"民榮里","LIN":"27鄰","STREET":"太子路","SECT":" ","MAREA":" ","LANE":" ","ALLEY":" ","HOUSE_NO":"２８號","E_COORD97":178363.25,"N_COORD97":2578130.9199999999,"ADDRESS":"太子路２８號","OBJECTID":597053},"geometry":{"x":178363.25,"y":2578130.9199999999}},{"attributes":{"ID":597081,"DIS_CODE":0,"TOWNNAME":"新營區","LI":"新東里","LIN":"27鄰","STREET":"東興路","SECT":" ","MAREA":" ","LANE":" ","ALLEY":" ","HOUSE_NO":"２２５號","E_COORD97":180725.23000000001,"N_COORD97":2579641.3199999998,"ADDRESS":"東興路２２５號","OBJECTID":597054},"geometry":{"x":180725.23000000138,"y":2579641.3200000003}},{"attributes":{"ID":597082,"DIS_CODE":0,"TOWNNAME":"新營區","LI":"新東里","LIN":"27鄰","STREET":"東興路","SECT":" ","MAREA":" ","LANE":" ","ALLEY":" ","HOUSE_NO":"２２１號","E_COORD97":180746.20999999999,"N_COORD97":2579537.1200000001,"ADDRESS":"東興路２２１號","OBJECTID":597055},"geometry":{"x":180746.21000000089,"y":2579537.120000001}},{"attributes":{"ID":597083,"DIS_CODE":0,"TOWNNAME":"新營區","LI":"新北里","LIN":"27鄰","STREET":"民生路","SECT":" ","MAREA":" ","LANE":" ","ALLEY":" ","HOUSE_NO":"４２５號","E_COORD97":178824.95999999999,"N_COORD97":2579226.1800000002,"ADDRESS":"民生路４２５號","OBJECTID":597056},"geometry":{"x":178824.95999999996,"y":2579226.1800000016}},{"attributes":{"ID":597084,"DIS_CODE":0,"TOWNNAME":"新營區","LI":"新南里","LIN":"27鄰","STREET":"隋唐街","SECT":" ","MAREA":" ","LANE":" ","ALLEY":" ","HOUSE_NO":"４０１號","E_COORD97":177887.01999999999,"N_COORD97":2578593.9300000002,"ADDRESS":"隋唐街４０１號","OBJECTID":597057},"geometry":{"x":177887.01999999862,"y":2578593.9300000016}},{"attributes":{"ID":597085,"DIS_CODE":0,"TOWNNAME":"新營區","LI":"大宏里","LIN":"27鄰","STREET":"開元路","SECT":" ","MAREA":" ","LANE":" ","ALLEY":" ","HOUSE_NO":"６１之１９號","E_COORD97":180898.73999999999,"N_COORD97":2578823.27,"ADDRESS":"開元路６１之１９號","OBJECTID":597058},"geometry":{"x":180898.74000000209,"y":2578823.2699999996}},{"attributes":{"ID":597086,"DIS_CODE":0,"TOWNNAME":"新營區","LI":"新北里","LIN":"27鄰","STREET":"民生路","SECT":" ","MAREA":" ","LANE":" ","ALLEY":" ","HOUSE_NO":"３８３號","E_COORD97":178898.25,"N_COORD97":2579152.7400000002,"ADDRESS":"民生路３８３號","OBJECTID":597059},"geometry":{"x":178898.25000000093,"y":2579152.7400000002}},{"attributes":{"ID":597087,"DIS_CODE":0,"TOWNNAME":"新營區","LI":"新北里","LIN":"27鄰","STREET":"民生路","SECT":" ","MAREA":" ","LANE":" ","ALLEY":" ","HOUSE_NO":"４２９號","E_COORD97":178817.84,"N_COORD97":2579235.0699999998,"ADDRESS":"民生路４２９號","OBJECTID":597060},"geometry":{"x":178817.84000000078,"y":2579235.0700000003}},{"attributes":{"ID":597088,"DIS_CODE":0,"TOWNNAME":"新營區","LI":"新南里","LIN":"27鄰","STREET":"隋唐街","SECT":" ","MAREA":" ","LANE":" ","ALLEY":" ","HOUSE_NO":"４０５號","E_COORD97":177865.57999999999,"N_COORD97":2578600.6800000002,"ADDRESS":"隋唐街４０５號","OBJECTID":597061},"geometry":{"x":177865.58000000101,"y":2578600.6799999997}},{"attributes":{"ID":597089,"DIS_CODE":0,"TOWNNAME":"永康區","LI":"西灣里","LIN":"41鄰","STREET":"永華路","SECT":" ","MAREA":" ","LANE":" ","ALLEY":" ","HOUSE_NO":"１１１號","E_COORD97":174090.12,"N_COORD97":2545424.6699999999,"ADDRESS":"永華路１１１號","OBJECTID":597062},"geometry":{"x":174090.12000000104,"y":2545424.6700000018}},{"attributes":{"ID":597090,"DIS_CODE":0,"TOWNNAME":"永康區","LI":"王行里","LIN":"14鄰","STREET":"興工路","SECT":" ","MAREA":" ","LANE":" ","ALLEY":" ","HOUSE_NO":"２０號","E_COORD97":175324.38,"N_COORD97":2549750.8900000001,"ADDRESS":"興工路２０號","OBJECTID":597063},"geometry":{"x":175324.38000000082,"y":2549750.8900000006}},{"attributes":{"ID":597091,"DIS_CODE":0,"TOWNNAME":"永康區","LI":"安康里","LIN":"17鄰","STREET":"中華路","SECT":" ","MAREA":" ","LANE":" ","ALLEY":" ","HOUSE_NO":"６２７號","E_COORD97":171043.54000000001,"N_COORD97":2546129,"ADDRESS":"中華路６２７號","OBJECTID":597064},"geometry":{"x":171043.54000000004,"y":2546129}},{"attributes":{"ID":597092,"DIS_CODE":0,"TOWNNAME":"新營區","LI":"民榮里","LIN":"27鄰","STREET":"太子路","SECT":" ","MAREA":" ","LANE":" ","ALLEY":" ","HOUSE_NO":"８號","E_COORD97":178427.64000000001,"N_COORD97":2578168.25,"ADDRESS":"太子路８號","OBJECTID":597065},"geometry":{"x":178427.6400000006,"y":2578168.2500000019}},{"attributes":{"ID":597093,"DIS_CODE":0,"TOWNNAME":"新營區","LI":"新北里","LIN":"27鄰","STREET":"民生路","SECT":" ","MAREA":" ","LANE":" ","ALLEY":" ","HOUSE_NO":"４６３號","E_COORD97":178760.88,"N_COORD97":2579301.7999999998,"ADDRESS":"民生路４６３號","OBJECTID":597066},"geometry":{"x":178760.87999999989,"y":2579301.8000000007}},{"attributes":{"ID":597094,"DIS_CODE":0,"TOWNNAME":"新營區","LI":"新北里","LIN":"27鄰","STREET":"民生路","SECT":" ","MAREA":" ","LANE":" ","ALLEY":" ","HOUSE_NO":"４２１號","E_COORD97":178832.07999999999,"N_COORD97":2579219.5,"ADDRESS":"民生路４２１號","OBJECTID":597067},"geometry":{"x":178832.08000000101,"y":2579219.4999999981}},{"attributes":{"ID":597095,"DIS_CODE":0,"TOWNNAME":"新營區","LI":"南興里","LIN":"27鄰","STREET":"建業路","SECT":" ","MAREA":" ","LANE":" ","ALLEY":" ","HOUSE_NO":"９５號","E_COORD97":178531.82999999999,"N_COORD97":2577475.5899999999,"ADDRESS":"建業路９５號","OBJECTID":597068},"geometry":{"x":178531.83000000101,"y":2577475.5899999999}},{"attributes":{"ID":597096,"DIS_CODE":0,"TOWNNAME":"新營區","LI":"南興里","LIN":"27鄰","STREET":"建業路","SECT":" ","MAREA":" ","LANE":" ","ALLEY":" ","HOUSE_NO":"７１號之３","E_COORD97":178606.59,"N_COORD97":2577443.1800000002,"ADDRESS":"建業路７１號之３","OBJECTID":597069},"geometry":{"x":178606.58999999985,"y":2577443.1800000016}},{"attributes":{"ID":597097,"DIS_CODE":0,"TOWNNAME":"歸仁區","LI":"許厝里","LIN":"27鄰","STREET":"信義北路","SECT":" ","MAREA":" ","LANE":" ","ALLEY":" ","HOUSE_NO":"１７號","E_COORD97":177980.60000000001,"N_COORD97":2540796.04,"ADDRESS":"信義北路１７號","OBJECTID":597070},"geometry":{"x":177980.60000000056,"y":2540796.040000001}},{"attributes":{"ID":597098,"DIS_CODE":0,"TOWNNAME":"歸仁區","LI":"新厝里","LIN":"27鄰","STREET":"中正南路","SECT":"一段","MAREA":" ","LANE":" ","ALLEY":" ","HOUSE_NO":"４２５號","E_COORD97":177006.37,"N_COORD97":2540095.0899999999,"ADDRESS":"中正南路一段４２５號","OBJECTID":597071},"geometry":{"x":177006.37000000104,"y":2540095.0900000017}},{"attributes":{"ID":597099,"DIS_CODE":0,"TOWNNAME":"歸仁區","LI":"新厝里","LIN":"27鄰","STREET":"中正南路","SECT":"一段","MAREA":" ","LANE":" ","ALLEY":" ","HOUSE_NO":"４２７號","E_COORD97":177002.19,"N_COORD97":2540092.1400000001,"ADDRESS":"中正南路一段４２７號","OBJECTID":597072},"geometry":{"x":177002.19000000134,"y":2540092.1400000025}},{"attributes":{"ID":597100,"DIS_CODE":0,"TOWNNAME":"歸仁區","LI":"新厝里","LIN":"27鄰","STREET":"中正南路","SECT":"一段","MAREA":" ","LANE":" ","ALLEY":" ","HOUSE_NO":"４２９號","E_COORD97":176998.64000000001,"N_COORD97":2540089.6800000002,"ADDRESS":"中正南路一段４２９號","OBJECTID":597073},"geometry":{"x":176998.6400000006,"y":2540089.6799999978}},{"attributes":{"ID":597101,"DIS_CODE":0,"TOWNNAME":"歸仁區","LI":"新厝里","LIN":"27鄰","STREET":"中正南路","SECT":"一段","MAREA":" ","LANE":" ","ALLEY":" ","HOUSE_NO":"４３１號","E_COORD97":176994.10999999999,"N_COORD97":2540087.27,"ADDRESS":"中正南路一段４３１號","OBJECTID":597074},"geometry":{"x":176994.1100000022,"y":2540087.2700000014}},{"attributes":{"ID":597102,"DIS_CODE":0,"TOWNNAME":"歸仁區","LI":"南保里","LIN":"27鄰","STREET":"民權北路","SECT":" ","MAREA":" ","LANE":" ","ALLEY":" ","HOUSE_NO":"６３號","E_COORD97":176981.22,"N_COORD97":2541024.3599999999,"ADDRESS":"民權北路６３號","OBJECTID":597075},"geometry":{"x":176981.22000000067,"y":2541024.3600000013}},{"attributes":{"ID":597103,"DIS_CODE":0,"TOWNNAME":"歸仁區","LI":"南保里","LIN":"27鄰","STREET":"民權北路","SECT":" ","MAREA":" ","LANE":" ","ALLEY":" ","HOUSE_NO":"６５號","E_COORD97":176981.56,"N_COORD97":2541027.27,"ADDRESS":"民權北路６５號","OBJECTID":597076},"geometry":{"x":176981.55999999866,"y":2541027.2699999996}},{"attributes":{"ID":597104,"DIS_CODE":0,"TOWNNAME":"南區","LI":"廣州里","LIN":"27鄰","STREET":"健民街","SECT":" ","MAREA":" ","LANE":" ","ALLEY":" ","HOUSE_NO":"１７號","E_COORD97":167417.26000000001,"N_COORD97":2542715.8999999999,"ADDRESS":"健民街１７號","OBJECTID":597077},"geometry":{"x":167417.25999999978,"y":2542715.9000000004}},{"attributes":{"ID":597105,"DIS_CODE":0,"TOWNNAME":"永康區","LI":"王行里","LIN":"16鄰","STREET":"中山北路","SECT":" ","MAREA":" ","LANE":" ","ALLEY":" ","HOUSE_NO":"７３３號","E_COORD97":175877.59,"N_COORD97":2547896.3999999999,"ADDRESS":"中山北路７３３號","OBJECTID":597078},"geometry":{"x":175877.58999999985,"y":2547896.4000000004}},{"attributes":{"ID":597106,"DIS_CODE":0,"TOWNNAME":"永康區","LI":"大橋里","LIN":"11鄰","STREET":"大橋二街","SECT":" ","MAREA":" ","LANE":" ","ALLEY":" ","HOUSE_NO":"１９７號之１","E_COORD97":171011.23000000001,"N_COORD97":2546739.2999999998,"ADDRESS":"大橋二街１９７號之１","OBJECTID":597079},"geometry":{"x":171011.23000000138,"y":2546739.3000000026}},{"attributes":{"ID":597107,"DIS_CODE":0,"TOWNNAME":"南區","LI":"廣州里","LIN":"27鄰","STREET":"健民街","SECT":" ","MAREA":" ","LANE":" ","ALLEY":" ","HOUSE_NO":"７號","E_COORD97":167424.42999999999,"N_COORD97":2542738.6699999999,"ADDRESS":"健民街７號","OBJECTID":597080},"geometry":{"x":167424.4299999997,"y":2542738.6700000018}},{"attributes":{"ID":597108,"DIS_CODE":0,"TOWNNAME":"南區","LI":"廣州里","LIN":"27鄰","STREET":"夏林路","SECT":" ","MAREA":" ","LANE":" ","ALLEY":" ","HOUSE_NO":"５８號","E_COORD97":167441.32000000001,"N_COORD97":2542679.6299999999,"ADDRESS":"夏林路５８號","OBJECTID":597081},"geometry":{"x":167441.3200000003,"y":2542679.6300000027}},{"attributes":{"ID":597109,"DIS_CODE":0,"TOWNNAME":"南區","LI":"廣州里","LIN":"27鄰","STREET":"夏林路","SECT":" ","MAREA":" ","LANE":" ","ALLEY":" ","HOUSE_NO":"６０號","E_COORD97":167443.85000000001,"N_COORD97":2542677.1000000001,"ADDRESS":"夏林路６０號","OBJECTID":597082},"geometry":{"x":167443.84999999963,"y":2542677.1000000034}},{"attributes":{"ID":597110,"DIS_CODE":0,"TOWNNAME":"永康區","LI":"二王里","LIN":"15鄰","STREET":"忠孝路","SECT":" ","MAREA":" ","LANE":" ","ALLEY":" ","HOUSE_NO":"４５８號","E_COORD97":172490.32999999999,"N_COORD97":2546639.77,"ADDRESS":"忠孝路４５８號","OBJECTID":597083},"geometry":{"x":172490.33000000101,"y":2546639.7700000014}},{"attributes":{"ID":597111,"DIS_CODE":0,"TOWNNAME":"永康區","LI":"五王里","LIN":"30鄰","STREET":"中山東路","SECT":" ","MAREA":" ","LANE":" ","ALLEY":" ","HOUSE_NO":"１７８號","E_COORD97":171753.20999999999,"N_COORD97":2545815.1000000001,"ADDRESS":"中山東路１７８號","OBJECTID":597084},"geometry":{"x":171753.21000000183,"y":2545815.0999999996}},{"attributes":{"ID":597112,"DIS_CODE":0,"TOWNNAME":"安平區","LI":"平通里","LIN":"27鄰","STREET":"育平九街","SECT":" ","MAREA":" ","LANE":" ","ALLEY":" ","HOUSE_NO":"４０９號","E_COORD97":164485.51999999999,"N_COORD97":2544006.71,"ADDRESS":"育平九街４０９號","OBJECTID":597085},"geometry":{"x":164485.52000000048,"y":2544006.7100000046}},{"attributes":{"ID":597113,"DIS_CODE":0,"TOWNNAME":"安平區","LI":"平通里","LIN":"27鄰","STREET":"育平九街","SECT":" ","MAREA":" ","LANE":" ","ALLEY":" ","HOUSE_NO":"４０９之１號","E_COORD97":164486.16,"N_COORD97":2544012.75,"ADDRESS":"育平九街４０９之１號","OBJECTID":597086},"geometry":{"x":164486.16000000015,"y":2544012.7500000019}},{"attributes":{"ID":597114,"DIS_CODE":0,"TOWNNAME":"安平區","LI":"平通里","LIN":"27鄰","STREET":"育平九街","SECT":" ","MAREA":" ","LANE":" ","ALLEY":" ","HOUSE_NO":"４０９之２號","E_COORD97":164485.35999999999,"N_COORD97":2544019.4100000001,"ADDRESS":"育平九街４０９之２號","OBJECTID":597087},"geometry":{"x":164485.36000000127,"y":2544019.410000002}},{"attributes":{"ID":597115,"DIS_CODE":0,"TOWNNAME":"安平區","LI":"平通里","LIN":"27鄰","STREET":"育平九街","SECT":" ","MAREA":" ","LANE":" ","ALLEY":" ","HOUSE_NO":"４０９之３號","E_COORD97":164484.73000000001,"N_COORD97":2544025.29,"ADDRESS":"育平九街４０９之３號","OBJECTID":597088},"geometry":{"x":164484.73000000138,"y":2544025.290000001}},{"attributes":{"ID":597116,"DIS_CODE":0,"TOWNNAME":"安平區","LI":"平通里","LIN":"27鄰","STREET":"育平九街","SECT":" ","MAREA":" ","LANE":" ","ALLEY":" ","HOUSE_NO":"４０９之５號","E_COORD97":164503.62,"N_COORD97":2544007.0299999998,"ADDRESS":"育平九街４０９之５號","OBJECTID":597089},"geometry":{"x":164503.62000000197,"y":2544007.0300000012}},{"attributes":{"ID":597117,"DIS_CODE":0,"TOWNNAME":"安平區","LI":"平通里","LIN":"27鄰","STREET":"育平九街","SECT":" ","MAREA":" ","LANE":" ","ALLEY":" ","HOUSE_NO":"４０９之６號","E_COORD97":164503.29999999999,"N_COORD97":2544014.1699999999,"ADDRESS":"育平九街４０９之６號","OBJECTID":597090},"geometry":{"x":164503.29999999981,"y":2544014.1700000018}},{"attributes":{"ID":597118,"DIS_CODE":0,"TOWNNAME":"安平區","LI":"平通里","LIN":"27鄰","STREET":"育平九街","SECT":" ","MAREA":" ","LANE":" ","ALLEY":" ","HOUSE_NO":"４０９之７號","E_COORD97":164503.45999999999,"N_COORD97":2544020.0499999998,"ADDRESS":"育平九街４０９之７號","OBJECTID":597091},"geometry":{"x":164503.46000000089,"y":2544020.0500000007}},{"attributes":{"ID":597119,"DIS_CODE":0,"TOWNNAME":"安平區","LI":"平通里","LIN":"27鄰","STREET":"育平九街","SECT":" ","MAREA":" ","LANE":" ","ALLEY":" ","HOUSE_NO":"４０９之８號","E_COORD97":164502.98000000001,"N_COORD97":2544027.1899999999,"ADDRESS":"育平九街４０９之８號","OBJECTID":597092},"geometry":{"x":164502.98000000045,"y":2544027.1900000013}},{"attributes":{"ID":597120,"DIS_CODE":0,"TOWNNAME":"安平區","LI":"華平里","LIN":"27鄰","STREET":"平通路","SECT":" ","MAREA":" ","LANE":" ","ALLEY":" ","HOUSE_NO":"４２２號","E_COORD97":165343.92999999999,"N_COORD97":2543782.6000000001,"ADDRESS":"平通路４２２號","OBJECTID":597093},"geometry":{"x":165343.93000000063,"y":2543782.6000000034}},{"attributes":{"ID":597121,"DIS_CODE":0,"TOWNNAME":"安平區","LI":"華平里","LIN":"27鄰","STREET":"平通路","SECT":" ","MAREA":" ","LANE":" ","ALLEY":" ","HOUSE_NO":"４２０號","E_COORD97":165349.32000000001,"N_COORD97":2543788.4700000002,"ADDRESS":"平通路４２０號","OBJECTID":597094},"geometry":{"x":165349.3200000003,"y":2543788.4700000025}},{"attributes":{"ID":597122,"DIS_CODE":0,"TOWNNAME":"安平區","LI":"華平里","LIN":"27鄰","STREET":"平通路","SECT":" ","MAREA":" ","LANE":" ","ALLEY":" ","HOUSE_NO":"４１８號","E_COORD97":165353.13,"N_COORD97":2543786.25,"ADDRESS":"平通路４１８號","OBJECTID":597095},"geometry":{"x":165353.13000000082,"y":2543786.2500000019}},{"attributes":{"ID":597123,"DIS_CODE":0,"TOWNNAME":"安平區","LI":"華平里","LIN":"27鄰","STREET":"平通路","SECT":" ","MAREA":" ","LANE":" ","ALLEY":" ","HOUSE_NO":"４１６號","E_COORD97":165358.20999999999,"N_COORD97":2543785.6200000001,"ADDRESS":"平通路４１６號","OBJECTID":597096},"geometry":{"x":165358.20999999996,"y":2543785.620000001}},{"attributes":{"ID":597124,"DIS_CODE":0,"TOWNNAME":"安平區","LI":"華平里","LIN":"27鄰","STREET":"平通路","SECT":" ","MAREA":" ","LANE":" ","ALLEY":" ","HOUSE_NO":"４１２號","E_COORD97":165362.66,"N_COORD97":2543787.2000000002,"ADDRESS":"平通路４１２號","OBJECTID":597097},"geometry":{"x":165362.65999999922,"y":2543787.1999999993}},{"attributes":{"ID":597125,"DIS_CODE":0,"TOWNNAME":"永康區","LI":"三合里","LIN":"2鄰","STREET":"南工街","SECT":" ","MAREA":" ","LANE":" ","ALLEY":" ","HOUSE_NO":"７號","E_COORD97":172100.64999999999,"N_COORD97":2545475.8300000001,"ADDRESS":"南工街７號","OBJECTID":597098},"geometry":{"x":172100.65000000037,"y":2545475.8300000001}},{"attributes":{"ID":597126,"DIS_CODE":0,"TOWNNAME":"安平區","LI":"華平里","LIN":"27鄰","STREET":"平通路","SECT":" ","MAREA":" ","LANE":" ","ALLEY":" ","HOUSE_NO":"４１０號","E_COORD97":165368.85000000001,"N_COORD97":2543786.25,"ADDRESS":"平通路４１０號","OBJECTID":597099},"geometry":{"x":165368.84999999963,"y":2543786.2500000019}},{"attributes":{"ID":597127,"DIS_CODE":0,"TOWNNAME":"安平區","LI":"華平里","LIN":"27鄰","STREET":"平通路","SECT":" ","MAREA":" ","LANE":" ","ALLEY":" ","HOUSE_NO":"３８６號","E_COORD97":165422.03,"N_COORD97":2543767.8399999999,"ADDRESS":"平通路３８６號","OBJECTID":597100},"geometry":{"x":165422.03000000119,"y":2543767.8400000017}},{"attributes":{"ID":597128,"DIS_CODE":0,"TOWNNAME":"安平區","LI":"華平里","LIN":"27鄰","STREET":"平通路","SECT":" ","MAREA":" ","LANE":" ","ALLEY":" ","HOUSE_NO":"３８８號","E_COORD97":165416.79000000001,"N_COORD97":2543769.5800000001,"ADDRESS":"平通路３８８號","OBJECTID":597101},"geometry":{"x":165416.79000000097,"y":2543769.5800000038}},{"attributes":{"ID":597129,"DIS_CODE":0,"TOWNNAME":"安平區","LI":"華平里","LIN":"27鄰","STREET":"平通路","SECT":" ","MAREA":" ","LANE":" ","ALLEY":" ","HOUSE_NO":"３９０號","E_COORD97":165412.03,"N_COORD97":2543770.3799999999,"ADDRESS":"平通路３９０號","OBJECTID":597102},"geometry":{"x":165412.03000000119,"y":2543770.3800000008}},{"attributes":{"ID":597130,"DIS_CODE":0,"TOWNNAME":"安平區","LI":"華平里","LIN":"27鄰","STREET":"平通路","SECT":" ","MAREA":" ","LANE":" ","ALLEY":" ","HOUSE_NO":"３９２號","E_COORD97":165406.95000000001,"N_COORD97":2543772.2799999998,"ADDRESS":"平通路３９２號","OBJECTID":597103},"geometry":{"x":165406.95000000112,"y":2543772.2800000012}},{"attributes":{"ID":597131,"DIS_CODE":0,"TOWNNAME":"安平區","LI":"華平里","LIN":"27鄰","STREET":"平通路","SECT":" ","MAREA":" ","LANE":" ","ALLEY":" ","HOUSE_NO":"３９６號","E_COORD97":165400.92000000001,"N_COORD97":2543773.3900000001,"ADDRESS":"平通路３９６號","OBJECTID":597104},"geometry":{"x":165400.91999999993,"y":2543773.3900000006}},{"attributes":{"ID":597132,"DIS_CODE":0,"TOWNNAME":"安平區","LI":"華平里","LIN":"27鄰","STREET":"平通路","SECT":" ","MAREA":" ","LANE":" ","ALLEY":" ","HOUSE_NO":"３９８號","E_COORD97":165395.84,"N_COORD97":2543773.5499999998,"ADDRESS":"平通路３９８號","OBJECTID":597105},"geometry":{"x":165395.84000000078,"y":2543773.5499999989}},{"attributes":{"ID":597133,"DIS_CODE":0,"TOWNNAME":"安平區","LI":"華平里","LIN":"27鄰","STREET":"平通路","SECT":" ","MAREA":" ","LANE":" ","ALLEY":" ","HOUSE_NO":"４００號","E_COORD97":165387.57999999999,"N_COORD97":2543778.9500000002,"ADDRESS":"平通路４００號","OBJECTID":597106},"geometry":{"x":165387.58000000101,"y":2543778.9499999993}},{"attributes":{"ID":597134,"DIS_CODE":0,"TOWNNAME":"安平區","LI":"華平里","LIN":"27鄰","STREET":"平通路","SECT":" ","MAREA":" ","LANE":" ","ALLEY":" ","HOUSE_NO":"４０２號","E_COORD97":165382.03,"N_COORD97":2543781.0099999998,"ADDRESS":"平通路４０２號","OBJECTID":597107},"geometry":{"x":165382.03000000026,"y":2543781.0100000016}},{"attributes":{"ID":597135,"DIS_CODE":0,"TOWNNAME":"安平區","LI":"華平里","LIN":"27鄰","STREET":"平通路","SECT":" ","MAREA":" ","LANE":" ","ALLEY":" ","HOUSE_NO":"４０６號","E_COORD97":165377.73999999999,"N_COORD97":2543782.6000000001,"ADDRESS":"平通路４０６號","OBJECTID":597108},"geometry":{"x":165377.74000000115,"y":2543782.6000000034}},{"attributes":{"ID":597136,"DIS_CODE":0,"TOWNNAME":"安平區","LI":"華平里","LIN":"27鄰","STREET":"平通路","SECT":" ","MAREA":" ","LANE":" ","ALLEY":" ","HOUSE_NO":"４０８號","E_COORD97":165372.17999999999,"N_COORD97":2543784.1899999999,"ADDRESS":"平通路４０８號","OBJECTID":597109},"geometry":{"x":165372.1799999997,"y":2543784.1899999995}},{"attributes":{"ID":597137,"DIS_CODE":0,"TOWNNAME":"安平區","LI":"平通里","LIN":"27鄰","STREET":"育平八街","SECT":" ","MAREA":" ","LANE":" ","ALLEY":" ","HOUSE_NO":"１１５號","E_COORD97":164300.45000000001,"N_COORD97":2543890.77,"ADDRESS":"育平八街１１５號","OBJECTID":597110},"geometry":{"x":164300.45000000112,"y":2543890.7700000014}},{"attributes":{"ID":597138,"DIS_CODE":0,"TOWNNAME":"安平區","LI":"華平里","LIN":"27鄰","STREET":"怡平路","SECT":" ","MAREA":" ","LANE":" ","ALLEY":" ","HOUSE_NO":"４１７號","E_COORD97":165411.87,"N_COORD97":2543808.1600000001,"ADDRESS":"怡平路４１７號","OBJECTID":597111},"geometry":{"x":165411.87000000011,"y":2543808.1600000001}},{"attributes":{"ID":597139,"DIS_CODE":0,"TOWNNAME":"安平區","LI":"華平里","LIN":"27鄰","STREET":"怡平路","SECT":" ","MAREA":" ","LANE":" ","ALLEY":" ","HOUSE_NO":"４１５號","E_COORD97":165416.48000000001,"N_COORD97":2543808.79,"ADDRESS":"怡平路４１５號","OBJECTID":597112},"geometry":{"x":165416.48000000045,"y":2543808.790000001}},{"attributes":{"ID":597140,"DIS_CODE":0,"TOWNNAME":"安平區","LI":"華平里","LIN":"27鄰","STREET":"怡平路","SECT":" ","MAREA":" ","LANE":" ","ALLEY":" ","HOUSE_NO":"４１３號","E_COORD97":165423.14000000001,"N_COORD97":2543810.0600000001,"ADDRESS":"怡平路４１３號","OBJECTID":597113},"geometry":{"x":165423.13999999966,"y":2543810.0600000005}},{"attributes":{"ID":597141,"DIS_CODE":0,"TOWNNAME":"安平區","LI":"華平里","LIN":"27鄰","STREET":"怡平路","SECT":" ","MAREA":" ","LANE":" ","ALLEY":" ","HOUSE_NO":"４１１號","E_COORD97":165427.26999999999,"N_COORD97":2543809.27,"ADDRESS":"怡平路４１１號","OBJECTID":597114},"geometry":{"x":165427.26999999955,"y":2543809.2700000014}},{"attributes":{"ID":597142,"DIS_CODE":0,"TOWNNAME":"永康區","LI":"王行里","LIN":"13鄰","STREET":"王行路","SECT":" ","MAREA":" ","LANE":" ","ALLEY":" ","HOUSE_NO":"１１０２號之３","E_COORD97":175649.04999999999,"N_COORD97":2550225.54,"ADDRESS":"王行路１１０２號之３","OBJECTID":597115},"geometry":{"x":175649.04999999981,"y":2550225.540000001}},{"attributes":{"ID":597143,"DIS_CODE":0,"TOWNNAME":"永康區","LI":"三民里","LIN":"14鄰","STREET":"中正北路","SECT":" ","MAREA":" ","LANE":" ","ALLEY":" ","HOUSE_NO":"９４８號之１","E_COORD97":175574.69,"N_COORD97":2550591.7999999998,"ADDRESS":"中正北路９４８號之１","OBJECTID":597116},"geometry":{"x":175574.69000000227,"y":2550591.8000000026}},{"attributes":{"ID":597144,"DIS_CODE":0,"TOWNNAME":"永康區","LI":"三民里","LIN":"14鄰","STREET":"中正北路","SECT":" ","MAREA":" ","LANE":" ","ALLEY":" ","HOUSE_NO":"９４８號之７","E_COORD97":175593.64999999999,"N_COORD97":2550608.54,"ADDRESS":"中正北路９４８號之７","OBJECTID":597117},"geometry":{"x":175593.65000000224,"y":2550608.540000001}},{"attributes":{"ID":597145,"DIS_CODE":0,"TOWNNAME":"永康區","LI":"大橋里","LIN":"12鄰","STREET":"大橋二街","SECT":" ","MAREA":" ","LANE":" ","ALLEY":" ","HOUSE_NO":"２０７號","E_COORD97":171037.57000000001,"N_COORD97":2546757.25,"ADDRESS":"大橋二街２０７號","OBJECTID":597118},"geometry":{"x":171037.57000000123,"y":2546757.25}},{"attributes":{"ID":597146,"DIS_CODE":0,"TOWNNAME":"安平區","LI":"華平里","LIN":"27鄰","STREET":"怡平路","SECT":" ","MAREA":" ","LANE":" ","ALLEY":" ","HOUSE_NO":"４２１號","E_COORD97":165390.04000000001,"N_COORD97":2543812.8900000001,"ADDRESS":"怡平路４２１號","OBJECTID":597119},"geometry":{"x":165390.04000000004,"y":2543812.8900000025}},{"attributes":{"ID":597147,"DIS_CODE":0,"TOWNNAME":"安平區","LI":"華平里","LIN":"27鄰","STREET":"怡平路","SECT":" ","MAREA":" ","LANE":" ","ALLEY":" ","HOUSE_NO":"４２３號","E_COORD97":165382.14999999999,"N_COORD97":2543814.4300000002,"ADDRESS":"怡平路４２３號","OBJECTID":597120},"geometry":{"x":165382.1500000013,"y":2543814.4300000034}},{"attributes":{"ID":597148,"DIS_CODE":0,"TOWNNAME":"安平區","LI":"華平里","LIN":"27鄰","STREET":"怡平路","SECT":" ","MAREA":" ","LANE":" ","ALLEY":" ","HOUSE_NO":"４２５號","E_COORD97":165376.95000000001,"N_COORD97":2543814.9900000002,"ADDRESS":"怡平路４２５號","OBJECTID":597121},"geometry":{"x":165376.95000000019,"y":2543814.9900000021}},{"attributes":{"ID":597149,"DIS_CODE":0,"TOWNNAME":"安平區","LI":"華平里","LIN":"27鄰","STREET":"怡平路","SECT":" ","MAREA":" ","LANE":" ","ALLEY":" ","HOUSE_NO":"４２７號","E_COORD97":165371.54999999999,"N_COORD97":2543816.1000000001,"ADDRESS":"怡平路４２７號","OBJECTID":597122},"geometry":{"x":165371.54999999888,"y":2543816.0999999978}},{"attributes":{"ID":597150,"DIS_CODE":0,"TOWNNAME":"安平區","LI":"華平里","LIN":"27鄰","STREET":"怡平路","SECT":" ","MAREA":" ","LANE":" ","ALLEY":" ","HOUSE_NO":"４２９號","E_COORD97":165366.31,"N_COORD97":2543816.4100000001,"ADDRESS":"怡平路４２９號","OBJECTID":597123},"geometry":{"x":165366.31000000145,"y":2543816.410000002}},{"attributes":{"ID":597151,"DIS_CODE":0,"TOWNNAME":"安平區","LI":"華平里","LIN":"27鄰","STREET":"健康二街","SECT":" ","MAREA":" ","LANE":" ","ALLEY":" ","HOUSE_NO":"４４８號","E_COORD97":165350.42999999999,"N_COORD97":2543822.4500000002,"ADDRESS":"健康二街４４８號","OBJECTID":597124},"geometry":{"x":165350.43000000063,"y":2543822.4499999993}},{"attributes":{"ID":597152,"DIS_CODE":0,"TOWNNAME":"安平區","LI":"華平里","LIN":"27鄰","STREET":"健康二街","SECT":" ","MAREA":" ","LANE":" ","ALLEY":" ","HOUSE_NO":"４４６號","E_COORD97":165348.04999999999,"N_COORD97":2543817.6800000002,"ADDRESS":"健康二街４４６號","OBJECTID":597125},"geometry":{"x":165348.05000000075,"y":2543817.6799999997}},{"attributes":{"ID":597153,"DIS_CODE":0,"TOWNNAME":"安平區","LI":"華平里","LIN":"27鄰","STREET":"健康二街","SECT":" ","MAREA":" ","LANE":" ","ALLEY":" ","HOUSE_NO":"４４２號","E_COORD97":165348.20999999999,"N_COORD97":2543813.3999999999,"ADDRESS":"健康二街４４２號","OBJECTID":597126},"geometry":{"x":165348.20999999996,"y":2543813.4000000022}},{"attributes":{"ID":597154,"DIS_CODE":0,"TOWNNAME":"安平區","LI":"華平里","LIN":"27鄰","STREET":"健康二街","SECT":" ","MAREA":" ","LANE":" ","ALLEY":" ","HOUSE_NO":"４４０號","E_COORD97":165346.62,"N_COORD97":2543808.6400000001,"ADDRESS":"健康二街４４０號","OBJECTID":597127},"geometry":{"x":165346.62000000104,"y":2543808.6400000006}},{"attributes":{"ID":597155,"DIS_CODE":0,"TOWNNAME":"永康區","LI":"大橋里","LIN":"4鄰","STREET":"大橋五街","SECT":" ","MAREA":" ","LANE":" ","ALLEY":" ","HOUSE_NO":"４３號","E_COORD97":170824.29000000001,"N_COORD97":2546913.6000000001,"ADDRESS":"大橋五街４３號","OBJECTID":597128},"geometry":{"x":170824.29000000097,"y":2546913.5999999996}},{"attributes":{"ID":597156,"DIS_CODE":0,"TOWNNAME":"安平區","LI":"華平里","LIN":"27鄰","STREET":"健康二街","SECT":" ","MAREA":" ","LANE":" ","ALLEY":" ","HOUSE_NO":"４３８號","E_COORD97":165345.98999999999,"N_COORD97":2543804.1899999999,"ADDRESS":"健康二街４３８號","OBJECTID":597129},"geometry":{"x":165345.99000000115,"y":2543804.1899999995}},{"attributes":{"ID":597157,"DIS_CODE":0,"TOWNNAME":"永康區","LI":"五王里","LIN":"25鄰","STREET":"五福街","SECT":" ","MAREA":" ","LANE":" ","ALLEY":" ","HOUSE_NO":"４２號","E_COORD97":171351.98000000001,"N_COORD97":2545884.7999999998,"ADDRESS":"五福街４２號","OBJECTID":597130},"geometry":{"x":171351.98000000138,"y":2545884.8000000026}},{"attributes":{"ID":597158,"DIS_CODE":0,"TOWNNAME":"永康區","LI":"五王里","LIN":"25鄰","STREET":"五福街","SECT":" ","MAREA":" ","LANE":" ","ALLEY":" ","HOUSE_NO":"３６號","E_COORD97":171336.26000000001,"N_COORD97":2545874.7999999998,"ADDRESS":"五福街３６號","OBJECTID":597131},"geometry":{"x":171336.26000000071,"y":2545874.8000000026}},{"attributes":{"ID":597159,"DIS_CODE":0,"TOWNNAME":"永康區","LI":"大橋里","LIN":"17鄰","STREET":"大橋一街","SECT":" ","MAREA":" ","LANE":" ","ALLEY":" ","HOUSE_NO":"１１１號","E_COORD97":171010.54000000001,"N_COORD97":2546477.9900000002,"ADDRESS":"大橋一街１１１號","OBJECTID":597132},"geometry":{"x":171010.54000000097,"y":2546477.9900000002}},{"attributes":{"ID":597160,"DIS_CODE":0,"TOWNNAME":"永康區","LI":"大橋里","LIN":"6鄰","STREET":"大橋五街","SECT":" ","MAREA":" ","LANE":" ","ALLEY":" ","HOUSE_NO":"５８號","E_COORD97":170873.85999999999,"N_COORD97":2546900.0800000001,"ADDRESS":"大橋五街５８號","OBJECTID":597133},"geometry":{"x":170873.86000000034,"y":2546900.0800000019}},{"attributes":{"ID":597161,"DIS_CODE":0,"TOWNNAME":"永康區","LI":"二王里","LIN":"12鄰","STREET":"永二街","SECT":" ","MAREA":" ","LANE":" ","ALLEY":" ","HOUSE_NO":"３９７號","E_COORD97":172852.75,"N_COORD97":2546649.1400000001,"ADDRESS":"永二街３９７號","OBJECTID":597134},"geometry":{"x":172852.75,"y":2546649.1400000025}},{"attributes":{"ID":597162,"DIS_CODE":0,"TOWNNAME":"永康區","LI":"大橋里","LIN":"11鄰","STREET":"大橋二街","SECT":" ","MAREA":" ","LANE":" ","ALLEY":" ","HOUSE_NO":"１９３號","E_COORD97":170998.35000000001,"N_COORD97":2546732,"ADDRESS":"大橋二街１９３號","OBJECTID":597135},"geometry":{"x":170998.34999999963,"y":2546732}},{"attributes":{"ID":597163,"DIS_CODE":0,"TOWNNAME":"安平區","LI":"華平里","LIN":"27鄰","STREET":"健康二街","SECT":" ","MAREA":" ","LANE":" ","ALLEY":" ","HOUSE_NO":"４３６號","E_COORD97":165345.51000000001,"N_COORD97":2543799.8999999999,"ADDRESS":"健康二街４３６號","OBJECTID":597136},"geometry":{"x":165345.51000000071,"y":2543799.9000000004}},{"attributes":{"ID":597164,"DIS_CODE":0,"TOWNNAME":"歸仁區","LI":"南保里","LIN":"27鄰","STREET":"民權北路","SECT":" ","MAREA":" ","LANE":" ","ALLEY":" ","HOUSE_NO":"６７號","E_COORD97":176980.91,"N_COORD97":2541032.25,"ADDRESS":"民權北路６７號","OBJECTID":597137},"geometry":{"x":176980.91000000015,"y":2541032.2500000037}},{"attributes":{"ID":597165,"DIS_CODE":0,"TOWNNAME":"歸仁區","LI":"許厝里","LIN":"27鄰","STREET":"大仁街","SECT":" ","MAREA":" ","LANE":" ","ALLEY":" ","HOUSE_NO":"３４號","E_COORD97":177960.95000000001,"N_COORD97":2540816.04,"ADDRESS":"大仁街３４號","OBJECTID":597138},"geometry":{"x":177960.95000000019,"y":2540816.040000001}},{"attributes":{"ID":597166,"DIS_CODE":0,"TOWNNAME":"歸仁區","LI":"許厝里","LIN":"27鄰","STREET":"中山路","SECT":"一段","MAREA":" ","LANE":" ","ALLEY":" ","HOUSE_NO":"４８４號","E_COORD97":177938.78,"N_COORD97":2540752.04,"ADDRESS":"中山路一段４８４號","OBJECTID":597139},"geometry":{"x":177938.78000000212,"y":2540752.040000001}},{"attributes":{"ID":597167,"DIS_CODE":0,"TOWNNAME":"歸仁區","LI":"許厝里","LIN":"27鄰","STREET":"信義北路","SECT":" ","MAREA":" ","LANE":" ","ALLEY":" ","HOUSE_NO":"５號","E_COORD97":177981.25,"N_COORD97":2540770.04,"ADDRESS":"信義北路５號","OBJECTID":597140},"geometry":{"x":177981.25000000093,"y":2540770.0399999991}},{"attributes":{"ID":597168,"DIS_CODE":0,"TOWNNAME":"永康區","LI":"大橋里","LIN":"8鄰","STREET":"大橋三街","SECT":" ","MAREA":" ","LANE":" ","ALLEY":" ","HOUSE_NO":"２２９號之３","E_COORD97":170945.26000000001,"N_COORD97":2546834.5800000001,"ADDRESS":"大橋三街２２９號之３","OBJECTID":597141},"geometry":{"x":170945.25999999978,"y":2546834.5800000038}},{"attributes":{"ID":597169,"DIS_CODE":0,"TOWNNAME":"永康區","LI":"大灣里","LIN":"15鄰","STREET":"大民街","SECT":" ","MAREA":" ","LANE":" ","ALLEY":" ","HOUSE_NO":"３１號","E_COORD97":174801.35999999999,"N_COORD97":2545291.1600000001,"ADDRESS":"大民街３１號","OBJECTID":597142},"geometry":{"x":174801.36000000034,"y":2545291.1599999983}},{"attributes":{"ID":597170,"DIS_CODE":0,"TOWNNAME":"永康區","LI":"五王里","LIN":"33鄰","STREET":"五福街","SECT":" ","MAREA":" ","LANE":" ","ALLEY":" ","HOUSE_NO":"１９號地下一層","E_COORD97":171304.28,"N_COORD97":2545878.7400000002,"ADDRESS":"五福街１９號地下一層","OBJECTID":597143},"geometry":{"x":171304.28000000119,"y":2545878.7400000021}},{"attributes":{"ID":597171,"DIS_CODE":0,"TOWNNAME":"永康區","LI":"中興里","LIN":"23鄰","STREET":"中華路","SECT":" ","MAREA":" ","LANE":" ","ALLEY":" ","HOUSE_NO":"２１８號之１９","E_COORD97":171678.54000000001,"N_COORD97":2545102.7999999998,"ADDRESS":"中華路２１８號之１９","OBJECTID":597144},"geometry":{"x":171678.54000000097,"y":2545102.8000000026}},{"attributes":{"ID":597172,"DIS_CODE":0,"TOWNNAME":"歸仁區","LI":"辜厝里","LIN":"27鄰","STREET":"大順三街","SECT":" ","MAREA":" ","LANE":" ","ALLEY":" ","HOUSE_NO":"１１號","E_COORD97":177374.53,"N_COORD97":2540565.1499999999,"ADDRESS":"大順三街１１號","OBJECTID":597145},"geometry":{"x":177374.53000000119,"y":2540565.1500000004}},{"attributes":{"ID":597173,"DIS_CODE":0,"TOWNNAME":"歸仁區","LI":"許厝里","LIN":"27鄰","STREET":"大仁街","SECT":" ","MAREA":" ","LANE":" ","ALLEY":" ","HOUSE_NO":"２４號","E_COORD97":177939.35000000001,"N_COORD97":2540799.04,"ADDRESS":"大仁街２４號","OBJECTID":597146},"geometry":{"x":177939.35000000149,"y":2540799.0400000028}},{"attributes":{"ID":597174,"DIS_CODE":0,"TOWNNAME":"歸仁區","LI":"許厝里","LIN":"27鄰","STREET":"信義北路","SECT":" ","MAREA":" ","LANE":" ","ALLEY":" ","HOUSE_NO":"９號","E_COORD97":177981.25,"N_COORD97":2540779.04,"ADDRESS":"信義北路９號","OBJECTID":597147},"geometry":{"x":177981.25000000093,"y":2540779.040000001}},{"attributes":{"ID":597175,"DIS_CODE":0,"TOWNNAME":"歸仁區","LI":"南保里","LIN":"27鄰","STREET":"民權北路","SECT":" ","MAREA":" ","LANE":" ","ALLEY":" ","HOUSE_NO":"７５號","E_COORD97":176983.01000000001,"N_COORD97":2541054.25,"ADDRESS":"民權北路７５號","OBJECTID":597148},"geometry":{"x":176983.01000000071,"y":2541054.2500000019}},{"attributes":{"ID":597176,"DIS_CODE":0,"TOWNNAME":"歸仁區","LI":"許厝里","LIN":"27鄰","STREET":"信義北路","SECT":" ","MAREA":" ","LANE":" ","ALLEY":" ","HOUSE_NO":"１號","E_COORD97":177982.25,"N_COORD97":2540759.0299999998,"ADDRESS":"信義北路１號","OBJECTID":597149},"geometry":{"x":177982.25,"y":2540759.0300000012}},{"attributes":{"ID":597177,"DIS_CODE":0,"TOWNNAME":"歸仁區","LI":"許厝里","LIN":"27鄰","STREET":"大仁街","SECT":" ","MAREA":" ","LANE":" ","ALLEY":" ","HOUSE_NO":"４０號","E_COORD97":177971.25,"N_COORD97":2540822.04,"ADDRESS":"大仁街４０號","OBJECTID":597150},"geometry":{"x":177971.25000000093,"y":2540822.0399999991}},{"attributes":{"ID":597178,"DIS_CODE":0,"TOWNNAME":"歸仁區","LI":"許厝里","LIN":"27鄰","STREET":"大仁街","SECT":" ","MAREA":" ","LANE":" ","ALLEY":" ","HOUSE_NO":"３２號","E_COORD97":177957.85000000001,"N_COORD97":2540815.04,"ADDRESS":"大仁街３２號","OBJECTID":597151},"geometry":{"x":177957.85000000149,"y":2540815.0399999991}},{"attributes":{"ID":597179,"DIS_CODE":0,"TOWNNAME":"歸仁區","LI":"辜厝里","LIN":"27鄰","STREET":"大順三街","SECT":" ","MAREA":" ","LANE":" ","ALLEY":" ","HOUSE_NO":"１７號","E_COORD97":177378.53,"N_COORD97":2540554.1499999999,"ADDRESS":"大順三街１７號","OBJECTID":597152},"geometry":{"x":177378.53000000026,"y":2540554.1500000004}},{"attributes":{"ID":597180,"DIS_CODE":0,"TOWNNAME":"歸仁區","LI":"南保里","LIN":"27鄰","STREET":"民權北路","SECT":" ","MAREA":" ","LANE":" ","ALLEY":" ","HOUSE_NO":"９３號","E_COORD97":176988.31,"N_COORD97":2541087.25,"ADDRESS":"民權北路９３號","OBJECTID":597153},"geometry":{"x":176988.30999999959,"y":2541087.2500000019}},{"attributes":{"ID":597181,"DIS_CODE":0,"TOWNNAME":"永康區","LI":"五王里","LIN":"36鄰","STREET":"中華路","SECT":" ","MAREA":" ","LANE":" ","ALLEY":" ","HOUSE_NO":"５９８號之１０","E_COORD97":171216.64000000001,"N_COORD97":2545942.04,"ADDRESS":"中華路５９８號之１０","OBJECTID":597154},"geometry":{"x":171216.6400000006,"y":2545942.0400000028}},{"attributes":{"ID":597182,"DIS_CODE":0,"TOWNNAME":"永康區","LI":"三民里","LIN":"14鄰","STREET":"和平東路","SECT":" ","MAREA":" ","LANE":" ","ALLEY":" ","HOUSE_NO":"８６號","E_COORD97":174886.73000000001,"N_COORD97":2550679,"ADDRESS":"和平東路８６號","OBJECTID":597155},"geometry":{"x":174886.73000000138,"y":2550679}},{"attributes":{"ID":597183,"DIS_CODE":0,"TOWNNAME":"永康區","LI":"大橋里","LIN":"12鄰","STREET":"大橋二街","SECT":" ","MAREA":" ","LANE":" ","ALLEY":" ","HOUSE_NO":"２１５號","E_COORD97":171060.51000000001,"N_COORD97":2546772.4900000002,"ADDRESS":"大橋二街２１５號","OBJECTID":597156},"geometry":{"x":171060.50999999978,"y":2546772.4900000002}},{"attributes":{"ID":597184,"DIS_CODE":0,"TOWNNAME":"永康區","LI":"王行里","LIN":"16鄰","STREET":"中山北路","SECT":" ","MAREA":" ","LANE":" ","ALLEY":" ","HOUSE_NO":"７７３號","E_COORD97":175989.95000000001,"N_COORD97":2547930.4900000002,"ADDRESS":"中山北路７７３號","OBJECTID":597157},"geometry":{"x":175989.95000000112,"y":2547930.4900000039}},{"attributes":{"ID":597185,"DIS_CODE":0,"TOWNNAME":"永康區","LI":"大橋里","LIN":"27鄰","STREET":"大橋一街","SECT":" ","MAREA":" ","LANE":" ","ALLEY":" ","HOUSE_NO":"２５５號","E_COORD97":171318.42999999999,"N_COORD97":2546684.9900000002,"ADDRESS":"大橋一街２５５號","OBJECTID":597158},"geometry":{"x":171318.4299999997,"y":2546684.9900000002}},{"attributes":{"ID":597186,"DIS_CODE":0,"TOWNNAME":"永康區","LI":"中興里","LIN":"22鄰","STREET":"中華路","SECT":" ","MAREA":" ","LANE":" ","ALLEY":" ","HOUSE_NO":"１９６號之６","E_COORD97":171633.35999999999,"N_COORD97":2544991.2999999998,"ADDRESS":"中華路１９６號之６","OBJECTID":597159},"geometry":{"x":171633.36000000034,"y":2544991.3000000007}},{"attributes":{"ID":597187,"DIS_CODE":0,"TOWNNAME":"永康區","LI":"大橋里","LIN":"5鄰","STREET":"大橋三街","SECT":" ","MAREA":" ","LANE":" ","ALLEY":" ","HOUSE_NO":"１８５號","E_COORD97":170827.98000000001,"N_COORD97":2546759.3700000001,"ADDRESS":"大橋三街１８５號","OBJECTID":597160},"geometry":{"x":170827.98000000231,"y":2546759.3700000029}},{"attributes":{"ID":597188,"DIS_CODE":0,"TOWNNAME":"永康區","LI":"大橋里","LIN":"18鄰","STREET":"大橋二街","SECT":" ","MAREA":" ","LANE":" ","ALLEY":" ","HOUSE_NO":"１８６號","E_COORD97":171103,"N_COORD97":2546778.8500000001,"ADDRESS":"大橋二街１８６號","OBJECTID":597161},"geometry":{"x":171103,"y":2546778.8500000015}},{"attributes":{"ID":597189,"DIS_CODE":0,"TOWNNAME":"永康區","LI":"大灣里","LIN":"25鄰","STREET":"民族路","SECT":" ","MAREA":" ","LANE":" ","ALLEY":" ","HOUSE_NO":"２３８號","E_COORD97":175055.35999999999,"N_COORD97":2545153.1600000001,"ADDRESS":"民族路２３８號","OBJECTID":597162},"geometry":{"x":175055.36000000127,"y":2545153.160000002}},{"attributes":{"ID":597190,"DIS_CODE":0,"TOWNNAME":"永康區","LI":"中興里","LIN":"6鄰","STREET":"中山東路","SECT":" ","MAREA":" ","LANE":" ","ALLEY":" ","HOUSE_NO":"４６８號","E_COORD97":171942.72,"N_COORD97":2545034.2400000002,"ADDRESS":"中山東路４６８號","OBJECTID":597163},"geometry":{"x":171942.7200000016,"y":2545034.2400000021}},{"attributes":{"ID":597191,"DIS_CODE":0,"TOWNNAME":"永康區","LI":"五王里","LIN":"12鄰","STREET":"中山東路","SECT":" ","MAREA":" ","LANE":" ","ALLEY":" ","HOUSE_NO":"２０８號","E_COORD97":171771.20999999999,"N_COORD97":2545769.1000000001,"ADDRESS":"中山東路２０８號","OBJECTID":597164},"geometry":{"x":171771.20999999996,"y":2545769.1000000034}},{"attributes":{"ID":597192,"DIS_CODE":0,"TOWNNAME":"永康區","LI":"大橋里","LIN":"28鄰","STREET":"中華路","SECT":" ","MAREA":" ","LANE":" ","ALLEY":" ","HOUSE_NO":"６４２號","E_COORD97":171096.09,"N_COORD97":2546110.5,"ADDRESS":"中華路６４２號","OBJECTID":597165},"geometry":{"x":171096.09000000171,"y":2546110.5000000019}},{"attributes":{"ID":597193,"DIS_CODE":0,"TOWNNAME":"新營區","LI":"大宏里","LIN":"27鄰","STREET":"綠川路","SECT":" ","MAREA":" ","LANE":" ","ALLEY":" ","HOUSE_NO":"１１號","E_COORD97":180894.98000000001,"N_COORD97":2578823.2200000002,"ADDRESS":"綠川路１１號","OBJECTID":597166},"geometry":{"x":180894.98000000045,"y":2578823.2200000025}},{"attributes":{"ID":597194,"DIS_CODE":0,"TOWNNAME":"新營區","LI":"新南里","LIN":"27鄰","STREET":"隋唐街","SECT":" ","MAREA":" ","LANE":" ","ALLEY":" ","HOUSE_NO":"３９７號","E_COORD97":177920.79999999999,"N_COORD97":2578597.0899999999,"ADDRESS":"隋唐街３９７號","OBJECTID":597167},"geometry":{"x":177920.79999999981,"y":2578597.0899999999}},{"attributes":{"ID":597195,"DIS_CODE":0,"TOWNNAME":"新營區","LI":"三仙里","LIN":"27鄰","STREET":"健康路","SECT":" ","MAREA":" ","LANE":" ","ALLEY":" ","HOUSE_NO":"１０９號","E_COORD97":179640.87,"N_COORD97":2579182.4199999999,"ADDRESS":"健康路１０９號","OBJECTID":597168},"geometry":{"x":179640.87000000011,"y":2579182.4199999999}},{"attributes":{"ID":597196,"DIS_CODE":0,"TOWNNAME":"新營區","LI":"三仙里","LIN":"27鄰","STREET":"健康路","SECT":" ","MAREA":" ","LANE":" ","ALLEY":" ","HOUSE_NO":"１０３號","E_COORD97":179640.87,"N_COORD97":2579182.4199999999,"ADDRESS":"健康路１０３號","OBJECTID":597169},"geometry":{"x":179640.87000000011,"y":2579182.4199999999}},{"attributes":{"ID":597197,"DIS_CODE":0,"TOWNNAME":"新營區","LI":"三仙里","LIN":"27鄰","STREET":"健康路","SECT":" ","MAREA":" ","LANE":" ","ALLEY":" ","HOUSE_NO":"１０５號","E_COORD97":179640.87,"N_COORD97":2579182.4199999999,"ADDRESS":"健康路１０５號","OBJECTID":597170},"geometry":{"x":179640.87000000011,"y":2579182.4199999999}},{"attributes":{"ID":597198,"DIS_CODE":0,"TOWNNAME":"新營區","LI":"新北里","LIN":"27鄰","STREET":"民生路","SECT":" ","MAREA":" ","LANE":" ","ALLEY":" ","HOUSE_NO":"４６３－１號","E_COORD97":178757.22,"N_COORD97":2579317.3300000001,"ADDRESS":"民生路４６３－１號","OBJECTID":597171},"geometry":{"x":178757.21999999881,"y":2579317.3300000019}},{"attributes":{"ID":597199,"DIS_CODE":0,"TOWNNAME":"新營區","LI":"新北里","LIN":"27鄰","STREET":"民生路","SECT":" ","MAREA":" ","LANE":" ","ALLEY":" ","HOUSE_NO":"４６５－１號","E_COORD97":178747.51000000001,"N_COORD97":2579329.9199999999,"ADDRESS":"民生路４６５－１號","OBJECTID":597172},"geometry":{"x":178747.51000000071,"y":2579329.9200000018}},{"attributes":{"ID":597200,"DIS_CODE":0,"TOWNNAME":"新營區","LI":"新北里","LIN":"27鄰","STREET":"民生路","SECT":" ","MAREA":" ","LANE":" ","ALLEY":" ","HOUSE_NO":"４６５－２號","E_COORD97":178741.66,"N_COORD97":2579336.9100000001,"ADDRESS":"民生路４６５－２號","OBJECTID":597173},"geometry":{"x":178741.66000000108,"y":2579336.910000002}},{"attributes":{"ID":597201,"DIS_CODE":0,"TOWNNAME":"永康區","LI":"五王里","LIN":"36鄰","STREET":"中華路","SECT":" ","MAREA":" ","LANE":" ","ALLEY":" ","HOUSE_NO":"５９８號之１５","E_COORD97":171214.39999999999,"N_COORD97":2545957.54,"ADDRESS":"中華路５９８號之１５","OBJECTID":597174},"geometry":{"x":171214.40000000037,"y":2545957.5399999991}},{"attributes":{"ID":597202,"DIS_CODE":0,"TOWNNAME":"永康區","LI":"三合里","LIN":"25鄰","STREET":"中山東路","SECT":" ","MAREA":" ","LANE":" ","ALLEY":" ","HOUSE_NO":"１８１號","E_COORD97":171805.92000000001,"N_COORD97":2545713.6499999999,"ADDRESS":"中山東路１８１號","OBJECTID":597175},"geometry":{"x":171805.92000000179,"y":2545713.6500000022}},{"attributes":{"ID":597203,"DIS_CODE":0,"TOWNNAME":"新營區","LI":"新東里","LIN":"27鄰","STREET":"東興五街","SECT":" ","MAREA":" ","LANE":" ","ALLEY":" ","HOUSE_NO":"２０號","E_COORD97":180678.57999999999,"N_COORD97":2579534.79,"ADDRESS":"東興五街２０號","OBJECTID":597176},"geometry":{"x":180678.58000000007,"y":2579534.7899999991}},{"attributes":{"ID":597204,"DIS_CODE":0,"TOWNNAME":"新營區","LI":"新東里","LIN":"27鄰","STREET":"東興五街","SECT":" ","MAREA":" ","LANE":" ","ALLEY":" ","HOUSE_NO":"２２號","E_COORD97":180673.48000000001,"N_COORD97":2579534.75,"ADDRESS":"東興五街２２號","OBJECTID":597177},"geometry":{"x":180673.47999999952,"y":2579534.7500000019}},{"attributes":{"ID":597205,"DIS_CODE":0,"TOWNNAME":"新營區","LI":"新東里","LIN":"27鄰","STREET":"東興五街","SECT":" ","MAREA":" ","LANE":" ","ALLEY":" ","HOUSE_NO":"２６號","E_COORD97":180669.12,"N_COORD97":2579534.6200000001,"ADDRESS":"東興五街２６號","OBJECTID":597178},"geometry":{"x":180669.12000000104,"y":2579534.620000001}},{"attributes":{"ID":597206,"DIS_CODE":0,"TOWNNAME":"新營區","LI":"新東里","LIN":"27鄰","STREET":"東興五街","SECT":" ","MAREA":" ","LANE":" ","ALLEY":" ","HOUSE_NO":"２８號","E_COORD97":180665.12,"N_COORD97":2579534.5299999998,"ADDRESS":"東興五街２８號","OBJECTID":597179},"geometry":{"x":180665.12000000011,"y":2579534.5300000012}},{"attributes":{"ID":597207,"DIS_CODE":0,"TOWNNAME":"新營區","LI":"民榮里","LIN":"27鄰","STREET":"復興路","SECT":" ","MAREA":" ","LANE":" ","ALLEY":" ","HOUSE_NO":"４０３－１號","E_COORD97":178315.35999999999,"N_COORD97":2578227.25,"ADDRESS":"復興路４０３－１號","OBJECTID":597180},"geometry":{"x":178315.36000000127,"y":2578227.25}},{"attributes":{"ID":597208,"DIS_CODE":0,"TOWNNAME":"新營區","LI":"新南里","LIN":"27鄰","STREET":"隋唐街","SECT":" ","MAREA":" ","LANE":" ","ALLEY":" ","HOUSE_NO":"３５５號","E_COORD97":178044.37,"N_COORD97":2578588.23,"ADDRESS":"隋唐街３５５號","OBJECTID":597181},"geometry":{"x":178044.37000000011,"y":2578588.2300000042}},{"attributes":{"ID":597209,"DIS_CODE":0,"TOWNNAME":"新營區","LI":"新南里","LIN":"27鄰","STREET":"隋唐街","SECT":" ","MAREA":" ","LANE":" ","ALLEY":" ","HOUSE_NO":"３５７號","E_COORD97":178039.34,"N_COORD97":2578588.1200000001,"ADDRESS":"隋唐街３５７號","OBJECTID":597182},"geometry":{"x":178039.33999999985,"y":2578588.120000001}},{"attributes":{"ID":597210,"DIS_CODE":0,"TOWNNAME":"新營區","LI":"新南里","LIN":"27鄰","STREET":"隋唐街","SECT":" ","MAREA":" ","LANE":" ","ALLEY":" ","HOUSE_NO":"３５９號","E_COORD97":178034.20999999999,"N_COORD97":2578588.2599999998,"ADDRESS":"隋唐街３５９號","OBJECTID":597183},"geometry":{"x":178034.21000000089,"y":2578588.2600000016}},{"attributes":{"ID":597211,"DIS_CODE":0,"TOWNNAME":"新營區","LI":"新南里","LIN":"27鄰","STREET":"隋唐街","SECT":" ","MAREA":" ","LANE":" ","ALLEY":" ","HOUSE_NO":"３６１之２號","E_COORD97":178054.57000000001,"N_COORD97":2578563.21,"ADDRESS":"隋唐街３６１之２號","OBJECTID":597184},"geometry":{"x":178054.5700000003,"y":2578563.2100000028}},{"attributes":{"ID":597212,"DIS_CODE":0,"TOWNNAME":"新營區","LI":"新南里","LIN":"27鄰","STREET":"隋唐街","SECT":" ","MAREA":" ","LANE":" ","ALLEY":" ","HOUSE_NO":"３６１號","E_COORD97":178028.95000000001,"N_COORD97":2578588.4700000002,"ADDRESS":"隋唐街３６１號","OBJECTID":597185},"geometry":{"x":178028.95000000205,"y":2578588.4700000007}},{"attributes":{"ID":597213,"DIS_CODE":0,"TOWNNAME":"新營區","LI":"新南里","LIN":"27鄰","STREET":"隋唐街","SECT":" ","MAREA":" ","LANE":" ","ALLEY":" ","HOUSE_NO":"３６３之１號","E_COORD97":178025.95999999999,"N_COORD97":2578570.48,"ADDRESS":"隋唐街３６３之１號","OBJECTID":597186},"geometry":{"x":178025.96000000089,"y":2578570.4800000023}},{"attributes":{"ID":597214,"DIS_CODE":0,"TOWNNAME":"新營區","LI":"新南里","LIN":"27鄰","STREET":"隋唐街","SECT":" ","MAREA":" ","LANE":" ","ALLEY":" ","HOUSE_NO":"３６３之２號","E_COORD97":178026.20999999999,"N_COORD97":2578564.75,"ADDRESS":"隋唐街３６３之２號","OBJECTID":597187},"geometry":{"x":178026.20999999996,"y":2578564.7500000019}},{"attributes":{"ID":597215,"DIS_CODE":0,"TOWNNAME":"永康區","LI":"三民里","LIN":"3鄰","STREET":"三民街","SECT":" ","MAREA":" ","LANE":" ","ALLEY":" ","HOUSE_NO":"６７號","E_COORD97":172894.92000000001,"N_COORD97":2550266.79,"ADDRESS":"三民街６７號","OBJECTID":597188},"geometry":{"x":172894.92000000086,"y":2550266.790000001}},{"attributes":{"ID":597216,"DIS_CODE":0,"TOWNNAME":"永康區","LI":"大灣里","LIN":"24鄰","STREET":"民族路","SECT":" ","MAREA":" ","LANE":" ","ALLEY":" ","HOUSE_NO":"３４３號","E_COORD97":174996.34,"N_COORD97":2545185.6099999999,"ADDRESS":"民族路３４３號","OBJECTID":597189},"geometry":{"x":174996.33999999985,"y":2545185.6099999975}},{"attributes":{"ID":597217,"DIS_CODE":0,"TOWNNAME":"永康區","LI":"二王里","LIN":"15鄰","STREET":"忠孝路","SECT":" ","MAREA":" ","LANE":" ","ALLEY":" ","HOUSE_NO":"４５４號","E_COORD97":172486.51999999999,"N_COORD97":2546630.77,"ADDRESS":"忠孝路４５４號","OBJECTID":597190},"geometry":{"x":172486.52000000048,"y":2546630.7700000014}},{"attributes":{"ID":597218,"DIS_CODE":0,"TOWNNAME":"永康區","LI":"二王里","LIN":"6鄰","STREET":"永二街","SECT":" ","MAREA":" ","LANE":" ","ALLEY":" ","HOUSE_NO":"３８６號","E_COORD97":172846.98999999999,"N_COORD97":2546665.4199999999,"ADDRESS":"永二街３８６號","OBJECTID":597191},"geometry":{"x":172846.99000000115,"y":2546665.4199999999}},{"attributes":{"ID":597219,"DIS_CODE":0,"TOWNNAME":"永康區","LI":"大灣里","LIN":"19鄰","STREET":"大灣路","SECT":" ","MAREA":" ","LANE":" ","ALLEY":" ","HOUSE_NO":"３５８號","E_COORD97":174835.56,"N_COORD97":2545117.2400000002,"ADDRESS":"大灣路３５８號","OBJECTID":597192},"geometry":{"x":174835.56000000145,"y":2545117.2400000002}},{"attributes":{"ID":597220,"DIS_CODE":0,"TOWNNAME":"永康區","LI":"大橋里","LIN":"23鄰","STREET":"大橋一街","SECT":" ","MAREA":" ","LANE":" ","ALLEY":" ","HOUSE_NO":"２０９號","E_COORD97":171202.51999999999,"N_COORD97":2546603.7400000002,"ADDRESS":"大橋一街２０９號","OBJECTID":597193},"geometry":{"x":171202.51999999955,"y":2546603.7400000021}},{"attributes":{"ID":597221,"DIS_CODE":0,"TOWNNAME":"永康區","LI":"三合里","LIN":"16鄰","STREET":"南工街","SECT":" ","MAREA":" ","LANE":" ","ALLEY":" ","HOUSE_NO":"２５５號","E_COORD97":171957.12,"N_COORD97":2545951.9900000002,"ADDRESS":"南工街２５５號","OBJECTID":597194},"geometry":{"x":171957.12000000011,"y":2545951.9900000002}},{"attributes":{"ID":597222,"DIS_CODE":0,"TOWNNAME":"新營區","LI":"新南里","LIN":"27鄰","STREET":"隋唐街","SECT":" ","MAREA":" ","LANE":" ","ALLEY":" ","HOUSE_NO":"３６３號","E_COORD97":178018.54999999999,"N_COORD97":2578589.7999999998,"ADDRESS":"隋唐街３６３號","OBJECTID":597195},"geometry":{"x":178018.55000000075,"y":2578589.8000000007}},{"attributes":{"ID":597223,"DIS_CODE":0,"TOWNNAME":"新營區","LI":"新南里","LIN":"27鄰","STREET":"隋唐街","SECT":" ","MAREA":" ","LANE":" ","ALLEY":" ","HOUSE_NO":"３６５號","E_COORD97":178013.67999999999,"N_COORD97":2578589.77,"ADDRESS":"隋唐街３６５號","OBJECTID":597196},"geometry":{"x":178013.68000000063,"y":2578589.7699999996}},{"attributes":{"ID":597224,"DIS_CODE":0,"TOWNNAME":"新營區","LI":"新南里","LIN":"27鄰","STREET":"隋唐街","SECT":" ","MAREA":" ","LANE":" ","ALLEY":" ","HOUSE_NO":"３６７號","E_COORD97":178009.39000000001,"N_COORD97":2578590.2799999998,"ADDRESS":"隋唐街３６７號","OBJECTID":597197},"geometry":{"x":178009.38999999966,"y":2578590.2800000012}},{"attributes":{"ID":597225,"DIS_CODE":0,"TOWNNAME":"楠西區","LI":"楠西里","LIN":"27鄰","STREET":"中正路","SECT":" ","MAREA":" ","LANE":" ","ALLEY":" ","HOUSE_NO":"３８８號之８","E_COORD97":197478.54999999999,"N_COORD97":2562954.2999999998,"ADDRESS":"中正路３８８號之８","OBJECTID":597198},"geometry":{"x":197478.55000000168,"y":2562954.3000000007}},{"attributes":{"ID":597226,"DIS_CODE":0,"TOWNNAME":"新營區","LI":"新南里","LIN":"27鄰","STREET":"隋唐街","SECT":" ","MAREA":" ","LANE":" ","ALLEY":" ","HOUSE_NO":"３６１之１號","E_COORD97":178054.85000000001,"N_COORD97":2578568.8100000001,"ADDRESS":"隋唐街３６１之１號","OBJECTID":597199},"geometry":{"x":178054.85000000056,"y":2578568.8100000024}},{"attributes":{"ID":597227,"DIS_CODE":0,"TOWNNAME":"楠西區","LI":"楠西里","LIN":"27鄰","STREET":"博愛路","SECT":" ","MAREA":" ","LANE":" ","ALLEY":" ","HOUSE_NO":"６７號","E_COORD97":197344.92000000001,"N_COORD97":2563457.2799999998,"ADDRESS":"博愛路６７號","OBJECTID":597200},"geometry":{"x":197344.91999999993,"y":2563457.2799999993}}]}