{"displayFieldName":"TOWNNAME","fieldAliases":{"ID":"ID","DIS_CODE":"DIS_CODE","TOWNNAME":"TOWNNAME","LI":"LI","LIN":"LIN","STREET":"STREET","SECT":"SECT","MAREA":"MAREA","LANE":"LANE","ALLEY":"ALLEY","HOUSE_NO":"HOUSE_NO","E_COORD97":"E_COORD97","N_COORD97":"N_COORD97","ADDRESS":"ADDRESS","OBJECTID":"OBJECTID"},"geometryType":"esriGeometryPoint","spatialReference":{"wkid":102443,"latestWkid":3826},"fields":[{"name":"ID","type":"esriFieldTypeDouble","alias":"ID"},{"name":"DIS_CODE","type":"esriFieldTypeInteger","alias":"DIS_CODE"},{"name":"TOWNNAME","type":"esriFieldTypeString","alias":"TOWNNAME","length":8},{"name":"LI","type":"esriFieldTypeString","alias":"LI","length":8},{"name":"LIN","type":"esriFieldTypeString","alias":"LIN","length":12},{"name":"STREET","type":"esriFieldTypeString","alias":"STREET","length":20},{"name":"SECT","type":"esriFieldTypeString","alias":"SECT","length":8},{"name":"MAREA","type":"esriFieldTypeString","alias":"MAREA","length":12},{"name":"LANE","type":"esriFieldTypeString","alias":"LANE","length":10},{"name":"ALLEY","type":"esriFieldTypeString","alias":"ALLEY","length":10},{"name":"HOUSE_NO","type":"esriFieldTypeString","alias":"HOUSE_NO","length":20},{"name":"E_COORD97","type":"esriFieldTypeDouble","alias":"E_COORD97"},{"name":"N_COORD97","type":"esriFieldTypeDouble","alias":"N_COORD97"},{"name":"ADDRESS","type":"esriFieldTypeString","alias":"ADDRESS","length":50},{"name":"OBJECTID","type":"esriFieldTypeOID","alias":"OBJECTID"}],"features":[{"attributes":{"ID":576228,"DIS_CODE":0,"TOWNNAME":"永康區","LI":"\u25A0洲里","LIN":"23鄰","STREET":"中正南路","SECT":" ","MAREA":" ","LANE":" ","ALLEY":" ","HOUSE_NO":"６３５號","E_COORD97":171293.91,"N_COORD97":2548623.5,"ADDRESS":"中正南路６３５號","OBJECTID":576201},"geometry":{"x":171293.91000000015,"y":2548623.5}},{"attributes":{"ID":576229,"DIS_CODE":0,"TOWNNAME":"永康區","LI":"三合里","LIN":"1鄰","STREET":"南工街","SECT":" ","MAREA":" ","LANE":" ","ALLEY":" ","HOUSE_NO":"６號","E_COORD97":172117,"N_COORD97":2545469.98,"ADDRESS":"南工街６號","OBJECTID":576202},"geometry":{"x":172117,"y":2545469.9800000023}},{"attributes":{"ID":576230,"DIS_CODE":0,"TOWNNAME":"永康區","LI":"\u25A0洲里","LIN":"23鄰","STREET":"正南六街","SECT":" ","MAREA":" ","LANE":" ","ALLEY":" ","HOUSE_NO":"２７號","E_COORD97":171042.98999999999,"N_COORD97":2548456.7400000002,"ADDRESS":"正南六街２７號","OBJECTID":576203},"geometry":{"x":171042.99000000209,"y":2548456.7400000002}},{"attributes":{"ID":576231,"DIS_CODE":0,"TOWNNAME":"永康區","LI":"甲頂里","LIN":"23鄰","STREET":"中正南路","SECT":" ","MAREA":" ","LANE":" ","ALLEY":" ","HOUSE_NO":"９０號","E_COORD97":169672.85000000001,"N_COORD97":2546843.1200000001,"ADDRESS":"中正南路９０號","OBJECTID":576204},"geometry":{"x":169672.84999999963,"y":2546843.1200000029}},{"attributes":{"ID":576232,"DIS_CODE":0,"TOWNNAME":"永康區","LI":"勝利里","LIN":"23鄰","STREET":"中華一路","SECT":" ","MAREA":" ","LANE":" ","ALLEY":" ","HOUSE_NO":"２０５號","E_COORD97":171440.45999999999,"N_COORD97":2544959.25,"ADDRESS":"中華一路２０５號","OBJECTID":576205},"geometry":{"x":171440.45999999996,"y":2544959.2500000019}},{"attributes":{"ID":576233,"DIS_CODE":0,"TOWNNAME":"永康區","LI":"二王里","LIN":"3鄰","STREET":"永二街","SECT":" ","MAREA":" ","LANE":" ","ALLEY":" ","HOUSE_NO":"３３６號之６","E_COORD97":172998.31,"N_COORD97":2546634.7200000002,"ADDRESS":"永二街３３６號之６","OBJECTID":576206},"geometry":{"x":172998.31000000052,"y":2546634.7200000025}},{"attributes":{"ID":576234,"DIS_CODE":0,"TOWNNAME":"永康區","LI":"二王里","LIN":"5鄰","STREET":"永二街","SECT":" ","MAREA":" ","LANE":" ","ALLEY":" ","HOUSE_NO":"３４８號","E_COORD97":172952.29999999999,"N_COORD97":2546635.3300000001,"ADDRESS":"永二街３４８號","OBJECTID":576207},"geometry":{"x":172952.29999999981,"y":2546635.3300000001}},{"attributes":{"ID":576235,"DIS_CODE":0,"TOWNNAME":"永康區","LI":"三合里","LIN":"13鄰","STREET":"南工街","SECT":" ","MAREA":" ","LANE":" ","ALLEY":" ","HOUSE_NO":"１８１號","E_COORD97":172018.23000000001,"N_COORD97":2545833.0699999998,"ADDRESS":"南工街１８１號","OBJECTID":576208},"geometry":{"x":172018.23000000138,"y":2545833.0700000003}},{"attributes":{"ID":576236,"DIS_CODE":0,"TOWNNAME":"永康區","LI":"三合里","LIN":"8鄰","STREET":"南工街","SECT":" ","MAREA":" ","LANE":" ","ALLEY":" ","HOUSE_NO":"１４３號之３","E_COORD97":172091.92999999999,"N_COORD97":2545820.46,"ADDRESS":"南工街１４３號之３","OBJECTID":576209},"geometry":{"x":172091.92999999877,"y":2545820.4600000028}},{"attributes":{"ID":576237,"DIS_CODE":0,"TOWNNAME":"永康區","LI":"勝利里","LIN":"23鄰","STREET":"中華一路","SECT":" ","MAREA":" ","LANE":" ","ALLEY":" ","HOUSE_NO":"２４６號","E_COORD97":171387.73000000001,"N_COORD97":2544987.5,"ADDRESS":"中華一路２４６號","OBJECTID":576210},"geometry":{"x":171387.73000000138,"y":2544987.5000000019}},{"attributes":{"ID":576238,"DIS_CODE":0,"TOWNNAME":"永康區","LI":"崑山里","LIN":"23鄰","STREET":"國光一街","SECT":" ","MAREA":" ","LANE":" ","ALLEY":" ","HOUSE_NO":"６８號","E_COORD97":173856.67999999999,"N_COORD97":2544637.5699999998,"ADDRESS":"國光一街６８號","OBJECTID":576211},"geometry":{"x":173856.68000000156,"y":2544637.5699999984}},{"attributes":{"ID":576239,"DIS_CODE":0,"TOWNNAME":"永康區","LI":"勝利里","LIN":"23鄰","STREET":"中華一路","SECT":" ","MAREA":" ","LANE":" ","ALLEY":" ","HOUSE_NO":"２４８號","E_COORD97":171383.54000000001,"N_COORD97":2544987.5,"ADDRESS":"中華一路２４８號","OBJECTID":576212},"geometry":{"x":171383.54000000097,"y":2544987.5000000019}},{"attributes":{"ID":576240,"DIS_CODE":0,"TOWNNAME":"永康區","LI":"勝利里","LIN":"23鄰","STREET":"中華一路","SECT":" ","MAREA":" ","LANE":" ","ALLEY":" ","HOUSE_NO":"１９１號","E_COORD97":171476.64999999999,"N_COORD97":2544956.5,"ADDRESS":"中華一路１９１號","OBJECTID":576213},"geometry":{"x":171476.6500000013,"y":2544956.5000000037}},{"attributes":{"ID":576241,"DIS_CODE":0,"TOWNNAME":"永康區","LI":"崑山里","LIN":"23鄰","STREET":"國光一街","SECT":" ","MAREA":" ","LANE":" ","ALLEY":" ","HOUSE_NO":"５８號","E_COORD97":173878.42999999999,"N_COORD97":2544630.0699999998,"ADDRESS":"國光一街５８號","OBJECTID":576214},"geometry":{"x":173878.4299999997,"y":2544630.0700000003}},{"attributes":{"ID":576242,"DIS_CODE":0,"TOWNNAME":"永康區","LI":"勝利里","LIN":"23鄰","STREET":"中華一路","SECT":" ","MAREA":" ","LANE":" ","ALLEY":" ","HOUSE_NO":"１８７號","E_COORD97":171485.48000000001,"N_COORD97":2544956,"ADDRESS":"中華一路１８７號","OBJECTID":576215},"geometry":{"x":171485.48000000045,"y":2544956}},{"attributes":{"ID":576243,"DIS_CODE":0,"TOWNNAME":"永康區","LI":"勝利里","LIN":"23鄰","STREET":"中華一路","SECT":" ","MAREA":" ","LANE":" ","ALLEY":" ","HOUSE_NO":"１８５號","E_COORD97":171489.54999999999,"N_COORD97":2544955.25,"ADDRESS":"中華一路１８５號","OBJECTID":576216},"geometry":{"x":171489.55000000168,"y":2544955.2500000019}},{"attributes":{"ID":576244,"DIS_CODE":0,"TOWNNAME":"永康區","LI":"勝利里","LIN":"23鄰","STREET":"中華一路","SECT":" ","MAREA":" ","LANE":" ","ALLEY":" ","HOUSE_NO":"１８９號","E_COORD97":171481.26000000001,"N_COORD97":2544956,"ADDRESS":"中華一路１８９號","OBJECTID":576217},"geometry":{"x":171481.26000000164,"y":2544956}},{"attributes":{"ID":576245,"DIS_CODE":0,"TOWNNAME":"永康區","LI":"勝利里","LIN":"23鄰","STREET":"中華一路","SECT":" ","MAREA":" ","LANE":" ","ALLEY":" ","HOUSE_NO":"２１７號","E_COORD97":171421.84,"N_COORD97":2544963.25,"ADDRESS":"中華一路２１７號","OBJECTID":576218},"geometry":{"x":171421.84000000078,"y":2544963.2500000019}},{"attributes":{"ID":576246,"DIS_CODE":0,"TOWNNAME":"永康區","LI":"勝利里","LIN":"23鄰","STREET":"中華一路","SECT":" ","MAREA":" ","LANE":" ","ALLEY":" ","HOUSE_NO":"１９９號","E_COORD97":171459.14999999999,"N_COORD97":2544958.25,"ADDRESS":"中華一路１９９號","OBJECTID":576219},"geometry":{"x":171459.1500000013,"y":2544958.2500000037}},{"attributes":{"ID":576247,"DIS_CODE":0,"TOWNNAME":"永康區","LI":"二王里","LIN":"16鄰","STREET":"忠孝路","SECT":" ","MAREA":" ","LANE":" ","ALLEY":" ","HOUSE_NO":"４４０號","E_COORD97":172478.72,"N_COORD97":2546587.29,"ADDRESS":"忠孝路４４０號","OBJECTID":576220},"geometry":{"x":172478.72000000067,"y":2546587.2899999991}},{"attributes":{"ID":576248,"DIS_CODE":0,"TOWNNAME":"永康區","LI":"崑山里","LIN":"23鄰","STREET":"崑山街","SECT":" ","MAREA":" ","LANE":" ","ALLEY":" ","HOUSE_NO":"５３號","E_COORD97":173930.14999999999,"N_COORD97":2544644.3700000001,"ADDRESS":"崑山街５３號","OBJECTID":576221},"geometry":{"x":173930.15000000037,"y":2544644.3700000029}},{"attributes":{"ID":576249,"DIS_CODE":0,"TOWNNAME":"永康區","LI":"二王里","LIN":"6鄰","STREET":"永二街","SECT":" ","MAREA":" ","LANE":" ","ALLEY":" ","HOUSE_NO":"３７８號","E_COORD97":172866.98000000001,"N_COORD97":2546663.9199999999,"ADDRESS":"永二街３７８號","OBJECTID":576222},"geometry":{"x":172866.98000000045,"y":2546663.9200000018}},{"attributes":{"ID":576250,"DIS_CODE":0,"TOWNNAME":"永康區","LI":"三合里","LIN":"23鄰","STREET":"南工街","SECT":" ","MAREA":" ","LANE":" ","ALLEY":" ","HOUSE_NO":"３１９號","E_COORD97":171795.45999999999,"N_COORD97":2546047.52,"ADDRESS":"南工街３１９號","OBJECTID":576223},"geometry":{"x":171795.46000000183,"y":2546047.5199999977}},{"attributes":{"ID":576251,"DIS_CODE":0,"TOWNNAME":"永康區","LI":"三合里","LIN":"23鄰","STREET":"中山東路","SECT":" ","MAREA":" ","LANE":" ","ALLEY":" ","HOUSE_NO":"６５號","E_COORD97":171725.63,"N_COORD97":2546008.0299999998,"ADDRESS":"中山東路６５號","OBJECTID":576224},"geometry":{"x":171725.62999999989,"y":2546008.0300000012}},{"attributes":{"ID":576252,"DIS_CODE":0,"TOWNNAME":"永康區","LI":"勝利里","LIN":"23鄰","STREET":"中華一路","SECT":" ","MAREA":" ","LANE":" ","ALLEY":" ","HOUSE_NO":"２０１號","E_COORD97":171454.56,"N_COORD97":2544959,"ADDRESS":"中華一路２０１號","OBJECTID":576225},"geometry":{"x":171454.55999999959,"y":2544959}},{"attributes":{"ID":576253,"DIS_CODE":0,"TOWNNAME":"永康區","LI":"崑山里","LIN":"23鄰","STREET":"國光一街","SECT":" ","MAREA":" ","LANE":" ","ALLEY":" ","HOUSE_NO":"５４號","E_COORD97":173888.01999999999,"N_COORD97":2544626.5699999998,"ADDRESS":"國光一街５４號","OBJECTID":576226},"geometry":{"x":173888.01999999955,"y":2544626.5700000003}},{"attributes":{"ID":576254,"DIS_CODE":0,"TOWNNAME":"東區","LI":"東明里","LIN":"23鄰","STREET":"東安路","SECT":" ","MAREA":" ","LANE":" ","ALLEY":" ","HOUSE_NO":"２２號","E_COORD97":170680.35999999999,"N_COORD97":2543549.6099999999,"ADDRESS":"東安路２２號","OBJECTID":576227},"geometry":{"x":170680.36000000034,"y":2543549.6100000013}},{"attributes":{"ID":576255,"DIS_CODE":0,"TOWNNAME":"仁德區","LI":"太子里","LIN":"23鄰","STREET":"長興四街","SECT":" ","MAREA":" ","LANE":" ","ALLEY":" ","HOUSE_NO":"９４號","E_COORD97":173812.31,"N_COORD97":2543558,"ADDRESS":"長興四街９４號","OBJECTID":576228},"geometry":{"x":173812.31000000052,"y":2543558.0000000019}},{"attributes":{"ID":576256,"DIS_CODE":0,"TOWNNAME":"永康區","LI":"崑山里","LIN":"23鄰","STREET":"國光一街","SECT":" ","MAREA":" ","LANE":" ","ALLEY":" ","HOUSE_NO":"５２號","E_COORD97":173891.92999999999,"N_COORD97":2544625.6800000002,"ADDRESS":"國光一街５２號","OBJECTID":576229},"geometry":{"x":173891.9299999997,"y":2544625.6799999997}},{"attributes":{"ID":576257,"DIS_CODE":0,"TOWNNAME":"永康區","LI":"龍潭里","LIN":"23鄰","STREET":"龍安街","SECT":" ","MAREA":" ","LANE":" ","ALLEY":" ","HOUSE_NO":"１２１號","E_COORD97":174602.60000000001,"N_COORD97":2548358.02,"ADDRESS":"龍安街１２１號","OBJECTID":576230},"geometry":{"x":174602.59999999963,"y":2548358.0200000014}},{"attributes":{"ID":576258,"DIS_CODE":0,"TOWNNAME":"下營區","LI":"營前里","LIN":"23鄰","STREET":"新進東街","SECT":" ","MAREA":" ","LANE":" ","ALLEY":" ","HOUSE_NO":"１８號","E_COORD97":174783.41,"N_COORD97":2569734.9500000002,"ADDRESS":"新進東街１８號","OBJECTID":576231},"geometry":{"x":174783.41000000108,"y":2569734.9499999993}},{"attributes":{"ID":576259,"DIS_CODE":0,"TOWNNAME":"下營區","LI":"營前里","LIN":"23鄰","STREET":"新進東街","SECT":" ","MAREA":" ","LANE":" ","ALLEY":" ","HOUSE_NO":"１號","E_COORD97":174727.13,"N_COORD97":2569742.3900000001,"ADDRESS":"新進東街１號","OBJECTID":576232},"geometry":{"x":174727.13000000082,"y":2569742.3900000025}},{"attributes":{"ID":576260,"DIS_CODE":0,"TOWNNAME":"下營區","LI":"營前里","LIN":"23鄰","STREET":"新進東街","SECT":" ","MAREA":" ","LANE":" ","ALLEY":" ","HOUSE_NO":"７７號","E_COORD97":174747.82000000001,"N_COORD97":2569877.48,"ADDRESS":"新進東街７７號","OBJECTID":576233},"geometry":{"x":174747.8200000003,"y":2569877.4800000023}},{"attributes":{"ID":576261,"DIS_CODE":0,"TOWNNAME":"下營區","LI":"營前里","LIN":"23鄰","STREET":"新進東街","SECT":" ","MAREA":" ","LANE":" ","ALLEY":" ","HOUSE_NO":"７９號","E_COORD97":174753.32999999999,"N_COORD97":2569880.0299999998,"ADDRESS":"新進東街７９號","OBJECTID":576234},"geometry":{"x":174753.33000000101,"y":2569880.0300000012}},{"attributes":{"ID":576262,"DIS_CODE":0,"TOWNNAME":"歸仁區","LI":"歸南里","LIN":"23鄰","STREET":"民生八街","SECT":" ","MAREA":" ","LANE":" ","ALLEY":" ","HOUSE_NO":"４０號","E_COORD97":176096.39000000001,"N_COORD97":2540351.29,"ADDRESS":"民生八街４０號","OBJECTID":576235},"geometry":{"x":176096.39000000153,"y":2540351.2899999991}},{"attributes":{"ID":576263,"DIS_CODE":0,"TOWNNAME":"下營區","LI":"營前里","LIN":"23鄰","STREET":"新進東街","SECT":" ","MAREA":" ","LANE":" ","ALLEY":" ","HOUSE_NO":"９號","E_COORD97":174751.98999999999,"N_COORD97":2569757.1400000001,"ADDRESS":"新進東街９號","OBJECTID":576236},"geometry":{"x":174751.99000000209,"y":2569757.1400000043}},{"attributes":{"ID":576264,"DIS_CODE":0,"TOWNNAME":"永康區","LI":"三合里","LIN":"15鄰","STREET":"南工街","SECT":" ","MAREA":" ","LANE":" ","ALLEY":" ","HOUSE_NO":"２４１號","E_COORD97":171995.04999999999,"N_COORD97":2545948.4900000002,"ADDRESS":"南工街２４１號","OBJECTID":576237},"geometry":{"x":171995.05000000075,"y":2545948.4900000021}},{"attributes":{"ID":576265,"DIS_CODE":0,"TOWNNAME":"永康區","LI":"三民里","LIN":"12鄰","STREET":"民東路","SECT":" ","MAREA":" ","LANE":" ","ALLEY":" ","HOUSE_NO":"３５號","E_COORD97":174570.82999999999,"N_COORD97":2550421.2799999998,"ADDRESS":"民東路３５號","OBJECTID":576238},"geometry":{"x":174570.83000000007,"y":2550421.2799999993}},{"attributes":{"ID":576266,"DIS_CODE":0,"TOWNNAME":"佳里區","LI":"建南里","LIN":"23鄰","STREET":"祥和二街","SECT":" ","MAREA":" ","LANE":" ","ALLEY":" ","HOUSE_NO":"１８６號","E_COORD97":165591.10000000001,"N_COORD97":2561144.21,"ADDRESS":"祥和二街１８６號","OBJECTID":576239},"geometry":{"x":165591.09999999963,"y":2561144.2100000009}},{"attributes":{"ID":576267,"DIS_CODE":0,"TOWNNAME":"佳里區","LI":"建南里","LIN":"23鄰","STREET":"祥和二街","SECT":" ","MAREA":" ","LANE":" ","ALLEY":" ","HOUSE_NO":"１８８號","E_COORD97":165586.98000000001,"N_COORD97":2561144.6899999999,"ADDRESS":"祥和二街１８８號","OBJECTID":576240},"geometry":{"x":165586.98000000138,"y":2561144.6900000013}},{"attributes":{"ID":576268,"DIS_CODE":0,"TOWNNAME":"佳里區","LI":"建南里","LIN":"23鄰","STREET":"祥和二街","SECT":" ","MAREA":" ","LANE":" ","ALLEY":" ","HOUSE_NO":"１９０號","E_COORD97":165582.84,"N_COORD97":2561144.7599999998,"ADDRESS":"祥和二街１９０號","OBJECTID":576241},"geometry":{"x":165582.83999999985,"y":2561144.7600000016}},{"attributes":{"ID":576269,"DIS_CODE":0,"TOWNNAME":"佳里區","LI":"建南里","LIN":"23鄰","STREET":"祥和二街","SECT":" ","MAREA":" ","LANE":" ","ALLEY":" ","HOUSE_NO":"１９２號","E_COORD97":165578.75,"N_COORD97":2561145.5899999999,"ADDRESS":"祥和二街１９２號","OBJECTID":576242},"geometry":{"x":165578.75,"y":2561145.5900000017}},{"attributes":{"ID":576270,"DIS_CODE":0,"TOWNNAME":"佳里區","LI":"建南里","LIN":"23鄰","STREET":"祥和二街","SECT":" ","MAREA":" ","LANE":" ","ALLEY":" ","HOUSE_NO":"１９４號","E_COORD97":165574.32999999999,"N_COORD97":2561145.9300000002,"ADDRESS":"祥和二街１９４號","OBJECTID":576243},"geometry":{"x":165574.33000000007,"y":2561145.9300000034}},{"attributes":{"ID":576271,"DIS_CODE":0,"TOWNNAME":"佳里區","LI":"建南里","LIN":"23鄰","STREET":"祥和二街","SECT":" ","MAREA":" ","LANE":" ","ALLEY":" ","HOUSE_NO":"１９６號","E_COORD97":165570.35999999999,"N_COORD97":2561146.0899999999,"ADDRESS":"祥和二街１９６號","OBJECTID":576244},"geometry":{"x":165570.36000000127,"y":2561146.0900000017}},{"attributes":{"ID":576272,"DIS_CODE":0,"TOWNNAME":"佳里區","LI":"建南里","LIN":"23鄰","STREET":"祥和二街","SECT":" ","MAREA":" ","LANE":" ","ALLEY":" ","HOUSE_NO":"１９８號","E_COORD97":165565.41,"N_COORD97":2561146.25,"ADDRESS":"祥和二街１９８號","OBJECTID":576245},"geometry":{"x":165565.41000000015,"y":2561146.25}},{"attributes":{"ID":576273,"DIS_CODE":0,"TOWNNAME":"佳里區","LI":"建南里","LIN":"23鄰","STREET":"祥和二街","SECT":" ","MAREA":" ","LANE":" ","ALLEY":" ","HOUSE_NO":"２００號","E_COORD97":165560.76000000001,"N_COORD97":2561146.52,"ADDRESS":"祥和二街２００號","OBJECTID":576246},"geometry":{"x":165560.76000000071,"y":2561146.5200000014}},{"attributes":{"ID":576274,"DIS_CODE":0,"TOWNNAME":"佳里區","LI":"建南里","LIN":"23鄰","STREET":"祥和二街","SECT":" ","MAREA":" ","LANE":" ","ALLEY":" ","HOUSE_NO":"２０２號","E_COORD97":165556.04999999999,"N_COORD97":2561147.0299999998,"ADDRESS":"祥和二街２０２號","OBJECTID":576247},"geometry":{"x":165556.04999999981,"y":2561147.0299999993}},{"attributes":{"ID":576275,"DIS_CODE":0,"TOWNNAME":"佳里區","LI":"建南里","LIN":"23鄰","STREET":"祥和二街","SECT":" ","MAREA":" ","LANE":" ","ALLEY":" ","HOUSE_NO":"２０４號","E_COORD97":165551.98000000001,"N_COORD97":2561147.3199999998,"ADDRESS":"祥和二街２０４號","OBJECTID":576248},"geometry":{"x":165551.98000000045,"y":2561147.320000004}},{"attributes":{"ID":576276,"DIS_CODE":0,"TOWNNAME":"佳里區","LI":"建南里","LIN":"23鄰","STREET":"祥和二街","SECT":" ","MAREA":" ","LANE":" ","ALLEY":" ","HOUSE_NO":"２０６號","E_COORD97":165547.95999999999,"N_COORD97":2561147.7999999998,"ADDRESS":"祥和二街２０６號","OBJECTID":576249},"geometry":{"x":165547.95999999996,"y":2561147.8000000045}},{"attributes":{"ID":576277,"DIS_CODE":0,"TOWNNAME":"佳里區","LI":"建南里","LIN":"23鄰","STREET":"祥和二街","SECT":" ","MAREA":" ","LANE":" ","ALLEY":" ","HOUSE_NO":"２０８號","E_COORD97":165420.32999999999,"N_COORD97":2561162.3900000001,"ADDRESS":"祥和二街２０８號","OBJECTID":576250},"geometry":{"x":165420.33000000007,"y":2561162.3900000006}},{"attributes":{"ID":576278,"DIS_CODE":0,"TOWNNAME":"佳里區","LI":"建南里","LIN":"23鄰","STREET":"祥和二街","SECT":" ","MAREA":" ","LANE":" ","ALLEY":" ","HOUSE_NO":"２１３號","E_COORD97":165590.79000000001,"N_COORD97":2561124.7200000002,"ADDRESS":"祥和二街２１３號","OBJECTID":576251},"geometry":{"x":165590.79000000097,"y":2561124.7200000044}},{"attributes":{"ID":576279,"DIS_CODE":0,"TOWNNAME":"佳里區","LI":"建南里","LIN":"23鄰","STREET":"祥和二街","SECT":" ","MAREA":" ","LANE":" ","ALLEY":" ","HOUSE_NO":"２１５號","E_COORD97":165586.62,"N_COORD97":2561124.9399999999,"ADDRESS":"祥和二街２１５號","OBJECTID":576252},"geometry":{"x":165586.62000000011,"y":2561124.9399999976}},{"attributes":{"ID":576280,"DIS_CODE":0,"TOWNNAME":"佳里區","LI":"建南里","LIN":"23鄰","STREET":"祥和二街","SECT":" ","MAREA":" ","LANE":" ","ALLEY":" ","HOUSE_NO":"２１９號","E_COORD97":165577.92999999999,"N_COORD97":2561125.96,"ADDRESS":"祥和二街２１９號","OBJECTID":576253},"geometry":{"x":165577.93000000063,"y":2561125.9600000009}},{"attributes":{"ID":576281,"DIS_CODE":0,"TOWNNAME":"永康區","LI":"三合里","LIN":"25鄰","STREET":"中山東路","SECT":" ","MAREA":" ","LANE":" ","ALLEY":" ","HOUSE_NO":"１１１號","E_COORD97":171761.39999999999,"N_COORD97":2545893.75,"ADDRESS":"中山東路１１１號","OBJECTID":576254},"geometry":{"x":171761.4000000013,"y":2545893.75}},{"attributes":{"ID":576282,"DIS_CODE":0,"TOWNNAME":"永康區","LI":"三民里","LIN":"14鄰","STREET":"和平東路","SECT":" ","MAREA":" ","LANE":" ","ALLEY":" ","HOUSE_NO":"１４０號","E_COORD97":174770.95999999999,"N_COORD97":2550622.5899999999,"ADDRESS":"和平東路１４０號","OBJECTID":576255},"geometry":{"x":174770.96000000089,"y":2550622.5900000017}},{"attributes":{"ID":576283,"DIS_CODE":0,"TOWNNAME":"佳里區","LI":"建南里","LIN":"23鄰","STREET":"祥和二街","SECT":" ","MAREA":" ","LANE":" ","ALLEY":" ","HOUSE_NO":"２２１號","E_COORD97":165574.01000000001,"N_COORD97":2561126.3900000001,"ADDRESS":"祥和二街２２１號","OBJECTID":576256},"geometry":{"x":165574.01000000071,"y":2561126.3900000006}},{"attributes":{"ID":576284,"DIS_CODE":0,"TOWNNAME":"佳里區","LI":"建南里","LIN":"23鄰","STREET":"祥和二街","SECT":" ","MAREA":" ","LANE":" ","ALLEY":" ","HOUSE_NO":"２２３號","E_COORD97":165569.54999999999,"N_COORD97":2561126.8100000001,"ADDRESS":"祥和二街２２３號","OBJECTID":576257},"geometry":{"x":165569.54999999981,"y":2561126.8100000005}},{"attributes":{"ID":576285,"DIS_CODE":0,"TOWNNAME":"佳里區","LI":"建南里","LIN":"23鄰","STREET":"祥和二街","SECT":" ","MAREA":" ","LANE":" ","ALLEY":" ","HOUSE_NO":"２２５號","E_COORD97":165565.54999999999,"N_COORD97":2561126.9900000002,"ADDRESS":"祥和二街２２５號","OBJECTID":576258},"geometry":{"x":165565.55000000075,"y":2561126.9900000021}},{"attributes":{"ID":576286,"DIS_CODE":0,"TOWNNAME":"佳里區","LI":"建南里","LIN":"23鄰","STREET":"祥和二街","SECT":" ","MAREA":" ","LANE":" ","ALLEY":" ","HOUSE_NO":"２２７號","E_COORD97":165560.79999999999,"N_COORD97":2561127.1499999999,"ADDRESS":"祥和二街２２７號","OBJECTID":576259},"geometry":{"x":165560.79999999981,"y":2561127.1500000004}},{"attributes":{"ID":576287,"DIS_CODE":0,"TOWNNAME":"佳里區","LI":"建南里","LIN":"23鄰","STREET":"祥和二街","SECT":" ","MAREA":" ","LANE":" ","ALLEY":" ","HOUSE_NO":"２２９號","E_COORD97":165556.89999999999,"N_COORD97":2561127.3300000001,"ADDRESS":"祥和二街２２９號","OBJECTID":576260},"geometry":{"x":165556.9000000013,"y":2561127.3300000019}},{"attributes":{"ID":576288,"DIS_CODE":0,"TOWNNAME":"佳里區","LI":"建南里","LIN":"23鄰","STREET":"祥和二街","SECT":" ","MAREA":" ","LANE":" ","ALLEY":" ","HOUSE_NO":"２３１號","E_COORD97":165552.95999999999,"N_COORD97":2561127.7599999998,"ADDRESS":"祥和二街２３１號","OBJECTID":576261},"geometry":{"x":165552.95999999996,"y":2561127.7600000016}},{"attributes":{"ID":576289,"DIS_CODE":0,"TOWNNAME":"佳里區","LI":"建南里","LIN":"23鄰","STREET":"祥和二街","SECT":" ","MAREA":" ","LANE":" ","ALLEY":" ","HOUSE_NO":"２３３號","E_COORD97":165548.92000000001,"N_COORD97":2561127.8199999998,"ADDRESS":"祥和二街２３３號","OBJECTID":576262},"geometry":{"x":165548.92000000179,"y":2561127.8200000022}},{"attributes":{"ID":576290,"DIS_CODE":0,"TOWNNAME":"佳里區","LI":"建南里","LIN":"23鄰","STREET":"祥和二街","SECT":" ","MAREA":" ","LANE":" ","ALLEY":" ","HOUSE_NO":"１８０號","E_COORD97":165604.42000000001,"N_COORD97":2561143.4399999999,"ADDRESS":"祥和二街１８０號","OBJECTID":576263},"geometry":{"x":165604.41999999993,"y":2561143.4400000013}},{"attributes":{"ID":576291,"DIS_CODE":0,"TOWNNAME":"佳里區","LI":"建南里","LIN":"23鄰","STREET":"祥和二街","SECT":" ","MAREA":" ","LANE":" ","ALLEY":" ","HOUSE_NO":"１８２號","E_COORD97":165599.22,"N_COORD97":2561143.8900000001,"ADDRESS":"祥和二街１８２號","OBJECTID":576264},"geometry":{"x":165599.2200000016,"y":2561143.8900000043}},{"attributes":{"ID":576292,"DIS_CODE":0,"TOWNNAME":"佳里區","LI":"建南里","LIN":"23鄰","STREET":"祥和二街","SECT":" ","MAREA":" ","LANE":" ","ALLEY":" ","HOUSE_NO":"１８４號","E_COORD97":165595.51000000001,"N_COORD97":2561144.1800000002,"ADDRESS":"祥和二街１８４號","OBJECTID":576265},"geometry":{"x":165595.50999999885,"y":2561144.1800000034}},{"attributes":{"ID":576293,"DIS_CODE":0,"TOWNNAME":"佳里區","LI":"建南里","LIN":"23鄰","STREET":"祥和二街","SECT":" ","MAREA":" ","LANE":" ","ALLEY":" ","HOUSE_NO":"２３５號","E_COORD97":165545,"N_COORD97":2561128.1400000001,"ADDRESS":"祥和二街２３５號","OBJECTID":576266},"geometry":{"x":165544.99999999907,"y":2561128.1399999987}},{"attributes":{"ID":576294,"DIS_CODE":0,"TOWNNAME":"佳里區","LI":"建南里","LIN":"23鄰","STREET":"祥和三街","SECT":" ","MAREA":" ","LANE":" ","ALLEY":" ","HOUSE_NO":"２０１號","E_COORD97":165619.62,"N_COORD97":2561223.79,"ADDRESS":"祥和三街２０１號","OBJECTID":576267},"geometry":{"x":165619.62000000104,"y":2561223.7899999991}},{"attributes":{"ID":576295,"DIS_CODE":0,"TOWNNAME":"佳里區","LI":"建南里","LIN":"23鄰","STREET":"祥和三街","SECT":" ","MAREA":" ","LANE":" ","ALLEY":" ","HOUSE_NO":"２０３號","E_COORD97":165614.98999999999,"N_COORD97":2561223.6499999999,"ADDRESS":"祥和三街２０３號","OBJECTID":576268},"geometry":{"x":165614.99000000209,"y":2561223.6500000022}},{"attributes":{"ID":576296,"DIS_CODE":0,"TOWNNAME":"永康區","LI":"三合里","LIN":"20鄰","STREET":"南工街","SECT":" ","MAREA":" ","LANE":" ","ALLEY":" ","HOUSE_NO":"２７１號","E_COORD97":171877.04000000001,"N_COORD97":2545973.4900000002,"ADDRESS":"南工街２７１號","OBJECTID":576269},"geometry":{"x":171877.04000000097,"y":2545973.4900000002}},{"attributes":{"ID":576297,"DIS_CODE":0,"TOWNNAME":"永康區","LI":"三合里","LIN":"25鄰","STREET":"中山東路","SECT":" ","MAREA":" ","LANE":" ","ALLEY":" ","HOUSE_NO":"９７號","E_COORD97":171751.73000000001,"N_COORD97":2545928.1099999999,"ADDRESS":"中山東路９７號","OBJECTID":576270},"geometry":{"x":171751.73000000231,"y":2545928.1099999975}},{"attributes":{"ID":576298,"DIS_CODE":0,"TOWNNAME":"永康區","LI":"三合里","LIN":"1鄰","STREET":"南工街","SECT":" ","MAREA":" ","LANE":" ","ALLEY":" ","HOUSE_NO":"３４號","E_COORD97":172114.92999999999,"N_COORD97":2545561.3300000001,"ADDRESS":"南工街３４號","OBJECTID":576271},"geometry":{"x":172114.93000000063,"y":2545561.3300000038}},{"attributes":{"ID":576299,"DIS_CODE":0,"TOWNNAME":"佳里區","LI":"建南里","LIN":"23鄰","STREET":"祥和三街","SECT":" ","MAREA":" ","LANE":" ","ALLEY":" ","HOUSE_NO":"２０５號","E_COORD97":165610.51999999999,"N_COORD97":2561223.73,"ADDRESS":"祥和三街２０５號","OBJECTID":576272},"geometry":{"x":165610.52000000142,"y":2561223.7300000023}},{"attributes":{"ID":576300,"DIS_CODE":0,"TOWNNAME":"佳里區","LI":"建南里","LIN":"23鄰","STREET":"祥和三街","SECT":" ","MAREA":" ","LANE":" ","ALLEY":" ","HOUSE_NO":"２０７號","E_COORD97":165606.19,"N_COORD97":2561223.7000000002,"ADDRESS":"祥和三街２０７號","OBJECTID":576273},"geometry":{"x":165606.19000000041,"y":2561223.6999999993}},{"attributes":{"ID":576301,"DIS_CODE":0,"TOWNNAME":"佳里區","LI":"建南里","LIN":"23鄰","STREET":"祥和三街","SECT":" ","MAREA":" ","LANE":" ","ALLEY":" ","HOUSE_NO":"２０９號","E_COORD97":165601.66,"N_COORD97":2561224.1099999999,"ADDRESS":"祥和三街２０９號","OBJECTID":576274},"geometry":{"x":165601.65999999922,"y":2561224.1099999994}},{"attributes":{"ID":576302,"DIS_CODE":0,"TOWNNAME":"佳里區","LI":"建南里","LIN":"23鄰","STREET":"祥和三街","SECT":" ","MAREA":" ","LANE":" ","ALLEY":" ","HOUSE_NO":"２１１號","E_COORD97":165597.54000000001,"N_COORD97":2561224.4900000002,"ADDRESS":"祥和三街２１１號","OBJECTID":576275},"geometry":{"x":165597.54000000097,"y":2561224.4900000021}},{"attributes":{"ID":576303,"DIS_CODE":0,"TOWNNAME":"佳里區","LI":"建南里","LIN":"23鄰","STREET":"祥和三街","SECT":" ","MAREA":" ","LANE":" ","ALLEY":" ","HOUSE_NO":"２１３號","E_COORD97":165593.14000000001,"N_COORD97":2561224.4399999999,"ADDRESS":"祥和三街２１３號","OBJECTID":576276},"geometry":{"x":165593.1400000006,"y":2561224.4400000013}},{"attributes":{"ID":576304,"DIS_CODE":0,"TOWNNAME":"佳里區","LI":"建南里","LIN":"23鄰","STREET":"祥和三街","SECT":" ","MAREA":" ","LANE":" ","ALLEY":" ","HOUSE_NO":"２１５號","E_COORD97":165588.87,"N_COORD97":2561224.52,"ADDRESS":"祥和三街２１５號","OBJECTID":576277},"geometry":{"x":165588.87000000104,"y":2561224.5200000014}},{"attributes":{"ID":576305,"DIS_CODE":0,"TOWNNAME":"佳里區","LI":"建南里","LIN":"23鄰","STREET":"祥和三街","SECT":" ","MAREA":" ","LANE":" ","ALLEY":" ","HOUSE_NO":"２１７號","E_COORD97":165584.26000000001,"N_COORD97":2561225.1600000001,"ADDRESS":"祥和三街２１７號","OBJECTID":576278},"geometry":{"x":165584.26000000071,"y":2561225.1600000001}},{"attributes":{"ID":576306,"DIS_CODE":0,"TOWNNAME":"佳里區","LI":"建南里","LIN":"23鄰","STREET":"祥和三街","SECT":" ","MAREA":" ","LANE":" ","ALLEY":" ","HOUSE_NO":"２１９號","E_COORD97":165580.39999999999,"N_COORD97":2561225.4199999999,"ADDRESS":"祥和三街２１９號","OBJECTID":576279},"geometry":{"x":165580.4000000013,"y":2561225.4200000018}},{"attributes":{"ID":576307,"DIS_CODE":0,"TOWNNAME":"佳里區","LI":"建南里","LIN":"23鄰","STREET":"祥和三街","SECT":" ","MAREA":" ","LANE":" ","ALLEY":" ","HOUSE_NO":"２２１號","E_COORD97":165575.92000000001,"N_COORD97":2561225.77,"ADDRESS":"祥和三街２２１號","OBJECTID":576280},"geometry":{"x":165575.91999999899,"y":2561225.7700000014}},{"attributes":{"ID":576308,"DIS_CODE":0,"TOWNNAME":"佳里區","LI":"建南里","LIN":"23鄰","STREET":"祥和三街","SECT":" ","MAREA":" ","LANE":" ","ALLEY":" ","HOUSE_NO":"２２３號","E_COORD97":165571.26999999999,"N_COORD97":2561225.9900000002,"ADDRESS":"祥和三街２２３號","OBJECTID":576281},"geometry":{"x":165571.26999999955,"y":2561225.9900000002}},{"attributes":{"ID":576309,"DIS_CODE":0,"TOWNNAME":"佳里區","LI":"建南里","LIN":"23鄰","STREET":"祥和三街","SECT":" ","MAREA":" ","LANE":" ","ALLEY":" ","HOUSE_NO":"２２５號","E_COORD97":165566.92000000001,"N_COORD97":2561226.3900000001,"ADDRESS":"祥和三街２２５號","OBJECTID":576282},"geometry":{"x":165566.91999999993,"y":2561226.3900000025}},{"attributes":{"ID":576310,"DIS_CODE":0,"TOWNNAME":"佳里區","LI":"建南里","LIN":"23鄰","STREET":"祥和三街","SECT":" ","MAREA":" ","LANE":" ","ALLEY":" ","HOUSE_NO":"２２７號","E_COORD97":165562.89000000001,"N_COORD97":2561226.7000000002,"ADDRESS":"祥和三街２２７號","OBJECTID":576283},"geometry":{"x":165562.8900000006,"y":2561226.6999999993}},{"attributes":{"ID":576311,"DIS_CODE":0,"TOWNNAME":"佳里區","LI":"建南里","LIN":"23鄰","STREET":"祥和三街","SECT":" ","MAREA":" ","LANE":" ","ALLEY":" ","HOUSE_NO":"２２９號","E_COORD97":165558.69,"N_COORD97":2561226.7999999998,"ADDRESS":"祥和三街２２９號","OBJECTID":576284},"geometry":{"x":165558.69000000041,"y":2561226.8000000026}},{"attributes":{"ID":576312,"DIS_CODE":0,"TOWNNAME":"永康區","LI":"三民里","LIN":"12鄰","STREET":"和平東路","SECT":" ","MAREA":" ","LANE":" ","ALLEY":" ","HOUSE_NO":"１６２號","E_COORD97":174580.38,"N_COORD97":2550614.2400000002,"ADDRESS":"和平東路１６２號","OBJECTID":576285},"geometry":{"x":174580.37999999989,"y":2550614.2400000021}},{"attributes":{"ID":576313,"DIS_CODE":0,"TOWNNAME":"佳里區","LI":"建南里","LIN":"23鄰","STREET":"祥和三街","SECT":" ","MAREA":" ","LANE":" ","ALLEY":" ","HOUSE_NO":"２３３號","E_COORD97":165438.76000000001,"N_COORD97":2561234.8999999999,"ADDRESS":"祥和三街２３３號","OBJECTID":576286},"geometry":{"x":165438.76000000071,"y":2561234.9000000041}},{"attributes":{"ID":576314,"DIS_CODE":0,"TOWNNAME":"東區","LI":"中西里","LIN":"23鄰","STREET":"長榮路","SECT":"二段","MAREA":" ","LANE":" ","ALLEY":" ","HOUSE_NO":"２７２號","E_COORD97":170151.89000000001,"N_COORD97":2543467.1899999999,"ADDRESS":"長榮路二段２７２號","OBJECTID":576287},"geometry":{"x":170151.8900000006,"y":2543467.1900000013}},{"attributes":{"ID":576315,"DIS_CODE":0,"TOWNNAME":"學甲區","LI":"秀昌里","LIN":"23鄰","STREET":"中正路","SECT":" ","MAREA":" ","LANE":" ","ALLEY":" ","HOUSE_NO":"４０７號","E_COORD97":166321.38,"N_COORD97":2570800.2799999998,"ADDRESS":"中正路４０７號","OBJECTID":576288},"geometry":{"x":166321.37999999989,"y":2570800.2800000012}},{"attributes":{"ID":576316,"DIS_CODE":0,"TOWNNAME":"學甲區","LI":"秀昌里","LIN":"23鄰","STREET":"中正路","SECT":" ","MAREA":" ","LANE":" ","ALLEY":" ","HOUSE_NO":"４０９號","E_COORD97":166326.20000000001,"N_COORD97":2570803.8900000001,"ADDRESS":"中正路４０９號","OBJECTID":576289},"geometry":{"x":166326.20000000112,"y":2570803.8900000025}},{"attributes":{"ID":576317,"DIS_CODE":0,"TOWNNAME":"學甲區","LI":"秀昌里","LIN":"23鄰","STREET":"中正路","SECT":" ","MAREA":" ","LANE":" ","ALLEY":" ","HOUSE_NO":"４１１號","E_COORD97":166328.94,"N_COORD97":2570807.5699999998,"ADDRESS":"中正路４１１號","OBJECTID":576290},"geometry":{"x":166328.94000000041,"y":2570807.5700000003}},{"attributes":{"ID":576318,"DIS_CODE":0,"TOWNNAME":"學甲區","LI":"秀昌里","LIN":"23鄰","STREET":"中正路","SECT":" ","MAREA":" ","LANE":" ","ALLEY":" ","HOUSE_NO":"４１３號","E_COORD97":166332.39999999999,"N_COORD97":2570810.4399999999,"ADDRESS":"中正路４１３號","OBJECTID":576291},"geometry":{"x":166332.40000000037,"y":2570810.4399999995}},{"attributes":{"ID":576319,"DIS_CODE":0,"TOWNNAME":"學甲區","LI":"秀昌里","LIN":"23鄰","STREET":"中正路","SECT":" ","MAREA":" ","LANE":" ","ALLEY":" ","HOUSE_NO":"４１５號","E_COORD97":166335.89000000001,"N_COORD97":2570813.5299999998,"ADDRESS":"中正路４１５號","OBJECTID":576292},"geometry":{"x":166335.8900000006,"y":2570813.5299999993}},{"attributes":{"ID":576320,"DIS_CODE":0,"TOWNNAME":"學甲區","LI":"秀昌里","LIN":"23鄰","STREET":"中正路","SECT":" ","MAREA":" ","LANE":" ","ALLEY":" ","HOUSE_NO":"４１７號","E_COORD97":166340.60999999999,"N_COORD97":2570817.9700000002,"ADDRESS":"中正路４１７號","OBJECTID":576293},"geometry":{"x":166340.61000000034,"y":2570817.9700000007}},{"attributes":{"ID":576321,"DIS_CODE":0,"TOWNNAME":"學甲區","LI":"秀昌里","LIN":"23鄰","STREET":"中正路","SECT":" ","MAREA":" ","LANE":" ","ALLEY":" ","HOUSE_NO":"４１９號","E_COORD97":166344.78,"N_COORD97":2570821.5499999998,"ADDRESS":"中正路４１９號","OBJECTID":576294},"geometry":{"x":166344.78000000026,"y":2570821.5500000007}},{"attributes":{"ID":576322,"DIS_CODE":0,"TOWNNAME":"學甲區","LI":"秀昌里","LIN":"23鄰","STREET":"中正路","SECT":" ","MAREA":" ","LANE":" ","ALLEY":" ","HOUSE_NO":"４２７號","E_COORD97":166361.07999999999,"N_COORD97":2570836.0800000001,"ADDRESS":"中正路４２７號","OBJECTID":576295},"geometry":{"x":166361.08000000007,"y":2570836.0800000019}},{"attributes":{"ID":576323,"DIS_CODE":0,"TOWNNAME":"學甲區","LI":"秀昌里","LIN":"23鄰","STREET":"中正路","SECT":" ","MAREA":" ","LANE":" ","ALLEY":" ","HOUSE_NO":"４２９號","E_COORD97":166362.92999999999,"N_COORD97":2570840.1899999999,"ADDRESS":"中正路４２９號","OBJECTID":576296},"geometry":{"x":166362.93000000063,"y":2570840.1900000032}},{"attributes":{"ID":576324,"DIS_CODE":0,"TOWNNAME":"學甲區","LI":"秀昌里","LIN":"23鄰","STREET":"中正路","SECT":" ","MAREA":" ","LANE":" ","ALLEY":" ","HOUSE_NO":"４３１號","E_COORD97":166365.34,"N_COORD97":2570843.2799999998,"ADDRESS":"中正路４３１號","OBJECTID":576297},"geometry":{"x":166365.34000000078,"y":2570843.2800000012}},{"attributes":{"ID":576325,"DIS_CODE":0,"TOWNNAME":"學甲區","LI":"秀昌里","LIN":"23鄰","STREET":"中正路","SECT":" ","MAREA":" ","LANE":" ","ALLEY":" ","HOUSE_NO":"４３３號","E_COORD97":166368.69,"N_COORD97":2570847.5299999998,"ADDRESS":"中正路４３３號","OBJECTID":576298},"geometry":{"x":166368.69000000134,"y":2570847.5299999993}},{"attributes":{"ID":576326,"DIS_CODE":0,"TOWNNAME":"學甲區","LI":"秀昌里","LIN":"23鄰","STREET":"中正路","SECT":" ","MAREA":" ","LANE":" ","ALLEY":" ","HOUSE_NO":"４５１號","E_COORD97":166391.98999999999,"N_COORD97":2570872.3399999999,"ADDRESS":"中正路４５１號","OBJECTID":576299},"geometry":{"x":166391.99000000115,"y":2570872.3399999999}},{"attributes":{"ID":576327,"DIS_CODE":0,"TOWNNAME":"學甲區","LI":"秀昌里","LIN":"23鄰","STREET":"中正路","SECT":" ","MAREA":" ","LANE":" ","ALLEY":" ","HOUSE_NO":"４５３號","E_COORD97":166395.39999999999,"N_COORD97":2570875.4900000002,"ADDRESS":"中正路４５３號","OBJECTID":576300},"geometry":{"x":166395.40000000224,"y":2570875.4900000002}},{"attributes":{"ID":576328,"DIS_CODE":0,"TOWNNAME":"學甲區","LI":"秀昌里","LIN":"23鄰","STREET":"中正路","SECT":" ","MAREA":" ","LANE":" ","ALLEY":" ","HOUSE_NO":"４５９號","E_COORD97":166405.09,"N_COORD97":2570884.9199999999,"ADDRESS":"中正路４５９號","OBJECTID":576301},"geometry":{"x":166405.08999999985,"y":2570884.9200000018}},{"attributes":{"ID":576329,"DIS_CODE":0,"TOWNNAME":"學甲區","LI":"秀昌里","LIN":"23鄰","STREET":"中正路","SECT":" ","MAREA":" ","LANE":" ","ALLEY":" ","HOUSE_NO":"４６１號","E_COORD97":166409.98999999999,"N_COORD97":2570889.1899999999,"ADDRESS":"中正路４６１號","OBJECTID":576302},"geometry":{"x":166409.99000000209,"y":2570889.1900000013}},{"attributes":{"ID":576330,"DIS_CODE":0,"TOWNNAME":"學甲區","LI":"秀昌里","LIN":"23鄰","STREET":"中正路","SECT":" ","MAREA":" ","LANE":" ","ALLEY":" ","HOUSE_NO":"４６３號","E_COORD97":166413.22,"N_COORD97":2570892.9300000002,"ADDRESS":"中正路４６３號","OBJECTID":576303},"geometry":{"x":166413.22000000067,"y":2570892.9299999978}},{"attributes":{"ID":576331,"DIS_CODE":0,"TOWNNAME":"學甲區","LI":"秀昌里","LIN":"23鄰","STREET":"中正路","SECT":" ","MAREA":" ","LANE":" ","ALLEY":" ","HOUSE_NO":"４６５號","E_COORD97":166416.70999999999,"N_COORD97":2570896.0800000001,"ADDRESS":"中正路４６５號","OBJECTID":576304},"geometry":{"x":166416.71000000183,"y":2570896.0800000038}},{"attributes":{"ID":576332,"DIS_CODE":0,"TOWNNAME":"學甲區","LI":"秀昌里","LIN":"23鄰","STREET":"中正路","SECT":" ","MAREA":" ","LANE":" ","ALLEY":" ","HOUSE_NO":"４６９號","E_COORD97":166423.95999999999,"N_COORD97":2570903.54,"ADDRESS":"中正路４６９號","OBJECTID":576305},"geometry":{"x":166423.96000000089,"y":2570903.540000001}},{"attributes":{"ID":576333,"DIS_CODE":0,"TOWNNAME":"永康區","LI":"三合里","LIN":"7鄰","STREET":"南工街","SECT":" ","MAREA":" ","LANE":" ","ALLEY":" ","HOUSE_NO":"９９號","E_COORD97":172089.76000000001,"N_COORD97":2545711.6200000001,"ADDRESS":"南工街９９號","OBJECTID":576306},"geometry":{"x":172089.75999999978,"y":2545711.620000001}},{"attributes":{"ID":576334,"DIS_CODE":0,"TOWNNAME":"永康區","LI":"三合里","LIN":"15鄰","STREET":"南工街","SECT":" ","MAREA":" ","LANE":" ","ALLEY":" ","HOUSE_NO":"２３５號","E_COORD97":172007.04000000001,"N_COORD97":2545946.2400000002,"ADDRESS":"南工街２３５號","OBJECTID":576307},"geometry":{"x":172007.0400000019,"y":2545946.2400000021}},{"attributes":{"ID":576335,"DIS_CODE":0,"TOWNNAME":"永康區","LI":"二王里","LIN":"12鄰","STREET":"永二街","SECT":" ","MAREA":" ","LANE":" ","ALLEY":" ","HOUSE_NO":"４１７號","E_COORD97":172841.34,"N_COORD97":2546602.9900000002,"ADDRESS":"永二街４１７號","OBJECTID":576308},"geometry":{"x":172841.33999999985,"y":2546602.9900000002}},{"attributes":{"ID":576336,"DIS_CODE":0,"TOWNNAME":"歸仁區","LI":"後市里","LIN":"23鄰","STREET":"大通路","SECT":" ","MAREA":" ","LANE":" ","ALLEY":" ","HOUSE_NO":"１０８號","E_COORD97":177569.20000000001,"N_COORD97":2540913.25,"ADDRESS":"大通路１０８號","OBJECTID":576309},"geometry":{"x":177569.20000000019,"y":2540913.25}},{"attributes":{"ID":576337,"DIS_CODE":0,"TOWNNAME":"學甲區","LI":"明宜里","LIN":"23鄰","STREET":"天水路","SECT":" ","MAREA":" ","LANE":" ","ALLEY":" ","HOUSE_NO":"４３號之１","E_COORD97":165882.41,"N_COORD97":2570683.6899999999,"ADDRESS":"天水路４３號之１","OBJECTID":576310},"geometry":{"x":165882.41000000015,"y":2570683.6899999995}},{"attributes":{"ID":576338,"DIS_CODE":0,"TOWNNAME":"學甲區","LI":"明宜里","LIN":"23鄰","STREET":"天水路","SECT":" ","MAREA":" ","LANE":" ","ALLEY":" ","HOUSE_NO":"４３號之２","E_COORD97":165878.07999999999,"N_COORD97":2570685.4300000002,"ADDRESS":"天水路４３號之２","OBJECTID":576311},"geometry":{"x":165878.08000000007,"y":2570685.4299999997}},{"attributes":{"ID":576339,"DIS_CODE":0,"TOWNNAME":"學甲區","LI":"明宜里","LIN":"23鄰","STREET":"天水路","SECT":" ","MAREA":" ","LANE":" ","ALLEY":" ","HOUSE_NO":"４３號","E_COORD97":165888.37,"N_COORD97":2570680.8100000001,"ADDRESS":"天水路４３號","OBJECTID":576312},"geometry":{"x":165888.36999999918,"y":2570680.8100000005}},{"attributes":{"ID":576340,"DIS_CODE":0,"TOWNNAME":"歸仁區","LI":"南興里","LIN":"23鄰","STREET":"文化街","SECT":"三段","MAREA":" ","LANE":" ","ALLEY":" ","HOUSE_NO":"６８０號","E_COORD97":175488.22,"N_COORD97":2541201.2599999998,"ADDRESS":"文化街三段６８０號","OBJECTID":576313},"geometry":{"x":175488.21999999974,"y":2541201.2599999979}},{"attributes":{"ID":576341,"DIS_CODE":0,"TOWNNAME":"玉井區","LI":"玉田里","LIN":"23鄰","STREET":"民權路","SECT":" ","MAREA":" ","LANE":" ","ALLEY":" ","HOUSE_NO":"４１號","E_COORD97":194946.54000000001,"N_COORD97":2557909.29,"ADDRESS":"民權路４１號","OBJECTID":576314},"geometry":{"x":194946.54000000097,"y":2557909.290000001}},{"attributes":{"ID":576342,"DIS_CODE":0,"TOWNNAME":"歸仁區","LI":"後市里","LIN":"23鄰","STREET":"大通路","SECT":" ","MAREA":" ","LANE":" ","ALLEY":" ","HOUSE_NO":"１１０號","E_COORD97":177565.10000000001,"N_COORD97":2540914.25,"ADDRESS":"大通路１１０號","OBJECTID":576315},"geometry":{"x":177565.10000000056,"y":2540914.2500000019}},{"attributes":{"ID":576343,"DIS_CODE":0,"TOWNNAME":"歸仁區","LI":"歸仁里","LIN":"23鄰","STREET":"忠孝北路","SECT":" ","MAREA":" ","LANE":" ","ALLEY":" ","HOUSE_NO":"２３７號","E_COORD97":178020.39999999999,"N_COORD97":2541321.25,"ADDRESS":"忠孝北路２３７號","OBJECTID":576316},"geometry":{"x":178020.40000000037,"y":2541321.2500000019}},{"attributes":{"ID":576344,"DIS_CODE":0,"TOWNNAME":"歸仁區","LI":"歸仁里","LIN":"23鄰","STREET":"文化二街","SECT":" ","MAREA":" ","LANE":" ","ALLEY":" ","HOUSE_NO":"３０號","E_COORD97":178005.25,"N_COORD97":2541228.2599999998,"ADDRESS":"文化二街３０號","OBJECTID":576317},"geometry":{"x":178005.25000000093,"y":2541228.2599999998}},{"attributes":{"ID":576345,"DIS_CODE":0,"TOWNNAME":"歸仁區","LI":"看西里","LIN":"23鄰","STREET":"凱旋路","SECT":"一段","MAREA":" ","LANE":" ","ALLEY":" ","HOUSE_NO":"２３１號","E_COORD97":178368.45999999999,"N_COORD97":2539678.3700000001,"ADDRESS":"凱旋路一段２３１號","OBJECTID":576318},"geometry":{"x":178368.46000000089,"y":2539678.370000001}},{"attributes":{"ID":576346,"DIS_CODE":0,"TOWNNAME":"歸仁區","LI":"看西里","LIN":"23鄰","STREET":"成功三街","SECT":" ","MAREA":" ","LANE":" ","ALLEY":" ","HOUSE_NO":"１０７號","E_COORD97":178583.51000000001,"N_COORD97":2539876.3599999999,"ADDRESS":"成功三街１０７號","OBJECTID":576319},"geometry":{"x":178583.50999999978,"y":2539876.3600000013}},{"attributes":{"ID":576347,"DIS_CODE":0,"TOWNNAME":"新營區","LI":"南興里","LIN":"23鄰","STREET":"南昌街","SECT":" ","MAREA":" ","LANE":" ","ALLEY":" ","HOUSE_NO":"９７號","E_COORD97":179352.01999999999,"N_COORD97":2577646.6400000001,"ADDRESS":"南昌街９７號","OBJECTID":576320},"geometry":{"x":179352.02000000048,"y":2577646.6400000025}},{"attributes":{"ID":576348,"DIS_CODE":0,"TOWNNAME":"新營區","LI":"三仙里","LIN":"23鄰","STREET":"育德一街","SECT":" ","MAREA":" ","LANE":" ","ALLEY":" ","HOUSE_NO":"３５號","E_COORD97":179519.79999999999,"N_COORD97":2578917.1899999999,"ADDRESS":"育德一街３５號","OBJECTID":576321},"geometry":{"x":179519.80000000168,"y":2578917.1900000013}},{"attributes":{"ID":576349,"DIS_CODE":0,"TOWNNAME":"新營區","LI":"南興里","LIN":"23鄰","STREET":"南昌街","SECT":" ","MAREA":" ","LANE":" ","ALLEY":" ","HOUSE_NO":"１０７號","E_COORD97":179331.82000000001,"N_COORD97":2577646.7400000002,"ADDRESS":"南昌街１０７號","OBJECTID":576322},"geometry":{"x":179331.81999999937,"y":2577646.7400000021}},{"attributes":{"ID":576350,"DIS_CODE":0,"TOWNNAME":"新營區","LI":"大宏里","LIN":"23鄰","STREET":"民治路","SECT":" ","MAREA":" ","LANE":" ","ALLEY":" ","HOUSE_NO":"１之３４號","E_COORD97":180608.85000000001,"N_COORD97":2578783.6499999999,"ADDRESS":"民治路１之３４號","OBJECTID":576323},"geometry":{"x":180608.84999999963,"y":2578783.6500000004}},{"attributes":{"ID":576351,"DIS_CODE":0,"TOWNNAME":"新營區","LI":"大宏里","LIN":"23鄰","STREET":"民治路","SECT":" ","MAREA":" ","LANE":" ","ALLEY":" ","HOUSE_NO":"１號之１３","E_COORD97":180619.12,"N_COORD97":2578850.0499999998,"ADDRESS":"民治路１號之１３","OBJECTID":576324},"geometry":{"x":180619.12000000011,"y":2578850.0500000007}},{"attributes":{"ID":576352,"DIS_CODE":0,"TOWNNAME":"新營區","LI":"三仙里","LIN":"23鄰","STREET":"民治路","SECT":" ","MAREA":" ","LANE":" ","ALLEY":" ","HOUSE_NO":"７８號之１５","E_COORD97":179534.10999999999,"N_COORD97":2578828.6000000001,"ADDRESS":"民治路７８號之１５","OBJECTID":576325},"geometry":{"x":179534.11000000127,"y":2578828.5999999978}},{"attributes":{"ID":576353,"DIS_CODE":0,"TOWNNAME":"新營區","LI":"王公里","LIN":"23鄰","STREET":"樂仁街","SECT":" ","MAREA":" ","LANE":" ","ALLEY":" ","HOUSE_NO":"２３號","E_COORD97":180509.85999999999,"N_COORD97":2579130.6800000002,"ADDRESS":"樂仁街２３號","OBJECTID":576326},"geometry":{"x":180509.8600000022,"y":2579130.6800000016}},{"attributes":{"ID":576354,"DIS_CODE":0,"TOWNNAME":"關廟區","LI":"關廟里","LIN":"4鄰","STREET":"正義街","SECT":" ","MAREA":" ","LANE":" ","ALLEY":" ","HOUSE_NO":"８號","E_COORD97":180828.91,"N_COORD97":2540117.27,"ADDRESS":"正義街８號","OBJECTID":576327},"geometry":{"x":180828.91000000015,"y":2540117.2700000014}},{"attributes":{"ID":576355,"DIS_CODE":0,"TOWNNAME":"新營區","LI":"新南里","LIN":"23鄰","STREET":"復興路","SECT":" ","MAREA":" ","LANE":" ","ALLEY":" ","HOUSE_NO":"６８６號","E_COORD97":177838.92999999999,"N_COORD97":2578393.71,"ADDRESS":"復興路６８６號","OBJECTID":576328},"geometry":{"x":177838.93000000063,"y":2578393.7100000028}},{"attributes":{"ID":576356,"DIS_CODE":0,"TOWNNAME":"新營區","LI":"新南里","LIN":"23鄰","STREET":"復興路","SECT":" ","MAREA":" ","LANE":" ","ALLEY":" ","HOUSE_NO":"６３６號","E_COORD97":177979.91,"N_COORD97":2578358.7000000002,"ADDRESS":"復興路６３６號","OBJECTID":576329},"geometry":{"x":177979.91000000015,"y":2578358.6999999993}},{"attributes":{"ID":576357,"DIS_CODE":0,"TOWNNAME":"新營區","LI":"新南里","LIN":"23鄰","STREET":"復興路","SECT":" ","MAREA":" ","LANE":" ","ALLEY":" ","HOUSE_NO":"６６６號","E_COORD97":177921.67999999999,"N_COORD97":2578373.3799999999,"ADDRESS":"復興路６６６號","OBJECTID":576330},"geometry":{"x":177921.67999999877,"y":2578373.3800000008}},{"attributes":{"ID":576358,"DIS_CODE":0,"TOWNNAME":"新營區","LI":"王公里","LIN":"23鄰","STREET":"樂仁街","SECT":" ","MAREA":" ","LANE":" ","ALLEY":" ","HOUSE_NO":"３６號","E_COORD97":180533.48999999999,"N_COORD97":2579148.29,"ADDRESS":"樂仁街３６號","OBJECTID":576331},"geometry":{"x":180533.49000000022,"y":2579148.2899999991}},{"attributes":{"ID":576359,"DIS_CODE":0,"TOWNNAME":"新營區","LI":"三仙里","LIN":"23鄰","STREET":"民治路","SECT":" ","MAREA":" ","LANE":" ","ALLEY":" ","HOUSE_NO":"７８號之３","E_COORD97":179558.67000000001,"N_COORD97":2578890.4900000002,"ADDRESS":"民治路７８號之３","OBJECTID":576332},"geometry":{"x":179558.67000000086,"y":2578890.4900000002}},{"attributes":{"ID":576360,"DIS_CODE":0,"TOWNNAME":"新營區","LI":"民權里","LIN":"23鄰","STREET":"民權路","SECT":" ","MAREA":" ","LANE":" ","ALLEY":" ","HOUSE_NO":"１１８號之３","E_COORD97":179626.82000000001,"N_COORD97":2578770.5699999998,"ADDRESS":"民權路１１８號之３","OBJECTID":576333},"geometry":{"x":179626.82000000216,"y":2578770.5700000003}},{"attributes":{"ID":576361,"DIS_CODE":0,"TOWNNAME":"新營區","LI":"民生里","LIN":"23鄰","STREET":"公園路","SECT":"一段","MAREA":" ","LANE":" ","ALLEY":" ","HOUSE_NO":"２０號","E_COORD97":179209.69,"N_COORD97":2578451.3300000001,"ADDRESS":"公園路一段２０號","OBJECTID":576334},"geometry":{"x":179209.69000000134,"y":2578451.3300000038}},{"attributes":{"ID":576362,"DIS_CODE":0,"TOWNNAME":"新營區","LI":"南紙里","LIN":"23鄰","STREET":"南紙街","SECT":" ","MAREA":" ","LANE":" ","ALLEY":" ","HOUSE_NO":"１１９之６號","E_COORD97":177815.32000000001,"N_COORD97":2577445.9100000001,"ADDRESS":"南紙街１１９之６號","OBJECTID":576335},"geometry":{"x":177815.32000000123,"y":2577445.9100000001}},{"attributes":{"ID":576363,"DIS_CODE":0,"TOWNNAME":"新營區","LI":"南興里","LIN":"23鄰","STREET":"南昌街","SECT":" ","MAREA":" ","LANE":" ","ALLEY":" ","HOUSE_NO":"１１７號","E_COORD97":179305.23000000001,"N_COORD97":2577647.9700000002,"ADDRESS":"南昌街１１７號","OBJECTID":576336},"geometry":{"x":179305.23000000045,"y":2577647.9700000025}},{"attributes":{"ID":576364,"DIS_CODE":0,"TOWNNAME":"玉井區","LI":"玉田里","LIN":"23鄰","STREET":"民權路","SECT":" ","MAREA":" ","LANE":" ","ALLEY":" ","HOUSE_NO":"４５號","E_COORD97":194937.54000000001,"N_COORD97":2557905.29,"ADDRESS":"民權路４５號","OBJECTID":576337},"geometry":{"x":194937.54000000004,"y":2557905.290000001}},{"attributes":{"ID":576365,"DIS_CODE":0,"TOWNNAME":"玉井區","LI":"玉田里","LIN":"23鄰","STREET":"民權路","SECT":" ","MAREA":" ","LANE":" ","ALLEY":" ","HOUSE_NO":"３７號","E_COORD97":194963.13,"N_COORD97":2557897.2799999998,"ADDRESS":"民權路３７號","OBJECTID":576338},"geometry":{"x":194963.13000000082,"y":2557897.2799999993}},{"attributes":{"ID":576366,"DIS_CODE":0,"TOWNNAME":"安平區","LI":"華平里","LIN":"23鄰","STREET":"建平八街","SECT":" ","MAREA":" ","LANE":" ","ALLEY":" ","HOUSE_NO":"３９６號","E_COORD97":165271.54000000001,"N_COORD97":2543586.9100000001,"ADDRESS":"建平八街３９６號","OBJECTID":576339},"geometry":{"x":165271.54000000004,"y":2543586.9100000001}},{"attributes":{"ID":576367,"DIS_CODE":0,"TOWNNAME":"安平區","LI":"華平里","LIN":"23鄰","STREET":"建平八街","SECT":" ","MAREA":" ","LANE":" ","ALLEY":" ","HOUSE_NO":"３９８號","E_COORD97":165262.92999999999,"N_COORD97":2543587.9199999999,"ADDRESS":"建平八街３９８號","OBJECTID":576340},"geometry":{"x":165262.93000000063,"y":2543587.9200000018}},{"attributes":{"ID":576368,"DIS_CODE":0,"TOWNNAME":"安平區","LI":"華平里","LIN":"23鄰","STREET":"建平八街","SECT":" ","MAREA":" ","LANE":" ","ALLEY":" ","HOUSE_NO":"４００號","E_COORD97":165257.79000000001,"N_COORD97":2543589.2599999998,"ADDRESS":"建平八街４００號","OBJECTID":576341},"geometry":{"x":165257.79000000004,"y":2543589.2600000016}},{"attributes":{"ID":576369,"DIS_CODE":0,"TOWNNAME":"安平區","LI":"華平里","LIN":"23鄰","STREET":"建平八街","SECT":" ","MAREA":" ","LANE":" ","ALLEY":" ","HOUSE_NO":"４１８號","E_COORD97":165240.89000000001,"N_COORD97":2543590.6000000001,"ADDRESS":"建平八街４１８號","OBJECTID":576342},"geometry":{"x":165240.8900000006,"y":2543590.6000000015}},{"attributes":{"ID":576370,"DIS_CODE":0,"TOWNNAME":"安平區","LI":"華平里","LIN":"23鄰","STREET":"建平八街","SECT":" ","MAREA":" ","LANE":" ","ALLEY":" ","HOUSE_NO":"４２０號","E_COORD97":165234.51999999999,"N_COORD97":2543591.3799999999,"ADDRESS":"建平八街４２０號","OBJECTID":576343},"geometry":{"x":165234.52000000048,"y":2543591.3800000008}},{"attributes":{"ID":576371,"DIS_CODE":0,"TOWNNAME":"安平區","LI":"華平里","LIN":"23鄰","STREET":"建平八街","SECT":" ","MAREA":" ","LANE":" ","ALLEY":" ","HOUSE_NO":"４２２號","E_COORD97":165229.38,"N_COORD97":2543592.0499999998,"ADDRESS":"建平八街４２２號","OBJECTID":576344},"geometry":{"x":165229.38000000082,"y":2543592.0500000026}},{"attributes":{"ID":576372,"DIS_CODE":0,"TOWNNAME":"安平區","LI":"華平里","LIN":"23鄰","STREET":"建平八街","SECT":" ","MAREA":" ","LANE":" ","ALLEY":" ","HOUSE_NO":"４２４號","E_COORD97":165223.85000000001,"N_COORD97":2543593.5699999998,"ADDRESS":"建平八街４２４號","OBJECTID":576345},"geometry":{"x":165223.85000000056,"y":2543593.570000004}},{"attributes":{"ID":576373,"DIS_CODE":0,"TOWNNAME":"安平區","LI":"華平里","LIN":"23鄰","STREET":"建平八街","SECT":" ","MAREA":" ","LANE":" ","ALLEY":" ","HOUSE_NO":"４２６號","E_COORD97":165219.35999999999,"N_COORD97":2543593.7400000002,"ADDRESS":"建平八街４２６號","OBJECTID":576346},"geometry":{"x":165219.36000000127,"y":2543593.7400000021}},{"attributes":{"ID":576374,"DIS_CODE":0,"TOWNNAME":"安平區","LI":"華平里","LIN":"23鄰","STREET":"建平八街","SECT":" ","MAREA":" ","LANE":" ","ALLEY":" ","HOUSE_NO":"４３０號","E_COORD97":165208.82000000001,"N_COORD97":2543595.2999999998,"ADDRESS":"建平八街４３０號","OBJECTID":576347},"geometry":{"x":165208.8200000003,"y":2543595.3000000007}},{"attributes":{"ID":576375,"DIS_CODE":0,"TOWNNAME":"安平區","LI":"華平里","LIN":"23鄰","STREET":"建平八街","SECT":" ","MAREA":" ","LANE":" ","ALLEY":" ","HOUSE_NO":"４３２號","E_COORD97":165202.95000000001,"N_COORD97":2543595.9900000002,"ADDRESS":"建平八街４３２號","OBJECTID":576348},"geometry":{"x":165202.95000000019,"y":2543595.9900000002}},{"attributes":{"ID":576376,"DIS_CODE":0,"TOWNNAME":"安平區","LI":"華平里","LIN":"23鄰","STREET":"建平八街","SECT":" ","MAREA":" ","LANE":" ","ALLEY":" ","HOUSE_NO":"４４０號","E_COORD97":165167.19,"N_COORD97":2543601,"ADDRESS":"建平八街４４０號","OBJECTID":576349},"geometry":{"x":165167.19000000041,"y":2543601.0000000019}},{"attributes":{"ID":576377,"DIS_CODE":0,"TOWNNAME":"永康區","LI":"二王里","LIN":"18鄰","STREET":"中山南路","SECT":" ","MAREA":" ","LANE":" ","ALLEY":" ","HOUSE_NO":"６３８號","E_COORD97":172379.37,"N_COORD97":2546679.0299999998,"ADDRESS":"中山南路６３８號","OBJECTID":576350},"geometry":{"x":172379.37000000197,"y":2546679.0300000012}},{"attributes":{"ID":576378,"DIS_CODE":0,"TOWNNAME":"安平區","LI":"建平里","LIN":"23鄰","STREET":"平通路","SECT":" ","MAREA":" ","LANE":" ","ALLEY":" ","HOUSE_NO":"１０１號","E_COORD97":165943.60000000001,"N_COORD97":2543673.23,"ADDRESS":"平通路１０１號","OBJECTID":576351},"geometry":{"x":165943.59999999963,"y":2543673.2300000004}},{"attributes":{"ID":576379,"DIS_CODE":0,"TOWNNAME":"安平區","LI":"建平里","LIN":"23鄰","STREET":"平通路","SECT":" ","MAREA":" ","LANE":" ","ALLEY":" ","HOUSE_NO":"１０３號","E_COORD97":165938.76999999999,"N_COORD97":2543675.0800000001,"ADDRESS":"平通路１０３號","OBJECTID":576352},"geometry":{"x":165938.76999999955,"y":2543675.0800000019}},{"attributes":{"ID":576380,"DIS_CODE":0,"TOWNNAME":"安平區","LI":"建平里","LIN":"23鄰","STREET":"平通路","SECT":" ","MAREA":" ","LANE":" ","ALLEY":" ","HOUSE_NO":"１０５號","E_COORD97":165933.95000000001,"N_COORD97":2543674.5299999998,"ADDRESS":"平通路１０５號","OBJECTID":576353},"geometry":{"x":165933.95000000112,"y":2543674.5300000012}},{"attributes":{"ID":576381,"DIS_CODE":0,"TOWNNAME":"安平區","LI":"建平里","LIN":"23鄰","STREET":"平通路","SECT":" ","MAREA":" ","LANE":" ","ALLEY":" ","HOUSE_NO":"４３號","E_COORD97":166091.20999999999,"N_COORD97":2543654.79,"ADDRESS":"平通路４３號","OBJECTID":576354},"geometry":{"x":166091.21000000183,"y":2543654.7899999991}},{"attributes":{"ID":576382,"DIS_CODE":0,"TOWNNAME":"安平區","LI":"建平里","LIN":"23鄰","STREET":"平通路","SECT":" ","MAREA":" ","LANE":" ","ALLEY":" ","HOUSE_NO":"４５號","E_COORD97":166086.06,"N_COORD97":2543655.1499999999,"ADDRESS":"平通路４５號","OBJECTID":576355},"geometry":{"x":166086.05999999959,"y":2543655.1500000022}},{"attributes":{"ID":576383,"DIS_CODE":0,"TOWNNAME":"安平區","LI":"建平里","LIN":"23鄰","STREET":"平通路","SECT":" ","MAREA":" ","LANE":" ","ALLEY":" ","HOUSE_NO":"４７號","E_COORD97":166081.79999999999,"N_COORD97":2543655.96,"ADDRESS":"平通路４７號","OBJECTID":576356},"geometry":{"x":166081.79999999888,"y":2543655.9600000046}},{"attributes":{"ID":576384,"DIS_CODE":0,"TOWNNAME":"安平區","LI":"建平里","LIN":"23鄰","STREET":"平通路","SECT":" ","MAREA":" ","LANE":" ","ALLEY":" ","HOUSE_NO":"５１號","E_COORD97":166073.26999999999,"N_COORD97":2543656.1600000001,"ADDRESS":"平通路５１號","OBJECTID":576357},"geometry":{"x":166073.26999999862,"y":2543656.1600000001}},{"attributes":{"ID":576385,"DIS_CODE":0,"TOWNNAME":"安平區","LI":"建平里","LIN":"23鄰","STREET":"平通路","SECT":" ","MAREA":" ","LANE":" ","ALLEY":" ","HOUSE_NO":"５３號","E_COORD97":166068.59,"N_COORD97":2543657.3799999999,"ADDRESS":"平通路５３號","OBJECTID":576358},"geometry":{"x":166068.59000000078,"y":2543657.379999999}},{"attributes":{"ID":576386,"DIS_CODE":0,"TOWNNAME":"歸仁區","LI":"新厝里","LIN":"23鄰","STREET":"大成八街","SECT":" ","MAREA":" ","LANE":" ","ALLEY":" ","HOUSE_NO":"３５號","E_COORD97":177617.73999999999,"N_COORD97":2540230.1800000002,"ADDRESS":"大成八街３５號","OBJECTID":576359},"geometry":{"x":177617.74000000022,"y":2540230.1800000016}},{"attributes":{"ID":576387,"DIS_CODE":0,"TOWNNAME":"歸仁區","LI":"大廟里","LIN":"23鄰","STREET":"大廟一街","SECT":" ","MAREA":" ","LANE":" ","ALLEY":" ","HOUSE_NO":"９８號","E_COORD97":175716.17000000001,"N_COORD97":2543923.25,"ADDRESS":"大廟一街９８號","OBJECTID":576360},"geometry":{"x":175716.16999999993,"y":2543923.25}},{"attributes":{"ID":576388,"DIS_CODE":0,"TOWNNAME":"歸仁區","LI":"崙頂里","LIN":"23鄰","STREET":"崙頂二街","SECT":" ","MAREA":" ","LANE":" ","ALLEY":" ","HOUSE_NO":"５８號","E_COORD97":177752.48999999999,"N_COORD97":2539975.48,"ADDRESS":"崙頂二街５８號","OBJECTID":576361},"geometry":{"x":177752.49000000209,"y":2539975.4800000004}},{"attributes":{"ID":576389,"DIS_CODE":0,"TOWNNAME":"歸仁區","LI":"崙頂里","LIN":"23鄰","STREET":"崙頂二街","SECT":" ","MAREA":" ","LANE":" ","ALLEY":" ","HOUSE_NO":"７０號","E_COORD97":177732.89000000001,"N_COORD97":2539956.48,"ADDRESS":"崙頂二街７０號","OBJECTID":576362},"geometry":{"x":177732.8900000006,"y":2539956.4800000042}},{"attributes":{"ID":576390,"DIS_CODE":0,"TOWNNAME":"歸仁區","LI":"歸南里","LIN":"23鄰","STREET":"民生八街","SECT":" ","MAREA":" ","LANE":" ","ALLEY":" ","HOUSE_NO":"３８號","E_COORD97":176101.48999999999,"N_COORD97":2540351.29,"ADDRESS":"民生八街３８號","OBJECTID":576363},"geometry":{"x":176101.49000000115,"y":2540351.2899999991}},{"attributes":{"ID":576391,"DIS_CODE":0,"TOWNNAME":"歸仁區","LI":"歸南里","LIN":"23鄰","STREET":"民生八街","SECT":" ","MAREA":" ","LANE":" ","ALLEY":" ","HOUSE_NO":"３０號","E_COORD97":176117.89000000001,"N_COORD97":2540350.29,"ADDRESS":"民生八街３０號","OBJECTID":576364},"geometry":{"x":176117.88999999966,"y":2540350.290000001}},{"attributes":{"ID":576392,"DIS_CODE":0,"TOWNNAME":"歸仁區","LI":"歸南里","LIN":"23鄰","STREET":"民生八街","SECT":" ","MAREA":" ","LANE":" ","ALLEY":" ","HOUSE_NO":"４５號","E_COORD97":176070.69,"N_COORD97":2540337.29,"ADDRESS":"民生八街４５號","OBJECTID":576365},"geometry":{"x":176070.69000000041,"y":2540337.290000001}},{"attributes":{"ID":576393,"DIS_CODE":0,"TOWNNAME":"歸仁區","LI":"歸南里","LIN":"23鄰","STREET":"民生八街","SECT":" ","MAREA":" ","LANE":" ","ALLEY":" ","HOUSE_NO":"３５號","E_COORD97":176091.19,"N_COORD97":2540334.29,"ADDRESS":"民生八街３５號","OBJECTID":576366},"geometry":{"x":176091.19000000041,"y":2540334.290000001}},{"attributes":{"ID":576394,"DIS_CODE":0,"TOWNNAME":"歸仁區","LI":"新厝里","LIN":"23鄰","STREET":"大成八街","SECT":" ","MAREA":" ","LANE":" ","ALLEY":" ","HOUSE_NO":"２１號","E_COORD97":177641.34,"N_COORD97":2540244.1800000002,"ADDRESS":"大成八街２１號","OBJECTID":576367},"geometry":{"x":177641.34000000078,"y":2540244.1799999997}},{"attributes":{"ID":576395,"DIS_CODE":0,"TOWNNAME":"歸仁區","LI":"南興里","LIN":"23鄰","STREET":"文化街","SECT":"三段","MAREA":" ","LANE":" ","ALLEY":" ","HOUSE_NO":"６８４號","E_COORD97":175488.94,"N_COORD97":2541203.3300000001,"ADDRESS":"文化街三段６８４號","OBJECTID":576368},"geometry":{"x":175488.94000000134,"y":2541203.3300000001}},{"attributes":{"ID":576396,"DIS_CODE":0,"TOWNNAME":"歸仁區","LI":"崙頂里","LIN":"23鄰","STREET":"崙頂二街","SECT":" ","MAREA":" ","LANE":" ","ALLEY":" ","HOUSE_NO":"６８號","E_COORD97":177737.09,"N_COORD97":2539960.48,"ADDRESS":"崙頂二街６８號","OBJECTID":576369},"geometry":{"x":177737.08999999985,"y":2539960.4800000023}},{"attributes":{"ID":576397,"DIS_CODE":0,"TOWNNAME":"歸仁區","LI":"後市里","LIN":"23鄰","STREET":"民族北街","SECT":" ","MAREA":" ","LANE":" ","ALLEY":" ","HOUSE_NO":"３２號","E_COORD97":177470.98000000001,"N_COORD97":2540952.25,"ADDRESS":"民族北街３２號","OBJECTID":576370},"geometry":{"x":177470.98000000045,"y":2540952.2500000019}},{"attributes":{"ID":576398,"DIS_CODE":0,"TOWNNAME":"永康區","LI":"二王里","LIN":"18鄰","STREET":"中山南路","SECT":" ","MAREA":" ","LANE":" ","ALLEY":" ","HOUSE_NO":"６４６號","E_COORD97":172402.01000000001,"N_COORD97":2546688.8999999999,"ADDRESS":"中山南路６４６號","OBJECTID":576371},"geometry":{"x":172402.01000000071,"y":2546688.9000000004}},{"attributes":{"ID":576399,"DIS_CODE":0,"TOWNNAME":"歸仁區","LI":"歸南里","LIN":"23鄰","STREET":"民生八街","SECT":" ","MAREA":" ","LANE":" ","ALLEY":" ","HOUSE_NO":"１號","E_COORD97":176165.84,"N_COORD97":2540336.29,"ADDRESS":"民生八街１號","OBJECTID":576372},"geometry":{"x":176165.83999999985,"y":2540336.290000001}},{"attributes":{"ID":576400,"DIS_CODE":0,"TOWNNAME":"歸仁區","LI":"歸南里","LIN":"23鄰","STREET":"民生八街","SECT":" ","MAREA":" ","LANE":" ","ALLEY":" ","HOUSE_NO":"２３號","E_COORD97":176117.89000000001,"N_COORD97":2540333.29,"ADDRESS":"民生八街２３號","OBJECTID":576373},"geometry":{"x":176117.88999999966,"y":2540333.290000001}},{"attributes":{"ID":576401,"DIS_CODE":0,"TOWNNAME":"北區","LI":"大豐里","LIN":"23鄰","STREET":"中華北路","SECT":"一段","MAREA":" ","LANE":" ","ALLEY":" ","HOUSE_NO":"１０８號","E_COORD97":166528.62,"N_COORD97":2545543.0699999998,"ADDRESS":"中華北路一段１０８號","OBJECTID":576374},"geometry":{"x":166528.62000000011,"y":2545543.070000004}},{"attributes":{"ID":576402,"DIS_CODE":0,"TOWNNAME":"北區","LI":"成德里","LIN":"23鄰","STREET":"育德二路","SECT":" ","MAREA":" ","LANE":" ","ALLEY":" ","HOUSE_NO":"８１８號","E_COORD97":168132.98999999999,"N_COORD97":2546776.7799999998,"ADDRESS":"育德二路８１８號","OBJECTID":576375},"geometry":{"x":168132.99000000115,"y":2546776.7799999993}},{"attributes":{"ID":576403,"DIS_CODE":0,"TOWNNAME":"玉井區","LI":"玉田里","LIN":"23鄰","STREET":"民權路","SECT":" ","MAREA":" ","LANE":" ","ALLEY":" ","HOUSE_NO":"２７號","E_COORD97":194996.54000000001,"N_COORD97":2557899.2799999998,"ADDRESS":"民權路２７號","OBJECTID":576376},"geometry":{"x":194996.54000000004,"y":2557899.2800000012}},{"attributes":{"ID":576404,"DIS_CODE":0,"TOWNNAME":"玉井區","LI":"玉田里","LIN":"23鄰","STREET":"民權路","SECT":" ","MAREA":" ","LANE":" ","ALLEY":" ","HOUSE_NO":"４３號","E_COORD97":194941.84,"N_COORD97":2557907.29,"ADDRESS":"民權路４３號","OBJECTID":576377},"geometry":{"x":194941.83999999985,"y":2557907.2899999991}},{"attributes":{"ID":576405,"DIS_CODE":0,"TOWNNAME":"玉井區","LI":"玉田里","LIN":"23鄰","STREET":"民權路","SECT":" ","MAREA":" ","LANE":" ","ALLEY":" ","HOUSE_NO":"３５號","E_COORD97":194965.04000000001,"N_COORD97":2557898.2799999998,"ADDRESS":"民權路３５號","OBJECTID":576378},"geometry":{"x":194965.04000000097,"y":2557898.2799999975}},{"attributes":{"ID":576406,"DIS_CODE":0,"TOWNNAME":"玉井區","LI":"玉田里","LIN":"23鄰","STREET":"民權路","SECT":" ","MAREA":" ","LANE":" ","ALLEY":" ","HOUSE_NO":"４７號","E_COORD97":194933.42999999999,"N_COORD97":2557904.29,"ADDRESS":"民權路４７號","OBJECTID":576379},"geometry":{"x":194933.43000000063,"y":2557904.2899999991}},{"attributes":{"ID":576407,"DIS_CODE":0,"TOWNNAME":"學甲區","LI":"慈福里","LIN":"23鄰","STREET":"成功路","SECT":" ","MAREA":" ","LANE":" ","ALLEY":" ","HOUSE_NO":"３４號","E_COORD97":166201.47,"N_COORD97":2570354.1600000001,"ADDRESS":"成功路３４號","OBJECTID":576380},"geometry":{"x":166201.47000000067,"y":2570354.160000002}},{"attributes":{"ID":576408,"DIS_CODE":0,"TOWNNAME":"學甲區","LI":"慈福里","LIN":"23鄰","STREET":"成功路","SECT":" ","MAREA":" ","LANE":" ","ALLEY":" ","HOUSE_NO":"３６號","E_COORD97":166202.39999999999,"N_COORD97":2570359.8199999998,"ADDRESS":"成功路３６號","OBJECTID":576381},"geometry":{"x":166202.4000000013,"y":2570359.8200000022}},{"attributes":{"ID":576409,"DIS_CODE":0,"TOWNNAME":"永康區","LI":"三合里","LIN":"1鄰","STREET":"南工街","SECT":" ","MAREA":" ","LANE":" ","ALLEY":" ","HOUSE_NO":"２０號","E_COORD97":172116.57000000001,"N_COORD97":2545511.2400000002,"ADDRESS":"南工街２０號","OBJECTID":576382},"geometry":{"x":172116.5700000003,"y":2545511.2400000039}},{"attributes":{"ID":576410,"DIS_CODE":0,"TOWNNAME":"永康區","LI":"三合里","LIN":"1鄰","STREET":"南工街","SECT":" ","MAREA":" ","LANE":" ","ALLEY":" ","HOUSE_NO":"１４號","E_COORD97":172117.31,"N_COORD97":2545493.9900000002,"ADDRESS":"南工街１４號","OBJECTID":576383},"geometry":{"x":172117.31000000052,"y":2545493.9900000021}},{"attributes":{"ID":576411,"DIS_CODE":0,"TOWNNAME":"永康區","LI":"三民里","LIN":"12鄰","STREET":"和平路","SECT":" ","MAREA":" ","LANE":" ","ALLEY":" ","HOUSE_NO":"２２５號","E_COORD97":174738.48000000001,"N_COORD97":2550668.25,"ADDRESS":"和平路２２５號","OBJECTID":576384},"geometry":{"x":174738.48000000045,"y":2550668.2500000019}},{"attributes":{"ID":576412,"DIS_CODE":0,"TOWNNAME":"永康區","LI":"三民里","LIN":"12鄰","STREET":"和平東路","SECT":" ","MAREA":" ","LANE":" ","ALLEY":" ","HOUSE_NO":"１５２號","E_COORD97":174703.72,"N_COORD97":2550598,"ADDRESS":"和平東路１５２號","OBJECTID":576385},"geometry":{"x":174703.71999999974,"y":2550597.9999999981}},{"attributes":{"ID":576413,"DIS_CODE":0,"TOWNNAME":"永康區","LI":"三合里","LIN":"23鄰","STREET":"南工街","SECT":" ","MAREA":" ","LANE":" ","ALLEY":" ","HOUSE_NO":"３３５號","E_COORD97":171755.16,"N_COORD97":2546036.27,"ADDRESS":"南工街３３５號","OBJECTID":576386},"geometry":{"x":171755.16000000015,"y":2546036.2700000014}},{"attributes":{"ID":576414,"DIS_CODE":0,"TOWNNAME":"學甲區","LI":"慈福里","LIN":"23鄰","STREET":"成功路","SECT":" ","MAREA":" ","LANE":" ","ALLEY":" ","HOUSE_NO":"３８號","E_COORD97":166202.95999999999,"N_COORD97":2570364.0299999998,"ADDRESS":"成功路３８號","OBJECTID":576387},"geometry":{"x":166202.95999999903,"y":2570364.0300000012}},{"attributes":{"ID":576415,"DIS_CODE":0,"TOWNNAME":"學甲區","LI":"慈福里","LIN":"23鄰","STREET":"成功路","SECT":" ","MAREA":" ","LANE":" ","ALLEY":" ","HOUSE_NO":"４０號","E_COORD97":166203.35000000001,"N_COORD97":2570368.8999999999,"ADDRESS":"成功路４０號","OBJECTID":576388},"geometry":{"x":166203.3499999987,"y":2570368.9000000022}},{"attributes":{"ID":576416,"DIS_CODE":0,"TOWNNAME":"學甲區","LI":"明宜里","LIN":"23鄰","STREET":"信義路","SECT":" ","MAREA":" ","LANE":" ","ALLEY":" ","HOUSE_NO":"７７號","E_COORD97":165904.69,"N_COORD97":2570651,"ADDRESS":"信義路７７號","OBJECTID":576389},"geometry":{"x":165904.69000000041,"y":2570651}},{"attributes":{"ID":576417,"DIS_CODE":0,"TOWNNAME":"學甲區","LI":"明宜里","LIN":"23鄰","STREET":"信義路","SECT":" ","MAREA":" ","LANE":" ","ALLEY":" ","HOUSE_NO":"７３號之１","E_COORD97":165911.10000000001,"N_COORD97":2570634.8999999999,"ADDRESS":"信義路７３號之１","OBJECTID":576390},"geometry":{"x":165911.09999999963,"y":2570634.9000000004}},{"attributes":{"ID":576418,"DIS_CODE":0,"TOWNNAME":"學甲區","LI":"明宜里","LIN":"23鄰","STREET":"信義路","SECT":" ","MAREA":" ","LANE":" ","ALLEY":" ","HOUSE_NO":"７３號之２","E_COORD97":165912.23000000001,"N_COORD97":2570639.8500000001,"ADDRESS":"信義路７３號之２","OBJECTID":576391},"geometry":{"x":165912.23000000138,"y":2570639.8500000015}},{"attributes":{"ID":576419,"DIS_CODE":0,"TOWNNAME":"學甲區","LI":"明宜里","LIN":"23鄰","STREET":"信義路","SECT":" ","MAREA":" ","LANE":" ","ALLEY":" ","HOUSE_NO":"７３號","E_COORD97":165909.98999999999,"N_COORD97":2570628.9700000002,"ADDRESS":"信義路７３號","OBJECTID":576392},"geometry":{"x":165909.99000000115,"y":2570628.9700000007}},{"attributes":{"ID":576420,"DIS_CODE":0,"TOWNNAME":"學甲區","LI":"明宜里","LIN":"23鄰","STREET":"信義路","SECT":" ","MAREA":" ","LANE":" ","ALLEY":" ","HOUSE_NO":"７７號之１","E_COORD97":165914.63,"N_COORD97":2570660.2599999998,"ADDRESS":"信義路７７號之１","OBJECTID":576393},"geometry":{"x":165914.62999999989,"y":2570660.2599999979}},{"attributes":{"ID":576421,"DIS_CODE":0,"TOWNNAME":"學甲區","LI":"明宜里","LIN":"23鄰","STREET":"信義路","SECT":" ","MAREA":" ","LANE":" ","ALLEY":" ","HOUSE_NO":"７９號之１","E_COORD97":165918.01999999999,"N_COORD97":2570669.25,"ADDRESS":"信義路７９號之１","OBJECTID":576394},"geometry":{"x":165918.02000000048,"y":2570669.25}},{"attributes":{"ID":576422,"DIS_CODE":0,"TOWNNAME":"學甲區","LI":"明宜里","LIN":"23鄰","STREET":"信義路","SECT":" ","MAREA":" ","LANE":" ","ALLEY":" ","HOUSE_NO":"８１號","E_COORD97":165912.95999999999,"N_COORD97":2570679.54,"ADDRESS":"信義路８１號","OBJECTID":576395},"geometry":{"x":165912.95999999996,"y":2570679.540000001}},{"attributes":{"ID":576423,"DIS_CODE":0,"TOWNNAME":"永康區","LI":"三合里","LIN":"2鄰","STREET":"南工街","SECT":" ","MAREA":" ","LANE":" ","ALLEY":" ","HOUSE_NO":"２７號","E_COORD97":172098.81,"N_COORD97":2545541.8399999999,"ADDRESS":"南工街２７號","OBJECTID":576396},"geometry":{"x":172098.80999999959,"y":2545541.8400000017}},{"attributes":{"ID":576424,"DIS_CODE":0,"TOWNNAME":"學甲區","LI":"明宜里","LIN":"23鄰","STREET":"重信路","SECT":" ","MAREA":" ","LANE":" ","ALLEY":" ","HOUSE_NO":"３０號","E_COORD97":165900.57000000001,"N_COORD97":2570633.1600000001,"ADDRESS":"重信路３０號","OBJECTID":576397},"geometry":{"x":165900.5700000003,"y":2570633.1600000001}},{"attributes":{"ID":576425,"DIS_CODE":0,"TOWNNAME":"學甲區","LI":"明宜里","LIN":"23鄰","STREET":"重信路","SECT":" ","MAREA":" ","LANE":" ","ALLEY":" ","HOUSE_NO":"４２號之１","E_COORD97":165846.35000000001,"N_COORD97":2570640.5800000001,"ADDRESS":"重信路４２號之１","OBJECTID":576398},"geometry":{"x":165846.35000000056,"y":2570640.5800000001}},{"attributes":{"ID":576426,"DIS_CODE":0,"TOWNNAME":"學甲區","LI":"明宜里","LIN":"23鄰","STREET":"重信路","SECT":" ","MAREA":" ","LANE":" ","ALLEY":" ","HOUSE_NO":"４２號","E_COORD97":165850.79000000001,"N_COORD97":2570639.5,"ADDRESS":"重信路４２號","OBJECTID":576399},"geometry":{"x":165850.79000000097,"y":2570639.5000000019}},{"attributes":{"ID":576427,"DIS_CODE":0,"TOWNNAME":"學甲區","LI":"明宜里","LIN":"23鄰","STREET":"重信路","SECT":" ","MAREA":" ","LANE":" ","ALLEY":" ","HOUSE_NO":"４６號","E_COORD97":165842.64999999999,"N_COORD97":2570641.2200000002,"ADDRESS":"重信路４６號","OBJECTID":576400},"geometry":{"x":165842.65000000037,"y":2570641.2200000044}}]}