{"displayFieldName":"TOWNNAME","fieldAliases":{"ID":"ID","DIS_CODE":"DIS_CODE","TOWNNAME":"TOWNNAME","LI":"LI","LIN":"LIN","STREET":"STREET","SECT":"SECT","MAREA":"MAREA","LANE":"LANE","ALLEY":"ALLEY","HOUSE_NO":"HOUSE_NO","E_COORD97":"E_COORD97","N_COORD97":"N_COORD97","ADDRESS":"ADDRESS","OBJECTID":"OBJECTID"},"geometryType":"esriGeometryPoint","spatialReference":{"wkid":102443,"latestWkid":3826},"fields":[{"name":"ID","type":"esriFieldTypeDouble","alias":"ID"},{"name":"DIS_CODE","type":"esriFieldTypeInteger","alias":"DIS_CODE"},{"name":"TOWNNAME","type":"esriFieldTypeString","alias":"TOWNNAME","length":8},{"name":"LI","type":"esriFieldTypeString","alias":"LI","length":8},{"name":"LIN","type":"esriFieldTypeString","alias":"LIN","length":12},{"name":"STREET","type":"esriFieldTypeString","alias":"STREET","length":20},{"name":"SECT","type":"esriFieldTypeString","alias":"SECT","length":8},{"name":"MAREA","type":"esriFieldTypeString","alias":"MAREA","length":12},{"name":"LANE","type":"esriFieldTypeString","alias":"LANE","length":10},{"name":"ALLEY","type":"esriFieldTypeString","alias":"ALLEY","length":10},{"name":"HOUSE_NO","type":"esriFieldTypeString","alias":"HOUSE_NO","length":20},{"name":"E_COORD97","type":"esriFieldTypeDouble","alias":"E_COORD97"},{"name":"N_COORD97","type":"esriFieldTypeDouble","alias":"N_COORD97"},{"name":"ADDRESS","type":"esriFieldTypeString","alias":"ADDRESS","length":50},{"name":"OBJECTID","type":"esriFieldTypeOID","alias":"OBJECTID"}],"features":[{"attributes":{"ID":331610,"DIS_CODE":0,"TOWNNAME":"南區","LI":"府南里","LIN":"15鄰","STREET":"金華路","SECT":"一段","MAREA":" ","LANE":"５４０巷","ALLEY":" ","HOUSE_NO":"１５號","E_COORD97":167105.10999999999,"N_COORD97":2541672.8999999999,"ADDRESS":"金華路一段５４０巷１５號","OBJECTID":331601},"geometry":{"x":167105.11000000034,"y":2541672.9000000022}},{"attributes":{"ID":331611,"DIS_CODE":0,"TOWNNAME":"南區","LI":"府南里","LIN":"15鄰","STREET":"金華路","SECT":"一段","MAREA":" ","LANE":"５４０巷","ALLEY":" ","HOUSE_NO":"１７號","E_COORD97":167109.38,"N_COORD97":2541671.5600000001,"ADDRESS":"金華路一段５４０巷１７號","OBJECTID":331602},"geometry":{"x":167109.38000000082,"y":2541671.5600000042}},{"attributes":{"ID":331612,"DIS_CODE":0,"TOWNNAME":"南區","LI":"府南里","LIN":"15鄰","STREET":"金華路","SECT":"一段","MAREA":" ","LANE":"５４０巷","ALLEY":" ","HOUSE_NO":"１９號","E_COORD97":167117.54999999999,"N_COORD97":2541669.73,"ADDRESS":"金華路一段５４０巷１９號","OBJECTID":331603},"geometry":{"x":167117.54999999888,"y":2541669.7300000004}},{"attributes":{"ID":331613,"DIS_CODE":0,"TOWNNAME":"南區","LI":"府南里","LIN":"15鄰","STREET":"金華路","SECT":"一段","MAREA":" ","LANE":"５４０巷","ALLEY":" ","HOUSE_NO":"１號","E_COORD97":167072.31,"N_COORD97":2541680.3300000001,"ADDRESS":"金華路一段５４０巷１號","OBJECTID":331604},"geometry":{"x":167072.31000000052,"y":2541680.3300000019}},{"attributes":{"ID":331614,"DIS_CODE":0,"TOWNNAME":"南區","LI":"明亮里","LIN":"15鄰","STREET":"金華路","SECT":"一段","MAREA":" ","LANE":"３５２巷","ALLEY":" ","HOUSE_NO":"１３２號","E_COORD97":167277.07999999999,"N_COORD97":2541032.27,"ADDRESS":"金華路一段３５２巷１３２號","OBJECTID":331605},"geometry":{"x":167277.08000000194,"y":2541032.2700000014}},{"attributes":{"ID":331615,"DIS_CODE":0,"TOWNNAME":"關廟區","LI":"關廟里","LIN":"2鄰","STREET":"忠孝街","SECT":" ","MAREA":" ","LANE":" ","ALLEY":" ","HOUSE_NO":"３１號","E_COORD97":180960.29000000001,"N_COORD97":2540123.25,"ADDRESS":"忠孝街３１號","OBJECTID":331606},"geometry":{"x":180960.29000000004,"y":2540123.25}},{"attributes":{"ID":331616,"DIS_CODE":0,"TOWNNAME":"南區","LI":"明亮里","LIN":"15鄰","STREET":"金華路","SECT":"一段","MAREA":" ","LANE":"３５２巷","ALLEY":" ","HOUSE_NO":"１３４號","E_COORD97":167280.20999999999,"N_COORD97":2541025.6899999999,"ADDRESS":"金華路一段３５２巷１３４號","OBJECTID":331607},"geometry":{"x":167280.21000000089,"y":2541025.6900000013}},{"attributes":{"ID":331617,"DIS_CODE":0,"TOWNNAME":"南區","LI":"明亮里","LIN":"15鄰","STREET":"金華路","SECT":"一段","MAREA":" ","LANE":"３５２巷","ALLEY":" ","HOUSE_NO":"１３６號","E_COORD97":167287.73999999999,"N_COORD97":2541018.4900000002,"ADDRESS":"金華路一段３５２巷１３６號","OBJECTID":331608},"geometry":{"x":167287.74000000022,"y":2541018.4900000021}},{"attributes":{"ID":331618,"DIS_CODE":0,"TOWNNAME":"新市區","LI":"港墘里","LIN":"24鄰","STREET":"南昌街","SECT":" ","MAREA":" ","LANE":"３９巷","ALLEY":" ","HOUSE_NO":"２０號","E_COORD97":177941.52308000001,"N_COORD97":2552990.8997399998,"ADDRESS":"南昌街３９巷２０號","OBJECTID":331609},"geometry":{"x":177941.52308000065,"y":2552990.8997410033}},{"attributes":{"ID":331619,"DIS_CODE":0,"TOWNNAME":"大內區","LI":"石城里","LIN":"2鄰","STREET":" ","SECT":" ","MAREA":"石子瀨","LANE":" ","ALLEY":" ","HOUSE_NO":"１４號之１","E_COORD97":184368.65588499999,"N_COORD97":2557844.5774099999,"ADDRESS":"石子瀨１４號之１","OBJECTID":331610},"geometry":{"x":184368.65588500071,"y":2557844.5774070024}},{"attributes":{"ID":331620,"DIS_CODE":0,"TOWNNAME":"官田區","LI":"南\u25A0里","LIN":"9鄰","STREET":" ","SECT":" ","MAREA":"南\u25A0","LANE":" ","ALLEY":" ","HOUSE_NO":"１１９號之２６","E_COORD97":178429.32388000001,"N_COORD97":2568887.3413999998,"ADDRESS":"南\u25A0１１９號之２６","OBJECTID":331611},"geometry":{"x":178429.32388000004,"y":2568887.3414000012}},{"attributes":{"ID":331621,"DIS_CODE":0,"TOWNNAME":"新市區","LI":"潭頂里","LIN":"2鄰","STREET":" ","SECT":" ","MAREA":"潭頂","LANE":" ","ALLEY":" ","HOUSE_NO":"１４６之１號","E_COORD97":181065.586484,"N_COORD97":2552954.9041400002,"ADDRESS":"潭頂１４６之１號","OBJECTID":331612},"geometry":{"x":181065.58648400009,"y":2552954.9041390028}},{"attributes":{"ID":331622,"DIS_CODE":0,"TOWNNAME":"新市區","LI":"新和里","LIN":"3鄰","STREET":"延平街","SECT":" ","MAREA":" ","LANE":" ","ALLEY":" ","HOUSE_NO":"２１之２號","E_COORD97":177362.107162,"N_COORD97":2552053.82492,"ADDRESS":"延平街２１之２號","OBJECTID":331613},"geometry":{"x":177362.10716199968,"y":2552053.8249229994}},{"attributes":{"ID":331623,"DIS_CODE":0,"TOWNNAME":"新市區","LI":"潭頂里","LIN":"8鄰","STREET":" ","SECT":" ","MAREA":"潭頂","LANE":" ","ALLEY":" ","HOUSE_NO":"３０６號","E_COORD97":180701.71656999999,"N_COORD97":2552924.35427,"ADDRESS":"潭頂３０６號","OBJECTID":331614},"geometry":{"x":180701.7165700011,"y":2552924.3542650025}},{"attributes":{"ID":331624,"DIS_CODE":0,"TOWNNAME":"新市區","LI":"潭頂里","LIN":"13鄰","STREET":" ","SECT":" ","MAREA":"潭頂","LANE":" ","ALLEY":" ","HOUSE_NO":"４６４號","E_COORD97":180447.90506700001,"N_COORD97":2552825.20426,"ADDRESS":"潭頂４６４號","OBJECTID":331615},"geometry":{"x":180447.90506700054,"y":2552825.2042609993}},{"attributes":{"ID":331625,"DIS_CODE":0,"TOWNNAME":"新市區","LI":"潭頂里","LIN":"14鄰","STREET":" ","SECT":" ","MAREA":"潭頂","LANE":" ","ALLEY":" ","HOUSE_NO":"５５０號","E_COORD97":180061.25832200001,"N_COORD97":2552952.20419,"ADDRESS":"潭頂５５０號","OBJECTID":331616},"geometry":{"x":180061.2583220005,"y":2552952.2041919995}},{"attributes":{"ID":331626,"DIS_CODE":0,"TOWNNAME":"關廟區","LI":"松腳里","LIN":"13鄰","STREET":"和平路","SECT":" ","MAREA":" ","LANE":" ","ALLEY":" ","HOUSE_NO":"１６２號","E_COORD97":181692.433196,"N_COORD97":2539618.40081,"ADDRESS":"和平路１６２號","OBJECTID":331617},"geometry":{"x":181692.43319600075,"y":2539618.4008080009}},{"attributes":{"ID":331627,"DIS_CODE":0,"TOWNNAME":"新市區","LI":"社內里","LIN":"1鄰","STREET":" ","SECT":" ","MAREA":"社內","LANE":" ","ALLEY":" ","HOUSE_NO":"１１號","E_COORD97":176768.087363,"N_COORD97":2553000.4641700001,"ADDRESS":"社內１１號","OBJECTID":331618},"geometry":{"x":176768.08736300096,"y":2553000.4641660005}},{"attributes":{"ID":331628,"DIS_CODE":0,"TOWNNAME":"新營區","LI":"延平里","LIN":"4鄰","STREET":"成功街","SECT":" ","MAREA":" ","LANE":" ","ALLEY":" ","HOUSE_NO":"１０之１１號","E_COORD97":179730.784361,"N_COORD97":2577814.5594600001,"ADDRESS":"成功街１０之１１號","OBJECTID":331619},"geometry":{"x":179730.78436100017,"y":2577814.5594650023}},{"attributes":{"ID":331629,"DIS_CODE":0,"TOWNNAME":"新市區","LI":"社內里","LIN":"11鄰","STREET":" ","SECT":" ","MAREA":"社內","LANE":" ","ALLEY":" ","HOUSE_NO":"１２０號","E_COORD97":176512.68865,"N_COORD97":2552761.7042999999,"ADDRESS":"社內１２０號","OBJECTID":331620},"geometry":{"x":176512.68865000177,"y":2552761.7042950001}},{"attributes":{"ID":331630,"DIS_CODE":0,"TOWNNAME":"新市區","LI":"社內里","LIN":"12鄰","STREET":" ","SECT":" ","MAREA":"社內","LANE":" ","ALLEY":" ","HOUSE_NO":"１３０之１５號","E_COORD97":176413.96131700001,"N_COORD97":2552508.6569300001,"ADDRESS":"社內１３０之１５號","OBJECTID":331621},"geometry":{"x":176413.96131700091,"y":2552508.6569310017}},{"attributes":{"ID":331631,"DIS_CODE":0,"TOWNNAME":"官田區","LI":"南\u25A0里","LIN":"8鄰","STREET":" ","SECT":" ","MAREA":"南\u25A0","LANE":" ","ALLEY":" ","HOUSE_NO":"１０９號之１","E_COORD97":177824.85582,"N_COORD97":2568694.61992,"ADDRESS":"南\u25A0１０９號之１","OBJECTID":331622},"geometry":{"x":177824.8558200011,"y":2568694.6199199986}},{"attributes":{"ID":331632,"DIS_CODE":0,"TOWNNAME":"新市區","LI":"社內里","LIN":"13鄰","STREET":" ","SECT":" ","MAREA":"社內","LANE":" ","ALLEY":" ","HOUSE_NO":"１４３之３０號","E_COORD97":176111.529411,"N_COORD97":2552285.2428899999,"ADDRESS":"社內１４３之３０號","OBJECTID":331623},"geometry":{"x":176111.52941100113,"y":2552285.2428850047}},{"attributes":{"ID":331633,"DIS_CODE":0,"TOWNNAME":"南區","LI":"明亮里","LIN":"15鄰","STREET":"金華路","SECT":"一段","MAREA":" ","LANE":"３５２巷","ALLEY":" ","HOUSE_NO":"１３８號","E_COORD97":167291.51000000001,"N_COORD97":2541015.6699999999,"ADDRESS":"金華路一段３５２巷１３８號","OBJECTID":331624},"geometry":{"x":167291.51000000071,"y":2541015.6700000037}},{"attributes":{"ID":331634,"DIS_CODE":0,"TOWNNAME":"南區","LI":"明亮里","LIN":"15鄰","STREET":"金華路","SECT":"一段","MAREA":" ","LANE":"３５２巷","ALLEY":" ","HOUSE_NO":"１４０號","E_COORD97":167294.01999999999,"N_COORD97":2541013.4700000002,"ADDRESS":"金華路一段３５２巷１４０號","OBJECTID":331625},"geometry":{"x":167294.02000000142,"y":2541013.4700000007}},{"attributes":{"ID":331635,"DIS_CODE":0,"TOWNNAME":"南區","LI":"明亮里","LIN":"15鄰","STREET":"金華路","SECT":"一段","MAREA":" ","LANE":"３５２巷","ALLEY":" ","HOUSE_NO":"１４２號","E_COORD97":167297.47,"N_COORD97":2541010.9700000002,"ADDRESS":"金華路一段３５２巷１４２號","OBJECTID":331626},"geometry":{"x":167297.46999999974,"y":2541010.9699999988}},{"attributes":{"ID":331636,"DIS_CODE":0,"TOWNNAME":"南區","LI":"明亮里","LIN":"15鄰","STREET":"金華路","SECT":"一段","MAREA":" ","LANE":"３５２巷","ALLEY":" ","HOUSE_NO":"１４４號","E_COORD97":167300.60999999999,"N_COORD97":2541008.7799999998,"ADDRESS":"金華路一段３５２巷１４４號","OBJECTID":331627},"geometry":{"x":167300.61000000034,"y":2541008.7800000012}},{"attributes":{"ID":331637,"DIS_CODE":0,"TOWNNAME":"南區","LI":"明亮里","LIN":"15鄰","STREET":"金華路","SECT":"一段","MAREA":" ","LANE":"３５２巷","ALLEY":" ","HOUSE_NO":"１４６號","E_COORD97":167302.48999999999,"N_COORD97":2541006.27,"ADDRESS":"金華路一段３５２巷１４６號","OBJECTID":331628},"geometry":{"x":167302.49000000022,"y":2541006.2699999996}},{"attributes":{"ID":331638,"DIS_CODE":0,"TOWNNAME":"南區","LI":"明亮里","LIN":"15鄰","STREET":"金華路","SECT":"一段","MAREA":" ","LANE":"３５２巷","ALLEY":" ","HOUSE_NO":"１４８號","E_COORD97":167307.19,"N_COORD97":2541004.3900000001,"ADDRESS":"金華路一段３５２巷１４８號","OBJECTID":331629},"geometry":{"x":167307.19000000227,"y":2541004.3900000006}},{"attributes":{"ID":331639,"DIS_CODE":0,"TOWNNAME":"南區","LI":"明亮里","LIN":"15鄰","STREET":"金華路","SECT":"一段","MAREA":" ","LANE":"３５２巷","ALLEY":" ","HOUSE_NO":"１５０號","E_COORD97":167310.32999999999,"N_COORD97":2541001.5699999998,"ADDRESS":"金華路一段３５２巷１５０號","OBJECTID":331630},"geometry":{"x":167310.33000000007,"y":2541001.5700000003}},{"attributes":{"ID":331640,"DIS_CODE":0,"TOWNNAME":"南區","LI":"明亮里","LIN":"15鄰","STREET":"金華路","SECT":"一段","MAREA":" ","LANE":"３５２巷","ALLEY":" ","HOUSE_NO":"１５２號","E_COORD97":167314.10000000001,"N_COORD97":2540998.75,"ADDRESS":"金華路一段３５２巷１５２號","OBJECTID":331631},"geometry":{"x":167314.10000000056,"y":2540998.7500000019}},{"attributes":{"ID":331641,"DIS_CODE":0,"TOWNNAME":"南區","LI":"明亮里","LIN":"15鄰","STREET":"金華路","SECT":"一段","MAREA":" ","LANE":"３５２巷","ALLEY":" ","HOUSE_NO":"１５４號","E_COORD97":167319.10999999999,"N_COORD97":2540991.8599999999,"ADDRESS":"金華路一段３５２巷１５４號","OBJECTID":331632},"geometry":{"x":167319.11000000034,"y":2540991.8600000013}},{"attributes":{"ID":331642,"DIS_CODE":0,"TOWNNAME":"南區","LI":"明興里","LIN":"15鄰","STREET":"德興路","SECT":" ","MAREA":" ","LANE":"１３０巷","ALLEY":" ","HOUSE_NO":"３號","E_COORD97":167159.70000000001,"N_COORD97":2540442.6699999999,"ADDRESS":"德興路１３０巷３號","OBJECTID":331633},"geometry":{"x":167159.70000000112,"y":2540442.6700000037}},{"attributes":{"ID":331643,"DIS_CODE":0,"TOWNNAME":"南區","LI":"明興里","LIN":"15鄰","STREET":"德興路","SECT":" ","MAREA":" ","LANE":"１３０巷","ALLEY":" ","HOUSE_NO":"５號","E_COORD97":167155.73000000001,"N_COORD97":2540442.4300000002,"ADDRESS":"德興路１３０巷５號","OBJECTID":331634},"geometry":{"x":167155.73000000045,"y":2540442.4300000016}},{"attributes":{"ID":331644,"DIS_CODE":0,"TOWNNAME":"東山區","LI":"三榮里","LIN":"10鄰","STREET":" ","SECT":" ","MAREA":"木柵","LANE":" ","ALLEY":" ","HOUSE_NO":"５４之１３號","E_COORD97":187393.67718900001,"N_COORD97":2579865.1769099999,"ADDRESS":"木柵５４之１３號","OBJECTID":331635},"geometry":{"x":187393.67718900181,"y":2579865.1769050006}},{"attributes":{"ID":331645,"DIS_CODE":0,"TOWNNAME":"東區","LI":"忠孝里","LIN":"25鄰","STREET":"崇明三街","SECT":" ","MAREA":" ","LANE":" ","ALLEY":" ","HOUSE_NO":"１０號","E_COORD97":169564.26999999999,"N_COORD97":2542320.23,"ADDRESS":"崇明三街１０號","OBJECTID":331636},"geometry":{"x":169564.27000000048,"y":2542320.2300000004}},{"attributes":{"ID":331646,"DIS_CODE":0,"TOWNNAME":"東區","LI":"忠孝里","LIN":"25鄰","STREET":"崇明三街","SECT":" ","MAREA":" ","LANE":" ","ALLEY":" ","HOUSE_NO":"４號","E_COORD97":169551.76000000001,"N_COORD97":2542316.2799999998,"ADDRESS":"崇明三街４號","OBJECTID":331637},"geometry":{"x":169551.75999999978,"y":2542316.2800000031}},{"attributes":{"ID":331647,"DIS_CODE":0,"TOWNNAME":"東區","LI":"忠孝里","LIN":"25鄰","STREET":"崇明三街","SECT":" ","MAREA":" ","LANE":" ","ALLEY":" ","HOUSE_NO":"８號","E_COORD97":169560.51999999999,"N_COORD97":2542318.98,"ADDRESS":"崇明三街８號","OBJECTID":331638},"geometry":{"x":169560.52000000048,"y":2542318.9800000004}},{"attributes":{"ID":331648,"DIS_CODE":0,"TOWNNAME":"東區","LI":"忠孝里","LIN":"25鄰","STREET":"崇明三街","SECT":" ","MAREA":" ","LANE":" ","ALLEY":" ","HOUSE_NO":"６號","E_COORD97":169555.92999999999,"N_COORD97":2542318.1499999999,"ADDRESS":"崇明三街６號","OBJECTID":331639},"geometry":{"x":169555.92999999877,"y":2542318.1500000041}},{"attributes":{"ID":331649,"DIS_CODE":0,"TOWNNAME":"東區","LI":"虎尾里","LIN":"34鄰","STREET":"富農街","SECT":"一段","MAREA":" ","LANE":" ","ALLEY":" ","HOUSE_NO":"１１０號","E_COORD97":171534.66,"N_COORD97":2542316.21,"ADDRESS":"富農街一段１１０號","OBJECTID":331640},"geometry":{"x":171534.66000000015,"y":2542316.2100000028}},{"attributes":{"ID":331650,"DIS_CODE":0,"TOWNNAME":"東區","LI":"中西里","LIN":"17鄰","STREET":"林森路","SECT":"二段","MAREA":" ","LANE":" ","ALLEY":" ","HOUSE_NO":"７９號之２","E_COORD97":170132.79999999999,"N_COORD97":2543262.7400000002,"ADDRESS":"林森路二段７９號之２","OBJECTID":331641},"geometry":{"x":170132.79999999981,"y":2543262.7400000002}},{"attributes":{"ID":331651,"DIS_CODE":0,"TOWNNAME":"東區","LI":"中西里","LIN":"17鄰","STREET":"林森路","SECT":"二段","MAREA":" ","LANE":" ","ALLEY":" ","HOUSE_NO":"７９號之３","E_COORD97":170128.82999999999,"N_COORD97":2543269.1200000001,"ADDRESS":"林森路二段７９號之３","OBJECTID":331642},"geometry":{"x":170128.83000000101,"y":2543269.1200000029}},{"attributes":{"ID":331652,"DIS_CODE":0,"TOWNNAME":"東區","LI":"中西里","LIN":"17鄰","STREET":"林森路","SECT":"二段","MAREA":" ","LANE":" ","ALLEY":" ","HOUSE_NO":"７９號之４","E_COORD97":170124.87,"N_COORD97":2543274.29,"ADDRESS":"林森路二段７９號之４","OBJECTID":331643},"geometry":{"x":170124.87000000197,"y":2543274.2899999991}},{"attributes":{"ID":331653,"DIS_CODE":0,"TOWNNAME":"東區","LI":"忠孝里","LIN":"26鄰","STREET":"崇明一街","SECT":" ","MAREA":" ","LANE":" ","ALLEY":" ","HOUSE_NO":"２９號","E_COORD97":169574.98000000001,"N_COORD97":2542455.75,"ADDRESS":"崇明一街２９號","OBJECTID":331644},"geometry":{"x":169574.98000000045,"y":2542455.75}},{"attributes":{"ID":331654,"DIS_CODE":0,"TOWNNAME":"東區","LI":"小東里","LIN":"13鄰","STREET":"光明街","SECT":" ","MAREA":" ","LANE":" ","ALLEY":" ","HOUSE_NO":"５６號","E_COORD97":170884.79999999999,"N_COORD97":2544283.1099999999,"ADDRESS":"光明街５６號","OBJECTID":331645},"geometry":{"x":170884.80000000075,"y":2544283.1099999994}},{"attributes":{"ID":331655,"DIS_CODE":0,"TOWNNAME":"東山區","LI":"三榮里","LIN":"4鄰","STREET":" ","SECT":" ","MAREA":"許秀才","LANE":" ","ALLEY":" ","HOUSE_NO":"４１之１號","E_COORD97":187137.49097099999,"N_COORD97":2578995.8623700002,"ADDRESS":"許秀才４１之１號","OBJECTID":331646},"geometry":{"x":187137.49097099993,"y":2578995.8623740003}},{"attributes":{"ID":331656,"DIS_CODE":0,"TOWNNAME":"新市區","LI":"社內里","LIN":"18鄰","STREET":" ","SECT":" ","MAREA":"社內","LANE":" ","ALLEY":" ","HOUSE_NO":"１８５之１０１號","E_COORD97":176123.817362,"N_COORD97":2553874.7528599999,"ADDRESS":"社內１８５之１０１號","OBJECTID":331647},"geometry":{"x":176123.81736200023,"y":2553874.7528599985}},{"attributes":{"ID":331657,"DIS_CODE":0,"TOWNNAME":"新市區","LI":"社內里","LIN":"17鄰","STREET":" ","SECT":" ","MAREA":"社內","LANE":" ","ALLEY":" ","HOUSE_NO":"１８４之６０號","E_COORD97":175336.85882299999,"N_COORD97":2552648.7801899998,"ADDRESS":"社內１８４之６０號","OBJECTID":331648},"geometry":{"x":175336.85882299952,"y":2552648.7801890019}},{"attributes":{"ID":331658,"DIS_CODE":0,"TOWNNAME":"新市區","LI":"社內里","LIN":"17鄰","STREET":" ","SECT":" ","MAREA":"社內","LANE":" ","ALLEY":" ","HOUSE_NO":"１８４之１２號","E_COORD97":175467.04754900001,"N_COORD97":2552715.87849,"ADDRESS":"社內１８４之１２號","OBJECTID":331649},"geometry":{"x":175467.04754900001,"y":2552715.8784859981}},{"attributes":{"ID":331659,"DIS_CODE":0,"TOWNNAME":"永康區","LI":"復華里","LIN":"16鄰","STREET":"復華七街","SECT":" ","MAREA":" ","LANE":" ","ALLEY":" ","HOUSE_NO":"１３８號","E_COORD97":172893.025697,"N_COORD97":2546234.7208799999,"ADDRESS":"復華七街１３８號","OBJECTID":331650},"geometry":{"x":172893.02569700032,"y":2546234.7208820041}},{"attributes":{"ID":331660,"DIS_CODE":0,"TOWNNAME":"南區","LI":"明興里","LIN":"15鄰","STREET":"德興路","SECT":" ","MAREA":" ","LANE":"１３０巷","ALLEY":" ","HOUSE_NO":"７號","E_COORD97":167151.85000000001,"N_COORD97":2540442.2599999998,"ADDRESS":"德興路１３０巷７號","OBJECTID":331651},"geometry":{"x":167151.85000000056,"y":2540442.2600000035}},{"attributes":{"ID":331661,"DIS_CODE":0,"TOWNNAME":"南區","LI":"明興里","LIN":"15鄰","STREET":"德興路","SECT":" ","MAREA":" ","LANE":"１３０巷","ALLEY":" ","HOUSE_NO":"９號","E_COORD97":167147.54999999999,"N_COORD97":2540442.1000000001,"ADDRESS":"德興路１３０巷９號","OBJECTID":331652},"geometry":{"x":167147.54999999981,"y":2540442.0999999996}},{"attributes":{"ID":331662,"DIS_CODE":0,"TOWNNAME":"南區","LI":"明興里","LIN":"15鄰","STREET":"德興路","SECT":" ","MAREA":" ","LANE":"１３０巷","ALLEY":" ","HOUSE_NO":"１０號","E_COORD97":167166.62,"N_COORD97":2540457.0499999998,"ADDRESS":"德興路１３０巷１０號","OBJECTID":331653},"geometry":{"x":167166.62000000197,"y":2540457.0500000007}},{"attributes":{"ID":331663,"DIS_CODE":0,"TOWNNAME":"南區","LI":"明興里","LIN":"15鄰","STREET":"德興路","SECT":" ","MAREA":" ","LANE":"１３０巷","ALLEY":" ","HOUSE_NO":"１１號","E_COORD97":167143.82999999999,"N_COORD97":2540441.4399999999,"ADDRESS":"德興路１３０巷１１號","OBJECTID":331654},"geometry":{"x":167143.83000000101,"y":2540441.4400000013}},{"attributes":{"ID":331664,"DIS_CODE":0,"TOWNNAME":"南區","LI":"明興里","LIN":"15鄰","STREET":"德興路","SECT":" ","MAREA":" ","LANE":"１３０巷","ALLEY":" ","HOUSE_NO":"１２號","E_COORD97":167158.10999999999,"N_COORD97":2540456.3900000001,"ADDRESS":"德興路１３０巷１２號","OBJECTID":331655},"geometry":{"x":167158.11000000034,"y":2540456.3900000025}},{"attributes":{"ID":331665,"DIS_CODE":0,"TOWNNAME":"新營區","LI":"太北里","LIN":"16鄰","STREET":" ","SECT":" ","MAREA":"太子宮","LANE":" ","ALLEY":" ","HOUSE_NO":"１３３之５號","E_COORD97":175886.35100600001,"N_COORD97":2576851.5465199999,"ADDRESS":"太子宮１３３之５號","OBJECTID":331656},"geometry":{"x":175886.3510060003,"y":2576851.5465190001}},{"attributes":{"ID":331666,"DIS_CODE":0,"TOWNNAME":"歸仁區","LI":"沙崙里","LIN":"1鄰","STREET":" ","SECT":" ","MAREA":"二甲","LANE":" ","ALLEY":" ","HOUSE_NO":"１６５號","E_COORD97":178706.37205000001,"N_COORD97":2539680.1016099998,"ADDRESS":"二甲１６５號","OBJECTID":331657},"geometry":{"x":178706.37205000035,"y":2539680.1016080007}},{"attributes":{"ID":331667,"DIS_CODE":0,"TOWNNAME":"歸仁區","LI":"沙崙里","LIN":"3鄰","STREET":" ","SECT":" ","MAREA":"二甲","LANE":" ","ALLEY":" ","HOUSE_NO":"１７５號","E_COORD97":178520.564323,"N_COORD97":2538998.64114,"ADDRESS":"二甲１７５號","OBJECTID":331658},"geometry":{"x":178520.56432299968,"y":2538998.6411430035}},{"attributes":{"ID":331668,"DIS_CODE":0,"TOWNNAME":"歸仁區","LI":"沙崙里","LIN":"1鄰","STREET":" ","SECT":" ","MAREA":"二甲","LANE":" ","ALLEY":" ","HOUSE_NO":"１之１號","E_COORD97":178484.54686199999,"N_COORD97":2539567.7066700002,"ADDRESS":"二甲１之１號","OBJECTID":331659},"geometry":{"x":178484.5468620006,"y":2539567.7066690009}},{"attributes":{"ID":331669,"DIS_CODE":0,"TOWNNAME":"歸仁區","LI":"七甲里","LIN":"2鄰","STREET":"中正北路","SECT":"二段","MAREA":" ","LANE":"４１７巷","ALLEY":" ","HOUSE_NO":"１２７號","E_COORD97":177255.74201399999,"N_COORD97":2543015.1264800001,"ADDRESS":"中正北路二段４１７巷１２７號","OBJECTID":331660},"geometry":{"x":177255.74201400112,"y":2543015.1264780015}},{"attributes":{"ID":331670,"DIS_CODE":0,"TOWNNAME":"歸仁區","LI":"七甲里","LIN":"5鄰","STREET":"中正北路","SECT":"二段","MAREA":" ","LANE":"４１８巷","ALLEY":" ","HOUSE_NO":"１８號","E_COORD97":177532.764604,"N_COORD97":2543038.8331300002,"ADDRESS":"中正北路二段４１８巷１８號","OBJECTID":331661},"geometry":{"x":177532.76460400131,"y":2543038.8331320025}},{"attributes":{"ID":331671,"DIS_CODE":0,"TOWNNAME":"歸仁區","LI":"七甲里","LIN":"6鄰","STREET":"中正北路","SECT":"二段","MAREA":" ","LANE":"４１８巷","ALLEY":" ","HOUSE_NO":"３６號","E_COORD97":177570.400662,"N_COORD97":2543029.3081399999,"ADDRESS":"中正北路二段４１８巷３６號","OBJECTID":331662},"geometry":{"x":177570.40066200029,"y":2543029.3081369996}},{"attributes":{"ID":331672,"DIS_CODE":0,"TOWNNAME":"歸仁區","LI":"看西里","LIN":"14鄰","STREET":"大成路","SECT":" ","MAREA":" ","LANE":" ","ALLEY":" ","HOUSE_NO":"４５８號","E_COORD97":178222.996231,"N_COORD97":2540160.4658499998,"ADDRESS":"大成路４５８號","OBJECTID":331663},"geometry":{"x":178222.99623099994,"y":2540160.4658460021}},{"attributes":{"ID":331673,"DIS_CODE":0,"TOWNNAME":"安南區","LI":"溪心里","LIN":"8鄰","STREET":"海佃路","SECT":"二段","MAREA":" ","LANE":" ","ALLEY":" ","HOUSE_NO":"８１０號","E_COORD97":166429.24392899999,"N_COORD97":2549678.9582199999,"ADDRESS":"海佃路二段８１０號","OBJECTID":331664},"geometry":{"x":166429.24392899964,"y":2549678.9582170006}},{"attributes":{"ID":331674,"DIS_CODE":0,"TOWNNAME":"歸仁區","LI":"看西里","LIN":"14鄰","STREET":"大成路","SECT":" ","MAREA":" ","LANE":" ","ALLEY":" ","HOUSE_NO":"４６０號","E_COORD97":178227.39248000001,"N_COORD97":2540161.3654299998,"ADDRESS":"大成路４６０號","OBJECTID":331665},"geometry":{"x":178227.39248000085,"y":2540161.3654280026}},{"attributes":{"ID":331675,"DIS_CODE":0,"TOWNNAME":"南區","LI":"明興里","LIN":"15鄰","STREET":"德興路","SECT":" ","MAREA":" ","LANE":"１３０巷","ALLEY":" ","HOUSE_NO":"１３號","E_COORD97":167139.70000000001,"N_COORD97":2540441.1099999999,"ADDRESS":"德興路１３０巷１３號","OBJECTID":331666},"geometry":{"x":167139.70000000112,"y":2540441.1099999994}},{"attributes":{"ID":331676,"DIS_CODE":0,"TOWNNAME":"南區","LI":"明興里","LIN":"15鄰","STREET":"德興路","SECT":" ","MAREA":" ","LANE":"１３０巷","ALLEY":" ","HOUSE_NO":"１４號","E_COORD97":167151.82999999999,"N_COORD97":2540455.8100000001,"ADDRESS":"德興路１３０巷１４號","OBJECTID":331667},"geometry":{"x":167151.83000000101,"y":2540455.8099999987}},{"attributes":{"ID":331677,"DIS_CODE":0,"TOWNNAME":"新市區","LI":"社內里","LIN":"18鄰","STREET":" ","SECT":" ","MAREA":"社內","LANE":" ","ALLEY":" ","HOUSE_NO":"１８５之１００號","E_COORD97":176128.47829999999,"N_COORD97":2553870.5195200001,"ADDRESS":"社內１８５之１００號","OBJECTID":331668},"geometry":{"x":176128.47829999961,"y":2553870.5195199996}},{"attributes":{"ID":331678,"DIS_CODE":0,"TOWNNAME":"歸仁區","LI":"沙崙里","LIN":"2鄰","STREET":" ","SECT":" ","MAREA":"二甲","LANE":" ","ALLEY":" ","HOUSE_NO":"４３號","E_COORD97":178254.45884400001,"N_COORD97":2538943.26388,"ADDRESS":"二甲４３號","OBJECTID":331669},"geometry":{"x":178254.45884400047,"y":2538943.2638810016}},{"attributes":{"ID":331679,"DIS_CODE":0,"TOWNNAME":"南區","LI":"明興里","LIN":"15鄰","STREET":"德興路","SECT":" ","MAREA":" ","LANE":"１３０巷","ALLEY":" ","HOUSE_NO":"１５號","E_COORD97":167135.32000000001,"N_COORD97":2540441.02,"ADDRESS":"德興路１３０巷１５號","OBJECTID":331670},"geometry":{"x":167135.32000000123,"y":2540441.0200000014}},{"attributes":{"ID":331680,"DIS_CODE":0,"TOWNNAME":"南區","LI":"明興里","LIN":"15鄰","STREET":"德興路","SECT":" ","MAREA":" ","LANE":"１３０巷","ALLEY":" ","HOUSE_NO":"１６號","E_COORD97":167144.06,"N_COORD97":2540454.7400000002,"ADDRESS":"德興路１３０巷１６號","OBJECTID":331671},"geometry":{"x":167144.05999999959,"y":2540454.7400000002}},{"attributes":{"ID":331681,"DIS_CODE":0,"TOWNNAME":"南區","LI":"明興里","LIN":"15鄰","STREET":"德興路","SECT":" ","MAREA":" ","LANE":"１３０巷","ALLEY":" ","HOUSE_NO":"１７號","E_COORD97":167132.35000000001,"N_COORD97":2540440.6899999999,"ADDRESS":"德興路１３０巷１７號","OBJECTID":331672},"geometry":{"x":167132.35000000149,"y":2540440.6899999995}},{"attributes":{"ID":331682,"DIS_CODE":0,"TOWNNAME":"南區","LI":"明興里","LIN":"15鄰","STREET":"德興路","SECT":" ","MAREA":" ","LANE":"１３０巷","ALLEY":" ","HOUSE_NO":"１９號","E_COORD97":167127.89000000001,"N_COORD97":2540440.3599999999,"ADDRESS":"德興路１３０巷１９號","OBJECTID":331673},"geometry":{"x":167127.8900000006,"y":2540440.3599999994}},{"attributes":{"ID":331683,"DIS_CODE":0,"TOWNNAME":"南區","LI":"明興里","LIN":"15鄰","STREET":"德興路","SECT":" ","MAREA":" ","LANE":"１３０巷","ALLEY":" ","HOUSE_NO":"２０號","E_COORD97":167133.20000000001,"N_COORD97":2540450.6099999999,"ADDRESS":"德興路１３０巷２０號","OBJECTID":331674},"geometry":{"x":167133.20000000019,"y":2540450.6100000013}},{"attributes":{"ID":331684,"DIS_CODE":0,"TOWNNAME":"南區","LI":"明興里","LIN":"15鄰","STREET":"德興路","SECT":" ","MAREA":" ","LANE":"１３０巷","ALLEY":" ","HOUSE_NO":"２１號","E_COORD97":167124.25,"N_COORD97":2540440.0299999998,"ADDRESS":"德興路１３０巷２１號","OBJECTID":331675},"geometry":{"x":167124.25,"y":2540440.0300000012}},{"attributes":{"ID":331685,"DIS_CODE":0,"TOWNNAME":"南區","LI":"明興里","LIN":"15鄰","STREET":"德興路","SECT":" ","MAREA":" ","LANE":"１３０巷","ALLEY":" ","HOUSE_NO":"２２號","E_COORD97":167128.48999999999,"N_COORD97":2540449.3700000001,"ADDRESS":"德興路１３０巷２２號","OBJECTID":331676},"geometry":{"x":167128.49000000022,"y":2540449.3700000048}},{"attributes":{"ID":331686,"DIS_CODE":0,"TOWNNAME":"南區","LI":"明興里","LIN":"15鄰","STREET":"德興路","SECT":" ","MAREA":" ","LANE":"１３０巷","ALLEY":" ","HOUSE_NO":"２３號","E_COORD97":167119.70999999999,"N_COORD97":2540439.7000000002,"ADDRESS":"德興路１３０巷２３號","OBJECTID":331677},"geometry":{"x":167119.70999999996,"y":2540439.7000000011}},{"attributes":{"ID":331687,"DIS_CODE":0,"TOWNNAME":"東區","LI":"小東里","LIN":"7鄰","STREET":"光明街","SECT":" ","MAREA":" ","LANE":" ","ALLEY":" ","HOUSE_NO":"１８７號之３","E_COORD97":170929.95999999999,"N_COORD97":2544127.5099999998,"ADDRESS":"光明街１８７號之３","OBJECTID":331678},"geometry":{"x":170929.96000000089,"y":2544127.5099999998}},{"attributes":{"ID":331688,"DIS_CODE":0,"TOWNNAME":"安南區","LI":"新順里","LIN":"18鄰","STREET":"育安街","SECT":" ","MAREA":" ","LANE":" ","ALLEY":" ","HOUSE_NO":"３２之１號","E_COORD97":169648.826244,"N_COORD97":2549589.8230099999,"ADDRESS":"育安街３２之１號","OBJECTID":331679},"geometry":{"x":169648.82624400128,"y":2549589.8230089974}},{"attributes":{"ID":331689,"DIS_CODE":0,"TOWNNAME":"歸仁區","LI":"媽廟里","LIN":"10鄰","STREET":"保大路","SECT":"一段","MAREA":" ","LANE":"１８７巷","ALLEY":" ","HOUSE_NO":"１３號","E_COORD97":177571.39767999999,"N_COORD97":2543972.86038,"ADDRESS":"保大路一段１８７巷１３號","OBJECTID":331680},"geometry":{"x":177571.3976800004,"y":2543972.860375002}},{"attributes":{"ID":331690,"DIS_CODE":0,"TOWNNAME":"歸仁區","LI":"崙頂里","LIN":"24鄰","STREET":"崙頂街","SECT":" ","MAREA":" ","LANE":"９０巷","ALLEY":" ","HOUSE_NO":"８之１號","E_COORD97":177834.044425,"N_COORD97":2539917.1427199999,"ADDRESS":"崙頂街９０巷８之１號","OBJECTID":331681},"geometry":{"x":177834.04442500137,"y":2539917.142719999}},{"attributes":{"ID":331691,"DIS_CODE":0,"TOWNNAME":"安南區","LI":"顯宮里","LIN":"3鄰","STREET":"北汕尾三路","SECT":" ","MAREA":" ","LANE":"４６６巷","ALLEY":" ","HOUSE_NO":"５６號","E_COORD97":162114.542552,"N_COORD97":2550877.25752,"ADDRESS":"北汕尾三路４６６巷５６號","OBJECTID":331682},"geometry":{"x":162114.54255199991,"y":2550877.2575170007}},{"attributes":{"ID":331692,"DIS_CODE":0,"TOWNNAME":"佳里區","LI":"建南里","LIN":"15鄰","STREET":"光復路","SECT":" ","MAREA":" ","LANE":"５９巷","ALLEY":" ","HOUSE_NO":"１９號","E_COORD97":165498.33800600001,"N_COORD97":2561839.5907100001,"ADDRESS":"光復路５９巷１９號","OBJECTID":331683},"geometry":{"x":165498.3380060019,"y":2561839.5907120015}},{"attributes":{"ID":331693,"DIS_CODE":0,"TOWNNAME":"歸仁區","LI":"媽廟里","LIN":"2鄰","STREET":"媽廟一街","SECT":" ","MAREA":" ","LANE":"３８巷","ALLEY":" ","HOUSE_NO":"１４號","E_COORD97":177429.87024399999,"N_COORD97":2543583.5526700001,"ADDRESS":"媽廟一街３８巷１４號","OBJECTID":331684},"geometry":{"x":177429.87024400197,"y":2543583.552668998}},{"attributes":{"ID":331694,"DIS_CODE":0,"TOWNNAME":"歸仁區","LI":"媽廟里","LIN":"26鄰","STREET":"保大路","SECT":"一段","MAREA":" ","LANE":" ","ALLEY":" ","HOUSE_NO":"２０８號","E_COORD97":177535.59208599999,"N_COORD97":2544062.6069899998,"ADDRESS":"保大路一段２０８號","OBJECTID":331685},"geometry":{"x":177535.5920860013,"y":2544062.6069940012}},{"attributes":{"ID":331695,"DIS_CODE":0,"TOWNNAME":"歸仁區","LI":"媽廟里","LIN":"26鄰","STREET":"保大路","SECT":"一段","MAREA":" ","LANE":" ","ALLEY":" ","HOUSE_NO":"２２０號","E_COORD97":177495.125409,"N_COORD97":2544099.4369700002,"ADDRESS":"保大路一段２２０號","OBJECTID":331686},"geometry":{"x":177495.12540899962,"y":2544099.4369740002}},{"attributes":{"ID":331696,"DIS_CODE":0,"TOWNNAME":"歸仁區","LI":"媽廟里","LIN":"26鄰","STREET":"保大路","SECT":"一段","MAREA":" ","LANE":" ","ALLEY":" ","HOUSE_NO":"２３２號","E_COORD97":177459.53168300001,"N_COORD97":2544085.6786500001,"ADDRESS":"保大路一段２３２號","OBJECTID":331687},"geometry":{"x":177459.5316829998,"y":2544085.6786479987}},{"attributes":{"ID":331697,"DIS_CODE":0,"TOWNNAME":"歸仁區","LI":"崙頂里","LIN":"24鄰","STREET":"崙頂街","SECT":" ","MAREA":" ","LANE":" ","ALLEY":" ","HOUSE_NO":"７４號","E_COORD97":177847.81962600001,"N_COORD97":2539932.8060400002,"ADDRESS":"崙頂街７４號","OBJECTID":331688},"geometry":{"x":177847.81962600071,"y":2539932.8060440011}},{"attributes":{"ID":331698,"DIS_CODE":0,"TOWNNAME":"安南區","LI":"顯宮里","LIN":"1鄰","STREET":"顯宮二街","SECT":" ","MAREA":" ","LANE":" ","ALLEY":" ","HOUSE_NO":"４０號","E_COORD97":160527.76999999999,"N_COORD97":2548663.8799999999,"ADDRESS":"顯宮二街４０號","OBJECTID":331689},"geometry":{"x":160527.76999999955,"y":2548663.879999999}},{"attributes":{"ID":331699,"DIS_CODE":0,"TOWNNAME":"南區","LI":"明興里","LIN":"15鄰","STREET":"德興路","SECT":" ","MAREA":" ","LANE":"１３０巷","ALLEY":" ","HOUSE_NO":"２４號","E_COORD97":167123.78,"N_COORD97":2540449.21,"ADDRESS":"德興路１３０巷２４號","OBJECTID":331690},"geometry":{"x":167123.78000000119,"y":2540449.2100000009}},{"attributes":{"ID":331700,"DIS_CODE":0,"TOWNNAME":"南區","LI":"明興里","LIN":"15鄰","STREET":"德興路","SECT":" ","MAREA":" ","LANE":"１３０巷","ALLEY":" ","HOUSE_NO":"２５號","E_COORD97":167115.92000000001,"N_COORD97":2540439.21,"ADDRESS":"德興路１３０巷２５號","OBJECTID":331691},"geometry":{"x":167115.92000000086,"y":2540439.2100000009}},{"attributes":{"ID":331701,"DIS_CODE":0,"TOWNNAME":"南區","LI":"明興里","LIN":"15鄰","STREET":"德興路","SECT":" ","MAREA":" ","LANE":"１３０巷","ALLEY":" ","HOUSE_NO":"２６號","E_COORD97":167118.32999999999,"N_COORD97":2540449.04,"ADDRESS":"德興路１３０巷２６號","OBJECTID":331692},"geometry":{"x":167118.33000000101,"y":2540449.0399999991}},{"attributes":{"ID":331702,"DIS_CODE":0,"TOWNNAME":"南區","LI":"明興里","LIN":"15鄰","STREET":"德興路","SECT":" ","MAREA":" ","LANE":"１３０巷","ALLEY":" ","HOUSE_NO":"２７號","E_COORD97":167111.87,"N_COORD97":2540439.04,"ADDRESS":"德興路１３０巷２７號","OBJECTID":331693},"geometry":{"x":167111.87000000011,"y":2540439.0399999991}},{"attributes":{"ID":331703,"DIS_CODE":0,"TOWNNAME":"南區","LI":"明興里","LIN":"15鄰","STREET":"德興路","SECT":" ","MAREA":" ","LANE":"１３０巷","ALLEY":" ","HOUSE_NO":"２８號","E_COORD97":167113.45000000001,"N_COORD97":2540448.1299999999,"ADDRESS":"德興路１３０巷２８號","OBJECTID":331694},"geometry":{"x":167113.45000000019,"y":2540448.129999999}},{"attributes":{"ID":331704,"DIS_CODE":0,"TOWNNAME":"南區","LI":"明興里","LIN":"15鄰","STREET":"德興路","SECT":" ","MAREA":" ","LANE":"１３０巷","ALLEY":" ","HOUSE_NO":"２９號","E_COORD97":167096.57999999999,"N_COORD97":2540437.3100000001,"ADDRESS":"德興路１３０巷２９號","OBJECTID":331695},"geometry":{"x":167096.58000000007,"y":2540437.3100000024}},{"attributes":{"ID":331705,"DIS_CODE":0,"TOWNNAME":"南區","LI":"明興里","LIN":"15鄰","STREET":"德興路","SECT":" ","MAREA":" ","LANE":"１３０巷","ALLEY":" ","HOUSE_NO":"３０號","E_COORD97":167107.17000000001,"N_COORD97":2540447.48,"ADDRESS":"德興路１３０巷３０號","OBJECTID":331696},"geometry":{"x":167107.17000000086,"y":2540447.4800000004}},{"attributes":{"ID":331706,"DIS_CODE":0,"TOWNNAME":"南區","LI":"明興里","LIN":"15鄰","STREET":"德興路","SECT":" ","MAREA":" ","LANE":"１３０巷","ALLEY":" ","HOUSE_NO":"３１號","E_COORD97":167096.17000000001,"N_COORD97":2540433.8399999999,"ADDRESS":"德興路１３０巷３１號","OBJECTID":331697},"geometry":{"x":167096.16999999993,"y":2540433.8399999999}},{"attributes":{"ID":331707,"DIS_CODE":0,"TOWNNAME":"南區","LI":"明興里","LIN":"15鄰","STREET":"德興路","SECT":" ","MAREA":" ","LANE":"１３０巷","ALLEY":" ","HOUSE_NO":"３２號","E_COORD97":167099.17000000001,"N_COORD97":2540447.0600000001,"ADDRESS":"德興路１３０巷３２號","OBJECTID":331698},"geometry":{"x":167099.17000000086,"y":2540447.0600000005}},{"attributes":{"ID":331708,"DIS_CODE":0,"TOWNNAME":"南區","LI":"明興里","LIN":"15鄰","STREET":"德興路","SECT":" ","MAREA":" ","LANE":"１３０巷","ALLEY":" ","HOUSE_NO":"３３號","E_COORD97":167096.75,"N_COORD97":2540430.0499999998,"ADDRESS":"德興路１３０巷３３號","OBJECTID":331699},"geometry":{"x":167096.75000000093,"y":2540430.0500000007}},{"attributes":{"ID":331709,"DIS_CODE":0,"TOWNNAME":"南區","LI":"明興里","LIN":"15鄰","STREET":"德興路","SECT":" ","MAREA":" ","LANE":"１３０巷","ALLEY":" ","HOUSE_NO":"３４號","E_COORD97":167092.39000000001,"N_COORD97":2540446.4900000002,"ADDRESS":"德興路１３０巷３４號","OBJECTID":331700},"geometry":{"x":167092.38999999966,"y":2540446.4900000002}},{"attributes":{"ID":331710,"DIS_CODE":0,"TOWNNAME":"南區","LI":"明興里","LIN":"15鄰","STREET":"德興路","SECT":" ","MAREA":" ","LANE":"１３０巷","ALLEY":" ","HOUSE_NO":"３５號","E_COORD97":167096.92000000001,"N_COORD97":2540426.0099999998,"ADDRESS":"德興路１３０巷３５號","OBJECTID":331701},"geometry":{"x":167096.92000000086,"y":2540426.0099999998}},{"attributes":{"ID":331711,"DIS_CODE":0,"TOWNNAME":"南區","LI":"明興里","LIN":"15鄰","STREET":"德興路","SECT":" ","MAREA":" ","LANE":"１３０巷","ALLEY":" ","HOUSE_NO":"３６號","E_COORD97":167088.17999999999,"N_COORD97":2540446.3199999998,"ADDRESS":"德興路１３０巷３６號","OBJECTID":331702},"geometry":{"x":167088.18000000063,"y":2540446.3200000022}},{"attributes":{"ID":331712,"DIS_CODE":0,"TOWNNAME":"南區","LI":"明興里","LIN":"15鄰","STREET":"德興路","SECT":" ","MAREA":" ","LANE":"１３０巷","ALLEY":" ","HOUSE_NO":"３７號","E_COORD97":167097.25,"N_COORD97":2540422.54,"ADDRESS":"德興路１３０巷３７號","OBJECTID":331703},"geometry":{"x":167097.25,"y":2540422.5400000028}},{"attributes":{"ID":331713,"DIS_CODE":0,"TOWNNAME":"南區","LI":"明興里","LIN":"15鄰","STREET":"德興路","SECT":" ","MAREA":" ","LANE":"１３０巷","ALLEY":" ","HOUSE_NO":"３８號","E_COORD97":167082.39999999999,"N_COORD97":2540445.9100000001,"ADDRESS":"德興路１３０巷３８號","OBJECTID":331704},"geometry":{"x":167082.4000000013,"y":2540445.910000002}},{"attributes":{"ID":331714,"DIS_CODE":0,"TOWNNAME":"南區","LI":"明興里","LIN":"15鄰","STREET":"德興路","SECT":" ","MAREA":" ","LANE":"１３０巷","ALLEY":" ","HOUSE_NO":"３９號","E_COORD97":167097.91,"N_COORD97":2540417.8399999999,"ADDRESS":"德興路１３０巷３９號","OBJECTID":331705},"geometry":{"x":167097.91000000015,"y":2540417.8400000036}},{"attributes":{"ID":331715,"DIS_CODE":0,"TOWNNAME":"南區","LI":"明興里","LIN":"15鄰","STREET":"德興路","SECT":" ","MAREA":" ","LANE":"１３０巷","ALLEY":" ","HOUSE_NO":"４０號","E_COORD97":167077.76999999999,"N_COORD97":2540446.2400000002,"ADDRESS":"德興路１３０巷４０號","OBJECTID":331706},"geometry":{"x":167077.76999999955,"y":2540446.2400000039}},{"attributes":{"ID":331716,"DIS_CODE":0,"TOWNNAME":"南區","LI":"明興里","LIN":"15鄰","STREET":"德興路","SECT":" ","MAREA":" ","LANE":"１３０巷","ALLEY":" ","HOUSE_NO":"４２號","E_COORD97":167071.98999999999,"N_COORD97":2540446.6499999999,"ADDRESS":"德興路１３０巷４２號","OBJECTID":331707},"geometry":{"x":167071.99000000022,"y":2540446.6500000041}},{"attributes":{"ID":331717,"DIS_CODE":0,"TOWNNAME":"南區","LI":"明興里","LIN":"15鄰","STREET":"德興路","SECT":" ","MAREA":" ","LANE":"１３０巷","ALLEY":" ","HOUSE_NO":"４４號","E_COORD97":167067.92000000001,"N_COORD97":2540445.5,"ADDRESS":"德興路１３０巷４４號","OBJECTID":331708},"geometry":{"x":167067.92000000179,"y":2540445.5000000019}},{"attributes":{"ID":331718,"DIS_CODE":0,"TOWNNAME":"南區","LI":"明興里","LIN":"15鄰","STREET":"德興路","SECT":" ","MAREA":" ","LANE":"１３０巷","ALLEY":" ","HOUSE_NO":"４６號","E_COORD97":167061.97,"N_COORD97":2540445.0800000001,"ADDRESS":"德興路１３０巷４６號","OBJECTID":331709},"geometry":{"x":167061.96999999974,"y":2540445.0800000019}},{"attributes":{"ID":331719,"DIS_CODE":0,"TOWNNAME":"歸仁區","LI":"崙頂里","LIN":"21鄰","STREET":"大成路","SECT":" ","MAREA":" ","LANE":"２０６巷","ALLEY":" ","HOUSE_NO":"２號","E_COORD97":177765.59227299999,"N_COORD97":2540120.5542799998,"ADDRESS":"大成路２０６巷２號","OBJECTID":331710},"geometry":{"x":177765.59227299877,"y":2540120.5542760026}},{"attributes":{"ID":331720,"DIS_CODE":0,"TOWNNAME":"歸仁區","LI":"辜厝里","LIN":"4鄰","STREET":"民族南街","SECT":" ","MAREA":" ","LANE":" ","ALLEY":" ","HOUSE_NO":"２２號","E_COORD97":177396.14681499999,"N_COORD97":2540725.6589500001,"ADDRESS":"民族南街２２號","OBJECTID":331711},"geometry":{"x":177396.1468150001,"y":2540725.6589519996}},{"attributes":{"ID":331721,"DIS_CODE":0,"TOWNNAME":"歸仁區","LI":"辜厝里","LIN":"4鄰","STREET":"民族南街","SECT":" ","MAREA":" ","LANE":" ","ALLEY":" ","HOUSE_NO":"２６號","E_COORD97":177394.87560299999,"N_COORD97":2540716.98062,"ADDRESS":"民族南街２６號","OBJECTID":331712},"geometry":{"x":177394.8756029997,"y":2540716.9806229994}},{"attributes":{"ID":331722,"DIS_CODE":0,"TOWNNAME":"歸仁區","LI":"辜厝里","LIN":"4鄰","STREET":"民族南街","SECT":" ","MAREA":" ","LANE":" ","ALLEY":" ","HOUSE_NO":"２８號","E_COORD97":177393.604391,"N_COORD97":2540709.1489599999,"ADDRESS":"民族南街２８號","OBJECTID":331713},"geometry":{"x":177393.60439100116,"y":2540709.1489610039}},{"attributes":{"ID":331723,"DIS_CODE":0,"TOWNNAME":"歸仁區","LI":"辜厝里","LIN":"4鄰","STREET":"民族南街","SECT":" ","MAREA":" ","LANE":" ","ALLEY":" ","HOUSE_NO":"３４號","E_COORD97":177391.06196799999,"N_COORD97":2540696.6606299998,"ADDRESS":"民族南街３４號","OBJECTID":331714},"geometry":{"x":177391.06196800061,"y":2540696.6606340017}},{"attributes":{"ID":331724,"DIS_CODE":0,"TOWNNAME":"歸仁區","LI":"辜厝里","LIN":"4鄰","STREET":"民族南街","SECT":" ","MAREA":" ","LANE":" ","ALLEY":" ","HOUSE_NO":"３６號","E_COORD97":177376.69164199999,"N_COORD97":2540702.3002599999,"ADDRESS":"民族南街３６號","OBJECTID":331715},"geometry":{"x":177376.69164200034,"y":2540702.3002630025}},{"attributes":{"ID":331725,"DIS_CODE":0,"TOWNNAME":"南區","LI":"明興里","LIN":"15鄰","STREET":"德興路","SECT":" ","MAREA":" ","LANE":"１３０巷","ALLEY":" ","HOUSE_NO":"４８號","E_COORD97":167062.63,"N_COORD97":2540439.0299999998,"ADDRESS":"德興路１３０巷４８號","OBJECTID":331716},"geometry":{"x":167062.62999999989,"y":2540439.0299999993}},{"attributes":{"ID":331726,"DIS_CODE":0,"TOWNNAME":"南區","LI":"明興里","LIN":"15鄰","STREET":"德興路","SECT":" ","MAREA":" ","LANE":"１３０巷","ALLEY":" ","HOUSE_NO":"５０號","E_COORD97":167068.66,"N_COORD97":2540439.4399999999,"ADDRESS":"德興路１３０巷５０號","OBJECTID":331717},"geometry":{"x":167068.66000000108,"y":2540439.4399999995}},{"attributes":{"ID":331727,"DIS_CODE":0,"TOWNNAME":"南區","LI":"明興里","LIN":"15鄰","STREET":"德興路","SECT":" ","MAREA":" ","LANE":"１３０巷","ALLEY":" ","HOUSE_NO":"５２號","E_COORD97":167075.35999999999,"N_COORD97":2540439.52,"ADDRESS":"德興路１３０巷５２號","OBJECTID":331718},"geometry":{"x":167075.3599999994,"y":2540439.5199999996}},{"attributes":{"ID":331728,"DIS_CODE":0,"TOWNNAME":"南區","LI":"明興里","LIN":"15鄰","STREET":"德興路","SECT":" ","MAREA":" ","LANE":"１３０巷","ALLEY":" ","HOUSE_NO":"５４號","E_COORD97":167082.20999999999,"N_COORD97":2540439.4399999999,"ADDRESS":"德興路１３０巷５４號","OBJECTID":331719},"geometry":{"x":167082.20999999996,"y":2540439.4399999995}},{"attributes":{"ID":331729,"DIS_CODE":0,"TOWNNAME":"新化區","LI":"東榮里","LIN":"15鄰","STREET":"中興路","SECT":" ","MAREA":" ","LANE":"６５２巷","ALLEY":" ","HOUSE_NO":"２４號之２","E_COORD97":179695.91,"N_COORD97":2548152.2599999998,"ADDRESS":"中興路６５２巷２４號之２","OBJECTID":331720},"geometry":{"x":179695.91000000108,"y":2548152.2600000016}},{"attributes":{"ID":331730,"DIS_CODE":0,"TOWNNAME":"新化區","LI":"東榮里","LIN":"15鄰","STREET":"中興路","SECT":" ","MAREA":" ","LANE":"６５２巷","ALLEY":" ","HOUSE_NO":"１１號","E_COORD97":179677.85999999999,"N_COORD97":2548136.25,"ADDRESS":"中興路６５２巷１１號","OBJECTID":331721},"geometry":{"x":179677.86000000127,"y":2548136.2500000019}},{"attributes":{"ID":331731,"DIS_CODE":0,"TOWNNAME":"新化區","LI":"東榮里","LIN":"15鄰","STREET":"信義路","SECT":" ","MAREA":" ","LANE":"１３１巷","ALLEY":" ","HOUSE_NO":"６３號","E_COORD97":179680.17999999999,"N_COORD97":2548211.25,"ADDRESS":"信義路１３１巷６３號","OBJECTID":331722},"geometry":{"x":179680.18000000063,"y":2548211.2500000019}},{"attributes":{"ID":331732,"DIS_CODE":0,"TOWNNAME":"東區","LI":"大德里","LIN":"15鄰","STREET":"立德十一路","SECT":" ","MAREA":" ","LANE":"２９巷","ALLEY":" ","HOUSE_NO":"３號","E_COORD97":169431.82000000001,"N_COORD97":2542115.9900000002,"ADDRESS":"立德十一路２９巷３號","OBJECTID":331723},"geometry":{"x":169431.8200000003,"y":2542115.9900000039}},{"attributes":{"ID":331733,"DIS_CODE":0,"TOWNNAME":"仁德區","LI":"仁義里","LIN":"17鄰","STREET":"義林十二街","SECT":" ","MAREA":" ","LANE":" ","ALLEY":" ","HOUSE_NO":"１５８號","E_COORD97":174273.04000000001,"N_COORD97":2541466.52,"ADDRESS":"義林十二街１５８號","OBJECTID":331724},"geometry":{"x":174273.04000000004,"y":2541466.5199999996}},{"attributes":{"ID":331734,"DIS_CODE":0,"TOWNNAME":"仁德區","LI":"上崙里","LIN":"17鄰","STREET":"德崙路","SECT":" ","MAREA":" ","LANE":" ","ALLEY":" ","HOUSE_NO":"３６８號","E_COORD97":173993.01000000001,"N_COORD97":2538110.7599999998,"ADDRESS":"德崙路３６８號","OBJECTID":331725},"geometry":{"x":173993.00999999978,"y":2538110.7600000016}},{"attributes":{"ID":331735,"DIS_CODE":0,"TOWNNAME":"仁德區","LI":"仁義里","LIN":"17鄰","STREET":"義林十一街","SECT":" ","MAREA":" ","LANE":" ","ALLEY":" ","HOUSE_NO":"６６號","E_COORD97":174338.63,"N_COORD97":2541447.77,"ADDRESS":"義林十一街６６號","OBJECTID":331726},"geometry":{"x":174338.62999999896,"y":2541447.7699999996}},{"attributes":{"ID":331736,"DIS_CODE":0,"TOWNNAME":"仁德區","LI":"仁義里","LIN":"17鄰","STREET":"義林十街","SECT":" ","MAREA":" ","LANE":" ","ALLEY":" ","HOUSE_NO":"３１號","E_COORD97":174210.79000000001,"N_COORD97":2541389.7599999998,"ADDRESS":"義林十街３１號","OBJECTID":331727},"geometry":{"x":174210.79000000097,"y":2541389.7599999998}},{"attributes":{"ID":331737,"DIS_CODE":0,"TOWNNAME":"新市區","LI":"社內里","LIN":"13鄰","STREET":" ","SECT":" ","MAREA":"社內","LANE":" ","ALLEY":" ","HOUSE_NO":"１４３之１５號","E_COORD97":176303.55238800001,"N_COORD97":2551519.9248799998,"ADDRESS":"社內１４３之１５號","OBJECTID":331728},"geometry":{"x":176303.55238800123,"y":2551519.9248750005}},{"attributes":{"ID":331738,"DIS_CODE":0,"TOWNNAME":"大內區","LI":"石城里","LIN":"2鄰","STREET":" ","SECT":" ","MAREA":"石子瀨","LANE":" ","ALLEY":" ","HOUSE_NO":"１３號之１","E_COORD97":184364.52487299999,"N_COORD97":2557815.1235500001,"ADDRESS":"石子瀨１３號之１","OBJECTID":331729},"geometry":{"x":184364.52487299964,"y":2557815.1235490032}},{"attributes":{"ID":331739,"DIS_CODE":0,"TOWNNAME":"大內區","LI":"石城里","LIN":"2鄰","STREET":" ","SECT":" ","MAREA":"石子瀨","LANE":" ","ALLEY":" ","HOUSE_NO":"２１號之１","E_COORD97":184254.364569,"N_COORD97":2557885.6246199999,"ADDRESS":"石子瀨２１號之１","OBJECTID":331730},"geometry":{"x":184254.3645690009,"y":2557885.6246150006}},{"attributes":{"ID":331740,"DIS_CODE":0,"TOWNNAME":"新市區","LI":"社內里","LIN":"20鄰","STREET":" ","SECT":" ","MAREA":"社內","LANE":" ","ALLEY":" ","HOUSE_NO":"２０４之１號","E_COORD97":175988.75,"N_COORD97":2553167.25,"ADDRESS":"社內２０４之１號","OBJECTID":331731},"geometry":{"x":175988.75,"y":2553167.2500000019}},{"attributes":{"ID":331741,"DIS_CODE":0,"TOWNNAME":"新市區","LI":"社內里","LIN":"20鄰","STREET":" ","SECT":" ","MAREA":"社內","LANE":" ","ALLEY":" ","HOUSE_NO":"２０５號","E_COORD97":175954.72287200001,"N_COORD97":2553190.07981,"ADDRESS":"社內２０５號","OBJECTID":331732},"geometry":{"x":175954.72287200112,"y":2553190.0798070002}},{"attributes":{"ID":331742,"DIS_CODE":0,"TOWNNAME":"七股區","LI":"七股里","LIN":"2鄰","STREET":" ","SECT":" ","MAREA":"樹林","LANE":" ","ALLEY":" ","HOUSE_NO":"１０之３號","E_COORD97":163789.831787,"N_COORD97":2557171.0025499999,"ADDRESS":"樹林１０之３號","OBJECTID":331733},"geometry":{"x":163789.83178700041,"y":2557171.002545001}},{"attributes":{"ID":331743,"DIS_CODE":0,"TOWNNAME":"七股區","LI":"樹林里","LIN":"15鄰","STREET":" ","SECT":" ","MAREA":"樹林","LANE":" ","ALLEY":" ","HOUSE_NO":"１３０號","E_COORD97":163041.121139,"N_COORD97":2557591.0924300002,"ADDRESS":"樹林１３０號","OBJECTID":331734},"geometry":{"x":163041.12113899924,"y":2557591.0924340002}},{"attributes":{"ID":331744,"DIS_CODE":0,"TOWNNAME":"東區","LI":"大德里","LIN":"15鄰","STREET":"立德十一路","SECT":" ","MAREA":" ","LANE":"２９巷","ALLEY":" ","HOUSE_NO":"５號","E_COORD97":169433.01999999999,"N_COORD97":2542124.1699999999,"ADDRESS":"立德十一路２９巷５號","OBJECTID":331735},"geometry":{"x":169433.01999999955,"y":2542124.1699999981}},{"attributes":{"ID":331745,"DIS_CODE":0,"TOWNNAME":"東區","LI":"大德里","LIN":"15鄰","STREET":"立德十一路","SECT":" ","MAREA":" ","LANE":"２９巷","ALLEY":" ","HOUSE_NO":"１１號","E_COORD97":169435.57999999999,"N_COORD97":2542162.6600000001,"ADDRESS":"立德十一路２９巷１１號","OBJECTID":331736},"geometry":{"x":169435.58000000101,"y":2542162.660000002}},{"attributes":{"ID":331746,"DIS_CODE":0,"TOWNNAME":"東區","LI":"大德里","LIN":"15鄰","STREET":"立德十一路","SECT":" ","MAREA":" ","LANE":"２９巷","ALLEY":" ","HOUSE_NO":"１５號","E_COORD97":169437.54000000001,"N_COORD97":2542189.3399999999,"ADDRESS":"立德十一路２９巷１５號","OBJECTID":331737},"geometry":{"x":169437.54000000097,"y":2542189.3399999999}},{"attributes":{"ID":331747,"DIS_CODE":0,"TOWNNAME":"東區","LI":"大德里","LIN":"15鄰","STREET":"立德十一路","SECT":" ","MAREA":" ","LANE":"２９巷","ALLEY":" ","HOUSE_NO":"１７號","E_COORD97":169438.44,"N_COORD97":2542197.8399999999,"ADDRESS":"立德十一路２９巷１７號","OBJECTID":331738},"geometry":{"x":169438.44000000134,"y":2542197.8400000036}},{"attributes":{"ID":331748,"DIS_CODE":0,"TOWNNAME":"東區","LI":"大德里","LIN":"15鄰","STREET":"立德十一路","SECT":" ","MAREA":" ","LANE":"２９巷","ALLEY":" ","HOUSE_NO":"１９號","E_COORD97":169438.66,"N_COORD97":2542204.8900000001,"ADDRESS":"立德十一路２９巷１９號","OBJECTID":331739},"geometry":{"x":169438.66000000108,"y":2542204.8900000043}},{"attributes":{"ID":331749,"DIS_CODE":0,"TOWNNAME":"東區","LI":"大德里","LIN":"15鄰","STREET":"立德十一路","SECT":" ","MAREA":" ","LANE":"２９巷","ALLEY":" ","HOUSE_NO":"５４號","E_COORD97":169456.32000000001,"N_COORD97":2542182.8900000001,"ADDRESS":"立德十一路２９巷５４號","OBJECTID":331740},"geometry":{"x":169456.32000000123,"y":2542182.8900000025}},{"attributes":{"ID":331750,"DIS_CODE":0,"TOWNNAME":"東區","LI":"大德里","LIN":"15鄰","STREET":"立德十一路","SECT":" ","MAREA":" ","LANE":"２９巷","ALLEY":" ","HOUSE_NO":"４２號","E_COORD97":169456.70000000001,"N_COORD97":2542167.77,"ADDRESS":"立德十一路２９巷４２號","OBJECTID":331741},"geometry":{"x":169456.70000000112,"y":2542167.7700000014}},{"attributes":{"ID":331751,"DIS_CODE":0,"TOWNNAME":"七股區","LI":"樹林里","LIN":"15鄰","STREET":" ","SECT":" ","MAREA":"樹林","LANE":" ","ALLEY":" ","HOUSE_NO":"１３１號之１６","E_COORD97":163089.87685999999,"N_COORD97":2557620.09075,"ADDRESS":"樹林１３１號之１６","OBJECTID":331742},"geometry":{"x":163089.87686000019,"y":2557620.0907499995}},{"attributes":{"ID":331752,"DIS_CODE":0,"TOWNNAME":"仁德區","LI":"上崙里","LIN":"20鄰","STREET":"上崙一街","SECT":" ","MAREA":" ","LANE":" ","ALLEY":" ","HOUSE_NO":"５８號","E_COORD97":173820.925923,"N_COORD97":2538004.36534,"ADDRESS":"上崙一街５８號","OBJECTID":331743},"geometry":{"x":173820.92592300102,"y":2538004.3653379995}},{"attributes":{"ID":331753,"DIS_CODE":0,"TOWNNAME":"七股區","LI":"樹林里","LIN":"15鄰","STREET":" ","SECT":" ","MAREA":"樹林","LANE":" ","ALLEY":" ","HOUSE_NO":"１３１號之２","E_COORD97":163070.58655000001,"N_COORD97":2557601.4640899999,"ADDRESS":"樹林１３１號之２","OBJECTID":331744},"geometry":{"x":163070.58655000012,"y":2557601.4640900027}},{"attributes":{"ID":331754,"DIS_CODE":0,"TOWNNAME":"新市區","LI":"社內里","LIN":"20鄰","STREET":" ","SECT":" ","MAREA":"社內","LANE":" ","ALLEY":" ","HOUSE_NO":"２０７之１６號","E_COORD97":175889.89333600001,"N_COORD97":2552885.7033000002,"ADDRESS":"社內２０７之１６號","OBJECTID":331745},"geometry":{"x":175889.89333599899,"y":2552885.7033040021}},{"attributes":{"ID":331755,"DIS_CODE":0,"TOWNNAME":"仁德區","LI":"仁德里","LIN":"1鄰","STREET":"中正路","SECT":"二段","MAREA":" ","LANE":" ","ALLEY":" ","HOUSE_NO":"６９１號","E_COORD97":173431.218578,"N_COORD97":2540087.42612,"ADDRESS":"中正路二段６９１號","OBJECTID":331746},"geometry":{"x":173431.21857799962,"y":2540087.4261150043}},{"attributes":{"ID":331756,"DIS_CODE":0,"TOWNNAME":"東區","LI":"大德里","LIN":"15鄰","STREET":"立德十一路","SECT":" ","MAREA":" ","LANE":"２９巷","ALLEY":" ","HOUSE_NO":"２８號","E_COORD97":169454.79000000001,"N_COORD97":2542142.5699999998,"ADDRESS":"立德十一路２９巷２８號","OBJECTID":331747},"geometry":{"x":169454.79000000097,"y":2542142.570000004}},{"attributes":{"ID":331757,"DIS_CODE":0,"TOWNNAME":"東區","LI":"大德里","LIN":"15鄰","STREET":"立德十一路","SECT":" ","MAREA":" ","LANE":"２９巷","ALLEY":" ","HOUSE_NO":"２６號","E_COORD97":169452.76000000001,"N_COORD97":2542131.9900000002,"ADDRESS":"立德十一路２９巷２６號","OBJECTID":331748},"geometry":{"x":169452.76000000071,"y":2542131.9900000002}},{"attributes":{"ID":331758,"DIS_CODE":0,"TOWNNAME":"新市區","LI":"社內里","LIN":"4鄰","STREET":" ","SECT":" ","MAREA":"社內","LANE":" ","ALLEY":" ","HOUSE_NO":"４９號","E_COORD97":176504.42151700001,"N_COORD97":2552313.5944699999,"ADDRESS":"社內４９號","OBJECTID":331749},"geometry":{"x":176504.42151700053,"y":2552313.5944720022}},{"attributes":{"ID":331759,"DIS_CODE":0,"TOWNNAME":"歸仁區","LI":"沙崙里","LIN":"5鄰","STREET":" ","SECT":" ","MAREA":"沙崙","LANE":" ","ALLEY":" ","HOUSE_NO":"３２８號","E_COORD97":179562.63467900001,"N_COORD97":2538056.0361600001,"ADDRESS":"沙崙３２８號","OBJECTID":331750},"geometry":{"x":179562.63467900082,"y":2538056.0361640044}},{"attributes":{"ID":331760,"DIS_CODE":0,"TOWNNAME":"新市區","LI":"社內里","LIN":"4鄰","STREET":" ","SECT":" ","MAREA":"社內","LANE":" ","ALLEY":" ","HOUSE_NO":"４９之１號","E_COORD97":176519.46366400001,"N_COORD97":2552355.0811200002,"ADDRESS":"社內４９之１號","OBJECTID":331751},"geometry":{"x":176519.46366400085,"y":2552355.0811170004}},{"attributes":{"ID":331761,"DIS_CODE":0,"TOWNNAME":"新市區","LI":"社內里","LIN":"4鄰","STREET":" ","SECT":" ","MAREA":"社內","LANE":" ","ALLEY":" ","HOUSE_NO":"４９之２號","E_COORD97":176508.658742,"N_COORD97":2552352.11778,"ADDRESS":"社內４９之２號","OBJECTID":331752},"geometry":{"x":176508.65874200035,"y":2552352.117785003}},{"attributes":{"ID":331762,"DIS_CODE":0,"TOWNNAME":"新市區","LI":"社內里","LIN":"4鄰","STREET":" ","SECT":" ","MAREA":"社內","LANE":" ","ALLEY":" ","HOUSE_NO":"５０之１２號","E_COORD97":176591.920205,"N_COORD97":2552203.3161999998,"ADDRESS":"社內５０之１２號","OBJECTID":331753},"geometry":{"x":176591.92020499986,"y":2552203.3161990028}},{"attributes":{"ID":331763,"DIS_CODE":0,"TOWNNAME":"新市區","LI":"社內里","LIN":"4鄰","STREET":" ","SECT":" ","MAREA":"社內","LANE":" ","ALLEY":" ","HOUSE_NO":"５０之９８號","E_COORD97":176374.76244399999,"N_COORD97":2551848.1397199999,"ADDRESS":"社內５０之９８號","OBJECTID":331754},"geometry":{"x":176374.76244400069,"y":2551848.1397239994}},{"attributes":{"ID":331764,"DIS_CODE":0,"TOWNNAME":"歸仁區","LI":"後市里","LIN":"35鄰","STREET":"文化街","SECT":"二段","MAREA":" ","LANE":"３５巷","ALLEY":" ","HOUSE_NO":"２號","E_COORD97":177506.354081,"N_COORD97":2541030.90546,"ADDRESS":"文化街二段３５巷２號","OBJECTID":331755},"geometry":{"x":177506.3540810002,"y":2541030.9054569993}},{"attributes":{"ID":331765,"DIS_CODE":0,"TOWNNAME":"歸仁區","LI":"後市里","LIN":"25鄰","STREET":"文化街","SECT":"二段","MAREA":" ","LANE":" ","ALLEY":" ","HOUSE_NO":"４３號","E_COORD97":177480.718123,"N_COORD97":2541077.1546,"ADDRESS":"文化街二段４３號","OBJECTID":331756},"geometry":{"x":177480.71812300105,"y":2541077.1545989998}},{"attributes":{"ID":331766,"DIS_CODE":0,"TOWNNAME":"仁德區","LI":"仁德里","LIN":"1鄰","STREET":"中正路","SECT":"二段","MAREA":" ","LANE":" ","ALLEY":" ","HOUSE_NO":"６９５號","E_COORD97":173434.66016100001,"N_COORD97":2540098.06757,"ADDRESS":"中正路二段６９５號","OBJECTID":331757},"geometry":{"x":173434.66016100068,"y":2540098.0675730016}},{"attributes":{"ID":331767,"DIS_CODE":0,"TOWNNAME":"中西區","LI":"藥王里","LIN":"3鄰","STREET":"大福街","SECT":" ","MAREA":" ","LANE":" ","ALLEY":" ","HOUSE_NO":"３５號","E_COORD97":167323.41549799999,"N_COORD97":2544404.7922899998,"ADDRESS":"大福街３５號","OBJECTID":331758},"geometry":{"x":167323.41549800057,"y":2544404.7922880016}},{"attributes":{"ID":331768,"DIS_CODE":0,"TOWNNAME":"中西區","LI":"藥王里","LIN":"3鄰","STREET":"大福街","SECT":" ","MAREA":" ","LANE":" ","ALLEY":" ","HOUSE_NO":"２９號","E_COORD97":167315.36425899999,"N_COORD97":2544390.61063,"ADDRESS":"大福街２９號","OBJECTID":331759},"geometry":{"x":167315.36425900087,"y":2544390.6106290016}},{"attributes":{"ID":331769,"DIS_CODE":0,"TOWNNAME":"中西區","LI":"藥王里","LIN":"3鄰","STREET":"大福街","SECT":" ","MAREA":" ","LANE":" ","ALLEY":" ","HOUSE_NO":"３３號","E_COORD97":167322.14425000001,"N_COORD97":2544399.9768699999,"ADDRESS":"大福街３３號","OBJECTID":331760},"geometry":{"x":167322.14425000083,"y":2544399.9768740013}},{"attributes":{"ID":331770,"DIS_CODE":0,"TOWNNAME":"中西區","LI":"藥王里","LIN":"3鄰","STREET":"大福街","SECT":" ","MAREA":" ","LANE":" ","ALLEY":" ","HOUSE_NO":"３１號","E_COORD97":167320.87300200001,"N_COORD97":2544394.4735400002,"ADDRESS":"大福街３１號","OBJECTID":331761},"geometry":{"x":167320.87300200015,"y":2544394.4735439997}},{"attributes":{"ID":331771,"DIS_CODE":0,"TOWNNAME":"歸仁區","LI":"七甲里","LIN":"12鄰","STREET":"南丁路","SECT":" ","MAREA":" ","LANE":"２７１","ALLEY":" ","HOUSE_NO":"１１３號","E_COORD97":175702.83717000001,"N_COORD97":2542407.00868,"ADDRESS":"南丁路１１３號","OBJECTID":331762},"geometry":{"x":175702.83717000112,"y":2542407.0086800028}},{"attributes":{"ID":331772,"DIS_CODE":0,"TOWNNAME":"歸仁區","LI":"後市里","LIN":"32鄰","STREET":"民族一街","SECT":" ","MAREA":" ","LANE":" ","ALLEY":" ","HOUSE_NO":"１５號","E_COORD97":177371.07688400001,"N_COORD97":2540995.55699,"ADDRESS":"民族一街１５號","OBJECTID":331763},"geometry":{"x":177371.07688400149,"y":2540995.556992}},{"attributes":{"ID":331773,"DIS_CODE":0,"TOWNNAME":"歸仁區","LI":"後市里","LIN":"33鄰","STREET":"民族一街","SECT":" ","MAREA":" ","LANE":" ","ALLEY":" ","HOUSE_NO":"２號","E_COORD97":177429.55229200001,"N_COORD97":2541011.9611499999,"ADDRESS":"民族一街２號","OBJECTID":331764},"geometry":{"x":177429.5522920005,"y":2541011.9611500017}},{"attributes":{"ID":331774,"DIS_CODE":0,"TOWNNAME":"歸仁區","LI":"後市里","LIN":"33鄰","STREET":"民族一街","SECT":" ","MAREA":" ","LANE":" ","ALLEY":" ","HOUSE_NO":"８號","E_COORD97":177420.865728,"N_COORD97":2541012.91365,"ADDRESS":"民族一街８號","OBJECTID":331765},"geometry":{"x":177420.86572800018,"y":2541012.9136500023}},{"attributes":{"ID":331775,"DIS_CODE":0,"TOWNNAME":"東區","LI":"大德里","LIN":"15鄰","STREET":"立德十一路","SECT":" ","MAREA":" ","LANE":"２９巷","ALLEY":" ","HOUSE_NO":"２號","E_COORD97":169452.69,"N_COORD97":2542116.3599999999,"ADDRESS":"立德十一路２９巷２號","OBJECTID":331766},"geometry":{"x":169452.69000000041,"y":2542116.3600000013}},{"attributes":{"ID":331776,"DIS_CODE":0,"TOWNNAME":"東區","LI":"大德里","LIN":"15鄰","STREET":"立德十一路","SECT":" ","MAREA":" ","LANE":"２９巷","ALLEY":" ","HOUSE_NO":"４號","E_COORD97":169457.72,"N_COORD97":2542117.4100000001,"ADDRESS":"立德十一路２９巷４號","OBJECTID":331767},"geometry":{"x":169457.72000000067,"y":2542117.410000002}},{"attributes":{"ID":331777,"DIS_CODE":0,"TOWNNAME":"東區","LI":"大德里","LIN":"15鄰","STREET":"立德十一路","SECT":" ","MAREA":" ","LANE":"２９巷","ALLEY":" ","HOUSE_NO":"６號","E_COORD97":169464.64000000001,"N_COORD97":2542119.0600000001,"ADDRESS":"立德十一路２９巷６號","OBJECTID":331768},"geometry":{"x":169464.63999999873,"y":2542119.0600000042}},{"attributes":{"ID":331778,"DIS_CODE":0,"TOWNNAME":"東區","LI":"大德里","LIN":"15鄰","STREET":"立德十一路","SECT":" ","MAREA":" ","LANE":"２９巷","ALLEY":" ","HOUSE_NO":"８號","E_COORD97":169470.04999999999,"N_COORD97":2542119.96,"ADDRESS":"立德十一路２９巷８號","OBJECTID":331769},"geometry":{"x":169470.04999999981,"y":2542119.9600000046}},{"attributes":{"ID":331779,"DIS_CODE":0,"TOWNNAME":"東區","LI":"大德里","LIN":"15鄰","STREET":"立德十一路","SECT":" ","MAREA":" ","LANE":"２９巷","ALLEY":" ","HOUSE_NO":"１８號","E_COORD97":169478.23999999999,"N_COORD97":2542137.6200000001,"ADDRESS":"立德十一路２９巷１８號","OBJECTID":331770},"geometry":{"x":169478.24000000209,"y":2542137.6200000029}},{"attributes":{"ID":331780,"DIS_CODE":0,"TOWNNAME":"東區","LI":"大德里","LIN":"15鄰","STREET":"立德十一路","SECT":" ","MAREA":" ","LANE":"２９巷","ALLEY":" ","HOUSE_NO":"２０號","E_COORD97":169471.25,"N_COORD97":2542135.29,"ADDRESS":"立德十一路２９巷２０號","OBJECTID":331771},"geometry":{"x":169471.25000000186,"y":2542135.2899999991}},{"attributes":{"ID":331781,"DIS_CODE":0,"TOWNNAME":"東區","LI":"大德里","LIN":"15鄰","STREET":"立德十一路","SECT":" ","MAREA":" ","LANE":"２９巷","ALLEY":" ","HOUSE_NO":"２２號","E_COORD97":169465.84,"N_COORD97":2542134.9100000001,"ADDRESS":"立德十一路２９巷２２號","OBJECTID":331772},"geometry":{"x":169465.84000000078,"y":2542134.9100000001}},{"attributes":{"ID":331782,"DIS_CODE":0,"TOWNNAME":"東區","LI":"大德里","LIN":"15鄰","STREET":"立德十一路","SECT":" ","MAREA":" ","LANE":"２９巷","ALLEY":" ","HOUSE_NO":"２４號","E_COORD97":169460.35999999999,"N_COORD97":2542133.1899999999,"ADDRESS":"立德十一路２９巷２４號","OBJECTID":331773},"geometry":{"x":169460.36000000034,"y":2542133.1899999995}},{"attributes":{"ID":331783,"DIS_CODE":0,"TOWNNAME":"六甲區","LI":"中社里","LIN":"4鄰","STREET":" ","SECT":" ","MAREA":"中社","LANE":" ","ALLEY":" ","HOUSE_NO":"１６０號","E_COORD97":180986.53541800001,"N_COORD97":2571007.5398400002,"ADDRESS":"中社１６０號","OBJECTID":331774},"geometry":{"x":180986.53541800007,"y":2571007.5398439988}},{"attributes":{"ID":331784,"DIS_CODE":0,"TOWNNAME":"永康區","LI":"二王里","LIN":"41鄰","STREET":"中山南路","SECT":" ","MAREA":" ","LANE":"３１６巷","ALLEY":" ","HOUSE_NO":"８之１號","E_COORD97":171979.10153399999,"N_COORD97":2546167.4735400002,"ADDRESS":"中山南路３１６巷８之１號","OBJECTID":331775},"geometry":{"x":171979.1015340006,"y":2546167.4735380001}},{"attributes":{"ID":331785,"DIS_CODE":0,"TOWNNAME":"永康區","LI":"二王里","LIN":"41鄰","STREET":"中山南路","SECT":" ","MAREA":" ","LANE":"３１６巷","ALLEY":" ","HOUSE_NO":"８號","E_COORD97":171973.22183600001,"N_COORD97":2546168.9548999998,"ADDRESS":"中山南路３１６巷８號","OBJECTID":331776},"geometry":{"x":171973.22183600161,"y":2546168.9549029991}},{"attributes":{"ID":331786,"DIS_CODE":0,"TOWNNAME":"歸仁區","LI":"沙崙里","LIN":"10鄰","STREET":" ","SECT":" ","MAREA":"沙崙","LANE":" ","ALLEY":" ","HOUSE_NO":"５２８之２號","E_COORD97":180486.37655300001,"N_COORD97":2537351.1072499999,"ADDRESS":"沙崙５２８之２號","OBJECTID":331777},"geometry":{"x":180486.37655299995,"y":2537351.1072450001}},{"attributes":{"ID":331787,"DIS_CODE":0,"TOWNNAME":"歸仁區","LI":"沙崙里","LIN":"10鄰","STREET":" ","SECT":" ","MAREA":"沙崙","LANE":" ","ALLEY":" ","HOUSE_NO":"５３８號","E_COORD97":180240.82221400001,"N_COORD97":2537573.1454599998,"ADDRESS":"沙崙５３８號","OBJECTID":331778},"geometry":{"x":180240.82221400086,"y":2537573.145459}},{"attributes":{"ID":331788,"DIS_CODE":0,"TOWNNAME":"新營區","LI":"太北里","LIN":"9鄰","STREET":" ","SECT":" ","MAREA":"太子宮","LANE":" ","ALLEY":" ","HOUSE_NO":"７２之３號","E_COORD97":176071.825247,"N_COORD97":2577086.6434999998,"ADDRESS":"太子宮７２之３號","OBJECTID":331779},"geometry":{"x":176071.82524699997,"y":2577086.6434979998}},{"attributes":{"ID":331789,"DIS_CODE":0,"TOWNNAME":"七股區","LI":"樹林里","LIN":"15鄰","STREET":" ","SECT":" ","MAREA":"樹林","LANE":" ","ALLEY":" ","HOUSE_NO":"１３１號之２１","E_COORD97":163057.17822999999,"N_COORD97":2557655.78565,"ADDRESS":"樹林１３１號之２１","OBJECTID":331780},"geometry":{"x":163057.17822999973,"y":2557655.78565}},{"attributes":{"ID":331790,"DIS_CODE":0,"TOWNNAME":"七股區","LI":"樹林里","LIN":"15鄰","STREET":" ","SECT":" ","MAREA":"樹林","LANE":" ","ALLEY":" ","HOUSE_NO":"１３１號之３","E_COORD97":163070.32107999999,"N_COORD97":2557612.1823399998,"ADDRESS":"樹林１３１號之３","OBJECTID":331781},"geometry":{"x":163070.32108000107,"y":2557612.1823400017}},{"attributes":{"ID":331791,"DIS_CODE":0,"TOWNNAME":"七股區","LI":"樹林里","LIN":"15鄰","STREET":" ","SECT":" ","MAREA":"樹林","LANE":" ","ALLEY":" ","HOUSE_NO":"１３１號之４","E_COORD97":163076.89249999999,"N_COORD97":2557605.6206800002,"ADDRESS":"樹林１３１號之４","OBJECTID":331782},"geometry":{"x":163076.89250000194,"y":2557605.6206800025}},{"attributes":{"ID":331792,"DIS_CODE":0,"TOWNNAME":"新市區","LI":"社內里","LIN":"8鄰","STREET":" ","SECT":" ","MAREA":"社內","LANE":" ","ALLEY":" ","HOUSE_NO":"７５之４５號","E_COORD97":176829.68147099999,"N_COORD97":2553446.6984399999,"ADDRESS":"社內７５之４５號","OBJECTID":331783},"geometry":{"x":176829.68147100043,"y":2553446.6984440014}},{"attributes":{"ID":331793,"DIS_CODE":0,"TOWNNAME":"新市區","LI":"社內里","LIN":"8鄰","STREET":" ","SECT":" ","MAREA":"社內","LANE":" ","ALLEY":" ","HOUSE_NO":"７５之４６號","E_COORD97":176819.30027000001,"N_COORD97":2553450.29678,"ADDRESS":"社內７５之４６號","OBJECTID":331784},"geometry":{"x":176819.3002700014,"y":2553450.2967750002}},{"attributes":{"ID":331794,"DIS_CODE":0,"TOWNNAME":"新市區","LI":"社內里","LIN":"8鄰","STREET":" ","SECT":" ","MAREA":"社內","LANE":" ","ALLEY":" ","HOUSE_NO":"７５之４７號","E_COORD97":176816.12235200001,"N_COORD97":2553431.6701199999,"ADDRESS":"社內７５之４７號","OBJECTID":331785},"geometry":{"x":176816.12235200126,"y":2553431.6701190006}},{"attributes":{"ID":331795,"DIS_CODE":0,"TOWNNAME":"新市區","LI":"社內里","LIN":"7鄰","STREET":" ","SECT":" ","MAREA":"社內","LANE":" ","ALLEY":" ","HOUSE_NO":"７１之３號","E_COORD97":176567.23837199999,"N_COORD97":2552739.9967399999,"ADDRESS":"社內７１之３號","OBJECTID":331786},"geometry":{"x":176567.23837200087,"y":2552739.9967419989}},{"attributes":{"ID":331796,"DIS_CODE":0,"TOWNNAME":"歸仁區","LI":"沙崙里","LIN":"10鄰","STREET":" ","SECT":" ","MAREA":"沙崙","LANE":" ","ALLEY":" ","HOUSE_NO":"５２６號","E_COORD97":180724.7274,"N_COORD97":2537756.0253599999,"ADDRESS":"沙崙５２６號","OBJECTID":331787},"geometry":{"x":180724.72740000207,"y":2537756.0253600013}},{"attributes":{"ID":331797,"DIS_CODE":0,"TOWNNAME":"歸仁區","LI":"沙崙里","LIN":"10鄰","STREET":" ","SECT":" ","MAREA":"沙崙","LANE":" ","ALLEY":" ","HOUSE_NO":"５５０號","E_COORD97":180257.98347499999,"N_COORD97":2537489.9605,"ADDRESS":"沙崙５５０號","OBJECTID":331788},"geometry":{"x":180257.9834750006,"y":2537489.960504001}},{"attributes":{"ID":331798,"DIS_CODE":0,"TOWNNAME":"新營區","LI":"太北里","LIN":"9鄰","STREET":" ","SECT":" ","MAREA":"太子宮","LANE":" ","ALLEY":" ","HOUSE_NO":"７５號","E_COORD97":176102.76605000001,"N_COORD97":2577065.26517,"ADDRESS":"太子宮７５號","OBJECTID":331789},"geometry":{"x":176102.76605000068,"y":2577065.2651700005}},{"attributes":{"ID":331799,"DIS_CODE":0,"TOWNNAME":"新營區","LI":"太北里","LIN":"9鄰","STREET":" ","SECT":" ","MAREA":"太子宮","LANE":" ","ALLEY":" ","HOUSE_NO":"７５之１號","E_COORD97":176106.15682800001,"N_COORD97":2577065.2651800001,"ADDRESS":"太子宮７５之１號","OBJECTID":331790},"geometry":{"x":176106.15682799928,"y":2577065.2651760001}},{"attributes":{"ID":331800,"DIS_CODE":0,"TOWNNAME":"七股區","LI":"樹林里","LIN":"15鄰","STREET":" ","SECT":" ","MAREA":"樹林","LANE":" ","ALLEY":" ","HOUSE_NO":"１３２號","E_COORD97":163063.32569500001,"N_COORD97":2557608.3723499998,"ADDRESS":"樹林１３２號","OBJECTID":331791},"geometry":{"x":163063.32569499966,"y":2557608.3723470028}},{"attributes":{"ID":331801,"DIS_CODE":0,"TOWNNAME":"歸仁區","LI":"沙崙里","LIN":"9鄰","STREET":" ","SECT":" ","MAREA":"沙崙","LANE":" ","ALLEY":" ","HOUSE_NO":"１９８號","E_COORD97":179078.729417,"N_COORD97":2537054.3772,"ADDRESS":"沙崙１９８號","OBJECTID":331792},"geometry":{"x":179078.72941700183,"y":2537054.3771970011}},{"attributes":{"ID":331802,"DIS_CODE":0,"TOWNNAME":"歸仁區","LI":"沙崙里","LIN":"9鄰","STREET":" ","SECT":" ","MAREA":"沙崙","LANE":" ","ALLEY":" ","HOUSE_NO":"１９７號","E_COORD97":179115.17061299999,"N_COORD97":2537075.54385,"ADDRESS":"沙崙１９７號","OBJECTID":331793},"geometry":{"x":179115.1706130011,"y":2537075.5438530035}},{"attributes":{"ID":331803,"DIS_CODE":0,"TOWNNAME":"關廟區","LI":"山西里","LIN":"14鄰","STREET":"文衡路","SECT":" ","MAREA":" ","LANE":"１７０巷","ALLEY":" ","HOUSE_NO":"２３號","E_COORD97":180991.37197899999,"N_COORD97":2540489.8876299998,"ADDRESS":"文衡路１７０巷２３號","OBJECTID":331794},"geometry":{"x":180991.37197900005,"y":2540489.887627}},{"attributes":{"ID":331804,"DIS_CODE":0,"TOWNNAME":"關廟區","LI":"山西里","LIN":"16鄰","STREET":"中正路","SECT":" ","MAREA":" ","LANE":" ","ALLEY":" ","HOUSE_NO":"１０２７號","E_COORD97":180935.3897,"N_COORD97":2540340.9222200001,"ADDRESS":"中正路１０２７號","OBJECTID":331795},"geometry":{"x":180935.38970000017,"y":2540340.9222240001}},{"attributes":{"ID":331805,"DIS_CODE":0,"TOWNNAME":"關廟區","LI":"山西里","LIN":"16鄰","STREET":"中正路","SECT":" ","MAREA":" ","LANE":" ","ALLEY":" ","HOUSE_NO":"１０２５號","E_COORD97":180944.18239900001,"N_COORD97":2540338.1176399998,"ADDRESS":"中正路１０２５號","OBJECTID":331796},"geometry":{"x":180944.18239900004,"y":2540338.1176420003}},{"attributes":{"ID":331806,"DIS_CODE":0,"TOWNNAME":"歸仁區","LI":"後市里","LIN":"41鄰","STREET":"國光街","SECT":" ","MAREA":" ","LANE":" ","ALLEY":" ","HOUSE_NO":"７８號","E_COORD97":177179.17789299999,"N_COORD97":2540923.6962000001,"ADDRESS":"國光街７８號","OBJECTID":331797},"geometry":{"x":177179.17789299972,"y":2540923.6961980015}},{"attributes":{"ID":331807,"DIS_CODE":0,"TOWNNAME":"東區","LI":"大德里","LIN":"15鄰","STREET":"立德十一路","SECT":" ","MAREA":" ","LANE":"２９巷","ALLEY":" ","HOUSE_NO":"３２號","E_COORD97":169469.60000000001,"N_COORD97":2542144.0699999998,"ADDRESS":"立德十一路２９巷３２號","OBJECTID":331798},"geometry":{"x":169469.59999999963,"y":2542144.0700000022}},{"attributes":{"ID":331808,"DIS_CODE":0,"TOWNNAME":"東區","LI":"大德里","LIN":"15鄰","STREET":"立德十一路","SECT":" ","MAREA":" ","LANE":"２９巷","ALLEY":" ","HOUSE_NO":"３４號","E_COORD97":169477.57000000001,"N_COORD97":2542145.8700000001,"ADDRESS":"立德十一路２９巷３４號","OBJECTID":331799},"geometry":{"x":169477.5700000003,"y":2542145.8700000029}},{"attributes":{"ID":331809,"DIS_CODE":0,"TOWNNAME":"新營區","LI":"太北里","LIN":"19鄰","STREET":" ","SECT":" ","MAREA":"太子宮","LANE":" ","ALLEY":" ","HOUSE_NO":"４４之１７號","E_COORD97":175701.08868799999,"N_COORD97":2577337.9742399999,"ADDRESS":"太子宮４４之１７號","OBJECTID":331800},"geometry":{"x":175701.08868800104,"y":2577337.9742390011}}]}