{"displayFieldName":"TOWNNAME","fieldAliases":{"ID":"ID","DIS_CODE":"DIS_CODE","TOWNNAME":"TOWNNAME","LI":"LI","LIN":"LIN","STREET":"STREET","SECT":"SECT","MAREA":"MAREA","LANE":"LANE","ALLEY":"ALLEY","HOUSE_NO":"HOUSE_NO","E_COORD97":"E_COORD97","N_COORD97":"N_COORD97","ADDRESS":"ADDRESS","OBJECTID":"OBJECTID"},"geometryType":"esriGeometryPoint","spatialReference":{"wkid":102443,"latestWkid":3826},"fields":[{"name":"ID","type":"esriFieldTypeDouble","alias":"ID"},{"name":"DIS_CODE","type":"esriFieldTypeInteger","alias":"DIS_CODE"},{"name":"TOWNNAME","type":"esriFieldTypeString","alias":"TOWNNAME","length":8},{"name":"LI","type":"esriFieldTypeString","alias":"LI","length":8},{"name":"LIN","type":"esriFieldTypeString","alias":"LIN","length":12},{"name":"STREET","type":"esriFieldTypeString","alias":"STREET","length":20},{"name":"SECT","type":"esriFieldTypeString","alias":"SECT","length":8},{"name":"MAREA","type":"esriFieldTypeString","alias":"MAREA","length":12},{"name":"LANE","type":"esriFieldTypeString","alias":"LANE","length":10},{"name":"ALLEY","type":"esriFieldTypeString","alias":"ALLEY","length":10},{"name":"HOUSE_NO","type":"esriFieldTypeString","alias":"HOUSE_NO","length":20},{"name":"E_COORD97","type":"esriFieldTypeDouble","alias":"E_COORD97"},{"name":"N_COORD97","type":"esriFieldTypeDouble","alias":"N_COORD97"},{"name":"ADDRESS","type":"esriFieldTypeString","alias":"ADDRESS","length":50},{"name":"OBJECTID","type":"esriFieldTypeOID","alias":"OBJECTID"}],"features":[{"attributes":{"ID":639828,"DIS_CODE":0,"TOWNNAME":"南區","LI":"田寮里","LIN":"26鄰","STREET":"大成路","SECT":"二段","MAREA":" ","LANE":" ","ALLEY":" ","HOUSE_NO":"１２０號","E_COORD97":167396.32999999999,"N_COORD97":2541756.9100000001,"ADDRESS":"大成路二段１２０號","OBJECTID":639801},"geometry":{"x":167396.33000000101,"y":2541756.9100000039}},{"attributes":{"ID":639829,"DIS_CODE":0,"TOWNNAME":"南區","LI":"田寮里","LIN":"26鄰","STREET":"大成路","SECT":"二段","MAREA":" ","LANE":" ","ALLEY":" ","HOUSE_NO":"１２６號","E_COORD97":167391.17000000001,"N_COORD97":2541756.2200000002,"ADDRESS":"大成路二段１２６號","OBJECTID":639802},"geometry":{"x":167391.16999999993,"y":2541756.2200000025}},{"attributes":{"ID":639830,"DIS_CODE":0,"TOWNNAME":"南區","LI":"田寮里","LIN":"26鄰","STREET":"大成路","SECT":"二段","MAREA":" ","LANE":" ","ALLEY":" ","HOUSE_NO":"１２８號","E_COORD97":167385.35999999999,"N_COORD97":2541756.2200000002,"ADDRESS":"大成路二段１２８號","OBJECTID":639803},"geometry":{"x":167385.36000000034,"y":2541756.2200000025}},{"attributes":{"ID":639831,"DIS_CODE":0,"TOWNNAME":"南區","LI":"田寮里","LIN":"26鄰","STREET":"大成路","SECT":"二段","MAREA":" ","LANE":" ","ALLEY":" ","HOUSE_NO":"１３４號","E_COORD97":167369.54000000001,"N_COORD97":2541755.9900000002,"ADDRESS":"大成路二段１３４號","OBJECTID":639804},"geometry":{"x":167369.54000000097,"y":2541755.9900000002}},{"attributes":{"ID":639832,"DIS_CODE":0,"TOWNNAME":"南區","LI":"田寮里","LIN":"26鄰","STREET":"大成路","SECT":"二段","MAREA":" ","LANE":" ","ALLEY":" ","HOUSE_NO":"１３６號","E_COORD97":167363.5,"N_COORD97":2541756.2200000002,"ADDRESS":"大成路二段１３６號","OBJECTID":639805},"geometry":{"x":167363.5,"y":2541756.2200000025}},{"attributes":{"ID":639833,"DIS_CODE":0,"TOWNNAME":"南區","LI":"田寮里","LIN":"26鄰","STREET":"大成路","SECT":"二段","MAREA":" ","LANE":" ","ALLEY":" ","HOUSE_NO":"１３８號","E_COORD97":167350.16,"N_COORD97":2541755.0600000001,"ADDRESS":"大成路二段１３８號","OBJECTID":639806},"geometry":{"x":167350.16000000108,"y":2541755.0600000005}},{"attributes":{"ID":639834,"DIS_CODE":0,"TOWNNAME":"南區","LI":"田寮里","LIN":"26鄰","STREET":"大成路","SECT":"二段","MAREA":" ","LANE":" ","ALLEY":" ","HOUSE_NO":"１４６號","E_COORD97":167336.67999999999,"N_COORD97":2541754.8199999998,"ADDRESS":"大成路二段１４６號","OBJECTID":639807},"geometry":{"x":167336.6799999997,"y":2541754.8200000022}},{"attributes":{"ID":639835,"DIS_CODE":0,"TOWNNAME":"南區","LI":"田寮里","LIN":"26鄰","STREET":"大成路","SECT":"二段","MAREA":" ","LANE":" ","ALLEY":" ","HOUSE_NO":"１４８號","E_COORD97":167332.72,"N_COORD97":2541754.5899999999,"ADDRESS":"大成路二段１４８號","OBJECTID":639808},"geometry":{"x":167332.71999999974,"y":2541754.5899999999}},{"attributes":{"ID":639836,"DIS_CODE":0,"TOWNNAME":"南區","LI":"田寮里","LIN":"26鄰","STREET":"大成路","SECT":"二段","MAREA":" ","LANE":" ","ALLEY":" ","HOUSE_NO":"１５０號","E_COORD97":167327.84,"N_COORD97":2541754.3599999999,"ADDRESS":"大成路二段１５０號","OBJECTID":639809},"geometry":{"x":167327.84000000078,"y":2541754.3600000013}},{"attributes":{"ID":639837,"DIS_CODE":0,"TOWNNAME":"南區","LI":"田寮里","LIN":"26鄰","STREET":"大成路","SECT":"二段","MAREA":" ","LANE":" ","ALLEY":" ","HOUSE_NO":"１５２號","E_COORD97":167323.42000000001,"N_COORD97":2541754.1299999999,"ADDRESS":"大成路二段１５２號","OBJECTID":639810},"geometry":{"x":167323.41999999993,"y":2541754.1300000027}},{"attributes":{"ID":639838,"DIS_CODE":0,"TOWNNAME":"南區","LI":"大林里","LIN":"19鄰","STREET":"大林路","SECT":" ","MAREA":" ","LANE":" ","ALLEY":" ","HOUSE_NO":"８７號","E_COORD97":169201.95000000001,"N_COORD97":2541789.75,"ADDRESS":"大林路８７號","OBJECTID":639811},"geometry":{"x":169201.95000000019,"y":2541789.7500000019}},{"attributes":{"ID":639839,"DIS_CODE":0,"TOWNNAME":"南區","LI":"大林里","LIN":"19鄰","STREET":"大林路","SECT":" ","MAREA":" ","LANE":" ","ALLEY":" ","HOUSE_NO":"８９號","E_COORD97":169199.07999999999,"N_COORD97":2541789.3199999998,"ADDRESS":"大林路８９號","OBJECTID":639812},"geometry":{"x":169199.08000000007,"y":2541789.3200000022}},{"attributes":{"ID":639840,"DIS_CODE":0,"TOWNNAME":"南區","LI":"大林里","LIN":"19鄰","STREET":"大林路","SECT":" ","MAREA":" ","LANE":" ","ALLEY":" ","HOUSE_NO":"９１號","E_COORD97":169192.91,"N_COORD97":2541789.3199999998,"ADDRESS":"大林路９１號","OBJECTID":639813},"geometry":{"x":169192.91000000108,"y":2541789.3200000022}},{"attributes":{"ID":639841,"DIS_CODE":0,"TOWNNAME":"南區","LI":"大林里","LIN":"19鄰","STREET":"大林路","SECT":" ","MAREA":" ","LANE":" ","ALLEY":" ","HOUSE_NO":"９３號","E_COORD97":169188.17999999999,"N_COORD97":2541788.46,"ADDRESS":"大林路９３號","OBJECTID":639814},"geometry":{"x":169188.18000000156,"y":2541788.4600000028}},{"attributes":{"ID":639842,"DIS_CODE":0,"TOWNNAME":"南區","LI":"大林里","LIN":"19鄰","STREET":"大林路","SECT":" ","MAREA":" ","LANE":" ","ALLEY":" ","HOUSE_NO":"９５號","E_COORD97":169183.88,"N_COORD97":2541788.46,"ADDRESS":"大林路９５號","OBJECTID":639815},"geometry":{"x":169183.88000000082,"y":2541788.4600000028}},{"attributes":{"ID":639843,"DIS_CODE":0,"TOWNNAME":"南區","LI":"大林里","LIN":"19鄰","STREET":"大林路","SECT":" ","MAREA":" ","LANE":" ","ALLEY":" ","HOUSE_NO":"９７號","E_COORD97":169179.57000000001,"N_COORD97":2541787.7400000002,"ADDRESS":"大林路９７號","OBJECTID":639816},"geometry":{"x":169179.57000000123,"y":2541787.7400000002}},{"attributes":{"ID":639844,"DIS_CODE":0,"TOWNNAME":"南區","LI":"大林里","LIN":"19鄰","STREET":"大林路","SECT":" ","MAREA":" ","LANE":" ","ALLEY":" ","HOUSE_NO":"９９號","E_COORD97":169174.84,"N_COORD97":2541784.7400000002,"ADDRESS":"大林路９９號","OBJECTID":639817},"geometry":{"x":169174.83999999985,"y":2541784.7400000002}},{"attributes":{"ID":639845,"DIS_CODE":0,"TOWNNAME":"南區","LI":"田寮里","LIN":"24鄰","STREET":"大成路","SECT":"二段","MAREA":" ","LANE":" ","ALLEY":" ","HOUSE_NO":"１０號","E_COORD97":167687.79000000001,"N_COORD97":2541749.1699999999,"ADDRESS":"大成路二段１０號","OBJECTID":639818},"geometry":{"x":167687.79000000097,"y":2541749.1700000018}},{"attributes":{"ID":639846,"DIS_CODE":0,"TOWNNAME":"玉井區","LI":"玉田里","LIN":"4鄰","STREET":"民主街","SECT":" ","MAREA":" ","LANE":" ","ALLEY":" ","HOUSE_NO":"１３３號","E_COORD97":195087.17999999999,"N_COORD97":2558202.2799999998,"ADDRESS":"民主街１３３號","OBJECTID":639819},"geometry":{"x":195087.17999999877,"y":2558202.2799999993}},{"attributes":{"ID":639847,"DIS_CODE":0,"TOWNNAME":"玉井區","LI":"玉田里","LIN":"38鄰","STREET":"大仁街","SECT":" ","MAREA":" ","LANE":" ","ALLEY":" ","HOUSE_NO":"２８號","E_COORD97":195248.32000000001,"N_COORD97":2557999.2400000002,"ADDRESS":"大仁街２８號","OBJECTID":639820},"geometry":{"x":195248.32000000123,"y":2557999.2400000021}},{"attributes":{"ID":639848,"DIS_CODE":0,"TOWNNAME":"玉井區","LI":"玉田里","LIN":"24鄰","STREET":"中華路","SECT":" ","MAREA":" ","LANE":" ","ALLEY":" ","HOUSE_NO":"１７６號","E_COORD97":195127.85000000001,"N_COORD97":2557876.2400000002,"ADDRESS":"中華路１７６號","OBJECTID":639821},"geometry":{"x":195127.84999999963,"y":2557876.2400000021}},{"attributes":{"ID":639849,"DIS_CODE":0,"TOWNNAME":"玉井區","LI":"中正里","LIN":"4鄰","STREET":"中正路","SECT":" ","MAREA":" ","LANE":" ","ALLEY":" ","HOUSE_NO":"４２９號","E_COORD97":195410.76000000001,"N_COORD97":2558570.25,"ADDRESS":"中正路４２９號","OBJECTID":639822},"geometry":{"x":195410.76000000071,"y":2558570.25}},{"attributes":{"ID":639850,"DIS_CODE":0,"TOWNNAME":"玉井區","LI":"玉田里","LIN":"32鄰","STREET":"民族路","SECT":" ","MAREA":" ","LANE":" ","ALLEY":" ","HOUSE_NO":"１３８號","E_COORD97":195359.07999999999,"N_COORD97":2558090.2799999998,"ADDRESS":"民族路１３８號","OBJECTID":639823},"geometry":{"x":195359.08000000007,"y":2558090.2799999993}},{"attributes":{"ID":639851,"DIS_CODE":0,"TOWNNAME":"玉井區","LI":"玉田里","LIN":"43鄰","STREET":"忠孝街","SECT":" ","MAREA":" ","LANE":" ","ALLEY":" ","HOUSE_NO":"５號","E_COORD97":195577.42999999999,"N_COORD97":2557752.2400000002,"ADDRESS":"忠孝街５號","OBJECTID":639824},"geometry":{"x":195577.43000000063,"y":2557752.2400000002}},{"attributes":{"ID":639852,"DIS_CODE":0,"TOWNNAME":"玉井區","LI":"玉田里","LIN":"38鄰","STREET":"大仁街","SECT":" ","MAREA":" ","LANE":" ","ALLEY":" ","HOUSE_NO":"３７號","E_COORD97":195247.20999999999,"N_COORD97":2558029.25,"ADDRESS":"大仁街３７號","OBJECTID":639825},"geometry":{"x":195247.21000000089,"y":2558029.2500000019}},{"attributes":{"ID":639853,"DIS_CODE":0,"TOWNNAME":"玉井區","LI":"玉田里","LIN":"41鄰","STREET":"民族路","SECT":" ","MAREA":" ","LANE":" ","ALLEY":" ","HOUSE_NO":"１５７號","E_COORD97":195390.88,"N_COORD97":2558099.2799999998,"ADDRESS":"民族路１５７號","OBJECTID":639826},"geometry":{"x":195390.87999999989,"y":2558099.2800000012}},{"attributes":{"ID":639854,"DIS_CODE":0,"TOWNNAME":"玉井區","LI":"玉田里","LIN":"24鄰","STREET":"中華路","SECT":" ","MAREA":" ","LANE":" ","ALLEY":" ","HOUSE_NO":"１８０號","E_COORD97":195134.04999999999,"N_COORD97":2557871.2400000002,"ADDRESS":"中華路１８０號","OBJECTID":639827},"geometry":{"x":195134.05000000168,"y":2557871.2400000002}},{"attributes":{"ID":639855,"DIS_CODE":0,"TOWNNAME":"玉井區","LI":"玉田里","LIN":"20鄰","STREET":"民族路","SECT":" ","MAREA":" ","LANE":" ","ALLEY":" ","HOUSE_NO":"１１４號","E_COORD97":195211.48999999999,"N_COORD97":2558091.2799999998,"ADDRESS":"民族路１１４號","OBJECTID":639828},"geometry":{"x":195211.49000000115,"y":2558091.2799999993}},{"attributes":{"ID":639856,"DIS_CODE":0,"TOWNNAME":"玉井區","LI":"玉田里","LIN":"41鄰","STREET":"民族路","SECT":" ","MAREA":" ","LANE":" ","ALLEY":" ","HOUSE_NO":"１５５號","E_COORD97":195386.67999999999,"N_COORD97":2558100.2799999998,"ADDRESS":"民族路１５５號","OBJECTID":639829},"geometry":{"x":195386.6799999997,"y":2558100.2799999993}},{"attributes":{"ID":639857,"DIS_CODE":0,"TOWNNAME":"玉井區","LI":"玉田里","LIN":"40鄰","STREET":"和平街","SECT":" ","MAREA":" ","LANE":" ","ALLEY":" ","HOUSE_NO":"１７６號","E_COORD97":195257.54000000001,"N_COORD97":2557502.25,"ADDRESS":"和平街１７６號","OBJECTID":639830},"geometry":{"x":195257.54000000004,"y":2557502.25}},{"attributes":{"ID":639858,"DIS_CODE":0,"TOWNNAME":"玉井區","LI":"玉田里","LIN":"40鄰","STREET":"和平街","SECT":" ","MAREA":" ","LANE":" ","ALLEY":" ","HOUSE_NO":"１８２號","E_COORD97":195270.54000000001,"N_COORD97":2557496.25,"ADDRESS":"和平街１８２號","OBJECTID":639831},"geometry":{"x":195270.54000000097,"y":2557496.2500000019}},{"attributes":{"ID":639859,"DIS_CODE":0,"TOWNNAME":"玉井區","LI":"玉田里","LIN":"40鄰","STREET":"和平街","SECT":" ","MAREA":" ","LANE":" ","ALLEY":" ","HOUSE_NO":"１６２號","E_COORD97":195234.04999999999,"N_COORD97":2557514.25,"ADDRESS":"和平街１６２號","OBJECTID":639832},"geometry":{"x":195234.05000000168,"y":2557514.2500000019}},{"attributes":{"ID":639860,"DIS_CODE":0,"TOWNNAME":"玉井區","LI":"中正里","LIN":"4鄰","STREET":"中正路","SECT":" ","MAREA":" ","LANE":" ","ALLEY":" ","HOUSE_NO":"４３１號","E_COORD97":195416.06,"N_COORD97":2558576.2400000002,"ADDRESS":"中正路４３１號","OBJECTID":639833},"geometry":{"x":195416.05999999959,"y":2558576.2400000002}},{"attributes":{"ID":639861,"DIS_CODE":0,"TOWNNAME":"玉井區","LI":"玉田里","LIN":"41鄰","STREET":"民族路","SECT":" ","MAREA":" ","LANE":" ","ALLEY":" ","HOUSE_NO":"１７７號","E_COORD97":195434.98999999999,"N_COORD97":2558100.2799999998,"ADDRESS":"民族路１７７號","OBJECTID":639834},"geometry":{"x":195434.99000000209,"y":2558100.2799999993}},{"attributes":{"ID":639862,"DIS_CODE":0,"TOWNNAME":"玉井區","LI":"中正里","LIN":"4鄰","STREET":"中正路","SECT":" ","MAREA":" ","LANE":" ","ALLEY":" ","HOUSE_NO":"４１１號","E_COORD97":195392.45999999999,"N_COORD97":2558560.25,"ADDRESS":"中正路４１１號","OBJECTID":639835},"geometry":{"x":195392.46000000183,"y":2558560.2499999981}},{"attributes":{"ID":639863,"DIS_CODE":0,"TOWNNAME":"玉井區","LI":"玉田里","LIN":"40鄰","STREET":"和平街","SECT":" ","MAREA":" ","LANE":" ","ALLEY":" ","HOUSE_NO":"１９０號","E_COORD97":195281.54000000001,"N_COORD97":2557491.25,"ADDRESS":"和平街１９０號","OBJECTID":639836},"geometry":{"x":195281.54000000004,"y":2557491.25}},{"attributes":{"ID":639864,"DIS_CODE":0,"TOWNNAME":"玉井區","LI":"玉田里","LIN":"20鄰","STREET":"民族路","SECT":" ","MAREA":" ","LANE":" ","ALLEY":" ","HOUSE_NO":"１２２號","E_COORD97":195219.79000000001,"N_COORD97":2558092.2799999998,"ADDRESS":"民族路１２２號","OBJECTID":639837},"geometry":{"x":195219.79000000097,"y":2558092.2800000012}},{"attributes":{"ID":639865,"DIS_CODE":0,"TOWNNAME":"玉井區","LI":"玉田里","LIN":"25鄰","STREET":"中華路","SECT":" ","MAREA":" ","LANE":" ","ALLEY":" ","HOUSE_NO":"２１０號","E_COORD97":195303.26000000001,"N_COORD97":2557694.2400000002,"ADDRESS":"中華路２１０號","OBJECTID":639838},"geometry":{"x":195303.25999999978,"y":2557694.2400000021}},{"attributes":{"ID":639866,"DIS_CODE":0,"TOWNNAME":"玉井區","LI":"玉田里","LIN":"4鄰","STREET":"民主街","SECT":" ","MAREA":" ","LANE":" ","ALLEY":" ","HOUSE_NO":"１３７號","E_COORD97":195085.09,"N_COORD97":2558210.2799999998,"ADDRESS":"民主街１３７號","OBJECTID":639839},"geometry":{"x":195085.09000000078,"y":2558210.2800000031}},{"attributes":{"ID":639867,"DIS_CODE":0,"TOWNNAME":"玉井區","LI":"玉田里","LIN":"25鄰","STREET":"信義街","SECT":" ","MAREA":" ","LANE":" ","ALLEY":" ","HOUSE_NO":"６６號","E_COORD97":195224.12,"N_COORD97":2557641.27,"ADDRESS":"信義街６６號","OBJECTID":639840},"geometry":{"x":195224.12000000104,"y":2557641.2700000033}},{"attributes":{"ID":639868,"DIS_CODE":0,"TOWNNAME":"玉井區","LI":"玉田里","LIN":"18鄰","STREET":"中華路","SECT":" ","MAREA":" ","LANE":" ","ALLEY":" ","HOUSE_NO":"１０５號","E_COORD97":195002.45999999999,"N_COORD97":2558016.25,"ADDRESS":"中華路１０５號","OBJECTID":639841},"geometry":{"x":195002.45999999996,"y":2558016.2500000019}},{"attributes":{"ID":639869,"DIS_CODE":0,"TOWNNAME":"玉井區","LI":"玉田里","LIN":"39鄰","STREET":"和平街","SECT":" ","MAREA":" ","LANE":" ","ALLEY":" ","HOUSE_NO":"２號","E_COORD97":194988.23000000001,"N_COORD97":2557662.2400000002,"ADDRESS":"和平街２號","OBJECTID":639842},"geometry":{"x":194988.23000000138,"y":2557662.2400000039}},{"attributes":{"ID":639870,"DIS_CODE":0,"TOWNNAME":"玉井區","LI":"玉田里","LIN":"43鄰","STREET":"大成路","SECT":" ","MAREA":" ","LANE":" ","ALLEY":" ","HOUSE_NO":"８１號","E_COORD97":195598.12,"N_COORD97":2557717.27,"ADDRESS":"大成路８１號","OBJECTID":639843},"geometry":{"x":195598.12000000011,"y":2557717.2700000014}},{"attributes":{"ID":639871,"DIS_CODE":0,"TOWNNAME":"玉井區","LI":"玉田里","LIN":"18鄰","STREET":"中華路","SECT":" ","MAREA":" ","LANE":" ","ALLEY":" ","HOUSE_NO":"１１７號","E_COORD97":195016.04999999999,"N_COORD97":2558003.2400000002,"ADDRESS":"中華路１１７號","OBJECTID":639844},"geometry":{"x":195016.05000000075,"y":2558003.2400000002}},{"attributes":{"ID":639872,"DIS_CODE":0,"TOWNNAME":"玉井區","LI":"玉田里","LIN":"18鄰","STREET":"中華路","SECT":" ","MAREA":" ","LANE":" ","ALLEY":" ","HOUSE_NO":"９５號","E_COORD97":194978.81,"N_COORD97":2558041.25,"ADDRESS":"中華路９５號","OBJECTID":639845},"geometry":{"x":194978.80999999959,"y":2558041.25}},{"attributes":{"ID":639873,"DIS_CODE":0,"TOWNNAME":"玉井區","LI":"玉田里","LIN":"25鄰","STREET":"信義街","SECT":" ","MAREA":" ","LANE":" ","ALLEY":" ","HOUSE_NO":"６０號","E_COORD97":195210.62,"N_COORD97":2557644.2599999998,"ADDRESS":"信義街６０號","OBJECTID":639846},"geometry":{"x":195210.62000000104,"y":2557644.2599999998}},{"attributes":{"ID":639874,"DIS_CODE":0,"TOWNNAME":"玉井區","LI":"玉田里","LIN":"25鄰","STREET":"信義街","SECT":" ","MAREA":" ","LANE":" ","ALLEY":" ","HOUSE_NO":"６５號","E_COORD97":195224.92000000001,"N_COORD97":2557655.2599999998,"ADDRESS":"信義街６５號","OBJECTID":639847},"geometry":{"x":195224.92000000179,"y":2557655.2600000016}},{"attributes":{"ID":639875,"DIS_CODE":0,"TOWNNAME":"玉井區","LI":"玉田里","LIN":"18鄰","STREET":"中華路","SECT":" ","MAREA":" ","LANE":" ","ALLEY":" ","HOUSE_NO":"１２５號","E_COORD97":195029.85000000001,"N_COORD97":2557991.2400000002,"ADDRESS":"中華路１２５號","OBJECTID":639848},"geometry":{"x":195029.84999999963,"y":2557991.2400000039}},{"attributes":{"ID":639876,"DIS_CODE":0,"TOWNNAME":"玉井區","LI":"玉田里","LIN":"5鄰","STREET":"民族路","SECT":" ","MAREA":" ","LANE":" ","ALLEY":" ","HOUSE_NO":"５號","E_COORD97":194953.07999999999,"N_COORD97":2558111.29,"ADDRESS":"民族路５號","OBJECTID":639849},"geometry":{"x":194953.08000000101,"y":2558111.2899999991}},{"attributes":{"ID":639877,"DIS_CODE":0,"TOWNNAME":"玉井區","LI":"玉田里","LIN":"41鄰","STREET":"民族路","SECT":" ","MAREA":" ","LANE":" ","ALLEY":" ","HOUSE_NO":"２０１號","E_COORD97":195497.38,"N_COORD97":2558093.2799999998,"ADDRESS":"民族路２０１號","OBJECTID":639850},"geometry":{"x":195497.37999999989,"y":2558093.2800000012}},{"attributes":{"ID":639878,"DIS_CODE":0,"TOWNNAME":"玉井區","LI":"玉田里","LIN":"30鄰","STREET":"仁愛街","SECT":" ","MAREA":" ","LANE":" ","ALLEY":" ","HOUSE_NO":"９號","E_COORD97":195507.67999999999,"N_COORD97":2557607.2799999998,"ADDRESS":"仁愛街９號","OBJECTID":639851},"geometry":{"x":195507.68000000156,"y":2557607.2800000012}},{"attributes":{"ID":639879,"DIS_CODE":0,"TOWNNAME":"玉井區","LI":"玉田里","LIN":"25鄰","STREET":"信義街","SECT":" ","MAREA":" ","LANE":" ","ALLEY":" ","HOUSE_NO":"６９號","E_COORD97":195232.32000000001,"N_COORD97":2557654.2599999998,"ADDRESS":"信義街６９號","OBJECTID":639852},"geometry":{"x":195232.3200000003,"y":2557654.2599999998}},{"attributes":{"ID":639880,"DIS_CODE":0,"TOWNNAME":"玉井區","LI":"玉田里","LIN":"32鄰","STREET":"仁愛街","SECT":" ","MAREA":" ","LANE":" ","ALLEY":" ","HOUSE_NO":"１４９號","E_COORD97":195367.98000000001,"N_COORD97":2558126.2799999998,"ADDRESS":"仁愛街１４９號","OBJECTID":639853},"geometry":{"x":195367.98000000138,"y":2558126.2800000012}},{"attributes":{"ID":639881,"DIS_CODE":0,"TOWNNAME":"玉井區","LI":"玉田里","LIN":"43鄰","STREET":"大成路","SECT":" ","MAREA":" ","LANE":" ","ALLEY":" ","HOUSE_NO":"１３號","E_COORD97":195534.32000000001,"N_COORD97":2557581.2599999998,"ADDRESS":"大成路１３號","OBJECTID":639854},"geometry":{"x":195534.3200000003,"y":2557581.2600000016}},{"attributes":{"ID":639882,"DIS_CODE":0,"TOWNNAME":"玉井區","LI":"玉田里","LIN":"38鄰","STREET":"大仁街","SECT":" ","MAREA":" ","LANE":" ","ALLEY":" ","HOUSE_NO":"６號","E_COORD97":195193.67000000001,"N_COORD97":2557948.25,"ADDRESS":"大仁街６號","OBJECTID":639855},"geometry":{"x":195193.66999999993,"y":2557948.2500000019}},{"attributes":{"ID":639883,"DIS_CODE":0,"TOWNNAME":"玉井區","LI":"玉田里","LIN":"18鄰","STREET":"中華路","SECT":" ","MAREA":" ","LANE":" ","ALLEY":" ","HOUSE_NO":"１１１號","E_COORD97":195012.85000000001,"N_COORD97":2558005.25,"ADDRESS":"中華路１１１號","OBJECTID":639856},"geometry":{"x":195012.84999999963,"y":2558005.2500000019}},{"attributes":{"ID":639884,"DIS_CODE":0,"TOWNNAME":"玉井區","LI":"玉田里","LIN":"43鄰","STREET":"大成路","SECT":" ","MAREA":" ","LANE":" ","ALLEY":" ","HOUSE_NO":"６７號","E_COORD97":195589.01000000001,"N_COORD97":2557684.2599999998,"ADDRESS":"大成路６７號","OBJECTID":639857},"geometry":{"x":195589.01000000071,"y":2557684.2599999998}},{"attributes":{"ID":639885,"DIS_CODE":0,"TOWNNAME":"玉井區","LI":"玉田里","LIN":"18鄰","STREET":"中華路","SECT":" ","MAREA":" ","LANE":" ","ALLEY":" ","HOUSE_NO":"１０７號","E_COORD97":195008.26000000001,"N_COORD97":2558010.25,"ADDRESS":"中華路１０７號","OBJECTID":639858},"geometry":{"x":195008.25999999978,"y":2558010.25}},{"attributes":{"ID":639886,"DIS_CODE":0,"TOWNNAME":"玉井區","LI":"玉田里","LIN":"25鄰","STREET":"信義街","SECT":" ","MAREA":" ","LANE":" ","ALLEY":" ","HOUSE_NO":"５０號","E_COORD97":195190.62,"N_COORD97":2557652.2599999998,"ADDRESS":"信義街５０號","OBJECTID":639859},"geometry":{"x":195190.62000000104,"y":2557652.2600000016}},{"attributes":{"ID":639887,"DIS_CODE":0,"TOWNNAME":"玉井區","LI":"玉田里","LIN":"4鄰","STREET":"民主街","SECT":" ","MAREA":" ","LANE":" ","ALLEY":" ","HOUSE_NO":"１３１號","E_COORD97":195087.79000000001,"N_COORD97":2558198.2799999998,"ADDRESS":"民主街１３１號","OBJECTID":639860},"geometry":{"x":195087.79000000004,"y":2558198.2800000012}},{"attributes":{"ID":639888,"DIS_CODE":0,"TOWNNAME":"玉井區","LI":"玉井里","LIN":"4鄰","STREET":"憲政街","SECT":" ","MAREA":" ","LANE":" ","ALLEY":" ","HOUSE_NO":"７２號","E_COORD97":194507.5,"N_COORD97":2558035,"ADDRESS":"憲政街７２號","OBJECTID":639861},"geometry":{"x":194507.50000000186,"y":2558035}},{"attributes":{"ID":639889,"DIS_CODE":0,"TOWNNAME":"玉井區","LI":"玉田里","LIN":"18鄰","STREET":"中華路","SECT":" ","MAREA":" ","LANE":" ","ALLEY":" ","HOUSE_NO":"１０９號","E_COORD97":195011.04999999999,"N_COORD97":2558007.25,"ADDRESS":"中華路１０９號","OBJECTID":639862},"geometry":{"x":195011.05000000075,"y":2558007.25}},{"attributes":{"ID":639890,"DIS_CODE":0,"TOWNNAME":"玉井區","LI":"玉田里","LIN":"43鄰","STREET":"大成路","SECT":" ","MAREA":" ","LANE":" ","ALLEY":" ","HOUSE_NO":"１５５號","E_COORD97":195643.76000000001,"N_COORD97":2557868.25,"ADDRESS":"大成路１５５號","OBJECTID":639863},"geometry":{"x":195643.75999999978,"y":2557868.25}},{"attributes":{"ID":639891,"DIS_CODE":0,"TOWNNAME":"玉井區","LI":"玉田里","LIN":"43鄰","STREET":"大成路","SECT":" ","MAREA":" ","LANE":" ","ALLEY":" ","HOUSE_NO":"１４９號","E_COORD97":195639.45999999999,"N_COORD97":2557855.2599999998,"ADDRESS":"大成路１４９號","OBJECTID":639864},"geometry":{"x":195639.45999999996,"y":2557855.2600000035}},{"attributes":{"ID":639892,"DIS_CODE":0,"TOWNNAME":"玉井區","LI":"玉田里","LIN":"25鄰","STREET":"信義街","SECT":" ","MAREA":" ","LANE":" ","ALLEY":" ","HOUSE_NO":"５８號","E_COORD97":195204.62,"N_COORD97":2557646.2599999998,"ADDRESS":"信義街５８號","OBJECTID":639865},"geometry":{"x":195204.62000000011,"y":2557646.2600000016}},{"attributes":{"ID":639893,"DIS_CODE":0,"TOWNNAME":"玉井區","LI":"玉田里","LIN":"38鄰","STREET":"大仁街","SECT":" ","MAREA":" ","LANE":" ","ALLEY":" ","HOUSE_NO":"１８號","E_COORD97":195234.12,"N_COORD97":2557991.2400000002,"ADDRESS":"大仁街１８號","OBJECTID":639866},"geometry":{"x":195234.12000000104,"y":2557991.2400000039}},{"attributes":{"ID":639894,"DIS_CODE":0,"TOWNNAME":"玉井區","LI":"玉田里","LIN":"18鄰","STREET":"民生路","SECT":" ","MAREA":" ","LANE":" ","ALLEY":" ","HOUSE_NO":"４３２號","E_COORD97":195044.67999999999,"N_COORD97":2557977.2799999998,"ADDRESS":"民生路４３２號","OBJECTID":639867},"geometry":{"x":195044.6799999997,"y":2557977.2800000012}},{"attributes":{"ID":639895,"DIS_CODE":0,"TOWNNAME":"玉井區","LI":"玉田里","LIN":"18鄰","STREET":"中華路","SECT":" ","MAREA":" ","LANE":" ","ALLEY":" ","HOUSE_NO":"９７號","E_COORD97":194982.10000000001,"N_COORD97":2558041.25,"ADDRESS":"中華路９７號","OBJECTID":639868},"geometry":{"x":194982.09999999963,"y":2558041.25}},{"attributes":{"ID":639896,"DIS_CODE":0,"TOWNNAME":"玉井區","LI":"玉田里","LIN":"43鄰","STREET":"大成路","SECT":" ","MAREA":" ","LANE":" ","ALLEY":" ","HOUSE_NO":"７７號","E_COORD97":195595.32000000001,"N_COORD97":2557707.27,"ADDRESS":"大成路７７號","OBJECTID":639869},"geometry":{"x":195595.3200000003,"y":2557707.2699999996}},{"attributes":{"ID":639897,"DIS_CODE":0,"TOWNNAME":"玉井區","LI":"玉田里","LIN":"32鄰","STREET":"民族路","SECT":" ","MAREA":" ","LANE":" ","ALLEY":" ","HOUSE_NO":"１３３號","E_COORD97":195341.59,"N_COORD97":2558100.2799999998,"ADDRESS":"民族路１３３號","OBJECTID":639870},"geometry":{"x":195341.58999999985,"y":2558100.2799999993}},{"attributes":{"ID":639898,"DIS_CODE":0,"TOWNNAME":"玉井區","LI":"玉田里","LIN":"38鄰","STREET":"大仁街","SECT":" ","MAREA":" ","LANE":" ","ALLEY":" ","HOUSE_NO":"３６號","E_COORD97":195248.32000000001,"N_COORD97":2558016.25,"ADDRESS":"大仁街３６號","OBJECTID":639871},"geometry":{"x":195248.32000000123,"y":2558016.2500000019}},{"attributes":{"ID":639899,"DIS_CODE":0,"TOWNNAME":"玉井區","LI":"玉田里","LIN":"43鄰","STREET":"大成路","SECT":" ","MAREA":" ","LANE":" ","ALLEY":" ","HOUSE_NO":"８９號","E_COORD97":195604.01000000001,"N_COORD97":2557736.27,"ADDRESS":"大成路８９號","OBJECTID":639872},"geometry":{"x":195604.01000000071,"y":2557736.2700000033}},{"attributes":{"ID":639900,"DIS_CODE":0,"TOWNNAME":"玉井區","LI":"玉田里","LIN":"4鄰","STREET":"中正路","SECT":" ","MAREA":" ","LANE":" ","ALLEY":" ","HOUSE_NO":"１６８號","E_COORD97":194962.76000000001,"N_COORD97":2558214.25,"ADDRESS":"中正路１６８號","OBJECTID":639873},"geometry":{"x":194962.75999999978,"y":2558214.25}},{"attributes":{"ID":639901,"DIS_CODE":0,"TOWNNAME":"玉井區","LI":"玉田里","LIN":"4鄰","STREET":"中正路","SECT":" ","MAREA":" ","LANE":" ","ALLEY":" ","HOUSE_NO":"２１０號","E_COORD97":195043.26000000001,"N_COORD97":2558228.25,"ADDRESS":"中正路２１０號","OBJECTID":639874},"geometry":{"x":195043.26000000071,"y":2558228.2500000037}},{"attributes":{"ID":639902,"DIS_CODE":0,"TOWNNAME":"玉井區","LI":"中正里","LIN":"4鄰","STREET":"後旦街","SECT":" ","MAREA":" ","LANE":" ","ALLEY":" ","HOUSE_NO":"４２號","E_COORD97":195356.72,"N_COORD97":2558596.3100000001,"ADDRESS":"後旦街４２號","OBJECTID":639875},"geometry":{"x":195356.7200000016,"y":2558596.3100000005}},{"attributes":{"ID":639903,"DIS_CODE":0,"TOWNNAME":"玉井區","LI":"玉田里","LIN":"5鄰","STREET":"民族路","SECT":" ","MAREA":" ","LANE":" ","ALLEY":" ","HOUSE_NO":"１９號","E_COORD97":194981.92999999999,"N_COORD97":2558107.2799999998,"ADDRESS":"民族路１９號","OBJECTID":639876},"geometry":{"x":194981.9299999997,"y":2558107.2799999993}},{"attributes":{"ID":639904,"DIS_CODE":0,"TOWNNAME":"玉井區","LI":"玉田里","LIN":"39鄰","STREET":"和平街","SECT":" ","MAREA":" ","LANE":" ","ALLEY":" ","HOUSE_NO":"５之１號","E_COORD97":195023.84,"N_COORD97":2557642.29,"ADDRESS":"和平街５之１號","OBJECTID":639877},"geometry":{"x":195023.84000000078,"y":2557642.2899999991}},{"attributes":{"ID":639905,"DIS_CODE":0,"TOWNNAME":"玉井區","LI":"玉田里","LIN":"24鄰","STREET":"新興街","SECT":" ","MAREA":" ","LANE":" ","ALLEY":" ","HOUSE_NO":"２６號","E_COORD97":195085.70999999999,"N_COORD97":2557860.2400000002,"ADDRESS":"新興街２６號","OBJECTID":639878},"geometry":{"x":195085.71000000183,"y":2557860.2400000021}},{"attributes":{"ID":639906,"DIS_CODE":0,"TOWNNAME":"玉井區","LI":"玉田里","LIN":"4鄰","STREET":"中正路","SECT":" ","MAREA":" ","LANE":" ","ALLEY":" ","HOUSE_NO":"１９８號","E_COORD97":195023.06,"N_COORD97":2558225.25,"ADDRESS":"中正路１９８號","OBJECTID":639879},"geometry":{"x":195023.05999999959,"y":2558225.2500000019}},{"attributes":{"ID":639907,"DIS_CODE":0,"TOWNNAME":"玉井區","LI":"玉井里","LIN":"4鄰","STREET":"憲政街","SECT":" ","MAREA":" ","LANE":" ","ALLEY":" ","HOUSE_NO":"７０號","E_COORD97":194516.95999999999,"N_COORD97":2558039.6699999999,"ADDRESS":"憲政街７０號","OBJECTID":639880},"geometry":{"x":194516.95999999996,"y":2558039.6700000018}},{"attributes":{"ID":639908,"DIS_CODE":0,"TOWNNAME":"玉井區","LI":"玉田里","LIN":"4鄰","STREET":"中正路","SECT":" ","MAREA":" ","LANE":" ","ALLEY":" ","HOUSE_NO":"１６４號","E_COORD97":194954.54999999999,"N_COORD97":2558213.25,"ADDRESS":"中正路１６４號","OBJECTID":639881},"geometry":{"x":194954.55000000075,"y":2558213.25}},{"attributes":{"ID":639909,"DIS_CODE":0,"TOWNNAME":"玉井區","LI":"玉田里","LIN":"4鄰","STREET":"中正路","SECT":" ","MAREA":" ","LANE":" ","ALLEY":" ","HOUSE_NO":"１５６號","E_COORD97":194938.45999999999,"N_COORD97":2558211.2400000002,"ADDRESS":"中正路１５６號","OBJECTID":639882},"geometry":{"x":194938.46000000089,"y":2558211.2400000002}},{"attributes":{"ID":639910,"DIS_CODE":0,"TOWNNAME":"玉井區","LI":"玉井里","LIN":"13鄰","STREET":"中正路","SECT":" ","MAREA":" ","LANE":" ","ALLEY":" ","HOUSE_NO":"１１５號","E_COORD97":194872.56,"N_COORD97":2558201.2400000002,"ADDRESS":"中正路１１５號","OBJECTID":639883},"geometry":{"x":194872.55999999959,"y":2558201.2399999984}},{"attributes":{"ID":639911,"DIS_CODE":0,"TOWNNAME":"玉井區","LI":"中正里","LIN":"4鄰","STREET":"後旦街","SECT":" ","MAREA":" ","LANE":" ","ALLEY":" ","HOUSE_NO":"６０號","E_COORD97":195345.01000000001,"N_COORD97":2558623.3100000001,"ADDRESS":"後旦街６０號","OBJECTID":639884},"geometry":{"x":195345.01000000071,"y":2558623.3100000024}},{"attributes":{"ID":639912,"DIS_CODE":0,"TOWNNAME":"玉井區","LI":"玉田里","LIN":"4鄰","STREET":"中正路","SECT":" ","MAREA":" ","LANE":" ","ALLEY":" ","HOUSE_NO":"２２６號","E_COORD97":195079.85000000001,"N_COORD97":2558232.25,"ADDRESS":"中正路２２６號","OBJECTID":639885},"geometry":{"x":195079.85000000056,"y":2558232.2500000019}},{"attributes":{"ID":639913,"DIS_CODE":0,"TOWNNAME":"玉井區","LI":"玉田里","LIN":"4鄰","STREET":"中正路","SECT":" ","MAREA":" ","LANE":" ","ALLEY":" ","HOUSE_NO":"１７０號","E_COORD97":194966.85000000001,"N_COORD97":2558214.25,"ADDRESS":"中正路１７０號","OBJECTID":639886},"geometry":{"x":194966.84999999963,"y":2558214.25}},{"attributes":{"ID":639914,"DIS_CODE":0,"TOWNNAME":"玉井區","LI":"中正里","LIN":"4鄰","STREET":"後旦街","SECT":" ","MAREA":" ","LANE":" ","ALLEY":" ","HOUSE_NO":"５６號","E_COORD97":195348,"N_COORD97":2558611.3100000001,"ADDRESS":"後旦街５６號","OBJECTID":639887},"geometry":{"x":195348,"y":2558611.3099999987}},{"attributes":{"ID":639915,"DIS_CODE":0,"TOWNNAME":"玉井區","LI":"玉井里","LIN":"13鄰","STREET":"中正路","SECT":" ","MAREA":" ","LANE":" ","ALLEY":" ","HOUSE_NO":"１２９號","E_COORD97":194899.54999999999,"N_COORD97":2558213.25,"ADDRESS":"中正路１２９號","OBJECTID":639888},"geometry":{"x":194899.54999999981,"y":2558213.25}},{"attributes":{"ID":639916,"DIS_CODE":0,"TOWNNAME":"玉井區","LI":"玉井里","LIN":"13鄰","STREET":"中正路","SECT":" ","MAREA":" ","LANE":" ","ALLEY":" ","HOUSE_NO":"１３７號","E_COORD97":194912.14999999999,"N_COORD97":2558219.25,"ADDRESS":"中正路１３７號","OBJECTID":639889},"geometry":{"x":194912.1500000013,"y":2558219.2500000019}},{"attributes":{"ID":639917,"DIS_CODE":0,"TOWNNAME":"玉井區","LI":"中正里","LIN":"8鄰","STREET":"健康街","SECT":" ","MAREA":" ","LANE":" ","ALLEY":" ","HOUSE_NO":"１３號","E_COORD97":195668.44,"N_COORD97":2558850.2999999998,"ADDRESS":"健康街１３號","OBJECTID":639890},"geometry":{"x":195668.44000000134,"y":2558850.3000000026}},{"attributes":{"ID":639918,"DIS_CODE":0,"TOWNNAME":"玉井區","LI":"玉田里","LIN":"4鄰","STREET":"中正路","SECT":" ","MAREA":" ","LANE":" ","ALLEY":" ","HOUSE_NO":"１７２號","E_COORD97":194972.35000000001,"N_COORD97":2558215.25,"ADDRESS":"中正路１７２號","OBJECTID":639891},"geometry":{"x":194972.34999999963,"y":2558215.2500000019}},{"attributes":{"ID":639919,"DIS_CODE":0,"TOWNNAME":"玉井區","LI":"玉井里","LIN":"13鄰","STREET":"中正路","SECT":" ","MAREA":" ","LANE":" ","ALLEY":" ","HOUSE_NO":"１１９號","E_COORD97":194878.14999999999,"N_COORD97":2558204.2400000002,"ADDRESS":"中正路１１９號","OBJECTID":639892},"geometry":{"x":194878.1500000013,"y":2558204.2400000002}},{"attributes":{"ID":639920,"DIS_CODE":0,"TOWNNAME":"玉井區","LI":"玉井里","LIN":"13鄰","STREET":"中正路","SECT":" ","MAREA":" ","LANE":" ","ALLEY":" ","HOUSE_NO":"１３３號","E_COORD97":194905.35000000001,"N_COORD97":2558216.25,"ADDRESS":"中正路１３３號","OBJECTID":639893},"geometry":{"x":194905.35000000056,"y":2558216.2500000019}},{"attributes":{"ID":639921,"DIS_CODE":0,"TOWNNAME":"玉井區","LI":"中正里","LIN":"8鄰","STREET":"大埕街","SECT":" ","MAREA":" ","LANE":" ","ALLEY":" ","HOUSE_NO":"４０號","E_COORD97":195539.91,"N_COORD97":2558807.2400000002,"ADDRESS":"大埕街４０號","OBJECTID":639894},"geometry":{"x":195539.91000000015,"y":2558807.2400000002}},{"attributes":{"ID":639922,"DIS_CODE":0,"TOWNNAME":"玉井區","LI":"玉田里","LIN":"4鄰","STREET":"中正路","SECT":" ","MAREA":" ","LANE":" ","ALLEY":" ","HOUSE_NO":"２１４號","E_COORD97":195050.85000000001,"N_COORD97":2558229.25,"ADDRESS":"中正路２１４號","OBJECTID":639895},"geometry":{"x":195050.85000000056,"y":2558229.2500000019}},{"attributes":{"ID":639923,"DIS_CODE":0,"TOWNNAME":"玉井區","LI":"玉田里","LIN":"4鄰","STREET":"中正路","SECT":" ","MAREA":" ","LANE":" ","ALLEY":" ","HOUSE_NO":"１６６號","E_COORD97":194959.06,"N_COORD97":2558214.25,"ADDRESS":"中正路１６６號","OBJECTID":639896},"geometry":{"x":194959.05999999866,"y":2558214.25}},{"attributes":{"ID":639924,"DIS_CODE":0,"TOWNNAME":"玉井區","LI":"玉井里","LIN":"13鄰","STREET":"中正路","SECT":" ","MAREA":" ","LANE":" ","ALLEY":" ","HOUSE_NO":"１１１號","E_COORD97":194867.76000000001,"N_COORD97":2558198.2400000002,"ADDRESS":"中正路１１１號","OBJECTID":639897},"geometry":{"x":194867.75999999978,"y":2558198.2400000039}},{"attributes":{"ID":639925,"DIS_CODE":0,"TOWNNAME":"玉井區","LI":"玉井里","LIN":"14鄰","STREET":"中正路","SECT":" ","MAREA":" ","LANE":" ","ALLEY":" ","HOUSE_NO":"１３６號","E_COORD97":194890.44,"N_COORD97":2558195.5899999999,"ADDRESS":"中正路１３６號","OBJECTID":639898},"geometry":{"x":194890.44000000134,"y":2558195.5900000017}},{"attributes":{"ID":639926,"DIS_CODE":0,"TOWNNAME":"玉井區","LI":"中正里","LIN":"8鄰","STREET":"健康街","SECT":" ","MAREA":" ","LANE":" ","ALLEY":" ","HOUSE_NO":"９１號","E_COORD97":195514.03,"N_COORD97":2558846.2999999998,"ADDRESS":"健康街９１號","OBJECTID":639899},"geometry":{"x":195514.03000000026,"y":2558846.3000000026}},{"attributes":{"ID":639927,"DIS_CODE":0,"TOWNNAME":"玉井區","LI":"中正里","LIN":"4鄰","STREET":"後旦街","SECT":" ","MAREA":" ","LANE":" ","ALLEY":" ","HOUSE_NO":"５８號","E_COORD97":195346.12,"N_COORD97":2558618.3100000001,"ADDRESS":"後旦街５８號","OBJECTID":639900},"geometry":{"x":195346.12000000104,"y":2558618.3100000042}},{"attributes":{"ID":639928,"DIS_CODE":0,"TOWNNAME":"玉井區","LI":"中正里","LIN":"8鄰","STREET":"健康街","SECT":" ","MAREA":" ","LANE":" ","ALLEY":" ","HOUSE_NO":"２９號","E_COORD97":195639.03,"N_COORD97":2558825.29,"ADDRESS":"健康街２９號","OBJECTID":639901},"geometry":{"x":195639.03000000026,"y":2558825.290000001}},{"attributes":{"ID":639929,"DIS_CODE":0,"TOWNNAME":"玉井區","LI":"玉田里","LIN":"4鄰","STREET":"中正路","SECT":" ","MAREA":" ","LANE":" ","ALLEY":" ","HOUSE_NO":"２０６號","E_COORD97":195035.76000000001,"N_COORD97":2558227.25,"ADDRESS":"中正路２０６號","OBJECTID":639902},"geometry":{"x":195035.75999999978,"y":2558227.25}},{"attributes":{"ID":639930,"DIS_CODE":0,"TOWNNAME":"玉井區","LI":"玉田里","LIN":"4鄰","STREET":"中正路","SECT":" ","MAREA":" ","LANE":" ","ALLEY":" ","HOUSE_NO":"２０８號","E_COORD97":195039.64999999999,"N_COORD97":2558227.25,"ADDRESS":"中正路２０８號","OBJECTID":639903},"geometry":{"x":195039.6500000013,"y":2558227.25}},{"attributes":{"ID":639931,"DIS_CODE":0,"TOWNNAME":"玉井區","LI":"玉井里","LIN":"13鄰","STREET":"中正路","SECT":" ","MAREA":" ","LANE":" ","ALLEY":" ","HOUSE_NO":"１２７號","E_COORD97":194896.54999999999,"N_COORD97":2558212.2400000002,"ADDRESS":"中正路１２７號","OBJECTID":639904},"geometry":{"x":194896.54999999981,"y":2558212.2400000021}},{"attributes":{"ID":639932,"DIS_CODE":0,"TOWNNAME":"玉井區","LI":"中正里","LIN":"4鄰","STREET":"後旦街","SECT":" ","MAREA":" ","LANE":" ","ALLEY":" ","HOUSE_NO":"７０號","E_COORD97":195340.91,"N_COORD97":2558640.3199999998,"ADDRESS":"後旦街７０號","OBJECTID":639905},"geometry":{"x":195340.91000000108,"y":2558640.3200000003}},{"attributes":{"ID":639933,"DIS_CODE":0,"TOWNNAME":"玉井區","LI":"中正里","LIN":"4鄰","STREET":"後旦街","SECT":" ","MAREA":" ","LANE":" ","ALLEY":" ","HOUSE_NO":"６６號","E_COORD97":195343.42000000001,"N_COORD97":2558632.3199999998,"ADDRESS":"後旦街６６號","OBJECTID":639906},"geometry":{"x":195343.41999999993,"y":2558632.3200000022}},{"attributes":{"ID":639934,"DIS_CODE":0,"TOWNNAME":"玉井區","LI":"玉田里","LIN":"39鄰","STREET":"中山路","SECT":" ","MAREA":" ","LANE":" ","ALLEY":" ","HOUSE_NO":"１３２號","E_COORD97":195030.85000000001,"N_COORD97":2557701.25,"ADDRESS":"中山路１３２號","OBJECTID":639907},"geometry":{"x":195030.85000000056,"y":2557701.25}},{"attributes":{"ID":639935,"DIS_CODE":0,"TOWNNAME":"玉井區","LI":"玉田里","LIN":"20鄰","STREET":"中山路","SECT":" ","MAREA":" ","LANE":" ","ALLEY":" ","HOUSE_NO":"１３３號","E_COORD97":195287.76000000001,"N_COORD97":2557934.25,"ADDRESS":"中山路１３３號","OBJECTID":639908},"geometry":{"x":195287.75999999978,"y":2557934.2500000019}},{"attributes":{"ID":639936,"DIS_CODE":0,"TOWNNAME":"玉井區","LI":"玉井里","LIN":"13鄰","STREET":"中正路","SECT":" ","MAREA":" ","LANE":" ","ALLEY":" ","HOUSE_NO":"１２３號","E_COORD97":194886.95999999999,"N_COORD97":2558207.2400000002,"ADDRESS":"中正路１２３號","OBJECTID":639909},"geometry":{"x":194886.95999999996,"y":2558207.2400000002}},{"attributes":{"ID":639937,"DIS_CODE":0,"TOWNNAME":"玉井區","LI":"玉田里","LIN":"4鄰","STREET":"中正路","SECT":" ","MAREA":" ","LANE":" ","ALLEY":" ","HOUSE_NO":"１５８號","E_COORD97":194942.64999999999,"N_COORD97":2558211.2400000002,"ADDRESS":"中正路１５８號","OBJECTID":639910},"geometry":{"x":194942.6500000013,"y":2558211.2400000002}},{"attributes":{"ID":639938,"DIS_CODE":0,"TOWNNAME":"玉井區","LI":"中正里","LIN":"4鄰","STREET":"後旦街","SECT":" ","MAREA":" ","LANE":" ","ALLEY":" ","HOUSE_NO":"４６號","E_COORD97":195355.51000000001,"N_COORD97":2558601.3100000001,"ADDRESS":"後旦街４６號","OBJECTID":639911},"geometry":{"x":195355.51000000071,"y":2558601.3100000042}},{"attributes":{"ID":639939,"DIS_CODE":0,"TOWNNAME":"玉井區","LI":"玉井里","LIN":"13鄰","STREET":"中正路","SECT":" ","MAREA":" ","LANE":" ","ALLEY":" ","HOUSE_NO":"１３１號","E_COORD97":194902.56,"N_COORD97":2558215.25,"ADDRESS":"中正路１３１號","OBJECTID":639912},"geometry":{"x":194902.55999999959,"y":2558215.2500000019}},{"attributes":{"ID":639940,"DIS_CODE":0,"TOWNNAME":"玉井區","LI":"中正里","LIN":"4鄰","STREET":"後旦街","SECT":" ","MAREA":" ","LANE":" ","ALLEY":" ","HOUSE_NO":"６２號","E_COORD97":195344.01000000001,"N_COORD97":2558627.3199999998,"ADDRESS":"後旦街６２號","OBJECTID":639913},"geometry":{"x":195344.00999999978,"y":2558627.3200000003}},{"attributes":{"ID":639941,"DIS_CODE":0,"TOWNNAME":"玉井區","LI":"中正里","LIN":"4鄰","STREET":"後旦街","SECT":" ","MAREA":" ","LANE":" ","ALLEY":" ","HOUSE_NO":"４０號","E_COORD97":195358.41,"N_COORD97":2558591.3100000001,"ADDRESS":"後旦街４０號","OBJECTID":639914},"geometry":{"x":195358.41000000015,"y":2558591.3100000042}},{"attributes":{"ID":639942,"DIS_CODE":0,"TOWNNAME":"玉井區","LI":"中正里","LIN":"4鄰","STREET":"後旦街","SECT":" ","MAREA":" ","LANE":" ","ALLEY":" ","HOUSE_NO":"６８號","E_COORD97":195342.12,"N_COORD97":2558636.3199999998,"ADDRESS":"後旦街６８號","OBJECTID":639915},"geometry":{"x":195342.12000000011,"y":2558636.3200000022}},{"attributes":{"ID":639943,"DIS_CODE":0,"TOWNNAME":"玉井區","LI":"玉田里","LIN":"39鄰","STREET":"中山路","SECT":" ","MAREA":" ","LANE":" ","ALLEY":" ","HOUSE_NO":"１００號","E_COORD97":194958.45999999999,"N_COORD97":2557689.2400000002,"ADDRESS":"中山路１００號","OBJECTID":639916},"geometry":{"x":194958.45999999903,"y":2557689.2399999984}},{"attributes":{"ID":639944,"DIS_CODE":0,"TOWNNAME":"玉井區","LI":"玉田里","LIN":"39鄰","STREET":"中山路","SECT":" ","MAREA":" ","LANE":" ","ALLEY":" ","HOUSE_NO":"１３８號","E_COORD97":195044.45999999999,"N_COORD97":2557702.25,"ADDRESS":"中山路１３８號","OBJECTID":639917},"geometry":{"x":195044.45999999996,"y":2557702.25}},{"attributes":{"ID":639945,"DIS_CODE":0,"TOWNNAME":"玉井區","LI":"玉田里","LIN":"32鄰","STREET":"中山路","SECT":" ","MAREA":" ","LANE":" ","ALLEY":" ","HOUSE_NO":"４１４號","E_COORD97":195322.64999999999,"N_COORD97":2558213.25,"ADDRESS":"中山路４１４號","OBJECTID":639918},"geometry":{"x":195322.6500000013,"y":2558213.25}},{"attributes":{"ID":639946,"DIS_CODE":0,"TOWNNAME":"玉井區","LI":"玉田里","LIN":"4鄰","STREET":"中正路","SECT":" ","MAREA":" ","LANE":" ","ALLEY":" ","HOUSE_NO":"２２２號","E_COORD97":195068.35999999999,"N_COORD97":2558230.25,"ADDRESS":"中正路２２２號","OBJECTID":639919},"geometry":{"x":195068.36000000127,"y":2558230.25}},{"attributes":{"ID":639947,"DIS_CODE":0,"TOWNNAME":"玉井區","LI":"玉田里","LIN":"20鄰","STREET":"中山路","SECT":" ","MAREA":" ","LANE":" ","ALLEY":" ","HOUSE_NO":"１３９號","E_COORD97":195287.85000000001,"N_COORD97":2557945.25,"ADDRESS":"中山路１３９號","OBJECTID":639920},"geometry":{"x":195287.85000000149,"y":2557945.25}},{"attributes":{"ID":639948,"DIS_CODE":0,"TOWNNAME":"玉井區","LI":"玉田里","LIN":"32鄰","STREET":"中山路","SECT":" ","MAREA":" ","LANE":" ","ALLEY":" ","HOUSE_NO":"４１２號","E_COORD97":195339.35000000001,"N_COORD97":2558204.2400000002,"ADDRESS":"中山路４１２號","OBJECTID":639921},"geometry":{"x":195339.35000000056,"y":2558204.2400000002}},{"attributes":{"ID":639949,"DIS_CODE":0,"TOWNNAME":"玉井區","LI":"玉田里","LIN":"32鄰","STREET":"中山路","SECT":" ","MAREA":" ","LANE":" ","ALLEY":" ","HOUSE_NO":"４１６號","E_COORD97":195322.35000000001,"N_COORD97":2558217.25,"ADDRESS":"中山路４１６號","OBJECTID":639922},"geometry":{"x":195322.35000000056,"y":2558217.25}},{"attributes":{"ID":639950,"DIS_CODE":0,"TOWNNAME":"玉井區","LI":"玉田里","LIN":"32鄰","STREET":"中山路","SECT":" ","MAREA":" ","LANE":" ","ALLEY":" ","HOUSE_NO":"３６０號","E_COORD97":195324.56,"N_COORD97":2558055.25,"ADDRESS":"中山路３６０號","OBJECTID":639923},"geometry":{"x":195324.55999999959,"y":2558055.2500000037}},{"attributes":{"ID":639951,"DIS_CODE":0,"TOWNNAME":"玉井區","LI":"玉井里","LIN":"20鄰","STREET":"太子街","SECT":" ","MAREA":" ","LANE":" ","ALLEY":" ","HOUSE_NO":"７３號","E_COORD97":194766.98000000001,"N_COORD97":2558077.25,"ADDRESS":"太子街７３號","OBJECTID":639924},"geometry":{"x":194766.98000000045,"y":2558077.2500000019}},{"attributes":{"ID":639952,"DIS_CODE":0,"TOWNNAME":"玉井區","LI":"玉田里","LIN":"39鄰","STREET":"中山路","SECT":" ","MAREA":" ","LANE":" ","ALLEY":" ","HOUSE_NO":"１４４號","E_COORD97":195060.45999999999,"N_COORD97":2557704.25,"ADDRESS":"中山路１４４號","OBJECTID":639925},"geometry":{"x":195060.46000000089,"y":2557704.2500000019}},{"attributes":{"ID":639953,"DIS_CODE":0,"TOWNNAME":"玉井區","LI":"玉田里","LIN":"32鄰","STREET":"中山路","SECT":" ","MAREA":" ","LANE":" ","ALLEY":" ","HOUSE_NO":"３６２號","E_COORD97":195323.95999999999,"N_COORD97":2558060.2400000002,"ADDRESS":"中山路３６２號","OBJECTID":639926},"geometry":{"x":195323.95999999996,"y":2558060.2400000021}},{"attributes":{"ID":639954,"DIS_CODE":0,"TOWNNAME":"玉井區","LI":"玉田里","LIN":"32鄰","STREET":"中山路","SECT":" ","MAREA":" ","LANE":" ","ALLEY":" ","HOUSE_NO":"３０８號","E_COORD97":195327.85999999999,"N_COORD97":2557942.25,"ADDRESS":"中山路３０８號","OBJECTID":639927},"geometry":{"x":195327.86000000127,"y":2557942.25}},{"attributes":{"ID":639955,"DIS_CODE":0,"TOWNNAME":"玉井區","LI":"玉井里","LIN":"20鄰","STREET":"太子街","SECT":" ","MAREA":" ","LANE":" ","ALLEY":" ","HOUSE_NO":"４５號","E_COORD97":194787.79000000001,"N_COORD97":2558018.2599999998,"ADDRESS":"太子街４５號","OBJECTID":639928},"geometry":{"x":194787.79000000004,"y":2558018.2600000016}},{"attributes":{"ID":639956,"DIS_CODE":0,"TOWNNAME":"玉井區","LI":"玉井里","LIN":"20鄰","STREET":"太子街","SECT":" ","MAREA":" ","LANE":" ","ALLEY":" ","HOUSE_NO":"６３號","E_COORD97":194774.39000000001,"N_COORD97":2558064.25,"ADDRESS":"太子街６３號","OBJECTID":639929},"geometry":{"x":194774.3900000006,"y":2558064.25}},{"attributes":{"ID":639957,"DIS_CODE":0,"TOWNNAME":"玉井區","LI":"玉田里","LIN":"39鄰","STREET":"中山路","SECT":" ","MAREA":" ","LANE":" ","ALLEY":" ","HOUSE_NO":"１１２號","E_COORD97":194987.04999999999,"N_COORD97":2557693.2400000002,"ADDRESS":"中山路１１２號","OBJECTID":639930},"geometry":{"x":194987.05000000075,"y":2557693.2400000021}},{"attributes":{"ID":639958,"DIS_CODE":0,"TOWNNAME":"玉井區","LI":"玉田里","LIN":"39鄰","STREET":"中山路","SECT":" ","MAREA":" ","LANE":" ","ALLEY":" ","HOUSE_NO":"１０４號","E_COORD97":194968.45999999999,"N_COORD97":2557690.2400000002,"ADDRESS":"中山路１０４號","OBJECTID":639931},"geometry":{"x":194968.45999999996,"y":2557690.2400000021}},{"attributes":{"ID":639959,"DIS_CODE":0,"TOWNNAME":"玉井區","LI":"玉田里","LIN":"32鄰","STREET":"中山路","SECT":" ","MAREA":" ","LANE":" ","ALLEY":" ","HOUSE_NO":"３５２號","E_COORD97":195324.85000000001,"N_COORD97":2558036.25,"ADDRESS":"中山路３５２號","OBJECTID":639932},"geometry":{"x":195324.84999999963,"y":2558036.2500000019}},{"attributes":{"ID":639960,"DIS_CODE":0,"TOWNNAME":"玉井區","LI":"玉井里","LIN":"13鄰","STREET":"中正路","SECT":" ","MAREA":" ","LANE":" ","ALLEY":" ","HOUSE_NO":"１２５號","E_COORD97":194893.04999999999,"N_COORD97":2558210.2400000002,"ADDRESS":"中正路１２５號","OBJECTID":639933},"geometry":{"x":194893.04999999981,"y":2558210.2400000002}},{"attributes":{"ID":639961,"DIS_CODE":0,"TOWNNAME":"玉井區","LI":"玉井里","LIN":"17鄰","STREET":"民主街","SECT":" ","MAREA":" ","LANE":" ","ALLEY":" ","HOUSE_NO":"２７號","E_COORD97":194837.54000000001,"N_COORD97":2558068.2799999998,"ADDRESS":"民主街２７號","OBJECTID":639934},"geometry":{"x":194837.54000000004,"y":2558068.2800000012}},{"attributes":{"ID":639962,"DIS_CODE":0,"TOWNNAME":"玉井區","LI":"玉井里","LIN":"8鄰","STREET":"富強街","SECT":" ","MAREA":" ","LANE":" ","ALLEY":" ","HOUSE_NO":"７６號","E_COORD97":194801.92000000001,"N_COORD97":2558252.25,"ADDRESS":"富強街７６號","OBJECTID":639935},"geometry":{"x":194801.92000000086,"y":2558252.2500000019}},{"attributes":{"ID":639963,"DIS_CODE":0,"TOWNNAME":"玉井區","LI":"玉田里","LIN":"20鄰","STREET":"中山路","SECT":" ","MAREA":" ","LANE":" ","ALLEY":" ","HOUSE_NO":"１５７號","E_COORD97":195287.04999999999,"N_COORD97":2558001.2400000002,"ADDRESS":"中山路１５７號","OBJECTID":639936},"geometry":{"x":195287.05000000075,"y":2558001.2399999984}},{"attributes":{"ID":639964,"DIS_CODE":0,"TOWNNAME":"玉井區","LI":"玉井里","LIN":"20鄰","STREET":"民主街","SECT":" ","MAREA":" ","LANE":" ","ALLEY":" ","HOUSE_NO":"１１號之２","E_COORD97":194766.39999999999,"N_COORD97":2558018.2999999998,"ADDRESS":"民主街１１號之２","OBJECTID":639937},"geometry":{"x":194766.4000000013,"y":2558018.2999999989}},{"attributes":{"ID":639965,"DIS_CODE":0,"TOWNNAME":"玉井區","LI":"玉井里","LIN":"20鄰","STREET":"太子街","SECT":" ","MAREA":" ","LANE":" ","ALLEY":" ","HOUSE_NO":"４７號","E_COORD97":194784.89000000001,"N_COORD97":2558023.2599999998,"ADDRESS":"太子街４７號","OBJECTID":639938},"geometry":{"x":194784.8900000006,"y":2558023.2599999998}},{"attributes":{"ID":639966,"DIS_CODE":0,"TOWNNAME":"玉井區","LI":"玉田里","LIN":"20鄰","STREET":"中山路","SECT":" ","MAREA":" ","LANE":" ","ALLEY":" ","HOUSE_NO":"１３５號","E_COORD97":195287.76000000001,"N_COORD97":2557940.25,"ADDRESS":"中山路１３５號","OBJECTID":639939},"geometry":{"x":195287.75999999978,"y":2557940.2500000037}},{"attributes":{"ID":639967,"DIS_CODE":0,"TOWNNAME":"玉井區","LI":"玉田里","LIN":"39鄰","STREET":"中山路","SECT":" ","MAREA":" ","LANE":" ","ALLEY":" ","HOUSE_NO":"１１６號","E_COORD97":195007.14000000001,"N_COORD97":2557693.2400000002,"ADDRESS":"中山路１１６號","OBJECTID":639940},"geometry":{"x":195007.13999999966,"y":2557693.2400000021}},{"attributes":{"ID":639968,"DIS_CODE":0,"TOWNNAME":"玉井區","LI":"玉井里","LIN":"13鄰","STREET":"富強街","SECT":" ","MAREA":" ","LANE":" ","ALLEY":" ","HOUSE_NO":"１號","E_COORD97":194907.07000000001,"N_COORD97":2558225.25,"ADDRESS":"富強街１號","OBJECTID":639941},"geometry":{"x":194907.0700000003,"y":2558225.2500000019}},{"attributes":{"ID":639969,"DIS_CODE":0,"TOWNNAME":"玉井區","LI":"玉井里","LIN":"20鄰","STREET":"中正路","SECT":" ","MAREA":" ","LANE":" ","ALLEY":" ","HOUSE_NO":"４８號","E_COORD97":194741.39999999999,"N_COORD97":2558090.2400000002,"ADDRESS":"中正路４８號","OBJECTID":639942},"geometry":{"x":194741.4000000013,"y":2558090.2400000021}},{"attributes":{"ID":639970,"DIS_CODE":0,"TOWNNAME":"玉井區","LI":"玉井里","LIN":"20鄰","STREET":"民主街","SECT":" ","MAREA":" ","LANE":" ","ALLEY":" ","HOUSE_NO":"５號","E_COORD97":194716.67999999999,"N_COORD97":2558003.2799999998,"ADDRESS":"民主街５號","OBJECTID":639943},"geometry":{"x":194716.68000000063,"y":2558003.2799999993}},{"attributes":{"ID":639971,"DIS_CODE":0,"TOWNNAME":"玉井區","LI":"玉田里","LIN":"39鄰","STREET":"中山路","SECT":" ","MAREA":" ","LANE":" ","ALLEY":" ","HOUSE_NO":"１９０號","E_COORD97":195148.76000000001,"N_COORD97":2557709.25,"ADDRESS":"中山路１９０號","OBJECTID":639944},"geometry":{"x":195148.75999999978,"y":2557709.2499999981}},{"attributes":{"ID":639972,"DIS_CODE":0,"TOWNNAME":"玉井區","LI":"中正里","LIN":"4鄰","STREET":"中正路","SECT":" ","MAREA":" ","LANE":" ","ALLEY":" ","HOUSE_NO":"４３３號","E_COORD97":195421.35000000001,"N_COORD97":2558579.2400000002,"ADDRESS":"中正路４３３號","OBJECTID":639945},"geometry":{"x":195421.34999999963,"y":2558579.2400000021}},{"attributes":{"ID":639973,"DIS_CODE":0,"TOWNNAME":"玉井區","LI":"玉井里","LIN":"20鄰","STREET":"民主街","SECT":" ","MAREA":" ","LANE":" ","ALLEY":" ","HOUSE_NO":"１１號之１","E_COORD97":194761.88,"N_COORD97":2558016.2999999998,"ADDRESS":"民主街１１號之１","OBJECTID":639946},"geometry":{"x":194761.87999999989,"y":2558016.3000000026}},{"attributes":{"ID":639974,"DIS_CODE":0,"TOWNNAME":"玉井區","LI":"玉田里","LIN":"20鄰","STREET":"民族路","SECT":" ","MAREA":" ","LANE":" ","ALLEY":" ","HOUSE_NO":"９８號","E_COORD97":195233.42999999999,"N_COORD97":2558000.2799999998,"ADDRESS":"民族路９８號","OBJECTID":639947},"geometry":{"x":195233.43000000063,"y":2558000.2800000031}},{"attributes":{"ID":639975,"DIS_CODE":0,"TOWNNAME":"玉井區","LI":"玉田里","LIN":"32鄰","STREET":"中山路","SECT":" ","MAREA":" ","LANE":" ","ALLEY":" ","HOUSE_NO":"３７０號","E_COORD97":195323.35000000001,"N_COORD97":2558081.2400000002,"ADDRESS":"中山路３７０號","OBJECTID":639948},"geometry":{"x":195323.35000000149,"y":2558081.2400000002}},{"attributes":{"ID":639976,"DIS_CODE":0,"TOWNNAME":"玉井區","LI":"玉田里","LIN":"32鄰","STREET":"中山路","SECT":" ","MAREA":" ","LANE":" ","ALLEY":" ","HOUSE_NO":"３８６號","E_COORD97":195325.35000000001,"N_COORD97":2558131.25,"ADDRESS":"中山路３８６號","OBJECTID":639949},"geometry":{"x":195325.35000000056,"y":2558131.2500000019}},{"attributes":{"ID":639977,"DIS_CODE":0,"TOWNNAME":"玉井區","LI":"玉田里","LIN":"32鄰","STREET":"中山路","SECT":" ","MAREA":" ","LANE":" ","ALLEY":" ","HOUSE_NO":"２９８號","E_COORD97":195323.35000000001,"N_COORD97":2557917.25,"ADDRESS":"中山路２９８號","OBJECTID":639950},"geometry":{"x":195323.35000000149,"y":2557917.2500000019}},{"attributes":{"ID":639978,"DIS_CODE":0,"TOWNNAME":"玉井區","LI":"玉田里","LIN":"4鄰","STREET":"中正路","SECT":" ","MAREA":" ","LANE":" ","ALLEY":" ","HOUSE_NO":"２０４號","E_COORD97":195032.56,"N_COORD97":2558227.25,"ADDRESS":"中正路２０４號","OBJECTID":639951},"geometry":{"x":195032.56000000052,"y":2558227.25}},{"attributes":{"ID":639979,"DIS_CODE":0,"TOWNNAME":"玉井區","LI":"玉井里","LIN":"4鄰","STREET":"憲政街","SECT":" ","MAREA":" ","LANE":" ","ALLEY":" ","HOUSE_NO":"６８號","E_COORD97":194522.04000000001,"N_COORD97":2558040.8999999999,"ADDRESS":"憲政街６８號","OBJECTID":639952},"geometry":{"x":194522.04000000004,"y":2558040.8999999985}},{"attributes":{"ID":639980,"DIS_CODE":0,"TOWNNAME":"玉井區","LI":"玉田里","LIN":"4鄰","STREET":"中正路","SECT":" ","MAREA":" ","LANE":" ","ALLEY":" ","HOUSE_NO":"２１６號","E_COORD97":195054.56,"N_COORD97":2558229.25,"ADDRESS":"中正路２１６號","OBJECTID":639953},"geometry":{"x":195054.56000000052,"y":2558229.2500000019}},{"attributes":{"ID":639981,"DIS_CODE":0,"TOWNNAME":"玉井區","LI":"中正里","LIN":"5鄰","STREET":"中正路","SECT":" ","MAREA":" ","LANE":" ","ALLEY":" ","HOUSE_NO":"４７５號","E_COORD97":195489.47,"N_COORD97":2558648.25,"ADDRESS":"中正路４７５號","OBJECTID":639954},"geometry":{"x":195489.47000000067,"y":2558648.25}},{"attributes":{"ID":639982,"DIS_CODE":0,"TOWNNAME":"玉井區","LI":"玉井里","LIN":"13鄰","STREET":"中正路","SECT":" ","MAREA":" ","LANE":" ","ALLEY":" ","HOUSE_NO":"１１７號","E_COORD97":194874.85000000001,"N_COORD97":2558202.2400000002,"ADDRESS":"中正路１１７號","OBJECTID":639955},"geometry":{"x":194874.85000000056,"y":2558202.2400000021}},{"attributes":{"ID":639983,"DIS_CODE":0,"TOWNNAME":"玉井區","LI":"玉井里","LIN":"14鄰","STREET":"中正路","SECT":" ","MAREA":" ","LANE":" ","ALLEY":" ","HOUSE_NO":"１４６號","E_COORD97":194903.54000000001,"N_COORD97":2558201.1499999999,"ADDRESS":"中正路１４６號","OBJECTID":639956},"geometry":{"x":194903.54000000004,"y":2558201.1500000004}},{"attributes":{"ID":639984,"DIS_CODE":0,"TOWNNAME":"玉井區","LI":"玉田里","LIN":"4鄰","STREET":"中正路","SECT":" ","MAREA":" ","LANE":" ","ALLEY":" ","HOUSE_NO":"２１８號","E_COORD97":195058.64999999999,"N_COORD97":2558229.25,"ADDRESS":"中正路２１８號","OBJECTID":639957},"geometry":{"x":195058.65000000037,"y":2558229.2500000019}},{"attributes":{"ID":639985,"DIS_CODE":0,"TOWNNAME":"玉井區","LI":"玉田里","LIN":"4鄰","STREET":"中正路","SECT":" ","MAREA":" ","LANE":" ","ALLEY":" ","HOUSE_NO":"２０２號","E_COORD97":195029.56,"N_COORD97":2558226.25,"ADDRESS":"中正路２０２號","OBJECTID":639958},"geometry":{"x":195029.55999999959,"y":2558226.2500000019}},{"attributes":{"ID":639986,"DIS_CODE":0,"TOWNNAME":"玉井區","LI":"玉田里","LIN":"4鄰","STREET":"中正路","SECT":" ","MAREA":" ","LANE":" ","ALLEY":" ","HOUSE_NO":"２２４號","E_COORD97":195072.45999999999,"N_COORD97":2558231.25,"ADDRESS":"中正路２２４號","OBJECTID":639959},"geometry":{"x":195072.46000000089,"y":2558231.25}},{"attributes":{"ID":639987,"DIS_CODE":0,"TOWNNAME":"玉井區","LI":"玉田里","LIN":"4鄰","STREET":"中正路","SECT":" ","MAREA":" ","LANE":" ","ALLEY":" ","HOUSE_NO":"１６２號","E_COORD97":194950.45999999999,"N_COORD97":2558212.2400000002,"ADDRESS":"中正路１６２號","OBJECTID":639960},"geometry":{"x":194950.46000000089,"y":2558212.2400000021}},{"attributes":{"ID":639988,"DIS_CODE":0,"TOWNNAME":"玉井區","LI":"中正里","LIN":"5鄰","STREET":"大成路","SECT":" ","MAREA":" ","LANE":" ","ALLEY":" ","HOUSE_NO":"４８０號","E_COORD97":195455.67000000001,"N_COORD97":2558696.2599999998,"ADDRESS":"大成路４８０號","OBJECTID":639961},"geometry":{"x":195455.67000000086,"y":2558696.2600000016}},{"attributes":{"ID":639989,"DIS_CODE":0,"TOWNNAME":"玉井區","LI":"中正里","LIN":"5鄰","STREET":"中正路","SECT":" ","MAREA":" ","LANE":" ","ALLEY":" ","HOUSE_NO":"４８１號","E_COORD97":195503.95999999999,"N_COORD97":2558659.25,"ADDRESS":"中正路４８１號","OBJECTID":639962},"geometry":{"x":195503.95999999996,"y":2558659.2500000019}},{"attributes":{"ID":639990,"DIS_CODE":0,"TOWNNAME":"玉井區","LI":"玉井里","LIN":"18鄰","STREET":"中正路","SECT":" ","MAREA":" ","LANE":" ","ALLEY":" ","HOUSE_NO":"９２號","E_COORD97":194828.01000000001,"N_COORD97":2558123.25,"ADDRESS":"中正路９２號","OBJECTID":639963},"geometry":{"x":194828.01000000071,"y":2558123.2500000037}},{"attributes":{"ID":639991,"DIS_CODE":0,"TOWNNAME":"玉井區","LI":"玉田里","LIN":"20鄰","STREET":"中山路","SECT":" ","MAREA":" ","LANE":" ","ALLEY":" ","HOUSE_NO":"２０１號","E_COORD97":195284.45999999999,"N_COORD97":2558059.2400000002,"ADDRESS":"中山路２０１號","OBJECTID":639964},"geometry":{"x":195284.46000000089,"y":2558059.2400000039}},{"attributes":{"ID":639992,"DIS_CODE":0,"TOWNNAME":"玉井區","LI":"玉田里","LIN":"20鄰","STREET":"中山路","SECT":" ","MAREA":" ","LANE":" ","ALLEY":" ","HOUSE_NO":"２１９號","E_COORD97":195235.45999999999,"N_COORD97":2558090.2400000002,"ADDRESS":"中山路２１９號","OBJECTID":639965},"geometry":{"x":195235.46000000089,"y":2558090.2400000021}},{"attributes":{"ID":639993,"DIS_CODE":0,"TOWNNAME":"玉井區","LI":"玉井里","LIN":"20鄰","STREET":"中正路","SECT":" ","MAREA":" ","LANE":" ","ALLEY":" ","HOUSE_NO":"４４號","E_COORD97":194736.70999999999,"N_COORD97":2558080.2400000002,"ADDRESS":"中正路４４號","OBJECTID":639966},"geometry":{"x":194736.71000000089,"y":2558080.2400000021}},{"attributes":{"ID":639994,"DIS_CODE":0,"TOWNNAME":"玉井區","LI":"玉田里","LIN":"32鄰","STREET":"中山路","SECT":" ","MAREA":" ","LANE":" ","ALLEY":" ","HOUSE_NO":"４０８號","E_COORD97":195321.64000000001,"N_COORD97":2558182.2400000002,"ADDRESS":"中山路４０８號","OBJECTID":639967},"geometry":{"x":195321.6400000006,"y":2558182.2400000021}},{"attributes":{"ID":639995,"DIS_CODE":0,"TOWNNAME":"玉井區","LI":"玉井里","LIN":"18鄰","STREET":"中正路","SECT":" ","MAREA":" ","LANE":" ","ALLEY":" ","HOUSE_NO":"９０號","E_COORD97":194824.70999999999,"N_COORD97":2558126.25,"ADDRESS":"中正路９０號","OBJECTID":639968},"geometry":{"x":194824.71000000183,"y":2558126.25}},{"attributes":{"ID":639996,"DIS_CODE":0,"TOWNNAME":"玉井區","LI":"玉井里","LIN":"20鄰","STREET":"中正路","SECT":" ","MAREA":" ","LANE":" ","ALLEY":" ","HOUSE_NO":"３６號","E_COORD97":194708.20999999999,"N_COORD97":2558034.25,"ADDRESS":"中正路３６號","OBJECTID":639969},"geometry":{"x":194708.21000000089,"y":2558034.25}},{"attributes":{"ID":639997,"DIS_CODE":0,"TOWNNAME":"玉井區","LI":"玉井里","LIN":"20鄰","STREET":"中正路","SECT":" ","MAREA":" ","LANE":" ","ALLEY":" ","HOUSE_NO":"３０號","E_COORD97":194699.70999999999,"N_COORD97":2558019.25,"ADDRESS":"中正路３０號","OBJECTID":639970},"geometry":{"x":194699.71000000089,"y":2558019.2500000019}},{"attributes":{"ID":639998,"DIS_CODE":0,"TOWNNAME":"玉井區","LI":"玉田里","LIN":"39鄰","STREET":"中山路","SECT":" ","MAREA":" ","LANE":" ","ALLEY":" ","HOUSE_NO":"１１０號","E_COORD97":194978.85000000001,"N_COORD97":2557692.2400000002,"ADDRESS":"中山路１１０號","OBJECTID":639971},"geometry":{"x":194978.84999999963,"y":2557692.2400000002}},{"attributes":{"ID":639999,"DIS_CODE":0,"TOWNNAME":"玉井區","LI":"玉井里","LIN":"18鄰","STREET":"中正路","SECT":" ","MAREA":" ","LANE":" ","ALLEY":" ","HOUSE_NO":"９６號","E_COORD97":194834.51000000001,"N_COORD97":2558121.25,"ADDRESS":"中正路９６號","OBJECTID":639972},"geometry":{"x":194834.51000000071,"y":2558121.2500000019}},{"attributes":{"ID":640000,"DIS_CODE":0,"TOWNNAME":"玉井區","LI":"玉田里","LIN":"20鄰","STREET":"中山路","SECT":" ","MAREA":" ","LANE":" ","ALLEY":" ","HOUSE_NO":"１４１號","E_COORD97":195287.76000000001,"N_COORD97":2557957.2400000002,"ADDRESS":"中山路１４１號","OBJECTID":639973},"geometry":{"x":195287.75999999978,"y":2557957.2400000039}},{"attributes":{"ID":640001,"DIS_CODE":0,"TOWNNAME":"玉井區","LI":"玉田里","LIN":"39鄰","STREET":"中山路","SECT":" ","MAREA":" ","LANE":" ","ALLEY":" ","HOUSE_NO":"１４６號","E_COORD97":195064.35999999999,"N_COORD97":2557705.25,"ADDRESS":"中山路１４６號","OBJECTID":639974},"geometry":{"x":195064.36000000034,"y":2557705.25}},{"attributes":{"ID":640002,"DIS_CODE":0,"TOWNNAME":"玉井區","LI":"玉田里","LIN":"32鄰","STREET":"中山路","SECT":" ","MAREA":" ","LANE":" ","ALLEY":" ","HOUSE_NO":"３９２號","E_COORD97":195325.54999999999,"N_COORD97":2558143.25,"ADDRESS":"中山路３９２號","OBJECTID":639975},"geometry":{"x":195325.54999999888,"y":2558143.2499999981}},{"attributes":{"ID":640003,"DIS_CODE":0,"TOWNNAME":"玉井區","LI":"玉井里","LIN":"18鄰","STREET":"中正路","SECT":" ","MAREA":" ","LANE":" ","ALLEY":" ","HOUSE_NO":"９４號","E_COORD97":194831.01000000001,"N_COORD97":2558122.25,"ADDRESS":"中正路９４號","OBJECTID":639976},"geometry":{"x":194831.01000000071,"y":2558122.25}},{"attributes":{"ID":640004,"DIS_CODE":0,"TOWNNAME":"玉井區","LI":"玉田里","LIN":"20鄰","STREET":"中山路","SECT":" ","MAREA":" ","LANE":" ","ALLEY":" ","HOUSE_NO":"２１１號","E_COORD97":195284.76000000001,"N_COORD97":2558089.2400000002,"ADDRESS":"中山路２１１號","OBJECTID":639977},"geometry":{"x":195284.75999999978,"y":2558089.2400000002}},{"attributes":{"ID":640005,"DIS_CODE":0,"TOWNNAME":"玉井區","LI":"玉田里","LIN":"39鄰","STREET":"中山路","SECT":" ","MAREA":" ","LANE":" ","ALLEY":" ","HOUSE_NO":"１８８號","E_COORD97":195129.85000000001,"N_COORD97":2557705.25,"ADDRESS":"中山路１８８號","OBJECTID":639978},"geometry":{"x":195129.84999999963,"y":2557705.25}},{"attributes":{"ID":640006,"DIS_CODE":0,"TOWNNAME":"玉井區","LI":"玉田里","LIN":"4鄰","STREET":"中正路","SECT":" ","MAREA":" ","LANE":" ","ALLEY":" ","HOUSE_NO":"１７４號","E_COORD97":194977.04999999999,"N_COORD97":2558217.25,"ADDRESS":"中正路１７４號","OBJECTID":639979},"geometry":{"x":194977.05000000075,"y":2558217.25}},{"attributes":{"ID":640007,"DIS_CODE":0,"TOWNNAME":"歸仁區","LI":"七甲里","LIN":"20鄰","STREET":"南潭三街","SECT":" ","MAREA":" ","LANE":" ","ALLEY":" ","HOUSE_NO":"１６７號","E_COORD97":176445.03,"N_COORD97":2543227.6899999999,"ADDRESS":"南潭三街１６７號","OBJECTID":639980},"geometry":{"x":176445.03000000026,"y":2543227.6899999995}},{"attributes":{"ID":640008,"DIS_CODE":0,"TOWNNAME":"玉井區","LI":"玉田里","LIN":"32鄰","STREET":"中山路","SECT":" ","MAREA":" ","LANE":" ","ALLEY":" ","HOUSE_NO":"２９６號","E_COORD97":195323.35000000001,"N_COORD97":2557912.25,"ADDRESS":"中山路２９６號","OBJECTID":639981},"geometry":{"x":195323.35000000149,"y":2557912.25}},{"attributes":{"ID":640009,"DIS_CODE":0,"TOWNNAME":"玉井區","LI":"玉田里","LIN":"40鄰","STREET":"中山路","SECT":" ","MAREA":" ","LANE":" ","ALLEY":" ","HOUSE_NO":"２３４號","E_COORD97":195239.98000000001,"N_COORD97":2557727.5,"ADDRESS":"中山路２３４號","OBJECTID":639982},"geometry":{"x":195239.98000000045,"y":2557727.5}},{"attributes":{"ID":640010,"DIS_CODE":0,"TOWNNAME":"歸仁區","LI":"南興里","LIN":"40鄰","STREET":"民生南街","SECT":"一段","MAREA":" ","LANE":" ","ALLEY":" ","HOUSE_NO":"２８號","E_COORD97":176255.41,"N_COORD97":2540822.25,"ADDRESS":"民生南街一段２８號","OBJECTID":639983},"geometry":{"x":176255.41000000015,"y":2540822.2500000037}},{"attributes":{"ID":640011,"DIS_CODE":0,"TOWNNAME":"歸仁區","LI":"歸南里","LIN":"4鄰","STREET":"民權十六街","SECT":" ","MAREA":" ","LANE":" ","ALLEY":" ","HOUSE_NO":"５９號","E_COORD97":176853.84,"N_COORD97":2540099.25,"ADDRESS":"民權十六街５９號","OBJECTID":639984},"geometry":{"x":176853.83999999985,"y":2540099.25}},{"attributes":{"ID":640012,"DIS_CODE":0,"TOWNNAME":"歸仁區","LI":"歸南里","LIN":"4鄰","STREET":"民權十六街","SECT":" ","MAREA":" ","LANE":" ","ALLEY":" ","HOUSE_NO":"６５號","E_COORD97":176852.73999999999,"N_COORD97":2540084.25,"ADDRESS":"民權十六街６５號","OBJECTID":639985},"geometry":{"x":176852.74000000115,"y":2540084.2500000019}},{"attributes":{"ID":640013,"DIS_CODE":0,"TOWNNAME":"歸仁區","LI":"歸南里","LIN":"4鄰","STREET":"民權十六街","SECT":" ","MAREA":" ","LANE":" ","ALLEY":" ","HOUSE_NO":"６１號","E_COORD97":176853.84,"N_COORD97":2540094.25,"ADDRESS":"民權十六街６１號","OBJECTID":639986},"geometry":{"x":176853.83999999985,"y":2540094.2500000019}},{"attributes":{"ID":640014,"DIS_CODE":0,"TOWNNAME":"歸仁區","LI":"歸南里","LIN":"4鄰","STREET":"民權十六街","SECT":" ","MAREA":" ","LANE":" ","ALLEY":" ","HOUSE_NO":"５７號","E_COORD97":176853.94,"N_COORD97":2540104.25,"ADDRESS":"民權十六街５７號","OBJECTID":639987},"geometry":{"x":176853.94000000041,"y":2540104.2500000019}},{"attributes":{"ID":640015,"DIS_CODE":0,"TOWNNAME":"歸仁區","LI":"歸南里","LIN":"4鄰","STREET":"民權十六街","SECT":" ","MAREA":" ","LANE":" ","ALLEY":" ","HOUSE_NO":"３６號","E_COORD97":176851.94,"N_COORD97":2540132.25,"ADDRESS":"民權十六街３６號","OBJECTID":639988},"geometry":{"x":176851.94000000134,"y":2540132.25}},{"attributes":{"ID":640016,"DIS_CODE":0,"TOWNNAME":"歸仁區","LI":"歸仁里","LIN":"18鄰","STREET":"大仁二街","SECT":" ","MAREA":" ","LANE":" ","ALLEY":" ","HOUSE_NO":"３９號","E_COORD97":178114.04000000001,"N_COORD97":2541096.1099999999,"ADDRESS":"大仁二街３９號","OBJECTID":639989},"geometry":{"x":178114.04000000004,"y":2541096.1099999994}},{"attributes":{"ID":640017,"DIS_CODE":0,"TOWNNAME":"歸仁區","LI":"六甲里","LIN":"41鄰","STREET":"民生十二街","SECT":" ","MAREA":" ","LANE":" ","ALLEY":" ","HOUSE_NO":"４９號","E_COORD97":175973.56,"N_COORD97":2539443.25,"ADDRESS":"民生十二街４９號","OBJECTID":639990},"geometry":{"x":175973.56000000052,"y":2539443.2500000019}},{"attributes":{"ID":640018,"DIS_CODE":0,"TOWNNAME":"歸仁區","LI":"歸仁里","LIN":"20鄰","STREET":"大仁二街","SECT":" ","MAREA":" ","LANE":" ","ALLEY":" ","HOUSE_NO":"２８號","E_COORD97":178130.44,"N_COORD97":2541102.1099999999,"ADDRESS":"大仁二街２８號","OBJECTID":639991},"geometry":{"x":178130.44000000041,"y":2541102.1099999994}},{"attributes":{"ID":640019,"DIS_CODE":0,"TOWNNAME":"歸仁區","LI":"歸仁里","LIN":"20鄰","STREET":"大仁二街","SECT":" ","MAREA":" ","LANE":" ","ALLEY":" ","HOUSE_NO":"３４號","E_COORD97":178109.04000000001,"N_COORD97":2541122.1099999999,"ADDRESS":"大仁二街３４號","OBJECTID":639992},"geometry":{"x":178109.04000000004,"y":2541122.1100000013}},{"attributes":{"ID":640020,"DIS_CODE":0,"TOWNNAME":"玉井區","LI":"玉井里","LIN":"20鄰","STREET":"中正路","SECT":" ","MAREA":" ","LANE":" ","ALLEY":" ","HOUSE_NO":"５０號","E_COORD97":194743.70999999999,"N_COORD97":2558094.2400000002,"ADDRESS":"中正路５０號","OBJECTID":639993},"geometry":{"x":194743.71000000089,"y":2558094.2400000021}},{"attributes":{"ID":640021,"DIS_CODE":0,"TOWNNAME":"玉井區","LI":"玉田里","LIN":"39鄰","STREET":"中山路","SECT":" ","MAREA":" ","LANE":" ","ALLEY":" ","HOUSE_NO":"１５８號之１","E_COORD97":195096.60000000001,"N_COORD97":2557702.2999999998,"ADDRESS":"中山路１５８號之１","OBJECTID":639994},"geometry":{"x":195096.60000000056,"y":2557702.3000000007}},{"attributes":{"ID":640022,"DIS_CODE":0,"TOWNNAME":"玉井區","LI":"玉田里","LIN":"39鄰","STREET":"中山路","SECT":" ","MAREA":" ","LANE":" ","ALLEY":" ","HOUSE_NO":"１２４號","E_COORD97":195016.35000000001,"N_COORD97":2557695.25,"ADDRESS":"中山路１２４號","OBJECTID":639995},"geometry":{"x":195016.34999999963,"y":2557695.25}},{"attributes":{"ID":640023,"DIS_CODE":0,"TOWNNAME":"玉井區","LI":"玉田里","LIN":"32鄰","STREET":"中山路","SECT":" ","MAREA":" ","LANE":" ","ALLEY":" ","HOUSE_NO":"３０４號","E_COORD97":195327.06,"N_COORD97":2557932.25,"ADDRESS":"中山路３０４號","OBJECTID":639996},"geometry":{"x":195327.06000000145,"y":2557932.25}},{"attributes":{"ID":640024,"DIS_CODE":0,"TOWNNAME":"歸仁區","LI":"辜厝里","LIN":"43鄰","STREET":"民權九街","SECT":" ","MAREA":" ","LANE":" ","ALLEY":" ","HOUSE_NO":"３５號","E_COORD97":177052.04000000001,"N_COORD97":2540357.3900000001,"ADDRESS":"民權九街３５號","OBJECTID":639997},"geometry":{"x":177052.04000000097,"y":2540357.3900000043}},{"attributes":{"ID":640025,"DIS_CODE":0,"TOWNNAME":"玉井區","LI":"玉田里","LIN":"4鄰","STREET":"中正路","SECT":" ","MAREA":" ","LANE":" ","ALLEY":" ","HOUSE_NO":"１８４號","E_COORD97":194995.76000000001,"N_COORD97":2558219.25,"ADDRESS":"中正路１８４號","OBJECTID":639998},"geometry":{"x":194995.76000000071,"y":2558219.2500000019}},{"attributes":{"ID":640026,"DIS_CODE":0,"TOWNNAME":"玉井區","LI":"玉田里","LIN":"20鄰","STREET":"中山路","SECT":" ","MAREA":" ","LANE":" ","ALLEY":" ","HOUSE_NO":"１８９號","E_COORD97":195287.76000000001,"N_COORD97":2558037.25,"ADDRESS":"中山路１８９號","OBJECTID":639999},"geometry":{"x":195287.75999999978,"y":2558037.25}},{"attributes":{"ID":640027,"DIS_CODE":0,"TOWNNAME":"玉井區","LI":"玉井里","LIN":"20鄰","STREET":"民主街","SECT":" ","MAREA":" ","LANE":" ","ALLEY":" ","HOUSE_NO":"１１號","E_COORD97":194754.23999999999,"N_COORD97":2558015.29,"ADDRESS":"民主街１１號","OBJECTID":640000},"geometry":{"x":194754.24000000115,"y":2558015.2899999991}}]}