{"displayFieldName":"TOWNNAME","fieldAliases":{"ID":"ID","DIS_CODE":"DIS_CODE","TOWNNAME":"TOWNNAME","LI":"LI","LIN":"LIN","STREET":"STREET","SECT":"SECT","MAREA":"MAREA","LANE":"LANE","ALLEY":"ALLEY","HOUSE_NO":"HOUSE_NO","E_COORD97":"E_COORD97","N_COORD97":"N_COORD97","ADDRESS":"ADDRESS","OBJECTID":"OBJECTID"},"geometryType":"esriGeometryPoint","spatialReference":{"wkid":102443,"latestWkid":3826},"fields":[{"name":"ID","type":"esriFieldTypeDouble","alias":"ID"},{"name":"DIS_CODE","type":"esriFieldTypeInteger","alias":"DIS_CODE"},{"name":"TOWNNAME","type":"esriFieldTypeString","alias":"TOWNNAME","length":8},{"name":"LI","type":"esriFieldTypeString","alias":"LI","length":8},{"name":"LIN","type":"esriFieldTypeString","alias":"LIN","length":12},{"name":"STREET","type":"esriFieldTypeString","alias":"STREET","length":20},{"name":"SECT","type":"esriFieldTypeString","alias":"SECT","length":8},{"name":"MAREA","type":"esriFieldTypeString","alias":"MAREA","length":12},{"name":"LANE","type":"esriFieldTypeString","alias":"LANE","length":10},{"name":"ALLEY","type":"esriFieldTypeString","alias":"ALLEY","length":10},{"name":"HOUSE_NO","type":"esriFieldTypeString","alias":"HOUSE_NO","length":20},{"name":"E_COORD97","type":"esriFieldTypeDouble","alias":"E_COORD97"},{"name":"N_COORD97","type":"esriFieldTypeDouble","alias":"N_COORD97"},{"name":"ADDRESS","type":"esriFieldTypeString","alias":"ADDRESS","length":50},{"name":"OBJECTID","type":"esriFieldTypeOID","alias":"OBJECTID"}],"features":[{"attributes":{"ID":628828,"DIS_CODE":0,"TOWNNAME":"永康區","LI":"大灣里","LIN":"25鄰","STREET":"民族路","SECT":" ","MAREA":" ","LANE":" ","ALLEY":" ","HOUSE_NO":"２４８號之１","E_COORD97":175072.51000000001,"N_COORD97":2545171.77,"ADDRESS":"民族路２４８號之１","OBJECTID":628801},"geometry":{"x":175072.51000000071,"y":2545171.7700000014}},{"attributes":{"ID":628829,"DIS_CODE":0,"TOWNNAME":"永康區","LI":"大橋里","LIN":"4鄰","STREET":"大橋五街","SECT":" ","MAREA":" ","LANE":" ","ALLEY":" ","HOUSE_NO":"１４７號","E_COORD97":170980.92000000001,"N_COORD97":2546993.3100000001,"ADDRESS":"大橋五街１４７號","OBJECTID":628802},"geometry":{"x":170980.92000000086,"y":2546993.3100000024}},{"attributes":{"ID":628830,"DIS_CODE":0,"TOWNNAME":"永康區","LI":"大橋里","LIN":"18鄰","STREET":"大橋二街","SECT":" ","MAREA":" ","LANE":" ","ALLEY":" ","HOUSE_NO":"１０８號","E_COORD97":170948.32999999999,"N_COORD97":2546680.7400000002,"ADDRESS":"大橋二街１０８號","OBJECTID":628803},"geometry":{"x":170948.33000000007,"y":2546680.7399999984}},{"attributes":{"ID":628831,"DIS_CODE":0,"TOWNNAME":"永康區","LI":"中興里","LIN":"26鄰","STREET":"中山東路","SECT":" ","MAREA":" ","LANE":" ","ALLEY":" ","HOUSE_NO":"３７８號","E_COORD97":171894.92999999999,"N_COORD97":2545267.6400000001,"ADDRESS":"中山東路３７８號","OBJECTID":628804},"geometry":{"x":171894.9299999997,"y":2545267.6400000006}},{"attributes":{"ID":628832,"DIS_CODE":0,"TOWNNAME":"永康區","LI":"復國里","LIN":"4鄰","STREET":"復國一路","SECT":" ","MAREA":" ","LANE":" ","ALLEY":" ","HOUSE_NO":"７８號","E_COORD97":172721.73999999999,"N_COORD97":2544890.4700000002,"ADDRESS":"復國一路７８號","OBJECTID":628805},"geometry":{"x":172721.74000000115,"y":2544890.4700000025}},{"attributes":{"ID":628833,"DIS_CODE":0,"TOWNNAME":"北區","LI":"文元里","LIN":"4鄰","STREET":"中華北路","SECT":"二段","MAREA":" ","LANE":" ","ALLEY":" ","HOUSE_NO":"１０號六樓之１０","E_COORD97":167375.70000000001,"N_COORD97":2546519.79,"ADDRESS":"中華北路二段１０號六樓之１０","OBJECTID":628806},"geometry":{"x":167375.70000000019,"y":2546519.7899999972}},{"attributes":{"ID":628834,"DIS_CODE":0,"TOWNNAME":"北區","LI":"文元里","LIN":"4鄰","STREET":"中華北路","SECT":"二段","MAREA":" ","LANE":" ","ALLEY":" ","HOUSE_NO":"１０號一樓之１","E_COORD97":167375.70000000001,"N_COORD97":2546519.79,"ADDRESS":"中華北路二段１０號一樓之１","OBJECTID":628807},"geometry":{"x":167375.70000000019,"y":2546519.7899999972}},{"attributes":{"ID":628835,"DIS_CODE":0,"TOWNNAME":"北區","LI":"文元里","LIN":"4鄰","STREET":"中華北路","SECT":"二段","MAREA":" ","LANE":" ","ALLEY":" ","HOUSE_NO":"１０號一樓之１０","E_COORD97":167375.70000000001,"N_COORD97":2546519.79,"ADDRESS":"中華北路二段１０號一樓之１０","OBJECTID":628808},"geometry":{"x":167375.70000000019,"y":2546519.7899999972}},{"attributes":{"ID":628836,"DIS_CODE":0,"TOWNNAME":"北區","LI":"文元里","LIN":"4鄰","STREET":"中華北路","SECT":"二段","MAREA":" ","LANE":" ","ALLEY":" ","HOUSE_NO":"１０號一樓之２","E_COORD97":167375.70000000001,"N_COORD97":2546519.79,"ADDRESS":"中華北路二段１０號一樓之２","OBJECTID":628809},"geometry":{"x":167375.70000000019,"y":2546519.7899999972}},{"attributes":{"ID":628837,"DIS_CODE":0,"TOWNNAME":"北區","LI":"文元里","LIN":"4鄰","STREET":"中華北路","SECT":"二段","MAREA":" ","LANE":" ","ALLEY":" ","HOUSE_NO":"１０號一樓之３","E_COORD97":167375.70000000001,"N_COORD97":2546519.79,"ADDRESS":"中華北路二段１０號一樓之３","OBJECTID":628810},"geometry":{"x":167375.70000000019,"y":2546519.7899999972}},{"attributes":{"ID":628838,"DIS_CODE":0,"TOWNNAME":"北區","LI":"文元里","LIN":"4鄰","STREET":"中華北路","SECT":"二段","MAREA":" ","LANE":" ","ALLEY":" ","HOUSE_NO":"１０號一樓之４","E_COORD97":167375.70000000001,"N_COORD97":2546519.79,"ADDRESS":"中華北路二段１０號一樓之４","OBJECTID":628811},"geometry":{"x":167375.70000000019,"y":2546519.7899999972}},{"attributes":{"ID":628839,"DIS_CODE":0,"TOWNNAME":"新市區","LI":"新市里","LIN":"18鄰","STREET":"和平街","SECT":" ","MAREA":" ","LANE":" ","ALLEY":" ","HOUSE_NO":"３號","E_COORD97":177777.32000000001,"N_COORD97":2553460.75,"ADDRESS":"和平街３號","OBJECTID":628812},"geometry":{"x":177777.31999999937,"y":2553460.75}},{"attributes":{"ID":628840,"DIS_CODE":0,"TOWNNAME":"北區","LI":"文元里","LIN":"4鄰","STREET":"中華北路","SECT":"二段","MAREA":" ","LANE":" ","ALLEY":" ","HOUSE_NO":"１０號一樓之５","E_COORD97":167375.70000000001,"N_COORD97":2546519.79,"ADDRESS":"中華北路二段１０號一樓之５","OBJECTID":628813},"geometry":{"x":167375.70000000019,"y":2546519.7899999972}},{"attributes":{"ID":628841,"DIS_CODE":0,"TOWNNAME":"北區","LI":"文元里","LIN":"4鄰","STREET":"中華北路","SECT":"二段","MAREA":" ","LANE":" ","ALLEY":" ","HOUSE_NO":"１０號一樓之６","E_COORD97":167375.70000000001,"N_COORD97":2546519.79,"ADDRESS":"中華北路二段１０號一樓之６","OBJECTID":628814},"geometry":{"x":167375.70000000019,"y":2546519.7899999972}},{"attributes":{"ID":628842,"DIS_CODE":0,"TOWNNAME":"北區","LI":"文元里","LIN":"4鄰","STREET":"中華北路","SECT":"二段","MAREA":" ","LANE":" ","ALLEY":" ","HOUSE_NO":"１０號一樓之７","E_COORD97":167375.70000000001,"N_COORD97":2546519.79,"ADDRESS":"中華北路二段１０號一樓之７","OBJECTID":628815},"geometry":{"x":167375.70000000019,"y":2546519.7899999972}},{"attributes":{"ID":628843,"DIS_CODE":0,"TOWNNAME":"北區","LI":"文元里","LIN":"4鄰","STREET":"中華北路","SECT":"二段","MAREA":" ","LANE":" ","ALLEY":" ","HOUSE_NO":"１０號一樓之８","E_COORD97":167375.70000000001,"N_COORD97":2546519.79,"ADDRESS":"中華北路二段１０號一樓之８","OBJECTID":628816},"geometry":{"x":167375.70000000019,"y":2546519.7899999972}},{"attributes":{"ID":628844,"DIS_CODE":0,"TOWNNAME":"北區","LI":"文元里","LIN":"4鄰","STREET":"中華北路","SECT":"二段","MAREA":" ","LANE":" ","ALLEY":" ","HOUSE_NO":"１０號一樓之９","E_COORD97":167375.70000000001,"N_COORD97":2546519.79,"ADDRESS":"中華北路二段１０號一樓之９","OBJECTID":628817},"geometry":{"x":167375.70000000019,"y":2546519.7899999972}},{"attributes":{"ID":628845,"DIS_CODE":0,"TOWNNAME":"北區","LI":"文元里","LIN":"4鄰","STREET":"中華北路","SECT":"二段","MAREA":" ","LANE":" ","ALLEY":" ","HOUSE_NO":"１０號二樓之１","E_COORD97":167375.70000000001,"N_COORD97":2546519.79,"ADDRESS":"中華北路二段１０號二樓之１","OBJECTID":628818},"geometry":{"x":167375.70000000019,"y":2546519.7899999972}},{"attributes":{"ID":628846,"DIS_CODE":0,"TOWNNAME":"北區","LI":"文元里","LIN":"4鄰","STREET":"中華北路","SECT":"二段","MAREA":" ","LANE":" ","ALLEY":" ","HOUSE_NO":"１０號二樓之２","E_COORD97":167375.70000000001,"N_COORD97":2546519.79,"ADDRESS":"中華北路二段１０號二樓之２","OBJECTID":628819},"geometry":{"x":167375.70000000019,"y":2546519.7899999972}},{"attributes":{"ID":628847,"DIS_CODE":0,"TOWNNAME":"北區","LI":"文元里","LIN":"4鄰","STREET":"中華北路","SECT":"二段","MAREA":" ","LANE":" ","ALLEY":" ","HOUSE_NO":"１０號二樓之３","E_COORD97":167375.70000000001,"N_COORD97":2546519.79,"ADDRESS":"中華北路二段１０號二樓之３","OBJECTID":628820},"geometry":{"x":167375.70000000019,"y":2546519.7899999972}},{"attributes":{"ID":628848,"DIS_CODE":0,"TOWNNAME":"北區","LI":"文元里","LIN":"4鄰","STREET":"中華北路","SECT":"二段","MAREA":" ","LANE":" ","ALLEY":" ","HOUSE_NO":"１０號二樓之４","E_COORD97":167375.70000000001,"N_COORD97":2546519.79,"ADDRESS":"中華北路二段１０號二樓之４","OBJECTID":628821},"geometry":{"x":167375.70000000019,"y":2546519.7899999972}},{"attributes":{"ID":628849,"DIS_CODE":0,"TOWNNAME":"北區","LI":"文元里","LIN":"4鄰","STREET":"中華北路","SECT":"二段","MAREA":" ","LANE":" ","ALLEY":" ","HOUSE_NO":"１０號二樓之５","E_COORD97":167375.70000000001,"N_COORD97":2546519.79,"ADDRESS":"中華北路二段１０號二樓之５","OBJECTID":628822},"geometry":{"x":167375.70000000019,"y":2546519.7899999972}},{"attributes":{"ID":628850,"DIS_CODE":0,"TOWNNAME":"北區","LI":"文元里","LIN":"4鄰","STREET":"中華北路","SECT":"二段","MAREA":" ","LANE":" ","ALLEY":" ","HOUSE_NO":"１０號二樓之６","E_COORD97":167375.70000000001,"N_COORD97":2546519.79,"ADDRESS":"中華北路二段１０號二樓之６","OBJECTID":628823},"geometry":{"x":167375.70000000019,"y":2546519.7899999972}},{"attributes":{"ID":628851,"DIS_CODE":0,"TOWNNAME":"北區","LI":"文元里","LIN":"4鄰","STREET":"中華北路","SECT":"二段","MAREA":" ","LANE":" ","ALLEY":" ","HOUSE_NO":"１０號二樓之７","E_COORD97":167375.70000000001,"N_COORD97":2546519.79,"ADDRESS":"中華北路二段１０號二樓之７","OBJECTID":628824},"geometry":{"x":167375.70000000019,"y":2546519.7899999972}},{"attributes":{"ID":628852,"DIS_CODE":0,"TOWNNAME":"永康區","LI":"勝利里","LIN":"20鄰","STREET":"勝學路","SECT":" ","MAREA":" ","LANE":" ","ALLEY":" ","HOUSE_NO":"２２５號","E_COORD97":171180.57000000001,"N_COORD97":2545237.5,"ADDRESS":"勝學路２２５號","OBJECTID":628825},"geometry":{"x":171180.57000000123,"y":2545237.5}},{"attributes":{"ID":628853,"DIS_CODE":0,"TOWNNAME":"永康區","LI":"復國里","LIN":"4鄰","STREET":"復國一路","SECT":" ","MAREA":" ","LANE":" ","ALLEY":" ","HOUSE_NO":"７４號","E_COORD97":172722.34,"N_COORD97":2544882.2200000002,"ADDRESS":"復國一路７４號","OBJECTID":628826},"geometry":{"x":172722.34000000078,"y":2544882.2200000025}},{"attributes":{"ID":628854,"DIS_CODE":0,"TOWNNAME":"北區","LI":"文元里","LIN":"4鄰","STREET":"中華北路","SECT":"二段","MAREA":" ","LANE":" ","ALLEY":" ","HOUSE_NO":"１０號二樓之８","E_COORD97":167375.70000000001,"N_COORD97":2546519.79,"ADDRESS":"中華北路二段１０號二樓之８","OBJECTID":628827},"geometry":{"x":167375.70000000019,"y":2546519.7899999972}},{"attributes":{"ID":628855,"DIS_CODE":0,"TOWNNAME":"北區","LI":"文元里","LIN":"4鄰","STREET":"中華北路","SECT":"二段","MAREA":" ","LANE":" ","ALLEY":" ","HOUSE_NO":"１０號二樓之９","E_COORD97":167375.70000000001,"N_COORD97":2546519.79,"ADDRESS":"中華北路二段１０號二樓之９","OBJECTID":628828},"geometry":{"x":167375.70000000019,"y":2546519.7899999972}},{"attributes":{"ID":628856,"DIS_CODE":0,"TOWNNAME":"北區","LI":"文元里","LIN":"4鄰","STREET":"中華北路","SECT":"二段","MAREA":" ","LANE":" ","ALLEY":" ","HOUSE_NO":"１０號三樓之１","E_COORD97":167375.70000000001,"N_COORD97":2546519.79,"ADDRESS":"中華北路二段１０號三樓之１","OBJECTID":628829},"geometry":{"x":167375.70000000019,"y":2546519.7899999972}},{"attributes":{"ID":628857,"DIS_CODE":0,"TOWNNAME":"北區","LI":"文元里","LIN":"4鄰","STREET":"中華北路","SECT":"二段","MAREA":" ","LANE":" ","ALLEY":" ","HOUSE_NO":"１０號三樓之２","E_COORD97":167375.70000000001,"N_COORD97":2546519.79,"ADDRESS":"中華北路二段１０號三樓之２","OBJECTID":628830},"geometry":{"x":167375.70000000019,"y":2546519.7899999972}},{"attributes":{"ID":628858,"DIS_CODE":0,"TOWNNAME":"北區","LI":"文元里","LIN":"4鄰","STREET":"中華北路","SECT":"二段","MAREA":" ","LANE":" ","ALLEY":" ","HOUSE_NO":"１０號三樓之３","E_COORD97":167375.70000000001,"N_COORD97":2546519.79,"ADDRESS":"中華北路二段１０號三樓之３","OBJECTID":628831},"geometry":{"x":167375.70000000019,"y":2546519.7899999972}},{"attributes":{"ID":628859,"DIS_CODE":0,"TOWNNAME":"北區","LI":"文元里","LIN":"4鄰","STREET":"中華北路","SECT":"二段","MAREA":" ","LANE":" ","ALLEY":" ","HOUSE_NO":"１０號三樓之４","E_COORD97":167375.70000000001,"N_COORD97":2546519.79,"ADDRESS":"中華北路二段１０號三樓之４","OBJECTID":628832},"geometry":{"x":167375.70000000019,"y":2546519.7899999972}},{"attributes":{"ID":628860,"DIS_CODE":0,"TOWNNAME":"北區","LI":"文元里","LIN":"4鄰","STREET":"中華北路","SECT":"二段","MAREA":" ","LANE":" ","ALLEY":" ","HOUSE_NO":"１０號三樓之５","E_COORD97":167375.70000000001,"N_COORD97":2546519.79,"ADDRESS":"中華北路二段１０號三樓之５","OBJECTID":628833},"geometry":{"x":167375.70000000019,"y":2546519.7899999972}},{"attributes":{"ID":628861,"DIS_CODE":0,"TOWNNAME":"北區","LI":"文元里","LIN":"4鄰","STREET":"中華北路","SECT":"二段","MAREA":" ","LANE":" ","ALLEY":" ","HOUSE_NO":"１０號三樓之６","E_COORD97":167375.70000000001,"N_COORD97":2546519.79,"ADDRESS":"中華北路二段１０號三樓之６","OBJECTID":628834},"geometry":{"x":167375.70000000019,"y":2546519.7899999972}},{"attributes":{"ID":628862,"DIS_CODE":0,"TOWNNAME":"北區","LI":"文元里","LIN":"4鄰","STREET":"中華北路","SECT":"二段","MAREA":" ","LANE":" ","ALLEY":" ","HOUSE_NO":"１０號三樓之７","E_COORD97":167375.70000000001,"N_COORD97":2546519.79,"ADDRESS":"中華北路二段１０號三樓之７","OBJECTID":628835},"geometry":{"x":167375.70000000019,"y":2546519.7899999972}},{"attributes":{"ID":628863,"DIS_CODE":0,"TOWNNAME":"北區","LI":"文元里","LIN":"4鄰","STREET":"中華北路","SECT":"二段","MAREA":" ","LANE":" ","ALLEY":" ","HOUSE_NO":"１０號五樓之５","E_COORD97":167375.70000000001,"N_COORD97":2546519.79,"ADDRESS":"中華北路二段１０號五樓之５","OBJECTID":628836},"geometry":{"x":167375.70000000019,"y":2546519.7899999972}},{"attributes":{"ID":628864,"DIS_CODE":0,"TOWNNAME":"北區","LI":"文元里","LIN":"4鄰","STREET":"中華北路","SECT":"二段","MAREA":" ","LANE":" ","ALLEY":" ","HOUSE_NO":"１０號五樓之６","E_COORD97":167375.70000000001,"N_COORD97":2546519.79,"ADDRESS":"中華北路二段１０號五樓之６","OBJECTID":628837},"geometry":{"x":167375.70000000019,"y":2546519.7899999972}},{"attributes":{"ID":628865,"DIS_CODE":0,"TOWNNAME":"北區","LI":"文元里","LIN":"4鄰","STREET":"中華北路","SECT":"二段","MAREA":" ","LANE":" ","ALLEY":" ","HOUSE_NO":"１０號五樓之７","E_COORD97":167375.70000000001,"N_COORD97":2546519.79,"ADDRESS":"中華北路二段１０號五樓之７","OBJECTID":628838},"geometry":{"x":167375.70000000019,"y":2546519.7899999972}},{"attributes":{"ID":628866,"DIS_CODE":0,"TOWNNAME":"北區","LI":"文元里","LIN":"4鄰","STREET":"中華北路","SECT":"二段","MAREA":" ","LANE":" ","ALLEY":" ","HOUSE_NO":"１０號五樓之８","E_COORD97":167375.70000000001,"N_COORD97":2546519.79,"ADDRESS":"中華北路二段１０號五樓之８","OBJECTID":628839},"geometry":{"x":167375.70000000019,"y":2546519.7899999972}},{"attributes":{"ID":628867,"DIS_CODE":0,"TOWNNAME":"北區","LI":"文元里","LIN":"4鄰","STREET":"中華北路","SECT":"二段","MAREA":" ","LANE":" ","ALLEY":" ","HOUSE_NO":"１０號五樓之９","E_COORD97":167375.70000000001,"N_COORD97":2546519.79,"ADDRESS":"中華北路二段１０號五樓之９","OBJECTID":628840},"geometry":{"x":167375.70000000019,"y":2546519.7899999972}},{"attributes":{"ID":628868,"DIS_CODE":0,"TOWNNAME":"北區","LI":"文元里","LIN":"4鄰","STREET":"中華北路","SECT":"二段","MAREA":" ","LANE":" ","ALLEY":" ","HOUSE_NO":"１０號六樓之１","E_COORD97":167375.70000000001,"N_COORD97":2546519.79,"ADDRESS":"中華北路二段１０號六樓之１","OBJECTID":628841},"geometry":{"x":167375.70000000019,"y":2546519.7899999972}},{"attributes":{"ID":628869,"DIS_CODE":0,"TOWNNAME":"北區","LI":"文元里","LIN":"4鄰","STREET":"中華北路","SECT":"二段","MAREA":" ","LANE":" ","ALLEY":" ","HOUSE_NO":"１０號六樓之２","E_COORD97":167375.70000000001,"N_COORD97":2546519.79,"ADDRESS":"中華北路二段１０號六樓之２","OBJECTID":628842},"geometry":{"x":167375.70000000019,"y":2546519.7899999972}},{"attributes":{"ID":628870,"DIS_CODE":0,"TOWNNAME":"北區","LI":"文元里","LIN":"4鄰","STREET":"中華北路","SECT":"二段","MAREA":" ","LANE":" ","ALLEY":" ","HOUSE_NO":"１０號六樓之３","E_COORD97":167375.70000000001,"N_COORD97":2546519.79,"ADDRESS":"中華北路二段１０號六樓之３","OBJECTID":628843},"geometry":{"x":167375.70000000019,"y":2546519.7899999972}},{"attributes":{"ID":628871,"DIS_CODE":0,"TOWNNAME":"北區","LI":"文元里","LIN":"4鄰","STREET":"中華北路","SECT":"二段","MAREA":" ","LANE":" ","ALLEY":" ","HOUSE_NO":"１０號六樓之４","E_COORD97":167375.70000000001,"N_COORD97":2546519.79,"ADDRESS":"中華北路二段１０號六樓之４","OBJECTID":628844},"geometry":{"x":167375.70000000019,"y":2546519.7899999972}},{"attributes":{"ID":628872,"DIS_CODE":0,"TOWNNAME":"北區","LI":"文元里","LIN":"4鄰","STREET":"中華北路","SECT":"二段","MAREA":" ","LANE":" ","ALLEY":" ","HOUSE_NO":"１０號六樓之５","E_COORD97":167375.70000000001,"N_COORD97":2546519.79,"ADDRESS":"中華北路二段１０號六樓之５","OBJECTID":628845},"geometry":{"x":167375.70000000019,"y":2546519.7899999972}},{"attributes":{"ID":628873,"DIS_CODE":0,"TOWNNAME":"北區","LI":"文元里","LIN":"4鄰","STREET":"中華北路","SECT":"二段","MAREA":" ","LANE":" ","ALLEY":" ","HOUSE_NO":"１０號六樓之６","E_COORD97":167375.70000000001,"N_COORD97":2546519.79,"ADDRESS":"中華北路二段１０號六樓之６","OBJECTID":628846},"geometry":{"x":167375.70000000019,"y":2546519.7899999972}},{"attributes":{"ID":628874,"DIS_CODE":0,"TOWNNAME":"北區","LI":"文元里","LIN":"4鄰","STREET":"中華北路","SECT":"二段","MAREA":" ","LANE":" ","ALLEY":" ","HOUSE_NO":"１０號六樓之７","E_COORD97":167375.70000000001,"N_COORD97":2546519.79,"ADDRESS":"中華北路二段１０號六樓之７","OBJECTID":628847},"geometry":{"x":167375.70000000019,"y":2546519.7899999972}},{"attributes":{"ID":628875,"DIS_CODE":0,"TOWNNAME":"北區","LI":"文元里","LIN":"4鄰","STREET":"中華北路","SECT":"二段","MAREA":" ","LANE":" ","ALLEY":" ","HOUSE_NO":"１０號六樓之８","E_COORD97":167375.70000000001,"N_COORD97":2546519.79,"ADDRESS":"中華北路二段１０號六樓之８","OBJECTID":628848},"geometry":{"x":167375.70000000019,"y":2546519.7899999972}},{"attributes":{"ID":628876,"DIS_CODE":0,"TOWNNAME":"北區","LI":"文元里","LIN":"4鄰","STREET":"中華北路","SECT":"二段","MAREA":" ","LANE":" ","ALLEY":" ","HOUSE_NO":"１０號六樓之９","E_COORD97":167375.70000000001,"N_COORD97":2546519.79,"ADDRESS":"中華北路二段１０號六樓之９","OBJECTID":628849},"geometry":{"x":167375.70000000019,"y":2546519.7899999972}},{"attributes":{"ID":628877,"DIS_CODE":0,"TOWNNAME":"永康區","LI":"崑山里","LIN":"25鄰","STREET":"大仁街","SECT":" ","MAREA":" ","LANE":" ","ALLEY":" ","HOUSE_NO":"８５號","E_COORD97":173809.59,"N_COORD97":2544738.1200000001,"ADDRESS":"大仁街８５號","OBJECTID":628850},"geometry":{"x":173809.58999999985,"y":2544738.1200000029}},{"attributes":{"ID":628878,"DIS_CODE":0,"TOWNNAME":"永康區","LI":"復國里","LIN":"4鄰","STREET":"復國一路","SECT":" ","MAREA":" ","LANE":" ","ALLEY":" ","HOUSE_NO":"８６號","E_COORD97":172722.25,"N_COORD97":2544906.96,"ADDRESS":"復國一路８６號","OBJECTID":628851},"geometry":{"x":172722.25,"y":2544906.9600000046}},{"attributes":{"ID":628879,"DIS_CODE":0,"TOWNNAME":"北區","LI":"文元里","LIN":"4鄰","STREET":"中華北路","SECT":"二段","MAREA":" ","LANE":" ","ALLEY":" ","HOUSE_NO":"１０號四樓之１","E_COORD97":167375.70000000001,"N_COORD97":2546519.79,"ADDRESS":"中華北路二段１０號四樓之１","OBJECTID":628852},"geometry":{"x":167375.70000000019,"y":2546519.7899999972}},{"attributes":{"ID":628880,"DIS_CODE":0,"TOWNNAME":"北區","LI":"文元里","LIN":"4鄰","STREET":"中華北路","SECT":"二段","MAREA":" ","LANE":" ","ALLEY":" ","HOUSE_NO":"１０號四樓之２","E_COORD97":167375.70000000001,"N_COORD97":2546519.79,"ADDRESS":"中華北路二段１０號四樓之２","OBJECTID":628853},"geometry":{"x":167375.70000000019,"y":2546519.7899999972}},{"attributes":{"ID":628881,"DIS_CODE":0,"TOWNNAME":"北區","LI":"文元里","LIN":"4鄰","STREET":"中華北路","SECT":"二段","MAREA":" ","LANE":" ","ALLEY":" ","HOUSE_NO":"１０號四樓之３","E_COORD97":167375.70000000001,"N_COORD97":2546519.79,"ADDRESS":"中華北路二段１０號四樓之３","OBJECTID":628854},"geometry":{"x":167375.70000000019,"y":2546519.7899999972}},{"attributes":{"ID":628882,"DIS_CODE":0,"TOWNNAME":"北區","LI":"文元里","LIN":"4鄰","STREET":"中華北路","SECT":"二段","MAREA":" ","LANE":" ","ALLEY":" ","HOUSE_NO":"１０號四樓之４","E_COORD97":167375.70000000001,"N_COORD97":2546519.79,"ADDRESS":"中華北路二段１０號四樓之４","OBJECTID":628855},"geometry":{"x":167375.70000000019,"y":2546519.7899999972}},{"attributes":{"ID":628883,"DIS_CODE":0,"TOWNNAME":"北區","LI":"文元里","LIN":"4鄰","STREET":"中華北路","SECT":"二段","MAREA":" ","LANE":" ","ALLEY":" ","HOUSE_NO":"１０號四樓之５","E_COORD97":167375.70000000001,"N_COORD97":2546519.79,"ADDRESS":"中華北路二段１０號四樓之５","OBJECTID":628856},"geometry":{"x":167375.70000000019,"y":2546519.7899999972}},{"attributes":{"ID":628884,"DIS_CODE":0,"TOWNNAME":"北區","LI":"文元里","LIN":"4鄰","STREET":"中華北路","SECT":"二段","MAREA":" ","LANE":" ","ALLEY":" ","HOUSE_NO":"１０號四樓之６","E_COORD97":167375.70000000001,"N_COORD97":2546519.79,"ADDRESS":"中華北路二段１０號四樓之６","OBJECTID":628857},"geometry":{"x":167375.70000000019,"y":2546519.7899999972}},{"attributes":{"ID":628885,"DIS_CODE":0,"TOWNNAME":"北區","LI":"文元里","LIN":"4鄰","STREET":"中華北路","SECT":"二段","MAREA":" ","LANE":" ","ALLEY":" ","HOUSE_NO":"１０號四樓之７","E_COORD97":167375.70000000001,"N_COORD97":2546519.79,"ADDRESS":"中華北路二段１０號四樓之７","OBJECTID":628858},"geometry":{"x":167375.70000000019,"y":2546519.7899999972}},{"attributes":{"ID":628886,"DIS_CODE":0,"TOWNNAME":"北區","LI":"文元里","LIN":"4鄰","STREET":"中華北路","SECT":"二段","MAREA":" ","LANE":" ","ALLEY":" ","HOUSE_NO":"１０號四樓之８","E_COORD97":167375.70000000001,"N_COORD97":2546519.79,"ADDRESS":"中華北路二段１０號四樓之８","OBJECTID":628859},"geometry":{"x":167375.70000000019,"y":2546519.7899999972}},{"attributes":{"ID":628887,"DIS_CODE":0,"TOWNNAME":"北區","LI":"文元里","LIN":"4鄰","STREET":"中華北路","SECT":"二段","MAREA":" ","LANE":" ","ALLEY":" ","HOUSE_NO":"１０號四樓之９","E_COORD97":167375.70000000001,"N_COORD97":2546519.79,"ADDRESS":"中華北路二段１０號四樓之９","OBJECTID":628860},"geometry":{"x":167375.70000000019,"y":2546519.7899999972}},{"attributes":{"ID":628888,"DIS_CODE":0,"TOWNNAME":"仁德區","LI":"仁德里","LIN":"4鄰","STREET":"仁中六街","SECT":" ","MAREA":" ","LANE":" ","ALLEY":" ","HOUSE_NO":"１２７號","E_COORD97":173328.29999999999,"N_COORD97":2540451.7400000002,"ADDRESS":"仁中六街１２７號","OBJECTID":628861},"geometry":{"x":173328.29999999981,"y":2540451.7400000002}},{"attributes":{"ID":628889,"DIS_CODE":0,"TOWNNAME":"仁德區","LI":"後壁里","LIN":"5鄰","STREET":"德善路","SECT":" ","MAREA":" ","LANE":" ","ALLEY":" ","HOUSE_NO":"１１１號","E_COORD97":173416.14999999999,"N_COORD97":2538844.77,"ADDRESS":"德善路１１１號","OBJECTID":628862},"geometry":{"x":173416.15000000037,"y":2538844.7700000033}},{"attributes":{"ID":628890,"DIS_CODE":0,"TOWNNAME":"仁德區","LI":"仁義里","LIN":"26鄰","STREET":"中山路","SECT":" ","MAREA":" ","LANE":" ","ALLEY":" ","HOUSE_NO":"５５２號","E_COORD97":173367.03,"N_COORD97":2541338,"ADDRESS":"中山路５５２號","OBJECTID":628863},"geometry":{"x":173367.03000000119,"y":2541338}},{"attributes":{"ID":628891,"DIS_CODE":0,"TOWNNAME":"仁德區","LI":"仁德里","LIN":"39鄰","STREET":"文宏一街","SECT":" ","MAREA":" ","LANE":" ","ALLEY":" ","HOUSE_NO":"５５號","E_COORD97":172458.07999999999,"N_COORD97":2541812.8199999998,"ADDRESS":"文宏一街５５號","OBJECTID":628864},"geometry":{"x":172458.08000000101,"y":2541812.8200000022}},{"attributes":{"ID":628892,"DIS_CODE":0,"TOWNNAME":"仁德區","LI":"仁義里","LIN":"4鄰","STREET":"仁義二街","SECT":" ","MAREA":" ","LANE":" ","ALLEY":" ","HOUSE_NO":"３２號","E_COORD97":173796.85000000001,"N_COORD97":2541164.27,"ADDRESS":"仁義二街３２號","OBJECTID":628865},"geometry":{"x":173796.85000000056,"y":2541164.2700000014}},{"attributes":{"ID":628893,"DIS_CODE":0,"TOWNNAME":"仁德區","LI":"仁德里","LIN":"4鄰","STREET":"仁中六街","SECT":" ","MAREA":" ","LANE":" ","ALLEY":" ","HOUSE_NO":"１２１號","E_COORD97":173343.95000000001,"N_COORD97":2540451.4900000002,"ADDRESS":"仁中六街１２１號","OBJECTID":628866},"geometry":{"x":173343.95000000112,"y":2540451.4900000021}},{"attributes":{"ID":628894,"DIS_CODE":0,"TOWNNAME":"仁德區","LI":"仁義里","LIN":"18鄰","STREET":"正義路","SECT":" ","MAREA":" ","LANE":" ","ALLEY":" ","HOUSE_NO":"２０３號","E_COORD97":173909.32000000001,"N_COORD97":2541408.5099999998,"ADDRESS":"正義路２０３號","OBJECTID":628867},"geometry":{"x":173909.32000000123,"y":2541408.5099999998}},{"attributes":{"ID":628895,"DIS_CODE":0,"TOWNNAME":"仁德區","LI":"仁德里","LIN":"39鄰","STREET":"文宏二街","SECT":" ","MAREA":" ","LANE":" ","ALLEY":" ","HOUSE_NO":"１１０號","E_COORD97":172481.78,"N_COORD97":2541773.5800000001,"ADDRESS":"文宏二街１１０號","OBJECTID":628868},"geometry":{"x":172481.77999999933,"y":2541773.5800000019}},{"attributes":{"ID":628896,"DIS_CODE":0,"TOWNNAME":"仁德區","LI":"仁德里","LIN":"39鄰","STREET":"文山路","SECT":" ","MAREA":" ","LANE":" ","ALLEY":" ","HOUSE_NO":"１７２號","E_COORD97":172711.70000000001,"N_COORD97":2541817.3199999998,"ADDRESS":"文山路１７２號","OBJECTID":628869},"geometry":{"x":172711.70000000112,"y":2541817.3200000003}},{"attributes":{"ID":628897,"DIS_CODE":0,"TOWNNAME":"仁德區","LI":"仁德里","LIN":"4鄰","STREET":"仁中六街","SECT":" ","MAREA":" ","LANE":" ","ALLEY":" ","HOUSE_NO":"１１９號","E_COORD97":173349.53,"N_COORD97":2540451.2400000002,"ADDRESS":"仁中六街１１９號","OBJECTID":628870},"geometry":{"x":173349.53000000026,"y":2540451.2400000002}},{"attributes":{"ID":628898,"DIS_CODE":0,"TOWNNAME":"仁德區","LI":"仁德里","LIN":"18鄰","STREET":"文華路","SECT":"三段","MAREA":" ","LANE":" ","ALLEY":" ","HOUSE_NO":"１２１號","E_COORD97":172150.38,"N_COORD97":2540255.3199999998,"ADDRESS":"文華路三段１２１號","OBJECTID":628871},"geometry":{"x":172150.38000000082,"y":2540255.3200000003}},{"attributes":{"ID":628899,"DIS_CODE":0,"TOWNNAME":"仁德區","LI":"後壁里","LIN":"26鄰","STREET":"中正路","SECT":"二段","MAREA":" ","LANE":" ","ALLEY":" ","HOUSE_NO":"３３１號","E_COORD97":173249.42999999999,"N_COORD97":2539161.0299999998,"ADDRESS":"中正路二段３３１號","OBJECTID":628872},"geometry":{"x":173249.4299999997,"y":2539161.0299999993}},{"attributes":{"ID":628900,"DIS_CODE":0,"TOWNNAME":"仁德區","LI":"仁德里","LIN":"39鄰","STREET":"文宏路","SECT":" ","MAREA":" ","LANE":" ","ALLEY":" ","HOUSE_NO":"１３０號","E_COORD97":172398.89999999999,"N_COORD97":2541812.8199999998,"ADDRESS":"文宏路１３０號","OBJECTID":628873},"geometry":{"x":172398.9000000013,"y":2541812.8200000022}},{"attributes":{"ID":628901,"DIS_CODE":0,"TOWNNAME":"仁德區","LI":"仁德里","LIN":"39鄰","STREET":"文宏二街","SECT":" ","MAREA":" ","LANE":" ","ALLEY":" ","HOUSE_NO":"１０６號","E_COORD97":172490.64000000001,"N_COORD97":2541771.3300000001,"ADDRESS":"文宏二街１０６號","OBJECTID":628874},"geometry":{"x":172490.64000000153,"y":2541771.3300000019}},{"attributes":{"ID":628902,"DIS_CODE":0,"TOWNNAME":"仁德區","LI":"仁德里","LIN":"4鄰","STREET":"仁中六街","SECT":" ","MAREA":" ","LANE":" ","ALLEY":" ","HOUSE_NO":"１１５號","E_COORD97":173361.06,"N_COORD97":2540451.2400000002,"ADDRESS":"仁中六街１１５號","OBJECTID":628875},"geometry":{"x":173361.06000000052,"y":2540451.2400000002}},{"attributes":{"ID":628903,"DIS_CODE":0,"TOWNNAME":"仁德區","LI":"仁德里","LIN":"4鄰","STREET":"仁中六街","SECT":" ","MAREA":" ","LANE":" ","ALLEY":" ","HOUSE_NO":"１２３號","E_COORD97":173338.98999999999,"N_COORD97":2540451.4900000002,"ADDRESS":"仁中六街１２３號","OBJECTID":628876},"geometry":{"x":173338.99000000115,"y":2540451.4900000021}},{"attributes":{"ID":628904,"DIS_CODE":0,"TOWNNAME":"安平區","LI":"育平里","LIN":"4鄰","STREET":"永華路","SECT":"二段","MAREA":" ","LANE":" ","ALLEY":" ","HOUSE_NO":"８１９號十一樓之１５","E_COORD97":164756.10999999999,"N_COORD97":2543515.4199999999,"ADDRESS":"永華路二段８１９號十一樓之１５","OBJECTID":628877},"geometry":{"x":164756.11000000034,"y":2543515.4199999999}},{"attributes":{"ID":628905,"DIS_CODE":0,"TOWNNAME":"安平區","LI":"育平里","LIN":"4鄰","STREET":"永華路","SECT":"二段","MAREA":" ","LANE":" ","ALLEY":" ","HOUSE_NO":"８１９號十一樓之１６","E_COORD97":164756.10999999999,"N_COORD97":2543515.4199999999,"ADDRESS":"永華路二段８１９號十一樓之１６","OBJECTID":628878},"geometry":{"x":164756.11000000034,"y":2543515.4199999999}},{"attributes":{"ID":628906,"DIS_CODE":0,"TOWNNAME":"安平區","LI":"育平里","LIN":"4鄰","STREET":"永華路","SECT":"二段","MAREA":" ","LANE":" ","ALLEY":" ","HOUSE_NO":"８１９號十八樓之１５","E_COORD97":164756.10999999999,"N_COORD97":2543515.4199999999,"ADDRESS":"永華路二段８１９號十八樓之１５","OBJECTID":628879},"geometry":{"x":164756.11000000034,"y":2543515.4199999999}},{"attributes":{"ID":628907,"DIS_CODE":0,"TOWNNAME":"安平區","LI":"育平里","LIN":"4鄰","STREET":"永華路","SECT":"二段","MAREA":" ","LANE":" ","ALLEY":" ","HOUSE_NO":"８１９號十八樓之１６","E_COORD97":164756.10999999999,"N_COORD97":2543515.4199999999,"ADDRESS":"永華路二段８１９號十八樓之１６","OBJECTID":628880},"geometry":{"x":164756.11000000034,"y":2543515.4199999999}},{"attributes":{"ID":628908,"DIS_CODE":0,"TOWNNAME":"北區","LI":"實踐里","LIN":"4鄰","STREET":"長榮路","SECT":"五段","MAREA":" ","LANE":" ","ALLEY":" ","HOUSE_NO":"２７８號五樓之１","E_COORD97":169796.31,"N_COORD97":2545938.4399999999,"ADDRESS":"長榮路五段２７８號五樓之１","OBJECTID":628881},"geometry":{"x":169796.31000000052,"y":2545938.4399999995}},{"attributes":{"ID":628909,"DIS_CODE":0,"TOWNNAME":"北區","LI":"實踐里","LIN":"4鄰","STREET":"長榮路","SECT":"五段","MAREA":" ","LANE":" ","ALLEY":" ","HOUSE_NO":"２７８號五樓之２","E_COORD97":169796.31,"N_COORD97":2545938.4399999999,"ADDRESS":"長榮路五段２７８號五樓之２","OBJECTID":628882},"geometry":{"x":169796.31000000052,"y":2545938.4399999995}},{"attributes":{"ID":628910,"DIS_CODE":0,"TOWNNAME":"北區","LI":"實踐里","LIN":"4鄰","STREET":"長榮路","SECT":"五段","MAREA":" ","LANE":" ","ALLEY":" ","HOUSE_NO":"２７８號五樓之３","E_COORD97":169796.31,"N_COORD97":2545938.4399999999,"ADDRESS":"長榮路五段２７８號五樓之３","OBJECTID":628883},"geometry":{"x":169796.31000000052,"y":2545938.4399999995}},{"attributes":{"ID":628911,"DIS_CODE":0,"TOWNNAME":"北區","LI":"實踐里","LIN":"4鄰","STREET":"長榮路","SECT":"五段","MAREA":" ","LANE":" ","ALLEY":" ","HOUSE_NO":"２７８號五樓之５","E_COORD97":169796.31,"N_COORD97":2545938.4399999999,"ADDRESS":"長榮路五段２７８號五樓之５","OBJECTID":628884},"geometry":{"x":169796.31000000052,"y":2545938.4399999995}},{"attributes":{"ID":628912,"DIS_CODE":0,"TOWNNAME":"北區","LI":"實踐里","LIN":"4鄰","STREET":"長榮路","SECT":"五段","MAREA":" ","LANE":" ","ALLEY":" ","HOUSE_NO":"２７８號六樓之１","E_COORD97":169796.31,"N_COORD97":2545938.4399999999,"ADDRESS":"長榮路五段２７８號六樓之１","OBJECTID":628885},"geometry":{"x":169796.31000000052,"y":2545938.4399999995}},{"attributes":{"ID":628913,"DIS_CODE":0,"TOWNNAME":"仁德區","LI":"仁義里","LIN":"36鄰","STREET":"勝利路","SECT":" ","MAREA":" ","LANE":" ","ALLEY":" ","HOUSE_NO":"９５號","E_COORD97":173713.95000000001,"N_COORD97":2539873,"ADDRESS":"勝利路９５號","OBJECTID":628886},"geometry":{"x":173713.95000000019,"y":2539873}},{"attributes":{"ID":628914,"DIS_CODE":0,"TOWNNAME":"仁德區","LI":"成功里","LIN":"5鄰","STREET":"成功三街","SECT":" ","MAREA":" ","LANE":" ","ALLEY":" ","HOUSE_NO":"８０號","E_COORD97":171169.54000000001,"N_COORD97":2539855.7599999998,"ADDRESS":"成功三街８０號","OBJECTID":628887},"geometry":{"x":171169.5400000019,"y":2539855.7600000016}},{"attributes":{"ID":628915,"DIS_CODE":0,"TOWNNAME":"仁德區","LI":"田厝里","LIN":"5鄰","STREET":"田厝三街","SECT":" ","MAREA":" ","LANE":" ","ALLEY":" ","HOUSE_NO":"２８之１號","E_COORD97":172375.48999999999,"N_COORD97":2537449.04,"ADDRESS":"田厝三街２８之１號","OBJECTID":628888},"geometry":{"x":172375.49000000115,"y":2537449.0400000028}},{"attributes":{"ID":628916,"DIS_CODE":0,"TOWNNAME":"仁德區","LI":"仁德里","LIN":"18鄰","STREET":"文華路","SECT":"三段","MAREA":" ","LANE":" ","ALLEY":" ","HOUSE_NO":"５１號","E_COORD97":172118.01999999999,"N_COORD97":2540080.5699999998,"ADDRESS":"文華路三段５１號","OBJECTID":628889},"geometry":{"x":172118.01999999955,"y":2540080.5700000003}},{"attributes":{"ID":628917,"DIS_CODE":0,"TOWNNAME":"仁德區","LI":"成功里","LIN":"13鄰","STREET":"全福路","SECT":" ","MAREA":" ","LANE":" ","ALLEY":" ","HOUSE_NO":"２６號","E_COORD97":170872.57000000001,"N_COORD97":2539302,"ADDRESS":"全福路２６號","OBJECTID":628890},"geometry":{"x":170872.5700000003,"y":2539302.0000000019}},{"attributes":{"ID":628918,"DIS_CODE":0,"TOWNNAME":"北區","LI":"實踐里","LIN":"4鄰","STREET":"長榮路","SECT":"五段","MAREA":" ","LANE":" ","ALLEY":" ","HOUSE_NO":"２７８號六樓之２","E_COORD97":169796.31,"N_COORD97":2545938.4399999999,"ADDRESS":"長榮路五段２７８號六樓之２","OBJECTID":628891},"geometry":{"x":169796.31000000052,"y":2545938.4399999995}},{"attributes":{"ID":628919,"DIS_CODE":0,"TOWNNAME":"北區","LI":"實踐里","LIN":"4鄰","STREET":"長榮路","SECT":"五段","MAREA":" ","LANE":" ","ALLEY":" ","HOUSE_NO":"２７８號六樓之３","E_COORD97":169796.31,"N_COORD97":2545938.4399999999,"ADDRESS":"長榮路五段２７８號六樓之３","OBJECTID":628892},"geometry":{"x":169796.31000000052,"y":2545938.4399999995}},{"attributes":{"ID":628920,"DIS_CODE":0,"TOWNNAME":"北區","LI":"實踐里","LIN":"4鄰","STREET":"長榮路","SECT":"五段","MAREA":" ","LANE":" ","ALLEY":" ","HOUSE_NO":"２７８號六樓之５","E_COORD97":169796.31,"N_COORD97":2545938.4399999999,"ADDRESS":"長榮路五段２７８號六樓之５","OBJECTID":628893},"geometry":{"x":169796.31000000052,"y":2545938.4399999995}},{"attributes":{"ID":628921,"DIS_CODE":0,"TOWNNAME":"北區","LI":"實踐里","LIN":"4鄰","STREET":"長榮路","SECT":"五段","MAREA":" ","LANE":" ","ALLEY":" ","HOUSE_NO":"２７８號七樓之１","E_COORD97":169796.31,"N_COORD97":2545938.4399999999,"ADDRESS":"長榮路五段２７８號七樓之１","OBJECTID":628894},"geometry":{"x":169796.31000000052,"y":2545938.4399999995}},{"attributes":{"ID":628922,"DIS_CODE":0,"TOWNNAME":"北區","LI":"實踐里","LIN":"4鄰","STREET":"長榮路","SECT":"五段","MAREA":" ","LANE":" ","ALLEY":" ","HOUSE_NO":"２７８號七樓之２","E_COORD97":169796.31,"N_COORD97":2545938.4399999999,"ADDRESS":"長榮路五段２７８號七樓之２","OBJECTID":628895},"geometry":{"x":169796.31000000052,"y":2545938.4399999995}},{"attributes":{"ID":628923,"DIS_CODE":0,"TOWNNAME":"北區","LI":"實踐里","LIN":"4鄰","STREET":"長榮路","SECT":"五段","MAREA":" ","LANE":" ","ALLEY":" ","HOUSE_NO":"２７８號七樓之３","E_COORD97":169796.31,"N_COORD97":2545938.4399999999,"ADDRESS":"長榮路五段２７８號七樓之３","OBJECTID":628896},"geometry":{"x":169796.31000000052,"y":2545938.4399999995}},{"attributes":{"ID":628924,"DIS_CODE":0,"TOWNNAME":"北區","LI":"實踐里","LIN":"4鄰","STREET":"長榮路","SECT":"五段","MAREA":" ","LANE":" ","ALLEY":" ","HOUSE_NO":"２７８號七樓之５","E_COORD97":169796.31,"N_COORD97":2545938.4399999999,"ADDRESS":"長榮路五段２７８號七樓之５","OBJECTID":628897},"geometry":{"x":169796.31000000052,"y":2545938.4399999995}},{"attributes":{"ID":628925,"DIS_CODE":0,"TOWNNAME":"北區","LI":"實踐里","LIN":"4鄰","STREET":"長榮路","SECT":"五段","MAREA":" ","LANE":" ","ALLEY":" ","HOUSE_NO":"２７８號八樓之１","E_COORD97":169796.31,"N_COORD97":2545938.4399999999,"ADDRESS":"長榮路五段２７８號八樓之１","OBJECTID":628898},"geometry":{"x":169796.31000000052,"y":2545938.4399999995}},{"attributes":{"ID":628926,"DIS_CODE":0,"TOWNNAME":"北區","LI":"實踐里","LIN":"4鄰","STREET":"長榮路","SECT":"五段","MAREA":" ","LANE":" ","ALLEY":" ","HOUSE_NO":"２７８號八樓之２","E_COORD97":169796.31,"N_COORD97":2545938.4399999999,"ADDRESS":"長榮路五段２７８號八樓之２","OBJECTID":628899},"geometry":{"x":169796.31000000052,"y":2545938.4399999995}},{"attributes":{"ID":628927,"DIS_CODE":0,"TOWNNAME":"北區","LI":"實踐里","LIN":"4鄰","STREET":"長榮路","SECT":"五段","MAREA":" ","LANE":" ","ALLEY":" ","HOUSE_NO":"２７８號八樓之３","E_COORD97":169796.31,"N_COORD97":2545938.4399999999,"ADDRESS":"長榮路五段２７８號八樓之３","OBJECTID":628900},"geometry":{"x":169796.31000000052,"y":2545938.4399999995}},{"attributes":{"ID":628928,"DIS_CODE":0,"TOWNNAME":"北區","LI":"實踐里","LIN":"4鄰","STREET":"長榮路","SECT":"五段","MAREA":" ","LANE":" ","ALLEY":" ","HOUSE_NO":"２７８號八樓之５","E_COORD97":169796.31,"N_COORD97":2545938.4399999999,"ADDRESS":"長榮路五段２７８號八樓之５","OBJECTID":628901},"geometry":{"x":169796.31000000052,"y":2545938.4399999995}},{"attributes":{"ID":628929,"DIS_CODE":0,"TOWNNAME":"北區","LI":"實踐里","LIN":"4鄰","STREET":"長榮路","SECT":"五段","MAREA":" ","LANE":" ","ALLEY":" ","HOUSE_NO":"２７８號九樓之１","E_COORD97":169796.31,"N_COORD97":2545938.4399999999,"ADDRESS":"長榮路五段２７８號九樓之１","OBJECTID":628902},"geometry":{"x":169796.31000000052,"y":2545938.4399999995}},{"attributes":{"ID":628930,"DIS_CODE":0,"TOWNNAME":"北區","LI":"實踐里","LIN":"4鄰","STREET":"長榮路","SECT":"五段","MAREA":" ","LANE":" ","ALLEY":" ","HOUSE_NO":"２７８號九樓之３","E_COORD97":169796.31,"N_COORD97":2545938.4399999999,"ADDRESS":"長榮路五段２７８號九樓之３","OBJECTID":628903},"geometry":{"x":169796.31000000052,"y":2545938.4399999995}},{"attributes":{"ID":628931,"DIS_CODE":0,"TOWNNAME":"北區","LI":"實踐里","LIN":"4鄰","STREET":"長榮路","SECT":"五段","MAREA":" ","LANE":" ","ALLEY":" ","HOUSE_NO":"２７８號九樓之５","E_COORD97":169796.31,"N_COORD97":2545938.4399999999,"ADDRESS":"長榮路五段２７８號九樓之５","OBJECTID":628904},"geometry":{"x":169796.31000000052,"y":2545938.4399999995}},{"attributes":{"ID":628932,"DIS_CODE":0,"TOWNNAME":"北區","LI":"實踐里","LIN":"4鄰","STREET":"長榮路","SECT":"五段","MAREA":" ","LANE":" ","ALLEY":" ","HOUSE_NO":"２７８號十樓之１","E_COORD97":169796.31,"N_COORD97":2545938.4399999999,"ADDRESS":"長榮路五段２７８號十樓之１","OBJECTID":628905},"geometry":{"x":169796.31000000052,"y":2545938.4399999995}},{"attributes":{"ID":628933,"DIS_CODE":0,"TOWNNAME":"北區","LI":"實踐里","LIN":"4鄰","STREET":"長榮路","SECT":"五段","MAREA":" ","LANE":" ","ALLEY":" ","HOUSE_NO":"２７８號十樓之２","E_COORD97":169796.31,"N_COORD97":2545938.4399999999,"ADDRESS":"長榮路五段２７８號十樓之２","OBJECTID":628906},"geometry":{"x":169796.31000000052,"y":2545938.4399999995}},{"attributes":{"ID":628934,"DIS_CODE":0,"TOWNNAME":"北區","LI":"實踐里","LIN":"4鄰","STREET":"長榮路","SECT":"五段","MAREA":" ","LANE":" ","ALLEY":" ","HOUSE_NO":"２７８號十樓之３","E_COORD97":169796.31,"N_COORD97":2545938.4399999999,"ADDRESS":"長榮路五段２７８號十樓之３","OBJECTID":628907},"geometry":{"x":169796.31000000052,"y":2545938.4399999995}},{"attributes":{"ID":628935,"DIS_CODE":0,"TOWNNAME":"北區","LI":"實踐里","LIN":"4鄰","STREET":"長榮路","SECT":"五段","MAREA":" ","LANE":" ","ALLEY":" ","HOUSE_NO":"２７８號十樓之５","E_COORD97":169796.31,"N_COORD97":2545938.4399999999,"ADDRESS":"長榮路五段２７８號十樓之５","OBJECTID":628908},"geometry":{"x":169796.31000000052,"y":2545938.4399999995}},{"attributes":{"ID":628936,"DIS_CODE":0,"TOWNNAME":"北區","LI":"實踐里","LIN":"4鄰","STREET":"長榮路","SECT":"五段","MAREA":" ","LANE":" ","ALLEY":" ","HOUSE_NO":"２７８號十一樓之１","E_COORD97":169796.31,"N_COORD97":2545938.4399999999,"ADDRESS":"長榮路五段２７８號十一樓之１","OBJECTID":628909},"geometry":{"x":169796.31000000052,"y":2545938.4399999995}},{"attributes":{"ID":628937,"DIS_CODE":0,"TOWNNAME":"北區","LI":"實踐里","LIN":"4鄰","STREET":"長榮路","SECT":"五段","MAREA":" ","LANE":" ","ALLEY":" ","HOUSE_NO":"２７８號十一樓之２","E_COORD97":169796.31,"N_COORD97":2545938.4399999999,"ADDRESS":"長榮路五段２７８號十一樓之２","OBJECTID":628910},"geometry":{"x":169796.31000000052,"y":2545938.4399999995}},{"attributes":{"ID":628938,"DIS_CODE":0,"TOWNNAME":"北區","LI":"實踐里","LIN":"4鄰","STREET":"長榮路","SECT":"五段","MAREA":" ","LANE":" ","ALLEY":" ","HOUSE_NO":"２７８號十一樓之３","E_COORD97":169796.31,"N_COORD97":2545938.4399999999,"ADDRESS":"長榮路五段２７８號十一樓之３","OBJECTID":628911},"geometry":{"x":169796.31000000052,"y":2545938.4399999995}},{"attributes":{"ID":628939,"DIS_CODE":0,"TOWNNAME":"北區","LI":"實踐里","LIN":"4鄰","STREET":"長榮路","SECT":"五段","MAREA":" ","LANE":" ","ALLEY":" ","HOUSE_NO":"２７８號十一樓之５","E_COORD97":169796.31,"N_COORD97":2545938.4399999999,"ADDRESS":"長榮路五段２７８號十一樓之５","OBJECTID":628912},"geometry":{"x":169796.31000000052,"y":2545938.4399999995}},{"attributes":{"ID":628940,"DIS_CODE":0,"TOWNNAME":"北區","LI":"實踐里","LIN":"4鄰","STREET":"長榮路","SECT":"五段","MAREA":" ","LANE":" ","ALLEY":" ","HOUSE_NO":"２９０號三樓之１","E_COORD97":169771.29000000001,"N_COORD97":2545938.5600000001,"ADDRESS":"長榮路五段２９０號三樓之１","OBJECTID":628913},"geometry":{"x":169771.29000000097,"y":2545938.5600000005}},{"attributes":{"ID":628941,"DIS_CODE":0,"TOWNNAME":"北區","LI":"實踐里","LIN":"4鄰","STREET":"長榮路","SECT":"五段","MAREA":" ","LANE":" ","ALLEY":" ","HOUSE_NO":"２９０號三樓之２","E_COORD97":169771.29000000001,"N_COORD97":2545938.5600000001,"ADDRESS":"長榮路五段２９０號三樓之２","OBJECTID":628914},"geometry":{"x":169771.29000000097,"y":2545938.5600000005}},{"attributes":{"ID":628942,"DIS_CODE":0,"TOWNNAME":"北區","LI":"實踐里","LIN":"4鄰","STREET":"長榮路","SECT":"五段","MAREA":" ","LANE":" ","ALLEY":" ","HOUSE_NO":"２９０號三樓之３","E_COORD97":169771.29000000001,"N_COORD97":2545938.5600000001,"ADDRESS":"長榮路五段２９０號三樓之３","OBJECTID":628915},"geometry":{"x":169771.29000000097,"y":2545938.5600000005}},{"attributes":{"ID":628943,"DIS_CODE":0,"TOWNNAME":"北區","LI":"實踐里","LIN":"4鄰","STREET":"長榮路","SECT":"五段","MAREA":" ","LANE":" ","ALLEY":" ","HOUSE_NO":"２９０號三樓之５","E_COORD97":169771.29000000001,"N_COORD97":2545938.5600000001,"ADDRESS":"長榮路五段２９０號三樓之５","OBJECTID":628916},"geometry":{"x":169771.29000000097,"y":2545938.5600000005}},{"attributes":{"ID":628944,"DIS_CODE":0,"TOWNNAME":"北區","LI":"實踐里","LIN":"4鄰","STREET":"長榮路","SECT":"五段","MAREA":" ","LANE":" ","ALLEY":" ","HOUSE_NO":"２９０號四樓之１","E_COORD97":169771.29000000001,"N_COORD97":2545938.5600000001,"ADDRESS":"長榮路五段２９０號四樓之１","OBJECTID":628917},"geometry":{"x":169771.29000000097,"y":2545938.5600000005}},{"attributes":{"ID":628945,"DIS_CODE":0,"TOWNNAME":"北區","LI":"實踐里","LIN":"4鄰","STREET":"長榮路","SECT":"五段","MAREA":" ","LANE":" ","ALLEY":" ","HOUSE_NO":"２９０號四樓之２","E_COORD97":169771.29000000001,"N_COORD97":2545938.5600000001,"ADDRESS":"長榮路五段２９０號四樓之２","OBJECTID":628918},"geometry":{"x":169771.29000000097,"y":2545938.5600000005}},{"attributes":{"ID":628946,"DIS_CODE":0,"TOWNNAME":"仁德區","LI":"田厝里","LIN":"5鄰","STREET":"田厝三街","SECT":" ","MAREA":" ","LANE":" ","ALLEY":" ","HOUSE_NO":"４３號","E_COORD97":172458.85000000001,"N_COORD97":2537397.25,"ADDRESS":"田厝三街４３號","OBJECTID":628919},"geometry":{"x":172458.85000000056,"y":2537397.25}},{"attributes":{"ID":628947,"DIS_CODE":0,"TOWNNAME":"仁德區","LI":"成功里","LIN":"26鄰","STREET":"保華路","SECT":" ","MAREA":" ","LANE":" ","ALLEY":" ","HOUSE_NO":"９２號","E_COORD97":170500.5,"N_COORD97":2539983,"ADDRESS":"保華路９２號","OBJECTID":628920},"geometry":{"x":170500.50000000093,"y":2539983.0000000037}},{"attributes":{"ID":628948,"DIS_CODE":0,"TOWNNAME":"仁德區","LI":"仁義里","LIN":"4鄰","STREET":"仁義三街","SECT":" ","MAREA":" ","LANE":" ","ALLEY":" ","HOUSE_NO":"１８０號","E_COORD97":173794.81,"N_COORD97":2541114.5099999998,"ADDRESS":"仁義三街１８０號","OBJECTID":628921},"geometry":{"x":173794.81000000145,"y":2541114.5099999998}},{"attributes":{"ID":628949,"DIS_CODE":0,"TOWNNAME":"仁德區","LI":"仁義里","LIN":"4鄰","STREET":"仁義三街","SECT":" ","MAREA":" ","LANE":" ","ALLEY":" ","HOUSE_NO":"２０２號","E_COORD97":173844.42000000001,"N_COORD97":2541112.5099999998,"ADDRESS":"仁義三街２０２號","OBJECTID":628922},"geometry":{"x":173844.41999999993,"y":2541112.5100000016}},{"attributes":{"ID":628950,"DIS_CODE":0,"TOWNNAME":"仁德區","LI":"仁德里","LIN":"4鄰","STREET":"仁中六街","SECT":" ","MAREA":" ","LANE":" ","ALLEY":" ","HOUSE_NO":"１１３號","E_COORD97":173366.20999999999,"N_COORD97":2540451.2400000002,"ADDRESS":"仁中六街１１３號","OBJECTID":628923},"geometry":{"x":173366.20999999996,"y":2540451.2400000002}},{"attributes":{"ID":628951,"DIS_CODE":0,"TOWNNAME":"北區","LI":"實踐里","LIN":"4鄰","STREET":"長榮路","SECT":"五段","MAREA":" ","LANE":" ","ALLEY":" ","HOUSE_NO":"２９０號四樓之３","E_COORD97":169771.29000000001,"N_COORD97":2545938.5600000001,"ADDRESS":"長榮路五段２９０號四樓之３","OBJECTID":628924},"geometry":{"x":169771.29000000097,"y":2545938.5600000005}},{"attributes":{"ID":628952,"DIS_CODE":0,"TOWNNAME":"北區","LI":"實踐里","LIN":"4鄰","STREET":"長榮路","SECT":"五段","MAREA":" ","LANE":" ","ALLEY":" ","HOUSE_NO":"２９０號四樓之５","E_COORD97":169771.29000000001,"N_COORD97":2545938.5600000001,"ADDRESS":"長榮路五段２９０號四樓之５","OBJECTID":628925},"geometry":{"x":169771.29000000097,"y":2545938.5600000005}},{"attributes":{"ID":628953,"DIS_CODE":0,"TOWNNAME":"北區","LI":"實踐里","LIN":"4鄰","STREET":"長榮路","SECT":"五段","MAREA":" ","LANE":" ","ALLEY":" ","HOUSE_NO":"２９０號五樓之１","E_COORD97":169771.29000000001,"N_COORD97":2545938.5600000001,"ADDRESS":"長榮路五段２９０號五樓之１","OBJECTID":628926},"geometry":{"x":169771.29000000097,"y":2545938.5600000005}},{"attributes":{"ID":628954,"DIS_CODE":0,"TOWNNAME":"北區","LI":"實踐里","LIN":"4鄰","STREET":"長榮路","SECT":"五段","MAREA":" ","LANE":" ","ALLEY":" ","HOUSE_NO":"２９０號五樓之２","E_COORD97":169771.29000000001,"N_COORD97":2545938.5600000001,"ADDRESS":"長榮路五段２９０號五樓之２","OBJECTID":628927},"geometry":{"x":169771.29000000097,"y":2545938.5600000005}},{"attributes":{"ID":628955,"DIS_CODE":0,"TOWNNAME":"北區","LI":"實踐里","LIN":"4鄰","STREET":"長榮路","SECT":"五段","MAREA":" ","LANE":" ","ALLEY":" ","HOUSE_NO":"２９０號五樓之３","E_COORD97":169771.29000000001,"N_COORD97":2545938.5600000001,"ADDRESS":"長榮路五段２９０號五樓之３","OBJECTID":628928},"geometry":{"x":169771.29000000097,"y":2545938.5600000005}},{"attributes":{"ID":628956,"DIS_CODE":0,"TOWNNAME":"北區","LI":"實踐里","LIN":"4鄰","STREET":"長榮路","SECT":"五段","MAREA":" ","LANE":" ","ALLEY":" ","HOUSE_NO":"２９０號五樓之５","E_COORD97":169771.29000000001,"N_COORD97":2545938.5600000001,"ADDRESS":"長榮路五段２９０號五樓之５","OBJECTID":628929},"geometry":{"x":169771.29000000097,"y":2545938.5600000005}},{"attributes":{"ID":628957,"DIS_CODE":0,"TOWNNAME":"北區","LI":"實踐里","LIN":"4鄰","STREET":"長榮路","SECT":"五段","MAREA":" ","LANE":" ","ALLEY":" ","HOUSE_NO":"２９０號六樓之１","E_COORD97":169771.29000000001,"N_COORD97":2545938.5600000001,"ADDRESS":"長榮路五段２９０號六樓之１","OBJECTID":628930},"geometry":{"x":169771.29000000097,"y":2545938.5600000005}},{"attributes":{"ID":628958,"DIS_CODE":0,"TOWNNAME":"北區","LI":"實踐里","LIN":"4鄰","STREET":"長榮路","SECT":"五段","MAREA":" ","LANE":" ","ALLEY":" ","HOUSE_NO":"２９０號六樓之２","E_COORD97":169771.29000000001,"N_COORD97":2545938.5600000001,"ADDRESS":"長榮路五段２９０號六樓之２","OBJECTID":628931},"geometry":{"x":169771.29000000097,"y":2545938.5600000005}},{"attributes":{"ID":628959,"DIS_CODE":0,"TOWNNAME":"北區","LI":"實踐里","LIN":"4鄰","STREET":"長榮路","SECT":"五段","MAREA":" ","LANE":" ","ALLEY":" ","HOUSE_NO":"２９０號六樓之３","E_COORD97":169771.29000000001,"N_COORD97":2545938.5600000001,"ADDRESS":"長榮路五段２９０號六樓之３","OBJECTID":628932},"geometry":{"x":169771.29000000097,"y":2545938.5600000005}},{"attributes":{"ID":628960,"DIS_CODE":0,"TOWNNAME":"北區","LI":"實踐里","LIN":"4鄰","STREET":"長榮路","SECT":"五段","MAREA":" ","LANE":" ","ALLEY":" ","HOUSE_NO":"２９０號六樓之５","E_COORD97":169771.29000000001,"N_COORD97":2545938.5600000001,"ADDRESS":"長榮路五段２９０號六樓之５","OBJECTID":628933},"geometry":{"x":169771.29000000097,"y":2545938.5600000005}},{"attributes":{"ID":628961,"DIS_CODE":0,"TOWNNAME":"北區","LI":"實踐里","LIN":"4鄰","STREET":"長榮路","SECT":"五段","MAREA":" ","LANE":" ","ALLEY":" ","HOUSE_NO":"２９０號七樓之１","E_COORD97":169771.29000000001,"N_COORD97":2545938.5600000001,"ADDRESS":"長榮路五段２９０號七樓之１","OBJECTID":628934},"geometry":{"x":169771.29000000097,"y":2545938.5600000005}},{"attributes":{"ID":628962,"DIS_CODE":0,"TOWNNAME":"北區","LI":"實踐里","LIN":"4鄰","STREET":"長榮路","SECT":"五段","MAREA":" ","LANE":" ","ALLEY":" ","HOUSE_NO":"２９０號七樓之２","E_COORD97":169771.29000000001,"N_COORD97":2545938.5600000001,"ADDRESS":"長榮路五段２９０號七樓之２","OBJECTID":628935},"geometry":{"x":169771.29000000097,"y":2545938.5600000005}},{"attributes":{"ID":628963,"DIS_CODE":0,"TOWNNAME":"北區","LI":"實踐里","LIN":"4鄰","STREET":"長榮路","SECT":"五段","MAREA":" ","LANE":" ","ALLEY":" ","HOUSE_NO":"２９０號七樓之３","E_COORD97":169771.29000000001,"N_COORD97":2545938.5600000001,"ADDRESS":"長榮路五段２９０號七樓之３","OBJECTID":628936},"geometry":{"x":169771.29000000097,"y":2545938.5600000005}},{"attributes":{"ID":628964,"DIS_CODE":0,"TOWNNAME":"北區","LI":"實踐里","LIN":"4鄰","STREET":"長榮路","SECT":"五段","MAREA":" ","LANE":" ","ALLEY":" ","HOUSE_NO":"２９０號七樓之５","E_COORD97":169771.29000000001,"N_COORD97":2545938.5600000001,"ADDRESS":"長榮路五段２９０號七樓之５","OBJECTID":628937},"geometry":{"x":169771.29000000097,"y":2545938.5600000005}},{"attributes":{"ID":628965,"DIS_CODE":0,"TOWNNAME":"北區","LI":"實踐里","LIN":"4鄰","STREET":"長榮路","SECT":"五段","MAREA":" ","LANE":" ","ALLEY":" ","HOUSE_NO":"２９０號八樓之１","E_COORD97":169771.29000000001,"N_COORD97":2545938.5600000001,"ADDRESS":"長榮路五段２９０號八樓之１","OBJECTID":628938},"geometry":{"x":169771.29000000097,"y":2545938.5600000005}},{"attributes":{"ID":628966,"DIS_CODE":0,"TOWNNAME":"北區","LI":"實踐里","LIN":"4鄰","STREET":"長榮路","SECT":"五段","MAREA":" ","LANE":" ","ALLEY":" ","HOUSE_NO":"２９０號十一樓之３","E_COORD97":169771.29000000001,"N_COORD97":2545938.5600000001,"ADDRESS":"長榮路五段２９０號十一樓之３","OBJECTID":628939},"geometry":{"x":169771.29000000097,"y":2545938.5600000005}},{"attributes":{"ID":628967,"DIS_CODE":0,"TOWNNAME":"北區","LI":"實踐里","LIN":"4鄰","STREET":"長榮路","SECT":"五段","MAREA":" ","LANE":" ","ALLEY":" ","HOUSE_NO":"２９０號十一樓之５","E_COORD97":169771.29000000001,"N_COORD97":2545938.5600000001,"ADDRESS":"長榮路五段２９０號十一樓之５","OBJECTID":628940},"geometry":{"x":169771.29000000097,"y":2545938.5600000005}},{"attributes":{"ID":628968,"DIS_CODE":0,"TOWNNAME":"北區","LI":"實踐里","LIN":"4鄰","STREET":"長榮路","SECT":"五段","MAREA":" ","LANE":" ","ALLEY":" ","HOUSE_NO":"２９０號十二樓之１","E_COORD97":169771.29000000001,"N_COORD97":2545938.5600000001,"ADDRESS":"長榮路五段２９０號十二樓之１","OBJECTID":628941},"geometry":{"x":169771.29000000097,"y":2545938.5600000005}},{"attributes":{"ID":628969,"DIS_CODE":0,"TOWNNAME":"北區","LI":"實踐里","LIN":"4鄰","STREET":"長榮路","SECT":"五段","MAREA":" ","LANE":" ","ALLEY":" ","HOUSE_NO":"２９０號十二樓之２","E_COORD97":169771.29000000001,"N_COORD97":2545938.5600000001,"ADDRESS":"長榮路五段２９０號十二樓之２","OBJECTID":628942},"geometry":{"x":169771.29000000097,"y":2545938.5600000005}},{"attributes":{"ID":628970,"DIS_CODE":0,"TOWNNAME":"北區","LI":"實踐里","LIN":"4鄰","STREET":"長榮路","SECT":"五段","MAREA":" ","LANE":" ","ALLEY":" ","HOUSE_NO":"２９０號十二樓之３","E_COORD97":169771.29000000001,"N_COORD97":2545938.5600000001,"ADDRESS":"長榮路五段２９０號十二樓之３","OBJECTID":628943},"geometry":{"x":169771.29000000097,"y":2545938.5600000005}},{"attributes":{"ID":628971,"DIS_CODE":0,"TOWNNAME":"北區","LI":"實踐里","LIN":"4鄰","STREET":"長榮路","SECT":"五段","MAREA":" ","LANE":" ","ALLEY":" ","HOUSE_NO":"２９０號十二樓之５","E_COORD97":169771.29000000001,"N_COORD97":2545938.5600000001,"ADDRESS":"長榮路五段２９０號十二樓之５","OBJECTID":628944},"geometry":{"x":169771.29000000097,"y":2545938.5600000005}},{"attributes":{"ID":628972,"DIS_CODE":0,"TOWNNAME":"安平區","LI":"平安里","LIN":"4鄰","STREET":"安平路","SECT":" ","MAREA":" ","LANE":" ","ALLEY":" ","HOUSE_NO":"１２６號一樓之４","E_COORD97":166271.01999999999,"N_COORD97":2544359.0299999998,"ADDRESS":"安平路１２６號一樓之４","OBJECTID":628945},"geometry":{"x":166271.01999999955,"y":2544359.0300000031}},{"attributes":{"ID":628973,"DIS_CODE":0,"TOWNNAME":"北區","LI":"成功里","LIN":"4鄰","STREET":"北成路","SECT":" ","MAREA":" ","LANE":" ","ALLEY":" ","HOUSE_NO":"９號","E_COORD97":169171.54999999999,"N_COORD97":2546528.6600000001,"ADDRESS":"北成路９號","OBJECTID":628946},"geometry":{"x":169171.54999999981,"y":2546528.6599999983}},{"attributes":{"ID":628974,"DIS_CODE":0,"TOWNNAME":"安平區","LI":"平安里","LIN":"4鄰","STREET":"安平路","SECT":" ","MAREA":" ","LANE":" ","ALLEY":" ","HOUSE_NO":"１２６號二樓之１","E_COORD97":166271.01999999999,"N_COORD97":2544359.0299999998,"ADDRESS":"安平路１２６號二樓之１","OBJECTID":628947},"geometry":{"x":166271.01999999955,"y":2544359.0300000031}},{"attributes":{"ID":628975,"DIS_CODE":0,"TOWNNAME":"仁德區","LI":"太子里","LIN":"39鄰","STREET":"太子路","SECT":" ","MAREA":" ","LANE":" ","ALLEY":" ","HOUSE_NO":"１０８號","E_COORD97":174838,"N_COORD97":2543542.2599999998,"ADDRESS":"太子路１０８號","OBJECTID":628948},"geometry":{"x":174837.99999999907,"y":2543542.2600000016}},{"attributes":{"ID":628976,"DIS_CODE":0,"TOWNNAME":"仁德區","LI":"太子里","LIN":"39鄰","STREET":"太子路","SECT":" ","MAREA":" ","LANE":" ","ALLEY":" ","HOUSE_NO":"１１８號","E_COORD97":174752.51000000001,"N_COORD97":2543561.25,"ADDRESS":"太子路１１８號","OBJECTID":628949},"geometry":{"x":174752.50999999978,"y":2543561.2499999981}},{"attributes":{"ID":628977,"DIS_CODE":0,"TOWNNAME":"仁德區","LI":"仁義里","LIN":"32鄰","STREET":"正義路","SECT":" ","MAREA":" ","LANE":" ","ALLEY":" ","HOUSE_NO":"６９號","E_COORD97":173521.45999999999,"N_COORD97":2541452.27,"ADDRESS":"正義路６９號","OBJECTID":628950},"geometry":{"x":173521.46000000089,"y":2541452.2700000033}},{"attributes":{"ID":628978,"DIS_CODE":0,"TOWNNAME":"仁德區","LI":"仁義里","LIN":"32鄰","STREET":"正義路","SECT":" ","MAREA":" ","LANE":" ","ALLEY":" ","HOUSE_NO":"８３號","E_COORD97":173544.06,"N_COORD97":2541456.27,"ADDRESS":"正義路８３號","OBJECTID":628951},"geometry":{"x":173544.06000000052,"y":2541456.2700000014}},{"attributes":{"ID":628979,"DIS_CODE":0,"TOWNNAME":"安平區","LI":"平安里","LIN":"4鄰","STREET":"安平路","SECT":" ","MAREA":" ","LANE":" ","ALLEY":" ","HOUSE_NO":"１２６號二樓之２","E_COORD97":166271.01999999999,"N_COORD97":2544359.0299999998,"ADDRESS":"安平路１２６號二樓之２","OBJECTID":628952},"geometry":{"x":166271.01999999955,"y":2544359.0300000031}},{"attributes":{"ID":628980,"DIS_CODE":0,"TOWNNAME":"安平區","LI":"平安里","LIN":"4鄰","STREET":"安平路","SECT":" ","MAREA":" ","LANE":" ","ALLEY":" ","HOUSE_NO":"１２６號二樓之３","E_COORD97":166271.01999999999,"N_COORD97":2544359.0299999998,"ADDRESS":"安平路１２６號二樓之３","OBJECTID":628953},"geometry":{"x":166271.01999999955,"y":2544359.0300000031}},{"attributes":{"ID":628981,"DIS_CODE":0,"TOWNNAME":"安平區","LI":"平安里","LIN":"4鄰","STREET":"安平路","SECT":" ","MAREA":" ","LANE":" ","ALLEY":" ","HOUSE_NO":"１２６號二樓之４","E_COORD97":166271.01999999999,"N_COORD97":2544359.0299999998,"ADDRESS":"安平路１２６號二樓之４","OBJECTID":628954},"geometry":{"x":166271.01999999955,"y":2544359.0300000031}},{"attributes":{"ID":628982,"DIS_CODE":0,"TOWNNAME":"安平區","LI":"平安里","LIN":"4鄰","STREET":"安平路","SECT":" ","MAREA":" ","LANE":" ","ALLEY":" ","HOUSE_NO":"１２６號二樓之５","E_COORD97":166271.01999999999,"N_COORD97":2544359.0299999998,"ADDRESS":"安平路１２６號二樓之５","OBJECTID":628955},"geometry":{"x":166271.01999999955,"y":2544359.0300000031}},{"attributes":{"ID":628983,"DIS_CODE":0,"TOWNNAME":"安平區","LI":"平安里","LIN":"4鄰","STREET":"安平路","SECT":" ","MAREA":" ","LANE":" ","ALLEY":" ","HOUSE_NO":"１２６號三樓之１","E_COORD97":166271.01999999999,"N_COORD97":2544359.0299999998,"ADDRESS":"安平路１２６號三樓之１","OBJECTID":628956},"geometry":{"x":166271.01999999955,"y":2544359.0300000031}},{"attributes":{"ID":628984,"DIS_CODE":0,"TOWNNAME":"安平區","LI":"平安里","LIN":"4鄰","STREET":"安平路","SECT":" ","MAREA":" ","LANE":" ","ALLEY":" ","HOUSE_NO":"１２６號三樓之２","E_COORD97":166271.01999999999,"N_COORD97":2544359.0299999998,"ADDRESS":"安平路１２６號三樓之２","OBJECTID":628957},"geometry":{"x":166271.01999999955,"y":2544359.0300000031}},{"attributes":{"ID":628985,"DIS_CODE":0,"TOWNNAME":"安平區","LI":"平安里","LIN":"4鄰","STREET":"安平路","SECT":" ","MAREA":" ","LANE":" ","ALLEY":" ","HOUSE_NO":"１２６號三樓之３","E_COORD97":166271.01999999999,"N_COORD97":2544359.0299999998,"ADDRESS":"安平路１２６號三樓之３","OBJECTID":628958},"geometry":{"x":166271.01999999955,"y":2544359.0300000031}},{"attributes":{"ID":628986,"DIS_CODE":0,"TOWNNAME":"安平區","LI":"平安里","LIN":"4鄰","STREET":"安平路","SECT":" ","MAREA":" ","LANE":" ","ALLEY":" ","HOUSE_NO":"１２６號三樓之４","E_COORD97":166271.01999999999,"N_COORD97":2544359.0299999998,"ADDRESS":"安平路１２６號三樓之４","OBJECTID":628959},"geometry":{"x":166271.01999999955,"y":2544359.0300000031}},{"attributes":{"ID":628987,"DIS_CODE":0,"TOWNNAME":"安平區","LI":"平安里","LIN":"4鄰","STREET":"安平路","SECT":" ","MAREA":" ","LANE":" ","ALLEY":" ","HOUSE_NO":"１２６號三樓之５","E_COORD97":166271.01999999999,"N_COORD97":2544359.0299999998,"ADDRESS":"安平路１２６號三樓之５","OBJECTID":628960},"geometry":{"x":166271.01999999955,"y":2544359.0300000031}},{"attributes":{"ID":628988,"DIS_CODE":0,"TOWNNAME":"安平區","LI":"平安里","LIN":"4鄰","STREET":"安平路","SECT":" ","MAREA":" ","LANE":" ","ALLEY":" ","HOUSE_NO":"１２６號三樓之６","E_COORD97":166271.01999999999,"N_COORD97":2544359.0299999998,"ADDRESS":"安平路１２６號三樓之６","OBJECTID":628961},"geometry":{"x":166271.01999999955,"y":2544359.0300000031}},{"attributes":{"ID":628989,"DIS_CODE":0,"TOWNNAME":"安平區","LI":"平安里","LIN":"4鄰","STREET":"安平路","SECT":" ","MAREA":" ","LANE":" ","ALLEY":" ","HOUSE_NO":"１２６號四樓之１","E_COORD97":166271.01999999999,"N_COORD97":2544359.0299999998,"ADDRESS":"安平路１２６號四樓之１","OBJECTID":628962},"geometry":{"x":166271.01999999955,"y":2544359.0300000031}},{"attributes":{"ID":628990,"DIS_CODE":0,"TOWNNAME":"安平區","LI":"平安里","LIN":"4鄰","STREET":"安平路","SECT":" ","MAREA":" ","LANE":" ","ALLEY":" ","HOUSE_NO":"１２６號四樓之２","E_COORD97":166271.01999999999,"N_COORD97":2544359.0299999998,"ADDRESS":"安平路１２６號四樓之２","OBJECTID":628963},"geometry":{"x":166271.01999999955,"y":2544359.0300000031}},{"attributes":{"ID":628991,"DIS_CODE":0,"TOWNNAME":"安平區","LI":"平安里","LIN":"4鄰","STREET":"安平路","SECT":" ","MAREA":" ","LANE":" ","ALLEY":" ","HOUSE_NO":"１２６號四樓之３","E_COORD97":166271.01999999999,"N_COORD97":2544359.0299999998,"ADDRESS":"安平路１２６號四樓之３","OBJECTID":628964},"geometry":{"x":166271.01999999955,"y":2544359.0300000031}},{"attributes":{"ID":628992,"DIS_CODE":0,"TOWNNAME":"安平區","LI":"平安里","LIN":"4鄰","STREET":"安平路","SECT":" ","MAREA":" ","LANE":" ","ALLEY":" ","HOUSE_NO":"１２６號四樓之４","E_COORD97":166271.01999999999,"N_COORD97":2544359.0299999998,"ADDRESS":"安平路１２６號四樓之４","OBJECTID":628965},"geometry":{"x":166271.01999999955,"y":2544359.0300000031}},{"attributes":{"ID":628993,"DIS_CODE":0,"TOWNNAME":"安平區","LI":"平安里","LIN":"4鄰","STREET":"安平路","SECT":" ","MAREA":" ","LANE":" ","ALLEY":" ","HOUSE_NO":"１２６號四樓之５","E_COORD97":166271.01999999999,"N_COORD97":2544359.0299999998,"ADDRESS":"安平路１２６號四樓之５","OBJECTID":628966},"geometry":{"x":166271.01999999955,"y":2544359.0300000031}},{"attributes":{"ID":628994,"DIS_CODE":0,"TOWNNAME":"安平區","LI":"平安里","LIN":"4鄰","STREET":"安平路","SECT":" ","MAREA":" ","LANE":" ","ALLEY":" ","HOUSE_NO":"１７０號二樓","E_COORD97":166137.20000000001,"N_COORD97":2544351.5,"ADDRESS":"安平路１７０號二樓","OBJECTID":628967},"geometry":{"x":166137.20000000205,"y":2544351.5}},{"attributes":{"ID":628995,"DIS_CODE":0,"TOWNNAME":"安平區","LI":"平安里","LIN":"4鄰","STREET":"安平路","SECT":" ","MAREA":" ","LANE":" ","ALLEY":" ","HOUSE_NO":"１７０號三樓","E_COORD97":166137.20000000001,"N_COORD97":2544351.5,"ADDRESS":"安平路１７０號三樓","OBJECTID":628968},"geometry":{"x":166137.20000000205,"y":2544351.5}},{"attributes":{"ID":628996,"DIS_CODE":0,"TOWNNAME":"安平區","LI":"平安里","LIN":"4鄰","STREET":"安平路","SECT":" ","MAREA":" ","LANE":" ","ALLEY":" ","HOUSE_NO":"１７０號五樓","E_COORD97":166137.20000000001,"N_COORD97":2544351.5,"ADDRESS":"安平路１７０號五樓","OBJECTID":628969},"geometry":{"x":166137.20000000205,"y":2544351.5}},{"attributes":{"ID":628997,"DIS_CODE":0,"TOWNNAME":"安平區","LI":"平安里","LIN":"4鄰","STREET":"安平路","SECT":" ","MAREA":" ","LANE":" ","ALLEY":" ","HOUSE_NO":"１７０號四樓之１","E_COORD97":166137.20000000001,"N_COORD97":2544351.5,"ADDRESS":"安平路１７０號四樓之１","OBJECTID":628970},"geometry":{"x":166137.20000000205,"y":2544351.5}},{"attributes":{"ID":628998,"DIS_CODE":0,"TOWNNAME":"安平區","LI":"平安里","LIN":"4鄰","STREET":"安平路","SECT":" ","MAREA":" ","LANE":" ","ALLEY":" ","HOUSE_NO":"１７０號四樓之１０","E_COORD97":166137.20000000001,"N_COORD97":2544351.5,"ADDRESS":"安平路１７０號四樓之１０","OBJECTID":628971},"geometry":{"x":166137.20000000205,"y":2544351.5}},{"attributes":{"ID":628999,"DIS_CODE":0,"TOWNNAME":"安平區","LI":"平安里","LIN":"4鄰","STREET":"安平路","SECT":" ","MAREA":" ","LANE":" ","ALLEY":" ","HOUSE_NO":"１７０號四樓之２","E_COORD97":166137.20000000001,"N_COORD97":2544351.5,"ADDRESS":"安平路１７０號四樓之２","OBJECTID":628972},"geometry":{"x":166137.20000000205,"y":2544351.5}},{"attributes":{"ID":629000,"DIS_CODE":0,"TOWNNAME":"安平區","LI":"平安里","LIN":"4鄰","STREET":"安平路","SECT":" ","MAREA":" ","LANE":" ","ALLEY":" ","HOUSE_NO":"１７０號四樓之３","E_COORD97":166137.20000000001,"N_COORD97":2544351.5,"ADDRESS":"安平路１７０號四樓之３","OBJECTID":628973},"geometry":{"x":166137.20000000205,"y":2544351.5}},{"attributes":{"ID":629001,"DIS_CODE":0,"TOWNNAME":"安平區","LI":"平安里","LIN":"4鄰","STREET":"安平路","SECT":" ","MAREA":" ","LANE":" ","ALLEY":" ","HOUSE_NO":"１７０號四樓之４","E_COORD97":166137.20000000001,"N_COORD97":2544351.5,"ADDRESS":"安平路１７０號四樓之４","OBJECTID":628974},"geometry":{"x":166137.20000000205,"y":2544351.5}},{"attributes":{"ID":629002,"DIS_CODE":0,"TOWNNAME":"安平區","LI":"平安里","LIN":"4鄰","STREET":"安平路","SECT":" ","MAREA":" ","LANE":" ","ALLEY":" ","HOUSE_NO":"１７０號四樓之５","E_COORD97":166137.20000000001,"N_COORD97":2544351.5,"ADDRESS":"安平路１７０號四樓之５","OBJECTID":628975},"geometry":{"x":166137.20000000205,"y":2544351.5}},{"attributes":{"ID":629003,"DIS_CODE":0,"TOWNNAME":"安平區","LI":"平安里","LIN":"4鄰","STREET":"安平路","SECT":" ","MAREA":" ","LANE":" ","ALLEY":" ","HOUSE_NO":"１７０號四樓之６","E_COORD97":166137.20000000001,"N_COORD97":2544351.5,"ADDRESS":"安平路１７０號四樓之６","OBJECTID":628976},"geometry":{"x":166137.20000000205,"y":2544351.5}},{"attributes":{"ID":629004,"DIS_CODE":0,"TOWNNAME":"安平區","LI":"平安里","LIN":"4鄰","STREET":"安平路","SECT":" ","MAREA":" ","LANE":" ","ALLEY":" ","HOUSE_NO":"１７０號四樓之７","E_COORD97":166137.20000000001,"N_COORD97":2544351.5,"ADDRESS":"安平路１７０號四樓之７","OBJECTID":628977},"geometry":{"x":166137.20000000205,"y":2544351.5}},{"attributes":{"ID":629005,"DIS_CODE":0,"TOWNNAME":"安平區","LI":"平安里","LIN":"4鄰","STREET":"安平路","SECT":" ","MAREA":" ","LANE":" ","ALLEY":" ","HOUSE_NO":"１７０號四樓之８","E_COORD97":166137.20000000001,"N_COORD97":2544351.5,"ADDRESS":"安平路１７０號四樓之８","OBJECTID":628978},"geometry":{"x":166137.20000000205,"y":2544351.5}},{"attributes":{"ID":629006,"DIS_CODE":0,"TOWNNAME":"安平區","LI":"平安里","LIN":"4鄰","STREET":"安平路","SECT":" ","MAREA":" ","LANE":" ","ALLEY":" ","HOUSE_NO":"１７０號四樓之９","E_COORD97":166137.20000000001,"N_COORD97":2544351.5,"ADDRESS":"安平路１７０號四樓之９","OBJECTID":628979},"geometry":{"x":166137.20000000205,"y":2544351.5}},{"attributes":{"ID":629007,"DIS_CODE":0,"TOWNNAME":"仁德區","LI":"仁德里","LIN":"39鄰","STREET":"文華路","SECT":"三段","MAREA":" ","LANE":" ","ALLEY":" ","HOUSE_NO":"５７０號","E_COORD97":172542.94,"N_COORD97":2541770.5800000001,"ADDRESS":"文華路三段５７０號","OBJECTID":628980},"geometry":{"x":172542.94000000041,"y":2541770.5800000019}},{"attributes":{"ID":629008,"DIS_CODE":0,"TOWNNAME":"仁德區","LI":"仁義里","LIN":"40鄰","STREET":"仁義五街","SECT":" ","MAREA":" ","LANE":" ","ALLEY":" ","HOUSE_NO":"３９號","E_COORD97":173588.64000000001,"N_COORD97":2540453.7599999998,"ADDRESS":"仁義五街３９號","OBJECTID":628981},"geometry":{"x":173588.63999999966,"y":2540453.7600000016}},{"attributes":{"ID":629009,"DIS_CODE":0,"TOWNNAME":"仁德區","LI":"仁德里","LIN":"4鄰","STREET":"仁中六街","SECT":" ","MAREA":" ","LANE":" ","ALLEY":" ","HOUSE_NO":"１３５號","E_COORD97":173307.26000000001,"N_COORD97":2540452.7400000002,"ADDRESS":"仁中六街１３５號","OBJECTID":628982},"geometry":{"x":173307.26000000071,"y":2540452.7400000039}},{"attributes":{"ID":629010,"DIS_CODE":0,"TOWNNAME":"仁德區","LI":"成功里","LIN":"5鄰","STREET":"成功三街","SECT":" ","MAREA":" ","LANE":" ","ALLEY":" ","HOUSE_NO":"５０號","E_COORD97":171165.92000000001,"N_COORD97":2539916.27,"ADDRESS":"成功三街５０號","OBJECTID":628983},"geometry":{"x":171165.92000000086,"y":2539916.2700000033}},{"attributes":{"ID":629011,"DIS_CODE":0,"TOWNNAME":"仁德區","LI":"保安里","LIN":"20鄰","STREET":"文賢路","SECT":"一段","MAREA":" ","LANE":" ","ALLEY":" ","HOUSE_NO":"５７０號","E_COORD97":171117.81,"N_COORD97":2536867.8199999998,"ADDRESS":"文賢路一段５７０號","OBJECTID":628984},"geometry":{"x":171117.80999999959,"y":2536867.8200000003}},{"attributes":{"ID":629012,"DIS_CODE":0,"TOWNNAME":"仁德區","LI":"仁德里","LIN":"39鄰","STREET":"文華路","SECT":"三段","MAREA":" ","LANE":" ","ALLEY":" ","HOUSE_NO":"５９３號","E_COORD97":172498.76999999999,"N_COORD97":2541858.5800000001,"ADDRESS":"文華路三段５９３號","OBJECTID":628985},"geometry":{"x":172498.77000000048,"y":2541858.5800000019}},{"attributes":{"ID":629013,"DIS_CODE":0,"TOWNNAME":"仁德區","LI":"仁德里","LIN":"39鄰","STREET":"文山路","SECT":" ","MAREA":" ","LANE":" ","ALLEY":" ","HOUSE_NO":"１４６號","E_COORD97":172729.5,"N_COORD97":2541823.5699999998,"ADDRESS":"文山路１４６號","OBJECTID":628986},"geometry":{"x":172729.50000000093,"y":2541823.5699999984}},{"attributes":{"ID":629014,"DIS_CODE":0,"TOWNNAME":"仁德區","LI":"成功里","LIN":"4鄰","STREET":"成功三街","SECT":" ","MAREA":" ","LANE":" ","ALLEY":" ","HOUSE_NO":"８９號","E_COORD97":171182.60000000001,"N_COORD97":2539810.27,"ADDRESS":"成功三街８９號","OBJECTID":628987},"geometry":{"x":171182.60000000056,"y":2539810.2699999996}},{"attributes":{"ID":629015,"DIS_CODE":0,"TOWNNAME":"仁德區","LI":"仁德里","LIN":"4鄰","STREET":"中正路","SECT":"二段","MAREA":" ","LANE":" ","ALLEY":" ","HOUSE_NO":"８３９號","E_COORD97":173435.98999999999,"N_COORD97":2540499.77,"ADDRESS":"中正路二段８３９號","OBJECTID":628988},"geometry":{"x":173435.99000000022,"y":2540499.7700000014}},{"attributes":{"ID":629016,"DIS_CODE":0,"TOWNNAME":"仁德區","LI":"仁德里","LIN":"4鄰","STREET":"中正路","SECT":"二段","MAREA":" ","LANE":" ","ALLEY":" ","HOUSE_NO":"９０３號","E_COORD97":173421.98000000001,"N_COORD97":2540650.7799999998,"ADDRESS":"中正路二段９０３號","OBJECTID":628989},"geometry":{"x":173421.98000000138,"y":2540650.7799999993}},{"attributes":{"ID":629017,"DIS_CODE":0,"TOWNNAME":"中西區","LI":"保安里","LIN":"4鄰","STREET":"保安路","SECT":" ","MAREA":" ","LANE":" ","ALLEY":" ","HOUSE_NO":"５９號","E_COORD97":167603.60999999999,"N_COORD97":2543427.77,"ADDRESS":"保安路５９號","OBJECTID":628990},"geometry":{"x":167603.61000000034,"y":2543427.7699999996}},{"attributes":{"ID":629018,"DIS_CODE":0,"TOWNNAME":"中西區","LI":"保安里","LIN":"4鄰","STREET":"保安路","SECT":" ","MAREA":" ","LANE":" ","ALLEY":" ","HOUSE_NO":"６１號","E_COORD97":167598.37,"N_COORD97":2543427.77,"ADDRESS":"保安路６１號","OBJECTID":628991},"geometry":{"x":167598.37000000011,"y":2543427.7699999996}},{"attributes":{"ID":629019,"DIS_CODE":0,"TOWNNAME":"中西區","LI":"保安里","LIN":"4鄰","STREET":"保安路","SECT":" ","MAREA":" ","LANE":" ","ALLEY":" ","HOUSE_NO":"６３號","E_COORD97":167592.28,"N_COORD97":2543426.5899999999,"ADDRESS":"保安路６３號","OBJECTID":628992},"geometry":{"x":167592.28000000026,"y":2543426.589999998}},{"attributes":{"ID":629020,"DIS_CODE":0,"TOWNNAME":"中西區","LI":"保安里","LIN":"4鄰","STREET":"保安路","SECT":" ","MAREA":" ","LANE":" ","ALLEY":" ","HOUSE_NO":"６５號","E_COORD97":167587.54000000001,"N_COORD97":2543429.46,"ADDRESS":"保安路６５號","OBJECTID":628993},"geometry":{"x":167587.5400000019,"y":2543429.4600000028}},{"attributes":{"ID":629021,"DIS_CODE":0,"TOWNNAME":"中西區","LI":"保安里","LIN":"4鄰","STREET":"保安路","SECT":" ","MAREA":" ","LANE":" ","ALLEY":" ","HOUSE_NO":"６７號","E_COORD97":167583.48000000001,"N_COORD97":2543430.6499999999,"ADDRESS":"保安路６７號","OBJECTID":628994},"geometry":{"x":167583.48000000138,"y":2543430.6500000022}},{"attributes":{"ID":629022,"DIS_CODE":0,"TOWNNAME":"中西區","LI":"保安里","LIN":"4鄰","STREET":"保安路","SECT":" ","MAREA":" ","LANE":" ","ALLEY":" ","HOUSE_NO":"６９號","E_COORD97":167580.94,"N_COORD97":2543433.52,"ADDRESS":"保安路６９號","OBJECTID":628995},"geometry":{"x":167580.94000000134,"y":2543433.5199999977}},{"attributes":{"ID":629023,"DIS_CODE":0,"TOWNNAME":"中西區","LI":"保安里","LIN":"4鄰","STREET":"保安路","SECT":" ","MAREA":" ","LANE":" ","ALLEY":" ","HOUSE_NO":"７１號","E_COORD97":167575.01999999999,"N_COORD97":2543434.2000000002,"ADDRESS":"保安路７１號","OBJECTID":628996},"geometry":{"x":167575.01999999955,"y":2543434.1999999993}},{"attributes":{"ID":629024,"DIS_CODE":0,"TOWNNAME":"中西區","LI":"保安里","LIN":"4鄰","STREET":"保安路","SECT":" ","MAREA":" ","LANE":" ","ALLEY":" ","HOUSE_NO":"７３號","E_COORD97":167567.92000000001,"N_COORD97":2543435.7200000002,"ADDRESS":"保安路７３號","OBJECTID":628997},"geometry":{"x":167567.92000000179,"y":2543435.7200000007}},{"attributes":{"ID":629025,"DIS_CODE":0,"TOWNNAME":"中西區","LI":"保安里","LIN":"4鄰","STREET":"保安路","SECT":" ","MAREA":" ","LANE":" ","ALLEY":" ","HOUSE_NO":"７５號","E_COORD97":167560.81,"N_COORD97":2543433.52,"ADDRESS":"保安路７５號","OBJECTID":628998},"geometry":{"x":167560.80999999959,"y":2543433.5199999977}},{"attributes":{"ID":629026,"DIS_CODE":0,"TOWNNAME":"中西區","LI":"保安里","LIN":"4鄰","STREET":"保安路","SECT":" ","MAREA":" ","LANE":" ","ALLEY":" ","HOUSE_NO":"７７號","E_COORD97":167557.09,"N_COORD97":2543434.54,"ADDRESS":"保安路７７號","OBJECTID":628999},"geometry":{"x":167557.09000000078,"y":2543434.540000001}},{"attributes":{"ID":629027,"DIS_CODE":0,"TOWNNAME":"中西區","LI":"保安里","LIN":"4鄰","STREET":"保安路","SECT":" ","MAREA":" ","LANE":" ","ALLEY":" ","HOUSE_NO":"７９號","E_COORD97":167553.88,"N_COORD97":2543435.8900000001,"ADDRESS":"保安路７９號","OBJECTID":629000},"geometry":{"x":167553.87999999989,"y":2543435.8900000043}}]}