{"displayFieldName":"TOWNNAME","fieldAliases":{"ID":"ID","DIS_CODE":"DIS_CODE","TOWNNAME":"TOWNNAME","LI":"LI","LIN":"LIN","STREET":"STREET","SECT":"SECT","MAREA":"MAREA","LANE":"LANE","ALLEY":"ALLEY","HOUSE_NO":"HOUSE_NO","E_COORD97":"E_COORD97","N_COORD97":"N_COORD97","ADDRESS":"ADDRESS","OBJECTID":"OBJECTID"},"geometryType":"esriGeometryPoint","spatialReference":{"wkid":102443,"latestWkid":3826},"fields":[{"name":"ID","type":"esriFieldTypeDouble","alias":"ID"},{"name":"DIS_CODE","type":"esriFieldTypeInteger","alias":"DIS_CODE"},{"name":"TOWNNAME","type":"esriFieldTypeString","alias":"TOWNNAME","length":8},{"name":"LI","type":"esriFieldTypeString","alias":"LI","length":8},{"name":"LIN","type":"esriFieldTypeString","alias":"LIN","length":12},{"name":"STREET","type":"esriFieldTypeString","alias":"STREET","length":20},{"name":"SECT","type":"esriFieldTypeString","alias":"SECT","length":8},{"name":"MAREA","type":"esriFieldTypeString","alias":"MAREA","length":12},{"name":"LANE","type":"esriFieldTypeString","alias":"LANE","length":10},{"name":"ALLEY","type":"esriFieldTypeString","alias":"ALLEY","length":10},{"name":"HOUSE_NO","type":"esriFieldTypeString","alias":"HOUSE_NO","length":20},{"name":"E_COORD97","type":"esriFieldTypeDouble","alias":"E_COORD97"},{"name":"N_COORD97","type":"esriFieldTypeDouble","alias":"N_COORD97"},{"name":"ADDRESS","type":"esriFieldTypeString","alias":"ADDRESS","length":50},{"name":"OBJECTID","type":"esriFieldTypeOID","alias":"OBJECTID"}],"features":[{"attributes":{"ID":201,"DIS_CODE":0,"TOWNNAME":"安南區","LI":"四草里","LIN":"10鄰","STREET":"北汕尾一路","SECT":" ","MAREA":" ","LANE":"４３９巷","ALLEY":"３０弄","HOUSE_NO":"８６號","E_COORD97":159893.63716300001,"N_COORD97":2546533.3882599999,"ADDRESS":"北汕尾一路４３９巷３０弄８６號","OBJECTID":201},"geometry":{"x":159893.63716300018,"y":2546533.3882550001}},{"attributes":{"ID":202,"DIS_CODE":0,"TOWNNAME":"安南區","LI":"四草里","LIN":"10鄰","STREET":"北汕尾一路","SECT":" ","MAREA":" ","LANE":"４３９巷","ALLEY":" ","HOUSE_NO":"２８號","E_COORD97":159981.41728699999,"N_COORD97":2546542.9132500002,"ADDRESS":"北汕尾一路４３９巷２８號","OBJECTID":202},"geometry":{"x":159981.41728700045,"y":2546542.9132499993}},{"attributes":{"ID":203,"DIS_CODE":0,"TOWNNAME":"安南區","LI":"四草里","LIN":"10鄰","STREET":"北汕尾一路","SECT":" ","MAREA":" ","LANE":"４３９巷","ALLEY":" ","HOUSE_NO":"１６號","E_COORD97":160031.51349799999,"N_COORD97":2546543.8582600001,"ADDRESS":"北汕尾一路４３９巷１６號","OBJECTID":203},"geometry":{"x":160031.51349799987,"y":2546543.8582579996}},{"attributes":{"ID":204,"DIS_CODE":0,"TOWNNAME":"安南區","LI":"四草里","LIN":"10鄰","STREET":"北汕尾一路","SECT":" ","MAREA":" ","LANE":"４３９巷","ALLEY":" ","HOUSE_NO":"２６號","E_COORD97":159997.72524,"N_COORD97":2546543.43493,"ADDRESS":"北汕尾一路４３９巷２６號","OBJECTID":204},"geometry":{"x":159997.72524000052,"y":2546543.4349250011}},{"attributes":{"ID":205,"DIS_CODE":0,"TOWNNAME":"安南區","LI":"四草里","LIN":"10鄰","STREET":"北汕尾一路","SECT":" ","MAREA":" ","LANE":"４３９巷","ALLEY":"３０弄","HOUSE_NO":"２號","E_COORD97":159948.27939700001,"N_COORD97":2546540.3732500002,"ADDRESS":"北汕尾一路４３９巷３０弄２號","OBJECTID":205},"geometry":{"x":159948.27939699963,"y":2546540.3732520025}},{"attributes":{"ID":206,"DIS_CODE":0,"TOWNNAME":"安南區","LI":"四草里","LIN":"10鄰","STREET":"北汕尾一路","SECT":" ","MAREA":" ","LANE":"４３９巷","ALLEY":"７２弄","HOUSE_NO":"６５６號","E_COORD97":159224.549054,"N_COORD97":2547014.4463900002,"ADDRESS":"北汕尾一路４３９巷７２弄６５６號","OBJECTID":206},"geometry":{"x":159224.54905400146,"y":2547014.4463920016}},{"attributes":{"ID":207,"DIS_CODE":0,"TOWNNAME":"安南區","LI":"四草里","LIN":"10鄰","STREET":"北汕尾一路","SECT":" ","MAREA":" ","LANE":"４３９巷","ALLEY":"７２弄","HOUSE_NO":"３９號","E_COORD97":159788.70191900001,"N_COORD97":2546360.0483300001,"ADDRESS":"北汕尾一路４３９巷７２弄３９號","OBJECTID":207},"geometry":{"x":159788.7019190006,"y":2546360.0483330041}},{"attributes":{"ID":208,"DIS_CODE":0,"TOWNNAME":"安南區","LI":"四草里","LIN":"10鄰","STREET":"北汕尾一路","SECT":" ","MAREA":" ","LANE":"４３９巷","ALLEY":"７３弄","HOUSE_NO":"２４２號","E_COORD97":159889.514723,"N_COORD97":2545811.8769100001,"ADDRESS":"北汕尾一路４３９巷７３弄２４２號","OBJECTID":208},"geometry":{"x":159889.51472300105,"y":2545811.8769150004}},{"attributes":{"ID":209,"DIS_CODE":0,"TOWNNAME":"安南區","LI":"四草里","LIN":"10鄰","STREET":"北汕尾一路","SECT":" ","MAREA":" ","LANE":"４３９巷","ALLEY":"７３弄","HOUSE_NO":"２３８號","E_COORD97":159875.11289399999,"N_COORD97":2545830.2919100001,"ADDRESS":"北汕尾一路４３９巷７３弄２３８號","OBJECTID":209},"geometry":{"x":159875.11289399955,"y":2545830.291906001}},{"attributes":{"ID":210,"DIS_CODE":0,"TOWNNAME":"安南區","LI":"四草里","LIN":"10鄰","STREET":"北汕尾一路","SECT":" ","MAREA":" ","LANE":"４３９巷","ALLEY":"７３弄","HOUSE_NO":"２４５號","E_COORD97":159916.41225699999,"N_COORD97":2545807.85525,"ADDRESS":"北汕尾一路４３９巷７３弄２４５號","OBJECTID":210},"geometry":{"x":159916.41225699987,"y":2545807.8552509993}},{"attributes":{"ID":211,"DIS_CODE":0,"TOWNNAME":"安南區","LI":"四草里","LIN":"10鄰","STREET":"北汕尾一路","SECT":" ","MAREA":" ","LANE":"４３９巷","ALLEY":" ","HOUSE_NO":"５７號","E_COORD97":159966.95548500001,"N_COORD97":2546325.6375299999,"ADDRESS":"北汕尾一路４３９巷５７號","OBJECTID":211},"geometry":{"x":159966.95548500028,"y":2546325.6375340037}},{"attributes":{"ID":212,"DIS_CODE":0,"TOWNNAME":"安南區","LI":"四草里","LIN":"10鄰","STREET":"北汕尾一路","SECT":" ","MAREA":" ","LANE":"４３９巷","ALLEY":" ","HOUSE_NO":"５１號","E_COORD97":159961.73566100001,"N_COORD97":2546343.0016800002,"ADDRESS":"北汕尾一路４３９巷５１號","OBJECTID":212},"geometry":{"x":159961.73566100094,"y":2546343.0016840026}},{"attributes":{"ID":213,"DIS_CODE":0,"TOWNNAME":"安南區","LI":"四草里","LIN":"10鄰","STREET":"北汕尾一路","SECT":" ","MAREA":" ","LANE":"４３９巷","ALLEY":" ","HOUSE_NO":"４７號","E_COORD97":159965.222725,"N_COORD97":2546359.5191700002,"ADDRESS":"北汕尾一路４３９巷４７號","OBJECTID":213},"geometry":{"x":159965.22272500023,"y":2546359.5191670004}},{"attributes":{"ID":214,"DIS_CODE":0,"TOWNNAME":"安南區","LI":"四草里","LIN":"10鄰","STREET":"北汕尾一路","SECT":" ","MAREA":" ","LANE":"４３９巷","ALLEY":" ","HOUSE_NO":"４５號","E_COORD97":159962.58282700001,"N_COORD97":2546373.27,"ADDRESS":"北汕尾一路４３９巷４５號","OBJECTID":214},"geometry":{"x":159962.58282699995,"y":2546373.2700009998}},{"attributes":{"ID":215,"DIS_CODE":0,"TOWNNAME":"安南區","LI":"四草里","LIN":"10鄰","STREET":"北汕尾一路","SECT":" ","MAREA":" ","LANE":"４３９巷","ALLEY":" ","HOUSE_NO":"４３號","E_COORD97":159961.523869,"N_COORD97":2546384.9116600002,"ADDRESS":"北汕尾一路４３９巷４３號","OBJECTID":215},"geometry":{"x":159961.52386900224,"y":2546384.9116609991}},{"attributes":{"ID":216,"DIS_CODE":0,"TOWNNAME":"安南區","LI":"四草里","LIN":"10鄰","STREET":"北汕尾一路","SECT":" ","MAREA":" ","LANE":"４３９巷","ALLEY":" ","HOUSE_NO":"３９號","E_COORD97":159954.95832899999,"N_COORD97":2546394.4366600001,"ADDRESS":"北汕尾一路４３９巷３９號","OBJECTID":216},"geometry":{"x":159954.95832900051,"y":2546394.436656002}},{"attributes":{"ID":217,"DIS_CODE":0,"TOWNNAME":"安南區","LI":"四草里","LIN":"10鄰","STREET":"北汕尾一路","SECT":" ","MAREA":" ","LANE":"４３９巷","ALLEY":" ","HOUSE_NO":"３７號","E_COORD97":159959.18666499999,"N_COORD97":2546406.3503899998,"ADDRESS":"北汕尾一路４３９巷３７號","OBJECTID":217},"geometry":{"x":159959.18666500226,"y":2546406.3503920007}},{"attributes":{"ID":218,"DIS_CODE":0,"TOWNNAME":"安南區","LI":"四草里","LIN":"10鄰","STREET":"北汕尾一路","SECT":" ","MAREA":" ","LANE":"４３９巷","ALLEY":" ","HOUSE_NO":"２９號","E_COORD97":159974.85924399999,"N_COORD97":2546405.2920599999,"ADDRESS":"北汕尾一路４３９巷２９號","OBJECTID":218},"geometry":{"x":159974.85924400017,"y":2546405.2920590043}},{"attributes":{"ID":219,"DIS_CODE":0,"TOWNNAME":"安南區","LI":"四草里","LIN":"10鄰","STREET":"北汕尾一路","SECT":" ","MAREA":" ","LANE":"４３９巷","ALLEY":" ","HOUSE_NO":"２３之１號","E_COORD97":159962.56783399999,"N_COORD97":2546417.9166600001,"ADDRESS":"北汕尾一路４３９巷２３之１號","OBJECTID":219},"geometry":{"x":159962.56783400103,"y":2546417.9166590013}},{"attributes":{"ID":220,"DIS_CODE":0,"TOWNNAME":"安南區","LI":"四草里","LIN":"10鄰","STREET":"北汕尾一路","SECT":" ","MAREA":" ","LANE":"４３９巷","ALLEY":" ","HOUSE_NO":"２３號","E_COORD97":159969.03497400001,"N_COORD97":2546431.0549699999,"ADDRESS":"北汕尾一路４３９巷２３號","OBJECTID":220},"geometry":{"x":159969.03497400042,"y":2546431.0549689997}},{"attributes":{"ID":221,"DIS_CODE":0,"TOWNNAME":"安南區","LI":"四草里","LIN":"10鄰","STREET":"北汕尾一路","SECT":" ","MAREA":" ","LANE":"４３９巷","ALLEY":" ","HOUSE_NO":"１９號","E_COORD97":159973.27080599999,"N_COORD97":2546460.89995,"ADDRESS":"北汕尾一路４３９巷１９號","OBJECTID":221},"geometry":{"x":159973.27080599964,"y":2546460.899953004}},{"attributes":{"ID":222,"DIS_CODE":0,"TOWNNAME":"安南區","LI":"四草里","LIN":"10鄰","STREET":"北汕尾一路","SECT":" ","MAREA":" ","LANE":"４３９巷","ALLEY":" ","HOUSE_NO":"３６號","E_COORD97":159960.139727,"N_COORD97":2546476.5632799999,"ADDRESS":"北汕尾一路４３９巷３６號","OBJECTID":222},"geometry":{"x":159960.13972700015,"y":2546476.5632780027}},{"attributes":{"ID":223,"DIS_CODE":0,"TOWNNAME":"安南區","LI":"四草里","LIN":"10鄰","STREET":"北汕尾一路","SECT":" ","MAREA":" ","LANE":"４３９巷","ALLEY":" ","HOUSE_NO":"１７號","E_COORD97":159991.69667599999,"N_COORD97":2546475.71661,"ADDRESS":"北汕尾一路４３９巷１７號","OBJECTID":223},"geometry":{"x":159991.69667600002,"y":2546475.7166120019}},{"attributes":{"ID":224,"DIS_CODE":0,"TOWNNAME":"安南區","LI":"四草里","LIN":"10鄰","STREET":"北汕尾一路","SECT":" ","MAREA":" ","LANE":"４３９巷","ALLEY":"９弄","HOUSE_NO":"１２號","E_COORD97":160005.985113,"N_COORD97":2546487.4566100002,"ADDRESS":"北汕尾一路４３９巷９弄１２號","OBJECTID":224},"geometry":{"x":160005.98511299863,"y":2546487.4566140007}},{"attributes":{"ID":225,"DIS_CODE":0,"TOWNNAME":"安南區","LI":"四草里","LIN":"10鄰","STREET":"北汕尾一路","SECT":" ","MAREA":" ","LANE":"４３９巷","ALLEY":" ","HOUSE_NO":"１８號","E_COORD97":160020.38694200001,"N_COORD97":2546540.3732500002,"ADDRESS":"北汕尾一路４３９巷１８號","OBJECTID":225},"geometry":{"x":160020.38694200013,"y":2546540.3732520025}},{"attributes":{"ID":226,"DIS_CODE":0,"TOWNNAME":"安南區","LI":"四草里","LIN":"10鄰","STREET":"北汕尾一路","SECT":" ","MAREA":" ","LANE":"４３９巷","ALLEY":" ","HOUSE_NO":"１３號","E_COORD97":159991.273093,"N_COORD97":2546508.3586900001,"ADDRESS":"北汕尾一路４３９巷１３號","OBJECTID":226},"geometry":{"x":159991.27309300005,"y":2546508.3586860001}},{"attributes":{"ID":227,"DIS_CODE":0,"TOWNNAME":"安南區","LI":"四草里","LIN":"10鄰","STREET":"北汕尾一路","SECT":" ","MAREA":" ","LANE":"４３９巷","ALLEY":" ","HOUSE_NO":"１１號","E_COORD97":160009.79736200001,"N_COORD97":2546522.8049300001,"ADDRESS":"北汕尾一路４３９巷１１號","OBJECTID":227},"geometry":{"x":160009.79736200068,"y":2546522.8049280029}},{"attributes":{"ID":228,"DIS_CODE":0,"TOWNNAME":"安南區","LI":"四草里","LIN":"3鄰","STREET":"大眾路","SECT":" ","MAREA":" ","LANE":" ","ALLEY":" ","HOUSE_NO":"４８６號","E_COORD97":160968.81318500001,"N_COORD97":2546574.9732400002,"ADDRESS":"大眾路４８６號","OBJECTID":228},"geometry":{"x":160968.81318499986,"y":2546574.9732409995}},{"attributes":{"ID":229,"DIS_CODE":0,"TOWNNAME":"安南區","LI":"四草里","LIN":"10鄰","STREET":"北汕尾一路","SECT":" ","MAREA":" ","LANE":"４３９巷","ALLEY":"７３弄","HOUSE_NO":"２６３號","E_COORD97":159990.00234000001,"N_COORD97":2545758.9602700002,"ADDRESS":"北汕尾一路４３９巷７３弄２６３號","OBJECTID":229},"geometry":{"x":159990.00234000105,"y":2545758.9602700025}},{"attributes":{"ID":230,"DIS_CODE":0,"TOWNNAME":"安南區","LI":"四草里","LIN":"10鄰","STREET":"北汕尾一路","SECT":" ","MAREA":" ","LANE":"４３９巷","ALLEY":"７２弄","HOUSE_NO":"２３３號","E_COORD97":159502.72983,"N_COORD97":2546535.9891300001,"ADDRESS":"北汕尾一路４３９巷７２弄２３３號","OBJECTID":230},"geometry":{"x":159502.72983000055,"y":2546535.9891299997}},{"attributes":{"ID":231,"DIS_CODE":0,"TOWNNAME":"安南區","LI":"四草里","LIN":"10鄰","STREET":"北汕尾一路","SECT":" ","MAREA":" ","LANE":"４３９巷","ALLEY":"７２弄","HOUSE_NO":"６５６之５５號","E_COORD97":159188.85467,"N_COORD97":2547116.0613199999,"ADDRESS":"北汕尾一路４３９巷７２弄６５６之５５號","OBJECTID":231},"geometry":{"x":159188.85467000213,"y":2547116.0613199994}},{"attributes":{"ID":232,"DIS_CODE":0,"TOWNNAME":"安南區","LI":"海西里","LIN":"16鄰","STREET":"海前路","SECT":" ","MAREA":" ","LANE":" ","ALLEY":" ","HOUSE_NO":"９５號","E_COORD97":166686.93677999999,"N_COORD97":2547928.90124,"ADDRESS":"海前路９５號","OBJECTID":232},"geometry":{"x":166686.93678000104,"y":2547928.9012400005}},{"attributes":{"ID":233,"DIS_CODE":0,"TOWNNAME":"安南區","LI":"海西里","LIN":"15鄰","STREET":"海環街","SECT":" ","MAREA":" ","LANE":"２８１巷","ALLEY":" ","HOUSE_NO":"８６號","E_COORD97":165948.27283199999,"N_COORD97":2548725.0680399998,"ADDRESS":"海環街２８１巷８６號","OBJECTID":233},"geometry":{"x":165948.27283200063,"y":2548725.0680390019}},{"attributes":{"ID":234,"DIS_CODE":0,"TOWNNAME":"北區","LI":"開元里","LIN":"18鄰","STREET":"北園街","SECT":" ","MAREA":" ","LANE":"８７巷","ALLEY":"１２１弄","HOUSE_NO":"２０號","E_COORD97":170093.44886400001,"N_COORD97":2545852.6907899999,"ADDRESS":"北園街８７巷１２１弄２０號","OBJECTID":234},"geometry":{"x":170093.44886400178,"y":2545852.6907850001}},{"attributes":{"ID":235,"DIS_CODE":0,"TOWNNAME":"北區","LI":"開元里","LIN":"18鄰","STREET":"北園街","SECT":" ","MAREA":" ","LANE":"８７巷","ALLEY":"１２１弄","HOUSE_NO":"２４號","E_COORD97":170086.858011,"N_COORD97":2545852.58495,"ADDRESS":"北園街８７巷１２１弄２４號","OBJECTID":235},"geometry":{"x":170086.85801099986,"y":2545852.5849520024}},{"attributes":{"ID":236,"DIS_CODE":0,"TOWNNAME":"安南區","LI":"海西里","LIN":"1鄰","STREET":"海中街","SECT":" ","MAREA":" ","LANE":" ","ALLEY":" ","HOUSE_NO":"２６７號","E_COORD97":166217.16476499999,"N_COORD97":2549352.13864,"ADDRESS":"海中街２６７號","OBJECTID":236},"geometry":{"x":166217.16476500127,"y":2549352.1386360005}},{"attributes":{"ID":237,"DIS_CODE":0,"TOWNNAME":"安南區","LI":"海西里","LIN":"1鄰","STREET":"海中街","SECT":" ","MAREA":" ","LANE":" ","ALLEY":" ","HOUSE_NO":"３０１號","E_COORD97":166157.99150100001,"N_COORD97":2549389.4603200001,"ADDRESS":"海中街３０１號","OBJECTID":237},"geometry":{"x":166157.99150100071,"y":2549389.4603219982}},{"attributes":{"ID":238,"DIS_CODE":0,"TOWNNAME":"安南區","LI":"溪心里","LIN":"1鄰","STREET":"海中街","SECT":" ","MAREA":" ","LANE":" ","ALLEY":" ","HOUSE_NO":"３００號","E_COORD97":166139.39447900001,"N_COORD97":2549468.5105900001,"ADDRESS":"海中街３００號","OBJECTID":238},"geometry":{"x":166139.39447899908,"y":2549468.5105919987}},{"attributes":{"ID":239,"DIS_CODE":0,"TOWNNAME":"中西區","LI":"安海里","LIN":"12鄰","STREET":"河中街","SECT":" ","MAREA":" ","LANE":" ","ALLEY":" ","HOUSE_NO":"２９號","E_COORD97":167272.57597599999,"N_COORD97":2543966.48055,"ADDRESS":"河中街２９號","OBJECTID":239},"geometry":{"x":167272.5759760011,"y":2543966.4805510025}},{"attributes":{"ID":240,"DIS_CODE":0,"TOWNNAME":"中西區","LI":"安海里","LIN":"12鄰","STREET":"河中街","SECT":" ","MAREA":" ","LANE":" ","ALLEY":" ","HOUSE_NO":"３１號","E_COORD97":167274.27080500001,"N_COORD97":2543970.9255499998,"ADDRESS":"河中街３１號","OBJECTID":240},"geometry":{"x":167274.27080500033,"y":2543970.9255480021}},{"attributes":{"ID":241,"DIS_CODE":0,"TOWNNAME":"安南區","LI":"安慶里","LIN":"13鄰","STREET":"培安路","SECT":" ","MAREA":" ","LANE":"２７９巷","ALLEY":" ","HOUSE_NO":"２號","E_COORD97":169336.60999999999,"N_COORD97":2548876.5899999999,"ADDRESS":"培安路２７９巷２號","OBJECTID":241},"geometry":{"x":169336.61000000034,"y":2548876.5900000017}},{"attributes":{"ID":242,"DIS_CODE":0,"TOWNNAME":"安南區","LI":"安慶里","LIN":"13鄰","STREET":"培安路","SECT":" ","MAREA":" ","LANE":"２７９巷","ALLEY":" ","HOUSE_NO":"６號","E_COORD97":169341.39500600001,"N_COORD97":2548877.6787299998,"ADDRESS":"培安路２７９巷６號","OBJECTID":242},"geometry":{"x":169341.395006001,"y":2548877.6787280012}},{"attributes":{"ID":243,"DIS_CODE":0,"TOWNNAME":"安南區","LI":"安慶里","LIN":"13鄰","STREET":"培安路","SECT":" ","MAREA":" ","LANE":"２７９巷","ALLEY":" ","HOUSE_NO":"８號","E_COORD97":169346.48005799999,"N_COORD97":2548878.1020599999,"ADDRESS":"培安路２７９巷８號","OBJECTID":243},"geometry":{"x":169346.48005800135,"y":2548878.1020609997}},{"attributes":{"ID":244,"DIS_CODE":0,"TOWNNAME":"安南區","LI":"安慶里","LIN":"13鄰","STREET":"培安路","SECT":" ","MAREA":" ","LANE":"２７９巷","ALLEY":" ","HOUSE_NO":"１０號","E_COORD97":169351.776988,"N_COORD97":2548879.1603899999,"ADDRESS":"培安路２７９巷１０號","OBJECTID":244},"geometry":{"x":169351.77698800061,"y":2548879.1603940018}},{"attributes":{"ID":245,"DIS_CODE":0,"TOWNNAME":"安南區","LI":"安慶里","LIN":"13鄰","STREET":"培安路","SECT":" ","MAREA":" ","LANE":"２７９巷","ALLEY":" ","HOUSE_NO":"１２號","E_COORD97":169356.86204099999,"N_COORD97":2548879.7953900001,"ADDRESS":"培安路２７９巷１２號","OBJECTID":245},"geometry":{"x":169356.86204100121,"y":2548879.7953940015}},{"attributes":{"ID":246,"DIS_CODE":0,"TOWNNAME":"安南區","LI":"安慶里","LIN":"13鄰","STREET":"培安路","SECT":" ","MAREA":" ","LANE":"２７９巷","ALLEY":" ","HOUSE_NO":"１６號","E_COORD97":169361.52333900001,"N_COORD97":2548881.0653900001,"ADDRESS":"培安路２７９巷１６號","OBJECTID":246},"geometry":{"x":169361.52333900053,"y":2548881.0653930008}},{"attributes":{"ID":247,"DIS_CODE":0,"TOWNNAME":"南區","LI":"府南里","LIN":"11鄰","STREET":"永成路","SECT":"三段","MAREA":" ","LANE":" ","ALLEY":" ","HOUSE_NO":"５６０號","E_COORD97":167511.04051799999,"N_COORD97":2541526.5732700001,"ADDRESS":"永成路三段５６０號","OBJECTID":247},"geometry":{"x":167511.04051799979,"y":2541526.5732720029}},{"attributes":{"ID":248,"DIS_CODE":0,"TOWNNAME":"南區","LI":"府南里","LIN":"11鄰","STREET":"永成路","SECT":"三段","MAREA":" ","LANE":" ","ALLEY":" ","HOUSE_NO":"５５８號","E_COORD97":167510.616969,"N_COORD97":2541522.9749400001,"ADDRESS":"永成路三段５５８號","OBJECTID":248},"geometry":{"x":167510.61696899962,"y":2541522.9749400001}},{"attributes":{"ID":249,"DIS_CODE":0,"TOWNNAME":"南區","LI":"府南里","LIN":"11鄰","STREET":"永成路","SECT":"三段","MAREA":" ","LANE":" ","ALLEY":" ","HOUSE_NO":"５５２號","E_COORD97":167510.405195,"N_COORD97":2541519.3766100002,"ADDRESS":"永成路三段５５２號","OBJECTID":249},"geometry":{"x":167510.40519500151,"y":2541519.3766090032}},{"attributes":{"ID":250,"DIS_CODE":0,"TOWNNAME":"南區","LI":"府南里","LIN":"11鄰","STREET":"永成路","SECT":"三段","MAREA":" ","LANE":"５５０巷","ALLEY":" ","HOUSE_NO":"１１號","E_COORD97":167523.95873499999,"N_COORD97":2541518.1066100001,"ADDRESS":"永成路三段５５０巷１１號","OBJECTID":250},"geometry":{"x":167523.95873500034,"y":2541518.106610002}},{"attributes":{"ID":251,"DIS_CODE":0,"TOWNNAME":"南區","LI":"府南里","LIN":"11鄰","STREET":"永成路","SECT":"三段","MAREA":" ","LANE":"５５０巷","ALLEY":" ","HOUSE_NO":"１２號","E_COORD97":167523.32341300001,"N_COORD97":2541522.76327,"ADDRESS":"永成路三段５５０巷１２號","OBJECTID":251},"geometry":{"x":167523.32341300044,"y":2541522.7632739991}},{"attributes":{"ID":252,"DIS_CODE":0,"TOWNNAME":"南區","LI":"府南里","LIN":"11鄰","STREET":"永成路","SECT":"三段","MAREA":" ","LANE":"５５０巷","ALLEY":" ","HOUSE_NO":"１３號","E_COORD97":167522.89986500001,"N_COORD97":2541528.0549400002,"ADDRESS":"永成路三段５５０巷１３號","OBJECTID":252},"geometry":{"x":167522.89986499958,"y":2541528.0549379997}},{"attributes":{"ID":253,"DIS_CODE":0,"TOWNNAME":"南區","LI":"府南里","LIN":"11鄰","STREET":"永成路","SECT":"三段","MAREA":" ","LANE":"５５０巷","ALLEY":" ","HOUSE_NO":"１５號","E_COORD97":167513.15825800001,"N_COORD97":2541527.8432700001,"ADDRESS":"永成路三段５５０巷１５號","OBJECTID":253},"geometry":{"x":167513.15825800039,"y":2541527.8432710022}},{"attributes":{"ID":254,"DIS_CODE":0,"TOWNNAME":"南區","LI":"府南里","LIN":"11鄰","STREET":"永成路","SECT":"三段","MAREA":" ","LANE":"５５０巷","ALLEY":" ","HOUSE_NO":"９號","E_COORD97":167523.95873499999,"N_COORD97":2541510.0632799999,"ADDRESS":"永成路三段５５０巷９號","OBJECTID":254},"geometry":{"x":167523.95873500034,"y":2541510.0632810015}},{"attributes":{"ID":255,"DIS_CODE":0,"TOWNNAME":"南區","LI":"府南里","LIN":"11鄰","STREET":"永成路","SECT":"三段","MAREA":" ","LANE":"５５０巷","ALLEY":" ","HOUSE_NO":"８號","E_COORD97":167523.535187,"N_COORD97":2541505.8299500002,"ADDRESS":"永成路三段５５０巷８號","OBJECTID":255},"geometry":{"x":167523.53518700134,"y":2541505.829950003}},{"attributes":{"ID":256,"DIS_CODE":0,"TOWNNAME":"南區","LI":"府南里","LIN":"11鄰","STREET":"永成路","SECT":"三段","MAREA":" ","LANE":"５５０巷","ALLEY":" ","HOUSE_NO":"７號","E_COORD97":167523.535187,"N_COORD97":2541500.9616200002,"ADDRESS":"永成路三段５５０巷７號","OBJECTID":256},"geometry":{"x":167523.53518700134,"y":2541500.9616190009}},{"attributes":{"ID":257,"DIS_CODE":0,"TOWNNAME":"南區","LI":"府南里","LIN":"11鄰","STREET":"永成路","SECT":"三段","MAREA":" ","LANE":"５５０巷","ALLEY":" ","HOUSE_NO":"６號","E_COORD97":167523.535187,"N_COORD97":2541496.0932900002,"ADDRESS":"永成路三段５５０巷６號","OBJECTID":257},"geometry":{"x":167523.53518700134,"y":2541496.0932880044}},{"attributes":{"ID":258,"DIS_CODE":0,"TOWNNAME":"南區","LI":"府南里","LIN":"11鄰","STREET":"永成路","SECT":"三段","MAREA":" ","LANE":"５５０巷","ALLEY":" ","HOUSE_NO":"５號","E_COORD97":167523.32341300001,"N_COORD97":2541491.6482899999,"ADDRESS":"永成路三段５５０巷５號","OBJECTID":258},"geometry":{"x":167523.32341300044,"y":2541491.6482909992}},{"attributes":{"ID":259,"DIS_CODE":0,"TOWNNAME":"南區","LI":"府南里","LIN":"11鄰","STREET":"永成路","SECT":"三段","MAREA":" ","LANE":"５５０巷","ALLEY":" ","HOUSE_NO":"３號","E_COORD97":167522.89986500001,"N_COORD97":2541487.2032900001,"ADDRESS":"永成路三段５５０巷３號","OBJECTID":259},"geometry":{"x":167522.89986499958,"y":2541487.2032930013}},{"attributes":{"ID":260,"DIS_CODE":0,"TOWNNAME":"南區","LI":"府南里","LIN":"11鄰","STREET":"永成路","SECT":"三段","MAREA":" ","LANE":"５５０巷","ALLEY":" ","HOUSE_NO":"２號","E_COORD97":167522.47631699999,"N_COORD97":2541483.6049600001,"ADDRESS":"永成路三段５５０巷２號","OBJECTID":260},"geometry":{"x":167522.47631700058,"y":2541483.6049620025}},{"attributes":{"ID":261,"DIS_CODE":0,"TOWNNAME":"南區","LI":"府南里","LIN":"11鄰","STREET":"永成路","SECT":"三段","MAREA":" ","LANE":"５５０巷","ALLEY":" ","HOUSE_NO":"１號","E_COORD97":167522.68809099999,"N_COORD97":2541481.22371,"ADDRESS":"永成路三段５５０巷１號","OBJECTID":261},"geometry":{"x":167522.68809100054,"y":2541481.2237130012}},{"attributes":{"ID":262,"DIS_CODE":0,"TOWNNAME":"南區","LI":"府南里","LIN":"11鄰","STREET":"永成路","SECT":"三段","MAREA":" ","LANE":" ","ALLEY":" ","HOUSE_NO":"６３８號","E_COORD97":167511.25229199999,"N_COORD97":2541639.86779,"ADDRESS":"永成路三段６３８號","OBJECTID":262},"geometry":{"x":167511.25229200069,"y":2541639.8677940015}},{"attributes":{"ID":263,"DIS_CODE":0,"TOWNNAME":"南區","LI":"府南里","LIN":"11鄰","STREET":"永成路","SECT":"三段","MAREA":" ","LANE":" ","ALLEY":" ","HOUSE_NO":"６８６號","E_COORD97":167509.76987300001,"N_COORD97":2541694.1602699999,"ADDRESS":"永成路三段６８６號","OBJECTID":263},"geometry":{"x":167509.76987300161,"y":2541694.1602650024}},{"attributes":{"ID":264,"DIS_CODE":0,"TOWNNAME":"南區","LI":"府南里","LIN":"11鄰","STREET":"永成路","SECT":"三段","MAREA":" ","LANE":" ","ALLEY":" ","HOUSE_NO":"５７６號","E_COORD97":167510.828744,"N_COORD97":2541544.1058700001,"ADDRESS":"永成路三段５７６號","OBJECTID":264},"geometry":{"x":167510.82874399982,"y":2541544.1058740001}},{"attributes":{"ID":265,"DIS_CODE":0,"TOWNNAME":"南區","LI":"府南里","LIN":"11鄰","STREET":"永成路","SECT":"三段","MAREA":" ","LANE":" ","ALLEY":" ","HOUSE_NO":"６０２號","E_COORD97":167510.193421,"N_COORD97":2541558.1817000001,"ADDRESS":"永成路三段６０２號","OBJECTID":265},"geometry":{"x":167510.19342100061,"y":2541558.1817000024}},{"attributes":{"ID":266,"DIS_CODE":0,"TOWNNAME":"南區","LI":"府南里","LIN":"11鄰","STREET":"永成路","SECT":"三段","MAREA":" ","LANE":" ","ALLEY":" ","HOUSE_NO":"６０６號","E_COORD97":167510.405195,"N_COORD97":2541564.7433600002,"ADDRESS":"永成路三段６０６號","OBJECTID":266},"geometry":{"x":167510.40519500151,"y":2541564.7433630042}},{"attributes":{"ID":267,"DIS_CODE":0,"TOWNNAME":"南區","LI":"府南里","LIN":"11鄰","STREET":"永成路","SECT":"三段","MAREA":" ","LANE":" ","ALLEY":" ","HOUSE_NO":"５４６之１號","E_COORD97":167510.193421,"N_COORD97":2541510.2392299999,"ADDRESS":"永成路三段５４６之１號","OBJECTID":267},"geometry":{"x":167510.19342100061,"y":2541510.2392260004}},{"attributes":{"ID":268,"DIS_CODE":0,"TOWNNAME":"南區","LI":"府南里","LIN":"11鄰","STREET":"永成路","SECT":"三段","MAREA":" ","LANE":" ","ALLEY":" ","HOUSE_NO":"５４２號","E_COORD97":167509.76987300001,"N_COORD97":2541499.44423,"ADDRESS":"永成路三段５４２號","OBJECTID":268},"geometry":{"x":167509.76987300161,"y":2541499.4442320019}},{"attributes":{"ID":269,"DIS_CODE":0,"TOWNNAME":"南區","LI":"府南里","LIN":"11鄰","STREET":"永成路","SECT":"三段","MAREA":" ","LANE":" ","ALLEY":" ","HOUSE_NO":"５４０號","E_COORD97":167509.55809899999,"N_COORD97":2541492.6708999998,"ADDRESS":"永成路三段５４０號","OBJECTID":269},"geometry":{"x":167509.55809900071,"y":2541492.6709020007}},{"attributes":{"ID":270,"DIS_CODE":0,"TOWNNAME":"南區","LI":"府南里","LIN":"11鄰","STREET":"永成路","SECT":"三段","MAREA":" ","LANE":" ","ALLEY":" ","HOUSE_NO":"５３６號","E_COORD97":167509.34632499999,"N_COORD97":2541481.2409100002,"ADDRESS":"永成路三段５３６號","OBJECTID":270},"geometry":{"x":167509.34632499982,"y":2541481.2409080025}},{"attributes":{"ID":271,"DIS_CODE":0,"TOWNNAME":"南區","LI":"府南里","LIN":"11鄰","STREET":"永成路","SECT":"三段","MAREA":" ","LANE":" ","ALLEY":" ","HOUSE_NO":"５４６號","E_COORD97":167509.76987300001,"N_COORD97":2541505.21215,"ADDRESS":"永成路三段５４６號","OBJECTID":271},"geometry":{"x":167509.76987300161,"y":2541505.2121450044}},{"attributes":{"ID":272,"DIS_CODE":0,"TOWNNAME":"南區","LI":"府南里","LIN":"11鄰","STREET":"永成路","SECT":"三段","MAREA":" ","LANE":" ","ALLEY":" ","HOUSE_NO":"５２２號","E_COORD97":167509.55809899999,"N_COORD97":2541330.9047400001,"ADDRESS":"永成路三段５２２號","OBJECTID":272},"geometry":{"x":167509.55809900071,"y":2541330.9047399983}},{"attributes":{"ID":273,"DIS_CODE":0,"TOWNNAME":"南區","LI":"府南里","LIN":"11鄰","STREET":"永成路","SECT":"三段","MAREA":" ","LANE":" ","ALLEY":" ","HOUSE_NO":"５２６號","E_COORD97":167516.33486900001,"N_COORD97":2541331.1164099998,"ADDRESS":"永成路三段５２６號","OBJECTID":273},"geometry":{"x":167516.33486900013,"y":2541331.1164060012}},{"attributes":{"ID":274,"DIS_CODE":0,"TOWNNAME":"南區","LI":"府南里","LIN":"11鄰","STREET":"永成路","SECT":"三段","MAREA":" ","LANE":" ","ALLEY":" ","HOUSE_NO":"５１８號","E_COORD97":167509.55809899999,"N_COORD97":2541324.1314099999,"ADDRESS":"永成路三段５１８號","OBJECTID":274},"geometry":{"x":167509.55809900071,"y":2541324.1314100027}},{"attributes":{"ID":275,"DIS_CODE":0,"TOWNNAME":"南區","LI":"府南里","LIN":"11鄰","STREET":"永成路","SECT":"三段","MAREA":" ","LANE":" ","ALLEY":" ","HOUSE_NO":"５２９號","E_COORD97":167476.52134599999,"N_COORD97":2541644.3829000001,"ADDRESS":"永成路三段５２９號","OBJECTID":275},"geometry":{"x":167476.52134600002,"y":2541644.3829040024}},{"attributes":{"ID":276,"DIS_CODE":0,"TOWNNAME":"安南區","LI":"城南里","LIN":"12鄰","STREET":"城西街","SECT":"二段","MAREA":" ","LANE":" ","ALLEY":" ","HOUSE_NO":"２４０號","E_COORD97":159747.607625,"N_COORD97":2551017.2513799998,"ADDRESS":"城西街二段２４０號","OBJECTID":276},"geometry":{"x":159747.60762499925,"y":2551017.2513769995}},{"attributes":{"ID":277,"DIS_CODE":0,"TOWNNAME":"北區","LI":"文元里","LIN":"25鄰","STREET":"文賢二街","SECT":" ","MAREA":" ","LANE":" ","ALLEY":" ","HOUSE_NO":"４７８之３號","E_COORD97":167700.73447,"N_COORD97":2546161.3944299999,"ADDRESS":"文賢二街４７８之３號","OBJECTID":277},"geometry":{"x":167700.73447000049,"y":2546161.3944259994}},{"attributes":{"ID":278,"DIS_CODE":0,"TOWNNAME":"北區","LI":"文元里","LIN":"25鄰","STREET":"文賢二街","SECT":" ","MAREA":" ","LANE":" ","ALLEY":" ","HOUSE_NO":"４７８之５號","E_COORD97":167703.965062,"N_COORD97":2546161.6060899999,"ADDRESS":"文賢二街４７８之５號","OBJECTID":278},"geometry":{"x":167703.96506199986,"y":2546161.6060930006}},{"attributes":{"ID":279,"DIS_CODE":0,"TOWNNAME":"北區","LI":"文元里","LIN":"25鄰","STREET":"文賢二街","SECT":" ","MAREA":" ","LANE":" ","ALLEY":" ","HOUSE_NO":"４７８之７號","E_COORD97":167707.24861499999,"N_COORD97":2546161.6060899999,"ADDRESS":"文賢二街４７８之７號","OBJECTID":279},"geometry":{"x":167707.2486150004,"y":2546161.6060930006}},{"attributes":{"ID":280,"DIS_CODE":0,"TOWNNAME":"北區","LI":"文元里","LIN":"25鄰","STREET":"文賢二街","SECT":" ","MAREA":" ","LANE":" ","ALLEY":" ","HOUSE_NO":"４７８之９號","E_COORD97":167710.42624599999,"N_COORD97":2546161.3944299999,"ADDRESS":"文賢二街４７８之９號","OBJECTID":280},"geometry":{"x":167710.42624600139,"y":2546161.3944259994}},{"attributes":{"ID":281,"DIS_CODE":0,"TOWNNAME":"南區","LI":"建南里","LIN":"23鄰","STREET":"永成路","SECT":"二段","MAREA":" ","LANE":" ","ALLEY":" ","HOUSE_NO":"７５７號","E_COORD97":167512.94648399999,"N_COORD97":2539884.0580199999,"ADDRESS":"永成路二段７５７號","OBJECTID":281},"geometry":{"x":167512.94648400135,"y":2539884.0580210015}},{"attributes":{"ID":282,"DIS_CODE":0,"TOWNNAME":"南區","LI":"建南里","LIN":"23鄰","STREET":"永成路","SECT":"二段","MAREA":" ","LANE":" ","ALLEY":" ","HOUSE_NO":"８５８號","E_COORD97":167573.51386499999,"N_COORD97":2539749.4380899998,"ADDRESS":"永成路二段８５８號","OBJECTID":282},"geometry":{"x":167573.51386499964,"y":2539749.4380940013}},{"attributes":{"ID":283,"DIS_CODE":0,"TOWNNAME":"南區","LI":"建南里","LIN":"23鄰","STREET":"永成路","SECT":"二段","MAREA":" ","LANE":" ","ALLEY":" ","HOUSE_NO":"８３８號","E_COORD97":167606.33884400001,"N_COORD97":2539657.9981399998,"ADDRESS":"永成路二段８３８號","OBJECTID":283},"geometry":{"x":167606.33884400036,"y":2539657.9981430043}},{"attributes":{"ID":284,"DIS_CODE":0,"TOWNNAME":"北區","LI":"文元里","LIN":"25鄰","STREET":"文賢二街","SECT":" ","MAREA":" ","LANE":" ","ALLEY":" ","HOUSE_NO":"４７８之１１號","E_COORD97":167713.49795600001,"N_COORD97":2546161.5002600001,"ADDRESS":"文賢二街４７８之１１號","OBJECTID":284},"geometry":{"x":167713.49795600027,"y":2546161.5002590008}},{"attributes":{"ID":285,"DIS_CODE":0,"TOWNNAME":"北區","LI":"文元里","LIN":"25鄰","STREET":"文賢二街","SECT":" ","MAREA":" ","LANE":" ","ALLEY":" ","HOUSE_NO":"４７８之２號","E_COORD97":167700.46966800001,"N_COORD97":2546164.2519299998,"ADDRESS":"文賢二街４７８之２號","OBJECTID":285},"geometry":{"x":167700.46966800001,"y":2546164.2519250009}},{"attributes":{"ID":286,"DIS_CODE":0,"TOWNNAME":"北區","LI":"文元里","LIN":"25鄰","STREET":"文賢二街","SECT":" ","MAREA":" ","LANE":" ","ALLEY":" ","HOUSE_NO":"４７８之６號","E_COORD97":167703.647299,"N_COORD97":2546164.35776,"ADDRESS":"文賢二街４７８之６號","OBJECTID":286},"geometry":{"x":167703.64729900099,"y":2546164.3577580024}},{"attributes":{"ID":287,"DIS_CODE":0,"TOWNNAME":"北區","LI":"文元里","LIN":"25鄰","STREET":"文賢二街","SECT":" ","MAREA":" ","LANE":" ","ALLEY":" ","HOUSE_NO":"４７８之８號","E_COORD97":167706.82493,"N_COORD97":2546164.35776,"ADDRESS":"文賢二街４７８之８號","OBJECTID":287},"geometry":{"x":167706.82493000012,"y":2546164.3577580024}},{"attributes":{"ID":288,"DIS_CODE":0,"TOWNNAME":"北區","LI":"文元里","LIN":"25鄰","STREET":"文賢二街","SECT":" ","MAREA":" ","LANE":" ","ALLEY":" ","HOUSE_NO":"４７８之１０號","E_COORD97":167710.10848299999,"N_COORD97":2546164.4635899998,"ADDRESS":"文賢二街４７８之１０號","OBJECTID":288},"geometry":{"x":167710.10848300066,"y":2546164.4635910019}},{"attributes":{"ID":289,"DIS_CODE":0,"TOWNNAME":"安南區","LI":"城南里","LIN":"5鄰","STREET":"城西街","SECT":"一段","MAREA":" ","LANE":"１８１巷","ALLEY":" ","HOUSE_NO":"３２號","E_COORD97":160531.820484,"N_COORD97":2551199.9196100002,"ADDRESS":"城西街一段１８１巷３２號","OBJECTID":289},"geometry":{"x":160531.82048400212,"y":2551199.9196120016}},{"attributes":{"ID":290,"DIS_CODE":0,"TOWNNAME":"北區","LI":"文元里","LIN":"25鄰","STREET":"文賢二街","SECT":" ","MAREA":" ","LANE":" ","ALLEY":" ","HOUSE_NO":"４７８之１２號","E_COORD97":167713.18019300001,"N_COORD97":2546164.5694200001,"ADDRESS":"文賢二街４７８之１２號","OBJECTID":290},"geometry":{"x":167713.18019299954,"y":2546164.5694239996}},{"attributes":{"ID":291,"DIS_CODE":0,"TOWNNAME":"北區","LI":"文元里","LIN":"25鄰","STREET":"文賢二街","SECT":" ","MAREA":" ","LANE":" ","ALLEY":" ","HOUSE_NO":"４７８之１６號","E_COORD97":167716.35782500001,"N_COORD97":2546164.4635899998,"ADDRESS":"文賢二街４７８之１６號","OBJECTID":291},"geometry":{"x":167716.35782499984,"y":2546164.4635910019}},{"attributes":{"ID":292,"DIS_CODE":0,"TOWNNAME":"南區","LI":"喜東里","LIN":"11鄰","STREET":"明興路","SECT":" ","MAREA":" ","LANE":" ","ALLEY":" ","HOUSE_NO":"７３２之６號","E_COORD97":166035.610644,"N_COORD97":2537931.3282400002,"ADDRESS":"明興路７３２之６號","OBJECTID":292},"geometry":{"x":166035.61064400058,"y":2537931.3282420002}},{"attributes":{"ID":293,"DIS_CODE":0,"TOWNNAME":"安南區","LI":"城南里","LIN":"15鄰","STREET":"城西街","SECT":"一段","MAREA":" ","LANE":" ","ALLEY":" ","HOUSE_NO":"１２０號","E_COORD97":160607.86921899999,"N_COORD97":2551382.7995099998,"ADDRESS":"城西街一段１２０號","OBJECTID":293},"geometry":{"x":160607.86921900045,"y":2551382.7995130029}},{"attributes":{"ID":294,"DIS_CODE":0,"TOWNNAME":"歸仁區","LI":"許厝里","LIN":"16鄰","STREET":"中山路","SECT":"一段","MAREA":" ","LANE":" ","ALLEY":" ","HOUSE_NO":"３５４號","E_COORD97":178315.32467100001,"N_COORD97":2540806.8082099999,"ADDRESS":"中山路一段３５４號","OBJECTID":294},"geometry":{"x":178315.32467100117,"y":2540806.8082129993}},{"attributes":{"ID":295,"DIS_CODE":0,"TOWNNAME":"安南區","LI":"城南里","LIN":"1鄰","STREET":"城西街","SECT":"一段","MAREA":" ","LANE":" ","ALLEY":" ","HOUSE_NO":"９０號","E_COORD97":160661.17965400001,"N_COORD97":2551408.38809,"ADDRESS":"城西街一段９０號","OBJECTID":295},"geometry":{"x":160661.17965400033,"y":2551408.3880889993}},{"attributes":{"ID":296,"DIS_CODE":0,"TOWNNAME":"永康區","LI":"甲頂里","LIN":"3鄰","STREET":"中華路","SECT":" ","MAREA":" ","LANE":" ","ALLEY":" ","HOUSE_NO":"１０２２號","E_COORD97":169486.19655299999,"N_COORD97":2547077.4073600001,"ADDRESS":"中華路１０２２號","OBJECTID":296},"geometry":{"x":169486.19655300025,"y":2547077.4073629994}},{"attributes":{"ID":297,"DIS_CODE":0,"TOWNNAME":"關廟區","LI":"埤頭里","LIN":"5鄰","STREET":"關新路","SECT":"一段","MAREA":" ","LANE":" ","ALLEY":" ","HOUSE_NO":"８７９號","E_COORD97":179073.07000000001,"N_COORD97":2543995.2999999998,"ADDRESS":"關新路一段８７９號","OBJECTID":297},"geometry":{"x":179073.07000000123,"y":2543995.3000000007}},{"attributes":{"ID":298,"DIS_CODE":0,"TOWNNAME":"關廟區","LI":"埤頭里","LIN":"5鄰","STREET":"關新路","SECT":"一段","MAREA":" ","LANE":" ","ALLEY":" ","HOUSE_NO":"８８１號","E_COORD97":179071.17000000001,"N_COORD97":2544001.2999999998,"ADDRESS":"關新路一段８８１號","OBJECTID":298},"geometry":{"x":179071.16999999993,"y":2544001.3000000007}},{"attributes":{"ID":299,"DIS_CODE":0,"TOWNNAME":"安平區","LI":"平安里","LIN":"10鄰","STREET":"安平路","SECT":" ","MAREA":" ","LANE":"４４６巷","ALLEY":" ","HOUSE_NO":"１９號之１","E_COORD97":165278.25034500001,"N_COORD97":2544372.1295099999,"ADDRESS":"安平路４４６巷１９號之１","OBJECTID":299},"geometry":{"x":165278.25034500007,"y":2544372.1295069996}},{"attributes":{"ID":300,"DIS_CODE":0,"TOWNNAME":"安平區","LI":"平安里","LIN":"10鄰","STREET":"安平路","SECT":" ","MAREA":" ","LANE":"４４６巷","ALLEY":" ","HOUSE_NO":"１９號之３","E_COORD97":165277.402715,"N_COORD97":2544371.7061700001,"ADDRESS":"安平路４４６巷１９號之３","OBJECTID":300},"geometry":{"x":165277.40271500126,"y":2544371.7061740011}},{"attributes":{"ID":301,"DIS_CODE":0,"TOWNNAME":"關廟區","LI":"埤頭里","LIN":"5鄰","STREET":"保東路","SECT":" ","MAREA":" ","LANE":" ","ALLEY":" ","HOUSE_NO":"１號","E_COORD97":179060.932328,"N_COORD97":2544013.0770200002,"ADDRESS":"保東路１號","OBJECTID":301},"geometry":{"x":179060.93232799973,"y":2544013.0770200025}},{"attributes":{"ID":302,"DIS_CODE":0,"TOWNNAME":"安平區","LI":"平安里","LIN":"10鄰","STREET":"安平路","SECT":" ","MAREA":" ","LANE":"４４６巷","ALLEY":" ","HOUSE_NO":"１９號之４","E_COORD97":165277.82652999999,"N_COORD97":2544371.7061700001,"ADDRESS":"安平路４４６巷１９號之４","OBJECTID":302},"geometry":{"x":165277.82653000113,"y":2544371.7061740011}},{"attributes":{"ID":303,"DIS_CODE":0,"TOWNNAME":"安平區","LI":"平安里","LIN":"22鄰","STREET":"安平路","SECT":" ","MAREA":" ","LANE":"４４６巷","ALLEY":"２５弄","HOUSE_NO":"１１號之３四樓","E_COORD97":165253.88097999999,"N_COORD97":2544415.0978199998,"ADDRESS":"安平路４４６巷２５弄１１號之３四樓","OBJECTID":303},"geometry":{"x":165253.88098000176,"y":2544415.097818004}},{"attributes":{"ID":304,"DIS_CODE":0,"TOWNNAME":"安平區","LI":"平安里","LIN":"10鄰","STREET":"安平路","SECT":" ","MAREA":" ","LANE":"４４６巷","ALLEY":" ","HOUSE_NO":"１９號之２","E_COORD97":165277.82652999999,"N_COORD97":2544371.7061700001,"ADDRESS":"安平路４４６巷１９號之２","OBJECTID":304},"geometry":{"x":165277.82653000113,"y":2544371.7061700039}},{"attributes":{"ID":305,"DIS_CODE":0,"TOWNNAME":"安平區","LI":"平安里","LIN":"10鄰","STREET":"安平路","SECT":" ","MAREA":" ","LANE":"４４６巷","ALLEY":" ","HOUSE_NO":"２０號之１","E_COORD97":165291.388611,"N_COORD97":2544382.0778399999,"ADDRESS":"安平路４４６巷２０號之１","OBJECTID":305},"geometry":{"x":165291.38861100096,"y":2544382.0778350011}},{"attributes":{"ID":306,"DIS_CODE":0,"TOWNNAME":"新營區","LI":"太北里","LIN":"20鄰","STREET":" ","SECT":" ","MAREA":"太子宮","LANE":" ","ALLEY":" ","HOUSE_NO":"１３９號之１","E_COORD97":175781.660878,"N_COORD97":2576844.9848600002,"ADDRESS":"太子宮１３９號之１","OBJECTID":306},"geometry":{"x":175781.66087799985,"y":2576844.9848560039}},{"attributes":{"ID":307,"DIS_CODE":0,"TOWNNAME":"安平區","LI":"平安里","LIN":"10鄰","STREET":"安平路","SECT":" ","MAREA":" ","LANE":"４４６巷","ALLEY":" ","HOUSE_NO":"２０號之２","E_COORD97":165290.96479599999,"N_COORD97":2544381.8661699998,"ADDRESS":"安平路４４６巷２０號之２","OBJECTID":307},"geometry":{"x":165290.96479600016,"y":2544381.8661690038}},{"attributes":{"ID":308,"DIS_CODE":0,"TOWNNAME":"安平區","LI":"平安里","LIN":"10鄰","STREET":"安平路","SECT":" ","MAREA":" ","LANE":"４４６巷","ALLEY":" ","HOUSE_NO":"２０號之３","E_COORD97":165290.96479599999,"N_COORD97":2544381.6545000002,"ADDRESS":"安平路４４６巷２０號之３","OBJECTID":308},"geometry":{"x":165290.96479600016,"y":2544381.6545020025}},{"attributes":{"ID":309,"DIS_CODE":0,"TOWNNAME":"安平區","LI":"平安里","LIN":"10鄰","STREET":"安平路","SECT":" ","MAREA":" ","LANE":"４４６巷","ALLEY":" ","HOUSE_NO":"２０號之４","E_COORD97":165290.96479599999,"N_COORD97":2544381.4428400001,"ADDRESS":"安平路４４６巷２０號之４","OBJECTID":309},"geometry":{"x":165290.96479600016,"y":2544381.4428359997}},{"attributes":{"ID":310,"DIS_CODE":0,"TOWNNAME":"安平區","LI":"平安里","LIN":"10鄰","STREET":"安平路","SECT":" ","MAREA":" ","LANE":"４４６巷","ALLEY":" ","HOUSE_NO":"２１號之１","E_COORD97":165279.52179,"N_COORD97":2544379.5378299998,"ADDRESS":"安平路４４６巷２１號之１","OBJECTID":310},"geometry":{"x":165279.52179000061,"y":2544379.5378300007}},{"attributes":{"ID":311,"DIS_CODE":0,"TOWNNAME":"關廟區","LI":"埤頭里","LIN":"1鄰","STREET":"關新路","SECT":"一段","MAREA":" ","LANE":" ","ALLEY":" ","HOUSE_NO":"６０６號","E_COORD97":179211.146328,"N_COORD97":2543339.8715499998,"ADDRESS":"關新路一段６０６號","OBJECTID":311},"geometry":{"x":179211.14632800128,"y":2543339.8715510033}},{"attributes":{"ID":312,"DIS_CODE":0,"TOWNNAME":"安平區","LI":"平安里","LIN":"10鄰","STREET":"安平路","SECT":" ","MAREA":" ","LANE":"４４６巷","ALLEY":" ","HOUSE_NO":"２１號之２","E_COORD97":165279.309882,"N_COORD97":2544379.1145000001,"ADDRESS":"安平路４４６巷２１號之２","OBJECTID":312},"geometry":{"x":165279.30988200102,"y":2544379.114504002}},{"attributes":{"ID":313,"DIS_CODE":0,"TOWNNAME":"安平區","LI":"平安里","LIN":"10鄰","STREET":"安平路","SECT":" ","MAREA":" ","LANE":"４４６巷","ALLEY":" ","HOUSE_NO":"２１號之３","E_COORD97":165279.09797500001,"N_COORD97":2544379.1145000001,"ADDRESS":"安平路４４６巷２１號之３","OBJECTID":313},"geometry":{"x":165279.09797500074,"y":2544379.114504002}},{"attributes":{"ID":314,"DIS_CODE":0,"TOWNNAME":"關廟區","LI":"埤頭里","LIN":"1鄰","STREET":"關新路","SECT":"一段","MAREA":" ","LANE":" ","ALLEY":" ","HOUSE_NO":"６２２號","E_COORD97":179242.71457400001,"N_COORD97":2543390.1423599999,"ADDRESS":"關新路一段６２２號","OBJECTID":314},"geometry":{"x":179242.71457400173,"y":2543390.1423569992}},{"attributes":{"ID":315,"DIS_CODE":0,"TOWNNAME":"安平區","LI":"平安里","LIN":"10鄰","STREET":"安平路","SECT":" ","MAREA":" ","LANE":"４４６巷","ALLEY":" ","HOUSE_NO":"２２號之１","E_COORD97":165291.388611,"N_COORD97":2544385.8878299999,"ADDRESS":"安平路４４６巷２２號之１","OBJECTID":315},"geometry":{"x":165291.38861100096,"y":2544385.8878329992}},{"attributes":{"ID":316,"DIS_CODE":0,"TOWNNAME":"安平區","LI":"平安里","LIN":"10鄰","STREET":"安平路","SECT":" ","MAREA":" ","LANE":"４４６巷","ALLEY":" ","HOUSE_NO":"２２號之２","E_COORD97":165291.17670400001,"N_COORD97":2544386.3111700001,"ADDRESS":"安平路４４６巷２２號之２","OBJECTID":316},"geometry":{"x":165291.17670400161,"y":2544386.3111660033}},{"attributes":{"ID":317,"DIS_CODE":0,"TOWNNAME":"安平區","LI":"平安里","LIN":"10鄰","STREET":"安平路","SECT":" ","MAREA":" ","LANE":"４４６巷","ALLEY":" ","HOUSE_NO":"２２號之３","E_COORD97":165290.752889,"N_COORD97":2544386.3111700001,"ADDRESS":"安平路４４６巷２２號之３","OBJECTID":317},"geometry":{"x":165290.75288899988,"y":2544386.3111660033}},{"attributes":{"ID":318,"DIS_CODE":0,"TOWNNAME":"安南區","LI":"安東里","LIN":"4鄰","STREET":"安和路","SECT":"一段","MAREA":" ","LANE":"２８８巷","ALLEY":" ","HOUSE_NO":"１６９號之５０","E_COORD97":169821.28753999999,"N_COORD97":2548290.36032,"ADDRESS":"安和路一段２８８巷１６９號之５０","OBJECTID":318},"geometry":{"x":169821.28754000179,"y":2548290.3603189997}},{"attributes":{"ID":319,"DIS_CODE":0,"TOWNNAME":"安平區","LI":"平安里","LIN":"10鄰","STREET":"安平路","SECT":" ","MAREA":" ","LANE":"４４６巷","ALLEY":" ","HOUSE_NO":"２２號之４","E_COORD97":165290.540981,"N_COORD97":2544386.5228300001,"ADDRESS":"安平路４４６巷２２號之４","OBJECTID":319},"geometry":{"x":165290.54098100029,"y":2544386.5228330046}},{"attributes":{"ID":320,"DIS_CODE":0,"TOWNNAME":"安平區","LI":"平安里","LIN":"10鄰","STREET":"安平路","SECT":" ","MAREA":" ","LANE":"４４６巷","ALLEY":" ","HOUSE_NO":"２４號之１","E_COORD97":165292.66005599999,"N_COORD97":2544389.4861699999,"ADDRESS":"安平路４４６巷２４號之１","OBJECTID":320},"geometry":{"x":165292.66005599964,"y":2544389.486165002}},{"attributes":{"ID":321,"DIS_CODE":0,"TOWNNAME":"安平區","LI":"平安里","LIN":"10鄰","STREET":"安平路","SECT":" ","MAREA":" ","LANE":"４４６巷","ALLEY":" ","HOUSE_NO":"２４號之２","E_COORD97":165292.448149,"N_COORD97":2544389.69783,"ADDRESS":"安平路４４６巷２４號之２","OBJECTID":321},"geometry":{"x":165292.44814900123,"y":2544389.697831003}},{"attributes":{"ID":322,"DIS_CODE":0,"TOWNNAME":"安平區","LI":"平安里","LIN":"10鄰","STREET":"安平路","SECT":" ","MAREA":" ","LANE":"４４６巷","ALLEY":" ","HOUSE_NO":"２４號之３","E_COORD97":165291.81242599999,"N_COORD97":2544389.69783,"ADDRESS":"安平路４４６巷２４號之３","OBJECTID":322},"geometry":{"x":165291.81242600083,"y":2544389.697831003}},{"attributes":{"ID":323,"DIS_CODE":0,"TOWNNAME":"關廟區","LI":"埤頭里","LIN":"1鄰","STREET":"關新路","SECT":"一段","MAREA":" ","LANE":" ","ALLEY":" ","HOUSE_NO":"６２２之１號","E_COORD97":179330.00395099999,"N_COORD97":2543398.6090199999,"ADDRESS":"關新路一段６２２之１號","OBJECTID":323},"geometry":{"x":179330.00395100098,"y":2543398.6090190001}},{"attributes":{"ID":324,"DIS_CODE":0,"TOWNNAME":"安平區","LI":"平安里","LIN":"10鄰","STREET":"安平路","SECT":" ","MAREA":" ","LANE":"４４６巷","ALLEY":" ","HOUSE_NO":"２４號之４","E_COORD97":165291.81242599999,"N_COORD97":2544390.1211600001,"ADDRESS":"安平路４４６巷２４號之４","OBJECTID":324},"geometry":{"x":165291.81242600083,"y":2544390.1211640015}},{"attributes":{"ID":325,"DIS_CODE":0,"TOWNNAME":"安平區","LI":"平安里","LIN":"22鄰","STREET":"安平路","SECT":" ","MAREA":" ","LANE":"４４６巷","ALLEY":"２５弄","HOUSE_NO":"１０號之１","E_COORD97":165254.51670199999,"N_COORD97":2544434.35947,"ADDRESS":"安平路４４６巷２５弄１０號之１","OBJECTID":325},"geometry":{"x":165254.51670200098,"y":2544434.3594740015}},{"attributes":{"ID":326,"DIS_CODE":0,"TOWNNAME":"關廟區","LI":"埤頭里","LIN":"1鄰","STREET":"關新路","SECT":"一段","MAREA":" ","LANE":" ","ALLEY":" ","HOUSE_NO":"６２８號","E_COORD97":179323.224193,"N_COORD97":2543455.3356599999,"ADDRESS":"關新路一段６２８號","OBJECTID":326},"geometry":{"x":179323.22419300023,"y":2543455.3356550001}},{"attributes":{"ID":327,"DIS_CODE":0,"TOWNNAME":"安平區","LI":"平安里","LIN":"22鄰","STREET":"安平路","SECT":" ","MAREA":" ","LANE":"４４６巷","ALLEY":"２５弄","HOUSE_NO":"１０號之２","E_COORD97":165254.72860999999,"N_COORD97":2544433.9361399999,"ADDRESS":"安平路４４６巷２５弄１０號之２","OBJECTID":327},"geometry":{"x":165254.72860999964,"y":2544433.9361409992}},{"attributes":{"ID":328,"DIS_CODE":0,"TOWNNAME":"安平區","LI":"平安里","LIN":"22鄰","STREET":"安平路","SECT":" ","MAREA":" ","LANE":"４４６巷","ALLEY":"２５弄","HOUSE_NO":"１０號之３","E_COORD97":165254.09288700001,"N_COORD97":2544434.14781,"ADDRESS":"安平路４４６巷２５弄１０號之３","OBJECTID":328},"geometry":{"x":165254.09288700111,"y":2544434.1478070002}},{"attributes":{"ID":329,"DIS_CODE":0,"TOWNNAME":"安平區","LI":"平安里","LIN":"22鄰","STREET":"安平路","SECT":" ","MAREA":" ","LANE":"４４６巷","ALLEY":"２５弄","HOUSE_NO":"１０號之２三樓","E_COORD97":165254.09288700001,"N_COORD97":2544433.7244699998,"ADDRESS":"安平路４４６巷２５弄１０號之２三樓","OBJECTID":329},"geometry":{"x":165254.09288700111,"y":2544433.7244740017}},{"attributes":{"ID":330,"DIS_CODE":0,"TOWNNAME":"安平區","LI":"平安里","LIN":"22鄰","STREET":"安平路","SECT":" ","MAREA":" ","LANE":"４４６巷","ALLEY":"２５弄","HOUSE_NO":"１０號之４","E_COORD97":165254.09288700001,"N_COORD97":2544433.9361399999,"ADDRESS":"安平路４４６巷２５弄１０號之４","OBJECTID":330},"geometry":{"x":165254.09288700111,"y":2544433.9361409992}},{"attributes":{"ID":331,"DIS_CODE":0,"TOWNNAME":"安平區","LI":"平安里","LIN":"22鄰","STREET":"安平路","SECT":" ","MAREA":" ","LANE":"４４６巷","ALLEY":"２５弄","HOUSE_NO":"１１號之１","E_COORD97":165254.304795,"N_COORD97":2544415.3094799998,"ADDRESS":"安平路４４６巷２５弄１１號之１","OBJECTID":331},"geometry":{"x":165254.3047950007,"y":2544415.3094840012}},{"attributes":{"ID":332,"DIS_CODE":0,"TOWNNAME":"安平區","LI":"平安里","LIN":"22鄰","STREET":"安平路","SECT":" ","MAREA":" ","LANE":"４４６巷","ALLEY":"２５弄","HOUSE_NO":"１１號之２","E_COORD97":165253.66907199999,"N_COORD97":2544415.5211499999,"ADDRESS":"安平路４４６巷２５弄１１號之２","OBJECTID":332},"geometry":{"x":165253.66907199938,"y":2544415.5211510025}},{"attributes":{"ID":333,"DIS_CODE":0,"TOWNNAME":"安平區","LI":"平安里","LIN":"22鄰","STREET":"安平路","SECT":" ","MAREA":" ","LANE":"４４６巷","ALLEY":"２５弄","HOUSE_NO":"１１號之３","E_COORD97":165253.45716399999,"N_COORD97":2544415.0978199998,"ADDRESS":"安平路４４６巷２５弄１１號之３","OBJECTID":333},"geometry":{"x":165253.45716400072,"y":2544415.097818004}},{"attributes":{"ID":334,"DIS_CODE":0,"TOWNNAME":"安平區","LI":"平安里","LIN":"22鄰","STREET":"安平路","SECT":" ","MAREA":" ","LANE":"４４６巷","ALLEY":"２５弄","HOUSE_NO":"１１號之４","E_COORD97":165253.45716399999,"N_COORD97":2544414.67448,"ADDRESS":"安平路４４６巷２５弄１１號之４","OBJECTID":334},"geometry":{"x":165253.45716400072,"y":2544414.6744840015}},{"attributes":{"ID":335,"DIS_CODE":0,"TOWNNAME":"安平區","LI":"平安里","LIN":"22鄰","STREET":"安平路","SECT":" ","MAREA":" ","LANE":"４４６巷","ALLEY":"２５弄","HOUSE_NO":"１２號之１","E_COORD97":165247.09993900001,"N_COORD97":2544435.2061399999,"ADDRESS":"安平路４４６巷２５弄１２號之１","OBJECTID":335},"geometry":{"x":165247.09993900172,"y":2544435.2061400022}},{"attributes":{"ID":336,"DIS_CODE":0,"TOWNNAME":"安平區","LI":"平安里","LIN":"22鄰","STREET":"安平路","SECT":" ","MAREA":" ","LANE":"４４６巷","ALLEY":"２５弄","HOUSE_NO":"１２號之２","E_COORD97":165247.09993900001,"N_COORD97":2544435.2061399999,"ADDRESS":"安平路４４６巷２５弄１２號之２","OBJECTID":336},"geometry":{"x":165247.09993900172,"y":2544435.2061400022}},{"attributes":{"ID":337,"DIS_CODE":0,"TOWNNAME":"安南區","LI":"安東里","LIN":"17鄰","STREET":"安和路","SECT":"一段","MAREA":" ","LANE":"４７８巷","ALLEY":"２弄","HOUSE_NO":"１０１號","E_COORD97":169439.95000000001,"N_COORD97":2548257.1000000001,"ADDRESS":"安和路一段４７８巷２弄１０１號","OBJECTID":337},"geometry":{"x":169439.95000000112,"y":2548257.0999999996}},{"attributes":{"ID":338,"DIS_CODE":0,"TOWNNAME":"關廟區","LI":"埤頭里","LIN":"1鄰","STREET":"關新路","SECT":"一段","MAREA":" ","LANE":" ","ALLEY":" ","HOUSE_NO":"６８２號","E_COORD97":179177.406517,"N_COORD97":2543537.56788,"ADDRESS":"關新路一段６８２號","OBJECTID":338},"geometry":{"x":179177.4065170018,"y":2543537.5678840037}},{"attributes":{"ID":339,"DIS_CODE":0,"TOWNNAME":"安平區","LI":"平安里","LIN":"22鄰","STREET":"安平路","SECT":" ","MAREA":" ","LANE":"４４６巷","ALLEY":"２５弄","HOUSE_NO":"１２號之２三樓","E_COORD97":165247.09993900001,"N_COORD97":2544435.2061399999,"ADDRESS":"安平路４４６巷２５弄１２號之２三樓","OBJECTID":339},"geometry":{"x":165247.09993900172,"y":2544435.2061400022}},{"attributes":{"ID":340,"DIS_CODE":0,"TOWNNAME":"關廟區","LI":"埤頭里","LIN":"1鄰","STREET":"關新路","SECT":"一段","MAREA":" ","LANE":" ","ALLEY":" ","HOUSE_NO":"６２６號","E_COORD97":179356.48736999999,"N_COORD97":2543372.7856899998,"ADDRESS":"關新路一段６２６號","OBJECTID":340},"geometry":{"x":179356.48737000022,"y":2543372.785690004}},{"attributes":{"ID":341,"DIS_CODE":0,"TOWNNAME":"安平區","LI":"平安里","LIN":"22鄰","STREET":"安平路","SECT":" ","MAREA":" ","LANE":"４４６巷","ALLEY":"２５弄","HOUSE_NO":"１２號之３","E_COORD97":165246.88803100001,"N_COORD97":2544435.62947,"ADDRESS":"安平路４４６巷２５弄１２號之３","OBJECTID":341},"geometry":{"x":165246.88803100027,"y":2544435.6294730008}},{"attributes":{"ID":342,"DIS_CODE":0,"TOWNNAME":"安平區","LI":"平安里","LIN":"22鄰","STREET":"安平路","SECT":" ","MAREA":" ","LANE":"４４６巷","ALLEY":"２５弄","HOUSE_NO":"１２號之４","E_COORD97":165247.09993900001,"N_COORD97":2544435.41781,"ADDRESS":"安平路４４６巷２５弄１２號之４","OBJECTID":342},"geometry":{"x":165247.09993900172,"y":2544435.4178069998}},{"attributes":{"ID":343,"DIS_CODE":0,"TOWNNAME":"安南區","LI":"安東里","LIN":"17鄰","STREET":"安和路","SECT":"一段","MAREA":" ","LANE":"４７８巷","ALLEY":"２弄","HOUSE_NO":"９５號","E_COORD97":169434.60999999999,"N_COORD97":2548267.6499999999,"ADDRESS":"安和路一段４７８巷２弄９５號","OBJECTID":343},"geometry":{"x":169434.61000000034,"y":2548267.6500000004}},{"attributes":{"ID":344,"DIS_CODE":0,"TOWNNAME":"新營區","LI":"太北里","LIN":"20鄰","STREET":" ","SECT":" ","MAREA":"太子宮","LANE":" ","ALLEY":" ","HOUSE_NO":"１４０號之６","E_COORD97":175745.910474,"N_COORD97":2576804.4226700002,"ADDRESS":"太子宮１４０號之６","OBJECTID":344},"geometry":{"x":175745.91047399864,"y":2576804.4226680007}},{"attributes":{"ID":345,"DIS_CODE":0,"TOWNNAME":"新營區","LI":"太北里","LIN":"20鄰","STREET":" ","SECT":" ","MAREA":"太子宮","LANE":" ","ALLEY":" ","HOUSE_NO":"１４０號之１９","E_COORD97":175551.03,"N_COORD97":2576686.3300000001,"ADDRESS":"太子宮１４０號之１９","OBJECTID":345},"geometry":{"x":175551.03000000026,"y":2576686.3300000019}},{"attributes":{"ID":346,"DIS_CODE":0,"TOWNNAME":"新營區","LI":"太北里","LIN":"20鄰","STREET":" ","SECT":" ","MAREA":"太子宮","LANE":" ","ALLEY":" ","HOUSE_NO":"１４０號之２２","E_COORD97":175346.95999999999,"N_COORD97":2576790.3500000001,"ADDRESS":"太子宮１４０號之２２","OBJECTID":346},"geometry":{"x":175346.96000000183,"y":2576790.3500000015}},{"attributes":{"ID":347,"DIS_CODE":0,"TOWNNAME":"安南區","LI":"安東里","LIN":"17鄰","STREET":"安和路","SECT":"一段","MAREA":" ","LANE":"４７８巷","ALLEY":"２弄","HOUSE_NO":"１６９號","E_COORD97":169450.95000000001,"N_COORD97":2548240.21,"ADDRESS":"安和路一段４７８巷２弄１６９號","OBJECTID":347},"geometry":{"x":169450.95000000019,"y":2548240.2100000009}},{"attributes":{"ID":348,"DIS_CODE":0,"TOWNNAME":"關廟區","LI":"埤頭里","LIN":"5鄰","STREET":"關新路","SECT":"一段","MAREA":" ","LANE":" ","ALLEY":" ","HOUSE_NO":"８１６號","E_COORD97":179137.94628599999,"N_COORD97":2543960.7420899998,"ADDRESS":"關新路一段８１６號","OBJECTID":348},"geometry":{"x":179137.94628600124,"y":2543960.7420889996}},{"attributes":{"ID":349,"DIS_CODE":0,"TOWNNAME":"關廟區","LI":"埤頭里","LIN":"5鄰","STREET":"關新路","SECT":"一段","MAREA":" ","LANE":" ","ALLEY":" ","HOUSE_NO":"８１６號","E_COORD97":179137.94628599999,"N_COORD97":2543960.7420899998,"ADDRESS":"關新路一段８１６號","OBJECTID":349},"geometry":{"x":179137.94628600124,"y":2543960.7420889996}},{"attributes":{"ID":350,"DIS_CODE":0,"TOWNNAME":"新營區","LI":"太北里","LIN":"20鄰","STREET":" ","SECT":" ","MAREA":"太子宮","LANE":" ","ALLEY":" ","HOUSE_NO":"１４０號之２８","E_COORD97":175467.94,"N_COORD97":2576640.23,"ADDRESS":"太子宮１４０號之２８","OBJECTID":350},"geometry":{"x":175467.94000000227,"y":2576640.2300000023}},{"attributes":{"ID":351,"DIS_CODE":0,"TOWNNAME":"新營區","LI":"太北里","LIN":"20鄰","STREET":" ","SECT":" ","MAREA":"太子宮","LANE":" ","ALLEY":" ","HOUSE_NO":"１４０號之３２","E_COORD97":175373.98000000001,"N_COORD97":2576469.0499999998,"ADDRESS":"太子宮１４０號之３２","OBJECTID":351},"geometry":{"x":175373.98000000045,"y":2576469.0500000007}},{"attributes":{"ID":352,"DIS_CODE":0,"TOWNNAME":"安南區","LI":"安東里","LIN":"17鄰","STREET":"安和路","SECT":"一段","MAREA":" ","LANE":"４７８巷","ALLEY":"２弄","HOUSE_NO":"１２５號","E_COORD97":169458.10999999999,"N_COORD97":2548275.6499999999,"ADDRESS":"安和路一段４７８巷２弄１２５號","OBJECTID":352},"geometry":{"x":169458.11000000034,"y":2548275.6500000022}},{"attributes":{"ID":353,"DIS_CODE":0,"TOWNNAME":"新營區","LI":"太北里","LIN":"20鄰","STREET":" ","SECT":" ","MAREA":"太子宮","LANE":" ","ALLEY":" ","HOUSE_NO":"１４０號之３５","E_COORD97":175226.94,"N_COORD97":2576521.8399999999,"ADDRESS":"太子宮１４０號之３５","OBJECTID":353},"geometry":{"x":175226.94000000041,"y":2576521.8400000036}},{"attributes":{"ID":354,"DIS_CODE":0,"TOWNNAME":"關廟區","LI":"埤頭里","LIN":"1鄰","STREET":"關新路","SECT":"一段","MAREA":" ","LANE":" ","ALLEY":" ","HOUSE_NO":"６８６號","E_COORD97":179177.19464999999,"N_COORD97":2543541.90705,"ADDRESS":"關新路一段６８６號","OBJECTID":354},"geometry":{"x":179177.19465000089,"y":2543541.9070490021}},{"attributes":{"ID":355,"DIS_CODE":0,"TOWNNAME":"新營區","LI":"太北里","LIN":"20鄰","STREET":" ","SECT":" ","MAREA":"太子宮","LANE":" ","ALLEY":" ","HOUSE_NO":"１４０之２號","E_COORD97":175855.262915,"N_COORD97":2576855.64597,"ADDRESS":"太子宮１４０之２號","OBJECTID":355},"geometry":{"x":175855.26291500125,"y":2576855.6459739991}},{"attributes":{"ID":356,"DIS_CODE":0,"TOWNNAME":"新營區","LI":"太北里","LIN":"20鄰","STREET":" ","SECT":" ","MAREA":"太子宮","LANE":" ","ALLEY":" ","HOUSE_NO":"１４０之２９號","E_COORD97":175589.08720499999,"N_COORD97":2576817.7576600001,"ADDRESS":"太子宮１４０之２９號","OBJECTID":356},"geometry":{"x":175589.08720500208,"y":2576817.7576610018}},{"attributes":{"ID":357,"DIS_CODE":0,"TOWNNAME":"新營區","LI":"太北里","LIN":"20鄰","STREET":" ","SECT":" ","MAREA":"太子宮","LANE":" ","ALLEY":" ","HOUSE_NO":"１４０之３６號","E_COORD97":175302.99070200001,"N_COORD97":2576504.9145,"ADDRESS":"太子宮１４０之３６號","OBJECTID":357},"geometry":{"x":175302.99070200138,"y":2576504.9144969992}},{"attributes":{"ID":358,"DIS_CODE":0,"TOWNNAME":"新營區","LI":"太北里","LIN":"20鄰","STREET":" ","SECT":" ","MAREA":"太子宮","LANE":" ","ALLEY":" ","HOUSE_NO":"１４０之３７號","E_COORD97":175324.60688199999,"N_COORD97":2576492.7436700002,"ADDRESS":"太子宮１４０之３７號","OBJECTID":358},"geometry":{"x":175324.60688200127,"y":2576492.7436699998}},{"attributes":{"ID":359,"DIS_CODE":0,"TOWNNAME":"六甲區","LI":"甲東里","LIN":"1鄰","STREET":"復興街","SECT":" ","MAREA":" ","LANE":"２６巷","ALLEY":" ","HOUSE_NO":"２號","E_COORD97":183937.65921700001,"N_COORD97":2569957.8725100001,"ADDRESS":"復興街２６巷２號","OBJECTID":359},"geometry":{"x":183937.65921700094,"y":2569957.8725120015}},{"attributes":{"ID":360,"DIS_CODE":0,"TOWNNAME":"安南區","LI":"東和里","LIN":"7鄰","STREET":"長和路","SECT":"一段","MAREA":" ","LANE":"２１７巷","ALLEY":"１７９弄","HOUSE_NO":"４０號","E_COORD97":171456.45000000001,"N_COORD97":2550159.5,"ADDRESS":"長和路一段２１７巷１７９弄４０號","OBJECTID":360},"geometry":{"x":171456.45000000019,"y":2550159.5}},{"attributes":{"ID":361,"DIS_CODE":0,"TOWNNAME":"新營區","LI":"太北里","LIN":"20鄰","STREET":" ","SECT":" ","MAREA":"太子宮","LANE":" ","ALLEY":" ","HOUSE_NO":"１４０之４０號","E_COORD97":175101.87545600001,"N_COORD97":2576641.6510899998,"ADDRESS":"太子宮１４０之４０號","OBJECTID":361},"geometry":{"x":175101.87545599975,"y":2576641.6510889996}},{"attributes":{"ID":362,"DIS_CODE":0,"TOWNNAME":"永康區","LI":"中興里","LIN":"3鄰","STREET":"中華一路","SECT":" ","MAREA":" ","LANE":" ","ALLEY":" ","HOUSE_NO":"３８號","E_COORD97":171889.27934400001,"N_COORD97":2544983.2321299999,"ADDRESS":"中華一路３８號","OBJECTID":362},"geometry":{"x":171889.27934399992,"y":2544983.2321340013}},{"attributes":{"ID":363,"DIS_CODE":0,"TOWNNAME":"永康區","LI":"中興里","LIN":"3鄰","STREET":"中華一路","SECT":" ","MAREA":" ","LANE":" ","ALLEY":" ","HOUSE_NO":"４０號","E_COORD97":171885.25323199999,"N_COORD97":2544983.0204699999,"ADDRESS":"中華一路４０號","OBJECTID":363},"geometry":{"x":171885.2532320004,"y":2544983.0204680003}},{"attributes":{"ID":364,"DIS_CODE":0,"TOWNNAME":"永康區","LI":"中興里","LIN":"3鄰","STREET":"中華一路","SECT":" ","MAREA":" ","LANE":" ","ALLEY":" ","HOUSE_NO":"４２號","E_COORD97":171882.07472199999,"N_COORD97":2544982.5971300001,"ADDRESS":"中華一路４２號","OBJECTID":364},"geometry":{"x":171882.07472200133,"y":2544982.5971340016}},{"attributes":{"ID":365,"DIS_CODE":0,"TOWNNAME":"北區","LI":"五福里","LIN":"13鄰","STREET":"成功路","SECT":" ","MAREA":" ","LANE":" ","ALLEY":" ","HOUSE_NO":"２７８號之１樓","E_COORD97":168183.053105,"N_COORD97":2544464.25031,"ADDRESS":"成功路２７８號之１樓","OBJECTID":365},"geometry":{"x":168183.05310500041,"y":2544464.2503110003}},{"attributes":{"ID":366,"DIS_CODE":0,"TOWNNAME":"新營區","LI":"太北里","LIN":"20鄰","STREET":" ","SECT":" ","MAREA":"太子宮","LANE":" ","ALLEY":" ","HOUSE_NO":"１４０之４８號","E_COORD97":175394.75350600001,"N_COORD97":2576262.1329600001,"ADDRESS":"太子宮１４０之４８號","OBJECTID":366},"geometry":{"x":175394.75350600015,"y":2576262.1329609994}},{"attributes":{"ID":367,"DIS_CODE":0,"TOWNNAME":"永康區","LI":"烏竹里","LIN":"4鄰","STREET":"烏竹街","SECT":" ","MAREA":" ","LANE":" ","ALLEY":" ","HOUSE_NO":"７２之１號","E_COORD97":174503.70930300001,"N_COORD97":2549390.0239200001,"ADDRESS":"烏竹街７２之１號","OBJECTID":367},"geometry":{"x":174503.70930300094,"y":2549390.0239210017}},{"attributes":{"ID":368,"DIS_CODE":0,"TOWNNAME":"安平區","LI":"平安里","LIN":"22鄰","STREET":"安平路","SECT":" ","MAREA":" ","LANE":"４４６巷","ALLEY":"２５弄","HOUSE_NO":"１３號之４","E_COORD97":165249.55160000001,"N_COORD97":2544415.73282,"ADDRESS":"安平路４４６巷２５弄１３號之４","OBJECTID":368},"geometry":{"x":165249.55159999989,"y":2544415.7328169998}},{"attributes":{"ID":369,"DIS_CODE":0,"TOWNNAME":"關廟區","LI":"埤頭里","LIN":"1鄰","STREET":"關新路","SECT":"一段","MAREA":" ","LANE":" ","ALLEY":" ","HOUSE_NO":"６９８號","E_COORD97":179173.67000000001,"N_COORD97":2543564.2999999998,"ADDRESS":"關新路一段６９８號","OBJECTID":369},"geometry":{"x":179173.67000000086,"y":2543564.3000000007}},{"attributes":{"ID":370,"DIS_CODE":0,"TOWNNAME":"新營區","LI":"太北里","LIN":"20鄰","STREET":" ","SECT":" ","MAREA":"太子宮","LANE":" ","ALLEY":" ","HOUSE_NO":"１４０之５８號","E_COORD97":175416.52741800001,"N_COORD97":2576272.4294799999,"ADDRESS":"太子宮１４０之５８號","OBJECTID":370},"geometry":{"x":175416.52741800062,"y":2576272.4294810034}},{"attributes":{"ID":371,"DIS_CODE":0,"TOWNNAME":"北區","LI":"玉皇里","LIN":"10鄰","STREET":"佑民街","SECT":" ","MAREA":" ","LANE":"８５巷","ALLEY":" ","HOUSE_NO":"２之１號","E_COORD97":168665.94715399999,"N_COORD97":2544494.7302899999,"ADDRESS":"佑民街８５巷２之１號","OBJECTID":371},"geometry":{"x":168665.94715400133,"y":2544494.7302940004}},{"attributes":{"ID":372,"DIS_CODE":0,"TOWNNAME":"安平區","LI":"平安里","LIN":"22鄰","STREET":"安平路","SECT":" ","MAREA":" ","LANE":"４４６巷","ALLEY":"２５弄","HOUSE_NO":"１３號之１","E_COORD97":165249.97541499999,"N_COORD97":2544416.1561500002,"ADDRESS":"安平路４４６巷２５弄１３號之１","OBJECTID":372},"geometry":{"x":165249.97541499883,"y":2544416.156150002}},{"attributes":{"ID":373,"DIS_CODE":0,"TOWNNAME":"安平區","LI":"平安里","LIN":"22鄰","STREET":"安平路","SECT":" ","MAREA":" ","LANE":"４４６巷","ALLEY":"２５弄","HOUSE_NO":"１３號之２","E_COORD97":165249.763508,"N_COORD97":2544416.1561500002,"ADDRESS":"安平路４４６巷２５弄１３號之２","OBJECTID":373},"geometry":{"x":165249.76350800134,"y":2544416.156150002}},{"attributes":{"ID":374,"DIS_CODE":0,"TOWNNAME":"安平區","LI":"平安里","LIN":"22鄰","STREET":"安平路","SECT":" ","MAREA":" ","LANE":"４４６巷","ALLEY":"２５弄","HOUSE_NO":"１３號之３","E_COORD97":165249.55160000001,"N_COORD97":2544415.9444800001,"ADDRESS":"安平路４４６巷２５弄１３號之３","OBJECTID":374},"geometry":{"x":165249.55159999989,"y":2544415.944484001}},{"attributes":{"ID":375,"DIS_CODE":0,"TOWNNAME":"安平區","LI":"平安里","LIN":"22鄰","STREET":"安平路","SECT":" ","MAREA":" ","LANE":"４４６巷","ALLEY":"２５弄","HOUSE_NO":"１４號之１","E_COORD97":165241.49911400001,"N_COORD97":2544436.0528099998,"ADDRESS":"安平路４４６巷２５弄１４號之１","OBJECTID":375},"geometry":{"x":165241.4991140021,"y":2544436.0528059993}},{"attributes":{"ID":376,"DIS_CODE":0,"TOWNNAME":"安平區","LI":"平安里","LIN":"22鄰","STREET":"安平路","SECT":" ","MAREA":" ","LANE":"４４６巷","ALLEY":"２５弄","HOUSE_NO":"１４號之２","E_COORD97":165241.28720699999,"N_COORD97":2544435.8411400001,"ADDRESS":"安平路４４６巷２５弄１４號之２","OBJECTID":376},"geometry":{"x":165241.28720699996,"y":2544435.841140002}},{"attributes":{"ID":377,"DIS_CODE":0,"TOWNNAME":"安平區","LI":"平安里","LIN":"22鄰","STREET":"安平路","SECT":" ","MAREA":" ","LANE":"４４６巷","ALLEY":"２５弄","HOUSE_NO":"１４號之３","E_COORD97":165241.07529899999,"N_COORD97":2544435.8411400001,"ADDRESS":"安平路４４６巷２５弄１４號之３","OBJECTID":377},"geometry":{"x":165241.07529900037,"y":2544435.841140002}},{"attributes":{"ID":378,"DIS_CODE":0,"TOWNNAME":"安平區","LI":"平安里","LIN":"22鄰","STREET":"安平路","SECT":" ","MAREA":" ","LANE":"４４６巷","ALLEY":"２５弄","HOUSE_NO":"１４號之４","E_COORD97":165240.863392,"N_COORD97":2544436.0528099998,"ADDRESS":"安平路４４６巷２５弄１４號之４","OBJECTID":378},"geometry":{"x":165240.86339200009,"y":2544436.0528059993}},{"attributes":{"ID":379,"DIS_CODE":0,"TOWNNAME":"安平區","LI":"平安里","LIN":"22鄰","STREET":"安平路","SECT":" ","MAREA":" ","LANE":"４４６巷","ALLEY":"２５弄","HOUSE_NO":"１５號之１","E_COORD97":165245.31344999999,"N_COORD97":2544417.0028200001,"ADDRESS":"安平路４４６巷２５弄１５號之１","OBJECTID":379},"geometry":{"x":165245.31344999932,"y":2544417.0028159991}},{"attributes":{"ID":380,"DIS_CODE":0,"TOWNNAME":"安南區","LI":"安東里","LIN":"15鄰","STREET":"安和路","SECT":"一段","MAREA":" ","LANE":" ","ALLEY":" ","HOUSE_NO":"１６６號","E_COORD97":169413.26001999999,"N_COORD97":2547808.0655399999,"ADDRESS":"安和路一段１６６號","OBJECTID":380},"geometry":{"x":169413.26002000086,"y":2547808.0655399989}},{"attributes":{"ID":381,"DIS_CODE":0,"TOWNNAME":"安平區","LI":"平安里","LIN":"22鄰","STREET":"安平路","SECT":" ","MAREA":" ","LANE":"４４６巷","ALLEY":"２５弄","HOUSE_NO":"１５號之１二樓","E_COORD97":165245.52535700001,"N_COORD97":2544417.0028200001,"ADDRESS":"安平路４４６巷２５弄１５號之１二樓","OBJECTID":381},"geometry":{"x":165245.5253569996,"y":2544417.0028159991}},{"attributes":{"ID":382,"DIS_CODE":0,"TOWNNAME":"關廟區","LI":"埤頭里","LIN":"1鄰","STREET":"關新路","SECT":"一段","MAREA":" ","LANE":" ","ALLEY":" ","HOUSE_NO":"７０２號","E_COORD97":179172.47,"N_COORD97":2543573.2999999998,"ADDRESS":"關新路一段７０２號","OBJECTID":382},"geometry":{"x":179172.46999999974,"y":2543573.3000000026}},{"attributes":{"ID":383,"DIS_CODE":0,"TOWNNAME":"安平區","LI":"平安里","LIN":"22鄰","STREET":"安平路","SECT":" ","MAREA":" ","LANE":"４４６巷","ALLEY":"２５弄","HOUSE_NO":"１５號之２","E_COORD97":165245.31344999999,"N_COORD97":2544416.5794799998,"ADDRESS":"安平路４４６巷２５弄１５號之２","OBJECTID":383},"geometry":{"x":165245.31344999932,"y":2544416.5794830006}},{"attributes":{"ID":384,"DIS_CODE":0,"TOWNNAME":"永康區","LI":"尚頂里","LIN":"2鄰","STREET":"尚頂路","SECT":" ","MAREA":" ","LANE":"５２巷","ALLEY":" ","HOUSE_NO":"１８號","E_COORD97":171280.27693600001,"N_COORD97":2547529.3690900002,"ADDRESS":"尚頂路５２巷１８號","OBJECTID":384},"geometry":{"x":171280.27693600208,"y":2547529.3690920025}},{"attributes":{"ID":385,"DIS_CODE":0,"TOWNNAME":"新營區","LI":"太北里","LIN":"20鄰","STREET":" ","SECT":" ","MAREA":"太子宮","LANE":" ","ALLEY":" ","HOUSE_NO":"１４０之６９號","E_COORD97":175160.31210499999,"N_COORD97":2576417.73857,"ADDRESS":"太子宮１４０之６９號","OBJECTID":385},"geometry":{"x":175160.31210500095,"y":2576417.7385689989}},{"attributes":{"ID":386,"DIS_CODE":0,"TOWNNAME":"永康區","LI":"尚頂里","LIN":"2鄰","STREET":"尚頂路","SECT":" ","MAREA":" ","LANE":"５２巷","ALLEY":" ","HOUSE_NO":"３０號","E_COORD97":171333.46399399999,"N_COORD97":2547528.5224299999,"ADDRESS":"尚頂路５２巷３０號","OBJECTID":386},"geometry":{"x":171333.46399400104,"y":2547528.5224260017}},{"attributes":{"ID":387,"DIS_CODE":0,"TOWNNAME":"關廟區","LI":"埤頭里","LIN":"1鄰","STREET":"關新路","SECT":"一段","MAREA":" ","LANE":" ","ALLEY":" ","HOUSE_NO":"７０６號","E_COORD97":179170.83862699999,"N_COORD97":2543577.4141099998,"ADDRESS":"關新路一段７０６號","OBJECTID":387},"geometry":{"x":179170.83862700127,"y":2543577.4141130019}},{"attributes":{"ID":388,"DIS_CODE":0,"TOWNNAME":"安平區","LI":"平安里","LIN":"22鄰","STREET":"安平路","SECT":" ","MAREA":" ","LANE":"４４６巷","ALLEY":"２５弄","HOUSE_NO":"１５號之２三樓","E_COORD97":165245.10154199999,"N_COORD97":2544417.0028200001,"ADDRESS":"安平路４４６巷２５弄１５號之２三樓","OBJECTID":388},"geometry":{"x":165245.10154200066,"y":2544417.0028159991}},{"attributes":{"ID":389,"DIS_CODE":0,"TOWNNAME":"安平區","LI":"平安里","LIN":"22鄰","STREET":"安平路","SECT":" ","MAREA":" ","LANE":"４４６巷","ALLEY":"２５弄","HOUSE_NO":"１５號之３","E_COORD97":165245.10154199999,"N_COORD97":2544417.0028200001,"ADDRESS":"安平路４４６巷２５弄１５號之３","OBJECTID":389},"geometry":{"x":165245.10154200066,"y":2544417.0028159991}},{"attributes":{"ID":390,"DIS_CODE":0,"TOWNNAME":"永康區","LI":"尚頂里","LIN":"2鄰","STREET":"尚頂路","SECT":" ","MAREA":" ","LANE":"５２巷","ALLEY":" ","HOUSE_NO":"２０號","E_COORD97":171288.11726,"N_COORD97":2547529.1574300001,"ADDRESS":"尚頂路５２巷２０號","OBJECTID":390},"geometry":{"x":171288.11725999974,"y":2547529.1574260015}},{"attributes":{"ID":391,"DIS_CODE":0,"TOWNNAME":"安平區","LI":"平安里","LIN":"22鄰","STREET":"安平路","SECT":" ","MAREA":" ","LANE":"４４６巷","ALLEY":"２５弄","HOUSE_NO":"１５號之３四樓","E_COORD97":165245.31344999999,"N_COORD97":2544416.7911499999,"ADDRESS":"安平路４４６巷２５弄１５號之３四樓","OBJECTID":391},"geometry":{"x":165245.31344999932,"y":2544416.7911500018}},{"attributes":{"ID":392,"DIS_CODE":0,"TOWNNAME":"永康區","LI":"尚頂里","LIN":"2鄰","STREET":"尚頂路","SECT":" ","MAREA":" ","LANE":"５２巷","ALLEY":" ","HOUSE_NO":"２２號","E_COORD97":171296.16948400001,"N_COORD97":2547529.1574300001,"ADDRESS":"尚頂路５２巷２２號","OBJECTID":392},"geometry":{"x":171296.16948400158,"y":2547529.1574260015}},{"attributes":{"ID":393,"DIS_CODE":0,"TOWNNAME":"安平區","LI":"平安里","LIN":"22鄰","STREET":"安平路","SECT":" ","MAREA":" ","LANE":"４４６巷","ALLEY":"２５弄","HOUSE_NO":"１５號之４","E_COORD97":165244.677727,"N_COORD97":2544416.5794799998,"ADDRESS":"安平路４４６巷２５弄１５號之４","OBJECTID":393},"geometry":{"x":165244.67772700079,"y":2544416.5794830006}},{"attributes":{"ID":394,"DIS_CODE":0,"TOWNNAME":"永康區","LI":"尚頂里","LIN":"2鄰","STREET":"尚頂路","SECT":" ","MAREA":" ","LANE":"５２巷","ALLEY":" ","HOUSE_NO":"２６號","E_COORD97":171306.55261399999,"N_COORD97":2547528.7340899999,"ADDRESS":"尚頂路５２巷２６號","OBJECTID":394},"geometry":{"x":171306.55261400063,"y":2547528.734093003}},{"attributes":{"ID":395,"DIS_CODE":0,"TOWNNAME":"永康區","LI":"尚頂里","LIN":"2鄰","STREET":"尚頂路","SECT":" ","MAREA":" ","LANE":"５２巷","ALLEY":" ","HOUSE_NO":"２８號","E_COORD97":171319.47855299999,"N_COORD97":2547527.8874300001,"ADDRESS":"尚頂路５２巷２８號","OBJECTID":395},"geometry":{"x":171319.47855299991,"y":2547527.8874270003}},{"attributes":{"ID":396,"DIS_CODE":0,"TOWNNAME":"安平區","LI":"平安里","LIN":"22鄰","STREET":"安平路","SECT":" ","MAREA":" ","LANE":"４４６巷","ALLEY":"２５弄","HOUSE_NO":"１６號之２","E_COORD97":165234.50616600001,"N_COORD97":2544436.4761399999,"ADDRESS":"安平路４４６巷２５弄１６號之２","OBJECTID":396},"geometry":{"x":165234.50616599992,"y":2544436.4761389978}},{"attributes":{"ID":397,"DIS_CODE":0,"TOWNNAME":"安平區","LI":"平安里","LIN":"22鄰","STREET":"安平路","SECT":" ","MAREA":" ","LANE":"４４６巷","ALLEY":"２５弄","HOUSE_NO":"１６號之３","E_COORD97":165235.14188899999,"N_COORD97":2544436.68781,"ADDRESS":"安平路４４６巷２５弄１６號之３","OBJECTID":397},"geometry":{"x":165235.14188900031,"y":2544436.6878059991}},{"attributes":{"ID":398,"DIS_CODE":0,"TOWNNAME":"新營區","LI":"太北里","LIN":"20鄰","STREET":" ","SECT":" ","MAREA":"太子宮","LANE":" ","ALLEY":" ","HOUSE_NO":"１４２之３０號","E_COORD97":175722.332792,"N_COORD97":2577040.6732299998,"ADDRESS":"太子宮１４２之３０號","OBJECTID":398},"geometry":{"x":175722.33279199991,"y":2577040.6732320022}},{"attributes":{"ID":399,"DIS_CODE":0,"TOWNNAME":"安平區","LI":"平安里","LIN":"22鄰","STREET":"安平路","SECT":" ","MAREA":" ","LANE":"４４６巷","ALLEY":"２５弄","HOUSE_NO":"１６號之４","E_COORD97":165235.14188899999,"N_COORD97":2544436.68781,"ADDRESS":"安平路４４６巷２５弄１６號之４","OBJECTID":399},"geometry":{"x":165235.14188900031,"y":2544436.6878059991}},{"attributes":{"ID":400,"DIS_CODE":0,"TOWNNAME":"安平區","LI":"平安里","LIN":"22鄰","STREET":"安平路","SECT":" ","MAREA":" ","LANE":"４４６巷","ALLEY":"２５弄","HOUSE_NO":"１７號之１","E_COORD97":165241.28720699999,"N_COORD97":2544418.4844800001,"ADDRESS":"安平路４４６巷２５弄１７號之１","OBJECTID":400},"geometry":{"x":165241.28720699996,"y":2544418.4844819997}}]}