{"displayFieldName":"TOWNNAME","fieldAliases":{"ID":"ID","DIS_CODE":"DIS_CODE","TOWNNAME":"TOWNNAME","LI":"LI","LIN":"LIN","STREET":"STREET","SECT":"SECT","MAREA":"MAREA","LANE":"LANE","ALLEY":"ALLEY","HOUSE_NO":"HOUSE_NO","E_COORD97":"E_COORD97","N_COORD97":"N_COORD97","ADDRESS":"ADDRESS","OBJECTID":"OBJECTID"},"geometryType":"esriGeometryPoint","spatialReference":{"wkid":102443,"latestWkid":3826},"fields":[{"name":"ID","type":"esriFieldTypeDouble","alias":"ID"},{"name":"DIS_CODE","type":"esriFieldTypeInteger","alias":"DIS_CODE"},{"name":"TOWNNAME","type":"esriFieldTypeString","alias":"TOWNNAME","length":8},{"name":"LI","type":"esriFieldTypeString","alias":"LI","length":8},{"name":"LIN","type":"esriFieldTypeString","alias":"LIN","length":12},{"name":"STREET","type":"esriFieldTypeString","alias":"STREET","length":20},{"name":"SECT","type":"esriFieldTypeString","alias":"SECT","length":8},{"name":"MAREA","type":"esriFieldTypeString","alias":"MAREA","length":12},{"name":"LANE","type":"esriFieldTypeString","alias":"LANE","length":10},{"name":"ALLEY","type":"esriFieldTypeString","alias":"ALLEY","length":10},{"name":"HOUSE_NO","type":"esriFieldTypeString","alias":"HOUSE_NO","length":20},{"name":"E_COORD97","type":"esriFieldTypeDouble","alias":"E_COORD97"},{"name":"N_COORD97","type":"esriFieldTypeDouble","alias":"N_COORD97"},{"name":"ADDRESS","type":"esriFieldTypeString","alias":"ADDRESS","length":50},{"name":"OBJECTID","type":"esriFieldTypeOID","alias":"OBJECTID"}],"features":[{"attributes":{"ID":230605,"DIS_CODE":0,"TOWNNAME":"永康區","LI":"網寮里","LIN":"20鄰","STREET":"永二街","SECT":" ","MAREA":" ","LANE":"２４５巷","ALLEY":" ","HOUSE_NO":"２０號之７","E_COORD97":173307.98000000001,"N_COORD97":2546173.21,"ADDRESS":"永二街２４５巷２０號之７","OBJECTID":230601},"geometry":{"x":173307.98000000231,"y":2546173.2100000046}},{"attributes":{"ID":230606,"DIS_CODE":0,"TOWNNAME":"永康區","LI":"網寮里","LIN":"24鄰","STREET":"永春街","SECT":" ","MAREA":" ","LANE":"３８巷","ALLEY":" ","HOUSE_NO":"１號","E_COORD97":173742.64999999999,"N_COORD97":2546438.8599999999,"ADDRESS":"永春街３８巷１號","OBJECTID":230602},"geometry":{"x":173742.6500000013,"y":2546438.8600000013}},{"attributes":{"ID":230607,"DIS_CODE":0,"TOWNNAME":"永康區","LI":"龍潭里","LIN":"44鄰","STREET":"永平街","SECT":" ","MAREA":" ","LANE":"２９８巷","ALLEY":" ","HOUSE_NO":"１５之３號","E_COORD97":174676.23999999999,"N_COORD97":2547138.7999999998,"ADDRESS":"永平街２９８巷１５之３號","OBJECTID":230603},"geometry":{"x":174676.24000000115,"y":2547138.8000000045}},{"attributes":{"ID":230608,"DIS_CODE":0,"TOWNNAME":"仁德區","LI":"成功里","LIN":"23鄰","STREET":"成功一街","SECT":" ","MAREA":" ","LANE":"１３１巷","ALLEY":" ","HOUSE_NO":"４８號","E_COORD97":170655.12,"N_COORD97":2539854.6600000001,"ADDRESS":"成功一街１３１巷４８號","OBJECTID":230604},"geometry":{"x":170655.12000000011,"y":2539854.660000002}},{"attributes":{"ID":230609,"DIS_CODE":0,"TOWNNAME":"仁德區","LI":"後壁里","LIN":"23鄰","STREET":"中正路","SECT":"二段","MAREA":" ","LANE":"９７巷","ALLEY":" ","HOUSE_NO":"７７號","E_COORD97":172861.13,"N_COORD97":2538644.0299999998,"ADDRESS":"中正路二段９７巷７７號","OBJECTID":230605},"geometry":{"x":172861.13000000082,"y":2538644.0300000012}},{"attributes":{"ID":230610,"DIS_CODE":0,"TOWNNAME":"仁德區","LI":"後壁里","LIN":"23鄰","STREET":"中正路","SECT":"二段","MAREA":" ","LANE":"９７巷","ALLEY":" ","HOUSE_NO":"６８之１號","E_COORD97":173054.987655,"N_COORD97":2538633.8862000001,"ADDRESS":"中正路二段９７巷６８之１號","OBJECTID":230606},"geometry":{"x":173054.98765499983,"y":2538633.8862030022}},{"attributes":{"ID":230611,"DIS_CODE":0,"TOWNNAME":"官田區","LI":"隆本里","LIN":"23鄰","STREET":"勝利路","SECT":" ","MAREA":" ","LANE":"４８巷","ALLEY":" ","HOUSE_NO":"１０號","E_COORD97":179917.89000000001,"N_COORD97":2565953.71,"ADDRESS":"勝利路４８巷１０號","OBJECTID":230607},"geometry":{"x":179917.8900000006,"y":2565953.7100000028}},{"attributes":{"ID":230612,"DIS_CODE":0,"TOWNNAME":"官田區","LI":"隆本里","LIN":"23鄰","STREET":"勝利路","SECT":" ","MAREA":" ","LANE":"４８巷","ALLEY":" ","HOUSE_NO":"１２號","E_COORD97":179915.54000000001,"N_COORD97":2565958.5,"ADDRESS":"勝利路４８巷１２號","OBJECTID":230608},"geometry":{"x":179915.54000000097,"y":2565958.5}},{"attributes":{"ID":230613,"DIS_CODE":0,"TOWNNAME":"官田區","LI":"隆本里","LIN":"23鄰","STREET":"勝利路","SECT":" ","MAREA":" ","LANE":"４８巷","ALLEY":" ","HOUSE_NO":"１６號","E_COORD97":179913.60000000001,"N_COORD97":2565963.4500000002,"ADDRESS":"勝利路４８巷１６號","OBJECTID":230609},"geometry":{"x":179913.59999999963,"y":2565963.4500000011}},{"attributes":{"ID":230614,"DIS_CODE":0,"TOWNNAME":"南區","LI":"建南里","LIN":"2鄰","STREET":"永成路","SECT":"二段","MAREA":" ","LANE":"８８１巷","ALLEY":" ","HOUSE_NO":"４２號","E_COORD97":167340.19964899999,"N_COORD97":2540257.12316,"ADDRESS":"永成路二段８８１巷４２號","OBJECTID":230610},"geometry":{"x":167340.19964900054,"y":2540257.1231600028}},{"attributes":{"ID":230615,"DIS_CODE":0,"TOWNNAME":"官田區","LI":"隆本里","LIN":"23鄰","STREET":"勝利路","SECT":" ","MAREA":" ","LANE":"４８巷","ALLEY":" ","HOUSE_NO":"１８號","E_COORD97":179912.03,"N_COORD97":2565967.8199999998,"ADDRESS":"勝利路４８巷１８號","OBJECTID":230611},"geometry":{"x":179912.03000000119,"y":2565967.8200000003}},{"attributes":{"ID":230616,"DIS_CODE":0,"TOWNNAME":"永康區","LI":"埔園里","LIN":"11鄰","STREET":"中山路","SECT":" ","MAREA":" ","LANE":"１５５巷","ALLEY":" ","HOUSE_NO":"９號","E_COORD97":173660.14000000001,"N_COORD97":2547923.9399999999,"ADDRESS":"中山路１５５巷９號","OBJECTID":230612},"geometry":{"x":173660.13999999966,"y":2547923.9400000013}},{"attributes":{"ID":230617,"DIS_CODE":0,"TOWNNAME":"北區","LI":"中樓里","LIN":"2鄰","STREET":"前鋒路","SECT":" ","MAREA":" ","LANE":"１８５巷","ALLEY":" ","HOUSE_NO":"５號二樓之２","E_COORD97":169457.82000000001,"N_COORD97":2544754.2000000002,"ADDRESS":"前鋒路１８５巷５號二樓之２","OBJECTID":230613},"geometry":{"x":169457.82000000123,"y":2544754.1999999974}},{"attributes":{"ID":230618,"DIS_CODE":0,"TOWNNAME":"永康區","LI":"\u25A0洲里","LIN":"5鄰","STREET":"仁愛街","SECT":" ","MAREA":" ","LANE":"１０３巷","ALLEY":" ","HOUSE_NO":"３６號","E_COORD97":171963.75,"N_COORD97":2549522.2799999998,"ADDRESS":"仁愛街１０３巷３６號","OBJECTID":230614},"geometry":{"x":171963.75000000093,"y":2549522.2800000012}},{"attributes":{"ID":230619,"DIS_CODE":0,"TOWNNAME":"永康區","LI":"埔園里","LIN":"34鄰","STREET":"八德街","SECT":" ","MAREA":" ","LANE":"８８巷","ALLEY":" ","HOUSE_NO":"９號","E_COORD97":174178.23999999999,"N_COORD97":2548548.6800000002,"ADDRESS":"八德街８８巷９號","OBJECTID":230615},"geometry":{"x":174178.24000000022,"y":2548548.6799999978}},{"attributes":{"ID":230620,"DIS_CODE":0,"TOWNNAME":"歸仁區","LI":"辜厝里","LIN":"47鄰","STREET":"民權九街","SECT":" ","MAREA":" ","LANE":" ","ALLEY":" ","HOUSE_NO":"６６號","E_COORD97":177101.92000000001,"N_COORD97":2540339.0299999998,"ADDRESS":"民權九街６６號","OBJECTID":230616},"geometry":{"x":177101.92000000086,"y":2540339.0300000012}},{"attributes":{"ID":230621,"DIS_CODE":0,"TOWNNAME":"仁德區","LI":"仁義里","LIN":"47鄰","STREET":"中正路","SECT":"二段","MAREA":" ","LANE":" ","ALLEY":" ","HOUSE_NO":"１０６８號","E_COORD97":173377.23000000001,"N_COORD97":2540989.27,"ADDRESS":"中正路二段１０６８號","OBJECTID":230617},"geometry":{"x":173377.23000000045,"y":2540989.2699999996}},{"attributes":{"ID":230622,"DIS_CODE":0,"TOWNNAME":"佳里區","LI":"安西里","LIN":"47鄰","STREET":"新生路","SECT":" ","MAREA":" ","LANE":" ","ALLEY":" ","HOUSE_NO":"４３２號","E_COORD97":165195.72,"N_COORD97":2562195.7000000002,"ADDRESS":"新生路４３２號","OBJECTID":230618},"geometry":{"x":165195.71999999881,"y":2562195.7000000011}},{"attributes":{"ID":230623,"DIS_CODE":0,"TOWNNAME":"佳里區","LI":"安西里","LIN":"47鄰","STREET":"義民街","SECT":" ","MAREA":" ","LANE":" ","ALLEY":" ","HOUSE_NO":"３１９號","E_COORD97":165232.54999999999,"N_COORD97":2562378.6000000001,"ADDRESS":"義民街３１９號","OBJECTID":230619},"geometry":{"x":165232.54999999888,"y":2562378.6000000034}},{"attributes":{"ID":230624,"DIS_CODE":0,"TOWNNAME":"佳里區","LI":"安西里","LIN":"47鄰","STREET":"義民街","SECT":" ","MAREA":" ","LANE":" ","ALLEY":" ","HOUSE_NO":"３２１號","E_COORD97":165228.89999999999,"N_COORD97":2562378.8199999998,"ADDRESS":"義民街３２１號","OBJECTID":230620},"geometry":{"x":165228.90000000037,"y":2562378.8200000022}},{"attributes":{"ID":230625,"DIS_CODE":0,"TOWNNAME":"佳里區","LI":"安西里","LIN":"47鄰","STREET":"義民街","SECT":" ","MAREA":" ","LANE":" ","ALLEY":" ","HOUSE_NO":"３２３號","E_COORD97":165225.01000000001,"N_COORD97":2562379.1400000001,"ADDRESS":"義民街３２３號","OBJECTID":230621},"geometry":{"x":165225.01000000071,"y":2562379.1400000006}},{"attributes":{"ID":230626,"DIS_CODE":0,"TOWNNAME":"佳里區","LI":"安西里","LIN":"47鄰","STREET":"義民街","SECT":" ","MAREA":" ","LANE":" ","ALLEY":" ","HOUSE_NO":"３２５號","E_COORD97":165220.85999999999,"N_COORD97":2562379.0899999999,"ADDRESS":"義民街３２５號","OBJECTID":230622},"geometry":{"x":165220.8600000022,"y":2562379.0900000036}},{"attributes":{"ID":230627,"DIS_CODE":0,"TOWNNAME":"佳里區","LI":"安西里","LIN":"47鄰","STREET":"義民街","SECT":" ","MAREA":" ","LANE":" ","ALLEY":" ","HOUSE_NO":"３２７號","E_COORD97":165216.62,"N_COORD97":2562379.3199999998,"ADDRESS":"義民街３２７號","OBJECTID":230623},"geometry":{"x":165216.62000000011,"y":2562379.3200000022}},{"attributes":{"ID":230628,"DIS_CODE":0,"TOWNNAME":"佳里區","LI":"安西里","LIN":"47鄰","STREET":"義民街","SECT":" ","MAREA":" ","LANE":" ","ALLEY":" ","HOUSE_NO":"３２９號","E_COORD97":165213.10999999999,"N_COORD97":2562379.3599999999,"ADDRESS":"義民街３２９號","OBJECTID":230624},"geometry":{"x":165213.11000000127,"y":2562379.3599999994}},{"attributes":{"ID":230629,"DIS_CODE":0,"TOWNNAME":"佳里區","LI":"安西里","LIN":"47鄰","STREET":"義民街","SECT":" ","MAREA":" ","LANE":" ","ALLEY":" ","HOUSE_NO":"３３１號","E_COORD97":165209.87,"N_COORD97":2562379.27,"ADDRESS":"義民街３３１號","OBJECTID":230625},"geometry":{"x":165209.87000000011,"y":2562379.2699999996}},{"attributes":{"ID":230630,"DIS_CODE":0,"TOWNNAME":"佳里區","LI":"安西里","LIN":"47鄰","STREET":"義民街","SECT":" ","MAREA":" ","LANE":" ","ALLEY":" ","HOUSE_NO":"３４７號","E_COORD97":165162.35999999999,"N_COORD97":2562380.0699999998,"ADDRESS":"義民街３４７號","OBJECTID":230626},"geometry":{"x":165162.36000000127,"y":2562380.0700000022}},{"attributes":{"ID":230631,"DIS_CODE":0,"TOWNNAME":"官田區","LI":"隆本里","LIN":"23鄰","STREET":"勝利路","SECT":" ","MAREA":" ","LANE":"４８巷","ALLEY":" ","HOUSE_NO":"２０號","E_COORD97":179910.70999999999,"N_COORD97":2565972.5699999998,"ADDRESS":"勝利路４８巷２０號","OBJECTID":230627},"geometry":{"x":179910.71000000089,"y":2565972.5700000003}},{"attributes":{"ID":230632,"DIS_CODE":0,"TOWNNAME":"官田區","LI":"隆本里","LIN":"23鄰","STREET":"勝利路","SECT":" ","MAREA":" ","LANE":"４８巷","ALLEY":" ","HOUSE_NO":"２２號","E_COORD97":179909.04000000001,"N_COORD97":2565977.0899999999,"ADDRESS":"勝利路４８巷２２號","OBJECTID":230628},"geometry":{"x":179909.04000000004,"y":2565977.0900000017}},{"attributes":{"ID":230633,"DIS_CODE":0,"TOWNNAME":"永康區","LI":"復興里","LIN":"4鄰","STREET":"復興路","SECT":" ","MAREA":" ","LANE":"４２３巷","ALLEY":" ","HOUSE_NO":"８８號","E_COORD97":172225.48000000001,"N_COORD97":2544011.0600000001,"ADDRESS":"復興路４２３巷８８號","OBJECTID":230629},"geometry":{"x":172225.48000000138,"y":2544011.0600000042}},{"attributes":{"ID":230634,"DIS_CODE":0,"TOWNNAME":"永康區","LI":"復興里","LIN":"13鄰","STREET":"復興路","SECT":" ","MAREA":" ","LANE":"２８２巷","ALLEY":" ","HOUSE_NO":"１號","E_COORD97":172367.62,"N_COORD97":2544353.0299999998,"ADDRESS":"復興路２８２巷１號","OBJECTID":230630},"geometry":{"x":172367.62000000197,"y":2544353.0300000012}},{"attributes":{"ID":230635,"DIS_CODE":0,"TOWNNAME":"永康區","LI":"復華里","LIN":"4鄰","STREET":"復國二路","SECT":" ","MAREA":" ","LANE":"２４３巷","ALLEY":" ","HOUSE_NO":"１０號","E_COORD97":172978.04999999999,"N_COORD97":2546127.8199999998,"ADDRESS":"復國二路２４３巷１０號","OBJECTID":230631},"geometry":{"x":172978.05000000168,"y":2546127.820000004}},{"attributes":{"ID":230636,"DIS_CODE":0,"TOWNNAME":"官田區","LI":"隆本里","LIN":"23鄰","STREET":"勝利路","SECT":" ","MAREA":" ","LANE":"４８巷","ALLEY":" ","HOUSE_NO":"２號","E_COORD97":179922.39000000001,"N_COORD97":2565941.29,"ADDRESS":"勝利路４８巷２號","OBJECTID":230632},"geometry":{"x":179922.39000000153,"y":2565941.290000001}},{"attributes":{"ID":230637,"DIS_CODE":0,"TOWNNAME":"官田區","LI":"隆本里","LIN":"23鄰","STREET":"勝利路","SECT":" ","MAREA":" ","LANE":"４８巷","ALLEY":" ","HOUSE_NO":"６號","E_COORD97":179920.75,"N_COORD97":2565945.54,"ADDRESS":"勝利路４８巷６號","OBJECTID":230633},"geometry":{"x":179920.75000000093,"y":2565945.540000001}},{"attributes":{"ID":230638,"DIS_CODE":0,"TOWNNAME":"官田區","LI":"隆本里","LIN":"23鄰","STREET":"勝利路","SECT":" ","MAREA":" ","LANE":"４８巷","ALLEY":" ","HOUSE_NO":"８號","E_COORD97":179919.48000000001,"N_COORD97":2565950.02,"ADDRESS":"勝利路４８巷８號","OBJECTID":230634},"geometry":{"x":179919.48000000138,"y":2565950.0200000014}},{"attributes":{"ID":230639,"DIS_CODE":0,"TOWNNAME":"永康區","LI":"復興里","LIN":"5鄰","STREET":"復興路","SECT":" ","MAREA":" ","LANE":"４２３巷","ALLEY":" ","HOUSE_NO":"２５號","E_COORD97":172151.64000000001,"N_COORD97":2544279.7799999998,"ADDRESS":"復興路４２３巷２５號","OBJECTID":230635},"geometry":{"x":172151.64000000153,"y":2544279.7800000012}},{"attributes":{"ID":230640,"DIS_CODE":0,"TOWNNAME":"永康區","LI":"復華里","LIN":"32鄰","STREET":"復華十街","SECT":" ","MAREA":" ","LANE":"４５巷","ALLEY":" ","HOUSE_NO":"１５號","E_COORD97":172589.23000000001,"N_COORD97":2546372.5800000001,"ADDRESS":"復華十街４５巷１５號","OBJECTID":230636},"geometry":{"x":172589.23000000231,"y":2546372.5800000001}},{"attributes":{"ID":230641,"DIS_CODE":0,"TOWNNAME":"永康區","LI":"復興里","LIN":"13鄰","STREET":"復興路","SECT":" ","MAREA":" ","LANE":"２８２巷","ALLEY":" ","HOUSE_NO":"７號","E_COORD97":172367.82000000001,"N_COORD97":2544362.7799999998,"ADDRESS":"復興路２８２巷７號","OBJECTID":230637},"geometry":{"x":172367.8200000003,"y":2544362.7799999993}},{"attributes":{"ID":230642,"DIS_CODE":0,"TOWNNAME":"永康區","LI":"安康里","LIN":"6鄰","STREET":"中華路","SECT":" ","MAREA":" ","LANE":"７２７巷","ALLEY":" ","HOUSE_NO":"７５號","E_COORD97":170656.14000000001,"N_COORD97":2546306.52,"ADDRESS":"中華路７２７巷７５號","OBJECTID":230638},"geometry":{"x":170656.13999999966,"y":2546306.5200000014}},{"attributes":{"ID":230643,"DIS_CODE":0,"TOWNNAME":"永康區","LI":"南灣里","LIN":"20鄰","STREET":"大灣路","SECT":" ","MAREA":" ","LANE":"７６４巷","ALLEY":" ","HOUSE_NO":"７０號","E_COORD97":174241.56,"N_COORD97":2544686.3300000001,"ADDRESS":"大灣路７６４巷７０號","OBJECTID":230639},"geometry":{"x":174241.55999999959,"y":2544686.3299999982}},{"attributes":{"ID":230644,"DIS_CODE":0,"TOWNNAME":"永康區","LI":"復國里","LIN":"9鄰","STREET":"復國二路","SECT":" ","MAREA":" ","LANE":"６９巷","ALLEY":" ","HOUSE_NO":"１０號","E_COORD97":172818.97,"N_COORD97":2545235.27,"ADDRESS":"復國二路６９巷１０號","OBJECTID":230640},"geometry":{"x":172818.96999999881,"y":2545235.2699999996}},{"attributes":{"ID":230645,"DIS_CODE":0,"TOWNNAME":"永康區","LI":"永康里","LIN":"24鄰","STREET":"中山南路","SECT":" ","MAREA":" ","LANE":"５９７巷","ALLEY":" ","HOUSE_NO":"１６號之２","E_COORD97":173530.89999999999,"N_COORD97":2547254.7999999998,"ADDRESS":"中山南路５９７巷１６號之２","OBJECTID":230641},"geometry":{"x":173530.9000000013,"y":2547254.8000000026}},{"attributes":{"ID":230646,"DIS_CODE":0,"TOWNNAME":"永康區","LI":"二王里","LIN":"47鄰","STREET":"南工街","SECT":" ","MAREA":" ","LANE":" ","ALLEY":" ","HOUSE_NO":"２６２號","E_COORD97":171894.87,"N_COORD97":2545976.6699999999,"ADDRESS":"南工街２６２號","OBJECTID":230642},"geometry":{"x":171894.87000000104,"y":2545976.6700000018}},{"attributes":{"ID":230647,"DIS_CODE":0,"TOWNNAME":"永康區","LI":"崑山里","LIN":"47鄰","STREET":"永大路","SECT":"二段","MAREA":" ","LANE":" ","ALLEY":" ","HOUSE_NO":"１６７號","E_COORD97":174297.39000000001,"N_COORD97":2545167.8799999999,"ADDRESS":"永大路二段１６７號","OBJECTID":230643},"geometry":{"x":174297.38999999966,"y":2545167.8800000008}},{"attributes":{"ID":230648,"DIS_CODE":0,"TOWNNAME":"新市區","LI":"新和里","LIN":"47鄰","STREET":"和平街","SECT":" ","MAREA":" ","LANE":" ","ALLEY":" ","HOUSE_NO":"１８８號","E_COORD97":177409.73000000001,"N_COORD97":2553269.25,"ADDRESS":"和平街１８８號","OBJECTID":230644},"geometry":{"x":177409.73000000045,"y":2553269.2500000019}},{"attributes":{"ID":230649,"DIS_CODE":0,"TOWNNAME":"仁德區","LI":"仁義里","LIN":"47鄰","STREET":"中正路","SECT":"二段","MAREA":" ","LANE":" ","ALLEY":" ","HOUSE_NO":"１０８２號","E_COORD97":173368.04000000001,"N_COORD97":2541026.5299999998,"ADDRESS":"中正路二段１０８２號","OBJECTID":230645},"geometry":{"x":173368.03999999911,"y":2541026.5300000012}},{"attributes":{"ID":230650,"DIS_CODE":0,"TOWNNAME":"仁德區","LI":"仁義里","LIN":"47鄰","STREET":"仁義路","SECT":" ","MAREA":" ","LANE":" ","ALLEY":" ","HOUSE_NO":"１５號","E_COORD97":173417.89999999999,"N_COORD97":2540956.77,"ADDRESS":"仁義路１５號","OBJECTID":230646},"geometry":{"x":173417.90000000037,"y":2540956.7699999977}},{"attributes":{"ID":230651,"DIS_CODE":0,"TOWNNAME":"仁德區","LI":"仁義里","LIN":"47鄰","STREET":"仁義路","SECT":" ","MAREA":" ","LANE":" ","ALLEY":" ","HOUSE_NO":"１９號","E_COORD97":173425.95000000001,"N_COORD97":2540961.02,"ADDRESS":"仁義路１９號","OBJECTID":230647},"geometry":{"x":173425.95000000019,"y":2540961.0199999996}},{"attributes":{"ID":230652,"DIS_CODE":0,"TOWNNAME":"永康區","LI":"\u25A0行里","LIN":"47鄰","STREET":"新行街","SECT":" ","MAREA":" ","LANE":" ","ALLEY":" ","HOUSE_NO":"５６號","E_COORD97":172290.97,"N_COORD97":2548844.7799999998,"ADDRESS":"新行街５６號","OBJECTID":230648},"geometry":{"x":172290.97000000067,"y":2548844.7799999993}},{"attributes":{"ID":230653,"DIS_CODE":0,"TOWNNAME":"永康區","LI":"\u25A0行里","LIN":"47鄰","STREET":"新行街","SECT":" ","MAREA":" ","LANE":" ","ALLEY":" ","HOUSE_NO":"４０號","E_COORD97":172275.67000000001,"N_COORD97":2548817.48,"ADDRESS":"新行街４０號","OBJECTID":230649},"geometry":{"x":172275.67000000086,"y":2548817.4800000004}},{"attributes":{"ID":230654,"DIS_CODE":0,"TOWNNAME":"安平區","LI":"文平里","LIN":"17鄰","STREET":"建平三街","SECT":" ","MAREA":" ","LANE":" ","ALLEY":" ","HOUSE_NO":"７３號","E_COORD97":165732.57999999999,"N_COORD97":2542919.7799999998,"ADDRESS":"建平三街７３號","OBJECTID":230650},"geometry":{"x":165732.58000000007,"y":2542919.7800000031}},{"attributes":{"ID":230655,"DIS_CODE":0,"TOWNNAME":"安平區","LI":"文平里","LIN":"17鄰","STREET":"建平三街","SECT":" ","MAREA":" ","LANE":" ","ALLEY":" ","HOUSE_NO":"７１號","E_COORD97":165740.98999999999,"N_COORD97":2542918.8199999998,"ADDRESS":"建平三街７１號","OBJECTID":230651},"geometry":{"x":165740.99000000115,"y":2542918.8200000022}},{"attributes":{"ID":230656,"DIS_CODE":0,"TOWNNAME":"安平區","LI":"文平里","LIN":"17鄰","STREET":"建平三街","SECT":" ","MAREA":" ","LANE":" ","ALLEY":" ","HOUSE_NO":"６９號","E_COORD97":165747.66,"N_COORD97":2542917.8700000001,"ADDRESS":"建平三街６９號","OBJECTID":230652},"geometry":{"x":165747.66000000201,"y":2542917.8700000029}},{"attributes":{"ID":230657,"DIS_CODE":0,"TOWNNAME":"官田區","LI":"隆本里","LIN":"23鄰","STREET":"勝利路","SECT":" ","MAREA":" ","LANE":"６８巷","ALLEY":" ","HOUSE_NO":"１０號","E_COORD97":179942.19,"N_COORD97":2565973.5,"ADDRESS":"勝利路６８巷１０號","OBJECTID":230653},"geometry":{"x":179942.19000000134,"y":2565973.5000000037}},{"attributes":{"ID":230658,"DIS_CODE":0,"TOWNNAME":"永康區","LI":"北灣里","LIN":"31鄰","STREET":"大同街","SECT":" ","MAREA":" ","LANE":"３３巷","ALLEY":" ","HOUSE_NO":"８號","E_COORD97":175251.73000000001,"N_COORD97":2545386,"ADDRESS":"大同街３３巷８號","OBJECTID":230654},"geometry":{"x":175251.73000000045,"y":2545386}},{"attributes":{"ID":230659,"DIS_CODE":0,"TOWNNAME":"永康區","LI":"尚頂里","LIN":"9鄰","STREET":"正南一街","SECT":" ","MAREA":" ","LANE":"１２９巷","ALLEY":" ","HOUSE_NO":"２６號","E_COORD97":170791.79000000001,"N_COORD97":2547190.04,"ADDRESS":"正南一街１２９巷２６號","OBJECTID":230655},"geometry":{"x":170791.79000000097,"y":2547190.040000001}},{"attributes":{"ID":230660,"DIS_CODE":0,"TOWNNAME":"官田區","LI":"渡頭里","LIN":"23鄰","STREET":" ","SECT":" ","MAREA":"渡子頭","LANE":" ","ALLEY":" ","HOUSE_NO":"１７５號之２","E_COORD97":181317.14000000001,"N_COORD97":2563123.4900000002,"ADDRESS":"渡子頭１７５號之２","OBJECTID":230656},"geometry":{"x":181317.13999999966,"y":2563123.4900000021}},{"attributes":{"ID":230661,"DIS_CODE":0,"TOWNNAME":"官田區","LI":"渡頭里","LIN":"23鄰","STREET":" ","SECT":" ","MAREA":"渡子頭","LANE":" ","ALLEY":" ","HOUSE_NO":"１７５號之３","E_COORD97":181315.97,"N_COORD97":2563119.6800000002,"ADDRESS":"渡子頭１７５號之３","OBJECTID":230657},"geometry":{"x":181315.97000000067,"y":2563119.6799999997}},{"attributes":{"ID":230662,"DIS_CODE":0,"TOWNNAME":"官田區","LI":"渡頭里","LIN":"23鄰","STREET":" ","SECT":" ","MAREA":"渡子頭","LANE":" ","ALLEY":" ","HOUSE_NO":"１７５號之４","E_COORD97":181319.75,"N_COORD97":2563136.2799999998,"ADDRESS":"渡子頭１７５號之４","OBJECTID":230658},"geometry":{"x":181319.75,"y":2563136.2799999993}},{"attributes":{"ID":230663,"DIS_CODE":0,"TOWNNAME":"永康區","LI":"南灣里","LIN":"23鄰","STREET":"大灣路","SECT":" ","MAREA":" ","LANE":"７６４巷","ALLEY":" ","HOUSE_NO":"８７號","E_COORD97":174193.12,"N_COORD97":2544753.8300000001,"ADDRESS":"大灣路７６４巷８７號","OBJECTID":230659},"geometry":{"x":174193.11999999918,"y":2544753.8300000001}},{"attributes":{"ID":230664,"DIS_CODE":0,"TOWNNAME":"官田區","LI":"渡頭里","LIN":"23鄰","STREET":" ","SECT":" ","MAREA":"渡子頭","LANE":" ","ALLEY":" ","HOUSE_NO":"１７５號","E_COORD97":181308.82000000001,"N_COORD97":2563152.4900000002,"ADDRESS":"渡子頭１７５號","OBJECTID":230660},"geometry":{"x":181308.82000000123,"y":2563152.4900000002}},{"attributes":{"ID":230665,"DIS_CODE":0,"TOWNNAME":"官田區","LI":"渡頭里","LIN":"23鄰","STREET":" ","SECT":" ","MAREA":"渡子頭","LANE":" ","ALLEY":" ","HOUSE_NO":"１７６號","E_COORD97":181338.13,"N_COORD97":2563143.52,"ADDRESS":"渡子頭１７６號","OBJECTID":230661},"geometry":{"x":181338.13000000175,"y":2563143.5200000014}},{"attributes":{"ID":230666,"DIS_CODE":0,"TOWNNAME":"安平區","LI":"平通里","LIN":"2鄰","STREET":"育平九街","SECT":" ","MAREA":" ","LANE":"１９２巷","ALLEY":" ","HOUSE_NO":"７１號七樓之１２","E_COORD97":164998.38,"N_COORD97":2544160.48,"ADDRESS":"育平九街１９２巷７１號七樓之１２","OBJECTID":230662},"geometry":{"x":164998.38000000082,"y":2544160.4800000042}},{"attributes":{"ID":230667,"DIS_CODE":0,"TOWNNAME":"安平區","LI":"平通里","LIN":"2鄰","STREET":"育平九街","SECT":" ","MAREA":" ","LANE":"１９２巷","ALLEY":" ","HOUSE_NO":"７１號七樓之１３","E_COORD97":164998.38,"N_COORD97":2544160.48,"ADDRESS":"育平九街１９２巷７１號七樓之１３","OBJECTID":230663},"geometry":{"x":164998.38000000082,"y":2544160.4800000042}},{"attributes":{"ID":230668,"DIS_CODE":0,"TOWNNAME":"安平區","LI":"文平里","LIN":"17鄰","STREET":"建平三街","SECT":" ","MAREA":" ","LANE":" ","ALLEY":" ","HOUSE_NO":"６７號","E_COORD97":165754.42000000001,"N_COORD97":2542916.46,"ADDRESS":"建平三街６７號","OBJECTID":230664},"geometry":{"x":165754.42000000086,"y":2542916.4600000009}},{"attributes":{"ID":230669,"DIS_CODE":0,"TOWNNAME":"官田區","LI":"渡頭里","LIN":"23鄰","STREET":" ","SECT":" ","MAREA":"渡子頭","LANE":" ","ALLEY":" ","HOUSE_NO":"１８７號","E_COORD97":181379.54999999999,"N_COORD97":2563592.9900000002,"ADDRESS":"渡子頭１８７號","OBJECTID":230665},"geometry":{"x":181379.55000000075,"y":2563592.9900000002}},{"attributes":{"ID":230670,"DIS_CODE":0,"TOWNNAME":"官田區","LI":"渡頭里","LIN":"23鄰","STREET":" ","SECT":" ","MAREA":"渡子頭","LANE":" ","ALLEY":" ","HOUSE_NO":"１８８號","E_COORD97":181397.73999999999,"N_COORD97":2563619.9100000001,"ADDRESS":"渡子頭１８８號","OBJECTID":230666},"geometry":{"x":181397.74000000115,"y":2563619.9100000001}},{"attributes":{"ID":230671,"DIS_CODE":0,"TOWNNAME":"官田區","LI":"渡頭里","LIN":"23鄰","STREET":" ","SECT":" ","MAREA":"渡子頭","LANE":" ","ALLEY":" ","HOUSE_NO":"１８９號","E_COORD97":181355.22,"N_COORD97":2563620.4500000002,"ADDRESS":"渡子頭１８９號","OBJECTID":230667},"geometry":{"x":181355.21999999974,"y":2563620.450000003}},{"attributes":{"ID":230672,"DIS_CODE":0,"TOWNNAME":"永康區","LI":"龍潭里","LIN":"45鄰","STREET":"永平街","SECT":" ","MAREA":" ","LANE":"２３２巷","ALLEY":" ","HOUSE_NO":"１６號","E_COORD97":174658.51000000001,"N_COORD97":2547103.7400000002,"ADDRESS":"永平街２３２巷１６號","OBJECTID":230668},"geometry":{"x":174658.51000000071,"y":2547103.7400000002}},{"attributes":{"ID":230673,"DIS_CODE":0,"TOWNNAME":"安平區","LI":"平通里","LIN":"2鄰","STREET":"育平九街","SECT":" ","MAREA":" ","LANE":"１９２巷","ALLEY":" ","HOUSE_NO":"７１號七樓之１４","E_COORD97":164998.38,"N_COORD97":2544160.48,"ADDRESS":"育平九街１９２巷７１號七樓之１４","OBJECTID":230669},"geometry":{"x":164998.38000000082,"y":2544160.4800000042}},{"attributes":{"ID":230674,"DIS_CODE":0,"TOWNNAME":"安平區","LI":"平通里","LIN":"2鄰","STREET":"育平九街","SECT":" ","MAREA":" ","LANE":"１９２巷","ALLEY":" ","HOUSE_NO":"７１號七樓之１５","E_COORD97":164998.38,"N_COORD97":2544160.48,"ADDRESS":"育平九街１９２巷７１號七樓之１５","OBJECTID":230670},"geometry":{"x":164998.38000000082,"y":2544160.4800000042}},{"attributes":{"ID":230675,"DIS_CODE":0,"TOWNNAME":"安平區","LI":"平通里","LIN":"2鄰","STREET":"育平九街","SECT":" ","MAREA":" ","LANE":"１９２巷","ALLEY":" ","HOUSE_NO":"７１號七樓之１６","E_COORD97":164998.38,"N_COORD97":2544160.48,"ADDRESS":"育平九街１９２巷７１號七樓之１６","OBJECTID":230671},"geometry":{"x":164998.38000000082,"y":2544160.4800000042}},{"attributes":{"ID":230676,"DIS_CODE":0,"TOWNNAME":"安平區","LI":"平通里","LIN":"2鄰","STREET":"育平九街","SECT":" ","MAREA":" ","LANE":"１９２巷","ALLEY":" ","HOUSE_NO":"７１號七樓之１７","E_COORD97":164998.38,"N_COORD97":2544160.48,"ADDRESS":"育平九街１９２巷７１號七樓之１７","OBJECTID":230672},"geometry":{"x":164998.38000000082,"y":2544160.4800000042}},{"attributes":{"ID":230677,"DIS_CODE":0,"TOWNNAME":"安平區","LI":"平通里","LIN":"2鄰","STREET":"育平九街","SECT":" ","MAREA":" ","LANE":"１９２巷","ALLEY":" ","HOUSE_NO":"７１號七樓之１８","E_COORD97":164998.38,"N_COORD97":2544160.48,"ADDRESS":"育平九街１９２巷７１號七樓之１８","OBJECTID":230673},"geometry":{"x":164998.38000000082,"y":2544160.4800000042}},{"attributes":{"ID":230678,"DIS_CODE":0,"TOWNNAME":"安平區","LI":"石門里","LIN":"17鄰","STREET":"\u25A0忠街","SECT":" ","MAREA":" ","LANE":" ","ALLEY":" ","HOUSE_NO":"７號之８","E_COORD97":164363.14999999999,"N_COORD97":2544602.6200000001,"ADDRESS":"\u25A0忠街７號之８","OBJECTID":230674},"geometry":{"x":164363.1500000013,"y":2544602.620000001}},{"attributes":{"ID":230679,"DIS_CODE":0,"TOWNNAME":"新市區","LI":"新和里","LIN":"23鄰","STREET":"中正路","SECT":" ","MAREA":" ","LANE":"１３９巷","ALLEY":" ","HOUSE_NO":"５號","E_COORD97":177349.45999999999,"N_COORD97":2552739.25,"ADDRESS":"中正路１３９巷５號","OBJECTID":230675},"geometry":{"x":177349.46000000089,"y":2552739.2500000037}},{"attributes":{"ID":230680,"DIS_CODE":0,"TOWNNAME":"永康區","LI":"新樹里","LIN":"4鄰","STREET":"富強路","SECT":"二段","MAREA":" ","LANE":"３９８巷","ALLEY":" ","HOUSE_NO":"５９號","E_COORD97":175740.07000000001,"N_COORD97":2547673.3300000001,"ADDRESS":"富強路二段３９８巷５９號","OBJECTID":230676},"geometry":{"x":175740.07000000123,"y":2547673.3299999982}},{"attributes":{"ID":230681,"DIS_CODE":0,"TOWNNAME":"安平區","LI":"平通里","LIN":"2鄰","STREET":"育平九街","SECT":" ","MAREA":" ","LANE":"１９２巷","ALLEY":" ","HOUSE_NO":"７１號七樓之１９","E_COORD97":164998.38,"N_COORD97":2544160.48,"ADDRESS":"育平九街１９２巷７１號七樓之１９","OBJECTID":230677},"geometry":{"x":164998.38000000082,"y":2544160.4800000042}},{"attributes":{"ID":230682,"DIS_CODE":0,"TOWNNAME":"安平區","LI":"平通里","LIN":"2鄰","STREET":"育平九街","SECT":" ","MAREA":" ","LANE":"１９２巷","ALLEY":" ","HOUSE_NO":"７１號七樓之２０","E_COORD97":164998.38,"N_COORD97":2544160.48,"ADDRESS":"育平九街１９２巷７１號七樓之２０","OBJECTID":230678},"geometry":{"x":164998.38000000082,"y":2544160.4800000042}},{"attributes":{"ID":230683,"DIS_CODE":0,"TOWNNAME":"安平區","LI":"平通里","LIN":"2鄰","STREET":"育平九街","SECT":" ","MAREA":" ","LANE":"１９２巷","ALLEY":" ","HOUSE_NO":"７１號七樓之２１","E_COORD97":164998.38,"N_COORD97":2544160.48,"ADDRESS":"育平九街１９２巷７１號七樓之２１","OBJECTID":230679},"geometry":{"x":164998.38000000082,"y":2544160.4800000042}},{"attributes":{"ID":230684,"DIS_CODE":0,"TOWNNAME":"安平區","LI":"平通里","LIN":"2鄰","STREET":"育平九街","SECT":" ","MAREA":" ","LANE":"１９２巷","ALLEY":" ","HOUSE_NO":"７１號九樓之１０","E_COORD97":164998.38,"N_COORD97":2544160.48,"ADDRESS":"育平九街１９２巷７１號九樓之１０","OBJECTID":230680},"geometry":{"x":164998.38000000082,"y":2544160.4800000042}},{"attributes":{"ID":230685,"DIS_CODE":0,"TOWNNAME":"安平區","LI":"平通里","LIN":"2鄰","STREET":"育平九街","SECT":" ","MAREA":" ","LANE":"１９２巷","ALLEY":" ","HOUSE_NO":"７１號九樓之１１","E_COORD97":164998.38,"N_COORD97":2544160.48,"ADDRESS":"育平九街１９２巷７１號九樓之１１","OBJECTID":230681},"geometry":{"x":164998.38000000082,"y":2544160.4800000042}},{"attributes":{"ID":230686,"DIS_CODE":0,"TOWNNAME":"永康區","LI":"\u25A0行里","LIN":"14鄰","STREET":"中正六街","SECT":" ","MAREA":" ","LANE":" ","ALLEY":" ","HOUSE_NO":"１７５號","E_COORD97":171853.54999999999,"N_COORD97":2548861.5099999998,"ADDRESS":"中正六街１７５號","OBJECTID":230682},"geometry":{"x":171853.54999999981,"y":2548861.5099999998}},{"attributes":{"ID":230687,"DIS_CODE":0,"TOWNNAME":"永康區","LI":"龍潭里","LIN":"14鄰","STREET":"龍埔街","SECT":" ","MAREA":" ","LANE":" ","ALLEY":" ","HOUSE_NO":"９４號","E_COORD97":174569.53,"N_COORD97":2548260.7599999998,"ADDRESS":"龍埔街９４號","OBJECTID":230683},"geometry":{"x":174569.53000000026,"y":2548260.7600000016}},{"attributes":{"ID":230688,"DIS_CODE":0,"TOWNNAME":"永康區","LI":"北灣里","LIN":"23鄰","STREET":"大灣路","SECT":" ","MAREA":" ","LANE":"１２巷","ALLEY":" ","HOUSE_NO":"１號","E_COORD97":175298.10999999999,"N_COORD97":2545987.5299999998,"ADDRESS":"大灣路１２巷１號","OBJECTID":230684},"geometry":{"x":175298.11000000034,"y":2545987.5300000012}},{"attributes":{"ID":230689,"DIS_CODE":0,"TOWNNAME":"善化區","LI":"胡厝里","LIN":"26鄰","STREET":" ","SECT":" ","MAREA":"烏橋","LANE":" ","ALLEY":" ","HOUSE_NO":"３２號","E_COORD97":175357.04000000001,"N_COORD97":2558894.5,"ADDRESS":"烏橋３２號","OBJECTID":230685},"geometry":{"x":175357.04000000097,"y":2558894.5000000037}},{"attributes":{"ID":230690,"DIS_CODE":0,"TOWNNAME":"善化區","LI":"溪美里","LIN":"1鄰","STREET":" ","SECT":" ","MAREA":"溪尾","LANE":" ","ALLEY":" ","HOUSE_NO":"９６５號","E_COORD97":177122.64000000001,"N_COORD97":2560151.77,"ADDRESS":"溪尾９６５號","OBJECTID":230686},"geometry":{"x":177122.6400000006,"y":2560151.7699999996}},{"attributes":{"ID":230691,"DIS_CODE":0,"TOWNNAME":"永康區","LI":"北灣里","LIN":"23鄰","STREET":"大灣路","SECT":" ","MAREA":" ","LANE":"１２巷","ALLEY":" ","HOUSE_NO":"６號","E_COORD97":175313.63,"N_COORD97":2545990.5899999999,"ADDRESS":"大灣路１２巷６號","OBJECTID":230687},"geometry":{"x":175313.63000000082,"y":2545990.5900000017}},{"attributes":{"ID":230692,"DIS_CODE":0,"TOWNNAME":"永康區","LI":"北灣里","LIN":"23鄰","STREET":"大灣路","SECT":" ","MAREA":" ","LANE":"１２巷","ALLEY":" ","HOUSE_NO":"８號","E_COORD97":175310.85000000001,"N_COORD97":2545992.8399999999,"ADDRESS":"大灣路１２巷８號","OBJECTID":230688},"geometry":{"x":175310.84999999963,"y":2545992.8400000017}},{"attributes":{"ID":230693,"DIS_CODE":0,"TOWNNAME":"永康區","LI":"復興里","LIN":"18鄰","STREET":"復興路","SECT":" ","MAREA":" ","LANE":"３５６巷","ALLEY":" ","HOUSE_NO":"７９號","E_COORD97":172333.85000000001,"N_COORD97":2544509.9300000002,"ADDRESS":"復興路３５６巷７９號","OBJECTID":230689},"geometry":{"x":172333.85000000056,"y":2544509.9300000016}},{"attributes":{"ID":230694,"DIS_CODE":0,"TOWNNAME":"永康區","LI":"復興里","LIN":"25鄰","STREET":"復興路","SECT":" ","MAREA":" ","LANE":"２７７巷","ALLEY":" ","HOUSE_NO":"１４０號","E_COORD97":172367.98999999999,"N_COORD97":2543942.7799999998,"ADDRESS":"復興路２７７巷１４０號","OBJECTID":230690},"geometry":{"x":172367.99000000022,"y":2543942.7799999993}},{"attributes":{"ID":230695,"DIS_CODE":0,"TOWNNAME":"歸仁區","LI":"八甲里","LIN":"14鄰","STREET":"大明街","SECT":" ","MAREA":" ","LANE":"１３８巷","ALLEY":" ","HOUSE_NO":"７８號","E_COORD97":178510.500168,"N_COORD97":2541657.2800799999,"ADDRESS":"大明街１３８巷７８號","OBJECTID":230691},"geometry":{"x":178510.50016800035,"y":2541657.2800790034}},{"attributes":{"ID":230696,"DIS_CODE":0,"TOWNNAME":"永康區","LI":"復興里","LIN":"15鄰","STREET":"復興路","SECT":" ","MAREA":" ","LANE":"３５６巷","ALLEY":" ","HOUSE_NO":"３３號","E_COORD97":172275.48000000001,"N_COORD97":2544419.27,"ADDRESS":"復興路３５６巷３３號","OBJECTID":230692},"geometry":{"x":172275.47999999952,"y":2544419.2700000014}},{"attributes":{"ID":230697,"DIS_CODE":0,"TOWNNAME":"永康區","LI":"復華里","LIN":"35鄰","STREET":"復國一路","SECT":" ","MAREA":" ","LANE":"４７５巷","ALLEY":" ","HOUSE_NO":"９號","E_COORD97":172583.89999999999,"N_COORD97":2546105.9900000002,"ADDRESS":"復國一路４７５巷９號","OBJECTID":230693},"geometry":{"x":172583.90000000037,"y":2546105.9899999984}},{"attributes":{"ID":230698,"DIS_CODE":0,"TOWNNAME":"永康區","LI":"復華里","LIN":"23鄰","STREET":"國華街","SECT":" ","MAREA":" ","LANE":"９７巷","ALLEY":" ","HOUSE_NO":"１６號","E_COORD97":172711.57000000001,"N_COORD97":2546075.9900000002,"ADDRESS":"國華街９７巷１６號","OBJECTID":230694},"geometry":{"x":172711.5700000003,"y":2546075.9900000039}},{"attributes":{"ID":230699,"DIS_CODE":0,"TOWNNAME":"永康區","LI":"北灣里","LIN":"23鄰","STREET":"大灣路","SECT":" ","MAREA":" ","LANE":"１２巷","ALLEY":" ","HOUSE_NO":"５號","E_COORD97":175281.72,"N_COORD97":2546000.04,"ADDRESS":"大灣路１２巷５號","OBJECTID":230695},"geometry":{"x":175281.71999999974,"y":2546000.040000001}},{"attributes":{"ID":230700,"DIS_CODE":0,"TOWNNAME":"永康區","LI":"五王里","LIN":"23鄰","STREET":"成功路","SECT":" ","MAREA":" ","LANE":"２４４巷","ALLEY":" ","HOUSE_NO":"２號","E_COORD97":171356.07000000001,"N_COORD97":2545813.02,"ADDRESS":"成功路２４４巷２號","OBJECTID":230696},"geometry":{"x":171356.07000000216,"y":2545813.0199999996}},{"attributes":{"ID":230701,"DIS_CODE":0,"TOWNNAME":"安平區","LI":"平通里","LIN":"2鄰","STREET":"育平九街","SECT":" ","MAREA":" ","LANE":"１９２巷","ALLEY":" ","HOUSE_NO":"７１號九樓之１２","E_COORD97":164998.38,"N_COORD97":2544160.48,"ADDRESS":"育平九街１９２巷７１號九樓之１２","OBJECTID":230697},"geometry":{"x":164998.38000000082,"y":2544160.4800000042}},{"attributes":{"ID":230702,"DIS_CODE":0,"TOWNNAME":"安平區","LI":"平通里","LIN":"2鄰","STREET":"育平九街","SECT":" ","MAREA":" ","LANE":"１９２巷","ALLEY":" ","HOUSE_NO":"７１號九樓之１３","E_COORD97":164998.38,"N_COORD97":2544160.48,"ADDRESS":"育平九街１９２巷７１號九樓之１３","OBJECTID":230698},"geometry":{"x":164998.38000000082,"y":2544160.4800000042}},{"attributes":{"ID":230703,"DIS_CODE":0,"TOWNNAME":"安平區","LI":"平通里","LIN":"2鄰","STREET":"育平九街","SECT":" ","MAREA":" ","LANE":"１９２巷","ALLEY":" ","HOUSE_NO":"７１號九樓之１４","E_COORD97":164998.38,"N_COORD97":2544160.48,"ADDRESS":"育平九街１９２巷７１號九樓之１４","OBJECTID":230699},"geometry":{"x":164998.38000000082,"y":2544160.4800000042}},{"attributes":{"ID":230704,"DIS_CODE":0,"TOWNNAME":"永康區","LI":"東橋里","LIN":"4鄰","STREET":"大橋一街","SECT":" ","MAREA":" ","LANE":"３２４巷","ALLEY":" ","HOUSE_NO":"６９號","E_COORD97":171411.5,"N_COORD97":2546543.1000000001,"ADDRESS":"大橋一街３２４巷６９號","OBJECTID":230700},"geometry":{"x":171411.5,"y":2546543.1000000015}},{"attributes":{"ID":230705,"DIS_CODE":0,"TOWNNAME":"新營區","LI":"南紙里","LIN":"2鄰","STREET":"太子路","SECT":" ","MAREA":" ","LANE":"１３９巷","ALLEY":" ","HOUSE_NO":"５８號七樓之２","E_COORD97":178008.94,"N_COORD97":2577710.77,"ADDRESS":"太子路１３９巷５８號七樓之２","OBJECTID":230701},"geometry":{"x":178008.94000000227,"y":2577710.7699999996}},{"attributes":{"ID":230706,"DIS_CODE":0,"TOWNNAME":"中西區","LI":"萬昌里","LIN":"17鄰","STREET":"青年路","SECT":" ","MAREA":" ","LANE":"１３２巷","ALLEY":" ","HOUSE_NO":"２３號","E_COORD97":168930.26999999999,"N_COORD97":2543526.46,"ADDRESS":"青年路１３２巷２３號","OBJECTID":230702},"geometry":{"x":168930.27000000048,"y":2543526.4600000009}},{"attributes":{"ID":230707,"DIS_CODE":0,"TOWNNAME":"永康區","LI":"網寮里","LIN":"14鄰","STREET":"永和街","SECT":" ","MAREA":" ","LANE":" ","ALLEY":" ","HOUSE_NO":"２３９號","E_COORD97":173375.60000000001,"N_COORD97":2546563.7999999998,"ADDRESS":"永和街２３９號","OBJECTID":230703},"geometry":{"x":173375.59999999963,"y":2546563.8000000026}},{"attributes":{"ID":230708,"DIS_CODE":0,"TOWNNAME":"永康區","LI":"龍潭里","LIN":"14鄰","STREET":"龍安街","SECT":" ","MAREA":" ","LANE":" ","ALLEY":" ","HOUSE_NO":"１９６號","E_COORD97":174634.12,"N_COORD97":2548409.52,"ADDRESS":"龍安街１９６號","OBJECTID":230704},"geometry":{"x":174634.12000000197,"y":2548409.5199999996}},{"attributes":{"ID":230709,"DIS_CODE":0,"TOWNNAME":"永康區","LI":"網寮里","LIN":"14鄰","STREET":"永和街","SECT":" ","MAREA":" ","LANE":" ","ALLEY":" ","HOUSE_NO":"２７６號","E_COORD97":173368.98000000001,"N_COORD97":2546588.4100000001,"ADDRESS":"永和街２７６號","OBJECTID":230705},"geometry":{"x":173368.98000000231,"y":2546588.4100000039}},{"attributes":{"ID":230710,"DIS_CODE":0,"TOWNNAME":"中西區","LI":"法華里","LIN":"14鄰","STREET":"五妃街","SECT":" ","MAREA":" ","LANE":" ","ALLEY":" ","HOUSE_NO":"９５號","E_COORD97":168876.69,"N_COORD97":2542560.48,"ADDRESS":"五妃街９５號","OBJECTID":230706},"geometry":{"x":168876.69000000041,"y":2542560.4800000042}},{"attributes":{"ID":230711,"DIS_CODE":0,"TOWNNAME":"中西區","LI":"法華里","LIN":"14鄰","STREET":"五妃街","SECT":" ","MAREA":" ","LANE":" ","ALLEY":" ","HOUSE_NO":"７７號","E_COORD97":168911.72,"N_COORD97":2542555.7599999998,"ADDRESS":"五妃街７７號","OBJECTID":230707},"geometry":{"x":168911.7200000016,"y":2542555.7600000016}},{"attributes":{"ID":230712,"DIS_CODE":0,"TOWNNAME":"中西區","LI":"法華里","LIN":"14鄰","STREET":"五妃街","SECT":" ","MAREA":" ","LANE":" ","ALLEY":" ","HOUSE_NO":"７９號","E_COORD97":168905.82000000001,"N_COORD97":2542550.2599999998,"ADDRESS":"五妃街７９號","OBJECTID":230708},"geometry":{"x":168905.8200000003,"y":2542550.2599999998}},{"attributes":{"ID":230713,"DIS_CODE":0,"TOWNNAME":"中西區","LI":"法華里","LIN":"14鄰","STREET":"五妃街","SECT":" ","MAREA":" ","LANE":" ","ALLEY":" ","HOUSE_NO":"８１號","E_COORD97":168900.70000000001,"N_COORD97":2542543.1899999999,"ADDRESS":"五妃街８１號","OBJECTID":230709},"geometry":{"x":168900.70000000112,"y":2542543.1899999995}},{"attributes":{"ID":230714,"DIS_CODE":0,"TOWNNAME":"中西區","LI":"法華里","LIN":"14鄰","STREET":"五妃街","SECT":" ","MAREA":" ","LANE":" ","ALLEY":" ","HOUSE_NO":"８３號","E_COORD97":168897.16,"N_COORD97":2542551.0499999998,"ADDRESS":"五妃街８３號","OBJECTID":230710},"geometry":{"x":168897.15999999922,"y":2542551.0500000026}},{"attributes":{"ID":230715,"DIS_CODE":0,"TOWNNAME":"中西區","LI":"法華里","LIN":"14鄰","STREET":"五妃街","SECT":" ","MAREA":" ","LANE":" ","ALLEY":" ","HOUSE_NO":"８７號","E_COORD97":168899.91,"N_COORD97":2542560.0899999999,"ADDRESS":"五妃街８７號","OBJECTID":230711},"geometry":{"x":168899.91000000015,"y":2542560.0900000017}},{"attributes":{"ID":230716,"DIS_CODE":0,"TOWNNAME":"中西區","LI":"法華里","LIN":"14鄰","STREET":"五妃街","SECT":" ","MAREA":" ","LANE":" ","ALLEY":" ","HOUSE_NO":"８９號","E_COORD97":168894.79999999999,"N_COORD97":2542558.1200000001,"ADDRESS":"五妃街８９號","OBJECTID":230712},"geometry":{"x":168894.80000000075,"y":2542558.1200000029}},{"attributes":{"ID":230717,"DIS_CODE":0,"TOWNNAME":"善化區","LI":"嘉南里","LIN":"12鄰","STREET":" ","SECT":" ","MAREA":"茄拔","LANE":" ","ALLEY":" ","HOUSE_NO":"３５５之１４號","E_COORD97":180687.38,"N_COORD97":2559595.52,"ADDRESS":"茄拔３５５之１４號","OBJECTID":230713},"geometry":{"x":180687.38000000082,"y":2559595.5200000033}},{"attributes":{"ID":230718,"DIS_CODE":0,"TOWNNAME":"永康區","LI":"新樹里","LIN":"12鄰","STREET":"富強路","SECT":"二段","MAREA":" ","LANE":"７７巷","ALLEY":" ","HOUSE_NO":"１５號","E_COORD97":175620.41,"N_COORD97":2546943.73,"ADDRESS":"富強路二段７７巷１５號","OBJECTID":230714},"geometry":{"x":175620.41000000201,"y":2546943.7300000023}},{"attributes":{"ID":230719,"DIS_CODE":0,"TOWNNAME":"善化區","LI":"坐駕里","LIN":"10鄰","STREET":"自強路","SECT":" ","MAREA":" ","LANE":"１２７巷","ALLEY":" ","HOUSE_NO":"２號","E_COORD97":177932.16,"N_COORD97":2558671.5,"ADDRESS":"自強路１２７巷２號","OBJECTID":230715},"geometry":{"x":177932.16000000015,"y":2558671.5000000019}},{"attributes":{"ID":230720,"DIS_CODE":0,"TOWNNAME":"永康區","LI":"網寮里","LIN":"21鄰","STREET":"文化路","SECT":" ","MAREA":" ","LANE":"２６１巷","ALLEY":" ","HOUSE_NO":"３１號","E_COORD97":173630.84,"N_COORD97":2546085.21,"ADDRESS":"文化路２６１巷３１號","OBJECTID":230716},"geometry":{"x":173630.84000000078,"y":2546085.2100000046}},{"attributes":{"ID":230721,"DIS_CODE":0,"TOWNNAME":"永康區","LI":"五王里","LIN":"23鄰","STREET":"成功路","SECT":" ","MAREA":" ","LANE":"２４４巷","ALLEY":" ","HOUSE_NO":"６４號","E_COORD97":171473.92999999999,"N_COORD97":2545891.02,"ADDRESS":"成功路２４４巷６４號","OBJECTID":230717},"geometry":{"x":171473.93000000063,"y":2545891.0199999996}},{"attributes":{"ID":230722,"DIS_CODE":0,"TOWNNAME":"永康區","LI":"五王里","LIN":"23鄰","STREET":"成功路","SECT":" ","MAREA":" ","LANE":"２４４巷","ALLEY":" ","HOUSE_NO":"５號","E_COORD97":171347,"N_COORD97":2545832.52,"ADDRESS":"成功路２４４巷５號","OBJECTID":230718},"geometry":{"x":171347,"y":2545832.5199999996}},{"attributes":{"ID":230723,"DIS_CODE":0,"TOWNNAME":"永康區","LI":"五王里","LIN":"23鄰","STREET":"成功路","SECT":" ","MAREA":" ","LANE":"２４４巷","ALLEY":" ","HOUSE_NO":"２５號","E_COORD97":171384.94,"N_COORD97":2545858.5099999998,"ADDRESS":"成功路２４４巷２５號","OBJECTID":230719},"geometry":{"x":171384.94000000134,"y":2545858.5100000016}},{"attributes":{"ID":230724,"DIS_CODE":0,"TOWNNAME":"南區","LI":"文南里","LIN":"2鄰","STREET":"金華路","SECT":"二段","MAREA":" ","LANE":"２８９巷","ALLEY":" ","HOUSE_NO":"２０號二樓","E_COORD97":167023.09,"N_COORD97":2542792.3799999999,"ADDRESS":"金華路二段２８９巷２０號二樓","OBJECTID":230720},"geometry":{"x":167023.09000000078,"y":2542792.379999999}},{"attributes":{"ID":230725,"DIS_CODE":0,"TOWNNAME":"南區","LI":"文南里","LIN":"2鄰","STREET":"金華路","SECT":"二段","MAREA":" ","LANE":"２８９巷","ALLEY":" ","HOUSE_NO":"２０號三樓","E_COORD97":167023.09,"N_COORD97":2542792.3799999999,"ADDRESS":"金華路二段２８９巷２０號三樓","OBJECTID":230721},"geometry":{"x":167023.09000000078,"y":2542792.379999999}},{"attributes":{"ID":230726,"DIS_CODE":0,"TOWNNAME":"善化區","LI":"胡厝里","LIN":"25鄰","STREET":" ","SECT":" ","MAREA":"烏橋","LANE":" ","ALLEY":" ","HOUSE_NO":"２６號之１８","E_COORD97":175425.45999999999,"N_COORD97":2558940.02,"ADDRESS":"烏橋２６號之１８","OBJECTID":230722},"geometry":{"x":175425.46000000089,"y":2558940.0199999996}},{"attributes":{"ID":230727,"DIS_CODE":0,"TOWNNAME":"北區","LI":"長榮里","LIN":"2鄰","STREET":"長榮路","SECT":"五段","MAREA":" ","LANE":"４１巷","ALLEY":" ","HOUSE_NO":"４０號七樓之３","E_COORD97":169892.04999999999,"N_COORD97":2545649.98,"ADDRESS":"長榮路五段４１巷４０號七樓之３","OBJECTID":230723},"geometry":{"x":169892.04999999981,"y":2545649.9800000023}},{"attributes":{"ID":230728,"DIS_CODE":0,"TOWNNAME":"北區","LI":"長榮里","LIN":"2鄰","STREET":"長榮路","SECT":"五段","MAREA":" ","LANE":"４１巷","ALLEY":" ","HOUSE_NO":"４０號七樓之５","E_COORD97":169892.04999999999,"N_COORD97":2545649.98,"ADDRESS":"長榮路五段４１巷４０號七樓之５","OBJECTID":230724},"geometry":{"x":169892.04999999981,"y":2545649.9800000023}},{"attributes":{"ID":230729,"DIS_CODE":0,"TOWNNAME":"新營區","LI":"南紙里","LIN":"2鄰","STREET":"太子路","SECT":" ","MAREA":" ","LANE":"１３９巷","ALLEY":" ","HOUSE_NO":"６６號三樓","E_COORD97":178003.5,"N_COORD97":2577691.9199999999,"ADDRESS":"太子路１３９巷６６號三樓","OBJECTID":230725},"geometry":{"x":178003.50000000093,"y":2577691.9200000018}},{"attributes":{"ID":230730,"DIS_CODE":0,"TOWNNAME":"善化區","LI":"嘉南里","LIN":"1鄰","STREET":" ","SECT":" ","MAREA":"茄拔","LANE":" ","ALLEY":" ","HOUSE_NO":"５９之１３號","E_COORD97":181142.73999999999,"N_COORD97":2559514.27,"ADDRESS":"茄拔５９之１３號","OBJECTID":230726},"geometry":{"x":181142.73999999929,"y":2559514.2700000014}},{"attributes":{"ID":230731,"DIS_CODE":0,"TOWNNAME":"新營區","LI":"南紙里","LIN":"2鄰","STREET":"太子路","SECT":" ","MAREA":" ","LANE":"１３９巷","ALLEY":" ","HOUSE_NO":"５８號四樓之１","E_COORD97":178008.81,"N_COORD97":2577710.77,"ADDRESS":"太子路１３９巷５８號四樓之１","OBJECTID":230727},"geometry":{"x":178008.80999999959,"y":2577710.7699999996}},{"attributes":{"ID":230732,"DIS_CODE":0,"TOWNNAME":"新營區","LI":"南紙里","LIN":"2鄰","STREET":"太子路","SECT":" ","MAREA":" ","LANE":"１３９巷","ALLEY":" ","HOUSE_NO":"６８號六樓","E_COORD97":178003.5,"N_COORD97":2577691.9199999999,"ADDRESS":"太子路１３９巷６８號六樓","OBJECTID":230728},"geometry":{"x":178003.50000000093,"y":2577691.9200000018}},{"attributes":{"ID":230733,"DIS_CODE":0,"TOWNNAME":"安南區","LI":"州北里","LIN":"14鄰","STREET":"安和路","SECT":"五段","MAREA":" ","LANE":" ","ALLEY":" ","HOUSE_NO":"１３８號","E_COORD97":169910.85999999999,"N_COORD97":2551778.1499999999,"ADDRESS":"安和路五段１３８號","OBJECTID":230729},"geometry":{"x":169910.86000000034,"y":2551778.1500000022}},{"attributes":{"ID":230734,"DIS_CODE":0,"TOWNNAME":"安南區","LI":"州北里","LIN":"14鄰","STREET":"安和路","SECT":"五段","MAREA":" ","LANE":" ","ALLEY":" ","HOUSE_NO":"１４６號","E_COORD97":169914.97,"N_COORD97":2551789.8999999999,"ADDRESS":"安和路五段１４６號","OBJECTID":230730},"geometry":{"x":169914.96999999974,"y":2551789.9000000022}},{"attributes":{"ID":230735,"DIS_CODE":0,"TOWNNAME":"安南區","LI":"州北里","LIN":"14鄰","STREET":"安和路","SECT":"五段","MAREA":" ","LANE":" ","ALLEY":" ","HOUSE_NO":"１２９號","E_COORD97":169883.54000000001,"N_COORD97":2551764.8599999999,"ADDRESS":"安和路五段１２９號","OBJECTID":230731},"geometry":{"x":169883.54000000097,"y":2551764.8600000031}},{"attributes":{"ID":230736,"DIS_CODE":0,"TOWNNAME":"善化區","LI":"嘉南里","LIN":"1鄰","STREET":" ","SECT":" ","MAREA":"茄拔","LANE":" ","ALLEY":" ","HOUSE_NO":"６０號之８","E_COORD97":181243.57000000001,"N_COORD97":2559511.02,"ADDRESS":"茄拔６０號之８","OBJECTID":230732},"geometry":{"x":181243.5700000003,"y":2559511.0200000033}},{"attributes":{"ID":230737,"DIS_CODE":0,"TOWNNAME":"安南區","LI":"佃東里","LIN":"14鄰","STREET":"公學路","SECT":"四段","MAREA":" ","LANE":" ","ALLEY":" ","HOUSE_NO":"５０號","E_COORD97":165812.20999999999,"N_COORD97":2552055.9900000002,"ADDRESS":"公學路四段５０號","OBJECTID":230733},"geometry":{"x":165812.21000000089,"y":2552055.9900000002}},{"attributes":{"ID":230738,"DIS_CODE":0,"TOWNNAME":"善化區","LI":"嘉北里","LIN":"12鄰","STREET":" ","SECT":" ","MAREA":"茄拔","LANE":" ","ALLEY":" ","HOUSE_NO":"２９０之９號","E_COORD97":180940.51000000001,"N_COORD97":2559807.27,"ADDRESS":"茄拔２９０之９號","OBJECTID":230734},"geometry":{"x":180940.51000000164,"y":2559807.2699999996}},{"attributes":{"ID":230739,"DIS_CODE":0,"TOWNNAME":"善化區","LI":"嘉南里","LIN":"12鄰","STREET":" ","SECT":" ","MAREA":"茄拔","LANE":" ","ALLEY":" ","HOUSE_NO":"３５９號之１２","E_COORD97":180588.92999999999,"N_COORD97":2559437.52,"ADDRESS":"茄拔３５９號之１２","OBJECTID":230735},"geometry":{"x":180588.93000000063,"y":2559437.5200000014}},{"attributes":{"ID":230740,"DIS_CODE":0,"TOWNNAME":"安南區","LI":"幸福里","LIN":"14鄰","STREET":"府安路","SECT":"六段","MAREA":" ","LANE":" ","ALLEY":" ","HOUSE_NO":"４６號","E_COORD97":166963.42000000001,"N_COORD97":2546643.6699999999,"ADDRESS":"府安路六段４６號","OBJECTID":230736},"geometry":{"x":166963.42000000086,"y":2546643.6700000037}},{"attributes":{"ID":230741,"DIS_CODE":0,"TOWNNAME":"安南區","LI":"城南里","LIN":"14鄰","STREET":"城西街","SECT":"二段","MAREA":" ","LANE":" ","ALLEY":" ","HOUSE_NO":"６號之６","E_COORD97":160220.42999999999,"N_COORD97":2551123.5,"ADDRESS":"城西街二段６號之６","OBJECTID":230737},"geometry":{"x":160220.4299999997,"y":2551123.4999999981}},{"attributes":{"ID":230742,"DIS_CODE":0,"TOWNNAME":"安南區","LI":"新順里","LIN":"14鄰","STREET":"永安路","SECT":" ","MAREA":" ","LANE":" ","ALLEY":" ","HOUSE_NO":"６６號","E_COORD97":170138.87,"N_COORD97":2549459.3300000001,"ADDRESS":"永安路６６號","OBJECTID":230738},"geometry":{"x":170138.87000000104,"y":2549459.3300000001}},{"attributes":{"ID":230743,"DIS_CODE":0,"TOWNNAME":"善化區","LI":"溪美里","LIN":"18鄰","STREET":" ","SECT":" ","MAREA":"溪尾","LANE":" ","ALLEY":" ","HOUSE_NO":"２１１號之１７","E_COORD97":177201.60000000001,"N_COORD97":2561314.77,"ADDRESS":"溪尾２１１號之１７","OBJECTID":230739},"geometry":{"x":177201.59999999963,"y":2561314.7699999996}},{"attributes":{"ID":230744,"DIS_CODE":0,"TOWNNAME":"善化區","LI":"溪美里","LIN":"18鄰","STREET":" ","SECT":" ","MAREA":"溪尾","LANE":" ","ALLEY":" ","HOUSE_NO":"２１１號之２","E_COORD97":177204.70999999999,"N_COORD97":2561366.77,"ADDRESS":"溪尾２１１號之２","OBJECTID":230740},"geometry":{"x":177204.70999999903,"y":2561366.7699999996}},{"attributes":{"ID":230745,"DIS_CODE":0,"TOWNNAME":"善化區","LI":"嘉南里","LIN":"13鄰","STREET":" ","SECT":" ","MAREA":"茄拔","LANE":" ","ALLEY":" ","HOUSE_NO":"３２７之１號","E_COORD97":180848.39999999999,"N_COORD97":2559518.27,"ADDRESS":"茄拔３２７之１號","OBJECTID":230741},"geometry":{"x":180848.40000000037,"y":2559518.2699999996}},{"attributes":{"ID":230746,"DIS_CODE":0,"TOWNNAME":"善化區","LI":"溪美里","LIN":"1鄰","STREET":" ","SECT":" ","MAREA":"溪尾","LANE":" ","ALLEY":" ","HOUSE_NO":"９７５之１號","E_COORD97":177143,"N_COORD97":2560085.77,"ADDRESS":"溪尾９７５之１號","OBJECTID":230742},"geometry":{"x":177143,"y":2560085.7700000033}},{"attributes":{"ID":230747,"DIS_CODE":0,"TOWNNAME":"善化區","LI":"東昌里","LIN":"6鄰","STREET":" ","SECT":" ","MAREA":"東勢寮","LANE":" ","ALLEY":" ","HOUSE_NO":"６１號之３","E_COORD97":180539.39999999999,"N_COORD97":2561899.77,"ADDRESS":"東勢寮６１號之３","OBJECTID":230743},"geometry":{"x":180539.40000000037,"y":2561899.7700000014}},{"attributes":{"ID":230748,"DIS_CODE":0,"TOWNNAME":"南區","LI":"建南里","LIN":"2鄰","STREET":"永成路","SECT":"二段","MAREA":" ","LANE":"８８１巷","ALLEY":" ","HOUSE_NO":"４８號","E_COORD97":167331.51587500001,"N_COORD97":2540255.4298299998,"ADDRESS":"永成路二段８８１巷４８號","OBJECTID":230744},"geometry":{"x":167331.51587499958,"y":2540255.4298279993}},{"attributes":{"ID":230749,"DIS_CODE":0,"TOWNNAME":"善化區","LI":"溪美里","LIN":"30鄰","STREET":" ","SECT":" ","MAREA":"溪尾","LANE":" ","ALLEY":" ","HOUSE_NO":"１９０之５號","E_COORD97":176888.98999999999,"N_COORD97":2561183.02,"ADDRESS":"溪尾１９０之５號","OBJECTID":230745},"geometry":{"x":176888.99000000022,"y":2561183.0200000014}},{"attributes":{"ID":230750,"DIS_CODE":0,"TOWNNAME":"新營區","LI":"南紙里","LIN":"2鄰","STREET":"太子路","SECT":" ","MAREA":" ","LANE":"１３９巷","ALLEY":" ","HOUSE_NO":"６６號四樓","E_COORD97":178003.5,"N_COORD97":2577691.9199999999,"ADDRESS":"太子路１３９巷６６號四樓","OBJECTID":230746},"geometry":{"x":178003.50000000093,"y":2577691.9200000018}},{"attributes":{"ID":230751,"DIS_CODE":0,"TOWNNAME":"善化區","LI":"溪美里","LIN":"22鄰","STREET":" ","SECT":" ","MAREA":"溪尾","LANE":" ","ALLEY":" ","HOUSE_NO":"１９４號","E_COORD97":176989.91,"N_COORD97":2561200.77,"ADDRESS":"溪尾１９４號","OBJECTID":230747},"geometry":{"x":176989.91000000015,"y":2561200.7699999977}},{"attributes":{"ID":230752,"DIS_CODE":0,"TOWNNAME":"善化區","LI":"嘉南里","LIN":"12鄰","STREET":" ","SECT":" ","MAREA":"茄拔","LANE":" ","ALLEY":" ","HOUSE_NO":"３５５號","E_COORD97":180648.34,"N_COORD97":2559607.7599999998,"ADDRESS":"茄拔３５５號","OBJECTID":230748},"geometry":{"x":180648.33999999892,"y":2559607.7600000035}},{"attributes":{"ID":230753,"DIS_CODE":0,"TOWNNAME":"善化區","LI":"嘉北里","LIN":"12鄰","STREET":" ","SECT":" ","MAREA":"茄拔","LANE":" ","ALLEY":" ","HOUSE_NO":"２９０之７號","E_COORD97":180932.47,"N_COORD97":2559807.52,"ADDRESS":"茄拔２９０之７號","OBJECTID":230749},"geometry":{"x":180932.47000000067,"y":2559807.5200000014}},{"attributes":{"ID":230754,"DIS_CODE":0,"TOWNNAME":"善化區","LI":"嘉南里","LIN":"2鄰","STREET":" ","SECT":" ","MAREA":"茄拔","LANE":" ","ALLEY":" ","HOUSE_NO":"６９之１號","E_COORD97":180967.48000000001,"N_COORD97":2559331.02,"ADDRESS":"茄拔６９之１號","OBJECTID":230750},"geometry":{"x":180967.48000000138,"y":2559331.0199999977}},{"attributes":{"ID":230755,"DIS_CODE":0,"TOWNNAME":"善化區","LI":"嘉南里","LIN":"4鄰","STREET":" ","SECT":" ","MAREA":"茄拔","LANE":" ","ALLEY":" ","HOUSE_NO":"８９之３號","E_COORD97":180982.42999999999,"N_COORD97":2559436.27,"ADDRESS":"茄拔８９之３號","OBJECTID":230751},"geometry":{"x":180982.43000000063,"y":2559436.2700000014}},{"attributes":{"ID":230756,"DIS_CODE":0,"TOWNNAME":"善化區","LI":"嘉北里","LIN":"4鄰","STREET":" ","SECT":" ","MAREA":"茄拔","LANE":" ","ALLEY":" ","HOUSE_NO":"３８號之１３","E_COORD97":181120.17000000001,"N_COORD97":2559670.27,"ADDRESS":"茄拔３８號之１３","OBJECTID":230752},"geometry":{"x":181120.16999999993,"y":2559670.2699999996}},{"attributes":{"ID":230757,"DIS_CODE":0,"TOWNNAME":"善化區","LI":"東昌里","LIN":"5鄰","STREET":" ","SECT":" ","MAREA":"東勢寮","LANE":" ","ALLEY":" ","HOUSE_NO":"５９號","E_COORD97":180566.04000000001,"N_COORD97":2561908.2599999998,"ADDRESS":"東勢寮５９號","OBJECTID":230753},"geometry":{"x":180566.0400000019,"y":2561908.2599999998}},{"attributes":{"ID":230758,"DIS_CODE":0,"TOWNNAME":"新營區","LI":"南紙里","LIN":"2鄰","STREET":"太子路","SECT":" ","MAREA":" ","LANE":"１３９巷","ALLEY":" ","HOUSE_NO":"６８號三樓","E_COORD97":178003.5,"N_COORD97":2577691.9199999999,"ADDRESS":"太子路１３９巷６８號三樓","OBJECTID":230754},"geometry":{"x":178003.50000000093,"y":2577691.9200000018}},{"attributes":{"ID":230759,"DIS_CODE":0,"TOWNNAME":"新營區","LI":"南紙里","LIN":"2鄰","STREET":"太子路","SECT":" ","MAREA":" ","LANE":"１３９巷","ALLEY":" ","HOUSE_NO":"６８號七樓","E_COORD97":178003.5,"N_COORD97":2577691.9199999999,"ADDRESS":"太子路１３９巷６８號七樓","OBJECTID":230755},"geometry":{"x":178003.50000000093,"y":2577691.9200000018}},{"attributes":{"ID":230760,"DIS_CODE":0,"TOWNNAME":"新營區","LI":"南紙里","LIN":"2鄰","STREET":"太子路","SECT":" ","MAREA":" ","LANE":"１３９巷","ALLEY":" ","HOUSE_NO":"６６號六樓","E_COORD97":178003.5,"N_COORD97":2577691.9199999999,"ADDRESS":"太子路１３９巷６６號六樓","OBJECTID":230756},"geometry":{"x":178003.50000000093,"y":2577691.9200000018}},{"attributes":{"ID":230761,"DIS_CODE":0,"TOWNNAME":"永康區","LI":"正強里","LIN":"2鄰","STREET":"中正路","SECT":" ","MAREA":" ","LANE":"１巷","ALLEY":" ","HOUSE_NO":"３１號之２","E_COORD97":173701.41,"N_COORD97":2547611.8599999999,"ADDRESS":"中正路１巷３１號之２","OBJECTID":230757},"geometry":{"x":173701.41000000201,"y":2547611.8600000031}},{"attributes":{"ID":230762,"DIS_CODE":0,"TOWNNAME":"善化區","LI":"溪美里","LIN":"18鄰","STREET":" ","SECT":" ","MAREA":"溪尾","LANE":" ","ALLEY":" ","HOUSE_NO":"２１１號之１３","E_COORD97":177250.09,"N_COORD97":2561317.02,"ADDRESS":"溪尾２１１號之１３","OBJECTID":230758},"geometry":{"x":177250.09000000078,"y":2561317.0199999996}},{"attributes":{"ID":230763,"DIS_CODE":0,"TOWNNAME":"善化區","LI":"溪美里","LIN":"18鄰","STREET":" ","SECT":" ","MAREA":"溪尾","LANE":" ","ALLEY":" ","HOUSE_NO":"２１１號","E_COORD97":177245.92000000001,"N_COORD97":2561369.77,"ADDRESS":"溪尾２１１號","OBJECTID":230759},"geometry":{"x":177245.92000000086,"y":2561369.7699999996}},{"attributes":{"ID":230764,"DIS_CODE":0,"TOWNNAME":"安南區","LI":"總頭里","LIN":"2鄰","STREET":"長溪路","SECT":"二段","MAREA":" ","LANE":"４８６巷","ALLEY":" ","HOUSE_NO":"３１號","E_COORD97":168346.16,"N_COORD97":2550430.77,"ADDRESS":"長溪路二段４８６巷３１號","OBJECTID":230760},"geometry":{"x":168346.15999999922,"y":2550430.7700000014}},{"attributes":{"ID":230765,"DIS_CODE":0,"TOWNNAME":"安南區","LI":"總頭里","LIN":"2鄰","STREET":"長溪路","SECT":"二段","MAREA":" ","LANE":"４８６巷","ALLEY":" ","HOUSE_NO":"３４號","E_COORD97":168386.85999999999,"N_COORD97":2550401.4300000002,"ADDRESS":"長溪路二段４８６巷３４號","OBJECTID":230761},"geometry":{"x":168386.86000000034,"y":2550401.4299999997}},{"attributes":{"ID":230766,"DIS_CODE":0,"TOWNNAME":"安南區","LI":"總頭里","LIN":"2鄰","STREET":"長溪路","SECT":"二段","MAREA":" ","LANE":"４８６巷","ALLEY":" ","HOUSE_NO":"４３號","E_COORD97":168371.94,"N_COORD97":2550437.9900000002,"ADDRESS":"長溪路二段４８６巷４３號","OBJECTID":230762},"geometry":{"x":168371.94000000134,"y":2550437.9900000002}},{"attributes":{"ID":230767,"DIS_CODE":0,"TOWNNAME":"安南區","LI":"總頭里","LIN":"2鄰","STREET":"長溪路","SECT":"二段","MAREA":" ","LANE":"４８６巷","ALLEY":" ","HOUSE_NO":"４５號","E_COORD97":168376.01000000001,"N_COORD97":2550439.79,"ADDRESS":"長溪路二段４８６巷４５號","OBJECTID":230763},"geometry":{"x":168376.01000000071,"y":2550439.790000001}},{"attributes":{"ID":230768,"DIS_CODE":0,"TOWNNAME":"安南區","LI":"總頭里","LIN":"2鄰","STREET":"長溪路","SECT":"二段","MAREA":" ","LANE":"４８６巷","ALLEY":" ","HOUSE_NO":"４７號","E_COORD97":168379.17000000001,"N_COORD97":2550442.5,"ADDRESS":"長溪路二段４８６巷４７號","OBJECTID":230764},"geometry":{"x":168379.16999999993,"y":2550442.5000000037}},{"attributes":{"ID":230769,"DIS_CODE":0,"TOWNNAME":"安南區","LI":"總頭里","LIN":"2鄰","STREET":"長溪路","SECT":"二段","MAREA":" ","LANE":"５７０巷","ALLEY":" ","HOUSE_NO":"８６號","E_COORD97":168428.17999999999,"N_COORD97":2550547.29,"ADDRESS":"長溪路二段５７０巷８６號","OBJECTID":230765},"geometry":{"x":168428.1799999997,"y":2550547.2899999991}},{"attributes":{"ID":230770,"DIS_CODE":0,"TOWNNAME":"安南區","LI":"總頭里","LIN":"2鄰","STREET":"長溪路","SECT":"二段","MAREA":" ","LANE":"５７０巷","ALLEY":" ","HOUSE_NO":"８８號","E_COORD97":168427.78,"N_COORD97":2550543.6800000002,"ADDRESS":"長溪路二段５７０巷８８號","OBJECTID":230766},"geometry":{"x":168427.78000000119,"y":2550543.6800000016}},{"attributes":{"ID":230771,"DIS_CODE":0,"TOWNNAME":"善化區","LI":"溪美里","LIN":"18鄰","STREET":" ","SECT":" ","MAREA":"溪尾","LANE":" ","ALLEY":" ","HOUSE_NO":"２１１號之１９","E_COORD97":177237.95000000001,"N_COORD97":2561295.52,"ADDRESS":"溪尾２１１號之１９","OBJECTID":230767},"geometry":{"x":177237.95000000112,"y":2561295.5200000014}},{"attributes":{"ID":230772,"DIS_CODE":0,"TOWNNAME":"善化區","LI":"胡厝里","LIN":"25鄰","STREET":" ","SECT":" ","MAREA":"烏橋","LANE":" ","ALLEY":" ","HOUSE_NO":"２６號之１７","E_COORD97":175425.70999999999,"N_COORD97":2558944.52,"ADDRESS":"烏橋２６號之１７","OBJECTID":230768},"geometry":{"x":175425.71000000089,"y":2558944.5199999977}},{"attributes":{"ID":230773,"DIS_CODE":0,"TOWNNAME":"善化區","LI":"嘉北里","LIN":"12鄰","STREET":" ","SECT":" ","MAREA":"茄拔","LANE":" ","ALLEY":" ","HOUSE_NO":"２９０之１１號","E_COORD97":180949.06,"N_COORD97":2559807.02,"ADDRESS":"茄拔２９０之１１號","OBJECTID":230769},"geometry":{"x":180949.06000000052,"y":2559807.0200000014}},{"attributes":{"ID":230774,"DIS_CODE":0,"TOWNNAME":"善化區","LI":"嘉南里","LIN":"12鄰","STREET":" ","SECT":" ","MAREA":"茄拔","LANE":" ","ALLEY":" ","HOUSE_NO":"３５９號之６","E_COORD97":180637.94,"N_COORD97":2559576.02,"ADDRESS":"茄拔３５９號之６","OBJECTID":230770},"geometry":{"x":180637.94000000041,"y":2559576.0200000014}},{"attributes":{"ID":230775,"DIS_CODE":0,"TOWNNAME":"安南區","LI":"總頭里","LIN":"2鄰","STREET":"長溪路","SECT":"二段","MAREA":" ","LANE":"５７０巷","ALLEY":" ","HOUSE_NO":"９０號","E_COORD97":168440.64000000001,"N_COORD97":2550534.0499999998,"ADDRESS":"長溪路二段５７０巷９０號","OBJECTID":230771},"geometry":{"x":168440.63999999966,"y":2550534.0499999989}},{"attributes":{"ID":230776,"DIS_CODE":0,"TOWNNAME":"善化區","LI":"嘉南里","LIN":"12鄰","STREET":" ","SECT":" ","MAREA":"茄拔","LANE":" ","ALLEY":" ","HOUSE_NO":"３６９號","E_COORD97":180628.78,"N_COORD97":2559359.7599999998,"ADDRESS":"茄拔３６９號","OBJECTID":230772},"geometry":{"x":180628.78000000026,"y":2559359.7599999998}},{"attributes":{"ID":230777,"DIS_CODE":0,"TOWNNAME":"安南區","LI":"總頭里","LIN":"2鄰","STREET":"長溪路","SECT":"二段","MAREA":" ","LANE":"５７０巷","ALLEY":" ","HOUSE_NO":"９２號","E_COORD97":168439.03,"N_COORD97":2550526.8300000001,"ADDRESS":"長溪路二段５７０巷９２號","OBJECTID":230773},"geometry":{"x":168439.03000000119,"y":2550526.8300000001}},{"attributes":{"ID":230778,"DIS_CODE":0,"TOWNNAME":"安南區","LI":"長安里","LIN":"2鄰","STREET":"長溪路","SECT":"三段","MAREA":" ","LANE":"３７３巷","ALLEY":" ","HOUSE_NO":"３９號","E_COORD97":167611.42999999999,"N_COORD97":2551888.96,"ADDRESS":"長溪路三段３７３巷３９號","OBJECTID":230774},"geometry":{"x":167611.4299999997,"y":2551888.9600000028}},{"attributes":{"ID":230779,"DIS_CODE":0,"TOWNNAME":"安南區","LI":"長安里","LIN":"2鄰","STREET":"長溪路","SECT":"三段","MAREA":" ","LANE":"３７３巷","ALLEY":" ","HOUSE_NO":"４３號","E_COORD97":167599.84,"N_COORD97":2551882.6099999999,"ADDRESS":"長溪路三段３７３巷４３號","OBJECTID":230775},"geometry":{"x":167599.83999999985,"y":2551882.6100000013}},{"attributes":{"ID":230780,"DIS_CODE":0,"TOWNNAME":"安南區","LI":"長安里","LIN":"2鄰","STREET":"長溪路","SECT":"三段","MAREA":" ","LANE":"３７３巷","ALLEY":" ","HOUSE_NO":"４５號","E_COORD97":167590.70000000001,"N_COORD97":2551870.4399999999,"ADDRESS":"長溪路三段３７３巷４５號","OBJECTID":230776},"geometry":{"x":167590.70000000112,"y":2551870.4400000013}},{"attributes":{"ID":230781,"DIS_CODE":0,"TOWNNAME":"安南區","LI":"長安里","LIN":"2鄰","STREET":"長溪路","SECT":"三段","MAREA":" ","LANE":"３７３巷","ALLEY":" ","HOUSE_NO":"４８號","E_COORD97":167589.09,"N_COORD97":2551917.6099999999,"ADDRESS":"長溪路三段３７３巷４８號","OBJECTID":230777},"geometry":{"x":167589.09000000078,"y":2551917.6099999994}},{"attributes":{"ID":230782,"DIS_CODE":0,"TOWNNAME":"安南區","LI":"長安里","LIN":"2鄰","STREET":"長溪路","SECT":"三段","MAREA":" ","LANE":"３７３巷","ALLEY":" ","HOUSE_NO":"５３號","E_COORD97":167574.97,"N_COORD97":2551858.9300000002,"ADDRESS":"長溪路三段３７３巷５３號","OBJECTID":230778},"geometry":{"x":167574.97000000067,"y":2551858.9299999997}},{"attributes":{"ID":230783,"DIS_CODE":0,"TOWNNAME":"善化區","LI":"溪美里","LIN":"18鄰","STREET":" ","SECT":" ","MAREA":"溪尾","LANE":" ","ALLEY":" ","HOUSE_NO":"２１０號","E_COORD97":177203.20000000001,"N_COORD97":2561401.27,"ADDRESS":"溪尾２１０號","OBJECTID":230779},"geometry":{"x":177203.20000000019,"y":2561401.2700000033}},{"attributes":{"ID":230784,"DIS_CODE":0,"TOWNNAME":"善化區","LI":"嘉北里","LIN":"13鄰","STREET":" ","SECT":" ","MAREA":"茄拔","LANE":" ","ALLEY":" ","HOUSE_NO":"３００之４號","E_COORD97":180954,"N_COORD97":2559708.77,"ADDRESS":"茄拔３００之４號","OBJECTID":230780},"geometry":{"x":180954,"y":2559708.7699999996}},{"attributes":{"ID":230785,"DIS_CODE":0,"TOWNNAME":"善化區","LI":"溪美里","LIN":"1鄰","STREET":" ","SECT":" ","MAREA":"溪尾","LANE":" ","ALLEY":" ","HOUSE_NO":"９４９號之５","E_COORD97":177141.42999999999,"N_COORD97":2560211.77,"ADDRESS":"溪尾９４９號之５","OBJECTID":230781},"geometry":{"x":177141.4299999997,"y":2560211.7700000014}},{"attributes":{"ID":230786,"DIS_CODE":0,"TOWNNAME":"善化區","LI":"嘉南里","LIN":"1鄰","STREET":" ","SECT":" ","MAREA":"茄拔","LANE":" ","ALLEY":" ","HOUSE_NO":"６０號之５","E_COORD97":181304.22,"N_COORD97":2559468.27,"ADDRESS":"茄拔６０號之５","OBJECTID":230782},"geometry":{"x":181304.22000000067,"y":2559468.2699999977}},{"attributes":{"ID":230787,"DIS_CODE":0,"TOWNNAME":"善化區","LI":"溪美里","LIN":"22鄰","STREET":" ","SECT":" ","MAREA":"溪尾","LANE":" ","ALLEY":" ","HOUSE_NO":"１９３號之１","E_COORD97":176981.35000000001,"N_COORD97":2561186.27,"ADDRESS":"溪尾１９３號之１","OBJECTID":230783},"geometry":{"x":176981.3499999987,"y":2561186.2699999996}},{"attributes":{"ID":230788,"DIS_CODE":0,"TOWNNAME":"善化區","LI":"嘉南里","LIN":"12鄰","STREET":" ","SECT":" ","MAREA":"茄拔","LANE":" ","ALLEY":" ","HOUSE_NO":"３５０號之１４","E_COORD97":180539.62,"N_COORD97":2559540.02,"ADDRESS":"茄拔３５０號之１４","OBJECTID":230784},"geometry":{"x":180539.62000000011,"y":2559540.0199999996}},{"attributes":{"ID":230789,"DIS_CODE":0,"TOWNNAME":"善化區","LI":"嘉南里","LIN":"12鄰","STREET":" ","SECT":" ","MAREA":"茄拔","LANE":" ","ALLEY":" ","HOUSE_NO":"３５９號之７","E_COORD97":180636.84,"N_COORD97":2559571.52,"ADDRESS":"茄拔３５９號之７","OBJECTID":230785},"geometry":{"x":180636.84000000078,"y":2559571.5199999996}},{"attributes":{"ID":230790,"DIS_CODE":0,"TOWNNAME":"善化區","LI":"嘉南里","LIN":"12鄰","STREET":" ","SECT":" ","MAREA":"茄拔","LANE":" ","ALLEY":" ","HOUSE_NO":"３５５之１０號","E_COORD97":180677.20999999999,"N_COORD97":2559584.77,"ADDRESS":"茄拔３５５之１０號","OBJECTID":230786},"geometry":{"x":180677.21000000089,"y":2559584.7700000014}},{"attributes":{"ID":230791,"DIS_CODE":0,"TOWNNAME":"善化區","LI":"嘉南里","LIN":"12鄰","STREET":" ","SECT":" ","MAREA":"茄拔","LANE":" ","ALLEY":" ","HOUSE_NO":"３５０之１９號","E_COORD97":180558.62,"N_COORD97":2559500.77,"ADDRESS":"茄拔３５０之１９號","OBJECTID":230787},"geometry":{"x":180558.62000000197,"y":2559500.7699999996}},{"attributes":{"ID":230792,"DIS_CODE":0,"TOWNNAME":"安南區","LI":"長安里","LIN":"2鄰","STREET":"長溪路","SECT":"三段","MAREA":" ","LANE":"３７３巷","ALLEY":" ","HOUSE_NO":"５５號","E_COORD97":167558.39000000001,"N_COORD97":2551852.5899999999,"ADDRESS":"長溪路三段３７３巷５５號","OBJECTID":230788},"geometry":{"x":167558.3900000006,"y":2551852.5900000017}},{"attributes":{"ID":230793,"DIS_CODE":0,"TOWNNAME":"安南區","LI":"長安里","LIN":"2鄰","STREET":"長溪路","SECT":"三段","MAREA":" ","LANE":"３７３巷","ALLEY":" ","HOUSE_NO":"５６號","E_COORD97":167581.64999999999,"N_COORD97":2551915.46,"ADDRESS":"長溪路三段３７３巷５６號","OBJECTID":230789},"geometry":{"x":167581.65000000037,"y":2551915.4600000028}},{"attributes":{"ID":230794,"DIS_CODE":0,"TOWNNAME":"安南區","LI":"長安里","LIN":"2鄰","STREET":"長溪路","SECT":"三段","MAREA":" ","LANE":"３７３巷","ALLEY":" ","HOUSE_NO":"５７號","E_COORD97":167554.98000000001,"N_COORD97":2551850.4700000002,"ADDRESS":"長溪路三段３７３巷５７號","OBJECTID":230790},"geometry":{"x":167554.98000000138,"y":2551850.4700000025}},{"attributes":{"ID":230795,"DIS_CODE":0,"TOWNNAME":"安南區","LI":"長安里","LIN":"2鄰","STREET":"長溪路","SECT":"三段","MAREA":" ","LANE":"３７３巷","ALLEY":" ","HOUSE_NO":"５９號","E_COORD97":167551.14999999999,"N_COORD97":2551848.3799999999,"ADDRESS":"長溪路三段３７３巷５９號","OBJECTID":230791},"geometry":{"x":167551.15000000037,"y":2551848.379999999}},{"attributes":{"ID":230796,"DIS_CODE":0,"TOWNNAME":"安南區","LI":"長安里","LIN":"2鄰","STREET":"長溪路","SECT":"三段","MAREA":" ","LANE":"３７３巷","ALLEY":" ","HOUSE_NO":"６１號","E_COORD97":167547.51000000001,"N_COORD97":2551845.5499999998,"ADDRESS":"長溪路三段３７３巷６１號","OBJECTID":230792},"geometry":{"x":167547.51000000071,"y":2551845.5500000007}},{"attributes":{"ID":230797,"DIS_CODE":0,"TOWNNAME":"安南區","LI":"長安里","LIN":"2鄰","STREET":"長溪路","SECT":"三段","MAREA":" ","LANE":"３７３巷","ALLEY":" ","HOUSE_NO":"６３號","E_COORD97":167544.48999999999,"N_COORD97":2551842.6499999999,"ADDRESS":"長溪路三段３７３巷６３號","OBJECTID":230793},"geometry":{"x":167544.49000000115,"y":2551842.6500000022}},{"attributes":{"ID":230798,"DIS_CODE":0,"TOWNNAME":"安南區","LI":"長安里","LIN":"2鄰","STREET":"長溪路","SECT":"三段","MAREA":" ","LANE":"３７３巷","ALLEY":" ","HOUSE_NO":"７２號","E_COORD97":167562.06,"N_COORD97":2551899.3700000001,"ADDRESS":"長溪路三段３７３巷７２號","OBJECTID":230794},"geometry":{"x":167562.06000000052,"y":2551899.3700000029}},{"attributes":{"ID":230799,"DIS_CODE":0,"TOWNNAME":"安南區","LI":"長安里","LIN":"2鄰","STREET":"長溪路","SECT":"三段","MAREA":" ","LANE":"３７３巷","ALLEY":" ","HOUSE_NO":"７２號之１","E_COORD97":167571.66,"N_COORD97":2551903.7000000002,"ADDRESS":"長溪路三段３７３巷７２號之１","OBJECTID":230795},"geometry":{"x":167571.66000000201,"y":2551903.6999999993}},{"attributes":{"ID":230800,"DIS_CODE":0,"TOWNNAME":"安南區","LI":"長安里","LIN":"2鄰","STREET":"長溪路","SECT":"三段","MAREA":" ","LANE":"４０５巷","ALLEY":" ","HOUSE_NO":"４２號","E_COORD97":167561.48999999999,"N_COORD97":2552003.27,"ADDRESS":"長溪路三段４０５巷４２號","OBJECTID":230796},"geometry":{"x":167561.49000000115,"y":2552003.2700000014}},{"attributes":{"ID":230801,"DIS_CODE":0,"TOWNNAME":"安南區","LI":"長安里","LIN":"2鄰","STREET":"長溪路","SECT":"三段","MAREA":" ","LANE":"４０５巷","ALLEY":" ","HOUSE_NO":"４８號","E_COORD97":167535.26999999999,"N_COORD97":2552008.27,"ADDRESS":"長溪路三段４０５巷４８號","OBJECTID":230797},"geometry":{"x":167535.27000000048,"y":2552008.2699999996}},{"attributes":{"ID":230802,"DIS_CODE":0,"TOWNNAME":"安南區","LI":"長安里","LIN":"2鄰","STREET":"長溪路","SECT":"三段","MAREA":" ","LANE":"４０５巷","ALLEY":" ","HOUSE_NO":"５６號","E_COORD97":167545.67999999999,"N_COORD97":2551998.0600000001,"ADDRESS":"長溪路三段４０５巷５６號","OBJECTID":230798},"geometry":{"x":167545.68000000156,"y":2551998.0600000005}},{"attributes":{"ID":230803,"DIS_CODE":0,"TOWNNAME":"善化區","LI":"溪美里","LIN":"22鄰","STREET":" ","SECT":" ","MAREA":"溪尾","LANE":" ","ALLEY":" ","HOUSE_NO":"１９９號之１","E_COORD97":176960.16,"N_COORD97":2561150.77,"ADDRESS":"溪尾１９９號之１","OBJECTID":230799},"geometry":{"x":176960.16000000108,"y":2561150.7700000014}},{"attributes":{"ID":230804,"DIS_CODE":0,"TOWNNAME":"安南區","LI":"長安里","LIN":"2鄰","STREET":"長溪路","SECT":"三段","MAREA":" ","LANE":"４０５巷","ALLEY":" ","HOUSE_NO":"４６號","E_COORD97":167547.82000000001,"N_COORD97":2552015.79,"ADDRESS":"長溪路三段４０５巷４６號","OBJECTID":230800},"geometry":{"x":167547.8200000003,"y":2552015.7900000028}}]}