{"displayFieldName":"TOWNNAME","fieldAliases":{"ID":"ID","DIS_CODE":"DIS_CODE","TOWNNAME":"TOWNNAME","LI":"LI","LIN":"LIN","STREET":"STREET","SECT":"SECT","MAREA":"MAREA","LANE":"LANE","ALLEY":"ALLEY","HOUSE_NO":"HOUSE_NO","E_COORD97":"E_COORD97","N_COORD97":"N_COORD97","ADDRESS":"ADDRESS","OBJECTID":"OBJECTID"},"geometryType":"esriGeometryPoint","spatialReference":{"wkid":102443,"latestWkid":3826},"fields":[{"name":"ID","type":"esriFieldTypeDouble","alias":"ID"},{"name":"DIS_CODE","type":"esriFieldTypeInteger","alias":"DIS_CODE"},{"name":"TOWNNAME","type":"esriFieldTypeString","alias":"TOWNNAME","length":8},{"name":"LI","type":"esriFieldTypeString","alias":"LI","length":8},{"name":"LIN","type":"esriFieldTypeString","alias":"LIN","length":12},{"name":"STREET","type":"esriFieldTypeString","alias":"STREET","length":20},{"name":"SECT","type":"esriFieldTypeString","alias":"SECT","length":8},{"name":"MAREA","type":"esriFieldTypeString","alias":"MAREA","length":12},{"name":"LANE","type":"esriFieldTypeString","alias":"LANE","length":10},{"name":"ALLEY","type":"esriFieldTypeString","alias":"ALLEY","length":10},{"name":"HOUSE_NO","type":"esriFieldTypeString","alias":"HOUSE_NO","length":20},{"name":"E_COORD97","type":"esriFieldTypeDouble","alias":"E_COORD97"},{"name":"N_COORD97","type":"esriFieldTypeDouble","alias":"N_COORD97"},{"name":"ADDRESS","type":"esriFieldTypeString","alias":"ADDRESS","length":50},{"name":"OBJECTID","type":"esriFieldTypeOID","alias":"OBJECTID"}],"features":[{"attributes":{"ID":128201,"DIS_CODE":0,"TOWNNAME":"白河區","LI":"大竹里","LIN":"6鄰","STREET":" ","SECT":" ","MAREA":"大排竹","LANE":" ","ALLEY":" ","HOUSE_NO":"９９號","E_COORD97":189671.44,"N_COORD97":2585317.7400000002,"ADDRESS":"大排竹９９號","OBJECTID":128201},"geometry":{"x":189671.44000000041,"y":2585317.7400000039}},{"attributes":{"ID":128202,"DIS_CODE":0,"TOWNNAME":"白河區","LI":"草店里","LIN":"3鄰","STREET":" ","SECT":" ","MAREA":"草店","LANE":" ","ALLEY":" ","HOUSE_NO":"２５之１號","E_COORD97":192149.29000000001,"N_COORD97":2587941.4300000002,"ADDRESS":"草店２５之１號","OBJECTID":128202},"geometry":{"x":192149.29000000097,"y":2587941.4300000016}},{"attributes":{"ID":128203,"DIS_CODE":0,"TOWNNAME":"白河區","LI":"草店里","LIN":"3鄰","STREET":" ","SECT":" ","MAREA":"草店","LANE":" ","ALLEY":" ","HOUSE_NO":"２５之３號","E_COORD97":192129.78,"N_COORD97":2587909.21,"ADDRESS":"草店２５之３號","OBJECTID":128203},"geometry":{"x":192129.78000000119,"y":2587909.2100000028}},{"attributes":{"ID":128204,"DIS_CODE":0,"TOWNNAME":"白河區","LI":"草店里","LIN":"3鄰","STREET":" ","SECT":" ","MAREA":"草店","LANE":" ","ALLEY":" ","HOUSE_NO":"２５號","E_COORD97":192182.51999999999,"N_COORD97":2587950.6499999999,"ADDRESS":"草店２５號","OBJECTID":128204},"geometry":{"x":192182.51999999955,"y":2587950.6500000022}},{"attributes":{"ID":128205,"DIS_CODE":0,"TOWNNAME":"白河區","LI":"草店里","LIN":"3鄰","STREET":" ","SECT":" ","MAREA":"草店","LANE":" ","ALLEY":" ","HOUSE_NO":"２７號","E_COORD97":192198.09,"N_COORD97":2587929.7799999998,"ADDRESS":"草店２７號","OBJECTID":128205},"geometry":{"x":192198.09000000078,"y":2587929.7799999993}},{"attributes":{"ID":128206,"DIS_CODE":0,"TOWNNAME":"白河區","LI":"草店里","LIN":"3鄰","STREET":" ","SECT":" ","MAREA":"草店","LANE":" ","ALLEY":" ","HOUSE_NO":"２８之１號","E_COORD97":192174.5,"N_COORD97":2587908.8100000001,"ADDRESS":"草店２８之１號","OBJECTID":128206},"geometry":{"x":192174.5,"y":2587908.8100000024}},{"attributes":{"ID":128207,"DIS_CODE":0,"TOWNNAME":"白河區","LI":"草店里","LIN":"3鄰","STREET":" ","SECT":" ","MAREA":"草店","LANE":" ","ALLEY":" ","HOUSE_NO":"２８號","E_COORD97":192182.95000000001,"N_COORD97":2587863.96,"ADDRESS":"草店２８號","OBJECTID":128207},"geometry":{"x":192182.95000000112,"y":2587863.9600000028}},{"attributes":{"ID":128208,"DIS_CODE":0,"TOWNNAME":"白河區","LI":"草店里","LIN":"3鄰","STREET":" ","SECT":" ","MAREA":"草店","LANE":" ","ALLEY":" ","HOUSE_NO":"２９號","E_COORD97":192216.67999999999,"N_COORD97":2587848.77,"ADDRESS":"草店２９號","OBJECTID":128208},"geometry":{"x":192216.6799999997,"y":2587848.7699999996}},{"attributes":{"ID":128209,"DIS_CODE":0,"TOWNNAME":"白河區","LI":"草店里","LIN":"7鄰","STREET":" ","SECT":" ","MAREA":"草店","LANE":" ","ALLEY":" ","HOUSE_NO":"６８號","E_COORD97":192049.45999999999,"N_COORD97":2587624.6099999999,"ADDRESS":"草店６８號","OBJECTID":128209},"geometry":{"x":192049.45999999903,"y":2587624.6100000013}},{"attributes":{"ID":128210,"DIS_CODE":0,"TOWNNAME":"白河區","LI":"草店里","LIN":"7鄰","STREET":" ","SECT":" ","MAREA":"草店","LANE":" ","ALLEY":" ","HOUSE_NO":"６９之１號","E_COORD97":192026.70000000001,"N_COORD97":2587596.73,"ADDRESS":"草店６９之１號","OBJECTID":128210},"geometry":{"x":192026.70000000112,"y":2587596.7300000023}},{"attributes":{"ID":128211,"DIS_CODE":0,"TOWNNAME":"白河區","LI":"草店里","LIN":"7鄰","STREET":" ","SECT":" ","MAREA":"草店","LANE":" ","ALLEY":" ","HOUSE_NO":"６９之２號","E_COORD97":192060.07000000001,"N_COORD97":2587625.4399999999,"ADDRESS":"草店６９之２號","OBJECTID":128211},"geometry":{"x":192060.07000000123,"y":2587625.4400000013}},{"attributes":{"ID":128212,"DIS_CODE":0,"TOWNNAME":"白河區","LI":"草店里","LIN":"7鄰","STREET":" ","SECT":" ","MAREA":"草店","LANE":" ","ALLEY":" ","HOUSE_NO":"７０之１號","E_COORD97":192057.16,"N_COORD97":2587587.4900000002,"ADDRESS":"草店７０之１號","OBJECTID":128212},"geometry":{"x":192057.16000000108,"y":2587587.4900000039}},{"attributes":{"ID":128213,"DIS_CODE":0,"TOWNNAME":"白河區","LI":"草店里","LIN":"1鄰","STREET":" ","SECT":" ","MAREA":"草店","LANE":" ","ALLEY":" ","HOUSE_NO":"５號","E_COORD97":192665.54000000001,"N_COORD97":2587938.1200000001,"ADDRESS":"草店５號","OBJECTID":128213},"geometry":{"x":192665.54000000004,"y":2587938.1200000029}},{"attributes":{"ID":128214,"DIS_CODE":0,"TOWNNAME":"白河區","LI":"廣安里","LIN":"1鄰","STREET":" ","SECT":" ","MAREA":"埤斗子","LANE":" ","ALLEY":" ","HOUSE_NO":"８之１０號","E_COORD97":189553.78,"N_COORD97":2587146.79,"ADDRESS":"埤斗子８之１０號","OBJECTID":128214},"geometry":{"x":189553.78000000026,"y":2587146.7899999972}},{"attributes":{"ID":128215,"DIS_CODE":0,"TOWNNAME":"白河區","LI":"廣安里","LIN":"1鄰","STREET":" ","SECT":" ","MAREA":"埤斗子","LANE":" ","ALLEY":" ","HOUSE_NO":"８之１號","E_COORD97":189483.92000000001,"N_COORD97":2587183.73,"ADDRESS":"埤斗子８之１號","OBJECTID":128215},"geometry":{"x":189483.92000000086,"y":2587183.7300000023}},{"attributes":{"ID":128216,"DIS_CODE":0,"TOWNNAME":"白河區","LI":"廣安里","LIN":"1鄰","STREET":" ","SECT":" ","MAREA":"埤斗子","LANE":" ","ALLEY":" ","HOUSE_NO":"８之２０號","E_COORD97":189729.20000000001,"N_COORD97":2587042.23,"ADDRESS":"埤斗子８之２０號","OBJECTID":128216},"geometry":{"x":189729.20000000205,"y":2587042.2300000004}},{"attributes":{"ID":128217,"DIS_CODE":0,"TOWNNAME":"白河區","LI":"廣安里","LIN":"1鄰","STREET":" ","SECT":" ","MAREA":"埤斗子","LANE":" ","ALLEY":" ","HOUSE_NO":"８之２號","E_COORD97":189469.37,"N_COORD97":2587167.8900000001,"ADDRESS":"埤斗子８之２號","OBJECTID":128217},"geometry":{"x":189469.37000000104,"y":2587167.8900000006}},{"attributes":{"ID":128218,"DIS_CODE":0,"TOWNNAME":"安平區","LI":"平安里","LIN":"11鄰","STREET":"安平路","SECT":" ","MAREA":" ","LANE":"５００巷","ALLEY":"１７弄","HOUSE_NO":"１１號","E_COORD97":165110.34,"N_COORD97":2544393.4700000002,"ADDRESS":"安平路５００巷１７弄１１號","OBJECTID":128218},"geometry":{"x":165110.34000000171,"y":2544393.4700000007}},{"attributes":{"ID":128219,"DIS_CODE":0,"TOWNNAME":"安平區","LI":"平安里","LIN":"11鄰","STREET":"安平路","SECT":" ","MAREA":" ","LANE":"５００巷","ALLEY":"１７弄","HOUSE_NO":"１１號之１","E_COORD97":165107.39000000001,"N_COORD97":2544381.1600000001,"ADDRESS":"安平路５００巷１７弄１１號之１","OBJECTID":128219},"geometry":{"x":165107.38999999966,"y":2544381.1600000001}},{"attributes":{"ID":128220,"DIS_CODE":0,"TOWNNAME":"安平區","LI":"平安里","LIN":"11鄰","STREET":"安平路","SECT":" ","MAREA":" ","LANE":"５００巷","ALLEY":"１７弄","HOUSE_NO":"１２號","E_COORD97":165099.72,"N_COORD97":2544412.6899999999,"ADDRESS":"安平路５００巷１７弄１２號","OBJECTID":128220},"geometry":{"x":165099.72000000067,"y":2544412.6900000013}},{"attributes":{"ID":128221,"DIS_CODE":0,"TOWNNAME":"安平區","LI":"平安里","LIN":"11鄰","STREET":"安平路","SECT":" ","MAREA":" ","LANE":"５００巷","ALLEY":"１７弄","HOUSE_NO":"１３號","E_COORD97":165101.87,"N_COORD97":2544393.9900000002,"ADDRESS":"安平路５００巷１７弄１３號","OBJECTID":128221},"geometry":{"x":165101.87000000197,"y":2544393.9900000039}},{"attributes":{"ID":128222,"DIS_CODE":0,"TOWNNAME":"安平區","LI":"平安里","LIN":"11鄰","STREET":"安平路","SECT":" ","MAREA":" ","LANE":"５００巷","ALLEY":"１７弄","HOUSE_NO":"１４號","E_COORD97":165094.07000000001,"N_COORD97":2544415.1200000001,"ADDRESS":"安平路５００巷１７弄１４號","OBJECTID":128222},"geometry":{"x":165094.07000000216,"y":2544415.1200000029}},{"attributes":{"ID":128223,"DIS_CODE":0,"TOWNNAME":"安平區","LI":"平安里","LIN":"11鄰","STREET":"安平路","SECT":" ","MAREA":" ","LANE":"５００巷","ALLEY":"１７弄","HOUSE_NO":"１５號","E_COORD97":165097.25,"N_COORD97":2544394.6299999999,"ADDRESS":"安平路５００巷１７弄１５號","OBJECTID":128223},"geometry":{"x":165097.25,"y":2544394.629999999}},{"attributes":{"ID":128224,"DIS_CODE":0,"TOWNNAME":"安平區","LI":"平安里","LIN":"11鄰","STREET":"安平路","SECT":" ","MAREA":" ","LANE":"５００巷","ALLEY":"１７弄","HOUSE_NO":"１６號","E_COORD97":165089.70999999999,"N_COORD97":2544414.6099999999,"ADDRESS":"安平路５００巷１７弄１６號","OBJECTID":128224},"geometry":{"x":165089.71000000089,"y":2544414.6099999994}},{"attributes":{"ID":128225,"DIS_CODE":0,"TOWNNAME":"安平區","LI":"平安里","LIN":"11鄰","STREET":"安平路","SECT":" ","MAREA":" ","LANE":"５００巷","ALLEY":"１７弄","HOUSE_NO":"１７號","E_COORD97":165093.92000000001,"N_COORD97":2544395.6499999999,"ADDRESS":"安平路５００巷１７弄１７號","OBJECTID":128225},"geometry":{"x":165093.91999999993,"y":2544395.6500000004}},{"attributes":{"ID":128226,"DIS_CODE":0,"TOWNNAME":"安平區","LI":"平安里","LIN":"11鄰","STREET":"安平路","SECT":" ","MAREA":" ","LANE":"５００巷","ALLEY":"１７弄","HOUSE_NO":"１８號","E_COORD97":165085.39999999999,"N_COORD97":2544414.8500000001,"ADDRESS":"安平路５００巷１７弄１８號","OBJECTID":128226},"geometry":{"x":165085.4000000013,"y":2544414.8500000034}},{"attributes":{"ID":128227,"DIS_CODE":0,"TOWNNAME":"安平區","LI":"平安里","LIN":"11鄰","STREET":"安平路","SECT":" ","MAREA":" ","LANE":"５００巷","ALLEY":"１７弄","HOUSE_NO":"１９號","E_COORD97":165090.45000000001,"N_COORD97":2544397.0600000001,"ADDRESS":"安平路５００巷１７弄１９號","OBJECTID":128227},"geometry":{"x":165090.45000000112,"y":2544397.0599999987}},{"attributes":{"ID":128228,"DIS_CODE":0,"TOWNNAME":"安平區","LI":"平安里","LIN":"11鄰","STREET":"安平路","SECT":" ","MAREA":" ","LANE":"５００巷","ALLEY":"１７弄","HOUSE_NO":"２０號","E_COORD97":165080.81,"N_COORD97":2544416.0800000001,"ADDRESS":"安平路５００巷１７弄２０號","OBJECTID":128228},"geometry":{"x":165080.80999999959,"y":2544416.0800000001}},{"attributes":{"ID":128229,"DIS_CODE":0,"TOWNNAME":"安平區","LI":"平安里","LIN":"11鄰","STREET":"安平路","SECT":" ","MAREA":" ","LANE":"５００巷","ALLEY":"１７弄","HOUSE_NO":"２１號","E_COORD97":165085.82999999999,"N_COORD97":2544398.4700000002,"ADDRESS":"安平路５００巷１７弄２１號","OBJECTID":128229},"geometry":{"x":165085.83000000101,"y":2544398.4700000025}},{"attributes":{"ID":128230,"DIS_CODE":0,"TOWNNAME":"安平區","LI":"平安里","LIN":"11鄰","STREET":"安平路","SECT":" ","MAREA":" ","LANE":"５００巷","ALLEY":"１７弄","HOUSE_NO":"２１號之１","E_COORD97":165081.98000000001,"N_COORD97":2544379.5,"ADDRESS":"安平路５００巷１７弄２１號之１","OBJECTID":128230},"geometry":{"x":165081.98000000138,"y":2544379.5}},{"attributes":{"ID":128231,"DIS_CODE":0,"TOWNNAME":"安平區","LI":"平安里","LIN":"11鄰","STREET":"安平路","SECT":" ","MAREA":" ","LANE":"５００巷","ALLEY":"１７弄","HOUSE_NO":"２２號","E_COORD97":165075.91,"N_COORD97":2544416.8399999999,"ADDRESS":"安平路５００巷１７弄２２號","OBJECTID":128231},"geometry":{"x":165075.91000000015,"y":2544416.8399999999}},{"attributes":{"ID":128232,"DIS_CODE":0,"TOWNNAME":"安平區","LI":"平安里","LIN":"11鄰","STREET":"安平路","SECT":" ","MAREA":" ","LANE":"５００巷","ALLEY":"１７弄","HOUSE_NO":"２３號","E_COORD97":165082.10999999999,"N_COORD97":2544399.3700000001,"ADDRESS":"安平路５００巷１７弄２３號","OBJECTID":128232},"geometry":{"x":165082.11000000127,"y":2544399.3700000048}},{"attributes":{"ID":128233,"DIS_CODE":0,"TOWNNAME":"安平區","LI":"平安里","LIN":"11鄰","STREET":"安平路","SECT":" ","MAREA":" ","LANE":"５００巷","ALLEY":"１７弄","HOUSE_NO":"２４號","E_COORD97":165070.84,"N_COORD97":2544418.5899999999,"ADDRESS":"安平路５００巷１７弄２４號","OBJECTID":128233},"geometry":{"x":165070.83999999985,"y":2544418.5899999999}},{"attributes":{"ID":128234,"DIS_CODE":0,"TOWNNAME":"安平區","LI":"平安里","LIN":"11鄰","STREET":"安平路","SECT":" ","MAREA":" ","LANE":"５００巷","ALLEY":"１７弄","HOUSE_NO":"２６號","E_COORD97":165065.45000000001,"N_COORD97":2544418.5899999999,"ADDRESS":"安平路５００巷１７弄２６號","OBJECTID":128234},"geometry":{"x":165065.45000000019,"y":2544418.5899999999}},{"attributes":{"ID":128235,"DIS_CODE":0,"TOWNNAME":"安平區","LI":"平安里","LIN":"11鄰","STREET":"安平路","SECT":" ","MAREA":" ","LANE":"５００巷","ALLEY":"１７弄","HOUSE_NO":"３０號","E_COORD97":165057.70000000001,"N_COORD97":2544420.8199999998,"ADDRESS":"安平路５００巷１７弄３０號","OBJECTID":128235},"geometry":{"x":165057.70000000112,"y":2544420.8200000003}},{"attributes":{"ID":128236,"DIS_CODE":0,"TOWNNAME":"安平區","LI":"平安里","LIN":"11鄰","STREET":"安平路","SECT":" ","MAREA":" ","LANE":"５００巷","ALLEY":"１７弄","HOUSE_NO":"３２號","E_COORD97":165052.23000000001,"N_COORD97":2544423.5899999999,"ADDRESS":"安平路５００巷１７弄３２號","OBJECTID":128236},"geometry":{"x":165052.23000000045,"y":2544423.5900000036}},{"attributes":{"ID":128237,"DIS_CODE":0,"TOWNNAME":"安平區","LI":"平安里","LIN":"11鄰","STREET":"安平路","SECT":" ","MAREA":" ","LANE":"５００巷","ALLEY":"１７弄","HOUSE_NO":"３３號","E_COORD97":165058.31,"N_COORD97":2544403.9900000002,"ADDRESS":"安平路５００巷１７弄３３號","OBJECTID":128237},"geometry":{"x":165058.31000000052,"y":2544403.9900000002}},{"attributes":{"ID":128238,"DIS_CODE":0,"TOWNNAME":"安平區","LI":"平安里","LIN":"11鄰","STREET":"安平路","SECT":" ","MAREA":" ","LANE":"５００巷","ALLEY":"１７弄","HOUSE_NO":"３４號","E_COORD97":165046.84,"N_COORD97":2544424.4900000002,"ADDRESS":"安平路５００巷１７弄３４號","OBJECTID":128238},"geometry":{"x":165046.83999999985,"y":2544424.4900000039}},{"attributes":{"ID":128239,"DIS_CODE":0,"TOWNNAME":"安平區","LI":"平安里","LIN":"11鄰","STREET":"安平路","SECT":" ","MAREA":" ","LANE":"５００巷","ALLEY":"１７弄","HOUSE_NO":"３５號","E_COORD97":165054.03,"N_COORD97":2544405.21,"ADDRESS":"安平路５００巷１７弄３５號","OBJECTID":128239},"geometry":{"x":165054.03000000119,"y":2544405.2100000009}},{"attributes":{"ID":128240,"DIS_CODE":0,"TOWNNAME":"安平區","LI":"平安里","LIN":"11鄰","STREET":"安平路","SECT":" ","MAREA":" ","LANE":"５００巷","ALLEY":"１７弄","HOUSE_NO":"３６號","E_COORD97":165042.09,"N_COORD97":2544425.3799999999,"ADDRESS":"安平路５００巷１７弄３６號","OBJECTID":128240},"geometry":{"x":165042.08999999985,"y":2544425.3800000008}},{"attributes":{"ID":128241,"DIS_CODE":0,"TOWNNAME":"安平區","LI":"平安里","LIN":"11鄰","STREET":"安平路","SECT":" ","MAREA":" ","LANE":"５００巷","ALLEY":"１７弄","HOUSE_NO":"３７號","E_COORD97":165049.89999999999,"N_COORD97":2544406.8999999999,"ADDRESS":"安平路５００巷１７弄３７號","OBJECTID":128241},"geometry":{"x":165049.9000000013,"y":2544406.9000000004}},{"attributes":{"ID":128242,"DIS_CODE":0,"TOWNNAME":"安平區","LI":"平安里","LIN":"11鄰","STREET":"安平路","SECT":" ","MAREA":" ","LANE":"５００巷","ALLEY":"１７弄","HOUSE_NO":"３８號","E_COORD97":165037.44,"N_COORD97":2544425.6699999999,"ADDRESS":"安平路５００巷１７弄３８號","OBJECTID":128242},"geometry":{"x":165037.44000000227,"y":2544425.6699999999}},{"attributes":{"ID":128243,"DIS_CODE":0,"TOWNNAME":"安平區","LI":"平安里","LIN":"11鄰","STREET":"安平路","SECT":" ","MAREA":" ","LANE":"５００巷","ALLEY":"１７弄","HOUSE_NO":"３號","E_COORD97":165125.79999999999,"N_COORD97":2544388.2599999998,"ADDRESS":"安平路５００巷１７弄３號","OBJECTID":128243},"geometry":{"x":165125.80000000168,"y":2544388.2599999979}},{"attributes":{"ID":128244,"DIS_CODE":0,"TOWNNAME":"北區","LI":"大和里","LIN":"11鄰","STREET":"文賢路","SECT":" ","MAREA":" ","LANE":"７９９巷","ALLEY":"５７弄","HOUSE_NO":"１９號","E_COORD97":167227.53,"N_COORD97":2546206.25,"ADDRESS":"文賢路７９９巷５７弄１９號","OBJECTID":128244},"geometry":{"x":167227.53000000119,"y":2546206.2500000019}},{"attributes":{"ID":128245,"DIS_CODE":0,"TOWNNAME":"北區","LI":"大和里","LIN":"11鄰","STREET":"文賢路","SECT":" ","MAREA":" ","LANE":"７９９巷","ALLEY":"５７弄","HOUSE_NO":"２１號","E_COORD97":167233.98999999999,"N_COORD97":2546207.9300000002,"ADDRESS":"文賢路７９９巷５７弄２１號","OBJECTID":128245},"geometry":{"x":167233.99000000115,"y":2546207.9300000034}},{"attributes":{"ID":128246,"DIS_CODE":0,"TOWNNAME":"北區","LI":"大和里","LIN":"11鄰","STREET":"文賢路","SECT":" ","MAREA":" ","LANE":"７９９巷","ALLEY":"５７弄","HOUSE_NO":"２３號","E_COORD97":167241.5,"N_COORD97":2546209.2000000002,"ADDRESS":"文賢路７９９巷５７弄２３號","OBJECTID":128246},"geometry":{"x":167241.5,"y":2546209.2000000011}},{"attributes":{"ID":128247,"DIS_CODE":0,"TOWNNAME":"安南區","LI":"理想里","LIN":"6鄰","STREET":"海佃路","SECT":"二段","MAREA":" ","LANE":"２８８巷","ALLEY":" ","HOUSE_NO":"２號","E_COORD97":166921.03,"N_COORD97":2548465.29,"ADDRESS":"海佃路二段２８８巷２號","OBJECTID":128247},"geometry":{"x":166921.03000000026,"y":2548465.2899999991}},{"attributes":{"ID":128248,"DIS_CODE":0,"TOWNNAME":"關廟區","LI":"香洋里","LIN":"15鄰","STREET":"中央路","SECT":" ","MAREA":" ","LANE":" ","ALLEY":" ","HOUSE_NO":"２００號","E_COORD97":181303.06,"N_COORD97":2540057.3199999998,"ADDRESS":"中央路２００號","OBJECTID":128248},"geometry":{"x":181303.06000000052,"y":2540057.3200000022}},{"attributes":{"ID":128249,"DIS_CODE":0,"TOWNNAME":"關廟區","LI":"南花里","LIN":"15鄰","STREET":"中正路","SECT":" ","MAREA":" ","LANE":" ","ALLEY":" ","HOUSE_NO":"８７９號","E_COORD97":181467.35999999999,"N_COORD97":2540212.25,"ADDRESS":"中正路８７９號","OBJECTID":128249},"geometry":{"x":181467.36000000034,"y":2540212.2500000019}},{"attributes":{"ID":128250,"DIS_CODE":0,"TOWNNAME":"關廟區","LI":"南花里","LIN":"15鄰","STREET":"中正路","SECT":" ","MAREA":" ","LANE":" ","ALLEY":" ","HOUSE_NO":"８６９號","E_COORD97":181495.85999999999,"N_COORD97":2540225.25,"ADDRESS":"中正路８６９號","OBJECTID":128250},"geometry":{"x":181495.86000000034,"y":2540225.2500000037}},{"attributes":{"ID":128251,"DIS_CODE":0,"TOWNNAME":"關廟區","LI":"南花里","LIN":"15鄰","STREET":"中正路","SECT":" ","MAREA":" ","LANE":" ","ALLEY":" ","HOUSE_NO":"８８１號","E_COORD97":181452.85999999999,"N_COORD97":2540205.25,"ADDRESS":"中正路８８１號","OBJECTID":128251},"geometry":{"x":181452.86000000127,"y":2540205.2500000037}},{"attributes":{"ID":128252,"DIS_CODE":0,"TOWNNAME":"關廟區","LI":"北花里","LIN":"15鄰","STREET":"中正路","SECT":" ","MAREA":" ","LANE":" ","ALLEY":" ","HOUSE_NO":"１７９號","E_COORD97":183445.35999999999,"N_COORD97":2540891.25,"ADDRESS":"中正路１７９號","OBJECTID":128252},"geometry":{"x":183445.36000000034,"y":2540891.2500000019}},{"attributes":{"ID":128253,"DIS_CODE":0,"TOWNNAME":"關廟區","LI":"南花里","LIN":"15鄰","STREET":"中正路","SECT":" ","MAREA":" ","LANE":" ","ALLEY":" ","HOUSE_NO":"８５７號","E_COORD97":181526.16,"N_COORD97":2540237.25,"ADDRESS":"中正路８５７號","OBJECTID":128253},"geometry":{"x":181526.16000000015,"y":2540237.25}},{"attributes":{"ID":128254,"DIS_CODE":0,"TOWNNAME":"關廟區","LI":"香洋里","LIN":"15鄰","STREET":"中央路","SECT":" ","MAREA":" ","LANE":" ","ALLEY":" ","HOUSE_NO":"２０６號","E_COORD97":181293.56,"N_COORD97":2540061.3199999998,"ADDRESS":"中央路２０６號","OBJECTID":128254},"geometry":{"x":181293.55999999959,"y":2540061.3200000003}},{"attributes":{"ID":128255,"DIS_CODE":0,"TOWNNAME":"關廟區","LI":"香洋里","LIN":"15鄰","STREET":"中央路","SECT":" ","MAREA":" ","LANE":" ","ALLEY":" ","HOUSE_NO":"２０２號","E_COORD97":181298.56,"N_COORD97":2540059.3199999998,"ADDRESS":"中央路２０２號","OBJECTID":128255},"geometry":{"x":181298.55999999959,"y":2540059.3200000022}},{"attributes":{"ID":128256,"DIS_CODE":0,"TOWNNAME":"關廟區","LI":"南花里","LIN":"15鄰","STREET":"中正路","SECT":" ","MAREA":" ","LANE":" ","ALLEY":" ","HOUSE_NO":"８５１號","E_COORD97":181544.56,"N_COORD97":2540246.25,"ADDRESS":"中正路８５１號","OBJECTID":128256},"geometry":{"x":181544.55999999959,"y":2540246.2500000019}},{"attributes":{"ID":128257,"DIS_CODE":0,"TOWNNAME":"北區","LI":"成功里","LIN":"13鄰","STREET":"北成路","SECT":" ","MAREA":" ","LANE":" ","ALLEY":" ","HOUSE_NO":"６６號","E_COORD97":169029.81,"N_COORD97":2546620.7200000002,"ADDRESS":"北成路６６號","OBJECTID":128257},"geometry":{"x":169029.81000000052,"y":2546620.7200000044}},{"attributes":{"ID":128258,"DIS_CODE":0,"TOWNNAME":"關廟區","LI":"南花里","LIN":"15鄰","STREET":"中正路","SECT":" ","MAREA":" ","LANE":" ","ALLEY":" ","HOUSE_NO":"８６３號","E_COORD97":181511.56,"N_COORD97":2540231.25,"ADDRESS":"中正路８６３號","OBJECTID":128258},"geometry":{"x":181511.56000000052,"y":2540231.25}},{"attributes":{"ID":128259,"DIS_CODE":0,"TOWNNAME":"關廟區","LI":"南花里","LIN":"15鄰","STREET":"中正路","SECT":" ","MAREA":" ","LANE":" ","ALLEY":" ","HOUSE_NO":"８５３號","E_COORD97":181536.45999999999,"N_COORD97":2540243.25,"ADDRESS":"中正路８５３號","OBJECTID":128259},"geometry":{"x":181536.46000000089,"y":2540243.2500000019}},{"attributes":{"ID":128260,"DIS_CODE":0,"TOWNNAME":"關廟區","LI":"南花里","LIN":"15鄰","STREET":"中正路","SECT":" ","MAREA":" ","LANE":" ","ALLEY":" ","HOUSE_NO":"８７５號","E_COORD97":181480.45999999999,"N_COORD97":2540218.25,"ADDRESS":"中正路８７５號","OBJECTID":128260},"geometry":{"x":181480.46000000089,"y":2540218.25}},{"attributes":{"ID":128261,"DIS_CODE":0,"TOWNNAME":"關廟區","LI":"南花里","LIN":"15鄰","STREET":"和平路","SECT":" ","MAREA":" ","LANE":" ","ALLEY":" ","HOUSE_NO":"３０９號","E_COORD97":181600.64000000001,"N_COORD97":2540212.25,"ADDRESS":"和平路３０９號","OBJECTID":128261},"geometry":{"x":181600.64000000153,"y":2540212.2500000019}},{"attributes":{"ID":128262,"DIS_CODE":0,"TOWNNAME":"永康區","LI":"東橋里","LIN":"25鄰","STREET":"中正路","SECT":" ","MAREA":" ","LANE":" ","ALLEY":" ","HOUSE_NO":"２３７號","E_COORD97":172944.64000000001,"N_COORD97":2548018.3900000001,"ADDRESS":"中正路２３７號","OBJECTID":128262},"geometry":{"x":172944.63999999966,"y":2548018.3900000006}},{"attributes":{"ID":128263,"DIS_CODE":0,"TOWNNAME":"永康區","LI":"永康里","LIN":"39鄰","STREET":"永忠路","SECT":" ","MAREA":" ","LANE":" ","ALLEY":" ","HOUSE_NO":"２２號","E_COORD97":174253.29000000001,"N_COORD97":2546405.73,"ADDRESS":"永忠路２２號","OBJECTID":128263},"geometry":{"x":174253.29000000097,"y":2546405.7300000004}},{"attributes":{"ID":128264,"DIS_CODE":0,"TOWNNAME":"永康區","LI":"網寮里","LIN":"26鄰","STREET":"永華路","SECT":" ","MAREA":" ","LANE":" ","ALLEY":" ","HOUSE_NO":"５７０號","E_COORD97":173887.34,"N_COORD97":2546550.02,"ADDRESS":"永華路５７０號","OBJECTID":128264},"geometry":{"x":173887.33999999985,"y":2546550.0200000014}},{"attributes":{"ID":128265,"DIS_CODE":0,"TOWNNAME":"永康區","LI":"北灣里","LIN":"25鄰","STREET":"大灣路","SECT":" ","MAREA":" ","LANE":" ","ALLEY":" ","HOUSE_NO":"１７１號","E_COORD97":175035.14000000001,"N_COORD97":2545408.0899999999,"ADDRESS":"大灣路１７１號","OBJECTID":128265},"geometry":{"x":175035.14000000153,"y":2545408.0900000017}},{"attributes":{"ID":128266,"DIS_CODE":0,"TOWNNAME":"永康區","LI":"烏竹里","LIN":"5鄰","STREET":"烏竹街","SECT":" ","MAREA":" ","LANE":" ","ALLEY":" ","HOUSE_NO":"４３號","E_COORD97":174484.45999999999,"N_COORD97":2549304.75,"ADDRESS":"烏竹街４３號","OBJECTID":128266},"geometry":{"x":174484.46000000089,"y":2549304.7500000037}},{"attributes":{"ID":128267,"DIS_CODE":0,"TOWNNAME":"麻豆區","LI":"謝安里","LIN":"1鄰","STREET":" ","SECT":" ","MAREA":"謝厝寮","LANE":" ","ALLEY":" ","HOUSE_NO":"２號","E_COORD97":172245.98999999999,"N_COORD97":2561401.8799999999,"ADDRESS":"謝厝寮２號","OBJECTID":128267},"geometry":{"x":172245.99000000022,"y":2561401.879999999}},{"attributes":{"ID":128268,"DIS_CODE":0,"TOWNNAME":"北區","LI":"大和里","LIN":"11鄰","STREET":"文賢路","SECT":" ","MAREA":" ","LANE":"７９９巷","ALLEY":"５７弄","HOUSE_NO":"２５號","E_COORD97":167247.67999999999,"N_COORD97":2546209.9700000002,"ADDRESS":"文賢路７９９巷５７弄２５號","OBJECTID":128268},"geometry":{"x":167247.68000000063,"y":2546209.9700000025}},{"attributes":{"ID":128269,"DIS_CODE":0,"TOWNNAME":"北區","LI":"大和里","LIN":"11鄰","STREET":"文賢路","SECT":" ","MAREA":" ","LANE":"７９９巷","ALLEY":"５７弄","HOUSE_NO":"２７號","E_COORD97":167255.06,"N_COORD97":2546194.5299999998,"ADDRESS":"文賢路７９９巷５７弄２７號","OBJECTID":128269},"geometry":{"x":167255.06000000052,"y":2546194.5300000012}},{"attributes":{"ID":128270,"DIS_CODE":0,"TOWNNAME":"北區","LI":"大和里","LIN":"11鄰","STREET":"文賢路","SECT":" ","MAREA":" ","LANE":"７９９巷","ALLEY":"５７弄","HOUSE_NO":"２９號","E_COORD97":167250.01000000001,"N_COORD97":2546191.23,"ADDRESS":"文賢路７９９巷５７弄２９號","OBJECTID":128270},"geometry":{"x":167250.00999999885,"y":2546191.2300000023}},{"attributes":{"ID":128271,"DIS_CODE":0,"TOWNNAME":"北區","LI":"大和里","LIN":"11鄰","STREET":"文賢路","SECT":" ","MAREA":" ","LANE":"７９９巷","ALLEY":"５７弄","HOUSE_NO":"３１號","E_COORD97":167243.41,"N_COORD97":2546189.4100000001,"ADDRESS":"文賢路７９９巷５７弄３１號","OBJECTID":128271},"geometry":{"x":167243.41000000108,"y":2546189.410000002}},{"attributes":{"ID":128272,"DIS_CODE":0,"TOWNNAME":"北區","LI":"大和里","LIN":"11鄰","STREET":"文賢路","SECT":" ","MAREA":" ","LANE":"７９９巷","ALLEY":"５７弄","HOUSE_NO":"３３號","E_COORD97":167238.35000000001,"N_COORD97":2546188.6400000001,"ADDRESS":"文賢路７９９巷５７弄３３號","OBJECTID":128272},"geometry":{"x":167238.34999999963,"y":2546188.6400000025}},{"attributes":{"ID":128273,"DIS_CODE":0,"TOWNNAME":"北區","LI":"大和里","LIN":"11鄰","STREET":"文賢路","SECT":" ","MAREA":" ","LANE":"７９９巷","ALLEY":"５７弄","HOUSE_NO":"３５號","E_COORD97":167231.47,"N_COORD97":2546187.73,"ADDRESS":"文賢路７９９巷５７弄３５號","OBJECTID":128273},"geometry":{"x":167231.46999999974,"y":2546187.7300000023}},{"attributes":{"ID":128274,"DIS_CODE":0,"TOWNNAME":"北區","LI":"大和里","LIN":"11鄰","STREET":"文賢路","SECT":" ","MAREA":" ","LANE":"７９９巷","ALLEY":"５７弄","HOUSE_NO":"３６號","E_COORD97":167214.28,"N_COORD97":2546199.5299999998,"ADDRESS":"文賢路７９９巷５７弄３６號","OBJECTID":128274},"geometry":{"x":167214.28000000026,"y":2546199.5299999993}},{"attributes":{"ID":128275,"DIS_CODE":0,"TOWNNAME":"北區","LI":"大和里","LIN":"11鄰","STREET":"文賢路","SECT":" ","MAREA":" ","LANE":"７９９巷","ALLEY":"５７弄","HOUSE_NO":"３７號","E_COORD97":167224.31,"N_COORD97":2546175.1899999999,"ADDRESS":"文賢路７９９巷５７弄３７號","OBJECTID":128275},"geometry":{"x":167224.31000000052,"y":2546175.1900000032}},{"attributes":{"ID":128276,"DIS_CODE":0,"TOWNNAME":"北區","LI":"大和里","LIN":"11鄰","STREET":"文賢路","SECT":" ","MAREA":" ","LANE":"７９９巷","ALLEY":"５７弄","HOUSE_NO":"３８號","E_COORD97":167210.37,"N_COORD97":2546198.0600000001,"ADDRESS":"文賢路７９９巷５７弄３８號","OBJECTID":128276},"geometry":{"x":167210.37000000011,"y":2546198.0600000024}},{"attributes":{"ID":128277,"DIS_CODE":0,"TOWNNAME":"北區","LI":"大和里","LIN":"11鄰","STREET":"文賢路","SECT":" ","MAREA":" ","LANE":"７９９巷","ALLEY":"５７弄","HOUSE_NO":"３９號","E_COORD97":167220.28,"N_COORD97":2546173.8900000001,"ADDRESS":"文賢路７９９巷５７弄３９號","OBJECTID":128277},"geometry":{"x":167220.28000000119,"y":2546173.8900000006}},{"attributes":{"ID":128278,"DIS_CODE":0,"TOWNNAME":"北區","LI":"大和里","LIN":"11鄰","STREET":"文賢路","SECT":" ","MAREA":" ","LANE":"７９９巷","ALLEY":"５７弄","HOUSE_NO":"４０號","E_COORD97":167206.39999999999,"N_COORD97":2546196.6600000001,"ADDRESS":"文賢路７９９巷５７弄４０號","OBJECTID":128278},"geometry":{"x":167206.4000000013,"y":2546196.6600000039}},{"attributes":{"ID":128279,"DIS_CODE":0,"TOWNNAME":"北區","LI":"大和里","LIN":"11鄰","STREET":"文賢路","SECT":" ","MAREA":" ","LANE":"７９９巷","ALLEY":"５７弄","HOUSE_NO":"４１號","E_COORD97":167216.5,"N_COORD97":2546172.2599999998,"ADDRESS":"文賢路７９９巷５７弄４１號","OBJECTID":128279},"geometry":{"x":167216.50000000186,"y":2546172.2600000016}},{"attributes":{"ID":128280,"DIS_CODE":0,"TOWNNAME":"北區","LI":"大和里","LIN":"11鄰","STREET":"文賢路","SECT":" ","MAREA":" ","LANE":"７９９巷","ALLEY":"５７弄","HOUSE_NO":"４２號","E_COORD97":167202.85999999999,"N_COORD97":2546195.3399999999,"ADDRESS":"文賢路７９９巷５７弄４２號","OBJECTID":128280},"geometry":{"x":167202.86000000127,"y":2546195.3400000017}},{"attributes":{"ID":128281,"DIS_CODE":0,"TOWNNAME":"北區","LI":"大和里","LIN":"11鄰","STREET":"文賢路","SECT":" ","MAREA":" ","LANE":"７９９巷","ALLEY":"５７弄","HOUSE_NO":"４３號","E_COORD97":167212.45999999999,"N_COORD97":2546170.6899999999,"ADDRESS":"文賢路７９９巷５７弄４３號","OBJECTID":128281},"geometry":{"x":167212.46000000089,"y":2546170.6899999995}},{"attributes":{"ID":128282,"DIS_CODE":0,"TOWNNAME":"北區","LI":"大和里","LIN":"11鄰","STREET":"文賢路","SECT":" ","MAREA":" ","LANE":"７９９巷","ALLEY":"５７弄","HOUSE_NO":"４５號","E_COORD97":167208.56,"N_COORD97":2546169.3300000001,"ADDRESS":"文賢路７９９巷５７弄４５號","OBJECTID":128282},"geometry":{"x":167208.55999999959,"y":2546169.3300000019}},{"attributes":{"ID":128283,"DIS_CODE":0,"TOWNNAME":"北區","LI":"大和里","LIN":"11鄰","STREET":"文賢路","SECT":" ","MAREA":" ","LANE":"７９９巷","ALLEY":"５７弄","HOUSE_NO":"４６號","E_COORD97":167194.95999999999,"N_COORD97":2546190.8700000001,"ADDRESS":"文賢路７９９巷５７弄４６號","OBJECTID":128283},"geometry":{"x":167194.96000000089,"y":2546190.8700000029}},{"attributes":{"ID":128284,"DIS_CODE":0,"TOWNNAME":"北區","LI":"大和里","LIN":"11鄰","STREET":"文賢路","SECT":" ","MAREA":" ","LANE":"７９９巷","ALLEY":"５７弄","HOUSE_NO":"４７號","E_COORD97":167205.07000000001,"N_COORD97":2546167.6699999999,"ADDRESS":"文賢路７９９巷５７弄４７號","OBJECTID":128284},"geometry":{"x":167205.07000000123,"y":2546167.6699999999}},{"attributes":{"ID":128285,"DIS_CODE":0,"TOWNNAME":"北區","LI":"大和里","LIN":"11鄰","STREET":"文賢路","SECT":" ","MAREA":" ","LANE":"７９９巷","ALLEY":"５７弄","HOUSE_NO":"４８號","E_COORD97":167191.32000000001,"N_COORD97":2546189.3100000001,"ADDRESS":"文賢路７９９巷５７弄４８號","OBJECTID":128285},"geometry":{"x":167191.32000000123,"y":2546189.3100000042}},{"attributes":{"ID":128286,"DIS_CODE":0,"TOWNNAME":"北區","LI":"大和里","LIN":"11鄰","STREET":"文賢路","SECT":" ","MAREA":" ","LANE":"７９９巷","ALLEY":"５７弄","HOUSE_NO":"４９號","E_COORD97":167200.70000000001,"N_COORD97":2546166.1400000001,"ADDRESS":"文賢路７９９巷５７弄４９號","OBJECTID":128286},"geometry":{"x":167200.70000000112,"y":2546166.1400000006}},{"attributes":{"ID":128287,"DIS_CODE":0,"TOWNNAME":"北區","LI":"大和里","LIN":"11鄰","STREET":"文賢路","SECT":" ","MAREA":" ","LANE":"７９９巷","ALLEY":"５７弄","HOUSE_NO":"５０號","E_COORD97":167187.35000000001,"N_COORD97":2546188.2000000002,"ADDRESS":"文賢路７９９巷５７弄５０號","OBJECTID":128287},"geometry":{"x":167187.35000000056,"y":2546188.1999999993}},{"attributes":{"ID":128288,"DIS_CODE":0,"TOWNNAME":"北區","LI":"大和里","LIN":"11鄰","STREET":"文賢路","SECT":" ","MAREA":" ","LANE":"７９９巷","ALLEY":"５７弄","HOUSE_NO":"５１號","E_COORD97":167196.92000000001,"N_COORD97":2546164.9700000002,"ADDRESS":"文賢路７９９巷５７弄５１號","OBJECTID":128288},"geometry":{"x":167196.92000000086,"y":2546164.9700000025}},{"attributes":{"ID":128289,"DIS_CODE":0,"TOWNNAME":"北區","LI":"大和里","LIN":"11鄰","STREET":"文賢路","SECT":" ","MAREA":" ","LANE":"７９９巷","ALLEY":"５７弄","HOUSE_NO":"５２號","E_COORD97":167183.12,"N_COORD97":2546187.0299999998,"ADDRESS":"文賢路７９９巷５７弄５２號","OBJECTID":128289},"geometry":{"x":167183.12000000011,"y":2546187.0300000012}},{"attributes":{"ID":128290,"DIS_CODE":0,"TOWNNAME":"北區","LI":"大和里","LIN":"11鄰","STREET":"文賢路","SECT":" ","MAREA":" ","LANE":"７９９巷","ALLEY":"５７弄","HOUSE_NO":"５３號","E_COORD97":167192.82999999999,"N_COORD97":2546163.4700000002,"ADDRESS":"文賢路７９９巷５７弄５３號","OBJECTID":128290},"geometry":{"x":167192.83000000101,"y":2546163.4700000007}},{"attributes":{"ID":128291,"DIS_CODE":0,"TOWNNAME":"北區","LI":"大和里","LIN":"11鄰","STREET":"文賢路","SECT":" ","MAREA":" ","LANE":"７９９巷","ALLEY":"５７弄","HOUSE_NO":"５４號","E_COORD97":167179.28,"N_COORD97":2546185.1499999999,"ADDRESS":"文賢路７９９巷５７弄５４號","OBJECTID":128291},"geometry":{"x":167179.28000000212,"y":2546185.1500000004}},{"attributes":{"ID":128292,"DIS_CODE":0,"TOWNNAME":"永康區","LI":"烏竹里","LIN":"5鄰","STREET":"烏竹街","SECT":" ","MAREA":" ","LANE":" ","ALLEY":" ","HOUSE_NO":"２５號","E_COORD97":174467.92999999999,"N_COORD97":2549277.4900000002,"ADDRESS":"烏竹街２５號","OBJECTID":128292},"geometry":{"x":174467.9299999997,"y":2549277.4900000021}},{"attributes":{"ID":128293,"DIS_CODE":0,"TOWNNAME":"永康區","LI":"網寮里","LIN":"25鄰","STREET":"永興路","SECT":" ","MAREA":" ","LANE":" ","ALLEY":" ","HOUSE_NO":"１４５號","E_COORD97":173792.03,"N_COORD97":2546636.8900000001,"ADDRESS":"永興路１４５號","OBJECTID":128293},"geometry":{"x":173792.03000000026,"y":2546636.8900000025}},{"attributes":{"ID":128294,"DIS_CODE":0,"TOWNNAME":"後壁區","LI":"福安里","LIN":"6鄰","STREET":" ","SECT":" ","MAREA":"下寮","LANE":" ","ALLEY":" ","HOUSE_NO":"５４號之１","E_COORD97":184376.20999999999,"N_COORD97":2580827.98,"ADDRESS":"下寮５４號之１","OBJECTID":128294},"geometry":{"x":184376.21000000089,"y":2580827.9800000023}},{"attributes":{"ID":128295,"DIS_CODE":0,"TOWNNAME":"後壁區","LI":"福安里","LIN":"6鄰","STREET":" ","SECT":" ","MAREA":"下寮","LANE":" ","ALLEY":" ","HOUSE_NO":"５４號之２","E_COORD97":184390.25,"N_COORD97":2580850.46,"ADDRESS":"下寮５４號之２","OBJECTID":128295},"geometry":{"x":184390.25,"y":2580850.4600000009}},{"attributes":{"ID":128296,"DIS_CODE":0,"TOWNNAME":"後壁區","LI":"福安里","LIN":"6鄰","STREET":" ","SECT":" ","MAREA":"下寮","LANE":" ","ALLEY":" ","HOUSE_NO":"５５號之１","E_COORD97":184367.09,"N_COORD97":2580859.23,"ADDRESS":"下寮５５號之１","OBJECTID":128296},"geometry":{"x":184367.08999999985,"y":2580859.2300000004}},{"attributes":{"ID":128297,"DIS_CODE":0,"TOWNNAME":"後壁區","LI":"福安里","LIN":"6鄰","STREET":" ","SECT":" ","MAREA":"下寮","LANE":" ","ALLEY":" ","HOUSE_NO":"５５號之２","E_COORD97":184375.45999999999,"N_COORD97":2580878.0499999998,"ADDRESS":"下寮５５號之２","OBJECTID":128297},"geometry":{"x":184375.46000000183,"y":2580878.0500000045}},{"attributes":{"ID":128298,"DIS_CODE":0,"TOWNNAME":"後壁區","LI":"福安里","LIN":"6鄰","STREET":" ","SECT":" ","MAREA":"下寮","LANE":" ","ALLEY":" ","HOUSE_NO":"５５號","E_COORD97":184358.57000000001,"N_COORD97":2580873.25,"ADDRESS":"下寮５５號","OBJECTID":128298},"geometry":{"x":184358.57000000123,"y":2580873.2500000019}},{"attributes":{"ID":128299,"DIS_CODE":0,"TOWNNAME":"後壁區","LI":"福安里","LIN":"6鄰","STREET":" ","SECT":" ","MAREA":"下寮","LANE":" ","ALLEY":" ","HOUSE_NO":"５６號","E_COORD97":184331.67000000001,"N_COORD97":2580870.6899999999,"ADDRESS":"下寮５６號","OBJECTID":128299},"geometry":{"x":184331.67000000179,"y":2580870.6900000013}},{"attributes":{"ID":128300,"DIS_CODE":0,"TOWNNAME":"後壁區","LI":"福安里","LIN":"6鄰","STREET":" ","SECT":" ","MAREA":"下寮","LANE":" ","ALLEY":" ","HOUSE_NO":"５８號之１","E_COORD97":184357.32000000001,"N_COORD97":2580900.8300000001,"ADDRESS":"下寮５８號之１","OBJECTID":128300},"geometry":{"x":184357.3200000003,"y":2580900.8300000019}},{"attributes":{"ID":128301,"DIS_CODE":0,"TOWNNAME":"後壁區","LI":"福安里","LIN":"6鄰","STREET":" ","SECT":" ","MAREA":"下寮","LANE":" ","ALLEY":" ","HOUSE_NO":"５８號之３","E_COORD97":184355.20000000001,"N_COORD97":2580906.5299999998,"ADDRESS":"下寮５８號之３","OBJECTID":128301},"geometry":{"x":184355.20000000019,"y":2580906.5299999993}},{"attributes":{"ID":128302,"DIS_CODE":0,"TOWNNAME":"北區","LI":"大和里","LIN":"11鄰","STREET":"文賢路","SECT":" ","MAREA":" ","LANE":"７９９巷","ALLEY":"５７弄","HOUSE_NO":"５５號","E_COORD97":167188.91,"N_COORD97":2546161.8300000001,"ADDRESS":"文賢路７９９巷５７弄５５號","OBJECTID":128302},"geometry":{"x":167188.91000000108,"y":2546161.8300000019}},{"attributes":{"ID":128303,"DIS_CODE":0,"TOWNNAME":"後壁區","LI":"嘉苳里","LIN":"6鄰","STREET":" ","SECT":" ","MAREA":"下茄苳","LANE":" ","ALLEY":" ","HOUSE_NO":"７９號","E_COORD97":184946.64999999999,"N_COORD97":2583176.4100000001,"ADDRESS":"下茄苳７９號","OBJECTID":128303},"geometry":{"x":184946.6500000013,"y":2583176.4100000001}},{"attributes":{"ID":128304,"DIS_CODE":0,"TOWNNAME":"後壁區","LI":"嘉苳里","LIN":"6鄰","STREET":" ","SECT":" ","MAREA":"下茄苳","LANE":" ","ALLEY":" ","HOUSE_NO":"８０號之１","E_COORD97":184960.73999999999,"N_COORD97":2583206.0499999998,"ADDRESS":"下茄苳８０號之１","OBJECTID":128304},"geometry":{"x":184960.74000000115,"y":2583206.0500000007}},{"attributes":{"ID":128305,"DIS_CODE":0,"TOWNNAME":"後壁區","LI":"嘉苳里","LIN":"6鄰","STREET":" ","SECT":" ","MAREA":"下茄苳","LANE":" ","ALLEY":" ","HOUSE_NO":"８０號之３","E_COORD97":184947.98999999999,"N_COORD97":2583205.3300000001,"ADDRESS":"下茄苳８０號之３","OBJECTID":128305},"geometry":{"x":184947.99000000022,"y":2583205.3300000019}},{"attributes":{"ID":128306,"DIS_CODE":0,"TOWNNAME":"後壁區","LI":"嘉苳里","LIN":"6鄰","STREET":" ","SECT":" ","MAREA":"下茄苳","LANE":" ","ALLEY":" ","HOUSE_NO":"８０號","E_COORD97":184961.04000000001,"N_COORD97":2583216.8399999999,"ADDRESS":"下茄苳８０號","OBJECTID":128306},"geometry":{"x":184961.04000000004,"y":2583216.8399999999}},{"attributes":{"ID":128307,"DIS_CODE":0,"TOWNNAME":"後壁區","LI":"嘉田里","LIN":"6鄰","STREET":" ","SECT":" ","MAREA":"上茄苳","LANE":" ","ALLEY":" ","HOUSE_NO":"５２號","E_COORD97":186736.56,"N_COORD97":2587190.0299999998,"ADDRESS":"上茄苳５２號","OBJECTID":128307},"geometry":{"x":186736.56000000052,"y":2587190.0300000012}},{"attributes":{"ID":128308,"DIS_CODE":0,"TOWNNAME":"後壁區","LI":"嘉田里","LIN":"6鄰","STREET":" ","SECT":" ","MAREA":"上茄苳","LANE":" ","ALLEY":" ","HOUSE_NO":"５４號之２","E_COORD97":186730.41,"N_COORD97":2587207.6400000001,"ADDRESS":"上茄苳５４號之２","OBJECTID":128308},"geometry":{"x":186730.41000000015,"y":2587207.6400000025}},{"attributes":{"ID":128309,"DIS_CODE":0,"TOWNNAME":"後壁區","LI":"嘉田里","LIN":"6鄰","STREET":" ","SECT":" ","MAREA":"上茄苳","LANE":" ","ALLEY":" ","HOUSE_NO":"５４號之３","E_COORD97":186725.60999999999,"N_COORD97":2587206.6800000002,"ADDRESS":"上茄苳５４號之３","OBJECTID":128309},"geometry":{"x":186725.61000000034,"y":2587206.6800000016}},{"attributes":{"ID":128310,"DIS_CODE":0,"TOWNNAME":"北區","LI":"大和里","LIN":"11鄰","STREET":"文賢路","SECT":" ","MAREA":" ","LANE":"７９９巷","ALLEY":"５７弄","HOUSE_NO":"５７號","E_COORD97":167185.07000000001,"N_COORD97":2546159.9500000002,"ADDRESS":"文賢路７９９巷５７弄５７號","OBJECTID":128310},"geometry":{"x":167185.0700000003,"y":2546159.950000003}},{"attributes":{"ID":128311,"DIS_CODE":0,"TOWNNAME":"北區","LI":"大和里","LIN":"11鄰","STREET":"文賢路","SECT":" ","MAREA":" ","LANE":"７９９巷","ALLEY":"５７弄","HOUSE_NO":"５９號","E_COORD97":167181.35999999999,"N_COORD97":2546158.4500000002,"ADDRESS":"文賢路７９９巷５７弄５９號","OBJECTID":128311},"geometry":{"x":167181.36000000127,"y":2546158.4499999993}},{"attributes":{"ID":128312,"DIS_CODE":0,"TOWNNAME":"仁德區","LI":"太子里","LIN":"10鄰","STREET":"長興路","SECT":" ","MAREA":" ","LANE":" ","ALLEY":" ","HOUSE_NO":"３６號","E_COORD97":174140.97,"N_COORD97":2543648.5099999998,"ADDRESS":"長興路３６號","OBJECTID":128312},"geometry":{"x":174140.96999999974,"y":2543648.5100000016}},{"attributes":{"ID":128313,"DIS_CODE":0,"TOWNNAME":"仁德區","LI":"仁義里","LIN":"6鄰","STREET":"仁義一街","SECT":" ","MAREA":" ","LANE":" ","ALLEY":" ","HOUSE_NO":"１５３號","E_COORD97":173684.85000000001,"N_COORD97":2541188.2599999998,"ADDRESS":"仁義一街１５３號","OBJECTID":128313},"geometry":{"x":173684.85000000056,"y":2541188.2600000016}},{"attributes":{"ID":128314,"DIS_CODE":0,"TOWNNAME":"仁德區","LI":"新田里","LIN":"6鄰","STREET":"勝利路","SECT":" ","MAREA":" ","LANE":" ","ALLEY":" ","HOUSE_NO":"２５７號","E_COORD97":174891.51000000001,"N_COORD97":2539421,"ADDRESS":"勝利路２５７號","OBJECTID":128314},"geometry":{"x":174891.50999999978,"y":2539421.0000000019}},{"attributes":{"ID":128315,"DIS_CODE":0,"TOWNNAME":"仁德區","LI":"保安里","LIN":"6鄰","STREET":"文賢路","SECT":"一段","MAREA":" ","LANE":" ","ALLEY":" ","HOUSE_NO":"７２７號","E_COORD97":171445.64000000001,"N_COORD97":2536263.8300000001,"ADDRESS":"文賢路一段７２７號","OBJECTID":128315},"geometry":{"x":171445.63999999966,"y":2536263.8300000001}},{"attributes":{"ID":128316,"DIS_CODE":0,"TOWNNAME":"北區","LI":"大和里","LIN":"11鄰","STREET":"文賢路","SECT":" ","MAREA":" ","LANE":"７９９巷","ALLEY":"５７弄","HOUSE_NO":"６１號","E_COORD97":167177.45999999999,"N_COORD97":2546157.2799999998,"ADDRESS":"文賢路７９９巷５７弄６１號","OBJECTID":128316},"geometry":{"x":167177.45999999996,"y":2546157.2799999993}},{"attributes":{"ID":128317,"DIS_CODE":0,"TOWNNAME":"北區","LI":"大和里","LIN":"11鄰","STREET":"文賢路","SECT":" ","MAREA":" ","LANE":"７９９巷","ALLEY":"５７弄","HOUSE_NO":"６３號","E_COORD97":167173.54999999999,"N_COORD97":2546155.98,"ADDRESS":"文賢路７９９巷５７弄６３號","OBJECTID":128317},"geometry":{"x":167173.55000000168,"y":2546155.9800000004}},{"attributes":{"ID":128318,"DIS_CODE":0,"TOWNNAME":"後壁區","LI":"長安里","LIN":"6鄰","STREET":" ","SECT":" ","MAREA":"中寮","LANE":" ","ALLEY":" ","HOUSE_NO":"８７號之３","E_COORD97":184250.70999999999,"N_COORD97":2581141.7200000002,"ADDRESS":"中寮８７號之３","OBJECTID":128318},"geometry":{"x":184250.71000000089,"y":2581141.7200000025}},{"attributes":{"ID":128319,"DIS_CODE":0,"TOWNNAME":"後壁區","LI":"長安里","LIN":"6鄰","STREET":" ","SECT":" ","MAREA":"中寮","LANE":" ","ALLEY":" ","HOUSE_NO":"８７號之４","E_COORD97":184248,"N_COORD97":2581137.52,"ADDRESS":"中寮８７號之４","OBJECTID":128319},"geometry":{"x":184247.99999999907,"y":2581137.5199999996}},{"attributes":{"ID":128320,"DIS_CODE":0,"TOWNNAME":"後壁區","LI":"長安里","LIN":"6鄰","STREET":" ","SECT":" ","MAREA":"中寮","LANE":" ","ALLEY":" ","HOUSE_NO":"８７號","E_COORD97":184278.60999999999,"N_COORD97":2581134.5899999999,"ADDRESS":"中寮８７號","OBJECTID":128320},"geometry":{"x":184278.61000000127,"y":2581134.5900000036}},{"attributes":{"ID":128321,"DIS_CODE":0,"TOWNNAME":"後壁區","LI":"長安里","LIN":"6鄰","STREET":" ","SECT":" ","MAREA":"中寮","LANE":" ","ALLEY":" ","HOUSE_NO":"８８號之３","E_COORD97":184221.35999999999,"N_COORD97":2581130.79,"ADDRESS":"中寮８８號之３","OBJECTID":128321},"geometry":{"x":184221.36000000127,"y":2581130.7899999991}},{"attributes":{"ID":128322,"DIS_CODE":0,"TOWNNAME":"後壁區","LI":"長安里","LIN":"6鄰","STREET":" ","SECT":" ","MAREA":"中寮","LANE":" ","ALLEY":" ","HOUSE_NO":"８８號","E_COORD97":184236.48999999999,"N_COORD97":2581139.9399999999,"ADDRESS":"中寮８８號","OBJECTID":128322},"geometry":{"x":184236.49000000209,"y":2581139.9400000013}},{"attributes":{"ID":128323,"DIS_CODE":0,"TOWNNAME":"北區","LI":"大和里","LIN":"11鄰","STREET":"文賢路","SECT":" ","MAREA":" ","LANE":"７９９巷","ALLEY":"５７弄","HOUSE_NO":"６５號","E_COORD97":167169.78,"N_COORD97":2546154.3500000001,"ADDRESS":"文賢路７９９巷５７弄６５號","OBJECTID":128323},"geometry":{"x":167169.78000000119,"y":2546154.3500000015}},{"attributes":{"ID":128324,"DIS_CODE":0,"TOWNNAME":"後壁區","LI":"長安里","LIN":"6鄰","STREET":" ","SECT":" ","MAREA":"中寮","LANE":" ","ALLEY":" ","HOUSE_NO":"９２號","E_COORD97":184183.70999999999,"N_COORD97":2581117.23,"ADDRESS":"中寮９２號","OBJECTID":128324},"geometry":{"x":184183.70999999996,"y":2581117.2300000042}},{"attributes":{"ID":128325,"DIS_CODE":0,"TOWNNAME":"北區","LI":"大和里","LIN":"11鄰","STREET":"文賢路","SECT":" ","MAREA":" ","LANE":"７９９巷","ALLEY":"５７弄","HOUSE_NO":"６７號","E_COORD97":167165.42000000001,"N_COORD97":2546152.9900000002,"ADDRESS":"文賢路７９９巷５７弄６７號","OBJECTID":128325},"geometry":{"x":167165.41999999993,"y":2546152.9900000002}},{"attributes":{"ID":128326,"DIS_CODE":0,"TOWNNAME":"後壁區","LI":"新嘉里","LIN":"6鄰","STREET":" ","SECT":" ","MAREA":"白沙屯","LANE":" ","ALLEY":" ","HOUSE_NO":"６０號","E_COORD97":179654.70999999999,"N_COORD97":2585771.2400000002,"ADDRESS":"白沙屯６０號","OBJECTID":128326},"geometry":{"x":179654.71000000089,"y":2585771.2400000002}},{"attributes":{"ID":128327,"DIS_CODE":0,"TOWNNAME":"後壁區","LI":"新嘉里","LIN":"6鄰","STREET":" ","SECT":" ","MAREA":"白沙屯","LANE":" ","ALLEY":" ","HOUSE_NO":"６１號","E_COORD97":179641.26000000001,"N_COORD97":2585772.3300000001,"ADDRESS":"白沙屯６１號","OBJECTID":128327},"geometry":{"x":179641.25999999978,"y":2585772.3300000019}},{"attributes":{"ID":128328,"DIS_CODE":0,"TOWNNAME":"後壁區","LI":"新嘉里","LIN":"6鄰","STREET":" ","SECT":" ","MAREA":"白沙屯","LANE":" ","ALLEY":" ","HOUSE_NO":"６２號","E_COORD97":179638.14999999999,"N_COORD97":2585756.1299999999,"ADDRESS":"白沙屯６２號","OBJECTID":128328},"geometry":{"x":179638.14999999944,"y":2585756.129999999}},{"attributes":{"ID":128329,"DIS_CODE":0,"TOWNNAME":"後壁區","LI":"新嘉里","LIN":"6鄰","STREET":" ","SECT":" ","MAREA":"白沙屯","LANE":" ","ALLEY":" ","HOUSE_NO":"６３號","E_COORD97":179639.28,"N_COORD97":2585720.7999999998,"ADDRESS":"白沙屯６３號","OBJECTID":128329},"geometry":{"x":179639.28000000119,"y":2585720.8000000007}},{"attributes":{"ID":128330,"DIS_CODE":0,"TOWNNAME":"歸仁區","LI":"媽廟里","LIN":"11鄰","STREET":"中正北路","SECT":"三段","MAREA":" ","LANE":"２０５巷","ALLEY":"１２弄","HOUSE_NO":"９號","E_COORD97":177545.91,"N_COORD97":2543903.7200000002,"ADDRESS":"中正北路三段２０５巷１２弄９號","OBJECTID":128330},"geometry":{"x":177545.91000000015,"y":2543903.7200000007}},{"attributes":{"ID":128331,"DIS_CODE":0,"TOWNNAME":"東區","LI":"德高里","LIN":"6鄰","STREET":"德高街","SECT":" ","MAREA":" ","LANE":" ","ALLEY":" ","HOUSE_NO":"５９號","E_COORD97":171508.20000000001,"N_COORD97":2540839.9199999999,"ADDRESS":"德高街５９號","OBJECTID":128331},"geometry":{"x":171508.20000000112,"y":2540839.9199999999}},{"attributes":{"ID":128332,"DIS_CODE":0,"TOWNNAME":"歸仁區","LI":"六甲里","LIN":"11鄰","STREET":"中正南路","SECT":"一段","MAREA":" ","LANE":"１２６３巷","ALLEY":"１８８弄","HOUSE_NO":"５號","E_COORD97":176321.91,"N_COORD97":2537876.25,"ADDRESS":"中正南路一段１２６３巷１８８弄５號","OBJECTID":128332},"geometry":{"x":176321.91000000015,"y":2537876.2500000019}},{"attributes":{"ID":128333,"DIS_CODE":0,"TOWNNAME":"歸仁區","LI":"媽廟里","LIN":"11鄰","STREET":"中正北路","SECT":"三段","MAREA":" ","LANE":"２０５巷","ALLEY":"１２弄","HOUSE_NO":"１３號","E_COORD97":177513.35999999999,"N_COORD97":2543913.7200000002,"ADDRESS":"中正北路三段２０５巷１２弄１３號","OBJECTID":128333},"geometry":{"x":177513.36000000127,"y":2543913.7200000007}},{"attributes":{"ID":128334,"DIS_CODE":0,"TOWNNAME":"白河區","LI":"廣安里","LIN":"1鄰","STREET":" ","SECT":" ","MAREA":"埤斗子","LANE":" ","ALLEY":" ","HOUSE_NO":"８之３號","E_COORD97":189582.37,"N_COORD97":2587109.3900000001,"ADDRESS":"埤斗子８之３號","OBJECTID":128334},"geometry":{"x":189582.37000000104,"y":2587109.3900000006}},{"attributes":{"ID":128335,"DIS_CODE":0,"TOWNNAME":"東區","LI":"德高里","LIN":"6鄰","STREET":"德高街","SECT":" ","MAREA":" ","LANE":" ","ALLEY":" ","HOUSE_NO":"６１號","E_COORD97":171496.41,"N_COORD97":2540830.7999999998,"ADDRESS":"德高街６１號","OBJECTID":128335},"geometry":{"x":171496.41000000108,"y":2540830.8000000026}},{"attributes":{"ID":128336,"DIS_CODE":0,"TOWNNAME":"歸仁區","LI":"媽廟里","LIN":"11鄰","STREET":"中正北路","SECT":"三段","MAREA":" ","LANE":"２０５巷","ALLEY":"６２弄","HOUSE_NO":"２號","E_COORD97":177418.91,"N_COORD97":2543946.7200000002,"ADDRESS":"中正北路三段２０５巷６２弄２號","OBJECTID":128336},"geometry":{"x":177418.91000000201,"y":2543946.7200000025}},{"attributes":{"ID":128337,"DIS_CODE":0,"TOWNNAME":"歸仁區","LI":"看東里","LIN":"11鄰","STREET":"忠孝南路","SECT":" ","MAREA":" ","LANE":"１３９巷","ALLEY":"１１弄","HOUSE_NO":"２６號","E_COORD97":178576.29999999999,"N_COORD97":2540374.48,"ADDRESS":"忠孝南路１３９巷１１弄２６號","OBJECTID":128337},"geometry":{"x":178576.30000000075,"y":2540374.4800000023}},{"attributes":{"ID":128338,"DIS_CODE":0,"TOWNNAME":"新營區","LI":"南紙里","LIN":"11鄰","STREET":"太子路","SECT":" ","MAREA":" ","LANE":"２００巷","ALLEY":"１７弄","HOUSE_NO":"３５號","E_COORD97":177825.07999999999,"N_COORD97":2577890.9900000002,"ADDRESS":"太子路２００巷１７弄３５號","OBJECTID":128338},"geometry":{"x":177825.08000000101,"y":2577890.9900000039}},{"attributes":{"ID":128339,"DIS_CODE":0,"TOWNNAME":"新營區","LI":"南紙里","LIN":"11鄰","STREET":"太子路","SECT":" ","MAREA":" ","LANE":"２００巷","ALLEY":"１７弄","HOUSE_NO":"３７號","E_COORD97":177819.95000000001,"N_COORD97":2577888.7999999998,"ADDRESS":"太子路２００巷１７弄３７號","OBJECTID":128339},"geometry":{"x":177819.95000000019,"y":2577888.8000000007}},{"attributes":{"ID":128340,"DIS_CODE":0,"TOWNNAME":"新營區","LI":"南紙里","LIN":"11鄰","STREET":"太子路","SECT":" ","MAREA":" ","LANE":"２００巷","ALLEY":"１７弄","HOUSE_NO":"２９號","E_COORD97":177828.04000000001,"N_COORD97":2577873.2599999998,"ADDRESS":"太子路２００巷１７弄２９號","OBJECTID":128340},"geometry":{"x":177828.04000000004,"y":2577873.2600000016}},{"attributes":{"ID":128341,"DIS_CODE":0,"TOWNNAME":"新營區","LI":"南紙里","LIN":"11鄰","STREET":"太子路","SECT":" ","MAREA":" ","LANE":"２００巷","ALLEY":"１７弄","HOUSE_NO":"２７號","E_COORD97":177844.42000000001,"N_COORD97":2577874.29,"ADDRESS":"太子路２００巷１７弄２７號","OBJECTID":128341},"geometry":{"x":177844.42000000086,"y":2577874.2900000028}},{"attributes":{"ID":128342,"DIS_CODE":0,"TOWNNAME":"新營區","LI":"南紙里","LIN":"11鄰","STREET":"太子路","SECT":" ","MAREA":" ","LANE":"２００巷","ALLEY":"１７弄","HOUSE_NO":"２１號","E_COORD97":177867.97,"N_COORD97":2577880.8100000001,"ADDRESS":"太子路２００巷１７弄２１號","OBJECTID":128342},"geometry":{"x":177867.97000000067,"y":2577880.8100000005}},{"attributes":{"ID":128343,"DIS_CODE":0,"TOWNNAME":"新營區","LI":"南紙里","LIN":"11鄰","STREET":"太子路","SECT":" ","MAREA":" ","LANE":"２００巷","ALLEY":"１７弄","HOUSE_NO":"２３號","E_COORD97":177858.73000000001,"N_COORD97":2577874.2200000002,"ADDRESS":"太子路２００巷１７弄２３號","OBJECTID":128343},"geometry":{"x":177858.73000000045,"y":2577874.2200000025}},{"attributes":{"ID":128344,"DIS_CODE":0,"TOWNNAME":"新營區","LI":"南紙里","LIN":"11鄰","STREET":"太子路","SECT":" ","MAREA":" ","LANE":"２００巷","ALLEY":"１７弄","HOUSE_NO":"１９號","E_COORD97":177865.87,"N_COORD97":2577884.1499999999,"ADDRESS":"太子路２００巷１７弄１９號","OBJECTID":128344},"geometry":{"x":177865.87000000011,"y":2577884.1500000022}},{"attributes":{"ID":128345,"DIS_CODE":0,"TOWNNAME":"新營區","LI":"新東里","LIN":"11鄰","STREET":"東仁街","SECT":" ","MAREA":" ","LANE":"４３巷","ALLEY":"１６弄","HOUSE_NO":"５４號","E_COORD97":181171.17999999999,"N_COORD97":2579705.6800000002,"ADDRESS":"東仁街４３巷１６弄５４號","OBJECTID":128345},"geometry":{"x":181171.1799999997,"y":2579705.6799999997}},{"attributes":{"ID":128346,"DIS_CODE":0,"TOWNNAME":"歸仁區","LI":"大廟里","LIN":"11鄰","STREET":"大廟五街","SECT":" ","MAREA":" ","LANE":"２６巷","ALLEY":"１８弄","HOUSE_NO":"１２號","E_COORD97":176015.17999999999,"N_COORD97":2544159.0899999999,"ADDRESS":"大廟五街２６巷１８弄１２號","OBJECTID":128346},"geometry":{"x":176015.18000000063,"y":2544159.0900000036}},{"attributes":{"ID":128347,"DIS_CODE":0,"TOWNNAME":"歸仁區","LI":"七甲里","LIN":"11鄰","STREET":"南丁路","SECT":" ","MAREA":" ","LANE":"７８巷","ALLEY":"１１８弄","HOUSE_NO":"６號","E_COORD97":176517.34,"N_COORD97":2541701.25,"ADDRESS":"南丁路７８巷１１８弄６號","OBJECTID":128347},"geometry":{"x":176517.34000000171,"y":2541701.2500000019}},{"attributes":{"ID":128348,"DIS_CODE":0,"TOWNNAME":"歸仁區","LI":"大廟里","LIN":"11鄰","STREET":"大廟五街","SECT":" ","MAREA":" ","LANE":"２６巷","ALLEY":"１８弄","HOUSE_NO":"３號","E_COORD97":176004.32999999999,"N_COORD97":2544169.9900000002,"ADDRESS":"大廟五街２６巷１８弄３號","OBJECTID":128348},"geometry":{"x":176004.33000000101,"y":2544169.9900000002}},{"attributes":{"ID":128349,"DIS_CODE":0,"TOWNNAME":"歸仁區","LI":"武東里","LIN":"11鄰","STREET":"大武路","SECT":"三段","MAREA":" ","LANE":"１９６巷","ALLEY":"７３弄","HOUSE_NO":"４６號","E_COORD97":174791.47,"N_COORD97":2535773.2799999998,"ADDRESS":"大武路三段１９６巷７３弄４６號","OBJECTID":128349},"geometry":{"x":174791.46999999974,"y":2535773.2800000012}},{"attributes":{"ID":128350,"DIS_CODE":0,"TOWNNAME":"關廟區","LI":"東勢里","LIN":"11鄰","STREET":"東榮街","SECT":" ","MAREA":" ","LANE":"５５巷","ALLEY":"２０弄","HOUSE_NO":"５號","E_COORD97":182090.47,"N_COORD97":2539416.25,"ADDRESS":"東榮街５５巷２０弄５號","OBJECTID":128350},"geometry":{"x":182090.47000000067,"y":2539416.2500000019}},{"attributes":{"ID":128351,"DIS_CODE":0,"TOWNNAME":"關廟區","LI":"北花里","LIN":"11鄰","STREET":"中正路","SECT":" ","MAREA":" ","LANE":"７８５巷","ALLEY":"３弄","HOUSE_NO":"１５號","E_COORD97":181749.60999999999,"N_COORD97":2540283.25,"ADDRESS":"中正路７８５巷３弄１５號","OBJECTID":128351},"geometry":{"x":181749.61000000127,"y":2540283.2500000019}},{"attributes":{"ID":128352,"DIS_CODE":0,"TOWNNAME":"關廟區","LI":"布袋里","LIN":"11鄰","STREET":"南雄南路","SECT":" ","MAREA":" ","LANE":"８５２巷","ALLEY":"２０２弄","HOUSE_NO":"１１號","E_COORD97":182129.29000000001,"N_COORD97":2533856.2999999998,"ADDRESS":"南雄南路８５２巷２０２弄１１號","OBJECTID":128352},"geometry":{"x":182129.29000000097,"y":2533856.3000000026}},{"attributes":{"ID":128353,"DIS_CODE":0,"TOWNNAME":"關廟區","LI":"關廟里","LIN":"11鄰","STREET":"大富街","SECT":" ","MAREA":" ","LANE":"３０１巷","ALLEY":"７弄","HOUSE_NO":"１１號","E_COORD97":181017.69,"N_COORD97":2539691.1499999999,"ADDRESS":"大富街３０１巷７弄１１號","OBJECTID":128353},"geometry":{"x":181017.69000000041,"y":2539691.1500000022}},{"attributes":{"ID":128354,"DIS_CODE":0,"TOWNNAME":"麻豆區","LI":"謝安里","LIN":"4鄰","STREET":" ","SECT":" ","MAREA":"謝厝寮","LANE":" ","ALLEY":" ","HOUSE_NO":"３８號之２","E_COORD97":171964.28,"N_COORD97":2561187.0299999998,"ADDRESS":"謝厝寮３８號之２","OBJECTID":128354},"geometry":{"x":171964.28000000026,"y":2561187.0300000012}},{"attributes":{"ID":128355,"DIS_CODE":0,"TOWNNAME":"關廟區","LI":"埤頭里","LIN":"11鄰","STREET":"關新路","SECT":"二段","MAREA":" ","LANE":"５１巷","ALLEY":"６８弄","HOUSE_NO":"１１號","E_COORD97":178890.85000000001,"N_COORD97":2544210.5800000001,"ADDRESS":"關新路二段５１巷６８弄１１號","OBJECTID":128355},"geometry":{"x":178890.85000000056,"y":2544210.5800000019}},{"attributes":{"ID":128356,"DIS_CODE":0,"TOWNNAME":"關廟區","LI":"埤頭里","LIN":"11鄰","STREET":"關新路","SECT":"二段","MAREA":" ","LANE":"５１巷","ALLEY":"６８弄","HOUSE_NO":"１３號","E_COORD97":178891.95000000001,"N_COORD97":2544214.5800000001,"ADDRESS":"關新路二段５１巷６８弄１３號","OBJECTID":128356},"geometry":{"x":178891.95000000205,"y":2544214.5800000019}},{"attributes":{"ID":128357,"DIS_CODE":0,"TOWNNAME":"關廟區","LI":"埤頭里","LIN":"11鄰","STREET":"關新路","SECT":"二段","MAREA":" ","LANE":"５１巷","ALLEY":"６８弄","HOUSE_NO":"１７號","E_COORD97":178893.14999999999,"N_COORD97":2544222.5800000001,"ADDRESS":"關新路二段５１巷６８弄１７號","OBJECTID":128357},"geometry":{"x":178893.1500000013,"y":2544222.5800000001}},{"attributes":{"ID":128358,"DIS_CODE":0,"TOWNNAME":"仁德區","LI":"後壁里","LIN":"6鄰","STREET":"德善二街","SECT":" ","MAREA":" ","LANE":" ","ALLEY":" ","HOUSE_NO":"２號","E_COORD97":173505.79999999999,"N_COORD97":2538864.52,"ADDRESS":"德善二街２號","OBJECTID":128358},"geometry":{"x":173505.80000000075,"y":2538864.5200000014}},{"attributes":{"ID":128359,"DIS_CODE":0,"TOWNNAME":"白河區","LI":"廣安里","LIN":"1鄰","STREET":" ","SECT":" ","MAREA":"埤斗子","LANE":" ","ALLEY":" ","HOUSE_NO":"８之５號","E_COORD97":189506.07000000001,"N_COORD97":2587193.2599999998,"ADDRESS":"埤斗子８之５號","OBJECTID":128359},"geometry":{"x":189506.0700000003,"y":2587193.2600000016}},{"attributes":{"ID":128360,"DIS_CODE":0,"TOWNNAME":"白河區","LI":"廣安里","LIN":"1鄰","STREET":" ","SECT":" ","MAREA":"埤斗子","LANE":" ","ALLEY":" ","HOUSE_NO":"８之８號","E_COORD97":189456.64000000001,"N_COORD97":2587193.1699999999,"ADDRESS":"埤斗子８之８號","OBJECTID":128360},"geometry":{"x":189456.6400000006,"y":2587193.1700000018}},{"attributes":{"ID":128361,"DIS_CODE":0,"TOWNNAME":"白河區","LI":"秀祐里","LIN":"4鄰","STREET":" ","SECT":" ","MAREA":"頂秀祐","LANE":" ","ALLEY":" ","HOUSE_NO":"６０之２０號","E_COORD97":188789.17999999999,"N_COORD97":2583408.8199999998,"ADDRESS":"頂秀祐６０之２０號","OBJECTID":128361},"geometry":{"x":188789.1799999997,"y":2583408.8200000022}},{"attributes":{"ID":128362,"DIS_CODE":0,"TOWNNAME":"關廟區","LI":"埤頭里","LIN":"11鄰","STREET":"關新路","SECT":"二段","MAREA":" ","LANE":"５１巷","ALLEY":"６８弄","HOUSE_NO":"２１號","E_COORD97":178893.39999999999,"N_COORD97":2544231.5800000001,"ADDRESS":"關新路二段５１巷６８弄２１號","OBJECTID":128362},"geometry":{"x":178893.40000000037,"y":2544231.5800000019}},{"attributes":{"ID":128363,"DIS_CODE":0,"TOWNNAME":"關廟區","LI":"關廟里","LIN":"11鄰","STREET":"大富街","SECT":" ","MAREA":" ","LANE":"３０１巷","ALLEY":"７弄","HOUSE_NO":"３５號","E_COORD97":181026.48999999999,"N_COORD97":2539643.1499999999,"ADDRESS":"大富街３０１巷７弄３５號","OBJECTID":128363},"geometry":{"x":181026.49000000115,"y":2539643.1500000041}},{"attributes":{"ID":128364,"DIS_CODE":0,"TOWNNAME":"關廟區","LI":"關廟里","LIN":"11鄰","STREET":"大富街","SECT":" ","MAREA":" ","LANE":"３０１巷","ALLEY":"７弄","HOUSE_NO":"１號","E_COORD97":181019.17000000001,"N_COORD97":2539712.25,"ADDRESS":"大富街３０１巷７弄１號","OBJECTID":128364},"geometry":{"x":181019.17000000179,"y":2539712.25}},{"attributes":{"ID":128365,"DIS_CODE":0,"TOWNNAME":"南區","LI":"田寮里","LIN":"17鄰","STREET":"西門路","SECT":"一段","MAREA":" ","LANE":" ","ALLEY":" ","HOUSE_NO":"３０１號","E_COORD97":167717.42999999999,"N_COORD97":2541967.5699999998,"ADDRESS":"西門路一段３０１號","OBJECTID":128365},"geometry":{"x":167717.43000000063,"y":2541967.5700000022}},{"attributes":{"ID":128366,"DIS_CODE":0,"TOWNNAME":"關廟區","LI":"關廟里","LIN":"11鄰","STREET":"大富街","SECT":" ","MAREA":" ","LANE":"３０１巷","ALLEY":"７弄","HOUSE_NO":"５６號","E_COORD97":181020.69,"N_COORD97":2539595.1499999999,"ADDRESS":"大富街３０１巷７弄５６號","OBJECTID":128366},"geometry":{"x":181020.69000000041,"y":2539595.1500000004}},{"attributes":{"ID":128367,"DIS_CODE":0,"TOWNNAME":"永康區","LI":"王行里","LIN":"6鄰","STREET":"育樂街","SECT":" ","MAREA":" ","LANE":" ","ALLEY":" ","HOUSE_NO":"１６２號","E_COORD97":175130.78,"N_COORD97":2548374.8399999999,"ADDRESS":"育樂街１６２號","OBJECTID":128367},"geometry":{"x":175130.78000000026,"y":2548374.839999998}},{"attributes":{"ID":128368,"DIS_CODE":0,"TOWNNAME":"關廟區","LI":"關廟里","LIN":"11鄰","STREET":"大富街","SECT":" ","MAREA":" ","LANE":"３０１巷","ALLEY":"７弄","HOUSE_NO":"５０號","E_COORD97":181019.98999999999,"N_COORD97":2539603.1499999999,"ADDRESS":"大富街３０１巷７弄５０號","OBJECTID":128368},"geometry":{"x":181019.99000000022,"y":2539603.1500000022}},{"attributes":{"ID":128369,"DIS_CODE":0,"TOWNNAME":"永康區","LI":"二王里","LIN":"6鄰","STREET":"永二街","SECT":" ","MAREA":" ","LANE":" ","ALLEY":" ","HOUSE_NO":"３７４號","E_COORD97":172877.95000000001,"N_COORD97":2546662.54,"ADDRESS":"永二街３７４號","OBJECTID":128369},"geometry":{"x":172877.95000000112,"y":2546662.5399999991}},{"attributes":{"ID":128370,"DIS_CODE":0,"TOWNNAME":"永康區","LI":"三合里","LIN":"6鄰","STREET":"南工街","SECT":" ","MAREA":" ","LANE":" ","ALLEY":" ","HOUSE_NO":"１３４號","E_COORD97":172105,"N_COORD97":2545799,"ADDRESS":"南工街１３４號","OBJECTID":128370},"geometry":{"x":172105,"y":2545799.0000000019}},{"attributes":{"ID":128371,"DIS_CODE":0,"TOWNNAME":"永康區","LI":"三合里","LIN":"6鄰","STREET":"南工街","SECT":" ","MAREA":" ","LANE":" ","ALLEY":" ","HOUSE_NO":"１４０號","E_COORD97":172104.48999999999,"N_COORD97":2545810.75,"ADDRESS":"南工街１４０號","OBJECTID":128371},"geometry":{"x":172104.49000000115,"y":2545810.7500000019}},{"attributes":{"ID":128372,"DIS_CODE":0,"TOWNNAME":"永康區","LI":"大橋里","LIN":"6鄰","STREET":"大橋五街","SECT":" ","MAREA":" ","LANE":" ","ALLEY":" ","HOUSE_NO":"９８號","E_COORD97":170929.81,"N_COORD97":2546942.7999999998,"ADDRESS":"大橋五街９８號","OBJECTID":128372},"geometry":{"x":170929.81000000145,"y":2546942.8000000026}},{"attributes":{"ID":128373,"DIS_CODE":0,"TOWNNAME":"關廟區","LI":"關廟里","LIN":"11鄰","STREET":"大富街","SECT":" ","MAREA":" ","LANE":"３０１巷","ALLEY":"７弄","HOUSE_NO":"３８號","E_COORD97":181017.98999999999,"N_COORD97":2539623.1499999999,"ADDRESS":"大富街３０１巷７弄３８號","OBJECTID":128373},"geometry":{"x":181017.99000000115,"y":2539623.1500000041}},{"attributes":{"ID":128374,"DIS_CODE":0,"TOWNNAME":"關廟區","LI":"關廟里","LIN":"11鄰","STREET":"大富街","SECT":" ","MAREA":" ","LANE":"３０１巷","ALLEY":"７弄","HOUSE_NO":"１２號","E_COORD97":181012.29000000001,"N_COORD97":2539669.1499999999,"ADDRESS":"大富街３０１巷７弄１２號","OBJECTID":128374},"geometry":{"x":181012.29000000097,"y":2539669.1500000004}},{"attributes":{"ID":128375,"DIS_CODE":0,"TOWNNAME":"關廟區","LI":"關廟里","LIN":"11鄰","STREET":"大富街","SECT":" ","MAREA":" ","LANE":"３０１巷","ALLEY":"７弄","HOUSE_NO":"７號","E_COORD97":181015.23999999999,"N_COORD97":2539699.1499999999,"ADDRESS":"大富街３０１巷７弄７號","OBJECTID":128375},"geometry":{"x":181015.24000000022,"y":2539699.1500000022}},{"attributes":{"ID":128376,"DIS_CODE":0,"TOWNNAME":"永康區","LI":"王行里","LIN":"6鄰","STREET":"育樂街","SECT":" ","MAREA":" ","LANE":" ","ALLEY":" ","HOUSE_NO":"１９９號之１","E_COORD97":175197,"N_COORD97":2548332.29,"ADDRESS":"育樂街１９９號之１","OBJECTID":128376},"geometry":{"x":175197,"y":2548332.2899999991}},{"attributes":{"ID":128377,"DIS_CODE":0,"TOWNNAME":"永康區","LI":"王行里","LIN":"6鄰","STREET":"育樂街","SECT":" ","MAREA":" ","LANE":" ","ALLEY":" ","HOUSE_NO":"１６８號","E_COORD97":175104.5,"N_COORD97":2548364.25,"ADDRESS":"育樂街１６８號","OBJECTID":128377},"geometry":{"x":175104.50000000093,"y":2548364.25}},{"attributes":{"ID":128378,"DIS_CODE":0,"TOWNNAME":"永康區","LI":"大灣里","LIN":"6鄰","STREET":"大同街","SECT":" ","MAREA":" ","LANE":" ","ALLEY":" ","HOUSE_NO":"１５１號","E_COORD97":174856.06,"N_COORD97":2545588.8500000001,"ADDRESS":"大同街１５１號","OBJECTID":128378},"geometry":{"x":174856.06000000052,"y":2545588.8500000015}},{"attributes":{"ID":128379,"DIS_CODE":0,"TOWNNAME":"北區","LI":"裕民里","LIN":"11鄰","STREET":"成功路","SECT":" ","MAREA":" ","LANE":"６１４巷","ALLEY":"１３弄","HOUSE_NO":"１３號","E_COORD97":167437.89000000001,"N_COORD97":2544885.7999999998,"ADDRESS":"成功路６１４巷１３弄１３號","OBJECTID":128379},"geometry":{"x":167437.8900000006,"y":2544885.8000000026}},{"attributes":{"ID":128380,"DIS_CODE":0,"TOWNNAME":"北區","LI":"裕民里","LIN":"11鄰","STREET":"成功路","SECT":" ","MAREA":" ","LANE":"６１４巷","ALLEY":"１３弄","HOUSE_NO":"１４號","E_COORD97":167476.41,"N_COORD97":2544892.52,"ADDRESS":"成功路６１４巷１３弄１４號","OBJECTID":128380},"geometry":{"x":167476.41000000015,"y":2544892.5200000014}},{"attributes":{"ID":128381,"DIS_CODE":0,"TOWNNAME":"永康區","LI":"大橋里","LIN":"6鄰","STREET":"大橋五街","SECT":" ","MAREA":" ","LANE":" ","ALLEY":" ","HOUSE_NO":"４８號","E_COORD97":170851.91,"N_COORD97":2546886.0800000001,"ADDRESS":"大橋五街４８號","OBJECTID":128381},"geometry":{"x":170851.91000000201,"y":2546886.0800000019}},{"attributes":{"ID":128382,"DIS_CODE":0,"TOWNNAME":"北區","LI":"裕民里","LIN":"11鄰","STREET":"成功路","SECT":" ","MAREA":" ","LANE":"６１４巷","ALLEY":"１３弄","HOUSE_NO":"１５號","E_COORD97":167434.56,"N_COORD97":2544888.5299999998,"ADDRESS":"成功路６１４巷１３弄１５號","OBJECTID":128382},"geometry":{"x":167434.56000000052,"y":2544888.5300000012}},{"attributes":{"ID":128383,"DIS_CODE":0,"TOWNNAME":"永康區","LI":"崑山里","LIN":"6鄰","STREET":"永大路","SECT":"一段","MAREA":" ","LANE":" ","ALLEY":" ","HOUSE_NO":"１９號","E_COORD97":173809.85000000001,"N_COORD97":2543891.3599999999,"ADDRESS":"永大路一段１９號","OBJECTID":128383},"geometry":{"x":173809.85000000149,"y":2543891.3599999994}},{"attributes":{"ID":128384,"DIS_CODE":0,"TOWNNAME":"北區","LI":"裕民里","LIN":"11鄰","STREET":"成功路","SECT":" ","MAREA":" ","LANE":"６１４巷","ALLEY":"１３弄","HOUSE_NO":"１６號","E_COORD97":167472.01000000001,"N_COORD97":2544893.1200000001,"ADDRESS":"成功路６１４巷１３弄１６號","OBJECTID":128384},"geometry":{"x":167472.00999999978,"y":2544893.1200000029}},{"attributes":{"ID":128385,"DIS_CODE":0,"TOWNNAME":"永康區","LI":"復華里","LIN":"32鄰","STREET":"復國一路","SECT":" ","MAREA":" ","LANE":" ","ALLEY":" ","HOUSE_NO":"５３４號","E_COORD97":172544.20000000001,"N_COORD97":2546244.7799999998,"ADDRESS":"復國一路５３４號","OBJECTID":128385},"geometry":{"x":172544.20000000112,"y":2546244.7799999993}},{"attributes":{"ID":128386,"DIS_CODE":0,"TOWNNAME":"白河區","LI":"秀祐里","LIN":"4鄰","STREET":" ","SECT":" ","MAREA":"頂秀祐","LANE":" ","ALLEY":" ","HOUSE_NO":"６０之２１號","E_COORD97":188789.39000000001,"N_COORD97":2583413.5099999998,"ADDRESS":"頂秀祐６０之２１號","OBJECTID":128386},"geometry":{"x":188789.38999999966,"y":2583413.5100000035}},{"attributes":{"ID":128387,"DIS_CODE":0,"TOWNNAME":"白河區","LI":"秀祐里","LIN":"4鄰","STREET":" ","SECT":" ","MAREA":"頂秀祐","LANE":" ","ALLEY":" ","HOUSE_NO":"６０之２２號","E_COORD97":188790.51000000001,"N_COORD97":2583429.27,"ADDRESS":"頂秀祐６０之２２號","OBJECTID":128387},"geometry":{"x":188790.50999999978,"y":2583429.2700000014}},{"attributes":{"ID":128388,"DIS_CODE":0,"TOWNNAME":"白河區","LI":"秀祐里","LIN":"4鄰","STREET":" ","SECT":" ","MAREA":"頂秀祐","LANE":" ","ALLEY":" ","HOUSE_NO":"６０之８號","E_COORD97":188788.37,"N_COORD97":2583341.8599999999,"ADDRESS":"頂秀祐６０之８號","OBJECTID":128388},"geometry":{"x":188788.37000000011,"y":2583341.8599999994}},{"attributes":{"ID":128389,"DIS_CODE":0,"TOWNNAME":"白河區","LI":"秀祐里","LIN":"4鄰","STREET":" ","SECT":" ","MAREA":"頂秀祐","LANE":" ","ALLEY":" ","HOUSE_NO":"６０之９號","E_COORD97":188776.10999999999,"N_COORD97":2583345.04,"ADDRESS":"頂秀祐６０之９號","OBJECTID":128389},"geometry":{"x":188776.11000000127,"y":2583345.040000001}},{"attributes":{"ID":128390,"DIS_CODE":0,"TOWNNAME":"白河區","LI":"秀祐里","LIN":"4鄰","STREET":" ","SECT":" ","MAREA":"頂秀祐","LANE":" ","ALLEY":" ","HOUSE_NO":"６０號","E_COORD97":188813.64999999999,"N_COORD97":2583332.46,"ADDRESS":"頂秀祐６０號","OBJECTID":128390},"geometry":{"x":188813.65000000037,"y":2583332.4600000009}},{"attributes":{"ID":128391,"DIS_CODE":0,"TOWNNAME":"白河區","LI":"秀祐里","LIN":"4鄰","STREET":" ","SECT":" ","MAREA":"頂秀祐","LANE":" ","ALLEY":" ","HOUSE_NO":"６１之１號","E_COORD97":188801.57000000001,"N_COORD97":2583320.0699999998,"ADDRESS":"頂秀祐６１之１號","OBJECTID":128391},"geometry":{"x":188801.57000000123,"y":2583320.0700000022}},{"attributes":{"ID":128392,"DIS_CODE":0,"TOWNNAME":"白河區","LI":"秀祐里","LIN":"4鄰","STREET":" ","SECT":" ","MAREA":"頂秀祐","LANE":" ","ALLEY":" ","HOUSE_NO":"６１號","E_COORD97":188801.64999999999,"N_COORD97":2583295.02,"ADDRESS":"頂秀祐６１號","OBJECTID":128392},"geometry":{"x":188801.65000000037,"y":2583295.0200000014}},{"attributes":{"ID":128393,"DIS_CODE":0,"TOWNNAME":"白河區","LI":"秀祐里","LIN":"4鄰","STREET":" ","SECT":" ","MAREA":"頂秀祐","LANE":" ","ALLEY":" ","HOUSE_NO":"６２號","E_COORD97":188850,"N_COORD97":2583287.23,"ADDRESS":"頂秀祐６２號","OBJECTID":128393},"geometry":{"x":188850,"y":2583287.2300000042}},{"attributes":{"ID":128394,"DIS_CODE":0,"TOWNNAME":"白河區","LI":"秀祐里","LIN":"4鄰","STREET":" ","SECT":" ","MAREA":"頂秀祐","LANE":" ","ALLEY":" ","HOUSE_NO":"６４號","E_COORD97":188820.82000000001,"N_COORD97":2583266.77,"ADDRESS":"頂秀祐６４號","OBJECTID":128394},"geometry":{"x":188820.8200000003,"y":2583266.7700000014}},{"attributes":{"ID":128395,"DIS_CODE":0,"TOWNNAME":"北區","LI":"裕民里","LIN":"11鄰","STREET":"成功路","SECT":" ","MAREA":" ","LANE":"６１４巷","ALLEY":"１３弄","HOUSE_NO":"１７號","E_COORD97":167432.41,"N_COORD97":2544891.6299999999,"ADDRESS":"成功路６１４巷１３弄１７號","OBJECTID":128395},"geometry":{"x":167432.41000000015,"y":2544891.6300000008}},{"attributes":{"ID":128396,"DIS_CODE":0,"TOWNNAME":"北區","LI":"裕民里","LIN":"11鄰","STREET":"成功路","SECT":" ","MAREA":" ","LANE":"６１４巷","ALLEY":"１３弄","HOUSE_NO":"１８號","E_COORD97":167467.82999999999,"N_COORD97":2544891.6899999999,"ADDRESS":"成功路６１４巷１３弄１８號","OBJECTID":128396},"geometry":{"x":167467.83000000007,"y":2544891.6900000013}},{"attributes":{"ID":128397,"DIS_CODE":0,"TOWNNAME":"北區","LI":"裕民里","LIN":"11鄰","STREET":"成功路","SECT":" ","MAREA":" ","LANE":"６１４巷","ALLEY":"１３弄","HOUSE_NO":"１號","E_COORD97":167456.98999999999,"N_COORD97":2544860.9199999999,"ADDRESS":"成功路６１４巷１３弄１號","OBJECTID":128397},"geometry":{"x":167456.99000000022,"y":2544860.9199999999}},{"attributes":{"ID":128398,"DIS_CODE":0,"TOWNNAME":"北區","LI":"裕民里","LIN":"11鄰","STREET":"成功路","SECT":" ","MAREA":" ","LANE":"６１４巷","ALLEY":"１３弄","HOUSE_NO":"２２號","E_COORD97":167462.20000000001,"N_COORD97":2544883.9399999999,"ADDRESS":"成功路６１４巷１３弄２２號","OBJECTID":128398},"geometry":{"x":167462.20000000019,"y":2544883.9399999995}},{"attributes":{"ID":128399,"DIS_CODE":0,"TOWNNAME":"白河區","LI":"秀祐里","LIN":"4鄰","STREET":" ","SECT":" ","MAREA":"頂秀祐","LANE":" ","ALLEY":" ","HOUSE_NO":"６５號","E_COORD97":188858.73000000001,"N_COORD97":2583244.5899999999,"ADDRESS":"頂秀祐６５號","OBJECTID":128399},"geometry":{"x":188858.73000000138,"y":2583244.5900000017}},{"attributes":{"ID":128400,"DIS_CODE":0,"TOWNNAME":"白河區","LI":"秀祐里","LIN":"4鄰","STREET":" ","SECT":" ","MAREA":"頂秀祐","LANE":" ","ALLEY":" ","HOUSE_NO":"６６之１號","E_COORD97":188904.20999999999,"N_COORD97":2583187.5800000001,"ADDRESS":"頂秀祐６６之１號","OBJECTID":128400},"geometry":{"x":188904.20999999996,"y":2583187.5800000019}}]}