{"displayFieldName":"TOWNNAME","fieldAliases":{"ID":"ID","DIS_CODE":"DIS_CODE","TOWNNAME":"TOWNNAME","LI":"LI","LIN":"LIN","STREET":"STREET","SECT":"SECT","MAREA":"MAREA","LANE":"LANE","ALLEY":"ALLEY","HOUSE_NO":"HOUSE_NO","E_COORD97":"E_COORD97","N_COORD97":"N_COORD97","ADDRESS":"ADDRESS","OBJECTID":"OBJECTID"},"geometryType":"esriGeometryPoint","spatialReference":{"wkid":102443,"latestWkid":3826},"fields":[{"name":"ID","type":"esriFieldTypeDouble","alias":"ID"},{"name":"DIS_CODE","type":"esriFieldTypeInteger","alias":"DIS_CODE"},{"name":"TOWNNAME","type":"esriFieldTypeString","alias":"TOWNNAME","length":8},{"name":"LI","type":"esriFieldTypeString","alias":"LI","length":8},{"name":"LIN","type":"esriFieldTypeString","alias":"LIN","length":12},{"name":"STREET","type":"esriFieldTypeString","alias":"STREET","length":20},{"name":"SECT","type":"esriFieldTypeString","alias":"SECT","length":8},{"name":"MAREA","type":"esriFieldTypeString","alias":"MAREA","length":12},{"name":"LANE","type":"esriFieldTypeString","alias":"LANE","length":10},{"name":"ALLEY","type":"esriFieldTypeString","alias":"ALLEY","length":10},{"name":"HOUSE_NO","type":"esriFieldTypeString","alias":"HOUSE_NO","length":20},{"name":"E_COORD97","type":"esriFieldTypeDouble","alias":"E_COORD97"},{"name":"N_COORD97","type":"esriFieldTypeDouble","alias":"N_COORD97"},{"name":"ADDRESS","type":"esriFieldTypeString","alias":"ADDRESS","length":50},{"name":"OBJECTID","type":"esriFieldTypeOID","alias":"OBJECTID"}],"features":[{"attributes":{"ID":492428,"DIS_CODE":0,"TOWNNAME":"北區","LI":"成德里","LIN":"20鄰","STREET":"育德二路","SECT":" ","MAREA":" ","LANE":"３４２巷","ALLEY":" ","HOUSE_NO":"２號","E_COORD97":168349.89999999999,"N_COORD97":2546131.0899999999,"ADDRESS":"育德二路３４２巷２號","OBJECTID":492401},"geometry":{"x":168349.89999999944,"y":2546131.0899999999}},{"attributes":{"ID":492429,"DIS_CODE":0,"TOWNNAME":"北區","LI":"成德里","LIN":"20鄰","STREET":"育德二路","SECT":" ","MAREA":" ","LANE":"３４２巷","ALLEY":" ","HOUSE_NO":"１５號","E_COORD97":168379.73999999999,"N_COORD97":2546139.5,"ADDRESS":"育德二路３４２巷１５號","OBJECTID":492402},"geometry":{"x":168379.74000000209,"y":2546139.5}},{"attributes":{"ID":492430,"DIS_CODE":0,"TOWNNAME":"北區","LI":"成德里","LIN":"20鄰","STREET":"育德二路","SECT":" ","MAREA":" ","LANE":"３４２巷","ALLEY":" ","HOUSE_NO":"１６號","E_COORD97":168379.42999999999,"N_COORD97":2546130.1400000001,"ADDRESS":"育德二路３４２巷１６號","OBJECTID":492403},"geometry":{"x":168379.4299999997,"y":2546130.1400000025}},{"attributes":{"ID":492431,"DIS_CODE":0,"TOWNNAME":"北區","LI":"成德里","LIN":"20鄰","STREET":"育德二路","SECT":" ","MAREA":" ","LANE":"３４２巷","ALLEY":" ","HOUSE_NO":"８號","E_COORD97":168361.95999999999,"N_COORD97":2546130.77,"ADDRESS":"育德二路３４２巷８號","OBJECTID":492404},"geometry":{"x":168361.95999999996,"y":2546130.7700000033}},{"attributes":{"ID":492432,"DIS_CODE":0,"TOWNNAME":"北區","LI":"成德里","LIN":"20鄰","STREET":"育德二路","SECT":" ","MAREA":" ","LANE":"３４２巷","ALLEY":" ","HOUSE_NO":"１０號","E_COORD97":168368,"N_COORD97":2546130.6099999999,"ADDRESS":"育德二路３４２巷１０號","OBJECTID":492405},"geometry":{"x":168368.00000000093,"y":2546130.6099999994}},{"attributes":{"ID":492433,"DIS_CODE":0,"TOWNNAME":"北區","LI":"成德里","LIN":"20鄰","STREET":"育德二路","SECT":" ","MAREA":" ","LANE":"３４２巷","ALLEY":" ","HOUSE_NO":"６號","E_COORD97":168356.25,"N_COORD97":2546130.77,"ADDRESS":"育德二路３４２巷６號","OBJECTID":492406},"geometry":{"x":168356.25000000093,"y":2546130.7700000033}},{"attributes":{"ID":492434,"DIS_CODE":0,"TOWNNAME":"北區","LI":"成德里","LIN":"20鄰","STREET":"育德二路","SECT":" ","MAREA":" ","LANE":"３４２巷","ALLEY":" ","HOUSE_NO":"１２號","E_COORD97":168373.70999999999,"N_COORD97":2546130.1400000001,"ADDRESS":"育德二路３４２巷１２號","OBJECTID":492407},"geometry":{"x":168373.71000000089,"y":2546130.1400000025}},{"attributes":{"ID":492435,"DIS_CODE":0,"TOWNNAME":"北區","LI":"成德里","LIN":"20鄰","STREET":"育德二路","SECT":" ","MAREA":" ","LANE":"３４２巷","ALLEY":" ","HOUSE_NO":"７號","E_COORD97":168361.01000000001,"N_COORD97":2546139.6600000001,"ADDRESS":"育德二路３４２巷７號","OBJECTID":492408},"geometry":{"x":168361.01000000071,"y":2546139.660000002}},{"attributes":{"ID":492436,"DIS_CODE":0,"TOWNNAME":"北區","LI":"成德里","LIN":"20鄰","STREET":"育德二路","SECT":" ","MAREA":" ","LANE":"３４２巷","ALLEY":" ","HOUSE_NO":"９號","E_COORD97":168365.76999999999,"N_COORD97":2546139.6600000001,"ADDRESS":"育德二路３４２巷９號","OBJECTID":492409},"geometry":{"x":168365.77000000048,"y":2546139.660000002}},{"attributes":{"ID":492437,"DIS_CODE":0,"TOWNNAME":"北區","LI":"成德里","LIN":"20鄰","STREET":"育德二路","SECT":" ","MAREA":" ","LANE":"３４２巷","ALLEY":" ","HOUSE_NO":"３號","E_COORD97":168351.32999999999,"N_COORD97":2546139.98,"ADDRESS":"育德二路３４２巷３號","OBJECTID":492410},"geometry":{"x":168351.33000000007,"y":2546139.9800000004}},{"attributes":{"ID":492438,"DIS_CODE":0,"TOWNNAME":"六甲區","LI":"甲東里","LIN":"20鄰","STREET":"裕農街","SECT":" ","MAREA":" ","LANE":"４９巷","ALLEY":" ","HOUSE_NO":"２４號","E_COORD97":184114.20999999999,"N_COORD97":2569841.6099999999,"ADDRESS":"裕農街４９巷２４號","OBJECTID":492411},"geometry":{"x":184114.20999999996,"y":2569841.6100000013}},{"attributes":{"ID":492439,"DIS_CODE":0,"TOWNNAME":"六甲區","LI":"甲東里","LIN":"20鄰","STREET":"裕農街","SECT":" ","MAREA":" ","LANE":"４９巷","ALLEY":" ","HOUSE_NO":"２６號","E_COORD97":184113.62,"N_COORD97":2569845.2799999998,"ADDRESS":"裕農街４９巷２６號","OBJECTID":492412},"geometry":{"x":184113.62000000197,"y":2569845.2799999993}},{"attributes":{"ID":492440,"DIS_CODE":0,"TOWNNAME":"六甲區","LI":"甲東里","LIN":"20鄰","STREET":"裕農街","SECT":" ","MAREA":" ","LANE":"４９巷","ALLEY":" ","HOUSE_NO":"２８號","E_COORD97":184112.75,"N_COORD97":2569849.6800000002,"ADDRESS":"裕農街４９巷２８號","OBJECTID":492413},"geometry":{"x":184112.75000000093,"y":2569849.6799999997}},{"attributes":{"ID":492441,"DIS_CODE":0,"TOWNNAME":"六甲區","LI":"甲東里","LIN":"20鄰","STREET":"裕農街","SECT":" ","MAREA":" ","LANE":"６９巷","ALLEY":" ","HOUSE_NO":"５３號","E_COORD97":184192.29999999999,"N_COORD97":2569848.9500000002,"ADDRESS":"裕農街６９巷５３號","OBJECTID":492414},"geometry":{"x":184192.30000000075,"y":2569848.9500000011}},{"attributes":{"ID":492442,"DIS_CODE":0,"TOWNNAME":"六甲區","LI":"甲東里","LIN":"20鄰","STREET":"裕農街","SECT":" ","MAREA":" ","LANE":"８９巷","ALLEY":" ","HOUSE_NO":"１３號","E_COORD97":184191.14999999999,"N_COORD97":2569839.5499999998,"ADDRESS":"裕農街８９巷１３號","OBJECTID":492415},"geometry":{"x":184191.15000000037,"y":2569839.5500000026}},{"attributes":{"ID":492443,"DIS_CODE":0,"TOWNNAME":"關廟區","LI":"北花里","LIN":"20鄰","STREET":"中正路","SECT":" ","MAREA":" ","LANE":"１１３巷","ALLEY":" ","HOUSE_NO":"３１號","E_COORD97":183608.76000000001,"N_COORD97":2540830.6200000001,"ADDRESS":"中正路１１３巷３１號","OBJECTID":492416},"geometry":{"x":183608.76000000164,"y":2540830.6199999992}},{"attributes":{"ID":492444,"DIS_CODE":0,"TOWNNAME":"關廟區","LI":"北花里","LIN":"20鄰","STREET":"中正路","SECT":" ","MAREA":" ","LANE":"１１３巷","ALLEY":" ","HOUSE_NO":"２１號","E_COORD97":183606.56,"N_COORD97":2540853.6200000001,"ADDRESS":"中正路１１３巷２１號","OBJECTID":492417},"geometry":{"x":183606.56000000145,"y":2540853.620000001}},{"attributes":{"ID":492445,"DIS_CODE":0,"TOWNNAME":"關廟區","LI":"北花里","LIN":"20鄰","STREET":"中正路","SECT":" ","MAREA":" ","LANE":"１１３巷","ALLEY":" ","HOUSE_NO":"３７號","E_COORD97":183609.95999999999,"N_COORD97":2540819.6200000001,"ADDRESS":"中正路１１３巷３７號","OBJECTID":492418},"geometry":{"x":183609.96000000089,"y":2540819.620000001}},{"attributes":{"ID":492446,"DIS_CODE":0,"TOWNNAME":"關廟區","LI":"北花里","LIN":"20鄰","STREET":"中正路","SECT":" ","MAREA":" ","LANE":"１１３巷","ALLEY":" ","HOUSE_NO":"１０號","E_COORD97":183588.06,"N_COORD97":2540887.6200000001,"ADDRESS":"中正路１１３巷１０號","OBJECTID":492419},"geometry":{"x":183588.06000000052,"y":2540887.620000001}},{"attributes":{"ID":492447,"DIS_CODE":0,"TOWNNAME":"關廟區","LI":"北花里","LIN":"20鄰","STREET":"中正路","SECT":" ","MAREA":" ","LANE":"１１３巷","ALLEY":" ","HOUSE_NO":"２６號","E_COORD97":183590.76000000001,"N_COORD97":2540861.6200000001,"ADDRESS":"中正路１１３巷２６號","OBJECTID":492420},"geometry":{"x":183590.76000000071,"y":2540861.6200000029}},{"attributes":{"ID":492448,"DIS_CODE":0,"TOWNNAME":"關廟區","LI":"山西里","LIN":"20鄰","STREET":"崇平路","SECT":" ","MAREA":" ","LANE":"１０７巷","ALLEY":" ","HOUSE_NO":"６２號","E_COORD97":180731.12,"N_COORD97":2540299.46,"ADDRESS":"崇平路１０７巷６２號","OBJECTID":492421},"geometry":{"x":180731.12000000011,"y":2540299.4600000046}},{"attributes":{"ID":492449,"DIS_CODE":0,"TOWNNAME":"新營區","LI":"民生里","LIN":"20鄰","STREET":"進修街","SECT":" ","MAREA":" ","LANE":"２９巷","ALLEY":" ","HOUSE_NO":"３６號","E_COORD97":178898.94,"N_COORD97":2578490.4700000002,"ADDRESS":"進修街２９巷３６號","OBJECTID":492422},"geometry":{"x":178898.94000000227,"y":2578490.4700000007}},{"attributes":{"ID":492450,"DIS_CODE":0,"TOWNNAME":"新營區","LI":"民生里","LIN":"20鄰","STREET":"進修街","SECT":" ","MAREA":" ","LANE":"２９巷","ALLEY":" ","HOUSE_NO":"４６號","E_COORD97":178884.60000000001,"N_COORD97":2578488.3199999998,"ADDRESS":"進修街２９巷４６號","OBJECTID":492423},"geometry":{"x":178884.59999999963,"y":2578488.3200000003}},{"attributes":{"ID":492451,"DIS_CODE":0,"TOWNNAME":"新營區","LI":"新北里","LIN":"20鄰","STREET":"民生路","SECT":" ","MAREA":" ","LANE":"３３６巷","ALLEY":" ","HOUSE_NO":"１４號","E_COORD97":178971.89000000001,"N_COORD97":2579216.6099999999,"ADDRESS":"民生路３３６巷１４號","OBJECTID":492424},"geometry":{"x":178971.8900000006,"y":2579216.6100000013}},{"attributes":{"ID":492452,"DIS_CODE":0,"TOWNNAME":"北區","LI":"成德里","LIN":"20鄰","STREET":"文成一路","SECT":" ","MAREA":" ","LANE":"１３０巷","ALLEY":" ","HOUSE_NO":"１４號","E_COORD97":168498.54000000001,"N_COORD97":2546086.52,"ADDRESS":"文成一路１３０巷１４號","OBJECTID":492425},"geometry":{"x":168498.54000000097,"y":2546086.5200000014}},{"attributes":{"ID":492453,"DIS_CODE":0,"TOWNNAME":"北區","LI":"成德里","LIN":"20鄰","STREET":"文成一路","SECT":" ","MAREA":" ","LANE":"１３０巷","ALLEY":" ","HOUSE_NO":"１５號","E_COORD97":168424.70999999999,"N_COORD97":2546106.7000000002,"ADDRESS":"文成一路１３０巷１５號","OBJECTID":492426},"geometry":{"x":168424.70999999996,"y":2546106.6999999993}},{"attributes":{"ID":492454,"DIS_CODE":0,"TOWNNAME":"北區","LI":"成德里","LIN":"20鄰","STREET":"文成一路","SECT":" ","MAREA":" ","LANE":"１３０巷","ALLEY":" ","HOUSE_NO":"１６號","E_COORD97":168503.63,"N_COORD97":2546086.52,"ADDRESS":"文成一路１３０巷１６號","OBJECTID":492427},"geometry":{"x":168503.62999999989,"y":2546086.5200000014}},{"attributes":{"ID":492455,"DIS_CODE":0,"TOWNNAME":"北區","LI":"成德里","LIN":"20鄰","STREET":"文成一路","SECT":" ","MAREA":" ","LANE":"１３０巷","ALLEY":" ","HOUSE_NO":"１７號","E_COORD97":168429.5,"N_COORD97":2546106.27,"ADDRESS":"文成一路１３０巷１７號","OBJECTID":492428},"geometry":{"x":168429.5,"y":2546106.2699999996}},{"attributes":{"ID":492456,"DIS_CODE":0,"TOWNNAME":"北區","LI":"成德里","LIN":"20鄰","STREET":"文成一路","SECT":" ","MAREA":" ","LANE":"１３０巷","ALLEY":" ","HOUSE_NO":"１８號","E_COORD97":168504.20999999999,"N_COORD97":2546103.0699999998,"ADDRESS":"文成一路１３０巷１８號","OBJECTID":492429},"geometry":{"x":168504.21000000089,"y":2546103.0700000022}},{"attributes":{"ID":492457,"DIS_CODE":0,"TOWNNAME":"北區","LI":"成德里","LIN":"20鄰","STREET":"文成一路","SECT":" ","MAREA":" ","LANE":"１３０巷","ALLEY":" ","HOUSE_NO":"１９號","E_COORD97":168434.29999999999,"N_COORD97":2546105.6899999999,"ADDRESS":"文成一路１３０巷１９號","OBJECTID":492430},"geometry":{"x":168434.29999999981,"y":2546105.6900000013}},{"attributes":{"ID":492458,"DIS_CODE":0,"TOWNNAME":"北區","LI":"成德里","LIN":"20鄰","STREET":"文成一路","SECT":" ","MAREA":" ","LANE":"１３０巷","ALLEY":" ","HOUSE_NO":"１號","E_COORD97":168454.79000000001,"N_COORD97":2546088.1200000001,"ADDRESS":"文成一路１３０巷１號","OBJECTID":492431},"geometry":{"x":168454.79000000004,"y":2546088.120000001}},{"attributes":{"ID":492459,"DIS_CODE":0,"TOWNNAME":"北區","LI":"成功里","LIN":"20鄰","STREET":"中華北路","SECT":"二段","MAREA":" ","LANE":"２６８巷","ALLEY":" ","HOUSE_NO":"３號","E_COORD97":168821.19,"N_COORD97":2546919.2200000002,"ADDRESS":"中華北路二段２６８巷３號","OBJECTID":492432},"geometry":{"x":168821.19000000134,"y":2546919.2200000025}},{"attributes":{"ID":492460,"DIS_CODE":0,"TOWNNAME":"北區","LI":"成功里","LIN":"20鄰","STREET":"中華北路","SECT":"二段","MAREA":" ","LANE":"２６８巷","ALLEY":" ","HOUSE_NO":"５號","E_COORD97":168822.45999999999,"N_COORD97":2546915.9199999999,"ADDRESS":"中華北路二段２６８巷５號","OBJECTID":492433},"geometry":{"x":168822.46000000089,"y":2546915.9199999999}},{"attributes":{"ID":492461,"DIS_CODE":0,"TOWNNAME":"北區","LI":"成功里","LIN":"20鄰","STREET":"中華北路","SECT":"二段","MAREA":" ","LANE":"２６８巷","ALLEY":" ","HOUSE_NO":"７號","E_COORD97":168823.22,"N_COORD97":2546911.6099999999,"ADDRESS":"中華北路二段２６８巷７號","OBJECTID":492434},"geometry":{"x":168823.21999999974,"y":2546911.6100000031}},{"attributes":{"ID":492462,"DIS_CODE":0,"TOWNNAME":"北區","LI":"成功里","LIN":"20鄰","STREET":"中華北路","SECT":"二段","MAREA":" ","LANE":"２６８巷","ALLEY":" ","HOUSE_NO":"９號","E_COORD97":168823.22,"N_COORD97":2546907.3100000001,"ADDRESS":"中華北路二段２６８巷９號","OBJECTID":492435},"geometry":{"x":168823.21999999974,"y":2546907.3100000005}},{"attributes":{"ID":492463,"DIS_CODE":0,"TOWNNAME":"東區","LI":"崇文里","LIN":"36鄰","STREET":"生產路","SECT":" ","MAREA":" ","LANE":"３８１巷","ALLEY":" ","HOUSE_NO":"１１號","E_COORD97":171193.45000000001,"N_COORD97":2540796,"ADDRESS":"生產路３８１巷１１號","OBJECTID":492436},"geometry":{"x":171193.45000000019,"y":2540796}},{"attributes":{"ID":492464,"DIS_CODE":0,"TOWNNAME":"東區","LI":"崇文里","LIN":"36鄰","STREET":"生產路","SECT":" ","MAREA":" ","LANE":"３８１巷","ALLEY":" ","HOUSE_NO":"１３號","E_COORD97":171192.16,"N_COORD97":2540799.8799999999,"ADDRESS":"生產路３８１巷１３號","OBJECTID":492437},"geometry":{"x":171192.16000000015,"y":2540799.8800000027}},{"attributes":{"ID":492465,"DIS_CODE":0,"TOWNNAME":"東區","LI":"崇文里","LIN":"36鄰","STREET":"生產路","SECT":" ","MAREA":" ","LANE":"３８１巷","ALLEY":" ","HOUSE_NO":"１號","E_COORD97":171202.45000000001,"N_COORD97":2540778.1000000001,"ADDRESS":"生產路３８１巷１號","OBJECTID":492438},"geometry":{"x":171202.45000000205,"y":2540778.0999999996}},{"attributes":{"ID":492466,"DIS_CODE":0,"TOWNNAME":"關廟區","LI":"新光里","LIN":"3鄰","STREET":"新湖街","SECT":" ","MAREA":" ","LANE":"２１８巷","ALLEY":" ","HOUSE_NO":"３６號","E_COORD97":183811.368927,"N_COORD97":2542644.9934200002,"ADDRESS":"新湖街２１８巷３６號","OBJECTID":492439},"geometry":{"x":183811.36892700009,"y":2542644.9934209976}},{"attributes":{"ID":492467,"DIS_CODE":0,"TOWNNAME":"安平區","LI":"平安里","LIN":"9鄰","STREET":"安平路","SECT":" ","MAREA":" ","LANE":"４２６巷","ALLEY":" ","HOUSE_NO":"２０號之３","E_COORD97":165359.19901899999,"N_COORD97":2544383.0450400002,"ADDRESS":"安平路４２６巷２０號之３","OBJECTID":492440},"geometry":{"x":165359.19901900087,"y":2544383.0450429972}},{"attributes":{"ID":492468,"DIS_CODE":0,"TOWNNAME":"南區","LI":"明興里","LIN":"20鄰","STREET":"金華路","SECT":"一段","MAREA":" ","LANE":"８４巷","ALLEY":" ","HOUSE_NO":"２６號","E_COORD97":166979.70000000001,"N_COORD97":2540430.0299999998,"ADDRESS":"金華路一段８４巷２６號","OBJECTID":492441},"geometry":{"x":166979.70000000205,"y":2540430.0300000012}},{"attributes":{"ID":492469,"DIS_CODE":0,"TOWNNAME":"南區","LI":"明興里","LIN":"20鄰","STREET":"金華路","SECT":"一段","MAREA":" ","LANE":"８４巷","ALLEY":" ","HOUSE_NO":"５號","E_COORD97":166937.16,"N_COORD97":2540435.0899999999,"ADDRESS":"金華路一段８４巷５號","OBJECTID":492442},"geometry":{"x":166937.16000000015,"y":2540435.0899999999}},{"attributes":{"ID":492470,"DIS_CODE":0,"TOWNNAME":"鹽水區","LI":"橋南里","LIN":"20鄰","STREET":"南太路","SECT":" ","MAREA":" ","LANE":"６９巷","ALLEY":" ","HOUSE_NO":"２１號","E_COORD97":175569.48000000001,"N_COORD97":2578775.2400000002,"ADDRESS":"南太路６９巷２１號","OBJECTID":492443},"geometry":{"x":175569.48000000138,"y":2578775.2400000021}},{"attributes":{"ID":492471,"DIS_CODE":0,"TOWNNAME":"鹽水區","LI":"橋南里","LIN":"20鄰","STREET":"南太路","SECT":" ","MAREA":" ","LANE":"６９巷","ALLEY":" ","HOUSE_NO":"１２號","E_COORD97":175553.91,"N_COORD97":2578756.52,"ADDRESS":"南太路６９巷１２號","OBJECTID":492444},"geometry":{"x":175553.91000000015,"y":2578756.5199999996}},{"attributes":{"ID":492472,"DIS_CODE":0,"TOWNNAME":"鹽水區","LI":"橋南里","LIN":"20鄰","STREET":"南太路","SECT":" ","MAREA":" ","LANE":"６９巷","ALLEY":" ","HOUSE_NO":"１３號","E_COORD97":175550.95999999999,"N_COORD97":2578774.8599999999,"ADDRESS":"南太路６９巷１３號","OBJECTID":492445},"geometry":{"x":175550.96000000089,"y":2578774.8599999994}},{"attributes":{"ID":492473,"DIS_CODE":0,"TOWNNAME":"鹽水區","LI":"橋南里","LIN":"20鄰","STREET":"南太路","SECT":" ","MAREA":" ","LANE":"６９巷","ALLEY":" ","HOUSE_NO":"１４號","E_COORD97":175558.13,"N_COORD97":2578756.6800000002,"ADDRESS":"南太路６９巷１４號","OBJECTID":492446},"geometry":{"x":175558.13000000082,"y":2578756.6799999997}},{"attributes":{"ID":492474,"DIS_CODE":0,"TOWNNAME":"鹽水區","LI":"橋南里","LIN":"20鄰","STREET":"南太路","SECT":" ","MAREA":" ","LANE":"６９巷","ALLEY":" ","HOUSE_NO":"１５號","E_COORD97":175555.59,"N_COORD97":2578774.9500000002,"ADDRESS":"南太路６９巷１５號","OBJECTID":492447},"geometry":{"x":175555.58999999985,"y":2578774.9499999974}},{"attributes":{"ID":492475,"DIS_CODE":0,"TOWNNAME":"鹽水區","LI":"橋南里","LIN":"20鄰","STREET":"南太路","SECT":" ","MAREA":" ","LANE":"６９巷","ALLEY":" ","HOUSE_NO":"１６號","E_COORD97":175562.31,"N_COORD97":2578756.8700000001,"ADDRESS":"南太路６９巷１６號","OBJECTID":492448},"geometry":{"x":175562.30999999959,"y":2578756.870000001}},{"attributes":{"ID":492476,"DIS_CODE":0,"TOWNNAME":"鹽水區","LI":"橋南里","LIN":"20鄰","STREET":"南太路","SECT":" ","MAREA":" ","LANE":"６９巷","ALLEY":" ","HOUSE_NO":"１７號","E_COORD97":175560.22,"N_COORD97":2578775.0499999998,"ADDRESS":"南太路６９巷１７號","OBJECTID":492449},"geometry":{"x":175560.2200000016,"y":2578775.0500000007}},{"attributes":{"ID":492477,"DIS_CODE":0,"TOWNNAME":"鹽水區","LI":"橋南里","LIN":"20鄰","STREET":"南太路","SECT":" ","MAREA":" ","LANE":"６９巷","ALLEY":" ","HOUSE_NO":"１８號","E_COORD97":175567.42999999999,"N_COORD97":2578757,"ADDRESS":"南太路６９巷１８號","OBJECTID":492450},"geometry":{"x":175567.43000000063,"y":2578757}},{"attributes":{"ID":492478,"DIS_CODE":0,"TOWNNAME":"鹽水區","LI":"橋南里","LIN":"20鄰","STREET":"南太路","SECT":" ","MAREA":" ","LANE":"６９巷","ALLEY":" ","HOUSE_NO":"１９號","E_COORD97":175564.85000000001,"N_COORD97":2578775.1400000001,"ADDRESS":"南太路６９巷１９號","OBJECTID":492451},"geometry":{"x":175564.85000000056,"y":2578775.1399999987}},{"attributes":{"ID":492479,"DIS_CODE":0,"TOWNNAME":"鹽水區","LI":"橋南里","LIN":"20鄰","STREET":"南太路","SECT":" ","MAREA":" ","LANE":"６９巷","ALLEY":" ","HOUSE_NO":"１號","E_COORD97":175519.91,"N_COORD97":2578773.7000000002,"ADDRESS":"南太路６９巷１號","OBJECTID":492452},"geometry":{"x":175519.91000000015,"y":2578773.700000003}},{"attributes":{"ID":492480,"DIS_CODE":0,"TOWNNAME":"鹽水區","LI":"橋南里","LIN":"20鄰","STREET":"南太路","SECT":" ","MAREA":" ","LANE":"６９巷","ALLEY":" ","HOUSE_NO":"２３號","E_COORD97":175573.82000000001,"N_COORD97":2578775.2599999998,"ADDRESS":"南太路６９巷２３號","OBJECTID":492453},"geometry":{"x":175573.82000000123,"y":2578775.2600000016}},{"attributes":{"ID":492481,"DIS_CODE":0,"TOWNNAME":"鹽水區","LI":"橋南里","LIN":"20鄰","STREET":"南太路","SECT":" ","MAREA":" ","LANE":"６９巷","ALLEY":" ","HOUSE_NO":"２５號","E_COORD97":175578.73999999999,"N_COORD97":2578775.4300000002,"ADDRESS":"南太路６９巷２５號","OBJECTID":492454},"geometry":{"x":175578.74000000022,"y":2578775.4299999997}},{"attributes":{"ID":492482,"DIS_CODE":0,"TOWNNAME":"鹽水區","LI":"橋南里","LIN":"20鄰","STREET":"南太路","SECT":" ","MAREA":" ","LANE":"６９巷","ALLEY":" ","HOUSE_NO":"２７號","E_COORD97":175583.37,"N_COORD97":2578775.52,"ADDRESS":"南太路６９巷２７號","OBJECTID":492455},"geometry":{"x":175583.37000000197,"y":2578775.5200000014}},{"attributes":{"ID":492483,"DIS_CODE":0,"TOWNNAME":"鹽水區","LI":"橋南里","LIN":"20鄰","STREET":"南太路","SECT":" ","MAREA":" ","LANE":"６９巷","ALLEY":" ","HOUSE_NO":"５號","E_COORD97":175537.32999999999,"N_COORD97":2578783.8900000001,"ADDRESS":"南太路６９巷５號","OBJECTID":492456},"geometry":{"x":175537.33000000007,"y":2578783.8900000043}},{"attributes":{"ID":492484,"DIS_CODE":0,"TOWNNAME":"鹽水區","LI":"橋南里","LIN":"20鄰","STREET":"南太路","SECT":" ","MAREA":" ","LANE":"６９巷","ALLEY":" ","HOUSE_NO":"６號","E_COORD97":175541.85000000001,"N_COORD97":2578755.8799999999,"ADDRESS":"南太路６９巷６號","OBJECTID":492457},"geometry":{"x":175541.84999999963,"y":2578755.8800000008}},{"attributes":{"ID":492485,"DIS_CODE":0,"TOWNNAME":"鹽水區","LI":"橋南里","LIN":"20鄰","STREET":"南太路","SECT":" ","MAREA":" ","LANE":"６９巷","ALLEY":" ","HOUSE_NO":"７號","E_COORD97":175537.28,"N_COORD97":2578779.3199999998,"ADDRESS":"南太路６９巷７號","OBJECTID":492458},"geometry":{"x":175537.28000000119,"y":2578779.3200000003}},{"attributes":{"ID":492486,"DIS_CODE":0,"TOWNNAME":"鹽水區","LI":"橋南里","LIN":"20鄰","STREET":"南太路","SECT":" ","MAREA":" ","LANE":"６９巷","ALLEY":" ","HOUSE_NO":"８號","E_COORD97":175546.34,"N_COORD97":2578756.1899999999,"ADDRESS":"南太路６９巷８號","OBJECTID":492459},"geometry":{"x":175546.34000000078,"y":2578756.1899999995}},{"attributes":{"ID":492487,"DIS_CODE":0,"TOWNNAME":"鹽水區","LI":"橋南里","LIN":"20鄰","STREET":"南太路","SECT":" ","MAREA":" ","LANE":"６９巷","ALLEY":" ","HOUSE_NO":"９號","E_COORD97":175537.23000000001,"N_COORD97":2578774.7599999998,"ADDRESS":"南太路６９巷９號","OBJECTID":492460},"geometry":{"x":175537.23000000231,"y":2578774.7600000016}},{"attributes":{"ID":492488,"DIS_CODE":0,"TOWNNAME":"北區","LI":"成德里","LIN":"20鄰","STREET":"文成三路","SECT":" ","MAREA":" ","LANE":"２６７巷","ALLEY":" ","HOUSE_NO":"１９號","E_COORD97":168335.25,"N_COORD97":2546274.0499999998,"ADDRESS":"文成三路２６７巷１９號","OBJECTID":492461},"geometry":{"x":168335.24999999907,"y":2546274.0500000026}},{"attributes":{"ID":492489,"DIS_CODE":0,"TOWNNAME":"北區","LI":"成德里","LIN":"20鄰","STREET":"文成三路","SECT":" ","MAREA":" ","LANE":"２６７巷","ALLEY":" ","HOUSE_NO":"２號","E_COORD97":168316.20000000001,"N_COORD97":2546293.2599999998,"ADDRESS":"文成三路２６７巷２號","OBJECTID":492462},"geometry":{"x":168316.20000000112,"y":2546293.2599999998}},{"attributes":{"ID":492490,"DIS_CODE":0,"TOWNNAME":"北區","LI":"成德里","LIN":"20鄰","STREET":"文成三路","SECT":" ","MAREA":" ","LANE":"２６７巷","ALLEY":" ","HOUSE_NO":"２１號","E_COORD97":168337.63,"N_COORD97":2546269.1299999999,"ADDRESS":"文成三路２６７巷２１號","OBJECTID":492463},"geometry":{"x":168337.62999999896,"y":2546269.129999999}},{"attributes":{"ID":492491,"DIS_CODE":0,"TOWNNAME":"北區","LI":"成德里","LIN":"20鄰","STREET":"文成三路","SECT":" ","MAREA":" ","LANE":"２６７巷","ALLEY":" ","HOUSE_NO":"２３號","E_COORD97":168340.01000000001,"N_COORD97":2546263.1000000001,"ADDRESS":"文成三路２６７巷２３號","OBJECTID":492464},"geometry":{"x":168340.00999999885,"y":2546263.0999999996}},{"attributes":{"ID":492492,"DIS_CODE":0,"TOWNNAME":"北區","LI":"成德里","LIN":"20鄰","STREET":"文成三路","SECT":" ","MAREA":" ","LANE":"２６７巷","ALLEY":" ","HOUSE_NO":"２５號","E_COORD97":168342.54999999999,"N_COORD97":2546257.3799999999,"ADDRESS":"文成三路２６７巷２５號","OBJECTID":492465},"geometry":{"x":168342.54999999981,"y":2546257.379999999}},{"attributes":{"ID":492493,"DIS_CODE":0,"TOWNNAME":"北區","LI":"成德里","LIN":"20鄰","STREET":"文成三路","SECT":" ","MAREA":" ","LANE":"２６７巷","ALLEY":" ","HOUSE_NO":"２７號","E_COORD97":168344.62,"N_COORD97":2546253.73,"ADDRESS":"文成三路２６７巷２７號","OBJECTID":492466},"geometry":{"x":168344.62000000011,"y":2546253.7300000004}},{"attributes":{"ID":492494,"DIS_CODE":0,"TOWNNAME":"北區","LI":"成德里","LIN":"20鄰","STREET":"文成一路","SECT":" ","MAREA":" ","LANE":"１５８巷","ALLEY":" ","HOUSE_NO":"２１號","E_COORD97":168397.42000000001,"N_COORD97":2546125.71,"ADDRESS":"文成一路１５８巷２１號","OBJECTID":492467},"geometry":{"x":168397.42000000086,"y":2546125.7100000046}},{"attributes":{"ID":492495,"DIS_CODE":0,"TOWNNAME":"北區","LI":"成德里","LIN":"20鄰","STREET":"文成三路","SECT":" ","MAREA":" ","LANE":"２６７巷","ALLEY":" ","HOUSE_NO":"１０號","E_COORD97":168323.10999999999,"N_COORD97":2546276.2000000002,"ADDRESS":"文成三路２６７巷１０號","OBJECTID":492468},"geometry":{"x":168323.1100000022,"y":2546276.1999999993}},{"attributes":{"ID":492496,"DIS_CODE":0,"TOWNNAME":"中西區","LI":"三合里","LIN":"8鄰","STREET":"忠孝街","SECT":" ","MAREA":" ","LANE":"９７巷","ALLEY":" ","HOUSE_NO":"３號","E_COORD97":167739.10999999999,"N_COORD97":2544585.1200000001,"ADDRESS":"忠孝街９７巷３號","OBJECTID":492469},"geometry":{"x":167739.11000000034,"y":2544585.1200000029}},{"attributes":{"ID":492497,"DIS_CODE":0,"TOWNNAME":"中西區","LI":"保安里","LIN":"7鄰","STREET":"海安路","SECT":" ","MAREA":" ","LANE":"４８巷","ALLEY":" ","HOUSE_NO":"６號","E_COORD97":167560.10999999999,"N_COORD97":2543533.6499999999,"ADDRESS":"海安路４８巷６號","OBJECTID":492470},"geometry":{"x":167560.11000000034,"y":2543533.6500000022}},{"attributes":{"ID":492498,"DIS_CODE":0,"TOWNNAME":"新營區","LI":"民榮里","LIN":"20鄰","STREET":"裕民路","SECT":" ","MAREA":" ","LANE":"１６巷","ALLEY":" ","HOUSE_NO":"１０號","E_COORD97":179075.13,"N_COORD97":2577922.6099999999,"ADDRESS":"裕民路１６巷１０號","OBJECTID":492471},"geometry":{"x":179075.13000000175,"y":2577922.6099999994}},{"attributes":{"ID":492499,"DIS_CODE":0,"TOWNNAME":"鹽水區","LI":"橋南里","LIN":"20鄰","STREET":"新太路","SECT":" ","MAREA":" ","LANE":"１巷","ALLEY":" ","HOUSE_NO":"１２號","E_COORD97":175561.91,"N_COORD97":2578679.71,"ADDRESS":"新太路１巷１２號","OBJECTID":492472},"geometry":{"x":175561.91000000015,"y":2578679.7100000009}},{"attributes":{"ID":492500,"DIS_CODE":0,"TOWNNAME":"鹽水區","LI":"橋南里","LIN":"20鄰","STREET":"新太路","SECT":" ","MAREA":" ","LANE":"１巷","ALLEY":" ","HOUSE_NO":"１３號","E_COORD97":175563.42999999999,"N_COORD97":2578704.48,"ADDRESS":"新太路１巷１３號","OBJECTID":492473},"geometry":{"x":175563.4299999997,"y":2578704.4800000004}},{"attributes":{"ID":492501,"DIS_CODE":0,"TOWNNAME":"鹽水區","LI":"橋南里","LIN":"20鄰","STREET":"新太路","SECT":" ","MAREA":" ","LANE":"１巷","ALLEY":" ","HOUSE_NO":"１４號","E_COORD97":175566.07999999999,"N_COORD97":2578680.1400000001,"ADDRESS":"新太路１巷１４號","OBJECTID":492474},"geometry":{"x":175566.08000000007,"y":2578680.1399999987}},{"attributes":{"ID":492502,"DIS_CODE":0,"TOWNNAME":"鹽水區","LI":"橋南里","LIN":"20鄰","STREET":"新太路","SECT":" ","MAREA":" ","LANE":"１巷","ALLEY":" ","HOUSE_NO":"１５號","E_COORD97":175567.51999999999,"N_COORD97":2578704.8300000001,"ADDRESS":"新太路１巷１５號","OBJECTID":492475},"geometry":{"x":175567.51999999955,"y":2578704.8300000001}},{"attributes":{"ID":492503,"DIS_CODE":0,"TOWNNAME":"鹽水區","LI":"橋南里","LIN":"20鄰","STREET":"新太路","SECT":" ","MAREA":" ","LANE":"１巷","ALLEY":" ","HOUSE_NO":"１７號","E_COORD97":175571.60999999999,"N_COORD97":2578705.1699999999,"ADDRESS":"新太路１巷１７號","OBJECTID":492476},"geometry":{"x":175571.6099999994,"y":2578705.1699999999}},{"attributes":{"ID":492504,"DIS_CODE":0,"TOWNNAME":"鹽水區","LI":"橋南里","LIN":"20鄰","STREET":"新太路","SECT":" ","MAREA":" ","LANE":"１巷","ALLEY":" ","HOUSE_NO":"１８號","E_COORD97":175574.42000000001,"N_COORD97":2578680.9900000002,"ADDRESS":"新太路１巷１８號","OBJECTID":492477},"geometry":{"x":175574.42000000086,"y":2578680.9900000039}},{"attributes":{"ID":492505,"DIS_CODE":0,"TOWNNAME":"鹽水區","LI":"橋南里","LIN":"20鄰","STREET":"新太路","SECT":" ","MAREA":" ","LANE":"１巷","ALLEY":" ","HOUSE_NO":"１９號","E_COORD97":175562.39000000001,"N_COORD97":2578715.5299999998,"ADDRESS":"新太路１巷１９號","OBJECTID":492478},"geometry":{"x":175562.39000000153,"y":2578715.5299999993}},{"attributes":{"ID":492506,"DIS_CODE":0,"TOWNNAME":"新營區","LI":"新東里","LIN":"20鄰","STREET":"東明街","SECT":" ","MAREA":" ","LANE":"２８巷","ALLEY":" ","HOUSE_NO":"２７號","E_COORD97":180878.54999999999,"N_COORD97":2579598.0499999998,"ADDRESS":"東明街２８巷２７號","OBJECTID":492479},"geometry":{"x":180878.54999999981,"y":2579598.0500000026}},{"attributes":{"ID":492507,"DIS_CODE":0,"TOWNNAME":"新營區","LI":"新東里","LIN":"20鄰","STREET":"東明街","SECT":" ","MAREA":" ","LANE":"２８巷","ALLEY":" ","HOUSE_NO":"２９號","E_COORD97":180884.09,"N_COORD97":2579597.9900000002,"ADDRESS":"東明街２８巷２９號","OBJECTID":492480},"geometry":{"x":180884.09000000171,"y":2579597.9900000021}},{"attributes":{"ID":492508,"DIS_CODE":0,"TOWNNAME":"新營區","LI":"新東里","LIN":"20鄰","STREET":"東明街","SECT":" ","MAREA":" ","LANE":"２８巷","ALLEY":" ","HOUSE_NO":"３２號","E_COORD97":180877.85999999999,"N_COORD97":2579586.6699999999,"ADDRESS":"東明街２８巷３２號","OBJECTID":492481},"geometry":{"x":180877.86000000127,"y":2579586.6699999999}},{"attributes":{"ID":492509,"DIS_CODE":0,"TOWNNAME":"新營區","LI":"新東里","LIN":"20鄰","STREET":"東明街","SECT":" ","MAREA":" ","LANE":"２８巷","ALLEY":" ","HOUSE_NO":"５２號","E_COORD97":180910.48000000001,"N_COORD97":2579579.2599999998,"ADDRESS":"東明街２８巷５２號","OBJECTID":492482},"geometry":{"x":180910.48000000045,"y":2579579.2599999998}},{"attributes":{"ID":492510,"DIS_CODE":0,"TOWNNAME":"新營區","LI":"新東里","LIN":"20鄰","STREET":"東明街","SECT":" ","MAREA":" ","LANE":"２８巷","ALLEY":" ","HOUSE_NO":"８號","E_COORD97":180830.88,"N_COORD97":2579586.2000000002,"ADDRESS":"東明街２８巷８號","OBJECTID":492483},"geometry":{"x":180830.87999999989,"y":2579586.1999999993}},{"attributes":{"ID":492511,"DIS_CODE":0,"TOWNNAME":"新營區","LI":"新東里","LIN":"20鄰","STREET":"東明街","SECT":" ","MAREA":" ","LANE":"２巷","ALLEY":" ","HOUSE_NO":"１２號","E_COORD97":180821.35000000001,"N_COORD97":2579527.71,"ADDRESS":"東明街２巷１２號","OBJECTID":492484},"geometry":{"x":180821.35000000056,"y":2579527.7100000046}},{"attributes":{"ID":492512,"DIS_CODE":0,"TOWNNAME":"新營區","LI":"新東里","LIN":"20鄰","STREET":"東明街","SECT":" ","MAREA":" ","LANE":"２巷","ALLEY":" ","HOUSE_NO":"１６號","E_COORD97":180826.10999999999,"N_COORD97":2579527.71,"ADDRESS":"東明街２巷１６號","OBJECTID":492485},"geometry":{"x":180826.11000000034,"y":2579527.7100000046}},{"attributes":{"ID":492513,"DIS_CODE":0,"TOWNNAME":"新營區","LI":"新東里","LIN":"20鄰","STREET":"東明街","SECT":" ","MAREA":" ","LANE":"４２巷","ALLEY":" ","HOUSE_NO":"３０號","E_COORD97":180871.82999999999,"N_COORD97":2579642.3799999999,"ADDRESS":"東明街４２巷３０號","OBJECTID":492486},"geometry":{"x":180871.83000000007,"y":2579642.379999999}},{"attributes":{"ID":492514,"DIS_CODE":0,"TOWNNAME":"新營區","LI":"新東里","LIN":"20鄰","STREET":"東明街","SECT":" ","MAREA":" ","LANE":"４２巷","ALLEY":" ","HOUSE_NO":"３２號","E_COORD97":180876.67999999999,"N_COORD97":2579642.3199999998,"ADDRESS":"東明街４２巷３２號","OBJECTID":492487},"geometry":{"x":180876.68000000063,"y":2579642.3200000022}},{"attributes":{"ID":492515,"DIS_CODE":0,"TOWNNAME":"新營區","LI":"新東里","LIN":"20鄰","STREET":"東明街","SECT":" ","MAREA":" ","LANE":"４２巷","ALLEY":" ","HOUSE_NO":"３６號","E_COORD97":180881.53,"N_COORD97":2579642.5499999998,"ADDRESS":"東明街４２巷３６號","OBJECTID":492488},"geometry":{"x":180881.53000000212,"y":2579642.5500000007}},{"attributes":{"ID":492516,"DIS_CODE":0,"TOWNNAME":"新營區","LI":"新東里","LIN":"20鄰","STREET":"東明街","SECT":" ","MAREA":" ","LANE":"４２巷","ALLEY":" ","HOUSE_NO":"３８號","E_COORD97":180886.35000000001,"N_COORD97":2579642.7599999998,"ADDRESS":"東明街４２巷３８號","OBJECTID":492489},"geometry":{"x":180886.34999999963,"y":2579642.7600000016}},{"attributes":{"ID":492517,"DIS_CODE":0,"TOWNNAME":"楠西區","LI":"楠西里","LIN":"20鄰","STREET":"民族路","SECT":" ","MAREA":" ","LANE":"９０巷","ALLEY":" ","HOUSE_NO":"８號","E_COORD97":196967.64000000001,"N_COORD97":2564034.29,"ADDRESS":"民族路９０巷８號","OBJECTID":492490},"geometry":{"x":196967.6400000006,"y":2564034.2899999991}},{"attributes":{"ID":492518,"DIS_CODE":0,"TOWNNAME":"楠西區","LI":"楠西里","LIN":"20鄰","STREET":"民族路","SECT":" ","MAREA":" ","LANE":"３５巷","ALLEY":" ","HOUSE_NO":"１號","E_COORD97":197055.44,"N_COORD97":2563910.29,"ADDRESS":"民族路３５巷１號","OBJECTID":492491},"geometry":{"x":197055.44000000041,"y":2563910.290000001}},{"attributes":{"ID":492519,"DIS_CODE":0,"TOWNNAME":"東山區","LI":"東中里","LIN":"20鄰","STREET":"新東路","SECT":"一段","MAREA":" ","LANE":"１２巷","ALLEY":" ","HOUSE_NO":"１號","E_COORD97":188954.98000000001,"N_COORD97":2580174.5699999998,"ADDRESS":"新東路一段１２巷１號","OBJECTID":492492},"geometry":{"x":188954.98000000138,"y":2580174.5700000003}},{"attributes":{"ID":492520,"DIS_CODE":0,"TOWNNAME":"東山區","LI":"東中里","LIN":"20鄰","STREET":"新東路","SECT":"一段","MAREA":" ","LANE":"１２巷","ALLEY":" ","HOUSE_NO":"２號","E_COORD97":188953.95000000001,"N_COORD97":2580180.6200000001,"ADDRESS":"新東路一段１２巷２號","OBJECTID":492493},"geometry":{"x":188953.95000000019,"y":2580180.6200000029}},{"attributes":{"ID":492521,"DIS_CODE":0,"TOWNNAME":"東山區","LI":"東中里","LIN":"20鄰","STREET":"新東路","SECT":"一段","MAREA":" ","LANE":"１２巷","ALLEY":" ","HOUSE_NO":"３號","E_COORD97":188953.82999999999,"N_COORD97":2580185,"ADDRESS":"新東路一段１２巷３號","OBJECTID":492494},"geometry":{"x":188953.83000000101,"y":2580185}},{"attributes":{"ID":492522,"DIS_CODE":0,"TOWNNAME":"東山區","LI":"東中里","LIN":"20鄰","STREET":"新東路","SECT":"一段","MAREA":" ","LANE":"１２巷","ALLEY":" ","HOUSE_NO":"５號","E_COORD97":188953.39000000001,"N_COORD97":2580190.2200000002,"ADDRESS":"新東路一段１２巷５號","OBJECTID":492495},"geometry":{"x":188953.3900000006,"y":2580190.2200000025}},{"attributes":{"ID":492523,"DIS_CODE":0,"TOWNNAME":"東山區","LI":"東中里","LIN":"20鄰","STREET":"新東路","SECT":"一段","MAREA":" ","LANE":"１２巷","ALLEY":" ","HOUSE_NO":"６號","E_COORD97":188951.94,"N_COORD97":2580196.54,"ADDRESS":"新東路一段１２巷６號","OBJECTID":492496},"geometry":{"x":188951.94000000134,"y":2580196.540000001}},{"attributes":{"ID":492524,"DIS_CODE":0,"TOWNNAME":"東山區","LI":"東中里","LIN":"20鄰","STREET":"新東路","SECT":"一段","MAREA":" ","LANE":"１２巷","ALLEY":" ","HOUSE_NO":"７號","E_COORD97":188954.04999999999,"N_COORD97":2580204.4100000001,"ADDRESS":"新東路一段１２巷７號","OBJECTID":492497},"geometry":{"x":188954.05000000075,"y":2580204.410000002}},{"attributes":{"ID":492525,"DIS_CODE":0,"TOWNNAME":"東山區","LI":"東中里","LIN":"20鄰","STREET":"新東路","SECT":"一段","MAREA":" ","LANE":"４６巷","ALLEY":" ","HOUSE_NO":"６號","E_COORD97":188662.13,"N_COORD97":2580147.2200000002,"ADDRESS":"新東路一段４６巷６號","OBJECTID":492498},"geometry":{"x":188662.13000000082,"y":2580147.2200000007}},{"attributes":{"ID":492526,"DIS_CODE":0,"TOWNNAME":"東山區","LI":"東中里","LIN":"20鄰","STREET":"新東路","SECT":"二段","MAREA":" ","LANE":"１１６巷","ALLEY":" ","HOUSE_NO":"８號","E_COORD97":188332.70000000001,"N_COORD97":2580003.5899999999,"ADDRESS":"新東路二段１１６巷８號","OBJECTID":492499},"geometry":{"x":188332.70000000112,"y":2580003.5900000017}},{"attributes":{"ID":492527,"DIS_CODE":0,"TOWNNAME":"永康區","LI":"勝利里","LIN":"20鄰","STREET":"勝學路","SECT":" ","MAREA":" ","LANE":"２８２巷","ALLEY":" ","HOUSE_NO":"６號","E_COORD97":171229.39000000001,"N_COORD97":2545329.4900000002,"ADDRESS":"勝學路２８２巷６號","OBJECTID":492500},"geometry":{"x":171229.39000000153,"y":2545329.4900000002}},{"attributes":{"ID":492528,"DIS_CODE":0,"TOWNNAME":"永康區","LI":"勝利里","LIN":"20鄰","STREET":"勝學路","SECT":" ","MAREA":" ","LANE":"２８２巷","ALLEY":" ","HOUSE_NO":"１８號","E_COORD97":171254.12,"N_COORD97":2545331.6200000001,"ADDRESS":"勝學路２８２巷１８號","OBJECTID":492501},"geometry":{"x":171254.12000000104,"y":2545331.620000001}},{"attributes":{"ID":492529,"DIS_CODE":0,"TOWNNAME":"安南區","LI":"理想里","LIN":"20鄰","STREET":"同安路","SECT":" ","MAREA":" ","LANE":"６８巷","ALLEY":" ","HOUSE_NO":"１４０號","E_COORD97":167090.09042299999,"N_COORD97":2548645.8023899999,"ADDRESS":"同安路６８巷１４０號","OBJECTID":492502},"geometry":{"x":167090.09042300098,"y":2548645.8023879994}},{"attributes":{"ID":492530,"DIS_CODE":0,"TOWNNAME":"安南區","LI":"理想里","LIN":" ","STREET":"大安街","SECT":" ","MAREA":" ","LANE":"４６１巷","ALLEY":" ","HOUSE_NO":"４６號之２９","E_COORD97":167125.05620600001,"N_COORD97":2548639.4523900002,"ADDRESS":"大安街４６１巷４６號之２９","OBJECTID":492503},"geometry":{"x":167125.0562060019,"y":2548639.4523910005}},{"attributes":{"ID":492531,"DIS_CODE":0,"TOWNNAME":"永康區","LI":"勝利里","LIN":"20鄰","STREET":"勝學路","SECT":" ","MAREA":" ","LANE":"２８２巷","ALLEY":" ","HOUSE_NO":"５號","E_COORD97":171235.19,"N_COORD97":2545348.1499999999,"ADDRESS":"勝學路２８２巷５號","OBJECTID":492504},"geometry":{"x":171235.19000000134,"y":2545348.1500000004}},{"attributes":{"ID":492532,"DIS_CODE":0,"TOWNNAME":"永康區","LI":"勝利里","LIN":"20鄰","STREET":"勝學路","SECT":" ","MAREA":" ","LANE":"２８２巷","ALLEY":" ","HOUSE_NO":"１７號","E_COORD97":171266.04999999999,"N_COORD97":2545348.7599999998,"ADDRESS":"勝學路２８２巷１７號","OBJECTID":492505},"geometry":{"x":171266.05000000075,"y":2545348.7600000016}},{"attributes":{"ID":492533,"DIS_CODE":0,"TOWNNAME":"永康區","LI":"勝利里","LIN":"20鄰","STREET":"勝學路","SECT":" ","MAREA":" ","LANE":"２８２巷","ALLEY":" ","HOUSE_NO":"２６號","E_COORD97":171270.56,"N_COORD97":2545328.9399999999,"ADDRESS":"勝學路２８２巷２６號","OBJECTID":492506},"geometry":{"x":171270.56000000145,"y":2545328.9399999995}},{"attributes":{"ID":492534,"DIS_CODE":0,"TOWNNAME":"東區","LI":"龍山里","LIN":"20鄰","STREET":"崇學路","SECT":" ","MAREA":" ","LANE":"２０３巷","ALLEY":" ","HOUSE_NO":"２號","E_COORD97":170414.73999999999,"N_COORD97":2542384.5600000001,"ADDRESS":"崇學路２０３巷２號","OBJECTID":492507},"geometry":{"x":170414.74000000115,"y":2542384.5600000024}},{"attributes":{"ID":492535,"DIS_CODE":0,"TOWNNAME":"東區","LI":"龍山里","LIN":"20鄰","STREET":"崇學路","SECT":" ","MAREA":" ","LANE":"２０３巷","ALLEY":" ","HOUSE_NO":"３號","E_COORD97":170401.22,"N_COORD97":2542361.8300000001,"ADDRESS":"崇學路２０３巷３號","OBJECTID":492508},"geometry":{"x":170401.21999999974,"y":2542361.8300000019}},{"attributes":{"ID":492536,"DIS_CODE":0,"TOWNNAME":"東區","LI":"龍山里","LIN":"20鄰","STREET":"崇學路","SECT":" ","MAREA":" ","LANE":"２０３巷","ALLEY":" ","HOUSE_NO":"１１號","E_COORD97":170369.04999999999,"N_COORD97":2542387.9100000001,"ADDRESS":"崇學路２０３巷１１號","OBJECTID":492509},"geometry":{"x":170369.05000000168,"y":2542387.910000002}},{"attributes":{"ID":492537,"DIS_CODE":0,"TOWNNAME":"東區","LI":"龍山里","LIN":"20鄰","STREET":"崇學路","SECT":" ","MAREA":" ","LANE":"２０３巷","ALLEY":" ","HOUSE_NO":"５號","E_COORD97":170397.26000000001,"N_COORD97":2542363.6699999999,"ADDRESS":"崇學路２０３巷５號","OBJECTID":492510},"geometry":{"x":170397.25999999978,"y":2542363.6699999999}},{"attributes":{"ID":492538,"DIS_CODE":0,"TOWNNAME":"東區","LI":"龍山里","LIN":"20鄰","STREET":"崇學路","SECT":" ","MAREA":" ","LANE":"２２１巷","ALLEY":" ","HOUSE_NO":"２７號","E_COORD97":170374.59,"N_COORD97":2542446.1400000001,"ADDRESS":"崇學路２２１巷２７號","OBJECTID":492511},"geometry":{"x":170374.59000000078,"y":2542446.1400000006}},{"attributes":{"ID":492539,"DIS_CODE":0,"TOWNNAME":"東區","LI":"龍山里","LIN":"20鄰","STREET":"崇學路","SECT":" ","MAREA":" ","LANE":"２２１巷","ALLEY":" ","HOUSE_NO":"３號","E_COORD97":170431.13,"N_COORD97":2542397.9100000001,"ADDRESS":"崇學路２２１巷３號","OBJECTID":492512},"geometry":{"x":170431.12999999989,"y":2542397.910000002}},{"attributes":{"ID":492540,"DIS_CODE":0,"TOWNNAME":"東區","LI":"龍山里","LIN":"20鄰","STREET":"崇學路","SECT":" ","MAREA":" ","LANE":"２２１巷","ALLEY":" ","HOUSE_NO":"５號","E_COORD97":170426,"N_COORD97":2542402.6699999999,"ADDRESS":"崇學路２２１巷５號","OBJECTID":492513},"geometry":{"x":170426.00000000093,"y":2542402.6700000037}},{"attributes":{"ID":492541,"DIS_CODE":0,"TOWNNAME":"東區","LI":"龍山里","LIN":"20鄰","STREET":"崇學路","SECT":" ","MAREA":" ","LANE":"２２１巷","ALLEY":" ","HOUSE_NO":"７號","E_COORD97":170421.51999999999,"N_COORD97":2542406.3599999999,"ADDRESS":"崇學路２２１巷７號","OBJECTID":492514},"geometry":{"x":170421.52000000142,"y":2542406.3599999994}},{"attributes":{"ID":492542,"DIS_CODE":0,"TOWNNAME":"東區","LI":"龍山里","LIN":"20鄰","STREET":"崇學路","SECT":" ","MAREA":" ","LANE":"２２１巷","ALLEY":" ","HOUSE_NO":"９號","E_COORD97":170415.98999999999,"N_COORD97":2542411.3599999999,"ADDRESS":"崇學路２２１巷９號","OBJECTID":492515},"geometry":{"x":170415.99000000115,"y":2542411.3600000013}},{"attributes":{"ID":492543,"DIS_CODE":0,"TOWNNAME":"安南區","LI":"新順里","LIN":"20鄰","STREET":"慶安路","SECT":" ","MAREA":" ","LANE":"１１５巷","ALLEY":" ","HOUSE_NO":"６８號","E_COORD97":169321.88,"N_COORD97":2549272.1200000001,"ADDRESS":"慶安路１１５巷６８號","OBJECTID":492516},"geometry":{"x":169321.87999999989,"y":2549272.120000001}},{"attributes":{"ID":492544,"DIS_CODE":0,"TOWNNAME":"永康區","LI":"東橋里","LIN":"20鄰","STREET":"中山南路","SECT":" ","MAREA":" ","LANE":"３６５巷","ALLEY":" ","HOUSE_NO":"３號之２","E_COORD97":172737.89000000001,"N_COORD97":2547060.7999999998,"ADDRESS":"中山南路３６５巷３號之２","OBJECTID":492517},"geometry":{"x":172737.88999999966,"y":2547060.8000000045}},{"attributes":{"ID":492545,"DIS_CODE":0,"TOWNNAME":"仁德區","LI":"成功里","LIN":"36鄰","STREET":"保華路","SECT":" ","MAREA":" ","LANE":"４６巷","ALLEY":" ","HOUSE_NO":"５號","E_COORD97":170652.54000000001,"N_COORD97":2540018.25,"ADDRESS":"保華路４６巷５號","OBJECTID":492518},"geometry":{"x":170652.5400000019,"y":2540018.2499999981}},{"attributes":{"ID":492546,"DIS_CODE":0,"TOWNNAME":"南區","LI":"彰南里","LIN":"18鄰","STREET":"新和一路","SECT":" ","MAREA":" ","LANE":"３巷","ALLEY":" ","HOUSE_NO":"４號之２","E_COORD97":166084.93147099999,"N_COORD97":2540670.8027400002,"ADDRESS":"新和一路３巷４號之２","OBJECTID":492519},"geometry":{"x":166084.93147100136,"y":2540670.8027400021}},{"attributes":{"ID":492547,"DIS_CODE":0,"TOWNNAME":"永康區","LI":"永康里","LIN":"36鄰","STREET":"永平街","SECT":" ","MAREA":" ","LANE":"５６巷","ALLEY":" ","HOUSE_NO":"２號十八樓之１","E_COORD97":174357.70000000001,"N_COORD97":2546819.5499999998,"ADDRESS":"永平街５６巷２號十八樓之１","OBJECTID":492520},"geometry":{"x":174357.70000000112,"y":2546819.5500000026}},{"attributes":{"ID":492548,"DIS_CODE":0,"TOWNNAME":"東區","LI":"崇文里","LIN":"36鄰","STREET":"崇德二十一街","SECT":" ","MAREA":" ","LANE":"１３８巷","ALLEY":" ","HOUSE_NO":"５號","E_COORD97":171191.20000000001,"N_COORD97":2540878.54,"ADDRESS":"崇德二十一街１３８巷５號","OBJECTID":492521},"geometry":{"x":171191.20000000112,"y":2540878.5399999991}},{"attributes":{"ID":492549,"DIS_CODE":0,"TOWNNAME":"佳里區","LI":"鎮山里","LIN":"5鄰","STREET":"自由街","SECT":" ","MAREA":" ","LANE":"４３巷","ALLEY":" ","HOUSE_NO":"４號","E_COORD97":166008.89999999999,"N_COORD97":2561789.7799999998,"ADDRESS":"自由街４３巷４號","OBJECTID":492522},"geometry":{"x":166008.90000000224,"y":2561789.7799999993}},{"attributes":{"ID":492550,"DIS_CODE":0,"TOWNNAME":"白河區","LI":"庄內里","LIN":"5鄰","STREET":"自立街","SECT":" ","MAREA":" ","LANE":"１巷","ALLEY":" ","HOUSE_NO":"１１號","E_COORD97":190771.89000000001,"N_COORD97":2583474.21,"ADDRESS":"自立街１巷１１號","OBJECTID":492523},"geometry":{"x":190771.8900000006,"y":2583474.2100000046}},{"attributes":{"ID":492551,"DIS_CODE":0,"TOWNNAME":"白河區","LI":"秀祐里","LIN":"5鄰","STREET":"中正路","SECT":" ","MAREA":" ","LANE":"６２１巷","ALLEY":" ","HOUSE_NO":"４號","E_COORD97":188873.98999999999,"N_COORD97":2582978.8700000001,"ADDRESS":"中正路６２１巷４號","OBJECTID":492524},"geometry":{"x":188873.99000000022,"y":2582978.8700000029}},{"attributes":{"ID":492552,"DIS_CODE":0,"TOWNNAME":"東區","LI":"崇學里","LIN":"5鄰","STREET":"崇德四街","SECT":" ","MAREA":" ","LANE":"５巷","ALLEY":" ","HOUSE_NO":"２號","E_COORD97":170529.03,"N_COORD97":2541960.29,"ADDRESS":"崇德四街５巷２號","OBJECTID":492525},"geometry":{"x":170529.03000000212,"y":2541960.290000001}},{"attributes":{"ID":492553,"DIS_CODE":0,"TOWNNAME":"柳營區","LI":"東昇里","LIN":"5鄰","STREET":"成功街","SECT":" ","MAREA":" ","LANE":"７６巷","ALLEY":" ","HOUSE_NO":"１號","E_COORD97":180020.10999999999,"N_COORD97":2575348.23,"ADDRESS":"成功街７６巷１號","OBJECTID":492526},"geometry":{"x":180020.11000000127,"y":2575348.2300000023}},{"attributes":{"ID":492554,"DIS_CODE":0,"TOWNNAME":"關廟區","LI":"新埔里","LIN":"5鄰","STREET":"新埔三街","SECT":" ","MAREA":" ","LANE":"２７巷","ALLEY":" ","HOUSE_NO":"１１號","E_COORD97":181148.82000000001,"N_COORD97":2540924.25,"ADDRESS":"新埔三街２７巷１１號","OBJECTID":492527},"geometry":{"x":181148.8200000003,"y":2540924.2500000019}},{"attributes":{"ID":492555,"DIS_CODE":0,"TOWNNAME":"新化區","LI":"武安里","LIN":"5鄰","STREET":"中正路","SECT":" ","MAREA":" ","LANE":"３６９巷","ALLEY":" ","HOUSE_NO":"２５號","E_COORD97":179064.76000000001,"N_COORD97":2548264.25,"ADDRESS":"中正路３６９巷２５號","OBJECTID":492528},"geometry":{"x":179064.75999999978,"y":2548264.2500000019}},{"attributes":{"ID":492556,"DIS_CODE":0,"TOWNNAME":"新化區","LI":"東榮里","LIN":"5鄰","STREET":"信義路","SECT":" ","MAREA":" ","LANE":"９３巷","ALLEY":" ","HOUSE_NO":"６號","E_COORD97":179824.48000000001,"N_COORD97":2548650.25,"ADDRESS":"信義路９３巷６號","OBJECTID":492529},"geometry":{"x":179824.48000000138,"y":2548650.2499999981}},{"attributes":{"ID":492557,"DIS_CODE":0,"TOWNNAME":"新化區","LI":"武安里","LIN":"5鄰","STREET":"中正路","SECT":" ","MAREA":" ","LANE":"３６９巷","ALLEY":" ","HOUSE_NO":"１５號","E_COORD97":179074.76000000001,"N_COORD97":2548266.25,"ADDRESS":"中正路３６９巷１５號","OBJECTID":492530},"geometry":{"x":179074.76000000071,"y":2548266.25}},{"attributes":{"ID":492558,"DIS_CODE":0,"TOWNNAME":"北區","LI":"文成里","LIN":"5鄰","STREET":"文賢路","SECT":" ","MAREA":" ","LANE":"５９６巷","ALLEY":" ","HOUSE_NO":"１８號","E_COORD97":167397.85000000001,"N_COORD97":2545458.8700000001,"ADDRESS":"文賢路５９６巷１８號","OBJECTID":492531},"geometry":{"x":167397.84999999963,"y":2545458.870000001}},{"attributes":{"ID":492559,"DIS_CODE":0,"TOWNNAME":"北區","LI":"文成里","LIN":"5鄰","STREET":"文賢路","SECT":" ","MAREA":" ","LANE":"５９６巷","ALLEY":" ","HOUSE_NO":"２８號","E_COORD97":167416.13,"N_COORD97":2545458.9500000002,"ADDRESS":"文賢路５９６巷２８號","OBJECTID":492532},"geometry":{"x":167416.13000000082,"y":2545458.9500000011}},{"attributes":{"ID":492560,"DIS_CODE":0,"TOWNNAME":"新營區","LI":"王公里","LIN":"5鄰","STREET":"民治路","SECT":" ","MAREA":" ","LANE":"１８巷","ALLEY":" ","HOUSE_NO":"２號之８","E_COORD97":180410.23999999999,"N_COORD97":2578934.4100000001,"ADDRESS":"民治路１８巷２號之８","OBJECTID":492533},"geometry":{"x":180410.24000000022,"y":2578934.4100000001}},{"attributes":{"ID":492561,"DIS_CODE":0,"TOWNNAME":"東區","LI":"和平里","LIN":"5鄰","STREET":"東門路","SECT":"三段","MAREA":" ","LANE":"２８０巷","ALLEY":" ","HOUSE_NO":"３１號","E_COORD97":171736.54000000001,"N_COORD97":2541710.21,"ADDRESS":"東門路三段２８０巷３１號","OBJECTID":492534},"geometry":{"x":171736.54000000004,"y":2541710.2100000009}},{"attributes":{"ID":492562,"DIS_CODE":0,"TOWNNAME":"東區","LI":"和平里","LIN":"5鄰","STREET":"東門路","SECT":"三段","MAREA":" ","LANE":"２８０巷","ALLEY":" ","HOUSE_NO":"３２號","E_COORD97":171719.79000000001,"N_COORD97":2541724.3399999999,"ADDRESS":"東門路三段２８０巷３２號","OBJECTID":492535},"geometry":{"x":171719.79000000004,"y":2541724.3400000017}},{"attributes":{"ID":492563,"DIS_CODE":0,"TOWNNAME":"東區","LI":"和平里","LIN":"5鄰","STREET":"東門路","SECT":"三段","MAREA":" ","LANE":"２８０巷","ALLEY":" ","HOUSE_NO":"３３號","E_COORD97":171736.29999999999,"N_COORD97":2541704.79,"ADDRESS":"東門路三段２８０巷３３號","OBJECTID":492536},"geometry":{"x":171736.29999999981,"y":2541704.7899999991}},{"attributes":{"ID":492564,"DIS_CODE":0,"TOWNNAME":"東區","LI":"和平里","LIN":"5鄰","STREET":"東門路","SECT":"三段","MAREA":" ","LANE":"２８０巷","ALLEY":" ","HOUSE_NO":"３６號","E_COORD97":171719.32000000001,"N_COORD97":2541716.5699999998,"ADDRESS":"東門路三段２８０巷３６號","OBJECTID":492537},"geometry":{"x":171719.32000000123,"y":2541716.5700000022}},{"attributes":{"ID":492565,"DIS_CODE":0,"TOWNNAME":"北區","LI":"和順里","LIN":"38鄰","STREET":"公園南路","SECT":" ","MAREA":" ","LANE":"３７０巷","ALLEY":" ","HOUSE_NO":"８０號五樓","E_COORD97":168267.51999999999,"N_COORD97":2544940.5299999998,"ADDRESS":"公園南路３７０巷８０號五樓","OBJECTID":492538},"geometry":{"x":168267.52000000048,"y":2544940.5299999993}},{"attributes":{"ID":492566,"DIS_CODE":0,"TOWNNAME":"佳里區","LI":"建南里","LIN":"38鄰","STREET":"四維二街","SECT":" ","MAREA":" ","LANE":"２３５巷","ALLEY":" ","HOUSE_NO":"１０號","E_COORD97":165708.25,"N_COORD97":2560973.5699999998,"ADDRESS":"四維二街２３５巷１０號","OBJECTID":492539},"geometry":{"x":165708.25000000093,"y":2560973.5700000022}},{"attributes":{"ID":492567,"DIS_CODE":0,"TOWNNAME":"安南區","LI":"安西里","LIN":"18鄰","STREET":"安通三街","SECT":" ","MAREA":" ","LANE":"２９巷","ALLEY":" ","HOUSE_NO":"１１號","E_COORD97":168504.20000000001,"N_COORD97":2547931.5699999998,"ADDRESS":"安通三街２９巷１１號","OBJECTID":492540},"geometry":{"x":168504.20000000112,"y":2547931.5700000003}},{"attributes":{"ID":492568,"DIS_CODE":0,"TOWNNAME":"中西區","LI":"三民里","LIN":"18鄰","STREET":"民權路","SECT":"二段","MAREA":" ","LANE":"６４巷","ALLEY":" ","HOUSE_NO":"５號之６","E_COORD97":168461.66,"N_COORD97":2543955.3900000001,"ADDRESS":"民權路二段６４巷５號之６","OBJECTID":492541},"geometry":{"x":168461.66000000201,"y":2543955.3900000025}},{"attributes":{"ID":492569,"DIS_CODE":0,"TOWNNAME":"永康區","LI":"永康里","LIN":"26鄰","STREET":"永明街","SECT":" ","MAREA":" ","LANE":"６９巷","ALLEY":" ","HOUSE_NO":"２號","E_COORD97":174177.60000000001,"N_COORD97":2547271.7999999998,"ADDRESS":"永明街６９巷２號","OBJECTID":492542},"geometry":{"x":174177.60000000149,"y":2547271.8000000026}},{"attributes":{"ID":492570,"DIS_CODE":0,"TOWNNAME":"西港區","LI":"慶安里","LIN":"26鄰","STREET":"新興街","SECT":" ","MAREA":" ","LANE":"１２巷","ALLEY":" ","HOUSE_NO":"１號","E_COORD97":168246.45000000001,"N_COORD97":2557780.0099999998,"ADDRESS":"新興街１２巷１號","OBJECTID":492543},"geometry":{"x":168246.45000000112,"y":2557780.0100000016}},{"attributes":{"ID":492571,"DIS_CODE":0,"TOWNNAME":"西港區","LI":"慶安里","LIN":"26鄰","STREET":"新興街","SECT":" ","MAREA":" ","LANE":"１２巷","ALLEY":" ","HOUSE_NO":"４號","E_COORD97":168259.76000000001,"N_COORD97":2557783.7599999998,"ADDRESS":"新興街１２巷４號","OBJECTID":492544},"geometry":{"x":168259.75999999978,"y":2557783.7600000035}},{"attributes":{"ID":492572,"DIS_CODE":0,"TOWNNAME":"西港區","LI":"慶安里","LIN":"26鄰","STREET":"新興街","SECT":" ","MAREA":" ","LANE":"１２巷","ALLEY":" ","HOUSE_NO":"６號","E_COORD97":168271.64999999999,"N_COORD97":2557753.2599999998,"ADDRESS":"新興街１２巷６號","OBJECTID":492545},"geometry":{"x":168271.65000000037,"y":2557753.2600000035}},{"attributes":{"ID":492573,"DIS_CODE":0,"TOWNNAME":"西港區","LI":"慶安里","LIN":"26鄰","STREET":"新興街","SECT":" ","MAREA":" ","LANE":"１２巷","ALLEY":" ","HOUSE_NO":"７號","E_COORD97":168267.31,"N_COORD97":2557752.5600000001,"ADDRESS":"新興街１２巷７號","OBJECTID":492546},"geometry":{"x":168267.31000000052,"y":2557752.5600000024}},{"attributes":{"ID":492574,"DIS_CODE":0,"TOWNNAME":"永康區","LI":"尚頂里","LIN":"26鄰","STREET":"南台街","SECT":" ","MAREA":" ","LANE":"２６巷","ALLEY":" ","HOUSE_NO":"８號","E_COORD97":170436.22,"N_COORD97":2547004.2400000002,"ADDRESS":"南台街２６巷８號","OBJECTID":492547},"geometry":{"x":170436.22000000067,"y":2547004.2400000021}},{"attributes":{"ID":492575,"DIS_CODE":0,"TOWNNAME":"東區","LI":"中西里","LIN":"26鄰","STREET":"東寧路","SECT":" ","MAREA":" ","LANE":"１２０巷","ALLEY":" ","HOUSE_NO":"６３號之１","E_COORD97":170278.72,"N_COORD97":2543493.8500000001,"ADDRESS":"東寧路１２０巷６３號之１","OBJECTID":492548},"geometry":{"x":170278.72000000067,"y":2543493.8500000015}},{"attributes":{"ID":492576,"DIS_CODE":0,"TOWNNAME":"東區","LI":"中西里","LIN":"26鄰","STREET":"東寧路","SECT":" ","MAREA":" ","LANE":"１２０巷","ALLEY":" ","HOUSE_NO":"６１號之１","E_COORD97":170287.44,"N_COORD97":2543495.6800000002,"ADDRESS":"東寧路１２０巷６１號之１","OBJECTID":492549},"geometry":{"x":170287.44000000227,"y":2543495.6799999997}},{"attributes":{"ID":492577,"DIS_CODE":0,"TOWNNAME":"東區","LI":"泉南里","LIN":"26鄰","STREET":"府連路","SECT":" ","MAREA":" ","LANE":"３１２巷","ALLEY":" ","HOUSE_NO":"４號","E_COORD97":169527.91,"N_COORD97":2542821.1400000001,"ADDRESS":"府連路３１２巷４號","OBJECTID":492550},"geometry":{"x":169527.91000000201,"y":2542821.1400000025}},{"attributes":{"ID":492578,"DIS_CODE":0,"TOWNNAME":"東區","LI":"裕農里","LIN":"26鄰","STREET":"東寧路","SECT":" ","MAREA":" ","LANE":"５１０巷","ALLEY":" ","HOUSE_NO":"３０號","E_COORD97":170985.38,"N_COORD97":2543273.1600000001,"ADDRESS":"東寧路５１０巷３０號","OBJECTID":492551},"geometry":{"x":170985.37999999989,"y":2543273.1600000001}},{"attributes":{"ID":492579,"DIS_CODE":0,"TOWNNAME":"東區","LI":"裕農里","LIN":"26鄰","STREET":"東寧路","SECT":" ","MAREA":" ","LANE":"５１０巷","ALLEY":" ","HOUSE_NO":"３２號","E_COORD97":170978.78,"N_COORD97":2543272.8300000001,"ADDRESS":"東寧路５１０巷３２號","OBJECTID":492552},"geometry":{"x":170978.78000000119,"y":2543272.8300000038}},{"attributes":{"ID":492580,"DIS_CODE":0,"TOWNNAME":"安南區","LI":"州南里","LIN":"26鄰","STREET":"安和路","SECT":"四段","MAREA":" ","LANE":"５３８巷","ALLEY":" ","HOUSE_NO":"１１５號","E_COORD97":170295.85000000001,"N_COORD97":2551260.0099999998,"ADDRESS":"安和路四段５３８巷１１５號","OBJECTID":492553},"geometry":{"x":170295.85000000056,"y":2551260.0100000016}},{"attributes":{"ID":492581,"DIS_CODE":0,"TOWNNAME":"安南區","LI":"\u25A0南里","LIN":"26鄰","STREET":"環福街","SECT":" ","MAREA":" ","LANE":"２１６巷","ALLEY":" ","HOUSE_NO":"１１號","E_COORD97":170294.89999999999,"N_COORD97":2552674.1000000001,"ADDRESS":"環福街２１６巷１１號","OBJECTID":492554},"geometry":{"x":170294.9000000013,"y":2552674.0999999996}},{"attributes":{"ID":492582,"DIS_CODE":0,"TOWNNAME":"永康區","LI":"龍潭里","LIN":"26鄰","STREET":"龍昌街","SECT":" ","MAREA":" ","LANE":"６６巷","ALLEY":" ","HOUSE_NO":"５２號","E_COORD97":175135.64000000001,"N_COORD97":2547907.5099999998,"ADDRESS":"龍昌街６６巷５２號","OBJECTID":492555},"geometry":{"x":175135.6400000006,"y":2547907.5100000016}},{"attributes":{"ID":492583,"DIS_CODE":0,"TOWNNAME":"永康區","LI":"龍潭里","LIN":"26鄰","STREET":"龍昌街","SECT":" ","MAREA":" ","LANE":"６６巷","ALLEY":" ","HOUSE_NO":"１４號","E_COORD97":175062.01999999999,"N_COORD97":2547897.0699999998,"ADDRESS":"龍昌街６６巷１４號","OBJECTID":492556},"geometry":{"x":175062.02000000048,"y":2547897.0700000022}},{"attributes":{"ID":492584,"DIS_CODE":0,"TOWNNAME":"永康區","LI":"龍潭里","LIN":"26鄰","STREET":"龍昌街","SECT":" ","MAREA":" ","LANE":"６６巷","ALLEY":" ","HOUSE_NO":"６號","E_COORD97":175043.44,"N_COORD97":2547898.1099999999,"ADDRESS":"龍昌街６６巷６號","OBJECTID":492557},"geometry":{"x":175043.44000000041,"y":2547898.1100000031}},{"attributes":{"ID":492585,"DIS_CODE":0,"TOWNNAME":"安南區","LI":"新順里","LIN":"11鄰","STREET":"育安四街","SECT":" ","MAREA":" ","LANE":"８７巷","ALLEY":" ","HOUSE_NO":"２２號","E_COORD97":169684.76999999999,"N_COORD97":2549695.9399999999,"ADDRESS":"育安四街８７巷２２號","OBJECTID":492558},"geometry":{"x":169684.77000000048,"y":2549695.9399999976}},{"attributes":{"ID":492586,"DIS_CODE":0,"TOWNNAME":"新營區","LI":"新東里","LIN":"25鄰","STREET":"民族路","SECT":" ","MAREA":" ","LANE":"１５０巷","ALLEY":" ","HOUSE_NO":"１０４號","E_COORD97":180706.26000000001,"N_COORD97":2579320.25,"ADDRESS":"民族路１５０巷１０４號","OBJECTID":492559},"geometry":{"x":180706.25999999978,"y":2579320.2500000019}},{"attributes":{"ID":492587,"DIS_CODE":0,"TOWNNAME":"南區","LI":"大忠里","LIN":"25鄰","STREET":"公英一街","SECT":" ","MAREA":" ","LANE":"７７巷","ALLEY":" ","HOUSE_NO":"６號","E_COORD97":169282.60000000001,"N_COORD97":2541143.02,"ADDRESS":"公英一街７７巷６號","OBJECTID":492560},"geometry":{"x":169282.60000000056,"y":2541143.0200000014}},{"attributes":{"ID":492588,"DIS_CODE":0,"TOWNNAME":"南區","LI":"大忠里","LIN":"25鄰","STREET":"公英一街","SECT":" ","MAREA":" ","LANE":"７７巷","ALLEY":" ","HOUSE_NO":"７號","E_COORD97":169282.89000000001,"N_COORD97":2541138.04,"ADDRESS":"公英一街７７巷７號","OBJECTID":492561},"geometry":{"x":169282.88999999966,"y":2541138.0400000028}},{"attributes":{"ID":492589,"DIS_CODE":0,"TOWNNAME":"東區","LI":"富強里","LIN":"25鄰","STREET":"裕農路","SECT":" ","MAREA":" ","LANE":"３５０巷","ALLEY":" ","HOUSE_NO":"２５之５號","E_COORD97":171084.45999999999,"N_COORD97":2542961.2799999998,"ADDRESS":"裕農路３５０巷２５之５號","OBJECTID":492562},"geometry":{"x":171084.45999999996,"y":2542961.2800000012}},{"attributes":{"ID":492590,"DIS_CODE":0,"TOWNNAME":"東區","LI":"富強里","LIN":"25鄰","STREET":"裕農路","SECT":" ","MAREA":" ","LANE":"３５０巷","ALLEY":" ","HOUSE_NO":"２５之６號","E_COORD97":171091.01000000001,"N_COORD97":2542961.2799999998,"ADDRESS":"裕農路３５０巷２５之６號","OBJECTID":492563},"geometry":{"x":171091.00999999978,"y":2542961.2800000012}},{"attributes":{"ID":492591,"DIS_CODE":0,"TOWNNAME":"東區","LI":"富強里","LIN":"25鄰","STREET":"裕農路","SECT":" ","MAREA":" ","LANE":"３５０巷","ALLEY":" ","HOUSE_NO":"２５之７號","E_COORD97":171097.07000000001,"N_COORD97":2542961.4399999999,"ADDRESS":"裕農路３５０巷２５之７號","OBJECTID":492564},"geometry":{"x":171097.07000000123,"y":2542961.4399999995}},{"attributes":{"ID":492592,"DIS_CODE":0,"TOWNNAME":"東區","LI":"富強里","LIN":"25鄰","STREET":"裕農路","SECT":" ","MAREA":" ","LANE":"３５０巷","ALLEY":" ","HOUSE_NO":"２５之８號","E_COORD97":171102.31,"N_COORD97":2542961.4399999999,"ADDRESS":"裕農路３５０巷２５之８號","OBJECTID":492565},"geometry":{"x":171102.30999999959,"y":2542961.4399999995}},{"attributes":{"ID":492593,"DIS_CODE":0,"TOWNNAME":"東區","LI":"富強里","LIN":"25鄰","STREET":"裕農路","SECT":" ","MAREA":" ","LANE":"３５０巷","ALLEY":" ","HOUSE_NO":"２５號","E_COORD97":171062.35999999999,"N_COORD97":2542962.4199999999,"ADDRESS":"裕農路３５０巷２５號","OBJECTID":492566},"geometry":{"x":171062.36000000034,"y":2542962.4199999999}},{"attributes":{"ID":492594,"DIS_CODE":0,"TOWNNAME":"南區","LI":"開南里","LIN":"25鄰","STREET":"新建路","SECT":" ","MAREA":" ","LANE":"５１巷","ALLEY":" ","HOUSE_NO":"９號","E_COORD97":166515.89999999999,"N_COORD97":2540794.75,"ADDRESS":"新建路５１巷９號","OBJECTID":492567},"geometry":{"x":166515.90000000224,"y":2540794.7499999981}},{"attributes":{"ID":492595,"DIS_CODE":0,"TOWNNAME":"歸仁區","LI":"許厝里","LIN":"4鄰","STREET":"仁愛一街","SECT":" ","MAREA":" ","LANE":"１２巷","ALLEY":" ","HOUSE_NO":"１３號","E_COORD97":178345.73999999999,"N_COORD97":2540585.73,"ADDRESS":"仁愛一街１２巷１３號","OBJECTID":492568},"geometry":{"x":178345.74000000209,"y":2540585.7300000023}},{"attributes":{"ID":492596,"DIS_CODE":0,"TOWNNAME":"永康區","LI":"復華里","LIN":"25鄰","STREET":"復華八街","SECT":" ","MAREA":" ","LANE":"４９巷","ALLEY":" ","HOUSE_NO":"３２號","E_COORD97":172724.64000000001,"N_COORD97":2546424.2799999998,"ADDRESS":"復華八街４９巷３２號","OBJECTID":492569},"geometry":{"x":172724.64000000153,"y":2546424.2799999993}},{"attributes":{"ID":492597,"DIS_CODE":0,"TOWNNAME":"永康區","LI":"復華里","LIN":"25鄰","STREET":"復華八街","SECT":" ","MAREA":" ","LANE":"４９巷","ALLEY":" ","HOUSE_NO":"２１號","E_COORD97":172738.26999999999,"N_COORD97":2546413.2799999998,"ADDRESS":"復華八街４９巷２１號","OBJECTID":492570},"geometry":{"x":172738.26999999955,"y":2546413.2800000012}},{"attributes":{"ID":492598,"DIS_CODE":0,"TOWNNAME":"安平區","LI":"建平里","LIN":"25鄰","STREET":"建平九街","SECT":" ","MAREA":" ","LANE":"６０巷","ALLEY":" ","HOUSE_NO":"４６號","E_COORD97":166034.59,"N_COORD97":2543608.1200000001,"ADDRESS":"建平九街６０巷４６號","OBJECTID":492571},"geometry":{"x":166034.59000000078,"y":2543608.1200000029}},{"attributes":{"ID":492599,"DIS_CODE":0,"TOWNNAME":"仁德區","LI":"後壁里","LIN":"25鄰","STREET":"德糖路","SECT":" ","MAREA":" ","LANE":" ","ALLEY":" ","HOUSE_NO":"５３６號","E_COORD97":173163.28,"N_COORD97":2539062.27,"ADDRESS":"德糖路５３６號","OBJECTID":492572},"geometry":{"x":173163.28000000212,"y":2539062.2700000014}},{"attributes":{"ID":492600,"DIS_CODE":0,"TOWNNAME":"安南區","LI":"溪墘里","LIN":"25鄰","STREET":"安寧街","SECT":" ","MAREA":" ","LANE":"９巷","ALLEY":" ","HOUSE_NO":"５號","E_COORD97":167409.42000000001,"N_COORD97":2546872.75,"ADDRESS":"安寧街９巷５號","OBJECTID":492573},"geometry":{"x":167409.41999999993,"y":2546872.75}},{"attributes":{"ID":492601,"DIS_CODE":0,"TOWNNAME":"永康區","LI":"復華里","LIN":"25鄰","STREET":"復華八街","SECT":" ","MAREA":" ","LANE":"５１巷","ALLEY":" ","HOUSE_NO":"４９號","E_COORD97":172640.41,"N_COORD97":2546426.3700000001,"ADDRESS":"復華八街５１巷４９號","OBJECTID":492574},"geometry":{"x":172640.41000000108,"y":2546426.3699999992}},{"attributes":{"ID":492602,"DIS_CODE":0,"TOWNNAME":"南區","LI":"新興里","LIN":"13鄰","STREET":"夏林路","SECT":" ","MAREA":" ","LANE":"２２２巷","ALLEY":" ","HOUSE_NO":"６號","E_COORD97":167423.97,"N_COORD97":2542240.3100000001,"ADDRESS":"夏林路２２２巷６號","OBJECTID":492575},"geometry":{"x":167423.97000000067,"y":2542240.3100000024}},{"attributes":{"ID":492603,"DIS_CODE":0,"TOWNNAME":"東區","LI":"大同里","LIN":"25鄰","STREET":"大同路","SECT":"一段","MAREA":" ","LANE":"２７５巷","ALLEY":" ","HOUSE_NO":"１１號二樓","E_COORD97":169207.39000000001,"N_COORD97":2542563.02,"ADDRESS":"大同路一段２７５巷１１號二樓","OBJECTID":492576},"geometry":{"x":169207.3900000006,"y":2542563.0200000014}},{"attributes":{"ID":492604,"DIS_CODE":0,"TOWNNAME":"永康區","LI":"崑山里","LIN":"25鄰","STREET":"大仁街","SECT":" ","MAREA":" ","LANE":"５１巷","ALLEY":" ","HOUSE_NO":"１２之１號二樓","E_COORD97":173735.70999999999,"N_COORD97":2544686.8799999999,"ADDRESS":"大仁街５１巷１２之１號二樓","OBJECTID":492577},"geometry":{"x":173735.70999999996,"y":2544686.879999999}},{"attributes":{"ID":492605,"DIS_CODE":0,"TOWNNAME":"永康區","LI":"崑山里","LIN":"25鄰","STREET":"大仁街","SECT":" ","MAREA":" ","LANE":"５１巷","ALLEY":" ","HOUSE_NO":"１２之１號三樓","E_COORD97":173735.70999999999,"N_COORD97":2544686.8799999999,"ADDRESS":"大仁街５１巷１２之１號三樓","OBJECTID":492578},"geometry":{"x":173735.70999999996,"y":2544686.879999999}},{"attributes":{"ID":492606,"DIS_CODE":0,"TOWNNAME":"永康區","LI":"崑山里","LIN":"25鄰","STREET":"大仁街","SECT":" ","MAREA":" ","LANE":"５１巷","ALLEY":" ","HOUSE_NO":"１２之１號四樓","E_COORD97":173731.64000000001,"N_COORD97":2544686.8300000001,"ADDRESS":"大仁街５１巷１２之１號四樓","OBJECTID":492579},"geometry":{"x":173731.64000000153,"y":2544686.8300000038}},{"attributes":{"ID":492607,"DIS_CODE":0,"TOWNNAME":"永康區","LI":"崑山里","LIN":"25鄰","STREET":"大仁街","SECT":" ","MAREA":" ","LANE":"５１巷","ALLEY":" ","HOUSE_NO":"１２之１號五樓","E_COORD97":173731.64000000001,"N_COORD97":2544686.8300000001,"ADDRESS":"大仁街５１巷１２之１號五樓","OBJECTID":492580},"geometry":{"x":173731.64000000153,"y":2544686.8300000038}},{"attributes":{"ID":492608,"DIS_CODE":0,"TOWNNAME":"永康區","LI":"復國里","LIN":"25鄰","STREET":"復華三街","SECT":" ","MAREA":" ","LANE":"９０巷","ALLEY":" ","HOUSE_NO":"１８號十六樓之６","E_COORD97":172628.41,"N_COORD97":2545594.3500000001,"ADDRESS":"復華三街９０巷１８號十六樓之６","OBJECTID":492581},"geometry":{"x":172628.41000000201,"y":2545594.3499999978}},{"attributes":{"ID":492609,"DIS_CODE":0,"TOWNNAME":"安南區","LI":"淵東里","LIN":"4鄰","STREET":"智安二街","SECT":" ","MAREA":" ","LANE":"５０巷","ALLEY":" ","HOUSE_NO":"３５號","E_COORD97":165807.09,"N_COORD97":2550265.98,"ADDRESS":"智安二街５０巷３５號","OBJECTID":492582},"geometry":{"x":165807.09000000171,"y":2550265.9800000004}},{"attributes":{"ID":492610,"DIS_CODE":0,"TOWNNAME":"中西區","LI":"大南里","LIN":"4鄰","STREET":"南門路","SECT":" ","MAREA":" ","LANE":"６８巷","ALLEY":" ","HOUSE_NO":"１０號五樓","E_COORD97":168298.47,"N_COORD97":2542523.6699999999,"ADDRESS":"南門路６８巷１０號五樓","OBJECTID":492583},"geometry":{"x":168298.47000000067,"y":2542523.6699999999}},{"attributes":{"ID":492611,"DIS_CODE":0,"TOWNNAME":"北區","LI":"大山里","LIN":"4鄰","STREET":"和緯路","SECT":"一段","MAREA":" ","LANE":"十二九巷","ALLEY":" ","HOUSE_NO":"３號","E_COORD97":169408.79999999999,"N_COORD97":2545561.5899999999,"ADDRESS":"和緯路一段十二九巷３號","OBJECTID":492584},"geometry":{"x":169408.79999999981,"y":2545561.5899999999}},{"attributes":{"ID":492612,"DIS_CODE":0,"TOWNNAME":"北區","LI":"實踐里","LIN":"8鄰","STREET":"長榮路","SECT":"五段","MAREA":" ","LANE":"２９８巷","ALLEY":" ","HOUSE_NO":"１７號三樓之１","E_COORD97":169723.56,"N_COORD97":2545993.52,"ADDRESS":"長榮路五段２９８巷１７號三樓之１","OBJECTID":492585},"geometry":{"x":169723.56000000052,"y":2545993.5200000033}},{"attributes":{"ID":492613,"DIS_CODE":0,"TOWNNAME":"北區","LI":"實踐里","LIN":"8鄰","STREET":"長榮路","SECT":"五段","MAREA":" ","LANE":"２９８巷","ALLEY":" ","HOUSE_NO":"１７號三樓之２","E_COORD97":169723.56,"N_COORD97":2545993.52,"ADDRESS":"長榮路五段２９８巷１７號三樓之２","OBJECTID":492586},"geometry":{"x":169723.56000000052,"y":2545993.5200000033}},{"attributes":{"ID":492614,"DIS_CODE":0,"TOWNNAME":"北區","LI":"實踐里","LIN":"8鄰","STREET":"長榮路","SECT":"五段","MAREA":" ","LANE":"２９８巷","ALLEY":" ","HOUSE_NO":"１７號三樓之３","E_COORD97":169723.56,"N_COORD97":2545993.52,"ADDRESS":"長榮路五段２９８巷１７號三樓之３","OBJECTID":492587},"geometry":{"x":169723.56000000052,"y":2545993.5200000033}},{"attributes":{"ID":492615,"DIS_CODE":0,"TOWNNAME":"北區","LI":"實踐里","LIN":"8鄰","STREET":"長榮路","SECT":"五段","MAREA":" ","LANE":"２９８巷","ALLEY":" ","HOUSE_NO":"１７號三樓之５","E_COORD97":169723.56,"N_COORD97":2545993.52,"ADDRESS":"長榮路五段２９８巷１７號三樓之５","OBJECTID":492588},"geometry":{"x":169723.56000000052,"y":2545993.5200000033}},{"attributes":{"ID":492616,"DIS_CODE":0,"TOWNNAME":"北區","LI":"實踐里","LIN":"8鄰","STREET":"長榮路","SECT":"五段","MAREA":" ","LANE":"２９８巷","ALLEY":" ","HOUSE_NO":"９號三樓之１","E_COORD97":169721.70999999999,"N_COORD97":2545966.27,"ADDRESS":"長榮路五段２９８巷９號三樓之１","OBJECTID":492589},"geometry":{"x":169721.70999999996,"y":2545966.2700000014}},{"attributes":{"ID":492617,"DIS_CODE":0,"TOWNNAME":"北區","LI":"實踐里","LIN":"8鄰","STREET":"長榮路","SECT":"五段","MAREA":" ","LANE":"２９８巷","ALLEY":" ","HOUSE_NO":"９號三樓之２","E_COORD97":169721.70999999999,"N_COORD97":2545966.27,"ADDRESS":"長榮路五段２９８巷９號三樓之２","OBJECTID":492590},"geometry":{"x":169721.70999999996,"y":2545966.2700000014}},{"attributes":{"ID":492618,"DIS_CODE":0,"TOWNNAME":"北區","LI":"實踐里","LIN":"8鄰","STREET":"長榮路","SECT":"五段","MAREA":" ","LANE":"２９８巷","ALLEY":" ","HOUSE_NO":"１號三樓之１","E_COORD97":169721.60000000001,"N_COORD97":2545948.5600000001,"ADDRESS":"長榮路五段２９８巷１號三樓之１","OBJECTID":492591},"geometry":{"x":169721.60000000056,"y":2545948.5600000005}},{"attributes":{"ID":492619,"DIS_CODE":0,"TOWNNAME":"北區","LI":"實踐里","LIN":"8鄰","STREET":"長榮路","SECT":"五段","MAREA":" ","LANE":"２９８巷","ALLEY":" ","HOUSE_NO":"１號三樓之２","E_COORD97":169721.60000000001,"N_COORD97":2545948.5600000001,"ADDRESS":"長榮路五段２９８巷１號三樓之２","OBJECTID":492592},"geometry":{"x":169721.60000000056,"y":2545948.5600000005}},{"attributes":{"ID":492620,"DIS_CODE":0,"TOWNNAME":"北區","LI":"實踐里","LIN":"8鄰","STREET":"長榮路","SECT":"五段","MAREA":" ","LANE":"２９８巷","ALLEY":" ","HOUSE_NO":"１７號四樓之１","E_COORD97":169723.56,"N_COORD97":2545993.52,"ADDRESS":"長榮路五段２９８巷１７號四樓之１","OBJECTID":492593},"geometry":{"x":169723.56000000052,"y":2545993.5200000033}},{"attributes":{"ID":492621,"DIS_CODE":0,"TOWNNAME":"北區","LI":"實踐里","LIN":"8鄰","STREET":"長榮路","SECT":"五段","MAREA":" ","LANE":"２９８巷","ALLEY":" ","HOUSE_NO":"１７號四樓之２","E_COORD97":169723.56,"N_COORD97":2545993.52,"ADDRESS":"長榮路五段２９８巷１７號四樓之２","OBJECTID":492594},"geometry":{"x":169723.56000000052,"y":2545993.5200000033}},{"attributes":{"ID":492622,"DIS_CODE":0,"TOWNNAME":"北區","LI":"實踐里","LIN":"8鄰","STREET":"長榮路","SECT":"五段","MAREA":" ","LANE":"２９８巷","ALLEY":" ","HOUSE_NO":"１７號四樓之３","E_COORD97":169723.56,"N_COORD97":2545993.52,"ADDRESS":"長榮路五段２９８巷１７號四樓之３","OBJECTID":492595},"geometry":{"x":169723.56000000052,"y":2545993.5200000033}},{"attributes":{"ID":492623,"DIS_CODE":0,"TOWNNAME":"北區","LI":"實踐里","LIN":"8鄰","STREET":"長榮路","SECT":"五段","MAREA":" ","LANE":"２９８巷","ALLEY":" ","HOUSE_NO":"１７號四樓之５","E_COORD97":169723.56,"N_COORD97":2545993.52,"ADDRESS":"長榮路五段２９８巷１７號四樓之５","OBJECTID":492596},"geometry":{"x":169723.56000000052,"y":2545993.5200000033}},{"attributes":{"ID":492624,"DIS_CODE":0,"TOWNNAME":"北區","LI":"實踐里","LIN":"8鄰","STREET":"長榮路","SECT":"五段","MAREA":" ","LANE":"２９８巷","ALLEY":" ","HOUSE_NO":"９號四樓之１","E_COORD97":169721.70999999999,"N_COORD97":2545966.27,"ADDRESS":"長榮路五段２９８巷９號四樓之１","OBJECTID":492597},"geometry":{"x":169721.70999999996,"y":2545966.2700000014}},{"attributes":{"ID":492625,"DIS_CODE":0,"TOWNNAME":"北區","LI":"實踐里","LIN":"8鄰","STREET":"長榮路","SECT":"五段","MAREA":" ","LANE":"２９８巷","ALLEY":" ","HOUSE_NO":"９號四樓之２","E_COORD97":169721.70999999999,"N_COORD97":2545966.27,"ADDRESS":"長榮路五段２９８巷９號四樓之２","OBJECTID":492598},"geometry":{"x":169721.70999999996,"y":2545966.2700000014}},{"attributes":{"ID":492626,"DIS_CODE":0,"TOWNNAME":"歸仁區","LI":"南保里","LIN":"46鄰","STREET":"大順街","SECT":" ","MAREA":" ","LANE":"２００巷","ALLEY":" ","HOUSE_NO":"１０號","E_COORD97":176855.72,"N_COORD97":2540643.04,"ADDRESS":"大順街２００巷１０號","OBJECTID":492599},"geometry":{"x":176855.72000000067,"y":2540643.0400000028}},{"attributes":{"ID":492627,"DIS_CODE":0,"TOWNNAME":"歸仁區","LI":"南保里","LIN":"46鄰","STREET":"民權十街","SECT":" ","MAREA":" ","LANE":"６３巷","ALLEY":" ","HOUSE_NO":"２１號","E_COORD97":176778.91,"N_COORD97":2540636.2999999998,"ADDRESS":"民權十街６３巷２１號","OBJECTID":492600},"geometry":{"x":176778.91000000108,"y":2540636.3000000026}}]}