{"displayFieldName":"TOWNNAME","fieldAliases":{"ID":"ID","DIS_CODE":"DIS_CODE","TOWNNAME":"TOWNNAME","LI":"LI","LIN":"LIN","STREET":"STREET","SECT":"SECT","MAREA":"MAREA","LANE":"LANE","ALLEY":"ALLEY","HOUSE_NO":"HOUSE_NO","E_COORD97":"E_COORD97","N_COORD97":"N_COORD97","ADDRESS":"ADDRESS","OBJECTID":"OBJECTID"},"geometryType":"esriGeometryPoint","spatialReference":{"wkid":102443,"latestWkid":3826},"fields":[{"name":"ID","type":"esriFieldTypeDouble","alias":"ID"},{"name":"DIS_CODE","type":"esriFieldTypeInteger","alias":"DIS_CODE"},{"name":"TOWNNAME","type":"esriFieldTypeString","alias":"TOWNNAME","length":8},{"name":"LI","type":"esriFieldTypeString","alias":"LI","length":8},{"name":"LIN","type":"esriFieldTypeString","alias":"LIN","length":12},{"name":"STREET","type":"esriFieldTypeString","alias":"STREET","length":20},{"name":"SECT","type":"esriFieldTypeString","alias":"SECT","length":8},{"name":"MAREA","type":"esriFieldTypeString","alias":"MAREA","length":12},{"name":"LANE","type":"esriFieldTypeString","alias":"LANE","length":10},{"name":"ALLEY","type":"esriFieldTypeString","alias":"ALLEY","length":10},{"name":"HOUSE_NO","type":"esriFieldTypeString","alias":"HOUSE_NO","length":20},{"name":"E_COORD97","type":"esriFieldTypeDouble","alias":"E_COORD97"},{"name":"N_COORD97","type":"esriFieldTypeDouble","alias":"N_COORD97"},{"name":"ADDRESS","type":"esriFieldTypeString","alias":"ADDRESS","length":50},{"name":"OBJECTID","type":"esriFieldTypeOID","alias":"OBJECTID"}],"features":[{"attributes":{"ID":116601,"DIS_CODE":0,"TOWNNAME":"永康區","LI":"光復里","LIN":"23鄰","STREET":"復興路","SECT":" ","MAREA":" ","LANE":"１２８巷","ALLEY":"１弄","HOUSE_NO":"５號二樓","E_COORD97":172704.92999999999,"N_COORD97":2544368.0299999998,"ADDRESS":"復興路１２８巷１弄５號二樓","OBJECTID":116601},"geometry":{"x":172704.9299999997,"y":2544368.0299999993}},{"attributes":{"ID":116602,"DIS_CODE":0,"TOWNNAME":"永康區","LI":"光復里","LIN":"23鄰","STREET":"復興路","SECT":" ","MAREA":" ","LANE":"１２８巷","ALLEY":"１弄","HOUSE_NO":"７號五樓","E_COORD97":172694.79000000001,"N_COORD97":2544368.0299999998,"ADDRESS":"復興路１２８巷１弄７號五樓","OBJECTID":116602},"geometry":{"x":172694.79000000004,"y":2544368.0299999993}},{"attributes":{"ID":116603,"DIS_CODE":0,"TOWNNAME":"永康區","LI":"光復里","LIN":"23鄰","STREET":"復興路","SECT":" ","MAREA":" ","LANE":"１２８巷","ALLEY":"１弄","HOUSE_NO":"５號四樓","E_COORD97":172704.92999999999,"N_COORD97":2544368.0299999998,"ADDRESS":"復興路１２８巷１弄５號四樓","OBJECTID":116603},"geometry":{"x":172704.9299999997,"y":2544368.0299999993}},{"attributes":{"ID":116604,"DIS_CODE":0,"TOWNNAME":"永康區","LI":"光復里","LIN":"23鄰","STREET":"復興路","SECT":" ","MAREA":" ","LANE":"１２８巷","ALLEY":"１弄","HOUSE_NO":"５號三樓","E_COORD97":172704.92999999999,"N_COORD97":2544368.0299999998,"ADDRESS":"復興路１２８巷１弄５號三樓","OBJECTID":116604},"geometry":{"x":172704.9299999997,"y":2544368.0299999993}},{"attributes":{"ID":116605,"DIS_CODE":0,"TOWNNAME":"永康區","LI":"光復里","LIN":"23鄰","STREET":"復興路","SECT":" ","MAREA":" ","LANE":"１２８巷","ALLEY":"１弄","HOUSE_NO":"７號二樓","E_COORD97":172694.79000000001,"N_COORD97":2544368.0299999998,"ADDRESS":"復興路１２８巷１弄７號二樓","OBJECTID":116605},"geometry":{"x":172694.79000000004,"y":2544368.0299999993}},{"attributes":{"ID":116606,"DIS_CODE":0,"TOWNNAME":"永康區","LI":"光復里","LIN":"23鄰","STREET":"復興路","SECT":" ","MAREA":" ","LANE":"１２８巷","ALLEY":"１弄","HOUSE_NO":"７號三樓","E_COORD97":172694.79000000001,"N_COORD97":2544368.0299999998,"ADDRESS":"復興路１２８巷１弄７號三樓","OBJECTID":116606},"geometry":{"x":172694.79000000004,"y":2544368.0299999993}},{"attributes":{"ID":116607,"DIS_CODE":0,"TOWNNAME":"仁德區","LI":"後壁里","LIN":"23鄰","STREET":"中正路","SECT":"二段","MAREA":" ","LANE":"９７巷","ALLEY":"６４弄","HOUSE_NO":"１４號四樓之２","E_COORD97":173147.14000000001,"N_COORD97":2538594.29,"ADDRESS":"中正路二段９７巷６４弄１４號四樓之２","OBJECTID":116607},"geometry":{"x":173147.1400000006,"y":2538594.290000001}},{"attributes":{"ID":116608,"DIS_CODE":0,"TOWNNAME":"仁德區","LI":"仁愛里","LIN":"29鄰","STREET":"亞航街","SECT":" ","MAREA":" ","LANE":"１９８巷","ALLEY":" ","HOUSE_NO":"５８號","E_COORD97":170034.64499999999,"N_COORD97":2539048.835,"ADDRESS":"亞航街１９８巷５８號","OBJECTID":116608},"geometry":{"x":170034.64500000048,"y":2539048.8350000028}},{"attributes":{"ID":116609,"DIS_CODE":0,"TOWNNAME":"北門區","LI":"雙春里","LIN":"4鄰","STREET":" ","SECT":" ","MAREA":"雙春","LANE":" ","ALLEY":" ","HOUSE_NO":"３０號之１０","E_COORD97":160816.39000000001,"N_COORD97":2577802.27,"ADDRESS":"雙春３０號之１０","OBJECTID":116609},"geometry":{"x":160816.3900000006,"y":2577802.2699999996}},{"attributes":{"ID":116610,"DIS_CODE":0,"TOWNNAME":"北門區","LI":"雙春里","LIN":"4鄰","STREET":" ","SECT":" ","MAREA":"雙春","LANE":" ","ALLEY":" ","HOUSE_NO":"３０號之１１","E_COORD97":160809.73000000001,"N_COORD97":2577801.6099999999,"ADDRESS":"雙春３０號之１１","OBJECTID":116610},"geometry":{"x":160809.73000000138,"y":2577801.6100000013}},{"attributes":{"ID":116611,"DIS_CODE":0,"TOWNNAME":"北門區","LI":"雙春里","LIN":"4鄰","STREET":" ","SECT":" ","MAREA":"雙春","LANE":" ","ALLEY":" ","HOUSE_NO":"３０號之２","E_COORD97":160850.35999999999,"N_COORD97":2577804.0899999999,"ADDRESS":"雙春３０號之２","OBJECTID":116611},"geometry":{"x":160850.36000000034,"y":2577804.0899999999}},{"attributes":{"ID":116612,"DIS_CODE":0,"TOWNNAME":"北門區","LI":"雙春里","LIN":"4鄰","STREET":" ","SECT":" ","MAREA":"雙春","LANE":" ","ALLEY":" ","HOUSE_NO":"３０號之３","E_COORD97":160846.20999999999,"N_COORD97":2577803.6699999999,"ADDRESS":"雙春３０號之３","OBJECTID":116612},"geometry":{"x":160846.21000000183,"y":2577803.6699999999}},{"attributes":{"ID":116613,"DIS_CODE":0,"TOWNNAME":"白河區","LI":"蓮潭里","LIN":"1鄰","STREET":" ","SECT":" ","MAREA":"三角潭","LANE":" ","ALLEY":" ","HOUSE_NO":"１０號","E_COORD97":190018.26000000001,"N_COORD97":2589691.3500000001,"ADDRESS":"三角潭１０號","OBJECTID":116613},"geometry":{"x":190018.26000000164,"y":2589691.3500000015}},{"attributes":{"ID":116614,"DIS_CODE":0,"TOWNNAME":"白河區","LI":"蓮潭里","LIN":"1鄰","STREET":" ","SECT":" ","MAREA":"三角潭","LANE":" ","ALLEY":" ","HOUSE_NO":"１１之５號","E_COORD97":189949.89999999999,"N_COORD97":2589728.1200000001,"ADDRESS":"三角潭１１之５號","OBJECTID":116614},"geometry":{"x":189949.90000000037,"y":2589728.1200000029}},{"attributes":{"ID":116615,"DIS_CODE":0,"TOWNNAME":"白河區","LI":"蓮潭里","LIN":"1鄰","STREET":" ","SECT":" ","MAREA":"三角潭","LANE":" ","ALLEY":" ","HOUSE_NO":"１１號","E_COORD97":190023.75,"N_COORD97":2589733.9199999999,"ADDRESS":"三角潭１１號","OBJECTID":116615},"geometry":{"x":190023.75000000093,"y":2589733.9200000037}},{"attributes":{"ID":116616,"DIS_CODE":0,"TOWNNAME":"白河區","LI":"蓮潭里","LIN":"1鄰","STREET":" ","SECT":" ","MAREA":"三角潭","LANE":" ","ALLEY":" ","HOUSE_NO":"１２號","E_COORD97":190035.07000000001,"N_COORD97":2589653.8500000001,"ADDRESS":"三角潭１２號","OBJECTID":116616},"geometry":{"x":190035.0700000003,"y":2589653.8500000015}},{"attributes":{"ID":116617,"DIS_CODE":0,"TOWNNAME":"白河區","LI":"蓮潭里","LIN":"1鄰","STREET":" ","SECT":" ","MAREA":"三角潭","LANE":" ","ALLEY":" ","HOUSE_NO":"１３號","E_COORD97":190023.88,"N_COORD97":2589651.0699999998,"ADDRESS":"三角潭１３號","OBJECTID":116617},"geometry":{"x":190023.87999999989,"y":2589651.0700000003}},{"attributes":{"ID":116618,"DIS_CODE":0,"TOWNNAME":"白河區","LI":"蓮潭里","LIN":"1鄰","STREET":" ","SECT":" ","MAREA":"三角潭","LANE":" ","ALLEY":" ","HOUSE_NO":"１５號","E_COORD97":190001.51000000001,"N_COORD97":2589663.5899999999,"ADDRESS":"三角潭１５號","OBJECTID":116618},"geometry":{"x":190001.51000000071,"y":2589663.5899999999}},{"attributes":{"ID":116619,"DIS_CODE":0,"TOWNNAME":"白河區","LI":"蓮潭里","LIN":"1鄰","STREET":" ","SECT":" ","MAREA":"三角潭","LANE":" ","ALLEY":" ","HOUSE_NO":"１之１１號","E_COORD97":190186.57999999999,"N_COORD97":2589599.2200000002,"ADDRESS":"三角潭１之１１號","OBJECTID":116619},"geometry":{"x":190186.58000000101,"y":2589599.2200000007}},{"attributes":{"ID":116620,"DIS_CODE":0,"TOWNNAME":"白河區","LI":"蓮潭里","LIN":"1鄰","STREET":" ","SECT":" ","MAREA":"三角潭","LANE":" ","ALLEY":" ","HOUSE_NO":"１之１３號","E_COORD97":190314.14000000001,"N_COORD97":2589513.71,"ADDRESS":"三角潭１之１３號","OBJECTID":116620},"geometry":{"x":190314.1400000006,"y":2589513.7100000028}},{"attributes":{"ID":116621,"DIS_CODE":0,"TOWNNAME":"白河區","LI":"蓮潭里","LIN":"1鄰","STREET":" ","SECT":" ","MAREA":"三角潭","LANE":" ","ALLEY":" ","HOUSE_NO":"１之１５號","E_COORD97":190178.98999999999,"N_COORD97":2589574.1299999999,"ADDRESS":"三角潭１之１５號","OBJECTID":116621},"geometry":{"x":190178.99000000115,"y":2589574.129999999}},{"attributes":{"ID":116622,"DIS_CODE":0,"TOWNNAME":"白河區","LI":"蓮潭里","LIN":"1鄰","STREET":" ","SECT":" ","MAREA":"三角潭","LANE":" ","ALLEY":" ","HOUSE_NO":"１之１６號","E_COORD97":190178.44,"N_COORD97":2589570.0899999999,"ADDRESS":"三角潭１之１６號","OBJECTID":116622},"geometry":{"x":190178.44000000041,"y":2589570.0900000036}},{"attributes":{"ID":116623,"DIS_CODE":0,"TOWNNAME":"白河區","LI":"蓮潭里","LIN":"1鄰","STREET":" ","SECT":" ","MAREA":"三角潭","LANE":" ","ALLEY":" ","HOUSE_NO":"１之１７號","E_COORD97":190178.07999999999,"N_COORD97":2589566.5499999998,"ADDRESS":"三角潭１之１７號","OBJECTID":116623},"geometry":{"x":190178.08000000101,"y":2589566.5500000007}},{"attributes":{"ID":116624,"DIS_CODE":0,"TOWNNAME":"白河區","LI":"蓮潭里","LIN":"1鄰","STREET":" ","SECT":" ","MAREA":"三角潭","LANE":" ","ALLEY":" ","HOUSE_NO":"１之２０號","E_COORD97":190231.47,"N_COORD97":2589579.2400000002,"ADDRESS":"三角潭１之２０號","OBJECTID":116624},"geometry":{"x":190231.46999999974,"y":2589579.2400000039}},{"attributes":{"ID":116625,"DIS_CODE":0,"TOWNNAME":"白河區","LI":"蓮潭里","LIN":"1鄰","STREET":" ","SECT":" ","MAREA":"三角潭","LANE":" ","ALLEY":" ","HOUSE_NO":"１之２１號","E_COORD97":190214.98999999999,"N_COORD97":2589560.0299999998,"ADDRESS":"三角潭１之２１號","OBJECTID":116625},"geometry":{"x":190214.99000000022,"y":2589560.0300000012}},{"attributes":{"ID":116626,"DIS_CODE":0,"TOWNNAME":"白河區","LI":"蓮潭里","LIN":"1鄰","STREET":" ","SECT":" ","MAREA":"三角潭","LANE":" ","ALLEY":" ","HOUSE_NO":"１之２２號","E_COORD97":190200.48999999999,"N_COORD97":2589550.75,"ADDRESS":"三角潭１之２２號","OBJECTID":116626},"geometry":{"x":190200.49000000115,"y":2589550.75}},{"attributes":{"ID":116627,"DIS_CODE":0,"TOWNNAME":"白河區","LI":"蓮潭里","LIN":"1鄰","STREET":" ","SECT":" ","MAREA":"三角潭","LANE":" ","ALLEY":" ","HOUSE_NO":"１之２５號","E_COORD97":190187.92000000001,"N_COORD97":2589556.2000000002,"ADDRESS":"三角潭１之２５號","OBJECTID":116627},"geometry":{"x":190187.91999999993,"y":2589556.2000000011}},{"attributes":{"ID":116628,"DIS_CODE":0,"TOWNNAME":"七股區","LI":"篤加里","LIN":"4鄰","STREET":" ","SECT":" ","MAREA":"篤加","LANE":" ","ALLEY":" ","HOUSE_NO":"３９號","E_COORD97":160859.79000000001,"N_COORD97":2562261.02,"ADDRESS":"篤加３９號","OBJECTID":116628},"geometry":{"x":160859.79000000097,"y":2562261.0200000014}},{"attributes":{"ID":116629,"DIS_CODE":0,"TOWNNAME":"白河區","LI":"蓮潭里","LIN":"1鄰","STREET":" ","SECT":" ","MAREA":"三角潭","LANE":" ","ALLEY":" ","HOUSE_NO":"１之２７號","E_COORD97":190072.07000000001,"N_COORD97":2589433.9100000001,"ADDRESS":"三角潭１之２７號","OBJECTID":116629},"geometry":{"x":190072.0700000003,"y":2589433.910000002}},{"attributes":{"ID":116630,"DIS_CODE":0,"TOWNNAME":"白河區","LI":"蓮潭里","LIN":"1鄰","STREET":" ","SECT":" ","MAREA":"三角潭","LANE":" ","ALLEY":" ","HOUSE_NO":"１之２號","E_COORD97":190264.54000000001,"N_COORD97":2589571.1800000002,"ADDRESS":"三角潭１之２號","OBJECTID":116630},"geometry":{"x":190264.54000000097,"y":2589571.1799999997}},{"attributes":{"ID":116631,"DIS_CODE":0,"TOWNNAME":"白河區","LI":"蓮潭里","LIN":"1鄰","STREET":" ","SECT":" ","MAREA":"三角潭","LANE":" ","ALLEY":" ","HOUSE_NO":"１之３０號","E_COORD97":190007.28,"N_COORD97":2589294.48,"ADDRESS":"三角潭１之３０號","OBJECTID":116631},"geometry":{"x":190007.28000000119,"y":2589294.4800000023}},{"attributes":{"ID":116632,"DIS_CODE":0,"TOWNNAME":"北門區","LI":"雙春里","LIN":"4鄰","STREET":" ","SECT":" ","MAREA":"雙春","LANE":" ","ALLEY":" ","HOUSE_NO":"３０號之４","E_COORD97":160841.89999999999,"N_COORD97":2577803.3599999999,"ADDRESS":"雙春３０號之４","OBJECTID":116632},"geometry":{"x":160841.89999999944,"y":2577803.3600000013}},{"attributes":{"ID":116633,"DIS_CODE":0,"TOWNNAME":"仁德區","LI":"後壁里","LIN":"23鄰","STREET":"中正路","SECT":"二段","MAREA":" ","LANE":"９７巷","ALLEY":"６４弄","HOUSE_NO":"１４號三樓之３","E_COORD97":173147.10999999999,"N_COORD97":2538594.29,"ADDRESS":"中正路二段９７巷６４弄１４號三樓之３","OBJECTID":116633},"geometry":{"x":173147.11000000034,"y":2538594.290000001}},{"attributes":{"ID":116634,"DIS_CODE":0,"TOWNNAME":"白河區","LI":"昇安里","LIN":"1鄰","STREET":" ","SECT":" ","MAREA":"三間厝","LANE":" ","ALLEY":" ","HOUSE_NO":"１８６之５７號","E_COORD97":190677.10999999999,"N_COORD97":2584747.4300000002,"ADDRESS":"三間厝１８６之５７號","OBJECTID":116634},"geometry":{"x":190677.11000000034,"y":2584747.4300000016}},{"attributes":{"ID":116635,"DIS_CODE":0,"TOWNNAME":"白河區","LI":"昇安里","LIN":"1鄰","STREET":" ","SECT":" ","MAREA":"三間厝","LANE":" ","ALLEY":" ","HOUSE_NO":"１８６之６０號","E_COORD97":190681.81,"N_COORD97":2584821.3599999999,"ADDRESS":"三間厝１８６之６０號","OBJECTID":116635},"geometry":{"x":190681.80999999959,"y":2584821.3600000013}},{"attributes":{"ID":116636,"DIS_CODE":0,"TOWNNAME":"白河區","LI":"昇安里","LIN":"1鄰","STREET":" ","SECT":" ","MAREA":"三間厝","LANE":" ","ALLEY":" ","HOUSE_NO":"１８６之６６號","E_COORD97":190714.89000000001,"N_COORD97":2584744.21,"ADDRESS":"三間厝１８６之６６號","OBJECTID":116636},"geometry":{"x":190714.88999999966,"y":2584744.2100000009}},{"attributes":{"ID":116637,"DIS_CODE":0,"TOWNNAME":"歸仁區","LI":"西埔里","LIN":"3鄰","STREET":"西埔三街","SECT":" ","MAREA":" ","LANE":"５１巷","ALLEY":" ","HOUSE_NO":"８１號","E_COORD97":177112.698064,"N_COORD97":2543987.86785,"ADDRESS":"西埔三街５１巷８１號","OBJECTID":116637},"geometry":{"x":177112.69806400035,"y":2543987.8678520024}},{"attributes":{"ID":116638,"DIS_CODE":0,"TOWNNAME":"白河區","LI":"昇安里","LIN":"1鄰","STREET":" ","SECT":" ","MAREA":"三間厝","LANE":" ","ALLEY":" ","HOUSE_NO":"２之１９號","E_COORD97":191309,"N_COORD97":2584642.4900000002,"ADDRESS":"三間厝２之１９號","OBJECTID":116638},"geometry":{"x":191309.00000000093,"y":2584642.4900000021}},{"attributes":{"ID":116639,"DIS_CODE":0,"TOWNNAME":"新化區","LI":"協興里","LIN":"4鄰","STREET":"中山路","SECT":" ","MAREA":" ","LANE":" ","ALLEY":" ","HOUSE_NO":"５１６號","E_COORD97":178547.91,"N_COORD97":2548435.25,"ADDRESS":"中山路５１６號","OBJECTID":116639},"geometry":{"x":178547.91000000201,"y":2548435.25}},{"attributes":{"ID":116640,"DIS_CODE":0,"TOWNNAME":"歸仁區","LI":"西埔里","LIN":"2鄰","STREET":"西埔三街","SECT":" ","MAREA":" ","LANE":"５１巷","ALLEY":" ","HOUSE_NO":"５號","E_COORD97":176846.27718,"N_COORD97":2544008.82284,"ADDRESS":"西埔三街５１巷５號","OBJECTID":116640},"geometry":{"x":176846.27718000114,"y":2544008.8228399996}},{"attributes":{"ID":116641,"DIS_CODE":0,"TOWNNAME":"白河區","LI":"昇安里","LIN":"1鄰","STREET":" ","SECT":" ","MAREA":"三間厝","LANE":" ","ALLEY":" ","HOUSE_NO":"２之５０號","E_COORD97":191363.87,"N_COORD97":2584621.8100000001,"ADDRESS":"三間厝２之５０號","OBJECTID":116641},"geometry":{"x":191363.87000000197,"y":2584621.8100000005}},{"attributes":{"ID":116642,"DIS_CODE":0,"TOWNNAME":"白河區","LI":"昇安里","LIN":"1鄰","STREET":" ","SECT":" ","MAREA":"三間厝","LANE":" ","ALLEY":" ","HOUSE_NO":"２之５１號","E_COORD97":191362.56,"N_COORD97":2584625.9199999999,"ADDRESS":"三間厝２之５１號","OBJECTID":116642},"geometry":{"x":191362.56000000052,"y":2584625.9200000018}},{"attributes":{"ID":116643,"DIS_CODE":0,"TOWNNAME":"白河區","LI":"昇安里","LIN":"1鄰","STREET":" ","SECT":" ","MAREA":"三間厝","LANE":" ","ALLEY":" ","HOUSE_NO":"３８３號","E_COORD97":191593.54999999999,"N_COORD97":2585712.8999999999,"ADDRESS":"三間厝３８３號","OBJECTID":116643},"geometry":{"x":191593.55000000075,"y":2585712.9000000004}},{"attributes":{"ID":116644,"DIS_CODE":0,"TOWNNAME":"白河區","LI":"昇安里","LIN":"1鄰","STREET":" ","SECT":" ","MAREA":"三間厝","LANE":" ","ALLEY":" ","HOUSE_NO":"３８４號","E_COORD97":191594.94,"N_COORD97":2585717.1800000002,"ADDRESS":"三間厝３８４號","OBJECTID":116644},"geometry":{"x":191594.94000000134,"y":2585717.1799999997}},{"attributes":{"ID":116645,"DIS_CODE":0,"TOWNNAME":"東區","LI":"虎尾里","LIN":"23鄰","STREET":"東成街","SECT":" ","MAREA":" ","LANE":"１８２巷","ALLEY":"１弄","HOUSE_NO":"１１號二樓","E_COORD97":171812.98999999999,"N_COORD97":2542281.04,"ADDRESS":"東成街１８２巷１弄１１號二樓","OBJECTID":116645},"geometry":{"x":171812.99000000115,"y":2542281.040000001}},{"attributes":{"ID":116646,"DIS_CODE":0,"TOWNNAME":"東區","LI":"虎尾里","LIN":"23鄰","STREET":"東成街","SECT":" ","MAREA":" ","LANE":"１８２巷","ALLEY":"１弄","HOUSE_NO":"１１號三樓","E_COORD97":171812.98999999999,"N_COORD97":2542281.04,"ADDRESS":"東成街１８２巷１弄１１號三樓","OBJECTID":116646},"geometry":{"x":171812.99000000115,"y":2542281.040000001}},{"attributes":{"ID":116647,"DIS_CODE":0,"TOWNNAME":"東區","LI":"虎尾里","LIN":"23鄰","STREET":"東成街","SECT":" ","MAREA":" ","LANE":"１８２巷","ALLEY":"１弄","HOUSE_NO":"１１號四樓","E_COORD97":171812.98999999999,"N_COORD97":2542281.04,"ADDRESS":"東成街１８２巷１弄１１號四樓","OBJECTID":116647},"geometry":{"x":171812.99000000115,"y":2542281.040000001}},{"attributes":{"ID":116648,"DIS_CODE":0,"TOWNNAME":"麻豆區","LI":"小埤里","LIN":"1鄰","STREET":" ","SECT":" ","MAREA":"苓子林","LANE":" ","ALLEY":" ","HOUSE_NO":"１號之２２","E_COORD97":171877.57999999999,"N_COORD97":2564712.29,"ADDRESS":"苓子林１號之２２","OBJECTID":116648},"geometry":{"x":171877.58000000007,"y":2564712.2899999991}},{"attributes":{"ID":116649,"DIS_CODE":0,"TOWNNAME":"麻豆區","LI":"小埤里","LIN":"1鄰","STREET":" ","SECT":" ","MAREA":"苓子林","LANE":" ","ALLEY":" ","HOUSE_NO":"１號之２７","E_COORD97":171890.42999999999,"N_COORD97":2564668.5699999998,"ADDRESS":"苓子林１號之２７","OBJECTID":116649},"geometry":{"x":171890.43000000156,"y":2564668.5700000022}},{"attributes":{"ID":116650,"DIS_CODE":0,"TOWNNAME":"麻豆區","LI":"小埤里","LIN":"1鄰","STREET":" ","SECT":" ","MAREA":"苓子林","LANE":" ","ALLEY":" ","HOUSE_NO":"１號之２８","E_COORD97":171871.26000000001,"N_COORD97":2564696.6800000002,"ADDRESS":"苓子林１號之２８","OBJECTID":116650},"geometry":{"x":171871.26000000164,"y":2564696.6799999997}},{"attributes":{"ID":116651,"DIS_CODE":0,"TOWNNAME":"東區","LI":"虎尾里","LIN":"23鄰","STREET":"東成街","SECT":" ","MAREA":" ","LANE":"１８２巷","ALLEY":"１弄","HOUSE_NO":"１號二樓","E_COORD97":171768.23999999999,"N_COORD97":2542277.73,"ADDRESS":"東成街１８２巷１弄１號二樓","OBJECTID":116651},"geometry":{"x":171768.24000000022,"y":2542277.7300000023}},{"attributes":{"ID":116652,"DIS_CODE":0,"TOWNNAME":"永康區","LI":"\u25A0洲里","LIN":"1鄰","STREET":"三村一街","SECT":" ","MAREA":" ","LANE":" ","ALLEY":" ","HOUSE_NO":"１５１號","E_COORD97":171858.37,"N_COORD97":2549270.6400000001,"ADDRESS":"三村一街１５１號","OBJECTID":116652},"geometry":{"x":171858.37000000011,"y":2549270.6400000006}},{"attributes":{"ID":116653,"DIS_CODE":0,"TOWNNAME":"永康區","LI":"\u25A0行里","LIN":"1鄰","STREET":"中正路","SECT":" ","MAREA":" ","LANE":" ","ALLEY":" ","HOUSE_NO":"１００２號","E_COORD97":171885.28,"N_COORD97":2549018,"ADDRESS":"中正路１００２號","OBJECTID":116653},"geometry":{"x":171885.28000000212,"y":2549018}},{"attributes":{"ID":116654,"DIS_CODE":0,"TOWNNAME":"東區","LI":"虎尾里","LIN":"23鄰","STREET":"東成街","SECT":" ","MAREA":" ","LANE":"１８２巷","ALLEY":"１弄","HOUSE_NO":"１號五樓","E_COORD97":171768.23999999999,"N_COORD97":2542277.73,"ADDRESS":"東成街１８２巷１弄１號五樓","OBJECTID":116654},"geometry":{"x":171768.24000000022,"y":2542277.7300000023}},{"attributes":{"ID":116655,"DIS_CODE":0,"TOWNNAME":"東區","LI":"虎尾里","LIN":"23鄰","STREET":"東成街","SECT":" ","MAREA":" ","LANE":"１８２巷","ALLEY":"１弄","HOUSE_NO":"１號四樓","E_COORD97":171768.23999999999,"N_COORD97":2542277.73,"ADDRESS":"東成街１８２巷１弄１號四樓","OBJECTID":116655},"geometry":{"x":171768.24000000022,"y":2542277.7300000023}},{"attributes":{"ID":116656,"DIS_CODE":0,"TOWNNAME":"東區","LI":"虎尾里","LIN":"23鄰","STREET":"東成街","SECT":" ","MAREA":" ","LANE":"１８２巷","ALLEY":"１弄","HOUSE_NO":"３號二樓","E_COORD97":171776.94,"N_COORD97":2542278.5499999998,"ADDRESS":"東成街１８２巷１弄３號二樓","OBJECTID":116656},"geometry":{"x":171776.94000000041,"y":2542278.5500000045}},{"attributes":{"ID":116657,"DIS_CODE":0,"TOWNNAME":"東區","LI":"虎尾里","LIN":"23鄰","STREET":"東成街","SECT":" ","MAREA":" ","LANE":"１８２巷","ALLEY":"１弄","HOUSE_NO":"３號三樓","E_COORD97":171776.94,"N_COORD97":2542278.5499999998,"ADDRESS":"東成街１８２巷１弄３號三樓","OBJECTID":116657},"geometry":{"x":171776.94000000041,"y":2542278.5500000045}},{"attributes":{"ID":116658,"DIS_CODE":0,"TOWNNAME":"東區","LI":"虎尾里","LIN":"23鄰","STREET":"東成街","SECT":" ","MAREA":" ","LANE":"１８２巷","ALLEY":"１弄","HOUSE_NO":"３號五樓","E_COORD97":171776.94,"N_COORD97":2542278.5499999998,"ADDRESS":"東成街１８２巷１弄３號五樓","OBJECTID":116658},"geometry":{"x":171776.94000000041,"y":2542278.5500000045}},{"attributes":{"ID":116659,"DIS_CODE":0,"TOWNNAME":"東區","LI":"虎尾里","LIN":"23鄰","STREET":"東成街","SECT":" ","MAREA":" ","LANE":"１８２巷","ALLEY":"１弄","HOUSE_NO":"３號四樓","E_COORD97":171776.94,"N_COORD97":2542278.5499999998,"ADDRESS":"東成街１８２巷１弄３號四樓","OBJECTID":116659},"geometry":{"x":171776.94000000041,"y":2542278.5500000045}},{"attributes":{"ID":116660,"DIS_CODE":0,"TOWNNAME":"東區","LI":"虎尾里","LIN":"23鄰","STREET":"東成街","SECT":" ","MAREA":" ","LANE":"１８２巷","ALLEY":"１弄","HOUSE_NO":"５號二樓","E_COORD97":171786.32999999999,"N_COORD97":2542279.3799999999,"ADDRESS":"東成街１８２巷１弄５號二樓","OBJECTID":116660},"geometry":{"x":171786.33000000194,"y":2542279.3800000008}},{"attributes":{"ID":116661,"DIS_CODE":0,"TOWNNAME":"東區","LI":"虎尾里","LIN":"23鄰","STREET":"東成街","SECT":" ","MAREA":" ","LANE":"１８２巷","ALLEY":"１弄","HOUSE_NO":"５號四樓","E_COORD97":171786.32999999999,"N_COORD97":2542279.3799999999,"ADDRESS":"東成街１８２巷１弄５號四樓","OBJECTID":116661},"geometry":{"x":171786.33000000194,"y":2542279.3800000008}},{"attributes":{"ID":116662,"DIS_CODE":0,"TOWNNAME":"東區","LI":"虎尾里","LIN":"23鄰","STREET":"東成街","SECT":" ","MAREA":" ","LANE":"１８２巷","ALLEY":"１弄","HOUSE_NO":"７號二樓","E_COORD97":171794.76000000001,"N_COORD97":2542280.21,"ADDRESS":"東成街１８２巷１弄７號二樓","OBJECTID":116662},"geometry":{"x":171794.75999999978,"y":2542280.2100000009}},{"attributes":{"ID":116663,"DIS_CODE":0,"TOWNNAME":"東區","LI":"虎尾里","LIN":"23鄰","STREET":"東成街","SECT":" ","MAREA":" ","LANE":"１８２巷","ALLEY":"１弄","HOUSE_NO":"７號三樓","E_COORD97":171794.76000000001,"N_COORD97":2542280.21,"ADDRESS":"東成街１８２巷１弄７號三樓","OBJECTID":116663},"geometry":{"x":171794.75999999978,"y":2542280.2100000009}},{"attributes":{"ID":116664,"DIS_CODE":0,"TOWNNAME":"東區","LI":"虎尾里","LIN":"23鄰","STREET":"東成街","SECT":" ","MAREA":" ","LANE":"１８２巷","ALLEY":"１弄","HOUSE_NO":"７號五樓","E_COORD97":171794.76000000001,"N_COORD97":2542280.21,"ADDRESS":"東成街１８２巷１弄７號五樓","OBJECTID":116664},"geometry":{"x":171794.75999999978,"y":2542280.2100000009}},{"attributes":{"ID":116665,"DIS_CODE":0,"TOWNNAME":"東區","LI":"虎尾里","LIN":"23鄰","STREET":"東成街","SECT":" ","MAREA":" ","LANE":"１８２巷","ALLEY":"１弄","HOUSE_NO":"７號四樓","E_COORD97":171794.76000000001,"N_COORD97":2542280.21,"ADDRESS":"東成街１８２巷１弄７號四樓","OBJECTID":116665},"geometry":{"x":171794.75999999978,"y":2542280.2100000009}},{"attributes":{"ID":116666,"DIS_CODE":0,"TOWNNAME":"東區","LI":"虎尾里","LIN":"23鄰","STREET":"東成街","SECT":" ","MAREA":" ","LANE":"１８２巷","ALLEY":"１弄","HOUSE_NO":"９號二樓","E_COORD97":171803.60000000001,"N_COORD97":2542280.7599999998,"ADDRESS":"東成街１８２巷１弄９號二樓","OBJECTID":116666},"geometry":{"x":171803.59999999963,"y":2542280.7600000016}},{"attributes":{"ID":116667,"DIS_CODE":0,"TOWNNAME":"東區","LI":"虎尾里","LIN":"23鄰","STREET":"東成街","SECT":" ","MAREA":" ","LANE":"１８２巷","ALLEY":"１弄","HOUSE_NO":"９號三樓","E_COORD97":171803.60000000001,"N_COORD97":2542280.7599999998,"ADDRESS":"東成街１８２巷１弄９號三樓","OBJECTID":116667},"geometry":{"x":171803.59999999963,"y":2542280.7600000016}},{"attributes":{"ID":116668,"DIS_CODE":0,"TOWNNAME":"東區","LI":"虎尾里","LIN":"23鄰","STREET":"東成街","SECT":" ","MAREA":" ","LANE":"１８２巷","ALLEY":"１弄","HOUSE_NO":"９號五樓","E_COORD97":171803.60000000001,"N_COORD97":2542280.7599999998,"ADDRESS":"東成街１８２巷１弄９號五樓","OBJECTID":116668},"geometry":{"x":171803.59999999963,"y":2542280.7600000016}},{"attributes":{"ID":116669,"DIS_CODE":0,"TOWNNAME":"東區","LI":"虎尾里","LIN":"23鄰","STREET":"東成街","SECT":" ","MAREA":" ","LANE":"１８２巷","ALLEY":"１弄","HOUSE_NO":"１１號五樓","E_COORD97":171812.98999999999,"N_COORD97":2542281.04,"ADDRESS":"東成街１８２巷１弄１１號五樓","OBJECTID":116669},"geometry":{"x":171812.99000000115,"y":2542281.040000001}},{"attributes":{"ID":116670,"DIS_CODE":0,"TOWNNAME":"東區","LI":"虎尾里","LIN":"23鄰","STREET":"東成街","SECT":" ","MAREA":" ","LANE":"１８２巷","ALLEY":"１弄","HOUSE_NO":"９號四樓","E_COORD97":171803.60000000001,"N_COORD97":2542280.7599999998,"ADDRESS":"東成街１８２巷１弄９號四樓","OBJECTID":116670},"geometry":{"x":171803.59999999963,"y":2542280.7600000016}},{"attributes":{"ID":116671,"DIS_CODE":0,"TOWNNAME":"麻豆區","LI":"海埔里","LIN":"1鄰","STREET":" ","SECT":" ","MAREA":"埤子尾","LANE":" ","ALLEY":" ","HOUSE_NO":"１３號之６","E_COORD97":169775.76999999999,"N_COORD97":2566539.23,"ADDRESS":"埤子尾１３號之６","OBJECTID":116671},"geometry":{"x":169775.77000000142,"y":2566539.2300000023}},{"attributes":{"ID":116672,"DIS_CODE":0,"TOWNNAME":"麻豆區","LI":"海埔里","LIN":"1鄰","STREET":" ","SECT":" ","MAREA":"埤子尾","LANE":" ","ALLEY":" ","HOUSE_NO":"１號之１０","E_COORD97":169926.25,"N_COORD97":2566525.5,"ADDRESS":"埤子尾１號之１０","OBJECTID":116672},"geometry":{"x":169926.25000000093,"y":2566525.5}},{"attributes":{"ID":116673,"DIS_CODE":0,"TOWNNAME":"麻豆區","LI":"海埔里","LIN":"1鄰","STREET":" ","SECT":" ","MAREA":"埤子尾","LANE":" ","ALLEY":" ","HOUSE_NO":"１號之１５","E_COORD97":169986.22,"N_COORD97":2566602.5499999998,"ADDRESS":"埤子尾１號之１５","OBJECTID":116673},"geometry":{"x":169986.21999999974,"y":2566602.5500000026}},{"attributes":{"ID":116674,"DIS_CODE":0,"TOWNNAME":"麻豆區","LI":"海埔里","LIN":"1鄰","STREET":" ","SECT":" ","MAREA":"埤子尾","LANE":" ","ALLEY":" ","HOUSE_NO":"１號之１","E_COORD97":169915.59,"N_COORD97":2566623.4100000001,"ADDRESS":"埤子尾１號之１","OBJECTID":116674},"geometry":{"x":169915.58999999985,"y":2566623.410000002}},{"attributes":{"ID":116675,"DIS_CODE":0,"TOWNNAME":"麻豆區","LI":"海埔里","LIN":"1鄰","STREET":" ","SECT":" ","MAREA":"埤子尾","LANE":" ","ALLEY":" ","HOUSE_NO":"１號之５","E_COORD97":169879.79999999999,"N_COORD97":2566632.0699999998,"ADDRESS":"埤子尾１號之５","OBJECTID":116675},"geometry":{"x":169879.80000000075,"y":2566632.0700000022}},{"attributes":{"ID":116676,"DIS_CODE":0,"TOWNNAME":"麻豆區","LI":"北勢里","LIN":"1鄰","STREET":" ","SECT":" ","MAREA":"加輦邦","LANE":" ","ALLEY":" ","HOUSE_NO":"３號之２","E_COORD97":173511.76000000001,"N_COORD97":2565962.5899999999,"ADDRESS":"加輦邦３號之２","OBJECTID":116676},"geometry":{"x":173511.75999999978,"y":2565962.5900000036}},{"attributes":{"ID":116677,"DIS_CODE":0,"TOWNNAME":"東區","LI":"虎尾里","LIN":"23鄰","STREET":"東成街","SECT":" ","MAREA":" ","LANE":"１８２巷","ALLEY":"１弄","HOUSE_NO":"１號三樓","E_COORD97":171768.23999999999,"N_COORD97":2542277.73,"ADDRESS":"東成街１８２巷１弄１號三樓","OBJECTID":116677},"geometry":{"x":171768.24000000022,"y":2542277.7300000023}},{"attributes":{"ID":116678,"DIS_CODE":0,"TOWNNAME":"東區","LI":"虎尾里","LIN":"23鄰","STREET":"東成街","SECT":" ","MAREA":" ","LANE":"１８２巷","ALLEY":"１弄","HOUSE_NO":"５號三樓","E_COORD97":171786.32999999999,"N_COORD97":2542279.3799999999,"ADDRESS":"東成街１８２巷１弄５號三樓","OBJECTID":116678},"geometry":{"x":171786.33000000194,"y":2542279.3800000008}},{"attributes":{"ID":116679,"DIS_CODE":0,"TOWNNAME":"東區","LI":"虎尾里","LIN":"23鄰","STREET":"東成街","SECT":" ","MAREA":" ","LANE":"１８２巷","ALLEY":"１弄","HOUSE_NO":"５號五樓","E_COORD97":171786.32999999999,"N_COORD97":2542279.3799999999,"ADDRESS":"東成街１８２巷１弄５號五樓","OBJECTID":116679},"geometry":{"x":171786.33000000194,"y":2542279.3800000008}},{"attributes":{"ID":116680,"DIS_CODE":0,"TOWNNAME":"安南區","LI":"鳳凰里","LIN":"23鄰","STREET":"怡安路","SECT":"二段","MAREA":" ","LANE":"５４５巷","ALLEY":"６弄","HOUSE_NO":"１號五樓","E_COORD97":167508.98000000001,"N_COORD97":2549386.3199999998,"ADDRESS":"怡安路二段５４５巷６弄１號五樓","OBJECTID":116680},"geometry":{"x":167508.98000000138,"y":2549386.3200000022}},{"attributes":{"ID":116681,"DIS_CODE":0,"TOWNNAME":"安南區","LI":"鳳凰里","LIN":"23鄰","STREET":"怡安路","SECT":"二段","MAREA":" ","LANE":"５４５巷","ALLEY":"６弄","HOUSE_NO":"１號六樓","E_COORD97":167508.98000000001,"N_COORD97":2549386.3199999998,"ADDRESS":"怡安路二段５４５巷６弄１號六樓","OBJECTID":116681},"geometry":{"x":167508.98000000138,"y":2549386.3200000022}},{"attributes":{"ID":116682,"DIS_CODE":0,"TOWNNAME":"安南區","LI":"鳳凰里","LIN":"23鄰","STREET":"怡安路","SECT":"二段","MAREA":" ","LANE":"５４５巷","ALLEY":"６弄","HOUSE_NO":"１號七樓","E_COORD97":167508.98000000001,"N_COORD97":2549386.3199999998,"ADDRESS":"怡安路二段５４５巷６弄１號七樓","OBJECTID":116682},"geometry":{"x":167508.98000000138,"y":2549386.3200000022}},{"attributes":{"ID":116683,"DIS_CODE":0,"TOWNNAME":"安南區","LI":"鳳凰里","LIN":"23鄰","STREET":"怡安路","SECT":"二段","MAREA":" ","LANE":"５４５巷","ALLEY":"６弄","HOUSE_NO":"１號四樓","E_COORD97":167508.98000000001,"N_COORD97":2549386.3199999998,"ADDRESS":"怡安路二段５４５巷６弄１號四樓","OBJECTID":116683},"geometry":{"x":167508.98000000138,"y":2549386.3200000022}},{"attributes":{"ID":116684,"DIS_CODE":0,"TOWNNAME":"安南區","LI":"鳳凰里","LIN":"23鄰","STREET":"怡安路","SECT":"二段","MAREA":" ","LANE":"５４５巷","ALLEY":"６弄","HOUSE_NO":"１號八樓","E_COORD97":167508.98000000001,"N_COORD97":2549386.3199999998,"ADDRESS":"怡安路二段５４５巷６弄１號八樓","OBJECTID":116684},"geometry":{"x":167508.98000000138,"y":2549386.3200000022}},{"attributes":{"ID":116685,"DIS_CODE":0,"TOWNNAME":"安南區","LI":"鳳凰里","LIN":"23鄰","STREET":"怡安路","SECT":"二段","MAREA":" ","LANE":"５４５巷","ALLEY":"６弄","HOUSE_NO":"１號九樓","E_COORD97":167508.98000000001,"N_COORD97":2549386.3199999998,"ADDRESS":"怡安路二段５４５巷６弄１號九樓","OBJECTID":116685},"geometry":{"x":167508.98000000138,"y":2549386.3200000022}},{"attributes":{"ID":116686,"DIS_CODE":0,"TOWNNAME":"安南區","LI":"鳳凰里","LIN":"23鄰","STREET":"怡安路","SECT":"二段","MAREA":" ","LANE":"５４５巷","ALLEY":"６弄","HOUSE_NO":"１號十樓","E_COORD97":167508.98000000001,"N_COORD97":2549386.3199999998,"ADDRESS":"怡安路二段５４５巷６弄１號十樓","OBJECTID":116686},"geometry":{"x":167508.98000000138,"y":2549386.3200000022}},{"attributes":{"ID":116687,"DIS_CODE":0,"TOWNNAME":"安南區","LI":"鳳凰里","LIN":"23鄰","STREET":"怡安路","SECT":"二段","MAREA":" ","LANE":"５４５巷","ALLEY":"６弄","HOUSE_NO":"１號十一樓","E_COORD97":167508.98000000001,"N_COORD97":2549386.3199999998,"ADDRESS":"怡安路二段５４５巷６弄１號十一樓","OBJECTID":116687},"geometry":{"x":167508.98000000138,"y":2549386.3200000022}},{"attributes":{"ID":116688,"DIS_CODE":0,"TOWNNAME":"安南區","LI":"鳳凰里","LIN":"23鄰","STREET":"怡安路","SECT":"二段","MAREA":" ","LANE":"５４５巷","ALLEY":"６弄","HOUSE_NO":"１號十二樓","E_COORD97":167508.98000000001,"N_COORD97":2549386.3199999998,"ADDRESS":"怡安路二段５４５巷６弄１號十二樓","OBJECTID":116688},"geometry":{"x":167508.98000000138,"y":2549386.3200000022}},{"attributes":{"ID":116689,"DIS_CODE":0,"TOWNNAME":"安南區","LI":"鳳凰里","LIN":"23鄰","STREET":"怡安路","SECT":"二段","MAREA":" ","LANE":"５４５巷","ALLEY":"６弄","HOUSE_NO":"１號十三樓","E_COORD97":167508.98000000001,"N_COORD97":2549386.3199999998,"ADDRESS":"怡安路二段５４５巷６弄１號十三樓","OBJECTID":116689},"geometry":{"x":167508.98000000138,"y":2549386.3200000022}},{"attributes":{"ID":116690,"DIS_CODE":0,"TOWNNAME":"安南區","LI":"鳳凰里","LIN":"23鄰","STREET":"怡安路","SECT":"二段","MAREA":" ","LANE":"５４５巷","ALLEY":"６弄","HOUSE_NO":"１號十四樓","E_COORD97":167508.98000000001,"N_COORD97":2549386.3199999998,"ADDRESS":"怡安路二段５４５巷６弄１號十四樓","OBJECTID":116690},"geometry":{"x":167508.98000000138,"y":2549386.3200000022}},{"attributes":{"ID":116691,"DIS_CODE":0,"TOWNNAME":"麻豆區","LI":"北勢里","LIN":"1鄰","STREET":" ","SECT":" ","MAREA":"加輦邦","LANE":" ","ALLEY":" ","HOUSE_NO":"３號之３","E_COORD97":173515.98999999999,"N_COORD97":2565962.3799999999,"ADDRESS":"加輦邦３號之３","OBJECTID":116691},"geometry":{"x":173515.99000000022,"y":2565962.379999999}},{"attributes":{"ID":116692,"DIS_CODE":0,"TOWNNAME":"北門區","LI":"雙春里","LIN":"8鄰","STREET":" ","SECT":" ","MAREA":"雙春","LANE":" ","ALLEY":" ","HOUSE_NO":"５４號之１","E_COORD97":160956.17000000001,"N_COORD97":2577772.1600000001,"ADDRESS":"雙春５４號之１","OBJECTID":116692},"geometry":{"x":160956.16999999993,"y":2577772.160000002}},{"attributes":{"ID":116693,"DIS_CODE":0,"TOWNNAME":"安南區","LI":"鳳凰里","LIN":"23鄰","STREET":"怡安路","SECT":"二段","MAREA":" ","LANE":"５４５巷","ALLEY":"６弄","HOUSE_NO":"１號十五樓","E_COORD97":167508.98000000001,"N_COORD97":2549386.3199999998,"ADDRESS":"怡安路二段５４５巷６弄１號十五樓","OBJECTID":116693},"geometry":{"x":167508.98000000138,"y":2549386.3200000022}},{"attributes":{"ID":116694,"DIS_CODE":0,"TOWNNAME":"安南區","LI":"鳳凰里","LIN":"23鄰","STREET":"怡安路","SECT":"二段","MAREA":" ","LANE":"５４５巷","ALLEY":"６弄","HOUSE_NO":"１號十六樓","E_COORD97":167508.98000000001,"N_COORD97":2549386.3199999998,"ADDRESS":"怡安路二段５４５巷６弄１號十六樓","OBJECTID":116694},"geometry":{"x":167508.98000000138,"y":2549386.3200000022}},{"attributes":{"ID":116695,"DIS_CODE":0,"TOWNNAME":"安南區","LI":"鳳凰里","LIN":"23鄰","STREET":"怡安路","SECT":"二段","MAREA":" ","LANE":"５４５巷","ALLEY":"６弄","HOUSE_NO":"７號四樓","E_COORD97":167489.44,"N_COORD97":2549387.9500000002,"ADDRESS":"怡安路二段５４５巷６弄７號四樓","OBJECTID":116695},"geometry":{"x":167489.44000000134,"y":2549387.9500000011}},{"attributes":{"ID":116696,"DIS_CODE":0,"TOWNNAME":"安南區","LI":"鳳凰里","LIN":"23鄰","STREET":"怡安路","SECT":"二段","MAREA":" ","LANE":"５４５巷","ALLEY":"６弄","HOUSE_NO":"７號五樓","E_COORD97":167489.44,"N_COORD97":2549387.9500000002,"ADDRESS":"怡安路二段５４５巷６弄７號五樓","OBJECTID":116696},"geometry":{"x":167489.44000000134,"y":2549387.9500000011}},{"attributes":{"ID":116697,"DIS_CODE":0,"TOWNNAME":"安南區","LI":"鳳凰里","LIN":"23鄰","STREET":"怡安路","SECT":"二段","MAREA":" ","LANE":"５４５巷","ALLEY":"６弄","HOUSE_NO":"７號六樓","E_COORD97":167489.44,"N_COORD97":2549387.9500000002,"ADDRESS":"怡安路二段５４５巷６弄７號六樓","OBJECTID":116697},"geometry":{"x":167489.44000000134,"y":2549387.9500000011}},{"attributes":{"ID":116698,"DIS_CODE":0,"TOWNNAME":"安南區","LI":"鳳凰里","LIN":"23鄰","STREET":"怡安路","SECT":"二段","MAREA":" ","LANE":"５４５巷","ALLEY":"６弄","HOUSE_NO":"７號七樓","E_COORD97":167489.44,"N_COORD97":2549387.9500000002,"ADDRESS":"怡安路二段５４５巷６弄７號七樓","OBJECTID":116698},"geometry":{"x":167489.44000000134,"y":2549387.9500000011}},{"attributes":{"ID":116699,"DIS_CODE":0,"TOWNNAME":"安南區","LI":"鳳凰里","LIN":"23鄰","STREET":"怡安路","SECT":"二段","MAREA":" ","LANE":"５４５巷","ALLEY":"６弄","HOUSE_NO":"７號八樓","E_COORD97":167489.44,"N_COORD97":2549387.9500000002,"ADDRESS":"怡安路二段５４５巷６弄７號八樓","OBJECTID":116699},"geometry":{"x":167489.44000000134,"y":2549387.9500000011}},{"attributes":{"ID":116700,"DIS_CODE":0,"TOWNNAME":"安南區","LI":"鳳凰里","LIN":"23鄰","STREET":"怡安路","SECT":"二段","MAREA":" ","LANE":"５４５巷","ALLEY":"６弄","HOUSE_NO":"７號九樓","E_COORD97":167489.44,"N_COORD97":2549387.9500000002,"ADDRESS":"怡安路二段５４５巷６弄７號九樓","OBJECTID":116700},"geometry":{"x":167489.44000000134,"y":2549387.9500000011}},{"attributes":{"ID":116701,"DIS_CODE":0,"TOWNNAME":"麻豆區","LI":"北勢里","LIN":"1鄰","STREET":" ","SECT":" ","MAREA":"加輦邦","LANE":" ","ALLEY":" ","HOUSE_NO":"３號","E_COORD97":173506.17999999999,"N_COORD97":2566010.02,"ADDRESS":"加輦邦３號","OBJECTID":116701},"geometry":{"x":173506.18000000063,"y":2566010.0199999977}},{"attributes":{"ID":116702,"DIS_CODE":0,"TOWNNAME":"新化區","LI":"知義里","LIN":" ","STREET":" ","SECT":" ","MAREA":"新和庄","LANE":" ","ALLEY":" ","HOUSE_NO":"７８號之２","E_COORD97":181950.39000000001,"N_COORD97":2546505.2599999998,"ADDRESS":"新和庄７８號之２","OBJECTID":116702},"geometry":{"x":181950.3900000006,"y":2546505.2600000016}},{"attributes":{"ID":116703,"DIS_CODE":0,"TOWNNAME":"麻豆區","LI":"北勢里","LIN":"1鄰","STREET":" ","SECT":" ","MAREA":"加輦邦","LANE":" ","ALLEY":" ","HOUSE_NO":"５號之１","E_COORD97":173510.76999999999,"N_COORD97":2566056.73,"ADDRESS":"加輦邦５號之１","OBJECTID":116703},"geometry":{"x":173510.77000000048,"y":2566056.7300000004}},{"attributes":{"ID":116704,"DIS_CODE":0,"TOWNNAME":"新化區","LI":"\u25A0拔里","LIN":"1鄰","STREET":" ","SECT":" ","MAREA":"\u25A0拔林","LANE":" ","ALLEY":" ","HOUSE_NO":"５６號之７","E_COORD97":183404.62,"N_COORD97":2552001.2599999998,"ADDRESS":"\u25A0拔林５６號之７","OBJECTID":116704},"geometry":{"x":183404.62000000011,"y":2552001.2600000016}},{"attributes":{"ID":116705,"DIS_CODE":0,"TOWNNAME":"麻豆區","LI":"北勢里","LIN":"1鄰","STREET":" ","SECT":" ","MAREA":"加輦邦","LANE":" ","ALLEY":" ","HOUSE_NO":"５號之２","E_COORD97":173508.62,"N_COORD97":2566119.7999999998,"ADDRESS":"加輦邦５號之２","OBJECTID":116705},"geometry":{"x":173508.62000000104,"y":2566119.8000000007}},{"attributes":{"ID":116706,"DIS_CODE":0,"TOWNNAME":"善化區","LI":"溪美里","LIN":"1鄰","STREET":" ","SECT":" ","MAREA":"溪尾","LANE":" ","ALLEY":" ","HOUSE_NO":"８４６號","E_COORD97":177076.04000000001,"N_COORD97":2560421.02,"ADDRESS":"溪尾８４６號","OBJECTID":116706},"geometry":{"x":177076.04000000097,"y":2560421.0200000014}},{"attributes":{"ID":116707,"DIS_CODE":0,"TOWNNAME":"善化區","LI":"溪美里","LIN":"1鄰","STREET":" ","SECT":" ","MAREA":"溪尾","LANE":" ","ALLEY":" ","HOUSE_NO":"６７５號","E_COORD97":177098.01999999999,"N_COORD97":2560896.77,"ADDRESS":"溪尾６７５號","OBJECTID":116707},"geometry":{"x":177098.02000000048,"y":2560896.7700000014}},{"attributes":{"ID":116708,"DIS_CODE":0,"TOWNNAME":"安南區","LI":"鳳凰里","LIN":"23鄰","STREET":"怡安路","SECT":"二段","MAREA":" ","LANE":"５４５巷","ALLEY":"６弄","HOUSE_NO":"７號十樓","E_COORD97":167489.44,"N_COORD97":2549387.9500000002,"ADDRESS":"怡安路二段５４５巷６弄７號十樓","OBJECTID":116708},"geometry":{"x":167489.44000000134,"y":2549387.9500000011}},{"attributes":{"ID":116709,"DIS_CODE":0,"TOWNNAME":"善化區","LI":"嘉北里","LIN":"1鄰","STREET":" ","SECT":" ","MAREA":"茄拔","LANE":" ","ALLEY":" ","HOUSE_NO":"２之２８號","E_COORD97":181152.72,"N_COORD97":2560431.02,"ADDRESS":"茄拔２之２８號","OBJECTID":116709},"geometry":{"x":181152.7200000016,"y":2560431.0200000014}},{"attributes":{"ID":116710,"DIS_CODE":0,"TOWNNAME":"安南區","LI":"布袋里","LIN":"1鄰","STREET":"工明南三路","SECT":" ","MAREA":" ","LANE":" ","ALLEY":" ","HOUSE_NO":"１７２號","E_COORD97":168761.98000000001,"N_COORD97":2550918.9199999999,"ADDRESS":"工明南三路１７２號","OBJECTID":116710},"geometry":{"x":168761.98000000138,"y":2550918.9200000018}},{"attributes":{"ID":116711,"DIS_CODE":0,"TOWNNAME":"善化區","LI":"嘉北里","LIN":"1鄰","STREET":" ","SECT":" ","MAREA":"茄拔","LANE":" ","ALLEY":" ","HOUSE_NO":"６號之１０","E_COORD97":181240.92000000001,"N_COORD97":2560019.27,"ADDRESS":"茄拔６號之１０","OBJECTID":116711},"geometry":{"x":181240.91999999993,"y":2560019.2700000014}},{"attributes":{"ID":116712,"DIS_CODE":0,"TOWNNAME":"安南區","LI":"布袋里","LIN":"1鄰","STREET":"工明南三路","SECT":" ","MAREA":" ","LANE":" ","ALLEY":" ","HOUSE_NO":"１７６號","E_COORD97":168754.07999999999,"N_COORD97":2550921.1699999999,"ADDRESS":"工明南三路１７６號","OBJECTID":116712},"geometry":{"x":168754.08000000101,"y":2550921.1699999999}},{"attributes":{"ID":116713,"DIS_CODE":0,"TOWNNAME":"安南區","LI":"鳳凰里","LIN":"23鄰","STREET":"怡安路","SECT":"二段","MAREA":" ","LANE":"５４５巷","ALLEY":"６弄","HOUSE_NO":"７號十一樓","E_COORD97":167489.44,"N_COORD97":2549387.9500000002,"ADDRESS":"怡安路二段５４５巷６弄７號十一樓","OBJECTID":116713},"geometry":{"x":167489.44000000134,"y":2549387.9500000011}},{"attributes":{"ID":116714,"DIS_CODE":0,"TOWNNAME":"安南區","LI":"鳳凰里","LIN":"23鄰","STREET":"怡安路","SECT":"二段","MAREA":" ","LANE":"５４５巷","ALLEY":"６弄","HOUSE_NO":"７號十二樓","E_COORD97":167489.44,"N_COORD97":2549387.9500000002,"ADDRESS":"怡安路二段５４５巷６弄７號十二樓","OBJECTID":116714},"geometry":{"x":167489.44000000134,"y":2549387.9500000011}},{"attributes":{"ID":116715,"DIS_CODE":0,"TOWNNAME":"善化區","LI":"嘉北里","LIN":"1鄰","STREET":" ","SECT":" ","MAREA":"茄拔","LANE":" ","ALLEY":" ","HOUSE_NO":"３之３０號","E_COORD97":181210.42999999999,"N_COORD97":2560155.52,"ADDRESS":"茄拔３之３０號","OBJECTID":116715},"geometry":{"x":181210.43000000156,"y":2560155.5200000014}},{"attributes":{"ID":116716,"DIS_CODE":0,"TOWNNAME":"善化區","LI":"嘉北里","LIN":"1鄰","STREET":" ","SECT":" ","MAREA":"茄拔","LANE":" ","ALLEY":" ","HOUSE_NO":"３之２號","E_COORD97":181213.25,"N_COORD97":2560112.52,"ADDRESS":"茄拔３之２號","OBJECTID":116716},"geometry":{"x":181213.25,"y":2560112.5200000014}},{"attributes":{"ID":116717,"DIS_CODE":0,"TOWNNAME":"善化區","LI":"溪美里","LIN":"1鄰","STREET":" ","SECT":" ","MAREA":"溪尾","LANE":" ","ALLEY":" ","HOUSE_NO":"５８２之３號","E_COORD97":176998.10999999999,"N_COORD97":2561008.02,"ADDRESS":"溪尾５８２之３號","OBJECTID":116717},"geometry":{"x":176998.11000000127,"y":2561008.0199999996}},{"attributes":{"ID":116718,"DIS_CODE":0,"TOWNNAME":"安南區","LI":"布袋里","LIN":"1鄰","STREET":"工明南一路","SECT":" ","MAREA":" ","LANE":" ","ALLEY":" ","HOUSE_NO":"２２號","E_COORD97":168976.48999999999,"N_COORD97":2551071.3100000001,"ADDRESS":"工明南一路２２號","OBJECTID":116718},"geometry":{"x":168976.49000000209,"y":2551071.3100000042}},{"attributes":{"ID":116719,"DIS_CODE":0,"TOWNNAME":"善化區","LI":"東昌里","LIN":"1鄰","STREET":" ","SECT":" ","MAREA":"東勢寮","LANE":" ","ALLEY":" ","HOUSE_NO":"２號之１０","E_COORD97":180977.45999999999,"N_COORD97":2561926.77,"ADDRESS":"東勢寮２號之１０","OBJECTID":116719},"geometry":{"x":180977.46000000089,"y":2561926.7700000033}},{"attributes":{"ID":116720,"DIS_CODE":0,"TOWNNAME":"北門區","LI":"雙春里","LIN":"4鄰","STREET":" ","SECT":" ","MAREA":"雙春","LANE":" ","ALLEY":" ","HOUSE_NO":"３０號之５","E_COORD97":160838.23999999999,"N_COORD97":2577802.9399999999,"ADDRESS":"雙春３０號之５","OBJECTID":116720},"geometry":{"x":160838.24000000115,"y":2577802.9400000013}},{"attributes":{"ID":116721,"DIS_CODE":0,"TOWNNAME":"北門區","LI":"雙春里","LIN":"4鄰","STREET":" ","SECT":" ","MAREA":"雙春","LANE":" ","ALLEY":" ","HOUSE_NO":"３０號之６","E_COORD97":160834.42000000001,"N_COORD97":2577802.5499999998,"ADDRESS":"雙春３０號之６","OBJECTID":116721},"geometry":{"x":160834.41999999993,"y":2577802.5500000007}},{"attributes":{"ID":116722,"DIS_CODE":0,"TOWNNAME":"北門區","LI":"雙春里","LIN":"4鄰","STREET":" ","SECT":" ","MAREA":"雙春","LANE":" ","ALLEY":" ","HOUSE_NO":"３０號之７","E_COORD97":160829.51000000001,"N_COORD97":2577803.1899999999,"ADDRESS":"雙春３０號之７","OBJECTID":116722},"geometry":{"x":160829.51000000071,"y":2577803.1899999995}},{"attributes":{"ID":116723,"DIS_CODE":0,"TOWNNAME":"北門區","LI":"雙春里","LIN":"4鄰","STREET":" ","SECT":" ","MAREA":"雙春","LANE":" ","ALLEY":" ","HOUSE_NO":"３０號之８","E_COORD97":160825.42000000001,"N_COORD97":2577802.9700000002,"ADDRESS":"雙春３０號之８","OBJECTID":116723},"geometry":{"x":160825.41999999993,"y":2577802.9700000007}},{"attributes":{"ID":116724,"DIS_CODE":0,"TOWNNAME":"北門區","LI":"雙春里","LIN":"4鄰","STREET":" ","SECT":" ","MAREA":"雙春","LANE":" ","ALLEY":" ","HOUSE_NO":"３０號之９","E_COORD97":160820.57000000001,"N_COORD97":2577802.6299999999,"ADDRESS":"雙春３０號之９","OBJECTID":116724},"geometry":{"x":160820.57000000123,"y":2577802.629999999}},{"attributes":{"ID":116725,"DIS_CODE":0,"TOWNNAME":"北門區","LI":"雙春里","LIN":"4鄰","STREET":" ","SECT":" ","MAREA":"雙春","LANE":" ","ALLEY":" ","HOUSE_NO":"３０號","E_COORD97":160865.25,"N_COORD97":2577778.98,"ADDRESS":"雙春３０號","OBJECTID":116725},"geometry":{"x":160865.25000000093,"y":2577778.9800000004}},{"attributes":{"ID":116726,"DIS_CODE":0,"TOWNNAME":"善化區","LI":"溪美里","LIN":"1鄰","STREET":" ","SECT":" ","MAREA":"溪尾","LANE":" ","ALLEY":" ","HOUSE_NO":"６８１號之１５","E_COORD97":177111.07000000001,"N_COORD97":2560839.02,"ADDRESS":"溪尾６８１號之１５","OBJECTID":116726},"geometry":{"x":177111.06999999937,"y":2560839.0199999996}},{"attributes":{"ID":116727,"DIS_CODE":0,"TOWNNAME":"善化區","LI":"田寮里","LIN":"1鄰","STREET":" ","SECT":" ","MAREA":"六分寮","LANE":" ","ALLEY":" ","HOUSE_NO":"２０號","E_COORD97":178363.84,"N_COORD97":2561359.75,"ADDRESS":"六分寮２０號","OBJECTID":116727},"geometry":{"x":178363.84000000078,"y":2561359.75}},{"attributes":{"ID":116728,"DIS_CODE":0,"TOWNNAME":"安南區","LI":"鳳凰里","LIN":"23鄰","STREET":"怡安路","SECT":"二段","MAREA":" ","LANE":"５４５巷","ALLEY":"６弄","HOUSE_NO":"７號十三樓","E_COORD97":167489.44,"N_COORD97":2549387.9500000002,"ADDRESS":"怡安路二段５４５巷６弄７號十三樓","OBJECTID":116728},"geometry":{"x":167489.44000000134,"y":2549387.9500000011}},{"attributes":{"ID":116729,"DIS_CODE":0,"TOWNNAME":"善化區","LI":"光文里","LIN":"1鄰","STREET":" ","SECT":" ","MAREA":"北子店","LANE":" ","ALLEY":" ","HOUSE_NO":"１號","E_COORD97":179113.22,"N_COORD97":2560460.75,"ADDRESS":"北子店１號","OBJECTID":116729},"geometry":{"x":179113.21999999881,"y":2560460.7500000019}},{"attributes":{"ID":116730,"DIS_CODE":0,"TOWNNAME":"安南區","LI":"鳳凰里","LIN":"23鄰","STREET":"怡安路","SECT":"二段","MAREA":" ","LANE":"５４５巷","ALLEY":"６弄","HOUSE_NO":"７號十四樓","E_COORD97":167489.44,"N_COORD97":2549387.9500000002,"ADDRESS":"怡安路二段５４５巷６弄７號十四樓","OBJECTID":116730},"geometry":{"x":167489.44000000134,"y":2549387.9500000011}},{"attributes":{"ID":116731,"DIS_CODE":0,"TOWNNAME":"仁德區","LI":"成功里","LIN":"23鄰","STREET":"保華路","SECT":" ","MAREA":" ","LANE":"２６５巷","ALLEY":"２１弄","HOUSE_NO":"２４號","E_COORD97":170720.17000000001,"N_COORD97":2539880.2599999998,"ADDRESS":"保華路２６５巷２１弄２４號","OBJECTID":116731},"geometry":{"x":170720.16999999993,"y":2539880.2600000016}},{"attributes":{"ID":116732,"DIS_CODE":0,"TOWNNAME":"善化區","LI":"溪美里","LIN":"1鄰","STREET":" ","SECT":" ","MAREA":"溪尾","LANE":" ","ALLEY":" ","HOUSE_NO":"６７３號","E_COORD97":177095.28,"N_COORD97":2560922.77,"ADDRESS":"溪尾６７３號","OBJECTID":116732},"geometry":{"x":177095.28000000119,"y":2560922.7699999977}},{"attributes":{"ID":116733,"DIS_CODE":0,"TOWNNAME":"善化區","LI":"東昌里","LIN":"1鄰","STREET":" ","SECT":" ","MAREA":"東勢寮","LANE":" ","ALLEY":" ","HOUSE_NO":"２號之１","E_COORD97":181035.59,"N_COORD97":2561927.02,"ADDRESS":"東勢寮２號之１","OBJECTID":116733},"geometry":{"x":181035.59000000078,"y":2561927.0199999996}},{"attributes":{"ID":116734,"DIS_CODE":0,"TOWNNAME":"善化區","LI":"嘉北里","LIN":"1鄰","STREET":" ","SECT":" ","MAREA":"茄拔","LANE":" ","ALLEY":" ","HOUSE_NO":"２號之２","E_COORD97":181199.70999999999,"N_COORD97":2560234.27,"ADDRESS":"茄拔２號之２","OBJECTID":116734},"geometry":{"x":181199.70999999996,"y":2560234.2699999996}},{"attributes":{"ID":116735,"DIS_CODE":0,"TOWNNAME":"善化區","LI":"胡厝里","LIN":"1鄰","STREET":" ","SECT":" ","MAREA":"胡厝寮","LANE":" ","ALLEY":" ","HOUSE_NO":"１７０號","E_COORD97":175135.01999999999,"N_COORD97":2560611.25,"ADDRESS":"胡厝寮１７０號","OBJECTID":116735},"geometry":{"x":175135.01999999955,"y":2560611.25}},{"attributes":{"ID":116736,"DIS_CODE":0,"TOWNNAME":"善化區","LI":"胡厝里","LIN":"1鄰","STREET":" ","SECT":" ","MAREA":"胡厝寮","LANE":" ","ALLEY":" ","HOUSE_NO":"１７２號","E_COORD97":175145.85999999999,"N_COORD97":2560571,"ADDRESS":"胡厝寮１７２號","OBJECTID":116736},"geometry":{"x":175145.86000000034,"y":2560571}},{"attributes":{"ID":116737,"DIS_CODE":0,"TOWNNAME":"善化區","LI":"嘉北里","LIN":"1鄰","STREET":" ","SECT":" ","MAREA":"茄拔","LANE":" ","ALLEY":" ","HOUSE_NO":"１號之４０","E_COORD97":181152.79000000001,"N_COORD97":2560327.52,"ADDRESS":"茄拔１號之４０","OBJECTID":116737},"geometry":{"x":181152.79000000097,"y":2560327.5199999996}},{"attributes":{"ID":116738,"DIS_CODE":0,"TOWNNAME":"善化區","LI":"田寮里","LIN":"1鄰","STREET":" ","SECT":" ","MAREA":"六分寮","LANE":" ","ALLEY":" ","HOUSE_NO":"２６號之３","E_COORD97":178393.79999999999,"N_COORD97":2561374.77,"ADDRESS":"六分寮２６號之３","OBJECTID":116738},"geometry":{"x":178393.79999999981,"y":2561374.7700000014}},{"attributes":{"ID":116739,"DIS_CODE":0,"TOWNNAME":"善化區","LI":"嘉北里","LIN":"1鄰","STREET":" ","SECT":" ","MAREA":"茄拔","LANE":" ","ALLEY":" ","HOUSE_NO":"３號之９","E_COORD97":181178.37,"N_COORD97":2560114.52,"ADDRESS":"茄拔３號之９","OBJECTID":116739},"geometry":{"x":181178.37000000011,"y":2560114.5200000033}},{"attributes":{"ID":116740,"DIS_CODE":0,"TOWNNAME":"善化區","LI":"嘉北里","LIN":"1鄰","STREET":" ","SECT":" ","MAREA":"茄拔","LANE":" ","ALLEY":" ","HOUSE_NO":"２號之３０","E_COORD97":181175.45000000001,"N_COORD97":2560430.27,"ADDRESS":"茄拔２號之３０","OBJECTID":116740},"geometry":{"x":181175.45000000112,"y":2560430.2699999996}},{"attributes":{"ID":116741,"DIS_CODE":0,"TOWNNAME":"善化區","LI":"溪美里","LIN":"1鄰","STREET":" ","SECT":" ","MAREA":"溪尾","LANE":" ","ALLEY":" ","HOUSE_NO":"５７８號","E_COORD97":177043.69,"N_COORD97":2561020.02,"ADDRESS":"溪尾５７８號","OBJECTID":116741},"geometry":{"x":177043.69000000041,"y":2561020.0200000014}},{"attributes":{"ID":116742,"DIS_CODE":0,"TOWNNAME":"善化區","LI":"嘉北里","LIN":"1鄰","STREET":" ","SECT":" ","MAREA":"茄拔","LANE":" ","ALLEY":" ","HOUSE_NO":"３號之５","E_COORD97":181173.12,"N_COORD97":2560097.52,"ADDRESS":"茄拔３號之５","OBJECTID":116742},"geometry":{"x":181173.12000000104,"y":2560097.5200000033}},{"attributes":{"ID":116743,"DIS_CODE":0,"TOWNNAME":"新化區","LI":"崙頂里","LIN":"1鄰","STREET":" ","SECT":" ","MAREA":"崙子頂","LANE":" ","ALLEY":" ","HOUSE_NO":"２０號","E_COORD97":176980.78,"N_COORD97":2546728.25,"ADDRESS":"崙子頂２０號","OBJECTID":116743},"geometry":{"x":176980.77999999933,"y":2546728.2500000037}},{"attributes":{"ID":116744,"DIS_CODE":0,"TOWNNAME":"善化區","LI":"嘉北里","LIN":"1鄰","STREET":" ","SECT":" ","MAREA":"茄拔","LANE":" ","ALLEY":" ","HOUSE_NO":"６號之８","E_COORD97":181231.23000000001,"N_COORD97":2560010.77,"ADDRESS":"茄拔６號之８","OBJECTID":116744},"geometry":{"x":181231.23000000231,"y":2560010.7699999977}},{"attributes":{"ID":116745,"DIS_CODE":0,"TOWNNAME":"善化區","LI":"嘉北里","LIN":"1鄰","STREET":" ","SECT":" ","MAREA":"茄拔","LANE":" ","ALLEY":" ","HOUSE_NO":"２號","E_COORD97":181203.22,"N_COORD97":2560175.2599999998,"ADDRESS":"茄拔２號","OBJECTID":116745},"geometry":{"x":181203.21999999974,"y":2560175.2600000016}},{"attributes":{"ID":116746,"DIS_CODE":0,"TOWNNAME":"善化區","LI":"嘉北里","LIN":"1鄰","STREET":" ","SECT":" ","MAREA":"茄拔","LANE":" ","ALLEY":" ","HOUSE_NO":"３之２７號","E_COORD97":181223.12,"N_COORD97":2560133.27,"ADDRESS":"茄拔３之２７號","OBJECTID":116746},"geometry":{"x":181223.12000000197,"y":2560133.2700000033}},{"attributes":{"ID":116747,"DIS_CODE":0,"TOWNNAME":"善化區","LI":"溪美里","LIN":"1鄰","STREET":" ","SECT":" ","MAREA":"溪尾","LANE":" ","ALLEY":" ","HOUSE_NO":"６７７號之１","E_COORD97":177118.76999999999,"N_COORD97":2560889.52,"ADDRESS":"溪尾６７７號之１","OBJECTID":116747},"geometry":{"x":177118.76999999955,"y":2560889.5199999996}},{"attributes":{"ID":116748,"DIS_CODE":0,"TOWNNAME":"善化區","LI":"東昌里","LIN":"1鄰","STREET":" ","SECT":" ","MAREA":"東勢寮","LANE":" ","ALLEY":" ","HOUSE_NO":"１１號之１３","E_COORD97":181132.95999999999,"N_COORD97":2561794.77,"ADDRESS":"東勢寮１１號之１３","OBJECTID":116748},"geometry":{"x":181132.96000000089,"y":2561794.7700000014}},{"attributes":{"ID":116749,"DIS_CODE":0,"TOWNNAME":"善化區","LI":"嘉北里","LIN":"1鄰","STREET":" ","SECT":" ","MAREA":"茄拔","LANE":" ","ALLEY":" ","HOUSE_NO":"１號之３９","E_COORD97":181018.57999999999,"N_COORD97":2560304.27,"ADDRESS":"茄拔１號之３９","OBJECTID":116749},"geometry":{"x":181018.58000000101,"y":2560304.2699999996}},{"attributes":{"ID":116750,"DIS_CODE":0,"TOWNNAME":"善化區","LI":"溪美里","LIN":"1鄰","STREET":" ","SECT":" ","MAREA":"溪尾","LANE":" ","ALLEY":" ","HOUSE_NO":"６７９號之３","E_COORD97":177151.12,"N_COORD97":2560858.02,"ADDRESS":"溪尾６７９號之３","OBJECTID":116750},"geometry":{"x":177151.12000000011,"y":2560858.0200000014}},{"attributes":{"ID":116751,"DIS_CODE":0,"TOWNNAME":"安南區","LI":"鳳凰里","LIN":"23鄰","STREET":"怡安路","SECT":"二段","MAREA":" ","LANE":"５４５巷","ALLEY":"６弄","HOUSE_NO":"７號十五樓","E_COORD97":167489.44,"N_COORD97":2549387.9500000002,"ADDRESS":"怡安路二段５４５巷６弄７號十五樓","OBJECTID":116751},"geometry":{"x":167489.44000000134,"y":2549387.9500000011}},{"attributes":{"ID":116752,"DIS_CODE":0,"TOWNNAME":"安南區","LI":"鳳凰里","LIN":"23鄰","STREET":"怡安路","SECT":"二段","MAREA":" ","LANE":"５４５巷","ALLEY":"６弄","HOUSE_NO":"７號十六樓","E_COORD97":167489.44,"N_COORD97":2549387.9500000002,"ADDRESS":"怡安路二段５４５巷６弄７號十六樓","OBJECTID":116752},"geometry":{"x":167489.44000000134,"y":2549387.9500000011}},{"attributes":{"ID":116753,"DIS_CODE":0,"TOWNNAME":"善化區","LI":"嘉北里","LIN":"1鄰","STREET":" ","SECT":" ","MAREA":"茄拔","LANE":" ","ALLEY":" ","HOUSE_NO":"２號之９","E_COORD97":181207.62,"N_COORD97":2560286.77,"ADDRESS":"茄拔２號之９","OBJECTID":116753},"geometry":{"x":181207.62000000011,"y":2560286.7700000014}},{"attributes":{"ID":116754,"DIS_CODE":0,"TOWNNAME":"善化區","LI":"溪美里","LIN":"1鄰","STREET":" ","SECT":" ","MAREA":"溪尾","LANE":" ","ALLEY":" ","HOUSE_NO":"６７９號之９","E_COORD97":177192.85000000001,"N_COORD97":2560812.52,"ADDRESS":"溪尾６７９號之９","OBJECTID":116754},"geometry":{"x":177192.84999999963,"y":2560812.5199999996}},{"attributes":{"ID":116755,"DIS_CODE":0,"TOWNNAME":"善化區","LI":"溪美里","LIN":"1鄰","STREET":" ","SECT":" ","MAREA":"溪尾","LANE":" ","ALLEY":" ","HOUSE_NO":"６８１號之７","E_COORD97":177118.01999999999,"N_COORD97":2560810.27,"ADDRESS":"溪尾６８１號之７","OBJECTID":116755},"geometry":{"x":177118.02000000048,"y":2560810.2699999996}},{"attributes":{"ID":116756,"DIS_CODE":0,"TOWNNAME":"善化區","LI":"胡厝里","LIN":"1鄰","STREET":" ","SECT":" ","MAREA":"胡厝寮","LANE":" ","ALLEY":" ","HOUSE_NO":"１７１號之１","E_COORD97":175179.64000000001,"N_COORD97":2560604.52,"ADDRESS":"胡厝寮１７１號之１","OBJECTID":116756},"geometry":{"x":175179.6400000006,"y":2560604.5199999996}},{"attributes":{"ID":116757,"DIS_CODE":0,"TOWNNAME":"安南區","LI":"鳳凰里","LIN":"23鄰","STREET":"怡安路","SECT":"二段","MAREA":" ","LANE":"５４５巷","ALLEY":"６弄","HOUSE_NO":"１１號五樓","E_COORD97":167481.10000000001,"N_COORD97":2549389.7999999998,"ADDRESS":"怡安路二段５４５巷６弄１１號五樓","OBJECTID":116757},"geometry":{"x":167481.09999999963,"y":2549389.7999999989}},{"attributes":{"ID":116758,"DIS_CODE":0,"TOWNNAME":"善化區","LI":"田寮里","LIN":"1鄰","STREET":" ","SECT":" ","MAREA":"六分寮","LANE":" ","ALLEY":" ","HOUSE_NO":"１７之１號","E_COORD97":178358.04000000001,"N_COORD97":2561307.27,"ADDRESS":"六分寮１７之１號","OBJECTID":116758},"geometry":{"x":178358.04000000004,"y":2561307.2700000014}},{"attributes":{"ID":116759,"DIS_CODE":0,"TOWNNAME":"安南區","LI":"鳳凰里","LIN":"23鄰","STREET":"怡安路","SECT":"二段","MAREA":" ","LANE":"５４５巷","ALLEY":"６弄","HOUSE_NO":"１１號六樓","E_COORD97":167481.10000000001,"N_COORD97":2549389.7999999998,"ADDRESS":"怡安路二段５４５巷６弄１１號六樓","OBJECTID":116759},"geometry":{"x":167481.09999999963,"y":2549389.7999999989}},{"attributes":{"ID":116760,"DIS_CODE":0,"TOWNNAME":"善化區","LI":"東昌里","LIN":"1鄰","STREET":" ","SECT":" ","MAREA":"東勢寮","LANE":" ","ALLEY":" ","HOUSE_NO":"１３號之１","E_COORD97":180996.60000000001,"N_COORD97":2561811.77,"ADDRESS":"東勢寮１３號之１","OBJECTID":116760},"geometry":{"x":180996.59999999963,"y":2561811.7700000014}},{"attributes":{"ID":116761,"DIS_CODE":0,"TOWNNAME":"善化區","LI":"嘉北里","LIN":"1鄰","STREET":" ","SECT":" ","MAREA":"茄拔","LANE":" ","ALLEY":" ","HOUSE_NO":"２號之５","E_COORD97":181212.07999999999,"N_COORD97":2560253.02,"ADDRESS":"茄拔２號之５","OBJECTID":116761},"geometry":{"x":181212.08000000101,"y":2560253.0199999996}},{"attributes":{"ID":116762,"DIS_CODE":0,"TOWNNAME":"善化區","LI":"溪美里","LIN":"1鄰","STREET":" ","SECT":" ","MAREA":"溪尾","LANE":" ","ALLEY":" ","HOUSE_NO":"８６２號","E_COORD97":177088.22,"N_COORD97":2560314.02,"ADDRESS":"溪尾８６２號","OBJECTID":116762},"geometry":{"x":177088.22000000067,"y":2560314.0199999996}},{"attributes":{"ID":116763,"DIS_CODE":0,"TOWNNAME":"善化區","LI":"東昌里","LIN":"1鄰","STREET":" ","SECT":" ","MAREA":"東勢寮","LANE":" ","ALLEY":" ","HOUSE_NO":"１之３０號","E_COORD97":180753.67999999999,"N_COORD97":2561177.52,"ADDRESS":"東勢寮１之３０號","OBJECTID":116763},"geometry":{"x":180753.6799999997,"y":2561177.5199999996}},{"attributes":{"ID":116764,"DIS_CODE":0,"TOWNNAME":"安南區","LI":"鳳凰里","LIN":"23鄰","STREET":"怡安路","SECT":"二段","MAREA":" ","LANE":"５４５巷","ALLEY":"６弄","HOUSE_NO":"１１號七樓","E_COORD97":167481.10000000001,"N_COORD97":2549389.7999999998,"ADDRESS":"怡安路二段５４５巷６弄１１號七樓","OBJECTID":116764},"geometry":{"x":167481.09999999963,"y":2549389.7999999989}},{"attributes":{"ID":116765,"DIS_CODE":0,"TOWNNAME":"善化區","LI":"嘉北里","LIN":"1鄰","STREET":" ","SECT":" ","MAREA":"茄拔","LANE":" ","ALLEY":" ","HOUSE_NO":"３之３２號","E_COORD97":181218.42999999999,"N_COORD97":2560149.52,"ADDRESS":"茄拔３之３２號","OBJECTID":116765},"geometry":{"x":181218.4299999997,"y":2560149.5200000014}},{"attributes":{"ID":116766,"DIS_CODE":0,"TOWNNAME":"善化區","LI":"嘉北里","LIN":"1鄰","STREET":" ","SECT":" ","MAREA":"茄拔","LANE":" ","ALLEY":" ","HOUSE_NO":"３號之６","E_COORD97":181173.92000000001,"N_COORD97":2560102.02,"ADDRESS":"茄拔３號之６","OBJECTID":116766},"geometry":{"x":181173.92000000086,"y":2560102.0200000014}},{"attributes":{"ID":116767,"DIS_CODE":0,"TOWNNAME":"安南區","LI":"鳳凰里","LIN":"23鄰","STREET":"怡安路","SECT":"二段","MAREA":" ","LANE":"５４５巷","ALLEY":"６弄","HOUSE_NO":"１１號八樓","E_COORD97":167481.10000000001,"N_COORD97":2549389.7999999998,"ADDRESS":"怡安路二段５４５巷６弄１１號八樓","OBJECTID":116767},"geometry":{"x":167481.09999999963,"y":2549389.7999999989}},{"attributes":{"ID":116768,"DIS_CODE":0,"TOWNNAME":"善化區","LI":"嘉北里","LIN":"1鄰","STREET":" ","SECT":" ","MAREA":"茄拔","LANE":" ","ALLEY":" ","HOUSE_NO":"３之２２號","E_COORD97":181202.5,"N_COORD97":2560137.77,"ADDRESS":"茄拔３之２２號","OBJECTID":116768},"geometry":{"x":181202.50000000093,"y":2560137.7700000014}},{"attributes":{"ID":116769,"DIS_CODE":0,"TOWNNAME":"善化區","LI":"東昌里","LIN":"1鄰","STREET":" ","SECT":" ","MAREA":"東勢寮","LANE":" ","ALLEY":" ","HOUSE_NO":"２號之３","E_COORD97":181084.35000000001,"N_COORD97":2561864.5099999998,"ADDRESS":"東勢寮２號之３","OBJECTID":116769},"geometry":{"x":181084.35000000056,"y":2561864.5100000016}},{"attributes":{"ID":116770,"DIS_CODE":0,"TOWNNAME":"善化區","LI":"嘉北里","LIN":"1鄰","STREET":" ","SECT":" ","MAREA":"茄拔","LANE":" ","ALLEY":" ","HOUSE_NO":"２之１２號","E_COORD97":181248.87,"N_COORD97":2560289.02,"ADDRESS":"茄拔２之１２號","OBJECTID":116770},"geometry":{"x":181248.87000000104,"y":2560289.0199999996}},{"attributes":{"ID":116771,"DIS_CODE":0,"TOWNNAME":"安南區","LI":"鳳凰里","LIN":"23鄰","STREET":"怡安路","SECT":"二段","MAREA":" ","LANE":"５４５巷","ALLEY":"６弄","HOUSE_NO":"１１號九樓","E_COORD97":167481.10000000001,"N_COORD97":2549389.7999999998,"ADDRESS":"怡安路二段５４５巷６弄１１號九樓","OBJECTID":116771},"geometry":{"x":167481.09999999963,"y":2549389.7999999989}},{"attributes":{"ID":116772,"DIS_CODE":0,"TOWNNAME":"安南區","LI":"鳳凰里","LIN":"23鄰","STREET":"怡安路","SECT":"二段","MAREA":" ","LANE":"５４５巷","ALLEY":"６弄","HOUSE_NO":"１１號十樓","E_COORD97":167481.10000000001,"N_COORD97":2549389.7999999998,"ADDRESS":"怡安路二段５４５巷６弄１１號十樓","OBJECTID":116772},"geometry":{"x":167481.09999999963,"y":2549389.7999999989}},{"attributes":{"ID":116773,"DIS_CODE":0,"TOWNNAME":"善化區","LI":"東昌里","LIN":"1鄰","STREET":" ","SECT":" ","MAREA":"東勢寮","LANE":" ","ALLEY":" ","HOUSE_NO":"１３之３號","E_COORD97":181006.94,"N_COORD97":2561813.02,"ADDRESS":"東勢寮１３之３號","OBJECTID":116773},"geometry":{"x":181006.94000000041,"y":2561813.0200000033}},{"attributes":{"ID":116774,"DIS_CODE":0,"TOWNNAME":"安南區","LI":"鳳凰里","LIN":"23鄰","STREET":"怡安路","SECT":"二段","MAREA":" ","LANE":"５４５巷","ALLEY":"６弄","HOUSE_NO":"１１號十一樓","E_COORD97":167481.10000000001,"N_COORD97":2549389.7999999998,"ADDRESS":"怡安路二段５４５巷６弄１１號十一樓","OBJECTID":116774},"geometry":{"x":167481.09999999963,"y":2549389.7999999989}},{"attributes":{"ID":116775,"DIS_CODE":0,"TOWNNAME":"善化區","LI":"胡家里","LIN":"1鄰","STREET":" ","SECT":" ","MAREA":"胡厝寮","LANE":" ","ALLEY":" ","HOUSE_NO":"５號","E_COORD97":175542.26999999999,"N_COORD97":2560803.75,"ADDRESS":"胡厝寮５號","OBJECTID":116775},"geometry":{"x":175542.26999999955,"y":2560803.75}},{"attributes":{"ID":116776,"DIS_CODE":0,"TOWNNAME":"安南區","LI":"鳳凰里","LIN":"23鄰","STREET":"怡安路","SECT":"二段","MAREA":" ","LANE":"５４５巷","ALLEY":"６弄","HOUSE_NO":"１１號十二樓","E_COORD97":167481.10000000001,"N_COORD97":2549389.7999999998,"ADDRESS":"怡安路二段５４５巷６弄１１號十二樓","OBJECTID":116776},"geometry":{"x":167481.09999999963,"y":2549389.7999999989}},{"attributes":{"ID":116777,"DIS_CODE":0,"TOWNNAME":"善化區","LI":"東昌里","LIN":"1鄰","STREET":" ","SECT":" ","MAREA":"東勢寮","LANE":" ","ALLEY":" ","HOUSE_NO":"６之１號","E_COORD97":180954.04999999999,"N_COORD97":2561903.52,"ADDRESS":"東勢寮６之１號","OBJECTID":116777},"geometry":{"x":180954.05000000075,"y":2561903.5199999996}},{"attributes":{"ID":116778,"DIS_CODE":0,"TOWNNAME":"善化區","LI":"溪美里","LIN":"1鄰","STREET":" ","SECT":" ","MAREA":"溪尾","LANE":" ","ALLEY":" ","HOUSE_NO":"６７９號之２","E_COORD97":177131.94,"N_COORD97":2560863.02,"ADDRESS":"溪尾６７９號之２","OBJECTID":116778},"geometry":{"x":177131.94000000041,"y":2560863.0199999996}},{"attributes":{"ID":116779,"DIS_CODE":0,"TOWNNAME":"善化區","LI":"胡厝里","LIN":"1鄰","STREET":" ","SECT":" ","MAREA":"胡厝寮","LANE":" ","ALLEY":" ","HOUSE_NO":"１７１之３號","E_COORD97":175180.73999999999,"N_COORD97":2560592.27,"ADDRESS":"胡厝寮１７１之３號","OBJECTID":116779},"geometry":{"x":175180.73999999929,"y":2560592.2700000014}},{"attributes":{"ID":116780,"DIS_CODE":0,"TOWNNAME":"善化區","LI":"胡家里","LIN":"1鄰","STREET":" ","SECT":" ","MAREA":"胡厝寮","LANE":" ","ALLEY":" ","HOUSE_NO":"４之１２號","E_COORD97":175747.04000000001,"N_COORD97":2560777.27,"ADDRESS":"胡厝寮４之１２號","OBJECTID":116780},"geometry":{"x":175747.04000000097,"y":2560777.2700000033}},{"attributes":{"ID":116781,"DIS_CODE":0,"TOWNNAME":"善化區","LI":"溪美里","LIN":"1鄰","STREET":" ","SECT":" ","MAREA":"溪尾","LANE":" ","ALLEY":" ","HOUSE_NO":"９０２號","E_COORD97":177092.04999999999,"N_COORD97":2560183.77,"ADDRESS":"溪尾９０２號","OBJECTID":116781},"geometry":{"x":177092.04999999888,"y":2560183.7700000033}},{"attributes":{"ID":116782,"DIS_CODE":0,"TOWNNAME":"善化區","LI":"溪美里","LIN":"1鄰","STREET":" ","SECT":" ","MAREA":"溪尾","LANE":" ","ALLEY":" ","HOUSE_NO":"５８８號","E_COORD97":176946.16,"N_COORD97":2560960.52,"ADDRESS":"溪尾５８８號","OBJECTID":116782},"geometry":{"x":176946.16000000108,"y":2560960.5199999996}},{"attributes":{"ID":116783,"DIS_CODE":0,"TOWNNAME":"善化區","LI":"六德里","LIN":"1鄰","STREET":" ","SECT":" ","MAREA":"六分寮","LANE":" ","ALLEY":" ","HOUSE_NO":"２０３號之１","E_COORD97":178881.12,"N_COORD97":2561697.02,"ADDRESS":"六分寮２０３號之１","OBJECTID":116783},"geometry":{"x":178881.12000000104,"y":2561697.0199999996}},{"attributes":{"ID":116784,"DIS_CODE":0,"TOWNNAME":"安南區","LI":"鳳凰里","LIN":"23鄰","STREET":"怡安路","SECT":"二段","MAREA":" ","LANE":"５４５巷","ALLEY":"６弄","HOUSE_NO":"１１號十三樓","E_COORD97":167481.10000000001,"N_COORD97":2549389.7999999998,"ADDRESS":"怡安路二段５４５巷６弄１１號十三樓","OBJECTID":116784},"geometry":{"x":167481.09999999963,"y":2549389.7999999989}},{"attributes":{"ID":116785,"DIS_CODE":0,"TOWNNAME":"善化區","LI":"田寮里","LIN":"1鄰","STREET":" ","SECT":" ","MAREA":"六分寮","LANE":" ","ALLEY":" ","HOUSE_NO":"２０號之３","E_COORD97":178380.82000000001,"N_COORD97":2561368.27,"ADDRESS":"六分寮２０號之３","OBJECTID":116785},"geometry":{"x":178380.81999999937,"y":2561368.2700000014}},{"attributes":{"ID":116786,"DIS_CODE":0,"TOWNNAME":"善化區","LI":"六德里","LIN":"1鄰","STREET":" ","SECT":" ","MAREA":"六分寮","LANE":" ","ALLEY":" ","HOUSE_NO":"２００號之３","E_COORD97":178910.70000000001,"N_COORD97":2561677.52,"ADDRESS":"六分寮２００號之３","OBJECTID":116786},"geometry":{"x":178910.70000000112,"y":2561677.5200000033}},{"attributes":{"ID":116787,"DIS_CODE":0,"TOWNNAME":"善化區","LI":"光文里","LIN":"1鄰","STREET":" ","SECT":" ","MAREA":"北子店","LANE":" ","ALLEY":" ","HOUSE_NO":"４號之３","E_COORD97":178784.01999999999,"N_COORD97":2560413.77,"ADDRESS":"北子店４號之３","OBJECTID":116787},"geometry":{"x":178784.02000000142,"y":2560413.7699999996}},{"attributes":{"ID":116788,"DIS_CODE":0,"TOWNNAME":"善化區","LI":"田寮里","LIN":"1鄰","STREET":" ","SECT":" ","MAREA":"六分寮","LANE":" ","ALLEY":" ","HOUSE_NO":"２６號","E_COORD97":178405.66,"N_COORD97":2561382.25,"ADDRESS":"六分寮２６號","OBJECTID":116788},"geometry":{"x":178405.66000000201,"y":2561382.2500000019}},{"attributes":{"ID":116789,"DIS_CODE":0,"TOWNNAME":"安南區","LI":"鳳凰里","LIN":"23鄰","STREET":"怡安路","SECT":"二段","MAREA":" ","LANE":"５４５巷","ALLEY":"６弄","HOUSE_NO":"１１號十四樓","E_COORD97":167481.10000000001,"N_COORD97":2549389.7999999998,"ADDRESS":"怡安路二段５４５巷６弄１１號十四樓","OBJECTID":116789},"geometry":{"x":167481.09999999963,"y":2549389.7999999989}},{"attributes":{"ID":116790,"DIS_CODE":0,"TOWNNAME":"善化區","LI":"什乃里","LIN":"1鄰","STREET":" ","SECT":" ","MAREA":"什乃","LANE":" ","ALLEY":" ","HOUSE_NO":"１號之４５","E_COORD97":176260.07000000001,"N_COORD97":2560322.77,"ADDRESS":"什乃１號之４５","OBJECTID":116790},"geometry":{"x":176260.0700000003,"y":2560322.7700000033}},{"attributes":{"ID":116791,"DIS_CODE":0,"TOWNNAME":"善化區","LI":"田寮里","LIN":"1鄰","STREET":" ","SECT":" ","MAREA":"六分寮","LANE":" ","ALLEY":" ","HOUSE_NO":"１７之４號","E_COORD97":178355.10000000001,"N_COORD97":2561319.27,"ADDRESS":"六分寮１７之４號","OBJECTID":116791},"geometry":{"x":178355.10000000056,"y":2561319.2699999996}},{"attributes":{"ID":116792,"DIS_CODE":0,"TOWNNAME":"新化區","LI":"豐榮里","LIN":"5鄰","STREET":" ","SECT":" ","MAREA":"洋子","LANE":" ","ALLEY":" ","HOUSE_NO":"８２號之５","E_COORD97":177896.48999999999,"N_COORD97":2548298.2599999998,"ADDRESS":"洋子８２號之５","OBJECTID":116792},"geometry":{"x":177896.49000000209,"y":2548298.2600000016}},{"attributes":{"ID":116793,"DIS_CODE":0,"TOWNNAME":"新化區","LI":"羊林里","LIN":"4鄰","STREET":" ","SECT":" ","MAREA":"\u25A0拔林","LANE":" ","ALLEY":" ","HOUSE_NO":"５０４號之１","E_COORD97":183612.04999999999,"N_COORD97":2551595.2599999998,"ADDRESS":"\u25A0拔林５０４號之１","OBJECTID":116793},"geometry":{"x":183612.05000000075,"y":2551595.2599999998}},{"attributes":{"ID":116794,"DIS_CODE":0,"TOWNNAME":"安南區","LI":"鳳凰里","LIN":"23鄰","STREET":"怡安路","SECT":"二段","MAREA":" ","LANE":"５４５巷","ALLEY":"６弄","HOUSE_NO":"１１號十五樓","E_COORD97":167481.10000000001,"N_COORD97":2549389.7999999998,"ADDRESS":"怡安路二段５４５巷６弄１１號十五樓","OBJECTID":116794},"geometry":{"x":167481.09999999963,"y":2549389.7999999989}},{"attributes":{"ID":116795,"DIS_CODE":0,"TOWNNAME":"安南區","LI":"鳳凰里","LIN":"23鄰","STREET":"怡安路","SECT":"二段","MAREA":" ","LANE":"５４５巷","ALLEY":"６弄","HOUSE_NO":"１１號十六樓","E_COORD97":167481.10000000001,"N_COORD97":2549389.7999999998,"ADDRESS":"怡安路二段５４５巷６弄１１號十六樓","OBJECTID":116795},"geometry":{"x":167481.09999999963,"y":2549389.7999999989}},{"attributes":{"ID":116796,"DIS_CODE":0,"TOWNNAME":"北門區","LI":"雙春里","LIN":"8鄰","STREET":" ","SECT":" ","MAREA":"雙春","LANE":" ","ALLEY":" ","HOUSE_NO":"５５號","E_COORD97":160938.92999999999,"N_COORD97":2577774.1200000001,"ADDRESS":"雙春５５號","OBJECTID":116796},"geometry":{"x":160938.9299999997,"y":2577774.120000001}},{"attributes":{"ID":116797,"DIS_CODE":0,"TOWNNAME":"北門區","LI":"雙春里","LIN":"7鄰","STREET":" ","SECT":" ","MAREA":"雙春","LANE":" ","ALLEY":" ","HOUSE_NO":"４５號","E_COORD97":160931.14999999999,"N_COORD97":2577792.6200000001,"ADDRESS":"雙春４５號","OBJECTID":116797},"geometry":{"x":160931.15000000037,"y":2577792.6200000048}},{"attributes":{"ID":116798,"DIS_CODE":0,"TOWNNAME":"安南區","LI":"鳳凰里","LIN":"23鄰","STREET":"怡安路","SECT":"二段","MAREA":" ","LANE":"５４５巷","ALLEY":"６弄","HOUSE_NO":"１１號四樓","E_COORD97":167481.10000000001,"N_COORD97":2549389.7999999998,"ADDRESS":"怡安路二段５４５巷６弄１１號四樓","OBJECTID":116798},"geometry":{"x":167481.09999999963,"y":2549389.7999999989}},{"attributes":{"ID":116799,"DIS_CODE":0,"TOWNNAME":"北門區","LI":"雙春里","LIN":"7鄰","STREET":" ","SECT":" ","MAREA":"雙春","LANE":" ","ALLEY":" ","HOUSE_NO":"４６號","E_COORD97":160920.69,"N_COORD97":2577784.27,"ADDRESS":"雙春４６號","OBJECTID":116799},"geometry":{"x":160920.69000000041,"y":2577784.2700000014}},{"attributes":{"ID":116800,"DIS_CODE":0,"TOWNNAME":"北門區","LI":"雙春里","LIN":"7鄰","STREET":" ","SECT":" ","MAREA":"雙春","LANE":" ","ALLEY":" ","HOUSE_NO":"４７號","E_COORD97":160913.26999999999,"N_COORD97":2577775.4500000002,"ADDRESS":"雙春４７號","OBJECTID":116800},"geometry":{"x":160913.27000000142,"y":2577775.4500000011}}]}