{"displayFieldName":"TOWNNAME","fieldAliases":{"ID":"ID","DIS_CODE":"DIS_CODE","TOWNNAME":"TOWNNAME","LI":"LI","LIN":"LIN","STREET":"STREET","SECT":"SECT","MAREA":"MAREA","LANE":"LANE","ALLEY":"ALLEY","HOUSE_NO":"HOUSE_NO","E_COORD97":"E_COORD97","N_COORD97":"N_COORD97","ADDRESS":"ADDRESS","OBJECTID":"OBJECTID"},"geometryType":"esriGeometryPoint","spatialReference":{"wkid":102443,"latestWkid":3826},"fields":[{"name":"ID","type":"esriFieldTypeDouble","alias":"ID"},{"name":"DIS_CODE","type":"esriFieldTypeInteger","alias":"DIS_CODE"},{"name":"TOWNNAME","type":"esriFieldTypeString","alias":"TOWNNAME","length":8},{"name":"LI","type":"esriFieldTypeString","alias":"LI","length":8},{"name":"LIN","type":"esriFieldTypeString","alias":"LIN","length":12},{"name":"STREET","type":"esriFieldTypeString","alias":"STREET","length":20},{"name":"SECT","type":"esriFieldTypeString","alias":"SECT","length":8},{"name":"MAREA","type":"esriFieldTypeString","alias":"MAREA","length":12},{"name":"LANE","type":"esriFieldTypeString","alias":"LANE","length":10},{"name":"ALLEY","type":"esriFieldTypeString","alias":"ALLEY","length":10},{"name":"HOUSE_NO","type":"esriFieldTypeString","alias":"HOUSE_NO","length":20},{"name":"E_COORD97","type":"esriFieldTypeDouble","alias":"E_COORD97"},{"name":"N_COORD97","type":"esriFieldTypeDouble","alias":"N_COORD97"},{"name":"ADDRESS","type":"esriFieldTypeString","alias":"ADDRESS","length":50},{"name":"OBJECTID","type":"esriFieldTypeOID","alias":"OBJECTID"}],"features":[{"attributes":{"ID":395025,"DIS_CODE":0,"TOWNNAME":"仁德區","LI":"上崙里","LIN":"16鄰","STREET":"德崙路","SECT":" ","MAREA":" ","LANE":"３７０巷","ALLEY":" ","HOUSE_NO":"４３號","E_COORD97":174018.54999999999,"N_COORD97":2537950.52,"ADDRESS":"德崙路３７０巷４３號","OBJECTID":395001},"geometry":{"x":174018.54999999981,"y":2537950.5199999996}},{"attributes":{"ID":395026,"DIS_CODE":0,"TOWNNAME":"仁德區","LI":"二行里","LIN":"16鄰","STREET":"行大街","SECT":" ","MAREA":" ","LANE":"１７２巷","ALLEY":" ","HOUSE_NO":"７９號","E_COORD97":169722.01999999999,"N_COORD97":2535246.25,"ADDRESS":"行大街１７２巷７９號","OBJECTID":395002},"geometry":{"x":169722.02000000048,"y":2535246.2500000019}},{"attributes":{"ID":395027,"DIS_CODE":0,"TOWNNAME":"仁德區","LI":"土庫里","LIN":"16鄰","STREET":"土庫一街","SECT":" ","MAREA":" ","LANE":"２２巷","ALLEY":" ","HOUSE_NO":"３１號","E_COORD97":174523.01999999999,"N_COORD97":2542986.25,"ADDRESS":"土庫一街２２巷３１號","OBJECTID":395003},"geometry":{"x":174523.02000000048,"y":2542986.2500000019}},{"attributes":{"ID":395028,"DIS_CODE":0,"TOWNNAME":"仁德區","LI":"上崙里","LIN":"16鄰","STREET":"德崙路","SECT":" ","MAREA":" ","LANE":"３７０巷","ALLEY":" ","HOUSE_NO":"１１號","E_COORD97":174031.81,"N_COORD97":2538059.02,"ADDRESS":"德崙路３７０巷１１號","OBJECTID":395004},"geometry":{"x":174031.80999999959,"y":2538059.0199999996}},{"attributes":{"ID":395029,"DIS_CODE":0,"TOWNNAME":"仁德區","LI":"上崙里","LIN":"16鄰","STREET":"德崙路","SECT":" ","MAREA":" ","LANE":"３７０巷","ALLEY":" ","HOUSE_NO":"３１號","E_COORD97":174019.51000000001,"N_COORD97":2537979.2599999998,"ADDRESS":"德崙路３７０巷３１號","OBJECTID":395005},"geometry":{"x":174019.51000000071,"y":2537979.2599999998}},{"attributes":{"ID":395030,"DIS_CODE":0,"TOWNNAME":"仁德區","LI":"土庫里","LIN":"16鄰","STREET":"土庫一街","SECT":" ","MAREA":" ","LANE":"２２巷","ALLEY":" ","HOUSE_NO":"２７號","E_COORD97":174539.48999999999,"N_COORD97":2543008.25,"ADDRESS":"土庫一街２２巷２７號","OBJECTID":395006},"geometry":{"x":174539.49000000022,"y":2543008.25}},{"attributes":{"ID":395031,"DIS_CODE":0,"TOWNNAME":"仁德區","LI":"上崙里","LIN":"16鄰","STREET":"德崙路","SECT":" ","MAREA":" ","LANE":"３７０巷","ALLEY":" ","HOUSE_NO":"４７號","E_COORD97":174021.03,"N_COORD97":2537943.02,"ADDRESS":"德崙路３７０巷４７號","OBJECTID":395007},"geometry":{"x":174021.03000000212,"y":2537943.0199999996}},{"attributes":{"ID":395032,"DIS_CODE":0,"TOWNNAME":"仁德區","LI":"上崙里","LIN":"16鄰","STREET":"德崙路","SECT":" ","MAREA":" ","LANE":"３７０巷","ALLEY":" ","HOUSE_NO":"３７號","E_COORD97":174017.29000000001,"N_COORD97":2537962.5099999998,"ADDRESS":"德崙路３７０巷３７號","OBJECTID":395008},"geometry":{"x":174017.28999999911,"y":2537962.5100000016}},{"attributes":{"ID":395033,"DIS_CODE":0,"TOWNNAME":"仁德區","LI":"上崙里","LIN":"16鄰","STREET":"德崙路","SECT":" ","MAREA":" ","LANE":"３７０巷","ALLEY":" ","HOUSE_NO":"４１號","E_COORD97":174018.10000000001,"N_COORD97":2537954.52,"ADDRESS":"德崙路３７０巷４１號","OBJECTID":395009},"geometry":{"x":174018.09999999963,"y":2537954.5199999996}},{"attributes":{"ID":395034,"DIS_CODE":0,"TOWNNAME":"仁德區","LI":"上崙里","LIN":"16鄰","STREET":"德崙路","SECT":" ","MAREA":" ","LANE":"３７０巷","ALLEY":" ","HOUSE_NO":"３號","E_COORD97":174008.06,"N_COORD97":2538090.7599999998,"ADDRESS":"德崙路３７０巷３號","OBJECTID":395010},"geometry":{"x":174008.05999999959,"y":2538090.7600000016}},{"attributes":{"ID":395035,"DIS_CODE":0,"TOWNNAME":"仁德區","LI":"仁義里","LIN":"16鄰","STREET":"義林路","SECT":" ","MAREA":" ","LANE":"２３３巷","ALLEY":" ","HOUSE_NO":"２５號","E_COORD97":174470.48000000001,"N_COORD97":2541241.0600000001,"ADDRESS":"義林路２３３巷２５號","OBJECTID":395011},"geometry":{"x":174470.48000000045,"y":2541241.0600000042}},{"attributes":{"ID":395036,"DIS_CODE":0,"TOWNNAME":"仁德區","LI":"仁義里","LIN":"16鄰","STREET":"義林路","SECT":" ","MAREA":" ","LANE":"２３３巷","ALLEY":" ","HOUSE_NO":"２０號","E_COORD97":174467.54000000001,"N_COORD97":2541260.27,"ADDRESS":"義林路２３３巷２０號","OBJECTID":395012},"geometry":{"x":174467.54000000004,"y":2541260.2700000014}},{"attributes":{"ID":395037,"DIS_CODE":0,"TOWNNAME":"仁德區","LI":"土庫里","LIN":"16鄰","STREET":"土庫二街","SECT":" ","MAREA":" ","LANE":"２００巷","ALLEY":" ","HOUSE_NO":"２００號","E_COORD97":174844.32999999999,"N_COORD97":2542520.9900000002,"ADDRESS":"土庫二街２００巷２００號","OBJECTID":395013},"geometry":{"x":174844.32999999914,"y":2542520.9900000002}},{"attributes":{"ID":395038,"DIS_CODE":0,"TOWNNAME":"仁德區","LI":"仁義里","LIN":"16鄰","STREET":"義林路","SECT":" ","MAREA":" ","LANE":"２３３巷","ALLEY":" ","HOUSE_NO":"２４號","E_COORD97":174458.76000000001,"N_COORD97":2541260.02,"ADDRESS":"義林路２３３巷２４號","OBJECTID":395014},"geometry":{"x":174458.76000000071,"y":2541260.0199999996}},{"attributes":{"ID":395039,"DIS_CODE":0,"TOWNNAME":"仁德區","LI":"仁義里","LIN":"16鄰","STREET":"義林路","SECT":" ","MAREA":" ","LANE":"２３３巷","ALLEY":" ","HOUSE_NO":"１２號","E_COORD97":174494.54000000001,"N_COORD97":2541259.27,"ADDRESS":"義林路２３３巷１２號","OBJECTID":395015},"geometry":{"x":174494.54000000097,"y":2541259.2700000014}},{"attributes":{"ID":395040,"DIS_CODE":0,"TOWNNAME":"永康區","LI":"復國里","LIN":"17鄰","STREET":"國華街","SECT":" ","MAREA":" ","LANE":"３６巷","ALLEY":" ","HOUSE_NO":"９號","E_COORD97":172876.92000000001,"N_COORD97":2545659.4900000002,"ADDRESS":"國華街３６巷９號","OBJECTID":395016},"geometry":{"x":172876.91999999993,"y":2545659.4900000021}},{"attributes":{"ID":395041,"DIS_CODE":0,"TOWNNAME":"仁德區","LI":"仁義里","LIN":"16鄰","STREET":"義林路","SECT":" ","MAREA":" ","LANE":"２３３巷","ALLEY":" ","HOUSE_NO":"１８號","E_COORD97":174472.42999999999,"N_COORD97":2541260.27,"ADDRESS":"義林路２３３巷１８號","OBJECTID":395017},"geometry":{"x":174472.43000000063,"y":2541260.2700000014}},{"attributes":{"ID":395042,"DIS_CODE":0,"TOWNNAME":"仁德區","LI":"仁義里","LIN":"16鄰","STREET":"義林路","SECT":" ","MAREA":" ","LANE":"２５６巷","ALLEY":" ","HOUSE_NO":"４號","E_COORD97":174628.95999999999,"N_COORD97":2541486.2599999998,"ADDRESS":"義林路２５６巷４號","OBJECTID":395018},"geometry":{"x":174628.96000000089,"y":2541486.2600000035}},{"attributes":{"ID":395043,"DIS_CODE":0,"TOWNNAME":"仁德區","LI":"仁義里","LIN":"16鄰","STREET":"義林路","SECT":" ","MAREA":" ","LANE":"２３３巷","ALLEY":" ","HOUSE_NO":"８號","E_COORD97":174506.59,"N_COORD97":2541263.02,"ADDRESS":"義林路２３３巷８號","OBJECTID":395019},"geometry":{"x":174506.58999999985,"y":2541263.0199999996}},{"attributes":{"ID":395044,"DIS_CODE":0,"TOWNNAME":"仁德區","LI":"仁義里","LIN":"16鄰","STREET":"義林路","SECT":" ","MAREA":" ","LANE":"２５６巷","ALLEY":" ","HOUSE_NO":"１４號","E_COORD97":174664.34,"N_COORD97":2541485.7599999998,"ADDRESS":"義林路２５６巷１４號","OBJECTID":395020},"geometry":{"x":174664.33999999892,"y":2541485.7599999998}},{"attributes":{"ID":395045,"DIS_CODE":0,"TOWNNAME":"仁德區","LI":"上崙里","LIN":"16鄰","STREET":"德崙路","SECT":" ","MAREA":" ","LANE":"３７０巷","ALLEY":" ","HOUSE_NO":"５號","E_COORD97":174006.20999999999,"N_COORD97":2538078.7599999998,"ADDRESS":"德崙路３７０巷５號","OBJECTID":395021},"geometry":{"x":174006.21000000089,"y":2538078.7599999979}},{"attributes":{"ID":395046,"DIS_CODE":0,"TOWNNAME":"安平區","LI":"海頭里","LIN":"16鄰","STREET":"古堡街","SECT":" ","MAREA":" ","LANE":"９０巷","ALLEY":" ","HOUSE_NO":"６號","E_COORD97":163954.39000000001,"N_COORD97":2544932.1299999999,"ADDRESS":"古堡街９０巷６號","OBJECTID":395022},"geometry":{"x":163954.3900000006,"y":2544932.1300000008}},{"attributes":{"ID":395047,"DIS_CODE":0,"TOWNNAME":"仁德區","LI":"仁義里","LIN":"16鄰","STREET":"義林路","SECT":" ","MAREA":" ","LANE":"２３３巷","ALLEY":" ","HOUSE_NO":"３３號","E_COORD97":174452.57000000001,"N_COORD97":2541240.0600000001,"ADDRESS":"義林路２３３巷３３號","OBJECTID":395023},"geometry":{"x":174452.5700000003,"y":2541240.0600000005}},{"attributes":{"ID":395048,"DIS_CODE":0,"TOWNNAME":"仁德區","LI":"土庫里","LIN":"16鄰","STREET":"土庫一街","SECT":" ","MAREA":" ","LANE":"８２巷","ALLEY":" ","HOUSE_NO":"２號","E_COORD97":174599.54999999999,"N_COORD97":2543026.5,"ADDRESS":"土庫一街８２巷２號","OBJECTID":395024},"geometry":{"x":174599.54999999981,"y":2543026.5}},{"attributes":{"ID":395049,"DIS_CODE":0,"TOWNNAME":"仁德區","LI":"土庫里","LIN":"16鄰","STREET":"土庫一街","SECT":" ","MAREA":" ","LANE":"８１１巷","ALLEY":" ","HOUSE_NO":"５１號","E_COORD97":174687.79999999999,"N_COORD97":2542654.2400000002,"ADDRESS":"土庫一街８１１巷５１號","OBJECTID":395025},"geometry":{"x":174687.79999999981,"y":2542654.2400000021}},{"attributes":{"ID":395050,"DIS_CODE":0,"TOWNNAME":"中西區","LI":"福安里","LIN":"16鄰","STREET":"中正路","SECT":" ","MAREA":" ","LANE":"１１１巷","ALLEY":" ","HOUSE_NO":"６號","E_COORD97":167999.07999999999,"N_COORD97":2543634.0899999999,"ADDRESS":"中正路１１１巷６號","OBJECTID":395026},"geometry":{"x":167999.08000000007,"y":2543634.0900000017}},{"attributes":{"ID":395051,"DIS_CODE":0,"TOWNNAME":"中西區","LI":"福安里","LIN":"16鄰","STREET":"中正路","SECT":" ","MAREA":" ","LANE":"１１１巷","ALLEY":" ","HOUSE_NO":"８號","E_COORD97":167999.20999999999,"N_COORD97":2543630.2400000002,"ADDRESS":"中正路１１１巷８號","OBJECTID":395027},"geometry":{"x":167999.20999999996,"y":2543630.2400000021}},{"attributes":{"ID":395052,"DIS_CODE":0,"TOWNNAME":"中西區","LI":"福安里","LIN":"16鄰","STREET":"中正路","SECT":" ","MAREA":" ","LANE":"１３１巷","ALLEY":" ","HOUSE_NO":"１１號","E_COORD97":167959.06,"N_COORD97":2543631.2799999998,"ADDRESS":"中正路１３１巷１１號","OBJECTID":395028},"geometry":{"x":167959.05999999959,"y":2543631.2799999993}},{"attributes":{"ID":395053,"DIS_CODE":0,"TOWNNAME":"中西區","LI":"福安里","LIN":"16鄰","STREET":"中正路","SECT":" ","MAREA":" ","LANE":"１３１巷","ALLEY":" ","HOUSE_NO":"１３號","E_COORD97":167958.92999999999,"N_COORD97":2543626.7599999998,"ADDRESS":"中正路１３１巷１３號","OBJECTID":395029},"geometry":{"x":167958.9299999997,"y":2543626.7600000016}},{"attributes":{"ID":395054,"DIS_CODE":0,"TOWNNAME":"中西區","LI":"福安里","LIN":"16鄰","STREET":"中正路","SECT":" ","MAREA":" ","LANE":"１３１巷","ALLEY":" ","HOUSE_NO":"９號","E_COORD97":167982.32999999999,"N_COORD97":2543633.7999999998,"ADDRESS":"中正路１３１巷９號","OBJECTID":395030},"geometry":{"x":167982.33000000194,"y":2543633.8000000026}},{"attributes":{"ID":395055,"DIS_CODE":0,"TOWNNAME":"中西區","LI":"福安里","LIN":"16鄰","STREET":"中正路","SECT":" ","MAREA":" ","LANE":"１３１巷","ALLEY":" ","HOUSE_NO":"９號之１","E_COORD97":167978.20999999999,"N_COORD97":2543634.0699999998,"ADDRESS":"中正路１３１巷９號之１","OBJECTID":395031},"geometry":{"x":167978.21000000089,"y":2543634.070000004}},{"attributes":{"ID":395056,"DIS_CODE":0,"TOWNNAME":"中西區","LI":"福安里","LIN":"16鄰","STREET":"中正路","SECT":" ","MAREA":" ","LANE":"１３１巷","ALLEY":" ","HOUSE_NO":"９號之２","E_COORD97":167974.48999999999,"N_COORD97":2543634.6000000001,"ADDRESS":"中正路１３１巷９號之２","OBJECTID":395032},"geometry":{"x":167974.48999999929,"y":2543634.6000000015}},{"attributes":{"ID":395057,"DIS_CODE":0,"TOWNNAME":"中西區","LI":"福安里","LIN":"16鄰","STREET":"中正路","SECT":" ","MAREA":" ","LANE":"１３１巷","ALLEY":" ","HOUSE_NO":"９號之３","E_COORD97":167970.5,"N_COORD97":2543634.9900000002,"ADDRESS":"中正路１３１巷９號之３","OBJECTID":395033},"geometry":{"x":167970.5,"y":2543634.9900000021}},{"attributes":{"ID":395058,"DIS_CODE":0,"TOWNNAME":"中西區","LI":"福安里","LIN":"16鄰","STREET":"中正路","SECT":" ","MAREA":" ","LANE":"１３１巷","ALLEY":" ","HOUSE_NO":"９號之５","E_COORD97":167960.53,"N_COORD97":2543635.6600000001,"ADDRESS":"中正路１３１巷９號之５","OBJECTID":395034},"geometry":{"x":167960.53000000026,"y":2543635.6600000001}},{"attributes":{"ID":395059,"DIS_CODE":0,"TOWNNAME":"中西區","LI":"福安里","LIN":"16鄰","STREET":"永福路","SECT":"二段","MAREA":" ","LANE":"６３巷","ALLEY":" ","HOUSE_NO":"１０號","E_COORD97":167996.29000000001,"N_COORD97":2543609.02,"ADDRESS":"永福路二段６３巷１０號","OBJECTID":395035},"geometry":{"x":167996.29000000097,"y":2543609.0199999996}},{"attributes":{"ID":395060,"DIS_CODE":0,"TOWNNAME":"中西區","LI":"福安里","LIN":"16鄰","STREET":"永福路","SECT":"二段","MAREA":" ","LANE":"６３巷","ALLEY":" ","HOUSE_NO":"１２號","E_COORD97":167992.98999999999,"N_COORD97":2543609.6499999999,"ADDRESS":"永福路二段６３巷１２號","OBJECTID":395036},"geometry":{"x":167992.99000000022,"y":2543609.6500000004}},{"attributes":{"ID":395061,"DIS_CODE":0,"TOWNNAME":"中西區","LI":"福安里","LIN":"16鄰","STREET":"永福路","SECT":"二段","MAREA":" ","LANE":"６３巷","ALLEY":" ","HOUSE_NO":"１４號","E_COORD97":167988.45000000001,"N_COORD97":2543609.6899999999,"ADDRESS":"永福路二段６３巷１４號","OBJECTID":395037},"geometry":{"x":167988.45000000205,"y":2543609.6900000013}},{"attributes":{"ID":395062,"DIS_CODE":0,"TOWNNAME":"中西區","LI":"福安里","LIN":"16鄰","STREET":"永福路","SECT":"二段","MAREA":" ","LANE":"６３巷","ALLEY":" ","HOUSE_NO":"１６號","E_COORD97":167984.81,"N_COORD97":2543611.27,"ADDRESS":"永福路二段６３巷１６號","OBJECTID":395038},"geometry":{"x":167984.80999999959,"y":2543611.2699999996}},{"attributes":{"ID":395063,"DIS_CODE":0,"TOWNNAME":"中西區","LI":"福安里","LIN":"16鄰","STREET":"中正路","SECT":" ","MAREA":" ","LANE":"１１１巷","ALLEY":" ","HOUSE_NO":"１號","E_COORD97":168021.54999999999,"N_COORD97":2543623.2000000002,"ADDRESS":"中正路１１１巷１號","OBJECTID":395039},"geometry":{"x":168021.55000000075,"y":2543623.2000000011}},{"attributes":{"ID":395064,"DIS_CODE":0,"TOWNNAME":"中西區","LI":"福安里","LIN":"16鄰","STREET":"中正路","SECT":" ","MAREA":" ","LANE":"１１１巷","ALLEY":" ","HOUSE_NO":"３號","E_COORD97":168006.79000000001,"N_COORD97":2543626.6600000001,"ADDRESS":"中正路１１１巷３號","OBJECTID":395040},"geometry":{"x":168006.79000000097,"y":2543626.6600000039}},{"attributes":{"ID":395065,"DIS_CODE":0,"TOWNNAME":"中西區","LI":"福安里","LIN":"16鄰","STREET":"中正路","SECT":" ","MAREA":" ","LANE":"１１１巷","ALLEY":" ","HOUSE_NO":"５號","E_COORD97":168005.20000000001,"N_COORD97":2543618.0499999998,"ADDRESS":"中正路１１１巷５號","OBJECTID":395041},"geometry":{"x":168005.19999999925,"y":2543618.0500000045}},{"attributes":{"ID":395066,"DIS_CODE":0,"TOWNNAME":"中西區","LI":"福安里","LIN":"16鄰","STREET":"永福路","SECT":"二段","MAREA":" ","LANE":"６３巷","ALLEY":" ","HOUSE_NO":"２號","E_COORD97":168023.67999999999,"N_COORD97":2543609.3900000001,"ADDRESS":"永福路二段６３巷２號","OBJECTID":395042},"geometry":{"x":168023.68000000156,"y":2543609.3900000025}},{"attributes":{"ID":395067,"DIS_CODE":0,"TOWNNAME":"中西區","LI":"福安里","LIN":"16鄰","STREET":"永福路","SECT":"二段","MAREA":" ","LANE":"６３巷","ALLEY":" ","HOUSE_NO":"６號","E_COORD97":168012.51000000001,"N_COORD97":2543609.4199999999,"ADDRESS":"永福路二段６３巷６號","OBJECTID":395043},"geometry":{"x":168012.50999999978,"y":2543609.4199999999}},{"attributes":{"ID":395068,"DIS_CODE":0,"TOWNNAME":"中西區","LI":"福安里","LIN":"16鄰","STREET":"永福路","SECT":"二段","MAREA":" ","LANE":"６３巷","ALLEY":" ","HOUSE_NO":"８號","E_COORD97":168004.26999999999,"N_COORD97":2543610.6200000001,"ADDRESS":"永福路二段６３巷８號","OBJECTID":395044},"geometry":{"x":168004.27000000142,"y":2543610.620000001}},{"attributes":{"ID":395069,"DIS_CODE":0,"TOWNNAME":"東區","LI":"後甲里","LIN":"16鄰","STREET":"裕農路","SECT":" ","MAREA":" ","LANE":"６０５巷","ALLEY":" ","HOUSE_NO":"１７號","E_COORD97":171556.09,"N_COORD97":2543282.8500000001,"ADDRESS":"裕農路６０５巷１７號","OBJECTID":395045},"geometry":{"x":171556.09000000078,"y":2543282.8500000015}},{"attributes":{"ID":395070,"DIS_CODE":0,"TOWNNAME":"東區","LI":"後甲里","LIN":"16鄰","STREET":"裕農路","SECT":" ","MAREA":" ","LANE":"６０５巷","ALLEY":" ","HOUSE_NO":"１９號","E_COORD97":171554.88,"N_COORD97":2543286.7000000002,"ADDRESS":"裕農路６０５巷１９號","OBJECTID":395046},"geometry":{"x":171554.87999999989,"y":2543286.7000000011}},{"attributes":{"ID":395071,"DIS_CODE":0,"TOWNNAME":"東區","LI":"後甲里","LIN":"16鄰","STREET":"裕農路","SECT":" ","MAREA":" ","LANE":"６０５巷","ALLEY":" ","HOUSE_NO":"２５號","E_COORD97":171552.95000000001,"N_COORD97":2543303.3300000001,"ADDRESS":"裕農路６０５巷２５號","OBJECTID":395047},"geometry":{"x":171552.95000000019,"y":2543303.3300000038}},{"attributes":{"ID":395072,"DIS_CODE":0,"TOWNNAME":"東區","LI":"小東里","LIN":"16鄰","STREET":"光明街","SECT":" ","MAREA":" ","LANE":"６６巷","ALLEY":" ","HOUSE_NO":"２３號之１","E_COORD97":170850.31,"N_COORD97":2544182.5099999998,"ADDRESS":"光明街６６巷２３號之１","OBJECTID":395048},"geometry":{"x":170850.31000000145,"y":2544182.5099999998}},{"attributes":{"ID":395073,"DIS_CODE":0,"TOWNNAME":"東區","LI":"崇成里","LIN":"13鄰","STREET":"崇道路","SECT":" ","MAREA":" ","LANE":" ","ALLEY":" ","HOUSE_NO":"２４號","E_COORD97":170686.12,"N_COORD97":2541386.48,"ADDRESS":"崇道路２４號","OBJECTID":395049},"geometry":{"x":170686.12000000104,"y":2541386.4800000004}},{"attributes":{"ID":395074,"DIS_CODE":0,"TOWNNAME":"東區","LI":"小東里","LIN":"16鄰","STREET":"光明街","SECT":" ","MAREA":" ","LANE":"６６巷","ALLEY":" ","HOUSE_NO":"２３號之３","E_COORD97":170850.78,"N_COORD97":2544174.8399999999,"ADDRESS":"光明街６６巷２３號之３","OBJECTID":395050},"geometry":{"x":170850.78000000026,"y":2544174.8400000017}},{"attributes":{"ID":395075,"DIS_CODE":0,"TOWNNAME":"東區","LI":"小東里","LIN":"16鄰","STREET":"光明街","SECT":" ","MAREA":" ","LANE":"６６巷","ALLEY":" ","HOUSE_NO":"２３號之５","E_COORD97":170851.87,"N_COORD97":2544166.23,"ADDRESS":"光明街６６巷２３號之５","OBJECTID":395051},"geometry":{"x":170851.87000000011,"y":2544166.2300000023}},{"attributes":{"ID":395076,"DIS_CODE":0,"TOWNNAME":"東區","LI":"小東里","LIN":"16鄰","STREET":"光明街","SECT":" ","MAREA":" ","LANE":"６６巷","ALLEY":" ","HOUSE_NO":"２３號之６","E_COORD97":170851.87,"N_COORD97":2544162.3100000001,"ADDRESS":"光明街６６巷２３號之６","OBJECTID":395052},"geometry":{"x":170851.87000000011,"y":2544162.3100000024}},{"attributes":{"ID":395077,"DIS_CODE":0,"TOWNNAME":"東區","LI":"小東里","LIN":"16鄰","STREET":"光明街","SECT":" ","MAREA":" ","LANE":"６６巷","ALLEY":" ","HOUSE_NO":"２３號之４","E_COORD97":170851.39999999999,"N_COORD97":2544170.2999999998,"ADDRESS":"光明街６６巷２３號之４","OBJECTID":395053},"geometry":{"x":170851.40000000037,"y":2544170.3000000026}},{"attributes":{"ID":395078,"DIS_CODE":0,"TOWNNAME":"東區","LI":"小東里","LIN":"16鄰","STREET":"光明街","SECT":" ","MAREA":" ","LANE":"６６巷","ALLEY":" ","HOUSE_NO":"２３號","E_COORD97":170850.31,"N_COORD97":2544185.7999999998,"ADDRESS":"光明街６６巷２３號","OBJECTID":395054},"geometry":{"x":170850.31000000145,"y":2544185.8000000045}},{"attributes":{"ID":395079,"DIS_CODE":0,"TOWNNAME":"東區","LI":"小東里","LIN":"16鄰","STREET":"光明街","SECT":" ","MAREA":" ","LANE":"６６巷","ALLEY":" ","HOUSE_NO":"２３號之２","E_COORD97":170850.78,"N_COORD97":2544178.6000000001,"ADDRESS":"光明街６６巷２３號之２","OBJECTID":395055},"geometry":{"x":170850.78000000026,"y":2544178.5999999996}},{"attributes":{"ID":395080,"DIS_CODE":0,"TOWNNAME":"東區","LI":"後甲里","LIN":"16鄰","STREET":"裕農路","SECT":" ","MAREA":" ","LANE":"６０５巷","ALLEY":" ","HOUSE_NO":"３號","E_COORD97":171557.53,"N_COORD97":2543252.9700000002,"ADDRESS":"裕農路６０５巷３號","OBJECTID":395056},"geometry":{"x":171557.53000000026,"y":2543252.9700000025}},{"attributes":{"ID":395081,"DIS_CODE":0,"TOWNNAME":"東區","LI":"大德里","LIN":"16鄰","STREET":"立德十一路","SECT":" ","MAREA":" ","LANE":"５５巷","ALLEY":" ","HOUSE_NO":"４９號","E_COORD97":169436.57999999999,"N_COORD97":2542239.8599999999,"ADDRESS":"立德十一路５５巷４９號","OBJECTID":395057},"geometry":{"x":169436.58000000007,"y":2542239.8599999994}},{"attributes":{"ID":395082,"DIS_CODE":0,"TOWNNAME":"東區","LI":"大德里","LIN":"16鄰","STREET":"立德十一路","SECT":" ","MAREA":" ","LANE":"５５巷","ALLEY":" ","HOUSE_NO":"９號","E_COORD97":169476.98000000001,"N_COORD97":2542170.79,"ADDRESS":"立德十一路５５巷９號","OBJECTID":395058},"geometry":{"x":169476.98000000138,"y":2542170.790000001}},{"attributes":{"ID":395083,"DIS_CODE":0,"TOWNNAME":"東區","LI":"大德里","LIN":"16鄰","STREET":"立德十一路","SECT":" ","MAREA":" ","LANE":"５５巷","ALLEY":" ","HOUSE_NO":"３７號","E_COORD97":169472.07000000001,"N_COORD97":2542229.0699999998,"ADDRESS":"立德十一路５５巷３７號","OBJECTID":395059},"geometry":{"x":169472.0700000003,"y":2542229.0700000003}},{"attributes":{"ID":395084,"DIS_CODE":0,"TOWNNAME":"東區","LI":"大德里","LIN":"16鄰","STREET":"立德十一路","SECT":" ","MAREA":" ","LANE":"５５巷","ALLEY":" ","HOUSE_NO":"３９號","E_COORD97":169467.35000000001,"N_COORD97":2542242.5299999998,"ADDRESS":"立德十一路５５巷３９號","OBJECTID":395060},"geometry":{"x":169467.35000000056,"y":2542242.5299999993}},{"attributes":{"ID":395085,"DIS_CODE":0,"TOWNNAME":"東區","LI":"中西里","LIN":"16鄰","STREET":"長榮路","SECT":"二段","MAREA":" ","LANE":"１７０巷","ALLEY":" ","HOUSE_NO":"８號","E_COORD97":170084.53,"N_COORD97":2543316.4199999999,"ADDRESS":"長榮路二段１７０巷８號","OBJECTID":395061},"geometry":{"x":170084.53000000026,"y":2543316.4200000018}},{"attributes":{"ID":395086,"DIS_CODE":0,"TOWNNAME":"東區","LI":"富強里","LIN":"16鄰","STREET":"裕農路","SECT":" ","MAREA":" ","LANE":"２８８巷","ALLEY":" ","HOUSE_NO":"１２６號","E_COORD97":171041.54000000001,"N_COORD97":2542943.8300000001,"ADDRESS":"裕農路２８８巷１２６號","OBJECTID":395062},"geometry":{"x":171041.54000000004,"y":2542943.8300000038}},{"attributes":{"ID":395087,"DIS_CODE":0,"TOWNNAME":"東區","LI":"富強里","LIN":"16鄰","STREET":"裕農路","SECT":" ","MAREA":" ","LANE":"２８８巷","ALLEY":" ","HOUSE_NO":"１２８號","E_COORD97":171048.73999999999,"N_COORD97":2542944.48,"ADDRESS":"裕農路２８８巷１２８號","OBJECTID":395063},"geometry":{"x":171048.74000000115,"y":2542944.4800000023}},{"attributes":{"ID":395088,"DIS_CODE":0,"TOWNNAME":"東區","LI":"富強里","LIN":"16鄰","STREET":"裕農路","SECT":" ","MAREA":" ","LANE":"２８８巷","ALLEY":" ","HOUSE_NO":"１４０號","E_COORD97":171062.26000000001,"N_COORD97":2542913.8300000001,"ADDRESS":"裕農路２８８巷１４０號","OBJECTID":395064},"geometry":{"x":171062.25999999978,"y":2542913.8300000019}},{"attributes":{"ID":395089,"DIS_CODE":0,"TOWNNAME":"東區","LI":"富強里","LIN":"16鄰","STREET":"裕農路","SECT":" ","MAREA":" ","LANE":"２８８巷","ALLEY":" ","HOUSE_NO":"１４６號","E_COORD97":171063.41,"N_COORD97":2542903.4100000001,"ADDRESS":"裕農路２８８巷１４６號","OBJECTID":395065},"geometry":{"x":171063.41000000015,"y":2542903.410000002}},{"attributes":{"ID":395090,"DIS_CODE":0,"TOWNNAME":"東區","LI":"富強里","LIN":"16鄰","STREET":"裕農路","SECT":" ","MAREA":" ","LANE":"２８８巷","ALLEY":" ","HOUSE_NO":"１５６號","E_COORD97":171061.23000000001,"N_COORD97":2542878.0299999998,"ADDRESS":"裕農路２８８巷１５６號","OBJECTID":395066},"geometry":{"x":171061.23000000045,"y":2542878.0300000012}},{"attributes":{"ID":395091,"DIS_CODE":0,"TOWNNAME":"東區","LI":"富強里","LIN":"16鄰","STREET":"裕農路","SECT":" ","MAREA":" ","LANE":"２８８巷","ALLEY":" ","HOUSE_NO":"１５８號","E_COORD97":171062.54999999999,"N_COORD97":2542873.9399999999,"ADDRESS":"裕農路２８８巷１５８號","OBJECTID":395067},"geometry":{"x":171062.55000000075,"y":2542873.9399999995}},{"attributes":{"ID":395092,"DIS_CODE":0,"TOWNNAME":"永康區","LI":"甲頂里","LIN":"16鄰","STREET":"中正南路","SECT":" ","MAREA":" ","LANE":"５２巷","ALLEY":" ","HOUSE_NO":"４５號","E_COORD97":169837.06,"N_COORD97":2546781.75,"ADDRESS":"中正南路５２巷４５號","OBJECTID":395068},"geometry":{"x":169837.06000000052,"y":2546781.75}},{"attributes":{"ID":395093,"DIS_CODE":0,"TOWNNAME":"永康區","LI":"西勢里","LIN":"16鄰","STREET":"西勢路","SECT":" ","MAREA":" ","LANE":"６６巷","ALLEY":" ","HOUSE_NO":"３１號","E_COORD97":176138.37,"N_COORD97":2546833.04,"ADDRESS":"西勢路６６巷３１號","OBJECTID":395069},"geometry":{"x":176138.37000000104,"y":2546833.0399999991}},{"attributes":{"ID":395094,"DIS_CODE":0,"TOWNNAME":"永康區","LI":"西勢里","LIN":"16鄰","STREET":"西勢路","SECT":" ","MAREA":" ","LANE":"８２巷","ALLEY":" ","HOUSE_NO":"１７號","E_COORD97":176077.38,"N_COORD97":2546812.7799999998,"ADDRESS":"西勢路８２巷１７號","OBJECTID":395070},"geometry":{"x":176077.37999999989,"y":2546812.7800000012}},{"attributes":{"ID":395095,"DIS_CODE":0,"TOWNNAME":"永康區","LI":"西橋里","LIN":"16鄰","STREET":"大橋三街","SECT":" ","MAREA":" ","LANE":"１０巷","ALLEY":" ","HOUSE_NO":"１９號","E_COORD97":170546.26999999999,"N_COORD97":2546343.8500000001,"ADDRESS":"大橋三街１０巷１９號","OBJECTID":395071},"geometry":{"x":170546.26999999955,"y":2546343.8500000034}},{"attributes":{"ID":395096,"DIS_CODE":0,"TOWNNAME":"永康區","LI":"光復里","LIN":"16鄰","STREET":"復興路","SECT":" ","MAREA":" ","LANE":"１２８巷","ALLEY":" ","HOUSE_NO":"６０號","E_COORD97":172625.44,"N_COORD97":2544391.02,"ADDRESS":"復興路１２８巷６０號","OBJECTID":395072},"geometry":{"x":172625.44000000134,"y":2544391.0200000014}},{"attributes":{"ID":395097,"DIS_CODE":0,"TOWNNAME":"永康區","LI":"西勢里","LIN":"16鄰","STREET":"西勢路","SECT":" ","MAREA":" ","LANE":"８２巷","ALLEY":" ","HOUSE_NO":"３１號","E_COORD97":176070.29000000001,"N_COORD97":2546831.7999999998,"ADDRESS":"西勢路８２巷３１號","OBJECTID":395073},"geometry":{"x":176070.2900000019,"y":2546831.8000000026}},{"attributes":{"ID":395098,"DIS_CODE":0,"TOWNNAME":"永康區","LI":"西勢里","LIN":"16鄰","STREET":"西勢路","SECT":" ","MAREA":" ","LANE":"６６巷","ALLEY":" ","HOUSE_NO":"３８號","E_COORD97":176151.64999999999,"N_COORD97":2546849.54,"ADDRESS":"西勢路６６巷３８號","OBJECTID":395074},"geometry":{"x":176151.6500000013,"y":2546849.5399999991}},{"attributes":{"ID":395099,"DIS_CODE":0,"TOWNNAME":"永康區","LI":"西勢里","LIN":"16鄰","STREET":"西勢路","SECT":" ","MAREA":" ","LANE":"８２巷","ALLEY":" ","HOUSE_NO":"１２號","E_COORD97":176110.31,"N_COORD97":2546804.7200000002,"ADDRESS":"西勢路８２巷１２號","OBJECTID":395075},"geometry":{"x":176110.31000000145,"y":2546804.7200000025}},{"attributes":{"ID":395100,"DIS_CODE":0,"TOWNNAME":"永康區","LI":"西勢里","LIN":"16鄰","STREET":"西勢路","SECT":" ","MAREA":" ","LANE":"８２巷","ALLEY":" ","HOUSE_NO":"２５號","E_COORD97":176057.78,"N_COORD97":2546832.5499999998,"ADDRESS":"西勢路８２巷２５號","OBJECTID":395076},"geometry":{"x":176057.78000000119,"y":2546832.5500000026}},{"attributes":{"ID":395101,"DIS_CODE":0,"TOWNNAME":"永康區","LI":"西勢里","LIN":"16鄰","STREET":"西勢路","SECT":" ","MAREA":" ","LANE":"８２巷","ALLEY":" ","HOUSE_NO":"３０號","E_COORD97":176101.87,"N_COORD97":2546851.29,"ADDRESS":"西勢路８２巷３０號","OBJECTID":395077},"geometry":{"x":176101.87000000011,"y":2546851.2899999991}},{"attributes":{"ID":395102,"DIS_CODE":0,"TOWNNAME":"永康區","LI":"光復里","LIN":"16鄰","STREET":"復興路","SECT":" ","MAREA":" ","LANE":"１２８巷","ALLEY":" ","HOUSE_NO":"４６號","E_COORD97":172662.39999999999,"N_COORD97":2544403.77,"ADDRESS":"復興路１２８巷４６號","OBJECTID":395078},"geometry":{"x":172662.40000000037,"y":2544403.7699999996}},{"attributes":{"ID":395103,"DIS_CODE":0,"TOWNNAME":"永康區","LI":"西勢里","LIN":"16鄰","STREET":"西勢路","SECT":" ","MAREA":" ","LANE":"８２巷","ALLEY":" ","HOUSE_NO":"１４號","E_COORD97":176109.42000000001,"N_COORD97":2546809.7200000002,"ADDRESS":"西勢路８２巷１４號","OBJECTID":395079},"geometry":{"x":176109.41999999993,"y":2546809.7200000007}},{"attributes":{"ID":395104,"DIS_CODE":0,"TOWNNAME":"永康區","LI":"光復里","LIN":"16鄰","STREET":"復興路","SECT":" ","MAREA":" ","LANE":"１２８巷","ALLEY":" ","HOUSE_NO":"５８號","E_COORD97":172631.89999999999,"N_COORD97":2544393.52,"ADDRESS":"復興路１２８巷５８號","OBJECTID":395080},"geometry":{"x":172631.90000000037,"y":2544393.5200000014}},{"attributes":{"ID":395105,"DIS_CODE":0,"TOWNNAME":"永康區","LI":"西勢里","LIN":"16鄰","STREET":"西勢路","SECT":" ","MAREA":" ","LANE":"８２巷","ALLEY":" ","HOUSE_NO":"２３號","E_COORD97":176058.51999999999,"N_COORD97":2546822.4700000002,"ADDRESS":"西勢路８２巷２３號","OBJECTID":395081},"geometry":{"x":176058.52000000048,"y":2546822.4700000044}},{"attributes":{"ID":395106,"DIS_CODE":0,"TOWNNAME":"永康區","LI":"西勢里","LIN":"16鄰","STREET":"西勢路","SECT":" ","MAREA":" ","LANE":"６６巷","ALLEY":" ","HOUSE_NO":"３２號","E_COORD97":176156.09,"N_COORD97":2546832.29,"ADDRESS":"西勢路６６巷３２號","OBJECTID":395082},"geometry":{"x":176156.08999999892,"y":2546832.290000001}},{"attributes":{"ID":395107,"DIS_CODE":0,"TOWNNAME":"永康區","LI":"光復里","LIN":"16鄰","STREET":"復興路","SECT":" ","MAREA":" ","LANE":"１２８巷","ALLEY":" ","HOUSE_NO":"４０號","E_COORD97":172678.95999999999,"N_COORD97":2544405.52,"ADDRESS":"復興路１２８巷４０號","OBJECTID":395083},"geometry":{"x":172678.96000000089,"y":2544405.5199999996}},{"attributes":{"ID":395108,"DIS_CODE":0,"TOWNNAME":"永康區","LI":"西勢里","LIN":"16鄰","STREET":"西勢路","SECT":" ","MAREA":" ","LANE":"８２巷","ALLEY":" ","HOUSE_NO":"２２號","E_COORD97":176106.57000000001,"N_COORD97":2546832.54,"ADDRESS":"西勢路８２巷２２號","OBJECTID":395084},"geometry":{"x":176106.57000000123,"y":2546832.5399999991}},{"attributes":{"ID":395109,"DIS_CODE":0,"TOWNNAME":"永康區","LI":"西勢里","LIN":"16鄰","STREET":"西勢路","SECT":" ","MAREA":" ","LANE":"８２巷","ALLEY":" ","HOUSE_NO":"２４號","E_COORD97":176107,"N_COORD97":2546837.29,"ADDRESS":"西勢路８２巷２４號","OBJECTID":395085},"geometry":{"x":176107,"y":2546837.2899999991}},{"attributes":{"ID":395110,"DIS_CODE":0,"TOWNNAME":"永康區","LI":"西勢里","LIN":"16鄰","STREET":"西勢路","SECT":" ","MAREA":" ","LANE":"８２巷","ALLEY":" ","HOUSE_NO":"２０號","E_COORD97":176110.01999999999,"N_COORD97":2546819.04,"ADDRESS":"西勢路８２巷２０號","OBJECTID":395086},"geometry":{"x":176110.01999999955,"y":2546819.0399999991}},{"attributes":{"ID":395111,"DIS_CODE":0,"TOWNNAME":"永康區","LI":"西勢里","LIN":"16鄰","STREET":"西勢路","SECT":" ","MAREA":" ","LANE":"８２巷","ALLEY":" ","HOUSE_NO":"２９號","E_COORD97":176066.53,"N_COORD97":2546832.0499999998,"ADDRESS":"西勢路８２巷２９號","OBJECTID":395087},"geometry":{"x":176066.53000000026,"y":2546832.0500000045}},{"attributes":{"ID":395112,"DIS_CODE":0,"TOWNNAME":"永康區","LI":"甲頂里","LIN":"16鄰","STREET":"中正南路","SECT":" ","MAREA":" ","LANE":"５２巷","ALLEY":" ","HOUSE_NO":"４１號","E_COORD97":169827.16,"N_COORD97":2546783.3500000001,"ADDRESS":"中正南路５２巷４１號","OBJECTID":395088},"geometry":{"x":169827.16000000015,"y":2546783.3499999996}},{"attributes":{"ID":395113,"DIS_CODE":0,"TOWNNAME":"永康區","LI":"西勢里","LIN":"16鄰","STREET":"西勢路","SECT":" ","MAREA":" ","LANE":"６６巷","ALLEY":" ","HOUSE_NO":"４０號","E_COORD97":176151.89999999999,"N_COORD97":2546853.79,"ADDRESS":"西勢路６６巷４０號","OBJECTID":395089},"geometry":{"x":176151.9000000013,"y":2546853.790000001}},{"attributes":{"ID":395114,"DIS_CODE":0,"TOWNNAME":"永康區","LI":"\u25A0行里","LIN":"16鄰","STREET":"中正六街","SECT":" ","MAREA":" ","LANE":"２６６巷","ALLEY":" ","HOUSE_NO":"２６號","E_COORD97":171928.97,"N_COORD97":2548864.6699999999,"ADDRESS":"中正六街２６６巷２６號","OBJECTID":395090},"geometry":{"x":171928.96999999881,"y":2548864.6700000037}},{"attributes":{"ID":395115,"DIS_CODE":0,"TOWNNAME":"永康區","LI":"\u25A0行里","LIN":"16鄰","STREET":"中正六街","SECT":" ","MAREA":" ","LANE":"２６６巷","ALLEY":" ","HOUSE_NO":"２０號","E_COORD97":171935.35999999999,"N_COORD97":2548872.2400000002,"ADDRESS":"中正六街２６６巷２０號","OBJECTID":395091},"geometry":{"x":171935.36000000034,"y":2548872.2400000021}},{"attributes":{"ID":395116,"DIS_CODE":0,"TOWNNAME":"新化區","LI":"協興里","LIN":"16鄰","STREET":"中山路","SECT":" ","MAREA":" ","LANE":"６６０巷","ALLEY":" ","HOUSE_NO":"１１號","E_COORD97":178087.22,"N_COORD97":2548561.2200000002,"ADDRESS":"中山路６６０巷１１號","OBJECTID":395092},"geometry":{"x":178087.21999999974,"y":2548561.2200000025}},{"attributes":{"ID":395117,"DIS_CODE":0,"TOWNNAME":"新化區","LI":"協興里","LIN":"16鄰","STREET":"中山路","SECT":" ","MAREA":" ","LANE":"６６０巷","ALLEY":" ","HOUSE_NO":"１３號","E_COORD97":178077.60000000001,"N_COORD97":2548557.3599999999,"ADDRESS":"中山路６６０巷１３號","OBJECTID":395093},"geometry":{"x":178077.59999999963,"y":2548557.3599999975}},{"attributes":{"ID":395118,"DIS_CODE":0,"TOWNNAME":"新化區","LI":"協興里","LIN":"16鄰","STREET":"中山路","SECT":" ","MAREA":" ","LANE":"６６０巷","ALLEY":" ","HOUSE_NO":"１５號","E_COORD97":178069.20999999999,"N_COORD97":2548554.1099999999,"ADDRESS":"中山路６６０巷１５號","OBJECTID":395094},"geometry":{"x":178069.20999999996,"y":2548554.1100000013}},{"attributes":{"ID":395119,"DIS_CODE":0,"TOWNNAME":"新化區","LI":"協興里","LIN":"16鄰","STREET":"中山路","SECT":" ","MAREA":" ","LANE":"６６０巷","ALLEY":" ","HOUSE_NO":"２３號","E_COORD97":178061.84,"N_COORD97":2548550.9300000002,"ADDRESS":"中山路６６０巷２３號","OBJECTID":395095},"geometry":{"x":178061.84000000078,"y":2548550.9300000016}},{"attributes":{"ID":395120,"DIS_CODE":0,"TOWNNAME":"新化區","LI":"協興里","LIN":"16鄰","STREET":"中山路","SECT":" ","MAREA":" ","LANE":"６６０巷","ALLEY":" ","HOUSE_NO":"２５號","E_COORD97":178055.37,"N_COORD97":2548548.1099999999,"ADDRESS":"中山路６６０巷２５號","OBJECTID":395096},"geometry":{"x":178055.37000000104,"y":2548548.1099999994}},{"attributes":{"ID":395121,"DIS_CODE":0,"TOWNNAME":"新化區","LI":"協興里","LIN":"16鄰","STREET":"中山路","SECT":" ","MAREA":" ","LANE":"６６０巷","ALLEY":" ","HOUSE_NO":"２７號","E_COORD97":178048.79999999999,"N_COORD97":2548545.29,"ADDRESS":"中山路６６０巷２７號","OBJECTID":395097},"geometry":{"x":178048.80000000075,"y":2548545.290000001}},{"attributes":{"ID":395122,"DIS_CODE":0,"TOWNNAME":"新化區","LI":"協興里","LIN":"16鄰","STREET":"中山路","SECT":" ","MAREA":" ","LANE":"６６０巷","ALLEY":" ","HOUSE_NO":"２９號","E_COORD97":178042,"N_COORD97":2548542.6800000002,"ADDRESS":"中山路６６０巷２９號","OBJECTID":395098},"geometry":{"x":178042.00000000186,"y":2548542.6800000016}},{"attributes":{"ID":395123,"DIS_CODE":0,"TOWNNAME":"新化區","LI":"協興里","LIN":"16鄰","STREET":"中山路","SECT":" ","MAREA":" ","LANE":"６６０巷","ALLEY":" ","HOUSE_NO":"３１號","E_COORD97":178034.01999999999,"N_COORD97":2548541.79,"ADDRESS":"中山路６６０巷３１號","OBJECTID":395099},"geometry":{"x":178034.01999999955,"y":2548541.790000001}},{"attributes":{"ID":395124,"DIS_CODE":0,"TOWNNAME":"新化區","LI":"協興里","LIN":"16鄰","STREET":"中山路","SECT":" ","MAREA":" ","LANE":"６６０巷","ALLEY":" ","HOUSE_NO":"３３號","E_COORD97":178027.73999999999,"N_COORD97":2548549.54,"ADDRESS":"中山路６６０巷３３號","OBJECTID":395100},"geometry":{"x":178027.74000000115,"y":2548549.540000001}},{"attributes":{"ID":395125,"DIS_CODE":0,"TOWNNAME":"新化區","LI":"協興里","LIN":"16鄰","STREET":"中山路","SECT":" ","MAREA":" ","LANE":"６６０巷","ALLEY":" ","HOUSE_NO":"７號","E_COORD97":178102.07000000001,"N_COORD97":2548567.9199999999,"ADDRESS":"中山路６６０巷７號","OBJECTID":395101},"geometry":{"x":178102.0700000003,"y":2548567.9200000037}},{"attributes":{"ID":395126,"DIS_CODE":0,"TOWNNAME":"新化區","LI":"協興里","LIN":"16鄰","STREET":"中山路","SECT":" ","MAREA":" ","LANE":"６６０巷","ALLEY":" ","HOUSE_NO":"９號","E_COORD97":178095.12,"N_COORD97":2548564.5899999999,"ADDRESS":"中山路６６０巷９號","OBJECTID":395102},"geometry":{"x":178095.12000000011,"y":2548564.5900000017}},{"attributes":{"ID":395127,"DIS_CODE":0,"TOWNNAME":"安南區","LI":"海南里","LIN":"16鄰","STREET":"府安路","SECT":"七段","MAREA":" ","LANE":"１０２巷","ALLEY":" ","HOUSE_NO":"１７號","E_COORD97":165741.76000000001,"N_COORD97":2545855.3700000001,"ADDRESS":"府安路七段１０２巷１７號","OBJECTID":395103},"geometry":{"x":165741.76000000071,"y":2545855.370000001}},{"attributes":{"ID":395128,"DIS_CODE":0,"TOWNNAME":"安南區","LI":"海南里","LIN":"16鄰","STREET":"府安路","SECT":"七段","MAREA":" ","LANE":"１０２巷","ALLEY":" ","HOUSE_NO":"１８號","E_COORD97":165761.10999999999,"N_COORD97":2545864.5,"ADDRESS":"府安路七段１０２巷１８號","OBJECTID":395104},"geometry":{"x":165761.11000000034,"y":2545864.5}},{"attributes":{"ID":395129,"DIS_CODE":0,"TOWNNAME":"安南區","LI":"海南里","LIN":"16鄰","STREET":"府安路","SECT":"七段","MAREA":" ","LANE":"１０２巷","ALLEY":" ","HOUSE_NO":"２０號","E_COORD97":165758.42000000001,"N_COORD97":2545871.23,"ADDRESS":"府安路七段１０２巷２０號","OBJECTID":395105},"geometry":{"x":165758.41999999993,"y":2545871.2300000023}},{"attributes":{"ID":395130,"DIS_CODE":0,"TOWNNAME":"安南區","LI":"海南里","LIN":"16鄰","STREET":"府安路","SECT":"七段","MAREA":" ","LANE":"１０２巷","ALLEY":" ","HOUSE_NO":"２４號","E_COORD97":165746.10999999999,"N_COORD97":2545884.7000000002,"ADDRESS":"府安路七段１０２巷２４號","OBJECTID":395106},"geometry":{"x":165746.11000000034,"y":2545884.7000000011}},{"attributes":{"ID":395131,"DIS_CODE":0,"TOWNNAME":"安南區","LI":"海南里","LIN":"16鄰","STREET":"府安路","SECT":"七段","MAREA":" ","LANE":"１０２巷","ALLEY":" ","HOUSE_NO":"２５號","E_COORD97":165717.70999999999,"N_COORD97":2545887.4500000002,"ADDRESS":"府安路七段１０２巷２５號","OBJECTID":395107},"geometry":{"x":165717.70999999996,"y":2545887.4499999993}},{"attributes":{"ID":395132,"DIS_CODE":0,"TOWNNAME":"安南區","LI":"海南里","LIN":"16鄰","STREET":"府安路","SECT":"七段","MAREA":" ","LANE":"１０２巷","ALLEY":" ","HOUSE_NO":"２６號","E_COORD97":165740.92000000001,"N_COORD97":2545891.2200000002,"ADDRESS":"府安路七段１０２巷２６號","OBJECTID":395108},"geometry":{"x":165740.92000000086,"y":2545891.2200000007}},{"attributes":{"ID":395133,"DIS_CODE":0,"TOWNNAME":"安南區","LI":"海南里","LIN":"16鄰","STREET":"府安路","SECT":"七段","MAREA":" ","LANE":"１０２巷","ALLEY":" ","HOUSE_NO":"２８號","E_COORD97":165735.98000000001,"N_COORD97":2545898.3300000001,"ADDRESS":"府安路七段１０２巷２８號","OBJECTID":395109},"geometry":{"x":165735.98000000138,"y":2545898.3300000019}},{"attributes":{"ID":395134,"DIS_CODE":0,"TOWNNAME":"安南區","LI":"海南里","LIN":"16鄰","STREET":"府安路","SECT":"七段","MAREA":" ","LANE":"１０２巷","ALLEY":" ","HOUSE_NO":"３０號","E_COORD97":165730.01000000001,"N_COORD97":2545904.0600000001,"ADDRESS":"府安路七段１０２巷３０號","OBJECTID":395110},"geometry":{"x":165730.01000000071,"y":2545904.0600000024}},{"attributes":{"ID":395135,"DIS_CODE":0,"TOWNNAME":"安南區","LI":"海南里","LIN":"16鄰","STREET":"府安路","SECT":"七段","MAREA":" ","LANE":"１０２巷","ALLEY":" ","HOUSE_NO":"３１號","E_COORD97":165695.94,"N_COORD97":2545915.6800000002,"ADDRESS":"府安路七段１０２巷３１號","OBJECTID":395111},"geometry":{"x":165695.94000000041,"y":2545915.6800000016}},{"attributes":{"ID":395136,"DIS_CODE":0,"TOWNNAME":"安南區","LI":"海南里","LIN":"16鄰","STREET":"府安路","SECT":"七段","MAREA":" ","LANE":"９３巷","ALLEY":" ","HOUSE_NO":"１０號","E_COORD97":165808.48000000001,"N_COORD97":2545864.1699999999,"ADDRESS":"府安路七段９３巷１０號","OBJECTID":395112},"geometry":{"x":165808.48000000231,"y":2545864.1700000037}},{"attributes":{"ID":395137,"DIS_CODE":0,"TOWNNAME":"安南區","LI":"海南里","LIN":"16鄰","STREET":"府安路","SECT":"七段","MAREA":" ","LANE":"９３巷","ALLEY":" ","HOUSE_NO":"１１號","E_COORD97":165787.29000000001,"N_COORD97":2545851.5499999998,"ADDRESS":"府安路七段９３巷１１號","OBJECTID":395113},"geometry":{"x":165787.2900000019,"y":2545851.5500000007}},{"attributes":{"ID":395138,"DIS_CODE":0,"TOWNNAME":"安南區","LI":"海南里","LIN":"16鄰","STREET":"府安路","SECT":"七段","MAREA":" ","LANE":"９３巷","ALLEY":" ","HOUSE_NO":"１２號","E_COORD97":165803.60000000001,"N_COORD97":2545871.3500000001,"ADDRESS":"府安路七段９３巷１２號","OBJECTID":395114},"geometry":{"x":165803.60000000056,"y":2545871.3499999996}},{"attributes":{"ID":395139,"DIS_CODE":0,"TOWNNAME":"永康區","LI":"崑山里","LIN":"31鄰","STREET":"崑山街","SECT":" ","MAREA":" ","LANE":"９６巷","ALLEY":" ","HOUSE_NO":"３號","E_COORD97":174008.88,"N_COORD97":2544748.8500000001,"ADDRESS":"崑山街９６巷３號","OBJECTID":395115},"geometry":{"x":174008.88000000082,"y":2544748.8499999996}},{"attributes":{"ID":395140,"DIS_CODE":0,"TOWNNAME":"安南區","LI":"海南里","LIN":"16鄰","STREET":"府安路","SECT":"七段","MAREA":" ","LANE":"９３巷","ALLEY":" ","HOUSE_NO":"１９號","E_COORD97":165767.69,"N_COORD97":2545879.5600000001,"ADDRESS":"府安路七段９３巷１９號","OBJECTID":395116},"geometry":{"x":165767.69000000041,"y":2545879.5600000024}},{"attributes":{"ID":395141,"DIS_CODE":0,"TOWNNAME":"安南區","LI":"海南里","LIN":"16鄰","STREET":"府安路","SECT":"七段","MAREA":" ","LANE":"９３巷","ALLEY":" ","HOUSE_NO":"２０號","E_COORD97":165778.94,"N_COORD97":2545904.98,"ADDRESS":"府安路七段９３巷２０號","OBJECTID":395117},"geometry":{"x":165778.94000000134,"y":2545904.9800000004}},{"attributes":{"ID":395142,"DIS_CODE":0,"TOWNNAME":"安南區","LI":"海南里","LIN":"16鄰","STREET":"府安路","SECT":"七段","MAREA":" ","LANE":"９３巷","ALLEY":" ","HOUSE_NO":"２１號","E_COORD97":165761.31,"N_COORD97":2545886.1299999999,"ADDRESS":"府安路七段９３巷２１號","OBJECTID":395118},"geometry":{"x":165761.31000000145,"y":2545886.129999999}},{"attributes":{"ID":395143,"DIS_CODE":0,"TOWNNAME":"安南區","LI":"海南里","LIN":"16鄰","STREET":"府安路","SECT":"七段","MAREA":" ","LANE":"９３巷","ALLEY":" ","HOUSE_NO":"２２號","E_COORD97":165773.38,"N_COORD97":2545912.9199999999,"ADDRESS":"府安路七段９３巷２２號","OBJECTID":395119},"geometry":{"x":165773.38000000082,"y":2545912.9199999981}},{"attributes":{"ID":395144,"DIS_CODE":0,"TOWNNAME":"安南區","LI":"海南里","LIN":"16鄰","STREET":"府安路","SECT":"七段","MAREA":" ","LANE":"９３巷","ALLEY":" ","HOUSE_NO":"２３號","E_COORD97":165758.04000000001,"N_COORD97":2545894.4100000001,"ADDRESS":"府安路七段９３巷２３號","OBJECTID":395120},"geometry":{"x":165758.04000000004,"y":2545894.410000002}},{"attributes":{"ID":395145,"DIS_CODE":0,"TOWNNAME":"安南區","LI":"海南里","LIN":"16鄰","STREET":"府安路","SECT":"七段","MAREA":" ","LANE":"９３巷","ALLEY":" ","HOUSE_NO":"２４號","E_COORD97":165765.92000000001,"N_COORD97":2545920.8300000001,"ADDRESS":"府安路七段９３巷２４號","OBJECTID":395121},"geometry":{"x":165765.92000000179,"y":2545920.8300000038}},{"attributes":{"ID":395146,"DIS_CODE":0,"TOWNNAME":"安南區","LI":"海南里","LIN":"16鄰","STREET":"府安路","SECT":"七段","MAREA":" ","LANE":"９３巷","ALLEY":" ","HOUSE_NO":"２５號","E_COORD97":165751.76000000001,"N_COORD97":2545899.9300000002,"ADDRESS":"府安路七段９３巷２５號","OBJECTID":395122},"geometry":{"x":165751.76000000071,"y":2545899.9300000016}},{"attributes":{"ID":395147,"DIS_CODE":0,"TOWNNAME":"安南區","LI":"海南里","LIN":"16鄰","STREET":"府安路","SECT":"七段","MAREA":" ","LANE":"９３巷","ALLEY":" ","HOUSE_NO":"３１號","E_COORD97":165735.87,"N_COORD97":2545922.29,"ADDRESS":"府安路七段９３巷３１號","OBJECTID":395123},"geometry":{"x":165735.87000000197,"y":2545922.2899999991}},{"attributes":{"ID":395148,"DIS_CODE":0,"TOWNNAME":"安南區","LI":"海南里","LIN":"16鄰","STREET":"府安路","SECT":"七段","MAREA":" ","LANE":"９３巷","ALLEY":" ","HOUSE_NO":"５號","E_COORD97":165803.20000000001,"N_COORD97":2545832.9900000002,"ADDRESS":"府安路七段９３巷５號","OBJECTID":395124},"geometry":{"x":165803.19999999925,"y":2545832.9900000021}},{"attributes":{"ID":395149,"DIS_CODE":0,"TOWNNAME":"安南區","LI":"海南里","LIN":"16鄰","STREET":"府安路","SECT":"七段","MAREA":" ","LANE":"９３巷","ALLEY":" ","HOUSE_NO":"７號","E_COORD97":165798.67999999999,"N_COORD97":2545839.5899999999,"ADDRESS":"府安路七段９３巷７號","OBJECTID":395125},"geometry":{"x":165798.6799999997,"y":2545839.5899999999}},{"attributes":{"ID":395150,"DIS_CODE":0,"TOWNNAME":"安南區","LI":"海南里","LIN":"16鄰","STREET":"府安路","SECT":"七段","MAREA":" ","LANE":"９３巷","ALLEY":" ","HOUSE_NO":"９號","E_COORD97":165792.14999999999,"N_COORD97":2545846.9500000002,"ADDRESS":"府安路七段９３巷９號","OBJECTID":395126},"geometry":{"x":165792.1500000013,"y":2545846.9499999993}},{"attributes":{"ID":395151,"DIS_CODE":0,"TOWNNAME":"安南區","LI":"海南里","LIN":"16鄰","STREET":"府安路","SECT":"七段","MAREA":" ","LANE":"１０２巷","ALLEY":" ","HOUSE_NO":"２２號","E_COORD97":165751.64000000001,"N_COORD97":2545878.5099999998,"ADDRESS":"府安路七段１０２巷２２號","OBJECTID":395127},"geometry":{"x":165751.63999999966,"y":2545878.5100000035}},{"attributes":{"ID":395152,"DIS_CODE":0,"TOWNNAME":"善化區","LI":"坐駕里","LIN":"16鄰","STREET":"大成路","SECT":" ","MAREA":" ","LANE":"１５巷","ALLEY":" ","HOUSE_NO":"２號","E_COORD97":178862.91,"N_COORD97":2558916.75,"ADDRESS":"大成路１５巷２號","OBJECTID":395128},"geometry":{"x":178862.91000000015,"y":2558916.7500000037}},{"attributes":{"ID":395153,"DIS_CODE":0,"TOWNNAME":"善化區","LI":"坐駕里","LIN":"16鄰","STREET":"大成路","SECT":" ","MAREA":" ","LANE":"１５巷","ALLEY":" ","HOUSE_NO":"８號","E_COORD97":178863.97,"N_COORD97":2558908.25,"ADDRESS":"大成路１５巷８號","OBJECTID":395129},"geometry":{"x":178863.96999999881,"y":2558908.25}},{"attributes":{"ID":395154,"DIS_CODE":0,"TOWNNAME":"善化區","LI":"光文里","LIN":"16鄰","STREET":"信義路","SECT":" ","MAREA":" ","LANE":"１５５巷","ALLEY":" ","HOUSE_NO":"１３號","E_COORD97":178165.51000000001,"N_COORD97":2559037.25,"ADDRESS":"信義路１５５巷１３號","OBJECTID":395130},"geometry":{"x":178165.51000000164,"y":2559037.25}},{"attributes":{"ID":395155,"DIS_CODE":0,"TOWNNAME":"善化區","LI":"坐駕里","LIN":"16鄰","STREET":"大成路","SECT":" ","MAREA":" ","LANE":"１５巷","ALLEY":" ","HOUSE_NO":"１２號","E_COORD97":178865.60999999999,"N_COORD97":2558898.75,"ADDRESS":"大成路１５巷１２號","OBJECTID":395131},"geometry":{"x":178865.6100000022,"y":2558898.75}},{"attributes":{"ID":395156,"DIS_CODE":0,"TOWNNAME":"善化區","LI":"坐駕里","LIN":"16鄰","STREET":"大成路","SECT":" ","MAREA":" ","LANE":"１５巷","ALLEY":" ","HOUSE_NO":"７號","E_COORD97":178881.51000000001,"N_COORD97":2558897.75,"ADDRESS":"大成路１５巷７號","OBJECTID":395132},"geometry":{"x":178881.51000000071,"y":2558897.7500000019}},{"attributes":{"ID":395157,"DIS_CODE":0,"TOWNNAME":"善化區","LI":"坐駕里","LIN":"16鄰","STREET":"大成路","SECT":" ","MAREA":" ","LANE":"１５巷","ALLEY":" ","HOUSE_NO":"５號","E_COORD97":178880.76000000001,"N_COORD97":2558901.75,"ADDRESS":"大成路１５巷５號","OBJECTID":395133},"geometry":{"x":178880.76000000164,"y":2558901.75}},{"attributes":{"ID":395158,"DIS_CODE":0,"TOWNNAME":"善化區","LI":"光文里","LIN":"16鄰","STREET":"信義路","SECT":" ","MAREA":" ","LANE":"１５５巷","ALLEY":" ","HOUSE_NO":"１１號","E_COORD97":178174.45999999999,"N_COORD97":2559038.75,"ADDRESS":"信義路１５５巷１１號","OBJECTID":395134},"geometry":{"x":178174.46000000183,"y":2559038.7500000037}},{"attributes":{"ID":395159,"DIS_CODE":0,"TOWNNAME":"善化區","LI":"光文里","LIN":"16鄰","STREET":"信義路","SECT":" ","MAREA":" ","LANE":"１５５巷","ALLEY":" ","HOUSE_NO":"１５號","E_COORD97":178156.45999999999,"N_COORD97":2559035.75,"ADDRESS":"信義路１５５巷１５號","OBJECTID":395135},"geometry":{"x":178156.46000000089,"y":2559035.7500000019}},{"attributes":{"ID":395160,"DIS_CODE":0,"TOWNNAME":"善化區","LI":"坐駕里","LIN":"16鄰","STREET":"大成路","SECT":" ","MAREA":" ","LANE":"１５巷","ALLEY":" ","HOUSE_NO":"６號","E_COORD97":178863.48000000001,"N_COORD97":2558912,"ADDRESS":"大成路１５巷６號","OBJECTID":395136},"geometry":{"x":178863.48000000138,"y":2558912.0000000019}},{"attributes":{"ID":395161,"DIS_CODE":0,"TOWNNAME":"善化區","LI":"光文里","LIN":"16鄰","STREET":"信義路","SECT":" ","MAREA":" ","LANE":"１５５巷","ALLEY":" ","HOUSE_NO":"５號","E_COORD97":178200.54999999999,"N_COORD97":2559043,"ADDRESS":"信義路１５５巷５號","OBJECTID":395137},"geometry":{"x":178200.54999999981,"y":2559043}},{"attributes":{"ID":395162,"DIS_CODE":0,"TOWNNAME":"東區","LI":"大學里","LIN":"16鄰","STREET":"長榮路","SECT":"三段","MAREA":" ","LANE":"１０巷","ALLEY":" ","HOUSE_NO":"３號","E_COORD97":170221.67000000001,"N_COORD97":2543654.3999999999,"ADDRESS":"長榮路三段１０巷３號","OBJECTID":395138},"geometry":{"x":170221.67000000086,"y":2543654.4000000004}},{"attributes":{"ID":395163,"DIS_CODE":0,"TOWNNAME":"東區","LI":"大學里","LIN":"16鄰","STREET":"長榮路","SECT":"三段","MAREA":" ","LANE":"１０巷","ALLEY":" ","HOUSE_NO":"４號","E_COORD97":170237.32000000001,"N_COORD97":2543638.52,"ADDRESS":"長榮路三段１０巷４號","OBJECTID":395139},"geometry":{"x":170237.32000000216,"y":2543638.5200000014}},{"attributes":{"ID":395164,"DIS_CODE":0,"TOWNNAME":"東區","LI":"大學里","LIN":"16鄰","STREET":"長榮路","SECT":"三段","MAREA":" ","LANE":"１０巷","ALLEY":" ","HOUSE_NO":"６號","E_COORD97":170242.60999999999,"N_COORD97":2543637.0699999998,"ADDRESS":"長榮路三段１０巷６號","OBJECTID":395140},"geometry":{"x":170242.61000000127,"y":2543637.0700000003}},{"attributes":{"ID":395165,"DIS_CODE":0,"TOWNNAME":"東區","LI":"大學里","LIN":"16鄰","STREET":"長榮路","SECT":"三段","MAREA":" ","LANE":"１０巷","ALLEY":" ","HOUSE_NO":"７號","E_COORD97":170234.34,"N_COORD97":2543649.5800000001,"ADDRESS":"長榮路三段１０巷７號","OBJECTID":395141},"geometry":{"x":170234.33999999985,"y":2543649.5800000001}},{"attributes":{"ID":395166,"DIS_CODE":0,"TOWNNAME":"東區","LI":"大學里","LIN":"16鄰","STREET":"長榮路","SECT":"三段","MAREA":" ","LANE":"１０巷","ALLEY":" ","HOUSE_NO":"８號","E_COORD97":170249.22,"N_COORD97":2543634.98,"ADDRESS":"長榮路三段１０巷８號","OBJECTID":395142},"geometry":{"x":170249.2200000016,"y":2543634.9800000042}},{"attributes":{"ID":395167,"DIS_CODE":0,"TOWNNAME":"東區","LI":"大學里","LIN":"16鄰","STREET":"長榮路","SECT":"三段","MAREA":" ","LANE":"１０巷","ALLEY":" ","HOUSE_NO":"９號","E_COORD97":170242.13,"N_COORD97":2543647.4199999999,"ADDRESS":"長榮路三段１０巷９號","OBJECTID":395143},"geometry":{"x":170242.13000000082,"y":2543647.4199999999}},{"attributes":{"ID":395168,"DIS_CODE":0,"TOWNNAME":"東區","LI":"富強里","LIN":"16鄰","STREET":"裕農路","SECT":" ","MAREA":" ","LANE":"２８８巷","ALLEY":" ","HOUSE_NO":"１４４號","E_COORD97":171059.70000000001,"N_COORD97":2542903.1899999999,"ADDRESS":"裕農路２８８巷１４４號","OBJECTID":395144},"geometry":{"x":171059.70000000019,"y":2542903.1899999995}},{"attributes":{"ID":395169,"DIS_CODE":0,"TOWNNAME":"東區","LI":"大學里","LIN":"16鄰","STREET":"長榮路","SECT":"三段","MAREA":" ","LANE":"１０巷","ALLEY":" ","HOUSE_NO":"１５號","E_COORD97":170260.91,"N_COORD97":2543640.0600000001,"ADDRESS":"長榮路三段１０巷１５號","OBJECTID":395145},"geometry":{"x":170260.91000000108,"y":2543640.0600000005}},{"attributes":{"ID":395170,"DIS_CODE":0,"TOWNNAME":"東區","LI":"大學里","LIN":"16鄰","STREET":"長榮路","SECT":"三段","MAREA":" ","LANE":"１０巷","ALLEY":" ","HOUSE_NO":"２號","E_COORD97":170227.88,"N_COORD97":2543640.9900000002,"ADDRESS":"長榮路三段１０巷２號","OBJECTID":395146},"geometry":{"x":170227.88000000175,"y":2543640.9900000002}},{"attributes":{"ID":395171,"DIS_CODE":0,"TOWNNAME":"東區","LI":"大學里","LIN":"16鄰","STREET":"長榮路","SECT":"三段","MAREA":" ","LANE":"１０巷","ALLEY":" ","HOUSE_NO":"１１號","E_COORD97":170247.82999999999,"N_COORD97":2543644.23,"ADDRESS":"長榮路三段１０巷１１號","OBJECTID":395147},"geometry":{"x":170247.83000000101,"y":2543644.2300000023}},{"attributes":{"ID":395172,"DIS_CODE":0,"TOWNNAME":"東區","LI":"崇成里","LIN":"13鄰","STREET":"崇明十五街","SECT":" ","MAREA":" ","LANE":" ","ALLEY":" ","HOUSE_NO":"１１號","E_COORD97":170659.73000000001,"N_COORD97":2541367.2999999998,"ADDRESS":"崇明十五街１１號","OBJECTID":395148},"geometry":{"x":170659.73000000045,"y":2541367.3000000007}},{"attributes":{"ID":395173,"DIS_CODE":0,"TOWNNAME":"東區","LI":"富強里","LIN":"16鄰","STREET":"裕農路","SECT":" ","MAREA":" ","LANE":"２８８巷","ALLEY":" ","HOUSE_NO":"１５２號","E_COORD97":171061.35000000001,"N_COORD97":2542885.7400000002,"ADDRESS":"裕農路２８８巷１５２號","OBJECTID":395149},"geometry":{"x":171061.34999999963,"y":2542885.7400000002}},{"attributes":{"ID":395174,"DIS_CODE":0,"TOWNNAME":"東區","LI":"中西里","LIN":"16鄰","STREET":"長榮路","SECT":"二段","MAREA":" ","LANE":"１７０巷","ALLEY":" ","HOUSE_NO":"１０號","E_COORD97":170086.79999999999,"N_COORD97":2543308.02,"ADDRESS":"長榮路二段１７０巷１０號","OBJECTID":395150},"geometry":{"x":170086.79999999981,"y":2543308.0199999977}},{"attributes":{"ID":395175,"DIS_CODE":0,"TOWNNAME":"東區","LI":"中西里","LIN":"16鄰","STREET":"長榮路","SECT":"二段","MAREA":" ","LANE":"１７０巷","ALLEY":" ","HOUSE_NO":"２４號","E_COORD97":170105.10999999999,"N_COORD97":2543276.4500000002,"ADDRESS":"長榮路二段１７０巷２４號","OBJECTID":395151},"geometry":{"x":170105.11000000127,"y":2543276.4499999993}},{"attributes":{"ID":395176,"DIS_CODE":0,"TOWNNAME":"東區","LI":"富強里","LIN":"16鄰","STREET":"裕農路","SECT":" ","MAREA":" ","LANE":"２８８巷","ALLEY":" ","HOUSE_NO":"１４２號","E_COORD97":171062.51000000001,"N_COORD97":2542910.3500000001,"ADDRESS":"裕農路２８８巷１４２號","OBJECTID":395152},"geometry":{"x":171062.50999999885,"y":2542910.3500000015}},{"attributes":{"ID":395177,"DIS_CODE":0,"TOWNNAME":"東區","LI":"富強里","LIN":"16鄰","STREET":"裕農路","SECT":" ","MAREA":" ","LANE":"２８８巷","ALLEY":" ","HOUSE_NO":"１７０號","E_COORD97":171063.64000000001,"N_COORD97":2542849.3700000001,"ADDRESS":"裕農路２８８巷１７０號","OBJECTID":395153},"geometry":{"x":171063.6400000006,"y":2542849.370000001}},{"attributes":{"ID":395178,"DIS_CODE":0,"TOWNNAME":"東區","LI":"富裕里","LIN":"16鄰","STREET":"裕豐街","SECT":" ","MAREA":" ","LANE":"８４巷","ALLEY":" ","HOUSE_NO":"１９號","E_COORD97":170786.42000000001,"N_COORD97":2542905.6000000001,"ADDRESS":"裕豐街８４巷１９號","OBJECTID":395154},"geometry":{"x":170786.41999999993,"y":2542905.6000000015}},{"attributes":{"ID":395179,"DIS_CODE":0,"TOWNNAME":"東區","LI":"富裕里","LIN":"16鄰","STREET":"裕豐街","SECT":" ","MAREA":" ","LANE":"８４巷","ALLEY":" ","HOUSE_NO":"２１號","E_COORD97":170793.73999999999,"N_COORD97":2542908.2599999998,"ADDRESS":"裕豐街８４巷２１號","OBJECTID":395155},"geometry":{"x":170793.74000000209,"y":2542908.2600000016}},{"attributes":{"ID":395180,"DIS_CODE":0,"TOWNNAME":"東區","LI":"富裕里","LIN":"16鄰","STREET":"裕豐街","SECT":" ","MAREA":" ","LANE":"８４巷","ALLEY":" ","HOUSE_NO":"２３號之１","E_COORD97":170800.10000000001,"N_COORD97":2542908.4900000002,"ADDRESS":"裕豐街８４巷２３號之１","OBJECTID":395156},"geometry":{"x":170800.09999999963,"y":2542908.4900000002}},{"attributes":{"ID":395181,"DIS_CODE":0,"TOWNNAME":"東區","LI":"富裕里","LIN":"16鄰","STREET":"裕豐街","SECT":" ","MAREA":" ","LANE":"８４巷","ALLEY":" ","HOUSE_NO":"２５號","E_COORD97":170806.67999999999,"N_COORD97":2542909.1200000001,"ADDRESS":"裕豐街８４巷２５號","OBJECTID":395157},"geometry":{"x":170806.6799999997,"y":2542909.1200000048}},{"attributes":{"ID":395182,"DIS_CODE":0,"TOWNNAME":"東區","LI":"富裕里","LIN":"16鄰","STREET":"裕豐街","SECT":" ","MAREA":" ","LANE":"８４巷","ALLEY":" ","HOUSE_NO":"２７號","E_COORD97":170812.44,"N_COORD97":2542909.8599999999,"ADDRESS":"裕豐街８４巷２７號","OBJECTID":395158},"geometry":{"x":170812.44000000041,"y":2542909.8600000013}},{"attributes":{"ID":395183,"DIS_CODE":0,"TOWNNAME":"東區","LI":"富裕里","LIN":"16鄰","STREET":"裕豐街","SECT":" ","MAREA":" ","LANE":"８４巷","ALLEY":" ","HOUSE_NO":"２９號之１","E_COORD97":170820.04000000001,"N_COORD97":2542909.5800000001,"ADDRESS":"裕豐街８４巷２９號之１","OBJECTID":395159},"geometry":{"x":170820.04000000004,"y":2542909.5800000019}},{"attributes":{"ID":395184,"DIS_CODE":0,"TOWNNAME":"東區","LI":"富裕里","LIN":"16鄰","STREET":"裕豐街","SECT":" ","MAREA":" ","LANE":"８４巷","ALLEY":" ","HOUSE_NO":"３１號","E_COORD97":170825.78,"N_COORD97":2542909.8599999999,"ADDRESS":"裕豐街８４巷３１號","OBJECTID":395160},"geometry":{"x":170825.78000000212,"y":2542909.8600000013}},{"attributes":{"ID":395185,"DIS_CODE":0,"TOWNNAME":"東區","LI":"裕農里","LIN":"16鄰","STREET":"裕豐街","SECT":" ","MAREA":" ","LANE":"２１４巷","ALLEY":" ","HOUSE_NO":"１８號之１","E_COORD97":170817.09,"N_COORD97":2543091.1200000001,"ADDRESS":"裕豐街２１４巷１８號之１","OBJECTID":395161},"geometry":{"x":170817.09000000078,"y":2543091.120000001}},{"attributes":{"ID":395186,"DIS_CODE":0,"TOWNNAME":"東區","LI":"裕農里","LIN":"16鄰","STREET":"裕豐街","SECT":" ","MAREA":" ","LANE":"２１４巷","ALLEY":" ","HOUSE_NO":"２０號","E_COORD97":170818.92999999999,"N_COORD97":2543084.5800000001,"ADDRESS":"裕豐街２１４巷２０號","OBJECTID":395162},"geometry":{"x":170818.93000000156,"y":2543084.5800000038}},{"attributes":{"ID":395187,"DIS_CODE":0,"TOWNNAME":"東區","LI":"裕農里","LIN":"16鄰","STREET":"裕豐街","SECT":" ","MAREA":" ","LANE":"２１４巷","ALLEY":" ","HOUSE_NO":"２２號","E_COORD97":170819.70999999999,"N_COORD97":2543074.5,"ADDRESS":"裕豐街２１４巷２２號","OBJECTID":395163},"geometry":{"x":170819.71000000089,"y":2543074.5}},{"attributes":{"ID":395188,"DIS_CODE":0,"TOWNNAME":"東區","LI":"裕農里","LIN":"16鄰","STREET":"裕豐街","SECT":" ","MAREA":" ","LANE":"２１４巷","ALLEY":" ","HOUSE_NO":"２４號","E_COORD97":170821.81,"N_COORD97":2543068.2200000002,"ADDRESS":"裕豐街２１４巷２４號","OBJECTID":395164},"geometry":{"x":170821.81000000052,"y":2543068.2200000025}},{"attributes":{"ID":395189,"DIS_CODE":0,"TOWNNAME":"東區","LI":"裕農里","LIN":"16鄰","STREET":"裕豐街","SECT":" ","MAREA":" ","LANE":"２１４巷","ALLEY":" ","HOUSE_NO":"２６號之１","E_COORD97":170824.29999999999,"N_COORD97":2543059.5299999998,"ADDRESS":"裕豐街２１４巷２６號之１","OBJECTID":395165},"geometry":{"x":170824.29999999981,"y":2543059.5299999993}},{"attributes":{"ID":395190,"DIS_CODE":0,"TOWNNAME":"東區","LI":"裕農里","LIN":"16鄰","STREET":"裕豐街","SECT":" ","MAREA":" ","LANE":"２１４巷","ALLEY":" ","HOUSE_NO":"２８號","E_COORD97":170825.73999999999,"N_COORD97":2543053.48,"ADDRESS":"裕豐街２１４巷２８號","OBJECTID":395166},"geometry":{"x":170825.74000000022,"y":2543053.4800000023}},{"attributes":{"ID":395191,"DIS_CODE":0,"TOWNNAME":"東區","LI":"裕農里","LIN":"16鄰","STREET":"裕豐街","SECT":" ","MAREA":" ","LANE":"２１４巷","ALLEY":" ","HOUSE_NO":"３０號","E_COORD97":170828.09,"N_COORD97":2543043.2799999998,"ADDRESS":"裕豐街２１４巷３０號","OBJECTID":395167},"geometry":{"x":170828.08999999892,"y":2543043.2800000012}},{"attributes":{"ID":395192,"DIS_CODE":0,"TOWNNAME":"東區","LI":"裕農里","LIN":"16鄰","STREET":"裕豐街","SECT":" ","MAREA":" ","LANE":"２１４巷","ALLEY":" ","HOUSE_NO":"３２號","E_COORD97":170829,"N_COORD97":2543036.6600000001,"ADDRESS":"裕豐街２１４巷３２號","OBJECTID":395168},"geometry":{"x":170829.00000000186,"y":2543036.6600000039}},{"attributes":{"ID":395193,"DIS_CODE":0,"TOWNNAME":"東區","LI":"新東里","LIN":"16鄰","STREET":"裕豐街","SECT":" ","MAREA":" ","LANE":"１４７巷","ALLEY":" ","HOUSE_NO":"１１號","E_COORD97":170728.03,"N_COORD97":2543094.7599999998,"ADDRESS":"裕豐街１４７巷１１號","OBJECTID":395169},"geometry":{"x":170728.03000000119,"y":2543094.7600000016}},{"attributes":{"ID":395194,"DIS_CODE":0,"TOWNNAME":"東區","LI":"新東里","LIN":"16鄰","STREET":"裕豐街","SECT":" ","MAREA":" ","LANE":"１４７巷","ALLEY":" ","HOUSE_NO":"１２號","E_COORD97":170747.67999999999,"N_COORD97":2543119.96,"ADDRESS":"裕豐街１４７巷１２號","OBJECTID":395170},"geometry":{"x":170747.67999999877,"y":2543119.959999999}},{"attributes":{"ID":395195,"DIS_CODE":0,"TOWNNAME":"東區","LI":"新東里","LIN":"16鄰","STREET":"裕豐街","SECT":" ","MAREA":" ","LANE":"１４７巷","ALLEY":" ","HOUSE_NO":"１５號","E_COORD97":170723.54999999999,"N_COORD97":2543094.1800000002,"ADDRESS":"裕豐街１４７巷１５號","OBJECTID":395171},"geometry":{"x":170723.55000000075,"y":2543094.1800000016}},{"attributes":{"ID":395196,"DIS_CODE":0,"TOWNNAME":"東區","LI":"新東里","LIN":"16鄰","STREET":"裕豐街","SECT":" ","MAREA":" ","LANE":"１４７巷","ALLEY":" ","HOUSE_NO":"１７號","E_COORD97":170719.28,"N_COORD97":2543093.6000000001,"ADDRESS":"裕豐街１４７巷１７號","OBJECTID":395172},"geometry":{"x":170719.28000000119,"y":2543093.5999999996}},{"attributes":{"ID":395197,"DIS_CODE":0,"TOWNNAME":"東區","LI":"新東里","LIN":"16鄰","STREET":"裕豐街","SECT":" ","MAREA":" ","LANE":"１４７巷","ALLEY":" ","HOUSE_NO":"１９號","E_COORD97":170715.16,"N_COORD97":2543092.6600000001,"ADDRESS":"裕豐街１４７巷１９號","OBJECTID":395173},"geometry":{"x":170715.16000000108,"y":2543092.660000002}},{"attributes":{"ID":395198,"DIS_CODE":0,"TOWNNAME":"東區","LI":"新東里","LIN":"16鄰","STREET":"裕豐街","SECT":" ","MAREA":" ","LANE":"１４７巷","ALLEY":" ","HOUSE_NO":"１號","E_COORD97":170748.98000000001,"N_COORD97":2543098.1499999999,"ADDRESS":"裕豐街１４７巷１號","OBJECTID":395174},"geometry":{"x":170748.98000000138,"y":2543098.1500000041}},{"attributes":{"ID":395199,"DIS_CODE":0,"TOWNNAME":"東區","LI":"新東里","LIN":"16鄰","STREET":"裕豐街","SECT":" ","MAREA":" ","LANE":"１４７巷","ALLEY":" ","HOUSE_NO":"２０號","E_COORD97":170734.07000000001,"N_COORD97":2543116.71,"ADDRESS":"裕豐街１４７巷２０號","OBJECTID":395175},"geometry":{"x":170734.07000000123,"y":2543116.7100000028}},{"attributes":{"ID":395200,"DIS_CODE":0,"TOWNNAME":"東區","LI":"新東里","LIN":"16鄰","STREET":"裕豐街","SECT":" ","MAREA":" ","LANE":"１４７巷","ALLEY":" ","HOUSE_NO":"２１號","E_COORD97":170709.07999999999,"N_COORD97":2543088.7599999998,"ADDRESS":"裕豐街１４７巷２１號","OBJECTID":395176},"geometry":{"x":170709.08000000007,"y":2543088.7599999998}},{"attributes":{"ID":395201,"DIS_CODE":0,"TOWNNAME":"東區","LI":"新東里","LIN":"16鄰","STREET":"裕豐街","SECT":" ","MAREA":" ","LANE":"１４７巷","ALLEY":" ","HOUSE_NO":"２２號","E_COORD97":170728.14000000001,"N_COORD97":2543115.5499999998,"ADDRESS":"裕豐街１４７巷２２號","OBJECTID":395177},"geometry":{"x":170728.1400000006,"y":2543115.5500000007}},{"attributes":{"ID":395202,"DIS_CODE":0,"TOWNNAME":"東區","LI":"新東里","LIN":"16鄰","STREET":"裕豐街","SECT":" ","MAREA":" ","LANE":"１４７巷","ALLEY":" ","HOUSE_NO":"２３號","E_COORD97":170704.76999999999,"N_COORD97":2543088.0699999998,"ADDRESS":"裕豐街１４７巷２３號","OBJECTID":395178},"geometry":{"x":170704.77000000048,"y":2543088.0699999984}},{"attributes":{"ID":395203,"DIS_CODE":0,"TOWNNAME":"東區","LI":"新東里","LIN":"16鄰","STREET":"裕豐街","SECT":" ","MAREA":" ","LANE":"１４７巷","ALLEY":" ","HOUSE_NO":"２４號","E_COORD97":170723.87,"N_COORD97":2543114.54,"ADDRESS":"裕豐街１４７巷２４號","OBJECTID":395179},"geometry":{"x":170723.87000000104,"y":2543114.5400000028}},{"attributes":{"ID":395204,"DIS_CODE":0,"TOWNNAME":"東區","LI":"新東里","LIN":"16鄰","STREET":"裕豐街","SECT":" ","MAREA":" ","LANE":"１４７巷","ALLEY":" ","HOUSE_NO":"２５號","E_COORD97":170701.14999999999,"N_COORD97":2543087.6800000002,"ADDRESS":"裕豐街１４７巷２５號","OBJECTID":395180},"geometry":{"x":170701.15000000224,"y":2543087.6800000016}},{"attributes":{"ID":395205,"DIS_CODE":0,"TOWNNAME":"東區","LI":"新東里","LIN":"16鄰","STREET":"裕豐街","SECT":" ","MAREA":" ","LANE":"１４７巷","ALLEY":" ","HOUSE_NO":"２７號","E_COORD97":170698.01000000001,"N_COORD97":2543087.5800000001,"ADDRESS":"裕豐街１４７巷２７號","OBJECTID":395181},"geometry":{"x":170698.00999999885,"y":2543087.5800000001}},{"attributes":{"ID":395206,"DIS_CODE":0,"TOWNNAME":"東區","LI":"新東里","LIN":"16鄰","STREET":"裕豐街","SECT":" ","MAREA":" ","LANE":"１４７巷","ALLEY":" ","HOUSE_NO":"２８號","E_COORD97":170715.37,"N_COORD97":2543111.9300000002,"ADDRESS":"裕豐街１４７巷２８號","OBJECTID":395182},"geometry":{"x":170715.37000000104,"y":2543111.9299999997}},{"attributes":{"ID":395207,"DIS_CODE":0,"TOWNNAME":"東區","LI":"新東里","LIN":"16鄰","STREET":"裕豐街","SECT":" ","MAREA":" ","LANE":"１４７巷","ALLEY":" ","HOUSE_NO":"２９號","E_COORD97":170694.48999999999,"N_COORD97":2543086.7000000002,"ADDRESS":"裕豐街１４７巷２９號","OBJECTID":395183},"geometry":{"x":170694.49000000115,"y":2543086.7000000011}},{"attributes":{"ID":395208,"DIS_CODE":0,"TOWNNAME":"東區","LI":"新東里","LIN":"16鄰","STREET":"裕豐街","SECT":" ","MAREA":" ","LANE":"１４７巷","ALLEY":" ","HOUSE_NO":"２號","E_COORD97":170765.91,"N_COORD97":2543123.7200000002,"ADDRESS":"裕豐街１４７巷２號","OBJECTID":395184},"geometry":{"x":170765.91000000108,"y":2543123.7200000007}},{"attributes":{"ID":395209,"DIS_CODE":0,"TOWNNAME":"東區","LI":"新東里","LIN":"16鄰","STREET":"裕豐街","SECT":" ","MAREA":" ","LANE":"１４７巷","ALLEY":" ","HOUSE_NO":"３０號","E_COORD97":170711.03,"N_COORD97":2543112.5800000001,"ADDRESS":"裕豐街１４７巷３０號","OBJECTID":395185},"geometry":{"x":170711.03000000119,"y":2543112.5800000019}},{"attributes":{"ID":395210,"DIS_CODE":0,"TOWNNAME":"東區","LI":"新東里","LIN":"16鄰","STREET":"裕豐街","SECT":" ","MAREA":" ","LANE":"１４７巷","ALLEY":" ","HOUSE_NO":"３１號","E_COORD97":170690.76000000001,"N_COORD97":2543086.02,"ADDRESS":"裕豐街１４７巷３１號","OBJECTID":395186},"geometry":{"x":170690.75999999978,"y":2543086.0200000014}},{"attributes":{"ID":395211,"DIS_CODE":0,"TOWNNAME":"東區","LI":"新東里","LIN":"16鄰","STREET":"裕豐街","SECT":" ","MAREA":" ","LANE":"１４７巷","ALLEY":" ","HOUSE_NO":"３３號","E_COORD97":170687.42999999999,"N_COORD97":2543085.4300000002,"ADDRESS":"裕豐街１４７巷３３號","OBJECTID":395187},"geometry":{"x":170687.43000000063,"y":2543085.4300000034}},{"attributes":{"ID":395212,"DIS_CODE":0,"TOWNNAME":"東區","LI":"新東里","LIN":"16鄰","STREET":"裕豐街","SECT":" ","MAREA":" ","LANE":"１４７巷","ALLEY":" ","HOUSE_NO":"３９號","E_COORD97":170675.09,"N_COORD97":2543081.9100000001,"ADDRESS":"裕豐街１４７巷３９號","OBJECTID":395188},"geometry":{"x":170675.08999999985,"y":2543081.9100000001}},{"attributes":{"ID":395213,"DIS_CODE":0,"TOWNNAME":"東區","LI":"新東里","LIN":"16鄰","STREET":"裕豐街","SECT":" ","MAREA":" ","LANE":"１４７巷","ALLEY":" ","HOUSE_NO":"３號","E_COORD97":170744.60000000001,"N_COORD97":2543097.6499999999,"ADDRESS":"裕豐街１４７巷３號","OBJECTID":395189},"geometry":{"x":170744.59999999963,"y":2543097.6500000004}},{"attributes":{"ID":395214,"DIS_CODE":0,"TOWNNAME":"東區","LI":"新東里","LIN":"16鄰","STREET":"裕豐街","SECT":" ","MAREA":" ","LANE":"１４７巷","ALLEY":" ","HOUSE_NO":"４１號","E_COORD97":170670.48999999999,"N_COORD97":2543080.9300000002,"ADDRESS":"裕豐街１４７巷４１號","OBJECTID":395190},"geometry":{"x":170670.49000000115,"y":2543080.9299999997}},{"attributes":{"ID":395215,"DIS_CODE":0,"TOWNNAME":"東區","LI":"新東里","LIN":"16鄰","STREET":"裕豐街","SECT":" ","MAREA":" ","LANE":"１４７巷","ALLEY":" ","HOUSE_NO":"４３號","E_COORD97":170665.98000000001,"N_COORD97":2543080.0499999998,"ADDRESS":"裕豐街１４７巷４３號","OBJECTID":395191},"geometry":{"x":170665.98000000138,"y":2543080.0500000026}},{"attributes":{"ID":395216,"DIS_CODE":0,"TOWNNAME":"東區","LI":"新東里","LIN":"16鄰","STREET":"裕豐街","SECT":" ","MAREA":" ","LANE":"１４７巷","ALLEY":" ","HOUSE_NO":"４４號","E_COORD97":170693.60000000001,"N_COORD97":2543106.8100000001,"ADDRESS":"裕豐街１４７巷４４號","OBJECTID":395192},"geometry":{"x":170693.59999999963,"y":2543106.8100000005}},{"attributes":{"ID":395217,"DIS_CODE":0,"TOWNNAME":"東區","LI":"新東里","LIN":"16鄰","STREET":"裕豐街","SECT":" ","MAREA":" ","LANE":"１４７巷","ALLEY":" ","HOUSE_NO":"４６號","E_COORD97":170687.42999999999,"N_COORD97":2543105.54,"ADDRESS":"裕豐街１４７巷４６號","OBJECTID":395193},"geometry":{"x":170687.43000000063,"y":2543105.540000001}},{"attributes":{"ID":395218,"DIS_CODE":0,"TOWNNAME":"東區","LI":"新東里","LIN":"16鄰","STREET":"裕豐街","SECT":" ","MAREA":" ","LANE":"１４７巷","ALLEY":" ","HOUSE_NO":"４８號","E_COORD97":170683.12,"N_COORD97":2543104.8500000001,"ADDRESS":"裕豐街１４７巷４８號","OBJECTID":395194},"geometry":{"x":170683.12000000104,"y":2543104.8499999996}},{"attributes":{"ID":395219,"DIS_CODE":0,"TOWNNAME":"東區","LI":"新東里","LIN":"16鄰","STREET":"裕豐街","SECT":" ","MAREA":" ","LANE":"１４７巷","ALLEY":" ","HOUSE_NO":"５０號","E_COORD97":170679.01000000001,"N_COORD97":2543104.0699999998,"ADDRESS":"裕豐街１４７巷５０號","OBJECTID":395195},"geometry":{"x":170679.00999999978,"y":2543104.0700000003}},{"attributes":{"ID":395220,"DIS_CODE":0,"TOWNNAME":"東區","LI":"新東里","LIN":"16鄰","STREET":"裕豐街","SECT":" ","MAREA":" ","LANE":"１４７巷","ALLEY":" ","HOUSE_NO":"５２號","E_COORD97":170674.89000000001,"N_COORD97":2543102.3100000001,"ADDRESS":"裕豐街１４７巷５２號","OBJECTID":395196},"geometry":{"x":170674.88999999966,"y":2543102.3100000005}},{"attributes":{"ID":395221,"DIS_CODE":0,"TOWNNAME":"東區","LI":"新東里","LIN":"16鄰","STREET":"裕豐街","SECT":" ","MAREA":" ","LANE":"１４７巷","ALLEY":" ","HOUSE_NO":"５６號","E_COORD97":170666.17999999999,"N_COORD97":2543100.7400000002,"ADDRESS":"裕豐街１４７巷５６號","OBJECTID":395197},"geometry":{"x":170666.1799999997,"y":2543100.7400000039}},{"attributes":{"ID":395222,"DIS_CODE":0,"TOWNNAME":"東區","LI":"新東里","LIN":"16鄰","STREET":"裕豐街","SECT":" ","MAREA":" ","LANE":"１４７巷","ALLEY":" ","HOUSE_NO":"５號","E_COORD97":170740.26000000001,"N_COORD97":2543096.7799999998,"ADDRESS":"裕豐街１４７巷５號","OBJECTID":395198},"geometry":{"x":170740.25999999978,"y":2543096.7800000012}},{"attributes":{"ID":395223,"DIS_CODE":0,"TOWNNAME":"東區","LI":"新東里","LIN":"16鄰","STREET":"裕豐街","SECT":" ","MAREA":" ","LANE":"１４７巷","ALLEY":" ","HOUSE_NO":"６號","E_COORD97":170758.53,"N_COORD97":2543122.2000000002,"ADDRESS":"裕豐街１４７巷６號","OBJECTID":395199},"geometry":{"x":170758.53000000119,"y":2543122.1999999993}},{"attributes":{"ID":395224,"DIS_CODE":0,"TOWNNAME":"東區","LI":"新東里","LIN":"16鄰","STREET":"裕豐街","SECT":" ","MAREA":" ","LANE":"１４７巷","ALLEY":" ","HOUSE_NO":"７號","E_COORD97":170736.20999999999,"N_COORD97":2543096.1299999999,"ADDRESS":"裕豐街１４７巷７號","OBJECTID":395200},"geometry":{"x":170736.21000000089,"y":2543096.129999999}}]}