{"displayFieldName":"TOWNNAME","fieldAliases":{"ID":"ID","DIS_CODE":"DIS_CODE","TOWNNAME":"TOWNNAME","LI":"LI","LIN":"LIN","STREET":"STREET","SECT":"SECT","MAREA":"MAREA","LANE":"LANE","ALLEY":"ALLEY","HOUSE_NO":"HOUSE_NO","E_COORD97":"E_COORD97","N_COORD97":"N_COORD97","ADDRESS":"ADDRESS","OBJECTID":"OBJECTID"},"geometryType":"esriGeometryPoint","spatialReference":{"wkid":102443,"latestWkid":3826},"fields":[{"name":"ID","type":"esriFieldTypeDouble","alias":"ID"},{"name":"DIS_CODE","type":"esriFieldTypeInteger","alias":"DIS_CODE"},{"name":"TOWNNAME","type":"esriFieldTypeString","alias":"TOWNNAME","length":8},{"name":"LI","type":"esriFieldTypeString","alias":"LI","length":8},{"name":"LIN","type":"esriFieldTypeString","alias":"LIN","length":12},{"name":"STREET","type":"esriFieldTypeString","alias":"STREET","length":20},{"name":"SECT","type":"esriFieldTypeString","alias":"SECT","length":8},{"name":"MAREA","type":"esriFieldTypeString","alias":"MAREA","length":12},{"name":"LANE","type":"esriFieldTypeString","alias":"LANE","length":10},{"name":"ALLEY","type":"esriFieldTypeString","alias":"ALLEY","length":10},{"name":"HOUSE_NO","type":"esriFieldTypeString","alias":"HOUSE_NO","length":20},{"name":"E_COORD97","type":"esriFieldTypeDouble","alias":"E_COORD97"},{"name":"N_COORD97","type":"esriFieldTypeDouble","alias":"N_COORD97"},{"name":"ADDRESS","type":"esriFieldTypeString","alias":"ADDRESS","length":50},{"name":"OBJECTID","type":"esriFieldTypeOID","alias":"OBJECTID"}],"features":[{"attributes":{"ID":110801,"DIS_CODE":0,"TOWNNAME":"中西區","LI":"萬昌里","LIN":"9鄰","STREET":"府前路","SECT":"一段","MAREA":" ","LANE":"１２２巷","ALLEY":"６８弄","HOUSE_NO":"３號","E_COORD97":168804.64999999999,"N_COORD97":2543438.7599999998,"ADDRESS":"府前路一段１２２巷６８弄３號","OBJECTID":110801},"geometry":{"x":168804.6500000013,"y":2543438.7599999998}},{"attributes":{"ID":110802,"DIS_CODE":0,"TOWNNAME":"歸仁區","LI":"沙崙里","LIN":"1鄰","STREET":" ","SECT":" ","MAREA":"二甲","LANE":" ","ALLEY":" ","HOUSE_NO":"２號","E_COORD97":178469.17000000001,"N_COORD97":2539549.25,"ADDRESS":"二甲２號","OBJECTID":110802},"geometry":{"x":178469.16999999993,"y":2539549.25}},{"attributes":{"ID":110803,"DIS_CODE":0,"TOWNNAME":"歸仁區","LI":"沙崙里","LIN":"1鄰","STREET":" ","SECT":" ","MAREA":"二甲","LANE":" ","ALLEY":" ","HOUSE_NO":"１６７號","E_COORD97":178581.82999999999,"N_COORD97":2539310.8900000001,"ADDRESS":"二甲１６７號","OBJECTID":110803},"geometry":{"x":178581.83000000007,"y":2539310.8900000025}},{"attributes":{"ID":110804,"DIS_CODE":0,"TOWNNAME":"歸仁區","LI":"沙崙里","LIN":"1鄰","STREET":" ","SECT":" ","MAREA":"二甲","LANE":" ","ALLEY":" ","HOUSE_NO":"１３２號","E_COORD97":178505.73000000001,"N_COORD97":2539285.8900000001,"ADDRESS":"二甲１３２號","OBJECTID":110804},"geometry":{"x":178505.73000000138,"y":2539285.8900000043}},{"attributes":{"ID":110805,"DIS_CODE":0,"TOWNNAME":"歸仁區","LI":"沙崙里","LIN":"1鄰","STREET":" ","SECT":" ","MAREA":"二甲","LANE":" ","ALLEY":" ","HOUSE_NO":"１１號","E_COORD97":178479.17999999999,"N_COORD97":2539344.8900000001,"ADDRESS":"二甲１１號","OBJECTID":110805},"geometry":{"x":178479.1799999997,"y":2539344.8900000025}},{"attributes":{"ID":110806,"DIS_CODE":0,"TOWNNAME":"歸仁區","LI":"沙崙里","LIN":"1鄰","STREET":" ","SECT":" ","MAREA":"二甲","LANE":" ","ALLEY":" ","HOUSE_NO":"１６０號","E_COORD97":178632.67000000001,"N_COORD97":2539517.25,"ADDRESS":"二甲１６０號","OBJECTID":110806},"geometry":{"x":178632.67000000086,"y":2539517.2500000019}},{"attributes":{"ID":110807,"DIS_CODE":0,"TOWNNAME":"歸仁區","LI":"沙崙里","LIN":"1鄰","STREET":" ","SECT":" ","MAREA":"二甲","LANE":" ","ALLEY":" ","HOUSE_NO":"１４９號","E_COORD97":178528.53,"N_COORD97":2539324.8900000001,"ADDRESS":"二甲１４９號","OBJECTID":110807},"geometry":{"x":178528.52999999933,"y":2539324.8900000006}},{"attributes":{"ID":110808,"DIS_CODE":0,"TOWNNAME":"善化區","LI":"嘉北里","LIN":"9鄰","STREET":" ","SECT":" ","MAREA":"茄拔","LANE":" ","ALLEY":" ","HOUSE_NO":"１８８號之１","E_COORD97":181017.95000000001,"N_COORD97":2560067.02,"ADDRESS":"茄拔１８８號之１","OBJECTID":110808},"geometry":{"x":181017.95000000112,"y":2560067.0200000033}},{"attributes":{"ID":110809,"DIS_CODE":0,"TOWNNAME":"中西區","LI":"萬昌里","LIN":"9鄰","STREET":"府前路","SECT":"一段","MAREA":" ","LANE":"１２２巷","ALLEY":"６８弄","HOUSE_NO":"５號","E_COORD97":168808.78,"N_COORD97":2543438.2599999998,"ADDRESS":"府前路一段１２２巷６８弄５號","OBJECTID":110809},"geometry":{"x":168808.78000000119,"y":2543438.2599999998}},{"attributes":{"ID":110810,"DIS_CODE":0,"TOWNNAME":"善化區","LI":"東隆里","LIN":"9鄰","STREET":" ","SECT":" ","MAREA":"東勢寮","LANE":" ","ALLEY":" ","HOUSE_NO":"２１２號之２","E_COORD97":179958.42999999999,"N_COORD97":2561375.27,"ADDRESS":"東勢寮２１２號之２","OBJECTID":110810},"geometry":{"x":179958.43000000063,"y":2561375.2700000014}},{"attributes":{"ID":110811,"DIS_CODE":0,"TOWNNAME":"中西區","LI":"萬昌里","LIN":"9鄰","STREET":"府前路","SECT":"一段","MAREA":" ","LANE":"１２２巷","ALLEY":"６８弄","HOUSE_NO":"７號","E_COORD97":168812.92000000001,"N_COORD97":2543437.6800000002,"ADDRESS":"府前路一段１２２巷６８弄７號","OBJECTID":110811},"geometry":{"x":168812.92000000086,"y":2543437.6800000016}},{"attributes":{"ID":110812,"DIS_CODE":0,"TOWNNAME":"善化區","LI":"小新里","LIN":"9鄰","STREET":" ","SECT":" ","MAREA":"小新營","LANE":" ","ALLEY":" ","HOUSE_NO":"７３號之１","E_COORD97":179599.69,"N_COORD97":2558219.27,"ADDRESS":"小新營７３號之１","OBJECTID":110812},"geometry":{"x":179599.69000000134,"y":2558219.2699999996}},{"attributes":{"ID":110813,"DIS_CODE":0,"TOWNNAME":"善化區","LI":"小新里","LIN":"9鄰","STREET":" ","SECT":" ","MAREA":"小新營","LANE":" ","ALLEY":" ","HOUSE_NO":"７３之１７號","E_COORD97":179557.04999999999,"N_COORD97":2558337.77,"ADDRESS":"小新營７３之１７號","OBJECTID":110813},"geometry":{"x":179557.05000000168,"y":2558337.7700000014}},{"attributes":{"ID":110814,"DIS_CODE":0,"TOWNNAME":"善化區","LI":"小新里","LIN":"9鄰","STREET":" ","SECT":" ","MAREA":"小新營","LANE":" ","ALLEY":" ","HOUSE_NO":"７３號之１０","E_COORD97":179568.99877000001,"N_COORD97":2558360.5416199998,"ADDRESS":"小新營７３號之１０","OBJECTID":110814},"geometry":{"x":179568.99877000134,"y":2558360.541616004}},{"attributes":{"ID":110815,"DIS_CODE":0,"TOWNNAME":"善化區","LI":"六德里","LIN":"9鄰","STREET":" ","SECT":" ","MAREA":"六分寮","LANE":" ","ALLEY":" ","HOUSE_NO":"２７１之２號","E_COORD97":178584.82000000001,"N_COORD97":2561670.02,"ADDRESS":"六分寮２７１之２號","OBJECTID":110815},"geometry":{"x":178584.82000000123,"y":2561670.0199999996}},{"attributes":{"ID":110816,"DIS_CODE":0,"TOWNNAME":"善化區","LI":"小新里","LIN":"9鄰","STREET":" ","SECT":" ","MAREA":"小新營","LANE":" ","ALLEY":" ","HOUSE_NO":"７３號之２","E_COORD97":179581.73000000001,"N_COORD97":2558274.77,"ADDRESS":"小新營７３號之２","OBJECTID":110816},"geometry":{"x":179581.72999999952,"y":2558274.7699999996}},{"attributes":{"ID":110817,"DIS_CODE":0,"TOWNNAME":"善化區","LI":"小新里","LIN":"9鄰","STREET":" ","SECT":" ","MAREA":"小新營","LANE":" ","ALLEY":" ","HOUSE_NO":"６９號","E_COORD97":179669.16,"N_COORD97":2558250,"ADDRESS":"小新營６９號","OBJECTID":110817},"geometry":{"x":179669.16000000108,"y":2558250}},{"attributes":{"ID":110818,"DIS_CODE":0,"TOWNNAME":"中西區","LI":"萬昌里","LIN":"9鄰","STREET":"府前路","SECT":"一段","MAREA":" ","LANE":"１２２巷","ALLEY":"６８弄","HOUSE_NO":"９號","E_COORD97":168817.20999999999,"N_COORD97":2543436.8599999999,"ADDRESS":"府前路一段１２２巷６８弄９號","OBJECTID":110818},"geometry":{"x":168817.21000000089,"y":2543436.8599999994}},{"attributes":{"ID":110819,"DIS_CODE":0,"TOWNNAME":"善化區","LI":"小新里","LIN":"9鄰","STREET":" ","SECT":" ","MAREA":"小新營","LANE":" ","ALLEY":" ","HOUSE_NO":"６８號之１","E_COORD97":179650.60000000001,"N_COORD97":2558239.27,"ADDRESS":"小新營６８號之１","OBJECTID":110819},"geometry":{"x":179650.59999999963,"y":2558239.2700000014}},{"attributes":{"ID":110820,"DIS_CODE":0,"TOWNNAME":"善化區","LI":"小新里","LIN":"9鄰","STREET":" ","SECT":" ","MAREA":"小新營","LANE":" ","ALLEY":" ","HOUSE_NO":"７３號之６","E_COORD97":179583.89999999999,"N_COORD97":2558320.02,"ADDRESS":"小新營７３號之６","OBJECTID":110820},"geometry":{"x":179583.89999999944,"y":2558320.0199999996}},{"attributes":{"ID":110821,"DIS_CODE":0,"TOWNNAME":"安南區","LI":"淵中里","LIN":"9鄰","STREET":"安中路","SECT":"四段","MAREA":" ","LANE":"４巷","ALLEY":"４６弄","HOUSE_NO":"１３號","E_COORD97":165232.26000000001,"N_COORD97":2550208.0499999998,"ADDRESS":"安中路四段４巷４６弄１３號","OBJECTID":110821},"geometry":{"x":165232.25999999978,"y":2550208.0500000007}},{"attributes":{"ID":110822,"DIS_CODE":0,"TOWNNAME":"善化區","LI":"什乃里","LIN":"9鄰","STREET":" ","SECT":" ","MAREA":"什乃","LANE":" ","ALLEY":" ","HOUSE_NO":"８２號","E_COORD97":176137.54999999999,"N_COORD97":2560304.75,"ADDRESS":"什乃８２號","OBJECTID":110822},"geometry":{"x":176137.54999999981,"y":2560304.7500000019}},{"attributes":{"ID":110823,"DIS_CODE":0,"TOWNNAME":"白河區","LI":"甘宅里","LIN":"9鄰","STREET":" ","SECT":" ","MAREA":"甘宅","LANE":" ","ALLEY":" ","HOUSE_NO":"９７號","E_COORD97":191958.34,"N_COORD97":2587054.6699999999,"ADDRESS":"甘宅９７號","OBJECTID":110823},"geometry":{"x":191958.33999999985,"y":2587054.6700000018}},{"attributes":{"ID":110824,"DIS_CODE":0,"TOWNNAME":"官田區","LI":"西庄里","LIN":"9鄰","STREET":" ","SECT":" ","MAREA":"西庄","LANE":" ","ALLEY":" ","HOUSE_NO":"６８號","E_COORD97":177915.20999999999,"N_COORD97":2565142.7799999998,"ADDRESS":"西庄６８號","OBJECTID":110824},"geometry":{"x":177915.21000000183,"y":2565142.7799999993}},{"attributes":{"ID":110825,"DIS_CODE":0,"TOWNNAME":"官田區","LI":"西庄里","LIN":"9鄰","STREET":" ","SECT":" ","MAREA":"西庄","LANE":" ","ALLEY":" ","HOUSE_NO":"６５號","E_COORD97":177958.91,"N_COORD97":2565092.2000000002,"ADDRESS":"西庄６５號","OBJECTID":110825},"geometry":{"x":177958.91000000015,"y":2565092.1999999993}},{"attributes":{"ID":110826,"DIS_CODE":0,"TOWNNAME":"官田區","LI":"西庄里","LIN":"9鄰","STREET":" ","SECT":" ","MAREA":"西庄","LANE":" ","ALLEY":" ","HOUSE_NO":"６６號","E_COORD97":177954.70000000001,"N_COORD97":2565081.9100000001,"ADDRESS":"西庄６６號","OBJECTID":110826},"geometry":{"x":177954.70000000112,"y":2565081.9100000001}},{"attributes":{"ID":110827,"DIS_CODE":0,"TOWNNAME":"官田區","LI":"西庄里","LIN":"9鄰","STREET":" ","SECT":" ","MAREA":"西庄","LANE":" ","ALLEY":" ","HOUSE_NO":"６７號","E_COORD97":177915.23999999999,"N_COORD97":2565134.1899999999,"ADDRESS":"西庄６７號","OBJECTID":110827},"geometry":{"x":177915.24000000209,"y":2565134.1900000032}},{"attributes":{"ID":110828,"DIS_CODE":0,"TOWNNAME":"官田區","LI":"西庄里","LIN":"9鄰","STREET":" ","SECT":" ","MAREA":"西庄","LANE":" ","ALLEY":" ","HOUSE_NO":"６９號","E_COORD97":177928.60999999999,"N_COORD97":2565142.6699999999,"ADDRESS":"西庄６９號","OBJECTID":110828},"geometry":{"x":177928.61000000127,"y":2565142.6700000018}},{"attributes":{"ID":110829,"DIS_CODE":0,"TOWNNAME":"安南區","LI":"淵中里","LIN":"9鄰","STREET":"安中路","SECT":"四段","MAREA":" ","LANE":"４巷","ALLEY":"４６弄","HOUSE_NO":"１號","E_COORD97":165210.98000000001,"N_COORD97":2550189.4700000002,"ADDRESS":"安中路四段４巷４６弄１號","OBJECTID":110829},"geometry":{"x":165210.98000000045,"y":2550189.4700000025}},{"attributes":{"ID":110830,"DIS_CODE":0,"TOWNNAME":"安南區","LI":"淵中里","LIN":"9鄰","STREET":"安中路","SECT":"四段","MAREA":" ","LANE":"４巷","ALLEY":"４６弄","HOUSE_NO":"２５號","E_COORD97":165246.45999999999,"N_COORD97":2550216.8999999999,"ADDRESS":"安中路四段４巷４６弄２５號","OBJECTID":110830},"geometry":{"x":165246.45999999996,"y":2550216.9000000022}},{"attributes":{"ID":110831,"DIS_CODE":0,"TOWNNAME":"安南區","LI":"淵中里","LIN":"9鄰","STREET":"安中路","SECT":"四段","MAREA":" ","LANE":"４巷","ALLEY":"４６弄","HOUSE_NO":"３１號","E_COORD97":165254.78,"N_COORD97":2550231.5499999998,"ADDRESS":"安中路四段４巷４６弄３１號","OBJECTID":110831},"geometry":{"x":165254.78000000026,"y":2550231.5500000007}},{"attributes":{"ID":110832,"DIS_CODE":0,"TOWNNAME":"安南區","LI":"淵中里","LIN":"9鄰","STREET":"安中路","SECT":"四段","MAREA":" ","LANE":"４巷","ALLEY":"４６弄","HOUSE_NO":"３號","E_COORD97":165213.69,"N_COORD97":2550192.3500000001,"ADDRESS":"安中路四段４巷４６弄３號","OBJECTID":110832},"geometry":{"x":165213.69000000227,"y":2550192.3500000015}},{"attributes":{"ID":110833,"DIS_CODE":0,"TOWNNAME":"安南區","LI":"淵中里","LIN":"9鄰","STREET":"安中路","SECT":"四段","MAREA":" ","LANE":"４巷","ALLEY":"４６弄","HOUSE_NO":"７號","E_COORD97":165219.91,"N_COORD97":2550200.2799999998,"ADDRESS":"安中路四段４巷４６弄７號","OBJECTID":110833},"geometry":{"x":165219.91000000015,"y":2550200.2800000012}},{"attributes":{"ID":110834,"DIS_CODE":0,"TOWNNAME":"安南區","LI":"淵中里","LIN":"9鄰","STREET":"安中路","SECT":"四段","MAREA":" ","LANE":"４巷","ALLEY":"４６弄","HOUSE_NO":"９號","E_COORD97":165222.25,"N_COORD97":2550205.3199999998,"ADDRESS":"安中路四段４巷４６弄９號","OBJECTID":110834},"geometry":{"x":165222.25,"y":2550205.3200000003}},{"attributes":{"ID":110835,"DIS_CODE":0,"TOWNNAME":"安南區","LI":"淵中里","LIN":"9鄰","STREET":"安中路","SECT":"四段","MAREA":" ","LANE":"４巷","ALLEY":"４８弄","HOUSE_NO":"１號","E_COORD97":165184.20000000001,"N_COORD97":2550211,"ADDRESS":"安中路四段４巷４８弄１號","OBJECTID":110835},"geometry":{"x":165184.20000000019,"y":2550211}},{"attributes":{"ID":110836,"DIS_CODE":0,"TOWNNAME":"安南區","LI":"淵中里","LIN":"9鄰","STREET":"安中路","SECT":"四段","MAREA":" ","LANE":"４巷","ALLEY":"４８弄","HOUSE_NO":"２號","E_COORD97":165206.20000000001,"N_COORD97":2550205.3199999998,"ADDRESS":"安中路四段４巷４８弄２號","OBJECTID":110836},"geometry":{"x":165206.20000000019,"y":2550205.3200000003}},{"attributes":{"ID":110837,"DIS_CODE":0,"TOWNNAME":"安南區","LI":"淵中里","LIN":"9鄰","STREET":"安中路","SECT":"四段","MAREA":" ","LANE":"４巷","ALLEY":"４８弄","HOUSE_NO":"５號","E_COORD97":165184.20000000001,"N_COORD97":2550215.23,"ADDRESS":"安中路四段４巷４８弄５號","OBJECTID":110837},"geometry":{"x":165184.20000000019,"y":2550215.2300000023}},{"attributes":{"ID":110838,"DIS_CODE":0,"TOWNNAME":"安南區","LI":"州南里","LIN":"9鄰","STREET":"安和路","SECT":"五段","MAREA":" ","LANE":"８１巷","ALLEY":"２１弄","HOUSE_NO":"２７號","E_COORD97":169887.79999999999,"N_COORD97":2551605.1899999999,"ADDRESS":"安和路五段８１巷２１弄２７號","OBJECTID":110838},"geometry":{"x":169887.80000000075,"y":2551605.1899999995}},{"attributes":{"ID":110839,"DIS_CODE":0,"TOWNNAME":"安南區","LI":"安順里","LIN":"9鄰","STREET":"安和路","SECT":"四段","MAREA":" ","LANE":"１３１巷","ALLEY":"２５弄","HOUSE_NO":"２號","E_COORD97":169848.20000000001,"N_COORD97":2550398.2000000002,"ADDRESS":"安和路四段１３１巷２５弄２號","OBJECTID":110839},"geometry":{"x":169848.20000000112,"y":2550398.1999999993}},{"attributes":{"ID":110840,"DIS_CODE":0,"TOWNNAME":"安南區","LI":"安順里","LIN":"9鄰","STREET":"安和路","SECT":"四段","MAREA":" ","LANE":"１３１巷","ALLEY":"２５弄","HOUSE_NO":"４號","E_COORD97":169848.69,"N_COORD97":2550393.27,"ADDRESS":"安和路四段１３１巷２５弄４號","OBJECTID":110840},"geometry":{"x":169848.69000000134,"y":2550393.2700000014}},{"attributes":{"ID":110841,"DIS_CODE":0,"TOWNNAME":"安南區","LI":"佃東里","LIN":"9鄰","STREET":"公學路","SECT":"四段","MAREA":" ","LANE":"１２６巷","ALLEY":"６１弄","HOUSE_NO":"１號","E_COORD97":165448.78,"N_COORD97":2551962.6099999999,"ADDRESS":"公學路四段１２６巷６１弄１號","OBJECTID":110841},"geometry":{"x":165448.78000000119,"y":2551962.6099999994}},{"attributes":{"ID":110842,"DIS_CODE":0,"TOWNNAME":"新營區","LI":"新北里","LIN":"1鄰","STREET":"周武街","SECT":" ","MAREA":" ","LANE":" ","ALLEY":" ","HOUSE_NO":"２５號","E_COORD97":179392.72,"N_COORD97":2578869.0699999998,"ADDRESS":"周武街２５號","OBJECTID":110842},"geometry":{"x":179392.71999999974,"y":2578869.0700000003}},{"attributes":{"ID":110843,"DIS_CODE":0,"TOWNNAME":"新營區","LI":"忠政里","LIN":"1鄰","STREET":"中正路","SECT":" ","MAREA":" ","LANE":" ","ALLEY":" ","HOUSE_NO":"２７之８號","E_COORD97":180106.70000000001,"N_COORD97":2578997.5299999998,"ADDRESS":"中正路２７之８號","OBJECTID":110843},"geometry":{"x":180106.70000000019,"y":2578997.5299999993}},{"attributes":{"ID":110844,"DIS_CODE":0,"TOWNNAME":"新營區","LI":"民生里","LIN":"1鄰","STREET":"復興路","SECT":" ","MAREA":" ","LANE":" ","ALLEY":" ","HOUSE_NO":"１０４號","E_COORD97":179488.26999999999,"N_COORD97":2578065.7200000002,"ADDRESS":"復興路１０４號","OBJECTID":110844},"geometry":{"x":179488.26999999955,"y":2578065.7200000007}},{"attributes":{"ID":110845,"DIS_CODE":0,"TOWNNAME":"南區","LI":"再興里","LIN":"17鄰","STREET":"金華路","SECT":"二段","MAREA":" ","LANE":" ","ALLEY":" ","HOUSE_NO":"２０６號","E_COORD97":167107.60999999999,"N_COORD97":2542331.9300000002,"ADDRESS":"金華路二段２０６號","OBJECTID":110845},"geometry":{"x":167107.6100000022,"y":2542331.9299999997}},{"attributes":{"ID":110846,"DIS_CODE":0,"TOWNNAME":"南區","LI":"再興里","LIN":"17鄰","STREET":"金華路","SECT":"二段","MAREA":" ","LANE":" ","ALLEY":" ","HOUSE_NO":"２０８號","E_COORD97":167108.04999999999,"N_COORD97":2542336.6200000001,"ADDRESS":"金華路二段２０８號","OBJECTID":110846},"geometry":{"x":167108.05000000075,"y":2542336.6200000029}},{"attributes":{"ID":110847,"DIS_CODE":0,"TOWNNAME":"南區","LI":"再興里","LIN":"17鄰","STREET":"金華路","SECT":"二段","MAREA":" ","LANE":" ","ALLEY":" ","HOUSE_NO":"２１０號","E_COORD97":167108.20000000001,"N_COORD97":2542340.4300000002,"ADDRESS":"金華路二段２１０號","OBJECTID":110847},"geometry":{"x":167108.20000000019,"y":2542340.4300000016}},{"attributes":{"ID":110848,"DIS_CODE":0,"TOWNNAME":"南區","LI":"同安里","LIN":"4鄰","STREET":"明興路","SECT":" ","MAREA":" ","LANE":" ","ALLEY":" ","HOUSE_NO":"１２７８號","E_COORD97":166398.54999999999,"N_COORD97":2536147.5600000001,"ADDRESS":"明興路１２７８號","OBJECTID":110848},"geometry":{"x":166398.54999999981,"y":2536147.5600000005}},{"attributes":{"ID":110849,"DIS_CODE":0,"TOWNNAME":"新營區","LI":"太北里","LIN":"1鄰","STREET":" ","SECT":" ","MAREA":"太子宮","LANE":" ","ALLEY":" ","HOUSE_NO":"１之１８號","E_COORD97":176471.79999999999,"N_COORD97":2577204.4399999999,"ADDRESS":"太子宮１之１８號","OBJECTID":110849},"geometry":{"x":176471.80000000168,"y":2577204.4399999995}},{"attributes":{"ID":110850,"DIS_CODE":0,"TOWNNAME":"新營區","LI":"鐵線里","LIN":"1鄰","STREET":" ","SECT":" ","MAREA":"鐵線橋","LANE":" ","ALLEY":" ","HOUSE_NO":"２號","E_COORD97":176026.89000000001,"N_COORD97":2574060.3100000001,"ADDRESS":"鐵線橋２號","OBJECTID":110850},"geometry":{"x":176026.89000000153,"y":2574060.3100000005}},{"attributes":{"ID":110851,"DIS_CODE":0,"TOWNNAME":"新營區","LI":"太北里","LIN":"1鄰","STREET":" ","SECT":" ","MAREA":"太子宮","LANE":" ","ALLEY":" ","HOUSE_NO":"１之６０號","E_COORD97":176623.69,"N_COORD97":2577304.4700000002,"ADDRESS":"太子宮１之６０號","OBJECTID":110851},"geometry":{"x":176623.69000000041,"y":2577304.4700000007}},{"attributes":{"ID":110852,"DIS_CODE":0,"TOWNNAME":"安南區","LI":"佃東里","LIN":"9鄰","STREET":"公學路","SECT":"四段","MAREA":" ","LANE":"１２６巷","ALLEY":"６１弄","HOUSE_NO":"７號","E_COORD97":165454.01999999999,"N_COORD97":2551948.2000000002,"ADDRESS":"公學路四段１２６巷６１弄７號","OBJECTID":110852},"geometry":{"x":165454.01999999955,"y":2551948.1999999993}},{"attributes":{"ID":110853,"DIS_CODE":0,"TOWNNAME":"東區","LI":"富強里","LIN":"9鄰","STREET":"裕農路","SECT":" ","MAREA":" ","LANE":"４４６巷","ALLEY":"７０弄","HOUSE_NO":"３３號","E_COORD97":171135.34,"N_COORD97":2542924.29,"ADDRESS":"裕農路４４６巷７０弄３３號","OBJECTID":110853},"geometry":{"x":171135.34000000078,"y":2542924.290000001}},{"attributes":{"ID":110854,"DIS_CODE":0,"TOWNNAME":"新營區","LI":"五興里","LIN":"1鄰","STREET":" ","SECT":" ","MAREA":"五間厝","LANE":" ","ALLEY":" ","HOUSE_NO":"１號","E_COORD97":175887.76999999999,"N_COORD97":2574695.5699999998,"ADDRESS":"五間厝１號","OBJECTID":110854},"geometry":{"x":175887.76999999955,"y":2574695.5700000003}},{"attributes":{"ID":110855,"DIS_CODE":0,"TOWNNAME":"新營區","LI":"五興里","LIN":"1鄰","STREET":" ","SECT":" ","MAREA":"五間厝","LANE":" ","ALLEY":" ","HOUSE_NO":"１之６號","E_COORD97":175961.48999999999,"N_COORD97":2574615.5299999998,"ADDRESS":"五間厝１之６號","OBJECTID":110855},"geometry":{"x":175961.49000000022,"y":2574615.5300000012}},{"attributes":{"ID":110856,"DIS_CODE":0,"TOWNNAME":"東山區","LI":"三榮里","LIN":"1鄰","STREET":" ","SECT":" ","MAREA":"許秀才","LANE":" ","ALLEY":" ","HOUSE_NO":"６號","E_COORD97":187063.26000000001,"N_COORD97":2579305.6899999999,"ADDRESS":"許秀才６號","OBJECTID":110856},"geometry":{"x":187063.25999999978,"y":2579305.6899999995}},{"attributes":{"ID":110857,"DIS_CODE":0,"TOWNNAME":"東山區","LI":"高原里","LIN":"1鄰","STREET":" ","SECT":" ","MAREA":"高原","LANE":" ","ALLEY":" ","HOUSE_NO":"１１９號","E_COORD97":195828.32999999999,"N_COORD97":2575371.04,"ADDRESS":"高原１１９號","OBJECTID":110857},"geometry":{"x":195828.33000000007,"y":2575371.040000001}},{"attributes":{"ID":110858,"DIS_CODE":0,"TOWNNAME":"麻豆區","LI":"寮\u25A0里","LIN":"1鄰","STREET":" ","SECT":" ","MAREA":"寮子\u25A0","LANE":" ","ALLEY":" ","HOUSE_NO":"１號之２","E_COORD97":176371.75,"N_COORD97":2565478.9700000002,"ADDRESS":"寮子\u25A0１號之２","OBJECTID":110858},"geometry":{"x":176371.75,"y":2565478.9700000007}},{"attributes":{"ID":110859,"DIS_CODE":0,"TOWNNAME":"新營區","LI":"大宏里","LIN":"1鄰","STREET":"民治路","SECT":" ","MAREA":" ","LANE":" ","ALLEY":" ","HOUSE_NO":"１５號","E_COORD97":180423.67999999999,"N_COORD97":2578870.8399999999,"ADDRESS":"民治路１５號","OBJECTID":110859},"geometry":{"x":180423.6799999997,"y":2578870.8399999999}},{"attributes":{"ID":110860,"DIS_CODE":0,"TOWNNAME":"麻豆區","LI":"寮\u25A0里","LIN":"1鄰","STREET":" ","SECT":" ","MAREA":"寮子\u25A0","LANE":" ","ALLEY":" ","HOUSE_NO":"１號之３","E_COORD97":176381.51000000001,"N_COORD97":2565500.0299999998,"ADDRESS":"寮子\u25A0１號之３","OBJECTID":110860},"geometry":{"x":176381.50999999978,"y":2565500.0299999993}},{"attributes":{"ID":110861,"DIS_CODE":0,"TOWNNAME":"新營區","LI":"王公里","LIN":"1鄰","STREET":"中正路","SECT":" ","MAREA":" ","LANE":" ","ALLEY":" ","HOUSE_NO":"４０號","E_COORD97":180110.92999999999,"N_COORD97":2578905.5299999998,"ADDRESS":"中正路４０號","OBJECTID":110861},"geometry":{"x":180110.93000000063,"y":2578905.5299999993}},{"attributes":{"ID":110862,"DIS_CODE":0,"TOWNNAME":"新營區","LI":"新北里","LIN":"1鄰","STREET":"三興街","SECT":" ","MAREA":" ","LANE":" ","ALLEY":" ","HOUSE_NO":"５７之３號","E_COORD97":179428.17999999999,"N_COORD97":2578927.6600000001,"ADDRESS":"三興街５７之３號","OBJECTID":110862},"geometry":{"x":179428.1799999997,"y":2578927.660000002}},{"attributes":{"ID":110863,"DIS_CODE":0,"TOWNNAME":"東區","LI":"富強里","LIN":"9鄰","STREET":"裕農路","SECT":" ","MAREA":" ","LANE":"４４６巷","ALLEY":"７０弄","HOUSE_NO":"３５號","E_COORD97":171135.56,"N_COORD97":2542928.7599999998,"ADDRESS":"裕農路４４６巷７０弄３５號","OBJECTID":110863},"geometry":{"x":171135.56000000052,"y":2542928.7600000016}},{"attributes":{"ID":110864,"DIS_CODE":0,"TOWNNAME":"新營區","LI":"王公里","LIN":"1鄰","STREET":"中正路","SECT":" ","MAREA":" ","LANE":" ","ALLEY":" ","HOUSE_NO":"３６號","E_COORD97":180109.89000000001,"N_COORD97":2578897.79,"ADDRESS":"中正路３６號","OBJECTID":110864},"geometry":{"x":180109.88999999966,"y":2578897.7899999991}},{"attributes":{"ID":110865,"DIS_CODE":0,"TOWNNAME":"麻豆區","LI":"寮\u25A0里","LIN":"1鄰","STREET":" ","SECT":" ","MAREA":"寮子\u25A0","LANE":" ","ALLEY":" ","HOUSE_NO":"１號之５","E_COORD97":176338.22,"N_COORD97":2565522.23,"ADDRESS":"寮子\u25A0１號之５","OBJECTID":110865},"geometry":{"x":176338.2200000016,"y":2565522.2300000023}},{"attributes":{"ID":110866,"DIS_CODE":0,"TOWNNAME":"東區","LI":"富強里","LIN":"9鄰","STREET":"裕農路","SECT":" ","MAREA":" ","LANE":"４４６巷","ALLEY":"７０弄","HOUSE_NO":"３７號","E_COORD97":171135.66,"N_COORD97":2542932.4700000002,"ADDRESS":"裕農路４４６巷７０弄３７號","OBJECTID":110866},"geometry":{"x":171135.66000000108,"y":2542932.4700000007}},{"attributes":{"ID":110867,"DIS_CODE":0,"TOWNNAME":"麻豆區","LI":"寮\u25A0里","LIN":"1鄰","STREET":" ","SECT":" ","MAREA":"寮子\u25A0","LANE":" ","ALLEY":" ","HOUSE_NO":"１號之６","E_COORD97":176345.73999999999,"N_COORD97":2565523.9100000001,"ADDRESS":"寮子\u25A0１號之６","OBJECTID":110867},"geometry":{"x":176345.74000000115,"y":2565523.910000002}},{"attributes":{"ID":110868,"DIS_CODE":0,"TOWNNAME":"麻豆區","LI":"寮\u25A0里","LIN":"1鄰","STREET":" ","SECT":" ","MAREA":"寮子\u25A0","LANE":" ","ALLEY":" ","HOUSE_NO":"２號之１０","E_COORD97":176459.23999999999,"N_COORD97":2565488.7400000002,"ADDRESS":"寮子\u25A0２號之１０","OBJECTID":110868},"geometry":{"x":176459.24000000115,"y":2565488.7400000021}},{"attributes":{"ID":110869,"DIS_CODE":0,"TOWNNAME":"東區","LI":"富強里","LIN":"9鄰","STREET":"裕農路","SECT":" ","MAREA":" ","LANE":"４４６巷","ALLEY":"７０弄","HOUSE_NO":"３９號","E_COORD97":171135.23999999999,"N_COORD97":2542936.2999999998,"ADDRESS":"裕農路４４６巷７０弄３９號","OBJECTID":110869},"geometry":{"x":171135.24000000115,"y":2542936.3000000026}},{"attributes":{"ID":110870,"DIS_CODE":0,"TOWNNAME":"東區","LI":"富強里","LIN":"9鄰","STREET":"裕農路","SECT":" ","MAREA":" ","LANE":"４４６巷","ALLEY":"７０弄","HOUSE_NO":"４１號","E_COORD97":171135.23999999999,"N_COORD97":2542940.6600000001,"ADDRESS":"裕農路４４６巷７０弄４１號","OBJECTID":110870},"geometry":{"x":171135.24000000115,"y":2542940.6600000001}},{"attributes":{"ID":110871,"DIS_CODE":0,"TOWNNAME":"麻豆區","LI":"寮\u25A0里","LIN":"1鄰","STREET":" ","SECT":" ","MAREA":"寮子\u25A0","LANE":" ","ALLEY":" ","HOUSE_NO":"２號之１１","E_COORD97":176451.70000000001,"N_COORD97":2565489.9500000002,"ADDRESS":"寮子\u25A0２號之１１","OBJECTID":110871},"geometry":{"x":176451.70000000019,"y":2565489.9500000011}},{"attributes":{"ID":110872,"DIS_CODE":0,"TOWNNAME":"麻豆區","LI":"寮\u25A0里","LIN":"1鄰","STREET":" ","SECT":" ","MAREA":"寮子\u25A0","LANE":" ","ALLEY":" ","HOUSE_NO":"２號之１２","E_COORD97":176447.01000000001,"N_COORD97":2565489.9399999999,"ADDRESS":"寮子\u25A0２號之１２","OBJECTID":110872},"geometry":{"x":176447.01000000071,"y":2565489.9400000013}},{"attributes":{"ID":110873,"DIS_CODE":0,"TOWNNAME":"麻豆區","LI":"寮\u25A0里","LIN":"1鄰","STREET":" ","SECT":" ","MAREA":"寮子\u25A0","LANE":" ","ALLEY":" ","HOUSE_NO":"２號之１","E_COORD97":176477.53,"N_COORD97":2565470.5,"ADDRESS":"寮子\u25A0２號之１","OBJECTID":110873},"geometry":{"x":176477.53000000212,"y":2565470.5}},{"attributes":{"ID":110874,"DIS_CODE":0,"TOWNNAME":"官田區","LI":"西庄里","LIN":"9鄰","STREET":" ","SECT":" ","MAREA":"西庄","LANE":" ","ALLEY":" ","HOUSE_NO":"７０號之１","E_COORD97":177924.10999999999,"N_COORD97":2565156.9700000002,"ADDRESS":"西庄７０號之１","OBJECTID":110874},"geometry":{"x":177924.11000000034,"y":2565156.9700000007}},{"attributes":{"ID":110875,"DIS_CODE":0,"TOWNNAME":"官田區","LI":"西庄里","LIN":"9鄰","STREET":" ","SECT":" ","MAREA":"西庄","LANE":" ","ALLEY":" ","HOUSE_NO":"７０號","E_COORD97":177928.14999999999,"N_COORD97":2565150.77,"ADDRESS":"西庄７０號","OBJECTID":110875},"geometry":{"x":177928.1500000013,"y":2565150.7700000033}},{"attributes":{"ID":110876,"DIS_CODE":0,"TOWNNAME":"官田區","LI":"西庄里","LIN":"9鄰","STREET":" ","SECT":" ","MAREA":"西庄","LANE":" ","ALLEY":" ","HOUSE_NO":"７１號","E_COORD97":177943.76999999999,"N_COORD97":2565142.3300000001,"ADDRESS":"西庄７１號","OBJECTID":110876},"geometry":{"x":177943.77000000048,"y":2565142.3300000019}},{"attributes":{"ID":110877,"DIS_CODE":0,"TOWNNAME":"官田區","LI":"西庄里","LIN":"9鄰","STREET":" ","SECT":" ","MAREA":"西庄","LANE":" ","ALLEY":" ","HOUSE_NO":"７２號之１","E_COORD97":177956.81,"N_COORD97":2565148.5099999998,"ADDRESS":"西庄７２號之１","OBJECTID":110877},"geometry":{"x":177956.81000000052,"y":2565148.5099999998}},{"attributes":{"ID":110878,"DIS_CODE":0,"TOWNNAME":"歸仁區","LI":"崙頂里","LIN":"12鄰","STREET":"凱旋路","SECT":"一段","MAREA":" ","LANE":"６０１巷","ALLEY":" ","HOUSE_NO":"８３５號","E_COORD97":177314.882599,"N_COORD97":2538409.2030400001,"ADDRESS":"凱旋路一段６０１巷８３５號","OBJECTID":110878},"geometry":{"x":177314.88259900082,"y":2538409.2030410003}},{"attributes":{"ID":110879,"DIS_CODE":0,"TOWNNAME":"官田區","LI":"西庄里","LIN":"9鄰","STREET":" ","SECT":" ","MAREA":"西庄","LANE":" ","ALLEY":" ","HOUSE_NO":"７２號之３","E_COORD97":177955.32000000001,"N_COORD97":2565140.5099999998,"ADDRESS":"西庄７２號之３","OBJECTID":110879},"geometry":{"x":177955.31999999937,"y":2565140.5100000016}},{"attributes":{"ID":110880,"DIS_CODE":0,"TOWNNAME":"關廟區","LI":"五甲里","LIN":"1鄰","STREET":"旺萊路","SECT":" ","MAREA":" ","LANE":" ","ALLEY":" ","HOUSE_NO":"１２８號","E_COORD97":181702.73999999999,"N_COORD97":2539251.25,"ADDRESS":"旺萊路１２８號","OBJECTID":110880},"geometry":{"x":181702.74000000115,"y":2539251.25}},{"attributes":{"ID":110881,"DIS_CODE":0,"TOWNNAME":"官田區","LI":"西庄里","LIN":"9鄰","STREET":" ","SECT":" ","MAREA":"西庄","LANE":" ","ALLEY":" ","HOUSE_NO":"７２號","E_COORD97":177957.10000000001,"N_COORD97":2565128.6800000002,"ADDRESS":"西庄７２號","OBJECTID":110881},"geometry":{"x":177957.09999999963,"y":2565128.6800000016}},{"attributes":{"ID":110882,"DIS_CODE":0,"TOWNNAME":"東區","LI":"富強里","LIN":"9鄰","STREET":"裕農路","SECT":" ","MAREA":" ","LANE":"４４６巷","ALLEY":"７０弄","HOUSE_NO":"４３號","E_COORD97":171134.60000000001,"N_COORD97":2542944.7999999998,"ADDRESS":"裕農路４４６巷７０弄４３號","OBJECTID":110882},"geometry":{"x":171134.59999999963,"y":2542944.8000000045}},{"attributes":{"ID":110883,"DIS_CODE":0,"TOWNNAME":"仁德區","LI":"中生里","LIN":"9鄰","STREET":" ","SECT":" ","MAREA":"中洲","LANE":" ","ALLEY":" ","HOUSE_NO":"１７０號","E_COORD97":173192.95999999999,"N_COORD97":2534041.7400000002,"ADDRESS":"中洲１７０號","OBJECTID":110883},"geometry":{"x":173192.96000000089,"y":2534041.7400000039}},{"attributes":{"ID":110884,"DIS_CODE":0,"TOWNNAME":"官田區","LI":"拔林里","LIN":"9鄰","STREET":" ","SECT":" ","MAREA":"拔子林","LANE":" ","ALLEY":" ","HOUSE_NO":"７０號之１","E_COORD97":180816.07000000001,"N_COORD97":2563561.0699999998,"ADDRESS":"拔子林７０號之１","OBJECTID":110884},"geometry":{"x":180816.0700000003,"y":2563561.0700000022}},{"attributes":{"ID":110885,"DIS_CODE":0,"TOWNNAME":"官田區","LI":"拔林里","LIN":"9鄰","STREET":" ","SECT":" ","MAREA":"拔子林","LANE":" ","ALLEY":" ","HOUSE_NO":"７０號之６","E_COORD97":180783.51000000001,"N_COORD97":2563528.2999999998,"ADDRESS":"拔子林７０號之６","OBJECTID":110885},"geometry":{"x":180783.51000000071,"y":2563528.3000000026}},{"attributes":{"ID":110886,"DIS_CODE":0,"TOWNNAME":"官田區","LI":"拔林里","LIN":"9鄰","STREET":" ","SECT":" ","MAREA":"拔子林","LANE":" ","ALLEY":" ","HOUSE_NO":"７０號之７","E_COORD97":180787.79999999999,"N_COORD97":2563528.77,"ADDRESS":"拔子林７０號之７","OBJECTID":110886},"geometry":{"x":180787.80000000168,"y":2563528.7699999996}},{"attributes":{"ID":110887,"DIS_CODE":0,"TOWNNAME":"官田區","LI":"拔林里","LIN":"9鄰","STREET":" ","SECT":" ","MAREA":"拔子林","LANE":" ","ALLEY":" ","HOUSE_NO":"７０號","E_COORD97":180796.79999999999,"N_COORD97":2563556.5899999999,"ADDRESS":"拔子林７０號","OBJECTID":110887},"geometry":{"x":180796.80000000075,"y":2563556.5900000017}},{"attributes":{"ID":110888,"DIS_CODE":0,"TOWNNAME":"關廟區","LI":"下湖里","LIN":"1鄰","STREET":"保東一街","SECT":" ","MAREA":" ","LANE":" ","ALLEY":" ","HOUSE_NO":"５２０號","E_COORD97":178319.48999999999,"N_COORD97":2542349.2999999998,"ADDRESS":"保東一街５２０號","OBJECTID":110888},"geometry":{"x":178319.49000000022,"y":2542349.3000000026}},{"attributes":{"ID":110889,"DIS_CODE":0,"TOWNNAME":"東區","LI":"富強里","LIN":"9鄰","STREET":"裕農路","SECT":" ","MAREA":" ","LANE":"４４６巷","ALLEY":"７０弄","HOUSE_NO":"４５號","E_COORD97":171121.09,"N_COORD97":2542936.0899999999,"ADDRESS":"裕農路４４６巷７０弄４５號","OBJECTID":110889},"geometry":{"x":171121.08999999985,"y":2542936.0900000017}},{"attributes":{"ID":110890,"DIS_CODE":0,"TOWNNAME":"東區","LI":"富強里","LIN":"9鄰","STREET":"裕農路","SECT":" ","MAREA":" ","LANE":"４４６巷","ALLEY":"７０弄","HOUSE_NO":"４９號","E_COORD97":171112.79999999999,"N_COORD97":2542935.5600000001,"ADDRESS":"裕農路４４６巷７０弄４９號","OBJECTID":110890},"geometry":{"x":171112.79999999981,"y":2542935.5600000005}},{"attributes":{"ID":110891,"DIS_CODE":0,"TOWNNAME":"官田區","LI":"拔林里","LIN":"9鄰","STREET":" ","SECT":" ","MAREA":"拔子林","LANE":" ","ALLEY":" ","HOUSE_NO":"７１號之１","E_COORD97":180831.20000000001,"N_COORD97":2563533.0899999999,"ADDRESS":"拔子林７１號之１","OBJECTID":110891},"geometry":{"x":180831.20000000205,"y":2563533.0900000017}},{"attributes":{"ID":110892,"DIS_CODE":0,"TOWNNAME":"官田區","LI":"拔林里","LIN":"9鄰","STREET":" ","SECT":" ","MAREA":"拔子林","LANE":" ","ALLEY":" ","HOUSE_NO":"７１號之２","E_COORD97":180848.26999999999,"N_COORD97":2563543.3399999999,"ADDRESS":"拔子林７１號之２","OBJECTID":110892},"geometry":{"x":180848.26999999955,"y":2563543.339999998}},{"attributes":{"ID":110893,"DIS_CODE":0,"TOWNNAME":"官田區","LI":"拔林里","LIN":"9鄰","STREET":" ","SECT":" ","MAREA":"拔子林","LANE":" ","ALLEY":" ","HOUSE_NO":"７１號","E_COORD97":180792.56,"N_COORD97":2563534.8100000001,"ADDRESS":"拔子林７１號","OBJECTID":110893},"geometry":{"x":180792.56000000145,"y":2563534.8100000024}},{"attributes":{"ID":110894,"DIS_CODE":0,"TOWNNAME":"官田區","LI":"拔林里","LIN":"9鄰","STREET":" ","SECT":" ","MAREA":"拔子林","LANE":" ","ALLEY":" ","HOUSE_NO":"７２號之１２","E_COORD97":181036.64999999999,"N_COORD97":2563457.04,"ADDRESS":"拔子林７２號之１２","OBJECTID":110894},"geometry":{"x":181036.65000000037,"y":2563457.040000001}},{"attributes":{"ID":110895,"DIS_CODE":0,"TOWNNAME":"東區","LI":"富強里","LIN":"9鄰","STREET":"裕農路","SECT":" ","MAREA":" ","LANE":"４４６巷","ALLEY":"７０弄","HOUSE_NO":"５１號","E_COORD97":171108.75,"N_COORD97":2542936.6200000001,"ADDRESS":"裕農路４４６巷７０弄５１號","OBJECTID":110895},"geometry":{"x":171108.75000000186,"y":2542936.6200000029}},{"attributes":{"ID":110896,"DIS_CODE":0,"TOWNNAME":"官田區","LI":"拔林里","LIN":"9鄰","STREET":" ","SECT":" ","MAREA":"拔子林","LANE":" ","ALLEY":" ","HOUSE_NO":"７２號之１","E_COORD97":180843.85000000001,"N_COORD97":2563507.3900000001,"ADDRESS":"拔子林７２號之１","OBJECTID":110896},"geometry":{"x":180843.85000000056,"y":2563507.3900000025}},{"attributes":{"ID":110897,"DIS_CODE":0,"TOWNNAME":"官田區","LI":"拔林里","LIN":"9鄰","STREET":" ","SECT":" ","MAREA":"拔子林","LANE":" ","ALLEY":" ","HOUSE_NO":"７２號之２","E_COORD97":180841.60000000001,"N_COORD97":2563481.29,"ADDRESS":"拔子林７２號之２","OBJECTID":110897},"geometry":{"x":180841.60000000056,"y":2563481.2899999991}},{"attributes":{"ID":110898,"DIS_CODE":0,"TOWNNAME":"官田區","LI":"拔林里","LIN":"9鄰","STREET":" ","SECT":" ","MAREA":"拔子林","LANE":" ","ALLEY":" ","HOUSE_NO":"７２號之３","E_COORD97":180818.20000000001,"N_COORD97":2563474.04,"ADDRESS":"拔子林７２號之３","OBJECTID":110898},"geometry":{"x":180818.20000000112,"y":2563474.040000001}},{"attributes":{"ID":110899,"DIS_CODE":0,"TOWNNAME":"官田區","LI":"拔林里","LIN":"9鄰","STREET":" ","SECT":" ","MAREA":"拔子林","LANE":" ","ALLEY":" ","HOUSE_NO":"７２號之４","E_COORD97":180813.64999999999,"N_COORD97":2563474.9900000002,"ADDRESS":"拔子林７２號之４","OBJECTID":110899},"geometry":{"x":180813.6500000013,"y":2563474.9899999984}},{"attributes":{"ID":110900,"DIS_CODE":0,"TOWNNAME":"官田區","LI":"拔林里","LIN":"9鄰","STREET":" ","SECT":" ","MAREA":"拔子林","LANE":" ","ALLEY":" ","HOUSE_NO":"７２號","E_COORD97":180794.62,"N_COORD97":2563503.0600000001,"ADDRESS":"拔子林７２號","OBJECTID":110900},"geometry":{"x":180794.62000000104,"y":2563503.0600000024}},{"attributes":{"ID":110901,"DIS_CODE":0,"TOWNNAME":"新化區","LI":"全興里","LIN":"9鄰","STREET":" ","SECT":" ","MAREA":"竹子\u25A0","LANE":" ","ALLEY":" ","HOUSE_NO":"１２１號之３","E_COORD97":177569.07999999999,"N_COORD97":2547689.2599999998,"ADDRESS":"竹子\u25A0１２１號之３","OBJECTID":110901},"geometry":{"x":177569.08000000101,"y":2547689.2599999998}},{"attributes":{"ID":110902,"DIS_CODE":0,"TOWNNAME":"新化區","LI":"全興里","LIN":"9鄰","STREET":" ","SECT":" ","MAREA":"竹子\u25A0","LANE":" ","ALLEY":" ","HOUSE_NO":"１１２號","E_COORD97":177506.42999999999,"N_COORD97":2547717.25,"ADDRESS":"竹子\u25A0１１２號","OBJECTID":110902},"geometry":{"x":177506.43000000156,"y":2547717.25}},{"attributes":{"ID":110903,"DIS_CODE":0,"TOWNNAME":"新化區","LI":"全興里","LIN":"9鄰","STREET":" ","SECT":" ","MAREA":"竹子\u25A0","LANE":" ","ALLEY":" ","HOUSE_NO":"１２１號之２","E_COORD97":177574.89000000001,"N_COORD97":2547693.2599999998,"ADDRESS":"竹子\u25A0１２１號之２","OBJECTID":110903},"geometry":{"x":177574.8900000006,"y":2547693.2599999998}},{"attributes":{"ID":110904,"DIS_CODE":0,"TOWNNAME":"新化區","LI":"大坑里","LIN":"9鄰","STREET":" ","SECT":" ","MAREA":"大坑尾","LANE":" ","ALLEY":" ","HOUSE_NO":"２６號之５","E_COORD97":184605.92999999999,"N_COORD97":2545420.96,"ADDRESS":"大坑尾２６號之５","OBJECTID":110904},"geometry":{"x":184605.93000000156,"y":2545420.9600000009}},{"attributes":{"ID":110905,"DIS_CODE":0,"TOWNNAME":"關廟區","LI":"北花里","LIN":"1鄰","STREET":"花園三街","SECT":" ","MAREA":" ","LANE":" ","ALLEY":" ","HOUSE_NO":"９６號","E_COORD97":181822.94,"N_COORD97":2540486.25,"ADDRESS":"花園三街９６號","OBJECTID":110905},"geometry":{"x":181822.94000000041,"y":2540486.2499999981}},{"attributes":{"ID":110906,"DIS_CODE":0,"TOWNNAME":"歸仁區","LI":"大潭里","LIN":"16鄰","STREET":"大潭二街","SECT":" ","MAREA":" ","LANE":" ","ALLEY":" ","HOUSE_NO":"２８號","E_COORD97":175040.27911800001,"N_COORD97":2534686.2631199998,"ADDRESS":"大潭二街２８號","OBJECTID":110906},"geometry":{"x":175040.27911800053,"y":2534686.2631170023}},{"attributes":{"ID":110907,"DIS_CODE":0,"TOWNNAME":"新化區","LI":"唪口里","LIN":"9鄰","STREET":" ","SECT":" ","MAREA":"唪口","LANE":" ","ALLEY":" ","HOUSE_NO":"１３３號之２","E_COORD97":177875.692488,"N_COORD97":2549024.4970300002,"ADDRESS":"唪口１３３號之２","OBJECTID":110907},"geometry":{"x":177875.69248800073,"y":2549024.497026002}},{"attributes":{"ID":110908,"DIS_CODE":0,"TOWNNAME":"善化區","LI":"小新里","LIN":"9鄰","STREET":" ","SECT":" ","MAREA":"小新營","LANE":" ","ALLEY":" ","HOUSE_NO":"７３號之１８","E_COORD97":179562.04999999999,"N_COORD97":2558337.77,"ADDRESS":"小新營７３號之１８","OBJECTID":110908},"geometry":{"x":179562.05000000168,"y":2558337.7700000014}},{"attributes":{"ID":110909,"DIS_CODE":0,"TOWNNAME":"善化區","LI":"小新里","LIN":"9鄰","STREET":" ","SECT":" ","MAREA":"小新營","LANE":" ","ALLEY":" ","HOUSE_NO":"７３號之５","E_COORD97":179582.39796199999,"N_COORD97":2558264.6501500001,"ADDRESS":"小新營７３號之５","OBJECTID":110909},"geometry":{"x":179582.39796200115,"y":2558264.6501550023}},{"attributes":{"ID":110910,"DIS_CODE":0,"TOWNNAME":"善化區","LI":"六德里","LIN":"9鄰","STREET":" ","SECT":" ","MAREA":"六分寮","LANE":" ","ALLEY":" ","HOUSE_NO":"２７３號","E_COORD97":178578.85000000001,"N_COORD97":2561654.5,"ADDRESS":"六分寮２７３號","OBJECTID":110910},"geometry":{"x":178578.85000000056,"y":2561654.5000000019}},{"attributes":{"ID":110911,"DIS_CODE":0,"TOWNNAME":"關廟區","LI":"北勢里","LIN":"1鄰","STREET":"北新街","SECT":" ","MAREA":" ","LANE":" ","ALLEY":" ","HOUSE_NO":"５號","E_COORD97":181258.09,"N_COORD97":2540297.25,"ADDRESS":"北新街５號","OBJECTID":110911},"geometry":{"x":181258.08999999985,"y":2540297.2500000019}},{"attributes":{"ID":110912,"DIS_CODE":0,"TOWNNAME":"善化區","LI":"小新里","LIN":"9鄰","STREET":" ","SECT":" ","MAREA":"小新營","LANE":" ","ALLEY":" ","HOUSE_NO":"７０號之１","E_COORD97":179656.29000000001,"N_COORD97":2558284.77,"ADDRESS":"小新營７０號之１","OBJECTID":110912},"geometry":{"x":179656.29000000097,"y":2558284.7699999996}},{"attributes":{"ID":110913,"DIS_CODE":0,"TOWNNAME":"善化區","LI":"六德里","LIN":"9鄰","STREET":" ","SECT":" ","MAREA":"六分寮","LANE":" ","ALLEY":" ","HOUSE_NO":"２７４號","E_COORD97":178598.04999999999,"N_COORD97":2561625.75,"ADDRESS":"六分寮２７４號","OBJECTID":110913},"geometry":{"x":178598.05000000075,"y":2561625.7500000019}},{"attributes":{"ID":110914,"DIS_CODE":0,"TOWNNAME":"將軍區","LI":"長沙里","LIN":"16鄰","STREET":" ","SECT":" ","MAREA":"長沙","LANE":" ","ALLEY":" ","HOUSE_NO":"１３７之２號","E_COORD97":158548.68828500001,"N_COORD97":2568593.5987399998,"ADDRESS":"長沙１３７之２號","OBJECTID":110914},"geometry":{"x":158548.68828499969,"y":2568593.5987420026}},{"attributes":{"ID":110915,"DIS_CODE":0,"TOWNNAME":"東區","LI":"富裕里","LIN":"9鄰","STREET":"裕農路","SECT":" ","MAREA":" ","LANE":"２８８巷","ALLEY":"７０弄","HOUSE_NO":"８號之１","E_COORD97":170933.82000000001,"N_COORD97":2542899.5600000001,"ADDRESS":"裕農路２８８巷７０弄８號之１","OBJECTID":110915},"geometry":{"x":170933.81999999937,"y":2542899.5600000024}},{"attributes":{"ID":110916,"DIS_CODE":0,"TOWNNAME":"善化區","LI":"六德里","LIN":"9鄰","STREET":" ","SECT":" ","MAREA":"六分寮","LANE":" ","ALLEY":" ","HOUSE_NO":"２７１之１號","E_COORD97":178588.82999999999,"N_COORD97":2561672.77,"ADDRESS":"六分寮２７１之１號","OBJECTID":110916},"geometry":{"x":178588.83000000007,"y":2561672.7700000014}},{"attributes":{"ID":110917,"DIS_CODE":0,"TOWNNAME":"東區","LI":"富強里","LIN":"9鄰","STREET":"裕農路","SECT":" ","MAREA":" ","LANE":"４４６巷","ALLEY":"７０弄","HOUSE_NO":"１７號","E_COORD97":171177.63,"N_COORD97":2542941.23,"ADDRESS":"裕農路４４６巷７０弄１７號","OBJECTID":110917},"geometry":{"x":171177.63000000082,"y":2542941.2300000004}},{"attributes":{"ID":110918,"DIS_CODE":0,"TOWNNAME":"善化區","LI":"田寮里","LIN":"9鄰","STREET":" ","SECT":" ","MAREA":"六分寮","LANE":" ","ALLEY":" ","HOUSE_NO":"９８號","E_COORD97":178647.26000000001,"N_COORD97":2561449.75,"ADDRESS":"六分寮９８號","OBJECTID":110918},"geometry":{"x":178647.26000000071,"y":2561449.7500000019}},{"attributes":{"ID":110919,"DIS_CODE":0,"TOWNNAME":"善化區","LI":"牛庄里","LIN":"9鄰","STREET":" ","SECT":" ","MAREA":"牛庄","LANE":" ","ALLEY":" ","HOUSE_NO":"１１１號","E_COORD97":180074.84,"N_COORD97":2559949.75,"ADDRESS":"牛庄１１１號","OBJECTID":110919},"geometry":{"x":180074.83999999985,"y":2559949.75}},{"attributes":{"ID":110920,"DIS_CODE":0,"TOWNNAME":"善化區","LI":"牛庄里","LIN":"9鄰","STREET":" ","SECT":" ","MAREA":"牛庄","LANE":" ","ALLEY":" ","HOUSE_NO":"１１２號之１","E_COORD97":180077.57000000001,"N_COORD97":2559928.02,"ADDRESS":"牛庄１１２號之１","OBJECTID":110920},"geometry":{"x":180077.5700000003,"y":2559928.0200000033}},{"attributes":{"ID":110921,"DIS_CODE":0,"TOWNNAME":"東區","LI":"富強里","LIN":"9鄰","STREET":"裕農路","SECT":" ","MAREA":" ","LANE":"４４６巷","ALLEY":"７０弄","HOUSE_NO":"１９號","E_COORD97":171173.47,"N_COORD97":2542940.3999999999,"ADDRESS":"裕農路４４６巷７０弄１９號","OBJECTID":110921},"geometry":{"x":171173.47000000067,"y":2542940.4000000041}},{"attributes":{"ID":110922,"DIS_CODE":0,"TOWNNAME":"善化區","LI":"牛庄里","LIN":"9鄰","STREET":" ","SECT":" ","MAREA":"牛庄","LANE":" ","ALLEY":" ","HOUSE_NO":"１１１號之６","E_COORD97":180098.38,"N_COORD97":2559906.02,"ADDRESS":"牛庄１１１號之６","OBJECTID":110922},"geometry":{"x":180098.37999999989,"y":2559906.0199999996}},{"attributes":{"ID":110923,"DIS_CODE":0,"TOWNNAME":"東區","LI":"富強里","LIN":"9鄰","STREET":"裕農路","SECT":" ","MAREA":" ","LANE":"４４６巷","ALLEY":"７０弄","HOUSE_NO":"２１號","E_COORD97":171163.19,"N_COORD97":2542945.0800000001,"ADDRESS":"裕農路４４６巷７０弄２１號","OBJECTID":110923},"geometry":{"x":171163.19000000041,"y":2542945.0800000001}},{"attributes":{"ID":110924,"DIS_CODE":0,"TOWNNAME":"善化區","LI":"東隆里","LIN":"9鄰","STREET":" ","SECT":" ","MAREA":"東勢寮","LANE":" ","ALLEY":" ","HOUSE_NO":"２１４號","E_COORD97":179950.73999999999,"N_COORD97":2561422.2599999998,"ADDRESS":"東勢寮２１４號","OBJECTID":110924},"geometry":{"x":179950.74000000022,"y":2561422.2600000016}},{"attributes":{"ID":110925,"DIS_CODE":0,"TOWNNAME":"善化區","LI":"牛庄里","LIN":"9鄰","STREET":" ","SECT":" ","MAREA":"牛庄","LANE":" ","ALLEY":" ","HOUSE_NO":"８１號","E_COORD97":180094.76999999999,"N_COORD97":2559957.75,"ADDRESS":"牛庄８１號","OBJECTID":110925},"geometry":{"x":180094.77000000048,"y":2559957.7500000019}},{"attributes":{"ID":110926,"DIS_CODE":0,"TOWNNAME":"東區","LI":"富強里","LIN":"9鄰","STREET":"裕農路","SECT":" ","MAREA":" ","LANE":"４４６巷","ALLEY":"７０弄","HOUSE_NO":"２３號","E_COORD97":171162.98000000001,"N_COORD97":2542940.3900000001,"ADDRESS":"裕農路４４６巷７０弄２３號","OBJECTID":110926},"geometry":{"x":171162.98000000045,"y":2542940.3900000006}},{"attributes":{"ID":110927,"DIS_CODE":0,"TOWNNAME":"善化區","LI":"牛庄里","LIN":"9鄰","STREET":" ","SECT":" ","MAREA":"牛庄","LANE":" ","ALLEY":" ","HOUSE_NO":"８２號","E_COORD97":180109.54999999999,"N_COORD97":2559967,"ADDRESS":"牛庄８２號","OBJECTID":110927},"geometry":{"x":180109.55000000168,"y":2559967.0000000019}},{"attributes":{"ID":110928,"DIS_CODE":0,"TOWNNAME":"東區","LI":"富強里","LIN":"9鄰","STREET":"裕農路","SECT":" ","MAREA":" ","LANE":"４４６巷","ALLEY":"７０弄","HOUSE_NO":"２５號","E_COORD97":171163.19,"N_COORD97":2542935.8100000001,"ADDRESS":"裕農路４４６巷７０弄２５號","OBJECTID":110928},"geometry":{"x":171163.19000000041,"y":2542935.8100000024}},{"attributes":{"ID":110929,"DIS_CODE":0,"TOWNNAME":"東區","LI":"富強里","LIN":"9鄰","STREET":"裕農路","SECT":" ","MAREA":" ","LANE":"４４６巷","ALLEY":"７０弄","HOUSE_NO":"２７號","E_COORD97":171163.29000000001,"N_COORD97":2542931.8300000001,"ADDRESS":"裕農路４４６巷７０弄２７號","OBJECTID":110929},"geometry":{"x":171163.29000000097,"y":2542931.8300000019}},{"attributes":{"ID":110930,"DIS_CODE":0,"TOWNNAME":"善化區","LI":"田寮里","LIN":"9鄰","STREET":" ","SECT":" ","MAREA":"六分寮","LANE":" ","ALLEY":" ","HOUSE_NO":"９７號之１","E_COORD97":178656.31,"N_COORD97":2561474.77,"ADDRESS":"六分寮９７號之１","OBJECTID":110930},"geometry":{"x":178656.30999999959,"y":2561474.7699999996}},{"attributes":{"ID":110931,"DIS_CODE":0,"TOWNNAME":"善化區","LI":"田寮里","LIN":"9鄰","STREET":" ","SECT":" ","MAREA":"六分寮","LANE":" ","ALLEY":" ","HOUSE_NO":"９６號","E_COORD97":178643.76000000001,"N_COORD97":2561502,"ADDRESS":"六分寮９６號","OBJECTID":110931},"geometry":{"x":178643.76000000071,"y":2561502.0000000019}},{"attributes":{"ID":110932,"DIS_CODE":0,"TOWNNAME":"善化區","LI":"田寮里","LIN":"9鄰","STREET":" ","SECT":" ","MAREA":"六分寮","LANE":" ","ALLEY":" ","HOUSE_NO":"９７號","E_COORD97":178654.13,"N_COORD97":2561479,"ADDRESS":"六分寮９７號","OBJECTID":110932},"geometry":{"x":178654.12999999989,"y":2561479.0000000019}},{"attributes":{"ID":110933,"DIS_CODE":0,"TOWNNAME":"東區","LI":"富強里","LIN":"9鄰","STREET":"裕農路","SECT":" ","MAREA":" ","LANE":"４４６巷","ALLEY":"７０弄","HOUSE_NO":"２９號","E_COORD97":171163.07999999999,"N_COORD97":2542927.3500000001,"ADDRESS":"裕農路４４６巷７０弄２９號","OBJECTID":110933},"geometry":{"x":171163.08000000101,"y":2542927.3500000015}},{"attributes":{"ID":110934,"DIS_CODE":0,"TOWNNAME":"東區","LI":"富強里","LIN":"9鄰","STREET":"裕農路","SECT":" ","MAREA":" ","LANE":"４４６巷","ALLEY":"７０弄","HOUSE_NO":"３１號","E_COORD97":171163.19,"N_COORD97":2542923.8799999999,"ADDRESS":"裕農路４４６巷７０弄３１號","OBJECTID":110934},"geometry":{"x":171163.19000000041,"y":2542923.879999999}},{"attributes":{"ID":110935,"DIS_CODE":0,"TOWNNAME":"善化區","LI":"東隆里","LIN":"9鄰","STREET":" ","SECT":" ","MAREA":"東勢寮","LANE":" ","ALLEY":" ","HOUSE_NO":"２１２號之５","E_COORD97":179946.85000000001,"N_COORD97":2561380.27,"ADDRESS":"東勢寮２１２號之５","OBJECTID":110935},"geometry":{"x":179946.85000000056,"y":2561380.2699999996}},{"attributes":{"ID":110936,"DIS_CODE":0,"TOWNNAME":"大內區","LI":"環湖里","LIN":"9鄰","STREET":" ","SECT":" ","MAREA":"環湖","LANE":" ","ALLEY":" ","HOUSE_NO":"１１６號","E_COORD97":190357.79000000001,"N_COORD97":2560769.25,"ADDRESS":"環湖１１６號","OBJECTID":110936},"geometry":{"x":190357.79000000097,"y":2560769.2500000019}},{"attributes":{"ID":110937,"DIS_CODE":0,"TOWNNAME":"大內區","LI":"環湖里","LIN":"9鄰","STREET":" ","SECT":" ","MAREA":"環湖","LANE":" ","ALLEY":" ","HOUSE_NO":"１３１之１號","E_COORD97":188734.98999999999,"N_COORD97":2561472.2999999998,"ADDRESS":"環湖１３１之１號","OBJECTID":110937},"geometry":{"x":188734.99000000022,"y":2561472.3000000007}},{"attributes":{"ID":110938,"DIS_CODE":0,"TOWNNAME":"大內區","LI":"石林里","LIN":"9鄰","STREET":" ","SECT":" ","MAREA":"石子瀨","LANE":" ","ALLEY":" ","HOUSE_NO":"１９９號之１","E_COORD97":184150.70000000001,"N_COORD97":2558085.2999999998,"ADDRESS":"石子瀨１９９號之１","OBJECTID":110938},"geometry":{"x":184150.70000000112,"y":2558085.3000000007}},{"attributes":{"ID":110939,"DIS_CODE":0,"TOWNNAME":"大內區","LI":"環湖里","LIN":"9鄰","STREET":" ","SECT":" ","MAREA":"環湖","LANE":" ","ALLEY":" ","HOUSE_NO":"１２３號","E_COORD97":190272.09,"N_COORD97":2560731.25,"ADDRESS":"環湖１２３號","OBJECTID":110939},"geometry":{"x":190272.09000000171,"y":2560731.2500000019}},{"attributes":{"ID":110940,"DIS_CODE":0,"TOWNNAME":"大內區","LI":"曲溪里","LIN":"9鄰","STREET":" ","SECT":" ","MAREA":"二重溪","LANE":" ","ALLEY":" ","HOUSE_NO":"８２號","E_COORD97":187297.19,"N_COORD97":2557643.3100000001,"ADDRESS":"二重溪８２號","OBJECTID":110940},"geometry":{"x":187297.19000000134,"y":2557643.3100000024}},{"attributes":{"ID":110941,"DIS_CODE":0,"TOWNNAME":"大內區","LI":"內江里","LIN":"9鄰","STREET":" ","SECT":" ","MAREA":"內庄","LANE":" ","ALLEY":" ","HOUSE_NO":"３０６號","E_COORD97":184568.38,"N_COORD97":2557284.25,"ADDRESS":"內庄３０６號","OBJECTID":110941},"geometry":{"x":184568.37999999989,"y":2557284.25}},{"attributes":{"ID":110942,"DIS_CODE":0,"TOWNNAME":"大內區","LI":"二溪里","LIN":"9鄰","STREET":" ","SECT":" ","MAREA":"二重溪","LANE":" ","ALLEY":" ","HOUSE_NO":"２３１號","E_COORD97":188754.23999999999,"N_COORD97":2560303.3100000001,"ADDRESS":"二重溪２３１號","OBJECTID":110942},"geometry":{"x":188754.24000000209,"y":2560303.3100000042}},{"attributes":{"ID":110943,"DIS_CODE":0,"TOWNNAME":"大內區","LI":"環湖里","LIN":"9鄰","STREET":" ","SECT":" ","MAREA":"環湖","LANE":" ","ALLEY":" ","HOUSE_NO":"１２９號","E_COORD97":189137.79000000001,"N_COORD97":2561460.25,"ADDRESS":"環湖１２９號","OBJECTID":110943},"geometry":{"x":189137.79000000004,"y":2561460.2500000019}},{"attributes":{"ID":110944,"DIS_CODE":0,"TOWNNAME":"大內區","LI":"內江里","LIN":"9鄰","STREET":" ","SECT":" ","MAREA":"內庄","LANE":" ","ALLEY":" ","HOUSE_NO":"３１２號","E_COORD97":184588.78,"N_COORD97":2557205.25,"ADDRESS":"內庄３１２號","OBJECTID":110944},"geometry":{"x":184588.77999999933,"y":2557205.2500000019}},{"attributes":{"ID":110945,"DIS_CODE":0,"TOWNNAME":"大內區","LI":"二溪里","LIN":"9鄰","STREET":" ","SECT":" ","MAREA":"二重溪","LANE":" ","ALLEY":" ","HOUSE_NO":"２２６之１號","E_COORD97":188849.54000000001,"N_COORD97":2560259.3100000001,"ADDRESS":"二重溪２２６之１號","OBJECTID":110945},"geometry":{"x":188849.54000000004,"y":2560259.3100000042}},{"attributes":{"ID":110946,"DIS_CODE":0,"TOWNNAME":"東區","LI":"東安里","LIN":"9鄰","STREET":"長榮路","SECT":"二段","MAREA":" ","LANE":"３２巷","ALLEY":"４６弄","HOUSE_NO":"７３號","E_COORD97":170097.54999999999,"N_COORD97":2543151.0299999998,"ADDRESS":"長榮路二段３２巷４６弄７３號","OBJECTID":110946},"geometry":{"x":170097.54999999981,"y":2543151.0299999993}},{"attributes":{"ID":110947,"DIS_CODE":0,"TOWNNAME":"關廟區","LI":"香洋里","LIN":"1鄰","STREET":"中正路","SECT":" ","MAREA":" ","LANE":" ","ALLEY":" ","HOUSE_NO":"９２６號","E_COORD97":181197.16,"N_COORD97":2540283.25,"ADDRESS":"中正路９２６號","OBJECTID":110947},"geometry":{"x":181197.16000000015,"y":2540283.2500000019}},{"attributes":{"ID":110948,"DIS_CODE":0,"TOWNNAME":"東區","LI":"東安里","LIN":"9鄰","STREET":"長榮路","SECT":"二段","MAREA":" ","LANE":"３２巷","ALLEY":"４６弄","HOUSE_NO":"７１號","E_COORD97":170106.26999999999,"N_COORD97":2543154.3799999999,"ADDRESS":"長榮路二段３２巷４６弄７１號","OBJECTID":110948},"geometry":{"x":170106.27000000142,"y":2543154.379999999}},{"attributes":{"ID":110949,"DIS_CODE":0,"TOWNNAME":"大內區","LI":"環湖里","LIN":"9鄰","STREET":" ","SECT":" ","MAREA":"環湖","LANE":" ","ALLEY":" ","HOUSE_NO":"１２４號之１","E_COORD97":190253.32999999999,"N_COORD97":2560725.2999999998,"ADDRESS":"環湖１２４號之１","OBJECTID":110949},"geometry":{"x":190253.33000000007,"y":2560725.3000000026}},{"attributes":{"ID":110950,"DIS_CODE":0,"TOWNNAME":"大內區","LI":"環湖里","LIN":"9鄰","STREET":" ","SECT":" ","MAREA":"環湖","LANE":" ","ALLEY":" ","HOUSE_NO":"１１８號","E_COORD97":190344.29000000001,"N_COORD97":2560762.25,"ADDRESS":"環湖１１８號","OBJECTID":110950},"geometry":{"x":190344.29000000097,"y":2560762.2500000019}},{"attributes":{"ID":110951,"DIS_CODE":0,"TOWNNAME":"大內區","LI":"環湖里","LIN":"9鄰","STREET":" ","SECT":" ","MAREA":"環湖","LANE":" ","ALLEY":" ","HOUSE_NO":"１３０號之４","E_COORD97":189130.85000000001,"N_COORD97":2561514.2999999998,"ADDRESS":"環湖１３０號之４","OBJECTID":110951},"geometry":{"x":189130.85000000149,"y":2561514.3000000026}},{"attributes":{"ID":110952,"DIS_CODE":0,"TOWNNAME":"東區","LI":"關聖里","LIN":"9鄰","STREET":"裕農路","SECT":" ","MAREA":" ","LANE":"６６８巷","ALLEY":"３５弄","HOUSE_NO":"５８號","E_COORD97":171858.29999999999,"N_COORD97":2543095.77,"ADDRESS":"裕農路６６８巷３５弄５８號","OBJECTID":110952},"geometry":{"x":171858.29999999981,"y":2543095.7699999996}},{"attributes":{"ID":110953,"DIS_CODE":0,"TOWNNAME":"永康區","LI":"尚頂里","LIN":"9鄰","STREET":"正南一街","SECT":" ","MAREA":" ","LANE":"１２９巷","ALLEY":"３８弄","HOUSE_NO":"２號","E_COORD97":170769.53,"N_COORD97":2547161.0899999999,"ADDRESS":"正南一街１２９巷３８弄２號","OBJECTID":110953},"geometry":{"x":170769.53000000026,"y":2547161.0900000017}},{"attributes":{"ID":110954,"DIS_CODE":0,"TOWNNAME":"大內區","LI":"曲溪里","LIN":"9鄰","STREET":" ","SECT":" ","MAREA":"二重溪","LANE":" ","ALLEY":" ","HOUSE_NO":"８２號之１","E_COORD97":187304.23000000001,"N_COORD97":2557642.2999999998,"ADDRESS":"二重溪８２號之１","OBJECTID":110954},"geometry":{"x":187304.23000000138,"y":2557642.3000000045}},{"attributes":{"ID":110955,"DIS_CODE":0,"TOWNNAME":"永康區","LI":"尚頂里","LIN":"9鄰","STREET":"正南一街","SECT":" ","MAREA":" ","LANE":"１２９巷","ALLEY":"３８弄","HOUSE_NO":"７號","E_COORD97":170741.95999999999,"N_COORD97":2547185.2799999998,"ADDRESS":"正南一街１２９巷３８弄７號","OBJECTID":110955},"geometry":{"x":170741.95999999996,"y":2547185.2800000012}},{"attributes":{"ID":110956,"DIS_CODE":0,"TOWNNAME":"大內區","LI":"頭社里","LIN":"9鄰","STREET":" ","SECT":" ","MAREA":"頭社","LANE":" ","ALLEY":" ","HOUSE_NO":"１１７號之１","E_COORD97":185845.73000000001,"N_COORD97":2561439.2999999998,"ADDRESS":"頭社１１７號之１","OBJECTID":110956},"geometry":{"x":185845.73000000138,"y":2561439.3000000045}},{"attributes":{"ID":110957,"DIS_CODE":0,"TOWNNAME":"大內區","LI":"內郭里","LIN":"9鄰","STREET":" ","SECT":" ","MAREA":"後堀","LANE":" ","ALLEY":" ","HOUSE_NO":"３０號","E_COORD97":185695.45999999999,"N_COORD97":2557289.3199999998,"ADDRESS":"後堀３０號","OBJECTID":110957},"geometry":{"x":185695.45999999996,"y":2557289.3200000022}},{"attributes":{"ID":110958,"DIS_CODE":0,"TOWNNAME":"永康區","LI":"尚頂里","LIN":"9鄰","STREET":"正南一街","SECT":" ","MAREA":" ","LANE":"１２９巷","ALLEY":"４６弄","HOUSE_NO":"１８號","E_COORD97":170674.39999999999,"N_COORD97":2547193.7999999998,"ADDRESS":"正南一街１２９巷４６弄１８號","OBJECTID":110958},"geometry":{"x":170674.4000000013,"y":2547193.8000000026}},{"attributes":{"ID":110959,"DIS_CODE":0,"TOWNNAME":"大內區","LI":"內江里","LIN":"9鄰","STREET":" ","SECT":" ","MAREA":"內庄","LANE":" ","ALLEY":" ","HOUSE_NO":"３１１號","E_COORD97":184538.17999999999,"N_COORD97":2557263.25,"ADDRESS":"內庄３１１號","OBJECTID":110959},"geometry":{"x":184538.18000000156,"y":2557263.2500000019}},{"attributes":{"ID":110960,"DIS_CODE":0,"TOWNNAME":"大內區","LI":"石林里","LIN":"9鄰","STREET":" ","SECT":" ","MAREA":"石子瀨","LANE":" ","ALLEY":" ","HOUSE_NO":"２０３之３號","E_COORD97":184250.07000000001,"N_COORD97":2558152.2999999998,"ADDRESS":"石子瀨２０３之３號","OBJECTID":110960},"geometry":{"x":184250.07000000123,"y":2558152.3000000026}},{"attributes":{"ID":110961,"DIS_CODE":0,"TOWNNAME":"大內區","LI":"石城里","LIN":"9鄰","STREET":" ","SECT":" ","MAREA":"石子瀨","LANE":" ","ALLEY":" ","HOUSE_NO":"７８號","E_COORD97":184188.92000000001,"N_COORD97":2557898.25,"ADDRESS":"石子瀨７８號","OBJECTID":110961},"geometry":{"x":184188.91999999993,"y":2557898.25}},{"attributes":{"ID":110962,"DIS_CODE":0,"TOWNNAME":"永康區","LI":"尚頂里","LIN":"9鄰","STREET":"正南一街","SECT":" ","MAREA":" ","LANE":"１２９巷","ALLEY":"４６弄","HOUSE_NO":"１０號","E_COORD97":170685.20000000001,"N_COORD97":2547167.5600000001,"ADDRESS":"正南一街１２９巷４６弄１０號","OBJECTID":110962},"geometry":{"x":170685.20000000019,"y":2547167.5600000024}},{"attributes":{"ID":110963,"DIS_CODE":0,"TOWNNAME":"永康區","LI":"復興里","LIN":"9鄰","STREET":"復興路","SECT":" ","MAREA":" ","LANE":"２７７巷","ALLEY":"６弄","HOUSE_NO":"３號","E_COORD97":172312.23999999999,"N_COORD97":2544249.21,"ADDRESS":"復興路２７７巷６弄３號","OBJECTID":110963},"geometry":{"x":172312.24000000022,"y":2544249.2100000028}},{"attributes":{"ID":110964,"DIS_CODE":0,"TOWNNAME":"大內區","LI":"大內里","LIN":"9鄰","STREET":" ","SECT":" ","MAREA":"內庄","LANE":" ","ALLEY":" ","HOUSE_NO":"１０２號之５","E_COORD97":184674.26999999999,"N_COORD97":2557423.2999999998,"ADDRESS":"內庄１０２號之５","OBJECTID":110964},"geometry":{"x":184674.26999999955,"y":2557423.3000000026}},{"attributes":{"ID":110965,"DIS_CODE":0,"TOWNNAME":"永康區","LI":"復興里","LIN":"9鄰","STREET":"復興路","SECT":" ","MAREA":" ","LANE":"２７７巷","ALLEY":"６弄","HOUSE_NO":"４號","E_COORD97":172312.70999999999,"N_COORD97":2544256.27,"ADDRESS":"復興路２７７巷６弄４號","OBJECTID":110965},"geometry":{"x":172312.71000000089,"y":2544256.2700000014}},{"attributes":{"ID":110966,"DIS_CODE":0,"TOWNNAME":"大內區","LI":"石林里","LIN":"9鄰","STREET":" ","SECT":" ","MAREA":"石子瀨","LANE":" ","ALLEY":" ","HOUSE_NO":"２０３號之２","E_COORD97":184250.04000000001,"N_COORD97":2558124.2999999998,"ADDRESS":"石子瀨２０３號之２","OBJECTID":110966},"geometry":{"x":184250.04000000097,"y":2558124.3000000026}},{"attributes":{"ID":110967,"DIS_CODE":0,"TOWNNAME":"永康區","LI":"復興里","LIN":"9鄰","STREET":"復興路","SECT":" ","MAREA":" ","LANE":"２７７巷","ALLEY":"４弄","HOUSE_NO":"１８號","E_COORD97":172318.72,"N_COORD97":2544278.2799999998,"ADDRESS":"復興路２７７巷４弄１８號","OBJECTID":110967},"geometry":{"x":172318.71999999974,"y":2544278.2799999993}},{"attributes":{"ID":110968,"DIS_CODE":0,"TOWNNAME":"大內區","LI":"石林里","LIN":"9鄰","STREET":" ","SECT":" ","MAREA":"石子瀨","LANE":" ","ALLEY":" ","HOUSE_NO":"２０３號之１","E_COORD97":184249.89999999999,"N_COORD97":2558145.2999999998,"ADDRESS":"石子瀨２０３號之１","OBJECTID":110968},"geometry":{"x":184249.9000000013,"y":2558145.3000000026}},{"attributes":{"ID":110969,"DIS_CODE":0,"TOWNNAME":"大內區","LI":"石林里","LIN":"9鄰","STREET":" ","SECT":" ","MAREA":"石子瀨","LANE":" ","ALLEY":" ","HOUSE_NO":"２０５號","E_COORD97":184179.67000000001,"N_COORD97":2558141.25,"ADDRESS":"石子瀨２０５號","OBJECTID":110969},"geometry":{"x":184179.67000000086,"y":2558141.2500000019}},{"attributes":{"ID":110970,"DIS_CODE":0,"TOWNNAME":"大內區","LI":"石林里","LIN":"9鄰","STREET":" ","SECT":" ","MAREA":"石子瀨","LANE":" ","ALLEY":" ","HOUSE_NO":"２００號","E_COORD97":184141.37,"N_COORD97":2558109.25,"ADDRESS":"石子瀨２００號","OBJECTID":110970},"geometry":{"x":184141.37000000104,"y":2558109.25}},{"attributes":{"ID":110971,"DIS_CODE":0,"TOWNNAME":"大內區","LI":"石林里","LIN":"9鄰","STREET":" ","SECT":" ","MAREA":"石子瀨","LANE":" ","ALLEY":" ","HOUSE_NO":"２０２號之２","E_COORD97":184211.44,"N_COORD97":2558122.2999999998,"ADDRESS":"石子瀨２０２號之２","OBJECTID":110971},"geometry":{"x":184211.44000000041,"y":2558122.3000000007}},{"attributes":{"ID":110972,"DIS_CODE":0,"TOWNNAME":"大內區","LI":"石城里","LIN":"9鄰","STREET":" ","SECT":" ","MAREA":"石子瀨","LANE":" ","ALLEY":" ","HOUSE_NO":"８２號","E_COORD97":184168.51999999999,"N_COORD97":2557963.25,"ADDRESS":"石子瀨８２號","OBJECTID":110972},"geometry":{"x":184168.52000000048,"y":2557963.25}},{"attributes":{"ID":110973,"DIS_CODE":0,"TOWNNAME":"永康區","LI":"復興里","LIN":"9鄰","STREET":"復興路","SECT":" ","MAREA":" ","LANE":"２７７巷","ALLEY":"２弄","HOUSE_NO":"２號","E_COORD97":172323.73000000001,"N_COORD97":2544298.3100000001,"ADDRESS":"復興路２７７巷２弄２號","OBJECTID":110973},"geometry":{"x":172323.73000000138,"y":2544298.3100000024}},{"attributes":{"ID":110974,"DIS_CODE":0,"TOWNNAME":"大內區","LI":"環湖里","LIN":"9鄰","STREET":" ","SECT":" ","MAREA":"環湖","LANE":" ","ALLEY":" ","HOUSE_NO":"１３３號","E_COORD97":189050.69,"N_COORD97":2561780.25,"ADDRESS":"環湖１３３號","OBJECTID":110974},"geometry":{"x":189050.69000000041,"y":2561780.25}},{"attributes":{"ID":110975,"DIS_CODE":0,"TOWNNAME":"大內區","LI":"環湖里","LIN":"9鄰","STREET":" ","SECT":" ","MAREA":"環湖","LANE":" ","ALLEY":" ","HOUSE_NO":"１２６之１０號","E_COORD97":189781.73999999999,"N_COORD97":2560874.2999999998,"ADDRESS":"環湖１２６之１０號","OBJECTID":110975},"geometry":{"x":189781.74000000115,"y":2560874.3000000026}},{"attributes":{"ID":110976,"DIS_CODE":0,"TOWNNAME":"大內區","LI":"環湖里","LIN":"9鄰","STREET":" ","SECT":" ","MAREA":"環湖","LANE":" ","ALLEY":" ","HOUSE_NO":"１１６號之１","E_COORD97":190373.92999999999,"N_COORD97":2560771.2999999998,"ADDRESS":"環湖１１６號之１","OBJECTID":110976},"geometry":{"x":190373.9299999997,"y":2560771.2999999989}},{"attributes":{"ID":110977,"DIS_CODE":0,"TOWNNAME":"大內區","LI":"環湖里","LIN":"9鄰","STREET":" ","SECT":" ","MAREA":"環湖","LANE":" ","ALLEY":" ","HOUSE_NO":"１２３號之１","E_COORD97":190257.73000000001,"N_COORD97":2560774.2999999998,"ADDRESS":"環湖１２３號之１","OBJECTID":110977},"geometry":{"x":190257.73000000045,"y":2560774.3000000007}},{"attributes":{"ID":110978,"DIS_CODE":0,"TOWNNAME":"大內區","LI":"環湖里","LIN":"9鄰","STREET":" ","SECT":" ","MAREA":"環湖","LANE":" ","ALLEY":" ","HOUSE_NO":"１２３號之２","E_COORD97":190231.26000000001,"N_COORD97":2560775.2999999998,"ADDRESS":"環湖１２３號之２","OBJECTID":110978},"geometry":{"x":190231.25999999978,"y":2560775.3000000026}},{"attributes":{"ID":110979,"DIS_CODE":0,"TOWNNAME":"大內區","LI":"曲溪里","LIN":"9鄰","STREET":" ","SECT":" ","MAREA":"二重溪","LANE":" ","ALLEY":" ","HOUSE_NO":"８４號之１","E_COORD97":187320.92999999999,"N_COORD97":2557638.3100000001,"ADDRESS":"二重溪８４號之１","OBJECTID":110979},"geometry":{"x":187320.9299999997,"y":2557638.3099999987}},{"attributes":{"ID":110980,"DIS_CODE":0,"TOWNNAME":"永康區","LI":"復興里","LIN":"9鄰","STREET":"復興路","SECT":" ","MAREA":" ","LANE":"２７７巷","ALLEY":"４弄","HOUSE_NO":"１０號","E_COORD97":172291.12,"N_COORD97":2544275.5299999998,"ADDRESS":"復興路２７７巷４弄１０號","OBJECTID":110980},"geometry":{"x":172291.11999999918,"y":2544275.5300000012}},{"attributes":{"ID":110981,"DIS_CODE":0,"TOWNNAME":"歸仁區","LI":"南保里","LIN":"8鄰","STREET":"文化六街","SECT":" ","MAREA":" ","LANE":" ","ALLEY":" ","HOUSE_NO":"２７號","E_COORD97":176807.64000000001,"N_COORD97":2541314.3300000001,"ADDRESS":"文化六街２７號","OBJECTID":110981},"geometry":{"x":176807.63999999966,"y":2541314.3300000019}},{"attributes":{"ID":110982,"DIS_CODE":0,"TOWNNAME":"永康區","LI":"復興里","LIN":"9鄰","STREET":"復興路","SECT":" ","MAREA":" ","LANE":"２７７巷","ALLEY":"４弄","HOUSE_NO":"１７號","E_COORD97":172314.70999999999,"N_COORD97":2544278.7799999998,"ADDRESS":"復興路２７７巷４弄１７號","OBJECTID":110982},"geometry":{"x":172314.71000000089,"y":2544278.7799999993}},{"attributes":{"ID":110983,"DIS_CODE":0,"TOWNNAME":"永康區","LI":"復興里","LIN":"9鄰","STREET":"復興路","SECT":" ","MAREA":" ","LANE":"２７７巷","ALLEY":"４弄","HOUSE_NO":"３號","E_COORD97":172306.67000000001,"N_COORD97":2544287.02,"ADDRESS":"復興路２７７巷４弄３號","OBJECTID":110983},"geometry":{"x":172306.67000000086,"y":2544287.0199999996}},{"attributes":{"ID":110984,"DIS_CODE":0,"TOWNNAME":"永康區","LI":"網寮里","LIN":"9鄰","STREET":"永二街","SECT":" ","MAREA":" ","LANE":"２４４巷","ALLEY":"６弄","HOUSE_NO":"２１號","E_COORD97":173319.59,"N_COORD97":2546365.4199999999,"ADDRESS":"永二街２４４巷６弄２１號","OBJECTID":110984},"geometry":{"x":173319.58999999985,"y":2546365.4200000018}},{"attributes":{"ID":110985,"DIS_CODE":0,"TOWNNAME":"永康區","LI":"復興里","LIN":"9鄰","STREET":"復興路","SECT":" ","MAREA":" ","LANE":"２７７巷","ALLEY":"４弄","HOUSE_NO":"７號","E_COORD97":172290.91,"N_COORD97":2544286.77,"ADDRESS":"復興路２７７巷４弄７號","OBJECTID":110985},"geometry":{"x":172290.90999999922,"y":2544286.7700000014}},{"attributes":{"ID":110986,"DIS_CODE":0,"TOWNNAME":"新化區","LI":"崙頂里","LIN":"1鄰","STREET":" ","SECT":" ","MAREA":"崙子頂","LANE":" ","ALLEY":" ","HOUSE_NO":"６４號之７","E_COORD97":176931.72,"N_COORD97":2546815.2599999998,"ADDRESS":"崙子頂６４號之７","OBJECTID":110986},"geometry":{"x":176931.7200000016,"y":2546815.2599999998}},{"attributes":{"ID":110987,"DIS_CODE":0,"TOWNNAME":"新化區","LI":"知義里","LIN":"1鄰","STREET":" ","SECT":" ","MAREA":"知母義","LANE":" ","ALLEY":" ","HOUSE_NO":"２７號之３","E_COORD97":179646.32000000001,"N_COORD97":2547047.2599999998,"ADDRESS":"知母義２７號之３","OBJECTID":110987},"geometry":{"x":179646.32000000123,"y":2547047.2600000016}},{"attributes":{"ID":110988,"DIS_CODE":0,"TOWNNAME":"永康區","LI":"復興里","LIN":"9鄰","STREET":"復興路","SECT":" ","MAREA":" ","LANE":"２７７巷","ALLEY":"４弄","HOUSE_NO":"１５號","E_COORD97":172306.39999999999,"N_COORD97":2544279.5299999998,"ADDRESS":"復興路２７７巷４弄１５號","OBJECTID":110988},"geometry":{"x":172306.40000000037,"y":2544279.5299999993}},{"attributes":{"ID":110989,"DIS_CODE":0,"TOWNNAME":"永康區","LI":"復興里","LIN":"9鄰","STREET":"復興路","SECT":" ","MAREA":" ","LANE":"２７７巷","ALLEY":"４弄","HOUSE_NO":"４號","E_COORD97":172297.53,"N_COORD97":2544287.77,"ADDRESS":"復興路２７７巷４弄４號","OBJECTID":110989},"geometry":{"x":172297.53000000119,"y":2544287.7700000014}},{"attributes":{"ID":110990,"DIS_CODE":0,"TOWNNAME":"永康區","LI":"網寮里","LIN":"9鄰","STREET":"永二街","SECT":" ","MAREA":" ","LANE":"２４４巷","ALLEY":"８弄","HOUSE_NO":"３２號","E_COORD97":173346.76999999999,"N_COORD97":2546370.8700000001,"ADDRESS":"永二街２４４巷８弄３２號","OBJECTID":110990},"geometry":{"x":173346.76999999955,"y":2546370.870000001}},{"attributes":{"ID":110991,"DIS_CODE":0,"TOWNNAME":"新化區","LI":"知義里","LIN":"1鄰","STREET":" ","SECT":" ","MAREA":"知母義","LANE":" ","ALLEY":" ","HOUSE_NO":"５號","E_COORD97":179608.51999999999,"N_COORD97":2547147.25,"ADDRESS":"知母義５號","OBJECTID":110991},"geometry":{"x":179608.52000000048,"y":2547147.25}},{"attributes":{"ID":110992,"DIS_CODE":0,"TOWNNAME":"新化區","LI":"\u25A0拔里","LIN":"1鄰","STREET":" ","SECT":" ","MAREA":"\u25A0拔林","LANE":" ","ALLEY":" ","HOUSE_NO":"１３號之１","E_COORD97":183113.5,"N_COORD97":2551881.2599999998,"ADDRESS":"\u25A0拔林１３號之１","OBJECTID":110992},"geometry":{"x":183113.5,"y":2551881.2600000035}},{"attributes":{"ID":110993,"DIS_CODE":0,"TOWNNAME":"永康區","LI":"復興里","LIN":"9鄰","STREET":"復興路","SECT":" ","MAREA":" ","LANE":"２７７巷","ALLEY":"４弄","HOUSE_NO":"１３號","E_COORD97":172297.14999999999,"N_COORD97":2544280.52,"ADDRESS":"復興路２７７巷４弄１３號","OBJECTID":110993},"geometry":{"x":172297.1500000013,"y":2544280.5199999996}},{"attributes":{"ID":110994,"DIS_CODE":0,"TOWNNAME":"永康區","LI":"復興里","LIN":"9鄰","STREET":"復興路","SECT":" ","MAREA":" ","LANE":"２７７巷","ALLEY":"６弄","HOUSE_NO":"５號","E_COORD97":172305.53,"N_COORD97":2544250.21,"ADDRESS":"復興路２７７巷６弄５號","OBJECTID":110994},"geometry":{"x":172305.53000000212,"y":2544250.2100000009}},{"attributes":{"ID":110995,"DIS_CODE":0,"TOWNNAME":"永康區","LI":"復興里","LIN":"9鄰","STREET":"復興路","SECT":" ","MAREA":" ","LANE":"２７７巷","ALLEY":"４弄","HOUSE_NO":"９號","E_COORD97":172290.09,"N_COORD97":2544279.7799999998,"ADDRESS":"復興路２７７巷４弄９號","OBJECTID":110995},"geometry":{"x":172290.09000000078,"y":2544279.7800000012}},{"attributes":{"ID":110996,"DIS_CODE":0,"TOWNNAME":"新化區","LI":"知義里","LIN":"1鄰","STREET":" ","SECT":" ","MAREA":"知母義","LANE":" ","ALLEY":" ","HOUSE_NO":"４０號之１","E_COORD97":179625.29999999999,"N_COORD97":2546966.2599999998,"ADDRESS":"知母義４０號之１","OBJECTID":110996},"geometry":{"x":179625.30000000075,"y":2546966.2600000016}},{"attributes":{"ID":110997,"DIS_CODE":0,"TOWNNAME":"新化區","LI":"\u25A0拔里","LIN":"1鄰","STREET":" ","SECT":" ","MAREA":"\u25A0拔林","LANE":" ","ALLEY":" ","HOUSE_NO":"３９號之１","E_COORD97":183089.5,"N_COORD97":2552005.2599999998,"ADDRESS":"\u25A0拔林３９號之１","OBJECTID":110997},"geometry":{"x":183089.5,"y":2552005.2599999998}},{"attributes":{"ID":110998,"DIS_CODE":0,"TOWNNAME":"永康區","LI":"復興里","LIN":"9鄰","STREET":"復興路","SECT":" ","MAREA":" ","LANE":"２７７巷","ALLEY":"４弄","HOUSE_NO":"１９號","E_COORD97":172323.10000000001,"N_COORD97":2544278.0299999998,"ADDRESS":"復興路２７７巷４弄１９號","OBJECTID":110998},"geometry":{"x":172323.10000000149,"y":2544278.0300000012}},{"attributes":{"ID":110999,"DIS_CODE":0,"TOWNNAME":"新化區","LI":"\u25A0拔里","LIN":"1鄰","STREET":" ","SECT":" ","MAREA":"\u25A0拔林","LANE":" ","ALLEY":" ","HOUSE_NO":"１３號之４","E_COORD97":183100.51000000001,"N_COORD97":2551879.2599999998,"ADDRESS":"\u25A0拔林１３號之４","OBJECTID":110999},"geometry":{"x":183100.51000000071,"y":2551879.2600000016}},{"attributes":{"ID":111000,"DIS_CODE":0,"TOWNNAME":"新化區","LI":"知義里","LIN":"1鄰","STREET":" ","SECT":" ","MAREA":"知母義","LANE":" ","ALLEY":" ","HOUSE_NO":"３７號","E_COORD97":179663.26999999999,"N_COORD97":2546981.25,"ADDRESS":"知母義３７號","OBJECTID":111000},"geometry":{"x":179663.26999999955,"y":2546981.25}}]}