{"displayFieldName":"TOWNNAME","fieldAliases":{"ID":"ID","DIS_CODE":"DIS_CODE","TOWNNAME":"TOWNNAME","LI":"LI","LIN":"LIN","STREET":"STREET","SECT":"SECT","MAREA":"MAREA","LANE":"LANE","ALLEY":"ALLEY","HOUSE_NO":"HOUSE_NO","E_COORD97":"E_COORD97","N_COORD97":"N_COORD97","ADDRESS":"ADDRESS","OBJECTID":"OBJECTID"},"geometryType":"esriGeometryPoint","spatialReference":{"wkid":102443,"latestWkid":3826},"fields":[{"name":"ID","type":"esriFieldTypeDouble","alias":"ID"},{"name":"DIS_CODE","type":"esriFieldTypeInteger","alias":"DIS_CODE"},{"name":"TOWNNAME","type":"esriFieldTypeString","alias":"TOWNNAME","length":8},{"name":"LI","type":"esriFieldTypeString","alias":"LI","length":8},{"name":"LIN","type":"esriFieldTypeString","alias":"LIN","length":12},{"name":"STREET","type":"esriFieldTypeString","alias":"STREET","length":20},{"name":"SECT","type":"esriFieldTypeString","alias":"SECT","length":8},{"name":"MAREA","type":"esriFieldTypeString","alias":"MAREA","length":12},{"name":"LANE","type":"esriFieldTypeString","alias":"LANE","length":10},{"name":"ALLEY","type":"esriFieldTypeString","alias":"ALLEY","length":10},{"name":"HOUSE_NO","type":"esriFieldTypeString","alias":"HOUSE_NO","length":20},{"name":"E_COORD97","type":"esriFieldTypeDouble","alias":"E_COORD97"},{"name":"N_COORD97","type":"esriFieldTypeDouble","alias":"N_COORD97"},{"name":"ADDRESS","type":"esriFieldTypeString","alias":"ADDRESS","length":50},{"name":"OBJECTID","type":"esriFieldTypeOID","alias":"OBJECTID"}],"features":[{"attributes":{"ID":319609,"DIS_CODE":0,"TOWNNAME":"新營區","LI":"太北里","LIN":" ","STREET":" ","SECT":" ","MAREA":"太子宮","LANE":" ","ALLEY":" ","HOUSE_NO":"４４之１號","E_COORD97":175742.53,"N_COORD97":2577208.0800000001,"ADDRESS":"太子宮４４之１號","OBJECTID":319601},"geometry":{"x":175742.53000000119,"y":2577208.0800000001}},{"attributes":{"ID":319610,"DIS_CODE":0,"TOWNNAME":"新營區","LI":"南興里","LIN":"17鄰","STREET":"興農街","SECT":" ","MAREA":" ","LANE":"１４０巷","ALLEY":" ","HOUSE_NO":"２５之１號","E_COORD97":179155.59,"N_COORD97":2577526.9300000002,"ADDRESS":"興農街１４０巷２５之１號","OBJECTID":319602},"geometry":{"x":179155.59000000078,"y":2577526.9299999997}},{"attributes":{"ID":319611,"DIS_CODE":0,"TOWNNAME":"新營區","LI":"姑爺里","LIN":"6鄰","STREET":" ","SECT":" ","MAREA":"姑爺","LANE":" ","ALLEY":" ","HOUSE_NO":"４７號之８","E_COORD97":174344.16,"N_COORD97":2574806.4300000002,"ADDRESS":"姑爺４７之８號","OBJECTID":319603},"geometry":{"x":174344.16000000108,"y":2574806.4300000016}},{"attributes":{"ID":319612,"DIS_CODE":0,"TOWNNAME":"新營區","LI":"太北里","LIN":"17鄰","STREET":" ","SECT":" ","MAREA":"太子宮","LANE":" ","ALLEY":" ","HOUSE_NO":"１４７之５號","E_COORD97":175572.14000000001,"N_COORD97":2577267.6299999999,"ADDRESS":"太子宮１４７之５號","OBJECTID":319604},"geometry":{"x":175572.13999999966,"y":2577267.629999999}},{"attributes":{"ID":319613,"DIS_CODE":0,"TOWNNAME":"新營區","LI":"民榮里","LIN":" ","STREET":"興農街","SECT":" ","MAREA":" ","LANE":"４７巷","ALLEY":" ","HOUSE_NO":"１２號","E_COORD97":179267.39000000001,"N_COORD97":2577696.8799999999,"ADDRESS":"興農街４７巷１２號","OBJECTID":319605},"geometry":{"x":179267.38999999966,"y":2577696.879999999}},{"attributes":{"ID":319614,"DIS_CODE":0,"TOWNNAME":"新營區","LI":"姑爺里","LIN":"4鄰","STREET":" ","SECT":" ","MAREA":"姑爺","LANE":" ","ALLEY":" ","HOUSE_NO":"３８之１號","E_COORD97":174293.95999999999,"N_COORD97":2574190.9300000002,"ADDRESS":"姑爺３８之１號","OBJECTID":319606},"geometry":{"x":174293.95999999996,"y":2574190.9299999997}},{"attributes":{"ID":319615,"DIS_CODE":0,"TOWNNAME":"鹽水區","LI":"武廟里","LIN":"13鄰","STREET":"民生街","SECT":" ","MAREA":" ","LANE":"１４巷","ALLEY":" ","HOUSE_NO":"１０號","E_COORD97":175026.85000000001,"N_COORD97":2580128.6800000002,"ADDRESS":"民生街１４巷１０號","OBJECTID":319607},"geometry":{"x":175026.85000000149,"y":2580128.6799999997}},{"attributes":{"ID":319616,"DIS_CODE":0,"TOWNNAME":"鹽水區","LI":"武廟里","LIN":"13鄰","STREET":"民生街","SECT":" ","MAREA":" ","LANE":"１４巷","ALLEY":" ","HOUSE_NO":"１１號","E_COORD97":175030.23000000001,"N_COORD97":2580118.27,"ADDRESS":"民生街１４巷１１號","OBJECTID":319608},"geometry":{"x":175030.23000000231,"y":2580118.2699999996}},{"attributes":{"ID":319617,"DIS_CODE":0,"TOWNNAME":"北區","LI":"實踐里","LIN":"17鄰","STREET":"大武街","SECT":" ","MAREA":" ","LANE":" ","ALLEY":" ","HOUSE_NO":"１６８號六樓之１","E_COORD97":169671.70000000001,"N_COORD97":2546119.5299999998,"ADDRESS":"大武街１６８號六樓之１","OBJECTID":319609},"geometry":{"x":169671.70000000205,"y":2546119.5300000012}},{"attributes":{"ID":319618,"DIS_CODE":0,"TOWNNAME":"新營區","LI":"太南里","LIN":"20鄰","STREET":" ","SECT":" ","MAREA":"太子宮","LANE":" ","ALLEY":" ","HOUSE_NO":"３２１號之８","E_COORD97":176286.64000000001,"N_COORD97":2576773.46,"ADDRESS":"太子宮３２１號之８","OBJECTID":319610},"geometry":{"x":176286.6400000006,"y":2576773.4600000028}},{"attributes":{"ID":319619,"DIS_CODE":0,"TOWNNAME":"北區","LI":"實踐里","LIN":"17鄰","STREET":"大武街","SECT":" ","MAREA":" ","LANE":" ","ALLEY":" ","HOUSE_NO":"１６８號六樓之３","E_COORD97":169671.70000000001,"N_COORD97":2546119.5299999998,"ADDRESS":"大武街１６８號六樓之３","OBJECTID":319611},"geometry":{"x":169671.70000000205,"y":2546119.5300000012}},{"attributes":{"ID":319620,"DIS_CODE":0,"TOWNNAME":"北區","LI":"實踐里","LIN":"17鄰","STREET":"大武街","SECT":" ","MAREA":" ","LANE":" ","ALLEY":" ","HOUSE_NO":"１６８號六樓之４","E_COORD97":169671.70000000001,"N_COORD97":2546119.5299999998,"ADDRESS":"大武街１６８號六樓之４","OBJECTID":319612},"geometry":{"x":169671.70000000205,"y":2546119.5300000012}},{"attributes":{"ID":319621,"DIS_CODE":0,"TOWNNAME":"北區","LI":"實踐里","LIN":"17鄰","STREET":"大武街","SECT":" ","MAREA":" ","LANE":" ","ALLEY":" ","HOUSE_NO":"１６８號六樓之５","E_COORD97":169671.70000000001,"N_COORD97":2546119.5299999998,"ADDRESS":"大武街１６８號六樓之５","OBJECTID":319613},"geometry":{"x":169671.70000000205,"y":2546119.5300000012}},{"attributes":{"ID":319622,"DIS_CODE":0,"TOWNNAME":"北區","LI":"實踐里","LIN":"17鄰","STREET":"大武街","SECT":" ","MAREA":" ","LANE":" ","ALLEY":" ","HOUSE_NO":"１６８號六樓之６","E_COORD97":169671.70000000001,"N_COORD97":2546119.5299999998,"ADDRESS":"大武街１６８號六樓之６","OBJECTID":319614},"geometry":{"x":169671.70000000205,"y":2546119.5300000012}},{"attributes":{"ID":319623,"DIS_CODE":0,"TOWNNAME":"北區","LI":"實踐里","LIN":"17鄰","STREET":"大武街","SECT":" ","MAREA":" ","LANE":" ","ALLEY":" ","HOUSE_NO":"１６８號四樓之１","E_COORD97":169671.70000000001,"N_COORD97":2546119.5299999998,"ADDRESS":"大武街１６８號四樓之１","OBJECTID":319615},"geometry":{"x":169671.70000000205,"y":2546119.5300000012}},{"attributes":{"ID":319624,"DIS_CODE":0,"TOWNNAME":"北區","LI":"實踐里","LIN":"17鄰","STREET":"大武街","SECT":" ","MAREA":" ","LANE":" ","ALLEY":" ","HOUSE_NO":"１６８號四樓之３","E_COORD97":169671.70000000001,"N_COORD97":2546119.5299999998,"ADDRESS":"大武街１６８號四樓之３","OBJECTID":319616},"geometry":{"x":169671.70000000205,"y":2546119.5300000012}},{"attributes":{"ID":319625,"DIS_CODE":0,"TOWNNAME":"歸仁區","LI":"南興里","LIN":"27鄰","STREET":"文化街","SECT":"三段","MAREA":" ","LANE":" ","ALLEY":" ","HOUSE_NO":"７１２號","E_COORD97":175416.85232899999,"N_COORD97":2541211.1001900001,"ADDRESS":"文化街三段７１２號","OBJECTID":319617},"geometry":{"x":175416.85232900083,"y":2541211.1001920011}},{"attributes":{"ID":319626,"DIS_CODE":0,"TOWNNAME":"新營區","LI":"土庫里","LIN":"1鄰","STREET":" ","SECT":" ","MAREA":"土庫","LANE":" ","ALLEY":" ","HOUSE_NO":"２號之５","E_COORD97":183102.57000000001,"N_COORD97":2579960.4500000002,"ADDRESS":"土庫２號之５","OBJECTID":319618},"geometry":{"x":183102.57000000123,"y":2579960.4499999993}},{"attributes":{"ID":319627,"DIS_CODE":0,"TOWNNAME":"鹽水區","LI":"武廟里","LIN":"13鄰","STREET":"民生街","SECT":" ","MAREA":" ","LANE":"１４巷","ALLEY":" ","HOUSE_NO":"１２號","E_COORD97":175038.54000000001,"N_COORD97":2580118.04,"ADDRESS":"民生街１４巷１２號","OBJECTID":319619},"geometry":{"x":175038.54000000097,"y":2580118.040000001}},{"attributes":{"ID":319628,"DIS_CODE":0,"TOWNNAME":"鹽水區","LI":"武廟里","LIN":"13鄰","STREET":"民生街","SECT":" ","MAREA":" ","LANE":"１４巷","ALLEY":" ","HOUSE_NO":"１３號","E_COORD97":175051.75,"N_COORD97":2580121.5699999998,"ADDRESS":"民生街１４巷１３號","OBJECTID":319620},"geometry":{"x":175051.75000000186,"y":2580121.570000004}},{"attributes":{"ID":319629,"DIS_CODE":0,"TOWNNAME":"新營區","LI":"太北里","LIN":"5鄰","STREET":" ","SECT":" ","MAREA":"太子宮","LANE":" ","ALLEY":" ","HOUSE_NO":"４２號之１０","E_COORD97":175741.87,"N_COORD97":2577234.6699999999,"ADDRESS":"太子宮４２號之１０","OBJECTID":319621},"geometry":{"x":175741.87000000011,"y":2577234.6699999999}},{"attributes":{"ID":319630,"DIS_CODE":0,"TOWNNAME":"新營區","LI":"太南里","LIN":"4鄰","STREET":" ","SECT":" ","MAREA":"太子宮","LANE":" ","ALLEY":" ","HOUSE_NO":"３３０號","E_COORD97":176306.32000000001,"N_COORD97":2577074.5299999998,"ADDRESS":"太子宮３３０號","OBJECTID":319622},"geometry":{"x":176306.32000000123,"y":2577074.5299999993}},{"attributes":{"ID":319631,"DIS_CODE":0,"TOWNNAME":"新營區","LI":"五興里","LIN":"10鄰","STREET":" ","SECT":" ","MAREA":"五間厝","LANE":" ","ALLEY":" ","HOUSE_NO":"１１３號之６","E_COORD97":175697.42999999999,"N_COORD97":2574712.1000000001,"ADDRESS":"五間厝１１３之６號","OBJECTID":319623},"geometry":{"x":175697.4299999997,"y":2574712.0999999996}},{"attributes":{"ID":319632,"DIS_CODE":0,"TOWNNAME":"鹽水區","LI":"武廟里","LIN":"13鄰","STREET":"民生街","SECT":" ","MAREA":" ","LANE":"１４巷","ALLEY":" ","HOUSE_NO":"１４號","E_COORD97":175060.28,"N_COORD97":2580116.4300000002,"ADDRESS":"民生街１４巷１４號","OBJECTID":319624},"geometry":{"x":175060.28000000212,"y":2580116.4300000016}},{"attributes":{"ID":319633,"DIS_CODE":0,"TOWNNAME":"新營區","LI":"五興里","LIN":"5鄰","STREET":" ","SECT":" ","MAREA":"五間厝","LANE":" ","ALLEY":" ","HOUSE_NO":"６１號","E_COORD97":175751.42000000001,"N_COORD97":2574798.1499999999,"ADDRESS":"五間厝６１號","OBJECTID":319625},"geometry":{"x":175751.42000000086,"y":2574798.1500000041}},{"attributes":{"ID":319634,"DIS_CODE":0,"TOWNNAME":"永康區","LI":"西灣里","LIN":"15鄰","STREET":"南灣街","SECT":" ","MAREA":" ","LANE":"１３８巷","ALLEY":" ","HOUSE_NO":"５７號","E_COORD97":174392.76000000001,"N_COORD97":2545187.4100000001,"ADDRESS":"南灣街１３８巷５７號","OBJECTID":319626},"geometry":{"x":174392.76000000071,"y":2545187.4100000001}},{"attributes":{"ID":319635,"DIS_CODE":0,"TOWNNAME":"永康區","LI":"西灣里","LIN":"15鄰","STREET":"南灣街","SECT":" ","MAREA":" ","LANE":"１３８巷","ALLEY":" ","HOUSE_NO":"５３號","E_COORD97":174388.54999999999,"N_COORD97":2545178.5699999998,"ADDRESS":"南灣街１３８巷５３號","OBJECTID":319627},"geometry":{"x":174388.55000000075,"y":2545178.5700000003}},{"attributes":{"ID":319636,"DIS_CODE":0,"TOWNNAME":"永康區","LI":"西灣里","LIN":"15鄰","STREET":"南灣街","SECT":" ","MAREA":" ","LANE":"１３８巷","ALLEY":" ","HOUSE_NO":"５１號","E_COORD97":174384.17000000001,"N_COORD97":2545170.5099999998,"ADDRESS":"南灣街１３８巷５１號","OBJECTID":319628},"geometry":{"x":174384.16999999899,"y":2545170.5100000016}},{"attributes":{"ID":319637,"DIS_CODE":0,"TOWNNAME":"永康區","LI":"尚頂里","LIN":"15鄰","STREET":"中正南路","SECT":" ","MAREA":" ","LANE":"２４２巷","ALLEY":" ","HOUSE_NO":"１７號","E_COORD97":170506.91,"N_COORD97":2547479,"ADDRESS":"中正南路２４２巷１７號","OBJECTID":319629},"geometry":{"x":170506.91000000015,"y":2547479.0000000037}},{"attributes":{"ID":319638,"DIS_CODE":0,"TOWNNAME":"新營區","LI":"姑爺里","LIN":"6鄰","STREET":" ","SECT":" ","MAREA":"姑爺","LANE":" ","ALLEY":" ","HOUSE_NO":"４７號之３","E_COORD97":174334.04999999999,"N_COORD97":2574829.73,"ADDRESS":"姑爺４７之３號","OBJECTID":319630},"geometry":{"x":174334.05000000168,"y":2574829.7300000023}},{"attributes":{"ID":319639,"DIS_CODE":0,"TOWNNAME":"永康區","LI":"尚頂里","LIN":"15鄰","STREET":"中正南路","SECT":" ","MAREA":" ","LANE":"２４２巷","ALLEY":" ","HOUSE_NO":"１１號之２","E_COORD97":170433.10999999999,"N_COORD97":2547520.6699999999,"ADDRESS":"中正南路２４２巷１１號之２","OBJECTID":319631},"geometry":{"x":170433.11000000034,"y":2547520.6699999999}},{"attributes":{"ID":319640,"DIS_CODE":0,"TOWNNAME":"永康區","LI":"尚頂里","LIN":"15鄰","STREET":"中正南路","SECT":" ","MAREA":" ","LANE":"２４２巷","ALLEY":" ","HOUSE_NO":"１０號","E_COORD97":170442.14999999999,"N_COORD97":2547468.77,"ADDRESS":"中正南路２４２巷１０號","OBJECTID":319632},"geometry":{"x":170442.1500000013,"y":2547468.7699999996}},{"attributes":{"ID":319641,"DIS_CODE":0,"TOWNNAME":"新營區","LI":"埤寮里","LIN":"5鄰","STREET":" ","SECT":" ","MAREA":"埤寮","LANE":" ","ALLEY":" ","HOUSE_NO":"４號之３","E_COORD97":180144.48999999999,"N_COORD97":2580983.0099999998,"ADDRESS":"埤寮４號之３","OBJECTID":319633},"geometry":{"x":180144.49000000115,"y":2580983.0100000016}},{"attributes":{"ID":319642,"DIS_CODE":0,"TOWNNAME":"永康區","LI":"尚頂里","LIN":"15鄰","STREET":"中正南路","SECT":" ","MAREA":" ","LANE":"２４２巷","ALLEY":" ","HOUSE_NO":"１１號","E_COORD97":170467.45000000001,"N_COORD97":2547490.1200000001,"ADDRESS":"中正南路２４２巷１１號","OBJECTID":319634},"geometry":{"x":170467.45000000112,"y":2547490.1200000029}},{"attributes":{"ID":319643,"DIS_CODE":0,"TOWNNAME":"東區","LI":"大同里","LIN":"1鄰","STREET":"東門路","SECT":"一段","MAREA":" ","LANE":" ","ALLEY":" ","HOUSE_NO":"３０號","E_COORD97":169257.32999999999,"N_COORD97":2543208.8100000001,"ADDRESS":"東門路一段３０號","OBJECTID":319635},"geometry":{"x":169257.33000000101,"y":2543208.8099999987}},{"attributes":{"ID":319644,"DIS_CODE":0,"TOWNNAME":"新營區","LI":"太北里","LIN":"17鄰","STREET":" ","SECT":" ","MAREA":"太子宮","LANE":" ","ALLEY":" ","HOUSE_NO":"１４７號之３","E_COORD97":175378.84125100001,"N_COORD97":2577182.7930299998,"ADDRESS":"太子宮１４７號之３","OBJECTID":319636},"geometry":{"x":175378.84125099983,"y":2577182.793029001}},{"attributes":{"ID":319645,"DIS_CODE":0,"TOWNNAME":"中西區","LI":"西湖里","LIN":"30鄰","STREET":"西湖街","SECT":" ","MAREA":" ","LANE":" ","ALLEY":" ","HOUSE_NO":"２９０號","E_COORD97":165970.95765900001,"N_COORD97":2544944.2932899999,"ADDRESS":"西湖街２９０號","OBJECTID":319637},"geometry":{"x":165970.95765900053,"y":2544944.2932910025}},{"attributes":{"ID":319646,"DIS_CODE":0,"TOWNNAME":"新營區","LI":"土庫里","LIN":"15鄰","STREET":" ","SECT":" ","MAREA":"土庫","LANE":" ","ALLEY":" ","HOUSE_NO":"１３２號","E_COORD97":183316,"N_COORD97":2579675.9399999999,"ADDRESS":"土庫１３２號","OBJECTID":319638},"geometry":{"x":183316.00000000093,"y":2579675.9399999995}},{"attributes":{"ID":319647,"DIS_CODE":0,"TOWNNAME":"歸仁區","LI":"七甲里","LIN":"10鄰","STREET":"七甲一街","SECT":" ","MAREA":" ","LANE":"３６巷","ALLEY":" ","HOUSE_NO":"６６號","E_COORD97":177790.64955,"N_COORD97":2542352.84565,"ADDRESS":"七甲一街３６巷６６號","OBJECTID":319639},"geometry":{"x":177790.64955000114,"y":2542352.8456480019}},{"attributes":{"ID":319648,"DIS_CODE":0,"TOWNNAME":"新營區","LI":"太南里","LIN":" ","STREET":" ","SECT":" ","MAREA":"太子宮","LANE":" ","ALLEY":" ","HOUSE_NO":"３０５之１４號","E_COORD97":175955.14999999999,"N_COORD97":2576675.4500000002,"ADDRESS":"太子宮３０５之１４號","OBJECTID":319640},"geometry":{"x":175955.1500000013,"y":2576675.4499999993}},{"attributes":{"ID":319649,"DIS_CODE":0,"TOWNNAME":"新營區","LI":"南興里","LIN":"4鄰","STREET":"和平路","SECT":" ","MAREA":" ","LANE":"９５巷","ALLEY":" ","HOUSE_NO":"４１號","E_COORD97":179539.14000000001,"N_COORD97":2577609.2000000002,"ADDRESS":"和平路９５巷４１號","OBJECTID":319641},"geometry":{"x":179539.13999999873,"y":2577609.1999999993}},{"attributes":{"ID":319650,"DIS_CODE":0,"TOWNNAME":"新營區","LI":"南興里","LIN":"4鄰","STREET":"和平路","SECT":" ","MAREA":" ","LANE":"９５巷","ALLEY":" ","HOUSE_NO":"３４號","E_COORD97":179519.64000000001,"N_COORD97":2577592.6899999999,"ADDRESS":"和平路９５巷３４號","OBJECTID":319642},"geometry":{"x":179519.6400000006,"y":2577592.6899999995}},{"attributes":{"ID":319651,"DIS_CODE":0,"TOWNNAME":"新營區","LI":"五興里","LIN":"10鄰","STREET":" ","SECT":" ","MAREA":"五間厝","LANE":" ","ALLEY":" ","HOUSE_NO":"１１３號之５","E_COORD97":175700.48999999999,"N_COORD97":2574709.8700000001,"ADDRESS":"五間厝１１３之５號","OBJECTID":319643},"geometry":{"x":175700.49000000022,"y":2574709.8700000029}},{"attributes":{"ID":319652,"DIS_CODE":0,"TOWNNAME":"永康區","LI":"西灣里","LIN":"15鄰","STREET":"南灣街","SECT":" ","MAREA":" ","LANE":"１３８巷","ALLEY":" ","HOUSE_NO":"３８號","E_COORD97":174372.35999999999,"N_COORD97":2545123.54,"ADDRESS":"南灣街１３８巷３８號","OBJECTID":319644},"geometry":{"x":174372.36000000127,"y":2545123.5399999991}},{"attributes":{"ID":319653,"DIS_CODE":0,"TOWNNAME":"永康區","LI":"尚頂里","LIN":"15鄰","STREET":"中正南路","SECT":" ","MAREA":" ","LANE":"２４２巷","ALLEY":" ","HOUSE_NO":"３０號","E_COORD97":170596.12,"N_COORD97":2547458.54,"ADDRESS":"中正南路２４２巷３０號","OBJECTID":319645},"geometry":{"x":170596.12000000197,"y":2547458.540000001}},{"attributes":{"ID":319654,"DIS_CODE":0,"TOWNNAME":"永康區","LI":"尚頂里","LIN":"15鄰","STREET":"中正南路","SECT":" ","MAREA":" ","LANE":"２４２巷","ALLEY":" ","HOUSE_NO":"７號","E_COORD97":170374.62,"N_COORD97":2547508.2200000002,"ADDRESS":"中正南路２４２巷７號","OBJECTID":319646},"geometry":{"x":170374.62000000104,"y":2547508.2200000007}},{"attributes":{"ID":319655,"DIS_CODE":0,"TOWNNAME":"新營區","LI":"太南里","LIN":"13鄰","STREET":" ","SECT":" ","MAREA":"太子宮","LANE":" ","ALLEY":" ","HOUSE_NO":"２８１號","E_COORD97":176134.42000000001,"N_COORD97":2576658.98,"ADDRESS":"太子宮２８１號","OBJECTID":319647},"geometry":{"x":176134.42000000086,"y":2576658.9800000004}},{"attributes":{"ID":319656,"DIS_CODE":0,"TOWNNAME":"永康區","LI":"西灣里","LIN":"15鄰","STREET":"南灣街","SECT":" ","MAREA":" ","LANE":"１３８巷","ALLEY":" ","HOUSE_NO":"５４號","E_COORD97":174392.79999999999,"N_COORD97":2545157.46,"ADDRESS":"南灣街１３８巷５４號","OBJECTID":319648},"geometry":{"x":174392.79999999981,"y":2545157.4600000009}},{"attributes":{"ID":319657,"DIS_CODE":0,"TOWNNAME":"新營區","LI":"太南里","LIN":"18鄰","STREET":" ","SECT":" ","MAREA":"太子宮","LANE":" ","ALLEY":" ","HOUSE_NO":"３０９之１５號","E_COORD97":175975.26999999999,"N_COORD97":2576606.6800000002,"ADDRESS":"太子宮３０９之１５號","OBJECTID":319649},"geometry":{"x":175975.27000000048,"y":2576606.6799999997}},{"attributes":{"ID":319658,"DIS_CODE":0,"TOWNNAME":"永康區","LI":"西灣里","LIN":"15鄰","STREET":"南灣街","SECT":" ","MAREA":" ","LANE":"１３８巷","ALLEY":" ","HOUSE_NO":"６０號","E_COORD97":174406.64000000001,"N_COORD97":2545176.2599999998,"ADDRESS":"南灣街１３８巷６０號","OBJECTID":319650},"geometry":{"x":174406.6400000006,"y":2545176.2600000016}},{"attributes":{"ID":319659,"DIS_CODE":0,"TOWNNAME":"永康區","LI":"西灣里","LIN":"15鄰","STREET":"南灣街","SECT":" ","MAREA":" ","LANE":"１３８巷","ALLEY":" ","HOUSE_NO":"５６號","E_COORD97":174396.04999999999,"N_COORD97":2545161.4700000002,"ADDRESS":"南灣街１３８巷５６號","OBJECTID":319651},"geometry":{"x":174396.04999999981,"y":2545161.4700000025}},{"attributes":{"ID":319660,"DIS_CODE":0,"TOWNNAME":"永康區","LI":"正強里","LIN":"15鄰","STREET":"中山南路","SECT":" ","MAREA":" ","LANE":"４７１巷","ALLEY":" ","HOUSE_NO":"８９號","E_COORD97":173324.42999999999,"N_COORD97":2547209.9900000002,"ADDRESS":"中山南路４７１巷８９號","OBJECTID":319652},"geometry":{"x":173324.43000000156,"y":2547209.9900000002}},{"attributes":{"ID":319661,"DIS_CODE":0,"TOWNNAME":"北區","LI":"實踐里","LIN":"17鄰","STREET":"大武街","SECT":" ","MAREA":" ","LANE":" ","ALLEY":" ","HOUSE_NO":"１６８號四樓之４","E_COORD97":169671.70000000001,"N_COORD97":2546119.5299999998,"ADDRESS":"大武街１６８號四樓之４","OBJECTID":319653},"geometry":{"x":169671.70000000205,"y":2546119.5300000012}},{"attributes":{"ID":319662,"DIS_CODE":0,"TOWNNAME":"北區","LI":"實踐里","LIN":"17鄰","STREET":"大武街","SECT":" ","MAREA":" ","LANE":" ","ALLEY":" ","HOUSE_NO":"１６８號四樓之５","E_COORD97":169671.70000000001,"N_COORD97":2546119.5299999998,"ADDRESS":"大武街１６８號四樓之５","OBJECTID":319654},"geometry":{"x":169671.70000000205,"y":2546119.5300000012}},{"attributes":{"ID":319663,"DIS_CODE":0,"TOWNNAME":"新營區","LI":"中營里","LIN":" ","STREET":"中山路","SECT":" ","MAREA":" ","LANE":" ","ALLEY":" ","HOUSE_NO":"１號","E_COORD97":180768.10999999999,"N_COORD97":2578426.2400000002,"ADDRESS":"中山路１號","OBJECTID":319655},"geometry":{"x":180768.11000000127,"y":2578426.2400000021}},{"attributes":{"ID":319664,"DIS_CODE":0,"TOWNNAME":"新營區","LI":"太南里","LIN":" ","STREET":" ","SECT":" ","MAREA":"太子宮","LANE":" ","ALLEY":" ","HOUSE_NO":"３０５之４號","E_COORD97":175998,"N_COORD97":2576697.3799999999,"ADDRESS":"太子宮３０５之４號","OBJECTID":319656},"geometry":{"x":175998.00000000093,"y":2576697.3800000008}},{"attributes":{"ID":319665,"DIS_CODE":0,"TOWNNAME":"新營區","LI":"太南里","LIN":"18鄰","STREET":" ","SECT":" ","MAREA":"太子宮","LANE":" ","ALLEY":" ","HOUSE_NO":"３０８之９號","E_COORD97":176044.04999999999,"N_COORD97":2576699.3599999999,"ADDRESS":"太子宮３０８之９號","OBJECTID":319657},"geometry":{"x":176044.04999999981,"y":2576699.3599999994}},{"attributes":{"ID":319666,"DIS_CODE":0,"TOWNNAME":"中西區","LI":"西湖里","LIN":"30鄰","STREET":"西湖街","SECT":" ","MAREA":" ","LANE":" ","ALLEY":" ","HOUSE_NO":"３００號","E_COORD97":165997.86657300001,"N_COORD97":2544942.5999599998,"ADDRESS":"西湖街３００號","OBJECTID":319658},"geometry":{"x":165997.86657300033,"y":2544942.5999580007}},{"attributes":{"ID":319667,"DIS_CODE":0,"TOWNNAME":"中西區","LI":"西湖里","LIN":"30鄰","STREET":"西湖街","SECT":" ","MAREA":" ","LANE":" ","ALLEY":" ","HOUSE_NO":"３０６號","E_COORD97":165994.052711,"N_COORD97":2544963.5549499998,"ADDRESS":"西湖街３０６號","OBJECTID":319659},"geometry":{"x":165994.05271099973,"y":2544963.554947}},{"attributes":{"ID":319668,"DIS_CODE":0,"TOWNNAME":"新營區","LI":"太南里","LIN":" ","STREET":" ","SECT":" ","MAREA":"太子宮","LANE":" ","ALLEY":" ","HOUSE_NO":"３０５之８號","E_COORD97":175986.69,"N_COORD97":2576685.25,"ADDRESS":"太子宮３０５之８號","OBJECTID":319660},"geometry":{"x":175986.69000000227,"y":2576685.2499999981}},{"attributes":{"ID":319669,"DIS_CODE":0,"TOWNNAME":"仁德區","LI":"一甲里","LIN":"11鄰","STREET":"忠義一街","SECT":" ","MAREA":" ","LANE":" ","ALLEY":" ","HOUSE_NO":"６７號","E_COORD97":173869.31071300001,"N_COORD97":2541916.3381500002,"ADDRESS":"忠義一街６７號","OBJECTID":319661},"geometry":{"x":173869.3107130006,"y":2541916.3381470013}},{"attributes":{"ID":319670,"DIS_CODE":0,"TOWNNAME":"新營區","LI":"民榮里","LIN":"36鄰","STREET":"新進路","SECT":"二段","MAREA":" ","LANE":"４４５巷","ALLEY":" ","HOUSE_NO":"３４號","E_COORD97":178526.29000000001,"N_COORD97":2577999.4500000002,"ADDRESS":"新進路二段４４５巷３４號","OBJECTID":319662},"geometry":{"x":178526.29000000004,"y":2577999.4500000011}},{"attributes":{"ID":319671,"DIS_CODE":0,"TOWNNAME":"新營區","LI":"民生里","LIN":"25鄰","STREET":"民生路","SECT":" ","MAREA":" ","LANE":"１６３巷","ALLEY":" ","HOUSE_NO":"１８號","E_COORD97":179077.51999999999,"N_COORD97":2578634.7000000002,"ADDRESS":"民生路１６３巷１８號","OBJECTID":319663},"geometry":{"x":179077.52000000048,"y":2578634.700000003}},{"attributes":{"ID":319672,"DIS_CODE":0,"TOWNNAME":"永康區","LI":"正強里","LIN":"15鄰","STREET":"中山南路","SECT":" ","MAREA":" ","LANE":"４７１巷","ALLEY":" ","HOUSE_NO":"７９之５號","E_COORD97":173297.56,"N_COORD97":2547199.04,"ADDRESS":"中山南路４７１巷７９之５號","OBJECTID":319664},"geometry":{"x":173297.55999999959,"y":2547199.0399999991}},{"attributes":{"ID":319673,"DIS_CODE":0,"TOWNNAME":"新營區","LI":"姑爺里","LIN":"7鄰","STREET":" ","SECT":" ","MAREA":"挖仔","LANE":" ","ALLEY":" ","HOUSE_NO":"３號之１０","E_COORD97":173842.13,"N_COORD97":2575663.9500000002,"ADDRESS":"挖仔３之１０號","OBJECTID":319665},"geometry":{"x":173842.13000000175,"y":2575663.9500000011}},{"attributes":{"ID":319674,"DIS_CODE":0,"TOWNNAME":"永康區","LI":"正強里","LIN":"15鄰","STREET":"中山南路","SECT":" ","MAREA":" ","LANE":"４７１巷","ALLEY":" ","HOUSE_NO":"７９之１號","E_COORD97":173282.79000000001,"N_COORD97":2547197.04,"ADDRESS":"中山南路４７１巷７９之１號","OBJECTID":319666},"geometry":{"x":173282.79000000004,"y":2547197.040000001}},{"attributes":{"ID":319675,"DIS_CODE":0,"TOWNNAME":"永康區","LI":"正強里","LIN":"15鄰","STREET":"中山南路","SECT":" ","MAREA":" ","LANE":"４７１巷","ALLEY":" ","HOUSE_NO":"９７號","E_COORD97":173344.14000000001,"N_COORD97":2547213.9900000002,"ADDRESS":"中山南路４７１巷９７號","OBJECTID":319667},"geometry":{"x":173344.1400000006,"y":2547213.9900000002}},{"attributes":{"ID":319676,"DIS_CODE":0,"TOWNNAME":"東區","LI":"成大里","LIN":"15鄰","STREET":"育樂街","SECT":" ","MAREA":" ","LANE":"１５８巷","ALLEY":" ","HOUSE_NO":"８號","E_COORD97":169448.89000000001,"N_COORD97":2543991.1600000001,"ADDRESS":"育樂街１５８巷８號","OBJECTID":319668},"geometry":{"x":169448.88999999966,"y":2543991.1600000001}},{"attributes":{"ID":319677,"DIS_CODE":0,"TOWNNAME":"安南區","LI":"安和里","LIN":"15鄰","STREET":"安和路","SECT":"一段","MAREA":" ","LANE":"９６巷","ALLEY":" ","HOUSE_NO":"４６號","E_COORD97":169633.01999999999,"N_COORD97":2547692.9700000002,"ADDRESS":"安和路一段９６巷４６號","OBJECTID":319669},"geometry":{"x":169633.01999999955,"y":2547692.9700000007}},{"attributes":{"ID":319678,"DIS_CODE":0,"TOWNNAME":"安南區","LI":"長安里","LIN":"15鄰","STREET":"公學路","SECT":"二段","MAREA":" ","LANE":"１２３巷","ALLEY":" ","HOUSE_NO":"１４９號","E_COORD97":167965.79000000001,"N_COORD97":2552465.7999999998,"ADDRESS":"公學路二段１２３巷１４９號","OBJECTID":319670},"geometry":{"x":167965.79000000097,"y":2552465.8000000026}},{"attributes":{"ID":319679,"DIS_CODE":0,"TOWNNAME":"東區","LI":"成大里","LIN":"15鄰","STREET":"育樂街","SECT":" ","MAREA":" ","LANE":"１５８巷","ALLEY":" ","HOUSE_NO":"１０號","E_COORD97":169441.82999999999,"N_COORD97":2543991.9399999999,"ADDRESS":"育樂街１５８巷１０號","OBJECTID":319671},"geometry":{"x":169441.83000000194,"y":2543991.9399999995}},{"attributes":{"ID":319680,"DIS_CODE":0,"TOWNNAME":"新營區","LI":"埤寮里","LIN":"5鄰","STREET":" ","SECT":" ","MAREA":"埤寮","LANE":" ","ALLEY":" ","HOUSE_NO":"４號之４","E_COORD97":180130.10999999999,"N_COORD97":2580970.8999999999,"ADDRESS":"埤寮４號之４","OBJECTID":319672},"geometry":{"x":180130.1100000022,"y":2580970.9000000022}},{"attributes":{"ID":319681,"DIS_CODE":0,"TOWNNAME":"新營區","LI":"太北里","LIN":"16鄰","STREET":" ","SECT":" ","MAREA":"太子宮","LANE":" ","ALLEY":" ","HOUSE_NO":"１４６號　之２２","E_COORD97":175742.26999999999,"N_COORD97":2577082.9500000002,"ADDRESS":"太子宮１４６之２２號","OBJECTID":319673},"geometry":{"x":175742.26999999955,"y":2577082.9499999993}},{"attributes":{"ID":319682,"DIS_CODE":0,"TOWNNAME":"北區","LI":"實踐里","LIN":"17鄰","STREET":"大武街","SECT":" ","MAREA":" ","LANE":" ","ALLEY":" ","HOUSE_NO":"１６８號四樓之６","E_COORD97":169671.70000000001,"N_COORD97":2546119.5299999998,"ADDRESS":"大武街１６８號四樓之６","OBJECTID":319674},"geometry":{"x":169671.70000000205,"y":2546119.5300000012}},{"attributes":{"ID":319683,"DIS_CODE":0,"TOWNNAME":"新營區","LI":"太南里","LIN":"18鄰","STREET":" ","SECT":" ","MAREA":"太子宮","LANE":" ","ALLEY":" ","HOUSE_NO":"３０８號","E_COORD97":176022.94,"N_COORD97":2576660.6499999999,"ADDRESS":"太子宮３０８號","OBJECTID":319675},"geometry":{"x":176022.94000000134,"y":2576660.6500000022}},{"attributes":{"ID":319684,"DIS_CODE":0,"TOWNNAME":"新營區","LI":"太南里","LIN":" ","STREET":" ","SECT":" ","MAREA":"太子宮","LANE":" ","ALLEY":" ","HOUSE_NO":"３１８之８號","E_COORD97":175865.91,"N_COORD97":2575444.3900000001,"ADDRESS":"太子宮３１８之８號","OBJECTID":319676},"geometry":{"x":175865.91000000015,"y":2575444.3900000043}},{"attributes":{"ID":319685,"DIS_CODE":0,"TOWNNAME":"北區","LI":"實踐里","LIN":"17鄰","STREET":"大武街","SECT":" ","MAREA":" ","LANE":" ","ALLEY":" ","HOUSE_NO":"１６８號六樓之２","E_COORD97":169671.70000000001,"N_COORD97":2546119.5299999998,"ADDRESS":"大武街１６８號六樓之２","OBJECTID":319677},"geometry":{"x":169671.70000000205,"y":2546119.5300000012}},{"attributes":{"ID":319686,"DIS_CODE":0,"TOWNNAME":"新營區","LI":"忠政里","LIN":"17鄰","STREET":"府西路","SECT":" ","MAREA":" ","LANE":" ","ALLEY":" ","HOUSE_NO":"２５６號七樓之１","E_COORD97":179806.54999999999,"N_COORD97":2579697.77,"ADDRESS":"府西路２５６號七樓之１","OBJECTID":319678},"geometry":{"x":179806.55000000075,"y":2579697.7699999996}},{"attributes":{"ID":319687,"DIS_CODE":0,"TOWNNAME":"新營區","LI":"五興里","LIN":"4鄰","STREET":" ","SECT":" ","MAREA":"五間厝","LANE":" ","ALLEY":" ","HOUSE_NO":"４２號","E_COORD97":175712.79000000001,"N_COORD97":2574833.77,"ADDRESS":"五間厝４２號","OBJECTID":319679},"geometry":{"x":175712.79000000097,"y":2574833.7700000033}},{"attributes":{"ID":319688,"DIS_CODE":0,"TOWNNAME":"中西區","LI":"西湖里","LIN":"30鄰","STREET":"西湖街","SECT":" ","MAREA":" ","LANE":" ","ALLEY":" ","HOUSE_NO":"３１２號","E_COORD97":165972.44082700001,"N_COORD97":2544981.7582700001,"ADDRESS":"西湖街３１２號","OBJECTID":319680},"geometry":{"x":165972.44082700089,"y":2544981.758270001}},{"attributes":{"ID":319689,"DIS_CODE":0,"TOWNNAME":"新營區","LI":"太北里","LIN":"16鄰","STREET":" ","SECT":" ","MAREA":"太子宮","LANE":" ","ALLEY":" ","HOUSE_NO":"１４６號之６","E_COORD97":175761.34,"N_COORD97":2577052.9399999999,"ADDRESS":"太子宮１４６之６號","OBJECTID":319681},"geometry":{"x":175761.34000000171,"y":2577052.9399999976}},{"attributes":{"ID":319690,"DIS_CODE":0,"TOWNNAME":"新營區","LI":"太南里","LIN":" ","STREET":" ","SECT":" ","MAREA":"太子宮","LANE":" ","ALLEY":" ","HOUSE_NO":"３０５之１１號","E_COORD97":175977.66,"N_COORD97":2576675.3399999999,"ADDRESS":"太子宮３０５之１１號","OBJECTID":319682},"geometry":{"x":175977.66000000015,"y":2576675.3400000017}},{"attributes":{"ID":319691,"DIS_CODE":0,"TOWNNAME":"新營區","LI":"土庫里","LIN":"15鄰","STREET":" ","SECT":" ","MAREA":"土庫","LANE":" ","ALLEY":" ","HOUSE_NO":"１３０號之１","E_COORD97":183299.07999999999,"N_COORD97":2579679.3999999999,"ADDRESS":"土庫１３０號之１","OBJECTID":319683},"geometry":{"x":183299.08000000101,"y":2579679.4000000022}},{"attributes":{"ID":319692,"DIS_CODE":0,"TOWNNAME":"新營區","LI":"太北里","LIN":"20鄰","STREET":" ","SECT":" ","MAREA":"太子宮","LANE":" ","ALLEY":" ","HOUSE_NO":"１４２號之１","E_COORD97":175833.88,"N_COORD97":2576904.1800000002,"ADDRESS":"太子宮１４２號之１","OBJECTID":319684},"geometry":{"x":175833.88000000175,"y":2576904.1800000016}},{"attributes":{"ID":319693,"DIS_CODE":0,"TOWNNAME":"新營區","LI":"王公里","LIN":"25鄰","STREET":"中正路","SECT":" ","MAREA":" ","LANE":" ","ALLEY":" ","HOUSE_NO":"１３６號之４","E_COORD97":180096.45999999999,"N_COORD97":2579613.3300000001,"ADDRESS":"中正路１３６號之４","OBJECTID":319685},"geometry":{"x":180096.45999999996,"y":2579613.3300000001}},{"attributes":{"ID":319694,"DIS_CODE":0,"TOWNNAME":"新營區","LI":"民生里","LIN":"26鄰","STREET":"民生路","SECT":" ","MAREA":" ","LANE":"１６３巷","ALLEY":" ","HOUSE_NO":"３７號","E_COORD97":179111.35000000001,"N_COORD97":2578632.3199999998,"ADDRESS":"民生路１６３巷３７號","OBJECTID":319686},"geometry":{"x":179111.35000000056,"y":2578632.3200000022}},{"attributes":{"ID":319695,"DIS_CODE":0,"TOWNNAME":"新營區","LI":"太北里","LIN":"20鄰","STREET":" ","SECT":" ","MAREA":"太子宮","LANE":" ","ALLEY":" ","HOUSE_NO":"１４２號","E_COORD97":175833.76999999999,"N_COORD97":2576900.7999999998,"ADDRESS":"太子宮１４２號","OBJECTID":319687},"geometry":{"x":175833.76999999955,"y":2576900.8000000026}},{"attributes":{"ID":319696,"DIS_CODE":0,"TOWNNAME":"新營區","LI":"忠政里","LIN":" ","STREET":"中正路","SECT":" ","MAREA":" ","LANE":"３７巷","ALLEY":" ","HOUSE_NO":"２０４號","E_COORD97":179836.23999999999,"N_COORD97":2579169.3100000001,"ADDRESS":"中正路３７巷２０４號","OBJECTID":319688},"geometry":{"x":179836.24000000115,"y":2579169.3100000005}},{"attributes":{"ID":319697,"DIS_CODE":0,"TOWNNAME":"東區","LI":"成大里","LIN":"15鄰","STREET":"育樂街","SECT":" ","MAREA":" ","LANE":"１５８巷","ALLEY":" ","HOUSE_NO":"１２號","E_COORD97":169475.97,"N_COORD97":2544004.6800000002,"ADDRESS":"育樂街１５８巷１２號","OBJECTID":319689},"geometry":{"x":169475.96999999974,"y":2544004.6799999997}},{"attributes":{"ID":319698,"DIS_CODE":0,"TOWNNAME":"新營區","LI":"太北里","LIN":"20鄰","STREET":" ","SECT":" ","MAREA":"太子宮","LANE":" ","ALLEY":" ","HOUSE_NO":"１４１號之１","E_COORD97":175844.04999999999,"N_COORD97":2576890.8399999999,"ADDRESS":"太子宮１４１號之１","OBJECTID":319690},"geometry":{"x":175844.04999999981,"y":2576890.8399999999}},{"attributes":{"ID":319699,"DIS_CODE":0,"TOWNNAME":"東區","LI":"成大里","LIN":"15鄰","STREET":"育樂街","SECT":" ","MAREA":" ","LANE":"１５８巷","ALLEY":" ","HOUSE_NO":"１４號","E_COORD97":169468.91,"N_COORD97":2544005.2599999998,"ADDRESS":"育樂街１５８巷１４號","OBJECTID":319691},"geometry":{"x":169468.91000000108,"y":2544005.2600000035}},{"attributes":{"ID":319700,"DIS_CODE":0,"TOWNNAME":"新營區","LI":"埤寮里","LIN":"8鄰","STREET":" ","SECT":" ","MAREA":"埤寮","LANE":" ","ALLEY":" ","HOUSE_NO":"３８號","E_COORD97":180467.35000000001,"N_COORD97":2580962.6099999999,"ADDRESS":"埤寮３８號","OBJECTID":319692},"geometry":{"x":180467.35000000056,"y":2580962.6100000013}},{"attributes":{"ID":319701,"DIS_CODE":0,"TOWNNAME":"東區","LI":"成大里","LIN":"15鄰","STREET":"育樂街","SECT":" ","MAREA":" ","LANE":"１５８巷","ALLEY":" ","HOUSE_NO":"１６號","E_COORD97":169461.64999999999,"N_COORD97":2544006.0499999998,"ADDRESS":"育樂街１５８巷１６號","OBJECTID":319693},"geometry":{"x":169461.65000000037,"y":2544006.0500000007}},{"attributes":{"ID":319702,"DIS_CODE":0,"TOWNNAME":"新營區","LI":"埤寮里","LIN":"7鄰","STREET":" ","SECT":" ","MAREA":"埤寮","LANE":" ","ALLEY":" ","HOUSE_NO":"３５號之１","E_COORD97":180384.72,"N_COORD97":2580909.9100000001,"ADDRESS":"埤寮３５號之１","OBJECTID":319694},"geometry":{"x":180384.7200000016,"y":2580909.910000002}},{"attributes":{"ID":319703,"DIS_CODE":0,"TOWNNAME":"東區","LI":"成大里","LIN":"15鄰","STREET":"育樂街","SECT":" ","MAREA":" ","LANE":"１５８巷","ALLEY":" ","HOUSE_NO":"１８號","E_COORD97":169455.37,"N_COORD97":2544007.0299999998,"ADDRESS":"育樂街１５８巷１８號","OBJECTID":319695},"geometry":{"x":169455.37000000104,"y":2544007.0300000012}},{"attributes":{"ID":319704,"DIS_CODE":0,"TOWNNAME":"新營區","LI":"太北里","LIN":" ","STREET":" ","SECT":" ","MAREA":"太子宮","LANE":" ","ALLEY":" ","HOUSE_NO":"１４６之１９號","E_COORD97":175738.23000000001,"N_COORD97":2577091.8300000001,"ADDRESS":"太子宮１４６之１９號","OBJECTID":319696},"geometry":{"x":175738.23000000045,"y":2577091.8300000038}},{"attributes":{"ID":319705,"DIS_CODE":0,"TOWNNAME":"新營區","LI":"忠政里","LIN":"17鄰","STREET":"府西路","SECT":" ","MAREA":" ","LANE":" ","ALLEY":" ","HOUSE_NO":"２５６號四樓之３","E_COORD97":179806.64999999999,"N_COORD97":2579697.77,"ADDRESS":"府西路２５６號四樓之３","OBJECTID":319697},"geometry":{"x":179806.6500000013,"y":2579697.7699999996}},{"attributes":{"ID":319706,"DIS_CODE":0,"TOWNNAME":"新營區","LI":"民榮里","LIN":"17鄰","STREET":"富強街","SECT":" ","MAREA":" ","LANE":" ","ALLEY":" ","HOUSE_NO":"３６號二樓","E_COORD97":178988.16,"N_COORD97":2577803.4500000002,"ADDRESS":"富強街３６號二樓","OBJECTID":319698},"geometry":{"x":178988.16000000015,"y":2577803.4500000011}},{"attributes":{"ID":319707,"DIS_CODE":0,"TOWNNAME":"新營區","LI":"民榮里","LIN":"17鄰","STREET":"富強街","SECT":" ","MAREA":" ","LANE":" ","ALLEY":" ","HOUSE_NO":"１０號七樓","E_COORD97":178988.07000000001,"N_COORD97":2577803.4500000002,"ADDRESS":"富強街１０號七樓","OBJECTID":319699},"geometry":{"x":178988.07000000123,"y":2577803.4500000011}},{"attributes":{"ID":319708,"DIS_CODE":0,"TOWNNAME":"新營區","LI":"民榮里","LIN":"17鄰","STREET":"富強街","SECT":" ","MAREA":" ","LANE":" ","ALLEY":" ","HOUSE_NO":"５７之１號三樓","E_COORD97":178911.06,"N_COORD97":2577857.02,"ADDRESS":"富強街５７之１號三樓","OBJECTID":319700},"geometry":{"x":178911.06000000052,"y":2577857.0200000014}},{"attributes":{"ID":319709,"DIS_CODE":0,"TOWNNAME":"新營區","LI":"太北里","LIN":"20鄰","STREET":" ","SECT":" ","MAREA":"太子宮","LANE":" ","ALLEY":" ","HOUSE_NO":"１４２之６２號","E_COORD97":175612.34,"N_COORD97":2577078.0699999998,"ADDRESS":"太子宮１４２之６２號","OBJECTID":319701},"geometry":{"x":175612.34000000078,"y":2577078.0700000022}},{"attributes":{"ID":319710,"DIS_CODE":0,"TOWNNAME":"新營區","LI":"大宏里","LIN":"7鄰","STREET":"文昌街","SECT":" ","MAREA":" ","LANE":" ","ALLEY":" ","HOUSE_NO":"４號之３","E_COORD97":180542.67999999999,"N_COORD97":2578443.9700000002,"ADDRESS":"文昌街４號之３","OBJECTID":319702},"geometry":{"x":180542.68000000156,"y":2578443.9700000007}},{"attributes":{"ID":319711,"DIS_CODE":0,"TOWNNAME":"新營區","LI":"護鎮里","LIN":"5鄰","STREET":" ","SECT":" ","MAREA":"後鎮","LANE":" ","ALLEY":" ","HOUSE_NO":"５４號之３","E_COORD97":179141.29000000001,"N_COORD97":2581172.7400000002,"ADDRESS":"後鎮５４之３號","OBJECTID":319703},"geometry":{"x":179141.29000000004,"y":2581172.7400000021}},{"attributes":{"ID":319712,"DIS_CODE":0,"TOWNNAME":"新營區","LI":"護鎮里","LIN":"5鄰","STREET":" ","SECT":" ","MAREA":"後鎮","LANE":" ","ALLEY":" ","HOUSE_NO":"５３號之１","E_COORD97":179167.79999999999,"N_COORD97":2581157.1099999999,"ADDRESS":"後鎮５３之１號","OBJECTID":319704},"geometry":{"x":179167.80000000075,"y":2581157.1099999994}},{"attributes":{"ID":319713,"DIS_CODE":0,"TOWNNAME":"中西區","LI":"西湖里","LIN":"30鄰","STREET":"西湖街","SECT":" ","MAREA":" ","LANE":" ","ALLEY":" ","HOUSE_NO":"３１６號","E_COORD97":165978.58538199999,"N_COORD97":2544981.33494,"ADDRESS":"西湖街３１６號","OBJECTID":319705},"geometry":{"x":165978.58538199961,"y":2544981.3349370025}},{"attributes":{"ID":319714,"DIS_CODE":0,"TOWNNAME":"南區","LI":"文華里","LIN":"17鄰","STREET":"南樂街","SECT":" ","MAREA":" ","LANE":" ","ALLEY":" ","HOUSE_NO":"２５號二樓","E_COORD97":166825.45000000001,"N_COORD97":2543153.3199999998,"ADDRESS":"南樂街２５號二樓","OBJECTID":319706},"geometry":{"x":166825.45000000205,"y":2543153.3200000003}},{"attributes":{"ID":319715,"DIS_CODE":0,"TOWNNAME":"新營區","LI":"五興里","LIN":" ","STREET":" ","SECT":" ","MAREA":"五間厝","LANE":" ","ALLEY":" ","HOUSE_NO":"１１０之６號","E_COORD97":175560.47,"N_COORD97":2574740.4700000002,"ADDRESS":"五間厝１１０之６號","OBJECTID":319707},"geometry":{"x":175560.47000000067,"y":2574740.4700000007}},{"attributes":{"ID":319716,"DIS_CODE":0,"TOWNNAME":"新營區","LI":"太南里","LIN":" ","STREET":" ","SECT":" ","MAREA":"太子宮","LANE":" ","ALLEY":" ","HOUSE_NO":"３１８之７號","E_COORD97":175866.95999999999,"N_COORD97":2575449.9300000002,"ADDRESS":"太子宮３１８之７號","OBJECTID":319708},"geometry":{"x":175866.95999999996,"y":2575449.9300000034}},{"attributes":{"ID":319717,"DIS_CODE":0,"TOWNNAME":"中西區","LI":"西湖里","LIN":"30鄰","STREET":"西湖街","SECT":" ","MAREA":" ","LANE":" ","ALLEY":" ","HOUSE_NO":"３２２號","E_COORD97":165993.41706800001,"N_COORD97":2544980.4882700001,"ADDRESS":"西湖街３２２號","OBJECTID":319709},"geometry":{"x":165993.41706800181,"y":2544980.4882709999}},{"attributes":{"ID":319718,"DIS_CODE":0,"TOWNNAME":"新營區","LI":"太南里","LIN":" ","STREET":" ","SECT":" ","MAREA":"太子宮","LANE":" ","ALLEY":" ","HOUSE_NO":"３０５之１５號","E_COORD97":175955.17000000001,"N_COORD97":2576678.77,"ADDRESS":"太子宮３０５之１５號","OBJECTID":319710},"geometry":{"x":175955.16999999993,"y":2576678.7700000014}},{"attributes":{"ID":319719,"DIS_CODE":0,"TOWNNAME":"新營區","LI":"土庫里","LIN":"17鄰","STREET":" ","SECT":" ","MAREA":"卯舍","LANE":" ","ALLEY":" ","HOUSE_NO":"２１號之１","E_COORD97":181458.92000000001,"N_COORD97":2580111.9500000002,"ADDRESS":"卯舍２１號之１","OBJECTID":319711},"geometry":{"x":181458.92000000086,"y":2580111.9500000011}},{"attributes":{"ID":319720,"DIS_CODE":0,"TOWNNAME":"新營區","LI":"新北里","LIN":"18鄰","STREET":"民生路","SECT":" ","MAREA":" ","LANE":"１８２巷","ALLEY":" ","HOUSE_NO":"１７號","E_COORD97":179154.04000000001,"N_COORD97":2579021.9300000002,"ADDRESS":"民生路１８２巷１７號","OBJECTID":319712},"geometry":{"x":179154.04000000097,"y":2579021.9299999997}},{"attributes":{"ID":319721,"DIS_CODE":0,"TOWNNAME":"新營區","LI":"民生里","LIN":"25鄰","STREET":"民生路","SECT":" ","MAREA":" ","LANE":"１６３巷","ALLEY":" ","HOUSE_NO":"２７號","E_COORD97":179141.03,"N_COORD97":2578641.04,"ADDRESS":"民生路１６３巷２７號","OBJECTID":319713},"geometry":{"x":179141.03000000119,"y":2578641.0399999991}},{"attributes":{"ID":319722,"DIS_CODE":0,"TOWNNAME":"新營區","LI":"埤寮里","LIN":" ","STREET":" ","SECT":" ","MAREA":"埤寮","LANE":" ","ALLEY":" ","HOUSE_NO":"１９號","E_COORD97":180327.89999999999,"N_COORD97":2580904.5800000001,"ADDRESS":"埤寮１９號","OBJECTID":319714},"geometry":{"x":180327.90000000037,"y":2580904.5800000038}},{"attributes":{"ID":319723,"DIS_CODE":0,"TOWNNAME":"新營區","LI":"民榮里","LIN":"17鄰","STREET":"富強街","SECT":" ","MAREA":" ","LANE":" ","ALLEY":" ","HOUSE_NO":"１４號四樓","E_COORD97":178988.07000000001,"N_COORD97":2577803.4500000002,"ADDRESS":"富強街１４號四樓","OBJECTID":319715},"geometry":{"x":178988.07000000123,"y":2577803.4500000011}},{"attributes":{"ID":319724,"DIS_CODE":0,"TOWNNAME":"新營區","LI":"民榮里","LIN":"17鄰","STREET":"富強街","SECT":" ","MAREA":" ","LANE":" ","ALLEY":" ","HOUSE_NO":"２４號七樓","E_COORD97":178988.14000000001,"N_COORD97":2577803.4500000002,"ADDRESS":"富強街２４號七樓","OBJECTID":319716},"geometry":{"x":178988.13999999966,"y":2577803.4500000011}},{"attributes":{"ID":319725,"DIS_CODE":0,"TOWNNAME":"新營區","LI":"民榮里","LIN":"17鄰","STREET":"富強街","SECT":" ","MAREA":" ","LANE":" ","ALLEY":" ","HOUSE_NO":"６１號二樓之２","E_COORD97":178881.29000000001,"N_COORD97":2577887.0600000001,"ADDRESS":"富強街６１號二樓之２","OBJECTID":319717},"geometry":{"x":178881.29000000097,"y":2577887.0600000005}},{"attributes":{"ID":319726,"DIS_CODE":0,"TOWNNAME":"新營區","LI":"興業里","LIN":" ","STREET":"中興路","SECT":" ","MAREA":" ","LANE":"１５巷","ALLEY":" ","HOUSE_NO":"１８之１號","E_COORD97":180230.41,"N_COORD97":2577917.1899999999,"ADDRESS":"中興路１５巷１８之１號","OBJECTID":319718},"geometry":{"x":180230.41000000108,"y":2577917.1900000013}},{"attributes":{"ID":319727,"DIS_CODE":0,"TOWNNAME":"東區","LI":"成大里","LIN":"15鄰","STREET":"育樂街","SECT":" ","MAREA":" ","LANE":"１５８巷","ALLEY":" ","HOUSE_NO":"２０號","E_COORD97":169448.5,"N_COORD97":2544007.4199999999,"ADDRESS":"育樂街１５８巷２０號","OBJECTID":319719},"geometry":{"x":169448.5,"y":2544007.4199999999}},{"attributes":{"ID":319728,"DIS_CODE":0,"TOWNNAME":"中西區","LI":"西湖里","LIN":"30鄰","STREET":"西湖街","SECT":" ","MAREA":" ","LANE":" ","ALLEY":" ","HOUSE_NO":"３２６號","E_COORD97":165999.98538500001,"N_COORD97":2544980.06494,"ADDRESS":"西湖街３２６號","OBJECTID":319720},"geometry":{"x":165999.98538500071,"y":2544980.0649380013}},{"attributes":{"ID":319729,"DIS_CODE":0,"TOWNNAME":"新營區","LI":"大宏里","LIN":"17鄰","STREET":"三民路","SECT":" ","MAREA":" ","LANE":" ","ALLEY":" ","HOUSE_NO":"４８號之７","E_COORD97":180330.62,"N_COORD97":2578544.6400000001,"ADDRESS":"三民路４８號之７","OBJECTID":319721},"geometry":{"x":180330.62000000104,"y":2578544.6400000043}},{"attributes":{"ID":319730,"DIS_CODE":0,"TOWNNAME":"關廟區","LI":"五甲里","LIN":"8鄰","STREET":"五慧街","SECT":" ","MAREA":" ","LANE":" ","ALLEY":" ","HOUSE_NO":"５８號","E_COORD97":181134.107411,"N_COORD97":2539260.9465200002,"ADDRESS":"五慧街５８號","OBJECTID":319722},"geometry":{"x":181134.10741100088,"y":2539260.946517}},{"attributes":{"ID":319731,"DIS_CODE":0,"TOWNNAME":"新營區","LI":"南興里","LIN":" ","STREET":"興農街","SECT":" ","MAREA":" ","LANE":"１３８巷","ALLEY":" ","HOUSE_NO":"２２之４號","E_COORD97":179158.88,"N_COORD97":2577571.21,"ADDRESS":"興農街１３８巷２２之４號","OBJECTID":319723},"geometry":{"x":179158.88000000082,"y":2577571.2100000009}},{"attributes":{"ID":319732,"DIS_CODE":0,"TOWNNAME":"新營區","LI":"五興里","LIN":"7鄰","STREET":" ","SECT":" ","MAREA":"五間厝","LANE":" ","ALLEY":" ","HOUSE_NO":"８０號之１","E_COORD97":175718.42999999999,"N_COORD97":2574645.54,"ADDRESS":"五間厝８０之１號","OBJECTID":319724},"geometry":{"x":175718.43000000063,"y":2574645.540000001}},{"attributes":{"ID":319733,"DIS_CODE":0,"TOWNNAME":"新營區","LI":"五興里","LIN":"5鄰","STREET":" ","SECT":" ","MAREA":"五間厝","LANE":" ","ALLEY":" ","HOUSE_NO":"５２號之１","E_COORD97":175708.79000000001,"N_COORD97":2574772.9399999999,"ADDRESS":"五間厝５２之１號","OBJECTID":319725},"geometry":{"x":175708.79000000004,"y":2574772.9400000013}},{"attributes":{"ID":319734,"DIS_CODE":0,"TOWNNAME":"東區","LI":"成大里","LIN":"15鄰","STREET":"育樂街","SECT":" ","MAREA":" ","LANE":"１５８巷","ALLEY":" ","HOUSE_NO":"２２號","E_COORD97":169442.03,"N_COORD97":2544008.0099999998,"ADDRESS":"育樂街１５８巷２２號","OBJECTID":319726},"geometry":{"x":169442.03000000026,"y":2544008.0100000016}},{"attributes":{"ID":319735,"DIS_CODE":0,"TOWNNAME":"新營區","LI":"土庫里","LIN":"16鄰","STREET":" ","SECT":" ","MAREA":"卯舍","LANE":" ","ALLEY":" ","HOUSE_NO":"２號之３","E_COORD97":182019.17999999999,"N_COORD97":2580119.3300000001,"ADDRESS":"卯舍２號之３","OBJECTID":319727},"geometry":{"x":182019.18000000156,"y":2580119.3300000038}},{"attributes":{"ID":319736,"DIS_CODE":0,"TOWNNAME":"新營區","LI":"土庫里","LIN":"17鄰","STREET":" ","SECT":" ","MAREA":"卯舍","LANE":" ","ALLEY":" ","HOUSE_NO":"１６號之１","E_COORD97":181621.26000000001,"N_COORD97":2580068.02,"ADDRESS":"卯舍１６號之１","OBJECTID":319728},"geometry":{"x":181621.25999999978,"y":2580068.0200000014}},{"attributes":{"ID":319737,"DIS_CODE":0,"TOWNNAME":"東區","LI":"成大里","LIN":"15鄰","STREET":"育樂街","SECT":" ","MAREA":" ","LANE":"１５８巷","ALLEY":" ","HOUSE_NO":"２４號","E_COORD97":169476.37,"N_COORD97":2544012.1200000001,"ADDRESS":"育樂街１５８巷２４號","OBJECTID":319729},"geometry":{"x":169476.37000000104,"y":2544012.1200000029}},{"attributes":{"ID":319738,"DIS_CODE":0,"TOWNNAME":"東區","LI":"成大里","LIN":"15鄰","STREET":"育樂街","SECT":" ","MAREA":" ","LANE":"１５８巷","ALLEY":" ","HOUSE_NO":"２６號","E_COORD97":169468.91,"N_COORD97":2544013.2999999998,"ADDRESS":"育樂街１５８巷２６號","OBJECTID":319730},"geometry":{"x":169468.91000000108,"y":2544013.3000000026}},{"attributes":{"ID":319739,"DIS_CODE":0,"TOWNNAME":"新營區","LI":"護鎮里","LIN":"5鄰","STREET":" ","SECT":" ","MAREA":"後鎮","LANE":" ","ALLEY":" ","HOUSE_NO":"５６號之２","E_COORD97":179114.60000000001,"N_COORD97":2581151.8199999998,"ADDRESS":"後鎮５６之２號","OBJECTID":319731},"geometry":{"x":179114.60000000056,"y":2581151.8200000022}},{"attributes":{"ID":319740,"DIS_CODE":0,"TOWNNAME":"東區","LI":"成大里","LIN":"15鄰","STREET":"育樂街","SECT":" ","MAREA":" ","LANE":"１５８巷","ALLEY":" ","HOUSE_NO":"２８號","E_COORD97":169462.82999999999,"N_COORD97":2544013.6899999999,"ADDRESS":"育樂街１５８巷２８號","OBJECTID":319732},"geometry":{"x":169462.83000000101,"y":2544013.6900000013}},{"attributes":{"ID":319741,"DIS_CODE":0,"TOWNNAME":"東區","LI":"成大里","LIN":"15鄰","STREET":"育樂街","SECT":" ","MAREA":" ","LANE":"１５８巷","ALLEY":" ","HOUSE_NO":"２號","E_COORD97":169473.81,"N_COORD97":2543988.6099999999,"ADDRESS":"育樂街１５８巷２號","OBJECTID":319733},"geometry":{"x":169473.81000000145,"y":2543988.6099999994}},{"attributes":{"ID":319742,"DIS_CODE":0,"TOWNNAME":"東區","LI":"成大里","LIN":"15鄰","STREET":"育樂街","SECT":" ","MAREA":" ","LANE":"１５８巷","ALLEY":" ","HOUSE_NO":"３０號","E_COORD97":169456.54999999999,"N_COORD97":2544014.2799999998,"ADDRESS":"育樂街１５８巷３０號","OBJECTID":319734},"geometry":{"x":169456.54999999981,"y":2544014.2799999993}},{"attributes":{"ID":319743,"DIS_CODE":0,"TOWNNAME":"新營區","LI":"太南里","LIN":" ","STREET":" ","SECT":" ","MAREA":"太子宮","LANE":" ","ALLEY":" ","HOUSE_NO":"３０５之２９號","E_COORD97":175975.88,"N_COORD97":2576729.6099999999,"ADDRESS":"太子宮３０５之２９號","OBJECTID":319735},"geometry":{"x":175975.87999999989,"y":2576729.6099999975}},{"attributes":{"ID":319744,"DIS_CODE":0,"TOWNNAME":"新營區","LI":"太南里","LIN":" ","STREET":" ","SECT":" ","MAREA":"太子宮","LANE":" ","ALLEY":" ","HOUSE_NO":"３０５之６號","E_COORD97":175992.85999999999,"N_COORD97":2576691.8700000001,"ADDRESS":"太子宮３０５之６號","OBJECTID":319736},"geometry":{"x":175992.86000000127,"y":2576691.870000001}},{"attributes":{"ID":319745,"DIS_CODE":0,"TOWNNAME":"東區","LI":"成大里","LIN":"15鄰","STREET":"育樂街","SECT":" ","MAREA":" ","LANE":"１５８巷","ALLEY":" ","HOUSE_NO":"３２號","E_COORD97":169449.09,"N_COORD97":2544014.8700000001,"ADDRESS":"育樂街１５８巷３２號","OBJECTID":319737},"geometry":{"x":169449.09000000078,"y":2544014.870000001}},{"attributes":{"ID":319746,"DIS_CODE":0,"TOWNNAME":"新營區","LI":"埤寮里","LIN":"6鄰","STREET":" ","SECT":" ","MAREA":"埤寮","LANE":" ","ALLEY":" ","HOUSE_NO":"１９號之１","E_COORD97":180345.70999999999,"N_COORD97":2580899.02,"ADDRESS":"埤寮１９號之１","OBJECTID":319738},"geometry":{"x":180345.70999999996,"y":2580899.0200000014}},{"attributes":{"ID":319747,"DIS_CODE":0,"TOWNNAME":"新營區","LI":"護鎮里","LIN":"5鄰","STREET":" ","SECT":" ","MAREA":"後鎮","LANE":" ","ALLEY":" ","HOUSE_NO":"５１號之３","E_COORD97":179132.66,"N_COORD97":2581136.23,"ADDRESS":"後鎮５１號之３","OBJECTID":319739},"geometry":{"x":179132.65999999922,"y":2581136.2300000004}},{"attributes":{"ID":319748,"DIS_CODE":0,"TOWNNAME":"東區","LI":"成大里","LIN":"15鄰","STREET":"育樂街","SECT":" ","MAREA":" ","LANE":"１５８巷","ALLEY":" ","HOUSE_NO":"３４號","E_COORD97":169443.01000000001,"N_COORD97":2544016.04,"ADDRESS":"育樂街１５８巷３４號","OBJECTID":319740},"geometry":{"x":169443.00999999978,"y":2544016.0399999972}},{"attributes":{"ID":319749,"DIS_CODE":0,"TOWNNAME":"新營區","LI":"民榮里","LIN":"17鄰","STREET":"富強街","SECT":" ","MAREA":" ","LANE":" ","ALLEY":" ","HOUSE_NO":"５７號五樓","E_COORD97":178908.56,"N_COORD97":2577856.98,"ADDRESS":"富強街５７號五樓","OBJECTID":319741},"geometry":{"x":178908.55999999959,"y":2577856.9800000004}},{"attributes":{"ID":319750,"DIS_CODE":0,"TOWNNAME":"南區","LI":"文華里","LIN":"17鄰","STREET":"南樂街","SECT":" ","MAREA":" ","LANE":" ","ALLEY":" ","HOUSE_NO":"２５號三樓","E_COORD97":166825.45000000001,"N_COORD97":2543153.3199999998,"ADDRESS":"南樂街２５號三樓","OBJECTID":319742},"geometry":{"x":166825.45000000205,"y":2543153.3200000003}},{"attributes":{"ID":319751,"DIS_CODE":0,"TOWNNAME":"新營區","LI":"中營里","LIN":" ","STREET":"東山路","SECT":" ","MAREA":" ","LANE":" ","ALLEY":" ","HOUSE_NO":"１８號","E_COORD97":180990.34,"N_COORD97":2578654.4500000002,"ADDRESS":"東山路１８號","OBJECTID":319743},"geometry":{"x":180990.33999999985,"y":2578654.4500000011}},{"attributes":{"ID":319752,"DIS_CODE":0,"TOWNNAME":"新營區","LI":"太北里","LIN":"17鄰","STREET":" ","SECT":" ","MAREA":"太子宮","LANE":" ","ALLEY":" ","HOUSE_NO":"１４７號之６","E_COORD97":175363.79469400001,"N_COORD97":2577275.0796500002,"ADDRESS":"太子宮１４７號之６","OBJECTID":319744},"geometry":{"x":175363.79469400086,"y":2577275.0796460006}},{"attributes":{"ID":319753,"DIS_CODE":0,"TOWNNAME":"新營區","LI":"舊部里","LIN":" ","STREET":" ","SECT":" ","MAREA":"舊部","LANE":" ","ALLEY":" ","HOUSE_NO":"１７號","E_COORD97":176933.84,"N_COORD97":2575360.3900000001,"ADDRESS":"舊部１７號","OBJECTID":319745},"geometry":{"x":176933.83999999985,"y":2575360.3900000025}},{"attributes":{"ID":319754,"DIS_CODE":0,"TOWNNAME":"新營區","LI":"太北里","LIN":" ","STREET":" ","SECT":" ","MAREA":"太子宮","LANE":" ","ALLEY":" ","HOUSE_NO":"３４之４號","E_COORD97":175949.5,"N_COORD97":2577273.5,"ADDRESS":"太子宮３４之４號","OBJECTID":319746},"geometry":{"x":175949.5,"y":2577273.4999999981}},{"attributes":{"ID":319755,"DIS_CODE":0,"TOWNNAME":"新營區","LI":"埤寮里","LIN":" ","STREET":" ","SECT":" ","MAREA":"埤寮","LANE":" ","ALLEY":" ","HOUSE_NO":"７６之１號","E_COORD97":180484.70000000001,"N_COORD97":2580870.6699999999,"ADDRESS":"埤寮７６之１號","OBJECTID":319747},"geometry":{"x":180484.70000000019,"y":2580870.6700000018}},{"attributes":{"ID":319756,"DIS_CODE":0,"TOWNNAME":"新營區","LI":"民榮里","LIN":"18鄰","STREET":"裕民路","SECT":" ","MAREA":" ","LANE":"５８巷","ALLEY":" ","HOUSE_NO":"４４之３號","E_COORD97":179017.98000000001,"N_COORD97":2577838.7799999998,"ADDRESS":"裕民路５８巷４４之３號","OBJECTID":319748},"geometry":{"x":179017.98000000138,"y":2577838.7800000012}},{"attributes":{"ID":319757,"DIS_CODE":0,"TOWNNAME":"新營區","LI":"民權里","LIN":"5鄰","STREET":"信義街","SECT":" ","MAREA":" ","LANE":"７２巷","ALLEY":" ","HOUSE_NO":"６號","E_COORD97":179957.53,"N_COORD97":2578540.7999999998,"ADDRESS":"信義街７２巷６號","OBJECTID":319749},"geometry":{"x":179957.52999999933,"y":2578540.8000000026}},{"attributes":{"ID":319758,"DIS_CODE":0,"TOWNNAME":"新營區","LI":"太南里","LIN":" ","STREET":" ","SECT":" ","MAREA":"太子宮","LANE":" ","ALLEY":" ","HOUSE_NO":"３１８之３號","E_COORD97":175832.38,"N_COORD97":2575491.0699999998,"ADDRESS":"太子宮３１８之３號","OBJECTID":319750},"geometry":{"x":175832.38000000082,"y":2575491.0700000022}},{"attributes":{"ID":319759,"DIS_CODE":0,"TOWNNAME":"東區","LI":"成大里","LIN":"15鄰","STREET":"育樂街","SECT":" ","MAREA":" ","LANE":"１５８巷","ALLEY":" ","HOUSE_NO":"４號","E_COORD97":169465.17999999999,"N_COORD97":2543989.5899999999,"ADDRESS":"育樂街１５８巷４號","OBJECTID":319751},"geometry":{"x":169465.18000000063,"y":2543989.5900000036}},{"attributes":{"ID":319760,"DIS_CODE":0,"TOWNNAME":"新營區","LI":"太南里","LIN":"4鄰","STREET":" ","SECT":" ","MAREA":"太子宮","LANE":" ","ALLEY":" ","HOUSE_NO":"３２８號","E_COORD97":176441.38,"N_COORD97":2577079.3999999999,"ADDRESS":"太子宮３２８號","OBJECTID":319752},"geometry":{"x":176441.38000000082,"y":2577079.4000000022}},{"attributes":{"ID":319761,"DIS_CODE":0,"TOWNNAME":"新營區","LI":"埤寮里","LIN":"6鄰","STREET":" ","SECT":" ","MAREA":"埤寮","LANE":" ","ALLEY":" ","HOUSE_NO":"２１號之４","E_COORD97":180279.09,"N_COORD97":2580851.71,"ADDRESS":"埤寮２１號之４","OBJECTID":319753},"geometry":{"x":180279.09000000078,"y":2580851.7100000028}},{"attributes":{"ID":319762,"DIS_CODE":0,"TOWNNAME":"新營區","LI":"護鎮里","LIN":" ","STREET":" ","SECT":" ","MAREA":"後鎮","LANE":" ","ALLEY":" ","HOUSE_NO":"６２之３號","E_COORD97":179052.39000000001,"N_COORD97":2581190.8799999999,"ADDRESS":"後鎮６２之３號","OBJECTID":319754},"geometry":{"x":179052.38999999966,"y":2581190.8800000008}},{"attributes":{"ID":319763,"DIS_CODE":0,"TOWNNAME":"東區","LI":"成大里","LIN":"15鄰","STREET":"育樂街","SECT":" ","MAREA":" ","LANE":"１５８巷","ALLEY":" ","HOUSE_NO":"６號","E_COORD97":169457.32999999999,"N_COORD97":2543989.79,"ADDRESS":"育樂街１５８巷６號","OBJECTID":319755},"geometry":{"x":169457.33000000101,"y":2543989.7899999991}},{"attributes":{"ID":319764,"DIS_CODE":0,"TOWNNAME":"新營區","LI":"埤寮里","LIN":"5鄰","STREET":" ","SECT":" ","MAREA":"埤寮","LANE":" ","ALLEY":" ","HOUSE_NO":"１１號之２","E_COORD97":180226.32000000001,"N_COORD97":2580953.8399999999,"ADDRESS":"埤寮１１號之２","OBJECTID":319756},"geometry":{"x":180226.3200000003,"y":2580953.8400000017}},{"attributes":{"ID":319765,"DIS_CODE":0,"TOWNNAME":"新營區","LI":"土庫里","LIN":" ","STREET":" ","SECT":" ","MAREA":"土庫","LANE":" ","ALLEY":" ","HOUSE_NO":"２７之４號","E_COORD97":183217.01999999999,"N_COORD97":2579889.0699999998,"ADDRESS":"土庫２７之４號","OBJECTID":319757},"geometry":{"x":183217.02000000048,"y":2579889.0700000022}},{"attributes":{"ID":319766,"DIS_CODE":0,"TOWNNAME":"新營區","LI":"太北里","LIN":" ","STREET":" ","SECT":" ","MAREA":"太子宮","LANE":" ","ALLEY":" ","HOUSE_NO":"１２９號","E_COORD97":175937.57000000001,"N_COORD97":2576995.52,"ADDRESS":"太子宮１２９號","OBJECTID":319758},"geometry":{"x":175937.5700000003,"y":2576995.5200000014}},{"attributes":{"ID":319767,"DIS_CODE":0,"TOWNNAME":"新營區","LI":"埤寮里","LIN":" ","STREET":" ","SECT":" ","MAREA":"後鎮","LANE":" ","ALLEY":" ","HOUSE_NO":"１之１號","E_COORD97":179685.14000000001,"N_COORD97":2581180.1000000001,"ADDRESS":"後鎮１之１號","OBJECTID":319759},"geometry":{"x":179685.14000000153,"y":2581180.0999999996}},{"attributes":{"ID":319768,"DIS_CODE":0,"TOWNNAME":"新營區","LI":"護鎮里","LIN":" ","STREET":" ","SECT":" ","MAREA":"後鎮","LANE":" ","ALLEY":" ","HOUSE_NO":"６２之１６號","E_COORD97":179028.14000000001,"N_COORD97":2581204.29,"ADDRESS":"後鎮６２之１６號","OBJECTID":319760},"geometry":{"x":179028.1400000006,"y":2581204.290000001}},{"attributes":{"ID":319769,"DIS_CODE":0,"TOWNNAME":"新營區","LI":"護鎮里","LIN":" ","STREET":" ","SECT":" ","MAREA":"後鎮","LANE":" ","ALLEY":" ","HOUSE_NO":"６２之１號","E_COORD97":179045.13,"N_COORD97":2581169.8700000001,"ADDRESS":"後鎮６２之１號","OBJECTID":319761},"geometry":{"x":179045.13000000082,"y":2581169.870000001}},{"attributes":{"ID":319770,"DIS_CODE":0,"TOWNNAME":"南區","LI":"文華里","LIN":"17鄰","STREET":"南樂街","SECT":" ","MAREA":" ","LANE":" ","ALLEY":" ","HOUSE_NO":"２５號五樓","E_COORD97":166825.45000000001,"N_COORD97":2543153.3199999998,"ADDRESS":"南樂街２５號五樓","OBJECTID":319762},"geometry":{"x":166825.45000000205,"y":2543153.3200000003}},{"attributes":{"ID":319771,"DIS_CODE":0,"TOWNNAME":"南區","LI":"文華里","LIN":"17鄰","STREET":"南樂街","SECT":" ","MAREA":" ","LANE":" ","ALLEY":" ","HOUSE_NO":"２５號四樓","E_COORD97":166825.45000000001,"N_COORD97":2543153.3199999998,"ADDRESS":"南樂街２５號四樓","OBJECTID":319763},"geometry":{"x":166825.45000000205,"y":2543153.3200000003}},{"attributes":{"ID":319772,"DIS_CODE":0,"TOWNNAME":"新營區","LI":"埤寮里","LIN":"5鄰","STREET":" ","SECT":" ","MAREA":"埤寮","LANE":" ","ALLEY":" ","HOUSE_NO":"１２之５號","E_COORD97":180230.17999999999,"N_COORD97":2580906.21,"ADDRESS":"埤寮１２之５號","OBJECTID":319764},"geometry":{"x":180230.1799999997,"y":2580906.2100000009}},{"attributes":{"ID":319773,"DIS_CODE":0,"TOWNNAME":"新營區","LI":"護鎮里","LIN":" ","STREET":" ","SECT":" ","MAREA":"後鎮","LANE":" ","ALLEY":" ","HOUSE_NO":"６２之６號","E_COORD97":179034,"N_COORD97":2581195.3999999999,"ADDRESS":"後鎮６２之６號","OBJECTID":319765},"geometry":{"x":179034.00000000093,"y":2581195.4000000022}},{"attributes":{"ID":319774,"DIS_CODE":0,"TOWNNAME":"新營區","LI":"五興里","LIN":"7鄰","STREET":" ","SECT":" ","MAREA":"五間厝","LANE":" ","ALLEY":" ","HOUSE_NO":"８１號之１","E_COORD97":175713.44,"N_COORD97":2574671.0299999998,"ADDRESS":"五間厝８１之１號","OBJECTID":319766},"geometry":{"x":175713.44000000041,"y":2574671.0299999993}},{"attributes":{"ID":319775,"DIS_CODE":0,"TOWNNAME":"中西區","LI":"西湖里","LIN":"30鄰","STREET":"西湖街","SECT":" ","MAREA":" ","LANE":" ","ALLEY":" ","HOUSE_NO":"３３２號","E_COORD97":166009.09627800001,"N_COORD97":2545002.0782599999,"ADDRESS":"西湖街３３２號","OBJECTID":319767},"geometry":{"x":166009.09627800155,"y":2545002.0782590024}},{"attributes":{"ID":319776,"DIS_CODE":0,"TOWNNAME":"新營區","LI":"埤寮里","LIN":"6鄰","STREET":" ","SECT":" ","MAREA":"埤寮","LANE":" ","ALLEY":" ","HOUSE_NO":"２２號之２","E_COORD97":180358.42999999999,"N_COORD97":2580760.52,"ADDRESS":"埤寮２２號之２","OBJECTID":319768},"geometry":{"x":180358.43000000063,"y":2580760.5199999996}},{"attributes":{"ID":319777,"DIS_CODE":0,"TOWNNAME":"新營區","LI":"姑爺里","LIN":"5鄰","STREET":" ","SECT":" ","MAREA":"姑爺","LANE":" ","ALLEY":" ","HOUSE_NO":"４６號","E_COORD97":174203.41,"N_COORD97":2574180.2599999998,"ADDRESS":"姑爺４６號","OBJECTID":319769},"geometry":{"x":174203.41000000108,"y":2574180.2600000016}},{"attributes":{"ID":319778,"DIS_CODE":0,"TOWNNAME":"新營區","LI":"太南里","LIN":" ","STREET":" ","SECT":" ","MAREA":"太子宮","LANE":" ","ALLEY":" ","HOUSE_NO":"３１９之１號","E_COORD97":175873.57999999999,"N_COORD97":2575547.3500000001,"ADDRESS":"太子宮３１９之１號","OBJECTID":319770},"geometry":{"x":175873.58000000101,"y":2575547.3499999996}},{"attributes":{"ID":319779,"DIS_CODE":0,"TOWNNAME":"新營區","LI":"南興里","LIN":"4鄰","STREET":"和平路","SECT":" ","MAREA":" ","LANE":"９５巷","ALLEY":" ","HOUSE_NO":"３５號","E_COORD97":179524.82000000001,"N_COORD97":2577607.0600000001,"ADDRESS":"和平路９５巷３５號","OBJECTID":319771},"geometry":{"x":179524.8200000003,"y":2577607.0600000024}},{"attributes":{"ID":319780,"DIS_CODE":0,"TOWNNAME":"新營區","LI":"五興里","LIN":"5鄰","STREET":" ","SECT":" ","MAREA":"五間厝","LANE":" ","ALLEY":" ","HOUSE_NO":"５５號之２","E_COORD97":175771.09,"N_COORD97":2574751.5899999999,"ADDRESS":"五間厝５５之２號","OBJECTID":319772},"geometry":{"x":175771.08999999985,"y":2574751.5900000017}},{"attributes":{"ID":319781,"DIS_CODE":0,"TOWNNAME":"新營區","LI":"埤寮里","LIN":"11鄰","STREET":" ","SECT":" ","MAREA":"埤寮","LANE":" ","ALLEY":" ","HOUSE_NO":"８３號之２","E_COORD97":180535.35000000001,"N_COORD97":2580759.6899999999,"ADDRESS":"埤寮８３號之２","OBJECTID":319773},"geometry":{"x":180535.35000000056,"y":2580759.6899999995}},{"attributes":{"ID":319782,"DIS_CODE":0,"TOWNNAME":"新營區","LI":"鐵線里","LIN":" ","STREET":" ","SECT":" ","MAREA":"鐵線橋","LANE":" ","ALLEY":" ","HOUSE_NO":"１１０號","E_COORD97":175944.42000000001,"N_COORD97":2573860.2799999998,"ADDRESS":"鐵線橋１１０號","OBJECTID":319774},"geometry":{"x":175944.42000000086,"y":2573860.2800000031}},{"attributes":{"ID":319783,"DIS_CODE":0,"TOWNNAME":"新營區","LI":"五興里","LIN":"10鄰","STREET":" ","SECT":" ","MAREA":"五間厝","LANE":" ","ALLEY":" ","HOUSE_NO":"１１３號之１３","E_COORD97":175642.34,"N_COORD97":2574697.9900000002,"ADDRESS":"五間厝１１３之１３號","OBJECTID":319775},"geometry":{"x":175642.33999999985,"y":2574697.9900000021}},{"attributes":{"ID":319784,"DIS_CODE":0,"TOWNNAME":"東區","LI":"東門里","LIN":"15鄰","STREET":"東門路","SECT":"一段","MAREA":" ","LANE":"１３５巷","ALLEY":" ","HOUSE_NO":"１６號","E_COORD97":169516.69,"N_COORD97":2543253.8700000001,"ADDRESS":"東門路一段１３５巷１６號","OBJECTID":319776},"geometry":{"x":169516.69000000134,"y":2543253.8700000029}},{"attributes":{"ID":319785,"DIS_CODE":0,"TOWNNAME":"新營區","LI":"太南里","LIN":"5鄰","STREET":" ","SECT":" ","MAREA":"太子宮","LANE":" ","ALLEY":" ","HOUSE_NO":"３２６之１６號","E_COORD97":176375.79000000001,"N_COORD97":2576919.21,"ADDRESS":"太子宮３２６之１６號","OBJECTID":319777},"geometry":{"x":176375.79000000097,"y":2576919.2100000009}},{"attributes":{"ID":319786,"DIS_CODE":0,"TOWNNAME":"善化區","LI":"文昌里","LIN":"20鄰","STREET":"中正路","SECT":" ","MAREA":" ","LANE":"２１２巷","ALLEY":" ","HOUSE_NO":"４號","E_COORD97":177756.48000000001,"N_COORD97":2558302.25,"ADDRESS":"中正路２１２巷４號","OBJECTID":319778},"geometry":{"x":177756.48000000138,"y":2558302.25}},{"attributes":{"ID":319787,"DIS_CODE":0,"TOWNNAME":"東區","LI":"東門里","LIN":"15鄰","STREET":"東門路","SECT":"一段","MAREA":" ","LANE":"１３５巷","ALLEY":" ","HOUSE_NO":"１８號","E_COORD97":169517,"N_COORD97":2543257.4199999999,"ADDRESS":"東門路一段１３５巷１８號","OBJECTID":319779},"geometry":{"x":169517.00000000186,"y":2543257.4199999999}},{"attributes":{"ID":319788,"DIS_CODE":0,"TOWNNAME":"新營區","LI":"姑爺里","LIN":"4鄰","STREET":" ","SECT":" ","MAREA":"姑爺","LANE":" ","ALLEY":" ","HOUSE_NO":"３８號","E_COORD97":174284.42000000001,"N_COORD97":2574214.1699999999,"ADDRESS":"姑爺３８號","OBJECTID":319780},"geometry":{"x":174284.42000000086,"y":2574214.1699999981}},{"attributes":{"ID":319789,"DIS_CODE":0,"TOWNNAME":"東區","LI":"東門里","LIN":"15鄰","STREET":"東門路","SECT":"一段","MAREA":" ","LANE":"１３５巷","ALLEY":" ","HOUSE_NO":"２０號","E_COORD97":169517.38,"N_COORD97":2543260.9700000002,"ADDRESS":"東門路一段１３５巷２０號","OBJECTID":319781},"geometry":{"x":169517.37999999989,"y":2543260.9700000007}},{"attributes":{"ID":319790,"DIS_CODE":0,"TOWNNAME":"新營區","LI":"民榮里","LIN":"17鄰","STREET":"富強街","SECT":" ","MAREA":" ","LANE":" ","ALLEY":" ","HOUSE_NO":"１４號六樓","E_COORD97":178988.07000000001,"N_COORD97":2577803.4500000002,"ADDRESS":"富強街１４號六樓","OBJECTID":319782},"geometry":{"x":178988.07000000123,"y":2577803.4500000011}},{"attributes":{"ID":319791,"DIS_CODE":0,"TOWNNAME":"新營區","LI":"民榮里","LIN":"17鄰","STREET":"富強街","SECT":" ","MAREA":" ","LANE":" ","ALLEY":" ","HOUSE_NO":"２４號三樓","E_COORD97":178988.14000000001,"N_COORD97":2577803.4500000002,"ADDRESS":"富強街２４號三樓","OBJECTID":319783},"geometry":{"x":178988.13999999966,"y":2577803.4500000011}},{"attributes":{"ID":319792,"DIS_CODE":0,"TOWNNAME":"中西區","LI":"西湖里","LIN":"30鄰","STREET":"西湖街","SECT":" ","MAREA":" ","LANE":" ","ALLEY":" ","HOUSE_NO":"３４８號","E_COORD97":165975.19528300001,"N_COORD97":2545004.6182599999,"ADDRESS":"西湖街３４８號","OBJECTID":319784},"geometry":{"x":165975.19528300129,"y":2545004.6182580013}},{"attributes":{"ID":319793,"DIS_CODE":0,"TOWNNAME":"新營區","LI":"埤寮里","LIN":"10鄰","STREET":" ","SECT":" ","MAREA":"埤寮","LANE":" ","ALLEY":" ","HOUSE_NO":"７２號之２","E_COORD97":180421.35999999999,"N_COORD97":2580885.3599999999,"ADDRESS":"埤寮７２號之２","OBJECTID":319785},"geometry":{"x":180421.36000000034,"y":2580885.3600000013}},{"attributes":{"ID":319794,"DIS_CODE":0,"TOWNNAME":"新營區","LI":"五興里","LIN":"6鄰","STREET":" ","SECT":" ","MAREA":"五間厝","LANE":" ","ALLEY":" ","HOUSE_NO":"７１號之２","E_COORD97":175836.19,"N_COORD97":2574673.7400000002,"ADDRESS":"五間厝７１之２號","OBJECTID":319786},"geometry":{"x":175836.19000000134,"y":2574673.7400000002}},{"attributes":{"ID":319795,"DIS_CODE":0,"TOWNNAME":"新營區","LI":"五興里","LIN":" ","STREET":" ","SECT":" ","MAREA":"五間厝","LANE":" ","ALLEY":" ","HOUSE_NO":"１０１之１號","E_COORD97":175637.10999999999,"N_COORD97":2574923.9300000002,"ADDRESS":"五間厝１０１之１號","OBJECTID":319787},"geometry":{"x":175637.11000000034,"y":2574923.9299999997}},{"attributes":{"ID":319796,"DIS_CODE":0,"TOWNNAME":"新營區","LI":"埤寮里","LIN":"12鄰","STREET":" ","SECT":" ","MAREA":"埤寮","LANE":" ","ALLEY":" ","HOUSE_NO":"９１號之２","E_COORD97":180427.66,"N_COORD97":2580714.79,"ADDRESS":"埤寮９１號之２","OBJECTID":319788},"geometry":{"x":180427.66000000015,"y":2580714.7899999991}},{"attributes":{"ID":319797,"DIS_CODE":0,"TOWNNAME":"東區","LI":"東門里","LIN":"15鄰","STREET":"東門路","SECT":"一段","MAREA":" ","LANE":"１３５巷","ALLEY":" ","HOUSE_NO":"２２號","E_COORD97":169517.31,"N_COORD97":2543264.3599999999,"ADDRESS":"東門路一段１３５巷２２號","OBJECTID":319789},"geometry":{"x":169517.30999999959,"y":2543264.3599999994}},{"attributes":{"ID":319798,"DIS_CODE":0,"TOWNNAME":"東區","LI":"東門里","LIN":"15鄰","STREET":"東門路","SECT":"一段","MAREA":" ","LANE":"１３５巷","ALLEY":" ","HOUSE_NO":"２４號","E_COORD97":169517.82999999999,"N_COORD97":2543268.5899999999,"ADDRESS":"東門路一段１３５巷２４號","OBJECTID":319790},"geometry":{"x":169517.83000000007,"y":2543268.5900000017}},{"attributes":{"ID":319799,"DIS_CODE":0,"TOWNNAME":"新營區","LI":"太南里","LIN":"13鄰","STREET":" ","SECT":" ","MAREA":"太子宮","LANE":" ","ALLEY":" ","HOUSE_NO":"２８１之３號","E_COORD97":176129.62,"N_COORD97":2576631.3799999999,"ADDRESS":"太子宮２８１之３號","OBJECTID":319791},"geometry":{"x":176129.62000000104,"y":2576631.379999999}},{"attributes":{"ID":319800,"DIS_CODE":0,"TOWNNAME":"新營區","LI":"太南里","LIN":"4鄰","STREET":" ","SECT":" ","MAREA":"太子宮","LANE":" ","ALLEY":" ","HOUSE_NO":"３２９號","E_COORD97":176369.78,"N_COORD97":2577081.9700000002,"ADDRESS":"太子宮３２９號","OBJECTID":319792},"geometry":{"x":176369.78000000026,"y":2577081.9700000025}},{"attributes":{"ID":319801,"DIS_CODE":0,"TOWNNAME":"新營區","LI":"埤寮里","LIN":"6鄰","STREET":" ","SECT":" ","MAREA":"埤寮","LANE":" ","ALLEY":" ","HOUSE_NO":"２２號之５","E_COORD97":180352.09,"N_COORD97":2580718.4700000002,"ADDRESS":"埤寮２２號之５","OBJECTID":319793},"geometry":{"x":180352.09000000078,"y":2580718.4700000007}},{"attributes":{"ID":319802,"DIS_CODE":0,"TOWNNAME":"新營區","LI":"埤寮里","LIN":"12鄰","STREET":" ","SECT":" ","MAREA":"埤寮","LANE":" ","ALLEY":" ","HOUSE_NO":"９３號之１","E_COORD97":180480.07999999999,"N_COORD97":2580772.1299999999,"ADDRESS":"埤寮９３號之１","OBJECTID":319794},"geometry":{"x":180480.08000000007,"y":2580772.1300000008}},{"attributes":{"ID":319803,"DIS_CODE":0,"TOWNNAME":"新營區","LI":"鐵線里","LIN":" ","STREET":" ","SECT":" ","MAREA":"鐵線橋","LANE":" ","ALLEY":" ","HOUSE_NO":"１５之８號","E_COORD97":176114.10000000001,"N_COORD97":2573985.7400000002,"ADDRESS":"鐵線橋１５之８號","OBJECTID":319795},"geometry":{"x":176114.10000000056,"y":2573985.7400000002}},{"attributes":{"ID":319804,"DIS_CODE":0,"TOWNNAME":"新營區","LI":"埤寮里","LIN":" ","STREET":" ","SECT":" ","MAREA":"埤寮","LANE":" ","ALLEY":" ","HOUSE_NO":"１３號","E_COORD97":180220.39999999999,"N_COORD97":2580879.6000000001,"ADDRESS":"埤寮１３號","OBJECTID":319796},"geometry":{"x":180220.4000000013,"y":2580879.5999999996}},{"attributes":{"ID":319805,"DIS_CODE":0,"TOWNNAME":"新營區","LI":"埤寮里","LIN":"5鄰","STREET":" ","SECT":" ","MAREA":"埤寮","LANE":" ","ALLEY":" ","HOUSE_NO":"１３號之５","E_COORD97":180184.95999999999,"N_COORD97":2580858.79,"ADDRESS":"埤寮１３號之５","OBJECTID":319797},"geometry":{"x":180184.96000000183,"y":2580858.790000001}},{"attributes":{"ID":319806,"DIS_CODE":0,"TOWNNAME":"新營區","LI":"太南里","LIN":"4鄰","STREET":" ","SECT":" ","MAREA":"太子宮","LANE":" ","ALLEY":" ","HOUSE_NO":"３３２之１５號","E_COORD97":176340.79000000001,"N_COORD97":2577082.1800000002,"ADDRESS":"太子宮３３２之１５號","OBJECTID":319798},"geometry":{"x":176340.79000000004,"y":2577082.1800000034}},{"attributes":{"ID":319807,"DIS_CODE":0,"TOWNNAME":"新營區","LI":"五興里","LIN":"5鄰","STREET":" ","SECT":" ","MAREA":"五間厝","LANE":" ","ALLEY":" ","HOUSE_NO":"５２號之２","E_COORD97":175696.48999999999,"N_COORD97":2574768.5699999998,"ADDRESS":"五間厝５２之２號","OBJECTID":319799},"geometry":{"x":175696.49000000115,"y":2574768.5700000022}},{"attributes":{"ID":319808,"DIS_CODE":0,"TOWNNAME":"新營區","LI":"土庫里","LIN":"14鄰","STREET":" ","SECT":" ","MAREA":"土庫","LANE":" ","ALLEY":" ","HOUSE_NO":"１１４號","E_COORD97":183243.70999999999,"N_COORD97":2579747.1400000001,"ADDRESS":"土庫１１４號","OBJECTID":319800},"geometry":{"x":183243.71000000089,"y":2579747.1400000006}}]}