{"displayFieldName":"TOWNNAME","fieldAliases":{"ID":"ID","DIS_CODE":"DIS_CODE","TOWNNAME":"TOWNNAME","LI":"LI","LIN":"LIN","STREET":"STREET","SECT":"SECT","MAREA":"MAREA","LANE":"LANE","ALLEY":"ALLEY","HOUSE_NO":"HOUSE_NO","E_COORD97":"E_COORD97","N_COORD97":"N_COORD97","ADDRESS":"ADDRESS","OBJECTID":"OBJECTID"},"geometryType":"esriGeometryPoint","spatialReference":{"wkid":102443,"latestWkid":3826},"fields":[{"name":"ID","type":"esriFieldTypeDouble","alias":"ID"},{"name":"DIS_CODE","type":"esriFieldTypeInteger","alias":"DIS_CODE"},{"name":"TOWNNAME","type":"esriFieldTypeString","alias":"TOWNNAME","length":8},{"name":"LI","type":"esriFieldTypeString","alias":"LI","length":8},{"name":"LIN","type":"esriFieldTypeString","alias":"LIN","length":12},{"name":"STREET","type":"esriFieldTypeString","alias":"STREET","length":20},{"name":"SECT","type":"esriFieldTypeString","alias":"SECT","length":8},{"name":"MAREA","type":"esriFieldTypeString","alias":"MAREA","length":12},{"name":"LANE","type":"esriFieldTypeString","alias":"LANE","length":10},{"name":"ALLEY","type":"esriFieldTypeString","alias":"ALLEY","length":10},{"name":"HOUSE_NO","type":"esriFieldTypeString","alias":"HOUSE_NO","length":20},{"name":"E_COORD97","type":"esriFieldTypeDouble","alias":"E_COORD97"},{"name":"N_COORD97","type":"esriFieldTypeDouble","alias":"N_COORD97"},{"name":"ADDRESS","type":"esriFieldTypeString","alias":"ADDRESS","length":50},{"name":"OBJECTID","type":"esriFieldTypeOID","alias":"OBJECTID"}],"features":[{"attributes":{"ID":543028,"DIS_CODE":0,"TOWNNAME":"關廟區","LI":"北勢里","LIN":"12鄰","STREET":"仁愛路","SECT":" ","MAREA":" ","LANE":" ","ALLEY":" ","HOUSE_NO":"２６６號","E_COORD97":181465.19,"N_COORD97":2540575.2799999998,"ADDRESS":"仁愛路２６６號","OBJECTID":543001},"geometry":{"x":181465.19000000041,"y":2540575.2800000012}},{"attributes":{"ID":543029,"DIS_CODE":0,"TOWNNAME":"關廟區","LI":"北勢里","LIN":"12鄰","STREET":"仁愛路","SECT":" ","MAREA":" ","LANE":" ","ALLEY":" ","HOUSE_NO":"２４２號","E_COORD97":181451.79000000001,"N_COORD97":2540538.2799999998,"ADDRESS":"仁愛路２４２號","OBJECTID":543002},"geometry":{"x":181451.79000000004,"y":2540538.2799999993}},{"attributes":{"ID":543030,"DIS_CODE":0,"TOWNNAME":"關廟區","LI":"北勢里","LIN":"12鄰","STREET":"成功路","SECT":" ","MAREA":" ","LANE":" ","ALLEY":" ","HOUSE_NO":"２７２號","E_COORD97":181457.97,"N_COORD97":2540490.27,"ADDRESS":"成功路２７２號","OBJECTID":543003},"geometry":{"x":181457.97000000067,"y":2540490.2700000014}},{"attributes":{"ID":543031,"DIS_CODE":0,"TOWNNAME":"關廟區","LI":"南花里","LIN":"12鄰","STREET":"和平路","SECT":" ","MAREA":" ","LANE":" ","ALLEY":" ","HOUSE_NO":"２８０號","E_COORD97":181666.73999999999,"N_COORD97":2539975.25,"ADDRESS":"和平路２８０號","OBJECTID":543004},"geometry":{"x":181666.74000000209,"y":2539975.2500000019}},{"attributes":{"ID":543032,"DIS_CODE":0,"TOWNNAME":"關廟區","LI":"五甲里","LIN":"12鄰","STREET":"東興路","SECT":" ","MAREA":" ","LANE":" ","ALLEY":" ","HOUSE_NO":"２３號","E_COORD97":181315.82000000001,"N_COORD97":2539555.25,"ADDRESS":"東興路２３號","OBJECTID":543005},"geometry":{"x":181315.82000000123,"y":2539555.2500000019}},{"attributes":{"ID":543033,"DIS_CODE":0,"TOWNNAME":"關廟區","LI":"五甲里","LIN":"12鄰","STREET":"東興一街","SECT":" ","MAREA":" ","LANE":" ","ALLEY":" ","HOUSE_NO":"２１號","E_COORD97":181240.67000000001,"N_COORD97":2539579.25,"ADDRESS":"東興一街２１號","OBJECTID":543006},"geometry":{"x":181240.66999999993,"y":2539579.2500000019}},{"attributes":{"ID":543034,"DIS_CODE":0,"TOWNNAME":"關廟區","LI":"五甲里","LIN":"12鄰","STREET":"東興路","SECT":" ","MAREA":" ","LANE":" ","ALLEY":" ","HOUSE_NO":"１０號","E_COORD97":181268.62,"N_COORD97":2539525.25,"ADDRESS":"東興路１０號","OBJECTID":543007},"geometry":{"x":181268.62000000011,"y":2539525.25}},{"attributes":{"ID":543035,"DIS_CODE":0,"TOWNNAME":"關廟區","LI":"五甲里","LIN":"12鄰","STREET":"東興一街","SECT":" ","MAREA":" ","LANE":" ","ALLEY":" ","HOUSE_NO":"１１號","E_COORD97":181233.37,"N_COORD97":2539598.25,"ADDRESS":"東興一街１１號","OBJECTID":543008},"geometry":{"x":181233.37000000197,"y":2539598.2500000037}},{"attributes":{"ID":543036,"DIS_CODE":0,"TOWNNAME":"關廟區","LI":"五甲里","LIN":"12鄰","STREET":"南雄路","SECT":"一段","MAREA":" ","LANE":" ","ALLEY":" ","HOUSE_NO":"１０７６號","E_COORD97":181125.54999999999,"N_COORD97":2539701.1699999999,"ADDRESS":"南雄路一段１０７６號","OBJECTID":543009},"geometry":{"x":181125.55000000075,"y":2539701.1700000018}},{"attributes":{"ID":543037,"DIS_CODE":0,"TOWNNAME":"關廟區","LI":"五甲里","LIN":"12鄰","STREET":"南雄路","SECT":"一段","MAREA":" ","LANE":" ","ALLEY":" ","HOUSE_NO":"１０３８號","E_COORD97":181155.04999999999,"N_COORD97":2539632.1699999999,"ADDRESS":"南雄路一段１０３８號","OBJECTID":543010},"geometry":{"x":181155.04999999981,"y":2539632.1699999999}},{"attributes":{"ID":543038,"DIS_CODE":0,"TOWNNAME":"關廟區","LI":"山西里","LIN":"12鄰","STREET":"忠孝街","SECT":" ","MAREA":" ","LANE":" ","ALLEY":" ","HOUSE_NO":"１７３號","E_COORD97":181093.64000000001,"N_COORD97":2540502.25,"ADDRESS":"忠孝街１７３號","OBJECTID":543011},"geometry":{"x":181093.63999999873,"y":2540502.25}},{"attributes":{"ID":543039,"DIS_CODE":0,"TOWNNAME":"關廟區","LI":"山西里","LIN":"12鄰","STREET":"忠孝街","SECT":" ","MAREA":" ","LANE":" ","ALLEY":" ","HOUSE_NO":"１６９號","E_COORD97":181089.73999999999,"N_COORD97":2540495.25,"ADDRESS":"忠孝街１６９號","OBJECTID":543012},"geometry":{"x":181089.74000000022,"y":2540495.25}},{"attributes":{"ID":543040,"DIS_CODE":0,"TOWNNAME":"關廟區","LI":"南花里","LIN":"12鄰","STREET":"和平路","SECT":" ","MAREA":" ","LANE":" ","ALLEY":" ","HOUSE_NO":"２６８號","E_COORD97":181689.73999999999,"N_COORD97":2539962.25,"ADDRESS":"和平路２６８號","OBJECTID":543013},"geometry":{"x":181689.74000000022,"y":2539962.2500000019}},{"attributes":{"ID":543041,"DIS_CODE":0,"TOWNNAME":"關廟區","LI":"五甲里","LIN":"12鄰","STREET":"南雄路","SECT":"一段","MAREA":" ","LANE":" ","ALLEY":" ","HOUSE_NO":"９９２號","E_COORD97":181191.29000000001,"N_COORD97":2539558.2799999998,"ADDRESS":"南雄路一段９９２號","OBJECTID":543014},"geometry":{"x":181191.29000000004,"y":2539558.2799999993}},{"attributes":{"ID":543042,"DIS_CODE":0,"TOWNNAME":"關廟區","LI":"五甲里","LIN":"12鄰","STREET":"南雄路","SECT":"一段","MAREA":" ","LANE":" ","ALLEY":" ","HOUSE_NO":"１０１６號","E_COORD97":181182.14000000001,"N_COORD97":2539599.2799999998,"ADDRESS":"南雄路一段１０１６號","OBJECTID":543015},"geometry":{"x":181182.1400000006,"y":2539599.2799999993}},{"attributes":{"ID":543043,"DIS_CODE":0,"TOWNNAME":"關廟區","LI":"山西里","LIN":"12鄰","STREET":"忠孝街","SECT":" ","MAREA":" ","LANE":" ","ALLEY":" ","HOUSE_NO":"１６７號","E_COORD97":181087.44,"N_COORD97":2540490.25,"ADDRESS":"忠孝街１６７號","OBJECTID":543016},"geometry":{"x":181087.44000000227,"y":2540490.2500000019}},{"attributes":{"ID":543044,"DIS_CODE":0,"TOWNNAME":"關廟區","LI":"五甲里","LIN":"12鄰","STREET":"南雄路","SECT":"一段","MAREA":" ","LANE":" ","ALLEY":" ","HOUSE_NO":"１００２號","E_COORD97":181187.14000000001,"N_COORD97":2539570.2799999998,"ADDRESS":"南雄路一段１００２號","OBJECTID":543017},"geometry":{"x":181187.1400000006,"y":2539570.2800000031}},{"attributes":{"ID":543045,"DIS_CODE":0,"TOWNNAME":"關廟區","LI":"山西里","LIN":"12鄰","STREET":"崇尚街","SECT":" ","MAREA":" ","LANE":" ","ALLEY":" ","HOUSE_NO":"１５號","E_COORD97":181051.72,"N_COORD97":2540515.25,"ADDRESS":"崇尚街１５號","OBJECTID":543018},"geometry":{"x":181051.72000000067,"y":2540515.25}},{"attributes":{"ID":543046,"DIS_CODE":0,"TOWNNAME":"關廟區","LI":"香洋里","LIN":"12鄰","STREET":"中央路","SECT":" ","MAREA":" ","LANE":" ","ALLEY":" ","HOUSE_NO":"１９１號","E_COORD97":181195.66,"N_COORD97":2540072.3199999998,"ADDRESS":"中央路１９１號","OBJECTID":543019},"geometry":{"x":181195.66000000015,"y":2540072.3200000003}},{"attributes":{"ID":543047,"DIS_CODE":0,"TOWNNAME":"關廟區","LI":"新光里","LIN":"12鄰","STREET":"南寮街","SECT":" ","MAREA":" ","LANE":" ","ALLEY":" ","HOUSE_NO":"８２號","E_COORD97":184509.01999999999,"N_COORD97":2541437.25,"ADDRESS":"南寮街８２號","OBJECTID":543020},"geometry":{"x":184509.02000000048,"y":2541437.2500000019}},{"attributes":{"ID":543048,"DIS_CODE":0,"TOWNNAME":"關廟區","LI":"南花里","LIN":"12鄰","STREET":"中山路","SECT":"一段","MAREA":" ","LANE":" ","ALLEY":" ","HOUSE_NO":"３３０號","E_COORD97":181703.26000000001,"N_COORD97":2539916.2799999998,"ADDRESS":"中山路一段３３０號","OBJECTID":543021},"geometry":{"x":181703.26000000164,"y":2539916.2800000012}},{"attributes":{"ID":543049,"DIS_CODE":0,"TOWNNAME":"關廟區","LI":"五甲里","LIN":"12鄰","STREET":"東興一街","SECT":" ","MAREA":" ","LANE":" ","ALLEY":" ","HOUSE_NO":"２２號","E_COORD97":181229.57000000001,"N_COORD97":2539571.25,"ADDRESS":"東興一街２２號","OBJECTID":543022},"geometry":{"x":181229.57000000123,"y":2539571.2500000037}},{"attributes":{"ID":543050,"DIS_CODE":0,"TOWNNAME":"關廟區","LI":"五甲里","LIN":"12鄰","STREET":"南雄路","SECT":"一段","MAREA":" ","LANE":" ","ALLEY":" ","HOUSE_NO":"９９６號","E_COORD97":181212.39000000001,"N_COORD97":2539565.2799999998,"ADDRESS":"南雄路一段９９６號","OBJECTID":543023},"geometry":{"x":181212.39000000153,"y":2539565.2799999993}},{"attributes":{"ID":543051,"DIS_CODE":0,"TOWNNAME":"關廟區","LI":"五甲里","LIN":"12鄰","STREET":"民安街","SECT":" ","MAREA":" ","LANE":" ","ALLEY":" ","HOUSE_NO":"７５號","E_COORD97":181253.54000000001,"N_COORD97":2539622.3199999998,"ADDRESS":"民安街７５號","OBJECTID":543024},"geometry":{"x":181253.54000000004,"y":2539622.3200000022}},{"attributes":{"ID":543052,"DIS_CODE":0,"TOWNNAME":"關廟區","LI":"香洋里","LIN":"12鄰","STREET":"中山路","SECT":"一段","MAREA":" ","LANE":" ","ALLEY":" ","HOUSE_NO":"５９８號","E_COORD97":181181.66,"N_COORD97":2539979.2799999998,"ADDRESS":"中山路一段５９８號","OBJECTID":543025},"geometry":{"x":181181.66000000015,"y":2539979.2799999993}},{"attributes":{"ID":543053,"DIS_CODE":0,"TOWNNAME":"關廟區","LI":"五甲里","LIN":"12鄰","STREET":"東興路","SECT":" ","MAREA":" ","LANE":" ","ALLEY":" ","HOUSE_NO":"２９號","E_COORD97":181331.51999999999,"N_COORD97":2539559.25,"ADDRESS":"東興路２９號","OBJECTID":543026},"geometry":{"x":181331.51999999955,"y":2539559.25}},{"attributes":{"ID":543054,"DIS_CODE":0,"TOWNNAME":"關廟區","LI":"山西里","LIN":"12鄰","STREET":"成功路","SECT":" ","MAREA":" ","LANE":" ","ALLEY":" ","HOUSE_NO":"４０９號","E_COORD97":181089.76999999999,"N_COORD97":2540553.27,"ADDRESS":"成功路４０９號","OBJECTID":543027},"geometry":{"x":181089.77000000048,"y":2540553.2699999996}},{"attributes":{"ID":543055,"DIS_CODE":0,"TOWNNAME":"關廟區","LI":"關廟里","LIN":"12鄰","STREET":"民生街","SECT":" ","MAREA":" ","LANE":" ","ALLEY":" ","HOUSE_NO":"１４０號","E_COORD97":180857.48999999999,"N_COORD97":2539778.29,"ADDRESS":"民生街１４０號","OBJECTID":543028},"geometry":{"x":180857.49000000022,"y":2539778.2899999991}},{"attributes":{"ID":543056,"DIS_CODE":0,"TOWNNAME":"關廟區","LI":"香洋里","LIN":"12鄰","STREET":"中央路","SECT":" ","MAREA":" ","LANE":" ","ALLEY":" ","HOUSE_NO":"１８５號","E_COORD97":181206.76000000001,"N_COORD97":2540068.3199999998,"ADDRESS":"中央路１８５號","OBJECTID":543029},"geometry":{"x":181206.76000000164,"y":2540068.3200000003}},{"attributes":{"ID":543057,"DIS_CODE":0,"TOWNNAME":"關廟區","LI":"香洋里","LIN":"12鄰","STREET":"中央路","SECT":" ","MAREA":" ","LANE":" ","ALLEY":" ","HOUSE_NO":"１７３號","E_COORD97":181231.35999999999,"N_COORD97":2540061.3199999998,"ADDRESS":"中央路１７３號","OBJECTID":543030},"geometry":{"x":181231.36000000034,"y":2540061.3200000003}},{"attributes":{"ID":543058,"DIS_CODE":0,"TOWNNAME":"關廟區","LI":"山西里","LIN":"12鄰","STREET":"成功路","SECT":" ","MAREA":" ","LANE":" ","ALLEY":" ","HOUSE_NO":"４２７號","E_COORD97":181057.57000000001,"N_COORD97":2540568.27,"ADDRESS":"成功路４２７號","OBJECTID":543031},"geometry":{"x":181057.57000000216,"y":2540568.2700000014}},{"attributes":{"ID":543059,"DIS_CODE":0,"TOWNNAME":"關廟區","LI":"香洋里","LIN":"12鄰","STREET":"中央路","SECT":" ","MAREA":" ","LANE":" ","ALLEY":" ","HOUSE_NO":"１７９號","E_COORD97":181219.45999999999,"N_COORD97":2540064.3199999998,"ADDRESS":"中央路１７９號","OBJECTID":543032},"geometry":{"x":181219.46000000089,"y":2540064.3200000003}},{"attributes":{"ID":543060,"DIS_CODE":0,"TOWNNAME":"關廟區","LI":"山西里","LIN":"12鄰","STREET":"成功路","SECT":" ","MAREA":" ","LANE":" ","ALLEY":" ","HOUSE_NO":"４２３號","E_COORD97":181066.76999999999,"N_COORD97":2540566.27,"ADDRESS":"成功路４２３號","OBJECTID":543033},"geometry":{"x":181066.76999999955,"y":2540566.2699999996}},{"attributes":{"ID":543061,"DIS_CODE":0,"TOWNNAME":"關廟區","LI":"山西里","LIN":"12鄰","STREET":"忠孝街","SECT":" ","MAREA":" ","LANE":" ","ALLEY":" ","HOUSE_NO":"１６１號","E_COORD97":181080.14000000001,"N_COORD97":2540471.25,"ADDRESS":"忠孝街１６１號","OBJECTID":543034},"geometry":{"x":181080.14000000153,"y":2540471.25}},{"attributes":{"ID":543062,"DIS_CODE":0,"TOWNNAME":"關廟區","LI":"山西里","LIN":"12鄰","STREET":"忠孝街","SECT":" ","MAREA":" ","LANE":" ","ALLEY":" ","HOUSE_NO":"１８７號","E_COORD97":181106.23999999999,"N_COORD97":2540531.25,"ADDRESS":"忠孝街１８７號","OBJECTID":543035},"geometry":{"x":181106.24000000115,"y":2540531.2500000019}},{"attributes":{"ID":543063,"DIS_CODE":0,"TOWNNAME":"關廟區","LI":"山西里","LIN":"12鄰","STREET":"忠孝街","SECT":" ","MAREA":" ","LANE":" ","ALLEY":" ","HOUSE_NO":"１７１號","E_COORD97":181091.64000000001,"N_COORD97":2540498.25,"ADDRESS":"忠孝街１７１號","OBJECTID":543036},"geometry":{"x":181091.63999999966,"y":2540498.2500000019}},{"attributes":{"ID":543064,"DIS_CODE":0,"TOWNNAME":"關廟區","LI":"山西里","LIN":"12鄰","STREET":"忠孝街","SECT":" ","MAREA":" ","LANE":" ","ALLEY":" ","HOUSE_NO":"１８３號","E_COORD97":181104.73999999999,"N_COORD97":2540526.25,"ADDRESS":"忠孝街１８３號","OBJECTID":543037},"geometry":{"x":181104.74000000022,"y":2540526.25}},{"attributes":{"ID":543065,"DIS_CODE":0,"TOWNNAME":"關廟區","LI":"北勢里","LIN":"12鄰","STREET":"仁愛路","SECT":" ","MAREA":" ","LANE":" ","ALLEY":" ","HOUSE_NO":"２２６號","E_COORD97":181439.48999999999,"N_COORD97":2540510.2799999998,"ADDRESS":"仁愛路２２６號","OBJECTID":543038},"geometry":{"x":181439.49000000209,"y":2540510.2800000012}},{"attributes":{"ID":543066,"DIS_CODE":0,"TOWNNAME":"關廟區","LI":"北勢里","LIN":"12鄰","STREET":"仁愛路","SECT":" ","MAREA":" ","LANE":" ","ALLEY":" ","HOUSE_NO":"２７２號","E_COORD97":181469.79000000001,"N_COORD97":2540586.2799999998,"ADDRESS":"仁愛路２７２號","OBJECTID":543039},"geometry":{"x":181469.79000000097,"y":2540586.2799999993}},{"attributes":{"ID":543067,"DIS_CODE":0,"TOWNNAME":"關廟區","LI":"山西里","LIN":"12鄰","STREET":"忠孝街","SECT":" ","MAREA":" ","LANE":" ","ALLEY":" ","HOUSE_NO":"１９３號","E_COORD97":181110.94,"N_COORD97":2540543.25,"ADDRESS":"忠孝街１９３號","OBJECTID":543040},"geometry":{"x":181110.94000000041,"y":2540543.25}},{"attributes":{"ID":543068,"DIS_CODE":0,"TOWNNAME":"關廟區","LI":"山西里","LIN":"12鄰","STREET":"忠孝街","SECT":" ","MAREA":" ","LANE":" ","ALLEY":" ","HOUSE_NO":"１８９號","E_COORD97":181108.23999999999,"N_COORD97":2540535.25,"ADDRESS":"忠孝街１８９號","OBJECTID":543041},"geometry":{"x":181108.24000000022,"y":2540535.2500000019}},{"attributes":{"ID":543069,"DIS_CODE":0,"TOWNNAME":"關廟區","LI":"山西里","LIN":"12鄰","STREET":"崇尚街","SECT":" ","MAREA":" ","LANE":" ","ALLEY":" ","HOUSE_NO":"１８號","E_COORD97":181060.51999999999,"N_COORD97":2540525.25,"ADDRESS":"崇尚街１８號","OBJECTID":543042},"geometry":{"x":181060.52000000142,"y":2540525.2500000019}},{"attributes":{"ID":543070,"DIS_CODE":0,"TOWNNAME":"關廟區","LI":"北勢里","LIN":"12鄰","STREET":"仁愛路","SECT":" ","MAREA":" ","LANE":" ","ALLEY":" ","HOUSE_NO":"２３８號","E_COORD97":181447.59,"N_COORD97":2540530.2799999998,"ADDRESS":"仁愛路２３８號","OBJECTID":543043},"geometry":{"x":181447.59000000078,"y":2540530.2800000012}},{"attributes":{"ID":543071,"DIS_CODE":0,"TOWNNAME":"南區","LI":"金華里","LIN":"12鄰","STREET":"賢南街","SECT":" ","MAREA":" ","LANE":" ","ALLEY":" ","HOUSE_NO":"１９號","E_COORD97":166895.59,"N_COORD97":2542415.3399999999,"ADDRESS":"賢南街１９號","OBJECTID":543044},"geometry":{"x":166895.59000000078,"y":2542415.3400000017}},{"attributes":{"ID":543072,"DIS_CODE":0,"TOWNNAME":"南區","LI":"金華里","LIN":"12鄰","STREET":"賢南街","SECT":" ","MAREA":" ","LANE":" ","ALLEY":" ","HOUSE_NO":"２１號","E_COORD97":166891.12,"N_COORD97":2542415.3399999999,"ADDRESS":"賢南街２１號","OBJECTID":543045},"geometry":{"x":166891.12000000104,"y":2542415.3400000017}},{"attributes":{"ID":543073,"DIS_CODE":0,"TOWNNAME":"北區","LI":"長榮里","LIN":"12鄰","STREET":"長榮路","SECT":"五段","MAREA":" ","LANE":" ","ALLEY":" ","HOUSE_NO":"１９號","E_COORD97":170102.23999999999,"N_COORD97":2545400.02,"ADDRESS":"長榮路五段１９號","OBJECTID":543046},"geometry":{"x":170102.24000000115,"y":2545400.0200000033}},{"attributes":{"ID":543074,"DIS_CODE":0,"TOWNNAME":"仁德區","LI":"二行里","LIN":"20鄰","STREET":"行大街","SECT":" ","MAREA":" ","LANE":" ","ALLEY":" ","HOUSE_NO":"２０８號","E_COORD97":169874.95000000001,"N_COORD97":2535105.4900000002,"ADDRESS":"行大街２０８號","OBJECTID":543047},"geometry":{"x":169874.95000000019,"y":2535105.4900000021}},{"attributes":{"ID":543075,"DIS_CODE":0,"TOWNNAME":"南區","LI":"松安里","LIN":"12鄰","STREET":"灣裡路","SECT":" ","MAREA":" ","LANE":" ","ALLEY":" ","HOUSE_NO":"４４４號","E_COORD97":166215.19,"N_COORD97":2536060.9500000002,"ADDRESS":"灣裡路４４４號","OBJECTID":543048},"geometry":{"x":166215.19000000041,"y":2536060.9500000011}},{"attributes":{"ID":543076,"DIS_CODE":0,"TOWNNAME":"南區","LI":"松安里","LIN":"12鄰","STREET":"灣裡路","SECT":" ","MAREA":" ","LANE":" ","ALLEY":" ","HOUSE_NO":"４４６號","E_COORD97":166215.19,"N_COORD97":2536056.5699999998,"ADDRESS":"灣裡路４４６號","OBJECTID":543049},"geometry":{"x":166215.19000000041,"y":2536056.570000004}},{"attributes":{"ID":543077,"DIS_CODE":0,"TOWNNAME":"新營區","LI":"民榮里","LIN":"12鄰","STREET":"新進路","SECT":"二段","MAREA":" ","LANE":" ","ALLEY":" ","HOUSE_NO":"１８８號","E_COORD97":179207.48000000001,"N_COORD97":2577744.79,"ADDRESS":"新進路二段１８８號","OBJECTID":543050},"geometry":{"x":179207.48000000138,"y":2577744.7899999991}},{"attributes":{"ID":543078,"DIS_CODE":0,"TOWNNAME":"新營區","LI":"好平里","LIN":"12鄰","STREET":"復興路","SECT":" ","MAREA":" ","LANE":" ","ALLEY":" ","HOUSE_NO":"１０７號","E_COORD97":179489.16,"N_COORD97":2578038.0299999998,"ADDRESS":"復興路１０７號","OBJECTID":543051},"geometry":{"x":179489.16000000108,"y":2578038.0299999993}},{"attributes":{"ID":543079,"DIS_CODE":0,"TOWNNAME":"新營區","LI":"新北里","LIN":"12鄰","STREET":"南新街","SECT":" ","MAREA":" ","LANE":" ","ALLEY":" ","HOUSE_NO":"１６２號之１","E_COORD97":179312.54000000001,"N_COORD97":2578947.0499999998,"ADDRESS":"南新街１６２號之１","OBJECTID":543052},"geometry":{"x":179312.54000000004,"y":2578947.0500000026}},{"attributes":{"ID":543080,"DIS_CODE":0,"TOWNNAME":"新營區","LI":"新北里","LIN":"12鄰","STREET":"南新街","SECT":" ","MAREA":" ","LANE":" ","ALLEY":" ","HOUSE_NO":"４０號","E_COORD97":179349.85000000001,"N_COORD97":2578885.8900000001,"ADDRESS":"南新街４０號","OBJECTID":543053},"geometry":{"x":179349.85000000056,"y":2578885.8900000025}},{"attributes":{"ID":543081,"DIS_CODE":0,"TOWNNAME":"新營區","LI":"民榮里","LIN":"12鄰","STREET":"興農街","SECT":" ","MAREA":" ","LANE":" ","ALLEY":" ","HOUSE_NO":"６８號","E_COORD97":179254.76000000001,"N_COORD97":2577836.48,"ADDRESS":"興農街６８號","OBJECTID":543054},"geometry":{"x":179254.75999999978,"y":2577836.4800000004}},{"attributes":{"ID":543082,"DIS_CODE":0,"TOWNNAME":"新營區","LI":"新北里","LIN":"12鄰","STREET":"南新街","SECT":" ","MAREA":" ","LANE":" ","ALLEY":" ","HOUSE_NO":"１７０號之１","E_COORD97":179327.91,"N_COORD97":2578953.6200000001,"ADDRESS":"南新街１７０號之１","OBJECTID":543055},"geometry":{"x":179327.91000000108,"y":2578953.6200000029}},{"attributes":{"ID":543083,"DIS_CODE":0,"TOWNNAME":"新營區","LI":"民榮里","LIN":"12鄰","STREET":"新進路","SECT":"二段","MAREA":" ","LANE":" ","ALLEY":" ","HOUSE_NO":"１９４號","E_COORD97":179193.17000000001,"N_COORD97":2577745.9700000002,"ADDRESS":"新進路二段１９４號","OBJECTID":543056},"geometry":{"x":179193.16999999993,"y":2577745.9700000044}},{"attributes":{"ID":543084,"DIS_CODE":0,"TOWNNAME":"新營區","LI":"新北里","LIN":"12鄰","STREET":"南新街","SECT":" ","MAREA":" ","LANE":" ","ALLEY":" ","HOUSE_NO":"１６６號","E_COORD97":179325.76999999999,"N_COORD97":2578953.5699999998,"ADDRESS":"南新街１６６號","OBJECTID":543057},"geometry":{"x":179325.76999999955,"y":2578953.5700000003}},{"attributes":{"ID":543085,"DIS_CODE":0,"TOWNNAME":"新營區","LI":"新北里","LIN":"12鄰","STREET":"南新街","SECT":" ","MAREA":" ","LANE":" ","ALLEY":" ","HOUSE_NO":"３２號","E_COORD97":179352.81,"N_COORD97":2578859.2999999998,"ADDRESS":"南新街３２號","OBJECTID":543058},"geometry":{"x":179352.80999999959,"y":2578859.3000000045}},{"attributes":{"ID":543086,"DIS_CODE":0,"TOWNNAME":"新營區","LI":"新東里","LIN":"12鄰","STREET":"東大街","SECT":" ","MAREA":" ","LANE":" ","ALLEY":" ","HOUSE_NO":"５１號","E_COORD97":181003.01999999999,"N_COORD97":2579174.8900000001,"ADDRESS":"東大街５１號","OBJECTID":543059},"geometry":{"x":181003.02000000142,"y":2579174.8900000025}},{"attributes":{"ID":543087,"DIS_CODE":0,"TOWNNAME":"新營區","LI":"忠政里","LIN":"12鄰","STREET":"中正路","SECT":" ","MAREA":" ","LANE":" ","ALLEY":" ","HOUSE_NO":"１２１號","E_COORD97":180063.53,"N_COORD97":2579665.48,"ADDRESS":"中正路１２１號","OBJECTID":543060},"geometry":{"x":180063.53000000119,"y":2579665.4800000023}},{"attributes":{"ID":543088,"DIS_CODE":0,"TOWNNAME":"新營區","LI":"新南里","LIN":"12鄰","STREET":"新北七街","SECT":" ","MAREA":" ","LANE":" ","ALLEY":" ","HOUSE_NO":"３０號","E_COORD97":178517.72,"N_COORD97":2579190,"ADDRESS":"新北七街３０號","OBJECTID":543061},"geometry":{"x":178517.71999999974,"y":2579190.0000000019}},{"attributes":{"ID":543089,"DIS_CODE":0,"TOWNNAME":"新營區","LI":"新南里","LIN":"12鄰","STREET":"新北七街","SECT":" ","MAREA":" ","LANE":" ","ALLEY":" ","HOUSE_NO":"５２號","E_COORD97":178484.78,"N_COORD97":2579161.3700000001,"ADDRESS":"新北七街５２號","OBJECTID":543062},"geometry":{"x":178484.78000000119,"y":2579161.3700000029}},{"attributes":{"ID":543090,"DIS_CODE":0,"TOWNNAME":"新營區","LI":"忠政里","LIN":"12鄰","STREET":"中正路","SECT":" ","MAREA":" ","LANE":" ","ALLEY":" ","HOUSE_NO":"１０５號","E_COORD97":180069.59,"N_COORD97":2579648.8300000001,"ADDRESS":"中正路１０５號","OBJECTID":543063},"geometry":{"x":180069.58999999985,"y":2579648.8300000019}},{"attributes":{"ID":543091,"DIS_CODE":0,"TOWNNAME":"新營區","LI":"忠政里","LIN":"12鄰","STREET":"中正路","SECT":" ","MAREA":" ","LANE":" ","ALLEY":" ","HOUSE_NO":"１０３號","E_COORD97":180070.59,"N_COORD97":2579644.3999999999,"ADDRESS":"中正路１０３號","OBJECTID":543064},"geometry":{"x":180070.59000000078,"y":2579644.3999999985}},{"attributes":{"ID":543092,"DIS_CODE":0,"TOWNNAME":"新營區","LI":"忠政里","LIN":"12鄰","STREET":"中正路","SECT":" ","MAREA":" ","LANE":" ","ALLEY":" ","HOUSE_NO":"１０１號","E_COORD97":180070.57000000001,"N_COORD97":2579639.9700000002,"ADDRESS":"中正路１０１號","OBJECTID":543065},"geometry":{"x":180070.5700000003,"y":2579639.9700000007}},{"attributes":{"ID":543093,"DIS_CODE":0,"TOWNNAME":"新營區","LI":"中營里","LIN":"12鄰","STREET":"東山路","SECT":" ","MAREA":" ","LANE":" ","ALLEY":" ","HOUSE_NO":"８號","E_COORD97":180948.26999999999,"N_COORD97":2578660.1800000002,"ADDRESS":"東山路８號","OBJECTID":543066},"geometry":{"x":180948.26999999955,"y":2578660.1800000016}},{"attributes":{"ID":543094,"DIS_CODE":0,"TOWNNAME":"新營區","LI":"新東里","LIN":"12鄰","STREET":"東大街","SECT":" ","MAREA":" ","LANE":" ","ALLEY":" ","HOUSE_NO":"４１號","E_COORD97":180998.85000000001,"N_COORD97":2579146.1200000001,"ADDRESS":"東大街４１號","OBJECTID":543067},"geometry":{"x":180998.84999999963,"y":2579146.1200000029}},{"attributes":{"ID":543095,"DIS_CODE":0,"TOWNNAME":"東山區","LI":"東中里","LIN":"12鄰","STREET":"青葉路","SECT":"一段","MAREA":" ","LANE":" ","ALLEY":" ","HOUSE_NO":"１３２號","E_COORD97":188955.54000000001,"N_COORD97":2579503.1699999999,"ADDRESS":"青葉路一段１３２號","OBJECTID":543068},"geometry":{"x":188955.5400000019,"y":2579503.1699999981}},{"attributes":{"ID":543096,"DIS_CODE":0,"TOWNNAME":"東山區","LI":"東中里","LIN":"12鄰","STREET":"青葉路","SECT":"一段","MAREA":" ","LANE":" ","ALLEY":" ","HOUSE_NO":"１５５號","E_COORD97":188836.88,"N_COORD97":2579460.4900000002,"ADDRESS":"青葉路一段１５５號","OBJECTID":543069},"geometry":{"x":188836.87999999989,"y":2579460.4900000002}},{"attributes":{"ID":543097,"DIS_CODE":0,"TOWNNAME":"東山區","LI":"東中里","LIN":"12鄰","STREET":"青葉路","SECT":"一段","MAREA":" ","LANE":" ","ALLEY":" ","HOUSE_NO":"１６１號","E_COORD97":188881.14999999999,"N_COORD97":2579491.71,"ADDRESS":"青葉路一段１６１號","OBJECTID":543070},"geometry":{"x":188881.1500000013,"y":2579491.7100000028}},{"attributes":{"ID":543098,"DIS_CODE":0,"TOWNNAME":"東山區","LI":"東中里","LIN":"12鄰","STREET":"青葉路","SECT":"一段","MAREA":" ","LANE":" ","ALLEY":" ","HOUSE_NO":"１６３號","E_COORD97":188882.62,"N_COORD97":2579495.9700000002,"ADDRESS":"青葉路一段１６３號","OBJECTID":543071},"geometry":{"x":188882.62000000104,"y":2579495.9700000025}},{"attributes":{"ID":543099,"DIS_CODE":0,"TOWNNAME":"東山區","LI":"東中里","LIN":"12鄰","STREET":"青葉路","SECT":"一段","MAREA":" ","LANE":" ","ALLEY":" ","HOUSE_NO":"１６５號","E_COORD97":188884.09,"N_COORD97":2579500.23,"ADDRESS":"青葉路一段１６５號","OBJECTID":543072},"geometry":{"x":188884.09000000078,"y":2579500.2300000042}},{"attributes":{"ID":543100,"DIS_CODE":0,"TOWNNAME":"東山區","LI":"東中里","LIN":"12鄰","STREET":"青葉路","SECT":"一段","MAREA":" ","LANE":" ","ALLEY":" ","HOUSE_NO":"１６７號","E_COORD97":188885.56,"N_COORD97":2579504.4900000002,"ADDRESS":"青葉路一段１６７號","OBJECTID":543073},"geometry":{"x":188885.56000000052,"y":2579504.4900000002}},{"attributes":{"ID":543101,"DIS_CODE":0,"TOWNNAME":"東山區","LI":"東中里","LIN":"12鄰","STREET":"青葉路","SECT":"一段","MAREA":" ","LANE":" ","ALLEY":" ","HOUSE_NO":"１６９號","E_COORD97":188887.03,"N_COORD97":2579508.7400000002,"ADDRESS":"青葉路一段１６９號","OBJECTID":543074},"geometry":{"x":188887.03000000119,"y":2579508.7400000002}},{"attributes":{"ID":543102,"DIS_CODE":0,"TOWNNAME":"東山區","LI":"東中里","LIN":"12鄰","STREET":"青葉路","SECT":"一段","MAREA":" ","LANE":" ","ALLEY":" ","HOUSE_NO":"１７１號","E_COORD97":188888.5,"N_COORD97":2579513,"ADDRESS":"青葉路一段１７１號","OBJECTID":543075},"geometry":{"x":188888.50000000093,"y":2579513.0000000019}},{"attributes":{"ID":543103,"DIS_CODE":0,"TOWNNAME":"東山區","LI":"東中里","LIN":"12鄰","STREET":"青葉路","SECT":"一段","MAREA":" ","LANE":" ","ALLEY":" ","HOUSE_NO":"１７３號","E_COORD97":188889.97,"N_COORD97":2579517.2599999998,"ADDRESS":"青葉路一段１７３號","OBJECTID":543076},"geometry":{"x":188889.97000000067,"y":2579517.2600000016}},{"attributes":{"ID":543104,"DIS_CODE":0,"TOWNNAME":"東山區","LI":"東中里","LIN":"12鄰","STREET":"青葉路","SECT":"一段","MAREA":" ","LANE":" ","ALLEY":" ","HOUSE_NO":"１７５號","E_COORD97":188891.44,"N_COORD97":2579521.5099999998,"ADDRESS":"青葉路一段１７５號","OBJECTID":543077},"geometry":{"x":188891.44000000041,"y":2579521.5100000016}},{"attributes":{"ID":543105,"DIS_CODE":0,"TOWNNAME":"東山區","LI":"東中里","LIN":"12鄰","STREET":"青葉路","SECT":"一段","MAREA":" ","LANE":" ","ALLEY":" ","HOUSE_NO":"１７７號","E_COORD97":188899.13,"N_COORD97":2579534.6099999999,"ADDRESS":"青葉路一段１７７號","OBJECTID":543078},"geometry":{"x":188899.13000000082,"y":2579534.6100000013}},{"attributes":{"ID":543106,"DIS_CODE":0,"TOWNNAME":"東山區","LI":"東中里","LIN":"12鄰","STREET":"青葉路","SECT":"一段","MAREA":" ","LANE":" ","ALLEY":" ","HOUSE_NO":"１７９號","E_COORD97":188901.32999999999,"N_COORD97":2579539.6200000001,"ADDRESS":"青葉路一段１７９號","OBJECTID":543079},"geometry":{"x":188901.33000000101,"y":2579539.6200000029}},{"attributes":{"ID":543107,"DIS_CODE":0,"TOWNNAME":"東山區","LI":"東中里","LIN":"12鄰","STREET":"青葉路","SECT":"一段","MAREA":" ","LANE":" ","ALLEY":" ","HOUSE_NO":"１８１號","E_COORD97":188902.44,"N_COORD97":2579544.9399999999,"ADDRESS":"青葉路一段１８１號","OBJECTID":543080},"geometry":{"x":188902.44000000134,"y":2579544.9399999976}},{"attributes":{"ID":543108,"DIS_CODE":0,"TOWNNAME":"東山區","LI":"東中里","LIN":"12鄰","STREET":"青葉路","SECT":"一段","MAREA":" ","LANE":" ","ALLEY":" ","HOUSE_NO":"１８３號","E_COORD97":188903.48999999999,"N_COORD97":2579549.9300000002,"ADDRESS":"青葉路一段１８３號","OBJECTID":543081},"geometry":{"x":188903.49000000209,"y":2579549.9300000016}},{"attributes":{"ID":543109,"DIS_CODE":0,"TOWNNAME":"東山區","LI":"東中里","LIN":"12鄰","STREET":"青葉路","SECT":"一段","MAREA":" ","LANE":" ","ALLEY":" ","HOUSE_NO":"１８５號","E_COORD97":188904.5,"N_COORD97":2579554.4300000002,"ADDRESS":"青葉路一段１８５號","OBJECTID":543082},"geometry":{"x":188904.5,"y":2579554.4299999997}},{"attributes":{"ID":543110,"DIS_CODE":0,"TOWNNAME":"東山區","LI":"東中里","LIN":"12鄰","STREET":"青葉路","SECT":"一段","MAREA":" ","LANE":" ","ALLEY":" ","HOUSE_NO":"１８７號","E_COORD97":188905.64000000001,"N_COORD97":2579558.7400000002,"ADDRESS":"青葉路一段１８７號","OBJECTID":543083},"geometry":{"x":188905.6400000006,"y":2579558.7400000021}},{"attributes":{"ID":543111,"DIS_CODE":0,"TOWNNAME":"東山區","LI":"東中里","LIN":"12鄰","STREET":"青葉路","SECT":"一段","MAREA":" ","LANE":" ","ALLEY":" ","HOUSE_NO":"１８９號","E_COORD97":188906.72,"N_COORD97":2579564.1099999999,"ADDRESS":"青葉路一段１８９號","OBJECTID":543084},"geometry":{"x":188906.72000000067,"y":2579564.1100000031}},{"attributes":{"ID":543112,"DIS_CODE":0,"TOWNNAME":"東山區","LI":"東中里","LIN":"12鄰","STREET":"青葉路","SECT":"一段","MAREA":" ","LANE":" ","ALLEY":" ","HOUSE_NO":"２０３號","E_COORD97":188903.72,"N_COORD97":2579598.71,"ADDRESS":"青葉路一段２０３號","OBJECTID":543085},"geometry":{"x":188903.72000000067,"y":2579598.7100000009}},{"attributes":{"ID":543113,"DIS_CODE":0,"TOWNNAME":"東山區","LI":"東中里","LIN":"12鄰","STREET":"青葉路","SECT":"一段","MAREA":" ","LANE":" ","ALLEY":" ","HOUSE_NO":"２１３號","E_COORD97":188914.32999999999,"N_COORD97":2579618.04,"ADDRESS":"青葉路一段２１３號","OBJECTID":543086},"geometry":{"x":188914.33000000007,"y":2579618.0399999991}},{"attributes":{"ID":543114,"DIS_CODE":0,"TOWNNAME":"鹽水區","LI":"中境里","LIN":"12鄰","STREET":"三福路","SECT":" ","MAREA":" ","LANE":" ","ALLEY":" ","HOUSE_NO":"１１９號之３","E_COORD97":174656.47,"N_COORD97":2580213.9500000002,"ADDRESS":"三福路１１９號之３","OBJECTID":543087},"geometry":{"x":174656.46999999974,"y":2580213.9500000011}},{"attributes":{"ID":543115,"DIS_CODE":0,"TOWNNAME":"鹽水區","LI":"中境里","LIN":"12鄰","STREET":"三福路","SECT":" ","MAREA":" ","LANE":" ","ALLEY":" ","HOUSE_NO":"１１９號之４","E_COORD97":174651.98999999999,"N_COORD97":2580213.9900000002,"ADDRESS":"三福路１１９號之４","OBJECTID":543088},"geometry":{"x":174651.99000000209,"y":2580213.9900000021}},{"attributes":{"ID":543116,"DIS_CODE":0,"TOWNNAME":"鹽水區","LI":"中境里","LIN":"12鄰","STREET":"三福路","SECT":" ","MAREA":" ","LANE":" ","ALLEY":" ","HOUSE_NO":"１１９號","E_COORD97":174673.79999999999,"N_COORD97":2580223.4500000002,"ADDRESS":"三福路１１９號","OBJECTID":543089},"geometry":{"x":174673.80000000075,"y":2580223.4500000011}},{"attributes":{"ID":543117,"DIS_CODE":0,"TOWNNAME":"鹽水區","LI":"中境里","LIN":"12鄰","STREET":"三福路","SECT":" ","MAREA":" ","LANE":" ","ALLEY":" ","HOUSE_NO":"１２０號","E_COORD97":174716.73999999999,"N_COORD97":2580215.1400000001,"ADDRESS":"三福路１２０號","OBJECTID":543090},"geometry":{"x":174716.74000000115,"y":2580215.1400000006}},{"attributes":{"ID":543118,"DIS_CODE":0,"TOWNNAME":"關廟區","LI":"山西里","LIN":"12鄰","STREET":"成功路","SECT":" ","MAREA":" ","LANE":" ","ALLEY":" ","HOUSE_NO":"４２５號","E_COORD97":181062.97,"N_COORD97":2540567.27,"ADDRESS":"成功路４２５號","OBJECTID":543091},"geometry":{"x":181062.97000000067,"y":2540567.2700000033}},{"attributes":{"ID":543119,"DIS_CODE":0,"TOWNNAME":"鹽水區","LI":"中境里","LIN":"12鄰","STREET":"三福路","SECT":" ","MAREA":" ","LANE":" ","ALLEY":" ","HOUSE_NO":"１２１之１２號","E_COORD97":174671.57999999999,"N_COORD97":2580232.8799999999,"ADDRESS":"三福路１２１之１２號","OBJECTID":543092},"geometry":{"x":174671.58000000194,"y":2580232.879999999}},{"attributes":{"ID":543120,"DIS_CODE":0,"TOWNNAME":"鹽水區","LI":"中境里","LIN":"12鄰","STREET":"三福路","SECT":" ","MAREA":" ","LANE":" ","ALLEY":" ","HOUSE_NO":"１２１之１３號","E_COORD97":174670.47,"N_COORD97":2580237.6000000001,"ADDRESS":"三福路１２１之１３號","OBJECTID":543093},"geometry":{"x":174670.47000000067,"y":2580237.5999999996}},{"attributes":{"ID":543121,"DIS_CODE":0,"TOWNNAME":"鹽水區","LI":"中境里","LIN":"12鄰","STREET":"三福路","SECT":" ","MAREA":" ","LANE":" ","ALLEY":" ","HOUSE_NO":"１２１之１４號","E_COORD97":174669.35999999999,"N_COORD97":2580242.3100000001,"ADDRESS":"三福路１２１之１４號","OBJECTID":543094},"geometry":{"x":174669.36000000034,"y":2580242.3100000042}},{"attributes":{"ID":543122,"DIS_CODE":0,"TOWNNAME":"鹽水區","LI":"中境里","LIN":"12鄰","STREET":"三福路","SECT":" ","MAREA":" ","LANE":" ","ALLEY":" ","HOUSE_NO":"１２１號之１","E_COORD97":174648.51000000001,"N_COORD97":2580237.8399999999,"ADDRESS":"三福路１２１號之１","OBJECTID":543095},"geometry":{"x":174648.51000000071,"y":2580237.8400000036}},{"attributes":{"ID":543123,"DIS_CODE":0,"TOWNNAME":"鹽水區","LI":"中境里","LIN":"12鄰","STREET":"三福路","SECT":" ","MAREA":" ","LANE":" ","ALLEY":" ","HOUSE_NO":"１２１號之２","E_COORD97":174647.79000000001,"N_COORD97":2580241.7400000002,"ADDRESS":"三福路１２１號之２","OBJECTID":543096},"geometry":{"x":174647.79000000004,"y":2580241.7400000002}},{"attributes":{"ID":543124,"DIS_CODE":0,"TOWNNAME":"鹽水區","LI":"中境里","LIN":"12鄰","STREET":"三福路","SECT":" ","MAREA":" ","LANE":" ","ALLEY":" ","HOUSE_NO":"１２１號之３","E_COORD97":174647.07999999999,"N_COORD97":2580245.6400000001,"ADDRESS":"三福路１２１號之３","OBJECTID":543097},"geometry":{"x":174647.08000000007,"y":2580245.6400000006}},{"attributes":{"ID":543125,"DIS_CODE":0,"TOWNNAME":"鹽水區","LI":"中境里","LIN":"12鄰","STREET":"三福路","SECT":" ","MAREA":" ","LANE":" ","ALLEY":" ","HOUSE_NO":"１２１之４號","E_COORD97":174646.35999999999,"N_COORD97":2580249.5499999998,"ADDRESS":"三福路１２１之４號","OBJECTID":543098},"geometry":{"x":174646.36000000127,"y":2580249.5500000007}},{"attributes":{"ID":543126,"DIS_CODE":0,"TOWNNAME":"鹽水區","LI":"中境里","LIN":"12鄰","STREET":"三福路","SECT":" ","MAREA":" ","LANE":" ","ALLEY":" ","HOUSE_NO":"１２１號之５","E_COORD97":174645.64999999999,"N_COORD97":2580253.4500000002,"ADDRESS":"三福路１２１號之５","OBJECTID":543099},"geometry":{"x":174645.65000000037,"y":2580253.450000003}},{"attributes":{"ID":543127,"DIS_CODE":0,"TOWNNAME":"鹽水區","LI":"中境里","LIN":"12鄰","STREET":"三福路","SECT":" ","MAREA":" ","LANE":" ","ALLEY":" ","HOUSE_NO":"１２１號之６","E_COORD97":174644.92999999999,"N_COORD97":2580257.3599999999,"ADDRESS":"三福路１２１號之６","OBJECTID":543100},"geometry":{"x":174644.92999999877,"y":2580257.3599999975}},{"attributes":{"ID":543128,"DIS_CODE":0,"TOWNNAME":"鹽水區","LI":"中境里","LIN":"12鄰","STREET":"三福路","SECT":" ","MAREA":" ","LANE":" ","ALLEY":" ","HOUSE_NO":"１２１號之７","E_COORD97":174663.34,"N_COORD97":2580264.6899999999,"ADDRESS":"三福路１２１號之７","OBJECTID":543101},"geometry":{"x":174663.34000000078,"y":2580264.6899999995}},{"attributes":{"ID":543129,"DIS_CODE":0,"TOWNNAME":"鹽水區","LI":"中境里","LIN":"12鄰","STREET":"三福路","SECT":" ","MAREA":" ","LANE":" ","ALLEY":" ","HOUSE_NO":"１２１之８號","E_COORD97":174664.07999999999,"N_COORD97":2580260.02,"ADDRESS":"三福路１２１之８號","OBJECTID":543102},"geometry":{"x":174664.08000000007,"y":2580260.0200000033}},{"attributes":{"ID":543130,"DIS_CODE":0,"TOWNNAME":"鹽水區","LI":"中境里","LIN":"12鄰","STREET":"三福路","SECT":" ","MAREA":" ","LANE":" ","ALLEY":" ","HOUSE_NO":"１２１之９號","E_COORD97":174665.84,"N_COORD97":2580255.2799999998,"ADDRESS":"三福路１２１之９號","OBJECTID":543103},"geometry":{"x":174665.83999999985,"y":2580255.2800000012}},{"attributes":{"ID":543131,"DIS_CODE":0,"TOWNNAME":"鹽水區","LI":"中境里","LIN":"12鄰","STREET":"三福路","SECT":" ","MAREA":" ","LANE":" ","ALLEY":" ","HOUSE_NO":"１２１號","E_COORD97":174672.69,"N_COORD97":2580228.1699999999,"ADDRESS":"三福路１２１號","OBJECTID":543104},"geometry":{"x":174672.68999999948,"y":2580228.1699999999}},{"attributes":{"ID":543132,"DIS_CODE":0,"TOWNNAME":"鹽水區","LI":"中境里","LIN":"12鄰","STREET":"三福路","SECT":" ","MAREA":" ","LANE":" ","ALLEY":" ","HOUSE_NO":"１２２號","E_COORD97":174720.54000000001,"N_COORD97":2580232.1200000001,"ADDRESS":"三福路１２２號","OBJECTID":543105},"geometry":{"x":174720.54000000004,"y":2580232.120000001}},{"attributes":{"ID":543133,"DIS_CODE":0,"TOWNNAME":"鹽水區","LI":"中境里","LIN":"12鄰","STREET":"三福路","SECT":" ","MAREA":" ","LANE":" ","ALLEY":" ","HOUSE_NO":"１２３號之１","E_COORD97":174647.79000000001,"N_COORD97":2580285.6299999999,"ADDRESS":"三福路１２３號之１","OBJECTID":543106},"geometry":{"x":174647.79000000004,"y":2580285.6300000027}},{"attributes":{"ID":543134,"DIS_CODE":0,"TOWNNAME":"鹽水區","LI":"中境里","LIN":"12鄰","STREET":"三福路","SECT":" ","MAREA":" ","LANE":" ","ALLEY":" ","HOUSE_NO":"１２６號","E_COORD97":174671.70000000001,"N_COORD97":2580335.0899999999,"ADDRESS":"三福路１２６號","OBJECTID":543107},"geometry":{"x":174671.70000000019,"y":2580335.0900000017}},{"attributes":{"ID":543135,"DIS_CODE":0,"TOWNNAME":"鹽水區","LI":"中境里","LIN":"12鄰","STREET":"三福路","SECT":" ","MAREA":" ","LANE":" ","ALLEY":" ","HOUSE_NO":"１２７號","E_COORD97":174642.95000000001,"N_COORD97":2580312.6299999999,"ADDRESS":"三福路１２７號","OBJECTID":543108},"geometry":{"x":174642.95000000019,"y":2580312.6299999971}},{"attributes":{"ID":543136,"DIS_CODE":0,"TOWNNAME":"鹽水區","LI":"中境里","LIN":"12鄰","STREET":"三福路","SECT":" ","MAREA":" ","LANE":" ","ALLEY":" ","HOUSE_NO":"１２８號","E_COORD97":174678.76000000001,"N_COORD97":2580333,"ADDRESS":"三福路１２８號","OBJECTID":543109},"geometry":{"x":174678.76000000071,"y":2580333.0000000019}},{"attributes":{"ID":543137,"DIS_CODE":0,"TOWNNAME":"鹽水區","LI":"中境里","LIN":"12鄰","STREET":"三福路","SECT":" ","MAREA":" ","LANE":" ","ALLEY":" ","HOUSE_NO":"１３２號","E_COORD97":174675.98999999999,"N_COORD97":2580349.98,"ADDRESS":"三福路１３２號","OBJECTID":543110},"geometry":{"x":174675.99000000115,"y":2580349.9800000023}},{"attributes":{"ID":543138,"DIS_CODE":0,"TOWNNAME":"鹽水區","LI":"中境里","LIN":"12鄰","STREET":"三福路","SECT":" ","MAREA":" ","LANE":" ","ALLEY":" ","HOUSE_NO":"１３４號","E_COORD97":174670.04000000001,"N_COORD97":2580351.2599999998,"ADDRESS":"三福路１３４號","OBJECTID":543111},"geometry":{"x":174670.0400000019,"y":2580351.2600000016}},{"attributes":{"ID":543139,"DIS_CODE":0,"TOWNNAME":"鹽水區","LI":"中境里","LIN":"12鄰","STREET":"三福路","SECT":" ","MAREA":" ","LANE":" ","ALLEY":" ","HOUSE_NO":"１３６號","E_COORD97":174664.07999999999,"N_COORD97":2580352.5499999998,"ADDRESS":"三福路１３６號","OBJECTID":543112},"geometry":{"x":174664.08000000007,"y":2580352.5500000045}},{"attributes":{"ID":543140,"DIS_CODE":0,"TOWNNAME":"仁德區","LI":"二行里","LIN":"6鄰","STREET":"中正西路","SECT":" ","MAREA":" ","LANE":" ","ALLEY":" ","HOUSE_NO":"３號","E_COORD97":170534.82000000001,"N_COORD97":2535455.5,"ADDRESS":"中正西路３號","OBJECTID":543113},"geometry":{"x":170534.8200000003,"y":2535455.5}},{"attributes":{"ID":543141,"DIS_CODE":0,"TOWNNAME":"鹽水區","LI":"中境里","LIN":"12鄰","STREET":"三福路","SECT":" ","MAREA":" ","LANE":" ","ALLEY":" ","HOUSE_NO":"１３８號","E_COORD97":174658.13,"N_COORD97":2580353.8399999999,"ADDRESS":"三福路１３８號","OBJECTID":543114},"geometry":{"x":174658.13000000082,"y":2580353.8400000017}},{"attributes":{"ID":543142,"DIS_CODE":0,"TOWNNAME":"鹽水區","LI":"中境里","LIN":"12鄰","STREET":"三福路","SECT":" ","MAREA":" ","LANE":" ","ALLEY":" ","HOUSE_NO":"９８之１號","E_COORD97":174739.59,"N_COORD97":2580177.04,"ADDRESS":"三福路９８之１號","OBJECTID":543115},"geometry":{"x":174739.59000000078,"y":2580177.0399999991}},{"attributes":{"ID":543143,"DIS_CODE":0,"TOWNNAME":"鹽水區","LI":"中境里","LIN":"12鄰","STREET":"三福路","SECT":" ","MAREA":" ","LANE":" ","ALLEY":" ","HOUSE_NO":"９８號","E_COORD97":174742.20999999999,"N_COORD97":2580161.5800000001,"ADDRESS":"三福路９８號","OBJECTID":543116},"geometry":{"x":174742.21000000089,"y":2580161.5799999982}},{"attributes":{"ID":543144,"DIS_CODE":0,"TOWNNAME":"鹽水區","LI":"水仙里","LIN":"12鄰","STREET":"中山路","SECT":" ","MAREA":" ","LANE":" ","ALLEY":" ","HOUSE_NO":"４７號","E_COORD97":174946.26000000001,"N_COORD97":2579908.27,"ADDRESS":"中山路４７號","OBJECTID":543117},"geometry":{"x":174946.26000000164,"y":2579908.2699999996}},{"attributes":{"ID":543145,"DIS_CODE":0,"TOWNNAME":"鹽水區","LI":"水正里","LIN":"12鄰","STREET":"中正路","SECT":" ","MAREA":" ","LANE":" ","ALLEY":" ","HOUSE_NO":"１２７號","E_COORD97":175073.82000000001,"N_COORD97":2579670.0800000001,"ADDRESS":"中正路１２７號","OBJECTID":543118},"geometry":{"x":175073.82000000123,"y":2579670.0799999982}},{"attributes":{"ID":543146,"DIS_CODE":0,"TOWNNAME":"鹽水區","LI":"水正里","LIN":"12鄰","STREET":"中正路","SECT":" ","MAREA":" ","LANE":" ","ALLEY":" ","HOUSE_NO":"１２９號","E_COORD97":175070.98999999999,"N_COORD97":2579666.96,"ADDRESS":"中正路１２９號","OBJECTID":543119},"geometry":{"x":175070.99000000115,"y":2579666.9600000009}},{"attributes":{"ID":543147,"DIS_CODE":0,"TOWNNAME":"鹽水區","LI":"水正里","LIN":"12鄰","STREET":"中正路","SECT":" ","MAREA":" ","LANE":" ","ALLEY":" ","HOUSE_NO":"１３１號","E_COORD97":175068.54000000001,"N_COORD97":2579663.7000000002,"ADDRESS":"中正路１３１號","OBJECTID":543120},"geometry":{"x":175068.5400000019,"y":2579663.6999999993}},{"attributes":{"ID":543148,"DIS_CODE":0,"TOWNNAME":"鹽水區","LI":"水正里","LIN":"12鄰","STREET":"中正路","SECT":" ","MAREA":" ","LANE":" ","ALLEY":" ","HOUSE_NO":"１３３號","E_COORD97":175065.63,"N_COORD97":2579660.1899999999,"ADDRESS":"中正路１３３號","OBJECTID":543121},"geometry":{"x":175065.62999999989,"y":2579660.1900000013}},{"attributes":{"ID":543149,"DIS_CODE":0,"TOWNNAME":"鹽水區","LI":"水正里","LIN":"12鄰","STREET":"中正路","SECT":" ","MAREA":" ","LANE":" ","ALLEY":" ","HOUSE_NO":"１３５號","E_COORD97":175063.07999999999,"N_COORD97":2579656.77,"ADDRESS":"中正路１３５號","OBJECTID":543122},"geometry":{"x":175063.08000000194,"y":2579656.7699999996}},{"attributes":{"ID":543150,"DIS_CODE":0,"TOWNNAME":"鹽水區","LI":"水正里","LIN":"12鄰","STREET":"中正路","SECT":" ","MAREA":" ","LANE":" ","ALLEY":" ","HOUSE_NO":"１３７號","E_COORD97":175058.69,"N_COORD97":2579651.0699999998,"ADDRESS":"中正路１３７號","OBJECTID":543123},"geometry":{"x":175058.69000000041,"y":2579651.0700000022}},{"attributes":{"ID":543151,"DIS_CODE":0,"TOWNNAME":"鹽水區","LI":"水正里","LIN":"12鄰","STREET":"中正路","SECT":" ","MAREA":" ","LANE":" ","ALLEY":" ","HOUSE_NO":"１３９號","E_COORD97":175055.26000000001,"N_COORD97":2579642.98,"ADDRESS":"中正路１３９號","OBJECTID":543124},"geometry":{"x":175055.26000000071,"y":2579642.9800000004}},{"attributes":{"ID":543152,"DIS_CODE":0,"TOWNNAME":"鹽水區","LI":"水正里","LIN":"12鄰","STREET":"中正路","SECT":" ","MAREA":" ","LANE":" ","ALLEY":" ","HOUSE_NO":"１４１號","E_COORD97":175053.35000000001,"N_COORD97":2579638.6699999999,"ADDRESS":"中正路１４１號","OBJECTID":543125},"geometry":{"x":175053.34999999963,"y":2579638.6699999999}},{"attributes":{"ID":543153,"DIS_CODE":0,"TOWNNAME":"關廟區","LI":"北勢里","LIN":"12鄰","STREET":"仁愛路","SECT":" ","MAREA":" ","LANE":" ","ALLEY":" ","HOUSE_NO":"２６０號","E_COORD97":181462.19,"N_COORD97":2540568.2799999998,"ADDRESS":"仁愛路２６０號","OBJECTID":543126},"geometry":{"x":181462.19000000134,"y":2540568.2800000012}},{"attributes":{"ID":543154,"DIS_CODE":0,"TOWNNAME":"關廟區","LI":"北勢里","LIN":"12鄰","STREET":"仁愛路","SECT":" ","MAREA":" ","LANE":" ","ALLEY":" ","HOUSE_NO":"２８８號","E_COORD97":181485.59,"N_COORD97":2540630.2799999998,"ADDRESS":"仁愛路２８８號","OBJECTID":543127},"geometry":{"x":181485.58999999985,"y":2540630.2799999993}},{"attributes":{"ID":543155,"DIS_CODE":0,"TOWNNAME":"關廟區","LI":"北勢里","LIN":"12鄰","STREET":"仁愛路","SECT":" ","MAREA":" ","LANE":" ","ALLEY":" ","HOUSE_NO":"２６８號","E_COORD97":181466.79000000001,"N_COORD97":2540579.2799999998,"ADDRESS":"仁愛路２６８號","OBJECTID":543128},"geometry":{"x":181466.79000000097,"y":2540579.2799999993}},{"attributes":{"ID":543156,"DIS_CODE":0,"TOWNNAME":"關廟區","LI":"山西里","LIN":"12鄰","STREET":"崇尚街","SECT":" ","MAREA":" ","LANE":" ","ALLEY":" ","HOUSE_NO":"１７號","E_COORD97":181047.51999999999,"N_COORD97":2540516.25,"ADDRESS":"崇尚街１７號","OBJECTID":543129},"geometry":{"x":181047.52000000048,"y":2540516.25}},{"attributes":{"ID":543157,"DIS_CODE":0,"TOWNNAME":"關廟區","LI":"山西里","LIN":"12鄰","STREET":"忠孝街","SECT":" ","MAREA":" ","LANE":" ","ALLEY":" ","HOUSE_NO":"１９１號","E_COORD97":181109.34,"N_COORD97":2540539.25,"ADDRESS":"忠孝街１９１號","OBJECTID":543130},"geometry":{"x":181109.33999999985,"y":2540539.25}},{"attributes":{"ID":543158,"DIS_CODE":0,"TOWNNAME":"關廟區","LI":"山西里","LIN":"12鄰","STREET":"忠孝街","SECT":" ","MAREA":" ","LANE":" ","ALLEY":" ","HOUSE_NO":"１６３號","E_COORD97":181075.14000000001,"N_COORD97":2540481.25,"ADDRESS":"忠孝街１６３號","OBJECTID":543131},"geometry":{"x":181075.14000000153,"y":2540481.2500000019}},{"attributes":{"ID":543159,"DIS_CODE":0,"TOWNNAME":"關廟區","LI":"北勢里","LIN":"12鄰","STREET":"仁愛路","SECT":" ","MAREA":" ","LANE":" ","ALLEY":" ","HOUSE_NO":"２６２號","E_COORD97":181463.69,"N_COORD97":2540572.2799999998,"ADDRESS":"仁愛路２６２號","OBJECTID":543132},"geometry":{"x":181463.69000000227,"y":2540572.2799999993}},{"attributes":{"ID":543160,"DIS_CODE":0,"TOWNNAME":"關廟區","LI":"北勢里","LIN":"12鄰","STREET":"北安三街","SECT":" ","MAREA":" ","LANE":" ","ALLEY":" ","HOUSE_NO":"１４０號","E_COORD97":181496.04000000001,"N_COORD97":2540612.3199999998,"ADDRESS":"北安三街１４０號","OBJECTID":543133},"geometry":{"x":181496.04000000004,"y":2540612.3200000022}},{"attributes":{"ID":543161,"DIS_CODE":0,"TOWNNAME":"關廟區","LI":"北勢里","LIN":"12鄰","STREET":"成功路","SECT":" ","MAREA":" ","LANE":" ","ALLEY":" ","HOUSE_NO":"２８０號","E_COORD97":181445.97,"N_COORD97":2540492.27,"ADDRESS":"成功路２８０號","OBJECTID":543134},"geometry":{"x":181445.9700000016,"y":2540492.2699999996}},{"attributes":{"ID":543162,"DIS_CODE":0,"TOWNNAME":"關廟區","LI":"山西里","LIN":"12鄰","STREET":"崇尚街","SECT":" ","MAREA":" ","LANE":" ","ALLEY":" ","HOUSE_NO":"２６號","E_COORD97":181052.12,"N_COORD97":2540534.25,"ADDRESS":"崇尚街２６號","OBJECTID":543135},"geometry":{"x":181052.12000000104,"y":2540534.2500000019}},{"attributes":{"ID":543163,"DIS_CODE":0,"TOWNNAME":"關廟區","LI":"五甲里","LIN":"12鄰","STREET":"東興一街","SECT":" ","MAREA":" ","LANE":" ","ALLEY":" ","HOUSE_NO":"２３號","E_COORD97":181242.17000000001,"N_COORD97":2539575.25,"ADDRESS":"東興一街２３號","OBJECTID":543136},"geometry":{"x":181242.16999999993,"y":2539575.2500000019}},{"attributes":{"ID":543164,"DIS_CODE":0,"TOWNNAME":"關廟區","LI":"五甲里","LIN":"12鄰","STREET":"南雄路","SECT":"一段","MAREA":" ","LANE":" ","ALLEY":" ","HOUSE_NO":"１０４０號","E_COORD97":181153.95000000001,"N_COORD97":2539635.1699999999,"ADDRESS":"南雄路一段１０４０號","OBJECTID":543137},"geometry":{"x":181153.95000000112,"y":2539635.1699999999}},{"attributes":{"ID":543165,"DIS_CODE":0,"TOWNNAME":"關廟區","LI":"五甲里","LIN":"12鄰","STREET":"東興一街","SECT":" ","MAREA":" ","LANE":" ","ALLEY":" ","HOUSE_NO":"５號","E_COORD97":181227.92000000001,"N_COORD97":2539609.25,"ADDRESS":"東興一街５號","OBJECTID":543138},"geometry":{"x":181227.92000000086,"y":2539609.2500000019}},{"attributes":{"ID":543166,"DIS_CODE":0,"TOWNNAME":"關廟區","LI":"五甲里","LIN":"12鄰","STREET":"東興一街","SECT":" ","MAREA":" ","LANE":" ","ALLEY":" ","HOUSE_NO":"６號","E_COORD97":181209.82000000001,"N_COORD97":2539619.25,"ADDRESS":"東興一街６號","OBJECTID":543139},"geometry":{"x":181209.8200000003,"y":2539619.2500000019}},{"attributes":{"ID":543167,"DIS_CODE":0,"TOWNNAME":"關廟區","LI":"北勢里","LIN":"12鄰","STREET":"北安三街","SECT":" ","MAREA":" ","LANE":" ","ALLEY":" ","HOUSE_NO":"１２１號","E_COORD97":181530.94,"N_COORD97":2540586.3199999998,"ADDRESS":"北安三街１２１號","OBJECTID":543140},"geometry":{"x":181530.94000000041,"y":2540586.3200000003}},{"attributes":{"ID":543168,"DIS_CODE":0,"TOWNNAME":"關廟區","LI":"五甲里","LIN":"12鄰","STREET":"民安街","SECT":" ","MAREA":" ","LANE":" ","ALLEY":" ","HOUSE_NO":"７７號","E_COORD97":181248.14000000001,"N_COORD97":2539623.3199999998,"ADDRESS":"民安街７７號","OBJECTID":543141},"geometry":{"x":181248.14000000153,"y":2539623.3200000022}},{"attributes":{"ID":543169,"DIS_CODE":0,"TOWNNAME":"關廟區","LI":"北勢里","LIN":"12鄰","STREET":"北安三街","SECT":" ","MAREA":" ","LANE":" ","ALLEY":" ","HOUSE_NO":"１３３號","E_COORD97":181499.14000000001,"N_COORD97":2540598.3199999998,"ADDRESS":"北安三街１３３號","OBJECTID":543142},"geometry":{"x":181499.1400000006,"y":2540598.320000004}},{"attributes":{"ID":543170,"DIS_CODE":0,"TOWNNAME":"關廟區","LI":"五甲里","LIN":"12鄰","STREET":"東興一街","SECT":" ","MAREA":" ","LANE":" ","ALLEY":" ","HOUSE_NO":"２５號","E_COORD97":181243.37,"N_COORD97":2539571.25,"ADDRESS":"東興一街２５號","OBJECTID":543143},"geometry":{"x":181243.37000000011,"y":2539571.2500000037}},{"attributes":{"ID":543171,"DIS_CODE":0,"TOWNNAME":"關廟區","LI":"香洋里","LIN":"12鄰","STREET":"巡府路","SECT":" ","MAREA":" ","LANE":" ","ALLEY":" ","HOUSE_NO":"２０號","E_COORD97":181184.92000000001,"N_COORD97":2540033.25,"ADDRESS":"巡府路２０號","OBJECTID":543144},"geometry":{"x":181184.91999999993,"y":2540033.2500000019}},{"attributes":{"ID":543172,"DIS_CODE":0,"TOWNNAME":"關廟區","LI":"北勢里","LIN":"12鄰","STREET":"成功路","SECT":" ","MAREA":" ","LANE":" ","ALLEY":" ","HOUSE_NO":"２６６號","E_COORD97":181471.37,"N_COORD97":2540488.27,"ADDRESS":"成功路２６６號","OBJECTID":543145},"geometry":{"x":181471.37000000104,"y":2540488.2699999996}},{"attributes":{"ID":543173,"DIS_CODE":0,"TOWNNAME":"關廟區","LI":"五甲里","LIN":"12鄰","STREET":"南雄路","SECT":"一段","MAREA":" ","LANE":" ","ALLEY":" ","HOUSE_NO":"９８８號","E_COORD97":181195.48999999999,"N_COORD97":2539549.2799999998,"ADDRESS":"南雄路一段９８８號","OBJECTID":543146},"geometry":{"x":181195.49000000209,"y":2539549.2799999993}},{"attributes":{"ID":543174,"DIS_CODE":0,"TOWNNAME":"關廟區","LI":"五甲里","LIN":"12鄰","STREET":"東興路","SECT":" ","MAREA":" ","LANE":" ","ALLEY":" ","HOUSE_NO":"１２號","E_COORD97":181274.32000000001,"N_COORD97":2539527.25,"ADDRESS":"東興路１２號","OBJECTID":543147},"geometry":{"x":181274.3200000003,"y":2539527.2500000019}},{"attributes":{"ID":543175,"DIS_CODE":0,"TOWNNAME":"關廟區","LI":"北勢里","LIN":"12鄰","STREET":"北安三街","SECT":" ","MAREA":" ","LANE":" ","ALLEY":" ","HOUSE_NO":"１３２號","E_COORD97":181512.14000000001,"N_COORD97":2540606.3199999998,"ADDRESS":"北安三街１３２號","OBJECTID":543148},"geometry":{"x":181512.13999999966,"y":2540606.3200000022}},{"attributes":{"ID":543176,"DIS_CODE":0,"TOWNNAME":"新化區","LI":"太平里","LIN":"17鄰","STREET":"太平街","SECT":" ","MAREA":" ","LANE":" ","ALLEY":" ","HOUSE_NO":"８９號之１１","E_COORD97":178686.75,"N_COORD97":2548692.2599999998,"ADDRESS":"太平街８９號之１１","OBJECTID":543149},"geometry":{"x":178686.75000000093,"y":2548692.2600000016}},{"attributes":{"ID":543177,"DIS_CODE":0,"TOWNNAME":"關廟區","LI":"五甲里","LIN":"12鄰","STREET":"東興一街","SECT":" ","MAREA":" ","LANE":" ","ALLEY":" ","HOUSE_NO":"１９號","E_COORD97":181238.76999999999,"N_COORD97":2539583.25,"ADDRESS":"東興一街１９號","OBJECTID":543150},"geometry":{"x":181238.77000000048,"y":2539583.25}},{"attributes":{"ID":543178,"DIS_CODE":0,"TOWNNAME":"關廟區","LI":"北勢里","LIN":"12鄰","STREET":"北安三街","SECT":" ","MAREA":" ","LANE":" ","ALLEY":" ","HOUSE_NO":"１３８號","E_COORD97":181501.73999999999,"N_COORD97":2540610.3199999998,"ADDRESS":"北安三街１３８號","OBJECTID":543151},"geometry":{"x":181501.74000000022,"y":2540610.3200000003}},{"attributes":{"ID":543179,"DIS_CODE":0,"TOWNNAME":"關廟區","LI":"五甲里","LIN":"12鄰","STREET":"東興路","SECT":" ","MAREA":" ","LANE":" ","ALLEY":" ","HOUSE_NO":"３１號","E_COORD97":181336.12,"N_COORD97":2539560.25,"ADDRESS":"東興路３１號","OBJECTID":543152},"geometry":{"x":181336.12000000011,"y":2539560.25}},{"attributes":{"ID":543180,"DIS_CODE":0,"TOWNNAME":"關廟區","LI":"香洋里","LIN":"12鄰","STREET":"中央路","SECT":" ","MAREA":" ","LANE":" ","ALLEY":" ","HOUSE_NO":"１８１號","E_COORD97":181215.26000000001,"N_COORD97":2540066.3199999998,"ADDRESS":"中央路１８１號","OBJECTID":543153},"geometry":{"x":181215.26000000071,"y":2540066.3200000022}},{"attributes":{"ID":543181,"DIS_CODE":0,"TOWNNAME":"關廟區","LI":"五甲里","LIN":"12鄰","STREET":"民安街","SECT":" ","MAREA":" ","LANE":" ","ALLEY":" ","HOUSE_NO":"６７號","E_COORD97":181269.64000000001,"N_COORD97":2539624.3199999998,"ADDRESS":"民安街６７號","OBJECTID":543154},"geometry":{"x":181269.63999999966,"y":2539624.3200000003}},{"attributes":{"ID":543182,"DIS_CODE":0,"TOWNNAME":"關廟區","LI":"五甲里","LIN":"12鄰","STREET":"南雄路","SECT":"一段","MAREA":" ","LANE":" ","ALLEY":" ","HOUSE_NO":"９９８號","E_COORD97":181207.39000000001,"N_COORD97":2539574.2799999998,"ADDRESS":"南雄路一段９９８號","OBJECTID":543155},"geometry":{"x":181207.39000000153,"y":2539574.2800000012}},{"attributes":{"ID":543183,"DIS_CODE":0,"TOWNNAME":"關廟區","LI":"北勢里","LIN":"12鄰","STREET":"北安三街","SECT":" ","MAREA":" ","LANE":" ","ALLEY":" ","HOUSE_NO":"１２９號","E_COORD97":181508.34,"N_COORD97":2540594.3199999998,"ADDRESS":"北安三街１２９號","OBJECTID":543156},"geometry":{"x":181508.34000000078,"y":2540594.3200000003}},{"attributes":{"ID":543184,"DIS_CODE":0,"TOWNNAME":"關廟區","LI":"香洋里","LIN":"12鄰","STREET":"中央路","SECT":" ","MAREA":" ","LANE":" ","ALLEY":" ","HOUSE_NO":"１７７號","E_COORD97":181223.26000000001,"N_COORD97":2540063.3199999998,"ADDRESS":"中央路１７７號","OBJECTID":543157},"geometry":{"x":181223.25999999978,"y":2540063.3200000022}},{"attributes":{"ID":543185,"DIS_CODE":0,"TOWNNAME":"關廟區","LI":"北勢里","LIN":"12鄰","STREET":"北安三街","SECT":" ","MAREA":" ","LANE":" ","ALLEY":" ","HOUSE_NO":"１２６號","E_COORD97":181523.64000000001,"N_COORD97":2540601.3199999998,"ADDRESS":"北安三街１２６號","OBJECTID":543158},"geometry":{"x":181523.63999999966,"y":2540601.3199999984}},{"attributes":{"ID":543186,"DIS_CODE":0,"TOWNNAME":"關廟區","LI":"東勢里","LIN":"12鄰","STREET":"旺萊路","SECT":" ","MAREA":" ","LANE":" ","ALLEY":" ","HOUSE_NO":"３１６號","E_COORD97":182024.84,"N_COORD97":2539463.25,"ADDRESS":"旺萊路３１６號","OBJECTID":543159},"geometry":{"x":182024.83999999892,"y":2539463.2500000019}},{"attributes":{"ID":543187,"DIS_CODE":0,"TOWNNAME":"關廟區","LI":"香洋里","LIN":"12鄰","STREET":"中央路","SECT":" ","MAREA":" ","LANE":" ","ALLEY":" ","HOUSE_NO":"１８３號","E_COORD97":181210.95999999999,"N_COORD97":2540067.3199999998,"ADDRESS":"中央路１８３號","OBJECTID":543160},"geometry":{"x":181210.96000000089,"y":2540067.3200000022}},{"attributes":{"ID":543188,"DIS_CODE":0,"TOWNNAME":"關廟區","LI":"五甲里","LIN":"12鄰","STREET":"民安街","SECT":" ","MAREA":" ","LANE":" ","ALLEY":" ","HOUSE_NO":"７９號","E_COORD97":181243.54000000001,"N_COORD97":2539624.3199999998,"ADDRESS":"民安街７９號","OBJECTID":543161},"geometry":{"x":181243.54000000004,"y":2539624.3200000003}},{"attributes":{"ID":543189,"DIS_CODE":0,"TOWNNAME":"關廟區","LI":"五甲里","LIN":"12鄰","STREET":"東興路","SECT":" ","MAREA":" ","LANE":" ","ALLEY":" ","HOUSE_NO":"１號","E_COORD97":181207.87,"N_COORD97":2539523.25,"ADDRESS":"東興路１號","OBJECTID":543162},"geometry":{"x":181207.87000000197,"y":2539523.2499999981}},{"attributes":{"ID":543190,"DIS_CODE":0,"TOWNNAME":"關廟區","LI":"香洋里","LIN":"12鄰","STREET":"中央路","SECT":" ","MAREA":" ","LANE":" ","ALLEY":" ","HOUSE_NO":"１６９號","E_COORD97":181236.66,"N_COORD97":2540059.3199999998,"ADDRESS":"中央路１６９號","OBJECTID":543163},"geometry":{"x":181236.66000000108,"y":2540059.3200000022}},{"attributes":{"ID":543191,"DIS_CODE":0,"TOWNNAME":"關廟區","LI":"五甲里","LIN":"12鄰","STREET":"民安街","SECT":" ","MAREA":" ","LANE":" ","ALLEY":" ","HOUSE_NO":"６５號","E_COORD97":181273.44,"N_COORD97":2539625.3199999998,"ADDRESS":"民安街６５號","OBJECTID":543164},"geometry":{"x":181273.44000000041,"y":2539625.320000004}},{"attributes":{"ID":543192,"DIS_CODE":0,"TOWNNAME":"關廟區","LI":"東勢里","LIN":"12鄰","STREET":"旺萊路","SECT":" ","MAREA":" ","LANE":" ","ALLEY":" ","HOUSE_NO":"３２０號","E_COORD97":182032.94,"N_COORD97":2539468.25,"ADDRESS":"旺萊路３２０號","OBJECTID":543165},"geometry":{"x":182032.94000000041,"y":2539468.25}},{"attributes":{"ID":543193,"DIS_CODE":0,"TOWNNAME":"關廟區","LI":"五甲里","LIN":"12鄰","STREET":"民安街","SECT":" ","MAREA":" ","LANE":" ","ALLEY":" ","HOUSE_NO":"７３號","E_COORD97":181257.73999999999,"N_COORD97":2539622.3199999998,"ADDRESS":"民安街７３號","OBJECTID":543166},"geometry":{"x":181257.74000000022,"y":2539622.3200000022}},{"attributes":{"ID":543194,"DIS_CODE":0,"TOWNNAME":"關廟區","LI":"北勢里","LIN":"12鄰","STREET":"北安三街","SECT":" ","MAREA":" ","LANE":" ","ALLEY":" ","HOUSE_NO":"１３７號","E_COORD97":181492.54000000001,"N_COORD97":2540601.3199999998,"ADDRESS":"北安三街１３７號","OBJECTID":543167},"geometry":{"x":181492.54000000004,"y":2540601.3199999984}},{"attributes":{"ID":543195,"DIS_CODE":0,"TOWNNAME":"關廟區","LI":"北勢里","LIN":"12鄰","STREET":"北安三街","SECT":" ","MAREA":" ","LANE":" ","ALLEY":" ","HOUSE_NO":"１３６號","E_COORD97":181507.94,"N_COORD97":2540608.3199999998,"ADDRESS":"北安三街１３６號","OBJECTID":543168},"geometry":{"x":181507.94000000227,"y":2540608.320000004}},{"attributes":{"ID":543196,"DIS_CODE":0,"TOWNNAME":"新化區","LI":"太平里","LIN":"17鄰","STREET":"太平街","SECT":" ","MAREA":" ","LANE":" ","ALLEY":" ","HOUSE_NO":"８９號之７","E_COORD97":178665.62,"N_COORD97":2548718.2599999998,"ADDRESS":"太平街８９號之７","OBJECTID":543169},"geometry":{"x":178665.62000000104,"y":2548718.2600000016}},{"attributes":{"ID":543197,"DIS_CODE":0,"TOWNNAME":"關廟區","LI":"東勢里","LIN":"12鄰","STREET":"旺萊路","SECT":" ","MAREA":" ","LANE":" ","ALLEY":" ","HOUSE_NO":"３３２號","E_COORD97":182049.73999999999,"N_COORD97":2539480.25,"ADDRESS":"旺萊路３３２號","OBJECTID":543170},"geometry":{"x":182049.74000000209,"y":2539480.2500000019}},{"attributes":{"ID":543198,"DIS_CODE":0,"TOWNNAME":"關廟區","LI":"香洋里","LIN":"12鄰","STREET":"中央路","SECT":" ","MAREA":" ","LANE":" ","ALLEY":" ","HOUSE_NO":"１８９號","E_COORD97":181199.85999999999,"N_COORD97":2540071.3199999998,"ADDRESS":"中央路１８９號","OBJECTID":543171},"geometry":{"x":181199.8600000022,"y":2540071.3200000003}},{"attributes":{"ID":543199,"DIS_CODE":0,"TOWNNAME":"關廟區","LI":"香洋里","LIN":"12鄰","STREET":"中央路","SECT":" ","MAREA":" ","LANE":" ","ALLEY":" ","HOUSE_NO":"１７１號","E_COORD97":181233.66,"N_COORD97":2540060.3199999998,"ADDRESS":"中央路１７１號","OBJECTID":543172},"geometry":{"x":181233.66000000108,"y":2540060.3200000022}},{"attributes":{"ID":543200,"DIS_CODE":0,"TOWNNAME":"關廟區","LI":"五甲里","LIN":"12鄰","STREET":"民安街","SECT":" ","MAREA":" ","LANE":" ","ALLEY":" ","HOUSE_NO":"７１號","E_COORD97":181261.94,"N_COORD97":2539623.3199999998,"ADDRESS":"民安街７１號","OBJECTID":543173},"geometry":{"x":181261.93999999948,"y":2539623.3200000022}},{"attributes":{"ID":543201,"DIS_CODE":0,"TOWNNAME":"關廟區","LI":"香洋里","LIN":"12鄰","STREET":"巡府路","SECT":" ","MAREA":" ","LANE":" ","ALLEY":" ","HOUSE_NO":"４２號","E_COORD97":181127.32000000001,"N_COORD97":2540062.25,"ADDRESS":"巡府路４２號","OBJECTID":543174},"geometry":{"x":181127.32000000123,"y":2540062.25}},{"attributes":{"ID":543202,"DIS_CODE":0,"TOWNNAME":"關廟區","LI":"香洋里","LIN":"12鄰","STREET":"中央路","SECT":" ","MAREA":" ","LANE":" ","ALLEY":" ","HOUSE_NO":"１９３號","E_COORD97":181191.76000000001,"N_COORD97":2540074.3199999998,"ADDRESS":"中央路１９３號","OBJECTID":543175},"geometry":{"x":181191.76000000071,"y":2540074.3200000003}},{"attributes":{"ID":543203,"DIS_CODE":0,"TOWNNAME":"關廟區","LI":"松腳里","LIN":"12鄰","STREET":"東興路","SECT":" ","MAREA":" ","LANE":" ","ALLEY":" ","HOUSE_NO":"２２１號","E_COORD97":181773.47,"N_COORD97":2539565.25,"ADDRESS":"東興路２２１號","OBJECTID":543176},"geometry":{"x":181773.47000000067,"y":2539565.2500000019}},{"attributes":{"ID":543204,"DIS_CODE":0,"TOWNNAME":"關廟區","LI":"香洋里","LIN":"12鄰","STREET":"巡府路","SECT":" ","MAREA":" ","LANE":" ","ALLEY":" ","HOUSE_NO":"２１號","E_COORD97":181189.12,"N_COORD97":2540015.25,"ADDRESS":"巡府路２１號","OBJECTID":543177},"geometry":{"x":181189.12000000011,"y":2540015.2500000037}},{"attributes":{"ID":543205,"DIS_CODE":0,"TOWNNAME":"關廟區","LI":"南花里","LIN":"12鄰","STREET":"和平路","SECT":" ","MAREA":" ","LANE":" ","ALLEY":" ","HOUSE_NO":"２８２號","E_COORD97":181666.73999999999,"N_COORD97":2539981.25,"ADDRESS":"和平路２８２號","OBJECTID":543178},"geometry":{"x":181666.74000000209,"y":2539981.2500000037}},{"attributes":{"ID":543206,"DIS_CODE":0,"TOWNNAME":"關廟區","LI":"五甲里","LIN":"12鄰","STREET":"民安街","SECT":" ","MAREA":" ","LANE":" ","ALLEY":" ","HOUSE_NO":"６９號","E_COORD97":181265.84,"N_COORD97":2539624.3199999998,"ADDRESS":"民安街６９號","OBJECTID":543179},"geometry":{"x":181265.84000000078,"y":2539624.3200000003}},{"attributes":{"ID":543207,"DIS_CODE":0,"TOWNNAME":"關廟區","LI":"香洋里","LIN":"12鄰","STREET":"巡府路","SECT":" ","MAREA":" ","LANE":" ","ALLEY":" ","HOUSE_NO":"２７號","E_COORD97":181178.72,"N_COORD97":2540019.25,"ADDRESS":"巡府路２７號","OBJECTID":543180},"geometry":{"x":181178.72000000067,"y":2540019.2500000019}},{"attributes":{"ID":543208,"DIS_CODE":0,"TOWNNAME":"關廟區","LI":"南花里","LIN":"12鄰","STREET":"中山路","SECT":"一段","MAREA":" ","LANE":" ","ALLEY":" ","HOUSE_NO":"２６８號","E_COORD97":181795.76000000001,"N_COORD97":2539944.2799999998,"ADDRESS":"中山路一段２６８號","OBJECTID":543181},"geometry":{"x":181795.75999999978,"y":2539944.2800000012}},{"attributes":{"ID":543209,"DIS_CODE":0,"TOWNNAME":"關廟區","LI":"香洋里","LIN":"12鄰","STREET":"巡府路","SECT":" ","MAREA":" ","LANE":" ","ALLEY":" ","HOUSE_NO":"３８號","E_COORD97":181135.42000000001,"N_COORD97":2540059.25,"ADDRESS":"巡府路３８號","OBJECTID":543182},"geometry":{"x":181135.41999999993,"y":2540059.2500000037}},{"attributes":{"ID":543210,"DIS_CODE":0,"TOWNNAME":"關廟區","LI":"東勢里","LIN":"12鄰","STREET":"旺萊路","SECT":" ","MAREA":" ","LANE":" ","ALLEY":" ","HOUSE_NO":"３２８號","E_COORD97":182042.84,"N_COORD97":2539475.25,"ADDRESS":"旺萊路３２８號","OBJECTID":543183},"geometry":{"x":182042.83999999985,"y":2539475.25}},{"attributes":{"ID":543211,"DIS_CODE":0,"TOWNNAME":"關廟區","LI":"香洋里","LIN":"12鄰","STREET":"中央路","SECT":" ","MAREA":" ","LANE":" ","ALLEY":" ","HOUSE_NO":"１８７號","E_COORD97":181203.35999999999,"N_COORD97":2540069.3199999998,"ADDRESS":"中央路１８７號","OBJECTID":543184},"geometry":{"x":181203.36000000127,"y":2540069.320000004}},{"attributes":{"ID":543212,"DIS_CODE":0,"TOWNNAME":"關廟區","LI":"東勢里","LIN":"12鄰","STREET":"旺萊路","SECT":" ","MAREA":" ","LANE":" ","ALLEY":" ","HOUSE_NO":"３２６號","E_COORD97":182039.84,"N_COORD97":2539473.25,"ADDRESS":"旺萊路３２６號","OBJECTID":543185},"geometry":{"x":182039.83999999985,"y":2539473.2500000019}},{"attributes":{"ID":543213,"DIS_CODE":0,"TOWNNAME":"關廟區","LI":"香洋里","LIN":"12鄰","STREET":"中央路","SECT":" ","MAREA":" ","LANE":" ","ALLEY":" ","HOUSE_NO":"１９７號","E_COORD97":181185.66,"N_COORD97":2540075.3199999998,"ADDRESS":"中央路１９７號","OBJECTID":543186},"geometry":{"x":181185.66000000201,"y":2540075.3200000003}},{"attributes":{"ID":543214,"DIS_CODE":0,"TOWNNAME":"關廟區","LI":"北花里","LIN":"12鄰","STREET":"中正路","SECT":" ","MAREA":" ","LANE":" ","ALLEY":" ","HOUSE_NO":"８０１號","E_COORD97":181671.26000000001,"N_COORD97":2540304.25,"ADDRESS":"中正路８０１號","OBJECTID":543187},"geometry":{"x":181671.26000000071,"y":2540304.2500000019}},{"attributes":{"ID":543215,"DIS_CODE":0,"TOWNNAME":"關廟區","LI":"香洋里","LIN":"12鄰","STREET":"中山路","SECT":"一段","MAREA":" ","LANE":" ","ALLEY":" ","HOUSE_NO":"５８２號","E_COORD97":181210.06,"N_COORD97":2539970.2799999998,"ADDRESS":"中山路一段５８２號","OBJECTID":543188},"geometry":{"x":181210.06000000052,"y":2539970.2800000031}},{"attributes":{"ID":543216,"DIS_CODE":0,"TOWNNAME":"關廟區","LI":"東勢里","LIN":"12鄰","STREET":"旺萊路","SECT":" ","MAREA":" ","LANE":" ","ALLEY":" ","HOUSE_NO":"３３０號","E_COORD97":182045.94,"N_COORD97":2539478.25,"ADDRESS":"旺萊路３３０號","OBJECTID":543189},"geometry":{"x":182045.94000000134,"y":2539478.25}},{"attributes":{"ID":543217,"DIS_CODE":0,"TOWNNAME":"關廟區","LI":"北勢里","LIN":"12鄰","STREET":"仁愛路","SECT":" ","MAREA":" ","LANE":" ","ALLEY":" ","HOUSE_NO":"２５６號","E_COORD97":181458.69,"N_COORD97":2540558.2799999998,"ADDRESS":"仁愛路２５６號","OBJECTID":543190},"geometry":{"x":181458.69000000227,"y":2540558.2800000012}},{"attributes":{"ID":543218,"DIS_CODE":0,"TOWNNAME":"關廟區","LI":"山西里","LIN":"12鄰","STREET":"崇尚街","SECT":" ","MAREA":" ","LANE":" ","ALLEY":" ","HOUSE_NO":"８號","E_COORD97":181078.47,"N_COORD97":2540516.25,"ADDRESS":"崇尚街８號","OBJECTID":543191},"geometry":{"x":181078.47000000067,"y":2540516.25}},{"attributes":{"ID":543219,"DIS_CODE":0,"TOWNNAME":"關廟區","LI":"北勢里","LIN":"12鄰","STREET":"仁愛路","SECT":" ","MAREA":" ","LANE":" ","ALLEY":" ","HOUSE_NO":"２４６號","E_COORD97":181452.59,"N_COORD97":2540543.2799999998,"ADDRESS":"仁愛路２４６號","OBJECTID":543192},"geometry":{"x":181452.59000000078,"y":2540543.2800000031}},{"attributes":{"ID":543220,"DIS_CODE":0,"TOWNNAME":"關廟區","LI":"五甲里","LIN":"12鄰","STREET":"南雄路","SECT":"一段","MAREA":" ","LANE":" ","ALLEY":" ","HOUSE_NO":"１０３０號","E_COORD97":181166.25,"N_COORD97":2539618.1699999999,"ADDRESS":"南雄路一段１０３０號","OBJECTID":543193},"geometry":{"x":181166.25000000186,"y":2539618.1699999999}},{"attributes":{"ID":543221,"DIS_CODE":0,"TOWNNAME":"關廟區","LI":"山西里","LIN":"12鄰","STREET":"崇尚街","SECT":" ","MAREA":" ","LANE":" ","ALLEY":" ","HOUSE_NO":"１９號","E_COORD97":181043.22,"N_COORD97":2540518.25,"ADDRESS":"崇尚街１９號","OBJECTID":543194},"geometry":{"x":181043.22000000067,"y":2540518.2500000019}},{"attributes":{"ID":543222,"DIS_CODE":0,"TOWNNAME":"關廟區","LI":"北勢里","LIN":"12鄰","STREET":"北安三街","SECT":" ","MAREA":" ","LANE":" ","ALLEY":" ","HOUSE_NO":"９２號","E_COORD97":181583.79000000001,"N_COORD97":2540578.3199999998,"ADDRESS":"北安三街９２號","OBJECTID":543195},"geometry":{"x":181583.79000000097,"y":2540578.3200000022}},{"attributes":{"ID":543223,"DIS_CODE":0,"TOWNNAME":"關廟區","LI":"五甲里","LIN":"12鄰","STREET":"南雄路","SECT":"一段","MAREA":" ","LANE":" ","ALLEY":" ","HOUSE_NO":"１０６６號","E_COORD97":181133.25,"N_COORD97":2539683.1699999999,"ADDRESS":"南雄路一段１０６６號","OBJECTID":543196},"geometry":{"x":181133.25,"y":2539683.1699999981}},{"attributes":{"ID":543224,"DIS_CODE":0,"TOWNNAME":"關廟區","LI":"北勢里","LIN":"12鄰","STREET":"仁愛路","SECT":" ","MAREA":" ","LANE":" ","ALLEY":" ","HOUSE_NO":"２３２號","E_COORD97":181444.48999999999,"N_COORD97":2540523.2799999998,"ADDRESS":"仁愛路２３２號","OBJECTID":543197},"geometry":{"x":181444.48999999929,"y":2540523.2800000012}},{"attributes":{"ID":543225,"DIS_CODE":0,"TOWNNAME":"關廟區","LI":"北勢里","LIN":"12鄰","STREET":"仁愛路","SECT":" ","MAREA":" ","LANE":" ","ALLEY":" ","HOUSE_NO":"２７０號","E_COORD97":181467.89000000001,"N_COORD97":2540583.2799999998,"ADDRESS":"仁愛路２７０號","OBJECTID":543198},"geometry":{"x":181467.88999999966,"y":2540583.2799999993}},{"attributes":{"ID":543226,"DIS_CODE":0,"TOWNNAME":"新化區","LI":"護國里","LIN":"10鄰","STREET":"中山路","SECT":" ","MAREA":" ","LANE":" ","ALLEY":" ","HOUSE_NO":"１２號之１","E_COORD97":180539.79000000001,"N_COORD97":2550428.2599999998,"ADDRESS":"中山路１２號之１","OBJECTID":543199},"geometry":{"x":180539.79000000004,"y":2550428.2600000016}},{"attributes":{"ID":543227,"DIS_CODE":0,"TOWNNAME":"歸仁區","LI":"南保里","LIN":"12鄰","STREET":"文化十街","SECT":" ","MAREA":" ","LANE":" ","ALLEY":" ","HOUSE_NO":"２４號","E_COORD97":176561.64000000001,"N_COORD97":2541325.3300000001,"ADDRESS":"文化十街２４號","OBJECTID":543200},"geometry":{"x":176561.6400000006,"y":2541325.3300000001}}]}