{"displayFieldName":"TOWNNAME","fieldAliases":{"ID":"ID","DIS_CODE":"DIS_CODE","TOWNNAME":"TOWNNAME","LI":"LI","LIN":"LIN","STREET":"STREET","SECT":"SECT","MAREA":"MAREA","LANE":"LANE","ALLEY":"ALLEY","HOUSE_NO":"HOUSE_NO","E_COORD97":"E_COORD97","N_COORD97":"N_COORD97","ADDRESS":"ADDRESS","OBJECTID":"OBJECTID"},"geometryType":"esriGeometryPoint","spatialReference":{"wkid":102443,"latestWkid":3826},"fields":[{"name":"ID","type":"esriFieldTypeDouble","alias":"ID"},{"name":"DIS_CODE","type":"esriFieldTypeInteger","alias":"DIS_CODE"},{"name":"TOWNNAME","type":"esriFieldTypeString","alias":"TOWNNAME","length":8},{"name":"LI","type":"esriFieldTypeString","alias":"LI","length":8},{"name":"LIN","type":"esriFieldTypeString","alias":"LIN","length":12},{"name":"STREET","type":"esriFieldTypeString","alias":"STREET","length":20},{"name":"SECT","type":"esriFieldTypeString","alias":"SECT","length":8},{"name":"MAREA","type":"esriFieldTypeString","alias":"MAREA","length":12},{"name":"LANE","type":"esriFieldTypeString","alias":"LANE","length":10},{"name":"ALLEY","type":"esriFieldTypeString","alias":"ALLEY","length":10},{"name":"HOUSE_NO","type":"esriFieldTypeString","alias":"HOUSE_NO","length":20},{"name":"E_COORD97","type":"esriFieldTypeDouble","alias":"E_COORD97"},{"name":"N_COORD97","type":"esriFieldTypeDouble","alias":"N_COORD97"},{"name":"ADDRESS","type":"esriFieldTypeString","alias":"ADDRESS","length":50},{"name":"OBJECTID","type":"esriFieldTypeOID","alias":"OBJECTID"}],"features":[{"attributes":{"ID":517628,"DIS_CODE":0,"TOWNNAME":"安南區","LI":"\u25A0田里","LIN":"1鄰","STREET":"\u25A0田路","SECT":" ","MAREA":" ","LANE":" ","ALLEY":" ","HOUSE_NO":"３７３號","E_COORD97":161883.42999999999,"N_COORD97":2548121.1699999999,"ADDRESS":"\u25A0田路３７３號","OBJECTID":517601},"geometry":{"x":161883.4299999997,"y":2548121.1699999999}},{"attributes":{"ID":517629,"DIS_CODE":0,"TOWNNAME":"安南區","LI":"\u25A0田里","LIN":"1鄰","STREET":"\u25A0田路","SECT":" ","MAREA":" ","LANE":" ","ALLEY":" ","HOUSE_NO":"３７５號","E_COORD97":161878.53,"N_COORD97":2548121.1699999999,"ADDRESS":"\u25A0田路３７５號","OBJECTID":517602},"geometry":{"x":161878.53000000212,"y":2548121.1699999999}},{"attributes":{"ID":517630,"DIS_CODE":0,"TOWNNAME":"安南區","LI":"\u25A0田里","LIN":"1鄰","STREET":"\u25A0田路","SECT":" ","MAREA":" ","LANE":" ","ALLEY":" ","HOUSE_NO":"３７７號","E_COORD97":161873.64000000001,"N_COORD97":2548120.77,"ADDRESS":"\u25A0田路３７７號","OBJECTID":517603},"geometry":{"x":161873.64000000153,"y":2548120.7699999977}},{"attributes":{"ID":517631,"DIS_CODE":0,"TOWNNAME":"安南區","LI":"\u25A0田里","LIN":"1鄰","STREET":"\u25A0田路","SECT":" ","MAREA":" ","LANE":" ","ALLEY":" ","HOUSE_NO":"３７９號","E_COORD97":161869.01000000001,"N_COORD97":2548120.3700000001,"ADDRESS":"\u25A0田路３７９號","OBJECTID":517604},"geometry":{"x":161869.00999999978,"y":2548120.370000001}},{"attributes":{"ID":517632,"DIS_CODE":0,"TOWNNAME":"安南區","LI":"\u25A0田里","LIN":"1鄰","STREET":"\u25A0田路","SECT":" ","MAREA":" ","LANE":" ","ALLEY":" ","HOUSE_NO":"３８１號","E_COORD97":161863.59,"N_COORD97":2548120.3700000001,"ADDRESS":"\u25A0田路３８１號","OBJECTID":517605},"geometry":{"x":161863.58999999985,"y":2548120.370000001}},{"attributes":{"ID":517633,"DIS_CODE":0,"TOWNNAME":"安南區","LI":"\u25A0田里","LIN":"1鄰","STREET":"\u25A0田路","SECT":" ","MAREA":" ","LANE":" ","ALLEY":" ","HOUSE_NO":"３８３號","E_COORD97":161858.56,"N_COORD97":2548120.6400000001,"ADDRESS":"\u25A0田路３８３號","OBJECTID":517606},"geometry":{"x":161858.55999999959,"y":2548120.6400000025}},{"attributes":{"ID":517634,"DIS_CODE":0,"TOWNNAME":"安南區","LI":"\u25A0田里","LIN":"1鄰","STREET":"\u25A0田路","SECT":" ","MAREA":" ","LANE":" ","ALLEY":" ","HOUSE_NO":"３８７號","E_COORD97":161850.35999999999,"N_COORD97":2548120.8999999999,"ADDRESS":"\u25A0田路３８７號","OBJECTID":517607},"geometry":{"x":161850.36000000034,"y":2548120.9000000041}},{"attributes":{"ID":517635,"DIS_CODE":0,"TOWNNAME":"安南區","LI":"\u25A0田里","LIN":"1鄰","STREET":"\u25A0田路","SECT":" ","MAREA":" ","LANE":" ","ALLEY":" ","HOUSE_NO":"３８９號","E_COORD97":161845.59,"N_COORD97":2548120.6400000001,"ADDRESS":"\u25A0田路３８９號","OBJECTID":517608},"geometry":{"x":161845.59000000078,"y":2548120.6400000025}},{"attributes":{"ID":517636,"DIS_CODE":0,"TOWNNAME":"安南區","LI":"\u25A0田里","LIN":"1鄰","STREET":"\u25A0田路","SECT":" ","MAREA":" ","LANE":" ","ALLEY":" ","HOUSE_NO":"３９１號","E_COORD97":161839.51000000001,"N_COORD97":2548120.77,"ADDRESS":"\u25A0田路３９１號","OBJECTID":517609},"geometry":{"x":161839.51000000071,"y":2548120.7699999977}},{"attributes":{"ID":517637,"DIS_CODE":0,"TOWNNAME":"安南區","LI":"\u25A0田里","LIN":"1鄰","STREET":"\u25A0田路","SECT":" ","MAREA":" ","LANE":" ","ALLEY":" ","HOUSE_NO":"３９３號","E_COORD97":161834.07999999999,"N_COORD97":2548121.5699999998,"ADDRESS":"\u25A0田路３９３號","OBJECTID":517610},"geometry":{"x":161834.08000000101,"y":2548121.5700000003}},{"attributes":{"ID":517638,"DIS_CODE":0,"TOWNNAME":"仁德區","LI":"一甲里","LIN":"1鄰","STREET":"中正路","SECT":"三段","MAREA":" ","LANE":" ","ALLEY":" ","HOUSE_NO":"９１之３號","E_COORD97":173384.94,"N_COORD97":2541635.8199999998,"ADDRESS":"中正路三段９１之３號","OBJECTID":517611},"geometry":{"x":173384.94000000134,"y":2541635.820000004}},{"attributes":{"ID":517639,"DIS_CODE":0,"TOWNNAME":"仁德區","LI":"上崙里","LIN":"1鄰","STREET":"德崙路","SECT":" ","MAREA":" ","LANE":" ","ALLEY":" ","HOUSE_NO":"８７號","E_COORD97":173467.64999999999,"N_COORD97":2538451.52,"ADDRESS":"德崙路８７號","OBJECTID":517612},"geometry":{"x":173467.64999999944,"y":2538451.5200000014}},{"attributes":{"ID":517640,"DIS_CODE":0,"TOWNNAME":"仁德區","LI":"土庫里","LIN":"1鄰","STREET":"大發路","SECT":" ","MAREA":" ","LANE":" ","ALLEY":" ","HOUSE_NO":"２７號","E_COORD97":173213.66,"N_COORD97":2542624.0099999998,"ADDRESS":"大發路２７號","OBJECTID":517613},"geometry":{"x":173213.66000000108,"y":2542624.0100000016}},{"attributes":{"ID":517641,"DIS_CODE":0,"TOWNNAME":"仁德區","LI":"土庫里","LIN":"1鄰","STREET":"大發路","SECT":" ","MAREA":" ","LANE":" ","ALLEY":" ","HOUSE_NO":"３６號","E_COORD97":173244.76000000001,"N_COORD97":2542654.5099999998,"ADDRESS":"大發路３６號","OBJECTID":517614},"geometry":{"x":173244.76000000071,"y":2542654.5100000016}},{"attributes":{"ID":517642,"DIS_CODE":0,"TOWNNAME":"仁德區","LI":"土庫里","LIN":"1鄰","STREET":"大發路","SECT":" ","MAREA":" ","LANE":" ","ALLEY":" ","HOUSE_NO":"１７號","E_COORD97":173210.42999999999,"N_COORD97":2542598.52,"ADDRESS":"大發路１７號","OBJECTID":517615},"geometry":{"x":173210.4299999997,"y":2542598.5199999996}},{"attributes":{"ID":517643,"DIS_CODE":0,"TOWNNAME":"仁德區","LI":"太子里","LIN":"1鄰","STREET":"太子路","SECT":" ","MAREA":" ","LANE":" ","ALLEY":" ","HOUSE_NO":"２１４號","E_COORD97":174222.85000000001,"N_COORD97":2543513.0099999998,"ADDRESS":"太子路２１４號","OBJECTID":517616},"geometry":{"x":174222.84999999963,"y":2543513.0100000016}},{"attributes":{"ID":517644,"DIS_CODE":0,"TOWNNAME":"仁德區","LI":"後壁里","LIN":"1鄰","STREET":"中正路","SECT":"二段","MAREA":" ","LANE":" ","ALLEY":" ","HOUSE_NO":"４０２之１號","E_COORD97":173285.42999999999,"N_COORD97":2539249.04,"ADDRESS":"中正路二段４０２之１號","OBJECTID":517617},"geometry":{"x":173285.43000000156,"y":2539249.0399999991}},{"attributes":{"ID":517645,"DIS_CODE":0,"TOWNNAME":"仁德區","LI":"田厝里","LIN":"1鄰","STREET":"中正路","SECT":"一段","MAREA":" ","LANE":" ","ALLEY":" ","HOUSE_NO":"５２７號","E_COORD97":172851.14000000001,"N_COORD97":2537586.02,"ADDRESS":"中正路一段５２７號","OBJECTID":517618},"geometry":{"x":172851.13999999966,"y":2537586.0200000014}},{"attributes":{"ID":517646,"DIS_CODE":0,"TOWNNAME":"仁德區","LI":"仁義里","LIN":"1鄰","STREET":"義林五街","SECT":" ","MAREA":" ","LANE":" ","ALLEY":" ","HOUSE_NO":"２５號","E_COORD97":174397.31,"N_COORD97":2541003.2599999998,"ADDRESS":"義林五街２５號","OBJECTID":517619},"geometry":{"x":174397.31000000052,"y":2541003.2599999998}},{"attributes":{"ID":517647,"DIS_CODE":0,"TOWNNAME":"仁德區","LI":"土庫里","LIN":"1鄰","STREET":"太乙十二街","SECT":" ","MAREA":" ","LANE":" ","ALLEY":" ","HOUSE_NO":"３７號","E_COORD97":173163.39999999999,"N_COORD97":2542900.2599999998,"ADDRESS":"太乙十二街３７號","OBJECTID":517620},"geometry":{"x":173163.4000000013,"y":2542900.2600000035}},{"attributes":{"ID":517648,"DIS_CODE":0,"TOWNNAME":"仁德區","LI":"仁義里","LIN":"1鄰","STREET":"義林二街","SECT":" ","MAREA":" ","LANE":" ","ALLEY":" ","HOUSE_NO":"２６號","E_COORD97":174119.39999999999,"N_COORD97":2541036.77,"ADDRESS":"義林二街２６號","OBJECTID":517621},"geometry":{"x":174119.4000000013,"y":2541036.7699999996}},{"attributes":{"ID":517649,"DIS_CODE":0,"TOWNNAME":"仁德區","LI":"保安里","LIN":"1鄰","STREET":"文賢路","SECT":"一段","MAREA":" ","LANE":" ","ALLEY":" ","HOUSE_NO":"５１５號","E_COORD97":171079.14999999999,"N_COORD97":2537111.5800000001,"ADDRESS":"文賢路一段５１５號","OBJECTID":517622},"geometry":{"x":171079.14999999944,"y":2537111.5800000019}},{"attributes":{"ID":517650,"DIS_CODE":0,"TOWNNAME":"仁德區","LI":"田厝里","LIN":"1鄰","STREET":"中正路","SECT":"一段","MAREA":" ","LANE":" ","ALLEY":" ","HOUSE_NO":"５０９號","E_COORD97":172828.06,"N_COORD97":2537541.5299999998,"ADDRESS":"中正路一段５０９號","OBJECTID":517623},"geometry":{"x":172828.05999999959,"y":2537541.5300000012}},{"attributes":{"ID":517651,"DIS_CODE":0,"TOWNNAME":"仁德區","LI":"仁義里","LIN":"1鄰","STREET":"義林三街","SECT":" ","MAREA":" ","LANE":" ","ALLEY":" ","HOUSE_NO":"４２號","E_COORD97":174383.98999999999,"N_COORD97":2540969.2599999998,"ADDRESS":"義林三街４２號","OBJECTID":517624},"geometry":{"x":174383.98999999929,"y":2540969.2599999998}},{"attributes":{"ID":517652,"DIS_CODE":0,"TOWNNAME":"仁德區","LI":"仁義里","LIN":"1鄰","STREET":"義林二街","SECT":" ","MAREA":" ","LANE":" ","ALLEY":" ","HOUSE_NO":"６８號","E_COORD97":174138.01000000001,"N_COORD97":2541170.77,"ADDRESS":"義林二街６８號","OBJECTID":517625},"geometry":{"x":174138.01000000071,"y":2541170.7700000033}},{"attributes":{"ID":517653,"DIS_CODE":0,"TOWNNAME":"仁德區","LI":"仁義里","LIN":"1鄰","STREET":"義林三街","SECT":" ","MAREA":" ","LANE":" ","ALLEY":" ","HOUSE_NO":"３２號","E_COORD97":174411.06,"N_COORD97":2540966.0099999998,"ADDRESS":"義林三街３２號","OBJECTID":517626},"geometry":{"x":174411.05999999959,"y":2540966.0100000035}},{"attributes":{"ID":517654,"DIS_CODE":0,"TOWNNAME":"仁德區","LI":"仁義里","LIN":"1鄰","STREET":"義林五街","SECT":" ","MAREA":" ","LANE":" ","ALLEY":" ","HOUSE_NO":"７號","E_COORD97":174437.5,"N_COORD97":2540996.0099999998,"ADDRESS":"義林五街７號","OBJECTID":517627},"geometry":{"x":174437.5,"y":2540996.0099999998}},{"attributes":{"ID":517655,"DIS_CODE":0,"TOWNNAME":"仁德區","LI":"太子里","LIN":"1鄰","STREET":"太子路","SECT":" ","MAREA":" ","LANE":" ","ALLEY":" ","HOUSE_NO":"２４２號","E_COORD97":174151.60999999999,"N_COORD97":2543508.2599999998,"ADDRESS":"太子路２４２號","OBJECTID":517628},"geometry":{"x":174151.61000000127,"y":2543508.2600000016}},{"attributes":{"ID":517656,"DIS_CODE":0,"TOWNNAME":"仁德區","LI":"仁義里","LIN":"1鄰","STREET":"義林五街","SECT":" ","MAREA":" ","LANE":" ","ALLEY":" ","HOUSE_NO":"１８之２號","E_COORD97":174413.62,"N_COORD97":2541021.5499999998,"ADDRESS":"義林五街１８之２號","OBJECTID":517629},"geometry":{"x":174413.62000000197,"y":2541021.5500000026}},{"attributes":{"ID":517657,"DIS_CODE":0,"TOWNNAME":"仁德區","LI":"仁義里","LIN":"1鄰","STREET":"義林二街","SECT":" ","MAREA":" ","LANE":" ","ALLEY":" ","HOUSE_NO":"５２號","E_COORD97":174130.85000000001,"N_COORD97":2541120.5099999998,"ADDRESS":"義林二街５２號","OBJECTID":517630},"geometry":{"x":174130.85000000056,"y":2541120.5099999998}},{"attributes":{"ID":517658,"DIS_CODE":0,"TOWNNAME":"仁德區","LI":"仁德里","LIN":"1鄰","STREET":"中正路","SECT":"二段","MAREA":" ","LANE":" ","ALLEY":" ","HOUSE_NO":"６３５號","E_COORD97":173355.13,"N_COORD97":2539966.27,"ADDRESS":"中正路二段６３５號","OBJECTID":517631},"geometry":{"x":173355.12999999989,"y":2539966.2699999996}},{"attributes":{"ID":517659,"DIS_CODE":0,"TOWNNAME":"仁德區","LI":"太子里","LIN":"1鄰","STREET":"太子路","SECT":" ","MAREA":" ","LANE":" ","ALLEY":" ","HOUSE_NO":"２５６號","E_COORD97":174128.72,"N_COORD97":2543512.5099999998,"ADDRESS":"太子路２５６號","OBJECTID":517632},"geometry":{"x":174128.71999999974,"y":2543512.5100000016}},{"attributes":{"ID":517660,"DIS_CODE":0,"TOWNNAME":"仁德區","LI":"土庫里","LIN":"1鄰","STREET":"太乙十二街","SECT":" ","MAREA":" ","LANE":" ","ALLEY":" ","HOUSE_NO":"２２號","E_COORD97":173165.79999999999,"N_COORD97":2542707.5099999998,"ADDRESS":"太乙十二街２２號","OBJECTID":517633},"geometry":{"x":173165.79999999981,"y":2542707.5099999998}},{"attributes":{"ID":517661,"DIS_CODE":0,"TOWNNAME":"仁德區","LI":"仁德里","LIN":"1鄰","STREET":"中正路","SECT":"二段","MAREA":" ","LANE":" ","ALLEY":" ","HOUSE_NO":"６６５號","E_COORD97":173409.23999999999,"N_COORD97":2540030.7799999998,"ADDRESS":"中正路二段６６５號","OBJECTID":517634},"geometry":{"x":173409.23999999929,"y":2540030.7799999993}},{"attributes":{"ID":517662,"DIS_CODE":0,"TOWNNAME":"仁德區","LI":"保安里","LIN":"1鄰","STREET":"文賢路","SECT":"一段","MAREA":" ","LANE":" ","ALLEY":" ","HOUSE_NO":"５０９號","E_COORD97":171072.76000000001,"N_COORD97":2537122.8300000001,"ADDRESS":"文賢路一段５０９號","OBJECTID":517635},"geometry":{"x":171072.76000000164,"y":2537122.8300000038}},{"attributes":{"ID":517663,"DIS_CODE":0,"TOWNNAME":"仁德區","LI":"土庫里","LIN":"1鄰","STREET":"太乙十二街","SECT":" ","MAREA":" ","LANE":" ","ALLEY":" ","HOUSE_NO":"１６號","E_COORD97":173163.32000000001,"N_COORD97":2542685.2599999998,"ADDRESS":"太乙十二街１６號","OBJECTID":517636},"geometry":{"x":173163.32000000123,"y":2542685.2599999998}},{"attributes":{"ID":517664,"DIS_CODE":0,"TOWNNAME":"仁德區","LI":"仁義里","LIN":"1鄰","STREET":"義林七街","SECT":" ","MAREA":" ","LANE":" ","ALLEY":" ","HOUSE_NO":"１７０號","E_COORD97":174255.5,"N_COORD97":2541151.27,"ADDRESS":"義林七街１７０號","OBJECTID":517637},"geometry":{"x":174255.50000000093,"y":2541151.2700000014}},{"attributes":{"ID":517665,"DIS_CODE":0,"TOWNNAME":"仁德區","LI":"後壁里","LIN":"1鄰","STREET":"中正路","SECT":"二段","MAREA":" ","LANE":" ","ALLEY":" ","HOUSE_NO":"３５８號","E_COORD97":173270.98999999999,"N_COORD97":2539145.02,"ADDRESS":"中正路二段３５８號","OBJECTID":517638},"geometry":{"x":173270.99000000115,"y":2539145.0200000033}},{"attributes":{"ID":517666,"DIS_CODE":0,"TOWNNAME":"仁德區","LI":"仁義里","LIN":"1鄰","STREET":"義林七街","SECT":" ","MAREA":" ","LANE":" ","ALLEY":" ","HOUSE_NO":"１８２號","E_COORD97":174233.09,"N_COORD97":2541154.52,"ADDRESS":"義林七街１８２號","OBJECTID":517639},"geometry":{"x":174233.08999999985,"y":2541154.5199999996}},{"attributes":{"ID":517667,"DIS_CODE":0,"TOWNNAME":"仁德區","LI":"後壁里","LIN":"1鄰","STREET":"中正路","SECT":"二段","MAREA":" ","LANE":" ","ALLEY":" ","HOUSE_NO":"３９２號之１","E_COORD97":173281.45999999999,"N_COORD97":2539227.79,"ADDRESS":"中正路二段３９２號之１","OBJECTID":517640},"geometry":{"x":173281.45999999996,"y":2539227.790000001}},{"attributes":{"ID":517668,"DIS_CODE":0,"TOWNNAME":"仁德區","LI":"仁義里","LIN":"1鄰","STREET":"義林七街","SECT":" ","MAREA":" ","LANE":" ","ALLEY":" ","HOUSE_NO":"１０７號","E_COORD97":174213.82999999999,"N_COORD97":2541134.27,"ADDRESS":"義林七街１０７號","OBJECTID":517641},"geometry":{"x":174213.83000000194,"y":2541134.2700000014}},{"attributes":{"ID":517669,"DIS_CODE":0,"TOWNNAME":"仁德區","LI":"後壁里","LIN":"1鄰","STREET":"中正路","SECT":"二段","MAREA":" ","LANE":" ","ALLEY":" ","HOUSE_NO":"３６４號","E_COORD97":173272.34,"N_COORD97":2539156.2799999998,"ADDRESS":"中正路二段３６４號","OBJECTID":517642},"geometry":{"x":173272.33999999985,"y":2539156.2799999975}},{"attributes":{"ID":517670,"DIS_CODE":0,"TOWNNAME":"仁德區","LI":"仁義里","LIN":"1鄰","STREET":"義林七街","SECT":" ","MAREA":" ","LANE":" ","ALLEY":" ","HOUSE_NO":"１２５號","E_COORD97":174176.51000000001,"N_COORD97":2541138.77,"ADDRESS":"義林七街１２５號","OBJECTID":517643},"geometry":{"x":174176.50999999978,"y":2541138.7699999996}},{"attributes":{"ID":517671,"DIS_CODE":0,"TOWNNAME":"仁德區","LI":"田厝里","LIN":"1鄰","STREET":"保安路","SECT":"二段","MAREA":" ","LANE":" ","ALLEY":" ","HOUSE_NO":"６２２號","E_COORD97":172758.69,"N_COORD97":2537583.8100000001,"ADDRESS":"保安路二段６２２號","OBJECTID":517644},"geometry":{"x":172758.69000000041,"y":2537583.8100000005}},{"attributes":{"ID":517672,"DIS_CODE":0,"TOWNNAME":"仁德區","LI":"後壁里","LIN":"1鄰","STREET":"中正路","SECT":"二段","MAREA":" ","LANE":" ","ALLEY":" ","HOUSE_NO":"３８６號","E_COORD97":173278.14999999999,"N_COORD97":2539209.77,"ADDRESS":"中正路二段３８６號","OBJECTID":517645},"geometry":{"x":173278.1500000013,"y":2539209.7699999996}},{"attributes":{"ID":517673,"DIS_CODE":0,"TOWNNAME":"仁德區","LI":"田厝里","LIN":"1鄰","STREET":"保安路","SECT":"二段","MAREA":" ","LANE":" ","ALLEY":" ","HOUSE_NO":"６３２號","E_COORD97":172781.14999999999,"N_COORD97":2537586.0600000001,"ADDRESS":"保安路二段６３２號","OBJECTID":517646},"geometry":{"x":172781.15000000224,"y":2537586.0600000042}},{"attributes":{"ID":517674,"DIS_CODE":0,"TOWNNAME":"仁德區","LI":"後壁里","LIN":"1鄰","STREET":"中正路","SECT":"二段","MAREA":" ","LANE":" ","ALLEY":" ","HOUSE_NO":"３８２號","E_COORD97":173277.60000000001,"N_COORD97":2539201.0299999998,"ADDRESS":"中正路二段３８２號","OBJECTID":517647},"geometry":{"x":173277.60000000056,"y":2539201.0299999993}},{"attributes":{"ID":517675,"DIS_CODE":0,"TOWNNAME":"仁德區","LI":"仁義里","LIN":"1鄰","STREET":"義林七街","SECT":" ","MAREA":" ","LANE":" ","ALLEY":" ","HOUSE_NO":"１１５號","E_COORD97":174197.09,"N_COORD97":2541136.52,"ADDRESS":"義林七街１１５號","OBJECTID":517648},"geometry":{"x":174197.09000000078,"y":2541136.5200000014}},{"attributes":{"ID":517676,"DIS_CODE":0,"TOWNNAME":"仁德區","LI":"仁義里","LIN":"1鄰","STREET":"義林七街","SECT":" ","MAREA":" ","LANE":" ","ALLEY":" ","HOUSE_NO":"１３５號","E_COORD97":174154.54000000001,"N_COORD97":2541141.77,"ADDRESS":"義林七街１３５號","OBJECTID":517649},"geometry":{"x":174154.54000000004,"y":2541141.7700000014}},{"attributes":{"ID":517677,"DIS_CODE":0,"TOWNNAME":"仁德區","LI":"太子里","LIN":"1鄰","STREET":"太子路","SECT":" ","MAREA":" ","LANE":" ","ALLEY":" ","HOUSE_NO":"２５８號","E_COORD97":174124.09,"N_COORD97":2543514.0099999998,"ADDRESS":"太子路２５８號","OBJECTID":517650},"geometry":{"x":174124.09000000078,"y":2543514.0099999998}},{"attributes":{"ID":517678,"DIS_CODE":0,"TOWNNAME":"仁德區","LI":"仁義里","LIN":"1鄰","STREET":"義林五街","SECT":" ","MAREA":" ","LANE":" ","ALLEY":" ","HOUSE_NO":"１３６號","E_COORD97":174123.79999999999,"N_COORD97":2541055.77,"ADDRESS":"義林五街１３６號","OBJECTID":517651},"geometry":{"x":174123.79999999888,"y":2541055.7700000014}},{"attributes":{"ID":517679,"DIS_CODE":0,"TOWNNAME":"仁德區","LI":"仁義里","LIN":"1鄰","STREET":"義林五街","SECT":" ","MAREA":" ","LANE":" ","ALLEY":" ","HOUSE_NO":"２１號","E_COORD97":174406.53,"N_COORD97":2541001.7599999998,"ADDRESS":"義林五街２１號","OBJECTID":517652},"geometry":{"x":174406.53000000119,"y":2541001.7600000016}},{"attributes":{"ID":517680,"DIS_CODE":0,"TOWNNAME":"仁德區","LI":"仁德里","LIN":"1鄰","STREET":"中正路","SECT":"二段","MAREA":" ","LANE":" ","ALLEY":" ","HOUSE_NO":"６２９號","E_COORD97":173350.42999999999,"N_COORD97":2539937.77,"ADDRESS":"中正路二段６２９號","OBJECTID":517653},"geometry":{"x":173350.43000000063,"y":2539937.7700000014}},{"attributes":{"ID":517681,"DIS_CODE":0,"TOWNNAME":"仁德區","LI":"土庫里","LIN":"1鄰","STREET":"太乙十二街","SECT":" ","MAREA":" ","LANE":" ","ALLEY":" ","HOUSE_NO":"２４號","E_COORD97":173166.22,"N_COORD97":2542717.2599999998,"ADDRESS":"太乙十二街２４號","OBJECTID":517654},"geometry":{"x":173166.21999999974,"y":2542717.2600000016}},{"attributes":{"ID":517682,"DIS_CODE":0,"TOWNNAME":"仁德區","LI":"一甲里","LIN":"1鄰","STREET":"中正路","SECT":"三段","MAREA":" ","LANE":" ","ALLEY":" ","HOUSE_NO":"９７號","E_COORD97":173386.06,"N_COORD97":2541646.0600000001,"ADDRESS":"中正路三段９７號","OBJECTID":517655},"geometry":{"x":173386.05999999866,"y":2541646.0600000005}},{"attributes":{"ID":517683,"DIS_CODE":0,"TOWNNAME":"仁德區","LI":"仁義里","LIN":"1鄰","STREET":"義林二街","SECT":" ","MAREA":" ","LANE":" ","ALLEY":" ","HOUSE_NO":"６６號","E_COORD97":174137.42000000001,"N_COORD97":2541166.27,"ADDRESS":"義林二街６６號","OBJECTID":517656},"geometry":{"x":174137.42000000086,"y":2541166.2699999996}},{"attributes":{"ID":517684,"DIS_CODE":0,"TOWNNAME":"仁德區","LI":"田厝里","LIN":"1鄰","STREET":"中正路","SECT":"一段","MAREA":" ","LANE":" ","ALLEY":" ","HOUSE_NO":"５２９號","E_COORD97":172853.35999999999,"N_COORD97":2537590.77,"ADDRESS":"中正路一段５２９號","OBJECTID":517657},"geometry":{"x":172853.36000000127,"y":2537590.7700000014}},{"attributes":{"ID":517685,"DIS_CODE":0,"TOWNNAME":"仁德區","LI":"土庫里","LIN":"1鄰","STREET":"大發路","SECT":" ","MAREA":" ","LANE":" ","ALLEY":" ","HOUSE_NO":"４３號","E_COORD97":173213.42999999999,"N_COORD97":2542706.02,"ADDRESS":"大發路４３號","OBJECTID":517658},"geometry":{"x":173213.4299999997,"y":2542706.0200000014}},{"attributes":{"ID":517686,"DIS_CODE":0,"TOWNNAME":"仁德區","LI":"仁義里","LIN":"1鄰","STREET":"義林三街","SECT":" ","MAREA":" ","LANE":" ","ALLEY":" ","HOUSE_NO":"２２號","E_COORD97":174433.92000000001,"N_COORD97":2540963.77,"ADDRESS":"義林三街２２號","OBJECTID":517659},"geometry":{"x":174433.92000000086,"y":2540963.7700000033}},{"attributes":{"ID":517687,"DIS_CODE":0,"TOWNNAME":"仁德區","LI":"後壁里","LIN":"1鄰","STREET":"中正路","SECT":"二段","MAREA":" ","LANE":" ","ALLEY":" ","HOUSE_NO":"４１８號","E_COORD97":173287.70999999999,"N_COORD97":2539276.2799999998,"ADDRESS":"中正路二段４１８號","OBJECTID":517660},"geometry":{"x":173287.71000000089,"y":2539276.2800000012}},{"attributes":{"ID":517688,"DIS_CODE":0,"TOWNNAME":"仁德區","LI":"後壁里","LIN":"1鄰","STREET":"中正路","SECT":"二段","MAREA":" ","LANE":" ","ALLEY":" ","HOUSE_NO":"３７２號","E_COORD97":173274.70999999999,"N_COORD97":2539175.2799999998,"ADDRESS":"中正路二段３７２號","OBJECTID":517661},"geometry":{"x":173274.70999999996,"y":2539175.2799999993}},{"attributes":{"ID":517689,"DIS_CODE":0,"TOWNNAME":"仁德區","LI":"仁義里","LIN":"1鄰","STREET":"義林五街","SECT":" ","MAREA":" ","LANE":" ","ALLEY":" ","HOUSE_NO":"９６號","E_COORD97":174192.75,"N_COORD97":2541049.02,"ADDRESS":"義林五街９６號","OBJECTID":517662},"geometry":{"x":174192.75000000093,"y":2541049.0199999996}},{"attributes":{"ID":517690,"DIS_CODE":0,"TOWNNAME":"仁德區","LI":"仁義里","LIN":"1鄰","STREET":"義林七街","SECT":" ","MAREA":" ","LANE":" ","ALLEY":" ","HOUSE_NO":"４７號","E_COORD97":174409.32000000001,"N_COORD97":2541110.0099999998,"ADDRESS":"義林七街４７號","OBJECTID":517663},"geometry":{"x":174409.32000000123,"y":2541110.0099999998}},{"attributes":{"ID":517691,"DIS_CODE":0,"TOWNNAME":"仁德區","LI":"仁義里","LIN":"1鄰","STREET":"義林六街","SECT":" ","MAREA":" ","LANE":" ","ALLEY":" ","HOUSE_NO":"１１５號","E_COORD97":174163.45000000001,"N_COORD97":2541086.2599999998,"ADDRESS":"義林六街１１５號","OBJECTID":517664},"geometry":{"x":174163.45000000019,"y":2541086.2600000035}},{"attributes":{"ID":517692,"DIS_CODE":0,"TOWNNAME":"仁德區","LI":"仁義里","LIN":"1鄰","STREET":"義林六街","SECT":" ","MAREA":" ","LANE":" ","ALLEY":" ","HOUSE_NO":"４１號","E_COORD97":174367.98999999999,"N_COORD97":2541061.27,"ADDRESS":"義林六街４１號","OBJECTID":517665},"geometry":{"x":174367.99000000115,"y":2541061.2699999996}},{"attributes":{"ID":517693,"DIS_CODE":0,"TOWNNAME":"仁德區","LI":"仁義里","LIN":"1鄰","STREET":"義林七街","SECT":" ","MAREA":" ","LANE":" ","ALLEY":" ","HOUSE_NO":"１３７號","E_COORD97":174149.84,"N_COORD97":2541142.02,"ADDRESS":"義林七街１３７號","OBJECTID":517666},"geometry":{"x":174149.84000000078,"y":2541142.0200000033}},{"attributes":{"ID":517694,"DIS_CODE":0,"TOWNNAME":"仁德區","LI":"二行里","LIN":"1鄰","STREET":"二仁路","SECT":"一段","MAREA":" ","LANE":" ","ALLEY":" ","HOUSE_NO":"２１１之５號","E_COORD97":170416.22,"N_COORD97":2535842.7999999998,"ADDRESS":"二仁路一段２１１之５號","OBJECTID":517667},"geometry":{"x":170416.21999999974,"y":2535842.8000000026}},{"attributes":{"ID":517695,"DIS_CODE":0,"TOWNNAME":"仁德區","LI":"二行里","LIN":"1鄰","STREET":"二仁路","SECT":"一段","MAREA":" ","LANE":" ","ALLEY":" ","HOUSE_NO":"１６５之２號","E_COORD97":170496.42999999999,"N_COORD97":2535713.29,"ADDRESS":"二仁路一段１６５之２號","OBJECTID":517668},"geometry":{"x":170496.4299999997,"y":2535713.2899999991}},{"attributes":{"ID":517696,"DIS_CODE":0,"TOWNNAME":"仁德區","LI":"上崙里","LIN":"1鄰","STREET":"德崙路","SECT":" ","MAREA":" ","LANE":" ","ALLEY":" ","HOUSE_NO":"１６７號","E_COORD97":173580.17999999999,"N_COORD97":2538362.77,"ADDRESS":"德崙路１６７號","OBJECTID":517669},"geometry":{"x":173580.1799999997,"y":2538362.7699999996}},{"attributes":{"ID":517697,"DIS_CODE":0,"TOWNNAME":"仁德區","LI":"仁義里","LIN":"1鄰","STREET":"義林六街","SECT":" ","MAREA":" ","LANE":" ","ALLEY":" ","HOUSE_NO":"７１號","E_COORD97":174248.66,"N_COORD97":2541065.52,"ADDRESS":"義林六街７１號","OBJECTID":517670},"geometry":{"x":174248.66000000015,"y":2541065.5200000014}},{"attributes":{"ID":517698,"DIS_CODE":0,"TOWNNAME":"仁德區","LI":"仁義里","LIN":"1鄰","STREET":"義林六街","SECT":" ","MAREA":" ","LANE":" ","ALLEY":" ","HOUSE_NO":"４５號","E_COORD97":174356.82000000001,"N_COORD97":2541062.27,"ADDRESS":"義林六街４５號","OBJECTID":517671},"geometry":{"x":174356.82000000123,"y":2541062.2700000033}},{"attributes":{"ID":517699,"DIS_CODE":0,"TOWNNAME":"仁德區","LI":"二行里","LIN":"1鄰","STREET":"二仁路","SECT":"一段","MAREA":" ","LANE":" ","ALLEY":" ","HOUSE_NO":"２４７號","E_COORD97":170388.70999999999,"N_COORD97":2535908.52,"ADDRESS":"二仁路一段２４７號","OBJECTID":517672},"geometry":{"x":170388.71000000089,"y":2535908.5200000014}},{"attributes":{"ID":517700,"DIS_CODE":0,"TOWNNAME":"仁德區","LI":"二行里","LIN":"1鄰","STREET":"二仁路","SECT":"一段","MAREA":" ","LANE":" ","ALLEY":" ","HOUSE_NO":"１７５號","E_COORD97":170477.60999999999,"N_COORD97":2535734.27,"ADDRESS":"二仁路一段１７５號","OBJECTID":517673},"geometry":{"x":170477.6099999994,"y":2535734.2699999996}},{"attributes":{"ID":517701,"DIS_CODE":0,"TOWNNAME":"佳里區","LI":"建南里","LIN":"1鄰","STREET":"義民街","SECT":" ","MAREA":" ","LANE":" ","ALLEY":" ","HOUSE_NO":"１８３號","E_COORD97":165654.07000000001,"N_COORD97":2562393.5099999998,"ADDRESS":"義民街１８３號","OBJECTID":517674},"geometry":{"x":165654.07000000123,"y":2562393.5100000016}},{"attributes":{"ID":517702,"DIS_CODE":0,"TOWNNAME":"佳里區","LI":"建南里","LIN":"1鄰","STREET":"義民街","SECT":" ","MAREA":" ","LANE":" ","ALLEY":" ","HOUSE_NO":"１８５號","E_COORD97":165650.06,"N_COORD97":2562393.1800000002,"ADDRESS":"義民街１８５號","OBJECTID":517675},"geometry":{"x":165650.06000000052,"y":2562393.1800000016}},{"attributes":{"ID":517703,"DIS_CODE":0,"TOWNNAME":"佳里區","LI":"建南里","LIN":"1鄰","STREET":"義民街","SECT":" ","MAREA":" ","LANE":" ","ALLEY":" ","HOUSE_NO":"１８７號","E_COORD97":165646.17000000001,"N_COORD97":2562392.7000000002,"ADDRESS":"義民街１８７號","OBJECTID":517676},"geometry":{"x":165646.17000000086,"y":2562392.7000000011}},{"attributes":{"ID":517704,"DIS_CODE":0,"TOWNNAME":"永康區","LI":"三合里","LIN":"1鄰","STREET":"南工街","SECT":" ","MAREA":" ","LANE":" ","ALLEY":" ","HOUSE_NO":"３６號","E_COORD97":172114.67999999999,"N_COORD97":2545567.5800000001,"ADDRESS":"南工街３６號","OBJECTID":517677},"geometry":{"x":172114.68000000063,"y":2545567.5800000019}},{"attributes":{"ID":517705,"DIS_CODE":0,"TOWNNAME":"永康區","LI":"六合里","LIN":"1鄰","STREET":"新興街","SECT":" ","MAREA":" ","LANE":" ","ALLEY":" ","HOUSE_NO":"１２之１號","E_COORD97":170934.26000000001,"N_COORD97":2545780.73,"ADDRESS":"新興街１２之１號","OBJECTID":517678},"geometry":{"x":170934.26000000071,"y":2545780.7300000023}},{"attributes":{"ID":517706,"DIS_CODE":0,"TOWNNAME":"永康區","LI":"王行里","LIN":"1鄰","STREET":"王行路","SECT":" ","MAREA":" ","LANE":" ","ALLEY":" ","HOUSE_NO":"３５號","E_COORD97":175585.98999999999,"N_COORD97":2547907.71,"ADDRESS":"王行路３５號","OBJECTID":517679},"geometry":{"x":175585.99000000209,"y":2547907.7100000009}},{"attributes":{"ID":517707,"DIS_CODE":0,"TOWNNAME":"永康區","LI":"北灣里","LIN":"1鄰","STREET":"大同街","SECT":" ","MAREA":" ","LANE":" ","ALLEY":" ","HOUSE_NO":"１００號","E_COORD97":175116.70999999999,"N_COORD97":2545503.8599999999,"ADDRESS":"大同街１００號","OBJECTID":517680},"geometry":{"x":175116.71000000089,"y":2545503.8600000013}},{"attributes":{"ID":517708,"DIS_CODE":0,"TOWNNAME":"永康區","LI":"埔園里","LIN":"1鄰","STREET":"中山路","SECT":" ","MAREA":" ","LANE":" ","ALLEY":" ","HOUSE_NO":"８０號","E_COORD97":173834.84,"N_COORD97":2547606.4900000002,"ADDRESS":"中山路８０號","OBJECTID":517681},"geometry":{"x":173834.83999999985,"y":2547606.4900000002}},{"attributes":{"ID":517709,"DIS_CODE":0,"TOWNNAME":"永康區","LI":"西橋里","LIN":"1鄰","STREET":"中山南路","SECT":" ","MAREA":" ","LANE":" ","ALLEY":" ","HOUSE_NO":"２７號","E_COORD97":170725.79999999999,"N_COORD97":2545798.75,"ADDRESS":"中山南路２７號","OBJECTID":517682},"geometry":{"x":170725.80000000075,"y":2545798.75}},{"attributes":{"ID":517710,"DIS_CODE":0,"TOWNNAME":"永康區","LI":"網寮里","LIN":"1鄰","STREET":"永二街","SECT":" ","MAREA":" ","LANE":" ","ALLEY":" ","HOUSE_NO":"６１號","E_COORD97":173615.28,"N_COORD97":2546640.6800000002,"ADDRESS":"永二街６１號","OBJECTID":517683},"geometry":{"x":173615.28000000026,"y":2546640.6800000016}},{"attributes":{"ID":517711,"DIS_CODE":0,"TOWNNAME":"永康區","LI":"永康里","LIN":"1鄰","STREET":"中山北路","SECT":" ","MAREA":" ","LANE":" ","ALLEY":" ","HOUSE_NO":"８３號","E_COORD97":174030.07000000001,"N_COORD97":2547421.21,"ADDRESS":"中山北路８３號","OBJECTID":517684},"geometry":{"x":174030.07000000123,"y":2547421.2100000028}},{"attributes":{"ID":517712,"DIS_CODE":0,"TOWNNAME":"永康區","LI":"大灣里","LIN":"1鄰","STREET":"大同街","SECT":" ","MAREA":" ","LANE":" ","ALLEY":" ","HOUSE_NO":"２１７號","E_COORD97":174768.39999999999,"N_COORD97":2545767.3700000001,"ADDRESS":"大同街２１７號","OBJECTID":517685},"geometry":{"x":174768.4000000013,"y":2545767.370000001}},{"attributes":{"ID":517713,"DIS_CODE":0,"TOWNNAME":"永康區","LI":"北灣里","LIN":"1鄰","STREET":"大同街","SECT":" ","MAREA":" ","LANE":" ","ALLEY":" ","HOUSE_NO":"１２號","E_COORD97":175314.28,"N_COORD97":2545422.3900000001,"ADDRESS":"大同街１２號","OBJECTID":517686},"geometry":{"x":175314.28000000026,"y":2545422.3900000043}},{"attributes":{"ID":517714,"DIS_CODE":0,"TOWNNAME":"永康區","LI":"三合里","LIN":"1鄰","STREET":"南工街","SECT":" ","MAREA":" ","LANE":" ","ALLEY":" ","HOUSE_NO":"１８號","E_COORD97":172116.91,"N_COORD97":2545505.7400000002,"ADDRESS":"南工街１８號","OBJECTID":517687},"geometry":{"x":172116.91000000108,"y":2545505.7400000021}},{"attributes":{"ID":517715,"DIS_CODE":0,"TOWNNAME":"永康區","LI":"王行里","LIN":"1鄰","STREET":"王行路","SECT":" ","MAREA":" ","LANE":" ","ALLEY":" ","HOUSE_NO":"２３６號","E_COORD97":175627.26999999999,"N_COORD97":2548226.2999999998,"ADDRESS":"王行路２３６號","OBJECTID":517688},"geometry":{"x":175627.26999999955,"y":2548226.3000000007}},{"attributes":{"ID":517716,"DIS_CODE":0,"TOWNNAME":"永康區","LI":"烏竹里","LIN":"1鄰","STREET":"烏竹北街","SECT":" ","MAREA":" ","LANE":" ","ALLEY":" ","HOUSE_NO":"８５號","E_COORD97":174487.89999999999,"N_COORD97":2549475.04,"ADDRESS":"烏竹北街８５號","OBJECTID":517689},"geometry":{"x":174487.90000000037,"y":2549475.040000001}},{"attributes":{"ID":517717,"DIS_CODE":0,"TOWNNAME":"永康區","LI":"新樹里","LIN":"1鄰","STREET":"富強路","SECT":"二段","MAREA":" ","LANE":" ","ALLEY":" ","HOUSE_NO":"２７６號","E_COORD97":175644.10999999999,"N_COORD97":2547422.6899999999,"ADDRESS":"富強路二段２７６號","OBJECTID":517690},"geometry":{"x":175644.11000000034,"y":2547422.6899999976}},{"attributes":{"ID":517718,"DIS_CODE":0,"TOWNNAME":"永康區","LI":"南灣里","LIN":"1鄰","STREET":"大灣二街","SECT":" ","MAREA":" ","LANE":" ","ALLEY":" ","HOUSE_NO":"１１１號","E_COORD97":174740.73999999999,"N_COORD97":2544781.98,"ADDRESS":"大灣二街１１１號","OBJECTID":517691},"geometry":{"x":174740.74000000115,"y":2544781.9800000023}},{"attributes":{"ID":517719,"DIS_CODE":0,"TOWNNAME":"永康區","LI":"蔦松里","LIN":"1鄰","STREET":"中正北路","SECT":" ","MAREA":" ","LANE":" ","ALLEY":" ","HOUSE_NO":"４５７號","E_COORD97":173678.04999999999,"N_COORD97":2549152.9700000002,"ADDRESS":"中正北路４５７號","OBJECTID":517692},"geometry":{"x":173678.05000000168,"y":2549152.9700000025}},{"attributes":{"ID":517720,"DIS_CODE":0,"TOWNNAME":"永康區","LI":"新樹里","LIN":"1鄰","STREET":"富強路","SECT":"二段","MAREA":" ","LANE":" ","ALLEY":" ","HOUSE_NO":"２０６號","E_COORD97":175649.53,"N_COORD97":2547274.3799999999,"ADDRESS":"富強路二段２０６號","OBJECTID":517693},"geometry":{"x":175649.53000000026,"y":2547274.379999999}},{"attributes":{"ID":517721,"DIS_CODE":0,"TOWNNAME":"永康區","LI":"大灣里","LIN":"1鄰","STREET":"大安街","SECT":" ","MAREA":" ","LANE":" ","ALLEY":" ","HOUSE_NO":"３９０號","E_COORD97":174643.45999999999,"N_COORD97":2545735.1400000001,"ADDRESS":"大安街３９０號","OBJECTID":517694},"geometry":{"x":174643.46000000183,"y":2545735.1400000006}},{"attributes":{"ID":517722,"DIS_CODE":0,"TOWNNAME":"永康區","LI":"三合里","LIN":"1鄰","STREET":"中華二路","SECT":" ","MAREA":" ","LANE":" ","ALLEY":" ","HOUSE_NO":"６６號","E_COORD97":172130.01999999999,"N_COORD97":2545580,"ADDRESS":"中華二路６６號","OBJECTID":517695},"geometry":{"x":172130.01999999955,"y":2545580}},{"attributes":{"ID":517723,"DIS_CODE":0,"TOWNNAME":"永康區","LI":"永康里","LIN":"1鄰","STREET":"埔聖街","SECT":" ","MAREA":" ","LANE":" ","ALLEY":" ","HOUSE_NO":"８２號","E_COORD97":173971.51999999999,"N_COORD97":2547565.46,"ADDRESS":"埔聖街８２號","OBJECTID":517696},"geometry":{"x":173971.52000000048,"y":2547565.4600000028}},{"attributes":{"ID":517724,"DIS_CODE":0,"TOWNNAME":"永康區","LI":"新樹里","LIN":"1鄰","STREET":"富強路","SECT":"二段","MAREA":" ","LANE":" ","ALLEY":" ","HOUSE_NO":"１７０號","E_COORD97":175653.57999999999,"N_COORD97":2547190.29,"ADDRESS":"富強路二段１７０號","OBJECTID":517697},"geometry":{"x":175653.58000000101,"y":2547190.2899999991}},{"attributes":{"ID":517725,"DIS_CODE":0,"TOWNNAME":"永康區","LI":"網寮里","LIN":"1鄰","STREET":"永二街","SECT":" ","MAREA":" ","LANE":" ","ALLEY":" ","HOUSE_NO":"５７號之６","E_COORD97":173622.62,"N_COORD97":2546655.2599999998,"ADDRESS":"永二街５７號之６","OBJECTID":517698},"geometry":{"x":173622.62000000104,"y":2546655.2599999998}},{"attributes":{"ID":517726,"DIS_CODE":0,"TOWNNAME":"永康區","LI":"南灣里","LIN":"1鄰","STREET":"大灣二街","SECT":" ","MAREA":" ","LANE":" ","ALLEY":" ","HOUSE_NO":"１１９號","E_COORD97":174725.95000000001,"N_COORD97":2544795.4500000002,"ADDRESS":"大灣二街１１９號","OBJECTID":517699},"geometry":{"x":174725.95000000019,"y":2544795.4499999993}},{"attributes":{"ID":517727,"DIS_CODE":0,"TOWNNAME":"永康區","LI":"烏竹里","LIN":"1鄰","STREET":"烏竹街","SECT":" ","MAREA":" ","LANE":" ","ALLEY":" ","HOUSE_NO":"６５號","E_COORD97":174481.13,"N_COORD97":2549371.3300000001,"ADDRESS":"烏竹街６５號","OBJECTID":517700},"geometry":{"x":174481.13000000175,"y":2549371.3300000001}},{"attributes":{"ID":517728,"DIS_CODE":0,"TOWNNAME":"永康區","LI":"東灣里","LIN":"1鄰","STREET":"南灣街","SECT":" ","MAREA":" ","LANE":" ","ALLEY":" ","HOUSE_NO":"３６號","E_COORD97":174586.57999999999,"N_COORD97":2544907.1600000001,"ADDRESS":"南灣街３６號","OBJECTID":517701},"geometry":{"x":174586.58000000007,"y":2544907.1600000001}},{"attributes":{"ID":517729,"DIS_CODE":0,"TOWNNAME":"永康區","LI":"烏竹里","LIN":"1鄰","STREET":"龍橋街","SECT":" ","MAREA":" ","LANE":" ","ALLEY":" ","HOUSE_NO":"５０７號","E_COORD97":174364.97,"N_COORD97":2549443.5899999999,"ADDRESS":"龍橋街５０７號","OBJECTID":517702},"geometry":{"x":174364.96999999881,"y":2549443.5899999999}},{"attributes":{"ID":517730,"DIS_CODE":0,"TOWNNAME":"安南區","LI":"南興里","LIN":"1鄰","STREET":"安中路","SECT":"五段","MAREA":" ","LANE":" ","ALLEY":" ","HOUSE_NO":"４８８之２號","E_COORD97":162283.47,"N_COORD97":2551261.7999999998,"ADDRESS":"安中路五段４８８之２號","OBJECTID":517703},"geometry":{"x":162283.4700000016,"y":2551261.8000000026}},{"attributes":{"ID":517731,"DIS_CODE":0,"TOWNNAME":"安南區","LI":"佃東里","LIN":"1鄰","STREET":"台江大道","SECT":"三段","MAREA":" ","LANE":" ","ALLEY":" ","HOUSE_NO":"１１２號","E_COORD97":166725.69,"N_COORD97":2551269.75,"ADDRESS":"台江大道三段１１２號","OBJECTID":517704},"geometry":{"x":166725.68999999948,"y":2551269.75}},{"attributes":{"ID":517732,"DIS_CODE":0,"TOWNNAME":"安南區","LI":"淵東里","LIN":"1鄰","STREET":"海佃路","SECT":"四段","MAREA":" ","LANE":" ","ALLEY":" ","HOUSE_NO":"１１之１號","E_COORD97":165753.88,"N_COORD97":2550490.5899999999,"ADDRESS":"海佃路四段１１之１號","OBJECTID":517705},"geometry":{"x":165753.87999999989,"y":2550490.5900000017}},{"attributes":{"ID":517733,"DIS_CODE":0,"TOWNNAME":"安南區","LI":"公親里","LIN":"1鄰","STREET":"安吉路","SECT":"三段","MAREA":" ","LANE":" ","ALLEY":" ","HOUSE_NO":"４８６號","E_COORD97":167405.34,"N_COORD97":2553065.9100000001,"ADDRESS":"安吉路三段４８６號","OBJECTID":517706},"geometry":{"x":167405.33999999985,"y":2553065.9100000001}},{"attributes":{"ID":517734,"DIS_CODE":0,"TOWNNAME":"安南區","LI":"梅花里","LIN":"1鄰","STREET":"北安路","SECT":"二段","MAREA":" ","LANE":" ","ALLEY":" ","HOUSE_NO":"５０１號","E_COORD97":168249.48999999999,"N_COORD97":2548721.77,"ADDRESS":"北安路二段５０１號","OBJECTID":517707},"geometry":{"x":168249.49000000115,"y":2548721.7700000014}},{"attributes":{"ID":517735,"DIS_CODE":0,"TOWNNAME":"安南區","LI":"梅花里","LIN":"1鄰","STREET":"安中路","SECT":"一段","MAREA":" ","LANE":" ","ALLEY":" ","HOUSE_NO":"５８５之５號","E_COORD97":167918.17999999999,"N_COORD97":2549025.46,"ADDRESS":"安中路一段５８５之５號","OBJECTID":517708},"geometry":{"x":167918.1799999997,"y":2549025.4600000009}},{"attributes":{"ID":517736,"DIS_CODE":0,"TOWNNAME":"安南區","LI":"\u25A0田里","LIN":"1鄰","STREET":"科技一路","SECT":" ","MAREA":" ","LANE":" ","ALLEY":" ","HOUSE_NO":"６１號","E_COORD97":162599.92999999999,"N_COORD97":2548508.0899999999,"ADDRESS":"科技一路６１號","OBJECTID":517709},"geometry":{"x":162599.9299999997,"y":2548508.0899999999}},{"attributes":{"ID":517737,"DIS_CODE":0,"TOWNNAME":"南區","LI":"明亮里","LIN":"1鄰","STREET":"金華路","SECT":"一段","MAREA":" ","LANE":" ","ALLEY":" ","HOUSE_NO":"２４４號","E_COORD97":166974.29999999999,"N_COORD97":2540908.7599999998,"ADDRESS":"金華路一段２４４號","OBJECTID":517710},"geometry":{"x":166974.30000000075,"y":2540908.7599999998}},{"attributes":{"ID":517738,"DIS_CODE":0,"TOWNNAME":"南區","LI":"明亮里","LIN":"1鄰","STREET":"金華路","SECT":"一段","MAREA":" ","LANE":" ","ALLEY":" ","HOUSE_NO":"２４６號","E_COORD97":166975.07999999999,"N_COORD97":2540912.4100000001,"ADDRESS":"金華路一段２４６號","OBJECTID":517711},"geometry":{"x":166975.08000000007,"y":2540912.4099999983}},{"attributes":{"ID":517739,"DIS_CODE":0,"TOWNNAME":"南區","LI":"明亮里","LIN":"1鄰","STREET":"金華路","SECT":"一段","MAREA":" ","LANE":" ","ALLEY":" ","HOUSE_NO":"２４８號","E_COORD97":166975.34,"N_COORD97":2540918.1400000001,"ADDRESS":"金華路一段２４８號","OBJECTID":517712},"geometry":{"x":166975.34000000078,"y":2540918.1399999987}},{"attributes":{"ID":517740,"DIS_CODE":0,"TOWNNAME":"南區","LI":"明亮里","LIN":"1鄰","STREET":"金華路","SECT":"一段","MAREA":" ","LANE":" ","ALLEY":" ","HOUSE_NO":"２６６號","E_COORD97":166978.73000000001,"N_COORD97":2540961.6600000001,"ADDRESS":"金華路一段２６６號","OBJECTID":517713},"geometry":{"x":166978.73000000138,"y":2540961.6599999983}},{"attributes":{"ID":517741,"DIS_CODE":0,"TOWNNAME":"南區","LI":"明亮里","LIN":"1鄰","STREET":"金華路","SECT":"一段","MAREA":" ","LANE":" ","ALLEY":" ","HOUSE_NO":"２６８號","E_COORD97":166980.04000000001,"N_COORD97":2540965.8300000001,"ADDRESS":"金華路一段２６８號","OBJECTID":517714},"geometry":{"x":166980.04000000004,"y":2540965.8300000001}},{"attributes":{"ID":517742,"DIS_CODE":0,"TOWNNAME":"南區","LI":"明亮里","LIN":"1鄰","STREET":"金華路","SECT":"一段","MAREA":" ","LANE":" ","ALLEY":" ","HOUSE_NO":"２７０號","E_COORD97":166981.34,"N_COORD97":2540970.7799999998,"ADDRESS":"金華路一段２７０號","OBJECTID":517715},"geometry":{"x":166981.33999999985,"y":2540970.7800000012}},{"attributes":{"ID":517743,"DIS_CODE":0,"TOWNNAME":"南區","LI":"明亮里","LIN":"1鄰","STREET":"金華路","SECT":"一段","MAREA":" ","LANE":" ","ALLEY":" ","HOUSE_NO":"２７４號","E_COORD97":166981.60000000001,"N_COORD97":2540981.73,"ADDRESS":"金華路一段２７４號","OBJECTID":517716},"geometry":{"x":166981.60000000149,"y":2540981.7299999986}},{"attributes":{"ID":517744,"DIS_CODE":0,"TOWNNAME":"南區","LI":"明亮里","LIN":"1鄰","STREET":"金華路","SECT":"一段","MAREA":" ","LANE":" ","ALLEY":" ","HOUSE_NO":"２７６號","E_COORD97":166981.87,"N_COORD97":2540985.8999999999,"ADDRESS":"金華路一段２７６號","OBJECTID":517717},"geometry":{"x":166981.87000000197,"y":2540985.9000000004}},{"attributes":{"ID":517745,"DIS_CODE":0,"TOWNNAME":"南區","LI":"明亮里","LIN":"1鄰","STREET":"金華路","SECT":"一段","MAREA":" ","LANE":" ","ALLEY":" ","HOUSE_NO":"２７８號","E_COORD97":166983.69,"N_COORD97":2540990.8500000001,"ADDRESS":"金華路一段２７８號","OBJECTID":517718},"geometry":{"x":166983.69000000134,"y":2540990.8500000015}},{"attributes":{"ID":517746,"DIS_CODE":0,"TOWNNAME":"南區","LI":"明亮里","LIN":"1鄰","STREET":"金華路","SECT":"一段","MAREA":" ","LANE":" ","ALLEY":" ","HOUSE_NO":"２８０號","E_COORD97":166982.64999999999,"N_COORD97":2540996.5899999999,"ADDRESS":"金華路一段２８０號","OBJECTID":517719},"geometry":{"x":166982.6500000013,"y":2540996.5900000017}},{"attributes":{"ID":517747,"DIS_CODE":0,"TOWNNAME":"南區","LI":"明亮里","LIN":"1鄰","STREET":"金華路","SECT":"一段","MAREA":" ","LANE":" ","ALLEY":" ","HOUSE_NO":"２８２號","E_COORD97":166988.35000000001,"N_COORD97":2541002.7999999998,"ADDRESS":"金華路一段２８２號","OBJECTID":517720},"geometry":{"x":166988.35000000149,"y":2541002.8000000026}},{"attributes":{"ID":517748,"DIS_CODE":0,"TOWNNAME":"南區","LI":"明亮里","LIN":"1鄰","STREET":"金華路","SECT":"一段","MAREA":" ","LANE":" ","ALLEY":" ","HOUSE_NO":"２８４號","E_COORD97":166988.35000000001,"N_COORD97":2541005.8900000001,"ADDRESS":"金華路一段２８４號","OBJECTID":517721},"geometry":{"x":166988.35000000149,"y":2541005.8900000025}},{"attributes":{"ID":517749,"DIS_CODE":0,"TOWNNAME":"南區","LI":"明亮里","LIN":"1鄰","STREET":"金華路","SECT":"一段","MAREA":" ","LANE":" ","ALLEY":" ","HOUSE_NO":"２８６號","E_COORD97":166988.60000000001,"N_COORD97":2541011.29,"ADDRESS":"金華路一段２８６號","OBJECTID":517722},"geometry":{"x":166988.60000000056,"y":2541011.290000001}},{"attributes":{"ID":517750,"DIS_CODE":0,"TOWNNAME":"南區","LI":"明亮里","LIN":"1鄰","STREET":"金華路","SECT":"一段","MAREA":" ","LANE":" ","ALLEY":" ","HOUSE_NO":"２８８號","E_COORD97":166987.57000000001,"N_COORD97":2541016.4399999999,"ADDRESS":"金華路一段２８８號","OBJECTID":517723},"geometry":{"x":166987.57000000216,"y":2541016.4399999995}},{"attributes":{"ID":517751,"DIS_CODE":0,"TOWNNAME":"南區","LI":"明興里","LIN":"1鄰","STREET":"新都路","SECT":" ","MAREA":" ","LANE":" ","ALLEY":" ","HOUSE_NO":"４６９號","E_COORD97":167162.84,"N_COORD97":2540864.3100000001,"ADDRESS":"新都路４６９號","OBJECTID":517724},"geometry":{"x":167162.83999999985,"y":2540864.3100000024}},{"attributes":{"ID":517752,"DIS_CODE":0,"TOWNNAME":"南區","LI":"明興里","LIN":"1鄰","STREET":"新都路","SECT":" ","MAREA":" ","LANE":" ","ALLEY":" ","HOUSE_NO":"４７１號","E_COORD97":167148.17000000001,"N_COORD97":2540867.7000000002,"ADDRESS":"新都路４７１號","OBJECTID":517725},"geometry":{"x":167148.17000000086,"y":2540867.6999999993}},{"attributes":{"ID":517753,"DIS_CODE":0,"TOWNNAME":"南區","LI":"明興里","LIN":"1鄰","STREET":"新都路","SECT":" ","MAREA":" ","LANE":" ","ALLEY":" ","HOUSE_NO":"４７３號","E_COORD97":167143.84,"N_COORD97":2540867.1099999999,"ADDRESS":"新都路４７３號","OBJECTID":517726},"geometry":{"x":167143.83999999985,"y":2540867.1100000013}},{"attributes":{"ID":517754,"DIS_CODE":0,"TOWNNAME":"南區","LI":"明興里","LIN":"1鄰","STREET":"新都路","SECT":" ","MAREA":" ","LANE":" ","ALLEY":" ","HOUSE_NO":"４７９號","E_COORD97":167128.91,"N_COORD97":2540866.77,"ADDRESS":"新都路４７９號","OBJECTID":517727},"geometry":{"x":167128.91000000015,"y":2540866.7700000014}},{"attributes":{"ID":517755,"DIS_CODE":0,"TOWNNAME":"南區","LI":"明興里","LIN":"1鄰","STREET":"新都路","SECT":" ","MAREA":" ","LANE":" ","ALLEY":" ","HOUSE_NO":"４８３號","E_COORD97":167119.82000000001,"N_COORD97":2540868.3799999999,"ADDRESS":"新都路４８３號","OBJECTID":517728},"geometry":{"x":167119.82000000216,"y":2540868.3800000008}},{"attributes":{"ID":517756,"DIS_CODE":0,"TOWNNAME":"南區","LI":"明興里","LIN":"1鄰","STREET":"新都路","SECT":" ","MAREA":" ","LANE":" ","ALLEY":" ","HOUSE_NO":"４８５號","E_COORD97":167115.14000000001,"N_COORD97":2540869.23,"ADDRESS":"新都路４８５號","OBJECTID":517729},"geometry":{"x":167115.13999999873,"y":2540869.2300000004}},{"attributes":{"ID":517757,"DIS_CODE":0,"TOWNNAME":"南區","LI":"明興里","LIN":"1鄰","STREET":"新都路","SECT":" ","MAREA":" ","LANE":" ","ALLEY":" ","HOUSE_NO":"４８７號","E_COORD97":167111.35000000001,"N_COORD97":2540869.9100000001,"ADDRESS":"新都路４８７號","OBJECTID":517730},"geometry":{"x":167111.34999999963,"y":2540869.910000002}},{"attributes":{"ID":517758,"DIS_CODE":0,"TOWNNAME":"南區","LI":"明興里","LIN":"1鄰","STREET":"新都路","SECT":" ","MAREA":" ","LANE":" ","ALLEY":" ","HOUSE_NO":"４８９號","E_COORD97":167107.95000000001,"N_COORD97":2540870.0800000001,"ADDRESS":"新都路４８９號","OBJECTID":517731},"geometry":{"x":167107.95000000019,"y":2540870.0800000001}},{"attributes":{"ID":517759,"DIS_CODE":0,"TOWNNAME":"南區","LI":"明興里","LIN":"1鄰","STREET":"新都路","SECT":" ","MAREA":" ","LANE":" ","ALLEY":" ","HOUSE_NO":"４９１號","E_COORD97":167103.35999999999,"N_COORD97":2540870.25,"ADDRESS":"新都路４９１號","OBJECTID":517732},"geometry":{"x":167103.36000000127,"y":2540870.2500000019}},{"attributes":{"ID":517760,"DIS_CODE":0,"TOWNNAME":"南區","LI":"明興里","LIN":"1鄰","STREET":"新都路","SECT":" ","MAREA":" ","LANE":" ","ALLEY":" ","HOUSE_NO":"４９３號","E_COORD97":167099.29000000001,"N_COORD97":2540870.9300000002,"ADDRESS":"新都路４９３號","OBJECTID":517733},"geometry":{"x":167099.2900000019,"y":2540870.9299999997}},{"attributes":{"ID":517761,"DIS_CODE":0,"TOWNNAME":"南區","LI":"明興里","LIN":"1鄰","STREET":"新都路","SECT":" ","MAREA":" ","LANE":" ","ALLEY":" ","HOUSE_NO":"４９５號","E_COORD97":167095.20999999999,"N_COORD97":2540871.9500000002,"ADDRESS":"新都路４９５號","OBJECTID":517734},"geometry":{"x":167095.21000000089,"y":2540871.9500000011}},{"attributes":{"ID":517762,"DIS_CODE":0,"TOWNNAME":"南區","LI":"明興里","LIN":"1鄰","STREET":"新都路","SECT":" ","MAREA":" ","LANE":" ","ALLEY":" ","HOUSE_NO":"５２５號","E_COORD97":167035.48000000001,"N_COORD97":2540875.6499999999,"ADDRESS":"新都路５２５號","OBJECTID":517735},"geometry":{"x":167035.48000000045,"y":2540875.6500000022}},{"attributes":{"ID":517763,"DIS_CODE":0,"TOWNNAME":"南區","LI":"明興里","LIN":"1鄰","STREET":"新都路","SECT":" ","MAREA":" ","LANE":" ","ALLEY":" ","HOUSE_NO":"５２７號","E_COORD97":167030.45999999999,"N_COORD97":2540875.9900000002,"ADDRESS":"新都路５２７號","OBJECTID":517736},"geometry":{"x":167030.46000000089,"y":2540875.9900000021}},{"attributes":{"ID":517764,"DIS_CODE":0,"TOWNNAME":"南區","LI":"明興里","LIN":"1鄰","STREET":"新都路","SECT":" ","MAREA":" ","LANE":" ","ALLEY":" ","HOUSE_NO":"５３９號","E_COORD97":167003.95000000001,"N_COORD97":2540877.6899999999,"ADDRESS":"新都路５３９號","OBJECTID":517737},"geometry":{"x":167003.95000000112,"y":2540877.6900000013}},{"attributes":{"ID":517765,"DIS_CODE":0,"TOWNNAME":"南區","LI":"明興里","LIN":"1鄰","STREET":"新都路","SECT":" ","MAREA":" ","LANE":" ","ALLEY":" ","HOUSE_NO":"５４３號","E_COORD97":166988.06,"N_COORD97":2540878.8799999999,"ADDRESS":"新都路５４３號","OBJECTID":517738},"geometry":{"x":166988.05999999959,"y":2540878.8800000008}},{"attributes":{"ID":517766,"DIS_CODE":0,"TOWNNAME":"南區","LI":"明興里","LIN":"1鄰","STREET":"新都路","SECT":" ","MAREA":" ","LANE":" ","ALLEY":" ","HOUSE_NO":"５４５號","E_COORD97":166984.19,"N_COORD97":2540879.4900000002,"ADDRESS":"新都路５４５號","OBJECTID":517739},"geometry":{"x":166984.19000000134,"y":2540879.4900000021}},{"attributes":{"ID":517767,"DIS_CODE":0,"TOWNNAME":"南區","LI":"明興里","LIN":"1鄰","STREET":"德興路","SECT":" ","MAREA":" ","LANE":" ","ALLEY":" ","HOUSE_NO":"６號","E_COORD97":167164.70999999999,"N_COORD97":2540853.6800000002,"ADDRESS":"德興路６號","OBJECTID":517740},"geometry":{"x":167164.71000000089,"y":2540853.6800000016}},{"attributes":{"ID":517768,"DIS_CODE":0,"TOWNNAME":"南區","LI":"明興里","LIN":"1鄰","STREET":"德興路","SECT":" ","MAREA":" ","LANE":" ","ALLEY":" ","HOUSE_NO":"１２號","E_COORD97":167163.94,"N_COORD97":2540844.0099999998,"ADDRESS":"德興路１２號","OBJECTID":517741},"geometry":{"x":167163.94000000134,"y":2540844.0100000035}},{"attributes":{"ID":517769,"DIS_CODE":0,"TOWNNAME":"南區","LI":"明興里","LIN":"1鄰","STREET":"德興路","SECT":" ","MAREA":" ","LANE":" ","ALLEY":" ","HOUSE_NO":"１４號","E_COORD97":167163.85999999999,"N_COORD97":2540839.9300000002,"ADDRESS":"德興路１４號","OBJECTID":517742},"geometry":{"x":167163.86000000127,"y":2540839.9299999997}},{"attributes":{"ID":517770,"DIS_CODE":0,"TOWNNAME":"南區","LI":"明興里","LIN":"1鄰","STREET":"德興路","SECT":" ","MAREA":" ","LANE":" ","ALLEY":" ","HOUSE_NO":"１６號","E_COORD97":167162.92000000001,"N_COORD97":2540834.6400000001,"ADDRESS":"德興路１６號","OBJECTID":517743},"geometry":{"x":167162.92000000086,"y":2540834.6400000025}},{"attributes":{"ID":517771,"DIS_CODE":0,"TOWNNAME":"南區","LI":"明興里","LIN":"1鄰","STREET":"德興路","SECT":" ","MAREA":" ","LANE":" ","ALLEY":" ","HOUSE_NO":"１８號","E_COORD97":167161.73000000001,"N_COORD97":2540830.8199999998,"ADDRESS":"德興路１８號","OBJECTID":517744},"geometry":{"x":167161.73000000138,"y":2540830.8200000003}},{"attributes":{"ID":517772,"DIS_CODE":0,"TOWNNAME":"南區","LI":"明興里","LIN":"1鄰","STREET":"德興路","SECT":" ","MAREA":" ","LANE":" ","ALLEY":" ","HOUSE_NO":"２２號","E_COORD97":167160.94,"N_COORD97":2540818.1600000001,"ADDRESS":"德興路２２號","OBJECTID":517745},"geometry":{"x":167160.94000000041,"y":2540818.1600000001}},{"attributes":{"ID":517773,"DIS_CODE":0,"TOWNNAME":"南區","LI":"明興里","LIN":"1鄰","STREET":"德興路","SECT":" ","MAREA":" ","LANE":" ","ALLEY":" ","HOUSE_NO":"２４號","E_COORD97":167161.54000000001,"N_COORD97":2540811.8799999999,"ADDRESS":"德興路２４號","OBJECTID":517746},"geometry":{"x":167161.54000000004,"y":2540811.879999999}},{"attributes":{"ID":517774,"DIS_CODE":0,"TOWNNAME":"南區","LI":"明興里","LIN":"1鄰","STREET":"德興路","SECT":" ","MAREA":" ","LANE":" ","ALLEY":" ","HOUSE_NO":"２６號","E_COORD97":167161.88,"N_COORD97":2540806.96,"ADDRESS":"德興路２６號","OBJECTID":517747},"geometry":{"x":167161.88000000082,"y":2540806.9600000009}},{"attributes":{"ID":517775,"DIS_CODE":0,"TOWNNAME":"南區","LI":"明興里","LIN":"1鄰","STREET":"德興路","SECT":" ","MAREA":" ","LANE":" ","ALLEY":" ","HOUSE_NO":"２８號","E_COORD97":167161.20000000001,"N_COORD97":2540801.5299999998,"ADDRESS":"德興路２８號","OBJECTID":517748},"geometry":{"x":167161.20000000205,"y":2540801.5299999993}},{"attributes":{"ID":517776,"DIS_CODE":0,"TOWNNAME":"南區","LI":"明興里","LIN":"1鄰","STREET":"德興路","SECT":" ","MAREA":" ","LANE":" ","ALLEY":" ","HOUSE_NO":"３２號","E_COORD97":167160.69,"N_COORD97":2540794.54,"ADDRESS":"德興路３２號","OBJECTID":517749},"geometry":{"x":167160.69000000041,"y":2540794.5399999991}},{"attributes":{"ID":517777,"DIS_CODE":0,"TOWNNAME":"南區","LI":"明興里","LIN":"1鄰","STREET":"德興路","SECT":" ","MAREA":" ","LANE":" ","ALLEY":" ","HOUSE_NO":"３４號","E_COORD97":167159.16,"N_COORD97":2540789.5899999999,"ADDRESS":"德興路３４號","OBJECTID":517750},"geometry":{"x":167159.16000000015,"y":2540789.5900000017}},{"attributes":{"ID":517778,"DIS_CODE":0,"TOWNNAME":"南區","LI":"明興里","LIN":"1鄰","STREET":"德興路","SECT":" ","MAREA":" ","LANE":" ","ALLEY":" ","HOUSE_NO":"３６號","E_COORD97":167158.48000000001,"N_COORD97":2540781.8700000001,"ADDRESS":"德興路３６號","OBJECTID":517751},"geometry":{"x":167158.48000000138,"y":2540781.8700000048}},{"attributes":{"ID":517779,"DIS_CODE":0,"TOWNNAME":"南區","LI":"明興里","LIN":"1鄰","STREET":"德興路","SECT":" ","MAREA":" ","LANE":" ","ALLEY":" ","HOUSE_NO":"３８號","E_COORD97":167156.60999999999,"N_COORD97":2540774.6499999999,"ADDRESS":"德興路３８號","OBJECTID":517752},"geometry":{"x":167156.61000000034,"y":2540774.6500000004}},{"attributes":{"ID":517780,"DIS_CODE":0,"TOWNNAME":"南區","LI":"明興里","LIN":"1鄰","STREET":"德興路","SECT":" ","MAREA":" ","LANE":" ","ALLEY":" ","HOUSE_NO":"４２號","E_COORD97":167155.82000000001,"N_COORD97":2540754.4700000002,"ADDRESS":"德興路４２號","OBJECTID":517753},"geometry":{"x":167155.82000000123,"y":2540754.4700000025}},{"attributes":{"ID":517781,"DIS_CODE":0,"TOWNNAME":"南區","LI":"明興里","LIN":"1鄰","STREET":"德興路","SECT":" ","MAREA":" ","LANE":" ","ALLEY":" ","HOUSE_NO":"４４號","E_COORD97":167155.89999999999,"N_COORD97":2540750.73,"ADDRESS":"德興路４４號","OBJECTID":517754},"geometry":{"x":167155.90000000037,"y":2540750.7300000004}},{"attributes":{"ID":517782,"DIS_CODE":0,"TOWNNAME":"南區","LI":"明興里","LIN":"1鄰","STREET":"德興路","SECT":" ","MAREA":" ","LANE":" ","ALLEY":" ","HOUSE_NO":"４６號","E_COORD97":167154.88,"N_COORD97":2540745.6699999999,"ADDRESS":"德興路４６號","OBJECTID":517755},"geometry":{"x":167154.88000000082,"y":2540745.6700000018}},{"attributes":{"ID":517783,"DIS_CODE":0,"TOWNNAME":"南區","LI":"明興里","LIN":"1鄰","STREET":"德興路","SECT":" ","MAREA":" ","LANE":" ","ALLEY":" ","HOUSE_NO":"５０號","E_COORD97":167151.39999999999,"N_COORD97":2540735.7400000002,"ADDRESS":"德興路５０號","OBJECTID":517756},"geometry":{"x":167151.39999999944,"y":2540735.7400000021}},{"attributes":{"ID":517784,"DIS_CODE":0,"TOWNNAME":"南區","LI":"明興里","LIN":"1鄰","STREET":"德興路","SECT":" ","MAREA":" ","LANE":" ","ALLEY":" ","HOUSE_NO":"５２號","E_COORD97":167153.57999999999,"N_COORD97":2540715.0499999998,"ADDRESS":"德興路５２號","OBJECTID":517757},"geometry":{"x":167153.58000000101,"y":2540715.0500000007}},{"attributes":{"ID":517785,"DIS_CODE":0,"TOWNNAME":"新化區","LI":"太平里","LIN":"1鄰","STREET":"仁愛街","SECT":" ","MAREA":" ","LANE":" ","ALLEY":" ","HOUSE_NO":"１０號","E_COORD97":179196.67999999999,"N_COORD97":2548621.25,"ADDRESS":"仁愛街１０號","OBJECTID":517758},"geometry":{"x":179196.68000000156,"y":2548621.2500000019}},{"attributes":{"ID":517786,"DIS_CODE":0,"TOWNNAME":"南區","LI":"金華里","LIN":"1鄰","STREET":"金華路","SECT":"二段","MAREA":" ","LANE":" ","ALLEY":" ","HOUSE_NO":"４７號","E_COORD97":167058.20999999999,"N_COORD97":2542051.8799999999,"ADDRESS":"金華路二段４７號","OBJECTID":517759},"geometry":{"x":167058.21000000089,"y":2542051.8800000008}},{"attributes":{"ID":517787,"DIS_CODE":0,"TOWNNAME":"南區","LI":"金華里","LIN":"1鄰","STREET":"金華路","SECT":"二段","MAREA":" ","LANE":" ","ALLEY":" ","HOUSE_NO":"４９號","E_COORD97":167058.60999999999,"N_COORD97":2542065.9399999999,"ADDRESS":"金華路二段４９號","OBJECTID":517760},"geometry":{"x":167058.6100000022,"y":2542065.9400000013}},{"attributes":{"ID":517788,"DIS_CODE":0,"TOWNNAME":"新化區","LI":"唪口里","LIN":"1鄰","STREET":"大德路","SECT":" ","MAREA":" ","LANE":" ","ALLEY":" ","HOUSE_NO":"１８２號","E_COORD97":177836.03,"N_COORD97":2549383.25,"ADDRESS":"大德路１８２號","OBJECTID":517761},"geometry":{"x":177836.03000000119,"y":2549383.2500000019}},{"attributes":{"ID":517789,"DIS_CODE":0,"TOWNNAME":"南區","LI":"金華里","LIN":"1鄰","STREET":"金華路","SECT":"二段","MAREA":" ","LANE":" ","ALLEY":" ","HOUSE_NO":"５３號","E_COORD97":167060.64000000001,"N_COORD97":2542085.3300000001,"ADDRESS":"金華路二段５３號","OBJECTID":517762},"geometry":{"x":167060.63999999966,"y":2542085.3300000001}},{"attributes":{"ID":517790,"DIS_CODE":0,"TOWNNAME":"南區","LI":"金華里","LIN":"1鄰","STREET":"新孝路","SECT":" ","MAREA":" ","LANE":" ","ALLEY":" ","HOUSE_NO":"２號","E_COORD97":167052.85000000001,"N_COORD97":2542052.1499999999,"ADDRESS":"新孝路２號","OBJECTID":517763},"geometry":{"x":167052.85000000149,"y":2542052.1500000004}},{"attributes":{"ID":517791,"DIS_CODE":0,"TOWNNAME":"南區","LI":"金華里","LIN":"1鄰","STREET":"新孝路","SECT":" ","MAREA":" ","LANE":" ","ALLEY":" ","HOUSE_NO":"８號","E_COORD97":167043.45999999999,"N_COORD97":2542053.2200000002,"ADDRESS":"新孝路８號","OBJECTID":517764},"geometry":{"x":167043.45999999996,"y":2542053.2200000007}},{"attributes":{"ID":517792,"DIS_CODE":0,"TOWNNAME":"南區","LI":"金華里","LIN":"1鄰","STREET":"新孝路","SECT":" ","MAREA":" ","LANE":" ","ALLEY":" ","HOUSE_NO":"１０號","E_COORD97":167039.17000000001,"N_COORD97":2542053.4900000002,"ADDRESS":"新孝路１０號","OBJECTID":517765},"geometry":{"x":167039.17000000086,"y":2542053.4900000002}},{"attributes":{"ID":517793,"DIS_CODE":0,"TOWNNAME":"南區","LI":"金華里","LIN":"1鄰","STREET":"新孝路","SECT":" ","MAREA":" ","LANE":" ","ALLEY":" ","HOUSE_NO":"１２號","E_COORD97":167034.07999999999,"N_COORD97":2542054.5600000001,"ADDRESS":"新孝路１２號","OBJECTID":517766},"geometry":{"x":167034.08000000007,"y":2542054.5600000042}},{"attributes":{"ID":517794,"DIS_CODE":0,"TOWNNAME":"南區","LI":"金華里","LIN":"1鄰","STREET":"新孝路","SECT":" ","MAREA":" ","LANE":" ","ALLEY":" ","HOUSE_NO":"１４號","E_COORD97":167029.79000000001,"N_COORD97":2542054.5600000001,"ADDRESS":"新孝路１４號","OBJECTID":517767},"geometry":{"x":167029.7900000019,"y":2542054.5600000042}},{"attributes":{"ID":517795,"DIS_CODE":0,"TOWNNAME":"南區","LI":"金華里","LIN":"1鄰","STREET":"新孝路","SECT":" ","MAREA":" ","LANE":" ","ALLEY":" ","HOUSE_NO":"１６號","E_COORD97":167024.69,"N_COORD97":2542055.1000000001,"ADDRESS":"新孝路１６號","OBJECTID":517768},"geometry":{"x":167024.69000000134,"y":2542055.0999999996}},{"attributes":{"ID":517796,"DIS_CODE":0,"TOWNNAME":"南區","LI":"金華里","LIN":"1鄰","STREET":"新孝路","SECT":" ","MAREA":" ","LANE":" ","ALLEY":" ","HOUSE_NO":"１８號","E_COORD97":167020.92999999999,"N_COORD97":2542055.3700000001,"ADDRESS":"新孝路１８號","OBJECTID":517769},"geometry":{"x":167020.9299999997,"y":2542055.370000001}},{"attributes":{"ID":517797,"DIS_CODE":0,"TOWNNAME":"南區","LI":"金華里","LIN":"1鄰","STREET":"新孝路","SECT":" ","MAREA":" ","LANE":" ","ALLEY":" ","HOUSE_NO":"２０號","E_COORD97":167015.57000000001,"N_COORD97":2542056.4399999999,"ADDRESS":"新孝路２０號","OBJECTID":517770},"geometry":{"x":167015.5700000003,"y":2542056.4399999995}},{"attributes":{"ID":517798,"DIS_CODE":0,"TOWNNAME":"南區","LI":"金華里","LIN":"1鄰","STREET":"新孝路","SECT":" ","MAREA":" ","LANE":" ","ALLEY":" ","HOUSE_NO":"２２號","E_COORD97":167001.09,"N_COORD97":2542056.9700000002,"ADDRESS":"新孝路２２號","OBJECTID":517771},"geometry":{"x":167001.09000000078,"y":2542056.9700000025}},{"attributes":{"ID":517799,"DIS_CODE":0,"TOWNNAME":"南區","LI":"金華里","LIN":"1鄰","STREET":"新孝路","SECT":" ","MAREA":" ","LANE":" ","ALLEY":" ","HOUSE_NO":"２４號","E_COORD97":166995.98999999999,"N_COORD97":2542056.4399999999,"ADDRESS":"新孝路２４號","OBJECTID":517772},"geometry":{"x":166995.99000000022,"y":2542056.4399999995}},{"attributes":{"ID":517800,"DIS_CODE":0,"TOWNNAME":"南區","LI":"金華里","LIN":"1鄰","STREET":"新孝路","SECT":" ","MAREA":" ","LANE":" ","ALLEY":" ","HOUSE_NO":"２６號","E_COORD97":166991.42999999999,"N_COORD97":2542057.5099999998,"ADDRESS":"新孝路２６號","OBJECTID":517773},"geometry":{"x":166991.43000000063,"y":2542057.5100000035}},{"attributes":{"ID":517801,"DIS_CODE":0,"TOWNNAME":"南區","LI":"金華里","LIN":"1鄰","STREET":"新孝路","SECT":" ","MAREA":" ","LANE":" ","ALLEY":" ","HOUSE_NO":"２８號","E_COORD97":166985,"N_COORD97":2542058.5800000001,"ADDRESS":"新孝路２８號","OBJECTID":517774},"geometry":{"x":166985.00000000093,"y":2542058.5800000019}},{"attributes":{"ID":517802,"DIS_CODE":0,"TOWNNAME":"南區","LI":"金華里","LIN":"1鄰","STREET":"新孝路","SECT":" ","MAREA":" ","LANE":" ","ALLEY":" ","HOUSE_NO":"３０號","E_COORD97":166980.97,"N_COORD97":2542058.04,"ADDRESS":"新孝路３０號","OBJECTID":517775},"geometry":{"x":166980.97000000067,"y":2542058.040000001}},{"attributes":{"ID":517803,"DIS_CODE":0,"TOWNNAME":"南區","LI":"金華里","LIN":"1鄰","STREET":"新孝路","SECT":" ","MAREA":" ","LANE":" ","ALLEY":" ","HOUSE_NO":"３２號","E_COORD97":166975.34,"N_COORD97":2542059.3799999999,"ADDRESS":"新孝路３２號","OBJECTID":517776},"geometry":{"x":166975.34000000078,"y":2542059.379999999}},{"attributes":{"ID":517804,"DIS_CODE":0,"TOWNNAME":"南區","LI":"金華里","LIN":"1鄰","STREET":"新孝路","SECT":" ","MAREA":" ","LANE":" ","ALLEY":" ","HOUSE_NO":"３４號","E_COORD97":166970.25,"N_COORD97":2542059.3799999999,"ADDRESS":"新孝路３４號","OBJECTID":517777},"geometry":{"x":166970.25,"y":2542059.379999999}},{"attributes":{"ID":517805,"DIS_CODE":0,"TOWNNAME":"南區","LI":"金華里","LIN":"1鄰","STREET":"新孝路","SECT":" ","MAREA":" ","LANE":" ","ALLEY":" ","HOUSE_NO":"３６號","E_COORD97":166965.69,"N_COORD97":2542059.6499999999,"ADDRESS":"新孝路３６號","OBJECTID":517778},"geometry":{"x":166965.69000000041,"y":2542059.6500000004}},{"attributes":{"ID":517806,"DIS_CODE":0,"TOWNNAME":"南區","LI":"金華里","LIN":"1鄰","STREET":"新孝路","SECT":" ","MAREA":" ","LANE":" ","ALLEY":" ","HOUSE_NO":"３８號","E_COORD97":166959.79000000001,"N_COORD97":2542060.1899999999,"ADDRESS":"新孝路３８號","OBJECTID":517779},"geometry":{"x":166959.79000000004,"y":2542060.1900000013}},{"attributes":{"ID":517807,"DIS_CODE":0,"TOWNNAME":"新化區","LI":"唪口里","LIN":"1鄰","STREET":"大德路","SECT":" ","MAREA":" ","LANE":" ","ALLEY":" ","HOUSE_NO":"３０號","E_COORD97":178571.17999999999,"N_COORD97":2549407.25,"ADDRESS":"大德路３０號","OBJECTID":517780},"geometry":{"x":178571.18000000156,"y":2549407.2500000019}},{"attributes":{"ID":517808,"DIS_CODE":0,"TOWNNAME":"新化區","LI":"護國里","LIN":"1鄰","STREET":"中山路","SECT":" ","MAREA":" ","LANE":" ","ALLEY":" ","HOUSE_NO":"２３０號","E_COORD97":179114.10999999999,"N_COORD97":2548450.25,"ADDRESS":"中山路２３０號","OBJECTID":517781},"geometry":{"x":179114.11000000034,"y":2548450.2499999981}},{"attributes":{"ID":517809,"DIS_CODE":0,"TOWNNAME":"新化區","LI":"唪口里","LIN":"1鄰","STREET":"大德路","SECT":" ","MAREA":" ","LANE":" ","ALLEY":" ","HOUSE_NO":"４６號之１","E_COORD97":178501.20999999999,"N_COORD97":2549397.2599999998,"ADDRESS":"大德路４６號之１","OBJECTID":517782},"geometry":{"x":178501.20999999996,"y":2549397.2600000016}},{"attributes":{"ID":517810,"DIS_CODE":0,"TOWNNAME":"新化區","LI":"中央里","LIN":"1鄰","STREET":"信義路","SECT":" ","MAREA":" ","LANE":" ","ALLEY":" ","HOUSE_NO":"２７０號","E_COORD97":179027.32999999999,"N_COORD97":2548313.25,"ADDRESS":"信義路２７０號","OBJECTID":517783},"geometry":{"x":179027.33000000007,"y":2548313.25}},{"attributes":{"ID":517811,"DIS_CODE":0,"TOWNNAME":"新化區","LI":"唪口里","LIN":"1鄰","STREET":"大德路","SECT":" ","MAREA":" ","LANE":" ","ALLEY":" ","HOUSE_NO":"４８號","E_COORD97":178496.78,"N_COORD97":2549397.25,"ADDRESS":"大德路４８號","OBJECTID":517784},"geometry":{"x":178496.78000000119,"y":2549397.2500000019}},{"attributes":{"ID":517812,"DIS_CODE":0,"TOWNNAME":"新化區","LI":"太平里","LIN":"1鄰","STREET":"忠孝路","SECT":" ","MAREA":" ","LANE":" ","ALLEY":" ","HOUSE_NO":"１３號","E_COORD97":179147.87,"N_COORD97":2548716.25,"ADDRESS":"忠孝路１３號","OBJECTID":517785},"geometry":{"x":179147.87000000011,"y":2548716.2500000019}},{"attributes":{"ID":517813,"DIS_CODE":0,"TOWNNAME":"新化區","LI":"太平里","LIN":"1鄰","STREET":"仁愛街","SECT":" ","MAREA":" ","LANE":" ","ALLEY":" ","HOUSE_NO":"１８號","E_COORD97":179173.98000000001,"N_COORD97":2548616.25,"ADDRESS":"仁愛街１８號","OBJECTID":517786},"geometry":{"x":179173.98000000138,"y":2548616.2499999981}},{"attributes":{"ID":517814,"DIS_CODE":0,"TOWNNAME":"新化區","LI":"唪口里","LIN":"1鄰","STREET":"中正路","SECT":" ","MAREA":" ","LANE":" ","ALLEY":" ","HOUSE_NO":"１００１號之１","E_COORD97":178268.19,"N_COORD97":2550103.2599999998,"ADDRESS":"中正路１００１號之１","OBJECTID":517787},"geometry":{"x":178268.18999999948,"y":2550103.2599999998}},{"attributes":{"ID":517815,"DIS_CODE":0,"TOWNNAME":"新化區","LI":"太平里","LIN":"1鄰","STREET":"建國街","SECT":" ","MAREA":" ","LANE":" ","ALLEY":" ","HOUSE_NO":"４３號之５","E_COORD97":179168.34,"N_COORD97":2548717.2599999998,"ADDRESS":"建國街４３號之５","OBJECTID":517788},"geometry":{"x":179168.33999999985,"y":2548717.2599999998}},{"attributes":{"ID":517816,"DIS_CODE":0,"TOWNNAME":"新化區","LI":"唪口里","LIN":"1鄰","STREET":"大德路","SECT":" ","MAREA":" ","LANE":" ","ALLEY":" ","HOUSE_NO":"４０號之１","E_COORD97":178526.31,"N_COORD97":2549400.2599999998,"ADDRESS":"大德路４０號之１","OBJECTID":517789},"geometry":{"x":178526.31000000052,"y":2549400.2600000016}},{"attributes":{"ID":517817,"DIS_CODE":0,"TOWNNAME":"新化區","LI":"護國里","LIN":"1鄰","STREET":"中正路","SECT":" ","MAREA":" ","LANE":" ","ALLEY":" ","HOUSE_NO":"４３２號","E_COORD97":179063.81,"N_COORD97":2548506.25,"ADDRESS":"中正路４３２號","OBJECTID":517790},"geometry":{"x":179063.81000000052,"y":2548506.2500000019}},{"attributes":{"ID":517818,"DIS_CODE":0,"TOWNNAME":"新化區","LI":"太平里","LIN":"1鄰","STREET":"建國街","SECT":" ","MAREA":" ","LANE":" ","ALLEY":" ","HOUSE_NO":"４３號之３","E_COORD97":179170.32999999999,"N_COORD97":2548709.2599999998,"ADDRESS":"建國街４３號之３","OBJECTID":517791},"geometry":{"x":179170.33000000007,"y":2548709.2600000016}},{"attributes":{"ID":517819,"DIS_CODE":0,"TOWNNAME":"新化區","LI":"護國里","LIN":"1鄰","STREET":"中正路","SECT":" ","MAREA":" ","LANE":" ","ALLEY":" ","HOUSE_NO":"４０８號","E_COORD97":179080.31,"N_COORD97":2548459.25,"ADDRESS":"中正路４０８號","OBJECTID":517792},"geometry":{"x":179080.31000000145,"y":2548459.25}},{"attributes":{"ID":517820,"DIS_CODE":0,"TOWNNAME":"新化區","LI":"唪口里","LIN":"1鄰","STREET":"大德路","SECT":" ","MAREA":" ","LANE":" ","ALLEY":" ","HOUSE_NO":"６８號","E_COORD97":178440.48000000001,"N_COORD97":2549390.25,"ADDRESS":"大德路６８號","OBJECTID":517793},"geometry":{"x":178440.48000000045,"y":2549390.2500000019}},{"attributes":{"ID":517821,"DIS_CODE":0,"TOWNNAME":"新化區","LI":"協興里","LIN":"1鄰","STREET":"忠孝路","SECT":" ","MAREA":" ","LANE":" ","ALLEY":" ","HOUSE_NO":"１４８號","E_COORD97":178616.92000000001,"N_COORD97":2548640.25,"ADDRESS":"忠孝路１４８號","OBJECTID":517794},"geometry":{"x":178616.91999999993,"y":2548640.2500000037}},{"attributes":{"ID":517822,"DIS_CODE":0,"TOWNNAME":"新化區","LI":"清水里","LIN":"1鄰","STREET":"中山路","SECT":" ","MAREA":" ","LANE":" ","ALLEY":" ","HOUSE_NO":"３９１號","E_COORD97":178799.70999999999,"N_COORD97":2548398.25,"ADDRESS":"中山路３９１號","OBJECTID":517795},"geometry":{"x":178799.70999999996,"y":2548398.25}},{"attributes":{"ID":517823,"DIS_CODE":0,"TOWNNAME":"新化區","LI":"唪口里","LIN":"1鄰","STREET":"大德路","SECT":" ","MAREA":" ","LANE":" ","ALLEY":" ","HOUSE_NO":"４４號之３","E_COORD97":178506.92999999999,"N_COORD97":2549420.2599999998,"ADDRESS":"大德路４４號之３","OBJECTID":517796},"geometry":{"x":178506.93000000063,"y":2549420.2600000016}},{"attributes":{"ID":517824,"DIS_CODE":0,"TOWNNAME":"新化區","LI":"太平里","LIN":"1鄰","STREET":"中正路","SECT":" ","MAREA":" ","LANE":" ","ALLEY":" ","HOUSE_NO":"４８４號","E_COORD97":179048.31,"N_COORD97":2548619.25,"ADDRESS":"中正路４８４號","OBJECTID":517797},"geometry":{"x":179048.31000000052,"y":2548619.25}},{"attributes":{"ID":517825,"DIS_CODE":0,"TOWNNAME":"新化區","LI":"唪口里","LIN":"1鄰","STREET":"大德路","SECT":" ","MAREA":" ","LANE":" ","ALLEY":" ","HOUSE_NO":"１５４號之１","E_COORD97":178070.85999999999,"N_COORD97":2549365.2599999998,"ADDRESS":"大德路１５４號之１","OBJECTID":517798},"geometry":{"x":178070.86000000127,"y":2549365.2599999979}},{"attributes":{"ID":517826,"DIS_CODE":0,"TOWNNAME":"新化區","LI":"豐榮里","LIN":"1鄰","STREET":"中山路","SECT":" ","MAREA":" ","LANE":" ","ALLEY":" ","HOUSE_NO":"６２９號","E_COORD97":178204.60999999999,"N_COORD97":2548495.25,"ADDRESS":"中山路６２９號","OBJECTID":517799},"geometry":{"x":178204.61000000127,"y":2548495.2500000019}},{"attributes":{"ID":517827,"DIS_CODE":0,"TOWNNAME":"新化區","LI":"太平里","LIN":"1鄰","STREET":"建國街","SECT":" ","MAREA":" ","LANE":" ","ALLEY":" ","HOUSE_NO":"３１號","E_COORD97":179190.98000000001,"N_COORD97":2548632.2599999998,"ADDRESS":"建國街３１號","OBJECTID":517800},"geometry":{"x":179190.98000000138,"y":2548632.2599999998}}]}