{"displayFieldName":"TOWNNAME","fieldAliases":{"ID":"ID","DIS_CODE":"DIS_CODE","TOWNNAME":"TOWNNAME","LI":"LI","LIN":"LIN","STREET":"STREET","SECT":"SECT","MAREA":"MAREA","LANE":"LANE","ALLEY":"ALLEY","HOUSE_NO":"HOUSE_NO","E_COORD97":"E_COORD97","N_COORD97":"N_COORD97","ADDRESS":"ADDRESS","OBJECTID":"OBJECTID"},"geometryType":"esriGeometryPoint","spatialReference":{"wkid":102443,"latestWkid":3826},"fields":[{"name":"ID","type":"esriFieldTypeDouble","alias":"ID"},{"name":"DIS_CODE","type":"esriFieldTypeInteger","alias":"DIS_CODE"},{"name":"TOWNNAME","type":"esriFieldTypeString","alias":"TOWNNAME","length":8},{"name":"LI","type":"esriFieldTypeString","alias":"LI","length":8},{"name":"LIN","type":"esriFieldTypeString","alias":"LIN","length":12},{"name":"STREET","type":"esriFieldTypeString","alias":"STREET","length":20},{"name":"SECT","type":"esriFieldTypeString","alias":"SECT","length":8},{"name":"MAREA","type":"esriFieldTypeString","alias":"MAREA","length":12},{"name":"LANE","type":"esriFieldTypeString","alias":"LANE","length":10},{"name":"ALLEY","type":"esriFieldTypeString","alias":"ALLEY","length":10},{"name":"HOUSE_NO","type":"esriFieldTypeString","alias":"HOUSE_NO","length":20},{"name":"E_COORD97","type":"esriFieldTypeDouble","alias":"E_COORD97"},{"name":"N_COORD97","type":"esriFieldTypeDouble","alias":"N_COORD97"},{"name":"ADDRESS","type":"esriFieldTypeString","alias":"ADDRESS","length":50},{"name":"OBJECTID","type":"esriFieldTypeOID","alias":"OBJECTID"}],"features":[{"attributes":{"ID":542428,"DIS_CODE":0,"TOWNNAME":"下營區","LI":"仁里里","LIN":"12鄰","STREET":"友愛街","SECT":" ","MAREA":" ","LANE":" ","ALLEY":" ","HOUSE_NO":"１９號","E_COORD97":174193.47,"N_COORD97":2570349.8399999999,"ADDRESS":"友愛街１９號","OBJECTID":542401},"geometry":{"x":174193.46999999974,"y":2570349.8399999999}},{"attributes":{"ID":542429,"DIS_CODE":0,"TOWNNAME":"下營區","LI":"仁里里","LIN":"12鄰","STREET":"友愛街","SECT":" ","MAREA":" ","LANE":" ","ALLEY":" ","HOUSE_NO":"２１號","E_COORD97":174192.45999999999,"N_COORD97":2570353.96,"ADDRESS":"友愛街２１號","OBJECTID":542402},"geometry":{"x":174192.46000000183,"y":2570353.9600000009}},{"attributes":{"ID":542430,"DIS_CODE":0,"TOWNNAME":"下營區","LI":"仁里里","LIN":"12鄰","STREET":"友愛街","SECT":" ","MAREA":" ","LANE":" ","ALLEY":" ","HOUSE_NO":"２３號","E_COORD97":174191.63,"N_COORD97":2570357.7599999998,"ADDRESS":"友愛街２３號","OBJECTID":542403},"geometry":{"x":174191.63000000082,"y":2570357.7599999998}},{"attributes":{"ID":542431,"DIS_CODE":0,"TOWNNAME":"下營區","LI":"營前里","LIN":"12鄰","STREET":"文明街","SECT":" ","MAREA":" ","LANE":" ","ALLEY":" ","HOUSE_NO":"５３號","E_COORD97":174664.20999999999,"N_COORD97":2570323.3500000001,"ADDRESS":"文明街５３號","OBJECTID":542404},"geometry":{"x":174664.21000000089,"y":2570323.3499999996}},{"attributes":{"ID":542432,"DIS_CODE":0,"TOWNNAME":"下營區","LI":"營前里","LIN":"12鄰","STREET":"文明街","SECT":" ","MAREA":" ","LANE":" ","ALLEY":" ","HOUSE_NO":"５５號","E_COORD97":174657.63,"N_COORD97":2570322.4500000002,"ADDRESS":"文明街５５號","OBJECTID":542405},"geometry":{"x":174657.63000000082,"y":2570322.4499999993}},{"attributes":{"ID":542433,"DIS_CODE":0,"TOWNNAME":"下營區","LI":"營前里","LIN":"12鄰","STREET":"文明街","SECT":" ","MAREA":" ","LANE":" ","ALLEY":" ","HOUSE_NO":"５９號","E_COORD97":174648.10999999999,"N_COORD97":2570321.0600000001,"ADDRESS":"文明街５９號","OBJECTID":542406},"geometry":{"x":174648.11000000127,"y":2570321.0600000024}},{"attributes":{"ID":542434,"DIS_CODE":0,"TOWNNAME":"下營區","LI":"營前里","LIN":"12鄰","STREET":"文明街","SECT":" ","MAREA":" ","LANE":" ","ALLEY":" ","HOUSE_NO":"６１號","E_COORD97":174643.54000000001,"N_COORD97":2570320.1600000001,"ADDRESS":"文明街６１號","OBJECTID":542407},"geometry":{"x":174643.54000000097,"y":2570320.160000002}},{"attributes":{"ID":542435,"DIS_CODE":0,"TOWNNAME":"下營區","LI":"營前里","LIN":"12鄰","STREET":"文明街","SECT":" ","MAREA":" ","LANE":" ","ALLEY":" ","HOUSE_NO":"７８號","E_COORD97":174645.31,"N_COORD97":2570342.4399999999,"ADDRESS":"文明街７８號","OBJECTID":542408},"geometry":{"x":174645.30999999959,"y":2570342.4399999995}},{"attributes":{"ID":542436,"DIS_CODE":0,"TOWNNAME":"下營區","LI":"營前里","LIN":"12鄰","STREET":"文明街","SECT":" ","MAREA":" ","LANE":" ","ALLEY":" ","HOUSE_NO":"８０號","E_COORD97":174641.14999999999,"N_COORD97":2570341.3199999998,"ADDRESS":"文明街８０號","OBJECTID":542409},"geometry":{"x":174641.1500000013,"y":2570341.3200000003}},{"attributes":{"ID":542437,"DIS_CODE":0,"TOWNNAME":"下營區","LI":"仁里里","LIN":"12鄰","STREET":"永安街","SECT":" ","MAREA":" ","LANE":" ","ALLEY":" ","HOUSE_NO":"１５號","E_COORD97":174069.41,"N_COORD97":2570356.7999999998,"ADDRESS":"永安街１５號","OBJECTID":542410},"geometry":{"x":174069.41000000108,"y":2570356.8000000026}},{"attributes":{"ID":542438,"DIS_CODE":0,"TOWNNAME":"下營區","LI":"仁里里","LIN":"12鄰","STREET":"永安街","SECT":" ","MAREA":" ","LANE":" ","ALLEY":" ","HOUSE_NO":"１９號","E_COORD97":174067.16,"N_COORD97":2570366.6600000001,"ADDRESS":"永安街１９號","OBJECTID":542411},"geometry":{"x":174067.16000000015,"y":2570366.6600000039}},{"attributes":{"ID":542439,"DIS_CODE":0,"TOWNNAME":"下營區","LI":"仁里里","LIN":"12鄰","STREET":"永安街","SECT":" ","MAREA":" ","LANE":" ","ALLEY":" ","HOUSE_NO":"２２號","E_COORD97":174112.76999999999,"N_COORD97":2570349.1499999999,"ADDRESS":"永安街２２號","OBJECTID":542412},"geometry":{"x":174112.77000000048,"y":2570349.1500000004}},{"attributes":{"ID":542440,"DIS_CODE":0,"TOWNNAME":"下營區","LI":"仁里里","LIN":"12鄰","STREET":"永安街","SECT":" ","MAREA":" ","LANE":" ","ALLEY":" ","HOUSE_NO":"２５號","E_COORD97":174058.94,"N_COORD97":2570392.7200000002,"ADDRESS":"永安街２５號","OBJECTID":542413},"geometry":{"x":174058.94000000041,"y":2570392.7200000007}},{"attributes":{"ID":542441,"DIS_CODE":0,"TOWNNAME":"下營區","LI":"仁里里","LIN":"12鄰","STREET":"永安街","SECT":" ","MAREA":" ","LANE":" ","ALLEY":" ","HOUSE_NO":"２６號","E_COORD97":174112.82999999999,"N_COORD97":2570354.5800000001,"ADDRESS":"永安街２６號","OBJECTID":542414},"geometry":{"x":174112.83000000101,"y":2570354.5800000019}},{"attributes":{"ID":542442,"DIS_CODE":0,"TOWNNAME":"下營區","LI":"仁里里","LIN":"12鄰","STREET":"永安街","SECT":" ","MAREA":" ","LANE":" ","ALLEY":" ","HOUSE_NO":"２７號","E_COORD97":174048.10999999999,"N_COORD97":2570401.0600000001,"ADDRESS":"永安街２７號","OBJECTID":542415},"geometry":{"x":174048.11000000127,"y":2570401.0600000005}},{"attributes":{"ID":542443,"DIS_CODE":0,"TOWNNAME":"下營區","LI":"仁里里","LIN":"12鄰","STREET":"永安街","SECT":" ","MAREA":" ","LANE":" ","ALLEY":" ","HOUSE_NO":"２８號","E_COORD97":174107.23999999999,"N_COORD97":2570361.6099999999,"ADDRESS":"永安街２８號","OBJECTID":542416},"geometry":{"x":174107.24000000022,"y":2570361.6099999994}},{"attributes":{"ID":542444,"DIS_CODE":0,"TOWNNAME":"下營區","LI":"仁里里","LIN":"12鄰","STREET":"永安街","SECT":" ","MAREA":" ","LANE":" ","ALLEY":" ","HOUSE_NO":"５５號","E_COORD97":174060.06,"N_COORD97":2570478.75,"ADDRESS":"永安街５５號","OBJECTID":542417},"geometry":{"x":174060.05999999959,"y":2570478.7500000019}},{"attributes":{"ID":542445,"DIS_CODE":0,"TOWNNAME":"下營區","LI":"營前里","LIN":"12鄰","STREET":"信義二街","SECT":" ","MAREA":" ","LANE":" ","ALLEY":" ","HOUSE_NO":"５１號","E_COORD97":174663.04000000001,"N_COORD97":2570280.8199999998,"ADDRESS":"信義二街５１號","OBJECTID":542418},"geometry":{"x":174663.04000000004,"y":2570280.820000004}},{"attributes":{"ID":542446,"DIS_CODE":0,"TOWNNAME":"下營區","LI":"營前里","LIN":"12鄰","STREET":"信義二街","SECT":" ","MAREA":" ","LANE":" ","ALLEY":" ","HOUSE_NO":"５９號","E_COORD97":174656.92000000001,"N_COORD97":2570303.8199999998,"ADDRESS":"信義二街５９號","OBJECTID":542419},"geometry":{"x":174656.91999999993,"y":2570303.8200000003}},{"attributes":{"ID":542447,"DIS_CODE":0,"TOWNNAME":"仁德區","LI":"仁義里","LIN":"36鄰","STREET":"勝利路","SECT":" ","MAREA":" ","LANE":" ","ALLEY":" ","HOUSE_NO":"５１之１號","E_COORD97":173537.10000000001,"N_COORD97":2539967.79,"ADDRESS":"勝利路５１之１號","OBJECTID":542420},"geometry":{"x":173537.10000000056,"y":2539967.790000001}},{"attributes":{"ID":542448,"DIS_CODE":0,"TOWNNAME":"仁德區","LI":"保安里","LIN":"13鄰","STREET":"二仁路","SECT":"一段","MAREA":" ","LANE":" ","ALLEY":" ","HOUSE_NO":"１７４號","E_COORD97":170215.60999999999,"N_COORD97":2536372.0299999998,"ADDRESS":"二仁路一段１７４號","OBJECTID":542421},"geometry":{"x":170215.61000000127,"y":2536372.0300000012}},{"attributes":{"ID":542449,"DIS_CODE":0,"TOWNNAME":"仁德區","LI":"太子里","LIN":"17鄰","STREET":"長興四街","SECT":" ","MAREA":" ","LANE":" ","ALLEY":" ","HOUSE_NO":"３５號","E_COORD97":174013.34,"N_COORD97":2543619.5099999998,"ADDRESS":"長興四街３５號","OBJECTID":542422},"geometry":{"x":174013.33999999892,"y":2543619.5099999998}},{"attributes":{"ID":542450,"DIS_CODE":0,"TOWNNAME":"東區","LI":"崇明里","LIN":"12鄰","STREET":"大同路","SECT":"二段","MAREA":" ","LANE":" ","ALLEY":" ","HOUSE_NO":"６３７號","E_COORD97":169619.48999999999,"N_COORD97":2540896.6800000002,"ADDRESS":"大同路二段６３７號","OBJECTID":542423},"geometry":{"x":169619.49000000115,"y":2540896.6800000034}},{"attributes":{"ID":542451,"DIS_CODE":0,"TOWNNAME":"東區","LI":"崇明里","LIN":"12鄰","STREET":"大同路","SECT":"二段","MAREA":" ","LANE":" ","ALLEY":" ","HOUSE_NO":"６３９號","E_COORD97":169620.45000000001,"N_COORD97":2540891.8100000001,"ADDRESS":"大同路二段６３９號","OBJECTID":542424},"geometry":{"x":169620.45000000019,"y":2540891.8100000005}},{"attributes":{"ID":542452,"DIS_CODE":0,"TOWNNAME":"東區","LI":"崇明里","LIN":"12鄰","STREET":"大同路","SECT":"二段","MAREA":" ","LANE":" ","ALLEY":" ","HOUSE_NO":"６４１號","E_COORD97":169621.07999999999,"N_COORD97":2540886.9500000002,"ADDRESS":"大同路二段６４１號","OBJECTID":542425},"geometry":{"x":169621.08000000007,"y":2540886.9499999993}},{"attributes":{"ID":542453,"DIS_CODE":0,"TOWNNAME":"東區","LI":"崇明里","LIN":"12鄰","STREET":"大同路","SECT":"二段","MAREA":" ","LANE":" ","ALLEY":" ","HOUSE_NO":"６４３號","E_COORD97":169621.19,"N_COORD97":2540881.6600000001,"ADDRESS":"大同路二段６４３號","OBJECTID":542426},"geometry":{"x":169621.19000000227,"y":2540881.660000002}},{"attributes":{"ID":542454,"DIS_CODE":0,"TOWNNAME":"東區","LI":"崇明里","LIN":"12鄰","STREET":"大同路","SECT":"二段","MAREA":" ","LANE":" ","ALLEY":" ","HOUSE_NO":"６４５號","E_COORD97":169621.39999999999,"N_COORD97":2540877.96,"ADDRESS":"大同路二段６４５號","OBJECTID":542427},"geometry":{"x":169621.40000000224,"y":2540877.9600000009}},{"attributes":{"ID":542455,"DIS_CODE":0,"TOWNNAME":"東區","LI":"崇明里","LIN":"12鄰","STREET":"大同路","SECT":"二段","MAREA":" ","LANE":" ","ALLEY":" ","HOUSE_NO":"６４７號","E_COORD97":169623.51000000001,"N_COORD97":2540873.2000000002,"ADDRESS":"大同路二段６４７號","OBJECTID":542428},"geometry":{"x":169623.51000000164,"y":2540873.2000000011}},{"attributes":{"ID":542456,"DIS_CODE":0,"TOWNNAME":"東區","LI":"崇明里","LIN":"12鄰","STREET":"大同路","SECT":"二段","MAREA":" ","LANE":" ","ALLEY":" ","HOUSE_NO":"６４９號","E_COORD97":169623.73000000001,"N_COORD97":2540868.6600000001,"ADDRESS":"大同路二段６４９號","OBJECTID":542429},"geometry":{"x":169623.73000000045,"y":2540868.6600000001}},{"attributes":{"ID":542457,"DIS_CODE":0,"TOWNNAME":"白河區","LI":"永安里","LIN":"12鄰","STREET":"昇平街","SECT":" ","MAREA":" ","LANE":" ","ALLEY":" ","HOUSE_NO":"１０之１號","E_COORD97":190176.97,"N_COORD97":2583216.5299999998,"ADDRESS":"昇平街１０之１號","OBJECTID":542430},"geometry":{"x":190176.96999999974,"y":2583216.5300000012}},{"attributes":{"ID":542458,"DIS_CODE":0,"TOWNNAME":"白河區","LI":"永安里","LIN":"12鄰","STREET":"昇平街","SECT":" ","MAREA":" ","LANE":" ","ALLEY":" ","HOUSE_NO":"１６號","E_COORD97":190182.85000000001,"N_COORD97":2583226.6800000002,"ADDRESS":"昇平街１６號","OBJECTID":542431},"geometry":{"x":190182.84999999963,"y":2583226.6800000016}},{"attributes":{"ID":542459,"DIS_CODE":0,"TOWNNAME":"白河區","LI":"永安里","LIN":"12鄰","STREET":"昇平街","SECT":" ","MAREA":" ","LANE":" ","ALLEY":" ","HOUSE_NO":"１８之１號","E_COORD97":190185.95000000001,"N_COORD97":2583236.1800000002,"ADDRESS":"昇平街１８之１號","OBJECTID":542432},"geometry":{"x":190185.95000000112,"y":2583236.1800000016}},{"attributes":{"ID":542460,"DIS_CODE":0,"TOWNNAME":"白河區","LI":"永安里","LIN":"12鄰","STREET":"昇平街","SECT":" ","MAREA":" ","LANE":" ","ALLEY":" ","HOUSE_NO":"１８之３號","E_COORD97":190189.39000000001,"N_COORD97":2583244.9100000001,"ADDRESS":"昇平街１８之３號","OBJECTID":542433},"geometry":{"x":190189.38999999966,"y":2583244.9100000039}},{"attributes":{"ID":542461,"DIS_CODE":0,"TOWNNAME":"白河區","LI":"永安里","LIN":"12鄰","STREET":"昇平街","SECT":" ","MAREA":" ","LANE":" ","ALLEY":" ","HOUSE_NO":"１８號","E_COORD97":190184.14000000001,"N_COORD97":2583231.6899999999,"ADDRESS":"昇平街１８號","OBJECTID":542434},"geometry":{"x":190184.1400000006,"y":2583231.6899999995}},{"attributes":{"ID":542462,"DIS_CODE":0,"TOWNNAME":"白河區","LI":"永安里","LIN":"12鄰","STREET":"昇平街","SECT":" ","MAREA":" ","LANE":" ","ALLEY":" ","HOUSE_NO":"２０號","E_COORD97":190191.07999999999,"N_COORD97":2583249.4199999999,"ADDRESS":"昇平街２０號","OBJECTID":542435},"geometry":{"x":190191.08000000194,"y":2583249.4200000018}},{"attributes":{"ID":542463,"DIS_CODE":0,"TOWNNAME":"白河區","LI":"永安里","LIN":"12鄰","STREET":"昇平街","SECT":" ","MAREA":" ","LANE":" ","ALLEY":" ","HOUSE_NO":"２３號","E_COORD97":190171.04999999999,"N_COORD97":2583234.4199999999,"ADDRESS":"昇平街２３號","OBJECTID":542436},"geometry":{"x":190171.05000000075,"y":2583234.4200000037}},{"attributes":{"ID":542464,"DIS_CODE":0,"TOWNNAME":"白河區","LI":"永安里","LIN":"12鄰","STREET":"昇平街","SECT":" ","MAREA":" ","LANE":" ","ALLEY":" ","HOUSE_NO":"２６之１號","E_COORD97":190197.32000000001,"N_COORD97":2583271.98,"ADDRESS":"昇平街２６之１號","OBJECTID":542437},"geometry":{"x":190197.3200000003,"y":2583271.9800000042}},{"attributes":{"ID":542465,"DIS_CODE":0,"TOWNNAME":"白河區","LI":"永安里","LIN":"12鄰","STREET":"昇平街","SECT":" ","MAREA":" ","LANE":" ","ALLEY":" ","HOUSE_NO":"２７號","E_COORD97":190171.69,"N_COORD97":2583237.3399999999,"ADDRESS":"昇平街２７號","OBJECTID":542438},"geometry":{"x":190171.69000000041,"y":2583237.3399999999}},{"attributes":{"ID":542466,"DIS_CODE":0,"TOWNNAME":"仁德區","LI":"仁義里","LIN":"36鄰","STREET":"中正路","SECT":"二段","MAREA":" ","LANE":" ","ALLEY":" ","HOUSE_NO":"７０６號","E_COORD97":173426.07000000001,"N_COORD97":2540006.5299999998,"ADDRESS":"中正路二段７０６號","OBJECTID":542439},"geometry":{"x":173426.07000000123,"y":2540006.5300000012}},{"attributes":{"ID":542467,"DIS_CODE":0,"TOWNNAME":"仁德區","LI":"仁義里","LIN":"51鄰","STREET":"中正路","SECT":"二段","MAREA":" ","LANE":" ","ALLEY":" ","HOUSE_NO":"１０９８號","E_COORD97":173347.48000000001,"N_COORD97":2541078.27,"ADDRESS":"中正路二段１０９８號","OBJECTID":542440},"geometry":{"x":173347.48000000138,"y":2541078.2699999996}},{"attributes":{"ID":542468,"DIS_CODE":0,"TOWNNAME":"仁德區","LI":"土庫里","LIN":"5鄰","STREET":"土庫三街","SECT":" ","MAREA":" ","LANE":" ","ALLEY":" ","HOUSE_NO":"２１號","E_COORD97":174107.95999999999,"N_COORD97":2543090,"ADDRESS":"土庫三街２１號","OBJECTID":542441},"geometry":{"x":174107.96000000089,"y":2543090.0000000019}},{"attributes":{"ID":542469,"DIS_CODE":0,"TOWNNAME":"麻豆區","LI":"保安里","LIN":"12鄰","STREET":"興南路","SECT":" ","MAREA":" ","LANE":" ","ALLEY":" ","HOUSE_NO":"５５號","E_COORD97":173204.79999999999,"N_COORD97":2564760.4199999999,"ADDRESS":"興南路５５號","OBJECTID":542442},"geometry":{"x":173204.79999999981,"y":2564760.4200000037}},{"attributes":{"ID":542470,"DIS_CODE":0,"TOWNNAME":"麻豆區","LI":"保安里","LIN":"12鄰","STREET":"興南路","SECT":" ","MAREA":" ","LANE":" ","ALLEY":" ","HOUSE_NO":"５７號","E_COORD97":173208.32999999999,"N_COORD97":2564760.3399999999,"ADDRESS":"興南路５７號","OBJECTID":542443},"geometry":{"x":173208.33000000007,"y":2564760.3399999999}},{"attributes":{"ID":542471,"DIS_CODE":0,"TOWNNAME":"麻豆區","LI":"保安里","LIN":"12鄰","STREET":"興南路","SECT":" ","MAREA":" ","LANE":" ","ALLEY":" ","HOUSE_NO":"５９號","E_COORD97":173212.82999999999,"N_COORD97":2564759.8999999999,"ADDRESS":"興南路５９號","OBJECTID":542444},"geometry":{"x":173212.83000000007,"y":2564759.9000000004}},{"attributes":{"ID":542472,"DIS_CODE":0,"TOWNNAME":"麻豆區","LI":"保安里","LIN":"12鄰","STREET":"興南路","SECT":" ","MAREA":" ","LANE":" ","ALLEY":" ","HOUSE_NO":"６１號","E_COORD97":173216.67999999999,"N_COORD97":2564760.3999999999,"ADDRESS":"興南路６１號","OBJECTID":542445},"geometry":{"x":173216.68000000063,"y":2564760.4000000004}},{"attributes":{"ID":542473,"DIS_CODE":0,"TOWNNAME":"麻豆區","LI":"保安里","LIN":"12鄰","STREET":"興南路","SECT":" ","MAREA":" ","LANE":" ","ALLEY":" ","HOUSE_NO":"６３號","E_COORD97":173220.92999999999,"N_COORD97":2564760.4300000002,"ADDRESS":"興南路６３號","OBJECTID":542446},"geometry":{"x":173220.92999999877,"y":2564760.4300000016}},{"attributes":{"ID":542474,"DIS_CODE":0,"TOWNNAME":"麻豆區","LI":"保安里","LIN":"12鄰","STREET":"興南路","SECT":" ","MAREA":" ","LANE":" ","ALLEY":" ","HOUSE_NO":"６５號","E_COORD97":173228.20000000001,"N_COORD97":2564763.2799999998,"ADDRESS":"興南路６５號","OBJECTID":542447},"geometry":{"x":173228.20000000205,"y":2564763.2799999993}},{"attributes":{"ID":542475,"DIS_CODE":0,"TOWNNAME":"佳里區","LI":"鎮山里","LIN":"12鄰","STREET":"延平路","SECT":" ","MAREA":" ","LANE":" ","ALLEY":" ","HOUSE_NO":"６４號","E_COORD97":165983.10000000001,"N_COORD97":2561672.04,"ADDRESS":"延平路６４號","OBJECTID":542448},"geometry":{"x":165983.10000000149,"y":2561672.0399999991}},{"attributes":{"ID":542476,"DIS_CODE":0,"TOWNNAME":"佳里區","LI":"鎮山里","LIN":"12鄰","STREET":"延平路","SECT":" ","MAREA":" ","LANE":" ","ALLEY":" ","HOUSE_NO":"１２號","E_COORD97":166004.09,"N_COORD97":2561561.2799999998,"ADDRESS":"延平路１２號","OBJECTID":542449},"geometry":{"x":166004.09000000078,"y":2561561.2800000012}},{"attributes":{"ID":542477,"DIS_CODE":0,"TOWNNAME":"佳里區","LI":"鎮山里","LIN":"12鄰","STREET":"延平路","SECT":" ","MAREA":" ","LANE":" ","ALLEY":" ","HOUSE_NO":"１４號","E_COORD97":166003.31,"N_COORD97":2561566,"ADDRESS":"延平路１４號","OBJECTID":542450},"geometry":{"x":166003.30999999959,"y":2561566.0000000037}},{"attributes":{"ID":542478,"DIS_CODE":0,"TOWNNAME":"佳里區","LI":"鎮山里","LIN":"12鄰","STREET":"延平路","SECT":" ","MAREA":" ","LANE":" ","ALLEY":" ","HOUSE_NO":"１８號","E_COORD97":166001.76000000001,"N_COORD97":2561575.4399999999,"ADDRESS":"延平路１８號","OBJECTID":542451},"geometry":{"x":166001.75999999978,"y":2561575.4399999995}},{"attributes":{"ID":542479,"DIS_CODE":0,"TOWNNAME":"佳里區","LI":"鎮山里","LIN":"12鄰","STREET":"延平路","SECT":" ","MAREA":" ","LANE":" ","ALLEY":" ","HOUSE_NO":"２０號","E_COORD97":166000.98000000001,"N_COORD97":2561580.1600000001,"ADDRESS":"延平路２０號","OBJECTID":542452},"geometry":{"x":166000.98000000045,"y":2561580.160000002}},{"attributes":{"ID":542480,"DIS_CODE":0,"TOWNNAME":"仁德區","LI":"仁義里","LIN":"35鄰","STREET":"勝利路","SECT":" ","MAREA":" ","LANE":" ","ALLEY":" ","HOUSE_NO":"４８號","E_COORD97":173538.98000000001,"N_COORD97":2539887.2599999998,"ADDRESS":"勝利路４８號","OBJECTID":542453},"geometry":{"x":173538.98000000138,"y":2539887.2600000016}},{"attributes":{"ID":542481,"DIS_CODE":0,"TOWNNAME":"佳里區","LI":"鎮山里","LIN":"12鄰","STREET":"延平路","SECT":" ","MAREA":" ","LANE":" ","ALLEY":" ","HOUSE_NO":"２１號","E_COORD97":165956.54999999999,"N_COORD97":2561595.8399999999,"ADDRESS":"延平路２１號","OBJECTID":542454},"geometry":{"x":165956.55000000168,"y":2561595.8399999999}},{"attributes":{"ID":542482,"DIS_CODE":0,"TOWNNAME":"佳里區","LI":"鎮山里","LIN":"12鄰","STREET":"延平路","SECT":" ","MAREA":" ","LANE":" ","ALLEY":" ","HOUSE_NO":"２２號","E_COORD97":165999.79999999999,"N_COORD97":2561587.71,"ADDRESS":"延平路２２號","OBJECTID":542455},"geometry":{"x":165999.79999999981,"y":2561587.7100000009}},{"attributes":{"ID":542483,"DIS_CODE":0,"TOWNNAME":"佳里區","LI":"鎮山里","LIN":"12鄰","STREET":"延平路","SECT":" ","MAREA":" ","LANE":" ","ALLEY":" ","HOUSE_NO":"２３號","E_COORD97":165965.10999999999,"N_COORD97":2561608.4100000001,"ADDRESS":"延平路２３號","OBJECTID":542456},"geometry":{"x":165965.1100000022,"y":2561608.410000002}},{"attributes":{"ID":542484,"DIS_CODE":0,"TOWNNAME":"佳里區","LI":"鎮山里","LIN":"12鄰","STREET":"延平路","SECT":" ","MAREA":" ","LANE":" ","ALLEY":" ","HOUSE_NO":"２５號","E_COORD97":165963.26000000001,"N_COORD97":2561614.8100000001,"ADDRESS":"延平路２５號","OBJECTID":542457},"geometry":{"x":165963.25999999978,"y":2561614.8100000005}},{"attributes":{"ID":542485,"DIS_CODE":0,"TOWNNAME":"佳里區","LI":"鎮山里","LIN":"12鄰","STREET":"延平路","SECT":" ","MAREA":" ","LANE":" ","ALLEY":" ","HOUSE_NO":"２號","E_COORD97":166007.97,"N_COORD97":2561537.6899999999,"ADDRESS":"延平路２號","OBJECTID":542458},"geometry":{"x":166007.97000000067,"y":2561537.6900000013}},{"attributes":{"ID":542486,"DIS_CODE":0,"TOWNNAME":"佳里區","LI":"鎮山里","LIN":"12鄰","STREET":"延平路","SECT":" ","MAREA":" ","LANE":" ","ALLEY":" ","HOUSE_NO":"３１號","E_COORD97":165955.82999999999,"N_COORD97":2561648.04,"ADDRESS":"延平路３１號","OBJECTID":542459},"geometry":{"x":165955.83000000007,"y":2561648.0399999991}},{"attributes":{"ID":542487,"DIS_CODE":0,"TOWNNAME":"佳里區","LI":"鎮山里","LIN":"12鄰","STREET":"延平路","SECT":" ","MAREA":" ","LANE":" ","ALLEY":" ","HOUSE_NO":"４６號","E_COORD97":165990.95999999999,"N_COORD97":2561635.9399999999,"ADDRESS":"延平路４６號","OBJECTID":542460},"geometry":{"x":165990.95999999996,"y":2561635.9399999995}},{"attributes":{"ID":542488,"DIS_CODE":0,"TOWNNAME":"佳里區","LI":"鎮山里","LIN":"12鄰","STREET":"延平路","SECT":" ","MAREA":" ","LANE":" ","ALLEY":" ","HOUSE_NO":"４８號","E_COORD97":165989.62,"N_COORD97":2561641,"ADDRESS":"延平路４８號","OBJECTID":542461},"geometry":{"x":165989.62000000011,"y":2561641.0000000019}},{"attributes":{"ID":542489,"DIS_CODE":0,"TOWNNAME":"佳里區","LI":"鎮山里","LIN":"12鄰","STREET":"延平路","SECT":" ","MAREA":" ","LANE":" ","ALLEY":" ","HOUSE_NO":"４９號","E_COORD97":165950.42999999999,"N_COORD97":2561678.1299999999,"ADDRESS":"延平路４９號","OBJECTID":542462},"geometry":{"x":165950.43000000156,"y":2561678.129999999}},{"attributes":{"ID":542490,"DIS_CODE":0,"TOWNNAME":"佳里區","LI":"鎮山里","LIN":"12鄰","STREET":"延平路","SECT":" ","MAREA":" ","LANE":" ","ALLEY":" ","HOUSE_NO":"４號","E_COORD97":166007.19,"N_COORD97":2561542.4100000001,"ADDRESS":"延平路４號","OBJECTID":542463},"geometry":{"x":166007.19000000134,"y":2561542.4100000001}},{"attributes":{"ID":542491,"DIS_CODE":0,"TOWNNAME":"佳里區","LI":"鎮山里","LIN":"12鄰","STREET":"延平路","SECT":" ","MAREA":" ","LANE":" ","ALLEY":" ","HOUSE_NO":"５０號","E_COORD97":165988.81,"N_COORD97":2561644.8799999999,"ADDRESS":"延平路５０號","OBJECTID":542464},"geometry":{"x":165988.81000000052,"y":2561644.8800000008}},{"attributes":{"ID":542492,"DIS_CODE":0,"TOWNNAME":"佳里區","LI":"鎮山里","LIN":"12鄰","STREET":"延平路","SECT":" ","MAREA":" ","LANE":" ","ALLEY":" ","HOUSE_NO":"５１號","E_COORD97":165949.97,"N_COORD97":2561682.1800000002,"ADDRESS":"延平路５１號","OBJECTID":542465},"geometry":{"x":165949.96999999974,"y":2561682.1799999997}},{"attributes":{"ID":542493,"DIS_CODE":0,"TOWNNAME":"佳里區","LI":"鎮山里","LIN":"12鄰","STREET":"延平路","SECT":" ","MAREA":" ","LANE":" ","ALLEY":" ","HOUSE_NO":"５２號","E_COORD97":165987.98999999999,"N_COORD97":2561648.7599999998,"ADDRESS":"延平路５２號","OBJECTID":542466},"geometry":{"x":165987.99000000115,"y":2561648.7600000035}},{"attributes":{"ID":542494,"DIS_CODE":0,"TOWNNAME":"佳里區","LI":"鎮山里","LIN":"12鄰","STREET":"延平路","SECT":" ","MAREA":" ","LANE":" ","ALLEY":" ","HOUSE_NO":"５３號","E_COORD97":165949.14000000001,"N_COORD97":2561686.0600000001,"ADDRESS":"延平路５３號","OBJECTID":542467},"geometry":{"x":165949.1400000006,"y":2561686.0600000024}},{"attributes":{"ID":542495,"DIS_CODE":0,"TOWNNAME":"佳里區","LI":"鎮山里","LIN":"12鄰","STREET":"延平路","SECT":" ","MAREA":" ","LANE":" ","ALLEY":" ","HOUSE_NO":"５４號","E_COORD97":165987.17999999999,"N_COORD97":2561652.6400000001,"ADDRESS":"延平路５４號","OBJECTID":542468},"geometry":{"x":165987.1799999997,"y":2561652.6400000006}},{"attributes":{"ID":542496,"DIS_CODE":0,"TOWNNAME":"佳里區","LI":"鎮山里","LIN":"12鄰","STREET":"延平路","SECT":" ","MAREA":" ","LANE":" ","ALLEY":" ","HOUSE_NO":"５５號","E_COORD97":165948.62,"N_COORD97":2561689.6000000001,"ADDRESS":"延平路５５號","OBJECTID":542469},"geometry":{"x":165948.62000000104,"y":2561689.5999999996}},{"attributes":{"ID":542497,"DIS_CODE":0,"TOWNNAME":"佳里區","LI":"鎮山里","LIN":"12鄰","STREET":"延平路","SECT":" ","MAREA":" ","LANE":" ","ALLEY":" ","HOUSE_NO":"５６號","E_COORD97":165986.35999999999,"N_COORD97":2561656.52,"ADDRESS":"延平路５６號","OBJECTID":542470},"geometry":{"x":165986.36000000034,"y":2561656.5199999996}},{"attributes":{"ID":542498,"DIS_CODE":0,"TOWNNAME":"佳里區","LI":"鎮山里","LIN":"12鄰","STREET":"延平路","SECT":" ","MAREA":" ","LANE":" ","ALLEY":" ","HOUSE_NO":"５７號","E_COORD97":165945.57000000001,"N_COORD97":2561697.6400000001,"ADDRESS":"延平路５７號","OBJECTID":542471},"geometry":{"x":165945.57000000123,"y":2561697.6400000006}},{"attributes":{"ID":542499,"DIS_CODE":0,"TOWNNAME":"佳里區","LI":"鎮山里","LIN":"12鄰","STREET":"延平路","SECT":" ","MAREA":" ","LANE":" ","ALLEY":" ","HOUSE_NO":"５８號","E_COORD97":165985.54999999999,"N_COORD97":2561660.3999999999,"ADDRESS":"延平路５８號","OBJECTID":542472},"geometry":{"x":165985.55000000075,"y":2561660.4000000004}},{"attributes":{"ID":542500,"DIS_CODE":0,"TOWNNAME":"佳里區","LI":"鎮山里","LIN":"12鄰","STREET":"延平路","SECT":" ","MAREA":" ","LANE":" ","ALLEY":" ","HOUSE_NO":"６０號","E_COORD97":165984.73000000001,"N_COORD97":2561664.2799999998,"ADDRESS":"延平路６０號","OBJECTID":542473},"geometry":{"x":165984.73000000231,"y":2561664.2799999993}},{"attributes":{"ID":542501,"DIS_CODE":0,"TOWNNAME":"佳里區","LI":"鎮山里","LIN":"12鄰","STREET":"延平路","SECT":" ","MAREA":" ","LANE":" ","ALLEY":" ","HOUSE_NO":"６２號","E_COORD97":165983.92000000001,"N_COORD97":2561668.1600000001,"ADDRESS":"延平路６２號","OBJECTID":542474},"geometry":{"x":165983.91999999993,"y":2561668.160000002}},{"attributes":{"ID":542502,"DIS_CODE":0,"TOWNNAME":"佳里區","LI":"鎮山里","LIN":"12鄰","STREET":"延平路","SECT":" ","MAREA":" ","LANE":" ","ALLEY":" ","HOUSE_NO":"６６號","E_COORD97":165982.29000000001,"N_COORD97":2561675.9100000001,"ADDRESS":"延平路６６號","OBJECTID":542475},"geometry":{"x":165982.2900000019,"y":2561675.910000002}},{"attributes":{"ID":542503,"DIS_CODE":0,"TOWNNAME":"佳里區","LI":"鎮山里","LIN":"12鄰","STREET":"延平路","SECT":" ","MAREA":" ","LANE":" ","ALLEY":" ","HOUSE_NO":"６號","E_COORD97":166006.42000000001,"N_COORD97":2561547.1299999999,"ADDRESS":"延平路６號","OBJECTID":542476},"geometry":{"x":166006.41999999993,"y":2561547.1300000027}},{"attributes":{"ID":542504,"DIS_CODE":0,"TOWNNAME":"佳里區","LI":"鎮山里","LIN":"12鄰","STREET":"延平路","SECT":" ","MAREA":" ","LANE":" ","ALLEY":" ","HOUSE_NO":"７０號","E_COORD97":165980.66,"N_COORD97":2561683.6699999999,"ADDRESS":"延平路７０號","OBJECTID":542477},"geometry":{"x":165980.66000000015,"y":2561683.6700000037}},{"attributes":{"ID":542505,"DIS_CODE":0,"TOWNNAME":"佳里區","LI":"六安里","LIN":"12鄰","STREET":"延平路","SECT":" ","MAREA":" ","LANE":" ","ALLEY":" ","HOUSE_NO":"７２２號之１","E_COORD97":165994.67999999999,"N_COORD97":2563445.7200000002,"ADDRESS":"延平路７２２號之１","OBJECTID":542478},"geometry":{"x":165994.68000000063,"y":2563445.7200000007}},{"attributes":{"ID":542506,"DIS_CODE":0,"TOWNNAME":"佳里區","LI":"六安里","LIN":"12鄰","STREET":"延平路","SECT":" ","MAREA":" ","LANE":" ","ALLEY":" ","HOUSE_NO":"７２２號","E_COORD97":166014.73000000001,"N_COORD97":2563502.79,"ADDRESS":"延平路７２２號","OBJECTID":542479},"geometry":{"x":166014.73000000045,"y":2563502.790000001}},{"attributes":{"ID":542507,"DIS_CODE":0,"TOWNNAME":"佳里區","LI":"鎮山里","LIN":"12鄰","STREET":"延平路","SECT":" ","MAREA":" ","LANE":" ","ALLEY":" ","HOUSE_NO":"７２號","E_COORD97":165979.64000000001,"N_COORD97":2561687.27,"ADDRESS":"延平路７２號","OBJECTID":542480},"geometry":{"x":165979.6400000006,"y":2561687.2700000014}},{"attributes":{"ID":542508,"DIS_CODE":0,"TOWNNAME":"佳里區","LI":"鎮山里","LIN":"12鄰","STREET":"延平路","SECT":" ","MAREA":" ","LANE":" ","ALLEY":" ","HOUSE_NO":"７８號","E_COORD97":165992.17999999999,"N_COORD97":2561700.98,"ADDRESS":"延平路７８號","OBJECTID":542481},"geometry":{"x":165992.1799999997,"y":2561700.9800000004}},{"attributes":{"ID":542509,"DIS_CODE":0,"TOWNNAME":"佳里區","LI":"鎮山里","LIN":"12鄰","STREET":"延平路","SECT":" ","MAREA":" ","LANE":" ","ALLEY":" ","HOUSE_NO":"８０號","E_COORD97":165981.13,"N_COORD97":2561718.2000000002,"ADDRESS":"延平路８０號","OBJECTID":542482},"geometry":{"x":165981.12999999989,"y":2561718.1999999993}},{"attributes":{"ID":542510,"DIS_CODE":0,"TOWNNAME":"佳里區","LI":"鎮山里","LIN":"12鄰","STREET":"延平路","SECT":" ","MAREA":" ","LANE":" ","ALLEY":" ","HOUSE_NO":"８２號","E_COORD97":165968.10000000001,"N_COORD97":2561743.7200000002,"ADDRESS":"延平路８２號","OBJECTID":542483},"geometry":{"x":165968.10000000056,"y":2561743.7200000007}},{"attributes":{"ID":542511,"DIS_CODE":0,"TOWNNAME":"佳里區","LI":"鎮山里","LIN":"12鄰","STREET":"延平路","SECT":" ","MAREA":" ","LANE":" ","ALLEY":" ","HOUSE_NO":"８４號","E_COORD97":165967.47,"N_COORD97":2561747.6499999999,"ADDRESS":"延平路８４號","OBJECTID":542484},"geometry":{"x":165967.47000000067,"y":2561747.6500000004}},{"attributes":{"ID":542512,"DIS_CODE":0,"TOWNNAME":"佳里區","LI":"鎮山里","LIN":"12鄰","STREET":"延平路","SECT":" ","MAREA":" ","LANE":" ","ALLEY":" ","HOUSE_NO":"８６號","E_COORD97":165966.89000000001,"N_COORD97":2561751.5600000001,"ADDRESS":"延平路８６號","OBJECTID":542485},"geometry":{"x":165966.88999999966,"y":2561751.5600000005}},{"attributes":{"ID":542513,"DIS_CODE":0,"TOWNNAME":"佳里區","LI":"鎮山里","LIN":"12鄰","STREET":"延平路","SECT":" ","MAREA":" ","LANE":" ","ALLEY":" ","HOUSE_NO":"８８號","E_COORD97":165966.20000000001,"N_COORD97":2561755.73,"ADDRESS":"延平路８８號","OBJECTID":542486},"geometry":{"x":165966.20000000112,"y":2561755.7300000023}},{"attributes":{"ID":542514,"DIS_CODE":0,"TOWNNAME":"佳里區","LI":"忠仁里","LIN":"12鄰","STREET":"忠仁街","SECT":" ","MAREA":" ","LANE":" ","ALLEY":" ","HOUSE_NO":"１７８號之１","E_COORD97":166061.07000000001,"N_COORD97":2562307.96,"ADDRESS":"忠仁街１７８號之１","OBJECTID":542487},"geometry":{"x":166061.07000000123,"y":2562307.9600000028}},{"attributes":{"ID":542515,"DIS_CODE":0,"TOWNNAME":"佳里區","LI":"忠仁里","LIN":"12鄰","STREET":"忠仁街","SECT":" ","MAREA":" ","LANE":" ","ALLEY":" ","HOUSE_NO":"１７８號之２","E_COORD97":166055.59,"N_COORD97":2562322.5899999999,"ADDRESS":"忠仁街１７８號之２","OBJECTID":542488},"geometry":{"x":166055.58999999985,"y":2562322.5900000017}},{"attributes":{"ID":542516,"DIS_CODE":0,"TOWNNAME":"佳里區","LI":"忠仁里","LIN":"12鄰","STREET":"忠仁街","SECT":" ","MAREA":" ","LANE":" ","ALLEY":" ","HOUSE_NO":"１７８號","E_COORD97":166042.23000000001,"N_COORD97":2562299.5099999998,"ADDRESS":"忠仁街１７８號","OBJECTID":542489},"geometry":{"x":166042.23000000045,"y":2562299.5100000016}},{"attributes":{"ID":542517,"DIS_CODE":0,"TOWNNAME":"佳里區","LI":"忠仁里","LIN":"12鄰","STREET":"忠仁街","SECT":" ","MAREA":" ","LANE":" ","ALLEY":" ","HOUSE_NO":"１８０號","E_COORD97":166040.54999999999,"N_COORD97":2562303.3599999999,"ADDRESS":"忠仁街１８０號","OBJECTID":542490},"geometry":{"x":166040.54999999981,"y":2562303.3600000013}},{"attributes":{"ID":542518,"DIS_CODE":0,"TOWNNAME":"佳里區","LI":"忠仁里","LIN":"12鄰","STREET":"忠仁街","SECT":" ","MAREA":" ","LANE":" ","ALLEY":" ","HOUSE_NO":"１８４號","E_COORD97":166038.26000000001,"N_COORD97":2562310.6800000002,"ADDRESS":"忠仁街１８４號","OBJECTID":542491},"geometry":{"x":166038.26000000071,"y":2562310.6800000034}},{"attributes":{"ID":542519,"DIS_CODE":0,"TOWNNAME":"佳里區","LI":"忠仁里","LIN":"12鄰","STREET":"忠仁街","SECT":" ","MAREA":" ","LANE":" ","ALLEY":" ","HOUSE_NO":"１８６號","E_COORD97":166036.94,"N_COORD97":2562314.4300000002,"ADDRESS":"忠仁街１８６號","OBJECTID":542492},"geometry":{"x":166036.94000000041,"y":2562314.4299999997}},{"attributes":{"ID":542520,"DIS_CODE":0,"TOWNNAME":"佳里區","LI":"忠仁里","LIN":"12鄰","STREET":"忠仁街","SECT":" ","MAREA":" ","LANE":" ","ALLEY":" ","HOUSE_NO":"１８８號","E_COORD97":166025.98000000001,"N_COORD97":2562315.9100000001,"ADDRESS":"忠仁街１８８號","OBJECTID":542493},"geometry":{"x":166025.98000000138,"y":2562315.9099999983}},{"attributes":{"ID":542521,"DIS_CODE":0,"TOWNNAME":"佳里區","LI":"忠仁里","LIN":"12鄰","STREET":"忠仁街","SECT":" ","MAREA":" ","LANE":" ","ALLEY":" ","HOUSE_NO":"１９０號","E_COORD97":166023.95999999999,"N_COORD97":2562320.29,"ADDRESS":"忠仁街１９０號","OBJECTID":542494},"geometry":{"x":166023.96000000089,"y":2562320.290000001}},{"attributes":{"ID":542522,"DIS_CODE":0,"TOWNNAME":"佳里區","LI":"忠仁里","LIN":"12鄰","STREET":"忠仁街","SECT":" ","MAREA":" ","LANE":" ","ALLEY":" ","HOUSE_NO":"１９２號","E_COORD97":166022.59,"N_COORD97":2562324.7400000002,"ADDRESS":"忠仁街１９２號","OBJECTID":542495},"geometry":{"x":166022.59000000078,"y":2562324.7400000021}},{"attributes":{"ID":542523,"DIS_CODE":0,"TOWNNAME":"佳里區","LI":"忠仁里","LIN":"12鄰","STREET":"信義一街","SECT":" ","MAREA":" ","LANE":" ","ALLEY":" ","HOUSE_NO":"２９５號","E_COORD97":166190.64000000001,"N_COORD97":2562275.1600000001,"ADDRESS":"信義一街２９５號","OBJECTID":542496},"geometry":{"x":166190.63999999966,"y":2562275.160000002}},{"attributes":{"ID":542524,"DIS_CODE":0,"TOWNNAME":"佳里區","LI":"忠仁里","LIN":"12鄰","STREET":"信義一街","SECT":" ","MAREA":" ","LANE":" ","ALLEY":" ","HOUSE_NO":"２９７號","E_COORD97":166191.67000000001,"N_COORD97":2562279.96,"ADDRESS":"信義一街２９７號","OBJECTID":542497},"geometry":{"x":166191.67000000086,"y":2562279.9600000028}},{"attributes":{"ID":542525,"DIS_CODE":0,"TOWNNAME":"佳里區","LI":"忠仁里","LIN":"12鄰","STREET":"信義一街","SECT":" ","MAREA":" ","LANE":" ","ALLEY":" ","HOUSE_NO":"２９９號","E_COORD97":166192.89000000001,"N_COORD97":2562284.6899999999,"ADDRESS":"信義一街２９９號","OBJECTID":542498},"geometry":{"x":166192.88999999966,"y":2562284.6899999995}},{"attributes":{"ID":542526,"DIS_CODE":0,"TOWNNAME":"佳里區","LI":"忠仁里","LIN":"12鄰","STREET":"信義一街","SECT":" ","MAREA":" ","LANE":" ","ALLEY":" ","HOUSE_NO":"３０１號","E_COORD97":166193.91,"N_COORD97":2562289.5,"ADDRESS":"信義一街３０１號","OBJECTID":542499},"geometry":{"x":166193.91000000108,"y":2562289.5000000019}},{"attributes":{"ID":542527,"DIS_CODE":0,"TOWNNAME":"佳里區","LI":"忠仁里","LIN":"12鄰","STREET":"信義一街","SECT":" ","MAREA":" ","LANE":" ","ALLEY":" ","HOUSE_NO":"３０３號","E_COORD97":166194.95000000001,"N_COORD97":2562294.1899999999,"ADDRESS":"信義一街３０３號","OBJECTID":542500},"geometry":{"x":166194.95000000205,"y":2562294.1900000013}},{"attributes":{"ID":542528,"DIS_CODE":0,"TOWNNAME":"佳里區","LI":"忠仁里","LIN":"12鄰","STREET":"信義一街","SECT":" ","MAREA":" ","LANE":" ","ALLEY":" ","HOUSE_NO":"３０５號","E_COORD97":166195.98999999999,"N_COORD97":2562298.6499999999,"ADDRESS":"信義一街３０５號","OBJECTID":542501},"geometry":{"x":166195.99000000022,"y":2562298.6500000022}},{"attributes":{"ID":542529,"DIS_CODE":0,"TOWNNAME":"佳里區","LI":"忠仁里","LIN":"12鄰","STREET":"信義一街","SECT":" ","MAREA":" ","LANE":" ","ALLEY":" ","HOUSE_NO":"３０７號","E_COORD97":166196.67000000001,"N_COORD97":2562303.27,"ADDRESS":"信義一街３０７號","OBJECTID":542502},"geometry":{"x":166196.67000000086,"y":2562303.2700000014}},{"attributes":{"ID":542530,"DIS_CODE":0,"TOWNNAME":"佳里區","LI":"忠仁里","LIN":"12鄰","STREET":"信義一街","SECT":" ","MAREA":" ","LANE":" ","ALLEY":" ","HOUSE_NO":"３０９號","E_COORD97":166197.23999999999,"N_COORD97":2562307.9700000002,"ADDRESS":"信義一街３０９號","OBJECTID":542503},"geometry":{"x":166197.24000000022,"y":2562307.9700000007}},{"attributes":{"ID":542531,"DIS_CODE":0,"TOWNNAME":"佳里區","LI":"忠仁里","LIN":"12鄰","STREET":"信義一街","SECT":" ","MAREA":" ","LANE":" ","ALLEY":" ","HOUSE_NO":"３１１號","E_COORD97":166201.16,"N_COORD97":2562312.7999999998,"ADDRESS":"信義一街３１１號","OBJECTID":542504},"geometry":{"x":166201.16000000015,"y":2562312.8000000007}},{"attributes":{"ID":542532,"DIS_CODE":0,"TOWNNAME":"佳里區","LI":"忠仁里","LIN":"12鄰","STREET":"信義一街","SECT":" ","MAREA":" ","LANE":" ","ALLEY":" ","HOUSE_NO":"３１３號","E_COORD97":166202.23000000001,"N_COORD97":2562317.52,"ADDRESS":"信義一街３１３號","OBJECTID":542505},"geometry":{"x":166202.23000000138,"y":2562317.5199999996}},{"attributes":{"ID":542533,"DIS_CODE":0,"TOWNNAME":"佳里區","LI":"忠仁里","LIN":"12鄰","STREET":"信義一街","SECT":" ","MAREA":" ","LANE":" ","ALLEY":" ","HOUSE_NO":"３１５號","E_COORD97":166203.35000000001,"N_COORD97":2562321.98,"ADDRESS":"信義一街３１５號","OBJECTID":542506},"geometry":{"x":166203.3499999987,"y":2562321.9800000004}},{"attributes":{"ID":542534,"DIS_CODE":0,"TOWNNAME":"佳里區","LI":"忠仁里","LIN":"12鄰","STREET":"信義一街","SECT":" ","MAREA":" ","LANE":" ","ALLEY":" ","HOUSE_NO":"３１７號","E_COORD97":166204.95000000001,"N_COORD97":2562325.9900000002,"ADDRESS":"信義一街３１７號","OBJECTID":542507},"geometry":{"x":166204.94999999925,"y":2562325.9900000039}},{"attributes":{"ID":542535,"DIS_CODE":0,"TOWNNAME":"佳里區","LI":"忠仁里","LIN":"12鄰","STREET":"信義一街","SECT":" ","MAREA":" ","LANE":" ","ALLEY":" ","HOUSE_NO":"３１９號","E_COORD97":166175.06,"N_COORD97":2562311.6000000001,"ADDRESS":"信義一街３１９號","OBJECTID":542508},"geometry":{"x":166175.06000000052,"y":2562311.6000000015}},{"attributes":{"ID":542536,"DIS_CODE":0,"TOWNNAME":"佳里區","LI":"忠仁里","LIN":"12鄰","STREET":"信義一街","SECT":" ","MAREA":" ","LANE":" ","ALLEY":" ","HOUSE_NO":"３２１號","E_COORD97":166174.84,"N_COORD97":2562315.8599999999,"ADDRESS":"信義一街３２１號","OBJECTID":542509},"geometry":{"x":166174.83999999892,"y":2562315.8600000031}},{"attributes":{"ID":542537,"DIS_CODE":0,"TOWNNAME":"佳里區","LI":"忠仁里","LIN":"12鄰","STREET":"信義一街","SECT":" ","MAREA":" ","LANE":" ","ALLEY":" ","HOUSE_NO":"３２３號","E_COORD97":166174.72,"N_COORD97":2562319.9500000002,"ADDRESS":"信義一街３２３號","OBJECTID":542510},"geometry":{"x":166174.72000000067,"y":2562319.9500000011}},{"attributes":{"ID":542538,"DIS_CODE":0,"TOWNNAME":"佳里區","LI":"忠仁里","LIN":"12鄰","STREET":"信義一街","SECT":" ","MAREA":" ","LANE":" ","ALLEY":" ","HOUSE_NO":"３２５號","E_COORD97":166174.34,"N_COORD97":2562324.6200000001,"ADDRESS":"信義一街３２５號","OBJECTID":542511},"geometry":{"x":166174.33999999985,"y":2562324.620000001}},{"attributes":{"ID":542539,"DIS_CODE":0,"TOWNNAME":"佳里區","LI":"忠仁里","LIN":"12鄰","STREET":"信義一街","SECT":" ","MAREA":" ","LANE":" ","ALLEY":" ","HOUSE_NO":"３２９號","E_COORD97":166184.82999999999,"N_COORD97":2562340.04,"ADDRESS":"信義一街３２９號","OBJECTID":542512},"geometry":{"x":166184.83000000007,"y":2562340.0399999991}},{"attributes":{"ID":542540,"DIS_CODE":0,"TOWNNAME":"佳里區","LI":"忠仁里","LIN":"12鄰","STREET":"信義一街","SECT":" ","MAREA":" ","LANE":" ","ALLEY":" ","HOUSE_NO":"３３７號","E_COORD97":166209.54999999999,"N_COORD97":2562343.3199999998,"ADDRESS":"信義一街３３７號","OBJECTID":542513},"geometry":{"x":166209.55000000075,"y":2562343.3200000003}},{"attributes":{"ID":542541,"DIS_CODE":0,"TOWNNAME":"佳里區","LI":"忠仁里","LIN":"12鄰","STREET":"信義一街","SECT":" ","MAREA":" ","LANE":" ","ALLEY":" ","HOUSE_NO":"３４９號","E_COORD97":166193.38,"N_COORD97":2562385.77,"ADDRESS":"信義一街３４９號","OBJECTID":542514},"geometry":{"x":166193.38000000175,"y":2562385.7700000014}},{"attributes":{"ID":542542,"DIS_CODE":0,"TOWNNAME":"佳里區","LI":"忠仁里","LIN":"12鄰","STREET":"信義一街","SECT":" ","MAREA":" ","LANE":" ","ALLEY":" ","HOUSE_NO":"３５１號","E_COORD97":166192.20000000001,"N_COORD97":2562389.6000000001,"ADDRESS":"信義一街３５１號","OBJECTID":542515},"geometry":{"x":166192.20000000112,"y":2562389.6000000015}},{"attributes":{"ID":542543,"DIS_CODE":0,"TOWNNAME":"佳里區","LI":"忠仁里","LIN":"12鄰","STREET":"信義一街","SECT":" ","MAREA":" ","LANE":" ","ALLEY":" ","HOUSE_NO":"３５３號","E_COORD97":166190.92999999999,"N_COORD97":2562393.2799999998,"ADDRESS":"信義一街３５３號","OBJECTID":542516},"geometry":{"x":166190.9299999997,"y":2562393.2799999993}},{"attributes":{"ID":542544,"DIS_CODE":0,"TOWNNAME":"佳里區","LI":"忠仁里","LIN":"12鄰","STREET":"信義一街","SECT":" ","MAREA":" ","LANE":" ","ALLEY":" ","HOUSE_NO":"３５５號","E_COORD97":166188.54999999999,"N_COORD97":2562396.73,"ADDRESS":"信義一街３５５號","OBJECTID":542517},"geometry":{"x":166188.54999999981,"y":2562396.7300000023}},{"attributes":{"ID":542545,"DIS_CODE":0,"TOWNNAME":"安南區","LI":"安順里","LIN":"12鄰","STREET":"安和路","SECT":"四段","MAREA":" ","LANE":" ","ALLEY":" ","HOUSE_NO":"５２號","E_COORD97":169975.72,"N_COORD97":2550195.2799999998,"ADDRESS":"安和路四段５２號","OBJECTID":542518},"geometry":{"x":169975.71999999974,"y":2550195.2799999975}},{"attributes":{"ID":542546,"DIS_CODE":0,"TOWNNAME":"安南區","LI":"安順里","LIN":"12鄰","STREET":"安和路","SECT":"四段","MAREA":" ","LANE":" ","ALLEY":" ","HOUSE_NO":"５８號","E_COORD97":169972.23999999999,"N_COORD97":2550218.8700000001,"ADDRESS":"安和路四段５８號","OBJECTID":542519},"geometry":{"x":169972.24000000115,"y":2550218.870000001}},{"attributes":{"ID":542547,"DIS_CODE":0,"TOWNNAME":"安南區","LI":"安順里","LIN":"12鄰","STREET":"安和路","SECT":"四段","MAREA":" ","LANE":" ","ALLEY":" ","HOUSE_NO":"６６號","E_COORD97":169971.73999999999,"N_COORD97":2550223.3399999999,"ADDRESS":"安和路四段６６號","OBJECTID":542520},"geometry":{"x":169971.74000000115,"y":2550223.3400000017}},{"attributes":{"ID":542548,"DIS_CODE":0,"TOWNNAME":"安南區","LI":"安順里","LIN":"12鄰","STREET":"安和路","SECT":"四段","MAREA":" ","LANE":" ","ALLEY":" ","HOUSE_NO":"６８號","E_COORD97":169970,"N_COORD97":2550228.2999999998,"ADDRESS":"安和路四段６８號","OBJECTID":542521},"geometry":{"x":169970.00000000093,"y":2550228.3000000026}},{"attributes":{"ID":542549,"DIS_CODE":0,"TOWNNAME":"安南區","LI":"佃西里","LIN":"12鄰","STREET":"公學路","SECT":"五段","MAREA":" ","LANE":" ","ALLEY":" ","HOUSE_NO":"１７１號","E_COORD97":164744.76000000001,"N_COORD97":2552050.9300000002,"ADDRESS":"公學路五段１７１號","OBJECTID":542522},"geometry":{"x":164744.76000000164,"y":2552050.9300000016}},{"attributes":{"ID":542550,"DIS_CODE":0,"TOWNNAME":"安南區","LI":"佃西里","LIN":"12鄰","STREET":"公學路","SECT":"五段","MAREA":" ","LANE":" ","ALLEY":" ","HOUSE_NO":"１７８號","E_COORD97":164778.48999999999,"N_COORD97":2552081.1600000001,"ADDRESS":"公學路五段１７８號","OBJECTID":542523},"geometry":{"x":164778.49000000022,"y":2552081.1600000001}},{"attributes":{"ID":542551,"DIS_CODE":0,"TOWNNAME":"安南區","LI":"佃西里","LIN":"12鄰","STREET":"公學路","SECT":"五段","MAREA":" ","LANE":" ","ALLEY":" ","HOUSE_NO":"１８０號","E_COORD97":164776.97,"N_COORD97":2552086.8700000001,"ADDRESS":"公學路五段１８０號","OBJECTID":542524},"geometry":{"x":164776.96999999881,"y":2552086.870000001}},{"attributes":{"ID":542552,"DIS_CODE":0,"TOWNNAME":"安南區","LI":"佃西里","LIN":"12鄰","STREET":"公學路","SECT":"五段","MAREA":" ","LANE":" ","ALLEY":" ","HOUSE_NO":"１８２號","E_COORD97":164764.64999999999,"N_COORD97":2552090.8100000001,"ADDRESS":"公學路五段１８２號","OBJECTID":542525},"geometry":{"x":164764.65000000224,"y":2552090.8100000005}},{"attributes":{"ID":542553,"DIS_CODE":0,"TOWNNAME":"仁德區","LI":"田厝里","LIN":"4鄰","STREET":"保安路","SECT":"二段","MAREA":" ","LANE":" ","ALLEY":" ","HOUSE_NO":"４５６號","E_COORD97":172365.12,"N_COORD97":2537480.0600000001,"ADDRESS":"保安路二段４５６號","OBJECTID":542526},"geometry":{"x":172365.12000000011,"y":2537480.0600000005}},{"attributes":{"ID":542554,"DIS_CODE":0,"TOWNNAME":"仁德區","LI":"新田里","LIN":"18鄰","STREET":"民安路","SECT":"二段","MAREA":" ","LANE":" ","ALLEY":" ","HOUSE_NO":"２２５號","E_COORD97":173801.12,"N_COORD97":2538955.5699999998,"ADDRESS":"民安路二段２２５號","OBJECTID":542527},"geometry":{"x":173801.12000000011,"y":2538955.570000004}},{"attributes":{"ID":542555,"DIS_CODE":0,"TOWNNAME":"仁德區","LI":"保安里","LIN":"6鄰","STREET":"文賢路","SECT":"一段","MAREA":" ","LANE":" ","ALLEY":" ","HOUSE_NO":"７５３號","E_COORD97":171482,"N_COORD97":2536194.8300000001,"ADDRESS":"文賢路一段７５３號","OBJECTID":542528},"geometry":{"x":171482.00000000093,"y":2536194.8300000019}},{"attributes":{"ID":542556,"DIS_CODE":0,"TOWNNAME":"安南區","LI":"海西里","LIN":"12鄰","STREET":"海環街","SECT":" ","MAREA":" ","LANE":" ","ALLEY":" ","HOUSE_NO":"２１５號","E_COORD97":166291.20999999999,"N_COORD97":2548631.3199999998,"ADDRESS":"海環街２１５號","OBJECTID":542529},"geometry":{"x":166291.21000000183,"y":2548631.3200000022}},{"attributes":{"ID":542557,"DIS_CODE":0,"TOWNNAME":"安南區","LI":"海西里","LIN":"12鄰","STREET":"海環街","SECT":" ","MAREA":" ","LANE":" ","ALLEY":" ","HOUSE_NO":"２１７號","E_COORD97":166286.98000000001,"N_COORD97":2548631.6000000001,"ADDRESS":"海環街２１７號","OBJECTID":542530},"geometry":{"x":166286.98000000138,"y":2548631.6000000015}},{"attributes":{"ID":542558,"DIS_CODE":0,"TOWNNAME":"安南區","LI":"海西里","LIN":"12鄰","STREET":"海環街","SECT":" ","MAREA":" ","LANE":" ","ALLEY":" ","HOUSE_NO":"２１９號","E_COORD97":166267.26000000001,"N_COORD97":2548631.6000000001,"ADDRESS":"海環街２１９號","OBJECTID":542531},"geometry":{"x":166267.26000000071,"y":2548631.6000000015}},{"attributes":{"ID":542559,"DIS_CODE":0,"TOWNNAME":"安南區","LI":"海西里","LIN":"12鄰","STREET":"海環街","SECT":" ","MAREA":" ","LANE":" ","ALLEY":" ","HOUSE_NO":"２２２號","E_COORD97":166239.07999999999,"N_COORD97":2548666.6600000001,"ADDRESS":"海環街２２２號","OBJECTID":542532},"geometry":{"x":166239.08000000007,"y":2548666.6600000001}},{"attributes":{"ID":542560,"DIS_CODE":0,"TOWNNAME":"安南區","LI":"海西里","LIN":"12鄰","STREET":"海環街","SECT":" ","MAREA":" ","LANE":" ","ALLEY":" ","HOUSE_NO":"２２６號","E_COORD97":166228.66,"N_COORD97":2548677.9199999999,"ADDRESS":"海環街２２６號","OBJECTID":542533},"geometry":{"x":166228.66000000015,"y":2548677.9200000018}},{"attributes":{"ID":542561,"DIS_CODE":0,"TOWNNAME":"仁德區","LI":"太子里","LIN":"15鄰","STREET":"太子北路","SECT":" ","MAREA":" ","LANE":" ","ALLEY":" ","HOUSE_NO":"１２２號","E_COORD97":174070.06,"N_COORD97":2543677.25,"ADDRESS":"太子北路１２２號","OBJECTID":542534},"geometry":{"x":174070.06000000052,"y":2543677.2500000019}},{"attributes":{"ID":542562,"DIS_CODE":0,"TOWNNAME":"仁德區","LI":"大甲里","LIN":"1鄰","STREET":"行大街","SECT":" ","MAREA":" ","LANE":" ","ALLEY":" ","HOUSE_NO":"２３５號","E_COORD97":169853.13,"N_COORD97":2535092.4900000002,"ADDRESS":"行大街２３５號","OBJECTID":542535},"geometry":{"x":169853.12999999896,"y":2535092.4900000021}},{"attributes":{"ID":542563,"DIS_CODE":0,"TOWNNAME":"安南區","LI":"海西里","LIN":"12鄰","STREET":"海環街","SECT":" ","MAREA":" ","LANE":" ","ALLEY":" ","HOUSE_NO":"２３１號","E_COORD97":166237.10999999999,"N_COORD97":2548634.1600000001,"ADDRESS":"海環街２３１號","OBJECTID":542536},"geometry":{"x":166237.11000000127,"y":2548634.1600000039}},{"attributes":{"ID":542564,"DIS_CODE":0,"TOWNNAME":"安南區","LI":"海西里","LIN":"12鄰","STREET":"海環街","SECT":" ","MAREA":" ","LANE":" ","ALLEY":" ","HOUSE_NO":"２３３號","E_COORD97":166232.60000000001,"N_COORD97":2548634.1600000001,"ADDRESS":"海環街２３３號","OBJECTID":542537},"geometry":{"x":166232.60000000056,"y":2548634.1600000039}},{"attributes":{"ID":542565,"DIS_CODE":0,"TOWNNAME":"安南區","LI":"海西里","LIN":"12鄰","STREET":"海環街","SECT":" ","MAREA":" ","LANE":" ","ALLEY":" ","HOUSE_NO":"２３５號","E_COORD97":166228.09,"N_COORD97":2548634.4399999999,"ADDRESS":"海環街２３５號","OBJECTID":542538},"geometry":{"x":166228.09000000078,"y":2548634.4399999995}},{"attributes":{"ID":542566,"DIS_CODE":0,"TOWNNAME":"安南區","LI":"海西里","LIN":"12鄰","STREET":"海環街","SECT":" ","MAREA":" ","LANE":" ","ALLEY":" ","HOUSE_NO":"２３７號","E_COORD97":166223.01999999999,"N_COORD97":2548634.4399999999,"ADDRESS":"海環街２３７號","OBJECTID":542539},"geometry":{"x":166223.02000000048,"y":2548634.4399999995}},{"attributes":{"ID":542567,"DIS_CODE":0,"TOWNNAME":"新營區","LI":"民生里","LIN":"12鄰","STREET":"復興路","SECT":" ","MAREA":" ","LANE":" ","ALLEY":" ","HOUSE_NO":"１９８號","E_COORD97":179049.31,"N_COORD97":2578037.9199999999,"ADDRESS":"復興路１９８號","OBJECTID":542540},"geometry":{"x":179049.30999999959,"y":2578037.9200000018}},{"attributes":{"ID":542568,"DIS_CODE":0,"TOWNNAME":"永康區","LI":"永康里","LIN":"12鄰","STREET":"永二街","SECT":" ","MAREA":" ","LANE":" ","ALLEY":" ","HOUSE_NO":"３３號","E_COORD97":173783.35000000001,"N_COORD97":2547072.98,"ADDRESS":"永二街３３號","OBJECTID":542541},"geometry":{"x":173783.35000000056,"y":2547072.9800000042}},{"attributes":{"ID":542569,"DIS_CODE":0,"TOWNNAME":"永康區","LI":"永康里","LIN":"12鄰","STREET":"永二街","SECT":" ","MAREA":" ","LANE":" ","ALLEY":" ","HOUSE_NO":"１９號","E_COORD97":173793.32000000001,"N_COORD97":2547102.9399999999,"ADDRESS":"永二街１９號","OBJECTID":542542},"geometry":{"x":173793.3200000003,"y":2547102.9400000013}},{"attributes":{"ID":542570,"DIS_CODE":0,"TOWNNAME":"下營區","LI":"仁里里","LIN":"12鄰","STREET":"蚵寮街","SECT":" ","MAREA":" ","LANE":" ","ALLEY":" ","HOUSE_NO":"９２號","E_COORD97":173959.20999999999,"N_COORD97":2570355.1499999999,"ADDRESS":"蚵寮街９２號","OBJECTID":542543},"geometry":{"x":173959.21000000089,"y":2570355.1500000004}},{"attributes":{"ID":542571,"DIS_CODE":0,"TOWNNAME":"安南區","LI":"安慶里","LIN":"12鄰","STREET":"安中路","SECT":"一段","MAREA":" ","LANE":" ","ALLEY":" ","HOUSE_NO":"６８號","E_COORD97":169098.88,"N_COORD97":2548308.71,"ADDRESS":"安中路一段６８號","OBJECTID":542544},"geometry":{"x":169098.88000000175,"y":2548308.7100000009}},{"attributes":{"ID":542572,"DIS_CODE":0,"TOWNNAME":"安南區","LI":"頂安里","LIN":"12鄰","STREET":"長溪路","SECT":"二段","MAREA":" ","LANE":" ","ALLEY":" ","HOUSE_NO":"１０２號","E_COORD97":168424.13,"N_COORD97":2549464.6299999999,"ADDRESS":"長溪路二段１０２號","OBJECTID":542545},"geometry":{"x":168424.12999999896,"y":2549464.6300000008}},{"attributes":{"ID":542573,"DIS_CODE":0,"TOWNNAME":"安南區","LI":"安順里","LIN":"12鄰","STREET":"安和路","SECT":"三段","MAREA":" ","LANE":" ","ALLEY":" ","HOUSE_NO":"１７０號","E_COORD97":169908.12,"N_COORD97":2549772.73,"ADDRESS":"安和路三段１７０號","OBJECTID":542546},"geometry":{"x":169908.12000000104,"y":2549772.7300000004}},{"attributes":{"ID":542574,"DIS_CODE":0,"TOWNNAME":"安南區","LI":"安順里","LIN":"12鄰","STREET":"安和路","SECT":"三段","MAREA":" ","LANE":" ","ALLEY":" ","HOUSE_NO":"１７２號","E_COORD97":169909.20999999999,"N_COORD97":2549776.7200000002,"ADDRESS":"安和路三段１７２號","OBJECTID":542547},"geometry":{"x":169909.21000000089,"y":2549776.7199999988}},{"attributes":{"ID":542575,"DIS_CODE":0,"TOWNNAME":"安南區","LI":"安順里","LIN":"12鄰","STREET":"安和路","SECT":"三段","MAREA":" ","LANE":" ","ALLEY":" ","HOUSE_NO":"１７４號","E_COORD97":169909.01999999999,"N_COORD97":2549781.0800000001,"ADDRESS":"安和路三段１７４號","OBJECTID":542548},"geometry":{"x":169909.01999999955,"y":2549781.0800000019}},{"attributes":{"ID":542576,"DIS_CODE":0,"TOWNNAME":"安南區","LI":"安順里","LIN":"12鄰","STREET":"安和路","SECT":"三段","MAREA":" ","LANE":" ","ALLEY":" ","HOUSE_NO":"１９３號","E_COORD97":169803.64000000001,"N_COORD97":2549878.7000000002,"ADDRESS":"安和路三段１９３號","OBJECTID":542549},"geometry":{"x":169803.63999999966,"y":2549878.7000000011}},{"attributes":{"ID":542577,"DIS_CODE":0,"TOWNNAME":"下營區","LI":"仁里里","LIN":"12鄰","STREET":"蚵寮街","SECT":" ","MAREA":" ","LANE":" ","ALLEY":" ","HOUSE_NO":"１２６號","E_COORD97":173901.01000000001,"N_COORD97":2570357.4100000001,"ADDRESS":"蚵寮街１２６號","OBJECTID":542550},"geometry":{"x":173901.01000000071,"y":2570357.4100000001}},{"attributes":{"ID":542578,"DIS_CODE":0,"TOWNNAME":"下營區","LI":"仁里里","LIN":"12鄰","STREET":"蚵寮街","SECT":" ","MAREA":" ","LANE":" ","ALLEY":" ","HOUSE_NO":"１２８號","E_COORD97":173894.26999999999,"N_COORD97":2570358,"ADDRESS":"蚵寮街１２８號","OBJECTID":542551},"geometry":{"x":173894.26999999955,"y":2570358.0000000019}},{"attributes":{"ID":542579,"DIS_CODE":0,"TOWNNAME":"下營區","LI":"仁里里","LIN":"12鄰","STREET":"蚵寮街","SECT":" ","MAREA":" ","LANE":" ","ALLEY":" ","HOUSE_NO":"１２號","E_COORD97":174173.20000000001,"N_COORD97":2570322.98,"ADDRESS":"蚵寮街１２號","OBJECTID":542552},"geometry":{"x":174173.20000000112,"y":2570322.9800000004}},{"attributes":{"ID":542580,"DIS_CODE":0,"TOWNNAME":"下營區","LI":"仁里里","LIN":"12鄰","STREET":"蚵寮街","SECT":" ","MAREA":" ","LANE":" ","ALLEY":" ","HOUSE_NO":"１３０號","E_COORD97":173887.95999999999,"N_COORD97":2570358.8599999999,"ADDRESS":"蚵寮街１３０號","OBJECTID":542553},"geometry":{"x":173887.96000000089,"y":2570358.8600000013}},{"attributes":{"ID":542581,"DIS_CODE":0,"TOWNNAME":"下營區","LI":"仁里里","LIN":"12鄰","STREET":"蚵寮街","SECT":" ","MAREA":" ","LANE":" ","ALLEY":" ","HOUSE_NO":"１３２號","E_COORD97":173881.82999999999,"N_COORD97":2570359.6299999999,"ADDRESS":"蚵寮街１３２號","OBJECTID":542554},"geometry":{"x":173881.83000000101,"y":2570359.6300000008}},{"attributes":{"ID":542582,"DIS_CODE":0,"TOWNNAME":"下營區","LI":"仁里里","LIN":"12鄰","STREET":"蚵寮街","SECT":" ","MAREA":" ","LANE":" ","ALLEY":" ","HOUSE_NO":"１３８號","E_COORD97":173871.39000000001,"N_COORD97":2570360.71,"ADDRESS":"蚵寮街１３８號","OBJECTID":542555},"geometry":{"x":173871.38999999966,"y":2570360.7100000028}},{"attributes":{"ID":542583,"DIS_CODE":0,"TOWNNAME":"下營區","LI":"仁里里","LIN":"12鄰","STREET":"蚵寮街","SECT":" ","MAREA":" ","LANE":" ","ALLEY":" ","HOUSE_NO":"１６號","E_COORD97":174148.16,"N_COORD97":2570352.2200000002,"ADDRESS":"蚵寮街１６號","OBJECTID":542556},"geometry":{"x":174148.16000000015,"y":2570352.2200000007}},{"attributes":{"ID":542584,"DIS_CODE":0,"TOWNNAME":"仁德區","LI":"一甲里","LIN":"20鄰","STREET":"太乙五街","SECT":" ","MAREA":" ","LANE":" ","ALLEY":" ","HOUSE_NO":"３４號","E_COORD97":173218.51999999999,"N_COORD97":2542144.25,"ADDRESS":"太乙五街３４號","OBJECTID":542557},"geometry":{"x":173218.51999999862,"y":2542144.2500000037}},{"attributes":{"ID":542585,"DIS_CODE":0,"TOWNNAME":"仁德區","LI":"二行里","LIN":"15鄰","STREET":"中正西路","SECT":" ","MAREA":" ","LANE":" ","ALLEY":" ","HOUSE_NO":"３５２號","E_COORD97":169747.79999999999,"N_COORD97":2535452.75,"ADDRESS":"中正西路３５２號","OBJECTID":542558},"geometry":{"x":169747.79999999981,"y":2535452.7500000019}},{"attributes":{"ID":542586,"DIS_CODE":0,"TOWNNAME":"安平區","LI":"文平里","LIN":"12鄰","STREET":"永華四街","SECT":" ","MAREA":" ","LANE":" ","ALLEY":" ","HOUSE_NO":"１５號","E_COORD97":165916.48000000001,"N_COORD97":2543174.4100000001,"ADDRESS":"永華四街１５號","OBJECTID":542559},"geometry":{"x":165916.48000000045,"y":2543174.410000002}},{"attributes":{"ID":542587,"DIS_CODE":0,"TOWNNAME":"北區","LI":"振興里","LIN":"12鄰","STREET":"長榮路","SECT":"四段","MAREA":" ","LANE":" ","ALLEY":" ","HOUSE_NO":"８５號","E_COORD97":170291.17999999999,"N_COORD97":2545033.6800000002,"ADDRESS":"長榮路四段８５號","OBJECTID":542560},"geometry":{"x":170291.1799999997,"y":2545033.6800000016}},{"attributes":{"ID":542588,"DIS_CODE":0,"TOWNNAME":"北區","LI":"振興里","LIN":"12鄰","STREET":"長榮路","SECT":"四段","MAREA":" ","LANE":" ","ALLEY":" ","HOUSE_NO":"１１１號","E_COORD97":170262.04999999999,"N_COORD97":2545095.0800000001,"ADDRESS":"長榮路四段１１１號","OBJECTID":542561},"geometry":{"x":170262.04999999981,"y":2545095.0800000038}},{"attributes":{"ID":542589,"DIS_CODE":0,"TOWNNAME":"北區","LI":"振興里","LIN":"12鄰","STREET":"長榮路","SECT":"四段","MAREA":" ","LANE":" ","ALLEY":" ","HOUSE_NO":"１１５號","E_COORD97":170257.25,"N_COORD97":2545102.27,"ADDRESS":"長榮路四段１１５號","OBJECTID":542562},"geometry":{"x":170257.25,"y":2545102.2699999996}},{"attributes":{"ID":542590,"DIS_CODE":0,"TOWNNAME":"北區","LI":"振興里","LIN":"12鄰","STREET":"長榮路","SECT":"四段","MAREA":" ","LANE":" ","ALLEY":" ","HOUSE_NO":"１１７號","E_COORD97":170255.17999999999,"N_COORD97":2545105.54,"ADDRESS":"長榮路四段１１７號","OBJECTID":542563},"geometry":{"x":170255.18000000063,"y":2545105.540000001}},{"attributes":{"ID":542591,"DIS_CODE":0,"TOWNNAME":"北區","LI":"振興里","LIN":"12鄰","STREET":"長榮路","SECT":"四段","MAREA":" ","LANE":" ","ALLEY":" ","HOUSE_NO":"１０１號","E_COORD97":170274.92000000001,"N_COORD97":2545072.52,"ADDRESS":"長榮路四段１０１號","OBJECTID":542564},"geometry":{"x":170274.91999999993,"y":2545072.5200000014}},{"attributes":{"ID":542592,"DIS_CODE":0,"TOWNNAME":"北區","LI":"振興里","LIN":"12鄰","STREET":"長榮路","SECT":"四段","MAREA":" ","LANE":" ","ALLEY":" ","HOUSE_NO":"１０３號","E_COORD97":170273.39000000001,"N_COORD97":2545077.75,"ADDRESS":"長榮路四段１０３號","OBJECTID":542565},"geometry":{"x":170273.39000000153,"y":2545077.7500000019}},{"attributes":{"ID":542593,"DIS_CODE":0,"TOWNNAME":"北區","LI":"振興里","LIN":"12鄰","STREET":"長榮路","SECT":"四段","MAREA":" ","LANE":" ","ALLEY":" ","HOUSE_NO":"９９號","E_COORD97":170277.64999999999,"N_COORD97":2545068.48,"ADDRESS":"長榮路四段９９號","OBJECTID":542566},"geometry":{"x":170277.6500000013,"y":2545068.4800000004}},{"attributes":{"ID":542594,"DIS_CODE":0,"TOWNNAME":"北區","LI":"振興里","LIN":"12鄰","STREET":"長榮路","SECT":"四段","MAREA":" ","LANE":" ","ALLEY":" ","HOUSE_NO":"８１號","E_COORD97":170295.42999999999,"N_COORD97":2545014.8199999998,"ADDRESS":"長榮路四段８１號","OBJECTID":542567},"geometry":{"x":170295.43000000063,"y":2545014.8200000003}},{"attributes":{"ID":542595,"DIS_CODE":0,"TOWNNAME":"北區","LI":"振興里","LIN":"12鄰","STREET":"長榮路","SECT":"四段","MAREA":" ","LANE":" ","ALLEY":" ","HOUSE_NO":"８１號之１","E_COORD97":170291.82999999999,"N_COORD97":2545021.1400000001,"ADDRESS":"長榮路四段８１號之１","OBJECTID":542568},"geometry":{"x":170291.83000000101,"y":2545021.1400000025}},{"attributes":{"ID":542596,"DIS_CODE":0,"TOWNNAME":"北區","LI":"振興里","LIN":"12鄰","STREET":"長榮路","SECT":"四段","MAREA":" ","LANE":" ","ALLEY":" ","HOUSE_NO":"８１號之２","E_COORD97":170291.60999999999,"N_COORD97":2545025.3900000001,"ADDRESS":"長榮路四段８１號之２","OBJECTID":542569},"geometry":{"x":170291.61000000127,"y":2545025.3900000006}},{"attributes":{"ID":542597,"DIS_CODE":0,"TOWNNAME":"北區","LI":"振興里","LIN":"12鄰","STREET":"長榮路","SECT":"四段","MAREA":" ","LANE":" ","ALLEY":" ","HOUSE_NO":"８３號","E_COORD97":170291.60999999999,"N_COORD97":2545028.9900000002,"ADDRESS":"長榮路四段８３號","OBJECTID":542570},"geometry":{"x":170291.61000000127,"y":2545028.9900000021}},{"attributes":{"ID":542598,"DIS_CODE":0,"TOWNNAME":"北區","LI":"振興里","LIN":"12鄰","STREET":"長榮路","SECT":"四段","MAREA":" ","LANE":" ","ALLEY":" ","HOUSE_NO":"８７號","E_COORD97":170290.63,"N_COORD97":2545036.6200000001,"ADDRESS":"長榮路四段８７號","OBJECTID":542571},"geometry":{"x":170290.63000000175,"y":2545036.620000001}},{"attributes":{"ID":542599,"DIS_CODE":0,"TOWNNAME":"北區","LI":"振興里","LIN":"12鄰","STREET":"長榮路","SECT":"四段","MAREA":" ","LANE":" ","ALLEY":" ","HOUSE_NO":"９３號","E_COORD97":170280.81,"N_COORD97":2545054.3199999998,"ADDRESS":"長榮路四段９３號","OBJECTID":542572},"geometry":{"x":170280.81000000052,"y":2545054.3200000022}},{"attributes":{"ID":542600,"DIS_CODE":0,"TOWNNAME":"新營區","LI":"民榮里","LIN":"12鄰","STREET":"裕民路","SECT":" ","MAREA":" ","LANE":" ","ALLEY":" ","HOUSE_NO":"２５號","E_COORD97":179218.91,"N_COORD97":2577812.29,"ADDRESS":"裕民路２５號","OBJECTID":542573},"geometry":{"x":179218.91000000015,"y":2577812.2899999991}},{"attributes":{"ID":542601,"DIS_CODE":0,"TOWNNAME":"新營區","LI":"民榮里","LIN":"12鄰","STREET":"興農街","SECT":" ","MAREA":" ","LANE":" ","ALLEY":" ","HOUSE_NO":"４２之９號","E_COORD97":179213.67999999999,"N_COORD97":2577905.3999999999,"ADDRESS":"興農街４２之９號","OBJECTID":542574},"geometry":{"x":179213.68000000156,"y":2577905.4000000041}},{"attributes":{"ID":542602,"DIS_CODE":0,"TOWNNAME":"新營區","LI":"中營里","LIN":"12鄰","STREET":"工業街","SECT":" ","MAREA":" ","LANE":" ","ALLEY":" ","HOUSE_NO":"５號之１","E_COORD97":181050.48999999999,"N_COORD97":2578635.3999999999,"ADDRESS":"工業街５號之１","OBJECTID":542575},"geometry":{"x":181050.49000000022,"y":2578635.4000000022}},{"attributes":{"ID":542603,"DIS_CODE":0,"TOWNNAME":"新營區","LI":"新南里","LIN":"12鄰","STREET":"新北七街","SECT":" ","MAREA":" ","LANE":" ","ALLEY":" ","HOUSE_NO":"２２號","E_COORD97":178530.01999999999,"N_COORD97":2579201.02,"ADDRESS":"新北七街２２號","OBJECTID":542576},"geometry":{"x":178530.02000000048,"y":2579201.0199999996}},{"attributes":{"ID":542604,"DIS_CODE":0,"TOWNNAME":"新營區","LI":"新北里","LIN":"12鄰","STREET":"南新街","SECT":" ","MAREA":" ","LANE":" ","ALLEY":" ","HOUSE_NO":"１４號","E_COORD97":179361.75,"N_COORD97":2578823.8100000001,"ADDRESS":"南新街１４號","OBJECTID":542577},"geometry":{"x":179361.75,"y":2578823.8100000005}},{"attributes":{"ID":542605,"DIS_CODE":0,"TOWNNAME":"新營區","LI":"民榮里","LIN":"12鄰","STREET":"新進路","SECT":"二段","MAREA":" ","LANE":" ","ALLEY":" ","HOUSE_NO":"１９２號","E_COORD97":179198.29000000001,"N_COORD97":2577745.9399999999,"ADDRESS":"新進路二段１９２號","OBJECTID":542578},"geometry":{"x":179198.29000000097,"y":2577745.9400000013}},{"attributes":{"ID":542606,"DIS_CODE":0,"TOWNNAME":"新營區","LI":"新北里","LIN":"12鄰","STREET":"南新街","SECT":" ","MAREA":" ","LANE":" ","ALLEY":" ","HOUSE_NO":"１６２號","E_COORD97":179310.39999999999,"N_COORD97":2578947,"ADDRESS":"南新街１６２號","OBJECTID":542579},"geometry":{"x":179310.40000000037,"y":2578947}},{"attributes":{"ID":542607,"DIS_CODE":0,"TOWNNAME":"新營區","LI":"延平里","LIN":"12鄰","STREET":"忠義街","SECT":" ","MAREA":" ","LANE":" ","ALLEY":" ","HOUSE_NO":"６號","E_COORD97":179621.219996,"N_COORD97":2577985.9448099998,"ADDRESS":"忠義街６號","OBJECTID":542580},"geometry":{"x":179621.21999600064,"y":2577985.9448109996}},{"attributes":{"ID":542608,"DIS_CODE":0,"TOWNNAME":"仁德區","LI":"上崙里","LIN":"26鄰","STREET":"中正路","SECT":"一段","MAREA":" ","LANE":" ","ALLEY":" ","HOUSE_NO":"７１２號","E_COORD97":172913.17999999999,"N_COORD97":2537695.52,"ADDRESS":"中正路一段７１２號","OBJECTID":542581},"geometry":{"x":172913.18000000063,"y":2537695.5199999996}},{"attributes":{"ID":542609,"DIS_CODE":0,"TOWNNAME":"安平區","LI":"華平里","LIN":"12鄰","STREET":"平通路","SECT":" ","MAREA":" ","LANE":" ","ALLEY":" ","HOUSE_NO":"４１９號","E_COORD97":165414.93857599999,"N_COORD97":2543744.4523200002,"ADDRESS":"平通路４１９號","OBJECTID":542582},"geometry":{"x":165414.93857600074,"y":2543744.4523200002}},{"attributes":{"ID":542610,"DIS_CODE":0,"TOWNNAME":"安平區","LI":"華平里","LIN":"12鄰","STREET":"健康二街","SECT":" ","MAREA":" ","LANE":" ","ALLEY":" ","HOUSE_NO":"４０６號","E_COORD97":165328.23999999999,"N_COORD97":2543668.23,"ADDRESS":"健康二街４０６號","OBJECTID":542583},"geometry":{"x":165328.24000000022,"y":2543668.2300000023}},{"attributes":{"ID":542611,"DIS_CODE":0,"TOWNNAME":"安平區","LI":"華平里","LIN":"12鄰","STREET":"華平路","SECT":" ","MAREA":" ","LANE":" ","ALLEY":" ","HOUSE_NO":"４３１號","E_COORD97":165422.89999999999,"N_COORD97":2543601.98,"ADDRESS":"華平路４３１號","OBJECTID":542584},"geometry":{"x":165422.9000000013,"y":2543601.9800000023}},{"attributes":{"ID":542612,"DIS_CODE":0,"TOWNNAME":"安平區","LI":"華平里","LIN":"12鄰","STREET":"華平路","SECT":" ","MAREA":" ","LANE":" ","ALLEY":" ","HOUSE_NO":"４１５號","E_COORD97":165417.85000000001,"N_COORD97":2543565.2799999998,"ADDRESS":"華平路４１５號","OBJECTID":542585},"geometry":{"x":165417.84999999963,"y":2543565.2800000012}},{"attributes":{"ID":542613,"DIS_CODE":0,"TOWNNAME":"安平區","LI":"華平里","LIN":"12鄰","STREET":"華平路","SECT":" ","MAREA":" ","LANE":" ","ALLEY":" ","HOUSE_NO":"４１７號","E_COORD97":165417.95999999999,"N_COORD97":2543571.0899999999,"ADDRESS":"華平路４１７號","OBJECTID":542586},"geometry":{"x":165417.95999999996,"y":2543571.0899999999}},{"attributes":{"ID":542614,"DIS_CODE":0,"TOWNNAME":"安平區","LI":"華平里","LIN":"12鄰","STREET":"華平路","SECT":" ","MAREA":" ","LANE":" ","ALLEY":" ","HOUSE_NO":"４１９號","E_COORD97":165419.19,"N_COORD97":2543575.3300000001,"ADDRESS":"華平路４１９號","OBJECTID":542587},"geometry":{"x":165419.19000000134,"y":2543575.3300000019}},{"attributes":{"ID":542615,"DIS_CODE":0,"TOWNNAME":"安平區","LI":"華平里","LIN":"12鄰","STREET":"華平路","SECT":" ","MAREA":" ","LANE":" ","ALLEY":" ","HOUSE_NO":"４２１號","E_COORD97":165419.75,"N_COORD97":2543580.02,"ADDRESS":"華平路４２１號","OBJECTID":542588},"geometry":{"x":165419.75000000186,"y":2543580.0200000014}},{"attributes":{"ID":542616,"DIS_CODE":0,"TOWNNAME":"安平區","LI":"華平里","LIN":"12鄰","STREET":"華平路","SECT":" ","MAREA":" ","LANE":" ","ALLEY":" ","HOUSE_NO":"４２３號","E_COORD97":165420.87,"N_COORD97":2543584.3799999999,"ADDRESS":"華平路４２３號","OBJECTID":542589},"geometry":{"x":165420.87000000104,"y":2543584.3800000008}},{"attributes":{"ID":542617,"DIS_CODE":0,"TOWNNAME":"安平區","LI":"華平里","LIN":"12鄰","STREET":"華平路","SECT":" ","MAREA":" ","LANE":" ","ALLEY":" ","HOUSE_NO":"４２５號","E_COORD97":165421.20999999999,"N_COORD97":2543589.52,"ADDRESS":"華平路４２５號","OBJECTID":542590},"geometry":{"x":165421.20999999996,"y":2543589.5199999977}},{"attributes":{"ID":542618,"DIS_CODE":0,"TOWNNAME":"安平區","LI":"華平里","LIN":"12鄰","STREET":"華平路","SECT":" ","MAREA":" ","LANE":" ","ALLEY":" ","HOUSE_NO":"４２７號","E_COORD97":165421.32000000001,"N_COORD97":2543593.6499999999,"ADDRESS":"華平路４２７號","OBJECTID":542591},"geometry":{"x":165421.32000000123,"y":2543593.6500000022}},{"attributes":{"ID":542619,"DIS_CODE":0,"TOWNNAME":"安平區","LI":"華平里","LIN":"12鄰","STREET":"華平路","SECT":" ","MAREA":" ","LANE":" ","ALLEY":" ","HOUSE_NO":"４２９號","E_COORD97":165421.76999999999,"N_COORD97":2543597,"ADDRESS":"華平路４２９號","OBJECTID":542592},"geometry":{"x":165421.76999999955,"y":2543597.0000000037}},{"attributes":{"ID":542620,"DIS_CODE":0,"TOWNNAME":"安平區","LI":"華平里","LIN":"12鄰","STREET":"建平八街","SECT":" ","MAREA":" ","LANE":" ","ALLEY":" ","HOUSE_NO":"３６２號","E_COORD97":165394.10999999999,"N_COORD97":2543569.6200000001,"ADDRESS":"建平八街３６２號","OBJECTID":542593},"geometry":{"x":165394.11000000127,"y":2543569.620000001}},{"attributes":{"ID":542621,"DIS_CODE":0,"TOWNNAME":"安平區","LI":"華平里","LIN":"12鄰","STREET":"建平八街","SECT":" ","MAREA":" ","LANE":" ","ALLEY":" ","HOUSE_NO":"３６８號","E_COORD97":165381.57999999999,"N_COORD97":2543571.52,"ADDRESS":"建平八街３６８號","OBJECTID":542594},"geometry":{"x":165381.58000000007,"y":2543571.5199999996}},{"attributes":{"ID":542622,"DIS_CODE":0,"TOWNNAME":"安平區","LI":"華平里","LIN":"12鄰","STREET":"建平八街","SECT":" ","MAREA":" ","LANE":" ","ALLEY":" ","HOUSE_NO":"３７０號","E_COORD97":165376.54999999999,"N_COORD97":2543572.75,"ADDRESS":"建平八街３７０號","OBJECTID":542595},"geometry":{"x":165376.54999999981,"y":2543572.7500000019}},{"attributes":{"ID":542623,"DIS_CODE":0,"TOWNNAME":"新營區","LI":"新南里","LIN":"12鄰","STREET":"新北七街","SECT":" ","MAREA":" ","LANE":" ","ALLEY":" ","HOUSE_NO":"６６號","E_COORD97":178463.19,"N_COORD97":2579141.54,"ADDRESS":"新北七街６６號","OBJECTID":542596},"geometry":{"x":178463.19000000227,"y":2579141.540000001}},{"attributes":{"ID":542624,"DIS_CODE":0,"TOWNNAME":"新營區","LI":"大宏里","LIN":"12鄰","STREET":"綠川路","SECT":" ","MAREA":" ","LANE":" ","ALLEY":" ","HOUSE_NO":"１５號","E_COORD97":180861.25,"N_COORD97":2578827.8199999998,"ADDRESS":"綠川路１５號","OBJECTID":542597},"geometry":{"x":180861.25000000093,"y":2578827.8199999984}},{"attributes":{"ID":542625,"DIS_CODE":0,"TOWNNAME":"新營區","LI":"新東里","LIN":"12鄰","STREET":"東大街","SECT":" ","MAREA":" ","LANE":" ","ALLEY":" ","HOUSE_NO":"７４號","E_COORD97":181023.67000000001,"N_COORD97":2579216.8799999999,"ADDRESS":"東大街７４號","OBJECTID":542598},"geometry":{"x":181023.66999999993,"y":2579216.8800000008}},{"attributes":{"ID":542626,"DIS_CODE":0,"TOWNNAME":"新營區","LI":"民生里","LIN":"12鄰","STREET":"復興路","SECT":" ","MAREA":" ","LANE":" ","ALLEY":" ","HOUSE_NO":"１８２號","E_COORD97":179087.10999999999,"N_COORD97":2578026.6600000001,"ADDRESS":"復興路１８２號","OBJECTID":542599},"geometry":{"x":179087.11000000034,"y":2578026.660000002}},{"attributes":{"ID":542627,"DIS_CODE":0,"TOWNNAME":"新營區","LI":"新南里","LIN":"12鄰","STREET":"新北七街","SECT":" ","MAREA":" ","LANE":" ","ALLEY":" ","HOUSE_NO":"６４號","E_COORD97":178466.28,"N_COORD97":2579144.8500000001,"ADDRESS":"新北七街６４號","OBJECTID":542600},"geometry":{"x":178466.28000000119,"y":2579144.8499999996}}]}