{"displayFieldName":"TOWNNAME","fieldAliases":{"ID":"ID","DIS_CODE":"DIS_CODE","TOWNNAME":"TOWNNAME","LI":"LI","LIN":"LIN","STREET":"STREET","SECT":"SECT","MAREA":"MAREA","LANE":"LANE","ALLEY":"ALLEY","HOUSE_NO":"HOUSE_NO","E_COORD97":"E_COORD97","N_COORD97":"N_COORD97","ADDRESS":"ADDRESS","OBJECTID":"OBJECTID"},"geometryType":"esriGeometryPoint","spatialReference":{"wkid":102443,"latestWkid":3826},"fields":[{"name":"ID","type":"esriFieldTypeDouble","alias":"ID"},{"name":"DIS_CODE","type":"esriFieldTypeInteger","alias":"DIS_CODE"},{"name":"TOWNNAME","type":"esriFieldTypeString","alias":"TOWNNAME","length":8},{"name":"LI","type":"esriFieldTypeString","alias":"LI","length":8},{"name":"LIN","type":"esriFieldTypeString","alias":"LIN","length":12},{"name":"STREET","type":"esriFieldTypeString","alias":"STREET","length":20},{"name":"SECT","type":"esriFieldTypeString","alias":"SECT","length":8},{"name":"MAREA","type":"esriFieldTypeString","alias":"MAREA","length":12},{"name":"LANE","type":"esriFieldTypeString","alias":"LANE","length":10},{"name":"ALLEY","type":"esriFieldTypeString","alias":"ALLEY","length":10},{"name":"HOUSE_NO","type":"esriFieldTypeString","alias":"HOUSE_NO","length":20},{"name":"E_COORD97","type":"esriFieldTypeDouble","alias":"E_COORD97"},{"name":"N_COORD97","type":"esriFieldTypeDouble","alias":"N_COORD97"},{"name":"ADDRESS","type":"esriFieldTypeString","alias":"ADDRESS","length":50},{"name":"OBJECTID","type":"esriFieldTypeOID","alias":"OBJECTID"}],"features":[{"attributes":{"ID":79401,"DIS_CODE":0,"TOWNNAME":"安平區","LI":"西門里","LIN":"19鄰","STREET":"安平路","SECT":" ","MAREA":" ","LANE":"９９０巷","ALLEY":"２１弄","HOUSE_NO":"１１號","E_COORD97":163211.06,"N_COORD97":2544485.02,"ADDRESS":"安平路９９０巷２１弄１１號","OBJECTID":79401},"geometry":{"x":163211.05999999959,"y":2544485.0200000014}},{"attributes":{"ID":79402,"DIS_CODE":0,"TOWNNAME":"安平區","LI":"西門里","LIN":"19鄰","STREET":"安平路","SECT":" ","MAREA":" ","LANE":"９９０巷","ALLEY":"２１弄","HOUSE_NO":"１２號","E_COORD97":163222.03,"N_COORD97":2544500.1200000001,"ADDRESS":"安平路９９０巷２１弄１２號","OBJECTID":79402},"geometry":{"x":163222.03000000026,"y":2544500.1200000029}},{"attributes":{"ID":79403,"DIS_CODE":0,"TOWNNAME":"安平區","LI":"西門里","LIN":"19鄰","STREET":"安平路","SECT":" ","MAREA":" ","LANE":"９９０巷","ALLEY":"２１弄","HOUSE_NO":"１３號","E_COORD97":163207.13,"N_COORD97":2544484.8100000001,"ADDRESS":"安平路９９０巷２１弄１３號","OBJECTID":79403},"geometry":{"x":163207.13000000082,"y":2544484.8100000024}},{"attributes":{"ID":79404,"DIS_CODE":0,"TOWNNAME":"安平區","LI":"西門里","LIN":"19鄰","STREET":"安平路","SECT":" ","MAREA":" ","LANE":"９９０巷","ALLEY":"２１弄","HOUSE_NO":"１４號","E_COORD97":163217.48000000001,"N_COORD97":2544498.46,"ADDRESS":"安平路９９０巷２１弄１４號","OBJECTID":79404},"geometry":{"x":163217.48000000045,"y":2544498.4600000009}},{"attributes":{"ID":79405,"DIS_CODE":0,"TOWNNAME":"安平區","LI":"西門里","LIN":"19鄰","STREET":"安平路","SECT":" ","MAREA":" ","LANE":"９９０巷","ALLEY":"２１弄","HOUSE_NO":"１５號","E_COORD97":163203.09,"N_COORD97":2544484.2999999998,"ADDRESS":"安平路９９０巷２１弄１５號","OBJECTID":79405},"geometry":{"x":163203.08999999985,"y":2544484.3000000045}},{"attributes":{"ID":79406,"DIS_CODE":0,"TOWNNAME":"安南區","LI":"溪心里","LIN":"7鄰","STREET":"本原街","SECT":"二段","MAREA":" ","LANE":" ","ALLEY":" ","HOUSE_NO":"１１７號","E_COORD97":166767.94,"N_COORD97":2550736.3799999999,"ADDRESS":"本原街二段１１７號","OBJECTID":79406},"geometry":{"x":166767.94000000041,"y":2550736.379999999}},{"attributes":{"ID":79407,"DIS_CODE":0,"TOWNNAME":"安南區","LI":"溪心里","LIN":"7鄰","STREET":"本原街","SECT":"二段","MAREA":" ","LANE":" ","ALLEY":" ","HOUSE_NO":"１８４號","E_COORD97":166583.79000000001,"N_COORD97":2550741.8599999999,"ADDRESS":"本原街二段１８４號","OBJECTID":79407},"geometry":{"x":166583.79000000004,"y":2550741.8600000013}},{"attributes":{"ID":79408,"DIS_CODE":0,"TOWNNAME":"安南區","LI":"溪墘里","LIN":"7鄰","STREET":"安富街","SECT":" ","MAREA":" ","LANE":" ","ALLEY":" ","HOUSE_NO":"３５３號","E_COORD97":167309.20999999999,"N_COORD97":2547385.1000000001,"ADDRESS":"安富街３５３號","OBJECTID":79408},"geometry":{"x":167309.20999999996,"y":2547385.0999999996}},{"attributes":{"ID":79409,"DIS_CODE":0,"TOWNNAME":"安平區","LI":"西門里","LIN":"19鄰","STREET":"安平路","SECT":" ","MAREA":" ","LANE":"９９０巷","ALLEY":"２１弄","HOUSE_NO":"１６號","E_COORD97":163212.20000000001,"N_COORD97":2544497.2200000002,"ADDRESS":"安平路９９０巷２１弄１６號","OBJECTID":79409},"geometry":{"x":163212.20000000019,"y":2544497.2200000007}},{"attributes":{"ID":79410,"DIS_CODE":0,"TOWNNAME":"安平區","LI":"西門里","LIN":"19鄰","STREET":"安平路","SECT":" ","MAREA":" ","LANE":"９９０巷","ALLEY":"２１弄","HOUSE_NO":"１７號","E_COORD97":163198.85000000001,"N_COORD97":2544483.4700000002,"ADDRESS":"安平路９９０巷２１弄１７號","OBJECTID":79410},"geometry":{"x":163198.84999999963,"y":2544483.4700000025}},{"attributes":{"ID":79411,"DIS_CODE":0,"TOWNNAME":"安平區","LI":"西門里","LIN":"19鄰","STREET":"安平路","SECT":" ","MAREA":" ","LANE":"９９０巷","ALLEY":"２１弄","HOUSE_NO":"１８號","E_COORD97":163204.75,"N_COORD97":2544495.46,"ADDRESS":"安平路９９０巷２１弄１８號","OBJECTID":79411},"geometry":{"x":163204.75000000093,"y":2544495.4600000009}},{"attributes":{"ID":79412,"DIS_CODE":0,"TOWNNAME":"學甲區","LI":"秀昌里","LIN":"33鄰","STREET":" ","SECT":" ","MAREA":"煥昌","LANE":" ","ALLEY":" ","HOUSE_NO":"１００號之１４","E_COORD97":166199.57000000001,"N_COORD97":2571049.1099999999,"ADDRESS":"煥昌１００號之１４","OBJECTID":79412},"geometry":{"x":166199.57000000123,"y":2571049.1100000013}},{"attributes":{"ID":79413,"DIS_CODE":0,"TOWNNAME":"學甲區","LI":"秀昌里","LIN":"33鄰","STREET":" ","SECT":" ","MAREA":"煥昌","LANE":" ","ALLEY":" ","HOUSE_NO":"１００號之１５","E_COORD97":166196.29000000001,"N_COORD97":2571050.75,"ADDRESS":"煥昌１００號之１５","OBJECTID":79413},"geometry":{"x":166196.29000000097,"y":2571050.7500000037}},{"attributes":{"ID":79414,"DIS_CODE":0,"TOWNNAME":"學甲區","LI":"秀昌里","LIN":"33鄰","STREET":" ","SECT":" ","MAREA":"煥昌","LANE":" ","ALLEY":" ","HOUSE_NO":"１００號之１６","E_COORD97":166193.23999999999,"N_COORD97":2571053.5699999998,"ADDRESS":"煥昌１００號之１６","OBJECTID":79414},"geometry":{"x":166193.24000000115,"y":2571053.5700000022}},{"attributes":{"ID":79415,"DIS_CODE":0,"TOWNNAME":"安南區","LI":"新順里","LIN":"7鄰","STREET":"北安路","SECT":"三段","MAREA":" ","LANE":" ","ALLEY":" ","HOUSE_NO":"７５５號","E_COORD97":169138.60699599999,"N_COORD97":2549868.7320300001,"ADDRESS":"北安路三段７５５號","OBJECTID":79415},"geometry":{"x":169138.60699600074,"y":2549868.7320330013}},{"attributes":{"ID":79416,"DIS_CODE":0,"TOWNNAME":"學甲區","LI":"秀昌里","LIN":"33鄰","STREET":" ","SECT":" ","MAREA":"煥昌","LANE":" ","ALLEY":" ","HOUSE_NO":"１００號之１７","E_COORD97":166186.98000000001,"N_COORD97":2571061.1600000001,"ADDRESS":"煥昌１００號之１７","OBJECTID":79416},"geometry":{"x":166186.98000000138,"y":2571061.1600000001}},{"attributes":{"ID":79417,"DIS_CODE":0,"TOWNNAME":"學甲區","LI":"秀昌里","LIN":"33鄰","STREET":" ","SECT":" ","MAREA":"煥昌","LANE":" ","ALLEY":" ","HOUSE_NO":"１００號之１８","E_COORD97":166182.82999999999,"N_COORD97":2571058.6400000001,"ADDRESS":"煥昌１００號之１８","OBJECTID":79417},"geometry":{"x":166182.83000000101,"y":2571058.6399999987}},{"attributes":{"ID":79418,"DIS_CODE":0,"TOWNNAME":"學甲區","LI":"秀昌里","LIN":"33鄰","STREET":" ","SECT":" ","MAREA":"煥昌","LANE":" ","ALLEY":" ","HOUSE_NO":"１００號之１９","E_COORD97":166178.64999999999,"N_COORD97":2571056.5600000001,"ADDRESS":"煥昌１００號之１９","OBJECTID":79418},"geometry":{"x":166178.6500000013,"y":2571056.5600000024}},{"attributes":{"ID":79419,"DIS_CODE":0,"TOWNNAME":"學甲區","LI":"秀昌里","LIN":"33鄰","STREET":" ","SECT":" ","MAREA":"煥昌","LANE":" ","ALLEY":" ","HOUSE_NO":"１００號之１","E_COORD97":166066,"N_COORD97":2571103.1899999999,"ADDRESS":"煥昌１００號之１","OBJECTID":79419},"geometry":{"x":166066.00000000093,"y":2571103.1899999995}},{"attributes":{"ID":79420,"DIS_CODE":0,"TOWNNAME":"學甲區","LI":"秀昌里","LIN":"33鄰","STREET":" ","SECT":" ","MAREA":"煥昌","LANE":" ","ALLEY":" ","HOUSE_NO":"１００號之２０","E_COORD97":166175.89000000001,"N_COORD97":2571053.5099999998,"ADDRESS":"煥昌１００號之２０","OBJECTID":79420},"geometry":{"x":166175.88999999966,"y":2571053.5100000016}},{"attributes":{"ID":79421,"DIS_CODE":0,"TOWNNAME":"學甲區","LI":"秀昌里","LIN":"33鄰","STREET":" ","SECT":" ","MAREA":"煥昌","LANE":" ","ALLEY":" ","HOUSE_NO":"１００號之２１","E_COORD97":166172.69,"N_COORD97":2571051.5,"ADDRESS":"煥昌１００號之２１","OBJECTID":79421},"geometry":{"x":166172.69000000041,"y":2571051.5}},{"attributes":{"ID":79422,"DIS_CODE":0,"TOWNNAME":"學甲區","LI":"秀昌里","LIN":"33鄰","STREET":" ","SECT":" ","MAREA":"煥昌","LANE":" ","ALLEY":" ","HOUSE_NO":"１００號之２２","E_COORD97":166169.10000000001,"N_COORD97":2571049.6400000001,"ADDRESS":"煥昌１００號之２２","OBJECTID":79422},"geometry":{"x":166169.09999999963,"y":2571049.6400000025}},{"attributes":{"ID":79423,"DIS_CODE":0,"TOWNNAME":"學甲區","LI":"秀昌里","LIN":"33鄰","STREET":" ","SECT":" ","MAREA":"煥昌","LANE":" ","ALLEY":" ","HOUSE_NO":"１００號之２３","E_COORD97":166165.64999999999,"N_COORD97":2571047.27,"ADDRESS":"煥昌１００號之２３","OBJECTID":79423},"geometry":{"x":166165.6500000013,"y":2571047.2700000014}},{"attributes":{"ID":79424,"DIS_CODE":0,"TOWNNAME":"學甲區","LI":"秀昌里","LIN":"33鄰","STREET":" ","SECT":" ","MAREA":"煥昌","LANE":" ","ALLEY":" ","HOUSE_NO":"１００號之２４","E_COORD97":166161.85000000001,"N_COORD97":2571045.6899999999,"ADDRESS":"煥昌１００號之２４","OBJECTID":79424},"geometry":{"x":166161.85000000056,"y":2571045.6899999995}},{"attributes":{"ID":79425,"DIS_CODE":0,"TOWNNAME":"安平區","LI":"西門里","LIN":"19鄰","STREET":"安平路","SECT":" ","MAREA":" ","LANE":"９９０巷","ALLEY":"２１弄","HOUSE_NO":"１號","E_COORD97":163240.75,"N_COORD97":2544489.27,"ADDRESS":"安平路９９０巷２１弄１號","OBJECTID":79425},"geometry":{"x":163240.75,"y":2544489.2699999996}},{"attributes":{"ID":79426,"DIS_CODE":0,"TOWNNAME":"安平區","LI":"西門里","LIN":"19鄰","STREET":"安平路","SECT":" ","MAREA":" ","LANE":"９９０巷","ALLEY":"２１弄","HOUSE_NO":"２０號","E_COORD97":163197.60999999999,"N_COORD97":2544494.2200000002,"ADDRESS":"安平路９９０巷２１弄２０號","OBJECTID":79426},"geometry":{"x":163197.61000000127,"y":2544494.2200000007}},{"attributes":{"ID":79427,"DIS_CODE":0,"TOWNNAME":"安平區","LI":"西門里","LIN":"19鄰","STREET":"安平路","SECT":" ","MAREA":" ","LANE":"９９０巷","ALLEY":"２１弄","HOUSE_NO":"２號","E_COORD97":163245.28,"N_COORD97":2544504.5899999999,"ADDRESS":"安平路９９０巷２１弄２號","OBJECTID":79427},"geometry":{"x":163245.28000000119,"y":2544504.5899999999}},{"attributes":{"ID":79428,"DIS_CODE":0,"TOWNNAME":"安平區","LI":"西門里","LIN":"19鄰","STREET":"安平路","SECT":" ","MAREA":" ","LANE":"９９０巷","ALLEY":"２１弄","HOUSE_NO":"９號","E_COORD97":163219.64999999999,"N_COORD97":2544483.7799999998,"ADDRESS":"安平路９９０巷２１弄９號","OBJECTID":79428},"geometry":{"x":163219.65000000037,"y":2544483.7800000012}},{"attributes":{"ID":79429,"DIS_CODE":0,"TOWNNAME":"安平區","LI":"怡平里","LIN":"19鄰","STREET":"文平路","SECT":" ","MAREA":" ","LANE":"４６１巷","ALLEY":"２１弄","HOUSE_NO":"２６號","E_COORD97":165722.10999999999,"N_COORD97":2543841.3999999999,"ADDRESS":"文平路４６１巷２１弄２６號","OBJECTID":79429},"geometry":{"x":165722.11000000034,"y":2543841.4000000004}},{"attributes":{"ID":79430,"DIS_CODE":0,"TOWNNAME":"北區","LI":"文元里","LIN":"19鄰","STREET":"文賢路","SECT":" ","MAREA":" ","LANE":"１０３０巷","ALLEY":"６６弄","HOUSE_NO":"５號","E_COORD97":167556.06,"N_COORD97":2546032.8100000001,"ADDRESS":"文賢路１０３０巷６６弄５號","OBJECTID":79430},"geometry":{"x":167556.05999999959,"y":2546032.8100000005}},{"attributes":{"ID":79431,"DIS_CODE":0,"TOWNNAME":"北區","LI":"大港里","LIN":"19鄰","STREET":"中華北路","SECT":"一段","MAREA":" ","LANE":"３６２巷","ALLEY":"３弄","HOUSE_NO":"１７號","E_COORD97":166707.60000000001,"N_COORD97":2546044.1699999999,"ADDRESS":"中華北路一段３６２巷３弄１７號","OBJECTID":79431},"geometry":{"x":166707.60000000056,"y":2546044.1700000018}},{"attributes":{"ID":79432,"DIS_CODE":0,"TOWNNAME":"北區","LI":"大港里","LIN":"19鄰","STREET":"中華北路","SECT":"一段","MAREA":" ","LANE":"３６２巷","ALLEY":"３弄","HOUSE_NO":"１９號","E_COORD97":166711.78,"N_COORD97":2546045.8399999999,"ADDRESS":"中華北路一段３６２巷３弄１９號","OBJECTID":79432},"geometry":{"x":166711.78000000119,"y":2546045.8400000036}},{"attributes":{"ID":79433,"DIS_CODE":0,"TOWNNAME":"北區","LI":"大港里","LIN":"19鄰","STREET":"中華北路","SECT":"一段","MAREA":" ","LANE":"３６２巷","ALLEY":"３弄","HOUSE_NO":"１號","E_COORD97":166675.85999999999,"N_COORD97":2546031.9900000002,"ADDRESS":"中華北路一段３６２巷３弄１號","OBJECTID":79433},"geometry":{"x":166675.86000000127,"y":2546031.9900000021}},{"attributes":{"ID":79434,"DIS_CODE":0,"TOWNNAME":"北區","LI":"大港里","LIN":"19鄰","STREET":"中華北路","SECT":"一段","MAREA":" ","LANE":"３６２巷","ALLEY":"３弄","HOUSE_NO":"２１號","E_COORD97":166715.29000000001,"N_COORD97":2546047.1699999999,"ADDRESS":"中華北路一段３６２巷３弄２１號","OBJECTID":79434},"geometry":{"x":166715.29000000097,"y":2546047.1700000037}},{"attributes":{"ID":79435,"DIS_CODE":0,"TOWNNAME":"北區","LI":"大港里","LIN":"19鄰","STREET":"中華北路","SECT":"一段","MAREA":" ","LANE":"３６２巷","ALLEY":"３弄","HOUSE_NO":"２３號","E_COORD97":166719.29000000001,"N_COORD97":2546048.6800000002,"ADDRESS":"中華北路一段３６２巷３弄２３號","OBJECTID":79435},"geometry":{"x":166719.29000000004,"y":2546048.6799999997}},{"attributes":{"ID":79436,"DIS_CODE":0,"TOWNNAME":"北區","LI":"大港里","LIN":"19鄰","STREET":"中華北路","SECT":"一段","MAREA":" ","LANE":"３６２巷","ALLEY":"３弄","HOUSE_NO":"２５號","E_COORD97":166723.14000000001,"N_COORD97":2546050.0099999998,"ADDRESS":"中華北路一段３６２巷３弄２５號","OBJECTID":79436},"geometry":{"x":166723.13999999966,"y":2546050.0099999998}},{"attributes":{"ID":79437,"DIS_CODE":0,"TOWNNAME":"北區","LI":"大港里","LIN":"19鄰","STREET":"中華北路","SECT":"一段","MAREA":" ","LANE":"３６２巷","ALLEY":"３弄","HOUSE_NO":"２７號","E_COORD97":166728.48000000001,"N_COORD97":2546052.0099999998,"ADDRESS":"中華北路一段３６２巷３弄２７號","OBJECTID":79437},"geometry":{"x":166728.48000000045,"y":2546052.0100000016}},{"attributes":{"ID":79438,"DIS_CODE":0,"TOWNNAME":"北區","LI":"大港里","LIN":"19鄰","STREET":"中華北路","SECT":"一段","MAREA":" ","LANE":"３６２巷","ALLEY":"３弄","HOUSE_NO":"２９號","E_COORD97":166731.98999999999,"N_COORD97":2546054.1800000002,"ADDRESS":"中華北路一段３６２巷３弄２９號","OBJECTID":79438},"geometry":{"x":166731.99000000209,"y":2546054.1800000016}},{"attributes":{"ID":79439,"DIS_CODE":0,"TOWNNAME":"北區","LI":"大港里","LIN":"19鄰","STREET":"中華北路","SECT":"一段","MAREA":" ","LANE":"３６２巷","ALLEY":"３弄","HOUSE_NO":"３１號","E_COORD97":166736.17000000001,"N_COORD97":2546055.3500000001,"ADDRESS":"中華北路一段３６２巷３弄３１號","OBJECTID":79439},"geometry":{"x":166736.17000000086,"y":2546055.3499999996}},{"attributes":{"ID":79440,"DIS_CODE":0,"TOWNNAME":"北區","LI":"大港里","LIN":"19鄰","STREET":"中華北路","SECT":"一段","MAREA":" ","LANE":"３６２巷","ALLEY":"３弄","HOUSE_NO":"３號","E_COORD97":166679.87,"N_COORD97":2546033.1600000001,"ADDRESS":"中華北路一段３６２巷３弄３號","OBJECTID":79440},"geometry":{"x":166679.87000000011,"y":2546033.1600000001}},{"attributes":{"ID":79441,"DIS_CODE":0,"TOWNNAME":"北區","LI":"大港里","LIN":"19鄰","STREET":"中華北路","SECT":"一段","MAREA":" ","LANE":"３６２巷","ALLEY":"３弄","HOUSE_NO":"４１號","E_COORD97":166750.07999999999,"N_COORD97":2546114.0600000001,"ADDRESS":"中華北路一段３６２巷３弄４１號","OBJECTID":79441},"geometry":{"x":166750.08000000101,"y":2546114.0600000024}},{"attributes":{"ID":79442,"DIS_CODE":0,"TOWNNAME":"北區","LI":"大港里","LIN":"19鄰","STREET":"中華北路","SECT":"一段","MAREA":" ","LANE":"３６２巷","ALLEY":"３弄","HOUSE_NO":"４３號","E_COORD97":166752.59,"N_COORD97":2546110.23,"ADDRESS":"中華北路一段３６２巷３弄４３號","OBJECTID":79442},"geometry":{"x":166752.58999999985,"y":2546110.2300000004}},{"attributes":{"ID":79443,"DIS_CODE":0,"TOWNNAME":"北區","LI":"大港里","LIN":"19鄰","STREET":"中華北路","SECT":"一段","MAREA":" ","LANE":"３６２巷","ALLEY":"３弄","HOUSE_NO":"４５號","E_COORD97":166755.09,"N_COORD97":2546106.7200000002,"ADDRESS":"中華北路一段３６２巷３弄４５號","OBJECTID":79443},"geometry":{"x":166755.09000000078,"y":2546106.7200000025}},{"attributes":{"ID":79444,"DIS_CODE":0,"TOWNNAME":"北區","LI":"大港里","LIN":"19鄰","STREET":"中華北路","SECT":"一段","MAREA":" ","LANE":"３６２巷","ALLEY":"３弄","HOUSE_NO":"４７號","E_COORD97":166757.76999999999,"N_COORD97":2546102.8799999999,"ADDRESS":"中華北路一段３６２巷３弄４７號","OBJECTID":79444},"geometry":{"x":166757.76999999955,"y":2546102.8800000008}},{"attributes":{"ID":79445,"DIS_CODE":0,"TOWNNAME":"北區","LI":"大港里","LIN":"19鄰","STREET":"中華北路","SECT":"一段","MAREA":" ","LANE":"３６２巷","ALLEY":"３弄","HOUSE_NO":"４９號","E_COORD97":166762.60999999999,"N_COORD97":2546106.8900000001,"ADDRESS":"中華北路一段３６２巷３弄４９號","OBJECTID":79445},"geometry":{"x":166762.61000000127,"y":2546106.8900000006}},{"attributes":{"ID":79446,"DIS_CODE":0,"TOWNNAME":"北區","LI":"大港里","LIN":"19鄰","STREET":"中華北路","SECT":"一段","MAREA":" ","LANE":"３６２巷","ALLEY":"３弄","HOUSE_NO":"５１號","E_COORD97":166759.10000000001,"N_COORD97":2546112.0600000001,"ADDRESS":"中華北路一段３６２巷３弄５１號","OBJECTID":79446},"geometry":{"x":166759.09999999963,"y":2546112.0600000005}},{"attributes":{"ID":79447,"DIS_CODE":0,"TOWNNAME":"北區","LI":"大港里","LIN":"19鄰","STREET":"中華北路","SECT":"一段","MAREA":" ","LANE":"３６２巷","ALLEY":"３弄","HOUSE_NO":"５３號","E_COORD97":166755.60000000001,"N_COORD97":2546116.3999999999,"ADDRESS":"中華北路一段３６２巷３弄５３號","OBJECTID":79447},"geometry":{"x":166755.59999999963,"y":2546116.4000000004}},{"attributes":{"ID":79448,"DIS_CODE":0,"TOWNNAME":"北區","LI":"大港里","LIN":"19鄰","STREET":"中華北路","SECT":"一段","MAREA":" ","LANE":"３６２巷","ALLEY":"３弄","HOUSE_NO":"５５號","E_COORD97":166752.09,"N_COORD97":2546121.8999999999,"ADDRESS":"中華北路一段３６２巷３弄５５號","OBJECTID":79448},"geometry":{"x":166752.09000000078,"y":2546121.9000000022}},{"attributes":{"ID":79449,"DIS_CODE":0,"TOWNNAME":"北區","LI":"大港里","LIN":"19鄰","STREET":"中華北路","SECT":"一段","MAREA":" ","LANE":"３６２巷","ALLEY":"３弄","HOUSE_NO":"５７號","E_COORD97":166767.29000000001,"N_COORD97":2546134.1400000001,"ADDRESS":"中華北路一段３６２巷３弄５７號","OBJECTID":79449},"geometry":{"x":166767.29000000097,"y":2546134.1400000025}},{"attributes":{"ID":79450,"DIS_CODE":0,"TOWNNAME":"北區","LI":"大港里","LIN":"19鄰","STREET":"中華北路","SECT":"一段","MAREA":" ","LANE":"３６２巷","ALLEY":"３弄","HOUSE_NO":"５９號","E_COORD97":166770.13,"N_COORD97":2546130.9700000002,"ADDRESS":"中華北路一段３６２巷３弄５９號","OBJECTID":79450},"geometry":{"x":166770.13000000082,"y":2546130.9700000025}},{"attributes":{"ID":79451,"DIS_CODE":0,"TOWNNAME":"北區","LI":"大港里","LIN":"19鄰","STREET":"中華北路","SECT":"一段","MAREA":" ","LANE":"３６２巷","ALLEY":"３弄","HOUSE_NO":"５號","E_COORD97":166683.70999999999,"N_COORD97":2546034.8300000001,"ADDRESS":"中華北路一段３６２巷３弄５號","OBJECTID":79451},"geometry":{"x":166683.70999999996,"y":2546034.8300000001}},{"attributes":{"ID":79452,"DIS_CODE":0,"TOWNNAME":"北區","LI":"大港里","LIN":"19鄰","STREET":"中華北路","SECT":"一段","MAREA":" ","LANE":"３６２巷","ALLEY":"３弄","HOUSE_NO":"６１號","E_COORD97":166772.97,"N_COORD97":2546126.7400000002,"ADDRESS":"中華北路一段３６２巷３弄６１號","OBJECTID":79452},"geometry":{"x":166772.97000000067,"y":2546126.7400000002}},{"attributes":{"ID":79453,"DIS_CODE":0,"TOWNNAME":"北區","LI":"大港里","LIN":"19鄰","STREET":"中華北路","SECT":"一段","MAREA":" ","LANE":"３６２巷","ALLEY":"３弄","HOUSE_NO":"６３號","E_COORD97":166774.81,"N_COORD97":2546123.4100000001,"ADDRESS":"中華北路一段３６２巷３弄６３號","OBJECTID":79453},"geometry":{"x":166774.80999999866,"y":2546123.4099999983}},{"attributes":{"ID":79454,"DIS_CODE":0,"TOWNNAME":"北區","LI":"大港里","LIN":"19鄰","STREET":"中華北路","SECT":"一段","MAREA":" ","LANE":"３６２巷","ALLEY":"３弄","HOUSE_NO":"６５號","E_COORD97":166777.32000000001,"N_COORD97":2546119.8999999999,"ADDRESS":"中華北路一段３６２巷３弄６５號","OBJECTID":79454},"geometry":{"x":166777.32000000216,"y":2546119.9000000004}},{"attributes":{"ID":79455,"DIS_CODE":0,"TOWNNAME":"北區","LI":"大港里","LIN":"19鄰","STREET":"中華北路","SECT":"一段","MAREA":" ","LANE":"３６２巷","ALLEY":"３弄","HOUSE_NO":"６７號","E_COORD97":166779.64999999999,"N_COORD97":2546116.23,"ADDRESS":"中華北路一段３６２巷３弄６７號","OBJECTID":79455},"geometry":{"x":166779.65000000037,"y":2546116.2300000023}},{"attributes":{"ID":79456,"DIS_CODE":0,"TOWNNAME":"學甲區","LI":"秀昌里","LIN":"33鄰","STREET":" ","SECT":" ","MAREA":"煥昌","LANE":" ","ALLEY":" ","HOUSE_NO":"１００號之２５","E_COORD97":166158.32000000001,"N_COORD97":2571043.4300000002,"ADDRESS":"煥昌１００號之２５","OBJECTID":79456},"geometry":{"x":166158.3200000003,"y":2571043.4300000016}},{"attributes":{"ID":79457,"DIS_CODE":0,"TOWNNAME":"學甲區","LI":"秀昌里","LIN":"33鄰","STREET":" ","SECT":" ","MAREA":"煥昌","LANE":" ","ALLEY":" ","HOUSE_NO":"１００號之２６","E_COORD97":166154.88,"N_COORD97":2571041.7599999998,"ADDRESS":"煥昌１００號之２６","OBJECTID":79457},"geometry":{"x":166154.88000000082,"y":2571041.7600000016}},{"attributes":{"ID":79458,"DIS_CODE":0,"TOWNNAME":"學甲區","LI":"秀昌里","LIN":"33鄰","STREET":" ","SECT":" ","MAREA":"煥昌","LANE":" ","ALLEY":" ","HOUSE_NO":"１００號之２７","E_COORD97":166151.28,"N_COORD97":2571039.7799999998,"ADDRESS":"煥昌１００號之２７","OBJECTID":79458},"geometry":{"x":166151.28000000026,"y":2571039.7800000031}},{"attributes":{"ID":79459,"DIS_CODE":0,"TOWNNAME":"學甲區","LI":"秀昌里","LIN":"33鄰","STREET":" ","SECT":" ","MAREA":"煥昌","LANE":" ","ALLEY":" ","HOUSE_NO":"１００號之２８","E_COORD97":166147.32999999999,"N_COORD97":2571037.6499999999,"ADDRESS":"煥昌１００號之２８","OBJECTID":79459},"geometry":{"x":166147.33000000007,"y":2571037.6500000004}},{"attributes":{"ID":79460,"DIS_CODE":0,"TOWNNAME":"學甲區","LI":"秀昌里","LIN":"33鄰","STREET":" ","SECT":" ","MAREA":"煥昌","LANE":" ","ALLEY":" ","HOUSE_NO":"１００號之２９","E_COORD97":166144.17000000001,"N_COORD97":2571035.8799999999,"ADDRESS":"煥昌１００號之２９","OBJECTID":79460},"geometry":{"x":166144.17000000086,"y":2571035.8800000008}},{"attributes":{"ID":79461,"DIS_CODE":0,"TOWNNAME":"學甲區","LI":"秀昌里","LIN":"33鄰","STREET":" ","SECT":" ","MAREA":"煥昌","LANE":" ","ALLEY":" ","HOUSE_NO":"１００號之３０","E_COORD97":166168.54000000001,"N_COORD97":2571063.9100000001,"ADDRESS":"煥昌１００號之３０","OBJECTID":79461},"geometry":{"x":166168.53999999911,"y":2571063.910000002}},{"attributes":{"ID":79462,"DIS_CODE":0,"TOWNNAME":"學甲區","LI":"秀昌里","LIN":"33鄰","STREET":" ","SECT":" ","MAREA":"煥昌","LANE":" ","ALLEY":" ","HOUSE_NO":"１００號之３１","E_COORD97":166161.67000000001,"N_COORD97":2571063.5899999999,"ADDRESS":"煥昌１００號之３１","OBJECTID":79462},"geometry":{"x":166161.67000000086,"y":2571063.5899999999}},{"attributes":{"ID":79463,"DIS_CODE":0,"TOWNNAME":"學甲區","LI":"秀昌里","LIN":"33鄰","STREET":" ","SECT":" ","MAREA":"煥昌","LANE":" ","ALLEY":" ","HOUSE_NO":"１００號之３２","E_COORD97":166157.57000000001,"N_COORD97":2571063.5699999998,"ADDRESS":"煥昌１００號之３２","OBJECTID":79463},"geometry":{"x":166157.57000000123,"y":2571063.5700000022}},{"attributes":{"ID":79464,"DIS_CODE":0,"TOWNNAME":"學甲區","LI":"秀昌里","LIN":"33鄰","STREET":" ","SECT":" ","MAREA":"煥昌","LANE":" ","ALLEY":" ","HOUSE_NO":"１００號之３３","E_COORD97":166153.51000000001,"N_COORD97":2571064.7000000002,"ADDRESS":"煥昌１００號之３３","OBJECTID":79464},"geometry":{"x":166153.51000000071,"y":2571064.7000000011}},{"attributes":{"ID":79465,"DIS_CODE":0,"TOWNNAME":"學甲區","LI":"秀昌里","LIN":"33鄰","STREET":" ","SECT":" ","MAREA":"煥昌","LANE":" ","ALLEY":" ","HOUSE_NO":"１００號之３４","E_COORD97":166149.41,"N_COORD97":2571065.9500000002,"ADDRESS":"煥昌１００號之３４","OBJECTID":79465},"geometry":{"x":166149.41000000201,"y":2571065.9500000011}},{"attributes":{"ID":79466,"DIS_CODE":0,"TOWNNAME":"學甲區","LI":"秀昌里","LIN":"33鄰","STREET":" ","SECT":" ","MAREA":"煥昌","LANE":" ","ALLEY":" ","HOUSE_NO":"１００號之３５","E_COORD97":166145.63,"N_COORD97":2571066.6200000001,"ADDRESS":"煥昌１００號之３５","OBJECTID":79466},"geometry":{"x":166145.62999999989,"y":2571066.6200000029}},{"attributes":{"ID":79467,"DIS_CODE":0,"TOWNNAME":"學甲區","LI":"秀昌里","LIN":"33鄰","STREET":" ","SECT":" ","MAREA":"煥昌","LANE":" ","ALLEY":" ","HOUSE_NO":"１００號之３６","E_COORD97":166141.72,"N_COORD97":2571067.3399999999,"ADDRESS":"煥昌１００號之３６","OBJECTID":79467},"geometry":{"x":166141.7200000016,"y":2571067.3400000017}},{"attributes":{"ID":79468,"DIS_CODE":0,"TOWNNAME":"北區","LI":"大港里","LIN":"19鄰","STREET":"中華北路","SECT":"一段","MAREA":" ","LANE":"３６２巷","ALLEY":"３弄","HOUSE_NO":"１０７號","E_COORD97":166779.85999999999,"N_COORD97":2546099.8700000001,"ADDRESS":"中華北路一段３６２巷３弄１０７號","OBJECTID":79468},"geometry":{"x":166779.86000000034,"y":2546099.870000001}},{"attributes":{"ID":79469,"DIS_CODE":0,"TOWNNAME":"南區","LI":"國宅里","LIN":"7鄰","STREET":"金華路","SECT":"二段","MAREA":" ","LANE":" ","ALLEY":" ","HOUSE_NO":"４３號","E_COORD97":167055.82999999999,"N_COORD97":2542027.6400000001,"ADDRESS":"金華路二段４３號","OBJECTID":79469},"geometry":{"x":167055.83000000101,"y":2542027.6400000025}},{"attributes":{"ID":79470,"DIS_CODE":0,"TOWNNAME":"北區","LI":"大港里","LIN":"19鄰","STREET":"中華北路","SECT":"一段","MAREA":" ","LANE":"３６２巷","ALLEY":"３弄","HOUSE_NO":"１０９號","E_COORD97":166776.17999999999,"N_COORD97":2546097.7000000002,"ADDRESS":"中華北路一段３６２巷３弄１０９號","OBJECTID":79470},"geometry":{"x":166776.18000000063,"y":2546097.7000000011}},{"attributes":{"ID":79471,"DIS_CODE":0,"TOWNNAME":"北區","LI":"大港里","LIN":"19鄰","STREET":"中華北路","SECT":"一段","MAREA":" ","LANE":"３６２巷","ALLEY":"３弄","HOUSE_NO":"１１１號","E_COORD97":166772.17000000001,"N_COORD97":2546095.2000000002,"ADDRESS":"中華北路一段３６２巷３弄１１１號","OBJECTID":79471},"geometry":{"x":166772.16999999993,"y":2546095.2000000011}},{"attributes":{"ID":79472,"DIS_CODE":0,"TOWNNAME":"北區","LI":"大港里","LIN":"19鄰","STREET":"中華北路","SECT":"一段","MAREA":" ","LANE":"３６２巷","ALLEY":"３弄","HOUSE_NO":"１１３號","E_COORD97":166767.82999999999,"N_COORD97":2546093.3700000001,"ADDRESS":"中華北路一段３６２巷３弄１１３號","OBJECTID":79472},"geometry":{"x":166767.83000000007,"y":2546093.370000001}},{"attributes":{"ID":79473,"DIS_CODE":0,"TOWNNAME":"北區","LI":"大港里","LIN":"19鄰","STREET":"中華北路","SECT":"一段","MAREA":" ","LANE":"３６２巷","ALLEY":"３弄","HOUSE_NO":"１１５號","E_COORD97":166764.98999999999,"N_COORD97":2546090.8599999999,"ADDRESS":"中華北路一段３６２巷３弄１１５號","OBJECTID":79473},"geometry":{"x":166764.99000000115,"y":2546090.8600000013}},{"attributes":{"ID":79474,"DIS_CODE":0,"TOWNNAME":"北區","LI":"大港里","LIN":"19鄰","STREET":"中華北路","SECT":"一段","MAREA":" ","LANE":"３６２巷","ALLEY":"３弄","HOUSE_NO":"１１７號","E_COORD97":166751.79000000001,"N_COORD97":2546083.8599999999,"ADDRESS":"中華北路一段３６２巷３弄１１７號","OBJECTID":79474},"geometry":{"x":166751.7900000019,"y":2546083.8600000013}},{"attributes":{"ID":79475,"DIS_CODE":0,"TOWNNAME":"學甲區","LI":"秀昌里","LIN":"33鄰","STREET":" ","SECT":" ","MAREA":"煥昌","LANE":" ","ALLEY":" ","HOUSE_NO":"１００號之３７","E_COORD97":166137.73999999999,"N_COORD97":2571068.4100000001,"ADDRESS":"煥昌１００號之３７","OBJECTID":79475},"geometry":{"x":166137.74000000115,"y":2571068.4100000001}},{"attributes":{"ID":79476,"DIS_CODE":0,"TOWNNAME":"北區","LI":"大港里","LIN":"19鄰","STREET":"中華北路","SECT":"一段","MAREA":" ","LANE":"３６２巷","ALLEY":"３弄","HOUSE_NO":"１１９號","E_COORD97":166753.62,"N_COORD97":2546081.1899999999,"ADDRESS":"中華北路一段３６２巷３弄１１９號","OBJECTID":79476},"geometry":{"x":166753.62000000104,"y":2546081.1900000013}},{"attributes":{"ID":79477,"DIS_CODE":0,"TOWNNAME":"北區","LI":"大港里","LIN":"19鄰","STREET":"中華北路","SECT":"一段","MAREA":" ","LANE":"３６２巷","ALLEY":"３弄","HOUSE_NO":"８９號","E_COORD97":166812.76999999999,"N_COORD97":2546120.3999999999,"ADDRESS":"中華北路一段３６２巷３弄８９號","OBJECTID":79477},"geometry":{"x":166812.77000000048,"y":2546120.3999999985}},{"attributes":{"ID":79478,"DIS_CODE":0,"TOWNNAME":"北區","LI":"大港里","LIN":"19鄰","STREET":"中華北路","SECT":"一段","MAREA":" ","LANE":"３６２巷","ALLEY":"３弄","HOUSE_NO":"９１號","E_COORD97":166809.42999999999,"N_COORD97":2546117.8900000001,"ADDRESS":"中華北路一段３６２巷３弄９１號","OBJECTID":79478},"geometry":{"x":166809.4299999997,"y":2546117.8900000025}},{"attributes":{"ID":79479,"DIS_CODE":0,"TOWNNAME":"北區","LI":"大港里","LIN":"19鄰","STREET":"中華北路","SECT":"一段","MAREA":" ","LANE":"３６２巷","ALLEY":"３弄","HOUSE_NO":"９３號","E_COORD97":166804.92000000001,"N_COORD97":2546115.3900000001,"ADDRESS":"中華北路一段３６２巷３弄９３號","OBJECTID":79479},"geometry":{"x":166804.91999999993,"y":2546115.3900000025}},{"attributes":{"ID":79480,"DIS_CODE":0,"TOWNNAME":"北區","LI":"大港里","LIN":"19鄰","STREET":"中華北路","SECT":"一段","MAREA":" ","LANE":"３６２巷","ALLEY":"３弄","HOUSE_NO":"９５號","E_COORD97":166801.23999999999,"N_COORD97":2546112.8900000001,"ADDRESS":"中華北路一段３６２巷３弄９５號","OBJECTID":79480},"geometry":{"x":166801.24000000022,"y":2546112.8900000006}},{"attributes":{"ID":79481,"DIS_CODE":0,"TOWNNAME":"北區","LI":"大港里","LIN":"19鄰","STREET":"中華北路","SECT":"一段","MAREA":" ","LANE":"３６２巷","ALLEY":"３弄","HOUSE_NO":"９７號","E_COORD97":166798.23000000001,"N_COORD97":2546111.0499999998,"ADDRESS":"中華北路一段３６２巷３弄９７號","OBJECTID":79481},"geometry":{"x":166798.23000000045,"y":2546111.0500000026}},{"attributes":{"ID":79482,"DIS_CODE":0,"TOWNNAME":"北區","LI":"大港里","LIN":"19鄰","STREET":"中華北路","SECT":"一段","MAREA":" ","LANE":"３６２巷","ALLEY":"３弄","HOUSE_NO":"９９號","E_COORD97":166794.06,"N_COORD97":2546108.3799999999,"ADDRESS":"中華北路一段３６２巷３弄９９號","OBJECTID":79482},"geometry":{"x":166794.06000000052,"y":2546108.379999999}},{"attributes":{"ID":79483,"DIS_CODE":0,"TOWNNAME":"新營區","LI":"新南里","LIN":"19鄰","STREET":"隋唐街","SECT":" ","MAREA":" ","LANE":"３１巷","ALLEY":"４８弄","HOUSE_NO":"２號","E_COORD97":178648.29999999999,"N_COORD97":2578321.1299999999,"ADDRESS":"隋唐街３１巷４８弄２號","OBJECTID":79483},"geometry":{"x":178648.30000000168,"y":2578321.129999999}},{"attributes":{"ID":79484,"DIS_CODE":0,"TOWNNAME":"新營區","LI":"新南里","LIN":"19鄰","STREET":"隋唐街","SECT":" ","MAREA":" ","LANE":"３１巷","ALLEY":"３８弄","HOUSE_NO":"４號","E_COORD97":178651.54000000001,"N_COORD97":2578355.4399999999,"ADDRESS":"隋唐街３１巷３８弄４號","OBJECTID":79484},"geometry":{"x":178651.54000000004,"y":2578355.4400000013}},{"attributes":{"ID":79485,"DIS_CODE":0,"TOWNNAME":"歸仁區","LI":"大潭里","LIN":"19鄰","STREET":"中正南路","SECT":"三段","MAREA":" ","LANE":"９６巷","ALLEY":"５１弄","HOUSE_NO":"８號","E_COORD97":175148.41,"N_COORD97":2534991.2799999998,"ADDRESS":"中正南路三段９６巷５１弄８號","OBJECTID":79485},"geometry":{"x":175148.41000000015,"y":2534991.2800000012}},{"attributes":{"ID":79486,"DIS_CODE":0,"TOWNNAME":"歸仁區","LI":"大潭里","LIN":"19鄰","STREET":"中正南路","SECT":"三段","MAREA":" ","LANE":"９６巷","ALLEY":"５１弄","HOUSE_NO":"１１號","E_COORD97":175156.76000000001,"N_COORD97":2534970.2799999998,"ADDRESS":"中正南路三段９６巷５１弄１１號","OBJECTID":79486},"geometry":{"x":175156.76000000071,"y":2534970.2800000012}},{"attributes":{"ID":79487,"DIS_CODE":0,"TOWNNAME":"歸仁區","LI":"大潭里","LIN":"19鄰","STREET":"中正南路","SECT":"三段","MAREA":" ","LANE":"９６巷","ALLEY":"５１弄","HOUSE_NO":"２號","E_COORD97":175149.41,"N_COORD97":2534998.2799999998,"ADDRESS":"中正南路三段９６巷５１弄２號","OBJECTID":79487},"geometry":{"x":175149.41000000108,"y":2534998.2799999993}},{"attributes":{"ID":79488,"DIS_CODE":0,"TOWNNAME":"南區","LI":"大忠里","LIN":"19鄰","STREET":"大同路","SECT":"二段","MAREA":" ","LANE":"６４０巷","ALLEY":"１０８弄","HOUSE_NO":"５號","E_COORD97":169176.69,"N_COORD97":2541060.9900000002,"ADDRESS":"大同路二段６４０巷１０８弄５號","OBJECTID":79488},"geometry":{"x":169176.69000000041,"y":2541060.9900000002}},{"attributes":{"ID":79489,"DIS_CODE":0,"TOWNNAME":"南區","LI":"大忠里","LIN":"19鄰","STREET":"大同路","SECT":"二段","MAREA":" ","LANE":"６４０巷","ALLEY":"１０８弄","HOUSE_NO":"７號","E_COORD97":169180.82000000001,"N_COORD97":2541060.21,"ADDRESS":"大同路二段６４０巷１０８弄７號","OBJECTID":79489},"geometry":{"x":169180.8200000003,"y":2541060.2100000009}},{"attributes":{"ID":79490,"DIS_CODE":0,"TOWNNAME":"南區","LI":"大忠里","LIN":"19鄰","STREET":"大同路","SECT":"二段","MAREA":" ","LANE":"６４０巷","ALLEY":"１０８弄","HOUSE_NO":"９號","E_COORD97":169185.14000000001,"N_COORD97":2541058.4500000002,"ADDRESS":"大同路二段６４０巷１０８弄９號","OBJECTID":79490},"geometry":{"x":169185.14000000153,"y":2541058.4500000011}},{"attributes":{"ID":79491,"DIS_CODE":0,"TOWNNAME":"安平區","LI":"怡平里","LIN":"19鄰","STREET":"文平路","SECT":" ","MAREA":" ","LANE":"４６１巷","ALLEY":"２１弄","HOUSE_NO":"１９之１號","E_COORD97":165753.28,"N_COORD97":2543817.9700000002,"ADDRESS":"文平路４６１巷２１弄１９之１號","OBJECTID":79491},"geometry":{"x":165753.28000000026,"y":2543817.9700000007}},{"attributes":{"ID":79492,"DIS_CODE":0,"TOWNNAME":"安平區","LI":"怡平里","LIN":"19鄰","STREET":"文平路","SECT":" ","MAREA":" ","LANE":"４６１巷","ALLEY":"２１弄","HOUSE_NO":"１９之２號","E_COORD97":165759.63,"N_COORD97":2543816.8500000001,"ADDRESS":"文平路４６１巷２１弄１９之２號","OBJECTID":79492},"geometry":{"x":165759.63000000082,"y":2543816.8499999996}},{"attributes":{"ID":79493,"DIS_CODE":0,"TOWNNAME":"安平區","LI":"怡平里","LIN":"19鄰","STREET":"文平路","SECT":" ","MAREA":" ","LANE":"４６１巷","ALLEY":"２１弄","HOUSE_NO":"１９之３號","E_COORD97":165764.70999999999,"N_COORD97":2543816.2200000002,"ADDRESS":"文平路４６１巷２１弄１９之３號","OBJECTID":79493},"geometry":{"x":165764.71000000089,"y":2543816.2200000007}},{"attributes":{"ID":79494,"DIS_CODE":0,"TOWNNAME":"安平區","LI":"怡平里","LIN":"19鄰","STREET":"文平路","SECT":" ","MAREA":" ","LANE":"４６１巷","ALLEY":"２１弄","HOUSE_NO":"１９之５號","E_COORD97":165770.75,"N_COORD97":2543815.8999999999,"ADDRESS":"文平路４６１巷２１弄１９之５號","OBJECTID":79494},"geometry":{"x":165770.75000000093,"y":2543815.9000000022}},{"attributes":{"ID":79495,"DIS_CODE":0,"TOWNNAME":"安平區","LI":"怡平里","LIN":"19鄰","STREET":"文平路","SECT":" ","MAREA":" ","LANE":"４６１巷","ALLEY":"２１弄","HOUSE_NO":"１９之６號","E_COORD97":165776.29999999999,"N_COORD97":2543814.9500000002,"ADDRESS":"文平路４６１巷２１弄１９之６號","OBJECTID":79495},"geometry":{"x":165776.29999999981,"y":2543814.9500000011}},{"attributes":{"ID":79496,"DIS_CODE":0,"TOWNNAME":"安平區","LI":"怡平里","LIN":"19鄰","STREET":"文平路","SECT":" ","MAREA":" ","LANE":"４６１巷","ALLEY":"２１弄","HOUSE_NO":"１９之７號","E_COORD97":165778.67999999999,"N_COORD97":2543827.9700000002,"ADDRESS":"文平路４６１巷２１弄１９之７號","OBJECTID":79496},"geometry":{"x":165778.6799999997,"y":2543827.9700000007}},{"attributes":{"ID":79497,"DIS_CODE":0,"TOWNNAME":"安平區","LI":"怡平里","LIN":"19鄰","STREET":"文平路","SECT":" ","MAREA":" ","LANE":"４６１巷","ALLEY":"２１弄","HOUSE_NO":"１９之８號","E_COORD97":165772.17999999999,"N_COORD97":2543828.1299999999,"ADDRESS":"文平路４６１巷２１弄１９之８號","OBJECTID":79497},"geometry":{"x":165772.1799999997,"y":2543828.129999999}},{"attributes":{"ID":79498,"DIS_CODE":0,"TOWNNAME":"南區","LI":"文華里","LIN":"4鄰","STREET":"金華路","SECT":"二段","MAREA":" ","LANE":" ","ALLEY":" ","HOUSE_NO":"３９５號","E_COORD97":167135.17999999999,"N_COORD97":2543041.3500000001,"ADDRESS":"金華路二段３９５號","OBJECTID":79498},"geometry":{"x":167135.1799999997,"y":2543041.3499999996}},{"attributes":{"ID":79499,"DIS_CODE":0,"TOWNNAME":"南區","LI":"文華里","LIN":"4鄰","STREET":"金華路","SECT":"二段","MAREA":" ","LANE":" ","ALLEY":" ","HOUSE_NO":"３９７號","E_COORD97":167135.81,"N_COORD97":2543046.2799999998,"ADDRESS":"金華路二段３９７號","OBJECTID":79499},"geometry":{"x":167135.80999999959,"y":2543046.2800000012}},{"attributes":{"ID":79500,"DIS_CODE":0,"TOWNNAME":"南區","LI":"文華里","LIN":"13鄰","STREET":"美南街","SECT":" ","MAREA":" ","LANE":" ","ALLEY":" ","HOUSE_NO":"４號","E_COORD97":167096.23000000001,"N_COORD97":2543101.8399999999,"ADDRESS":"美南街４號","OBJECTID":79500},"geometry":{"x":167096.23000000045,"y":2543101.8399999999}},{"attributes":{"ID":79501,"DIS_CODE":0,"TOWNNAME":"南區","LI":"文華里","LIN":"17鄰","STREET":"永華路","SECT":"一段","MAREA":" ","LANE":" ","ALLEY":" ","HOUSE_NO":"２７５號","E_COORD97":166944.14000000001,"N_COORD97":2543234.1600000001,"ADDRESS":"永華路一段２７５號","OBJECTID":79501},"geometry":{"x":166944.1400000006,"y":2543234.160000002}},{"attributes":{"ID":79502,"DIS_CODE":0,"TOWNNAME":"南區","LI":"文華里","LIN":"17鄰","STREET":"南樂街","SECT":" ","MAREA":" ","LANE":" ","ALLEY":" ","HOUSE_NO":"３５號","E_COORD97":166793,"N_COORD97":2543118.6000000001,"ADDRESS":"南樂街３５號","OBJECTID":79502},"geometry":{"x":166793.00000000093,"y":2543118.6000000015}},{"attributes":{"ID":79503,"DIS_CODE":0,"TOWNNAME":"南區","LI":"文華里","LIN":"17鄰","STREET":"南樂街","SECT":" ","MAREA":" ","LANE":" ","ALLEY":" ","HOUSE_NO":"３９號","E_COORD97":166787.01000000001,"N_COORD97":2543112.9300000002,"ADDRESS":"南樂街３９號","OBJECTID":79503},"geometry":{"x":166787.00999999978,"y":2543112.9300000016}},{"attributes":{"ID":79504,"DIS_CODE":0,"TOWNNAME":"南區","LI":"文華里","LIN":"17鄰","STREET":"南樂街","SECT":" ","MAREA":" ","LANE":" ","ALLEY":" ","HOUSE_NO":"４１號","E_COORD97":166784.32999999999,"N_COORD97":2543109.3999999999,"ADDRESS":"南樂街４１號","OBJECTID":79504},"geometry":{"x":166784.33000000101,"y":2543109.4000000004}},{"attributes":{"ID":79505,"DIS_CODE":0,"TOWNNAME":"南區","LI":"文華里","LIN":"17鄰","STREET":"南樂街","SECT":" ","MAREA":" ","LANE":" ","ALLEY":" ","HOUSE_NO":"４５號","E_COORD97":166777.04999999999,"N_COORD97":2543101.1600000001,"ADDRESS":"南樂街４５號","OBJECTID":79505},"geometry":{"x":166777.05000000168,"y":2543101.1600000039}},{"attributes":{"ID":79506,"DIS_CODE":0,"TOWNNAME":"學甲區","LI":"秀昌里","LIN":"33鄰","STREET":" ","SECT":" ","MAREA":"煥昌","LANE":" ","ALLEY":" ","HOUSE_NO":"１００號之３８","E_COORD97":166133.75,"N_COORD97":2571068.5499999998,"ADDRESS":"煥昌１００號之３８","OBJECTID":79506},"geometry":{"x":166133.75000000093,"y":2571068.5500000007}},{"attributes":{"ID":79507,"DIS_CODE":0,"TOWNNAME":"安平區","LI":"怡平里","LIN":"19鄰","STREET":"文平路","SECT":" ","MAREA":" ","LANE":"４６１巷","ALLEY":"２１弄","HOUSE_NO":"５２號","E_COORD97":165653.54999999999,"N_COORD97":2543854.27,"ADDRESS":"文平路４６１巷２１弄５２號","OBJECTID":79507},"geometry":{"x":165653.55000000075,"y":2543854.2699999996}},{"attributes":{"ID":79508,"DIS_CODE":0,"TOWNNAME":"安平區","LI":"怡平里","LIN":"19鄰","STREET":"文平路","SECT":" ","MAREA":" ","LANE":"４６１巷","ALLEY":"２１弄","HOUSE_NO":"４１號","E_COORD97":165688.10999999999,"N_COORD97":2543828.4900000002,"ADDRESS":"文平路４６１巷２１弄４１號","OBJECTID":79508},"geometry":{"x":165688.11000000034,"y":2543828.4900000021}},{"attributes":{"ID":79509,"DIS_CODE":0,"TOWNNAME":"安平區","LI":"怡平里","LIN":"19鄰","STREET":"文平路","SECT":" ","MAREA":" ","LANE":"４６１巷","ALLEY":"２１弄","HOUSE_NO":"２２號","E_COORD97":165732.32999999999,"N_COORD97":2543838.6800000002,"ADDRESS":"文平路４６１巷２１弄２２號","OBJECTID":79509},"geometry":{"x":165732.33000000007,"y":2543838.6799999997}},{"attributes":{"ID":79510,"DIS_CODE":0,"TOWNNAME":"安平區","LI":"怡平里","LIN":"19鄰","STREET":"文平路","SECT":" ","MAREA":" ","LANE":"４６１巷","ALLEY":"２１弄","HOUSE_NO":"３０號","E_COORD97":165712.17000000001,"N_COORD97":2543842.4700000002,"ADDRESS":"文平路４６１巷２１弄３０號","OBJECTID":79510},"geometry":{"x":165712.17000000086,"y":2543842.4700000025}},{"attributes":{"ID":79511,"DIS_CODE":0,"TOWNNAME":"安平區","LI":"怡平里","LIN":"19鄰","STREET":"文平路","SECT":" ","MAREA":" ","LANE":"４６１巷","ALLEY":"２１弄","HOUSE_NO":"３２號","E_COORD97":165707.57999999999,"N_COORD97":2543842.6699999999,"ADDRESS":"文平路４６１巷２１弄３２號","OBJECTID":79511},"geometry":{"x":165707.58000000101,"y":2543842.6699999999}},{"attributes":{"ID":79512,"DIS_CODE":0,"TOWNNAME":"安平區","LI":"怡平里","LIN":"19鄰","STREET":"文平路","SECT":" ","MAREA":" ","LANE":"４６１巷","ALLEY":"２１弄","HOUSE_NO":"３４號","E_COORD97":165703.38,"N_COORD97":2543843.6699999999,"ADDRESS":"文平路４６１巷２１弄３４號","OBJECTID":79512},"geometry":{"x":165703.38000000175,"y":2543843.6700000018}},{"attributes":{"ID":79513,"DIS_CODE":0,"TOWNNAME":"安平區","LI":"怡平里","LIN":"19鄰","STREET":"文平路","SECT":" ","MAREA":" ","LANE":"４６１巷","ALLEY":"２１弄","HOUSE_NO":"３６號","E_COORD97":165699.19,"N_COORD97":2543844.2599999998,"ADDRESS":"文平路４６１巷２１弄３６號","OBJECTID":79513},"geometry":{"x":165699.19000000134,"y":2543844.2599999998}},{"attributes":{"ID":79514,"DIS_CODE":0,"TOWNNAME":"安平區","LI":"怡平里","LIN":"19鄰","STREET":"文平路","SECT":" ","MAREA":" ","LANE":"４６１巷","ALLEY":"２１弄","HOUSE_NO":"３８號","E_COORD97":165694,"N_COORD97":2543844.46,"ADDRESS":"文平路４６１巷２１弄３８號","OBJECTID":79514},"geometry":{"x":165694,"y":2543844.4600000009}},{"attributes":{"ID":79515,"DIS_CODE":0,"TOWNNAME":"安平區","LI":"怡平里","LIN":"19鄰","STREET":"文平路","SECT":" ","MAREA":" ","LANE":"４６１巷","ALLEY":"２１弄","HOUSE_NO":"４０號","E_COORD97":165690.41,"N_COORD97":2543845.0600000001,"ADDRESS":"文平路４６１巷２１弄４０號","OBJECTID":79515},"geometry":{"x":165690.41000000108,"y":2543845.0600000024}},{"attributes":{"ID":79516,"DIS_CODE":0,"TOWNNAME":"安平區","LI":"怡平里","LIN":"19鄰","STREET":"文平路","SECT":" ","MAREA":" ","LANE":"４６１巷","ALLEY":"２１弄","HOUSE_NO":"４２號","E_COORD97":165685.82000000001,"N_COORD97":2543846.0600000001,"ADDRESS":"文平路４６１巷２１弄４２號","OBJECTID":79516},"geometry":{"x":165685.82000000123,"y":2543846.0600000024}},{"attributes":{"ID":79517,"DIS_CODE":0,"TOWNNAME":"安平區","LI":"怡平里","LIN":"19鄰","STREET":"文平路","SECT":" ","MAREA":" ","LANE":"４６１巷","ALLEY":"２１弄","HOUSE_NO":"４４號","E_COORD97":165681.62,"N_COORD97":2543846.8599999999,"ADDRESS":"文平路４６１巷２１弄４４號","OBJECTID":79517},"geometry":{"x":165681.61999999918,"y":2543846.8599999994}},{"attributes":{"ID":79518,"DIS_CODE":0,"TOWNNAME":"安平區","LI":"怡平里","LIN":"19鄰","STREET":"文平路","SECT":" ","MAREA":" ","LANE":"４６１巷","ALLEY":"２１弄","HOUSE_NO":"４６號","E_COORD97":165677.03,"N_COORD97":2543847.4500000002,"ADDRESS":"文平路４６１巷２１弄４６號","OBJECTID":79518},"geometry":{"x":165677.03000000026,"y":2543847.450000003}},{"attributes":{"ID":79519,"DIS_CODE":0,"TOWNNAME":"安平區","LI":"怡平里","LIN":"19鄰","STREET":"文平路","SECT":" ","MAREA":" ","LANE":"４６１巷","ALLEY":"２１弄","HOUSE_NO":"４８號","E_COORD97":165672.84,"N_COORD97":2543847.8500000001,"ADDRESS":"文平路４６１巷２１弄４８號","OBJECTID":79519},"geometry":{"x":165672.83999999985,"y":2543847.8499999996}},{"attributes":{"ID":79520,"DIS_CODE":0,"TOWNNAME":"南區","LI":"大忠里","LIN":"19鄰","STREET":"大同路","SECT":"二段","MAREA":" ","LANE":"６４０巷","ALLEY":"８２弄","HOUSE_NO":"１１號","E_COORD97":169277.53,"N_COORD97":2541069.2599999998,"ADDRESS":"大同路二段６４０巷８２弄１１號","OBJECTID":79520},"geometry":{"x":169277.53000000026,"y":2541069.2600000035}},{"attributes":{"ID":79521,"DIS_CODE":0,"TOWNNAME":"南區","LI":"大忠里","LIN":"19鄰","STREET":"大同路","SECT":"二段","MAREA":" ","LANE":"６４０巷","ALLEY":"８２弄","HOUSE_NO":"１號","E_COORD97":169261.48000000001,"N_COORD97":2541033.73,"ADDRESS":"大同路二段６４０巷８２弄１號","OBJECTID":79521},"geometry":{"x":169261.48000000231,"y":2541033.7300000023}},{"attributes":{"ID":79522,"DIS_CODE":0,"TOWNNAME":"南區","LI":"大忠里","LIN":"19鄰","STREET":"大同路","SECT":"二段","MAREA":" ","LANE":"６４０巷","ALLEY":"８２弄","HOUSE_NO":"２號","E_COORD97":169285.92999999999,"N_COORD97":2541040.23,"ADDRESS":"大同路二段６４０巷８２弄２號","OBJECTID":79522},"geometry":{"x":169285.9299999997,"y":2541040.2300000023}},{"attributes":{"ID":79523,"DIS_CODE":0,"TOWNNAME":"南區","LI":"大忠里","LIN":"19鄰","STREET":"大同路","SECT":"二段","MAREA":" ","LANE":"６４０巷","ALLEY":"８２弄","HOUSE_NO":"３號","E_COORD97":169264.89999999999,"N_COORD97":2541050.8100000001,"ADDRESS":"大同路二段６４０巷８２弄３號","OBJECTID":79523},"geometry":{"x":169264.90000000037,"y":2541050.8100000024}},{"attributes":{"ID":79524,"DIS_CODE":0,"TOWNNAME":"南區","LI":"大忠里","LIN":"19鄰","STREET":"大同路","SECT":"二段","MAREA":" ","LANE":"６４０巷","ALLEY":"８２弄","HOUSE_NO":"４號","E_COORD97":169287.89000000001,"N_COORD97":2541047.4900000002,"ADDRESS":"大同路二段６４０巷８２弄４號","OBJECTID":79524},"geometry":{"x":169287.88999999966,"y":2541047.4900000002}},{"attributes":{"ID":79525,"DIS_CODE":0,"TOWNNAME":"永康區","LI":"烏竹里","LIN":"7鄰","STREET":"龍橋街","SECT":" ","MAREA":" ","LANE":" ","ALLEY":" ","HOUSE_NO":"４６５號","E_COORD97":174389.67000000001,"N_COORD97":2549355.29,"ADDRESS":"龍橋街４６５號","OBJECTID":79525},"geometry":{"x":174389.67000000086,"y":2549355.290000001}},{"attributes":{"ID":79526,"DIS_CODE":0,"TOWNNAME":"永康區","LI":"神洲里","LIN":"7鄰","STREET":"忠孝路","SECT":" ","MAREA":" ","LANE":" ","ALLEY":" ","HOUSE_NO":"６０號","E_COORD97":172095.14000000001,"N_COORD97":2544779.2999999998,"ADDRESS":"忠孝路６０號","OBJECTID":79526},"geometry":{"x":172095.13999999966,"y":2544779.3000000045}},{"attributes":{"ID":79527,"DIS_CODE":0,"TOWNNAME":"永康區","LI":"埔園里","LIN":"7鄰","STREET":"中山路","SECT":" ","MAREA":" ","LANE":" ","ALLEY":" ","HOUSE_NO":"７７號","E_COORD97":173758.13,"N_COORD97":2547763,"ADDRESS":"中山路７７號","OBJECTID":79527},"geometry":{"x":173758.12999999989,"y":2547763}},{"attributes":{"ID":79528,"DIS_CODE":0,"TOWNNAME":"學甲區","LI":"秀昌里","LIN":"33鄰","STREET":" ","SECT":" ","MAREA":"煥昌","LANE":" ","ALLEY":" ","HOUSE_NO":"１００號之３９","E_COORD97":166129.62,"N_COORD97":2571069.2200000002,"ADDRESS":"煥昌１００號之３９","OBJECTID":79528},"geometry":{"x":166129.62000000104,"y":2571069.2200000025}},{"attributes":{"ID":79529,"DIS_CODE":0,"TOWNNAME":"學甲區","LI":"秀昌里","LIN":"33鄰","STREET":" ","SECT":" ","MAREA":"煥昌","LANE":" ","ALLEY":" ","HOUSE_NO":"１００號之４０","E_COORD97":166125.45000000001,"N_COORD97":2571069.9399999999,"ADDRESS":"煥昌１００號之４０","OBJECTID":79529},"geometry":{"x":166125.45000000205,"y":2571069.9400000013}},{"attributes":{"ID":79530,"DIS_CODE":0,"TOWNNAME":"南區","LI":"大忠里","LIN":"19鄰","STREET":"大同路","SECT":"二段","MAREA":" ","LANE":"６４０巷","ALLEY":"８２弄","HOUSE_NO":"５號","E_COORD97":169272.76999999999,"N_COORD97":2541058.3700000001,"ADDRESS":"大同路二段６４０巷８２弄５號","OBJECTID":79530},"geometry":{"x":169272.77000000048,"y":2541058.370000001}},{"attributes":{"ID":79531,"DIS_CODE":0,"TOWNNAME":"學甲區","LI":"秀昌里","LIN":"33鄰","STREET":" ","SECT":" ","MAREA":"煥昌","LANE":" ","ALLEY":" ","HOUSE_NO":"１００號之４１","E_COORD97":166120.85999999999,"N_COORD97":2571069.3799999999,"ADDRESS":"煥昌１００號之４１","OBJECTID":79531},"geometry":{"x":166120.86000000034,"y":2571069.3800000008}},{"attributes":{"ID":79532,"DIS_CODE":0,"TOWNNAME":"南區","LI":"大忠里","LIN":"19鄰","STREET":"大同路","SECT":"二段","MAREA":" ","LANE":"６４０巷","ALLEY":"８２弄","HOUSE_NO":"７號","E_COORD97":169274.73000000001,"N_COORD97":2541061.7200000002,"ADDRESS":"大同路二段６４０巷８２弄７號","OBJECTID":79532},"geometry":{"x":169274.73000000045,"y":2541061.7200000025}},{"attributes":{"ID":79533,"DIS_CODE":0,"TOWNNAME":"南區","LI":"大忠里","LIN":"19鄰","STREET":"大同路","SECT":"二段","MAREA":" ","LANE":"６４０巷","ALLEY":"８２弄","HOUSE_NO":"８號","E_COORD97":169293.48999999999,"N_COORD97":2541063.9500000002,"ADDRESS":"大同路二段６４０巷８２弄８號","OBJECTID":79533},"geometry":{"x":169293.49000000209,"y":2541063.950000003}},{"attributes":{"ID":79534,"DIS_CODE":0,"TOWNNAME":"學甲區","LI":"秀昌里","LIN":"33鄰","STREET":" ","SECT":" ","MAREA":"煥昌","LANE":" ","ALLEY":" ","HOUSE_NO":"１００號之４３","E_COORD97":166112.57999999999,"N_COORD97":2571070.3799999999,"ADDRESS":"煥昌１００號之４３","OBJECTID":79534},"geometry":{"x":166112.58000000194,"y":2571070.3800000008}},{"attributes":{"ID":79535,"DIS_CODE":0,"TOWNNAME":"南區","LI":"大忠里","LIN":"19鄰","STREET":"大同路","SECT":"二段","MAREA":" ","LANE":"６４０巷","ALLEY":"８２弄","HOUSE_NO":"９號","E_COORD97":169276.13,"N_COORD97":2541065.9100000001,"ADDRESS":"大同路二段６４０巷８２弄９號","OBJECTID":79535},"geometry":{"x":169276.12999999989,"y":2541065.910000002}},{"attributes":{"ID":79536,"DIS_CODE":0,"TOWNNAME":"學甲區","LI":"秀昌里","LIN":"33鄰","STREET":" ","SECT":" ","MAREA":"煥昌","LANE":" ","ALLEY":" ","HOUSE_NO":"１００號之４４","E_COORD97":166108.51000000001,"N_COORD97":2571070.5,"ADDRESS":"煥昌１００號之４４","OBJECTID":79536},"geometry":{"x":166108.50999999978,"y":2571070.5000000019}},{"attributes":{"ID":79537,"DIS_CODE":0,"TOWNNAME":"南區","LI":"大忠里","LIN":"19鄰","STREET":"大同路","SECT":"二段","MAREA":" ","LANE":"６４０巷","ALLEY":"９４弄","HOUSE_NO":"１０號","E_COORD97":169249.14000000001,"N_COORD97":2541053.23,"ADDRESS":"大同路二段６４０巷９４弄１０號","OBJECTID":79537},"geometry":{"x":169249.13999999966,"y":2541053.2300000042}},{"attributes":{"ID":79538,"DIS_CODE":0,"TOWNNAME":"南區","LI":"大忠里","LIN":"19鄰","STREET":"大同路","SECT":"二段","MAREA":" ","LANE":"６４０巷","ALLEY":"９４弄","HOUSE_NO":"１１號","E_COORD97":169199.48999999999,"N_COORD97":2541054.5299999998,"ADDRESS":"大同路二段６４０巷９４弄１１號","OBJECTID":79538},"geometry":{"x":169199.49000000022,"y":2541054.5300000012}},{"attributes":{"ID":79539,"DIS_CODE":0,"TOWNNAME":"學甲區","LI":"秀昌里","LIN":"33鄰","STREET":" ","SECT":" ","MAREA":"煥昌","LANE":" ","ALLEY":" ","HOUSE_NO":"１００號之４５","E_COORD97":166104.45000000001,"N_COORD97":2571070.6699999999,"ADDRESS":"煥昌１００號之４５","OBJECTID":79539},"geometry":{"x":166104.45000000019,"y":2571070.6699999999}},{"attributes":{"ID":79540,"DIS_CODE":0,"TOWNNAME":"學甲區","LI":"秀昌里","LIN":"33鄰","STREET":" ","SECT":" ","MAREA":"煥昌","LANE":" ","ALLEY":" ","HOUSE_NO":"１００號之４７","E_COORD97":166095.92999999999,"N_COORD97":2571071.6400000001,"ADDRESS":"煥昌１００號之４７","OBJECTID":79540},"geometry":{"x":166095.9299999997,"y":2571071.6400000006}},{"attributes":{"ID":79541,"DIS_CODE":0,"TOWNNAME":"學甲區","LI":"秀昌里","LIN":"33鄰","STREET":" ","SECT":" ","MAREA":"煥昌","LANE":" ","ALLEY":" ","HOUSE_NO":"１００號之４９","E_COORD97":166091.76999999999,"N_COORD97":2571071.6400000001,"ADDRESS":"煥昌１００號之４９","OBJECTID":79541},"geometry":{"x":166091.76999999955,"y":2571071.6400000006}},{"attributes":{"ID":79542,"DIS_CODE":0,"TOWNNAME":"學甲區","LI":"秀昌里","LIN":"33鄰","STREET":" ","SECT":" ","MAREA":"煥昌","LANE":" ","ALLEY":" ","HOUSE_NO":"１００號之５１","E_COORD97":166087.70000000001,"N_COORD97":2571072.0800000001,"ADDRESS":"煥昌１００號之５１","OBJECTID":79542},"geometry":{"x":166087.70000000019,"y":2571072.0799999982}},{"attributes":{"ID":79543,"DIS_CODE":0,"TOWNNAME":"學甲區","LI":"秀昌里","LIN":"33鄰","STREET":" ","SECT":" ","MAREA":"煥昌","LANE":" ","ALLEY":" ","HOUSE_NO":"１００號之５３","E_COORD97":166084.07000000001,"N_COORD97":2571071.52,"ADDRESS":"煥昌１００號之５３","OBJECTID":79543},"geometry":{"x":166084.07000000216,"y":2571071.5199999996}},{"attributes":{"ID":79544,"DIS_CODE":0,"TOWNNAME":"學甲區","LI":"秀昌里","LIN":"33鄰","STREET":" ","SECT":" ","MAREA":"煥昌","LANE":" ","ALLEY":" ","HOUSE_NO":"１００號之５５","E_COORD97":166079.70999999999,"N_COORD97":2571071.6899999999,"ADDRESS":"煥昌１００號之５５","OBJECTID":79544},"geometry":{"x":166079.71000000089,"y":2571071.6900000013}},{"attributes":{"ID":79545,"DIS_CODE":0,"TOWNNAME":"南區","LI":"大忠里","LIN":"19鄰","STREET":"大同路","SECT":"二段","MAREA":" ","LANE":"６４０巷","ALLEY":"９４弄","HOUSE_NO":"１２號","E_COORD97":169250,"N_COORD97":2541057.0299999998,"ADDRESS":"大同路二段６４０巷９４弄１２號","OBJECTID":79545},"geometry":{"x":169250,"y":2541057.0300000012}},{"attributes":{"ID":79546,"DIS_CODE":0,"TOWNNAME":"學甲區","LI":"秀昌里","LIN":"33鄰","STREET":" ","SECT":" ","MAREA":"煥昌","LANE":" ","ALLEY":" ","HOUSE_NO":"１００號之５７","E_COORD97":166075.20000000001,"N_COORD97":2571071.3399999999,"ADDRESS":"煥昌１００號之５７","OBJECTID":79546},"geometry":{"x":166075.20000000112,"y":2571071.3400000017}},{"attributes":{"ID":79547,"DIS_CODE":0,"TOWNNAME":"學甲區","LI":"秀昌里","LIN":"33鄰","STREET":" ","SECT":" ","MAREA":"煥昌","LANE":" ","ALLEY":" ","HOUSE_NO":"１００號之５９","E_COORD97":166071.14999999999,"N_COORD97":2571070.9100000001,"ADDRESS":"煥昌１００號之５９","OBJECTID":79547},"geometry":{"x":166071.15000000037,"y":2571070.910000002}},{"attributes":{"ID":79548,"DIS_CODE":0,"TOWNNAME":"永康區","LI":"烏竹里","LIN":"7鄰","STREET":"龍橋街","SECT":" ","MAREA":" ","LANE":"４５９巷","ALLEY":" ","HOUSE_NO":"２１號","E_COORD97":174308.89999999999,"N_COORD97":2549298.6499999999,"ADDRESS":"龍橋街４５９巷２１號","OBJECTID":79548},"geometry":{"x":174308.9000000013,"y":2549298.6500000004}},{"attributes":{"ID":79549,"DIS_CODE":0,"TOWNNAME":"北區","LI":"興南里","LIN":"8鄰","STREET":"公園北路","SECT":" ","MAREA":" ","LANE":" ","ALLEY":" ","HOUSE_NO":"１４０號之２","E_COORD97":168890.10000000001,"N_COORD97":2545065.1800000002,"ADDRESS":"公園北路１４０號之２","OBJECTID":79549},"geometry":{"x":168890.09999999963,"y":2545065.1800000016}},{"attributes":{"ID":79550,"DIS_CODE":0,"TOWNNAME":"北區","LI":"興南里","LIN":"8鄰","STREET":"公園北路","SECT":" ","MAREA":" ","LANE":" ","ALLEY":" ","HOUSE_NO":"１４０號之３","E_COORD97":168885.89999999999,"N_COORD97":2545065.6899999999,"ADDRESS":"公園北路１４０號之３","OBJECTID":79550},"geometry":{"x":168885.9000000013,"y":2545065.6899999995}},{"attributes":{"ID":79551,"DIS_CODE":0,"TOWNNAME":"學甲區","LI":"秀昌里","LIN":"33鄰","STREET":" ","SECT":" ","MAREA":"煥昌","LANE":" ","ALLEY":" ","HOUSE_NO":"１００號之６３","E_COORD97":166006.10999999999,"N_COORD97":2571062.3900000001,"ADDRESS":"煥昌１００號之６３","OBJECTID":79551},"geometry":{"x":166006.11000000127,"y":2571062.3900000006}},{"attributes":{"ID":79552,"DIS_CODE":0,"TOWNNAME":"學甲區","LI":"秀昌里","LIN":"33鄰","STREET":" ","SECT":" ","MAREA":"煥昌","LANE":" ","ALLEY":" ","HOUSE_NO":"１０１號之１","E_COORD97":166106.92000000001,"N_COORD97":2570973.6099999999,"ADDRESS":"煥昌１０１號之１","OBJECTID":79552},"geometry":{"x":166106.92000000086,"y":2570973.6100000013}},{"attributes":{"ID":79553,"DIS_CODE":0,"TOWNNAME":"學甲區","LI":"秀昌里","LIN":"33鄰","STREET":" ","SECT":" ","MAREA":"煥昌","LANE":" ","ALLEY":" ","HOUSE_NO":"１０１號之２１","E_COORD97":166112.91,"N_COORD97":2571042.7400000002,"ADDRESS":"煥昌１０１號之２１","OBJECTID":79553},"geometry":{"x":166112.91000000015,"y":2571042.7400000002}},{"attributes":{"ID":79554,"DIS_CODE":0,"TOWNNAME":"學甲區","LI":"秀昌里","LIN":"33鄰","STREET":" ","SECT":" ","MAREA":"煥昌","LANE":" ","ALLEY":" ","HOUSE_NO":"１０１號之２２","E_COORD97":166116.26000000001,"N_COORD97":2571044.2999999998,"ADDRESS":"煥昌１０１號之２２","OBJECTID":79554},"geometry":{"x":166116.26000000071,"y":2571044.3000000045}},{"attributes":{"ID":79555,"DIS_CODE":0,"TOWNNAME":"學甲區","LI":"秀昌里","LIN":"33鄰","STREET":" ","SECT":" ","MAREA":"煥昌","LANE":" ","ALLEY":" ","HOUSE_NO":"１０１號之２３","E_COORD97":166122.45999999999,"N_COORD97":2571049,"ADDRESS":"煥昌１０１號之２３","OBJECTID":79555},"geometry":{"x":166122.46000000089,"y":2571049.0000000037}},{"attributes":{"ID":79556,"DIS_CODE":0,"TOWNNAME":"北區","LI":"興南里","LIN":"8鄰","STREET":"公園北路","SECT":" ","MAREA":" ","LANE":" ","ALLEY":" ","HOUSE_NO":"１４２號","E_COORD97":168882.59,"N_COORD97":2545068.3799999999,"ADDRESS":"公園北路１４２號","OBJECTID":79556},"geometry":{"x":168882.59000000078,"y":2545068.3800000027}},{"attributes":{"ID":79557,"DIS_CODE":0,"TOWNNAME":"北區","LI":"興南里","LIN":"8鄰","STREET":"公園北路","SECT":" ","MAREA":" ","LANE":" ","ALLEY":" ","HOUSE_NO":"１４２號之１","E_COORD97":168887,"N_COORD97":2545083.7200000002,"ADDRESS":"公園北路１４２號之１","OBJECTID":79557},"geometry":{"x":168887.00000000093,"y":2545083.7200000007}},{"attributes":{"ID":79558,"DIS_CODE":0,"TOWNNAME":"新營區","LI":"南紙里","LIN":"10鄰","STREET":"南紙街","SECT":" ","MAREA":" ","LANE":" ","ALLEY":" ","HOUSE_NO":"５６號","E_COORD97":177808.63,"N_COORD97":2577677.3300000001,"ADDRESS":"南紙街５６號","OBJECTID":79558},"geometry":{"x":177808.62999999989,"y":2577677.3300000001}},{"attributes":{"ID":79559,"DIS_CODE":0,"TOWNNAME":"新營區","LI":"民榮里","LIN":" ","STREET":"裕民路","SECT":" ","MAREA":" ","LANE":" ","ALLEY":" ","HOUSE_NO":"７４號","E_COORD97":179133.76000000001,"N_COORD97":2577770.6099999999,"ADDRESS":"裕民路７４號","OBJECTID":79559},"geometry":{"x":179133.76000000071,"y":2577770.6100000031}},{"attributes":{"ID":79560,"DIS_CODE":0,"TOWNNAME":"新營區","LI":"忠政里","LIN":"25鄰","STREET":"府西路","SECT":" ","MAREA":" ","LANE":" ","ALLEY":" ","HOUSE_NO":"９８號","E_COORD97":179812.07999999999,"N_COORD97":2579322.2400000002,"ADDRESS":"府西路９８號","OBJECTID":79560},"geometry":{"x":179812.08000000101,"y":2579322.2400000002}},{"attributes":{"ID":79561,"DIS_CODE":0,"TOWNNAME":"南區","LI":"大忠里","LIN":"19鄰","STREET":"大同路","SECT":"二段","MAREA":" ","LANE":"６４０巷","ALLEY":"９４弄","HOUSE_NO":"１３號","E_COORD97":169203.62,"N_COORD97":2541053.3599999999,"ADDRESS":"大同路二段６４０巷９４弄１３號","OBJECTID":79561},"geometry":{"x":169203.62000000011,"y":2541053.3599999994}},{"attributes":{"ID":79562,"DIS_CODE":0,"TOWNNAME":"學甲區","LI":"秀昌里","LIN":"33鄰","STREET":" ","SECT":" ","MAREA":"煥昌","LANE":" ","ALLEY":" ","HOUSE_NO":"１０１號之２４","E_COORD97":166125.79999999999,"N_COORD97":2571050.6699999999,"ADDRESS":"煥昌１０１號之２４","OBJECTID":79562},"geometry":{"x":166125.79999999981,"y":2571050.6699999999}},{"attributes":{"ID":79563,"DIS_CODE":0,"TOWNNAME":"學甲區","LI":"秀昌里","LIN":"33鄰","STREET":" ","SECT":" ","MAREA":"煥昌","LANE":" ","ALLEY":" ","HOUSE_NO":"１０１號之２５","E_COORD97":166129.32999999999,"N_COORD97":2571052.0099999998,"ADDRESS":"煥昌１０１號之２５","OBJECTID":79563},"geometry":{"x":166129.32999999914,"y":2571052.0100000035}},{"attributes":{"ID":79564,"DIS_CODE":0,"TOWNNAME":"學甲區","LI":"秀昌里","LIN":"33鄰","STREET":" ","SECT":" ","MAREA":"煥昌","LANE":" ","ALLEY":" ","HOUSE_NO":"１０１號之２６","E_COORD97":166132.84,"N_COORD97":2571053.8900000001,"ADDRESS":"煥昌１０１號之２６","OBJECTID":79564},"geometry":{"x":166132.84000000078,"y":2571053.8900000043}},{"attributes":{"ID":79565,"DIS_CODE":0,"TOWNNAME":"學甲區","LI":"秀昌里","LIN":"33鄰","STREET":" ","SECT":" ","MAREA":"煥昌","LANE":" ","ALLEY":" ","HOUSE_NO":"１０１號之２７","E_COORD97":166136.22,"N_COORD97":2571055.8199999998,"ADDRESS":"煥昌１０１號之２７","OBJECTID":79565},"geometry":{"x":166136.21999999974,"y":2571055.8200000003}},{"attributes":{"ID":79566,"DIS_CODE":0,"TOWNNAME":"學甲區","LI":"秀昌里","LIN":"33鄰","STREET":" ","SECT":" ","MAREA":"煥昌","LANE":" ","ALLEY":" ","HOUSE_NO":"１０１號之２８","E_COORD97":166120.76999999999,"N_COORD97":2571056.8799999999,"ADDRESS":"煥昌１０１號之２８","OBJECTID":79566},"geometry":{"x":166120.77000000142,"y":2571056.8800000008}},{"attributes":{"ID":79567,"DIS_CODE":0,"TOWNNAME":"學甲區","LI":"秀昌里","LIN":"33鄰","STREET":" ","SECT":" ","MAREA":"煥昌","LANE":" ","ALLEY":" ","HOUSE_NO":"１０１號之２９","E_COORD97":166103.54999999999,"N_COORD97":2571046.77,"ADDRESS":"煥昌１０１號之２９","OBJECTID":79567},"geometry":{"x":166103.54999999981,"y":2571046.7700000033}},{"attributes":{"ID":79568,"DIS_CODE":0,"TOWNNAME":"學甲區","LI":"秀昌里","LIN":"33鄰","STREET":" ","SECT":" ","MAREA":"煥昌","LANE":" ","ALLEY":" ","HOUSE_NO":"１０１號之２","E_COORD97":166117.82000000001,"N_COORD97":2570965.2599999998,"ADDRESS":"煥昌１０１號之２","OBJECTID":79568},"geometry":{"x":166117.81999999937,"y":2570965.2599999998}},{"attributes":{"ID":79569,"DIS_CODE":0,"TOWNNAME":"學甲區","LI":"秀昌里","LIN":"33鄰","STREET":" ","SECT":" ","MAREA":"煥昌","LANE":" ","ALLEY":" ","HOUSE_NO":"１０１號之３","E_COORD97":166088.85999999999,"N_COORD97":2570986.8799999999,"ADDRESS":"煥昌１０１號之３","OBJECTID":79569},"geometry":{"x":166088.8600000022,"y":2570986.879999999}},{"attributes":{"ID":79570,"DIS_CODE":0,"TOWNNAME":"學甲區","LI":"秀昌里","LIN":"33鄰","STREET":" ","SECT":" ","MAREA":"煥昌","LANE":" ","ALLEY":" ","HOUSE_NO":"１０３號","E_COORD97":166100.54999999999,"N_COORD97":2570937.8199999998,"ADDRESS":"煥昌１０３號","OBJECTID":79570},"geometry":{"x":166100.55000000168,"y":2570937.8200000003}},{"attributes":{"ID":79571,"DIS_CODE":0,"TOWNNAME":"學甲區","LI":"秀昌里","LIN":"33鄰","STREET":" ","SECT":" ","MAREA":"煥昌","LANE":" ","ALLEY":" ","HOUSE_NO":"１０４號","E_COORD97":166089.48999999999,"N_COORD97":2570919.4900000002,"ADDRESS":"煥昌１０４號","OBJECTID":79571},"geometry":{"x":166089.49000000209,"y":2570919.4900000002}},{"attributes":{"ID":79572,"DIS_CODE":0,"TOWNNAME":"學甲區","LI":"秀昌里","LIN":"33鄰","STREET":" ","SECT":" ","MAREA":"煥昌","LANE":" ","ALLEY":" ","HOUSE_NO":"１０５號","E_COORD97":166113.64999999999,"N_COORD97":2570903.0600000001,"ADDRESS":"煥昌１０５號","OBJECTID":79572},"geometry":{"x":166113.65000000037,"y":2570903.0599999987}},{"attributes":{"ID":79573,"DIS_CODE":0,"TOWNNAME":"學甲區","LI":"秀昌里","LIN":"33鄰","STREET":" ","SECT":" ","MAREA":"煥昌","LANE":" ","ALLEY":" ","HOUSE_NO":"１１０號之１０","E_COORD97":166043.16,"N_COORD97":2570950.6600000001,"ADDRESS":"煥昌１１０號之１０","OBJECTID":79573},"geometry":{"x":166043.16000000108,"y":2570950.660000002}},{"attributes":{"ID":79574,"DIS_CODE":0,"TOWNNAME":"學甲區","LI":"秀昌里","LIN":"33鄰","STREET":" ","SECT":" ","MAREA":"煥昌","LANE":" ","ALLEY":" ","HOUSE_NO":"１１０號之１１","E_COORD97":166041.14999999999,"N_COORD97":2570954.4700000002,"ADDRESS":"煥昌１１０號之１１","OBJECTID":79574},"geometry":{"x":166041.15000000224,"y":2570954.4700000007}},{"attributes":{"ID":79575,"DIS_CODE":0,"TOWNNAME":"學甲區","LI":"秀昌里","LIN":"33鄰","STREET":" ","SECT":" ","MAREA":"煥昌","LANE":" ","ALLEY":" ","HOUSE_NO":"１１０號之１２","E_COORD97":166038,"N_COORD97":2570957.3900000001,"ADDRESS":"煥昌１１０號之１２","OBJECTID":79575},"geometry":{"x":166038,"y":2570957.3900000006}},{"attributes":{"ID":79576,"DIS_CODE":0,"TOWNNAME":"南區","LI":"大忠里","LIN":"19鄰","STREET":"大同路","SECT":"二段","MAREA":" ","LANE":"６４０巷","ALLEY":"９４弄","HOUSE_NO":"１４號","E_COORD97":169262.29999999999,"N_COORD97":2541067.7400000002,"ADDRESS":"大同路二段６４０巷９４弄１４號","OBJECTID":79576},"geometry":{"x":169262.30000000075,"y":2541067.7400000021}},{"attributes":{"ID":79577,"DIS_CODE":0,"TOWNNAME":"南區","LI":"大忠里","LIN":"19鄰","STREET":"大同路","SECT":"二段","MAREA":" ","LANE":"６４０巷","ALLEY":"９４弄","HOUSE_NO":"１５號","E_COORD97":169208.14000000001,"N_COORD97":2541052.1800000002,"ADDRESS":"大同路二段６４０巷９４弄１５號","OBJECTID":79577},"geometry":{"x":169208.13999999966,"y":2541052.1799999997}},{"attributes":{"ID":79578,"DIS_CODE":0,"TOWNNAME":"南區","LI":"大忠里","LIN":"19鄰","STREET":"大同路","SECT":"二段","MAREA":" ","LANE":"６４０巷","ALLEY":"９４弄","HOUSE_NO":"１６號","E_COORD97":169258.32000000001,"N_COORD97":2541068.4300000002,"ADDRESS":"大同路二段６４０巷９４弄１６號","OBJECTID":79578},"geometry":{"x":169258.3200000003,"y":2541068.4300000016}},{"attributes":{"ID":79579,"DIS_CODE":0,"TOWNNAME":"南區","LI":"大忠里","LIN":"19鄰","STREET":"大同路","SECT":"二段","MAREA":" ","LANE":"６４０巷","ALLEY":"９４弄","HOUSE_NO":"１７號","E_COORD97":169212.26000000001,"N_COORD97":2541050.8100000001,"ADDRESS":"大同路二段６４０巷９４弄１７號","OBJECTID":79579},"geometry":{"x":169212.26000000071,"y":2541050.8100000024}},{"attributes":{"ID":79580,"DIS_CODE":0,"TOWNNAME":"南區","LI":"大忠里","LIN":"19鄰","STREET":"大同路","SECT":"二段","MAREA":" ","LANE":"６４０巷","ALLEY":"９４弄","HOUSE_NO":"１８號","E_COORD97":169254.85999999999,"N_COORD97":2541069.6299999999,"ADDRESS":"大同路二段６４０巷９４弄１８號","OBJECTID":79580},"geometry":{"x":169254.86000000034,"y":2541069.6300000008}},{"attributes":{"ID":79581,"DIS_CODE":0,"TOWNNAME":"南區","LI":"大忠里","LIN":"19鄰","STREET":"大同路","SECT":"二段","MAREA":" ","LANE":"６４０巷","ALLEY":"９４弄","HOUSE_NO":"１９號","E_COORD97":169216.78,"N_COORD97":2541047.29,"ADDRESS":"大同路二段６４０巷９４弄１９號","OBJECTID":79581},"geometry":{"x":169216.78000000026,"y":2541047.2899999991}},{"attributes":{"ID":79582,"DIS_CODE":0,"TOWNNAME":"南區","LI":"大忠里","LIN":"19鄰","STREET":"大同路","SECT":"二段","MAREA":" ","LANE":"６４０巷","ALLEY":"９４弄","HOUSE_NO":"２０號","E_COORD97":169251.22,"N_COORD97":2541070.6699999999,"ADDRESS":"大同路二段６４０巷９４弄２０號","OBJECTID":79582},"geometry":{"x":169251.22000000067,"y":2541070.6700000018}},{"attributes":{"ID":79583,"DIS_CODE":0,"TOWNNAME":"南區","LI":"大忠里","LIN":"19鄰","STREET":"大同路","SECT":"二段","MAREA":" ","LANE":"６４０巷","ALLEY":"９４弄","HOUSE_NO":"２１號","E_COORD97":169225.42000000001,"N_COORD97":2541045.3300000001,"ADDRESS":"大同路二段６４０巷９４弄２１號","OBJECTID":79583},"geometry":{"x":169225.41999999993,"y":2541045.3300000038}},{"attributes":{"ID":79584,"DIS_CODE":0,"TOWNNAME":"南區","LI":"大忠里","LIN":"19鄰","STREET":"大同路","SECT":"二段","MAREA":" ","LANE":"６４０巷","ALLEY":"９４弄","HOUSE_NO":"２２號","E_COORD97":169247.57999999999,"N_COORD97":2541071.8799999999,"ADDRESS":"大同路二段６４０巷９４弄２２號","OBJECTID":79584},"geometry":{"x":169247.58000000101,"y":2541071.8800000008}},{"attributes":{"ID":79585,"DIS_CODE":0,"TOWNNAME":"南區","LI":"大忠里","LIN":"19鄰","STREET":"大同路","SECT":"二段","MAREA":" ","LANE":"６４０巷","ALLEY":"９４弄","HOUSE_NO":"２４號","E_COORD97":169243.94,"N_COORD97":2541072.75,"ADDRESS":"大同路二段６４０巷９４弄２４號","OBJECTID":79585},"geometry":{"x":169243.94000000134,"y":2541072.7499999981}},{"attributes":{"ID":79586,"DIS_CODE":0,"TOWNNAME":"南區","LI":"大忠里","LIN":"19鄰","STREET":"大同路","SECT":"二段","MAREA":" ","LANE":"６４０巷","ALLEY":"９４弄","HOUSE_NO":"２５號","E_COORD97":169225.01000000001,"N_COORD97":2541063.9300000002,"ADDRESS":"大同路二段６４０巷９４弄２５號","OBJECTID":79586},"geometry":{"x":169225.01000000164,"y":2541063.9299999997}},{"attributes":{"ID":79587,"DIS_CODE":0,"TOWNNAME":"永康區","LI":"南灣里","LIN":"7鄰","STREET":"大灣路","SECT":" ","MAREA":" ","LANE":" ","ALLEY":" ","HOUSE_NO":"５８９號","E_COORD97":174325.41,"N_COORD97":2544538.3300000001,"ADDRESS":"大灣路５８９號","OBJECTID":79587},"geometry":{"x":174325.41000000108,"y":2544538.3300000019}},{"attributes":{"ID":79588,"DIS_CODE":0,"TOWNNAME":"永康區","LI":"烏竹里","LIN":"7鄰","STREET":"龍橋街","SECT":" ","MAREA":" ","LANE":" ","ALLEY":" ","HOUSE_NO":"４６３號","E_COORD97":174390.17000000001,"N_COORD97":2549351.7999999998,"ADDRESS":"龍橋街４６３號","OBJECTID":79588},"geometry":{"x":174390.17000000086,"y":2549351.8000000007}},{"attributes":{"ID":79589,"DIS_CODE":0,"TOWNNAME":"永康區","LI":"烏竹里","LIN":"7鄰","STREET":"龍橋街","SECT":" ","MAREA":" ","LANE":" ","ALLEY":" ","HOUSE_NO":"４７７號","E_COORD97":174386.09,"N_COORD97":2549377.1400000001,"ADDRESS":"龍橋街４７７號","OBJECTID":79589},"geometry":{"x":174386.08999999985,"y":2549377.1399999987}},{"attributes":{"ID":79590,"DIS_CODE":0,"TOWNNAME":"安南區","LI":"淵東里","LIN":"7鄰","STREET":"本原街","SECT":"三段","MAREA":" ","LANE":" ","ALLEY":" ","HOUSE_NO":"１９１號","E_COORD97":165468.94,"N_COORD97":2550324.71,"ADDRESS":"本原街三段１９１號","OBJECTID":79590},"geometry":{"x":165468.94000000041,"y":2550324.7100000028}},{"attributes":{"ID":79591,"DIS_CODE":0,"TOWNNAME":"新市區","LI":"社內里","LIN":"7鄰","STREET":" ","SECT":" ","MAREA":"社內","LANE":" ","ALLEY":" ","HOUSE_NO":"７４之２號","E_COORD97":176639.5,"N_COORD97":2552963.5499999998,"ADDRESS":"社內７４之２號","OBJECTID":79591},"geometry":{"x":176639.5,"y":2552963.5500000007}},{"attributes":{"ID":79592,"DIS_CODE":0,"TOWNNAME":"新市區","LI":"社內里","LIN":"7鄰","STREET":" ","SECT":" ","MAREA":"社內","LANE":" ","ALLEY":" ","HOUSE_NO":"７３號","E_COORD97":176691.67000000001,"N_COORD97":2552831.75,"ADDRESS":"社內７３號","OBJECTID":79592},"geometry":{"x":176691.67000000086,"y":2552831.7500000019}},{"attributes":{"ID":79593,"DIS_CODE":0,"TOWNNAME":"新市區","LI":"社內里","LIN":"7鄰","STREET":" ","SECT":" ","MAREA":"社內","LANE":" ","ALLEY":" ","HOUSE_NO":"７３之９號","E_COORD97":176682.07999999999,"N_COORD97":2552756.2999999998,"ADDRESS":"社內７３之９號","OBJECTID":79593},"geometry":{"x":176682.08000000194,"y":2552756.3000000007}},{"attributes":{"ID":79594,"DIS_CODE":0,"TOWNNAME":"南區","LI":"大忠里","LIN":"19鄰","STREET":"大同路","SECT":"二段","MAREA":" ","LANE":"６４０巷","ALLEY":"９４弄","HOUSE_NO":"２７號","E_COORD97":169228.17999999999,"N_COORD97":2541067.0499999998,"ADDRESS":"大同路二段６４０巷９４弄２７號","OBJECTID":79594},"geometry":{"x":169228.1799999997,"y":2541067.0500000007}},{"attributes":{"ID":79595,"DIS_CODE":0,"TOWNNAME":"南區","LI":"大忠里","LIN":"19鄰","STREET":"大同路","SECT":"二段","MAREA":" ","LANE":"６４０巷","ALLEY":"９４弄","HOUSE_NO":"２９號","E_COORD97":169228.87,"N_COORD97":2541070.6699999999,"ADDRESS":"大同路二段６４０巷９４弄２９號","OBJECTID":79595},"geometry":{"x":169228.87000000104,"y":2541070.6700000018}},{"attributes":{"ID":79596,"DIS_CODE":0,"TOWNNAME":"新市區","LI":"社內里","LIN":"7鄰","STREET":" ","SECT":" ","MAREA":"社內","LANE":" ","ALLEY":" ","HOUSE_NO":"７１之２號","E_COORD97":176568.57999999999,"N_COORD97":2552737.2999999998,"ADDRESS":"社內７１之２號","OBJECTID":79596},"geometry":{"x":176568.58000000101,"y":2552737.3000000026}},{"attributes":{"ID":79597,"DIS_CODE":0,"TOWNNAME":"南區","LI":"大忠里","LIN":"19鄰","STREET":"大同路","SECT":"二段","MAREA":" ","LANE":"６４０巷","ALLEY":"９４弄","HOUSE_NO":"３號","E_COORD97":169206.17000000001,"N_COORD97":2541028.8799999999,"ADDRESS":"大同路二段６４０巷９４弄３號","OBJECTID":79597},"geometry":{"x":169206.17000000086,"y":2541028.879999999}},{"attributes":{"ID":79598,"DIS_CODE":0,"TOWNNAME":"南區","LI":"大忠里","LIN":"19鄰","STREET":"大同路","SECT":"二段","MAREA":" ","LANE":"６４０巷","ALLEY":"９４弄","HOUSE_NO":"５號","E_COORD97":169201.85000000001,"N_COORD97":2541029.8599999999,"ADDRESS":"大同路二段６４０巷９４弄５號","OBJECTID":79598},"geometry":{"x":169201.84999999963,"y":2541029.8599999994}},{"attributes":{"ID":79599,"DIS_CODE":0,"TOWNNAME":"新市區","LI":"社內里","LIN":"7鄰","STREET":" ","SECT":" ","MAREA":"社內","LANE":" ","ALLEY":" ","HOUSE_NO":"７２之５號","E_COORD97":176562.97,"N_COORD97":2552859.0499999998,"ADDRESS":"社內７２之５號","OBJECTID":79599},"geometry":{"x":176562.96999999974,"y":2552859.0500000007}},{"attributes":{"ID":79600,"DIS_CODE":0,"TOWNNAME":"南區","LI":"大忠里","LIN":"19鄰","STREET":"大同路","SECT":"二段","MAREA":" ","LANE":"６４０巷","ALLEY":"９４弄","HOUSE_NO":"７號","E_COORD97":169197.73000000001,"N_COORD97":2541030.8399999999,"ADDRESS":"大同路二段６４０巷９４弄７號","OBJECTID":79600},"geometry":{"x":169197.73000000138,"y":2541030.8399999999}}]}