{"displayFieldName":"TOWNNAME","fieldAliases":{"ID":"ID","DIS_CODE":"DIS_CODE","TOWNNAME":"TOWNNAME","LI":"LI","LIN":"LIN","STREET":"STREET","SECT":"SECT","MAREA":"MAREA","LANE":"LANE","ALLEY":"ALLEY","HOUSE_NO":"HOUSE_NO","E_COORD97":"E_COORD97","N_COORD97":"N_COORD97","ADDRESS":"ADDRESS","OBJECTID":"OBJECTID"},"geometryType":"esriGeometryPoint","spatialReference":{"wkid":102443,"latestWkid":3826},"fields":[{"name":"ID","type":"esriFieldTypeDouble","alias":"ID"},{"name":"DIS_CODE","type":"esriFieldTypeInteger","alias":"DIS_CODE"},{"name":"TOWNNAME","type":"esriFieldTypeString","alias":"TOWNNAME","length":8},{"name":"LI","type":"esriFieldTypeString","alias":"LI","length":8},{"name":"LIN","type":"esriFieldTypeString","alias":"LIN","length":12},{"name":"STREET","type":"esriFieldTypeString","alias":"STREET","length":20},{"name":"SECT","type":"esriFieldTypeString","alias":"SECT","length":8},{"name":"MAREA","type":"esriFieldTypeString","alias":"MAREA","length":12},{"name":"LANE","type":"esriFieldTypeString","alias":"LANE","length":10},{"name":"ALLEY","type":"esriFieldTypeString","alias":"ALLEY","length":10},{"name":"HOUSE_NO","type":"esriFieldTypeString","alias":"HOUSE_NO","length":20},{"name":"E_COORD97","type":"esriFieldTypeDouble","alias":"E_COORD97"},{"name":"N_COORD97","type":"esriFieldTypeDouble","alias":"N_COORD97"},{"name":"ADDRESS","type":"esriFieldTypeString","alias":"ADDRESS","length":50},{"name":"OBJECTID","type":"esriFieldTypeOID","alias":"OBJECTID"}],"features":[{"attributes":{"ID":543228,"DIS_CODE":0,"TOWNNAME":"歸仁區","LI":"南興里","LIN":"12鄰","STREET":"文化十八街","SECT":" ","MAREA":" ","LANE":" ","ALLEY":" ","HOUSE_NO":"６３號","E_COORD97":175903.48999999999,"N_COORD97":2541322.3300000001,"ADDRESS":"文化十八街６３號","OBJECTID":543201},"geometry":{"x":175903.49000000115,"y":2541322.3300000001}},{"attributes":{"ID":543229,"DIS_CODE":0,"TOWNNAME":"歸仁區","LI":"南保里","LIN":"12鄰","STREET":"文化十街","SECT":" ","MAREA":" ","LANE":" ","ALLEY":" ","HOUSE_NO":"１４號","E_COORD97":176559.44,"N_COORD97":2541287.3300000001,"ADDRESS":"文化十街１４號","OBJECTID":543202},"geometry":{"x":176559.43999999948,"y":2541287.3300000019}},{"attributes":{"ID":543230,"DIS_CODE":0,"TOWNNAME":"歸仁區","LI":"南保里","LIN":"12鄰","STREET":"文化十街","SECT":" ","MAREA":" ","LANE":" ","ALLEY":" ","HOUSE_NO":"１２號","E_COORD97":176558.34,"N_COORD97":2541282.3300000001,"ADDRESS":"文化十街１２號","OBJECTID":543203},"geometry":{"x":176558.34000000078,"y":2541282.3300000001}},{"attributes":{"ID":543231,"DIS_CODE":0,"TOWNNAME":"歸仁區","LI":"六甲里","LIN":"12鄰","STREET":"中正南路","SECT":"一段","MAREA":" ","LANE":" ","ALLEY":" ","HOUSE_NO":"２４９４號","E_COORD97":175502.06,"N_COORD97":2537373.2799999998,"ADDRESS":"中正南路一段２４９４號","OBJECTID":543204},"geometry":{"x":175502.06000000052,"y":2537373.2800000031}},{"attributes":{"ID":543232,"DIS_CODE":0,"TOWNNAME":"新化區","LI":"豐榮里","LIN":"8鄰","STREET":"大智路","SECT":" ","MAREA":" ","LANE":" ","ALLEY":" ","HOUSE_NO":"５５號","E_COORD97":178279.88,"N_COORD97":2548320.2400000002,"ADDRESS":"大智路５５號","OBJECTID":543205},"geometry":{"x":178279.87999999989,"y":2548320.2400000002}},{"attributes":{"ID":543233,"DIS_CODE":0,"TOWNNAME":"歸仁區","LI":"南興里","LIN":"12鄰","STREET":"文化十八街","SECT":" ","MAREA":" ","LANE":" ","ALLEY":" ","HOUSE_NO":"５３號","E_COORD97":175869.69,"N_COORD97":2541319.3300000001,"ADDRESS":"文化十八街５３號","OBJECTID":543206},"geometry":{"x":175869.69000000227,"y":2541319.3300000001}},{"attributes":{"ID":543234,"DIS_CODE":0,"TOWNNAME":"歸仁區","LI":"媽廟里","LIN":"12鄰","STREET":"保大路","SECT":"一段","MAREA":" ","LANE":" ","ALLEY":" ","HOUSE_NO":"２０３號","E_COORD97":177518.42999999999,"N_COORD97":2544040.7200000002,"ADDRESS":"保大路一段２０３號","OBJECTID":543207},"geometry":{"x":177518.43000000156,"y":2544040.7200000025}},{"attributes":{"ID":543235,"DIS_CODE":0,"TOWNNAME":"歸仁區","LI":"歸仁里","LIN":"12鄰","STREET":"大通一街","SECT":" ","MAREA":" ","LANE":" ","ALLEY":" ","HOUSE_NO":"５８號","E_COORD97":177929.97,"N_COORD97":2541045.9199999999,"ADDRESS":"大通一街５８號","OBJECTID":543208},"geometry":{"x":177929.96999999881,"y":2541045.9200000018}},{"attributes":{"ID":543236,"DIS_CODE":0,"TOWNNAME":"歸仁區","LI":"媽廟里","LIN":"12鄰","STREET":"保大路","SECT":"一段","MAREA":" ","LANE":" ","ALLEY":" ","HOUSE_NO":"２１１號","E_COORD97":177481.53,"N_COORD97":2544043.7200000002,"ADDRESS":"保大路一段２１１號","OBJECTID":543209},"geometry":{"x":177481.53000000119,"y":2544043.7200000044}},{"attributes":{"ID":543237,"DIS_CODE":0,"TOWNNAME":"歸仁區","LI":"六甲里","LIN":"12鄰","STREET":"凱旋路","SECT":"三段","MAREA":" ","LANE":" ","ALLEY":" ","HOUSE_NO":"３２５號","E_COORD97":175713.848872,"N_COORD97":2538963.7160899998,"ADDRESS":"凱旋路三段３２５號","OBJECTID":543210},"geometry":{"x":175713.84887200128,"y":2538963.7160860039}},{"attributes":{"ID":543238,"DIS_CODE":0,"TOWNNAME":"歸仁區","LI":"歸仁里","LIN":"12鄰","STREET":"信義北路","SECT":" ","MAREA":" ","LANE":" ","ALLEY":" ","HOUSE_NO":"８７號","E_COORD97":177983.07000000001,"N_COORD97":2541011.9100000001,"ADDRESS":"信義北路８７號","OBJECTID":543211},"geometry":{"x":177983.07000000123,"y":2541011.910000002}},{"attributes":{"ID":543239,"DIS_CODE":0,"TOWNNAME":"歸仁區","LI":"媽廟里","LIN":"12鄰","STREET":"保大路","SECT":"一段","MAREA":" ","LANE":" ","ALLEY":" ","HOUSE_NO":"２０５號","E_COORD97":177509.23000000001,"N_COORD97":2544042.7200000002,"ADDRESS":"保大路一段２０５號","OBJECTID":543212},"geometry":{"x":177509.23000000138,"y":2544042.7200000007}},{"attributes":{"ID":543240,"DIS_CODE":0,"TOWNNAME":"歸仁區","LI":"媽廟里","LIN":"12鄰","STREET":"保大路","SECT":"一段","MAREA":" ","LANE":" ","ALLEY":" ","HOUSE_NO":"１９９號","E_COORD97":177525.42999999999,"N_COORD97":2544010.7200000002,"ADDRESS":"保大路一段１９９號","OBJECTID":543213},"geometry":{"x":177525.43000000063,"y":2544010.7200000025}},{"attributes":{"ID":543241,"DIS_CODE":0,"TOWNNAME":"歸仁區","LI":"歸仁里","LIN":"12鄰","STREET":"信義北路","SECT":" ","MAREA":" ","LANE":" ","ALLEY":" ","HOUSE_NO":"１０１號","E_COORD97":177980.42000000001,"N_COORD97":2541042.9100000001,"ADDRESS":"信義北路１０１號","OBJECTID":543214},"geometry":{"x":177980.42000000086,"y":2541042.910000002}},{"attributes":{"ID":543242,"DIS_CODE":0,"TOWNNAME":"歸仁區","LI":"媽廟里","LIN":"12鄰","STREET":"保大路","SECT":"一段","MAREA":" ","LANE":" ","ALLEY":" ","HOUSE_NO":"１９５號","E_COORD97":177548.13,"N_COORD97":2544030.7200000002,"ADDRESS":"保大路一段１９５號","OBJECTID":543215},"geometry":{"x":177548.13000000082,"y":2544030.7200000025}},{"attributes":{"ID":543243,"DIS_CODE":0,"TOWNNAME":"歸仁區","LI":"新厝里","LIN":"12鄰","STREET":"公園十街","SECT":" ","MAREA":" ","LANE":" ","ALLEY":" ","HOUSE_NO":"６７號","E_COORD97":177669.82999999999,"N_COORD97":2540566.25,"ADDRESS":"公園十街６７號","OBJECTID":543216},"geometry":{"x":177669.83000000007,"y":2540566.25}},{"attributes":{"ID":543244,"DIS_CODE":0,"TOWNNAME":"歸仁區","LI":"歸南里","LIN":"12鄰","STREET":"民生南街","SECT":"二段","MAREA":" ","LANE":" ","ALLEY":" ","HOUSE_NO":"２６５號","E_COORD97":176087.56,"N_COORD97":2540001.25,"ADDRESS":"民生南街二段２６５號","OBJECTID":543217},"geometry":{"x":176087.55999999959,"y":2540001.25}},{"attributes":{"ID":543245,"DIS_CODE":0,"TOWNNAME":"歸仁區","LI":"媽廟里","LIN":"12鄰","STREET":"保大路","SECT":"一段","MAREA":" ","LANE":" ","ALLEY":" ","HOUSE_NO":"２６９號","E_COORD97":177323.82999999999,"N_COORD97":2544077.7200000002,"ADDRESS":"保大路一段２６９號","OBJECTID":543218},"geometry":{"x":177323.83000000007,"y":2544077.7200000044}},{"attributes":{"ID":543246,"DIS_CODE":0,"TOWNNAME":"歸仁區","LI":"歸南里","LIN":"12鄰","STREET":"民生南街","SECT":"二段","MAREA":" ","LANE":" ","ALLEY":" ","HOUSE_NO":"２６１號","E_COORD97":176085.45999999999,"N_COORD97":2540009.25,"ADDRESS":"民生南街二段２６１號","OBJECTID":543219},"geometry":{"x":176085.45999999996,"y":2540009.2500000019}},{"attributes":{"ID":543247,"DIS_CODE":0,"TOWNNAME":"歸仁區","LI":"新厝里","LIN":"12鄰","STREET":"公園十街","SECT":" ","MAREA":" ","LANE":" ","ALLEY":" ","HOUSE_NO":"６１號","E_COORD97":177668.73000000001,"N_COORD97":2540554.25,"ADDRESS":"公園十街６１號","OBJECTID":543220},"geometry":{"x":177668.73000000138,"y":2540554.2500000037}},{"attributes":{"ID":543248,"DIS_CODE":0,"TOWNNAME":"歸仁區","LI":"媽廟里","LIN":"12鄰","STREET":"保大路","SECT":"一段","MAREA":" ","LANE":" ","ALLEY":" ","HOUSE_NO":"２０１號","E_COORD97":177521.42999999999,"N_COORD97":2544039.7200000002,"ADDRESS":"保大路一段２０１號","OBJECTID":543221},"geometry":{"x":177521.4299999997,"y":2544039.7200000007}},{"attributes":{"ID":543249,"DIS_CODE":0,"TOWNNAME":"歸仁區","LI":"許厝里","LIN":"12鄰","STREET":"信義南路","SECT":" ","MAREA":" ","LANE":" ","ALLEY":" ","HOUSE_NO":"４７號","E_COORD97":178065.03,"N_COORD97":2540614.96,"ADDRESS":"信義南路４７號","OBJECTID":543222},"geometry":{"x":178065.03000000026,"y":2540614.9600000046}},{"attributes":{"ID":543250,"DIS_CODE":0,"TOWNNAME":"歸仁區","LI":"歸仁里","LIN":"12鄰","STREET":"信義北路","SECT":" ","MAREA":" ","LANE":" ","ALLEY":" ","HOUSE_NO":"８３號","E_COORD97":177983.20999999999,"N_COORD97":2540997.48,"ADDRESS":"信義北路８３號","OBJECTID":543223},"geometry":{"x":177983.21000000089,"y":2540997.4800000042}},{"attributes":{"ID":543251,"DIS_CODE":0,"TOWNNAME":"歸仁區","LI":"歸仁里","LIN":"12鄰","STREET":"信義北路","SECT":" ","MAREA":" ","LANE":" ","ALLEY":" ","HOUSE_NO":"９７號","E_COORD97":177982.17000000001,"N_COORD97":2541034.9100000001,"ADDRESS":"信義北路９７號","OBJECTID":543224},"geometry":{"x":177982.17000000086,"y":2541034.9100000039}},{"attributes":{"ID":543252,"DIS_CODE":0,"TOWNNAME":"歸仁區","LI":"新厝里","LIN":"12鄰","STREET":"中正南路","SECT":"一段","MAREA":" ","LANE":" ","ALLEY":" ","HOUSE_NO":"８３號","E_COORD97":177580.20000000001,"N_COORD97":2540538.5899999999,"ADDRESS":"中正南路一段８３號","OBJECTID":543225},"geometry":{"x":177580.20000000112,"y":2540538.5900000017}},{"attributes":{"ID":543253,"DIS_CODE":0,"TOWNNAME":"歸仁區","LI":"新厝里","LIN":"12鄰","STREET":"中正南路","SECT":"一段","MAREA":" ","LANE":" ","ALLEY":" ","HOUSE_NO":"７５號","E_COORD97":177593.60000000001,"N_COORD97":2540549.5899999999,"ADDRESS":"中正南路一段７５號","OBJECTID":543226},"geometry":{"x":177593.60000000056,"y":2540549.5900000017}},{"attributes":{"ID":543254,"DIS_CODE":0,"TOWNNAME":"歸仁區","LI":"新厝里","LIN":"12鄰","STREET":"中正南路","SECT":"一段","MAREA":" ","LANE":" ","ALLEY":" ","HOUSE_NO":"６７號","E_COORD97":177606,"N_COORD97":2540561.5899999999,"ADDRESS":"中正南路一段６７號","OBJECTID":543227},"geometry":{"x":177606,"y":2540561.5899999999}},{"attributes":{"ID":543255,"DIS_CODE":0,"TOWNNAME":"歸仁區","LI":"崙頂里","LIN":"12鄰","STREET":"成功路","SECT":"二段","MAREA":" ","LANE":" ","ALLEY":" ","HOUSE_NO":"１７１號","E_COORD97":177908.98000000001,"N_COORD97":2539670.25,"ADDRESS":"成功路二段１７１號","OBJECTID":543228},"geometry":{"x":177908.98000000138,"y":2539670.2500000019}},{"attributes":{"ID":543256,"DIS_CODE":0,"TOWNNAME":"歸仁區","LI":"歸南里","LIN":"12鄰","STREET":"民生南街","SECT":"二段","MAREA":" ","LANE":" ","ALLEY":" ","HOUSE_NO":"２６７號","E_COORD97":176088.56,"N_COORD97":2539998.25,"ADDRESS":"民生南街二段２６７號","OBJECTID":543229},"geometry":{"x":176088.56000000052,"y":2539998.2500000037}},{"attributes":{"ID":543257,"DIS_CODE":0,"TOWNNAME":"歸仁區","LI":"歸仁里","LIN":"12鄰","STREET":"信義北路","SECT":" ","MAREA":" ","LANE":" ","ALLEY":" ","HOUSE_NO":"９５號","E_COORD97":177983.17000000001,"N_COORD97":2541029.9100000001,"ADDRESS":"信義北路９５號","OBJECTID":543230},"geometry":{"x":177983.17000000179,"y":2541029.9100000001}},{"attributes":{"ID":543258,"DIS_CODE":0,"TOWNNAME":"歸仁區","LI":"新厝里","LIN":"12鄰","STREET":"中正南路","SECT":"一段","MAREA":" ","LANE":" ","ALLEY":" ","HOUSE_NO":"８１號","E_COORD97":177585.39999999999,"N_COORD97":2540538.5899999999,"ADDRESS":"中正南路一段８１號","OBJECTID":543231},"geometry":{"x":177585.40000000224,"y":2540538.5900000017}},{"attributes":{"ID":543259,"DIS_CODE":0,"TOWNNAME":"歸仁區","LI":"新厝里","LIN":"12鄰","STREET":"中正三街","SECT":" ","MAREA":" ","LANE":" ","ALLEY":" ","HOUSE_NO":"２０號","E_COORD97":177655.79999999999,"N_COORD97":2540566.5899999999,"ADDRESS":"中正三街２０號","OBJECTID":543232},"geometry":{"x":177655.80000000075,"y":2540566.5900000017}},{"attributes":{"ID":543260,"DIS_CODE":0,"TOWNNAME":"歸仁區","LI":"新厝里","LIN":"12鄰","STREET":"公園十街","SECT":" ","MAREA":" ","LANE":" ","ALLEY":" ","HOUSE_NO":"３５號","E_COORD97":177668.82000000001,"N_COORD97":2540495.5899999999,"ADDRESS":"公園十街３５號","OBJECTID":543233},"geometry":{"x":177668.81999999937,"y":2540495.5900000017}},{"attributes":{"ID":543261,"DIS_CODE":0,"TOWNNAME":"歸仁區","LI":"新厝里","LIN":"12鄰","STREET":"公園十街","SECT":" ","MAREA":" ","LANE":" ","ALLEY":" ","HOUSE_NO":"５９號","E_COORD97":177668.73000000001,"N_COORD97":2540549.25,"ADDRESS":"公園十街５９號","OBJECTID":543234},"geometry":{"x":177668.73000000138,"y":2540549.25}},{"attributes":{"ID":543262,"DIS_CODE":0,"TOWNNAME":"歸仁區","LI":"新厝里","LIN":"12鄰","STREET":"公園十街","SECT":" ","MAREA":" ","LANE":" ","ALLEY":" ","HOUSE_NO":"２３號","E_COORD97":177668.72,"N_COORD97":2540472.5899999999,"ADDRESS":"公園十街２３號","OBJECTID":543235},"geometry":{"x":177668.71999999974,"y":2540472.5899999999}},{"attributes":{"ID":543263,"DIS_CODE":0,"TOWNNAME":"歸仁區","LI":"新厝里","LIN":"12鄰","STREET":"中正南路","SECT":"一段","MAREA":" ","LANE":" ","ALLEY":" ","HOUSE_NO":"７９號","E_COORD97":177587.5,"N_COORD97":2540542.5899999999,"ADDRESS":"中正南路一段７９號","OBJECTID":543236},"geometry":{"x":177587.5,"y":2540542.5900000017}},{"attributes":{"ID":543264,"DIS_CODE":0,"TOWNNAME":"歸仁區","LI":"看東里","LIN":"12鄰","STREET":"忠孝南路","SECT":" ","MAREA":" ","LANE":" ","ALLEY":" ","HOUSE_NO":"２７號","E_COORD97":178525.14999999999,"N_COORD97":2540554.48,"ADDRESS":"忠孝南路２７號","OBJECTID":543237},"geometry":{"x":178525.1500000013,"y":2540554.4800000023}},{"attributes":{"ID":543265,"DIS_CODE":0,"TOWNNAME":"歸仁區","LI":"新厝里","LIN":"12鄰","STREET":"公園十街","SECT":" ","MAREA":" ","LANE":" ","ALLEY":" ","HOUSE_NO":"４９號","E_COORD97":177672.01999999999,"N_COORD97":2540527.5899999999,"ADDRESS":"公園十街４９號","OBJECTID":543238},"geometry":{"x":177672.02000000048,"y":2540527.5899999999}},{"attributes":{"ID":543266,"DIS_CODE":0,"TOWNNAME":"歸仁區","LI":"歸仁里","LIN":"12鄰","STREET":"信義北路","SECT":" ","MAREA":" ","LANE":" ","ALLEY":" ","HOUSE_NO":"１０５號","E_COORD97":177976.32000000001,"N_COORD97":2541052.9100000001,"ADDRESS":"信義北路１０５號","OBJECTID":543239},"geometry":{"x":177976.32000000123,"y":2541052.910000002}},{"attributes":{"ID":543267,"DIS_CODE":0,"TOWNNAME":"歸仁區","LI":"新厝里","LIN":"12鄰","STREET":"公園十街","SECT":" ","MAREA":" ","LANE":" ","ALLEY":" ","HOUSE_NO":"２７號","E_COORD97":177668.72,"N_COORD97":2540478.5899999999,"ADDRESS":"公園十街２７號","OBJECTID":543240},"geometry":{"x":177668.71999999974,"y":2540478.5900000017}},{"attributes":{"ID":543268,"DIS_CODE":0,"TOWNNAME":"歸仁區","LI":"歸仁里","LIN":"12鄰","STREET":"大通一街","SECT":" ","MAREA":" ","LANE":" ","ALLEY":" ","HOUSE_NO":"４８號","E_COORD97":177934.87,"N_COORD97":2541012.9199999999,"ADDRESS":"大通一街４８號","OBJECTID":543241},"geometry":{"x":177934.87000000104,"y":2541012.9199999999}},{"attributes":{"ID":543269,"DIS_CODE":0,"TOWNNAME":"歸仁區","LI":"歸仁里","LIN":"12鄰","STREET":"大通一街","SECT":" ","MAREA":" ","LANE":" ","ALLEY":" ","HOUSE_NO":"４２號","E_COORD97":177921.57000000001,"N_COORD97":2541013.9199999999,"ADDRESS":"大通一街４２號","OBJECTID":543242},"geometry":{"x":177921.57000000216,"y":2541013.9200000037}},{"attributes":{"ID":543270,"DIS_CODE":0,"TOWNNAME":"歸仁區","LI":"新厝里","LIN":"12鄰","STREET":"公園十街","SECT":" ","MAREA":" ","LANE":" ","ALLEY":" ","HOUSE_NO":"５１號","E_COORD97":177673.01999999999,"N_COORD97":2540532.5899999999,"ADDRESS":"公園十街５１號","OBJECTID":543243},"geometry":{"x":177673.01999999955,"y":2540532.5900000017}},{"attributes":{"ID":543271,"DIS_CODE":0,"TOWNNAME":"歸仁區","LI":"崙頂里","LIN":"12鄰","STREET":"成功路","SECT":"二段","MAREA":" ","LANE":" ","ALLEY":" ","HOUSE_NO":"１８３號","E_COORD97":177879.20999999999,"N_COORD97":2539623.9300000002,"ADDRESS":"成功路二段１８３號","OBJECTID":543244},"geometry":{"x":177879.20999999996,"y":2539623.9300000034}},{"attributes":{"ID":543272,"DIS_CODE":0,"TOWNNAME":"歸仁區","LI":"看東里","LIN":"12鄰","STREET":"忠孝南路","SECT":" ","MAREA":" ","LANE":" ","ALLEY":" ","HOUSE_NO":"４９號","E_COORD97":178522.95000000001,"N_COORD97":2540510.48,"ADDRESS":"忠孝南路４９號","OBJECTID":543245},"geometry":{"x":178522.95000000112,"y":2540510.4800000023}},{"attributes":{"ID":543273,"DIS_CODE":0,"TOWNNAME":"歸仁區","LI":"看東里","LIN":"12鄰","STREET":"忠孝南路","SECT":" ","MAREA":" ","LANE":" ","ALLEY":" ","HOUSE_NO":"４７號","E_COORD97":178522.95000000001,"N_COORD97":2540514.48,"ADDRESS":"忠孝南路４７號","OBJECTID":543246},"geometry":{"x":178522.95000000112,"y":2540514.4800000004}},{"attributes":{"ID":543274,"DIS_CODE":0,"TOWNNAME":"歸仁區","LI":"看西里","LIN":"12鄰","STREET":"仁愛南街","SECT":" ","MAREA":" ","LANE":" ","ALLEY":" ","HOUSE_NO":"２２３號","E_COORD97":178275.85999999999,"N_COORD97":2540171.1200000001,"ADDRESS":"仁愛南街２２３號","OBJECTID":543247},"geometry":{"x":178275.86000000127,"y":2540171.1200000029}},{"attributes":{"ID":543275,"DIS_CODE":0,"TOWNNAME":"歸仁區","LI":"看東里","LIN":"12鄰","STREET":"忠孝南路","SECT":" ","MAREA":" ","LANE":" ","ALLEY":" ","HOUSE_NO":"６３號","E_COORD97":178523.75,"N_COORD97":2540476.48,"ADDRESS":"忠孝南路６３號","OBJECTID":543248},"geometry":{"x":178523.75000000093,"y":2540476.4800000023}},{"attributes":{"ID":543276,"DIS_CODE":0,"TOWNNAME":"歸仁區","LI":"六甲里","LIN":"12鄰","STREET":"中正南路","SECT":"一段","MAREA":" ","LANE":" ","ALLEY":" ","HOUSE_NO":"２４９６號","E_COORD97":175543.35999999999,"N_COORD97":2537415.2799999998,"ADDRESS":"中正南路一段２４９６號","OBJECTID":543249},"geometry":{"x":175543.36000000127,"y":2537415.2800000012}},{"attributes":{"ID":543277,"DIS_CODE":0,"TOWNNAME":"歸仁區","LI":"南興里","LIN":"12鄰","STREET":"南興街","SECT":" ","MAREA":" ","LANE":" ","ALLEY":" ","HOUSE_NO":"１３１號","E_COORD97":175864.48999999999,"N_COORD97":2541360.25,"ADDRESS":"南興街１３１號","OBJECTID":543250},"geometry":{"x":175864.49000000115,"y":2541360.25}},{"attributes":{"ID":543278,"DIS_CODE":0,"TOWNNAME":"歸仁區","LI":"南興里","LIN":"12鄰","STREET":"文化十八街","SECT":" ","MAREA":" ","LANE":" ","ALLEY":" ","HOUSE_NO":"５９號","E_COORD97":175886.09,"N_COORD97":2541319.3300000001,"ADDRESS":"文化十八街５９號","OBJECTID":543251},"geometry":{"x":175886.08999999985,"y":2541319.3300000001}},{"attributes":{"ID":543279,"DIS_CODE":0,"TOWNNAME":"歸仁區","LI":"許厝里","LIN":"12鄰","STREET":"信義南路","SECT":" ","MAREA":" ","LANE":" ","ALLEY":" ","HOUSE_NO":"５５號","E_COORD97":178087.82000000001,"N_COORD97":2540586.1000000001,"ADDRESS":"信義南路５５號","OBJECTID":543252},"geometry":{"x":178087.82000000123,"y":2540586.1000000015}},{"attributes":{"ID":543280,"DIS_CODE":0,"TOWNNAME":"歸仁區","LI":"文化里","LIN":"12鄰","STREET":"文化北一街","SECT":" ","MAREA":" ","LANE":" ","ALLEY":" ","HOUSE_NO":"５５號","E_COORD97":177301.70999999999,"N_COORD97":2541450.3399999999,"ADDRESS":"文化北一街５５號","OBJECTID":543253},"geometry":{"x":177301.71000000089,"y":2541450.3399999999}},{"attributes":{"ID":543281,"DIS_CODE":0,"TOWNNAME":"歸仁區","LI":"南保里","LIN":"12鄰","STREET":"文化十街","SECT":" ","MAREA":" ","LANE":" ","ALLEY":" ","HOUSE_NO":"２２號","E_COORD97":176561.64000000001,"N_COORD97":2541316.3300000001,"ADDRESS":"文化十街２２號","OBJECTID":543254},"geometry":{"x":176561.6400000006,"y":2541316.3299999982}},{"attributes":{"ID":543282,"DIS_CODE":0,"TOWNNAME":"歸仁區","LI":"許厝里","LIN":"12鄰","STREET":"信義南路","SECT":" ","MAREA":" ","LANE":" ","ALLEY":" ","HOUSE_NO":"４９號","E_COORD97":178070.13,"N_COORD97":2540605.96,"ADDRESS":"信義南路４９號","OBJECTID":543255},"geometry":{"x":178070.13000000082,"y":2540605.9600000028}},{"attributes":{"ID":543283,"DIS_CODE":0,"TOWNNAME":"歸仁區","LI":"南保里","LIN":"12鄰","STREET":"文化十街","SECT":" ","MAREA":" ","LANE":" ","ALLEY":" ","HOUSE_NO":"１６號","E_COORD97":176559.44,"N_COORD97":2541295.3300000001,"ADDRESS":"文化十街１６號","OBJECTID":543256},"geometry":{"x":176559.43999999948,"y":2541295.3300000001}},{"attributes":{"ID":543284,"DIS_CODE":0,"TOWNNAME":"歸仁區","LI":"南興里","LIN":"12鄰","STREET":"文化十八街","SECT":" ","MAREA":" ","LANE":" ","ALLEY":" ","HOUSE_NO":"９７號","E_COORD97":175923.09,"N_COORD97":2541333.3300000001,"ADDRESS":"文化十八街９７號","OBJECTID":543257},"geometry":{"x":175923.09000000078,"y":2541333.3299999982}},{"attributes":{"ID":543285,"DIS_CODE":0,"TOWNNAME":"歸仁區","LI":"南興里","LIN":"12鄰","STREET":"文化十八街","SECT":" ","MAREA":" ","LANE":" ","ALLEY":" ","HOUSE_NO":"６１號","E_COORD97":175899.39000000001,"N_COORD97":2541321.3300000001,"ADDRESS":"文化十八街６１號","OBJECTID":543258},"geometry":{"x":175899.38999999966,"y":2541321.3300000019}},{"attributes":{"ID":543286,"DIS_CODE":0,"TOWNNAME":"歸仁區","LI":"南興里","LIN":"12鄰","STREET":"文化十八街","SECT":" ","MAREA":" ","LANE":" ","ALLEY":" ","HOUSE_NO":"５７號","E_COORD97":175879.89000000001,"N_COORD97":2541318.3300000001,"ADDRESS":"文化十八街５７號","OBJECTID":543259},"geometry":{"x":175879.8900000006,"y":2541318.3300000001}},{"attributes":{"ID":543287,"DIS_CODE":0,"TOWNNAME":"歸仁區","LI":"文化里","LIN":"12鄰","STREET":"文化北一街","SECT":" ","MAREA":" ","LANE":" ","ALLEY":" ","HOUSE_NO":"３３號","E_COORD97":177347.91,"N_COORD97":2541448.3399999999,"ADDRESS":"文化北一街３３號","OBJECTID":543260},"geometry":{"x":177347.91000000108,"y":2541448.339999998}},{"attributes":{"ID":543288,"DIS_CODE":0,"TOWNNAME":"歸仁區","LI":"文化里","LIN":"12鄰","STREET":"文化北一街","SECT":" ","MAREA":" ","LANE":" ","ALLEY":" ","HOUSE_NO":"８號","E_COORD97":177407.16,"N_COORD97":2541461.3399999999,"ADDRESS":"文化北一街８號","OBJECTID":543261},"geometry":{"x":177407.16000000201,"y":2541461.3399999999}},{"attributes":{"ID":543289,"DIS_CODE":0,"TOWNNAME":"歸仁區","LI":"新厝里","LIN":"12鄰","STREET":"中正三街","SECT":" ","MAREA":" ","LANE":" ","ALLEY":" ","HOUSE_NO":"８號","E_COORD97":177633.95000000001,"N_COORD97":2540565.5899999999,"ADDRESS":"中正三街８號","OBJECTID":543262},"geometry":{"x":177633.95000000205,"y":2540565.5900000017}},{"attributes":{"ID":543290,"DIS_CODE":0,"TOWNNAME":"歸仁區","LI":"歸仁里","LIN":"12鄰","STREET":"信義北路","SECT":" ","MAREA":" ","LANE":" ","ALLEY":" ","HOUSE_NO":"９３號","E_COORD97":177984.17000000001,"N_COORD97":2541025.9100000001,"ADDRESS":"信義北路９３號","OBJECTID":543263},"geometry":{"x":177984.16999999993,"y":2541025.910000002}},{"attributes":{"ID":543291,"DIS_CODE":0,"TOWNNAME":"歸仁區","LI":"後市里","LIN":"12鄰","STREET":"民權五街","SECT":" ","MAREA":" ","LANE":" ","ALLEY":" ","HOUSE_NO":"７號","E_COORD97":177022.84,"N_COORD97":2540787.25,"ADDRESS":"民權五街７號","OBJECTID":543264},"geometry":{"x":177022.84000000078,"y":2540787.25}},{"attributes":{"ID":543292,"DIS_CODE":0,"TOWNNAME":"歸仁區","LI":"崙頂里","LIN":"12鄰","STREET":"成功路","SECT":"二段","MAREA":" ","LANE":" ","ALLEY":" ","HOUSE_NO":"１６５號","E_COORD97":177919.28,"N_COORD97":2539674.25,"ADDRESS":"成功路二段１６５號","OBJECTID":543265},"geometry":{"x":177919.28000000026,"y":2539674.2500000019}},{"attributes":{"ID":543293,"DIS_CODE":0,"TOWNNAME":"歸仁區","LI":"歸仁里","LIN":"12鄰","STREET":"信義北路","SECT":" ","MAREA":" ","LANE":" ","ALLEY":" ","HOUSE_NO":"９９號","E_COORD97":177981.17000000001,"N_COORD97":2541038.9100000001,"ADDRESS":"信義北路９９號","OBJECTID":543266},"geometry":{"x":177981.16999999993,"y":2541038.910000002}},{"attributes":{"ID":543294,"DIS_CODE":0,"TOWNNAME":"歸仁區","LI":"六甲里","LIN":"12鄰","STREET":"凱旋路","SECT":"三段","MAREA":" ","LANE":" ","ALLEY":" ","HOUSE_NO":"２６２號","E_COORD97":175951.87,"N_COORD97":2538998.27,"ADDRESS":"凱旋路三段２６２號","OBJECTID":543267},"geometry":{"x":175951.87000000104,"y":2538998.2700000014}},{"attributes":{"ID":543295,"DIS_CODE":0,"TOWNNAME":"新營區","LI":"忠政里","LIN":"12鄰","STREET":"中正路","SECT":" ","MAREA":" ","LANE":" ","ALLEY":" ","HOUSE_NO":"８９號","E_COORD97":180070.28,"N_COORD97":2579612.2799999998,"ADDRESS":"中正路８９號","OBJECTID":543268},"geometry":{"x":180070.28000000119,"y":2579612.2799999993}},{"attributes":{"ID":543296,"DIS_CODE":0,"TOWNNAME":"新營區","LI":"忠政里","LIN":"12鄰","STREET":"中正路","SECT":" ","MAREA":" ","LANE":" ","ALLEY":" ","HOUSE_NO":"９９號","E_COORD97":180069.26999999999,"N_COORD97":2579634.4300000002,"ADDRESS":"中正路９９號","OBJECTID":543269},"geometry":{"x":180069.27000000048,"y":2579634.4300000016}},{"attributes":{"ID":543297,"DIS_CODE":0,"TOWNNAME":"新營區","LI":"新南里","LIN":"12鄰","STREET":"新北七街","SECT":" ","MAREA":" ","LANE":" ","ALLEY":" ","HOUSE_NO":"４６號","E_COORD97":178494.09,"N_COORD97":2579169.0800000001,"ADDRESS":"新北七街４６號","OBJECTID":543270},"geometry":{"x":178494.09000000078,"y":2579169.0800000019}},{"attributes":{"ID":543298,"DIS_CODE":0,"TOWNNAME":"新營區","LI":"忠政里","LIN":"12鄰","STREET":"中正路","SECT":" ","MAREA":" ","LANE":" ","ALLEY":" ","HOUSE_NO":"５７號","E_COORD97":180063.67999999999,"N_COORD97":2579524.8199999998,"ADDRESS":"中正路５７號","OBJECTID":543271},"geometry":{"x":180063.68000000063,"y":2579524.8200000003}},{"attributes":{"ID":543299,"DIS_CODE":0,"TOWNNAME":"新營區","LI":"新南里","LIN":"12鄰","STREET":"新北七街","SECT":" ","MAREA":" ","LANE":" ","ALLEY":" ","HOUSE_NO":"４２號","E_COORD97":178500.23999999999,"N_COORD97":2579173.48,"ADDRESS":"新北七街４２號","OBJECTID":543272},"geometry":{"x":178500.24000000115,"y":2579173.4800000023}},{"attributes":{"ID":543300,"DIS_CODE":0,"TOWNNAME":"新營區","LI":"大宏里","LIN":"12鄰","STREET":"開元路","SECT":" ","MAREA":" ","LANE":" ","ALLEY":" ","HOUSE_NO":"６１之１號","E_COORD97":180883.79999999999,"N_COORD97":2578740.2799999998,"ADDRESS":"開元路６１之１號","OBJECTID":543273},"geometry":{"x":180883.79999999981,"y":2578740.2800000012}},{"attributes":{"ID":543301,"DIS_CODE":0,"TOWNNAME":"新營區","LI":"新南里","LIN":"12鄰","STREET":"新北七街","SECT":" ","MAREA":" ","LANE":" ","ALLEY":" ","HOUSE_NO":"４０號","E_COORD97":178502.29999999999,"N_COORD97":2579176.79,"ADDRESS":"新北七街４０號","OBJECTID":543274},"geometry":{"x":178502.29999999981,"y":2579176.790000001}},{"attributes":{"ID":543302,"DIS_CODE":0,"TOWNNAME":"新營區","LI":"新南里","LIN":"12鄰","STREET":"新北七街","SECT":" ","MAREA":" ","LANE":" ","ALLEY":" ","HOUSE_NO":"４８號","E_COORD97":178489.98000000001,"N_COORD97":2579165.7799999998,"ADDRESS":"新北七街４８號","OBJECTID":543275},"geometry":{"x":178489.98000000045,"y":2579165.7799999993}},{"attributes":{"ID":543303,"DIS_CODE":0,"TOWNNAME":"新營區","LI":"王公里","LIN":"12鄰","STREET":"義和街","SECT":" ","MAREA":" ","LANE":" ","ALLEY":" ","HOUSE_NO":"３之２４號","E_COORD97":180537.56,"N_COORD97":2579047.5600000001,"ADDRESS":"義和街３之２４號","OBJECTID":543276},"geometry":{"x":180537.55999999959,"y":2579047.5600000024}},{"attributes":{"ID":543304,"DIS_CODE":0,"TOWNNAME":"新營區","LI":"王公里","LIN":"12鄰","STREET":"義和街","SECT":" ","MAREA":" ","LANE":" ","ALLEY":" ","HOUSE_NO":"３之４號","E_COORD97":180575.98999999999,"N_COORD97":2579000.8599999999,"ADDRESS":"義和街３之４號","OBJECTID":543277},"geometry":{"x":180575.99000000022,"y":2579000.8600000013}},{"attributes":{"ID":543305,"DIS_CODE":0,"TOWNNAME":"新營區","LI":"王公里","LIN":"12鄰","STREET":"義和街","SECT":" ","MAREA":" ","LANE":" ","ALLEY":" ","HOUSE_NO":"３之１５號","E_COORD97":180564.23999999999,"N_COORD97":2579064.0499999998,"ADDRESS":"義和街３之１５號","OBJECTID":543278},"geometry":{"x":180564.24000000022,"y":2579064.0499999989}},{"attributes":{"ID":543306,"DIS_CODE":0,"TOWNNAME":"新營區","LI":"三仙里","LIN":"12鄰","STREET":"武昌街","SECT":" ","MAREA":" ","LANE":" ","ALLEY":" ","HOUSE_NO":"４５之１號","E_COORD97":179670.81,"N_COORD97":2578315.2000000002,"ADDRESS":"武昌街４５之１號","OBJECTID":543279},"geometry":{"x":179670.81000000052,"y":2578315.1999999993}},{"attributes":{"ID":543307,"DIS_CODE":0,"TOWNNAME":"新營區","LI":"三仙里","LIN":"12鄰","STREET":"武昌街","SECT":" ","MAREA":" ","LANE":" ","ALLEY":" ","HOUSE_NO":"５１號之１","E_COORD97":179639.67000000001,"N_COORD97":2578308.7000000002,"ADDRESS":"武昌街５１號之１","OBJECTID":543280},"geometry":{"x":179639.67000000086,"y":2578308.6999999993}},{"attributes":{"ID":543308,"DIS_CODE":0,"TOWNNAME":"新營區","LI":"三仙里","LIN":"12鄰","STREET":"武昌街","SECT":" ","MAREA":" ","LANE":" ","ALLEY":" ","HOUSE_NO":"４５號","E_COORD97":179672.39999999999,"N_COORD97":2578315.1299999999,"ADDRESS":"武昌街４５號","OBJECTID":543281},"geometry":{"x":179672.4000000013,"y":2578315.129999999}},{"attributes":{"ID":543309,"DIS_CODE":0,"TOWNNAME":"新營區","LI":"王公里","LIN":"12鄰","STREET":"義和街","SECT":" ","MAREA":" ","LANE":" ","ALLEY":" ","HOUSE_NO":"３之２２號","E_COORD97":180528.35999999999,"N_COORD97":2579047.6000000001,"ADDRESS":"義和街３之２２號","OBJECTID":543282},"geometry":{"x":180528.3599999994,"y":2579047.5999999996}},{"attributes":{"ID":543310,"DIS_CODE":0,"TOWNNAME":"新營區","LI":"王公里","LIN":"12鄰","STREET":"義和街","SECT":" ","MAREA":" ","LANE":" ","ALLEY":" ","HOUSE_NO":"３之２號","E_COORD97":180498.45000000001,"N_COORD97":2579044.4199999999,"ADDRESS":"義和街３之２號","OBJECTID":543283},"geometry":{"x":180498.45000000019,"y":2579044.4200000018}},{"attributes":{"ID":543311,"DIS_CODE":0,"TOWNNAME":"新營區","LI":"民權里","LIN":"12鄰","STREET":"武昌街","SECT":" ","MAREA":" ","LANE":" ","ALLEY":" ","HOUSE_NO":"１９號","E_COORD97":179847.32000000001,"N_COORD97":2578333.1200000001,"ADDRESS":"武昌街１９號","OBJECTID":543284},"geometry":{"x":179847.32000000216,"y":2578333.1200000029}},{"attributes":{"ID":543312,"DIS_CODE":0,"TOWNNAME":"新營區","LI":"三仙里","LIN":"12鄰","STREET":"武昌街","SECT":" ","MAREA":" ","LANE":" ","ALLEY":" ","HOUSE_NO":"５３之２號","E_COORD97":179635.87,"N_COORD97":2578293.21,"ADDRESS":"武昌街５３之２號","OBJECTID":543285},"geometry":{"x":179635.87000000011,"y":2578293.2100000009}},{"attributes":{"ID":543313,"DIS_CODE":0,"TOWNNAME":"新營區","LI":"三仙里","LIN":"12鄰","STREET":"武昌街","SECT":" ","MAREA":" ","LANE":" ","ALLEY":" ","HOUSE_NO":"４７號","E_COORD97":179664.22,"N_COORD97":2578314.0600000001,"ADDRESS":"武昌街４７號","OBJECTID":543286},"geometry":{"x":179664.2200000016,"y":2578314.0600000005}},{"attributes":{"ID":543314,"DIS_CODE":0,"TOWNNAME":"新營區","LI":"王公里","LIN":"12鄰","STREET":"義和街","SECT":" ","MAREA":" ","LANE":" ","ALLEY":" ","HOUSE_NO":"９號","E_COORD97":180448.78,"N_COORD97":2579043.48,"ADDRESS":"義和街９號","OBJECTID":543287},"geometry":{"x":180448.78000000026,"y":2579043.4800000004}},{"attributes":{"ID":543315,"DIS_CODE":0,"TOWNNAME":"新營區","LI":"王公里","LIN":"12鄰","STREET":"義和街","SECT":" ","MAREA":" ","LANE":" ","ALLEY":" ","HOUSE_NO":"３之２５號","E_COORD97":180541.66,"N_COORD97":2579048.6499999999,"ADDRESS":"義和街３之２５號","OBJECTID":543288},"geometry":{"x":180541.66000000108,"y":2579048.6500000004}},{"attributes":{"ID":543316,"DIS_CODE":0,"TOWNNAME":"新營區","LI":"南興里","LIN":"12鄰","STREET":"建業路","SECT":" ","MAREA":" ","LANE":" ","ALLEY":" ","HOUSE_NO":"９２之２號","E_COORD97":179303.67999999999,"N_COORD97":2577497.4300000002,"ADDRESS":"建業路９２之２號","OBJECTID":543289},"geometry":{"x":179303.68000000063,"y":2577497.4299999978}},{"attributes":{"ID":543317,"DIS_CODE":0,"TOWNNAME":"新營區","LI":"大宏里","LIN":"12鄰","STREET":"綠川路","SECT":" ","MAREA":" ","LANE":" ","ALLEY":" ","HOUSE_NO":"６號","E_COORD97":180929.76999999999,"N_COORD97":2578874,"ADDRESS":"綠川路６號","OBJECTID":543290},"geometry":{"x":180929.76999999955,"y":2578874.0000000037}},{"attributes":{"ID":543318,"DIS_CODE":0,"TOWNNAME":"歸仁區","LI":"大潭里","LIN":"12鄰","STREET":"長榮路","SECT":"一段","MAREA":" ","LANE":" ","ALLEY":" ","HOUSE_NO":"１８５號","E_COORD97":175011.85999999999,"N_COORD97":2534562.2799999998,"ADDRESS":"長榮路一段１８５號","OBJECTID":543291},"geometry":{"x":175011.86000000034,"y":2534562.2799999975}},{"attributes":{"ID":543319,"DIS_CODE":0,"TOWNNAME":"歸仁區","LI":"六甲里","LIN":"12鄰","STREET":"中正南路","SECT":"一段","MAREA":" ","LANE":" ","ALLEY":" ","HOUSE_NO":"１０２８號","E_COORD97":175972.45000000001,"N_COORD97":2539168.2799999998,"ADDRESS":"中正南路一段１０２８號","OBJECTID":543292},"geometry":{"x":175972.45000000019,"y":2539168.2800000012}},{"attributes":{"ID":543320,"DIS_CODE":0,"TOWNNAME":"歸仁區","LI":"文化里","LIN":"12鄰","STREET":"文化北一街","SECT":" ","MAREA":" ","LANE":" ","ALLEY":" ","HOUSE_NO":"１１號","E_COORD97":177391.26999999999,"N_COORD97":2541444.2599999998,"ADDRESS":"文化北一街１１號","OBJECTID":543293},"geometry":{"x":177391.27000000048,"y":2541444.2599999998}},{"attributes":{"ID":543321,"DIS_CODE":0,"TOWNNAME":"歸仁區","LI":"後市里","LIN":"12鄰","STREET":"民權南路","SECT":" ","MAREA":" ","LANE":" ","ALLEY":" ","HOUSE_NO":"１號","E_COORD97":176996.12,"N_COORD97":2540823.29,"ADDRESS":"民權南路１號","OBJECTID":543294},"geometry":{"x":176996.12000000104,"y":2540823.2899999991}},{"attributes":{"ID":543322,"DIS_CODE":0,"TOWNNAME":"歸仁區","LI":"文化里","LIN":"12鄰","STREET":"文化北一街","SECT":" ","MAREA":" ","LANE":" ","ALLEY":" ","HOUSE_NO":"６５號","E_COORD97":177279.47,"N_COORD97":2541429.2599999998,"ADDRESS":"文化北一街６５號","OBJECTID":543295},"geometry":{"x":177279.47000000067,"y":2541429.2600000016}},{"attributes":{"ID":543323,"DIS_CODE":0,"TOWNNAME":"關廟區","LI":"山西里","LIN":"12鄰","STREET":"崇尚街","SECT":" ","MAREA":" ","LANE":" ","ALLEY":" ","HOUSE_NO":"２號","E_COORD97":181090.37,"N_COORD97":2540521.25,"ADDRESS":"崇尚街２號","OBJECTID":543296},"geometry":{"x":181090.37000000011,"y":2540521.2500000019}},{"attributes":{"ID":543324,"DIS_CODE":0,"TOWNNAME":"關廟區","LI":"北勢里","LIN":"12鄰","STREET":"成功路","SECT":" ","MAREA":" ","LANE":" ","ALLEY":" ","HOUSE_NO":"２８２號","E_COORD97":181441.76999999999,"N_COORD97":2540492.27,"ADDRESS":"成功路２８２號","OBJECTID":543297},"geometry":{"x":181441.76999999955,"y":2540492.2699999996}},{"attributes":{"ID":543325,"DIS_CODE":0,"TOWNNAME":"關廟區","LI":"五甲里","LIN":"12鄰","STREET":"東興一街","SECT":" ","MAREA":" ","LANE":" ","ALLEY":" ","HOUSE_NO":"１６號","E_COORD97":181222.57000000001,"N_COORD97":2539589.25,"ADDRESS":"東興一街１６號","OBJECTID":543298},"geometry":{"x":181222.57000000123,"y":2539589.2500000019}},{"attributes":{"ID":543326,"DIS_CODE":0,"TOWNNAME":"關廟區","LI":"五甲里","LIN":"12鄰","STREET":"南雄路","SECT":"一段","MAREA":" ","LANE":" ","ALLEY":" ","HOUSE_NO":"１００６號","E_COORD97":181185.94,"N_COORD97":2539575.2799999998,"ADDRESS":"南雄路一段１００６號","OBJECTID":543299},"geometry":{"x":181185.94000000134,"y":2539575.2799999993}},{"attributes":{"ID":543327,"DIS_CODE":0,"TOWNNAME":"關廟區","LI":"五甲里","LIN":"12鄰","STREET":"東安街","SECT":" ","MAREA":" ","LANE":" ","ALLEY":" ","HOUSE_NO":"７０號","E_COORD97":181386.42000000001,"N_COORD97":2539674.3199999998,"ADDRESS":"東安街７０號","OBJECTID":543300},"geometry":{"x":181386.41999999993,"y":2539674.3200000003}},{"attributes":{"ID":543328,"DIS_CODE":0,"TOWNNAME":"關廟區","LI":"北勢里","LIN":"12鄰","STREET":"成功路","SECT":" ","MAREA":" ","LANE":" ","ALLEY":" ","HOUSE_NO":"２６８號","E_COORD97":181466.37,"N_COORD97":2540489.27,"ADDRESS":"成功路２６８號","OBJECTID":543301},"geometry":{"x":181466.37000000104,"y":2540489.2700000033}},{"attributes":{"ID":543329,"DIS_CODE":0,"TOWNNAME":"關廟區","LI":"北勢里","LIN":"12鄰","STREET":"仁愛路","SECT":" ","MAREA":" ","LANE":" ","ALLEY":" ","HOUSE_NO":"２５０號","E_COORD97":181455.98999999999,"N_COORD97":2540550.2799999998,"ADDRESS":"仁愛路２５０號","OBJECTID":543302},"geometry":{"x":181455.99000000022,"y":2540550.2800000012}},{"attributes":{"ID":543330,"DIS_CODE":0,"TOWNNAME":"關廟區","LI":"北勢里","LIN":"12鄰","STREET":"仁愛路","SECT":" ","MAREA":" ","LANE":" ","ALLEY":" ","HOUSE_NO":"２４８號","E_COORD97":181454.09,"N_COORD97":2540547.2799999998,"ADDRESS":"仁愛路２４８號","OBJECTID":543303},"geometry":{"x":181454.09000000078,"y":2540547.2800000012}},{"attributes":{"ID":543331,"DIS_CODE":0,"TOWNNAME":"關廟區","LI":"北勢里","LIN":"12鄰","STREET":"仁愛路","SECT":" ","MAREA":" ","LANE":" ","ALLEY":" ","HOUSE_NO":"３３０號","E_COORD97":181565.79000000001,"N_COORD97":2540773.2799999998,"ADDRESS":"仁愛路３３０號","OBJECTID":543304},"geometry":{"x":181565.79000000004,"y":2540773.2799999993}},{"attributes":{"ID":543332,"DIS_CODE":0,"TOWNNAME":"關廟區","LI":"五甲里","LIN":"12鄰","STREET":"南雄路","SECT":"一段","MAREA":" ","LANE":" ","ALLEY":" ","HOUSE_NO":"１０４６號","E_COORD97":181150.45000000001,"N_COORD97":2539645.1699999999,"ADDRESS":"南雄路一段１０４６號","OBJECTID":543305},"geometry":{"x":181150.45000000112,"y":2539645.1699999999}},{"attributes":{"ID":543333,"DIS_CODE":0,"TOWNNAME":"關廟區","LI":"北勢里","LIN":"12鄰","STREET":"北安三街","SECT":" ","MAREA":" ","LANE":" ","ALLEY":" ","HOUSE_NO":"１３５號","E_COORD97":181495.64000000001,"N_COORD97":2540599.3199999998,"ADDRESS":"北安三街１３５號","OBJECTID":543306},"geometry":{"x":181495.6400000006,"y":2540599.3200000022}},{"attributes":{"ID":543334,"DIS_CODE":0,"TOWNNAME":"關廟區","LI":"北勢里","LIN":"12鄰","STREET":"北安三街","SECT":" ","MAREA":" ","LANE":" ","ALLEY":" ","HOUSE_NO":"９０號","E_COORD97":181589.59,"N_COORD97":2540578.3199999998,"ADDRESS":"北安三街９０號","OBJECTID":543307},"geometry":{"x":181589.59000000078,"y":2540578.3200000022}},{"attributes":{"ID":543335,"DIS_CODE":0,"TOWNNAME":"關廟區","LI":"北勢里","LIN":"12鄰","STREET":"仁愛路","SECT":" ","MAREA":" ","LANE":" ","ALLEY":" ","HOUSE_NO":"２９６號","E_COORD97":181490.98999999999,"N_COORD97":2540641.2799999998,"ADDRESS":"仁愛路２９６號","OBJECTID":543308},"geometry":{"x":181490.99000000115,"y":2540641.2799999975}},{"attributes":{"ID":543336,"DIS_CODE":0,"TOWNNAME":"關廟區","LI":"五甲里","LIN":"12鄰","STREET":"東興一街","SECT":" ","MAREA":" ","LANE":" ","ALLEY":" ","HOUSE_NO":"１號","E_COORD97":181225.22,"N_COORD97":2539619.25,"ADDRESS":"東興一街１號","OBJECTID":543309},"geometry":{"x":181225.21999999974,"y":2539619.2500000019}},{"attributes":{"ID":543337,"DIS_CODE":0,"TOWNNAME":"關廟區","LI":"五甲里","LIN":"12鄰","STREET":"東興一街","SECT":" ","MAREA":" ","LANE":" ","ALLEY":" ","HOUSE_NO":"２０號","E_COORD97":181227.97,"N_COORD97":2539575.25,"ADDRESS":"東興一街２０號","OBJECTID":543310},"geometry":{"x":181227.97000000067,"y":2539575.2500000019}},{"attributes":{"ID":543338,"DIS_CODE":0,"TOWNNAME":"關廟區","LI":"北勢里","LIN":"12鄰","STREET":"仁愛路","SECT":" ","MAREA":" ","LANE":" ","ALLEY":" ","HOUSE_NO":"２５８號","E_COORD97":181460.59,"N_COORD97":2540563.2799999998,"ADDRESS":"仁愛路２５８號","OBJECTID":543311},"geometry":{"x":181460.59000000078,"y":2540563.2799999975}},{"attributes":{"ID":543339,"DIS_CODE":0,"TOWNNAME":"關廟區","LI":"北勢里","LIN":"12鄰","STREET":"仁愛路","SECT":" ","MAREA":" ","LANE":" ","ALLEY":" ","HOUSE_NO":"２４０號","E_COORD97":181449.09,"N_COORD97":2540535.2799999998,"ADDRESS":"仁愛路２４０號","OBJECTID":543312},"geometry":{"x":181449.09000000078,"y":2540535.2799999993}},{"attributes":{"ID":543340,"DIS_CODE":0,"TOWNNAME":"關廟區","LI":"五甲里","LIN":"12鄰","STREET":"東興一街","SECT":" ","MAREA":" ","LANE":" ","ALLEY":" ","HOUSE_NO":"１３號","E_COORD97":181234.87,"N_COORD97":2539594.25,"ADDRESS":"東興一街１３號","OBJECTID":543313},"geometry":{"x":181234.87000000011,"y":2539594.25}},{"attributes":{"ID":543341,"DIS_CODE":0,"TOWNNAME":"關廟區","LI":"五甲里","LIN":"12鄰","STREET":"東興一街","SECT":" ","MAREA":" ","LANE":" ","ALLEY":" ","HOUSE_NO":"９號","E_COORD97":181231.32000000001,"N_COORD97":2539602.25,"ADDRESS":"東興一街９號","OBJECTID":543314},"geometry":{"x":181231.32000000123,"y":2539602.2500000019}},{"attributes":{"ID":543342,"DIS_CODE":0,"TOWNNAME":"關廟區","LI":"北勢里","LIN":"12鄰","STREET":"仁愛路","SECT":" ","MAREA":" ","LANE":" ","ALLEY":" ","HOUSE_NO":"２８６號","E_COORD97":181481.69,"N_COORD97":2540621.2799999998,"ADDRESS":"仁愛路２８６號","OBJECTID":543315},"geometry":{"x":181481.69000000041,"y":2540621.2800000031}},{"attributes":{"ID":543343,"DIS_CODE":0,"TOWNNAME":"關廟區","LI":"五甲里","LIN":"12鄰","STREET":"南雄路","SECT":"一段","MAREA":" ","LANE":" ","ALLEY":" ","HOUSE_NO":"１０１０號","E_COORD97":181182.54000000001,"N_COORD97":2539583.2799999998,"ADDRESS":"南雄路一段１０１０號","OBJECTID":543316},"geometry":{"x":181182.54000000004,"y":2539583.2799999993}},{"attributes":{"ID":543344,"DIS_CODE":0,"TOWNNAME":"關廟區","LI":"北勢里","LIN":"12鄰","STREET":"北安三街","SECT":" ","MAREA":" ","LANE":" ","ALLEY":" ","HOUSE_NO":"１４２號","E_COORD97":181492.23999999999,"N_COORD97":2540614.3199999998,"ADDRESS":"北安三街１４２號","OBJECTID":543317},"geometry":{"x":181492.24000000115,"y":2540614.3200000003}},{"attributes":{"ID":543345,"DIS_CODE":0,"TOWNNAME":"關廟區","LI":"五甲里","LIN":"12鄰","STREET":"東興路","SECT":" ","MAREA":" ","LANE":" ","ALLEY":" ","HOUSE_NO":"１１號","E_COORD97":181273.92000000001,"N_COORD97":2539545.25,"ADDRESS":"東興路１１號","OBJECTID":543318},"geometry":{"x":181273.92000000086,"y":2539545.2500000019}},{"attributes":{"ID":543346,"DIS_CODE":0,"TOWNNAME":"關廟區","LI":"北勢里","LIN":"12鄰","STREET":"仁愛路","SECT":" ","MAREA":" ","LANE":" ","ALLEY":" ","HOUSE_NO":"６５０號","E_COORD97":182083.59,"N_COORD97":2541085.2799999998,"ADDRESS":"仁愛路６５０號","OBJECTID":543319},"geometry":{"x":182083.58999999985,"y":2541085.2799999993}},{"attributes":{"ID":543347,"DIS_CODE":0,"TOWNNAME":"關廟區","LI":"五甲里","LIN":"12鄰","STREET":"南雄路","SECT":"一段","MAREA":" ","LANE":" ","ALLEY":" ","HOUSE_NO":"１０３６號","E_COORD97":181156.64999999999,"N_COORD97":2539628.1699999999,"ADDRESS":"南雄路一段１０３６號","OBJECTID":543320},"geometry":{"x":181156.65000000037,"y":2539628.1699999999}},{"attributes":{"ID":543348,"DIS_CODE":0,"TOWNNAME":"關廟區","LI":"北勢里","LIN":"12鄰","STREET":"仁愛路","SECT":" ","MAREA":" ","LANE":" ","ALLEY":" ","HOUSE_NO":"２３０號","E_COORD97":181443.39000000001,"N_COORD97":2540519.2799999998,"ADDRESS":"仁愛路２３０號","OBJECTID":543321},"geometry":{"x":181443.3900000006,"y":2540519.2800000031}},{"attributes":{"ID":543349,"DIS_CODE":0,"TOWNNAME":"關廟區","LI":"五甲里","LIN":"12鄰","STREET":"南雄路","SECT":"一段","MAREA":" ","LANE":" ","ALLEY":" ","HOUSE_NO":"１０００號","E_COORD97":181188.64000000001,"N_COORD97":2539567.2799999998,"ADDRESS":"南雄路一段１０００號","OBJECTID":543322},"geometry":{"x":181188.64000000153,"y":2539567.2800000012}},{"attributes":{"ID":543350,"DIS_CODE":0,"TOWNNAME":"關廟區","LI":"北勢里","LIN":"12鄰","STREET":"成功路","SECT":" ","MAREA":" ","LANE":" ","ALLEY":" ","HOUSE_NO":"２７６號","E_COORD97":181453.26999999999,"N_COORD97":2540491.27,"ADDRESS":"成功路２７６號","OBJECTID":543323},"geometry":{"x":181453.26999999955,"y":2540491.2699999996}},{"attributes":{"ID":543351,"DIS_CODE":0,"TOWNNAME":"關廟區","LI":"山西里","LIN":"12鄰","STREET":"崇尚街","SECT":" ","MAREA":" ","LANE":" ","ALLEY":" ","HOUSE_NO":"１０號","E_COORD97":181074.72,"N_COORD97":2540517.25,"ADDRESS":"崇尚街１０號","OBJECTID":543324},"geometry":{"x":181074.7200000016,"y":2540517.2500000019}},{"attributes":{"ID":543352,"DIS_CODE":0,"TOWNNAME":"關廟區","LI":"五甲里","LIN":"12鄰","STREET":"東興一街","SECT":" ","MAREA":" ","LANE":" ","ALLEY":" ","HOUSE_NO":"２號","E_COORD97":181206.82000000001,"N_COORD97":2539629.25,"ADDRESS":"東興一街２號","OBJECTID":543325},"geometry":{"x":181206.82000000216,"y":2539629.2500000019}},{"attributes":{"ID":543353,"DIS_CODE":0,"TOWNNAME":"關廟區","LI":"南花里","LIN":"12鄰","STREET":"明德街","SECT":" ","MAREA":" ","LANE":" ","ALLEY":" ","HOUSE_NO":"３９號","E_COORD97":181676.54000000001,"N_COORD97":2540026.27,"ADDRESS":"明德街３９號","OBJECTID":543326},"geometry":{"x":181676.54000000097,"y":2540026.2700000014}},{"attributes":{"ID":543354,"DIS_CODE":0,"TOWNNAME":"關廟區","LI":"關廟里","LIN":"12鄰","STREET":"民生街","SECT":" ","MAREA":" ","LANE":" ","ALLEY":" ","HOUSE_NO":"１４２號","E_COORD97":180856.69,"N_COORD97":2539784.29,"ADDRESS":"民生街１４２號","OBJECTID":543327},"geometry":{"x":180856.69000000041,"y":2539784.290000001}},{"attributes":{"ID":543355,"DIS_CODE":0,"TOWNNAME":"關廟區","LI":"關廟里","LIN":"12鄰","STREET":"民生街","SECT":" ","MAREA":" ","LANE":" ","ALLEY":" ","HOUSE_NO":"２１０號","E_COORD97":180898.19,"N_COORD97":2539935.29,"ADDRESS":"民生街２１０號","OBJECTID":543328},"geometry":{"x":180898.19000000134,"y":2539935.2899999991}},{"attributes":{"ID":543356,"DIS_CODE":0,"TOWNNAME":"關廟區","LI":"南花里","LIN":"12鄰","STREET":"明德街","SECT":" ","MAREA":" ","LANE":" ","ALLEY":" ","HOUSE_NO":"３８號","E_COORD97":181746.73999999999,"N_COORD97":2540119.27,"ADDRESS":"明德街３８號","OBJECTID":543329},"geometry":{"x":181746.74000000115,"y":2540119.2699999996}},{"attributes":{"ID":543357,"DIS_CODE":0,"TOWNNAME":"關廟區","LI":"關廟里","LIN":"12鄰","STREET":"民生街","SECT":" ","MAREA":" ","LANE":" ","ALLEY":" ","HOUSE_NO":"１６６號","E_COORD97":180865.59,"N_COORD97":2539830.29,"ADDRESS":"民生街１６６號","OBJECTID":543330},"geometry":{"x":180865.59000000078,"y":2539830.2899999991}},{"attributes":{"ID":543358,"DIS_CODE":0,"TOWNNAME":"關廟區","LI":"關廟里","LIN":"12鄰","STREET":"民生街","SECT":" ","MAREA":" ","LANE":" ","ALLEY":" ","HOUSE_NO":"１４６號","E_COORD97":180872.89000000001,"N_COORD97":2539797.29,"ADDRESS":"民生街１４６號","OBJECTID":543331},"geometry":{"x":180872.88999999966,"y":2539797.290000001}},{"attributes":{"ID":543359,"DIS_CODE":0,"TOWNNAME":"關廟區","LI":"埤頭里","LIN":"12鄰","STREET":"保東路","SECT":" ","MAREA":" ","LANE":" ","ALLEY":" ","HOUSE_NO":"２７１號","E_COORD97":178408.32000000001,"N_COORD97":2544009.2999999998,"ADDRESS":"保東路２７１號","OBJECTID":543332},"geometry":{"x":178408.32000000123,"y":2544009.2999999989}},{"attributes":{"ID":543360,"DIS_CODE":0,"TOWNNAME":"關廟區","LI":"關廟里","LIN":"12鄰","STREET":"民生街","SECT":" ","MAREA":" ","LANE":" ","ALLEY":" ","HOUSE_NO":"２１６號","E_COORD97":180902.79000000001,"N_COORD97":2539951.29,"ADDRESS":"民生街２１６號","OBJECTID":543333},"geometry":{"x":180902.79000000004,"y":2539951.2899999991}},{"attributes":{"ID":543361,"DIS_CODE":0,"TOWNNAME":"關廟區","LI":"關廟里","LIN":"12鄰","STREET":"民生街","SECT":" ","MAREA":" ","LANE":" ","ALLEY":" ","HOUSE_NO":"１９２號","E_COORD97":180887.79000000001,"N_COORD97":2539897.29,"ADDRESS":"民生街１９２號","OBJECTID":543334},"geometry":{"x":180887.79000000004,"y":2539897.2899999991}},{"attributes":{"ID":543362,"DIS_CODE":0,"TOWNNAME":"關廟區","LI":"南花里","LIN":"12鄰","STREET":"中山路","SECT":"一段","MAREA":" ","LANE":" ","ALLEY":" ","HOUSE_NO":"２９０號","E_COORD97":181750.45999999999,"N_COORD97":2539930.27,"ADDRESS":"中山路一段２９０號","OBJECTID":543335},"geometry":{"x":181750.46000000089,"y":2539930.2700000014}},{"attributes":{"ID":543363,"DIS_CODE":0,"TOWNNAME":"關廟區","LI":"南花里","LIN":"12鄰","STREET":"中山路","SECT":"一段","MAREA":" ","LANE":" ","ALLEY":" ","HOUSE_NO":"２８６號","E_COORD97":181760.06,"N_COORD97":2539933.2799999998,"ADDRESS":"中山路一段２８６號","OBJECTID":543336},"geometry":{"x":181760.05999999959,"y":2539933.2800000012}},{"attributes":{"ID":543364,"DIS_CODE":0,"TOWNNAME":"關廟區","LI":"南花里","LIN":"12鄰","STREET":"中山路","SECT":"一段","MAREA":" ","LANE":" ","ALLEY":" ","HOUSE_NO":"３０６號","E_COORD97":181720.95999999999,"N_COORD97":2539934.2799999998,"ADDRESS":"中山路一段３０６號","OBJECTID":543337},"geometry":{"x":181720.96000000089,"y":2539934.2800000012}},{"attributes":{"ID":543365,"DIS_CODE":0,"TOWNNAME":"關廟區","LI":"香洋里","LIN":"12鄰","STREET":"中央路","SECT":" ","MAREA":" ","LANE":" ","ALLEY":" ","HOUSE_NO":"２１５號","E_COORD97":181140.76000000001,"N_COORD97":2540092.3199999998,"ADDRESS":"中央路２１５號","OBJECTID":543338},"geometry":{"x":181140.76000000071,"y":2540092.3200000003}},{"attributes":{"ID":543366,"DIS_CODE":0,"TOWNNAME":"關廟區","LI":"香洋里","LIN":"12鄰","STREET":"中央路","SECT":" ","MAREA":" ","LANE":" ","ALLEY":" ","HOUSE_NO":"２１９號","E_COORD97":181132.26000000001,"N_COORD97":2540095.3199999998,"ADDRESS":"中央路２１９號","OBJECTID":543339},"geometry":{"x":181132.26000000071,"y":2540095.3200000003}},{"attributes":{"ID":543367,"DIS_CODE":0,"TOWNNAME":"關廟區","LI":"香洋里","LIN":"12鄰","STREET":"中央路","SECT":" ","MAREA":" ","LANE":" ","ALLEY":" ","HOUSE_NO":"２０３號","E_COORD97":181173.35999999999,"N_COORD97":2540079.3199999998,"ADDRESS":"中央路２０３號","OBJECTID":543340},"geometry":{"x":181173.36000000127,"y":2540079.320000004}},{"attributes":{"ID":543368,"DIS_CODE":0,"TOWNNAME":"關廟區","LI":"深坑里","LIN":"12鄰","STREET":"深坑二街","SECT":" ","MAREA":" ","LANE":" ","ALLEY":" ","HOUSE_NO":"６０號","E_COORD97":181548.87,"N_COORD97":2537563.2999999998,"ADDRESS":"深坑二街６０號","OBJECTID":543341},"geometry":{"x":181548.87000000104,"y":2537563.3000000007}},{"attributes":{"ID":543369,"DIS_CODE":0,"TOWNNAME":"關廟區","LI":"深坑里","LIN":"12鄰","STREET":"深坑二街","SECT":" ","MAREA":" ","LANE":" ","ALLEY":" ","HOUSE_NO":"５８號","E_COORD97":181540.07000000001,"N_COORD97":2537561.2999999998,"ADDRESS":"深坑二街５８號","OBJECTID":543342},"geometry":{"x":181540.0700000003,"y":2537561.3000000026}},{"attributes":{"ID":543370,"DIS_CODE":0,"TOWNNAME":"關廟區","LI":"南花里","LIN":"12鄰","STREET":"中山路","SECT":"一段","MAREA":" ","LANE":" ","ALLEY":" ","HOUSE_NO":"２９２號","E_COORD97":181742.85999999999,"N_COORD97":2539928.2799999998,"ADDRESS":"中山路一段２９２號","OBJECTID":543343},"geometry":{"x":181742.86000000127,"y":2539928.2799999993}},{"attributes":{"ID":543371,"DIS_CODE":0,"TOWNNAME":"關廟區","LI":"深坑里","LIN":"12鄰","STREET":"南雄路","SECT":"一段","MAREA":" ","LANE":" ","ALLEY":" ","HOUSE_NO":"３７１號","E_COORD97":181799.97,"N_COORD97":2537498.2999999998,"ADDRESS":"南雄路一段３７１號","OBJECTID":543344},"geometry":{"x":181799.96999999974,"y":2537498.3000000007}},{"attributes":{"ID":543372,"DIS_CODE":0,"TOWNNAME":"關廟區","LI":"南花里","LIN":"12鄰","STREET":"中山路","SECT":"一段","MAREA":" ","LANE":" ","ALLEY":" ","HOUSE_NO":"３３８號","E_COORD97":181691.35999999999,"N_COORD97":2539912.2799999998,"ADDRESS":"中山路一段３３８號","OBJECTID":543345},"geometry":{"x":181691.3600000022,"y":2539912.2799999975}},{"attributes":{"ID":543373,"DIS_CODE":0,"TOWNNAME":"關廟區","LI":"南花里","LIN":"12鄰","STREET":"中山路","SECT":"一段","MAREA":" ","LANE":" ","ALLEY":" ","HOUSE_NO":"２８８號","E_COORD97":181755.45999999999,"N_COORD97":2539931.2799999998,"ADDRESS":"中山路一段２８８號","OBJECTID":543346},"geometry":{"x":181755.46000000089,"y":2539931.2799999993}},{"attributes":{"ID":543374,"DIS_CODE":0,"TOWNNAME":"關廟區","LI":"香洋里","LIN":"12鄰","STREET":"中央路","SECT":" ","MAREA":" ","LANE":" ","ALLEY":" ","HOUSE_NO":"２２３號","E_COORD97":181120.35999999999,"N_COORD97":2540099.3199999998,"ADDRESS":"中央路２２３號","OBJECTID":543347},"geometry":{"x":181120.36000000127,"y":2540099.3200000003}},{"attributes":{"ID":543375,"DIS_CODE":0,"TOWNNAME":"關廟區","LI":"南花里","LIN":"12鄰","STREET":"中山路","SECT":"一段","MAREA":" ","LANE":" ","ALLEY":" ","HOUSE_NO":"３３２號","E_COORD97":181699.06,"N_COORD97":2539915.2799999998,"ADDRESS":"中山路一段３３２號","OBJECTID":543348},"geometry":{"x":181699.05999999959,"y":2539915.2799999993}},{"attributes":{"ID":543376,"DIS_CODE":0,"TOWNNAME":"關廟區","LI":"深坑里","LIN":"12鄰","STREET":"南雄路","SECT":"一段","MAREA":" ","LANE":" ","ALLEY":" ","HOUSE_NO":"３６７號","E_COORD97":181804.57000000001,"N_COORD97":2537491.2999999998,"ADDRESS":"南雄路一段３６７號","OBJECTID":543349},"geometry":{"x":181804.5700000003,"y":2537491.3000000026}},{"attributes":{"ID":543377,"DIS_CODE":0,"TOWNNAME":"關廟區","LI":"新光里","LIN":"12鄰","STREET":"南寮街","SECT":" ","MAREA":" ","LANE":" ","ALLEY":" ","HOUSE_NO":"５８號","E_COORD97":184439.92000000001,"N_COORD97":2541571.25,"ADDRESS":"南寮街５８號","OBJECTID":543350},"geometry":{"x":184439.91999999993,"y":2541571.2500000037}},{"attributes":{"ID":543378,"DIS_CODE":0,"TOWNNAME":"關廟區","LI":"香洋里","LIN":"12鄰","STREET":"中央路","SECT":" ","MAREA":" ","LANE":" ","ALLEY":" ","HOUSE_NO":"２１３號","E_COORD97":181144.56,"N_COORD97":2540091.3199999998,"ADDRESS":"中央路２１３號","OBJECTID":543351},"geometry":{"x":181144.55999999959,"y":2540091.3200000003}},{"attributes":{"ID":543379,"DIS_CODE":0,"TOWNNAME":"關廟區","LI":"香洋里","LIN":"12鄰","STREET":"中央路","SECT":" ","MAREA":" ","LANE":" ","ALLEY":" ","HOUSE_NO":"２１１號","E_COORD97":181148.85999999999,"N_COORD97":2540089.3199999998,"ADDRESS":"中央路２１１號","OBJECTID":543352},"geometry":{"x":181148.8600000022,"y":2540089.3199999984}},{"attributes":{"ID":543380,"DIS_CODE":0,"TOWNNAME":"關廟區","LI":"香洋里","LIN":"12鄰","STREET":"中央路","SECT":" ","MAREA":" ","LANE":" ","ALLEY":" ","HOUSE_NO":"２０１號","E_COORD97":181177.56,"N_COORD97":2540078.3199999998,"ADDRESS":"中央路２０１號","OBJECTID":543353},"geometry":{"x":181177.56000000052,"y":2540078.3200000003}},{"attributes":{"ID":543381,"DIS_CODE":0,"TOWNNAME":"關廟區","LI":"香洋里","LIN":"12鄰","STREET":"中央路","SECT":" ","MAREA":" ","LANE":" ","ALLEY":" ","HOUSE_NO":"２０９號","E_COORD97":181151.85999999999,"N_COORD97":2540087.3199999998,"ADDRESS":"中央路２０９號","OBJECTID":543354},"geometry":{"x":181151.86000000034,"y":2540087.3200000022}},{"attributes":{"ID":543382,"DIS_CODE":0,"TOWNNAME":"關廟區","LI":"南花里","LIN":"12鄰","STREET":"中山路","SECT":"一段","MAREA":" ","LANE":" ","ALLEY":" ","HOUSE_NO":"２７０號","E_COORD97":181788.85999999999,"N_COORD97":2539942.2799999998,"ADDRESS":"中山路一段２７０號","OBJECTID":543355},"geometry":{"x":181788.86000000034,"y":2539942.2799999993}},{"attributes":{"ID":543383,"DIS_CODE":0,"TOWNNAME":"關廟區","LI":"新光里","LIN":"12鄰","STREET":"南寮街","SECT":" ","MAREA":" ","LANE":" ","ALLEY":" ","HOUSE_NO":"３２號","E_COORD97":184362.92000000001,"N_COORD97":2541550.2999999998,"ADDRESS":"南寮街３２號","OBJECTID":543356},"geometry":{"x":184362.92000000086,"y":2541550.3000000007}},{"attributes":{"ID":543384,"DIS_CODE":0,"TOWNNAME":"關廟區","LI":"香洋里","LIN":"12鄰","STREET":"中央路","SECT":" ","MAREA":" ","LANE":" ","ALLEY":" ","HOUSE_NO":"２２１號","E_COORD97":181126.95999999999,"N_COORD97":2540097.3199999998,"ADDRESS":"中央路２２１號","OBJECTID":543357},"geometry":{"x":181126.95999999996,"y":2540097.3200000022}},{"attributes":{"ID":543385,"DIS_CODE":0,"TOWNNAME":"關廟區","LI":"關廟里","LIN":"12鄰","STREET":"民生街","SECT":" ","MAREA":" ","LANE":" ","ALLEY":" ","HOUSE_NO":"１６２號","E_COORD97":180864.39000000001,"N_COORD97":2539826.29,"ADDRESS":"民生街１６２號","OBJECTID":543358},"geometry":{"x":180864.38999999966,"y":2539826.2899999991}},{"attributes":{"ID":543386,"DIS_CODE":0,"TOWNNAME":"關廟區","LI":"南花里","LIN":"12鄰","STREET":"明德街","SECT":" ","MAREA":" ","LANE":" ","ALLEY":" ","HOUSE_NO":"３５號","E_COORD97":181684.23999999999,"N_COORD97":2540027.27,"ADDRESS":"明德街３５號","OBJECTID":543359},"geometry":{"x":181684.24000000115,"y":2540027.2699999996}},{"attributes":{"ID":543387,"DIS_CODE":0,"TOWNNAME":"關廟區","LI":"南花里","LIN":"12鄰","STREET":"明德街","SECT":" ","MAREA":" ","LANE":" ","ALLEY":" ","HOUSE_NO":"３３號","E_COORD97":181687.64000000001,"N_COORD97":2540028.27,"ADDRESS":"明德街３３號","OBJECTID":543360},"geometry":{"x":181687.6400000006,"y":2540028.2700000033}},{"attributes":{"ID":543388,"DIS_CODE":0,"TOWNNAME":"關廟區","LI":"南花里","LIN":"12鄰","STREET":"和平路","SECT":" ","MAREA":" ","LANE":" ","ALLEY":" ","HOUSE_NO":"２５０號","E_COORD97":181673.23999999999,"N_COORD97":2539914.25,"ADDRESS":"和平路２５０號","OBJECTID":543361},"geometry":{"x":181673.24000000022,"y":2539914.2500000019}},{"attributes":{"ID":543389,"DIS_CODE":0,"TOWNNAME":"關廟區","LI":"關廟里","LIN":"12鄰","STREET":"民生街","SECT":" ","MAREA":" ","LANE":" ","ALLEY":" ","HOUSE_NO":"１９０號","E_COORD97":180887.39000000001,"N_COORD97":2539891.29,"ADDRESS":"民生街１９０號","OBJECTID":543362},"geometry":{"x":180887.3900000006,"y":2539891.2899999991}},{"attributes":{"ID":543390,"DIS_CODE":0,"TOWNNAME":"關廟區","LI":"香洋里","LIN":"12鄰","STREET":"中山路","SECT":"一段","MAREA":" ","LANE":" ","ALLEY":" ","HOUSE_NO":"６０２號","E_COORD97":181173.56,"N_COORD97":2539982.2799999998,"ADDRESS":"中山路一段６０２號","OBJECTID":543363},"geometry":{"x":181173.55999999959,"y":2539982.2799999993}},{"attributes":{"ID":543391,"DIS_CODE":0,"TOWNNAME":"關廟區","LI":"五甲里","LIN":"12鄰","STREET":"南雄路","SECT":"一段","MAREA":" ","LANE":" ","ALLEY":" ","HOUSE_NO":"１０９２號","E_COORD97":181110.54999999999,"N_COORD97":2539734.1699999999,"ADDRESS":"南雄路一段１０９２號","OBJECTID":543364},"geometry":{"x":181110.55000000075,"y":2539734.1700000037}},{"attributes":{"ID":543392,"DIS_CODE":0,"TOWNNAME":"關廟區","LI":"關廟里","LIN":"12鄰","STREET":"民生街","SECT":" ","MAREA":" ","LANE":" ","ALLEY":" ","HOUSE_NO":"１６０號","E_COORD97":180863.59,"N_COORD97":2539822.29,"ADDRESS":"民生街１６０號","OBJECTID":543365},"geometry":{"x":180863.58999999985,"y":2539822.290000001}},{"attributes":{"ID":543393,"DIS_CODE":0,"TOWNNAME":"關廟區","LI":"關廟里","LIN":"12鄰","STREET":"民生街","SECT":" ","MAREA":" ","LANE":" ","ALLEY":" ","HOUSE_NO":"２０８號","E_COORD97":180895.89000000001,"N_COORD97":2539927.29,"ADDRESS":"民生街２０８號","OBJECTID":543366},"geometry":{"x":180895.8900000006,"y":2539927.290000001}},{"attributes":{"ID":543394,"DIS_CODE":0,"TOWNNAME":"關廟區","LI":"南花里","LIN":"12鄰","STREET":"明德街","SECT":" ","MAREA":" ","LANE":" ","ALLEY":" ","HOUSE_NO":"１９號","E_COORD97":181747.94,"N_COORD97":2540035.27,"ADDRESS":"明德街１９號","OBJECTID":543367},"geometry":{"x":181747.94000000041,"y":2540035.2700000014}},{"attributes":{"ID":543395,"DIS_CODE":0,"TOWNNAME":"關廟區","LI":"香洋里","LIN":"12鄰","STREET":"中山路","SECT":"一段","MAREA":" ","LANE":" ","ALLEY":" ","HOUSE_NO":"５８６號","E_COORD97":181205.06,"N_COORD97":2539972.2799999998,"ADDRESS":"中山路一段５８６號","OBJECTID":543368},"geometry":{"x":181205.06000000052,"y":2539972.2799999993}},{"attributes":{"ID":543396,"DIS_CODE":0,"TOWNNAME":"關廟區","LI":"五甲里","LIN":"12鄰","STREET":"南雄路","SECT":"一段","MAREA":" ","LANE":" ","ALLEY":" ","HOUSE_NO":"１０８６號","E_COORD97":181117.04999999999,"N_COORD97":2539720.1699999999,"ADDRESS":"南雄路一段１０８６號","OBJECTID":543369},"geometry":{"x":181117.05000000075,"y":2539720.1699999999}},{"attributes":{"ID":543397,"DIS_CODE":0,"TOWNNAME":"關廟區","LI":"關廟里","LIN":"12鄰","STREET":"民生街","SECT":" ","MAREA":" ","LANE":" ","ALLEY":" ","HOUSE_NO":"１７２號","E_COORD97":180879.79000000001,"N_COORD97":2539843.29,"ADDRESS":"民生街１７２號","OBJECTID":543370},"geometry":{"x":180879.79000000097,"y":2539843.2899999991}},{"attributes":{"ID":543398,"DIS_CODE":0,"TOWNNAME":"關廟區","LI":"南花里","LIN":"12鄰","STREET":"和平路","SECT":" ","MAREA":" ","LANE":" ","ALLEY":" ","HOUSE_NO":"２８８號","E_COORD97":181667.84,"N_COORD97":2539988.25,"ADDRESS":"和平路２８８號","OBJECTID":543371},"geometry":{"x":181667.84000000078,"y":2539988.2500000037}},{"attributes":{"ID":543399,"DIS_CODE":0,"TOWNNAME":"北區","LI":"裕民里","LIN":"12鄰","STREET":"臨安路","SECT":"二段","MAREA":" ","LANE":" ","ALLEY":" ","HOUSE_NO":"１３１號","E_COORD97":167737.66,"N_COORD97":2544864.3999999999,"ADDRESS":"臨安路二段１３１號","OBJECTID":543372},"geometry":{"x":167737.66000000201,"y":2544864.4000000022}},{"attributes":{"ID":543400,"DIS_CODE":0,"TOWNNAME":"北區","LI":"裕民里","LIN":"12鄰","STREET":"臨安路","SECT":"二段","MAREA":" ","LANE":" ","ALLEY":" ","HOUSE_NO":"１３３號","E_COORD97":167741.35000000001,"N_COORD97":2544865.5099999998,"ADDRESS":"臨安路二段１３３號","OBJECTID":543373},"geometry":{"x":167741.35000000056,"y":2544865.5100000016}},{"attributes":{"ID":543401,"DIS_CODE":0,"TOWNNAME":"北區","LI":"裕民里","LIN":"12鄰","STREET":"臨安路","SECT":"二段","MAREA":" ","LANE":" ","ALLEY":" ","HOUSE_NO":"１３５號","E_COORD97":167746.14999999999,"N_COORD97":2544867.7200000002,"ADDRESS":"臨安路二段１３５號","OBJECTID":543374},"geometry":{"x":167746.15000000037,"y":2544867.7200000044}},{"attributes":{"ID":543402,"DIS_CODE":0,"TOWNNAME":"北區","LI":"裕民里","LIN":"12鄰","STREET":"臨安路","SECT":"二段","MAREA":" ","LANE":" ","ALLEY":" ","HOUSE_NO":"１３７號","E_COORD97":167750.22,"N_COORD97":2544868.0899999999,"ADDRESS":"臨安路二段１３７號","OBJECTID":543375},"geometry":{"x":167750.21999999974,"y":2544868.0900000017}},{"attributes":{"ID":543403,"DIS_CODE":0,"TOWNNAME":"北區","LI":"裕民里","LIN":"12鄰","STREET":"臨安路","SECT":"二段","MAREA":" ","LANE":" ","ALLEY":" ","HOUSE_NO":"１３９號","E_COORD97":167756.87,"N_COORD97":2544871.7799999998,"ADDRESS":"臨安路二段１３９號","OBJECTID":543376},"geometry":{"x":167756.87000000104,"y":2544871.7799999993}},{"attributes":{"ID":543404,"DIS_CODE":0,"TOWNNAME":"北區","LI":"裕民里","LIN":"12鄰","STREET":"臨安路","SECT":"二段","MAREA":" ","LANE":" ","ALLEY":" ","HOUSE_NO":"１４１號","E_COORD97":167763.14999999999,"N_COORD97":2544873.6299999999,"ADDRESS":"臨安路二段１４１號","OBJECTID":543377},"geometry":{"x":167763.15000000037,"y":2544873.6300000008}},{"attributes":{"ID":543405,"DIS_CODE":0,"TOWNNAME":"北區","LI":"裕民里","LIN":"12鄰","STREET":"臨安路","SECT":"二段","MAREA":" ","LANE":" ","ALLEY":" ","HOUSE_NO":"７５號","E_COORD97":167660.44,"N_COORD97":2544840.4199999999,"ADDRESS":"臨安路二段７５號","OBJECTID":543378},"geometry":{"x":167660.44000000134,"y":2544840.4199999999}},{"attributes":{"ID":543406,"DIS_CODE":0,"TOWNNAME":"北區","LI":"裕民里","LIN":"12鄰","STREET":"臨安路","SECT":"二段","MAREA":" ","LANE":" ","ALLEY":" ","HOUSE_NO":"７７號","E_COORD97":167667.09,"N_COORD97":2544841.1600000001,"ADDRESS":"臨安路二段７７號","OBJECTID":543379},"geometry":{"x":167667.09000000078,"y":2544841.160000002}},{"attributes":{"ID":543407,"DIS_CODE":0,"TOWNNAME":"北區","LI":"裕民里","LIN":"12鄰","STREET":"臨安路","SECT":"二段","MAREA":" ","LANE":" ","ALLEY":" ","HOUSE_NO":"７９號","E_COORD97":167673,"N_COORD97":2544844.48,"ADDRESS":"臨安路二段７９號","OBJECTID":543380},"geometry":{"x":167673.00000000093,"y":2544844.4800000004}},{"attributes":{"ID":543408,"DIS_CODE":0,"TOWNNAME":"北區","LI":"裕民里","LIN":"12鄰","STREET":"臨安路","SECT":"二段","MAREA":" ","LANE":" ","ALLEY":" ","HOUSE_NO":"８５號","E_COORD97":167684.45999999999,"N_COORD97":2544845.2200000002,"ADDRESS":"臨安路二段８５號","OBJECTID":543381},"geometry":{"x":167684.45999999996,"y":2544845.2200000025}},{"attributes":{"ID":543409,"DIS_CODE":0,"TOWNNAME":"北區","LI":"裕民里","LIN":"12鄰","STREET":"臨安路","SECT":"二段","MAREA":" ","LANE":" ","ALLEY":" ","HOUSE_NO":"８７號","E_COORD97":167689.26000000001,"N_COORD97":2544846.6899999999,"ADDRESS":"臨安路二段８７號","OBJECTID":543382},"geometry":{"x":167689.26000000164,"y":2544846.6900000013}},{"attributes":{"ID":543410,"DIS_CODE":0,"TOWNNAME":"北區","LI":"裕民里","LIN":"12鄰","STREET":"臨安路","SECT":"二段","MAREA":" ","LANE":" ","ALLEY":" ","HOUSE_NO":"８９號","E_COORD97":167692.57999999999,"N_COORD97":2544848.1699999999,"ADDRESS":"臨安路二段８９號","OBJECTID":543383},"geometry":{"x":167692.58000000101,"y":2544848.1700000018}},{"attributes":{"ID":543411,"DIS_CODE":0,"TOWNNAME":"北區","LI":"裕民里","LIN":"12鄰","STREET":"臨安路","SECT":"二段","MAREA":" ","LANE":" ","ALLEY":" ","HOUSE_NO":"９３號","E_COORD97":167712.89999999999,"N_COORD97":2544861.8199999998,"ADDRESS":"臨安路二段９３號","OBJECTID":543384},"geometry":{"x":167712.9000000013,"y":2544861.8200000003}},{"attributes":{"ID":543412,"DIS_CODE":0,"TOWNNAME":"南區","LI":"興農里","LIN":"12鄰","STREET":"明興路","SECT":" ","MAREA":" ","LANE":" ","ALLEY":" ","HOUSE_NO":"１１０７號之５","E_COORD97":166555.39000000001,"N_COORD97":2536556.25,"ADDRESS":"明興路１１０７號之５","OBJECTID":543385},"geometry":{"x":166555.38999999966,"y":2536556.25}},{"attributes":{"ID":543413,"DIS_CODE":0,"TOWNNAME":"南區","LI":"新昌里","LIN":"12鄰","STREET":"西門路","SECT":"一段","MAREA":" ","LANE":" ","ALLEY":" ","HOUSE_NO":"６０５號","E_COORD97":167707.51999999999,"N_COORD97":2542851.3300000001,"ADDRESS":"西門路一段６０５號","OBJECTID":543386},"geometry":{"x":167707.52000000142,"y":2542851.3300000001}},{"attributes":{"ID":543414,"DIS_CODE":0,"TOWNNAME":"南區","LI":"彰南里","LIN":"12鄰","STREET":"新孝路","SECT":" ","MAREA":" ","LANE":" ","ALLEY":" ","HOUSE_NO":"２０９號之１","E_COORD97":165958.85000000001,"N_COORD97":2542054.3500000001,"ADDRESS":"新孝路２０９號之１","OBJECTID":543387},"geometry":{"x":165958.84999999963,"y":2542054.3499999996}},{"attributes":{"ID":543415,"DIS_CODE":0,"TOWNNAME":"南區","LI":"再興里","LIN":"12鄰","STREET":"三官路","SECT":" ","MAREA":" ","LANE":" ","ALLEY":" ","HOUSE_NO":"１９４號","E_COORD97":167191.04999999999,"N_COORD97":2542001.54,"ADDRESS":"三官路１９４號","OBJECTID":543388},"geometry":{"x":167191.05000000075,"y":2542001.5399999991}},{"attributes":{"ID":543416,"DIS_CODE":0,"TOWNNAME":"南區","LI":"彰南里","LIN":"12鄰","STREET":"中華西路","SECT":"一段","MAREA":" ","LANE":" ","ALLEY":" ","HOUSE_NO":"８５號之１","E_COORD97":166346.54000000001,"N_COORD97":2541982.6899999999,"ADDRESS":"中華西路一段８５號之１","OBJECTID":543389},"geometry":{"x":166346.53999999911,"y":2541982.6900000013}},{"attributes":{"ID":543417,"DIS_CODE":0,"TOWNNAME":"南區","LI":"光明里","LIN":"12鄰","STREET":"利南街","SECT":" ","MAREA":" ","LANE":" ","ALLEY":" ","HOUSE_NO":"１１１號","E_COORD97":166728.03,"N_COORD97":2541276.1499999999,"ADDRESS":"利南街１１１號","OBJECTID":543390},"geometry":{"x":166728.03000000026,"y":2541276.1500000004}},{"attributes":{"ID":543418,"DIS_CODE":0,"TOWNNAME":"南區","LI":"光明里","LIN":"12鄰","STREET":"利南街","SECT":" ","MAREA":" ","LANE":" ","ALLEY":" ","HOUSE_NO":"１１３號","E_COORD97":166728.13,"N_COORD97":2541281.4300000002,"ADDRESS":"利南街１１３號","OBJECTID":543391},"geometry":{"x":166728.13000000082,"y":2541281.4299999978}},{"attributes":{"ID":543419,"DIS_CODE":0,"TOWNNAME":"南區","LI":"光明里","LIN":"12鄰","STREET":"利南街","SECT":" ","MAREA":" ","LANE":" ","ALLEY":" ","HOUSE_NO":"１１５號","E_COORD97":166728.03,"N_COORD97":2541286.3300000001,"ADDRESS":"利南街１１５號","OBJECTID":543392},"geometry":{"x":166728.03000000026,"y":2541286.3300000019}},{"attributes":{"ID":543420,"DIS_CODE":0,"TOWNNAME":"安平區","LI":"西門里","LIN":"12鄰","STREET":"古堡街","SECT":" ","MAREA":" ","LANE":" ","ALLEY":" ","HOUSE_NO":"１２８號","E_COORD97":163755.73000000001,"N_COORD97":2544885.3999999999,"ADDRESS":"古堡街１２８號","OBJECTID":543393},"geometry":{"x":163755.73000000138,"y":2544885.4000000004}},{"attributes":{"ID":543421,"DIS_CODE":0,"TOWNNAME":"安平區","LI":"港仔里","LIN":"12鄰","STREET":"延平街","SECT":" ","MAREA":" ","LANE":" ","ALLEY":" ","HOUSE_NO":"２３號","E_COORD97":164288.82000000001,"N_COORD97":2544560.8700000001,"ADDRESS":"延平街２３號","OBJECTID":543394},"geometry":{"x":164288.82000000216,"y":2544560.870000001}},{"attributes":{"ID":543422,"DIS_CODE":0,"TOWNNAME":"安平區","LI":"港仔里","LIN":"12鄰","STREET":"延平街","SECT":" ","MAREA":" ","LANE":" ","ALLEY":" ","HOUSE_NO":"２５號","E_COORD97":164285.14000000001,"N_COORD97":2544562.52,"ADDRESS":"延平街２５號","OBJECTID":543395},"geometry":{"x":164285.13999999966,"y":2544562.5199999977}},{"attributes":{"ID":543423,"DIS_CODE":0,"TOWNNAME":"安平區","LI":"港仔里","LIN":"12鄰","STREET":"延平街","SECT":" ","MAREA":" ","LANE":" ","ALLEY":" ","HOUSE_NO":"２７號","E_COORD97":164281.59,"N_COORD97":2544564.1699999999,"ADDRESS":"延平街２７號","OBJECTID":543396},"geometry":{"x":164281.59000000078,"y":2544564.1699999999}},{"attributes":{"ID":543424,"DIS_CODE":0,"TOWNNAME":"安平區","LI":"港仔里","LIN":"12鄰","STREET":"延平街","SECT":" ","MAREA":" ","LANE":" ","ALLEY":" ","HOUSE_NO":"２９號","E_COORD97":164274.87,"N_COORD97":2544565.3100000001,"ADDRESS":"延平街２９號","OBJECTID":543397},"geometry":{"x":164274.87000000104,"y":2544565.3100000042}},{"attributes":{"ID":543425,"DIS_CODE":0,"TOWNNAME":"安平區","LI":"港仔里","LIN":"12鄰","STREET":"延平街","SECT":" ","MAREA":" ","LANE":" ","ALLEY":" ","HOUSE_NO":"３１號","E_COORD97":164268.34,"N_COORD97":2544567.71,"ADDRESS":"延平街３１號","OBJECTID":543398},"geometry":{"x":164268.34000000078,"y":2544567.7100000028}},{"attributes":{"ID":543426,"DIS_CODE":0,"TOWNNAME":"安平區","LI":"港仔里","LIN":"12鄰","STREET":"安平路","SECT":" ","MAREA":" ","LANE":" ","ALLEY":" ","HOUSE_NO":"１１１號","E_COORD97":164262.60999999999,"N_COORD97":2544487.5800000001,"ADDRESS":"安平路１１１號","OBJECTID":543399},"geometry":{"x":164262.61000000034,"y":2544487.5800000001}},{"attributes":{"ID":543427,"DIS_CODE":0,"TOWNNAME":"安平區","LI":"港仔里","LIN":"12鄰","STREET":"安平路","SECT":" ","MAREA":" ","LANE":" ","ALLEY":" ","HOUSE_NO":"１１３號","E_COORD97":164259.22,"N_COORD97":2544494.1099999999,"ADDRESS":"安平路１１３號","OBJECTID":543400},"geometry":{"x":164259.21999999974,"y":2544494.1100000031}}]}