{"displayFieldName":"TOWNNAME","fieldAliases":{"ID":"ID","DIS_CODE":"DIS_CODE","TOWNNAME":"TOWNNAME","LI":"LI","LIN":"LIN","STREET":"STREET","SECT":"SECT","MAREA":"MAREA","LANE":"LANE","ALLEY":"ALLEY","HOUSE_NO":"HOUSE_NO","E_COORD97":"E_COORD97","N_COORD97":"N_COORD97","ADDRESS":"ADDRESS","OBJECTID":"OBJECTID"},"geometryType":"esriGeometryPoint","spatialReference":{"wkid":102443,"latestWkid":3826},"fields":[{"name":"ID","type":"esriFieldTypeDouble","alias":"ID"},{"name":"DIS_CODE","type":"esriFieldTypeInteger","alias":"DIS_CODE"},{"name":"TOWNNAME","type":"esriFieldTypeString","alias":"TOWNNAME","length":8},{"name":"LI","type":"esriFieldTypeString","alias":"LI","length":8},{"name":"LIN","type":"esriFieldTypeString","alias":"LIN","length":12},{"name":"STREET","type":"esriFieldTypeString","alias":"STREET","length":20},{"name":"SECT","type":"esriFieldTypeString","alias":"SECT","length":8},{"name":"MAREA","type":"esriFieldTypeString","alias":"MAREA","length":12},{"name":"LANE","type":"esriFieldTypeString","alias":"LANE","length":10},{"name":"ALLEY","type":"esriFieldTypeString","alias":"ALLEY","length":10},{"name":"HOUSE_NO","type":"esriFieldTypeString","alias":"HOUSE_NO","length":20},{"name":"E_COORD97","type":"esriFieldTypeDouble","alias":"E_COORD97"},{"name":"N_COORD97","type":"esriFieldTypeDouble","alias":"N_COORD97"},{"name":"ADDRESS","type":"esriFieldTypeString","alias":"ADDRESS","length":50},{"name":"OBJECTID","type":"esriFieldTypeOID","alias":"OBJECTID"}],"features":[{"attributes":{"ID":25601,"DIS_CODE":0,"TOWNNAME":"安南區","LI":"溪北里","LIN":"14鄰","STREET":"府安路","SECT":"四段","MAREA":" ","LANE":"９１巷","ALLEY":"２２弄","HOUSE_NO":"８８號","E_COORD97":169321.95999999999,"N_COORD97":2547414.1299999999,"ADDRESS":"府安路四段９１巷２２弄８８號","OBJECTID":25601},"geometry":{"x":169321.95999999996,"y":2547414.1300000008}},{"attributes":{"ID":25602,"DIS_CODE":0,"TOWNNAME":"安南區","LI":"溪北里","LIN":"14鄰","STREET":"府安路","SECT":"四段","MAREA":" ","LANE":"９１巷","ALLEY":"２２弄","HOUSE_NO":"９２號","E_COORD97":169335.23000000001,"N_COORD97":2547420.6000000001,"ADDRESS":"府安路四段９１巷２２弄９２號","OBJECTID":25602},"geometry":{"x":169335.23000000138,"y":2547420.6000000034}},{"attributes":{"ID":25603,"DIS_CODE":0,"TOWNNAME":"永康區","LI":"龍潭里","LIN":"14鄰","STREET":"龍橋街","SECT":" ","MAREA":" ","LANE":"５３巷","ALLEY":"３６弄","HOUSE_NO":"１２號","E_COORD97":174705.67999999999,"N_COORD97":2548364.79,"ADDRESS":"龍橋街５３巷３６弄１２號","OBJECTID":25603},"geometry":{"x":174705.6799999997,"y":2548364.790000001}},{"attributes":{"ID":25604,"DIS_CODE":0,"TOWNNAME":"永康區","LI":"復興里","LIN":"14鄰","STREET":"復興路","SECT":" ","MAREA":" ","LANE":"２９６巷","ALLEY":"１１弄","HOUSE_NO":"１６號","E_COORD97":172348.88,"N_COORD97":2544402.8700000001,"ADDRESS":"復興路２９６巷１１弄１６號","OBJECTID":25604},"geometry":{"x":172348.88000000082,"y":2544402.8700000029}},{"attributes":{"ID":25605,"DIS_CODE":0,"TOWNNAME":"永康區","LI":"復興里","LIN":"14鄰","STREET":"復興路","SECT":" ","MAREA":" ","LANE":"２９６巷","ALLEY":"１１弄","HOUSE_NO":"１號","E_COORD97":172333.92999999999,"N_COORD97":2544375.0299999998,"ADDRESS":"復興路２９６巷１１弄１號","OBJECTID":25605},"geometry":{"x":172333.9299999997,"y":2544375.0299999993}},{"attributes":{"ID":25606,"DIS_CODE":0,"TOWNNAME":"永康區","LI":"復興里","LIN":"14鄰","STREET":"復興路","SECT":" ","MAREA":" ","LANE":"２９６巷","ALLEY":"１１弄","HOUSE_NO":"５號","E_COORD97":172335.06,"N_COORD97":2544382.7799999998,"ADDRESS":"復興路２９６巷１１弄５號","OBJECTID":25606},"geometry":{"x":172335.05999999866,"y":2544382.7799999993}},{"attributes":{"ID":25607,"DIS_CODE":0,"TOWNNAME":"永康區","LI":"\u25A0行里","LIN":"14鄰","STREET":"中正路","SECT":" ","MAREA":" ","LANE":"６３５巷","ALLEY":"７弄","HOUSE_NO":"７號","E_COORD97":171826.89999999999,"N_COORD97":2548938.75,"ADDRESS":"中正路６３５巷７弄７號","OBJECTID":25607},"geometry":{"x":171826.90000000224,"y":2548938.7500000037}},{"attributes":{"ID":25608,"DIS_CODE":0,"TOWNNAME":"永康區","LI":"復興里","LIN":"14鄰","STREET":"復興路","SECT":" ","MAREA":" ","LANE":"２９６巷","ALLEY":"１１弄","HOUSE_NO":"１０號","E_COORD97":172345.14999999999,"N_COORD97":2544390.9500000002,"ADDRESS":"復興路２９６巷１１弄１０號","OBJECTID":25608},"geometry":{"x":172345.15000000037,"y":2544390.9500000011}},{"attributes":{"ID":25609,"DIS_CODE":0,"TOWNNAME":"永康區","LI":"復興里","LIN":"14鄰","STREET":"復興路","SECT":" ","MAREA":" ","LANE":"２９６巷","ALLEY":"１１弄","HOUSE_NO":"１９號","E_COORD97":172344.82999999999,"N_COORD97":2544406.52,"ADDRESS":"復興路２９６巷１１弄１９號","OBJECTID":25609},"geometry":{"x":172344.83000000101,"y":2544406.5199999977}},{"attributes":{"ID":25610,"DIS_CODE":0,"TOWNNAME":"永康區","LI":"復興里","LIN":"14鄰","STREET":"復興路","SECT":" ","MAREA":" ","LANE":"２９６巷","ALLEY":"１１弄","HOUSE_NO":"１８號","E_COORD97":172349.67999999999,"N_COORD97":2544405.3700000001,"ADDRESS":"復興路２９６巷１１弄１８號","OBJECTID":25610},"geometry":{"x":172349.68000000156,"y":2544405.370000001}},{"attributes":{"ID":25611,"DIS_CODE":0,"TOWNNAME":"仁德區","LI":"二行里","LIN":"14鄰","STREET":"中正西路","SECT":" ","MAREA":" ","LANE":"３５３巷","ALLEY":"１８弄","HOUSE_NO":"７號","E_COORD97":169806.10000000001,"N_COORD97":2535292.2400000002,"ADDRESS":"中正西路３５３巷１８弄７號","OBJECTID":25611},"geometry":{"x":169806.10000000056,"y":2535292.2400000002}},{"attributes":{"ID":25612,"DIS_CODE":0,"TOWNNAME":"仁德區","LI":"上崙里","LIN":"14鄰","STREET":"德崙路","SECT":" ","MAREA":" ","LANE":"３７０巷","ALLEY":"２１弄","HOUSE_NO":"２０號","E_COORD97":174091.57000000001,"N_COORD97":2537997.5099999998,"ADDRESS":"德崙路３７０巷２１弄２０號","OBJECTID":25612},"geometry":{"x":174091.5700000003,"y":2537997.5100000016}},{"attributes":{"ID":25613,"DIS_CODE":0,"TOWNNAME":"仁德區","LI":"上崙里","LIN":"14鄰","STREET":"德崙路","SECT":" ","MAREA":" ","LANE":"３７０巷","ALLEY":"２１弄","HOUSE_NO":"３９之１號","E_COORD97":174150.63,"N_COORD97":2538057.0499999998,"ADDRESS":"德崙路３７０巷２１弄３９之１號","OBJECTID":25613},"geometry":{"x":174150.63000000175,"y":2538057.0500000007}},{"attributes":{"ID":25614,"DIS_CODE":0,"TOWNNAME":"東區","LI":"泉南里","LIN":"14鄰","STREET":"光華街","SECT":" ","MAREA":" ","LANE":"２２９巷","ALLEY":"２８弄","HOUSE_NO":"１３號","E_COORD97":169388.79999999999,"N_COORD97":2542951.77,"ADDRESS":"光華街２２９巷２８弄１３號","OBJECTID":25614},"geometry":{"x":169388.79999999981,"y":2542951.7700000014}},{"attributes":{"ID":25615,"DIS_CODE":0,"TOWNNAME":"東區","LI":"泉南里","LIN":"14鄰","STREET":"光華街","SECT":" ","MAREA":" ","LANE":"２２９巷","ALLEY":"２８弄","HOUSE_NO":"１９號","E_COORD97":169365.17999999999,"N_COORD97":2542952.8399999999,"ADDRESS":"光華街２２９巷２８弄１９號","OBJECTID":25615},"geometry":{"x":169365.18000000063,"y":2542952.8399999999}},{"attributes":{"ID":25616,"DIS_CODE":0,"TOWNNAME":"東區","LI":"泉南里","LIN":"14鄰","STREET":"光華街","SECT":" ","MAREA":" ","LANE":"２２９巷","ALLEY":"２８弄","HOUSE_NO":"１號","E_COORD97":169419.20000000001,"N_COORD97":2542931.7599999998,"ADDRESS":"光華街２２９巷２８弄１號","OBJECTID":25616},"geometry":{"x":169419.20000000205,"y":2542931.7600000016}},{"attributes":{"ID":25617,"DIS_CODE":0,"TOWNNAME":"東區","LI":"泉南里","LIN":"14鄰","STREET":"光華街","SECT":" ","MAREA":" ","LANE":"２２９巷","ALLEY":"２８弄","HOUSE_NO":"３號","E_COORD97":169421.01999999999,"N_COORD97":2542927.2200000002,"ADDRESS":"光華街２２９巷２８弄３號","OBJECTID":25617},"geometry":{"x":169421.01999999955,"y":2542927.2200000007}},{"attributes":{"ID":25618,"DIS_CODE":0,"TOWNNAME":"東區","LI":"泉南里","LIN":"14鄰","STREET":"光華街","SECT":" ","MAREA":" ","LANE":"２２９巷","ALLEY":"２８弄","HOUSE_NO":"５號","E_COORD97":169422.47,"N_COORD97":2542923.9500000002,"ADDRESS":"光華街２２９巷２８弄５號","OBJECTID":25618},"geometry":{"x":169422.47000000067,"y":2542923.9499999993}},{"attributes":{"ID":25619,"DIS_CODE":0,"TOWNNAME":"東區","LI":"泉南里","LIN":"14鄰","STREET":"光華街","SECT":" ","MAREA":" ","LANE":"２２９巷","ALLEY":"２８弄","HOUSE_NO":"７號","E_COORD97":169423.75,"N_COORD97":2542919.04,"ADDRESS":"光華街２２９巷２８弄７號","OBJECTID":25619},"geometry":{"x":169423.75000000186,"y":2542919.040000001}},{"attributes":{"ID":25620,"DIS_CODE":0,"TOWNNAME":"安南區","LI":"新順里","LIN":"14鄰","STREET":"安和路","SECT":"二段","MAREA":" ","LANE":"３１８巷","ALLEY":"１２５弄","HOUSE_NO":"１３３號","E_COORD97":170089.60000000001,"N_COORD97":2549362.5499999998,"ADDRESS":"安和路二段３１８巷１２５弄１３３號","OBJECTID":25620},"geometry":{"x":170089.60000000056,"y":2549362.5500000026}},{"attributes":{"ID":25621,"DIS_CODE":0,"TOWNNAME":"安南區","LI":"頂安里","LIN":"14鄰","STREET":"長溪路","SECT":"一段","MAREA":" ","LANE":"４０７巷","ALLEY":"３２弄","HOUSE_NO":"１２號","E_COORD97":168493.85000000001,"N_COORD97":2548826.1000000001,"ADDRESS":"長溪路一段４０７巷３２弄１２號","OBJECTID":25621},"geometry":{"x":168493.85000000056,"y":2548826.0999999996}},{"attributes":{"ID":25622,"DIS_CODE":0,"TOWNNAME":"安南區","LI":"頂安里","LIN":"14鄰","STREET":"長溪路","SECT":"一段","MAREA":" ","LANE":"４０７巷","ALLEY":"３２弄","HOUSE_NO":"１３號","E_COORD97":168472.42999999999,"N_COORD97":2548802.2999999998,"ADDRESS":"長溪路一段４０７巷３２弄１３號","OBJECTID":25622},"geometry":{"x":168472.4299999997,"y":2548802.3000000007}},{"attributes":{"ID":25623,"DIS_CODE":0,"TOWNNAME":"安南區","LI":"頂安里","LIN":"14鄰","STREET":"長溪路","SECT":"一段","MAREA":" ","LANE":"４０７巷","ALLEY":"３２弄","HOUSE_NO":"１５號","E_COORD97":168468.70000000001,"N_COORD97":2548804.8399999999,"ADDRESS":"長溪路一段４０７巷３２弄１５號","OBJECTID":25623},"geometry":{"x":168468.70000000112,"y":2548804.8399999999}},{"attributes":{"ID":25624,"DIS_CODE":0,"TOWNNAME":"安南區","LI":"頂安里","LIN":"14鄰","STREET":"長溪路","SECT":"一段","MAREA":" ","LANE":"４０７巷","ALLEY":"３２弄","HOUSE_NO":"２６號","E_COORD97":168472.47,"N_COORD97":2548830.3999999999,"ADDRESS":"長溪路一段４０７巷３２弄２６號","OBJECTID":25624},"geometry":{"x":168472.46999999881,"y":2548830.4000000022}},{"attributes":{"ID":25625,"DIS_CODE":0,"TOWNNAME":"中西區","LI":"公正里","LIN":"15鄰","STREET":"衛民街","SECT":" ","MAREA":" ","LANE":" ","ALLEY":" ","HOUSE_NO":"１０６號之４８","E_COORD97":168901.85999999999,"N_COORD97":2543814.3799999999,"ADDRESS":"衛民街１０６號之４８","OBJECTID":25625},"geometry":{"x":168901.86000000127,"y":2543814.3800000008}},{"attributes":{"ID":25626,"DIS_CODE":0,"TOWNNAME":"安南區","LI":"頂安里","LIN":"14鄰","STREET":"長溪路","SECT":"一段","MAREA":" ","LANE":"４０７巷","ALLEY":"３０弄","HOUSE_NO":"１１號","E_COORD97":168495.78,"N_COORD97":2548843.29,"ADDRESS":"長溪路一段４０７巷３０弄１１號","OBJECTID":25626},"geometry":{"x":168495.78000000026,"y":2548843.290000001}},{"attributes":{"ID":25627,"DIS_CODE":0,"TOWNNAME":"大內區","LI":"內郭里","LIN":"8鄰","STREET":" ","SECT":" ","MAREA":"後堀","LANE":" ","ALLEY":" ","HOUSE_NO":"２２號","E_COORD97":185746.85999999999,"N_COORD97":2557453.3199999998,"ADDRESS":"後堀２２號","OBJECTID":25627},"geometry":{"x":185746.86000000127,"y":2557453.3200000022}},{"attributes":{"ID":25628,"DIS_CODE":0,"TOWNNAME":"安南區","LI":"頂安里","LIN":"14鄰","STREET":"長溪路","SECT":"一段","MAREA":" ","LANE":"４０７巷","ALLEY":"３０弄","HOUSE_NO":"１２號","E_COORD97":168514.23999999999,"N_COORD97":2548873.04,"ADDRESS":"長溪路一段４０７巷３０弄１２號","OBJECTID":25628},"geometry":{"x":168514.24000000115,"y":2548873.0399999991}},{"attributes":{"ID":25629,"DIS_CODE":0,"TOWNNAME":"安南區","LI":"頂安里","LIN":"14鄰","STREET":"長溪路","SECT":"一段","MAREA":" ","LANE":"４０７巷","ALLEY":"３０弄","HOUSE_NO":"１３號","E_COORD97":168491.35999999999,"N_COORD97":2548844.5099999998,"ADDRESS":"長溪路一段４０７巷３０弄１３號","OBJECTID":25629},"geometry":{"x":168491.36000000127,"y":2548844.5099999998}},{"attributes":{"ID":25630,"DIS_CODE":0,"TOWNNAME":"安南區","LI":"頂安里","LIN":"14鄰","STREET":"長溪路","SECT":"一段","MAREA":" ","LANE":"４０７巷","ALLEY":"３０弄","HOUSE_NO":"１５號","E_COORD97":168487,"N_COORD97":2548845.7000000002,"ADDRESS":"長溪路一段４０７巷３０弄１５號","OBJECTID":25630},"geometry":{"x":168487.00000000093,"y":2548845.6999999993}},{"attributes":{"ID":25631,"DIS_CODE":0,"TOWNNAME":"安南區","LI":"頂安里","LIN":"14鄰","STREET":"長溪路","SECT":"一段","MAREA":" ","LANE":"４０７巷","ALLEY":"３０弄","HOUSE_NO":"１６號","E_COORD97":168510.23000000001,"N_COORD97":2548875.2200000002,"ADDRESS":"長溪路一段４０７巷３０弄１６號","OBJECTID":25631},"geometry":{"x":168510.23000000045,"y":2548875.2200000044}},{"attributes":{"ID":25632,"DIS_CODE":0,"TOWNNAME":"安南區","LI":"頂安里","LIN":"14鄰","STREET":"長溪路","SECT":"一段","MAREA":" ","LANE":"４０７巷","ALLEY":"３０弄","HOUSE_NO":"１７號","E_COORD97":168482.70999999999,"N_COORD97":2548846.8799999999,"ADDRESS":"長溪路一段４０７巷３０弄１７號","OBJECTID":25632},"geometry":{"x":168482.70999999996,"y":2548846.879999999}},{"attributes":{"ID":25633,"DIS_CODE":0,"TOWNNAME":"安南區","LI":"頂安里","LIN":"14鄰","STREET":"長溪路","SECT":"一段","MAREA":" ","LANE":"４０７巷","ALLEY":"３０弄","HOUSE_NO":"１８號","E_COORD97":168505.10999999999,"N_COORD97":2548876.4700000002,"ADDRESS":"長溪路一段４０７巷３０弄１８號","OBJECTID":25633},"geometry":{"x":168505.11000000127,"y":2548876.4700000007}},{"attributes":{"ID":25634,"DIS_CODE":0,"TOWNNAME":"安南區","LI":"頂安里","LIN":"14鄰","STREET":"長溪路","SECT":"一段","MAREA":" ","LANE":"４０７巷","ALLEY":"３０弄","HOUSE_NO":"１９號","E_COORD97":168476.70999999999,"N_COORD97":2548850.8999999999,"ADDRESS":"長溪路一段４０７巷３０弄１９號","OBJECTID":25634},"geometry":{"x":168476.71000000089,"y":2548850.9000000022}},{"attributes":{"ID":25635,"DIS_CODE":0,"TOWNNAME":"安南區","LI":"頂安里","LIN":"14鄰","STREET":"長溪路","SECT":"一段","MAREA":" ","LANE":"４０７巷","ALLEY":"３０弄","HOUSE_NO":"２０號","E_COORD97":168500.64999999999,"N_COORD97":2548877.5699999998,"ADDRESS":"長溪路一段４０７巷３０弄２０號","OBJECTID":25635},"geometry":{"x":168500.65000000037,"y":2548877.5700000003}},{"attributes":{"ID":25636,"DIS_CODE":0,"TOWNNAME":"安南區","LI":"頂安里","LIN":"14鄰","STREET":"長溪路","SECT":"一段","MAREA":" ","LANE":"４０７巷","ALLEY":"３０弄","HOUSE_NO":"２１號","E_COORD97":168472.07999999999,"N_COORD97":2548853.8100000001,"ADDRESS":"長溪路一段４０７巷３０弄２１號","OBJECTID":25636},"geometry":{"x":168472.07999999914,"y":2548853.8099999987}},{"attributes":{"ID":25637,"DIS_CODE":0,"TOWNNAME":"安南區","LI":"頂安里","LIN":"14鄰","STREET":"長溪路","SECT":"一段","MAREA":" ","LANE":"４０７巷","ALLEY":"３０弄","HOUSE_NO":"２２號","E_COORD97":168496.23000000001,"N_COORD97":2548878.6299999999,"ADDRESS":"長溪路一段４０７巷３０弄２２號","OBJECTID":25637},"geometry":{"x":168496.23000000045,"y":2548878.6300000008}},{"attributes":{"ID":25638,"DIS_CODE":0,"TOWNNAME":"安南區","LI":"頂安里","LIN":"14鄰","STREET":"長溪路","SECT":"一段","MAREA":" ","LANE":"４０７巷","ALLEY":"３０弄","HOUSE_NO":"２６號","E_COORD97":168490.89000000001,"N_COORD97":2548880.25,"ADDRESS":"長溪路一段４０７巷３０弄２６號","OBJECTID":25638},"geometry":{"x":168490.88999999966,"y":2548880.25}},{"attributes":{"ID":25639,"DIS_CODE":0,"TOWNNAME":"安南區","LI":"頂安里","LIN":"14鄰","STREET":"長溪路","SECT":"一段","MAREA":" ","LANE":"４０７巷","ALLEY":"３０弄","HOUSE_NO":"２８號","E_COORD97":168485.95000000001,"N_COORD97":2548879.2200000002,"ADDRESS":"長溪路一段４０７巷３０弄２８號","OBJECTID":25639},"geometry":{"x":168485.95000000019,"y":2548879.2200000025}},{"attributes":{"ID":25640,"DIS_CODE":0,"TOWNNAME":"安南區","LI":"頂安里","LIN":"14鄰","STREET":"長溪路","SECT":"一段","MAREA":" ","LANE":"４０７巷","ALLEY":"３０弄","HOUSE_NO":"３０號","E_COORD97":168479.42000000001,"N_COORD97":2548880.21,"ADDRESS":"長溪路一段４０７巷３０弄３０號","OBJECTID":25640},"geometry":{"x":168479.41999999993,"y":2548880.2100000028}},{"attributes":{"ID":25641,"DIS_CODE":0,"TOWNNAME":"安南區","LI":"頂安里","LIN":"14鄰","STREET":"長溪路","SECT":"一段","MAREA":" ","LANE":"４０７巷","ALLEY":"３０弄","HOUSE_NO":"３２號","E_COORD97":168474.10999999999,"N_COORD97":2548883.54,"ADDRESS":"長溪路一段４０７巷３０弄３２號","OBJECTID":25641},"geometry":{"x":168474.11000000127,"y":2548883.5399999991}},{"attributes":{"ID":25642,"DIS_CODE":0,"TOWNNAME":"安南區","LI":"頂安里","LIN":"14鄰","STREET":"長溪路","SECT":"一段","MAREA":" ","LANE":"４０７巷","ALLEY":"３０弄","HOUSE_NO":"３６號","E_COORD97":168470.26999999999,"N_COORD97":2548883.4100000001,"ADDRESS":"長溪路一段４０７巷３０弄３６號","OBJECTID":25642},"geometry":{"x":168470.26999999862,"y":2548883.4100000039}},{"attributes":{"ID":25643,"DIS_CODE":0,"TOWNNAME":"安南區","LI":"頂安里","LIN":"14鄰","STREET":"長溪路","SECT":"一段","MAREA":" ","LANE":"４０７巷","ALLEY":"３０弄","HOUSE_NO":"３８號","E_COORD97":168465.13,"N_COORD97":2548884.3900000001,"ADDRESS":"長溪路一段４０７巷３０弄３８號","OBJECTID":25643},"geometry":{"x":168465.13000000082,"y":2548884.3900000025}},{"attributes":{"ID":25644,"DIS_CODE":0,"TOWNNAME":"安南區","LI":"頂安里","LIN":"14鄰","STREET":"長溪路","SECT":"一段","MAREA":" ","LANE":"４０７巷","ALLEY":"３０弄","HOUSE_NO":"４０號","E_COORD97":168461.28,"N_COORD97":2548885.48,"ADDRESS":"長溪路一段４０７巷３０弄４０號","OBJECTID":25644},"geometry":{"x":168461.28000000119,"y":2548885.4800000004}},{"attributes":{"ID":25645,"DIS_CODE":0,"TOWNNAME":"安南區","LI":"頂安里","LIN":"14鄰","STREET":"長溪路","SECT":"一段","MAREA":" ","LANE":"４０７巷","ALLEY":"３０弄","HOUSE_NO":"４６號","E_COORD97":168450.29999999999,"N_COORD97":2548889.8199999998,"ADDRESS":"長溪路一段４０７巷３０弄４６號","OBJECTID":25645},"geometry":{"x":168450.30000000075,"y":2548889.8200000003}},{"attributes":{"ID":25646,"DIS_CODE":0,"TOWNNAME":"永康區","LI":"中華里","LIN":"14鄰","STREET":"忠義街","SECT":" ","MAREA":" ","LANE":"４４巷","ALLEY":"１８弄","HOUSE_NO":"２４號","E_COORD97":171768.07000000001,"N_COORD97":2544399.6699999999,"ADDRESS":"忠義街４４巷１８弄２４號","OBJECTID":25646},"geometry":{"x":171768.07000000216,"y":2544399.6700000018}},{"attributes":{"ID":25647,"DIS_CODE":0,"TOWNNAME":"永康區","LI":"中華里","LIN":"14鄰","STREET":"忠義街","SECT":" ","MAREA":" ","LANE":"４４巷","ALLEY":"１８弄","HOUSE_NO":"２號","E_COORD97":171767.67999999999,"N_COORD97":2544447.1400000001,"ADDRESS":"忠義街４４巷１８弄２號","OBJECTID":25647},"geometry":{"x":171767.6799999997,"y":2544447.1400000006}},{"attributes":{"ID":25648,"DIS_CODE":0,"TOWNNAME":"永康區","LI":"中華里","LIN":"14鄰","STREET":"忠義街","SECT":" ","MAREA":" ","LANE":"４４巷","ALLEY":"１８弄","HOUSE_NO":"１４號","E_COORD97":171768.07000000001,"N_COORD97":2544420.8300000001,"ADDRESS":"忠義街４４巷１８弄１４號","OBJECTID":25648},"geometry":{"x":171768.07000000216,"y":2544420.8300000001}},{"attributes":{"ID":25649,"DIS_CODE":0,"TOWNNAME":"永康區","LI":"中華里","LIN":"14鄰","STREET":"忠義街","SECT":" ","MAREA":" ","LANE":"４４巷","ALLEY":"１８弄","HOUSE_NO":"２２號","E_COORD97":171768.07000000001,"N_COORD97":2544404.1600000001,"ADDRESS":"忠義街４４巷１８弄２２號","OBJECTID":25649},"geometry":{"x":171768.07000000216,"y":2544404.160000002}},{"attributes":{"ID":25650,"DIS_CODE":0,"TOWNNAME":"永康區","LI":"中華里","LIN":"14鄰","STREET":"忠義街","SECT":" ","MAREA":" ","LANE":"４４巷","ALLEY":"１８弄","HOUSE_NO":"２６號","E_COORD97":171767.64000000001,"N_COORD97":2544395.6099999999,"ADDRESS":"忠義街４４巷１８弄２６號","OBJECTID":25650},"geometry":{"x":171767.6400000006,"y":2544395.6099999975}},{"attributes":{"ID":25651,"DIS_CODE":0,"TOWNNAME":"永康區","LI":"中華里","LIN":"14鄰","STREET":"忠義街","SECT":" ","MAREA":" ","LANE":"４４巷","ALLEY":"１８弄","HOUSE_NO":"２０號","E_COORD97":171768.07000000001,"N_COORD97":2544408.2200000002,"ADDRESS":"忠義街４４巷１８弄２０號","OBJECTID":25651},"geometry":{"x":171768.07000000216,"y":2544408.2200000025}},{"attributes":{"ID":25652,"DIS_CODE":0,"TOWNNAME":"永康區","LI":"中華里","LIN":"14鄰","STREET":"忠義街","SECT":" ","MAREA":" ","LANE":"４４巷","ALLEY":"１８弄","HOUSE_NO":"１０號","E_COORD97":171768.28,"N_COORD97":2544429.1699999999,"ADDRESS":"忠義街４４巷１８弄１０號","OBJECTID":25652},"geometry":{"x":171768.28000000212,"y":2544429.1699999999}},{"attributes":{"ID":25653,"DIS_CODE":0,"TOWNNAME":"永康區","LI":"中華里","LIN":"14鄰","STREET":"忠義街","SECT":" ","MAREA":" ","LANE":"４４巷","ALLEY":"１８弄","HOUSE_NO":"６號","E_COORD97":171767.25,"N_COORD97":2544438.1600000001,"ADDRESS":"忠義街４４巷１８弄６號","OBJECTID":25653},"geometry":{"x":171767.25000000093,"y":2544438.160000002}},{"attributes":{"ID":25654,"DIS_CODE":0,"TOWNNAME":"安平區","LI":"建平里","LIN":"8鄰","STREET":"府前路","SECT":"二段","MAREA":" ","LANE":" ","ALLEY":" ","HOUSE_NO":"５７６號","E_COORD97":166439.89000000001,"N_COORD97":2543769.1800000002,"ADDRESS":"府前路二段５７６號","OBJECTID":25654},"geometry":{"x":166439.88999999966,"y":2543769.1800000016}},{"attributes":{"ID":25655,"DIS_CODE":0,"TOWNNAME":"安南區","LI":"安西里","LIN":"14鄰","STREET":"安和路","SECT":"一段","MAREA":" ","LANE":"１５９巷","ALLEY":"８５弄","HOUSE_NO":"１７號","E_COORD97":169148.31,"N_COORD97":2547863.0099999998,"ADDRESS":"安和路一段１５９巷８５弄１７號","OBJECTID":25655},"geometry":{"x":169148.31000000145,"y":2547863.0100000016}},{"attributes":{"ID":25656,"DIS_CODE":0,"TOWNNAME":"安南區","LI":"安和里","LIN":"14鄰","STREET":"安和路","SECT":"一段","MAREA":" ","LANE":"９６巷","ALLEY":"４２弄","HOUSE_NO":"８號","E_COORD97":169605.20999999999,"N_COORD97":2547667.8100000001,"ADDRESS":"安和路一段９６巷４２弄８號","OBJECTID":25656},"geometry":{"x":169605.20999999903,"y":2547667.8100000024}},{"attributes":{"ID":25657,"DIS_CODE":0,"TOWNNAME":"安南區","LI":"安和里","LIN":"14鄰","STREET":"安和路","SECT":"一段","MAREA":" ","LANE":"９６巷","ALLEY":"４２弄","HOUSE_NO":"３３號","E_COORD97":169682.60999999999,"N_COORD97":2547642.9500000002,"ADDRESS":"安和路一段９６巷４２弄３３號","OBJECTID":25657},"geometry":{"x":169682.6100000022,"y":2547642.9500000011}},{"attributes":{"ID":25658,"DIS_CODE":0,"TOWNNAME":"安南區","LI":"安和里","LIN":"14鄰","STREET":"安和路","SECT":"一段","MAREA":" ","LANE":"９６巷","ALLEY":"４２弄","HOUSE_NO":"２號","E_COORD97":169589.57000000001,"N_COORD97":2547678.6299999999,"ADDRESS":"安和路一段９６巷４２弄２號","OBJECTID":25658},"geometry":{"x":169589.57000000216,"y":2547678.6300000008}},{"attributes":{"ID":25659,"DIS_CODE":0,"TOWNNAME":"安南區","LI":"安和里","LIN":"14鄰","STREET":"安和路","SECT":"一段","MAREA":" ","LANE":"９６巷","ALLEY":"４２弄","HOUSE_NO":"１６號","E_COORD97":169625.07000000001,"N_COORD97":2547653.9900000002,"ADDRESS":"安和路一段９６巷４２弄１６號","OBJECTID":25659},"geometry":{"x":169625.0700000003,"y":2547653.9900000002}},{"attributes":{"ID":25660,"DIS_CODE":0,"TOWNNAME":"安南區","LI":"安東里","LIN":"14鄰","STREET":"安和路","SECT":"一段","MAREA":" ","LANE":"２２０巷","ALLEY":"４４弄","HOUSE_NO":"２９號","E_COORD97":169516.66,"N_COORD97":2547911.5,"ADDRESS":"安和路一段２２０巷４４弄２９號","OBJECTID":25660},"geometry":{"x":169516.66000000108,"y":2547911.5}},{"attributes":{"ID":25661,"DIS_CODE":0,"TOWNNAME":"安南區","LI":"安東里","LIN":"14鄰","STREET":"安和路","SECT":"一段","MAREA":" ","LANE":"２２０巷","ALLEY":"４４弄","HOUSE_NO":"２７號","E_COORD97":169511.20999999999,"N_COORD97":2547915.8999999999,"ADDRESS":"安和路一段２２０巷４４弄２７號","OBJECTID":25661},"geometry":{"x":169511.20999999996,"y":2547915.9000000004}},{"attributes":{"ID":25662,"DIS_CODE":0,"TOWNNAME":"安南區","LI":"安東里","LIN":"14鄰","STREET":"安和路","SECT":"一段","MAREA":" ","LANE":"２２０巷","ALLEY":"４４弄","HOUSE_NO":"２５號","E_COORD97":169506.79999999999,"N_COORD97":2547919.8799999999,"ADDRESS":"安和路一段２２０巷４４弄２５號","OBJECTID":25662},"geometry":{"x":169506.80000000075,"y":2547919.8800000008}},{"attributes":{"ID":25663,"DIS_CODE":0,"TOWNNAME":"安南區","LI":"安富里","LIN":"14鄰","STREET":"安富街","SECT":" ","MAREA":" ","LANE":"２５１巷","ALLEY":"５６弄","HOUSE_NO":"４７號","E_COORD97":167384.57999999999,"N_COORD97":2547262.4900000002,"ADDRESS":"安富街２５１巷５６弄４７號","OBJECTID":25663},"geometry":{"x":167384.58000000101,"y":2547262.4900000039}},{"attributes":{"ID":25664,"DIS_CODE":0,"TOWNNAME":"安南區","LI":"安富里","LIN":"14鄰","STREET":"安富街","SECT":" ","MAREA":" ","LANE":"２５１巷","ALLEY":"５６弄","HOUSE_NO":"５４號","E_COORD97":167378.17999999999,"N_COORD97":2547279.6099999999,"ADDRESS":"安富街２５１巷５６弄５４號","OBJECTID":25664},"geometry":{"x":167378.18000000063,"y":2547279.6099999994}},{"attributes":{"ID":25665,"DIS_CODE":0,"TOWNNAME":"安南區","LI":"安富里","LIN":"14鄰","STREET":"安富街","SECT":" ","MAREA":" ","LANE":"２５１巷","ALLEY":"５６弄","HOUSE_NO":"２號","E_COORD97":167532.88,"N_COORD97":2547309.2400000002,"ADDRESS":"安富街２５１巷５６弄２號","OBJECTID":25665},"geometry":{"x":167532.88000000082,"y":2547309.2400000021}},{"attributes":{"ID":25666,"DIS_CODE":0,"TOWNNAME":"安南區","LI":"安富里","LIN":"14鄰","STREET":"安富街","SECT":" ","MAREA":" ","LANE":"２５１巷","ALLEY":"５６弄","HOUSE_NO":"２２號","E_COORD97":167475.73999999999,"N_COORD97":2547298.1299999999,"ADDRESS":"安富街２５１巷５６弄２２號","OBJECTID":25666},"geometry":{"x":167475.74000000022,"y":2547298.1300000008}},{"attributes":{"ID":25667,"DIS_CODE":0,"TOWNNAME":"安南區","LI":"安富里","LIN":"14鄰","STREET":"安富街","SECT":" ","MAREA":" ","LANE":"２５１巷","ALLEY":"５６弄","HOUSE_NO":"３號","E_COORD97":167532.56,"N_COORD97":2547287.02,"ADDRESS":"安富街２５１巷５６弄３號","OBJECTID":25667},"geometry":{"x":167532.55999999866,"y":2547287.0199999996}},{"attributes":{"ID":25668,"DIS_CODE":0,"TOWNNAME":"善化區","LI":"坐駕里","LIN":"14鄰","STREET":"大成路","SECT":" ","MAREA":" ","LANE":"３６７巷","ALLEY":"４０弄","HOUSE_NO":"３號","E_COORD97":178225.13,"N_COORD97":2558616.75,"ADDRESS":"大成路３６７巷４０弄３號","OBJECTID":25668},"geometry":{"x":178225.12999999989,"y":2558616.75}},{"attributes":{"ID":25669,"DIS_CODE":0,"TOWNNAME":"永康區","LI":"復興里","LIN":"14鄰","STREET":"復興路","SECT":" ","MAREA":" ","LANE":"２９６巷","ALLEY":"１１弄","HOUSE_NO":"９號","E_COORD97":172337.62,"N_COORD97":2544389.77,"ADDRESS":"復興路２９６巷１１弄９號","OBJECTID":25669},"geometry":{"x":172337.62000000104,"y":2544389.7700000014}},{"attributes":{"ID":25670,"DIS_CODE":0,"TOWNNAME":"永康區","LI":"復興里","LIN":"14鄰","STREET":"復興路","SECT":" ","MAREA":" ","LANE":"２９６巷","ALLEY":"１１弄","HOUSE_NO":"７號","E_COORD97":172336.60999999999,"N_COORD97":2544387.02,"ADDRESS":"復興路２９６巷１１弄７號","OBJECTID":25670},"geometry":{"x":172336.61000000034,"y":2544387.0200000014}},{"attributes":{"ID":25671,"DIS_CODE":0,"TOWNNAME":"永康區","LI":"\u25A0行里","LIN":"14鄰","STREET":"中正路","SECT":" ","MAREA":" ","LANE":"６３５巷","ALLEY":"７弄","HOUSE_NO":"１９號","E_COORD97":171874.32000000001,"N_COORD97":2548906.75,"ADDRESS":"中正路６３５巷７弄１９號","OBJECTID":25671},"geometry":{"x":171874.3200000003,"y":2548906.75}},{"attributes":{"ID":25672,"DIS_CODE":0,"TOWNNAME":"永康區","LI":"復興里","LIN":"14鄰","STREET":"復興路","SECT":" ","MAREA":" ","LANE":"２９６巷","ALLEY":"１１弄","HOUSE_NO":"３號","E_COORD97":172333.82999999999,"N_COORD97":2544379.5299999998,"ADDRESS":"復興路２９６巷１１弄３號","OBJECTID":25672},"geometry":{"x":172333.83000000194,"y":2544379.5300000031}},{"attributes":{"ID":25673,"DIS_CODE":0,"TOWNNAME":"永康區","LI":"\u25A0行里","LIN":"14鄰","STREET":"中正路","SECT":" ","MAREA":" ","LANE":"６３５巷","ALLEY":"７弄","HOUSE_NO":"５號","E_COORD97":171821.92000000001,"N_COORD97":2548944.4900000002,"ADDRESS":"中正路６３５巷７弄５號","OBJECTID":25673},"geometry":{"x":171821.92000000086,"y":2548944.4900000021}},{"attributes":{"ID":25674,"DIS_CODE":0,"TOWNNAME":"永康區","LI":"復興里","LIN":"14鄰","STREET":"復興路","SECT":" ","MAREA":" ","LANE":"２９６巷","ALLEY":"１１弄","HOUSE_NO":"２１號","E_COORD97":172346.17999999999,"N_COORD97":2544409.77,"ADDRESS":"復興路２９６巷１１弄２１號","OBJECTID":25674},"geometry":{"x":172346.1799999997,"y":2544409.7700000014}},{"attributes":{"ID":25675,"DIS_CODE":0,"TOWNNAME":"永康區","LI":"\u25A0行里","LIN":"14鄰","STREET":"中正路","SECT":" ","MAREA":" ","LANE":"６３５巷","ALLEY":"７弄","HOUSE_NO":"１５號","E_COORD97":171866.32000000001,"N_COORD97":2548913.5,"ADDRESS":"中正路６３５巷７弄１５號","OBJECTID":25675},"geometry":{"x":171866.32000000216,"y":2548913.5000000019}},{"attributes":{"ID":25676,"DIS_CODE":0,"TOWNNAME":"官田區","LI":"社子里","LIN":"8鄰","STREET":" ","SECT":" ","MAREA":"社子","LANE":" ","ALLEY":" ","HOUSE_NO":"６１號","E_COORD97":184446.37,"N_COORD97":2564370.4900000002,"ADDRESS":"社子６１號","OBJECTID":25676},"geometry":{"x":184446.37000000104,"y":2564370.4900000021}},{"attributes":{"ID":25677,"DIS_CODE":0,"TOWNNAME":"永康區","LI":"龍潭里","LIN":"14鄰","STREET":"龍橋街","SECT":" ","MAREA":" ","LANE":"５３巷","ALLEY":"３６弄","HOUSE_NO":"７號","E_COORD97":174699.63,"N_COORD97":2548325.2400000002,"ADDRESS":"龍橋街５３巷３６弄７號","OBJECTID":25677},"geometry":{"x":174699.62999999989,"y":2548325.2400000039}},{"attributes":{"ID":25678,"DIS_CODE":0,"TOWNNAME":"永康區","LI":"龍潭里","LIN":"14鄰","STREET":"龍橋街","SECT":" ","MAREA":" ","LANE":"５３巷","ALLEY":"３６弄","HOUSE_NO":"８號","E_COORD97":174702.85999999999,"N_COORD97":2548341.4199999999,"ADDRESS":"龍橋街５３巷３６弄８號","OBJECTID":25678},"geometry":{"x":174702.86000000127,"y":2548341.4200000018}},{"attributes":{"ID":25679,"DIS_CODE":0,"TOWNNAME":"永康區","LI":"復興里","LIN":"14鄰","STREET":"復興路","SECT":" ","MAREA":" ","LANE":"２９６巷","ALLEY":"１１弄","HOUSE_NO":"１７號","E_COORD97":172344.12,"N_COORD97":2544404.02,"ADDRESS":"復興路２９６巷１１弄１７號","OBJECTID":25679},"geometry":{"x":172344.12000000104,"y":2544404.0200000014}},{"attributes":{"ID":25680,"DIS_CODE":0,"TOWNNAME":"永康區","LI":"龍潭里","LIN":"14鄰","STREET":"龍埔街","SECT":" ","MAREA":" ","LANE":"１５０巷","ALLEY":"２弄","HOUSE_NO":"４號","E_COORD97":174451.88,"N_COORD97":2548306.9300000002,"ADDRESS":"龍埔街１５０巷２弄４號","OBJECTID":25680},"geometry":{"x":174451.87999999989,"y":2548306.9300000016}},{"attributes":{"ID":25681,"DIS_CODE":0,"TOWNNAME":"永康區","LI":"龍潭里","LIN":"14鄰","STREET":"龍橋街","SECT":" ","MAREA":" ","LANE":"５３巷","ALLEY":"３６弄","HOUSE_NO":"１６號","E_COORD97":174685.41,"N_COORD97":2548361.75,"ADDRESS":"龍橋街５３巷３６弄１６號","OBJECTID":25681},"geometry":{"x":174685.41000000108,"y":2548361.75}},{"attributes":{"ID":25682,"DIS_CODE":0,"TOWNNAME":"永康區","LI":"復興里","LIN":"14鄰","STREET":"復興路","SECT":" ","MAREA":" ","LANE":"２９６巷","ALLEY":"１１弄","HOUSE_NO":"１１號","E_COORD97":172341.06,"N_COORD97":2544395.77,"ADDRESS":"復興路２９６巷１１弄１１號","OBJECTID":25682},"geometry":{"x":172341.06000000052,"y":2544395.7700000014}},{"attributes":{"ID":25683,"DIS_CODE":0,"TOWNNAME":"永康區","LI":"\u25A0行里","LIN":"14鄰","STREET":"中正路","SECT":" ","MAREA":" ","LANE":"６３５巷","ALLEY":"７弄","HOUSE_NO":"３號","E_COORD97":171821.94,"N_COORD97":2548960.7400000002,"ADDRESS":"中正路６３５巷７弄３號","OBJECTID":25683},"geometry":{"x":171821.94000000134,"y":2548960.7400000021}},{"attributes":{"ID":25684,"DIS_CODE":0,"TOWNNAME":"永康區","LI":"\u25A0行里","LIN":"14鄰","STREET":"中正路","SECT":" ","MAREA":" ","LANE":"６３５巷","ALLEY":"７弄","HOUSE_NO":"１７號","E_COORD97":171870.82000000001,"N_COORD97":2548909.75,"ADDRESS":"中正路６３５巷７弄１７號","OBJECTID":25684},"geometry":{"x":171870.8200000003,"y":2548909.7500000019}},{"attributes":{"ID":25685,"DIS_CODE":0,"TOWNNAME":"永康區","LI":"\u25A0行里","LIN":"14鄰","STREET":"中正路","SECT":" ","MAREA":" ","LANE":"６３５巷","ALLEY":"７弄","HOUSE_NO":"１３號","E_COORD97":171862.78,"N_COORD97":2548916.25,"ADDRESS":"中正路６３５巷７弄１３號","OBJECTID":25685},"geometry":{"x":171862.78000000026,"y":2548916.2500000019}},{"attributes":{"ID":25686,"DIS_CODE":0,"TOWNNAME":"新營區","LI":"三仙里","LIN":"4鄰","STREET":"正義街","SECT":" ","MAREA":" ","LANE":" ","ALLEY":" ","HOUSE_NO":"１號","E_COORD97":179658.51999999999,"N_COORD97":2578040.54,"ADDRESS":"正義街１號","OBJECTID":25686},"geometry":{"x":179658.51999999862,"y":2578040.5399999991}},{"attributes":{"ID":25687,"DIS_CODE":0,"TOWNNAME":"永康區","LI":"復興里","LIN":"14鄰","STREET":"復興路","SECT":" ","MAREA":" ","LANE":"２９６巷","ALLEY":"１１弄","HOUSE_NO":"２０號","E_COORD97":172350.28,"N_COORD97":2544407.98,"ADDRESS":"復興路２９６巷１１弄２０號","OBJECTID":25687},"geometry":{"x":172350.28000000119,"y":2544407.9800000042}},{"attributes":{"ID":25688,"DIS_CODE":0,"TOWNNAME":"永康區","LI":"復興里","LIN":"14鄰","STREET":"復興路","SECT":" ","MAREA":" ","LANE":"２９６巷","ALLEY":"１１弄","HOUSE_NO":"１５號","E_COORD97":172343.06,"N_COORD97":2544401.27,"ADDRESS":"復興路２９６巷１１弄１５號","OBJECTID":25688},"geometry":{"x":172343.05999999959,"y":2544401.2699999996}},{"attributes":{"ID":25689,"DIS_CODE":0,"TOWNNAME":"永康區","LI":"復興里","LIN":"14鄰","STREET":"復興路","SECT":" ","MAREA":" ","LANE":"２９６巷","ALLEY":"１１弄","HOUSE_NO":"６號","E_COORD97":172342.13,"N_COORD97":2544385.2000000002,"ADDRESS":"復興路２９６巷１１弄６號","OBJECTID":25689},"geometry":{"x":172342.13000000082,"y":2544385.2000000011}},{"attributes":{"ID":25690,"DIS_CODE":0,"TOWNNAME":"東區","LI":"富強里","LIN":"14鄰","STREET":"裕農路","SECT":" ","MAREA":" ","LANE":"２８８巷","ALLEY":"１４７弄","HOUSE_NO":"２３號","E_COORD97":171139.73999999999,"N_COORD97":2542911.3300000001,"ADDRESS":"裕農路２８８巷１４７弄２３號","OBJECTID":25690},"geometry":{"x":171139.74000000115,"y":2542911.3300000019}},{"attributes":{"ID":25691,"DIS_CODE":0,"TOWNNAME":"東區","LI":"富強里","LIN":"14鄰","STREET":"裕農路","SECT":" ","MAREA":" ","LANE":"２８８巷","ALLEY":"１４７弄","HOUSE_NO":"２５號","E_COORD97":171144.10000000001,"N_COORD97":2542911.54,"ADDRESS":"裕農路２８８巷１４７弄２５號","OBJECTID":25691},"geometry":{"x":171144.09999999963,"y":2542911.540000001}},{"attributes":{"ID":25692,"DIS_CODE":0,"TOWNNAME":"東區","LI":"和平里","LIN":"14鄰","STREET":"東門路","SECT":"三段","MAREA":" ","LANE":"２２６巷","ALLEY":"１１７弄","HOUSE_NO":"１０號","E_COORD97":171406.42999999999,"N_COORD97":2541832.5,"ADDRESS":"東門路三段２２６巷１１７弄１０號","OBJECTID":25692},"geometry":{"x":171406.4299999997,"y":2541832.5}},{"attributes":{"ID":25693,"DIS_CODE":0,"TOWNNAME":"東區","LI":"和平里","LIN":"14鄰","STREET":"東門路","SECT":"三段","MAREA":" ","LANE":"２２６巷","ALLEY":"１１７弄","HOUSE_NO":"１８號","E_COORD97":171407.04999999999,"N_COORD97":2541814.0699999998,"ADDRESS":"東門路三段２２６巷１１７弄１８號","OBJECTID":25693},"geometry":{"x":171407.05000000075,"y":2541814.0700000022}},{"attributes":{"ID":25694,"DIS_CODE":0,"TOWNNAME":"東區","LI":"和平里","LIN":"14鄰","STREET":"東門路","SECT":"三段","MAREA":" ","LANE":"２２６巷","ALLEY":"１１７弄","HOUSE_NO":"２０號","E_COORD97":171406.84,"N_COORD97":2541809.9700000002,"ADDRESS":"東門路三段２２６巷１１７弄２０號","OBJECTID":25694},"geometry":{"x":171406.84000000078,"y":2541809.9700000007}},{"attributes":{"ID":25695,"DIS_CODE":0,"TOWNNAME":"東區","LI":"和平里","LIN":"14鄰","STREET":"東門路","SECT":"三段","MAREA":" ","LANE":"２２６巷","ALLEY":"１１７弄","HOUSE_NO":"２２號","E_COORD97":171407.67000000001,"N_COORD97":2541805.9300000002,"ADDRESS":"東門路三段２２６巷１１７弄２２號","OBJECTID":25695},"geometry":{"x":171407.67000000086,"y":2541805.9299999997}},{"attributes":{"ID":25696,"DIS_CODE":0,"TOWNNAME":"東區","LI":"和平里","LIN":"14鄰","STREET":"東門路","SECT":"三段","MAREA":" ","LANE":"２２６巷","ALLEY":"１１７弄","HOUSE_NO":"２４號","E_COORD97":171406.85000000001,"N_COORD97":2541801.6200000001,"ADDRESS":"東門路三段２２６巷１１７弄２４號","OBJECTID":25696},"geometry":{"x":171406.84999999963,"y":2541801.6200000029}},{"attributes":{"ID":25697,"DIS_CODE":0,"TOWNNAME":"東區","LI":"和平里","LIN":"14鄰","STREET":"東門路","SECT":"三段","MAREA":" ","LANE":"２２６巷","ALLEY":"１１７弄","HOUSE_NO":"２６號","E_COORD97":171406.85000000001,"N_COORD97":2541797.3199999998,"ADDRESS":"東門路三段２２６巷１１７弄２６號","OBJECTID":25697},"geometry":{"x":171406.84999999963,"y":2541797.3200000003}},{"attributes":{"ID":25698,"DIS_CODE":0,"TOWNNAME":"東區","LI":"和平里","LIN":"14鄰","STREET":"東門路","SECT":"三段","MAREA":" ","LANE":"２２６巷","ALLEY":"１１７弄","HOUSE_NO":"２８號","E_COORD97":171407.45999999999,"N_COORD97":2541793.23,"ADDRESS":"東門路三段２２６巷１１７弄２８號","OBJECTID":25698},"geometry":{"x":171407.46000000089,"y":2541793.2300000023}},{"attributes":{"ID":25699,"DIS_CODE":0,"TOWNNAME":"東區","LI":"和平里","LIN":"14鄰","STREET":"東門路","SECT":"三段","MAREA":" ","LANE":"２２６巷","ALLEY":"１１７弄","HOUSE_NO":"２號","E_COORD97":171406.23000000001,"N_COORD97":2541850.73,"ADDRESS":"東門路三段２２６巷１１７弄２號","OBJECTID":25699},"geometry":{"x":171406.23000000138,"y":2541850.7300000023}},{"attributes":{"ID":25700,"DIS_CODE":0,"TOWNNAME":"東區","LI":"和平里","LIN":"14鄰","STREET":"東門路","SECT":"三段","MAREA":" ","LANE":"２２６巷","ALLEY":"１１７弄","HOUSE_NO":"３０號","E_COORD97":171407.26000000001,"N_COORD97":2541788.52,"ADDRESS":"東門路三段２２６巷１１７弄３０號","OBJECTID":25700},"geometry":{"x":171407.26000000071,"y":2541788.5199999996}},{"attributes":{"ID":25701,"DIS_CODE":0,"TOWNNAME":"東區","LI":"和平里","LIN":"14鄰","STREET":"東門路","SECT":"三段","MAREA":" ","LANE":"２２６巷","ALLEY":"１１７弄","HOUSE_NO":"３２號","E_COORD97":171407.26000000001,"N_COORD97":2541783.6000000001,"ADDRESS":"東門路三段２２６巷１１７弄３２號","OBJECTID":25701},"geometry":{"x":171407.26000000071,"y":2541783.6000000015}},{"attributes":{"ID":25702,"DIS_CODE":0,"TOWNNAME":"東區","LI":"和平里","LIN":"14鄰","STREET":"東門路","SECT":"三段","MAREA":" ","LANE":"２２６巷","ALLEY":"１１７弄","HOUSE_NO":"３４號","E_COORD97":171408.48999999999,"N_COORD97":2541779.71,"ADDRESS":"東門路三段２２６巷１１７弄３４號","OBJECTID":25702},"geometry":{"x":171408.49000000022,"y":2541779.7100000028}},{"attributes":{"ID":25703,"DIS_CODE":0,"TOWNNAME":"東區","LI":"和平里","LIN":"14鄰","STREET":"東門路","SECT":"三段","MAREA":" ","LANE":"２２６巷","ALLEY":"１１７弄","HOUSE_NO":"３６號","E_COORD97":171408.28,"N_COORD97":2541775.6200000001,"ADDRESS":"東門路三段２２６巷１１７弄３６號","OBJECTID":25703},"geometry":{"x":171408.28000000026,"y":2541775.620000001}},{"attributes":{"ID":25704,"DIS_CODE":0,"TOWNNAME":"東區","LI":"和平里","LIN":"14鄰","STREET":"東門路","SECT":"三段","MAREA":" ","LANE":"２２６巷","ALLEY":"１１７弄","HOUSE_NO":"４０號","E_COORD97":171408.89999999999,"N_COORD97":2541767.0099999998,"ADDRESS":"東門路三段２２６巷１１７弄４０號","OBJECTID":25704},"geometry":{"x":171408.9000000013,"y":2541767.0100000016}},{"attributes":{"ID":25705,"DIS_CODE":0,"TOWNNAME":"東區","LI":"和平里","LIN":"14鄰","STREET":"東門路","SECT":"三段","MAREA":" ","LANE":"２２６巷","ALLEY":"１１７弄","HOUSE_NO":"４號","E_COORD97":171406.23000000001,"N_COORD97":2541846.02,"ADDRESS":"東門路三段２２６巷１１７弄４號","OBJECTID":25705},"geometry":{"x":171406.23000000138,"y":2541846.0199999996}},{"attributes":{"ID":25706,"DIS_CODE":0,"TOWNNAME":"東區","LI":"和平里","LIN":"14鄰","STREET":"東門路","SECT":"三段","MAREA":" ","LANE":"２２６巷","ALLEY":"１１７弄","HOUSE_NO":"６號","E_COORD97":171406.64000000001,"N_COORD97":2541841.3100000001,"ADDRESS":"東門路三段２２６巷１１７弄６號","OBJECTID":25706},"geometry":{"x":171406.63999999966,"y":2541841.3100000005}},{"attributes":{"ID":25707,"DIS_CODE":0,"TOWNNAME":"東區","LI":"和平里","LIN":"14鄰","STREET":"東門路","SECT":"三段","MAREA":" ","LANE":"２２６巷","ALLEY":"１１７弄","HOUSE_NO":"８號","E_COORD97":171406.01999999999,"N_COORD97":2541836.5899999999,"ADDRESS":"東門路三段２２６巷１１７弄８號","OBJECTID":25707},"geometry":{"x":171406.01999999955,"y":2541836.5900000036}},{"attributes":{"ID":25708,"DIS_CODE":0,"TOWNNAME":"新市區","LI":"大營里","LIN":"8鄰","STREET":" ","SECT":" ","MAREA":"大營","LANE":" ","ALLEY":" ","HOUSE_NO":"１７３之１號","E_COORD97":179437.37,"N_COORD97":2555588.5499999998,"ADDRESS":"大營１７３之１號","OBJECTID":25708},"geometry":{"x":179437.37000000011,"y":2555588.5500000007}},{"attributes":{"ID":25709,"DIS_CODE":0,"TOWNNAME":"新市區","LI":"大洲里","LIN":"8鄰","STREET":" ","SECT":" ","MAREA":"大洲","LANE":" ","ALLEY":" ","HOUSE_NO":"７７之２號","E_COORD97":174125.04000000001,"N_COORD97":2552242.7999999998,"ADDRESS":"大洲７７之２號","OBJECTID":25709},"geometry":{"x":174125.04000000097,"y":2552242.8000000026}},{"attributes":{"ID":25710,"DIS_CODE":0,"TOWNNAME":"新市區","LI":"大營里","LIN":"8鄰","STREET":" ","SECT":" ","MAREA":"大營","LANE":" ","ALLEY":" ","HOUSE_NO":"１７６號","E_COORD97":179481.45000000001,"N_COORD97":2555551.5,"ADDRESS":"大營１７６號","OBJECTID":25710},"geometry":{"x":179481.45000000019,"y":2555551.5000000037}},{"attributes":{"ID":25711,"DIS_CODE":0,"TOWNNAME":"新市區","LI":"三舍里","LIN":"8鄰","STREET":" ","SECT":" ","MAREA":"三舍","LANE":" ","ALLEY":" ","HOUSE_NO":"１８３之１２號","E_COORD97":177357.79000000001,"N_COORD97":2554875.0499999998,"ADDRESS":"三舍１８３之１２號","OBJECTID":25711},"geometry":{"x":177357.79000000004,"y":2554875.0500000026}},{"attributes":{"ID":25712,"DIS_CODE":0,"TOWNNAME":"新市區","LI":"大營里","LIN":"8鄰","STREET":" ","SECT":" ","MAREA":"大營","LANE":" ","ALLEY":" ","HOUSE_NO":"１８２號","E_COORD97":179428.76000000001,"N_COORD97":2555636.25,"ADDRESS":"大營１８２號","OBJECTID":25712},"geometry":{"x":179428.76000000071,"y":2555636.2500000019}},{"attributes":{"ID":25713,"DIS_CODE":0,"TOWNNAME":"新市區","LI":"三舍里","LIN":"8鄰","STREET":" ","SECT":" ","MAREA":"三舍","LANE":" ","ALLEY":" ","HOUSE_NO":"１８９號","E_COORD97":177334.57000000001,"N_COORD97":2554898.5,"ADDRESS":"三舍１８９號","OBJECTID":25713},"geometry":{"x":177334.5700000003,"y":2554898.5000000019}},{"attributes":{"ID":25714,"DIS_CODE":0,"TOWNNAME":"新市區","LI":"三舍里","LIN":"8鄰","STREET":" ","SECT":" ","MAREA":"三舍","LANE":" ","ALLEY":" ","HOUSE_NO":"１８６號","E_COORD97":177379.14000000001,"N_COORD97":2554796.5,"ADDRESS":"三舍１８６號","OBJECTID":25714},"geometry":{"x":177379.13999999966,"y":2554796.5000000019}},{"attributes":{"ID":25715,"DIS_CODE":0,"TOWNNAME":"新市區","LI":"三舍里","LIN":"8鄰","STREET":" ","SECT":" ","MAREA":"三舍","LANE":" ","ALLEY":" ","HOUSE_NO":"１８３之２２號","E_COORD97":177340.60000000001,"N_COORD97":2554864.0499999998,"ADDRESS":"三舍１８３之２２號","OBJECTID":25715},"geometry":{"x":177340.59999999963,"y":2554864.0500000026}},{"attributes":{"ID":25716,"DIS_CODE":0,"TOWNNAME":"新市區","LI":"三舍里","LIN":"8鄰","STREET":" ","SECT":" ","MAREA":"三舍","LANE":" ","ALLEY":" ","HOUSE_NO":"１８３之２６號","E_COORD97":177336.60000000001,"N_COORD97":2554861.7999999998,"ADDRESS":"三舍１８３之２６號","OBJECTID":25716},"geometry":{"x":177336.59999999963,"y":2554861.7999999989}},{"attributes":{"ID":25717,"DIS_CODE":0,"TOWNNAME":"新市區","LI":"大營里","LIN":"8鄰","STREET":" ","SECT":" ","MAREA":"大營","LANE":" ","ALLEY":" ","HOUSE_NO":"１８３號","E_COORD97":179423.20000000001,"N_COORD97":2555636.25,"ADDRESS":"大營１８３號","OBJECTID":25717},"geometry":{"x":179423.20000000112,"y":2555636.2500000019}},{"attributes":{"ID":25718,"DIS_CODE":0,"TOWNNAME":"新市區","LI":"三舍里","LIN":"8鄰","STREET":" ","SECT":" ","MAREA":"三舍","LANE":" ","ALLEY":" ","HOUSE_NO":"１８３之１３號","E_COORD97":177336.23999999999,"N_COORD97":2554847.7999999998,"ADDRESS":"三舍１８３之１３號","OBJECTID":25718},"geometry":{"x":177336.24000000115,"y":2554847.8000000007}},{"attributes":{"ID":25719,"DIS_CODE":0,"TOWNNAME":"新市區","LI":"社內里","LIN":"8鄰","STREET":" ","SECT":" ","MAREA":"社內","LANE":" ","ALLEY":" ","HOUSE_NO":"７６之９號","E_COORD97":176711.84,"N_COORD97":2553028.0499999998,"ADDRESS":"社內７６之９號","OBJECTID":25719},"geometry":{"x":176711.83999999985,"y":2553028.0500000007}},{"attributes":{"ID":25720,"DIS_CODE":0,"TOWNNAME":"新市區","LI":"大洲里","LIN":"8鄰","STREET":" ","SECT":" ","MAREA":"大洲","LANE":" ","ALLEY":" ","HOUSE_NO":"７４號","E_COORD97":174092.37,"N_COORD97":2552208.25,"ADDRESS":"大洲７４號","OBJECTID":25720},"geometry":{"x":174092.37000000104,"y":2552208.2500000019}},{"attributes":{"ID":25721,"DIS_CODE":0,"TOWNNAME":"新市區","LI":"大營里","LIN":"8鄰","STREET":" ","SECT":" ","MAREA":"大營","LANE":" ","ALLEY":" ","HOUSE_NO":"１７３號","E_COORD97":179435.04000000001,"N_COORD97":2555595.25,"ADDRESS":"大營１７３號","OBJECTID":25721},"geometry":{"x":179435.04000000004,"y":2555595.2500000019}},{"attributes":{"ID":25722,"DIS_CODE":0,"TOWNNAME":"新市區","LI":"大營里","LIN":"8鄰","STREET":" ","SECT":" ","MAREA":"大營","LANE":" ","ALLEY":" ","HOUSE_NO":"１７７號","E_COORD97":179488.79000000001,"N_COORD97":2555534.75,"ADDRESS":"大營１７７號","OBJECTID":25722},"geometry":{"x":179488.79000000004,"y":2555534.75}},{"attributes":{"ID":25723,"DIS_CODE":0,"TOWNNAME":"新市區","LI":"大洲里","LIN":"8鄰","STREET":" ","SECT":" ","MAREA":"大洲","LANE":" ","ALLEY":" ","HOUSE_NO":"７９號之７","E_COORD97":174130.53,"N_COORD97":2552182.2999999998,"ADDRESS":"大洲７９號之７","OBJECTID":25723},"geometry":{"x":174130.53000000026,"y":2552182.3000000007}},{"attributes":{"ID":25724,"DIS_CODE":0,"TOWNNAME":"新市區","LI":"三舍里","LIN":"8鄰","STREET":" ","SECT":" ","MAREA":"三舍","LANE":" ","ALLEY":" ","HOUSE_NO":"１８１號","E_COORD97":177445.45000000001,"N_COORD97":2554928,"ADDRESS":"三舍１８１號","OBJECTID":25724},"geometry":{"x":177445.45000000019,"y":2554928.0000000019}},{"attributes":{"ID":25725,"DIS_CODE":0,"TOWNNAME":"新市區","LI":"大洲里","LIN":"8鄰","STREET":" ","SECT":" ","MAREA":"大洲","LANE":" ","ALLEY":" ","HOUSE_NO":"７８號","E_COORD97":174140.14999999999,"N_COORD97":2552229.25,"ADDRESS":"大洲７８號","OBJECTID":25725},"geometry":{"x":174140.15000000037,"y":2552229.25}},{"attributes":{"ID":25726,"DIS_CODE":0,"TOWNNAME":"新市區","LI":"三舍里","LIN":"8鄰","STREET":" ","SECT":" ","MAREA":"三舍","LANE":" ","ALLEY":" ","HOUSE_NO":"１８３之１７號","E_COORD97":177327.82000000001,"N_COORD97":2554842.7999999998,"ADDRESS":"三舍１８３之１７號","OBJECTID":25726},"geometry":{"x":177327.8200000003,"y":2554842.8000000026}},{"attributes":{"ID":25727,"DIS_CODE":0,"TOWNNAME":"新市區","LI":"三舍里","LIN":"8鄰","STREET":" ","SECT":" ","MAREA":"三舍","LANE":" ","ALLEY":" ","HOUSE_NO":"１８０號","E_COORD97":177458.56,"N_COORD97":2554932.75,"ADDRESS":"三舍１８０號","OBJECTID":25727},"geometry":{"x":177458.56000000052,"y":2554932.7500000037}},{"attributes":{"ID":25728,"DIS_CODE":0,"TOWNNAME":"新市區","LI":"大營里","LIN":"8鄰","STREET":" ","SECT":" ","MAREA":"大營","LANE":" ","ALLEY":" ","HOUSE_NO":"１８４號","E_COORD97":179419.37,"N_COORD97":2555636.5,"ADDRESS":"大營１８４號","OBJECTID":25728},"geometry":{"x":179419.36999999918,"y":2555636.5000000037}},{"attributes":{"ID":25729,"DIS_CODE":0,"TOWNNAME":"新市區","LI":"三舍里","LIN":"8鄰","STREET":" ","SECT":" ","MAREA":"三舍","LANE":" ","ALLEY":" ","HOUSE_NO":"１８３之３６號","E_COORD97":177320.79000000001,"N_COORD97":2554852.2999999998,"ADDRESS":"三舍１８３之３６號","OBJECTID":25729},"geometry":{"x":177320.79000000004,"y":2554852.3000000026}},{"attributes":{"ID":25730,"DIS_CODE":0,"TOWNNAME":"新市區","LI":"三舍里","LIN":"8鄰","STREET":" ","SECT":" ","MAREA":"三舍","LANE":" ","ALLEY":" ","HOUSE_NO":"１８３之３０號","E_COORD97":177328.42999999999,"N_COORD97":2554856.7999999998,"ADDRESS":"三舍１８３之３０號","OBJECTID":25730},"geometry":{"x":177328.43000000156,"y":2554856.8000000026}},{"attributes":{"ID":25731,"DIS_CODE":0,"TOWNNAME":"新市區","LI":"大洲里","LIN":"8鄰","STREET":" ","SECT":" ","MAREA":"大洲","LANE":" ","ALLEY":" ","HOUSE_NO":"７９號之１２","E_COORD97":174134.03,"N_COORD97":2552187.7999999998,"ADDRESS":"大洲７９號之１２","OBJECTID":25731},"geometry":{"x":174134.03000000026,"y":2552187.8000000026}},{"attributes":{"ID":25732,"DIS_CODE":0,"TOWNNAME":"新市區","LI":"大社里","LIN":"8鄰","STREET":" ","SECT":" ","MAREA":"大社","LANE":" ","ALLEY":" ","HOUSE_NO":"２８１之２號","E_COORD97":180450.31,"N_COORD97":2554542.2999999998,"ADDRESS":"大社２８１之２號","OBJECTID":25732},"geometry":{"x":180450.31000000052,"y":2554542.3000000007}},{"attributes":{"ID":25733,"DIS_CODE":0,"TOWNNAME":"新市區","LI":"大洲里","LIN":"8鄰","STREET":" ","SECT":" ","MAREA":"大洲","LANE":" ","ALLEY":" ","HOUSE_NO":"７９號之１０","E_COORD97":174121.29999999999,"N_COORD97":2552162.5499999998,"ADDRESS":"大洲７９號之１０","OBJECTID":25733},"geometry":{"x":174121.30000000075,"y":2552162.5500000026}},{"attributes":{"ID":25734,"DIS_CODE":0,"TOWNNAME":"新市區","LI":"大洲里","LIN":"8鄰","STREET":" ","SECT":" ","MAREA":"大洲","LANE":" ","ALLEY":" ","HOUSE_NO":"７９號","E_COORD97":174134.73999999999,"N_COORD97":2552234,"ADDRESS":"大洲７９號","OBJECTID":25734},"geometry":{"x":174134.74000000022,"y":2552234.0000000019}},{"attributes":{"ID":25735,"DIS_CODE":0,"TOWNNAME":"官田區","LI":"社子里","LIN":"8鄰","STREET":" ","SECT":" ","MAREA":"社子","LANE":" ","ALLEY":" ","HOUSE_NO":"７０號","E_COORD97":184237.04000000001,"N_COORD97":2564149.5099999998,"ADDRESS":"社子７０號","OBJECTID":25735},"geometry":{"x":184237.04000000004,"y":2564149.5100000016}},{"attributes":{"ID":25736,"DIS_CODE":0,"TOWNNAME":"新市區","LI":"社內里","LIN":"8鄰","STREET":" ","SECT":" ","MAREA":"社內","LANE":" ","ALLEY":" ","HOUSE_NO":"７７之９號","E_COORD97":176587.81,"N_COORD97":2553046.5499999998,"ADDRESS":"社內７７之９號","OBJECTID":25736},"geometry":{"x":176587.80999999959,"y":2553046.5500000045}},{"attributes":{"ID":25737,"DIS_CODE":0,"TOWNNAME":"官田區","LI":"社子里","LIN":"8鄰","STREET":" ","SECT":" ","MAREA":"社子","LANE":" ","ALLEY":" ","HOUSE_NO":"５９號","E_COORD97":184442.88,"N_COORD97":2564392.54,"ADDRESS":"社子５９號","OBJECTID":25737},"geometry":{"x":184442.88000000082,"y":2564392.5400000028}},{"attributes":{"ID":25738,"DIS_CODE":0,"TOWNNAME":"官田區","LI":"社子里","LIN":"8鄰","STREET":" ","SECT":" ","MAREA":"社子","LANE":" ","ALLEY":" ","HOUSE_NO":"６０號之１","E_COORD97":184474.81,"N_COORD97":2564379.46,"ADDRESS":"社子６０號之１","OBJECTID":25738},"geometry":{"x":184474.81000000052,"y":2564379.4600000028}},{"attributes":{"ID":25739,"DIS_CODE":0,"TOWNNAME":"官田區","LI":"社子里","LIN":"8鄰","STREET":" ","SECT":" ","MAREA":"社子","LANE":" ","ALLEY":" ","HOUSE_NO":"６０號之３","E_COORD97":184514.78,"N_COORD97":2564383.02,"ADDRESS":"社子６０號之３","OBJECTID":25739},"geometry":{"x":184514.78000000119,"y":2564383.0200000033}},{"attributes":{"ID":25740,"DIS_CODE":0,"TOWNNAME":"官田區","LI":"社子里","LIN":"8鄰","STREET":" ","SECT":" ","MAREA":"社子","LANE":" ","ALLEY":" ","HOUSE_NO":"６４號之１０","E_COORD97":184582.14000000001,"N_COORD97":2564272.21,"ADDRESS":"社子６４號之１０","OBJECTID":25740},"geometry":{"x":184582.13999999966,"y":2564272.2100000028}},{"attributes":{"ID":25741,"DIS_CODE":0,"TOWNNAME":"官田區","LI":"社子里","LIN":"8鄰","STREET":" ","SECT":" ","MAREA":"社子","LANE":" ","ALLEY":" ","HOUSE_NO":"６４號之１","E_COORD97":184610.79999999999,"N_COORD97":2564294.1099999999,"ADDRESS":"社子６４號之１","OBJECTID":25741},"geometry":{"x":184610.80000000075,"y":2564294.1100000031}},{"attributes":{"ID":25742,"DIS_CODE":0,"TOWNNAME":"官田區","LI":"社子里","LIN":"8鄰","STREET":" ","SECT":" ","MAREA":"社子","LANE":" ","ALLEY":" ","HOUSE_NO":"６４號之２","E_COORD97":184590.48999999999,"N_COORD97":2564347.46,"ADDRESS":"社子６４號之２","OBJECTID":25742},"geometry":{"x":184590.49000000022,"y":2564347.4600000046}},{"attributes":{"ID":25743,"DIS_CODE":0,"TOWNNAME":"官田區","LI":"社子里","LIN":"8鄰","STREET":" ","SECT":" ","MAREA":"社子","LANE":" ","ALLEY":" ","HOUSE_NO":"６４號之３","E_COORD97":184567.42000000001,"N_COORD97":2564399.7599999998,"ADDRESS":"社子６４號之３","OBJECTID":25743},"geometry":{"x":184567.42000000086,"y":2564399.7600000016}},{"attributes":{"ID":25744,"DIS_CODE":0,"TOWNNAME":"官田區","LI":"社子里","LIN":"8鄰","STREET":" ","SECT":" ","MAREA":"社子","LANE":" ","ALLEY":" ","HOUSE_NO":"６４號之４","E_COORD97":184573.82999999999,"N_COORD97":2564380.0099999998,"ADDRESS":"社子６４號之４","OBJECTID":25744},"geometry":{"x":184573.83000000101,"y":2564380.0100000035}},{"attributes":{"ID":25745,"DIS_CODE":0,"TOWNNAME":"官田區","LI":"社子里","LIN":"8鄰","STREET":" ","SECT":" ","MAREA":"社子","LANE":" ","ALLEY":" ","HOUSE_NO":"６４號之５","E_COORD97":184543.32999999999,"N_COORD97":2564308.5099999998,"ADDRESS":"社子６４號之５","OBJECTID":25745},"geometry":{"x":184543.33000000101,"y":2564308.5100000035}},{"attributes":{"ID":25746,"DIS_CODE":0,"TOWNNAME":"官田區","LI":"社子里","LIN":"8鄰","STREET":" ","SECT":" ","MAREA":"社子","LANE":" ","ALLEY":" ","HOUSE_NO":"６４號","E_COORD97":184459.59,"N_COORD97":2564321.1600000001,"ADDRESS":"社子６４號","OBJECTID":25746},"geometry":{"x":184459.59000000078,"y":2564321.1600000001}},{"attributes":{"ID":25747,"DIS_CODE":0,"TOWNNAME":"官田區","LI":"社子里","LIN":"8鄰","STREET":" ","SECT":" ","MAREA":"社子","LANE":" ","ALLEY":" ","HOUSE_NO":"６５號","E_COORD97":184440.69,"N_COORD97":2564326.3199999998,"ADDRESS":"社子６５號","OBJECTID":25747},"geometry":{"x":184440.69000000134,"y":2564326.3200000003}},{"attributes":{"ID":25748,"DIS_CODE":0,"TOWNNAME":"東區","LI":"虎尾里","LIN":"14鄰","STREET":"東成街","SECT":" ","MAREA":" ","LANE":"１１１巷","ALLEY":"１２弄","HOUSE_NO":"１８號","E_COORD97":171666.35999999999,"N_COORD97":2542368.6899999999,"ADDRESS":"東成街１１１巷１２弄１８號","OBJECTID":25748},"geometry":{"x":171666.36000000127,"y":2542368.6900000013}},{"attributes":{"ID":25749,"DIS_CODE":0,"TOWNNAME":"東區","LI":"虎尾里","LIN":"14鄰","STREET":"東成街","SECT":" ","MAREA":" ","LANE":"１１１巷","ALLEY":"１２弄","HOUSE_NO":"１號","E_COORD97":171605,"N_COORD97":2542362.8900000001,"ADDRESS":"東成街１１１巷１２弄１號","OBJECTID":25749},"geometry":{"x":171605,"y":2542362.8900000006}},{"attributes":{"ID":25750,"DIS_CODE":0,"TOWNNAME":"東區","LI":"虎尾里","LIN":"14鄰","STREET":"東成街","SECT":" ","MAREA":" ","LANE":"１１１巷","ALLEY":"７弄","HOUSE_NO":"１０號","E_COORD97":171580.47,"N_COORD97":2542336.3900000001,"ADDRESS":"東成街１１１巷７弄１０號","OBJECTID":25750},"geometry":{"x":171580.47000000067,"y":2542336.3900000006}},{"attributes":{"ID":25751,"DIS_CODE":0,"TOWNNAME":"東區","LI":"虎尾里","LIN":"14鄰","STREET":"東成街","SECT":" ","MAREA":" ","LANE":"１１１巷","ALLEY":"７弄","HOUSE_NO":"８號","E_COORD97":171589.07000000001,"N_COORD97":2542337.1899999999,"ADDRESS":"東成街１１１巷７弄８號","OBJECTID":25751},"geometry":{"x":171589.07000000123,"y":2542337.1899999976}},{"attributes":{"ID":25752,"DIS_CODE":0,"TOWNNAME":"官田區","LI":"社子里","LIN":"8鄰","STREET":" ","SECT":" ","MAREA":"社子","LANE":" ","ALLEY":" ","HOUSE_NO":"６６號之５","E_COORD97":184419.32000000001,"N_COORD97":2564290.5299999998,"ADDRESS":"社子６６號之５","OBJECTID":25752},"geometry":{"x":184419.32000000123,"y":2564290.5299999993}},{"attributes":{"ID":25753,"DIS_CODE":0,"TOWNNAME":"官田區","LI":"社子里","LIN":"8鄰","STREET":" ","SECT":" ","MAREA":"社子","LANE":" ","ALLEY":" ","HOUSE_NO":"６６號","E_COORD97":184457.97,"N_COORD97":2564291.3999999999,"ADDRESS":"社子６６號","OBJECTID":25753},"geometry":{"x":184457.96999999974,"y":2564291.4000000004}},{"attributes":{"ID":25754,"DIS_CODE":0,"TOWNNAME":"官田區","LI":"社子里","LIN":"8鄰","STREET":" ","SECT":" ","MAREA":"社子","LANE":" ","ALLEY":" ","HOUSE_NO":"６７號之１","E_COORD97":184608.89000000001,"N_COORD97":2564064.23,"ADDRESS":"社子６７號之１","OBJECTID":25754},"geometry":{"x":184608.88999999966,"y":2564064.2300000023}},{"attributes":{"ID":25755,"DIS_CODE":0,"TOWNNAME":"官田區","LI":"社子里","LIN":"8鄰","STREET":" ","SECT":" ","MAREA":"社子","LANE":" ","ALLEY":" ","HOUSE_NO":"６７號之３","E_COORD97":184663.45999999999,"N_COORD97":2564092.3900000001,"ADDRESS":"社子６７號之３","OBJECTID":25755},"geometry":{"x":184663.45999999996,"y":2564092.3900000006}},{"attributes":{"ID":25756,"DIS_CODE":0,"TOWNNAME":"官田區","LI":"社子里","LIN":"8鄰","STREET":" ","SECT":" ","MAREA":"社子","LANE":" ","ALLEY":" ","HOUSE_NO":"６７號之８","E_COORD97":184708.14999999999,"N_COORD97":2563927.5099999998,"ADDRESS":"社子６７號之８","OBJECTID":25756},"geometry":{"x":184708.15000000037,"y":2563927.5099999998}},{"attributes":{"ID":25757,"DIS_CODE":0,"TOWNNAME":"永康區","LI":"北灣里","LIN":"14鄰","STREET":"大灣路","SECT":" ","MAREA":" ","LANE":"４０巷","ALLEY":"７５弄","HOUSE_NO":"１０號","E_COORD97":175098.28,"N_COORD97":2546028.2400000002,"ADDRESS":"大灣路４０巷７５弄１０號","OBJECTID":25757},"geometry":{"x":175098.28000000119,"y":2546028.2400000021}},{"attributes":{"ID":25758,"DIS_CODE":0,"TOWNNAME":"官田區","LI":"社子里","LIN":"8鄰","STREET":" ","SECT":" ","MAREA":"社子","LANE":" ","ALLEY":" ","HOUSE_NO":"６７號之１１","E_COORD97":184635.43748699999,"N_COORD97":2564163.39016,"ADDRESS":"社子６７號之１１","OBJECTID":25758},"geometry":{"x":184635.43748699967,"y":2564163.390155999}},{"attributes":{"ID":25759,"DIS_CODE":0,"TOWNNAME":"官田區","LI":"社子里","LIN":"8鄰","STREET":" ","SECT":" ","MAREA":"社子","LANE":" ","ALLEY":" ","HOUSE_NO":"６８號","E_COORD97":184328.84,"N_COORD97":2564235.2999999998,"ADDRESS":"社子６８號","OBJECTID":25759},"geometry":{"x":184328.84000000078,"y":2564235.3000000007}},{"attributes":{"ID":25760,"DIS_CODE":0,"TOWNNAME":"官田區","LI":"社子里","LIN":"8鄰","STREET":" ","SECT":" ","MAREA":"社子","LANE":" ","ALLEY":" ","HOUSE_NO":"６９號","E_COORD97":184311.57000000001,"N_COORD97":2564240.5099999998,"ADDRESS":"社子６９號","OBJECTID":25760},"geometry":{"x":184311.5700000003,"y":2564240.5099999979}},{"attributes":{"ID":25761,"DIS_CODE":0,"TOWNNAME":"官田區","LI":"社子里","LIN":"8鄰","STREET":" ","SECT":" ","MAREA":"社子","LANE":" ","ALLEY":" ","HOUSE_NO":"７０號之１６","E_COORD97":184262.19,"N_COORD97":2563900.3199999998,"ADDRESS":"社子７０號之１６","OBJECTID":25761},"geometry":{"x":184262.19000000041,"y":2563900.320000004}},{"attributes":{"ID":25762,"DIS_CODE":0,"TOWNNAME":"官田區","LI":"社子里","LIN":"8鄰","STREET":" ","SECT":" ","MAREA":"社子","LANE":" ","ALLEY":" ","HOUSE_NO":"７０號之１","E_COORD97":184232.07999999999,"N_COORD97":2564115.2799999998,"ADDRESS":"社子７０號之１","OBJECTID":25762},"geometry":{"x":184232.08000000007,"y":2564115.2799999993}},{"attributes":{"ID":25763,"DIS_CODE":0,"TOWNNAME":"官田區","LI":"社子里","LIN":"8鄰","STREET":" ","SECT":" ","MAREA":"社子","LANE":" ","ALLEY":" ","HOUSE_NO":"７０號之２","E_COORD97":184262.03,"N_COORD97":2564109.5800000001,"ADDRESS":"社子７０號之２","OBJECTID":25763},"geometry":{"x":184262.03000000119,"y":2564109.5800000019}},{"attributes":{"ID":25764,"DIS_CODE":0,"TOWNNAME":"官田區","LI":"社子里","LIN":"8鄰","STREET":" ","SECT":" ","MAREA":"社子","LANE":" ","ALLEY":" ","HOUSE_NO":"７０號之３６","E_COORD97":184181.17000000001,"N_COORD97":2563691.1899999999,"ADDRESS":"社子７０號之３６","OBJECTID":25764},"geometry":{"x":184181.17000000086,"y":2563691.1900000013}},{"attributes":{"ID":25765,"DIS_CODE":0,"TOWNNAME":"南區","LI":"府南里","LIN":"14鄰","STREET":"永成路","SECT":"三段","MAREA":" ","LANE":"３７２巷","ALLEY":"６９弄","HOUSE_NO":"６號","E_COORD97":167683.27100800001,"N_COORD97":2541022.8804199998,"ADDRESS":"永成路三段３７２巷６９弄６號","OBJECTID":25765},"geometry":{"x":167683.27100799978,"y":2541022.8804230001}},{"attributes":{"ID":25766,"DIS_CODE":0,"TOWNNAME":"南區","LI":"府南里","LIN":"14鄰","STREET":"永成路","SECT":"三段","MAREA":" ","LANE":"３７２巷","ALLEY":"６９弄","HOUSE_NO":"１０號","E_COORD97":167681.79455300001,"N_COORD97":2541030.5533400001,"ADDRESS":"永成路三段３７２巷６９弄１０號","OBJECTID":25766},"geometry":{"x":167681.79455300141,"y":2541030.5533360001}},{"attributes":{"ID":25767,"DIS_CODE":0,"TOWNNAME":"南區","LI":"府南里","LIN":"14鄰","STREET":"永成路","SECT":"三段","MAREA":" ","LANE":"３７２巷","ALLEY":"６９弄","HOUSE_NO":"１２號","E_COORD97":167681.68864899999,"N_COORD97":2541034.0458300002,"ADDRESS":"永成路三段３７２巷６９弄１２號","OBJECTID":25767},"geometry":{"x":167681.6886490006,"y":2541034.045834003}},{"attributes":{"ID":25768,"DIS_CODE":0,"TOWNNAME":"南區","LI":"府南里","LIN":"14鄰","STREET":"永成路","SECT":"三段","MAREA":" ","LANE":"３７２巷","ALLEY":"６９弄","HOUSE_NO":"２２號","E_COORD97":167678.40564499999,"N_COORD97":2541051.50832,"ADDRESS":"永成路三段３７２巷６９弄２２號","OBJECTID":25768},"geometry":{"x":167678.40564499889,"y":2541051.5083250012}},{"attributes":{"ID":25769,"DIS_CODE":0,"TOWNNAME":"永康區","LI":"正強里","LIN":"14鄰","STREET":"正強街","SECT":" ","MAREA":" ","LANE":"１１１巷","ALLEY":"１５弄","HOUSE_NO":"２號","E_COORD97":173249.45000000001,"N_COORD97":2547396.1200000001,"ADDRESS":"正強街１１１巷１５弄２號","OBJECTID":25769},"geometry":{"x":173249.45000000019,"y":2547396.1200000029}},{"attributes":{"ID":25770,"DIS_CODE":0,"TOWNNAME":"永康區","LI":"北灣里","LIN":"14鄰","STREET":"大灣路","SECT":" ","MAREA":" ","LANE":"４０巷","ALLEY":"７５弄","HOUSE_NO":"２４號","E_COORD97":175065.92000000001,"N_COORD97":2546013.0499999998,"ADDRESS":"大灣路４０巷７５弄２４號","OBJECTID":25770},"geometry":{"x":175065.92000000086,"y":2546013.0500000026}},{"attributes":{"ID":25771,"DIS_CODE":0,"TOWNNAME":"永康區","LI":"神洲里","LIN":"14鄰","STREET":"忠孝路","SECT":" ","MAREA":" ","LANE":"７６巷","ALLEY":"６３弄","HOUSE_NO":"１５號","E_COORD97":172232.97,"N_COORD97":2544992.4100000001,"ADDRESS":"忠孝路７６巷６３弄１５號","OBJECTID":25771},"geometry":{"x":172232.97000000067,"y":2544992.410000002}},{"attributes":{"ID":25772,"DIS_CODE":0,"TOWNNAME":"官田區","LI":"社子里","LIN":"8鄰","STREET":" ","SECT":" ","MAREA":"社子","LANE":" ","ALLEY":" ","HOUSE_NO":"７０號之３","E_COORD97":184259.20000000001,"N_COORD97":2564148.6000000001,"ADDRESS":"社子７０號之３","OBJECTID":25772},"geometry":{"x":184259.20000000112,"y":2564148.6000000034}},{"attributes":{"ID":25773,"DIS_CODE":0,"TOWNNAME":"官田區","LI":"社子里","LIN":"8鄰","STREET":" ","SECT":" ","MAREA":"社子","LANE":" ","ALLEY":" ","HOUSE_NO":"７０號之５","E_COORD97":184371.17999999999,"N_COORD97":2563892.1499999999,"ADDRESS":"社子７０號之５","OBJECTID":25773},"geometry":{"x":184371.1799999997,"y":2563892.1500000022}},{"attributes":{"ID":25774,"DIS_CODE":0,"TOWNNAME":"官田區","LI":"南\u25A0里","LIN":"8鄰","STREET":" ","SECT":" ","MAREA":"南\u25A0","LANE":" ","ALLEY":" ","HOUSE_NO":"１０６號之２","E_COORD97":177484.89999999999,"N_COORD97":2568588.8599999999,"ADDRESS":"南\u25A0１０６號之２","OBJECTID":25774},"geometry":{"x":177484.90000000037,"y":2568588.8600000013}},{"attributes":{"ID":25775,"DIS_CODE":0,"TOWNNAME":"官田區","LI":"南\u25A0里","LIN":"8鄰","STREET":" ","SECT":" ","MAREA":"南\u25A0","LANE":" ","ALLEY":" ","HOUSE_NO":"１０６號","E_COORD97":177386.79999999999,"N_COORD97":2568648.8300000001,"ADDRESS":"南\u25A0１０６號","OBJECTID":25775},"geometry":{"x":177386.79999999981,"y":2568648.8300000001}},{"attributes":{"ID":25776,"DIS_CODE":0,"TOWNNAME":"後壁區","LI":"嘉苳里","LIN":"8鄰","STREET":" ","SECT":" ","MAREA":"下茄苳","LANE":" ","ALLEY":" ","HOUSE_NO":"９２號之２","E_COORD97":184910.45999999999,"N_COORD97":2583256.8999999999,"ADDRESS":"下茄苳９２號之２","OBJECTID":25776},"geometry":{"x":184910.45999999996,"y":2583256.9000000022}},{"attributes":{"ID":25777,"DIS_CODE":0,"TOWNNAME":"官田區","LI":"南\u25A0里","LIN":"8鄰","STREET":" ","SECT":" ","MAREA":"南\u25A0","LANE":" ","ALLEY":" ","HOUSE_NO":"１０７號之１６","E_COORD97":177982.47,"N_COORD97":2568324.9300000002,"ADDRESS":"南\u25A0１０７號之１６","OBJECTID":25777},"geometry":{"x":177982.46999999974,"y":2568324.9300000016}},{"attributes":{"ID":25778,"DIS_CODE":0,"TOWNNAME":"官田區","LI":"南\u25A0里","LIN":"8鄰","STREET":" ","SECT":" ","MAREA":"南\u25A0","LANE":" ","ALLEY":" ","HOUSE_NO":"１０７號之１","E_COORD97":177637,"N_COORD97":2568747.5600000001,"ADDRESS":"南\u25A0１０７號之１","OBJECTID":25778},"geometry":{"x":177637.00000000093,"y":2568747.5600000024}},{"attributes":{"ID":25779,"DIS_CODE":0,"TOWNNAME":"官田區","LI":"南\u25A0里","LIN":"8鄰","STREET":" ","SECT":" ","MAREA":"南\u25A0","LANE":" ","ALLEY":" ","HOUSE_NO":"１０７號之２０","E_COORD97":178071.22,"N_COORD97":2568244.7599999998,"ADDRESS":"南\u25A0１０７號之２０","OBJECTID":25779},"geometry":{"x":178071.22000000067,"y":2568244.7600000016}},{"attributes":{"ID":25780,"DIS_CODE":0,"TOWNNAME":"官田區","LI":"南\u25A0里","LIN":"8鄰","STREET":" ","SECT":" ","MAREA":"南\u25A0","LANE":" ","ALLEY":" ","HOUSE_NO":"１０７號之３","E_COORD97":177559.95000000001,"N_COORD97":2568548.6099999999,"ADDRESS":"南\u25A0１０７號之３","OBJECTID":25780},"geometry":{"x":177559.95000000112,"y":2568548.6099999975}},{"attributes":{"ID":25781,"DIS_CODE":0,"TOWNNAME":"官田區","LI":"南\u25A0里","LIN":"8鄰","STREET":" ","SECT":" ","MAREA":"南\u25A0","LANE":" ","ALLEY":" ","HOUSE_NO":"１０７號之４","E_COORD97":177553.78,"N_COORD97":2568557.3199999998,"ADDRESS":"南\u25A0１０７號之４","OBJECTID":25781},"geometry":{"x":177553.77999999933,"y":2568557.3200000003}},{"attributes":{"ID":25782,"DIS_CODE":0,"TOWNNAME":"官田區","LI":"南\u25A0里","LIN":"8鄰","STREET":" ","SECT":" ","MAREA":"南\u25A0","LANE":" ","ALLEY":" ","HOUSE_NO":"１０７號之５","E_COORD97":177550.39000000001,"N_COORD97":2568559.1200000001,"ADDRESS":"南\u25A0１０７號之５","OBJECTID":25782},"geometry":{"x":177550.38999999966,"y":2568559.120000001}},{"attributes":{"ID":25783,"DIS_CODE":0,"TOWNNAME":"官田區","LI":"南\u25A0里","LIN":"8鄰","STREET":" ","SECT":" ","MAREA":"南\u25A0","LANE":" ","ALLEY":" ","HOUSE_NO":"１０７號之６","E_COORD97":177535.56,"N_COORD97":2568562.5099999998,"ADDRESS":"南\u25A0１０７號之６","OBJECTID":25783},"geometry":{"x":177535.55999999959,"y":2568562.5099999998}},{"attributes":{"ID":25784,"DIS_CODE":0,"TOWNNAME":"官田區","LI":"南\u25A0里","LIN":"8鄰","STREET":" ","SECT":" ","MAREA":"南\u25A0","LANE":" ","ALLEY":" ","HOUSE_NO":"１０７號之７","E_COORD97":177620.54000000001,"N_COORD97":2568555.6000000001,"ADDRESS":"南\u25A0１０７號之７","OBJECTID":25784},"geometry":{"x":177620.54000000004,"y":2568555.5999999996}},{"attributes":{"ID":25785,"DIS_CODE":0,"TOWNNAME":"官田區","LI":"南\u25A0里","LIN":"8鄰","STREET":" ","SECT":" ","MAREA":"南\u25A0","LANE":" ","ALLEY":" ","HOUSE_NO":"１０７號之８","E_COORD97":177653,"N_COORD97":2568768.8399999999,"ADDRESS":"南\u25A0１０７號之８","OBJECTID":25785},"geometry":{"x":177653,"y":2568768.8400000017}},{"attributes":{"ID":25786,"DIS_CODE":0,"TOWNNAME":"官田區","LI":"南\u25A0里","LIN":"8鄰","STREET":" ","SECT":" ","MAREA":"南\u25A0","LANE":" ","ALLEY":" ","HOUSE_NO":"１０７號","E_COORD97":177573.23000000001,"N_COORD97":2568550.8999999999,"ADDRESS":"南\u25A0１０７號","OBJECTID":25786},"geometry":{"x":177573.23000000138,"y":2568550.9000000004}},{"attributes":{"ID":25787,"DIS_CODE":0,"TOWNNAME":"官田區","LI":"南\u25A0里","LIN":"8鄰","STREET":" ","SECT":" ","MAREA":"南\u25A0","LANE":" ","ALLEY":" ","HOUSE_NO":"１０８號之１","E_COORD97":177571.54999999999,"N_COORD97":2568869.9399999999,"ADDRESS":"南\u25A0１０８號之１","OBJECTID":25787},"geometry":{"x":177571.54999999981,"y":2568869.9400000013}},{"attributes":{"ID":25788,"DIS_CODE":0,"TOWNNAME":"官田區","LI":"南\u25A0里","LIN":"8鄰","STREET":" ","SECT":" ","MAREA":"南\u25A0","LANE":" ","ALLEY":" ","HOUSE_NO":"１０８號","E_COORD97":177648.92000000001,"N_COORD97":2568748.04,"ADDRESS":"南\u25A0１０８號","OBJECTID":25788},"geometry":{"x":177648.91999999993,"y":2568748.0399999991}},{"attributes":{"ID":25789,"DIS_CODE":0,"TOWNNAME":"官田區","LI":"南\u25A0里","LIN":"8鄰","STREET":" ","SECT":" ","MAREA":"南\u25A0","LANE":" ","ALLEY":" ","HOUSE_NO":"１０９號","E_COORD97":177978.19,"N_COORD97":2568603.3700000001,"ADDRESS":"南\u25A0１０９號","OBJECTID":25789},"geometry":{"x":177978.19000000041,"y":2568603.3700000029}},{"attributes":{"ID":25790,"DIS_CODE":0,"TOWNNAME":"官田區","LI":"南\u25A0里","LIN":"8鄰","STREET":" ","SECT":" ","MAREA":"南\u25A0","LANE":" ","ALLEY":" ","HOUSE_NO":"１１１號之１","E_COORD97":178164.53,"N_COORD97":2568686.5800000001,"ADDRESS":"南\u25A0１１１號之１","OBJECTID":25790},"geometry":{"x":178164.53000000119,"y":2568686.5800000019}},{"attributes":{"ID":25791,"DIS_CODE":0,"TOWNNAME":"官田區","LI":"南\u25A0里","LIN":"8鄰","STREET":" ","SECT":" ","MAREA":"南\u25A0","LANE":" ","ALLEY":" ","HOUSE_NO":"１１１號之２","E_COORD97":178165.34,"N_COORD97":2568675.8900000001,"ADDRESS":"南\u25A0１１１號之２","OBJECTID":25791},"geometry":{"x":178165.34000000078,"y":2568675.8900000006}},{"attributes":{"ID":25792,"DIS_CODE":0,"TOWNNAME":"官田區","LI":"南\u25A0里","LIN":"8鄰","STREET":" ","SECT":" ","MAREA":"南\u25A0","LANE":" ","ALLEY":" ","HOUSE_NO":"１１１號之３","E_COORD97":178163.13,"N_COORD97":2568662.5899999999,"ADDRESS":"南\u25A0１１１號之３","OBJECTID":25792},"geometry":{"x":178163.13000000175,"y":2568662.5900000017}},{"attributes":{"ID":25793,"DIS_CODE":0,"TOWNNAME":"官田區","LI":"湖山里","LIN":"8鄰","STREET":" ","SECT":" ","MAREA":"烏山頭","LANE":" ","ALLEY":" ","HOUSE_NO":"４１號之４","E_COORD97":183322.09,"N_COORD97":2567728.8799999999,"ADDRESS":"烏山頭４１號之４","OBJECTID":25793},"geometry":{"x":183322.09000000078,"y":2567728.879999999}},{"attributes":{"ID":25794,"DIS_CODE":0,"TOWNNAME":"官田區","LI":"湖山里","LIN":"8鄰","STREET":" ","SECT":" ","MAREA":"烏山頭","LANE":" ","ALLEY":" ","HOUSE_NO":"４１號之６","E_COORD97":183310.70999999999,"N_COORD97":2567751.3999999999,"ADDRESS":"烏山頭４１號之６","OBJECTID":25794},"geometry":{"x":183310.70999999996,"y":2567751.4000000041}},{"attributes":{"ID":25795,"DIS_CODE":0,"TOWNNAME":"官田區","LI":"湖山里","LIN":"8鄰","STREET":" ","SECT":" ","MAREA":"烏山頭","LANE":" ","ALLEY":" ","HOUSE_NO":"４１號","E_COORD97":183361.63,"N_COORD97":2567710.25,"ADDRESS":"烏山頭４１號","OBJECTID":25795},"geometry":{"x":183361.62999999989,"y":2567710.25}},{"attributes":{"ID":25796,"DIS_CODE":0,"TOWNNAME":"官田區","LI":"湖山里","LIN":"8鄰","STREET":" ","SECT":" ","MAREA":"烏山頭","LANE":" ","ALLEY":" ","HOUSE_NO":"４２號之１","E_COORD97":183373.09,"N_COORD97":2567692.3399999999,"ADDRESS":"烏山頭４２號之１","OBJECTID":25796},"geometry":{"x":183373.09000000078,"y":2567692.3399999999}},{"attributes":{"ID":25797,"DIS_CODE":0,"TOWNNAME":"官田區","LI":"湖山里","LIN":"8鄰","STREET":" ","SECT":" ","MAREA":"烏山頭","LANE":" ","ALLEY":" ","HOUSE_NO":"４２號","E_COORD97":183369.29000000001,"N_COORD97":2567672.54,"ADDRESS":"烏山頭４２號","OBJECTID":25797},"geometry":{"x":183369.29000000004,"y":2567672.540000001}},{"attributes":{"ID":25798,"DIS_CODE":0,"TOWNNAME":"白河區","LI":"昇安里","LIN":"8鄰","STREET":" ","SECT":" ","MAREA":"三間厝","LANE":" ","ALLEY":" ","HOUSE_NO":"９５號","E_COORD97":192130.07999999999,"N_COORD97":2584698.6200000001,"ADDRESS":"三間厝９５號","OBJECTID":25798},"geometry":{"x":192130.08000000007,"y":2584698.620000001}},{"attributes":{"ID":25799,"DIS_CODE":0,"TOWNNAME":"白河區","LI":"昇安里","LIN":"8鄰","STREET":" ","SECT":" ","MAREA":"三間厝","LANE":" ","ALLEY":" ","HOUSE_NO":"９６之１號","E_COORD97":192150.16,"N_COORD97":2584642.5,"ADDRESS":"三間厝９６之１號","OBJECTID":25799},"geometry":{"x":192150.16000000201,"y":2584642.5000000019}},{"attributes":{"ID":25800,"DIS_CODE":0,"TOWNNAME":"白河區","LI":"昇安里","LIN":"8鄰","STREET":" ","SECT":" ","MAREA":"三間厝","LANE":" ","ALLEY":" ","HOUSE_NO":"９６號","E_COORD97":192135.72,"N_COORD97":2584676.54,"ADDRESS":"三間厝９６號","OBJECTID":25800},"geometry":{"x":192135.7200000016,"y":2584676.5399999991}}]}