{"displayFieldName":"TOWNNAME","fieldAliases":{"ID":"ID","DIS_CODE":"DIS_CODE","TOWNNAME":"TOWNNAME","LI":"LI","LIN":"LIN","STREET":"STREET","SECT":"SECT","MAREA":"MAREA","LANE":"LANE","ALLEY":"ALLEY","HOUSE_NO":"HOUSE_NO","E_COORD97":"E_COORD97","N_COORD97":"N_COORD97","ADDRESS":"ADDRESS","OBJECTID":"OBJECTID"},"geometryType":"esriGeometryPoint","spatialReference":{"wkid":102443,"latestWkid":3826},"fields":[{"name":"ID","type":"esriFieldTypeDouble","alias":"ID"},{"name":"DIS_CODE","type":"esriFieldTypeInteger","alias":"DIS_CODE"},{"name":"TOWNNAME","type":"esriFieldTypeString","alias":"TOWNNAME","length":8},{"name":"LI","type":"esriFieldTypeString","alias":"LI","length":8},{"name":"LIN","type":"esriFieldTypeString","alias":"LIN","length":12},{"name":"STREET","type":"esriFieldTypeString","alias":"STREET","length":20},{"name":"SECT","type":"esriFieldTypeString","alias":"SECT","length":8},{"name":"MAREA","type":"esriFieldTypeString","alias":"MAREA","length":12},{"name":"LANE","type":"esriFieldTypeString","alias":"LANE","length":10},{"name":"ALLEY","type":"esriFieldTypeString","alias":"ALLEY","length":10},{"name":"HOUSE_NO","type":"esriFieldTypeString","alias":"HOUSE_NO","length":20},{"name":"E_COORD97","type":"esriFieldTypeDouble","alias":"E_COORD97"},{"name":"N_COORD97","type":"esriFieldTypeDouble","alias":"N_COORD97"},{"name":"ADDRESS","type":"esriFieldTypeString","alias":"ADDRESS","length":50},{"name":"OBJECTID","type":"esriFieldTypeOID","alias":"OBJECTID"}],"features":[{"attributes":{"ID":55801,"DIS_CODE":0,"TOWNNAME":"龍崎區","LI":"中坑里","LIN":"1鄰","STREET":" ","SECT":" ","MAREA":"中坑","LANE":" ","ALLEY":" ","HOUSE_NO":"３之２號","E_COORD97":186744.10999999999,"N_COORD97":2538731.2999999998,"ADDRESS":"中坑３之２號","OBJECTID":55801},"geometry":{"x":186744.11000000034,"y":2538731.3000000026}},{"attributes":{"ID":55802,"DIS_CODE":0,"TOWNNAME":"龍崎區","LI":"中坑里","LIN":"1鄰","STREET":" ","SECT":" ","MAREA":"中坑","LANE":" ","ALLEY":" ","HOUSE_NO":"１２之２號","E_COORD97":186370.76000000001,"N_COORD97":2538697.2999999998,"ADDRESS":"中坑１２之２號","OBJECTID":55802},"geometry":{"x":186370.76000000071,"y":2538697.3000000026}},{"attributes":{"ID":55803,"DIS_CODE":0,"TOWNNAME":"龍崎區","LI":"土崎里","LIN":"1鄰","STREET":" ","SECT":" ","MAREA":"考潭","LANE":" ","ALLEY":" ","HOUSE_NO":"１０之２號","E_COORD97":185498.14000000001,"N_COORD97":2543176.2999999998,"ADDRESS":"考潭１０之２號","OBJECTID":55803},"geometry":{"x":185498.1400000006,"y":2543176.3000000026}},{"attributes":{"ID":55804,"DIS_CODE":0,"TOWNNAME":"龍崎區","LI":"牛埔里","LIN":"1鄰","STREET":" ","SECT":" ","MAREA":"牛埔","LANE":" ","ALLEY":" ","HOUSE_NO":"２號","E_COORD97":190116.42000000001,"N_COORD97":2537793.25,"ADDRESS":"牛埔２號","OBJECTID":55804},"geometry":{"x":190116.42000000086,"y":2537793.25}},{"attributes":{"ID":55805,"DIS_CODE":0,"TOWNNAME":"後壁區","LI":"仕安里","LIN":"8鄰","STREET":" ","SECT":" ","MAREA":"下長","LANE":" ","ALLEY":" ","HOUSE_NO":"６８號之１","E_COORD97":180693.29999999999,"N_COORD97":2583595.1699999999,"ADDRESS":"下長６８號之１","OBJECTID":55805},"geometry":{"x":180693.30000000075,"y":2583595.1699999999}},{"attributes":{"ID":55806,"DIS_CODE":0,"TOWNNAME":"龍崎區","LI":"牛埔里","LIN":"1鄰","STREET":" ","SECT":" ","MAREA":"牛埔","LANE":" ","ALLEY":" ","HOUSE_NO":"９之１號","E_COORD97":189768.92000000001,"N_COORD97":2537220.2999999998,"ADDRESS":"牛埔９之１號","OBJECTID":55806},"geometry":{"x":189768.92000000086,"y":2537220.3000000007}},{"attributes":{"ID":55807,"DIS_CODE":0,"TOWNNAME":"龍崎區","LI":"中坑里","LIN":"1鄰","STREET":" ","SECT":" ","MAREA":"中坑","LANE":" ","ALLEY":" ","HOUSE_NO":"１２之１號","E_COORD97":186293.06,"N_COORD97":2538679.2999999998,"ADDRESS":"中坑１２之１號","OBJECTID":55807},"geometry":{"x":186293.05999999959,"y":2538679.3000000007}},{"attributes":{"ID":55808,"DIS_CODE":0,"TOWNNAME":"龍崎區","LI":"牛埔里","LIN":"1鄰","STREET":" ","SECT":" ","MAREA":"牛埔","LANE":" ","ALLEY":" ","HOUSE_NO":"５號","E_COORD97":189940.51999999999,"N_COORD97":2537517.25,"ADDRESS":"牛埔５號","OBJECTID":55808},"geometry":{"x":189940.52000000048,"y":2537517.2500000019}},{"attributes":{"ID":55809,"DIS_CODE":0,"TOWNNAME":"龍崎區","LI":"中坑里","LIN":"1鄰","STREET":" ","SECT":" ","MAREA":"中坑","LANE":" ","ALLEY":" ","HOUSE_NO":"２號","E_COORD97":186631.41,"N_COORD97":2538914.2799999998,"ADDRESS":"中坑２號","OBJECTID":55809},"geometry":{"x":186631.41000000108,"y":2538914.2799999993}},{"attributes":{"ID":55810,"DIS_CODE":0,"TOWNNAME":"龍崎區","LI":"大坪里","LIN":"1鄰","STREET":" ","SECT":" ","MAREA":"磅空子","LANE":" ","ALLEY":" ","HOUSE_NO":"１之３號","E_COORD97":187753.19,"N_COORD97":2538579.2999999998,"ADDRESS":"磅空子１之３號","OBJECTID":55810},"geometry":{"x":187753.19000000134,"y":2538579.3000000026}},{"attributes":{"ID":55811,"DIS_CODE":0,"TOWNNAME":"龍崎區","LI":"牛埔里","LIN":"1鄰","STREET":" ","SECT":" ","MAREA":"牛埔","LANE":" ","ALLEY":" ","HOUSE_NO":"１１號","E_COORD97":189673.97,"N_COORD97":2537111.25,"ADDRESS":"牛埔１１號","OBJECTID":55811},"geometry":{"x":189673.96999999974,"y":2537111.2500000019}},{"attributes":{"ID":55812,"DIS_CODE":0,"TOWNNAME":"龍崎區","LI":"大坪里","LIN":"1鄰","STREET":" ","SECT":" ","MAREA":"磅空子","LANE":" ","ALLEY":" ","HOUSE_NO":"１號","E_COORD97":187708.98999999999,"N_COORD97":2538465.25,"ADDRESS":"磅空子１號","OBJECTID":55812},"geometry":{"x":187708.99000000115,"y":2538465.25}},{"attributes":{"ID":55813,"DIS_CODE":0,"TOWNNAME":"龍崎區","LI":"大坪里","LIN":"1鄰","STREET":" ","SECT":" ","MAREA":"磅空子","LANE":" ","ALLEY":" ","HOUSE_NO":"５號","E_COORD97":187202.19,"N_COORD97":2538321.25,"ADDRESS":"磅空子５號","OBJECTID":55813},"geometry":{"x":187202.19000000134,"y":2538321.2500000019}},{"attributes":{"ID":55814,"DIS_CODE":0,"TOWNNAME":"龍崎區","LI":"大坪里","LIN":"1鄰","STREET":" ","SECT":" ","MAREA":"磅空子","LANE":" ","ALLEY":" ","HOUSE_NO":"８之１號","E_COORD97":187699.23999999999,"N_COORD97":2537486.7999999998,"ADDRESS":"磅空子８之１號","OBJECTID":55814},"geometry":{"x":187699.24000000022,"y":2537486.8000000026}},{"attributes":{"ID":55815,"DIS_CODE":0,"TOWNNAME":"西港區","LI":"竹林里","LIN":"1鄰","STREET":" ","SECT":" ","MAREA":"大竹林","LANE":" ","ALLEY":" ","HOUSE_NO":"３號之３","E_COORD97":166605.82999999999,"N_COORD97":2557783.2999999998,"ADDRESS":"大竹林３號之３","OBJECTID":55815},"geometry":{"x":166605.83000000194,"y":2557783.3000000007}},{"attributes":{"ID":55816,"DIS_CODE":0,"TOWNNAME":"西港區","LI":"竹林里","LIN":"1鄰","STREET":" ","SECT":" ","MAREA":"大竹林","LANE":" ","ALLEY":" ","HOUSE_NO":"３號","E_COORD97":166617.62,"N_COORD97":2557810.6299999999,"ADDRESS":"大竹林３號","OBJECTID":55816},"geometry":{"x":166617.62000000104,"y":2557810.629999999}},{"attributes":{"ID":55817,"DIS_CODE":0,"TOWNNAME":"西港區","LI":"竹林里","LIN":"1鄰","STREET":" ","SECT":" ","MAREA":"大竹林","LANE":" ","ALLEY":" ","HOUSE_NO":"４號","E_COORD97":166590.82000000001,"N_COORD97":2557811.9100000001,"ADDRESS":"大竹林４號","OBJECTID":55817},"geometry":{"x":166590.82000000216,"y":2557811.910000002}},{"attributes":{"ID":55818,"DIS_CODE":0,"TOWNNAME":"西港區","LI":"竹林里","LIN":"1鄰","STREET":" ","SECT":" ","MAREA":"大竹林","LANE":" ","ALLEY":" ","HOUSE_NO":"５號","E_COORD97":166585.41,"N_COORD97":2557753.2599999998,"ADDRESS":"大竹林５號","OBJECTID":55818},"geometry":{"x":166585.41000000108,"y":2557753.2600000035}},{"attributes":{"ID":55819,"DIS_CODE":0,"TOWNNAME":"西港區","LI":"竹林里","LIN":"1鄰","STREET":" ","SECT":" ","MAREA":"大竹林","LANE":" ","ALLEY":" ","HOUSE_NO":"６號之１","E_COORD97":166576.76999999999,"N_COORD97":2557736.3599999999,"ADDRESS":"大竹林６號之１","OBJECTID":55819},"geometry":{"x":166576.77000000142,"y":2557736.3600000013}},{"attributes":{"ID":55820,"DIS_CODE":0,"TOWNNAME":"西港區","LI":"竹林里","LIN":"1鄰","STREET":" ","SECT":" ","MAREA":"大竹林","LANE":" ","ALLEY":" ","HOUSE_NO":"６號之２","E_COORD97":166575.25,"N_COORD97":2557715.5,"ADDRESS":"大竹林６號之２","OBJECTID":55820},"geometry":{"x":166575.25,"y":2557715.5000000019}},{"attributes":{"ID":55821,"DIS_CODE":0,"TOWNNAME":"西港區","LI":"竹林里","LIN":"1鄰","STREET":" ","SECT":" ","MAREA":"大竹林","LANE":" ","ALLEY":" ","HOUSE_NO":"７之１號","E_COORD97":166589.97,"N_COORD97":2557667.6400000001,"ADDRESS":"大竹林７之１號","OBJECTID":55821},"geometry":{"x":166589.97000000067,"y":2557667.6400000025}},{"attributes":{"ID":55822,"DIS_CODE":0,"TOWNNAME":"西港區","LI":"竹林里","LIN":"1鄰","STREET":" ","SECT":" ","MAREA":"大竹林","LANE":" ","ALLEY":" ","HOUSE_NO":"７之２號","E_COORD97":166595.87,"N_COORD97":2557668.7599999998,"ADDRESS":"大竹林７之２號","OBJECTID":55822},"geometry":{"x":166595.87000000104,"y":2557668.7600000035}},{"attributes":{"ID":55823,"DIS_CODE":0,"TOWNNAME":"西港區","LI":"竹林里","LIN":"1鄰","STREET":" ","SECT":" ","MAREA":"大竹林","LANE":" ","ALLEY":" ","HOUSE_NO":"７之９號","E_COORD97":166569.12,"N_COORD97":2557511.0899999999,"ADDRESS":"大竹林７之９號","OBJECTID":55823},"geometry":{"x":166569.12000000104,"y":2557511.0900000017}},{"attributes":{"ID":55824,"DIS_CODE":0,"TOWNNAME":"西港區","LI":"竹林里","LIN":"1鄰","STREET":" ","SECT":" ","MAREA":"大竹林","LANE":" ","ALLEY":" ","HOUSE_NO":"７號","E_COORD97":166588.59,"N_COORD97":2557699.52,"ADDRESS":"大竹林７號","OBJECTID":55824},"geometry":{"x":166588.59000000171,"y":2557699.5199999996}},{"attributes":{"ID":55825,"DIS_CODE":0,"TOWNNAME":"新化區","LI":"崙頂里","LIN":"1鄰","STREET":" ","SECT":" ","MAREA":"崙子頂","LANE":" ","ALLEY":" ","HOUSE_NO":"３０號之１","E_COORD97":177037.60999999999,"N_COORD97":2546622.2599999998,"ADDRESS":"崙子頂３０號之１","OBJECTID":55825},"geometry":{"x":177037.61000000034,"y":2546622.2599999998}},{"attributes":{"ID":55826,"DIS_CODE":0,"TOWNNAME":"新化區","LI":"礁坑里","LIN":"1鄰","STREET":" ","SECT":" ","MAREA":"三十六崙","LANE":" ","ALLEY":" ","HOUSE_NO":"１２５號","E_COORD97":185220.26999999999,"N_COORD97":2549856.25,"ADDRESS":"三十六崙１２５號","OBJECTID":55826},"geometry":{"x":185220.26999999955,"y":2549856.25}},{"attributes":{"ID":55827,"DIS_CODE":0,"TOWNNAME":"新化區","LI":"崙頂里","LIN":"1鄰","STREET":" ","SECT":" ","MAREA":"崙子頂","LANE":" ","ALLEY":" ","HOUSE_NO":"２８號","E_COORD97":176983.88,"N_COORD97":2546641.25,"ADDRESS":"崙子頂２８號","OBJECTID":55827},"geometry":{"x":176983.88000000082,"y":2546641.2500000019}},{"attributes":{"ID":55828,"DIS_CODE":0,"TOWNNAME":"新化區","LI":"\u25A0拔里","LIN":"1鄰","STREET":" ","SECT":" ","MAREA":"\u25A0拔林","LANE":" ","ALLEY":" ","HOUSE_NO":"３９號","E_COORD97":183108.76999999999,"N_COORD97":2552038.25,"ADDRESS":"\u25A0拔林３９號","OBJECTID":55828},"geometry":{"x":183108.77000000048,"y":2552038.2500000019}},{"attributes":{"ID":55829,"DIS_CODE":0,"TOWNNAME":"新化區","LI":"北勢里","LIN":"1鄰","STREET":" ","SECT":" ","MAREA":"北勢","LANE":" ","ALLEY":" ","HOUSE_NO":"１７６號","E_COORD97":177444.67999999999,"N_COORD97":2549399.2599999998,"ADDRESS":"北勢１７６號","OBJECTID":55829},"geometry":{"x":177444.6799999997,"y":2549399.2600000035}},{"attributes":{"ID":55830,"DIS_CODE":0,"TOWNNAME":"安定區","LI":"中榮里","LIN":"1鄰","STREET":" ","SECT":" ","MAREA":"許中營","LANE":" ","ALLEY":" ","HOUSE_NO":"１之２２號","E_COORD97":172218.44,"N_COORD97":2554870.2999999998,"ADDRESS":"許中營１之２２號","OBJECTID":55830},"geometry":{"x":172218.44000000134,"y":2554870.3000000026}},{"attributes":{"ID":55831,"DIS_CODE":0,"TOWNNAME":"安定區","LI":"蘇林里","LIN":"1鄰","STREET":" ","SECT":" ","MAREA":"蘇厝","LANE":" ","ALLEY":" ","HOUSE_NO":"１１之１號","E_COORD97":173618.37,"N_COORD97":2558599.2999999998,"ADDRESS":"蘇厝１１之１號","OBJECTID":55831},"geometry":{"x":173618.37000000011,"y":2558599.3000000026}},{"attributes":{"ID":55832,"DIS_CODE":0,"TOWNNAME":"安定區","LI":"海寮里","LIN":"1鄰","STREET":" ","SECT":" ","MAREA":"海寮","LANE":" ","ALLEY":" ","HOUSE_NO":"１９號之６","E_COORD97":169288.13,"N_COORD97":2555134.2999999998,"ADDRESS":"海寮１９號之６","OBJECTID":55832},"geometry":{"x":169288.12999999989,"y":2555134.3000000026}},{"attributes":{"ID":55833,"DIS_CODE":0,"TOWNNAME":"安定區","LI":"蘇林里","LIN":"1鄰","STREET":" ","SECT":" ","MAREA":"蘇厝","LANE":" ","ALLEY":" ","HOUSE_NO":"１０之９號","E_COORD97":173653.26999999999,"N_COORD97":2558576.2999999998,"ADDRESS":"蘇厝１０之９號","OBJECTID":55833},"geometry":{"x":173653.27000000048,"y":2558576.3000000007}},{"attributes":{"ID":55834,"DIS_CODE":0,"TOWNNAME":"安定區","LI":"新吉里","LIN":"1鄰","STREET":" ","SECT":" ","MAREA":"新吉","LANE":" ","ALLEY":" ","HOUSE_NO":"６之１號","E_COORD97":169284.22,"N_COORD97":2554128.2999999998,"ADDRESS":"新吉６之１號","OBJECTID":55834},"geometry":{"x":169284.21999999974,"y":2554128.3000000007}},{"attributes":{"ID":55835,"DIS_CODE":0,"TOWNNAME":"安定區","LI":"海寮里","LIN":"1鄰","STREET":" ","SECT":" ","MAREA":"海寮","LANE":" ","ALLEY":" ","HOUSE_NO":"１２之８號","E_COORD97":169134.39000000001,"N_COORD97":2555179.2999999998,"ADDRESS":"海寮１２之８號","OBJECTID":55835},"geometry":{"x":169134.3900000006,"y":2555179.3000000007}},{"attributes":{"ID":55836,"DIS_CODE":0,"TOWNNAME":"下營區","LI":"新興里","LIN":"1鄰","STREET":"自由街","SECT":" ","MAREA":" ","LANE":"１３２巷","ALLEY":"３５弄","HOUSE_NO":"１號","E_COORD97":174896.26999999999,"N_COORD97":2570949.6000000001,"ADDRESS":"自由街１３２巷３５弄１號","OBJECTID":55836},"geometry":{"x":174896.26999999955,"y":2570949.6000000034}},{"attributes":{"ID":55837,"DIS_CODE":0,"TOWNNAME":"下營區","LI":"新興里","LIN":"1鄰","STREET":"自由街","SECT":" ","MAREA":" ","LANE":"１３２巷","ALLEY":"３５弄","HOUSE_NO":"３號","E_COORD97":174902.10999999999,"N_COORD97":2570950.3199999998,"ADDRESS":"自由街１３２巷３５弄３號","OBJECTID":55837},"geometry":{"x":174902.1100000022,"y":2570950.3200000022}},{"attributes":{"ID":55838,"DIS_CODE":0,"TOWNNAME":"下營區","LI":"新興里","LIN":"1鄰","STREET":"自由街","SECT":" ","MAREA":" ","LANE":"１３２巷","ALLEY":"３５弄","HOUSE_NO":"５號","E_COORD97":174909.32999999999,"N_COORD97":2570950.7400000002,"ADDRESS":"自由街１３２巷３５弄５號","OBJECTID":55838},"geometry":{"x":174909.33000000101,"y":2570950.7400000021}},{"attributes":{"ID":55839,"DIS_CODE":0,"TOWNNAME":"下營區","LI":"新興里","LIN":"1鄰","STREET":"自由街","SECT":" ","MAREA":" ","LANE":"１３２巷","ALLEY":"３５弄","HOUSE_NO":"７號","E_COORD97":174915.17999999999,"N_COORD97":2570951.2999999998,"ADDRESS":"自由街１３２巷３５弄７號","OBJECTID":55839},"geometry":{"x":174915.18000000063,"y":2570951.3000000007}},{"attributes":{"ID":55840,"DIS_CODE":0,"TOWNNAME":"永康區","LI":"正強里","LIN":"1鄰","STREET":"中正路","SECT":" ","MAREA":" ","LANE":"１巷","ALLEY":"１弄","HOUSE_NO":"９號","E_COORD97":173741.91,"N_COORD97":2547603.4900000002,"ADDRESS":"中正路１巷１弄９號","OBJECTID":55840},"geometry":{"x":173741.91000000015,"y":2547603.4900000002}},{"attributes":{"ID":55841,"DIS_CODE":0,"TOWNNAME":"永康區","LI":"正強里","LIN":"1鄰","STREET":"中正路","SECT":" ","MAREA":" ","LANE":"１巷","ALLEY":"１弄","HOUSE_NO":"１９號","E_COORD97":173707.23000000001,"N_COORD97":2547593,"ADDRESS":"中正路１巷１弄１９號","OBJECTID":55841},"geometry":{"x":173707.23000000045,"y":2547593}},{"attributes":{"ID":55842,"DIS_CODE":0,"TOWNNAME":"永康區","LI":"勝利里","LIN":"1鄰","STREET":"勝利街","SECT":" ","MAREA":" ","LANE":"１巷","ALLEY":"１１弄","HOUSE_NO":"１６號","E_COORD97":171116.85000000001,"N_COORD97":2544635,"ADDRESS":"勝利街１巷１１弄１６號","OBJECTID":55842},"geometry":{"x":171116.85000000056,"y":2544635.0000000019}},{"attributes":{"ID":55843,"DIS_CODE":0,"TOWNNAME":"歸仁區","LI":"看西里","LIN":"4鄰","STREET":"仁愛南街","SECT":" ","MAREA":" ","LANE":"１０２巷","ALLEY":"９弄","HOUSE_NO":"５號","E_COORD97":178243.75,"N_COORD97":2540352.29,"ADDRESS":"仁愛南街１０２巷９弄５號","OBJECTID":55843},"geometry":{"x":178243.75000000186,"y":2540352.2899999991}},{"attributes":{"ID":55844,"DIS_CODE":0,"TOWNNAME":"永康區","LI":"勝利里","LIN":"1鄰","STREET":"勝利街","SECT":" ","MAREA":" ","LANE":"１巷","ALLEY":"１１弄","HOUSE_NO":"２號","E_COORD97":171108.72,"N_COORD97":2544598.75,"ADDRESS":"勝利街１巷１１弄２號","OBJECTID":55844},"geometry":{"x":171108.7200000016,"y":2544598.7499999981}},{"attributes":{"ID":55845,"DIS_CODE":0,"TOWNNAME":"永康區","LI":"蔦松里","LIN":"1鄰","STREET":"蔦松二街","SECT":" ","MAREA":" ","LANE":"８７巷","ALLEY":"３０弄","HOUSE_NO":"５２號","E_COORD97":173463.53,"N_COORD97":2549335.7000000002,"ADDRESS":"蔦松二街８７巷３０弄５２號","OBJECTID":55845},"geometry":{"x":173463.53000000119,"y":2549335.7000000011}},{"attributes":{"ID":55846,"DIS_CODE":0,"TOWNNAME":"永康區","LI":"勝利里","LIN":"1鄰","STREET":"勝利街","SECT":" ","MAREA":" ","LANE":"１巷","ALLEY":"１１弄","HOUSE_NO":"１１號","E_COORD97":171093.16,"N_COORD97":2544632,"ADDRESS":"勝利街１巷１１弄１１號","OBJECTID":55846},"geometry":{"x":171093.16000000108,"y":2544632.0000000019}},{"attributes":{"ID":55847,"DIS_CODE":0,"TOWNNAME":"東區","LI":"崇學里","LIN":"1鄰","STREET":"崇學路","SECT":" ","MAREA":" ","LANE":"９６巷","ALLEY":"８弄","HOUSE_NO":"１３號","E_COORD97":170331.04000000001,"N_COORD97":2542118.4700000002,"ADDRESS":"崇學路９６巷８弄１３號","OBJECTID":55847},"geometry":{"x":170331.04000000097,"y":2542118.4700000007}},{"attributes":{"ID":55848,"DIS_CODE":0,"TOWNNAME":"東區","LI":"崇學里","LIN":"1鄰","STREET":"崇德路","SECT":" ","MAREA":" ","LANE":"３３３巷","ALLEY":"２３弄","HOUSE_NO":"１０號","E_COORD97":170381.88,"N_COORD97":2542068.96,"ADDRESS":"崇德路３３３巷２３弄１０號","OBJECTID":55848},"geometry":{"x":170381.87999999989,"y":2542068.959999999}},{"attributes":{"ID":55849,"DIS_CODE":0,"TOWNNAME":"東區","LI":"崇學里","LIN":"1鄰","STREET":"崇德路","SECT":" ","MAREA":" ","LANE":"３３３巷","ALLEY":"２３弄","HOUSE_NO":"１２號","E_COORD97":170378.78,"N_COORD97":2542071.7400000002,"ADDRESS":"崇德路３３３巷２３弄１２號","OBJECTID":55849},"geometry":{"x":170378.78000000119,"y":2542071.7400000002}},{"attributes":{"ID":55850,"DIS_CODE":0,"TOWNNAME":"東區","LI":"崇學里","LIN":"1鄰","STREET":"崇德路","SECT":" ","MAREA":" ","LANE":"３３３巷","ALLEY":"２３弄","HOUSE_NO":"１４號","E_COORD97":170376.39999999999,"N_COORD97":2542076.1299999999,"ADDRESS":"崇德路３３３巷２３弄１４號","OBJECTID":55850},"geometry":{"x":170376.4000000013,"y":2542076.1300000027}},{"attributes":{"ID":55851,"DIS_CODE":0,"TOWNNAME":"東區","LI":"崇學里","LIN":"1鄰","STREET":"崇德路","SECT":" ","MAREA":" ","LANE":"３３３巷","ALLEY":"２３弄","HOUSE_NO":"１６號","E_COORD97":170373.51000000001,"N_COORD97":2542079.1600000001,"ADDRESS":"崇德路３３３巷２３弄１６號","OBJECTID":55851},"geometry":{"x":170373.51000000071,"y":2542079.1600000001}},{"attributes":{"ID":55852,"DIS_CODE":0,"TOWNNAME":"東區","LI":"崇學里","LIN":"1鄰","STREET":"崇德路","SECT":" ","MAREA":" ","LANE":"３３３巷","ALLEY":"２３弄","HOUSE_NO":"１８號","E_COORD97":170367.85000000001,"N_COORD97":2542079.1600000001,"ADDRESS":"崇德路３３３巷２３弄１８號","OBJECTID":55852},"geometry":{"x":170367.84999999963,"y":2542079.1600000001}},{"attributes":{"ID":55853,"DIS_CODE":0,"TOWNNAME":"東區","LI":"崇學里","LIN":"1鄰","STREET":"崇德路","SECT":" ","MAREA":" ","LANE":"３３３巷","ALLEY":"２３弄","HOUSE_NO":"２０號","E_COORD97":170365.09,"N_COORD97":2542081.5,"ADDRESS":"崇德路３３３巷２３弄２０號","OBJECTID":55853},"geometry":{"x":170365.08999999985,"y":2542081.5000000037}},{"attributes":{"ID":55854,"DIS_CODE":0,"TOWNNAME":"東區","LI":"崇學里","LIN":"1鄰","STREET":"崇德路","SECT":" ","MAREA":" ","LANE":"３３３巷","ALLEY":"２３弄","HOUSE_NO":"２２號","E_COORD97":170361.64000000001,"N_COORD97":2542083.71,"ADDRESS":"崇德路３３３巷２３弄２２號","OBJECTID":55854},"geometry":{"x":170361.6400000006,"y":2542083.7100000009}},{"attributes":{"ID":55855,"DIS_CODE":0,"TOWNNAME":"東區","LI":"崇學里","LIN":"1鄰","STREET":"崇德路","SECT":" ","MAREA":" ","LANE":"３３３巷","ALLEY":"２３弄","HOUSE_NO":"２４號","E_COORD97":170358.32999999999,"N_COORD97":2542086.0499999998,"ADDRESS":"崇德路３３３巷２３弄２４號","OBJECTID":55855},"geometry":{"x":170358.33000000007,"y":2542086.0500000026}},{"attributes":{"ID":55856,"DIS_CODE":0,"TOWNNAME":"東區","LI":"崇學里","LIN":"1鄰","STREET":"崇德路","SECT":" ","MAREA":" ","LANE":"３３３巷","ALLEY":"２３弄","HOUSE_NO":"２號","E_COORD97":170395.10000000001,"N_COORD97":2542056.8999999999,"ADDRESS":"崇德路３３３巷２３弄２號","OBJECTID":55856},"geometry":{"x":170395.09999999963,"y":2542056.9000000022}},{"attributes":{"ID":55857,"DIS_CODE":0,"TOWNNAME":"東區","LI":"崇學里","LIN":"1鄰","STREET":"崇德路","SECT":" ","MAREA":" ","LANE":"３３３巷","ALLEY":"２３弄","HOUSE_NO":"２號之１","E_COORD97":170391.51000000001,"N_COORD97":2542059.6699999999,"ADDRESS":"崇德路３３３巷２３弄２號之１","OBJECTID":55857},"geometry":{"x":170391.51000000071,"y":2542059.6699999999}},{"attributes":{"ID":55858,"DIS_CODE":0,"TOWNNAME":"東區","LI":"崇學里","LIN":"1鄰","STREET":"崇德路","SECT":" ","MAREA":" ","LANE":"３３３巷","ALLEY":"２３弄","HOUSE_NO":"６號","E_COORD97":170388.57000000001,"N_COORD97":2542063.2599999998,"ADDRESS":"崇德路３３３巷２３弄６號","OBJECTID":55858},"geometry":{"x":170388.57000000123,"y":2542063.2600000016}},{"attributes":{"ID":55859,"DIS_CODE":0,"TOWNNAME":"東區","LI":"崇學里","LIN":"1鄰","STREET":"崇德路","SECT":" ","MAREA":" ","LANE":"３３３巷","ALLEY":"２３弄","HOUSE_NO":"８號","E_COORD97":170386.12,"N_COORD97":2542066.3599999999,"ADDRESS":"崇德路３３３巷２３弄８號","OBJECTID":55859},"geometry":{"x":170386.12000000104,"y":2542066.3600000013}},{"attributes":{"ID":55860,"DIS_CODE":0,"TOWNNAME":"安定區","LI":"中榮里","LIN":"1鄰","STREET":" ","SECT":" ","MAREA":"許中營","LANE":" ","ALLEY":" ","HOUSE_NO":"１之３２號","E_COORD97":172231.44,"N_COORD97":2554888.2999999998,"ADDRESS":"許中營１之３２號","OBJECTID":55860},"geometry":{"x":172231.44000000041,"y":2554888.3000000007}},{"attributes":{"ID":55861,"DIS_CODE":0,"TOWNNAME":"安定區","LI":"新吉里","LIN":"1鄰","STREET":" ","SECT":" ","MAREA":"新吉","LANE":" ","ALLEY":" ","HOUSE_NO":"７號之７","E_COORD97":169283.92999999999,"N_COORD97":2554169.2999999998,"ADDRESS":"新吉７號之７","OBJECTID":55861},"geometry":{"x":169283.93000000063,"y":2554169.3000000007}},{"attributes":{"ID":55862,"DIS_CODE":0,"TOWNNAME":"安定區","LI":"六嘉里","LIN":"1鄰","STREET":" ","SECT":" ","MAREA":"六塊寮","LANE":" ","ALLEY":" ","HOUSE_NO":"９之２號","E_COORD97":170404.67000000001,"N_COORD97":2553593.2999999998,"ADDRESS":"六塊寮９之２號","OBJECTID":55862},"geometry":{"x":170404.67000000086,"y":2553593.3000000007}},{"attributes":{"ID":55863,"DIS_CODE":0,"TOWNNAME":"安定區","LI":"六嘉里","LIN":"1鄰","STREET":" ","SECT":" ","MAREA":"六塊寮","LANE":" ","ALLEY":" ","HOUSE_NO":"７號","E_COORD97":170439.76999999999,"N_COORD97":2553627.27,"ADDRESS":"六塊寮７號","OBJECTID":55863},"geometry":{"x":170439.76999999955,"y":2553627.2700000014}},{"attributes":{"ID":55864,"DIS_CODE":0,"TOWNNAME":"安定區","LI":"海寮里","LIN":"1鄰","STREET":" ","SECT":" ","MAREA":"海寮","LANE":" ","ALLEY":" ","HOUSE_NO":"１２之１３號","E_COORD97":169124.94,"N_COORD97":2555158.2999999998,"ADDRESS":"海寮１２之１３號","OBJECTID":55864},"geometry":{"x":169124.94000000134,"y":2555158.3000000026}},{"attributes":{"ID":55865,"DIS_CODE":0,"TOWNNAME":"安定區","LI":"蘇林里","LIN":"1鄰","STREET":" ","SECT":" ","MAREA":"蘇厝","LANE":" ","ALLEY":" ","HOUSE_NO":"１５之２號","E_COORD97":173578.36062600001,"N_COORD97":2558516.2253100001,"ADDRESS":"蘇厝１５之２號","OBJECTID":55865},"geometry":{"x":173578.36062600091,"y":2558516.2253120039}},{"attributes":{"ID":55866,"DIS_CODE":0,"TOWNNAME":"安定區","LI":"安加里","LIN":"1鄰","STREET":" ","SECT":" ","MAREA":"安定","LANE":" ","ALLEY":" ","HOUSE_NO":"１５３號","E_COORD97":171988.89563000001,"N_COORD97":2557632.9239500002,"ADDRESS":"安定１５３號","OBJECTID":55866},"geometry":{"x":171988.89562999923,"y":2557632.9239460025}},{"attributes":{"ID":55867,"DIS_CODE":0,"TOWNNAME":"安定區","LI":"蘇林里","LIN":"1鄰","STREET":" ","SECT":" ","MAREA":"蘇厝","LANE":" ","ALLEY":" ","HOUSE_NO":"２之１８號","E_COORD97":173851.76999999999,"N_COORD97":2558602.2999999998,"ADDRESS":"蘇厝２之１８號","OBJECTID":55867},"geometry":{"x":173851.76999999955,"y":2558602.3000000026}},{"attributes":{"ID":55868,"DIS_CODE":0,"TOWNNAME":"安定區","LI":"蘇林里","LIN":"1鄰","STREET":" ","SECT":" ","MAREA":"蘇厝","LANE":" ","ALLEY":" ","HOUSE_NO":"１０號之５","E_COORD97":173642.06,"N_COORD97":2558568.29,"ADDRESS":"蘇厝１０號之５","OBJECTID":55868},"geometry":{"x":173642.05999999866,"y":2558568.2899999991}},{"attributes":{"ID":55869,"DIS_CODE":0,"TOWNNAME":"安定區","LI":"海寮里","LIN":"1鄰","STREET":" ","SECT":" ","MAREA":"海寮","LANE":" ","ALLEY":" ","HOUSE_NO":"１２號","E_COORD97":169135.89000000001,"N_COORD97":2555140.25,"ADDRESS":"海寮１２號","OBJECTID":55869},"geometry":{"x":169135.89000000153,"y":2555140.2500000019}},{"attributes":{"ID":55870,"DIS_CODE":0,"TOWNNAME":"安定區","LI":"蘇林里","LIN":"1鄰","STREET":" ","SECT":" ","MAREA":"蘇厝","LANE":" ","ALLEY":" ","HOUSE_NO":"７號之１２","E_COORD97":173508.54000000001,"N_COORD97":2558363.2999999998,"ADDRESS":"蘇厝７號之１２","OBJECTID":55870},"geometry":{"x":173508.54000000004,"y":2558363.3000000007}},{"attributes":{"ID":55871,"DIS_CODE":0,"TOWNNAME":"安定區","LI":"中沙里","LIN":"1鄰","STREET":" ","SECT":" ","MAREA":"中崙","LANE":" ","ALLEY":" ","HOUSE_NO":"５５號","E_COORD97":169160.06,"N_COORD97":2553233.25,"ADDRESS":"中崙５５號","OBJECTID":55871},"geometry":{"x":169160.06000000145,"y":2553233.25}},{"attributes":{"ID":55872,"DIS_CODE":0,"TOWNNAME":"安定區","LI":"六嘉里","LIN":"1鄰","STREET":" ","SECT":" ","MAREA":"六塊寮","LANE":" ","ALLEY":" ","HOUSE_NO":"２之７號","E_COORD97":170482.37,"N_COORD97":2553682.2999999998,"ADDRESS":"六塊寮２之７號","OBJECTID":55872},"geometry":{"x":170482.36999999918,"y":2553682.3000000045}},{"attributes":{"ID":55873,"DIS_CODE":0,"TOWNNAME":"安定區","LI":"海寮里","LIN":"1鄰","STREET":" ","SECT":" ","MAREA":"海寮","LANE":" ","ALLEY":" ","HOUSE_NO":"７之５０號","E_COORD97":169231.92141000001,"N_COORD97":2554591.6708499999,"ADDRESS":"海寮７之５０號","OBJECTID":55873},"geometry":{"x":169231.92141000088,"y":2554591.6708540004}},{"attributes":{"ID":55874,"DIS_CODE":0,"TOWNNAME":"安定區","LI":"蘇林里","LIN":"1鄰","STREET":" ","SECT":" ","MAREA":"蘇厝","LANE":" ","ALLEY":" ","HOUSE_NO":"７之７號","E_COORD97":173592.92000000001,"N_COORD97":2558436.2999999998,"ADDRESS":"蘇厝７之７號","OBJECTID":55874},"geometry":{"x":173592.92000000086,"y":2558436.3000000026}},{"attributes":{"ID":55875,"DIS_CODE":0,"TOWNNAME":"安定區","LI":"六嘉里","LIN":"1鄰","STREET":" ","SECT":" ","MAREA":"六塊寮","LANE":" ","ALLEY":" ","HOUSE_NO":"２之３號","E_COORD97":170469.07000000001,"N_COORD97":2553655.2999999998,"ADDRESS":"六塊寮２之３號","OBJECTID":55875},"geometry":{"x":170469.0700000003,"y":2553655.3000000045}},{"attributes":{"ID":55876,"DIS_CODE":0,"TOWNNAME":"安定區","LI":"中榮里","LIN":"1鄰","STREET":" ","SECT":" ","MAREA":"許中營","LANE":" ","ALLEY":" ","HOUSE_NO":"１之３６號","E_COORD97":172235.64000000001,"N_COORD97":2554874.2999999998,"ADDRESS":"許中營１之３６號","OBJECTID":55876},"geometry":{"x":172235.63999999966,"y":2554874.3000000007}},{"attributes":{"ID":55877,"DIS_CODE":0,"TOWNNAME":"佳里區","LI":"蚶寮里","LIN":"1鄰","STREET":" ","SECT":" ","MAREA":"蚶寮","LANE":" ","ALLEY":" ","HOUSE_NO":"１０號之１１","E_COORD97":164022.10000000001,"N_COORD97":2558547.6299999999,"ADDRESS":"蚶寮１０號之１１","OBJECTID":55877},"geometry":{"x":164022.10000000056,"y":2558547.6300000008}},{"attributes":{"ID":55878,"DIS_CODE":0,"TOWNNAME":"佳里區","LI":"蚶寮里","LIN":"1鄰","STREET":" ","SECT":" ","MAREA":"蚶寮","LANE":" ","ALLEY":" ","HOUSE_NO":"１０號之１２","E_COORD97":164018.22,"N_COORD97":2558547.8999999999,"ADDRESS":"蚶寮１０號之１２","OBJECTID":55878},"geometry":{"x":164018.22000000067,"y":2558547.9000000022}},{"attributes":{"ID":55879,"DIS_CODE":0,"TOWNNAME":"佳里區","LI":"蚶寮里","LIN":"1鄰","STREET":" ","SECT":" ","MAREA":"蚶寮","LANE":" ","ALLEY":" ","HOUSE_NO":"１０號之１３","E_COORD97":164014.14000000001,"N_COORD97":2558548.21,"ADDRESS":"蚶寮１０號之１３","OBJECTID":55879},"geometry":{"x":164014.13999999966,"y":2558548.2100000046}},{"attributes":{"ID":55880,"DIS_CODE":0,"TOWNNAME":"佳里區","LI":"蚶寮里","LIN":"1鄰","STREET":" ","SECT":" ","MAREA":"蚶寮","LANE":" ","ALLEY":" ","HOUSE_NO":"１０號之１４","E_COORD97":164009.59,"N_COORD97":2558548.2400000002,"ADDRESS":"蚶寮１０號之１４","OBJECTID":55880},"geometry":{"x":164009.58999999985,"y":2558548.2400000021}},{"attributes":{"ID":55881,"DIS_CODE":0,"TOWNNAME":"佳里區","LI":"蚶寮里","LIN":"1鄰","STREET":" ","SECT":" ","MAREA":"蚶寮","LANE":" ","ALLEY":" ","HOUSE_NO":"１１號之１２","E_COORD97":164023.39000000001,"N_COORD97":2558494.52,"ADDRESS":"蚶寮１１號之１２","OBJECTID":55881},"geometry":{"x":164023.3900000006,"y":2558494.5200000014}},{"attributes":{"ID":55882,"DIS_CODE":0,"TOWNNAME":"佳里區","LI":"蚶寮里","LIN":"1鄰","STREET":" ","SECT":" ","MAREA":"蚶寮","LANE":" ","ALLEY":" ","HOUSE_NO":"１１號之１３","E_COORD97":164011.82000000001,"N_COORD97":2558497.3300000001,"ADDRESS":"蚶寮１１號之１３","OBJECTID":55882},"geometry":{"x":164011.8200000003,"y":2558497.3300000001}},{"attributes":{"ID":55883,"DIS_CODE":0,"TOWNNAME":"佳里區","LI":"蚶寮里","LIN":"1鄰","STREET":" ","SECT":" ","MAREA":"蚶寮","LANE":" ","ALLEY":" ","HOUSE_NO":"１１號","E_COORD97":164064.98999999999,"N_COORD97":2558500.1800000002,"ADDRESS":"蚶寮１１號","OBJECTID":55883},"geometry":{"x":164064.99000000022,"y":2558500.1800000016}},{"attributes":{"ID":55884,"DIS_CODE":0,"TOWNNAME":"佳里區","LI":"蚶寮里","LIN":"1鄰","STREET":" ","SECT":" ","MAREA":"蚶寮","LANE":" ","ALLEY":" ","HOUSE_NO":"１２號","E_COORD97":164106.34,"N_COORD97":2558505.6099999999,"ADDRESS":"蚶寮１２號","OBJECTID":55884},"geometry":{"x":164106.33999999985,"y":2558505.6099999994}},{"attributes":{"ID":55885,"DIS_CODE":0,"TOWNNAME":"佳里區","LI":"蚶寮里","LIN":"1鄰","STREET":" ","SECT":" ","MAREA":"蚶寮","LANE":" ","ALLEY":" ","HOUSE_NO":"５號之１","E_COORD97":163973.85999999999,"N_COORD97":2558480.71,"ADDRESS":"蚶寮５號之１","OBJECTID":55885},"geometry":{"x":163973.86000000127,"y":2558480.7100000028}},{"attributes":{"ID":55886,"DIS_CODE":0,"TOWNNAME":"佳里區","LI":"蚶寮里","LIN":"1鄰","STREET":" ","SECT":" ","MAREA":"蚶寮","LANE":" ","ALLEY":" ","HOUSE_NO":"５號","E_COORD97":163988.14000000001,"N_COORD97":2558479.9900000002,"ADDRESS":"蚶寮５號","OBJECTID":55886},"geometry":{"x":163988.1400000006,"y":2558479.9900000002}},{"attributes":{"ID":55887,"DIS_CODE":0,"TOWNNAME":"佳里區","LI":"蚶寮里","LIN":"1鄰","STREET":" ","SECT":" ","MAREA":"蚶寮","LANE":" ","ALLEY":" ","HOUSE_NO":"６號之１","E_COORD97":163939.42999999999,"N_COORD97":2558466.5899999999,"ADDRESS":"蚶寮６號之１","OBJECTID":55887},"geometry":{"x":163939.4299999997,"y":2558466.5900000036}},{"attributes":{"ID":55888,"DIS_CODE":0,"TOWNNAME":"佳里區","LI":"蚶寮里","LIN":"1鄰","STREET":" ","SECT":" ","MAREA":"蚶寮","LANE":" ","ALLEY":" ","HOUSE_NO":"６號之２","E_COORD97":163956,"N_COORD97":2558460.3900000001,"ADDRESS":"蚶寮６號之２","OBJECTID":55888},"geometry":{"x":163956,"y":2558460.3900000006}},{"attributes":{"ID":55889,"DIS_CODE":0,"TOWNNAME":"佳里區","LI":"蚶寮里","LIN":"1鄰","STREET":" ","SECT":" ","MAREA":"蚶寮","LANE":" ","ALLEY":" ","HOUSE_NO":"６號之３","E_COORD97":163946.44,"N_COORD97":2558462.98,"ADDRESS":"蚶寮６號之３","OBJECTID":55889},"geometry":{"x":163946.44000000134,"y":2558462.9800000004}},{"attributes":{"ID":55890,"DIS_CODE":0,"TOWNNAME":"佳里區","LI":"蚶寮里","LIN":"1鄰","STREET":" ","SECT":" ","MAREA":"蚶寮","LANE":" ","ALLEY":" ","HOUSE_NO":"６號之４","E_COORD97":163951.01000000001,"N_COORD97":2558461.9100000001,"ADDRESS":"蚶寮６號之４","OBJECTID":55890},"geometry":{"x":163951.00999999978,"y":2558461.910000002}},{"attributes":{"ID":55891,"DIS_CODE":0,"TOWNNAME":"佳里區","LI":"蚶寮里","LIN":"1鄰","STREET":" ","SECT":" ","MAREA":"蚶寮","LANE":" ","ALLEY":" ","HOUSE_NO":"６號","E_COORD97":163952.22,"N_COORD97":2558490.52,"ADDRESS":"蚶寮６號","OBJECTID":55891},"geometry":{"x":163952.22000000067,"y":2558490.5200000033}},{"attributes":{"ID":55892,"DIS_CODE":0,"TOWNNAME":"佳里區","LI":"蚶寮里","LIN":"1鄰","STREET":" ","SECT":" ","MAREA":"蚶寮","LANE":" ","ALLEY":" ","HOUSE_NO":"７號之１０","E_COORD97":164020.59,"N_COORD97":2558517.0299999998,"ADDRESS":"蚶寮７號之１０","OBJECTID":55892},"geometry":{"x":164020.59000000078,"y":2558517.0299999975}},{"attributes":{"ID":55893,"DIS_CODE":0,"TOWNNAME":"佳里區","LI":"蚶寮里","LIN":"1鄰","STREET":" ","SECT":" ","MAREA":"蚶寮","LANE":" ","ALLEY":" ","HOUSE_NO":"７號之１１","E_COORD97":164024.47,"N_COORD97":2558517.9100000001,"ADDRESS":"蚶寮７號之１１","OBJECTID":55893},"geometry":{"x":164024.4700000016,"y":2558517.9100000001}},{"attributes":{"ID":55894,"DIS_CODE":0,"TOWNNAME":"佳里區","LI":"蚶寮里","LIN":"1鄰","STREET":" ","SECT":" ","MAREA":"蚶寮","LANE":" ","ALLEY":" ","HOUSE_NO":"７號之１２","E_COORD97":164029.70999999999,"N_COORD97":2558519.02,"ADDRESS":"蚶寮７號之１２","OBJECTID":55894},"geometry":{"x":164029.70999999903,"y":2558519.0200000014}},{"attributes":{"ID":55895,"DIS_CODE":0,"TOWNNAME":"佳里區","LI":"蚶寮里","LIN":"1鄰","STREET":" ","SECT":" ","MAREA":"蚶寮","LANE":" ","ALLEY":" ","HOUSE_NO":"７號之９","E_COORD97":164016.41,"N_COORD97":2558515.98,"ADDRESS":"蚶寮７號之９","OBJECTID":55895},"geometry":{"x":164016.41000000015,"y":2558515.9800000023}},{"attributes":{"ID":55896,"DIS_CODE":0,"TOWNNAME":"佳里區","LI":"蚶寮里","LIN":"1鄰","STREET":" ","SECT":" ","MAREA":"蚶寮","LANE":" ","ALLEY":" ","HOUSE_NO":"７號","E_COORD97":164004.07999999999,"N_COORD97":2558518.8300000001,"ADDRESS":"蚶寮７號","OBJECTID":55896},"geometry":{"x":164004.08000000101,"y":2558518.8300000001}},{"attributes":{"ID":55897,"DIS_CODE":0,"TOWNNAME":"佳里區","LI":"蚶寮里","LIN":"1鄰","STREET":" ","SECT":" ","MAREA":"蚶寮","LANE":" ","ALLEY":" ","HOUSE_NO":"９號","E_COORD97":164051.79000000001,"N_COORD97":2558537.23,"ADDRESS":"蚶寮９號","OBJECTID":55897},"geometry":{"x":164051.79000000097,"y":2558537.2299999986}},{"attributes":{"ID":55898,"DIS_CODE":0,"TOWNNAME":"佳里區","LI":"頂\u25A0里","LIN":"1鄰","STREET":" ","SECT":" ","MAREA":"頂\u25A0","LANE":" ","ALLEY":" ","HOUSE_NO":"１０號之１","E_COORD97":163340.44,"N_COORD97":2563739.3399999999,"ADDRESS":"頂\u25A0１０號之１","OBJECTID":55898},"geometry":{"x":163340.44000000227,"y":2563739.3399999999}},{"attributes":{"ID":55899,"DIS_CODE":0,"TOWNNAME":"佳里區","LI":"頂\u25A0里","LIN":"1鄰","STREET":" ","SECT":" ","MAREA":"頂\u25A0","LANE":" ","ALLEY":" ","HOUSE_NO":"１０號之２","E_COORD97":163350.17999999999,"N_COORD97":2563756.2200000002,"ADDRESS":"頂\u25A0１０號之２","OBJECTID":55899},"geometry":{"x":163350.18000000063,"y":2563756.2200000025}},{"attributes":{"ID":55900,"DIS_CODE":0,"TOWNNAME":"佳里區","LI":"頂\u25A0里","LIN":"1鄰","STREET":" ","SECT":" ","MAREA":"頂\u25A0","LANE":" ","ALLEY":" ","HOUSE_NO":"１０號之３","E_COORD97":163345.64000000001,"N_COORD97":2563757.23,"ADDRESS":"頂\u25A0１０號之３","OBJECTID":55900},"geometry":{"x":163345.6400000006,"y":2563757.2300000004}},{"attributes":{"ID":55901,"DIS_CODE":0,"TOWNNAME":"佳里區","LI":"頂\u25A0里","LIN":"1鄰","STREET":" ","SECT":" ","MAREA":"頂\u25A0","LANE":" ","ALLEY":" ","HOUSE_NO":"１０號之５","E_COORD97":163336.29000000001,"N_COORD97":2563759.3100000001,"ADDRESS":"頂\u25A0１０號之５","OBJECTID":55901},"geometry":{"x":163336.29000000097,"y":2563759.3100000024}},{"attributes":{"ID":55902,"DIS_CODE":0,"TOWNNAME":"佳里區","LI":"頂\u25A0里","LIN":"1鄰","STREET":" ","SECT":" ","MAREA":"頂\u25A0","LANE":" ","ALLEY":" ","HOUSE_NO":"１０號之６","E_COORD97":163252.88,"N_COORD97":2563837.2599999998,"ADDRESS":"頂\u25A0１０號之６","OBJECTID":55902},"geometry":{"x":163252.88000000082,"y":2563837.2600000016}},{"attributes":{"ID":55903,"DIS_CODE":0,"TOWNNAME":"佳里區","LI":"頂\u25A0里","LIN":"1鄰","STREET":" ","SECT":" ","MAREA":"頂\u25A0","LANE":" ","ALLEY":" ","HOUSE_NO":"１０號之７","E_COORD97":163263.64999999999,"N_COORD97":2563869.6299999999,"ADDRESS":"頂\u25A0１０號之７","OBJECTID":55903},"geometry":{"x":163263.65000000037,"y":2563869.6300000027}},{"attributes":{"ID":55904,"DIS_CODE":0,"TOWNNAME":"佳里區","LI":"頂\u25A0里","LIN":"1鄰","STREET":" ","SECT":" ","MAREA":"頂\u25A0","LANE":" ","ALLEY":" ","HOUSE_NO":"１０號","E_COORD97":163326.35000000001,"N_COORD97":2563760.1200000001,"ADDRESS":"頂\u25A0１０號","OBJECTID":55904},"geometry":{"x":163326.34999999963,"y":2563760.1200000048}},{"attributes":{"ID":55905,"DIS_CODE":0,"TOWNNAME":"佳里區","LI":"頂\u25A0里","LIN":"1鄰","STREET":" ","SECT":" ","MAREA":"頂\u25A0","LANE":" ","ALLEY":" ","HOUSE_NO":"１１號之２","E_COORD97":163458.76999999999,"N_COORD97":2563739.4399999999,"ADDRESS":"頂\u25A0１１號之２","OBJECTID":55905},"geometry":{"x":163458.76999999955,"y":2563739.4400000013}},{"attributes":{"ID":55906,"DIS_CODE":0,"TOWNNAME":"佳里區","LI":"頂\u25A0里","LIN":"1鄰","STREET":" ","SECT":" ","MAREA":"頂\u25A0","LANE":" ","ALLEY":" ","HOUSE_NO":"１１號之３","E_COORD97":163440.64000000001,"N_COORD97":2563719.4500000002,"ADDRESS":"頂\u25A0１１號之３","OBJECTID":55906},"geometry":{"x":163440.6400000006,"y":2563719.4500000011}},{"attributes":{"ID":55907,"DIS_CODE":0,"TOWNNAME":"佳里區","LI":"頂\u25A0里","LIN":"1鄰","STREET":" ","SECT":" ","MAREA":"頂\u25A0","LANE":" ","ALLEY":" ","HOUSE_NO":"１１號之５","E_COORD97":163486.53,"N_COORD97":2563709.96,"ADDRESS":"頂\u25A0１１號之５","OBJECTID":55907},"geometry":{"x":163486.53000000026,"y":2563709.9600000046}},{"attributes":{"ID":55908,"DIS_CODE":0,"TOWNNAME":"鹽水區","LI":"歡雅里","LIN":"1鄰","STREET":" ","SECT":" ","MAREA":"歡雅","LANE":" ","ALLEY":" ","HOUSE_NO":"３號","E_COORD97":172560.54000000001,"N_COORD97":2576949.6200000001,"ADDRESS":"歡雅３號","OBJECTID":55908},"geometry":{"x":172560.54000000004,"y":2576949.6200000029}},{"attributes":{"ID":55909,"DIS_CODE":0,"TOWNNAME":"鹽水區","LI":"汫水里","LIN":"4鄰","STREET":" ","SECT":" ","MAREA":"汫水港","LANE":" ","ALLEY":" ","HOUSE_NO":"１２６號之２","E_COORD97":175779.70999999999,"N_COORD97":2582764.29,"ADDRESS":"汫水港１２６號之２","OBJECTID":55909},"geometry":{"x":175779.71000000089,"y":2582764.290000001}},{"attributes":{"ID":55910,"DIS_CODE":0,"TOWNNAME":"鹽水區","LI":"汫水里","LIN":"4鄰","STREET":" ","SECT":" ","MAREA":"汫水港","LANE":" ","ALLEY":" ","HOUSE_NO":"１２６號之３","E_COORD97":175779.25,"N_COORD97":2582791.02,"ADDRESS":"汫水港１２６號之３","OBJECTID":55910},"geometry":{"x":175779.25000000093,"y":2582791.0199999996}},{"attributes":{"ID":55911,"DIS_CODE":0,"TOWNNAME":"鹽水區","LI":"汫水里","LIN":"4鄰","STREET":" ","SECT":" ","MAREA":"汫水港","LANE":" ","ALLEY":" ","HOUSE_NO":"１２６號之５","E_COORD97":175767.23999999999,"N_COORD97":2582757.27,"ADDRESS":"汫水港１２６號之５","OBJECTID":55911},"geometry":{"x":175767.23999999929,"y":2582757.2700000033}},{"attributes":{"ID":55912,"DIS_CODE":0,"TOWNNAME":"鹽水區","LI":"汫水里","LIN":"4鄰","STREET":" ","SECT":" ","MAREA":"汫水港","LANE":" ","ALLEY":" ","HOUSE_NO":"１２６號之６","E_COORD97":175692.85999999999,"N_COORD97":2582757.7400000002,"ADDRESS":"汫水港１２６號之６","OBJECTID":55912},"geometry":{"x":175692.86000000127,"y":2582757.7399999984}},{"attributes":{"ID":55913,"DIS_CODE":0,"TOWNNAME":"鹽水區","LI":"汫水里","LIN":"1鄰","STREET":" ","SECT":" ","MAREA":"汫水港","LANE":" ","ALLEY":" ","HOUSE_NO":"１２７號之３","E_COORD97":175730.48000000001,"N_COORD97":2582739.8500000001,"ADDRESS":"汫水港１２７號之３","OBJECTID":55913},"geometry":{"x":175730.48000000231,"y":2582739.8500000034}},{"attributes":{"ID":55914,"DIS_CODE":0,"TOWNNAME":"鹽水區","LI":"汫水里","LIN":"1鄰","STREET":" ","SECT":" ","MAREA":"汫水港","LANE":" ","ALLEY":" ","HOUSE_NO":"１２７號","E_COORD97":175702.78,"N_COORD97":2582739.8500000001,"ADDRESS":"汫水港１２７號","OBJECTID":55914},"geometry":{"x":175702.78000000212,"y":2582739.8500000034}},{"attributes":{"ID":55915,"DIS_CODE":0,"TOWNNAME":"鹽水區","LI":"汫水里","LIN":"1鄰","STREET":" ","SECT":" ","MAREA":"汫水港","LANE":" ","ALLEY":" ","HOUSE_NO":"１２８號之１０","E_COORD97":175672.88,"N_COORD97":2582497.9500000002,"ADDRESS":"汫水港１２８號之１０","OBJECTID":55915},"geometry":{"x":175672.88000000175,"y":2582497.950000003}},{"attributes":{"ID":55916,"DIS_CODE":0,"TOWNNAME":"佳里區","LI":"頂\u25A0里","LIN":"1鄰","STREET":" ","SECT":" ","MAREA":"頂\u25A0","LANE":" ","ALLEY":" ","HOUSE_NO":"１１號之６","E_COORD97":163496.91,"N_COORD97":2563709,"ADDRESS":"頂\u25A0１１號之６","OBJECTID":55916},"geometry":{"x":163496.91000000108,"y":2563709.0000000037}},{"attributes":{"ID":55917,"DIS_CODE":0,"TOWNNAME":"佳里區","LI":"頂\u25A0里","LIN":"1鄰","STREET":" ","SECT":" ","MAREA":"頂\u25A0","LANE":" ","ALLEY":" ","HOUSE_NO":"１１號之７","E_COORD97":163507.94,"N_COORD97":2563708.8199999998,"ADDRESS":"頂\u25A0１１號之７","OBJECTID":55917},"geometry":{"x":163507.94000000041,"y":2563708.8200000003}},{"attributes":{"ID":55918,"DIS_CODE":0,"TOWNNAME":"佳里區","LI":"頂\u25A0里","LIN":"1鄰","STREET":" ","SECT":" ","MAREA":"頂\u25A0","LANE":" ","ALLEY":" ","HOUSE_NO":"１號之７","E_COORD97":164022.98000000001,"N_COORD97":2563621.71,"ADDRESS":"頂\u25A0１號之７","OBJECTID":55918},"geometry":{"x":164022.98000000045,"y":2563621.7100000028}},{"attributes":{"ID":55919,"DIS_CODE":0,"TOWNNAME":"佳里區","LI":"頂\u25A0里","LIN":"1鄰","STREET":" ","SECT":" ","MAREA":"頂\u25A0","LANE":" ","ALLEY":" ","HOUSE_NO":"１１號之８","E_COORD97":163497.38,"N_COORD97":2563730.0299999998,"ADDRESS":"頂\u25A0１１號之８","OBJECTID":55919},"geometry":{"x":163497.37999999989,"y":2563730.0299999993}},{"attributes":{"ID":55920,"DIS_CODE":0,"TOWNNAME":"佳里區","LI":"頂\u25A0里","LIN":"1鄰","STREET":" ","SECT":" ","MAREA":"頂\u25A0","LANE":" ","ALLEY":" ","HOUSE_NO":"１１號","E_COORD97":163383.54999999999,"N_COORD97":2563735.9199999999,"ADDRESS":"頂\u25A0１１號","OBJECTID":55920},"geometry":{"x":163383.55000000075,"y":2563735.9199999999}},{"attributes":{"ID":55921,"DIS_CODE":0,"TOWNNAME":"佳里區","LI":"頂\u25A0里","LIN":"1鄰","STREET":" ","SECT":" ","MAREA":"頂\u25A0","LANE":" ","ALLEY":" ","HOUSE_NO":"１２號之１","E_COORD97":163426.51000000001,"N_COORD97":2563730.8500000001,"ADDRESS":"頂\u25A0１２號之１","OBJECTID":55921},"geometry":{"x":163426.51000000071,"y":2563730.8500000015}},{"attributes":{"ID":55922,"DIS_CODE":0,"TOWNNAME":"佳里區","LI":"頂\u25A0里","LIN":"1鄰","STREET":" ","SECT":" ","MAREA":"頂\u25A0","LANE":" ","ALLEY":" ","HOUSE_NO":"１３７號","E_COORD97":163859.79000000001,"N_COORD97":2564135.3100000001,"ADDRESS":"頂\u25A0１３７號","OBJECTID":55922},"geometry":{"x":163859.7900000019,"y":2564135.3100000024}},{"attributes":{"ID":55923,"DIS_CODE":0,"TOWNNAME":"佳里區","LI":"頂\u25A0里","LIN":"1鄰","STREET":" ","SECT":" ","MAREA":"頂\u25A0","LANE":" ","ALLEY":" ","HOUSE_NO":"１號之１００","E_COORD97":163726.35999999999,"N_COORD97":2563796.8100000001,"ADDRESS":"頂\u25A0１號之１００","OBJECTID":55923},"geometry":{"x":163726.36000000127,"y":2563796.8100000024}},{"attributes":{"ID":55924,"DIS_CODE":0,"TOWNNAME":"佳里區","LI":"頂\u25A0里","LIN":"1鄰","STREET":" ","SECT":" ","MAREA":"頂\u25A0","LANE":" ","ALLEY":" ","HOUSE_NO":"１號之１０１","E_COORD97":163726.67999999999,"N_COORD97":2563800.8199999998,"ADDRESS":"頂\u25A0１號之１０１","OBJECTID":55924},"geometry":{"x":163726.68000000063,"y":2563800.8200000003}},{"attributes":{"ID":55925,"DIS_CODE":0,"TOWNNAME":"佳里區","LI":"頂\u25A0里","LIN":"1鄰","STREET":" ","SECT":" ","MAREA":"頂\u25A0","LANE":" ","ALLEY":" ","HOUSE_NO":"１號之１０２","E_COORD97":163727.03,"N_COORD97":2563805.2200000002,"ADDRESS":"頂\u25A0１號之１０２","OBJECTID":55925},"geometry":{"x":163727.03000000119,"y":2563805.2200000007}},{"attributes":{"ID":55926,"DIS_CODE":0,"TOWNNAME":"佳里區","LI":"頂\u25A0里","LIN":"1鄰","STREET":" ","SECT":" ","MAREA":"頂\u25A0","LANE":" ","ALLEY":" ","HOUSE_NO":"１號之１０３","E_COORD97":163727.35000000001,"N_COORD97":2563809.02,"ADDRESS":"頂\u25A0１號之１０３","OBJECTID":55926},"geometry":{"x":163727.35000000056,"y":2563809.0199999996}},{"attributes":{"ID":55927,"DIS_CODE":0,"TOWNNAME":"佳里區","LI":"頂\u25A0里","LIN":"1鄰","STREET":" ","SECT":" ","MAREA":"頂\u25A0","LANE":" ","ALLEY":" ","HOUSE_NO":"１號之１０４","E_COORD97":163727.72,"N_COORD97":2563813.8500000001,"ADDRESS":"頂\u25A0１號之１０４","OBJECTID":55927},"geometry":{"x":163727.7200000016,"y":2563813.8499999996}},{"attributes":{"ID":55928,"DIS_CODE":0,"TOWNNAME":"佳里區","LI":"頂\u25A0里","LIN":"1鄰","STREET":" ","SECT":" ","MAREA":"頂\u25A0","LANE":" ","ALLEY":" ","HOUSE_NO":"１號之１０５","E_COORD97":163784.78,"N_COORD97":2563822.5699999998,"ADDRESS":"頂\u25A0１號之１０５","OBJECTID":55928},"geometry":{"x":163784.78000000026,"y":2563822.5700000003}},{"attributes":{"ID":55929,"DIS_CODE":0,"TOWNNAME":"佳里區","LI":"頂\u25A0里","LIN":"1鄰","STREET":" ","SECT":" ","MAREA":"頂\u25A0","LANE":" ","ALLEY":" ","HOUSE_NO":"１號之１０６","E_COORD97":163780.19,"N_COORD97":2563823.3300000001,"ADDRESS":"頂\u25A0１號之１０６","OBJECTID":55929},"geometry":{"x":163780.19000000134,"y":2563823.3300000019}},{"attributes":{"ID":55930,"DIS_CODE":0,"TOWNNAME":"佳里區","LI":"頂\u25A0里","LIN":"1鄰","STREET":" ","SECT":" ","MAREA":"頂\u25A0","LANE":" ","ALLEY":" ","HOUSE_NO":"１號之１０７","E_COORD97":163776.64999999999,"N_COORD97":2563823.25,"ADDRESS":"頂\u25A0１號之１０７","OBJECTID":55930},"geometry":{"x":163776.6500000013,"y":2563823.2500000019}},{"attributes":{"ID":55931,"DIS_CODE":0,"TOWNNAME":"佳里區","LI":"頂\u25A0里","LIN":"2鄰","STREET":" ","SECT":" ","MAREA":"頂\u25A0","LANE":" ","ALLEY":" ","HOUSE_NO":"１６號","E_COORD97":163250.34938199999,"N_COORD97":2563638.7546899999,"ADDRESS":"頂\u25A0１６號","OBJECTID":55931},"geometry":{"x":163250.34938200098,"y":2563638.7546940017}},{"attributes":{"ID":55932,"DIS_CODE":0,"TOWNNAME":"佳里區","LI":"頂\u25A0里","LIN":"1鄰","STREET":" ","SECT":" ","MAREA":"頂\u25A0","LANE":" ","ALLEY":" ","HOUSE_NO":"１號之１０９","E_COORD97":163767.81,"N_COORD97":2563824.52,"ADDRESS":"頂\u25A0１號之１０９","OBJECTID":55932},"geometry":{"x":163767.81000000145,"y":2563824.5200000014}},{"attributes":{"ID":55933,"DIS_CODE":0,"TOWNNAME":"佳里區","LI":"頂\u25A0里","LIN":"1鄰","STREET":" ","SECT":" ","MAREA":"頂\u25A0","LANE":" ","ALLEY":" ","HOUSE_NO":"１號之１１０","E_COORD97":163763.88,"N_COORD97":2563824.54,"ADDRESS":"頂\u25A0１號之１１０","OBJECTID":55933},"geometry":{"x":163763.87999999989,"y":2563824.5399999991}},{"attributes":{"ID":55934,"DIS_CODE":0,"TOWNNAME":"佳里區","LI":"頂\u25A0里","LIN":"1鄰","STREET":" ","SECT":" ","MAREA":"頂\u25A0","LANE":" ","ALLEY":" ","HOUSE_NO":"１號之１１１","E_COORD97":163760.28,"N_COORD97":2563824.75,"ADDRESS":"頂\u25A0１號之１１１","OBJECTID":55934},"geometry":{"x":163760.28000000119,"y":2563824.75}},{"attributes":{"ID":55935,"DIS_CODE":0,"TOWNNAME":"佳里區","LI":"頂\u25A0里","LIN":"1鄰","STREET":" ","SECT":" ","MAREA":"頂\u25A0","LANE":" ","ALLEY":" ","HOUSE_NO":"１號之１１２","E_COORD97":163756.32000000001,"N_COORD97":2563825.0099999998,"ADDRESS":"頂\u25A0１號之１１２","OBJECTID":55935},"geometry":{"x":163756.3200000003,"y":2563825.0100000016}},{"attributes":{"ID":55936,"DIS_CODE":0,"TOWNNAME":"佳里區","LI":"頂\u25A0里","LIN":"1鄰","STREET":" ","SECT":" ","MAREA":"頂\u25A0","LANE":" ","ALLEY":" ","HOUSE_NO":"１號之１１３","E_COORD97":163752.25,"N_COORD97":2563825.5699999998,"ADDRESS":"頂\u25A0１號之１１３","OBJECTID":55936},"geometry":{"x":163752.25000000093,"y":2563825.5700000022}},{"attributes":{"ID":55937,"DIS_CODE":0,"TOWNNAME":"佳里區","LI":"頂\u25A0里","LIN":"1鄰","STREET":" ","SECT":" ","MAREA":"頂\u25A0","LANE":" ","ALLEY":" ","HOUSE_NO":"１號之１１４","E_COORD97":163747.95999999999,"N_COORD97":2563826.1899999999,"ADDRESS":"頂\u25A0１號之１１４","OBJECTID":55937},"geometry":{"x":163747.95999999996,"y":2563826.1900000013}},{"attributes":{"ID":55938,"DIS_CODE":0,"TOWNNAME":"佳里區","LI":"頂\u25A0里","LIN":"1鄰","STREET":" ","SECT":" ","MAREA":"頂\u25A0","LANE":" ","ALLEY":" ","HOUSE_NO":"１號之１１５","E_COORD97":163743.91,"N_COORD97":2563826.5099999998,"ADDRESS":"頂\u25A0１號之１１５","OBJECTID":55938},"geometry":{"x":163743.91000000201,"y":2563826.5099999998}},{"attributes":{"ID":55939,"DIS_CODE":0,"TOWNNAME":"佳里區","LI":"頂\u25A0里","LIN":"1鄰","STREET":" ","SECT":" ","MAREA":"頂\u25A0","LANE":" ","ALLEY":" ","HOUSE_NO":"１號之１１６","E_COORD97":163740.54000000001,"N_COORD97":2563826.4300000002,"ADDRESS":"頂\u25A0１號之１１６","OBJECTID":55939},"geometry":{"x":163740.54000000004,"y":2563826.4299999997}},{"attributes":{"ID":55940,"DIS_CODE":0,"TOWNNAME":"佳里區","LI":"頂\u25A0里","LIN":"1鄰","STREET":" ","SECT":" ","MAREA":"頂\u25A0","LANE":" ","ALLEY":" ","HOUSE_NO":"１號之１１７","E_COORD97":163736.67000000001,"N_COORD97":2563826.7799999998,"ADDRESS":"頂\u25A0１號之１１７","OBJECTID":55940},"geometry":{"x":163736.66999999899,"y":2563826.7799999993}},{"attributes":{"ID":55941,"DIS_CODE":0,"TOWNNAME":"東區","LI":"崇學里","LIN":"1鄰","STREET":"崇學路","SECT":" ","MAREA":" ","LANE":"９６巷","ALLEY":"８弄","HOUSE_NO":"１１號","E_COORD97":170333.59,"N_COORD97":2542122.0600000001,"ADDRESS":"崇學路９６巷８弄１１號","OBJECTID":55941},"geometry":{"x":170333.59000000078,"y":2542122.0600000005}},{"attributes":{"ID":55942,"DIS_CODE":0,"TOWNNAME":"東區","LI":"崇學里","LIN":"1鄰","STREET":"崇學路","SECT":" ","MAREA":" ","LANE":"９６巷","ALLEY":"８弄","HOUSE_NO":"１５號","E_COORD97":170327.79999999999,"N_COORD97":2542115.2400000002,"ADDRESS":"崇學路９６巷８弄１５號","OBJECTID":55942},"geometry":{"x":170327.79999999981,"y":2542115.2400000021}},{"attributes":{"ID":55943,"DIS_CODE":0,"TOWNNAME":"東區","LI":"崇學里","LIN":"1鄰","STREET":"崇學路","SECT":" ","MAREA":" ","LANE":"９６巷","ALLEY":"８弄","HOUSE_NO":"１７號","E_COORD97":170325.01999999999,"N_COORD97":2542112.5699999998,"ADDRESS":"崇學路９６巷８弄１７號","OBJECTID":55943},"geometry":{"x":170325.02000000142,"y":2542112.5700000022}},{"attributes":{"ID":55944,"DIS_CODE":0,"TOWNNAME":"東區","LI":"崇學里","LIN":"1鄰","STREET":"崇學路","SECT":" ","MAREA":" ","LANE":"９６巷","ALLEY":"８弄","HOUSE_NO":"１９號","E_COORD97":170321.89000000001,"N_COORD97":2542108.8700000001,"ADDRESS":"崇學路９６巷８弄１９號","OBJECTID":55944},"geometry":{"x":170321.88999999966,"y":2542108.8700000029}},{"attributes":{"ID":55945,"DIS_CODE":0,"TOWNNAME":"東區","LI":"崇學里","LIN":"1鄰","STREET":"崇學路","SECT":" ","MAREA":" ","LANE":"９６巷","ALLEY":"８弄","HOUSE_NO":"１號","E_COORD97":170347.01999999999,"N_COORD97":2542137.8700000001,"ADDRESS":"崇學路９６巷８弄１號","OBJECTID":55945},"geometry":{"x":170347.02000000142,"y":2542137.8700000048}},{"attributes":{"ID":55946,"DIS_CODE":0,"TOWNNAME":"東區","LI":"崇學里","LIN":"1鄰","STREET":"崇學路","SECT":" ","MAREA":" ","LANE":"９６巷","ALLEY":"８弄","HOUSE_NO":"３號","E_COORD97":170344.04000000001,"N_COORD97":2542134.8799999999,"ADDRESS":"崇學路９６巷８弄３號","OBJECTID":55946},"geometry":{"x":170344.0400000019,"y":2542134.879999999}},{"attributes":{"ID":55947,"DIS_CODE":0,"TOWNNAME":"東區","LI":"崇學里","LIN":"1鄰","STREET":"崇學路","SECT":" ","MAREA":" ","LANE":"９６巷","ALLEY":"８弄","HOUSE_NO":"５號","E_COORD97":170341.73999999999,"N_COORD97":2542131.21,"ADDRESS":"崇學路９６巷８弄５號","OBJECTID":55947},"geometry":{"x":170341.74000000115,"y":2542131.2100000009}},{"attributes":{"ID":55948,"DIS_CODE":0,"TOWNNAME":"東區","LI":"崇學里","LIN":"1鄰","STREET":"崇學路","SECT":" ","MAREA":" ","LANE":"９６巷","ALLEY":"８弄","HOUSE_NO":"７號","E_COORD97":170338.57000000001,"N_COORD97":2542128.1899999999,"ADDRESS":"崇學路９６巷８弄７號","OBJECTID":55948},"geometry":{"x":170338.5700000003,"y":2542128.1900000013}},{"attributes":{"ID":55949,"DIS_CODE":0,"TOWNNAME":"東區","LI":"崇學里","LIN":"1鄰","STREET":"崇學路","SECT":" ","MAREA":" ","LANE":"９６巷","ALLEY":"８弄","HOUSE_NO":"９號","E_COORD97":170337.06,"N_COORD97":2542124.4900000002,"ADDRESS":"崇學路９６巷８弄９號","OBJECTID":55949},"geometry":{"x":170337.06000000052,"y":2542124.4900000002}},{"attributes":{"ID":55950,"DIS_CODE":0,"TOWNNAME":"歸仁區","LI":"崙頂里","LIN":"13鄰","STREET":"成功路","SECT":"二段","MAREA":" ","LANE":"１６８巷","ALLEY":"１９弄","HOUSE_NO":"８號","E_COORD97":177918.79000000001,"N_COORD97":2539781.25,"ADDRESS":"成功路二段１６８巷１９弄８號","OBJECTID":55950},"geometry":{"x":177918.79000000097,"y":2539781.2500000037}},{"attributes":{"ID":55951,"DIS_CODE":0,"TOWNNAME":"後壁區","LI":"仕安里","LIN":"8鄰","STREET":" ","SECT":" ","MAREA":"下長","LANE":" ","ALLEY":" ","HOUSE_NO":"６６號之１","E_COORD97":180708.82000000001,"N_COORD97":2583649.5600000001,"ADDRESS":"下長６６號之１","OBJECTID":55951},"geometry":{"x":180708.82000000123,"y":2583649.5600000005}},{"attributes":{"ID":55952,"DIS_CODE":0,"TOWNNAME":"歸仁區","LI":"崙頂里","LIN":"12鄰","STREET":"凱旋路","SECT":"一段","MAREA":" ","LANE":"６０１巷","ALLEY":"７弄","HOUSE_NO":"７６號","E_COORD97":177906.78,"N_COORD97":2539459.4100000001,"ADDRESS":"凱旋路一段６０１巷７弄７６號","OBJECTID":55952},"geometry":{"x":177906.78000000119,"y":2539459.410000002}},{"attributes":{"ID":55953,"DIS_CODE":0,"TOWNNAME":"歸仁區","LI":"崙頂里","LIN":"13鄰","STREET":"成功路","SECT":"二段","MAREA":" ","LANE":"１６８巷","ALLEY":"１３弄","HOUSE_NO":"５號","E_COORD97":177918.69,"N_COORD97":2539755.25,"ADDRESS":"成功路二段１６８巷１３弄５號","OBJECTID":55953},"geometry":{"x":177918.69000000041,"y":2539755.2500000019}},{"attributes":{"ID":55954,"DIS_CODE":0,"TOWNNAME":"歸仁區","LI":"南保里","LIN":"24鄰","STREET":"文化街","SECT":"三段","MAREA":" ","LANE":"１０５巷","ALLEY":"１９弄","HOUSE_NO":"３號","E_COORD97":176784.26999999999,"N_COORD97":2541144.2599999998,"ADDRESS":"文化街三段１０５巷１９弄３號","OBJECTID":55954},"geometry":{"x":176784.27000000048,"y":2541144.2600000016}},{"attributes":{"ID":55955,"DIS_CODE":0,"TOWNNAME":"歸仁區","LI":"南保里","LIN":"15鄰","STREET":"文化十街","SECT":" ","MAREA":" ","LANE":"１０巷","ALLEY":"１９弄","HOUSE_NO":"８號","E_COORD97":176692.17000000001,"N_COORD97":2541280.2599999998,"ADDRESS":"文化十街１０巷１９弄８號","OBJECTID":55955},"geometry":{"x":176692.17000000086,"y":2541280.2600000016}},{"attributes":{"ID":55956,"DIS_CODE":0,"TOWNNAME":"安南區","LI":"佃東里","LIN":"1鄰","STREET":"海佃路","SECT":"四段","MAREA":" ","LANE":"３８８巷","ALLEY":"２弄","HOUSE_NO":"８９號","E_COORD97":165861.45000000001,"N_COORD97":2551450.9100000001,"ADDRESS":"海佃路四段３８８巷２弄８９號","OBJECTID":55956},"geometry":{"x":165861.45000000112,"y":2551450.910000002}},{"attributes":{"ID":55957,"DIS_CODE":0,"TOWNNAME":"安南區","LI":"溪心里","LIN":"1鄰","STREET":"海環街","SECT":" ","MAREA":" ","LANE":"７１５巷","ALLEY":"１１８弄","HOUSE_NO":"９之１號","E_COORD97":166343.84,"N_COORD97":2549582.1099999999,"ADDRESS":"海環街７１５巷１１８弄９之１號","OBJECTID":55957},"geometry":{"x":166343.83999999985,"y":2549582.1099999994}},{"attributes":{"ID":55958,"DIS_CODE":0,"TOWNNAME":"東區","LI":"新東里","LIN":"1鄰","STREET":"東門路","SECT":"二段","MAREA":" ","LANE":"１６７巷","ALLEY":"６弄","HOUSE_NO":"５號","E_COORD97":170429.44,"N_COORD97":2542895.2400000002,"ADDRESS":"東門路二段１６７巷６弄５號","OBJECTID":55958},"geometry":{"x":170429.44000000041,"y":2542895.2400000021}},{"attributes":{"ID":55959,"DIS_CODE":0,"TOWNNAME":"永康區","LI":"勝利里","LIN":"1鄰","STREET":"勝利街","SECT":" ","MAREA":" ","LANE":"１巷","ALLEY":"１１弄","HOUSE_NO":"７號","E_COORD97":171097.59,"N_COORD97":2544626.75,"ADDRESS":"勝利街１巷１１弄７號","OBJECTID":55959},"geometry":{"x":171097.58999999985,"y":2544626.7500000019}},{"attributes":{"ID":55960,"DIS_CODE":0,"TOWNNAME":"安南區","LI":"州北里","LIN":"1鄰","STREET":"安和路","SECT":"五段","MAREA":" ","LANE":"８１巷","ALLEY":"４０弄","HOUSE_NO":"１７號","E_COORD97":169791.59,"N_COORD97":2551667.8399999999,"ADDRESS":"安和路五段８１巷４０弄１７號","OBJECTID":55960},"geometry":{"x":169791.59000000078,"y":2551667.8400000017}},{"attributes":{"ID":55961,"DIS_CODE":0,"TOWNNAME":"安南區","LI":"州北里","LIN":"1鄰","STREET":"安和路","SECT":"五段","MAREA":" ","LANE":"８１巷","ALLEY":"６４弄","HOUSE_NO":"１０號","E_COORD97":169742.10999999999,"N_COORD97":2551680.4500000002,"ADDRESS":"安和路五段８１巷６４弄１０號","OBJECTID":55961},"geometry":{"x":169742.11000000127,"y":2551680.4500000011}},{"attributes":{"ID":55962,"DIS_CODE":0,"TOWNNAME":"歸仁區","LI":"南保里","LIN":"25鄰","STREET":"文化街","SECT":"三段","MAREA":" ","LANE":"１８５巷","ALLEY":"１弄","HOUSE_NO":"１７號","E_COORD97":176597.67000000001,"N_COORD97":2541149.2599999998,"ADDRESS":"文化街三段１８５巷１弄１７號","OBJECTID":55962},"geometry":{"x":176597.66999999993,"y":2541149.2599999998}},{"attributes":{"ID":55963,"DIS_CODE":0,"TOWNNAME":"安南區","LI":"安西里","LIN":"1鄰","STREET":"安和路","SECT":"一段","MAREA":" ","LANE":"１８５巷","ALLEY":"１弄","HOUSE_NO":"１０號","E_COORD97":169307.87,"N_COORD97":2547841.98,"ADDRESS":"安和路一段１８５巷１弄１０號","OBJECTID":55963},"geometry":{"x":169307.87000000104,"y":2547841.9800000004}},{"attributes":{"ID":55964,"DIS_CODE":0,"TOWNNAME":"安南區","LI":"安西里","LIN":"1鄰","STREET":"安和路","SECT":"一段","MAREA":" ","LANE":"１８５巷","ALLEY":"１弄","HOUSE_NO":"１１號","E_COORD97":169325.87,"N_COORD97":2547843.1600000001,"ADDRESS":"安和路一段１８５巷１弄１１號","OBJECTID":55964},"geometry":{"x":169325.87000000011,"y":2547843.1600000001}},{"attributes":{"ID":55965,"DIS_CODE":0,"TOWNNAME":"安南區","LI":"安西里","LIN":"1鄰","STREET":"安和路","SECT":"一段","MAREA":" ","LANE":"１８５巷","ALLEY":"１弄","HOUSE_NO":"１２號","E_COORD97":169311,"N_COORD97":2547838.4700000002,"ADDRESS":"安和路一段１８５巷１弄１２號","OBJECTID":55965},"geometry":{"x":169311,"y":2547838.4700000007}},{"attributes":{"ID":55966,"DIS_CODE":0,"TOWNNAME":"安南區","LI":"安西里","LIN":"1鄰","STREET":"安和路","SECT":"一段","MAREA":" ","LANE":"１８５巷","ALLEY":"１弄","HOUSE_NO":"１３號","E_COORD97":169327.04000000001,"N_COORD97":2547838.4700000002,"ADDRESS":"安和路一段１８５巷１弄１３號","OBJECTID":55966},"geometry":{"x":169327.04000000097,"y":2547838.4700000007}},{"attributes":{"ID":55967,"DIS_CODE":0,"TOWNNAME":"安南區","LI":"安西里","LIN":"1鄰","STREET":"安和路","SECT":"一段","MAREA":" ","LANE":"１８５巷","ALLEY":"１弄","HOUSE_NO":"１號","E_COORD97":169319.60999999999,"N_COORD97":2547864.2599999998,"ADDRESS":"安和路一段１８５巷１弄１號","OBJECTID":55967},"geometry":{"x":169319.61000000034,"y":2547864.2600000016}},{"attributes":{"ID":55968,"DIS_CODE":0,"TOWNNAME":"安南區","LI":"安西里","LIN":"1鄰","STREET":"安和路","SECT":"一段","MAREA":" ","LANE":"１８５巷","ALLEY":"１弄","HOUSE_NO":"２號","E_COORD97":169303.17000000001,"N_COORD97":2547859.5699999998,"ADDRESS":"安和路一段１８５巷１弄２號","OBJECTID":55968},"geometry":{"x":169303.16999999993,"y":2547859.5700000022}},{"attributes":{"ID":55969,"DIS_CODE":0,"TOWNNAME":"安南區","LI":"安西里","LIN":"1鄰","STREET":"安和路","SECT":"一段","MAREA":" ","LANE":"１８５巷","ALLEY":"１弄","HOUSE_NO":"３號","E_COORD97":169319.22,"N_COORD97":2547859.5699999998,"ADDRESS":"安和路一段１８５巷１弄３號","OBJECTID":55969},"geometry":{"x":169319.22000000067,"y":2547859.5700000022}},{"attributes":{"ID":55970,"DIS_CODE":0,"TOWNNAME":"安南區","LI":"安西里","LIN":"1鄰","STREET":"安和路","SECT":"一段","MAREA":" ","LANE":"１８５巷","ALLEY":"１弄","HOUSE_NO":"５號","E_COORD97":169321.95000000001,"N_COORD97":2547855.6600000001,"ADDRESS":"安和路一段１８５巷１弄５號","OBJECTID":55970},"geometry":{"x":169321.95000000019,"y":2547855.660000002}},{"attributes":{"ID":55971,"DIS_CODE":0,"TOWNNAME":"安南區","LI":"安西里","LIN":"1鄰","STREET":"安和路","SECT":"一段","MAREA":" ","LANE":"１８５巷","ALLEY":"１弄","HOUSE_NO":"７號","E_COORD97":169322.73999999999,"N_COORD97":2547852.1499999999,"ADDRESS":"安和路一段１８５巷１弄７號","OBJECTID":55971},"geometry":{"x":169322.74000000115,"y":2547852.1500000022}},{"attributes":{"ID":55972,"DIS_CODE":0,"TOWNNAME":"安南區","LI":"安西里","LIN":"1鄰","STREET":"安和路","SECT":"一段","MAREA":" ","LANE":"１８５巷","ALLEY":"１弄","HOUSE_NO":"８號","E_COORD97":169307.87,"N_COORD97":2547846.2799999998,"ADDRESS":"安和路一段１８５巷１弄８號","OBJECTID":55972},"geometry":{"x":169307.87000000104,"y":2547846.2800000012}},{"attributes":{"ID":55973,"DIS_CODE":0,"TOWNNAME":"安南區","LI":"安西里","LIN":"1鄰","STREET":"安和路","SECT":"一段","MAREA":" ","LANE":"１８５巷","ALLEY":"１弄","HOUSE_NO":"９號","E_COORD97":169324.69,"N_COORD97":2547847.46,"ADDRESS":"安和路一段１８５巷１弄９號","OBJECTID":55973},"geometry":{"x":169324.69000000134,"y":2547847.4600000028}},{"attributes":{"ID":55974,"DIS_CODE":0,"TOWNNAME":"安南區","LI":"州南里","LIN":"1鄰","STREET":"安和路","SECT":"四段","MAREA":" ","LANE":"２７４巷","ALLEY":"１３弄","HOUSE_NO":"１０號","E_COORD97":170017.35999999999,"N_COORD97":2550818.71,"ADDRESS":"安和路四段２７４巷１３弄１０號","OBJECTID":55974},"geometry":{"x":170017.36000000127,"y":2550818.7100000028}},{"attributes":{"ID":55975,"DIS_CODE":0,"TOWNNAME":"安南區","LI":"州北里","LIN":"1鄰","STREET":"安和路","SECT":"五段","MAREA":" ","LANE":"８１巷","ALLEY":"４０弄","HOUSE_NO":"２３號","E_COORD97":169766.42999999999,"N_COORD97":2551689.3999999999,"ADDRESS":"安和路五段８１巷４０弄２３號","OBJECTID":55975},"geometry":{"x":169766.43000000063,"y":2551689.4000000004}},{"attributes":{"ID":55976,"DIS_CODE":0,"TOWNNAME":"安南區","LI":"安西里","LIN":"1鄰","STREET":"安和路","SECT":"一段","MAREA":" ","LANE":"１８５巷","ALLEY":"１５弄","HOUSE_NO":"１號","E_COORD97":169274.60000000001,"N_COORD97":2547884.5899999999,"ADDRESS":"安和路一段１８５巷１５弄１號","OBJECTID":55976},"geometry":{"x":169274.59999999963,"y":2547884.5899999999}},{"attributes":{"ID":55977,"DIS_CODE":0,"TOWNNAME":"佳里區","LI":"頂\u25A0里","LIN":"1鄰","STREET":" ","SECT":" ","MAREA":"頂\u25A0","LANE":" ","ALLEY":" ","HOUSE_NO":"１號之１１８","E_COORD97":163731.95999999999,"N_COORD97":2563827.3900000001,"ADDRESS":"頂\u25A0１號之１１８","OBJECTID":55977},"geometry":{"x":163731.96000000089,"y":2563827.3900000006}},{"attributes":{"ID":55978,"DIS_CODE":0,"TOWNNAME":"佳里區","LI":"頂\u25A0里","LIN":"1鄰","STREET":" ","SECT":" ","MAREA":"頂\u25A0","LANE":" ","ALLEY":" ","HOUSE_NO":"１號之１１９","E_COORD97":163728.03,"N_COORD97":2563827.6299999999,"ADDRESS":"頂\u25A0１號之１１９","OBJECTID":55978},"geometry":{"x":163728.03000000212,"y":2563827.629999999}},{"attributes":{"ID":55979,"DIS_CODE":0,"TOWNNAME":"中西區","LI":"永華里","LIN":"8鄰","STREET":"府中街","SECT":" ","MAREA":" ","LANE":" ","ALLEY":" ","HOUSE_NO":"１３２號二樓","E_COORD97":168524.67999999999,"N_COORD97":2543413.5099999998,"ADDRESS":"府中街１３２號二樓","OBJECTID":55979},"geometry":{"x":168524.6799999997,"y":2543413.5099999979}},{"attributes":{"ID":55980,"DIS_CODE":0,"TOWNNAME":"佳里區","LI":"頂\u25A0里","LIN":"1鄰","STREET":" ","SECT":" ","MAREA":"頂\u25A0","LANE":" ","ALLEY":" ","HOUSE_NO":"１號之１２０","E_COORD97":163723.94,"N_COORD97":2563828.1299999999,"ADDRESS":"頂\u25A0１號之１２０","OBJECTID":55980},"geometry":{"x":163723.94000000134,"y":2563828.129999999}},{"attributes":{"ID":55981,"DIS_CODE":0,"TOWNNAME":"安南區","LI":"安西里","LIN":"1鄰","STREET":"安和路","SECT":"一段","MAREA":" ","LANE":"１８５巷","ALLEY":"１５弄","HOUSE_NO":"２號","E_COORD97":169282.04000000001,"N_COORD97":2547863.8700000001,"ADDRESS":"安和路一段１８５巷１５弄２號","OBJECTID":55981},"geometry":{"x":169282.04000000004,"y":2547863.8699999992}},{"attributes":{"ID":55982,"DIS_CODE":0,"TOWNNAME":"安南區","LI":"安西里","LIN":"1鄰","STREET":"安和路","SECT":"一段","MAREA":" ","LANE":"１８５巷","ALLEY":"１５弄","HOUSE_NO":"３號","E_COORD97":169268.34,"N_COORD97":2547883.4100000001,"ADDRESS":"安和路一段１８５巷１５弄３號","OBJECTID":55982},"geometry":{"x":169268.33999999985,"y":2547883.4100000039}},{"attributes":{"ID":55983,"DIS_CODE":0,"TOWNNAME":"安南區","LI":"安西里","LIN":"1鄰","STREET":"安和路","SECT":"一段","MAREA":" ","LANE":"１８５巷","ALLEY":"１５弄","HOUSE_NO":"４號","E_COORD97":169274.98999999999,"N_COORD97":2547861.5299999998,"ADDRESS":"安和路一段１８５巷１５弄４號","OBJECTID":55983},"geometry":{"x":169274.99000000115,"y":2547861.5300000012}},{"attributes":{"ID":55984,"DIS_CODE":0,"TOWNNAME":"安南區","LI":"安西里","LIN":"1鄰","STREET":"安和路","SECT":"一段","MAREA":" ","LANE":"１８５巷","ALLEY":"１５弄","HOUSE_NO":"５號","E_COORD97":169262.85999999999,"N_COORD97":2547881.0699999998,"ADDRESS":"安和路一段１８５巷１５弄５號","OBJECTID":55984},"geometry":{"x":169262.86000000127,"y":2547881.0700000003}},{"attributes":{"ID":55985,"DIS_CODE":0,"TOWNNAME":"安南區","LI":"安西里","LIN":"1鄰","STREET":"安和路","SECT":"一段","MAREA":" ","LANE":"１８５巷","ALLEY":"１５弄","HOUSE_NO":"７號","E_COORD97":169256.60000000001,"N_COORD97":2547879.1099999999,"ADDRESS":"安和路一段１８５巷１５弄７號","OBJECTID":55985},"geometry":{"x":169256.60000000149,"y":2547879.1100000013}},{"attributes":{"ID":55986,"DIS_CODE":0,"TOWNNAME":"北區","LI":"和順里","LIN":"1鄰","STREET":"民德路","SECT":" ","MAREA":" ","LANE":"９０巷","ALLEY":"９弄","HOUSE_NO":"５號","E_COORD97":168052.29000000001,"N_COORD97":2545283.7000000002,"ADDRESS":"民德路９０巷９弄５號","OBJECTID":55986},"geometry":{"x":168052.29000000097,"y":2545283.7000000011}},{"attributes":{"ID":55987,"DIS_CODE":0,"TOWNNAME":"安南區","LI":"安西里","LIN":"1鄰","STREET":"安和路","SECT":"一段","MAREA":" ","LANE":"１８５巷","ALLEY":"１５弄","HOUSE_NO":"６號","E_COORD97":169269.12,"N_COORD97":2547860.7400000002,"ADDRESS":"安和路一段１８５巷１５弄６號","OBJECTID":55987},"geometry":{"x":169269.12000000104,"y":2547860.7400000039}},{"attributes":{"ID":55988,"DIS_CODE":0,"TOWNNAME":"北區","LI":"國姓里","LIN":"1鄰","STREET":"公園路","SECT":" ","MAREA":" ","LANE":"３７７巷","ALLEY":"１６弄","HOUSE_NO":"１號","E_COORD97":168936.67999999999,"N_COORD97":2545245.1099999999,"ADDRESS":"公園路３７７巷１６弄１號","OBJECTID":55988},"geometry":{"x":168936.6799999997,"y":2545245.1099999994}},{"attributes":{"ID":55989,"DIS_CODE":0,"TOWNNAME":"北區","LI":"國姓里","LIN":"1鄰","STREET":"公園路","SECT":" ","MAREA":" ","LANE":"３７７巷","ALLEY":"１６弄","HOUSE_NO":"２號","E_COORD97":168940.64000000001,"N_COORD97":2545247.0899999999,"ADDRESS":"公園路３７７巷１６弄２號","OBJECTID":55989},"geometry":{"x":168940.63999999966,"y":2545247.0899999999}},{"attributes":{"ID":55990,"DIS_CODE":0,"TOWNNAME":"永康區","LI":"\u25A0行里","LIN":"8鄰","STREET":"中正一街","SECT":" ","MAREA":" ","LANE":" ","ALLEY":" ","HOUSE_NO":"５１號","E_COORD97":172762.97,"N_COORD97":2548419.5,"ADDRESS":"中正一街５１號","OBJECTID":55990},"geometry":{"x":172762.96999999974,"y":2548419.5000000019}},{"attributes":{"ID":55991,"DIS_CODE":0,"TOWNNAME":"佳里區","LI":"頂\u25A0里","LIN":"1鄰","STREET":" ","SECT":" ","MAREA":"頂\u25A0","LANE":" ","ALLEY":" ","HOUSE_NO":"１號之１２１","E_COORD97":163699.20000000001,"N_COORD97":2563745.9199999999,"ADDRESS":"頂\u25A0１號之１２１","OBJECTID":55991},"geometry":{"x":163699.20000000019,"y":2563745.9199999999}},{"attributes":{"ID":55992,"DIS_CODE":0,"TOWNNAME":"佳里區","LI":"頂\u25A0里","LIN":"1鄰","STREET":" ","SECT":" ","MAREA":"頂\u25A0","LANE":" ","ALLEY":" ","HOUSE_NO":"１號之１２２","E_COORD97":163699.03,"N_COORD97":2563749.9500000002,"ADDRESS":"頂\u25A0１號之１２２","OBJECTID":55992},"geometry":{"x":163699.03000000212,"y":2563749.9500000011}},{"attributes":{"ID":55993,"DIS_CODE":0,"TOWNNAME":"佳里區","LI":"頂\u25A0里","LIN":"1鄰","STREET":" ","SECT":" ","MAREA":"頂\u25A0","LANE":" ","ALLEY":" ","HOUSE_NO":"１號之１２３","E_COORD97":163699.37,"N_COORD97":2563753.8700000001,"ADDRESS":"頂\u25A0１號之１２３","OBJECTID":55993},"geometry":{"x":163699.37000000011,"y":2563753.870000001}},{"attributes":{"ID":55994,"DIS_CODE":0,"TOWNNAME":"佳里區","LI":"頂\u25A0里","LIN":"1鄰","STREET":" ","SECT":" ","MAREA":"頂\u25A0","LANE":" ","ALLEY":" ","HOUSE_NO":"１號之１２４","E_COORD97":163699.5,"N_COORD97":2563758.1600000001,"ADDRESS":"頂\u25A0１號之１２４","OBJECTID":55994},"geometry":{"x":163699.50000000093,"y":2563758.1600000001}},{"attributes":{"ID":55995,"DIS_CODE":0,"TOWNNAME":"佳里區","LI":"頂\u25A0里","LIN":"1鄰","STREET":" ","SECT":" ","MAREA":"頂\u25A0","LANE":" ","ALLEY":" ","HOUSE_NO":"１號之１２５","E_COORD97":163699.95999999999,"N_COORD97":2563761.8999999999,"ADDRESS":"頂\u25A0１號之１２５","OBJECTID":55995},"geometry":{"x":163699.96000000089,"y":2563761.9000000022}},{"attributes":{"ID":55996,"DIS_CODE":0,"TOWNNAME":"佳里區","LI":"頂\u25A0里","LIN":"1鄰","STREET":" ","SECT":" ","MAREA":"頂\u25A0","LANE":" ","ALLEY":" ","HOUSE_NO":"１號之１２６","E_COORD97":163700.31,"N_COORD97":2563766.0800000001,"ADDRESS":"頂\u25A0１號之１２６","OBJECTID":55996},"geometry":{"x":163700.31000000052,"y":2563766.0800000038}},{"attributes":{"ID":55997,"DIS_CODE":0,"TOWNNAME":"佳里區","LI":"頂\u25A0里","LIN":"1鄰","STREET":" ","SECT":" ","MAREA":"頂\u25A0","LANE":" ","ALLEY":" ","HOUSE_NO":"１號之１２７","E_COORD97":163700.23999999999,"N_COORD97":2563770.0899999999,"ADDRESS":"頂\u25A0１號之１２７","OBJECTID":55997},"geometry":{"x":163700.24000000022,"y":2563770.0900000017}},{"attributes":{"ID":55998,"DIS_CODE":0,"TOWNNAME":"佳里區","LI":"頂\u25A0里","LIN":"1鄰","STREET":" ","SECT":" ","MAREA":"頂\u25A0","LANE":" ","ALLEY":" ","HOUSE_NO":"１號之１２８","E_COORD97":163700.75,"N_COORD97":2563774.5899999999,"ADDRESS":"頂\u25A0１號之１２８","OBJECTID":55998},"geometry":{"x":163700.75000000186,"y":2563774.5899999999}},{"attributes":{"ID":55999,"DIS_CODE":0,"TOWNNAME":"佳里區","LI":"頂\u25A0里","LIN":"1鄰","STREET":" ","SECT":" ","MAREA":"頂\u25A0","LANE":" ","ALLEY":" ","HOUSE_NO":"１號之１２９","E_COORD97":163701.17000000001,"N_COORD97":2563778.7000000002,"ADDRESS":"頂\u25A0１號之１２９","OBJECTID":55999},"geometry":{"x":163701.17000000179,"y":2563778.7000000011}},{"attributes":{"ID":56000,"DIS_CODE":0,"TOWNNAME":"佳里區","LI":"頂\u25A0里","LIN":"1鄰","STREET":" ","SECT":" ","MAREA":"頂\u25A0","LANE":" ","ALLEY":" ","HOUSE_NO":"１號之１３０","E_COORD97":163701.41,"N_COORD97":2563782.3300000001,"ADDRESS":"頂\u25A0１號之１３０","OBJECTID":56000},"geometry":{"x":163701.41000000201,"y":2563782.3300000019}}]}