{"displayFieldName":"TOWNNAME","fieldAliases":{"ID":"ID","DIS_CODE":"DIS_CODE","TOWNNAME":"TOWNNAME","LI":"LI","LIN":"LIN","STREET":"STREET","SECT":"SECT","MAREA":"MAREA","LANE":"LANE","ALLEY":"ALLEY","HOUSE_NO":"HOUSE_NO","E_COORD97":"E_COORD97","N_COORD97":"N_COORD97","ADDRESS":"ADDRESS","OBJECTID":"OBJECTID"},"geometryType":"esriGeometryPoint","spatialReference":{"wkid":102443,"latestWkid":3826},"fields":[{"name":"ID","type":"esriFieldTypeDouble","alias":"ID"},{"name":"DIS_CODE","type":"esriFieldTypeInteger","alias":"DIS_CODE"},{"name":"TOWNNAME","type":"esriFieldTypeString","alias":"TOWNNAME","length":8},{"name":"LI","type":"esriFieldTypeString","alias":"LI","length":8},{"name":"LIN","type":"esriFieldTypeString","alias":"LIN","length":12},{"name":"STREET","type":"esriFieldTypeString","alias":"STREET","length":20},{"name":"SECT","type":"esriFieldTypeString","alias":"SECT","length":8},{"name":"MAREA","type":"esriFieldTypeString","alias":"MAREA","length":12},{"name":"LANE","type":"esriFieldTypeString","alias":"LANE","length":10},{"name":"ALLEY","type":"esriFieldTypeString","alias":"ALLEY","length":10},{"name":"HOUSE_NO","type":"esriFieldTypeString","alias":"HOUSE_NO","length":20},{"name":"E_COORD97","type":"esriFieldTypeDouble","alias":"E_COORD97"},{"name":"N_COORD97","type":"esriFieldTypeDouble","alias":"N_COORD97"},{"name":"ADDRESS","type":"esriFieldTypeString","alias":"ADDRESS","length":50},{"name":"OBJECTID","type":"esriFieldTypeOID","alias":"OBJECTID"}],"features":[{"attributes":{"ID":625628,"DIS_CODE":0,"TOWNNAME":"新營區","LI":"王公里","LIN":"20鄰","STREET":"樂利街","SECT":" ","MAREA":" ","LANE":" ","ALLEY":" ","HOUSE_NO":"１３５號二樓之２","E_COORD97":180507.34,"N_COORD97":2579285.8199999998,"ADDRESS":"樂利街１３５號二樓之２","OBJECTID":625601},"geometry":{"x":180507.33999999985,"y":2579285.820000004}},{"attributes":{"ID":625629,"DIS_CODE":0,"TOWNNAME":"新營區","LI":"民生里","LIN":"30鄰","STREET":"民治路","SECT":" ","MAREA":" ","LANE":" ","ALLEY":" ","HOUSE_NO":"２８５號五樓","E_COORD97":178756.37,"N_COORD97":2578271.9100000001,"ADDRESS":"民治路２８５號五樓","OBJECTID":625602},"geometry":{"x":178756.37000000011,"y":2578271.910000002}},{"attributes":{"ID":625630,"DIS_CODE":0,"TOWNNAME":"新營區","LI":"永生里","LIN":"18鄰","STREET":"康樂街","SECT":" ","MAREA":" ","LANE":" ","ALLEY":" ","HOUSE_NO":"４５號四樓之６","E_COORD97":179884.64000000001,"N_COORD97":2577852.3799999999,"ADDRESS":"康樂街４５號四樓之６","OBJECTID":625603},"geometry":{"x":179884.63999999966,"y":2577852.379999999}},{"attributes":{"ID":625631,"DIS_CODE":0,"TOWNNAME":"新營區","LI":"永生里","LIN":"18鄰","STREET":"康樂街","SECT":" ","MAREA":" ","LANE":" ","ALLEY":" ","HOUSE_NO":"４５號三樓","E_COORD97":179882.39999999999,"N_COORD97":2577852.3399999999,"ADDRESS":"康樂街４５號三樓","OBJECTID":625604},"geometry":{"x":179882.40000000224,"y":2577852.3400000017}},{"attributes":{"ID":625632,"DIS_CODE":0,"TOWNNAME":"新營區","LI":"忠政里","LIN":"24鄰","STREET":"健康路","SECT":" ","MAREA":" ","LANE":" ","ALLEY":" ","HOUSE_NO":"２９０號二樓之８","E_COORD97":179676.41,"N_COORD97":2579613.1200000001,"ADDRESS":"健康路２９０號二樓之８","OBJECTID":625605},"geometry":{"x":179676.41000000015,"y":2579613.1199999992}},{"attributes":{"ID":625633,"DIS_CODE":0,"TOWNNAME":"新營區","LI":"忠政里","LIN":" ","STREET":"健康路","SECT":" ","MAREA":" ","LANE":" ","ALLEY":" ","HOUSE_NO":"２９２號三樓之１","E_COORD97":179675.29000000001,"N_COORD97":2579624.2000000002,"ADDRESS":"健康路２９２號三樓之１","OBJECTID":625606},"geometry":{"x":179675.29000000004,"y":2579624.1999999974}},{"attributes":{"ID":625634,"DIS_CODE":0,"TOWNNAME":"新營區","LI":"王公里","LIN":"20鄰","STREET":"樂利街","SECT":" ","MAREA":" ","LANE":" ","ALLEY":" ","HOUSE_NO":"１３５號三樓之１","E_COORD97":180507.20999999999,"N_COORD97":2579285.8199999998,"ADDRESS":"樂利街１３５號三樓之１","OBJECTID":625607},"geometry":{"x":180507.21000000089,"y":2579285.820000004}},{"attributes":{"ID":625635,"DIS_CODE":0,"TOWNNAME":"新營區","LI":"忠政里","LIN":" ","STREET":"健康路","SECT":" ","MAREA":" ","LANE":" ","ALLEY":" ","HOUSE_NO":"２９２號二樓之２","E_COORD97":179675.42999999999,"N_COORD97":2579624.2000000002,"ADDRESS":"健康路２９２號二樓之２","OBJECTID":625608},"geometry":{"x":179675.43000000063,"y":2579624.1999999974}},{"attributes":{"ID":625636,"DIS_CODE":0,"TOWNNAME":"北區","LI":"公園里","LIN":"13鄰","STREET":"西華街","SECT":" ","MAREA":" ","LANE":" ","ALLEY":" ","HOUSE_NO":"８１號九樓之４","E_COORD97":169061.89999999999,"N_COORD97":2544503.8799999999,"ADDRESS":"西華街８１號九樓之４","OBJECTID":625609},"geometry":{"x":169061.89999999944,"y":2544503.879999999}},{"attributes":{"ID":625637,"DIS_CODE":0,"TOWNNAME":"北區","LI":"公園里","LIN":"13鄰","STREET":"西華街","SECT":" ","MAREA":" ","LANE":" ","ALLEY":" ","HOUSE_NO":"８１號九樓之５","E_COORD97":169061.89999999999,"N_COORD97":2544503.8799999999,"ADDRESS":"西華街８１號九樓之５","OBJECTID":625610},"geometry":{"x":169061.89999999944,"y":2544503.879999999}},{"attributes":{"ID":625638,"DIS_CODE":0,"TOWNNAME":"北區","LI":"和順里","LIN":"32鄰","STREET":"公園南路","SECT":" ","MAREA":" ","LANE":" ","ALLEY":" ","HOUSE_NO":"３５８號七樓之１","E_COORD97":168257.72,"N_COORD97":2544849.3300000001,"ADDRESS":"公園南路３５８號七樓之１","OBJECTID":625611},"geometry":{"x":168257.72000000067,"y":2544849.3300000038}},{"attributes":{"ID":625639,"DIS_CODE":0,"TOWNNAME":"北區","LI":"和順里","LIN":"35鄰","STREET":"公園南路","SECT":" ","MAREA":" ","LANE":" ","ALLEY":" ","HOUSE_NO":"３６８號十一樓之２","E_COORD97":168196.92999999999,"N_COORD97":2544866.3999999999,"ADDRESS":"公園南路３６８號十一樓之２","OBJECTID":625612},"geometry":{"x":168196.93000000063,"y":2544866.4000000041}},{"attributes":{"ID":625640,"DIS_CODE":0,"TOWNNAME":"北區","LI":"和順里","LIN":"35鄰","STREET":"公園南路","SECT":" ","MAREA":" ","LANE":" ","ALLEY":" ","HOUSE_NO":"３６８號十二樓之１","E_COORD97":168196.92999999999,"N_COORD97":2544866.3999999999,"ADDRESS":"公園南路３６８號十二樓之１","OBJECTID":625613},"geometry":{"x":168196.93000000063,"y":2544866.4000000041}},{"attributes":{"ID":625641,"DIS_CODE":0,"TOWNNAME":"北區","LI":"和順里","LIN":"35鄰","STREET":"公園南路","SECT":" ","MAREA":" ","LANE":" ","ALLEY":" ","HOUSE_NO":"３６８號十二樓之２","E_COORD97":168196.92999999999,"N_COORD97":2544866.3999999999,"ADDRESS":"公園南路３６８號十二樓之２","OBJECTID":625614},"geometry":{"x":168196.93000000063,"y":2544866.4000000041}},{"attributes":{"ID":625642,"DIS_CODE":0,"TOWNNAME":"北區","LI":"和順里","LIN":"35鄰","STREET":"公園南路","SECT":" ","MAREA":" ","LANE":" ","ALLEY":" ","HOUSE_NO":"３６８號十三樓之１","E_COORD97":168196.92999999999,"N_COORD97":2544866.3999999999,"ADDRESS":"公園南路３６８號十三樓之１","OBJECTID":625615},"geometry":{"x":168196.93000000063,"y":2544866.4000000041}},{"attributes":{"ID":625643,"DIS_CODE":0,"TOWNNAME":"北區","LI":"和順里","LIN":"35鄰","STREET":"公園南路","SECT":" ","MAREA":" ","LANE":" ","ALLEY":" ","HOUSE_NO":"３６８號十三樓之２","E_COORD97":168196.92999999999,"N_COORD97":2544866.3999999999,"ADDRESS":"公園南路３６８號十三樓之２","OBJECTID":625616},"geometry":{"x":168196.93000000063,"y":2544866.4000000041}},{"attributes":{"ID":625644,"DIS_CODE":0,"TOWNNAME":"北區","LI":"和順里","LIN":"35鄰","STREET":"公園南路","SECT":" ","MAREA":" ","LANE":" ","ALLEY":" ","HOUSE_NO":"３６８號十五樓之１","E_COORD97":168196.92999999999,"N_COORD97":2544866.3999999999,"ADDRESS":"公園南路３６８號十五樓之１","OBJECTID":625617},"geometry":{"x":168196.93000000063,"y":2544866.4000000041}},{"attributes":{"ID":625645,"DIS_CODE":0,"TOWNNAME":"北區","LI":"和順里","LIN":"35鄰","STREET":"公園南路","SECT":" ","MAREA":" ","LANE":" ","ALLEY":" ","HOUSE_NO":"３６８號十五樓之２","E_COORD97":168196.92999999999,"N_COORD97":2544866.3999999999,"ADDRESS":"公園南路３６８號十五樓之２","OBJECTID":625618},"geometry":{"x":168196.93000000063,"y":2544866.4000000041}},{"attributes":{"ID":625646,"DIS_CODE":0,"TOWNNAME":"北區","LI":"和順里","LIN":"35鄰","STREET":"公園南路","SECT":" ","MAREA":" ","LANE":" ","ALLEY":" ","HOUSE_NO":"３６８號十六樓之１","E_COORD97":168196.92999999999,"N_COORD97":2544866.3999999999,"ADDRESS":"公園南路３６８號十六樓之１","OBJECTID":625619},"geometry":{"x":168196.93000000063,"y":2544866.4000000041}},{"attributes":{"ID":625647,"DIS_CODE":0,"TOWNNAME":"北區","LI":"和順里","LIN":"35鄰","STREET":"公園南路","SECT":" ","MAREA":" ","LANE":" ","ALLEY":" ","HOUSE_NO":"３６８號十六樓之２","E_COORD97":168196.92999999999,"N_COORD97":2544866.3999999999,"ADDRESS":"公園南路３６８號十六樓之２","OBJECTID":625620},"geometry":{"x":168196.93000000063,"y":2544866.4000000041}},{"attributes":{"ID":625648,"DIS_CODE":0,"TOWNNAME":"北區","LI":"和順里","LIN":"35鄰","STREET":"公園南路","SECT":" ","MAREA":" ","LANE":" ","ALLEY":" ","HOUSE_NO":"３６８號十四樓之１","E_COORD97":168196.92999999999,"N_COORD97":2544866.3999999999,"ADDRESS":"公園南路３６８號十四樓之１","OBJECTID":625621},"geometry":{"x":168196.93000000063,"y":2544866.4000000041}},{"attributes":{"ID":625649,"DIS_CODE":0,"TOWNNAME":"北區","LI":"和順里","LIN":"35鄰","STREET":"公園南路","SECT":" ","MAREA":" ","LANE":" ","ALLEY":" ","HOUSE_NO":"３６８號十四樓之２","E_COORD97":168196.92999999999,"N_COORD97":2544866.3999999999,"ADDRESS":"公園南路３６８號十四樓之２","OBJECTID":625622},"geometry":{"x":168196.93000000063,"y":2544866.4000000041}},{"attributes":{"ID":625650,"DIS_CODE":0,"TOWNNAME":"北區","LI":"和順里","LIN":"35鄰","STREET":"公園南路","SECT":" ","MAREA":" ","LANE":" ","ALLEY":" ","HOUSE_NO":"３６８號十樓之１","E_COORD97":168196.92999999999,"N_COORD97":2544866.3999999999,"ADDRESS":"公園南路３６８號十樓之１","OBJECTID":625623},"geometry":{"x":168196.93000000063,"y":2544866.4000000041}},{"attributes":{"ID":625651,"DIS_CODE":0,"TOWNNAME":"北區","LI":"和順里","LIN":"35鄰","STREET":"公園南路","SECT":" ","MAREA":" ","LANE":" ","ALLEY":" ","HOUSE_NO":"３６８號十樓之２","E_COORD97":168196.92999999999,"N_COORD97":2544866.3999999999,"ADDRESS":"公園南路３６８號十樓之２","OBJECTID":625624},"geometry":{"x":168196.93000000063,"y":2544866.4000000041}},{"attributes":{"ID":625652,"DIS_CODE":0,"TOWNNAME":"北區","LI":"和順里","LIN":"35鄰","STREET":"公園南路","SECT":" ","MAREA":" ","LANE":" ","ALLEY":" ","HOUSE_NO":"３６８號五樓之１","E_COORD97":168196.92999999999,"N_COORD97":2544866.3999999999,"ADDRESS":"公園南路３６８號五樓之１","OBJECTID":625625},"geometry":{"x":168196.93000000063,"y":2544866.4000000041}},{"attributes":{"ID":625653,"DIS_CODE":0,"TOWNNAME":"南區","LI":"廣州里","LIN":"6鄰","STREET":"大德街","SECT":" ","MAREA":" ","LANE":" ","ALLEY":" ","HOUSE_NO":"１４８號二樓","E_COORD97":167538.79000000001,"N_COORD97":2543070.8199999998,"ADDRESS":"大德街１４８號二樓","OBJECTID":625626},"geometry":{"x":167538.79000000097,"y":2543070.8200000022}},{"attributes":{"ID":625654,"DIS_CODE":0,"TOWNNAME":"南區","LI":"廣州里","LIN":"6鄰","STREET":"大德街","SECT":" ","MAREA":" ","LANE":" ","ALLEY":" ","HOUSE_NO":"１４８號三樓","E_COORD97":167538.79000000001,"N_COORD97":2543070.8199999998,"ADDRESS":"大德街１４８號三樓","OBJECTID":625627},"geometry":{"x":167538.79000000097,"y":2543070.8200000022}},{"attributes":{"ID":625655,"DIS_CODE":0,"TOWNNAME":"南區","LI":"廣州里","LIN":"6鄰","STREET":"大德街","SECT":" ","MAREA":" ","LANE":" ","ALLEY":" ","HOUSE_NO":"１４８號五樓","E_COORD97":167538.79000000001,"N_COORD97":2543070.8199999998,"ADDRESS":"大德街１４８號五樓","OBJECTID":625628},"geometry":{"x":167538.79000000097,"y":2543070.8200000022}},{"attributes":{"ID":625656,"DIS_CODE":0,"TOWNNAME":"南區","LI":"廣州里","LIN":"6鄰","STREET":"大德街","SECT":" ","MAREA":" ","LANE":" ","ALLEY":" ","HOUSE_NO":"１４８號四樓","E_COORD97":167538.79000000001,"N_COORD97":2543070.8199999998,"ADDRESS":"大德街１４８號四樓","OBJECTID":625629},"geometry":{"x":167538.79000000097,"y":2543070.8200000022}},{"attributes":{"ID":625657,"DIS_CODE":0,"TOWNNAME":"南區","LI":"新昌里","LIN":"9鄰","STREET":"府緯街","SECT":" ","MAREA":" ","LANE":" ","ALLEY":" ","HOUSE_NO":"８７號二樓","E_COORD97":167638.37,"N_COORD97":2542703.98,"ADDRESS":"府緯街８７號二樓","OBJECTID":625630},"geometry":{"x":167638.37000000104,"y":2542703.9800000023}},{"attributes":{"ID":625658,"DIS_CODE":0,"TOWNNAME":"南區","LI":"新昌里","LIN":"9鄰","STREET":"府緯街","SECT":" ","MAREA":" ","LANE":" ","ALLEY":" ","HOUSE_NO":"８７號三樓","E_COORD97":167638.37,"N_COORD97":2542703.98,"ADDRESS":"府緯街８７號三樓","OBJECTID":625631},"geometry":{"x":167638.37000000104,"y":2542703.9800000023}},{"attributes":{"ID":625659,"DIS_CODE":0,"TOWNNAME":"南區","LI":"新昌里","LIN":"9鄰","STREET":"府緯街","SECT":" ","MAREA":" ","LANE":" ","ALLEY":" ","HOUSE_NO":"８７號四樓","E_COORD97":167638.37,"N_COORD97":2542703.98,"ADDRESS":"府緯街８７號四樓","OBJECTID":625632},"geometry":{"x":167638.37000000104,"y":2542703.9800000023}},{"attributes":{"ID":625660,"DIS_CODE":0,"TOWNNAME":"南區","LI":"新昌里","LIN":"9鄰","STREET":"府緯街","SECT":" ","MAREA":" ","LANE":" ","ALLEY":" ","HOUSE_NO":"８７號五樓","E_COORD97":167638.37,"N_COORD97":2542703.98,"ADDRESS":"府緯街８７號五樓","OBJECTID":625633},"geometry":{"x":167638.37000000104,"y":2542703.9800000023}},{"attributes":{"ID":625661,"DIS_CODE":0,"TOWNNAME":"南區","LI":"新昌里","LIN":"9鄰","STREET":"府緯街","SECT":" ","MAREA":" ","LANE":" ","ALLEY":" ","HOUSE_NO":"８７號六樓","E_COORD97":167638.37,"N_COORD97":2542703.98,"ADDRESS":"府緯街８７號六樓","OBJECTID":625634},"geometry":{"x":167638.37000000104,"y":2542703.9800000023}},{"attributes":{"ID":625662,"DIS_CODE":0,"TOWNNAME":"南區","LI":"廣州里","LIN":"25鄰","STREET":"金華路","SECT":"二段","MAREA":" ","LANE":" ","ALLEY":" ","HOUSE_NO":"３４２號三樓","E_COORD97":167147.54000000001,"N_COORD97":2542712.46,"ADDRESS":"金華路二段３４２號三樓","OBJECTID":625635},"geometry":{"x":167147.54000000097,"y":2542712.4600000009}},{"attributes":{"ID":625663,"DIS_CODE":0,"TOWNNAME":"南區","LI":"廣州里","LIN":"25鄰","STREET":"金華路","SECT":"二段","MAREA":" ","LANE":" ","ALLEY":" ","HOUSE_NO":"３４２號四樓","E_COORD97":167147.54000000001,"N_COORD97":2542712.46,"ADDRESS":"金華路二段３４２號四樓","OBJECTID":625636},"geometry":{"x":167147.54000000097,"y":2542712.4600000009}},{"attributes":{"ID":625664,"DIS_CODE":0,"TOWNNAME":"南區","LI":"廣州里","LIN":"25鄰","STREET":"金華路","SECT":"二段","MAREA":" ","LANE":" ","ALLEY":" ","HOUSE_NO":"３４２號五樓","E_COORD97":167147.54000000001,"N_COORD97":2542712.46,"ADDRESS":"金華路二段３４２號五樓","OBJECTID":625637},"geometry":{"x":167147.54000000097,"y":2542712.4600000009}},{"attributes":{"ID":625665,"DIS_CODE":0,"TOWNNAME":"南區","LI":"廣州里","LIN":"25鄰","STREET":"金華路","SECT":"二段","MAREA":" ","LANE":" ","ALLEY":" ","HOUSE_NO":"３４２號六樓","E_COORD97":167147.54000000001,"N_COORD97":2542712.46,"ADDRESS":"金華路二段３４２號六樓","OBJECTID":625638},"geometry":{"x":167147.54000000097,"y":2542712.4600000009}},{"attributes":{"ID":625666,"DIS_CODE":0,"TOWNNAME":"南區","LI":"田寮里","LIN":"4鄰","STREET":"新興路","SECT":" ","MAREA":" ","LANE":" ","ALLEY":" ","HOUSE_NO":"２４１號七樓之１","E_COORD97":167268.5,"N_COORD97":2541924.8399999999,"ADDRESS":"新興路２４１號七樓之１","OBJECTID":625639},"geometry":{"x":167268.5,"y":2541924.8399999999}},{"attributes":{"ID":625667,"DIS_CODE":0,"TOWNNAME":"南區","LI":"田寮里","LIN":"4鄰","STREET":"新興路","SECT":" ","MAREA":" ","LANE":" ","ALLEY":" ","HOUSE_NO":"２６１號六樓之２","E_COORD97":167260.09,"N_COORD97":2541897.1200000001,"ADDRESS":"新興路２６１號六樓之２","OBJECTID":625640},"geometry":{"x":167260.09000000078,"y":2541897.120000001}},{"attributes":{"ID":625668,"DIS_CODE":0,"TOWNNAME":"南區","LI":"田寮里","LIN":"4鄰","STREET":"新興路","SECT":" ","MAREA":" ","LANE":" ","ALLEY":" ","HOUSE_NO":"２６１號六樓之３","E_COORD97":167260.09,"N_COORD97":2541897.1200000001,"ADDRESS":"新興路２６１號六樓之３","OBJECTID":625641},"geometry":{"x":167260.09000000078,"y":2541897.120000001}},{"attributes":{"ID":625669,"DIS_CODE":0,"TOWNNAME":"南區","LI":"田寮里","LIN":"4鄰","STREET":"新興路","SECT":" ","MAREA":" ","LANE":" ","ALLEY":" ","HOUSE_NO":"２６１號六樓之４","E_COORD97":167260.09,"N_COORD97":2541897.1200000001,"ADDRESS":"新興路２６１號六樓之４","OBJECTID":625642},"geometry":{"x":167260.09000000078,"y":2541897.120000001}},{"attributes":{"ID":625670,"DIS_CODE":0,"TOWNNAME":"南區","LI":"田寮里","LIN":"4鄰","STREET":"新興路","SECT":" ","MAREA":" ","LANE":" ","ALLEY":" ","HOUSE_NO":"２６１號六樓之５","E_COORD97":167260.09,"N_COORD97":2541897.1200000001,"ADDRESS":"新興路２６１號六樓之５","OBJECTID":625643},"geometry":{"x":167260.09000000078,"y":2541897.120000001}},{"attributes":{"ID":625671,"DIS_CODE":0,"TOWNNAME":"南區","LI":"田寮里","LIN":"4鄰","STREET":"新興路","SECT":" ","MAREA":" ","LANE":" ","ALLEY":" ","HOUSE_NO":"２６１號六樓之６","E_COORD97":167260.09,"N_COORD97":2541897.1200000001,"ADDRESS":"新興路２６１號六樓之６","OBJECTID":625644},"geometry":{"x":167260.09000000078,"y":2541897.120000001}},{"attributes":{"ID":625672,"DIS_CODE":0,"TOWNNAME":"南區","LI":"田寮里","LIN":"4鄰","STREET":"新興路","SECT":" ","MAREA":" ","LANE":" ","ALLEY":" ","HOUSE_NO":"２６１號四樓之１","E_COORD97":167260.09,"N_COORD97":2541897.1200000001,"ADDRESS":"新興路２６１號四樓之１","OBJECTID":625645},"geometry":{"x":167260.09000000078,"y":2541897.120000001}},{"attributes":{"ID":625673,"DIS_CODE":0,"TOWNNAME":"南區","LI":"田寮里","LIN":"4鄰","STREET":"新興路","SECT":" ","MAREA":" ","LANE":" ","ALLEY":" ","HOUSE_NO":"２６１號四樓之２","E_COORD97":167260.09,"N_COORD97":2541897.1200000001,"ADDRESS":"新興路２６１號四樓之２","OBJECTID":625646},"geometry":{"x":167260.09000000078,"y":2541897.120000001}},{"attributes":{"ID":625674,"DIS_CODE":0,"TOWNNAME":"南區","LI":"田寮里","LIN":"4鄰","STREET":"新興路","SECT":" ","MAREA":" ","LANE":" ","ALLEY":" ","HOUSE_NO":"２６１號四樓之３","E_COORD97":167260.09,"N_COORD97":2541897.1200000001,"ADDRESS":"新興路２６１號四樓之３","OBJECTID":625647},"geometry":{"x":167260.09000000078,"y":2541897.120000001}},{"attributes":{"ID":625675,"DIS_CODE":0,"TOWNNAME":"南區","LI":"田寮里","LIN":"4鄰","STREET":"新興路","SECT":" ","MAREA":" ","LANE":" ","ALLEY":" ","HOUSE_NO":"２６１號四樓之４","E_COORD97":167260.09,"N_COORD97":2541897.1200000001,"ADDRESS":"新興路２６１號四樓之４","OBJECTID":625648},"geometry":{"x":167260.09000000078,"y":2541897.120000001}},{"attributes":{"ID":625676,"DIS_CODE":0,"TOWNNAME":"南區","LI":"田寮里","LIN":"4鄰","STREET":"新興路","SECT":" ","MAREA":" ","LANE":" ","ALLEY":" ","HOUSE_NO":"２６１號四樓之５","E_COORD97":167260.09,"N_COORD97":2541897.1200000001,"ADDRESS":"新興路２６１號四樓之５","OBJECTID":625649},"geometry":{"x":167260.09000000078,"y":2541897.120000001}},{"attributes":{"ID":625677,"DIS_CODE":0,"TOWNNAME":"南區","LI":"田寮里","LIN":"4鄰","STREET":"新興路","SECT":" ","MAREA":" ","LANE":" ","ALLEY":" ","HOUSE_NO":"２６１號四樓之６","E_COORD97":167260.09,"N_COORD97":2541897.1200000001,"ADDRESS":"新興路２６１號四樓之６","OBJECTID":625650},"geometry":{"x":167260.09000000078,"y":2541897.120000001}},{"attributes":{"ID":625678,"DIS_CODE":0,"TOWNNAME":"南區","LI":"田寮里","LIN":"4鄰","STREET":"新興路","SECT":" ","MAREA":" ","LANE":" ","ALLEY":" ","HOUSE_NO":"２６１號七樓之５","E_COORD97":167260.09,"N_COORD97":2541897.1200000001,"ADDRESS":"新興路２６１號七樓之５","OBJECTID":625651},"geometry":{"x":167260.09000000078,"y":2541897.120000001}},{"attributes":{"ID":625679,"DIS_CODE":0,"TOWNNAME":"南區","LI":"文華里","LIN":"17鄰","STREET":"南樂街","SECT":" ","MAREA":" ","LANE":" ","ALLEY":" ","HOUSE_NO":"１９號四樓","E_COORD97":166843.5,"N_COORD97":2543150.54,"ADDRESS":"南樂街１９號四樓","OBJECTID":625652},"geometry":{"x":166843.49999999907,"y":2543150.5399999991}},{"attributes":{"ID":625680,"DIS_CODE":0,"TOWNNAME":"南區","LI":"文華里","LIN":"17鄰","STREET":"南樂街","SECT":" ","MAREA":" ","LANE":" ","ALLEY":" ","HOUSE_NO":"２１號二樓","E_COORD97":166840.26999999999,"N_COORD97":2543146.3300000001,"ADDRESS":"南樂街２１號二樓","OBJECTID":625653},"geometry":{"x":166840.27000000048,"y":2543146.3300000001}},{"attributes":{"ID":625681,"DIS_CODE":0,"TOWNNAME":"南區","LI":"文華里","LIN":"17鄰","STREET":"南樂街","SECT":" ","MAREA":" ","LANE":" ","ALLEY":" ","HOUSE_NO":"２１號三樓","E_COORD97":166840.26999999999,"N_COORD97":2543146.3300000001,"ADDRESS":"南樂街２１號三樓","OBJECTID":625654},"geometry":{"x":166840.27000000048,"y":2543146.3300000001}},{"attributes":{"ID":625682,"DIS_CODE":0,"TOWNNAME":"南區","LI":"文華里","LIN":"17鄰","STREET":"南樂街","SECT":" ","MAREA":" ","LANE":" ","ALLEY":" ","HOUSE_NO":"２１號五樓","E_COORD97":166840.26999999999,"N_COORD97":2543146.3300000001,"ADDRESS":"南樂街２１號五樓","OBJECTID":625655},"geometry":{"x":166840.27000000048,"y":2543146.3300000001}},{"attributes":{"ID":625683,"DIS_CODE":0,"TOWNNAME":"南區","LI":"文華里","LIN":"17鄰","STREET":"南樂街","SECT":" ","MAREA":" ","LANE":" ","ALLEY":" ","HOUSE_NO":"２１號四樓","E_COORD97":166840.26999999999,"N_COORD97":2543146.3300000001,"ADDRESS":"南樂街２１號四樓","OBJECTID":625656},"geometry":{"x":166840.27000000048,"y":2543146.3300000001}},{"attributes":{"ID":625684,"DIS_CODE":0,"TOWNNAME":"南區","LI":"文華里","LIN":"17鄰","STREET":"南樂街","SECT":" ","MAREA":" ","LANE":" ","ALLEY":" ","HOUSE_NO":"２３號二樓","E_COORD97":166835.23999999999,"N_COORD97":2543141.29,"ADDRESS":"南樂街２３號二樓","OBJECTID":625657},"geometry":{"x":166835.24000000022,"y":2543141.290000001}},{"attributes":{"ID":625685,"DIS_CODE":0,"TOWNNAME":"南區","LI":"文華里","LIN":"17鄰","STREET":"南樂街","SECT":" ","MAREA":" ","LANE":" ","ALLEY":" ","HOUSE_NO":"２３號三樓","E_COORD97":166835.23999999999,"N_COORD97":2543141.29,"ADDRESS":"南樂街２３號三樓","OBJECTID":625658},"geometry":{"x":166835.24000000022,"y":2543141.290000001}},{"attributes":{"ID":625686,"DIS_CODE":0,"TOWNNAME":"南區","LI":"文華里","LIN":"17鄰","STREET":"南樂街","SECT":" ","MAREA":" ","LANE":" ","ALLEY":" ","HOUSE_NO":"２３號五樓","E_COORD97":166835.23999999999,"N_COORD97":2543141.29,"ADDRESS":"南樂街２３號五樓","OBJECTID":625659},"geometry":{"x":166835.24000000022,"y":2543141.290000001}},{"attributes":{"ID":625687,"DIS_CODE":0,"TOWNNAME":"南區","LI":"文華里","LIN":"17鄰","STREET":"南樂街","SECT":" ","MAREA":" ","LANE":" ","ALLEY":" ","HOUSE_NO":"２３號四樓","E_COORD97":166835.23999999999,"N_COORD97":2543141.29,"ADDRESS":"南樂街２３號四樓","OBJECTID":625660},"geometry":{"x":166835.24000000022,"y":2543141.290000001}},{"attributes":{"ID":625688,"DIS_CODE":0,"TOWNNAME":"安平區","LI":"港仔里","LIN":"4鄰","STREET":"安平路","SECT":" ","MAREA":" ","LANE":" ","ALLEY":" ","HOUSE_NO":"９７號之１３二樓之１","E_COORD97":164313.17000000001,"N_COORD97":2544388.0099999998,"ADDRESS":"安平路９７號之１３二樓之１","OBJECTID":625661},"geometry":{"x":164313.17000000179,"y":2544388.0100000016}},{"attributes":{"ID":625689,"DIS_CODE":0,"TOWNNAME":"安平區","LI":"怡平里","LIN":"4鄰","STREET":"建平十七街","SECT":" ","MAREA":" ","LANE":" ","ALLEY":" ","HOUSE_NO":"２３１號十五樓之７","E_COORD97":165551.87,"N_COORD97":2544199.1600000001,"ADDRESS":"建平十七街２３１號十五樓之７","OBJECTID":625662},"geometry":{"x":165551.87000000104,"y":2544199.1600000001}},{"attributes":{"ID":625690,"DIS_CODE":0,"TOWNNAME":"安平區","LI":"文平里","LIN":"12鄰","STREET":"永華四街","SECT":" ","MAREA":" ","LANE":" ","ALLEY":" ","HOUSE_NO":"９１號二樓之１","E_COORD97":165944.38,"N_COORD97":2543358.0600000001,"ADDRESS":"永華四街９１號二樓之１","OBJECTID":625663},"geometry":{"x":165944.38000000082,"y":2543358.0600000024}},{"attributes":{"ID":625691,"DIS_CODE":0,"TOWNNAME":"安平區","LI":"文平里","LIN":"12鄰","STREET":"永華四街","SECT":" ","MAREA":" ","LANE":" ","ALLEY":" ","HOUSE_NO":"９１號二樓之２","E_COORD97":165944.38,"N_COORD97":2543358.0600000001,"ADDRESS":"永華四街９１號二樓之２","OBJECTID":625664},"geometry":{"x":165944.38000000082,"y":2543358.0600000024}},{"attributes":{"ID":625692,"DIS_CODE":0,"TOWNNAME":"安平區","LI":"文平里","LIN":"12鄰","STREET":"永華四街","SECT":" ","MAREA":" ","LANE":" ","ALLEY":" ","HOUSE_NO":"９１號二樓之３","E_COORD97":165944.38,"N_COORD97":2543358.0600000001,"ADDRESS":"永華四街９１號二樓之３","OBJECTID":625665},"geometry":{"x":165944.38000000082,"y":2543358.0600000024}},{"attributes":{"ID":625693,"DIS_CODE":0,"TOWNNAME":"安平區","LI":"文平里","LIN":"12鄰","STREET":"永華四街","SECT":" ","MAREA":" ","LANE":" ","ALLEY":" ","HOUSE_NO":"９１號二樓之４","E_COORD97":165944.38,"N_COORD97":2543358.0600000001,"ADDRESS":"永華四街９１號二樓之４","OBJECTID":625666},"geometry":{"x":165944.38000000082,"y":2543358.0600000024}},{"attributes":{"ID":625694,"DIS_CODE":0,"TOWNNAME":"安平區","LI":"文平里","LIN":"12鄰","STREET":"永華四街","SECT":" ","MAREA":" ","LANE":" ","ALLEY":" ","HOUSE_NO":"９１號二樓之５","E_COORD97":165944.38,"N_COORD97":2543358.0600000001,"ADDRESS":"永華四街９１號二樓之５","OBJECTID":625667},"geometry":{"x":165944.38000000082,"y":2543358.0600000024}},{"attributes":{"ID":625695,"DIS_CODE":0,"TOWNNAME":"安平區","LI":"文平里","LIN":"12鄰","STREET":"永華四街","SECT":" ","MAREA":" ","LANE":" ","ALLEY":" ","HOUSE_NO":"９１號二樓之６","E_COORD97":165944.38,"N_COORD97":2543358.0600000001,"ADDRESS":"永華四街９１號二樓之６","OBJECTID":625668},"geometry":{"x":165944.38000000082,"y":2543358.0600000024}},{"attributes":{"ID":625696,"DIS_CODE":0,"TOWNNAME":"安平區","LI":"文平里","LIN":"12鄰","STREET":"永華四街","SECT":" ","MAREA":" ","LANE":" ","ALLEY":" ","HOUSE_NO":"９１號三樓之１","E_COORD97":165944.38,"N_COORD97":2543358.0600000001,"ADDRESS":"永華四街９１號三樓之１","OBJECTID":625669},"geometry":{"x":165944.38000000082,"y":2543358.0600000024}},{"attributes":{"ID":625697,"DIS_CODE":0,"TOWNNAME":"安平區","LI":"平安里","LIN":"17鄰","STREET":"安平路","SECT":" ","MAREA":" ","LANE":" ","ALLEY":" ","HOUSE_NO":"６３２號二樓之２","E_COORD97":164742.31,"N_COORD97":2544439.4900000002,"ADDRESS":"安平路６３２號二樓之２","OBJECTID":625670},"geometry":{"x":164742.30999999866,"y":2544439.4900000021}},{"attributes":{"ID":625698,"DIS_CODE":0,"TOWNNAME":"安平區","LI":"建平里","LIN":"6鄰","STREET":"慶平路","SECT":" ","MAREA":" ","LANE":" ","ALLEY":" ","HOUSE_NO":"１６６號十樓之１","E_COORD97":165942.48999999999,"N_COORD97":2544206.29,"ADDRESS":"慶平路１６６號十樓之１","OBJECTID":625671},"geometry":{"x":165942.49000000115,"y":2544206.2899999991}},{"attributes":{"ID":625699,"DIS_CODE":0,"TOWNNAME":"安平區","LI":"建平里","LIN":"6鄰","STREET":"慶平路","SECT":" ","MAREA":" ","LANE":" ","ALLEY":" ","HOUSE_NO":"１６６號十樓之２","E_COORD97":165942.48999999999,"N_COORD97":2544206.29,"ADDRESS":"慶平路１６６號十樓之２","OBJECTID":625672},"geometry":{"x":165942.49000000115,"y":2544206.2899999991}},{"attributes":{"ID":625700,"DIS_CODE":0,"TOWNNAME":"安平區","LI":"建平里","LIN":"6鄰","STREET":"慶平路","SECT":" ","MAREA":" ","LANE":" ","ALLEY":" ","HOUSE_NO":"１６６號十樓之３","E_COORD97":165942.48999999999,"N_COORD97":2544206.29,"ADDRESS":"慶平路１６６號十樓之３","OBJECTID":625673},"geometry":{"x":165942.49000000115,"y":2544206.2899999991}},{"attributes":{"ID":625701,"DIS_CODE":0,"TOWNNAME":"安平區","LI":"建平里","LIN":"6鄰","STREET":"慶平路","SECT":" ","MAREA":" ","LANE":" ","ALLEY":" ","HOUSE_NO":"１６６號十樓之４","E_COORD97":165942.48999999999,"N_COORD97":2544206.29,"ADDRESS":"慶平路１６６號十樓之４","OBJECTID":625674},"geometry":{"x":165942.49000000115,"y":2544206.2899999991}},{"attributes":{"ID":625702,"DIS_CODE":0,"TOWNNAME":"安平區","LI":"平通里","LIN":"11鄰","STREET":"育平九街","SECT":" ","MAREA":" ","LANE":" ","ALLEY":" ","HOUSE_NO":"２４５號三樓","E_COORD97":164896.22,"N_COORD97":2544006.04,"ADDRESS":"育平九街２４５號三樓","OBJECTID":625675},"geometry":{"x":164896.22000000067,"y":2544006.0400000028}},{"attributes":{"ID":625703,"DIS_CODE":0,"TOWNNAME":"安平區","LI":"石門里","LIN":"8鄰","STREET":"安北路","SECT":" ","MAREA":" ","LANE":" ","ALLEY":" ","HOUSE_NO":"３０號之３一樓","E_COORD97":164671.67000000001,"N_COORD97":2544506.54,"ADDRESS":"安北路３０號之３一樓","OBJECTID":625676},"geometry":{"x":164671.66999999993,"y":2544506.5399999991}},{"attributes":{"ID":625704,"DIS_CODE":0,"TOWNNAME":"安平區","LI":"國平里","LIN":"24鄰","STREET":"建平七街","SECT":" ","MAREA":" ","LANE":" ","ALLEY":" ","HOUSE_NO":"６７７號六樓之４","E_COORD97":164850.32999999999,"N_COORD97":2543412.3599999999,"ADDRESS":"建平七街６７７號六樓之４","OBJECTID":625677},"geometry":{"x":164850.33000000101,"y":2543412.3600000013}},{"attributes":{"ID":625705,"DIS_CODE":0,"TOWNNAME":"安平區","LI":"國平里","LIN":"24鄰","STREET":"建平七街","SECT":" ","MAREA":" ","LANE":" ","ALLEY":" ","HOUSE_NO":"６７７號六樓之３","E_COORD97":164850.32999999999,"N_COORD97":2543412.3599999999,"ADDRESS":"建平七街６７７號六樓之３","OBJECTID":625678},"geometry":{"x":164850.33000000101,"y":2543412.3600000013}},{"attributes":{"ID":625706,"DIS_CODE":0,"TOWNNAME":"安平區","LI":"育平里","LIN":"11鄰","STREET":"育平五街","SECT":" ","MAREA":" ","LANE":" ","ALLEY":" ","HOUSE_NO":"７７號五樓１","E_COORD97":164668.54000000001,"N_COORD97":2543499.5899999999,"ADDRESS":"育平五街７７號五樓１","OBJECTID":625679},"geometry":{"x":164668.5400000019,"y":2543499.5900000017}},{"attributes":{"ID":625707,"DIS_CODE":0,"TOWNNAME":"安平區","LI":"平通里","LIN":"1鄰","STREET":"國平路","SECT":" ","MAREA":" ","LANE":" ","ALLEY":" ","HOUSE_NO":"５８７號五樓之１５","E_COORD97":165064.60999999999,"N_COORD97":2544106.4700000002,"ADDRESS":"國平路５８７號五樓之１５","OBJECTID":625680},"geometry":{"x":165064.61000000034,"y":2544106.4700000044}},{"attributes":{"ID":625708,"DIS_CODE":0,"TOWNNAME":"南區","LI":"大忠里","LIN":"39鄰","STREET":"中華南路","SECT":"一段","MAREA":" ","LANE":" ","ALLEY":" ","HOUSE_NO":"１８８號二樓","E_COORD97":168931.79999999999,"N_COORD97":2541076.4300000002,"ADDRESS":"中華南路一段１８８號二樓","OBJECTID":625681},"geometry":{"x":168931.80000000075,"y":2541076.4300000016}},{"attributes":{"ID":625709,"DIS_CODE":0,"TOWNNAME":"安平區","LI":"平通里","LIN":"32鄰","STREET":"永華路","SECT":"二段","MAREA":" ","LANE":" ","ALLEY":" ","HOUSE_NO":"９００號九樓之１","E_COORD97":164522.04000000001,"N_COORD97":2543637.5600000001,"ADDRESS":"永華路二段９００號九樓之１","OBJECTID":625682},"geometry":{"x":164522.04000000004,"y":2543637.5600000005}},{"attributes":{"ID":625710,"DIS_CODE":0,"TOWNNAME":"安平區","LI":"平通里","LIN":"32鄰","STREET":"永華路","SECT":"二段","MAREA":" ","LANE":" ","ALLEY":" ","HOUSE_NO":"９００號九樓之２","E_COORD97":164522.04000000001,"N_COORD97":2543637.5600000001,"ADDRESS":"永華路二段９００號九樓之２","OBJECTID":625683},"geometry":{"x":164522.04000000004,"y":2543637.5600000005}},{"attributes":{"ID":625711,"DIS_CODE":0,"TOWNNAME":"安平區","LI":"平通里","LIN":"32鄰","STREET":"永華路","SECT":"二段","MAREA":" ","LANE":" ","ALLEY":" ","HOUSE_NO":"９００號九樓之３","E_COORD97":164522.04000000001,"N_COORD97":2543637.5600000001,"ADDRESS":"永華路二段９００號九樓之３","OBJECTID":625684},"geometry":{"x":164522.04000000004,"y":2543637.5600000005}},{"attributes":{"ID":625712,"DIS_CODE":0,"TOWNNAME":"安平區","LI":"平通里","LIN":"32鄰","STREET":"永華路","SECT":"二段","MAREA":" ","LANE":" ","ALLEY":" ","HOUSE_NO":"９００號九樓之５","E_COORD97":164522.04000000001,"N_COORD97":2543637.5600000001,"ADDRESS":"永華路二段９００號九樓之５","OBJECTID":625685},"geometry":{"x":164522.04000000004,"y":2543637.5600000005}},{"attributes":{"ID":625713,"DIS_CODE":0,"TOWNNAME":"南區","LI":"大成里","LIN":"9鄰","STREET":"新興東路","SECT":" ","MAREA":" ","LANE":" ","ALLEY":" ","HOUSE_NO":"２７０號二樓","E_COORD97":167806.26000000001,"N_COORD97":2542294.75,"ADDRESS":"新興東路２７０號二樓","OBJECTID":625686},"geometry":{"x":167806.26000000164,"y":2542294.7500000019}},{"attributes":{"ID":625714,"DIS_CODE":0,"TOWNNAME":"南區","LI":"大成里","LIN":"9鄰","STREET":"新興東路","SECT":" ","MAREA":" ","LANE":" ","ALLEY":" ","HOUSE_NO":"２６８號三樓","E_COORD97":167817.34,"N_COORD97":2542297.5099999998,"ADDRESS":"新興東路２６８號三樓","OBJECTID":625687},"geometry":{"x":167817.33999999985,"y":2542297.5099999998}},{"attributes":{"ID":625715,"DIS_CODE":0,"TOWNNAME":"南區","LI":"大成里","LIN":"9鄰","STREET":"新興東路","SECT":" ","MAREA":" ","LANE":" ","ALLEY":" ","HOUSE_NO":"２６８號五樓","E_COORD97":167817.34,"N_COORD97":2542297.5099999998,"ADDRESS":"新興東路２６８號五樓","OBJECTID":625688},"geometry":{"x":167817.33999999985,"y":2542297.5099999998}},{"attributes":{"ID":625716,"DIS_CODE":0,"TOWNNAME":"南區","LI":"大成里","LIN":"9鄰","STREET":"新興東路","SECT":" ","MAREA":" ","LANE":" ","ALLEY":" ","HOUSE_NO":"２６８號四樓","E_COORD97":167817.34,"N_COORD97":2542297.5099999998,"ADDRESS":"新興東路２６８號四樓","OBJECTID":625689},"geometry":{"x":167817.33999999985,"y":2542297.5099999998}},{"attributes":{"ID":625717,"DIS_CODE":0,"TOWNNAME":"南區","LI":"大成里","LIN":"9鄰","STREET":"新興東路","SECT":" ","MAREA":" ","LANE":" ","ALLEY":" ","HOUSE_NO":"２７０號五樓","E_COORD97":167806.26000000001,"N_COORD97":2542294.75,"ADDRESS":"新興東路２７０號五樓","OBJECTID":625690},"geometry":{"x":167806.26000000164,"y":2542294.7500000019}},{"attributes":{"ID":625718,"DIS_CODE":0,"TOWNNAME":"南區","LI":"大成里","LIN":"9鄰","STREET":"新興東路","SECT":" ","MAREA":" ","LANE":" ","ALLEY":" ","HOUSE_NO":"２７０號四樓","E_COORD97":167806.26000000001,"N_COORD97":2542294.75,"ADDRESS":"新興東路２７０號四樓","OBJECTID":625691},"geometry":{"x":167806.26000000164,"y":2542294.7500000019}},{"attributes":{"ID":625719,"DIS_CODE":0,"TOWNNAME":"南區","LI":"文南里","LIN":"26鄰","STREET":"南功街","SECT":" ","MAREA":" ","LANE":" ","ALLEY":" ","HOUSE_NO":"７５號二樓","E_COORD97":166461.59,"N_COORD97":2542802.9700000002,"ADDRESS":"南功街７５號二樓","OBJECTID":625692},"geometry":{"x":166461.59000000078,"y":2542802.9700000007}},{"attributes":{"ID":625720,"DIS_CODE":0,"TOWNNAME":"南區","LI":"文南里","LIN":"27鄰","STREET":"健康路","SECT":"二段","MAREA":" ","LANE":" ","ALLEY":" ","HOUSE_NO":"４９１號二樓","E_COORD97":166319.39999999999,"N_COORD97":2542549.7200000002,"ADDRESS":"健康路二段４９１號二樓","OBJECTID":625693},"geometry":{"x":166319.4000000013,"y":2542549.7200000025}},{"attributes":{"ID":625721,"DIS_CODE":0,"TOWNNAME":"南區","LI":"文南里","LIN":"27鄰","STREET":"健康路","SECT":"二段","MAREA":" ","LANE":" ","ALLEY":" ","HOUSE_NO":"４９９號七樓之１","E_COORD97":166295.82000000001,"N_COORD97":2542544.2999999998,"ADDRESS":"健康路二段４９９號七樓之１","OBJECTID":625694},"geometry":{"x":166295.82000000216,"y":2542544.3000000007}},{"attributes":{"ID":625722,"DIS_CODE":0,"TOWNNAME":"南區","LI":"文南里","LIN":"27鄰","STREET":"健康路","SECT":"二段","MAREA":" ","LANE":" ","ALLEY":" ","HOUSE_NO":"４９９號六樓之１３","E_COORD97":166295.82000000001,"N_COORD97":2542544.2999999998,"ADDRESS":"健康路二段４９９號六樓之１３","OBJECTID":625695},"geometry":{"x":166295.82000000216,"y":2542544.3000000007}},{"attributes":{"ID":625723,"DIS_CODE":0,"TOWNNAME":"南區","LI":"文南里","LIN":"27鄰","STREET":"健康路","SECT":"二段","MAREA":" ","LANE":" ","ALLEY":" ","HOUSE_NO":"４９９號六樓之２","E_COORD97":166295.82000000001,"N_COORD97":2542544.2999999998,"ADDRESS":"健康路二段４９９號六樓之２","OBJECTID":625696},"geometry":{"x":166295.82000000216,"y":2542544.3000000007}},{"attributes":{"ID":625724,"DIS_CODE":0,"TOWNNAME":"南區","LI":"光明里","LIN":"35鄰","STREET":"新興路","SECT":" ","MAREA":" ","LANE":" ","ALLEY":" ","HOUSE_NO":"５３９號七樓","E_COORD97":166547.89000000001,"N_COORD97":2541640.4399999999,"ADDRESS":"新興路５３９號七樓","OBJECTID":625697},"geometry":{"x":166547.8900000006,"y":2541640.4399999976}},{"attributes":{"ID":625725,"DIS_CODE":0,"TOWNNAME":"東區","LI":"德光里","LIN":"4鄰","STREET":"崇德路","SECT":" ","MAREA":" ","LANE":" ","ALLEY":" ","HOUSE_NO":"６２號二樓","E_COORD97":169804.53,"N_COORD97":2542370.3700000001,"ADDRESS":"崇德路６２號二樓","OBJECTID":625698},"geometry":{"x":169804.53000000026,"y":2542370.370000001}},{"attributes":{"ID":625726,"DIS_CODE":0,"TOWNNAME":"東區","LI":"虎尾里","LIN":"24鄰","STREET":"東成街","SECT":" ","MAREA":" ","LANE":" ","ALLEY":" ","HOUSE_NO":"２１８號","E_COORD97":171929.31,"N_COORD97":2542284.02,"ADDRESS":"東成街２１８號","OBJECTID":625699},"geometry":{"x":171929.30999999959,"y":2542284.0199999996}},{"attributes":{"ID":625727,"DIS_CODE":0,"TOWNNAME":"安平區","LI":"怡平里","LIN":"4鄰","STREET":"建平十七街","SECT":" ","MAREA":" ","LANE":" ","ALLEY":" ","HOUSE_NO":"２３１號十五樓之５","E_COORD97":165551.87,"N_COORD97":2544199.1600000001,"ADDRESS":"建平十七街２３１號十五樓之５","OBJECTID":625700},"geometry":{"x":165551.87000000104,"y":2544199.1600000001}},{"attributes":{"ID":625728,"DIS_CODE":0,"TOWNNAME":"安平區","LI":"建平里","LIN":"11鄰","STREET":"建平十五街","SECT":" ","MAREA":" ","LANE":" ","ALLEY":" ","HOUSE_NO":"５６號二樓之１","E_COORD97":166205.26999999999,"N_COORD97":2544128.6800000002,"ADDRESS":"建平十五街５６號二樓之１","OBJECTID":625701},"geometry":{"x":166205.26999999955,"y":2544128.6800000016}},{"attributes":{"ID":625729,"DIS_CODE":0,"TOWNNAME":"安平區","LI":"建平里","LIN":"11鄰","STREET":"建平十五街","SECT":" ","MAREA":" ","LANE":" ","ALLEY":" ","HOUSE_NO":"５６號二樓之２","E_COORD97":166205.26999999999,"N_COORD97":2544128.6800000002,"ADDRESS":"建平十五街５６號二樓之２","OBJECTID":625702},"geometry":{"x":166205.26999999955,"y":2544128.6800000016}},{"attributes":{"ID":625730,"DIS_CODE":0,"TOWNNAME":"安平區","LI":"建平里","LIN":"11鄰","STREET":"建平十五街","SECT":" ","MAREA":" ","LANE":" ","ALLEY":" ","HOUSE_NO":"５６號二樓之３","E_COORD97":166205.26999999999,"N_COORD97":2544128.6800000002,"ADDRESS":"建平十五街５６號二樓之３","OBJECTID":625703},"geometry":{"x":166205.26999999955,"y":2544128.6800000016}},{"attributes":{"ID":625731,"DIS_CODE":0,"TOWNNAME":"安平區","LI":"建平里","LIN":"11鄰","STREET":"建平十五街","SECT":" ","MAREA":" ","LANE":" ","ALLEY":" ","HOUSE_NO":"５６號二樓之４","E_COORD97":166205.26999999999,"N_COORD97":2544128.6800000002,"ADDRESS":"建平十五街５６號二樓之４","OBJECTID":625704},"geometry":{"x":166205.26999999955,"y":2544128.6800000016}},{"attributes":{"ID":625732,"DIS_CODE":0,"TOWNNAME":"安平區","LI":"建平里","LIN":"11鄰","STREET":"建平十五街","SECT":" ","MAREA":" ","LANE":" ","ALLEY":" ","HOUSE_NO":"５６號三樓","E_COORD97":166205.26999999999,"N_COORD97":2544128.6800000002,"ADDRESS":"建平十五街５６號三樓","OBJECTID":625705},"geometry":{"x":166205.26999999955,"y":2544128.6800000016}},{"attributes":{"ID":625733,"DIS_CODE":0,"TOWNNAME":"安平區","LI":"建平里","LIN":"11鄰","STREET":"建平十五街","SECT":" ","MAREA":" ","LANE":" ","ALLEY":" ","HOUSE_NO":"５６號三樓之１","E_COORD97":166205.26999999999,"N_COORD97":2544128.6800000002,"ADDRESS":"建平十五街５６號三樓之１","OBJECTID":625706},"geometry":{"x":166205.26999999955,"y":2544128.6800000016}},{"attributes":{"ID":625734,"DIS_CODE":0,"TOWNNAME":"安平區","LI":"建平里","LIN":"11鄰","STREET":"建平十五街","SECT":" ","MAREA":" ","LANE":" ","ALLEY":" ","HOUSE_NO":"５６號三樓之２","E_COORD97":166205.26999999999,"N_COORD97":2544128.6800000002,"ADDRESS":"建平十五街５６號三樓之２","OBJECTID":625707},"geometry":{"x":166205.26999999955,"y":2544128.6800000016}},{"attributes":{"ID":625735,"DIS_CODE":0,"TOWNNAME":"安平區","LI":"建平里","LIN":"11鄰","STREET":"建平十五街","SECT":" ","MAREA":" ","LANE":" ","ALLEY":" ","HOUSE_NO":"５６號三樓之３","E_COORD97":166205.26999999999,"N_COORD97":2544128.6800000002,"ADDRESS":"建平十五街５６號三樓之３","OBJECTID":625708},"geometry":{"x":166205.26999999955,"y":2544128.6800000016}},{"attributes":{"ID":625736,"DIS_CODE":0,"TOWNNAME":"安平區","LI":"建平里","LIN":"11鄰","STREET":"建平十五街","SECT":" ","MAREA":" ","LANE":" ","ALLEY":" ","HOUSE_NO":"５６號三樓之４","E_COORD97":166205.26999999999,"N_COORD97":2544128.6800000002,"ADDRESS":"建平十五街５６號三樓之４","OBJECTID":625709},"geometry":{"x":166205.26999999955,"y":2544128.6800000016}},{"attributes":{"ID":625737,"DIS_CODE":0,"TOWNNAME":"安平區","LI":"建平里","LIN":"11鄰","STREET":"建平十五街","SECT":" ","MAREA":" ","LANE":" ","ALLEY":" ","HOUSE_NO":"５６號五樓之１","E_COORD97":166205.26999999999,"N_COORD97":2544128.6800000002,"ADDRESS":"建平十五街５６號五樓之１","OBJECTID":625710},"geometry":{"x":166205.26999999955,"y":2544128.6800000016}},{"attributes":{"ID":625738,"DIS_CODE":0,"TOWNNAME":"安平區","LI":"建平里","LIN":"11鄰","STREET":"建平十五街","SECT":" ","MAREA":" ","LANE":" ","ALLEY":" ","HOUSE_NO":"５６號五樓之２","E_COORD97":166205.26999999999,"N_COORD97":2544128.6800000002,"ADDRESS":"建平十五街５６號五樓之２","OBJECTID":625711},"geometry":{"x":166205.26999999955,"y":2544128.6800000016}},{"attributes":{"ID":625739,"DIS_CODE":0,"TOWNNAME":"安平區","LI":"建平里","LIN":"11鄰","STREET":"建平十五街","SECT":" ","MAREA":" ","LANE":" ","ALLEY":" ","HOUSE_NO":"５６號五樓之３","E_COORD97":166205.26999999999,"N_COORD97":2544128.6800000002,"ADDRESS":"建平十五街５６號五樓之３","OBJECTID":625712},"geometry":{"x":166205.26999999955,"y":2544128.6800000016}},{"attributes":{"ID":625740,"DIS_CODE":0,"TOWNNAME":"安平區","LI":"建平里","LIN":"11鄰","STREET":"建平十五街","SECT":" ","MAREA":" ","LANE":" ","ALLEY":" ","HOUSE_NO":"５６號五樓之４","E_COORD97":166205.26999999999,"N_COORD97":2544128.6800000002,"ADDRESS":"建平十五街５６號五樓之４","OBJECTID":625713},"geometry":{"x":166205.26999999955,"y":2544128.6800000016}},{"attributes":{"ID":625741,"DIS_CODE":0,"TOWNNAME":"安平區","LI":"建平里","LIN":"4鄰","STREET":"慶平路","SECT":" ","MAREA":" ","LANE":" ","ALLEY":" ","HOUSE_NO":"１６０號七樓之１","E_COORD97":166027.38,"N_COORD97":2544205.7000000002,"ADDRESS":"慶平路１６０號七樓之１","OBJECTID":625714},"geometry":{"x":166027.38000000082,"y":2544205.7000000011}},{"attributes":{"ID":625742,"DIS_CODE":0,"TOWNNAME":"安平區","LI":"建平里","LIN":"4鄰","STREET":"慶平路","SECT":" ","MAREA":" ","LANE":" ","ALLEY":" ","HOUSE_NO":"１６０號七樓之２","E_COORD97":166027.38,"N_COORD97":2544205.7000000002,"ADDRESS":"慶平路１６０號七樓之２","OBJECTID":625715},"geometry":{"x":166027.38000000082,"y":2544205.7000000011}},{"attributes":{"ID":625743,"DIS_CODE":0,"TOWNNAME":"安平區","LI":"建平里","LIN":"4鄰","STREET":"慶平路","SECT":" ","MAREA":" ","LANE":" ","ALLEY":" ","HOUSE_NO":"１６０號七樓之３","E_COORD97":166027.38,"N_COORD97":2544205.7000000002,"ADDRESS":"慶平路１６０號七樓之３","OBJECTID":625716},"geometry":{"x":166027.38000000082,"y":2544205.7000000011}},{"attributes":{"ID":625744,"DIS_CODE":0,"TOWNNAME":"安平區","LI":"建平里","LIN":"4鄰","STREET":"慶平路","SECT":" ","MAREA":" ","LANE":" ","ALLEY":" ","HOUSE_NO":"１６０號九樓之１","E_COORD97":166027.38,"N_COORD97":2544205.7000000002,"ADDRESS":"慶平路１６０號九樓之１","OBJECTID":625717},"geometry":{"x":166027.38000000082,"y":2544205.7000000011}},{"attributes":{"ID":625745,"DIS_CODE":0,"TOWNNAME":"安平區","LI":"建平里","LIN":"4鄰","STREET":"慶平路","SECT":" ","MAREA":" ","LANE":" ","ALLEY":" ","HOUSE_NO":"１６０號九樓之２","E_COORD97":166027.38,"N_COORD97":2544205.7000000002,"ADDRESS":"慶平路１６０號九樓之２","OBJECTID":625718},"geometry":{"x":166027.38000000082,"y":2544205.7000000011}},{"attributes":{"ID":625746,"DIS_CODE":0,"TOWNNAME":"安平區","LI":"建平里","LIN":"4鄰","STREET":"慶平路","SECT":" ","MAREA":" ","LANE":" ","ALLEY":" ","HOUSE_NO":"１６０號二樓","E_COORD97":166027.38,"N_COORD97":2544205.7000000002,"ADDRESS":"慶平路１６０號二樓","OBJECTID":625719},"geometry":{"x":166027.38000000082,"y":2544205.7000000011}},{"attributes":{"ID":625747,"DIS_CODE":0,"TOWNNAME":"安平區","LI":"建平里","LIN":"4鄰","STREET":"慶平路","SECT":" ","MAREA":" ","LANE":" ","ALLEY":" ","HOUSE_NO":"１６０號八樓之１","E_COORD97":166027.38,"N_COORD97":2544205.7000000002,"ADDRESS":"慶平路１６０號八樓之１","OBJECTID":625720},"geometry":{"x":166027.38000000082,"y":2544205.7000000011}},{"attributes":{"ID":625748,"DIS_CODE":0,"TOWNNAME":"安平區","LI":"建平里","LIN":"6鄰","STREET":"慶平路","SECT":" ","MAREA":" ","LANE":" ","ALLEY":" ","HOUSE_NO":"１６６號七樓之１","E_COORD97":165942.48999999999,"N_COORD97":2544206.29,"ADDRESS":"慶平路１６６號七樓之１","OBJECTID":625721},"geometry":{"x":165942.49000000115,"y":2544206.2899999991}},{"attributes":{"ID":625749,"DIS_CODE":0,"TOWNNAME":"安平區","LI":"怡平里","LIN":"7鄰","STREET":"慶平路","SECT":" ","MAREA":" ","LANE":" ","ALLEY":" ","HOUSE_NO":"２００號四樓之９","E_COORD97":165800.79999999999,"N_COORD97":2544196.79,"ADDRESS":"慶平路２００號四樓之９","OBJECTID":625722},"geometry":{"x":165800.80000000075,"y":2544196.7899999991}},{"attributes":{"ID":625750,"DIS_CODE":0,"TOWNNAME":"安平區","LI":"怡平里","LIN":"6鄰","STREET":"慶平路","SECT":" ","MAREA":" ","LANE":" ","ALLEY":" ","HOUSE_NO":"２３４號四樓之１","E_COORD97":165744.56,"N_COORD97":2544194.4399999999,"ADDRESS":"慶平路２３４號四樓之１","OBJECTID":625723},"geometry":{"x":165744.56000000052,"y":2544194.4400000013}},{"attributes":{"ID":625751,"DIS_CODE":0,"TOWNNAME":"安平區","LI":"怡平里","LIN":"6鄰","STREET":"慶平路","SECT":" ","MAREA":" ","LANE":" ","ALLEY":" ","HOUSE_NO":"２３４號四樓之６","E_COORD97":165744.56,"N_COORD97":2544194.4399999999,"ADDRESS":"慶平路２３４號四樓之６","OBJECTID":625724},"geometry":{"x":165744.56000000052,"y":2544194.4400000013}},{"attributes":{"ID":625752,"DIS_CODE":0,"TOWNNAME":"安平區","LI":"怡平里","LIN":"7鄰","STREET":"慶平路","SECT":" ","MAREA":" ","LANE":" ","ALLEY":" ","HOUSE_NO":"２００號九樓之６","E_COORD97":165800.79999999999,"N_COORD97":2544196.79,"ADDRESS":"慶平路２００號九樓之６","OBJECTID":625725},"geometry":{"x":165800.80000000075,"y":2544196.7899999991}},{"attributes":{"ID":625753,"DIS_CODE":0,"TOWNNAME":"安平區","LI":"建平里","LIN":"15鄰","STREET":"建平十二街","SECT":" ","MAREA":" ","LANE":" ","ALLEY":" ","HOUSE_NO":"１３４號二樓之１","E_COORD97":166005.42000000001,"N_COORD97":2543999.96,"ADDRESS":"建平十二街１３４號二樓之１","OBJECTID":625726},"geometry":{"x":166005.42000000086,"y":2543999.9600000028}},{"attributes":{"ID":625754,"DIS_CODE":0,"TOWNNAME":"安平區","LI":"建平里","LIN":"15鄰","STREET":"建平十二街","SECT":" ","MAREA":" ","LANE":" ","ALLEY":" ","HOUSE_NO":"１３４號二樓之２","E_COORD97":166005.42000000001,"N_COORD97":2543999.96,"ADDRESS":"建平十二街１３４號二樓之２","OBJECTID":625727},"geometry":{"x":166005.42000000086,"y":2543999.9600000028}},{"attributes":{"ID":625755,"DIS_CODE":0,"TOWNNAME":"安平區","LI":"建平里","LIN":"15鄰","STREET":"建平十二街","SECT":" ","MAREA":" ","LANE":" ","ALLEY":" ","HOUSE_NO":"１３４號二樓之３","E_COORD97":166005.42000000001,"N_COORD97":2543999.96,"ADDRESS":"建平十二街１３４號二樓之３","OBJECTID":625728},"geometry":{"x":166005.42000000086,"y":2543999.9600000028}},{"attributes":{"ID":625756,"DIS_CODE":0,"TOWNNAME":"安平區","LI":"建平里","LIN":"15鄰","STREET":"建平十二街","SECT":" ","MAREA":" ","LANE":" ","ALLEY":" ","HOUSE_NO":"１３４號三樓之１","E_COORD97":166005.42000000001,"N_COORD97":2543999.96,"ADDRESS":"建平十二街１３４號三樓之１","OBJECTID":625729},"geometry":{"x":166005.42000000086,"y":2543999.9600000028}},{"attributes":{"ID":625757,"DIS_CODE":0,"TOWNNAME":"安平區","LI":"建平里","LIN":"15鄰","STREET":"建平十二街","SECT":" ","MAREA":" ","LANE":" ","ALLEY":" ","HOUSE_NO":"１３４號三樓之２","E_COORD97":166005.42000000001,"N_COORD97":2543999.96,"ADDRESS":"建平十二街１３４號三樓之２","OBJECTID":625730},"geometry":{"x":166005.42000000086,"y":2543999.9600000028}},{"attributes":{"ID":625758,"DIS_CODE":0,"TOWNNAME":"安平區","LI":"建平里","LIN":"15鄰","STREET":"建平十二街","SECT":" ","MAREA":" ","LANE":" ","ALLEY":" ","HOUSE_NO":"１３４號三樓之３","E_COORD97":166005.42000000001,"N_COORD97":2543999.96,"ADDRESS":"建平十二街１３４號三樓之３","OBJECTID":625731},"geometry":{"x":166005.42000000086,"y":2543999.9600000028}},{"attributes":{"ID":625759,"DIS_CODE":0,"TOWNNAME":"安平區","LI":"建平里","LIN":"15鄰","STREET":"建平十二街","SECT":" ","MAREA":" ","LANE":" ","ALLEY":" ","HOUSE_NO":"１３４號五樓之１","E_COORD97":166005.42000000001,"N_COORD97":2543999.96,"ADDRESS":"建平十二街１３４號五樓之１","OBJECTID":625732},"geometry":{"x":166005.42000000086,"y":2543999.9600000028}},{"attributes":{"ID":625760,"DIS_CODE":0,"TOWNNAME":"安平區","LI":"建平里","LIN":"15鄰","STREET":"建平十二街","SECT":" ","MAREA":" ","LANE":" ","ALLEY":" ","HOUSE_NO":"１３４號五樓之２","E_COORD97":166005.42000000001,"N_COORD97":2543999.96,"ADDRESS":"建平十二街１３４號五樓之２","OBJECTID":625733},"geometry":{"x":166005.42000000086,"y":2543999.9600000028}},{"attributes":{"ID":625761,"DIS_CODE":0,"TOWNNAME":"安平區","LI":"建平里","LIN":"15鄰","STREET":"建平十二街","SECT":" ","MAREA":" ","LANE":" ","ALLEY":" ","HOUSE_NO":"１３４號五樓之３","E_COORD97":166005.42000000001,"N_COORD97":2543999.96,"ADDRESS":"建平十二街１３４號五樓之３","OBJECTID":625734},"geometry":{"x":166005.42000000086,"y":2543999.9600000028}},{"attributes":{"ID":625762,"DIS_CODE":0,"TOWNNAME":"安平區","LI":"建平里","LIN":"15鄰","STREET":"建平十二街","SECT":" ","MAREA":" ","LANE":" ","ALLEY":" ","HOUSE_NO":"１３４號六樓之１","E_COORD97":166005.42000000001,"N_COORD97":2543999.96,"ADDRESS":"建平十二街１３４號六樓之１","OBJECTID":625735},"geometry":{"x":166005.42000000086,"y":2543999.9600000028}},{"attributes":{"ID":625763,"DIS_CODE":0,"TOWNNAME":"安平區","LI":"建平里","LIN":"20鄰","STREET":"文平路","SECT":" ","MAREA":" ","LANE":" ","ALLEY":" ","HOUSE_NO":"４６８號七樓","E_COORD97":165832.57999999999,"N_COORD97":2543877.77,"ADDRESS":"文平路４６８號七樓","OBJECTID":625736},"geometry":{"x":165832.58000000007,"y":2543877.7700000014}},{"attributes":{"ID":625764,"DIS_CODE":0,"TOWNNAME":"安平區","LI":"建平里","LIN":"15鄰","STREET":"建平十二街","SECT":" ","MAREA":" ","LANE":" ","ALLEY":" ","HOUSE_NO":"１３４號四樓之４","E_COORD97":166005.42000000001,"N_COORD97":2543999.96,"ADDRESS":"建平十二街１３４號四樓之４","OBJECTID":625737},"geometry":{"x":166005.42000000086,"y":2543999.9600000028}},{"attributes":{"ID":625765,"DIS_CODE":0,"TOWNNAME":"安平區","LI":"怡平里","LIN":"1鄰","STREET":"建平十七街","SECT":" ","MAREA":" ","LANE":" ","ALLEY":" ","HOUSE_NO":"１５７號七樓之２","E_COORD97":165787.04999999999,"N_COORD97":2544229.52,"ADDRESS":"建平十七街１５７號七樓之２","OBJECTID":625738},"geometry":{"x":165787.05000000168,"y":2544229.5199999996}},{"attributes":{"ID":625766,"DIS_CODE":0,"TOWNNAME":"東區","LI":"德光里","LIN":"4鄰","STREET":"崇德路","SECT":" ","MAREA":" ","LANE":" ","ALLEY":" ","HOUSE_NO":"６４號四樓","E_COORD97":169806.54999999999,"N_COORD97":2542365.3999999999,"ADDRESS":"崇德路６４號四樓","OBJECTID":625739},"geometry":{"x":169806.55000000075,"y":2542365.4000000022}},{"attributes":{"ID":625767,"DIS_CODE":0,"TOWNNAME":"安平區","LI":"建平里","LIN":"16鄰","STREET":"建平十二街","SECT":" ","MAREA":" ","LANE":" ","ALLEY":" ","HOUSE_NO":"９１號三樓之１","E_COORD97":166001.38,"N_COORD97":2543977.6699999999,"ADDRESS":"建平十二街９１號三樓之１","OBJECTID":625740},"geometry":{"x":166001.37999999989,"y":2543977.6699999999}},{"attributes":{"ID":625768,"DIS_CODE":0,"TOWNNAME":"歸仁區","LI":"許厝里","LIN":"20鄰","STREET":"仁愛北街","SECT":" ","MAREA":" ","LANE":" ","ALLEY":" ","HOUSE_NO":"７０號六樓","E_COORD97":178300.42999999999,"N_COORD97":2540875.25,"ADDRESS":"仁愛北街７０號六樓","OBJECTID":625741},"geometry":{"x":178300.43000000063,"y":2540875.25}},{"attributes":{"ID":625769,"DIS_CODE":0,"TOWNNAME":"歸仁區","LI":"辜厝里","LIN":"26鄰","STREET":"大順三街","SECT":" ","MAREA":" ","LANE":" ","ALLEY":" ","HOUSE_NO":"５號五樓之２","E_COORD97":177371.13,"N_COORD97":2540575.1600000001,"ADDRESS":"大順三街５號五樓之２","OBJECTID":625742},"geometry":{"x":177371.12999999989,"y":2540575.1599999983}},{"attributes":{"ID":625770,"DIS_CODE":0,"TOWNNAME":"歸仁區","LI":"辜厝里","LIN":"26鄰","STREET":"大順三街","SECT":" ","MAREA":" ","LANE":" ","ALLEY":" ","HOUSE_NO":"５號六樓之１","E_COORD97":177371.10999999999,"N_COORD97":2540575.1600000001,"ADDRESS":"大順三街５號六樓之１","OBJECTID":625743},"geometry":{"x":177371.11000000127,"y":2540575.1599999983}},{"attributes":{"ID":625771,"DIS_CODE":0,"TOWNNAME":"南區","LI":"開南里","LIN":"24鄰","STREET":"新建路","SECT":" ","MAREA":" ","LANE":" ","ALLEY":" ","HOUSE_NO":"４７號五樓之５","E_COORD97":166485.45000000001,"N_COORD97":2540860.4100000001,"ADDRESS":"新建路４７號五樓之５","OBJECTID":625744},"geometry":{"x":166485.45000000112,"y":2540860.4100000001}},{"attributes":{"ID":625772,"DIS_CODE":0,"TOWNNAME":"南區","LI":"開南里","LIN":"24鄰","STREET":"新建路","SECT":" ","MAREA":" ","LANE":" ","ALLEY":" ","HOUSE_NO":"４７號五樓之６","E_COORD97":166485.45000000001,"N_COORD97":2540860.4100000001,"ADDRESS":"新建路４７號五樓之６","OBJECTID":625745},"geometry":{"x":166485.45000000112,"y":2540860.4100000001}},{"attributes":{"ID":625773,"DIS_CODE":0,"TOWNNAME":"歸仁區","LI":"許厝里","LIN":"20鄰","STREET":"忠孝北路","SECT":" ","MAREA":" ","LANE":" ","ALLEY":" ","HOUSE_NO":"９３號六樓","E_COORD97":178330.42000000001,"N_COORD97":2540884.25,"ADDRESS":"忠孝北路９３號六樓","OBJECTID":625746},"geometry":{"x":178330.41999999993,"y":2540884.2500000019}},{"attributes":{"ID":625774,"DIS_CODE":0,"TOWNNAME":"歸仁區","LI":"後市里","LIN":"13鄰","STREET":"中山路","SECT":"二段","MAREA":" ","LANE":" ","ALLEY":" ","HOUSE_NO":"２２３號四樓","E_COORD97":177091.98999999999,"N_COORD97":2540825.25,"ADDRESS":"中山路二段２２３號四樓","OBJECTID":625747},"geometry":{"x":177091.99000000115,"y":2540825.2499999981}},{"attributes":{"ID":625775,"DIS_CODE":0,"TOWNNAME":"歸仁區","LI":"後市里","LIN":"13鄰","STREET":"中山路","SECT":"二段","MAREA":" ","LANE":" ","ALLEY":" ","HOUSE_NO":"２２３號一樓","E_COORD97":177091.98999999999,"N_COORD97":2540825.25,"ADDRESS":"中山路二段２２３號一樓","OBJECTID":625748},"geometry":{"x":177091.99000000115,"y":2540825.2499999981}},{"attributes":{"ID":625776,"DIS_CODE":0,"TOWNNAME":"歸仁區","LI":"許厝里","LIN":"17鄰","STREET":"忠孝北路","SECT":" ","MAREA":" ","LANE":" ","ALLEY":" ","HOUSE_NO":"１５號二樓","E_COORD97":178435.01999999999,"N_COORD97":2540716.25,"ADDRESS":"忠孝北路１５號二樓","OBJECTID":625749},"geometry":{"x":178435.02000000048,"y":2540716.25}},{"attributes":{"ID":625777,"DIS_CODE":0,"TOWNNAME":"歸仁區","LI":"許厝里","LIN":"17鄰","STREET":"忠孝北路","SECT":" ","MAREA":" ","LANE":" ","ALLEY":" ","HOUSE_NO":"２１號四樓","E_COORD97":178444.22,"N_COORD97":2540724.25,"ADDRESS":"忠孝北路２１號四樓","OBJECTID":625750},"geometry":{"x":178444.22000000067,"y":2540724.2500000019}},{"attributes":{"ID":625778,"DIS_CODE":0,"TOWNNAME":"歸仁區","LI":"後市里","LIN":"36鄰","STREET":"民族一街","SECT":" ","MAREA":" ","LANE":" ","ALLEY":" ","HOUSE_NO":"２１號四樓之３","E_COORD97":177300.17999999999,"N_COORD97":2541005.75,"ADDRESS":"民族一街２１號四樓之３","OBJECTID":625751},"geometry":{"x":177300.18000000063,"y":2541005.7500000019}},{"attributes":{"ID":625779,"DIS_CODE":0,"TOWNNAME":"歸仁區","LI":"許厝里","LIN":"20鄰","STREET":"忠孝北路","SECT":" ","MAREA":" ","LANE":" ","ALLEY":" ","HOUSE_NO":"９７號七樓","E_COORD97":178325.32000000001,"N_COORD97":2540891.25,"ADDRESS":"忠孝北路９７號七樓","OBJECTID":625752},"geometry":{"x":178325.32000000123,"y":2540891.2500000019}},{"attributes":{"ID":625780,"DIS_CODE":0,"TOWNNAME":"歸仁區","LI":"辜厝里","LIN":"26鄰","STREET":"大順三街","SECT":" ","MAREA":" ","LANE":" ","ALLEY":" ","HOUSE_NO":"５號五樓之１","E_COORD97":177371.10999999999,"N_COORD97":2540575.1600000001,"ADDRESS":"大順三街５號五樓之１","OBJECTID":625753},"geometry":{"x":177371.11000000127,"y":2540575.1599999983}},{"attributes":{"ID":625781,"DIS_CODE":0,"TOWNNAME":"歸仁區","LI":"南興里","LIN":"32鄰","STREET":"文化九街","SECT":" ","MAREA":" ","LANE":" ","ALLEY":" ","HOUSE_NO":"４７號二樓","E_COORD97":176358.32000000001,"N_COORD97":2541118.2599999998,"ADDRESS":"文化九街４７號二樓","OBJECTID":625754},"geometry":{"x":176358.3200000003,"y":2541118.2600000016}},{"attributes":{"ID":625782,"DIS_CODE":0,"TOWNNAME":"歸仁區","LI":"南興里","LIN":"32鄰","STREET":"文化九街","SECT":" ","MAREA":" ","LANE":" ","ALLEY":" ","HOUSE_NO":"４３號五樓","E_COORD97":176358.32000000001,"N_COORD97":2541118.2599999998,"ADDRESS":"文化九街４３號五樓","OBJECTID":625755},"geometry":{"x":176358.3200000003,"y":2541118.2600000016}},{"attributes":{"ID":625783,"DIS_CODE":0,"TOWNNAME":"歸仁區","LI":"辜厝里","LIN":"16鄰","STREET":"大順街","SECT":" ","MAREA":" ","LANE":" ","ALLEY":" ","HOUSE_NO":"１號八樓","E_COORD97":177457.42999999999,"N_COORD97":2540505.9500000002,"ADDRESS":"大順街１號八樓","OBJECTID":625756},"geometry":{"x":177457.43000000156,"y":2540505.9500000011}},{"attributes":{"ID":625784,"DIS_CODE":0,"TOWNNAME":"歸仁區","LI":"後市里","LIN":"36鄰","STREET":"民族一街","SECT":" ","MAREA":" ","LANE":" ","ALLEY":" ","HOUSE_NO":"２１號七樓之２","E_COORD97":177300.19,"N_COORD97":2541005.75,"ADDRESS":"民族一街２１號七樓之２","OBJECTID":625757},"geometry":{"x":177300.19000000041,"y":2541005.7500000019}},{"attributes":{"ID":625785,"DIS_CODE":0,"TOWNNAME":"歸仁區","LI":"許厝里","LIN":"20鄰","STREET":"忠孝北路","SECT":" ","MAREA":" ","LANE":" ","ALLEY":" ","HOUSE_NO":"９７號五樓","E_COORD97":178325.32000000001,"N_COORD97":2540891.25,"ADDRESS":"忠孝北路９７號五樓","OBJECTID":625758},"geometry":{"x":178325.32000000123,"y":2540891.2500000019}},{"attributes":{"ID":625786,"DIS_CODE":0,"TOWNNAME":"歸仁區","LI":"辜厝里","LIN":"25鄰","STREET":"大順街","SECT":" ","MAREA":" ","LANE":" ","ALLEY":" ","HOUSE_NO":"５９號六樓之１","E_COORD97":177374.31,"N_COORD97":2540596.1600000001,"ADDRESS":"大順街５９號六樓之１","OBJECTID":625759},"geometry":{"x":177374.30999999959,"y":2540596.160000002}},{"attributes":{"ID":625787,"DIS_CODE":0,"TOWNNAME":"歸仁區","LI":"辜厝里","LIN":"25鄰","STREET":"大順街","SECT":" ","MAREA":" ","LANE":" ","ALLEY":" ","HOUSE_NO":"５９號四樓之２","E_COORD97":177374.32999999999,"N_COORD97":2540596.1600000001,"ADDRESS":"大順街５９號四樓之２","OBJECTID":625760},"geometry":{"x":177374.33000000101,"y":2540596.160000002}},{"attributes":{"ID":625788,"DIS_CODE":0,"TOWNNAME":"東區","LI":"德光里","LIN":"4鄰","STREET":"崇德路","SECT":" ","MAREA":" ","LANE":" ","ALLEY":" ","HOUSE_NO":"６２號三樓","E_COORD97":169804.53,"N_COORD97":2542370.3700000001,"ADDRESS":"崇德路６２號三樓","OBJECTID":625761},"geometry":{"x":169804.53000000026,"y":2542370.370000001}},{"attributes":{"ID":625789,"DIS_CODE":0,"TOWNNAME":"北區","LI":"公園里","LIN":" ","STREET":"公園路","SECT":" ","MAREA":" ","LANE":" ","ALLEY":" ","HOUSE_NO":"１２８號五樓之４０","E_COORD97":168771.01999999999,"N_COORD97":2544380.0600000001,"ADDRESS":"公園路１２８號五樓之４０","OBJECTID":625762},"geometry":{"x":168771.02000000048,"y":2544380.0600000005}},{"attributes":{"ID":625790,"DIS_CODE":0,"TOWNNAME":"北區","LI":"公園里","LIN":" ","STREET":"富北街","SECT":" ","MAREA":" ","LANE":" ","ALLEY":" ","HOUSE_NO":"１８號八樓之１","E_COORD97":169171.5,"N_COORD97":2544328.7200000002,"ADDRESS":"富北街１８號八樓之１","OBJECTID":625763},"geometry":{"x":169171.50000000093,"y":2544328.7200000044}},{"attributes":{"ID":625791,"DIS_CODE":0,"TOWNNAME":"北區","LI":"公園里","LIN":" ","STREET":"富北街","SECT":" ","MAREA":" ","LANE":" ","ALLEY":" ","HOUSE_NO":"１８號八樓之２","E_COORD97":169171.5,"N_COORD97":2544328.7200000002,"ADDRESS":"富北街１８號八樓之２","OBJECTID":625764},"geometry":{"x":169171.50000000093,"y":2544328.7200000044}},{"attributes":{"ID":625792,"DIS_CODE":0,"TOWNNAME":"北區","LI":"公園里","LIN":" ","STREET":"富北街","SECT":" ","MAREA":" ","LANE":" ","ALLEY":" ","HOUSE_NO":"１８號八樓之３","E_COORD97":169171.5,"N_COORD97":2544328.7200000002,"ADDRESS":"富北街１８號八樓之３","OBJECTID":625765},"geometry":{"x":169171.50000000093,"y":2544328.7200000044}},{"attributes":{"ID":625793,"DIS_CODE":0,"TOWNNAME":"東區","LI":"德光里","LIN":"4鄰","STREET":"崇德路","SECT":" ","MAREA":" ","LANE":" ","ALLEY":" ","HOUSE_NO":"５８號五樓","E_COORD97":169801.97,"N_COORD97":2542374.7799999998,"ADDRESS":"崇德路５８號五樓","OBJECTID":625766},"geometry":{"x":169801.97000000067,"y":2542374.7800000012}},{"attributes":{"ID":625794,"DIS_CODE":0,"TOWNNAME":"北區","LI":"公園里","LIN":" ","STREET":"富北街","SECT":" ","MAREA":" ","LANE":" ","ALLEY":" ","HOUSE_NO":"１８號八樓之４","E_COORD97":169171.5,"N_COORD97":2544328.7200000002,"ADDRESS":"富北街１８號八樓之４","OBJECTID":625767},"geometry":{"x":169171.50000000093,"y":2544328.7200000044}},{"attributes":{"ID":625795,"DIS_CODE":0,"TOWNNAME":"北區","LI":"公園里","LIN":" ","STREET":"富北街","SECT":" ","MAREA":" ","LANE":" ","ALLEY":" ","HOUSE_NO":"１８號八樓之５","E_COORD97":169171.5,"N_COORD97":2544328.7200000002,"ADDRESS":"富北街１８號八樓之５","OBJECTID":625768},"geometry":{"x":169171.50000000093,"y":2544328.7200000044}},{"attributes":{"ID":625796,"DIS_CODE":0,"TOWNNAME":"北區","LI":"公園里","LIN":" ","STREET":"富北街","SECT":" ","MAREA":" ","LANE":" ","ALLEY":" ","HOUSE_NO":"１８號八樓之６","E_COORD97":169171.5,"N_COORD97":2544328.7200000002,"ADDRESS":"富北街１８號八樓之６","OBJECTID":625769},"geometry":{"x":169171.50000000093,"y":2544328.7200000044}},{"attributes":{"ID":625797,"DIS_CODE":0,"TOWNNAME":"北區","LI":"公園里","LIN":" ","STREET":"富北街","SECT":" ","MAREA":" ","LANE":" ","ALLEY":" ","HOUSE_NO":"１８號八樓之７","E_COORD97":169171.5,"N_COORD97":2544328.7200000002,"ADDRESS":"富北街１８號八樓之７","OBJECTID":625770},"geometry":{"x":169171.50000000093,"y":2544328.7200000044}},{"attributes":{"ID":625798,"DIS_CODE":0,"TOWNNAME":"北區","LI":"公園里","LIN":" ","STREET":"富北街","SECT":" ","MAREA":" ","LANE":" ","ALLEY":" ","HOUSE_NO":"１８號八樓之８","E_COORD97":169171.5,"N_COORD97":2544328.7200000002,"ADDRESS":"富北街１８號八樓之８","OBJECTID":625771},"geometry":{"x":169171.50000000093,"y":2544328.7200000044}},{"attributes":{"ID":625799,"DIS_CODE":0,"TOWNNAME":"北區","LI":"公園里","LIN":" ","STREET":"富北街","SECT":" ","MAREA":" ","LANE":" ","ALLEY":" ","HOUSE_NO":"１８號八樓之９","E_COORD97":169171.5,"N_COORD97":2544328.7200000002,"ADDRESS":"富北街１８號八樓之９","OBJECTID":625772},"geometry":{"x":169171.50000000093,"y":2544328.7200000044}},{"attributes":{"ID":625800,"DIS_CODE":0,"TOWNNAME":"歸仁區","LI":"南保里","LIN":"56鄰","STREET":"民權南路","SECT":" ","MAREA":" ","LANE":" ","ALLEY":" ","HOUSE_NO":"１６４號四樓之６","E_COORD97":176921.81,"N_COORD97":2540440.2599999998,"ADDRESS":"民權南路１６４號四樓之６","OBJECTID":625773},"geometry":{"x":176921.80999999959,"y":2540440.2600000016}},{"attributes":{"ID":625801,"DIS_CODE":0,"TOWNNAME":"北區","LI":"玉皇里","LIN":" ","STREET":"佑民街","SECT":" ","MAREA":" ","LANE":" ","ALLEY":" ","HOUSE_NO":"２７之１號二樓","E_COORD97":168570.95999999999,"N_COORD97":2544373.77,"ADDRESS":"佑民街２７之１號二樓","OBJECTID":625774},"geometry":{"x":168570.95999999996,"y":2544373.7699999996}},{"attributes":{"ID":625802,"DIS_CODE":0,"TOWNNAME":"北區","LI":"安民里","LIN":" ","STREET":"海成街","SECT":" ","MAREA":" ","LANE":" ","ALLEY":" ","HOUSE_NO":"４１號二樓之１","E_COORD97":167859.75,"N_COORD97":2544666.0099999998,"ADDRESS":"海成街４１號二樓之１","OBJECTID":625775},"geometry":{"x":167859.75000000093,"y":2544666.0100000016}},{"attributes":{"ID":625803,"DIS_CODE":0,"TOWNNAME":"北區","LI":"成功里","LIN":" ","STREET":"西門路","SECT":"四段","MAREA":" ","LANE":" ","ALLEY":" ","HOUSE_NO":"４５５號二樓之１","E_COORD97":169211.01999999999,"N_COORD97":2546487.04,"ADDRESS":"西門路四段４５５號二樓之１","OBJECTID":625776},"geometry":{"x":169211.01999999955,"y":2546487.0399999991}},{"attributes":{"ID":625804,"DIS_CODE":0,"TOWNNAME":"北區","LI":"成功里","LIN":" ","STREET":"北成路","SECT":" ","MAREA":" ","LANE":" ","ALLEY":" ","HOUSE_NO":"３９號二樓","E_COORD97":169098.54000000001,"N_COORD97":2546550.77,"ADDRESS":"北成路３９號二樓","OBJECTID":625777},"geometry":{"x":169098.54000000097,"y":2546550.7699999996}},{"attributes":{"ID":625805,"DIS_CODE":0,"TOWNNAME":"北區","LI":"興南里","LIN":" ","STREET":"公園北路","SECT":" ","MAREA":" ","LANE":" ","ALLEY":" ","HOUSE_NO":"１６３號六樓","E_COORD97":168957.48999999999,"N_COORD97":2545019.9700000002,"ADDRESS":"公園北路１６３號六樓","OBJECTID":625778},"geometry":{"x":168957.49000000022,"y":2545019.9700000025}},{"attributes":{"ID":625806,"DIS_CODE":0,"TOWNNAME":"北區","LI":"成德里","LIN":"26鄰","STREET":"育德一街","SECT":" ","MAREA":" ","LANE":" ","ALLEY":" ","HOUSE_NO":"９號七樓","E_COORD97":168450.25,"N_COORD97":2545806.6299999999,"ADDRESS":"育德一街９號七樓","OBJECTID":625779},"geometry":{"x":168450.25,"y":2545806.6300000008}},{"attributes":{"ID":625807,"DIS_CODE":0,"TOWNNAME":"北區","LI":"成德里","LIN":"26鄰","STREET":"育德一街","SECT":" ","MAREA":" ","LANE":" ","ALLEY":" ","HOUSE_NO":"９號八樓","E_COORD97":168450.25,"N_COORD97":2545806.6299999999,"ADDRESS":"育德一街９號八樓","OBJECTID":625780},"geometry":{"x":168450.25,"y":2545806.6300000008}},{"attributes":{"ID":625808,"DIS_CODE":0,"TOWNNAME":"北區","LI":"成德里","LIN":"26鄰","STREET":"育德一街","SECT":" ","MAREA":" ","LANE":" ","ALLEY":" ","HOUSE_NO":"９號九樓","E_COORD97":168450.25,"N_COORD97":2545806.6299999999,"ADDRESS":"育德一街９號九樓","OBJECTID":625781},"geometry":{"x":168450.25,"y":2545806.6300000008}},{"attributes":{"ID":625809,"DIS_CODE":0,"TOWNNAME":"北區","LI":"華興里","LIN":"1鄰","STREET":"開南街","SECT":" ","MAREA":" ","LANE":" ","ALLEY":" ","HOUSE_NO":"１號二樓","E_COORD97":170287.82999999999,"N_COORD97":2545393.9500000002,"ADDRESS":"開南街１號二樓","OBJECTID":625782},"geometry":{"x":170287.83000000194,"y":2545393.9500000011}},{"attributes":{"ID":625810,"DIS_CODE":0,"TOWNNAME":"北區","LI":"華興里","LIN":"1鄰","STREET":"開南街","SECT":" ","MAREA":" ","LANE":" ","ALLEY":" ","HOUSE_NO":"１號三樓","E_COORD97":170287.82999999999,"N_COORD97":2545393.9500000002,"ADDRESS":"開南街１號三樓","OBJECTID":625783},"geometry":{"x":170287.83000000194,"y":2545393.9500000011}},{"attributes":{"ID":625811,"DIS_CODE":0,"TOWNNAME":"北區","LI":"華興里","LIN":"1鄰","STREET":"開南街","SECT":" ","MAREA":" ","LANE":" ","ALLEY":" ","HOUSE_NO":"１５號三樓","E_COORD97":170310.26000000001,"N_COORD97":2545391.2999999998,"ADDRESS":"開南街１５號三樓","OBJECTID":625784},"geometry":{"x":170310.26000000071,"y":2545391.3000000007}},{"attributes":{"ID":625812,"DIS_CODE":0,"TOWNNAME":"北區","LI":"華興里","LIN":"1鄰","STREET":"開南街","SECT":" ","MAREA":" ","LANE":" ","ALLEY":" ","HOUSE_NO":"１５號四樓","E_COORD97":170310.26000000001,"N_COORD97":2545391.2999999998,"ADDRESS":"開南街１５號四樓","OBJECTID":625785},"geometry":{"x":170310.26000000071,"y":2545391.3000000007}},{"attributes":{"ID":625813,"DIS_CODE":0,"TOWNNAME":"北區","LI":"華興里","LIN":"1鄰","STREET":"開南街","SECT":" ","MAREA":" ","LANE":" ","ALLEY":" ","HOUSE_NO":"１５號五樓","E_COORD97":170310.26000000001,"N_COORD97":2545391.2999999998,"ADDRESS":"開南街１５號五樓","OBJECTID":625786},"geometry":{"x":170310.26000000071,"y":2545391.3000000007}},{"attributes":{"ID":625814,"DIS_CODE":0,"TOWNNAME":"北區","LI":"華興里","LIN":"1鄰","STREET":"開南街","SECT":" ","MAREA":" ","LANE":" ","ALLEY":" ","HOUSE_NO":"１７號二樓","E_COORD97":170305.41,"N_COORD97":2545388.7400000002,"ADDRESS":"開南街１７號二樓","OBJECTID":625787},"geometry":{"x":170305.41000000015,"y":2545388.7400000002}},{"attributes":{"ID":625815,"DIS_CODE":0,"TOWNNAME":"北區","LI":"華興里","LIN":"1鄰","STREET":"開南街","SECT":" ","MAREA":" ","LANE":" ","ALLEY":" ","HOUSE_NO":"１７號三樓","E_COORD97":170305.41,"N_COORD97":2545388.7400000002,"ADDRESS":"開南街１７號三樓","OBJECTID":625788},"geometry":{"x":170305.41000000015,"y":2545388.7400000002}},{"attributes":{"ID":625816,"DIS_CODE":0,"TOWNNAME":"東區","LI":"圍下里","LIN":" ","STREET":"慶東街","SECT":" ","MAREA":" ","LANE":" ","ALLEY":" ","HOUSE_NO":"１３３號二樓","E_COORD97":169657.29000000001,"N_COORD97":2543407.5099999998,"ADDRESS":"慶東街１３３號二樓","OBJECTID":625789},"geometry":{"x":169657.28999999911,"y":2543407.5100000016}},{"attributes":{"ID":625817,"DIS_CODE":0,"TOWNNAME":"新營區","LI":"民榮里","LIN":" ","STREET":"裕民路","SECT":" ","MAREA":" ","LANE":" ","ALLEY":" ","HOUSE_NO":"１４之２號三樓","E_COORD97":179130.32999999999,"N_COORD97":2577936.8199999998,"ADDRESS":"裕民路１４之２號三樓","OBJECTID":625790},"geometry":{"x":179130.33000000101,"y":2577936.8200000022}},{"attributes":{"ID":625818,"DIS_CODE":0,"TOWNNAME":"新營區","LI":"民榮里","LIN":" ","STREET":"裕民路","SECT":" ","MAREA":" ","LANE":" ","ALLEY":" ","HOUSE_NO":"１４之２號五樓","E_COORD97":179130.32999999999,"N_COORD97":2577936.8199999998,"ADDRESS":"裕民路１４之２號五樓","OBJECTID":625791},"geometry":{"x":179130.33000000101,"y":2577936.8200000022}},{"attributes":{"ID":625819,"DIS_CODE":0,"TOWNNAME":"新營區","LI":"民榮里","LIN":"24鄰","STREET":"裕民路","SECT":" ","MAREA":" ","LANE":" ","ALLEY":" ","HOUSE_NO":"１４號五樓","E_COORD97":179127.82999999999,"N_COORD97":2577936.7799999998,"ADDRESS":"裕民路１４號五樓","OBJECTID":625792},"geometry":{"x":179127.83000000007,"y":2577936.7800000012}},{"attributes":{"ID":625820,"DIS_CODE":0,"TOWNNAME":"新營區","LI":"民榮里","LIN":"24鄰","STREET":"裕民路","SECT":" ","MAREA":" ","LANE":" ","ALLEY":" ","HOUSE_NO":"１４之２號四樓之３","E_COORD97":179132.56,"N_COORD97":2577936.8199999998,"ADDRESS":"裕民路１４之２號四樓之３","OBJECTID":625793},"geometry":{"x":179132.55999999959,"y":2577936.8200000022}},{"attributes":{"ID":625821,"DIS_CODE":0,"TOWNNAME":"新營區","LI":"民榮里","LIN":"24鄰","STREET":"裕民路","SECT":" ","MAREA":" ","LANE":" ","ALLEY":" ","HOUSE_NO":"１４之２號六樓之４","E_COORD97":179132.48999999999,"N_COORD97":2577936.8199999998,"ADDRESS":"裕民路１４之２號六樓之４","OBJECTID":625794},"geometry":{"x":179132.49000000115,"y":2577936.8200000022}},{"attributes":{"ID":625822,"DIS_CODE":0,"TOWNNAME":"新營區","LI":"忠政里","LIN":" ","STREET":"中正路","SECT":" ","MAREA":" ","LANE":" ","ALLEY":" ","HOUSE_NO":"５３之２號二樓之３","E_COORD97":180069.70999999999,"N_COORD97":2579486.1200000001,"ADDRESS":"中正路５３之２號二樓之３","OBJECTID":625795},"geometry":{"x":180069.71000000183,"y":2579486.1200000029}},{"attributes":{"ID":625823,"DIS_CODE":0,"TOWNNAME":"新營區","LI":"民榮里","LIN":"24鄰","STREET":"裕民路","SECT":" ","MAREA":" ","LANE":" ","ALLEY":" ","HOUSE_NO":"１４之２號六樓之２","E_COORD97":179132.60000000001,"N_COORD97":2577936.8199999998,"ADDRESS":"裕民路１４之２號六樓之２","OBJECTID":625796},"geometry":{"x":179132.60000000149,"y":2577936.8200000022}},{"attributes":{"ID":625824,"DIS_CODE":0,"TOWNNAME":"新營區","LI":"民榮里","LIN":"24鄰","STREET":"裕民路","SECT":" ","MAREA":" ","LANE":" ","ALLEY":" ","HOUSE_NO":"１４之２號七樓之４","E_COORD97":179132.48999999999,"N_COORD97":2577936.8199999998,"ADDRESS":"裕民路１４之２號七樓之４","OBJECTID":625797},"geometry":{"x":179132.49000000115,"y":2577936.8200000022}},{"attributes":{"ID":625825,"DIS_CODE":0,"TOWNNAME":"新營區","LI":"民榮里","LIN":"24鄰","STREET":"裕民路","SECT":" ","MAREA":" ","LANE":" ","ALLEY":" ","HOUSE_NO":"１４之２號四樓之６","E_COORD97":179132.57000000001,"N_COORD97":2577936.8199999998,"ADDRESS":"裕民路１４之２號四樓之６","OBJECTID":625798},"geometry":{"x":179132.57000000123,"y":2577936.8200000022}},{"attributes":{"ID":625826,"DIS_CODE":0,"TOWNNAME":"新營區","LI":"民權里","LIN":"13鄰","STREET":"武昌街","SECT":" ","MAREA":" ","LANE":" ","ALLEY":" ","HOUSE_NO":"２２之１９號四樓","E_COORD97":179902.56,"N_COORD97":2578365.8999999999,"ADDRESS":"武昌街２２之１９號四樓","OBJECTID":625799},"geometry":{"x":179902.56000000145,"y":2578365.9000000004}},{"attributes":{"ID":625827,"DIS_CODE":0,"TOWNNAME":"新化區","LI":"太平里","LIN":"4鄰","STREET":"中正路","SECT":" ","MAREA":" ","LANE":" ","ALLEY":" ","HOUSE_NO":"５７８號十三樓之５","E_COORD97":178896.12,"N_COORD97":2549000.2599999998,"ADDRESS":"中正路５７８號十三樓之５","OBJECTID":625800},"geometry":{"x":178896.12000000104,"y":2549000.2600000016}}]}