{"displayFieldName":"TOWNNAME","fieldAliases":{"ID":"ID","DIS_CODE":"DIS_CODE","TOWNNAME":"TOWNNAME","LI":"LI","LIN":"LIN","STREET":"STREET","SECT":"SECT","MAREA":"MAREA","LANE":"LANE","ALLEY":"ALLEY","HOUSE_NO":"HOUSE_NO","E_COORD97":"E_COORD97","N_COORD97":"N_COORD97","ADDRESS":"ADDRESS","OBJECTID":"OBJECTID"},"geometryType":"esriGeometryPoint","spatialReference":{"wkid":102443,"latestWkid":3826},"fields":[{"name":"ID","type":"esriFieldTypeDouble","alias":"ID"},{"name":"DIS_CODE","type":"esriFieldTypeInteger","alias":"DIS_CODE"},{"name":"TOWNNAME","type":"esriFieldTypeString","alias":"TOWNNAME","length":8},{"name":"LI","type":"esriFieldTypeString","alias":"LI","length":8},{"name":"LIN","type":"esriFieldTypeString","alias":"LIN","length":12},{"name":"STREET","type":"esriFieldTypeString","alias":"STREET","length":20},{"name":"SECT","type":"esriFieldTypeString","alias":"SECT","length":8},{"name":"MAREA","type":"esriFieldTypeString","alias":"MAREA","length":12},{"name":"LANE","type":"esriFieldTypeString","alias":"LANE","length":10},{"name":"ALLEY","type":"esriFieldTypeString","alias":"ALLEY","length":10},{"name":"HOUSE_NO","type":"esriFieldTypeString","alias":"HOUSE_NO","length":20},{"name":"E_COORD97","type":"esriFieldTypeDouble","alias":"E_COORD97"},{"name":"N_COORD97","type":"esriFieldTypeDouble","alias":"N_COORD97"},{"name":"ADDRESS","type":"esriFieldTypeString","alias":"ADDRESS","length":50},{"name":"OBJECTID","type":"esriFieldTypeOID","alias":"OBJECTID"}],"features":[{"attributes":{"ID":407225,"DIS_CODE":0,"TOWNNAME":"新營區","LI":"新東里","LIN":"22鄰","STREET":"東明街","SECT":" ","MAREA":" ","LANE":"９６巷","ALLEY":" ","HOUSE_NO":"１４號","E_COORD97":180856.73000000001,"N_COORD97":2579832.29,"ADDRESS":"東明街９６巷１４號","OBJECTID":407201},"geometry":{"x":180856.73000000231,"y":2579832.2899999991}},{"attributes":{"ID":407226,"DIS_CODE":0,"TOWNNAME":"安平區","LI":"建平里","LIN":"22鄰","STREET":"建平九街","SECT":" ","MAREA":" ","LANE":"２２巷","ALLEY":" ","HOUSE_NO":"３號","E_COORD97":166140.98000000001,"N_COORD97":2543524.2999999998,"ADDRESS":"建平九街２２巷３號","OBJECTID":407202},"geometry":{"x":166140.98000000138,"y":2543524.3000000007}},{"attributes":{"ID":407227,"DIS_CODE":0,"TOWNNAME":"安平區","LI":"西門里","LIN":"14鄰","STREET":"古堡街","SECT":" ","MAREA":" ","LANE":"８１巷","ALLEY":" ","HOUSE_NO":"２號","E_COORD97":163971.60999999999,"N_COORD97":2544820.5099999998,"ADDRESS":"古堡街８１巷２號","OBJECTID":407203},"geometry":{"x":163971.6100000022,"y":2544820.5099999979}},{"attributes":{"ID":407228,"DIS_CODE":0,"TOWNNAME":"安平區","LI":"西門里","LIN":"14鄰","STREET":"古堡街","SECT":" ","MAREA":" ","LANE":"８１巷","ALLEY":" ","HOUSE_NO":"４號","E_COORD97":163959.89000000001,"N_COORD97":2544819,"ADDRESS":"古堡街８１巷４號","OBJECTID":407204},"geometry":{"x":163959.88999999966,"y":2544819.0000000019}},{"attributes":{"ID":407229,"DIS_CODE":0,"TOWNNAME":"新營區","LI":"南興里","LIN":"22鄰","STREET":"延平路","SECT":" ","MAREA":" ","LANE":"１４０巷","ALLEY":" ","HOUSE_NO":"３０之９號","E_COORD97":179634.07999999999,"N_COORD97":2577471.48,"ADDRESS":"延平路１４０巷３０之９號","OBJECTID":407205},"geometry":{"x":179634.08000000101,"y":2577471.4800000023}},{"attributes":{"ID":407230,"DIS_CODE":0,"TOWNNAME":"新營區","LI":"新南里","LIN":"22鄰","STREET":"復興路","SECT":" ","MAREA":" ","LANE":"６２０巷","ALLEY":" ","HOUSE_NO":"３６號之１","E_COORD97":178050.85999999999,"N_COORD97":2578444.79,"ADDRESS":"復興路６２０巷３６號之１","OBJECTID":407206},"geometry":{"x":178050.86000000127,"y":2578444.790000001}},{"attributes":{"ID":407231,"DIS_CODE":0,"TOWNNAME":"新營區","LI":"新南里","LIN":"22鄰","STREET":"復興路","SECT":" ","MAREA":" ","LANE":"６１８巷","ALLEY":" ","HOUSE_NO":"６號","E_COORD97":178086.07999999999,"N_COORD97":2578409.1099999999,"ADDRESS":"復興路６１８巷６號","OBJECTID":407207},"geometry":{"x":178086.08000000101,"y":2578409.1100000013}},{"attributes":{"ID":407232,"DIS_CODE":0,"TOWNNAME":"新營區","LI":"新南里","LIN":"22鄰","STREET":"復興路","SECT":" ","MAREA":" ","LANE":"６１８巷","ALLEY":" ","HOUSE_NO":"１６號","E_COORD97":178086.41,"N_COORD97":2578431.27,"ADDRESS":"復興路６１８巷１６號","OBJECTID":407208},"geometry":{"x":178086.41000000015,"y":2578431.2700000014}},{"attributes":{"ID":407233,"DIS_CODE":0,"TOWNNAME":"六甲區","LI":"六甲里","LIN":"22鄰","STREET":"中山路","SECT":" ","MAREA":" ","LANE":"３２巷","ALLEY":" ","HOUSE_NO":"２２號","E_COORD97":183583.38,"N_COORD97":2570095.3399999999,"ADDRESS":"中山路３２巷２２號","OBJECTID":407209},"geometry":{"x":183583.38000000082,"y":2570095.3400000017}},{"attributes":{"ID":407234,"DIS_CODE":0,"TOWNNAME":"六甲區","LI":"六甲里","LIN":"22鄰","STREET":"中正路","SECT":" ","MAREA":" ","LANE":"５４１巷","ALLEY":" ","HOUSE_NO":"１６號","E_COORD97":183600,"N_COORD97":2570066.75,"ADDRESS":"中正路５４１巷１６號","OBJECTID":407210},"geometry":{"x":183600,"y":2570066.75}},{"attributes":{"ID":407235,"DIS_CODE":0,"TOWNNAME":"六甲區","LI":"六甲里","LIN":"22鄰","STREET":"中正路","SECT":" ","MAREA":" ","LANE":"５４１巷","ALLEY":" ","HOUSE_NO":"８號","E_COORD97":183600,"N_COORD97":2570061.1499999999,"ADDRESS":"中正路５４１巷８號","OBJECTID":407211},"geometry":{"x":183600,"y":2570061.1500000004}},{"attributes":{"ID":407236,"DIS_CODE":0,"TOWNNAME":"六甲區","LI":"六甲里","LIN":"22鄰","STREET":"中正路","SECT":" ","MAREA":" ","LANE":"５７９巷","ALLEY":" ","HOUSE_NO":"１０號","E_COORD97":183605.59,"N_COORD97":2570095.6600000001,"ADDRESS":"中正路５７９巷１０號","OBJECTID":407212},"geometry":{"x":183605.59000000078,"y":2570095.660000002}},{"attributes":{"ID":407237,"DIS_CODE":0,"TOWNNAME":"六甲區","LI":"六甲里","LIN":"22鄰","STREET":"中正路","SECT":" ","MAREA":" ","LANE":"５７９巷","ALLEY":" ","HOUSE_NO":"１２號","E_COORD97":183605.17999999999,"N_COORD97":2570091.8300000001,"ADDRESS":"中正路５７９巷１２號","OBJECTID":407213},"geometry":{"x":183605.1799999997,"y":2570091.8300000019}},{"attributes":{"ID":407238,"DIS_CODE":0,"TOWNNAME":"六甲區","LI":"六甲里","LIN":"22鄰","STREET":"中正路","SECT":" ","MAREA":" ","LANE":"５７９巷","ALLEY":" ","HOUSE_NO":"１４號","E_COORD97":183604.67000000001,"N_COORD97":2570088.1600000001,"ADDRESS":"中正路５７９巷１４號","OBJECTID":407214},"geometry":{"x":183604.67000000086,"y":2570088.1600000001}},{"attributes":{"ID":407239,"DIS_CODE":0,"TOWNNAME":"六甲區","LI":"六甲里","LIN":"22鄰","STREET":"中正路","SECT":" ","MAREA":" ","LANE":"５７９巷","ALLEY":" ","HOUSE_NO":"２號","E_COORD97":183607.95999999999,"N_COORD97":2570112.5699999998,"ADDRESS":"中正路５７９巷２號","OBJECTID":407215},"geometry":{"x":183607.96000000089,"y":2570112.5700000003}},{"attributes":{"ID":407240,"DIS_CODE":0,"TOWNNAME":"六甲區","LI":"六甲里","LIN":"22鄰","STREET":"中正路","SECT":" ","MAREA":" ","LANE":"５７９巷","ALLEY":" ","HOUSE_NO":"４號","E_COORD97":183607.54000000001,"N_COORD97":2570108.1400000001,"ADDRESS":"中正路５７９巷４號","OBJECTID":407216},"geometry":{"x":183607.54000000097,"y":2570108.1400000006}},{"attributes":{"ID":407241,"DIS_CODE":0,"TOWNNAME":"六甲區","LI":"六甲里","LIN":"22鄰","STREET":"中正路","SECT":" ","MAREA":" ","LANE":"５７９巷","ALLEY":" ","HOUSE_NO":"６號","E_COORD97":183607.01000000001,"N_COORD97":2570103.7400000002,"ADDRESS":"中正路５７９巷６號","OBJECTID":407217},"geometry":{"x":183607.01000000164,"y":2570103.7400000002}},{"attributes":{"ID":407242,"DIS_CODE":0,"TOWNNAME":"六甲區","LI":"六甲里","LIN":"22鄰","STREET":"中正路","SECT":" ","MAREA":" ","LANE":"５７９巷","ALLEY":" ","HOUSE_NO":"８號","E_COORD97":183606.51000000001,"N_COORD97":2570099.9300000002,"ADDRESS":"中正路５７９巷８號","OBJECTID":407218},"geometry":{"x":183606.50999999978,"y":2570099.9300000034}},{"attributes":{"ID":407243,"DIS_CODE":0,"TOWNNAME":"新營區","LI":"南興里","LIN":"22鄰","STREET":"延平路","SECT":" ","MAREA":" ","LANE":"１４０巷","ALLEY":" ","HOUSE_NO":"３５之７號","E_COORD97":179578.48999999999,"N_COORD97":2577396.4500000002,"ADDRESS":"延平路１４０巷３５之７號","OBJECTID":407219},"geometry":{"x":179578.49000000115,"y":2577396.4500000011}},{"attributes":{"ID":407244,"DIS_CODE":0,"TOWNNAME":"新營區","LI":"新東里","LIN":"22鄰","STREET":"東明街","SECT":" ","MAREA":" ","LANE":"８０巷","ALLEY":" ","HOUSE_NO":"１４號","E_COORD97":180838.07000000001,"N_COORD97":2579779.2200000002,"ADDRESS":"東明街８０巷１４號","OBJECTID":407220},"geometry":{"x":180838.0700000003,"y":2579779.2200000025}},{"attributes":{"ID":407245,"DIS_CODE":0,"TOWNNAME":"新營區","LI":"新北里","LIN":"22鄰","STREET":"民生路","SECT":" ","MAREA":" ","LANE":"３５６巷","ALLEY":" ","HOUSE_NO":"７號","E_COORD97":178893.26999999999,"N_COORD97":2579285.6499999999,"ADDRESS":"民生路３５６巷７號","OBJECTID":407221},"geometry":{"x":178893.26999999955,"y":2579285.6500000004}},{"attributes":{"ID":407246,"DIS_CODE":0,"TOWNNAME":"新營區","LI":"新北里","LIN":"22鄰","STREET":"民生路","SECT":" ","MAREA":" ","LANE":"３５６巷","ALLEY":" ","HOUSE_NO":"２７號","E_COORD97":178960.04999999999,"N_COORD97":2579291.98,"ADDRESS":"民生路３５６巷２７號","OBJECTID":407222},"geometry":{"x":178960.04999999981,"y":2579291.9800000023}},{"attributes":{"ID":407247,"DIS_CODE":0,"TOWNNAME":"柳營區","LI":"東昇里","LIN":"22鄰","STREET":"中山西路","SECT":"一段","MAREA":" ","LANE":"２５５巷","ALLEY":" ","HOUSE_NO":"１號","E_COORD97":180293.10000000001,"N_COORD97":2575313.1200000001,"ADDRESS":"中山西路一段２５５巷１號","OBJECTID":407223},"geometry":{"x":180293.09999999963,"y":2575313.120000001}},{"attributes":{"ID":407248,"DIS_CODE":0,"TOWNNAME":"柳營區","LI":"東昇里","LIN":"22鄰","STREET":"中山西路","SECT":"一段","MAREA":" ","LANE":"２５５巷","ALLEY":" ","HOUSE_NO":"３號","E_COORD97":180293.16,"N_COORD97":2575309,"ADDRESS":"中山西路一段２５５巷３號","OBJECTID":407224},"geometry":{"x":180293.16000000015,"y":2575309}},{"attributes":{"ID":407249,"DIS_CODE":0,"TOWNNAME":"柳營區","LI":"東昇里","LIN":"22鄰","STREET":"中山西路","SECT":"一段","MAREA":" ","LANE":"２５５巷","ALLEY":" ","HOUSE_NO":"５號","E_COORD97":180293.23000000001,"N_COORD97":2575304.8799999999,"ADDRESS":"中山西路一段２５５巷５號","OBJECTID":407225},"geometry":{"x":180293.23000000045,"y":2575304.8800000008}},{"attributes":{"ID":407250,"DIS_CODE":0,"TOWNNAME":"柳營區","LI":"東昇里","LIN":"22鄰","STREET":"中山西路","SECT":"一段","MAREA":" ","LANE":"２５５巷","ALLEY":" ","HOUSE_NO":"７號","E_COORD97":180293.29000000001,"N_COORD97":2575300.75,"ADDRESS":"中山西路一段２５５巷７號","OBJECTID":407226},"geometry":{"x":180293.29000000097,"y":2575300.75}},{"attributes":{"ID":407251,"DIS_CODE":0,"TOWNNAME":"安南區","LI":"淵西里","LIN":"14鄰","STREET":"安中路","SECT":"四段","MAREA":" ","LANE":"３８１巷","ALLEY":" ","HOUSE_NO":"１２９號之１６","E_COORD97":163746.14999999999,"N_COORD97":2550073.6899999999,"ADDRESS":"安中路四段３８１巷１２９號之１６","OBJECTID":407227},"geometry":{"x":163746.1500000013,"y":2550073.6899999995}},{"attributes":{"ID":407252,"DIS_CODE":0,"TOWNNAME":"中西區","LI":"建國里","LIN":"16鄰","STREET":"民生路","SECT":"一段","MAREA":" ","LANE":"１３２巷","ALLEY":" ","HOUSE_NO":"２２號","E_COORD97":168099.42000000001,"N_COORD97":2543911.5499999998,"ADDRESS":"民生路一段１３２巷２２號","OBJECTID":407228},"geometry":{"x":168099.41999999993,"y":2543911.5500000007}},{"attributes":{"ID":407253,"DIS_CODE":0,"TOWNNAME":"南區","LI":"文南里","LIN":"22鄰","STREET":"中華西路","SECT":"一段","MAREA":" ","LANE":"１０９巷","ALLEY":" ","HOUSE_NO":"２４號","E_COORD97":166355.60999999999,"N_COORD97":2542447.4500000002,"ADDRESS":"中華西路一段１０９巷２４號","OBJECTID":407229},"geometry":{"x":166355.61000000127,"y":2542447.450000003}},{"attributes":{"ID":407254,"DIS_CODE":0,"TOWNNAME":"南區","LI":"文南里","LIN":"22鄰","STREET":"中華西路","SECT":"一段","MAREA":" ","LANE":"１３７巷","ALLEY":" ","HOUSE_NO":"３７號","E_COORD97":166365.48999999999,"N_COORD97":2542477.3900000001,"ADDRESS":"中華西路一段１３７巷３７號","OBJECTID":407230},"geometry":{"x":166365.49000000022,"y":2542477.3900000025}},{"attributes":{"ID":407255,"DIS_CODE":0,"TOWNNAME":"南區","LI":"府南里","LIN":"22鄰","STREET":"大成路","SECT":"二段","MAREA":" ","LANE":"１４３巷","ALLEY":" ","HOUSE_NO":"８號","E_COORD97":167292.12,"N_COORD97":2541650.4900000002,"ADDRESS":"大成路二段１４３巷８號","OBJECTID":407231},"geometry":{"x":167292.12000000197,"y":2541650.4900000002}},{"attributes":{"ID":407256,"DIS_CODE":0,"TOWNNAME":"南區","LI":"府南里","LIN":"22鄰","STREET":"大成路","SECT":"二段","MAREA":" ","LANE":"１４３巷","ALLEY":" ","HOUSE_NO":"１２號","E_COORD97":167289.57000000001,"N_COORD97":2541642.2799999998,"ADDRESS":"大成路二段１４３巷１２號","OBJECTID":407232},"geometry":{"x":167289.57000000123,"y":2541642.2800000012}},{"attributes":{"ID":407257,"DIS_CODE":0,"TOWNNAME":"南區","LI":"府南里","LIN":"22鄰","STREET":"大成路","SECT":"二段","MAREA":" ","LANE":"１４３巷","ALLEY":" ","HOUSE_NO":"１０號","E_COORD97":167291.76000000001,"N_COORD97":2541647.29,"ADDRESS":"大成路二段１４３巷１０號","OBJECTID":407233},"geometry":{"x":167291.75999999978,"y":2541647.2899999991}},{"attributes":{"ID":407258,"DIS_CODE":0,"TOWNNAME":"南區","LI":"府南里","LIN":"22鄰","STREET":"大成路","SECT":"二段","MAREA":" ","LANE":"１４３巷","ALLEY":" ","HOUSE_NO":"１４號","E_COORD97":167288.38,"N_COORD97":2541637.8599999999,"ADDRESS":"大成路二段１４３巷１４號","OBJECTID":407234},"geometry":{"x":167288.38000000175,"y":2541637.8600000031}},{"attributes":{"ID":407259,"DIS_CODE":0,"TOWNNAME":"歸仁區","LI":"大廟里","LIN":"22鄰","STREET":"大廟一街","SECT":" ","MAREA":" ","LANE":"３８巷","ALLEY":" ","HOUSE_NO":"１號","E_COORD97":175807.57000000001,"N_COORD97":2544054.25,"ADDRESS":"大廟一街３８巷１號","OBJECTID":407235},"geometry":{"x":175807.57000000216,"y":2544054.2500000019}},{"attributes":{"ID":407260,"DIS_CODE":0,"TOWNNAME":"南區","LI":"府南里","LIN":"22鄰","STREET":"大成路","SECT":"二段","MAREA":" ","LANE":"１４３巷","ALLEY":" ","HOUSE_NO":"１６號","E_COORD97":167287.10000000001,"N_COORD97":2541633.48,"ADDRESS":"大成路二段１４３巷１６號","OBJECTID":407236},"geometry":{"x":167287.10000000056,"y":2541633.4800000004}},{"attributes":{"ID":407261,"DIS_CODE":0,"TOWNNAME":"南區","LI":"府南里","LIN":"22鄰","STREET":"大成路","SECT":"二段","MAREA":" ","LANE":"１４３巷","ALLEY":" ","HOUSE_NO":"１８號","E_COORD97":167285.82000000001,"N_COORD97":2541629.1000000001,"ADDRESS":"大成路二段１４３巷１８號","OBJECTID":407237},"geometry":{"x":167285.82000000216,"y":2541629.0999999996}},{"attributes":{"ID":407262,"DIS_CODE":0,"TOWNNAME":"南區","LI":"府南里","LIN":"22鄰","STREET":"大成路","SECT":"二段","MAREA":" ","LANE":"１４３巷","ALLEY":" ","HOUSE_NO":"２０號","E_COORD97":167284.54000000001,"N_COORD97":2541624.6299999999,"ADDRESS":"大成路二段１４３巷２０號","OBJECTID":407238},"geometry":{"x":167284.54000000097,"y":2541624.629999999}},{"attributes":{"ID":407263,"DIS_CODE":0,"TOWNNAME":"南區","LI":"府南里","LIN":"22鄰","STREET":"大成路","SECT":"二段","MAREA":" ","LANE":"１４３巷","ALLEY":" ","HOUSE_NO":"２２號","E_COORD97":167282.54000000001,"N_COORD97":2541620.2599999998,"ADDRESS":"大成路二段１４３巷２２號","OBJECTID":407239},"geometry":{"x":167282.5400000019,"y":2541620.2599999998}},{"attributes":{"ID":407264,"DIS_CODE":0,"TOWNNAME":"南區","LI":"府南里","LIN":"22鄰","STREET":"大成路","SECT":"二段","MAREA":" ","LANE":"１４３巷","ALLEY":" ","HOUSE_NO":"２４號","E_COORD97":167280.89000000001,"N_COORD97":2541616.0600000001,"ADDRESS":"大成路二段１４３巷２４號","OBJECTID":407240},"geometry":{"x":167280.88999999966,"y":2541616.0600000005}},{"attributes":{"ID":407265,"DIS_CODE":0,"TOWNNAME":"南區","LI":"府南里","LIN":"22鄰","STREET":"大成路","SECT":"二段","MAREA":" ","LANE":"１４３巷","ALLEY":" ","HOUSE_NO":"２６號","E_COORD97":167279.42000000001,"N_COORD97":2541612.0800000001,"ADDRESS":"大成路二段１４３巷２６號","OBJECTID":407241},"geometry":{"x":167279.41999999993,"y":2541612.0800000001}},{"attributes":{"ID":407266,"DIS_CODE":0,"TOWNNAME":"南區","LI":"府南里","LIN":"22鄰","STREET":"大成路","SECT":"二段","MAREA":" ","LANE":"１４３巷","ALLEY":" ","HOUSE_NO":"２８號","E_COORD97":167278.42000000001,"N_COORD97":2541607.8900000001,"ADDRESS":"大成路二段１４３巷２８號","OBJECTID":407242},"geometry":{"x":167278.42000000086,"y":2541607.8900000006}},{"attributes":{"ID":407267,"DIS_CODE":0,"TOWNNAME":"南區","LI":"府南里","LIN":"22鄰","STREET":"大成路","SECT":"二段","MAREA":" ","LANE":"１４３巷","ALLEY":" ","HOUSE_NO":"２號","E_COORD97":167304.20999999999,"N_COORD97":2541703.4399999999,"ADDRESS":"大成路二段１４３巷２號","OBJECTID":407243},"geometry":{"x":167304.20999999996,"y":2541703.4399999995}},{"attributes":{"ID":407268,"DIS_CODE":0,"TOWNNAME":"南區","LI":"府南里","LIN":"22鄰","STREET":"大成路","SECT":"二段","MAREA":" ","LANE":"１４３巷","ALLEY":" ","HOUSE_NO":"３０號","E_COORD97":167276.87,"N_COORD97":2541603.8799999999,"ADDRESS":"大成路二段１４３巷３０號","OBJECTID":407244},"geometry":{"x":167276.87000000197,"y":2541603.8800000008}},{"attributes":{"ID":407269,"DIS_CODE":0,"TOWNNAME":"南區","LI":"府南里","LIN":"22鄰","STREET":"大成路","SECT":"二段","MAREA":" ","LANE":"１４３巷","ALLEY":" ","HOUSE_NO":"３２號","E_COORD97":167275.31,"N_COORD97":2541599.5899999999,"ADDRESS":"大成路二段１４３巷３２號","OBJECTID":407245},"geometry":{"x":167275.31000000052,"y":2541599.5900000036}},{"attributes":{"ID":407270,"DIS_CODE":0,"TOWNNAME":"南區","LI":"府南里","LIN":"22鄰","STREET":"大成路","SECT":"二段","MAREA":" ","LANE":"１４３巷","ALLEY":" ","HOUSE_NO":"３４號","E_COORD97":167274.13,"N_COORD97":2541596.3999999999,"ADDRESS":"大成路二段１４３巷３４號","OBJECTID":407246},"geometry":{"x":167274.12999999989,"y":2541596.4000000004}},{"attributes":{"ID":407271,"DIS_CODE":0,"TOWNNAME":"南區","LI":"府南里","LIN":"22鄰","STREET":"大成路","SECT":"二段","MAREA":" ","LANE":"１４３巷","ALLEY":" ","HOUSE_NO":"３６號","E_COORD97":167269.92999999999,"N_COORD97":2541582.1699999999,"ADDRESS":"大成路二段１４３巷３６號","OBJECTID":407247},"geometry":{"x":167269.93000000063,"y":2541582.1700000037}},{"attributes":{"ID":407272,"DIS_CODE":0,"TOWNNAME":"南區","LI":"府南里","LIN":"22鄰","STREET":"大成路","SECT":"二段","MAREA":" ","LANE":"１４３巷","ALLEY":" ","HOUSE_NO":"３８號","E_COORD97":167265.82000000001,"N_COORD97":2541583.7200000002,"ADDRESS":"大成路二段１４３巷３８號","OBJECTID":407248},"geometry":{"x":167265.82000000123,"y":2541583.7200000025}},{"attributes":{"ID":407273,"DIS_CODE":0,"TOWNNAME":"南區","LI":"府南里","LIN":"22鄰","STREET":"大成路","SECT":"二段","MAREA":" ","LANE":"１４３巷","ALLEY":" ","HOUSE_NO":"４０號","E_COORD97":167262.07999999999,"N_COORD97":2541585,"ADDRESS":"大成路二段１４３巷４０號","OBJECTID":407249},"geometry":{"x":167262.08000000101,"y":2541585}},{"attributes":{"ID":407274,"DIS_CODE":0,"TOWNNAME":"南區","LI":"府南里","LIN":"22鄰","STREET":"大成路","SECT":"二段","MAREA":" ","LANE":"１４３巷","ALLEY":" ","HOUSE_NO":"４２號","E_COORD97":167258.70000000001,"N_COORD97":2541586.3599999999,"ADDRESS":"大成路二段１４３巷４２號","OBJECTID":407250},"geometry":{"x":167258.70000000019,"y":2541586.3599999994}},{"attributes":{"ID":407275,"DIS_CODE":0,"TOWNNAME":"南區","LI":"府南里","LIN":"22鄰","STREET":"大成路","SECT":"二段","MAREA":" ","LANE":"１４３巷","ALLEY":" ","HOUSE_NO":"４號","E_COORD97":167303.67000000001,"N_COORD97":2541698.1000000001,"ADDRESS":"大成路二段１４３巷４號","OBJECTID":407251},"geometry":{"x":167303.67000000086,"y":2541698.1000000015}},{"attributes":{"ID":407276,"DIS_CODE":0,"TOWNNAME":"南區","LI":"府南里","LIN":"22鄰","STREET":"大成路","SECT":"二段","MAREA":" ","LANE":"１４３巷","ALLEY":" ","HOUSE_NO":"５０號","E_COORD97":167249.01999999999,"N_COORD97":2541590.7400000002,"ADDRESS":"大成路二段１４３巷５０號","OBJECTID":407252},"geometry":{"x":167249.01999999955,"y":2541590.7400000002}},{"attributes":{"ID":407277,"DIS_CODE":0,"TOWNNAME":"南區","LI":"府南里","LIN":"22鄰","STREET":"大成路","SECT":"二段","MAREA":" ","LANE":"１４３巷","ALLEY":" ","HOUSE_NO":"５２號","E_COORD97":167245.01000000001,"N_COORD97":2541594.3900000001,"ADDRESS":"大成路二段１４３巷５２號","OBJECTID":407253},"geometry":{"x":167245.01000000164,"y":2541594.3900000006}},{"attributes":{"ID":407278,"DIS_CODE":0,"TOWNNAME":"南區","LI":"文南里","LIN":"22鄰","STREET":"中華西路","SECT":"一段","MAREA":" ","LANE":"１０９巷","ALLEY":" ","HOUSE_NO":"３２號","E_COORD97":166337.81,"N_COORD97":2542451,"ADDRESS":"中華西路一段１０９巷３２號","OBJECTID":407254},"geometry":{"x":166337.81000000052,"y":2542451.0000000037}},{"attributes":{"ID":407279,"DIS_CODE":0,"TOWNNAME":"南區","LI":"文南里","LIN":"22鄰","STREET":"中華西路","SECT":"一段","MAREA":" ","LANE":"１０９巷","ALLEY":" ","HOUSE_NO":"３４號","E_COORD97":166333.28,"N_COORD97":2542451.6299999999,"ADDRESS":"中華西路一段１０９巷３４號","OBJECTID":407255},"geometry":{"x":166333.27999999933,"y":2542451.629999999}},{"attributes":{"ID":407280,"DIS_CODE":0,"TOWNNAME":"南區","LI":"文南里","LIN":"22鄰","STREET":"中華西路","SECT":"一段","MAREA":" ","LANE":"１０９巷","ALLEY":" ","HOUSE_NO":"３６號","E_COORD97":166328.64000000001,"N_COORD97":2542452.4300000002,"ADDRESS":"中華西路一段１０９巷３６號","OBJECTID":407256},"geometry":{"x":166328.64000000153,"y":2542452.4300000016}},{"attributes":{"ID":407281,"DIS_CODE":0,"TOWNNAME":"南區","LI":"建南里","LIN":"22鄰","STREET":"中華南路","SECT":"二段","MAREA":" ","LANE":"５３巷","ALLEY":" ","HOUSE_NO":"２５號","E_COORD97":167377.06,"N_COORD97":2540202.46,"ADDRESS":"中華南路二段５３巷２５號","OBJECTID":407257},"geometry":{"x":167377.06000000052,"y":2540202.4600000028}},{"attributes":{"ID":407282,"DIS_CODE":0,"TOWNNAME":"南區","LI":"建南里","LIN":"22鄰","STREET":"中華南路","SECT":"二段","MAREA":" ","LANE":"５３巷","ALLEY":" ","HOUSE_NO":"２７號","E_COORD97":167377.06,"N_COORD97":2540198.4399999999,"ADDRESS":"中華南路二段５３巷２７號","OBJECTID":407258},"geometry":{"x":167377.06000000052,"y":2540198.4399999995}},{"attributes":{"ID":407283,"DIS_CODE":0,"TOWNNAME":"南區","LI":"建南里","LIN":"22鄰","STREET":"中華南路","SECT":"二段","MAREA":" ","LANE":"５３巷","ALLEY":" ","HOUSE_NO":"２９號","E_COORD97":167376.13,"N_COORD97":2540194.1099999999,"ADDRESS":"中華南路二段５３巷２９號","OBJECTID":407259},"geometry":{"x":167376.12999999989,"y":2540194.1099999994}},{"attributes":{"ID":407284,"DIS_CODE":0,"TOWNNAME":"南區","LI":"建南里","LIN":"22鄰","STREET":"中華南路","SECT":"二段","MAREA":" ","LANE":"５３巷","ALLEY":" ","HOUSE_NO":"３１號","E_COORD97":167376.63,"N_COORD97":2540190.2599999998,"ADDRESS":"中華南路二段５３巷３１號","OBJECTID":407260},"geometry":{"x":167376.63000000175,"y":2540190.2599999998}},{"attributes":{"ID":407285,"DIS_CODE":0,"TOWNNAME":"南區","LI":"建南里","LIN":"22鄰","STREET":"中華南路","SECT":"二段","MAREA":" ","LANE":"５３巷","ALLEY":" ","HOUSE_NO":"３３號","E_COORD97":167376.41,"N_COORD97":2540187.2400000002,"ADDRESS":"中華南路二段５３巷３３號","OBJECTID":407261},"geometry":{"x":167376.41000000015,"y":2540187.2400000002}},{"attributes":{"ID":407286,"DIS_CODE":0,"TOWNNAME":"南區","LI":"建南里","LIN":"22鄰","STREET":"中華南路","SECT":"二段","MAREA":" ","LANE":"５３巷","ALLEY":" ","HOUSE_NO":"３５號","E_COORD97":167376.63,"N_COORD97":2540183.1600000001,"ADDRESS":"中華南路二段５３巷３５號","OBJECTID":407262},"geometry":{"x":167376.63000000175,"y":2540183.160000002}},{"attributes":{"ID":407287,"DIS_CODE":0,"TOWNNAME":"南區","LI":"建南里","LIN":"22鄰","STREET":"中華南路","SECT":"二段","MAREA":" ","LANE":"５３巷","ALLEY":" ","HOUSE_NO":"３９號","E_COORD97":167376.63,"N_COORD97":2540174.98,"ADDRESS":"中華南路二段５３巷３９號","OBJECTID":407263},"geometry":{"x":167376.63000000175,"y":2540174.9800000023}},{"attributes":{"ID":407288,"DIS_CODE":0,"TOWNNAME":"南區","LI":"建南里","LIN":"22鄰","STREET":"中華南路","SECT":"二段","MAREA":" ","LANE":"５３巷","ALLEY":" ","HOUSE_NO":"４１號","E_COORD97":167376.19,"N_COORD97":2540171.5299999998,"ADDRESS":"中華南路二段５３巷４１號","OBJECTID":407264},"geometry":{"x":167376.19000000041,"y":2540171.5299999993}},{"attributes":{"ID":407289,"DIS_CODE":0,"TOWNNAME":"南區","LI":"建南里","LIN":"22鄰","STREET":"中華南路","SECT":"二段","MAREA":" ","LANE":"５３巷","ALLEY":" ","HOUSE_NO":"４３號","E_COORD97":167376.19,"N_COORD97":2540167.0099999998,"ADDRESS":"中華南路二段５３巷４３號","OBJECTID":407265},"geometry":{"x":167376.19000000041,"y":2540167.0100000016}},{"attributes":{"ID":407290,"DIS_CODE":0,"TOWNNAME":"南區","LI":"建南里","LIN":"22鄰","STREET":"中華南路","SECT":"二段","MAREA":" ","LANE":"５３巷","ALLEY":" ","HOUSE_NO":"３７號","E_COORD97":167375.98000000001,"N_COORD97":2540179.2799999998,"ADDRESS":"中華南路二段５３巷３７號","OBJECTID":407266},"geometry":{"x":167375.98000000045,"y":2540179.2799999993}},{"attributes":{"ID":407291,"DIS_CODE":0,"TOWNNAME":"歸仁區","LI":"崙頂里","LIN":"22鄰","STREET":"崙頂二街","SECT":" ","MAREA":" ","LANE":"５０巷","ALLEY":" ","HOUSE_NO":"７號","E_COORD97":177733.89000000001,"N_COORD97":2540051.48,"ADDRESS":"崙頂二街５０巷７號","OBJECTID":407267},"geometry":{"x":177733.89000000153,"y":2540051.4800000042}},{"attributes":{"ID":407292,"DIS_CODE":0,"TOWNNAME":"歸仁區","LI":"崙頂里","LIN":"22鄰","STREET":"崙頂二街","SECT":" ","MAREA":" ","LANE":"５０巷","ALLEY":" ","HOUSE_NO":"３１號","E_COORD97":177720.73999999999,"N_COORD97":2540046.48,"ADDRESS":"崙頂二街５０巷３１號","OBJECTID":407268},"geometry":{"x":177720.74000000115,"y":2540046.4800000004}},{"attributes":{"ID":407293,"DIS_CODE":0,"TOWNNAME":"歸仁區","LI":"崙頂里","LIN":"22鄰","STREET":"崙頂二街","SECT":" ","MAREA":" ","LANE":"５０巷","ALLEY":" ","HOUSE_NO":"８９號","E_COORD97":177688.84,"N_COORD97":2540020.48,"ADDRESS":"崙頂二街５０巷８９號","OBJECTID":407269},"geometry":{"x":177688.84000000078,"y":2540020.4800000004}},{"attributes":{"ID":407294,"DIS_CODE":0,"TOWNNAME":"歸仁區","LI":"崙頂里","LIN":"22鄰","STREET":"崙頂二街","SECT":" ","MAREA":" ","LANE":"５０巷","ALLEY":" ","HOUSE_NO":"８３號","E_COORD97":177700.14000000001,"N_COORD97":2540029.48,"ADDRESS":"崙頂二街５０巷８３號","OBJECTID":407270},"geometry":{"x":177700.1400000006,"y":2540029.4800000004}},{"attributes":{"ID":407295,"DIS_CODE":0,"TOWNNAME":"歸仁區","LI":"歸仁里","LIN":"22鄰","STREET":"文化二街","SECT":" ","MAREA":" ","LANE":"２６巷","ALLEY":" ","HOUSE_NO":"１０號","E_COORD97":178022.39999999999,"N_COORD97":2541209.2599999998,"ADDRESS":"文化二街２６巷１０號","OBJECTID":407271},"geometry":{"x":178022.40000000037,"y":2541209.2600000016}},{"attributes":{"ID":407296,"DIS_CODE":0,"TOWNNAME":"歸仁區","LI":"歸南里","LIN":"22鄰","STREET":"民生八街","SECT":" ","MAREA":" ","LANE":"２８巷","ALLEY":" ","HOUSE_NO":"２５號","E_COORD97":176111.16,"N_COORD97":2540434.25,"ADDRESS":"民生八街２８巷２５號","OBJECTID":407272},"geometry":{"x":176111.16000000015,"y":2540434.25}},{"attributes":{"ID":407297,"DIS_CODE":0,"TOWNNAME":"歸仁區","LI":"崙頂里","LIN":"22鄰","STREET":"崙頂二街","SECT":" ","MAREA":" ","LANE":"５０巷","ALLEY":" ","HOUSE_NO":"３３號","E_COORD97":177722.84,"N_COORD97":2540043.48,"ADDRESS":"崙頂二街５０巷３３號","OBJECTID":407273},"geometry":{"x":177722.84000000078,"y":2540043.4800000004}},{"attributes":{"ID":407298,"DIS_CODE":0,"TOWNNAME":"歸仁區","LI":"崙頂里","LIN":"22鄰","STREET":"崙頂二街","SECT":" ","MAREA":" ","LANE":"５０巷","ALLEY":" ","HOUSE_NO":"５９號","E_COORD97":177714.34,"N_COORD97":2539998.48,"ADDRESS":"崙頂二街５０巷５９號","OBJECTID":407274},"geometry":{"x":177714.34000000078,"y":2539998.4800000023}},{"attributes":{"ID":407299,"DIS_CODE":0,"TOWNNAME":"歸仁區","LI":"崙頂里","LIN":"22鄰","STREET":"崙頂二街","SECT":" ","MAREA":" ","LANE":"５０巷","ALLEY":" ","HOUSE_NO":"６５號","E_COORD97":177703.04000000001,"N_COORD97":2539991.48,"ADDRESS":"崙頂二街５０巷６５號","OBJECTID":407275},"geometry":{"x":177703.04000000097,"y":2539991.4800000023}},{"attributes":{"ID":407300,"DIS_CODE":0,"TOWNNAME":"歸仁區","LI":"崙頂里","LIN":"22鄰","STREET":"崙頂二街","SECT":" ","MAREA":" ","LANE":"５０巷","ALLEY":" ","HOUSE_NO":"８７號","E_COORD97":177694.04000000001,"N_COORD97":2540023.48,"ADDRESS":"崙頂二街５０巷８７號","OBJECTID":407276},"geometry":{"x":177694.04000000004,"y":2540023.4800000004}},{"attributes":{"ID":407301,"DIS_CODE":0,"TOWNNAME":"歸仁區","LI":"南保里","LIN":"22鄰","STREET":"文化街","SECT":"三段","MAREA":" ","LANE":"６１巷","ALLEY":" ","HOUSE_NO":"２５號","E_COORD97":176907.62,"N_COORD97":2541155.2599999998,"ADDRESS":"文化街三段６１巷２５號","OBJECTID":407277},"geometry":{"x":176907.62000000104,"y":2541155.2600000016}},{"attributes":{"ID":407302,"DIS_CODE":0,"TOWNNAME":"歸仁區","LI":"南保里","LIN":"22鄰","STREET":"民權六街","SECT":" ","MAREA":" ","LANE":"５２巷","ALLEY":" ","HOUSE_NO":"１１號","E_COORD97":176846.85999999999,"N_COORD97":2541158.25,"ADDRESS":"民權六街５２巷１１號","OBJECTID":407278},"geometry":{"x":176846.86000000127,"y":2541158.2500000019}},{"attributes":{"ID":407303,"DIS_CODE":0,"TOWNNAME":"玉井區","LI":"玉田里","LIN":"22鄰","STREET":"中華路","SECT":" ","MAREA":" ","LANE":"８２巷","ALLEY":" ","HOUSE_NO":"４之２號","E_COORD97":194962.70999999999,"N_COORD97":2557993.29,"ADDRESS":"中華路８２巷４之２號","OBJECTID":407279},"geometry":{"x":194962.71000000089,"y":2557993.2900000028}},{"attributes":{"ID":407304,"DIS_CODE":0,"TOWNNAME":"玉井區","LI":"玉田里","LIN":"22鄰","STREET":"中華路","SECT":" ","MAREA":" ","LANE":"８２巷","ALLEY":" ","HOUSE_NO":"３號","E_COORD97":194969.60000000001,"N_COORD97":2558007.25,"ADDRESS":"中華路８２巷３號","OBJECTID":407280},"geometry":{"x":194969.60000000056,"y":2558007.25}},{"attributes":{"ID":407305,"DIS_CODE":0,"TOWNNAME":"歸仁區","LI":"新厝里","LIN":"22鄰","STREET":"大成六街","SECT":" ","MAREA":" ","LANE":"３３巷","ALLEY":" ","HOUSE_NO":"１０號","E_COORD97":177601.19,"N_COORD97":2540255.1800000002,"ADDRESS":"大成六街３３巷１０號","OBJECTID":407281},"geometry":{"x":177601.19000000134,"y":2540255.1799999997}},{"attributes":{"ID":407306,"DIS_CODE":0,"TOWNNAME":"歸仁區","LI":"新厝里","LIN":"22鄰","STREET":"大成六街","SECT":" ","MAREA":" ","LANE":"３３巷","ALLEY":" ","HOUSE_NO":"８號","E_COORD97":177598.84,"N_COORD97":2540258.1800000002,"ADDRESS":"大成六街３３巷８號","OBJECTID":407282},"geometry":{"x":177598.84000000171,"y":2540258.1799999997}},{"attributes":{"ID":407307,"DIS_CODE":0,"TOWNNAME":"歸仁區","LI":"媽廟里","LIN":"22鄰","STREET":"中正北路","SECT":"三段","MAREA":" ","LANE":"１８８巷","ALLEY":" ","HOUSE_NO":"７號","E_COORD97":177664.35999999999,"N_COORD97":2543965.7200000002,"ADDRESS":"中正北路三段１８８巷７號","OBJECTID":407283},"geometry":{"x":177664.36000000127,"y":2543965.7200000044}},{"attributes":{"ID":407308,"DIS_CODE":0,"TOWNNAME":"歸仁區","LI":"媽廟里","LIN":"22鄰","STREET":"中正北路","SECT":"三段","MAREA":" ","LANE":"１８８巷","ALLEY":" ","HOUSE_NO":"６號","E_COORD97":177657.16,"N_COORD97":2543952.7200000002,"ADDRESS":"中正北路三段１８８巷６號","OBJECTID":407284},"geometry":{"x":177657.16000000015,"y":2543952.7200000025}},{"attributes":{"ID":407309,"DIS_CODE":0,"TOWNNAME":"歸仁區","LI":"媽廟里","LIN":"22鄰","STREET":"中正北路","SECT":"三段","MAREA":" ","LANE":"１８８巷","ALLEY":" ","HOUSE_NO":"１號","E_COORD97":177651.06,"N_COORD97":2543966.7200000002,"ADDRESS":"中正北路三段１８８巷１號","OBJECTID":407285},"geometry":{"x":177651.05999999959,"y":2543966.7200000025}},{"attributes":{"ID":407310,"DIS_CODE":0,"TOWNNAME":"歸仁區","LI":"媽廟里","LIN":"22鄰","STREET":"中正北路","SECT":"三段","MAREA":" ","LANE":"１８８巷","ALLEY":" ","HOUSE_NO":"３號","E_COORD97":177657.16,"N_COORD97":2543966.7200000002,"ADDRESS":"中正北路三段１８８巷３號","OBJECTID":407286},"geometry":{"x":177657.16000000015,"y":2543966.7200000025}},{"attributes":{"ID":407311,"DIS_CODE":0,"TOWNNAME":"麻豆區","LI":"油車里","LIN":"22鄰","STREET":"新生北路","SECT":" ","MAREA":" ","LANE":"８２巷","ALLEY":" ","HOUSE_NO":"８６號","E_COORD97":172391.44,"N_COORD97":2565080.2400000002,"ADDRESS":"新生北路８２巷８６號","OBJECTID":407287},"geometry":{"x":172391.44000000134,"y":2565080.2399999984}},{"attributes":{"ID":407312,"DIS_CODE":0,"TOWNNAME":"麻豆區","LI":"\u25A0江里","LIN":"22鄰","STREET":"民權路","SECT":" ","MAREA":" ","LANE":"９１巷","ALLEY":" ","HOUSE_NO":"１０號之１０","E_COORD97":173608.64999999999,"N_COORD97":2564427.8900000001,"ADDRESS":"民權路９１巷１０號之１０","OBJECTID":407288},"geometry":{"x":173608.6500000013,"y":2564427.8900000006}},{"attributes":{"ID":407313,"DIS_CODE":0,"TOWNNAME":"麻豆區","LI":"\u25A0江里","LIN":"22鄰","STREET":"民權路","SECT":" ","MAREA":" ","LANE":"９１巷","ALLEY":" ","HOUSE_NO":"１０號之１１","E_COORD97":173614.82000000001,"N_COORD97":2564429.4500000002,"ADDRESS":"民權路９１巷１０號之１１","OBJECTID":407289},"geometry":{"x":173614.82000000123,"y":2564429.4499999993}},{"attributes":{"ID":407314,"DIS_CODE":0,"TOWNNAME":"麻豆區","LI":"\u25A0江里","LIN":"22鄰","STREET":"民權路","SECT":" ","MAREA":" ","LANE":"９１巷","ALLEY":" ","HOUSE_NO":"１０號之１２","E_COORD97":173620.87,"N_COORD97":2564430.5699999998,"ADDRESS":"民權路９１巷１０號之１２","OBJECTID":407290},"geometry":{"x":173620.87000000104,"y":2564430.5699999984}},{"attributes":{"ID":407315,"DIS_CODE":0,"TOWNNAME":"麻豆區","LI":"\u25A0江里","LIN":"22鄰","STREET":"民權路","SECT":" ","MAREA":" ","LANE":"９１巷","ALLEY":" ","HOUSE_NO":"１０號之１３","E_COORD97":173626.51999999999,"N_COORD97":2564432.02,"ADDRESS":"民權路９１巷１０號之１３","OBJECTID":407291},"geometry":{"x":173626.51999999955,"y":2564432.0200000014}},{"attributes":{"ID":407316,"DIS_CODE":0,"TOWNNAME":"麻豆區","LI":"\u25A0江里","LIN":"22鄰","STREET":"民權路","SECT":" ","MAREA":" ","LANE":"９１巷","ALLEY":" ","HOUSE_NO":"１０號之１４","E_COORD97":173632.28,"N_COORD97":2564433.3199999998,"ADDRESS":"民權路９１巷１０號之１４","OBJECTID":407292},"geometry":{"x":173632.28000000026,"y":2564433.3200000022}},{"attributes":{"ID":407317,"DIS_CODE":0,"TOWNNAME":"麻豆區","LI":"\u25A0江里","LIN":"22鄰","STREET":"民權路","SECT":" ","MAREA":" ","LANE":"９１巷","ALLEY":" ","HOUSE_NO":"１０號之１５","E_COORD97":173637.91,"N_COORD97":2564435.1899999999,"ADDRESS":"民權路９１巷１０號之１５","OBJECTID":407293},"geometry":{"x":173637.91000000015,"y":2564435.1899999995}},{"attributes":{"ID":407318,"DIS_CODE":0,"TOWNNAME":"麻豆區","LI":"\u25A0江里","LIN":"22鄰","STREET":"民權路","SECT":" ","MAREA":" ","LANE":"９１巷","ALLEY":" ","HOUSE_NO":"１０號之１６","E_COORD97":173644.10999999999,"N_COORD97":2564436.77,"ADDRESS":"民權路９１巷１０號之１６","OBJECTID":407294},"geometry":{"x":173644.11000000034,"y":2564436.7700000014}},{"attributes":{"ID":407319,"DIS_CODE":0,"TOWNNAME":"麻豆區","LI":"\u25A0江里","LIN":"22鄰","STREET":"民權路","SECT":" ","MAREA":" ","LANE":"９１巷","ALLEY":" ","HOUSE_NO":"１０號之２","E_COORD97":173591.25,"N_COORD97":2564400.73,"ADDRESS":"民權路９１巷１０號之２","OBJECTID":407295},"geometry":{"x":173591.25000000093,"y":2564400.7300000023}},{"attributes":{"ID":407320,"DIS_CODE":0,"TOWNNAME":"麻豆區","LI":"\u25A0江里","LIN":"22鄰","STREET":"民權路","SECT":" ","MAREA":" ","LANE":"９１巷","ALLEY":" ","HOUSE_NO":"１０號之５","E_COORD97":173574.44,"N_COORD97":2564414.3199999998,"ADDRESS":"民權路９１巷１０號之５","OBJECTID":407296},"geometry":{"x":173574.44000000227,"y":2564414.3200000003}},{"attributes":{"ID":407321,"DIS_CODE":0,"TOWNNAME":"麻豆區","LI":"\u25A0江里","LIN":"22鄰","STREET":"民權路","SECT":" ","MAREA":" ","LANE":"９１巷","ALLEY":" ","HOUSE_NO":"１０號之６","E_COORD97":173573.47,"N_COORD97":2564418.9900000002,"ADDRESS":"民權路９１巷１０號之６","OBJECTID":407297},"geometry":{"x":173573.4700000016,"y":2564418.9900000021}},{"attributes":{"ID":407322,"DIS_CODE":0,"TOWNNAME":"麻豆區","LI":"\u25A0江里","LIN":"22鄰","STREET":"民權路","SECT":" ","MAREA":" ","LANE":"９１巷","ALLEY":" ","HOUSE_NO":"１０號之７","E_COORD97":173590.45999999999,"N_COORD97":2564423.4500000002,"ADDRESS":"民權路９１巷１０號之７","OBJECTID":407298},"geometry":{"x":173590.45999999996,"y":2564423.4499999974}},{"attributes":{"ID":407323,"DIS_CODE":0,"TOWNNAME":"麻豆區","LI":"\u25A0江里","LIN":"22鄰","STREET":"民權路","SECT":" ","MAREA":" ","LANE":"９１巷","ALLEY":" ","HOUSE_NO":"１０號之８","E_COORD97":173596.76999999999,"N_COORD97":2564424.8399999999,"ADDRESS":"民權路９１巷１０號之８","OBJECTID":407299},"geometry":{"x":173596.77000000048,"y":2564424.839999998}},{"attributes":{"ID":407324,"DIS_CODE":0,"TOWNNAME":"麻豆區","LI":"\u25A0江里","LIN":"22鄰","STREET":"民權路","SECT":" ","MAREA":" ","LANE":"９１巷","ALLEY":" ","HOUSE_NO":"１０號之９","E_COORD97":173602.48999999999,"N_COORD97":2564426.3199999998,"ADDRESS":"民權路９１巷１０號之９","OBJECTID":407300},"geometry":{"x":173602.48999999929,"y":2564426.3200000022}},{"attributes":{"ID":407325,"DIS_CODE":0,"TOWNNAME":"麻豆區","LI":"\u25A0江里","LIN":"22鄰","STREET":"民權路","SECT":" ","MAREA":" ","LANE":"９１巷","ALLEY":" ","HOUSE_NO":"１０號","E_COORD97":173580.48999999999,"N_COORD97":2564390.21,"ADDRESS":"民權路９１巷１０號","OBJECTID":407301},"geometry":{"x":173580.48999999929,"y":2564390.2100000028}},{"attributes":{"ID":407326,"DIS_CODE":0,"TOWNNAME":"麻豆區","LI":"\u25A0江里","LIN":"22鄰","STREET":"民權路","SECT":" ","MAREA":" ","LANE":"９１巷","ALLEY":" ","HOUSE_NO":"１２號之１０","E_COORD97":173607,"N_COORD97":2564387.04,"ADDRESS":"民權路９１巷１２號之１０","OBJECTID":407302},"geometry":{"x":173607,"y":2564387.040000001}},{"attributes":{"ID":407327,"DIS_CODE":0,"TOWNNAME":"麻豆區","LI":"\u25A0江里","LIN":"22鄰","STREET":"民權路","SECT":" ","MAREA":" ","LANE":"９１巷","ALLEY":" ","HOUSE_NO":"１２號之１１","E_COORD97":173624,"N_COORD97":2564409.1099999999,"ADDRESS":"民權路９１巷１２號之１１","OBJECTID":407303},"geometry":{"x":173624,"y":2564409.1100000031}},{"attributes":{"ID":407328,"DIS_CODE":0,"TOWNNAME":"麻豆區","LI":"\u25A0江里","LIN":"22鄰","STREET":"民權路","SECT":" ","MAREA":" ","LANE":"９１巷","ALLEY":" ","HOUSE_NO":"１２號之１２","E_COORD97":173611.47,"N_COORD97":2564388.6800000002,"ADDRESS":"民權路９１巷１２號之１２","OBJECTID":407304},"geometry":{"x":173611.47000000067,"y":2564388.6800000034}},{"attributes":{"ID":407329,"DIS_CODE":0,"TOWNNAME":"麻豆區","LI":"\u25A0江里","LIN":"22鄰","STREET":"民權路","SECT":" ","MAREA":" ","LANE":"９１巷","ALLEY":" ","HOUSE_NO":"１２號之１３","E_COORD97":173628.45000000001,"N_COORD97":2564410.5099999998,"ADDRESS":"民權路９１巷１２號之１３","OBJECTID":407305},"geometry":{"x":173628.45000000112,"y":2564410.5100000035}},{"attributes":{"ID":407330,"DIS_CODE":0,"TOWNNAME":"麻豆區","LI":"\u25A0江里","LIN":"22鄰","STREET":"民權路","SECT":" ","MAREA":" ","LANE":"９１巷","ALLEY":" ","HOUSE_NO":"１２號之１４","E_COORD97":173615.63,"N_COORD97":2564389.8900000001,"ADDRESS":"民權路９１巷１２號之１４","OBJECTID":407306},"geometry":{"x":173615.63000000082,"y":2564389.8900000025}},{"attributes":{"ID":407331,"DIS_CODE":0,"TOWNNAME":"麻豆區","LI":"\u25A0江里","LIN":"22鄰","STREET":"民權路","SECT":" ","MAREA":" ","LANE":"９１巷","ALLEY":" ","HOUSE_NO":"１２號之１５","E_COORD97":173632.29999999999,"N_COORD97":2564411.71,"ADDRESS":"民權路９１巷１２號之１５","OBJECTID":407307},"geometry":{"x":173632.30000000168,"y":2564411.7100000028}},{"attributes":{"ID":407332,"DIS_CODE":0,"TOWNNAME":"麻豆區","LI":"\u25A0江里","LIN":"22鄰","STREET":"民權路","SECT":" ","MAREA":" ","LANE":"９１巷","ALLEY":" ","HOUSE_NO":"１２號之１６","E_COORD97":173621.26999999999,"N_COORD97":2564392.73,"ADDRESS":"民權路９１巷１２號之１６","OBJECTID":407308},"geometry":{"x":173621.26999999955,"y":2564392.7300000042}},{"attributes":{"ID":407333,"DIS_CODE":0,"TOWNNAME":"麻豆區","LI":"\u25A0江里","LIN":"22鄰","STREET":"民權路","SECT":" ","MAREA":" ","LANE":"９１巷","ALLEY":" ","HOUSE_NO":"１２號之１７","E_COORD97":173636.5,"N_COORD97":2564413.02,"ADDRESS":"民權路９１巷１２號之１７","OBJECTID":407309},"geometry":{"x":173636.50000000093,"y":2564413.0199999996}},{"attributes":{"ID":407334,"DIS_CODE":0,"TOWNNAME":"麻豆區","LI":"\u25A0江里","LIN":"22鄰","STREET":"民權路","SECT":" ","MAREA":" ","LANE":"９１巷","ALLEY":" ","HOUSE_NO":"１２號之１８","E_COORD97":173626.39000000001,"N_COORD97":2564394.3300000001,"ADDRESS":"民權路９１巷１２號之１８","OBJECTID":407310},"geometry":{"x":173626.39000000153,"y":2564394.3300000001}},{"attributes":{"ID":407335,"DIS_CODE":0,"TOWNNAME":"麻豆區","LI":"\u25A0江里","LIN":"22鄰","STREET":"民權路","SECT":" ","MAREA":" ","LANE":"９１巷","ALLEY":" ","HOUSE_NO":"１２號之１９","E_COORD97":173640.60999999999,"N_COORD97":2564414.3599999999,"ADDRESS":"民權路９１巷１２號之１９","OBJECTID":407311},"geometry":{"x":173640.61000000034,"y":2564414.3600000031}},{"attributes":{"ID":407336,"DIS_CODE":0,"TOWNNAME":"麻豆區","LI":"\u25A0江里","LIN":"22鄰","STREET":"民權路","SECT":" ","MAREA":" ","LANE":"９１巷","ALLEY":" ","HOUSE_NO":"１２號之１","E_COORD97":173604.22,"N_COORD97":2564401.5,"ADDRESS":"民權路９１巷１２號之１","OBJECTID":407312},"geometry":{"x":173604.22000000067,"y":2564401.5000000019}},{"attributes":{"ID":407337,"DIS_CODE":0,"TOWNNAME":"麻豆區","LI":"\u25A0江里","LIN":"22鄰","STREET":"民權路","SECT":" ","MAREA":" ","LANE":"９１巷","ALLEY":" ","HOUSE_NO":"１２號之２０","E_COORD97":173633.41,"N_COORD97":2564394.46,"ADDRESS":"民權路９１巷１２號之２０","OBJECTID":407313},"geometry":{"x":173633.41000000015,"y":2564394.4600000009}},{"attributes":{"ID":407338,"DIS_CODE":0,"TOWNNAME":"佳里區","LI":"安西里","LIN":"13鄰","STREET":"長安街","SECT":" ","MAREA":" ","LANE":" ","ALLEY":" ","HOUSE_NO":"７８號","E_COORD97":165434.98999999999,"N_COORD97":2562445.1899999999,"ADDRESS":"長安街７８號","OBJECTID":407314},"geometry":{"x":165434.99000000022,"y":2562445.1899999995}},{"attributes":{"ID":407339,"DIS_CODE":0,"TOWNNAME":"麻豆區","LI":"\u25A0江里","LIN":"22鄰","STREET":"民權路","SECT":" ","MAREA":" ","LANE":"９１巷","ALLEY":" ","HOUSE_NO":"１２號之２２","E_COORD97":173635.22,"N_COORD97":2564389.2400000002,"ADDRESS":"民權路９１巷１２號之２２","OBJECTID":407315},"geometry":{"x":173635.22000000067,"y":2564389.2400000021}},{"attributes":{"ID":407340,"DIS_CODE":0,"TOWNNAME":"麻豆區","LI":"\u25A0江里","LIN":"22鄰","STREET":"民權路","SECT":" ","MAREA":" ","LANE":"９１巷","ALLEY":" ","HOUSE_NO":"１２號之３","E_COORD97":173607.97,"N_COORD97":2564404.3700000001,"ADDRESS":"民權路９１巷１２號之３","OBJECTID":407316},"geometry":{"x":173607.97000000067,"y":2564404.370000001}},{"attributes":{"ID":407341,"DIS_CODE":0,"TOWNNAME":"麻豆區","LI":"\u25A0江里","LIN":"22鄰","STREET":"民權路","SECT":" ","MAREA":" ","LANE":"９１巷","ALLEY":" ","HOUSE_NO":"１２號之４","E_COORD97":173588.35999999999,"N_COORD97":2564381.0299999998,"ADDRESS":"民權路９１巷１２號之４","OBJECTID":407317},"geometry":{"x":173588.3600000022,"y":2564381.0299999993}},{"attributes":{"ID":407342,"DIS_CODE":0,"TOWNNAME":"麻豆區","LI":"\u25A0江里","LIN":"22鄰","STREET":"民權路","SECT":" ","MAREA":" ","LANE":"９１巷","ALLEY":" ","HOUSE_NO":"１２號之５","E_COORD97":173612.17000000001,"N_COORD97":2564405.48,"ADDRESS":"民權路９１巷１２號之５","OBJECTID":407318},"geometry":{"x":173612.16999999993,"y":2564405.4800000023}},{"attributes":{"ID":407343,"DIS_CODE":0,"TOWNNAME":"麻豆區","LI":"\u25A0江里","LIN":"22鄰","STREET":"民權路","SECT":" ","MAREA":" ","LANE":"９１巷","ALLEY":" ","HOUSE_NO":"１６號之１０","E_COORD97":173624.45000000001,"N_COORD97":2564452.0600000001,"ADDRESS":"民權路９１巷１６號之１０","OBJECTID":407319},"geometry":{"x":173624.45000000019,"y":2564452.0600000024}},{"attributes":{"ID":407344,"DIS_CODE":0,"TOWNNAME":"麻豆區","LI":"\u25A0江里","LIN":"22鄰","STREET":"民權路","SECT":" ","MAREA":" ","LANE":"９１巷","ALLEY":" ","HOUSE_NO":"１６號之１１","E_COORD97":173629.73000000001,"N_COORD97":2564453.4900000002,"ADDRESS":"民權路９１巷１６號之１１","OBJECTID":407320},"geometry":{"x":173629.73000000045,"y":2564453.4900000002}},{"attributes":{"ID":407345,"DIS_CODE":0,"TOWNNAME":"麻豆區","LI":"\u25A0江里","LIN":"22鄰","STREET":"民權路","SECT":" ","MAREA":" ","LANE":"９１巷","ALLEY":" ","HOUSE_NO":"１６號之１２","E_COORD97":173634.31,"N_COORD97":2564455.2000000002,"ADDRESS":"民權路９１巷１６號之１２","OBJECTID":407321},"geometry":{"x":173634.31000000052,"y":2564455.1999999993}},{"attributes":{"ID":407346,"DIS_CODE":0,"TOWNNAME":"麻豆區","LI":"\u25A0江里","LIN":"22鄰","STREET":"民權路","SECT":" ","MAREA":" ","LANE":"９１巷","ALLEY":" ","HOUSE_NO":"１６號之１","E_COORD97":173581.13,"N_COORD97":2564431.8900000001,"ADDRESS":"民權路９１巷１６號之１","OBJECTID":407322},"geometry":{"x":173581.13000000082,"y":2564431.8900000006}},{"attributes":{"ID":407347,"DIS_CODE":0,"TOWNNAME":"麻豆區","LI":"\u25A0江里","LIN":"22鄰","STREET":"民權路","SECT":" ","MAREA":" ","LANE":"９１巷","ALLEY":" ","HOUSE_NO":"１６號之３","E_COORD97":173580.29000000001,"N_COORD97":2564437.6099999999,"ADDRESS":"民權路９１巷１６號之３","OBJECTID":407323},"geometry":{"x":173580.29000000097,"y":2564437.6100000013}},{"attributes":{"ID":407348,"DIS_CODE":0,"TOWNNAME":"麻豆區","LI":"\u25A0江里","LIN":"22鄰","STREET":"民權路","SECT":" ","MAREA":" ","LANE":"９１巷","ALLEY":" ","HOUSE_NO":"１６號之４","E_COORD97":173578.76999999999,"N_COORD97":2564442.0800000001,"ADDRESS":"民權路９１巷１６號之４","OBJECTID":407324},"geometry":{"x":173578.77000000048,"y":2564442.0800000019}},{"attributes":{"ID":407349,"DIS_CODE":0,"TOWNNAME":"麻豆區","LI":"\u25A0江里","LIN":"22鄰","STREET":"民權路","SECT":" ","MAREA":" ","LANE":"９１巷","ALLEY":" ","HOUSE_NO":"１６號之５","E_COORD97":173600,"N_COORD97":2564443.8300000001,"ADDRESS":"民權路９１巷１６號之５","OBJECTID":407325},"geometry":{"x":173600,"y":2564443.8300000019}},{"attributes":{"ID":407350,"DIS_CODE":0,"TOWNNAME":"麻豆區","LI":"\u25A0江里","LIN":"22鄰","STREET":"民權路","SECT":" ","MAREA":" ","LANE":"９１巷","ALLEY":" ","HOUSE_NO":"１６號之６","E_COORD97":173604.29000000001,"N_COORD97":2564445.5800000001,"ADDRESS":"民權路９１巷１６號之６","OBJECTID":407326},"geometry":{"x":173604.29000000097,"y":2564445.5800000019}},{"attributes":{"ID":407351,"DIS_CODE":0,"TOWNNAME":"麻豆區","LI":"\u25A0江里","LIN":"22鄰","STREET":"民權路","SECT":" ","MAREA":" ","LANE":"９１巷","ALLEY":" ","HOUSE_NO":"１６號之７","E_COORD97":173608.67000000001,"N_COORD97":2564447.1499999999,"ADDRESS":"民權路９１巷１６號之７","OBJECTID":407327},"geometry":{"x":173608.67000000086,"y":2564447.1500000041}},{"attributes":{"ID":407352,"DIS_CODE":0,"TOWNNAME":"麻豆區","LI":"\u25A0江里","LIN":"22鄰","STREET":"民權路","SECT":" ","MAREA":" ","LANE":"９１巷","ALLEY":" ","HOUSE_NO":"１６號之８","E_COORD97":173614.12,"N_COORD97":2564448.6600000001,"ADDRESS":"民權路９１巷１６號之８","OBJECTID":407328},"geometry":{"x":173614.12000000104,"y":2564448.6600000001}},{"attributes":{"ID":407353,"DIS_CODE":0,"TOWNNAME":"麻豆區","LI":"\u25A0江里","LIN":"22鄰","STREET":"民權路","SECT":" ","MAREA":" ","LANE":"９１巷","ALLEY":" ","HOUSE_NO":"１６號之９","E_COORD97":173619.59,"N_COORD97":2564450.1600000001,"ADDRESS":"民權路９１巷１６號之９","OBJECTID":407329},"geometry":{"x":173619.58999999985,"y":2564450.1599999983}},{"attributes":{"ID":407354,"DIS_CODE":0,"TOWNNAME":"麻豆區","LI":"\u25A0江里","LIN":"22鄰","STREET":"民權路","SECT":" ","MAREA":" ","LANE":"９１巷","ALLEY":" ","HOUSE_NO":"１８號之１","E_COORD97":173572.81,"N_COORD97":2564451,"ADDRESS":"民權路９１巷１８號之１","OBJECTID":407330},"geometry":{"x":173572.81000000052,"y":2564451}},{"attributes":{"ID":407355,"DIS_CODE":0,"TOWNNAME":"麻豆區","LI":"\u25A0江里","LIN":"22鄰","STREET":"民權路","SECT":" ","MAREA":" ","LANE":"９１巷","ALLEY":" ","HOUSE_NO":"１８號之２","E_COORD97":173571.81,"N_COORD97":2564454.8199999998,"ADDRESS":"民權路９１巷１８號之２","OBJECTID":407331},"geometry":{"x":173571.80999999959,"y":2564454.8200000003}},{"attributes":{"ID":407356,"DIS_CODE":0,"TOWNNAME":"麻豆區","LI":"\u25A0江里","LIN":"22鄰","STREET":"民權路","SECT":" ","MAREA":" ","LANE":"９１巷","ALLEY":" ","HOUSE_NO":"１８號之３","E_COORD97":173571.03,"N_COORD97":2564458.9399999999,"ADDRESS":"民權路９１巷１８號之３","OBJECTID":407332},"geometry":{"x":173571.03000000026,"y":2564458.9400000013}},{"attributes":{"ID":407357,"DIS_CODE":0,"TOWNNAME":"麻豆區","LI":"\u25A0江里","LIN":"22鄰","STREET":"民權路","SECT":" ","MAREA":" ","LANE":"９１巷","ALLEY":" ","HOUSE_NO":"１８號之４","E_COORD97":173570.09,"N_COORD97":2564462.7599999998,"ADDRESS":"民權路９１巷１８號之４","OBJECTID":407333},"geometry":{"x":173570.09000000078,"y":2564462.7600000035}},{"attributes":{"ID":407358,"DIS_CODE":0,"TOWNNAME":"麻豆區","LI":"\u25A0江里","LIN":"22鄰","STREET":"民權路","SECT":" ","MAREA":" ","LANE":"９１巷","ALLEY":" ","HOUSE_NO":"１８號之５","E_COORD97":173569.45999999999,"N_COORD97":2564467.0899999999,"ADDRESS":"民權路９１巷１８號之５","OBJECTID":407334},"geometry":{"x":173569.46000000089,"y":2564467.0899999999}},{"attributes":{"ID":407359,"DIS_CODE":0,"TOWNNAME":"麻豆區","LI":"\u25A0江里","LIN":"22鄰","STREET":"民權路","SECT":" ","MAREA":" ","LANE":"９１巷","ALLEY":" ","HOUSE_NO":"１８號","E_COORD97":173573.42999999999,"N_COORD97":2564446.77,"ADDRESS":"民權路９１巷１８號","OBJECTID":407335},"geometry":{"x":173573.4299999997,"y":2564446.7700000014}},{"attributes":{"ID":407360,"DIS_CODE":0,"TOWNNAME":"麻豆區","LI":"\u25A0江里","LIN":"22鄰","STREET":"民權路","SECT":" ","MAREA":" ","LANE":"９１巷","ALLEY":" ","HOUSE_NO":"２０號之１","E_COORD97":173587.09,"N_COORD97":2564466.9199999999,"ADDRESS":"民權路９１巷２０號之１","OBJECTID":407336},"geometry":{"x":173587.09000000078,"y":2564466.9200000018}},{"attributes":{"ID":407361,"DIS_CODE":0,"TOWNNAME":"麻豆區","LI":"\u25A0江里","LIN":"22鄰","STREET":"民權路","SECT":" ","MAREA":" ","LANE":"９１巷","ALLEY":" ","HOUSE_NO":"２０號之２","E_COORD97":173591.35000000001,"N_COORD97":2564467.5099999998,"ADDRESS":"民權路９１巷２０號之２","OBJECTID":407337},"geometry":{"x":173591.35000000056,"y":2564467.5099999998}},{"attributes":{"ID":407362,"DIS_CODE":0,"TOWNNAME":"麻豆區","LI":"\u25A0江里","LIN":"22鄰","STREET":"民權路","SECT":" ","MAREA":" ","LANE":"９１巷","ALLEY":" ","HOUSE_NO":"２０號之３","E_COORD97":173595.39999999999,"N_COORD97":2564468.6299999999,"ADDRESS":"民權路９１巷２０號之３","OBJECTID":407338},"geometry":{"x":173595.4000000013,"y":2564468.629999999}},{"attributes":{"ID":407363,"DIS_CODE":0,"TOWNNAME":"麻豆區","LI":"\u25A0江里","LIN":"22鄰","STREET":"民權路","SECT":" ","MAREA":" ","LANE":"９１巷","ALLEY":" ","HOUSE_NO":"２０號之４","E_COORD97":173599.48000000001,"N_COORD97":2564469.3900000001,"ADDRESS":"民權路９１巷２０號之４","OBJECTID":407339},"geometry":{"x":173599.48000000231,"y":2564469.3899999987}},{"attributes":{"ID":407364,"DIS_CODE":0,"TOWNNAME":"麻豆區","LI":"\u25A0江里","LIN":"22鄰","STREET":"民權路","SECT":" ","MAREA":" ","LANE":"９１巷","ALLEY":" ","HOUSE_NO":"２０號之５","E_COORD97":173603.53,"N_COORD97":2564470.2200000002,"ADDRESS":"民權路９１巷２０號之５","OBJECTID":407340},"geometry":{"x":173603.53000000026,"y":2564470.2200000007}},{"attributes":{"ID":407365,"DIS_CODE":0,"TOWNNAME":"麻豆區","LI":"\u25A0江里","LIN":"22鄰","STREET":"民權路","SECT":" ","MAREA":" ","LANE":"９１巷","ALLEY":" ","HOUSE_NO":"２０號之６","E_COORD97":173607.60000000001,"N_COORD97":2564470.9300000002,"ADDRESS":"民權路９１巷２０號之６","OBJECTID":407341},"geometry":{"x":173607.59999999963,"y":2564470.9299999997}},{"attributes":{"ID":407366,"DIS_CODE":0,"TOWNNAME":"麻豆區","LI":"\u25A0江里","LIN":"22鄰","STREET":"民權路","SECT":" ","MAREA":" ","LANE":"９１巷","ALLEY":" ","HOUSE_NO":"２０號","E_COORD97":173583.32000000001,"N_COORD97":2564465.8599999999,"ADDRESS":"民權路９１巷２０號","OBJECTID":407342},"geometry":{"x":173583.3200000003,"y":2564465.8600000013}},{"attributes":{"ID":407367,"DIS_CODE":0,"TOWNNAME":"麻豆區","LI":"\u25A0江里","LIN":"22鄰","STREET":"民權路","SECT":" ","MAREA":" ","LANE":"９１巷","ALLEY":" ","HOUSE_NO":"２２號之１","E_COORD97":173563.64000000001,"N_COORD97":2564479.1699999999,"ADDRESS":"民權路９１巷２２號之１","OBJECTID":407343},"geometry":{"x":173563.63999999873,"y":2564479.1699999999}},{"attributes":{"ID":407368,"DIS_CODE":0,"TOWNNAME":"麻豆區","LI":"\u25A0江里","LIN":"22鄰","STREET":"民權路","SECT":" ","MAREA":" ","LANE":"９１巷","ALLEY":" ","HOUSE_NO":"２２號之２","E_COORD97":173563.07999999999,"N_COORD97":2564483.0800000001,"ADDRESS":"民權路９１巷２２號之２","OBJECTID":407344},"geometry":{"x":173563.08000000101,"y":2564483.0800000001}},{"attributes":{"ID":407369,"DIS_CODE":0,"TOWNNAME":"麻豆區","LI":"\u25A0江里","LIN":"22鄰","STREET":"民權路","SECT":" ","MAREA":" ","LANE":"９１巷","ALLEY":" ","HOUSE_NO":"２２號之３","E_COORD97":173562.42000000001,"N_COORD97":2564486.9399999999,"ADDRESS":"民權路９１巷２２號之３","OBJECTID":407345},"geometry":{"x":173562.42000000086,"y":2564486.9399999995}},{"attributes":{"ID":407370,"DIS_CODE":0,"TOWNNAME":"麻豆區","LI":"\u25A0江里","LIN":"22鄰","STREET":"民權路","SECT":" ","MAREA":" ","LANE":"９１巷","ALLEY":" ","HOUSE_NO":"２２號之４","E_COORD97":173561.64000000001,"N_COORD97":2564490.3300000001,"ADDRESS":"民權路９１巷２２號之４","OBJECTID":407346},"geometry":{"x":173561.63999999966,"y":2564490.3300000019}},{"attributes":{"ID":407371,"DIS_CODE":0,"TOWNNAME":"麻豆區","LI":"\u25A0江里","LIN":"22鄰","STREET":"民權路","SECT":" ","MAREA":" ","LANE":"９１巷","ALLEY":" ","HOUSE_NO":"２２號之５","E_COORD97":173560.64000000001,"N_COORD97":2564495.0600000001,"ADDRESS":"民權路９１巷２２號之５","OBJECTID":407347},"geometry":{"x":173560.6400000006,"y":2564495.0600000005}},{"attributes":{"ID":407372,"DIS_CODE":0,"TOWNNAME":"麻豆區","LI":"\u25A0江里","LIN":"22鄰","STREET":"民權路","SECT":" ","MAREA":" ","LANE":"９１巷","ALLEY":" ","HOUSE_NO":"２２號","E_COORD97":173564.41,"N_COORD97":2564475.8999999999,"ADDRESS":"民權路９１巷２２號","OBJECTID":407348},"geometry":{"x":173564.41000000108,"y":2564475.8999999985}},{"attributes":{"ID":407373,"DIS_CODE":0,"TOWNNAME":"麻豆區","LI":"\u25A0江里","LIN":"22鄰","STREET":"民權路","SECT":" ","MAREA":" ","LANE":"９１巷","ALLEY":" ","HOUSE_NO":"２４號之１","E_COORD97":173585.07000000001,"N_COORD97":2564486.0099999998,"ADDRESS":"民權路９１巷２４號之１","OBJECTID":407349},"geometry":{"x":173585.06999999937,"y":2564486.0100000016}},{"attributes":{"ID":407374,"DIS_CODE":0,"TOWNNAME":"麻豆區","LI":"\u25A0江里","LIN":"22鄰","STREET":"民權路","SECT":" ","MAREA":" ","LANE":"９１巷","ALLEY":" ","HOUSE_NO":"２４號之２","E_COORD97":173588.57999999999,"N_COORD97":2564486.6099999999,"ADDRESS":"民權路９１巷２４號之２","OBJECTID":407350},"geometry":{"x":173588.58000000101,"y":2564486.6099999994}},{"attributes":{"ID":407375,"DIS_CODE":0,"TOWNNAME":"麻豆區","LI":"\u25A0江里","LIN":"22鄰","STREET":"民權路","SECT":" ","MAREA":" ","LANE":"９１巷","ALLEY":" ","HOUSE_NO":"２４號之３","E_COORD97":173593.06,"N_COORD97":2564487.3700000001,"ADDRESS":"民權路９１巷２４號之３","OBJECTID":407351},"geometry":{"x":173593.06000000145,"y":2564487.3700000048}},{"attributes":{"ID":407376,"DIS_CODE":0,"TOWNNAME":"麻豆區","LI":"\u25A0江里","LIN":"22鄰","STREET":"民權路","SECT":" ","MAREA":" ","LANE":"９１巷","ALLEY":" ","HOUSE_NO":"２４號之４","E_COORD97":173597.07999999999,"N_COORD97":2564487.7799999998,"ADDRESS":"民權路９１巷２４號之４","OBJECTID":407352},"geometry":{"x":173597.08000000101,"y":2564487.7799999993}},{"attributes":{"ID":407377,"DIS_CODE":0,"TOWNNAME":"麻豆區","LI":"\u25A0江里","LIN":"22鄰","STREET":"民權路","SECT":" ","MAREA":" ","LANE":"９１巷","ALLEY":" ","HOUSE_NO":"２４號之５","E_COORD97":173601,"N_COORD97":2564488.3399999999,"ADDRESS":"民權路９１巷２４號之５","OBJECTID":407353},"geometry":{"x":173601.00000000093,"y":2564488.3399999999}},{"attributes":{"ID":407378,"DIS_CODE":0,"TOWNNAME":"麻豆區","LI":"\u25A0江里","LIN":"22鄰","STREET":"民權路","SECT":" ","MAREA":" ","LANE":"９１巷","ALLEY":" ","HOUSE_NO":"２４號","E_COORD97":173580.51999999999,"N_COORD97":2564485.0499999998,"ADDRESS":"民權路９１巷２４號","OBJECTID":407354},"geometry":{"x":173580.51999999955,"y":2564485.0500000007}},{"attributes":{"ID":407379,"DIS_CODE":0,"TOWNNAME":"麻豆區","LI":"\u25A0江里","LIN":"22鄰","STREET":"民權路","SECT":" ","MAREA":" ","LANE":"９１巷","ALLEY":" ","HOUSE_NO":"２６號","E_COORD97":173561.60000000001,"N_COORD97":2564502.6299999999,"ADDRESS":"民權路９１巷２６號","OBJECTID":407355},"geometry":{"x":173561.59999999963,"y":2564502.629999999}},{"attributes":{"ID":407380,"DIS_CODE":0,"TOWNNAME":"麻豆區","LI":"\u25A0江里","LIN":"22鄰","STREET":"民權路","SECT":" ","MAREA":" ","LANE":"９１巷","ALLEY":" ","HOUSE_NO":"２８號","E_COORD97":173560.70000000001,"N_COORD97":2564507.1099999999,"ADDRESS":"民權路９１巷２８號","OBJECTID":407356},"geometry":{"x":173560.70000000112,"y":2564507.1099999994}},{"attributes":{"ID":407381,"DIS_CODE":0,"TOWNNAME":"麻豆區","LI":"\u25A0江里","LIN":"22鄰","STREET":"民權路","SECT":" ","MAREA":" ","LANE":"９１巷","ALLEY":" ","HOUSE_NO":"３０號","E_COORD97":173559.97,"N_COORD97":2564511.2599999998,"ADDRESS":"民權路９１巷３０號","OBJECTID":407357},"geometry":{"x":173559.9700000016,"y":2564511.2600000016}},{"attributes":{"ID":407382,"DIS_CODE":0,"TOWNNAME":"麻豆區","LI":"\u25A0江里","LIN":"22鄰","STREET":"民權路","SECT":" ","MAREA":" ","LANE":"９１巷","ALLEY":" ","HOUSE_NO":"３２號","E_COORD97":173559.09,"N_COORD97":2564515.8300000001,"ADDRESS":"民權路９１巷３２號","OBJECTID":407358},"geometry":{"x":173559.08999999892,"y":2564515.8300000001}},{"attributes":{"ID":407383,"DIS_CODE":0,"TOWNNAME":"麻豆區","LI":"\u25A0江里","LIN":"22鄰","STREET":"民權路","SECT":" ","MAREA":" ","LANE":"９１巷","ALLEY":" ","HOUSE_NO":"３４號","E_COORD97":173577.10999999999,"N_COORD97":2564515.0099999998,"ADDRESS":"民權路９１巷３４號","OBJECTID":407359},"geometry":{"x":173577.11000000127,"y":2564515.0099999998}},{"attributes":{"ID":407384,"DIS_CODE":0,"TOWNNAME":"麻豆區","LI":"\u25A0江里","LIN":"22鄰","STREET":"民權路","SECT":" ","MAREA":" ","LANE":"９１巷","ALLEY":" ","HOUSE_NO":"３６號","E_COORD97":173583.10000000001,"N_COORD97":2564516.21,"ADDRESS":"民權路９１巷３６號","OBJECTID":407360},"geometry":{"x":173583.10000000056,"y":2564516.2100000028}},{"attributes":{"ID":407385,"DIS_CODE":0,"TOWNNAME":"麻豆區","LI":"\u25A0江里","LIN":"22鄰","STREET":"民權路","SECT":" ","MAREA":" ","LANE":"９１巷","ALLEY":" ","HOUSE_NO":"３８號","E_COORD97":173595.95000000001,"N_COORD97":2564520.6000000001,"ADDRESS":"民權路９１巷３８號","OBJECTID":407361},"geometry":{"x":173595.94999999925,"y":2564520.5999999996}},{"attributes":{"ID":407386,"DIS_CODE":0,"TOWNNAME":"麻豆區","LI":"\u25A0江里","LIN":"22鄰","STREET":"民權路","SECT":" ","MAREA":" ","LANE":"９１巷","ALLEY":" ","HOUSE_NO":"４０號","E_COORD97":173596.01999999999,"N_COORD97":2564508.5899999999,"ADDRESS":"民權路９１巷４０號","OBJECTID":407362},"geometry":{"x":173596.01999999955,"y":2564508.5900000017}},{"attributes":{"ID":407387,"DIS_CODE":0,"TOWNNAME":"麻豆區","LI":"\u25A0江里","LIN":"22鄰","STREET":"民權路","SECT":" ","MAREA":" ","LANE":"９１巷","ALLEY":" ","HOUSE_NO":"４６號","E_COORD97":173614.57000000001,"N_COORD97":2564537.5699999998,"ADDRESS":"民權路９１巷４６號","OBJECTID":407363},"geometry":{"x":173614.57000000123,"y":2564537.5700000022}},{"attributes":{"ID":407388,"DIS_CODE":0,"TOWNNAME":"麻豆區","LI":"\u25A0江里","LIN":"22鄰","STREET":"民權路","SECT":" ","MAREA":" ","LANE":"９１巷","ALLEY":" ","HOUSE_NO":"４８號","E_COORD97":173608.60000000001,"N_COORD97":2564536.8300000001,"ADDRESS":"民權路９１巷４８號","OBJECTID":407364},"geometry":{"x":173608.60000000056,"y":2564536.8300000001}},{"attributes":{"ID":407389,"DIS_CODE":0,"TOWNNAME":"麻豆區","LI":"\u25A0江里","LIN":"22鄰","STREET":"民權路","SECT":" ","MAREA":" ","LANE":"９１巷","ALLEY":" ","HOUSE_NO":"５０號","E_COORD97":173602.76000000001,"N_COORD97":2564536.5800000001,"ADDRESS":"民權路９１巷５０號","OBJECTID":407365},"geometry":{"x":173602.76000000071,"y":2564536.5800000019}},{"attributes":{"ID":407390,"DIS_CODE":0,"TOWNNAME":"麻豆區","LI":"\u25A0江里","LIN":"22鄰","STREET":"民權路","SECT":" ","MAREA":" ","LANE":"９１巷","ALLEY":" ","HOUSE_NO":"５２號","E_COORD97":173597.37,"N_COORD97":2564536.2200000002,"ADDRESS":"民權路９１巷５２號","OBJECTID":407366},"geometry":{"x":173597.37000000104,"y":2564536.2200000025}},{"attributes":{"ID":407391,"DIS_CODE":0,"TOWNNAME":"麻豆區","LI":"\u25A0江里","LIN":"22鄰","STREET":"民權路","SECT":" ","MAREA":" ","LANE":"９１巷","ALLEY":" ","HOUSE_NO":"５４號","E_COORD97":173592.29000000001,"N_COORD97":2564535.5600000001,"ADDRESS":"民權路９１巷５４號","OBJECTID":407367},"geometry":{"x":173592.29000000097,"y":2564535.5600000005}},{"attributes":{"ID":407392,"DIS_CODE":0,"TOWNNAME":"麻豆區","LI":"\u25A0江里","LIN":"22鄰","STREET":"民權路","SECT":" ","MAREA":" ","LANE":"９１巷","ALLEY":" ","HOUSE_NO":"５６號","E_COORD97":173585.92000000001,"N_COORD97":2564535.3700000001,"ADDRESS":"民權路９１巷５６號","OBJECTID":407368},"geometry":{"x":173585.92000000179,"y":2564535.3700000029}},{"attributes":{"ID":407393,"DIS_CODE":0,"TOWNNAME":"中西區","LI":"建國里","LIN":"20鄰","STREET":"民生路","SECT":"一段","MAREA":" ","LANE":"１３２巷","ALLEY":" ","HOUSE_NO":"２６號","E_COORD97":168105.26999999999,"N_COORD97":2543923.0800000001,"ADDRESS":"民生路一段１３２巷２６號","OBJECTID":407369},"geometry":{"x":168105.26999999955,"y":2543923.0800000019}},{"attributes":{"ID":407394,"DIS_CODE":0,"TOWNNAME":"中西區","LI":"建國里","LIN":"20鄰","STREET":"民生路","SECT":"一段","MAREA":" ","LANE":"１３２巷","ALLEY":" ","HOUSE_NO":"２８號","E_COORD97":168102.19,"N_COORD97":2543923.0800000001,"ADDRESS":"民生路一段１３２巷２８號","OBJECTID":407370},"geometry":{"x":168102.18999999948,"y":2543923.0800000019}},{"attributes":{"ID":407395,"DIS_CODE":0,"TOWNNAME":"中西區","LI":"建國里","LIN":"20鄰","STREET":"民生路","SECT":"一段","MAREA":" ","LANE":"１３２巷","ALLEY":" ","HOUSE_NO":"３０號","E_COORD97":168096.37,"N_COORD97":2543926.52,"ADDRESS":"民生路一段１３２巷３０號","OBJECTID":407371},"geometry":{"x":168096.37000000104,"y":2543926.5200000014}},{"attributes":{"ID":407396,"DIS_CODE":0,"TOWNNAME":"中西區","LI":"建國里","LIN":"20鄰","STREET":"新美街","SECT":" ","MAREA":" ","LANE":"５０巷","ALLEY":" ","HOUSE_NO":"１１號","E_COORD97":168056.14999999999,"N_COORD97":2543966.6600000001,"ADDRESS":"新美街５０巷１１號","OBJECTID":407372},"geometry":{"x":168056.15000000037,"y":2543966.660000002}},{"attributes":{"ID":407397,"DIS_CODE":0,"TOWNNAME":"中西區","LI":"建國里","LIN":"20鄰","STREET":"新美街","SECT":" ","MAREA":" ","LANE":"５０巷","ALLEY":" ","HOUSE_NO":"１３號","E_COORD97":168052.69,"N_COORD97":2543958.54,"ADDRESS":"新美街５０巷１３號","OBJECTID":407373},"geometry":{"x":168052.69000000041,"y":2543958.5400000028}},{"attributes":{"ID":407398,"DIS_CODE":0,"TOWNNAME":"中西區","LI":"建國里","LIN":"20鄰","STREET":"新美街","SECT":" ","MAREA":" ","LANE":"５０巷","ALLEY":" ","HOUSE_NO":"１５號","E_COORD97":168059.92000000001,"N_COORD97":2543956.4300000002,"ADDRESS":"新美街５０巷１５號","OBJECTID":407374},"geometry":{"x":168059.92000000086,"y":2543956.4299999978}},{"attributes":{"ID":407399,"DIS_CODE":0,"TOWNNAME":"中西區","LI":"建國里","LIN":"20鄰","STREET":"新美街","SECT":" ","MAREA":" ","LANE":"５０巷","ALLEY":" ","HOUSE_NO":"１７號","E_COORD97":168067.63,"N_COORD97":2543952.4700000002,"ADDRESS":"新美街５０巷１７號","OBJECTID":407375},"geometry":{"x":168067.62999999989,"y":2543952.4700000007}},{"attributes":{"ID":407400,"DIS_CODE":0,"TOWNNAME":"中西區","LI":"建國里","LIN":"20鄰","STREET":"新美街","SECT":" ","MAREA":" ","LANE":"５０巷","ALLEY":" ","HOUSE_NO":"１９號","E_COORD97":168071.38,"N_COORD97":2543951.7000000002,"ADDRESS":"新美街５０巷１９號","OBJECTID":407376},"geometry":{"x":168071.37999999989,"y":2543951.7000000011}},{"attributes":{"ID":407401,"DIS_CODE":0,"TOWNNAME":"中西區","LI":"建國里","LIN":"20鄰","STREET":"新美街","SECT":" ","MAREA":" ","LANE":"５０巷","ALLEY":" ","HOUSE_NO":"２１號","E_COORD97":168075.26000000001,"N_COORD97":2543950.6699999999,"ADDRESS":"新美街５０巷２１號","OBJECTID":407377},"geometry":{"x":168075.25999999978,"y":2543950.6699999999}},{"attributes":{"ID":407402,"DIS_CODE":0,"TOWNNAME":"中西區","LI":"建國里","LIN":"20鄰","STREET":"新美街","SECT":" ","MAREA":" ","LANE":"５０巷","ALLEY":" ","HOUSE_NO":"２３號","E_COORD97":168072.26000000001,"N_COORD97":2543964.6600000001,"ADDRESS":"新美街５０巷２３號","OBJECTID":407378},"geometry":{"x":168072.26000000164,"y":2543964.6600000001}},{"attributes":{"ID":407403,"DIS_CODE":0,"TOWNNAME":"中西區","LI":"建國里","LIN":"20鄰","STREET":"新美街","SECT":" ","MAREA":" ","LANE":"５０巷","ALLEY":" ","HOUSE_NO":"２５號","E_COORD97":168078.89000000001,"N_COORD97":2543971.5800000001,"ADDRESS":"新美街５０巷２５號","OBJECTID":407379},"geometry":{"x":168078.8900000006,"y":2543971.5800000001}},{"attributes":{"ID":407404,"DIS_CODE":0,"TOWNNAME":"東區","LI":"裕農里","LIN":"13鄰","STREET":"裕豐街","SECT":" ","MAREA":" ","LANE":"２４２巷","ALLEY":" ","HOUSE_NO":"２號","E_COORD97":170817.09,"N_COORD97":2543243.5899999999,"ADDRESS":"裕豐街２４２巷２號","OBJECTID":407380},"geometry":{"x":170817.09000000078,"y":2543243.5900000036}},{"attributes":{"ID":407405,"DIS_CODE":0,"TOWNNAME":"中西區","LI":"建國里","LIN":"20鄰","STREET":"新美街","SECT":" ","MAREA":" ","LANE":"５０巷","ALLEY":" ","HOUSE_NO":"２７號","E_COORD97":168086.84,"N_COORD97":2543974.3700000001,"ADDRESS":"新美街５０巷２７號","OBJECTID":407381},"geometry":{"x":168086.83999999985,"y":2543974.370000001}},{"attributes":{"ID":407406,"DIS_CODE":0,"TOWNNAME":"麻豆區","LI":"\u25A0江里","LIN":"22鄰","STREET":"民權路","SECT":" ","MAREA":" ","LANE":"９１巷","ALLEY":" ","HOUSE_NO":"５８號","E_COORD97":173580.48999999999,"N_COORD97":2564534.9500000002,"ADDRESS":"民權路９１巷５８號","OBJECTID":407382},"geometry":{"x":173580.48999999929,"y":2564534.9499999993}},{"attributes":{"ID":407407,"DIS_CODE":0,"TOWNNAME":"麻豆區","LI":"\u25A0江里","LIN":"22鄰","STREET":"民權路","SECT":" ","MAREA":" ","LANE":"９１巷","ALLEY":" ","HOUSE_NO":"６０號","E_COORD97":173575.07999999999,"N_COORD97":2564534.2999999998,"ADDRESS":"民權路９１巷６０號","OBJECTID":407383},"geometry":{"x":173575.08000000101,"y":2564534.3000000007}},{"attributes":{"ID":407408,"DIS_CODE":0,"TOWNNAME":"麻豆區","LI":"\u25A0江里","LIN":"22鄰","STREET":"民權路","SECT":" ","MAREA":" ","LANE":"９１巷","ALLEY":" ","HOUSE_NO":"６２號","E_COORD97":173557.63,"N_COORD97":2564527.29,"ADDRESS":"民權路９１巷６２號","OBJECTID":407384},"geometry":{"x":173557.63000000082,"y":2564527.290000001}},{"attributes":{"ID":407409,"DIS_CODE":0,"TOWNNAME":"麻豆區","LI":"\u25A0江里","LIN":"22鄰","STREET":"民權路","SECT":" ","MAREA":" ","LANE":"９１巷","ALLEY":" ","HOUSE_NO":"６４號","E_COORD97":173557.06,"N_COORD97":2564531.7599999998,"ADDRESS":"民權路９１巷６４號","OBJECTID":407385},"geometry":{"x":173557.05999999959,"y":2564531.7600000016}},{"attributes":{"ID":407410,"DIS_CODE":0,"TOWNNAME":"麻豆區","LI":"\u25A0江里","LIN":"22鄰","STREET":"民權路","SECT":" ","MAREA":" ","LANE":"９１巷","ALLEY":" ","HOUSE_NO":"６６號","E_COORD97":173556.48999999999,"N_COORD97":2564535.8399999999,"ADDRESS":"民權路９１巷６６號","OBJECTID":407386},"geometry":{"x":173556.49000000022,"y":2564535.8399999999}},{"attributes":{"ID":407411,"DIS_CODE":0,"TOWNNAME":"麻豆區","LI":"\u25A0江里","LIN":"22鄰","STREET":"民權路","SECT":" ","MAREA":" ","LANE":"９１巷","ALLEY":" ","HOUSE_NO":"６８號","E_COORD97":173556.23000000001,"N_COORD97":2564540.21,"ADDRESS":"民權路９１巷６８號","OBJECTID":407387},"geometry":{"x":173556.23000000138,"y":2564540.2100000028}},{"attributes":{"ID":407412,"DIS_CODE":0,"TOWNNAME":"麻豆區","LI":"\u25A0江里","LIN":"22鄰","STREET":"民權路","SECT":" ","MAREA":" ","LANE":"９１巷","ALLEY":" ","HOUSE_NO":"７０號","E_COORD97":173556.48000000001,"N_COORD97":2564544.2599999998,"ADDRESS":"民權路９１巷７０號","OBJECTID":407388},"geometry":{"x":173556.48000000045,"y":2564544.2600000035}},{"attributes":{"ID":407413,"DIS_CODE":0,"TOWNNAME":"中西區","LI":"建國里","LIN":"20鄰","STREET":"新美街","SECT":" ","MAREA":" ","LANE":"５０巷","ALLEY":" ","HOUSE_NO":"３３號","E_COORD97":168086.10999999999,"N_COORD97":2543967.21,"ADDRESS":"新美街５０巷３３號","OBJECTID":407389},"geometry":{"x":168086.11000000127,"y":2543967.2100000028}},{"attributes":{"ID":407414,"DIS_CODE":0,"TOWNNAME":"新營區","LI":"新北里","LIN":"22鄰","STREET":"民生路","SECT":" ","MAREA":" ","LANE":"３５６巷","ALLEY":" ","HOUSE_NO":"２５號","E_COORD97":178952.88,"N_COORD97":2579290.8999999999,"ADDRESS":"民生路３５６巷２５號","OBJECTID":407390},"geometry":{"x":178952.87999999989,"y":2579290.9000000004}},{"attributes":{"ID":407415,"DIS_CODE":0,"TOWNNAME":"新營區","LI":"新北里","LIN":"22鄰","STREET":"民生路","SECT":" ","MAREA":" ","LANE":"３５６巷","ALLEY":" ","HOUSE_NO":"３５號","E_COORD97":178981.56,"N_COORD97":2579294.0899999999,"ADDRESS":"民生路３５６巷３５號","OBJECTID":407391},"geometry":{"x":178981.55999999959,"y":2579294.0900000017}},{"attributes":{"ID":407416,"DIS_CODE":0,"TOWNNAME":"新營區","LI":"新北里","LIN":"22鄰","STREET":"民生路","SECT":" ","MAREA":" ","LANE":"３５６巷","ALLEY":" ","HOUSE_NO":"３號","E_COORD97":178876.95000000001,"N_COORD97":2579283.5099999998,"ADDRESS":"民生路３５６巷３號","OBJECTID":407392},"geometry":{"x":178876.95000000112,"y":2579283.5099999998}},{"attributes":{"ID":407417,"DIS_CODE":0,"TOWNNAME":"新營區","LI":"新北里","LIN":"22鄰","STREET":"民生路","SECT":" ","MAREA":" ","LANE":"３５６巷","ALLEY":" ","HOUSE_NO":"７１號","E_COORD97":179073.57999999999,"N_COORD97":2579300.29,"ADDRESS":"民生路３５６巷７１號","OBJECTID":407393},"geometry":{"x":179073.58000000007,"y":2579300.2899999991}},{"attributes":{"ID":407418,"DIS_CODE":0,"TOWNNAME":"新營區","LI":"新北里","LIN":"22鄰","STREET":"民生路","SECT":" ","MAREA":" ","LANE":"３５６巷","ALLEY":" ","HOUSE_NO":"５號","E_COORD97":178887.13,"N_COORD97":2579287.8900000001,"ADDRESS":"民生路３５６巷５號","OBJECTID":407394},"geometry":{"x":178887.13000000082,"y":2579287.8900000006}},{"attributes":{"ID":407419,"DIS_CODE":0,"TOWNNAME":"新營區","LI":"新北里","LIN":"22鄰","STREET":"民生路","SECT":" ","MAREA":" ","LANE":"３５６巷","ALLEY":" ","HOUSE_NO":"２４號","E_COORD97":179020.31,"N_COORD97":2579276.1800000002,"ADDRESS":"民生路３５６巷２４號","OBJECTID":407395},"geometry":{"x":179020.30999999959,"y":2579276.1800000016}},{"attributes":{"ID":407420,"DIS_CODE":0,"TOWNNAME":"新營區","LI":"新北里","LIN":"22鄰","STREET":"民生路","SECT":" ","MAREA":" ","LANE":"３５６巷","ALLEY":" ","HOUSE_NO":"９號","E_COORD97":178897.29999999999,"N_COORD97":2579285.6299999999,"ADDRESS":"民生路３５６巷９號","OBJECTID":407396},"geometry":{"x":178897.29999999981,"y":2579285.6300000027}},{"attributes":{"ID":407421,"DIS_CODE":0,"TOWNNAME":"新營區","LI":"新北里","LIN":"22鄰","STREET":"民生路","SECT":" ","MAREA":" ","LANE":"３５６巷","ALLEY":" ","HOUSE_NO":"３９號","E_COORD97":178992.81,"N_COORD97":2579295.1400000001,"ADDRESS":"民生路３５６巷３９號","OBJECTID":407397},"geometry":{"x":178992.81000000052,"y":2579295.1400000025}},{"attributes":{"ID":407422,"DIS_CODE":0,"TOWNNAME":"新營區","LI":"新北里","LIN":"22鄰","STREET":"民生路","SECT":" ","MAREA":" ","LANE":"３５６巷","ALLEY":" ","HOUSE_NO":"３３號","E_COORD97":178975.41,"N_COORD97":2579293.0099999998,"ADDRESS":"民生路３５６巷３３號","OBJECTID":407398},"geometry":{"x":178975.41000000108,"y":2579293.0099999998}},{"attributes":{"ID":407423,"DIS_CODE":0,"TOWNNAME":"新營區","LI":"新北里","LIN":"22鄰","STREET":"民生路","SECT":" ","MAREA":" ","LANE":"３５６巷","ALLEY":" ","HOUSE_NO":"４９號","E_COORD97":179020.42999999999,"N_COORD97":2579297.2200000002,"ADDRESS":"民生路３５６巷４９號","OBJECTID":407399},"geometry":{"x":179020.43000000156,"y":2579297.2200000044}},{"attributes":{"ID":407424,"DIS_CODE":0,"TOWNNAME":"新營區","LI":"新北里","LIN":"22鄰","STREET":"民生路","SECT":" ","MAREA":" ","LANE":"３５６巷","ALLEY":" ","HOUSE_NO":"２３號","E_COORD97":178948.79000000001,"N_COORD97":2579290.9199999999,"ADDRESS":"民生路３５６巷２３號","OBJECTID":407400},"geometry":{"x":178948.7900000019,"y":2579290.9199999999}}]}