{"displayFieldName":"TOWNNAME","fieldAliases":{"ID":"ID","DIS_CODE":"DIS_CODE","TOWNNAME":"TOWNNAME","LI":"LI","LIN":"LIN","STREET":"STREET","SECT":"SECT","MAREA":"MAREA","LANE":"LANE","ALLEY":"ALLEY","HOUSE_NO":"HOUSE_NO","E_COORD97":"E_COORD97","N_COORD97":"N_COORD97","ADDRESS":"ADDRESS","OBJECTID":"OBJECTID"},"geometryType":"esriGeometryPoint","spatialReference":{"wkid":102443,"latestWkid":3826},"fields":[{"name":"ID","type":"esriFieldTypeDouble","alias":"ID"},{"name":"DIS_CODE","type":"esriFieldTypeInteger","alias":"DIS_CODE"},{"name":"TOWNNAME","type":"esriFieldTypeString","alias":"TOWNNAME","length":8},{"name":"LI","type":"esriFieldTypeString","alias":"LI","length":8},{"name":"LIN","type":"esriFieldTypeString","alias":"LIN","length":12},{"name":"STREET","type":"esriFieldTypeString","alias":"STREET","length":20},{"name":"SECT","type":"esriFieldTypeString","alias":"SECT","length":8},{"name":"MAREA","type":"esriFieldTypeString","alias":"MAREA","length":12},{"name":"LANE","type":"esriFieldTypeString","alias":"LANE","length":10},{"name":"ALLEY","type":"esriFieldTypeString","alias":"ALLEY","length":10},{"name":"HOUSE_NO","type":"esriFieldTypeString","alias":"HOUSE_NO","length":20},{"name":"E_COORD97","type":"esriFieldTypeDouble","alias":"E_COORD97"},{"name":"N_COORD97","type":"esriFieldTypeDouble","alias":"N_COORD97"},{"name":"ADDRESS","type":"esriFieldTypeString","alias":"ADDRESS","length":50},{"name":"OBJECTID","type":"esriFieldTypeOID","alias":"OBJECTID"}],"features":[{"attributes":{"ID":129401,"DIS_CODE":0,"TOWNNAME":"安定區","LI":"港南里","LIN":"18鄰","STREET":" ","SECT":" ","MAREA":"港口","LANE":" ","ALLEY":" ","HOUSE_NO":"２４４之２７號","E_COORD97":171670.94,"N_COORD97":2554616.2999999998,"ADDRESS":"港口２４４之２７號","OBJECTID":129401},"geometry":{"x":171670.94000000134,"y":2554616.3000000007}},{"attributes":{"ID":129402,"DIS_CODE":0,"TOWNNAME":"安定區","LI":"蘇林里","LIN":"20鄰","STREET":" ","SECT":" ","MAREA":"蘇厝","LANE":" ","ALLEY":" ","HOUSE_NO":"２２８之２號","E_COORD97":173331.82000000001,"N_COORD97":2558831.2999999998,"ADDRESS":"蘇厝２２８之２號","OBJECTID":129402},"geometry":{"x":173331.8200000003,"y":2558831.3000000007}},{"attributes":{"ID":129403,"DIS_CODE":0,"TOWNNAME":"安定區","LI":"蘇林里","LIN":"20鄰","STREET":" ","SECT":" ","MAREA":"蘇厝","LANE":" ","ALLEY":" ","HOUSE_NO":"２２８之１２號","E_COORD97":173375.97,"N_COORD97":2558834.2999999998,"ADDRESS":"蘇厝２２８之１２號","OBJECTID":129403},"geometry":{"x":173375.96999999974,"y":2558834.3000000007}},{"attributes":{"ID":129404,"DIS_CODE":0,"TOWNNAME":"安定區","LI":"蘇林里","LIN":"20鄰","STREET":" ","SECT":" ","MAREA":"蘇厝","LANE":" ","ALLEY":" ","HOUSE_NO":"２２８之１１號","E_COORD97":173371.47,"N_COORD97":2558834.2999999998,"ADDRESS":"蘇厝２２８之１１號","OBJECTID":129404},"geometry":{"x":173371.46999999974,"y":2558834.3000000007}},{"attributes":{"ID":129405,"DIS_CODE":0,"TOWNNAME":"安定區","LI":"港尾里","LIN":"13鄰","STREET":" ","SECT":" ","MAREA":"港子尾","LANE":" ","ALLEY":" ","HOUSE_NO":"７６號之４","E_COORD97":171319.45000000001,"N_COORD97":2555991.2999999998,"ADDRESS":"港子尾７６號之４","OBJECTID":129405},"geometry":{"x":171319.45000000205,"y":2555991.3000000045}},{"attributes":{"ID":129406,"DIS_CODE":0,"TOWNNAME":"安定區","LI":"港南里","LIN":"13鄰","STREET":" ","SECT":" ","MAREA":"港口","LANE":" ","ALLEY":" ","HOUSE_NO":"１０７號之２","E_COORD97":171317.76000000001,"N_COORD97":2554468.2999999998,"ADDRESS":"港口１０７號之２","OBJECTID":129406},"geometry":{"x":171317.75999999978,"y":2554468.3000000007}},{"attributes":{"ID":129407,"DIS_CODE":0,"TOWNNAME":"安定區","LI":"安定里","LIN":"13鄰","STREET":" ","SECT":" ","MAREA":"安定","LANE":" ","ALLEY":" ","HOUSE_NO":"１１９號","E_COORD97":171924.72,"N_COORD97":2557727.3199999998,"ADDRESS":"安定１１９號","OBJECTID":129407},"geometry":{"x":171924.72000000067,"y":2557727.3200000022}},{"attributes":{"ID":129408,"DIS_CODE":0,"TOWNNAME":"學甲區","LI":"豐和里","LIN":"6鄰","STREET":" ","SECT":" ","MAREA":"美豐","LANE":" ","ALLEY":" ","HOUSE_NO":"４７號","E_COORD97":168172.19,"N_COORD97":2568791.8799999999,"ADDRESS":"美豐４７號","OBJECTID":129408},"geometry":{"x":168172.19000000134,"y":2568791.8800000008}},{"attributes":{"ID":129409,"DIS_CODE":0,"TOWNNAME":"安定區","LI":"港尾里","LIN":"14鄰","STREET":" ","SECT":" ","MAREA":"港子尾","LANE":" ","ALLEY":" ","HOUSE_NO":"８７之２號","E_COORD97":171347.59,"N_COORD97":2556092.2999999998,"ADDRESS":"港子尾８７之２號","OBJECTID":129409},"geometry":{"x":171347.59000000078,"y":2556092.3000000007}},{"attributes":{"ID":129410,"DIS_CODE":0,"TOWNNAME":"安定區","LI":"蘇林里","LIN":"18鄰","STREET":" ","SECT":" ","MAREA":"蘇厝","LANE":" ","ALLEY":" ","HOUSE_NO":"２０１之６號","E_COORD97":173381.42000000001,"N_COORD97":2558911.2999999998,"ADDRESS":"蘇厝２０１之６號","OBJECTID":129410},"geometry":{"x":173381.42000000086,"y":2558911.3000000026}},{"attributes":{"ID":129411,"DIS_CODE":0,"TOWNNAME":"安定區","LI":"蘇厝里","LIN":"20鄰","STREET":" ","SECT":" ","MAREA":"蘇厝","LANE":" ","ALLEY":" ","HOUSE_NO":"４７１號","E_COORD97":173204.32000000001,"N_COORD97":2558877.25,"ADDRESS":"蘇厝４７１號","OBJECTID":129411},"geometry":{"x":173204.32000000123,"y":2558877.2500000019}},{"attributes":{"ID":129412,"DIS_CODE":0,"TOWNNAME":"安定區","LI":"港南里","LIN":"17鄰","STREET":" ","SECT":" ","MAREA":"港口","LANE":" ","ALLEY":" ","HOUSE_NO":"１４０號之３７","E_COORD97":171656.64999999999,"N_COORD97":2554428.2999999998,"ADDRESS":"港口１４０號之３７","OBJECTID":129412},"geometry":{"x":171656.65000000037,"y":2554428.3000000045}},{"attributes":{"ID":129413,"DIS_CODE":0,"TOWNNAME":"安定區","LI":"新吉里","LIN":"7鄰","STREET":" ","SECT":" ","MAREA":"新吉","LANE":" ","ALLEY":" ","HOUSE_NO":"５８之２號","E_COORD97":168833.47,"N_COORD97":2553896.2999999998,"ADDRESS":"新吉５８之２號","OBJECTID":129413},"geometry":{"x":168833.46999999974,"y":2553896.3000000026}},{"attributes":{"ID":129414,"DIS_CODE":0,"TOWNNAME":"東區","LI":"富強里","LIN":"29鄰","STREET":"東門路","SECT":"二段","MAREA":" ","LANE":"３６５巷","ALLEY":"３３弄","HOUSE_NO":"１號地下層","E_COORD97":170857.89999999999,"N_COORD97":2542615.9399999999,"ADDRESS":"東門路二段３６５巷３３弄１號地下層","OBJECTID":129414},"geometry":{"x":170857.9000000013,"y":2542615.9399999995}},{"attributes":{"ID":129415,"DIS_CODE":0,"TOWNNAME":"安定區","LI":"新吉里","LIN":"4鄰","STREET":" ","SECT":" ","MAREA":"新吉","LANE":" ","ALLEY":" ","HOUSE_NO":"３１之１號","E_COORD97":169417.87,"N_COORD97":2554072.2999999998,"ADDRESS":"新吉３１之１號","OBJECTID":129415},"geometry":{"x":169417.87000000197,"y":2554072.3000000045}},{"attributes":{"ID":129416,"DIS_CODE":0,"TOWNNAME":"安定區","LI":"港尾里","LIN":"4鄰","STREET":" ","SECT":" ","MAREA":"港子尾","LANE":" ","ALLEY":" ","HOUSE_NO":"１６號之７","E_COORD97":171774.79999999999,"N_COORD97":2556203.2999999998,"ADDRESS":"港子尾１６號之７","OBJECTID":129416},"geometry":{"x":171774.80000000075,"y":2556203.3000000007}},{"attributes":{"ID":129417,"DIS_CODE":0,"TOWNNAME":"安定區","LI":"港南里","LIN":"4鄰","STREET":" ","SECT":" ","MAREA":"港口","LANE":" ","ALLEY":" ","HOUSE_NO":"２５之４１號","E_COORD97":171584.09,"N_COORD97":2554033.2999999998,"ADDRESS":"港口２５之４１號","OBJECTID":129417},"geometry":{"x":171584.08999999985,"y":2554033.3000000007}},{"attributes":{"ID":129418,"DIS_CODE":0,"TOWNNAME":"安定區","LI":"蘇林里","LIN":"18鄰","STREET":" ","SECT":" ","MAREA":"蘇厝","LANE":" ","ALLEY":" ","HOUSE_NO":"１９６之１號","E_COORD97":173268.05852200001,"N_COORD97":2558926.0117600001,"ADDRESS":"蘇厝１９６之１號","OBJECTID":129418},"geometry":{"x":173268.05852199998,"y":2558926.0117580015}},{"attributes":{"ID":129419,"DIS_CODE":0,"TOWNNAME":"安定區","LI":"蘇林里","LIN":"20鄰","STREET":" ","SECT":" ","MAREA":"蘇厝","LANE":" ","ALLEY":" ","HOUSE_NO":"２２７之９號","E_COORD97":173332.14000000001,"N_COORD97":2558822.2999999998,"ADDRESS":"蘇厝２２７號之９","OBJECTID":129419},"geometry":{"x":173332.1400000006,"y":2558822.3000000026}},{"attributes":{"ID":129420,"DIS_CODE":0,"TOWNNAME":"安定區","LI":"安加里","LIN":"14鄰","STREET":" ","SECT":" ","MAREA":"安定","LANE":" ","ALLEY":" ","HOUSE_NO":"３００號","E_COORD97":171713.87,"N_COORD97":2557485.6200000001,"ADDRESS":"安定３００號","OBJECTID":129420},"geometry":{"x":171713.87000000104,"y":2557485.6200000029}},{"attributes":{"ID":129421,"DIS_CODE":0,"TOWNNAME":"東區","LI":"崇明里","LIN":"6鄰","STREET":"大同路","SECT":"二段","MAREA":" ","LANE":"４４９巷","ALLEY":"２弄","HOUSE_NO":"３３號","E_COORD97":169732.03,"N_COORD97":2541345.4700000002,"ADDRESS":"大同路二段４４９巷２弄３３號","OBJECTID":129421},"geometry":{"x":169732.03000000026,"y":2541345.4700000007}},{"attributes":{"ID":129422,"DIS_CODE":0,"TOWNNAME":"東區","LI":"崇明里","LIN":"6鄰","STREET":"大同路","SECT":"二段","MAREA":" ","LANE":"４４９巷","ALLEY":"２弄","HOUSE_NO":"３５號","E_COORD97":169734.88,"N_COORD97":2541347.98,"ADDRESS":"大同路二段４４９巷２弄３５號","OBJECTID":129422},"geometry":{"x":169734.88000000082,"y":2541347.9800000023}},{"attributes":{"ID":129423,"DIS_CODE":0,"TOWNNAME":"東區","LI":"崇明里","LIN":"6鄰","STREET":"大同路","SECT":"二段","MAREA":" ","LANE":"４４９巷","ALLEY":"２弄","HOUSE_NO":"３７號","E_COORD97":169739.39999999999,"N_COORD97":2541349.9900000002,"ADDRESS":"大同路二段４４９巷２弄３７號","OBJECTID":129423},"geometry":{"x":169739.40000000037,"y":2541349.9900000021}},{"attributes":{"ID":129424,"DIS_CODE":0,"TOWNNAME":"東區","LI":"崇明里","LIN":"6鄰","STREET":"大同路","SECT":"二段","MAREA":" ","LANE":"４４９巷","ALLEY":"２弄","HOUSE_NO":"３９號","E_COORD97":169743.07999999999,"N_COORD97":2541353,"ADDRESS":"大同路二段４４９巷２弄３９號","OBJECTID":129424},"geometry":{"x":169743.08000000007,"y":2541353.0000000019}},{"attributes":{"ID":129425,"DIS_CODE":0,"TOWNNAME":"東區","LI":"崇明里","LIN":"6鄰","STREET":"大同路","SECT":"二段","MAREA":" ","LANE":"４４９巷","ALLEY":"２弄","HOUSE_NO":"４１號","E_COORD97":169746.76000000001,"N_COORD97":2541356.3500000001,"ADDRESS":"大同路二段４４９巷２弄４１號","OBJECTID":129425},"geometry":{"x":169746.75999999978,"y":2541356.3499999996}},{"attributes":{"ID":129426,"DIS_CODE":0,"TOWNNAME":"仁德區","LI":"二行里","LIN":"11鄰","STREET":"行大街","SECT":" ","MAREA":" ","LANE":"１７２巷","ALLEY":"２０弄","HOUSE_NO":"２號","E_COORD97":169981.5,"N_COORD97":2535139.75,"ADDRESS":"行大街１７２巷２０弄２號","OBJECTID":129426},"geometry":{"x":169981.50000000186,"y":2535139.7500000037}},{"attributes":{"ID":129427,"DIS_CODE":0,"TOWNNAME":"仁德區","LI":"上崙里","LIN":"11鄰","STREET":"德善路","SECT":" ","MAREA":" ","LANE":"３０５巷","ALLEY":"１３弄","HOUSE_NO":"２３１號","E_COORD97":174090.32000000001,"N_COORD97":2538197.0099999998,"ADDRESS":"德善路３０５巷１３弄２３１號","OBJECTID":129427},"geometry":{"x":174090.32000000216,"y":2538197.0100000016}},{"attributes":{"ID":129428,"DIS_CODE":0,"TOWNNAME":"東區","LI":"後甲里","LIN":"24鄰","STREET":"裕農路","SECT":" ","MAREA":" ","LANE":"６２１巷","ALLEY":"４５弄","HOUSE_NO":"１８號","E_COORD97":171558.45000000001,"N_COORD97":2543484.98,"ADDRESS":"裕農路６２１巷４５弄１８號","OBJECTID":129428},"geometry":{"x":171558.45000000205,"y":2543484.9800000004}},{"attributes":{"ID":129429,"DIS_CODE":0,"TOWNNAME":"東區","LI":"後甲里","LIN":"24鄰","STREET":"裕農路","SECT":" ","MAREA":" ","LANE":"６２１巷","ALLEY":"４５弄","HOUSE_NO":"２０號","E_COORD97":171545.17999999999,"N_COORD97":2543488.8399999999,"ADDRESS":"裕農路６２１巷４５弄２０號","OBJECTID":129429},"geometry":{"x":171545.18000000063,"y":2543488.8399999999}},{"attributes":{"ID":129430,"DIS_CODE":0,"TOWNNAME":"東區","LI":"後甲里","LIN":"24鄰","STREET":"裕農路","SECT":" ","MAREA":" ","LANE":"６２１巷","ALLEY":"４５弄","HOUSE_NO":"２２號","E_COORD97":171545.42000000001,"N_COORD97":2543481.3700000001,"ADDRESS":"裕農路６２１巷４５弄２２號","OBJECTID":129430},"geometry":{"x":171545.42000000086,"y":2543481.3700000029}},{"attributes":{"ID":129431,"DIS_CODE":0,"TOWNNAME":"東區","LI":"後甲里","LIN":"24鄰","STREET":"裕農路","SECT":" ","MAREA":" ","LANE":"６２１巷","ALLEY":"４５弄","HOUSE_NO":"２４號","E_COORD97":171546.63,"N_COORD97":2543474.3799999999,"ADDRESS":"裕農路６２１巷４５弄２４號","OBJECTID":129431},"geometry":{"x":171546.62999999896,"y":2543474.379999999}},{"attributes":{"ID":129432,"DIS_CODE":0,"TOWNNAME":"東區","LI":"後甲里","LIN":"24鄰","STREET":"裕農路","SECT":" ","MAREA":" ","LANE":"６２１巷","ALLEY":"４５弄","HOUSE_NO":"２８號","E_COORD97":171566.89000000001,"N_COORD97":2543470.0499999998,"ADDRESS":"裕農路６２１巷４５弄２８號","OBJECTID":129432},"geometry":{"x":171566.89000000153,"y":2543470.0500000026}},{"attributes":{"ID":129433,"DIS_CODE":0,"TOWNNAME":"仁德區","LI":"一甲里","LIN":"11鄰","STREET":"義林路","SECT":" ","MAREA":" ","LANE":"２５６巷","ALLEY":"２３３弄","HOUSE_NO":"３００號","E_COORD97":175325.82000000001,"N_COORD97":2542031.04,"ADDRESS":"義林路２５６巷２３３弄３００號","OBJECTID":129433},"geometry":{"x":175325.8200000003,"y":2542031.040000001}},{"attributes":{"ID":129434,"DIS_CODE":0,"TOWNNAME":"東區","LI":"德高里","LIN":"16鄰","STREET":"崇善路","SECT":" ","MAREA":" ","LANE":"１０８９巷","ALLEY":"１６弄","HOUSE_NO":"１４號","E_COORD97":171596.07999999999,"N_COORD97":2540515.0800000001,"ADDRESS":"崇善路１０８９巷１６弄１４號","OBJECTID":129434},"geometry":{"x":171596.08000000007,"y":2540515.0800000019}},{"attributes":{"ID":129435,"DIS_CODE":0,"TOWNNAME":"東區","LI":"德高里","LIN":"16鄰","STREET":"崇善路","SECT":" ","MAREA":" ","LANE":"１０８９巷","ALLEY":"１６弄","HOUSE_NO":"１６號","E_COORD97":171598.94,"N_COORD97":2540512.23,"ADDRESS":"崇善路１０８９巷１６弄１６號","OBJECTID":129435},"geometry":{"x":171598.94000000041,"y":2540512.2300000023}},{"attributes":{"ID":129436,"DIS_CODE":0,"TOWNNAME":"東區","LI":"德高里","LIN":"16鄰","STREET":"崇善路","SECT":" ","MAREA":" ","LANE":"１０８９巷","ALLEY":"１６弄","HOUSE_NO":"１８號","E_COORD97":171601.37,"N_COORD97":2540508.7999999998,"ADDRESS":"崇善路１０８９巷１６弄１８號","OBJECTID":129436},"geometry":{"x":171601.37000000197,"y":2540508.8000000026}},{"attributes":{"ID":129437,"DIS_CODE":0,"TOWNNAME":"東區","LI":"德高里","LIN":"16鄰","STREET":"崇善路","SECT":" ","MAREA":" ","LANE":"１０８９巷","ALLEY":"１６弄","HOUSE_NO":"２０號","E_COORD97":171601.95000000001,"N_COORD97":2540503.6499999999,"ADDRESS":"崇善路１０８９巷１６弄２０號","OBJECTID":129437},"geometry":{"x":171601.95000000019,"y":2540503.6500000004}},{"attributes":{"ID":129438,"DIS_CODE":0,"TOWNNAME":"東區","LI":"德高里","LIN":"16鄰","STREET":"崇善路","SECT":" ","MAREA":" ","LANE":"１０８９巷","ALLEY":"１６弄","HOUSE_NO":"２４號","E_COORD97":171604.66,"N_COORD97":2540494.9300000002,"ADDRESS":"崇善路１０８９巷１６弄２４號","OBJECTID":129438},"geometry":{"x":171604.66000000108,"y":2540494.9300000034}},{"attributes":{"ID":129439,"DIS_CODE":0,"TOWNNAME":"學甲區","LI":"明宜里","LIN":"6鄰","STREET":"宮西路","SECT":" ","MAREA":" ","LANE":" ","ALLEY":" ","HOUSE_NO":"６７號","E_COORD97":165739.35000000001,"N_COORD97":2570401.73,"ADDRESS":"宮西路６７號","OBJECTID":129439},"geometry":{"x":165739.35000000056,"y":2570401.7300000023}},{"attributes":{"ID":129440,"DIS_CODE":0,"TOWNNAME":"學甲區","LI":"明宜里","LIN":"6鄰","STREET":"宮西路","SECT":" ","MAREA":" ","LANE":" ","ALLEY":" ","HOUSE_NO":"６９號","E_COORD97":165735.14999999999,"N_COORD97":2570400.77,"ADDRESS":"宮西路６９號","OBJECTID":129440},"geometry":{"x":165735.1500000013,"y":2570400.7700000014}},{"attributes":{"ID":129441,"DIS_CODE":0,"TOWNNAME":"學甲區","LI":"明宜里","LIN":"6鄰","STREET":"宮西路","SECT":" ","MAREA":" ","LANE":" ","ALLEY":" ","HOUSE_NO":"７１號","E_COORD97":165730.95999999999,"N_COORD97":2570399.8100000001,"ADDRESS":"宮西路７１號","OBJECTID":129441},"geometry":{"x":165730.95999999996,"y":2570399.8100000042}},{"attributes":{"ID":129442,"DIS_CODE":0,"TOWNNAME":"安定區","LI":"新吉里","LIN":"13鄰","STREET":" ","SECT":" ","MAREA":"新吉","LANE":" ","ALLEY":" ","HOUSE_NO":"１１６號","E_COORD97":169438.72,"N_COORD97":2554009.25,"ADDRESS":"新吉１１６號","OBJECTID":129442},"geometry":{"x":169438.71999999881,"y":2554009.25}},{"attributes":{"ID":129443,"DIS_CODE":0,"TOWNNAME":"安定區","LI":"港尾里","LIN":"14鄰","STREET":" ","SECT":" ","MAREA":"港子尾","LANE":" ","ALLEY":" ","HOUSE_NO":"８８號之１","E_COORD97":171316.82999999999,"N_COORD97":2556125.2999999998,"ADDRESS":"港子尾８８號之１","OBJECTID":129443},"geometry":{"x":171316.83000000194,"y":2556125.3000000007}},{"attributes":{"ID":129444,"DIS_CODE":0,"TOWNNAME":"安定區","LI":"港南里","LIN":"4鄰","STREET":" ","SECT":" ","MAREA":"港口","LANE":" ","ALLEY":" ","HOUSE_NO":"２５之１０號","E_COORD97":171525.39000000001,"N_COORD97":2554053.2999999998,"ADDRESS":"港口２５之１０號","OBJECTID":129444},"geometry":{"x":171525.38999999966,"y":2554053.3000000026}},{"attributes":{"ID":129445,"DIS_CODE":0,"TOWNNAME":"安定區","LI":"蘇林里","LIN":"18鄰","STREET":" ","SECT":" ","MAREA":"蘇厝","LANE":" ","ALLEY":" ","HOUSE_NO":"２０３之３號","E_COORD97":173329.42000000001,"N_COORD97":2558903.2999999998,"ADDRESS":"蘇厝２０３之３號","OBJECTID":129445},"geometry":{"x":173329.41999999993,"y":2558903.3000000045}},{"attributes":{"ID":129446,"DIS_CODE":0,"TOWNNAME":"安定區","LI":"港尾里","LIN":"14鄰","STREET":" ","SECT":" ","MAREA":"港子尾","LANE":" ","ALLEY":" ","HOUSE_NO":"８７之５號","E_COORD97":171340.69,"N_COORD97":2556100.2999999998,"ADDRESS":"港子尾８７之５號","OBJECTID":129446},"geometry":{"x":171340.69000000134,"y":2556100.3000000026}},{"attributes":{"ID":129447,"DIS_CODE":0,"TOWNNAME":"安定區","LI":"港南里","LIN":"17鄰","STREET":" ","SECT":" ","MAREA":"港口","LANE":" ","ALLEY":" ","HOUSE_NO":"１４０之３６號","E_COORD97":171658.14000000001,"N_COORD97":2554432.2999999998,"ADDRESS":"港口１４０之３６號","OBJECTID":129447},"geometry":{"x":171658.13999999966,"y":2554432.3000000026}},{"attributes":{"ID":129448,"DIS_CODE":0,"TOWNNAME":"安定區","LI":"港南里","LIN":"17鄰","STREET":" ","SECT":" ","MAREA":"港口","LANE":" ","ALLEY":" ","HOUSE_NO":"１４１號之１","E_COORD97":171533.92999999999,"N_COORD97":2554433.2999999998,"ADDRESS":"港口１４１號之１","OBJECTID":129448},"geometry":{"x":171533.9299999997,"y":2554433.3000000007}},{"attributes":{"ID":129449,"DIS_CODE":0,"TOWNNAME":"安定區","LI":"港尾里","LIN":"15鄰","STREET":" ","SECT":" ","MAREA":"港子尾","LANE":" ","ALLEY":" ","HOUSE_NO":"８９號","E_COORD97":171348.09,"N_COORD97":2556109.2599999998,"ADDRESS":"港子尾８９號","OBJECTID":129449},"geometry":{"x":171348.08999999985,"y":2556109.2600000016}},{"attributes":{"ID":129450,"DIS_CODE":0,"TOWNNAME":"安定區","LI":"港南里","LIN":"4鄰","STREET":" ","SECT":" ","MAREA":"港口","LANE":" ","ALLEY":" ","HOUSE_NO":"２５之９號","E_COORD97":171527.94,"N_COORD97":2554056.2999999998,"ADDRESS":"港口２５之９號","OBJECTID":129450},"geometry":{"x":171527.94000000041,"y":2554056.3000000026}},{"attributes":{"ID":129451,"DIS_CODE":0,"TOWNNAME":"安定區","LI":"港南里","LIN":"18鄰","STREET":" ","SECT":" ","MAREA":"港口","LANE":" ","ALLEY":" ","HOUSE_NO":"２４４號之１","E_COORD97":171778.32999999999,"N_COORD97":2554698.2999999998,"ADDRESS":"港口２４４號之１","OBJECTID":129451},"geometry":{"x":171778.33000000101,"y":2554698.3000000007}},{"attributes":{"ID":129452,"DIS_CODE":0,"TOWNNAME":"安定區","LI":"蘇林里","LIN":"20鄰","STREET":" ","SECT":" ","MAREA":"蘇厝","LANE":" ","ALLEY":" ","HOUSE_NO":"２２７之７號","E_COORD97":173341.51999999999,"N_COORD97":2558822.2999999998,"ADDRESS":"蘇厝２２７之７號","OBJECTID":129452},"geometry":{"x":173341.51999999955,"y":2558822.3000000026}},{"attributes":{"ID":129453,"DIS_CODE":0,"TOWNNAME":"安定區","LI":"蘇厝里","LIN":"20鄰","STREET":" ","SECT":" ","MAREA":"蘇厝","LANE":" ","ALLEY":" ","HOUSE_NO":"４７９號","E_COORD97":173244.01999999999,"N_COORD97":2558961.25,"ADDRESS":"蘇厝４７９號","OBJECTID":129453},"geometry":{"x":173244.02000000142,"y":2558961.2500000019}},{"attributes":{"ID":129454,"DIS_CODE":0,"TOWNNAME":"安定區","LI":"港尾里","LIN":"13鄰","STREET":" ","SECT":" ","MAREA":"港子尾","LANE":" ","ALLEY":" ","HOUSE_NO":"７５號","E_COORD97":171395.79000000001,"N_COORD97":2556022.2599999998,"ADDRESS":"港子尾７５號","OBJECTID":129454},"geometry":{"x":171395.79000000004,"y":2556022.2600000016}},{"attributes":{"ID":129455,"DIS_CODE":0,"TOWNNAME":"安定區","LI":"蘇林里","LIN":"1鄰","STREET":" ","SECT":" ","MAREA":"蘇厝","LANE":" ","ALLEY":" ","HOUSE_NO":"１０號之１１","E_COORD97":173655.45000000001,"N_COORD97":2558568.29,"ADDRESS":"蘇厝１０號之１１","OBJECTID":129455},"geometry":{"x":173655.45000000205,"y":2558568.2899999991}},{"attributes":{"ID":129456,"DIS_CODE":0,"TOWNNAME":"東區","LI":"德高里","LIN":"16鄰","STREET":"崇善路","SECT":" ","MAREA":" ","LANE":"１０８９巷","ALLEY":"１６弄","HOUSE_NO":"２６號","E_COORD97":171605.23999999999,"N_COORD97":2540490.6400000001,"ADDRESS":"崇善路１０８９巷１６弄２６號","OBJECTID":129456},"geometry":{"x":171605.24000000022,"y":2540490.6400000006}},{"attributes":{"ID":129457,"DIS_CODE":0,"TOWNNAME":"東區","LI":"德高里","LIN":"16鄰","STREET":"崇善路","SECT":" ","MAREA":" ","LANE":"１０８９巷","ALLEY":"１６弄","HOUSE_NO":"２８號","E_COORD97":171605.81,"N_COORD97":2540486.0699999998,"ADDRESS":"崇善路１０８９巷１６弄２８號","OBJECTID":129457},"geometry":{"x":171605.80999999959,"y":2540486.0700000022}},{"attributes":{"ID":129458,"DIS_CODE":0,"TOWNNAME":"東區","LI":"東安里","LIN":"11鄰","STREET":"長榮路","SECT":"二段","MAREA":" ","LANE":"３２巷","ALLEY":"４６弄","HOUSE_NO":"１６３號","E_COORD97":170117.17000000001,"N_COORD97":2543095.5600000001,"ADDRESS":"長榮路二段３２巷４６弄１６３號","OBJECTID":129458},"geometry":{"x":170117.16999999993,"y":2543095.5600000042}},{"attributes":{"ID":129459,"DIS_CODE":0,"TOWNNAME":"東區","LI":"東安里","LIN":"11鄰","STREET":"長榮路","SECT":"二段","MAREA":" ","LANE":"３２巷","ALLEY":"４６弄","HOUSE_NO":"１６５號","E_COORD97":170115.54000000001,"N_COORD97":2543098.8199999998,"ADDRESS":"長榮路二段３２巷４６弄１６５號","OBJECTID":129459},"geometry":{"x":170115.54000000097,"y":2543098.8200000003}},{"attributes":{"ID":129460,"DIS_CODE":0,"TOWNNAME":"東區","LI":"東安里","LIN":"11鄰","STREET":"長榮路","SECT":"二段","MAREA":" ","LANE":"３２巷","ALLEY":"４６弄","HOUSE_NO":"１６７號","E_COORD97":170114.63,"N_COORD97":2543103.4500000002,"ADDRESS":"長榮路二段３２巷４６弄１６７號","OBJECTID":129460},"geometry":{"x":170114.63000000082,"y":2543103.4499999993}},{"attributes":{"ID":129461,"DIS_CODE":0,"TOWNNAME":"東區","LI":"東安里","LIN":"11鄰","STREET":"長榮路","SECT":"二段","MAREA":" ","LANE":"３２巷","ALLEY":"４６弄","HOUSE_NO":"１６９號","E_COORD97":170112.45000000001,"N_COORD97":2543106.1699999999,"ADDRESS":"長榮路二段３２巷４６弄１６９號","OBJECTID":129461},"geometry":{"x":170112.45000000205,"y":2543106.1699999999}},{"attributes":{"ID":129462,"DIS_CODE":0,"TOWNNAME":"東區","LI":"東安里","LIN":"11鄰","STREET":"長榮路","SECT":"二段","MAREA":" ","LANE":"３２巷","ALLEY":"４６弄","HOUSE_NO":"１８１號","E_COORD97":170109.88,"N_COORD97":2543059.25,"ADDRESS":"長榮路二段３２巷４６弄１８１號","OBJECTID":129462},"geometry":{"x":170109.88000000082,"y":2543059.25}},{"attributes":{"ID":129463,"DIS_CODE":0,"TOWNNAME":"東區","LI":"東安里","LIN":"11鄰","STREET":"長榮路","SECT":"二段","MAREA":" ","LANE":"３２巷","ALLEY":"４６弄","HOUSE_NO":"１８５號","E_COORD97":170113.03,"N_COORD97":2543051.29,"ADDRESS":"長榮路二段３２巷４６弄１８５號","OBJECTID":129463},"geometry":{"x":170113.03000000026,"y":2543051.2899999991}},{"attributes":{"ID":129464,"DIS_CODE":0,"TOWNNAME":"東區","LI":"東安里","LIN":"11鄰","STREET":"長榮路","SECT":"二段","MAREA":" ","LANE":"３２巷","ALLEY":"４６弄","HOUSE_NO":"１４１號","E_COORD97":170125.70999999999,"N_COORD97":2543100.2999999998,"ADDRESS":"長榮路二段３２巷４６弄１４１號","OBJECTID":129464},"geometry":{"x":170125.71000000183,"y":2543100.3000000007}},{"attributes":{"ID":129465,"DIS_CODE":0,"TOWNNAME":"東區","LI":"東安里","LIN":"11鄰","STREET":"長榮路","SECT":"二段","MAREA":" ","LANE":"３２巷","ALLEY":"４６弄","HOUSE_NO":"１４３號","E_COORD97":170125.07000000001,"N_COORD97":2543092.0699999998,"ADDRESS":"長榮路二段３２巷４６弄１４３號","OBJECTID":129465},"geometry":{"x":170125.0700000003,"y":2543092.0700000022}},{"attributes":{"ID":129466,"DIS_CODE":0,"TOWNNAME":"東區","LI":"東安里","LIN":"11鄰","STREET":"長榮路","SECT":"二段","MAREA":" ","LANE":"３２巷","ALLEY":"４６弄","HOUSE_NO":"１４５號","E_COORD97":170128.60999999999,"N_COORD97":2543085.8100000001,"ADDRESS":"長榮路二段３２巷４６弄１４５號","OBJECTID":129466},"geometry":{"x":170128.6100000022,"y":2543085.8100000005}},{"attributes":{"ID":129467,"DIS_CODE":0,"TOWNNAME":"東區","LI":"東安里","LIN":"11鄰","STREET":"長榮路","SECT":"二段","MAREA":" ","LANE":"３２巷","ALLEY":"４６弄","HOUSE_NO":"１４９號","E_COORD97":170129.42999999999,"N_COORD97":2543077.4700000002,"ADDRESS":"長榮路二段３２巷４６弄１４９號","OBJECTID":129467},"geometry":{"x":170129.43000000063,"y":2543077.4700000025}},{"attributes":{"ID":129468,"DIS_CODE":0,"TOWNNAME":"永康區","LI":"成功里","LIN":"19鄰","STREET":"忠孝路","SECT":" ","MAREA":" ","LANE":"１９５巷","ALLEY":" ","HOUSE_NO":"６０號","E_COORD97":171944.18043099999,"N_COORD97":2544827.0194399999,"ADDRESS":"忠孝路１９５巷６０號","OBJECTID":129468},"geometry":{"x":171944.18043099996,"y":2544827.0194380004}},{"attributes":{"ID":129469,"DIS_CODE":0,"TOWNNAME":"學甲區","LI":"明宜里","LIN":"6鄰","STREET":"宮西路","SECT":" ","MAREA":" ","LANE":" ","ALLEY":" ","HOUSE_NO":"７３號","E_COORD97":165726.76999999999,"N_COORD97":2570398.8599999999,"ADDRESS":"宮西路７３號","OBJECTID":129469},"geometry":{"x":165726.76999999955,"y":2570398.8600000013}},{"attributes":{"ID":129470,"DIS_CODE":0,"TOWNNAME":"安定區","LI":"蘇林里","LIN":"1鄰","STREET":" ","SECT":" ","MAREA":"蘇厝","LANE":" ","ALLEY":" ","HOUSE_NO":"８之１０號","E_COORD97":173675.17000000001,"N_COORD97":2558529.2999999998,"ADDRESS":"蘇厝８之１０號","OBJECTID":129470},"geometry":{"x":173675.16999999993,"y":2558529.3000000007}},{"attributes":{"ID":129471,"DIS_CODE":0,"TOWNNAME":"東區","LI":"東安里","LIN":"11鄰","STREET":"長榮路","SECT":"二段","MAREA":" ","LANE":"３２巷","ALLEY":"４６弄","HOUSE_NO":"１５５號","E_COORD97":170135.32999999999,"N_COORD97":2543068.1200000001,"ADDRESS":"長榮路二段３２巷４６弄１５５號","OBJECTID":129471},"geometry":{"x":170135.33000000101,"y":2543068.120000001}},{"attributes":{"ID":129472,"DIS_CODE":0,"TOWNNAME":"東區","LI":"東安里","LIN":"11鄰","STREET":"長榮路","SECT":"二段","MAREA":" ","LANE":"３２巷","ALLEY":"４６弄","HOUSE_NO":"１５７號","E_COORD97":170128.34,"N_COORD97":2543066.6699999999,"ADDRESS":"長榮路二段３２巷４６弄１５７號","OBJECTID":129472},"geometry":{"x":170128.34000000078,"y":2543066.6699999981}},{"attributes":{"ID":129473,"DIS_CODE":0,"TOWNNAME":"東區","LI":"東安里","LIN":"11鄰","STREET":"長榮路","SECT":"二段","MAREA":" ","LANE":"３２巷","ALLEY":"４６弄","HOUSE_NO":"１５９號","E_COORD97":170122.35000000001,"N_COORD97":2543074.1099999999,"ADDRESS":"長榮路二段３２巷４６弄１５９號","OBJECTID":129473},"geometry":{"x":170122.34999999963,"y":2543074.1100000013}},{"attributes":{"ID":129474,"DIS_CODE":0,"TOWNNAME":"東區","LI":"東安里","LIN":"11鄰","STREET":"長榮路","SECT":"二段","MAREA":" ","LANE":"３２巷","ALLEY":"４６弄","HOUSE_NO":"１６１號","E_COORD97":170119.70999999999,"N_COORD97":2543085.3999999999,"ADDRESS":"長榮路二段３２巷４６弄１６１號","OBJECTID":129474},"geometry":{"x":170119.71000000089,"y":2543085.4000000004}},{"attributes":{"ID":129475,"DIS_CODE":0,"TOWNNAME":"東區","LI":"東安里","LIN":"11鄰","STREET":"長榮路","SECT":"二段","MAREA":" ","LANE":"３２巷","ALLEY":"４６弄","HOUSE_NO":"１７１號","E_COORD97":170096.92999999999,"N_COORD97":2543099.46,"ADDRESS":"長榮路二段３２巷４６弄１７１號","OBJECTID":129475},"geometry":{"x":170096.93000000156,"y":2543099.4600000009}},{"attributes":{"ID":129476,"DIS_CODE":0,"TOWNNAME":"東區","LI":"東安里","LIN":"11鄰","STREET":"長榮路","SECT":"二段","MAREA":" ","LANE":"３２巷","ALLEY":"４６弄","HOUSE_NO":"１７３號","E_COORD97":170094.38,"N_COORD97":2543085.5600000001,"ADDRESS":"長榮路二段３２巷４６弄１７３號","OBJECTID":129476},"geometry":{"x":170094.38000000082,"y":2543085.5600000024}},{"attributes":{"ID":129477,"DIS_CODE":0,"TOWNNAME":"東區","LI":"東安里","LIN":"11鄰","STREET":"長榮路","SECT":"二段","MAREA":" ","LANE":"３２巷","ALLEY":"４６弄","HOUSE_NO":"１７５號","E_COORD97":170096.73999999999,"N_COORD97":2543080.8399999999,"ADDRESS":"長榮路二段３２巷４６弄１７５號","OBJECTID":129477},"geometry":{"x":170096.74000000022,"y":2543080.8400000017}},{"attributes":{"ID":129478,"DIS_CODE":0,"TOWNNAME":"東區","LI":"東安里","LIN":"11鄰","STREET":"長榮路","SECT":"二段","MAREA":" ","LANE":"３２巷","ALLEY":"４６弄","HOUSE_NO":"１７７號","E_COORD97":170099.47,"N_COORD97":2543074.6699999999,"ADDRESS":"長榮路二段３２巷４６弄１７７號","OBJECTID":129478},"geometry":{"x":170099.46999999974,"y":2543074.6700000018}},{"attributes":{"ID":129479,"DIS_CODE":0,"TOWNNAME":"東區","LI":"東安里","LIN":"11鄰","STREET":"長榮路","SECT":"二段","MAREA":" ","LANE":"３２巷","ALLEY":"４６弄","HOUSE_NO":"１７９號","E_COORD97":170106.73000000001,"N_COORD97":2543067.1400000001,"ADDRESS":"長榮路二段３２巷４６弄１７９號","OBJECTID":129479},"geometry":{"x":170106.73000000045,"y":2543067.1400000006}},{"attributes":{"ID":129480,"DIS_CODE":0,"TOWNNAME":"東區","LI":"東安里","LIN":"11鄰","STREET":"長榮路","SECT":"二段","MAREA":" ","LANE":"３２巷","ALLEY":"４６弄","HOUSE_NO":"１８３號","E_COORD97":170111.53,"N_COORD97":2543056.1299999999,"ADDRESS":"長榮路二段３２巷４６弄１８３號","OBJECTID":129480},"geometry":{"x":170111.53000000026,"y":2543056.1300000027}},{"attributes":{"ID":129481,"DIS_CODE":0,"TOWNNAME":"永康區","LI":"西橋里","LIN":"11鄰","STREET":"中華西街","SECT":" ","MAREA":" ","LANE":"１２７巷","ALLEY":"３０弄","HOUSE_NO":"８號","E_COORD97":170519.14999999999,"N_COORD97":2546135.1099999999,"ADDRESS":"中華西街１２７巷３０弄８號","OBJECTID":129481},"geometry":{"x":170519.15000000037,"y":2546135.1100000031}},{"attributes":{"ID":129482,"DIS_CODE":0,"TOWNNAME":"安定區","LI":"蘇林里","LIN":"1鄰","STREET":" ","SECT":" ","MAREA":"蘇厝","LANE":" ","ALLEY":" ","HOUSE_NO":"８號之１４","E_COORD97":173648.13,"N_COORD97":2558546.2999999998,"ADDRESS":"蘇厝８號之１４","OBJECTID":129482},"geometry":{"x":173648.12999999989,"y":2558546.3000000007}},{"attributes":{"ID":129483,"DIS_CODE":0,"TOWNNAME":"安定區","LI":"蘇林里","LIN":"1鄰","STREET":" ","SECT":" ","MAREA":"蘇厝","LANE":" ","ALLEY":" ","HOUSE_NO":"８之５號","E_COORD97":173644.42000000001,"N_COORD97":2558525.2999999998,"ADDRESS":"蘇厝８之５號","OBJECTID":129483},"geometry":{"x":173644.41999999993,"y":2558525.3000000026}},{"attributes":{"ID":129484,"DIS_CODE":0,"TOWNNAME":"安定區","LI":"港南里","LIN":"1鄰","STREET":" ","SECT":" ","MAREA":"港口","LANE":" ","ALLEY":" ","HOUSE_NO":"５之３號","E_COORD97":171066.79000000001,"N_COORD97":2554284.2999999998,"ADDRESS":"港口５之３號","OBJECTID":129484},"geometry":{"x":171066.79000000097,"y":2554284.3000000007}},{"attributes":{"ID":129485,"DIS_CODE":0,"TOWNNAME":"安定區","LI":"港南里","LIN":"4鄰","STREET":" ","SECT":" ","MAREA":"港口","LANE":" ","ALLEY":" ","HOUSE_NO":"２５之３７號","E_COORD97":171549.89000000001,"N_COORD97":2554052.2999999998,"ADDRESS":"港口２５之３７號","OBJECTID":129485},"geometry":{"x":171549.89000000153,"y":2554052.3000000026}},{"attributes":{"ID":129486,"DIS_CODE":0,"TOWNNAME":"安定區","LI":"港南里","LIN":"20鄰","STREET":" ","SECT":" ","MAREA":"港口","LANE":" ","ALLEY":" ","HOUSE_NO":"２０４號之１０","E_COORD97":171379.92999999999,"N_COORD97":2554598.2999999998,"ADDRESS":"港口２０４號之１０","OBJECTID":129486},"geometry":{"x":171379.9299999997,"y":2554598.3000000026}},{"attributes":{"ID":129487,"DIS_CODE":0,"TOWNNAME":"安定區","LI":"港南里","LIN":"13鄰","STREET":" ","SECT":" ","MAREA":"港口","LANE":" ","ALLEY":" ","HOUSE_NO":"１０３號之５","E_COORD97":171255.48000000001,"N_COORD97":2554440.2999999998,"ADDRESS":"港口１０３號之５","OBJECTID":129487},"geometry":{"x":171255.48000000138,"y":2554440.3000000007}},{"attributes":{"ID":129488,"DIS_CODE":0,"TOWNNAME":"安定區","LI":"港南里","LIN":"14鄰","STREET":" ","SECT":" ","MAREA":"港口","LANE":" ","ALLEY":" ","HOUSE_NO":"１１５號之３","E_COORD97":171428.82000000001,"N_COORD97":2554436.2999999998,"ADDRESS":"港口１１５號之３","OBJECTID":129488},"geometry":{"x":171428.81999999937,"y":2554436.3000000026}},{"attributes":{"ID":129489,"DIS_CODE":0,"TOWNNAME":"安定區","LI":"管寮里","LIN":"8鄰","STREET":" ","SECT":" ","MAREA":"管寮","LANE":" ","ALLEY":" ","HOUSE_NO":"７６之１號","E_COORD97":169869.34,"N_COORD97":2556493.2999999998,"ADDRESS":"管寮７６之１號","OBJECTID":129489},"geometry":{"x":169869.34000000078,"y":2556493.3000000026}},{"attributes":{"ID":129490,"DIS_CODE":0,"TOWNNAME":"安定區","LI":"蘇林里","LIN":"7鄰","STREET":" ","SECT":" ","MAREA":"蘇厝","LANE":" ","ALLEY":" ","HOUSE_NO":"８４號之１","E_COORD97":173665.89999999999,"N_COORD97":2558770.2999999998,"ADDRESS":"蘇厝８４號之１","OBJECTID":129490},"geometry":{"x":173665.90000000037,"y":2558770.3000000007}},{"attributes":{"ID":129491,"DIS_CODE":0,"TOWNNAME":"安定區","LI":"蘇林里","LIN":"18鄰","STREET":" ","SECT":" ","MAREA":"蘇厝","LANE":" ","ALLEY":" ","HOUSE_NO":"１９９之２號","E_COORD97":173341.51999999999,"N_COORD97":2558935.2999999998,"ADDRESS":"蘇厝１９９之２號","OBJECTID":129491},"geometry":{"x":173341.51999999955,"y":2558935.3000000026}},{"attributes":{"ID":129492,"DIS_CODE":0,"TOWNNAME":"安定區","LI":"蘇林里","LIN":"20鄰","STREET":" ","SECT":" ","MAREA":"蘇厝","LANE":" ","ALLEY":" ","HOUSE_NO":"２２８之８號","E_COORD97":173357.62,"N_COORD97":2558833.2999999998,"ADDRESS":"蘇厝２２８之８號","OBJECTID":129492},"geometry":{"x":173357.62000000197,"y":2558833.3000000026}},{"attributes":{"ID":129493,"DIS_CODE":0,"TOWNNAME":"安定區","LI":"港尾里","LIN":"13鄰","STREET":" ","SECT":" ","MAREA":"港子尾","LANE":" ","ALLEY":" ","HOUSE_NO":"７６之６號","E_COORD97":171253.98999999999,"N_COORD97":2555992.2999999998,"ADDRESS":"港子尾７６之６號","OBJECTID":129493},"geometry":{"x":171253.99000000022,"y":2555992.3000000026}},{"attributes":{"ID":129494,"DIS_CODE":0,"TOWNNAME":"安定區","LI":"港尾里","LIN":"14鄰","STREET":" ","SECT":" ","MAREA":"港子尾","LANE":" ","ALLEY":" ","HOUSE_NO":"８４號","E_COORD97":171346.19,"N_COORD97":2556072.2599999998,"ADDRESS":"港子尾８４號","OBJECTID":129494},"geometry":{"x":171346.19000000041,"y":2556072.2600000016}},{"attributes":{"ID":129495,"DIS_CODE":0,"TOWNNAME":"安定區","LI":"港南里","LIN":"17鄰","STREET":" ","SECT":" ","MAREA":"港口","LANE":" ","ALLEY":" ","HOUSE_NO":"１４０號之４０","E_COORD97":171652.32999999999,"N_COORD97":2554415.2999999998,"ADDRESS":"港口１４０號之４０","OBJECTID":129495},"geometry":{"x":171652.33000000194,"y":2554415.3000000026}},{"attributes":{"ID":129496,"DIS_CODE":0,"TOWNNAME":"安定區","LI":"管寮里","LIN":"4鄰","STREET":" ","SECT":" ","MAREA":"管寮","LANE":" ","ALLEY":" ","HOUSE_NO":"３５之３號","E_COORD97":170082.44,"N_COORD97":2556393.2999999998,"ADDRESS":"管寮３５之３號","OBJECTID":129496},"geometry":{"x":170082.44000000134,"y":2556393.3000000007}},{"attributes":{"ID":129497,"DIS_CODE":0,"TOWNNAME":"安定區","LI":"港南里","LIN":"18鄰","STREET":" ","SECT":" ","MAREA":"港口","LANE":" ","ALLEY":" ","HOUSE_NO":"２４２之１０號","E_COORD97":171661.73999999999,"N_COORD97":2554604.2999999998,"ADDRESS":"港口２４２之１０號","OBJECTID":129497},"geometry":{"x":171661.74000000209,"y":2554604.3000000045}},{"attributes":{"ID":129498,"DIS_CODE":0,"TOWNNAME":"安定區","LI":"蘇厝里","LIN":"20鄰","STREET":" ","SECT":" ","MAREA":"蘇厝","LANE":" ","ALLEY":" ","HOUSE_NO":"４７５之８號","E_COORD97":173208.92000000001,"N_COORD97":2558891.2999999998,"ADDRESS":"蘇厝４７５之８號","OBJECTID":129498},"geometry":{"x":173208.91999999993,"y":2558891.3000000026}},{"attributes":{"ID":129499,"DIS_CODE":0,"TOWNNAME":"安定區","LI":"港南里","LIN":"13鄰","STREET":" ","SECT":" ","MAREA":"港口","LANE":" ","ALLEY":" ","HOUSE_NO":"１０２之６號","E_COORD97":171225.19,"N_COORD97":2554418.2999999998,"ADDRESS":"港口１０２之６號","OBJECTID":129499},"geometry":{"x":171225.19000000134,"y":2554418.3000000026}},{"attributes":{"ID":129500,"DIS_CODE":0,"TOWNNAME":"永康區","LI":"甲頂里","LIN":"11鄰","STREET":"中正南路","SECT":" ","MAREA":" ","LANE":"５２巷","ALLEY":"６８弄","HOUSE_NO":"５１號","E_COORD97":170030.45000000001,"N_COORD97":2546717.25,"ADDRESS":"中正南路５２巷６８弄５１號","OBJECTID":129500},"geometry":{"x":170030.45000000019,"y":2546717.25}},{"attributes":{"ID":129501,"DIS_CODE":0,"TOWNNAME":"歸仁區","LI":"七甲里","LIN":"6鄰","STREET":"七甲一街","SECT":" ","MAREA":" ","LANE":" ","ALLEY":" ","HOUSE_NO":"１８２號","E_COORD97":177611.54000000001,"N_COORD97":2542803.6600000001,"ADDRESS":"七甲一街１８２號","OBJECTID":129501},"geometry":{"x":177611.54000000097,"y":2542803.660000002}},{"attributes":{"ID":129502,"DIS_CODE":0,"TOWNNAME":"歸仁區","LI":"文化里","LIN":"6鄰","STREET":"文化北街","SECT":" ","MAREA":" ","LANE":" ","ALLEY":" ","HOUSE_NO":"５１號","E_COORD97":177331.95999999999,"N_COORD97":2541388.3399999999,"ADDRESS":"文化北街５１號","OBJECTID":129502},"geometry":{"x":177331.96000000183,"y":2541388.3400000017}},{"attributes":{"ID":129503,"DIS_CODE":0,"TOWNNAME":"歸仁區","LI":"文化里","LIN":"6鄰","STREET":"國光街","SECT":" ","MAREA":" ","LANE":" ","ALLEY":" ","HOUSE_NO":"２０１號","E_COORD97":177343.16,"N_COORD97":2541374.3300000001,"ADDRESS":"國光街２０１號","OBJECTID":129503},"geometry":{"x":177343.16000000108,"y":2541374.3300000038}},{"attributes":{"ID":129504,"DIS_CODE":0,"TOWNNAME":"永康區","LI":"東灣里","LIN":"5鄰","STREET":"大灣三街","SECT":" ","MAREA":" ","LANE":" ","ALLEY":" ","HOUSE_NO":"１５２號","E_COORD97":174633.39999999999,"N_COORD97":2545074.8599999999,"ADDRESS":"大灣三街１５２號","OBJECTID":129504},"geometry":{"x":174633.40000000037,"y":2545074.8599999994}},{"attributes":{"ID":129505,"DIS_CODE":0,"TOWNNAME":"永康區","LI":"永康里","LIN":"20鄰","STREET":"永明街","SECT":" ","MAREA":" ","LANE":" ","ALLEY":" ","HOUSE_NO":"３０號","E_COORD97":174063.92999999999,"N_COORD97":2547327.3599999999,"ADDRESS":"永明街３０號","OBJECTID":129505},"geometry":{"x":174063.93000000063,"y":2547327.3600000013}},{"attributes":{"ID":129506,"DIS_CODE":0,"TOWNNAME":"永康區","LI":"北灣里","LIN":"39鄰","STREET":"大同街","SECT":" ","MAREA":" ","LANE":" ","ALLEY":" ","HOUSE_NO":"６５７號","E_COORD97":174558.29999999999,"N_COORD97":2546522.9900000002,"ADDRESS":"大同街６５７號","OBJECTID":129506},"geometry":{"x":174558.30000000075,"y":2546522.9899999984}},{"attributes":{"ID":129507,"DIS_CODE":0,"TOWNNAME":"永康區","LI":"永康里","LIN":"39鄰","STREET":"永忠路","SECT":" ","MAREA":" ","LANE":" ","ALLEY":" ","HOUSE_NO":"３０號","E_COORD97":174249.57999999999,"N_COORD97":2546418.23,"ADDRESS":"永忠路３０號","OBJECTID":129507},"geometry":{"x":174249.58000000101,"y":2546418.2300000023}},{"attributes":{"ID":129508,"DIS_CODE":0,"TOWNNAME":"永康區","LI":"永康里","LIN":"42鄰","STREET":"永大五路","SECT":" ","MAREA":" ","LANE":" ","ALLEY":" ","HOUSE_NO":"１４９號","E_COORD97":174083.13,"N_COORD97":2546609.3700000001,"ADDRESS":"永大五路１４９號","OBJECTID":129508},"geometry":{"x":174083.13000000082,"y":2546609.370000001}},{"attributes":{"ID":129509,"DIS_CODE":0,"TOWNNAME":"永康區","LI":"龍潭里","LIN":"25鄰","STREET":"中山北路","SECT":" ","MAREA":" ","LANE":" ","ALLEY":" ","HOUSE_NO":"４３１號","E_COORD97":175002.47,"N_COORD97":2547723.6200000001,"ADDRESS":"中山北路４３１號","OBJECTID":129509},"geometry":{"x":175002.4700000016,"y":2547723.6200000048}},{"attributes":{"ID":129510,"DIS_CODE":0,"TOWNNAME":"永康區","LI":"北灣里","LIN":"39鄰","STREET":"永大路","SECT":"二段","MAREA":" ","LANE":" ","ALLEY":" ","HOUSE_NO":"９８２號","E_COORD97":174470.53,"N_COORD97":2546350.5600000001,"ADDRESS":"永大路二段９８２號","OBJECTID":129510},"geometry":{"x":174470.53000000119,"y":2546350.5600000024}},{"attributes":{"ID":129511,"DIS_CODE":0,"TOWNNAME":"永康區","LI":"網寮里","LIN":"4鄰","STREET":"永二街","SECT":" ","MAREA":" ","LANE":" ","ALLEY":" ","HOUSE_NO":"１０８號","E_COORD97":173515.07000000001,"N_COORD97":2546482.4300000002,"ADDRESS":"永二街１０８號","OBJECTID":129511},"geometry":{"x":173515.0700000003,"y":2546482.4300000034}},{"attributes":{"ID":129512,"DIS_CODE":0,"TOWNNAME":"安定區","LI":"新吉里","LIN":"4鄰","STREET":" ","SECT":" ","MAREA":"新吉","LANE":" ","ALLEY":" ","HOUSE_NO":"２８之３號","E_COORD97":169445.17000000001,"N_COORD97":2554076.2999999998,"ADDRESS":"新吉２８之３號","OBJECTID":129512},"geometry":{"x":169445.17000000086,"y":2554076.3000000026}},{"attributes":{"ID":129513,"DIS_CODE":0,"TOWNNAME":"永康區","LI":"西橋里","LIN":"11鄰","STREET":"中華西街","SECT":" ","MAREA":" ","LANE":"１２７巷","ALLEY":"３０弄","HOUSE_NO":"１６號","E_COORD97":170551.28,"N_COORD97":2546151.4900000002,"ADDRESS":"中華西街１２７巷３０弄１６號","OBJECTID":129513},"geometry":{"x":170551.28000000119,"y":2546151.4900000021}},{"attributes":{"ID":129514,"DIS_CODE":0,"TOWNNAME":"永康區","LI":"甲頂里","LIN":"11鄰","STREET":"中正南路","SECT":" ","MAREA":" ","LANE":"５２巷","ALLEY":"６８弄","HOUSE_NO":"８７號","E_COORD97":170109.92999999999,"N_COORD97":2546728.25,"ADDRESS":"中正南路５２巷６８弄８７號","OBJECTID":129514},"geometry":{"x":170109.9299999997,"y":2546728.2500000037}},{"attributes":{"ID":129515,"DIS_CODE":0,"TOWNNAME":"永康區","LI":"甲頂里","LIN":"11鄰","STREET":"中正南路","SECT":" ","MAREA":" ","LANE":"５２巷","ALLEY":"６８弄","HOUSE_NO":"６１號","E_COORD97":170052.48000000001,"N_COORD97":2546720.5,"ADDRESS":"中正南路５２巷６８弄６１號","OBJECTID":129515},"geometry":{"x":170052.48000000045,"y":2546720.5000000019}},{"attributes":{"ID":129516,"DIS_CODE":0,"TOWNNAME":"永康區","LI":"西橋里","LIN":"11鄰","STREET":"中華西街","SECT":" ","MAREA":" ","LANE":"１２７巷","ALLEY":"３０弄","HOUSE_NO":"１２號","E_COORD97":170531,"N_COORD97":2546157.1000000001,"ADDRESS":"中華西街１２７巷３０弄１２號","OBJECTID":129516},"geometry":{"x":170531.00000000093,"y":2546157.1000000015}},{"attributes":{"ID":129517,"DIS_CODE":0,"TOWNNAME":"永康區","LI":"西橋里","LIN":"11鄰","STREET":"中華西街","SECT":" ","MAREA":" ","LANE":"１２７巷","ALLEY":"３０弄","HOUSE_NO":"５號","E_COORD97":170537.16,"N_COORD97":2546143.6000000001,"ADDRESS":"中華西街１２７巷３０弄５號","OBJECTID":129517},"geometry":{"x":170537.16000000108,"y":2546143.6000000015}},{"attributes":{"ID":129518,"DIS_CODE":0,"TOWNNAME":"永康區","LI":"西橋里","LIN":"11鄰","STREET":"中華西街","SECT":" ","MAREA":" ","LANE":"１２７巷","ALLEY":"３０弄","HOUSE_NO":"２號","E_COORD97":170545.04999999999,"N_COORD97":2546130.6099999999,"ADDRESS":"中華西街１２７巷３０弄２號","OBJECTID":129518},"geometry":{"x":170545.04999999981,"y":2546130.6099999994}},{"attributes":{"ID":129519,"DIS_CODE":0,"TOWNNAME":"永康區","LI":"西橋里","LIN":"11鄰","STREET":"中華西街","SECT":" ","MAREA":" ","LANE":"１２７巷","ALLEY":"３０弄","HOUSE_NO":"１１號","E_COORD97":170518.70999999999,"N_COORD97":2546149.1000000001,"ADDRESS":"中華西街１２７巷３０弄１１號","OBJECTID":129519},"geometry":{"x":170518.70999999996,"y":2546149.1000000034}},{"attributes":{"ID":129520,"DIS_CODE":0,"TOWNNAME":"新化區","LI":"護國里","LIN":"11鄰","STREET":"中山路","SECT":" ","MAREA":" ","LANE":"３巷","ALLEY":"３弄","HOUSE_NO":"３２號之１","E_COORD97":180880.07000000001,"N_COORD97":2550210.1899999999,"ADDRESS":"中山路３巷３弄３２號之１","OBJECTID":129520},"geometry":{"x":180880.07000000123,"y":2550210.1900000013}},{"attributes":{"ID":129521,"DIS_CODE":0,"TOWNNAME":"安南區","LI":"安和里","LIN":"11鄰","STREET":"安和路","SECT":"一段","MAREA":" ","LANE":"５２巷","ALLEY":"６９弄","HOUSE_NO":"１３號","E_COORD97":169701.39999999999,"N_COORD97":2547625.6000000001,"ADDRESS":"安和路一段５２巷６９弄１３號","OBJECTID":129521},"geometry":{"x":169701.4000000013,"y":2547625.5999999996}},{"attributes":{"ID":129522,"DIS_CODE":0,"TOWNNAME":"安南區","LI":"安和里","LIN":"11鄰","STREET":"安和路","SECT":"一段","MAREA":" ","LANE":"５２巷","ALLEY":"６９弄","HOUSE_NO":"５號","E_COORD97":169698.04999999999,"N_COORD97":2547607.02,"ADDRESS":"安和路一段５２巷６９弄５號","OBJECTID":129522},"geometry":{"x":169698.05000000075,"y":2547607.0199999977}},{"attributes":{"ID":129523,"DIS_CODE":0,"TOWNNAME":"安南區","LI":"安和里","LIN":"11鄰","STREET":"安和路","SECT":"一段","MAREA":" ","LANE":"５２巷","ALLEY":"６９弄","HOUSE_NO":"７號","E_COORD97":169698.04999999999,"N_COORD97":2547611.8900000001,"ADDRESS":"安和路一段５２巷６９弄７號","OBJECTID":129523},"geometry":{"x":169698.05000000075,"y":2547611.8900000006}},{"attributes":{"ID":129524,"DIS_CODE":0,"TOWNNAME":"安南區","LI":"安和里","LIN":"11鄰","STREET":"安和路","SECT":"一段","MAREA":" ","LANE":"５２巷","ALLEY":"６９弄","HOUSE_NO":"９號","E_COORD97":169695.92000000001,"N_COORD97":2547615.8500000001,"ADDRESS":"安和路一段５２巷６９弄９號","OBJECTID":129524},"geometry":{"x":169695.92000000086,"y":2547615.8500000015}},{"attributes":{"ID":129525,"DIS_CODE":0,"TOWNNAME":"安南區","LI":"淵中里","LIN":"11鄰","STREET":"本原街","SECT":"三段","MAREA":" ","LANE":"２３４巷","ALLEY":"３弄","HOUSE_NO":"２號","E_COORD97":165302.20999999999,"N_COORD97":2550269.6899999999,"ADDRESS":"本原街三段２３４巷３弄２號","OBJECTID":129525},"geometry":{"x":165302.20999999996,"y":2550269.6899999995}},{"attributes":{"ID":129526,"DIS_CODE":0,"TOWNNAME":"安南區","LI":"淵中里","LIN":"11鄰","STREET":"本原街","SECT":"三段","MAREA":" ","LANE":"２３４巷","ALLEY":"３弄","HOUSE_NO":"８號","E_COORD97":165279.69,"N_COORD97":2550257.04,"ADDRESS":"本原街三段２３４巷３弄８號","OBJECTID":129526},"geometry":{"x":165279.68999999948,"y":2550257.0399999991}},{"attributes":{"ID":129527,"DIS_CODE":0,"TOWNNAME":"安南區","LI":"淵中里","LIN":"11鄰","STREET":"安中路","SECT":"四段","MAREA":" ","LANE":"４巷","ALLEY":"４８弄","HOUSE_NO":"５６號","E_COORD97":165270.47,"N_COORD97":2550280.71,"ADDRESS":"安中路四段４巷４８弄５６號","OBJECTID":129527},"geometry":{"x":165270.4700000016,"y":2550280.7100000028}},{"attributes":{"ID":129528,"DIS_CODE":0,"TOWNNAME":"安南區","LI":"淵中里","LIN":"11鄰","STREET":"安中路","SECT":"四段","MAREA":" ","LANE":"４巷","ALLEY":"４８弄","HOUSE_NO":"６６號","E_COORD97":165287.10999999999,"N_COORD97":2550287.0299999998,"ADDRESS":"安中路四段４巷４８弄６６號","OBJECTID":129528},"geometry":{"x":165287.1100000022,"y":2550287.0300000012}},{"attributes":{"ID":129529,"DIS_CODE":0,"TOWNNAME":"安南區","LI":"安東里","LIN":"11鄰","STREET":"安和路","SECT":"一段","MAREA":" ","LANE":"２２０巷","ALLEY":"９３弄","HOUSE_NO":"２號","E_COORD97":169527.04000000001,"N_COORD97":2548083.3199999998,"ADDRESS":"安和路一段２２０巷９３弄２號","OBJECTID":129529},"geometry":{"x":169527.04000000097,"y":2548083.3200000003}},{"attributes":{"ID":129530,"DIS_CODE":0,"TOWNNAME":"安南區","LI":"州北里","LIN":"11鄰","STREET":"安和路","SECT":"五段","MAREA":" ","LANE":"１７１巷","ALLEY":"９２弄","HOUSE_NO":"１７號","E_COORD97":169614.69,"N_COORD97":2551800.7000000002,"ADDRESS":"安和路五段１７１巷９２弄１７號","OBJECTID":129530},"geometry":{"x":169614.69000000134,"y":2551800.7000000011}},{"attributes":{"ID":129531,"DIS_CODE":0,"TOWNNAME":"安定區","LI":"新吉里","LIN":"4鄰","STREET":" ","SECT":" ","MAREA":"新吉","LANE":" ","ALLEY":" ","HOUSE_NO":"２８之２號","E_COORD97":169441.26999999999,"N_COORD97":2554074.2999999998,"ADDRESS":"新吉２８之２號","OBJECTID":129531},"geometry":{"x":169441.26999999955,"y":2554074.3000000007}},{"attributes":{"ID":129532,"DIS_CODE":0,"TOWNNAME":"安定區","LI":"新吉里","LIN":"5鄰","STREET":" ","SECT":" ","MAREA":"新吉","LANE":" ","ALLEY":" ","HOUSE_NO":"３２號之１","E_COORD97":169379.60000000001,"N_COORD97":2554054.2999999998,"ADDRESS":"新吉３２號之１","OBJECTID":129532},"geometry":{"x":169379.59999999963,"y":2554054.3000000007}},{"attributes":{"ID":129533,"DIS_CODE":0,"TOWNNAME":"安定區","LI":"蘇林里","LIN":"18鄰","STREET":" ","SECT":" ","MAREA":"蘇厝","LANE":" ","ALLEY":" ","HOUSE_NO":"１９９號","E_COORD97":173349.98112300001,"N_COORD97":2558936.90258,"ADDRESS":"蘇厝１９９號","OBJECTID":129533},"geometry":{"x":173349.98112300131,"y":2558936.9025750048}},{"attributes":{"ID":129534,"DIS_CODE":0,"TOWNNAME":"安定區","LI":"蘇厝里","LIN":"20鄰","STREET":" ","SECT":" ","MAREA":"蘇厝","LANE":" ","ALLEY":" ","HOUSE_NO":"４７７之３號","E_COORD97":173199.92000000001,"N_COORD97":2558923.2999999998,"ADDRESS":"蘇厝４７７之３號","OBJECTID":129534},"geometry":{"x":173199.92000000086,"y":2558923.3000000007}},{"attributes":{"ID":129535,"DIS_CODE":0,"TOWNNAME":"安定區","LI":"港尾里","LIN":"13鄰","STREET":" ","SECT":" ","MAREA":"港子尾","LANE":" ","ALLEY":" ","HOUSE_NO":"７６號之２","E_COORD97":171236.56,"N_COORD97":2555978.2999999998,"ADDRESS":"港子尾７６號之２","OBJECTID":129535},"geometry":{"x":171236.55999999866,"y":2555978.3000000026}},{"attributes":{"ID":129536,"DIS_CODE":0,"TOWNNAME":"安定區","LI":"六嘉里","LIN":"4鄰","STREET":" ","SECT":" ","MAREA":"六塊寮","LANE":" ","ALLEY":" ","HOUSE_NO":"２７之１０號","E_COORD97":169942.63,"N_COORD97":2553618.54,"ADDRESS":"六塊寮２７之１０號","OBJECTID":129536},"geometry":{"x":169942.62999999989,"y":2553618.540000001}},{"attributes":{"ID":129537,"DIS_CODE":0,"TOWNNAME":"安定區","LI":"安定里","LIN":"4鄰","STREET":" ","SECT":" ","MAREA":"安定","LANE":" ","ALLEY":" ","HOUSE_NO":"１１之１６號","E_COORD97":172647.00176300001,"N_COORD97":2557958.6480399999,"ADDRESS":"安定１１之１６號","OBJECTID":129537},"geometry":{"x":172647.00176300015,"y":2557958.6480370015}},{"attributes":{"ID":129538,"DIS_CODE":0,"TOWNNAME":"安定區","LI":"安定里","LIN":"4鄰","STREET":" ","SECT":" ","MAREA":"安定","LANE":" ","ALLEY":" ","HOUSE_NO":"１１之１７號","E_COORD97":172706.40688299999,"N_COORD97":2557564.43976,"ADDRESS":"安定１１之１７號","OBJECTID":129538},"geometry":{"x":172706.4068830004,"y":2557564.4397650007}},{"attributes":{"ID":129539,"DIS_CODE":0,"TOWNNAME":"安定區","LI":"大同里","LIN":"14鄰","STREET":" ","SECT":" ","MAREA":"牛肉寮","LANE":" ","ALLEY":" ","HOUSE_NO":"８７號","E_COORD97":171009.90511699999,"N_COORD97":2552593.6556500001,"ADDRESS":"牛肉寮８７號","OBJECTID":129539},"geometry":{"x":171009.90511700045,"y":2552593.6556550022}},{"attributes":{"ID":129540,"DIS_CODE":0,"TOWNNAME":"安定區","LI":"安定里","LIN":"4鄰","STREET":" ","SECT":" ","MAREA":"安定","LANE":" ","ALLEY":" ","HOUSE_NO":"１３之３號","E_COORD97":172641.72,"N_COORD97":2558130.1699999999,"ADDRESS":"安定１３之３號","OBJECTID":129540},"geometry":{"x":172641.72000000067,"y":2558130.1699999981}},{"attributes":{"ID":129541,"DIS_CODE":0,"TOWNNAME":"安定區","LI":"安定里","LIN":"4鄰","STREET":" ","SECT":" ","MAREA":"安定","LANE":" ","ALLEY":" ","HOUSE_NO":"１４之５號","E_COORD97":172554.41358600001,"N_COORD97":2558222.8078999999,"ADDRESS":"安定１４之５號","OBJECTID":129541},"geometry":{"x":172554.41358599998,"y":2558222.807895001}},{"attributes":{"ID":129542,"DIS_CODE":0,"TOWNNAME":"安定區","LI":"南安里","LIN":"4鄰","STREET":" ","SECT":" ","MAREA":"油車","LANE":" ","ALLEY":" ","HOUSE_NO":"４１之１號","E_COORD97":170646.88,"N_COORD97":2555538.7200000002,"ADDRESS":"油車４１之１號","OBJECTID":129542},"geometry":{"x":170646.88000000082,"y":2555538.7200000025}},{"attributes":{"ID":129543,"DIS_CODE":0,"TOWNNAME":"安定區","LI":"安加里","LIN":"13鄰","STREET":" ","SECT":" ","MAREA":"安定","LANE":" ","ALLEY":" ","HOUSE_NO":"２９６之１號","E_COORD97":171698.91,"N_COORD97":2557434.0099999998,"ADDRESS":"安定２９６之１號","OBJECTID":129543},"geometry":{"x":171698.91000000015,"y":2557434.0100000016}},{"attributes":{"ID":129544,"DIS_CODE":0,"TOWNNAME":"安定區","LI":"安加里","LIN":"13鄰","STREET":" ","SECT":" ","MAREA":"安定","LANE":" ","ALLEY":" ","HOUSE_NO":"２９６之２號","E_COORD97":171701.54999999999,"N_COORD97":2557440.73,"ADDRESS":"安定２９６之２號","OBJECTID":129544},"geometry":{"x":171701.55000000168,"y":2557440.7300000004}},{"attributes":{"ID":129545,"DIS_CODE":0,"TOWNNAME":"安定區","LI":"安加里","LIN":"13鄰","STREET":" ","SECT":" ","MAREA":"安定","LANE":" ","ALLEY":" ","HOUSE_NO":"３１０號","E_COORD97":171680.91,"N_COORD97":2557496.6000000001,"ADDRESS":"安定３１０號","OBJECTID":129545},"geometry":{"x":171680.91000000108,"y":2557496.6000000034}},{"attributes":{"ID":129546,"DIS_CODE":0,"TOWNNAME":"歸仁區","LI":"八甲里","LIN":"6鄰","STREET":"大光街","SECT":" ","MAREA":" ","LANE":" ","ALLEY":" ","HOUSE_NO":"６３號","E_COORD97":177962.26999999999,"N_COORD97":2541711.6099999999,"ADDRESS":"大光街６３號","OBJECTID":129546},"geometry":{"x":177962.27000000048,"y":2541711.6100000013}},{"attributes":{"ID":129547,"DIS_CODE":0,"TOWNNAME":"安定區","LI":"保西里","LIN":"7鄰","STREET":" ","SECT":" ","MAREA":"安定","LANE":" ","ALLEY":" ","HOUSE_NO":"４１８之５號","E_COORD97":171654.54999999999,"N_COORD97":2557765.0699999998,"ADDRESS":"安定４１８之５號","OBJECTID":129547},"geometry":{"x":171654.55000000075,"y":2557765.0699999984}},{"attributes":{"ID":129548,"DIS_CODE":0,"TOWNNAME":"新市區","LI":"大營里","LIN":"18鄰","STREET":" ","SECT":" ","MAREA":"豐榮","LANE":" ","ALLEY":" ","HOUSE_NO":"２２號","E_COORD97":178897.54000000001,"N_COORD97":2554390.5,"ADDRESS":"豐榮２２號","OBJECTID":129548},"geometry":{"x":178897.54000000004,"y":2554390.5}},{"attributes":{"ID":129549,"DIS_CODE":0,"TOWNNAME":"安定區","LI":"海寮里","LIN":"13鄰","STREET":" ","SECT":" ","MAREA":"海寮","LANE":" ","ALLEY":" ","HOUSE_NO":"１２６之２８號","E_COORD97":168988.39000000001,"N_COORD97":2555246.0299999998,"ADDRESS":"海寮１２６之２８號","OBJECTID":129549},"geometry":{"x":168988.39000000153,"y":2555246.0300000012}},{"attributes":{"ID":129550,"DIS_CODE":0,"TOWNNAME":"安定區","LI":"中榮里","LIN":"4鄰","STREET":" ","SECT":" ","MAREA":"許中營","LANE":" ","ALLEY":" ","HOUSE_NO":"４７之１號","E_COORD97":172343.16,"N_COORD97":2555051.5699999998,"ADDRESS":"許中營４７之１號","OBJECTID":129550},"geometry":{"x":172343.16000000015,"y":2555051.5700000003}},{"attributes":{"ID":129551,"DIS_CODE":0,"TOWNNAME":"安南區","LI":"州北里","LIN":"11鄰","STREET":"安和路","SECT":"五段","MAREA":" ","LANE":"１７１巷","ALLEY":"９２弄","HOUSE_NO":"１９號","E_COORD97":169612.53,"N_COORD97":2551803.8199999998,"ADDRESS":"安和路五段１７１巷９２弄１９號","OBJECTID":129551},"geometry":{"x":169612.53000000119,"y":2551803.8200000022}},{"attributes":{"ID":129552,"DIS_CODE":0,"TOWNNAME":"歸仁區","LI":"八甲里","LIN":"6鄰","STREET":"大光街","SECT":" ","MAREA":" ","LANE":" ","ALLEY":" ","HOUSE_NO":"５７號","E_COORD97":177955.07000000001,"N_COORD97":2541700.6099999999,"ADDRESS":"大光街５７號","OBJECTID":129552},"geometry":{"x":177955.0700000003,"y":2541700.6100000031}},{"attributes":{"ID":129553,"DIS_CODE":0,"TOWNNAME":"安定區","LI":"港南里","LIN":"4鄰","STREET":" ","SECT":" ","MAREA":"港口","LANE":" ","ALLEY":" ","HOUSE_NO":"２７之２１號","E_COORD97":171546.63,"N_COORD97":2553970.2000000002,"ADDRESS":"港口２７之２１號","OBJECTID":129553},"geometry":{"x":171546.62999999896,"y":2553970.2000000011}},{"attributes":{"ID":129554,"DIS_CODE":0,"TOWNNAME":"安南區","LI":"州北里","LIN":"11鄰","STREET":"安和路","SECT":"五段","MAREA":" ","LANE":"１７１巷","ALLEY":"９２弄","HOUSE_NO":"１號","E_COORD97":169629.54000000001,"N_COORD97":2551771.98,"ADDRESS":"安和路五段１７１巷９２弄１號","OBJECTID":129554},"geometry":{"x":169629.54000000004,"y":2551771.9800000042}},{"attributes":{"ID":129555,"DIS_CODE":0,"TOWNNAME":"安定區","LI":"港南里","LIN":"4鄰","STREET":" ","SECT":" ","MAREA":"港口","LANE":" ","ALLEY":" ","HOUSE_NO":"２７之２２號","E_COORD97":171542.07000000001,"N_COORD97":2553962.1400000001,"ADDRESS":"港口２７之２２號","OBJECTID":129555},"geometry":{"x":171542.0700000003,"y":2553962.1400000025}},{"attributes":{"ID":129556,"DIS_CODE":0,"TOWNNAME":"安定區","LI":"港南里","LIN":"4鄰","STREET":" ","SECT":" ","MAREA":"港口","LANE":" ","ALLEY":" ","HOUSE_NO":"２７之２３號","E_COORD97":171536.91,"N_COORD97":2553955.3999999999,"ADDRESS":"港口２７之２３號","OBJECTID":129556},"geometry":{"x":171536.91000000108,"y":2553955.4000000004}},{"attributes":{"ID":129557,"DIS_CODE":0,"TOWNNAME":"安定區","LI":"港南里","LIN":"4鄰","STREET":" ","SECT":" ","MAREA":"港口","LANE":" ","ALLEY":" ","HOUSE_NO":"２７之２５號","E_COORD97":171531.91,"N_COORD97":2553948.23,"ADDRESS":"港口２７之２５號","OBJECTID":129557},"geometry":{"x":171531.91000000108,"y":2553948.2300000023}},{"attributes":{"ID":129558,"DIS_CODE":0,"TOWNNAME":"安定區","LI":"港南里","LIN":"13鄰","STREET":" ","SECT":" ","MAREA":"港口","LANE":" ","ALLEY":" ","HOUSE_NO":"１０１之１號","E_COORD97":171188.86969799999,"N_COORD97":2554382.2977300002,"ADDRESS":"港口１０１之１號","OBJECTID":129558},"geometry":{"x":171188.869698002,"y":2554382.2977339998}},{"attributes":{"ID":129559,"DIS_CODE":0,"TOWNNAME":"安定區","LI":"港口里","LIN":"14鄰","STREET":" ","SECT":" ","MAREA":"港口","LANE":" ","ALLEY":" ","HOUSE_NO":"３３２之２３號","E_COORD97":170767.70999999999,"N_COORD97":2554652.9100000001,"ADDRESS":"港口３３２之２３號","OBJECTID":129559},"geometry":{"x":170767.70999999996,"y":2554652.9100000001}},{"attributes":{"ID":129560,"DIS_CODE":0,"TOWNNAME":"歸仁區","LI":"七甲里","LIN":"6鄰","STREET":"中正北路","SECT":"二段","MAREA":" ","LANE":" ","ALLEY":" ","HOUSE_NO":"４１０號","E_COORD97":177502.32000000001,"N_COORD97":2543014.2599999998,"ADDRESS":"中正北路二段４１０號","OBJECTID":129560},"geometry":{"x":177502.3200000003,"y":2543014.2599999998}},{"attributes":{"ID":129561,"DIS_CODE":0,"TOWNNAME":"安南區","LI":"州北里","LIN":"11鄰","STREET":"安和路","SECT":"五段","MAREA":" ","LANE":"１７１巷","ALLEY":"９２弄","HOUSE_NO":"２１號","E_COORD97":169609.82000000001,"N_COORD97":2551807.0600000001,"ADDRESS":"安和路五段１７１巷９２弄２１號","OBJECTID":129561},"geometry":{"x":169609.8200000003,"y":2551807.0600000005}},{"attributes":{"ID":129562,"DIS_CODE":0,"TOWNNAME":"安定區","LI":"港口里","LIN":"14鄰","STREET":" ","SECT":" ","MAREA":"港口","LANE":" ","ALLEY":" ","HOUSE_NO":"３３３之２６號","E_COORD97":170049.06,"N_COORD97":2554712.02,"ADDRESS":"港口３３３之２６號","OBJECTID":129562},"geometry":{"x":170049.06000000052,"y":2554712.0199999996}},{"attributes":{"ID":129563,"DIS_CODE":0,"TOWNNAME":"安定區","LI":"港口里","LIN":"14鄰","STREET":" ","SECT":" ","MAREA":"港口","LANE":" ","ALLEY":" ","HOUSE_NO":"３３３之２７號","E_COORD97":170065.38,"N_COORD97":2554890.96,"ADDRESS":"港口３３３之２７號","OBJECTID":129563},"geometry":{"x":170065.38000000082,"y":2554890.9600000009}},{"attributes":{"ID":129564,"DIS_CODE":0,"TOWNNAME":"安南區","LI":"州北里","LIN":"11鄰","STREET":"安和路","SECT":"五段","MAREA":" ","LANE":"１７１巷","ALLEY":"９２弄","HOUSE_NO":"３號","E_COORD97":169628.45999999999,"N_COORD97":2551775.5,"ADDRESS":"安和路五段１７１巷９２弄３號","OBJECTID":129564},"geometry":{"x":169628.45999999996,"y":2551775.5000000019}},{"attributes":{"ID":129565,"DIS_CODE":0,"TOWNNAME":"安南區","LI":"州北里","LIN":"11鄰","STREET":"安和路","SECT":"五段","MAREA":" ","LANE":"１７１巷","ALLEY":"９２弄","HOUSE_NO":"５號","E_COORD97":169626.70000000001,"N_COORD97":2551779.1499999999,"ADDRESS":"安和路五段１７１巷９２弄５號","OBJECTID":129565},"geometry":{"x":169626.70000000112,"y":2551779.1500000004}},{"attributes":{"ID":129566,"DIS_CODE":0,"TOWNNAME":"楠西區","LI":"東勢里","LIN":"6鄰","STREET":"仁愛路","SECT":" ","MAREA":" ","LANE":" ","ALLEY":" ","HOUSE_NO":"１１９號","E_COORD97":197467.89000000001,"N_COORD97":2563988.2799999998,"ADDRESS":"仁愛路１１９號","OBJECTID":129566},"geometry":{"x":197467.8900000006,"y":2563988.2800000012}},{"attributes":{"ID":129567,"DIS_CODE":0,"TOWNNAME":"楠西區","LI":"東勢里","LIN":"6鄰","STREET":"仁愛路","SECT":" ","MAREA":" ","LANE":" ","ALLEY":" ","HOUSE_NO":"８３號","E_COORD97":197478.84,"N_COORD97":2563917.2799999998,"ADDRESS":"仁愛路８３號","OBJECTID":129567},"geometry":{"x":197478.84000000078,"y":2563917.2800000012}},{"attributes":{"ID":129568,"DIS_CODE":0,"TOWNNAME":"楠西區","LI":"東勢里","LIN":"6鄰","STREET":"民生路","SECT":" ","MAREA":" ","LANE":" ","ALLEY":" ","HOUSE_NO":"３３號","E_COORD97":197424.44,"N_COORD97":2564000.29,"ADDRESS":"民生路３３號","OBJECTID":129568},"geometry":{"x":197424.44000000134,"y":2564000.2899999991}},{"attributes":{"ID":129569,"DIS_CODE":0,"TOWNNAME":"楠西區","LI":"東勢里","LIN":"6鄰","STREET":"仁愛路","SECT":" ","MAREA":" ","LANE":" ","ALLEY":" ","HOUSE_NO":"９９號","E_COORD97":197472.73999999999,"N_COORD97":2563950.2799999998,"ADDRESS":"仁愛路９９號","OBJECTID":129569},"geometry":{"x":197472.74000000115,"y":2563950.2800000031}},{"attributes":{"ID":129570,"DIS_CODE":0,"TOWNNAME":"安南區","LI":"州北里","LIN":"11鄰","STREET":"安和路","SECT":"五段","MAREA":" ","LANE":"１７１巷","ALLEY":"９２弄","HOUSE_NO":"７號","E_COORD97":169624.81,"N_COORD97":2551782.6600000001,"ADDRESS":"安和路五段１７１巷９２弄７號","OBJECTID":129570},"geometry":{"x":169624.81000000052,"y":2551782.6600000001}},{"attributes":{"ID":129571,"DIS_CODE":0,"TOWNNAME":"東區","LI":"富強里","LIN":"7鄰","STREET":"中華東路","SECT":"二段","MAREA":" ","LANE":"４８巷","ALLEY":"２５弄","HOUSE_NO":"３９號","E_COORD97":171294.20999999999,"N_COORD97":2542896.2400000002,"ADDRESS":"中華東路二段４８巷２５弄３９號","OBJECTID":129571},"geometry":{"x":171294.21000000089,"y":2542896.2400000002}},{"attributes":{"ID":129572,"DIS_CODE":0,"TOWNNAME":"楠西區","LI":"東勢里","LIN":"6鄰","STREET":"仁愛路","SECT":" ","MAREA":" ","LANE":" ","ALLEY":" ","HOUSE_NO":"９３號","E_COORD97":197476.14000000001,"N_COORD97":2563941.2799999998,"ADDRESS":"仁愛路９３號","OBJECTID":129572},"geometry":{"x":197476.14000000153,"y":2563941.2800000012}},{"attributes":{"ID":129573,"DIS_CODE":0,"TOWNNAME":"東區","LI":"富強里","LIN":"7鄰","STREET":"中華東路","SECT":"二段","MAREA":" ","LANE":"４８巷","ALLEY":"２５弄","HOUSE_NO":"４１號","E_COORD97":171294.69,"N_COORD97":2542891.8700000001,"ADDRESS":"中華東路二段４８巷２５弄４１號","OBJECTID":129573},"geometry":{"x":171294.69000000134,"y":2542891.8700000029}},{"attributes":{"ID":129574,"DIS_CODE":0,"TOWNNAME":"東區","LI":"後甲里","LIN":"5鄰","STREET":"裕農路","SECT":" ","MAREA":" ","LANE":"６２１巷","ALLEY":"３６弄","HOUSE_NO":"１４號","E_COORD97":171672.07999999999,"N_COORD97":2543337.4100000001,"ADDRESS":"裕農路６２１巷３６弄１４號","OBJECTID":129574},"geometry":{"x":171672.08000000007,"y":2543337.410000002}},{"attributes":{"ID":129575,"DIS_CODE":0,"TOWNNAME":"楠西區","LI":"楠西里","LIN":"6鄰","STREET":"中興路","SECT":" ","MAREA":" ","LANE":" ","ALLEY":" ","HOUSE_NO":"６５號","E_COORD97":197215.81,"N_COORD97":2564359.25,"ADDRESS":"中興路６５號","OBJECTID":129575},"geometry":{"x":197215.81000000052,"y":2564359.2500000019}},{"attributes":{"ID":129576,"DIS_CODE":0,"TOWNNAME":"楠西區","LI":"東勢里","LIN":"6鄰","STREET":"仁愛路","SECT":" ","MAREA":" ","LANE":" ","ALLEY":" ","HOUSE_NO":"１０１號","E_COORD97":197473.39000000001,"N_COORD97":2563954.2799999998,"ADDRESS":"仁愛路１０１號","OBJECTID":129576},"geometry":{"x":197473.3900000006,"y":2563954.2800000012}},{"attributes":{"ID":129577,"DIS_CODE":0,"TOWNNAME":"永康區","LI":"永康里","LIN":"26鄰","STREET":"中山北路","SECT":" ","MAREA":" ","LANE":" ","ALLEY":" ","HOUSE_NO":"１１０號","E_COORD97":174141.32999999999,"N_COORD97":2547470.0899999999,"ADDRESS":"中山北路１１０號","OBJECTID":129577},"geometry":{"x":174141.33000000101,"y":2547470.0899999999}},{"attributes":{"ID":129578,"DIS_CODE":0,"TOWNNAME":"永康區","LI":"三合里","LIN":"25鄰","STREET":"中山東路","SECT":" ","MAREA":" ","LANE":" ","ALLEY":" ","HOUSE_NO":"１２５號","E_COORD97":171769.45000000001,"N_COORD97":2545862.0600000001,"ADDRESS":"中山東路１２５號","OBJECTID":129578},"geometry":{"x":171769.45000000112,"y":2545862.0600000042}},{"attributes":{"ID":129579,"DIS_CODE":0,"TOWNNAME":"永康區","LI":"安康里","LIN":"24鄰","STREET":"大橋一街","SECT":" ","MAREA":" ","LANE":" ","ALLEY":" ","HOUSE_NO":"９２號","E_COORD97":170754.95000000001,"N_COORD97":2546309.25,"ADDRESS":"大橋一街９２號","OBJECTID":129579},"geometry":{"x":170754.95000000205,"y":2546309.2500000019}},{"attributes":{"ID":129580,"DIS_CODE":0,"TOWNNAME":"永康區","LI":"勝利里","LIN":"26鄰","STREET":"中華路","SECT":" ","MAREA":" ","LANE":" ","ALLEY":" ","HOUSE_NO":"８１號","E_COORD97":171549.95000000001,"N_COORD97":2544621.4900000002,"ADDRESS":"中華路８１號","OBJECTID":129580},"geometry":{"x":171549.95000000205,"y":2544621.4900000039}},{"attributes":{"ID":129581,"DIS_CODE":0,"TOWNNAME":"東區","LI":"後甲里","LIN":"5鄰","STREET":"裕農路","SECT":" ","MAREA":" ","LANE":"６２１巷","ALLEY":"３６弄","HOUSE_NO":"１６號","E_COORD97":171676.67000000001,"N_COORD97":2543335.73,"ADDRESS":"裕農路６２１巷３６弄１６號","OBJECTID":129581},"geometry":{"x":171676.66999999993,"y":2543335.7300000023}},{"attributes":{"ID":129582,"DIS_CODE":0,"TOWNNAME":"東區","LI":"後甲里","LIN":"5鄰","STREET":"裕農路","SECT":" ","MAREA":" ","LANE":"６２１巷","ALLEY":"３６弄","HOUSE_NO":"６號","E_COORD97":171650.13,"N_COORD97":2543334.7599999998,"ADDRESS":"裕農路６２１巷３６弄６號","OBJECTID":129582},"geometry":{"x":171650.13000000175,"y":2543334.7600000016}},{"attributes":{"ID":129583,"DIS_CODE":0,"TOWNNAME":"東區","LI":"後甲里","LIN":"5鄰","STREET":"裕農路","SECT":" ","MAREA":" ","LANE":"６２１巷","ALLEY":"３６弄","HOUSE_NO":"１０號","E_COORD97":171663.16,"N_COORD97":2543335,"ADDRESS":"裕農路６２１巷３６弄１０號","OBJECTID":129583},"geometry":{"x":171663.16000000015,"y":2543335}},{"attributes":{"ID":129584,"DIS_CODE":0,"TOWNNAME":"東區","LI":"後甲里","LIN":"5鄰","STREET":"裕農路","SECT":" ","MAREA":" ","LANE":"６２１巷","ALLEY":"３６弄","HOUSE_NO":"１２號","E_COORD97":171667.01999999999,"N_COORD97":2543337.1699999999,"ADDRESS":"裕農路６２１巷３６弄１２號","OBJECTID":129584},"geometry":{"x":171667.01999999955,"y":2543337.1699999999}},{"attributes":{"ID":129585,"DIS_CODE":0,"TOWNNAME":"東區","LI":"崇明里","LIN":"6鄰","STREET":"大同路","SECT":"二段","MAREA":" ","LANE":"４４９巷","ALLEY":"２弄","HOUSE_NO":"２８號","E_COORD97":169748.92000000001,"N_COORD97":2541331.23,"ADDRESS":"大同路二段４４９巷２弄２８號","OBJECTID":129585},"geometry":{"x":169748.91999999993,"y":2541331.2300000042}},{"attributes":{"ID":129586,"DIS_CODE":0,"TOWNNAME":"東區","LI":"崇誨里","LIN":"27鄰","STREET":"裕豐街","SECT":" ","MAREA":" ","LANE":"１８５巷","ALLEY":"１２弄","HOUSE_NO":"１４號之２","E_COORD97":170748.10999999999,"N_COORD97":2543250.3199999998,"ADDRESS":"裕豐街１８５巷１２弄１４號之２","OBJECTID":129586},"geometry":{"x":170748.11000000034,"y":2543250.3200000022}},{"attributes":{"ID":129587,"DIS_CODE":0,"TOWNNAME":"永康區","LI":"南灣里","LIN":"13鄰","STREET":"大灣路","SECT":" ","MAREA":" ","LANE":" ","ALLEY":" ","HOUSE_NO":"５６８號","E_COORD97":174633.54000000001,"N_COORD97":2544712.2000000002,"ADDRESS":"大灣路５６８號","OBJECTID":129587},"geometry":{"x":174633.54000000097,"y":2544712.1999999993}},{"attributes":{"ID":129588,"DIS_CODE":0,"TOWNNAME":"永康區","LI":"二王里","LIN":"18鄰","STREET":"中山南路","SECT":" ","MAREA":" ","LANE":" ","ALLEY":" ","HOUSE_NO":"６２４號","E_COORD97":172354.35999999999,"N_COORD97":2546666.5299999998,"ADDRESS":"中山南路６２４號","OBJECTID":129588},"geometry":{"x":172354.3600000022,"y":2546666.5299999993}},{"attributes":{"ID":129589,"DIS_CODE":0,"TOWNNAME":"永康區","LI":"永康里","LIN":"39鄰","STREET":"永大一路","SECT":" ","MAREA":" ","LANE":" ","ALLEY":" ","HOUSE_NO":"１２號","E_COORD97":174348.85999999999,"N_COORD97":2546502.0499999998,"ADDRESS":"永大一路１２號","OBJECTID":129589},"geometry":{"x":174348.86000000034,"y":2546502.0500000007}},{"attributes":{"ID":129590,"DIS_CODE":0,"TOWNNAME":"佳里區","LI":"六安里","LIN":" ","STREET":"忠孝東路","SECT":" ","MAREA":" ","LANE":" ","ALLEY":" ","HOUSE_NO":"７７號","E_COORD97":165915.82000000001,"N_COORD97":2562786.6400000001,"ADDRESS":"忠孝東路７７號","OBJECTID":129590},"geometry":{"x":165915.8200000003,"y":2562786.6400000025}},{"attributes":{"ID":129591,"DIS_CODE":0,"TOWNNAME":"楠西區","LI":"鹿田里","LIN":"6鄰","STREET":" ","SECT":" ","MAREA":"鹿陶洋","LANE":" ","ALLEY":" ","HOUSE_NO":"１０１號","E_COORD97":197706.47,"N_COORD97":2561814.25,"ADDRESS":"鹿陶洋１０１號","OBJECTID":129591},"geometry":{"x":197706.47000000067,"y":2561814.25}},{"attributes":{"ID":129592,"DIS_CODE":0,"TOWNNAME":"楠西區","LI":"鹿田里","LIN":"6鄰","STREET":" ","SECT":" ","MAREA":"鹿陶洋","LANE":" ","ALLEY":" ","HOUSE_NO":"９７號之５","E_COORD97":197827.81,"N_COORD97":2561740.2999999998,"ADDRESS":"鹿陶洋９７號之５","OBJECTID":129592},"geometry":{"x":197827.81000000052,"y":2561740.3000000007}},{"attributes":{"ID":129593,"DIS_CODE":0,"TOWNNAME":"楠西區","LI":"鹿田里","LIN":"6鄰","STREET":" ","SECT":" ","MAREA":"鹿陶洋","LANE":" ","ALLEY":" ","HOUSE_NO":"８８號","E_COORD97":197780.72,"N_COORD97":2561635.25,"ADDRESS":"鹿陶洋８８號","OBJECTID":129593},"geometry":{"x":197780.7200000016,"y":2561635.25}},{"attributes":{"ID":129594,"DIS_CODE":0,"TOWNNAME":"楠西區","LI":"鹿田里","LIN":"6鄰","STREET":" ","SECT":" ","MAREA":"鹿陶洋","LANE":" ","ALLEY":" ","HOUSE_NO":"８６號","E_COORD97":197758.72,"N_COORD97":2561637.25,"ADDRESS":"鹿陶洋８６號","OBJECTID":129594},"geometry":{"x":197758.7200000016,"y":2561637.2500000019}},{"attributes":{"ID":129595,"DIS_CODE":0,"TOWNNAME":"安定區","LI":"港南里","LIN":"1鄰","STREET":" ","SECT":" ","MAREA":"港口","LANE":" ","ALLEY":" ","HOUSE_NO":"１之７７號","E_COORD97":171009.13,"N_COORD97":2554080.1699999999,"ADDRESS":"港口１之７７號","OBJECTID":129595},"geometry":{"x":171009.12999999989,"y":2554080.1700000018}},{"attributes":{"ID":129596,"DIS_CODE":0,"TOWNNAME":"安定區","LI":"港南里","LIN":"1鄰","STREET":" ","SECT":" ","MAREA":"港口","LANE":" ","ALLEY":" ","HOUSE_NO":"１之７８號","E_COORD97":170299.62153,"N_COORD97":2554528.8554099998,"ADDRESS":"港口１之７８號","OBJECTID":129596},"geometry":{"x":170299.62153000105,"y":2554528.8554070015}},{"attributes":{"ID":129597,"DIS_CODE":0,"TOWNNAME":"楠西區","LI":"密枝里","LIN":"6鄰","STREET":" ","SECT":" ","MAREA":"密枝","LANE":" ","ALLEY":" ","HOUSE_NO":"６３號之２０","E_COORD97":197947.70000000001,"N_COORD97":2565057.2999999998,"ADDRESS":"密枝６３號之２０","OBJECTID":129597},"geometry":{"x":197947.70000000112,"y":2565057.3000000026}},{"attributes":{"ID":129598,"DIS_CODE":0,"TOWNNAME":"楠西區","LI":"密枝里","LIN":"6鄰","STREET":" ","SECT":" ","MAREA":"密枝","LANE":" ","ALLEY":" ","HOUSE_NO":"６３號之７","E_COORD97":199016.78,"N_COORD97":2566036.2999999998,"ADDRESS":"密枝６３號之７","OBJECTID":129598},"geometry":{"x":199016.78000000212,"y":2566036.3000000007}},{"attributes":{"ID":129599,"DIS_CODE":0,"TOWNNAME":"楠西區","LI":"密枝里","LIN":"6鄰","STREET":" ","SECT":" ","MAREA":"密枝","LANE":" ","ALLEY":" ","HOUSE_NO":"６３號之５","E_COORD97":198967.35999999999,"N_COORD97":2565838.2999999998,"ADDRESS":"密枝６３號之５","OBJECTID":129599},"geometry":{"x":198967.36000000127,"y":2565838.3000000026}},{"attributes":{"ID":129600,"DIS_CODE":0,"TOWNNAME":"楠西區","LI":"密枝里","LIN":"6鄰","STREET":" ","SECT":" ","MAREA":"密枝","LANE":" ","ALLEY":" ","HOUSE_NO":"６３號之１９","E_COORD97":197916.23999999999,"N_COORD97":2565121.2999999998,"ADDRESS":"密枝６３號之１９","OBJECTID":129600},"geometry":{"x":197916.24000000022,"y":2565121.3000000045}}]}