{"displayFieldName":"TOWNNAME","fieldAliases":{"ID":"ID","DIS_CODE":"DIS_CODE","TOWNNAME":"TOWNNAME","LI":"LI","LIN":"LIN","STREET":"STREET","SECT":"SECT","MAREA":"MAREA","LANE":"LANE","ALLEY":"ALLEY","HOUSE_NO":"HOUSE_NO","E_COORD97":"E_COORD97","N_COORD97":"N_COORD97","ADDRESS":"ADDRESS","OBJECTID":"OBJECTID"},"geometryType":"esriGeometryPoint","spatialReference":{"wkid":102443,"latestWkid":3826},"fields":[{"name":"ID","type":"esriFieldTypeDouble","alias":"ID"},{"name":"DIS_CODE","type":"esriFieldTypeInteger","alias":"DIS_CODE"},{"name":"TOWNNAME","type":"esriFieldTypeString","alias":"TOWNNAME","length":8},{"name":"LI","type":"esriFieldTypeString","alias":"LI","length":8},{"name":"LIN","type":"esriFieldTypeString","alias":"LIN","length":12},{"name":"STREET","type":"esriFieldTypeString","alias":"STREET","length":20},{"name":"SECT","type":"esriFieldTypeString","alias":"SECT","length":8},{"name":"MAREA","type":"esriFieldTypeString","alias":"MAREA","length":12},{"name":"LANE","type":"esriFieldTypeString","alias":"LANE","length":10},{"name":"ALLEY","type":"esriFieldTypeString","alias":"ALLEY","length":10},{"name":"HOUSE_NO","type":"esriFieldTypeString","alias":"HOUSE_NO","length":20},{"name":"E_COORD97","type":"esriFieldTypeDouble","alias":"E_COORD97"},{"name":"N_COORD97","type":"esriFieldTypeDouble","alias":"N_COORD97"},{"name":"ADDRESS","type":"esriFieldTypeString","alias":"ADDRESS","length":50},{"name":"OBJECTID","type":"esriFieldTypeOID","alias":"OBJECTID"}],"features":[{"attributes":{"ID":129201,"DIS_CODE":0,"TOWNNAME":"安定區","LI":"管寮里","LIN":"4鄰","STREET":" ","SECT":" ","MAREA":"管寮","LANE":" ","ALLEY":" ","HOUSE_NO":"３３號之２","E_COORD97":170059.64957000001,"N_COORD97":2556384.3626999999,"ADDRESS":"管寮３３號之２","OBJECTID":129201},"geometry":{"x":170059.64957000222,"y":2556384.362703003}},{"attributes":{"ID":129202,"DIS_CODE":0,"TOWNNAME":"安定區","LI":"南安里","LIN":"4鄰","STREET":" ","SECT":" ","MAREA":"油車","LANE":" ","ALLEY":" ","HOUSE_NO":"３８之９號","E_COORD97":170698.34,"N_COORD97":2555530.2999999998,"ADDRESS":"油車３８之９號","OBJECTID":129202},"geometry":{"x":170698.34000000078,"y":2555530.3000000026}},{"attributes":{"ID":129203,"DIS_CODE":0,"TOWNNAME":"安定區","LI":"新吉里","LIN":"18鄰","STREET":" ","SECT":" ","MAREA":"新吉","LANE":" ","ALLEY":" ","HOUSE_NO":"２８２之２號","E_COORD97":168447.92000000001,"N_COORD97":2553986.2999999998,"ADDRESS":"新吉２８２之２號","OBJECTID":129203},"geometry":{"x":168447.92000000086,"y":2553986.3000000007}},{"attributes":{"ID":129204,"DIS_CODE":0,"TOWNNAME":"安定區","LI":"新吉里","LIN":"18鄰","STREET":" ","SECT":" ","MAREA":"新吉","LANE":" ","ALLEY":" ","HOUSE_NO":"２７０號","E_COORD97":168964.42000000001,"N_COORD97":2554049.25,"ADDRESS":"新吉２７０號","OBJECTID":129204},"geometry":{"x":168964.41999999993,"y":2554049.2500000019}},{"attributes":{"ID":129205,"DIS_CODE":0,"TOWNNAME":"安定區","LI":"蘇林里","LIN":"13鄰","STREET":" ","SECT":" ","MAREA":"蘇厝","LANE":" ","ALLEY":" ","HOUSE_NO":"１４８號","E_COORD97":173453.62,"N_COORD97":2558929.25,"ADDRESS":"蘇厝１４８號","OBJECTID":129205},"geometry":{"x":173453.62000000011,"y":2558929.25}},{"attributes":{"ID":129206,"DIS_CODE":0,"TOWNNAME":"安定區","LI":"港口里","LIN":"13鄰","STREET":" ","SECT":" ","MAREA":"港口","LANE":" ","ALLEY":" ","HOUSE_NO":"３４５之２６號","E_COORD97":171154.54000000001,"N_COORD97":2554695.2999999998,"ADDRESS":"港口３４５之２６號","OBJECTID":129206},"geometry":{"x":171154.54000000097,"y":2554695.3000000007}},{"attributes":{"ID":129207,"DIS_CODE":0,"TOWNNAME":"安南區","LI":"理想里","LIN":"11鄰","STREET":"海佃路","SECT":"二段","MAREA":" ","LANE":"１５０巷","ALLEY":"１０弄","HOUSE_NO":"４６號","E_COORD97":167134.17000000001,"N_COORD97":2548058.0899999999,"ADDRESS":"海佃路二段１５０巷１０弄４６號","OBJECTID":129207},"geometry":{"x":167134.17000000086,"y":2548058.0900000036}},{"attributes":{"ID":129208,"DIS_CODE":0,"TOWNNAME":"安南區","LI":"理想里","LIN":"11鄰","STREET":"海佃路","SECT":"二段","MAREA":" ","LANE":"１５０巷","ALLEY":"１０弄","HOUSE_NO":"４８號","E_COORD97":167137.79000000001,"N_COORD97":2548055.04,"ADDRESS":"海佃路二段１５０巷１０弄４８號","OBJECTID":129208},"geometry":{"x":167137.79000000004,"y":2548055.040000001}},{"attributes":{"ID":129209,"DIS_CODE":0,"TOWNNAME":"安南區","LI":"理想里","LIN":"11鄰","STREET":"海佃路","SECT":"二段","MAREA":" ","LANE":"１５０巷","ALLEY":"１０弄","HOUSE_NO":"６號","E_COORD97":167053.04000000001,"N_COORD97":2548105.25,"ADDRESS":"海佃路二段１５０巷１０弄６號","OBJECTID":129209},"geometry":{"x":167053.04000000004,"y":2548105.2500000019}},{"attributes":{"ID":129210,"DIS_CODE":0,"TOWNNAME":"玉井區","LI":"三和里","LIN":"6鄰","STREET":" ","SECT":" ","MAREA":"三和","LANE":" ","ALLEY":" ","HOUSE_NO":"６３號","E_COORD97":194888.23000000001,"N_COORD97":2555565.25,"ADDRESS":"三和６３號","OBJECTID":129210},"geometry":{"x":194888.23000000138,"y":2555565.25}},{"attributes":{"ID":129211,"DIS_CODE":0,"TOWNNAME":"安定區","LI":"港南里","LIN":"4鄰","STREET":" ","SECT":" ","MAREA":"港口","LANE":" ","ALLEY":" ","HOUSE_NO":"２７之１５號","E_COORD97":171518.09,"N_COORD97":2553990.2999999998,"ADDRESS":"港口２７之１５號","OBJECTID":129211},"geometry":{"x":171518.09000000171,"y":2553990.3000000007}},{"attributes":{"ID":129212,"DIS_CODE":0,"TOWNNAME":"安定區","LI":"港南里","LIN":"4鄰","STREET":" ","SECT":" ","MAREA":"港口","LANE":" ","ALLEY":" ","HOUSE_NO":"２７之１６號","E_COORD97":171513.89000000001,"N_COORD97":2553992.2999999998,"ADDRESS":"港口２７之１６號","OBJECTID":129212},"geometry":{"x":171513.88999999966,"y":2553992.3000000026}},{"attributes":{"ID":129213,"DIS_CODE":0,"TOWNNAME":"安南區","LI":"理想里","LIN":"11鄰","STREET":"海佃路","SECT":"二段","MAREA":" ","LANE":"１５０巷","ALLEY":"１０弄","HOUSE_NO":"８號","E_COORD97":167056.39000000001,"N_COORD97":2548102.1099999999,"ADDRESS":"海佃路二段１５０巷１０弄８號","OBJECTID":129213},"geometry":{"x":167056.3900000006,"y":2548102.1100000013}},{"attributes":{"ID":129214,"DIS_CODE":0,"TOWNNAME":"永康區","LI":"西橋里","LIN":"11鄰","STREET":"中華西街","SECT":" ","MAREA":" ","LANE":"１２７巷","ALLEY":"３０弄","HOUSE_NO":"１７號","E_COORD97":170554.16,"N_COORD97":2546145.7400000002,"ADDRESS":"中華西街１２７巷３０弄１７號","OBJECTID":129214},"geometry":{"x":170554.16000000108,"y":2546145.7400000021}},{"attributes":{"ID":129215,"DIS_CODE":0,"TOWNNAME":"永康區","LI":"西橋里","LIN":"11鄰","STREET":"中華西街","SECT":" ","MAREA":" ","LANE":"１２７巷","ALLEY":"３０弄","HOUSE_NO":"１３號","E_COORD97":170528.5,"N_COORD97":2546161.3500000001,"ADDRESS":"中華西街１２７巷３０弄１３號","OBJECTID":129215},"geometry":{"x":170528.5,"y":2546161.3500000015}},{"attributes":{"ID":129216,"DIS_CODE":0,"TOWNNAME":"永康區","LI":"西勢里","LIN":"11鄰","STREET":"西勢路","SECT":" ","MAREA":" ","LANE":"１９９巷","ALLEY":"４７弄","HOUSE_NO":"１４號","E_COORD97":175895.92999999999,"N_COORD97":2546687.9199999999,"ADDRESS":"西勢路１９９巷４７弄１４號","OBJECTID":129216},"geometry":{"x":175895.92999999877,"y":2546687.9199999999}},{"attributes":{"ID":129217,"DIS_CODE":0,"TOWNNAME":"永康區","LI":"西勢里","LIN":"11鄰","STREET":"西勢路","SECT":" ","MAREA":" ","LANE":"１９９巷","ALLEY":"４７弄","HOUSE_NO":"２２號","E_COORD97":175906.20999999999,"N_COORD97":2546682.3900000001,"ADDRESS":"西勢路１９９巷４７弄２２號","OBJECTID":129217},"geometry":{"x":175906.20999999903,"y":2546682.3900000006}},{"attributes":{"ID":129218,"DIS_CODE":0,"TOWNNAME":"永康區","LI":"西勢里","LIN":"11鄰","STREET":"西勢路","SECT":" ","MAREA":" ","LANE":"１９９巷","ALLEY":"４７弄","HOUSE_NO":"２０號","E_COORD97":175906.56,"N_COORD97":2546671.8900000001,"ADDRESS":"西勢路１９９巷４７弄２０號","OBJECTID":129218},"geometry":{"x":175906.55999999959,"y":2546671.8900000006}},{"attributes":{"ID":129219,"DIS_CODE":0,"TOWNNAME":"永康區","LI":"西勢里","LIN":"11鄰","STREET":"西勢路","SECT":" ","MAREA":" ","LANE":"１９９巷","ALLEY":"４９弄","HOUSE_NO":"８號","E_COORD97":175863.53,"N_COORD97":2546638.7599999998,"ADDRESS":"西勢路１９９巷４９弄８號","OBJECTID":129219},"geometry":{"x":175863.53000000026,"y":2546638.7599999998}},{"attributes":{"ID":129220,"DIS_CODE":0,"TOWNNAME":"永康區","LI":"西勢里","LIN":"11鄰","STREET":"西勢路","SECT":" ","MAREA":" ","LANE":"１９９巷","ALLEY":"４９弄","HOUSE_NO":"２１號","E_COORD97":175897.01000000001,"N_COORD97":2546652.8900000001,"ADDRESS":"西勢路１９９巷４９弄２１號","OBJECTID":129220},"geometry":{"x":175897.00999999978,"y":2546652.8900000006}},{"attributes":{"ID":129221,"DIS_CODE":0,"TOWNNAME":"永康區","LI":"西勢里","LIN":"11鄰","STREET":"西勢路","SECT":" ","MAREA":" ","LANE":"１９９巷","ALLEY":"４７弄","HOUSE_NO":"２４號","E_COORD97":175906.26000000001,"N_COORD97":2546685.8900000001,"ADDRESS":"西勢路１９９巷４７弄２４號","OBJECTID":129221},"geometry":{"x":175906.26000000071,"y":2546685.8900000006}},{"attributes":{"ID":129222,"DIS_CODE":0,"TOWNNAME":"安定區","LI":"中沙里","LIN":"4鄰","STREET":" ","SECT":" ","MAREA":"中崙","LANE":" ","ALLEY":" ","HOUSE_NO":"１２號","E_COORD97":169374.10999999999,"N_COORD97":2553181.25,"ADDRESS":"中崙２號","OBJECTID":129222},"geometry":{"x":169374.1100000022,"y":2553181.2500000019}},{"attributes":{"ID":129223,"DIS_CODE":0,"TOWNNAME":"安定區","LI":"港口里","LIN":"20鄰","STREET":" ","SECT":" ","MAREA":"港口","LANE":" ","ALLEY":" ","HOUSE_NO":"３９９之７９號","E_COORD97":171574.04000000001,"N_COORD97":2554989.2999999998,"ADDRESS":"港口３９９之７９號","OBJECTID":129223},"geometry":{"x":171574.04000000004,"y":2554989.3000000007}},{"attributes":{"ID":129224,"DIS_CODE":0,"TOWNNAME":"佳里區","LI":"通興里","LIN":"6鄰","STREET":" ","SECT":" ","MAREA":"東勢寮","LANE":" ","ALLEY":" ","HOUSE_NO":"２７號之２","E_COORD97":163742.89999999999,"N_COORD97":2560368.6800000002,"ADDRESS":"東勢寮２７號之２","OBJECTID":129224},"geometry":{"x":163742.9000000013,"y":2560368.6800000016}},{"attributes":{"ID":129225,"DIS_CODE":0,"TOWNNAME":"佳里區","LI":"通興里","LIN":"6鄰","STREET":" ","SECT":" ","MAREA":"東勢寮","LANE":" ","ALLEY":" ","HOUSE_NO":"２７號之３","E_COORD97":163749.16,"N_COORD97":2560346.75,"ADDRESS":"東勢寮２７號之３","OBJECTID":129225},"geometry":{"x":163749.16000000108,"y":2560346.75}},{"attributes":{"ID":129226,"DIS_CODE":0,"TOWNNAME":"佳里區","LI":"通興里","LIN":"4鄰","STREET":" ","SECT":" ","MAREA":"東勢寮","LANE":" ","ALLEY":" ","HOUSE_NO":"３號","E_COORD97":163956.19,"N_COORD97":2559976.8300000001,"ADDRESS":"東勢寮３號","OBJECTID":129226},"geometry":{"x":163956.19000000134,"y":2559976.8300000001}},{"attributes":{"ID":129227,"DIS_CODE":0,"TOWNNAME":"佳里區","LI":"通興里","LIN":"4鄰","STREET":" ","SECT":" ","MAREA":"東勢寮","LANE":" ","ALLEY":" ","HOUSE_NO":"６號","E_COORD97":163946.19,"N_COORD97":2560023.7599999998,"ADDRESS":"東勢寮６號","OBJECTID":129227},"geometry":{"x":163946.19000000134,"y":2560023.7599999998}},{"attributes":{"ID":129228,"DIS_CODE":0,"TOWNNAME":"佳里區","LI":"通興里","LIN":"4鄰","STREET":" ","SECT":" ","MAREA":"東勢寮","LANE":" ","ALLEY":" ","HOUSE_NO":"７號之１","E_COORD97":163895.56,"N_COORD97":2559992.8399999999,"ADDRESS":"東勢寮７號之１","OBJECTID":129228},"geometry":{"x":163895.56000000052,"y":2559992.8399999999}},{"attributes":{"ID":129229,"DIS_CODE":0,"TOWNNAME":"佳里區","LI":"通興里","LIN":"4鄰","STREET":" ","SECT":" ","MAREA":"東勢寮","LANE":" ","ALLEY":" ","HOUSE_NO":"７號","E_COORD97":163928.84,"N_COORD97":2560019.1600000001,"ADDRESS":"東勢寮７號","OBJECTID":129229},"geometry":{"x":163928.84000000171,"y":2560019.1600000039}},{"attributes":{"ID":129230,"DIS_CODE":0,"TOWNNAME":"佳里區","LI":"通興里","LIN":"4鄰","STREET":" ","SECT":" ","MAREA":"東勢寮","LANE":" ","ALLEY":" ","HOUSE_NO":"８號之１","E_COORD97":163919.39999999999,"N_COORD97":2560067.29,"ADDRESS":"東勢寮８號之１","OBJECTID":129230},"geometry":{"x":163919.4000000013,"y":2560067.2899999991}},{"attributes":{"ID":129231,"DIS_CODE":0,"TOWNNAME":"佳里區","LI":"通興里","LIN":"4鄰","STREET":" ","SECT":" ","MAREA":"東勢寮","LANE":" ","ALLEY":" ","HOUSE_NO":"８號之２","E_COORD97":164402.64000000001,"N_COORD97":2560033.4199999999,"ADDRESS":"東勢寮８號之２","OBJECTID":129231},"geometry":{"x":164402.63999999966,"y":2560033.4199999999}},{"attributes":{"ID":129232,"DIS_CODE":0,"TOWNNAME":"佳里區","LI":"通興里","LIN":"4鄰","STREET":" ","SECT":" ","MAREA":"東勢寮","LANE":" ","ALLEY":" ","HOUSE_NO":"８號","E_COORD97":163894.09,"N_COORD97":2560029.0099999998,"ADDRESS":"東勢寮８號","OBJECTID":129232},"geometry":{"x":163894.08999999985,"y":2560029.0099999998}},{"attributes":{"ID":129233,"DIS_CODE":0,"TOWNNAME":"佳里區","LI":"東寧里","LIN":"13鄰","STREET":" ","SECT":" ","MAREA":"東寧","LANE":" ","ALLEY":" ","HOUSE_NO":"４７號","E_COORD97":165916.14999999999,"N_COORD97":2562543.9100000001,"ADDRESS":"東寧４７號","OBJECTID":129233},"geometry":{"x":165916.1500000013,"y":2562543.910000002}},{"attributes":{"ID":129234,"DIS_CODE":0,"TOWNNAME":"佳里區","LI":"東寧里","LIN":"15鄰","STREET":" ","SECT":" ","MAREA":"東寧","LANE":" ","ALLEY":" ","HOUSE_NO":"２號之１","E_COORD97":165894.37,"N_COORD97":2562391.1400000001,"ADDRESS":"東寧２號之１","OBJECTID":129234},"geometry":{"x":165894.37000000104,"y":2562391.1400000025}},{"attributes":{"ID":129235,"DIS_CODE":0,"TOWNNAME":"佳里區","LI":"東寧里","LIN":"15鄰","STREET":" ","SECT":" ","MAREA":"東寧","LANE":" ","ALLEY":" ","HOUSE_NO":"２號","E_COORD97":165910.29999999999,"N_COORD97":2562393.6600000001,"ADDRESS":"東寧２號","OBJECTID":129235},"geometry":{"x":165910.29999999981,"y":2562393.660000002}},{"attributes":{"ID":129236,"DIS_CODE":0,"TOWNNAME":"永康區","LI":"西勢里","LIN":"11鄰","STREET":"西勢路","SECT":" ","MAREA":" ","LANE":"１９９巷","ALLEY":"４９弄","HOUSE_NO":"３號","E_COORD97":175858.32999999999,"N_COORD97":2546649.21,"ADDRESS":"西勢路１９９巷４９弄３號","OBJECTID":129236},"geometry":{"x":175858.33000000101,"y":2546649.2100000028}},{"attributes":{"ID":129237,"DIS_CODE":0,"TOWNNAME":"永康區","LI":"西勢里","LIN":"11鄰","STREET":"西勢路","SECT":" ","MAREA":" ","LANE":"１９９巷","ALLEY":"４９弄","HOUSE_NO":"６號","E_COORD97":175858.98000000001,"N_COORD97":2546638.0099999998,"ADDRESS":"西勢路１９９巷４９弄６號","OBJECTID":129237},"geometry":{"x":175858.98000000045,"y":2546638.0100000035}},{"attributes":{"ID":129238,"DIS_CODE":0,"TOWNNAME":"永康區","LI":"西勢里","LIN":"11鄰","STREET":"西勢路","SECT":" ","MAREA":" ","LANE":"１９９巷","ALLEY":"４７弄","HOUSE_NO":"１６號","E_COORD97":175896.39000000001,"N_COORD97":2546681.9199999999,"ADDRESS":"西勢路１９９巷４７弄１６號","OBJECTID":129238},"geometry":{"x":175896.39000000153,"y":2546681.9199999999}},{"attributes":{"ID":129239,"DIS_CODE":0,"TOWNNAME":"永康區","LI":"西勢里","LIN":"11鄰","STREET":"西勢路","SECT":" ","MAREA":" ","LANE":"１９９巷","ALLEY":"４９弄","HOUSE_NO":"１０號","E_COORD97":175868.98000000001,"N_COORD97":2546639.0099999998,"ADDRESS":"西勢路１９９巷４９弄１０號","OBJECTID":129239},"geometry":{"x":175868.98000000045,"y":2546639.0100000016}},{"attributes":{"ID":129240,"DIS_CODE":0,"TOWNNAME":"歸仁區","LI":"新厝里","LIN":"6鄰","STREET":"復興路","SECT":" ","MAREA":" ","LANE":" ","ALLEY":" ","HOUSE_NO":"１３７號","E_COORD97":177715.20000000001,"N_COORD97":2540623.9399999999,"ADDRESS":"復興路１３７號","OBJECTID":129240},"geometry":{"x":177715.20000000019,"y":2540623.9400000013}},{"attributes":{"ID":129241,"DIS_CODE":0,"TOWNNAME":"歸仁區","LI":"沙崙里","LIN":"6鄰","STREET":" ","SECT":" ","MAREA":"沙崙","LANE":" ","ALLEY":" ","HOUSE_NO":"３１０號","E_COORD97":179532.98000000001,"N_COORD97":2537960.25,"ADDRESS":"沙崙３１０號","OBJECTID":129241},"geometry":{"x":179532.98000000138,"y":2537960.25}},{"attributes":{"ID":129242,"DIS_CODE":0,"TOWNNAME":"永康區","LI":"西勢里","LIN":"11鄰","STREET":"西勢路","SECT":" ","MAREA":" ","LANE":"１９９巷","ALLEY":"４９弄","HOUSE_NO":"１３號","E_COORD97":175878.47,"N_COORD97":2546671.9700000002,"ADDRESS":"西勢路１９９巷４９弄１３號","OBJECTID":129242},"geometry":{"x":175878.46999999974,"y":2546671.9700000007}},{"attributes":{"ID":129243,"DIS_CODE":0,"TOWNNAME":"歸仁區","LI":"沙崙里","LIN":"6鄰","STREET":" ","SECT":" ","MAREA":"沙崙","LANE":" ","ALLEY":" ","HOUSE_NO":"２９５號","E_COORD97":179625.67999999999,"N_COORD97":2538055.25,"ADDRESS":"沙崙２９５號","OBJECTID":129243},"geometry":{"x":179625.68000000063,"y":2538055.2499999981}},{"attributes":{"ID":129244,"DIS_CODE":0,"TOWNNAME":"歸仁區","LI":"沙崙里","LIN":"6鄰","STREET":" ","SECT":" ","MAREA":"沙崙","LANE":" ","ALLEY":" ","HOUSE_NO":"３００號","E_COORD97":179558.98000000001,"N_COORD97":2538036.25,"ADDRESS":"沙崙３００號","OBJECTID":129244},"geometry":{"x":179558.98000000045,"y":2538036.2500000019}},{"attributes":{"ID":129245,"DIS_CODE":0,"TOWNNAME":"歸仁區","LI":"沙崙里","LIN":"6鄰","STREET":" ","SECT":" ","MAREA":"沙崙","LANE":" ","ALLEY":" ","HOUSE_NO":"２７９號","E_COORD97":179579.28,"N_COORD97":2537991.25,"ADDRESS":"沙崙２７９號","OBJECTID":129245},"geometry":{"x":179579.28000000026,"y":2537991.2500000037}},{"attributes":{"ID":129246,"DIS_CODE":0,"TOWNNAME":"永康區","LI":"西勢里","LIN":"11鄰","STREET":"西勢路","SECT":" ","MAREA":" ","LANE":"１９９巷","ALLEY":"４９弄","HOUSE_NO":"１５號","E_COORD97":175881.42999999999,"N_COORD97":2546650.4100000001,"ADDRESS":"西勢路１９９巷４９弄１５號","OBJECTID":129246},"geometry":{"x":175881.43000000063,"y":2546650.410000002}},{"attributes":{"ID":129247,"DIS_CODE":0,"TOWNNAME":"佳里區","LI":"東寧里","LIN":"15鄰","STREET":" ","SECT":" ","MAREA":"東寧","LANE":" ","ALLEY":" ","HOUSE_NO":"４號","E_COORD97":165940.62,"N_COORD97":2562410.8100000001,"ADDRESS":"東寧４號","OBJECTID":129247},"geometry":{"x":165940.62000000011,"y":2562410.8100000005}},{"attributes":{"ID":129248,"DIS_CODE":0,"TOWNNAME":"佳里區","LI":"通興里","LIN":"6鄰","STREET":" ","SECT":" ","MAREA":"東勢寮","LANE":" ","ALLEY":" ","HOUSE_NO":"４０號","E_COORD97":163653.29999999999,"N_COORD97":2560294.5299999998,"ADDRESS":"東勢寮４０號","OBJECTID":129248},"geometry":{"x":163653.30000000075,"y":2560294.5300000012}},{"attributes":{"ID":129249,"DIS_CODE":0,"TOWNNAME":"佳里區","LI":"通興里","LIN":"6鄰","STREET":" ","SECT":" ","MAREA":"東勢寮","LANE":" ","ALLEY":" ","HOUSE_NO":"４１號","E_COORD97":163652.94,"N_COORD97":2560299.0299999998,"ADDRESS":"東勢寮４１號","OBJECTID":129249},"geometry":{"x":163652.94000000134,"y":2560299.0299999993}},{"attributes":{"ID":129250,"DIS_CODE":0,"TOWNNAME":"佳里區","LI":"通興里","LIN":"6鄰","STREET":" ","SECT":" ","MAREA":"東勢寮","LANE":" ","ALLEY":" ","HOUSE_NO":"４２號","E_COORD97":163652.29999999999,"N_COORD97":2560303.77,"ADDRESS":"東勢寮４２號","OBJECTID":129250},"geometry":{"x":163652.29999999981,"y":2560303.7700000014}},{"attributes":{"ID":129251,"DIS_CODE":0,"TOWNNAME":"佳里區","LI":"通興里","LIN":"6鄰","STREET":" ","SECT":" ","MAREA":"東勢寮","LANE":" ","ALLEY":" ","HOUSE_NO":"４３號","E_COORD97":163652.01999999999,"N_COORD97":2560308.1400000001,"ADDRESS":"東勢寮４３號","OBJECTID":129251},"geometry":{"x":163652.01999999955,"y":2560308.1400000043}},{"attributes":{"ID":129252,"DIS_CODE":0,"TOWNNAME":"佳里區","LI":"通興里","LIN":"6鄰","STREET":" ","SECT":" ","MAREA":"東勢寮","LANE":" ","ALLEY":" ","HOUSE_NO":"４４號","E_COORD97":163651.60000000001,"N_COORD97":2560312.7799999998,"ADDRESS":"東勢寮４４號","OBJECTID":129252},"geometry":{"x":163651.59999999963,"y":2560312.7800000012}},{"attributes":{"ID":129253,"DIS_CODE":0,"TOWNNAME":"佳里區","LI":"通興里","LIN":"6鄰","STREET":" ","SECT":" ","MAREA":"東勢寮","LANE":" ","ALLEY":" ","HOUSE_NO":"４５號","E_COORD97":163651.20000000001,"N_COORD97":2560317.4399999999,"ADDRESS":"東勢寮４５號","OBJECTID":129253},"geometry":{"x":163651.20000000112,"y":2560317.4399999995}},{"attributes":{"ID":129254,"DIS_CODE":0,"TOWNNAME":"佳里區","LI":"通興里","LIN":"6鄰","STREET":" ","SECT":" ","MAREA":"東勢寮","LANE":" ","ALLEY":" ","HOUSE_NO":"４６號","E_COORD97":163650.81,"N_COORD97":2560321.9700000002,"ADDRESS":"東勢寮４６號","OBJECTID":129254},"geometry":{"x":163650.81000000145,"y":2560321.9700000007}},{"attributes":{"ID":129255,"DIS_CODE":0,"TOWNNAME":"安定區","LI":"新吉里","LIN":"8鄰","STREET":" ","SECT":" ","MAREA":"新吉","LANE":" ","ALLEY":" ","HOUSE_NO":"７０號之９","E_COORD97":169124.79000000001,"N_COORD97":2554052.2999999998,"ADDRESS":"新吉７０號之９","OBJECTID":129255},"geometry":{"x":169124.79000000004,"y":2554052.3000000026}},{"attributes":{"ID":129256,"DIS_CODE":0,"TOWNNAME":"永康區","LI":"西勢里","LIN":"11鄰","STREET":"西勢路","SECT":" ","MAREA":" ","LANE":"１９９巷","ALLEY":"４９弄","HOUSE_NO":"２７號","E_COORD97":175910.22,"N_COORD97":2546653.29,"ADDRESS":"西勢路１９９巷４９弄２７號","OBJECTID":129256},"geometry":{"x":175910.22000000067,"y":2546653.290000001}},{"attributes":{"ID":129257,"DIS_CODE":0,"TOWNNAME":"安定區","LI":"港口里","LIN":"20鄰","STREET":" ","SECT":" ","MAREA":"港口","LANE":" ","ALLEY":" ","HOUSE_NO":"３９９之５９號","E_COORD97":171575.64000000001,"N_COORD97":2554944.2999999998,"ADDRESS":"港口３９９之５９號","OBJECTID":129257},"geometry":{"x":171575.6400000006,"y":2554944.3000000026}},{"attributes":{"ID":129258,"DIS_CODE":0,"TOWNNAME":"永康區","LI":"西勢里","LIN":"11鄰","STREET":"西勢路","SECT":" ","MAREA":" ","LANE":"１９９巷","ALLEY":"４９弄","HOUSE_NO":"２２號","E_COORD97":175904.73999999999,"N_COORD97":2546639.3300000001,"ADDRESS":"西勢路１９９巷４９弄２２號","OBJECTID":129258},"geometry":{"x":175904.74000000209,"y":2546639.3300000038}},{"attributes":{"ID":129259,"DIS_CODE":0,"TOWNNAME":"永康區","LI":"西勢里","LIN":"11鄰","STREET":"西勢路","SECT":" ","MAREA":" ","LANE":"１９９巷","ALLEY":"４９弄","HOUSE_NO":"１６號","E_COORD97":175889.64999999999,"N_COORD97":2546638.5800000001,"ADDRESS":"西勢路１９９巷４９弄１６號","OBJECTID":129259},"geometry":{"x":175889.65000000037,"y":2546638.5800000019}},{"attributes":{"ID":129260,"DIS_CODE":0,"TOWNNAME":"永康區","LI":"西勢里","LIN":"11鄰","STREET":"西勢路","SECT":" ","MAREA":" ","LANE":"１９９巷","ALLEY":"４９弄","HOUSE_NO":"１２號","E_COORD97":175874.03,"N_COORD97":2546636.5099999998,"ADDRESS":"西勢路１９９巷４９弄１２號","OBJECTID":129260},"geometry":{"x":175874.03000000212,"y":2546636.5099999998}},{"attributes":{"ID":129261,"DIS_CODE":0,"TOWNNAME":"安定區","LI":"南安里","LIN":"4鄰","STREET":" ","SECT":" ","MAREA":"油車","LANE":" ","ALLEY":" ","HOUSE_NO":"３８之２號","E_COORD97":170728.44,"N_COORD97":2555538.2999999998,"ADDRESS":"油車３８之２號","OBJECTID":129261},"geometry":{"x":170728.44000000134,"y":2555538.3000000026}},{"attributes":{"ID":129262,"DIS_CODE":0,"TOWNNAME":"安定區","LI":"港口里","LIN":"18鄰","STREET":" ","SECT":" ","MAREA":"港口","LANE":" ","ALLEY":" ","HOUSE_NO":"３８２之６號","E_COORD97":171423.69,"N_COORD97":2555050.2999999998,"ADDRESS":"港口３８２之６號","OBJECTID":129262},"geometry":{"x":171423.69000000134,"y":2555050.3000000007}},{"attributes":{"ID":129263,"DIS_CODE":0,"TOWNNAME":"永康區","LI":"西勢里","LIN":"11鄰","STREET":"西勢路","SECT":" ","MAREA":" ","LANE":"１９９巷","ALLEY":"４９弄","HOUSE_NO":"１７號","E_COORD97":175886.14999999999,"N_COORD97":2546650.27,"ADDRESS":"西勢路１９９巷４９弄１７號","OBJECTID":129263},"geometry":{"x":175886.15000000037,"y":2546650.2700000014}},{"attributes":{"ID":129264,"DIS_CODE":0,"TOWNNAME":"安定區","LI":"海寮里","LIN":"1鄰","STREET":" ","SECT":" ","MAREA":"海寮","LANE":" ","ALLEY":" ","HOUSE_NO":"５之１號","E_COORD97":169021.23999999999,"N_COORD97":2555061.2999999998,"ADDRESS":"海寮５之１號","OBJECTID":129264},"geometry":{"x":169021.24000000115,"y":2555061.3000000007}},{"attributes":{"ID":129265,"DIS_CODE":0,"TOWNNAME":"安定區","LI":"海寮里","LIN":"1鄰","STREET":" ","SECT":" ","MAREA":"海寮","LANE":" ","ALLEY":" ","HOUSE_NO":"１６號之６","E_COORD97":169196.32999999999,"N_COORD97":2555099.2999999998,"ADDRESS":"海寮１６號之６","OBJECTID":129265},"geometry":{"x":169196.33000000101,"y":2555099.3000000045}},{"attributes":{"ID":129266,"DIS_CODE":0,"TOWNNAME":"安定區","LI":"中沙里","LIN":"4鄰","STREET":" ","SECT":" ","MAREA":"中崙","LANE":" ","ALLEY":" ","HOUSE_NO":"１６８號","E_COORD97":168899.41,"N_COORD97":2552742.25,"ADDRESS":"中崙１６８號","OBJECTID":129266},"geometry":{"x":168899.41000000108,"y":2552742.25}},{"attributes":{"ID":129267,"DIS_CODE":0,"TOWNNAME":"永康區","LI":"西勢里","LIN":"11鄰","STREET":"西勢路","SECT":" ","MAREA":" ","LANE":"１９９巷","ALLEY":"４９弄","HOUSE_NO":"１８號","E_COORD97":175894.29000000001,"N_COORD97":2546639.3300000001,"ADDRESS":"西勢路１９９巷４９弄１８號","OBJECTID":129267},"geometry":{"x":175894.29000000097,"y":2546639.3300000038}},{"attributes":{"ID":129268,"DIS_CODE":0,"TOWNNAME":"永康區","LI":"西勢里","LIN":"11鄰","STREET":"西勢路","SECT":" ","MAREA":" ","LANE":"１９９巷","ALLEY":"４９弄","HOUSE_NO":"２０號","E_COORD97":175900.44,"N_COORD97":2546639.5800000001,"ADDRESS":"西勢路１９９巷４９弄２０號","OBJECTID":129268},"geometry":{"x":175900.44000000134,"y":2546639.5800000001}},{"attributes":{"ID":129269,"DIS_CODE":0,"TOWNNAME":"安定區","LI":"六嘉里","LIN":"5鄰","STREET":" ","SECT":" ","MAREA":"六塊寮","LANE":" ","ALLEY":" ","HOUSE_NO":"４１號之３","E_COORD97":170267.75,"N_COORD97":2553458.2999999998,"ADDRESS":"六塊寮４１號之３","OBJECTID":129269},"geometry":{"x":170267.74999999907,"y":2553458.3000000045}},{"attributes":{"ID":129270,"DIS_CODE":0,"TOWNNAME":"安定區","LI":"新吉里","LIN":"18鄰","STREET":" ","SECT":" ","MAREA":"新吉","LANE":" ","ALLEY":" ","HOUSE_NO":"２４９之９號","E_COORD97":168995.92000000001,"N_COORD97":2554065.2999999998,"ADDRESS":"新吉２４９之９號","OBJECTID":129270},"geometry":{"x":168995.92000000086,"y":2554065.3000000045}},{"attributes":{"ID":129271,"DIS_CODE":0,"TOWNNAME":"玉井區","LI":"三埔里","LIN":"6鄰","STREET":" ","SECT":" ","MAREA":"三埔","LANE":" ","ALLEY":" ","HOUSE_NO":"６１號","E_COORD97":196664.14000000001,"N_COORD97":2554241.2400000002,"ADDRESS":"三埔６１號","OBJECTID":129271},"geometry":{"x":196664.14000000153,"y":2554241.2399999984}},{"attributes":{"ID":129272,"DIS_CODE":0,"TOWNNAME":"玉井區","LI":"豐里里","LIN":"6鄰","STREET":" ","SECT":" ","MAREA":"豐里","LANE":" ","ALLEY":" ","HOUSE_NO":"６０之７號","E_COORD97":192959.67000000001,"N_COORD97":2558652.2999999998,"ADDRESS":"豐里６０之７號","OBJECTID":129272},"geometry":{"x":192959.66999999993,"y":2558652.2999999989}},{"attributes":{"ID":129273,"DIS_CODE":0,"TOWNNAME":"永康區","LI":"西勢里","LIN":"11鄰","STREET":"西勢路","SECT":" ","MAREA":" ","LANE":"１９９巷","ALLEY":"４９弄","HOUSE_NO":"１４號","E_COORD97":175885.32999999999,"N_COORD97":2546637.5800000001,"ADDRESS":"西勢路１９９巷４９弄１４號","OBJECTID":129273},"geometry":{"x":175885.33000000194,"y":2546637.5799999982}},{"attributes":{"ID":129274,"DIS_CODE":0,"TOWNNAME":"玉井區","LI":"豐里里","LIN":"6鄰","STREET":" ","SECT":" ","MAREA":"豐里","LANE":" ","ALLEY":" ","HOUSE_NO":"５９號","E_COORD97":193085.67000000001,"N_COORD97":2558076.2400000002,"ADDRESS":"豐里５９號","OBJECTID":129274},"geometry":{"x":193085.67000000179,"y":2558076.2400000039}},{"attributes":{"ID":129275,"DIS_CODE":0,"TOWNNAME":"永康區","LI":"西勢里","LIN":"11鄰","STREET":"西勢路","SECT":" ","MAREA":" ","LANE":"１９９巷","ALLEY":"４９弄","HOUSE_NO":"１９號","E_COORD97":175889.5,"N_COORD97":2546650.5899999999,"ADDRESS":"西勢路１９９巷４９弄１９號","OBJECTID":129275},"geometry":{"x":175889.50000000093,"y":2546650.5899999999}},{"attributes":{"ID":129276,"DIS_CODE":0,"TOWNNAME":"玉井區","LI":"三埔里","LIN":"6鄰","STREET":" ","SECT":" ","MAREA":"三埔","LANE":" ","ALLEY":" ","HOUSE_NO":"７２號","E_COORD97":196373.54000000001,"N_COORD97":2554224.2400000002,"ADDRESS":"三埔７２號","OBJECTID":129276},"geometry":{"x":196373.5400000019,"y":2554224.2399999984}},{"attributes":{"ID":129277,"DIS_CODE":0,"TOWNNAME":"玉井區","LI":"望明里","LIN":"6鄰","STREET":" ","SECT":" ","MAREA":"望明","LANE":" ","ALLEY":" ","HOUSE_NO":"６６號","E_COORD97":194269.23000000001,"N_COORD97":2556111.2400000002,"ADDRESS":"望明６６號","OBJECTID":129277},"geometry":{"x":194269.23000000138,"y":2556111.2400000021}},{"attributes":{"ID":129278,"DIS_CODE":0,"TOWNNAME":"永康區","LI":"西勢里","LIN":"11鄰","STREET":"西勢路","SECT":" ","MAREA":" ","LANE":"１９９巷","ALLEY":"４９弄","HOUSE_NO":"２３號","E_COORD97":175901.35999999999,"N_COORD97":2546653.0600000001,"ADDRESS":"西勢路１９９巷４９弄２３號","OBJECTID":129278},"geometry":{"x":175901.36000000127,"y":2546653.0600000024}},{"attributes":{"ID":129279,"DIS_CODE":0,"TOWNNAME":"玉井區","LI":"三和里","LIN":"6鄰","STREET":" ","SECT":" ","MAREA":"三和","LANE":" ","ALLEY":" ","HOUSE_NO":"６６號","E_COORD97":194888.84,"N_COORD97":2555654.25,"ADDRESS":"三和６６號","OBJECTID":129279},"geometry":{"x":194888.84000000078,"y":2555654.25}},{"attributes":{"ID":129280,"DIS_CODE":0,"TOWNNAME":"玉井區","LI":"三和里","LIN":"6鄰","STREET":" ","SECT":" ","MAREA":"三和","LANE":" ","ALLEY":" ","HOUSE_NO":"６４之２號","E_COORD97":194891.04000000001,"N_COORD97":2555602.29,"ADDRESS":"三和６４之２號","OBJECTID":129280},"geometry":{"x":194891.04000000097,"y":2555602.2899999991}},{"attributes":{"ID":129281,"DIS_CODE":0,"TOWNNAME":"玉井區","LI":"豐里里","LIN":"6鄰","STREET":" ","SECT":" ","MAREA":"豐里","LANE":" ","ALLEY":" ","HOUSE_NO":"６６之１號","E_COORD97":193070.37,"N_COORD97":2557976.29,"ADDRESS":"豐里６６之１號","OBJECTID":129281},"geometry":{"x":193070.37000000011,"y":2557976.2900000028}},{"attributes":{"ID":129282,"DIS_CODE":0,"TOWNNAME":"玉井區","LI":"望明里","LIN":"6鄰","STREET":" ","SECT":" ","MAREA":"望明","LANE":" ","ALLEY":" ","HOUSE_NO":"６２號","E_COORD97":194238.84,"N_COORD97":2556050.25,"ADDRESS":"望明６２號","OBJECTID":129282},"geometry":{"x":194238.84000000171,"y":2556050.25}},{"attributes":{"ID":129283,"DIS_CODE":0,"TOWNNAME":"玉井區","LI":"三埔里","LIN":"6鄰","STREET":" ","SECT":" ","MAREA":"三埔","LANE":" ","ALLEY":" ","HOUSE_NO":"６８號","E_COORD97":196572.54000000001,"N_COORD97":2554245.2400000002,"ADDRESS":"三埔６８號","OBJECTID":129283},"geometry":{"x":196572.54000000097,"y":2554245.2400000021}},{"attributes":{"ID":129284,"DIS_CODE":0,"TOWNNAME":"玉井區","LI":"望明里","LIN":"6鄰","STREET":" ","SECT":" ","MAREA":"望明","LANE":" ","ALLEY":" ","HOUSE_NO":"５７號","E_COORD97":194231.04000000001,"N_COORD97":2556099.2400000002,"ADDRESS":"望明５７號","OBJECTID":129284},"geometry":{"x":194231.04000000097,"y":2556099.2399999984}},{"attributes":{"ID":129285,"DIS_CODE":0,"TOWNNAME":"玉井區","LI":"豐里里","LIN":"6鄰","STREET":" ","SECT":" ","MAREA":"豐里","LANE":" ","ALLEY":" ","HOUSE_NO":"６０之１５號","E_COORD97":193106.42000000001,"N_COORD97":2558477.29,"ADDRESS":"豐里６０之１５號","OBJECTID":129285},"geometry":{"x":193106.42000000086,"y":2558477.2899999991}},{"attributes":{"ID":129286,"DIS_CODE":0,"TOWNNAME":"玉井區","LI":"豐里里","LIN":"6鄰","STREET":" ","SECT":" ","MAREA":"豐里","LANE":" ","ALLEY":" ","HOUSE_NO":"６０號之３","E_COORD97":193025.19,"N_COORD97":2558332.2999999998,"ADDRESS":"豐里６０號之３","OBJECTID":129286},"geometry":{"x":193025.19000000134,"y":2558332.3000000007}},{"attributes":{"ID":129287,"DIS_CODE":0,"TOWNNAME":"玉井區","LI":"沙田里","LIN":"6鄰","STREET":" ","SECT":" ","MAREA":"沙田","LANE":" ","ALLEY":" ","HOUSE_NO":"６１號之３","E_COORD97":198513.69,"N_COORD97":2556240.29,"ADDRESS":"沙田６１號之３","OBJECTID":129287},"geometry":{"x":198513.69000000041,"y":2556240.2900000028}},{"attributes":{"ID":129288,"DIS_CODE":0,"TOWNNAME":"永康區","LI":"甲頂里","LIN":"11鄰","STREET":"中正南路","SECT":" ","MAREA":" ","LANE":"５２巷","ALLEY":"６８弄","HOUSE_NO":"５７號","E_COORD97":170043.67999999999,"N_COORD97":2546719.25,"ADDRESS":"中正南路５２巷６８弄５７號","OBJECTID":129288},"geometry":{"x":170043.6799999997,"y":2546719.2500000019}},{"attributes":{"ID":129289,"DIS_CODE":0,"TOWNNAME":"玉井區","LI":"竹圍里","LIN":"6鄰","STREET":"仁愛街","SECT":" ","MAREA":" ","LANE":" ","ALLEY":" ","HOUSE_NO":"３６１號","E_COORD97":195502.23999999999,"N_COORD97":2558492.2999999998,"ADDRESS":"仁愛街３６１號","OBJECTID":129289},"geometry":{"x":195502.24000000022,"y":2558492.3000000007}},{"attributes":{"ID":129290,"DIS_CODE":0,"TOWNNAME":"永康區","LI":"甲頂里","LIN":"11鄰","STREET":"中正南路","SECT":" ","MAREA":" ","LANE":"５２巷","ALLEY":"６８弄","HOUSE_NO":"２２號","E_COORD97":170003.04000000001,"N_COORD97":2546739.73,"ADDRESS":"中正南路５２巷６８弄２２號","OBJECTID":129290},"geometry":{"x":170003.04000000004,"y":2546739.7300000023}},{"attributes":{"ID":129291,"DIS_CODE":0,"TOWNNAME":"玉井區","LI":"沙田里","LIN":"6鄰","STREET":" ","SECT":" ","MAREA":"沙田","LANE":" ","ALLEY":" ","HOUSE_NO":"５９號之５","E_COORD97":198439.45999999999,"N_COORD97":2556176.2999999998,"ADDRESS":"沙田５９號之５","OBJECTID":129291},"geometry":{"x":198439.46000000089,"y":2556176.3000000007}},{"attributes":{"ID":129292,"DIS_CODE":0,"TOWNNAME":"玉井區","LI":"沙田里","LIN":"6鄰","STREET":" ","SECT":" ","MAREA":"沙田","LANE":" ","ALLEY":" ","HOUSE_NO":"６０號","E_COORD97":198442.07000000001,"N_COORD97":2556222.2799999998,"ADDRESS":"沙田６０號","OBJECTID":129292},"geometry":{"x":198442.07000000123,"y":2556222.2799999993}},{"attributes":{"ID":129293,"DIS_CODE":0,"TOWNNAME":"玉井區","LI":"望明里","LIN":"6鄰","STREET":" ","SECT":" ","MAREA":"望明","LANE":" ","ALLEY":" ","HOUSE_NO":"６０號","E_COORD97":194203.63,"N_COORD97":2556064.25,"ADDRESS":"望明６０號","OBJECTID":129293},"geometry":{"x":194203.63000000082,"y":2556064.25}},{"attributes":{"ID":129294,"DIS_CODE":0,"TOWNNAME":"玉井區","LI":"層林里","LIN":"6鄰","STREET":" ","SECT":" ","MAREA":"層林","LANE":" ","ALLEY":" ","HOUSE_NO":"６７號","E_COORD97":190465.17000000001,"N_COORD97":2553008.2400000002,"ADDRESS":"層林６７號","OBJECTID":129294},"geometry":{"x":190465.17000000086,"y":2553008.2400000021}},{"attributes":{"ID":129295,"DIS_CODE":0,"TOWNNAME":"玉井區","LI":"層林里","LIN":"6鄰","STREET":" ","SECT":" ","MAREA":"層林","LANE":" ","ALLEY":" ","HOUSE_NO":"６３號","E_COORD97":190417.67000000001,"N_COORD97":2552609.2400000002,"ADDRESS":"層林６３號","OBJECTID":129295},"geometry":{"x":190417.67000000086,"y":2552609.2400000002}},{"attributes":{"ID":129296,"DIS_CODE":0,"TOWNNAME":"永康區","LI":"西橋里","LIN":"11鄰","STREET":"中華西街","SECT":" ","MAREA":" ","LANE":"１２７巷","ALLEY":"３０弄","HOUSE_NO":"３號","E_COORD97":170542.91,"N_COORD97":2546134.6099999999,"ADDRESS":"中華西街１２７巷３０弄３號","OBJECTID":129296},"geometry":{"x":170542.91000000015,"y":2546134.6099999994}},{"attributes":{"ID":129297,"DIS_CODE":0,"TOWNNAME":"永康區","LI":"甲頂里","LIN":"11鄰","STREET":"中正南路","SECT":" ","MAREA":" ","LANE":"５２巷","ALLEY":"６８弄","HOUSE_NO":"７７號","E_COORD97":170089.12,"N_COORD97":2546725,"ADDRESS":"中正南路５２巷６８弄７７號","OBJECTID":129297},"geometry":{"x":170089.12000000197,"y":2546725}},{"attributes":{"ID":129298,"DIS_CODE":0,"TOWNNAME":"安定區","LI":"海寮里","LIN":"20鄰","STREET":" ","SECT":" ","MAREA":"海寮","LANE":" ","ALLEY":" ","HOUSE_NO":"１８６號","E_COORD97":169490.64000000001,"N_COORD97":2555452.25,"ADDRESS":"海寮１８６號","OBJECTID":129298},"geometry":{"x":169490.6400000006,"y":2555452.2500000019}},{"attributes":{"ID":129299,"DIS_CODE":0,"TOWNNAME":"安定區","LI":"港口里","LIN":"20鄰","STREET":" ","SECT":" ","MAREA":"港口","LANE":" ","ALLEY":" ","HOUSE_NO":"３９９之２６號","E_COORD97":171578.94,"N_COORD97":2554932.2999999998,"ADDRESS":"港口３９９之２６號","OBJECTID":129299},"geometry":{"x":171578.94000000041,"y":2554932.3000000007}},{"attributes":{"ID":129300,"DIS_CODE":0,"TOWNNAME":"安定區","LI":"港南里","LIN":"20鄰","STREET":" ","SECT":" ","MAREA":"港口","LANE":" ","ALLEY":" ","HOUSE_NO":"１５４號","E_COORD97":171434.22444200001,"N_COORD97":2554564.3374899998,"ADDRESS":"港口１５４號","OBJECTID":129300},"geometry":{"x":171434.22444199864,"y":2554564.3374920022}},{"attributes":{"ID":129301,"DIS_CODE":0,"TOWNNAME":"永康區","LI":"甲頂里","LIN":"11鄰","STREET":"中正南路","SECT":" ","MAREA":" ","LANE":"５２巷","ALLEY":"６８弄","HOUSE_NO":"２９號","E_COORD97":170054.34,"N_COORD97":2546753,"ADDRESS":"中正南路５２巷６８弄２９號","OBJECTID":129301},"geometry":{"x":170054.34000000078,"y":2546753}},{"attributes":{"ID":129302,"DIS_CODE":0,"TOWNNAME":"安定區","LI":"港口里","LIN":"13鄰","STREET":" ","SECT":" ","MAREA":"港口","LANE":" ","ALLEY":" ","HOUSE_NO":"３４７之５號","E_COORD97":171228.69,"N_COORD97":2554702.2999999998,"ADDRESS":"港口３４７之５號","OBJECTID":129302},"geometry":{"x":171228.69000000134,"y":2554702.3000000007}},{"attributes":{"ID":129303,"DIS_CODE":0,"TOWNNAME":"永康區","LI":"西橋里","LIN":"11鄰","STREET":"中華西街","SECT":" ","MAREA":" ","LANE":"１２７巷","ALLEY":"３０弄","HOUSE_NO":"６號","E_COORD97":170534.95999999999,"N_COORD97":2546148.1000000001,"ADDRESS":"中華西街１２７巷３０弄６號","OBJECTID":129303},"geometry":{"x":170534.96000000089,"y":2546148.0999999996}},{"attributes":{"ID":129304,"DIS_CODE":0,"TOWNNAME":"安定區","LI":"管寮里","LIN":"13鄰","STREET":" ","SECT":" ","MAREA":"管寮","LANE":" ","ALLEY":" ","HOUSE_NO":"１２１號","E_COORD97":170033.59,"N_COORD97":2556402.25,"ADDRESS":"管寮１２１號","OBJECTID":129304},"geometry":{"x":170033.59000000078,"y":2556402.2500000019}},{"attributes":{"ID":129305,"DIS_CODE":0,"TOWNNAME":"安定區","LI":"海寮里","LIN":"14鄰","STREET":" ","SECT":" ","MAREA":"海寮","LANE":" ","ALLEY":" ","HOUSE_NO":"１３２之１２７號","E_COORD97":168996.94,"N_COORD97":2555343.2999999998,"ADDRESS":"海寮１３２之１２７號","OBJECTID":129305},"geometry":{"x":168996.94000000041,"y":2555343.2999999989}},{"attributes":{"ID":129306,"DIS_CODE":0,"TOWNNAME":"安定區","LI":"安定里","LIN":"8鄰","STREET":" ","SECT":" ","MAREA":"安定","LANE":" ","ALLEY":" ","HOUSE_NO":"６９號","E_COORD97":171855.67000000001,"N_COORD97":2557918.3199999998,"ADDRESS":"安定６９號","OBJECTID":129306},"geometry":{"x":171855.67000000086,"y":2557918.3200000003}},{"attributes":{"ID":129307,"DIS_CODE":0,"TOWNNAME":"安定區","LI":"港南里","LIN":"4鄰","STREET":" ","SECT":" ","MAREA":"港口","LANE":" ","ALLEY":" ","HOUSE_NO":"２５之５６號","E_COORD97":171582.69,"N_COORD97":2554008.2999999998,"ADDRESS":"港口２５之５６號","OBJECTID":129307},"geometry":{"x":171582.69000000134,"y":2554008.3000000026}},{"attributes":{"ID":129308,"DIS_CODE":0,"TOWNNAME":"安定區","LI":"港南里","LIN":"4鄰","STREET":" ","SECT":" ","MAREA":"港口","LANE":" ","ALLEY":" ","HOUSE_NO":"２５之７號","E_COORD97":171535.64000000001,"N_COORD97":2554059.2999999998,"ADDRESS":"港口２５之７號","OBJECTID":129308},"geometry":{"x":171535.63999999966,"y":2554059.3000000026}},{"attributes":{"ID":129309,"DIS_CODE":0,"TOWNNAME":"安定區","LI":"港南里","LIN":"4鄰","STREET":" ","SECT":" ","MAREA":"港口","LANE":" ","ALLEY":" ","HOUSE_NO":"２５之５７號","E_COORD97":171582.59,"N_COORD97":2554004.2999999998,"ADDRESS":"港口２５之５７號","OBJECTID":129309},"geometry":{"x":171582.59000000171,"y":2554004.3000000045}},{"attributes":{"ID":129310,"DIS_CODE":0,"TOWNNAME":"南區","LI":"金華里","LIN":"11鄰","STREET":"金華路","SECT":"二段","MAREA":" ","LANE":"１４７巷","ALLEY":"３７弄","HOUSE_NO":"８號","E_COORD97":166908.67999999999,"N_COORD97":2542353.1499999999,"ADDRESS":"金華路二段１４７巷３７弄８號","OBJECTID":129310},"geometry":{"x":166908.68000000063,"y":2542353.1500000022}},{"attributes":{"ID":129311,"DIS_CODE":0,"TOWNNAME":"安定區","LI":"新吉里","LIN":"4鄰","STREET":" ","SECT":" ","MAREA":"新吉","LANE":" ","ALLEY":" ","HOUSE_NO":"２８之６號","E_COORD97":169432.17000000001,"N_COORD97":2554069.2999999998,"ADDRESS":"新吉２８之６號","OBJECTID":129311},"geometry":{"x":169432.16999999993,"y":2554069.3000000026}},{"attributes":{"ID":129312,"DIS_CODE":0,"TOWNNAME":"安定區","LI":"蘇林里","LIN":"20鄰","STREET":" ","SECT":" ","MAREA":"蘇厝","LANE":" ","ALLEY":" ","HOUSE_NO":"２２８之７號","E_COORD97":173353.62,"N_COORD97":2558833.2999999998,"ADDRESS":"蘇厝２２８之７號","OBJECTID":129312},"geometry":{"x":173353.62000000011,"y":2558833.3000000026}},{"attributes":{"ID":129313,"DIS_CODE":0,"TOWNNAME":"安定區","LI":"蘇厝里","LIN":"20鄰","STREET":" ","SECT":" ","MAREA":"蘇厝","LANE":" ","ALLEY":" ","HOUSE_NO":"４７５之５號","E_COORD97":173181.92000000001,"N_COORD97":2558877.2999999998,"ADDRESS":"蘇厝４７５之５號","OBJECTID":129313},"geometry":{"x":173181.91999999993,"y":2558877.3000000026}},{"attributes":{"ID":129314,"DIS_CODE":0,"TOWNNAME":"安定區","LI":"港口里","LIN":"13鄰","STREET":" ","SECT":" ","MAREA":"港口","LANE":" ","ALLEY":" ","HOUSE_NO":"３１５號","E_COORD97":171253.69,"N_COORD97":2554694.25,"ADDRESS":"港口３１５號","OBJECTID":129314},"geometry":{"x":171253.69000000227,"y":2554694.25}},{"attributes":{"ID":129315,"DIS_CODE":0,"TOWNNAME":"安南區","LI":"南興里","LIN":"11鄰","STREET":"公學路","SECT":"五段","MAREA":" ","LANE":"６９７巷","ALLEY":"６４弄","HOUSE_NO":"２６號","E_COORD97":163770.69,"N_COORD97":2552636.2799999998,"ADDRESS":"公學路五段６９７巷６４弄２６號","OBJECTID":129315},"geometry":{"x":163770.69000000041,"y":2552636.2799999993}},{"attributes":{"ID":129316,"DIS_CODE":0,"TOWNNAME":"安南區","LI":"城東里","LIN":"11鄰","STREET":"城北路","SECT":" ","MAREA":" ","LANE":"２６８巷","ALLEY":"２７弄","HOUSE_NO":"６號之１","E_COORD97":161021.67999999999,"N_COORD97":2551974.1699999999,"ADDRESS":"城北路２６８巷２７弄６號之１","OBJECTID":129316},"geometry":{"x":161021.6799999997,"y":2551974.1700000018}},{"attributes":{"ID":129317,"DIS_CODE":0,"TOWNNAME":"安定區","LI":"蘇厝里","LIN":"20鄰","STREET":" ","SECT":" ","MAREA":"蘇厝","LANE":" ","ALLEY":" ","HOUSE_NO":"４７５之６號","E_COORD97":173200.51999999999,"N_COORD97":2558891.2999999998,"ADDRESS":"蘇厝４７５之６號","OBJECTID":129317},"geometry":{"x":173200.52000000048,"y":2558891.3000000026}},{"attributes":{"ID":129318,"DIS_CODE":0,"TOWNNAME":"安定區","LI":"蘇厝里","LIN":"20鄰","STREET":" ","SECT":" ","MAREA":"蘇厝","LANE":" ","ALLEY":" ","HOUSE_NO":"４７８號","E_COORD97":173185.92000000001,"N_COORD97":2558947.25,"ADDRESS":"蘇厝４７８號","OBJECTID":129318},"geometry":{"x":173185.92000000086,"y":2558947.2500000037}},{"attributes":{"ID":129319,"DIS_CODE":0,"TOWNNAME":"安定區","LI":"港南里","LIN":"13鄰","STREET":" ","SECT":" ","MAREA":"港口","LANE":" ","ALLEY":" ","HOUSE_NO":"９９號","E_COORD97":171194.34,"N_COORD97":2554358.25,"ADDRESS":"港口９９號","OBJECTID":129319},"geometry":{"x":171194.34000000171,"y":2554358.25}},{"attributes":{"ID":129320,"DIS_CODE":0,"TOWNNAME":"安南區","LI":"佃西里","LIN":"11鄰","STREET":"公學路","SECT":"五段","MAREA":" ","LANE":"１７６巷","ALLEY":"３６弄","HOUSE_NO":"２３５號","E_COORD97":164962.89999999999,"N_COORD97":2552238.5099999998,"ADDRESS":"公學路五段１７６巷３６弄２３５號","OBJECTID":129320},"geometry":{"x":164962.89999999944,"y":2552238.5099999998}},{"attributes":{"ID":129321,"DIS_CODE":0,"TOWNNAME":"安南區","LI":"州北里","LIN":"11鄰","STREET":"安和路","SECT":"五段","MAREA":" ","LANE":"１７１巷","ALLEY":"９２弄","HOUSE_NO":"２０號","E_COORD97":169578.04999999999,"N_COORD97":2551824.4900000002,"ADDRESS":"安和路五段１７１巷９２弄２０號","OBJECTID":129321},"geometry":{"x":169578.05000000075,"y":2551824.4900000002}},{"attributes":{"ID":129322,"DIS_CODE":0,"TOWNNAME":"東區","LI":"富強里","LIN":"5鄰","STREET":"東門路","SECT":"二段","MAREA":" ","LANE":"３０１巷","ALLEY":"９０弄","HOUSE_NO":"２號","E_COORD97":170950.48000000001,"N_COORD97":2542705.1899999999,"ADDRESS":"東門路二段３０１巷９０弄２號","OBJECTID":129322},"geometry":{"x":170950.48000000138,"y":2542705.1900000013}},{"attributes":{"ID":129323,"DIS_CODE":0,"TOWNNAME":"東區","LI":"崇明里","LIN":"6鄰","STREET":"大同路","SECT":"二段","MAREA":" ","LANE":"４４９巷","ALLEY":"２弄","HOUSE_NO":"３８號","E_COORD97":169757.79000000001,"N_COORD97":2541337.5899999999,"ADDRESS":"大同路二段４４９巷２弄３８號","OBJECTID":129323},"geometry":{"x":169757.79000000097,"y":2541337.5899999999}},{"attributes":{"ID":129324,"DIS_CODE":0,"TOWNNAME":"學甲區","LI":"宅港里","LIN":"6鄰","STREET":" ","SECT":" ","MAREA":"宅子港","LANE":" ","ALLEY":" ","HOUSE_NO":"７０號之１","E_COORD97":168607.84,"N_COORD97":2573156.0800000001,"ADDRESS":"宅子港７０號之１","OBJECTID":129324},"geometry":{"x":168607.84000000078,"y":2573156.0800000001}},{"attributes":{"ID":129325,"DIS_CODE":0,"TOWNNAME":"學甲區","LI":"宅港里","LIN":"6鄰","STREET":" ","SECT":" ","MAREA":"宅子港","LANE":" ","ALLEY":" ","HOUSE_NO":"７０號之２","E_COORD97":168620.79999999999,"N_COORD97":2573160.23,"ADDRESS":"宅子港７０號之２","OBJECTID":129325},"geometry":{"x":168620.79999999981,"y":2573160.2300000042}},{"attributes":{"ID":129326,"DIS_CODE":0,"TOWNNAME":"學甲區","LI":"宅港里","LIN":"6鄰","STREET":" ","SECT":" ","MAREA":"宅子港","LANE":" ","ALLEY":" ","HOUSE_NO":"７０號之３","E_COORD97":168577.10000000001,"N_COORD97":2573144.5,"ADDRESS":"宅子港７０號之３","OBJECTID":129326},"geometry":{"x":168577.10000000056,"y":2573144.5000000019}},{"attributes":{"ID":129327,"DIS_CODE":0,"TOWNNAME":"學甲區","LI":"宅港里","LIN":"6鄰","STREET":" ","SECT":" ","MAREA":"宅子港","LANE":" ","ALLEY":" ","HOUSE_NO":"７０號之４","E_COORD97":168583.04000000001,"N_COORD97":2573150.23,"ADDRESS":"宅子港７０號之４","OBJECTID":129327},"geometry":{"x":168583.04000000097,"y":2573150.2300000023}},{"attributes":{"ID":129328,"DIS_CODE":0,"TOWNNAME":"安定區","LI":"港南里","LIN":"14鄰","STREET":" ","SECT":" ","MAREA":"港口","LANE":" ","ALLEY":" ","HOUSE_NO":"１１３號","E_COORD97":171379.14467000001,"N_COORD97":2554487.5331799998,"ADDRESS":"港口１１３號","OBJECTID":129328},"geometry":{"x":171379.14467000123,"y":2554487.5331750009}},{"attributes":{"ID":129329,"DIS_CODE":0,"TOWNNAME":"安定區","LI":"管寮里","LIN":"8鄰","STREET":" ","SECT":" ","MAREA":"管寮","LANE":" ","ALLEY":" ","HOUSE_NO":"７２之２號","E_COORD97":169863.64000000001,"N_COORD97":2556519.2999999998,"ADDRESS":"管寮７２之２號","OBJECTID":129329},"geometry":{"x":169863.6400000006,"y":2556519.3000000007}},{"attributes":{"ID":129330,"DIS_CODE":0,"TOWNNAME":"安定區","LI":"管寮里","LIN":"8鄰","STREET":" ","SECT":" ","MAREA":"管寮","LANE":" ","ALLEY":" ","HOUSE_NO":"７８號","E_COORD97":169843.64000000001,"N_COORD97":2556519.25,"ADDRESS":"管寮７８號","OBJECTID":129330},"geometry":{"x":169843.63999999966,"y":2556519.2499999981}},{"attributes":{"ID":129331,"DIS_CODE":0,"TOWNNAME":"安定區","LI":"新吉里","LIN":"7鄰","STREET":" ","SECT":" ","MAREA":"新吉","LANE":" ","ALLEY":" ","HOUSE_NO":"１２６之１２號","E_COORD97":169100.26999999999,"N_COORD97":2553875.2999999998,"ADDRESS":"新吉１２６之１２號","OBJECTID":129331},"geometry":{"x":169100.26999999955,"y":2553875.2999999989}},{"attributes":{"ID":129332,"DIS_CODE":0,"TOWNNAME":"安定區","LI":"新吉里","LIN":"4鄰","STREET":" ","SECT":" ","MAREA":"新吉","LANE":" ","ALLEY":" ","HOUSE_NO":"２９號","E_COORD97":169430.47,"N_COORD97":2554116.25,"ADDRESS":"新吉２９號","OBJECTID":129332},"geometry":{"x":169430.4700000016,"y":2554116.2500000019}},{"attributes":{"ID":129333,"DIS_CODE":0,"TOWNNAME":"安定區","LI":"蘇厝里","LIN":"20鄰","STREET":" ","SECT":" ","MAREA":"蘇厝","LANE":" ","ALLEY":" ","HOUSE_NO":"４７５號","E_COORD97":173180.67811000001,"N_COORD97":2558902.9267899999,"ADDRESS":"蘇厝４７５號","OBJECTID":129333},"geometry":{"x":173180.67811000068,"y":2558902.9267870001}},{"attributes":{"ID":129334,"DIS_CODE":0,"TOWNNAME":"安定區","LI":"港尾里","LIN":"13鄰","STREET":" ","SECT":" ","MAREA":"港子尾","LANE":" ","ALLEY":" ","HOUSE_NO":"８０號","E_COORD97":171354.69,"N_COORD97":2556016.2599999998,"ADDRESS":"港子尾８０號","OBJECTID":129334},"geometry":{"x":171354.69000000041,"y":2556016.2599999998}},{"attributes":{"ID":129335,"DIS_CODE":0,"TOWNNAME":"安定區","LI":"新吉里","LIN":"4鄰","STREET":" ","SECT":" ","MAREA":"新吉","LANE":" ","ALLEY":" ","HOUSE_NO":"３１之３號","E_COORD97":169410.26999999999,"N_COORD97":2554068.2999999998,"ADDRESS":"新吉３１之３號","OBJECTID":129335},"geometry":{"x":169410.27000000048,"y":2554068.3000000007}},{"attributes":{"ID":129336,"DIS_CODE":0,"TOWNNAME":"安定區","LI":"新吉里","LIN":"4鄰","STREET":" ","SECT":" ","MAREA":"新吉","LANE":" ","ALLEY":" ","HOUSE_NO":"３１之２號","E_COORD97":169414.07000000001,"N_COORD97":2554072.2999999998,"ADDRESS":"新吉３１之２號","OBJECTID":129336},"geometry":{"x":169414.07000000123,"y":2554072.3000000045}},{"attributes":{"ID":129337,"DIS_CODE":0,"TOWNNAME":"安定區","LI":"蘇厝里","LIN":"20鄰","STREET":" ","SECT":" ","MAREA":"蘇厝","LANE":" ","ALLEY":" ","HOUSE_NO":"４７５之９號","E_COORD97":173213.32000000001,"N_COORD97":2558891.2999999998,"ADDRESS":"蘇厝４７５之９號","OBJECTID":129337},"geometry":{"x":173213.3200000003,"y":2558891.3000000026}},{"attributes":{"ID":129338,"DIS_CODE":0,"TOWNNAME":"安定區","LI":"蘇林里","LIN":"8鄰","STREET":" ","SECT":" ","MAREA":"蘇厝","LANE":" ","ALLEY":" ","HOUSE_NO":"９３之２號","E_COORD97":173549.82132300001,"N_COORD97":2558736.0490299999,"ADDRESS":"蘇厝９３之２號","OBJECTID":129338},"geometry":{"x":173549.82132299989,"y":2558736.0490330029}},{"attributes":{"ID":129339,"DIS_CODE":0,"TOWNNAME":"安定區","LI":"新吉里","LIN":"4鄰","STREET":" ","SECT":" ","MAREA":"新吉","LANE":" ","ALLEY":" ","HOUSE_NO":"３０號","E_COORD97":169410.97,"N_COORD97":2554114.25,"ADDRESS":"新吉３０號","OBJECTID":129339},"geometry":{"x":169410.96999999974,"y":2554114.25}},{"attributes":{"ID":129340,"DIS_CODE":0,"TOWNNAME":"東區","LI":"富強里","LIN":"29鄰","STREET":"東門路","SECT":"二段","MAREA":" ","LANE":"３６５巷","ALLEY":"３３弄","HOUSE_NO":"３號","E_COORD97":170846.44,"N_COORD97":2542616.6200000001,"ADDRESS":"東門路二段３６５巷３３弄３號","OBJECTID":129340},"geometry":{"x":170846.44000000041,"y":2542616.620000001}},{"attributes":{"ID":129341,"DIS_CODE":0,"TOWNNAME":"新市區","LI":"三舍里","LIN":"4鄰","STREET":" ","SECT":" ","MAREA":"三舍","LANE":" ","ALLEY":" ","HOUSE_NO":"９８號","E_COORD97":178081.39999999999,"N_COORD97":2554570.75,"ADDRESS":"三舍９８號","OBJECTID":129341},"geometry":{"x":178081.40000000037,"y":2554570.7500000019}},{"attributes":{"ID":129342,"DIS_CODE":0,"TOWNNAME":"安定區","LI":"安定里","LIN":"14鄰","STREET":" ","SECT":" ","MAREA":"安定","LANE":" ","ALLEY":" ","HOUSE_NO":"１２３號","E_COORD97":171913.62,"N_COORD97":2557756.3199999998,"ADDRESS":"安定１２３號","OBJECTID":129342},"geometry":{"x":171913.62000000104,"y":2557756.3200000003}},{"attributes":{"ID":129343,"DIS_CODE":0,"TOWNNAME":"安定區","LI":"港南里","LIN":"4鄰","STREET":" ","SECT":" ","MAREA":"港口","LANE":" ","ALLEY":" ","HOUSE_NO":"２５之５０號","E_COORD97":171539.19,"N_COORD97":2554022.2999999998,"ADDRESS":"港口２５之５０號","OBJECTID":129343},"geometry":{"x":171539.19000000134,"y":2554022.3000000026}},{"attributes":{"ID":129344,"DIS_CODE":0,"TOWNNAME":"安定區","LI":"港南里","LIN":"4鄰","STREET":" ","SECT":" ","MAREA":"港口","LANE":" ","ALLEY":" ","HOUSE_NO":"２５之４９號","E_COORD97":171542.98999999999,"N_COORD97":2554022.2999999998,"ADDRESS":"港口２５之４９號","OBJECTID":129344},"geometry":{"x":171542.99000000209,"y":2554022.3000000026}},{"attributes":{"ID":129345,"DIS_CODE":0,"TOWNNAME":"安定區","LI":"南安里","LIN":"4鄰","STREET":" ","SECT":" ","MAREA":"油車","LANE":" ","ALLEY":" ","HOUSE_NO":"５１號之２","E_COORD97":170612.20999999999,"N_COORD97":2555588.2999999998,"ADDRESS":"油車５１號之２","OBJECTID":129345},"geometry":{"x":170612.21000000183,"y":2555588.3000000026}},{"attributes":{"ID":129346,"DIS_CODE":0,"TOWNNAME":"安定區","LI":"蘇林里","LIN":"18鄰","STREET":" ","SECT":" ","MAREA":"蘇厝","LANE":" ","ALLEY":" ","HOUSE_NO":"１９６號之２","E_COORD97":173267.19,"N_COORD97":2558912.2999999998,"ADDRESS":"蘇厝１９６號之２","OBJECTID":129346},"geometry":{"x":173267.19000000041,"y":2558912.3000000007}},{"attributes":{"ID":129347,"DIS_CODE":0,"TOWNNAME":"安定區","LI":"蘇林里","LIN":"20鄰","STREET":" ","SECT":" ","MAREA":"蘇厝","LANE":" ","ALLEY":" ","HOUSE_NO":"２２７號","E_COORD97":173378.16139600001,"N_COORD97":2558822.1624199999,"ADDRESS":"蘇厝２２７號","OBJECTID":129347},"geometry":{"x":173378.16139600053,"y":2558822.1624190006}},{"attributes":{"ID":129348,"DIS_CODE":0,"TOWNNAME":"安定區","LI":"蘇林里","LIN":"20鄰","STREET":" ","SECT":" ","MAREA":"蘇厝","LANE":" ","ALLEY":" ","HOUSE_NO":"２２５號","E_COORD97":173380.72,"N_COORD97":2558856.25,"ADDRESS":"蘇厝２２５號","OBJECTID":129348},"geometry":{"x":173380.72000000067,"y":2558856.2500000019}},{"attributes":{"ID":129349,"DIS_CODE":0,"TOWNNAME":"安定區","LI":"港尾里","LIN":"14鄰","STREET":" ","SECT":" ","MAREA":"港子尾","LANE":" ","ALLEY":" ","HOUSE_NO":"８７之１號","E_COORD97":171337.89000000001,"N_COORD97":2556104.2999999998,"ADDRESS":"港子尾８７之１號","OBJECTID":129349},"geometry":{"x":171337.89000000153,"y":2556104.3000000026}},{"attributes":{"ID":129350,"DIS_CODE":0,"TOWNNAME":"學甲區","LI":"宅港里","LIN":"6鄰","STREET":" ","SECT":" ","MAREA":"宅子港","LANE":" ","ALLEY":" ","HOUSE_NO":"７０號之６","E_COORD97":168598.54999999999,"N_COORD97":2573153.4300000002,"ADDRESS":"宅子港７０號之６","OBJECTID":129350},"geometry":{"x":168598.54999999981,"y":2573153.4299999997}},{"attributes":{"ID":129351,"DIS_CODE":0,"TOWNNAME":"學甲區","LI":"宅港里","LIN":"6鄰","STREET":" ","SECT":" ","MAREA":"宅子港","LANE":" ","ALLEY":" ","HOUSE_NO":"７０號","E_COORD97":168536.5,"N_COORD97":2573136.3500000001,"ADDRESS":"宅子港７０號","OBJECTID":129351},"geometry":{"x":168536.5,"y":2573136.3500000015}},{"attributes":{"ID":129352,"DIS_CODE":0,"TOWNNAME":"學甲區","LI":"新榮里","LIN":"6鄰","STREET":" ","SECT":" ","MAREA":"東寮","LANE":" ","ALLEY":" ","HOUSE_NO":"７２號之１","E_COORD97":166566.95999999999,"N_COORD97":2569486.7400000002,"ADDRESS":"東寮７２號之１","OBJECTID":129352},"geometry":{"x":166566.95999999996,"y":2569486.7400000002}},{"attributes":{"ID":129353,"DIS_CODE":0,"TOWNNAME":"學甲區","LI":"新榮里","LIN":"6鄰","STREET":" ","SECT":" ","MAREA":"東寮","LANE":" ","ALLEY":" ","HOUSE_NO":"７２號之２","E_COORD97":166567.69,"N_COORD97":2569482.1000000001,"ADDRESS":"東寮７２號之２","OBJECTID":129353},"geometry":{"x":166567.69000000041,"y":2569482.1000000015}},{"attributes":{"ID":129354,"DIS_CODE":0,"TOWNNAME":"學甲區","LI":"新榮里","LIN":"6鄰","STREET":" ","SECT":" ","MAREA":"東寮","LANE":" ","ALLEY":" ","HOUSE_NO":"７２號之３","E_COORD97":166568.66,"N_COORD97":2569477.29,"ADDRESS":"東寮７２號之３","OBJECTID":129354},"geometry":{"x":166568.66000000108,"y":2569477.290000001}},{"attributes":{"ID":129355,"DIS_CODE":0,"TOWNNAME":"學甲區","LI":"新榮里","LIN":"6鄰","STREET":" ","SECT":" ","MAREA":"東寮","LANE":" ","ALLEY":" ","HOUSE_NO":"７２號之４","E_COORD97":166569.48000000001,"N_COORD97":2569472.3599999999,"ADDRESS":"東寮７２號之４","OBJECTID":129355},"geometry":{"x":166569.47999999952,"y":2569472.3599999994}},{"attributes":{"ID":129356,"DIS_CODE":0,"TOWNNAME":"學甲區","LI":"新榮里","LIN":"6鄰","STREET":" ","SECT":" ","MAREA":"東寮","LANE":" ","ALLEY":" ","HOUSE_NO":"７２號之５","E_COORD97":166570.70999999999,"N_COORD97":2569467.48,"ADDRESS":"東寮７２號之５","OBJECTID":129356},"geometry":{"x":166570.70999999996,"y":2569467.4800000023}},{"attributes":{"ID":129357,"DIS_CODE":0,"TOWNNAME":"學甲區","LI":"新榮里","LIN":"6鄰","STREET":" ","SECT":" ","MAREA":"東寮","LANE":" ","ALLEY":" ","HOUSE_NO":"７２號之６","E_COORD97":166571.73999999999,"N_COORD97":2569462.6200000001,"ADDRESS":"東寮７２號之６","OBJECTID":129357},"geometry":{"x":166571.74000000115,"y":2569462.6200000048}},{"attributes":{"ID":129358,"DIS_CODE":0,"TOWNNAME":"學甲區","LI":"新榮里","LIN":"6鄰","STREET":" ","SECT":" ","MAREA":"東寮","LANE":" ","ALLEY":" ","HOUSE_NO":"７２號","E_COORD97":166559.17000000001,"N_COORD97":2569436.5699999998,"ADDRESS":"東寮７２號","OBJECTID":129358},"geometry":{"x":166559.16999999899,"y":2569436.5700000022}},{"attributes":{"ID":129359,"DIS_CODE":0,"TOWNNAME":"學甲區","LI":"新榮里","LIN":"6鄰","STREET":" ","SECT":" ","MAREA":"東寮","LANE":" ","ALLEY":" ","HOUSE_NO":"７９號","E_COORD97":166570.20000000001,"N_COORD97":2569287.3999999999,"ADDRESS":"東寮７９號","OBJECTID":129359},"geometry":{"x":166570.20000000112,"y":2569287.4000000022}},{"attributes":{"ID":129360,"DIS_CODE":0,"TOWNNAME":"學甲區","LI":"新榮里","LIN":"6鄰","STREET":" ","SECT":" ","MAREA":"東寮","LANE":" ","ALLEY":" ","HOUSE_NO":"８０號","E_COORD97":166582.51999999999,"N_COORD97":2569297.48,"ADDRESS":"東寮８０號","OBJECTID":129360},"geometry":{"x":166582.52000000048,"y":2569297.4800000023}},{"attributes":{"ID":129361,"DIS_CODE":0,"TOWNNAME":"學甲區","LI":"新榮里","LIN":"6鄰","STREET":" ","SECT":" ","MAREA":"東寮","LANE":" ","ALLEY":" ","HOUSE_NO":"８１號","E_COORD97":166582.89000000001,"N_COORD97":2569301.52,"ADDRESS":"東寮８１號","OBJECTID":129361},"geometry":{"x":166582.89000000153,"y":2569301.5199999996}},{"attributes":{"ID":129362,"DIS_CODE":0,"TOWNNAME":"學甲區","LI":"新榮里","LIN":"6鄰","STREET":" ","SECT":" ","MAREA":"東寮","LANE":" ","ALLEY":" ","HOUSE_NO":"８２號","E_COORD97":166583.28,"N_COORD97":2569305.3700000001,"ADDRESS":"東寮８２號","OBJECTID":129362},"geometry":{"x":166583.28000000119,"y":2569305.3700000029}},{"attributes":{"ID":129363,"DIS_CODE":0,"TOWNNAME":"學甲區","LI":"新榮里","LIN":"6鄰","STREET":" ","SECT":" ","MAREA":"東寮","LANE":" ","ALLEY":" ","HOUSE_NO":"８３號","E_COORD97":166585.29000000001,"N_COORD97":2569315.1200000001,"ADDRESS":"東寮８３號","OBJECTID":129363},"geometry":{"x":166585.29000000004,"y":2569315.120000001}},{"attributes":{"ID":129364,"DIS_CODE":0,"TOWNNAME":"學甲區","LI":"新榮里","LIN":"6鄰","STREET":" ","SECT":" ","MAREA":"東寮","LANE":" ","ALLEY":" ","HOUSE_NO":"８４號","E_COORD97":166585.92000000001,"N_COORD97":2569319.1600000001,"ADDRESS":"東寮８４號","OBJECTID":129364},"geometry":{"x":166585.91999999993,"y":2569319.1600000039}},{"attributes":{"ID":129365,"DIS_CODE":0,"TOWNNAME":"學甲區","LI":"新榮里","LIN":"6鄰","STREET":" ","SECT":" ","MAREA":"東寮","LANE":" ","ALLEY":" ","HOUSE_NO":"８５號","E_COORD97":166586.16,"N_COORD97":2569323.2400000002,"ADDRESS":"東寮８５號","OBJECTID":129365},"geometry":{"x":166586.16000000015,"y":2569323.2400000021}},{"attributes":{"ID":129366,"DIS_CODE":0,"TOWNNAME":"安定區","LI":"港南里","LIN":"17鄰","STREET":" ","SECT":" ","MAREA":"港口","LANE":" ","ALLEY":" ","HOUSE_NO":"１３９號之５","E_COORD97":171584.78,"N_COORD97":2554354.2999999998,"ADDRESS":"港口１３９號之５","OBJECTID":129366},"geometry":{"x":171584.78000000026,"y":2554354.3000000026}},{"attributes":{"ID":129367,"DIS_CODE":0,"TOWNNAME":"安定區","LI":"港南里","LIN":"17鄰","STREET":" ","SECT":" ","MAREA":"港口","LANE":" ","ALLEY":" ","HOUSE_NO":"１４０之９號","E_COORD97":171602.39000000001,"N_COORD97":2554485.2999999998,"ADDRESS":"港口１４０之９號","OBJECTID":129367},"geometry":{"x":171602.39000000153,"y":2554485.3000000007}},{"attributes":{"ID":129368,"DIS_CODE":0,"TOWNNAME":"安定區","LI":"南安里","LIN":"4鄰","STREET":" ","SECT":" ","MAREA":"油車","LANE":" ","ALLEY":" ","HOUSE_NO":"５０之２號","E_COORD97":170603.94,"N_COORD97":2555533.2999999998,"ADDRESS":"油車５０之２號","OBJECTID":129368},"geometry":{"x":170603.94000000041,"y":2555533.3000000045}},{"attributes":{"ID":129369,"DIS_CODE":0,"TOWNNAME":"安定區","LI":"港南里","LIN":"4鄰","STREET":" ","SECT":" ","MAREA":"港口","LANE":" ","ALLEY":" ","HOUSE_NO":"２５之３４號","E_COORD97":171536.69,"N_COORD97":2554045.2999999998,"ADDRESS":"港口２５之３４號","OBJECTID":129369},"geometry":{"x":171536.69000000227,"y":2554045.3000000026}},{"attributes":{"ID":129370,"DIS_CODE":0,"TOWNNAME":"安定區","LI":"港尾里","LIN":"4鄰","STREET":" ","SECT":" ","MAREA":"港子尾","LANE":" ","ALLEY":" ","HOUSE_NO":"１６之１３號","E_COORD97":172085.73999999999,"N_COORD97":2556318.2999999998,"ADDRESS":"港子尾１６之１３號","OBJECTID":129370},"geometry":{"x":172085.74000000115,"y":2556318.3000000007}},{"attributes":{"ID":129371,"DIS_CODE":0,"TOWNNAME":"安定區","LI":"港南里","LIN":"4鄰","STREET":" ","SECT":" ","MAREA":"港口","LANE":" ","ALLEY":" ","HOUSE_NO":"２５之３１號","E_COORD97":171526.59,"N_COORD97":2554040.2999999998,"ADDRESS":"港口２５之３１號","OBJECTID":129371},"geometry":{"x":171526.59000000171,"y":2554040.3000000007}},{"attributes":{"ID":129372,"DIS_CODE":0,"TOWNNAME":"安定區","LI":"港南里","LIN":"4鄰","STREET":" ","SECT":" ","MAREA":"港口","LANE":" ","ALLEY":" ","HOUSE_NO":"２７之３號","E_COORD97":171538.34,"N_COORD97":2553993.2999999998,"ADDRESS":"港口２７之３號","OBJECTID":129372},"geometry":{"x":171538.33999999985,"y":2553993.3000000007}},{"attributes":{"ID":129373,"DIS_CODE":0,"TOWNNAME":"安定區","LI":"蘇林里","LIN":"18鄰","STREET":" ","SECT":" ","MAREA":"蘇厝","LANE":" ","ALLEY":" ","HOUSE_NO":"２０１號之４","E_COORD97":173383.17999999999,"N_COORD97":2558898.2999999998,"ADDRESS":"蘇厝２０１號之４","OBJECTID":129373},"geometry":{"x":173383.1799999997,"y":2558898.3000000007}},{"attributes":{"ID":129374,"DIS_CODE":0,"TOWNNAME":"安定區","LI":"蘇林里","LIN":"20鄰","STREET":" ","SECT":" ","MAREA":"蘇厝","LANE":" ","ALLEY":" ","HOUSE_NO":"２２８號之４","E_COORD97":173340.67999999999,"N_COORD97":2558832.2999999998,"ADDRESS":"蘇厝２２８號之４","OBJECTID":129374},"geometry":{"x":173340.6799999997,"y":2558832.3000000045}},{"attributes":{"ID":129375,"DIS_CODE":0,"TOWNNAME":"安定區","LI":"港尾里","LIN":"13鄰","STREET":" ","SECT":" ","MAREA":"港子尾","LANE":" ","ALLEY":" ","HOUSE_NO":"７６號之３","E_COORD97":171350.01999999999,"N_COORD97":2555986.2999999998,"ADDRESS":"港子尾７６號之３","OBJECTID":129375},"geometry":{"x":171350.01999999955,"y":2555986.3000000007}},{"attributes":{"ID":129376,"DIS_CODE":0,"TOWNNAME":"安定區","LI":"蘇林里","LIN":"17鄰","STREET":" ","SECT":" ","MAREA":"蘇厝","LANE":" ","ALLEY":" ","HOUSE_NO":"１９４號","E_COORD97":173275.12,"N_COORD97":2558966.25,"ADDRESS":"蘇厝１９４號","OBJECTID":129376},"geometry":{"x":173275.12000000104,"y":2558966.25}},{"attributes":{"ID":129377,"DIS_CODE":0,"TOWNNAME":"學甲區","LI":"豐和里","LIN":"6鄰","STREET":" ","SECT":" ","MAREA":"美豐","LANE":" ","ALLEY":" ","HOUSE_NO":"４１號","E_COORD97":168146.12,"N_COORD97":2568745.2400000002,"ADDRESS":"美豐４１號","OBJECTID":129377},"geometry":{"x":168146.12000000011,"y":2568745.2399999984}},{"attributes":{"ID":129378,"DIS_CODE":0,"TOWNNAME":"學甲區","LI":"豐和里","LIN":"6鄰","STREET":" ","SECT":" ","MAREA":"美豐","LANE":" ","ALLEY":" ","HOUSE_NO":"４３號之１","E_COORD97":168115.57000000001,"N_COORD97":2568784.04,"ADDRESS":"美豐４３號之１","OBJECTID":129378},"geometry":{"x":168115.57000000123,"y":2568784.040000001}},{"attributes":{"ID":129379,"DIS_CODE":0,"TOWNNAME":"學甲區","LI":"豐和里","LIN":"6鄰","STREET":" ","SECT":" ","MAREA":"美豐","LANE":" ","ALLEY":" ","HOUSE_NO":"４３號","E_COORD97":168124.44,"N_COORD97":2568762.6800000002,"ADDRESS":"美豐４３號","OBJECTID":129379},"geometry":{"x":168124.44000000134,"y":2568762.6800000016}},{"attributes":{"ID":129380,"DIS_CODE":0,"TOWNNAME":"學甲區","LI":"豐和里","LIN":"6鄰","STREET":" ","SECT":" ","MAREA":"美豐","LANE":" ","ALLEY":" ","HOUSE_NO":"４４號","E_COORD97":168142.42999999999,"N_COORD97":2568775.1000000001,"ADDRESS":"美豐４４號","OBJECTID":129380},"geometry":{"x":168142.43000000063,"y":2568775.0999999996}},{"attributes":{"ID":129381,"DIS_CODE":0,"TOWNNAME":"學甲區","LI":"豐和里","LIN":"6鄰","STREET":" ","SECT":" ","MAREA":"美豐","LANE":" ","ALLEY":" ","HOUSE_NO":"４５號","E_COORD97":168159.89000000001,"N_COORD97":2568768.5600000001,"ADDRESS":"美豐４５號","OBJECTID":129381},"geometry":{"x":168159.8900000006,"y":2568768.5600000024}},{"attributes":{"ID":129382,"DIS_CODE":0,"TOWNNAME":"學甲區","LI":"豐和里","LIN":"6鄰","STREET":" ","SECT":" ","MAREA":"美豐","LANE":" ","ALLEY":" ","HOUSE_NO":"４６號","E_COORD97":168164.26000000001,"N_COORD97":2568788.1299999999,"ADDRESS":"美豐４６號","OBJECTID":129382},"geometry":{"x":168164.26000000071,"y":2568788.129999999}},{"attributes":{"ID":129383,"DIS_CODE":0,"TOWNNAME":"學甲區","LI":"豐和里","LIN":"6鄰","STREET":" ","SECT":" ","MAREA":"美豐","LANE":" ","ALLEY":" ","HOUSE_NO":"４７號之１","E_COORD97":168185.85999999999,"N_COORD97":2568774.6400000001,"ADDRESS":"美豐４７號之１","OBJECTID":129383},"geometry":{"x":168185.8600000022,"y":2568774.6400000025}},{"attributes":{"ID":129384,"DIS_CODE":0,"TOWNNAME":"安定區","LI":"管寮里","LIN":"8鄰","STREET":" ","SECT":" ","MAREA":"管寮","LANE":" ","ALLEY":" ","HOUSE_NO":"７３之２號","E_COORD97":169875.94,"N_COORD97":2556472.2999999998,"ADDRESS":"管寮７３之２號","OBJECTID":129384},"geometry":{"x":169875.94000000134,"y":2556472.2999999989}},{"attributes":{"ID":129385,"DIS_CODE":0,"TOWNNAME":"安定區","LI":"新吉里","LIN":"7鄰","STREET":" ","SECT":" ","MAREA":"新吉","LANE":" ","ALLEY":" ","HOUSE_NO":"５６之１１１號","E_COORD97":168441.67000000001,"N_COORD97":2553654.2999999998,"ADDRESS":"新吉５６之１１１號","OBJECTID":129385},"geometry":{"x":168441.67000000086,"y":2553654.3000000007}},{"attributes":{"ID":129386,"DIS_CODE":0,"TOWNNAME":"安定區","LI":"港南里","LIN":"4鄰","STREET":" ","SECT":" ","MAREA":"港口","LANE":" ","ALLEY":" ","HOUSE_NO":"２５之５號","E_COORD97":171543.44,"N_COORD97":2554063.2999999998,"ADDRESS":"港口２５之５號","OBJECTID":129386},"geometry":{"x":171543.44000000227,"y":2554063.3000000026}},{"attributes":{"ID":129387,"DIS_CODE":0,"TOWNNAME":"安定區","LI":"蘇林里","LIN":"1鄰","STREET":" ","SECT":" ","MAREA":"蘇厝","LANE":" ","ALLEY":" ","HOUSE_NO":"８號之９","E_COORD97":173669.54000000001,"N_COORD97":2558528.2999999998,"ADDRESS":"蘇厝８號之９","OBJECTID":129387},"geometry":{"x":173669.54000000004,"y":2558528.3000000026}},{"attributes":{"ID":129388,"DIS_CODE":0,"TOWNNAME":"安定區","LI":"港南里","LIN":"4鄰","STREET":" ","SECT":" ","MAREA":"港口","LANE":" ","ALLEY":" ","HOUSE_NO":"２５之５４號","E_COORD97":171582.09,"N_COORD97":2554017.29,"ADDRESS":"港口２５之５４號","OBJECTID":129388},"geometry":{"x":171582.08999999985,"y":2554017.290000001}},{"attributes":{"ID":129389,"DIS_CODE":0,"TOWNNAME":"安定區","LI":"蘇林里","LIN":"20鄰","STREET":" ","SECT":" ","MAREA":"蘇厝","LANE":" ","ALLEY":" ","HOUSE_NO":"２３１號之４","E_COORD97":173398.78,"N_COORD97":2558758.2999999998,"ADDRESS":"蘇厝２３１號之４","OBJECTID":129389},"geometry":{"x":173398.78000000026,"y":2558758.3000000026}},{"attributes":{"ID":129390,"DIS_CODE":0,"TOWNNAME":"安定區","LI":"港尾里","LIN":"13鄰","STREET":" ","SECT":" ","MAREA":"港子尾","LANE":" ","ALLEY":" ","HOUSE_NO":"８２號","E_COORD97":171369.48999999999,"N_COORD97":2556063.2599999998,"ADDRESS":"港子尾８２號","OBJECTID":129390},"geometry":{"x":171369.49000000022,"y":2556063.2599999998}},{"attributes":{"ID":129391,"DIS_CODE":0,"TOWNNAME":"安定區","LI":"港尾里","LIN":"14鄰","STREET":" ","SECT":" ","MAREA":"港子尾","LANE":" ","ALLEY":" ","HOUSE_NO":"８５號","E_COORD97":171321.59,"N_COORD97":2556083.2599999998,"ADDRESS":"港子尾８５號","OBJECTID":129391},"geometry":{"x":171321.59000000171,"y":2556083.2600000016}},{"attributes":{"ID":129392,"DIS_CODE":0,"TOWNNAME":"安定區","LI":"港南里","LIN":"17鄰","STREET":" ","SECT":" ","MAREA":"港口","LANE":" ","ALLEY":" ","HOUSE_NO":"１４０號之４１","E_COORD97":171650.88,"N_COORD97":2554411.2999999998,"ADDRESS":"港口１４０號之４１","OBJECTID":129392},"geometry":{"x":171650.88000000082,"y":2554411.3000000045}},{"attributes":{"ID":129393,"DIS_CODE":0,"TOWNNAME":"安定區","LI":"港南里","LIN":"17鄰","STREET":" ","SECT":" ","MAREA":"港口","LANE":" ","ALLEY":" ","HOUSE_NO":"１４０號之３３","E_COORD97":171681.26999999999,"N_COORD97":2554459.2999999998,"ADDRESS":"港口１４０號之３３","OBJECTID":129393},"geometry":{"x":171681.27000000048,"y":2554459.3000000026}},{"attributes":{"ID":129394,"DIS_CODE":0,"TOWNNAME":"安定區","LI":"管寮里","LIN":"8鄰","STREET":" ","SECT":" ","MAREA":"管寮","LANE":" ","ALLEY":" ","HOUSE_NO":"７４之１號","E_COORD97":169840.94,"N_COORD97":2556445.2999999998,"ADDRESS":"管寮７４之１號","OBJECTID":129394},"geometry":{"x":169840.94000000041,"y":2556445.3000000045}},{"attributes":{"ID":129395,"DIS_CODE":0,"TOWNNAME":"安定區","LI":"新吉里","LIN":"4鄰","STREET":" ","SECT":" ","MAREA":"新吉","LANE":" ","ALLEY":" ","HOUSE_NO":"３１號","E_COORD97":169419.97,"N_COORD97":2554072.25,"ADDRESS":"新吉３１號","OBJECTID":129395},"geometry":{"x":169419.96999999974,"y":2554072.2500000019}},{"attributes":{"ID":129396,"DIS_CODE":0,"TOWNNAME":"安定區","LI":"南安里","LIN":"4鄰","STREET":" ","SECT":" ","MAREA":"油車","LANE":" ","ALLEY":" ","HOUSE_NO":"４８號","E_COORD97":170643.34,"N_COORD97":2555512.25,"ADDRESS":"油車４８號","OBJECTID":129396},"geometry":{"x":170643.33999999892,"y":2555512.25}},{"attributes":{"ID":129397,"DIS_CODE":0,"TOWNNAME":"安定區","LI":"管寮里","LIN":"4鄰","STREET":" ","SECT":" ","MAREA":"管寮","LANE":" ","ALLEY":" ","HOUSE_NO":"３６號","E_COORD97":170065.63319399999,"N_COORD97":2556407.85769,"ADDRESS":"管寮３６號","OBJECTID":129397},"geometry":{"x":170065.63319399953,"y":2556407.857691003}},{"attributes":{"ID":129398,"DIS_CODE":0,"TOWNNAME":"安定區","LI":"管寮里","LIN":"4鄰","STREET":" ","SECT":" ","MAREA":"管寮","LANE":" ","ALLEY":" ","HOUSE_NO":"３９號","E_COORD97":170057.90213999999,"N_COORD97":2556434.95101,"ADDRESS":"管寮３９號","OBJECTID":129398},"geometry":{"x":170057.9021399999,"y":2556434.9510090016}},{"attributes":{"ID":129399,"DIS_CODE":0,"TOWNNAME":"安定區","LI":"南安里","LIN":"4鄰","STREET":" ","SECT":" ","MAREA":"油車","LANE":" ","ALLEY":" ","HOUSE_NO":"４４之２號","E_COORD97":170626.09221,"N_COORD97":2555550.53253,"ADDRESS":"油車４４之２號","OBJECTID":129399},"geometry":{"x":170626.09221000224,"y":2555550.5325310025}},{"attributes":{"ID":129400,"DIS_CODE":0,"TOWNNAME":"安定區","LI":"港南里","LIN":"18鄰","STREET":" ","SECT":" ","MAREA":"港口","LANE":" ","ALLEY":" ","HOUSE_NO":"２４４號之１６","E_COORD97":171827.07999999999,"N_COORD97":2554755.2999999998,"ADDRESS":"港口２４４號之１６","OBJECTID":129400},"geometry":{"x":171827.08000000194,"y":2554755.3000000007}}]}