{"displayFieldName":"TOWNNAME","fieldAliases":{"ID":"ID","DIS_CODE":"DIS_CODE","TOWNNAME":"TOWNNAME","LI":"LI","LIN":"LIN","STREET":"STREET","SECT":"SECT","MAREA":"MAREA","LANE":"LANE","ALLEY":"ALLEY","HOUSE_NO":"HOUSE_NO","E_COORD97":"E_COORD97","N_COORD97":"N_COORD97","ADDRESS":"ADDRESS","OBJECTID":"OBJECTID"},"geometryType":"esriGeometryPoint","spatialReference":{"wkid":102443,"latestWkid":3826},"fields":[{"name":"ID","type":"esriFieldTypeDouble","alias":"ID"},{"name":"DIS_CODE","type":"esriFieldTypeInteger","alias":"DIS_CODE"},{"name":"TOWNNAME","type":"esriFieldTypeString","alias":"TOWNNAME","length":8},{"name":"LI","type":"esriFieldTypeString","alias":"LI","length":8},{"name":"LIN","type":"esriFieldTypeString","alias":"LIN","length":12},{"name":"STREET","type":"esriFieldTypeString","alias":"STREET","length":20},{"name":"SECT","type":"esriFieldTypeString","alias":"SECT","length":8},{"name":"MAREA","type":"esriFieldTypeString","alias":"MAREA","length":12},{"name":"LANE","type":"esriFieldTypeString","alias":"LANE","length":10},{"name":"ALLEY","type":"esriFieldTypeString","alias":"ALLEY","length":10},{"name":"HOUSE_NO","type":"esriFieldTypeString","alias":"HOUSE_NO","length":20},{"name":"E_COORD97","type":"esriFieldTypeDouble","alias":"E_COORD97"},{"name":"N_COORD97","type":"esriFieldTypeDouble","alias":"N_COORD97"},{"name":"ADDRESS","type":"esriFieldTypeString","alias":"ADDRESS","length":50},{"name":"OBJECTID","type":"esriFieldTypeOID","alias":"OBJECTID"}],"features":[{"attributes":{"ID":384011,"DIS_CODE":0,"TOWNNAME":"北區","LI":"興北里","LIN":"9鄰","STREET":"公園路","SECT":" ","MAREA":" ","LANE":"５１６巷","ALLEY":" ","HOUSE_NO":"２號之２","E_COORD97":169074.59,"N_COORD97":2545220.0600000001,"ADDRESS":"公園路５１６巷２號之２","OBJECTID":384001},"geometry":{"x":169074.58999999985,"y":2545220.0600000005}},{"attributes":{"ID":384012,"DIS_CODE":0,"TOWNNAME":"北區","LI":"興北里","LIN":"9鄰","STREET":"公園路","SECT":" ","MAREA":" ","LANE":"５１６巷","ALLEY":" ","HOUSE_NO":"６號","E_COORD97":169077.64000000001,"N_COORD97":2545221.3300000001,"ADDRESS":"公園路５１６巷６號","OBJECTID":384002},"geometry":{"x":169077.63999999966,"y":2545221.3300000001}},{"attributes":{"ID":384013,"DIS_CODE":0,"TOWNNAME":"北區","LI":"興北里","LIN":"9鄰","STREET":"公園路","SECT":" ","MAREA":" ","LANE":"５１６巷","ALLEY":" ","HOUSE_NO":"８號","E_COORD97":169081.14999999999,"N_COORD97":2545222.6000000001,"ADDRESS":"公園路５１６巷８號","OBJECTID":384003},"geometry":{"x":169081.1500000013,"y":2545222.5999999996}},{"attributes":{"ID":384014,"DIS_CODE":0,"TOWNNAME":"北區","LI":"興南里","LIN":"9鄰","STREET":"公園北路","SECT":" ","MAREA":" ","LANE":"１５４巷","ALLEY":" ","HOUSE_NO":"５號","E_COORD97":168796.76000000001,"N_COORD97":2545107.0099999998,"ADDRESS":"公園北路１５４巷５號","OBJECTID":384004},"geometry":{"x":168796.76000000071,"y":2545107.0100000016}},{"attributes":{"ID":384015,"DIS_CODE":0,"TOWNNAME":"北區","LI":"興南里","LIN":"9鄰","STREET":"西門路","SECT":"四段","MAREA":" ","LANE":"１６巷","ALLEY":" ","HOUSE_NO":"１０號","E_COORD97":168653.73999999999,"N_COORD97":2545155.5499999998,"ADDRESS":"西門路四段１６巷１０號","OBJECTID":384005},"geometry":{"x":168653.74000000022,"y":2545155.5500000007}},{"attributes":{"ID":384016,"DIS_CODE":0,"TOWNNAME":"北區","LI":"興南里","LIN":"9鄰","STREET":"西門路","SECT":"四段","MAREA":" ","LANE":"１６巷","ALLEY":" ","HOUSE_NO":"１２號","E_COORD97":168657.81,"N_COORD97":2545154.7400000002,"ADDRESS":"西門路四段１６巷１２號","OBJECTID":384006},"geometry":{"x":168657.80999999959,"y":2545154.7400000002}},{"attributes":{"ID":384017,"DIS_CODE":0,"TOWNNAME":"北區","LI":"興南里","LIN":"9鄰","STREET":"西門路","SECT":"四段","MAREA":" ","LANE":"１６巷","ALLEY":" ","HOUSE_NO":"１４號","E_COORD97":168661.56,"N_COORD97":2545153.6000000001,"ADDRESS":"西門路四段１６巷１４號","OBJECTID":384007},"geometry":{"x":168661.55999999866,"y":2545153.6000000015}},{"attributes":{"ID":384018,"DIS_CODE":0,"TOWNNAME":"北區","LI":"興南里","LIN":"9鄰","STREET":"西門路","SECT":"四段","MAREA":" ","LANE":"１６巷","ALLEY":" ","HOUSE_NO":"１６號","E_COORD97":168665.79000000001,"N_COORD97":2545152.79,"ADDRESS":"西門路四段１６巷１６號","OBJECTID":384008},"geometry":{"x":168665.7900000019,"y":2545152.7899999991}},{"attributes":{"ID":384019,"DIS_CODE":0,"TOWNNAME":"北區","LI":"興南里","LIN":"9鄰","STREET":"公園北路","SECT":" ","MAREA":" ","LANE":"１５４巷","ALLEY":" ","HOUSE_NO":"１號","E_COORD97":168828.73000000001,"N_COORD97":2545092.3900000001,"ADDRESS":"公園北路１５４巷１號","OBJECTID":384009},"geometry":{"x":168828.73000000045,"y":2545092.3900000006}},{"attributes":{"ID":384020,"DIS_CODE":0,"TOWNNAME":"北區","LI":"興南里","LIN":"9鄰","STREET":"公園北路","SECT":" ","MAREA":" ","LANE":"１５４巷","ALLEY":" ","HOUSE_NO":"１號之１","E_COORD97":168823.78,"N_COORD97":2545095.9500000002,"ADDRESS":"公園北路１５４巷１號之１","OBJECTID":384010},"geometry":{"x":168823.78000000119,"y":2545095.9500000011}},{"attributes":{"ID":384021,"DIS_CODE":0,"TOWNNAME":"北區","LI":"興南里","LIN":"9鄰","STREET":"公園北路","SECT":" ","MAREA":" ","LANE":"１５４巷","ALLEY":" ","HOUSE_NO":"１號之２","E_COORD97":168816.45999999999,"N_COORD97":2545099.6899999999,"ADDRESS":"公園北路１５４巷１號之２","OBJECTID":384011},"geometry":{"x":168816.45999999996,"y":2545099.6899999995}},{"attributes":{"ID":384022,"DIS_CODE":0,"TOWNNAME":"北區","LI":"興南里","LIN":"9鄰","STREET":"公園北路","SECT":" ","MAREA":" ","LANE":"１５４巷","ALLEY":" ","HOUSE_NO":"２號","E_COORD97":168811.89999999999,"N_COORD97":2545102.1299999999,"ADDRESS":"公園北路１５４巷２號","OBJECTID":384012},"geometry":{"x":168811.9000000013,"y":2545102.129999999}},{"attributes":{"ID":384023,"DIS_CODE":0,"TOWNNAME":"北區","LI":"興南里","LIN":"9鄰","STREET":"公園北路","SECT":" ","MAREA":" ","LANE":"１５４巷","ALLEY":" ","HOUSE_NO":"３號","E_COORD97":168807.67000000001,"N_COORD97":2545103.9199999999,"ADDRESS":"公園北路１５４巷３號","OBJECTID":384013},"geometry":{"x":168807.67000000086,"y":2545103.9200000018}},{"attributes":{"ID":384024,"DIS_CODE":0,"TOWNNAME":"北區","LI":"興南里","LIN":"9鄰","STREET":"公園北路","SECT":" ","MAREA":" ","LANE":"１５４巷","ALLEY":" ","HOUSE_NO":"４號","E_COORD97":168800.82999999999,"N_COORD97":2545105.71,"ADDRESS":"公園北路１５４巷４號","OBJECTID":384014},"geometry":{"x":168800.83000000007,"y":2545105.7100000028}},{"attributes":{"ID":384025,"DIS_CODE":0,"TOWNNAME":"北區","LI":"興南里","LIN":"9鄰","STREET":"西門路","SECT":"四段","MAREA":" ","LANE":"１６巷","ALLEY":" ","HOUSE_NO":"１８號","E_COORD97":168669.53,"N_COORD97":2545152.1400000001,"ADDRESS":"西門路四段１６巷１８號","OBJECTID":384015},"geometry":{"x":168669.53000000119,"y":2545152.1400000006}},{"attributes":{"ID":384026,"DIS_CODE":0,"TOWNNAME":"北區","LI":"興南里","LIN":"9鄰","STREET":"西門路","SECT":"四段","MAREA":" ","LANE":"１６巷","ALLEY":" ","HOUSE_NO":"２０號","E_COORD97":168673.44,"N_COORD97":2545151.1600000001,"ADDRESS":"西門路四段１６巷２０號","OBJECTID":384016},"geometry":{"x":168673.43999999948,"y":2545151.1600000001}},{"attributes":{"ID":384027,"DIS_CODE":0,"TOWNNAME":"北區","LI":"興南里","LIN":"9鄰","STREET":"西門路","SECT":"四段","MAREA":" ","LANE":"１６巷","ALLEY":" ","HOUSE_NO":"２２號","E_COORD97":168677.34,"N_COORD97":2545150.02,"ADDRESS":"西門路四段１６巷２２號","OBJECTID":384017},"geometry":{"x":168677.34000000078,"y":2545150.0200000014}},{"attributes":{"ID":384028,"DIS_CODE":0,"TOWNNAME":"北區","LI":"興南里","LIN":"9鄰","STREET":"西門路","SECT":"四段","MAREA":" ","LANE":"１６巷","ALLEY":" ","HOUSE_NO":"３２號","E_COORD97":168696.70999999999,"N_COORD97":2545142.7000000002,"ADDRESS":"西門路四段１６巷３２號","OBJECTID":384018},"geometry":{"x":168696.71000000183,"y":2545142.6999999993}},{"attributes":{"ID":384029,"DIS_CODE":0,"TOWNNAME":"北區","LI":"興南里","LIN":"9鄰","STREET":"西門路","SECT":"四段","MAREA":" ","LANE":"１６巷","ALLEY":" ","HOUSE_NO":"３４號","E_COORD97":168701.10999999999,"N_COORD97":2545141.3999999999,"ADDRESS":"西門路四段１６巷３４號","OBJECTID":384019},"geometry":{"x":168701.1100000022,"y":2545141.4000000022}},{"attributes":{"ID":384030,"DIS_CODE":0,"TOWNNAME":"北區","LI":"興南里","LIN":"9鄰","STREET":"西門路","SECT":"四段","MAREA":" ","LANE":"１６巷","ALLEY":" ","HOUSE_NO":"３６號","E_COORD97":168704.85000000001,"N_COORD97":2545141.0800000001,"ADDRESS":"西門路四段１６巷３６號","OBJECTID":384020},"geometry":{"x":168704.84999999963,"y":2545141.0800000001}},{"attributes":{"ID":384031,"DIS_CODE":0,"TOWNNAME":"歸仁區","LI":"歸南里","LIN":"9鄰","STREET":"民生九街","SECT":" ","MAREA":" ","LANE":"６９巷","ALLEY":" ","HOUSE_NO":"５號","E_COORD97":176241.91,"N_COORD97":2540156.25,"ADDRESS":"民生九街６９巷５號","OBJECTID":384021},"geometry":{"x":176241.91000000015,"y":2540156.25}},{"attributes":{"ID":384032,"DIS_CODE":0,"TOWNNAME":"北區","LI":"興南里","LIN":"9鄰","STREET":"西門路","SECT":"四段","MAREA":" ","LANE":"１６巷","ALLEY":" ","HOUSE_NO":"３８號","E_COORD97":168708.76000000001,"N_COORD97":2545139.9399999999,"ADDRESS":"西門路四段１６巷３８號","OBJECTID":384022},"geometry":{"x":168708.76000000071,"y":2545139.9400000013}},{"attributes":{"ID":384033,"DIS_CODE":0,"TOWNNAME":"北區","LI":"興南里","LIN":"9鄰","STREET":"西門路","SECT":"四段","MAREA":" ","LANE":"１６巷","ALLEY":" ","HOUSE_NO":"４０號","E_COORD97":168712.82000000001,"N_COORD97":2545139.29,"ADDRESS":"西門路四段１６巷４０號","OBJECTID":384023},"geometry":{"x":168712.8200000003,"y":2545139.2899999991}},{"attributes":{"ID":384034,"DIS_CODE":0,"TOWNNAME":"北區","LI":"興南里","LIN":"9鄰","STREET":"西門路","SECT":"四段","MAREA":" ","LANE":"１６巷","ALLEY":" ","HOUSE_NO":"４２號","E_COORD97":168716.89000000001,"N_COORD97":2545138.6400000001,"ADDRESS":"西門路四段１６巷４２號","OBJECTID":384024},"geometry":{"x":168716.88999999966,"y":2545138.6400000006}},{"attributes":{"ID":384035,"DIS_CODE":0,"TOWNNAME":"北區","LI":"興南里","LIN":"9鄰","STREET":"西門路","SECT":"四段","MAREA":" ","LANE":"１６巷","ALLEY":" ","HOUSE_NO":"４４號","E_COORD97":168720.95999999999,"N_COORD97":2545137.5,"ADDRESS":"西門路四段１６巷４４號","OBJECTID":384025},"geometry":{"x":168720.96000000089,"y":2545137.5000000019}},{"attributes":{"ID":384036,"DIS_CODE":0,"TOWNNAME":"北區","LI":"興南里","LIN":"9鄰","STREET":"西門路","SECT":"四段","MAREA":" ","LANE":"１６巷","ALLEY":" ","HOUSE_NO":"４６號","E_COORD97":168724.70999999999,"N_COORD97":2545136.6899999999,"ADDRESS":"西門路四段１６巷４６號","OBJECTID":384026},"geometry":{"x":168724.70999999996,"y":2545136.6899999995}},{"attributes":{"ID":384037,"DIS_CODE":0,"TOWNNAME":"北區","LI":"興南里","LIN":"9鄰","STREET":"西門路","SECT":"四段","MAREA":" ","LANE":"１６巷","ALLEY":" ","HOUSE_NO":"４８號","E_COORD97":168728.45000000001,"N_COORD97":2545135.71,"ADDRESS":"西門路四段１６巷４８號","OBJECTID":384027},"geometry":{"x":168728.45000000019,"y":2545135.7100000046}},{"attributes":{"ID":384038,"DIS_CODE":0,"TOWNNAME":"北區","LI":"興南里","LIN":"9鄰","STREET":"西門路","SECT":"四段","MAREA":" ","LANE":"１６巷","ALLEY":" ","HOUSE_NO":"５０號","E_COORD97":168732.03,"N_COORD97":2545133.4399999999,"ADDRESS":"西門路四段１６巷５０號","OBJECTID":384028},"geometry":{"x":168732.02999999933,"y":2545133.4400000013}},{"attributes":{"ID":384039,"DIS_CODE":0,"TOWNNAME":"北區","LI":"興南里","LIN":"9鄰","STREET":"西門路","SECT":"四段","MAREA":" ","LANE":"１６巷","ALLEY":" ","HOUSE_NO":"５２號","E_COORD97":168735.87,"N_COORD97":2545132.6200000001,"ADDRESS":"西門路四段１６巷５２號","OBJECTID":384029},"geometry":{"x":168735.87000000011,"y":2545132.620000001}},{"attributes":{"ID":384040,"DIS_CODE":0,"TOWNNAME":"北區","LI":"興南里","LIN":"9鄰","STREET":"西門路","SECT":"四段","MAREA":" ","LANE":"１６巷","ALLEY":" ","HOUSE_NO":"５４號","E_COORD97":168739.94,"N_COORD97":2545131.6499999999,"ADDRESS":"西門路四段１６巷５４號","OBJECTID":384030},"geometry":{"x":168739.94000000134,"y":2545131.6500000004}},{"attributes":{"ID":384041,"DIS_CODE":0,"TOWNNAME":"北區","LI":"興南里","LIN":"9鄰","STREET":"西門路","SECT":"四段","MAREA":" ","LANE":"１６巷","ALLEY":" ","HOUSE_NO":"５６號","E_COORD97":168744.01000000001,"N_COORD97":2545130.6699999999,"ADDRESS":"西門路四段１６巷５６號","OBJECTID":384031},"geometry":{"x":168744.01000000071,"y":2545130.6699999999}},{"attributes":{"ID":384042,"DIS_CODE":0,"TOWNNAME":"北區","LI":"興南里","LIN":"9鄰","STREET":"西門路","SECT":"四段","MAREA":" ","LANE":"１６巷","ALLEY":" ","HOUSE_NO":"５８號","E_COORD97":168748.23999999999,"N_COORD97":2545130.1800000002,"ADDRESS":"西門路四段１６巷５８號","OBJECTID":384032},"geometry":{"x":168748.24000000115,"y":2545130.1799999997}},{"attributes":{"ID":384043,"DIS_CODE":0,"TOWNNAME":"北區","LI":"興南里","LIN":"9鄰","STREET":"西門路","SECT":"四段","MAREA":" ","LANE":"１６巷","ALLEY":" ","HOUSE_NO":"６０號","E_COORD97":168751.48999999999,"N_COORD97":2545129.04,"ADDRESS":"西門路四段１６巷６０號","OBJECTID":384033},"geometry":{"x":168751.49000000115,"y":2545129.040000001}},{"attributes":{"ID":384044,"DIS_CODE":0,"TOWNNAME":"北區","LI":"興南里","LIN":"9鄰","STREET":"西門路","SECT":"四段","MAREA":" ","LANE":"１６巷","ALLEY":" ","HOUSE_NO":"６２號","E_COORD97":168755.56,"N_COORD97":2545128.3900000001,"ADDRESS":"西門路四段１６巷６２號","OBJECTID":384034},"geometry":{"x":168755.56000000052,"y":2545128.3900000025}},{"attributes":{"ID":384045,"DIS_CODE":0,"TOWNNAME":"北區","LI":"興南里","LIN":"9鄰","STREET":"西門路","SECT":"四段","MAREA":" ","LANE":"１６巷","ALLEY":" ","HOUSE_NO":"６４號","E_COORD97":168759.31,"N_COORD97":2545127.5800000001,"ADDRESS":"西門路四段１６巷６４號","OBJECTID":384035},"geometry":{"x":168759.30999999959,"y":2545127.5800000001}},{"attributes":{"ID":384046,"DIS_CODE":0,"TOWNNAME":"北區","LI":"興南里","LIN":"9鄰","STREET":"西門路","SECT":"四段","MAREA":" ","LANE":"１６巷","ALLEY":" ","HOUSE_NO":"６６號","E_COORD97":168763.37,"N_COORD97":2545126.77,"ADDRESS":"西門路四段１６巷６６號","OBJECTID":384036},"geometry":{"x":168763.37000000011,"y":2545126.7699999996}},{"attributes":{"ID":384047,"DIS_CODE":0,"TOWNNAME":"北區","LI":"興南里","LIN":"9鄰","STREET":"西門路","SECT":"四段","MAREA":" ","LANE":"１６巷","ALLEY":" ","HOUSE_NO":"６８號","E_COORD97":168766.95999999999,"N_COORD97":2545125.6299999999,"ADDRESS":"西門路四段１６巷６８號","OBJECTID":384037},"geometry":{"x":168766.96000000089,"y":2545125.6300000008}},{"attributes":{"ID":384048,"DIS_CODE":0,"TOWNNAME":"北區","LI":"興南里","LIN":"9鄰","STREET":"西門路","SECT":"四段","MAREA":" ","LANE":"１６巷","ALLEY":" ","HOUSE_NO":"７０號","E_COORD97":168770.70000000001,"N_COORD97":2545124.8199999998,"ADDRESS":"西門路四段１６巷７０號","OBJECTID":384038},"geometry":{"x":168770.70000000112,"y":2545124.8200000022}},{"attributes":{"ID":384049,"DIS_CODE":0,"TOWNNAME":"北區","LI":"興南里","LIN":"9鄰","STREET":"西門路","SECT":"四段","MAREA":" ","LANE":"１６巷","ALLEY":" ","HOUSE_NO":"７２號","E_COORD97":168774.45999999999,"N_COORD97":2545121.48,"ADDRESS":"西門路四段１６巷７２號","OBJECTID":384039},"geometry":{"x":168774.45999999996,"y":2545121.4800000023}},{"attributes":{"ID":384050,"DIS_CODE":0,"TOWNNAME":"北區","LI":"興南里","LIN":"9鄰","STREET":"西門路","SECT":"四段","MAREA":" ","LANE":"１６巷","ALLEY":" ","HOUSE_NO":"７４號","E_COORD97":168779.01999999999,"N_COORD97":2545120.8300000001,"ADDRESS":"西門路四段１６巷７４號","OBJECTID":384040},"geometry":{"x":168779.02000000142,"y":2545120.8300000038}},{"attributes":{"ID":384051,"DIS_CODE":0,"TOWNNAME":"北區","LI":"興南里","LIN":"9鄰","STREET":"西門路","SECT":"四段","MAREA":" ","LANE":"１６巷","ALLEY":" ","HOUSE_NO":"８號","E_COORD97":168649.84,"N_COORD97":2545156.3599999999,"ADDRESS":"西門路四段１６巷８號","OBJECTID":384041},"geometry":{"x":168649.84000000171,"y":2545156.3599999994}},{"attributes":{"ID":384052,"DIS_CODE":0,"TOWNNAME":"北區","LI":"興南里","LIN":"9鄰","STREET":"西門路","SECT":"四段","MAREA":" ","LANE":"１６巷","ALLEY":" ","HOUSE_NO":"７６號","E_COORD97":168786.51000000001,"N_COORD97":2545117.4199999999,"ADDRESS":"西門路四段１６巷７６號","OBJECTID":384042},"geometry":{"x":168786.51000000071,"y":2545117.4200000018}},{"attributes":{"ID":384053,"DIS_CODE":0,"TOWNNAME":"歸仁區","LI":"武東里","LIN":"9鄰","STREET":"武東三街","SECT":" ","MAREA":" ","LANE":"２１巷","ALLEY":" ","HOUSE_NO":"１４號","E_COORD97":175221.48999999999,"N_COORD97":2535206.25,"ADDRESS":"武東三街２１巷１４號","OBJECTID":384043},"geometry":{"x":175221.49000000209,"y":2535206.25}},{"attributes":{"ID":384054,"DIS_CODE":0,"TOWNNAME":"歸仁區","LI":"七甲里","LIN":"9鄰","STREET":"七甲一街","SECT":" ","MAREA":" ","LANE":"７２巷","ALLEY":" ","HOUSE_NO":"２６號","E_COORD97":177659.64000000001,"N_COORD97":2542481.6499999999,"ADDRESS":"七甲一街７２巷２６號","OBJECTID":384044},"geometry":{"x":177659.6400000006,"y":2542481.6500000022}},{"attributes":{"ID":384055,"DIS_CODE":0,"TOWNNAME":"歸仁區","LI":"大潭里","LIN":"9鄰","STREET":"長榮路","SECT":"一段","MAREA":" ","LANE":"３２０巷","ALLEY":" ","HOUSE_NO":"２１號","E_COORD97":175343.42000000001,"N_COORD97":2534464.2799999998,"ADDRESS":"長榮路一段３２０巷２１號","OBJECTID":384045},"geometry":{"x":175343.41999999993,"y":2534464.2800000031}},{"attributes":{"ID":384056,"DIS_CODE":0,"TOWNNAME":"歸仁區","LI":"八甲里","LIN":"9鄰","STREET":"中正北路","SECT":"一段","MAREA":" ","LANE":"３９５巷","ALLEY":" ","HOUSE_NO":"１２號","E_COORD97":177670.28,"N_COORD97":2541887.4900000002,"ADDRESS":"中正北路一段３９５巷１２號","OBJECTID":384046},"geometry":{"x":177670.28000000026,"y":2541887.4900000002}},{"attributes":{"ID":384057,"DIS_CODE":0,"TOWNNAME":"歸仁區","LI":"七甲里","LIN":"9鄰","STREET":"七甲一街","SECT":" ","MAREA":" ","LANE":"９８巷","ALLEY":" ","HOUSE_NO":"７號","E_COORD97":177662.98999999999,"N_COORD97":2542576.6600000001,"ADDRESS":"七甲一街９８巷７號","OBJECTID":384047},"geometry":{"x":177662.99000000115,"y":2542576.660000002}},{"attributes":{"ID":384058,"DIS_CODE":0,"TOWNNAME":"歸仁區","LI":"武東里","LIN":"9鄰","STREET":"大武路","SECT":"三段","MAREA":" ","LANE":"３２０巷","ALLEY":" ","HOUSE_NO":"３８號","E_COORD97":174867.42000000001,"N_COORD97":2535090.2799999998,"ADDRESS":"大武路三段３２０巷３８號","OBJECTID":384048},"geometry":{"x":174867.42000000179,"y":2535090.2799999993}},{"attributes":{"ID":384059,"DIS_CODE":0,"TOWNNAME":"歸仁區","LI":"武東里","LIN":"9鄰","STREET":"武東三街","SECT":" ","MAREA":" ","LANE":"２１巷","ALLEY":" ","HOUSE_NO":"２４號","E_COORD97":175205.98999999999,"N_COORD97":2535186.25,"ADDRESS":"武東三街２１巷２４號","OBJECTID":384049},"geometry":{"x":175205.99000000022,"y":2535186.25}},{"attributes":{"ID":384060,"DIS_CODE":0,"TOWNNAME":"歸仁區","LI":"文化里","LIN":"9鄰","STREET":"文化北二街","SECT":" ","MAREA":" ","LANE":"１３６巷","ALLEY":" ","HOUSE_NO":"１號","E_COORD97":177057.06,"N_COORD97":2541388.3399999999,"ADDRESS":"文化北二街１３６巷１號","OBJECTID":384050},"geometry":{"x":177057.06000000052,"y":2541388.3400000017}},{"attributes":{"ID":384061,"DIS_CODE":0,"TOWNNAME":"歸仁區","LI":"武東里","LIN":"9鄰","STREET":"武東三街","SECT":" ","MAREA":" ","LANE":"２１巷","ALLEY":" ","HOUSE_NO":"１２號","E_COORD97":175221.48999999999,"N_COORD97":2535210.25,"ADDRESS":"武東三街２１巷１２號","OBJECTID":384051},"geometry":{"x":175221.49000000209,"y":2535210.25}},{"attributes":{"ID":384062,"DIS_CODE":0,"TOWNNAME":"歸仁區","LI":"武東里","LIN":"9鄰","STREET":"武東三街","SECT":" ","MAREA":" ","LANE":"５３巷","ALLEY":" ","HOUSE_NO":"５０號","E_COORD97":175123.48999999999,"N_COORD97":2535094.25,"ADDRESS":"武東三街５３巷５０號","OBJECTID":384052},"geometry":{"x":175123.49000000115,"y":2535094.25}},{"attributes":{"ID":384063,"DIS_CODE":0,"TOWNNAME":"鹽水區","LI":"三生里","LIN":"9鄰","STREET":"民生街","SECT":" ","MAREA":" ","LANE":"４巷","ALLEY":" ","HOUSE_NO":"８號","E_COORD97":175141.95000000001,"N_COORD97":2580070.52,"ADDRESS":"民生街４巷８號","OBJECTID":384053},"geometry":{"x":175141.94999999925,"y":2580070.5200000014}},{"attributes":{"ID":384064,"DIS_CODE":0,"TOWNNAME":"歸仁區","LI":"大潭里","LIN":"9鄰","STREET":"長榮路","SECT":"一段","MAREA":" ","LANE":"５６０巷","ALLEY":" ","HOUSE_NO":"２０２號","E_COORD97":175928.57000000001,"N_COORD97":2534067.2799999998,"ADDRESS":"長榮路一段５６０巷２０２號","OBJECTID":384054},"geometry":{"x":175928.57000000123,"y":2534067.2799999975}},{"attributes":{"ID":384065,"DIS_CODE":0,"TOWNNAME":"歸仁區","LI":"八甲里","LIN":"9鄰","STREET":"中正北路","SECT":"一段","MAREA":" ","LANE":"３９５巷","ALLEY":" ","HOUSE_NO":"３７號","E_COORD97":177600.28,"N_COORD97":2541830.4900000002,"ADDRESS":"中正北路一段３９５巷３７號","OBJECTID":384055},"geometry":{"x":177600.28000000119,"y":2541830.4900000002}},{"attributes":{"ID":384066,"DIS_CODE":0,"TOWNNAME":"南區","LI":"金華里","LIN":"9鄰","STREET":"金華路","SECT":"二段","MAREA":" ","LANE":"６３巷","ALLEY":" ","HOUSE_NO":"４０號","E_COORD97":166930.45000000001,"N_COORD97":2542159.8999999999,"ADDRESS":"金華路二段６３巷４０號","OBJECTID":384056},"geometry":{"x":166930.44999999925,"y":2542159.9000000004}},{"attributes":{"ID":384067,"DIS_CODE":0,"TOWNNAME":"南區","LI":"金華里","LIN":"9鄰","STREET":"金華路","SECT":"二段","MAREA":" ","LANE":"６３巷","ALLEY":" ","HOUSE_NO":"４２號","E_COORD97":166919.60000000001,"N_COORD97":2542161.5,"ADDRESS":"金華路二段６３巷４２號","OBJECTID":384057},"geometry":{"x":166919.60000000056,"y":2542161.5}},{"attributes":{"ID":384068,"DIS_CODE":0,"TOWNNAME":"南區","LI":"金華里","LIN":"9鄰","STREET":"金華路","SECT":"二段","MAREA":" ","LANE":"６３巷","ALLEY":" ","HOUSE_NO":"４４號","E_COORD97":166914.85000000001,"N_COORD97":2542161.3399999999,"ADDRESS":"金華路二段６３巷４４號","OBJECTID":384058},"geometry":{"x":166914.84999999963,"y":2542161.3400000017}},{"attributes":{"ID":384069,"DIS_CODE":0,"TOWNNAME":"南區","LI":"金華里","LIN":"9鄰","STREET":"金華路","SECT":"二段","MAREA":" ","LANE":"６３巷","ALLEY":" ","HOUSE_NO":"４６號","E_COORD97":166908.34,"N_COORD97":2542164.1499999999,"ADDRESS":"金華路二段６３巷４６號","OBJECTID":384059},"geometry":{"x":166908.33999999985,"y":2542164.1500000004}},{"attributes":{"ID":384070,"DIS_CODE":0,"TOWNNAME":"南區","LI":"金華里","LIN":"9鄰","STREET":"金華路","SECT":"二段","MAREA":" ","LANE":"６３巷","ALLEY":" ","HOUSE_NO":"４８號","E_COORD97":166903.51999999999,"N_COORD97":2542164.5499999998,"ADDRESS":"金華路二段６３巷４８號","OBJECTID":384060},"geometry":{"x":166903.51999999955,"y":2542164.5500000026}},{"attributes":{"ID":384071,"DIS_CODE":0,"TOWNNAME":"南區","LI":"金華里","LIN":"9鄰","STREET":"金華路","SECT":"二段","MAREA":" ","LANE":"６３巷","ALLEY":" ","HOUSE_NO":"５０號","E_COORD97":166897.64999999999,"N_COORD97":2542165.1899999999,"ADDRESS":"金華路二段６３巷５０號","OBJECTID":384061},"geometry":{"x":166897.6500000013,"y":2542165.1900000013}},{"attributes":{"ID":384072,"DIS_CODE":0,"TOWNNAME":"南區","LI":"金華里","LIN":"9鄰","STREET":"金華路","SECT":"二段","MAREA":" ","LANE":"６３巷","ALLEY":" ","HOUSE_NO":"５２號","E_COORD97":166892.19,"N_COORD97":2542165.4300000002,"ADDRESS":"金華路二段６３巷５２號","OBJECTID":384062},"geometry":{"x":166892.19000000134,"y":2542165.4299999997}},{"attributes":{"ID":384073,"DIS_CODE":0,"TOWNNAME":"南區","LI":"金華里","LIN":"9鄰","STREET":"金華路","SECT":"二段","MAREA":" ","LANE":"６３巷","ALLEY":" ","HOUSE_NO":"５４號","E_COORD97":166886.16,"N_COORD97":2542166.1499999999,"ADDRESS":"金華路二段６３巷５４號","OBJECTID":384063},"geometry":{"x":166886.16000000015,"y":2542166.1500000022}},{"attributes":{"ID":384074,"DIS_CODE":0,"TOWNNAME":"南區","LI":"金華里","LIN":"9鄰","STREET":"金華路","SECT":"二段","MAREA":" ","LANE":"６３巷","ALLEY":" ","HOUSE_NO":"５６號","E_COORD97":166880.04999999999,"N_COORD97":2542167.1200000001,"ADDRESS":"金華路二段６３巷５６號","OBJECTID":384064},"geometry":{"x":166880.04999999981,"y":2542167.1200000029}},{"attributes":{"ID":384075,"DIS_CODE":0,"TOWNNAME":"南區","LI":"金華里","LIN":"9鄰","STREET":"金華路","SECT":"二段","MAREA":" ","LANE":"６３巷","ALLEY":" ","HOUSE_NO":"５８號","E_COORD97":166876.12,"N_COORD97":2542167.3599999999,"ADDRESS":"金華路二段６３巷５８號","OBJECTID":384065},"geometry":{"x":166876.12000000011,"y":2542167.3600000013}},{"attributes":{"ID":384076,"DIS_CODE":0,"TOWNNAME":"南區","LI":"金華里","LIN":"9鄰","STREET":"金華路","SECT":"二段","MAREA":" ","LANE":"６３巷","ALLEY":" ","HOUSE_NO":"６０號","E_COORD97":166869.51000000001,"N_COORD97":2542169.23,"ADDRESS":"金華路二段６３巷６０號","OBJECTID":384066},"geometry":{"x":166869.51000000071,"y":2542169.2300000023}},{"attributes":{"ID":384077,"DIS_CODE":0,"TOWNNAME":"南區","LI":"金華里","LIN":"9鄰","STREET":"金華路","SECT":"二段","MAREA":" ","LANE":"７１巷","ALLEY":" ","HOUSE_NO":"１７號","E_COORD97":166932.04999999999,"N_COORD97":2542172.3300000001,"ADDRESS":"金華路二段７１巷１７號","OBJECTID":384067},"geometry":{"x":166932.05000000075,"y":2542172.3300000019}},{"attributes":{"ID":384078,"DIS_CODE":0,"TOWNNAME":"南區","LI":"金華里","LIN":"9鄰","STREET":"金華路","SECT":"二段","MAREA":" ","LANE":"７１巷","ALLEY":" ","HOUSE_NO":"２０號","E_COORD97":166933.32999999999,"N_COORD97":2542189.1499999999,"ADDRESS":"金華路二段７１巷２０號","OBJECTID":384068},"geometry":{"x":166933.33000000101,"y":2542189.1500000004}},{"attributes":{"ID":384079,"DIS_CODE":0,"TOWNNAME":"南區","LI":"金華里","LIN":"9鄰","STREET":"金華路","SECT":"二段","MAREA":" ","LANE":"７１巷","ALLEY":" ","HOUSE_NO":"２１號","E_COORD97":166920.48000000001,"N_COORD97":2542173.46,"ADDRESS":"金華路二段７１巷２１號","OBJECTID":384069},"geometry":{"x":166920.48000000231,"y":2542173.4600000009}},{"attributes":{"ID":384080,"DIS_CODE":0,"TOWNNAME":"南區","LI":"金華里","LIN":"9鄰","STREET":"金華路","SECT":"二段","MAREA":" ","LANE":"７１巷","ALLEY":" ","HOUSE_NO":"２２號","E_COORD97":166927.14999999999,"N_COORD97":2542188.54,"ADDRESS":"金華路二段７１巷２２號","OBJECTID":384070},"geometry":{"x":166927.15000000037,"y":2542188.5399999991}},{"attributes":{"ID":384081,"DIS_CODE":0,"TOWNNAME":"南區","LI":"金華里","LIN":"9鄰","STREET":"金華路","SECT":"二段","MAREA":" ","LANE":"７１巷","ALLEY":" ","HOUSE_NO":"２３號","E_COORD97":166915.54000000001,"N_COORD97":2542174.5,"ADDRESS":"金華路二段７１巷２３號","OBJECTID":384071},"geometry":{"x":166915.54000000004,"y":2542174.5000000019}},{"attributes":{"ID":384082,"DIS_CODE":0,"TOWNNAME":"南區","LI":"金華里","LIN":"9鄰","STREET":"金華路","SECT":"二段","MAREA":" ","LANE":"７１巷","ALLEY":" ","HOUSE_NO":"２４號","E_COORD97":166921.89000000001,"N_COORD97":2542191.0099999998,"ADDRESS":"金華路二段７１巷２４號","OBJECTID":384072},"geometry":{"x":166921.88999999873,"y":2542191.0100000016}},{"attributes":{"ID":384083,"DIS_CODE":0,"TOWNNAME":"南區","LI":"金華里","LIN":"9鄰","STREET":"金華路","SECT":"二段","MAREA":" ","LANE":"７１巷","ALLEY":" ","HOUSE_NO":"２５號","E_COORD97":166909.70999999999,"N_COORD97":2542173.9500000002,"ADDRESS":"金華路二段７１巷２５號","OBJECTID":384073},"geometry":{"x":166909.70999999996,"y":2542173.9500000011}},{"attributes":{"ID":384084,"DIS_CODE":0,"TOWNNAME":"南區","LI":"金華里","LIN":"9鄰","STREET":"金華路","SECT":"二段","MAREA":" ","LANE":"７１巷","ALLEY":" ","HOUSE_NO":"２６號","E_COORD97":166916.94,"N_COORD97":2542192.2400000002,"ADDRESS":"金華路二段７１巷２６號","OBJECTID":384074},"geometry":{"x":166916.94000000041,"y":2542192.2400000039}},{"attributes":{"ID":384085,"DIS_CODE":0,"TOWNNAME":"南區","LI":"金華里","LIN":"9鄰","STREET":"金華路","SECT":"二段","MAREA":" ","LANE":"７１巷","ALLEY":" ","HOUSE_NO":"２７號","E_COORD97":166904.44,"N_COORD97":2542175.04,"ADDRESS":"金華路二段７１巷２７號","OBJECTID":384075},"geometry":{"x":166904.44000000134,"y":2542175.0399999972}},{"attributes":{"ID":384086,"DIS_CODE":0,"TOWNNAME":"南區","LI":"金華里","LIN":"9鄰","STREET":"金華路","SECT":"二段","MAREA":" ","LANE":"７１巷","ALLEY":" ","HOUSE_NO":"２９號","E_COORD97":166897.51999999999,"N_COORD97":2542175.04,"ADDRESS":"金華路二段７１巷２９號","OBJECTID":384076},"geometry":{"x":166897.52000000048,"y":2542175.0399999972}},{"attributes":{"ID":384087,"DIS_CODE":0,"TOWNNAME":"南區","LI":"金華里","LIN":"9鄰","STREET":"金華路","SECT":"二段","MAREA":" ","LANE":"７１巷","ALLEY":" ","HOUSE_NO":"３０號","E_COORD97":166905.79999999999,"N_COORD97":2542193.1699999999,"ADDRESS":"金華路二段７１巷３０號","OBJECTID":384077},"geometry":{"x":166905.80000000168,"y":2542193.1700000018}},{"attributes":{"ID":384088,"DIS_CODE":0,"TOWNNAME":"南區","LI":"金華里","LIN":"9鄰","STREET":"金華路","SECT":"二段","MAREA":" ","LANE":"７１巷","ALLEY":" ","HOUSE_NO":"３１號","E_COORD97":166891.88,"N_COORD97":2542175.3999999999,"ADDRESS":"金華路二段７１巷３１號","OBJECTID":384078},"geometry":{"x":166891.88000000175,"y":2542175.4000000022}},{"attributes":{"ID":384089,"DIS_CODE":0,"TOWNNAME":"南區","LI":"金華里","LIN":"9鄰","STREET":"金華路","SECT":"二段","MAREA":" ","LANE":"７１巷","ALLEY":" ","HOUSE_NO":"３２號","E_COORD97":166899,"N_COORD97":2542193.1699999999,"ADDRESS":"金華路二段７１巷３２號","OBJECTID":384079},"geometry":{"x":166899,"y":2542193.1700000018}},{"attributes":{"ID":384090,"DIS_CODE":0,"TOWNNAME":"南區","LI":"金華里","LIN":"9鄰","STREET":"金華路","SECT":"二段","MAREA":" ","LANE":"７１巷","ALLEY":" ","HOUSE_NO":"３３號","E_COORD97":166886.60999999999,"N_COORD97":2542175.9500000002,"ADDRESS":"金華路二段７１巷３３號","OBJECTID":384080},"geometry":{"x":166886.61000000034,"y":2542175.950000003}},{"attributes":{"ID":384091,"DIS_CODE":0,"TOWNNAME":"南區","LI":"金華里","LIN":"9鄰","STREET":"金華路","SECT":"二段","MAREA":" ","LANE":"７１巷","ALLEY":" ","HOUSE_NO":"３４號","E_COORD97":166893.12,"N_COORD97":2542193.48,"ADDRESS":"金華路二段７１巷３４號","OBJECTID":384081},"geometry":{"x":166893.12000000011,"y":2542193.4800000004}},{"attributes":{"ID":384092,"DIS_CODE":0,"TOWNNAME":"南區","LI":"金華里","LIN":"9鄰","STREET":"金華路","SECT":"二段","MAREA":" ","LANE":"７１巷","ALLEY":" ","HOUSE_NO":"３５號","E_COORD97":166881.32999999999,"N_COORD97":2542176.8599999999,"ADDRESS":"金華路二段７１巷３５號","OBJECTID":384082},"geometry":{"x":166881.33000000007,"y":2542176.8600000031}},{"attributes":{"ID":384093,"DIS_CODE":0,"TOWNNAME":"南區","LI":"金華里","LIN":"9鄰","STREET":"金華路","SECT":"二段","MAREA":" ","LANE":"７１巷","ALLEY":" ","HOUSE_NO":"３６號","E_COORD97":166887.23999999999,"N_COORD97":2542193.79,"ADDRESS":"金華路二段７１巷３６號","OBJECTID":384083},"geometry":{"x":166887.24000000022,"y":2542193.7900000028}},{"attributes":{"ID":384094,"DIS_CODE":0,"TOWNNAME":"南區","LI":"金華里","LIN":"9鄰","STREET":"金華路","SECT":"二段","MAREA":" ","LANE":"７１巷","ALLEY":" ","HOUSE_NO":"３７號","E_COORD97":166875.51000000001,"N_COORD97":2542176.4900000002,"ADDRESS":"金華路二段７１巷３７號","OBJECTID":384084},"geometry":{"x":166875.51000000164,"y":2542176.4900000002}},{"attributes":{"ID":384095,"DIS_CODE":0,"TOWNNAME":"南區","LI":"金華里","LIN":"9鄰","STREET":"金華路","SECT":"二段","MAREA":" ","LANE":"７１巷","ALLEY":" ","HOUSE_NO":"３８號","E_COORD97":166883.22,"N_COORD97":2542194.71,"ADDRESS":"金華路二段７１巷３８號","OBJECTID":384085},"geometry":{"x":166883.22000000067,"y":2542194.7100000009}},{"attributes":{"ID":384096,"DIS_CODE":0,"TOWNNAME":"南區","LI":"金華里","LIN":"9鄰","STREET":"金華路","SECT":"二段","MAREA":" ","LANE":"７１巷","ALLEY":" ","HOUSE_NO":"４０號","E_COORD97":166876.76000000001,"N_COORD97":2542195.7200000002,"ADDRESS":"金華路二段７１巷４０號","OBJECTID":384086},"geometry":{"x":166876.75999999978,"y":2542195.7200000007}},{"attributes":{"ID":384097,"DIS_CODE":0,"TOWNNAME":"北區","LI":"華興里","LIN":"9鄰","STREET":"南園街","SECT":" ","MAREA":" ","LANE":"１６２巷","ALLEY":" ","HOUSE_NO":"２９號","E_COORD97":170557.94,"N_COORD97":2545199.1499999999,"ADDRESS":"南園街１６２巷２９號","OBJECTID":384087},"geometry":{"x":170557.94000000041,"y":2545199.1500000004}},{"attributes":{"ID":384098,"DIS_CODE":0,"TOWNNAME":"北區","LI":"華興里","LIN":"9鄰","STREET":"南園街","SECT":" ","MAREA":" ","LANE":"１６２巷","ALLEY":" ","HOUSE_NO":"３號","E_COORD97":170615.60999999999,"N_COORD97":2545193.1699999999,"ADDRESS":"南園街１６２巷３號","OBJECTID":384088},"geometry":{"x":170615.61000000127,"y":2545193.1700000018}},{"attributes":{"ID":384099,"DIS_CODE":0,"TOWNNAME":"北區","LI":"華興里","LIN":"9鄰","STREET":"南園街","SECT":" ","MAREA":" ","LANE":"１６２巷","ALLEY":" ","HOUSE_NO":"５號","E_COORD97":170612.14000000001,"N_COORD97":2545195.46,"ADDRESS":"南園街１６２巷５號","OBJECTID":384089},"geometry":{"x":170612.13999999966,"y":2545195.4600000028}},{"attributes":{"ID":384100,"DIS_CODE":0,"TOWNNAME":"北區","LI":"華興里","LIN":"9鄰","STREET":"南園街","SECT":" ","MAREA":" ","LANE":"１６２巷","ALLEY":" ","HOUSE_NO":"７號","E_COORD97":170607.64000000001,"N_COORD97":2545194.04,"ADDRESS":"南園街１６２巷７號","OBJECTID":384090},"geometry":{"x":170607.6400000006,"y":2545194.040000001}},{"attributes":{"ID":384101,"DIS_CODE":0,"TOWNNAME":"北區","LI":"華興里","LIN":"9鄰","STREET":"南園街","SECT":" ","MAREA":" ","LANE":"１６２巷","ALLEY":" ","HOUSE_NO":"９號","E_COORD97":170604.07999999999,"N_COORD97":2545196.3300000001,"ADDRESS":"南園街１６２巷９號","OBJECTID":384091},"geometry":{"x":170604.08000000007,"y":2545196.3300000019}},{"attributes":{"ID":384102,"DIS_CODE":0,"TOWNNAME":"北區","LI":"華興里","LIN":"9鄰","STREET":"開南街","SECT":" ","MAREA":" ","LANE":"１２１巷","ALLEY":" ","HOUSE_NO":"１０號","E_COORD97":170583.70999999999,"N_COORD97":2545177.8799999999,"ADDRESS":"開南街１２１巷１０號","OBJECTID":384092},"geometry":{"x":170583.71000000089,"y":2545177.8800000008}},{"attributes":{"ID":384103,"DIS_CODE":0,"TOWNNAME":"北區","LI":"華興里","LIN":"9鄰","STREET":"開南街","SECT":" ","MAREA":" ","LANE":"１２１巷","ALLEY":" ","HOUSE_NO":"１２號","E_COORD97":170585.76000000001,"N_COORD97":2545180.7400000002,"ADDRESS":"開南街１２１巷１２號","OBJECTID":384093},"geometry":{"x":170585.75999999978,"y":2545180.7400000002}},{"attributes":{"ID":384104,"DIS_CODE":0,"TOWNNAME":"北區","LI":"華興里","LIN":"9鄰","STREET":"開南街","SECT":" ","MAREA":" ","LANE":"１２１巷","ALLEY":" ","HOUSE_NO":"１號","E_COORD97":170559.75,"N_COORD97":2545178,"ADDRESS":"開南街１２１巷１號","OBJECTID":384094},"geometry":{"x":170559.75000000093,"y":2545178.0000000019}},{"attributes":{"ID":384105,"DIS_CODE":0,"TOWNNAME":"北區","LI":"華興里","LIN":"9鄰","STREET":"開南街","SECT":" ","MAREA":" ","LANE":"１２１巷","ALLEY":" ","HOUSE_NO":"２號","E_COORD97":170575.17999999999,"N_COORD97":2545165.6600000001,"ADDRESS":"開南街１２１巷２號","OBJECTID":384095},"geometry":{"x":170575.18000000063,"y":2545165.6599999983}},{"attributes":{"ID":384106,"DIS_CODE":0,"TOWNNAME":"北區","LI":"華興里","LIN":"9鄰","STREET":"開南街","SECT":" ","MAREA":" ","LANE":"１２１巷","ALLEY":" ","HOUSE_NO":"３號","E_COORD97":170564.25,"N_COORD97":2545180.1299999999,"ADDRESS":"開南街１２１巷３號","OBJECTID":384096},"geometry":{"x":170564.25,"y":2545180.129999999}},{"attributes":{"ID":384107,"DIS_CODE":0,"TOWNNAME":"北區","LI":"華興里","LIN":"9鄰","STREET":"開南街","SECT":" ","MAREA":" ","LANE":"１２１巷","ALLEY":" ","HOUSE_NO":"４號","E_COORD97":170577.07000000001,"N_COORD97":2545169.3599999999,"ADDRESS":"開南街１２１巷４號","OBJECTID":384097},"geometry":{"x":170577.07000000123,"y":2545169.3599999994}},{"attributes":{"ID":384108,"DIS_CODE":0,"TOWNNAME":"北區","LI":"華興里","LIN":"9鄰","STREET":"開南街","SECT":" ","MAREA":" ","LANE":"１２１巷","ALLEY":" ","HOUSE_NO":"６號","E_COORD97":170578.97,"N_COORD97":2545172.1299999999,"ADDRESS":"開南街１２１巷６號","OBJECTID":384098},"geometry":{"x":170578.96999999974,"y":2545172.1300000008}},{"attributes":{"ID":384109,"DIS_CODE":0,"TOWNNAME":"北區","LI":"華興里","LIN":"9鄰","STREET":"開南街","SECT":" ","MAREA":" ","LANE":"１２１巷","ALLEY":" ","HOUSE_NO":"８號","E_COORD97":170581.57000000001,"N_COORD97":2545174.9700000002,"ADDRESS":"開南街１２１巷８號","OBJECTID":384099},"geometry":{"x":170581.57000000123,"y":2545174.9700000025}},{"attributes":{"ID":384110,"DIS_CODE":0,"TOWNNAME":"關廟區","LI":"五甲里","LIN":"9鄰","STREET":"南雄路","SECT":"一段","MAREA":" ","LANE":"５２１巷","ALLEY":" ","HOUSE_NO":"２０號","E_COORD97":181542.34,"N_COORD97":2538321.2799999998,"ADDRESS":"南雄路一段５２１巷２０號","OBJECTID":384100},"geometry":{"x":181542.34000000078,"y":2538321.2799999993}},{"attributes":{"ID":384111,"DIS_CODE":0,"TOWNNAME":"關廟區","LI":"新埔里","LIN":"9鄰","STREET":"新埔二街","SECT":" ","MAREA":" ","LANE":"７２巷","ALLEY":" ","HOUSE_NO":"２００號","E_COORD97":182504.26999999999,"N_COORD97":2541941.25,"ADDRESS":"新埔二街７２巷２００號","OBJECTID":384101},"geometry":{"x":182504.26999999955,"y":2541941.2500000019}},{"attributes":{"ID":384112,"DIS_CODE":0,"TOWNNAME":"關廟區","LI":"關廟里","LIN":"9鄰","STREET":"民生街","SECT":" ","MAREA":" ","LANE":"６３巷","ALLEY":" ","HOUSE_NO":"１９號","E_COORD97":180870.79000000001,"N_COORD97":2539580.29,"ADDRESS":"民生街６３巷１９號","OBJECTID":384102},"geometry":{"x":180870.79000000004,"y":2539580.290000001}},{"attributes":{"ID":384113,"DIS_CODE":0,"TOWNNAME":"關廟區","LI":"關廟里","LIN":"9鄰","STREET":"民生街","SECT":" ","MAREA":" ","LANE":"６３巷","ALLEY":" ","HOUSE_NO":"２９號","E_COORD97":180875.69,"N_COORD97":2539599.29,"ADDRESS":"民生街６３巷２９號","OBJECTID":384103},"geometry":{"x":180875.69000000134,"y":2539599.2899999991}},{"attributes":{"ID":384114,"DIS_CODE":0,"TOWNNAME":"關廟區","LI":"北勢里","LIN":"9鄰","STREET":"北安一街","SECT":" ","MAREA":" ","LANE":"１９２巷","ALLEY":" ","HOUSE_NO":"５號","E_COORD97":181609.44,"N_COORD97":2540475.3199999998,"ADDRESS":"北安一街１９２巷５號","OBJECTID":384104},"geometry":{"x":181609.43999999948,"y":2540475.3200000003}},{"attributes":{"ID":384115,"DIS_CODE":0,"TOWNNAME":"關廟區","LI":"南花里","LIN":"9鄰","STREET":"四維街","SECT":" ","MAREA":" ","LANE":"２３１巷","ALLEY":" ","HOUSE_NO":"７號","E_COORD97":181804.95999999999,"N_COORD97":2540218.25,"ADDRESS":"四維街２３１巷７號","OBJECTID":384105},"geometry":{"x":181804.95999999996,"y":2540218.25}},{"attributes":{"ID":384116,"DIS_CODE":0,"TOWNNAME":"關廟區","LI":"北勢里","LIN":"9鄰","STREET":"北安一街","SECT":" ","MAREA":" ","LANE":"１９２巷","ALLEY":" ","HOUSE_NO":"１１號","E_COORD97":181617.98999999999,"N_COORD97":2540489.3199999998,"ADDRESS":"北安一街１９２巷１１號","OBJECTID":384106},"geometry":{"x":181617.99000000115,"y":2540489.3200000003}},{"attributes":{"ID":384117,"DIS_CODE":0,"TOWNNAME":"關廟區","LI":"東勢里","LIN":"9鄰","STREET":"旺萊路","SECT":" ","MAREA":" ","LANE":"３６２巷","ALLEY":" ","HOUSE_NO":"１１號","E_COORD97":182148.69,"N_COORD97":2539524.25,"ADDRESS":"旺萊路３６２巷１１號","OBJECTID":384107},"geometry":{"x":182148.69000000227,"y":2539524.2500000019}},{"attributes":{"ID":384118,"DIS_CODE":0,"TOWNNAME":"關廟區","LI":"五甲里","LIN":"9鄰","STREET":"南雄路","SECT":"一段","MAREA":" ","LANE":"７２０巷","ALLEY":" ","HOUSE_NO":"３６號","E_COORD97":181716.64000000001,"N_COORD97":2538794.2799999998,"ADDRESS":"南雄路一段７２０巷３６號","OBJECTID":384108},"geometry":{"x":181716.6400000006,"y":2538794.2800000012}},{"attributes":{"ID":384119,"DIS_CODE":0,"TOWNNAME":"關廟區","LI":"五甲里","LIN":"9鄰","STREET":"南雄路","SECT":"一段","MAREA":" ","LANE":"５５０巷","ALLEY":" ","HOUSE_NO":"２６號","E_COORD97":181686.73999999999,"N_COORD97":2538371.2799999998,"ADDRESS":"南雄路一段５５０巷２６號","OBJECTID":384109},"geometry":{"x":181686.74000000022,"y":2538371.2800000012}},{"attributes":{"ID":384120,"DIS_CODE":0,"TOWNNAME":"關廟區","LI":"五甲里","LIN":"9鄰","STREET":"南雄路","SECT":"一段","MAREA":" ","LANE":"５１１巷","ALLEY":" ","HOUSE_NO":"６號","E_COORD97":181596.39000000001,"N_COORD97":2538300.2799999998,"ADDRESS":"南雄路一段５１１巷６號","OBJECTID":384110},"geometry":{"x":181596.38999999966,"y":2538300.2800000012}},{"attributes":{"ID":384121,"DIS_CODE":0,"TOWNNAME":"關廟區","LI":"山西里","LIN":"9鄰","STREET":"文衡路","SECT":" ","MAREA":" ","LANE":"２８６巷","ALLEY":" ","HOUSE_NO":"２號","E_COORD97":180924.14000000001,"N_COORD97":2540717.3300000001,"ADDRESS":"文衡路２８６巷２號","OBJECTID":384111},"geometry":{"x":180924.13999999873,"y":2540717.3300000019}},{"attributes":{"ID":384122,"DIS_CODE":0,"TOWNNAME":"關廟區","LI":"關廟里","LIN":"9鄰","STREET":"大富街","SECT":" ","MAREA":" ","LANE":"３０１巷","ALLEY":" ","HOUSE_NO":"５２號","E_COORD97":180933.12,"N_COORD97":2539719.25,"ADDRESS":"大富街３０１巷５２號","OBJECTID":384112},"geometry":{"x":180933.12000000011,"y":2539719.25}},{"attributes":{"ID":384123,"DIS_CODE":0,"TOWNNAME":"關廟區","LI":"深坑里","LIN":"9鄰","STREET":"深坑三街","SECT":" ","MAREA":" ","LANE":"２５巷","ALLEY":" ","HOUSE_NO":"３６號","E_COORD97":181905.47,"N_COORD97":2537830.2999999998,"ADDRESS":"深坑三街２５巷３６號","OBJECTID":384113},"geometry":{"x":181905.47000000067,"y":2537830.3000000026}},{"attributes":{"ID":384124,"DIS_CODE":0,"TOWNNAME":"關廟區","LI":"山西里","LIN":"9鄰","STREET":"文衡路","SECT":" ","MAREA":" ","LANE":"２０９巷","ALLEY":" ","HOUSE_NO":"１６號","E_COORD97":180852.09,"N_COORD97":2540735.3300000001,"ADDRESS":"文衡路２０９巷１６號","OBJECTID":384114},"geometry":{"x":180852.09000000078,"y":2540735.3300000001}},{"attributes":{"ID":384125,"DIS_CODE":0,"TOWNNAME":"關廟區","LI":"北勢里","LIN":"9鄰","STREET":"北安一街","SECT":" ","MAREA":" ","LANE":"１９２巷","ALLEY":" ","HOUSE_NO":"１７號","E_COORD97":181619.59,"N_COORD97":2540505.3199999998,"ADDRESS":"北安一街１９２巷１７號","OBJECTID":384115},"geometry":{"x":181619.58999999985,"y":2540505.3200000003}},{"attributes":{"ID":384126,"DIS_CODE":0,"TOWNNAME":"關廟區","LI":"東勢里","LIN":"9鄰","STREET":"旺萊路","SECT":" ","MAREA":" ","LANE":"３５６巷","ALLEY":" ","HOUSE_NO":"３號","E_COORD97":182096.04000000001,"N_COORD97":2539502.25,"ADDRESS":"旺萊路３５６巷３號","OBJECTID":384116},"geometry":{"x":182096.04000000004,"y":2539502.25}},{"attributes":{"ID":384127,"DIS_CODE":0,"TOWNNAME":"關廟區","LI":"田中里","LIN":"9鄰","STREET":"南雄南路","SECT":" ","MAREA":" ","LANE":"６５９巷","ALLEY":" ","HOUSE_NO":"２０號","E_COORD97":183493.54000000001,"N_COORD97":2533488.25,"ADDRESS":"南雄南路６５９巷２０號","OBJECTID":384117},"geometry":{"x":183493.5400000019,"y":2533488.25}},{"attributes":{"ID":384128,"DIS_CODE":0,"TOWNNAME":"關廟區","LI":"山西里","LIN":"9鄰","STREET":"文衡路","SECT":" ","MAREA":" ","LANE":"２０９巷","ALLEY":" ","HOUSE_NO":"６號","E_COORD97":180870.44,"N_COORD97":2540735.3300000001,"ADDRESS":"文衡路２０９巷６號","OBJECTID":384118},"geometry":{"x":180870.44000000227,"y":2540735.3300000001}},{"attributes":{"ID":384129,"DIS_CODE":0,"TOWNNAME":"北區","LI":"長榮里","LIN":"9鄰","STREET":"長榮路","SECT":"五段","MAREA":" ","LANE":"４１巷","ALLEY":" ","HOUSE_NO":"２號","E_COORD97":170075.89000000001,"N_COORD97":2545512.8900000001,"ADDRESS":"長榮路五段４１巷２號","OBJECTID":384119},"geometry":{"x":170075.88999999966,"y":2545512.8900000006}},{"attributes":{"ID":384130,"DIS_CODE":0,"TOWNNAME":"北區","LI":"長榮里","LIN":"9鄰","STREET":"長榮路","SECT":"五段","MAREA":" ","LANE":"４１巷","ALLEY":" ","HOUSE_NO":"８號","E_COORD97":170055.57000000001,"N_COORD97":2545518.1299999999,"ADDRESS":"長榮路五段４１巷８號","OBJECTID":384120},"geometry":{"x":170055.5700000003,"y":2545518.1300000008}},{"attributes":{"ID":384131,"DIS_CODE":0,"TOWNNAME":"北區","LI":"成德里","LIN":"9鄰","STREET":"育德路","SECT":" ","MAREA":" ","LANE":"１９９巷","ALLEY":" ","HOUSE_NO":"１０號","E_COORD97":168582.29000000001,"N_COORD97":2545689.9300000002,"ADDRESS":"育德路１９９巷１０號","OBJECTID":384121},"geometry":{"x":168582.29000000004,"y":2545689.9300000016}},{"attributes":{"ID":384132,"DIS_CODE":0,"TOWNNAME":"北區","LI":"成德里","LIN":"9鄰","STREET":"育德路","SECT":" ","MAREA":" ","LANE":"１９９巷","ALLEY":" ","HOUSE_NO":"１２號","E_COORD97":168574.04000000001,"N_COORD97":2545691.3599999999,"ADDRESS":"育德路１９９巷１２號","OBJECTID":384122},"geometry":{"x":168574.03999999911,"y":2545691.3599999994}},{"attributes":{"ID":384133,"DIS_CODE":0,"TOWNNAME":"北區","LI":"成德里","LIN":"9鄰","STREET":"育德路","SECT":" ","MAREA":" ","LANE":"１９９巷","ALLEY":" ","HOUSE_NO":"１６號","E_COORD97":168566.10000000001,"N_COORD97":2545692,"ADDRESS":"育德路１９９巷１６號","OBJECTID":384123},"geometry":{"x":168566.09999999963,"y":2545692}},{"attributes":{"ID":384134,"DIS_CODE":0,"TOWNNAME":"北區","LI":"成德里","LIN":"9鄰","STREET":"育德路","SECT":" ","MAREA":" ","LANE":"１９９巷","ALLEY":" ","HOUSE_NO":"１８號","E_COORD97":168556.57000000001,"N_COORD97":2545693.4199999999,"ADDRESS":"育德路１９９巷１８號","OBJECTID":384124},"geometry":{"x":168556.5700000003,"y":2545693.4200000018}},{"attributes":{"ID":384135,"DIS_CODE":0,"TOWNNAME":"北區","LI":"成德里","LIN":"9鄰","STREET":"育德路","SECT":" ","MAREA":" ","LANE":"１９９巷","ALLEY":" ","HOUSE_NO":"２０號","E_COORD97":168547.20999999999,"N_COORD97":2545695.3300000001,"ADDRESS":"育德路１９９巷２０號","OBJECTID":384125},"geometry":{"x":168547.20999999996,"y":2545695.3300000001}},{"attributes":{"ID":384136,"DIS_CODE":0,"TOWNNAME":"北區","LI":"成德里","LIN":"9鄰","STREET":"育德路","SECT":" ","MAREA":" ","LANE":"１９９巷","ALLEY":" ","HOUSE_NO":"２２號","E_COORD97":168537.04999999999,"N_COORD97":2545697.0800000001,"ADDRESS":"育德路１９９巷２２號","OBJECTID":384126},"geometry":{"x":168537.05000000075,"y":2545697.0800000001}},{"attributes":{"ID":384137,"DIS_CODE":0,"TOWNNAME":"北區","LI":"成德里","LIN":"9鄰","STREET":"育德路","SECT":" ","MAREA":" ","LANE":"１９９巷","ALLEY":" ","HOUSE_NO":"２６號","E_COORD97":168527.20999999999,"N_COORD97":2545698.5,"ADDRESS":"育德路１９９巷２６號","OBJECTID":384127},"geometry":{"x":168527.21000000183,"y":2545698.5}},{"attributes":{"ID":384138,"DIS_CODE":0,"TOWNNAME":"北區","LI":"成德里","LIN":"9鄰","STREET":"育德路","SECT":" ","MAREA":" ","LANE":"１９９巷","ALLEY":" ","HOUSE_NO":"２８號","E_COORD97":168517.35999999999,"N_COORD97":2545700.5699999998,"ADDRESS":"育德路１９９巷２８號","OBJECTID":384128},"geometry":{"x":168517.36000000034,"y":2545700.5700000022}},{"attributes":{"ID":384139,"DIS_CODE":0,"TOWNNAME":"北區","LI":"成德里","LIN":"9鄰","STREET":"育德路","SECT":" ","MAREA":" ","LANE":"１９９巷","ALLEY":" ","HOUSE_NO":"６號","E_COORD97":168598.48000000001,"N_COORD97":2545687.0699999998,"ADDRESS":"育德路１９９巷６號","OBJECTID":384129},"geometry":{"x":168598.48000000045,"y":2545687.0700000003}},{"attributes":{"ID":384140,"DIS_CODE":0,"TOWNNAME":"北區","LI":"成德里","LIN":"9鄰","STREET":"育德路","SECT":" ","MAREA":" ","LANE":"１９９巷","ALLEY":" ","HOUSE_NO":"８號","E_COORD97":168589.44,"N_COORD97":2545689.1400000001,"ADDRESS":"育德路１９９巷８號","OBJECTID":384130},"geometry":{"x":168589.44000000134,"y":2545689.1400000025}},{"attributes":{"ID":384141,"DIS_CODE":0,"TOWNNAME":"南區","LI":"松安里","LIN":"9鄰","STREET":"興南街","SECT":" ","MAREA":" ","LANE":"８６巷","ALLEY":" ","HOUSE_NO":"１１號","E_COORD97":166158.87,"N_COORD97":2536030.7599999998,"ADDRESS":"興南街８６巷１１號","OBJECTID":384131},"geometry":{"x":166158.87000000104,"y":2536030.7599999998}},{"attributes":{"ID":384142,"DIS_CODE":0,"TOWNNAME":"南區","LI":"松安里","LIN":"9鄰","STREET":"興南街","SECT":" ","MAREA":" ","LANE":"８６巷","ALLEY":" ","HOUSE_NO":"１７號","E_COORD97":166124.35999999999,"N_COORD97":2536032.5600000001,"ADDRESS":"興南街８６巷１７號","OBJECTID":384132},"geometry":{"x":166124.3599999994,"y":2536032.5600000005}},{"attributes":{"ID":384143,"DIS_CODE":0,"TOWNNAME":"南區","LI":"松安里","LIN":"9鄰","STREET":"興南街","SECT":" ","MAREA":" ","LANE":"８６巷","ALLEY":" ","HOUSE_NO":"２號","E_COORD97":166209.12,"N_COORD97":2536033.8199999998,"ADDRESS":"興南街８６巷２號","OBJECTID":384133},"geometry":{"x":166209.12000000104,"y":2536033.8200000003}},{"attributes":{"ID":384144,"DIS_CODE":0,"TOWNNAME":"南區","LI":"松安里","LIN":"9鄰","STREET":"興南街","SECT":" ","MAREA":" ","LANE":"８６巷","ALLEY":" ","HOUSE_NO":"４號","E_COORD97":166170.29999999999,"N_COORD97":2536028.3599999999,"ADDRESS":"興南街８６巷４號","OBJECTID":384134},"geometry":{"x":166170.30000000075,"y":2536028.3599999994}},{"attributes":{"ID":384145,"DIS_CODE":0,"TOWNNAME":"南區","LI":"松安里","LIN":"9鄰","STREET":"興南街","SECT":" ","MAREA":" ","LANE":"８６巷","ALLEY":" ","HOUSE_NO":"６號","E_COORD97":166194.01999999999,"N_COORD97":2536039.0299999998,"ADDRESS":"興南街８６巷６號","OBJECTID":384135},"geometry":{"x":166194.02000000048,"y":2536039.0300000031}},{"attributes":{"ID":384146,"DIS_CODE":0,"TOWNNAME":"南區","LI":"松安里","LIN":"9鄰","STREET":"興南街","SECT":" ","MAREA":" ","LANE":"８６巷","ALLEY":" ","HOUSE_NO":"８號","E_COORD97":166185.79000000001,"N_COORD97":2536038.6200000001,"ADDRESS":"興南街８６巷８號","OBJECTID":384136},"geometry":{"x":166185.79000000097,"y":2536038.620000001}},{"attributes":{"ID":384147,"DIS_CODE":0,"TOWNNAME":"南區","LI":"松安里","LIN":"9鄰","STREET":"興南街","SECT":" ","MAREA":" ","LANE":"９２巷","ALLEY":" ","HOUSE_NO":"１２號","E_COORD97":166154.42000000001,"N_COORD97":2536018.3799999999,"ADDRESS":"興南街９２巷１２號","OBJECTID":384137},"geometry":{"x":166154.42000000086,"y":2536018.379999999}},{"attributes":{"ID":384148,"DIS_CODE":0,"TOWNNAME":"南區","LI":"松安里","LIN":"9鄰","STREET":"興南街","SECT":" ","MAREA":" ","LANE":"９２巷","ALLEY":" ","HOUSE_NO":"１４號","E_COORD97":166147.20999999999,"N_COORD97":2536031,"ADDRESS":"興南街９２巷１４號","OBJECTID":384138},"geometry":{"x":166147.21000000183,"y":2536031.0000000019}},{"attributes":{"ID":384149,"DIS_CODE":0,"TOWNNAME":"南區","LI":"松安里","LIN":"9鄰","STREET":"興南街","SECT":" ","MAREA":" ","LANE":"９２巷","ALLEY":" ","HOUSE_NO":"２號","E_COORD97":166182.07999999999,"N_COORD97":2536027.1499999999,"ADDRESS":"興南街９２巷２號","OBJECTID":384139},"geometry":{"x":166182.08000000194,"y":2536027.1500000022}},{"attributes":{"ID":384150,"DIS_CODE":0,"TOWNNAME":"南區","LI":"松安里","LIN":"9鄰","STREET":"灣裡路","SECT":" ","MAREA":" ","LANE":"４４８巷","ALLEY":" ","HOUSE_NO":"４號","E_COORD97":166185.79000000001,"N_COORD97":2536046.5699999998,"ADDRESS":"灣裡路４４８巷４號","OBJECTID":384140},"geometry":{"x":166185.79000000097,"y":2536046.570000004}},{"attributes":{"ID":384151,"DIS_CODE":0,"TOWNNAME":"南區","LI":"松安里","LIN":"9鄰","STREET":"灣裡路","SECT":" ","MAREA":" ","LANE":"４４８巷","ALLEY":" ","HOUSE_NO":"５號","E_COORD97":166172.06,"N_COORD97":2536048.6299999999,"ADDRESS":"灣裡路４４８巷５號","OBJECTID":384141},"geometry":{"x":166172.06000000052,"y":2536048.6300000008}},{"attributes":{"ID":384152,"DIS_CODE":0,"TOWNNAME":"南區","LI":"松安里","LIN":"9鄰","STREET":"灣裡路","SECT":" ","MAREA":" ","LANE":"４４８巷","ALLEY":" ","HOUSE_NO":"６號","E_COORD97":166149.72,"N_COORD97":2536045.0499999998,"ADDRESS":"灣裡路４４８巷６號","OBJECTID":384142},"geometry":{"x":166149.71999999974,"y":2536045.0500000026}},{"attributes":{"ID":384153,"DIS_CODE":0,"TOWNNAME":"南區","LI":"松安里","LIN":"9鄰","STREET":"興南街","SECT":" ","MAREA":" ","LANE":"１２４巷","ALLEY":" ","HOUSE_NO":"２８號","E_COORD97":166109.31,"N_COORD97":2535992.52,"ADDRESS":"興南街１２４巷２８號","OBJECTID":384143},"geometry":{"x":166109.31000000052,"y":2535992.5200000014}},{"attributes":{"ID":384154,"DIS_CODE":0,"TOWNNAME":"南區","LI":"松安里","LIN":"9鄰","STREET":"興南街","SECT":" ","MAREA":" ","LANE":"１２４巷","ALLEY":" ","HOUSE_NO":"３２號","E_COORD97":166111.37,"N_COORD97":2536002.6099999999,"ADDRESS":"興南街１２４巷３２號","OBJECTID":384144},"geometry":{"x":166111.37000000104,"y":2536002.6100000013}},{"attributes":{"ID":384155,"DIS_CODE":0,"TOWNNAME":"南區","LI":"松安里","LIN":"9鄰","STREET":"興南街","SECT":" ","MAREA":" ","LANE":"８６巷","ALLEY":" ","HOUSE_NO":"１９號","E_COORD97":166111.78,"N_COORD97":2536032.0800000001,"ADDRESS":"興南街８６巷１９號","OBJECTID":384145},"geometry":{"x":166111.78000000119,"y":2536032.0800000001}},{"attributes":{"ID":384156,"DIS_CODE":0,"TOWNNAME":"南區","LI":"松安里","LIN":"9鄰","STREET":"興南街","SECT":" ","MAREA":" ","LANE":"８６巷","ALLEY":" ","HOUSE_NO":"２１號","E_COORD97":166113.42999999999,"N_COORD97":2536023.8399999999,"ADDRESS":"興南街８６巷２１號","OBJECTID":384146},"geometry":{"x":166113.43000000063,"y":2536023.8400000036}},{"attributes":{"ID":384157,"DIS_CODE":0,"TOWNNAME":"南區","LI":"松安里","LIN":"9鄰","STREET":"興南街","SECT":" ","MAREA":" ","LANE":"８６巷","ALLEY":" ","HOUSE_NO":"２３號","E_COORD97":166104.10999999999,"N_COORD97":2536021.6099999999,"ADDRESS":"興南街８６巷２３號","OBJECTID":384147},"geometry":{"x":166104.1100000022,"y":2536021.6100000031}},{"attributes":{"ID":384158,"DIS_CODE":0,"TOWNNAME":"南區","LI":"松安里","LIN":"9鄰","STREET":"興南街","SECT":" ","MAREA":" ","LANE":"８６巷","ALLEY":" ","HOUSE_NO":"２５號","E_COORD97":166085.39999999999,"N_COORD97":2536027.2799999998,"ADDRESS":"興南街８６巷２５號","OBJECTID":384148},"geometry":{"x":166085.4000000013,"y":2536027.2800000031}},{"attributes":{"ID":384159,"DIS_CODE":0,"TOWNNAME":"南區","LI":"松安里","LIN":"9鄰","STREET":"興南街","SECT":" ","MAREA":" ","LANE":"８６巷","ALLEY":" ","HOUSE_NO":"２７號","E_COORD97":166074.04999999999,"N_COORD97":2536035.5,"ADDRESS":"興南街８６巷２７號","OBJECTID":384149},"geometry":{"x":166074.05000000075,"y":2536035.5}},{"attributes":{"ID":384160,"DIS_CODE":0,"TOWNNAME":"白河區","LI":"外角里","LIN":"13鄰","STREET":"三民路","SECT":" ","MAREA":" ","LANE":" ","ALLEY":" ","HOUSE_NO":"２２８號","E_COORD97":190830.45000000001,"N_COORD97":2583306.3199999998,"ADDRESS":"三民路２２８號","OBJECTID":384150},"geometry":{"x":190830.45000000019,"y":2583306.3200000003}},{"attributes":{"ID":384161,"DIS_CODE":0,"TOWNNAME":"南區","LI":"松安里","LIN":"9鄰","STREET":"興南街","SECT":" ","MAREA":" ","LANE":"８６巷","ALLEY":" ","HOUSE_NO":"２９號","E_COORD97":166056.32999999999,"N_COORD97":2536036.9100000001,"ADDRESS":"興南街８６巷２９號","OBJECTID":384151},"geometry":{"x":166056.33000000007,"y":2536036.9100000001}},{"attributes":{"ID":384162,"DIS_CODE":0,"TOWNNAME":"南區","LI":"松安里","LIN":"9鄰","STREET":"興南街","SECT":" ","MAREA":" ","LANE":"８６巷","ALLEY":" ","HOUSE_NO":"３０號","E_COORD97":166094.19,"N_COORD97":2536041.1699999999,"ADDRESS":"興南街８６巷３０號","OBJECTID":384152},"geometry":{"x":166094.19000000134,"y":2536041.1699999999}},{"attributes":{"ID":384163,"DIS_CODE":0,"TOWNNAME":"南區","LI":"松安里","LIN":"9鄰","STREET":"興南街","SECT":" ","MAREA":" ","LANE":"８６巷","ALLEY":" ","HOUSE_NO":"３１號","E_COORD97":166040.01999999999,"N_COORD97":2536037.3399999999,"ADDRESS":"興南街８６巷３１號","OBJECTID":384153},"geometry":{"x":166040.02000000048,"y":2536037.3400000036}},{"attributes":{"ID":384164,"DIS_CODE":0,"TOWNNAME":"南區","LI":"松安里","LIN":"9鄰","STREET":"興南街","SECT":" ","MAREA":" ","LANE":"８６巷","ALLEY":" ","HOUSE_NO":"３２號","E_COORD97":166070.07999999999,"N_COORD97":2536042.5800000001,"ADDRESS":"興南街８６巷３２號","OBJECTID":384154},"geometry":{"x":166070.08000000194,"y":2536042.5799999982}},{"attributes":{"ID":384165,"DIS_CODE":0,"TOWNNAME":"南區","LI":"松安里","LIN":"9鄰","STREET":"興南街","SECT":" ","MAREA":" ","LANE":"８６巷","ALLEY":" ","HOUSE_NO":"４０號","E_COORD97":166046.39999999999,"N_COORD97":2536044,"ADDRESS":"興南街８６巷４０號","OBJECTID":384155},"geometry":{"x":166046.4000000013,"y":2536044.0000000019}},{"attributes":{"ID":384166,"DIS_CODE":0,"TOWNNAME":"南區","LI":"松安里","LIN":"9鄰","STREET":"興南街","SECT":" ","MAREA":" ","LANE":"８６巷","ALLEY":" ","HOUSE_NO":"４２號","E_COORD97":166036.76000000001,"N_COORD97":2536044.2799999998,"ADDRESS":"興南街８６巷４２號","OBJECTID":384156},"geometry":{"x":166036.76000000071,"y":2536044.2800000031}},{"attributes":{"ID":384167,"DIS_CODE":0,"TOWNNAME":"南區","LI":"松安里","LIN":"9鄰","STREET":"興南街","SECT":" ","MAREA":" ","LANE":"９２巷","ALLEY":" ","HOUSE_NO":"１１號","E_COORD97":166153.70000000001,"N_COORD97":2536013.9399999999,"ADDRESS":"興南街９２巷１１號","OBJECTID":384157},"geometry":{"x":166153.70000000019,"y":2536013.9400000013}},{"attributes":{"ID":384168,"DIS_CODE":0,"TOWNNAME":"南區","LI":"松安里","LIN":"9鄰","STREET":"興南街","SECT":" ","MAREA":" ","LANE":"９２巷","ALLEY":" ","HOUSE_NO":"１５號","E_COORD97":166137.82999999999,"N_COORD97":2536012.98,"ADDRESS":"興南街９２巷１５號","OBJECTID":384158},"geometry":{"x":166137.82999999914,"y":2536012.9800000004}},{"attributes":{"ID":384169,"DIS_CODE":0,"TOWNNAME":"南區","LI":"松安里","LIN":"9鄰","STREET":"興南街","SECT":" ","MAREA":" ","LANE":"９２巷","ALLEY":" ","HOUSE_NO":"１７號","E_COORD97":166131.45999999999,"N_COORD97":2536013.9399999999,"ADDRESS":"興南街９２巷１７號","OBJECTID":384159},"geometry":{"x":166131.45999999996,"y":2536013.9400000013}},{"attributes":{"ID":384170,"DIS_CODE":0,"TOWNNAME":"南區","LI":"松安里","LIN":"9鄰","STREET":"興南街","SECT":" ","MAREA":" ","LANE":"９２巷","ALLEY":" ","HOUSE_NO":"１９號","E_COORD97":166124.23999999999,"N_COORD97":2536010.9300000002,"ADDRESS":"興南街９２巷１９號","OBJECTID":384160},"geometry":{"x":166124.24000000115,"y":2536010.9300000016}},{"attributes":{"ID":384171,"DIS_CODE":0,"TOWNNAME":"南區","LI":"松安里","LIN":"9鄰","STREET":"興南街","SECT":" ","MAREA":" ","LANE":"９２巷","ALLEY":" ","HOUSE_NO":"２１號","E_COORD97":166131.45999999999,"N_COORD97":2536005.5299999998,"ADDRESS":"興南街９２巷２１號","OBJECTID":384161},"geometry":{"x":166131.45999999996,"y":2536005.5300000012}},{"attributes":{"ID":384172,"DIS_CODE":0,"TOWNNAME":"南區","LI":"松安里","LIN":"9鄰","STREET":"興南街","SECT":" ","MAREA":" ","LANE":"９２巷","ALLEY":" ","HOUSE_NO":"２３號","E_COORD97":166137.47,"N_COORD97":2536005.1699999999,"ADDRESS":"興南街９２巷２３號","OBJECTID":384162},"geometry":{"x":166137.47000000067,"y":2536005.1700000018}},{"attributes":{"ID":384173,"DIS_CODE":0,"TOWNNAME":"南區","LI":"松安里","LIN":"9鄰","STREET":"興南街","SECT":" ","MAREA":" ","LANE":"９２巷","ALLEY":" ","HOUSE_NO":"２５號","E_COORD97":166112.39999999999,"N_COORD97":2536017.25,"ADDRESS":"興南街９２巷２５號","OBJECTID":384163},"geometry":{"x":166112.40000000224,"y":2536017.25}},{"attributes":{"ID":384174,"DIS_CODE":0,"TOWNNAME":"南區","LI":"松安里","LIN":"9鄰","STREET":"興南街","SECT":" ","MAREA":" ","LANE":"９２巷","ALLEY":" ","HOUSE_NO":"２９號","E_COORD97":166095.45999999999,"N_COORD97":2536012.3700000001,"ADDRESS":"興南街９２巷２９號","OBJECTID":384164},"geometry":{"x":166095.45999999996,"y":2536012.3700000029}},{"attributes":{"ID":384175,"DIS_CODE":0,"TOWNNAME":"南區","LI":"松安里","LIN":"9鄰","STREET":"興南街","SECT":" ","MAREA":" ","LANE":"９２巷","ALLEY":" ","HOUSE_NO":"３１號","E_COORD97":166087.17000000001,"N_COORD97":2536015.9700000002,"ADDRESS":"興南街９２巷３１號","OBJECTID":384165},"geometry":{"x":166087.16999999993,"y":2536015.9700000007}},{"attributes":{"ID":384176,"DIS_CODE":0,"TOWNNAME":"南區","LI":"松安里","LIN":"9鄰","STREET":"興南街","SECT":" ","MAREA":" ","LANE":"９２巷","ALLEY":" ","HOUSE_NO":"３５號","E_COORD97":166058.03,"N_COORD97":2536024.8700000001,"ADDRESS":"興南街９２巷３５號","OBJECTID":384166},"geometry":{"x":166058.03000000026,"y":2536024.8700000048}},{"attributes":{"ID":384177,"DIS_CODE":0,"TOWNNAME":"南區","LI":"松安里","LIN":"9鄰","STREET":"灣裡路","SECT":" ","MAREA":" ","LANE":"２８２巷","ALLEY":" ","HOUSE_NO":"１０３號","E_COORD97":166038.60000000001,"N_COORD97":2536027,"ADDRESS":"灣裡路２８２巷１０３號","OBJECTID":384167},"geometry":{"x":166038.59999999963,"y":2536027.0000000019}},{"attributes":{"ID":384178,"DIS_CODE":0,"TOWNNAME":"新營區","LI":"新東里","LIN":"9鄰","STREET":"東仁街","SECT":" ","MAREA":" ","LANE":"４３巷","ALLEY":" ","HOUSE_NO":"２２號","E_COORD97":181228.28,"N_COORD97":2579657.7999999998,"ADDRESS":"東仁街４３巷２２號","OBJECTID":384168},"geometry":{"x":181228.28000000026,"y":2579657.8000000007}},{"attributes":{"ID":384179,"DIS_CODE":0,"TOWNNAME":"新營區","LI":"新南里","LIN":"9鄰","STREET":"新北五街","SECT":" ","MAREA":" ","LANE":"１４３巷","ALLEY":" ","HOUSE_NO":"１０號","E_COORD97":178538.89000000001,"N_COORD97":2579144.5,"ADDRESS":"新北五街１４３巷１０號","OBJECTID":384169},"geometry":{"x":178538.88999999966,"y":2579144.5}},{"attributes":{"ID":384180,"DIS_CODE":0,"TOWNNAME":"新營區","LI":"南興里","LIN":"9鄰","STREET":"和平路","SECT":" ","MAREA":" ","LANE":"１０２巷","ALLEY":" ","HOUSE_NO":"６之２號","E_COORD97":179387.92999999999,"N_COORD97":2577613.2999999998,"ADDRESS":"和平路１０２巷６之２號","OBJECTID":384170},"geometry":{"x":179387.9299999997,"y":2577613.3000000007}},{"attributes":{"ID":384181,"DIS_CODE":0,"TOWNNAME":"新營區","LI":"新東里","LIN":"9鄰","STREET":"東仁街","SECT":" ","MAREA":" ","LANE":"４３巷","ALLEY":" ","HOUSE_NO":"４０號","E_COORD97":181199.67999999999,"N_COORD97":2579662.3700000001,"ADDRESS":"東仁街４３巷４０號","OBJECTID":384171},"geometry":{"x":181199.6799999997,"y":2579662.3700000048}},{"attributes":{"ID":384182,"DIS_CODE":0,"TOWNNAME":"新營區","LI":"興業里","LIN":"9鄰","STREET":"中興路","SECT":" ","MAREA":" ","LANE":"１３巷","ALLEY":" ","HOUSE_NO":"３之１號","E_COORD97":180156.92999999999,"N_COORD97":2577981.7599999998,"ADDRESS":"中興路１３巷３之１號","OBJECTID":384172},"geometry":{"x":180156.9299999997,"y":2577981.7600000016}},{"attributes":{"ID":384183,"DIS_CODE":0,"TOWNNAME":"新營區","LI":"興安里","LIN":"9鄰","STREET":"新進路","SECT":" ","MAREA":" ","LANE":"２８１巷","ALLEY":" ","HOUSE_NO":"１２號","E_COORD97":179998.14999999999,"N_COORD97":2577783.1099999999,"ADDRESS":"新進路２８１巷１２號","OBJECTID":384173},"geometry":{"x":179998.1500000013,"y":2577783.1099999994}},{"attributes":{"ID":384184,"DIS_CODE":0,"TOWNNAME":"新營區","LI":"南紙里","LIN":"9鄰","STREET":"南紙街","SECT":" ","MAREA":" ","LANE":"８５巷","ALLEY":" ","HOUSE_NO":"５之６號","E_COORD97":177865.72,"N_COORD97":2577591.8399999999,"ADDRESS":"南紙街８５巷５之６號","OBJECTID":384174},"geometry":{"x":177865.7200000016,"y":2577591.8399999999}},{"attributes":{"ID":384185,"DIS_CODE":0,"TOWNNAME":"新營區","LI":"護鎮里","LIN":"9鄰","STREET":"中正路","SECT":" ","MAREA":" ","LANE":"４３９巷","ALLEY":" ","HOUSE_NO":"１２１號","E_COORD97":179010.51000000001,"N_COORD97":2580183.25,"ADDRESS":"中正路４３９巷１２１號","OBJECTID":384175},"geometry":{"x":179010.50999999978,"y":2580183.25}},{"attributes":{"ID":384186,"DIS_CODE":0,"TOWNNAME":"新營區","LI":"大宏里","LIN":"9鄰","STREET":"民治路","SECT":" ","MAREA":" ","LANE":"２９巷","ALLEY":" ","HOUSE_NO":"４１之３號","E_COORD97":180209.82999999999,"N_COORD97":2578741.23,"ADDRESS":"民治路２９巷４１之３號","OBJECTID":384176},"geometry":{"x":180209.83000000194,"y":2578741.2300000023}},{"attributes":{"ID":384187,"DIS_CODE":0,"TOWNNAME":"新營區","LI":"新東里","LIN":"9鄰","STREET":"東仁街","SECT":" ","MAREA":" ","LANE":"４３巷","ALLEY":" ","HOUSE_NO":"４２號","E_COORD97":181194.56,"N_COORD97":2579662.3900000001,"ADDRESS":"東仁街４３巷４２號","OBJECTID":384177},"geometry":{"x":181194.56000000052,"y":2579662.3900000025}},{"attributes":{"ID":384188,"DIS_CODE":0,"TOWNNAME":"新營區","LI":"民榮里","LIN":"9鄰","STREET":"和平路","SECT":" ","MAREA":" ","LANE":"３２巷","ALLEY":" ","HOUSE_NO":"３之３號","E_COORD97":179368.45999999999,"N_COORD97":2577803.8799999999,"ADDRESS":"和平路３２巷３之３號","OBJECTID":384178},"geometry":{"x":179368.46000000089,"y":2577803.8800000008}},{"attributes":{"ID":384189,"DIS_CODE":0,"TOWNNAME":"新營區","LI":"大宏里","LIN":"9鄰","STREET":"民治路","SECT":" ","MAREA":" ","LANE":"２９巷","ALLEY":" ","HOUSE_NO":"３３號","E_COORD97":180191.10999999999,"N_COORD97":2578768.9399999999,"ADDRESS":"民治路２９巷３３號","OBJECTID":384179},"geometry":{"x":180191.1100000022,"y":2578768.9400000032}},{"attributes":{"ID":384190,"DIS_CODE":0,"TOWNNAME":"新營區","LI":"民榮里","LIN":"9鄰","STREET":"和平路","SECT":" ","MAREA":" ","LANE":"３２巷","ALLEY":" ","HOUSE_NO":"５號","E_COORD97":179362.62,"N_COORD97":2577761.7599999998,"ADDRESS":"和平路３２巷５號","OBJECTID":384180},"geometry":{"x":179362.62000000104,"y":2577761.7599999998}},{"attributes":{"ID":384191,"DIS_CODE":0,"TOWNNAME":"新營區","LI":"大宏里","LIN":"9鄰","STREET":"民治路","SECT":" ","MAREA":" ","LANE":"２９巷","ALLEY":" ","HOUSE_NO":"２９號","E_COORD97":180191.13,"N_COORD97":2578777.7999999998,"ADDRESS":"民治路２９巷２９號","OBJECTID":384181},"geometry":{"x":180191.13000000082,"y":2578777.8000000045}},{"attributes":{"ID":384192,"DIS_CODE":0,"TOWNNAME":"新營區","LI":"忠政里","LIN":"9鄰","STREET":"中正路","SECT":" ","MAREA":" ","LANE":"３９巷","ALLEY":" ","HOUSE_NO":"３５號之１","E_COORD97":180001.10999999999,"N_COORD97":2579236.1299999999,"ADDRESS":"中正路３９巷３５號之１","OBJECTID":384182},"geometry":{"x":180001.11000000034,"y":2579236.1300000008}},{"attributes":{"ID":384193,"DIS_CODE":0,"TOWNNAME":"新營區","LI":"大宏里","LIN":"9鄰","STREET":"民治路","SECT":" ","MAREA":" ","LANE":"２９巷","ALLEY":" ","HOUSE_NO":"３５號","E_COORD97":180191.07999999999,"N_COORD97":2578764.5099999998,"ADDRESS":"民治路２９巷３５號","OBJECTID":384183},"geometry":{"x":180191.08000000194,"y":2578764.5099999998}},{"attributes":{"ID":384194,"DIS_CODE":0,"TOWNNAME":"白河區","LI":"外角里","LIN":"13鄰","STREET":"三民路","SECT":" ","MAREA":" ","LANE":" ","ALLEY":" ","HOUSE_NO":"２３０號","E_COORD97":190826.53,"N_COORD97":2583305.98,"ADDRESS":"三民路２３０號","OBJECTID":384184},"geometry":{"x":190826.53000000026,"y":2583305.9800000042}},{"attributes":{"ID":384195,"DIS_CODE":0,"TOWNNAME":"新營區","LI":"忠政里","LIN":"9鄰","STREET":"中正路","SECT":" ","MAREA":" ","LANE":"３９巷","ALLEY":" ","HOUSE_NO":"３５號之３","E_COORD97":180001.20000000001,"N_COORD97":2579236.1299999999,"ADDRESS":"中正路３９巷３５號之３","OBJECTID":384185},"geometry":{"x":180001.20000000112,"y":2579236.1300000008}},{"attributes":{"ID":384196,"DIS_CODE":0,"TOWNNAME":"新營區","LI":"南興里","LIN":"9鄰","STREET":"和平路","SECT":" ","MAREA":" ","LANE":"１０２巷","ALLEY":" ","HOUSE_NO":"２８之１號","E_COORD97":179325.82999999999,"N_COORD97":2577616.9300000002,"ADDRESS":"和平路１０２巷２８之１號","OBJECTID":384186},"geometry":{"x":179325.83000000007,"y":2577616.9300000016}},{"attributes":{"ID":384197,"DIS_CODE":0,"TOWNNAME":"新營區","LI":"南興里","LIN":"9鄰","STREET":"和平路","SECT":" ","MAREA":" ","LANE":"１０２巷","ALLEY":" ","HOUSE_NO":"２０號","E_COORD97":179355.04000000001,"N_COORD97":2577615.6200000001,"ADDRESS":"和平路１０２巷２０號","OBJECTID":384187},"geometry":{"x":179355.04000000004,"y":2577615.620000001}},{"attributes":{"ID":384198,"DIS_CODE":0,"TOWNNAME":"新營區","LI":"南興里","LIN":"9鄰","STREET":"和平路","SECT":" ","MAREA":" ","LANE":"１０２巷","ALLEY":" ","HOUSE_NO":"２號","E_COORD97":179394.69,"N_COORD97":2577613.21,"ADDRESS":"和平路１０２巷２號","OBJECTID":384188},"geometry":{"x":179394.69000000134,"y":2577613.2100000028}},{"attributes":{"ID":384199,"DIS_CODE":0,"TOWNNAME":"新營區","LI":"南興里","LIN":"9鄰","STREET":"和平路","SECT":" ","MAREA":" ","LANE":"１０２巷","ALLEY":" ","HOUSE_NO":"２４號","E_COORD97":179342.76000000001,"N_COORD97":2577615.6800000002,"ADDRESS":"和平路１０２巷２４號","OBJECTID":384189},"geometry":{"x":179342.76000000071,"y":2577615.6800000016}},{"attributes":{"ID":384200,"DIS_CODE":0,"TOWNNAME":"新營區","LI":"南興里","LIN":"9鄰","STREET":"和平路","SECT":" ","MAREA":" ","LANE":"１０２巷","ALLEY":" ","HOUSE_NO":"１８號","E_COORD97":179358.04000000001,"N_COORD97":2577615.6000000001,"ADDRESS":"和平路１０２巷１８號","OBJECTID":384190},"geometry":{"x":179358.04000000097,"y":2577615.6000000015}},{"attributes":{"ID":384201,"DIS_CODE":0,"TOWNNAME":"新營區","LI":"大宏里","LIN":"9鄰","STREET":"民治路","SECT":" ","MAREA":" ","LANE":"２９巷","ALLEY":" ","HOUSE_NO":"２７號","E_COORD97":180191.14000000001,"N_COORD97":2578781.1200000001,"ADDRESS":"民治路２９巷２７號","OBJECTID":384191},"geometry":{"x":180191.13999999966,"y":2578781.120000001}},{"attributes":{"ID":384202,"DIS_CODE":0,"TOWNNAME":"新營區","LI":"民榮里","LIN":"9鄰","STREET":"和平路","SECT":" ","MAREA":" ","LANE":"３２巷","ALLEY":" ","HOUSE_NO":"１之５號","E_COORD97":179394.95999999999,"N_COORD97":2577803.75,"ADDRESS":"和平路３２巷１之５號","OBJECTID":384192},"geometry":{"x":179394.96000000183,"y":2577803.75}},{"attributes":{"ID":384203,"DIS_CODE":0,"TOWNNAME":"新營區","LI":"南興里","LIN":"9鄰","STREET":"和平路","SECT":" ","MAREA":" ","LANE":"１０２巷","ALLEY":" ","HOUSE_NO":"３０號","E_COORD97":179317.20999999999,"N_COORD97":2577616.9100000001,"ADDRESS":"和平路１０２巷３０號","OBJECTID":384193},"geometry":{"x":179317.21000000089,"y":2577616.9100000039}},{"attributes":{"ID":384204,"DIS_CODE":0,"TOWNNAME":"新營區","LI":"南紙里","LIN":"9鄰","STREET":"南紙街","SECT":" ","MAREA":" ","LANE":"８５巷","ALLEY":" ","HOUSE_NO":"１１號","E_COORD97":177900.19,"N_COORD97":2577580.54,"ADDRESS":"南紙街８５巷１１號","OBJECTID":384194},"geometry":{"x":177900.19000000041,"y":2577580.5399999991}},{"attributes":{"ID":384205,"DIS_CODE":0,"TOWNNAME":"北區","LI":"成德里","LIN":"9鄰","STREET":"西門路","SECT":"四段","MAREA":" ","LANE":"１７１巷","ALLEY":" ","HOUSE_NO":"２５號","E_COORD97":168708.57000000001,"N_COORD97":2545677.5099999998,"ADDRESS":"西門路四段１７１巷２５號","OBJECTID":384195},"geometry":{"x":168708.57000000123,"y":2545677.5099999998}},{"attributes":{"ID":384206,"DIS_CODE":0,"TOWNNAME":"北區","LI":"成德里","LIN":"9鄰","STREET":"西門路","SECT":"四段","MAREA":" ","LANE":"１７１巷","ALLEY":" ","HOUSE_NO":"２７號","E_COORD97":168704.35999999999,"N_COORD97":2545679.3100000001,"ADDRESS":"西門路四段１７１巷２７號","OBJECTID":384196},"geometry":{"x":168704.36000000034,"y":2545679.3100000005}},{"attributes":{"ID":384207,"DIS_CODE":0,"TOWNNAME":"北區","LI":"成德里","LIN":"9鄰","STREET":"西門路","SECT":"四段","MAREA":" ","LANE":"１７１巷","ALLEY":" ","HOUSE_NO":"２９號","E_COORD97":168699.84,"N_COORD97":2545680.3700000001,"ADDRESS":"西門路四段１７１巷２９號","OBJECTID":384197},"geometry":{"x":168699.84000000078,"y":2545680.370000001}},{"attributes":{"ID":384208,"DIS_CODE":0,"TOWNNAME":"北區","LI":"成德里","LIN":"9鄰","STREET":"西門路","SECT":"四段","MAREA":" ","LANE":"１７１巷","ALLEY":" ","HOUSE_NO":"３１號","E_COORD97":168695.47,"N_COORD97":2545681.1200000001,"ADDRESS":"西門路四段１７１巷３１號","OBJECTID":384198},"geometry":{"x":168695.47000000067,"y":2545681.120000001}},{"attributes":{"ID":384209,"DIS_CODE":0,"TOWNNAME":"北區","LI":"成德里","LIN":"9鄰","STREET":"西門路","SECT":"四段","MAREA":" ","LANE":"１７１巷","ALLEY":" ","HOUSE_NO":"３３號","E_COORD97":168691.39999999999,"N_COORD97":2545682.6200000001,"ADDRESS":"西門路四段１７１巷３３號","OBJECTID":384199},"geometry":{"x":168691.4000000013,"y":2545682.6200000048}},{"attributes":{"ID":384210,"DIS_CODE":0,"TOWNNAME":"北區","LI":"成德里","LIN":"9鄰","STREET":"西門路","SECT":"四段","MAREA":" ","LANE":"１７１巷","ALLEY":" ","HOUSE_NO":"３５號","E_COORD97":168686.73999999999,"N_COORD97":2545683.3700000001,"ADDRESS":"西門路四段１７１巷３５號","OBJECTID":384200},"geometry":{"x":168686.74000000115,"y":2545683.370000001}}]}