{"displayFieldName":"TOWNNAME","fieldAliases":{"ID":"ID","DIS_CODE":"DIS_CODE","TOWNNAME":"TOWNNAME","LI":"LI","LIN":"LIN","STREET":"STREET","SECT":"SECT","MAREA":"MAREA","LANE":"LANE","ALLEY":"ALLEY","HOUSE_NO":"HOUSE_NO","E_COORD97":"E_COORD97","N_COORD97":"N_COORD97","ADDRESS":"ADDRESS","OBJECTID":"OBJECTID"},"geometryType":"esriGeometryPoint","spatialReference":{"wkid":102443,"latestWkid":3826},"fields":[{"name":"ID","type":"esriFieldTypeDouble","alias":"ID"},{"name":"DIS_CODE","type":"esriFieldTypeInteger","alias":"DIS_CODE"},{"name":"TOWNNAME","type":"esriFieldTypeString","alias":"TOWNNAME","length":8},{"name":"LI","type":"esriFieldTypeString","alias":"LI","length":8},{"name":"LIN","type":"esriFieldTypeString","alias":"LIN","length":12},{"name":"STREET","type":"esriFieldTypeString","alias":"STREET","length":20},{"name":"SECT","type":"esriFieldTypeString","alias":"SECT","length":8},{"name":"MAREA","type":"esriFieldTypeString","alias":"MAREA","length":12},{"name":"LANE","type":"esriFieldTypeString","alias":"LANE","length":10},{"name":"ALLEY","type":"esriFieldTypeString","alias":"ALLEY","length":10},{"name":"HOUSE_NO","type":"esriFieldTypeString","alias":"HOUSE_NO","length":20},{"name":"E_COORD97","type":"esriFieldTypeDouble","alias":"E_COORD97"},{"name":"N_COORD97","type":"esriFieldTypeDouble","alias":"N_COORD97"},{"name":"ADDRESS","type":"esriFieldTypeString","alias":"ADDRESS","length":50},{"name":"OBJECTID","type":"esriFieldTypeOID","alias":"OBJECTID"}],"features":[{"attributes":{"ID":291809,"DIS_CODE":0,"TOWNNAME":"永康區","LI":"復國里","LIN":"9鄰","STREET":"復國二路","SECT":" ","MAREA":" ","LANE":"８８巷","ALLEY":" ","HOUSE_NO":"８號","E_COORD97":172871.23000000001,"N_COORD97":2545175.5299999998,"ADDRESS":"復國二路８８巷８號","OBJECTID":291801},"geometry":{"x":172871.23000000138,"y":2545175.5299999993}},{"attributes":{"ID":291810,"DIS_CODE":0,"TOWNNAME":"永康區","LI":"復國里","LIN":"9鄰","STREET":"復國二路","SECT":" ","MAREA":" ","LANE":"９０巷","ALLEY":" ","HOUSE_NO":"２號","E_COORD97":172853.42000000001,"N_COORD97":2545229.9100000001,"ADDRESS":"復國二路９０巷２號","OBJECTID":291802},"geometry":{"x":172853.41999999899,"y":2545229.910000002}},{"attributes":{"ID":291811,"DIS_CODE":0,"TOWNNAME":"東區","LI":"大同里","LIN":"9鄰","STREET":"大同路","SECT":"一段","MAREA":" ","LANE":"１１５巷","ALLEY":" ","HOUSE_NO":"１１號","E_COORD97":169192.67000000001,"N_COORD97":2542963.02,"ADDRESS":"大同路一段１１５巷１１號","OBJECTID":291803},"geometry":{"x":169192.67000000086,"y":2542963.0200000014}},{"attributes":{"ID":291812,"DIS_CODE":0,"TOWNNAME":"東區","LI":"大同里","LIN":"9鄰","STREET":"大同路","SECT":"一段","MAREA":" ","LANE":"１１５巷","ALLEY":" ","HOUSE_NO":"１３號","E_COORD97":169203.69,"N_COORD97":2542963.73,"ADDRESS":"大同路一段１１５巷１３號","OBJECTID":291804},"geometry":{"x":169203.69000000041,"y":2542963.7300000004}},{"attributes":{"ID":291813,"DIS_CODE":0,"TOWNNAME":"東區","LI":"泉南里","LIN":"33鄰","STREET":"府連路","SECT":" ","MAREA":" ","LANE":"３２６巷","ALLEY":" ","HOUSE_NO":"１５號","E_COORD97":169580.79999999999,"N_COORD97":2542750.8199999998,"ADDRESS":"府連路３２６巷１５號","OBJECTID":291805},"geometry":{"x":169580.80000000168,"y":2542750.8199999984}},{"attributes":{"ID":291814,"DIS_CODE":0,"TOWNNAME":"北區","LI":"三德里","LIN":"1鄰","STREET":"北華街","SECT":" ","MAREA":" ","LANE":" ","ALLEY":" ","HOUSE_NO":"１６８號","E_COORD97":168526.63,"N_COORD97":2544611.1099999999,"ADDRESS":"北華街１６８號","OBJECTID":291806},"geometry":{"x":168526.63000000082,"y":2544611.1099999994}},{"attributes":{"ID":291815,"DIS_CODE":0,"TOWNNAME":"北區","LI":"三德里","LIN":"1鄰","STREET":"北華街","SECT":" ","MAREA":" ","LANE":" ","ALLEY":" ","HOUSE_NO":"１６８號之１","E_COORD97":168523.10999999999,"N_COORD97":2544611.27,"ADDRESS":"北華街１６８號之１","OBJECTID":291807},"geometry":{"x":168523.1100000022,"y":2544611.2699999996}},{"attributes":{"ID":291816,"DIS_CODE":0,"TOWNNAME":"北區","LI":"三德里","LIN":"1鄰","STREET":"北華街","SECT":" ","MAREA":" ","LANE":" ","ALLEY":" ","HOUSE_NO":"１６８號之２","E_COORD97":168519.42999999999,"N_COORD97":2544611.4300000002,"ADDRESS":"北華街１６８號之２","OBJECTID":291808},"geometry":{"x":168519.43000000063,"y":2544611.4300000016}},{"attributes":{"ID":291817,"DIS_CODE":0,"TOWNNAME":"北區","LI":"玉皇里","LIN":"1鄰","STREET":"公園南路","SECT":" ","MAREA":" ","LANE":" ","ALLEY":" ","HOUSE_NO":"１６１號","E_COORD97":168662.31,"N_COORD97":2544667.3199999998,"ADDRESS":"公園南路１６１號","OBJECTID":291809},"geometry":{"x":168662.31000000052,"y":2544667.3200000022}},{"attributes":{"ID":291818,"DIS_CODE":0,"TOWNNAME":"北區","LI":"玉皇里","LIN":"1鄰","STREET":"北華街","SECT":" ","MAREA":" ","LANE":" ","ALLEY":" ","HOUSE_NO":"１１６號","E_COORD97":168640.60000000001,"N_COORD97":2544648.3999999999,"ADDRESS":"北華街１１６號","OBJECTID":291810},"geometry":{"x":168640.59999999963,"y":2544648.4000000004}},{"attributes":{"ID":291819,"DIS_CODE":0,"TOWNNAME":"北區","LI":"成功里","LIN":"1鄰","STREET":"西門路","SECT":"四段","MAREA":" ","LANE":" ","ALLEY":" ","HOUSE_NO":"４２９號","E_COORD97":169172.01000000001,"N_COORD97":2546437.4900000002,"ADDRESS":"西門路四段４２９號","OBJECTID":291811},"geometry":{"x":169172.00999999978,"y":2546437.4900000002}},{"attributes":{"ID":291820,"DIS_CODE":0,"TOWNNAME":"東區","LI":"大同里","LIN":"9鄰","STREET":"大同路","SECT":"一段","MAREA":" ","LANE":"１１５巷","ALLEY":" ","HOUSE_NO":"１５號","E_COORD97":169208.51999999999,"N_COORD97":2542964.8999999999,"ADDRESS":"大同路一段１１５巷１５號","OBJECTID":291812},"geometry":{"x":169208.52000000048,"y":2542964.9000000022}},{"attributes":{"ID":291821,"DIS_CODE":0,"TOWNNAME":"東區","LI":"大同里","LIN":"9鄰","STREET":"大同路","SECT":"一段","MAREA":" ","LANE":"１１５巷","ALLEY":" ","HOUSE_NO":"１７號","E_COORD97":169212.76000000001,"N_COORD97":2542964.2000000002,"ADDRESS":"大同路一段１１５巷１７號","OBJECTID":291813},"geometry":{"x":169212.75999999978,"y":2542964.200000003}},{"attributes":{"ID":291822,"DIS_CODE":0,"TOWNNAME":"東區","LI":"大同里","LIN":"9鄰","STREET":"大同路","SECT":"一段","MAREA":" ","LANE":"１１５巷","ALLEY":" ","HOUSE_NO":"１９號","E_COORD97":169223.70999999999,"N_COORD97":2542969.1400000001,"ADDRESS":"大同路一段１１５巷１９號","OBJECTID":291814},"geometry":{"x":169223.70999999996,"y":2542969.1400000006}},{"attributes":{"ID":291823,"DIS_CODE":0,"TOWNNAME":"東區","LI":"大同里","LIN":"9鄰","STREET":"大同路","SECT":"一段","MAREA":" ","LANE":"１１５巷","ALLEY":" ","HOUSE_NO":"２１號","E_COORD97":169230.42000000001,"N_COORD97":2542969.7400000002,"ADDRESS":"大同路一段１１５巷２１號","OBJECTID":291815},"geometry":{"x":169230.41999999993,"y":2542969.7400000021}},{"attributes":{"ID":291824,"DIS_CODE":0,"TOWNNAME":"東區","LI":"大同里","LIN":"9鄰","STREET":"大同路","SECT":"一段","MAREA":" ","LANE":"１１５巷","ALLEY":" ","HOUSE_NO":"２５號","E_COORD97":169244.12,"N_COORD97":2542974.8199999998,"ADDRESS":"大同路一段１１５巷２５號","OBJECTID":291816},"geometry":{"x":169244.12000000104,"y":2542974.820000004}},{"attributes":{"ID":291825,"DIS_CODE":0,"TOWNNAME":"東區","LI":"大同里","LIN":"9鄰","STREET":"大同路","SECT":"一段","MAREA":" ","LANE":"１１５巷","ALLEY":" ","HOUSE_NO":"２７號","E_COORD97":169249.09,"N_COORD97":2542976.7000000002,"ADDRESS":"大同路一段１１５巷２７號","OBJECTID":291817},"geometry":{"x":169249.09000000078,"y":2542976.6999999993}},{"attributes":{"ID":291826,"DIS_CODE":0,"TOWNNAME":"東區","LI":"大同里","LIN":"9鄰","STREET":"大同路","SECT":"一段","MAREA":" ","LANE":"１１５巷","ALLEY":" ","HOUSE_NO":"５號","E_COORD97":169177.95000000001,"N_COORD97":2542963.8399999999,"ADDRESS":"大同路一段１１５巷５號","OBJECTID":291818},"geometry":{"x":169177.95000000019,"y":2542963.839999998}},{"attributes":{"ID":291827,"DIS_CODE":0,"TOWNNAME":"東區","LI":"大同里","LIN":"9鄰","STREET":"大同路","SECT":"一段","MAREA":" ","LANE":"１１５巷","ALLEY":" ","HOUSE_NO":"７號","E_COORD97":169183.95999999999,"N_COORD97":2542962.8999999999,"ADDRESS":"大同路一段１１５巷７號","OBJECTID":291819},"geometry":{"x":169183.96000000089,"y":2542962.9000000004}},{"attributes":{"ID":291828,"DIS_CODE":0,"TOWNNAME":"東區","LI":"大同里","LIN":"9鄰","STREET":"大同路","SECT":"一段","MAREA":" ","LANE":"１１５巷","ALLEY":" ","HOUSE_NO":"９號","E_COORD97":169188.62,"N_COORD97":2542963.3900000001,"ADDRESS":"大同路一段１１５巷９號","OBJECTID":291820},"geometry":{"x":169188.62000000011,"y":2542963.3900000006}},{"attributes":{"ID":291829,"DIS_CODE":0,"TOWNNAME":"永康區","LI":"永康里","LIN":"9鄰","STREET":"永中街","SECT":" ","MAREA":" ","LANE":"３９巷","ALLEY":" ","HOUSE_NO":"３號","E_COORD97":173873.19,"N_COORD97":2547185.2400000002,"ADDRESS":"永中街３９巷３號","OBJECTID":291821},"geometry":{"x":173873.19000000134,"y":2547185.2400000002}},{"attributes":{"ID":291830,"DIS_CODE":0,"TOWNNAME":"永康區","LI":"崑山里","LIN":"9鄰","STREET":"崑大路","SECT":" ","MAREA":" ","LANE":"２０１巷","ALLEY":" ","HOUSE_NO":"９８號","E_COORD97":173294.92000000001,"N_COORD97":2544087.2400000002,"ADDRESS":"崑大路２０１巷９８號","OBJECTID":291822},"geometry":{"x":173294.92000000086,"y":2544087.2400000039}},{"attributes":{"ID":291831,"DIS_CODE":0,"TOWNNAME":"永康區","LI":"西勢里","LIN":"9鄰","STREET":"富強路","SECT":"一段","MAREA":" ","LANE":"３２０巷","ALLEY":" ","HOUSE_NO":"９號之１","E_COORD97":175768.85999999999,"N_COORD97":2546714.1299999999,"ADDRESS":"富強路一段３２０巷９號之１","OBJECTID":291823},"geometry":{"x":175768.86000000127,"y":2546714.1300000027}},{"attributes":{"ID":291832,"DIS_CODE":0,"TOWNNAME":"永康區","LI":"正強里","LIN":"9鄰","STREET":"自強路","SECT":" ","MAREA":" ","LANE":"３３０巷","ALLEY":" ","HOUSE_NO":"１８號","E_COORD97":173426.28,"N_COORD97":2547615.7400000002,"ADDRESS":"自強路３３０巷１８號","OBJECTID":291824},"geometry":{"x":173426.28000000119,"y":2547615.7400000002}},{"attributes":{"ID":291833,"DIS_CODE":0,"TOWNNAME":"中西區","LI":"西湖里","LIN":"9鄰","STREET":"湖美一街","SECT":" ","MAREA":" ","LANE":"１４巷","ALLEY":" ","HOUSE_NO":"１８號","E_COORD97":166114.88,"N_COORD97":2544463.1699999999,"ADDRESS":"湖美一街１４巷１８號","OBJECTID":291825},"geometry":{"x":166114.87999999989,"y":2544463.1699999999}},{"attributes":{"ID":291834,"DIS_CODE":0,"TOWNNAME":"中西區","LI":"西湖里","LIN":"9鄰","STREET":"湖美一街","SECT":" ","MAREA":" ","LANE":"１４巷","ALLEY":" ","HOUSE_NO":"１６號","E_COORD97":166109.79999999999,"N_COORD97":2544462.9100000001,"ADDRESS":"湖美一街１４巷１６號","OBJECTID":291826},"geometry":{"x":166109.80000000075,"y":2544462.910000002}},{"attributes":{"ID":291835,"DIS_CODE":0,"TOWNNAME":"安南區","LI":"安慶里","LIN":"9鄰","STREET":"長溪路","SECT":"一段","MAREA":" ","LANE":"３４２巷","ALLEY":" ","HOUSE_NO":"１０號","E_COORD97":168729.85999999999,"N_COORD97":2548878.9500000002,"ADDRESS":"長溪路一段３４２巷１０號","OBJECTID":291827},"geometry":{"x":168729.8599999994,"y":2548878.950000003}},{"attributes":{"ID":291836,"DIS_CODE":0,"TOWNNAME":"安南區","LI":"安慶里","LIN":"9鄰","STREET":"長溪路","SECT":"一段","MAREA":" ","LANE":"３４２巷","ALLEY":" ","HOUSE_NO":"１２號","E_COORD97":168731.01999999999,"N_COORD97":2548883.27,"ADDRESS":"長溪路一段３４２巷１２號","OBJECTID":291828},"geometry":{"x":168731.01999999955,"y":2548883.2699999996}},{"attributes":{"ID":291837,"DIS_CODE":0,"TOWNNAME":"安南區","LI":"安慶里","LIN":"9鄰","STREET":"長溪路","SECT":"一段","MAREA":" ","LANE":"３４２巷","ALLEY":" ","HOUSE_NO":"２７號","E_COORD97":168701.35999999999,"N_COORD97":2548912.46,"ADDRESS":"長溪路一段３４２巷２７號","OBJECTID":291829},"geometry":{"x":168701.36000000127,"y":2548912.4600000028}},{"attributes":{"ID":291838,"DIS_CODE":0,"TOWNNAME":"安南區","LI":"安慶里","LIN":"9鄰","STREET":"長溪路","SECT":"一段","MAREA":" ","LANE":"３４２巷","ALLEY":" ","HOUSE_NO":"２號","E_COORD97":168727.57999999999,"N_COORD97":2548860.48,"ADDRESS":"長溪路一段３４２巷２號","OBJECTID":291830},"geometry":{"x":168727.58000000007,"y":2548860.4800000023}},{"attributes":{"ID":291839,"DIS_CODE":0,"TOWNNAME":"安南區","LI":"安慶里","LIN":"9鄰","STREET":"長溪路","SECT":"一段","MAREA":" ","LANE":"３４２巷","ALLEY":" ","HOUSE_NO":"３３號","E_COORD97":168702.34,"N_COORD97":2548930.48,"ADDRESS":"長溪路一段３４２巷３３號","OBJECTID":291831},"geometry":{"x":168702.33999999892,"y":2548930.4799999986}},{"attributes":{"ID":291840,"DIS_CODE":0,"TOWNNAME":"安南區","LI":"安慶里","LIN":"9鄰","STREET":"長溪路","SECT":"一段","MAREA":" ","LANE":"３４２巷","ALLEY":" ","HOUSE_NO":"３９號","E_COORD97":168699.64999999999,"N_COORD97":2548938.9300000002,"ADDRESS":"長溪路一段３４２巷３９號","OBJECTID":291832},"geometry":{"x":168699.6500000013,"y":2548938.9299999997}},{"attributes":{"ID":291841,"DIS_CODE":0,"TOWNNAME":"安南區","LI":"城北里","LIN":"9鄰","STREET":"城安東街","SECT":" ","MAREA":" ","LANE":"５１巷","ALLEY":" ","HOUSE_NO":"２號","E_COORD97":160757.06,"N_COORD97":2551761.8399999999,"ADDRESS":"城安東街５１巷２號","OBJECTID":291833},"geometry":{"x":160757.06000000145,"y":2551761.839999998}},{"attributes":{"ID":291842,"DIS_CODE":0,"TOWNNAME":"東區","LI":"東明里","LIN":"13鄰","STREET":"怡東路","SECT":" ","MAREA":" ","LANE":" ","ALLEY":" ","HOUSE_NO":"１０１號","E_COORD97":170846.32999999999,"N_COORD97":2543708.3500000001,"ADDRESS":"怡東路１０１號","OBJECTID":291834},"geometry":{"x":170846.33000000007,"y":2543708.3499999996}},{"attributes":{"ID":291843,"DIS_CODE":0,"TOWNNAME":"東區","LI":"崇德里","LIN":"4鄰","STREET":"崇德五街","SECT":" ","MAREA":" ","LANE":" ","ALLEY":" ","HOUSE_NO":"２１號","E_COORD97":170657.29999999999,"N_COORD97":2541828.3900000001,"ADDRESS":"崇德五街２１號","OBJECTID":291835},"geometry":{"x":170657.30000000168,"y":2541828.3899999987}},{"attributes":{"ID":291844,"DIS_CODE":0,"TOWNNAME":"東區","LI":"崇德里","LIN":"4鄰","STREET":"崇德五街","SECT":" ","MAREA":" ","LANE":" ","ALLEY":" ","HOUSE_NO":"１０號","E_COORD97":170671.39000000001,"N_COORD97":2541800.8900000001,"ADDRESS":"崇德五街１０號","OBJECTID":291836},"geometry":{"x":170671.38999999966,"y":2541800.8900000006}},{"attributes":{"ID":291845,"DIS_CODE":0,"TOWNNAME":"東區","LI":"崇德里","LIN":"4鄰","STREET":"崇德五街","SECT":" ","MAREA":" ","LANE":" ","ALLEY":" ","HOUSE_NO":"１２號","E_COORD97":170673.66,"N_COORD97":2541805.0600000001,"ADDRESS":"崇德五街１２號","OBJECTID":291837},"geometry":{"x":170673.65999999922,"y":2541805.0600000024}},{"attributes":{"ID":291846,"DIS_CODE":0,"TOWNNAME":"善化區","LI":"東關里","LIN":"19鄰","STREET":"大信路","SECT":" ","MAREA":" ","LANE":" ","ALLEY":" ","HOUSE_NO":"５號","E_COORD97":177485.57999999999,"N_COORD97":2559070,"ADDRESS":"大信路５號","OBJECTID":291838},"geometry":{"x":177485.58000000194,"y":2559070}},{"attributes":{"ID":291847,"DIS_CODE":0,"TOWNNAME":"佳里區","LI":"鎮山里","LIN":"9鄰","STREET":"仁愛路","SECT":" ","MAREA":" ","LANE":"２０２巷","ALLEY":" ","HOUSE_NO":"２號","E_COORD97":166251.67000000001,"N_COORD97":2561462.8700000001,"ADDRESS":"仁愛路２０２巷２號","OBJECTID":291839},"geometry":{"x":166251.66999999993,"y":2561462.8700000048}},{"attributes":{"ID":291848,"DIS_CODE":0,"TOWNNAME":"佳里區","LI":"鎮山里","LIN":"9鄰","STREET":"仁愛路","SECT":" ","MAREA":" ","LANE":"２０２巷","ALLEY":" ","HOUSE_NO":"３號","E_COORD97":166259.95000000001,"N_COORD97":2561472.8500000001,"ADDRESS":"仁愛路２０２巷３號","OBJECTID":291840},"geometry":{"x":166259.95000000112,"y":2561472.8500000015}},{"attributes":{"ID":291849,"DIS_CODE":0,"TOWNNAME":"佳里區","LI":"鎮山里","LIN":"9鄰","STREET":"仁愛路","SECT":" ","MAREA":" ","LANE":"２０２巷","ALLEY":" ","HOUSE_NO":"４號","E_COORD97":166255.92999999999,"N_COORD97":2561473.3799999999,"ADDRESS":"仁愛路２０２巷４號","OBJECTID":291841},"geometry":{"x":166255.93000000063,"y":2561473.379999999}},{"attributes":{"ID":291850,"DIS_CODE":0,"TOWNNAME":"佳里區","LI":"鎮山里","LIN":"9鄰","STREET":"仁愛路","SECT":" ","MAREA":" ","LANE":"２０２巷","ALLEY":" ","HOUSE_NO":"５號","E_COORD97":166251.91,"N_COORD97":2561473.9100000001,"ADDRESS":"仁愛路２０２巷５號","OBJECTID":291842},"geometry":{"x":166251.91000000015,"y":2561473.9100000001}},{"attributes":{"ID":291851,"DIS_CODE":0,"TOWNNAME":"永康區","LI":"南灣里","LIN":"9鄰","STREET":"南興路","SECT":" ","MAREA":" ","LANE":"１０１巷","ALLEY":" ","HOUSE_NO":"２７號","E_COORD97":174024.47,"N_COORD97":2544299,"ADDRESS":"南興路１０１巷２７號","OBJECTID":291843},"geometry":{"x":174024.4700000016,"y":2544299.0000000037}},{"attributes":{"ID":291852,"DIS_CODE":0,"TOWNNAME":"永康區","LI":"南灣里","LIN":"9鄰","STREET":"南興路","SECT":" ","MAREA":" ","LANE":"１０１巷","ALLEY":" ","HOUSE_NO":"９號","E_COORD97":174141.92999999999,"N_COORD97":2544364.5,"ADDRESS":"南興路１０１巷９號","OBJECTID":291844},"geometry":{"x":174141.93000000063,"y":2544364.5000000019}},{"attributes":{"ID":291853,"DIS_CODE":0,"TOWNNAME":"永康區","LI":"南灣里","LIN":"9鄰","STREET":"南興路","SECT":" ","MAREA":" ","LANE":"１０１巷","ALLEY":" ","HOUSE_NO":"２５號","E_COORD97":174030.45000000001,"N_COORD97":2544311.23,"ADDRESS":"南興路１０１巷２５號","OBJECTID":291845},"geometry":{"x":174030.45000000112,"y":2544311.2300000042}},{"attributes":{"ID":291854,"DIS_CODE":0,"TOWNNAME":"永康區","LI":"南灣里","LIN":"9鄰","STREET":"南興路","SECT":" ","MAREA":" ","LANE":"１０１巷","ALLEY":" ","HOUSE_NO":"１８號","E_COORD97":174092.32000000001,"N_COORD97":2544451.04,"ADDRESS":"南興路１０１巷１８號","OBJECTID":291846},"geometry":{"x":174092.32000000123,"y":2544451.040000001}},{"attributes":{"ID":291855,"DIS_CODE":0,"TOWNNAME":"永康區","LI":"埔園里","LIN":"34鄰","STREET":"八德街","SECT":" ","MAREA":" ","LANE":"２６巷","ALLEY":" ","HOUSE_NO":"４２號","E_COORD97":174315.04999999999,"N_COORD97":2548595.75,"ADDRESS":"八德街２６巷４２號","OBJECTID":291847},"geometry":{"x":174315.04999999981,"y":2548595.75}},{"attributes":{"ID":291856,"DIS_CODE":0,"TOWNNAME":"麻豆區","LI":"大山里","LIN":"8鄰","STREET":" ","SECT":" ","MAREA":"大山\u25A0","LANE":" ","ALLEY":" ","HOUSE_NO":"１號之１０","E_COORD97":170381.41,"N_COORD97":2565676.2000000002,"ADDRESS":"大山\u25A0１號之１０","OBJECTID":291848},"geometry":{"x":170381.41000000015,"y":2565676.1999999974}},{"attributes":{"ID":291857,"DIS_CODE":0,"TOWNNAME":"永康區","LI":"東橋里","LIN":"8鄰","STREET":"大橋一街","SECT":" ","MAREA":" ","LANE":"３２４巷","ALLEY":" ","HOUSE_NO":"１１１號","E_COORD97":171520.85999999999,"N_COORD97":2546397.48,"ADDRESS":"大橋一街３２４巷１１１號","OBJECTID":291849},"geometry":{"x":171520.86000000127,"y":2546397.4800000004}},{"attributes":{"ID":291858,"DIS_CODE":0,"TOWNNAME":"永康區","LI":"崑山里","LIN":"6鄰","STREET":"永大路","SECT":"一段","MAREA":" ","LANE":"６５巷","ALLEY":" ","HOUSE_NO":"６６號","E_COORD97":173671.39999999999,"N_COORD97":2544002.1000000001,"ADDRESS":"永大路一段６５巷６６號","OBJECTID":291850},"geometry":{"x":173671.4000000013,"y":2544002.0999999996}},{"attributes":{"ID":291859,"DIS_CODE":0,"TOWNNAME":"永康區","LI":"大橋里","LIN":"25鄰","STREET":"大橋一街","SECT":" ","MAREA":" ","LANE":"２４７巷","ALLEY":" ","HOUSE_NO":"３３號","E_COORD97":171246.91,"N_COORD97":2546721.25,"ADDRESS":"大橋一街２４７巷３３號","OBJECTID":291851},"geometry":{"x":171246.91000000108,"y":2546721.2500000037}},{"attributes":{"ID":291860,"DIS_CODE":0,"TOWNNAME":"永康區","LI":"烏竹里","LIN":"7鄰","STREET":"龍橋街","SECT":" ","MAREA":" ","LANE":"４５９巷","ALLEY":" ","HOUSE_NO":"１６號","E_COORD97":174321.39999999999,"N_COORD97":2549324.0800000001,"ADDRESS":"龍橋街４５９巷１６號","OBJECTID":291852},"geometry":{"x":174321.40000000037,"y":2549324.0800000019}},{"attributes":{"ID":291861,"DIS_CODE":0,"TOWNNAME":"安南區","LI":"州南里","LIN":"9鄰","STREET":"安和路","SECT":"五段","MAREA":" ","LANE":"８１巷","ALLEY":" ","HOUSE_NO":"７３之６號","E_COORD97":169734.688708,"N_COORD97":2551602.5991099998,"ADDRESS":"安和路五段８１巷７３之６號","OBJECTID":291853},"geometry":{"x":169734.68870799989,"y":2551602.5991120003}},{"attributes":{"ID":291862,"DIS_CODE":0,"TOWNNAME":"安南區","LI":"安順里","LIN":"9鄰","STREET":"安和路","SECT":"四段","MAREA":" ","LANE":"１３１巷","ALLEY":" ","HOUSE_NO":"２６號","E_COORD97":169820.76000000001,"N_COORD97":2550443.1400000001,"ADDRESS":"安和路四段１３１巷２６號","OBJECTID":291854},"geometry":{"x":169820.76000000071,"y":2550443.1400000025}},{"attributes":{"ID":291863,"DIS_CODE":0,"TOWNNAME":"安南區","LI":"安順里","LIN":"9鄰","STREET":"安和路","SECT":"四段","MAREA":" ","LANE":"１３１巷","ALLEY":" ","HOUSE_NO":"８號","E_COORD97":169865.66,"N_COORD97":2550433.1899999999,"ADDRESS":"安和路四段１３１巷８號","OBJECTID":291855},"geometry":{"x":169865.66000000108,"y":2550433.1899999995}},{"attributes":{"ID":291864,"DIS_CODE":0,"TOWNNAME":"安南區","LI":"安順里","LIN":"9鄰","STREET":"安和路","SECT":"四段","MAREA":" ","LANE":"１３１巷","ALLEY":" ","HOUSE_NO":"１２號","E_COORD97":169856.67999999999,"N_COORD97":2550435.1600000001,"ADDRESS":"安和路四段１３１巷１２號","OBJECTID":291856},"geometry":{"x":169856.68000000063,"y":2550435.160000002}},{"attributes":{"ID":291865,"DIS_CODE":0,"TOWNNAME":"安南區","LI":"安順里","LIN":"9鄰","STREET":"安和路","SECT":"四段","MAREA":" ","LANE":"１３１巷","ALLEY":" ","HOUSE_NO":"２２號","E_COORD97":169836.04999999999,"N_COORD97":2550440.48,"ADDRESS":"安和路四段１３１巷２２號","OBJECTID":291857},"geometry":{"x":169836.04999999981,"y":2550440.4800000023}},{"attributes":{"ID":291866,"DIS_CODE":0,"TOWNNAME":"安南區","LI":"安順里","LIN":"9鄰","STREET":"安和路","SECT":"四段","MAREA":" ","LANE":"１３１巷","ALLEY":" ","HOUSE_NO":"２０號","E_COORD97":169840.78,"N_COORD97":2550439.5,"ADDRESS":"安和路四段１３１巷２０號","OBJECTID":291858},"geometry":{"x":169840.78000000212,"y":2550439.5000000019}},{"attributes":{"ID":291867,"DIS_CODE":0,"TOWNNAME":"安南區","LI":"安順里","LIN":"9鄰","STREET":"安和路","SECT":"四段","MAREA":" ","LANE":"１３１巷","ALLEY":" ","HOUSE_NO":"１６號","E_COORD97":169852.23999999999,"N_COORD97":2550436.54,"ADDRESS":"安和路四段１３１巷１６號","OBJECTID":291859},"geometry":{"x":169852.24000000022,"y":2550436.5399999991}},{"attributes":{"ID":291868,"DIS_CODE":0,"TOWNNAME":"安南區","LI":"安順里","LIN":"9鄰","STREET":"安和路","SECT":"四段","MAREA":" ","LANE":"１３１巷","ALLEY":" ","HOUSE_NO":"１０號","E_COORD97":169860.92000000001,"N_COORD97":2550433.98,"ADDRESS":"安和路四段１３１巷１０號","OBJECTID":291860},"geometry":{"x":169860.91999999993,"y":2550433.9800000023}},{"attributes":{"ID":291869,"DIS_CODE":0,"TOWNNAME":"善化區","LI":"田寮里","LIN":"13鄰","STREET":" ","SECT":" ","MAREA":"六分寮","LANE":" ","ALLEY":" ","HOUSE_NO":"１３７號之１","E_COORD97":178662.04999999999,"N_COORD97":2561218.02,"ADDRESS":"六分寮１３７號之１","OBJECTID":291861},"geometry":{"x":178662.05000000168,"y":2561218.0199999996}},{"attributes":{"ID":291870,"DIS_CODE":0,"TOWNNAME":"善化區","LI":"胡家里","LIN":"4鄰","STREET":" ","SECT":" ","MAREA":"胡厝寮","LANE":" ","ALLEY":" ","HOUSE_NO":"３６號","E_COORD97":175415.85000000001,"N_COORD97":2560481.75,"ADDRESS":"胡厝寮３６號","OBJECTID":291862},"geometry":{"x":175415.85000000056,"y":2560481.75}},{"attributes":{"ID":291871,"DIS_CODE":0,"TOWNNAME":"善化區","LI":"坐駕里","LIN":"20鄰","STREET":" ","SECT":" ","MAREA":"坐駕","LANE":" ","ALLEY":" ","HOUSE_NO":"９２號","E_COORD97":178304.23999999999,"N_COORD97":2558357,"ADDRESS":"坐駕９２號","OBJECTID":291863},"geometry":{"x":178304.24000000022,"y":2558357.0000000019}},{"attributes":{"ID":291872,"DIS_CODE":0,"TOWNNAME":"永康區","LI":"尚頂里","LIN":"10鄰","STREET":"正南一街","SECT":" ","MAREA":" ","LANE":"１０７巷","ALLEY":" ","HOUSE_NO":"２８號","E_COORD97":170829.60999999999,"N_COORD97":2547121.6699999999,"ADDRESS":"正南一街１０７巷２８號","OBJECTID":291864},"geometry":{"x":170829.61000000034,"y":2547121.6699999981}},{"attributes":{"ID":291873,"DIS_CODE":0,"TOWNNAME":"永康區","LI":"西灣里","LIN":"22鄰","STREET":"國光七街","SECT":" ","MAREA":" ","LANE":"３巷","ALLEY":" ","HOUSE_NO":"８０號","E_COORD97":174291.42000000001,"N_COORD97":2545325.0600000001,"ADDRESS":"國光七街３巷８０號","OBJECTID":291865},"geometry":{"x":174291.42000000086,"y":2545325.0600000005}},{"attributes":{"ID":291874,"DIS_CODE":0,"TOWNNAME":"永康區","LI":"西灣里","LIN":"33鄰","STREET":"永華路","SECT":" ","MAREA":" ","LANE":"３７６巷","ALLEY":" ","HOUSE_NO":"７號","E_COORD97":174132.51000000001,"N_COORD97":2545849,"ADDRESS":"永華路３７６巷７號","OBJECTID":291866},"geometry":{"x":174132.50999999885,"y":2545849.0000000019}},{"attributes":{"ID":291875,"DIS_CODE":0,"TOWNNAME":"永康區","LI":"西灣里","LIN":"21鄰","STREET":"國光七街","SECT":" ","MAREA":" ","LANE":"３巷","ALLEY":" ","HOUSE_NO":"４９號","E_COORD97":174329.64000000001,"N_COORD97":2545390.46,"ADDRESS":"國光七街３巷４９號","OBJECTID":291867},"geometry":{"x":174329.63999999966,"y":2545390.4600000009}},{"attributes":{"ID":291876,"DIS_CODE":0,"TOWNNAME":"新市區","LI":"永就里","LIN":"9鄰","STREET":"中山路","SECT":" ","MAREA":" ","LANE":"工業巷","ALLEY":" ","HOUSE_NO":"６號","E_COORD97":177549.38,"N_COORD97":2552003,"ADDRESS":"中山路工業巷６號","OBJECTID":291868},"geometry":{"x":177549.38000000175,"y":2552003.0000000019}},{"attributes":{"ID":291877,"DIS_CODE":0,"TOWNNAME":"永康區","LI":"西灣里","LIN":"51鄰","STREET":"永華路","SECT":" ","MAREA":" ","LANE":"３１７巷","ALLEY":" ","HOUSE_NO":"４６號","E_COORD97":173896.39999999999,"N_COORD97":2545888,"ADDRESS":"永華路３１７巷４６號","OBJECTID":291869},"geometry":{"x":173896.40000000037,"y":2545888}},{"attributes":{"ID":291878,"DIS_CODE":0,"TOWNNAME":"永康區","LI":"西灣里","LIN":"14鄰","STREET":"民族路","SECT":" ","MAREA":" ","LANE":"４１５巷","ALLEY":" ","HOUSE_NO":"８號","E_COORD97":174752.91,"N_COORD97":2545334.5299999998,"ADDRESS":"民族路４１５巷８號","OBJECTID":291870},"geometry":{"x":174752.91000000108,"y":2545334.5299999993}},{"attributes":{"ID":291879,"DIS_CODE":0,"TOWNNAME":"永康區","LI":"西灣里","LIN":"30鄰","STREET":"國光八街","SECT":" ","MAREA":" ","LANE":"６０巷","ALLEY":" ","HOUSE_NO":"３２號","E_COORD97":174267.28,"N_COORD97":2545846.1899999999,"ADDRESS":"國光八街６０巷３２號","OBJECTID":291871},"geometry":{"x":174267.28000000119,"y":2545846.1899999976}},{"attributes":{"ID":291880,"DIS_CODE":0,"TOWNNAME":"永康區","LI":"西灣里","LIN":"26鄰","STREET":"國光八街","SECT":" ","MAREA":" ","LANE":"４１巷","ALLEY":" ","HOUSE_NO":"１７號","E_COORD97":174355.17000000001,"N_COORD97":2545718.1600000001,"ADDRESS":"國光八街４１巷１７號","OBJECTID":291872},"geometry":{"x":174355.16999999993,"y":2545718.1600000001}},{"attributes":{"ID":291881,"DIS_CODE":0,"TOWNNAME":"永康區","LI":"西灣里","LIN":"13鄰","STREET":"民族路","SECT":" ","MAREA":" ","LANE":"４８１巷","ALLEY":" ","HOUSE_NO":"１３號","E_COORD97":174582.19,"N_COORD97":2545391.3999999999,"ADDRESS":"民族路４８１巷１３號","OBJECTID":291873},"geometry":{"x":174582.19000000041,"y":2545391.3999999985}},{"attributes":{"ID":291882,"DIS_CODE":0,"TOWNNAME":"中西區","LI":"三合里","LIN":"9鄰","STREET":"民族路","SECT":"三段","MAREA":" ","LANE":"１７６巷","ALLEY":" ","HOUSE_NO":"２２號","E_COORD97":167551.10999999999,"N_COORD97":2544474.1200000001,"ADDRESS":"民族路三段１７６巷２２號","OBJECTID":291874},"geometry":{"x":167551.11000000034,"y":2544474.120000001}},{"attributes":{"ID":291883,"DIS_CODE":0,"TOWNNAME":"麻豆區","LI":"東角里","LIN":"9鄰","STREET":"興中路","SECT":" ","MAREA":" ","LANE":"２５１巷","ALLEY":" ","HOUSE_NO":"１０號","E_COORD97":174168.51999999999,"N_COORD97":2564848.54,"ADDRESS":"興中路２５１巷１０號","OBJECTID":291875},"geometry":{"x":174168.52000000048,"y":2564848.5399999991}},{"attributes":{"ID":291884,"DIS_CODE":0,"TOWNNAME":"麻豆區","LI":"東角里","LIN":"9鄰","STREET":"興中路","SECT":" ","MAREA":" ","LANE":"２５１巷","ALLEY":" ","HOUSE_NO":"１１號","E_COORD97":174105.51999999999,"N_COORD97":2564866.7999999998,"ADDRESS":"興中路２５１巷１１號","OBJECTID":291876},"geometry":{"x":174105.52000000048,"y":2564866.7999999989}},{"attributes":{"ID":291885,"DIS_CODE":0,"TOWNNAME":"麻豆區","LI":"東角里","LIN":"9鄰","STREET":"興中路","SECT":" ","MAREA":" ","LANE":"２５１巷","ALLEY":" ","HOUSE_NO":"１２號","E_COORD97":174175.19,"N_COORD97":2564848.4900000002,"ADDRESS":"興中路２５１巷１２號","OBJECTID":291877},"geometry":{"x":174175.19000000134,"y":2564848.4900000039}},{"attributes":{"ID":291886,"DIS_CODE":0,"TOWNNAME":"麻豆區","LI":"東角里","LIN":"9鄰","STREET":"興中路","SECT":" ","MAREA":" ","LANE":"２５１巷","ALLEY":" ","HOUSE_NO":"１３號","E_COORD97":174099.54000000001,"N_COORD97":2564867.3199999998,"ADDRESS":"興中路２５１巷１３號","OBJECTID":291878},"geometry":{"x":174099.54000000097,"y":2564867.3200000022}},{"attributes":{"ID":291887,"DIS_CODE":0,"TOWNNAME":"麻豆區","LI":"東角里","LIN":"9鄰","STREET":"興中路","SECT":" ","MAREA":" ","LANE":"２５１巷","ALLEY":" ","HOUSE_NO":"２１號","E_COORD97":174113.29999999999,"N_COORD97":2564884.7599999998,"ADDRESS":"興中路２５１巷２１號","OBJECTID":291879},"geometry":{"x":174113.29999999981,"y":2564884.7600000016}},{"attributes":{"ID":291888,"DIS_CODE":0,"TOWNNAME":"麻豆區","LI":"東角里","LIN":"9鄰","STREET":"興中路","SECT":" ","MAREA":" ","LANE":"２５１巷","ALLEY":" ","HOUSE_NO":"２２號","E_COORD97":174142.89999999999,"N_COORD97":2564865.29,"ADDRESS":"興中路２５１巷２２號","OBJECTID":291880},"geometry":{"x":174142.9000000013,"y":2564865.2900000028}},{"attributes":{"ID":291889,"DIS_CODE":0,"TOWNNAME":"麻豆區","LI":"東角里","LIN":"9鄰","STREET":"興中路","SECT":" ","MAREA":" ","LANE":"２５１巷","ALLEY":" ","HOUSE_NO":"４９號","E_COORD97":174098.57000000001,"N_COORD97":2564901.25,"ADDRESS":"興中路２５１巷４９號","OBJECTID":291881},"geometry":{"x":174098.5700000003,"y":2564901.2500000019}},{"attributes":{"ID":291890,"DIS_CODE":0,"TOWNNAME":"麻豆區","LI":"東角里","LIN":"9鄰","STREET":"興中路","SECT":" ","MAREA":" ","LANE":"２５１巷","ALLEY":" ","HOUSE_NO":"７８號","E_COORD97":174151.06,"N_COORD97":2564923.1899999999,"ADDRESS":"興中路２５１巷７８號","OBJECTID":291882},"geometry":{"x":174151.06000000052,"y":2564923.1899999995}},{"attributes":{"ID":291891,"DIS_CODE":0,"TOWNNAME":"麻豆區","LI":"東角里","LIN":"9鄰","STREET":"興中路","SECT":" ","MAREA":" ","LANE":"２５１巷","ALLEY":" ","HOUSE_NO":"７９號","E_COORD97":174089.70000000001,"N_COORD97":2564921.3900000001,"ADDRESS":"興中路２５１巷７９號","OBJECTID":291883},"geometry":{"x":174089.70000000112,"y":2564921.3900000025}},{"attributes":{"ID":291892,"DIS_CODE":0,"TOWNNAME":"麻豆區","LI":"東角里","LIN":"9鄰","STREET":"興中路","SECT":" ","MAREA":" ","LANE":"２５１巷","ALLEY":" ","HOUSE_NO":"７號","E_COORD97":174117.60999999999,"N_COORD97":2564866.4300000002,"ADDRESS":"興中路２５１巷７號","OBJECTID":291884},"geometry":{"x":174117.61000000127,"y":2564866.4300000016}},{"attributes":{"ID":291893,"DIS_CODE":0,"TOWNNAME":"永康區","LI":"尚頂里","LIN":"8鄰","STREET":"正南一街","SECT":" ","MAREA":" ","LANE":"１１８巷","ALLEY":" ","HOUSE_NO":"９號","E_COORD97":170919.85999999999,"N_COORD97":2547315.7599999998,"ADDRESS":"正南一街１１８巷９號","OBJECTID":291885},"geometry":{"x":170919.86000000034,"y":2547315.7600000016}},{"attributes":{"ID":291894,"DIS_CODE":0,"TOWNNAME":"永康區","LI":"尚頂里","LIN":"1鄰","STREET":"中正南路","SECT":" ","MAREA":" ","LANE":"３０６巷","ALLEY":" ","HOUSE_NO":"１２號","E_COORD97":170760.84,"N_COORD97":2547744.6299999999,"ADDRESS":"中正南路３０６巷１２號","OBJECTID":291886},"geometry":{"x":170760.84000000078,"y":2547744.6299999971}},{"attributes":{"ID":291895,"DIS_CODE":0,"TOWNNAME":"善化區","LI":"光文里","LIN":"4鄰","STREET":" ","SECT":" ","MAREA":"北子店","LANE":"１６０巷","ALLEY":" ","HOUSE_NO":"３８號","E_COORD97":179457.92000000001,"N_COORD97":2559530.75,"ADDRESS":"北子店１６０巷３８號","OBJECTID":291887},"geometry":{"x":179457.92000000179,"y":2559530.7500000019}},{"attributes":{"ID":291896,"DIS_CODE":0,"TOWNNAME":"善化區","LI":"光文里","LIN":"4鄰","STREET":" ","SECT":" ","MAREA":"北子店","LANE":" ","ALLEY":" ","HOUSE_NO":"１７７號","E_COORD97":179351.97,"N_COORD97":2559657,"ADDRESS":"北子店１７７號","OBJECTID":291888},"geometry":{"x":179351.96999999974,"y":2559657}},{"attributes":{"ID":291897,"DIS_CODE":0,"TOWNNAME":"善化區","LI":"牛庄里","LIN":"14鄰","STREET":" ","SECT":" ","MAREA":"牛庄","LANE":" ","ALLEY":" ","HOUSE_NO":"１４６之２１號","E_COORD97":180046.79999999999,"N_COORD97":2559726.02,"ADDRESS":"牛庄１４６之２１號","OBJECTID":291889},"geometry":{"x":180046.79999999888,"y":2559726.0200000014}},{"attributes":{"ID":291898,"DIS_CODE":0,"TOWNNAME":"永康區","LI":"尚頂里","LIN":"10鄰","STREET":"正南一街","SECT":" ","MAREA":" ","LANE":"１０７巷","ALLEY":" ","HOUSE_NO":"４７號","E_COORD97":170793.85999999999,"N_COORD97":2547126.23,"ADDRESS":"正南一街１０７巷４７號","OBJECTID":291890},"geometry":{"x":170793.86000000034,"y":2547126.2300000023}},{"attributes":{"ID":291899,"DIS_CODE":0,"TOWNNAME":"善化區","LI":"田寮里","LIN":"4鄰","STREET":" ","SECT":" ","MAREA":"六分寮","LANE":" ","ALLEY":" ","HOUSE_NO":"５３號之２８","E_COORD97":178398.38,"N_COORD97":2561091.27,"ADDRESS":"六分寮５３號之２８","OBJECTID":291891},"geometry":{"x":178398.37999999989,"y":2561091.2699999996}},{"attributes":{"ID":291900,"DIS_CODE":0,"TOWNNAME":"善化區","LI":"田寮里","LIN":"4鄰","STREET":" ","SECT":" ","MAREA":"六分寮","LANE":" ","ALLEY":" ","HOUSE_NO":"５４號之３２","E_COORD97":178553.94,"N_COORD97":2561009.02,"ADDRESS":"六分寮５４號之３２","OBJECTID":291892},"geometry":{"x":178553.94000000134,"y":2561009.0199999996}},{"attributes":{"ID":291901,"DIS_CODE":0,"TOWNNAME":"佳里區","LI":"龍安里","LIN":"6鄰","STREET":" ","SECT":" ","MAREA":"塭子內","LANE":" ","ALLEY":" ","HOUSE_NO":"６６號之４","E_COORD97":164427.404541,"N_COORD97":2558314.0563300001,"ADDRESS":"塭子內６６號之４","OBJECTID":291893},"geometry":{"x":164427.40454100072,"y":2558314.0563280005}},{"attributes":{"ID":291902,"DIS_CODE":0,"TOWNNAME":"永康區","LI":"西灣里","LIN":"26鄰","STREET":"國光八街","SECT":" ","MAREA":" ","LANE":"４１巷","ALLEY":" ","HOUSE_NO":"２８號","E_COORD97":174333.54000000001,"N_COORD97":2545696.75,"ADDRESS":"國光八街４１巷２８號","OBJECTID":291894},"geometry":{"x":174333.54000000097,"y":2545696.75}},{"attributes":{"ID":291903,"DIS_CODE":0,"TOWNNAME":"永康區","LI":"尚頂里","LIN":"10鄰","STREET":"正南一街","SECT":" ","MAREA":" ","LANE":"１２９巷","ALLEY":" ","HOUSE_NO":"２５號","E_COORD97":170746.85999999999,"N_COORD97":2547128.9100000001,"ADDRESS":"正南一街１２９巷２５號","OBJECTID":291895},"geometry":{"x":170746.86000000034,"y":2547128.9100000001}},{"attributes":{"ID":291904,"DIS_CODE":0,"TOWNNAME":"善化區","LI":"牛庄里","LIN":"8鄰","STREET":" ","SECT":" ","MAREA":"牛庄","LANE":" ","ALLEY":" ","HOUSE_NO":"９７號之１５","E_COORD97":180001.38,"N_COORD97":2560588.77,"ADDRESS":"牛庄９７號之１５","OBJECTID":291896},"geometry":{"x":180001.38000000082,"y":2560588.7700000014}},{"attributes":{"ID":291905,"DIS_CODE":0,"TOWNNAME":"善化區","LI":"牛庄里","LIN":"4鄰","STREET":" ","SECT":" ","MAREA":"牛庄","LANE":" ","ALLEY":" ","HOUSE_NO":"４０之５號","E_COORD97":180221.82000000001,"N_COORD97":2560049.77,"ADDRESS":"牛庄４０之５號","OBJECTID":291897},"geometry":{"x":180221.82000000216,"y":2560049.7700000014}},{"attributes":{"ID":291906,"DIS_CODE":0,"TOWNNAME":"善化區","LI":"田寮里","LIN":"4鄰","STREET":" ","SECT":" ","MAREA":"六分寮","LANE":" ","ALLEY":" ","HOUSE_NO":"５４號之１３","E_COORD97":178439.89999999999,"N_COORD97":2561148.77,"ADDRESS":"六分寮５４號之１３","OBJECTID":291898},"geometry":{"x":178439.9000000013,"y":2561148.7699999996}},{"attributes":{"ID":291907,"DIS_CODE":0,"TOWNNAME":"善化區","LI":"牛庄里","LIN":"14鄰","STREET":" ","SECT":" ","MAREA":"牛庄","LANE":" ","ALLEY":" ","HOUSE_NO":"１４５號之１１","E_COORD97":179877.35999999999,"N_COORD97":2559697.52,"ADDRESS":"牛庄１４５號之１１","OBJECTID":291899},"geometry":{"x":179877.36000000034,"y":2559697.5200000033}},{"attributes":{"ID":291908,"DIS_CODE":0,"TOWNNAME":"麻豆區","LI":"東角里","LIN":"9鄰","STREET":"興中路","SECT":" ","MAREA":" ","LANE":"２５１巷","ALLEY":" ","HOUSE_NO":"８１號","E_COORD97":174084.13,"N_COORD97":2564921.7000000002,"ADDRESS":"興中路２５１巷８１號","OBJECTID":291900},"geometry":{"x":174084.12999999989,"y":2564921.7000000011}},{"attributes":{"ID":291909,"DIS_CODE":0,"TOWNNAME":"麻豆區","LI":"東角里","LIN":"9鄰","STREET":"興中路","SECT":" ","MAREA":" ","LANE":"２５１巷","ALLEY":" ","HOUSE_NO":"８２號","E_COORD97":174164.78,"N_COORD97":2564922.98,"ADDRESS":"興中路２５１巷８２號","OBJECTID":291901},"geometry":{"x":174164.78000000026,"y":2564922.9799999986}},{"attributes":{"ID":291910,"DIS_CODE":0,"TOWNNAME":"善化區","LI":"牛庄里","LIN":"14鄰","STREET":" ","SECT":" ","MAREA":"牛庄","LANE":" ","ALLEY":" ","HOUSE_NO":"１４５號之１３","E_COORD97":179853.07000000001,"N_COORD97":2559696.02,"ADDRESS":"牛庄１４５號之１３","OBJECTID":291902},"geometry":{"x":179853.07000000123,"y":2559696.0199999996}},{"attributes":{"ID":291911,"DIS_CODE":0,"TOWNNAME":"善化區","LI":"牛庄里","LIN":"14鄰","STREET":" ","SECT":" ","MAREA":"牛庄","LANE":" ","ALLEY":" ","HOUSE_NO":"１４７之１１號","E_COORD97":179961.32999999999,"N_COORD97":2559736.52,"ADDRESS":"牛庄１４７之１１號","OBJECTID":291903},"geometry":{"x":179961.33000000101,"y":2559736.5199999996}},{"attributes":{"ID":291912,"DIS_CODE":0,"TOWNNAME":"善化區","LI":"田寮里","LIN":"4鄰","STREET":" ","SECT":" ","MAREA":"六分寮","LANE":" ","ALLEY":" ","HOUSE_NO":"５４之３５號","E_COORD97":178590.56,"N_COORD97":2560944.02,"ADDRESS":"六分寮５４之３５號","OBJECTID":291904},"geometry":{"x":178590.56000000052,"y":2560944.0199999996}},{"attributes":{"ID":291913,"DIS_CODE":0,"TOWNNAME":"善化區","LI":"胡家里","LIN":"4鄰","STREET":" ","SECT":" ","MAREA":"胡厝寮","LANE":" ","ALLEY":" ","HOUSE_NO":"３３號","E_COORD97":175403.44114700001,"N_COORD97":2560434.8118199999,"ADDRESS":"胡厝寮３３號","OBJECTID":291905},"geometry":{"x":175403.4411469996,"y":2560434.8118160013}},{"attributes":{"ID":291914,"DIS_CODE":0,"TOWNNAME":"下營區","LI":"仁里里","LIN":"9鄰","STREET":"工業街","SECT":" ","MAREA":" ","LANE":"２巷","ALLEY":" ","HOUSE_NO":"１９號","E_COORD97":173366.5,"N_COORD97":2570134.8799999999,"ADDRESS":"工業街２巷１９號","OBJECTID":291906},"geometry":{"x":173366.5,"y":2570134.8800000008}},{"attributes":{"ID":291915,"DIS_CODE":0,"TOWNNAME":"善化區","LI":"光文里","LIN":"4鄰","STREET":" ","SECT":" ","MAREA":"北子店","LANE":"１６０巷","ALLEY":" ","HOUSE_NO":"１４號","E_COORD97":179433.16,"N_COORD97":2559581,"ADDRESS":"北子店１６０巷１４號","OBJECTID":291907},"geometry":{"x":179433.16000000108,"y":2559581}},{"attributes":{"ID":291916,"DIS_CODE":0,"TOWNNAME":"善化區","LI":"小新里","LIN":"4鄰","STREET":" ","SECT":" ","MAREA":"小新營","LANE":" ","ALLEY":" ","HOUSE_NO":"３５號之１","E_COORD97":179762.94,"N_COORD97":2558353.02,"ADDRESS":"小新營３５號之１","OBJECTID":291908},"geometry":{"x":179762.94000000041,"y":2558353.0200000014}},{"attributes":{"ID":291917,"DIS_CODE":0,"TOWNNAME":"善化區","LI":"坐駕里","LIN":"20鄰","STREET":" ","SECT":" ","MAREA":"坐駕","LANE":" ","ALLEY":" ","HOUSE_NO":"６８號","E_COORD97":178277.64999999999,"N_COORD97":2558350,"ADDRESS":"坐駕６８號","OBJECTID":291909},"geometry":{"x":178277.6500000013,"y":2558350.0000000019}},{"attributes":{"ID":291918,"DIS_CODE":0,"TOWNNAME":"善化區","LI":"坐駕里","LIN":"20鄰","STREET":" ","SECT":" ","MAREA":"坐駕","LANE":" ","ALLEY":" ","HOUSE_NO":"７６號","E_COORD97":178273.54000000001,"N_COORD97":2558370,"ADDRESS":"坐駕７６號","OBJECTID":291910},"geometry":{"x":178273.54000000004,"y":2558370.0000000019}},{"attributes":{"ID":291919,"DIS_CODE":0,"TOWNNAME":"善化區","LI":"嘉北里","LIN":"4鄰","STREET":" ","SECT":" ","MAREA":"茄拔","LANE":" ","ALLEY":" ","HOUSE_NO":"３８之１８號","E_COORD97":181140.64000000001,"N_COORD97":2559669.27,"ADDRESS":"茄拔３８之１８號","OBJECTID":291911},"geometry":{"x":181140.63999999966,"y":2559669.2700000014}},{"attributes":{"ID":291920,"DIS_CODE":0,"TOWNNAME":"永康區","LI":"西灣里","LIN":"22鄰","STREET":"國光七街","SECT":" ","MAREA":" ","LANE":"３巷","ALLEY":" ","HOUSE_NO":"４６號","E_COORD97":174311.75,"N_COORD97":2545392.8599999999,"ADDRESS":"國光七街３巷４６號","OBJECTID":291912},"geometry":{"x":174311.75,"y":2545392.8599999994}},{"attributes":{"ID":291921,"DIS_CODE":0,"TOWNNAME":"下營區","LI":"仁里里","LIN":"9鄰","STREET":"工業街","SECT":" ","MAREA":" ","LANE":"２巷","ALLEY":" ","HOUSE_NO":"２１號","E_COORD97":173533.13,"N_COORD97":2570106.8100000001,"ADDRESS":"工業街２巷２１號","OBJECTID":291913},"geometry":{"x":173533.12999999989,"y":2570106.8100000005}},{"attributes":{"ID":291922,"DIS_CODE":0,"TOWNNAME":"善化區","LI":"坐駕里","LIN":"20鄰","STREET":" ","SECT":" ","MAREA":"坐駕","LANE":" ","ALLEY":" ","HOUSE_NO":"９５號","E_COORD97":178298.39999999999,"N_COORD97":2558346.75,"ADDRESS":"坐駕９５號","OBJECTID":291914},"geometry":{"x":178298.40000000037,"y":2558346.7499999981}},{"attributes":{"ID":291923,"DIS_CODE":0,"TOWNNAME":"永康區","LI":"西灣里","LIN":"46鄰","STREET":"永華路","SECT":" ","MAREA":" ","LANE":"２３３巷","ALLEY":" ","HOUSE_NO":"２３號","E_COORD97":173992.45000000001,"N_COORD97":2545728.25,"ADDRESS":"永華路２３３巷２３號","OBJECTID":291915},"geometry":{"x":173992.45000000019,"y":2545728.2500000019}},{"attributes":{"ID":291924,"DIS_CODE":0,"TOWNNAME":"善化區","LI":"光文里","LIN":"4鄰","STREET":" ","SECT":" ","MAREA":"北子店","LANE":" ","ALLEY":" ","HOUSE_NO":"１６２號","E_COORD97":179413.03843799999,"N_COORD97":2559637.83714,"ADDRESS":"北子店１６２號","OBJECTID":291916},"geometry":{"x":179413.03843799978,"y":2559637.8371410016}},{"attributes":{"ID":291925,"DIS_CODE":0,"TOWNNAME":"善化區","LI":"田寮里","LIN":"4鄰","STREET":" ","SECT":" ","MAREA":"六分寮","LANE":" ","ALLEY":" ","HOUSE_NO":"５２號","E_COORD97":178404.48999999999,"N_COORD97":2561195,"ADDRESS":"六分寮５２號","OBJECTID":291917},"geometry":{"x":178404.49000000022,"y":2561195}},{"attributes":{"ID":291926,"DIS_CODE":0,"TOWNNAME":"善化區","LI":"坐駕里","LIN":"20鄰","STREET":" ","SECT":" ","MAREA":"坐駕","LANE":" ","ALLEY":" ","HOUSE_NO":"１１６號","E_COORD97":178244.67999999999,"N_COORD97":2558319.5,"ADDRESS":"坐駕１１６號","OBJECTID":291918},"geometry":{"x":178244.68000000063,"y":2558319.5000000019}},{"attributes":{"ID":291927,"DIS_CODE":0,"TOWNNAME":"善化區","LI":"田寮里","LIN":"4鄰","STREET":" ","SECT":" ","MAREA":"六分寮","LANE":" ","ALLEY":" ","HOUSE_NO":"４９號之２","E_COORD97":178424.79000000001,"N_COORD97":2561224.27,"ADDRESS":"六分寮４９號之２","OBJECTID":291919},"geometry":{"x":178424.78999999911,"y":2561224.2699999996}},{"attributes":{"ID":291928,"DIS_CODE":0,"TOWNNAME":"善化區","LI":"光文里","LIN":"4鄰","STREET":" ","SECT":" ","MAREA":"北子店","LANE":" ","ALLEY":" ","HOUSE_NO":"１８３號","E_COORD97":179332.16,"N_COORD97":2559654,"ADDRESS":"北子店１８３號","OBJECTID":291920},"geometry":{"x":179332.16000000015,"y":2559654.0000000037}},{"attributes":{"ID":291929,"DIS_CODE":0,"TOWNNAME":"善化區","LI":"牛庄里","LIN":"14鄰","STREET":" ","SECT":" ","MAREA":"牛庄","LANE":" ","ALLEY":" ","HOUSE_NO":"１４５號之１６","E_COORD97":179872.64000000001,"N_COORD97":2559744.27,"ADDRESS":"牛庄１４５號之１６","OBJECTID":291921},"geometry":{"x":179872.63999999966,"y":2559744.2700000014}},{"attributes":{"ID":291930,"DIS_CODE":0,"TOWNNAME":"永康區","LI":"尚頂里","LIN":"6鄰","STREET":"中正二街","SECT":" ","MAREA":" ","LANE":"１０５巷","ALLEY":" ","HOUSE_NO":"３３號","E_COORD97":170923.81,"N_COORD97":2547624.0699999998,"ADDRESS":"中正二街１０５巷３３號","OBJECTID":291922},"geometry":{"x":170923.81000000052,"y":2547624.0700000003}},{"attributes":{"ID":291931,"DIS_CODE":0,"TOWNNAME":"善化區","LI":"牛庄里","LIN":"14鄰","STREET":" ","SECT":" ","MAREA":"牛庄","LANE":" ","ALLEY":" ","HOUSE_NO":"１４６號之３","E_COORD97":180025.69,"N_COORD97":2559711.02,"ADDRESS":"牛庄１４６號之３","OBJECTID":291923},"geometry":{"x":180025.69000000041,"y":2559711.0200000033}},{"attributes":{"ID":291932,"DIS_CODE":0,"TOWNNAME":"善化區","LI":"田寮里","LIN":"4鄰","STREET":" ","SECT":" ","MAREA":"六分寮","LANE":" ","ALLEY":" ","HOUSE_NO":"５３號之１６","E_COORD97":178407.20999999999,"N_COORD97":2561021.02,"ADDRESS":"六分寮５３號之１６","OBJECTID":291924},"geometry":{"x":178407.21000000089,"y":2561021.0200000014}},{"attributes":{"ID":291933,"DIS_CODE":0,"TOWNNAME":"永康區","LI":"西勢里","LIN":"14鄰","STREET":"西勢路","SECT":" ","MAREA":" ","LANE":"１９巷","ALLEY":" ","HOUSE_NO":"４７號","E_COORD97":176203.04999999999,"N_COORD97":2546618.5299999998,"ADDRESS":"西勢路１９巷４７號","OBJECTID":291925},"geometry":{"x":176203.04999999981,"y":2546618.5300000012}},{"attributes":{"ID":291934,"DIS_CODE":0,"TOWNNAME":"善化區","LI":"東昌里","LIN":"4鄰","STREET":" ","SECT":" ","MAREA":"東勢寮","LANE":" ","ALLEY":" ","HOUSE_NO":"４４號之６","E_COORD97":180725.39999999999,"N_COORD97":2561949.52,"ADDRESS":"東勢寮４４號之６","OBJECTID":291926},"geometry":{"x":180725.4000000013,"y":2561949.5200000014}},{"attributes":{"ID":291935,"DIS_CODE":0,"TOWNNAME":"永康區","LI":"西灣里","LIN":"37鄰","STREET":"永華路","SECT":" ","MAREA":" ","LANE":"２３８巷","ALLEY":" ","HOUSE_NO":"５號","E_COORD97":174135.07000000001,"N_COORD97":2545589.8799999999,"ADDRESS":"永華路２３８巷５號","OBJECTID":291927},"geometry":{"x":174135.07000000123,"y":2545589.879999999}},{"attributes":{"ID":291936,"DIS_CODE":0,"TOWNNAME":"善化區","LI":"光文里","LIN":"4鄰","STREET":" ","SECT":" ","MAREA":"北子店","LANE":"１６０巷","ALLEY":" ","HOUSE_NO":"７號","E_COORD97":179439.01999999999,"N_COORD97":2559599.5,"ADDRESS":"北子店１６０巷７號","OBJECTID":291928},"geometry":{"x":179439.02000000048,"y":2559599.4999999981}},{"attributes":{"ID":291937,"DIS_CODE":0,"TOWNNAME":"下營區","LI":"下營里","LIN":"9鄰","STREET":"中山路","SECT":"一段","MAREA":" ","LANE":"９巷","ALLEY":" ","HOUSE_NO":"１０號","E_COORD97":174415.13,"N_COORD97":2570518.04,"ADDRESS":"中山路一段９巷１０號","OBJECTID":291929},"geometry":{"x":174415.13000000175,"y":2570518.0399999991}},{"attributes":{"ID":291938,"DIS_CODE":0,"TOWNNAME":"善化區","LI":"光文里","LIN":"4鄰","STREET":" ","SECT":" ","MAREA":"北子店","LANE":" ","ALLEY":" ","HOUSE_NO":"１７５號","E_COORD97":179356.47,"N_COORD97":2559658.75,"ADDRESS":"北子店１７５號","OBJECTID":291930},"geometry":{"x":179356.47000000067,"y":2559658.7499999981}},{"attributes":{"ID":291939,"DIS_CODE":0,"TOWNNAME":"善化區","LI":"牛庄里","LIN":"14鄰","STREET":" ","SECT":" ","MAREA":"牛庄","LANE":" ","ALLEY":" ","HOUSE_NO":"１４７之１２號","E_COORD97":179973.89000000001,"N_COORD97":2559737.52,"ADDRESS":"牛庄１４７之１２號","OBJECTID":291931},"geometry":{"x":179973.8900000006,"y":2559737.5199999996}},{"attributes":{"ID":291940,"DIS_CODE":0,"TOWNNAME":"永康區","LI":"西灣里","LIN":"14鄰","STREET":"民族路","SECT":" ","MAREA":" ","LANE":"４１５巷","ALLEY":" ","HOUSE_NO":"４８號","E_COORD97":174755.78,"N_COORD97":2545254.1000000001,"ADDRESS":"民族路４１５巷４８號","OBJECTID":291932},"geometry":{"x":174755.78000000119,"y":2545254.1000000034}},{"attributes":{"ID":291941,"DIS_CODE":0,"TOWNNAME":"善化區","LI":"田寮里","LIN":" ","STREET":" ","SECT":" ","MAREA":"六分寮","LANE":" ","ALLEY":" ","HOUSE_NO":"１９９之１１號","E_COORD97":179151.10000000001,"N_COORD97":2561656.02,"ADDRESS":"六分寮１９９之１１號","OBJECTID":291933},"geometry":{"x":179151.09999999963,"y":2561656.0199999996}},{"attributes":{"ID":291942,"DIS_CODE":0,"TOWNNAME":"善化區","LI":"田寮里","LIN":"4鄰","STREET":" ","SECT":" ","MAREA":"六分寮","LANE":" ","ALLEY":" ","HOUSE_NO":"５３之２３號","E_COORD97":178402.64999999999,"N_COORD97":2561061.77,"ADDRESS":"六分寮５３之２３號","OBJECTID":291934},"geometry":{"x":178402.6500000013,"y":2561061.7699999977}},{"attributes":{"ID":291943,"DIS_CODE":0,"TOWNNAME":"永康區","LI":"西灣里","LIN":"17鄰","STREET":"永大路","SECT":"二段","MAREA":" ","LANE":"５５６巷","ALLEY":" ","HOUSE_NO":"１９號","E_COORD97":174470.79999999999,"N_COORD97":2545426.6499999999,"ADDRESS":"永大路二段５５６巷１９號","OBJECTID":291935},"geometry":{"x":174470.79999999981,"y":2545426.6500000004}},{"attributes":{"ID":291944,"DIS_CODE":0,"TOWNNAME":"善化區","LI":"田寮里","LIN":"4鄰","STREET":" ","SECT":" ","MAREA":"六分寮","LANE":" ","ALLEY":" ","HOUSE_NO":"５４號之５","E_COORD97":178438.53,"N_COORD97":2561052.52,"ADDRESS":"六分寮５４號之５","OBJECTID":291936},"geometry":{"x":178438.53000000026,"y":2561052.5199999996}},{"attributes":{"ID":291945,"DIS_CODE":0,"TOWNNAME":"永康區","LI":"西灣里","LIN":"51鄰","STREET":"永華路","SECT":" ","MAREA":" ","LANE":"３１７巷","ALLEY":" ","HOUSE_NO":"１７號","E_COORD97":173960.82000000001,"N_COORD97":2545904.75,"ADDRESS":"永華路３１７巷１７號","OBJECTID":291937},"geometry":{"x":173960.8200000003,"y":2545904.7500000019}},{"attributes":{"ID":291946,"DIS_CODE":0,"TOWNNAME":"善化區","LI":"田寮里","LIN":"4鄰","STREET":" ","SECT":" ","MAREA":"六分寮","LANE":" ","ALLEY":" ","HOUSE_NO":"５４號之６","E_COORD97":178438.13,"N_COORD97":2561077.27,"ADDRESS":"六分寮５４號之６","OBJECTID":291938},"geometry":{"x":178438.13000000082,"y":2561077.2699999996}},{"attributes":{"ID":291947,"DIS_CODE":0,"TOWNNAME":"善化區","LI":"嘉北里","LIN":"4鄰","STREET":" ","SECT":" ","MAREA":"茄拔","LANE":" ","ALLEY":" ","HOUSE_NO":"３８號之２２","E_COORD97":181157.04999999999,"N_COORD97":2559669.02,"ADDRESS":"茄拔３８號之２２","OBJECTID":291939},"geometry":{"x":181157.04999999981,"y":2559669.0199999996}},{"attributes":{"ID":291948,"DIS_CODE":0,"TOWNNAME":"善化區","LI":"坐駕里","LIN":"20鄰","STREET":" ","SECT":" ","MAREA":"坐駕","LANE":" ","ALLEY":" ","HOUSE_NO":"９７號","E_COORD97":178294.45999999999,"N_COORD97":2558340.25,"ADDRESS":"坐駕９７號","OBJECTID":291940},"geometry":{"x":178294.45999999996,"y":2558340.2500000037}},{"attributes":{"ID":291949,"DIS_CODE":0,"TOWNNAME":"永康區","LI":"西灣里","LIN":"32鄰","STREET":"國光八街","SECT":" ","MAREA":" ","LANE":"９０巷","ALLEY":" ","HOUSE_NO":"２４號","E_COORD97":174195.57000000001,"N_COORD97":2545845.4900000002,"ADDRESS":"國光八街９０巷２４號","OBJECTID":291941},"geometry":{"x":174195.57000000216,"y":2545845.4900000021}},{"attributes":{"ID":291950,"DIS_CODE":0,"TOWNNAME":"善化區","LI":"牛庄里","LIN":"13鄰","STREET":" ","SECT":" ","MAREA":"牛庄","LANE":" ","ALLEY":" ","HOUSE_NO":"１３９之３號","E_COORD97":179989.98999999999,"N_COORD97":2559813.27,"ADDRESS":"牛庄１３９之３號","OBJECTID":291942},"geometry":{"x":179989.98999999929,"y":2559813.2699999996}},{"attributes":{"ID":291951,"DIS_CODE":0,"TOWNNAME":"善化區","LI":"田寮里","LIN":"4鄰","STREET":" ","SECT":" ","MAREA":"六分寮","LANE":" ","ALLEY":" ","HOUSE_NO":"５３之１４號","E_COORD97":178399.26000000001,"N_COORD97":2560981.27,"ADDRESS":"六分寮５３之１４號","OBJECTID":291943},"geometry":{"x":178399.25999999885,"y":2560981.2700000014}},{"attributes":{"ID":291952,"DIS_CODE":0,"TOWNNAME":"善化區","LI":"坐駕里","LIN":"20鄰","STREET":" ","SECT":" ","MAREA":"坐駕","LANE":" ","ALLEY":" ","HOUSE_NO":"１０１號","E_COORD97":178277.57999999999,"N_COORD97":2558321.25,"ADDRESS":"坐駕１０１號","OBJECTID":291944},"geometry":{"x":178277.58000000101,"y":2558321.2500000019}},{"attributes":{"ID":291953,"DIS_CODE":0,"TOWNNAME":"永康區","LI":"尚頂里","LIN":"9鄰","STREET":"正南一街","SECT":" ","MAREA":" ","LANE":"１２９巷","ALLEY":" ","HOUSE_NO":"３０號","E_COORD97":170783.39999999999,"N_COORD97":2547177.6800000002,"ADDRESS":"正南一街１２９巷３０號","OBJECTID":291945},"geometry":{"x":170783.4000000013,"y":2547177.6799999997}},{"attributes":{"ID":291954,"DIS_CODE":0,"TOWNNAME":"永康區","LI":"尚頂里","LIN":"9鄰","STREET":"正南一街","SECT":" ","MAREA":" ","LANE":"１２９巷","ALLEY":" ","HOUSE_NO":"４０號","E_COORD97":170746.98000000001,"N_COORD97":2547154.1600000001,"ADDRESS":"正南一街１２９巷４０號","OBJECTID":291946},"geometry":{"x":170746.98000000138,"y":2547154.160000002}},{"attributes":{"ID":291955,"DIS_CODE":0,"TOWNNAME":"善化區","LI":"光文里","LIN":"4鄰","STREET":" ","SECT":" ","MAREA":"北子店","LANE":"１６０巷","ALLEY":" ","HOUSE_NO":"１７號","E_COORD97":179453.06,"N_COORD97":2559570.25,"ADDRESS":"北子店１６０巷１７號","OBJECTID":291947},"geometry":{"x":179453.05999999959,"y":2559570.25}},{"attributes":{"ID":291956,"DIS_CODE":0,"TOWNNAME":"善化區","LI":"田寮里","LIN":"4鄰","STREET":" ","SECT":" ","MAREA":"六分寮","LANE":" ","ALLEY":" ","HOUSE_NO":"５４之３０號","E_COORD97":178507.20999999999,"N_COORD97":2560998.77,"ADDRESS":"六分寮５４之３０號","OBJECTID":291948},"geometry":{"x":178507.21000000089,"y":2560998.7700000014}},{"attributes":{"ID":291957,"DIS_CODE":0,"TOWNNAME":"永康區","LI":"西勢里","LIN":"9鄰","STREET":"西勢路","SECT":" ","MAREA":" ","LANE":"２３７巷","ALLEY":" ","HOUSE_NO":"２號","E_COORD97":175778.60000000001,"N_COORD97":2546751.5699999998,"ADDRESS":"西勢路２３７巷２號","OBJECTID":291949},"geometry":{"x":175778.60000000056,"y":2546751.5700000022}},{"attributes":{"ID":291958,"DIS_CODE":0,"TOWNNAME":"善化區","LI":"坐駕里","LIN":"24鄰","STREET":" ","SECT":" ","MAREA":"坐駕","LANE":" ","ALLEY":" ","HOUSE_NO":"３０號","E_COORD97":178685.95999999999,"N_COORD97":2557997,"ADDRESS":"坐駕３０號","OBJECTID":291950},"geometry":{"x":178685.95999999996,"y":2557997.0000000019}},{"attributes":{"ID":291959,"DIS_CODE":0,"TOWNNAME":"善化區","LI":"牛庄里","LIN":"14鄰","STREET":" ","SECT":" ","MAREA":"牛庄","LANE":" ","ALLEY":" ","HOUSE_NO":"１４７之１９號","E_COORD97":179959.41,"N_COORD97":2559761.77,"ADDRESS":"牛庄１４７之１９號","OBJECTID":291951},"geometry":{"x":179959.41000000015,"y":2559761.7700000014}},{"attributes":{"ID":291960,"DIS_CODE":0,"TOWNNAME":"善化區","LI":"牛庄里","LIN":"4鄰","STREET":" ","SECT":" ","MAREA":"牛庄","LANE":" ","ALLEY":" ","HOUSE_NO":"４０之３號","E_COORD97":180282.76999999999,"N_COORD97":2560041.02,"ADDRESS":"牛庄４０之３號","OBJECTID":291952},"geometry":{"x":180282.77000000048,"y":2560041.0200000014}},{"attributes":{"ID":291961,"DIS_CODE":0,"TOWNNAME":"善化區","LI":"牛庄里","LIN":"4鄰","STREET":" ","SECT":" ","MAREA":"牛庄","LANE":" ","ALLEY":" ","HOUSE_NO":"３９號","E_COORD97":180275.73000000001,"N_COORD97":2559993.75,"ADDRESS":"牛庄３９號","OBJECTID":291953},"geometry":{"x":180275.73000000138,"y":2559993.75}},{"attributes":{"ID":291962,"DIS_CODE":0,"TOWNNAME":"善化區","LI":"胡厝里","LIN":"14鄰","STREET":" ","SECT":" ","MAREA":"胡厝寮","LANE":" ","ALLEY":" ","HOUSE_NO":"２２８號","E_COORD97":174987.75,"N_COORD97":2560229,"ADDRESS":"胡厝寮２２８號","OBJECTID":291954},"geometry":{"x":174987.75000000093,"y":2560229}},{"attributes":{"ID":291963,"DIS_CODE":0,"TOWNNAME":"善化區","LI":"田寮里","LIN":"4鄰","STREET":" ","SECT":" ","MAREA":"六分寮","LANE":" ","ALLEY":" ","HOUSE_NO":"４７號","E_COORD97":178415.70999999999,"N_COORD97":2561283.5,"ADDRESS":"六分寮４７號","OBJECTID":291955},"geometry":{"x":178415.71000000089,"y":2561283.5}},{"attributes":{"ID":291964,"DIS_CODE":0,"TOWNNAME":"善化區","LI":"胡厝里","LIN":"17鄰","STREET":" ","SECT":" ","MAREA":"西衛","LANE":" ","ALLEY":" ","HOUSE_NO":"７號","E_COORD97":174431.16,"N_COORD97":2559500.25,"ADDRESS":"西衛７號","OBJECTID":291956},"geometry":{"x":174431.16000000108,"y":2559500.2500000019}},{"attributes":{"ID":291965,"DIS_CODE":0,"TOWNNAME":"永康區","LI":"尚頂里","LIN":"9鄰","STREET":"正南一街","SECT":" ","MAREA":" ","LANE":"１２９巷","ALLEY":" ","HOUSE_NO":"２８號","E_COORD97":170786.44,"N_COORD97":2547182.3199999998,"ADDRESS":"正南一街１２９巷２８號","OBJECTID":291957},"geometry":{"x":170786.44000000134,"y":2547182.320000004}},{"attributes":{"ID":291966,"DIS_CODE":0,"TOWNNAME":"善化區","LI":"田寮里","LIN":" ","STREET":" ","SECT":" ","MAREA":"六分寮","LANE":" ","ALLEY":" ","HOUSE_NO":"１２１之１號","E_COORD97":178636.29999999999,"N_COORD97":2561334.77,"ADDRESS":"六分寮１２１之１號","OBJECTID":291958},"geometry":{"x":178636.29999999981,"y":2561334.7700000014}},{"attributes":{"ID":291967,"DIS_CODE":0,"TOWNNAME":"永康區","LI":"北灣里","LIN":"9鄰","STREET":"大灣七街","SECT":" ","MAREA":" ","LANE":"４５巷","ALLEY":" ","HOUSE_NO":"１號","E_COORD97":175058.59,"N_COORD97":2545647.1800000002,"ADDRESS":"大灣七街４５巷１號","OBJECTID":291959},"geometry":{"x":175058.58999999985,"y":2545647.1800000016}},{"attributes":{"ID":291968,"DIS_CODE":0,"TOWNNAME":"善化區","LI":"嘉北里","LIN":" ","STREET":" ","SECT":" ","MAREA":"茄拔","LANE":" ","ALLEY":" ","HOUSE_NO":"１５９之１號","E_COORD97":181062.31,"N_COORD97":2559786.02,"ADDRESS":"茄拔１５９之１號","OBJECTID":291960},"geometry":{"x":181062.31000000052,"y":2559786.0200000014}},{"attributes":{"ID":291969,"DIS_CODE":0,"TOWNNAME":"永康區","LI":"正強里","LIN":"9鄰","STREET":"自強路","SECT":" ","MAREA":" ","LANE":"３３０巷","ALLEY":" ","HOUSE_NO":"６號","E_COORD97":173416.98000000001,"N_COORD97":2547654.5600000001,"ADDRESS":"自強路３３０巷６號","OBJECTID":291961},"geometry":{"x":173416.98000000138,"y":2547654.5600000005}},{"attributes":{"ID":291970,"DIS_CODE":0,"TOWNNAME":"善化區","LI":"坐駕里","LIN":"20鄰","STREET":" ","SECT":" ","MAREA":"坐駕","LANE":" ","ALLEY":" ","HOUSE_NO":"１０３號","E_COORD97":178286.98000000001,"N_COORD97":2558322.75,"ADDRESS":"坐駕１０３號","OBJECTID":291962},"geometry":{"x":178286.98000000138,"y":2558322.75}},{"attributes":{"ID":291971,"DIS_CODE":0,"TOWNNAME":"永康區","LI":"正強里","LIN":"9鄰","STREET":"正義街","SECT":" ","MAREA":" ","LANE":"１２６巷","ALLEY":" ","HOUSE_NO":"９號","E_COORD97":173360.16,"N_COORD97":2547571.1600000001,"ADDRESS":"正義街１２６巷９號","OBJECTID":291963},"geometry":{"x":173360.16000000015,"y":2547571.160000002}},{"attributes":{"ID":291972,"DIS_CODE":0,"TOWNNAME":"永康區","LI":"尚頂里","LIN":"10鄰","STREET":"正南一街","SECT":" ","MAREA":" ","LANE":"１２９巷","ALLEY":" ","HOUSE_NO":"３號","E_COORD97":170842.37,"N_COORD97":2547218.6099999999,"ADDRESS":"正南一街１２９巷３號","OBJECTID":291964},"geometry":{"x":170842.37000000104,"y":2547218.6099999994}},{"attributes":{"ID":291973,"DIS_CODE":0,"TOWNNAME":"善化區","LI":"東關里","LIN":" ","STREET":"中山路","SECT":" ","MAREA":" ","LANE":" ","ALLEY":" ","HOUSE_NO":"３７７之１１８號","E_COORD97":177464.01000000001,"N_COORD97":2559035.52,"ADDRESS":"中山路３７７之１１８號","OBJECTID":291965},"geometry":{"x":177464.01000000071,"y":2559035.5199999996}},{"attributes":{"ID":291974,"DIS_CODE":0,"TOWNNAME":"善化區","LI":"東關里","LIN":"18鄰","STREET":"中興路","SECT":" ","MAREA":" ","LANE":" ","ALLEY":" ","HOUSE_NO":"６２號","E_COORD97":177595.07999999999,"N_COORD97":2559021.75,"ADDRESS":"中興路６２號","OBJECTID":291966},"geometry":{"x":177595.08000000007,"y":2559021.7500000037}},{"attributes":{"ID":291975,"DIS_CODE":0,"TOWNNAME":"永康區","LI":"\u25A0洲里","LIN":"12鄰","STREET":"\u25A0洲一街","SECT":" ","MAREA":" ","LANE":"１１巷","ALLEY":" ","HOUSE_NO":"５８號","E_COORD97":171585.92999999999,"N_COORD97":2549118.5,"ADDRESS":"\u25A0洲一街１１巷５８號","OBJECTID":291967},"geometry":{"x":171585.93000000063,"y":2549118.5}},{"attributes":{"ID":291976,"DIS_CODE":0,"TOWNNAME":"善化區","LI":"東關里","LIN":"13鄰","STREET":"中和街","SECT":" ","MAREA":" ","LANE":" ","ALLEY":" ","HOUSE_NO":"２號","E_COORD97":177425.35000000001,"N_COORD97":2559083.75,"ADDRESS":"中和街２號","OBJECTID":291968},"geometry":{"x":177425.34999999963,"y":2559083.7500000019}},{"attributes":{"ID":291977,"DIS_CODE":0,"TOWNNAME":"善化區","LI":"東關里","LIN":" ","STREET":"中興路","SECT":" ","MAREA":" ","LANE":" ","ALLEY":" ","HOUSE_NO":"７６號","E_COORD97":177557.82999999999,"N_COORD97":2559024.75,"ADDRESS":"中興路７６號","OBJECTID":291969},"geometry":{"x":177557.83000000007,"y":2559024.7499999981}},{"attributes":{"ID":291978,"DIS_CODE":0,"TOWNNAME":"善化區","LI":"東隆里","LIN":"4鄰","STREET":" ","SECT":" ","MAREA":"東勢寮","LANE":" ","ALLEY":" ","HOUSE_NO":"１６８號之３","E_COORD97":180241.39999999999,"N_COORD97":2561988.52,"ADDRESS":"東勢寮１６８號之３","OBJECTID":291970},"geometry":{"x":180241.40000000037,"y":2561988.5199999996}},{"attributes":{"ID":291979,"DIS_CODE":0,"TOWNNAME":"善化區","LI":"溪美里","LIN":"13鄰","STREET":" ","SECT":" ","MAREA":"溪尾","LANE":" ","ALLEY":" ","HOUSE_NO":"１１６號之１０","E_COORD97":176832.01000000001,"N_COORD97":2561494.02,"ADDRESS":"溪尾１１６號之１０","OBJECTID":291971},"geometry":{"x":176832.01000000071,"y":2561494.0199999977}},{"attributes":{"ID":291980,"DIS_CODE":0,"TOWNNAME":"永康區","LI":"\u25A0行里","LIN":"1鄰","STREET":"中正路","SECT":" ","MAREA":" ","LANE":"９７０巷","ALLEY":" ","HOUSE_NO":"１７號之１","E_COORD97":171977.31,"N_COORD97":2549036.96,"ADDRESS":"中正路９７０巷１７號之１","OBJECTID":291972},"geometry":{"x":171977.30999999959,"y":2549036.9600000028}},{"attributes":{"ID":291981,"DIS_CODE":0,"TOWNNAME":"永康區","LI":"新樹里","LIN":"5鄰","STREET":"西勢路","SECT":" ","MAREA":" ","LANE":" ","ALLEY":" ","HOUSE_NO":"２１０號","E_COORD97":175782.16,"N_COORD97":2546777.9300000002,"ADDRESS":"西勢路２１０號","OBJECTID":291973},"geometry":{"x":175782.16000000108,"y":2546777.9300000016}},{"attributes":{"ID":291982,"DIS_CODE":0,"TOWNNAME":"善化區","LI":"胡厝里","LIN":"26鄰","STREET":" ","SECT":" ","MAREA":"烏橋","LANE":" ","ALLEY":" ","HOUSE_NO":"２９號","E_COORD97":175356.17999999999,"N_COORD97":2558919.5,"ADDRESS":"烏橋２９號","OBJECTID":291974},"geometry":{"x":175356.1799999997,"y":2558919.5000000019}},{"attributes":{"ID":291983,"DIS_CODE":0,"TOWNNAME":"永康區","LI":"復華里","LIN":"4鄰","STREET":"復國二路","SECT":" ","MAREA":" ","LANE":" ","ALLEY":" ","HOUSE_NO":"２５３號","E_COORD97":173023.60999999999,"N_COORD97":2546149.27,"ADDRESS":"復國二路２５３號","OBJECTID":291975},"geometry":{"x":173023.61000000034,"y":2546149.2700000014}},{"attributes":{"ID":291984,"DIS_CODE":0,"TOWNNAME":"安南區","LI":"州南里","LIN":"9鄰","STREET":"長和路","SECT":"三段","MAREA":" ","LANE":"１８巷","ALLEY":" ","HOUSE_NO":"５０號","E_COORD97":169888.44,"N_COORD97":2551596.5099999998,"ADDRESS":"長和路三段１８巷５０號","OBJECTID":291976},"geometry":{"x":169888.44000000041,"y":2551596.5099999998}},{"attributes":{"ID":291985,"DIS_CODE":0,"TOWNNAME":"善化區","LI":"胡厝里","LIN":"25鄰","STREET":" ","SECT":" ","MAREA":"烏橋","LANE":" ","ALLEY":" ","HOUSE_NO":"２６號之１５","E_COORD97":175418.48999999999,"N_COORD97":2558946.02,"ADDRESS":"烏橋２６號之１５","OBJECTID":291977},"geometry":{"x":175418.49000000115,"y":2558946.0200000014}},{"attributes":{"ID":291986,"DIS_CODE":0,"TOWNNAME":"善化區","LI":"嘉北里","LIN":"4鄰","STREET":" ","SECT":" ","MAREA":"茄拔","LANE":" ","ALLEY":" ","HOUSE_NO":"３８號之１２","E_COORD97":181116.17999999999,"N_COORD97":2559670.27,"ADDRESS":"茄拔３８號之１２","OBJECTID":291978},"geometry":{"x":181116.18000000063,"y":2559670.2699999996}},{"attributes":{"ID":291987,"DIS_CODE":0,"TOWNNAME":"安南區","LI":"州南里","LIN":"9鄰","STREET":"長和路","SECT":"三段","MAREA":" ","LANE":"１８巷","ALLEY":" ","HOUSE_NO":"４１號","E_COORD97":169848.38935300001,"N_COORD97":2551577.8341299999,"ADDRESS":"長和路三段１８巷４１號","OBJECTID":291979},"geometry":{"x":169848.38935300056,"y":2551577.8341259994}},{"attributes":{"ID":291988,"DIS_CODE":0,"TOWNNAME":"安南區","LI":"州南里","LIN":"9鄰","STREET":"長和路","SECT":"三段","MAREA":" ","LANE":"３８巷","ALLEY":" ","HOUSE_NO":"５２號","E_COORD97":169808.14999999999,"N_COORD97":2551596.52,"ADDRESS":"長和路三段３８巷５２號","OBJECTID":291980},"geometry":{"x":169808.1500000013,"y":2551596.5199999996}},{"attributes":{"ID":291989,"DIS_CODE":0,"TOWNNAME":"安南區","LI":"州南里","LIN":"9鄰","STREET":"長和路","SECT":"三段","MAREA":" ","LANE":"３８巷","ALLEY":" ","HOUSE_NO":"５２號之３","E_COORD97":169790.37449799999,"N_COORD97":2551597.3074500002,"ADDRESS":"長和路三段３８巷５２號之３","OBJECTID":291981},"geometry":{"x":169790.3744980013,"y":2551597.3074479997}},{"attributes":{"ID":291990,"DIS_CODE":0,"TOWNNAME":"永康區","LI":"建國里","LIN":" ","STREET":"復興路","SECT":" ","MAREA":" ","LANE":"６０巷","ALLEY":" ","HOUSE_NO":"５之１號","E_COORD97":172712.07000000001,"N_COORD97":2544634.8599999999,"ADDRESS":"復興路６０巷５之１號","OBJECTID":291982},"geometry":{"x":172712.06999999937,"y":2544634.8600000031}},{"attributes":{"ID":291991,"DIS_CODE":0,"TOWNNAME":"永康區","LI":"\u25A0行里","LIN":"20鄰","STREET":"正南五街","SECT":" ","MAREA":" ","LANE":"４１０巷","ALLEY":" ","HOUSE_NO":"２３號","E_COORD97":171817.37,"N_COORD97":2548630.25,"ADDRESS":"正南五街４１０巷２３號","OBJECTID":291983},"geometry":{"x":171817.37000000104,"y":2548630.2500000037}},{"attributes":{"ID":291992,"DIS_CODE":0,"TOWNNAME":"永康區","LI":"\u25A0行里","LIN":"7鄰","STREET":"中正三街","SECT":" ","MAREA":" ","LANE":"１６巷","ALLEY":" ","HOUSE_NO":"６號","E_COORD97":172468.39999999999,"N_COORD97":2548553.2400000002,"ADDRESS":"中正三街１６巷６號","OBJECTID":291984},"geometry":{"x":172468.4000000013,"y":2548553.2400000021}},{"attributes":{"ID":291993,"DIS_CODE":0,"TOWNNAME":"永康區","LI":"網寮里","LIN":"18鄰","STREET":"永大一路","SECT":" ","MAREA":" ","LANE":" ","ALLEY":" ","HOUSE_NO":"３１８號","E_COORD97":173586.31,"N_COORD97":2546282.2400000002,"ADDRESS":"永大一路３１８號","OBJECTID":291985},"geometry":{"x":173586.31000000145,"y":2546282.2400000021}},{"attributes":{"ID":291994,"DIS_CODE":0,"TOWNNAME":"善化區","LI":"胡厝里","LIN":"26鄰","STREET":" ","SECT":" ","MAREA":"烏橋","LANE":" ","ALLEY":" ","HOUSE_NO":"３１號","E_COORD97":175356.73999999999,"N_COORD97":2558902.75,"ADDRESS":"烏橋３１號","OBJECTID":291986},"geometry":{"x":175356.74000000022,"y":2558902.7499999981}},{"attributes":{"ID":291995,"DIS_CODE":0,"TOWNNAME":"善化區","LI":"胡厝里","LIN":"25鄰","STREET":" ","SECT":" ","MAREA":"烏橋","LANE":" ","ALLEY":" ","HOUSE_NO":"２６號之２０","E_COORD97":175428.54000000001,"N_COORD97":2558936.02,"ADDRESS":"烏橋２６號之２０","OBJECTID":291987},"geometry":{"x":175428.54000000097,"y":2558936.0200000014}},{"attributes":{"ID":291996,"DIS_CODE":0,"TOWNNAME":"善化區","LI":"嘉南里","LIN":"13鄰","STREET":" ","SECT":" ","MAREA":"茄拔","LANE":" ","ALLEY":" ","HOUSE_NO":"３４０號","E_COORD97":180835.59,"N_COORD97":2559446.7599999998,"ADDRESS":"茄拔３４０號","OBJECTID":291988},"geometry":{"x":180835.59000000078,"y":2559446.7600000016}},{"attributes":{"ID":291997,"DIS_CODE":0,"TOWNNAME":"安南區","LI":"州南里","LIN":"9鄰","STREET":"長和路","SECT":"三段","MAREA":" ","LANE":"３８巷","ALLEY":" ","HOUSE_NO":"３６號","E_COORD97":169820.53,"N_COORD97":2551594.1299999999,"ADDRESS":"長和路三段３８巷３６號","OBJECTID":291989},"geometry":{"x":169820.53000000212,"y":2551594.1300000008}},{"attributes":{"ID":291998,"DIS_CODE":0,"TOWNNAME":"安南區","LI":"州南里","LIN":"9鄰","STREET":"長和路","SECT":"三段","MAREA":" ","LANE":"３８巷","ALLEY":" ","HOUSE_NO":"３２號","E_COORD97":169832.60000000001,"N_COORD97":2551605.25,"ADDRESS":"長和路三段３８巷３２號","OBJECTID":291990},"geometry":{"x":169832.59999999963,"y":2551605.25}},{"attributes":{"ID":291999,"DIS_CODE":0,"TOWNNAME":"安南區","LI":"州南里","LIN":"9鄰","STREET":"長和路","SECT":"三段","MAREA":" ","LANE":"１８巷","ALLEY":" ","HOUSE_NO":"３９號","E_COORD97":169850.50668300001,"N_COORD97":2551574.2357899998,"ADDRESS":"長和路三段１８巷３９號","OBJECTID":291991},"geometry":{"x":169850.50668300036,"y":2551574.2357940022}},{"attributes":{"ID":292000,"DIS_CODE":0,"TOWNNAME":"永康區","LI":"\u25A0行里","LIN":"17鄰","STREET":"正南五街","SECT":" ","MAREA":" ","LANE":"５２０巷","ALLEY":" ","HOUSE_NO":"９１號","E_COORD97":171813.98000000001,"N_COORD97":2548796,"ADDRESS":"正南五街５２０巷９１號","OBJECTID":291992},"geometry":{"x":171813.98000000045,"y":2548796.0000000019}},{"attributes":{"ID":292001,"DIS_CODE":0,"TOWNNAME":"永康區","LI":"\u25A0行里","LIN":"1鄰","STREET":"中正路","SECT":" ","MAREA":" ","LANE":"９７０巷","ALLEY":" ","HOUSE_NO":"４４號","E_COORD97":172067.12,"N_COORD97":2548998.8100000001,"ADDRESS":"中正路９７０巷４４號","OBJECTID":291993},"geometry":{"x":172067.12000000011,"y":2548998.8100000005}},{"attributes":{"ID":292002,"DIS_CODE":0,"TOWNNAME":"永康區","LI":"\u25A0行里","LIN":"35鄰","STREET":"中正北路","SECT":" ","MAREA":" ","LANE":"１７７巷","ALLEY":" ","HOUSE_NO":"３１號","E_COORD97":172363.73000000001,"N_COORD97":2549199.6000000001,"ADDRESS":"中正北路１７７巷３１號","OBJECTID":291994},"geometry":{"x":172363.73000000231,"y":2549199.5999999996}},{"attributes":{"ID":292003,"DIS_CODE":0,"TOWNNAME":"安南區","LI":"理想里","LIN":"9鄰","STREET":"海佃路","SECT":"二段","MAREA":" ","LANE":"１５０巷","ALLEY":" ","HOUSE_NO":"６８號","E_COORD97":167095.94,"N_COORD97":2548263.1400000001,"ADDRESS":"海佃路二段１５０巷６８號","OBJECTID":291995},"geometry":{"x":167095.94000000134,"y":2548263.1400000025}},{"attributes":{"ID":292004,"DIS_CODE":0,"TOWNNAME":"安南區","LI":"理想里","LIN":"9鄰","STREET":"海佃路","SECT":"二段","MAREA":" ","LANE":"１５０巷","ALLEY":" ","HOUSE_NO":"８６之５號","E_COORD97":167123.23999999999,"N_COORD97":2548306.1600000001,"ADDRESS":"海佃路二段１５０巷８６之５號","OBJECTID":291996},"geometry":{"x":167123.24000000022,"y":2548306.160000002}},{"attributes":{"ID":292005,"DIS_CODE":0,"TOWNNAME":"安南區","LI":"理想里","LIN":"9鄰","STREET":"海佃路","SECT":"二段","MAREA":" ","LANE":"１５０巷","ALLEY":" ","HOUSE_NO":"８６之３號","E_COORD97":167120.23000000001,"N_COORD97":2548302.5099999998,"ADDRESS":"海佃路二段１５０巷８６之３號","OBJECTID":291997},"geometry":{"x":167120.23000000045,"y":2548302.5100000035}},{"attributes":{"ID":292006,"DIS_CODE":0,"TOWNNAME":"永康區","LI":"復興里","LIN":"5鄰","STREET":"復興路","SECT":" ","MAREA":" ","LANE":"４２３巷","ALLEY":" ","HOUSE_NO":"９號","E_COORD97":172124.59,"N_COORD97":2544287.27,"ADDRESS":"復興路４２３巷９號","OBJECTID":291998},"geometry":{"x":172124.58999999985,"y":2544287.2700000014}},{"attributes":{"ID":292007,"DIS_CODE":0,"TOWNNAME":"安南區","LI":"城北里","LIN":"1鄰","STREET":"城北路","SECT":" ","MAREA":" ","LANE":" ","ALLEY":" ","HOUSE_NO":"５０號","E_COORD97":160937.64000000001,"N_COORD97":2551517.7599999998,"ADDRESS":"城北路５０號","OBJECTID":291999},"geometry":{"x":160937.63999999966,"y":2551517.7599999998}},{"attributes":{"ID":292008,"DIS_CODE":0,"TOWNNAME":"安南區","LI":"南興里","LIN":"1鄰","STREET":"安中路","SECT":"五段","MAREA":" ","LANE":" ","ALLEY":" ","HOUSE_NO":"４５２之１號","E_COORD97":162375.67999999999,"N_COORD97":2551210.98,"ADDRESS":"安中路五段４５２之１號","OBJECTID":292000},"geometry":{"x":162375.68000000063,"y":2551210.9800000004}}]}