{"displayFieldName":"TOWNNAME","fieldAliases":{"ID":"ID","DIS_CODE":"DIS_CODE","TOWNNAME":"TOWNNAME","LI":"LI","LIN":"LIN","STREET":"STREET","SECT":"SECT","MAREA":"MAREA","LANE":"LANE","ALLEY":"ALLEY","HOUSE_NO":"HOUSE_NO","E_COORD97":"E_COORD97","N_COORD97":"N_COORD97","ADDRESS":"ADDRESS","OBJECTID":"OBJECTID"},"geometryType":"esriGeometryPoint","spatialReference":{"wkid":102443,"latestWkid":3826},"fields":[{"name":"ID","type":"esriFieldTypeDouble","alias":"ID"},{"name":"DIS_CODE","type":"esriFieldTypeInteger","alias":"DIS_CODE"},{"name":"TOWNNAME","type":"esriFieldTypeString","alias":"TOWNNAME","length":8},{"name":"LI","type":"esriFieldTypeString","alias":"LI","length":8},{"name":"LIN","type":"esriFieldTypeString","alias":"LIN","length":12},{"name":"STREET","type":"esriFieldTypeString","alias":"STREET","length":20},{"name":"SECT","type":"esriFieldTypeString","alias":"SECT","length":8},{"name":"MAREA","type":"esriFieldTypeString","alias":"MAREA","length":12},{"name":"LANE","type":"esriFieldTypeString","alias":"LANE","length":10},{"name":"ALLEY","type":"esriFieldTypeString","alias":"ALLEY","length":10},{"name":"HOUSE_NO","type":"esriFieldTypeString","alias":"HOUSE_NO","length":20},{"name":"E_COORD97","type":"esriFieldTypeDouble","alias":"E_COORD97"},{"name":"N_COORD97","type":"esriFieldTypeDouble","alias":"N_COORD97"},{"name":"ADDRESS","type":"esriFieldTypeString","alias":"ADDRESS","length":50},{"name":"OBJECTID","type":"esriFieldTypeOID","alias":"OBJECTID"}],"features":[{"attributes":{"ID":513428,"DIS_CODE":0,"TOWNNAME":"永康區","LI":"六合里","LIN":"1鄰","STREET":"新興街","SECT":" ","MAREA":" ","LANE":" ","ALLEY":" ","HOUSE_NO":"８之３號四樓之２","E_COORD97":170947.29000000001,"N_COORD97":2545728.0499999998,"ADDRESS":"新興街８之３號四樓之２","OBJECTID":513401},"geometry":{"x":170947.28999999911,"y":2545728.0500000026}},{"attributes":{"ID":513429,"DIS_CODE":0,"TOWNNAME":"永康區","LI":"六合里","LIN":"1鄰","STREET":"新興街","SECT":" ","MAREA":" ","LANE":" ","ALLEY":" ","HOUSE_NO":"６號三樓之３","E_COORD97":170919.37,"N_COORD97":2545737.29,"ADDRESS":"新興街６號三樓之３","OBJECTID":513402},"geometry":{"x":170919.37000000011,"y":2545737.290000001}},{"attributes":{"ID":513430,"DIS_CODE":0,"TOWNNAME":"永康區","LI":"六合里","LIN":"1鄰","STREET":"新興街","SECT":" ","MAREA":" ","LANE":" ","ALLEY":" ","HOUSE_NO":"６之１號八樓之３","E_COORD97":170932.95999999999,"N_COORD97":2545719.7999999998,"ADDRESS":"新興街６之１號八樓之３","OBJECTID":513403},"geometry":{"x":170932.96000000089,"y":2545719.8000000026}},{"attributes":{"ID":513431,"DIS_CODE":0,"TOWNNAME":"永康區","LI":"六合里","LIN":"1鄰","STREET":"新興街","SECT":" ","MAREA":" ","LANE":" ","ALLEY":" ","HOUSE_NO":"６號六樓之５","E_COORD97":170919.42999999999,"N_COORD97":2545737.29,"ADDRESS":"新興街６號六樓之５","OBJECTID":513404},"geometry":{"x":170919.43000000063,"y":2545737.290000001}},{"attributes":{"ID":513432,"DIS_CODE":0,"TOWNNAME":"永康區","LI":"六合里","LIN":"1鄰","STREET":"新興街","SECT":" ","MAREA":" ","LANE":" ","ALLEY":" ","HOUSE_NO":"６號五樓之５","E_COORD97":170919.42999999999,"N_COORD97":2545737.29,"ADDRESS":"新興街６號五樓之５","OBJECTID":513405},"geometry":{"x":170919.43000000063,"y":2545737.290000001}},{"attributes":{"ID":513433,"DIS_CODE":0,"TOWNNAME":"永康區","LI":"六合里","LIN":"1鄰","STREET":"新興街","SECT":" ","MAREA":" ","LANE":" ","ALLEY":" ","HOUSE_NO":"８號四樓之３","E_COORD97":170922.67000000001,"N_COORD97":2545756.79,"ADDRESS":"新興街８號四樓之３","OBJECTID":513406},"geometry":{"x":170922.67000000179,"y":2545756.7899999991}},{"attributes":{"ID":513434,"DIS_CODE":0,"TOWNNAME":"永康區","LI":"六合里","LIN":"1鄰","STREET":"新興街","SECT":" ","MAREA":" ","LANE":" ","ALLEY":" ","HOUSE_NO":"６號十樓之５","E_COORD97":170919.42999999999,"N_COORD97":2545737.29,"ADDRESS":"新興街６號十樓之５","OBJECTID":513407},"geometry":{"x":170919.43000000063,"y":2545737.290000001}},{"attributes":{"ID":513435,"DIS_CODE":0,"TOWNNAME":"永康區","LI":"六合里","LIN":"1鄰","STREET":"新興街","SECT":" ","MAREA":" ","LANE":" ","ALLEY":" ","HOUSE_NO":"６之１號九樓之５","E_COORD97":170933.01999999999,"N_COORD97":2545719.7999999998,"ADDRESS":"新興街６之１號九樓之５","OBJECTID":513408},"geometry":{"x":170933.01999999955,"y":2545719.8000000026}},{"attributes":{"ID":513436,"DIS_CODE":0,"TOWNNAME":"永康區","LI":"六合里","LIN":"1鄰","STREET":"新興街","SECT":" ","MAREA":" ","LANE":" ","ALLEY":" ","HOUSE_NO":"８之３號七樓之２","E_COORD97":170947.29000000001,"N_COORD97":2545728.0499999998,"ADDRESS":"新興街８之３號七樓之２","OBJECTID":513409},"geometry":{"x":170947.28999999911,"y":2545728.0500000026}},{"attributes":{"ID":513437,"DIS_CODE":0,"TOWNNAME":"永康區","LI":"六合里","LIN":"1鄰","STREET":"新興街","SECT":" ","MAREA":" ","LANE":" ","ALLEY":" ","HOUSE_NO":"８之５號三樓之３","E_COORD97":170950.91,"N_COORD97":2545708.7999999998,"ADDRESS":"新興街８之５號三樓之３","OBJECTID":513410},"geometry":{"x":170950.91000000108,"y":2545708.8000000026}},{"attributes":{"ID":513438,"DIS_CODE":0,"TOWNNAME":"永康區","LI":"六合里","LIN":"1鄰","STREET":"新興街","SECT":" ","MAREA":" ","LANE":" ","ALLEY":" ","HOUSE_NO":"６之１號十樓之３","E_COORD97":170932.95999999999,"N_COORD97":2545719.7999999998,"ADDRESS":"新興街６之１號十樓之３","OBJECTID":513411},"geometry":{"x":170932.96000000089,"y":2545719.8000000026}},{"attributes":{"ID":513439,"DIS_CODE":0,"TOWNNAME":"永康區","LI":"六合里","LIN":"1鄰","STREET":"新興街","SECT":" ","MAREA":" ","LANE":" ","ALLEY":" ","HOUSE_NO":"８號八樓之３","E_COORD97":170922.67000000001,"N_COORD97":2545756.79,"ADDRESS":"新興街８號八樓之３","OBJECTID":513412},"geometry":{"x":170922.67000000179,"y":2545756.7899999991}},{"attributes":{"ID":513440,"DIS_CODE":0,"TOWNNAME":"東區","LI":"東門里","LIN":"1鄰","STREET":"東門路","SECT":"一段","MAREA":" ","LANE":" ","ALLEY":" ","HOUSE_NO":"３號三樓","E_COORD97":169175.14999999999,"N_COORD97":2543329.8500000001,"ADDRESS":"東門路一段３號三樓","OBJECTID":513413},"geometry":{"x":169175.15000000037,"y":2543329.8500000034}},{"attributes":{"ID":513441,"DIS_CODE":0,"TOWNNAME":"東區","LI":"東門里","LIN":"1鄰","STREET":"東門路","SECT":"一段","MAREA":" ","LANE":" ","ALLEY":" ","HOUSE_NO":"３號五樓","E_COORD97":169175.14999999999,"N_COORD97":2543329.8500000001,"ADDRESS":"東門路一段３號五樓","OBJECTID":513414},"geometry":{"x":169175.15000000037,"y":2543329.8500000034}},{"attributes":{"ID":513442,"DIS_CODE":0,"TOWNNAME":"永康區","LI":"六合里","LIN":"1鄰","STREET":"新興街","SECT":" ","MAREA":" ","LANE":" ","ALLEY":" ","HOUSE_NO":"８之３號十樓之１","E_COORD97":170947.14999999999,"N_COORD97":2545728.0499999998,"ADDRESS":"新興街８之３號十樓之１","OBJECTID":513415},"geometry":{"x":170947.15000000224,"y":2545728.0500000026}},{"attributes":{"ID":513443,"DIS_CODE":0,"TOWNNAME":"永康區","LI":"六合里","LIN":"1鄰","STREET":"新興街","SECT":" ","MAREA":" ","LANE":" ","ALLEY":" ","HOUSE_NO":"８號十一樓之６","E_COORD97":170923.92999999999,"N_COORD97":2545756.79,"ADDRESS":"新興街８號十一樓之６","OBJECTID":513416},"geometry":{"x":170923.9299999997,"y":2545756.7899999991}},{"attributes":{"ID":513444,"DIS_CODE":0,"TOWNNAME":"永康區","LI":"六合里","LIN":"1鄰","STREET":"新興街","SECT":" ","MAREA":" ","LANE":" ","ALLEY":" ","HOUSE_NO":"８之５號五樓之３","E_COORD97":170950.91,"N_COORD97":2545708.7999999998,"ADDRESS":"新興街８之５號五樓之３","OBJECTID":513417},"geometry":{"x":170950.91000000108,"y":2545708.8000000026}},{"attributes":{"ID":513445,"DIS_CODE":0,"TOWNNAME":"永康區","LI":"六合里","LIN":"1鄰","STREET":"新興街","SECT":" ","MAREA":" ","LANE":" ","ALLEY":" ","HOUSE_NO":"６號五樓之６","E_COORD97":170919.38,"N_COORD97":2545737.29,"ADDRESS":"新興街６號五樓之６","OBJECTID":513418},"geometry":{"x":170919.37999999989,"y":2545737.290000001}},{"attributes":{"ID":513446,"DIS_CODE":0,"TOWNNAME":"永康區","LI":"六合里","LIN":"1鄰","STREET":"新興街","SECT":" ","MAREA":" ","LANE":" ","ALLEY":" ","HOUSE_NO":"８之３號八樓之１","E_COORD97":170947.14999999999,"N_COORD97":2545728.0499999998,"ADDRESS":"新興街８之３號八樓之１","OBJECTID":513419},"geometry":{"x":170947.15000000224,"y":2545728.0500000026}},{"attributes":{"ID":513447,"DIS_CODE":0,"TOWNNAME":"永康區","LI":"六合里","LIN":"1鄰","STREET":"新興街","SECT":" ","MAREA":" ","LANE":" ","ALLEY":" ","HOUSE_NO":"８之３號十樓之７","E_COORD97":170947.23000000001,"N_COORD97":2545728.0499999998,"ADDRESS":"新興街８之３號十樓之７","OBJECTID":513420},"geometry":{"x":170947.23000000138,"y":2545728.0500000026}},{"attributes":{"ID":513448,"DIS_CODE":0,"TOWNNAME":"永康區","LI":"六合里","LIN":"1鄰","STREET":"新興街","SECT":" ","MAREA":" ","LANE":" ","ALLEY":" ","HOUSE_NO":"８號八樓之２","E_COORD97":170922.70999999999,"N_COORD97":2545756.79,"ADDRESS":"新興街８號八樓之２","OBJECTID":513421},"geometry":{"x":170922.71000000089,"y":2545756.7899999991}},{"attributes":{"ID":513449,"DIS_CODE":0,"TOWNNAME":"永康區","LI":"六合里","LIN":"1鄰","STREET":"新興街","SECT":" ","MAREA":" ","LANE":" ","ALLEY":" ","HOUSE_NO":"８號十樓之１","E_COORD97":170922.57000000001,"N_COORD97":2545756.79,"ADDRESS":"新興街８號十樓之１","OBJECTID":513422},"geometry":{"x":170922.57000000123,"y":2545756.7899999991}},{"attributes":{"ID":513450,"DIS_CODE":0,"TOWNNAME":"永康區","LI":"六合里","LIN":"1鄰","STREET":"新興街","SECT":" ","MAREA":" ","LANE":" ","ALLEY":" ","HOUSE_NO":"６號六樓之２","E_COORD97":170919.41,"N_COORD97":2545737.29,"ADDRESS":"新興街６號六樓之２","OBJECTID":513423},"geometry":{"x":170919.41000000015,"y":2545737.290000001}},{"attributes":{"ID":513451,"DIS_CODE":0,"TOWNNAME":"永康區","LI":"六合里","LIN":"1鄰","STREET":"新興街","SECT":" ","MAREA":" ","LANE":" ","ALLEY":" ","HOUSE_NO":"８之５號八樓之５","E_COORD97":170950.97,"N_COORD97":2545708.7999999998,"ADDRESS":"新興街８之５號八樓之５","OBJECTID":513424},"geometry":{"x":170950.9700000016,"y":2545708.8000000026}},{"attributes":{"ID":513452,"DIS_CODE":0,"TOWNNAME":"永康區","LI":"六合里","LIN":"1鄰","STREET":"新興街","SECT":" ","MAREA":" ","LANE":" ","ALLEY":" ","HOUSE_NO":"８號九樓之５","E_COORD97":170922.73000000001,"N_COORD97":2545756.79,"ADDRESS":"新興街８號九樓之５","OBJECTID":513425},"geometry":{"x":170922.72999999952,"y":2545756.7899999991}},{"attributes":{"ID":513453,"DIS_CODE":0,"TOWNNAME":"永康區","LI":"六合里","LIN":"1鄰","STREET":"新興街","SECT":" ","MAREA":" ","LANE":" ","ALLEY":" ","HOUSE_NO":"８號二樓之３","E_COORD97":170922.67000000001,"N_COORD97":2545756.79,"ADDRESS":"新興街８號二樓之３","OBJECTID":513426},"geometry":{"x":170922.67000000179,"y":2545756.7899999991}},{"attributes":{"ID":513454,"DIS_CODE":0,"TOWNNAME":"永康區","LI":"六合里","LIN":"1鄰","STREET":"新興街","SECT":" ","MAREA":" ","LANE":" ","ALLEY":" ","HOUSE_NO":"６號二樓之７","E_COORD97":170919.35000000001,"N_COORD97":2545737.29,"ADDRESS":"新興街６號二樓之７","OBJECTID":513427},"geometry":{"x":170919.3499999987,"y":2545737.290000001}},{"attributes":{"ID":513455,"DIS_CODE":0,"TOWNNAME":"永康區","LI":"六合里","LIN":"1鄰","STREET":"新興街","SECT":" ","MAREA":" ","LANE":" ","ALLEY":" ","HOUSE_NO":"８之５號九樓之３","E_COORD97":170950.91,"N_COORD97":2545708.7999999998,"ADDRESS":"新興街８之５號九樓之３","OBJECTID":513428},"geometry":{"x":170950.91000000108,"y":2545708.8000000026}},{"attributes":{"ID":513456,"DIS_CODE":0,"TOWNNAME":"永康區","LI":"六合里","LIN":"1鄰","STREET":"新興街","SECT":" ","MAREA":" ","LANE":" ","ALLEY":" ","HOUSE_NO":"８之５號二樓之５","E_COORD97":170950.97,"N_COORD97":2545708.7999999998,"ADDRESS":"新興街８之５號二樓之５","OBJECTID":513429},"geometry":{"x":170950.9700000016,"y":2545708.8000000026}},{"attributes":{"ID":513457,"DIS_CODE":0,"TOWNNAME":"永康區","LI":"六合里","LIN":"1鄰","STREET":"新興街","SECT":" ","MAREA":" ","LANE":" ","ALLEY":" ","HOUSE_NO":"６之１號十樓之５","E_COORD97":170933.01999999999,"N_COORD97":2545719.7999999998,"ADDRESS":"新興街６之１號十樓之５","OBJECTID":513430},"geometry":{"x":170933.01999999955,"y":2545719.8000000026}},{"attributes":{"ID":513458,"DIS_CODE":0,"TOWNNAME":"永康區","LI":"六合里","LIN":"1鄰","STREET":"新興街","SECT":" ","MAREA":" ","LANE":" ","ALLEY":" ","HOUSE_NO":"８之３號六樓之３","E_COORD97":170947.25,"N_COORD97":2545728.0499999998,"ADDRESS":"新興街８之３號六樓之３","OBJECTID":513431},"geometry":{"x":170947.25,"y":2545728.0500000026}},{"attributes":{"ID":513459,"DIS_CODE":0,"TOWNNAME":"永康區","LI":"六合里","LIN":"1鄰","STREET":"新興街","SECT":" ","MAREA":" ","LANE":" ","ALLEY":" ","HOUSE_NO":"６之１號六樓之２","E_COORD97":170933,"N_COORD97":2545719.7999999998,"ADDRESS":"新興街６之１號六樓之２","OBJECTID":513432},"geometry":{"x":170933.00000000093,"y":2545719.8000000026}},{"attributes":{"ID":513460,"DIS_CODE":0,"TOWNNAME":"永康區","LI":"六合里","LIN":"1鄰","STREET":"新興街","SECT":" ","MAREA":" ","LANE":" ","ALLEY":" ","HOUSE_NO":"６號五樓之２","E_COORD97":170919.41,"N_COORD97":2545737.29,"ADDRESS":"新興街６號五樓之２","OBJECTID":513433},"geometry":{"x":170919.41000000015,"y":2545737.290000001}},{"attributes":{"ID":513461,"DIS_CODE":0,"TOWNNAME":"永康區","LI":"六合里","LIN":"1鄰","STREET":"新興街","SECT":" ","MAREA":" ","LANE":" ","ALLEY":" ","HOUSE_NO":"８之３號九樓之１","E_COORD97":170947.14999999999,"N_COORD97":2545728.0499999998,"ADDRESS":"新興街８之３號九樓之１","OBJECTID":513434},"geometry":{"x":170947.15000000224,"y":2545728.0500000026}},{"attributes":{"ID":513462,"DIS_CODE":0,"TOWNNAME":"永康區","LI":"六合里","LIN":"1鄰","STREET":"新興街","SECT":" ","MAREA":" ","LANE":" ","ALLEY":" ","HOUSE_NO":"８號四樓之６","E_COORD97":170922.67999999999,"N_COORD97":2545756.79,"ADDRESS":"新興街８號四樓之６","OBJECTID":513435},"geometry":{"x":170922.68000000063,"y":2545756.7899999991}},{"attributes":{"ID":513463,"DIS_CODE":0,"TOWNNAME":"永康區","LI":"六合里","LIN":"1鄰","STREET":"新興街","SECT":" ","MAREA":" ","LANE":" ","ALLEY":" ","HOUSE_NO":"８之２號十樓之７","E_COORD97":170938.85000000001,"N_COORD97":2545746.29,"ADDRESS":"新興街８之２號十樓之７","OBJECTID":513436},"geometry":{"x":170938.85000000056,"y":2545746.2899999991}},{"attributes":{"ID":513464,"DIS_CODE":0,"TOWNNAME":"永康區","LI":"六合里","LIN":"1鄰","STREET":"新興街","SECT":" ","MAREA":" ","LANE":" ","ALLEY":" ","HOUSE_NO":"８之３號四樓之６","E_COORD97":170947.26000000001,"N_COORD97":2545728.0499999998,"ADDRESS":"新興街８之３號四樓之６","OBJECTID":513437},"geometry":{"x":170947.25999999885,"y":2545728.0500000026}},{"attributes":{"ID":513465,"DIS_CODE":0,"TOWNNAME":"永康區","LI":"六合里","LIN":"1鄰","STREET":"新興街","SECT":" ","MAREA":" ","LANE":" ","ALLEY":" ","HOUSE_NO":"６號三樓之１","E_COORD97":170919.26999999999,"N_COORD97":2545737.29,"ADDRESS":"新興街６號三樓之１","OBJECTID":513438},"geometry":{"x":170919.26999999955,"y":2545737.290000001}},{"attributes":{"ID":513466,"DIS_CODE":0,"TOWNNAME":"永康區","LI":"六合里","LIN":"1鄰","STREET":"新興街","SECT":" ","MAREA":" ","LANE":" ","ALLEY":" ","HOUSE_NO":"６號三樓之７","E_COORD97":170919.35000000001,"N_COORD97":2545737.29,"ADDRESS":"新興街６號三樓之７","OBJECTID":513439},"geometry":{"x":170919.3499999987,"y":2545737.290000001}},{"attributes":{"ID":513467,"DIS_CODE":0,"TOWNNAME":"鹽水區","LI":"橋南里","LIN":" ","STREET":"月津路","SECT":" ","MAREA":" ","LANE":" ","ALLEY":" ","HOUSE_NO":"１４５號","E_COORD97":174914.98000000001,"N_COORD97":2579012.9500000002,"ADDRESS":"月津路１４５號","OBJECTID":513440},"geometry":{"x":174914.98000000231,"y":2579012.9500000011}},{"attributes":{"ID":513468,"DIS_CODE":0,"TOWNNAME":"永康區","LI":"六合里","LIN":"1鄰","STREET":"新興街","SECT":" ","MAREA":" ","LANE":" ","ALLEY":" ","HOUSE_NO":"８之５號十一樓之３","E_COORD97":170952.16,"N_COORD97":2545708.7999999998,"ADDRESS":"新興街８之５號十一樓之３","OBJECTID":513441},"geometry":{"x":170952.16000000108,"y":2545708.8000000026}},{"attributes":{"ID":513469,"DIS_CODE":0,"TOWNNAME":"永康區","LI":"六合里","LIN":"1鄰","STREET":"新興街","SECT":" ","MAREA":" ","LANE":" ","ALLEY":" ","HOUSE_NO":"６號十樓之７","E_COORD97":170919.35000000001,"N_COORD97":2545737.29,"ADDRESS":"新興街６號十樓之７","OBJECTID":513442},"geometry":{"x":170919.3499999987,"y":2545737.290000001}},{"attributes":{"ID":513470,"DIS_CODE":0,"TOWNNAME":"永康區","LI":"六合里","LIN":"1鄰","STREET":"新興街","SECT":" ","MAREA":" ","LANE":" ","ALLEY":" ","HOUSE_NO":"８之３號二樓之１","E_COORD97":170947.14999999999,"N_COORD97":2545728.0499999998,"ADDRESS":"新興街８之３號二樓之１","OBJECTID":513443},"geometry":{"x":170947.15000000224,"y":2545728.0500000026}},{"attributes":{"ID":513471,"DIS_CODE":0,"TOWNNAME":"安平區","LI":"文平里","LIN":"1鄰","STREET":"建平七街","SECT":" ","MAREA":" ","LANE":" ","ALLEY":" ","HOUSE_NO":"２３號","E_COORD97":166459.95000000001,"N_COORD97":2543195.9399999999,"ADDRESS":"建平七街２３號","OBJECTID":513444},"geometry":{"x":166459.95000000112,"y":2543195.9399999995}},{"attributes":{"ID":513472,"DIS_CODE":0,"TOWNNAME":"永康區","LI":"六合里","LIN":"1鄰","STREET":"新興街","SECT":" ","MAREA":" ","LANE":" ","ALLEY":" ","HOUSE_NO":"８之３號二樓之２","E_COORD97":170947.29000000001,"N_COORD97":2545728.0499999998,"ADDRESS":"新興街８之３號二樓之２","OBJECTID":513445},"geometry":{"x":170947.28999999911,"y":2545728.0500000026}},{"attributes":{"ID":513473,"DIS_CODE":0,"TOWNNAME":"永康區","LI":"六合里","LIN":"1鄰","STREET":"新興街","SECT":" ","MAREA":" ","LANE":" ","ALLEY":" ","HOUSE_NO":"８號二樓之２","E_COORD97":170922.70999999999,"N_COORD97":2545756.79,"ADDRESS":"新興街８號二樓之２","OBJECTID":513446},"geometry":{"x":170922.71000000089,"y":2545756.7899999991}},{"attributes":{"ID":513474,"DIS_CODE":0,"TOWNNAME":"永康區","LI":"六合里","LIN":"1鄰","STREET":"新興街","SECT":" ","MAREA":" ","LANE":" ","ALLEY":" ","HOUSE_NO":"２號七樓之３","E_COORD97":170911.95999999999,"N_COORD97":2545758.73,"ADDRESS":"新興街２號七樓之３","OBJECTID":513447},"geometry":{"x":170911.95999999996,"y":2545758.7300000004}},{"attributes":{"ID":513475,"DIS_CODE":0,"TOWNNAME":"永康區","LI":"六合里","LIN":"1鄰","STREET":"新興街","SECT":" ","MAREA":" ","LANE":" ","ALLEY":" ","HOUSE_NO":"８之２號十一樓之１","E_COORD97":170940.01999999999,"N_COORD97":2545746.29,"ADDRESS":"新興街８之２號十一樓之１","OBJECTID":513448},"geometry":{"x":170940.01999999955,"y":2545746.2899999991}},{"attributes":{"ID":513476,"DIS_CODE":0,"TOWNNAME":"永康區","LI":"六合里","LIN":"1鄰","STREET":"新興街","SECT":" ","MAREA":" ","LANE":" ","ALLEY":" ","HOUSE_NO":"６號九樓之２","E_COORD97":170919.41,"N_COORD97":2545737.29,"ADDRESS":"新興街６號九樓之２","OBJECTID":513449},"geometry":{"x":170919.41000000015,"y":2545737.290000001}},{"attributes":{"ID":513477,"DIS_CODE":0,"TOWNNAME":"永康區","LI":"六合里","LIN":"1鄰","STREET":"新興街","SECT":" ","MAREA":" ","LANE":" ","ALLEY":" ","HOUSE_NO":"８之３號六樓之２","E_COORD97":170947.29000000001,"N_COORD97":2545728.0499999998,"ADDRESS":"新興街８之３號六樓之２","OBJECTID":513450},"geometry":{"x":170947.28999999911,"y":2545728.0500000026}},{"attributes":{"ID":513478,"DIS_CODE":0,"TOWNNAME":"永康區","LI":"六合里","LIN":"1鄰","STREET":"新興街","SECT":" ","MAREA":" ","LANE":" ","ALLEY":" ","HOUSE_NO":"６號十樓之３","E_COORD97":170919.37,"N_COORD97":2545737.29,"ADDRESS":"新興街６號十樓之３","OBJECTID":513451},"geometry":{"x":170919.37000000011,"y":2545737.290000001}},{"attributes":{"ID":513479,"DIS_CODE":0,"TOWNNAME":"永康區","LI":"六合里","LIN":"1鄰","STREET":"新興街","SECT":" ","MAREA":" ","LANE":" ","ALLEY":" ","HOUSE_NO":"６號二樓之１","E_COORD97":170919.26999999999,"N_COORD97":2545737.29,"ADDRESS":"新興街６號二樓之１","OBJECTID":513452},"geometry":{"x":170919.26999999955,"y":2545737.290000001}},{"attributes":{"ID":513480,"DIS_CODE":0,"TOWNNAME":"永康區","LI":"六合里","LIN":"1鄰","STREET":"新興街","SECT":" ","MAREA":" ","LANE":" ","ALLEY":" ","HOUSE_NO":"８號九樓之２","E_COORD97":170922.70999999999,"N_COORD97":2545756.79,"ADDRESS":"新興街８號九樓之２","OBJECTID":513453},"geometry":{"x":170922.71000000089,"y":2545756.7899999991}},{"attributes":{"ID":513481,"DIS_CODE":0,"TOWNNAME":"永康區","LI":"六合里","LIN":"1鄰","STREET":"新興街","SECT":" ","MAREA":" ","LANE":" ","ALLEY":" ","HOUSE_NO":"６號三樓之６","E_COORD97":170919.38,"N_COORD97":2545737.29,"ADDRESS":"新興街６號三樓之６","OBJECTID":513454},"geometry":{"x":170919.37999999989,"y":2545737.290000001}},{"attributes":{"ID":513482,"DIS_CODE":0,"TOWNNAME":"永康區","LI":"六合里","LIN":"1鄰","STREET":"新興街","SECT":" ","MAREA":" ","LANE":" ","ALLEY":" ","HOUSE_NO":"６之１號九樓之１","E_COORD97":170932.85999999999,"N_COORD97":2545719.7999999998,"ADDRESS":"新興街６之１號九樓之１","OBJECTID":513455},"geometry":{"x":170932.86000000034,"y":2545719.8000000026}},{"attributes":{"ID":513483,"DIS_CODE":0,"TOWNNAME":"永康區","LI":"六合里","LIN":"1鄰","STREET":"新興街","SECT":" ","MAREA":" ","LANE":" ","ALLEY":" ","HOUSE_NO":"８之５號三樓之１","E_COORD97":170950.81,"N_COORD97":2545708.7999999998,"ADDRESS":"新興街８之５號三樓之１","OBJECTID":513456},"geometry":{"x":170950.81000000052,"y":2545708.8000000026}},{"attributes":{"ID":513484,"DIS_CODE":0,"TOWNNAME":"永康區","LI":"六合里","LIN":"1鄰","STREET":"新興街","SECT":" ","MAREA":" ","LANE":" ","ALLEY":" ","HOUSE_NO":"８之２號十樓之５","E_COORD97":170938.92999999999,"N_COORD97":2545746.29,"ADDRESS":"新興街８之２號十樓之５","OBJECTID":513457},"geometry":{"x":170938.9299999997,"y":2545746.2899999991}},{"attributes":{"ID":513485,"DIS_CODE":0,"TOWNNAME":"永康區","LI":"六合里","LIN":"1鄰","STREET":"新興街","SECT":" ","MAREA":" ","LANE":" ","ALLEY":" ","HOUSE_NO":"６號五樓之３","E_COORD97":170919.37,"N_COORD97":2545737.29,"ADDRESS":"新興街６號五樓之３","OBJECTID":513458},"geometry":{"x":170919.37000000011,"y":2545737.290000001}},{"attributes":{"ID":513486,"DIS_CODE":0,"TOWNNAME":"永康區","LI":"六合里","LIN":"1鄰","STREET":"新興街","SECT":" ","MAREA":" ","LANE":" ","ALLEY":" ","HOUSE_NO":"８之５號八樓之２","E_COORD97":170950.95000000001,"N_COORD97":2545708.7999999998,"ADDRESS":"新興街８之５號八樓之２","OBJECTID":513459},"geometry":{"x":170950.95000000019,"y":2545708.8000000026}},{"attributes":{"ID":513487,"DIS_CODE":0,"TOWNNAME":"永康區","LI":"六合里","LIN":"1鄰","STREET":"新興街","SECT":" ","MAREA":" ","LANE":" ","ALLEY":" ","HOUSE_NO":"８之５號九樓之１","E_COORD97":170950.81,"N_COORD97":2545708.7999999998,"ADDRESS":"新興街８之５號九樓之１","OBJECTID":513460},"geometry":{"x":170950.81000000052,"y":2545708.8000000026}},{"attributes":{"ID":513488,"DIS_CODE":0,"TOWNNAME":"永康區","LI":"六合里","LIN":"1鄰","STREET":"新興街","SECT":" ","MAREA":" ","LANE":" ","ALLEY":" ","HOUSE_NO":"８之３號十一樓之２","E_COORD97":170948.54000000001,"N_COORD97":2545728.0499999998,"ADDRESS":"新興街８之３號十一樓之２","OBJECTID":513461},"geometry":{"x":170948.54000000004,"y":2545728.0500000026}},{"attributes":{"ID":513489,"DIS_CODE":0,"TOWNNAME":"永康區","LI":"六合里","LIN":"1鄰","STREET":"新興街","SECT":" ","MAREA":" ","LANE":" ","ALLEY":" ","HOUSE_NO":"６之１號五樓之６","E_COORD97":170932.97,"N_COORD97":2545719.7999999998,"ADDRESS":"新興街６之１號五樓之６","OBJECTID":513462},"geometry":{"x":170932.97000000067,"y":2545719.8000000026}},{"attributes":{"ID":513490,"DIS_CODE":0,"TOWNNAME":"永康區","LI":"六合里","LIN":"1鄰","STREET":"新興街","SECT":" ","MAREA":" ","LANE":" ","ALLEY":" ","HOUSE_NO":"６號六樓之３","E_COORD97":170919.37,"N_COORD97":2545737.29,"ADDRESS":"新興街６號六樓之３","OBJECTID":513463},"geometry":{"x":170919.37000000011,"y":2545737.290000001}},{"attributes":{"ID":513491,"DIS_CODE":0,"TOWNNAME":"永康區","LI":"六合里","LIN":"1鄰","STREET":"新興街","SECT":" ","MAREA":" ","LANE":" ","ALLEY":" ","HOUSE_NO":"６號二樓之３","E_COORD97":170919.37,"N_COORD97":2545737.29,"ADDRESS":"新興街６號二樓之３","OBJECTID":513464},"geometry":{"x":170919.37000000011,"y":2545737.290000001}},{"attributes":{"ID":513492,"DIS_CODE":0,"TOWNNAME":"永康區","LI":"六合里","LIN":"1鄰","STREET":"新興街","SECT":" ","MAREA":" ","LANE":" ","ALLEY":" ","HOUSE_NO":"８號七樓之３","E_COORD97":170922.67000000001,"N_COORD97":2545756.79,"ADDRESS":"新興街８號七樓之３","OBJECTID":513465},"geometry":{"x":170922.67000000179,"y":2545756.7899999991}},{"attributes":{"ID":513493,"DIS_CODE":0,"TOWNNAME":"永康區","LI":"六合里","LIN":"1鄰","STREET":"新興街","SECT":" ","MAREA":" ","LANE":" ","ALLEY":" ","HOUSE_NO":"６之１號六樓之６","E_COORD97":170932.97,"N_COORD97":2545719.7999999998,"ADDRESS":"新興街６之１號六樓之６","OBJECTID":513466},"geometry":{"x":170932.97000000067,"y":2545719.8000000026}},{"attributes":{"ID":513494,"DIS_CODE":0,"TOWNNAME":"永康區","LI":"六合里","LIN":"1鄰","STREET":"新興街","SECT":" ","MAREA":" ","LANE":" ","ALLEY":" ","HOUSE_NO":"８號七樓之５","E_COORD97":170922.73000000001,"N_COORD97":2545756.79,"ADDRESS":"新興街８號七樓之５","OBJECTID":513467},"geometry":{"x":170922.72999999952,"y":2545756.7899999991}},{"attributes":{"ID":513495,"DIS_CODE":0,"TOWNNAME":"東區","LI":"東門里","LIN":"1鄰","STREET":"東門路","SECT":"一段","MAREA":" ","LANE":" ","ALLEY":" ","HOUSE_NO":"１３號二樓之１","E_COORD97":169203.67999999999,"N_COORD97":2543331.9900000002,"ADDRESS":"東門路一段１３號二樓之１","OBJECTID":513468},"geometry":{"x":169203.68000000063,"y":2543331.9900000002}},{"attributes":{"ID":513496,"DIS_CODE":0,"TOWNNAME":"東區","LI":"東門里","LIN":"1鄰","STREET":"東門路","SECT":"一段","MAREA":" ","LANE":" ","ALLEY":" ","HOUSE_NO":"１３號二樓之２","E_COORD97":169203.67999999999,"N_COORD97":2543331.9900000002,"ADDRESS":"東門路一段１３號二樓之２","OBJECTID":513469},"geometry":{"x":169203.68000000063,"y":2543331.9900000002}},{"attributes":{"ID":513497,"DIS_CODE":0,"TOWNNAME":"東區","LI":"東門里","LIN":"1鄰","STREET":"東門路","SECT":"一段","MAREA":" ","LANE":" ","ALLEY":" ","HOUSE_NO":"１３號三樓之１","E_COORD97":169203.67999999999,"N_COORD97":2543331.9900000002,"ADDRESS":"東門路一段１３號三樓之１","OBJECTID":513470},"geometry":{"x":169203.68000000063,"y":2543331.9900000002}},{"attributes":{"ID":513498,"DIS_CODE":0,"TOWNNAME":"東區","LI":"東門里","LIN":"1鄰","STREET":"東門路","SECT":"一段","MAREA":" ","LANE":" ","ALLEY":" ","HOUSE_NO":"１３號三樓之２","E_COORD97":169203.67999999999,"N_COORD97":2543331.9900000002,"ADDRESS":"東門路一段１３號三樓之２","OBJECTID":513471},"geometry":{"x":169203.68000000063,"y":2543331.9900000002}},{"attributes":{"ID":513499,"DIS_CODE":0,"TOWNNAME":"東區","LI":"東門里","LIN":"1鄰","STREET":"東門路","SECT":"一段","MAREA":" ","LANE":" ","ALLEY":" ","HOUSE_NO":"１３號五樓之１","E_COORD97":169203.67999999999,"N_COORD97":2543331.9900000002,"ADDRESS":"東門路一段１３號五樓之１","OBJECTID":513472},"geometry":{"x":169203.68000000063,"y":2543331.9900000002}},{"attributes":{"ID":513500,"DIS_CODE":0,"TOWNNAME":"東區","LI":"東門里","LIN":"1鄰","STREET":"東門路","SECT":"一段","MAREA":" ","LANE":" ","ALLEY":" ","HOUSE_NO":"１３號五樓之２","E_COORD97":169203.67999999999,"N_COORD97":2543331.9900000002,"ADDRESS":"東門路一段１３號五樓之２","OBJECTID":513473},"geometry":{"x":169203.68000000063,"y":2543331.9900000002}},{"attributes":{"ID":513501,"DIS_CODE":0,"TOWNNAME":"東區","LI":"東門里","LIN":"1鄰","STREET":"東門路","SECT":"一段","MAREA":" ","LANE":" ","ALLEY":" ","HOUSE_NO":"１３號四樓之１","E_COORD97":169203.67999999999,"N_COORD97":2543331.9900000002,"ADDRESS":"東門路一段１３號四樓之１","OBJECTID":513474},"geometry":{"x":169203.68000000063,"y":2543331.9900000002}},{"attributes":{"ID":513502,"DIS_CODE":0,"TOWNNAME":"東區","LI":"東門里","LIN":"1鄰","STREET":"東門路","SECT":"一段","MAREA":" ","LANE":" ","ALLEY":" ","HOUSE_NO":"１３號四樓之２","E_COORD97":169203.67999999999,"N_COORD97":2543331.9900000002,"ADDRESS":"東門路一段１３號四樓之２","OBJECTID":513475},"geometry":{"x":169203.68000000063,"y":2543331.9900000002}},{"attributes":{"ID":513503,"DIS_CODE":0,"TOWNNAME":"東區","LI":"東門里","LIN":"1鄰","STREET":"東門路","SECT":"一段","MAREA":" ","LANE":" ","ALLEY":" ","HOUSE_NO":"１５號二樓","E_COORD97":169201.03,"N_COORD97":2543312.3599999999,"ADDRESS":"東門路一段１５號二樓","OBJECTID":513476},"geometry":{"x":169201.03000000026,"y":2543312.3599999975}},{"attributes":{"ID":513504,"DIS_CODE":0,"TOWNNAME":"鹽水區","LI":"橋南里","LIN":" ","STREET":"仁愛路","SECT":" ","MAREA":" ","LANE":" ","ALLEY":" ","HOUSE_NO":"２２４號","E_COORD97":174158.20999999999,"N_COORD97":2579087.5600000001,"ADDRESS":"仁愛路２２４號","OBJECTID":513477},"geometry":{"x":174158.20999999996,"y":2579087.5600000042}},{"attributes":{"ID":513505,"DIS_CODE":0,"TOWNNAME":"東區","LI":"東門里","LIN":"1鄰","STREET":"東門路","SECT":"一段","MAREA":" ","LANE":" ","ALLEY":" ","HOUSE_NO":"１５號三樓","E_COORD97":169201.03,"N_COORD97":2543312.3599999999,"ADDRESS":"東門路一段１５號三樓","OBJECTID":513478},"geometry":{"x":169201.03000000026,"y":2543312.3599999975}},{"attributes":{"ID":513506,"DIS_CODE":0,"TOWNNAME":"東區","LI":"東門里","LIN":"1鄰","STREET":"東門路","SECT":"一段","MAREA":" ","LANE":" ","ALLEY":" ","HOUSE_NO":"１５號四樓","E_COORD97":169201.03,"N_COORD97":2543312.3599999999,"ADDRESS":"東門路一段１５號四樓","OBJECTID":513479},"geometry":{"x":169201.03000000026,"y":2543312.3599999975}},{"attributes":{"ID":513507,"DIS_CODE":0,"TOWNNAME":"東區","LI":"東門里","LIN":"1鄰","STREET":"東門路","SECT":"一段","MAREA":" ","LANE":" ","ALLEY":" ","HOUSE_NO":"３號二樓","E_COORD97":169175.14999999999,"N_COORD97":2543329.8500000001,"ADDRESS":"東門路一段３號二樓","OBJECTID":513480},"geometry":{"x":169175.15000000037,"y":2543329.8500000034}},{"attributes":{"ID":513508,"DIS_CODE":0,"TOWNNAME":"東區","LI":"東門里","LIN":"1鄰","STREET":"東門路","SECT":"一段","MAREA":" ","LANE":" ","ALLEY":" ","HOUSE_NO":"３號四樓","E_COORD97":169175.14999999999,"N_COORD97":2543329.8500000001,"ADDRESS":"東門路一段３號四樓","OBJECTID":513481},"geometry":{"x":169175.15000000037,"y":2543329.8500000034}},{"attributes":{"ID":513509,"DIS_CODE":0,"TOWNNAME":"永康區","LI":"六合里","LIN":"1鄰","STREET":"新興街","SECT":" ","MAREA":" ","LANE":" ","ALLEY":" ","HOUSE_NO":"６號六樓之７","E_COORD97":170919.35000000001,"N_COORD97":2545737.29,"ADDRESS":"新興街６號六樓之７","OBJECTID":513482},"geometry":{"x":170919.3499999987,"y":2545737.290000001}},{"attributes":{"ID":513510,"DIS_CODE":0,"TOWNNAME":"佳里區","LI":"建南里","LIN":"1鄰","STREET":"中山路","SECT":" ","MAREA":" ","LANE":" ","ALLEY":" ","HOUSE_NO":"３０３號二樓","E_COORD97":165691.73999999999,"N_COORD97":2562403.2799999998,"ADDRESS":"中山路３０３號二樓","OBJECTID":513483},"geometry":{"x":165691.74000000115,"y":2562403.2799999993}},{"attributes":{"ID":513511,"DIS_CODE":0,"TOWNNAME":"安南區","LI":"理想里","LIN":"1鄰","STREET":"同安路","SECT":" ","MAREA":" ","LANE":" ","ALLEY":" ","HOUSE_NO":"６０號","E_COORD97":166897.82999999999,"N_COORD97":2548874.7999999998,"ADDRESS":"同安路６０號","OBJECTID":513484},"geometry":{"x":166897.83000000101,"y":2548874.8000000045}},{"attributes":{"ID":513512,"DIS_CODE":0,"TOWNNAME":"佳里區","LI":"建南里","LIN":"1鄰","STREET":"中山路","SECT":" ","MAREA":" ","LANE":" ","ALLEY":" ","HOUSE_NO":"３０３號三樓","E_COORD97":165691.73999999999,"N_COORD97":2562403.2799999998,"ADDRESS":"中山路３０３號三樓","OBJECTID":513485},"geometry":{"x":165691.74000000115,"y":2562403.2799999993}},{"attributes":{"ID":513513,"DIS_CODE":0,"TOWNNAME":"永康區","LI":"六合里","LIN":"1鄰","STREET":"新興街","SECT":" ","MAREA":" ","LANE":" ","ALLEY":" ","HOUSE_NO":"２號九樓之２","E_COORD97":170912,"N_COORD97":2545758.73,"ADDRESS":"新興街２號九樓之２","OBJECTID":513486},"geometry":{"x":170912.00000000186,"y":2545758.7300000004}},{"attributes":{"ID":513514,"DIS_CODE":0,"TOWNNAME":"佳里區","LI":"建南里","LIN":"1鄰","STREET":"中山路","SECT":" ","MAREA":" ","LANE":" ","ALLEY":" ","HOUSE_NO":"３０３號五樓","E_COORD97":165691.73999999999,"N_COORD97":2562403.2799999998,"ADDRESS":"中山路３０３號五樓","OBJECTID":513487},"geometry":{"x":165691.74000000115,"y":2562403.2799999993}},{"attributes":{"ID":513515,"DIS_CODE":0,"TOWNNAME":"佳里區","LI":"建南里","LIN":"1鄰","STREET":"中山路","SECT":" ","MAREA":" ","LANE":" ","ALLEY":" ","HOUSE_NO":"３０３號六樓","E_COORD97":165691.73999999999,"N_COORD97":2562403.2799999998,"ADDRESS":"中山路３０３號六樓","OBJECTID":513488},"geometry":{"x":165691.74000000115,"y":2562403.2799999993}},{"attributes":{"ID":513516,"DIS_CODE":0,"TOWNNAME":"佳里區","LI":"建南里","LIN":"1鄰","STREET":"中山路","SECT":" ","MAREA":" ","LANE":" ","ALLEY":" ","HOUSE_NO":"３０３號四樓","E_COORD97":165691.73999999999,"N_COORD97":2562403.2799999998,"ADDRESS":"中山路３０３號四樓","OBJECTID":513489},"geometry":{"x":165691.74000000115,"y":2562403.2799999993}},{"attributes":{"ID":513517,"DIS_CODE":0,"TOWNNAME":"永康區","LI":"六合里","LIN":"1鄰","STREET":"新興街","SECT":" ","MAREA":" ","LANE":" ","ALLEY":" ","HOUSE_NO":"６號六樓之６","E_COORD97":170919.38,"N_COORD97":2545737.29,"ADDRESS":"新興街６號六樓之６","OBJECTID":513490},"geometry":{"x":170919.37999999989,"y":2545737.290000001}},{"attributes":{"ID":513518,"DIS_CODE":0,"TOWNNAME":"永康區","LI":"六合里","LIN":"1鄰","STREET":"新興街","SECT":" ","MAREA":" ","LANE":" ","ALLEY":" ","HOUSE_NO":"８之５號六樓之１","E_COORD97":170950.81,"N_COORD97":2545708.7999999998,"ADDRESS":"新興街８之５號六樓之１","OBJECTID":513491},"geometry":{"x":170950.81000000052,"y":2545708.8000000026}},{"attributes":{"ID":513519,"DIS_CODE":0,"TOWNNAME":"永康區","LI":"六合里","LIN":"1鄰","STREET":"新興街","SECT":" ","MAREA":" ","LANE":" ","ALLEY":" ","HOUSE_NO":"６號十樓之６","E_COORD97":170919.38,"N_COORD97":2545737.29,"ADDRESS":"新興街６號十樓之６","OBJECTID":513492},"geometry":{"x":170919.37999999989,"y":2545737.290000001}},{"attributes":{"ID":513520,"DIS_CODE":0,"TOWNNAME":"永康區","LI":"六合里","LIN":"1鄰","STREET":"新興街","SECT":" ","MAREA":" ","LANE":" ","ALLEY":" ","HOUSE_NO":"８之３號四樓之５","E_COORD97":170947.31,"N_COORD97":2545728.0499999998,"ADDRESS":"新興街８之３號四樓之５","OBJECTID":513493},"geometry":{"x":170947.31000000052,"y":2545728.0500000026}},{"attributes":{"ID":513521,"DIS_CODE":0,"TOWNNAME":"永康區","LI":"五王里","LIN":"1鄰","STREET":"成功路","SECT":" ","MAREA":" ","LANE":" ","ALLEY":" ","HOUSE_NO":"６４號六樓之１","E_COORD97":171547.16,"N_COORD97":2545487.0499999998,"ADDRESS":"成功路６４號六樓之１","OBJECTID":513494},"geometry":{"x":171547.16000000108,"y":2545487.0500000026}},{"attributes":{"ID":513522,"DIS_CODE":0,"TOWNNAME":"永康區","LI":"五王里","LIN":"1鄰","STREET":"成功路","SECT":" ","MAREA":" ","LANE":" ","ALLEY":" ","HOUSE_NO":"６４號四樓之３","E_COORD97":171547.26000000001,"N_COORD97":2545487.0499999998,"ADDRESS":"成功路６４號四樓之３","OBJECTID":513495},"geometry":{"x":171547.25999999978,"y":2545487.0500000026}},{"attributes":{"ID":513523,"DIS_CODE":0,"TOWNNAME":"永康區","LI":"六合里","LIN":"1鄰","STREET":"新興街","SECT":" ","MAREA":" ","LANE":" ","ALLEY":" ","HOUSE_NO":"６號四樓之３","E_COORD97":170919.37,"N_COORD97":2545737.29,"ADDRESS":"新興街６號四樓之３","OBJECTID":513496},"geometry":{"x":170919.37000000011,"y":2545737.290000001}},{"attributes":{"ID":513524,"DIS_CODE":0,"TOWNNAME":"永康區","LI":"西橋里","LIN":"1鄰","STREET":"中山南路","SECT":" ","MAREA":" ","LANE":" ","ALLEY":" ","HOUSE_NO":"４１號三樓","E_COORD97":170758.25,"N_COORD97":2545821.2599999998,"ADDRESS":"中山南路４１號三樓","OBJECTID":513497},"geometry":{"x":170758.25000000093,"y":2545821.2599999998}},{"attributes":{"ID":513525,"DIS_CODE":0,"TOWNNAME":"永康區","LI":"大灣里","LIN":"1鄰","STREET":"大安街","SECT":" ","MAREA":" ","LANE":" ","ALLEY":" ","HOUSE_NO":"４１８號四樓之１","E_COORD97":174639.42000000001,"N_COORD97":2545787,"ADDRESS":"大安街４１８號四樓之１","OBJECTID":513498},"geometry":{"x":174639.41999999993,"y":2545786.9999999981}},{"attributes":{"ID":513526,"DIS_CODE":0,"TOWNNAME":"永康區","LI":"六合里","LIN":"1鄰","STREET":"新興街","SECT":" ","MAREA":" ","LANE":" ","ALLEY":" ","HOUSE_NO":"８之２號八樓之２","E_COORD97":170938.91,"N_COORD97":2545746.29,"ADDRESS":"新興街８之２號八樓之２","OBJECTID":513499},"geometry":{"x":170938.91000000108,"y":2545746.2899999991}},{"attributes":{"ID":513527,"DIS_CODE":0,"TOWNNAME":"永康區","LI":"六合里","LIN":"1鄰","STREET":"新興街","SECT":" ","MAREA":" ","LANE":" ","ALLEY":" ","HOUSE_NO":"８之５號十樓之１","E_COORD97":170950.81,"N_COORD97":2545708.7999999998,"ADDRESS":"新興街８之５號十樓之１","OBJECTID":513500},"geometry":{"x":170950.81000000052,"y":2545708.8000000026}},{"attributes":{"ID":513528,"DIS_CODE":0,"TOWNNAME":"永康區","LI":"六合里","LIN":"1鄰","STREET":"新興街","SECT":" ","MAREA":" ","LANE":" ","ALLEY":" ","HOUSE_NO":"８之２號六樓之６","E_COORD97":170938.88,"N_COORD97":2545746.29,"ADDRESS":"新興街８之２號六樓之６","OBJECTID":513501},"geometry":{"x":170938.88000000082,"y":2545746.2899999991}},{"attributes":{"ID":513529,"DIS_CODE":0,"TOWNNAME":"永康區","LI":"六合里","LIN":"1鄰","STREET":"新興街","SECT":" ","MAREA":" ","LANE":" ","ALLEY":" ","HOUSE_NO":"８之２號七樓之６","E_COORD97":170938.88,"N_COORD97":2545746.29,"ADDRESS":"新興街８之２號七樓之６","OBJECTID":513502},"geometry":{"x":170938.88000000082,"y":2545746.2899999991}},{"attributes":{"ID":513530,"DIS_CODE":0,"TOWNNAME":"永康區","LI":"六合里","LIN":"1鄰","STREET":"新興街","SECT":" ","MAREA":" ","LANE":" ","ALLEY":" ","HOUSE_NO":"８之５號四樓之１","E_COORD97":170950.81,"N_COORD97":2545708.7999999998,"ADDRESS":"新興街８之５號四樓之１","OBJECTID":513503},"geometry":{"x":170950.81000000052,"y":2545708.8000000026}},{"attributes":{"ID":513531,"DIS_CODE":0,"TOWNNAME":"永康區","LI":"六合里","LIN":"1鄰","STREET":"新興街","SECT":" ","MAREA":" ","LANE":" ","ALLEY":" ","HOUSE_NO":"８之１號九樓之２","E_COORD97":170948.01000000001,"N_COORD97":2545766.79,"ADDRESS":"新興街８之１號九樓之２","OBJECTID":513504},"geometry":{"x":170948.01000000071,"y":2545766.7899999991}},{"attributes":{"ID":513532,"DIS_CODE":0,"TOWNNAME":"永康區","LI":"五王里","LIN":"1鄰","STREET":"成功路","SECT":" ","MAREA":" ","LANE":" ","ALLEY":" ","HOUSE_NO":"６０號三樓之１","E_COORD97":171546.73999999999,"N_COORD97":2545481.2999999998,"ADDRESS":"成功路６０號三樓之１","OBJECTID":513505},"geometry":{"x":171546.74000000115,"y":2545481.3000000026}},{"attributes":{"ID":513533,"DIS_CODE":0,"TOWNNAME":"永康區","LI":"六合里","LIN":"1鄰","STREET":"新興街","SECT":" ","MAREA":" ","LANE":" ","ALLEY":" ","HOUSE_NO":"８之１號四樓之３","E_COORD97":170947.97,"N_COORD97":2545766.79,"ADDRESS":"新興街８之１號四樓之３","OBJECTID":513506},"geometry":{"x":170947.97000000067,"y":2545766.7899999991}},{"attributes":{"ID":513534,"DIS_CODE":0,"TOWNNAME":"永康區","LI":"六合里","LIN":"1鄰","STREET":"新興街","SECT":" ","MAREA":" ","LANE":" ","ALLEY":" ","HOUSE_NO":"８之５號四樓之５","E_COORD97":170950.97,"N_COORD97":2545708.7999999998,"ADDRESS":"新興街８之５號四樓之５","OBJECTID":513507},"geometry":{"x":170950.9700000016,"y":2545708.8000000026}},{"attributes":{"ID":513535,"DIS_CODE":0,"TOWNNAME":"永康區","LI":"六合里","LIN":"1鄰","STREET":"新興街","SECT":" ","MAREA":" ","LANE":" ","ALLEY":" ","HOUSE_NO":"８之５號七樓之１","E_COORD97":170950.81,"N_COORD97":2545708.7999999998,"ADDRESS":"新興街８之５號七樓之１","OBJECTID":513508},"geometry":{"x":170950.81000000052,"y":2545708.8000000026}},{"attributes":{"ID":513536,"DIS_CODE":0,"TOWNNAME":"永康區","LI":"六合里","LIN":"1鄰","STREET":"新興街","SECT":" ","MAREA":" ","LANE":" ","ALLEY":" ","HOUSE_NO":"８號十樓之３","E_COORD97":170922.67000000001,"N_COORD97":2545756.79,"ADDRESS":"新興街８號十樓之３","OBJECTID":513509},"geometry":{"x":170922.67000000179,"y":2545756.7899999991}},{"attributes":{"ID":513537,"DIS_CODE":0,"TOWNNAME":"永康區","LI":"五王里","LIN":"1鄰","STREET":"成功路","SECT":" ","MAREA":" ","LANE":" ","ALLEY":" ","HOUSE_NO":"６４號七樓之２","E_COORD97":171547.29999999999,"N_COORD97":2545487.0499999998,"ADDRESS":"成功路６４號七樓之２","OBJECTID":513510},"geometry":{"x":171547.30000000168,"y":2545487.0500000026}},{"attributes":{"ID":513538,"DIS_CODE":0,"TOWNNAME":"永康區","LI":"\u25A0行里","LIN":"1鄰","STREET":"中正路","SECT":" ","MAREA":" ","LANE":" ","ALLEY":" ","HOUSE_NO":"９８６號六樓之４","E_COORD97":171936.73000000001,"N_COORD97":2549018.2999999998,"ADDRESS":"中正路９８６號六樓之４","OBJECTID":513511},"geometry":{"x":171936.73000000138,"y":2549018.3000000026}},{"attributes":{"ID":513539,"DIS_CODE":0,"TOWNNAME":"安平區","LI":"怡平里","LIN":"4鄰","STREET":"建平十七街","SECT":" ","MAREA":" ","LANE":" ","ALLEY":" ","HOUSE_NO":"２１３號","E_COORD97":165690.23999999999,"N_COORD97":2544223.0800000001,"ADDRESS":"建平十七街２１３號","OBJECTID":513512},"geometry":{"x":165690.24000000115,"y":2544223.0800000001}},{"attributes":{"ID":513540,"DIS_CODE":0,"TOWNNAME":"永康區","LI":"六合里","LIN":"1鄰","STREET":"新興街","SECT":" ","MAREA":" ","LANE":" ","ALLEY":" ","HOUSE_NO":"２號八樓之５","E_COORD97":170912.01999999999,"N_COORD97":2545758.73,"ADDRESS":"新興街２號八樓之５","OBJECTID":513513},"geometry":{"x":170912.02000000048,"y":2545758.7300000004}},{"attributes":{"ID":513541,"DIS_CODE":0,"TOWNNAME":"永康區","LI":"六合里","LIN":"1鄰","STREET":"新興街","SECT":" ","MAREA":" ","LANE":" ","ALLEY":" ","HOUSE_NO":"８之３號四樓之１","E_COORD97":170947.14999999999,"N_COORD97":2545728.0499999998,"ADDRESS":"新興街８之３號四樓之１","OBJECTID":513514},"geometry":{"x":170947.15000000224,"y":2545728.0500000026}},{"attributes":{"ID":513542,"DIS_CODE":0,"TOWNNAME":"永康區","LI":"六合里","LIN":"1鄰","STREET":"新興街","SECT":" ","MAREA":" ","LANE":" ","ALLEY":" ","HOUSE_NO":"８之３號四樓之７","E_COORD97":170947.23000000001,"N_COORD97":2545728.0499999998,"ADDRESS":"新興街８之３號四樓之７","OBJECTID":513515},"geometry":{"x":170947.23000000138,"y":2545728.0500000026}},{"attributes":{"ID":513543,"DIS_CODE":0,"TOWNNAME":"中西區","LI":"赤嵌里","LIN":"1鄰","STREET":"中山路","SECT":" ","MAREA":" ","LANE":" ","ALLEY":" ","HOUSE_NO":"１４７號九樓","E_COORD97":169026.67999999999,"N_COORD97":2544065.6800000002,"ADDRESS":"中山路１４７號九樓","OBJECTID":513516},"geometry":{"x":169026.6799999997,"y":2544065.6799999997}},{"attributes":{"ID":513544,"DIS_CODE":0,"TOWNNAME":"中西區","LI":"赤嵌里","LIN":"1鄰","STREET":"中山路","SECT":" ","MAREA":" ","LANE":" ","ALLEY":" ","HOUSE_NO":"１４７號二樓","E_COORD97":169026.67999999999,"N_COORD97":2544065.6800000002,"ADDRESS":"中山路１４７號二樓","OBJECTID":513517},"geometry":{"x":169026.6799999997,"y":2544065.6799999997}},{"attributes":{"ID":513545,"DIS_CODE":0,"TOWNNAME":"中西區","LI":"赤嵌里","LIN":"1鄰","STREET":"中山路","SECT":" ","MAREA":" ","LANE":" ","ALLEY":" ","HOUSE_NO":"１４７號八樓","E_COORD97":169026.67999999999,"N_COORD97":2544065.6800000002,"ADDRESS":"中山路１４７號八樓","OBJECTID":513518},"geometry":{"x":169026.6799999997,"y":2544065.6799999997}},{"attributes":{"ID":513546,"DIS_CODE":0,"TOWNNAME":"中西區","LI":"赤嵌里","LIN":"1鄰","STREET":"中山路","SECT":" ","MAREA":" ","LANE":" ","ALLEY":" ","HOUSE_NO":"１４７號十樓","E_COORD97":169026.67999999999,"N_COORD97":2544065.6800000002,"ADDRESS":"中山路１４７號十樓","OBJECTID":513519},"geometry":{"x":169026.6799999997,"y":2544065.6799999997}},{"attributes":{"ID":513547,"DIS_CODE":0,"TOWNNAME":"中西區","LI":"赤嵌里","LIN":"1鄰","STREET":"中山路","SECT":" ","MAREA":" ","LANE":" ","ALLEY":" ","HOUSE_NO":"１４７號三樓之１","E_COORD97":169026.67999999999,"N_COORD97":2544065.6800000002,"ADDRESS":"中山路１４７號三樓之１","OBJECTID":513520},"geometry":{"x":169026.6799999997,"y":2544065.6799999997}},{"attributes":{"ID":513548,"DIS_CODE":0,"TOWNNAME":"中西區","LI":"赤嵌里","LIN":"1鄰","STREET":"中山路","SECT":" ","MAREA":" ","LANE":" ","ALLEY":" ","HOUSE_NO":"１４７號五樓","E_COORD97":169026.67999999999,"N_COORD97":2544065.6800000002,"ADDRESS":"中山路１４７號五樓","OBJECTID":513521},"geometry":{"x":169026.6799999997,"y":2544065.6799999997}},{"attributes":{"ID":513549,"DIS_CODE":0,"TOWNNAME":"中西區","LI":"赤嵌里","LIN":"1鄰","STREET":"中山路","SECT":" ","MAREA":" ","LANE":" ","ALLEY":" ","HOUSE_NO":"１４７號六樓","E_COORD97":169026.67999999999,"N_COORD97":2544065.6800000002,"ADDRESS":"中山路１４７號六樓","OBJECTID":513522},"geometry":{"x":169026.6799999997,"y":2544065.6799999997}},{"attributes":{"ID":513550,"DIS_CODE":0,"TOWNNAME":"中西區","LI":"赤嵌里","LIN":"1鄰","STREET":"中山路","SECT":" ","MAREA":" ","LANE":" ","ALLEY":" ","HOUSE_NO":"１４７號四樓","E_COORD97":169026.67999999999,"N_COORD97":2544065.6800000002,"ADDRESS":"中山路１４７號四樓","OBJECTID":513523},"geometry":{"x":169026.6799999997,"y":2544065.6799999997}},{"attributes":{"ID":513551,"DIS_CODE":0,"TOWNNAME":"永康區","LI":"六合里","LIN":"1鄰","STREET":"新興街","SECT":" ","MAREA":" ","LANE":" ","ALLEY":" ","HOUSE_NO":"６號八樓之３","E_COORD97":170919.37,"N_COORD97":2545737.29,"ADDRESS":"新興街６號八樓之３","OBJECTID":513524},"geometry":{"x":170919.37000000011,"y":2545737.290000001}},{"attributes":{"ID":513552,"DIS_CODE":0,"TOWNNAME":"鹽水區","LI":"橋南里","LIN":" ","STREET":"月津路","SECT":" ","MAREA":" ","LANE":" ","ALLEY":" ","HOUSE_NO":"１４之１號","E_COORD97":174961.48999999999,"N_COORD97":2579505.3900000001,"ADDRESS":"月津路１４之１號","OBJECTID":513525},"geometry":{"x":174961.49000000022,"y":2579505.3900000006}},{"attributes":{"ID":513553,"DIS_CODE":0,"TOWNNAME":"永康區","LI":"六合里","LIN":"1鄰","STREET":"新興街","SECT":" ","MAREA":" ","LANE":" ","ALLEY":" ","HOUSE_NO":"２號二樓之２","E_COORD97":170912,"N_COORD97":2545758.73,"ADDRESS":"新興街２號二樓之２","OBJECTID":513526},"geometry":{"x":170912.00000000186,"y":2545758.7300000004}},{"attributes":{"ID":513554,"DIS_CODE":0,"TOWNNAME":"永康區","LI":"六合里","LIN":"1鄰","STREET":"新興街","SECT":" ","MAREA":" ","LANE":" ","ALLEY":" ","HOUSE_NO":"６之１號四樓之７","E_COORD97":170932.94,"N_COORD97":2545719.7999999998,"ADDRESS":"新興街６之１號四樓之７","OBJECTID":513527},"geometry":{"x":170932.94000000041,"y":2545719.8000000026}},{"attributes":{"ID":513555,"DIS_CODE":0,"TOWNNAME":"永康區","LI":"六合里","LIN":"1鄰","STREET":"新興街","SECT":" ","MAREA":" ","LANE":" ","ALLEY":" ","HOUSE_NO":"８之３號三樓之７","E_COORD97":170947.23000000001,"N_COORD97":2545728.0499999998,"ADDRESS":"新興街８之３號三樓之７","OBJECTID":513528},"geometry":{"x":170947.23000000138,"y":2545728.0500000026}},{"attributes":{"ID":513556,"DIS_CODE":0,"TOWNNAME":"永康區","LI":"六合里","LIN":"1鄰","STREET":"新興街","SECT":" ","MAREA":" ","LANE":" ","ALLEY":" ","HOUSE_NO":"８之３號十樓之６","E_COORD97":170947.26000000001,"N_COORD97":2545728.0499999998,"ADDRESS":"新興街８之３號十樓之６","OBJECTID":513529},"geometry":{"x":170947.25999999885,"y":2545728.0500000026}},{"attributes":{"ID":513557,"DIS_CODE":0,"TOWNNAME":"永康區","LI":"六合里","LIN":"1鄰","STREET":"新興街","SECT":" ","MAREA":" ","LANE":" ","ALLEY":" ","HOUSE_NO":"２號十三樓之５","E_COORD97":170913.26999999999,"N_COORD97":2545758.73,"ADDRESS":"新興街２號十三樓之５","OBJECTID":513530},"geometry":{"x":170913.27000000048,"y":2545758.7300000004}},{"attributes":{"ID":513558,"DIS_CODE":0,"TOWNNAME":"永康區","LI":"六合里","LIN":"1鄰","STREET":"新興街","SECT":" ","MAREA":" ","LANE":" ","ALLEY":" ","HOUSE_NO":"８之３號二樓之５","E_COORD97":170947.31,"N_COORD97":2545728.0499999998,"ADDRESS":"新興街８之３號二樓之５","OBJECTID":513531},"geometry":{"x":170947.31000000052,"y":2545728.0500000026}},{"attributes":{"ID":513559,"DIS_CODE":0,"TOWNNAME":"永康區","LI":"六合里","LIN":"1鄰","STREET":"新興街","SECT":" ","MAREA":" ","LANE":" ","ALLEY":" ","HOUSE_NO":"６號三樓之５","E_COORD97":170919.42999999999,"N_COORD97":2545737.29,"ADDRESS":"新興街６號三樓之５","OBJECTID":513532},"geometry":{"x":170919.43000000063,"y":2545737.290000001}},{"attributes":{"ID":513560,"DIS_CODE":0,"TOWNNAME":"永康區","LI":"六合里","LIN":"1鄰","STREET":"新興街","SECT":" ","MAREA":" ","LANE":" ","ALLEY":" ","HOUSE_NO":"２號十一樓之５","E_COORD97":170913.26999999999,"N_COORD97":2545758.73,"ADDRESS":"新興街２號十一樓之５","OBJECTID":513533},"geometry":{"x":170913.27000000048,"y":2545758.7300000004}},{"attributes":{"ID":513561,"DIS_CODE":0,"TOWNNAME":"南區","LI":"新生里","LIN":"1鄰","STREET":"大林路","SECT":" ","MAREA":" ","LANE":" ","ALLEY":" ","HOUSE_NO":"２號七樓之１","E_COORD97":169367.64999999999,"N_COORD97":2541886.5499999998,"ADDRESS":"大林路２號七樓之１","OBJECTID":513534},"geometry":{"x":169367.6500000013,"y":2541886.5500000026}},{"attributes":{"ID":513562,"DIS_CODE":0,"TOWNNAME":"南區","LI":"新生里","LIN":"1鄰","STREET":"大林路","SECT":" ","MAREA":" ","LANE":" ","ALLEY":" ","HOUSE_NO":"２號四樓之１","E_COORD97":169367.64999999999,"N_COORD97":2541886.5499999998,"ADDRESS":"大林路２號四樓之１","OBJECTID":513535},"geometry":{"x":169367.6500000013,"y":2541886.5500000026}},{"attributes":{"ID":513563,"DIS_CODE":0,"TOWNNAME":"南區","LI":"新生里","LIN":"1鄰","STREET":"大林路","SECT":" ","MAREA":" ","LANE":" ","ALLEY":" ","HOUSE_NO":"２號四樓之２","E_COORD97":169367.64999999999,"N_COORD97":2541886.5499999998,"ADDRESS":"大林路２號四樓之２","OBJECTID":513536},"geometry":{"x":169367.6500000013,"y":2541886.5500000026}},{"attributes":{"ID":513564,"DIS_CODE":0,"TOWNNAME":"南區","LI":"新生里","LIN":"1鄰","STREET":"大林路","SECT":" ","MAREA":" ","LANE":" ","ALLEY":" ","HOUSE_NO":"２號四樓之３","E_COORD97":169367.64999999999,"N_COORD97":2541886.5499999998,"ADDRESS":"大林路２號四樓之３","OBJECTID":513537},"geometry":{"x":169367.6500000013,"y":2541886.5500000026}},{"attributes":{"ID":513565,"DIS_CODE":0,"TOWNNAME":"南區","LI":"新生里","LIN":"1鄰","STREET":"大林路","SECT":" ","MAREA":" ","LANE":" ","ALLEY":" ","HOUSE_NO":"２號十樓之３","E_COORD97":169367.64999999999,"N_COORD97":2541886.5499999998,"ADDRESS":"大林路２號十樓之３","OBJECTID":513538},"geometry":{"x":169367.6500000013,"y":2541886.5500000026}},{"attributes":{"ID":513566,"DIS_CODE":0,"TOWNNAME":"永康區","LI":"六合里","LIN":"1鄰","STREET":"新興街","SECT":" ","MAREA":" ","LANE":" ","ALLEY":" ","HOUSE_NO":"２號七樓之２","E_COORD97":170912,"N_COORD97":2545758.73,"ADDRESS":"新興街２號七樓之２","OBJECTID":513539},"geometry":{"x":170912.00000000186,"y":2545758.7300000004}},{"attributes":{"ID":513567,"DIS_CODE":0,"TOWNNAME":"永康區","LI":"六合里","LIN":"1鄰","STREET":"新興街","SECT":" ","MAREA":" ","LANE":" ","ALLEY":" ","HOUSE_NO":"２號四樓之５","E_COORD97":170912.01999999999,"N_COORD97":2545758.73,"ADDRESS":"新興街２號四樓之５","OBJECTID":513540},"geometry":{"x":170912.02000000048,"y":2545758.7300000004}},{"attributes":{"ID":513568,"DIS_CODE":0,"TOWNNAME":"永康區","LI":"六合里","LIN":"1鄰","STREET":"新興街","SECT":" ","MAREA":" ","LANE":" ","ALLEY":" ","HOUSE_NO":"６號九樓之３","E_COORD97":170919.37,"N_COORD97":2545737.29,"ADDRESS":"新興街６號九樓之３","OBJECTID":513541},"geometry":{"x":170919.37000000011,"y":2545737.290000001}},{"attributes":{"ID":513569,"DIS_CODE":0,"TOWNNAME":"南區","LI":"新生里","LIN":"1鄰","STREET":"大林路","SECT":" ","MAREA":" ","LANE":" ","ALLEY":" ","HOUSE_NO":"２號十樓之２","E_COORD97":169367.64999999999,"N_COORD97":2541886.5499999998,"ADDRESS":"大林路２號十樓之２","OBJECTID":513542},"geometry":{"x":169367.6500000013,"y":2541886.5500000026}},{"attributes":{"ID":513570,"DIS_CODE":0,"TOWNNAME":"永康區","LI":"六合里","LIN":"1鄰","STREET":"新興街","SECT":" ","MAREA":" ","LANE":" ","ALLEY":" ","HOUSE_NO":"６號五樓之１","E_COORD97":170919.26999999999,"N_COORD97":2545737.29,"ADDRESS":"新興街６號五樓之１","OBJECTID":513543},"geometry":{"x":170919.26999999955,"y":2545737.290000001}},{"attributes":{"ID":513571,"DIS_CODE":0,"TOWNNAME":"永康區","LI":"六合里","LIN":"1鄰","STREET":"新興街","SECT":" ","MAREA":" ","LANE":" ","ALLEY":" ","HOUSE_NO":"２號八樓之２","E_COORD97":170912,"N_COORD97":2545758.73,"ADDRESS":"新興街２號八樓之２","OBJECTID":513544},"geometry":{"x":170912.00000000186,"y":2545758.7300000004}},{"attributes":{"ID":513572,"DIS_CODE":0,"TOWNNAME":"永康區","LI":"六合里","LIN":"1鄰","STREET":"新興街","SECT":" ","MAREA":" ","LANE":" ","ALLEY":" ","HOUSE_NO":"６號七樓之６","E_COORD97":170919.38,"N_COORD97":2545737.29,"ADDRESS":"新興街６號七樓之６","OBJECTID":513545},"geometry":{"x":170919.37999999989,"y":2545737.290000001}},{"attributes":{"ID":513573,"DIS_CODE":0,"TOWNNAME":"永康區","LI":"六合里","LIN":"1鄰","STREET":"新興街","SECT":" ","MAREA":" ","LANE":" ","ALLEY":" ","HOUSE_NO":"６號七樓之１","E_COORD97":170919.26999999999,"N_COORD97":2545737.29,"ADDRESS":"新興街６號七樓之１","OBJECTID":513546},"geometry":{"x":170919.26999999955,"y":2545737.290000001}},{"attributes":{"ID":513574,"DIS_CODE":0,"TOWNNAME":"永康區","LI":"六合里","LIN":"1鄰","STREET":"新興街","SECT":" ","MAREA":" ","LANE":" ","ALLEY":" ","HOUSE_NO":"２號九樓之３","E_COORD97":170911.95999999999,"N_COORD97":2545758.73,"ADDRESS":"新興街２號九樓之３","OBJECTID":513547},"geometry":{"x":170911.95999999996,"y":2545758.7300000004}},{"attributes":{"ID":513575,"DIS_CODE":0,"TOWNNAME":"永康區","LI":"六合里","LIN":"1鄰","STREET":"新興街","SECT":" ","MAREA":" ","LANE":" ","ALLEY":" ","HOUSE_NO":"２號四樓之３","E_COORD97":170911.95999999999,"N_COORD97":2545758.73,"ADDRESS":"新興街２號四樓之３","OBJECTID":513548},"geometry":{"x":170911.95999999996,"y":2545758.7300000004}},{"attributes":{"ID":513576,"DIS_CODE":0,"TOWNNAME":"安平區","LI":"華平里","LIN":"1鄰","STREET":"慶平路","SECT":" ","MAREA":" ","LANE":" ","ALLEY":" ","HOUSE_NO":"４９９號","E_COORD97":165209.25,"N_COORD97":2544191.23,"ADDRESS":"慶平路４９９號","OBJECTID":513549},"geometry":{"x":165209.25,"y":2544191.2300000004}},{"attributes":{"ID":513577,"DIS_CODE":0,"TOWNNAME":"安平區","LI":"華平里","LIN":"1鄰","STREET":"慶平路","SECT":" ","MAREA":" ","LANE":" ","ALLEY":" ","HOUSE_NO":"５０１號","E_COORD97":165201.91,"N_COORD97":2544194.9300000002,"ADDRESS":"慶平路５０１號","OBJECTID":513550},"geometry":{"x":165201.91000000108,"y":2544194.9300000016}},{"attributes":{"ID":513578,"DIS_CODE":0,"TOWNNAME":"安平區","LI":"華平里","LIN":"1鄰","STREET":"慶平路","SECT":" ","MAREA":" ","LANE":" ","ALLEY":" ","HOUSE_NO":"５０３號","E_COORD97":165190.42999999999,"N_COORD97":2544196.3300000001,"ADDRESS":"慶平路５０３號","OBJECTID":513551},"geometry":{"x":165190.4299999997,"y":2544196.3300000019}},{"attributes":{"ID":513579,"DIS_CODE":0,"TOWNNAME":"安平區","LI":"華平里","LIN":"1鄰","STREET":"慶平路","SECT":" ","MAREA":" ","LANE":" ","ALLEY":" ","HOUSE_NO":"５０５號","E_COORD97":165182.57999999999,"N_COORD97":2544197.5099999998,"ADDRESS":"慶平路５０５號","OBJECTID":513552},"geometry":{"x":165182.58000000101,"y":2544197.5100000016}},{"attributes":{"ID":513580,"DIS_CODE":0,"TOWNNAME":"安平區","LI":"華平里","LIN":"1鄰","STREET":"慶平路","SECT":" ","MAREA":" ","LANE":" ","ALLEY":" ","HOUSE_NO":"５０９號","E_COORD97":165169.95000000001,"N_COORD97":2544199.5600000001,"ADDRESS":"慶平路５０９號","OBJECTID":513553},"geometry":{"x":165169.95000000112,"y":2544199.5600000005}},{"attributes":{"ID":513581,"DIS_CODE":0,"TOWNNAME":"安平區","LI":"華平里","LIN":"1鄰","STREET":"慶平路","SECT":" ","MAREA":" ","LANE":" ","ALLEY":" ","HOUSE_NO":"５１３號","E_COORD97":165154.79999999999,"N_COORD97":2544202.29,"ADDRESS":"慶平路５１３號","OBJECTID":513554},"geometry":{"x":165154.80000000075,"y":2544202.290000001}},{"attributes":{"ID":513582,"DIS_CODE":0,"TOWNNAME":"安平區","LI":"華平里","LIN":"1鄰","STREET":"慶平路","SECT":" ","MAREA":" ","LANE":" ","ALLEY":" ","HOUSE_NO":"５１５號","E_COORD97":165148.42000000001,"N_COORD97":2544202.9100000001,"ADDRESS":"慶平路５１５號","OBJECTID":513555},"geometry":{"x":165148.41999999993,"y":2544202.910000002}},{"attributes":{"ID":513583,"DIS_CODE":0,"TOWNNAME":"安平區","LI":"華平里","LIN":"1鄰","STREET":"慶平路","SECT":" ","MAREA":" ","LANE":" ","ALLEY":" ","HOUSE_NO":"５１７號","E_COORD97":165144.01000000001,"N_COORD97":2544201.4700000002,"ADDRESS":"慶平路５１７號","OBJECTID":513556},"geometry":{"x":165144.00999999978,"y":2544201.4700000044}},{"attributes":{"ID":513584,"DIS_CODE":0,"TOWNNAME":"安平區","LI":"建平里","LIN":"1鄰","STREET":"建平十七街","SECT":" ","MAREA":" ","LANE":" ","ALLEY":" ","HOUSE_NO":"３１號","E_COORD97":166285.63,"N_COORD97":2544212.4500000002,"ADDRESS":"建平十七街３１號","OBJECTID":513557},"geometry":{"x":166285.63000000082,"y":2544212.4499999993}},{"attributes":{"ID":513585,"DIS_CODE":0,"TOWNNAME":"永康區","LI":"六合里","LIN":"1鄰","STREET":"新興街","SECT":" ","MAREA":" ","LANE":" ","ALLEY":" ","HOUSE_NO":"６號十一樓之２","E_COORD97":170920.66,"N_COORD97":2545737.29,"ADDRESS":"新興街６號十一樓之２","OBJECTID":513558},"geometry":{"x":170920.66000000015,"y":2545737.290000001}},{"attributes":{"ID":513586,"DIS_CODE":0,"TOWNNAME":"永康區","LI":"六合里","LIN":"1鄰","STREET":"新興街","SECT":" ","MAREA":" ","LANE":" ","ALLEY":" ","HOUSE_NO":"６號十一樓之５","E_COORD97":170920.67999999999,"N_COORD97":2545737.29,"ADDRESS":"新興街６號十一樓之５","OBJECTID":513559},"geometry":{"x":170920.68000000156,"y":2545737.290000001}},{"attributes":{"ID":513587,"DIS_CODE":0,"TOWNNAME":"永康區","LI":"六合里","LIN":"1鄰","STREET":"新興街","SECT":" ","MAREA":" ","LANE":" ","ALLEY":" ","HOUSE_NO":"２號九樓之５","E_COORD97":170912.01999999999,"N_COORD97":2545758.73,"ADDRESS":"新興街２號九樓之５","OBJECTID":513560},"geometry":{"x":170912.02000000048,"y":2545758.7300000004}},{"attributes":{"ID":513588,"DIS_CODE":0,"TOWNNAME":"永康區","LI":"六合里","LIN":"1鄰","STREET":"新興街","SECT":" ","MAREA":" ","LANE":" ","ALLEY":" ","HOUSE_NO":"２號十一樓之３","E_COORD97":170913.20999999999,"N_COORD97":2545758.73,"ADDRESS":"新興街２號十一樓之３","OBJECTID":513561},"geometry":{"x":170913.20999999996,"y":2545758.7300000004}},{"attributes":{"ID":513589,"DIS_CODE":0,"TOWNNAME":"永康區","LI":"六合里","LIN":"1鄰","STREET":"新興街","SECT":" ","MAREA":" ","LANE":" ","ALLEY":" ","HOUSE_NO":"６號十樓之２","E_COORD97":170919.41,"N_COORD97":2545737.29,"ADDRESS":"新興街６號十樓之２","OBJECTID":513562},"geometry":{"x":170919.41000000015,"y":2545737.290000001}},{"attributes":{"ID":513590,"DIS_CODE":0,"TOWNNAME":"東區","LI":"崇文里","LIN":"1鄰","STREET":"崇德十五街","SECT":" ","MAREA":" ","LANE":" ","ALLEY":" ","HOUSE_NO":"４８號七樓","E_COORD97":170972.60000000001,"N_COORD97":2541170,"ADDRESS":"崇德十五街４８號七樓","OBJECTID":513563},"geometry":{"x":170972.60000000056,"y":2541170.0000000019}},{"attributes":{"ID":513591,"DIS_CODE":0,"TOWNNAME":"東區","LI":"崇文里","LIN":"1鄰","STREET":"崇德十五街","SECT":" ","MAREA":" ","LANE":" ","ALLEY":" ","HOUSE_NO":"４８號七樓之１","E_COORD97":170972.60000000001,"N_COORD97":2541170,"ADDRESS":"崇德十五街４８號七樓之１","OBJECTID":513564},"geometry":{"x":170972.60000000056,"y":2541170.0000000019}},{"attributes":{"ID":513592,"DIS_CODE":0,"TOWNNAME":"東區","LI":"崇文里","LIN":"1鄰","STREET":"崇德十五街","SECT":" ","MAREA":" ","LANE":" ","ALLEY":" ","HOUSE_NO":"４８號七樓之２","E_COORD97":170972.60000000001,"N_COORD97":2541170,"ADDRESS":"崇德十五街４８號七樓之２","OBJECTID":513565},"geometry":{"x":170972.60000000056,"y":2541170.0000000019}},{"attributes":{"ID":513593,"DIS_CODE":0,"TOWNNAME":"東區","LI":"崇文里","LIN":"1鄰","STREET":"崇德十五街","SECT":" ","MAREA":" ","LANE":" ","ALLEY":" ","HOUSE_NO":"４８號三樓","E_COORD97":170972.60000000001,"N_COORD97":2541170,"ADDRESS":"崇德十五街４８號三樓","OBJECTID":513566},"geometry":{"x":170972.60000000056,"y":2541170.0000000019}},{"attributes":{"ID":513594,"DIS_CODE":0,"TOWNNAME":"東區","LI":"崇文里","LIN":"1鄰","STREET":"崇德十五街","SECT":" ","MAREA":" ","LANE":" ","ALLEY":" ","HOUSE_NO":"４８號三樓之１","E_COORD97":170972.60000000001,"N_COORD97":2541170,"ADDRESS":"崇德十五街４８號三樓之１","OBJECTID":513567},"geometry":{"x":170972.60000000056,"y":2541170.0000000019}},{"attributes":{"ID":513595,"DIS_CODE":0,"TOWNNAME":"東區","LI":"崇文里","LIN":"1鄰","STREET":"崇德十五街","SECT":" ","MAREA":" ","LANE":" ","ALLEY":" ","HOUSE_NO":"４８號三樓之２","E_COORD97":170972.60000000001,"N_COORD97":2541170,"ADDRESS":"崇德十五街４８號三樓之２","OBJECTID":513568},"geometry":{"x":170972.60000000056,"y":2541170.0000000019}},{"attributes":{"ID":513596,"DIS_CODE":0,"TOWNNAME":"東區","LI":"崇文里","LIN":"1鄰","STREET":"崇德十五街","SECT":" ","MAREA":" ","LANE":" ","ALLEY":" ","HOUSE_NO":"４８號五樓","E_COORD97":170972.60000000001,"N_COORD97":2541170,"ADDRESS":"崇德十五街４８號五樓","OBJECTID":513569},"geometry":{"x":170972.60000000056,"y":2541170.0000000019}},{"attributes":{"ID":513597,"DIS_CODE":0,"TOWNNAME":"東區","LI":"崇文里","LIN":"1鄰","STREET":"崇德十五街","SECT":" ","MAREA":" ","LANE":" ","ALLEY":" ","HOUSE_NO":"４８號五樓之１","E_COORD97":170972.60000000001,"N_COORD97":2541170,"ADDRESS":"崇德十五街４８號五樓之１","OBJECTID":513570},"geometry":{"x":170972.60000000056,"y":2541170.0000000019}},{"attributes":{"ID":513598,"DIS_CODE":0,"TOWNNAME":"東區","LI":"崇文里","LIN":"1鄰","STREET":"崇德十五街","SECT":" ","MAREA":" ","LANE":" ","ALLEY":" ","HOUSE_NO":"４８號五樓之２","E_COORD97":170972.60000000001,"N_COORD97":2541170,"ADDRESS":"崇德十五街４８號五樓之２","OBJECTID":513571},"geometry":{"x":170972.60000000056,"y":2541170.0000000019}},{"attributes":{"ID":513599,"DIS_CODE":0,"TOWNNAME":"東區","LI":"崇文里","LIN":"1鄰","STREET":"崇德十五街","SECT":" ","MAREA":" ","LANE":" ","ALLEY":" ","HOUSE_NO":"４８號六樓","E_COORD97":170972.60000000001,"N_COORD97":2541170,"ADDRESS":"崇德十五街４８號六樓","OBJECTID":513572},"geometry":{"x":170972.60000000056,"y":2541170.0000000019}},{"attributes":{"ID":513600,"DIS_CODE":0,"TOWNNAME":"東區","LI":"崇文里","LIN":"1鄰","STREET":"崇德十五街","SECT":" ","MAREA":" ","LANE":" ","ALLEY":" ","HOUSE_NO":"４８號六樓之１","E_COORD97":170972.60000000001,"N_COORD97":2541170,"ADDRESS":"崇德十五街４８號六樓之１","OBJECTID":513573},"geometry":{"x":170972.60000000056,"y":2541170.0000000019}},{"attributes":{"ID":513601,"DIS_CODE":0,"TOWNNAME":"東區","LI":"崇文里","LIN":"1鄰","STREET":"崇德十五街","SECT":" ","MAREA":" ","LANE":" ","ALLEY":" ","HOUSE_NO":"４８號六樓之２","E_COORD97":170972.60000000001,"N_COORD97":2541170,"ADDRESS":"崇德十五街４８號六樓之２","OBJECTID":513574},"geometry":{"x":170972.60000000056,"y":2541170.0000000019}},{"attributes":{"ID":513602,"DIS_CODE":0,"TOWNNAME":"東區","LI":"崇文里","LIN":"1鄰","STREET":"崇德十五街","SECT":" ","MAREA":" ","LANE":" ","ALLEY":" ","HOUSE_NO":"４８號四樓","E_COORD97":170972.60000000001,"N_COORD97":2541170,"ADDRESS":"崇德十五街４８號四樓","OBJECTID":513575},"geometry":{"x":170972.60000000056,"y":2541170.0000000019}},{"attributes":{"ID":513603,"DIS_CODE":0,"TOWNNAME":"安平區","LI":"建平里","LIN":"1鄰","STREET":"建平十七街","SECT":" ","MAREA":" ","LANE":" ","ALLEY":" ","HOUSE_NO":"３１號地下一層","E_COORD97":166285.63,"N_COORD97":2544212.4500000002,"ADDRESS":"建平十七街３１號地下一層","OBJECTID":513576},"geometry":{"x":166285.63000000082,"y":2544212.4499999993}},{"attributes":{"ID":513604,"DIS_CODE":0,"TOWNNAME":"安平區","LI":"建平里","LIN":"1鄰","STREET":"建平十七街","SECT":" ","MAREA":" ","LANE":" ","ALLEY":" ","HOUSE_NO":"３１號地下二層","E_COORD97":166285.63,"N_COORD97":2544212.4500000002,"ADDRESS":"建平十七街３１號地下二層","OBJECTID":513577},"geometry":{"x":166285.63000000082,"y":2544212.4499999993}},{"attributes":{"ID":513605,"DIS_CODE":0,"TOWNNAME":"安平區","LI":"建平里","LIN":"1鄰","STREET":"建平十七街","SECT":" ","MAREA":" ","LANE":" ","ALLEY":" ","HOUSE_NO":"３１號地下三層","E_COORD97":166285.63,"N_COORD97":2544212.4500000002,"ADDRESS":"建平十七街３１號地下三層","OBJECTID":513578},"geometry":{"x":166285.63000000082,"y":2544212.4499999993}},{"attributes":{"ID":513606,"DIS_CODE":0,"TOWNNAME":"安平區","LI":"建平里","LIN":"1鄰","STREET":"建平十七街","SECT":" ","MAREA":" ","LANE":" ","ALLEY":" ","HOUSE_NO":"３３號","E_COORD97":166259.04999999999,"N_COORD97":2544213.9199999999,"ADDRESS":"建平十七街３３號","OBJECTID":513579},"geometry":{"x":166259.05000000075,"y":2544213.9199999999}},{"attributes":{"ID":513607,"DIS_CODE":0,"TOWNNAME":"東區","LI":"崇文里","LIN":"1鄰","STREET":"崇德十五街","SECT":" ","MAREA":" ","LANE":" ","ALLEY":" ","HOUSE_NO":"４８號四樓之１","E_COORD97":170972.60000000001,"N_COORD97":2541170,"ADDRESS":"崇德十五街４８號四樓之１","OBJECTID":513580},"geometry":{"x":170972.60000000056,"y":2541170.0000000019}},{"attributes":{"ID":513608,"DIS_CODE":0,"TOWNNAME":"東區","LI":"崇文里","LIN":"1鄰","STREET":"崇德十五街","SECT":" ","MAREA":" ","LANE":" ","ALLEY":" ","HOUSE_NO":"４８號四樓之２","E_COORD97":170972.60000000001,"N_COORD97":2541170,"ADDRESS":"崇德十五街４８號四樓之２","OBJECTID":513581},"geometry":{"x":170972.60000000056,"y":2541170.0000000019}},{"attributes":{"ID":513609,"DIS_CODE":0,"TOWNNAME":"東區","LI":"崇文里","LIN":"1鄰","STREET":"崇德十五街","SECT":" ","MAREA":" ","LANE":" ","ALLEY":" ","HOUSE_NO":"５２號二樓","E_COORD97":170961.45000000001,"N_COORD97":2541162.9399999999,"ADDRESS":"崇德十五街５２號二樓","OBJECTID":513582},"geometry":{"x":170961.45000000019,"y":2541162.9400000013}},{"attributes":{"ID":513610,"DIS_CODE":0,"TOWNNAME":"東區","LI":"崇文里","LIN":"1鄰","STREET":"崇德十五街","SECT":" ","MAREA":" ","LANE":" ","ALLEY":" ","HOUSE_NO":"５４號二樓","E_COORD97":170983.73999999999,"N_COORD97":2541162.3399999999,"ADDRESS":"崇德十五街５４號二樓","OBJECTID":513583},"geometry":{"x":170983.74000000115,"y":2541162.3399999999}},{"attributes":{"ID":513611,"DIS_CODE":0,"TOWNNAME":"東區","LI":"崇文里","LIN":"1鄰","STREET":"崇德十五街","SECT":" ","MAREA":" ","LANE":" ","ALLEY":" ","HOUSE_NO":"７６號七樓","E_COORD97":171025.92999999999,"N_COORD97":2541167.1099999999,"ADDRESS":"崇德十五街７６號七樓","OBJECTID":513584},"geometry":{"x":171025.93000000063,"y":2541167.1099999994}},{"attributes":{"ID":513612,"DIS_CODE":0,"TOWNNAME":"東區","LI":"崇文里","LIN":"1鄰","STREET":"崇德十五街","SECT":" ","MAREA":" ","LANE":" ","ALLEY":" ","HOUSE_NO":"７６號五樓","E_COORD97":171025.92999999999,"N_COORD97":2541167.1099999999,"ADDRESS":"崇德十五街７６號五樓","OBJECTID":513585},"geometry":{"x":171025.93000000063,"y":2541167.1099999994}},{"attributes":{"ID":513613,"DIS_CODE":0,"TOWNNAME":"東區","LI":"崇文里","LIN":"1鄰","STREET":"崇德十五街","SECT":" ","MAREA":" ","LANE":" ","ALLEY":" ","HOUSE_NO":"７６號六樓","E_COORD97":171025.92999999999,"N_COORD97":2541167.1099999999,"ADDRESS":"崇德十五街７６號六樓","OBJECTID":513586},"geometry":{"x":171025.93000000063,"y":2541167.1099999994}},{"attributes":{"ID":513614,"DIS_CODE":0,"TOWNNAME":"東區","LI":"崇文里","LIN":"1鄰","STREET":"崇德十五街","SECT":" ","MAREA":" ","LANE":" ","ALLEY":" ","HOUSE_NO":"７６號四樓","E_COORD97":171025.92999999999,"N_COORD97":2541167.1099999999,"ADDRESS":"崇德十五街７６號四樓","OBJECTID":513587},"geometry":{"x":171025.93000000063,"y":2541167.1099999994}},{"attributes":{"ID":513615,"DIS_CODE":0,"TOWNNAME":"東區","LI":"崇文里","LIN":"1鄰","STREET":"崇德十五街","SECT":" ","MAREA":" ","LANE":" ","ALLEY":" ","HOUSE_NO":"７６號四樓之１","E_COORD97":171025.92999999999,"N_COORD97":2541167.1099999999,"ADDRESS":"崇德十五街７６號四樓之１","OBJECTID":513588},"geometry":{"x":171025.93000000063,"y":2541167.1099999994}},{"attributes":{"ID":513616,"DIS_CODE":0,"TOWNNAME":"東區","LI":"崇文里","LIN":"1鄰","STREET":"崇德十五街","SECT":" ","MAREA":" ","LANE":" ","ALLEY":" ","HOUSE_NO":"７８號七樓","E_COORD97":171024.73000000001,"N_COORD97":2541179.0499999998,"ADDRESS":"崇德十五街７８號七樓","OBJECTID":513589},"geometry":{"x":171024.73000000138,"y":2541179.0500000007}},{"attributes":{"ID":513617,"DIS_CODE":0,"TOWNNAME":"東區","LI":"崇文里","LIN":"1鄰","STREET":"崇德十五街","SECT":" ","MAREA":" ","LANE":" ","ALLEY":" ","HOUSE_NO":"７８號二樓","E_COORD97":171024.73000000001,"N_COORD97":2541179.0499999998,"ADDRESS":"崇德十五街７８號二樓","OBJECTID":513590},"geometry":{"x":171024.73000000138,"y":2541179.0500000007}},{"attributes":{"ID":513618,"DIS_CODE":0,"TOWNNAME":"東區","LI":"崇文里","LIN":"1鄰","STREET":"崇德十五街","SECT":" ","MAREA":" ","LANE":" ","ALLEY":" ","HOUSE_NO":"７８號三樓","E_COORD97":171024.73000000001,"N_COORD97":2541179.0499999998,"ADDRESS":"崇德十五街７８號三樓","OBJECTID":513591},"geometry":{"x":171024.73000000138,"y":2541179.0500000007}},{"attributes":{"ID":513619,"DIS_CODE":0,"TOWNNAME":"東區","LI":"崇文里","LIN":"1鄰","STREET":"崇德十五街","SECT":" ","MAREA":" ","LANE":" ","ALLEY":" ","HOUSE_NO":"７８號五樓","E_COORD97":171024.73000000001,"N_COORD97":2541179.0499999998,"ADDRESS":"崇德十五街７８號五樓","OBJECTID":513592},"geometry":{"x":171024.73000000138,"y":2541179.0500000007}},{"attributes":{"ID":513620,"DIS_CODE":0,"TOWNNAME":"東區","LI":"崇文里","LIN":"1鄰","STREET":"崇德十五街","SECT":" ","MAREA":" ","LANE":" ","ALLEY":" ","HOUSE_NO":"７８號六樓","E_COORD97":171024.73000000001,"N_COORD97":2541179.0499999998,"ADDRESS":"崇德十五街７８號六樓","OBJECTID":513593},"geometry":{"x":171024.73000000138,"y":2541179.0500000007}},{"attributes":{"ID":513621,"DIS_CODE":0,"TOWNNAME":"東區","LI":"崇文里","LIN":"1鄰","STREET":"崇德十五街","SECT":" ","MAREA":" ","LANE":" ","ALLEY":" ","HOUSE_NO":"７８號四樓","E_COORD97":171024.73000000001,"N_COORD97":2541179.0499999998,"ADDRESS":"崇德十五街７８號四樓","OBJECTID":513594},"geometry":{"x":171024.73000000138,"y":2541179.0500000007}},{"attributes":{"ID":513622,"DIS_CODE":0,"TOWNNAME":"南區","LI":"新生里","LIN":"1鄰","STREET":"大林路","SECT":" ","MAREA":" ","LANE":" ","ALLEY":" ","HOUSE_NO":"２號十樓之５","E_COORD97":169367.64999999999,"N_COORD97":2541886.5499999998,"ADDRESS":"大林路２號十樓之５","OBJECTID":513595},"geometry":{"x":169367.6500000013,"y":2541886.5500000026}},{"attributes":{"ID":513623,"DIS_CODE":0,"TOWNNAME":"南區","LI":"新生里","LIN":"1鄰","STREET":"大林路","SECT":" ","MAREA":" ","LANE":" ","ALLEY":" ","HOUSE_NO":"２號九樓之１","E_COORD97":169367.64999999999,"N_COORD97":2541886.5499999998,"ADDRESS":"大林路２號九樓之１","OBJECTID":513596},"geometry":{"x":169367.6500000013,"y":2541886.5500000026}},{"attributes":{"ID":513624,"DIS_CODE":0,"TOWNNAME":"南區","LI":"新生里","LIN":"1鄰","STREET":"大林路","SECT":" ","MAREA":" ","LANE":" ","ALLEY":" ","HOUSE_NO":"２號九樓之５","E_COORD97":169367.64999999999,"N_COORD97":2541886.5499999998,"ADDRESS":"大林路２號九樓之５","OBJECTID":513597},"geometry":{"x":169367.6500000013,"y":2541886.5500000026}},{"attributes":{"ID":513625,"DIS_CODE":0,"TOWNNAME":"永康區","LI":"六合里","LIN":"1鄰","STREET":"新興街","SECT":" ","MAREA":" ","LANE":" ","ALLEY":" ","HOUSE_NO":"８之３號十樓之３","E_COORD97":170947.25,"N_COORD97":2545728.0499999998,"ADDRESS":"新興街８之３號十樓之３","OBJECTID":513598},"geometry":{"x":170947.25,"y":2545728.0500000026}},{"attributes":{"ID":513626,"DIS_CODE":0,"TOWNNAME":"永康區","LI":"六合里","LIN":"1鄰","STREET":"新興街","SECT":" ","MAREA":" ","LANE":" ","ALLEY":" ","HOUSE_NO":"８之２號三樓之６","E_COORD97":170938.88,"N_COORD97":2545746.29,"ADDRESS":"新興街８之２號三樓之６","OBJECTID":513599},"geometry":{"x":170938.88000000082,"y":2545746.2899999991}},{"attributes":{"ID":513627,"DIS_CODE":0,"TOWNNAME":"永康區","LI":"\u25A0行里","LIN":"1鄰","STREET":"中正北路","SECT":" ","MAREA":" ","LANE":" ","ALLEY":" ","HOUSE_NO":"５４號八樓之１３","E_COORD97":172009.20000000001,"N_COORD97":2549058.5800000001,"ADDRESS":"中正北路５４號八樓之１３","OBJECTID":513600},"geometry":{"x":172009.20000000019,"y":2549058.5800000038}}]}