{"displayFieldName":"TOWNNAME","fieldAliases":{"ID":"ID","DIS_CODE":"DIS_CODE","TOWNNAME":"TOWNNAME","LI":"LI","LIN":"LIN","STREET":"STREET","SECT":"SECT","MAREA":"MAREA","LANE":"LANE","ALLEY":"ALLEY","HOUSE_NO":"HOUSE_NO","E_COORD97":"E_COORD97","N_COORD97":"N_COORD97","ADDRESS":"ADDRESS","OBJECTID":"OBJECTID"},"geometryType":"esriGeometryPoint","spatialReference":{"wkid":102443,"latestWkid":3826},"fields":[{"name":"ID","type":"esriFieldTypeDouble","alias":"ID"},{"name":"DIS_CODE","type":"esriFieldTypeInteger","alias":"DIS_CODE"},{"name":"TOWNNAME","type":"esriFieldTypeString","alias":"TOWNNAME","length":8},{"name":"LI","type":"esriFieldTypeString","alias":"LI","length":8},{"name":"LIN","type":"esriFieldTypeString","alias":"LIN","length":12},{"name":"STREET","type":"esriFieldTypeString","alias":"STREET","length":20},{"name":"SECT","type":"esriFieldTypeString","alias":"SECT","length":8},{"name":"MAREA","type":"esriFieldTypeString","alias":"MAREA","length":12},{"name":"LANE","type":"esriFieldTypeString","alias":"LANE","length":10},{"name":"ALLEY","type":"esriFieldTypeString","alias":"ALLEY","length":10},{"name":"HOUSE_NO","type":"esriFieldTypeString","alias":"HOUSE_NO","length":20},{"name":"E_COORD97","type":"esriFieldTypeDouble","alias":"E_COORD97"},{"name":"N_COORD97","type":"esriFieldTypeDouble","alias":"N_COORD97"},{"name":"ADDRESS","type":"esriFieldTypeString","alias":"ADDRESS","length":50},{"name":"OBJECTID","type":"esriFieldTypeOID","alias":"OBJECTID"}],"features":[{"attributes":{"ID":486226,"DIS_CODE":0,"TOWNNAME":"北區","LI":"和順里","LIN":"32鄰","STREET":"公園南路","SECT":" ","MAREA":" ","LANE":" ","ALLEY":" ","HOUSE_NO":"３６０號十五樓之６","E_COORD97":168236.92000000001,"N_COORD97":2544856.1499999999,"ADDRESS":"公園南路３６０號十五樓之６","OBJECTID":486201},"geometry":{"x":168236.91999999993,"y":2544856.1500000004}},{"attributes":{"ID":486227,"DIS_CODE":0,"TOWNNAME":"北區","LI":"和順里","LIN":"32鄰","STREET":"公園南路","SECT":" ","MAREA":" ","LANE":" ","ALLEY":" ","HOUSE_NO":"３６０號十六樓之１","E_COORD97":168236.92000000001,"N_COORD97":2544856.1499999999,"ADDRESS":"公園南路３６０號十六樓之１","OBJECTID":486202},"geometry":{"x":168236.91999999993,"y":2544856.1500000004}},{"attributes":{"ID":486228,"DIS_CODE":0,"TOWNNAME":"北區","LI":"和順里","LIN":"32鄰","STREET":"公園南路","SECT":" ","MAREA":" ","LANE":" ","ALLEY":" ","HOUSE_NO":"３６０號十六樓之２","E_COORD97":168236.92000000001,"N_COORD97":2544856.1499999999,"ADDRESS":"公園南路３６０號十六樓之２","OBJECTID":486203},"geometry":{"x":168236.91999999993,"y":2544856.1500000004}},{"attributes":{"ID":486229,"DIS_CODE":0,"TOWNNAME":"北區","LI":"和順里","LIN":"32鄰","STREET":"公園南路","SECT":" ","MAREA":" ","LANE":" ","ALLEY":" ","HOUSE_NO":"３６０號十六樓之３","E_COORD97":168236.92000000001,"N_COORD97":2544856.1499999999,"ADDRESS":"公園南路３６０號十六樓之３","OBJECTID":486204},"geometry":{"x":168236.91999999993,"y":2544856.1500000004}},{"attributes":{"ID":486230,"DIS_CODE":0,"TOWNNAME":"北區","LI":"和順里","LIN":"32鄰","STREET":"公園南路","SECT":" ","MAREA":" ","LANE":" ","ALLEY":" ","HOUSE_NO":"３６０號十六樓之５","E_COORD97":168236.92000000001,"N_COORD97":2544856.1499999999,"ADDRESS":"公園南路３６０號十六樓之５","OBJECTID":486205},"geometry":{"x":168236.91999999993,"y":2544856.1500000004}},{"attributes":{"ID":486231,"DIS_CODE":0,"TOWNNAME":"北區","LI":"和順里","LIN":"32鄰","STREET":"公園南路","SECT":" ","MAREA":" ","LANE":" ","ALLEY":" ","HOUSE_NO":"３６０號十六樓之６","E_COORD97":168236.92000000001,"N_COORD97":2544856.1499999999,"ADDRESS":"公園南路３６０號十六樓之６","OBJECTID":486206},"geometry":{"x":168236.91999999993,"y":2544856.1500000004}},{"attributes":{"ID":486232,"DIS_CODE":0,"TOWNNAME":"北區","LI":"和順里","LIN":"32鄰","STREET":"公園南路","SECT":" ","MAREA":" ","LANE":" ","ALLEY":" ","HOUSE_NO":"３６０號十四樓之１","E_COORD97":168236.92000000001,"N_COORD97":2544856.1499999999,"ADDRESS":"公園南路３６０號十四樓之１","OBJECTID":486207},"geometry":{"x":168236.91999999993,"y":2544856.1500000004}},{"attributes":{"ID":486233,"DIS_CODE":0,"TOWNNAME":"北區","LI":"和順里","LIN":"32鄰","STREET":"公園南路","SECT":" ","MAREA":" ","LANE":" ","ALLEY":" ","HOUSE_NO":"３６０號十四樓之２","E_COORD97":168236.92000000001,"N_COORD97":2544856.1499999999,"ADDRESS":"公園南路３６０號十四樓之２","OBJECTID":486208},"geometry":{"x":168236.91999999993,"y":2544856.1500000004}},{"attributes":{"ID":486234,"DIS_CODE":0,"TOWNNAME":"北區","LI":"和順里","LIN":"32鄰","STREET":"公園南路","SECT":" ","MAREA":" ","LANE":" ","ALLEY":" ","HOUSE_NO":"３６０號十四樓之３","E_COORD97":168236.92000000001,"N_COORD97":2544856.1499999999,"ADDRESS":"公園南路３６０號十四樓之３","OBJECTID":486209},"geometry":{"x":168236.91999999993,"y":2544856.1500000004}},{"attributes":{"ID":486235,"DIS_CODE":0,"TOWNNAME":"北區","LI":"和順里","LIN":"32鄰","STREET":"公園南路","SECT":" ","MAREA":" ","LANE":" ","ALLEY":" ","HOUSE_NO":"３６０號十四樓之５","E_COORD97":168236.92000000001,"N_COORD97":2544856.1499999999,"ADDRESS":"公園南路３６０號十四樓之５","OBJECTID":486210},"geometry":{"x":168236.91999999993,"y":2544856.1500000004}},{"attributes":{"ID":486236,"DIS_CODE":0,"TOWNNAME":"北區","LI":"和順里","LIN":"32鄰","STREET":"公園南路","SECT":" ","MAREA":" ","LANE":" ","ALLEY":" ","HOUSE_NO":"３６０號十四樓之６","E_COORD97":168236.92000000001,"N_COORD97":2544856.1499999999,"ADDRESS":"公園南路３６０號十四樓之６","OBJECTID":486211},"geometry":{"x":168236.91999999993,"y":2544856.1500000004}},{"attributes":{"ID":486237,"DIS_CODE":0,"TOWNNAME":"北區","LI":"和順里","LIN":"32鄰","STREET":"公園南路","SECT":" ","MAREA":" ","LANE":" ","ALLEY":" ","HOUSE_NO":"３６０號十樓之１","E_COORD97":168236.92000000001,"N_COORD97":2544856.1499999999,"ADDRESS":"公園南路３６０號十樓之１","OBJECTID":486212},"geometry":{"x":168236.91999999993,"y":2544856.1500000004}},{"attributes":{"ID":486238,"DIS_CODE":0,"TOWNNAME":"北區","LI":"和順里","LIN":"32鄰","STREET":"公園南路","SECT":" ","MAREA":" ","LANE":" ","ALLEY":" ","HOUSE_NO":"３６０號十樓之２","E_COORD97":168236.92000000001,"N_COORD97":2544856.1499999999,"ADDRESS":"公園南路３６０號十樓之２","OBJECTID":486213},"geometry":{"x":168236.91999999993,"y":2544856.1500000004}},{"attributes":{"ID":486239,"DIS_CODE":0,"TOWNNAME":"北區","LI":"和順里","LIN":"32鄰","STREET":"公園南路","SECT":" ","MAREA":" ","LANE":" ","ALLEY":" ","HOUSE_NO":"３６０號十樓之３","E_COORD97":168236.92000000001,"N_COORD97":2544856.1499999999,"ADDRESS":"公園南路３６０號十樓之３","OBJECTID":486214},"geometry":{"x":168236.91999999993,"y":2544856.1500000004}},{"attributes":{"ID":486240,"DIS_CODE":0,"TOWNNAME":"北區","LI":"和順里","LIN":"32鄰","STREET":"公園南路","SECT":" ","MAREA":" ","LANE":" ","ALLEY":" ","HOUSE_NO":"３６０號十樓之５","E_COORD97":168236.92000000001,"N_COORD97":2544856.1499999999,"ADDRESS":"公園南路３６０號十樓之５","OBJECTID":486215},"geometry":{"x":168236.91999999993,"y":2544856.1500000004}},{"attributes":{"ID":486241,"DIS_CODE":0,"TOWNNAME":"北區","LI":"和順里","LIN":"32鄰","STREET":"公園南路","SECT":" ","MAREA":" ","LANE":" ","ALLEY":" ","HOUSE_NO":"３６０號十樓之６","E_COORD97":168236.92000000001,"N_COORD97":2544856.1499999999,"ADDRESS":"公園南路３６０號十樓之６","OBJECTID":486216},"geometry":{"x":168236.91999999993,"y":2544856.1500000004}},{"attributes":{"ID":486242,"DIS_CODE":0,"TOWNNAME":"北區","LI":"和順里","LIN":"32鄰","STREET":"公園南路","SECT":" ","MAREA":" ","LANE":" ","ALLEY":" ","HOUSE_NO":"３６０號三樓之１","E_COORD97":168236.92000000001,"N_COORD97":2544856.1499999999,"ADDRESS":"公園南路３６０號三樓之１","OBJECTID":486217},"geometry":{"x":168236.91999999993,"y":2544856.1500000004}},{"attributes":{"ID":486243,"DIS_CODE":0,"TOWNNAME":"北區","LI":"和順里","LIN":"32鄰","STREET":"公園南路","SECT":" ","MAREA":" ","LANE":" ","ALLEY":" ","HOUSE_NO":"３６０號三樓之２","E_COORD97":168236.92000000001,"N_COORD97":2544856.1499999999,"ADDRESS":"公園南路３６０號三樓之２","OBJECTID":486218},"geometry":{"x":168236.91999999993,"y":2544856.1500000004}},{"attributes":{"ID":486244,"DIS_CODE":0,"TOWNNAME":"北區","LI":"和順里","LIN":"32鄰","STREET":"公園南路","SECT":" ","MAREA":" ","LANE":" ","ALLEY":" ","HOUSE_NO":"３６０號三樓之３","E_COORD97":168236.92000000001,"N_COORD97":2544856.1499999999,"ADDRESS":"公園南路３６０號三樓之３","OBJECTID":486219},"geometry":{"x":168236.91999999993,"y":2544856.1500000004}},{"attributes":{"ID":486245,"DIS_CODE":0,"TOWNNAME":"北區","LI":"和順里","LIN":"32鄰","STREET":"公園南路","SECT":" ","MAREA":" ","LANE":" ","ALLEY":" ","HOUSE_NO":"３６０號三樓之５","E_COORD97":168236.92000000001,"N_COORD97":2544856.1499999999,"ADDRESS":"公園南路３６０號三樓之５","OBJECTID":486220},"geometry":{"x":168236.91999999993,"y":2544856.1500000004}},{"attributes":{"ID":486246,"DIS_CODE":0,"TOWNNAME":"北區","LI":"和順里","LIN":"32鄰","STREET":"公園南路","SECT":" ","MAREA":" ","LANE":" ","ALLEY":" ","HOUSE_NO":"３６０號三樓之６","E_COORD97":168236.92000000001,"N_COORD97":2544856.1499999999,"ADDRESS":"公園南路３６０號三樓之６","OBJECTID":486221},"geometry":{"x":168236.91999999993,"y":2544856.1500000004}},{"attributes":{"ID":486247,"DIS_CODE":0,"TOWNNAME":"北區","LI":"和順里","LIN":"32鄰","STREET":"公園南路","SECT":" ","MAREA":" ","LANE":" ","ALLEY":" ","HOUSE_NO":"３６０號五樓之１","E_COORD97":168236.92000000001,"N_COORD97":2544856.1499999999,"ADDRESS":"公園南路３６０號五樓之１","OBJECTID":486222},"geometry":{"x":168236.91999999993,"y":2544856.1500000004}},{"attributes":{"ID":486248,"DIS_CODE":0,"TOWNNAME":"北區","LI":"和順里","LIN":"32鄰","STREET":"公園南路","SECT":" ","MAREA":" ","LANE":" ","ALLEY":" ","HOUSE_NO":"３６０號五樓之２","E_COORD97":168236.92000000001,"N_COORD97":2544856.1499999999,"ADDRESS":"公園南路３６０號五樓之２","OBJECTID":486223},"geometry":{"x":168236.91999999993,"y":2544856.1500000004}},{"attributes":{"ID":486249,"DIS_CODE":0,"TOWNNAME":"北區","LI":"和順里","LIN":"32鄰","STREET":"公園南路","SECT":" ","MAREA":" ","LANE":" ","ALLEY":" ","HOUSE_NO":"３６０號五樓之３","E_COORD97":168236.92000000001,"N_COORD97":2544856.1499999999,"ADDRESS":"公園南路３６０號五樓之３","OBJECTID":486224},"geometry":{"x":168236.91999999993,"y":2544856.1500000004}},{"attributes":{"ID":486250,"DIS_CODE":0,"TOWNNAME":"北區","LI":"和順里","LIN":"32鄰","STREET":"公園南路","SECT":" ","MAREA":" ","LANE":" ","ALLEY":" ","HOUSE_NO":"３６０號五樓之５","E_COORD97":168236.92000000001,"N_COORD97":2544856.1499999999,"ADDRESS":"公園南路３６０號五樓之５","OBJECTID":486225},"geometry":{"x":168236.91999999993,"y":2544856.1500000004}},{"attributes":{"ID":486251,"DIS_CODE":0,"TOWNNAME":"北區","LI":"和順里","LIN":"32鄰","STREET":"公園南路","SECT":" ","MAREA":" ","LANE":" ","ALLEY":" ","HOUSE_NO":"３６０號五樓之６","E_COORD97":168236.92000000001,"N_COORD97":2544856.1499999999,"ADDRESS":"公園南路３６０號五樓之６","OBJECTID":486226},"geometry":{"x":168236.91999999993,"y":2544856.1500000004}},{"attributes":{"ID":486252,"DIS_CODE":0,"TOWNNAME":"北區","LI":"和順里","LIN":"32鄰","STREET":"公園南路","SECT":" ","MAREA":" ","LANE":" ","ALLEY":" ","HOUSE_NO":"３６０號六樓之１","E_COORD97":168236.92000000001,"N_COORD97":2544856.1499999999,"ADDRESS":"公園南路３６０號六樓之１","OBJECTID":486227},"geometry":{"x":168236.91999999993,"y":2544856.1500000004}},{"attributes":{"ID":486253,"DIS_CODE":0,"TOWNNAME":"北區","LI":"和順里","LIN":"32鄰","STREET":"公園南路","SECT":" ","MAREA":" ","LANE":" ","ALLEY":" ","HOUSE_NO":"３６０號六樓之２","E_COORD97":168236.92000000001,"N_COORD97":2544856.1499999999,"ADDRESS":"公園南路３６０號六樓之２","OBJECTID":486228},"geometry":{"x":168236.91999999993,"y":2544856.1500000004}},{"attributes":{"ID":486254,"DIS_CODE":0,"TOWNNAME":"北區","LI":"和順里","LIN":"32鄰","STREET":"公園南路","SECT":" ","MAREA":" ","LANE":" ","ALLEY":" ","HOUSE_NO":"３６０號六樓之３","E_COORD97":168236.92000000001,"N_COORD97":2544856.1499999999,"ADDRESS":"公園南路３６０號六樓之３","OBJECTID":486229},"geometry":{"x":168236.91999999993,"y":2544856.1500000004}},{"attributes":{"ID":486255,"DIS_CODE":0,"TOWNNAME":"北區","LI":"和順里","LIN":"32鄰","STREET":"公園南路","SECT":" ","MAREA":" ","LANE":" ","ALLEY":" ","HOUSE_NO":"３６０號六樓之５","E_COORD97":168236.92000000001,"N_COORD97":2544856.1499999999,"ADDRESS":"公園南路３６０號六樓之５","OBJECTID":486230},"geometry":{"x":168236.91999999993,"y":2544856.1500000004}},{"attributes":{"ID":486256,"DIS_CODE":0,"TOWNNAME":"北區","LI":"和順里","LIN":"32鄰","STREET":"公園南路","SECT":" ","MAREA":" ","LANE":" ","ALLEY":" ","HOUSE_NO":"３６０號六樓之６","E_COORD97":168236.92000000001,"N_COORD97":2544856.1499999999,"ADDRESS":"公園南路３６０號六樓之６","OBJECTID":486231},"geometry":{"x":168236.91999999993,"y":2544856.1500000004}},{"attributes":{"ID":486257,"DIS_CODE":0,"TOWNNAME":"北區","LI":"和順里","LIN":"32鄰","STREET":"公園南路","SECT":" ","MAREA":" ","LANE":" ","ALLEY":" ","HOUSE_NO":"３６０號四樓之１","E_COORD97":168236.92000000001,"N_COORD97":2544856.1499999999,"ADDRESS":"公園南路３６０號四樓之１","OBJECTID":486232},"geometry":{"x":168236.91999999993,"y":2544856.1500000004}},{"attributes":{"ID":486258,"DIS_CODE":0,"TOWNNAME":"北區","LI":"和順里","LIN":"32鄰","STREET":"公園南路","SECT":" ","MAREA":" ","LANE":" ","ALLEY":" ","HOUSE_NO":"３６０號四樓之２","E_COORD97":168236.92000000001,"N_COORD97":2544856.1499999999,"ADDRESS":"公園南路３６０號四樓之２","OBJECTID":486233},"geometry":{"x":168236.91999999993,"y":2544856.1500000004}},{"attributes":{"ID":486259,"DIS_CODE":0,"TOWNNAME":"北區","LI":"和順里","LIN":"32鄰","STREET":"公園南路","SECT":" ","MAREA":" ","LANE":" ","ALLEY":" ","HOUSE_NO":"３６０號四樓之３","E_COORD97":168236.92000000001,"N_COORD97":2544856.1499999999,"ADDRESS":"公園南路３６０號四樓之３","OBJECTID":486234},"geometry":{"x":168236.91999999993,"y":2544856.1500000004}},{"attributes":{"ID":486260,"DIS_CODE":0,"TOWNNAME":"北區","LI":"和順里","LIN":"32鄰","STREET":"公園南路","SECT":" ","MAREA":" ","LANE":" ","ALLEY":" ","HOUSE_NO":"３６０號四樓之５","E_COORD97":168236.92000000001,"N_COORD97":2544856.1499999999,"ADDRESS":"公園南路３６０號四樓之５","OBJECTID":486235},"geometry":{"x":168236.91999999993,"y":2544856.1500000004}},{"attributes":{"ID":486261,"DIS_CODE":0,"TOWNNAME":"北區","LI":"和順里","LIN":"32鄰","STREET":"公園南路","SECT":" ","MAREA":" ","LANE":" ","ALLEY":" ","HOUSE_NO":"３６０號四樓之６","E_COORD97":168236.92000000001,"N_COORD97":2544856.1499999999,"ADDRESS":"公園南路３６０號四樓之６","OBJECTID":486236},"geometry":{"x":168236.91999999993,"y":2544856.1500000004}},{"attributes":{"ID":486262,"DIS_CODE":0,"TOWNNAME":"安平區","LI":"平通里","LIN":"32鄰","STREET":"永華路","SECT":"二段","MAREA":" ","LANE":" ","ALLEY":" ","HOUSE_NO":"９０２號五樓之１","E_COORD97":164524.13,"N_COORD97":2543658.8399999999,"ADDRESS":"永華路二段９０２號五樓之１","OBJECTID":486237},"geometry":{"x":164524.13000000082,"y":2543658.839999998}},{"attributes":{"ID":486263,"DIS_CODE":0,"TOWNNAME":"安平區","LI":"平通里","LIN":"32鄰","STREET":"永華路","SECT":"二段","MAREA":" ","LANE":" ","ALLEY":" ","HOUSE_NO":"９０２號二樓之１","E_COORD97":164524.13,"N_COORD97":2543658.8399999999,"ADDRESS":"永華路二段９０２號二樓之１","OBJECTID":486238},"geometry":{"x":164524.13000000082,"y":2543658.839999998}},{"attributes":{"ID":486264,"DIS_CODE":0,"TOWNNAME":"安平區","LI":"平通里","LIN":"32鄰","STREET":"永華路","SECT":"二段","MAREA":" ","LANE":" ","ALLEY":" ","HOUSE_NO":"９０２號二樓之２","E_COORD97":164524.13,"N_COORD97":2543658.8399999999,"ADDRESS":"永華路二段９０２號二樓之２","OBJECTID":486239},"geometry":{"x":164524.13000000082,"y":2543658.839999998}},{"attributes":{"ID":486265,"DIS_CODE":0,"TOWNNAME":"安平區","LI":"平通里","LIN":"32鄰","STREET":"永華路","SECT":"二段","MAREA":" ","LANE":" ","ALLEY":" ","HOUSE_NO":"９０２號三樓之１","E_COORD97":164524.13,"N_COORD97":2543658.8399999999,"ADDRESS":"永華路二段９０２號三樓之１","OBJECTID":486240},"geometry":{"x":164524.13000000082,"y":2543658.839999998}},{"attributes":{"ID":486266,"DIS_CODE":0,"TOWNNAME":"安平區","LI":"平通里","LIN":"32鄰","STREET":"永華路","SECT":"二段","MAREA":" ","LANE":" ","ALLEY":" ","HOUSE_NO":"９０２號三樓之２","E_COORD97":164524.13,"N_COORD97":2543658.8399999999,"ADDRESS":"永華路二段９０２號三樓之２","OBJECTID":486241},"geometry":{"x":164524.13000000082,"y":2543658.839999998}},{"attributes":{"ID":486267,"DIS_CODE":0,"TOWNNAME":"安平區","LI":"平通里","LIN":"32鄰","STREET":"永華路","SECT":"二段","MAREA":" ","LANE":" ","ALLEY":" ","HOUSE_NO":"９０２號三樓之３","E_COORD97":164524.13,"N_COORD97":2543658.8399999999,"ADDRESS":"永華路二段９０２號三樓之３","OBJECTID":486242},"geometry":{"x":164524.13000000082,"y":2543658.839999998}},{"attributes":{"ID":486268,"DIS_CODE":0,"TOWNNAME":"安平區","LI":"平通里","LIN":"32鄰","STREET":"永華路","SECT":"二段","MAREA":" ","LANE":" ","ALLEY":" ","HOUSE_NO":"９０２號三樓之５","E_COORD97":164524.13,"N_COORD97":2543658.8399999999,"ADDRESS":"永華路二段９０２號三樓之５","OBJECTID":486243},"geometry":{"x":164524.13000000082,"y":2543658.839999998}},{"attributes":{"ID":486269,"DIS_CODE":0,"TOWNNAME":"安平區","LI":"平通里","LIN":"32鄰","STREET":"永華路","SECT":"二段","MAREA":" ","LANE":" ","ALLEY":" ","HOUSE_NO":"９０２號四樓之１","E_COORD97":164524.13,"N_COORD97":2543658.8399999999,"ADDRESS":"永華路二段９０２號四樓之１","OBJECTID":486244},"geometry":{"x":164524.13000000082,"y":2543658.839999998}},{"attributes":{"ID":486270,"DIS_CODE":0,"TOWNNAME":"安平區","LI":"平通里","LIN":"32鄰","STREET":"永華路","SECT":"二段","MAREA":" ","LANE":" ","ALLEY":" ","HOUSE_NO":"９０２號四樓之２","E_COORD97":164524.13,"N_COORD97":2543658.8399999999,"ADDRESS":"永華路二段９０２號四樓之２","OBJECTID":486245},"geometry":{"x":164524.13000000082,"y":2543658.839999998}},{"attributes":{"ID":486271,"DIS_CODE":0,"TOWNNAME":"安平區","LI":"平通里","LIN":"32鄰","STREET":"永華路","SECT":"二段","MAREA":" ","LANE":" ","ALLEY":" ","HOUSE_NO":"９０２號四樓之３","E_COORD97":164524.13,"N_COORD97":2543658.8399999999,"ADDRESS":"永華路二段９０２號四樓之３","OBJECTID":486246},"geometry":{"x":164524.13000000082,"y":2543658.839999998}},{"attributes":{"ID":486272,"DIS_CODE":0,"TOWNNAME":"安平區","LI":"平通里","LIN":"32鄰","STREET":"永華路","SECT":"二段","MAREA":" ","LANE":" ","ALLEY":" ","HOUSE_NO":"９０２號四樓之５","E_COORD97":164524.13,"N_COORD97":2543658.8399999999,"ADDRESS":"永華路二段９０２號四樓之５","OBJECTID":486247},"geometry":{"x":164524.13000000082,"y":2543658.839999998}},{"attributes":{"ID":486273,"DIS_CODE":0,"TOWNNAME":"安平區","LI":"平通里","LIN":"32鄰","STREET":"永華路","SECT":"二段","MAREA":" ","LANE":" ","ALLEY":" ","HOUSE_NO":"９０２號五樓之２","E_COORD97":164524.13,"N_COORD97":2543658.8399999999,"ADDRESS":"永華路二段９０２號五樓之２","OBJECTID":486248},"geometry":{"x":164524.13000000082,"y":2543658.839999998}},{"attributes":{"ID":486274,"DIS_CODE":0,"TOWNNAME":"安平區","LI":"平通里","LIN":"32鄰","STREET":"永華路","SECT":"二段","MAREA":" ","LANE":" ","ALLEY":" ","HOUSE_NO":"９０２號五樓之３","E_COORD97":164524.13,"N_COORD97":2543658.8399999999,"ADDRESS":"永華路二段９０２號五樓之３","OBJECTID":486249},"geometry":{"x":164524.13000000082,"y":2543658.839999998}},{"attributes":{"ID":486275,"DIS_CODE":0,"TOWNNAME":"安平區","LI":"平通里","LIN":"32鄰","STREET":"永華路","SECT":"二段","MAREA":" ","LANE":" ","ALLEY":" ","HOUSE_NO":"９０２號五樓之５","E_COORD97":164524.13,"N_COORD97":2543658.8399999999,"ADDRESS":"永華路二段９０２號五樓之５","OBJECTID":486250},"geometry":{"x":164524.13000000082,"y":2543658.839999998}},{"attributes":{"ID":486276,"DIS_CODE":0,"TOWNNAME":"安平區","LI":"平通里","LIN":"32鄰","STREET":"永華路","SECT":"二段","MAREA":" ","LANE":" ","ALLEY":" ","HOUSE_NO":"９０２號六樓之１","E_COORD97":164524.13,"N_COORD97":2543658.8399999999,"ADDRESS":"永華路二段９０２號六樓之１","OBJECTID":486251},"geometry":{"x":164524.13000000082,"y":2543658.839999998}},{"attributes":{"ID":486277,"DIS_CODE":0,"TOWNNAME":"安平區","LI":"平通里","LIN":"32鄰","STREET":"永華路","SECT":"二段","MAREA":" ","LANE":" ","ALLEY":" ","HOUSE_NO":"９０２號六樓之２","E_COORD97":164524.13,"N_COORD97":2543658.8399999999,"ADDRESS":"永華路二段９０２號六樓之２","OBJECTID":486252},"geometry":{"x":164524.13000000082,"y":2543658.839999998}},{"attributes":{"ID":486278,"DIS_CODE":0,"TOWNNAME":"安平區","LI":"平通里","LIN":"32鄰","STREET":"永華路","SECT":"二段","MAREA":" ","LANE":" ","ALLEY":" ","HOUSE_NO":"９０２號六樓之３","E_COORD97":164524.13,"N_COORD97":2543658.8399999999,"ADDRESS":"永華路二段９０２號六樓之３","OBJECTID":486253},"geometry":{"x":164524.13000000082,"y":2543658.839999998}},{"attributes":{"ID":486279,"DIS_CODE":0,"TOWNNAME":"安平區","LI":"平通里","LIN":"32鄰","STREET":"永華路","SECT":"二段","MAREA":" ","LANE":" ","ALLEY":" ","HOUSE_NO":"９０２號六樓之５","E_COORD97":164524.13,"N_COORD97":2543658.8399999999,"ADDRESS":"永華路二段９０２號六樓之５","OBJECTID":486254},"geometry":{"x":164524.13000000082,"y":2543658.839999998}},{"attributes":{"ID":486280,"DIS_CODE":0,"TOWNNAME":"安平區","LI":"平通里","LIN":"32鄰","STREET":"永華路","SECT":"二段","MAREA":" ","LANE":" ","ALLEY":" ","HOUSE_NO":"９０２號七樓之１","E_COORD97":164524.13,"N_COORD97":2543658.8399999999,"ADDRESS":"永華路二段９０２號七樓之１","OBJECTID":486255},"geometry":{"x":164524.13000000082,"y":2543658.839999998}},{"attributes":{"ID":486281,"DIS_CODE":0,"TOWNNAME":"安平區","LI":"平通里","LIN":"32鄰","STREET":"永華路","SECT":"二段","MAREA":" ","LANE":" ","ALLEY":" ","HOUSE_NO":"９０２號七樓之２","E_COORD97":164524.13,"N_COORD97":2543658.8399999999,"ADDRESS":"永華路二段９０２號七樓之２","OBJECTID":486256},"geometry":{"x":164524.13000000082,"y":2543658.839999998}},{"attributes":{"ID":486282,"DIS_CODE":0,"TOWNNAME":"安平區","LI":"平通里","LIN":"32鄰","STREET":"永華路","SECT":"二段","MAREA":" ","LANE":" ","ALLEY":" ","HOUSE_NO":"９０２號七樓之３","E_COORD97":164524.13,"N_COORD97":2543658.8399999999,"ADDRESS":"永華路二段９０２號七樓之３","OBJECTID":486257},"geometry":{"x":164524.13000000082,"y":2543658.839999998}},{"attributes":{"ID":486283,"DIS_CODE":0,"TOWNNAME":"安平區","LI":"平通里","LIN":"32鄰","STREET":"永華路","SECT":"二段","MAREA":" ","LANE":" ","ALLEY":" ","HOUSE_NO":"９０２號七樓之５","E_COORD97":164524.13,"N_COORD97":2543658.8399999999,"ADDRESS":"永華路二段９０２號七樓之５","OBJECTID":486258},"geometry":{"x":164524.13000000082,"y":2543658.839999998}},{"attributes":{"ID":486284,"DIS_CODE":0,"TOWNNAME":"安平區","LI":"平通里","LIN":"32鄰","STREET":"永華路","SECT":"二段","MAREA":" ","LANE":" ","ALLEY":" ","HOUSE_NO":"９０２號八樓之１","E_COORD97":164524.13,"N_COORD97":2543658.8399999999,"ADDRESS":"永華路二段９０２號八樓之１","OBJECTID":486259},"geometry":{"x":164524.13000000082,"y":2543658.839999998}},{"attributes":{"ID":486285,"DIS_CODE":0,"TOWNNAME":"安平區","LI":"平通里","LIN":"32鄰","STREET":"永華路","SECT":"二段","MAREA":" ","LANE":" ","ALLEY":" ","HOUSE_NO":"９０２號八樓之２","E_COORD97":164524.13,"N_COORD97":2543658.8399999999,"ADDRESS":"永華路二段９０２號八樓之２","OBJECTID":486260},"geometry":{"x":164524.13000000082,"y":2543658.839999998}},{"attributes":{"ID":486286,"DIS_CODE":0,"TOWNNAME":"安平區","LI":"平通里","LIN":"32鄰","STREET":"永華路","SECT":"二段","MAREA":" ","LANE":" ","ALLEY":" ","HOUSE_NO":"９０２號八樓之３","E_COORD97":164524.13,"N_COORD97":2543658.8399999999,"ADDRESS":"永華路二段９０２號八樓之３","OBJECTID":486261},"geometry":{"x":164524.13000000082,"y":2543658.839999998}},{"attributes":{"ID":486287,"DIS_CODE":0,"TOWNNAME":"安平區","LI":"平通里","LIN":"32鄰","STREET":"永華路","SECT":"二段","MAREA":" ","LANE":" ","ALLEY":" ","HOUSE_NO":"９０２號八樓之５","E_COORD97":164524.13,"N_COORD97":2543658.8399999999,"ADDRESS":"永華路二段９０２號八樓之５","OBJECTID":486262},"geometry":{"x":164524.13000000082,"y":2543658.839999998}},{"attributes":{"ID":486288,"DIS_CODE":0,"TOWNNAME":"安平區","LI":"平通里","LIN":"32鄰","STREET":"永華路","SECT":"二段","MAREA":" ","LANE":" ","ALLEY":" ","HOUSE_NO":"９０２號九樓之１","E_COORD97":164524.13,"N_COORD97":2543658.8399999999,"ADDRESS":"永華路二段９０２號九樓之１","OBJECTID":486263},"geometry":{"x":164524.13000000082,"y":2543658.839999998}},{"attributes":{"ID":486289,"DIS_CODE":0,"TOWNNAME":"安平區","LI":"平通里","LIN":"32鄰","STREET":"永華路","SECT":"二段","MAREA":" ","LANE":" ","ALLEY":" ","HOUSE_NO":"９０２號九樓之２","E_COORD97":164524.13,"N_COORD97":2543658.8399999999,"ADDRESS":"永華路二段９０２號九樓之２","OBJECTID":486264},"geometry":{"x":164524.13000000082,"y":2543658.839999998}},{"attributes":{"ID":486290,"DIS_CODE":0,"TOWNNAME":"安平區","LI":"平通里","LIN":"32鄰","STREET":"永華路","SECT":"二段","MAREA":" ","LANE":" ","ALLEY":" ","HOUSE_NO":"９０２號九樓之３","E_COORD97":164524.13,"N_COORD97":2543658.8399999999,"ADDRESS":"永華路二段９０２號九樓之３","OBJECTID":486265},"geometry":{"x":164524.13000000082,"y":2543658.839999998}},{"attributes":{"ID":486291,"DIS_CODE":0,"TOWNNAME":"安平區","LI":"平通里","LIN":"32鄰","STREET":"永華路","SECT":"二段","MAREA":" ","LANE":" ","ALLEY":" ","HOUSE_NO":"９０２號九樓之５","E_COORD97":164524.13,"N_COORD97":2543658.8399999999,"ADDRESS":"永華路二段９０２號九樓之５","OBJECTID":486266},"geometry":{"x":164524.13000000082,"y":2543658.839999998}},{"attributes":{"ID":486292,"DIS_CODE":0,"TOWNNAME":"安平區","LI":"平通里","LIN":"32鄰","STREET":"永華路","SECT":"二段","MAREA":" ","LANE":" ","ALLEY":" ","HOUSE_NO":"９０２號十樓之１","E_COORD97":164524.13,"N_COORD97":2543658.8399999999,"ADDRESS":"永華路二段９０２號十樓之１","OBJECTID":486267},"geometry":{"x":164524.13000000082,"y":2543658.839999998}},{"attributes":{"ID":486293,"DIS_CODE":0,"TOWNNAME":"安平區","LI":"平通里","LIN":"32鄰","STREET":"永華路","SECT":"二段","MAREA":" ","LANE":" ","ALLEY":" ","HOUSE_NO":"９０２號十樓之２","E_COORD97":164524.13,"N_COORD97":2543658.8399999999,"ADDRESS":"永華路二段９０２號十樓之２","OBJECTID":486268},"geometry":{"x":164524.13000000082,"y":2543658.839999998}},{"attributes":{"ID":486294,"DIS_CODE":0,"TOWNNAME":"安平區","LI":"平通里","LIN":"32鄰","STREET":"永華路","SECT":"二段","MAREA":" ","LANE":" ","ALLEY":" ","HOUSE_NO":"９０２號十樓之３","E_COORD97":164524.13,"N_COORD97":2543658.8399999999,"ADDRESS":"永華路二段９０２號十樓之３","OBJECTID":486269},"geometry":{"x":164524.13000000082,"y":2543658.839999998}},{"attributes":{"ID":486295,"DIS_CODE":0,"TOWNNAME":"安平區","LI":"平通里","LIN":"32鄰","STREET":"永華路","SECT":"二段","MAREA":" ","LANE":" ","ALLEY":" ","HOUSE_NO":"９０２號十一樓之１","E_COORD97":164524.13,"N_COORD97":2543658.8399999999,"ADDRESS":"永華路二段９０２號十一樓之１","OBJECTID":486270},"geometry":{"x":164524.13000000082,"y":2543658.839999998}},{"attributes":{"ID":486296,"DIS_CODE":0,"TOWNNAME":"安平區","LI":"平通里","LIN":"32鄰","STREET":"永華路","SECT":"二段","MAREA":" ","LANE":" ","ALLEY":" ","HOUSE_NO":"９０２號十一樓之２","E_COORD97":164524.13,"N_COORD97":2543658.8399999999,"ADDRESS":"永華路二段９０２號十一樓之２","OBJECTID":486271},"geometry":{"x":164524.13000000082,"y":2543658.839999998}},{"attributes":{"ID":486297,"DIS_CODE":0,"TOWNNAME":"安平區","LI":"平通里","LIN":"32鄰","STREET":"永華路","SECT":"二段","MAREA":" ","LANE":" ","ALLEY":" ","HOUSE_NO":"９０２號十一樓之３","E_COORD97":164524.13,"N_COORD97":2543658.8399999999,"ADDRESS":"永華路二段９０２號十一樓之３","OBJECTID":486272},"geometry":{"x":164524.13000000082,"y":2543658.839999998}},{"attributes":{"ID":486298,"DIS_CODE":0,"TOWNNAME":"安平區","LI":"平通里","LIN":"32鄰","STREET":"永華路","SECT":"二段","MAREA":" ","LANE":" ","ALLEY":" ","HOUSE_NO":"９０２號十二樓之１","E_COORD97":164524.13,"N_COORD97":2543658.8399999999,"ADDRESS":"永華路二段９０２號十二樓之１","OBJECTID":486273},"geometry":{"x":164524.13000000082,"y":2543658.839999998}},{"attributes":{"ID":486299,"DIS_CODE":0,"TOWNNAME":"安平區","LI":"平通里","LIN":"32鄰","STREET":"永華路","SECT":"二段","MAREA":" ","LANE":" ","ALLEY":" ","HOUSE_NO":"９０２號十二樓之２","E_COORD97":164524.13,"N_COORD97":2543658.8399999999,"ADDRESS":"永華路二段９０２號十二樓之２","OBJECTID":486274},"geometry":{"x":164524.13000000082,"y":2543658.839999998}},{"attributes":{"ID":486300,"DIS_CODE":0,"TOWNNAME":"安平區","LI":"平通里","LIN":"32鄰","STREET":"永華路","SECT":"二段","MAREA":" ","LANE":" ","ALLEY":" ","HOUSE_NO":"９０２號十二樓之３","E_COORD97":164524.13,"N_COORD97":2543658.8399999999,"ADDRESS":"永華路二段９０２號十二樓之３","OBJECTID":486275},"geometry":{"x":164524.13000000082,"y":2543658.839999998}},{"attributes":{"ID":486301,"DIS_CODE":0,"TOWNNAME":"安平區","LI":"平通里","LIN":"32鄰","STREET":"永華路","SECT":"二段","MAREA":" ","LANE":" ","ALLEY":" ","HOUSE_NO":"９０２號十三樓之１","E_COORD97":164524.13,"N_COORD97":2543658.8399999999,"ADDRESS":"永華路二段９０２號十三樓之１","OBJECTID":486276},"geometry":{"x":164524.13000000082,"y":2543658.839999998}},{"attributes":{"ID":486302,"DIS_CODE":0,"TOWNNAME":"安平區","LI":"平通里","LIN":"32鄰","STREET":"永華路","SECT":"二段","MAREA":" ","LANE":" ","ALLEY":" ","HOUSE_NO":"９０２號十三樓之２","E_COORD97":164524.13,"N_COORD97":2543658.8399999999,"ADDRESS":"永華路二段９０２號十三樓之２","OBJECTID":486277},"geometry":{"x":164524.13000000082,"y":2543658.839999998}},{"attributes":{"ID":486303,"DIS_CODE":0,"TOWNNAME":"安平區","LI":"平通里","LIN":"32鄰","STREET":"永華路","SECT":"二段","MAREA":" ","LANE":" ","ALLEY":" ","HOUSE_NO":"９０２號十三樓之３","E_COORD97":164524.13,"N_COORD97":2543658.8399999999,"ADDRESS":"永華路二段９０２號十三樓之３","OBJECTID":486278},"geometry":{"x":164524.13000000082,"y":2543658.839999998}},{"attributes":{"ID":486304,"DIS_CODE":0,"TOWNNAME":"安平區","LI":"平通里","LIN":"32鄰","STREET":"永華路","SECT":"二段","MAREA":" ","LANE":" ","ALLEY":" ","HOUSE_NO":"９０２號十四樓之１","E_COORD97":164524.13,"N_COORD97":2543658.8399999999,"ADDRESS":"永華路二段９０２號十四樓之１","OBJECTID":486279},"geometry":{"x":164524.13000000082,"y":2543658.839999998}},{"attributes":{"ID":486305,"DIS_CODE":0,"TOWNNAME":"安平區","LI":"平通里","LIN":"32鄰","STREET":"永華路","SECT":"二段","MAREA":" ","LANE":" ","ALLEY":" ","HOUSE_NO":"９０２號十四樓之２","E_COORD97":164524.13,"N_COORD97":2543658.8399999999,"ADDRESS":"永華路二段９０２號十四樓之２","OBJECTID":486280},"geometry":{"x":164524.13000000082,"y":2543658.839999998}},{"attributes":{"ID":486306,"DIS_CODE":0,"TOWNNAME":"安平區","LI":"平通里","LIN":"32鄰","STREET":"永華路","SECT":"二段","MAREA":" ","LANE":" ","ALLEY":" ","HOUSE_NO":"９０２號十四樓之３","E_COORD97":164524.13,"N_COORD97":2543658.8399999999,"ADDRESS":"永華路二段９０２號十四樓之３","OBJECTID":486281},"geometry":{"x":164524.13000000082,"y":2543658.839999998}},{"attributes":{"ID":486307,"DIS_CODE":0,"TOWNNAME":"安平區","LI":"平通里","LIN":"32鄰","STREET":"永華路","SECT":"二段","MAREA":" ","LANE":" ","ALLEY":" ","HOUSE_NO":"９０６號二樓之１","E_COORD97":164494.14999999999,"N_COORD97":2543662.0600000001,"ADDRESS":"永華路二段９０６號二樓之１","OBJECTID":486282},"geometry":{"x":164494.1500000013,"y":2543662.0600000024}},{"attributes":{"ID":486308,"DIS_CODE":0,"TOWNNAME":"安平區","LI":"平通里","LIN":"32鄰","STREET":"永華路","SECT":"二段","MAREA":" ","LANE":" ","ALLEY":" ","HOUSE_NO":"９０６號二樓之２","E_COORD97":164494.14999999999,"N_COORD97":2543662.0600000001,"ADDRESS":"永華路二段９０６號二樓之２","OBJECTID":486283},"geometry":{"x":164494.1500000013,"y":2543662.0600000024}},{"attributes":{"ID":486309,"DIS_CODE":0,"TOWNNAME":"安平區","LI":"平通里","LIN":"32鄰","STREET":"永華路","SECT":"二段","MAREA":" ","LANE":" ","ALLEY":" ","HOUSE_NO":"９０６號二樓之３","E_COORD97":164494.14999999999,"N_COORD97":2543662.0600000001,"ADDRESS":"永華路二段９０６號二樓之３","OBJECTID":486284},"geometry":{"x":164494.1500000013,"y":2543662.0600000024}},{"attributes":{"ID":486310,"DIS_CODE":0,"TOWNNAME":"安平區","LI":"平通里","LIN":"32鄰","STREET":"永華路","SECT":"二段","MAREA":" ","LANE":" ","ALLEY":" ","HOUSE_NO":"９０６號二樓之５","E_COORD97":164494.14999999999,"N_COORD97":2543662.0600000001,"ADDRESS":"永華路二段９０６號二樓之５","OBJECTID":486285},"geometry":{"x":164494.1500000013,"y":2543662.0600000024}},{"attributes":{"ID":486311,"DIS_CODE":0,"TOWNNAME":"安平區","LI":"平通里","LIN":"32鄰","STREET":"永華路","SECT":"二段","MAREA":" ","LANE":" ","ALLEY":" ","HOUSE_NO":"９０６號三樓之１","E_COORD97":164494.14999999999,"N_COORD97":2543662.0600000001,"ADDRESS":"永華路二段９０６號三樓之１","OBJECTID":486286},"geometry":{"x":164494.1500000013,"y":2543662.0600000024}},{"attributes":{"ID":486312,"DIS_CODE":0,"TOWNNAME":"安平區","LI":"平通里","LIN":"32鄰","STREET":"永華路","SECT":"二段","MAREA":" ","LANE":" ","ALLEY":" ","HOUSE_NO":"９０６號三樓之２","E_COORD97":164494.14999999999,"N_COORD97":2543662.0600000001,"ADDRESS":"永華路二段９０６號三樓之２","OBJECTID":486287},"geometry":{"x":164494.1500000013,"y":2543662.0600000024}},{"attributes":{"ID":486313,"DIS_CODE":0,"TOWNNAME":"安平區","LI":"平通里","LIN":"32鄰","STREET":"永華路","SECT":"二段","MAREA":" ","LANE":" ","ALLEY":" ","HOUSE_NO":"９０６號三樓之３","E_COORD97":164494.14999999999,"N_COORD97":2543662.0600000001,"ADDRESS":"永華路二段９０６號三樓之３","OBJECTID":486288},"geometry":{"x":164494.1500000013,"y":2543662.0600000024}},{"attributes":{"ID":486314,"DIS_CODE":0,"TOWNNAME":"安平區","LI":"平通里","LIN":"32鄰","STREET":"永華路","SECT":"二段","MAREA":" ","LANE":" ","ALLEY":" ","HOUSE_NO":"９０６號三樓之５","E_COORD97":164494.14999999999,"N_COORD97":2543662.0600000001,"ADDRESS":"永華路二段９０６號三樓之５","OBJECTID":486289},"geometry":{"x":164494.1500000013,"y":2543662.0600000024}},{"attributes":{"ID":486315,"DIS_CODE":0,"TOWNNAME":"安平區","LI":"平通里","LIN":"32鄰","STREET":"永華路","SECT":"二段","MAREA":" ","LANE":" ","ALLEY":" ","HOUSE_NO":"９０６號四樓之１","E_COORD97":164494.14999999999,"N_COORD97":2543662.0600000001,"ADDRESS":"永華路二段９０６號四樓之１","OBJECTID":486290},"geometry":{"x":164494.1500000013,"y":2543662.0600000024}},{"attributes":{"ID":486316,"DIS_CODE":0,"TOWNNAME":"安平區","LI":"平通里","LIN":"32鄰","STREET":"永華路","SECT":"二段","MAREA":" ","LANE":" ","ALLEY":" ","HOUSE_NO":"９０６號四樓之２","E_COORD97":164494.14999999999,"N_COORD97":2543662.0600000001,"ADDRESS":"永華路二段９０６號四樓之２","OBJECTID":486291},"geometry":{"x":164494.1500000013,"y":2543662.0600000024}},{"attributes":{"ID":486317,"DIS_CODE":0,"TOWNNAME":"安平區","LI":"平通里","LIN":"32鄰","STREET":"永華路","SECT":"二段","MAREA":" ","LANE":" ","ALLEY":" ","HOUSE_NO":"９０６號四樓之３","E_COORD97":164494.14999999999,"N_COORD97":2543662.0600000001,"ADDRESS":"永華路二段９０６號四樓之３","OBJECTID":486292},"geometry":{"x":164494.1500000013,"y":2543662.0600000024}},{"attributes":{"ID":486318,"DIS_CODE":0,"TOWNNAME":"安平區","LI":"平通里","LIN":"32鄰","STREET":"永華路","SECT":"二段","MAREA":" ","LANE":" ","ALLEY":" ","HOUSE_NO":"９０６號四樓之５","E_COORD97":164494.14999999999,"N_COORD97":2543662.0600000001,"ADDRESS":"永華路二段９０６號四樓之５","OBJECTID":486293},"geometry":{"x":164494.1500000013,"y":2543662.0600000024}},{"attributes":{"ID":486319,"DIS_CODE":0,"TOWNNAME":"安平區","LI":"平通里","LIN":"32鄰","STREET":"永華路","SECT":"二段","MAREA":" ","LANE":" ","ALLEY":" ","HOUSE_NO":"９０６號五樓之１","E_COORD97":164494.14999999999,"N_COORD97":2543662.0600000001,"ADDRESS":"永華路二段９０６號五樓之１","OBJECTID":486294},"geometry":{"x":164494.1500000013,"y":2543662.0600000024}},{"attributes":{"ID":486320,"DIS_CODE":0,"TOWNNAME":"安平區","LI":"平通里","LIN":"32鄰","STREET":"永華路","SECT":"二段","MAREA":" ","LANE":" ","ALLEY":" ","HOUSE_NO":"９０６號五樓之２","E_COORD97":164494.14999999999,"N_COORD97":2543662.0600000001,"ADDRESS":"永華路二段９０６號五樓之２","OBJECTID":486295},"geometry":{"x":164494.1500000013,"y":2543662.0600000024}},{"attributes":{"ID":486321,"DIS_CODE":0,"TOWNNAME":"安平區","LI":"平通里","LIN":"32鄰","STREET":"永華路","SECT":"二段","MAREA":" ","LANE":" ","ALLEY":" ","HOUSE_NO":"９０６號五樓之３","E_COORD97":164494.14999999999,"N_COORD97":2543662.0600000001,"ADDRESS":"永華路二段９０６號五樓之３","OBJECTID":486296},"geometry":{"x":164494.1500000013,"y":2543662.0600000024}},{"attributes":{"ID":486322,"DIS_CODE":0,"TOWNNAME":"安平區","LI":"平通里","LIN":"32鄰","STREET":"永華路","SECT":"二段","MAREA":" ","LANE":" ","ALLEY":" ","HOUSE_NO":"９０６號五樓之５","E_COORD97":164494.14999999999,"N_COORD97":2543662.0600000001,"ADDRESS":"永華路二段９０６號五樓之５","OBJECTID":486297},"geometry":{"x":164494.1500000013,"y":2543662.0600000024}},{"attributes":{"ID":486323,"DIS_CODE":0,"TOWNNAME":"安平區","LI":"平通里","LIN":"32鄰","STREET":"永華路","SECT":"二段","MAREA":" ","LANE":" ","ALLEY":" ","HOUSE_NO":"９０６號六樓之１","E_COORD97":164494.14999999999,"N_COORD97":2543662.0600000001,"ADDRESS":"永華路二段９０６號六樓之１","OBJECTID":486298},"geometry":{"x":164494.1500000013,"y":2543662.0600000024}},{"attributes":{"ID":486324,"DIS_CODE":0,"TOWNNAME":"安平區","LI":"平通里","LIN":"32鄰","STREET":"永華路","SECT":"二段","MAREA":" ","LANE":" ","ALLEY":" ","HOUSE_NO":"９０６號六樓之２","E_COORD97":164494.14999999999,"N_COORD97":2543662.0600000001,"ADDRESS":"永華路二段９０６號六樓之２","OBJECTID":486299},"geometry":{"x":164494.1500000013,"y":2543662.0600000024}},{"attributes":{"ID":486325,"DIS_CODE":0,"TOWNNAME":"安平區","LI":"平通里","LIN":"32鄰","STREET":"永華路","SECT":"二段","MAREA":" ","LANE":" ","ALLEY":" ","HOUSE_NO":"９０６號六樓之３","E_COORD97":164494.14999999999,"N_COORD97":2543662.0600000001,"ADDRESS":"永華路二段９０６號六樓之３","OBJECTID":486300},"geometry":{"x":164494.1500000013,"y":2543662.0600000024}},{"attributes":{"ID":486326,"DIS_CODE":0,"TOWNNAME":"安平區","LI":"平通里","LIN":"32鄰","STREET":"永華路","SECT":"二段","MAREA":" ","LANE":" ","ALLEY":" ","HOUSE_NO":"９０６號六樓之５","E_COORD97":164494.14999999999,"N_COORD97":2543662.0600000001,"ADDRESS":"永華路二段９０６號六樓之５","OBJECTID":486301},"geometry":{"x":164494.1500000013,"y":2543662.0600000024}},{"attributes":{"ID":486327,"DIS_CODE":0,"TOWNNAME":"安平區","LI":"平通里","LIN":"32鄰","STREET":"永華路","SECT":"二段","MAREA":" ","LANE":" ","ALLEY":" ","HOUSE_NO":"９０６號七樓之１","E_COORD97":164494.14999999999,"N_COORD97":2543662.0600000001,"ADDRESS":"永華路二段９０６號七樓之１","OBJECTID":486302},"geometry":{"x":164494.1500000013,"y":2543662.0600000024}},{"attributes":{"ID":486328,"DIS_CODE":0,"TOWNNAME":"安平區","LI":"平通里","LIN":"32鄰","STREET":"永華路","SECT":"二段","MAREA":" ","LANE":" ","ALLEY":" ","HOUSE_NO":"９０６號七樓之２","E_COORD97":164494.14999999999,"N_COORD97":2543662.0600000001,"ADDRESS":"永華路二段９０６號七樓之２","OBJECTID":486303},"geometry":{"x":164494.1500000013,"y":2543662.0600000024}},{"attributes":{"ID":486329,"DIS_CODE":0,"TOWNNAME":"安平區","LI":"平通里","LIN":"32鄰","STREET":"永華路","SECT":"二段","MAREA":" ","LANE":" ","ALLEY":" ","HOUSE_NO":"９０６號七樓之３","E_COORD97":164494.14999999999,"N_COORD97":2543662.0600000001,"ADDRESS":"永華路二段９０６號七樓之３","OBJECTID":486304},"geometry":{"x":164494.1500000013,"y":2543662.0600000024}},{"attributes":{"ID":486330,"DIS_CODE":0,"TOWNNAME":"安平區","LI":"平通里","LIN":"32鄰","STREET":"永華路","SECT":"二段","MAREA":" ","LANE":" ","ALLEY":" ","HOUSE_NO":"９０６號七樓之５","E_COORD97":164494.14999999999,"N_COORD97":2543662.0600000001,"ADDRESS":"永華路二段９０６號七樓之５","OBJECTID":486305},"geometry":{"x":164494.1500000013,"y":2543662.0600000024}},{"attributes":{"ID":486331,"DIS_CODE":0,"TOWNNAME":"安平區","LI":"平通里","LIN":"32鄰","STREET":"永華路","SECT":"二段","MAREA":" ","LANE":" ","ALLEY":" ","HOUSE_NO":"９０６號八樓之１","E_COORD97":164494.14999999999,"N_COORD97":2543662.0600000001,"ADDRESS":"永華路二段９０６號八樓之１","OBJECTID":486306},"geometry":{"x":164494.1500000013,"y":2543662.0600000024}},{"attributes":{"ID":486332,"DIS_CODE":0,"TOWNNAME":"安平區","LI":"平通里","LIN":"32鄰","STREET":"永華路","SECT":"二段","MAREA":" ","LANE":" ","ALLEY":" ","HOUSE_NO":"９０６號八樓之２","E_COORD97":164494.14999999999,"N_COORD97":2543662.0600000001,"ADDRESS":"永華路二段９０６號八樓之２","OBJECTID":486307},"geometry":{"x":164494.1500000013,"y":2543662.0600000024}},{"attributes":{"ID":486333,"DIS_CODE":0,"TOWNNAME":"安平區","LI":"平通里","LIN":"32鄰","STREET":"永華路","SECT":"二段","MAREA":" ","LANE":" ","ALLEY":" ","HOUSE_NO":"９０６號八樓之３","E_COORD97":164494.14999999999,"N_COORD97":2543662.0600000001,"ADDRESS":"永華路二段９０６號八樓之３","OBJECTID":486308},"geometry":{"x":164494.1500000013,"y":2543662.0600000024}},{"attributes":{"ID":486334,"DIS_CODE":0,"TOWNNAME":"安平區","LI":"平通里","LIN":"32鄰","STREET":"永華路","SECT":"二段","MAREA":" ","LANE":" ","ALLEY":" ","HOUSE_NO":"９０６號八樓之５","E_COORD97":164494.14999999999,"N_COORD97":2543662.0600000001,"ADDRESS":"永華路二段９０６號八樓之５","OBJECTID":486309},"geometry":{"x":164494.1500000013,"y":2543662.0600000024}},{"attributes":{"ID":486335,"DIS_CODE":0,"TOWNNAME":"安平區","LI":"平通里","LIN":"32鄰","STREET":"永華路","SECT":"二段","MAREA":" ","LANE":" ","ALLEY":" ","HOUSE_NO":"９０６號九樓之１","E_COORD97":164494.14999999999,"N_COORD97":2543662.0600000001,"ADDRESS":"永華路二段９０６號九樓之１","OBJECTID":486310},"geometry":{"x":164494.1500000013,"y":2543662.0600000024}},{"attributes":{"ID":486336,"DIS_CODE":0,"TOWNNAME":"安平區","LI":"平通里","LIN":"32鄰","STREET":"永華路","SECT":"二段","MAREA":" ","LANE":" ","ALLEY":" ","HOUSE_NO":"９０６號九樓之２","E_COORD97":164494.14999999999,"N_COORD97":2543662.0600000001,"ADDRESS":"永華路二段９０６號九樓之２","OBJECTID":486311},"geometry":{"x":164494.1500000013,"y":2543662.0600000024}},{"attributes":{"ID":486337,"DIS_CODE":0,"TOWNNAME":"安平區","LI":"平通里","LIN":"32鄰","STREET":"永華路","SECT":"二段","MAREA":" ","LANE":" ","ALLEY":" ","HOUSE_NO":"９０６號九樓之３","E_COORD97":164494.14999999999,"N_COORD97":2543662.0600000001,"ADDRESS":"永華路二段９０６號九樓之３","OBJECTID":486312},"geometry":{"x":164494.1500000013,"y":2543662.0600000024}},{"attributes":{"ID":486338,"DIS_CODE":0,"TOWNNAME":"安平區","LI":"平通里","LIN":"32鄰","STREET":"永華路","SECT":"二段","MAREA":" ","LANE":" ","ALLEY":" ","HOUSE_NO":"９０６號九樓之５","E_COORD97":164494.14999999999,"N_COORD97":2543662.0600000001,"ADDRESS":"永華路二段９０６號九樓之５","OBJECTID":486313},"geometry":{"x":164494.1500000013,"y":2543662.0600000024}},{"attributes":{"ID":486339,"DIS_CODE":0,"TOWNNAME":"安平區","LI":"平通里","LIN":"32鄰","STREET":"永華路","SECT":"二段","MAREA":" ","LANE":" ","ALLEY":" ","HOUSE_NO":"９０６號十樓之１","E_COORD97":164494.14999999999,"N_COORD97":2543662.0600000001,"ADDRESS":"永華路二段９０６號十樓之１","OBJECTID":486314},"geometry":{"x":164494.1500000013,"y":2543662.0600000024}},{"attributes":{"ID":486340,"DIS_CODE":0,"TOWNNAME":"安平區","LI":"平通里","LIN":"32鄰","STREET":"永華路","SECT":"二段","MAREA":" ","LANE":" ","ALLEY":" ","HOUSE_NO":"９０６號十樓之２","E_COORD97":164494.14999999999,"N_COORD97":2543662.0600000001,"ADDRESS":"永華路二段９０６號十樓之２","OBJECTID":486315},"geometry":{"x":164494.1500000013,"y":2543662.0600000024}},{"attributes":{"ID":486341,"DIS_CODE":0,"TOWNNAME":"安平區","LI":"平通里","LIN":"32鄰","STREET":"永華路","SECT":"二段","MAREA":" ","LANE":" ","ALLEY":" ","HOUSE_NO":"９０６號十樓之３","E_COORD97":164494.14999999999,"N_COORD97":2543662.0600000001,"ADDRESS":"永華路二段９０６號十樓之３","OBJECTID":486316},"geometry":{"x":164494.1500000013,"y":2543662.0600000024}},{"attributes":{"ID":486342,"DIS_CODE":0,"TOWNNAME":"安平區","LI":"平通里","LIN":"32鄰","STREET":"永華路","SECT":"二段","MAREA":" ","LANE":" ","ALLEY":" ","HOUSE_NO":"９０６號十樓之５","E_COORD97":164494.14999999999,"N_COORD97":2543662.0600000001,"ADDRESS":"永華路二段９０６號十樓之５","OBJECTID":486317},"geometry":{"x":164494.1500000013,"y":2543662.0600000024}},{"attributes":{"ID":486343,"DIS_CODE":0,"TOWNNAME":"安平區","LI":"平通里","LIN":"32鄰","STREET":"永華路","SECT":"二段","MAREA":" ","LANE":" ","ALLEY":" ","HOUSE_NO":"９０６號十一樓之１","E_COORD97":164494.14999999999,"N_COORD97":2543662.0600000001,"ADDRESS":"永華路二段９０６號十一樓之１","OBJECTID":486318},"geometry":{"x":164494.1500000013,"y":2543662.0600000024}},{"attributes":{"ID":486344,"DIS_CODE":0,"TOWNNAME":"安平區","LI":"平通里","LIN":"32鄰","STREET":"永華路","SECT":"二段","MAREA":" ","LANE":" ","ALLEY":" ","HOUSE_NO":"９０６號十一樓之２","E_COORD97":164494.14999999999,"N_COORD97":2543662.0600000001,"ADDRESS":"永華路二段９０６號十一樓之２","OBJECTID":486319},"geometry":{"x":164494.1500000013,"y":2543662.0600000024}},{"attributes":{"ID":486345,"DIS_CODE":0,"TOWNNAME":"安平區","LI":"平通里","LIN":"32鄰","STREET":"永華路","SECT":"二段","MAREA":" ","LANE":" ","ALLEY":" ","HOUSE_NO":"９０６號十一樓之３","E_COORD97":164494.14999999999,"N_COORD97":2543662.0600000001,"ADDRESS":"永華路二段９０６號十一樓之３","OBJECTID":486320},"geometry":{"x":164494.1500000013,"y":2543662.0600000024}},{"attributes":{"ID":486346,"DIS_CODE":0,"TOWNNAME":"安平區","LI":"平通里","LIN":"32鄰","STREET":"永華路","SECT":"二段","MAREA":" ","LANE":" ","ALLEY":" ","HOUSE_NO":"９０６號十一樓之５","E_COORD97":164494.14999999999,"N_COORD97":2543662.0600000001,"ADDRESS":"永華路二段９０６號十一樓之５","OBJECTID":486321},"geometry":{"x":164494.1500000013,"y":2543662.0600000024}},{"attributes":{"ID":486347,"DIS_CODE":0,"TOWNNAME":"北區","LI":"大豐里","LIN":"5鄰","STREET":"武聖路","SECT":" ","MAREA":" ","LANE":" ","ALLEY":" ","HOUSE_NO":"１３０號","E_COORD97":167014.04999999999,"N_COORD97":2545229.5299999998,"ADDRESS":"武聖路１３０號","OBJECTID":486322},"geometry":{"x":167014.04999999981,"y":2545229.5299999993}},{"attributes":{"ID":486348,"DIS_CODE":0,"TOWNNAME":"安平區","LI":"平通里","LIN":"32鄰","STREET":"永華路","SECT":"二段","MAREA":" ","LANE":" ","ALLEY":" ","HOUSE_NO":"９０６號十二樓之１","E_COORD97":164494.14999999999,"N_COORD97":2543662.0600000001,"ADDRESS":"永華路二段９０６號十二樓之１","OBJECTID":486323},"geometry":{"x":164494.1500000013,"y":2543662.0600000024}},{"attributes":{"ID":486349,"DIS_CODE":0,"TOWNNAME":"安平區","LI":"平通里","LIN":"32鄰","STREET":"永華路","SECT":"二段","MAREA":" ","LANE":" ","ALLEY":" ","HOUSE_NO":"９０６號十二樓之２","E_COORD97":164494.14999999999,"N_COORD97":2543662.0600000001,"ADDRESS":"永華路二段９０６號十二樓之２","OBJECTID":486324},"geometry":{"x":164494.1500000013,"y":2543662.0600000024}},{"attributes":{"ID":486350,"DIS_CODE":0,"TOWNNAME":"仁德區","LI":"後壁里","LIN":"32鄰","STREET":"德洋路","SECT":" ","MAREA":" ","LANE":" ","ALLEY":" ","HOUSE_NO":"２１７號","E_COORD97":172516.60000000001,"N_COORD97":2539516.5099999998,"ADDRESS":"德洋路２１７號","OBJECTID":486325},"geometry":{"x":172516.60000000056,"y":2539516.5099999998}},{"attributes":{"ID":486351,"DIS_CODE":0,"TOWNNAME":"安平區","LI":"平通里","LIN":"32鄰","STREET":"永華路","SECT":"二段","MAREA":" ","LANE":" ","ALLEY":" ","HOUSE_NO":"９０６號十二樓之３","E_COORD97":164494.14999999999,"N_COORD97":2543662.0600000001,"ADDRESS":"永華路二段９０６號十二樓之３","OBJECTID":486326},"geometry":{"x":164494.1500000013,"y":2543662.0600000024}},{"attributes":{"ID":486352,"DIS_CODE":0,"TOWNNAME":"安平區","LI":"平通里","LIN":"32鄰","STREET":"永華路","SECT":"二段","MAREA":" ","LANE":" ","ALLEY":" ","HOUSE_NO":"９０６號十二樓之５","E_COORD97":164494.14999999999,"N_COORD97":2543662.0600000001,"ADDRESS":"永華路二段９０６號十二樓之５","OBJECTID":486327},"geometry":{"x":164494.1500000013,"y":2543662.0600000024}},{"attributes":{"ID":486353,"DIS_CODE":0,"TOWNNAME":"安平區","LI":"平通里","LIN":"32鄰","STREET":"永華路","SECT":"二段","MAREA":" ","LANE":" ","ALLEY":" ","HOUSE_NO":"９０６號十三樓之１","E_COORD97":164494.14999999999,"N_COORD97":2543662.0600000001,"ADDRESS":"永華路二段９０６號十三樓之１","OBJECTID":486328},"geometry":{"x":164494.1500000013,"y":2543662.0600000024}},{"attributes":{"ID":486354,"DIS_CODE":0,"TOWNNAME":"安平區","LI":"平通里","LIN":"32鄰","STREET":"永華路","SECT":"二段","MAREA":" ","LANE":" ","ALLEY":" ","HOUSE_NO":"９０６號十三樓之２","E_COORD97":164494.14999999999,"N_COORD97":2543662.0600000001,"ADDRESS":"永華路二段９０６號十三樓之２","OBJECTID":486329},"geometry":{"x":164494.1500000013,"y":2543662.0600000024}},{"attributes":{"ID":486355,"DIS_CODE":0,"TOWNNAME":"安平區","LI":"平通里","LIN":"32鄰","STREET":"永華路","SECT":"二段","MAREA":" ","LANE":" ","ALLEY":" ","HOUSE_NO":"９０６號十三樓之３","E_COORD97":164494.14999999999,"N_COORD97":2543662.0600000001,"ADDRESS":"永華路二段９０６號十三樓之３","OBJECTID":486330},"geometry":{"x":164494.1500000013,"y":2543662.0600000024}},{"attributes":{"ID":486356,"DIS_CODE":0,"TOWNNAME":"安平區","LI":"平通里","LIN":"32鄰","STREET":"永華路","SECT":"二段","MAREA":" ","LANE":" ","ALLEY":" ","HOUSE_NO":"９０６號十三樓之５","E_COORD97":164494.14999999999,"N_COORD97":2543662.0600000001,"ADDRESS":"永華路二段９０６號十三樓之５","OBJECTID":486331},"geometry":{"x":164494.1500000013,"y":2543662.0600000024}},{"attributes":{"ID":486357,"DIS_CODE":0,"TOWNNAME":"安平區","LI":"平通里","LIN":"32鄰","STREET":"永華路","SECT":"二段","MAREA":" ","LANE":" ","ALLEY":" ","HOUSE_NO":"９０６號十四樓之１","E_COORD97":164494.14999999999,"N_COORD97":2543662.0600000001,"ADDRESS":"永華路二段９０６號十四樓之１","OBJECTID":486332},"geometry":{"x":164494.1500000013,"y":2543662.0600000024}},{"attributes":{"ID":486358,"DIS_CODE":0,"TOWNNAME":"東區","LI":"小東里","LIN":"32鄰","STREET":"東安路","SECT":" ","MAREA":" ","LANE":" ","ALLEY":" ","HOUSE_NO":"２６８號","E_COORD97":170792.35999999999,"N_COORD97":2544155.5,"ADDRESS":"東安路２６８號","OBJECTID":486333},"geometry":{"x":170792.36000000034,"y":2544155.5}},{"attributes":{"ID":486359,"DIS_CODE":0,"TOWNNAME":"安平區","LI":"平通里","LIN":"32鄰","STREET":"永華路","SECT":"二段","MAREA":" ","LANE":" ","ALLEY":" ","HOUSE_NO":"９０６號十四樓之２","E_COORD97":164494.14999999999,"N_COORD97":2543662.0600000001,"ADDRESS":"永華路二段９０６號十四樓之２","OBJECTID":486334},"geometry":{"x":164494.1500000013,"y":2543662.0600000024}},{"attributes":{"ID":486360,"DIS_CODE":0,"TOWNNAME":"安平區","LI":"平通里","LIN":"32鄰","STREET":"永華路","SECT":"二段","MAREA":" ","LANE":" ","ALLEY":" ","HOUSE_NO":"９０６號十四樓之３","E_COORD97":164494.14999999999,"N_COORD97":2543662.0600000001,"ADDRESS":"永華路二段９０６號十四樓之３","OBJECTID":486335},"geometry":{"x":164494.1500000013,"y":2543662.0600000024}},{"attributes":{"ID":486361,"DIS_CODE":0,"TOWNNAME":"安平區","LI":"平通里","LIN":"32鄰","STREET":"永華路","SECT":"二段","MAREA":" ","LANE":" ","ALLEY":" ","HOUSE_NO":"９０６號十四樓之５","E_COORD97":164494.14999999999,"N_COORD97":2543662.0600000001,"ADDRESS":"永華路二段９０６號十四樓之５","OBJECTID":486336},"geometry":{"x":164494.1500000013,"y":2543662.0600000024}},{"attributes":{"ID":486362,"DIS_CODE":0,"TOWNNAME":"安平區","LI":"平通里","LIN":"32鄰","STREET":"永華路","SECT":"二段","MAREA":" ","LANE":" ","ALLEY":" ","HOUSE_NO":"９０８號二樓之１","E_COORD97":164493.01999999999,"N_COORD97":2543650.29,"ADDRESS":"永華路二段９０８號二樓之１","OBJECTID":486337},"geometry":{"x":164493.01999999955,"y":2543650.2899999991}},{"attributes":{"ID":486363,"DIS_CODE":0,"TOWNNAME":"安平區","LI":"平通里","LIN":"32鄰","STREET":"永華路","SECT":"二段","MAREA":" ","LANE":" ","ALLEY":" ","HOUSE_NO":"９０８號二樓之２","E_COORD97":164493.01999999999,"N_COORD97":2543650.29,"ADDRESS":"永華路二段９０８號二樓之２","OBJECTID":486338},"geometry":{"x":164493.01999999955,"y":2543650.2899999991}},{"attributes":{"ID":486364,"DIS_CODE":0,"TOWNNAME":"安平區","LI":"平通里","LIN":"32鄰","STREET":"永華路","SECT":"二段","MAREA":" ","LANE":" ","ALLEY":" ","HOUSE_NO":"９０８號三樓之１","E_COORD97":164493.01999999999,"N_COORD97":2543650.29,"ADDRESS":"永華路二段９０８號三樓之１","OBJECTID":486339},"geometry":{"x":164493.01999999955,"y":2543650.2899999991}},{"attributes":{"ID":486365,"DIS_CODE":0,"TOWNNAME":"安平區","LI":"平通里","LIN":"32鄰","STREET":"永華路","SECT":"二段","MAREA":" ","LANE":" ","ALLEY":" ","HOUSE_NO":"９０８號三樓之２","E_COORD97":164493.01999999999,"N_COORD97":2543650.29,"ADDRESS":"永華路二段９０８號三樓之２","OBJECTID":486340},"geometry":{"x":164493.01999999955,"y":2543650.2899999991}},{"attributes":{"ID":486366,"DIS_CODE":0,"TOWNNAME":"安平區","LI":"平通里","LIN":"32鄰","STREET":"永華路","SECT":"二段","MAREA":" ","LANE":" ","ALLEY":" ","HOUSE_NO":"９０８號四樓之１","E_COORD97":164493.01999999999,"N_COORD97":2543650.29,"ADDRESS":"永華路二段９０８號四樓之１","OBJECTID":486341},"geometry":{"x":164493.01999999955,"y":2543650.2899999991}},{"attributes":{"ID":486367,"DIS_CODE":0,"TOWNNAME":"安平區","LI":"平通里","LIN":"32鄰","STREET":"永華路","SECT":"二段","MAREA":" ","LANE":" ","ALLEY":" ","HOUSE_NO":"９０８號四樓之２","E_COORD97":164493.01999999999,"N_COORD97":2543650.29,"ADDRESS":"永華路二段９０８號四樓之２","OBJECTID":486342},"geometry":{"x":164493.01999999955,"y":2543650.2899999991}},{"attributes":{"ID":486368,"DIS_CODE":0,"TOWNNAME":"安平區","LI":"平通里","LIN":"32鄰","STREET":"永華路","SECT":"二段","MAREA":" ","LANE":" ","ALLEY":" ","HOUSE_NO":"９０８號五樓之１","E_COORD97":164493.01999999999,"N_COORD97":2543650.29,"ADDRESS":"永華路二段９０８號五樓之１","OBJECTID":486343},"geometry":{"x":164493.01999999955,"y":2543650.2899999991}},{"attributes":{"ID":486369,"DIS_CODE":0,"TOWNNAME":"安平區","LI":"平通里","LIN":"32鄰","STREET":"永華路","SECT":"二段","MAREA":" ","LANE":" ","ALLEY":" ","HOUSE_NO":"９０８號五樓之２","E_COORD97":164493.01999999999,"N_COORD97":2543650.29,"ADDRESS":"永華路二段９０８號五樓之２","OBJECTID":486344},"geometry":{"x":164493.01999999955,"y":2543650.2899999991}},{"attributes":{"ID":486370,"DIS_CODE":0,"TOWNNAME":"安平區","LI":"平通里","LIN":"32鄰","STREET":"永華路","SECT":"二段","MAREA":" ","LANE":" ","ALLEY":" ","HOUSE_NO":"９０８號六樓之１","E_COORD97":164493.01999999999,"N_COORD97":2543650.29,"ADDRESS":"永華路二段９０８號六樓之１","OBJECTID":486345},"geometry":{"x":164493.01999999955,"y":2543650.2899999991}},{"attributes":{"ID":486371,"DIS_CODE":0,"TOWNNAME":"安平區","LI":"平通里","LIN":"32鄰","STREET":"永華路","SECT":"二段","MAREA":" ","LANE":" ","ALLEY":" ","HOUSE_NO":"９０８號六樓之２","E_COORD97":164493.01999999999,"N_COORD97":2543650.29,"ADDRESS":"永華路二段９０８號六樓之２","OBJECTID":486346},"geometry":{"x":164493.01999999955,"y":2543650.2899999991}},{"attributes":{"ID":486372,"DIS_CODE":0,"TOWNNAME":"安平區","LI":"平通里","LIN":"32鄰","STREET":"永華路","SECT":"二段","MAREA":" ","LANE":" ","ALLEY":" ","HOUSE_NO":"９０８號七樓之１","E_COORD97":164493.01999999999,"N_COORD97":2543650.29,"ADDRESS":"永華路二段９０８號七樓之１","OBJECTID":486347},"geometry":{"x":164493.01999999955,"y":2543650.2899999991}},{"attributes":{"ID":486373,"DIS_CODE":0,"TOWNNAME":"安平區","LI":"平通里","LIN":"32鄰","STREET":"永華路","SECT":"二段","MAREA":" ","LANE":" ","ALLEY":" ","HOUSE_NO":"９０８號七樓之２","E_COORD97":164493.01999999999,"N_COORD97":2543650.29,"ADDRESS":"永華路二段９０８號七樓之２","OBJECTID":486348},"geometry":{"x":164493.01999999955,"y":2543650.2899999991}},{"attributes":{"ID":486374,"DIS_CODE":0,"TOWNNAME":"安平區","LI":"平通里","LIN":"32鄰","STREET":"永華路","SECT":"二段","MAREA":" ","LANE":" ","ALLEY":" ","HOUSE_NO":"９０８號八樓之１","E_COORD97":164493.01999999999,"N_COORD97":2543650.29,"ADDRESS":"永華路二段９０８號八樓之１","OBJECTID":486349},"geometry":{"x":164493.01999999955,"y":2543650.2899999991}},{"attributes":{"ID":486375,"DIS_CODE":0,"TOWNNAME":"安平區","LI":"平通里","LIN":"32鄰","STREET":"永華路","SECT":"二段","MAREA":" ","LANE":" ","ALLEY":" ","HOUSE_NO":"９０８號八樓之２","E_COORD97":164493.01999999999,"N_COORD97":2543650.29,"ADDRESS":"永華路二段９０８號八樓之２","OBJECTID":486350},"geometry":{"x":164493.01999999955,"y":2543650.2899999991}},{"attributes":{"ID":486376,"DIS_CODE":0,"TOWNNAME":"安平區","LI":"平通里","LIN":"32鄰","STREET":"永華路","SECT":"二段","MAREA":" ","LANE":" ","ALLEY":" ","HOUSE_NO":"９０８號九樓之１","E_COORD97":164493.01999999999,"N_COORD97":2543650.29,"ADDRESS":"永華路二段９０８號九樓之１","OBJECTID":486351},"geometry":{"x":164493.01999999955,"y":2543650.2899999991}},{"attributes":{"ID":486377,"DIS_CODE":0,"TOWNNAME":"安平區","LI":"平通里","LIN":"32鄰","STREET":"永華路","SECT":"二段","MAREA":" ","LANE":" ","ALLEY":" ","HOUSE_NO":"９０８號九樓之２","E_COORD97":164493.01999999999,"N_COORD97":2543650.29,"ADDRESS":"永華路二段９０８號九樓之２","OBJECTID":486352},"geometry":{"x":164493.01999999955,"y":2543650.2899999991}},{"attributes":{"ID":486378,"DIS_CODE":0,"TOWNNAME":"安平區","LI":"平通里","LIN":"32鄰","STREET":"永華路","SECT":"二段","MAREA":" ","LANE":" ","ALLEY":" ","HOUSE_NO":"９０８號十樓之１","E_COORD97":164493.01999999999,"N_COORD97":2543650.29,"ADDRESS":"永華路二段９０８號十樓之１","OBJECTID":486353},"geometry":{"x":164493.01999999955,"y":2543650.2899999991}},{"attributes":{"ID":486379,"DIS_CODE":0,"TOWNNAME":"安平區","LI":"平通里","LIN":"32鄰","STREET":"永華路","SECT":"二段","MAREA":" ","LANE":" ","ALLEY":" ","HOUSE_NO":"９０８號十樓之２","E_COORD97":164493.01999999999,"N_COORD97":2543650.29,"ADDRESS":"永華路二段９０８號十樓之２","OBJECTID":486354},"geometry":{"x":164493.01999999955,"y":2543650.2899999991}},{"attributes":{"ID":486380,"DIS_CODE":0,"TOWNNAME":"安平區","LI":"平通里","LIN":"32鄰","STREET":"永華路","SECT":"二段","MAREA":" ","LANE":" ","ALLEY":" ","HOUSE_NO":"９０８號十一樓之１","E_COORD97":164493.01999999999,"N_COORD97":2543650.29,"ADDRESS":"永華路二段９０８號十一樓之１","OBJECTID":486355},"geometry":{"x":164493.01999999955,"y":2543650.2899999991}},{"attributes":{"ID":486381,"DIS_CODE":0,"TOWNNAME":"安平區","LI":"平通里","LIN":"32鄰","STREET":"永華路","SECT":"二段","MAREA":" ","LANE":" ","ALLEY":" ","HOUSE_NO":"９０８號十一樓之２","E_COORD97":164493.01999999999,"N_COORD97":2543650.29,"ADDRESS":"永華路二段９０８號十一樓之２","OBJECTID":486356},"geometry":{"x":164493.01999999955,"y":2543650.2899999991}},{"attributes":{"ID":486382,"DIS_CODE":0,"TOWNNAME":"安平區","LI":"平通里","LIN":"32鄰","STREET":"永華路","SECT":"二段","MAREA":" ","LANE":" ","ALLEY":" ","HOUSE_NO":"９０８號十二樓之１","E_COORD97":164493.01999999999,"N_COORD97":2543650.29,"ADDRESS":"永華路二段９０８號十二樓之１","OBJECTID":486357},"geometry":{"x":164493.01999999955,"y":2543650.2899999991}},{"attributes":{"ID":486383,"DIS_CODE":0,"TOWNNAME":"安平區","LI":"平通里","LIN":"32鄰","STREET":"永華路","SECT":"二段","MAREA":" ","LANE":" ","ALLEY":" ","HOUSE_NO":"９０８號十二樓之２","E_COORD97":164493.01999999999,"N_COORD97":2543650.29,"ADDRESS":"永華路二段９０８號十二樓之２","OBJECTID":486358},"geometry":{"x":164493.01999999955,"y":2543650.2899999991}},{"attributes":{"ID":486384,"DIS_CODE":0,"TOWNNAME":"安平區","LI":"平通里","LIN":"32鄰","STREET":"永華路","SECT":"二段","MAREA":" ","LANE":" ","ALLEY":" ","HOUSE_NO":"９０８號十三樓之１","E_COORD97":164493.01999999999,"N_COORD97":2543650.29,"ADDRESS":"永華路二段９０８號十三樓之１","OBJECTID":486359},"geometry":{"x":164493.01999999955,"y":2543650.2899999991}},{"attributes":{"ID":486385,"DIS_CODE":0,"TOWNNAME":"安平區","LI":"平通里","LIN":"32鄰","STREET":"永華路","SECT":"二段","MAREA":" ","LANE":" ","ALLEY":" ","HOUSE_NO":"９０８號十三樓之２","E_COORD97":164493.01999999999,"N_COORD97":2543650.29,"ADDRESS":"永華路二段９０８號十三樓之２","OBJECTID":486360},"geometry":{"x":164493.01999999955,"y":2543650.2899999991}},{"attributes":{"ID":486386,"DIS_CODE":0,"TOWNNAME":"安平區","LI":"平通里","LIN":"32鄰","STREET":"永華路","SECT":"二段","MAREA":" ","LANE":" ","ALLEY":" ","HOUSE_NO":"９０８號十四樓之１","E_COORD97":164493.01999999999,"N_COORD97":2543650.29,"ADDRESS":"永華路二段９０８號十四樓之１","OBJECTID":486361},"geometry":{"x":164493.01999999955,"y":2543650.2899999991}},{"attributes":{"ID":486387,"DIS_CODE":0,"TOWNNAME":"安平區","LI":"平通里","LIN":"32鄰","STREET":"永華路","SECT":"二段","MAREA":" ","LANE":" ","ALLEY":" ","HOUSE_NO":"９０８號十四樓之２","E_COORD97":164493.01999999999,"N_COORD97":2543650.29,"ADDRESS":"永華路二段９０８號十四樓之２","OBJECTID":486362},"geometry":{"x":164493.01999999955,"y":2543650.2899999991}},{"attributes":{"ID":486388,"DIS_CODE":0,"TOWNNAME":"安平區","LI":"平通里","LIN":"32鄰","STREET":"永華路","SECT":"二段","MAREA":" ","LANE":" ","ALLEY":" ","HOUSE_NO":"９１０號二樓之２","E_COORD97":164491.73000000001,"N_COORD97":2543639.0099999998,"ADDRESS":"永華路二段９１０號二樓之２","OBJECTID":486363},"geometry":{"x":164491.73000000138,"y":2543639.0100000016}},{"attributes":{"ID":486389,"DIS_CODE":0,"TOWNNAME":"安平區","LI":"平通里","LIN":"32鄰","STREET":"永華路","SECT":"二段","MAREA":" ","LANE":" ","ALLEY":" ","HOUSE_NO":"９１０號二樓之１","E_COORD97":164491.73000000001,"N_COORD97":2543639.0099999998,"ADDRESS":"永華路二段９１０號二樓之１","OBJECTID":486364},"geometry":{"x":164491.73000000138,"y":2543639.0100000016}},{"attributes":{"ID":486390,"DIS_CODE":0,"TOWNNAME":"安平區","LI":"平通里","LIN":"32鄰","STREET":"永華路","SECT":"二段","MAREA":" ","LANE":" ","ALLEY":" ","HOUSE_NO":"９１０號二樓之３","E_COORD97":164491.73000000001,"N_COORD97":2543639.0099999998,"ADDRESS":"永華路二段９１０號二樓之３","OBJECTID":486365},"geometry":{"x":164491.73000000138,"y":2543639.0100000016}},{"attributes":{"ID":486391,"DIS_CODE":0,"TOWNNAME":"安平區","LI":"平通里","LIN":"32鄰","STREET":"永華路","SECT":"二段","MAREA":" ","LANE":" ","ALLEY":" ","HOUSE_NO":"９１０號二樓之５","E_COORD97":164491.73000000001,"N_COORD97":2543639.0099999998,"ADDRESS":"永華路二段９１０號二樓之５","OBJECTID":486366},"geometry":{"x":164491.73000000138,"y":2543639.0100000016}},{"attributes":{"ID":486392,"DIS_CODE":0,"TOWNNAME":"安平區","LI":"平通里","LIN":"32鄰","STREET":"永華路","SECT":"二段","MAREA":" ","LANE":" ","ALLEY":" ","HOUSE_NO":"９１０號三樓之１","E_COORD97":164491.73000000001,"N_COORD97":2543639.0099999998,"ADDRESS":"永華路二段９１０號三樓之１","OBJECTID":486367},"geometry":{"x":164491.73000000138,"y":2543639.0100000016}},{"attributes":{"ID":486393,"DIS_CODE":0,"TOWNNAME":"安平區","LI":"平通里","LIN":"32鄰","STREET":"永華路","SECT":"二段","MAREA":" ","LANE":" ","ALLEY":" ","HOUSE_NO":"９１０號三樓之２","E_COORD97":164491.73000000001,"N_COORD97":2543639.0099999998,"ADDRESS":"永華路二段９１０號三樓之２","OBJECTID":486368},"geometry":{"x":164491.73000000138,"y":2543639.0100000016}},{"attributes":{"ID":486394,"DIS_CODE":0,"TOWNNAME":"安平區","LI":"平通里","LIN":"32鄰","STREET":"永華路","SECT":"二段","MAREA":" ","LANE":" ","ALLEY":" ","HOUSE_NO":"９１０號三樓之３","E_COORD97":164491.73000000001,"N_COORD97":2543639.0099999998,"ADDRESS":"永華路二段９１０號三樓之３","OBJECTID":486369},"geometry":{"x":164491.73000000138,"y":2543639.0100000016}},{"attributes":{"ID":486395,"DIS_CODE":0,"TOWNNAME":"安平區","LI":"平通里","LIN":"32鄰","STREET":"永華路","SECT":"二段","MAREA":" ","LANE":" ","ALLEY":" ","HOUSE_NO":"９１０號三樓之５","E_COORD97":164491.73000000001,"N_COORD97":2543639.0099999998,"ADDRESS":"永華路二段９１０號三樓之５","OBJECTID":486370},"geometry":{"x":164491.73000000138,"y":2543639.0100000016}},{"attributes":{"ID":486396,"DIS_CODE":0,"TOWNNAME":"安平區","LI":"平通里","LIN":"32鄰","STREET":"永華路","SECT":"二段","MAREA":" ","LANE":" ","ALLEY":" ","HOUSE_NO":"９１０號四樓之１","E_COORD97":164491.73000000001,"N_COORD97":2543639.0099999998,"ADDRESS":"永華路二段９１０號四樓之１","OBJECTID":486371},"geometry":{"x":164491.73000000138,"y":2543639.0100000016}},{"attributes":{"ID":486397,"DIS_CODE":0,"TOWNNAME":"安平區","LI":"平通里","LIN":"32鄰","STREET":"永華路","SECT":"二段","MAREA":" ","LANE":" ","ALLEY":" ","HOUSE_NO":"９１０號四樓之２","E_COORD97":164491.73000000001,"N_COORD97":2543639.0099999998,"ADDRESS":"永華路二段９１０號四樓之２","OBJECTID":486372},"geometry":{"x":164491.73000000138,"y":2543639.0100000016}},{"attributes":{"ID":486398,"DIS_CODE":0,"TOWNNAME":"安平區","LI":"平通里","LIN":"32鄰","STREET":"永華路","SECT":"二段","MAREA":" ","LANE":" ","ALLEY":" ","HOUSE_NO":"９１０號四樓之３","E_COORD97":164491.73000000001,"N_COORD97":2543639.0099999998,"ADDRESS":"永華路二段９１０號四樓之３","OBJECTID":486373},"geometry":{"x":164491.73000000138,"y":2543639.0100000016}},{"attributes":{"ID":486399,"DIS_CODE":0,"TOWNNAME":"安平區","LI":"平通里","LIN":"32鄰","STREET":"永華路","SECT":"二段","MAREA":" ","LANE":" ","ALLEY":" ","HOUSE_NO":"９１０號四樓之５","E_COORD97":164491.73000000001,"N_COORD97":2543639.0099999998,"ADDRESS":"永華路二段９１０號四樓之５","OBJECTID":486374},"geometry":{"x":164491.73000000138,"y":2543639.0100000016}},{"attributes":{"ID":486400,"DIS_CODE":0,"TOWNNAME":"安平區","LI":"平通里","LIN":"32鄰","STREET":"永華路","SECT":"二段","MAREA":" ","LANE":" ","ALLEY":" ","HOUSE_NO":"９１０號五樓之１","E_COORD97":164491.73000000001,"N_COORD97":2543639.0099999998,"ADDRESS":"永華路二段９１０號五樓之１","OBJECTID":486375},"geometry":{"x":164491.73000000138,"y":2543639.0100000016}},{"attributes":{"ID":486401,"DIS_CODE":0,"TOWNNAME":"安平區","LI":"平通里","LIN":"32鄰","STREET":"永華路","SECT":"二段","MAREA":" ","LANE":" ","ALLEY":" ","HOUSE_NO":"９１０號五樓之２","E_COORD97":164491.73000000001,"N_COORD97":2543639.0099999998,"ADDRESS":"永華路二段９１０號五樓之２","OBJECTID":486376},"geometry":{"x":164491.73000000138,"y":2543639.0100000016}},{"attributes":{"ID":486402,"DIS_CODE":0,"TOWNNAME":"安平區","LI":"平通里","LIN":"32鄰","STREET":"永華路","SECT":"二段","MAREA":" ","LANE":" ","ALLEY":" ","HOUSE_NO":"９１０號五樓之３","E_COORD97":164491.73000000001,"N_COORD97":2543639.0099999998,"ADDRESS":"永華路二段９１０號五樓之３","OBJECTID":486377},"geometry":{"x":164491.73000000138,"y":2543639.0100000016}},{"attributes":{"ID":486403,"DIS_CODE":0,"TOWNNAME":"安平區","LI":"平通里","LIN":"32鄰","STREET":"永華路","SECT":"二段","MAREA":" ","LANE":" ","ALLEY":" ","HOUSE_NO":"９１０號五樓之５","E_COORD97":164491.73000000001,"N_COORD97":2543639.0099999998,"ADDRESS":"永華路二段９１０號五樓之５","OBJECTID":486378},"geometry":{"x":164491.73000000138,"y":2543639.0100000016}},{"attributes":{"ID":486404,"DIS_CODE":0,"TOWNNAME":"安平區","LI":"平通里","LIN":"32鄰","STREET":"永華路","SECT":"二段","MAREA":" ","LANE":" ","ALLEY":" ","HOUSE_NO":"９１０號六樓之１","E_COORD97":164491.73000000001,"N_COORD97":2543639.0099999998,"ADDRESS":"永華路二段９１０號六樓之１","OBJECTID":486379},"geometry":{"x":164491.73000000138,"y":2543639.0100000016}},{"attributes":{"ID":486405,"DIS_CODE":0,"TOWNNAME":"安平區","LI":"平通里","LIN":"32鄰","STREET":"永華路","SECT":"二段","MAREA":" ","LANE":" ","ALLEY":" ","HOUSE_NO":"９１０號六樓之２","E_COORD97":164491.73000000001,"N_COORD97":2543639.0099999998,"ADDRESS":"永華路二段９１０號六樓之２","OBJECTID":486380},"geometry":{"x":164491.73000000138,"y":2543639.0100000016}},{"attributes":{"ID":486406,"DIS_CODE":0,"TOWNNAME":"安平區","LI":"平通里","LIN":"32鄰","STREET":"永華路","SECT":"二段","MAREA":" ","LANE":" ","ALLEY":" ","HOUSE_NO":"９１０號六樓之３","E_COORD97":164491.73000000001,"N_COORD97":2543639.0099999998,"ADDRESS":"永華路二段９１０號六樓之３","OBJECTID":486381},"geometry":{"x":164491.73000000138,"y":2543639.0100000016}},{"attributes":{"ID":486407,"DIS_CODE":0,"TOWNNAME":"安平區","LI":"平通里","LIN":"32鄰","STREET":"永華路","SECT":"二段","MAREA":" ","LANE":" ","ALLEY":" ","HOUSE_NO":"９１０號六樓之５","E_COORD97":164491.73000000001,"N_COORD97":2543639.0099999998,"ADDRESS":"永華路二段９１０號六樓之５","OBJECTID":486382},"geometry":{"x":164491.73000000138,"y":2543639.0100000016}},{"attributes":{"ID":486408,"DIS_CODE":0,"TOWNNAME":"安平區","LI":"平通里","LIN":"32鄰","STREET":"永華路","SECT":"二段","MAREA":" ","LANE":" ","ALLEY":" ","HOUSE_NO":"９１０號七樓之１","E_COORD97":164491.73000000001,"N_COORD97":2543639.0099999998,"ADDRESS":"永華路二段９１０號七樓之１","OBJECTID":486383},"geometry":{"x":164491.73000000138,"y":2543639.0100000016}},{"attributes":{"ID":486409,"DIS_CODE":0,"TOWNNAME":"安平區","LI":"平通里","LIN":"32鄰","STREET":"永華路","SECT":"二段","MAREA":" ","LANE":" ","ALLEY":" ","HOUSE_NO":"９１０號七樓之２","E_COORD97":164491.73000000001,"N_COORD97":2543639.0099999998,"ADDRESS":"永華路二段９１０號七樓之２","OBJECTID":486384},"geometry":{"x":164491.73000000138,"y":2543639.0100000016}},{"attributes":{"ID":486410,"DIS_CODE":0,"TOWNNAME":"安平區","LI":"平通里","LIN":"32鄰","STREET":"永華路","SECT":"二段","MAREA":" ","LANE":" ","ALLEY":" ","HOUSE_NO":"９１０號七樓之３","E_COORD97":164491.73000000001,"N_COORD97":2543639.0099999998,"ADDRESS":"永華路二段９１０號七樓之３","OBJECTID":486385},"geometry":{"x":164491.73000000138,"y":2543639.0100000016}},{"attributes":{"ID":486411,"DIS_CODE":0,"TOWNNAME":"安平區","LI":"平通里","LIN":"32鄰","STREET":"永華路","SECT":"二段","MAREA":" ","LANE":" ","ALLEY":" ","HOUSE_NO":"９１０號七樓之５","E_COORD97":164491.73000000001,"N_COORD97":2543639.0099999998,"ADDRESS":"永華路二段９１０號七樓之５","OBJECTID":486386},"geometry":{"x":164491.73000000138,"y":2543639.0100000016}},{"attributes":{"ID":486412,"DIS_CODE":0,"TOWNNAME":"安平區","LI":"平通里","LIN":"32鄰","STREET":"永華路","SECT":"二段","MAREA":" ","LANE":" ","ALLEY":" ","HOUSE_NO":"９１０號八樓之１","E_COORD97":164491.73000000001,"N_COORD97":2543639.0099999998,"ADDRESS":"永華路二段９１０號八樓之１","OBJECTID":486387},"geometry":{"x":164491.73000000138,"y":2543639.0100000016}},{"attributes":{"ID":486413,"DIS_CODE":0,"TOWNNAME":"安平區","LI":"平通里","LIN":"32鄰","STREET":"永華路","SECT":"二段","MAREA":" ","LANE":" ","ALLEY":" ","HOUSE_NO":"９１０號八樓之２","E_COORD97":164491.73000000001,"N_COORD97":2543639.0099999998,"ADDRESS":"永華路二段９１０號八樓之２","OBJECTID":486388},"geometry":{"x":164491.73000000138,"y":2543639.0100000016}},{"attributes":{"ID":486414,"DIS_CODE":0,"TOWNNAME":"安平區","LI":"平通里","LIN":"32鄰","STREET":"永華路","SECT":"二段","MAREA":" ","LANE":" ","ALLEY":" ","HOUSE_NO":"９１０號八樓之３","E_COORD97":164491.73000000001,"N_COORD97":2543639.0099999998,"ADDRESS":"永華路二段９１０號八樓之３","OBJECTID":486389},"geometry":{"x":164491.73000000138,"y":2543639.0100000016}},{"attributes":{"ID":486415,"DIS_CODE":0,"TOWNNAME":"安平區","LI":"平通里","LIN":"32鄰","STREET":"永華路","SECT":"二段","MAREA":" ","LANE":" ","ALLEY":" ","HOUSE_NO":"９１０號八樓之５","E_COORD97":164491.73000000001,"N_COORD97":2543639.0099999998,"ADDRESS":"永華路二段９１０號八樓之５","OBJECTID":486390},"geometry":{"x":164491.73000000138,"y":2543639.0100000016}},{"attributes":{"ID":486416,"DIS_CODE":0,"TOWNNAME":"安平區","LI":"平通里","LIN":"32鄰","STREET":"永華路","SECT":"二段","MAREA":" ","LANE":" ","ALLEY":" ","HOUSE_NO":"９１０號九樓之１","E_COORD97":164491.73000000001,"N_COORD97":2543639.0099999998,"ADDRESS":"永華路二段９１０號九樓之１","OBJECTID":486391},"geometry":{"x":164491.73000000138,"y":2543639.0100000016}},{"attributes":{"ID":486417,"DIS_CODE":0,"TOWNNAME":"安平區","LI":"平通里","LIN":"32鄰","STREET":"永華路","SECT":"二段","MAREA":" ","LANE":" ","ALLEY":" ","HOUSE_NO":"９１０號九樓之２","E_COORD97":164491.73000000001,"N_COORD97":2543639.0099999998,"ADDRESS":"永華路二段９１０號九樓之２","OBJECTID":486392},"geometry":{"x":164491.73000000138,"y":2543639.0100000016}},{"attributes":{"ID":486418,"DIS_CODE":0,"TOWNNAME":"安平區","LI":"平通里","LIN":"32鄰","STREET":"永華路","SECT":"二段","MAREA":" ","LANE":" ","ALLEY":" ","HOUSE_NO":"９１０號九樓之３","E_COORD97":164491.73000000001,"N_COORD97":2543639.0099999998,"ADDRESS":"永華路二段９１０號九樓之３","OBJECTID":486393},"geometry":{"x":164491.73000000138,"y":2543639.0100000016}},{"attributes":{"ID":486419,"DIS_CODE":0,"TOWNNAME":"安平區","LI":"平通里","LIN":"32鄰","STREET":"永華路","SECT":"二段","MAREA":" ","LANE":" ","ALLEY":" ","HOUSE_NO":"９１０號九樓之５","E_COORD97":164491.73000000001,"N_COORD97":2543639.0099999998,"ADDRESS":"永華路二段９１０號九樓之５","OBJECTID":486394},"geometry":{"x":164491.73000000138,"y":2543639.0100000016}},{"attributes":{"ID":486420,"DIS_CODE":0,"TOWNNAME":"安平區","LI":"平通里","LIN":"32鄰","STREET":"永華路","SECT":"二段","MAREA":" ","LANE":" ","ALLEY":" ","HOUSE_NO":"９１０號十樓之１","E_COORD97":164491.73000000001,"N_COORD97":2543639.0099999998,"ADDRESS":"永華路二段９１０號十樓之１","OBJECTID":486395},"geometry":{"x":164491.73000000138,"y":2543639.0100000016}},{"attributes":{"ID":486421,"DIS_CODE":0,"TOWNNAME":"安平區","LI":"平通里","LIN":"32鄰","STREET":"永華路","SECT":"二段","MAREA":" ","LANE":" ","ALLEY":" ","HOUSE_NO":"９１０號十樓之２","E_COORD97":164491.73000000001,"N_COORD97":2543639.0099999998,"ADDRESS":"永華路二段９１０號十樓之２","OBJECTID":486396},"geometry":{"x":164491.73000000138,"y":2543639.0100000016}},{"attributes":{"ID":486422,"DIS_CODE":0,"TOWNNAME":"安平區","LI":"平通里","LIN":"32鄰","STREET":"永華路","SECT":"二段","MAREA":" ","LANE":" ","ALLEY":" ","HOUSE_NO":"９１０號十樓之３","E_COORD97":164491.73000000001,"N_COORD97":2543639.0099999998,"ADDRESS":"永華路二段９１０號十樓之３","OBJECTID":486397},"geometry":{"x":164491.73000000138,"y":2543639.0100000016}},{"attributes":{"ID":486423,"DIS_CODE":0,"TOWNNAME":"安平區","LI":"平通里","LIN":"32鄰","STREET":"永華路","SECT":"二段","MAREA":" ","LANE":" ","ALLEY":" ","HOUSE_NO":"９１０號十樓之５","E_COORD97":164491.73000000001,"N_COORD97":2543639.0099999998,"ADDRESS":"永華路二段９１０號十樓之５","OBJECTID":486398},"geometry":{"x":164491.73000000138,"y":2543639.0100000016}},{"attributes":{"ID":486424,"DIS_CODE":0,"TOWNNAME":"安平區","LI":"平通里","LIN":"32鄰","STREET":"永華路","SECT":"二段","MAREA":" ","LANE":" ","ALLEY":" ","HOUSE_NO":"９１０號十一樓之１","E_COORD97":164491.73000000001,"N_COORD97":2543639.0099999998,"ADDRESS":"永華路二段９１０號十一樓之１","OBJECTID":486399},"geometry":{"x":164491.73000000138,"y":2543639.0100000016}},{"attributes":{"ID":486425,"DIS_CODE":0,"TOWNNAME":"安平區","LI":"平通里","LIN":"32鄰","STREET":"永華路","SECT":"二段","MAREA":" ","LANE":" ","ALLEY":" ","HOUSE_NO":"９１０號十一樓之２","E_COORD97":164491.73000000001,"N_COORD97":2543639.0099999998,"ADDRESS":"永華路二段９１０號十一樓之２","OBJECTID":486400},"geometry":{"x":164491.73000000138,"y":2543639.0100000016}}]}