{"displayFieldName":"TOWNNAME","fieldAliases":{"ID":"ID","DIS_CODE":"DIS_CODE","TOWNNAME":"TOWNNAME","LI":"LI","LIN":"LIN","STREET":"STREET","SECT":"SECT","MAREA":"MAREA","LANE":"LANE","ALLEY":"ALLEY","HOUSE_NO":"HOUSE_NO","E_COORD97":"E_COORD97","N_COORD97":"N_COORD97","ADDRESS":"ADDRESS","OBJECTID":"OBJECTID"},"geometryType":"esriGeometryPoint","spatialReference":{"wkid":102443,"latestWkid":3826},"fields":[{"name":"ID","type":"esriFieldTypeDouble","alias":"ID"},{"name":"DIS_CODE","type":"esriFieldTypeInteger","alias":"DIS_CODE"},{"name":"TOWNNAME","type":"esriFieldTypeString","alias":"TOWNNAME","length":8},{"name":"LI","type":"esriFieldTypeString","alias":"LI","length":8},{"name":"LIN","type":"esriFieldTypeString","alias":"LIN","length":12},{"name":"STREET","type":"esriFieldTypeString","alias":"STREET","length":20},{"name":"SECT","type":"esriFieldTypeString","alias":"SECT","length":8},{"name":"MAREA","type":"esriFieldTypeString","alias":"MAREA","length":12},{"name":"LANE","type":"esriFieldTypeString","alias":"LANE","length":10},{"name":"ALLEY","type":"esriFieldTypeString","alias":"ALLEY","length":10},{"name":"HOUSE_NO","type":"esriFieldTypeString","alias":"HOUSE_NO","length":20},{"name":"E_COORD97","type":"esriFieldTypeDouble","alias":"E_COORD97"},{"name":"N_COORD97","type":"esriFieldTypeDouble","alias":"N_COORD97"},{"name":"ADDRESS","type":"esriFieldTypeString","alias":"ADDRESS","length":50},{"name":"OBJECTID","type":"esriFieldTypeOID","alias":"OBJECTID"}],"features":[{"attributes":{"ID":287007,"DIS_CODE":0,"TOWNNAME":"東區","LI":"後甲里","LIN":"12鄰","STREET":"裕農路","SECT":" ","MAREA":" ","LANE":"６６１巷","ALLEY":" ","HOUSE_NO":"１６號","E_COORD97":171731.82999999999,"N_COORD97":2543288.54,"ADDRESS":"裕農路６６１巷１６號","OBJECTID":287001},"geometry":{"x":171731.83000000007,"y":2543288.540000001}},{"attributes":{"ID":287008,"DIS_CODE":0,"TOWNNAME":"東區","LI":"後甲里","LIN":"12鄰","STREET":"裕農路","SECT":" ","MAREA":" ","LANE":"６６１巷","ALLEY":" ","HOUSE_NO":"３６號","E_COORD97":171731.82999999999,"N_COORD97":2543328.77,"ADDRESS":"裕農路６６１巷３６號","OBJECTID":287002},"geometry":{"x":171731.83000000007,"y":2543328.7699999996}},{"attributes":{"ID":287009,"DIS_CODE":0,"TOWNNAME":"仁德區","LI":"保安里","LIN":"12鄰","STREET":"開發五路","SECT":" ","MAREA":" ","LANE":" ","ALLEY":" ","HOUSE_NO":"３１號","E_COORD97":173246.097503,"N_COORD97":2536094.5123399999,"ADDRESS":"開發五路３１號","OBJECTID":287003},"geometry":{"x":173246.09750299994,"y":2536094.5123420004}},{"attributes":{"ID":287010,"DIS_CODE":0,"TOWNNAME":"東區","LI":"小東里","LIN":"12鄰","STREET":"光明街","SECT":" ","MAREA":" ","LANE":"６０巷","ALLEY":" ","HOUSE_NO":"１號","E_COORD97":170874.29999999999,"N_COORD97":2544250.4700000002,"ADDRESS":"光明街６０巷１號","OBJECTID":287004},"geometry":{"x":170874.30000000168,"y":2544250.4700000025}},{"attributes":{"ID":287011,"DIS_CODE":0,"TOWNNAME":"東區","LI":"小東里","LIN":"12鄰","STREET":"光明街","SECT":" ","MAREA":" ","LANE":"６０巷","ALLEY":" ","HOUSE_NO":"１號之１","E_COORD97":170868.97,"N_COORD97":2544249.5299999998,"ADDRESS":"光明街６０巷１號之１","OBJECTID":287005},"geometry":{"x":170868.96999999974,"y":2544249.5299999993}},{"attributes":{"ID":287012,"DIS_CODE":0,"TOWNNAME":"東區","LI":"小東里","LIN":"12鄰","STREET":"光明街","SECT":" ","MAREA":" ","LANE":"６０巷","ALLEY":" ","HOUSE_NO":"３號","E_COORD97":170863.63,"N_COORD97":2544249.6899999999,"ADDRESS":"光明街６０巷３號","OBJECTID":287006},"geometry":{"x":170863.63000000175,"y":2544249.6900000032}},{"attributes":{"ID":287013,"DIS_CODE":0,"TOWNNAME":"安南區","LI":"淵中里","LIN":"4鄰","STREET":"安中路","SECT":"三段","MAREA":" ","LANE":" ","ALLEY":" ","HOUSE_NO":"４４３號","E_COORD97":165309.14999999999,"N_COORD97":2550082.5899999999,"ADDRESS":"安中路三段４４３號","OBJECTID":287007},"geometry":{"x":165309.1500000013,"y":2550082.5900000017}},{"attributes":{"ID":287014,"DIS_CODE":0,"TOWNNAME":"安南區","LI":"淵中里","LIN":"4鄰","STREET":"安中路","SECT":"三段","MAREA":" ","LANE":" ","ALLEY":" ","HOUSE_NO":"４４５號","E_COORD97":165307.23000000001,"N_COORD97":2550087.3500000001,"ADDRESS":"安中路三段４４５號","OBJECTID":287008},"geometry":{"x":165307.23000000138,"y":2550087.3500000015}},{"attributes":{"ID":287015,"DIS_CODE":0,"TOWNNAME":"安南區","LI":"淵中里","LIN":"4鄰","STREET":"安中路","SECT":"三段","MAREA":" ","LANE":" ","ALLEY":" ","HOUSE_NO":"４４７號","E_COORD97":165305.95000000001,"N_COORD97":2550090.4300000002,"ADDRESS":"安中路三段４４７號","OBJECTID":287009},"geometry":{"x":165305.95000000019,"y":2550090.4300000016}},{"attributes":{"ID":287016,"DIS_CODE":0,"TOWNNAME":"東區","LI":"小東里","LIN":"12鄰","STREET":"光明街","SECT":" ","MAREA":" ","LANE":"６０巷","ALLEY":" ","HOUSE_NO":"１１號","E_COORD97":170845.92000000001,"N_COORD97":2544249.2200000002,"ADDRESS":"光明街６０巷１１號","OBJECTID":287010},"geometry":{"x":170845.91999999993,"y":2544249.2200000007}},{"attributes":{"ID":287017,"DIS_CODE":0,"TOWNNAME":"仁德區","LI":"仁德里","LIN":"38鄰","STREET":"文宏二街","SECT":" ","MAREA":" ","LANE":" ","ALLEY":" ","HOUSE_NO":"３９號","E_COORD97":172450.652168,"N_COORD97":2541745.1990399999,"ADDRESS":"文宏二街３９號","OBJECTID":287011},"geometry":{"x":172450.65216800012,"y":2541745.1990380026}},{"attributes":{"ID":287018,"DIS_CODE":0,"TOWNNAME":"東區","LI":"小東里","LIN":"12鄰","STREET":"光明街","SECT":" ","MAREA":" ","LANE":"６０巷","ALLEY":" ","HOUSE_NO":"１２號","E_COORD97":170856.89000000001,"N_COORD97":2544274.0299999998,"ADDRESS":"光明街６０巷１２號","OBJECTID":287012},"geometry":{"x":170856.8900000006,"y":2544274.0299999975}},{"attributes":{"ID":287019,"DIS_CODE":0,"TOWNNAME":"東區","LI":"小東里","LIN":"12鄰","STREET":"光明街","SECT":" ","MAREA":" ","LANE":"６０巷","ALLEY":" ","HOUSE_NO":"１３號","E_COORD97":170841.06,"N_COORD97":2544249.2200000002,"ADDRESS":"光明街６０巷１３號","OBJECTID":287013},"geometry":{"x":170841.05999999959,"y":2544249.2200000007}},{"attributes":{"ID":287020,"DIS_CODE":0,"TOWNNAME":"東區","LI":"崇學里","LIN":"12鄰","STREET":"崇明十街","SECT":" ","MAREA":" ","LANE":"７０巷","ALLEY":" ","HOUSE_NO":"３１號","E_COORD97":170268.79999999999,"N_COORD97":2541842.0099999998,"ADDRESS":"崇明十街７０巷３１號","OBJECTID":287014},"geometry":{"x":170268.79999999981,"y":2541842.0100000016}},{"attributes":{"ID":287021,"DIS_CODE":0,"TOWNNAME":"東區","LI":"東安里","LIN":"12鄰","STREET":"長榮路","SECT":"二段","MAREA":" ","LANE":"３２巷","ALLEY":" ","HOUSE_NO":"１３４號","E_COORD97":170183.95999999999,"N_COORD97":2543141.1600000001,"ADDRESS":"長榮路二段３２巷１３４號","OBJECTID":287015},"geometry":{"x":170183.96000000089,"y":2543141.1600000001}},{"attributes":{"ID":287022,"DIS_CODE":0,"TOWNNAME":"東區","LI":"東安里","LIN":"12鄰","STREET":"長榮路","SECT":"二段","MAREA":" ","LANE":"３２巷","ALLEY":" ","HOUSE_NO":"１３６號","E_COORD97":170188.85999999999,"N_COORD97":2543142.4399999999,"ADDRESS":"長榮路二段３２巷１３６號","OBJECTID":287016},"geometry":{"x":170188.86000000034,"y":2543142.4399999976}},{"attributes":{"ID":287023,"DIS_CODE":0,"TOWNNAME":"安南區","LI":"城南里","LIN":"12鄰","STREET":"城西街","SECT":"二段","MAREA":" ","LANE":"２４８巷","ALLEY":" ","HOUSE_NO":"１１號","E_COORD97":159714.09,"N_COORD97":2551042.2599999998,"ADDRESS":"城西街二段２４８巷１１號","OBJECTID":287017},"geometry":{"x":159714.08999999985,"y":2551042.2599999998}},{"attributes":{"ID":287024,"DIS_CODE":0,"TOWNNAME":"安南區","LI":"城南里","LIN":"12鄰","STREET":"城西街","SECT":"二段","MAREA":" ","LANE":"２４８巷","ALLEY":" ","HOUSE_NO":"１２號","E_COORD97":159737.88,"N_COORD97":2551039.2200000002,"ADDRESS":"城西街二段２４８巷１２號","OBJECTID":287018},"geometry":{"x":159737.87999999989,"y":2551039.2200000025}},{"attributes":{"ID":287025,"DIS_CODE":0,"TOWNNAME":"安南區","LI":"溪心里","LIN":"2鄰","STREET":"海佃路","SECT":"二段","MAREA":" ","LANE":" ","ALLEY":" ","HOUSE_NO":"６３１號","E_COORD97":166488.56,"N_COORD97":2549511.1200000001,"ADDRESS":"海佃路二段６３１號","OBJECTID":287019},"geometry":{"x":166488.56000000145,"y":2549511.1200000029}},{"attributes":{"ID":287026,"DIS_CODE":0,"TOWNNAME":"新化區","LI":"護國里","LIN":"7鄰","STREET":"復興路","SECT":" ","MAREA":" ","LANE":"２９０巷","ALLEY":" ","HOUSE_NO":"２１號","E_COORD97":179386.76999999999,"N_COORD97":2548452.25,"ADDRESS":"復興路２９０巷２１號","OBJECTID":287020},"geometry":{"x":179386.76999999955,"y":2548452.25}},{"attributes":{"ID":287027,"DIS_CODE":0,"TOWNNAME":"安南區","LI":"城南里","LIN":"12鄰","STREET":"城西街","SECT":"二段","MAREA":" ","LANE":"２４８巷","ALLEY":" ","HOUSE_NO":"１９號","E_COORD97":159713.17000000001,"N_COORD97":2551062.6600000001,"ADDRESS":"城西街二段２４８巷１９號","OBJECTID":287021},"geometry":{"x":159713.17000000086,"y":2551062.660000002}},{"attributes":{"ID":287028,"DIS_CODE":0,"TOWNNAME":"安南區","LI":"城南里","LIN":"12鄰","STREET":"城西街","SECT":"二段","MAREA":" ","LANE":"２４８巷","ALLEY":" ","HOUSE_NO":"２１號","E_COORD97":159696.70999999999,"N_COORD97":2551074.8399999999,"ADDRESS":"城西街二段２４８巷２１號","OBJECTID":287022},"geometry":{"x":159696.70999999996,"y":2551074.8400000017}},{"attributes":{"ID":287029,"DIS_CODE":0,"TOWNNAME":"安南區","LI":"城南里","LIN":"12鄰","STREET":"城西街","SECT":"二段","MAREA":" ","LANE":"２４８巷","ALLEY":" ","HOUSE_NO":"２４號","E_COORD97":159713.48000000001,"N_COORD97":2551090.3700000001,"ADDRESS":"城西街二段２４８巷２４號","OBJECTID":287023},"geometry":{"x":159713.48000000045,"y":2551090.370000001}},{"attributes":{"ID":287030,"DIS_CODE":0,"TOWNNAME":"安南區","LI":"安和里","LIN":"12鄰","STREET":"安和路","SECT":"一段","MAREA":" ","LANE":"５２巷","ALLEY":" ","HOUSE_NO":"４４號","E_COORD97":169668.06,"N_COORD97":2547557.23,"ADDRESS":"安和路一段５２巷４４號","OBJECTID":287024},"geometry":{"x":169668.05999999959,"y":2547557.2300000023}},{"attributes":{"ID":287031,"DIS_CODE":0,"TOWNNAME":"安南區","LI":"淵中里","LIN":"4鄰","STREET":"安中路","SECT":"三段","MAREA":" ","LANE":" ","ALLEY":" ","HOUSE_NO":"４４９號","E_COORD97":165304.62,"N_COORD97":2550093.73,"ADDRESS":"安中路三段４４９號","OBJECTID":287025},"geometry":{"x":165304.62000000011,"y":2550093.7300000004}},{"attributes":{"ID":287032,"DIS_CODE":0,"TOWNNAME":"仁德區","LI":"仁義里","LIN":"49鄰","STREET":"中清路","SECT":" ","MAREA":" ","LANE":"７巷","ALLEY":" ","HOUSE_NO":"１號","E_COORD97":173667.19,"N_COORD97":2541005.79,"ADDRESS":"中清路７巷１號","OBJECTID":287026},"geometry":{"x":173667.19000000041,"y":2541005.7899999991}},{"attributes":{"ID":287033,"DIS_CODE":0,"TOWNNAME":"安南區","LI":"淵中里","LIN":"4鄰","STREET":"安中路","SECT":"三段","MAREA":" ","LANE":" ","ALLEY":" ","HOUSE_NO":"４５１號","E_COORD97":165303.57000000001,"N_COORD97":2550096.6899999999,"ADDRESS":"安中路三段４５１號","OBJECTID":287027},"geometry":{"x":165303.5700000003,"y":2550096.6899999995}},{"attributes":{"ID":287034,"DIS_CODE":0,"TOWNNAME":"安南區","LI":"淵中里","LIN":"4鄰","STREET":"安中路","SECT":"四段","MAREA":" ","LANE":" ","ALLEY":" ","HOUSE_NO":"１１號","E_COORD97":165278.82000000001,"N_COORD97":2550093.4700000002,"ADDRESS":"安中路四段１１號","OBJECTID":287028},"geometry":{"x":165278.82000000216,"y":2550093.4700000007}},{"attributes":{"ID":287035,"DIS_CODE":0,"TOWNNAME":"安南區","LI":"淵中里","LIN":"4鄰","STREET":"安中路","SECT":"四段","MAREA":" ","LANE":" ","ALLEY":" ","HOUSE_NO":"１３號","E_COORD97":165276.60999999999,"N_COORD97":2550091.21,"ADDRESS":"安中路四段１３號","OBJECTID":287029},"geometry":{"x":165276.61000000034,"y":2550091.2100000009}},{"attributes":{"ID":287036,"DIS_CODE":0,"TOWNNAME":"安南區","LI":"淵中里","LIN":"4鄰","STREET":"安中路","SECT":"四段","MAREA":" ","LANE":" ","ALLEY":" ","HOUSE_NO":"１７號","E_COORD97":165267.44,"N_COORD97":2550085.6099999999,"ADDRESS":"安中路四段１７號","OBJECTID":287030},"geometry":{"x":165267.44000000041,"y":2550085.6100000013}},{"attributes":{"ID":287037,"DIS_CODE":0,"TOWNNAME":"安南區","LI":"淵中里","LIN":"4鄰","STREET":"安中路","SECT":"四段","MAREA":" ","LANE":" ","ALLEY":" ","HOUSE_NO":"１９號","E_COORD97":165264.29999999999,"N_COORD97":2550083.8300000001,"ADDRESS":"安中路四段１９號","OBJECTID":287031},"geometry":{"x":165264.29999999981,"y":2550083.8299999982}},{"attributes":{"ID":287038,"DIS_CODE":0,"TOWNNAME":"安南區","LI":"淵中里","LIN":"4鄰","STREET":"安中路","SECT":"四段","MAREA":" ","LANE":" ","ALLEY":" ","HOUSE_NO":"１號","E_COORD97":165298.69,"N_COORD97":2550107.75,"ADDRESS":"安中路四段１號","OBJECTID":287032},"geometry":{"x":165298.69000000134,"y":2550107.75}},{"attributes":{"ID":287039,"DIS_CODE":0,"TOWNNAME":"安南區","LI":"淵中里","LIN":"4鄰","STREET":"安中路","SECT":"四段","MAREA":" ","LANE":" ","ALLEY":" ","HOUSE_NO":"２４號","E_COORD97":165256.5,"N_COORD97":2550105.3300000001,"ADDRESS":"安中路四段２４號","OBJECTID":287033},"geometry":{"x":165256.5,"y":2550105.3300000019}},{"attributes":{"ID":287040,"DIS_CODE":0,"TOWNNAME":"安南區","LI":"淵中里","LIN":"4鄰","STREET":"安中路","SECT":"四段","MAREA":" ","LANE":" ","ALLEY":" ","HOUSE_NO":"２６號","E_COORD97":165252.51999999999,"N_COORD97":2550102.2599999998,"ADDRESS":"安中路四段２６號","OBJECTID":287034},"geometry":{"x":165252.51999999955,"y":2550102.2600000016}},{"attributes":{"ID":287041,"DIS_CODE":0,"TOWNNAME":"安南區","LI":"安和里","LIN":"12鄰","STREET":"安和路","SECT":"一段","MAREA":" ","LANE":"５２巷","ALLEY":" ","HOUSE_NO":"４６號","E_COORD97":169672.70000000001,"N_COORD97":2547560.9500000002,"ADDRESS":"安和路一段５２巷４６號","OBJECTID":287035},"geometry":{"x":169672.70000000019,"y":2547560.9500000011}},{"attributes":{"ID":287042,"DIS_CODE":0,"TOWNNAME":"安南區","LI":"安和里","LIN":"12鄰","STREET":"安和路","SECT":"一段","MAREA":" ","LANE":"５２巷","ALLEY":" ","HOUSE_NO":"４０號","E_COORD97":169659.45999999999,"N_COORD97":2547548.4100000001,"ADDRESS":"安和路一段５２巷４０號","OBJECTID":287036},"geometry":{"x":169659.45999999903,"y":2547548.410000002}},{"attributes":{"ID":287043,"DIS_CODE":0,"TOWNNAME":"安南區","LI":"安和里","LIN":"12鄰","STREET":"安和路","SECT":"一段","MAREA":" ","LANE":"５２巷","ALLEY":" ","HOUSE_NO":"３０號","E_COORD97":169638.70999999999,"N_COORD97":2547529.3999999999,"ADDRESS":"安和路一段５２巷３０號","OBJECTID":287037},"geometry":{"x":169638.70999999996,"y":2547529.4000000004}},{"attributes":{"ID":287044,"DIS_CODE":0,"TOWNNAME":"下營區","LI":"大屯里","LIN":"2鄰","STREET":" ","SECT":" ","MAREA":"大屯寮","LANE":" ","ALLEY":" ","HOUSE_NO":"１４號之６","E_COORD97":172149.82000000001,"N_COORD97":2570522.3700000001,"ADDRESS":"大屯寮１４號之６","OBJECTID":287038},"geometry":{"x":172149.82000000123,"y":2570522.3700000029}},{"attributes":{"ID":287045,"DIS_CODE":0,"TOWNNAME":"安南區","LI":"安和里","LIN":"12鄰","STREET":"安和路","SECT":"一段","MAREA":" ","LANE":"５２巷","ALLEY":" ","HOUSE_NO":"２８號","E_COORD97":169634.31,"N_COORD97":2547525.5699999998,"ADDRESS":"安和路一段５２巷２８號","OBJECTID":287039},"geometry":{"x":169634.30999999959,"y":2547525.5700000003}},{"attributes":{"ID":287046,"DIS_CODE":0,"TOWNNAME":"安南區","LI":"淵中里","LIN":"12鄰","STREET":"安中路","SECT":"四段","MAREA":" ","LANE":"２９０巷","ALLEY":" ","HOUSE_NO":"３２６號","E_COORD97":165204.22,"N_COORD97":2550352.4300000002,"ADDRESS":"安中路四段２９０巷３２６號","OBJECTID":287040},"geometry":{"x":165204.2200000016,"y":2550352.4300000016}},{"attributes":{"ID":287047,"DIS_CODE":0,"TOWNNAME":"安南區","LI":"淵東里","LIN":"2鄰","STREET":"海佃路","SECT":"四段","MAREA":" ","LANE":"５５巷","ALLEY":" ","HOUSE_NO":"１６２號之２","E_COORD97":165373.79000000001,"N_COORD97":2550474.4700000002,"ADDRESS":"海佃路四段５５巷１６２號之２","OBJECTID":287041},"geometry":{"x":165373.79000000097,"y":2550474.4700000025}},{"attributes":{"ID":287048,"DIS_CODE":0,"TOWNNAME":"安南區","LI":"淵中里","LIN":"4鄰","STREET":"安中路","SECT":"四段","MAREA":" ","LANE":" ","ALLEY":" ","HOUSE_NO":"２８號","E_COORD97":165245.45999999999,"N_COORD97":2550098.7000000002,"ADDRESS":"安中路四段２８號","OBJECTID":287042},"geometry":{"x":165245.46000000089,"y":2550098.7000000011}},{"attributes":{"ID":287049,"DIS_CODE":0,"TOWNNAME":"安南區","LI":"淵中里","LIN":"4鄰","STREET":"安中路","SECT":"四段","MAREA":" ","LANE":" ","ALLEY":" ","HOUSE_NO":"２９號","E_COORD97":165250.16,"N_COORD97":2550072.0699999998,"ADDRESS":"安中路四段２９號","OBJECTID":287043},"geometry":{"x":165250.16000000015,"y":2550072.0700000003}},{"attributes":{"ID":287050,"DIS_CODE":0,"TOWNNAME":"安南區","LI":"淵中里","LIN":"4鄰","STREET":"安中路","SECT":"四段","MAREA":" ","LANE":" ","ALLEY":" ","HOUSE_NO":"３１號","E_COORD97":165246.25,"N_COORD97":2550069.8599999999,"ADDRESS":"安中路四段３１號","OBJECTID":287044},"geometry":{"x":165246.25,"y":2550069.8600000031}},{"attributes":{"ID":287051,"DIS_CODE":0,"TOWNNAME":"中西區","LI":"銀同里","LIN":"2鄰","STREET":"城隍街","SECT":" ","MAREA":" ","LANE":" ","ALLEY":" ","HOUSE_NO":"２１號","E_COORD97":168801.53,"N_COORD97":2543361.2999999998,"ADDRESS":"城隍街２１號","OBJECTID":287045},"geometry":{"x":168801.52999999933,"y":2543361.3000000007}},{"attributes":{"ID":287052,"DIS_CODE":0,"TOWNNAME":"中西區","LI":"銀同里","LIN":"2鄰","STREET":"城隍街","SECT":" ","MAREA":" ","LANE":" ","ALLEY":" ","HOUSE_NO":"２３號","E_COORD97":168804.06,"N_COORD97":2543371.5899999999,"ADDRESS":"城隍街２３號","OBJECTID":287046},"geometry":{"x":168804.06000000145,"y":2543371.5899999999}},{"attributes":{"ID":287053,"DIS_CODE":0,"TOWNNAME":"中西區","LI":"銀同里","LIN":"2鄰","STREET":"城隍街","SECT":" ","MAREA":" ","LANE":" ","ALLEY":" ","HOUSE_NO":"２７號","E_COORD97":168803.89000000001,"N_COORD97":2543377.73,"ADDRESS":"城隍街２７號","OBJECTID":287047},"geometry":{"x":168803.8900000006,"y":2543377.7300000004}},{"attributes":{"ID":287054,"DIS_CODE":0,"TOWNNAME":"仁德區","LI":"新田里","LIN":"2鄰","STREET":"義林路","SECT":" ","MAREA":" ","LANE":" ","ALLEY":" ","HOUSE_NO":"１１５號","E_COORD97":174348.32000000001,"N_COORD97":2540259.5099999998,"ADDRESS":"義林路１１５號","OBJECTID":287048},"geometry":{"x":174348.32000000123,"y":2540259.5099999998}},{"attributes":{"ID":287055,"DIS_CODE":0,"TOWNNAME":"仁德區","LI":"新田里","LIN":"2鄰","STREET":"義林路","SECT":" ","MAREA":" ","LANE":" ","ALLEY":" ","HOUSE_NO":"１２８號","E_COORD97":174401.88,"N_COORD97":2540377.0099999998,"ADDRESS":"義林路１２８號","OBJECTID":287049},"geometry":{"x":174401.88000000082,"y":2540377.0100000016}},{"attributes":{"ID":287056,"DIS_CODE":0,"TOWNNAME":"安南區","LI":"淵中里","LIN":"12鄰","STREET":"安中路","SECT":"四段","MAREA":" ","LANE":"２９０巷","ALLEY":" ","HOUSE_NO":"３２８號","E_COORD97":165209.98999999999,"N_COORD97":2550354.1400000001,"ADDRESS":"安中路四段２９０巷３２８號","OBJECTID":287050},"geometry":{"x":165209.99000000115,"y":2550354.1400000025}},{"attributes":{"ID":287057,"DIS_CODE":0,"TOWNNAME":"安南區","LI":"淵中里","LIN":"12鄰","STREET":"安中路","SECT":"四段","MAREA":" ","LANE":"２９０巷","ALLEY":" ","HOUSE_NO":"３５０號","E_COORD97":165266.91,"N_COORD97":2550360.9300000002,"ADDRESS":"安中路四段２９０巷３５０號","OBJECTID":287051},"geometry":{"x":165266.91000000108,"y":2550360.9300000034}},{"attributes":{"ID":287058,"DIS_CODE":0,"TOWNNAME":"安南區","LI":"城南里","LIN":"12鄰","STREET":"城西街","SECT":"二段","MAREA":" ","LANE":"２４８巷","ALLEY":" ","HOUSE_NO":"１８號","E_COORD97":159723.23999999999,"N_COORD97":2551072.71,"ADDRESS":"城西街二段２４８巷１８號","OBJECTID":287052},"geometry":{"x":159723.24000000115,"y":2551072.7100000028}},{"attributes":{"ID":287059,"DIS_CODE":0,"TOWNNAME":"新化區","LI":"東榮里","LIN":"26鄰","STREET":"和平街","SECT":" ","MAREA":" ","LANE":"４５巷","ALLEY":" ","HOUSE_NO":"３０號","E_COORD97":179208.12,"N_COORD97":2548103.25,"ADDRESS":"和平街４５巷３０號","OBJECTID":287053},"geometry":{"x":179208.12000000104,"y":2548103.25}},{"attributes":{"ID":287060,"DIS_CODE":0,"TOWNNAME":"新化區","LI":"東榮里","LIN":"26鄰","STREET":"和平街","SECT":" ","MAREA":" ","LANE":"４５巷","ALLEY":" ","HOUSE_NO":"２３號","E_COORD97":179258.32000000001,"N_COORD97":2548090.25,"ADDRESS":"和平街４５巷２３號","OBJECTID":287054},"geometry":{"x":179258.3200000003,"y":2548090.25}},{"attributes":{"ID":287061,"DIS_CODE":0,"TOWNNAME":"新化區","LI":"護國里","LIN":"8鄰","STREET":"信義路","SECT":" ","MAREA":" ","LANE":"１４巷","ALLEY":" ","HOUSE_NO":"２０號","E_COORD97":181152.32999999999,"N_COORD97":2548909.25,"ADDRESS":"信義路１４巷２０號","OBJECTID":287055},"geometry":{"x":181152.33000000194,"y":2548909.2500000019}},{"attributes":{"ID":287062,"DIS_CODE":0,"TOWNNAME":"新化區","LI":"東榮里","LIN":"8鄰","STREET":"信義路","SECT":" ","MAREA":" ","LANE":"１１７巷","ALLEY":" ","HOUSE_NO":"２８號之７７","E_COORD97":179822.67000000001,"N_COORD97":2548273.2599999998,"ADDRESS":"信義路１１７巷２８號之７７","OBJECTID":287056},"geometry":{"x":179822.67000000086,"y":2548273.2599999998}},{"attributes":{"ID":287063,"DIS_CODE":0,"TOWNNAME":"安南區","LI":"佃西里","LIN":"12鄰","STREET":"公學路","SECT":"五段","MAREA":" ","LANE":"１７６巷","ALLEY":" ","HOUSE_NO":"５９號之８９","E_COORD97":164783.91,"N_COORD97":2552100.25,"ADDRESS":"公學路五段１７６巷５９號之８９","OBJECTID":287057},"geometry":{"x":164783.91000000015,"y":2552100.25}},{"attributes":{"ID":287064,"DIS_CODE":0,"TOWNNAME":"安南區","LI":"州北里","LIN":"12鄰","STREET":"安和路","SECT":"五段","MAREA":" ","LANE":"１７１巷","ALLEY":" ","HOUSE_NO":"６０號","E_COORD97":169722.07000000001,"N_COORD97":2551805.79,"ADDRESS":"安和路五段１７１巷６０號","OBJECTID":287058},"geometry":{"x":169722.07000000123,"y":2551805.7900000028}},{"attributes":{"ID":287065,"DIS_CODE":0,"TOWNNAME":"安南區","LI":"州北里","LIN":"12鄰","STREET":"安和路","SECT":"五段","MAREA":" ","LANE":"１７１巷","ALLEY":" ","HOUSE_NO":"６２號","E_COORD97":169717.48999999999,"N_COORD97":2551804.0800000001,"ADDRESS":"安和路五段１７１巷６２號","OBJECTID":287059},"geometry":{"x":169717.49000000115,"y":2551804.0800000001}},{"attributes":{"ID":287066,"DIS_CODE":0,"TOWNNAME":"安南區","LI":"州北里","LIN":"12鄰","STREET":"安和路","SECT":"五段","MAREA":" ","LANE":"１７１巷","ALLEY":" ","HOUSE_NO":"６４號","E_COORD97":169712.72,"N_COORD97":2551802.1699999999,"ADDRESS":"安和路五段１７１巷６４號","OBJECTID":287060},"geometry":{"x":169712.71999999974,"y":2551802.1700000018}},{"attributes":{"ID":287067,"DIS_CODE":0,"TOWNNAME":"永康區","LI":"安康里","LIN":"10鄰","STREET":"中華路","SECT":" ","MAREA":" ","LANE":"６１９巷","ALLEY":" ","HOUSE_NO":"４７號","E_COORD97":170892.82000000001,"N_COORD97":2546000.5,"ADDRESS":"中華路６１９巷４７號","OBJECTID":287061},"geometry":{"x":170892.8200000003,"y":2546000.5}},{"attributes":{"ID":287068,"DIS_CODE":0,"TOWNNAME":"官田區","LI":"隆田里","LIN":"26鄰","STREET":"中山路","SECT":"二段","MAREA":" ","LANE":"５３巷","ALLEY":" ","HOUSE_NO":"４號","E_COORD97":179001.5,"N_COORD97":2565947.2200000002,"ADDRESS":"中山路二段５３巷４號","OBJECTID":287062},"geometry":{"x":179001.50000000186,"y":2565947.2200000025}},{"attributes":{"ID":287069,"DIS_CODE":0,"TOWNNAME":"官田區","LI":"隆田里","LIN":"26鄰","STREET":"中山路","SECT":"二段","MAREA":" ","LANE":"５３巷","ALLEY":" ","HOUSE_NO":"６號","E_COORD97":179000.03,"N_COORD97":2565942.5,"ADDRESS":"中山路二段５３巷６號","OBJECTID":287063},"geometry":{"x":179000.03000000119,"y":2565942.5}},{"attributes":{"ID":287070,"DIS_CODE":0,"TOWNNAME":"新化區","LI":"東榮里","LIN":"25鄰","STREET":"光明路","SECT":" ","MAREA":" ","LANE":"７５巷","ALLEY":" ","HOUSE_NO":"６號","E_COORD97":179226.76999999999,"N_COORD97":2548023.25,"ADDRESS":"光明路７５巷６號","OBJECTID":287064},"geometry":{"x":179226.77000000048,"y":2548023.2500000037}},{"attributes":{"ID":287071,"DIS_CODE":0,"TOWNNAME":"官田區","LI":"隆田里","LIN":"25鄰","STREET":"中山路","SECT":"二段","MAREA":" ","LANE":"５３巷","ALLEY":" ","HOUSE_NO":"５號","E_COORD97":179016.85000000001,"N_COORD97":2565941.9100000001,"ADDRESS":"中山路二段５３巷５號","OBJECTID":287065},"geometry":{"x":179016.84999999963,"y":2565941.910000002}},{"attributes":{"ID":287072,"DIS_CODE":0,"TOWNNAME":"官田區","LI":"隆田里","LIN":"25鄰","STREET":"中山路","SECT":"二段","MAREA":" ","LANE":"５３巷","ALLEY":" ","HOUSE_NO":"７號","E_COORD97":179015.57999999999,"N_COORD97":2565938.5,"ADDRESS":"中山路二段５３巷７號","OBJECTID":287066},"geometry":{"x":179015.58000000007,"y":2565938.5}},{"attributes":{"ID":287073,"DIS_CODE":0,"TOWNNAME":"安南區","LI":"州北里","LIN":"12鄰","STREET":"安和路","SECT":"五段","MAREA":" ","LANE":"１７１巷","ALLEY":" ","HOUSE_NO":"６６號","E_COORD97":169708.14000000001,"N_COORD97":2551800.27,"ADDRESS":"安和路五段１７１巷６６號","OBJECTID":287067},"geometry":{"x":169708.13999999966,"y":2551800.2700000014}},{"attributes":{"ID":287074,"DIS_CODE":0,"TOWNNAME":"仁德區","LI":"新田里","LIN":"2鄰","STREET":"新田二街","SECT":" ","MAREA":" ","LANE":" ","ALLEY":" ","HOUSE_NO":"１２６號","E_COORD97":174864.39000000001,"N_COORD97":2539936.9900000002,"ADDRESS":"新田二街１２６號","OBJECTID":287068},"geometry":{"x":174864.3900000006,"y":2539936.9900000021}},{"attributes":{"ID":287075,"DIS_CODE":0,"TOWNNAME":"安南區","LI":"州北里","LIN":"12鄰","STREET":"安和路","SECT":"五段","MAREA":" ","LANE":"１７１巷","ALLEY":" ","HOUSE_NO":"６８號","E_COORD97":169703.56,"N_COORD97":2551798.7400000002,"ADDRESS":"安和路五段１７１巷６８號","OBJECTID":287069},"geometry":{"x":169703.55999999959,"y":2551798.7400000002}},{"attributes":{"ID":287076,"DIS_CODE":0,"TOWNNAME":"下營區","LI":"大屯里","LIN":"2鄰","STREET":" ","SECT":" ","MAREA":"大屯寮","LANE":" ","ALLEY":" ","HOUSE_NO":"１２號","E_COORD97":172170.07999999999,"N_COORD97":2570522.6400000001,"ADDRESS":"大屯寮１２號","OBJECTID":287070},"geometry":{"x":172170.08000000101,"y":2570522.6400000006}},{"attributes":{"ID":287077,"DIS_CODE":0,"TOWNNAME":"下營區","LI":"大屯里","LIN":"2鄰","STREET":" ","SECT":" ","MAREA":"大屯寮","LANE":" ","ALLEY":" ","HOUSE_NO":"１３號","E_COORD97":172161,"N_COORD97":2570530.4900000002,"ADDRESS":"大屯寮１３號","OBJECTID":287071},"geometry":{"x":172161,"y":2570530.4900000039}},{"attributes":{"ID":287078,"DIS_CODE":0,"TOWNNAME":"下營區","LI":"大屯里","LIN":"2鄰","STREET":" ","SECT":" ","MAREA":"大屯寮","LANE":" ","ALLEY":" ","HOUSE_NO":"１４號","E_COORD97":172128.57999999999,"N_COORD97":2570515.5800000001,"ADDRESS":"大屯寮１４號","OBJECTID":287072},"geometry":{"x":172128.58000000007,"y":2570515.5800000001}},{"attributes":{"ID":287079,"DIS_CODE":0,"TOWNNAME":"下營區","LI":"大屯里","LIN":"2鄰","STREET":" ","SECT":" ","MAREA":"大屯寮","LANE":" ","ALLEY":" ","HOUSE_NO":"１５號","E_COORD97":172118.20000000001,"N_COORD97":2570503.8999999999,"ADDRESS":"大屯寮１５號","OBJECTID":287073},"geometry":{"x":172118.20000000112,"y":2570503.9000000004}},{"attributes":{"ID":287080,"DIS_CODE":0,"TOWNNAME":"安南區","LI":"淵西里","LIN":"12鄰","STREET":"安中路","SECT":"四段","MAREA":" ","LANE":"２１０巷","ALLEY":" ","HOUSE_NO":"３１號","E_COORD97":164812.57000000001,"N_COORD97":2550146.7400000002,"ADDRESS":"安中路四段２１０巷３１號","OBJECTID":287074},"geometry":{"x":164812.57000000216,"y":2550146.7400000021}},{"attributes":{"ID":287081,"DIS_CODE":0,"TOWNNAME":"安南區","LI":"安東里","LIN":"12鄰","STREET":"安和路","SECT":"一段","MAREA":" ","LANE":"２８８巷","ALLEY":" ","HOUSE_NO":"１４２號","E_COORD97":169636.20999999999,"N_COORD97":2548192.1800000002,"ADDRESS":"安和路一段２８８巷１４２號","OBJECTID":287075},"geometry":{"x":169636.21000000089,"y":2548192.1799999997}},{"attributes":{"ID":287082,"DIS_CODE":0,"TOWNNAME":"安南區","LI":"幸福里","LIN":"12鄰","STREET":"府安路","SECT":"六段","MAREA":" ","LANE":"８６巷","ALLEY":" ","HOUSE_NO":"４８號","E_COORD97":166786.39999999999,"N_COORD97":2546669.3799999999,"ADDRESS":"府安路六段８６巷４８號","OBJECTID":287076},"geometry":{"x":166786.40000000037,"y":2546669.3800000008}},{"attributes":{"ID":287083,"DIS_CODE":0,"TOWNNAME":"下營區","LI":"大屯里","LIN":"2鄰","STREET":" ","SECT":" ","MAREA":"大屯寮","LANE":" ","ALLEY":" ","HOUSE_NO":"１６號之３","E_COORD97":172135.12,"N_COORD97":2570493.5699999998,"ADDRESS":"大屯寮１６號之３","OBJECTID":287077},"geometry":{"x":172135.12000000011,"y":2570493.5700000022}},{"attributes":{"ID":287084,"DIS_CODE":0,"TOWNNAME":"中西區","LI":"進學里","LIN":"2鄰","STREET":"忠義路","SECT":"一段","MAREA":" ","LANE":" ","ALLEY":" ","HOUSE_NO":"２３號","E_COORD97":168150.88,"N_COORD97":2542904.21,"ADDRESS":"忠義路一段２３號","OBJECTID":287078},"geometry":{"x":168150.87999999989,"y":2542904.2100000009}},{"attributes":{"ID":287085,"DIS_CODE":0,"TOWNNAME":"中西區","LI":"進學里","LIN":"2鄰","STREET":"忠義路","SECT":"一段","MAREA":" ","LANE":" ","ALLEY":" ","HOUSE_NO":"２５號","E_COORD97":168150.09,"N_COORD97":2542907.5499999998,"ADDRESS":"忠義路一段２５號","OBJECTID":287079},"geometry":{"x":168150.09000000078,"y":2542907.5500000026}},{"attributes":{"ID":287086,"DIS_CODE":0,"TOWNNAME":"下營區","LI":"大埤里","LIN":"2鄰","STREET":" ","SECT":" ","MAREA":"大埤寮","LANE":" ","ALLEY":" ","HOUSE_NO":"１８號之３","E_COORD97":173238.48000000001,"N_COORD97":2569927.9100000001,"ADDRESS":"大埤寮１８號之３","OBJECTID":287080},"geometry":{"x":173238.48000000231,"y":2569927.910000002}},{"attributes":{"ID":287087,"DIS_CODE":0,"TOWNNAME":"中西區","LI":"進學里","LIN":"2鄰","STREET":"忠義路","SECT":"一段","MAREA":" ","LANE":" ","ALLEY":" ","HOUSE_NO":"２７號","E_COORD97":168150.25,"N_COORD97":2542910.7200000002,"ADDRESS":"忠義路一段２７號","OBJECTID":287081},"geometry":{"x":168150.25,"y":2542910.7200000007}},{"attributes":{"ID":287088,"DIS_CODE":0,"TOWNNAME":"善化區","LI":"光文里","LIN":"12鄰","STREET":"民生路","SECT":" ","MAREA":" ","LANE":"３３巷","ALLEY":" ","HOUSE_NO":"８號","E_COORD97":178820.79000000001,"N_COORD97":2558996.0099999998,"ADDRESS":"民生路３３巷８號","OBJECTID":287082},"geometry":{"x":178820.79000000004,"y":2558996.0100000035}},{"attributes":{"ID":287089,"DIS_CODE":0,"TOWNNAME":"東區","LI":"大智里","LIN":"12鄰","STREET":"德東街","SECT":" ","MAREA":" ","LANE":"１３６巷","ALLEY":" ","HOUSE_NO":"１７號","E_COORD97":171224.07000000001,"N_COORD97":2540199.9199999999,"ADDRESS":"德東街１３６巷１７號","OBJECTID":287083},"geometry":{"x":171224.07000000123,"y":2540199.9199999999}},{"attributes":{"ID":287090,"DIS_CODE":0,"TOWNNAME":"下營區","LI":"大埤里","LIN":"2鄰","STREET":" ","SECT":" ","MAREA":"大埤寮","LANE":" ","ALLEY":" ","HOUSE_NO":"１８號之４","E_COORD97":173437.06,"N_COORD97":2569906.96,"ADDRESS":"大埤寮１８號之４","OBJECTID":287084},"geometry":{"x":173437.06000000145,"y":2569906.9600000009}},{"attributes":{"ID":287091,"DIS_CODE":0,"TOWNNAME":"下營區","LI":"大埤里","LIN":"2鄰","STREET":" ","SECT":" ","MAREA":"大埤寮","LANE":" ","ALLEY":" ","HOUSE_NO":"１８號之５","E_COORD97":173442.75,"N_COORD97":2569926.9199999999,"ADDRESS":"大埤寮１８號之５","OBJECTID":287085},"geometry":{"x":173442.75,"y":2569926.9199999999}},{"attributes":{"ID":287092,"DIS_CODE":0,"TOWNNAME":"下營區","LI":"大埤里","LIN":"2鄰","STREET":" ","SECT":" ","MAREA":"大埤寮","LANE":" ","ALLEY":" ","HOUSE_NO":"１８號之６","E_COORD97":173463.20999999999,"N_COORD97":2569948.98,"ADDRESS":"大埤寮１８號之６","OBJECTID":287086},"geometry":{"x":173463.20999999996,"y":2569948.9800000023}},{"attributes":{"ID":287093,"DIS_CODE":0,"TOWNNAME":"下營區","LI":"大埤里","LIN":"2鄰","STREET":" ","SECT":" ","MAREA":"大埤寮","LANE":" ","ALLEY":" ","HOUSE_NO":"１８號之７","E_COORD97":173414.26000000001,"N_COORD97":2569903.2400000002,"ADDRESS":"大埤寮１８號之７","OBJECTID":287087},"geometry":{"x":173414.26000000071,"y":2569903.2400000021}},{"attributes":{"ID":287094,"DIS_CODE":0,"TOWNNAME":"仁德區","LI":"大甲里","LIN":"12鄰","STREET":"行大街","SECT":" ","MAREA":" ","LANE":"３４１巷","ALLEY":" ","HOUSE_NO":"１０號","E_COORD97":169619.81,"N_COORD97":2535146,"ADDRESS":"行大街３４１巷１０號","OBJECTID":287088},"geometry":{"x":169619.81000000052,"y":2535146.0000000019}},{"attributes":{"ID":287095,"DIS_CODE":0,"TOWNNAME":"仁德區","LI":"上崙里","LIN":"12鄰","STREET":"德崙路","SECT":" ","MAREA":" ","LANE":"３９５巷","ALLEY":" ","HOUSE_NO":"６號","E_COORD97":174170.75,"N_COORD97":2538129.02,"ADDRESS":"德崙路３９５巷６號","OBJECTID":287089},"geometry":{"x":174170.75000000093,"y":2538129.0200000014}},{"attributes":{"ID":287096,"DIS_CODE":0,"TOWNNAME":"仁德區","LI":"太子里","LIN":"12鄰","STREET":"長興二街","SECT":" ","MAREA":" ","LANE":"７０巷","ALLEY":" ","HOUSE_NO":"７號","E_COORD97":174265.22,"N_COORD97":2543727.0099999998,"ADDRESS":"長興二街７０巷７號","OBJECTID":287090},"geometry":{"x":174265.22000000067,"y":2543727.0100000016}},{"attributes":{"ID":287097,"DIS_CODE":0,"TOWNNAME":"仁德區","LI":"上崙里","LIN":"12鄰","STREET":"德崙路","SECT":" ","MAREA":" ","LANE":"３９５巷","ALLEY":" ","HOUSE_NO":"４號","E_COORD97":174169.48000000001,"N_COORD97":2538124.27,"ADDRESS":"德崙路３９５巷４號","OBJECTID":287091},"geometry":{"x":174169.48000000138,"y":2538124.2700000014}},{"attributes":{"ID":287098,"DIS_CODE":0,"TOWNNAME":"仁德區","LI":"上崙里","LIN":"12鄰","STREET":"德崙路","SECT":" ","MAREA":" ","LANE":"３９５巷","ALLEY":" ","HOUSE_NO":"１７號","E_COORD97":174163.39999999999,"N_COORD97":2538159.02,"ADDRESS":"德崙路３９５巷１７號","OBJECTID":287092},"geometry":{"x":174163.4000000013,"y":2538159.0200000014}},{"attributes":{"ID":287099,"DIS_CODE":0,"TOWNNAME":"仁德區","LI":"上崙里","LIN":"12鄰","STREET":"德崙路","SECT":" ","MAREA":" ","LANE":"３９５巷","ALLEY":" ","HOUSE_NO":"７號","E_COORD97":174153.17999999999,"N_COORD97":2538121.77,"ADDRESS":"德崙路３９５巷７號","OBJECTID":287093},"geometry":{"x":174153.1799999997,"y":2538121.7699999996}},{"attributes":{"ID":287100,"DIS_CODE":0,"TOWNNAME":"仁德區","LI":"仁德里","LIN":"12鄰","STREET":"四維街","SECT":" ","MAREA":" ","LANE":"３１巷","ALLEY":" ","HOUSE_NO":"１１號","E_COORD97":173238.98999999999,"N_COORD97":2541479.25,"ADDRESS":"四維街３１巷１１號","OBJECTID":287094},"geometry":{"x":173238.99000000115,"y":2541479.25}},{"attributes":{"ID":287101,"DIS_CODE":0,"TOWNNAME":"仁德區","LI":"仁德里","LIN":"12鄰","STREET":"四維街","SECT":" ","MAREA":" ","LANE":"３１巷","ALLEY":" ","HOUSE_NO":"１０號","E_COORD97":173219.59,"N_COORD97":2541479,"ADDRESS":"四維街３１巷１０號","OBJECTID":287095},"geometry":{"x":173219.58999999985,"y":2541479.0000000019}},{"attributes":{"ID":287102,"DIS_CODE":0,"TOWNNAME":"仁德區","LI":"上崙里","LIN":"12鄰","STREET":"德崙路","SECT":" ","MAREA":" ","LANE":"３９５巷","ALLEY":" ","HOUSE_NO":"１０號","E_COORD97":174174.39999999999,"N_COORD97":2538138.02,"ADDRESS":"德崙路３９５巷１０號","OBJECTID":287096},"geometry":{"x":174174.40000000037,"y":2538138.0200000033}},{"attributes":{"ID":287103,"DIS_CODE":0,"TOWNNAME":"仁德區","LI":"上崙里","LIN":"12鄰","STREET":"德崙路","SECT":" ","MAREA":" ","LANE":"３９５巷","ALLEY":" ","HOUSE_NO":"１３號","E_COORD97":174159.48999999999,"N_COORD97":2538142.77,"ADDRESS":"德崙路３９５巷１３號","OBJECTID":287097},"geometry":{"x":174159.49000000022,"y":2538142.7699999977}},{"attributes":{"ID":287104,"DIS_CODE":0,"TOWNNAME":"仁德區","LI":"太子里","LIN":"12鄰","STREET":"長興二街","SECT":" ","MAREA":" ","LANE":"７０巷","ALLEY":" ","HOUSE_NO":"９號","E_COORD97":174263.89999999999,"N_COORD97":2543731.2599999998,"ADDRESS":"長興二街７０巷９號","OBJECTID":287098},"geometry":{"x":174263.90000000037,"y":2543731.2600000016}},{"attributes":{"ID":287105,"DIS_CODE":0,"TOWNNAME":"仁德區","LI":"上崙里","LIN":"12鄰","STREET":"德崙路","SECT":" ","MAREA":" ","LANE":"３９５巷","ALLEY":" ","HOUSE_NO":"１１號","E_COORD97":174157.82000000001,"N_COORD97":2538136.52,"ADDRESS":"德崙路３９５巷１１號","OBJECTID":287099},"geometry":{"x":174157.8200000003,"y":2538136.5199999996}},{"attributes":{"ID":287106,"DIS_CODE":0,"TOWNNAME":"下營區","LI":"大埤里","LIN":"2鄰","STREET":" ","SECT":" ","MAREA":"大埤寮","LANE":" ","ALLEY":" ","HOUSE_NO":"１８號之８","E_COORD97":173429.73999999999,"N_COORD97":2569926.3999999999,"ADDRESS":"大埤寮１８號之８","OBJECTID":287100},"geometry":{"x":173429.74000000209,"y":2569926.4000000004}},{"attributes":{"ID":287107,"DIS_CODE":0,"TOWNNAME":"下營區","LI":"大埤里","LIN":"2鄰","STREET":" ","SECT":" ","MAREA":"大埤寮","LANE":" ","ALLEY":" ","HOUSE_NO":"１８號之９","E_COORD97":173267.38,"N_COORD97":2569880.4900000002,"ADDRESS":"大埤寮１８號之９","OBJECTID":287101},"geometry":{"x":173267.38000000175,"y":2569880.4900000021}},{"attributes":{"ID":287108,"DIS_CODE":0,"TOWNNAME":"下營區","LI":"大埤里","LIN":"2鄰","STREET":" ","SECT":" ","MAREA":"大埤寮","LANE":" ","ALLEY":" ","HOUSE_NO":"１８號","E_COORD97":173709.98000000001,"N_COORD97":2569998.4900000002,"ADDRESS":"大埤寮１８號","OBJECTID":287102},"geometry":{"x":173709.98000000138,"y":2569998.4900000039}},{"attributes":{"ID":287109,"DIS_CODE":0,"TOWNNAME":"新市區","LI":"潭頂里","LIN":"2鄰","STREET":" ","SECT":" ","MAREA":"潭頂","LANE":" ","ALLEY":" ","HOUSE_NO":"３９號","E_COORD97":181110.34,"N_COORD97":2552874.5,"ADDRESS":"潭頂３９號","OBJECTID":287103},"geometry":{"x":181110.34000000078,"y":2552874.5000000019}},{"attributes":{"ID":287110,"DIS_CODE":0,"TOWNNAME":"安南區","LI":"頂安里","LIN":"2鄰","STREET":"長溪路","SECT":"一段","MAREA":" ","LANE":" ","ALLEY":" ","HOUSE_NO":"３７０號","E_COORD97":168663.53,"N_COORD97":2548893.9300000002,"ADDRESS":"長溪路一段３７０號","OBJECTID":287104},"geometry":{"x":168663.53000000026,"y":2548893.9300000016}},{"attributes":{"ID":287111,"DIS_CODE":0,"TOWNNAME":"安南區","LI":"頂安里","LIN":"2鄰","STREET":"長溪路","SECT":"一段","MAREA":" ","LANE":" ","ALLEY":" ","HOUSE_NO":"３７８號","E_COORD97":168652.01000000001,"N_COORD97":2548905.73,"ADDRESS":"長溪路一段３７８號","OBJECTID":287105},"geometry":{"x":168652.01000000164,"y":2548905.7300000023}},{"attributes":{"ID":287112,"DIS_CODE":0,"TOWNNAME":"安南區","LI":"頂安里","LIN":"2鄰","STREET":"長溪路","SECT":"一段","MAREA":" ","LANE":" ","ALLEY":" ","HOUSE_NO":"３８０號","E_COORD97":168647.88,"N_COORD97":2548907.7999999998,"ADDRESS":"長溪路一段３８０號","OBJECTID":287106},"geometry":{"x":168647.87999999896,"y":2548907.8000000007}},{"attributes":{"ID":287113,"DIS_CODE":0,"TOWNNAME":"安南區","LI":"頂安里","LIN":"2鄰","STREET":"長溪路","SECT":"一段","MAREA":" ","LANE":" ","ALLEY":" ","HOUSE_NO":"３８４號","E_COORD97":168641.09,"N_COORD97":2548913.3999999999,"ADDRESS":"長溪路一段３８４號","OBJECTID":287107},"geometry":{"x":168641.08999999985,"y":2548913.4000000004}},{"attributes":{"ID":287114,"DIS_CODE":0,"TOWNNAME":"仁德區","LI":"保安里","LIN":"12鄰","STREET":"開發六路","SECT":" ","MAREA":" ","LANE":"１４巷","ALLEY":" ","HOUSE_NO":"３９號","E_COORD97":172995.20999999999,"N_COORD97":2535525.0099999998,"ADDRESS":"開發六路１４巷３９號","OBJECTID":287108},"geometry":{"x":172995.20999999996,"y":2535525.0100000016}},{"attributes":{"ID":287115,"DIS_CODE":0,"TOWNNAME":"仁德區","LI":"上崙里","LIN":"12鄰","STREET":"德崙路","SECT":" ","MAREA":" ","LANE":"３９５巷","ALLEY":" ","HOUSE_NO":"１６號","E_COORD97":174177.79000000001,"N_COORD97":2538151.77,"ADDRESS":"德崙路３９５巷１６號","OBJECTID":287109},"geometry":{"x":174177.79000000004,"y":2538151.7699999996}},{"attributes":{"ID":287116,"DIS_CODE":0,"TOWNNAME":"安南區","LI":"頂安里","LIN":"2鄰","STREET":"長溪路","SECT":"一段","MAREA":" ","LANE":" ","ALLEY":" ","HOUSE_NO":"３８６號","E_COORD97":168638.14000000001,"N_COORD97":2548916.0600000001,"ADDRESS":"長溪路一段３８６號","OBJECTID":287110},"geometry":{"x":168638.1400000006,"y":2548916.0600000005}},{"attributes":{"ID":287117,"DIS_CODE":0,"TOWNNAME":"安南區","LI":"頂安里","LIN":"2鄰","STREET":"長溪路","SECT":"一段","MAREA":" ","LANE":" ","ALLEY":" ","HOUSE_NO":"３８８號","E_COORD97":168634.89000000001,"N_COORD97":2548918.1200000001,"ADDRESS":"長溪路一段３８８號","OBJECTID":287111},"geometry":{"x":168634.8900000006,"y":2548918.1200000029}},{"attributes":{"ID":287118,"DIS_CODE":0,"TOWNNAME":"安南區","LI":"頂安里","LIN":"2鄰","STREET":"長溪路","SECT":"一段","MAREA":" ","LANE":" ","ALLEY":" ","HOUSE_NO":"４００號","E_COORD97":168615.10999999999,"N_COORD97":2548933.7599999998,"ADDRESS":"長溪路一段４００號","OBJECTID":287112},"geometry":{"x":168615.11000000127,"y":2548933.7599999998}},{"attributes":{"ID":287119,"DIS_CODE":0,"TOWNNAME":"安南區","LI":"頂安里","LIN":"2鄰","STREET":"長溪路","SECT":"一段","MAREA":" ","LANE":" ","ALLEY":" ","HOUSE_NO":"４０２號","E_COORD97":168611.85999999999,"N_COORD97":2548937,"ADDRESS":"長溪路一段４０２號","OBJECTID":287113},"geometry":{"x":168611.86000000127,"y":2548937.0000000037}},{"attributes":{"ID":287120,"DIS_CODE":0,"TOWNNAME":"安南區","LI":"淵中里","LIN":"4鄰","STREET":"安中路","SECT":"四段","MAREA":" ","LANE":" ","ALLEY":" ","HOUSE_NO":"３６號","E_COORD97":165231.16,"N_COORD97":2550088.75,"ADDRESS":"安中路四段３６號","OBJECTID":287114},"geometry":{"x":165231.16000000108,"y":2550088.7500000019}},{"attributes":{"ID":287121,"DIS_CODE":0,"TOWNNAME":"仁德區","LI":"仁義里","LIN":"12鄰","STREET":"中山路","SECT":" ","MAREA":" ","LANE":"１０巷","ALLEY":" ","HOUSE_NO":"５９號","E_COORD97":175110.87,"N_COORD97":2541331,"ADDRESS":"中山路１０巷５９號","OBJECTID":287115},"geometry":{"x":175110.87000000104,"y":2541331}},{"attributes":{"ID":287122,"DIS_CODE":0,"TOWNNAME":"仁德區","LI":"仁義里","LIN":"12鄰","STREET":"中山路","SECT":" ","MAREA":" ","LANE":"１０巷","ALLEY":" ","HOUSE_NO":"４５號","E_COORD97":175156.44,"N_COORD97":2541208.4900000002,"ADDRESS":"中山路１０巷４５號","OBJECTID":287116},"geometry":{"x":175156.44000000134,"y":2541208.4900000021}},{"attributes":{"ID":287123,"DIS_CODE":0,"TOWNNAME":"仁德區","LI":"仁義里","LIN":"12鄰","STREET":"中山路","SECT":" ","MAREA":" ","LANE":"１０巷","ALLEY":" ","HOUSE_NO":"５７號","E_COORD97":175114.39000000001,"N_COORD97":2541258.25,"ADDRESS":"中山路１０巷５７號","OBJECTID":287117},"geometry":{"x":175114.38999999966,"y":2541258.25}},{"attributes":{"ID":287124,"DIS_CODE":0,"TOWNNAME":"安南區","LI":"安順里","LIN":"12鄰","STREET":"安和路","SECT":"四段","MAREA":" ","LANE":"３６巷","ALLEY":" ","HOUSE_NO":"７３號","E_COORD97":170200.94,"N_COORD97":2550184.1499999999,"ADDRESS":"安和路四段３６巷７３號","OBJECTID":287118},"geometry":{"x":170200.94000000227,"y":2550184.1500000041}},{"attributes":{"ID":287125,"DIS_CODE":0,"TOWNNAME":"安南區","LI":"安順里","LIN":"12鄰","STREET":"安和路","SECT":"三段","MAREA":" ","LANE":"１９０巷","ALLEY":" ","HOUSE_NO":"５５號","E_COORD97":170005.70999999999,"N_COORD97":2549844.0800000001,"ADDRESS":"安和路三段１９０巷５５號","OBJECTID":287119},"geometry":{"x":170005.71000000089,"y":2549844.0800000001}},{"attributes":{"ID":287126,"DIS_CODE":0,"TOWNNAME":"安南區","LI":"安順里","LIN":"12鄰","STREET":"安和路","SECT":"三段","MAREA":" ","LANE":"１９０巷","ALLEY":" ","HOUSE_NO":"５７號","E_COORD97":170005.70999999999,"N_COORD97":2549844.0800000001,"ADDRESS":"安和路三段１９０巷５７號","OBJECTID":287120},"geometry":{"x":170005.71000000089,"y":2549844.0800000001}},{"attributes":{"ID":287127,"DIS_CODE":0,"TOWNNAME":"東區","LI":"裕農里","LIN":"12鄰","STREET":"東寧路","SECT":" ","MAREA":" ","LANE":"４７２巷","ALLEY":" ","HOUSE_NO":"８號","E_COORD97":171029.98000000001,"N_COORD97":2543289,"ADDRESS":"東寧路４７２巷８號","OBJECTID":287121},"geometry":{"x":171029.98000000138,"y":2543289.0000000019}},{"attributes":{"ID":287128,"DIS_CODE":0,"TOWNNAME":"安南區","LI":"安順里","LIN":"12鄰","STREET":"安和路","SECT":"四段","MAREA":" ","LANE":"３６巷","ALLEY":" ","HOUSE_NO":"１１１號","E_COORD97":170330.73999999999,"N_COORD97":2550178.3700000001,"ADDRESS":"安和路四段３６巷１１１號","OBJECTID":287122},"geometry":{"x":170330.74000000022,"y":2550178.370000001}},{"attributes":{"ID":287129,"DIS_CODE":0,"TOWNNAME":"白河區","LI":"外角里","LIN":"12鄰","STREET":"三民路","SECT":" ","MAREA":" ","LANE":"２０８巷","ALLEY":" ","HOUSE_NO":"１號","E_COORD97":190865.48000000001,"N_COORD97":2583332.5699999998,"ADDRESS":"三民路２０８巷１號","OBJECTID":287123},"geometry":{"x":190865.48000000138,"y":2583332.5700000022}},{"attributes":{"ID":287130,"DIS_CODE":0,"TOWNNAME":"東區","LI":"裕農里","LIN":"12鄰","STREET":"東寧路","SECT":" ","MAREA":" ","LANE":"５１０巷","ALLEY":" ","HOUSE_NO":"１８號","E_COORD97":171013.13,"N_COORD97":2543279.1000000001,"ADDRESS":"東寧路５１０巷１８號","OBJECTID":287124},"geometry":{"x":171013.13000000082,"y":2543279.0999999996}},{"attributes":{"ID":287131,"DIS_CODE":0,"TOWNNAME":"東區","LI":"裕農里","LIN":"12鄰","STREET":"東寧路","SECT":" ","MAREA":" ","LANE":"４７２巷","ALLEY":" ","HOUSE_NO":"１２號","E_COORD97":171027.67000000001,"N_COORD97":2543280.75,"ADDRESS":"東寧路４７２巷１２號","OBJECTID":287125},"geometry":{"x":171027.66999999899,"y":2543280.7500000019}},{"attributes":{"ID":287132,"DIS_CODE":0,"TOWNNAME":"東區","LI":"裕農里","LIN":"12鄰","STREET":"東寧路","SECT":" ","MAREA":" ","LANE":"４７２巷","ALLEY":" ","HOUSE_NO":"４號","E_COORD97":171025.35000000001,"N_COORD97":2543296.9100000001,"ADDRESS":"東寧路４７２巷４號","OBJECTID":287126},"geometry":{"x":171025.35000000056,"y":2543296.910000002}},{"attributes":{"ID":287133,"DIS_CODE":0,"TOWNNAME":"東區","LI":"裕農里","LIN":"12鄰","STREET":"東寧路","SECT":" ","MAREA":" ","LANE":"４７２巷","ALLEY":" ","HOUSE_NO":"６號","E_COORD97":171027.67000000001,"N_COORD97":2543292.96,"ADDRESS":"東寧路４７２巷６號","OBJECTID":287127},"geometry":{"x":171027.66999999899,"y":2543292.959999999}},{"attributes":{"ID":287134,"DIS_CODE":0,"TOWNNAME":"安南區","LI":"淵中里","LIN":"4鄰","STREET":"安中路","SECT":"四段","MAREA":" ","LANE":" ","ALLEY":" ","HOUSE_NO":"３８號","E_COORD97":165228.35999999999,"N_COORD97":2550085.3199999998,"ADDRESS":"安中路四段３８號","OBJECTID":287128},"geometry":{"x":165228.36000000127,"y":2550085.3200000022}},{"attributes":{"ID":287135,"DIS_CODE":0,"TOWNNAME":"安南區","LI":"淵中里","LIN":"4鄰","STREET":"安中路","SECT":"四段","MAREA":" ","LANE":" ","ALLEY":" ","HOUSE_NO":"４０號","E_COORD97":165226.45999999999,"N_COORD97":2550082.3599999999,"ADDRESS":"安中路四段４０號","OBJECTID":287129},"geometry":{"x":165226.45999999996,"y":2550082.3599999994}},{"attributes":{"ID":287136,"DIS_CODE":0,"TOWNNAME":"東區","LI":"德高里","LIN":"12鄰","STREET":"崇善路","SECT":" ","MAREA":" ","LANE":"９１３巷","ALLEY":" ","HOUSE_NO":"１號","E_COORD97":171424.79999999999,"N_COORD97":2540691.6400000001,"ADDRESS":"崇善路９１３巷１號","OBJECTID":287130},"geometry":{"x":171424.79999999981,"y":2540691.6400000025}},{"attributes":{"ID":287137,"DIS_CODE":0,"TOWNNAME":"永康區","LI":"二王里","LIN":"12鄰","STREET":"永二街","SECT":" ","MAREA":" ","LANE":"４４７巷","ALLEY":" ","HOUSE_NO":"５號","E_COORD97":172838.89999999999,"N_COORD97":2546525.0899999999,"ADDRESS":"永二街４４７巷５號","OBJECTID":287131},"geometry":{"x":172838.90000000224,"y":2546525.0899999999}},{"attributes":{"ID":287138,"DIS_CODE":0,"TOWNNAME":"新市區","LI":"新和里","LIN":"2鄰","STREET":"中山路","SECT":" ","MAREA":" ","LANE":" ","ALLEY":" ","HOUSE_NO":"２２４號之５","E_COORD97":177497.28,"N_COORD97":2552079.2999999998,"ADDRESS":"中山路２２４號之５","OBJECTID":287132},"geometry":{"x":177497.28000000026,"y":2552079.3000000026}},{"attributes":{"ID":287139,"DIS_CODE":0,"TOWNNAME":"新市區","LI":"新和里","LIN":"2鄰","STREET":"中山路","SECT":" ","MAREA":" ","LANE":" ","ALLEY":" ","HOUSE_NO":"２６０之１號","E_COORD97":177404.38,"N_COORD97":2552019.5499999998,"ADDRESS":"中山路２６０之１號","OBJECTID":287133},"geometry":{"x":177404.38000000082,"y":2552019.5500000026}},{"attributes":{"ID":287140,"DIS_CODE":0,"TOWNNAME":"新市區","LI":"新和里","LIN":"2鄰","STREET":"中山路","SECT":" ","MAREA":" ","LANE":" ","ALLEY":" ","HOUSE_NO":"２２４之３號","E_COORD97":177503.92999999999,"N_COORD97":2552083.5499999998,"ADDRESS":"中山路２２４之３號","OBJECTID":287134},"geometry":{"x":177503.93000000063,"y":2552083.5500000045}},{"attributes":{"ID":287141,"DIS_CODE":0,"TOWNNAME":"安南區","LI":"學東里","LIN":"12鄰","STREET":"公學路","SECT":"七段","MAREA":" ","LANE":"７７巷","ALLEY":" ","HOUSE_NO":"１５５號","E_COORD97":161801.28,"N_COORD97":2553221.6499999999,"ADDRESS":"公學路七段７７巷１５５號","OBJECTID":287135},"geometry":{"x":161801.28000000119,"y":2553221.6500000041}},{"attributes":{"ID":287142,"DIS_CODE":0,"TOWNNAME":"安南區","LI":"學東里","LIN":"12鄰","STREET":"公學路","SECT":"七段","MAREA":" ","LANE":"７７巷","ALLEY":" ","HOUSE_NO":"１８５號","E_COORD97":161784.95000000001,"N_COORD97":2553130.8599999999,"ADDRESS":"公學路七段７７巷１８５號","OBJECTID":287136},"geometry":{"x":161784.95000000019,"y":2553130.8599999975}},{"attributes":{"ID":287143,"DIS_CODE":0,"TOWNNAME":"安南區","LI":"學東里","LIN":"12鄰","STREET":"公學路","SECT":"七段","MAREA":" ","LANE":"７７巷","ALLEY":" ","HOUSE_NO":"１９７號","E_COORD97":161782.98999999999,"N_COORD97":2553116.6699999999,"ADDRESS":"公學路七段７７巷１９７號","OBJECTID":287137},"geometry":{"x":161782.99000000022,"y":2553116.6700000018}},{"attributes":{"ID":287144,"DIS_CODE":0,"TOWNNAME":"安南區","LI":"學東里","LIN":"12鄰","STREET":"公學路","SECT":"七段","MAREA":" ","LANE":"７７巷","ALLEY":" ","HOUSE_NO":"２０５號","E_COORD97":161806.42999999999,"N_COORD97":2553083.3399999999,"ADDRESS":"公學路七段７７巷２０５號","OBJECTID":287138},"geometry":{"x":161806.43000000063,"y":2553083.3399999999}},{"attributes":{"ID":287145,"DIS_CODE":0,"TOWNNAME":"安南區","LI":"學東里","LIN":"12鄰","STREET":"公學路","SECT":"七段","MAREA":" ","LANE":"７７巷","ALLEY":" ","HOUSE_NO":"２０６號","E_COORD97":161820.85000000001,"N_COORD97":2553058.29,"ADDRESS":"公學路七段７７巷２０６號","OBJECTID":287139},"geometry":{"x":161820.84999999963,"y":2553058.290000001}},{"attributes":{"ID":287146,"DIS_CODE":0,"TOWNNAME":"安南區","LI":"安順里","LIN":"12鄰","STREET":"安和路","SECT":"四段","MAREA":" ","LANE":"３６巷","ALLEY":" ","HOUSE_NO":"２４８號","E_COORD97":170478.79999999999,"N_COORD97":2550136.23,"ADDRESS":"安和路四段３６巷２４８號","OBJECTID":287140},"geometry":{"x":170478.79999999981,"y":2550136.2300000042}},{"attributes":{"ID":287147,"DIS_CODE":0,"TOWNNAME":"安南區","LI":"\u25A0南里","LIN":"12鄰","STREET":"安昌街","SECT":" ","MAREA":" ","LANE":"２５４巷","ALLEY":" ","HOUSE_NO":"２７號","E_COORD97":170194.51999999999,"N_COORD97":2552647.9199999999,"ADDRESS":"安昌街２５４巷２７號","OBJECTID":287141},"geometry":{"x":170194.52000000048,"y":2552647.9200000018}},{"attributes":{"ID":287148,"DIS_CODE":0,"TOWNNAME":"安南區","LI":"大安里","LIN":"12鄰","STREET":"大安街","SECT":" ","MAREA":" ","LANE":"２９２巷","ALLEY":" ","HOUSE_NO":"２１號","E_COORD97":167596.51000000001,"N_COORD97":2548457.8900000001,"ADDRESS":"大安街２９２巷２１號","OBJECTID":287142},"geometry":{"x":167596.51000000071,"y":2548457.8900000025}},{"attributes":{"ID":287149,"DIS_CODE":0,"TOWNNAME":"安南區","LI":"大安里","LIN":"12鄰","STREET":"大安街","SECT":" ","MAREA":" ","LANE":"２９２巷","ALLEY":" ","HOUSE_NO":"２３號","E_COORD97":167600.14000000001,"N_COORD97":2548454.4900000002,"ADDRESS":"大安街２９２巷２３號","OBJECTID":287143},"geometry":{"x":167600.14000000153,"y":2548454.4900000002}},{"attributes":{"ID":287150,"DIS_CODE":0,"TOWNNAME":"安南區","LI":"大安里","LIN":"12鄰","STREET":"大安街","SECT":" ","MAREA":" ","LANE":"３０８巷","ALLEY":" ","HOUSE_NO":"２號","E_COORD97":167553.85000000001,"N_COORD97":2548509.1899999999,"ADDRESS":"大安街３０８巷２號","OBJECTID":287144},"geometry":{"x":167553.84999999963,"y":2548509.1900000013}},{"attributes":{"ID":287151,"DIS_CODE":0,"TOWNNAME":"安南區","LI":"安慶里","LIN":"12鄰","STREET":"長溪路","SECT":"一段","MAREA":" ","LANE":"４６巷","ALLEY":" ","HOUSE_NO":"１號","E_COORD97":169251.82000000001,"N_COORD97":2548298.3700000001,"ADDRESS":"長溪路一段４６巷１號","OBJECTID":287145},"geometry":{"x":169251.8200000003,"y":2548298.3700000048}},{"attributes":{"ID":287152,"DIS_CODE":0,"TOWNNAME":"新市區","LI":"社內里","LIN":"2鄰","STREET":" ","SECT":" ","MAREA":"社內","LANE":" ","ALLEY":" ","HOUSE_NO":"２２之１５號","E_COORD97":176824.25,"N_COORD97":2552907.5499999998,"ADDRESS":"社內２２之１５號","OBJECTID":287146},"geometry":{"x":176824.25,"y":2552907.5500000045}},{"attributes":{"ID":287153,"DIS_CODE":0,"TOWNNAME":"新市區","LI":"潭頂里","LIN":"2鄰","STREET":" ","SECT":" ","MAREA":"潭頂","LANE":" ","ALLEY":" ","HOUSE_NO":"４２號","E_COORD97":181108,"N_COORD97":2552905.5,"ADDRESS":"潭頂４２號","OBJECTID":287147},"geometry":{"x":181108,"y":2552905.5}},{"attributes":{"ID":287154,"DIS_CODE":0,"TOWNNAME":"新市區","LI":"潭頂里","LIN":"2鄰","STREET":" ","SECT":" ","MAREA":"潭頂","LANE":" ","ALLEY":" ","HOUSE_NO":"９０之２號","E_COORD97":181748.95000000001,"N_COORD97":2553466.2999999998,"ADDRESS":"潭頂９０之２號","OBJECTID":287148},"geometry":{"x":181748.95000000112,"y":2553466.3000000026}},{"attributes":{"ID":287155,"DIS_CODE":0,"TOWNNAME":"新市區","LI":"新和里","LIN":"2鄰","STREET":"中山路","SECT":" ","MAREA":" ","LANE":" ","ALLEY":" ","HOUSE_NO":"２２４之７號","E_COORD97":177490.48999999999,"N_COORD97":2552074.7999999998,"ADDRESS":"中山路２２４之７號","OBJECTID":287149},"geometry":{"x":177490.49000000115,"y":2552074.8000000007}},{"attributes":{"ID":287156,"DIS_CODE":0,"TOWNNAME":"安南區","LI":"安東里","LIN":"12鄰","STREET":"安和路","SECT":"一段","MAREA":" ","LANE":"２２０巷","ALLEY":" ","HOUSE_NO":"１０９號","E_COORD97":169555.82000000001,"N_COORD97":2548090.02,"ADDRESS":"安和路一段２２０巷１０９號","OBJECTID":287150},"geometry":{"x":169555.82000000216,"y":2548090.0200000014}},{"attributes":{"ID":287157,"DIS_CODE":0,"TOWNNAME":"永康區","LI":"龍潭里","LIN":"12鄰","STREET":"龍橋街","SECT":" ","MAREA":" ","LANE":"４５巷","ALLEY":" ","HOUSE_NO":"２號","E_COORD97":174785.73000000001,"N_COORD97":2548365.9100000001,"ADDRESS":"龍橋街４５巷２號","OBJECTID":287151},"geometry":{"x":174785.73000000045,"y":2548365.910000002}},{"attributes":{"ID":287158,"DIS_CODE":0,"TOWNNAME":"新市區","LI":"潭頂里","LIN":"2鄰","STREET":" ","SECT":" ","MAREA":"潭頂","LANE":" ","ALLEY":" ","HOUSE_NO":"９０之１９號","E_COORD97":181694.28,"N_COORD97":2553466.2999999998,"ADDRESS":"潭頂９０之１９號","OBJECTID":287152},"geometry":{"x":181694.28000000119,"y":2553466.3000000026}},{"attributes":{"ID":287159,"DIS_CODE":0,"TOWNNAME":"新市區","LI":"新市里","LIN":"2鄰","STREET":"光華街","SECT":" ","MAREA":" ","LANE":" ","ALLEY":" ","HOUSE_NO":"１６９號","E_COORD97":177810.51000000001,"N_COORD97":2553060.25,"ADDRESS":"光華街１６９號","OBJECTID":287153},"geometry":{"x":177810.50999999978,"y":2553060.25}},{"attributes":{"ID":287160,"DIS_CODE":0,"TOWNNAME":"永康區","LI":"烏竹里","LIN":"12鄰","STREET":"竹園二街","SECT":" ","MAREA":" ","LANE":"１６０巷","ALLEY":" ","HOUSE_NO":"１８號","E_COORD97":174534.92999999999,"N_COORD97":2549215.5600000001,"ADDRESS":"竹園二街１６０巷１８號","OBJECTID":287154},"geometry":{"x":174534.93000000156,"y":2549215.5600000024}},{"attributes":{"ID":287161,"DIS_CODE":0,"TOWNNAME":"新市區","LI":"潭頂里","LIN":"2鄰","STREET":" ","SECT":" ","MAREA":"潭頂","LANE":" ","ALLEY":" ","HOUSE_NO":"３８號","E_COORD97":181124.89000000001,"N_COORD97":2552916.5,"ADDRESS":"潭頂３８號","OBJECTID":287155},"geometry":{"x":181124.8900000006,"y":2552916.5}},{"attributes":{"ID":287162,"DIS_CODE":0,"TOWNNAME":"永康區","LI":"復國里","LIN":"12鄰","STREET":"復國二路","SECT":" ","MAREA":" ","LANE":"１０６巷","ALLEY":" ","HOUSE_NO":"４號","E_COORD97":172871.26000000001,"N_COORD97":2545338.27,"ADDRESS":"復國二路１０６巷４號","OBJECTID":287156},"geometry":{"x":172871.25999999885,"y":2545338.2700000014}},{"attributes":{"ID":287163,"DIS_CODE":0,"TOWNNAME":"新市區","LI":"潭頂里","LIN":"2鄰","STREET":" ","SECT":" ","MAREA":"潭頂","LANE":" ","ALLEY":" ","HOUSE_NO":"９０之５０號","E_COORD97":181705.62,"N_COORD97":2553497.7999999998,"ADDRESS":"潭頂９０之５０號","OBJECTID":287157},"geometry":{"x":181705.62000000011,"y":2553497.8000000007}},{"attributes":{"ID":287164,"DIS_CODE":0,"TOWNNAME":"新市區","LI":"潭頂里","LIN":"2鄰","STREET":" ","SECT":" ","MAREA":"潭頂","LANE":" ","ALLEY":" ","HOUSE_NO":"９０之１３號","E_COORD97":181714.20000000001,"N_COORD97":2553464.5499999998,"ADDRESS":"潭頂９０之１３號","OBJECTID":287158},"geometry":{"x":181714.19999999925,"y":2553464.5500000026}},{"attributes":{"ID":287165,"DIS_CODE":0,"TOWNNAME":"新市區","LI":"潭頂里","LIN":"2鄰","STREET":" ","SECT":" ","MAREA":"潭頂","LANE":" ","ALLEY":" ","HOUSE_NO":"９０之３號","E_COORD97":181745.5,"N_COORD97":2553463.7999999998,"ADDRESS":"潭頂９０之３號","OBJECTID":287159},"geometry":{"x":181745.5,"y":2553463.8000000007}},{"attributes":{"ID":287166,"DIS_CODE":0,"TOWNNAME":"新市區","LI":"新市里","LIN":"2鄰","STREET":"光華街","SECT":" ","MAREA":" ","LANE":" ","ALLEY":" ","HOUSE_NO":"１７５號","E_COORD97":177803.51000000001,"N_COORD97":2553081.25,"ADDRESS":"光華街１７５號","OBJECTID":287160},"geometry":{"x":177803.51000000071,"y":2553081.25}},{"attributes":{"ID":287167,"DIS_CODE":0,"TOWNNAME":"永康區","LI":"復華里","LIN":"12鄰","STREET":"國華街","SECT":" ","MAREA":" ","LANE":"１０２巷","ALLEY":" ","HOUSE_NO":"３８號","E_COORD97":172896.48999999999,"N_COORD97":2546077.2999999998,"ADDRESS":"國華街１０２巷３８號","OBJECTID":287161},"geometry":{"x":172896.49000000115,"y":2546077.2999999989}},{"attributes":{"ID":287168,"DIS_CODE":0,"TOWNNAME":"東區","LI":"崇信里","LIN":"12鄰","STREET":"崇善路","SECT":" ","MAREA":" ","LANE":"２３１巷","ALLEY":" ","HOUSE_NO":"４１號","E_COORD97":170679.39999999999,"N_COORD97":2542272.8399999999,"ADDRESS":"崇善路２３１巷４１號","OBJECTID":287162},"geometry":{"x":170679.4000000013,"y":2542272.8400000017}},{"attributes":{"ID":287169,"DIS_CODE":0,"TOWNNAME":"新市區","LI":"新市里","LIN":"2鄰","STREET":"光華街","SECT":" ","MAREA":" ","LANE":" ","ALLEY":" ","HOUSE_NO":"１７９之１號","E_COORD97":177802.87,"N_COORD97":2553093.2999999998,"ADDRESS":"光華街１７９之１號","OBJECTID":287163},"geometry":{"x":177802.87000000104,"y":2553093.3000000026}},{"attributes":{"ID":287170,"DIS_CODE":0,"TOWNNAME":"東區","LI":"崇信里","LIN":"12鄰","STREET":"崇善路","SECT":" ","MAREA":" ","LANE":"２３１巷","ALLEY":" ","HOUSE_NO":"４３號","E_COORD97":170687.54999999999,"N_COORD97":2542274.8799999999,"ADDRESS":"崇善路２３１巷４３號","OBJECTID":287164},"geometry":{"x":170687.54999999981,"y":2542274.8800000008}},{"attributes":{"ID":287171,"DIS_CODE":0,"TOWNNAME":"新市區","LI":"新市里","LIN":"2鄰","STREET":"光華街","SECT":" ","MAREA":" ","LANE":" ","ALLEY":" ","HOUSE_NO":"１７７號","E_COORD97":177802.51000000001,"N_COORD97":2553084.9900000002,"ADDRESS":"光華街１７７號","OBJECTID":287165},"geometry":{"x":177802.50999999978,"y":2553084.9900000021}},{"attributes":{"ID":287172,"DIS_CODE":0,"TOWNNAME":"東區","LI":"崇信里","LIN":"12鄰","STREET":"崇善路","SECT":" ","MAREA":" ","LANE":"２３１巷","ALLEY":" ","HOUSE_NO":"４５號","E_COORD97":170692,"N_COORD97":2542275.25,"ADDRESS":"崇善路２３１巷４５號","OBJECTID":287166},"geometry":{"x":170692.00000000093,"y":2542275.25}},{"attributes":{"ID":287173,"DIS_CODE":0,"TOWNNAME":"永康區","LI":"\u25A0洲里","LIN":"12鄰","STREET":"\u25A0洲一街","SECT":" ","MAREA":" ","LANE":"１１巷","ALLEY":" ","HOUSE_NO":"１９號","E_COORD97":171540.39999999999,"N_COORD97":2549098.25,"ADDRESS":"\u25A0洲一街１１巷１９號","OBJECTID":287167},"geometry":{"x":171540.40000000224,"y":2549098.2500000019}},{"attributes":{"ID":287174,"DIS_CODE":0,"TOWNNAME":"永康區","LI":"\u25A0洲里","LIN":"12鄰","STREET":"\u25A0洲一街","SECT":" ","MAREA":" ","LANE":"１１巷","ALLEY":" ","HOUSE_NO":"９號","E_COORD97":171522.73999999999,"N_COORD97":2549082.7400000002,"ADDRESS":"\u25A0洲一街１１巷９號","OBJECTID":287168},"geometry":{"x":171522.74000000209,"y":2549082.7400000021}},{"attributes":{"ID":287175,"DIS_CODE":0,"TOWNNAME":"新市區","LI":"港墘里","LIN":"2鄰","STREET":"三民街","SECT":" ","MAREA":" ","LANE":" ","ALLEY":" ","HOUSE_NO":"４號","E_COORD97":178569.57000000001,"N_COORD97":2553348.79,"ADDRESS":"三民街４號","OBJECTID":287169},"geometry":{"x":178569.57000000123,"y":2553348.790000001}},{"attributes":{"ID":287176,"DIS_CODE":0,"TOWNNAME":"新市區","LI":"社內里","LIN":"2鄰","STREET":" ","SECT":" ","MAREA":"社內","LANE":" ","ALLEY":" ","HOUSE_NO":"２８之２８號","E_COORD97":176801.42000000001,"N_COORD97":2552830.7999999998,"ADDRESS":"社內２８之２８號","OBJECTID":287170},"geometry":{"x":176801.41999999993,"y":2552830.8000000007}},{"attributes":{"ID":287177,"DIS_CODE":0,"TOWNNAME":"新市區","LI":"社內里","LIN":"2鄰","STREET":" ","SECT":" ","MAREA":"社內","LANE":" ","ALLEY":" ","HOUSE_NO":"２８之８號","E_COORD97":176812.35999999999,"N_COORD97":2552857.7999999998,"ADDRESS":"社內２８之８號","OBJECTID":287171},"geometry":{"x":176812.36000000034,"y":2552857.8000000007}},{"attributes":{"ID":287178,"DIS_CODE":0,"TOWNNAME":"新市區","LI":"社內里","LIN":"2鄰","STREET":" ","SECT":" ","MAREA":"社內","LANE":" ","ALLEY":" ","HOUSE_NO":"３０之２號","E_COORD97":177087.29000000001,"N_COORD97":2552609.0499999998,"ADDRESS":"社內３０之２號","OBJECTID":287172},"geometry":{"x":177087.28999999911,"y":2552609.0500000045}},{"attributes":{"ID":287179,"DIS_CODE":0,"TOWNNAME":"安南區","LI":"溪心里","LIN":"2鄰","STREET":"海佃路","SECT":"二段","MAREA":" ","LANE":" ","ALLEY":" ","HOUSE_NO":"６２７號之１","E_COORD97":166509.23999999999,"N_COORD97":2549507.5699999998,"ADDRESS":"海佃路二段６２７號之１","OBJECTID":287173},"geometry":{"x":166509.24000000022,"y":2549507.5700000022}},{"attributes":{"ID":287180,"DIS_CODE":0,"TOWNNAME":"安南區","LI":"城西里","LIN":"2鄰","STREET":"城西街","SECT":"三段","MAREA":" ","LANE":" ","ALLEY":" ","HOUSE_NO":"４９８號","E_COORD97":157172.59,"N_COORD97":2550869.1400000001,"ADDRESS":"城西街三段４９８號","OBJECTID":287174},"geometry":{"x":157172.59000000078,"y":2550869.1400000043}},{"attributes":{"ID":287181,"DIS_CODE":0,"TOWNNAME":"安南區","LI":"海東里","LIN":"2鄰","STREET":"海環街","SECT":" ","MAREA":" ","LANE":" ","ALLEY":" ","HOUSE_NO":"６５６之２號","E_COORD97":166545.92999999999,"N_COORD97":2549301.8399999999,"ADDRESS":"海環街６５６之２號","OBJECTID":287175},"geometry":{"x":166545.93000000063,"y":2549301.8400000017}},{"attributes":{"ID":287182,"DIS_CODE":0,"TOWNNAME":"安南區","LI":"淵中里","LIN":"4鄰","STREET":"安中路","SECT":"四段","MAREA":" ","LANE":" ","ALLEY":" ","HOUSE_NO":"４２號","E_COORD97":165224.03,"N_COORD97":2550081.0099999998,"ADDRESS":"安中路四段４２號","OBJECTID":287176},"geometry":{"x":165224.03000000026,"y":2550081.0099999998}},{"attributes":{"ID":287183,"DIS_CODE":0,"TOWNNAME":"安南區","LI":"淵中里","LIN":"4鄰","STREET":"安中路","SECT":"四段","MAREA":" ","LANE":" ","ALLEY":" ","HOUSE_NO":"４６號","E_COORD97":165218.37,"N_COORD97":2550076.2599999998,"ADDRESS":"安中路四段４６號","OBJECTID":287177},"geometry":{"x":165218.37000000011,"y":2550076.2599999998}},{"attributes":{"ID":287184,"DIS_CODE":0,"TOWNNAME":"安南區","LI":"淵中里","LIN":"4鄰","STREET":"安中路","SECT":"四段","MAREA":" ","LANE":" ","ALLEY":" ","HOUSE_NO":"４８號","E_COORD97":165214.42000000001,"N_COORD97":2550074.02,"ADDRESS":"安中路四段４８號","OBJECTID":287178},"geometry":{"x":165214.41999999993,"y":2550074.0199999996}},{"attributes":{"ID":287185,"DIS_CODE":0,"TOWNNAME":"安南區","LI":"淵中里","LIN":"4鄰","STREET":"安中路","SECT":"四段","MAREA":" ","LANE":" ","ALLEY":" ","HOUSE_NO":"５０號","E_COORD97":165211.45999999999,"N_COORD97":2550071.9500000002,"ADDRESS":"安中路四段５０號","OBJECTID":287179},"geometry":{"x":165211.46000000183,"y":2550071.9499999993}},{"attributes":{"ID":287186,"DIS_CODE":0,"TOWNNAME":"安南區","LI":"淵中里","LIN":"4鄰","STREET":"安中路","SECT":"四段","MAREA":" ","LANE":" ","ALLEY":" ","HOUSE_NO":"５２號","E_COORD97":165208.04000000001,"N_COORD97":2550069.8900000001,"ADDRESS":"安中路四段５２號","OBJECTID":287180},"geometry":{"x":165208.04000000097,"y":2550069.8900000006}},{"attributes":{"ID":287187,"DIS_CODE":0,"TOWNNAME":"永康區","LI":"甲頂里","LIN":"12鄰","STREET":"中正南路","SECT":" ","MAREA":" ","LANE":"５２巷","ALLEY":" ","HOUSE_NO":"９６號","E_COORD97":170132.34,"N_COORD97":2546796.1000000001,"ADDRESS":"中正南路５２巷９６號","OBJECTID":287181},"geometry":{"x":170132.33999999985,"y":2546796.0999999996}},{"attributes":{"ID":287188,"DIS_CODE":0,"TOWNNAME":"安南區","LI":"淵中里","LIN":"4鄰","STREET":"安中路","SECT":"四段","MAREA":" ","LANE":" ","ALLEY":" ","HOUSE_NO":"５４號","E_COORD97":165205.26000000001,"N_COORD97":2550067.3799999999,"ADDRESS":"安中路四段５４號","OBJECTID":287182},"geometry":{"x":165205.25999999978,"y":2550067.379999999}},{"attributes":{"ID":287189,"DIS_CODE":0,"TOWNNAME":"安南區","LI":"淵中里","LIN":"4鄰","STREET":"安中路","SECT":"四段","MAREA":" ","LANE":" ","ALLEY":" ","HOUSE_NO":"５８號","E_COORD97":165196.98000000001,"N_COORD97":2550062.4300000002,"ADDRESS":"安中路四段５８號","OBJECTID":287183},"geometry":{"x":165196.98000000138,"y":2550062.4299999978}},{"attributes":{"ID":287190,"DIS_CODE":0,"TOWNNAME":"安南區","LI":"淵中里","LIN":"4鄰","STREET":"安中路","SECT":"四段","MAREA":" ","LANE":" ","ALLEY":" ","HOUSE_NO":"５號","E_COORD97":165287.42000000001,"N_COORD97":2550101.1899999999,"ADDRESS":"安中路四段５號","OBJECTID":287184},"geometry":{"x":165287.41999999993,"y":2550101.1899999976}},{"attributes":{"ID":287191,"DIS_CODE":0,"TOWNNAME":"永康區","LI":"甲頂里","LIN":"12鄰","STREET":"中正南路","SECT":" ","MAREA":" ","LANE":"５２巷","ALLEY":" ","HOUSE_NO":"９６號","E_COORD97":170126.09,"N_COORD97":2546796.6000000001,"ADDRESS":"中正南路５２巷９６號","OBJECTID":287185},"geometry":{"x":170126.08999999985,"y":2546796.6000000034}},{"attributes":{"ID":287192,"DIS_CODE":0,"TOWNNAME":"永康區","LI":"甲頂里","LIN":"12鄰","STREET":"中正南路","SECT":" ","MAREA":" ","LANE":"５２巷","ALLEY":" ","HOUSE_NO":"９６號","E_COORD97":170120.57000000001,"N_COORD97":2546794.6000000001,"ADDRESS":"中正南路５２巷９６號","OBJECTID":287186},"geometry":{"x":170120.57000000123,"y":2546794.6000000015}},{"attributes":{"ID":287193,"DIS_CODE":0,"TOWNNAME":"永康區","LI":"甲頂里","LIN":"12鄰","STREET":"中正南路","SECT":" ","MAREA":" ","LANE":"５２巷","ALLEY":" ","HOUSE_NO":"９６號","E_COORD97":170132.48000000001,"N_COORD97":2546796.1000000001,"ADDRESS":"中正南路５２巷９６號","OBJECTID":287187},"geometry":{"x":170132.48000000045,"y":2546796.0999999996}},{"attributes":{"ID":287194,"DIS_CODE":0,"TOWNNAME":"新市區","LI":"新和里","LIN":"49鄰","STREET":"自強街","SECT":" ","MAREA":" ","LANE":"７１巷","ALLEY":" ","HOUSE_NO":"２號","E_COORD97":177551.19,"N_COORD97":2553423.5,"ADDRESS":"自強街７１巷２號","OBJECTID":287188},"geometry":{"x":177551.19000000227,"y":2553423.5000000019}},{"attributes":{"ID":287195,"DIS_CODE":0,"TOWNNAME":"新市區","LI":"新和里","LIN":"49鄰","STREET":"自強街","SECT":" ","MAREA":" ","LANE":"７１巷","ALLEY":" ","HOUSE_NO":"６號","E_COORD97":177557.03,"N_COORD97":2553416.25,"ADDRESS":"自強街７１巷６號","OBJECTID":287189},"geometry":{"x":177557.03000000026,"y":2553416.25}},{"attributes":{"ID":287196,"DIS_CODE":0,"TOWNNAME":"新市區","LI":"新和里","LIN":"49鄰","STREET":"自強街","SECT":" ","MAREA":" ","LANE":"７０巷","ALLEY":" ","HOUSE_NO":"１號","E_COORD97":177511.16,"N_COORD97":2553453,"ADDRESS":"自強街７０巷１號","OBJECTID":287190},"geometry":{"x":177511.16000000108,"y":2553453.0000000037}},{"attributes":{"ID":287197,"DIS_CODE":0,"TOWNNAME":"新市區","LI":"新和里","LIN":"49鄰","STREET":"自強街","SECT":" ","MAREA":" ","LANE":"７１巷","ALLEY":" ","HOUSE_NO":"３號","E_COORD97":177561.23999999999,"N_COORD97":2553425.25,"ADDRESS":"自強街７１巷３號","OBJECTID":287191},"geometry":{"x":177561.24000000115,"y":2553425.2500000019}},{"attributes":{"ID":287198,"DIS_CODE":0,"TOWNNAME":"仁德區","LI":"仁義里","LIN":"49鄰","STREET":"仁義路","SECT":" ","MAREA":" ","LANE":"９５巷","ALLEY":" ","HOUSE_NO":"２６號","E_COORD97":173636.42000000001,"N_COORD97":2541046.52,"ADDRESS":"仁義路９５巷２６號","OBJECTID":287192},"geometry":{"x":173636.41999999993,"y":2541046.5199999996}},{"attributes":{"ID":287199,"DIS_CODE":0,"TOWNNAME":"仁德區","LI":"仁義里","LIN":"49鄰","STREET":"中清路","SECT":" ","MAREA":" ","LANE":"７巷","ALLEY":" ","HOUSE_NO":"５號","E_COORD97":173658.17999999999,"N_COORD97":2541006.29,"ADDRESS":"中清路７巷５號","OBJECTID":287193},"geometry":{"x":173658.1799999997,"y":2541006.2899999991}},{"attributes":{"ID":287200,"DIS_CODE":0,"TOWNNAME":"仁德區","LI":"仁義里","LIN":"49鄰","STREET":"中清路","SECT":" ","MAREA":" ","LANE":"７巷","ALLEY":" ","HOUSE_NO":"１０號","E_COORD97":173651.67999999999,"N_COORD97":2541019.5499999998,"ADDRESS":"中清路７巷１０號","OBJECTID":287194},"geometry":{"x":173651.68000000156,"y":2541019.5500000007}},{"attributes":{"ID":287201,"DIS_CODE":0,"TOWNNAME":"仁德區","LI":"仁義里","LIN":"49鄰","STREET":"中清路","SECT":" ","MAREA":" ","LANE":"７巷","ALLEY":" ","HOUSE_NO":"９號","E_COORD97":173649.28,"N_COORD97":2541006.79,"ADDRESS":"中清路７巷９號","OBJECTID":287195},"geometry":{"x":173649.28000000026,"y":2541006.7899999991}},{"attributes":{"ID":287202,"DIS_CODE":0,"TOWNNAME":"仁德區","LI":"仁義里","LIN":"49鄰","STREET":"中清路","SECT":" ","MAREA":" ","LANE":"７巷","ALLEY":" ","HOUSE_NO":"６號","E_COORD97":173659.17999999999,"N_COORD97":2541019.0499999998,"ADDRESS":"中清路７巷６號","OBJECTID":287196},"geometry":{"x":173659.18000000063,"y":2541019.0500000026}},{"attributes":{"ID":287203,"DIS_CODE":0,"TOWNNAME":"仁德區","LI":"仁義里","LIN":"49鄰","STREET":"仁義路","SECT":" ","MAREA":" ","LANE":"９５巷","ALLEY":" ","HOUSE_NO":"１６號","E_COORD97":173633.45999999999,"N_COORD97":2541025.27,"ADDRESS":"仁義路９５巷１６號","OBJECTID":287197},"geometry":{"x":173633.46000000089,"y":2541025.2700000014}},{"attributes":{"ID":287204,"DIS_CODE":0,"TOWNNAME":"仁德區","LI":"仁義里","LIN":"49鄰","STREET":"仁義路","SECT":" ","MAREA":" ","LANE":"１２５巷","ALLEY":" ","HOUSE_NO":"２號","E_COORD97":173750.42999999999,"N_COORD97":2541008.0099999998,"ADDRESS":"仁義路１２５巷２號","OBJECTID":287198},"geometry":{"x":173750.43000000063,"y":2541008.0100000016}},{"attributes":{"ID":287205,"DIS_CODE":0,"TOWNNAME":"仁德區","LI":"仁義里","LIN":"49鄰","STREET":"仁義路","SECT":" ","MAREA":" ","LANE":"９５巷","ALLEY":" ","HOUSE_NO":"２０號","E_COORD97":173633.64999999999,"N_COORD97":2541033.77,"ADDRESS":"仁義路９５巷２０號","OBJECTID":287199},"geometry":{"x":173633.65000000037,"y":2541033.7699999996}},{"attributes":{"ID":287206,"DIS_CODE":0,"TOWNNAME":"仁德區","LI":"仁義里","LIN":"49鄰","STREET":"仁義路","SECT":" ","MAREA":" ","LANE":"９５巷","ALLEY":" ","HOUSE_NO":"２２號","E_COORD97":173633.88,"N_COORD97":2541038.02,"ADDRESS":"仁義路９５巷２２號","OBJECTID":287200},"geometry":{"x":173633.88000000082,"y":2541038.0200000014}}]}