{"displayFieldName":"TOWNNAME","fieldAliases":{"ID":"ID","DIS_CODE":"DIS_CODE","TOWNNAME":"TOWNNAME","LI":"LI","LIN":"LIN","STREET":"STREET","SECT":"SECT","MAREA":"MAREA","LANE":"LANE","ALLEY":"ALLEY","HOUSE_NO":"HOUSE_NO","E_COORD97":"E_COORD97","N_COORD97":"N_COORD97","ADDRESS":"ADDRESS","OBJECTID":"OBJECTID"},"geometryType":"esriGeometryPoint","spatialReference":{"wkid":102443,"latestWkid":3826},"fields":[{"name":"ID","type":"esriFieldTypeDouble","alias":"ID"},{"name":"DIS_CODE","type":"esriFieldTypeInteger","alias":"DIS_CODE"},{"name":"TOWNNAME","type":"esriFieldTypeString","alias":"TOWNNAME","length":8},{"name":"LI","type":"esriFieldTypeString","alias":"LI","length":8},{"name":"LIN","type":"esriFieldTypeString","alias":"LIN","length":12},{"name":"STREET","type":"esriFieldTypeString","alias":"STREET","length":20},{"name":"SECT","type":"esriFieldTypeString","alias":"SECT","length":8},{"name":"MAREA","type":"esriFieldTypeString","alias":"MAREA","length":12},{"name":"LANE","type":"esriFieldTypeString","alias":"LANE","length":10},{"name":"ALLEY","type":"esriFieldTypeString","alias":"ALLEY","length":10},{"name":"HOUSE_NO","type":"esriFieldTypeString","alias":"HOUSE_NO","length":20},{"name":"E_COORD97","type":"esriFieldTypeDouble","alias":"E_COORD97"},{"name":"N_COORD97","type":"esriFieldTypeDouble","alias":"N_COORD97"},{"name":"ADDRESS","type":"esriFieldTypeString","alias":"ADDRESS","length":50},{"name":"OBJECTID","type":"esriFieldTypeOID","alias":"OBJECTID"}],"features":[{"attributes":{"ID":573628,"DIS_CODE":0,"TOWNNAME":"新營區","LI":"民生里","LIN":"23鄰","STREET":"民生路","SECT":" ","MAREA":" ","LANE":" ","ALLEY":" ","HOUSE_NO":"５９之６號","E_COORD97":179229.64999999999,"N_COORD97":2578478.98,"ADDRESS":"民生路５９之６號","OBJECTID":573601},"geometry":{"x":179229.65000000224,"y":2578478.9800000023}},{"attributes":{"ID":573629,"DIS_CODE":0,"TOWNNAME":"新營區","LI":"民生里","LIN":"23鄰","STREET":"民生路","SECT":" ","MAREA":" ","LANE":" ","ALLEY":" ","HOUSE_NO":"５５號","E_COORD97":179273.17999999999,"N_COORD97":2578477.6000000001,"ADDRESS":"民生路５５號","OBJECTID":573602},"geometry":{"x":179273.18000000063,"y":2578477.6000000015}},{"attributes":{"ID":573630,"DIS_CODE":0,"TOWNNAME":"新營區","LI":"民生里","LIN":"23鄰","STREET":"民生路","SECT":" ","MAREA":" ","LANE":" ","ALLEY":" ","HOUSE_NO":"６５之１號","E_COORD97":179197.89999999999,"N_COORD97":2578470.27,"ADDRESS":"民生路６５之１號","OBJECTID":573603},"geometry":{"x":179197.9000000013,"y":2578470.2699999996}},{"attributes":{"ID":573631,"DIS_CODE":0,"TOWNNAME":"新營區","LI":"南興里","LIN":"23鄰","STREET":"南昌街","SECT":" ","MAREA":" ","LANE":" ","ALLEY":" ","HOUSE_NO":"１０３號","E_COORD97":179340,"N_COORD97":2577646.7000000002,"ADDRESS":"南昌街１０３號","OBJECTID":573604},"geometry":{"x":179340,"y":2577646.6999999993}},{"attributes":{"ID":573632,"DIS_CODE":0,"TOWNNAME":"新營區","LI":"王公里","LIN":"23鄰","STREET":"樂仁街","SECT":" ","MAREA":" ","LANE":" ","ALLEY":" ","HOUSE_NO":"５６號","E_COORD97":180531.57000000001,"N_COORD97":2579190.3799999999,"ADDRESS":"樂仁街５６號","OBJECTID":573605},"geometry":{"x":180531.5700000003,"y":2579190.3800000008}},{"attributes":{"ID":573633,"DIS_CODE":0,"TOWNNAME":"新營區","LI":"民權里","LIN":"23鄰","STREET":"民治路","SECT":" ","MAREA":" ","LANE":" ","ALLEY":" ","HOUSE_NO":"４３之１號","E_COORD97":179773.51999999999,"N_COORD97":2578834.1099999999,"ADDRESS":"民治路４３之１號","OBJECTID":573606},"geometry":{"x":179773.51999999955,"y":2578834.1099999994}},{"attributes":{"ID":573634,"DIS_CODE":0,"TOWNNAME":"新營區","LI":"三仙里","LIN":"23鄰","STREET":"育德街","SECT":" ","MAREA":" ","LANE":" ","ALLEY":" ","HOUSE_NO":"１７號","E_COORD97":179602.60000000001,"N_COORD97":2578924.5499999998,"ADDRESS":"育德街１７號","OBJECTID":573607},"geometry":{"x":179602.60000000056,"y":2578924.5500000007}},{"attributes":{"ID":573635,"DIS_CODE":0,"TOWNNAME":"新營區","LI":"三仙里","LIN":"23鄰","STREET":"育德一街","SECT":" ","MAREA":" ","LANE":" ","ALLEY":" ","HOUSE_NO":"２７號","E_COORD97":179539.23999999999,"N_COORD97":2578922.6400000001,"ADDRESS":"育德一街２７號","OBJECTID":573608},"geometry":{"x":179539.24000000209,"y":2578922.6400000025}},{"attributes":{"ID":573636,"DIS_CODE":0,"TOWNNAME":"新營區","LI":"民權里","LIN":"23鄰","STREET":"民治路","SECT":" ","MAREA":" ","LANE":" ","ALLEY":" ","HOUSE_NO":"４３號","E_COORD97":179771.01999999999,"N_COORD97":2578834.0600000001,"ADDRESS":"民治路４３號","OBJECTID":573609},"geometry":{"x":179771.02000000048,"y":2578834.0600000024}},{"attributes":{"ID":573637,"DIS_CODE":0,"TOWNNAME":"新營區","LI":"三仙里","LIN":"23鄰","STREET":"育德一街","SECT":" ","MAREA":" ","LANE":" ","ALLEY":" ","HOUSE_NO":"１７號","E_COORD97":179558.63,"N_COORD97":2578926.9700000002,"ADDRESS":"育德一街１７號","OBJECTID":573610},"geometry":{"x":179558.63000000082,"y":2578926.9700000025}},{"attributes":{"ID":573638,"DIS_CODE":0,"TOWNNAME":"新營區","LI":"南興里","LIN":"23鄰","STREET":"南昌街","SECT":" ","MAREA":" ","LANE":" ","ALLEY":" ","HOUSE_NO":"１０９號","E_COORD97":179326.70000000001,"N_COORD97":2577647.8700000001,"ADDRESS":"南昌街１０９號","OBJECTID":573611},"geometry":{"x":179326.70000000019,"y":2577647.870000001}},{"attributes":{"ID":573639,"DIS_CODE":0,"TOWNNAME":"新營區","LI":"民權里","LIN":"23鄰","STREET":"民治路","SECT":" ","MAREA":" ","LANE":" ","ALLEY":" ","HOUSE_NO":"４５之２號","E_COORD97":179773.51999999999,"N_COORD97":2578834.1099999999,"ADDRESS":"民治路４５之２號","OBJECTID":573612},"geometry":{"x":179773.51999999955,"y":2578834.1099999994}},{"attributes":{"ID":573640,"DIS_CODE":0,"TOWNNAME":"新營區","LI":"南興里","LIN":"23鄰","STREET":"南昌街","SECT":" ","MAREA":" ","LANE":" ","ALLEY":" ","HOUSE_NO":"１０１號","E_COORD97":179345.10999999999,"N_COORD97":2577646.6800000002,"ADDRESS":"南昌街１０１號","OBJECTID":573613},"geometry":{"x":179345.1099999994,"y":2577646.6800000016}},{"attributes":{"ID":573641,"DIS_CODE":0,"TOWNNAME":"新營區","LI":"三仙里","LIN":"23鄰","STREET":"育德一街","SECT":" ","MAREA":" ","LANE":" ","ALLEY":" ","HOUSE_NO":"２９號","E_COORD97":179535.14999999999,"N_COORD97":2578921.5499999998,"ADDRESS":"育德一街２９號","OBJECTID":573614},"geometry":{"x":179535.1500000013,"y":2578921.5500000007}},{"attributes":{"ID":573642,"DIS_CODE":0,"TOWNNAME":"新營區","LI":"王公里","LIN":"23鄰","STREET":"樂仁街","SECT":" ","MAREA":" ","LANE":" ","ALLEY":" ","HOUSE_NO":"５０號","E_COORD97":180531.5,"N_COORD97":2579175.9900000002,"ADDRESS":"樂仁街５０號","OBJECTID":573615},"geometry":{"x":180531.5,"y":2579175.9900000039}},{"attributes":{"ID":573643,"DIS_CODE":0,"TOWNNAME":"新營區","LI":"民權里","LIN":"23鄰","STREET":"民治路","SECT":" ","MAREA":" ","LANE":" ","ALLEY":" ","HOUSE_NO":"４９號之３","E_COORD97":179728.25,"N_COORD97":2578834.3199999998,"ADDRESS":"民治路４９號之３","OBJECTID":573616},"geometry":{"x":179728.25,"y":2578834.3200000003}},{"attributes":{"ID":573644,"DIS_CODE":0,"TOWNNAME":"新營區","LI":"王公里","LIN":"23鄰","STREET":"樂仁街","SECT":" ","MAREA":" ","LANE":" ","ALLEY":" ","HOUSE_NO":"４８號","E_COORD97":180532.57000000001,"N_COORD97":2579171.5600000001,"ADDRESS":"樂仁街４８號","OBJECTID":573617},"geometry":{"x":180532.57000000123,"y":2579171.5600000005}},{"attributes":{"ID":573645,"DIS_CODE":0,"TOWNNAME":"新營區","LI":"民權里","LIN":"23鄰","STREET":"民權路","SECT":" ","MAREA":" ","LANE":" ","ALLEY":" ","HOUSE_NO":"９６之２８號","E_COORD97":179668.56,"N_COORD97":2578677.3500000001,"ADDRESS":"民權路９６之２８號","OBJECTID":573618},"geometry":{"x":179668.56000000145,"y":2578677.3499999996}},{"attributes":{"ID":573646,"DIS_CODE":0,"TOWNNAME":"新營區","LI":"民權里","LIN":"23鄰","STREET":"民治路","SECT":" ","MAREA":" ","LANE":" ","ALLEY":" ","HOUSE_NO":"４１之１號","E_COORD97":179773.51999999999,"N_COORD97":2578834.1099999999,"ADDRESS":"民治路４１之１號","OBJECTID":573619},"geometry":{"x":179773.51999999955,"y":2578834.1099999994}},{"attributes":{"ID":573647,"DIS_CODE":0,"TOWNNAME":"新營區","LI":"民權里","LIN":"23鄰","STREET":"民治路","SECT":" ","MAREA":" ","LANE":" ","ALLEY":" ","HOUSE_NO":"４９號之１１","E_COORD97":179726.23000000001,"N_COORD97":2578814.3900000001,"ADDRESS":"民治路４９號之１１","OBJECTID":573620},"geometry":{"x":179726.23000000138,"y":2578814.3900000043}},{"attributes":{"ID":573648,"DIS_CODE":0,"TOWNNAME":"新營區","LI":"三仙里","LIN":"23鄰","STREET":"育德一街","SECT":" ","MAREA":" ","LANE":" ","ALLEY":" ","HOUSE_NO":"２５號","E_COORD97":179542.32000000001,"N_COORD97":2578923.73,"ADDRESS":"育德一街２５號","OBJECTID":573621},"geometry":{"x":179542.32000000123,"y":2578923.7300000042}},{"attributes":{"ID":573649,"DIS_CODE":0,"TOWNNAME":"南區","LI":"明亮里","LIN":"23鄰","STREET":"金華路","SECT":"一段","MAREA":" ","LANE":" ","ALLEY":" ","HOUSE_NO":"４５２之１號","E_COORD97":167029.62,"N_COORD97":2541445.6699999999,"ADDRESS":"金華路一段４５２之１號","OBJECTID":573622},"geometry":{"x":167029.62000000104,"y":2541445.6699999999}},{"attributes":{"ID":573650,"DIS_CODE":0,"TOWNNAME":"南區","LI":"明亮里","LIN":"23鄰","STREET":"金華路","SECT":"一段","MAREA":" ","LANE":" ","ALLEY":" ","HOUSE_NO":"３５６號","E_COORD97":167012.25,"N_COORD97":2541212.5,"ADDRESS":"金華路一段３５６號","OBJECTID":573623},"geometry":{"x":167012.25000000093,"y":2541212.5}},{"attributes":{"ID":573651,"DIS_CODE":0,"TOWNNAME":"歸仁區","LI":"後市里","LIN":"23鄰","STREET":"大通路","SECT":" ","MAREA":" ","LANE":" ","ALLEY":" ","HOUSE_NO":"１６０號","E_COORD97":177462.70000000001,"N_COORD97":2540929.25,"ADDRESS":"大通路１６０號","OBJECTID":573624},"geometry":{"x":177462.69999999925,"y":2540929.25}},{"attributes":{"ID":573652,"DIS_CODE":0,"TOWNNAME":"歸仁區","LI":"後市里","LIN":"23鄰","STREET":"大通路","SECT":" ","MAREA":" ","LANE":" ","ALLEY":" ","HOUSE_NO":"１５０號","E_COORD97":177484.20000000001,"N_COORD97":2540926.25,"ADDRESS":"大通路１５０號","OBJECTID":573625},"geometry":{"x":177484.20000000019,"y":2540926.25}},{"attributes":{"ID":573653,"DIS_CODE":0,"TOWNNAME":"歸仁區","LI":"後市里","LIN":"23鄰","STREET":"大通路","SECT":" ","MAREA":" ","LANE":" ","ALLEY":" ","HOUSE_NO":"１３８號","E_COORD97":177503.70000000001,"N_COORD97":2540922.25,"ADDRESS":"大通路１３８號","OBJECTID":573626},"geometry":{"x":177503.70000000112,"y":2540922.25}},{"attributes":{"ID":573654,"DIS_CODE":0,"TOWNNAME":"歸仁區","LI":"歸仁里","LIN":"23鄰","STREET":"文化二街","SECT":" ","MAREA":" ","LANE":" ","ALLEY":" ","HOUSE_NO":"３２號","E_COORD97":178005.13,"N_COORD97":2541233.7400000002,"ADDRESS":"文化二街３２號","OBJECTID":573627},"geometry":{"x":178005.12999999989,"y":2541233.7400000021}},{"attributes":{"ID":573655,"DIS_CODE":0,"TOWNNAME":"歸仁區","LI":"看西里","LIN":"23鄰","STREET":"凱旋路","SECT":"一段","MAREA":" ","LANE":" ","ALLEY":" ","HOUSE_NO":"２０８號","E_COORD97":178440.48000000001,"N_COORD97":2539745.8999999999,"ADDRESS":"凱旋路一段２０８號","OBJECTID":573628},"geometry":{"x":178440.48000000045,"y":2539745.9000000004}},{"attributes":{"ID":573656,"DIS_CODE":0,"TOWNNAME":"南區","LI":"廣州里","LIN":"23鄰","STREET":"福吉五街","SECT":" ","MAREA":" ","LANE":" ","ALLEY":" ","HOUSE_NO":"４３號","E_COORD97":167188.42999999999,"N_COORD97":2542571.48,"ADDRESS":"福吉五街４３號","OBJECTID":573629},"geometry":{"x":167188.43000000063,"y":2542571.4800000023}},{"attributes":{"ID":573657,"DIS_CODE":0,"TOWNNAME":"南區","LI":"廣州里","LIN":"23鄰","STREET":"福吉五街","SECT":" ","MAREA":" ","LANE":" ","ALLEY":" ","HOUSE_NO":"４５號","E_COORD97":167185.89999999999,"N_COORD97":2542574.8500000001,"ADDRESS":"福吉五街４５號","OBJECTID":573630},"geometry":{"x":167185.9000000013,"y":2542574.8500000015}},{"attributes":{"ID":573658,"DIS_CODE":0,"TOWNNAME":"南區","LI":"廣州里","LIN":"23鄰","STREET":"福吉五街","SECT":" ","MAREA":" ","LANE":" ","ALLEY":" ","HOUSE_NO":"４７號","E_COORD97":167181.67000000001,"N_COORD97":2542578.2200000002,"ADDRESS":"福吉五街４７號","OBJECTID":573631},"geometry":{"x":167181.67000000086,"y":2542578.2200000007}},{"attributes":{"ID":573659,"DIS_CODE":0,"TOWNNAME":"南區","LI":"文華里","LIN":"23鄰","STREET":"美南街","SECT":" ","MAREA":" ","LANE":" ","ALLEY":" ","HOUSE_NO":"１０９號","E_COORD97":166748.79000000001,"N_COORD97":2542950.6000000001,"ADDRESS":"美南街１０９號","OBJECTID":573632},"geometry":{"x":166748.79000000097,"y":2542950.5999999996}},{"attributes":{"ID":573660,"DIS_CODE":0,"TOWNNAME":"南區","LI":"文華里","LIN":"23鄰","STREET":"文南三街","SECT":" ","MAREA":" ","LANE":" ","ALLEY":" ","HOUSE_NO":"８０號","E_COORD97":166772.98999999999,"N_COORD97":2542929.7400000002,"ADDRESS":"文南三街８０號","OBJECTID":573633},"geometry":{"x":166772.99000000115,"y":2542929.7400000002}},{"attributes":{"ID":573661,"DIS_CODE":0,"TOWNNAME":"南區","LI":"文華里","LIN":"23鄰","STREET":"美南街","SECT":" ","MAREA":" ","LANE":" ","ALLEY":" ","HOUSE_NO":"１１１號","E_COORD97":166765.07000000001,"N_COORD97":2542937.3300000001,"ADDRESS":"美南街１１１號","OBJECTID":573634},"geometry":{"x":166765.0700000003,"y":2542937.3300000038}},{"attributes":{"ID":573662,"DIS_CODE":0,"TOWNNAME":"安平區","LI":"文平里","LIN":"23鄰","STREET":"建平一街","SECT":" ","MAREA":" ","LANE":" ","ALLEY":" ","HOUSE_NO":"２０號","E_COORD97":166017.04999999999,"N_COORD97":2542743.1699999999,"ADDRESS":"建平一街２０號","OBJECTID":573635},"geometry":{"x":166017.04999999981,"y":2542743.1699999999}},{"attributes":{"ID":573663,"DIS_CODE":0,"TOWNNAME":"安平區","LI":"文平里","LIN":"23鄰","STREET":"建平一街","SECT":" ","MAREA":" ","LANE":" ","ALLEY":" ","HOUSE_NO":"３６號","E_COORD97":165989.19,"N_COORD97":2542748.52,"ADDRESS":"建平一街３６號","OBJECTID":573636},"geometry":{"x":165989.19000000134,"y":2542748.5199999996}},{"attributes":{"ID":573664,"DIS_CODE":0,"TOWNNAME":"南區","LI":"大恩里","LIN":"23鄰","STREET":"機場路","SECT":" ","MAREA":" ","LANE":" ","ALLEY":" ","HOUSE_NO":"９０７號","E_COORD97":169663.48000000001,"N_COORD97":2539513.8100000001,"ADDRESS":"機場路９０７號","OBJECTID":573637},"geometry":{"x":169663.48000000138,"y":2539513.8100000024}},{"attributes":{"ID":573665,"DIS_CODE":0,"TOWNNAME":"南區","LI":"大恩里","LIN":"23鄰","STREET":"機場路","SECT":" ","MAREA":" ","LANE":" ","ALLEY":" ","HOUSE_NO":"７７５號","E_COORD97":169614.26999999999,"N_COORD97":2538744.73,"ADDRESS":"機場路７７５號","OBJECTID":573638},"geometry":{"x":169614.26999999955,"y":2538744.7300000023}},{"attributes":{"ID":573666,"DIS_CODE":0,"TOWNNAME":"南區","LI":"永寧里","LIN":"23鄰","STREET":"灣裡路","SECT":" ","MAREA":" ","LANE":" ","ALLEY":" ","HOUSE_NO":"３０３號","E_COORD97":166127.31,"N_COORD97":2536298.5899999999,"ADDRESS":"灣裡路３０３號","OBJECTID":573639},"geometry":{"x":166127.30999999866,"y":2536298.5899999999}},{"attributes":{"ID":573667,"DIS_CODE":0,"TOWNNAME":"南區","LI":"永寧里","LIN":"23鄰","STREET":"灣裡路","SECT":" ","MAREA":" ","LANE":" ","ALLEY":" ","HOUSE_NO":"３０５號","E_COORD97":166129.06,"N_COORD97":2536294.3500000001,"ADDRESS":"灣裡路３０５號","OBJECTID":573640},"geometry":{"x":166129.06000000145,"y":2536294.3499999996}},{"attributes":{"ID":573668,"DIS_CODE":0,"TOWNNAME":"南區","LI":"永寧里","LIN":"23鄰","STREET":"灣裡路","SECT":" ","MAREA":" ","LANE":" ","ALLEY":" ","HOUSE_NO":"３０７號","E_COORD97":166131.78,"N_COORD97":2536289.5099999998,"ADDRESS":"灣裡路３０７號","OBJECTID":573641},"geometry":{"x":166131.78000000212,"y":2536289.5099999998}},{"attributes":{"ID":573669,"DIS_CODE":0,"TOWNNAME":"南區","LI":"永寧里","LIN":"23鄰","STREET":"灣裡路","SECT":" ","MAREA":" ","LANE":" ","ALLEY":" ","HOUSE_NO":"３０９號","E_COORD97":166133.60000000001,"N_COORD97":2536284.71,"ADDRESS":"灣裡路３０９號","OBJECTID":573642},"geometry":{"x":166133.59999999963,"y":2536284.7100000028}},{"attributes":{"ID":573670,"DIS_CODE":0,"TOWNNAME":"南區","LI":"永寧里","LIN":"23鄰","STREET":"灣裡路","SECT":" ","MAREA":" ","LANE":" ","ALLEY":" ","HOUSE_NO":"３１１號","E_COORD97":166136.32999999999,"N_COORD97":2536279.4900000002,"ADDRESS":"灣裡路３１１號","OBJECTID":573643},"geometry":{"x":166136.33000000194,"y":2536279.4900000002}},{"attributes":{"ID":573671,"DIS_CODE":0,"TOWNNAME":"南區","LI":"永寧里","LIN":"23鄰","STREET":"灣裡路","SECT":" ","MAREA":" ","LANE":" ","ALLEY":" ","HOUSE_NO":"３１３號","E_COORD97":166139.66,"N_COORD97":2536275.5499999998,"ADDRESS":"灣裡路３１３號","OBJECTID":573644},"geometry":{"x":166139.66000000108,"y":2536275.5500000026}},{"attributes":{"ID":573672,"DIS_CODE":0,"TOWNNAME":"南區","LI":"永寧里","LIN":"23鄰","STREET":"灣裡路","SECT":" ","MAREA":" ","LANE":" ","ALLEY":" ","HOUSE_NO":"３１５號","E_COORD97":166141.48000000001,"N_COORD97":2536272.3799999999,"ADDRESS":"灣裡路３１５號","OBJECTID":573645},"geometry":{"x":166141.48000000138,"y":2536272.379999999}},{"attributes":{"ID":573673,"DIS_CODE":0,"TOWNNAME":"南區","LI":"永寧里","LIN":"23鄰","STREET":"灣裡路","SECT":" ","MAREA":" ","LANE":" ","ALLEY":" ","HOUSE_NO":"３１７號","E_COORD97":166144.57999999999,"N_COORD97":2536267.5800000001,"ADDRESS":"灣裡路３１７號","OBJECTID":573646},"geometry":{"x":166144.57999999914,"y":2536267.5800000019}},{"attributes":{"ID":573674,"DIS_CODE":0,"TOWNNAME":"南區","LI":"永寧里","LIN":"23鄰","STREET":"灣裡路","SECT":" ","MAREA":" ","LANE":" ","ALLEY":" ","HOUSE_NO":"３１９號","E_COORD97":166145.48999999999,"N_COORD97":2536265.1099999999,"ADDRESS":"灣裡路３１９號","OBJECTID":573647},"geometry":{"x":166145.49000000209,"y":2536265.1099999994}},{"attributes":{"ID":573675,"DIS_CODE":0,"TOWNNAME":"南區","LI":"永寧里","LIN":"23鄰","STREET":"灣裡路","SECT":" ","MAREA":" ","LANE":" ","ALLEY":" ","HOUSE_NO":"３２１號","E_COORD97":166146.19,"N_COORD97":2536263.0099999998,"ADDRESS":"灣裡路３２１號","OBJECTID":573648},"geometry":{"x":166146.19000000134,"y":2536263.0099999998}},{"attributes":{"ID":573676,"DIS_CODE":0,"TOWNNAME":"鹽水區","LI":"橋南里","LIN":"23鄰","STREET":"八德路","SECT":" ","MAREA":" ","LANE":" ","ALLEY":" ","HOUSE_NO":"６６號","E_COORD97":175802.26000000001,"N_COORD97":2578293.9900000002,"ADDRESS":"八德路６６號","OBJECTID":573649},"geometry":{"x":175802.25999999885,"y":2578293.9900000002}},{"attributes":{"ID":573677,"DIS_CODE":0,"TOWNNAME":"鹽水區","LI":"橋南里","LIN":"23鄰","STREET":"自立街","SECT":" ","MAREA":" ","LANE":" ","ALLEY":" ","HOUSE_NO":"６號","E_COORD97":175776.04000000001,"N_COORD97":2578480.2999999998,"ADDRESS":"自立街６號","OBJECTID":573650},"geometry":{"x":175776.04000000097,"y":2578480.3000000026}},{"attributes":{"ID":573678,"DIS_CODE":0,"TOWNNAME":"安平區","LI":"文平里","LIN":"23鄰","STREET":"健康一街","SECT":" ","MAREA":" ","LANE":" ","ALLEY":" ","HOUSE_NO":"９０號","E_COORD97":165984.20999999999,"N_COORD97":2543082.3900000001,"ADDRESS":"健康一街９０號","OBJECTID":573651},"geometry":{"x":165984.20999999996,"y":2543082.3900000006}},{"attributes":{"ID":573679,"DIS_CODE":0,"TOWNNAME":"安平區","LI":"文平里","LIN":"23鄰","STREET":"健康一街","SECT":" ","MAREA":" ","LANE":" ","ALLEY":" ","HOUSE_NO":"９２號","E_COORD97":165988.87,"N_COORD97":2543089.04,"ADDRESS":"健康一街９２號","OBJECTID":573652},"geometry":{"x":165988.87000000104,"y":2543089.0399999991}},{"attributes":{"ID":573680,"DIS_CODE":0,"TOWNNAME":"安平區","LI":"文平里","LIN":"23鄰","STREET":"健康一街","SECT":" ","MAREA":" ","LANE":" ","ALLEY":" ","HOUSE_NO":"９６號","E_COORD97":165990.73999999999,"N_COORD97":2543097.8300000001,"ADDRESS":"健康一街９６號","OBJECTID":573653},"geometry":{"x":165990.74000000022,"y":2543097.8300000019}},{"attributes":{"ID":573681,"DIS_CODE":0,"TOWNNAME":"安平區","LI":"文平里","LIN":"23鄰","STREET":"健康一街","SECT":" ","MAREA":" ","LANE":" ","ALLEY":" ","HOUSE_NO":"９８號","E_COORD97":165991.13,"N_COORD97":2543101.9500000002,"ADDRESS":"健康一街９８號","OBJECTID":573654},"geometry":{"x":165991.12999999989,"y":2543101.9500000011}},{"attributes":{"ID":573682,"DIS_CODE":0,"TOWNNAME":"安平區","LI":"文平里","LIN":"23鄰","STREET":"健康一街","SECT":" ","MAREA":" ","LANE":" ","ALLEY":" ","HOUSE_NO":"１００號","E_COORD97":165991.13,"N_COORD97":2543106.48,"ADDRESS":"健康一街１００號","OBJECTID":573655},"geometry":{"x":165991.12999999989,"y":2543106.4800000023}},{"attributes":{"ID":573683,"DIS_CODE":0,"TOWNNAME":"安平區","LI":"文平里","LIN":"23鄰","STREET":"健康一街","SECT":" ","MAREA":" ","LANE":" ","ALLEY":" ","HOUSE_NO":"１０２號","E_COORD97":165991.39999999999,"N_COORD97":2543110.6000000001,"ADDRESS":"健康一街１０２號","OBJECTID":573656},"geometry":{"x":165991.40000000037,"y":2543110.5999999996}},{"attributes":{"ID":573684,"DIS_CODE":0,"TOWNNAME":"鹽水區","LI":"橋南里","LIN":"23鄰","STREET":"四維路","SECT":" ","MAREA":" ","LANE":" ","ALLEY":" ","HOUSE_NO":"３７號","E_COORD97":175732.14999999999,"N_COORD97":2578589.7799999998,"ADDRESS":"四維路３７號","OBJECTID":573657},"geometry":{"x":175732.15000000037,"y":2578589.7799999975}},{"attributes":{"ID":573685,"DIS_CODE":0,"TOWNNAME":"鹽水區","LI":"橋南里","LIN":"23鄰","STREET":"自強街","SECT":" ","MAREA":" ","LANE":" ","ALLEY":" ","HOUSE_NO":"４號","E_COORD97":175752.70999999999,"N_COORD97":2578539.02,"ADDRESS":"自強街４號","OBJECTID":573658},"geometry":{"x":175752.71000000089,"y":2578539.0200000014}},{"attributes":{"ID":573686,"DIS_CODE":0,"TOWNNAME":"南區","LI":"大忠里","LIN":"23鄰","STREET":"中華南路","SECT":"一段","MAREA":" ","LANE":" ","ALLEY":" ","HOUSE_NO":"１６１號","E_COORD97":169137.81,"N_COORD97":2541186.98,"ADDRESS":"中華南路一段１６１號","OBJECTID":573659},"geometry":{"x":169137.80999999959,"y":2541186.9800000042}},{"attributes":{"ID":573687,"DIS_CODE":0,"TOWNNAME":"南區","LI":"大忠里","LIN":"23鄰","STREET":"中華南路","SECT":"一段","MAREA":" ","LANE":" ","ALLEY":" ","HOUSE_NO":"１２７號","E_COORD97":169194.95999999999,"N_COORD97":2541237.7799999998,"ADDRESS":"中華南路一段１２７號","OBJECTID":573660},"geometry":{"x":169194.95999999903,"y":2541237.7799999993}},{"attributes":{"ID":573688,"DIS_CODE":0,"TOWNNAME":"南區","LI":"大忠里","LIN":"23鄰","STREET":"中華南路","SECT":"一段","MAREA":" ","LANE":" ","ALLEY":" ","HOUSE_NO":"１２９號","E_COORD97":169190.57999999999,"N_COORD97":2541236.3300000001,"ADDRESS":"中華南路一段１２９號","OBJECTID":573661},"geometry":{"x":169190.58000000007,"y":2541236.3300000019}},{"attributes":{"ID":573689,"DIS_CODE":0,"TOWNNAME":"南區","LI":"大忠里","LIN":"23鄰","STREET":"中華南路","SECT":"一段","MAREA":" ","LANE":" ","ALLEY":" ","HOUSE_NO":"１３１號","E_COORD97":169186.92999999999,"N_COORD97":2541234.1400000001,"ADDRESS":"中華南路一段１３１號","OBJECTID":573662},"geometry":{"x":169186.93000000063,"y":2541234.1400000025}},{"attributes":{"ID":573690,"DIS_CODE":0,"TOWNNAME":"南區","LI":"大忠里","LIN":"23鄰","STREET":"中華南路","SECT":"一段","MAREA":" ","LANE":" ","ALLEY":" ","HOUSE_NO":"１３３號","E_COORD97":169183.51999999999,"N_COORD97":2541231.7200000002,"ADDRESS":"中華南路一段１３３號","OBJECTID":573663},"geometry":{"x":169183.51999999955,"y":2541231.7200000007}},{"attributes":{"ID":573691,"DIS_CODE":0,"TOWNNAME":"南區","LI":"大忠里","LIN":"23鄰","STREET":"中華南路","SECT":"一段","MAREA":" ","LANE":" ","ALLEY":" ","HOUSE_NO":"１３５號","E_COORD97":169179.87,"N_COORD97":2541228.3199999998,"ADDRESS":"中華南路一段１３５號","OBJECTID":573664},"geometry":{"x":169179.87000000011,"y":2541228.3200000003}},{"attributes":{"ID":573692,"DIS_CODE":0,"TOWNNAME":"南區","LI":"大忠里","LIN":"23鄰","STREET":"中華南路","SECT":"一段","MAREA":" ","LANE":" ","ALLEY":" ","HOUSE_NO":"１３７號","E_COORD97":169176.23000000001,"N_COORD97":2541224.9300000002,"ADDRESS":"中華南路一段１３７號","OBJECTID":573665},"geometry":{"x":169176.23000000045,"y":2541224.9300000016}},{"attributes":{"ID":573693,"DIS_CODE":0,"TOWNNAME":"南區","LI":"大忠里","LIN":"23鄰","STREET":"中華南路","SECT":"一段","MAREA":" ","LANE":" ","ALLEY":" ","HOUSE_NO":"１４１號","E_COORD97":169169.17000000001,"N_COORD97":2541219.1099999999,"ADDRESS":"中華南路一段１４１號","OBJECTID":573666},"geometry":{"x":169169.16999999993,"y":2541219.1100000031}},{"attributes":{"ID":573694,"DIS_CODE":0,"TOWNNAME":"南區","LI":"大忠里","LIN":"23鄰","STREET":"中華南路","SECT":"一段","MAREA":" ","LANE":" ","ALLEY":" ","HOUSE_NO":"１４３號","E_COORD97":169166.01000000001,"N_COORD97":2541215.4700000002,"ADDRESS":"中華南路一段１４３號","OBJECTID":573667},"geometry":{"x":169166.01000000071,"y":2541215.4700000025}},{"attributes":{"ID":573695,"DIS_CODE":0,"TOWNNAME":"南區","LI":"大忠里","LIN":"23鄰","STREET":"中華南路","SECT":"一段","MAREA":" ","LANE":" ","ALLEY":" ","HOUSE_NO":"１４５號","E_COORD97":169162.12,"N_COORD97":2541212.0699999998,"ADDRESS":"中華南路一段１４５號","OBJECTID":573668},"geometry":{"x":169162.12000000104,"y":2541212.0700000003}},{"attributes":{"ID":573696,"DIS_CODE":0,"TOWNNAME":"南區","LI":"大忠里","LIN":"23鄰","STREET":"中華南路","SECT":"一段","MAREA":" ","LANE":" ","ALLEY":" ","HOUSE_NO":"１５１號","E_COORD97":169154.20000000001,"N_COORD97":2541202.2000000002,"ADDRESS":"中華南路一段１５１號","OBJECTID":573669},"geometry":{"x":169154.20000000019,"y":2541202.2000000011}},{"attributes":{"ID":573697,"DIS_CODE":0,"TOWNNAME":"南區","LI":"大忠里","LIN":"23鄰","STREET":"中華南路","SECT":"一段","MAREA":" ","LANE":" ","ALLEY":" ","HOUSE_NO":"１５３號","E_COORD97":169149.78,"N_COORD97":2541198.02,"ADDRESS":"中華南路一段１５３號","OBJECTID":573670},"geometry":{"x":169149.78000000119,"y":2541198.0199999996}},{"attributes":{"ID":573698,"DIS_CODE":0,"TOWNNAME":"南區","LI":"大忠里","LIN":"23鄰","STREET":"中華南路","SECT":"一段","MAREA":" ","LANE":" ","ALLEY":" ","HOUSE_NO":"１５５號","E_COORD97":169147.22,"N_COORD97":2541195.0099999998,"ADDRESS":"中華南路一段１５５號","OBJECTID":573671},"geometry":{"x":169147.2200000016,"y":2541195.0099999998}},{"attributes":{"ID":573699,"DIS_CODE":0,"TOWNNAME":"南區","LI":"大忠里","LIN":"23鄰","STREET":"中華南路","SECT":"一段","MAREA":" ","LANE":" ","ALLEY":" ","HOUSE_NO":"１５７號","E_COORD97":169144.89999999999,"N_COORD97":2541194.3100000001,"ADDRESS":"中華南路一段１５７號","OBJECTID":573672},"geometry":{"x":169144.89999999944,"y":2541194.3100000005}},{"attributes":{"ID":573700,"DIS_CODE":0,"TOWNNAME":"南區","LI":"大忠里","LIN":"23鄰","STREET":"中華南路","SECT":"一段","MAREA":" ","LANE":" ","ALLEY":" ","HOUSE_NO":"１５９號","E_COORD97":169141.26000000001,"N_COORD97":2541189.79,"ADDRESS":"中華南路一段１５９號","OBJECTID":573673},"geometry":{"x":169141.25999999978,"y":2541189.7899999991}},{"attributes":{"ID":573701,"DIS_CODE":0,"TOWNNAME":"南區","LI":"大忠里","LIN":"23鄰","STREET":"中華南路","SECT":"一段","MAREA":" ","LANE":" ","ALLEY":" ","HOUSE_NO":"１６３號","E_COORD97":169133.73999999999,"N_COORD97":2541184.1699999999,"ADDRESS":"中華南路一段１６３號","OBJECTID":573674},"geometry":{"x":169133.74000000022,"y":2541184.1699999999}},{"attributes":{"ID":573702,"DIS_CODE":0,"TOWNNAME":"南區","LI":"大忠里","LIN":"23鄰","STREET":"中華南路","SECT":"一段","MAREA":" ","LANE":" ","ALLEY":" ","HOUSE_NO":"１６５號","E_COORD97":169131.54999999999,"N_COORD97":2541181.3500000001,"ADDRESS":"中華南路一段１６５號","OBJECTID":573675},"geometry":{"x":169131.55000000168,"y":2541181.3500000015}},{"attributes":{"ID":573703,"DIS_CODE":0,"TOWNNAME":"南區","LI":"大忠里","LIN":"23鄰","STREET":"中華南路","SECT":"一段","MAREA":" ","LANE":" ","ALLEY":" ","HOUSE_NO":"１６７號","E_COORD97":169128.41,"N_COORD97":2541178.8599999999,"ADDRESS":"中華南路一段１６７號","OBJECTID":573676},"geometry":{"x":169128.41000000108,"y":2541178.8599999994}},{"attributes":{"ID":573704,"DIS_CODE":0,"TOWNNAME":"南區","LI":"大忠里","LIN":"23鄰","STREET":"中華南路","SECT":"一段","MAREA":" ","LANE":" ","ALLEY":" ","HOUSE_NO":"１６９號","E_COORD97":169124.97,"N_COORD97":2541176.3599999999,"ADDRESS":"中華南路一段１６９號","OBJECTID":573677},"geometry":{"x":169124.96999999974,"y":2541176.3599999994}},{"attributes":{"ID":573705,"DIS_CODE":0,"TOWNNAME":"南區","LI":"大忠里","LIN":"23鄰","STREET":"中華南路","SECT":"一段","MAREA":" ","LANE":" ","ALLEY":" ","HOUSE_NO":"１７１號","E_COORD97":169121.51999999999,"N_COORD97":2541173.8599999999,"ADDRESS":"中華南路一段１７１號","OBJECTID":573678},"geometry":{"x":169121.52000000048,"y":2541173.8600000013}},{"attributes":{"ID":573706,"DIS_CODE":0,"TOWNNAME":"南區","LI":"大忠里","LIN":"23鄰","STREET":"中華南路","SECT":"一段","MAREA":" ","LANE":" ","ALLEY":" ","HOUSE_NO":"１７３號","E_COORD97":169117.13,"N_COORD97":2541169.7999999998,"ADDRESS":"中華南路一段１７３號","OBJECTID":573679},"geometry":{"x":169117.12999999989,"y":2541169.8000000026}},{"attributes":{"ID":573707,"DIS_CODE":0,"TOWNNAME":"南區","LI":"大忠里","LIN":"23鄰","STREET":"中華南路","SECT":"一段","MAREA":" ","LANE":" ","ALLEY":" ","HOUSE_NO":"１７７號","E_COORD97":169106.64999999999,"N_COORD97":2541158.6600000001,"ADDRESS":"中華南路一段１７７號","OBJECTID":573680},"geometry":{"x":169106.6500000013,"y":2541158.6600000039}},{"attributes":{"ID":573708,"DIS_CODE":0,"TOWNNAME":"南區","LI":"大忠里","LIN":"23鄰","STREET":"中華南路","SECT":"一段","MAREA":" ","LANE":" ","ALLEY":" ","HOUSE_NO":"１７９號","E_COORD97":169102.67999999999,"N_COORD97":2541154.3999999999,"ADDRESS":"中華南路一段１７９號","OBJECTID":573681},"geometry":{"x":169102.6799999997,"y":2541154.4000000022}},{"attributes":{"ID":573709,"DIS_CODE":0,"TOWNNAME":"南區","LI":"大忠里","LIN":"23鄰","STREET":"中華南路","SECT":"一段","MAREA":" ","LANE":" ","ALLEY":" ","HOUSE_NO":"１８１號","E_COORD97":169099.63,"N_COORD97":2541151.6699999999,"ADDRESS":"中華南路一段１８１號","OBJECTID":573682},"geometry":{"x":169099.63000000082,"y":2541151.6700000018}},{"attributes":{"ID":573710,"DIS_CODE":0,"TOWNNAME":"南區","LI":"大忠里","LIN":"23鄰","STREET":"中華南路","SECT":"一段","MAREA":" ","LANE":" ","ALLEY":" ","HOUSE_NO":"１８３號","E_COORD97":169096.88,"N_COORD97":2541148.9300000002,"ADDRESS":"中華南路一段１８３號","OBJECTID":573683},"geometry":{"x":169096.87999999989,"y":2541148.9299999997}},{"attributes":{"ID":573711,"DIS_CODE":0,"TOWNNAME":"南區","LI":"大忠里","LIN":"23鄰","STREET":"中華南路","SECT":"一段","MAREA":" ","LANE":" ","ALLEY":" ","HOUSE_NO":"１８５號","E_COORD97":169093.53,"N_COORD97":2541146.1899999999,"ADDRESS":"中華南路一段１８５號","OBJECTID":573684},"geometry":{"x":169093.53000000119,"y":2541146.1899999995}},{"attributes":{"ID":573712,"DIS_CODE":0,"TOWNNAME":"南區","LI":"大忠里","LIN":"23鄰","STREET":"中華南路","SECT":"一段","MAREA":" ","LANE":" ","ALLEY":" ","HOUSE_NO":"１８７號","E_COORD97":169091.09,"N_COORD97":2541142.8399999999,"ADDRESS":"中華南路一段１８７號","OBJECTID":573685},"geometry":{"x":169091.09000000078,"y":2541142.8399999999}},{"attributes":{"ID":573713,"DIS_CODE":0,"TOWNNAME":"南區","LI":"大忠里","LIN":"23鄰","STREET":"中華南路","SECT":"一段","MAREA":" ","LANE":" ","ALLEY":" ","HOUSE_NO":"１８９號","E_COORD97":169087.73000000001,"N_COORD97":2541140.71,"ADDRESS":"中華南路一段１８９號","OBJECTID":573686},"geometry":{"x":169087.73000000138,"y":2541140.7100000009}},{"attributes":{"ID":573714,"DIS_CODE":0,"TOWNNAME":"南區","LI":"大忠里","LIN":"23鄰","STREET":"中華南路","SECT":"一段","MAREA":" ","LANE":" ","ALLEY":" ","HOUSE_NO":"１９１號","E_COORD97":169084.37,"N_COORD97":2541137.9700000002,"ADDRESS":"中華南路一段１９１號","OBJECTID":573687},"geometry":{"x":169084.37000000104,"y":2541137.9700000025}},{"attributes":{"ID":573715,"DIS_CODE":0,"TOWNNAME":"南區","LI":"大忠里","LIN":"23鄰","STREET":"中華南路","SECT":"一段","MAREA":" ","LANE":" ","ALLEY":" ","HOUSE_NO":"１９５號","E_COORD97":169076.44,"N_COORD97":2541130.6699999999,"ADDRESS":"中華南路一段１９５號","OBJECTID":573688},"geometry":{"x":169076.44000000041,"y":2541130.6699999999}},{"attributes":{"ID":573716,"DIS_CODE":0,"TOWNNAME":"南區","LI":"大忠里","LIN":"23鄰","STREET":"中華南路","SECT":"一段","MAREA":" ","LANE":" ","ALLEY":" ","HOUSE_NO":"１９７號","E_COORD97":169073.07999999999,"N_COORD97":2541128.54,"ADDRESS":"中華南路一段１９７號","OBJECTID":573689},"geometry":{"x":169073.08000000101,"y":2541128.540000001}},{"attributes":{"ID":573717,"DIS_CODE":0,"TOWNNAME":"南區","LI":"大忠里","LIN":"23鄰","STREET":"中華南路","SECT":"一段","MAREA":" ","LANE":" ","ALLEY":" ","HOUSE_NO":"１９９號","E_COORD97":169069.42000000001,"N_COORD97":2541125.2000000002,"ADDRESS":"中華南路一段１９９號","OBJECTID":573690},"geometry":{"x":169069.41999999993,"y":2541125.1999999993}},{"attributes":{"ID":573718,"DIS_CODE":0,"TOWNNAME":"南區","LI":"大忠里","LIN":"23鄰","STREET":"中華南路","SECT":"一段","MAREA":" ","LANE":" ","ALLEY":" ","HOUSE_NO":"２０３號","E_COORD97":169063.32000000001,"N_COORD97":2541117.29,"ADDRESS":"中華南路一段２０３號","OBJECTID":573691},"geometry":{"x":169063.3200000003,"y":2541117.290000001}},{"attributes":{"ID":573719,"DIS_CODE":0,"TOWNNAME":"南區","LI":"大忠里","LIN":"23鄰","STREET":"中華南路","SECT":"一段","MAREA":" ","LANE":" ","ALLEY":" ","HOUSE_NO":"２０５號","E_COORD97":169059.35000000001,"N_COORD97":2541113.9399999999,"ADDRESS":"中華南路一段２０５號","OBJECTID":573692},"geometry":{"x":169059.34999999963,"y":2541113.9399999995}},{"attributes":{"ID":573720,"DIS_CODE":0,"TOWNNAME":"南區","LI":"大忠里","LIN":"23鄰","STREET":"中華南路","SECT":"一段","MAREA":" ","LANE":" ","ALLEY":" ","HOUSE_NO":"２０７號","E_COORD97":169055.66,"N_COORD97":2541110.8100000001,"ADDRESS":"中華南路一段２０７號","OBJECTID":573693},"geometry":{"x":169055.66000000108,"y":2541110.8100000024}},{"attributes":{"ID":573721,"DIS_CODE":0,"TOWNNAME":"南區","LI":"大忠里","LIN":"23鄰","STREET":"中華南路","SECT":"一段","MAREA":" ","LANE":" ","ALLEY":" ","HOUSE_NO":"２０９號","E_COORD97":169051.98000000001,"N_COORD97":2541107.4199999999,"ADDRESS":"中華南路一段２０９號","OBJECTID":573694},"geometry":{"x":169051.98000000138,"y":2541107.4199999999}},{"attributes":{"ID":573722,"DIS_CODE":0,"TOWNNAME":"南區","LI":"大忠里","LIN":"23鄰","STREET":"中華南路","SECT":"一段","MAREA":" ","LANE":" ","ALLEY":" ","HOUSE_NO":"２１１號","E_COORD97":169048.01000000001,"N_COORD97":2541104.5899999999,"ADDRESS":"中華南路一段２１１號","OBJECTID":573695},"geometry":{"x":169048.00999999978,"y":2541104.5900000036}},{"attributes":{"ID":573723,"DIS_CODE":0,"TOWNNAME":"歸仁區","LI":"看西里","LIN":"23鄰","STREET":"成功三街","SECT":" ","MAREA":" ","LANE":" ","ALLEY":" ","HOUSE_NO":"１３６號","E_COORD97":178469.41,"N_COORD97":2539823.3599999999,"ADDRESS":"成功三街１３６號","OBJECTID":573696},"geometry":{"x":178469.41000000015,"y":2539823.3599999994}},{"attributes":{"ID":573724,"DIS_CODE":0,"TOWNNAME":"歸仁區","LI":"崙頂里","LIN":"23鄰","STREET":"崙頂二街","SECT":" ","MAREA":" ","LANE":" ","ALLEY":" ","HOUSE_NO":"５２號","E_COORD97":177761.79000000001,"N_COORD97":2539987.48,"ADDRESS":"崙頂二街５２號","OBJECTID":573697},"geometry":{"x":177761.79000000004,"y":2539987.4800000023}},{"attributes":{"ID":573725,"DIS_CODE":0,"TOWNNAME":"歸仁區","LI":"崙頂里","LIN":"23鄰","STREET":"崙頂二街","SECT":" ","MAREA":" ","LANE":" ","ALLEY":" ","HOUSE_NO":"１２０號","E_COORD97":177572.67999999999,"N_COORD97":2539934.25,"ADDRESS":"崙頂二街１２０號","OBJECTID":573698},"geometry":{"x":177572.68000000156,"y":2539934.2500000019}},{"attributes":{"ID":573726,"DIS_CODE":0,"TOWNNAME":"麻豆區","LI":"中興里","LIN":"8鄰","STREET":"三民路","SECT":" ","MAREA":" ","LANE":" ","ALLEY":" ","HOUSE_NO":"５３號之１０","E_COORD97":172837.67000000001,"N_COORD97":2564431.6099999999,"ADDRESS":"三民路５３號之１０","OBJECTID":573699},"geometry":{"x":172837.66999999993,"y":2564431.6099999994}},{"attributes":{"ID":573727,"DIS_CODE":0,"TOWNNAME":"麻豆區","LI":"中興里","LIN":"8鄰","STREET":"三民路","SECT":" ","MAREA":" ","LANE":" ","ALLEY":" ","HOUSE_NO":"５３號之１１","E_COORD97":172841.45000000001,"N_COORD97":2564432.29,"ADDRESS":"三民路５３號之１１","OBJECTID":573700},"geometry":{"x":172841.45000000019,"y":2564432.290000001}},{"attributes":{"ID":573728,"DIS_CODE":0,"TOWNNAME":"麻豆區","LI":"中興里","LIN":"8鄰","STREET":"三民路","SECT":" ","MAREA":" ","LANE":" ","ALLEY":" ","HOUSE_NO":"５３號之１２","E_COORD97":172845.73999999999,"N_COORD97":2564433.1299999999,"ADDRESS":"三民路５３號之１２","OBJECTID":573701},"geometry":{"x":172845.74000000022,"y":2564433.1300000008}},{"attributes":{"ID":573729,"DIS_CODE":0,"TOWNNAME":"麻豆區","LI":"中興里","LIN":"8鄰","STREET":"三民路","SECT":" ","MAREA":" ","LANE":" ","ALLEY":" ","HOUSE_NO":"５３號之１３","E_COORD97":172849.82999999999,"N_COORD97":2564433.9399999999,"ADDRESS":"三民路５３號之１３","OBJECTID":573702},"geometry":{"x":172849.83000000101,"y":2564433.9399999976}},{"attributes":{"ID":573730,"DIS_CODE":0,"TOWNNAME":"麻豆區","LI":"中興里","LIN":"8鄰","STREET":"三民路","SECT":" ","MAREA":" ","LANE":" ","ALLEY":" ","HOUSE_NO":"５３號之１４","E_COORD97":172853.54999999999,"N_COORD97":2564434.8700000001,"ADDRESS":"三民路５３號之１４","OBJECTID":573703},"geometry":{"x":172853.54999999981,"y":2564434.870000001}},{"attributes":{"ID":573731,"DIS_CODE":0,"TOWNNAME":"麻豆區","LI":"中興里","LIN":"8鄰","STREET":"三民路","SECT":" ","MAREA":" ","LANE":" ","ALLEY":" ","HOUSE_NO":"５３號之１５","E_COORD97":172857.48000000001,"N_COORD97":2564435.8799999999,"ADDRESS":"三民路５３號之１５","OBJECTID":573704},"geometry":{"x":172857.48000000138,"y":2564435.879999999}},{"attributes":{"ID":573732,"DIS_CODE":0,"TOWNNAME":"麻豆區","LI":"中興里","LIN":"8鄰","STREET":"三民路","SECT":" ","MAREA":" ","LANE":" ","ALLEY":" ","HOUSE_NO":"５３號之１６","E_COORD97":172861.17999999999,"N_COORD97":2564436.6000000001,"ADDRESS":"三民路５３號之１６","OBJECTID":573705},"geometry":{"x":172861.1799999997,"y":2564436.6000000034}},{"attributes":{"ID":573733,"DIS_CODE":0,"TOWNNAME":"麻豆區","LI":"中興里","LIN":"15鄰","STREET":"三民路","SECT":" ","MAREA":" ","LANE":" ","ALLEY":" ","HOUSE_NO":"５２號之１６","E_COORD97":172771.10999999999,"N_COORD97":2564495.4399999999,"ADDRESS":"三民路５２號之１６","OBJECTID":573706},"geometry":{"x":172771.11000000034,"y":2564495.4400000032}},{"attributes":{"ID":573734,"DIS_CODE":0,"TOWNNAME":"麻豆區","LI":"中興里","LIN":"15鄰","STREET":"三民路","SECT":" ","MAREA":" ","LANE":" ","ALLEY":" ","HOUSE_NO":"５２號之１７","E_COORD97":172782.04000000001,"N_COORD97":2564486.8399999999,"ADDRESS":"三民路５２號之１７","OBJECTID":573707},"geometry":{"x":172782.04000000097,"y":2564486.8400000017}},{"attributes":{"ID":573735,"DIS_CODE":0,"TOWNNAME":"麻豆區","LI":"中興里","LIN":"15鄰","STREET":"三民路","SECT":" ","MAREA":" ","LANE":" ","ALLEY":" ","HOUSE_NO":"５２號之３","E_COORD97":172781.882843,"N_COORD97":2564463.4344199998,"ADDRESS":"三民路５２號之３","OBJECTID":573708},"geometry":{"x":172781.88284300081,"y":2564463.4344230033}},{"attributes":{"ID":573736,"DIS_CODE":0,"TOWNNAME":"麻豆區","LI":"中興里","LIN":"15鄰","STREET":"三民路","SECT":" ","MAREA":" ","LANE":" ","ALLEY":" ","HOUSE_NO":"５２號之４","E_COORD97":172781.45909799999,"N_COORD97":2564458.4602600001,"ADDRESS":"三民路５２號之４","OBJECTID":573709},"geometry":{"x":172781.45909800008,"y":2564458.4602589998}},{"attributes":{"ID":573737,"DIS_CODE":0,"TOWNNAME":"麻豆區","LI":"中興里","LIN":"15鄰","STREET":"三民路","SECT":" ","MAREA":" ","LANE":" ","ALLEY":" ","HOUSE_NO":"５２號之５","E_COORD97":172782.306587,"N_COORD97":2564452.85109,"ADDRESS":"三民路５２號之５","OBJECTID":573710},"geometry":{"x":172782.30658700038,"y":2564452.8510950021}},{"attributes":{"ID":573738,"DIS_CODE":0,"TOWNNAME":"麻豆區","LI":"中興里","LIN":"15鄰","STREET":"三民路","SECT":" ","MAREA":" ","LANE":" ","ALLEY":" ","HOUSE_NO":"５２號之６","E_COORD97":172782.54000000001,"N_COORD97":2564472.8100000001,"ADDRESS":"三民路５２號之６","OBJECTID":573711},"geometry":{"x":172782.54000000004,"y":2564472.8100000005}},{"attributes":{"ID":573739,"DIS_CODE":0,"TOWNNAME":"麻豆區","LI":"中興里","LIN":"15鄰","STREET":"三民路","SECT":" ","MAREA":" ","LANE":" ","ALLEY":" ","HOUSE_NO":"５２號","E_COORD97":172782.10000000001,"N_COORD97":2564492.8500000001,"ADDRESS":"三民路５２號","OBJECTID":573712},"geometry":{"x":172782.09999999963,"y":2564492.8500000034}},{"attributes":{"ID":573740,"DIS_CODE":0,"TOWNNAME":"歸仁區","LI":"看西里","LIN":"23鄰","STREET":"成功三街","SECT":" ","MAREA":" ","LANE":" ","ALLEY":" ","HOUSE_NO":"１５１號","E_COORD97":178550.51000000001,"N_COORD97":2539837.3599999999,"ADDRESS":"成功三街１５１號","OBJECTID":573713},"geometry":{"x":178550.51000000071,"y":2539837.3600000031}},{"attributes":{"ID":573741,"DIS_CODE":0,"TOWNNAME":"歸仁區","LI":"看西里","LIN":"23鄰","STREET":"成功三街","SECT":" ","MAREA":" ","LANE":" ","ALLEY":" ","HOUSE_NO":"２５５號","E_COORD97":178523.38,"N_COORD97":2539721.25,"ADDRESS":"成功三街２５５號","OBJECTID":573714},"geometry":{"x":178523.37999999989,"y":2539721.2500000019}},{"attributes":{"ID":573742,"DIS_CODE":0,"TOWNNAME":"歸仁區","LI":"看西里","LIN":"23鄰","STREET":"成功三街","SECT":" ","MAREA":" ","LANE":" ","ALLEY":" ","HOUSE_NO":"１０５號","E_COORD97":178533.20999999999,"N_COORD97":2539868.3599999999,"ADDRESS":"成功三街１０５號","OBJECTID":573715},"geometry":{"x":178533.20999999996,"y":2539868.3600000013}},{"attributes":{"ID":573743,"DIS_CODE":0,"TOWNNAME":"歸仁區","LI":"辜厝里","LIN":"23鄰","STREET":"大順街","SECT":" ","MAREA":" ","LANE":" ","ALLEY":" ","HOUSE_NO":"４１號","E_COORD97":177412.28,"N_COORD97":2540584.1400000001,"ADDRESS":"大順街４１號","OBJECTID":573716},"geometry":{"x":177412.28000000119,"y":2540584.1400000025}},{"attributes":{"ID":573744,"DIS_CODE":0,"TOWNNAME":"歸仁區","LI":"後市里","LIN":"23鄰","STREET":"大通路","SECT":" ","MAREA":" ","LANE":" ","ALLEY":" ","HOUSE_NO":"１１８號","E_COORD97":177546.70000000001,"N_COORD97":2540915.25,"ADDRESS":"大通路１１８號","OBJECTID":573717},"geometry":{"x":177546.70000000112,"y":2540915.2500000019}},{"attributes":{"ID":573745,"DIS_CODE":0,"TOWNNAME":"歸仁區","LI":"看西里","LIN":"23鄰","STREET":"成功五街","SECT":" ","MAREA":" ","LANE":" ","ALLEY":" ","HOUSE_NO":"１１６號","E_COORD97":178464.60999999999,"N_COORD97":2539882.3599999999,"ADDRESS":"成功五街１１６號","OBJECTID":573718},"geometry":{"x":178464.61000000034,"y":2539882.3600000013}},{"attributes":{"ID":573746,"DIS_CODE":0,"TOWNNAME":"歸仁區","LI":"後市里","LIN":"23鄰","STREET":"大通路","SECT":" ","MAREA":" ","LANE":" ","ALLEY":" ","HOUSE_NO":"１３２號","E_COORD97":177520,"N_COORD97":2540920.25,"ADDRESS":"大通路１３２號","OBJECTID":573719},"geometry":{"x":177520.00000000186,"y":2540920.2500000037}},{"attributes":{"ID":573747,"DIS_CODE":0,"TOWNNAME":"歸仁區","LI":"南興里","LIN":"23鄰","STREET":"文化街","SECT":"三段","MAREA":" ","LANE":" ","ALLEY":" ","HOUSE_NO":"６８２號","E_COORD97":175484.12,"N_COORD97":2541202.2599999998,"ADDRESS":"文化街三段６８２號","OBJECTID":573720},"geometry":{"x":175484.12000000104,"y":2541202.2600000016}},{"attributes":{"ID":573748,"DIS_CODE":0,"TOWNNAME":"麻豆區","LI":"中興里","LIN":"17鄰","STREET":"三民路","SECT":" ","MAREA":" ","LANE":" ","ALLEY":" ","HOUSE_NO":"６２號之２","E_COORD97":172710.88,"N_COORD97":2564426.8900000001,"ADDRESS":"三民路６２號之２","OBJECTID":573721},"geometry":{"x":172710.87999999989,"y":2564426.8900000025}},{"attributes":{"ID":573749,"DIS_CODE":0,"TOWNNAME":"麻豆區","LI":"中興里","LIN":"8鄰","STREET":"三民路","SECT":" ","MAREA":" ","LANE":" ","ALLEY":" ","HOUSE_NO":"５７號之４","E_COORD97":172842.97,"N_COORD97":2564376.7799999998,"ADDRESS":"三民路５７號之４","OBJECTID":573722},"geometry":{"x":172842.97000000067,"y":2564376.7799999993}},{"attributes":{"ID":573750,"DIS_CODE":0,"TOWNNAME":"麻豆區","LI":"中興里","LIN":"8鄰","STREET":"三民路","SECT":" ","MAREA":" ","LANE":" ","ALLEY":" ","HOUSE_NO":"５７號之５","E_COORD97":172841.17999999999,"N_COORD97":2564385.54,"ADDRESS":"三民路５７號之５","OBJECTID":573723},"geometry":{"x":172841.1799999997,"y":2564385.5400000028}},{"attributes":{"ID":573751,"DIS_CODE":0,"TOWNNAME":"麻豆區","LI":"中興里","LIN":"8鄰","STREET":"三民路","SECT":" ","MAREA":" ","LANE":" ","ALLEY":" ","HOUSE_NO":"５７號之６","E_COORD97":172833.66,"N_COORD97":2564382.1699999999,"ADDRESS":"三民路５７號之６","OBJECTID":573724},"geometry":{"x":172833.66000000108,"y":2564382.1700000037}},{"attributes":{"ID":573752,"DIS_CODE":0,"TOWNNAME":"麻豆區","LI":"中興里","LIN":"8鄰","STREET":"三民路","SECT":" ","MAREA":" ","LANE":" ","ALLEY":" ","HOUSE_NO":"５７號","E_COORD97":172812.63,"N_COORD97":2564366.4700000002,"ADDRESS":"三民路５７號","OBJECTID":573725},"geometry":{"x":172812.62999999989,"y":2564366.4700000007}},{"attributes":{"ID":573753,"DIS_CODE":0,"TOWNNAME":"麻豆區","LI":"中興里","LIN":"8鄰","STREET":"三民路","SECT":" ","MAREA":" ","LANE":" ","ALLEY":" ","HOUSE_NO":"５９號","E_COORD97":172825.14999999999,"N_COORD97":2564367.02,"ADDRESS":"三民路５９號","OBJECTID":573726},"geometry":{"x":172825.15000000037,"y":2564367.0200000014}},{"attributes":{"ID":573754,"DIS_CODE":0,"TOWNNAME":"麻豆區","LI":"中興里","LIN":"8鄰","STREET":"三民路","SECT":" ","MAREA":" ","LANE":" ","ALLEY":" ","HOUSE_NO":"６１號","E_COORD97":172812.85999999999,"N_COORD97":2564353.6000000001,"ADDRESS":"三民路６１號","OBJECTID":573727},"geometry":{"x":172812.86000000034,"y":2564353.5999999996}},{"attributes":{"ID":573755,"DIS_CODE":0,"TOWNNAME":"麻豆區","LI":"中興里","LIN":"15鄰","STREET":"三民路","SECT":" ","MAREA":" ","LANE":" ","ALLEY":" ","HOUSE_NO":"５８號","E_COORD97":172687.03,"N_COORD97":2564467.6400000001,"ADDRESS":"三民路５８號","OBJECTID":573728},"geometry":{"x":172687.03000000212,"y":2564467.6399999987}},{"attributes":{"ID":573756,"DIS_CODE":0,"TOWNNAME":"新營區","LI":"民權里","LIN":"23鄰","STREET":"民治路","SECT":" ","MAREA":" ","LANE":" ","ALLEY":" ","HOUSE_NO":"４９號之５","E_COORD97":179716.98000000001,"N_COORD97":2578819.9700000002,"ADDRESS":"民治路４９號之５","OBJECTID":573729},"geometry":{"x":179716.98000000045,"y":2578819.9700000007}},{"attributes":{"ID":573757,"DIS_CODE":0,"TOWNNAME":"北區","LI":"大豐里","LIN":"23鄰","STREET":"中華北路","SECT":"一段","MAREA":" ","LANE":" ","ALLEY":" ","HOUSE_NO":"８號","E_COORD97":166590.87,"N_COORD97":2545312.52,"ADDRESS":"中華北路一段８號","OBJECTID":573730},"geometry":{"x":166590.87000000104,"y":2545312.5200000014}},{"attributes":{"ID":573758,"DIS_CODE":0,"TOWNNAME":"北區","LI":"成德里","LIN":"23鄰","STREET":"育德二路","SECT":" ","MAREA":" ","LANE":" ","ALLEY":" ","HOUSE_NO":"８０８號","E_COORD97":168146.04999999999,"N_COORD97":2546750.3799999999,"ADDRESS":"育德二路８０８號","OBJECTID":573731},"geometry":{"x":168146.04999999981,"y":2546750.3800000008}},{"attributes":{"ID":573759,"DIS_CODE":0,"TOWNNAME":"北區","LI":"成德里","LIN":"23鄰","STREET":"育德二路","SECT":" ","MAREA":" ","LANE":" ","ALLEY":" ","HOUSE_NO":"８０６號","E_COORD97":168147.76999999999,"N_COORD97":2546744.0099999998,"ADDRESS":"育德二路８０６號","OBJECTID":573732},"geometry":{"x":168147.76999999955,"y":2546744.0100000016}},{"attributes":{"ID":573760,"DIS_CODE":0,"TOWNNAME":"北區","LI":"成德里","LIN":"23鄰","STREET":"育德二路","SECT":" ","MAREA":" ","LANE":" ","ALLEY":" ","HOUSE_NO":"８０２號","E_COORD97":168149.84,"N_COORD97":2546739.1899999999,"ADDRESS":"育德二路８０２號","OBJECTID":573733},"geometry":{"x":168149.84000000171,"y":2546739.1900000013}},{"attributes":{"ID":573761,"DIS_CODE":0,"TOWNNAME":"北區","LI":"成德里","LIN":"23鄰","STREET":"育德二路","SECT":" ","MAREA":" ","LANE":" ","ALLEY":" ","HOUSE_NO":"８００號","E_COORD97":168150.87,"N_COORD97":2546733.5099999998,"ADDRESS":"育德二路８００號","OBJECTID":573734},"geometry":{"x":168150.87000000011,"y":2546733.5100000016}},{"attributes":{"ID":573762,"DIS_CODE":0,"TOWNNAME":"北區","LI":"成德里","LIN":"23鄰","STREET":"育德二路","SECT":" ","MAREA":" ","LANE":" ","ALLEY":" ","HOUSE_NO":"７９８號","E_COORD97":168152.42999999999,"N_COORD97":2546728,"ADDRESS":"育德二路７９８號","OBJECTID":573735},"geometry":{"x":168152.43000000156,"y":2546728.0000000019}},{"attributes":{"ID":573763,"DIS_CODE":0,"TOWNNAME":"北區","LI":"成德里","LIN":"23鄰","STREET":"育德二路","SECT":" ","MAREA":" ","LANE":" ","ALLEY":" ","HOUSE_NO":"７９６號","E_COORD97":168154.32000000001,"N_COORD97":2546723.1699999999,"ADDRESS":"育德二路７９６號","OBJECTID":573736},"geometry":{"x":168154.32000000123,"y":2546723.1700000018}},{"attributes":{"ID":573764,"DIS_CODE":0,"TOWNNAME":"北區","LI":"成德里","LIN":"23鄰","STREET":"育德二路","SECT":" ","MAREA":" ","LANE":" ","ALLEY":" ","HOUSE_NO":"７９２號","E_COORD97":168156.04999999999,"N_COORD97":2546717.6600000001,"ADDRESS":"育德二路７９２號","OBJECTID":573737},"geometry":{"x":168156.04999999981,"y":2546717.6600000001}},{"attributes":{"ID":573765,"DIS_CODE":0,"TOWNNAME":"北區","LI":"成德里","LIN":"23鄰","STREET":"育德二路","SECT":" ","MAREA":" ","LANE":" ","ALLEY":" ","HOUSE_NO":"７９０號","E_COORD97":168157.07999999999,"N_COORD97":2546712.3199999998,"ADDRESS":"育德二路７９０號","OBJECTID":573738},"geometry":{"x":168157.08000000101,"y":2546712.3200000022}},{"attributes":{"ID":573766,"DIS_CODE":0,"TOWNNAME":"北區","LI":"成德里","LIN":"23鄰","STREET":"育德二路","SECT":" ","MAREA":" ","LANE":" ","ALLEY":" ","HOUSE_NO":"７８８號","E_COORD97":168158.63,"N_COORD97":2546707.1600000001,"ADDRESS":"育德二路７８８號","OBJECTID":573739},"geometry":{"x":168158.63000000082,"y":2546707.1600000001}},{"attributes":{"ID":573767,"DIS_CODE":0,"TOWNNAME":"北區","LI":"成德里","LIN":"23鄰","STREET":"育德二路","SECT":" ","MAREA":" ","LANE":" ","ALLEY":" ","HOUSE_NO":"７８６號","E_COORD97":168160.17999999999,"N_COORD97":2546701.6499999999,"ADDRESS":"育德二路７８６號","OBJECTID":573740},"geometry":{"x":168160.1799999997,"y":2546701.6500000004}},{"attributes":{"ID":573768,"DIS_CODE":0,"TOWNNAME":"北區","LI":"文元里","LIN":"23鄰","STREET":"文成三路","SECT":" ","MAREA":" ","LANE":" ","ALLEY":" ","HOUSE_NO":"６７６號","E_COORD97":167961.56,"N_COORD97":2546285.73,"ADDRESS":"文成三路６７６號","OBJECTID":573741},"geometry":{"x":167961.56000000145,"y":2546285.7300000023}},{"attributes":{"ID":573769,"DIS_CODE":0,"TOWNNAME":"北區","LI":"大豐里","LIN":"23鄰","STREET":"中華北路","SECT":"一段","MAREA":" ","LANE":" ","ALLEY":" ","HOUSE_NO":"７６號","E_COORD97":166551.12,"N_COORD97":2545461.8399999999,"ADDRESS":"中華北路一段７６號","OBJECTID":573742},"geometry":{"x":166551.12000000011,"y":2545461.8399999999}},{"attributes":{"ID":573770,"DIS_CODE":0,"TOWNNAME":"北區","LI":"大豐里","LIN":"23鄰","STREET":"中華北路","SECT":"一段","MAREA":" ","LANE":" ","ALLEY":" ","HOUSE_NO":"５８號","E_COORD97":166562.60999999999,"N_COORD97":2545413.7999999998,"ADDRESS":"中華北路一段５８號","OBJECTID":573743},"geometry":{"x":166562.61000000127,"y":2545413.8000000026}},{"attributes":{"ID":573771,"DIS_CODE":0,"TOWNNAME":"北區","LI":"大豐里","LIN":"23鄰","STREET":"中華北路","SECT":"一段","MAREA":" ","LANE":" ","ALLEY":" ","HOUSE_NO":"５６號","E_COORD97":166563.56,"N_COORD97":2545409.6699999999,"ADDRESS":"中華北路一段５６號","OBJECTID":573744},"geometry":{"x":166563.56000000052,"y":2545409.6700000037}},{"attributes":{"ID":573772,"DIS_CODE":0,"TOWNNAME":"北區","LI":"大豐里","LIN":"23鄰","STREET":"中華北路","SECT":"一段","MAREA":" ","LANE":" ","ALLEY":" ","HOUSE_NO":"２８號","E_COORD97":166577.85000000001,"N_COORD97":2545360.1400000001,"ADDRESS":"中華北路一段２８號","OBJECTID":573745},"geometry":{"x":166577.84999999963,"y":2545360.1400000025}},{"attributes":{"ID":573773,"DIS_CODE":0,"TOWNNAME":"北區","LI":"大豐里","LIN":"23鄰","STREET":"中華北路","SECT":"一段","MAREA":" ","LANE":" ","ALLEY":" ","HOUSE_NO":"７２號","E_COORD97":166551.23999999999,"N_COORD97":2545457.3300000001,"ADDRESS":"中華北路一段７２號","OBJECTID":573746},"geometry":{"x":166551.24000000115,"y":2545457.3300000019}},{"attributes":{"ID":573774,"DIS_CODE":0,"TOWNNAME":"新營區","LI":"三仙里","LIN":"23鄰","STREET":"民治路","SECT":" ","MAREA":" ","LANE":" ","ALLEY":" ","HOUSE_NO":"７６號之６","E_COORD97":179571.73000000001,"N_COORD97":2578839.4900000002,"ADDRESS":"民治路７６號之６","OBJECTID":573747},"geometry":{"x":179571.73000000231,"y":2578839.4900000002}},{"attributes":{"ID":573775,"DIS_CODE":0,"TOWNNAME":"新營區","LI":"民榮里","LIN":"23鄰","STREET":"裕民路","SECT":" ","MAREA":" ","LANE":" ","ALLEY":" ","HOUSE_NO":"２２號","E_COORD97":179132.39000000001,"N_COORD97":2577902.4100000001,"ADDRESS":"裕民路２２號","OBJECTID":573748},"geometry":{"x":179132.39000000153,"y":2577902.410000002}},{"attributes":{"ID":573776,"DIS_CODE":0,"TOWNNAME":"新營區","LI":"王公里","LIN":"23鄰","STREET":"樂仁街","SECT":" ","MAREA":" ","LANE":" ","ALLEY":" ","HOUSE_NO":"３２之１號","E_COORD97":180535.95999999999,"N_COORD97":2579142.8100000001,"ADDRESS":"樂仁街３２之１號","OBJECTID":573749},"geometry":{"x":180535.96000000183,"y":2579142.8100000005}},{"attributes":{"ID":573777,"DIS_CODE":0,"TOWNNAME":"新營區","LI":"大宏里","LIN":"23鄰","STREET":"民治路","SECT":" ","MAREA":" ","LANE":" ","ALLEY":" ","HOUSE_NO":"１號","E_COORD97":180643.42000000001,"N_COORD97":2578884.2000000002,"ADDRESS":"民治路１號","OBJECTID":573750},"geometry":{"x":180643.42000000086,"y":2578884.1999999993}},{"attributes":{"ID":573778,"DIS_CODE":0,"TOWNNAME":"新營區","LI":"大宏里","LIN":"23鄰","STREET":"民治路","SECT":" ","MAREA":" ","LANE":" ","ALLEY":" ","HOUSE_NO":"１之３１號","E_COORD97":180607.89000000001,"N_COORD97":2578795.8300000001,"ADDRESS":"民治路１之３１號","OBJECTID":573751},"geometry":{"x":180607.8900000006,"y":2578795.8300000001}},{"attributes":{"ID":573779,"DIS_CODE":0,"TOWNNAME":"新營區","LI":"大宏里","LIN":"23鄰","STREET":"民治路","SECT":" ","MAREA":" ","LANE":" ","ALLEY":" ","HOUSE_NO":"１之３６號","E_COORD97":180609.84,"N_COORD97":2578775.8900000001,"ADDRESS":"民治路１之３６號","OBJECTID":573752},"geometry":{"x":180609.84000000078,"y":2578775.8900000006}},{"attributes":{"ID":573780,"DIS_CODE":0,"TOWNNAME":"新營區","LI":"大宏里","LIN":"23鄰","STREET":"民治路","SECT":" ","MAREA":" ","LANE":" ","ALLEY":" ","HOUSE_NO":"１號之１１","E_COORD97":180633.34,"N_COORD97":2578846.6600000001,"ADDRESS":"民治路１號之１１","OBJECTID":573753},"geometry":{"x":180633.34000000078,"y":2578846.660000002}},{"attributes":{"ID":573781,"DIS_CODE":0,"TOWNNAME":"新營區","LI":"大宏里","LIN":"23鄰","STREET":"民治路","SECT":" ","MAREA":" ","LANE":" ","ALLEY":" ","HOUSE_NO":"１之３號","E_COORD97":180613.17999999999,"N_COORD97":2578881.0800000001,"ADDRESS":"民治路１之３號","OBJECTID":573754},"geometry":{"x":180613.1799999997,"y":2578881.0800000019}},{"attributes":{"ID":573782,"DIS_CODE":0,"TOWNNAME":"新營區","LI":"民生里","LIN":"23鄰","STREET":"民生路","SECT":" ","MAREA":" ","LANE":" ","ALLEY":" ","HOUSE_NO":"８９之６號","E_COORD97":179132.34,"N_COORD97":2578438.4700000002,"ADDRESS":"民生路８９之６號","OBJECTID":573755},"geometry":{"x":179132.33999999985,"y":2578438.4700000025}},{"attributes":{"ID":573783,"DIS_CODE":0,"TOWNNAME":"新營區","LI":"大宏里","LIN":"23鄰","STREET":"民治路","SECT":" ","MAREA":" ","LANE":" ","ALLEY":" ","HOUSE_NO":"１號之１４","E_COORD97":180612.85999999999,"N_COORD97":2578837.8999999999,"ADDRESS":"民治路１號之１４","OBJECTID":573756},"geometry":{"x":180612.86000000034,"y":2578837.9000000041}},{"attributes":{"ID":573784,"DIS_CODE":0,"TOWNNAME":"新營區","LI":"三仙里","LIN":"23鄰","STREET":"民治路","SECT":" ","MAREA":" ","LANE":" ","ALLEY":" ","HOUSE_NO":"７６－１號","E_COORD97":179592.48999999999,"N_COORD97":2578848.1899999999,"ADDRESS":"民治路７６－１號","OBJECTID":573757},"geometry":{"x":179592.49000000115,"y":2578848.1899999976}},{"attributes":{"ID":573785,"DIS_CODE":0,"TOWNNAME":"楠西區","LI":"楠西里","LIN":"23鄰","STREET":"茄拔路","SECT":" ","MAREA":" ","LANE":" ","ALLEY":" ","HOUSE_NO":"６９號","E_COORD97":197130.19,"N_COORD97":2563855.2799999998,"ADDRESS":"茄拔路６９號","OBJECTID":573758},"geometry":{"x":197130.19000000041,"y":2563855.2800000031}},{"attributes":{"ID":573786,"DIS_CODE":0,"TOWNNAME":"楠西區","LI":"楠西里","LIN":"23鄰","STREET":"茄拔路","SECT":" ","MAREA":" ","LANE":" ","ALLEY":" ","HOUSE_NO":"１０７號","E_COORD97":197186.94,"N_COORD97":2563801.2799999998,"ADDRESS":"茄拔路１０７號","OBJECTID":573759},"geometry":{"x":197186.94000000134,"y":2563801.2800000031}},{"attributes":{"ID":573787,"DIS_CODE":0,"TOWNNAME":"楠西區","LI":"楠西里","LIN":"23鄰","STREET":"茄拔路","SECT":" ","MAREA":" ","LANE":" ","ALLEY":" ","HOUSE_NO":"６７號","E_COORD97":197122.69,"N_COORD97":2563856.2799999998,"ADDRESS":"茄拔路６７號","OBJECTID":573760},"geometry":{"x":197122.69000000134,"y":2563856.2800000012}},{"attributes":{"ID":573788,"DIS_CODE":0,"TOWNNAME":"楠西區","LI":"楠西里","LIN":"23鄰","STREET":"茄拔路","SECT":" ","MAREA":" ","LANE":" ","ALLEY":" ","HOUSE_NO":"５９號","E_COORD97":197135.39000000001,"N_COORD97":2563844.2799999998,"ADDRESS":"茄拔路５９號","OBJECTID":573761},"geometry":{"x":197135.39000000153,"y":2563844.2799999993}},{"attributes":{"ID":573789,"DIS_CODE":0,"TOWNNAME":"楠西區","LI":"楠西里","LIN":"23鄰","STREET":"茄拔路","SECT":" ","MAREA":" ","LANE":" ","ALLEY":" ","HOUSE_NO":"７７號","E_COORD97":197149.39000000001,"N_COORD97":2563853.2799999998,"ADDRESS":"茄拔路７７號","OBJECTID":573762},"geometry":{"x":197149.3900000006,"y":2563853.2800000012}},{"attributes":{"ID":573790,"DIS_CODE":0,"TOWNNAME":"楠西區","LI":"楠西里","LIN":"23鄰","STREET":"茄拔路","SECT":" ","MAREA":" ","LANE":" ","ALLEY":" ","HOUSE_NO":"８５號","E_COORD97":197153.98999999999,"N_COORD97":2563838.2799999998,"ADDRESS":"茄拔路８５號","OBJECTID":573763},"geometry":{"x":197153.99000000209,"y":2563838.2800000031}},{"attributes":{"ID":573791,"DIS_CODE":0,"TOWNNAME":"楠西區","LI":"楠西里","LIN":"23鄰","STREET":"茄拔路","SECT":" ","MAREA":" ","LANE":" ","ALLEY":" ","HOUSE_NO":"９５號","E_COORD97":197161.59,"N_COORD97":2563802.2799999998,"ADDRESS":"茄拔路９５號","OBJECTID":573764},"geometry":{"x":197161.59000000078,"y":2563802.2800000012}},{"attributes":{"ID":573792,"DIS_CODE":0,"TOWNNAME":"楠西區","LI":"楠西里","LIN":"23鄰","STREET":"茄拔路","SECT":" ","MAREA":" ","LANE":" ","ALLEY":" ","HOUSE_NO":"３７號","E_COORD97":197130.09,"N_COORD97":2563803.2799999998,"ADDRESS":"茄拔路３７號","OBJECTID":573765},"geometry":{"x":197130.08999999985,"y":2563803.2799999993}},{"attributes":{"ID":573793,"DIS_CODE":0,"TOWNNAME":"學甲區","LI":"明宜里","LIN":"23鄰","STREET":"三民路","SECT":" ","MAREA":" ","LANE":" ","ALLEY":" ","HOUSE_NO":"１１號之１","E_COORD97":165804.5,"N_COORD97":2570660,"ADDRESS":"三民路１１號之１","OBJECTID":573766},"geometry":{"x":165804.50000000186,"y":2570660.0000000019}},{"attributes":{"ID":573794,"DIS_CODE":0,"TOWNNAME":"學甲區","LI":"明宜里","LIN":"23鄰","STREET":"三民路","SECT":" ","MAREA":" ","LANE":" ","ALLEY":" ","HOUSE_NO":"１２號","E_COORD97":165834.75,"N_COORD97":2570647.2799999998,"ADDRESS":"三民路１２號","OBJECTID":573767},"geometry":{"x":165834.75,"y":2570647.2800000012}},{"attributes":{"ID":573795,"DIS_CODE":0,"TOWNNAME":"學甲區","LI":"明宜里","LIN":"23鄰","STREET":"三民路","SECT":" ","MAREA":" ","LANE":" ","ALLEY":" ","HOUSE_NO":"１３號之１","E_COORD97":165807.04000000001,"N_COORD97":2570670.1899999999,"ADDRESS":"三民路１３號之１","OBJECTID":573768},"geometry":{"x":165807.04000000004,"y":2570670.1899999995}},{"attributes":{"ID":573796,"DIS_CODE":0,"TOWNNAME":"學甲區","LI":"明宜里","LIN":"23鄰","STREET":"三民路","SECT":" ","MAREA":" ","LANE":" ","ALLEY":" ","HOUSE_NO":"１３號之２","E_COORD97":165807.89000000001,"N_COORD97":2570675.3300000001,"ADDRESS":"三民路１３號之２","OBJECTID":573769},"geometry":{"x":165807.88999999966,"y":2570675.3300000019}},{"attributes":{"ID":573797,"DIS_CODE":0,"TOWNNAME":"學甲區","LI":"明宜里","LIN":"23鄰","STREET":"三民路","SECT":" ","MAREA":" ","LANE":" ","ALLEY":" ","HOUSE_NO":"１３號","E_COORD97":165806,"N_COORD97":2570665.3100000001,"ADDRESS":"三民路１３號","OBJECTID":573770},"geometry":{"x":165805.99999999907,"y":2570665.3100000024}},{"attributes":{"ID":573798,"DIS_CODE":0,"TOWNNAME":"學甲區","LI":"明宜里","LIN":"23鄰","STREET":"三民路","SECT":" ","MAREA":" ","LANE":" ","ALLEY":" ","HOUSE_NO":"１４號","E_COORD97":165842.26000000001,"N_COORD97":2570660.3500000001,"ADDRESS":"三民路１４號","OBJECTID":573771},"geometry":{"x":165842.26000000071,"y":2570660.3500000015}},{"attributes":{"ID":573799,"DIS_CODE":0,"TOWNNAME":"學甲區","LI":"明宜里","LIN":"23鄰","STREET":"三民路","SECT":" ","MAREA":" ","LANE":" ","ALLEY":" ","HOUSE_NO":"１６號","E_COORD97":165843.10999999999,"N_COORD97":2570664.7200000002,"ADDRESS":"三民路１６號","OBJECTID":573772},"geometry":{"x":165843.1100000022,"y":2570664.7200000007}},{"attributes":{"ID":573800,"DIS_CODE":0,"TOWNNAME":"學甲區","LI":"明宜里","LIN":"23鄰","STREET":"三民路","SECT":" ","MAREA":" ","LANE":" ","ALLEY":" ","HOUSE_NO":"１８號","E_COORD97":165844.07000000001,"N_COORD97":2570669.77,"ADDRESS":"三民路１８號","OBJECTID":573773},"geometry":{"x":165844.07000000123,"y":2570669.7699999996}},{"attributes":{"ID":573801,"DIS_CODE":0,"TOWNNAME":"學甲區","LI":"明宜里","LIN":"23鄰","STREET":"三民路","SECT":" ","MAREA":" ","LANE":" ","ALLEY":" ","HOUSE_NO":"２０號","E_COORD97":165844.78,"N_COORD97":2570674,"ADDRESS":"三民路２０號","OBJECTID":573774},"geometry":{"x":165844.78000000026,"y":2570674.0000000019}},{"attributes":{"ID":573802,"DIS_CODE":0,"TOWNNAME":"歸仁區","LI":"看西里","LIN":"4鄰","STREET":"仁愛十街","SECT":" ","MAREA":" ","LANE":" ","ALLEY":" ","HOUSE_NO":"６號","E_COORD97":178250.01000000001,"N_COORD97":2540327.2799999998,"ADDRESS":"仁愛十街６號","OBJECTID":573775},"geometry":{"x":178250.00999999978,"y":2540327.2800000012}},{"attributes":{"ID":573803,"DIS_CODE":0,"TOWNNAME":"學甲區","LI":"明宜里","LIN":"23鄰","STREET":"三民路","SECT":" ","MAREA":" ","LANE":" ","ALLEY":" ","HOUSE_NO":"２１號之５","E_COORD97":165814.20999999999,"N_COORD97":2570714.73,"ADDRESS":"三民路２１號之５","OBJECTID":573776},"geometry":{"x":165814.20999999996,"y":2570714.7300000004}},{"attributes":{"ID":573804,"DIS_CODE":0,"TOWNNAME":"學甲區","LI":"明宜里","LIN":"23鄰","STREET":"三民路","SECT":" ","MAREA":" ","LANE":" ","ALLEY":" ","HOUSE_NO":"２１號之６","E_COORD97":165817.91,"N_COORD97":2570720.46,"ADDRESS":"三民路２１號之６","OBJECTID":573777},"geometry":{"x":165817.91000000108,"y":2570720.4600000009}},{"attributes":{"ID":573805,"DIS_CODE":0,"TOWNNAME":"學甲區","LI":"明宜里","LIN":"23鄰","STREET":"三民路","SECT":" ","MAREA":" ","LANE":" ","ALLEY":" ","HOUSE_NO":"２１號","E_COORD97":165816.20999999999,"N_COORD97":2570710.2000000002,"ADDRESS":"三民路２１號","OBJECTID":573778},"geometry":{"x":165816.20999999996,"y":2570710.1999999993}},{"attributes":{"ID":573806,"DIS_CODE":0,"TOWNNAME":"學甲區","LI":"明宜里","LIN":"23鄰","STREET":"三民路","SECT":" ","MAREA":" ","LANE":" ","ALLEY":" ","HOUSE_NO":"５０號","E_COORD97":165858.04000000001,"N_COORD97":2570692.9700000002,"ADDRESS":"三民路５０號","OBJECTID":573779},"geometry":{"x":165858.04000000004,"y":2570692.9700000007}},{"attributes":{"ID":573807,"DIS_CODE":0,"TOWNNAME":"東山區","LI":"東中里","LIN":"23鄰","STREET":"鳳安一街","SECT":" ","MAREA":" ","LANE":" ","ALLEY":" ","HOUSE_NO":"３７號","E_COORD97":188785.48999999999,"N_COORD97":2579702.75,"ADDRESS":"鳳安一街３７號","OBJECTID":573780},"geometry":{"x":188785.49000000115,"y":2579702.7499999981}},{"attributes":{"ID":573808,"DIS_CODE":0,"TOWNNAME":"東山區","LI":"東中里","LIN":"23鄰","STREET":"鳳安一街","SECT":" ","MAREA":" ","LANE":" ","ALLEY":" ","HOUSE_NO":"３９號","E_COORD97":188781.07999999999,"N_COORD97":2579703.8700000001,"ADDRESS":"鳳安一街３９號","OBJECTID":573781},"geometry":{"x":188781.08000000101,"y":2579703.8700000029}},{"attributes":{"ID":573809,"DIS_CODE":0,"TOWNNAME":"東山區","LI":"東中里","LIN":"23鄰","STREET":"鳳安一街","SECT":" ","MAREA":" ","LANE":" ","ALLEY":" ","HOUSE_NO":"４１號","E_COORD97":188776.89000000001,"N_COORD97":2579704.8300000001,"ADDRESS":"鳳安一街４１號","OBJECTID":573782},"geometry":{"x":188776.8900000006,"y":2579704.8300000001}},{"attributes":{"ID":573810,"DIS_CODE":0,"TOWNNAME":"東山區","LI":"東中里","LIN":"23鄰","STREET":"鳳安一街","SECT":" ","MAREA":" ","LANE":" ","ALLEY":" ","HOUSE_NO":"４３號","E_COORD97":188773.14999999999,"N_COORD97":2579705.3100000001,"ADDRESS":"鳳安一街４３號","OBJECTID":573783},"geometry":{"x":188773.15000000037,"y":2579705.3100000005}},{"attributes":{"ID":573811,"DIS_CODE":0,"TOWNNAME":"東山區","LI":"東中里","LIN":"23鄰","STREET":"鳳安一街","SECT":" ","MAREA":" ","LANE":" ","ALLEY":" ","HOUSE_NO":"４５號","E_COORD97":188769.13,"N_COORD97":2579706.2400000002,"ADDRESS":"鳳安一街４５號","OBJECTID":573784},"geometry":{"x":188769.12999999989,"y":2579706.2400000002}},{"attributes":{"ID":573812,"DIS_CODE":0,"TOWNNAME":"東山區","LI":"東中里","LIN":"23鄰","STREET":"鳳安一街","SECT":" ","MAREA":" ","LANE":" ","ALLEY":" ","HOUSE_NO":"４７號","E_COORD97":188764.85000000001,"N_COORD97":2579707.02,"ADDRESS":"鳳安一街４７號","OBJECTID":573785},"geometry":{"x":188764.85000000056,"y":2579707.0199999996}},{"attributes":{"ID":573813,"DIS_CODE":0,"TOWNNAME":"東山區","LI":"東中里","LIN":"23鄰","STREET":"鳳安一街","SECT":" ","MAREA":" ","LANE":" ","ALLEY":" ","HOUSE_NO":"４９號","E_COORD97":188760.78,"N_COORD97":2579707.9700000002,"ADDRESS":"鳳安一街４９號","OBJECTID":573786},"geometry":{"x":188760.78000000212,"y":2579707.9700000007}},{"attributes":{"ID":573814,"DIS_CODE":0,"TOWNNAME":"東山區","LI":"東中里","LIN":"23鄰","STREET":"鳳安一街","SECT":" ","MAREA":" ","LANE":" ","ALLEY":" ","HOUSE_NO":"５１號","E_COORD97":188756.62,"N_COORD97":2579708.8500000001,"ADDRESS":"鳳安一街５１號","OBJECTID":573787},"geometry":{"x":188756.62000000197,"y":2579708.8500000034}},{"attributes":{"ID":573815,"DIS_CODE":0,"TOWNNAME":"東山區","LI":"東中里","LIN":"23鄰","STREET":"鳳安一街","SECT":" ","MAREA":" ","LANE":" ","ALLEY":" ","HOUSE_NO":"５３號","E_COORD97":188738.79999999999,"N_COORD97":2579712.5699999998,"ADDRESS":"鳳安一街５３號","OBJECTID":573788},"geometry":{"x":188738.80000000075,"y":2579712.5700000022}},{"attributes":{"ID":573816,"DIS_CODE":0,"TOWNNAME":"東山區","LI":"東中里","LIN":"23鄰","STREET":"鳳安一街","SECT":" ","MAREA":" ","LANE":" ","ALLEY":" ","HOUSE_NO":"５５號","E_COORD97":188733.60999999999,"N_COORD97":2579713.73,"ADDRESS":"鳳安一街５５號","OBJECTID":573789},"geometry":{"x":188733.61000000127,"y":2579713.7300000042}},{"attributes":{"ID":573817,"DIS_CODE":0,"TOWNNAME":"東山區","LI":"東中里","LIN":"23鄰","STREET":"鳳安一街","SECT":" ","MAREA":" ","LANE":" ","ALLEY":" ","HOUSE_NO":"５７號","E_COORD97":188729.67999999999,"N_COORD97":2579714.6899999999,"ADDRESS":"鳳安一街５７號","OBJECTID":573790},"geometry":{"x":188729.6799999997,"y":2579714.6899999995}},{"attributes":{"ID":573818,"DIS_CODE":0,"TOWNNAME":"東山區","LI":"東中里","LIN":"23鄰","STREET":"鳳安一街","SECT":" ","MAREA":" ","LANE":" ","ALLEY":" ","HOUSE_NO":"５９號","E_COORD97":188725.60000000001,"N_COORD97":2579714.8100000001,"ADDRESS":"鳳安一街５９號","OBJECTID":573791},"geometry":{"x":188725.5999999987,"y":2579714.8100000024}},{"attributes":{"ID":573819,"DIS_CODE":0,"TOWNNAME":"東山區","LI":"東中里","LIN":"23鄰","STREET":"鳳安一街","SECT":" ","MAREA":" ","LANE":" ","ALLEY":" ","HOUSE_NO":"６１號","E_COORD97":188721.60000000001,"N_COORD97":2579715.6000000001,"ADDRESS":"鳳安一街６１號","OBJECTID":573792},"geometry":{"x":188721.59999999963,"y":2579715.5999999996}},{"attributes":{"ID":573820,"DIS_CODE":0,"TOWNNAME":"東山區","LI":"東中里","LIN":"23鄰","STREET":"鳳安一街","SECT":" ","MAREA":" ","LANE":" ","ALLEY":" ","HOUSE_NO":"６３號","E_COORD97":188717.82999999999,"N_COORD97":2579716.3199999998,"ADDRESS":"鳳安一街６３號","OBJECTID":573793},"geometry":{"x":188717.83000000194,"y":2579716.320000004}},{"attributes":{"ID":573821,"DIS_CODE":0,"TOWNNAME":"東山區","LI":"東中里","LIN":"23鄰","STREET":"鳳安一街","SECT":" ","MAREA":" ","LANE":" ","ALLEY":" ","HOUSE_NO":"６５號","E_COORD97":188713.70999999999,"N_COORD97":2579717.3100000001,"ADDRESS":"鳳安一街６５號","OBJECTID":573794},"geometry":{"x":188713.71000000089,"y":2579717.3100000024}},{"attributes":{"ID":573822,"DIS_CODE":0,"TOWNNAME":"東山區","LI":"東中里","LIN":"23鄰","STREET":"鳳安一街","SECT":" ","MAREA":" ","LANE":" ","ALLEY":" ","HOUSE_NO":"６７號","E_COORD97":188709.85000000001,"N_COORD97":2579718.0699999998,"ADDRESS":"鳳安一街６７號","OBJECTID":573795},"geometry":{"x":188709.84999999963,"y":2579718.070000004}},{"attributes":{"ID":573823,"DIS_CODE":0,"TOWNNAME":"東山區","LI":"東中里","LIN":"23鄰","STREET":"鳳安一街","SECT":" ","MAREA":" ","LANE":" ","ALLEY":" ","HOUSE_NO":"６９號","E_COORD97":188706.10000000001,"N_COORD97":2579719.1400000001,"ADDRESS":"鳳安一街６９號","OBJECTID":573796},"geometry":{"x":188706.10000000056,"y":2579719.1400000025}},{"attributes":{"ID":573824,"DIS_CODE":0,"TOWNNAME":"東山區","LI":"東中里","LIN":"23鄰","STREET":"鳳安一街","SECT":" ","MAREA":" ","LANE":" ","ALLEY":" ","HOUSE_NO":"７１號","E_COORD97":188702,"N_COORD97":2579720.0099999998,"ADDRESS":"鳳安一街７１號","OBJECTID":573797},"geometry":{"x":188702.00000000093,"y":2579720.0099999998}},{"attributes":{"ID":573825,"DIS_CODE":0,"TOWNNAME":"東山區","LI":"東中里","LIN":"23鄰","STREET":"鳳安一街","SECT":" ","MAREA":" ","LANE":" ","ALLEY":" ","HOUSE_NO":"７３號","E_COORD97":188697.97,"N_COORD97":2579720.9300000002,"ADDRESS":"鳳安一街７３號","OBJECTID":573798},"geometry":{"x":188697.9700000016,"y":2579720.9299999997}},{"attributes":{"ID":573826,"DIS_CODE":0,"TOWNNAME":"東山區","LI":"東中里","LIN":"23鄰","STREET":"鳳安一街","SECT":" ","MAREA":" ","LANE":" ","ALLEY":" ","HOUSE_NO":"７５號","E_COORD97":188693.22,"N_COORD97":2579721.9300000002,"ADDRESS":"鳳安一街７５號","OBJECTID":573799},"geometry":{"x":188693.22000000067,"y":2579721.9300000034}},{"attributes":{"ID":573827,"DIS_CODE":0,"TOWNNAME":"東山區","LI":"東中里","LIN":"23鄰","STREET":"鳳安一街","SECT":" ","MAREA":" ","LANE":" ","ALLEY":" ","HOUSE_NO":"９１號","E_COORD97":188662.51000000001,"N_COORD97":2579729.2200000002,"ADDRESS":"鳳安一街９１號","OBJECTID":573800},"geometry":{"x":188662.51000000071,"y":2579729.2200000025}}]}