{"displayFieldName":"TOWNNAME","fieldAliases":{"ID":"ID","DIS_CODE":"DIS_CODE","TOWNNAME":"TOWNNAME","LI":"LI","LIN":"LIN","STREET":"STREET","SECT":"SECT","MAREA":"MAREA","LANE":"LANE","ALLEY":"ALLEY","HOUSE_NO":"HOUSE_NO","E_COORD97":"E_COORD97","N_COORD97":"N_COORD97","ADDRESS":"ADDRESS","OBJECTID":"OBJECTID"},"geometryType":"esriGeometryPoint","spatialReference":{"wkid":102443,"latestWkid":3826},"fields":[{"name":"ID","type":"esriFieldTypeDouble","alias":"ID"},{"name":"DIS_CODE","type":"esriFieldTypeInteger","alias":"DIS_CODE"},{"name":"TOWNNAME","type":"esriFieldTypeString","alias":"TOWNNAME","length":8},{"name":"LI","type":"esriFieldTypeString","alias":"LI","length":8},{"name":"LIN","type":"esriFieldTypeString","alias":"LIN","length":12},{"name":"STREET","type":"esriFieldTypeString","alias":"STREET","length":20},{"name":"SECT","type":"esriFieldTypeString","alias":"SECT","length":8},{"name":"MAREA","type":"esriFieldTypeString","alias":"MAREA","length":12},{"name":"LANE","type":"esriFieldTypeString","alias":"LANE","length":10},{"name":"ALLEY","type":"esriFieldTypeString","alias":"ALLEY","length":10},{"name":"HOUSE_NO","type":"esriFieldTypeString","alias":"HOUSE_NO","length":20},{"name":"E_COORD97","type":"esriFieldTypeDouble","alias":"E_COORD97"},{"name":"N_COORD97","type":"esriFieldTypeDouble","alias":"N_COORD97"},{"name":"ADDRESS","type":"esriFieldTypeString","alias":"ADDRESS","length":50},{"name":"OBJECTID","type":"esriFieldTypeOID","alias":"OBJECTID"}],"features":[{"attributes":{"ID":218602,"DIS_CODE":0,"TOWNNAME":"安定區","LI":"新吉里","LIN":"8鄰","STREET":" ","SECT":" ","MAREA":"新吉","LANE":" ","ALLEY":" ","HOUSE_NO":"６９號之３","E_COORD97":169127.79999999999,"N_COORD97":2553966.2999999998,"ADDRESS":"新吉６９號之３","OBJECTID":218601},"geometry":{"x":169127.79999999981,"y":2553966.3000000007}},{"attributes":{"ID":218603,"DIS_CODE":0,"TOWNNAME":"安定區","LI":"新吉里","LIN":"8鄰","STREET":" ","SECT":" ","MAREA":"新吉","LANE":" ","ALLEY":" ","HOUSE_NO":"７１號之１４","E_COORD97":169155.48000000001,"N_COORD97":2553970.2999999998,"ADDRESS":"新吉７１號之１４","OBJECTID":218602},"geometry":{"x":169155.48000000138,"y":2553970.3000000045}},{"attributes":{"ID":218604,"DIS_CODE":0,"TOWNNAME":"安定區","LI":"六嘉里","LIN":"4鄰","STREET":" ","SECT":" ","MAREA":"六塊寮","LANE":" ","ALLEY":" ","HOUSE_NO":"３１之２號","E_COORD97":170040.32000000001,"N_COORD97":2553423.2999999998,"ADDRESS":"六塊寮３１之２號","OBJECTID":218603},"geometry":{"x":170040.3200000003,"y":2553423.3000000007}},{"attributes":{"ID":218605,"DIS_CODE":0,"TOWNNAME":"東區","LI":"泉南里","LIN":"29鄰","STREET":"府連路","SECT":" ","MAREA":" ","LANE":"３４４巷","ALLEY":"２５弄","HOUSE_NO":"９號","E_COORD97":169631.82000000001,"N_COORD97":2542670.52,"ADDRESS":"府連路３４４巷２５弄９號","OBJECTID":218604},"geometry":{"x":169631.8200000003,"y":2542670.5199999996}},{"attributes":{"ID":218606,"DIS_CODE":0,"TOWNNAME":"東區","LI":"泉南里","LIN":"29鄰","STREET":"府連路","SECT":" ","MAREA":" ","LANE":"３４４巷","ALLEY":"３１弄","HOUSE_NO":"１３號","E_COORD97":169653.51999999999,"N_COORD97":2542651.75,"ADDRESS":"府連路３４４巷３１弄１３號","OBJECTID":218605},"geometry":{"x":169653.51999999862,"y":2542651.75}},{"attributes":{"ID":218607,"DIS_CODE":0,"TOWNNAME":"東區","LI":"泉南里","LIN":"29鄰","STREET":"府連路","SECT":" ","MAREA":" ","LANE":"３４４巷","ALLEY":"３１弄","HOUSE_NO":"１５號","E_COORD97":169658.75646100001,"N_COORD97":2542653.6915099998,"ADDRESS":"府連路３４４巷３１弄１５號","OBJECTID":218606},"geometry":{"x":169658.756461001,"y":2542653.6915080007}},{"attributes":{"ID":218608,"DIS_CODE":0,"TOWNNAME":"東區","LI":"泉南里","LIN":"29鄰","STREET":"府連路","SECT":" ","MAREA":" ","LANE":"３４４巷","ALLEY":"３１弄","HOUSE_NO":"１９號","E_COORD97":169665.744951,"N_COORD97":2542653.0236999998,"ADDRESS":"府連路３４４巷３１弄１９號","OBJECTID":218607},"geometry":{"x":169665.74495100044,"y":2542653.023697}},{"attributes":{"ID":218609,"DIS_CODE":0,"TOWNNAME":"東區","LI":"泉南里","LIN":"29鄰","STREET":"府連路","SECT":" ","MAREA":" ","LANE":"３４４巷","ALLEY":"３１弄","HOUSE_NO":"１號","E_COORD97":169631.42000000001,"N_COORD97":2542655.3599999999,"ADDRESS":"府連路３４４巷３１弄１號","OBJECTID":218608},"geometry":{"x":169631.42000000086,"y":2542655.3600000013}},{"attributes":{"ID":218610,"DIS_CODE":0,"TOWNNAME":"東區","LI":"泉南里","LIN":"29鄰","STREET":"府連路","SECT":" ","MAREA":" ","LANE":"３４４巷","ALLEY":"３１弄","HOUSE_NO":"３號","E_COORD97":169635.56,"N_COORD97":2542654.7200000002,"ADDRESS":"府連路３４４巷３１弄３號","OBJECTID":218609},"geometry":{"x":169635.56000000052,"y":2542654.7200000025}},{"attributes":{"ID":218611,"DIS_CODE":0,"TOWNNAME":"東區","LI":"泉南里","LIN":"29鄰","STREET":"府連路","SECT":" ","MAREA":" ","LANE":"３４４巷","ALLEY":"３１弄","HOUSE_NO":"５號","E_COORD97":169639.04000000001,"N_COORD97":2542654.46,"ADDRESS":"府連路３４４巷３１弄５號","OBJECTID":218610},"geometry":{"x":169639.04000000097,"y":2542654.4600000009}},{"attributes":{"ID":218612,"DIS_CODE":0,"TOWNNAME":"東區","LI":"泉南里","LIN":"29鄰","STREET":"府連路","SECT":" ","MAREA":" ","LANE":"３４４巷","ALLEY":"３１弄","HOUSE_NO":"７號","E_COORD97":169642.66,"N_COORD97":2542653.4300000002,"ADDRESS":"府連路３４４巷３１弄７號","OBJECTID":218611},"geometry":{"x":169642.66000000015,"y":2542653.4299999997}},{"attributes":{"ID":218613,"DIS_CODE":0,"TOWNNAME":"東區","LI":"泉南里","LIN":"29鄰","STREET":"府連路","SECT":" ","MAREA":" ","LANE":"３４４巷","ALLEY":"３１弄","HOUSE_NO":"９號","E_COORD97":169646.28,"N_COORD97":2542653.04,"ADDRESS":"府連路３４４巷３１弄９號","OBJECTID":218612},"geometry":{"x":169646.28000000119,"y":2542653.0399999991}},{"attributes":{"ID":218614,"DIS_CODE":0,"TOWNNAME":"東區","LI":"泉南里","LIN":"29鄰","STREET":"府連路","SECT":" ","MAREA":" ","LANE":"３４４巷","ALLEY":"３５弄","HOUSE_NO":"１３號","E_COORD97":169650.67000000001,"N_COORD97":2542634.3199999998,"ADDRESS":"府連路３４４巷３５弄１３號","OBJECTID":218613},"geometry":{"x":169650.66999999993,"y":2542634.3200000003}},{"attributes":{"ID":218615,"DIS_CODE":0,"TOWNNAME":"西港區","LI":"慶安里","LIN":"28鄰","STREET":"慶安路","SECT":" ","MAREA":" ","LANE":"９７巷","ALLEY":" ","HOUSE_NO":"１號","E_COORD97":168137.84,"N_COORD97":2557867.6899999999,"ADDRESS":"慶安路９７巷１號","OBJECTID":218614},"geometry":{"x":168137.83999999892,"y":2557867.6899999995}},{"attributes":{"ID":218616,"DIS_CODE":0,"TOWNNAME":"關廟區","LI":"五甲里","LIN":"15鄰","STREET":"東興二街","SECT":" ","MAREA":" ","LANE":" ","ALLEY":" ","HOUSE_NO":"８０號","E_COORD97":181322.07000000001,"N_COORD97":2539472.25,"ADDRESS":"東興二街８０號","OBJECTID":218615},"geometry":{"x":181322.07000000216,"y":2539472.25}},{"attributes":{"ID":218617,"DIS_CODE":0,"TOWNNAME":"關廟區","LI":"南花里","LIN":"15鄰","STREET":"花園一街","SECT":" ","MAREA":" ","LANE":" ","ALLEY":" ","HOUSE_NO":"２９２號","E_COORD97":181495.98999999999,"N_COORD97":2540182.25,"ADDRESS":"花園一街２９２號","OBJECTID":218616},"geometry":{"x":181495.99000000115,"y":2540182.2500000019}},{"attributes":{"ID":218618,"DIS_CODE":0,"TOWNNAME":"關廟區","LI":"南花里","LIN":"15鄰","STREET":"花園一街","SECT":" ","MAREA":" ","LANE":" ","ALLEY":" ","HOUSE_NO":"２８８號","E_COORD97":181506.17999999999,"N_COORD97":2540176.1899999999,"ADDRESS":"花園一街２８８號","OBJECTID":218617},"geometry":{"x":181506.18000000063,"y":2540176.1899999995}},{"attributes":{"ID":218619,"DIS_CODE":0,"TOWNNAME":"關廟區","LI":"五甲里","LIN":"15鄰","STREET":"東興二街","SECT":" ","MAREA":" ","LANE":" ","ALLEY":" ","HOUSE_NO":"１００號","E_COORD97":181317.12,"N_COORD97":2539434.25,"ADDRESS":"東興二街１００號","OBJECTID":218618},"geometry":{"x":181317.12000000104,"y":2539434.25}},{"attributes":{"ID":218620,"DIS_CODE":0,"TOWNNAME":"關廟區","LI":"南花里","LIN":"15鄰","STREET":"花園一街","SECT":" ","MAREA":" ","LANE":" ","ALLEY":" ","HOUSE_NO":"３０６號","E_COORD97":181474.89000000001,"N_COORD97":2540188.25,"ADDRESS":"花園一街３０６號","OBJECTID":218619},"geometry":{"x":181474.88999999966,"y":2540188.2500000037}},{"attributes":{"ID":218621,"DIS_CODE":0,"TOWNNAME":"關廟區","LI":"南花里","LIN":"15鄰","STREET":"花園一街","SECT":" ","MAREA":" ","LANE":" ","ALLEY":" ","HOUSE_NO":"３０８號","E_COORD97":181470.98999999999,"N_COORD97":2540190.25,"ADDRESS":"花園一街３０８號","OBJECTID":218620},"geometry":{"x":181470.99000000022,"y":2540190.25}},{"attributes":{"ID":218622,"DIS_CODE":0,"TOWNNAME":"關廟區","LI":"香洋里","LIN":"15鄰","STREET":"中央路","SECT":" ","MAREA":" ","LANE":" ","ALLEY":" ","HOUSE_NO":"１９２號","E_COORD97":181320.35999999999,"N_COORD97":2540049.3199999998,"ADDRESS":"中央路１９２號","OBJECTID":218621},"geometry":{"x":181320.36000000127,"y":2540049.3200000022}},{"attributes":{"ID":218623,"DIS_CODE":0,"TOWNNAME":"關廟區","LI":"南花里","LIN":"15鄰","STREET":"花園一街","SECT":" ","MAREA":" ","LANE":" ","ALLEY":" ","HOUSE_NO":"２２０號","E_COORD97":181581.59,"N_COORD97":2540178.25,"ADDRESS":"花園一街２２０號","OBJECTID":218622},"geometry":{"x":181581.59000000078,"y":2540178.2500000019}},{"attributes":{"ID":218624,"DIS_CODE":0,"TOWNNAME":"關廟區","LI":"南花里","LIN":"15鄰","STREET":"花園一街","SECT":" ","MAREA":" ","LANE":" ","ALLEY":" ","HOUSE_NO":"２５６號","E_COORD97":181566.98999999999,"N_COORD97":2540160.25,"ADDRESS":"花園一街２５６號","OBJECTID":218623},"geometry":{"x":181566.99000000115,"y":2540160.25}},{"attributes":{"ID":218625,"DIS_CODE":0,"TOWNNAME":"關廟區","LI":"南花里","LIN":"15鄰","STREET":"和平路","SECT":" ","MAREA":" ","LANE":" ","ALLEY":" ","HOUSE_NO":"３１９號","E_COORD97":181593.04000000001,"N_COORD97":2540236.25,"ADDRESS":"和平路３１９號","OBJECTID":218624},"geometry":{"x":181593.04000000004,"y":2540236.2500000019}},{"attributes":{"ID":218626,"DIS_CODE":0,"TOWNNAME":"北區","LI":"力行里","LIN":"15鄰","STREET":"力行街","SECT":" ","MAREA":" ","LANE":" ","ALLEY":" ","HOUSE_NO":"３１號","E_COORD97":170916.23999999999,"N_COORD97":2545353.71,"ADDRESS":"力行街３１號","OBJECTID":218625},"geometry":{"x":170916.24000000115,"y":2545353.7100000028}},{"attributes":{"ID":218627,"DIS_CODE":0,"TOWNNAME":"關廟區","LI":"五甲里","LIN":"15鄰","STREET":"東興二街","SECT":" ","MAREA":" ","LANE":" ","ALLEY":" ","HOUSE_NO":"８６號","E_COORD97":181323.97,"N_COORD97":2539464.25,"ADDRESS":"東興二街８６號","OBJECTID":218626},"geometry":{"x":181323.97000000067,"y":2539464.25}},{"attributes":{"ID":218628,"DIS_CODE":0,"TOWNNAME":"東區","LI":"泉南里","LIN":"29鄰","STREET":"府連路","SECT":" ","MAREA":" ","LANE":"３４４巷","ALLEY":"３５弄","HOUSE_NO":"１５號","E_COORD97":169654.29000000001,"N_COORD97":2542634.4500000002,"ADDRESS":"府連路３４４巷３５弄１５號","OBJECTID":218627},"geometry":{"x":169654.29000000097,"y":2542634.4500000011}},{"attributes":{"ID":218629,"DIS_CODE":0,"TOWNNAME":"東區","LI":"泉南里","LIN":"29鄰","STREET":"府連路","SECT":" ","MAREA":" ","LANE":"３４４巷","ALLEY":"３５弄","HOUSE_NO":"３號","E_COORD97":169632.57999999999,"N_COORD97":2542638.5800000001,"ADDRESS":"府連路３４４巷３５弄３號","OBJECTID":218628},"geometry":{"x":169632.58000000007,"y":2542638.5800000019}},{"attributes":{"ID":218630,"DIS_CODE":0,"TOWNNAME":"東區","LI":"泉南里","LIN":"29鄰","STREET":"府連路","SECT":" ","MAREA":" ","LANE":"３４４巷","ALLEY":"３５弄","HOUSE_NO":"５號","E_COORD97":169636.20000000001,"N_COORD97":2542637.9300000002,"ADDRESS":"府連路３４４巷３５弄５號","OBJECTID":218629},"geometry":{"x":169636.20000000205,"y":2542637.9300000034}},{"attributes":{"ID":218631,"DIS_CODE":0,"TOWNNAME":"東區","LI":"泉南里","LIN":"29鄰","STREET":"府連路","SECT":" ","MAREA":" ","LANE":"３４４巷","ALLEY":"３５弄","HOUSE_NO":"９號","E_COORD97":169643.95000000001,"N_COORD97":2542635.7400000002,"ADDRESS":"府連路３４４巷３５弄９號","OBJECTID":218630},"geometry":{"x":169643.95000000019,"y":2542635.7400000002}},{"attributes":{"ID":218632,"DIS_CODE":0,"TOWNNAME":"東區","LI":"泉南里","LIN":"29鄰","STREET":"府連路","SECT":" ","MAREA":" ","LANE":"３４４巷","ALLEY":"２５弄","HOUSE_NO":"２３號","E_COORD97":169657.28,"N_COORD97":2542669.1600000001,"ADDRESS":"府連路３４４巷２５弄２３號","OBJECTID":218631},"geometry":{"x":169657.28000000026,"y":2542669.1600000001}},{"attributes":{"ID":218633,"DIS_CODE":0,"TOWNNAME":"東區","LI":"泉南里","LIN":"29鄰","STREET":"府連路","SECT":" ","MAREA":" ","LANE":"３４４巷","ALLEY":"３１弄","HOUSE_NO":"１１號","E_COORD97":169649.76999999999,"N_COORD97":2542651.75,"ADDRESS":"府連路３４４巷３１弄１１號","OBJECTID":218632},"geometry":{"x":169649.76999999955,"y":2542651.75}},{"attributes":{"ID":218634,"DIS_CODE":0,"TOWNNAME":"東區","LI":"泉南里","LIN":"29鄰","STREET":"府連路","SECT":" ","MAREA":" ","LANE":"３４４巷","ALLEY":"３１弄","HOUSE_NO":"２１號","E_COORD97":169667.95999999999,"N_COORD97":2542652.77,"ADDRESS":"府連路３４４巷３１弄２１號","OBJECTID":218633},"geometry":{"x":169667.96000000183,"y":2542652.7700000014}},{"attributes":{"ID":218635,"DIS_CODE":0,"TOWNNAME":"東區","LI":"泉南里","LIN":"29鄰","STREET":"府連路","SECT":" ","MAREA":" ","LANE":"３４４巷","ALLEY":"３５弄","HOUSE_NO":"１號","E_COORD97":169629.48000000001,"N_COORD97":2542639.8700000001,"ADDRESS":"府連路３４４巷３５弄１號","OBJECTID":218634},"geometry":{"x":169629.48000000231,"y":2542639.8700000029}},{"attributes":{"ID":218636,"DIS_CODE":0,"TOWNNAME":"東區","LI":"泉南里","LIN":"29鄰","STREET":"府連路","SECT":" ","MAREA":" ","LANE":"３４４巷","ALLEY":"３５弄","HOUSE_NO":"７號","E_COORD97":169640.07999999999,"N_COORD97":2542637.29,"ADDRESS":"府連路３４４巷３５弄７號","OBJECTID":218635},"geometry":{"x":169640.07999999914,"y":2542637.2899999991}},{"attributes":{"ID":218637,"DIS_CODE":0,"TOWNNAME":"西港區","LI":"慶安里","LIN":"28鄰","STREET":"慶安路","SECT":" ","MAREA":" ","LANE":" ","ALLEY":" ","HOUSE_NO":"９９號之１","E_COORD97":168116.19,"N_COORD97":2557887.1499999999,"ADDRESS":"慶安路９９號之１","OBJECTID":218636},"geometry":{"x":168116.19000000134,"y":2557887.1500000041}},{"attributes":{"ID":218638,"DIS_CODE":0,"TOWNNAME":"西港區","LI":"慶安里","LIN":"28鄰","STREET":"慶安路","SECT":" ","MAREA":" ","LANE":" ","ALLEY":" ","HOUSE_NO":"９９號之２","E_COORD97":168111.51999999999,"N_COORD97":2557886.1299999999,"ADDRESS":"慶安路９９號之２","OBJECTID":218637},"geometry":{"x":168111.52000000048,"y":2557886.1300000008}},{"attributes":{"ID":218639,"DIS_CODE":0,"TOWNNAME":"西港區","LI":"慶安里","LIN":"28鄰","STREET":"慶安路","SECT":" ","MAREA":" ","LANE":" ","ALLEY":" ","HOUSE_NO":"９９號之３","E_COORD97":168107.95999999999,"N_COORD97":2557885.79,"ADDRESS":"慶安路９９號之３","OBJECTID":218638},"geometry":{"x":168107.95999999996,"y":2557885.790000001}},{"attributes":{"ID":218640,"DIS_CODE":0,"TOWNNAME":"西港區","LI":"慶安里","LIN":"28鄰","STREET":"慶安路","SECT":" ","MAREA":" ","LANE":" ","ALLEY":" ","HOUSE_NO":"９９號","E_COORD97":168120.85999999999,"N_COORD97":2557887.4300000002,"ADDRESS":"慶安路９９號","OBJECTID":218639},"geometry":{"x":168120.86000000034,"y":2557887.4299999978}},{"attributes":{"ID":218641,"DIS_CODE":0,"TOWNNAME":"東區","LI":"和平里","LIN":"15鄰","STREET":"文化三街","SECT":" ","MAREA":" ","LANE":" ","ALLEY":" ","HOUSE_NO":"７６號","E_COORD97":171281.66,"N_COORD97":2541853.54,"ADDRESS":"文化三街７６號","OBJECTID":218640},"geometry":{"x":171281.66000000015,"y":2541853.540000001}},{"attributes":{"ID":218642,"DIS_CODE":0,"TOWNNAME":"東區","LI":"和平里","LIN":"15鄰","STREET":"文化三街","SECT":" ","MAREA":" ","LANE":" ","ALLEY":" ","HOUSE_NO":"７８號","E_COORD97":171292.31,"N_COORD97":2541857.3100000001,"ADDRESS":"文化三街７８號","OBJECTID":218641},"geometry":{"x":171292.30999999959,"y":2541857.3100000024}},{"attributes":{"ID":218643,"DIS_CODE":0,"TOWNNAME":"東區","LI":"和平里","LIN":"15鄰","STREET":"文化三街","SECT":" ","MAREA":" ","LANE":" ","ALLEY":" ","HOUSE_NO":"８０號","E_COORD97":171299.84,"N_COORD97":2541859.2799999998,"ADDRESS":"文化三街８０號","OBJECTID":218642},"geometry":{"x":171299.84000000078,"y":2541859.2800000012}},{"attributes":{"ID":218644,"DIS_CODE":0,"TOWNNAME":"東區","LI":"泉南里","LIN":"29鄰","STREET":"府連路","SECT":" ","MAREA":" ","LANE":"３４４巷","ALLEY":"３５弄","HOUSE_NO":"１１號","E_COORD97":169647.17999999999,"N_COORD97":2542634.96,"ADDRESS":"府連路３４４巷３５弄１１號","OBJECTID":218643},"geometry":{"x":169647.1799999997,"y":2542634.9600000009}},{"attributes":{"ID":218645,"DIS_CODE":0,"TOWNNAME":"東區","LI":"泉南里","LIN":"29鄰","STREET":"府連路","SECT":" ","MAREA":" ","LANE":"３４４巷","ALLEY":"３５弄","HOUSE_NO":"１７號","E_COORD97":169659.07000000001,"N_COORD97":2542640.52,"ADDRESS":"府連路３４４巷３５弄１７號","OBJECTID":218644},"geometry":{"x":169659.06999999937,"y":2542640.5200000033}},{"attributes":{"ID":218646,"DIS_CODE":0,"TOWNNAME":"東區","LI":"泉南里","LIN":"29鄰","STREET":"府連路","SECT":" ","MAREA":" ","LANE":"３４４巷","ALLEY":"２５弄","HOUSE_NO":"１１號","E_COORD97":169635.64000000001,"N_COORD97":2542670.1299999999,"ADDRESS":"府連路３４４巷２５弄１１號","OBJECTID":218645},"geometry":{"x":169635.63999999966,"y":2542670.1300000008}},{"attributes":{"ID":218647,"DIS_CODE":0,"TOWNNAME":"永康區","LI":"五王里","LIN":"29鄰","STREET":"中山東路","SECT":" ","MAREA":" ","LANE":"６８巷","ALLEY":"３弄","HOUSE_NO":"４８號","E_COORD97":171594.63,"N_COORD97":2545858.3900000001,"ADDRESS":"中山東路６８巷３弄４８號","OBJECTID":218646},"geometry":{"x":171594.63000000082,"y":2545858.3900000006}},{"attributes":{"ID":218648,"DIS_CODE":0,"TOWNNAME":"永康區","LI":"五王里","LIN":"29鄰","STREET":"中山東路","SECT":" ","MAREA":" ","LANE":"６８巷","ALLEY":"３弄","HOUSE_NO":"１５號","E_COORD97":171662.23000000001,"N_COORD97":2545944.9900000002,"ADDRESS":"中山東路６８巷３弄１５號","OBJECTID":218647},"geometry":{"x":171662.23000000138,"y":2545944.9900000021}},{"attributes":{"ID":218649,"DIS_CODE":0,"TOWNNAME":"永康區","LI":"五王里","LIN":"29鄰","STREET":"中山東路","SECT":" ","MAREA":" ","LANE":"６８巷","ALLEY":"３弄","HOUSE_NO":"１３號","E_COORD97":171660.34,"N_COORD97":2545949.9900000002,"ADDRESS":"中山東路６８巷３弄１３號","OBJECTID":218648},"geometry":{"x":171660.33999999985,"y":2545949.9900000002}},{"attributes":{"ID":218650,"DIS_CODE":0,"TOWNNAME":"永康區","LI":"五王里","LIN":"29鄰","STREET":"中山東路","SECT":" ","MAREA":" ","LANE":"６８巷","ALLEY":"３弄","HOUSE_NO":"３６號","E_COORD97":171636.12,"N_COORD97":2545895.1800000002,"ADDRESS":"中山東路６８巷３弄３６號","OBJECTID":218649},"geometry":{"x":171636.12000000011,"y":2545895.1800000016}},{"attributes":{"ID":218651,"DIS_CODE":0,"TOWNNAME":"永康區","LI":"大灣里","LIN":"29鄰","STREET":"民族路","SECT":" ","MAREA":" ","LANE":"１２６巷","ALLEY":"９弄","HOUSE_NO":"１４號","E_COORD97":175314.62,"N_COORD97":2544944.6200000001,"ADDRESS":"民族路１２６巷９弄１４號","OBJECTID":218650},"geometry":{"x":175314.62000000011,"y":2544944.6200000029}},{"attributes":{"ID":218652,"DIS_CODE":0,"TOWNNAME":"仁德區","LI":"成功里","LIN":"29鄰","STREET":"成功一街","SECT":" ","MAREA":" ","LANE":"１巷","ALLEY":"２４弄","HOUSE_NO":"２１號","E_COORD97":170669.03,"N_COORD97":2540129.52,"ADDRESS":"成功一街１巷２４弄２１號","OBJECTID":218651},"geometry":{"x":170669.03000000026,"y":2540129.5200000014}},{"attributes":{"ID":218653,"DIS_CODE":0,"TOWNNAME":"東區","LI":"關聖里","LIN":"4鄰","STREET":"裕農路","SECT":" ","MAREA":" ","LANE":"６６８巷","ALLEY":"５１弄","HOUSE_NO":"２０號","E_COORD97":171818.26999999999,"N_COORD97":2542997.75,"ADDRESS":"裕農路６６８巷５１弄２０號","OBJECTID":218652},"geometry":{"x":171818.26999999862,"y":2542997.75}},{"attributes":{"ID":218654,"DIS_CODE":0,"TOWNNAME":"新市區","LI":"新市里","LIN":"29鄰","STREET":"復興路","SECT":" ","MAREA":" ","LANE":"６巷","ALLEY":"４１弄","HOUSE_NO":"２５號","E_COORD97":177937.12,"N_COORD97":2553439.7799999998,"ADDRESS":"復興路６巷４１弄２５號","OBJECTID":218653},"geometry":{"x":177937.12000000011,"y":2553439.7799999993}},{"attributes":{"ID":218655,"DIS_CODE":0,"TOWNNAME":"新市區","LI":"新市里","LIN":"29鄰","STREET":"復興路","SECT":" ","MAREA":" ","LANE":"６巷","ALLEY":"４１弄","HOUSE_NO":"３３號","E_COORD97":177937.92000000001,"N_COORD97":2553455.7799999998,"ADDRESS":"復興路６巷４１弄３３號","OBJECTID":218654},"geometry":{"x":177937.92000000086,"y":2553455.7799999993}},{"attributes":{"ID":218656,"DIS_CODE":0,"TOWNNAME":"東區","LI":"和平里","LIN":"15鄰","STREET":"文化三街","SECT":" ","MAREA":" ","LANE":" ","ALLEY":" ","HOUSE_NO":"８２號","E_COORD97":171305.89999999999,"N_COORD97":2541858.9500000002,"ADDRESS":"文化三街８２號","OBJECTID":218655},"geometry":{"x":171305.90000000037,"y":2541858.9500000011}},{"attributes":{"ID":218657,"DIS_CODE":0,"TOWNNAME":"安定區","LI":"海寮里","LIN":"4鄰","STREET":" ","SECT":" ","MAREA":"海寮","LANE":" ","ALLEY":" ","HOUSE_NO":"４５號之２","E_COORD97":169608.56,"N_COORD97":2555441.2999999998,"ADDRESS":"海寮４５號之２","OBJECTID":218656},"geometry":{"x":169608.55999999959,"y":2555441.3000000007}},{"attributes":{"ID":218658,"DIS_CODE":0,"TOWNNAME":"安定區","LI":"港尾里","LIN":"18鄰","STREET":" ","SECT":" ","MAREA":"港子尾","LANE":" ","ALLEY":" ","HOUSE_NO":"１１１號","E_COORD97":171489.64000000001,"N_COORD97":2556194.2599999998,"ADDRESS":"港子尾１１１號","OBJECTID":218657},"geometry":{"x":171489.6400000006,"y":2556194.2600000016}},{"attributes":{"ID":218659,"DIS_CODE":0,"TOWNNAME":"安定區","LI":"蘇厝里","LIN":"18鄰","STREET":" ","SECT":" ","MAREA":"蘇厝","LANE":" ","ALLEY":" ","HOUSE_NO":"４５０號之５","E_COORD97":173242.10999999999,"N_COORD97":2558777.2999999998,"ADDRESS":"蘇厝４５０號之５","OBJECTID":218658},"geometry":{"x":173242.11000000034,"y":2558777.3000000007}},{"attributes":{"ID":218660,"DIS_CODE":0,"TOWNNAME":"永康區","LI":"\u25A0行里","LIN":"28鄰","STREET":"竹林街","SECT":" ","MAREA":" ","LANE":" ","ALLEY":" ","HOUSE_NO":"３４號","E_COORD97":172716.64000000001,"N_COORD97":2548849.9900000002,"ADDRESS":"竹林街３４號","OBJECTID":218659},"geometry":{"x":172716.6400000006,"y":2548849.9900000021}},{"attributes":{"ID":218661,"DIS_CODE":0,"TOWNNAME":"新市區","LI":"新市里","LIN":"29鄰","STREET":"復興路","SECT":" ","MAREA":" ","LANE":"６巷","ALLEY":"４１弄","HOUSE_NO":"２９號","E_COORD97":177937.70999999999,"N_COORD97":2553447.7799999998,"ADDRESS":"復興路６巷４１弄２９號","OBJECTID":218660},"geometry":{"x":177937.71000000089,"y":2553447.7800000012}},{"attributes":{"ID":218662,"DIS_CODE":0,"TOWNNAME":"東區","LI":"富強里","LIN":"29鄰","STREET":"東門路","SECT":"二段","MAREA":" ","LANE":"３６５巷","ALLEY":"３３弄","HOUSE_NO":"１號","E_COORD97":170857.89999999999,"N_COORD97":2542615.9399999999,"ADDRESS":"東門路二段３６５巷３３弄１號","OBJECTID":218661},"geometry":{"x":170857.9000000013,"y":2542615.9399999995}},{"attributes":{"ID":218663,"DIS_CODE":0,"TOWNNAME":"新市區","LI":"新市里","LIN":"29鄰","STREET":"復興路","SECT":" ","MAREA":" ","LANE":"６巷","ALLEY":"４１弄","HOUSE_NO":"２３號","E_COORD97":177936.92000000001,"N_COORD97":2553436.0299999998,"ADDRESS":"復興路６巷４１弄２３號","OBJECTID":218662},"geometry":{"x":177936.91999999993,"y":2553436.0300000012}},{"attributes":{"ID":218664,"DIS_CODE":0,"TOWNNAME":"新市區","LI":"新市里","LIN":"29鄰","STREET":"復興路","SECT":" ","MAREA":" ","LANE":"６巷","ALLEY":"４１弄","HOUSE_NO":"２１號","E_COORD97":177936.92000000001,"N_COORD97":2553432.0299999998,"ADDRESS":"復興路６巷４１弄２１號","OBJECTID":218663},"geometry":{"x":177936.91999999993,"y":2553432.0300000012}},{"attributes":{"ID":218665,"DIS_CODE":0,"TOWNNAME":"永康區","LI":"五王里","LIN":"29鄰","STREET":"中山東路","SECT":" ","MAREA":" ","LANE":"６８巷","ALLEY":"１５弄","HOUSE_NO":"１３號","E_COORD97":171633.13,"N_COORD97":2545917.96,"ADDRESS":"中山東路６８巷１５弄１３號","OBJECTID":218664},"geometry":{"x":171633.13000000175,"y":2545917.9600000028}},{"attributes":{"ID":218666,"DIS_CODE":0,"TOWNNAME":"永康區","LI":"五王里","LIN":"29鄰","STREET":"中山東路","SECT":" ","MAREA":" ","LANE":"６８巷","ALLEY":"１５弄","HOUSE_NO":"７號","E_COORD97":171624.92999999999,"N_COORD97":2545932.96,"ADDRESS":"中山東路６８巷１５弄７號","OBJECTID":218665},"geometry":{"x":171624.93000000063,"y":2545932.9600000009}},{"attributes":{"ID":218667,"DIS_CODE":0,"TOWNNAME":"永康區","LI":"五王里","LIN":"29鄰","STREET":"中山東路","SECT":" ","MAREA":" ","LANE":"６８巷","ALLEY":"１弄","HOUSE_NO":"２２號","E_COORD97":171684.04000000001,"N_COORD97":2545947.54,"ADDRESS":"中山東路６８巷１弄２２號","OBJECTID":218666},"geometry":{"x":171684.04000000004,"y":2545947.5399999991}},{"attributes":{"ID":218668,"DIS_CODE":0,"TOWNNAME":"永康區","LI":"五王里","LIN":"29鄰","STREET":"中山東路","SECT":" ","MAREA":" ","LANE":"６８巷","ALLEY":"１５弄","HOUSE_NO":"１６號","E_COORD97":171616.39000000001,"N_COORD97":2545920.9500000002,"ADDRESS":"中山東路６８巷１５弄１６號","OBJECTID":218667},"geometry":{"x":171616.3900000006,"y":2545920.9499999993}},{"attributes":{"ID":218669,"DIS_CODE":0,"TOWNNAME":"永康區","LI":"五王里","LIN":"29鄰","STREET":"中山東路","SECT":" ","MAREA":" ","LANE":"６８巷","ALLEY":"１弄","HOUSE_NO":"２６號","E_COORD97":171686.20000000001,"N_COORD97":2545942.54,"ADDRESS":"中山東路６８巷１弄２６號","OBJECTID":218668},"geometry":{"x":171686.20000000112,"y":2545942.540000001}},{"attributes":{"ID":218670,"DIS_CODE":0,"TOWNNAME":"永康區","LI":"五王里","LIN":"29鄰","STREET":"中山東路","SECT":" ","MAREA":" ","LANE":"６８巷","ALLEY":"３弄","HOUSE_NO":"１１號","E_COORD97":171658.17000000001,"N_COORD97":2545954.7400000002,"ADDRESS":"中山東路６８巷３弄１１號","OBJECTID":218669},"geometry":{"x":171658.16999999993,"y":2545954.7400000002}},{"attributes":{"ID":218671,"DIS_CODE":0,"TOWNNAME":"善化區","LI":"光文里","LIN":"28鄰","STREET":"和平路","SECT":" ","MAREA":" ","LANE":" ","ALLEY":" ","HOUSE_NO":"２３５號之６","E_COORD97":178034.37,"N_COORD97":2559336.77,"ADDRESS":"和平路２３５號之６","OBJECTID":218670},"geometry":{"x":178034.37000000011,"y":2559336.7700000014}},{"attributes":{"ID":218672,"DIS_CODE":0,"TOWNNAME":"善化區","LI":"光文里","LIN":"28鄰","STREET":"和平路","SECT":" ","MAREA":" ","LANE":" ","ALLEY":" ","HOUSE_NO":"２３９號之５","E_COORD97":178050.44,"N_COORD97":2559367.52,"ADDRESS":"和平路２３９號之５","OBJECTID":218671},"geometry":{"x":178050.44000000134,"y":2559367.5199999996}},{"attributes":{"ID":218673,"DIS_CODE":0,"TOWNNAME":"永康區","LI":"五王里","LIN":"29鄰","STREET":"中山東路","SECT":" ","MAREA":" ","LANE":"６８巷","ALLEY":"３弄","HOUSE_NO":"７號","E_COORD97":171653.34,"N_COORD97":2545964.7400000002,"ADDRESS":"中山東路６８巷３弄７號","OBJECTID":218672},"geometry":{"x":171653.33999999985,"y":2545964.7400000002}},{"attributes":{"ID":218674,"DIS_CODE":0,"TOWNNAME":"善化區","LI":"光文里","LIN":"28鄰","STREET":"建國路","SECT":" ","MAREA":" ","LANE":" ","ALLEY":" ","HOUSE_NO":"２２９之１號","E_COORD97":177894.47,"N_COORD97":2559247.5299999998,"ADDRESS":"建國路２２９之１號","OBJECTID":218673},"geometry":{"x":177894.4700000016,"y":2559247.5300000012}},{"attributes":{"ID":218675,"DIS_CODE":0,"TOWNNAME":"永康區","LI":"五王里","LIN":"29鄰","STREET":"中山東路","SECT":" ","MAREA":" ","LANE":"６８巷","ALLEY":"３弄","HOUSE_NO":"１７號","E_COORD97":171664.34,"N_COORD97":2545939.9900000002,"ADDRESS":"中山東路６８巷３弄１７號","OBJECTID":218674},"geometry":{"x":171664.34000000078,"y":2545939.9900000039}},{"attributes":{"ID":218676,"DIS_CODE":0,"TOWNNAME":"南區","LI":"文南里","LIN":"28鄰","STREET":"中華西路","SECT":"一段","MAREA":" ","LANE":"１３７巷","ALLEY":" ","HOUSE_NO":"６９號","E_COORD97":166270.76999999999,"N_COORD97":2542487.0099999998,"ADDRESS":"中華西路一段１３７巷６９號","OBJECTID":218675},"geometry":{"x":166270.77000000048,"y":2542487.0099999998}},{"attributes":{"ID":218677,"DIS_CODE":0,"TOWNNAME":"安南區","LI":"溪墘里","LIN":"28鄰","STREET":"海佃路","SECT":"一段","MAREA":" ","LANE":" ","ALLEY":" ","HOUSE_NO":"５２號","E_COORD97":167223.23999999999,"N_COORD97":2546859.9199999999,"ADDRESS":"海佃路一段５２號","OBJECTID":218676},"geometry":{"x":167223.24000000022,"y":2546859.9200000018}},{"attributes":{"ID":218678,"DIS_CODE":0,"TOWNNAME":"善化區","LI":"溪美里","LIN":"20鄰","STREET":" ","SECT":" ","MAREA":"溪尾","LANE":" ","ALLEY":" ","HOUSE_NO":"１７８號之１４","E_COORD97":176910.17000000001,"N_COORD97":2561260.52,"ADDRESS":"溪尾１７８號之１４","OBJECTID":218677},"geometry":{"x":176910.17000000179,"y":2561260.5200000033}},{"attributes":{"ID":218679,"DIS_CODE":0,"TOWNNAME":"仁德區","LI":"上崙里","LIN":"28鄰","STREET":"中正路","SECT":"一段","MAREA":" ","LANE":" ","ALLEY":" ","HOUSE_NO":"６７０號","E_COORD97":172872.44,"N_COORD97":2537570.02,"ADDRESS":"中正路一段６７０號","OBJECTID":218678},"geometry":{"x":172872.43999999948,"y":2537570.0200000014}},{"attributes":{"ID":218680,"DIS_CODE":0,"TOWNNAME":"仁德區","LI":"上崙里","LIN":"28鄰","STREET":"中正路","SECT":"一段","MAREA":" ","LANE":" ","ALLEY":" ","HOUSE_NO":"６６６號","E_COORD97":172870.04000000001,"N_COORD97":2537561.77,"ADDRESS":"中正路一段６６６號","OBJECTID":218679},"geometry":{"x":172870.04000000097,"y":2537561.7699999996}},{"attributes":{"ID":218681,"DIS_CODE":0,"TOWNNAME":"仁德區","LI":"仁愛里","LIN":"28鄰","STREET":"機場路","SECT":" ","MAREA":" ","LANE":" ","ALLEY":" ","HOUSE_NO":"１２３２號","E_COORD97":169719.79999999999,"N_COORD97":2539172.2999999998,"ADDRESS":"機場路１２３２號","OBJECTID":218680},"geometry":{"x":169719.80000000168,"y":2539172.3000000026}},{"attributes":{"ID":218682,"DIS_CODE":0,"TOWNNAME":"善化區","LI":"溪美里","LIN":"20鄰","STREET":" ","SECT":" ","MAREA":"溪尾","LANE":" ","ALLEY":" ","HOUSE_NO":"１７８號之９","E_COORD97":176887.32000000001,"N_COORD97":2561229.27,"ADDRESS":"溪尾１７８號之９","OBJECTID":218681},"geometry":{"x":176887.31999999937,"y":2561229.2700000014}},{"attributes":{"ID":218683,"DIS_CODE":0,"TOWNNAME":"安定區","LI":"港口里","LIN":"20鄰","STREET":" ","SECT":" ","MAREA":"港口","LANE":" ","ALLEY":" ","HOUSE_NO":"３９９之７７號","E_COORD97":171588.34,"N_COORD97":2554995.2999999998,"ADDRESS":"港口３９９之７７號","OBJECTID":218682},"geometry":{"x":171588.34000000078,"y":2554995.3000000026}},{"attributes":{"ID":218684,"DIS_CODE":0,"TOWNNAME":"安定區","LI":"蘇林里","LIN":"24鄰","STREET":" ","SECT":" ","MAREA":"蘇厝","LANE":" ","ALLEY":" ","HOUSE_NO":"２７２號之１","E_COORD97":173411.04999999999,"N_COORD97":2558589.2999999998,"ADDRESS":"蘇厝２７２號之１","OBJECTID":218683},"geometry":{"x":173411.05000000075,"y":2558589.3000000026}},{"attributes":{"ID":218685,"DIS_CODE":0,"TOWNNAME":"安定區","LI":"海寮里","LIN":"14鄰","STREET":" ","SECT":" ","MAREA":"海寮","LANE":" ","ALLEY":" ","HOUSE_NO":"１３２號之８２","E_COORD97":168995.06,"N_COORD97":2555404.2999999998,"ADDRESS":"海寮１３２號之８２","OBJECTID":218684},"geometry":{"x":168995.05999999959,"y":2555404.2999999989}},{"attributes":{"ID":218686,"DIS_CODE":0,"TOWNNAME":"安定區","LI":"海寮里","LIN":"14鄰","STREET":" ","SECT":" ","MAREA":"海寮","LANE":" ","ALLEY":" ","HOUSE_NO":"１３２之８５號","E_COORD97":168997.98999999999,"N_COORD97":2555392.2999999998,"ADDRESS":"海寮１３２之８５號","OBJECTID":218685},"geometry":{"x":168997.99000000022,"y":2555392.3000000026}},{"attributes":{"ID":218687,"DIS_CODE":0,"TOWNNAME":"安定區","LI":"港口里","LIN":"14鄰","STREET":" ","SECT":" ","MAREA":"港口","LANE":" ","ALLEY":" ","HOUSE_NO":"３３２之８號","E_COORD97":171137.19,"N_COORD97":2554739.2999999998,"ADDRESS":"港口３３２之８號","OBJECTID":218686},"geometry":{"x":171137.19000000134,"y":2554739.3000000007}},{"attributes":{"ID":218688,"DIS_CODE":0,"TOWNNAME":"安定區","LI":"海寮里","LIN":"17鄰","STREET":" ","SECT":" ","MAREA":"海寮","LANE":" ","ALLEY":" ","HOUSE_NO":"１６３號之１","E_COORD97":169307.07999999999,"N_COORD97":2555429.2999999998,"ADDRESS":"海寮１６３號之１","OBJECTID":218687},"geometry":{"x":169307.08000000101,"y":2555429.3000000026}},{"attributes":{"ID":218689,"DIS_CODE":0,"TOWNNAME":"安定區","LI":"海寮里","LIN":"17鄰","STREET":" ","SECT":" ","MAREA":"海寮","LANE":" ","ALLEY":" ","HOUSE_NO":"１６３之３號","E_COORD97":169315.08347099999,"N_COORD97":2555432.58311,"ADDRESS":"海寮１６３之３號","OBJECTID":218688},"geometry":{"x":169315.08347100019,"y":2555432.5831070021}},{"attributes":{"ID":218690,"DIS_CODE":0,"TOWNNAME":"永康區","LI":"五王里","LIN":"29鄰","STREET":"中山東路","SECT":" ","MAREA":" ","LANE":"６８巷","ALLEY":"１５弄","HOUSE_NO":"３號","E_COORD97":171620.98000000001,"N_COORD97":2545943.7000000002,"ADDRESS":"中山東路６８巷１５弄３號","OBJECTID":218689},"geometry":{"x":171620.98000000045,"y":2545943.6999999993}},{"attributes":{"ID":218691,"DIS_CODE":0,"TOWNNAME":"仁德區","LI":"上崙里","LIN":"28鄰","STREET":"中正路","SECT":"一段","MAREA":" ","LANE":" ","ALLEY":" ","HOUSE_NO":"６６８號","E_COORD97":172871.26999999999,"N_COORD97":2537566.27,"ADDRESS":"中正路一段６６８號","OBJECTID":218690},"geometry":{"x":172871.27000000048,"y":2537566.2699999996}},{"attributes":{"ID":218692,"DIS_CODE":0,"TOWNNAME":"東區","LI":"忠孝里","LIN":"28鄰","STREET":"中華東路","SECT":"三段","MAREA":" ","LANE":" ","ALLEY":" ","HOUSE_NO":"４５８號","E_COORD97":169882.97,"N_COORD97":2541552.75,"ADDRESS":"中華東路三段４５８號","OBJECTID":218691},"geometry":{"x":169882.9700000016,"y":2541552.75}},{"attributes":{"ID":218693,"DIS_CODE":0,"TOWNNAME":"東區","LI":"後甲里","LIN":"28鄰","STREET":"裕永一街","SECT":" ","MAREA":" ","LANE":" ","ALLEY":" ","HOUSE_NO":"２７０號","E_COORD97":172750.09,"N_COORD97":2543462.96,"ADDRESS":"裕永一街２７０號","OBJECTID":218692},"geometry":{"x":172750.08999999985,"y":2543462.9600000028}},{"attributes":{"ID":218694,"DIS_CODE":0,"TOWNNAME":"東區","LI":"後甲里","LIN":"28鄰","STREET":"裕永一街","SECT":" ","MAREA":" ","LANE":" ","ALLEY":" ","HOUSE_NO":"２７２號","E_COORD97":172754.54000000001,"N_COORD97":2543466.7400000002,"ADDRESS":"裕永一街２７２號","OBJECTID":218693},"geometry":{"x":172754.5400000019,"y":2543466.7400000039}},{"attributes":{"ID":218695,"DIS_CODE":0,"TOWNNAME":"東區","LI":"富強里","LIN":"5鄰","STREET":"東門路","SECT":"二段","MAREA":" ","LANE":"３０１巷","ALLEY":"１２０弄","HOUSE_NO":"１６號","E_COORD97":171023.94,"N_COORD97":2542693.5,"ADDRESS":"東門路二段３０１巷１２０弄１６號","OBJECTID":218694},"geometry":{"x":171023.94000000041,"y":2542693.5000000019}},{"attributes":{"ID":218696,"DIS_CODE":0,"TOWNNAME":"東區","LI":"富強里","LIN":"5鄰","STREET":"東門路","SECT":"二段","MAREA":" ","LANE":"３０１巷","ALLEY":"１２０弄","HOUSE_NO":"１０號","E_COORD97":171021.89000000001,"N_COORD97":2542706.3399999999,"ADDRESS":"東門路二段３０１巷１２０弄１０號","OBJECTID":218695},"geometry":{"x":171021.88999999966,"y":2542706.3400000036}},{"attributes":{"ID":218697,"DIS_CODE":0,"TOWNNAME":"東區","LI":"後甲里","LIN":"28鄰","STREET":"裕永一街","SECT":" ","MAREA":" ","LANE":" ","ALLEY":" ","HOUSE_NO":"２３８號","E_COORD97":172722.56,"N_COORD97":2543464.4399999999,"ADDRESS":"裕永一街２３８號","OBJECTID":218696},"geometry":{"x":172722.55999999959,"y":2543464.4399999976}},{"attributes":{"ID":218698,"DIS_CODE":0,"TOWNNAME":"東區","LI":"後甲里","LIN":"28鄰","STREET":"裕永一街","SECT":" ","MAREA":" ","LANE":" ","ALLEY":" ","HOUSE_NO":"２３０號","E_COORD97":172705.82000000001,"N_COORD97":2543467.0099999998,"ADDRESS":"裕永一街２３０號","OBJECTID":218697},"geometry":{"x":172705.82000000123,"y":2543467.0099999998}},{"attributes":{"ID":218699,"DIS_CODE":0,"TOWNNAME":"東區","LI":"後甲里","LIN":"28鄰","STREET":"裕永一街","SECT":" ","MAREA":" ","LANE":" ","ALLEY":" ","HOUSE_NO":"２３２號","E_COORD97":172710.82000000001,"N_COORD97":2543464.4399999999,"ADDRESS":"裕永一街２３２號","OBJECTID":218698},"geometry":{"x":172710.82000000123,"y":2543464.4399999976}},{"attributes":{"ID":218700,"DIS_CODE":0,"TOWNNAME":"東區","LI":"富強里","LIN":"5鄰","STREET":"東門路","SECT":"二段","MAREA":" ","LANE":"３０１巷","ALLEY":"１２０弄","HOUSE_NO":"１２號","E_COORD97":171022.57000000001,"N_COORD97":2542701.7200000002,"ADDRESS":"東門路二段３０１巷１２０弄１２號","OBJECTID":218699},"geometry":{"x":171022.57000000123,"y":2542701.7200000025}},{"attributes":{"ID":218701,"DIS_CODE":0,"TOWNNAME":"永康區","LI":"五王里","LIN":"29鄰","STREET":"中山東路","SECT":" ","MAREA":" ","LANE":"６８巷","ALLEY":"１弄","HOUSE_NO":"１０號","E_COORD97":171674.54999999999,"N_COORD97":2545972.79,"ADDRESS":"中山東路６８巷１弄１０號","OBJECTID":218700},"geometry":{"x":171674.55000000075,"y":2545972.7899999991}},{"attributes":{"ID":218702,"DIS_CODE":0,"TOWNNAME":"東區","LI":"後甲里","LIN":"28鄰","STREET":"裕永一街","SECT":" ","MAREA":" ","LANE":" ","ALLEY":" ","HOUSE_NO":"２３６號","E_COORD97":172717.01999999999,"N_COORD97":2543466.4700000002,"ADDRESS":"裕永一街２３６號","OBJECTID":218701},"geometry":{"x":172717.02000000048,"y":2543466.4700000025}},{"attributes":{"ID":218703,"DIS_CODE":0,"TOWNNAME":"東區","LI":"富強里","LIN":"5鄰","STREET":"東門路","SECT":"二段","MAREA":" ","LANE":"３０１巷","ALLEY":"１２０弄","HOUSE_NO":"１４號","E_COORD97":171023.09,"N_COORD97":2542697.7799999998,"ADDRESS":"東門路二段３０１巷１２０弄１４號","OBJECTID":218702},"geometry":{"x":171023.08999999892,"y":2542697.7799999993}},{"attributes":{"ID":218704,"DIS_CODE":0,"TOWNNAME":"東區","LI":"崇文里","LIN":"28鄰","STREET":"崇德二十三街","SECT":" ","MAREA":" ","LANE":" ","ALLEY":" ","HOUSE_NO":"３６號","E_COORD97":170896.60000000001,"N_COORD97":2540742.23,"ADDRESS":"崇德二十三街３６號","OBJECTID":218703},"geometry":{"x":170896.59999999963,"y":2540742.2300000023}},{"attributes":{"ID":218705,"DIS_CODE":0,"TOWNNAME":"東區","LI":"富強里","LIN":"5鄰","STREET":"東門路","SECT":"二段","MAREA":" ","LANE":"３０１巷","ALLEY":"１２０弄","HOUSE_NO":"２０號","E_COORD97":171024.12,"N_COORD97":2542684.0899999999,"ADDRESS":"東門路二段３０１巷１２０弄２０號","OBJECTID":218704},"geometry":{"x":171024.12000000011,"y":2542684.089999998}},{"attributes":{"ID":218706,"DIS_CODE":0,"TOWNNAME":"東區","LI":"富強里","LIN":"5鄰","STREET":"東門路","SECT":"二段","MAREA":" ","LANE":"３０１巷","ALLEY":"１２０弄","HOUSE_NO":"２２號","E_COORD97":171011.51000000001,"N_COORD97":2542691.9100000001,"ADDRESS":"東門路二段３０１巷１２０弄２２號","OBJECTID":218705},"geometry":{"x":171011.50999999978,"y":2542691.9100000001}},{"attributes":{"ID":218707,"DIS_CODE":0,"TOWNNAME":"東區","LI":"富強里","LIN":"5鄰","STREET":"東門路","SECT":"二段","MAREA":" ","LANE":"３０１巷","ALLEY":"１２０弄","HOUSE_NO":"２４號","E_COORD97":171006.70999999999,"N_COORD97":2542689.8500000001,"ADDRESS":"東門路二段３０１巷１２０弄２４號","OBJECTID":218706},"geometry":{"x":171006.70999999996,"y":2542689.8500000015}},{"attributes":{"ID":218708,"DIS_CODE":0,"TOWNNAME":"安定區","LI":"新吉里","LIN":"8鄰","STREET":" ","SECT":" ","MAREA":"新吉","LANE":" ","ALLEY":" ","HOUSE_NO":"６９號之１","E_COORD97":169127.20000000001,"N_COORD97":2553958.2999999998,"ADDRESS":"新吉６９號之１","OBJECTID":218707},"geometry":{"x":169127.20000000019,"y":2553958.3000000026}},{"attributes":{"ID":218709,"DIS_CODE":0,"TOWNNAME":"安定區","LI":"港南里","LIN":"4鄰","STREET":" ","SECT":" ","MAREA":"港口","LANE":" ","ALLEY":" ","HOUSE_NO":"２７號之１１","E_COORD97":171504.03,"N_COORD97":2554010.2999999998,"ADDRESS":"港口２７號之１１","OBJECTID":218708},"geometry":{"x":171504.03000000119,"y":2554010.3000000007}},{"attributes":{"ID":218710,"DIS_CODE":0,"TOWNNAME":"安定區","LI":"六嘉里","LIN":"4鄰","STREET":" ","SECT":" ","MAREA":"六塊寮","LANE":" ","ALLEY":" ","HOUSE_NO":"３０之４５號","E_COORD97":169747.47,"N_COORD97":2553261.2999999998,"ADDRESS":"六塊寮３０之４５號","OBJECTID":218709},"geometry":{"x":169747.4700000016,"y":2553261.3000000007}},{"attributes":{"ID":218711,"DIS_CODE":0,"TOWNNAME":"安定區","LI":"中沙里","LIN":"4鄰","STREET":" ","SECT":" ","MAREA":"中崙","LANE":" ","ALLEY":" ","HOUSE_NO":"１之１３號","E_COORD97":169440.45999999999,"N_COORD97":2552771.2999999998,"ADDRESS":"中崙１之１３號","OBJECTID":218710},"geometry":{"x":169440.45999999996,"y":2552771.3000000026}},{"attributes":{"ID":218712,"DIS_CODE":0,"TOWNNAME":"安定區","LI":"新吉里","LIN":"18鄰","STREET":" ","SECT":" ","MAREA":"新吉","LANE":" ","ALLEY":" ","HOUSE_NO":"２８２號","E_COORD97":168376.82000000001,"N_COORD97":2554133.25,"ADDRESS":"新吉２８２號","OBJECTID":218711},"geometry":{"x":168376.8200000003,"y":2554133.2500000019}},{"attributes":{"ID":218713,"DIS_CODE":0,"TOWNNAME":"安定區","LI":"港口里","LIN":"20鄰","STREET":" ","SECT":" ","MAREA":"港口","LANE":" ","ALLEY":" ","HOUSE_NO":"３９３號之２４","E_COORD97":171519.29999999999,"N_COORD97":2555027.2999999998,"ADDRESS":"港口３９３號之２４","OBJECTID":218712},"geometry":{"x":171519.29999999981,"y":2555027.3000000007}},{"attributes":{"ID":218714,"DIS_CODE":0,"TOWNNAME":"安定區","LI":"蘇林里","LIN":"20鄰","STREET":" ","SECT":" ","MAREA":"蘇厝","LANE":" ","ALLEY":" ","HOUSE_NO":"２３０號之１","E_COORD97":173394.45000000001,"N_COORD97":2558792.2999999998,"ADDRESS":"蘇厝２３０號之１","OBJECTID":218713},"geometry":{"x":173394.45000000205,"y":2558792.3000000026}},{"attributes":{"ID":218715,"DIS_CODE":0,"TOWNNAME":"安定區","LI":"蘇厝里","LIN":"13鄰","STREET":" ","SECT":" ","MAREA":"蘇厝","LANE":" ","ALLEY":" ","HOUSE_NO":"３９８之１號","E_COORD97":173004.82000000001,"N_COORD97":2558850.2999999998,"ADDRESS":"蘇厝３９８之１號","OBJECTID":218714},"geometry":{"x":173004.8200000003,"y":2558850.3000000026}},{"attributes":{"ID":218716,"DIS_CODE":0,"TOWNNAME":"安定區","LI":"蘇厝里","LIN":"14鄰","STREET":" ","SECT":" ","MAREA":"蘇厝","LANE":" ","ALLEY":" ","HOUSE_NO":"４１８之１號","E_COORD97":173074.01999999999,"N_COORD97":2558732.2999999998,"ADDRESS":"蘇厝４１８之１號","OBJECTID":218715},"geometry":{"x":173074.01999999955,"y":2558732.3000000007}},{"attributes":{"ID":218717,"DIS_CODE":0,"TOWNNAME":"安定區","LI":"安加里","LIN":"8鄰","STREET":" ","SECT":" ","MAREA":"安定","LANE":" ","ALLEY":" ","HOUSE_NO":"２３８之１號","E_COORD97":171913.36054299999,"N_COORD97":2557486.2143299999,"ADDRESS":"安定２３８號之１","OBJECTID":218716},"geometry":{"x":171913.36054300051,"y":2557486.2143310048}},{"attributes":{"ID":218718,"DIS_CODE":0,"TOWNNAME":"安定區","LI":"六嘉里","LIN":"4鄰","STREET":" ","SECT":" ","MAREA":"六塊寮","LANE":" ","ALLEY":" ","HOUSE_NO":"３０之２９號","E_COORD97":169962.47,"N_COORD97":2553477.2999999998,"ADDRESS":"六塊寮３０之２９號","OBJECTID":218717},"geometry":{"x":169962.46999999974,"y":2553477.3000000007}},{"attributes":{"ID":218719,"DIS_CODE":0,"TOWNNAME":"安定區","LI":"港南里","LIN":"4鄰","STREET":" ","SECT":" ","MAREA":"港口","LANE":" ","ALLEY":" ","HOUSE_NO":"２８號之１","E_COORD97":171618.17999999999,"N_COORD97":2553920.2999999998,"ADDRESS":"港口２８號之１","OBJECTID":218718},"geometry":{"x":171618.18000000063,"y":2553920.3000000026}},{"attributes":{"ID":218720,"DIS_CODE":0,"TOWNNAME":"安定區","LI":"六嘉里","LIN":"4鄰","STREET":" ","SECT":" ","MAREA":"六塊寮","LANE":" ","ALLEY":" ","HOUSE_NO":"３０之４１號","E_COORD97":169858.57000000001,"N_COORD97":2553243.2999999998,"ADDRESS":"六塊寮３０之４１號","OBJECTID":218719},"geometry":{"x":169858.5700000003,"y":2553243.3000000007}},{"attributes":{"ID":218721,"DIS_CODE":0,"TOWNNAME":"安定區","LI":"六嘉里","LIN":"4鄰","STREET":" ","SECT":" ","MAREA":"六塊寮","LANE":" ","ALLEY":" ","HOUSE_NO":"３１之６號","E_COORD97":170061.51999999999,"N_COORD97":2553422.2999999998,"ADDRESS":"六塊寮３１之６號","OBJECTID":218720},"geometry":{"x":170061.51999999955,"y":2553422.3000000026}},{"attributes":{"ID":218722,"DIS_CODE":0,"TOWNNAME":"東區","LI":"富強里","LIN":"5鄰","STREET":"東門路","SECT":"二段","MAREA":" ","LANE":"３０１巷","ALLEY":"１２０弄","HOUSE_NO":"２６號","E_COORD97":171003.10999999999,"N_COORD97":2542690.8799999999,"ADDRESS":"東門路二段３０１巷１２０弄２６號","OBJECTID":218721},"geometry":{"x":171003.1099999994,"y":2542690.879999999}},{"attributes":{"ID":218723,"DIS_CODE":0,"TOWNNAME":"東區","LI":"富強里","LIN":"5鄰","STREET":"東門路","SECT":"二段","MAREA":" ","LANE":"３０１巷","ALLEY":"１２０弄","HOUSE_NO":"２８號","E_COORD97":170998.82999999999,"N_COORD97":2542688.8300000001,"ADDRESS":"東門路二段３０１巷１２０弄２８號","OBJECTID":218722},"geometry":{"x":170998.83000000101,"y":2542688.8300000001}},{"attributes":{"ID":218724,"DIS_CODE":0,"TOWNNAME":"東區","LI":"富強里","LIN":"5鄰","STREET":"東門路","SECT":"二段","MAREA":" ","LANE":"３０１巷","ALLEY":"１２０弄","HOUSE_NO":"２號","E_COORD97":171018.45999999999,"N_COORD97":2542723.9700000002,"ADDRESS":"東門路二段３０１巷１２０弄２號","OBJECTID":218723},"geometry":{"x":171018.45999999996,"y":2542723.9700000025}},{"attributes":{"ID":218725,"DIS_CODE":0,"TOWNNAME":"東區","LI":"富強里","LIN":"5鄰","STREET":"東門路","SECT":"二段","MAREA":" ","LANE":"３０１巷","ALLEY":"１２０弄","HOUSE_NO":"３０號","E_COORD97":170994.54000000001,"N_COORD97":2542691.7400000002,"ADDRESS":"東門路二段３０１巷１２０弄３０號","OBJECTID":218724},"geometry":{"x":170994.54000000004,"y":2542691.7400000021}},{"attributes":{"ID":218726,"DIS_CODE":0,"TOWNNAME":"東區","LI":"後甲里","LIN":"28鄰","STREET":"裕永一街","SECT":" ","MAREA":" ","LANE":" ","ALLEY":" ","HOUSE_NO":"２０８號","E_COORD97":172659.13,"N_COORD97":2543454.7400000002,"ADDRESS":"裕永一街２０８號","OBJECTID":218725},"geometry":{"x":172659.13000000082,"y":2543454.7400000021}},{"attributes":{"ID":218727,"DIS_CODE":0,"TOWNNAME":"東區","LI":"富強里","LIN":"5鄰","STREET":"東門路","SECT":"二段","MAREA":" ","LANE":"３０１巷","ALLEY":"１２０弄","HOUSE_NO":"３４號","E_COORD97":170985.64000000001,"N_COORD97":2542689.1699999999,"ADDRESS":"東門路二段３０１巷１２０弄３４號","OBJECTID":218726},"geometry":{"x":170985.6400000006,"y":2542689.1699999999}},{"attributes":{"ID":218728,"DIS_CODE":0,"TOWNNAME":"仁德區","LI":"成功里","LIN":"29鄰","STREET":"成功一街","SECT":" ","MAREA":" ","LANE":"１巷","ALLEY":"２４弄","HOUSE_NO":"１號","E_COORD97":170669.34,"N_COORD97":2540197.77,"ADDRESS":"成功一街１巷２４弄１號","OBJECTID":218727},"geometry":{"x":170669.34000000078,"y":2540197.7700000033}},{"attributes":{"ID":218729,"DIS_CODE":0,"TOWNNAME":"仁德區","LI":"成功里","LIN":"29鄰","STREET":"成功一街","SECT":" ","MAREA":" ","LANE":"１巷","ALLEY":"２４弄","HOUSE_NO":"１５號","E_COORD97":170668.45999999999,"N_COORD97":2540146.5099999998,"ADDRESS":"成功一街１巷２４弄１５號","OBJECTID":218728},"geometry":{"x":170668.46000000089,"y":2540146.5100000016}},{"attributes":{"ID":218730,"DIS_CODE":0,"TOWNNAME":"仁德區","LI":"後壁里","LIN":"29鄰","STREET":"德洋一街","SECT":" ","MAREA":" ","LANE":"３０巷","ALLEY":"１９弄","HOUSE_NO":"４號","E_COORD97":173176.88,"N_COORD97":2539175.6000000001,"ADDRESS":"德洋一街３０巷１９弄４號","OBJECTID":218729},"geometry":{"x":173176.87999999989,"y":2539175.6000000015}},{"attributes":{"ID":218731,"DIS_CODE":0,"TOWNNAME":"東區","LI":"後甲里","LIN":"28鄰","STREET":"裕農路","SECT":" ","MAREA":" ","LANE":" ","ALLEY":" ","HOUSE_NO":"９７７號","E_COORD97":172872.26999999999,"N_COORD97":2543556.4300000002,"ADDRESS":"裕農路９７７號","OBJECTID":218730},"geometry":{"x":172872.26999999955,"y":2543556.4300000034}},{"attributes":{"ID":218732,"DIS_CODE":0,"TOWNNAME":"仁德區","LI":"後壁里","LIN":"29鄰","STREET":"德洋一街","SECT":" ","MAREA":" ","LANE":"３０巷","ALLEY":"１９弄","HOUSE_NO":"７號","E_COORD97":173173.45999999999,"N_COORD97":2539158.3500000001,"ADDRESS":"德洋一街３０巷１９弄７號","OBJECTID":218731},"geometry":{"x":173173.45999999996,"y":2539158.3499999996}},{"attributes":{"ID":218733,"DIS_CODE":0,"TOWNNAME":"仁德區","LI":"後壁里","LIN":"29鄰","STREET":"德洋一街","SECT":" ","MAREA":" ","LANE":"３０巷","ALLEY":"１９弄","HOUSE_NO":"３號","E_COORD97":173166.88,"N_COORD97":2539163.8500000001,"ADDRESS":"德洋一街３０巷１９弄３號","OBJECTID":218732},"geometry":{"x":173166.87999999989,"y":2539163.8500000015}},{"attributes":{"ID":218734,"DIS_CODE":0,"TOWNNAME":"仁德區","LI":"後壁里","LIN":"29鄰","STREET":"德洋一街","SECT":" ","MAREA":" ","LANE":"３０巷","ALLEY":"１９弄","HOUSE_NO":"５號","E_COORD97":173169.92999999999,"N_COORD97":2539161.1000000001,"ADDRESS":"德洋一街３０巷１９弄５號","OBJECTID":218733},"geometry":{"x":173169.9299999997,"y":2539161.0999999978}},{"attributes":{"ID":218735,"DIS_CODE":0,"TOWNNAME":"仁德區","LI":"後壁里","LIN":"29鄰","STREET":"德洋一街","SECT":" ","MAREA":" ","LANE":"３０巷","ALLEY":"１９弄","HOUSE_NO":"８號","E_COORD97":173182.85999999999,"N_COORD97":2539170.6000000001,"ADDRESS":"德洋一街３０巷１９弄８號","OBJECTID":218734},"geometry":{"x":173182.86000000034,"y":2539170.5999999996}},{"attributes":{"ID":218736,"DIS_CODE":0,"TOWNNAME":"仁德區","LI":"後壁里","LIN":"29鄰","STREET":"德洋一街","SECT":" ","MAREA":" ","LANE":"３０巷","ALLEY":"１９弄","HOUSE_NO":"１號","E_COORD97":173163.69,"N_COORD97":2539166.8500000001,"ADDRESS":"德洋一街３０巷１９弄１號","OBJECTID":218735},"geometry":{"x":173163.69000000041,"y":2539166.8500000015}},{"attributes":{"ID":218737,"DIS_CODE":0,"TOWNNAME":"東區","LI":"泉南里","LIN":"28鄰","STREET":"長榮路","SECT":"一段","MAREA":" ","LANE":" ","ALLEY":" ","HOUSE_NO":"８５號","E_COORD97":169682.03,"N_COORD97":2542598.79,"ADDRESS":"長榮路一段８５號","OBJECTID":218736},"geometry":{"x":169682.03000000119,"y":2542598.790000001}},{"attributes":{"ID":218738,"DIS_CODE":0,"TOWNNAME":"仁德區","LI":"後壁里","LIN":"29鄰","STREET":"德洋一街","SECT":" ","MAREA":" ","LANE":"３０巷","ALLEY":"１９弄","HOUSE_NO":"６號","E_COORD97":173179.72,"N_COORD97":2539173.1000000001,"ADDRESS":"德洋一街３０巷１９弄６號","OBJECTID":218737},"geometry":{"x":173179.71999999974,"y":2539173.1000000015}},{"attributes":{"ID":218739,"DIS_CODE":0,"TOWNNAME":"仁德區","LI":"後壁里","LIN":"29鄰","STREET":"德洋一街","SECT":" ","MAREA":" ","LANE":"３０巷","ALLEY":"１９弄","HOUSE_NO":"１０號","E_COORD97":173187.45999999999,"N_COORD97":2539167.3500000001,"ADDRESS":"德洋一街３０巷１９弄１０號","OBJECTID":218738},"geometry":{"x":173187.46000000089,"y":2539167.3500000015}},{"attributes":{"ID":218740,"DIS_CODE":0,"TOWNNAME":"東區","LI":"富強里","LIN":"25鄰","STREET":"裕農路","SECT":" ","MAREA":" ","LANE":"４４６巷","ALLEY":"５２弄","HOUSE_NO":"１０號","E_COORD97":171216.67000000001,"N_COORD97":2543005.4399999999,"ADDRESS":"裕農路４４６巷５２弄１０號","OBJECTID":218739},"geometry":{"x":171216.67000000086,"y":2543005.4399999995}},{"attributes":{"ID":218741,"DIS_CODE":0,"TOWNNAME":"永康區","LI":"五王里","LIN":"29鄰","STREET":"中山東路","SECT":" ","MAREA":" ","LANE":"６８巷","ALLEY":"１５弄","HOUSE_NO":"１８號","E_COORD97":171618.42999999999,"N_COORD97":2545915.9500000002,"ADDRESS":"中山東路６８巷１５弄１８號","OBJECTID":218740},"geometry":{"x":171618.4299999997,"y":2545915.9500000011}},{"attributes":{"ID":218742,"DIS_CODE":0,"TOWNNAME":"永康區","LI":"五王里","LIN":"29鄰","STREET":"中山東路","SECT":" ","MAREA":" ","LANE":"６８巷","ALLEY":"３弄","HOUSE_NO":"２０號","E_COORD97":171651.12,"N_COORD97":2545925.0600000001,"ADDRESS":"中山東路６８巷３弄２０號","OBJECTID":218741},"geometry":{"x":171651.12000000104,"y":2545925.0600000005}},{"attributes":{"ID":218743,"DIS_CODE":0,"TOWNNAME":"永康區","LI":"五王里","LIN":"29鄰","STREET":"中山東路","SECT":" ","MAREA":" ","LANE":"６８巷","ALLEY":"１５弄","HOUSE_NO":"８號","E_COORD97":171608.98000000001,"N_COORD97":2545935.4500000002,"ADDRESS":"中山東路６８巷１５弄８號","OBJECTID":218742},"geometry":{"x":171608.98000000045,"y":2545935.4499999993}},{"attributes":{"ID":218744,"DIS_CODE":0,"TOWNNAME":"永康區","LI":"五王里","LIN":"29鄰","STREET":"中山東路","SECT":" ","MAREA":" ","LANE":"６８巷","ALLEY":"１５弄","HOUSE_NO":"１１號","E_COORD97":171631.04999999999,"N_COORD97":2545922.96,"ADDRESS":"中山東路６８巷１５弄１１號","OBJECTID":218743},"geometry":{"x":171631.05000000075,"y":2545922.9600000009}},{"attributes":{"ID":218745,"DIS_CODE":0,"TOWNNAME":"永康區","LI":"五王里","LIN":"29鄰","STREET":"中山東路","SECT":" ","MAREA":" ","LANE":"６８巷","ALLEY":"１弄","HOUSE_NO":"６號","E_COORD97":171669.5,"N_COORD97":2545983.04,"ADDRESS":"中山東路６８巷１弄６號","OBJECTID":218744},"geometry":{"x":171669.5,"y":2545983.040000001}},{"attributes":{"ID":218746,"DIS_CODE":0,"TOWNNAME":"東區","LI":"泉南里","LIN":"28鄰","STREET":"長榮路","SECT":"一段","MAREA":" ","LANE":" ","ALLEY":" ","HOUSE_NO":"８５號地下一層","E_COORD97":169682.03,"N_COORD97":2542598.79,"ADDRESS":"長榮路一段８５號地下一層","OBJECTID":218745},"geometry":{"x":169682.03000000119,"y":2542598.790000001}},{"attributes":{"ID":218747,"DIS_CODE":0,"TOWNNAME":"東區","LI":"泉南里","LIN":"28鄰","STREET":"長榮路","SECT":"一段","MAREA":" ","LANE":" ","ALLEY":" ","HOUSE_NO":"１１９號","E_COORD97":169759.29999999999,"N_COORD97":2542660.2200000002,"ADDRESS":"長榮路一段１１９號","OBJECTID":218746},"geometry":{"x":169759.30000000075,"y":2542660.2200000007}},{"attributes":{"ID":218748,"DIS_CODE":0,"TOWNNAME":"安定區","LI":"港南里","LIN":"4鄰","STREET":" ","SECT":" ","MAREA":"港口","LANE":" ","ALLEY":" ","HOUSE_NO":"３１號之２","E_COORD97":171594.60999999999,"N_COORD97":2554119.2999999998,"ADDRESS":"港口３１號之２","OBJECTID":218747},"geometry":{"x":171594.61000000034,"y":2554119.2999999989}},{"attributes":{"ID":218749,"DIS_CODE":0,"TOWNNAME":"安定區","LI":"港南里","LIN":"4鄰","STREET":" ","SECT":" ","MAREA":"港口","LANE":" ","ALLEY":" ","HOUSE_NO":"２７號之１８","E_COORD97":171505.07000000001,"N_COORD97":2553996.2999999998,"ADDRESS":"港口２７號之１８","OBJECTID":218748},"geometry":{"x":171505.06999999937,"y":2553996.3000000007}},{"attributes":{"ID":218750,"DIS_CODE":0,"TOWNNAME":"安定區","LI":"蘇厝里","LIN":"13鄰","STREET":" ","SECT":" ","MAREA":"蘇厝","LANE":" ","ALLEY":" ","HOUSE_NO":"４００之２號","E_COORD97":173005.72,"N_COORD97":2558785.2999999998,"ADDRESS":"蘇厝４００之２號","OBJECTID":218749},"geometry":{"x":173005.72000000067,"y":2558785.3000000026}},{"attributes":{"ID":218751,"DIS_CODE":0,"TOWNNAME":"安定區","LI":"新吉里","LIN":"13鄰","STREET":" ","SECT":" ","MAREA":"新吉","LANE":" ","ALLEY":" ","HOUSE_NO":"１１０號","E_COORD97":169441.22,"N_COORD97":2554042.25,"ADDRESS":"新吉１１０號","OBJECTID":218750},"geometry":{"x":169441.22000000067,"y":2554042.2500000019}},{"attributes":{"ID":218752,"DIS_CODE":0,"TOWNNAME":"安定區","LI":"港南里","LIN":"4鄰","STREET":" ","SECT":" ","MAREA":"港口","LANE":" ","ALLEY":" ","HOUSE_NO":"２８之１７號","E_COORD97":171641.69,"N_COORD97":2554001.2999999998,"ADDRESS":"港口２８之１７號","OBJECTID":218751},"geometry":{"x":171641.68999999948,"y":2554001.3000000026}},{"attributes":{"ID":218753,"DIS_CODE":0,"TOWNNAME":"安定區","LI":"蘇林里","LIN":"4鄰","STREET":" ","SECT":" ","MAREA":"蘇厝","LANE":" ","ALLEY":" ","HOUSE_NO":"４３號","E_COORD97":173438.87,"N_COORD97":2558738.25,"ADDRESS":"蘇厝４３號","OBJECTID":218752},"geometry":{"x":173438.87000000197,"y":2558738.2500000019}},{"attributes":{"ID":218754,"DIS_CODE":0,"TOWNNAME":"永康區","LI":"五王里","LIN":"29鄰","STREET":"中山東路","SECT":" ","MAREA":" ","LANE":"６８巷","ALLEY":"１５弄","HOUSE_NO":"１２號","E_COORD97":171614.38,"N_COORD97":2545925.7000000002,"ADDRESS":"中山東路６８巷１５弄１２號","OBJECTID":218753},"geometry":{"x":171614.37999999989,"y":2545925.7000000011}},{"attributes":{"ID":218755,"DIS_CODE":0,"TOWNNAME":"永康區","LI":"五王里","LIN":"29鄰","STREET":"中山東路","SECT":" ","MAREA":" ","LANE":"６８巷","ALLEY":"１５弄","HOUSE_NO":"１０號","E_COORD97":171612.26999999999,"N_COORD97":2545930.7000000002,"ADDRESS":"中山東路６８巷１５弄１０號","OBJECTID":218754},"geometry":{"x":171612.27000000048,"y":2545930.6999999974}},{"attributes":{"ID":218756,"DIS_CODE":0,"TOWNNAME":"永康區","LI":"五王里","LIN":"29鄰","STREET":"中山東路","SECT":" ","MAREA":" ","LANE":"６８巷","ALLEY":"３弄","HOUSE_NO":"８號","E_COORD97":171640.16,"N_COORD97":2545949.2999999998,"ADDRESS":"中山東路６８巷３弄８號","OBJECTID":218755},"geometry":{"x":171640.16000000201,"y":2545949.3000000026}},{"attributes":{"ID":218757,"DIS_CODE":0,"TOWNNAME":"善化區","LI":"光文里","LIN":"28鄰","STREET":"和平路","SECT":" ","MAREA":" ","LANE":" ","ALLEY":" ","HOUSE_NO":"２３３號之５","E_COORD97":178042.62,"N_COORD97":2559325.77,"ADDRESS":"和平路２３３號之５","OBJECTID":218756},"geometry":{"x":178042.62000000011,"y":2559325.7699999996}},{"attributes":{"ID":218758,"DIS_CODE":0,"TOWNNAME":"善化區","LI":"光文里","LIN":"28鄰","STREET":"和平路","SECT":" ","MAREA":" ","LANE":" ","ALLEY":" ","HOUSE_NO":"２３３號之１","E_COORD97":178064.23999999999,"N_COORD97":2559327.02,"ADDRESS":"和平路２３３號之１","OBJECTID":218757},"geometry":{"x":178064.23999999929,"y":2559327.0199999996}},{"attributes":{"ID":218759,"DIS_CODE":0,"TOWNNAME":"善化區","LI":"光文里","LIN":"28鄰","STREET":"和平路","SECT":" ","MAREA":" ","LANE":" ","ALLEY":" ","HOUSE_NO":"２３５號之２","E_COORD97":178057.12,"N_COORD97":2559338.02,"ADDRESS":"和平路２３５號之２","OBJECTID":218758},"geometry":{"x":178057.12000000104,"y":2559338.0200000033}},{"attributes":{"ID":218760,"DIS_CODE":0,"TOWNNAME":"善化區","LI":"光文里","LIN":"28鄰","STREET":"和平路","SECT":" ","MAREA":" ","LANE":" ","ALLEY":" ","HOUSE_NO":"２３９號之１","E_COORD97":178067.53,"N_COORD97":2559368.27,"ADDRESS":"和平路２３９號之１","OBJECTID":218759},"geometry":{"x":178067.53000000212,"y":2559368.2700000014}},{"attributes":{"ID":218761,"DIS_CODE":0,"TOWNNAME":"永康區","LI":"五王里","LIN":"29鄰","STREET":"中山東路","SECT":" ","MAREA":" ","LANE":"６８巷","ALLEY":"１弄","HOUSE_NO":"１８號","E_COORD97":171680.29999999999,"N_COORD97":2545957.79,"ADDRESS":"中山東路６８巷１弄１８號","OBJECTID":218760},"geometry":{"x":171680.29999999981,"y":2545957.790000001}},{"attributes":{"ID":218762,"DIS_CODE":0,"TOWNNAME":"永康區","LI":"五王里","LIN":"29鄰","STREET":"中山東路","SECT":" ","MAREA":" ","LANE":"６８巷","ALLEY":"１５弄","HOUSE_NO":"５號","E_COORD97":171623.04000000001,"N_COORD97":2545938.2000000002,"ADDRESS":"中山東路６８巷１５弄５號","OBJECTID":218761},"geometry":{"x":171623.04000000004,"y":2545938.2000000011}},{"attributes":{"ID":218763,"DIS_CODE":0,"TOWNNAME":"永康區","LI":"五王里","LIN":"29鄰","STREET":"中山東路","SECT":" ","MAREA":" ","LANE":"６８巷","ALLEY":"１弄","HOUSE_NO":"３２號","E_COORD97":171692.37,"N_COORD97":2545921.75,"ADDRESS":"中山東路６８巷１弄３２號","OBJECTID":218762},"geometry":{"x":171692.37000000011,"y":2545921.7500000019}},{"attributes":{"ID":218764,"DIS_CODE":0,"TOWNNAME":"西港區","LI":"西港里","LIN":"28鄰","STREET":" ","SECT":" ","MAREA":"堀子頭","LANE":" ","ALLEY":" ","HOUSE_NO":"５９號","E_COORD97":168725.5,"N_COORD97":2557650.6499999999,"ADDRESS":"堀子頭５９號","OBJECTID":218763},"geometry":{"x":168725.50000000093,"y":2557650.6500000022}},{"attributes":{"ID":218765,"DIS_CODE":0,"TOWNNAME":"西港區","LI":"西港里","LIN":"28鄰","STREET":" ","SECT":" ","MAREA":"堀子頭","LANE":" ","ALLEY":" ","HOUSE_NO":"６０號之１","E_COORD97":168758.26000000001,"N_COORD97":2557650.8100000001,"ADDRESS":"堀子頭６０號之１","OBJECTID":218764},"geometry":{"x":168758.25999999978,"y":2557650.8100000005}},{"attributes":{"ID":218766,"DIS_CODE":0,"TOWNNAME":"西港區","LI":"西港里","LIN":"28鄰","STREET":" ","SECT":" ","MAREA":"堀子頭","LANE":" ","ALLEY":" ","HOUSE_NO":"６１號之１","E_COORD97":168788.32999999999,"N_COORD97":2557628.8799999999,"ADDRESS":"堀子頭６１號之１","OBJECTID":218765},"geometry":{"x":168788.33000000101,"y":2557628.879999999}},{"attributes":{"ID":218767,"DIS_CODE":0,"TOWNNAME":"西港區","LI":"西港里","LIN":"28鄰","STREET":" ","SECT":" ","MAREA":"堀子頭","LANE":" ","ALLEY":" ","HOUSE_NO":"６１號之２","E_COORD97":168770.53,"N_COORD97":2557585.0299999998,"ADDRESS":"堀子頭６１號之２","OBJECTID":218766},"geometry":{"x":168770.53000000026,"y":2557585.0300000031}},{"attributes":{"ID":218768,"DIS_CODE":0,"TOWNNAME":"西港區","LI":"西港里","LIN":"28鄰","STREET":" ","SECT":" ","MAREA":"堀子頭","LANE":" ","ALLEY":" ","HOUSE_NO":"６１號之５","E_COORD97":168753.19,"N_COORD97":2557584.4100000001,"ADDRESS":"堀子頭６１號之５","OBJECTID":218767},"geometry":{"x":168753.19000000227,"y":2557584.410000002}},{"attributes":{"ID":218769,"DIS_CODE":0,"TOWNNAME":"西港區","LI":"西港里","LIN":"28鄰","STREET":" ","SECT":" ","MAREA":"堀子頭","LANE":" ","ALLEY":" ","HOUSE_NO":"６１號之６","E_COORD97":168757.56,"N_COORD97":2557584.8999999999,"ADDRESS":"堀子頭６１號之６","OBJECTID":218768},"geometry":{"x":168757.55999999959,"y":2557584.9000000022}},{"attributes":{"ID":218770,"DIS_CODE":0,"TOWNNAME":"西港區","LI":"西港里","LIN":"28鄰","STREET":" ","SECT":" ","MAREA":"堀子頭","LANE":" ","ALLEY":" ","HOUSE_NO":"６１之７號","E_COORD97":168746.20999999999,"N_COORD97":2557628.46,"ADDRESS":"堀子頭６１之７號","OBJECTID":218769},"geometry":{"x":168746.21000000089,"y":2557628.4600000028}},{"attributes":{"ID":218771,"DIS_CODE":0,"TOWNNAME":"西港區","LI":"西港里","LIN":"28鄰","STREET":" ","SECT":" ","MAREA":"堀子頭","LANE":" ","ALLEY":" ","HOUSE_NO":"６２號之１０","E_COORD97":168901.64999999999,"N_COORD97":2557600.5800000001,"ADDRESS":"堀子頭６２號之１０","OBJECTID":218770},"geometry":{"x":168901.6500000013,"y":2557600.5800000001}},{"attributes":{"ID":218772,"DIS_CODE":0,"TOWNNAME":"西港區","LI":"西港里","LIN":"28鄰","STREET":" ","SECT":" ","MAREA":"堀子頭","LANE":" ","ALLEY":" ","HOUSE_NO":"６２號之１","E_COORD97":168824.35999999999,"N_COORD97":2557657.9700000002,"ADDRESS":"堀子頭６２號之１","OBJECTID":218771},"geometry":{"x":168824.36000000034,"y":2557657.9700000044}},{"attributes":{"ID":218773,"DIS_CODE":0,"TOWNNAME":"西港區","LI":"西港里","LIN":"28鄰","STREET":" ","SECT":" ","MAREA":"堀子頭","LANE":" ","ALLEY":" ","HOUSE_NO":"６２號之２","E_COORD97":168864.07000000001,"N_COORD97":2557633.1400000001,"ADDRESS":"堀子頭６２號之２","OBJECTID":218772},"geometry":{"x":168864.07000000216,"y":2557633.1400000043}},{"attributes":{"ID":218774,"DIS_CODE":0,"TOWNNAME":"西港區","LI":"西港里","LIN":"28鄰","STREET":" ","SECT":" ","MAREA":"堀子頭","LANE":" ","ALLEY":" ","HOUSE_NO":"６２號之３","E_COORD97":168849.04000000001,"N_COORD97":2557683.5299999998,"ADDRESS":"堀子頭６２號之３","OBJECTID":218773},"geometry":{"x":168849.04000000097,"y":2557683.5300000012}},{"attributes":{"ID":218775,"DIS_CODE":0,"TOWNNAME":"善化區","LI":"光文里","LIN":"28鄰","STREET":"和平路","SECT":" ","MAREA":" ","LANE":" ","ALLEY":" ","HOUSE_NO":"２３５號之３","E_COORD97":178050.25,"N_COORD97":2559337.27,"ADDRESS":"和平路２３５號之３","OBJECTID":218774},"geometry":{"x":178050.25,"y":2559337.2700000014}},{"attributes":{"ID":218776,"DIS_CODE":0,"TOWNNAME":"善化區","LI":"光文里","LIN":"28鄰","STREET":"和平路","SECT":" ","MAREA":" ","LANE":" ","ALLEY":" ","HOUSE_NO":"２３７號之５","E_COORD97":178050.06,"N_COORD97":2559354.02,"ADDRESS":"和平路２３７號之５","OBJECTID":218775},"geometry":{"x":178050.06000000052,"y":2559354.0199999996}},{"attributes":{"ID":218777,"DIS_CODE":0,"TOWNNAME":"善化區","LI":"光文里","LIN":"28鄰","STREET":"和平路","SECT":" ","MAREA":" ","LANE":" ","ALLEY":" ","HOUSE_NO":"２３９之７號","E_COORD97":178039.09,"N_COORD97":2559367.0099999998,"ADDRESS":"和平路２３９之７號","OBJECTID":218776},"geometry":{"x":178039.08999999985,"y":2559367.0100000016}},{"attributes":{"ID":218778,"DIS_CODE":0,"TOWNNAME":"善化區","LI":"光文里","LIN":"28鄰","STREET":"和平路","SECT":" ","MAREA":" ","LANE":" ","ALLEY":" ","HOUSE_NO":"２３７號之２","E_COORD97":178060.95999999999,"N_COORD97":2559355.02,"ADDRESS":"和平路２３７號之２","OBJECTID":218777},"geometry":{"x":178060.96000000183,"y":2559355.0200000033}},{"attributes":{"ID":218779,"DIS_CODE":0,"TOWNNAME":"東區","LI":"泉南里","LIN":"28鄰","STREET":"長榮路","SECT":"一段","MAREA":" ","LANE":" ","ALLEY":" ","HOUSE_NO":"１１５號","E_COORD97":169751.66,"N_COORD97":2542653.0099999998,"ADDRESS":"長榮路一段１１５號","OBJECTID":218778},"geometry":{"x":169751.66000000201,"y":2542653.0099999998}},{"attributes":{"ID":218780,"DIS_CODE":0,"TOWNNAME":"東區","LI":"泉南里","LIN":"28鄰","STREET":"長榮路","SECT":"一段","MAREA":" ","LANE":" ","ALLEY":" ","HOUSE_NO":"１１７號","E_COORD97":169755.69,"N_COORD97":2542656.5,"ADDRESS":"長榮路一段１１７號","OBJECTID":218779},"geometry":{"x":169755.69000000134,"y":2542656.5}},{"attributes":{"ID":218781,"DIS_CODE":0,"TOWNNAME":"永康區","LI":"西灣里","LIN":"28鄰","STREET":"公園路","SECT":" ","MAREA":" ","LANE":" ","ALLEY":" ","HOUSE_NO":"２７號","E_COORD97":174419.06,"N_COORD97":2545997.52,"ADDRESS":"公園路２７號","OBJECTID":218780},"geometry":{"x":174419.06000000052,"y":2545997.5200000014}},{"attributes":{"ID":218782,"DIS_CODE":0,"TOWNNAME":"永康區","LI":"五王里","LIN":"29鄰","STREET":"中山東路","SECT":" ","MAREA":" ","LANE":"６８巷","ALLEY":"１弄","HOUSE_NO":"１２號","E_COORD97":171676.19,"N_COORD97":2545968.04,"ADDRESS":"中山東路６８巷１弄１２號","OBJECTID":218781},"geometry":{"x":171676.19000000134,"y":2545968.0399999991}},{"attributes":{"ID":218783,"DIS_CODE":0,"TOWNNAME":"永康區","LI":"五王里","LIN":"29鄰","STREET":"中山東路","SECT":" ","MAREA":" ","LANE":"６８巷","ALLEY":"１５弄","HOUSE_NO":"６號","E_COORD97":171607.07000000001,"N_COORD97":2545940.4399999999,"ADDRESS":"中山東路６８巷１５弄６號","OBJECTID":218782},"geometry":{"x":171607.07000000123,"y":2545940.4400000013}},{"attributes":{"ID":218784,"DIS_CODE":0,"TOWNNAME":"永康區","LI":"五王里","LIN":"29鄰","STREET":"中山東路","SECT":" ","MAREA":" ","LANE":"６８巷","ALLEY":"１弄","HOUSE_NO":"８號","E_COORD97":171671.29999999999,"N_COORD97":2545977.7799999998,"ADDRESS":"中山東路６８巷１弄８號","OBJECTID":218783},"geometry":{"x":171671.30000000075,"y":2545977.7800000031}},{"attributes":{"ID":218785,"DIS_CODE":0,"TOWNNAME":"永康區","LI":"大灣里","LIN":"29鄰","STREET":"民族路","SECT":" ","MAREA":" ","LANE":"１２６巷","ALLEY":"９弄","HOUSE_NO":"２６號","E_COORD97":175301.23000000001,"N_COORD97":2544966.1299999999,"ADDRESS":"民族路１２６巷９弄２６號","OBJECTID":218784},"geometry":{"x":175301.23000000045,"y":2544966.1300000008}},{"attributes":{"ID":218786,"DIS_CODE":0,"TOWNNAME":"東區","LI":"和平里","LIN":"15鄰","STREET":"文化三街","SECT":" ","MAREA":" ","LANE":" ","ALLEY":" ","HOUSE_NO":"８６號","E_COORD97":171311.79000000001,"N_COORD97":2541860.9100000001,"ADDRESS":"文化三街８６號","OBJECTID":218785},"geometry":{"x":171311.78999999911,"y":2541860.9100000001}},{"attributes":{"ID":218787,"DIS_CODE":0,"TOWNNAME":"東區","LI":"和平里","LIN":"15鄰","STREET":"文化三街","SECT":" ","MAREA":" ","LANE":" ","ALLEY":" ","HOUSE_NO":"１１６號","E_COORD97":171384.64999999999,"N_COORD97":2541865.8199999998,"ADDRESS":"文化三街１１６號","OBJECTID":218786},"geometry":{"x":171384.6500000013,"y":2541865.8200000003}},{"attributes":{"ID":218788,"DIS_CODE":0,"TOWNNAME":"安定區","LI":"港南里","LIN":"8鄰","STREET":" ","SECT":" ","MAREA":"港口","LANE":" ","ALLEY":" ","HOUSE_NO":"５７號","E_COORD97":171457.14000000001,"N_COORD97":2554279.25,"ADDRESS":"港口５７號","OBJECTID":218787},"geometry":{"x":171457.1400000006,"y":2554279.2500000019}},{"attributes":{"ID":218789,"DIS_CODE":0,"TOWNNAME":"東區","LI":"和平里","LIN":"15鄰","STREET":"文化三街","SECT":" ","MAREA":" ","LANE":" ","ALLEY":" ","HOUSE_NO":"１１２號","E_COORD97":171377.28,"N_COORD97":2541866.3100000001,"ADDRESS":"文化三街１１２號","OBJECTID":218788},"geometry":{"x":171377.28000000119,"y":2541866.3100000042}},{"attributes":{"ID":218790,"DIS_CODE":0,"TOWNNAME":"東區","LI":"和平里","LIN":"15鄰","STREET":"文化三街","SECT":" ","MAREA":" ","LANE":" ","ALLEY":" ","HOUSE_NO":"１１０號","E_COORD97":171371.54999999999,"N_COORD97":2541865.8199999998,"ADDRESS":"文化三街１１０號","OBJECTID":218789},"geometry":{"x":171371.55000000075,"y":2541865.8200000003}},{"attributes":{"ID":218791,"DIS_CODE":0,"TOWNNAME":"永康區","LI":"五王里","LIN":"29鄰","STREET":"中山東路","SECT":" ","MAREA":" ","LANE":"６８巷","ALLEY":"１弄","HOUSE_NO":"２號","E_COORD97":171667.54999999999,"N_COORD97":2545988.5499999998,"ADDRESS":"中山東路６８巷１弄２號","OBJECTID":218790},"geometry":{"x":171667.55000000168,"y":2545988.5500000026}},{"attributes":{"ID":218792,"DIS_CODE":0,"TOWNNAME":"永康區","LI":"五王里","LIN":"29鄰","STREET":"中山東路","SECT":" ","MAREA":" ","LANE":"６８巷","ALLEY":"３弄","HOUSE_NO":"９號","E_COORD97":171655.01999999999,"N_COORD97":2545959.4900000002,"ADDRESS":"中山東路６８巷３弄９號","OBJECTID":218791},"geometry":{"x":171655.01999999955,"y":2545959.4900000002}},{"attributes":{"ID":218793,"DIS_CODE":0,"TOWNNAME":"永康區","LI":"五王里","LIN":"29鄰","STREET":"中山東路","SECT":" ","MAREA":" ","LANE":"６８巷","ALLEY":"１弄","HOUSE_NO":"２８號","E_COORD97":171687.70999999999,"N_COORD97":2545937.54,"ADDRESS":"中山東路６８巷１弄２８號","OBJECTID":218792},"geometry":{"x":171687.71000000089,"y":2545937.5399999991}},{"attributes":{"ID":218794,"DIS_CODE":0,"TOWNNAME":"永康區","LI":"五王里","LIN":"29鄰","STREET":"中山東路","SECT":" ","MAREA":" ","LANE":"６８巷","ALLEY":"３弄","HOUSE_NO":"３號","E_COORD97":171649.34,"N_COORD97":2545974.7400000002,"ADDRESS":"中山東路６８巷３弄３號","OBJECTID":218793},"geometry":{"x":171649.34000000078,"y":2545974.7400000002}},{"attributes":{"ID":218795,"DIS_CODE":0,"TOWNNAME":"永康區","LI":"大灣里","LIN":"29鄰","STREET":"民族路","SECT":" ","MAREA":" ","LANE":"１２６巷","ALLEY":"９弄","HOUSE_NO":"１６號","E_COORD97":175312.63,"N_COORD97":2544948.1200000001,"ADDRESS":"民族路１２６巷９弄１６號","OBJECTID":218794},"geometry":{"x":175312.62999999989,"y":2544948.1200000029}},{"attributes":{"ID":218796,"DIS_CODE":0,"TOWNNAME":"永康區","LI":"崑山里","LIN":"29鄰","STREET":"大灣路","SECT":" ","MAREA":" ","LANE":"９４２巷","ALLEY":"１１２弄","HOUSE_NO":"１７號","E_COORD97":173793.75,"N_COORD97":2544769.9399999999,"ADDRESS":"大灣路９４２巷１１２弄１７號","OBJECTID":218795},"geometry":{"x":173793.74999999907,"y":2544769.9400000032}},{"attributes":{"ID":218797,"DIS_CODE":0,"TOWNNAME":"永康區","LI":"五王里","LIN":"29鄰","STREET":"中山東路","SECT":" ","MAREA":" ","LANE":"６８巷","ALLEY":"３弄","HOUSE_NO":"３８號","E_COORD97":171671.66,"N_COORD97":2545893.9399999999,"ADDRESS":"中山東路６８巷３弄３８號","OBJECTID":218796},"geometry":{"x":171671.66000000015,"y":2545893.9399999995}},{"attributes":{"ID":218798,"DIS_CODE":0,"TOWNNAME":"東區","LI":"泉南里","LIN":"29鄰","STREET":"府連路","SECT":" ","MAREA":" ","LANE":"３４４巷","ALLEY":"２５弄","HOUSE_NO":"２５號","E_COORD97":169660.66,"N_COORD97":2542666.27,"ADDRESS":"府連路３４４巷２５弄２５號","OBJECTID":218797},"geometry":{"x":169660.66000000108,"y":2542666.2700000014}},{"attributes":{"ID":218799,"DIS_CODE":0,"TOWNNAME":"東區","LI":"和平里","LIN":"15鄰","STREET":"文化三街","SECT":" ","MAREA":" ","LANE":" ","ALLEY":" ","HOUSE_NO":"１０８號","E_COORD97":171365.66,"N_COORD97":2541865.6600000001,"ADDRESS":"文化三街１０８號","OBJECTID":218798},"geometry":{"x":171365.66000000108,"y":2541865.6600000001}},{"attributes":{"ID":218800,"DIS_CODE":0,"TOWNNAME":"安定區","LI":"蘇厝里","LIN":"13鄰","STREET":" ","SECT":" ","MAREA":"蘇厝","LANE":" ","ALLEY":" ","HOUSE_NO":"４０４號","E_COORD97":173040.62,"N_COORD97":2558763.25,"ADDRESS":"蘇厝４０４號","OBJECTID":218799},"geometry":{"x":173040.62000000197,"y":2558763.25}},{"attributes":{"ID":218801,"DIS_CODE":0,"TOWNNAME":"安定區","LI":"蘇厝里","LIN":"4鄰","STREET":" ","SECT":" ","MAREA":"蘇厝","LANE":" ","ALLEY":" ","HOUSE_NO":"３１１號之３","E_COORD97":173193.75,"N_COORD97":2558639.2999999998,"ADDRESS":"蘇厝３１１號之３","OBJECTID":218800},"geometry":{"x":173193.75000000186,"y":2558639.3000000026}}]}