{"displayFieldName":"TOWNNAME","fieldAliases":{"ID":"ID","DIS_CODE":"DIS_CODE","TOWNNAME":"TOWNNAME","LI":"LI","LIN":"LIN","STREET":"STREET","SECT":"SECT","MAREA":"MAREA","LANE":"LANE","ALLEY":"ALLEY","HOUSE_NO":"HOUSE_NO","E_COORD97":"E_COORD97","N_COORD97":"N_COORD97","ADDRESS":"ADDRESS","OBJECTID":"OBJECTID"},"geometryType":"esriGeometryPoint","spatialReference":{"wkid":102443,"latestWkid":3826},"fields":[{"name":"ID","type":"esriFieldTypeDouble","alias":"ID"},{"name":"DIS_CODE","type":"esriFieldTypeInteger","alias":"DIS_CODE"},{"name":"TOWNNAME","type":"esriFieldTypeString","alias":"TOWNNAME","length":8},{"name":"LI","type":"esriFieldTypeString","alias":"LI","length":8},{"name":"LIN","type":"esriFieldTypeString","alias":"LIN","length":12},{"name":"STREET","type":"esriFieldTypeString","alias":"STREET","length":20},{"name":"SECT","type":"esriFieldTypeString","alias":"SECT","length":8},{"name":"MAREA","type":"esriFieldTypeString","alias":"MAREA","length":12},{"name":"LANE","type":"esriFieldTypeString","alias":"LANE","length":10},{"name":"ALLEY","type":"esriFieldTypeString","alias":"ALLEY","length":10},{"name":"HOUSE_NO","type":"esriFieldTypeString","alias":"HOUSE_NO","length":20},{"name":"E_COORD97","type":"esriFieldTypeDouble","alias":"E_COORD97"},{"name":"N_COORD97","type":"esriFieldTypeDouble","alias":"N_COORD97"},{"name":"ADDRESS","type":"esriFieldTypeString","alias":"ADDRESS","length":50},{"name":"OBJECTID","type":"esriFieldTypeOID","alias":"OBJECTID"}],"features":[{"attributes":{"ID":464026,"DIS_CODE":0,"TOWNNAME":"下營區","LI":"後街里","LIN":"5鄰","STREET":"人和二街","SECT":" ","MAREA":" ","LANE":" ","ALLEY":" ","HOUSE_NO":"１３０號","E_COORD97":174503.29000000001,"N_COORD97":2570801.52,"ADDRESS":"人和二街１３０號","OBJECTID":464001},"geometry":{"x":174503.29000000004,"y":2570801.5200000014}},{"attributes":{"ID":464027,"DIS_CODE":0,"TOWNNAME":"下營區","LI":"後街里","LIN":"5鄰","STREET":"人和二街","SECT":" ","MAREA":" ","LANE":" ","ALLEY":" ","HOUSE_NO":"１３２號","E_COORD97":174498.22,"N_COORD97":2570800.71,"ADDRESS":"人和二街１３２號","OBJECTID":464002},"geometry":{"x":174498.21999999974,"y":2570800.709999999}},{"attributes":{"ID":464028,"DIS_CODE":0,"TOWNNAME":"下營區","LI":"後街里","LIN":"5鄰","STREET":"人和二街","SECT":" ","MAREA":" ","LANE":" ","ALLEY":" ","HOUSE_NO":"１４６號","E_COORD97":174482.12,"N_COORD97":2570814.3900000001,"ADDRESS":"人和二街１４６號","OBJECTID":464003},"geometry":{"x":174482.12000000104,"y":2570814.3900000025}},{"attributes":{"ID":464029,"DIS_CODE":0,"TOWNNAME":"下營區","LI":"後街里","LIN":"5鄰","STREET":"人和二街","SECT":" ","MAREA":" ","LANE":" ","ALLEY":" ","HOUSE_NO":"１５２號","E_COORD97":174469.79999999999,"N_COORD97":2570792.0099999998,"ADDRESS":"人和二街１５２號","OBJECTID":464004},"geometry":{"x":174469.80000000168,"y":2570792.0100000016}},{"attributes":{"ID":464030,"DIS_CODE":0,"TOWNNAME":"下營區","LI":"後街里","LIN":"5鄰","STREET":"人和二街","SECT":" ","MAREA":" ","LANE":" ","ALLEY":" ","HOUSE_NO":"１６０號","E_COORD97":174459.76999999999,"N_COORD97":2570788.8500000001,"ADDRESS":"人和二街１６０號","OBJECTID":464005},"geometry":{"x":174459.77000000048,"y":2570788.8500000015}},{"attributes":{"ID":464031,"DIS_CODE":0,"TOWNNAME":"下營區","LI":"後街里","LIN":"5鄰","STREET":"人和二街","SECT":" ","MAREA":" ","LANE":" ","ALLEY":" ","HOUSE_NO":"１６６號","E_COORD97":174460.89000000001,"N_COORD97":2570799.0099999998,"ADDRESS":"人和二街１６６號","OBJECTID":464006},"geometry":{"x":174460.8900000006,"y":2570799.0100000016}},{"attributes":{"ID":464032,"DIS_CODE":0,"TOWNNAME":"中西區","LI":"天后里","LIN":"5鄰","STREET":"民權路","SECT":"二段","MAREA":" ","LANE":" ","ALLEY":" ","HOUSE_NO":"２４６號","E_COORD97":168055.92999999999,"N_COORD97":2544056.4500000002,"ADDRESS":"民權路二段２４６號","OBJECTID":464007},"geometry":{"x":168055.93000000156,"y":2544056.4499999993}},{"attributes":{"ID":464033,"DIS_CODE":0,"TOWNNAME":"中西區","LI":"五妃里","LIN":"5鄰","STREET":"慶中街","SECT":" ","MAREA":" ","LANE":" ","ALLEY":" ","HOUSE_NO":"７２之１號","E_COORD97":168576.10999999999,"N_COORD97":2542621.0600000001,"ADDRESS":"慶中街７２之１號","OBJECTID":464008},"geometry":{"x":168576.11000000127,"y":2542621.0600000024}},{"attributes":{"ID":464034,"DIS_CODE":0,"TOWNNAME":"安南區","LI":"原佃里","LIN":"5鄰","STREET":"本原街","SECT":"一段","MAREA":" ","LANE":" ","ALLEY":" ","HOUSE_NO":"２２０號","E_COORD97":167798.89999999999,"N_COORD97":2550350.6099999999,"ADDRESS":"本原街一段２２０號","OBJECTID":464009},"geometry":{"x":167798.90000000037,"y":2550350.6100000013}},{"attributes":{"ID":464035,"DIS_CODE":0,"TOWNNAME":"安南區","LI":"安慶里","LIN":"5鄰","STREET":"怡安路","SECT":"一段","MAREA":" ","LANE":" ","ALLEY":" ","HOUSE_NO":"２７４號","E_COORD97":168994.72,"N_COORD97":2549116.52,"ADDRESS":"怡安路一段２７４號","OBJECTID":464010},"geometry":{"x":168994.7200000016,"y":2549116.5200000014}},{"attributes":{"ID":464036,"DIS_CODE":0,"TOWNNAME":"安南區","LI":"安慶里","LIN":"5鄰","STREET":"怡安路","SECT":"一段","MAREA":" ","LANE":" ","ALLEY":" ","HOUSE_NO":"２７６號","E_COORD97":168989.95999999999,"N_COORD97":2549115.8399999999,"ADDRESS":"怡安路一段２７６號","OBJECTID":464011},"geometry":{"x":168989.96000000183,"y":2549115.8399999999}},{"attributes":{"ID":464037,"DIS_CODE":0,"TOWNNAME":"安南區","LI":"安慶里","LIN":"5鄰","STREET":"怡安路","SECT":"一段","MAREA":" ","LANE":" ","ALLEY":" ","HOUSE_NO":"２７８號","E_COORD97":168984.94,"N_COORD97":2549115.29,"ADDRESS":"怡安路一段２７８號","OBJECTID":464012},"geometry":{"x":168984.94000000041,"y":2549115.290000001}},{"attributes":{"ID":464038,"DIS_CODE":0,"TOWNNAME":"新市區","LI":"新市里","LIN":"5鄰","STREET":"仁愛街","SECT":" ","MAREA":" ","LANE":" ","ALLEY":" ","HOUSE_NO":"３１３號","E_COORD97":177652.07999999999,"N_COORD97":2553074.0299999998,"ADDRESS":"仁愛街３１３號","OBJECTID":464013},"geometry":{"x":177652.08000000101,"y":2553074.0299999993}},{"attributes":{"ID":464039,"DIS_CODE":0,"TOWNNAME":"新市區","LI":"新市里","LIN":"5鄰","STREET":"仁愛街","SECT":" ","MAREA":" ","LANE":" ","ALLEY":" ","HOUSE_NO":"２９７號","E_COORD97":177645.62,"N_COORD97":2553043.7799999998,"ADDRESS":"仁愛街２９７號","OBJECTID":464014},"geometry":{"x":177645.62000000011,"y":2553043.7800000012}},{"attributes":{"ID":464040,"DIS_CODE":0,"TOWNNAME":"新市區","LI":"港墘里","LIN":"5鄰","STREET":"民族路","SECT":" ","MAREA":" ","LANE":" ","ALLEY":" ","HOUSE_NO":"９１號","E_COORD97":178364.79000000001,"N_COORD97":2553657.79,"ADDRESS":"民族路９１號","OBJECTID":464015},"geometry":{"x":178364.79000000004,"y":2553657.790000001}},{"attributes":{"ID":464041,"DIS_CODE":0,"TOWNNAME":"新市區","LI":"港墘里","LIN":"5鄰","STREET":"民族路","SECT":" ","MAREA":" ","LANE":" ","ALLEY":" ","HOUSE_NO":"１３３號","E_COORD97":178268.39999999999,"N_COORD97":2553559.29,"ADDRESS":"民族路１３３號","OBJECTID":464016},"geometry":{"x":178268.40000000037,"y":2553559.290000001}},{"attributes":{"ID":464042,"DIS_CODE":0,"TOWNNAME":"新市區","LI":"新市里","LIN":"5鄰","STREET":"仁愛街","SECT":" ","MAREA":" ","LANE":" ","ALLEY":" ","HOUSE_NO":"２７９號","E_COORD97":177637.34,"N_COORD97":2553003.7799999998,"ADDRESS":"仁愛街２７９號","OBJECTID":464017},"geometry":{"x":177637.33999999985,"y":2553003.7800000012}},{"attributes":{"ID":464043,"DIS_CODE":0,"TOWNNAME":"新市區","LI":"港墘里","LIN":"5鄰","STREET":"民族路","SECT":" ","MAREA":" ","LANE":" ","ALLEY":" ","HOUSE_NO":"８９號","E_COORD97":178375.51000000001,"N_COORD97":2553668.79,"ADDRESS":"民族路８９號","OBJECTID":464018},"geometry":{"x":178375.50999999978,"y":2553668.7899999991}},{"attributes":{"ID":464044,"DIS_CODE":0,"TOWNNAME":"新市區","LI":"港墘里","LIN":"5鄰","STREET":"民族路","SECT":" ","MAREA":" ","LANE":" ","ALLEY":" ","HOUSE_NO":"１０７號","E_COORD97":178312.17999999999,"N_COORD97":2553606.79,"ADDRESS":"民族路１０７號","OBJECTID":464019},"geometry":{"x":178312.18000000063,"y":2553606.790000001}},{"attributes":{"ID":464045,"DIS_CODE":0,"TOWNNAME":"新市區","LI":"港墘里","LIN":"5鄰","STREET":"民族路","SECT":" ","MAREA":" ","LANE":" ","ALLEY":" ","HOUSE_NO":"９０號","E_COORD97":178287.70999999999,"N_COORD97":2553612.79,"ADDRESS":"民族路９０號","OBJECTID":464020},"geometry":{"x":178287.70999999996,"y":2553612.7900000028}},{"attributes":{"ID":464046,"DIS_CODE":0,"TOWNNAME":"新市區","LI":"港墘里","LIN":"5鄰","STREET":"民族路","SECT":" ","MAREA":" ","LANE":" ","ALLEY":" ","HOUSE_NO":"１０９號","E_COORD97":178309.32000000001,"N_COORD97":2553604.04,"ADDRESS":"民族路１０９號","OBJECTID":464021},"geometry":{"x":178309.3200000003,"y":2553604.0399999972}},{"attributes":{"ID":464047,"DIS_CODE":0,"TOWNNAME":"新市區","LI":"港墘里","LIN":"5鄰","STREET":"民族路","SECT":" ","MAREA":" ","LANE":" ","ALLEY":" ","HOUSE_NO":"７８號","E_COORD97":178309.48000000001,"N_COORD97":2553635.04,"ADDRESS":"民族路７８號","OBJECTID":464022},"geometry":{"x":178309.48000000138,"y":2553635.040000001}},{"attributes":{"ID":464048,"DIS_CODE":0,"TOWNNAME":"新市區","LI":"新市里","LIN":"5鄰","STREET":"仁愛街","SECT":" ","MAREA":" ","LANE":" ","ALLEY":" ","HOUSE_NO":"２９５號","E_COORD97":177644.28,"N_COORD97":2553037.0299999998,"ADDRESS":"仁愛街２９５號","OBJECTID":464023},"geometry":{"x":177644.28000000119,"y":2553037.0299999993}},{"attributes":{"ID":464049,"DIS_CODE":0,"TOWNNAME":"新市區","LI":"港墘里","LIN":"5鄰","STREET":"民族路","SECT":" ","MAREA":" ","LANE":" ","ALLEY":" ","HOUSE_NO":"１２７號","E_COORD97":178279.32000000001,"N_COORD97":2553568.54,"ADDRESS":"民族路１２７號","OBJECTID":464024},"geometry":{"x":178279.32000000123,"y":2553568.540000001}},{"attributes":{"ID":464050,"DIS_CODE":0,"TOWNNAME":"新市區","LI":"新市里","LIN":"5鄰","STREET":"仁愛街","SECT":" ","MAREA":" ","LANE":" ","ALLEY":" ","HOUSE_NO":"２８９號","E_COORD97":177641.98000000001,"N_COORD97":2553024.7799999998,"ADDRESS":"仁愛街２８９號","OBJECTID":464025},"geometry":{"x":177641.98000000045,"y":2553024.7800000012}},{"attributes":{"ID":464051,"DIS_CODE":0,"TOWNNAME":"新市區","LI":"港墘里","LIN":"5鄰","STREET":"民族路","SECT":" ","MAREA":" ","LANE":" ","ALLEY":" ","HOUSE_NO":"８０號","E_COORD97":178305.32000000001,"N_COORD97":2553631.54,"ADDRESS":"民族路８０號","OBJECTID":464026},"geometry":{"x":178305.32000000123,"y":2553631.5400000028}},{"attributes":{"ID":464052,"DIS_CODE":0,"TOWNNAME":"新市區","LI":"港墘里","LIN":"5鄰","STREET":"民族路","SECT":" ","MAREA":" ","LANE":" ","ALLEY":" ","HOUSE_NO":"１３５之１號","E_COORD97":178262.45999999999,"N_COORD97":2553552.7999999998,"ADDRESS":"民族路１３５之１號","OBJECTID":464027},"geometry":{"x":178262.45999999996,"y":2553552.8000000007}},{"attributes":{"ID":464053,"DIS_CODE":0,"TOWNNAME":"新市區","LI":"港墘里","LIN":"5鄰","STREET":"民族路","SECT":" ","MAREA":" ","LANE":" ","ALLEY":" ","HOUSE_NO":"１３５號","E_COORD97":178263.79000000001,"N_COORD97":2553555.54,"ADDRESS":"民族路１３５號","OBJECTID":464028},"geometry":{"x":178263.7900000019,"y":2553555.5399999991}},{"attributes":{"ID":464054,"DIS_CODE":0,"TOWNNAME":"安南區","LI":"新順里","LIN":"5鄰","STREET":"頂安街","SECT":" ","MAREA":" ","LANE":" ","ALLEY":" ","HOUSE_NO":"２０８號","E_COORD97":169271.17999999999,"N_COORD97":2549397.4100000001,"ADDRESS":"頂安街２０８號","OBJECTID":464029},"geometry":{"x":169271.17999999877,"y":2549397.4100000001}},{"attributes":{"ID":464055,"DIS_CODE":0,"TOWNNAME":"安南區","LI":"新順里","LIN":"5鄰","STREET":"頂安街","SECT":" ","MAREA":" ","LANE":" ","ALLEY":" ","HOUSE_NO":"２１０號","E_COORD97":169265.10999999999,"N_COORD97":2549396.9700000002,"ADDRESS":"頂安街２１０號","OBJECTID":464030},"geometry":{"x":169265.11000000034,"y":2549396.9700000025}},{"attributes":{"ID":464056,"DIS_CODE":0,"TOWNNAME":"安南區","LI":"原佃里","LIN":"5鄰","STREET":"本原街","SECT":"一段","MAREA":" ","LANE":" ","ALLEY":" ","HOUSE_NO":"２２６號","E_COORD97":167785.28,"N_COORD97":2550395.1200000001,"ADDRESS":"本原街一段２２６號","OBJECTID":464031},"geometry":{"x":167785.28000000119,"y":2550395.1200000048}},{"attributes":{"ID":464057,"DIS_CODE":0,"TOWNNAME":"佳里區","LI":"六安里","LIN":"5鄰","STREET":"六安街","SECT":" ","MAREA":" ","LANE":" ","ALLEY":" ","HOUSE_NO":"１０１號之１","E_COORD97":166128.14999999999,"N_COORD97":2563102.5099999998,"ADDRESS":"六安街１０１號之１","OBJECTID":464032},"geometry":{"x":166128.1500000013,"y":2563102.5100000016}},{"attributes":{"ID":464058,"DIS_CODE":0,"TOWNNAME":"中西區","LI":"大涼里","LIN":"17鄰","STREET":"府前二街","SECT":" ","MAREA":" ","LANE":" ","ALLEY":" ","HOUSE_NO":"７２號","E_COORD97":166660.85999999999,"N_COORD97":2543947.8399999999,"ADDRESS":"府前二街７２號","OBJECTID":464033},"geometry":{"x":166660.86000000127,"y":2543947.8400000017}},{"attributes":{"ID":464059,"DIS_CODE":0,"TOWNNAME":"中西區","LI":"大涼里","LIN":"17鄰","STREET":"府前二街","SECT":" ","MAREA":" ","LANE":" ","ALLEY":" ","HOUSE_NO":"７４號","E_COORD97":166660.29999999999,"N_COORD97":2543952.2799999998,"ADDRESS":"府前二街７４號","OBJECTID":464034},"geometry":{"x":166660.30000000075,"y":2543952.2799999993}},{"attributes":{"ID":464060,"DIS_CODE":0,"TOWNNAME":"佳里區","LI":"六安里","LIN":"5鄰","STREET":"六安街","SECT":" ","MAREA":" ","LANE":" ","ALLEY":" ","HOUSE_NO":"１０５號","E_COORD97":166127.73999999999,"N_COORD97":2563109.6699999999,"ADDRESS":"六安街１０５號","OBJECTID":464035},"geometry":{"x":166127.74000000022,"y":2563109.6699999999}},{"attributes":{"ID":464061,"DIS_CODE":0,"TOWNNAME":"佳里區","LI":"六安里","LIN":"5鄰","STREET":"六安街","SECT":" ","MAREA":" ","LANE":" ","ALLEY":" ","HOUSE_NO":"１０７號","E_COORD97":166102.87,"N_COORD97":2563153.4100000001,"ADDRESS":"六安街１０７號","OBJECTID":464036},"geometry":{"x":166102.87000000104,"y":2563153.4100000039}},{"attributes":{"ID":464062,"DIS_CODE":0,"TOWNNAME":"佳里區","LI":"六安里","LIN":"5鄰","STREET":"六安街","SECT":" ","MAREA":" ","LANE":" ","ALLEY":" ","HOUSE_NO":"１１１號","E_COORD97":166101.92999999999,"N_COORD97":2563168.4300000002,"ADDRESS":"六安街１１１號","OBJECTID":464037},"geometry":{"x":166101.93000000063,"y":2563168.4299999997}},{"attributes":{"ID":464063,"DIS_CODE":0,"TOWNNAME":"佳里區","LI":"六安里","LIN":"5鄰","STREET":"六安街","SECT":" ","MAREA":" ","LANE":" ","ALLEY":" ","HOUSE_NO":"１２１號","E_COORD97":166099.23999999999,"N_COORD97":2563184.1899999999,"ADDRESS":"六安街１２１號","OBJECTID":464038},"geometry":{"x":166099.24000000022,"y":2563184.1899999995}},{"attributes":{"ID":464064,"DIS_CODE":0,"TOWNNAME":"佳里區","LI":"六安里","LIN":"5鄰","STREET":"六安街","SECT":" ","MAREA":" ","LANE":" ","ALLEY":" ","HOUSE_NO":"１２７號","E_COORD97":166087.41,"N_COORD97":2563210.9700000002,"ADDRESS":"六安街１２７號","OBJECTID":464039},"geometry":{"x":166087.41000000108,"y":2563210.9700000007}},{"attributes":{"ID":464065,"DIS_CODE":0,"TOWNNAME":"佳里區","LI":"六安里","LIN":"5鄰","STREET":"六安街","SECT":" ","MAREA":" ","LANE":" ","ALLEY":" ","HOUSE_NO":"１２９號","E_COORD97":166079.42999999999,"N_COORD97":2563197.6699999999,"ADDRESS":"六安街１２９號","OBJECTID":464040},"geometry":{"x":166079.43000000063,"y":2563197.6699999999}},{"attributes":{"ID":464066,"DIS_CODE":0,"TOWNNAME":"佳里區","LI":"六安里","LIN":"5鄰","STREET":"六安街","SECT":" ","MAREA":" ","LANE":" ","ALLEY":" ","HOUSE_NO":"１３３號","E_COORD97":166077.35000000001,"N_COORD97":2563220.1699999999,"ADDRESS":"六安街１３３號","OBJECTID":464041},"geometry":{"x":166077.34999999963,"y":2563220.1700000018}},{"attributes":{"ID":464067,"DIS_CODE":0,"TOWNNAME":"佳里區","LI":"六安里","LIN":"5鄰","STREET":"六安街","SECT":" ","MAREA":" ","LANE":" ","ALLEY":" ","HOUSE_NO":"１３７號","E_COORD97":166070.16,"N_COORD97":2563229.8599999999,"ADDRESS":"六安街１３７號","OBJECTID":464042},"geometry":{"x":166070.16000000108,"y":2563229.8599999994}},{"attributes":{"ID":464068,"DIS_CODE":0,"TOWNNAME":"佳里區","LI":"六安里","LIN":"5鄰","STREET":"六安街","SECT":" ","MAREA":" ","LANE":" ","ALLEY":" ","HOUSE_NO":"１３９號","E_COORD97":166068.25,"N_COORD97":2563234.3199999998,"ADDRESS":"六安街１３９號","OBJECTID":464043},"geometry":{"x":166068.25,"y":2563234.3200000003}},{"attributes":{"ID":464069,"DIS_CODE":0,"TOWNNAME":"佳里區","LI":"六安里","LIN":"5鄰","STREET":"六安街","SECT":" ","MAREA":" ","LANE":" ","ALLEY":" ","HOUSE_NO":"９７號之１","E_COORD97":166126.34,"N_COORD97":2563092.5,"ADDRESS":"六安街９７號之１","OBJECTID":464044},"geometry":{"x":166126.34000000078,"y":2563092.5000000019}},{"attributes":{"ID":464070,"DIS_CODE":0,"TOWNNAME":"佳里區","LI":"六安里","LIN":"5鄰","STREET":"六安街","SECT":" ","MAREA":" ","LANE":" ","ALLEY":" ","HOUSE_NO":"９７號","E_COORD97":166115.97,"N_COORD97":2563073.0600000001,"ADDRESS":"六安街９７號","OBJECTID":464045},"geometry":{"x":166115.96999999974,"y":2563073.0600000024}},{"attributes":{"ID":464071,"DIS_CODE":0,"TOWNNAME":"佳里區","LI":"安西里","LIN":"5鄰","STREET":"文化路","SECT":" ","MAREA":" ","LANE":" ","ALLEY":" ","HOUSE_NO":"２５１號","E_COORD97":165613.17000000001,"N_COORD97":2562574.0499999998,"ADDRESS":"文化路２５１號","OBJECTID":464046},"geometry":{"x":165613.16999999993,"y":2562574.0500000026}},{"attributes":{"ID":464072,"DIS_CODE":0,"TOWNNAME":"佳里區","LI":"安西里","LIN":"5鄰","STREET":"文化路","SECT":" ","MAREA":" ","LANE":" ","ALLEY":" ","HOUSE_NO":"２５３號","E_COORD97":165607.28,"N_COORD97":2562574.1499999999,"ADDRESS":"文化路２５３號","OBJECTID":464047},"geometry":{"x":165607.28000000026,"y":2562574.1500000004}},{"attributes":{"ID":464073,"DIS_CODE":0,"TOWNNAME":"佳里區","LI":"安西里","LIN":"5鄰","STREET":"文化路","SECT":" ","MAREA":" ","LANE":" ","ALLEY":" ","HOUSE_NO":"２５５號","E_COORD97":165602.03,"N_COORD97":2562574.1200000001,"ADDRESS":"文化路２５５號","OBJECTID":464048},"geometry":{"x":165602.03000000026,"y":2562574.1200000029}},{"attributes":{"ID":464074,"DIS_CODE":0,"TOWNNAME":"佳里區","LI":"安西里","LIN":"5鄰","STREET":"文化路","SECT":" ","MAREA":" ","LANE":" ","ALLEY":" ","HOUSE_NO":"２５７號","E_COORD97":165597.10999999999,"N_COORD97":2562574.1200000001,"ADDRESS":"文化路２５７號","OBJECTID":464049},"geometry":{"x":165597.1099999994,"y":2562574.1200000029}},{"attributes":{"ID":464075,"DIS_CODE":0,"TOWNNAME":"佳里區","LI":"安西里","LIN":"5鄰","STREET":"文化路","SECT":" ","MAREA":" ","LANE":" ","ALLEY":" ","HOUSE_NO":"２５９號","E_COORD97":165592.23000000001,"N_COORD97":2562574.3599999999,"ADDRESS":"文化路２５９號","OBJECTID":464050},"geometry":{"x":165592.23000000138,"y":2562574.3600000013}},{"attributes":{"ID":464076,"DIS_CODE":0,"TOWNNAME":"佳里區","LI":"安西里","LIN":"5鄰","STREET":"文化路","SECT":" ","MAREA":" ","LANE":" ","ALLEY":" ","HOUSE_NO":"２６１號","E_COORD97":165587.28,"N_COORD97":2562574.2400000002,"ADDRESS":"文化路２６１號","OBJECTID":464051},"geometry":{"x":165587.28000000026,"y":2562574.2400000002}},{"attributes":{"ID":464077,"DIS_CODE":0,"TOWNNAME":"佳里區","LI":"安西里","LIN":"5鄰","STREET":"文化路","SECT":" ","MAREA":" ","LANE":" ","ALLEY":" ","HOUSE_NO":"２６５號","E_COORD97":165577.82000000001,"N_COORD97":2562574.23,"ADDRESS":"文化路２６５號","OBJECTID":464052},"geometry":{"x":165577.82000000123,"y":2562574.2300000004}},{"attributes":{"ID":464078,"DIS_CODE":0,"TOWNNAME":"佳里區","LI":"安西里","LIN":"5鄰","STREET":"文化路","SECT":" ","MAREA":" ","LANE":" ","ALLEY":" ","HOUSE_NO":"２６７號","E_COORD97":165573.29000000001,"N_COORD97":2562574.2400000002,"ADDRESS":"文化路２６７號","OBJECTID":464053},"geometry":{"x":165573.29000000004,"y":2562574.2400000002}},{"attributes":{"ID":464079,"DIS_CODE":0,"TOWNNAME":"佳里區","LI":"安西里","LIN":"5鄰","STREET":"文化路","SECT":" ","MAREA":" ","LANE":" ","ALLEY":" ","HOUSE_NO":"２６９號","E_COORD97":165569.14000000001,"N_COORD97":2562574.3300000001,"ADDRESS":"文化路２６９號","OBJECTID":464054},"geometry":{"x":165569.14000000153,"y":2562574.3300000038}},{"attributes":{"ID":464080,"DIS_CODE":0,"TOWNNAME":"佳里區","LI":"安西里","LIN":"5鄰","STREET":"文化路","SECT":" ","MAREA":" ","LANE":" ","ALLEY":" ","HOUSE_NO":"２７１號","E_COORD97":165564.23999999999,"N_COORD97":2562574.3599999999,"ADDRESS":"文化路２７１號","OBJECTID":464055},"geometry":{"x":165564.24000000115,"y":2562574.3600000013}},{"attributes":{"ID":464081,"DIS_CODE":0,"TOWNNAME":"佳里區","LI":"安西里","LIN":"5鄰","STREET":"文化路","SECT":" ","MAREA":" ","LANE":" ","ALLEY":" ","HOUSE_NO":"２７３號","E_COORD97":165559.92999999999,"N_COORD97":2562574.3599999999,"ADDRESS":"文化路２７３號","OBJECTID":464056},"geometry":{"x":165559.9299999997,"y":2562574.3600000013}},{"attributes":{"ID":464082,"DIS_CODE":0,"TOWNNAME":"佳里區","LI":"安西里","LIN":"5鄰","STREET":"文化路","SECT":" ","MAREA":" ","LANE":" ","ALLEY":" ","HOUSE_NO":"２７５號","E_COORD97":165555.20999999999,"N_COORD97":2562574.5800000001,"ADDRESS":"文化路２７５號","OBJECTID":464057},"geometry":{"x":165555.20999999996,"y":2562574.5800000001}},{"attributes":{"ID":464083,"DIS_CODE":0,"TOWNNAME":"佳里區","LI":"安西里","LIN":"5鄰","STREET":"文化路","SECT":" ","MAREA":" ","LANE":" ","ALLEY":" ","HOUSE_NO":"２７７號","E_COORD97":165550.62,"N_COORD97":2562574.6000000001,"ADDRESS":"文化路２７７號","OBJECTID":464058},"geometry":{"x":165550.62000000011,"y":2562574.5999999996}},{"attributes":{"ID":464084,"DIS_CODE":0,"TOWNNAME":"佳里區","LI":"安西里","LIN":"5鄰","STREET":"文化路","SECT":" ","MAREA":" ","LANE":" ","ALLEY":" ","HOUSE_NO":"２７９號","E_COORD97":165545.95999999999,"N_COORD97":2562574.9199999999,"ADDRESS":"文化路２７９號","OBJECTID":464059},"geometry":{"x":165545.96000000089,"y":2562574.9200000018}},{"attributes":{"ID":464085,"DIS_CODE":0,"TOWNNAME":"佳里區","LI":"安西里","LIN":"5鄰","STREET":"文化路","SECT":" ","MAREA":" ","LANE":" ","ALLEY":" ","HOUSE_NO":"２８１號","E_COORD97":165541.23999999999,"N_COORD97":2562575.0299999998,"ADDRESS":"文化路２８１號","OBJECTID":464060},"geometry":{"x":165541.24000000022,"y":2562575.0299999993}},{"attributes":{"ID":464086,"DIS_CODE":0,"TOWNNAME":"佳里區","LI":"安西里","LIN":"5鄰","STREET":"文化路","SECT":" ","MAREA":" ","LANE":" ","ALLEY":" ","HOUSE_NO":"２８３號","E_COORD97":165536.79000000001,"N_COORD97":2562575.1899999999,"ADDRESS":"文化路２８３號","OBJECTID":464061},"geometry":{"x":165536.79000000097,"y":2562575.1900000013}},{"attributes":{"ID":464087,"DIS_CODE":0,"TOWNNAME":"佳里區","LI":"安西里","LIN":"5鄰","STREET":"文化路","SECT":" ","MAREA":" ","LANE":" ","ALLEY":" ","HOUSE_NO":"２８５號","E_COORD97":165530.31,"N_COORD97":2562574.8900000001,"ADDRESS":"文化路２８５號","OBJECTID":464062},"geometry":{"x":165530.30999999959,"y":2562574.8900000025}},{"attributes":{"ID":464088,"DIS_CODE":0,"TOWNNAME":"永康區","LI":"北灣里","LIN":"5鄰","STREET":"大灣路","SECT":" ","MAREA":" ","LANE":" ","ALLEY":" ","HOUSE_NO":"９５號","E_COORD97":175167.41,"N_COORD97":2545613.8500000001,"ADDRESS":"大灣路９５號","OBJECTID":464063},"geometry":{"x":175167.41000000015,"y":2545613.8499999996}},{"attributes":{"ID":464089,"DIS_CODE":0,"TOWNNAME":"永康區","LI":"尚頂里","LIN":"5鄰","STREET":"\u25A0信街","SECT":" ","MAREA":" ","LANE":" ","ALLEY":" ","HOUSE_NO":"３２號","E_COORD97":170830.79000000001,"N_COORD97":2547408.6299999999,"ADDRESS":"\u25A0信街３２號","OBJECTID":464064},"geometry":{"x":170830.79000000097,"y":2547408.629999999}},{"attributes":{"ID":464090,"DIS_CODE":0,"TOWNNAME":"永康區","LI":"東灣里","LIN":"5鄰","STREET":"大灣三街","SECT":" ","MAREA":" ","LANE":" ","ALLEY":" ","HOUSE_NO":"１５０號","E_COORD97":174641.54000000001,"N_COORD97":2545071.6000000001,"ADDRESS":"大灣三街１５０號","OBJECTID":464065},"geometry":{"x":174641.54000000097,"y":2545071.6000000015}},{"attributes":{"ID":464091,"DIS_CODE":0,"TOWNNAME":"永康區","LI":"東灣里","LIN":"5鄰","STREET":"大灣三街","SECT":" ","MAREA":" ","LANE":" ","ALLEY":" ","HOUSE_NO":"１３８號","E_COORD97":174675.67999999999,"N_COORD97":2545049.2799999998,"ADDRESS":"大灣三街１３８號","OBJECTID":464066},"geometry":{"x":174675.68000000063,"y":2545049.2800000012}},{"attributes":{"ID":464092,"DIS_CODE":0,"TOWNNAME":"永康區","LI":"東灣里","LIN":"5鄰","STREET":"大灣三街","SECT":" ","MAREA":" ","LANE":" ","ALLEY":" ","HOUSE_NO":"１３６號","E_COORD97":174679.39000000001,"N_COORD97":2545048.0299999998,"ADDRESS":"大灣三街１３６號","OBJECTID":464067},"geometry":{"x":174679.3900000006,"y":2545048.0300000012}},{"attributes":{"ID":464093,"DIS_CODE":0,"TOWNNAME":"永康區","LI":"尚頂里","LIN":"5鄰","STREET":"\u25A0信街","SECT":" ","MAREA":" ","LANE":" ","ALLEY":" ","HOUSE_NO":"４２號","E_COORD97":170850.67000000001,"N_COORD97":2547443.8900000001,"ADDRESS":"\u25A0信街４２號","OBJECTID":464068},"geometry":{"x":170850.66999999993,"y":2547443.8900000025}},{"attributes":{"ID":464094,"DIS_CODE":0,"TOWNNAME":"佳里區","LI":"鎮山里","LIN":"5鄰","STREET":"平等街","SECT":" ","MAREA":" ","LANE":" ","ALLEY":" ","HOUSE_NO":"７１號","E_COORD97":166063.23000000001,"N_COORD97":2561911.6600000001,"ADDRESS":"平等街７１號","OBJECTID":464069},"geometry":{"x":166063.23000000138,"y":2561911.660000002}},{"attributes":{"ID":464095,"DIS_CODE":0,"TOWNNAME":"佳里區","LI":"鎮山里","LIN":"5鄰","STREET":"平等街","SECT":" ","MAREA":" ","LANE":" ","ALLEY":" ","HOUSE_NO":"７３號","E_COORD97":166058.57999999999,"N_COORD97":2561910.9100000001,"ADDRESS":"平等街７３號","OBJECTID":464070},"geometry":{"x":166058.58000000101,"y":2561910.910000002}},{"attributes":{"ID":464096,"DIS_CODE":0,"TOWNNAME":"佳里區","LI":"鎮山里","LIN":"5鄰","STREET":"平等街","SECT":" ","MAREA":" ","LANE":" ","ALLEY":" ","HOUSE_NO":"７５號","E_COORD97":166054.23000000001,"N_COORD97":2561910.2000000002,"ADDRESS":"平等街７５號","OBJECTID":464071},"geometry":{"x":166054.23000000231,"y":2561910.2000000011}},{"attributes":{"ID":464097,"DIS_CODE":0,"TOWNNAME":"佳里區","LI":"鎮山里","LIN":"5鄰","STREET":"平等街","SECT":" ","MAREA":" ","LANE":" ","ALLEY":" ","HOUSE_NO":"６３號","E_COORD97":166082.07999999999,"N_COORD97":2561914.9900000002,"ADDRESS":"平等街６３號","OBJECTID":464072},"geometry":{"x":166082.08000000194,"y":2561914.9900000002}},{"attributes":{"ID":464098,"DIS_CODE":0,"TOWNNAME":"佳里區","LI":"鎮山里","LIN":"5鄰","STREET":"平等街","SECT":" ","MAREA":" ","LANE":" ","ALLEY":" ","HOUSE_NO":"６５號","E_COORD97":166077.69,"N_COORD97":2561914.2400000002,"ADDRESS":"平等街６５號","OBJECTID":464073},"geometry":{"x":166077.69000000041,"y":2561914.2400000021}},{"attributes":{"ID":464099,"DIS_CODE":0,"TOWNNAME":"佳里區","LI":"鎮山里","LIN":"5鄰","STREET":"平等街","SECT":" ","MAREA":" ","LANE":" ","ALLEY":" ","HOUSE_NO":"６７號","E_COORD97":166073.17000000001,"N_COORD97":2561913.5,"ADDRESS":"平等街６７號","OBJECTID":464074},"geometry":{"x":166073.17000000086,"y":2561913.5000000019}},{"attributes":{"ID":464100,"DIS_CODE":0,"TOWNNAME":"佳里區","LI":"建南里","LIN":"5鄰","STREET":"光復路","SECT":" ","MAREA":" ","LANE":" ","ALLEY":" ","HOUSE_NO":"１７４號","E_COORD97":165512.67000000001,"N_COORD97":2562259.9500000002,"ADDRESS":"光復路１７４號","OBJECTID":464075},"geometry":{"x":165512.66999999993,"y":2562259.9499999993}},{"attributes":{"ID":464101,"DIS_CODE":0,"TOWNNAME":"佳里區","LI":"建南里","LIN":"5鄰","STREET":"光復路","SECT":" ","MAREA":" ","LANE":" ","ALLEY":" ","HOUSE_NO":"１７６號","E_COORD97":165512.92000000001,"N_COORD97":2562264.8300000001,"ADDRESS":"光復路１７６號","OBJECTID":464076},"geometry":{"x":165512.91999999993,"y":2562264.8300000001}},{"attributes":{"ID":464102,"DIS_CODE":0,"TOWNNAME":"佳里區","LI":"建南里","LIN":"5鄰","STREET":"光復路","SECT":" ","MAREA":" ","LANE":" ","ALLEY":" ","HOUSE_NO":"１７８號","E_COORD97":165513.17000000001,"N_COORD97":2562269.6400000001,"ADDRESS":"光復路１７８號","OBJECTID":464077},"geometry":{"x":165513.16999999993,"y":2562269.6400000006}},{"attributes":{"ID":464103,"DIS_CODE":0,"TOWNNAME":"佳里區","LI":"建南里","LIN":"5鄰","STREET":"光復路","SECT":" ","MAREA":" ","LANE":" ","ALLEY":" ","HOUSE_NO":"１８０號","E_COORD97":165513.35999999999,"N_COORD97":2562273.8799999999,"ADDRESS":"光復路１８０號","OBJECTID":464078},"geometry":{"x":165513.36000000034,"y":2562273.879999999}},{"attributes":{"ID":464104,"DIS_CODE":0,"TOWNNAME":"佳里區","LI":"建南里","LIN":"5鄰","STREET":"光復路","SECT":" ","MAREA":" ","LANE":" ","ALLEY":" ","HOUSE_NO":"１８２號","E_COORD97":165513.59,"N_COORD97":2562278.5600000001,"ADDRESS":"光復路１８２號","OBJECTID":464079},"geometry":{"x":165513.58999999985,"y":2562278.5600000024}},{"attributes":{"ID":464105,"DIS_CODE":0,"TOWNNAME":"佳里區","LI":"建南里","LIN":"5鄰","STREET":"光復路","SECT":" ","MAREA":" ","LANE":" ","ALLEY":" ","HOUSE_NO":"１８４號","E_COORD97":165513.84,"N_COORD97":2562282.6800000002,"ADDRESS":"光復路１８４號","OBJECTID":464080},"geometry":{"x":165513.84000000171,"y":2562282.6799999997}},{"attributes":{"ID":464106,"DIS_CODE":0,"TOWNNAME":"佳里區","LI":"建南里","LIN":"5鄰","STREET":"光復路","SECT":" ","MAREA":" ","LANE":" ","ALLEY":" ","HOUSE_NO":"１８６號","E_COORD97":165513.98000000001,"N_COORD97":2562286.8399999999,"ADDRESS":"光復路１８６號","OBJECTID":464081},"geometry":{"x":165513.98000000138,"y":2562286.8400000017}},{"attributes":{"ID":464107,"DIS_CODE":0,"TOWNNAME":"佳里區","LI":"建南里","LIN":"5鄰","STREET":"光復路","SECT":" ","MAREA":" ","LANE":" ","ALLEY":" ","HOUSE_NO":"１８８號","E_COORD97":165514.16,"N_COORD97":2562291.1099999999,"ADDRESS":"光復路１８８號","OBJECTID":464082},"geometry":{"x":165514.16000000108,"y":2562291.1100000013}},{"attributes":{"ID":464108,"DIS_CODE":0,"TOWNNAME":"佳里區","LI":"建南里","LIN":"5鄰","STREET":"光復路","SECT":" ","MAREA":" ","LANE":" ","ALLEY":" ","HOUSE_NO":"１９０號","E_COORD97":165514.45000000001,"N_COORD97":2562295.7400000002,"ADDRESS":"光復路１９０號","OBJECTID":464083},"geometry":{"x":165514.45000000019,"y":2562295.7400000002}},{"attributes":{"ID":464109,"DIS_CODE":0,"TOWNNAME":"佳里區","LI":"建南里","LIN":"5鄰","STREET":"光復路","SECT":" ","MAREA":" ","LANE":" ","ALLEY":" ","HOUSE_NO":"１９２號","E_COORD97":165514.75,"N_COORD97":2562300.9100000001,"ADDRESS":"光復路１９２號","OBJECTID":464084},"geometry":{"x":165514.75000000093,"y":2562300.9100000001}},{"attributes":{"ID":464110,"DIS_CODE":0,"TOWNNAME":"佳里區","LI":"建南里","LIN":"5鄰","STREET":"光復路","SECT":" ","MAREA":" ","LANE":" ","ALLEY":" ","HOUSE_NO":"１９４號","E_COORD97":165515.28,"N_COORD97":2562306.1800000002,"ADDRESS":"光復路１９４號","OBJECTID":464085},"geometry":{"x":165515.28000000119,"y":2562306.1799999997}},{"attributes":{"ID":464111,"DIS_CODE":0,"TOWNNAME":"佳里區","LI":"建南里","LIN":"5鄰","STREET":"光復路","SECT":" ","MAREA":" ","LANE":" ","ALLEY":" ","HOUSE_NO":"１９６號","E_COORD97":165516.79999999999,"N_COORD97":2562313.5299999998,"ADDRESS":"光復路１９６號","OBJECTID":464086},"geometry":{"x":165516.79999999981,"y":2562313.5299999993}},{"attributes":{"ID":464112,"DIS_CODE":0,"TOWNNAME":"佳里區","LI":"建南里","LIN":"5鄰","STREET":"光復路","SECT":" ","MAREA":" ","LANE":" ","ALLEY":" ","HOUSE_NO":"１９８號之１","E_COORD97":165515.59,"N_COORD97":2562329.25,"ADDRESS":"光復路１９８號之１","OBJECTID":464087},"geometry":{"x":165515.59000000171,"y":2562329.25}},{"attributes":{"ID":464113,"DIS_CODE":0,"TOWNNAME":"佳里區","LI":"建南里","LIN":"5鄰","STREET":"光復路","SECT":" ","MAREA":" ","LANE":" ","ALLEY":" ","HOUSE_NO":"１９８號","E_COORD97":165515.54000000001,"N_COORD97":2562323.7999999998,"ADDRESS":"光復路１９８號","OBJECTID":464088},"geometry":{"x":165515.54000000004,"y":2562323.8000000007}},{"attributes":{"ID":464114,"DIS_CODE":0,"TOWNNAME":"佳里區","LI":"建南里","LIN":"5鄰","STREET":"光復路","SECT":" ","MAREA":" ","LANE":" ","ALLEY":" ","HOUSE_NO":"２０２號","E_COORD97":165515.81,"N_COORD97":2562339.6800000002,"ADDRESS":"光復路２０２號","OBJECTID":464089},"geometry":{"x":165515.81000000052,"y":2562339.6799999997}},{"attributes":{"ID":464115,"DIS_CODE":0,"TOWNNAME":"佳里區","LI":"建南里","LIN":"5鄰","STREET":"光復路","SECT":" ","MAREA":" ","LANE":" ","ALLEY":" ","HOUSE_NO":"２０４號","E_COORD97":165516.23000000001,"N_COORD97":2562345.6499999999,"ADDRESS":"光復路２０４號","OBJECTID":464090},"geometry":{"x":165516.23000000045,"y":2562345.6500000022}},{"attributes":{"ID":464116,"DIS_CODE":0,"TOWNNAME":"佳里區","LI":"建南里","LIN":"5鄰","STREET":"光復路","SECT":" ","MAREA":" ","LANE":" ","ALLEY":" ","HOUSE_NO":"２０６號","E_COORD97":165516.23000000001,"N_COORD97":2562352.54,"ADDRESS":"光復路２０６號","OBJECTID":464091},"geometry":{"x":165516.23000000045,"y":2562352.540000001}},{"attributes":{"ID":464117,"DIS_CODE":0,"TOWNNAME":"佳里區","LI":"建南里","LIN":"5鄰","STREET":"光復路","SECT":" ","MAREA":" ","LANE":" ","ALLEY":" ","HOUSE_NO":"２０８號","E_COORD97":165516.53,"N_COORD97":2562357.5299999998,"ADDRESS":"光復路２０８號","OBJECTID":464092},"geometry":{"x":165516.53000000119,"y":2562357.5299999993}},{"attributes":{"ID":464118,"DIS_CODE":0,"TOWNNAME":"佳里區","LI":"建南里","LIN":"5鄰","STREET":"光復路","SECT":" ","MAREA":" ","LANE":" ","ALLEY":" ","HOUSE_NO":"２１２號","E_COORD97":165516.92999999999,"N_COORD97":2562362.6800000002,"ADDRESS":"光復路２１２號","OBJECTID":464093},"geometry":{"x":165516.93000000063,"y":2562362.6800000016}},{"attributes":{"ID":464119,"DIS_CODE":0,"TOWNNAME":"佳里區","LI":"建南里","LIN":"5鄰","STREET":"光復路","SECT":" ","MAREA":" ","LANE":" ","ALLEY":" ","HOUSE_NO":"２１４號","E_COORD97":165517.04000000001,"N_COORD97":2562368.5299999998,"ADDRESS":"光復路２１４號","OBJECTID":464094},"geometry":{"x":165517.04000000004,"y":2562368.5299999975}},{"attributes":{"ID":464120,"DIS_CODE":0,"TOWNNAME":"中西區","LI":"大涼里","LIN":"19鄰","STREET":"府前一街","SECT":" ","MAREA":" ","LANE":" ","ALLEY":" ","HOUSE_NO":"１７５號","E_COORD97":166660.20999999999,"N_COORD97":2544142.8100000001,"ADDRESS":"府前一街１７５號","OBJECTID":464095},"geometry":{"x":166660.20999999996,"y":2544142.8100000024}},{"attributes":{"ID":464121,"DIS_CODE":0,"TOWNNAME":"中西區","LI":"大涼里","LIN":"19鄰","STREET":"府前一街","SECT":" ","MAREA":" ","LANE":" ","ALLEY":" ","HOUSE_NO":"１７７號","E_COORD97":166654.03,"N_COORD97":2544145.7799999998,"ADDRESS":"府前一街１７７號","OBJECTID":464096},"geometry":{"x":166654.03000000119,"y":2544145.7799999993}},{"attributes":{"ID":464122,"DIS_CODE":0,"TOWNNAME":"中西區","LI":"大涼里","LIN":"19鄰","STREET":"府前一街","SECT":" ","MAREA":" ","LANE":" ","ALLEY":" ","HOUSE_NO":"１７９號","E_COORD97":166649,"N_COORD97":2544147.3799999999,"ADDRESS":"府前一街１７９號","OBJECTID":464097},"geometry":{"x":166649.00000000093,"y":2544147.3800000008}},{"attributes":{"ID":464123,"DIS_CODE":0,"TOWNNAME":"中西區","LI":"水仙里","LIN":"9鄰","STREET":"仁愛街","SECT":" ","MAREA":" ","LANE":" ","ALLEY":" ","HOUSE_NO":"４３號","E_COORD97":167763.51000000001,"N_COORD97":2544077.2599999998,"ADDRESS":"仁愛街４３號","OBJECTID":464098},"geometry":{"x":167763.50999999978,"y":2544077.2600000016}},{"attributes":{"ID":464124,"DIS_CODE":0,"TOWNNAME":"中西區","LI":"水仙里","LIN":"9鄰","STREET":"仁愛街","SECT":" ","MAREA":" ","LANE":" ","ALLEY":" ","HOUSE_NO":"４７號","E_COORD97":167768.01999999999,"N_COORD97":2544084.1099999999,"ADDRESS":"仁愛街４７號","OBJECTID":464099},"geometry":{"x":167768.01999999955,"y":2544084.1100000031}},{"attributes":{"ID":464125,"DIS_CODE":0,"TOWNNAME":"中西區","LI":"水仙里","LIN":"9鄰","STREET":"仁愛街","SECT":" ","MAREA":" ","LANE":" ","ALLEY":" ","HOUSE_NO":"４９號","E_COORD97":167768.97,"N_COORD97":2544088.0099999998,"ADDRESS":"仁愛街４９號","OBJECTID":464100},"geometry":{"x":167768.96999999881,"y":2544088.0099999998}},{"attributes":{"ID":464126,"DIS_CODE":0,"TOWNNAME":"中西區","LI":"水仙里","LIN":"9鄰","STREET":"仁愛街","SECT":" ","MAREA":" ","LANE":" ","ALLEY":" ","HOUSE_NO":"５３號","E_COORD97":167773.35000000001,"N_COORD97":2544100.6899999999,"ADDRESS":"仁愛街５３號","OBJECTID":464101},"geometry":{"x":167773.35000000056,"y":2544100.6900000013}},{"attributes":{"ID":464127,"DIS_CODE":0,"TOWNNAME":"中西區","LI":"水仙里","LIN":"9鄰","STREET":"和平街","SECT":" ","MAREA":" ","LANE":" ","ALLEY":" ","HOUSE_NO":"５５號","E_COORD97":167763.82000000001,"N_COORD97":2544094.1899999999,"ADDRESS":"和平街５５號","OBJECTID":464102},"geometry":{"x":167763.81999999937,"y":2544094.1900000013}},{"attributes":{"ID":464128,"DIS_CODE":0,"TOWNNAME":"中西區","LI":"水仙里","LIN":"9鄰","STREET":"和平街","SECT":" ","MAREA":" ","LANE":" ","ALLEY":" ","HOUSE_NO":"５７號","E_COORD97":167756.79000000001,"N_COORD97":2544097.2200000002,"ADDRESS":"和平街５７號","OBJECTID":464103},"geometry":{"x":167756.79000000004,"y":2544097.2200000007}},{"attributes":{"ID":464129,"DIS_CODE":0,"TOWNNAME":"中西區","LI":"民生里","LIN":"5鄰","STREET":"永華路","SECT":"一段","MAREA":" ","LANE":" ","ALLEY":" ","HOUSE_NO":"２３６號","E_COORD97":167043.82000000001,"N_COORD97":2543240.6200000001,"ADDRESS":"永華路一段２３６號","OBJECTID":464104},"geometry":{"x":167043.82000000123,"y":2543240.620000001}},{"attributes":{"ID":464130,"DIS_CODE":0,"TOWNNAME":"安南區","LI":"原佃里","LIN":"5鄰","STREET":"本原街","SECT":"一段","MAREA":" ","LANE":" ","ALLEY":" ","HOUSE_NO":"２２６之６號","E_COORD97":167790.29000000001,"N_COORD97":2550429.3900000001,"ADDRESS":"本原街一段２２６之６號","OBJECTID":464105},"geometry":{"x":167790.29000000004,"y":2550429.3900000006}},{"attributes":{"ID":464131,"DIS_CODE":0,"TOWNNAME":"新市區","LI":"港墘里","LIN":"5鄰","STREET":"民族路","SECT":" ","MAREA":" ","LANE":" ","ALLEY":" ","HOUSE_NO":"１１７號","E_COORD97":178296.79000000001,"N_COORD97":2553591.79,"ADDRESS":"民族路１１７號","OBJECTID":464106},"geometry":{"x":178296.79000000097,"y":2553591.7899999991}},{"attributes":{"ID":464132,"DIS_CODE":0,"TOWNNAME":"新市區","LI":"港墘里","LIN":"5鄰","STREET":"民族路","SECT":" ","MAREA":" ","LANE":" ","ALLEY":" ","HOUSE_NO":"１１１號","E_COORD97":178306.23000000001,"N_COORD97":2553601.04,"ADDRESS":"民族路１１１號","OBJECTID":464107},"geometry":{"x":178306.23000000045,"y":2553601.0400000028}},{"attributes":{"ID":464133,"DIS_CODE":0,"TOWNNAME":"新市區","LI":"新市里","LIN":"5鄰","STREET":"仁愛街","SECT":" ","MAREA":" ","LANE":" ","ALLEY":" ","HOUSE_NO":"３１７號","E_COORD97":177654.94,"N_COORD97":2553083.5299999998,"ADDRESS":"仁愛街３１７號","OBJECTID":464108},"geometry":{"x":177654.94000000134,"y":2553083.5300000012}},{"attributes":{"ID":464134,"DIS_CODE":0,"TOWNNAME":"新市區","LI":"港墘里","LIN":"5鄰","STREET":"民族路","SECT":" ","MAREA":" ","LANE":" ","ALLEY":" ","HOUSE_NO":"８６號","E_COORD97":178296.89999999999,"N_COORD97":2553622.04,"ADDRESS":"民族路８６號","OBJECTID":464109},"geometry":{"x":178296.90000000037,"y":2553622.040000001}},{"attributes":{"ID":464135,"DIS_CODE":0,"TOWNNAME":"新市區","LI":"港墘里","LIN":"5鄰","STREET":"民族路","SECT":" ","MAREA":" ","LANE":" ","ALLEY":" ","HOUSE_NO":"１２０之１號","E_COORD97":178180.14999999999,"N_COORD97":2553615.2999999998,"ADDRESS":"民族路１２０之１號","OBJECTID":464110},"geometry":{"x":178180.15000000037,"y":2553615.3000000026}},{"attributes":{"ID":464136,"DIS_CODE":0,"TOWNNAME":"新市區","LI":"港墘里","LIN":"5鄰","STREET":"民族路","SECT":" ","MAREA":" ","LANE":" ","ALLEY":" ","HOUSE_NO":"１２５號","E_COORD97":178281.89999999999,"N_COORD97":2553575.79,"ADDRESS":"民族路１２５號","OBJECTID":464111},"geometry":{"x":178281.90000000037,"y":2553575.790000001}},{"attributes":{"ID":464137,"DIS_CODE":0,"TOWNNAME":"新市區","LI":"新市里","LIN":"5鄰","STREET":"華興街","SECT":" ","MAREA":" ","LANE":" ","ALLEY":" ","HOUSE_NO":"６６號","E_COORD97":177616.17999999999,"N_COORD97":2552988.25,"ADDRESS":"華興街６６號","OBJECTID":464112},"geometry":{"x":177616.1799999997,"y":2552988.2500000019}},{"attributes":{"ID":464138,"DIS_CODE":0,"TOWNNAME":"新市區","LI":"新和里","LIN":"5鄰","STREET":"昆明街","SECT":" ","MAREA":" ","LANE":" ","ALLEY":" ","HOUSE_NO":"１６號","E_COORD97":177355.14999999999,"N_COORD97":2552368.75,"ADDRESS":"昆明街１６號","OBJECTID":464113},"geometry":{"x":177355.1500000013,"y":2552368.75}},{"attributes":{"ID":464139,"DIS_CODE":0,"TOWNNAME":"新市區","LI":"新和里","LIN":"5鄰","STREET":"昆明街","SECT":" ","MAREA":" ","LANE":" ","ALLEY":" ","HOUSE_NO":"１０號","E_COORD97":177367.20000000001,"N_COORD97":2552372,"ADDRESS":"昆明街１０號","OBJECTID":464114},"geometry":{"x":177367.20000000019,"y":2552372.0000000019}},{"attributes":{"ID":464140,"DIS_CODE":0,"TOWNNAME":"新市區","LI":"新和里","LIN":"5鄰","STREET":"昆明街","SECT":" ","MAREA":" ","LANE":" ","ALLEY":" ","HOUSE_NO":"１４號","E_COORD97":177359.23999999999,"N_COORD97":2552370,"ADDRESS":"昆明街１４號","OBJECTID":464115},"geometry":{"x":177359.24000000209,"y":2552370}},{"attributes":{"ID":464141,"DIS_CODE":0,"TOWNNAME":"新市區","LI":"新和里","LIN":"5鄰","STREET":"昆明街","SECT":" ","MAREA":" ","LANE":" ","ALLEY":" ","HOUSE_NO":"４０號","E_COORD97":177287.48999999999,"N_COORD97":2552354,"ADDRESS":"昆明街４０號","OBJECTID":464116},"geometry":{"x":177287.49000000022,"y":2552354}},{"attributes":{"ID":464142,"DIS_CODE":0,"TOWNNAME":"中西區","LI":"民主里","LIN":"5鄰","STREET":"友愛街","SECT":" ","MAREA":" ","LANE":" ","ALLEY":" ","HOUSE_NO":"３３７號","E_COORD97":167459.14999999999,"N_COORD97":2543660.0099999998,"ADDRESS":"友愛街３３７號","OBJECTID":464117},"geometry":{"x":167459.1500000013,"y":2543660.0099999998}},{"attributes":{"ID":464143,"DIS_CODE":0,"TOWNNAME":"中西區","LI":"民主里","LIN":"5鄰","STREET":"友愛街","SECT":" ","MAREA":" ","LANE":" ","ALLEY":" ","HOUSE_NO":"３３９號","E_COORD97":167454.92999999999,"N_COORD97":2543661.3799999999,"ADDRESS":"友愛街３３９號","OBJECTID":464118},"geometry":{"x":167454.9299999997,"y":2543661.3800000027}},{"attributes":{"ID":464144,"DIS_CODE":0,"TOWNNAME":"中西區","LI":"民主里","LIN":"5鄰","STREET":"友愛街","SECT":" ","MAREA":" ","LANE":" ","ALLEY":" ","HOUSE_NO":"３４１號","E_COORD97":167450.89999999999,"N_COORD97":2543662.9399999999,"ADDRESS":"友愛街３４１號","OBJECTID":464119},"geometry":{"x":167450.90000000037,"y":2543662.9400000013}},{"attributes":{"ID":464145,"DIS_CODE":0,"TOWNNAME":"中西區","LI":"民主里","LIN":"5鄰","STREET":"友愛街","SECT":" ","MAREA":" ","LANE":" ","ALLEY":" ","HOUSE_NO":"３４３號","E_COORD97":167446.78,"N_COORD97":2543663.7599999998,"ADDRESS":"友愛街３４３號","OBJECTID":464120},"geometry":{"x":167446.78000000026,"y":2543663.7600000016}},{"attributes":{"ID":464146,"DIS_CODE":0,"TOWNNAME":"中西區","LI":"民主里","LIN":"5鄰","STREET":"友愛街","SECT":" ","MAREA":" ","LANE":" ","ALLEY":" ","HOUSE_NO":"３４５號","E_COORD97":167442.75,"N_COORD97":2543665.0499999998,"ADDRESS":"友愛街３４５號","OBJECTID":464121},"geometry":{"x":167442.75000000093,"y":2543665.0499999989}},{"attributes":{"ID":464147,"DIS_CODE":0,"TOWNNAME":"中西區","LI":"民主里","LIN":"5鄰","STREET":"友愛街","SECT":" ","MAREA":" ","LANE":" ","ALLEY":" ","HOUSE_NO":"３４７號","E_COORD97":167439.45000000001,"N_COORD97":2543665.4100000001,"ADDRESS":"友愛街３４７號","OBJECTID":464122},"geometry":{"x":167439.45000000112,"y":2543665.4099999983}},{"attributes":{"ID":464148,"DIS_CODE":0,"TOWNNAME":"中西區","LI":"民主里","LIN":"5鄰","STREET":"友愛街","SECT":" ","MAREA":" ","LANE":" ","ALLEY":" ","HOUSE_NO":"３４９號","E_COORD97":167427.07999999999,"N_COORD97":2543671.4700000002,"ADDRESS":"友愛街３４９號","OBJECTID":464123},"geometry":{"x":167427.08000000101,"y":2543671.4700000007}},{"attributes":{"ID":464149,"DIS_CODE":0,"TOWNNAME":"中西區","LI":"民主里","LIN":"5鄰","STREET":"康樂街","SECT":" ","MAREA":" ","LANE":" ","ALLEY":" ","HOUSE_NO":"７２號","E_COORD97":167414.09,"N_COORD97":2543631.0699999998,"ADDRESS":"康樂街７２號","OBJECTID":464124},"geometry":{"x":167414.09000000171,"y":2543631.070000004}},{"attributes":{"ID":464150,"DIS_CODE":0,"TOWNNAME":"中西區","LI":"民主里","LIN":"5鄰","STREET":"康樂街","SECT":" ","MAREA":" ","LANE":" ","ALLEY":" ","HOUSE_NO":"７４號","E_COORD97":167416.76999999999,"N_COORD97":2543636.6299999999,"ADDRESS":"康樂街７４號","OBJECTID":464125},"geometry":{"x":167416.77000000048,"y":2543636.6300000008}},{"attributes":{"ID":464151,"DIS_CODE":0,"TOWNNAME":"中西區","LI":"民主里","LIN":"5鄰","STREET":"康樂街","SECT":" ","MAREA":" ","LANE":" ","ALLEY":" ","HOUSE_NO":"７６號","E_COORD97":167417.35999999999,"N_COORD97":2543640.96,"ADDRESS":"康樂街７６號","OBJECTID":464126},"geometry":{"x":167417.36000000034,"y":2543640.9600000009}},{"attributes":{"ID":464152,"DIS_CODE":0,"TOWNNAME":"中西區","LI":"民主里","LIN":"5鄰","STREET":"康樂街","SECT":" ","MAREA":" ","LANE":" ","ALLEY":" ","HOUSE_NO":"７８號","E_COORD97":167419.20000000001,"N_COORD97":2543646.48,"ADDRESS":"康樂街７８號","OBJECTID":464127},"geometry":{"x":167419.20000000112,"y":2543646.4800000023}},{"attributes":{"ID":464153,"DIS_CODE":0,"TOWNNAME":"中西區","LI":"民主里","LIN":"5鄰","STREET":"康樂街","SECT":" ","MAREA":" ","LANE":" ","ALLEY":" ","HOUSE_NO":"８０號","E_COORD97":167419.39999999999,"N_COORD97":2543650.48,"ADDRESS":"康樂街８０號","OBJECTID":464128},"geometry":{"x":167419.40000000224,"y":2543650.4800000004}},{"attributes":{"ID":464154,"DIS_CODE":0,"TOWNNAME":"中西區","LI":"民生里","LIN":"5鄰","STREET":"永華路","SECT":"一段","MAREA":" ","LANE":" ","ALLEY":" ","HOUSE_NO":"２３８號","E_COORD97":167039.42999999999,"N_COORD97":2543241.71,"ADDRESS":"永華路一段２３８號","OBJECTID":464129},"geometry":{"x":167039.43000000063,"y":2543241.7100000028}},{"attributes":{"ID":464155,"DIS_CODE":0,"TOWNNAME":"中西區","LI":"民生里","LIN":"5鄰","STREET":"永華路","SECT":"一段","MAREA":" ","LANE":" ","ALLEY":" ","HOUSE_NO":"２４２號","E_COORD97":167029.26999999999,"N_COORD97":2543244.1800000002,"ADDRESS":"永華路一段２４２號","OBJECTID":464130},"geometry":{"x":167029.26999999955,"y":2543244.1800000016}},{"attributes":{"ID":464156,"DIS_CODE":0,"TOWNNAME":"中西區","LI":"民生里","LIN":"5鄰","STREET":"永華路","SECT":"一段","MAREA":" ","LANE":" ","ALLEY":" ","HOUSE_NO":"２４４號","E_COORD97":167024.87,"N_COORD97":2543245.2799999998,"ADDRESS":"永華路一段２４４號","OBJECTID":464131},"geometry":{"x":167024.87000000104,"y":2543245.2800000031}},{"attributes":{"ID":464157,"DIS_CODE":0,"TOWNNAME":"中西區","LI":"民生里","LIN":"5鄰","STREET":"武英街","SECT":" ","MAREA":" ","LANE":" ","ALLEY":" ","HOUSE_NO":"６９號","E_COORD97":167005.92999999999,"N_COORD97":2543344.5600000001,"ADDRESS":"武英街６９號","OBJECTID":464132},"geometry":{"x":167005.9299999997,"y":2543344.5600000024}},{"attributes":{"ID":464158,"DIS_CODE":0,"TOWNNAME":"中西區","LI":"民生里","LIN":"5鄰","STREET":"武英街","SECT":" ","MAREA":" ","LANE":" ","ALLEY":" ","HOUSE_NO":"７１號","E_COORD97":166999.34,"N_COORD97":2543340.7200000002,"ADDRESS":"武英街７１號","OBJECTID":464133},"geometry":{"x":166999.34000000078,"y":2543340.7200000007}},{"attributes":{"ID":464159,"DIS_CODE":0,"TOWNNAME":"中西區","LI":"民生里","LIN":"5鄰","STREET":"南華街","SECT":" ","MAREA":" ","LANE":" ","ALLEY":" ","HOUSE_NO":"１１號","E_COORD97":167055.63,"N_COORD97":2543276.54,"ADDRESS":"南華街１１號","OBJECTID":464134},"geometry":{"x":167055.62999999989,"y":2543276.5399999991}},{"attributes":{"ID":464160,"DIS_CODE":0,"TOWNNAME":"中西區","LI":"民生里","LIN":"5鄰","STREET":"南華街","SECT":" ","MAREA":" ","LANE":" ","ALLEY":" ","HOUSE_NO":"１３號","E_COORD97":167057,"N_COORD97":2543281.75,"ADDRESS":"南華街１３號","OBJECTID":464135},"geometry":{"x":167057,"y":2543281.7500000019}},{"attributes":{"ID":464161,"DIS_CODE":0,"TOWNNAME":"中西區","LI":"民生里","LIN":"5鄰","STREET":"南華街","SECT":" ","MAREA":" ","LANE":" ","ALLEY":" ","HOUSE_NO":"１５號","E_COORD97":167057.82000000001,"N_COORD97":2543286.1400000001,"ADDRESS":"南華街１５號","OBJECTID":464136},"geometry":{"x":167057.82000000123,"y":2543286.1400000025}},{"attributes":{"ID":464162,"DIS_CODE":0,"TOWNNAME":"中西區","LI":"民生里","LIN":"5鄰","STREET":"南華街","SECT":" ","MAREA":" ","LANE":" ","ALLEY":" ","HOUSE_NO":"１７號","E_COORD97":167057.54999999999,"N_COORD97":2543289.7000000002,"ADDRESS":"南華街１７號","OBJECTID":464137},"geometry":{"x":167057.54999999981,"y":2543289.700000003}},{"attributes":{"ID":464163,"DIS_CODE":0,"TOWNNAME":"中西區","LI":"民生里","LIN":"5鄰","STREET":"南華街","SECT":" ","MAREA":" ","LANE":" ","ALLEY":" ","HOUSE_NO":"１９號","E_COORD97":167058.64999999999,"N_COORD97":2543293.8199999998,"ADDRESS":"南華街１９號","OBJECTID":464138},"geometry":{"x":167058.6500000013,"y":2543293.8200000022}},{"attributes":{"ID":464164,"DIS_CODE":0,"TOWNNAME":"中西區","LI":"民生里","LIN":"5鄰","STREET":"南華街","SECT":" ","MAREA":" ","LANE":" ","ALLEY":" ","HOUSE_NO":"２１號","E_COORD97":167060.57000000001,"N_COORD97":2543300.3999999999,"ADDRESS":"南華街２１號","OBJECTID":464139},"geometry":{"x":167060.57000000123,"y":2543300.4000000022}},{"attributes":{"ID":464165,"DIS_CODE":0,"TOWNNAME":"東區","LI":"裕聖里","LIN":"5鄰","STREET":"裕孝路","SECT":" ","MAREA":" ","LANE":" ","ALLEY":" ","HOUSE_NO":"３８７號","E_COORD97":172507.47,"N_COORD97":2542319.0699999998,"ADDRESS":"裕孝路３８７號","OBJECTID":464140},"geometry":{"x":172507.47000000067,"y":2542319.0700000022}},{"attributes":{"ID":464166,"DIS_CODE":0,"TOWNNAME":"東區","LI":"裕聖里","LIN":"5鄰","STREET":"裕孝路","SECT":" ","MAREA":" ","LANE":" ","ALLEY":" ","HOUSE_NO":"３８９號","E_COORD97":172512.16,"N_COORD97":2542321.48,"ADDRESS":"裕孝路３８９號","OBJECTID":464141},"geometry":{"x":172512.16000000108,"y":2542321.4800000004}},{"attributes":{"ID":464167,"DIS_CODE":0,"TOWNNAME":"東區","LI":"裕聖里","LIN":"5鄰","STREET":"裕孝路","SECT":" ","MAREA":" ","LANE":" ","ALLEY":" ","HOUSE_NO":"３９１號","E_COORD97":172512.59,"N_COORD97":2542302.3300000001,"ADDRESS":"裕孝路３９１號","OBJECTID":464142},"geometry":{"x":172512.58999999985,"y":2542302.3300000001}},{"attributes":{"ID":464168,"DIS_CODE":0,"TOWNNAME":"東區","LI":"裕聖里","LIN":"5鄰","STREET":"裕孝路","SECT":" ","MAREA":" ","LANE":" ","ALLEY":" ","HOUSE_NO":"３９３號","E_COORD97":172507.19,"N_COORD97":2542305.1600000001,"ADDRESS":"裕孝路３９３號","OBJECTID":464143},"geometry":{"x":172507.19000000134,"y":2542305.160000002}},{"attributes":{"ID":464169,"DIS_CODE":0,"TOWNNAME":"東區","LI":"裕聖里","LIN":"5鄰","STREET":"裕孝路","SECT":" ","MAREA":" ","LANE":" ","ALLEY":" ","HOUSE_NO":"３９５號","E_COORD97":172502.92999999999,"N_COORD97":2542302.04,"ADDRESS":"裕孝路３９５號","OBJECTID":464144},"geometry":{"x":172502.93000000063,"y":2542302.040000001}},{"attributes":{"ID":464170,"DIS_CODE":0,"TOWNNAME":"東區","LI":"裕聖里","LIN":"5鄰","STREET":"裕孝路","SECT":" ","MAREA":" ","LANE":" ","ALLEY":" ","HOUSE_NO":"３９７號","E_COORD97":172499.38,"N_COORD97":2542305.8700000001,"ADDRESS":"裕孝路３９７號","OBJECTID":464145},"geometry":{"x":172499.38000000175,"y":2542305.870000001}},{"attributes":{"ID":464171,"DIS_CODE":0,"TOWNNAME":"東區","LI":"裕聖里","LIN":"5鄰","STREET":"裕孝路","SECT":" ","MAREA":" ","LANE":" ","ALLEY":" ","HOUSE_NO":"３９９號","E_COORD97":172495.12,"N_COORD97":2542301.0499999998,"ADDRESS":"裕孝路３９９號","OBJECTID":464146},"geometry":{"x":172495.12000000104,"y":2542301.0500000007}},{"attributes":{"ID":464172,"DIS_CODE":0,"TOWNNAME":"東區","LI":"裕聖里","LIN":"5鄰","STREET":"裕孝路","SECT":" ","MAREA":" ","LANE":" ","ALLEY":" ","HOUSE_NO":"４０１號","E_COORD97":172489.44,"N_COORD97":2542305.8700000001,"ADDRESS":"裕孝路４０１號","OBJECTID":464147},"geometry":{"x":172489.44000000227,"y":2542305.870000001}},{"attributes":{"ID":464173,"DIS_CODE":0,"TOWNNAME":"東區","LI":"裕聖里","LIN":"5鄰","STREET":"裕孝路","SECT":" ","MAREA":" ","LANE":" ","ALLEY":" ","HOUSE_NO":"４０３號","E_COORD97":172486.60000000001,"N_COORD97":2542300.6200000001,"ADDRESS":"裕孝路４０３號","OBJECTID":464148},"geometry":{"x":172486.60000000056,"y":2542300.620000001}},{"attributes":{"ID":464174,"DIS_CODE":0,"TOWNNAME":"東區","LI":"裕聖里","LIN":"5鄰","STREET":"裕孝路","SECT":" ","MAREA":" ","LANE":" ","ALLEY":" ","HOUSE_NO":"４０５號","E_COORD97":172481.35000000001,"N_COORD97":2542305.1600000001,"ADDRESS":"裕孝路４０５號","OBJECTID":464149},"geometry":{"x":172481.35000000056,"y":2542305.160000002}},{"attributes":{"ID":464175,"DIS_CODE":0,"TOWNNAME":"東區","LI":"裕聖里","LIN":"5鄰","STREET":"裕孝路","SECT":" ","MAREA":" ","LANE":" ","ALLEY":" ","HOUSE_NO":"４０７號","E_COORD97":172477.37,"N_COORD97":2542299.9100000001,"ADDRESS":"裕孝路４０７號","OBJECTID":464150},"geometry":{"x":172477.37000000011,"y":2542299.910000002}},{"attributes":{"ID":464176,"DIS_CODE":0,"TOWNNAME":"東區","LI":"裕聖里","LIN":"5鄰","STREET":"裕孝路","SECT":" ","MAREA":" ","LANE":" ","ALLEY":" ","HOUSE_NO":"４０９號","E_COORD97":172472.67999999999,"N_COORD97":2542305.1600000001,"ADDRESS":"裕孝路４０９號","OBJECTID":464151},"geometry":{"x":172472.6799999997,"y":2542305.160000002}},{"attributes":{"ID":464177,"DIS_CODE":0,"TOWNNAME":"東區","LI":"裕聖里","LIN":"5鄰","STREET":"裕孝路","SECT":" ","MAREA":" ","LANE":" ","ALLEY":" ","HOUSE_NO":"４１１號","E_COORD97":172468.42000000001,"N_COORD97":2542299.9100000001,"ADDRESS":"裕孝路４１１號","OBJECTID":464152},"geometry":{"x":172468.41999999993,"y":2542299.910000002}},{"attributes":{"ID":464178,"DIS_CODE":0,"TOWNNAME":"東區","LI":"裕聖里","LIN":"5鄰","STREET":"裕孝路","SECT":" ","MAREA":" ","LANE":" ","ALLEY":" ","HOUSE_NO":"４１３號","E_COORD97":172463.88,"N_COORD97":2542304.6000000001,"ADDRESS":"裕孝路４１３號","OBJECTID":464153},"geometry":{"x":172463.88000000175,"y":2542304.6000000015}},{"attributes":{"ID":464179,"DIS_CODE":0,"TOWNNAME":"東區","LI":"裕聖里","LIN":"5鄰","STREET":"裕孝路","SECT":" ","MAREA":" ","LANE":" ","ALLEY":" ","HOUSE_NO":"４１５號","E_COORD97":172460.32999999999,"N_COORD97":2542299.4900000002,"ADDRESS":"裕孝路４１５號","OBJECTID":464154},"geometry":{"x":172460.33000000007,"y":2542299.4900000021}},{"attributes":{"ID":464180,"DIS_CODE":0,"TOWNNAME":"東區","LI":"裕聖里","LIN":"5鄰","STREET":"裕孝路","SECT":" ","MAREA":" ","LANE":" ","ALLEY":" ","HOUSE_NO":"４１７號","E_COORD97":172455.79000000001,"N_COORD97":2542304.46,"ADDRESS":"裕孝路４１７號","OBJECTID":464155},"geometry":{"x":172455.79000000004,"y":2542304.4600000028}},{"attributes":{"ID":464181,"DIS_CODE":0,"TOWNNAME":"東區","LI":"裕聖里","LIN":"5鄰","STREET":"裕孝路","SECT":" ","MAREA":" ","LANE":" ","ALLEY":" ","HOUSE_NO":"４１９號","E_COORD97":172451.53,"N_COORD97":2542299.21,"ADDRESS":"裕孝路４１９號","OBJECTID":464156},"geometry":{"x":172451.53000000119,"y":2542299.2100000028}},{"attributes":{"ID":464182,"DIS_CODE":0,"TOWNNAME":"東區","LI":"裕聖里","LIN":"5鄰","STREET":"裕孝路","SECT":" ","MAREA":" ","LANE":" ","ALLEY":" ","HOUSE_NO":"４２１號","E_COORD97":172446.84,"N_COORD97":2542304.6000000001,"ADDRESS":"裕孝路４２１號","OBJECTID":464157},"geometry":{"x":172446.83999999985,"y":2542304.6000000015}},{"attributes":{"ID":464183,"DIS_CODE":0,"TOWNNAME":"下營區","LI":"新興里","LIN":"5鄰","STREET":"中山路","SECT":"一段","MAREA":" ","LANE":" ","ALLEY":" ","HOUSE_NO":"１６３號","E_COORD97":174804.54999999999,"N_COORD97":2570635.6499999999,"ADDRESS":"中山路一段１６３號","OBJECTID":464158},"geometry":{"x":174804.54999999981,"y":2570635.6500000022}},{"attributes":{"ID":464184,"DIS_CODE":0,"TOWNNAME":"下營區","LI":"新興里","LIN":"5鄰","STREET":"中山路","SECT":"一段","MAREA":" ","LANE":" ","ALLEY":" ","HOUSE_NO":"１７７號","E_COORD97":174817.07999999999,"N_COORD97":2570644.2599999998,"ADDRESS":"中山路一段１７７號","OBJECTID":464159},"geometry":{"x":174817.08000000007,"y":2570644.2600000016}},{"attributes":{"ID":464185,"DIS_CODE":0,"TOWNNAME":"下營區","LI":"新興里","LIN":"5鄰","STREET":"中山路","SECT":"一段","MAREA":" ","LANE":" ","ALLEY":" ","HOUSE_NO":"２３９號","E_COORD97":174844.41,"N_COORD97":2570684.8999999999,"ADDRESS":"中山路一段２３９號","OBJECTID":464160},"geometry":{"x":174844.41000000108,"y":2570684.9000000022}},{"attributes":{"ID":464186,"DIS_CODE":0,"TOWNNAME":"下營區","LI":"新興里","LIN":"5鄰","STREET":"中山路","SECT":"一段","MAREA":" ","LANE":" ","ALLEY":" ","HOUSE_NO":"２４５號","E_COORD97":174870.79000000001,"N_COORD97":2570677.2599999998,"ADDRESS":"中山路一段２４５號","OBJECTID":464161},"geometry":{"x":174870.79000000097,"y":2570677.2599999979}},{"attributes":{"ID":464187,"DIS_CODE":0,"TOWNNAME":"下營區","LI":"營前里","LIN":"5鄰","STREET":"中山路","SECT":"二段","MAREA":" ","LANE":" ","ALLEY":" ","HOUSE_NO":"７３號","E_COORD97":174462.60999999999,"N_COORD97":2570294.1699999999,"ADDRESS":"中山路二段７３號","OBJECTID":464162},"geometry":{"x":174462.61000000034,"y":2570294.1699999999}},{"attributes":{"ID":464188,"DIS_CODE":0,"TOWNNAME":"下營區","LI":"營前里","LIN":"5鄰","STREET":"中山路","SECT":"二段","MAREA":" ","LANE":" ","ALLEY":" ","HOUSE_NO":"７５號","E_COORD97":174465.04999999999,"N_COORD97":2570288.1800000002,"ADDRESS":"中山路二段７５號","OBJECTID":464163},"geometry":{"x":174465.05000000075,"y":2570288.1800000034}},{"attributes":{"ID":464189,"DIS_CODE":0,"TOWNNAME":"下營區","LI":"營前里","LIN":"5鄰","STREET":"中山路","SECT":"二段","MAREA":" ","LANE":" ","ALLEY":" ","HOUSE_NO":"７７號","E_COORD97":174466.79000000001,"N_COORD97":2570283.23,"ADDRESS":"中山路二段７７號","OBJECTID":464164},"geometry":{"x":174466.79000000097,"y":2570283.2300000023}},{"attributes":{"ID":464190,"DIS_CODE":0,"TOWNNAME":"下營區","LI":"營前里","LIN":"5鄰","STREET":"中山路","SECT":"二段","MAREA":" ","LANE":" ","ALLEY":" ","HOUSE_NO":"７９號","E_COORD97":174468.38,"N_COORD97":2570277.3799999999,"ADDRESS":"中山路二段７９號","OBJECTID":464165},"geometry":{"x":174468.38000000082,"y":2570277.379999999}},{"attributes":{"ID":464191,"DIS_CODE":0,"TOWNNAME":"下營區","LI":"營前里","LIN":"5鄰","STREET":"中山路","SECT":"二段","MAREA":" ","LANE":" ","ALLEY":" ","HOUSE_NO":"８１號","E_COORD97":174469.73999999999,"N_COORD97":2570272.8799999999,"ADDRESS":"中山路二段８１號","OBJECTID":464166},"geometry":{"x":174469.74000000022,"y":2570272.8800000008}},{"attributes":{"ID":464192,"DIS_CODE":0,"TOWNNAME":"下營區","LI":"營前里","LIN":"5鄰","STREET":"中山路","SECT":"二段","MAREA":" ","LANE":" ","ALLEY":" ","HOUSE_NO":"８３號","E_COORD97":174471.35999999999,"N_COORD97":2570267.8399999999,"ADDRESS":"中山路二段８３號","OBJECTID":464167},"geometry":{"x":174471.36000000034,"y":2570267.8400000017}},{"attributes":{"ID":464193,"DIS_CODE":0,"TOWNNAME":"下營區","LI":"營前里","LIN":"5鄰","STREET":"中山路","SECT":"二段","MAREA":" ","LANE":" ","ALLEY":" ","HOUSE_NO":"８５號","E_COORD97":174470.85000000001,"N_COORD97":2570257.5299999998,"ADDRESS":"中山路二段８５號","OBJECTID":464168},"geometry":{"x":174470.85000000149,"y":2570257.5299999993}},{"attributes":{"ID":464194,"DIS_CODE":0,"TOWNNAME":"下營區","LI":"營前里","LIN":"5鄰","STREET":"中山路","SECT":"二段","MAREA":" ","LANE":" ","ALLEY":" ","HOUSE_NO":"８９號之１","E_COORD97":174477.73999999999,"N_COORD97":2570241.2200000002,"ADDRESS":"中山路二段８９號之１","OBJECTID":464169},"geometry":{"x":174477.74000000115,"y":2570241.2200000044}},{"attributes":{"ID":464195,"DIS_CODE":0,"TOWNNAME":"下營區","LI":"營前里","LIN":"5鄰","STREET":"中山路","SECT":"二段","MAREA":" ","LANE":" ","ALLEY":" ","HOUSE_NO":"８９號之２","E_COORD97":174476.59,"N_COORD97":2570245.1299999999,"ADDRESS":"中山路二段８９號之２","OBJECTID":464170},"geometry":{"x":174476.59000000078,"y":2570245.1300000008}},{"attributes":{"ID":464196,"DIS_CODE":0,"TOWNNAME":"下營區","LI":"營前里","LIN":"5鄰","STREET":"中山路","SECT":"二段","MAREA":" ","LANE":" ","ALLEY":" ","HOUSE_NO":"８９號","E_COORD97":174481.92000000001,"N_COORD97":2570236.6200000001,"ADDRESS":"中山路二段８９號","OBJECTID":464171},"geometry":{"x":174481.91999999993,"y":2570236.6200000029}},{"attributes":{"ID":464197,"DIS_CODE":0,"TOWNNAME":"下營區","LI":"營前里","LIN":"5鄰","STREET":"中山路","SECT":"二段","MAREA":" ","LANE":" ","ALLEY":" ","HOUSE_NO":"９９號","E_COORD97":174491.59,"N_COORD97":2570229.4300000002,"ADDRESS":"中山路二段９９號","OBJECTID":464172},"geometry":{"x":174491.59000000171,"y":2570229.4300000016}},{"attributes":{"ID":464198,"DIS_CODE":0,"TOWNNAME":"下營區","LI":"後街里","LIN":"5鄰","STREET":"中正北路","SECT":" ","MAREA":" ","LANE":" ","ALLEY":" ","HOUSE_NO":"１４６號","E_COORD97":174447.5,"N_COORD97":2570780.6400000001,"ADDRESS":"中正北路１４６號","OBJECTID":464173},"geometry":{"x":174447.5,"y":2570780.6399999987}},{"attributes":{"ID":464199,"DIS_CODE":0,"TOWNNAME":"下營區","LI":"後街里","LIN":"5鄰","STREET":"中正北路","SECT":" ","MAREA":" ","LANE":" ","ALLEY":" ","HOUSE_NO":"１５０號","E_COORD97":174444.32000000001,"N_COORD97":2570791.6600000001,"ADDRESS":"中正北路１５０號","OBJECTID":464174},"geometry":{"x":174444.3200000003,"y":2570791.660000002}},{"attributes":{"ID":464200,"DIS_CODE":0,"TOWNNAME":"下營區","LI":"後街里","LIN":"5鄰","STREET":"中正北路","SECT":" ","MAREA":" ","LANE":" ","ALLEY":" ","HOUSE_NO":"１５２號","E_COORD97":174439.07000000001,"N_COORD97":2570795.79,"ADDRESS":"中正北路１５２號","OBJECTID":464175},"geometry":{"x":174439.0700000003,"y":2570795.790000001}},{"attributes":{"ID":464201,"DIS_CODE":0,"TOWNNAME":"下營區","LI":"後街里","LIN":"5鄰","STREET":"中正北路","SECT":" ","MAREA":" ","LANE":" ","ALLEY":" ","HOUSE_NO":"１５６號","E_COORD97":174437.57999999999,"N_COORD97":2570799.6200000001,"ADDRESS":"中正北路１５６號","OBJECTID":464176},"geometry":{"x":174437.58000000194,"y":2570799.6200000029}},{"attributes":{"ID":464202,"DIS_CODE":0,"TOWNNAME":"下營區","LI":"下營里","LIN":"5鄰","STREET":"中正南路","SECT":" ","MAREA":" ","LANE":" ","ALLEY":" ","HOUSE_NO":"１６號","E_COORD97":174549.81,"N_COORD97":2570472.5699999998,"ADDRESS":"中正南路１６號","OBJECTID":464177},"geometry":{"x":174549.81000000052,"y":2570472.570000004}},{"attributes":{"ID":464203,"DIS_CODE":0,"TOWNNAME":"中西區","LI":"青年里","LIN":"5鄰","STREET":"武德街","SECT":" ","MAREA":" ","LANE":" ","ALLEY":" ","HOUSE_NO":"１１號","E_COORD97":168962.13,"N_COORD97":2543657.98,"ADDRESS":"武德街１１號","OBJECTID":464178},"geometry":{"x":168962.13000000082,"y":2543657.9800000004}},{"attributes":{"ID":464204,"DIS_CODE":0,"TOWNNAME":"下營區","LI":"下營里","LIN":"5鄰","STREET":"中正南路","SECT":" ","MAREA":" ","LANE":" ","ALLEY":" ","HOUSE_NO":"２０號","E_COORD97":174555.29999999999,"N_COORD97":2570461.1699999999,"ADDRESS":"中正南路２０號","OBJECTID":464179},"geometry":{"x":174555.30000000075,"y":2570461.1700000037}},{"attributes":{"ID":464205,"DIS_CODE":0,"TOWNNAME":"下營區","LI":"下營里","LIN":"5鄰","STREET":"中正南路","SECT":" ","MAREA":" ","LANE":" ","ALLEY":" ","HOUSE_NO":"２２號","E_COORD97":174558.85000000001,"N_COORD97":2570442.4199999999,"ADDRESS":"中正南路２２號","OBJECTID":464180},"geometry":{"x":174558.84999999963,"y":2570442.4200000037}},{"attributes":{"ID":464206,"DIS_CODE":0,"TOWNNAME":"下營區","LI":"下營里","LIN":"5鄰","STREET":"中正南路","SECT":" ","MAREA":" ","LANE":" ","ALLEY":" ","HOUSE_NO":"２６號","E_COORD97":174560.98999999999,"N_COORD97":2570435.4399999999,"ADDRESS":"中正南路２６號","OBJECTID":464181},"geometry":{"x":174560.99000000115,"y":2570435.4400000013}},{"attributes":{"ID":464207,"DIS_CODE":0,"TOWNNAME":"下營區","LI":"下營里","LIN":"5鄰","STREET":"中正南路","SECT":" ","MAREA":" ","LANE":" ","ALLEY":" ","HOUSE_NO":"２８號","E_COORD97":174561.5,"N_COORD97":2570425.7200000002,"ADDRESS":"中正南路２８號","OBJECTID":464182},"geometry":{"x":174561.5,"y":2570425.7200000025}},{"attributes":{"ID":464208,"DIS_CODE":0,"TOWNNAME":"下營區","LI":"下營里","LIN":"5鄰","STREET":"中正南路","SECT":" ","MAREA":" ","LANE":" ","ALLEY":" ","HOUSE_NO":"３０號","E_COORD97":174565.38,"N_COORD97":2570417.1299999999,"ADDRESS":"中正南路３０號","OBJECTID":464183},"geometry":{"x":174565.37999999989,"y":2570417.1300000008}},{"attributes":{"ID":464209,"DIS_CODE":0,"TOWNNAME":"下營區","LI":"下營里","LIN":"5鄰","STREET":"中正南路","SECT":" ","MAREA":" ","LANE":" ","ALLEY":" ","HOUSE_NO":"６號","E_COORD97":174546.85999999999,"N_COORD97":2570492.5099999998,"ADDRESS":"中正南路６號","OBJECTID":464184},"geometry":{"x":174546.86000000127,"y":2570492.5100000035}},{"attributes":{"ID":464210,"DIS_CODE":0,"TOWNNAME":"下營區","LI":"下營里","LIN":"5鄰","STREET":"中正南路","SECT":" ","MAREA":" ","LANE":" ","ALLEY":" ","HOUSE_NO":"８號","E_COORD97":174547.47,"N_COORD97":2570488.1299999999,"ADDRESS":"中正南路８號","OBJECTID":464185},"geometry":{"x":174547.46999999974,"y":2570488.1300000008}},{"attributes":{"ID":464211,"DIS_CODE":0,"TOWNNAME":"下營區","LI":"仁里里","LIN":"5鄰","STREET":"仁中街","SECT":" ","MAREA":" ","LANE":" ","ALLEY":" ","HOUSE_NO":"１１號","E_COORD97":174536.64999999999,"N_COORD97":2569764.4500000002,"ADDRESS":"仁中街１１號","OBJECTID":464186},"geometry":{"x":174536.65000000037,"y":2569764.4500000011}},{"attributes":{"ID":464212,"DIS_CODE":0,"TOWNNAME":"下營區","LI":"仁里里","LIN":"5鄰","STREET":"仁中街","SECT":" ","MAREA":" ","LANE":" ","ALLEY":" ","HOUSE_NO":"１３號","E_COORD97":174538.32999999999,"N_COORD97":2569770.0699999998,"ADDRESS":"仁中街１３號","OBJECTID":464187},"geometry":{"x":174538.33000000101,"y":2569770.0700000003}},{"attributes":{"ID":464213,"DIS_CODE":0,"TOWNNAME":"下營區","LI":"仁里里","LIN":"5鄰","STREET":"仁中街","SECT":" ","MAREA":" ","LANE":" ","ALLEY":" ","HOUSE_NO":"１５號","E_COORD97":174533.38,"N_COORD97":2569784.1000000001,"ADDRESS":"仁中街１５號","OBJECTID":464188},"geometry":{"x":174533.37999999989,"y":2569784.1000000015}},{"attributes":{"ID":464214,"DIS_CODE":0,"TOWNNAME":"下營區","LI":"仁里里","LIN":"5鄰","STREET":"仁中街","SECT":" ","MAREA":" ","LANE":" ","ALLEY":" ","HOUSE_NO":"２７號","E_COORD97":174484.14999999999,"N_COORD97":2569807.8799999999,"ADDRESS":"仁中街２７號","OBJECTID":464189},"geometry":{"x":174484.15000000037,"y":2569807.8800000027}},{"attributes":{"ID":464215,"DIS_CODE":0,"TOWNNAME":"下營區","LI":"仁里里","LIN":"5鄰","STREET":"仁中街","SECT":" ","MAREA":" ","LANE":" ","ALLEY":" ","HOUSE_NO":"３１號","E_COORD97":174470.84,"N_COORD97":2569808.2400000002,"ADDRESS":"仁中街３１號","OBJECTID":464190},"geometry":{"x":174470.83999999985,"y":2569808.2400000021}},{"attributes":{"ID":464216,"DIS_CODE":0,"TOWNNAME":"下營區","LI":"仁里里","LIN":"5鄰","STREET":"仁中街","SECT":" ","MAREA":" ","LANE":" ","ALLEY":" ","HOUSE_NO":"３７號","E_COORD97":174457.98000000001,"N_COORD97":2569806.7000000002,"ADDRESS":"仁中街３７號","OBJECTID":464191},"geometry":{"x":174457.98000000138,"y":2569806.7000000011}},{"attributes":{"ID":464217,"DIS_CODE":0,"TOWNNAME":"下營區","LI":"仁里里","LIN":"5鄰","STREET":"仁中街","SECT":" ","MAREA":" ","LANE":" ","ALLEY":" ","HOUSE_NO":"４１號之２","E_COORD97":174410.70999999999,"N_COORD97":2569816.5699999998,"ADDRESS":"仁中街４１號之２","OBJECTID":464192},"geometry":{"x":174410.70999999996,"y":2569816.5700000003}},{"attributes":{"ID":464218,"DIS_CODE":0,"TOWNNAME":"下營區","LI":"仁里里","LIN":"5鄰","STREET":"仁中街","SECT":" ","MAREA":" ","LANE":" ","ALLEY":" ","HOUSE_NO":"９號","E_COORD97":174535.10999999999,"N_COORD97":2569759.0600000001,"ADDRESS":"仁中街９號","OBJECTID":464193},"geometry":{"x":174535.11000000127,"y":2569759.0600000024}},{"attributes":{"ID":464219,"DIS_CODE":0,"TOWNNAME":"中西區","LI":"青年里","LIN":"5鄰","STREET":"武德街","SECT":" ","MAREA":" ","LANE":" ","ALLEY":" ","HOUSE_NO":"１３號","E_COORD97":168965.35999999999,"N_COORD97":2543661.9199999999,"ADDRESS":"武德街１３號","OBJECTID":464194},"geometry":{"x":168965.36000000034,"y":2543661.9200000037}},{"attributes":{"ID":464220,"DIS_CODE":0,"TOWNNAME":"中西區","LI":"青年里","LIN":"5鄰","STREET":"武德街","SECT":" ","MAREA":" ","LANE":" ","ALLEY":" ","HOUSE_NO":"１５號","E_COORD97":168966.07999999999,"N_COORD97":2543666.5800000001,"ADDRESS":"武德街１５號","OBJECTID":464195},"geometry":{"x":168966.08000000101,"y":2543666.5800000001}},{"attributes":{"ID":464221,"DIS_CODE":0,"TOWNNAME":"永康區","LI":"東灣里","LIN":"5鄰","STREET":"大灣三街","SECT":" ","MAREA":" ","LANE":" ","ALLEY":" ","HOUSE_NO":"１２８號","E_COORD97":174689.09,"N_COORD97":2545044.5299999998,"ADDRESS":"大灣三街１２８號","OBJECTID":464196},"geometry":{"x":174689.08999999985,"y":2545044.5300000012}},{"attributes":{"ID":464222,"DIS_CODE":0,"TOWNNAME":"永康區","LI":"尚頂里","LIN":"5鄰","STREET":"\u25A0信街","SECT":" ","MAREA":" ","LANE":" ","ALLEY":" ","HOUSE_NO":"８８號","E_COORD97":170880.60000000001,"N_COORD97":2547598.3100000001,"ADDRESS":"\u25A0信街８８號","OBJECTID":464197},"geometry":{"x":170880.60000000056,"y":2547598.3100000005}},{"attributes":{"ID":464223,"DIS_CODE":0,"TOWNNAME":"永康區","LI":"尚頂里","LIN":"5鄰","STREET":"\u25A0信街","SECT":" ","MAREA":" ","LANE":" ","ALLEY":" ","HOUSE_NO":"４８號","E_COORD97":170858.32999999999,"N_COORD97":2547457.8900000001,"ADDRESS":"\u25A0信街４８號","OBJECTID":464198},"geometry":{"x":170858.33000000007,"y":2547457.8900000025}},{"attributes":{"ID":464224,"DIS_CODE":0,"TOWNNAME":"永康區","LI":"東灣里","LIN":"5鄰","STREET":"大灣三街","SECT":" ","MAREA":" ","LANE":" ","ALLEY":" ","HOUSE_NO":"１４２號","E_COORD97":174663.39000000001,"N_COORD97":2545053.4900000002,"ADDRESS":"大灣三街１４２號","OBJECTID":464199},"geometry":{"x":174663.38999999966,"y":2545053.4900000021}},{"attributes":{"ID":464225,"DIS_CODE":0,"TOWNNAME":"永康區","LI":"尚頂里","LIN":"5鄰","STREET":"\u25A0信街","SECT":" ","MAREA":" ","LANE":" ","ALLEY":" ","HOUSE_NO":"２２號","E_COORD97":170813.64000000001,"N_COORD97":2547382.1400000001,"ADDRESS":"\u25A0信街２２號","OBJECTID":464200},"geometry":{"x":170813.63999999966,"y":2547382.1400000006}}]}