{"displayFieldName":"TOWNNAME","fieldAliases":{"ID":"ID","DIS_CODE":"DIS_CODE","TOWNNAME":"TOWNNAME","LI":"LI","LIN":"LIN","STREET":"STREET","SECT":"SECT","MAREA":"MAREA","LANE":"LANE","ALLEY":"ALLEY","HOUSE_NO":"HOUSE_NO","E_COORD97":"E_COORD97","N_COORD97":"N_COORD97","ADDRESS":"ADDRESS","OBJECTID":"OBJECTID"},"geometryType":"esriGeometryPoint","spatialReference":{"wkid":102443,"latestWkid":3826},"fields":[{"name":"ID","type":"esriFieldTypeDouble","alias":"ID"},{"name":"DIS_CODE","type":"esriFieldTypeInteger","alias":"DIS_CODE"},{"name":"TOWNNAME","type":"esriFieldTypeString","alias":"TOWNNAME","length":8},{"name":"LI","type":"esriFieldTypeString","alias":"LI","length":8},{"name":"LIN","type":"esriFieldTypeString","alias":"LIN","length":12},{"name":"STREET","type":"esriFieldTypeString","alias":"STREET","length":20},{"name":"SECT","type":"esriFieldTypeString","alias":"SECT","length":8},{"name":"MAREA","type":"esriFieldTypeString","alias":"MAREA","length":12},{"name":"LANE","type":"esriFieldTypeString","alias":"LANE","length":10},{"name":"ALLEY","type":"esriFieldTypeString","alias":"ALLEY","length":10},{"name":"HOUSE_NO","type":"esriFieldTypeString","alias":"HOUSE_NO","length":20},{"name":"E_COORD97","type":"esriFieldTypeDouble","alias":"E_COORD97"},{"name":"N_COORD97","type":"esriFieldTypeDouble","alias":"N_COORD97"},{"name":"ADDRESS","type":"esriFieldTypeString","alias":"ADDRESS","length":50},{"name":"OBJECTID","type":"esriFieldTypeOID","alias":"OBJECTID"}],"features":[{"attributes":{"ID":158802,"DIS_CODE":0,"TOWNNAME":"新化區","LI":"崙頂里","LIN":"5鄰","STREET":" ","SECT":" ","MAREA":"崙子頂","LANE":" ","ALLEY":" ","HOUSE_NO":"１９０號","E_COORD97":176600.53,"N_COORD97":2546950.25,"ADDRESS":"崙子頂１９０號","OBJECTID":158801},"geometry":{"x":176600.53000000026,"y":2546950.25}},{"attributes":{"ID":158803,"DIS_CODE":0,"TOWNNAME":"新化區","LI":"全興里","LIN":"5鄰","STREET":" ","SECT":" ","MAREA":"竹子\u25A0","LANE":" ","ALLEY":" ","HOUSE_NO":"１８７號之５","E_COORD97":177663.69,"N_COORD97":2547659.2599999998,"ADDRESS":"竹子\u25A0１８７號之５","OBJECTID":158802},"geometry":{"x":177663.69000000134,"y":2547659.2599999998}},{"attributes":{"ID":158804,"DIS_CODE":0,"TOWNNAME":"新化區","LI":"唪口里","LIN":"5鄰","STREET":" ","SECT":" ","MAREA":"唪口","LANE":" ","ALLEY":" ","HOUSE_NO":"３５號之２","E_COORD97":178113.85000000001,"N_COORD97":2548952.2599999998,"ADDRESS":"唪口３５號之２","OBJECTID":158803},"geometry":{"x":178113.85000000149,"y":2548952.2600000016}},{"attributes":{"ID":158805,"DIS_CODE":0,"TOWNNAME":"歸仁區","LI":"辜厝里","LIN":"44鄰","STREET":"大吉街","SECT":" ","MAREA":" ","LANE":" ","ALLEY":" ","HOUSE_NO":"２３０號","E_COORD97":177193.70999999999,"N_COORD97":2540301.9500000002,"ADDRESS":"大吉街２３０號","OBJECTID":158804},"geometry":{"x":177193.71000000089,"y":2540301.9500000011}},{"attributes":{"ID":158806,"DIS_CODE":0,"TOWNNAME":"歸仁區","LI":"南保里","LIN":"44鄰","STREET":"民權十街","SECT":" ","MAREA":" ","LANE":" ","ALLEY":" ","HOUSE_NO":"６１號","E_COORD97":176788.39000000001,"N_COORD97":2540737.29,"ADDRESS":"民權十街６１號","OBJECTID":158805},"geometry":{"x":176788.3900000006,"y":2540737.290000001}},{"attributes":{"ID":158807,"DIS_CODE":0,"TOWNNAME":"歸仁區","LI":"南保里","LIN":"44鄰","STREET":"民權十街","SECT":" ","MAREA":" ","LANE":" ","ALLEY":" ","HOUSE_NO":"５１號","E_COORD97":176808.89000000001,"N_COORD97":2540736.29,"ADDRESS":"民權十街５１號","OBJECTID":158806},"geometry":{"x":176808.8900000006,"y":2540736.2900000028}},{"attributes":{"ID":158808,"DIS_CODE":0,"TOWNNAME":"歸仁區","LI":"南保里","LIN":"44鄰","STREET":"民權十街","SECT":" ","MAREA":" ","LANE":" ","ALLEY":" ","HOUSE_NO":"５５號","E_COORD97":176800.69,"N_COORD97":2540736.29,"ADDRESS":"民權十街５５號","OBJECTID":158807},"geometry":{"x":176800.69000000134,"y":2540736.2900000028}},{"attributes":{"ID":158809,"DIS_CODE":0,"TOWNNAME":"歸仁區","LI":"南保里","LIN":"44鄰","STREET":"民權十街","SECT":" ","MAREA":" ","LANE":" ","ALLEY":" ","HOUSE_NO":"５７號","E_COORD97":176796.59,"N_COORD97":2540736.29,"ADDRESS":"民權十街５７號","OBJECTID":158808},"geometry":{"x":176796.58999999985,"y":2540736.2900000028}},{"attributes":{"ID":158810,"DIS_CODE":0,"TOWNNAME":"歸仁區","LI":"南保里","LIN":"44鄰","STREET":"民權十街","SECT":" ","MAREA":" ","LANE":" ","ALLEY":" ","HOUSE_NO":"５３號","E_COORD97":176804.79000000001,"N_COORD97":2540736.29,"ADDRESS":"民權十街５３號","OBJECTID":158809},"geometry":{"x":176804.79000000097,"y":2540736.2900000028}},{"attributes":{"ID":158811,"DIS_CODE":0,"TOWNNAME":"歸仁區","LI":"南保里","LIN":"44鄰","STREET":"民權十街","SECT":" ","MAREA":" ","LANE":" ","ALLEY":" ","HOUSE_NO":"６６號","E_COORD97":176762.47,"N_COORD97":2540758.29,"ADDRESS":"民權十街６６號","OBJECTID":158810},"geometry":{"x":176762.47000000067,"y":2540758.2899999991}},{"attributes":{"ID":158812,"DIS_CODE":0,"TOWNNAME":"歸仁區","LI":"後市里","LIN":"44鄰","STREET":"民權北路","SECT":" ","MAREA":" ","LANE":" ","ALLEY":" ","HOUSE_NO":"６６之１號","E_COORD97":177020.60999999999,"N_COORD97":2541046.79,"ADDRESS":"民權北路６６之１號","OBJECTID":158811},"geometry":{"x":177020.61000000034,"y":2541046.7899999991}},{"attributes":{"ID":158813,"DIS_CODE":0,"TOWNNAME":"歸仁區","LI":"辜厝里","LIN":"44鄰","STREET":"中正南路","SECT":"一段","MAREA":" ","LANE":" ","ALLEY":" ","HOUSE_NO":"２９２號","E_COORD97":177208.64000000001,"N_COORD97":2540264.9500000002,"ADDRESS":"中正南路一段２９２號","OBJECTID":158812},"geometry":{"x":177208.6400000006,"y":2540264.9500000011}},{"attributes":{"ID":158814,"DIS_CODE":0,"TOWNNAME":"歸仁區","LI":"後市里","LIN":"44鄰","STREET":"民權北路","SECT":" ","MAREA":" ","LANE":" ","ALLEY":" ","HOUSE_NO":"６８號","E_COORD97":177018.20999999999,"N_COORD97":2541056.7799999998,"ADDRESS":"民權北路６８號","OBJECTID":158813},"geometry":{"x":177018.20999999996,"y":2541056.7799999993}},{"attributes":{"ID":158815,"DIS_CODE":0,"TOWNNAME":"安南區","LI":"頂安里","LIN":"2鄰","STREET":"長溪路","SECT":"一段","MAREA":" ","LANE":"４０６巷","ALLEY":"２１弄","HOUSE_NO":"２號","E_COORD97":168594.66,"N_COORD97":2549023.2400000002,"ADDRESS":"長溪路一段４０６巷２１弄２號","OBJECTID":158814},"geometry":{"x":168594.66000000015,"y":2549023.2400000002}},{"attributes":{"ID":158816,"DIS_CODE":0,"TOWNNAME":"楠西區","LI":"鹿田里","LIN":"12鄰","STREET":" ","SECT":" ","MAREA":"油車","LANE":" ","ALLEY":" ","HOUSE_NO":"７８號","E_COORD97":197689.64000000001,"N_COORD97":2562640.25,"ADDRESS":"油車７８號","OBJECTID":158815},"geometry":{"x":197689.64000000153,"y":2562640.2500000019}},{"attributes":{"ID":158817,"DIS_CODE":0,"TOWNNAME":"安南區","LI":"頂安里","LIN":"2鄰","STREET":"長溪路","SECT":"一段","MAREA":" ","LANE":"４０６巷","ALLEY":"２１弄","HOUSE_NO":"５號","E_COORD97":168572.45999999999,"N_COORD97":2549027.1699999999,"ADDRESS":"長溪路一段４０６巷２１弄５號","OBJECTID":158816},"geometry":{"x":168572.45999999996,"y":2549027.1700000037}},{"attributes":{"ID":158818,"DIS_CODE":0,"TOWNNAME":"安南區","LI":"安慶里","LIN":"2鄰","STREET":"長溪路","SECT":"一段","MAREA":" ","LANE":"１６８巷","ALLEY":"１３１弄","HOUSE_NO":"５７號","E_COORD97":168958.51000000001,"N_COORD97":2548836.0899999999,"ADDRESS":"長溪路一段１６８巷１３１弄５７號","OBJECTID":158817},"geometry":{"x":168958.50999999978,"y":2548836.0900000017}},{"attributes":{"ID":158819,"DIS_CODE":0,"TOWNNAME":"安南區","LI":"安慶里","LIN":"2鄰","STREET":"長溪路","SECT":"一段","MAREA":" ","LANE":"１６８巷","ALLEY":"１３１弄","HOUSE_NO":"６１號","E_COORD97":168949.84,"N_COORD97":2548835.7799999998,"ADDRESS":"長溪路一段１６８巷１３１弄６１號","OBJECTID":158818},"geometry":{"x":168949.83999999892,"y":2548835.7799999975}},{"attributes":{"ID":158820,"DIS_CODE":0,"TOWNNAME":"安南區","LI":"安慶里","LIN":"2鄰","STREET":"長溪路","SECT":"一段","MAREA":" ","LANE":"１６８巷","ALLEY":"１３１弄","HOUSE_NO":"３２號","E_COORD97":168985.29999999999,"N_COORD97":2548889.7400000002,"ADDRESS":"長溪路一段１６８巷１３１弄３２號","OBJECTID":158819},"geometry":{"x":168985.29999999981,"y":2548889.7400000021}},{"attributes":{"ID":158821,"DIS_CODE":0,"TOWNNAME":"安南區","LI":"安慶里","LIN":"2鄰","STREET":"長溪路","SECT":"一段","MAREA":" ","LANE":"１６８巷","ALLEY":"１３１弄","HOUSE_NO":"３６號","E_COORD97":168983.35999999999,"N_COORD97":2548868.4500000002,"ADDRESS":"長溪路一段１６８巷１３１弄３６號","OBJECTID":158820},"geometry":{"x":168983.36000000127,"y":2548868.4499999974}},{"attributes":{"ID":158822,"DIS_CODE":0,"TOWNNAME":"安南區","LI":"安慶里","LIN":"2鄰","STREET":"長溪路","SECT":"一段","MAREA":" ","LANE":"１６８巷","ALLEY":"１３１弄","HOUSE_NO":"４２號","E_COORD97":168964.92000000001,"N_COORD97":2548894.54,"ADDRESS":"長溪路一段１６８巷１３１弄４２號","OBJECTID":158821},"geometry":{"x":168964.92000000086,"y":2548894.5399999991}},{"attributes":{"ID":158823,"DIS_CODE":0,"TOWNNAME":"安南區","LI":"安慶里","LIN":"2鄰","STREET":"長溪路","SECT":"一段","MAREA":" ","LANE":"１６８巷","ALLEY":"１３１弄","HOUSE_NO":"４４號","E_COORD97":168957.28,"N_COORD97":2548892.9399999999,"ADDRESS":"長溪路一段１６８巷１３１弄４４號","OBJECTID":158822},"geometry":{"x":168957.28000000026,"y":2548892.9400000032}},{"attributes":{"ID":158824,"DIS_CODE":0,"TOWNNAME":"安南區","LI":"安慶里","LIN":"2鄰","STREET":"長溪路","SECT":"一段","MAREA":" ","LANE":"１６８巷","ALLEY":"１３１弄","HOUSE_NO":"４６號","E_COORD97":168951.67000000001,"N_COORD97":2548884.1800000002,"ADDRESS":"長溪路一段１６８巷１３１弄４６號","OBJECTID":158823},"geometry":{"x":168951.67000000086,"y":2548884.1799999997}},{"attributes":{"ID":158825,"DIS_CODE":0,"TOWNNAME":"安南區","LI":"安慶里","LIN":"2鄰","STREET":"長溪路","SECT":"一段","MAREA":" ","LANE":"１６８巷","ALLEY":"１３１弄","HOUSE_NO":"４８號","E_COORD97":168938.69,"N_COORD97":2548880.54,"ADDRESS":"長溪路一段１６８巷１３１弄４８號","OBJECTID":158824},"geometry":{"x":168938.69000000134,"y":2548880.5399999991}},{"attributes":{"ID":158826,"DIS_CODE":0,"TOWNNAME":"歸仁區","LI":"辜厝里","LIN":"44鄰","STREET":"中正南路","SECT":"一段","MAREA":" ","LANE":" ","ALLEY":" ","HOUSE_NO":"３０８號","E_COORD97":177181.94,"N_COORD97":2540244.9500000002,"ADDRESS":"中正南路一段３０８號","OBJECTID":158825},"geometry":{"x":177181.94000000134,"y":2540244.9500000011}},{"attributes":{"ID":158827,"DIS_CODE":0,"TOWNNAME":"將軍區","LI":"仁和里","LIN":"7鄰","STREET":" ","SECT":" ","MAREA":"仁巷","LANE":" ","ALLEY":" ","HOUSE_NO":"７１號","E_COORD97":163928.01999999999,"N_COORD97":2569249.1699999999,"ADDRESS":"仁巷７１號","OBJECTID":158826},"geometry":{"x":163928.02000000048,"y":2569249.1699999999}},{"attributes":{"ID":158828,"DIS_CODE":0,"TOWNNAME":"新化區","LI":"崙頂里","LIN":"5鄰","STREET":" ","SECT":" ","MAREA":"崙子頂","LANE":" ","ALLEY":" ","HOUSE_NO":"１８７號之５","E_COORD97":176603.39000000001,"N_COORD97":2546918.2599999998,"ADDRESS":"崙子頂１８７號之５","OBJECTID":158827},"geometry":{"x":176603.3900000006,"y":2546918.2600000016}},{"attributes":{"ID":158829,"DIS_CODE":0,"TOWNNAME":"新化區","LI":"唪口里","LIN":"5鄰","STREET":" ","SECT":" ","MAREA":"唪口","LANE":" ","ALLEY":" ","HOUSE_NO":"５０號之１１","E_COORD97":178121.98000000001,"N_COORD97":2549019.2599999998,"ADDRESS":"唪口５０號之１１","OBJECTID":158828},"geometry":{"x":178121.98000000045,"y":2549019.2599999998}},{"attributes":{"ID":158830,"DIS_CODE":0,"TOWNNAME":"新化區","LI":"唪口里","LIN":"5鄰","STREET":" ","SECT":" ","MAREA":"唪口","LANE":" ","ALLEY":" ","HOUSE_NO":"３９號","E_COORD97":178126.70000000001,"N_COORD97":2548941.25,"ADDRESS":"唪口３９號","OBJECTID":158829},"geometry":{"x":178126.70000000019,"y":2548941.25}},{"attributes":{"ID":158831,"DIS_CODE":0,"TOWNNAME":"新化區","LI":"唪口里","LIN":"5鄰","STREET":" ","SECT":" ","MAREA":"唪口","LANE":" ","ALLEY":" ","HOUSE_NO":"５０號之２１","E_COORD97":178165.17999999999,"N_COORD97":2549050.2599999998,"ADDRESS":"唪口５０號之２１","OBJECTID":158830},"geometry":{"x":178165.1799999997,"y":2549050.2600000035}},{"attributes":{"ID":158832,"DIS_CODE":0,"TOWNNAME":"新化區","LI":"\u25A0拔里","LIN":"5鄰","STREET":" ","SECT":" ","MAREA":"\u25A0拔林","LANE":" ","ALLEY":" ","HOUSE_NO":"２４８號之３","E_COORD97":183686.26999999999,"N_COORD97":2551881.2599999998,"ADDRESS":"\u25A0拔林２４８號之３","OBJECTID":158831},"geometry":{"x":183686.26999999862,"y":2551881.2600000035}},{"attributes":{"ID":158833,"DIS_CODE":0,"TOWNNAME":"新化區","LI":"礁坑里","LIN":"5鄰","STREET":" ","SECT":" ","MAREA":"九層嶺","LANE":" ","ALLEY":" ","HOUSE_NO":"５號","E_COORD97":185032.04802399999,"N_COORD97":2548344.7824300001,"ADDRESS":"九層嶺５號","OBJECTID":158832},"geometry":{"x":185032.0480240006,"y":2548344.7824329995}},{"attributes":{"ID":158834,"DIS_CODE":0,"TOWNNAME":"新化區","LI":"豐榮里","LIN":"5鄰","STREET":" ","SECT":" ","MAREA":"洋子","LANE":" ","ALLEY":" ","HOUSE_NO":"１２８號之５","E_COORD97":177796.94,"N_COORD97":2548205.2599999998,"ADDRESS":"洋子１２８號之５","OBJECTID":158833},"geometry":{"x":177796.93999999948,"y":2548205.2599999998}},{"attributes":{"ID":158835,"DIS_CODE":0,"TOWNNAME":"新化區","LI":"唪口里","LIN":"5鄰","STREET":" ","SECT":" ","MAREA":"唪口","LANE":" ","ALLEY":" ","HOUSE_NO":"３４號","E_COORD97":178086.60000000001,"N_COORD97":2548925.25,"ADDRESS":"唪口３４號","OBJECTID":158834},"geometry":{"x":178086.5999999987,"y":2548925.2500000037}},{"attributes":{"ID":158836,"DIS_CODE":0,"TOWNNAME":"新化區","LI":"崙頂里","LIN":"5鄰","STREET":" ","SECT":" ","MAREA":"崙子頂","LANE":" ","ALLEY":" ","HOUSE_NO":"１８７號之１","E_COORD97":176604.76000000001,"N_COORD97":2546895.2599999998,"ADDRESS":"崙子頂１８７號之１","OBJECTID":158835},"geometry":{"x":176604.76000000071,"y":2546895.2600000016}},{"attributes":{"ID":158837,"DIS_CODE":0,"TOWNNAME":"新化區","LI":"全興里","LIN":"5鄰","STREET":" ","SECT":" ","MAREA":"竹子\u25A0","LANE":" ","ALLEY":" ","HOUSE_NO":"１８７號之３","E_COORD97":177667.57999999999,"N_COORD97":2547664.2599999998,"ADDRESS":"竹子\u25A0１８７號之３","OBJECTID":158836},"geometry":{"x":177667.58000000101,"y":2547664.2600000016}},{"attributes":{"ID":158838,"DIS_CODE":0,"TOWNNAME":"新化區","LI":"全興里","LIN":"5鄰","STREET":" ","SECT":" ","MAREA":"竹子\u25A0","LANE":" ","ALLEY":" ","HOUSE_NO":"１９７號之２０","E_COORD97":177994.42000000001,"N_COORD97":2547409.2599999998,"ADDRESS":"竹子\u25A0１９７號之２０","OBJECTID":158837},"geometry":{"x":177994.41999999993,"y":2547409.2600000035}},{"attributes":{"ID":158839,"DIS_CODE":0,"TOWNNAME":"新化區","LI":"\u25A0拔里","LIN":"5鄰","STREET":" ","SECT":" ","MAREA":"\u25A0拔林","LANE":" ","ALLEY":" ","HOUSE_NO":"２５４號","E_COORD97":183637.82000000001,"N_COORD97":2551874.25,"ADDRESS":"\u25A0拔林２５４號","OBJECTID":158838},"geometry":{"x":183637.82000000123,"y":2551874.25}},{"attributes":{"ID":158840,"DIS_CODE":0,"TOWNNAME":"安南區","LI":"安慶里","LIN":"2鄰","STREET":"長溪路","SECT":"一段","MAREA":" ","LANE":"１６８巷","ALLEY":"１３１弄","HOUSE_NO":"５０號","E_COORD97":168956.73999999999,"N_COORD97":2548865.9300000002,"ADDRESS":"長溪路一段１６８巷１３１弄５０號","OBJECTID":158839},"geometry":{"x":168956.74000000115,"y":2548865.9300000034}},{"attributes":{"ID":158841,"DIS_CODE":0,"TOWNNAME":"安南區","LI":"安慶里","LIN":"2鄰","STREET":"長溪路","SECT":"一段","MAREA":" ","LANE":"１６８巷","ALLEY":"１３１弄","HOUSE_NO":"５１號","E_COORD97":168973.29999999999,"N_COORD97":2548835.9500000002,"ADDRESS":"長溪路一段１６８巷１３１弄５１號","OBJECTID":158840},"geometry":{"x":168973.29999999981,"y":2548835.9500000011}},{"attributes":{"ID":158842,"DIS_CODE":0,"TOWNNAME":"歸仁區","LI":"辜厝里","LIN":"44鄰","STREET":"中正南路","SECT":"一段","MAREA":" ","LANE":" ","ALLEY":" ","HOUSE_NO":"３１０號","E_COORD97":177178.84,"N_COORD97":2540243.9500000002,"ADDRESS":"中正南路一段３１０號","OBJECTID":158841},"geometry":{"x":177178.84000000078,"y":2540243.9500000011}},{"attributes":{"ID":158843,"DIS_CODE":0,"TOWNNAME":"歸仁區","LI":"辜厝里","LIN":"44鄰","STREET":"中正南路","SECT":"一段","MAREA":" ","LANE":" ","ALLEY":" ","HOUSE_NO":"３０４號","E_COORD97":177188.04000000001,"N_COORD97":2540248.9500000002,"ADDRESS":"中正南路一段３０４號","OBJECTID":158842},"geometry":{"x":177188.04000000097,"y":2540248.9499999993}},{"attributes":{"ID":158844,"DIS_CODE":0,"TOWNNAME":"歸仁區","LI":"辜厝里","LIN":"44鄰","STREET":"中正八街","SECT":" ","MAREA":" ","LANE":" ","ALLEY":" ","HOUSE_NO":"６號","E_COORD97":177155.34,"N_COORD97":2540261.9500000002,"ADDRESS":"中正八街６號","OBJECTID":158843},"geometry":{"x":177155.34000000078,"y":2540261.9500000011}},{"attributes":{"ID":158845,"DIS_CODE":0,"TOWNNAME":"永康區","LI":"\u25A0行里","LIN":"44鄰","STREET":"中正二街","SECT":" ","MAREA":" ","LANE":" ","ALLEY":" ","HOUSE_NO":"４０３號","E_COORD97":172059.84,"N_COORD97":2548144.71,"ADDRESS":"中正二街４０３號","OBJECTID":158844},"geometry":{"x":172059.83999999985,"y":2548144.7100000028}},{"attributes":{"ID":158846,"DIS_CODE":0,"TOWNNAME":"新市區","LI":"新和里","LIN":"44鄰","STREET":"民權路","SECT":" ","MAREA":" ","LANE":" ","ALLEY":" ","HOUSE_NO":"４之５號","E_COORD97":177376.23000000001,"N_COORD97":2553095.0499999998,"ADDRESS":"民權路４之５號","OBJECTID":158845},"geometry":{"x":177376.23000000045,"y":2553095.0500000026}},{"attributes":{"ID":158847,"DIS_CODE":0,"TOWNNAME":"永康區","LI":"成功里","LIN":"44鄰","STREET":"中華路","SECT":" ","MAREA":" ","LANE":" ","ALLEY":" ","HOUSE_NO":"１４０號","E_COORD97":171615.82000000001,"N_COORD97":2544826.9900000002,"ADDRESS":"中華路１４０號","OBJECTID":158846},"geometry":{"x":171615.82000000123,"y":2544826.9900000002}},{"attributes":{"ID":158848,"DIS_CODE":0,"TOWNNAME":"安南區","LI":"安慶里","LIN":"2鄰","STREET":"長溪路","SECT":"一段","MAREA":" ","LANE":"１６８巷","ALLEY":"１３１弄","HOUSE_NO":"５２號","E_COORD97":168950.35999999999,"N_COORD97":2548862.5699999998,"ADDRESS":"長溪路一段１６８巷１３１弄５２號","OBJECTID":158847},"geometry":{"x":168950.3600000022,"y":2548862.5700000022}},{"attributes":{"ID":158849,"DIS_CODE":0,"TOWNNAME":"新市區","LI":"新市里","LIN":"2鄰","STREET":"光華街","SECT":" ","MAREA":" ","LANE":"１８３巷","ALLEY":"３弄","HOUSE_NO":"１２號","E_COORD97":177779.39999999999,"N_COORD97":2553061,"ADDRESS":"光華街１８３巷３弄１２號","OBJECTID":158848},"geometry":{"x":177779.4000000013,"y":2553061.0000000019}},{"attributes":{"ID":158850,"DIS_CODE":0,"TOWNNAME":"安南區","LI":"安慶里","LIN":"2鄰","STREET":"長溪路","SECT":"一段","MAREA":" ","LANE":"１６８巷","ALLEY":"１３１弄","HOUSE_NO":"５４號","E_COORD97":168943.76000000001,"N_COORD97":2548862.4500000002,"ADDRESS":"長溪路一段１６８巷１３１弄５４號","OBJECTID":158849},"geometry":{"x":168943.76000000164,"y":2548862.4500000011}},{"attributes":{"ID":158851,"DIS_CODE":0,"TOWNNAME":"安南區","LI":"安慶里","LIN":"2鄰","STREET":"長溪路","SECT":"一段","MAREA":" ","LANE":"１６８巷","ALLEY":"１３１弄","HOUSE_NO":"５６號","E_COORD97":168922.54999999999,"N_COORD97":2548863.8999999999,"ADDRESS":"長溪路一段１６８巷１３１弄５６號","OBJECTID":158850},"geometry":{"x":168922.54999999981,"y":2548863.9000000022}},{"attributes":{"ID":158852,"DIS_CODE":0,"TOWNNAME":"安南區","LI":"安慶里","LIN":"2鄰","STREET":"長溪路","SECT":"一段","MAREA":" ","LANE":"１６８巷","ALLEY":"１３１弄","HOUSE_NO":"５９號","E_COORD97":168954.16,"N_COORD97":2548836.0899999999,"ADDRESS":"長溪路一段１６８巷１３１弄５９號","OBJECTID":158851},"geometry":{"x":168954.16000000015,"y":2548836.0900000017}},{"attributes":{"ID":158853,"DIS_CODE":0,"TOWNNAME":"新化區","LI":"唪口里","LIN":"5鄰","STREET":" ","SECT":" ","MAREA":"唪口","LANE":" ","ALLEY":" ","HOUSE_NO":"５０號之１２","E_COORD97":178117.79999999999,"N_COORD97":2549018.2599999998,"ADDRESS":"唪口５０號之１２","OBJECTID":158852},"geometry":{"x":178117.80000000168,"y":2549018.2599999998}},{"attributes":{"ID":158854,"DIS_CODE":0,"TOWNNAME":"安南區","LI":"安慶里","LIN":"2鄰","STREET":"長溪路","SECT":"一段","MAREA":" ","LANE":"１６８巷","ALLEY":"１７５弄","HOUSE_NO":"３６號","E_COORD97":168962.28,"N_COORD97":2548941.73,"ADDRESS":"長溪路一段１６８巷１７５弄３６號","OBJECTID":158853},"geometry":{"x":168962.28000000026,"y":2548941.7300000004}},{"attributes":{"ID":158855,"DIS_CODE":0,"TOWNNAME":"安南區","LI":"安慶里","LIN":"2鄰","STREET":"長溪路","SECT":"一段","MAREA":" ","LANE":"１６８巷","ALLEY":"１７５弄","HOUSE_NO":"３７號","E_COORD97":168980.94,"N_COORD97":2548922.0699999998,"ADDRESS":"長溪路一段１６８巷１７５弄３７號","OBJECTID":158854},"geometry":{"x":168980.94000000134,"y":2548922.0700000003}},{"attributes":{"ID":158856,"DIS_CODE":0,"TOWNNAME":"安南區","LI":"安慶里","LIN":"2鄰","STREET":"長溪路","SECT":"一段","MAREA":" ","LANE":"１６８巷","ALLEY":"１７５弄","HOUSE_NO":"３８號","E_COORD97":168980.60999999999,"N_COORD97":2548909.0299999998,"ADDRESS":"長溪路一段１６８巷１７５弄３８號","OBJECTID":158855},"geometry":{"x":168980.61000000034,"y":2548909.0300000031}},{"attributes":{"ID":158857,"DIS_CODE":0,"TOWNNAME":"安南區","LI":"安慶里","LIN":"2鄰","STREET":"長溪路","SECT":"一段","MAREA":" ","LANE":"１６８巷","ALLEY":"２６１弄","HOUSE_NO":"６號","E_COORD97":168957.26000000001,"N_COORD97":2548938.7000000002,"ADDRESS":"長溪路一段１６８巷２６１弄６號","OBJECTID":158856},"geometry":{"x":168957.26000000164,"y":2548938.7000000011}},{"attributes":{"ID":158858,"DIS_CODE":0,"TOWNNAME":"新市區","LI":"新市里","LIN":"2鄰","STREET":"光華街","SECT":" ","MAREA":" ","LANE":"１８３巷","ALLEY":"７弄","HOUSE_NO":"１６號","E_COORD97":177769.45000000001,"N_COORD97":2553044.5,"ADDRESS":"光華街１８３巷７弄１６號","OBJECTID":158857},"geometry":{"x":177769.45000000019,"y":2553044.5}},{"attributes":{"ID":158859,"DIS_CODE":0,"TOWNNAME":"新市區","LI":"新市里","LIN":"2鄰","STREET":"光華街","SECT":" ","MAREA":" ","LANE":"１８３巷","ALLEY":"３弄","HOUSE_NO":"２號","E_COORD97":177772.39999999999,"N_COORD97":2553093.75,"ADDRESS":"光華街１８３巷３弄２號","OBJECTID":158858},"geometry":{"x":177772.4000000013,"y":2553093.75}},{"attributes":{"ID":158860,"DIS_CODE":0,"TOWNNAME":"新化區","LI":"唪口里","LIN":"5鄰","STREET":" ","SECT":" ","MAREA":"唪口","LANE":" ","ALLEY":" ","HOUSE_NO":"５０號之３","E_COORD97":178154.94,"N_COORD97":2549028.2599999998,"ADDRESS":"唪口５０號之３","OBJECTID":158859},"geometry":{"x":178154.94000000134,"y":2549028.2599999998}},{"attributes":{"ID":158861,"DIS_CODE":0,"TOWNNAME":"新化區","LI":"知義里","LIN":"5鄰","STREET":" ","SECT":" ","MAREA":"知母義","LANE":" ","ALLEY":" ","HOUSE_NO":"７０號","E_COORD97":180124.67000000001,"N_COORD97":2547229.25,"ADDRESS":"知母義７０號","OBJECTID":158860},"geometry":{"x":180124.67000000086,"y":2547229.25}},{"attributes":{"ID":158862,"DIS_CODE":0,"TOWNNAME":"新市區","LI":"新市里","LIN":"2鄰","STREET":"光華街","SECT":" ","MAREA":" ","LANE":"１８３巷","ALLEY":"３弄","HOUSE_NO":"１０號","E_COORD97":177778.06,"N_COORD97":2553067.5,"ADDRESS":"光華街１８３巷３弄１０號","OBJECTID":158861},"geometry":{"x":177778.05999999959,"y":2553067.5000000019}},{"attributes":{"ID":158863,"DIS_CODE":0,"TOWNNAME":"永康區","LI":"成功里","LIN":"44鄰","STREET":"中華路","SECT":" ","MAREA":" ","LANE":" ","ALLEY":" ","HOUSE_NO":"１４４號","E_COORD97":171617.35000000001,"N_COORD97":2544844.7400000002,"ADDRESS":"中華路１４４號","OBJECTID":158862},"geometry":{"x":171617.34999999963,"y":2544844.7400000021}},{"attributes":{"ID":158864,"DIS_CODE":0,"TOWNNAME":"新化區","LI":"豐榮里","LIN":"5鄰","STREET":" ","SECT":" ","MAREA":"洋子","LANE":" ","ALLEY":" ","HOUSE_NO":"１１７號","E_COORD97":177914.67999999999,"N_COORD97":2548286.25,"ADDRESS":"洋子１１７號","OBJECTID":158863},"geometry":{"x":177914.6799999997,"y":2548286.25}},{"attributes":{"ID":158865,"DIS_CODE":0,"TOWNNAME":"新化區","LI":"豐榮里","LIN":"5鄰","STREET":" ","SECT":" ","MAREA":"洋子","LANE":" ","ALLEY":" ","HOUSE_NO":"９６號","E_COORD97":177937.53,"N_COORD97":2548281.25,"ADDRESS":"洋子９６號","OBJECTID":158864},"geometry":{"x":177937.53000000119,"y":2548281.2500000019}},{"attributes":{"ID":158866,"DIS_CODE":0,"TOWNNAME":"新化區","LI":"羊林里","LIN":"5鄰","STREET":" ","SECT":" ","MAREA":"\u25A0拔林","LANE":" ","ALLEY":" ","HOUSE_NO":"４５７號","E_COORD97":183586.62,"N_COORD97":2551767.25,"ADDRESS":"\u25A0拔林４５７號","OBJECTID":158865},"geometry":{"x":183586.62000000104,"y":2551767.2500000019}},{"attributes":{"ID":158867,"DIS_CODE":0,"TOWNNAME":"新化區","LI":"羊林里","LIN":"5鄰","STREET":" ","SECT":" ","MAREA":"\u25A0拔林","LANE":" ","ALLEY":" ","HOUSE_NO":"４７５號","E_COORD97":183551.92000000001,"N_COORD97":2551772.25,"ADDRESS":"\u25A0拔林４７５號","OBJECTID":158866},"geometry":{"x":183551.92000000179,"y":2551772.25}},{"attributes":{"ID":158868,"DIS_CODE":0,"TOWNNAME":"新化區","LI":"知義里","LIN":"5鄰","STREET":" ","SECT":" ","MAREA":"知母義","LANE":" ","ALLEY":" ","HOUSE_NO":"８０號","E_COORD97":180064.57000000001,"N_COORD97":2547209.25,"ADDRESS":"知母義８０號","OBJECTID":158867},"geometry":{"x":180064.57000000123,"y":2547209.2499999981}},{"attributes":{"ID":158869,"DIS_CODE":0,"TOWNNAME":"新化區","LI":"知義里","LIN":"5鄰","STREET":" ","SECT":" ","MAREA":"知母義","LANE":" ","ALLEY":" ","HOUSE_NO":"７６號","E_COORD97":180106.17000000001,"N_COORD97":2547250.25,"ADDRESS":"知母義７６號","OBJECTID":158868},"geometry":{"x":180106.17000000086,"y":2547250.2500000037}},{"attributes":{"ID":158870,"DIS_CODE":0,"TOWNNAME":"新化區","LI":"羊林里","LIN":"5鄰","STREET":" ","SECT":" ","MAREA":"\u25A0拔林","LANE":" ","ALLEY":" ","HOUSE_NO":"４６０號","E_COORD97":183593.72,"N_COORD97":2551745.25,"ADDRESS":"\u25A0拔林４６０號","OBJECTID":158869},"geometry":{"x":183593.7200000016,"y":2551745.25}},{"attributes":{"ID":158871,"DIS_CODE":0,"TOWNNAME":"新化區","LI":"唪口里","LIN":"5鄰","STREET":" ","SECT":" ","MAREA":"唪口","LANE":" ","ALLEY":" ","HOUSE_NO":"３６號","E_COORD97":178110.70000000001,"N_COORD97":2548915.25,"ADDRESS":"唪口３６號","OBJECTID":158870},"geometry":{"x":178110.70000000112,"y":2548915.2500000019}},{"attributes":{"ID":158872,"DIS_CODE":0,"TOWNNAME":"新化區","LI":"山\u25A0里","LIN":"5鄰","STREET":" ","SECT":" ","MAREA":"頂山\u25A0","LANE":" ","ALLEY":" ","HOUSE_NO":"１７號","E_COORD97":179606.67999999999,"N_COORD97":2546832.25,"ADDRESS":"頂山\u25A0１７號","OBJECTID":158871},"geometry":{"x":179606.6799999997,"y":2546832.25}},{"attributes":{"ID":158873,"DIS_CODE":0,"TOWNNAME":"新化區","LI":"北勢里","LIN":"5鄰","STREET":" ","SECT":" ","MAREA":"北勢","LANE":" ","ALLEY":" ","HOUSE_NO":"７９號","E_COORD97":177300.23000000001,"N_COORD97":2549682.2599999998,"ADDRESS":"北勢７９號","OBJECTID":158872},"geometry":{"x":177300.23000000231,"y":2549682.2600000016}},{"attributes":{"ID":158874,"DIS_CODE":0,"TOWNNAME":"新市區","LI":"新市里","LIN":"2鄰","STREET":"光華街","SECT":" ","MAREA":" ","LANE":"１８３巷","ALLEY":"３弄","HOUSE_NO":"１４號","E_COORD97":177780.39999999999,"N_COORD97":2553055.5,"ADDRESS":"光華街１８３巷３弄１４號","OBJECTID":158873},"geometry":{"x":177780.40000000224,"y":2553055.5}},{"attributes":{"ID":158875,"DIS_CODE":0,"TOWNNAME":"永康區","LI":"成功里","LIN":"44鄰","STREET":"中華路","SECT":" ","MAREA":" ","LANE":" ","ALLEY":" ","HOUSE_NO":"１３６號之１","E_COORD97":171616.26999999999,"N_COORD97":2544813.04,"ADDRESS":"中華路１３６號之１","OBJECTID":158874},"geometry":{"x":171616.26999999955,"y":2544813.0400000028}},{"attributes":{"ID":158876,"DIS_CODE":0,"TOWNNAME":"永康區","LI":"成功里","LIN":"44鄰","STREET":"中華路","SECT":" ","MAREA":" ","LANE":" ","ALLEY":" ","HOUSE_NO":"１３８號","E_COORD97":171614.69,"N_COORD97":2544816.9900000002,"ADDRESS":"中華路１３８號","OBJECTID":158875},"geometry":{"x":171614.69000000227,"y":2544816.9900000002}},{"attributes":{"ID":158877,"DIS_CODE":0,"TOWNNAME":"永康區","LI":"龍潭里","LIN":"44鄰","STREET":"永平街","SECT":" ","MAREA":" ","LANE":" ","ALLEY":" ","HOUSE_NO":"２８０之１２號","E_COORD97":174657.84,"N_COORD97":2547031.5499999998,"ADDRESS":"永平街２８０之１２號","OBJECTID":158876},"geometry":{"x":174657.84000000078,"y":2547031.5500000007}},{"attributes":{"ID":158878,"DIS_CODE":0,"TOWNNAME":"永康區","LI":"成功里","LIN":"44鄰","STREET":"中華路","SECT":" ","MAREA":" ","LANE":" ","ALLEY":" ","HOUSE_NO":"１０６號","E_COORD97":171627.26999999999,"N_COORD97":2544785,"ADDRESS":"中華路１０６號","OBJECTID":158877},"geometry":{"x":171627.27000000048,"y":2544785.0000000019}},{"attributes":{"ID":158879,"DIS_CODE":0,"TOWNNAME":"永康區","LI":"龍潭里","LIN":"44鄰","STREET":"永平街","SECT":" ","MAREA":" ","LANE":" ","ALLEY":" ","HOUSE_NO":"２８２之１６號","E_COORD97":174658.67000000001,"N_COORD97":2547013.54,"ADDRESS":"永平街２８２之１６號","OBJECTID":158878},"geometry":{"x":174658.66999999993,"y":2547013.5400000028}},{"attributes":{"ID":158880,"DIS_CODE":0,"TOWNNAME":"新市區","LI":"新市里","LIN":"2鄰","STREET":"光華街","SECT":" ","MAREA":" ","LANE":"１８３巷","ALLEY":"３弄","HOUSE_NO":"１號","E_COORD97":177787.85000000001,"N_COORD97":2553093.5,"ADDRESS":"光華街１８３巷３弄１號","OBJECTID":158879},"geometry":{"x":177787.84999999963,"y":2553093.5000000037}},{"attributes":{"ID":158881,"DIS_CODE":0,"TOWNNAME":"新市區","LI":"新市里","LIN":"2鄰","STREET":"光華街","SECT":" ","MAREA":" ","LANE":"１８３巷","ALLEY":"３弄","HOUSE_NO":"４號","E_COORD97":177773.45000000001,"N_COORD97":2553085.5,"ADDRESS":"光華街１８３巷３弄４號","OBJECTID":158880},"geometry":{"x":177773.45000000112,"y":2553085.5}},{"attributes":{"ID":158882,"DIS_CODE":0,"TOWNNAME":"新市區","LI":"新市里","LIN":"2鄰","STREET":"光華街","SECT":" ","MAREA":" ","LANE":"１８３巷","ALLEY":"７弄","HOUSE_NO":"１４號","E_COORD97":177767.56,"N_COORD97":2553049.75,"ADDRESS":"光華街１８３巷７弄１４號","OBJECTID":158881},"geometry":{"x":177767.55999999959,"y":2553049.75}},{"attributes":{"ID":158883,"DIS_CODE":0,"TOWNNAME":"新市區","LI":"新市里","LIN":"2鄰","STREET":"光華街","SECT":" ","MAREA":" ","LANE":"１８３巷","ALLEY":"７弄","HOUSE_NO":"４號","E_COORD97":177761.89999999999,"N_COORD97":2553075.5,"ADDRESS":"光華街１８３巷７弄４號","OBJECTID":158882},"geometry":{"x":177761.9000000013,"y":2553075.5}},{"attributes":{"ID":158884,"DIS_CODE":0,"TOWNNAME":"安南區","LI":"淵東里","LIN":"2鄰","STREET":"海佃路","SECT":"四段","MAREA":" ","LANE":"５５巷","ALLEY":"４８弄","HOUSE_NO":"１４３之３號","E_COORD97":165516.32999999999,"N_COORD97":2550775.9700000002,"ADDRESS":"海佃路四段５５巷４８弄１４３之３號","OBJECTID":158883},"geometry":{"x":165516.33000000101,"y":2550775.9700000025}},{"attributes":{"ID":158885,"DIS_CODE":0,"TOWNNAME":"安南區","LI":"長安里","LIN":"2鄰","STREET":"長溪路","SECT":"三段","MAREA":" ","LANE":"３７３巷","ALLEY":"３８弄","HOUSE_NO":"１號","E_COORD97":167605.26999999999,"N_COORD97":2551936.1600000001,"ADDRESS":"長溪路三段３７３巷３８弄１號","OBJECTID":158884},"geometry":{"x":167605.26999999955,"y":2551936.1600000001}},{"attributes":{"ID":158886,"DIS_CODE":0,"TOWNNAME":"安南區","LI":"長安里","LIN":"2鄰","STREET":"長溪路","SECT":"三段","MAREA":" ","LANE":"３７３巷","ALLEY":"３８弄","HOUSE_NO":"３號","E_COORD97":167600.07000000001,"N_COORD97":2551934.98,"ADDRESS":"長溪路三段３７３巷３８弄３號","OBJECTID":158885},"geometry":{"x":167600.07000000123,"y":2551934.9800000023}},{"attributes":{"ID":158887,"DIS_CODE":0,"TOWNNAME":"安南區","LI":"長安里","LIN":"2鄰","STREET":"長溪路","SECT":"三段","MAREA":" ","LANE":"３７３巷","ALLEY":"３８弄","HOUSE_NO":"５號","E_COORD97":167596,"N_COORD97":2551932.02,"ADDRESS":"長溪路三段３７３巷３８弄５號","OBJECTID":158886},"geometry":{"x":167596,"y":2551932.0199999996}},{"attributes":{"ID":158888,"DIS_CODE":0,"TOWNNAME":"新化區","LI":"山\u25A0里","LIN":"5鄰","STREET":" ","SECT":" ","MAREA":"頂山\u25A0","LANE":" ","ALLEY":" ","HOUSE_NO":"１５號","E_COORD97":179625.17999999999,"N_COORD97":2546837.25,"ADDRESS":"頂山\u25A0１５號","OBJECTID":158887},"geometry":{"x":179625.1799999997,"y":2546837.2500000019}},{"attributes":{"ID":158889,"DIS_CODE":0,"TOWNNAME":"新化區","LI":"崙頂里","LIN":"5鄰","STREET":" ","SECT":" ","MAREA":"崙子頂","LANE":" ","ALLEY":" ","HOUSE_NO":"２３８號之２","E_COORD97":176681.78,"N_COORD97":2546937.2599999998,"ADDRESS":"崙子頂２３８號之２","OBJECTID":158888},"geometry":{"x":176681.78000000026,"y":2546937.2599999998}},{"attributes":{"ID":158890,"DIS_CODE":0,"TOWNNAME":"新化區","LI":"山\u25A0里","LIN":"5鄰","STREET":" ","SECT":" ","MAREA":"頂山\u25A0","LANE":" ","ALLEY":" ","HOUSE_NO":"１８號","E_COORD97":179591.38,"N_COORD97":2546830.25,"ADDRESS":"頂山\u25A0１８號","OBJECTID":158889},"geometry":{"x":179591.37999999989,"y":2546830.2500000019}},{"attributes":{"ID":158891,"DIS_CODE":0,"TOWNNAME":"新化區","LI":"羊林里","LIN":"5鄰","STREET":" ","SECT":" ","MAREA":"\u25A0拔林","LANE":" ","ALLEY":" ","HOUSE_NO":"５１４號之１","E_COORD97":183597.54999999999,"N_COORD97":2551656.2599999998,"ADDRESS":"\u25A0拔林５１４號之１","OBJECTID":158890},"geometry":{"x":183597.54999999981,"y":2551656.2599999998}},{"attributes":{"ID":158892,"DIS_CODE":0,"TOWNNAME":"新化區","LI":"羊林里","LIN":"5鄰","STREET":" ","SECT":" ","MAREA":"\u25A0拔林","LANE":" ","ALLEY":" ","HOUSE_NO":"４６８號","E_COORD97":183562.51999999999,"N_COORD97":2551677.25,"ADDRESS":"\u25A0拔林４６８號","OBJECTID":158891},"geometry":{"x":183562.51999999862,"y":2551677.25}},{"attributes":{"ID":158893,"DIS_CODE":0,"TOWNNAME":"新化區","LI":"羊林里","LIN":"5鄰","STREET":" ","SECT":" ","MAREA":"\u25A0拔林","LANE":" ","ALLEY":" ","HOUSE_NO":"４６８號之１","E_COORD97":183552.75,"N_COORD97":2551677.2599999998,"ADDRESS":"\u25A0拔林４６８號之１","OBJECTID":158892},"geometry":{"x":183552.75,"y":2551677.2599999998}},{"attributes":{"ID":158894,"DIS_CODE":0,"TOWNNAME":"新化區","LI":"知義里","LIN":"5鄰","STREET":" ","SECT":" ","MAREA":"知母義","LANE":" ","ALLEY":" ","HOUSE_NO":"７５號之３","E_COORD97":180149.51999999999,"N_COORD97":2547274.2599999998,"ADDRESS":"知母義７５號之３","OBJECTID":158893},"geometry":{"x":180149.51999999955,"y":2547274.2600000016}},{"attributes":{"ID":158895,"DIS_CODE":0,"TOWNNAME":"新化區","LI":"崙頂里","LIN":"5鄰","STREET":" ","SECT":" ","MAREA":"崙子頂","LANE":" ","ALLEY":" ","HOUSE_NO":"２３０號之１","E_COORD97":176608.45999999999,"N_COORD97":2546956.2599999998,"ADDRESS":"崙子頂２３０號之１","OBJECTID":158894},"geometry":{"x":176608.46000000089,"y":2546956.2600000016}},{"attributes":{"ID":158896,"DIS_CODE":0,"TOWNNAME":"新化區","LI":"崙頂里","LIN":"5鄰","STREET":" ","SECT":" ","MAREA":"崙子頂","LANE":" ","ALLEY":" ","HOUSE_NO":"１９１號之５","E_COORD97":176596.79000000001,"N_COORD97":2547042.2599999998,"ADDRESS":"崙子頂１９１號之５","OBJECTID":158895},"geometry":{"x":176596.79000000004,"y":2547042.2599999998}},{"attributes":{"ID":158897,"DIS_CODE":0,"TOWNNAME":"新化區","LI":"知義里","LIN":"5鄰","STREET":" ","SECT":" ","MAREA":"知母義","LANE":" ","ALLEY":" ","HOUSE_NO":"７１號","E_COORD97":180158.17000000001,"N_COORD97":2547238.25,"ADDRESS":"知母義７１號","OBJECTID":158896},"geometry":{"x":180158.17000000179,"y":2547238.2500000019}},{"attributes":{"ID":158898,"DIS_CODE":0,"TOWNNAME":"新市區","LI":"新和里","LIN":"44鄰","STREET":"民生路","SECT":" ","MAREA":" ","LANE":" ","ALLEY":" ","HOUSE_NO":"８６號","E_COORD97":177141.32000000001,"N_COORD97":2553288.79,"ADDRESS":"民生路８６號","OBJECTID":158897},"geometry":{"x":177141.3200000003,"y":2553288.790000001}},{"attributes":{"ID":158899,"DIS_CODE":0,"TOWNNAME":"安南區","LI":"長安里","LIN":"2鄰","STREET":"長溪路","SECT":"三段","MAREA":" ","LANE":"３７３巷","ALLEY":"３８弄","HOUSE_NO":"７號","E_COORD97":167591.26999999999,"N_COORD97":2551929.3300000001,"ADDRESS":"長溪路三段３７３巷３８弄７號","OBJECTID":158898},"geometry":{"x":167591.27000000048,"y":2551929.3300000019}},{"attributes":{"ID":158900,"DIS_CODE":0,"TOWNNAME":"安南區","LI":"長安里","LIN":"2鄰","STREET":"長溪路","SECT":"三段","MAREA":" ","LANE":"３７３巷","ALLEY":"３８弄","HOUSE_NO":"９號","E_COORD97":167594.39000000001,"N_COORD97":2551952.48,"ADDRESS":"長溪路三段３７３巷３８弄９號","OBJECTID":158899},"geometry":{"x":167594.38999999966,"y":2551952.4800000023}},{"attributes":{"ID":158901,"DIS_CODE":0,"TOWNNAME":"安南區","LI":"長安里","LIN":"2鄰","STREET":"長溪路","SECT":"三段","MAREA":" ","LANE":"３７３巷","ALLEY":"３８弄","HOUSE_NO":"１１號","E_COORD97":167589.98000000001,"N_COORD97":2551950.6800000002,"ADDRESS":"長溪路三段３７３巷３８弄１１號","OBJECTID":158900},"geometry":{"x":167589.97999999952,"y":2551950.6800000016}},{"attributes":{"ID":158902,"DIS_CODE":0,"TOWNNAME":"新化區","LI":"山\u25A0里","LIN":"5鄰","STREET":" ","SECT":" ","MAREA":"頂山\u25A0","LANE":" ","ALLEY":" ","HOUSE_NO":"２１號之５","E_COORD97":179550.23999999999,"N_COORD97":2546822.2599999998,"ADDRESS":"頂山\u25A0２１號之５","OBJECTID":158901},"geometry":{"x":179550.24000000022,"y":2546822.2599999998}},{"attributes":{"ID":158903,"DIS_CODE":0,"TOWNNAME":"新化區","LI":"山\u25A0里","LIN":"5鄰","STREET":" ","SECT":" ","MAREA":"頂山\u25A0","LANE":" ","ALLEY":" ","HOUSE_NO":"１２９號","E_COORD97":179610.92999999999,"N_COORD97":2546727.25,"ADDRESS":"頂山\u25A0１２９號","OBJECTID":158902},"geometry":{"x":179610.93000000063,"y":2546727.25}},{"attributes":{"ID":158904,"DIS_CODE":0,"TOWNNAME":"新化區","LI":"唪口里","LIN":"5鄰","STREET":" ","SECT":" ","MAREA":"唪口","LANE":" ","ALLEY":" ","HOUSE_NO":"４６號","E_COORD97":178141.39999999999,"N_COORD97":2548987.25,"ADDRESS":"唪口４６號","OBJECTID":158903},"geometry":{"x":178141.40000000224,"y":2548987.2500000019}},{"attributes":{"ID":158905,"DIS_CODE":0,"TOWNNAME":"新化區","LI":"唪口里","LIN":"5鄰","STREET":" ","SECT":" ","MAREA":"唪口","LANE":" ","ALLEY":" ","HOUSE_NO":"４５號之７","E_COORD97":178207.54000000001,"N_COORD97":2548993.2599999998,"ADDRESS":"唪口４５號之７","OBJECTID":158904},"geometry":{"x":178207.54000000004,"y":2548993.2600000016}},{"attributes":{"ID":158906,"DIS_CODE":0,"TOWNNAME":"安南區","LI":"長安里","LIN":"2鄰","STREET":"長溪路","SECT":"三段","MAREA":" ","LANE":"３７３巷","ALLEY":"３８弄","HOUSE_NO":"１３號","E_COORD97":167585.44,"N_COORD97":2551947.9900000002,"ADDRESS":"長溪路三段３７３巷３８弄１３號","OBJECTID":158905},"geometry":{"x":167585.44000000134,"y":2551947.9900000039}},{"attributes":{"ID":158907,"DIS_CODE":0,"TOWNNAME":"新化區","LI":"北勢里","LIN":"5鄰","STREET":" ","SECT":" ","MAREA":"北勢","LANE":" ","ALLEY":" ","HOUSE_NO":"１２４號","E_COORD97":177170.48000000001,"N_COORD97":2549552.2599999998,"ADDRESS":"北勢１２４號","OBJECTID":158906},"geometry":{"x":177170.48000000045,"y":2549552.2600000016}},{"attributes":{"ID":158908,"DIS_CODE":0,"TOWNNAME":"新化區","LI":"唪口里","LIN":"5鄰","STREET":" ","SECT":" ","MAREA":"唪口","LANE":" ","ALLEY":" ","HOUSE_NO":"３５號","E_COORD97":178104.60000000001,"N_COORD97":2548945.25,"ADDRESS":"唪口３５號","OBJECTID":158907},"geometry":{"x":178104.59999999963,"y":2548945.2500000037}},{"attributes":{"ID":158909,"DIS_CODE":0,"TOWNNAME":"新化區","LI":"唪口里","LIN":"5鄰","STREET":" ","SECT":" ","MAREA":"唪口","LANE":" ","ALLEY":" ","HOUSE_NO":"４０號之２０","E_COORD97":178228.19,"N_COORD97":2548968.2599999998,"ADDRESS":"唪口４０號之２０","OBJECTID":158908},"geometry":{"x":178228.19000000134,"y":2548968.2599999998}},{"attributes":{"ID":158910,"DIS_CODE":0,"TOWNNAME":"安南區","LI":"長安里","LIN":"2鄰","STREET":"長溪路","SECT":"三段","MAREA":" ","LANE":"３７３巷","ALLEY":"３８弄","HOUSE_NO":"１５號","E_COORD97":167579.44,"N_COORD97":2551945.4300000002,"ADDRESS":"長溪路三段３７３巷３８弄１５號","OBJECTID":158909},"geometry":{"x":167579.44000000041,"y":2551945.4300000016}},{"attributes":{"ID":158911,"DIS_CODE":0,"TOWNNAME":"安南區","LI":"淵東里","LIN":"2鄰","STREET":"海佃路","SECT":"四段","MAREA":" ","LANE":"５５巷","ALLEY":"４８弄","HOUSE_NO":"１４３之５號","E_COORD97":165502.62,"N_COORD97":2550763.3500000001,"ADDRESS":"海佃路四段５５巷４８弄１４３之５號","OBJECTID":158910},"geometry":{"x":165502.62000000104,"y":2550763.3499999996}},{"attributes":{"ID":158912,"DIS_CODE":0,"TOWNNAME":"新化區","LI":"豐榮里","LIN":"5鄰","STREET":" ","SECT":" ","MAREA":"洋子","LANE":" ","ALLEY":" ","HOUSE_NO":"９７之１號","E_COORD97":177948.26000000001,"N_COORD97":2548266.8399999999,"ADDRESS":"洋子９７之１號","OBJECTID":158911},"geometry":{"x":177948.25999999978,"y":2548266.8400000017}},{"attributes":{"ID":158913,"DIS_CODE":0,"TOWNNAME":"新化區","LI":"豐榮里","LIN":"5鄰","STREET":" ","SECT":" ","MAREA":"洋子","LANE":" ","ALLEY":" ","HOUSE_NO":"９７之２號","E_COORD97":177950.92999999999,"N_COORD97":2548263.25,"ADDRESS":"洋子９７之２號","OBJECTID":158912},"geometry":{"x":177950.93000000063,"y":2548263.25}},{"attributes":{"ID":158914,"DIS_CODE":0,"TOWNNAME":"新化區","LI":"豐榮里","LIN":"5鄰","STREET":" ","SECT":" ","MAREA":"洋子","LANE":" ","ALLEY":" ","HOUSE_NO":"９７之３號","E_COORD97":177947.97,"N_COORD97":2548256.2200000002,"ADDRESS":"洋子９７之３號","OBJECTID":158913},"geometry":{"x":177947.96999999974,"y":2548256.2200000025}},{"attributes":{"ID":158915,"DIS_CODE":0,"TOWNNAME":"新化區","LI":"豐榮里","LIN":"5鄰","STREET":" ","SECT":" ","MAREA":"洋子","LANE":" ","ALLEY":" ","HOUSE_NO":"９７之５號","E_COORD97":177957.97,"N_COORD97":2548257.3500000001,"ADDRESS":"洋子９７之５號","OBJECTID":158914},"geometry":{"x":177957.97000000067,"y":2548257.3500000015}},{"attributes":{"ID":158916,"DIS_CODE":0,"TOWNNAME":"安南區","LI":"長安里","LIN":"2鄰","STREET":"長溪路","SECT":"三段","MAREA":" ","LANE":"３７３巷","ALLEY":"３８弄","HOUSE_NO":"１７號","E_COORD97":167571.94,"N_COORD97":2551946.54,"ADDRESS":"長溪路三段３７３巷３８弄１７號","OBJECTID":158915},"geometry":{"x":167571.94000000134,"y":2551946.5400000028}},{"attributes":{"ID":158917,"DIS_CODE":0,"TOWNNAME":"安南區","LI":"長安里","LIN":"2鄰","STREET":"長溪路","SECT":"三段","MAREA":" ","LANE":"３７３巷","ALLEY":"３８弄","HOUSE_NO":"１９號","E_COORD97":167569,"N_COORD97":2551942.9500000002,"ADDRESS":"長溪路三段３７３巷３８弄１９號","OBJECTID":158916},"geometry":{"x":167568.99999999907,"y":2551942.9499999993}},{"attributes":{"ID":158918,"DIS_CODE":0,"TOWNNAME":"安南區","LI":"長安里","LIN":"2鄰","STREET":"長溪路","SECT":"三段","MAREA":" ","LANE":"３７３巷","ALLEY":"２１弄","HOUSE_NO":"２號","E_COORD97":167618.94,"N_COORD97":2551898.9199999999,"ADDRESS":"長溪路三段３７３巷２１弄２號","OBJECTID":158917},"geometry":{"x":167618.94000000041,"y":2551898.9199999999}},{"attributes":{"ID":158919,"DIS_CODE":0,"TOWNNAME":"將軍區","LI":"三吉里","LIN":"5鄰","STREET":" ","SECT":" ","MAREA":"三吉","LANE":" ","ALLEY":" ","HOUSE_NO":"３７號","E_COORD97":161348.60000000001,"N_COORD97":2567422.04,"ADDRESS":"三吉３７號","OBJECTID":158918},"geometry":{"x":161348.60000000056,"y":2567422.0399999991}},{"attributes":{"ID":158920,"DIS_CODE":0,"TOWNNAME":"安南區","LI":"長安里","LIN":"2鄰","STREET":"長溪路","SECT":"三段","MAREA":" ","LANE":"３７３巷","ALLEY":"２１弄","HOUSE_NO":"６號","E_COORD97":167621.42000000001,"N_COORD97":2551895.0600000001,"ADDRESS":"長溪路三段３７３巷２１弄６號","OBJECTID":158919},"geometry":{"x":167621.41999999993,"y":2551895.0600000024}},{"attributes":{"ID":158921,"DIS_CODE":0,"TOWNNAME":"安定區","LI":"港南里","LIN":"5鄰","STREET":" ","SECT":" ","MAREA":"港口","LANE":" ","ALLEY":" ","HOUSE_NO":"３９之１０號","E_COORD97":171599.20999999999,"N_COORD97":2554217.6400000001,"ADDRESS":"港口３９之１０號","OBJECTID":158920},"geometry":{"x":171599.21000000089,"y":2554217.6400000006}},{"attributes":{"ID":158922,"DIS_CODE":0,"TOWNNAME":"安定區","LI":"港南里","LIN":"5鄰","STREET":" ","SECT":" ","MAREA":"港口","LANE":" ","ALLEY":" ","HOUSE_NO":"３９之１１號","E_COORD97":171600.26999999999,"N_COORD97":2554222.1899999999,"ADDRESS":"港口３９之１１號","OBJECTID":158921},"geometry":{"x":171600.27000000048,"y":2554222.1900000013}},{"attributes":{"ID":158923,"DIS_CODE":0,"TOWNNAME":"安南區","LI":"長安里","LIN":"2鄰","STREET":"長溪路","SECT":"三段","MAREA":" ","LANE":"３７３巷","ALLEY":"２１弄","HOUSE_NO":"８號","E_COORD97":167624.82999999999,"N_COORD97":2551891.6600000001,"ADDRESS":"長溪路三段３７３巷２１弄８號","OBJECTID":158922},"geometry":{"x":167624.83000000101,"y":2551891.6600000001}},{"attributes":{"ID":158924,"DIS_CODE":0,"TOWNNAME":"安定區","LI":"港南里","LIN":"5鄰","STREET":" ","SECT":" ","MAREA":"港口","LANE":" ","ALLEY":" ","HOUSE_NO":"３９之１２號","E_COORD97":171601.32999999999,"N_COORD97":2554226.75,"ADDRESS":"港口３９之１２號","OBJECTID":158923},"geometry":{"x":171601.33000000007,"y":2554226.75}},{"attributes":{"ID":158925,"DIS_CODE":0,"TOWNNAME":"安南區","LI":"長安里","LIN":"2鄰","STREET":"長溪路","SECT":"三段","MAREA":" ","LANE":"３７３巷","ALLEY":"２１弄","HOUSE_NO":"１０號","E_COORD97":167627.67000000001,"N_COORD97":2551887.8700000001,"ADDRESS":"長溪路三段３７３巷２１弄１０號","OBJECTID":158924},"geometry":{"x":167627.67000000086,"y":2551887.870000001}},{"attributes":{"ID":158926,"DIS_CODE":0,"TOWNNAME":"安南區","LI":"長安里","LIN":"2鄰","STREET":"長溪路","SECT":"三段","MAREA":" ","LANE":"３７３巷","ALLEY":"２１弄","HOUSE_NO":"１２號","E_COORD97":167630.76000000001,"N_COORD97":2551883.8999999999,"ADDRESS":"長溪路三段３７３巷２１弄１２號","OBJECTID":158925},"geometry":{"x":167630.75999999978,"y":2551883.9000000004}},{"attributes":{"ID":158927,"DIS_CODE":0,"TOWNNAME":"安定區","LI":"港南里","LIN":"5鄰","STREET":" ","SECT":" ","MAREA":"港口","LANE":" ","ALLEY":" ","HOUSE_NO":"３９之１３號","E_COORD97":171584.59,"N_COORD97":2554235.1099999999,"ADDRESS":"港口３９之１３號","OBJECTID":158926},"geometry":{"x":171584.59000000078,"y":2554235.1100000013}},{"attributes":{"ID":158928,"DIS_CODE":0,"TOWNNAME":"安南區","LI":"長安里","LIN":"2鄰","STREET":"長溪路","SECT":"三段","MAREA":" ","LANE":"３７３巷","ALLEY":"２１弄","HOUSE_NO":"１６號","E_COORD97":167633.31,"N_COORD97":2551880.2999999998,"ADDRESS":"長溪路三段３７３巷２１弄１６號","OBJECTID":158927},"geometry":{"x":167633.31000000052,"y":2551880.3000000007}},{"attributes":{"ID":158929,"DIS_CODE":0,"TOWNNAME":"安定區","LI":"港南里","LIN":"5鄰","STREET":" ","SECT":" ","MAREA":"港口","LANE":" ","ALLEY":" ","HOUSE_NO":"３９之１５號","E_COORD97":171580.57000000001,"N_COORD97":2554237.4300000002,"ADDRESS":"港口３９之１５號","OBJECTID":158928},"geometry":{"x":171580.57000000123,"y":2554237.4300000016}},{"attributes":{"ID":158930,"DIS_CODE":0,"TOWNNAME":"仁德區","LI":"仁義里","LIN":"44鄰","STREET":"中正路","SECT":"二段","MAREA":" ","LANE":"１０３４巷","ALLEY":" ","HOUSE_NO":"２７號","E_COORD97":173470.73000000001,"N_COORD97":2540896.5800000001,"ADDRESS":"中正路二段１０３４巷２７號","OBJECTID":158929},"geometry":{"x":173470.73000000231,"y":2540896.5800000001}},{"attributes":{"ID":158931,"DIS_CODE":0,"TOWNNAME":"新市區","LI":"永就里","LIN":"5鄰","STREET":" ","SECT":" ","MAREA":"永就","LANE":" ","ALLEY":" ","HOUSE_NO":"４９之７號","E_COORD97":178384.03,"N_COORD97":2551450.0499999998,"ADDRESS":"永就４９之７號","OBJECTID":158930},"geometry":{"x":178384.03000000026,"y":2551450.0500000026}},{"attributes":{"ID":158932,"DIS_CODE":0,"TOWNNAME":"新市區","LI":"大營里","LIN":"5鄰","STREET":" ","SECT":" ","MAREA":"大營","LANE":" ","ALLEY":" ","HOUSE_NO":"７１之１號","E_COORD97":179517.01000000001,"N_COORD97":2555564.7999999998,"ADDRESS":"大營７１之１號","OBJECTID":158931},"geometry":{"x":179517.01000000071,"y":2555564.8000000026}},{"attributes":{"ID":158933,"DIS_CODE":0,"TOWNNAME":"新市區","LI":"永就里","LIN":"5鄰","STREET":" ","SECT":" ","MAREA":"永就","LANE":" ","ALLEY":" ","HOUSE_NO":"４９之６號","E_COORD97":178378.17000000001,"N_COORD97":2551446.5499999998,"ADDRESS":"永就４９之６號","OBJECTID":158932},"geometry":{"x":178378.17000000179,"y":2551446.5500000026}},{"attributes":{"ID":158934,"DIS_CODE":0,"TOWNNAME":"東區","LI":"崇信里","LIN":"24鄰","STREET":"崇善一街","SECT":" ","MAREA":" ","LANE":" ","ALLEY":" ","HOUSE_NO":"７８號四樓之２","E_COORD97":170831.85999999999,"N_COORD97":2542290.75,"ADDRESS":"崇善一街７８號四樓之２","OBJECTID":158933},"geometry":{"x":170831.8599999994,"y":2542290.7500000019}},{"attributes":{"ID":158935,"DIS_CODE":0,"TOWNNAME":"新市區","LI":"大營里","LIN":"5鄰","STREET":" ","SECT":" ","MAREA":"大營","LANE":" ","ALLEY":" ","HOUSE_NO":"７９之１５號","E_COORD97":179775.17000000001,"N_COORD97":2555448.5499999998,"ADDRESS":"大營７９之１５號","OBJECTID":158934},"geometry":{"x":179775.17000000086,"y":2555448.5500000026}},{"attributes":{"ID":158936,"DIS_CODE":0,"TOWNNAME":"東區","LI":"崇信里","LIN":"24鄰","STREET":"崇善一街","SECT":" ","MAREA":" ","LANE":" ","ALLEY":" ","HOUSE_NO":"８０號七樓","E_COORD97":170834.92000000001,"N_COORD97":2542294.98,"ADDRESS":"崇善一街８０號七樓","OBJECTID":158935},"geometry":{"x":170834.92000000086,"y":2542294.9800000004}},{"attributes":{"ID":158937,"DIS_CODE":0,"TOWNNAME":"東區","LI":"崇信里","LIN":"24鄰","STREET":"崇善一街","SECT":" ","MAREA":" ","LANE":" ","ALLEY":" ","HOUSE_NO":"８０號七樓之１","E_COORD97":170834.92000000001,"N_COORD97":2542294.98,"ADDRESS":"崇善一街８０號七樓之１","OBJECTID":158936},"geometry":{"x":170834.92000000086,"y":2542294.9800000004}},{"attributes":{"ID":158938,"DIS_CODE":0,"TOWNNAME":"安南區","LI":"長安里","LIN":"2鄰","STREET":"長溪路","SECT":"三段","MAREA":" ","LANE":"３７３巷","ALLEY":"２１弄","HOUSE_NO":"１８號","E_COORD97":167636.64999999999,"N_COORD97":2551876.79,"ADDRESS":"長溪路三段３７３巷２１弄１８號","OBJECTID":158937},"geometry":{"x":167636.6500000013,"y":2551876.7900000028}},{"attributes":{"ID":158939,"DIS_CODE":0,"TOWNNAME":"安南區","LI":"長安里","LIN":"2鄰","STREET":"長溪路","SECT":"三段","MAREA":" ","LANE":"３７３巷","ALLEY":"２１弄","HOUSE_NO":"２０號","E_COORD97":167638.72,"N_COORD97":2551872.4300000002,"ADDRESS":"長溪路三段３７３巷２１弄２０號","OBJECTID":158938},"geometry":{"x":167638.72000000067,"y":2551872.4299999997}},{"attributes":{"ID":158940,"DIS_CODE":0,"TOWNNAME":"安南區","LI":"國安里","LIN":"2鄰","STREET":"國安街","SECT":" ","MAREA":" ","LANE":"１５６巷","ALLEY":"１０１弄","HOUSE_NO":"２７號","E_COORD97":166601.95999999999,"N_COORD97":2547216.7400000002,"ADDRESS":"國安街１５６巷１０１弄２７號","OBJECTID":158939},"geometry":{"x":166601.96000000089,"y":2547216.7400000039}},{"attributes":{"ID":158941,"DIS_CODE":0,"TOWNNAME":"永康區","LI":"\u25A0行里","LIN":"44鄰","STREET":"\u25A0和街","SECT":" ","MAREA":" ","LANE":" ","ALLEY":" ","HOUSE_NO":"２１２號","E_COORD97":171821.38,"N_COORD97":2548094.1899999999,"ADDRESS":"\u25A0和街２１２號","OBJECTID":158940},"geometry":{"x":171821.38000000175,"y":2548094.1900000032}},{"attributes":{"ID":158942,"DIS_CODE":0,"TOWNNAME":"永康區","LI":"龍潭里","LIN":"44鄰","STREET":"永平街","SECT":" ","MAREA":" ","LANE":" ","ALLEY":" ","HOUSE_NO":"２９２之１０號","E_COORD97":174655.56,"N_COORD97":2547068.5499999998,"ADDRESS":"永平街２９２之１０號","OBJECTID":158941},"geometry":{"x":174655.55999999959,"y":2547068.5500000007}},{"attributes":{"ID":158943,"DIS_CODE":0,"TOWNNAME":"新市區","LI":"永就里","LIN":"5鄰","STREET":" ","SECT":" ","MAREA":"永就","LANE":" ","ALLEY":" ","HOUSE_NO":"５５之３號","E_COORD97":178019.42000000001,"N_COORD97":2551203.5499999998,"ADDRESS":"永就５５之３號","OBJECTID":158942},"geometry":{"x":178019.42000000086,"y":2551203.5500000026}},{"attributes":{"ID":158944,"DIS_CODE":0,"TOWNNAME":"新市區","LI":"三舍里","LIN":"5鄰","STREET":" ","SECT":" ","MAREA":"三舍","LANE":" ","ALLEY":" ","HOUSE_NO":"１３３之１號","E_COORD97":177908.42999999999,"N_COORD97":2554486.5499999998,"ADDRESS":"三舍１３３之１號","OBJECTID":158943},"geometry":{"x":177908.43000000063,"y":2554486.5500000007}},{"attributes":{"ID":158945,"DIS_CODE":0,"TOWNNAME":"新市區","LI":"永就里","LIN":"5鄰","STREET":" ","SECT":" ","MAREA":"永就","LANE":" ","ALLEY":" ","HOUSE_NO":"４９之８號","E_COORD97":178389.31,"N_COORD97":2551453.2999999998,"ADDRESS":"永就４９之８號","OBJECTID":158944},"geometry":{"x":178389.31000000052,"y":2551453.3000000007}},{"attributes":{"ID":158946,"DIS_CODE":0,"TOWNNAME":"新市區","LI":"大營里","LIN":"5鄰","STREET":" ","SECT":" ","MAREA":"大營","LANE":" ","ALLEY":" ","HOUSE_NO":"７６之５號","E_COORD97":179542.67999999999,"N_COORD97":2555475.7999999998,"ADDRESS":"大營７６之５號","OBJECTID":158945},"geometry":{"x":179542.68000000063,"y":2555475.8000000045}},{"attributes":{"ID":158947,"DIS_CODE":0,"TOWNNAME":"龍崎區","LI":"石嘈里","LIN":"5鄰","STREET":" ","SECT":" ","MAREA":"石嘈","LANE":" ","ALLEY":" ","HOUSE_NO":"８號之１","E_COORD97":189699.95000000001,"N_COORD97":2540274.2999999998,"ADDRESS":"石嘈８號之１","OBJECTID":158946},"geometry":{"x":189699.95000000019,"y":2540274.3000000026}},{"attributes":{"ID":158948,"DIS_CODE":0,"TOWNNAME":"安南區","LI":"國安里","LIN":"2鄰","STREET":"國安街","SECT":" ","MAREA":" ","LANE":"１５６巷","ALLEY":"１０１弄","HOUSE_NO":"２９號","E_COORD97":166596.38,"N_COORD97":2547216.6400000001,"ADDRESS":"國安街１５６巷１０１弄２９號","OBJECTID":158947},"geometry":{"x":166596.37999999989,"y":2547216.6400000006}},{"attributes":{"ID":158949,"DIS_CODE":0,"TOWNNAME":"安南區","LI":"國安里","LIN":"2鄰","STREET":"國安街","SECT":" ","MAREA":" ","LANE":"１５６巷","ALLEY":"１０１弄","HOUSE_NO":"３１號","E_COORD97":166590.07000000001,"N_COORD97":2547212.8100000001,"ADDRESS":"國安街１５６巷１０１弄３１號","OBJECTID":158948},"geometry":{"x":166590.0700000003,"y":2547212.8099999987}},{"attributes":{"ID":158950,"DIS_CODE":0,"TOWNNAME":"安南區","LI":"國安里","LIN":"2鄰","STREET":"國安街","SECT":" ","MAREA":" ","LANE":"１５６巷","ALLEY":"１０１弄","HOUSE_NO":"３３號","E_COORD97":166586.31,"N_COORD97":2547212.27,"ADDRESS":"國安街１５６巷１０１弄３３號","OBJECTID":158949},"geometry":{"x":166586.30999999959,"y":2547212.2700000033}},{"attributes":{"ID":158951,"DIS_CODE":0,"TOWNNAME":"龍崎區","LI":"石嘈里","LIN":"5鄰","STREET":" ","SECT":" ","MAREA":"石嘈","LANE":" ","ALLEY":" ","HOUSE_NO":"８號","E_COORD97":189657.62,"N_COORD97":2540215.25,"ADDRESS":"石嘈８號","OBJECTID":158950},"geometry":{"x":189657.62000000011,"y":2540215.2500000037}},{"attributes":{"ID":158952,"DIS_CODE":0,"TOWNNAME":"關廟區","LI":"深坑里","LIN":"5鄰","STREET":"深坑三街","SECT":" ","MAREA":" ","LANE":" ","ALLEY":" ","HOUSE_NO":"５６號","E_COORD97":181862.07000000001,"N_COORD97":2537721.2999999998,"ADDRESS":"深坑三街５６號","OBJECTID":158951},"geometry":{"x":181862.0700000003,"y":2537721.3000000026}},{"attributes":{"ID":158953,"DIS_CODE":0,"TOWNNAME":"安南區","LI":"國安里","LIN":"2鄰","STREET":"國安街","SECT":" ","MAREA":" ","LANE":"１５６巷","ALLEY":"１０１弄","HOUSE_NO":"３５號","E_COORD97":166582.85999999999,"N_COORD97":2547211.8100000001,"ADDRESS":"國安街１５６巷１０１弄３５號","OBJECTID":158952},"geometry":{"x":166582.86000000127,"y":2547211.8100000005}},{"attributes":{"ID":158954,"DIS_CODE":0,"TOWNNAME":"關廟區","LI":"深坑里","LIN":"5鄰","STREET":"深坑三街","SECT":" ","MAREA":" ","LANE":" ","ALLEY":" ","HOUSE_NO":"６３號","E_COORD97":181920.47,"N_COORD97":2537711.2999999998,"ADDRESS":"深坑三街６３號","OBJECTID":158953},"geometry":{"x":181920.4700000016,"y":2537711.3000000026}},{"attributes":{"ID":158955,"DIS_CODE":0,"TOWNNAME":"關廟區","LI":"埤頭里","LIN":"5鄰","STREET":"保東路","SECT":" ","MAREA":" ","LANE":"２５巷","ALLEY":" ","HOUSE_NO":"８號","E_COORD97":178995.17000000001,"N_COORD97":2543993.2999999998,"ADDRESS":"保東路２５巷８號","OBJECTID":158954},"geometry":{"x":178995.17000000179,"y":2543993.3000000026}},{"attributes":{"ID":158956,"DIS_CODE":0,"TOWNNAME":"南化區","LI":"北寮里","LIN":"5鄰","STREET":" ","SECT":" ","MAREA":"北寮","LANE":" ","ALLEY":" ","HOUSE_NO":"６６之１１號","E_COORD97":197762.64000000001,"N_COORD97":2553175.7999999998,"ADDRESS":"北寮６６之１１號","OBJECTID":158955},"geometry":{"x":197762.64000000153,"y":2553175.8000000007}},{"attributes":{"ID":158957,"DIS_CODE":0,"TOWNNAME":"南化區","LI":"北寮里","LIN":"5鄰","STREET":" ","SECT":" ","MAREA":"北寮","LANE":" ","ALLEY":" ","HOUSE_NO":"６４之７號","E_COORD97":197709.79000000001,"N_COORD97":2553200.7999999998,"ADDRESS":"北寮６４之７號","OBJECTID":158956},"geometry":{"x":197709.79000000097,"y":2553200.8000000045}},{"attributes":{"ID":158958,"DIS_CODE":0,"TOWNNAME":"南化區","LI":"北寮里","LIN":"5鄰","STREET":" ","SECT":" ","MAREA":"北寮","LANE":" ","ALLEY":" ","HOUSE_NO":"６６之３號","E_COORD97":197733.48999999999,"N_COORD97":2553199.7999999998,"ADDRESS":"北寮６６之３號","OBJECTID":158957},"geometry":{"x":197733.49000000022,"y":2553199.8000000007}},{"attributes":{"ID":158959,"DIS_CODE":0,"TOWNNAME":"南化區","LI":"北寮里","LIN":"5鄰","STREET":" ","SECT":" ","MAREA":"北寮","LANE":" ","ALLEY":" ","HOUSE_NO":"６１之５號","E_COORD97":197543.98999999999,"N_COORD97":2553655.7999999998,"ADDRESS":"北寮６１之５號","OBJECTID":158958},"geometry":{"x":197543.99000000115,"y":2553655.8000000026}},{"attributes":{"ID":158960,"DIS_CODE":0,"TOWNNAME":"南化區","LI":"北寮里","LIN":"5鄰","STREET":" ","SECT":" ","MAREA":"北寮","LANE":" ","ALLEY":" ","HOUSE_NO":"６１之１號","E_COORD97":197585.29000000001,"N_COORD97":2553496.7999999998,"ADDRESS":"北寮６１之１號","OBJECTID":158959},"geometry":{"x":197585.29000000004,"y":2553496.8000000026}},{"attributes":{"ID":158961,"DIS_CODE":0,"TOWNNAME":"南化區","LI":"北寮里","LIN":"5鄰","STREET":" ","SECT":" ","MAREA":"北寮","LANE":" ","ALLEY":" ","HOUSE_NO":"６４之６號","E_COORD97":197715.69,"N_COORD97":2553194.7999999998,"ADDRESS":"北寮６４之６號","OBJECTID":158960},"geometry":{"x":197715.69000000134,"y":2553194.8000000026}},{"attributes":{"ID":158962,"DIS_CODE":0,"TOWNNAME":"南化區","LI":"北寮里","LIN":"5鄰","STREET":" ","SECT":" ","MAREA":"北寮","LANE":" ","ALLEY":" ","HOUSE_NO":"６６之１０號","E_COORD97":197758.94,"N_COORD97":2553178.7999999998,"ADDRESS":"北寮６６之１０號","OBJECTID":158961},"geometry":{"x":197758.94000000041,"y":2553178.8000000007}},{"attributes":{"ID":158963,"DIS_CODE":0,"TOWNNAME":"南化區","LI":"北寮里","LIN":"5鄰","STREET":" ","SECT":" ","MAREA":"北寮","LANE":" ","ALLEY":" ","HOUSE_NO":"６４之１０號","E_COORD97":197704.64000000001,"N_COORD97":2553211.7999999998,"ADDRESS":"北寮６４之１０號","OBJECTID":158962},"geometry":{"x":197704.63999999966,"y":2553211.8000000026}},{"attributes":{"ID":158964,"DIS_CODE":0,"TOWNNAME":"南化區","LI":"北寮里","LIN":"5鄰","STREET":" ","SECT":" ","MAREA":"北寮","LANE":" ","ALLEY":" ","HOUSE_NO":"６４之９號","E_COORD97":197706.19,"N_COORD97":2553207.7999999998,"ADDRESS":"北寮６４之９號","OBJECTID":158963},"geometry":{"x":197706.19000000134,"y":2553207.8000000045}},{"attributes":{"ID":158965,"DIS_CODE":0,"TOWNNAME":"南化區","LI":"北寮里","LIN":"5鄰","STREET":" ","SECT":" ","MAREA":"北寮","LANE":" ","ALLEY":" ","HOUSE_NO":"６１之６號","E_COORD97":197537.89000000001,"N_COORD97":2553673.7999999998,"ADDRESS":"北寮６１之６號","OBJECTID":158964},"geometry":{"x":197537.8900000006,"y":2553673.8000000007}},{"attributes":{"ID":158966,"DIS_CODE":0,"TOWNNAME":"南化區","LI":"北寮里","LIN":"5鄰","STREET":" ","SECT":" ","MAREA":"北寮","LANE":" ","ALLEY":" ","HOUSE_NO":"６０之５號","E_COORD97":197553.48999999999,"N_COORD97":2553487.7999999998,"ADDRESS":"北寮６０之５號","OBJECTID":158965},"geometry":{"x":197553.49000000022,"y":2553487.8000000007}},{"attributes":{"ID":158967,"DIS_CODE":0,"TOWNNAME":"南化區","LI":"北寮里","LIN":"5鄰","STREET":" ","SECT":" ","MAREA":"北寮","LANE":" ","ALLEY":" ","HOUSE_NO":"６６之８號","E_COORD97":197751.29000000001,"N_COORD97":2553184.7999999998,"ADDRESS":"北寮６６之８號","OBJECTID":158966},"geometry":{"x":197751.29000000004,"y":2553184.8000000026}},{"attributes":{"ID":158968,"DIS_CODE":0,"TOWNNAME":"南化區","LI":"北寮里","LIN":"5鄰","STREET":" ","SECT":" ","MAREA":"北寮","LANE":" ","ALLEY":" ","HOUSE_NO":"６１之２號","E_COORD97":197556.69,"N_COORD97":2553759.7999999998,"ADDRESS":"北寮６１之２號","OBJECTID":158967},"geometry":{"x":197556.69000000134,"y":2553759.8000000007}},{"attributes":{"ID":158969,"DIS_CODE":0,"TOWNNAME":"南化區","LI":"北寮里","LIN":"5鄰","STREET":" ","SECT":" ","MAREA":"北寮","LANE":" ","ALLEY":" ","HOUSE_NO":"６６之５號","E_COORD97":197741.29000000001,"N_COORD97":2553194.7999999998,"ADDRESS":"北寮６６之５號","OBJECTID":158968},"geometry":{"x":197741.29000000004,"y":2553194.8000000026}},{"attributes":{"ID":158970,"DIS_CODE":0,"TOWNNAME":"南化區","LI":"北寮里","LIN":"5鄰","STREET":" ","SECT":" ","MAREA":"北寮","LANE":" ","ALLEY":" ","HOUSE_NO":"６６之７號","E_COORD97":197747.59,"N_COORD97":2553188.7999999998,"ADDRESS":"北寮６６之７號","OBJECTID":158969},"geometry":{"x":197747.58999999985,"y":2553188.8000000026}},{"attributes":{"ID":158971,"DIS_CODE":0,"TOWNNAME":"南化區","LI":"北寮里","LIN":"5鄰","STREET":" ","SECT":" ","MAREA":"北寮","LANE":" ","ALLEY":" ","HOUSE_NO":"６６之２號","E_COORD97":197737.19,"N_COORD97":2553195.7999999998,"ADDRESS":"北寮６６之２號","OBJECTID":158970},"geometry":{"x":197737.19000000041,"y":2553195.8000000007}},{"attributes":{"ID":158972,"DIS_CODE":0,"TOWNNAME":"永康區","LI":"北灣里","LIN":"2鄰","STREET":"文賢街","SECT":" ","MAREA":" ","LANE":"１２２巷","ALLEY":"２７弄","HOUSE_NO":"２號","E_COORD97":175474.87,"N_COORD97":2545523.3300000001,"ADDRESS":"文賢街１２２巷２７弄２號","OBJECTID":158971},"geometry":{"x":175474.87000000197,"y":2545523.3300000001}},{"attributes":{"ID":158973,"DIS_CODE":0,"TOWNNAME":"南化區","LI":"東和里","LIN":"5鄰","STREET":" ","SECT":" ","MAREA":"東和","LANE":" ","ALLEY":" ","HOUSE_NO":"３８之５號","E_COORD97":195731.76999999999,"N_COORD97":2545083.7999999998,"ADDRESS":"東和３８之５號","OBJECTID":158972},"geometry":{"x":195731.76999999955,"y":2545083.8000000007}},{"attributes":{"ID":158974,"DIS_CODE":0,"TOWNNAME":"新市區","LI":"大營里","LIN":"5鄰","STREET":" ","SECT":" ","MAREA":"大營","LANE":" ","ALLEY":" ","HOUSE_NO":"７６之６號","E_COORD97":179541.34,"N_COORD97":2555479.5499999998,"ADDRESS":"大營７６之６號","OBJECTID":158973},"geometry":{"x":179541.33999999985,"y":2555479.5500000007}},{"attributes":{"ID":158975,"DIS_CODE":0,"TOWNNAME":"永康區","LI":"東橋里","LIN":"2鄰","STREET":"中山南路","SECT":" ","MAREA":" ","LANE":"１９５巷","ALLEY":"５２弄","HOUSE_NO":"７號","E_COORD97":171411.47,"N_COORD97":2546497.46,"ADDRESS":"中山南路１９５巷５２弄７號","OBJECTID":158974},"geometry":{"x":171411.46999999974,"y":2546497.4600000028}},{"attributes":{"ID":158976,"DIS_CODE":0,"TOWNNAME":"永康區","LI":"東橋里","LIN":"2鄰","STREET":"大橋一街","SECT":" ","MAREA":" ","LANE":"３２４巷","ALLEY":"１６弄","HOUSE_NO":"３號","E_COORD97":171349.94,"N_COORD97":2546596.2799999998,"ADDRESS":"大橋一街３２４巷１６弄３號","OBJECTID":158975},"geometry":{"x":171349.94000000041,"y":2546596.2800000012}},{"attributes":{"ID":158977,"DIS_CODE":0,"TOWNNAME":"永康區","LI":"東橋里","LIN":"2鄰","STREET":"大橋一街","SECT":" ","MAREA":" ","LANE":"３２４巷","ALLEY":"１６弄","HOUSE_NO":"７號","E_COORD97":171341.07999999999,"N_COORD97":2546589.7799999998,"ADDRESS":"大橋一街３２４巷１６弄７號","OBJECTID":158976},"geometry":{"x":171341.08000000101,"y":2546589.7800000012}},{"attributes":{"ID":158978,"DIS_CODE":0,"TOWNNAME":"永康區","LI":"東橋里","LIN":"2鄰","STREET":"中山南路","SECT":" ","MAREA":" ","LANE":"１９５巷","ALLEY":"５２弄","HOUSE_NO":"９號","E_COORD97":171414.82999999999,"N_COORD97":2546499.71,"ADDRESS":"中山南路１９５巷５２弄９號","OBJECTID":158977},"geometry":{"x":171414.83000000007,"y":2546499.7100000028}},{"attributes":{"ID":158979,"DIS_CODE":0,"TOWNNAME":"新市區","LI":"大營里","LIN":"5鄰","STREET":" ","SECT":" ","MAREA":"大營","LANE":" ","ALLEY":" ","HOUSE_NO":"８２之１號","E_COORD97":179547.92999999999,"N_COORD97":2555460.7999999998,"ADDRESS":"大營８２之１號","OBJECTID":158978},"geometry":{"x":179547.93000000063,"y":2555460.8000000007}},{"attributes":{"ID":158980,"DIS_CODE":0,"TOWNNAME":"永康區","LI":"東橋里","LIN":"2鄰","STREET":"大橋一街","SECT":" ","MAREA":" ","LANE":"３２４巷","ALLEY":"１６弄","HOUSE_NO":"６號","E_COORD97":171340.63,"N_COORD97":2546600.0299999998,"ADDRESS":"大橋一街３２４巷１６弄６號","OBJECTID":158979},"geometry":{"x":171340.63000000082,"y":2546600.0300000031}},{"attributes":{"ID":158981,"DIS_CODE":0,"TOWNNAME":"永康區","LI":"南灣里","LIN":"2鄰","STREET":"大灣二街","SECT":" ","MAREA":" ","LANE":"７１巷","ALLEY":"１８弄","HOUSE_NO":"４５號","E_COORD97":174691,"N_COORD97":2544684.0699999998,"ADDRESS":"大灣二街７１巷１８弄４５號","OBJECTID":158980},"geometry":{"x":174691.00000000093,"y":2544684.0700000003}},{"attributes":{"ID":158982,"DIS_CODE":0,"TOWNNAME":"永康區","LI":"南灣里","LIN":"2鄰","STREET":"大灣二街","SECT":" ","MAREA":" ","LANE":"７１巷","ALLEY":"１８弄","HOUSE_NO":"２７號","E_COORD97":174705.76999999999,"N_COORD97":2544688.75,"ADDRESS":"大灣二街７１巷１８弄２７號","OBJECTID":158981},"geometry":{"x":174705.77000000048,"y":2544688.7500000019}},{"attributes":{"ID":158983,"DIS_CODE":0,"TOWNNAME":"永康區","LI":"東橋里","LIN":"2鄰","STREET":"大橋一街","SECT":" ","MAREA":" ","LANE":"３２４巷","ALLEY":"１６弄","HOUSE_NO":"８號","E_COORD97":171336.39999999999,"N_COORD97":2546596.7799999998,"ADDRESS":"大橋一街３２４巷１６弄８號","OBJECTID":158982},"geometry":{"x":171336.40000000037,"y":2546596.7799999993}},{"attributes":{"ID":158984,"DIS_CODE":0,"TOWNNAME":"永康區","LI":"東橋里","LIN":"2鄰","STREET":"中山南路","SECT":" ","MAREA":" ","LANE":"１９５巷","ALLEY":"５２弄","HOUSE_NO":"５號","E_COORD97":171407.92999999999,"N_COORD97":2546495.21,"ADDRESS":"中山南路１９５巷５２弄５號","OBJECTID":158983},"geometry":{"x":171407.93000000063,"y":2546495.209999999}},{"attributes":{"ID":158985,"DIS_CODE":0,"TOWNNAME":"永康區","LI":"東橋里","LIN":"2鄰","STREET":"中山南路","SECT":" ","MAREA":" ","LANE":"１９５巷","ALLEY":"５２弄","HOUSE_NO":"１號","E_COORD97":171397.41,"N_COORD97":2546494.21,"ADDRESS":"中山南路１９５巷５２弄１號","OBJECTID":158984},"geometry":{"x":171397.41000000015,"y":2546494.2100000009}},{"attributes":{"ID":158986,"DIS_CODE":0,"TOWNNAME":"永康區","LI":"東橋里","LIN":"2鄰","STREET":"大橋一街","SECT":" ","MAREA":" ","LANE":"３２４巷","ALLEY":"１６弄","HOUSE_NO":"１號","E_COORD97":171354.23999999999,"N_COORD97":2546599.7799999998,"ADDRESS":"大橋一街３２４巷１６弄１號","OBJECTID":158985},"geometry":{"x":171354.24000000022,"y":2546599.7800000012}},{"attributes":{"ID":158987,"DIS_CODE":0,"TOWNNAME":"關廟區","LI":"埤頭里","LIN":"5鄰","STREET":"保東路","SECT":" ","MAREA":" ","LANE":"２５巷","ALLEY":" ","HOUSE_NO":"１２號","E_COORD97":178985.97,"N_COORD97":2543993.2999999998,"ADDRESS":"保東路２５巷１２號","OBJECTID":158986},"geometry":{"x":178985.96999999974,"y":2543993.3000000026}},{"attributes":{"ID":158988,"DIS_CODE":0,"TOWNNAME":"永康區","LI":"東橋里","LIN":"2鄰","STREET":"大橋一街","SECT":" ","MAREA":" ","LANE":"３２４巷","ALLEY":"１６弄","HOUSE_NO":"４號","E_COORD97":171344.78,"N_COORD97":2546603.2799999998,"ADDRESS":"大橋一街３２４巷１６弄４號","OBJECTID":158987},"geometry":{"x":171344.78000000119,"y":2546603.2800000012}},{"attributes":{"ID":158989,"DIS_CODE":0,"TOWNNAME":"永康區","LI":"東橋里","LIN":"2鄰","STREET":"中山南路","SECT":" ","MAREA":" ","LANE":"１９５巷","ALLEY":"５２弄","HOUSE_NO":"１５號","E_COORD97":171425.62,"N_COORD97":2546506.46,"ADDRESS":"中山南路１９５巷５２弄１５號","OBJECTID":158988},"geometry":{"x":171425.62000000104,"y":2546506.4600000009}},{"attributes":{"ID":158990,"DIS_CODE":0,"TOWNNAME":"永康區","LI":"東橋里","LIN":"2鄰","STREET":"中山南路","SECT":" ","MAREA":" ","LANE":"１９５巷","ALLEY":"５２弄","HOUSE_NO":"１３號","E_COORD97":171423.01999999999,"N_COORD97":2546504.46,"ADDRESS":"中山南路１９５巷５２弄１３號","OBJECTID":158989},"geometry":{"x":171423.01999999955,"y":2546504.4600000028}},{"attributes":{"ID":158991,"DIS_CODE":0,"TOWNNAME":"安南區","LI":"淵東里","LIN":"2鄰","STREET":"海佃路","SECT":"四段","MAREA":" ","LANE":"５５巷","ALLEY":"４８弄","HOUSE_NO":"１７號","E_COORD97":165532.10999999999,"N_COORD97":2550580.6699999999,"ADDRESS":"海佃路四段５５巷４８弄１７號","OBJECTID":158990},"geometry":{"x":165532.11000000034,"y":2550580.6700000018}},{"attributes":{"ID":158992,"DIS_CODE":0,"TOWNNAME":"永康區","LI":"東橋里","LIN":"2鄰","STREET":"中山南路","SECT":" ","MAREA":" ","LANE":"１９５巷","ALLEY":"５２弄","HOUSE_NO":"１１號","E_COORD97":171419.42000000001,"N_COORD97":2546502.21,"ADDRESS":"中山南路１９５巷５２弄１１號","OBJECTID":158991},"geometry":{"x":171419.42000000179,"y":2546502.2100000046}},{"attributes":{"ID":158993,"DIS_CODE":0,"TOWNNAME":"永康區","LI":"北灣里","LIN":"2鄰","STREET":"文賢街","SECT":" ","MAREA":" ","LANE":"１２２巷","ALLEY":"２７弄","HOUSE_NO":"４２號","E_COORD97":175478.16,"N_COORD97":2545587.23,"ADDRESS":"文賢街１２２巷２７弄４２號","OBJECTID":158992},"geometry":{"x":175478.16000000108,"y":2545587.2300000023}},{"attributes":{"ID":158994,"DIS_CODE":0,"TOWNNAME":"永康區","LI":"北灣里","LIN":"2鄰","STREET":"文賢街","SECT":" ","MAREA":" ","LANE":"１２２巷","ALLEY":"２７弄","HOUSE_NO":"５０號","E_COORD97":175479.42999999999,"N_COORD97":2545599.5499999998,"ADDRESS":"文賢街１２２巷２７弄５０號","OBJECTID":158993},"geometry":{"x":175479.43000000063,"y":2545599.5500000007}},{"attributes":{"ID":158995,"DIS_CODE":0,"TOWNNAME":"新市區","LI":"大營里","LIN":"5鄰","STREET":" ","SECT":" ","MAREA":"大營","LANE":" ","ALLEY":" ","HOUSE_NO":"７９之８號","E_COORD97":179691.45999999999,"N_COORD97":2555480.2999999998,"ADDRESS":"大營７９之８號","OBJECTID":158994},"geometry":{"x":179691.45999999996,"y":2555480.3000000026}},{"attributes":{"ID":158996,"DIS_CODE":0,"TOWNNAME":"安南區","LI":"鳳凰里","LIN":"2鄰","STREET":"北安路","SECT":"三段","MAREA":" ","LANE":"１４５巷","ALLEY":"６９弄","HOUSE_NO":"３號","E_COORD97":168132.78208,"N_COORD97":2549095.9702300001,"ADDRESS":"北安路三段１４５巷６９弄３號","OBJECTID":158995},"geometry":{"x":168132.7820800012,"y":2549095.9702330008}},{"attributes":{"ID":158997,"DIS_CODE":0,"TOWNNAME":"安南區","LI":"鳳凰里","LIN":"2鄰","STREET":"北安路","SECT":"三段","MAREA":" ","LANE":"１４５巷","ALLEY":"６９弄","HOUSE_NO":"５號","E_COORD97":168130.45301600001,"N_COORD97":2549092.5835699998,"ADDRESS":"北安路三段１４５巷６９弄５號","OBJECTID":158996},"geometry":{"x":168130.45301599987,"y":2549092.5835689995}},{"attributes":{"ID":158998,"DIS_CODE":0,"TOWNNAME":"安南區","LI":"長安里","LIN":"2鄰","STREET":"長溪路","SECT":"三段","MAREA":" ","LANE":"３７３巷","ALLEY":"８８弄","HOUSE_NO":"１６號","E_COORD97":167541.14999999999,"N_COORD97":2551894.5699999998,"ADDRESS":"長溪路三段３７３巷８８弄１６號","OBJECTID":158997},"geometry":{"x":167541.15000000037,"y":2551894.5700000022}},{"attributes":{"ID":158999,"DIS_CODE":0,"TOWNNAME":"安南區","LI":"淵西里","LIN":"2鄰","STREET":"安中路","SECT":"四段","MAREA":" ","LANE":"２９０巷","ALLEY":"２９１弄","HOUSE_NO":"５５號","E_COORD97":164945.95000000001,"N_COORD97":2550470.1299999999,"ADDRESS":"安中路四段２９０巷２９１弄５５號","OBJECTID":158998},"geometry":{"x":164945.95000000112,"y":2550470.129999999}},{"attributes":{"ID":159000,"DIS_CODE":0,"TOWNNAME":"安南區","LI":"淵西里","LIN":"2鄰","STREET":"安中路","SECT":"四段","MAREA":" ","LANE":"２９０巷","ALLEY":"２９１弄","HOUSE_NO":"５７號","E_COORD97":164941.35000000001,"N_COORD97":2550472.3500000001,"ADDRESS":"安中路四段２９０巷２９１弄５７號","OBJECTID":158999},"geometry":{"x":164941.35000000056,"y":2550472.3499999996}},{"attributes":{"ID":159001,"DIS_CODE":0,"TOWNNAME":"安南區","LI":"淵西里","LIN":"2鄰","STREET":"安中路","SECT":"四段","MAREA":" ","LANE":"２９０巷","ALLEY":"２９１弄","HOUSE_NO":"５９號","E_COORD97":164938.39000000001,"N_COORD97":2550474.8700000001,"ADDRESS":"安中路四段２９０巷２９１弄５９號","OBJECTID":159000},"geometry":{"x":164938.38999999966,"y":2550474.8700000048}}]}