{"displayFieldName":"TOWNNAME","fieldAliases":{"ID":"ID","DIS_CODE":"DIS_CODE","TOWNNAME":"TOWNNAME","LI":"LI","LIN":"LIN","STREET":"STREET","SECT":"SECT","MAREA":"MAREA","LANE":"LANE","ALLEY":"ALLEY","HOUSE_NO":"HOUSE_NO","E_COORD97":"E_COORD97","N_COORD97":"N_COORD97","ADDRESS":"ADDRESS","OBJECTID":"OBJECTID"},"geometryType":"esriGeometryPoint","spatialReference":{"wkid":102443,"latestWkid":3826},"fields":[{"name":"ID","type":"esriFieldTypeDouble","alias":"ID"},{"name":"DIS_CODE","type":"esriFieldTypeInteger","alias":"DIS_CODE"},{"name":"TOWNNAME","type":"esriFieldTypeString","alias":"TOWNNAME","length":8},{"name":"LI","type":"esriFieldTypeString","alias":"LI","length":8},{"name":"LIN","type":"esriFieldTypeString","alias":"LIN","length":12},{"name":"STREET","type":"esriFieldTypeString","alias":"STREET","length":20},{"name":"SECT","type":"esriFieldTypeString","alias":"SECT","length":8},{"name":"MAREA","type":"esriFieldTypeString","alias":"MAREA","length":12},{"name":"LANE","type":"esriFieldTypeString","alias":"LANE","length":10},{"name":"ALLEY","type":"esriFieldTypeString","alias":"ALLEY","length":10},{"name":"HOUSE_NO","type":"esriFieldTypeString","alias":"HOUSE_NO","length":20},{"name":"E_COORD97","type":"esriFieldTypeDouble","alias":"E_COORD97"},{"name":"N_COORD97","type":"esriFieldTypeDouble","alias":"N_COORD97"},{"name":"ADDRESS","type":"esriFieldTypeString","alias":"ADDRESS","length":50},{"name":"OBJECTID","type":"esriFieldTypeOID","alias":"OBJECTID"}],"features":[{"attributes":{"ID":496028,"DIS_CODE":0,"TOWNNAME":"中西區","LI":"青年里","LIN":"7鄰","STREET":"青年路","SECT":" ","MAREA":" ","LANE":" ","ALLEY":" ","HOUSE_NO":"１３１號","E_COORD97":168903.51000000001,"N_COORD97":2543621.0600000001,"ADDRESS":"青年路１３１號","OBJECTID":496001},"geometry":{"x":168903.51000000071,"y":2543621.0600000042}},{"attributes":{"ID":496029,"DIS_CODE":0,"TOWNNAME":"中西區","LI":"青年里","LIN":"7鄰","STREET":"青年路","SECT":" ","MAREA":" ","LANE":" ","ALLEY":" ","HOUSE_NO":"１３３號","E_COORD97":168915.76999999999,"N_COORD97":2543620.1200000001,"ADDRESS":"青年路１３３號","OBJECTID":496002},"geometry":{"x":168915.76999999955,"y":2543620.120000001}},{"attributes":{"ID":496030,"DIS_CODE":0,"TOWNNAME":"中西區","LI":"青年里","LIN":"7鄰","STREET":"青年路","SECT":" ","MAREA":" ","LANE":" ","ALLEY":" ","HOUSE_NO":"１３５號","E_COORD97":168933.70000000001,"N_COORD97":2543616.3500000001,"ADDRESS":"青年路１３５號","OBJECTID":496003},"geometry":{"x":168933.70000000019,"y":2543616.3499999996}},{"attributes":{"ID":496031,"DIS_CODE":0,"TOWNNAME":"仁德區","LI":"仁德里","LIN":"7鄰","STREET":"仁德三街","SECT":" ","MAREA":" ","LANE":" ","ALLEY":" ","HOUSE_NO":"３８號","E_COORD97":173238.56,"N_COORD97":2540987.5099999998,"ADDRESS":"仁德三街３８號","OBJECTID":496004},"geometry":{"x":173238.55999999959,"y":2540987.5100000016}},{"attributes":{"ID":496032,"DIS_CODE":0,"TOWNNAME":"仁德區","LI":"田厝里","LIN":"7鄰","STREET":"保安路","SECT":"二段","MAREA":" ","LANE":" ","ALLEY":" ","HOUSE_NO":"５３３號","E_COORD97":172565.91,"N_COORD97":2537576.0600000001,"ADDRESS":"保安路二段５３３號","OBJECTID":496005},"geometry":{"x":172565.91000000108,"y":2537576.0600000042}},{"attributes":{"ID":496033,"DIS_CODE":0,"TOWNNAME":"仁德區","LI":"田厝里","LIN":"7鄰","STREET":"中正路","SECT":"一段","MAREA":" ","LANE":" ","ALLEY":" ","HOUSE_NO":"６２７號","E_COORD97":172935.92999999999,"N_COORD97":2537913.7799999998,"ADDRESS":"中正路一段６２７號","OBJECTID":496006},"geometry":{"x":172935.9299999997,"y":2537913.7800000012}},{"attributes":{"ID":496034,"DIS_CODE":0,"TOWNNAME":"仁德區","LI":"仁德里","LIN":"7鄰","STREET":"仁德三街","SECT":" ","MAREA":" ","LANE":" ","ALLEY":" ","HOUSE_NO":"１０號","E_COORD97":173306.29000000001,"N_COORD97":2541003.0099999998,"ADDRESS":"仁德三街１０號","OBJECTID":496007},"geometry":{"x":173306.29000000004,"y":2541003.0100000035}},{"attributes":{"ID":496035,"DIS_CODE":0,"TOWNNAME":"仁德區","LI":"田厝里","LIN":"7鄰","STREET":"中正路","SECT":"一段","MAREA":" ","LANE":" ","ALLEY":" ","HOUSE_NO":"５９３之１號","E_COORD97":172936.76999999999,"N_COORD97":2537844.0499999998,"ADDRESS":"中正路一段５９３之１號","OBJECTID":496008},"geometry":{"x":172936.76999999955,"y":2537844.0500000045}},{"attributes":{"ID":496036,"DIS_CODE":0,"TOWNNAME":"仁德區","LI":"仁德里","LIN":"7鄰","STREET":"仁德三街","SECT":" ","MAREA":" ","LANE":" ","ALLEY":" ","HOUSE_NO":"７０號","E_COORD97":173146.92000000001,"N_COORD97":2540976.2599999998,"ADDRESS":"仁德三街７０號","OBJECTID":496009},"geometry":{"x":173146.92000000086,"y":2540976.2599999998}},{"attributes":{"ID":496037,"DIS_CODE":0,"TOWNNAME":"仁德區","LI":"仁德里","LIN":"7鄰","STREET":"仁德三街","SECT":" ","MAREA":" ","LANE":" ","ALLEY":" ","HOUSE_NO":"５６號","E_COORD97":173175.23999999999,"N_COORD97":2540982.7599999998,"ADDRESS":"仁德三街５６號","OBJECTID":496010},"geometry":{"x":173175.24000000022,"y":2540982.7600000016}},{"attributes":{"ID":496038,"DIS_CODE":0,"TOWNNAME":"仁德區","LI":"田厝里","LIN":"7鄰","STREET":"保安路","SECT":"二段","MAREA":" ","LANE":" ","ALLEY":" ","HOUSE_NO":"５６９號","E_COORD97":172639.45000000001,"N_COORD97":2537584.3100000001,"ADDRESS":"保安路二段５６９號","OBJECTID":496011},"geometry":{"x":172639.45000000019,"y":2537584.3100000042}},{"attributes":{"ID":496039,"DIS_CODE":0,"TOWNNAME":"仁德區","LI":"田厝里","LIN":"7鄰","STREET":"保安路","SECT":"二段","MAREA":" ","LANE":" ","ALLEY":" ","HOUSE_NO":"５４９號","E_COORD97":172599.79000000001,"N_COORD97":2537600.3199999998,"ADDRESS":"保安路二段５４９號","OBJECTID":496012},"geometry":{"x":172599.79000000004,"y":2537600.3200000003}},{"attributes":{"ID":496040,"DIS_CODE":0,"TOWNNAME":"仁德區","LI":"田厝里","LIN":"7鄰","STREET":"保安路","SECT":"二段","MAREA":" ","LANE":" ","ALLEY":" ","HOUSE_NO":"５３９號","E_COORD97":172577.70000000001,"N_COORD97":2537578.0600000001,"ADDRESS":"保安路二段５３９號","OBJECTID":496013},"geometry":{"x":172577.70000000112,"y":2537578.0600000005}},{"attributes":{"ID":496041,"DIS_CODE":0,"TOWNNAME":"仁德區","LI":"田厝里","LIN":"7鄰","STREET":"田厝二街","SECT":" ","MAREA":" ","LANE":" ","ALLEY":" ","HOUSE_NO":"１９號","E_COORD97":172452.62,"N_COORD97":2537569.9900000002,"ADDRESS":"田厝二街１９號","OBJECTID":496014},"geometry":{"x":172452.62000000104,"y":2537569.9900000021}},{"attributes":{"ID":496042,"DIS_CODE":0,"TOWNNAME":"仁德區","LI":"田厝里","LIN":"7鄰","STREET":"保安路","SECT":"二段","MAREA":" ","LANE":" ","ALLEY":" ","HOUSE_NO":"５４５號","E_COORD97":172591.29000000001,"N_COORD97":2537579.8100000001,"ADDRESS":"保安路二段５４５號","OBJECTID":496015},"geometry":{"x":172591.29000000004,"y":2537579.8100000005}},{"attributes":{"ID":496043,"DIS_CODE":0,"TOWNNAME":"仁德區","LI":"田厝里","LIN":"7鄰","STREET":"保安路","SECT":"二段","MAREA":" ","LANE":" ","ALLEY":" ","HOUSE_NO":"５１９號","E_COORD97":172539.60000000001,"N_COORD97":2537571.0600000001,"ADDRESS":"保安路二段５１９號","OBJECTID":496016},"geometry":{"x":172539.59999999963,"y":2537571.0600000005}},{"attributes":{"ID":496044,"DIS_CODE":0,"TOWNNAME":"仁德區","LI":"仁德里","LIN":"7鄰","STREET":"仁德三街","SECT":" ","MAREA":" ","LANE":" ","ALLEY":" ","HOUSE_NO":"１８號","E_COORD97":173292.67000000001,"N_COORD97":2541000.0099999998,"ADDRESS":"仁德三街１８號","OBJECTID":496017},"geometry":{"x":173292.67000000179,"y":2541000.0100000016}},{"attributes":{"ID":496045,"DIS_CODE":0,"TOWNNAME":"仁德區","LI":"田厝里","LIN":"7鄰","STREET":"保安路","SECT":"二段","MAREA":" ","LANE":" ","ALLEY":" ","HOUSE_NO":"５９１號","E_COORD97":172689.35000000001,"N_COORD97":2537591.5600000001,"ADDRESS":"保安路二段５９１號","OBJECTID":496018},"geometry":{"x":172689.35000000149,"y":2537591.5600000005}},{"attributes":{"ID":496046,"DIS_CODE":0,"TOWNNAME":"仁德區","LI":"保安里","LIN":"7鄰","STREET":"文賢二街","SECT":" ","MAREA":" ","LANE":" ","ALLEY":" ","HOUSE_NO":"９號","E_COORD97":171617.42999999999,"N_COORD97":2536107.5699999998,"ADDRESS":"文賢二街９號","OBJECTID":496019},"geometry":{"x":171617.43000000156,"y":2536107.570000004}},{"attributes":{"ID":496047,"DIS_CODE":0,"TOWNNAME":"仁德區","LI":"保安里","LIN":"7鄰","STREET":"文賢二街","SECT":" ","MAREA":" ","LANE":" ","ALLEY":" ","HOUSE_NO":"１１號","E_COORD97":171623.13,"N_COORD97":2536110.3199999998,"ADDRESS":"文賢二街１１號","OBJECTID":496020},"geometry":{"x":171623.13000000175,"y":2536110.3200000022}},{"attributes":{"ID":496048,"DIS_CODE":0,"TOWNNAME":"永康區","LI":"\u25A0行里","LIN":"7鄰","STREET":"中正路","SECT":" ","MAREA":" ","LANE":" ","ALLEY":" ","HOUSE_NO":"７６０號","E_COORD97":172334.92999999999,"N_COORD97":2548580.27,"ADDRESS":"中正路７６０號","OBJECTID":496021},"geometry":{"x":172334.93000000063,"y":2548580.2700000014}},{"attributes":{"ID":496049,"DIS_CODE":0,"TOWNNAME":"永康區","LI":"\u25A0行里","LIN":"7鄰","STREET":"中正路","SECT":" ","MAREA":" ","LANE":" ","ALLEY":" ","HOUSE_NO":"７５８號","E_COORD97":172338.34,"N_COORD97":2548568.73,"ADDRESS":"中正路７５８號","OBJECTID":496022},"geometry":{"x":172338.33999999985,"y":2548568.7300000004}},{"attributes":{"ID":496050,"DIS_CODE":0,"TOWNNAME":"永康區","LI":"\u25A0行里","LIN":"7鄰","STREET":"中正路","SECT":" ","MAREA":" ","LANE":" ","ALLEY":" ","HOUSE_NO":"７５６號","E_COORD97":172349.29000000001,"N_COORD97":2548567.4900000002,"ADDRESS":"中正路７５６號","OBJECTID":496023},"geometry":{"x":172349.2900000019,"y":2548567.4899999984}},{"attributes":{"ID":496051,"DIS_CODE":0,"TOWNNAME":"永康區","LI":"\u25A0行里","LIN":"7鄰","STREET":"中正路","SECT":" ","MAREA":" ","LANE":" ","ALLEY":" ","HOUSE_NO":"７５２號","E_COORD97":172351.79999999999,"N_COORD97":2548558.6800000002,"ADDRESS":"中正路７５２號","OBJECTID":496024},"geometry":{"x":172351.79999999981,"y":2548558.6799999997}},{"attributes":{"ID":496052,"DIS_CODE":0,"TOWNNAME":"永康區","LI":"\u25A0行里","LIN":"7鄰","STREET":"中正路","SECT":" ","MAREA":" ","LANE":" ","ALLEY":" ","HOUSE_NO":"７５０號","E_COORD97":172359.57999999999,"N_COORD97":2548554.9700000002,"ADDRESS":"中正路７５０號","OBJECTID":496025},"geometry":{"x":172359.58000000101,"y":2548554.9700000044}},{"attributes":{"ID":496053,"DIS_CODE":0,"TOWNNAME":"北區","LI":"大和里","LIN":"21鄰","STREET":"大港街","SECT":" ","MAREA":" ","LANE":"３８巷","ALLEY":"１５弄","HOUSE_NO":"１號","E_COORD97":167133.82999999999,"N_COORD97":2546099.1600000001,"ADDRESS":"大港街３８巷１５弄１號","OBJECTID":496026},"geometry":{"x":167133.83000000101,"y":2546099.160000002}},{"attributes":{"ID":496054,"DIS_CODE":0,"TOWNNAME":"永康區","LI":"\u25A0行里","LIN":"7鄰","STREET":"中正路","SECT":" ","MAREA":" ","LANE":" ","ALLEY":" ","HOUSE_NO":"７４８號","E_COORD97":172359.28,"N_COORD97":2548542.7000000002,"ADDRESS":"中正路７４８號","OBJECTID":496027},"geometry":{"x":172359.28000000026,"y":2548542.7000000011}},{"attributes":{"ID":496055,"DIS_CODE":0,"TOWNNAME":"永康區","LI":"烏竹里","LIN":"7鄰","STREET":"龍中街","SECT":" ","MAREA":" ","LANE":" ","ALLEY":" ","HOUSE_NO":"４８８號","E_COORD97":174303.67999999999,"N_COORD97":2549284.7599999998,"ADDRESS":"龍中街４８８號","OBJECTID":496028},"geometry":{"x":174303.6799999997,"y":2549284.7600000016}},{"attributes":{"ID":496056,"DIS_CODE":0,"TOWNNAME":"仁德區","LI":"後壁里","LIN":"7鄰","STREET":"德安路","SECT":" ","MAREA":" ","LANE":" ","ALLEY":" ","HOUSE_NO":"５９號","E_COORD97":173518.37,"N_COORD97":2539035.5600000001,"ADDRESS":"德安路５９號","OBJECTID":496029},"geometry":{"x":173518.37000000011,"y":2539035.5600000005}},{"attributes":{"ID":496057,"DIS_CODE":0,"TOWNNAME":"永康區","LI":"北灣里","LIN":"7鄰","STREET":"大灣七街","SECT":" ","MAREA":" ","LANE":" ","ALLEY":" ","HOUSE_NO":"２２號","E_COORD97":175096.29000000001,"N_COORD97":2545605.4500000002,"ADDRESS":"大灣七街２２號","OBJECTID":496030},"geometry":{"x":175096.29000000097,"y":2545605.4499999993}},{"attributes":{"ID":496058,"DIS_CODE":0,"TOWNNAME":"永康區","LI":"北灣里","LIN":"7鄰","STREET":"大灣路","SECT":" ","MAREA":" ","LANE":" ","ALLEY":" ","HOUSE_NO":"１４６號","E_COORD97":175109.06,"N_COORD97":2545562.6400000001,"ADDRESS":"大灣路１４６號","OBJECTID":496031},"geometry":{"x":175109.06000000052,"y":2545562.6400000006}},{"attributes":{"ID":496059,"DIS_CODE":0,"TOWNNAME":"永康區","LI":"北灣里","LIN":"7鄰","STREET":"大灣七街","SECT":" ","MAREA":" ","LANE":" ","ALLEY":" ","HOUSE_NO":"１０號","E_COORD97":175095.98999999999,"N_COORD97":2545576.04,"ADDRESS":"大灣七街１０號","OBJECTID":496032},"geometry":{"x":175095.98999999929,"y":2545576.0400000028}},{"attributes":{"ID":496060,"DIS_CODE":0,"TOWNNAME":"永康區","LI":"北灣里","LIN":"7鄰","STREET":"大灣七街","SECT":" ","MAREA":" ","LANE":" ","ALLEY":" ","HOUSE_NO":"２０號","E_COORD97":175095.73000000001,"N_COORD97":2545600.4500000002,"ADDRESS":"大灣七街２０號","OBJECTID":496033},"geometry":{"x":175095.73000000045,"y":2545600.450000003}},{"attributes":{"ID":496061,"DIS_CODE":0,"TOWNNAME":"永康區","LI":"北灣里","LIN":"7鄰","STREET":"大灣路","SECT":" ","MAREA":" ","LANE":" ","ALLEY":" ","HOUSE_NO":"１３６號","E_COORD97":175135.51999999999,"N_COORD97":2545607.8999999999,"ADDRESS":"大灣路１３６號","OBJECTID":496034},"geometry":{"x":175135.51999999955,"y":2545607.9000000004}},{"attributes":{"ID":496062,"DIS_CODE":0,"TOWNNAME":"永康區","LI":"北灣里","LIN":"7鄰","STREET":"大灣七街","SECT":" ","MAREA":" ","LANE":" ","ALLEY":" ","HOUSE_NO":"１８號","E_COORD97":175104.5,"N_COORD97":2545594.5299999998,"ADDRESS":"大灣七街１８號","OBJECTID":496035},"geometry":{"x":175104.50000000093,"y":2545594.5300000012}},{"attributes":{"ID":496063,"DIS_CODE":0,"TOWNNAME":"永康區","LI":"北灣里","LIN":"7鄰","STREET":"大灣路","SECT":" ","MAREA":" ","LANE":" ","ALLEY":" ","HOUSE_NO":"１５８號","E_COORD97":175092.76000000001,"N_COORD97":2545544.3300000001,"ADDRESS":"大灣路１５８號","OBJECTID":496036},"geometry":{"x":175092.76000000071,"y":2545544.3300000038}},{"attributes":{"ID":496064,"DIS_CODE":0,"TOWNNAME":"新市區","LI":"新和里","LIN":"7鄰","STREET":"富強路","SECT":" ","MAREA":" ","LANE":" ","ALLEY":" ","HOUSE_NO":"７３號","E_COORD97":177233.73999999999,"N_COORD97":2552390.5,"ADDRESS":"富強路７３號","OBJECTID":496037},"geometry":{"x":177233.74000000209,"y":2552390.5}},{"attributes":{"ID":496065,"DIS_CODE":0,"TOWNNAME":"東區","LI":"東智里","LIN":"7鄰","STREET":"長東街","SECT":" ","MAREA":" ","LANE":" ","ALLEY":" ","HOUSE_NO":"１０６號","E_COORD97":171015.78,"N_COORD97":2540209.52,"ADDRESS":"長東街１０６號","OBJECTID":496038},"geometry":{"x":171015.78000000119,"y":2540209.5200000033}},{"attributes":{"ID":496066,"DIS_CODE":0,"TOWNNAME":"中西區","LI":"民權里","LIN":"7鄰","STREET":"和平街","SECT":" ","MAREA":" ","LANE":" ","ALLEY":" ","HOUSE_NO":"９４號","E_COORD97":167532.45000000001,"N_COORD97":2544168.0099999998,"ADDRESS":"和平街９４號","OBJECTID":496039},"geometry":{"x":167532.45000000205,"y":2544168.0100000016}},{"attributes":{"ID":496067,"DIS_CODE":0,"TOWNNAME":"中西區","LI":"民權里","LIN":"7鄰","STREET":"和平街","SECT":" ","MAREA":" ","LANE":" ","ALLEY":" ","HOUSE_NO":"９６號","E_COORD97":167528.85000000001,"N_COORD97":2544168.0899999999,"ADDRESS":"和平街９６號","OBJECTID":496040},"geometry":{"x":167528.84999999963,"y":2544168.0899999999}},{"attributes":{"ID":496068,"DIS_CODE":0,"TOWNNAME":"中西區","LI":"民權里","LIN":"7鄰","STREET":"和平街","SECT":" ","MAREA":" ","LANE":" ","ALLEY":" ","HOUSE_NO":"９８號","E_COORD97":167525.88,"N_COORD97":2544168.2999999998,"ADDRESS":"和平街９８號","OBJECTID":496041},"geometry":{"x":167525.88000000175,"y":2544168.3000000007}},{"attributes":{"ID":496069,"DIS_CODE":0,"TOWNNAME":"中西區","LI":"民權里","LIN":"7鄰","STREET":"康樂街","SECT":" ","MAREA":" ","LANE":" ","ALLEY":" ","HOUSE_NO":"２８７號","E_COORD97":167542.7225,"N_COORD97":2544167.7812199998,"ADDRESS":"康樂街２８７號","OBJECTID":496042},"geometry":{"x":167542.72250000015,"y":2544167.7812229991}},{"attributes":{"ID":496070,"DIS_CODE":0,"TOWNNAME":"中西區","LI":"民權里","LIN":"7鄰","STREET":"康樂街","SECT":" ","MAREA":" ","LANE":" ","ALLEY":" ","HOUSE_NO":"２８５號","E_COORD97":167541.57999999999,"N_COORD97":2544159.5099999998,"ADDRESS":"康樂街２８５號","OBJECTID":496043},"geometry":{"x":167541.58000000194,"y":2544159.5100000035}},{"attributes":{"ID":496071,"DIS_CODE":0,"TOWNNAME":"中西區","LI":"協和里","LIN":"7鄰","STREET":"協和街","SECT":" ","MAREA":" ","LANE":" ","ALLEY":" ","HOUSE_NO":"１００號","E_COORD97":167157.64999999999,"N_COORD97":2544593.0499999998,"ADDRESS":"協和街１００號","OBJECTID":496044},"geometry":{"x":167157.65000000037,"y":2544593.0500000007}},{"attributes":{"ID":496072,"DIS_CODE":0,"TOWNNAME":"中西區","LI":"協和里","LIN":"7鄰","STREET":"協和街","SECT":" ","MAREA":" ","LANE":" ","ALLEY":" ","HOUSE_NO":"１０２號","E_COORD97":167161.25,"N_COORD97":2544595.5499999998,"ADDRESS":"協和街１０２號","OBJECTID":496045},"geometry":{"x":167161.25000000093,"y":2544595.5500000026}},{"attributes":{"ID":496073,"DIS_CODE":0,"TOWNNAME":"中西區","LI":"協和里","LIN":"7鄰","STREET":"協和街","SECT":" ","MAREA":" ","LANE":" ","ALLEY":" ","HOUSE_NO":"１０４號","E_COORD97":167164.85000000001,"N_COORD97":2544598.54,"ADDRESS":"協和街１０４號","OBJECTID":496046},"geometry":{"x":167164.85000000056,"y":2544598.5399999991}},{"attributes":{"ID":496074,"DIS_CODE":0,"TOWNNAME":"中西區","LI":"協和里","LIN":"7鄰","STREET":"協和街","SECT":" ","MAREA":" ","LANE":" ","ALLEY":" ","HOUSE_NO":"１０８號","E_COORD97":167171.95999999999,"N_COORD97":2544604.25,"ADDRESS":"協和街１０８號","OBJECTID":496047},"geometry":{"x":167171.95999999996,"y":2544604.25}},{"attributes":{"ID":496075,"DIS_CODE":0,"TOWNNAME":"中西區","LI":"協和里","LIN":"7鄰","STREET":"協和街","SECT":" ","MAREA":" ","LANE":" ","ALLEY":" ","HOUSE_NO":"９２號之１","E_COORD97":167143.14000000001,"N_COORD97":2544581.6299999999,"ADDRESS":"協和街９２號之１","OBJECTID":496048},"geometry":{"x":167143.1400000006,"y":2544581.6300000027}},{"attributes":{"ID":496076,"DIS_CODE":0,"TOWNNAME":"中西區","LI":"協和里","LIN":"7鄰","STREET":"協和街","SECT":" ","MAREA":" ","LANE":" ","ALLEY":" ","HOUSE_NO":"９４號","E_COORD97":167146.64000000001,"N_COORD97":2544584.2200000002,"ADDRESS":"協和街９４號","OBJECTID":496049},"geometry":{"x":167146.63999999966,"y":2544584.2200000025}},{"attributes":{"ID":496077,"DIS_CODE":0,"TOWNNAME":"中西區","LI":"協和里","LIN":"7鄰","STREET":"協和街","SECT":" ","MAREA":" ","LANE":" ","ALLEY":" ","HOUSE_NO":"９６號","E_COORD97":167150.66,"N_COORD97":2544586.96,"ADDRESS":"協和街９６號","OBJECTID":496050},"geometry":{"x":167150.66000000015,"y":2544586.9600000009}},{"attributes":{"ID":496078,"DIS_CODE":0,"TOWNNAME":"中西區","LI":"協和里","LIN":"7鄰","STREET":"協和街","SECT":" ","MAREA":" ","LANE":" ","ALLEY":" ","HOUSE_NO":"９８號","E_COORD97":167153.95000000001,"N_COORD97":2544590.0600000001,"ADDRESS":"協和街９８號","OBJECTID":496051},"geometry":{"x":167153.95000000019,"y":2544590.0600000005}},{"attributes":{"ID":496079,"DIS_CODE":0,"TOWNNAME":"中西區","LI":"協和里","LIN":"7鄰","STREET":"和善街","SECT":" ","MAREA":" ","LANE":" ","ALLEY":" ","HOUSE_NO":"２號","E_COORD97":167139.19,"N_COORD97":2544549.5800000001,"ADDRESS":"和善街２號","OBJECTID":496052},"geometry":{"x":167139.19000000041,"y":2544549.5800000019}},{"attributes":{"ID":496080,"DIS_CODE":0,"TOWNNAME":"中西區","LI":"協和里","LIN":"7鄰","STREET":"和善街","SECT":" ","MAREA":" ","LANE":" ","ALLEY":" ","HOUSE_NO":"６號","E_COORD97":167132.38,"N_COORD97":2544557.5099999998,"ADDRESS":"和善街６號","OBJECTID":496053},"geometry":{"x":167132.37999999896,"y":2544557.5100000016}},{"attributes":{"ID":496081,"DIS_CODE":0,"TOWNNAME":"中西區","LI":"協和里","LIN":"7鄰","STREET":"臨安路","SECT":"一段","MAREA":" ","LANE":" ","ALLEY":" ","HOUSE_NO":"１４７號","E_COORD97":167144.72,"N_COORD97":2544543.1499999999,"ADDRESS":"臨安路一段１４７號","OBJECTID":496054},"geometry":{"x":167144.71999999974,"y":2544543.1500000022}},{"attributes":{"ID":496082,"DIS_CODE":0,"TOWNNAME":"中西區","LI":"協和里","LIN":"7鄰","STREET":"臨安路","SECT":"一段","MAREA":" ","LANE":" ","ALLEY":" ","HOUSE_NO":"１４９號","E_COORD97":167148.73999999999,"N_COORD97":2544545.8199999998,"ADDRESS":"臨安路一段１４９號","OBJECTID":496055},"geometry":{"x":167148.74000000022,"y":2544545.8200000022}},{"attributes":{"ID":496083,"DIS_CODE":0,"TOWNNAME":"中西區","LI":"協和里","LIN":"7鄰","STREET":"臨安路","SECT":"一段","MAREA":" ","LANE":" ","ALLEY":" ","HOUSE_NO":"１５１號","E_COORD97":167153.23999999999,"N_COORD97":2544552.3799999999,"ADDRESS":"臨安路一段１５１號","OBJECTID":496056},"geometry":{"x":167153.24000000115,"y":2544552.379999999}},{"attributes":{"ID":496084,"DIS_CODE":0,"TOWNNAME":"中西區","LI":"協和里","LIN":"7鄰","STREET":"臨安路","SECT":"一段","MAREA":" ","LANE":" ","ALLEY":" ","HOUSE_NO":"１５５號","E_COORD97":167160.54000000001,"N_COORD97":2544558.2400000002,"ADDRESS":"臨安路一段１５５號","OBJECTID":496057},"geometry":{"x":167160.54000000097,"y":2544558.2400000002}},{"attributes":{"ID":496085,"DIS_CODE":0,"TOWNNAME":"中西區","LI":"協和里","LIN":"7鄰","STREET":"臨安路","SECT":"一段","MAREA":" ","LANE":" ","ALLEY":" ","HOUSE_NO":"１５７號","E_COORD97":167165.39999999999,"N_COORD97":2544562.7400000002,"ADDRESS":"臨安路一段１５７號","OBJECTID":496058},"geometry":{"x":167165.4000000013,"y":2544562.7400000021}},{"attributes":{"ID":496086,"DIS_CODE":0,"TOWNNAME":"中西區","LI":"協和里","LIN":"7鄰","STREET":"臨安路","SECT":"一段","MAREA":" ","LANE":" ","ALLEY":" ","HOUSE_NO":"１５９號","E_COORD97":167168.69,"N_COORD97":2544565.8900000001,"ADDRESS":"臨安路一段１５９號","OBJECTID":496059},"geometry":{"x":167168.69000000134,"y":2544565.8900000025}},{"attributes":{"ID":496087,"DIS_CODE":0,"TOWNNAME":"中西區","LI":"協和里","LIN":"7鄰","STREET":"臨安路","SECT":"一段","MAREA":" ","LANE":" ","ALLEY":" ","HOUSE_NO":"１６１號","E_COORD97":167172.97,"N_COORD97":2544568.6200000001,"ADDRESS":"臨安路一段１６１號","OBJECTID":496060},"geometry":{"x":167172.97000000067,"y":2544568.6200000029}},{"attributes":{"ID":496088,"DIS_CODE":0,"TOWNNAME":"佳里區","LI":"鎮山里","LIN":"7鄰","STREET":"中興街","SECT":" ","MAREA":" ","LANE":" ","ALLEY":" ","HOUSE_NO":"２７７號","E_COORD97":166133.76000000001,"N_COORD97":2561697.4500000002,"ADDRESS":"中興街２７７號","OBJECTID":496061},"geometry":{"x":166133.76000000071,"y":2561697.4499999993}},{"attributes":{"ID":496089,"DIS_CODE":0,"TOWNNAME":"佳里區","LI":"鎮山里","LIN":"7鄰","STREET":"中興街","SECT":" ","MAREA":" ","LANE":" ","ALLEY":" ","HOUSE_NO":"２８９號","E_COORD97":166136.48999999999,"N_COORD97":2561711.1000000001,"ADDRESS":"中興街２８９號","OBJECTID":496062},"geometry":{"x":166136.49000000022,"y":2561711.1000000015}},{"attributes":{"ID":496090,"DIS_CODE":0,"TOWNNAME":"佳里區","LI":"鎮山里","LIN":"7鄰","STREET":"中興街","SECT":" ","MAREA":" ","LANE":" ","ALLEY":" ","HOUSE_NO":"３７０號","E_COORD97":166165.82000000001,"N_COORD97":2561673,"ADDRESS":"中興街３７０號","OBJECTID":496063},"geometry":{"x":166165.82000000123,"y":2561673}},{"attributes":{"ID":496091,"DIS_CODE":0,"TOWNNAME":"佳里區","LI":"鎮山里","LIN":"7鄰","STREET":"中興街","SECT":" ","MAREA":" ","LANE":" ","ALLEY":" ","HOUSE_NO":"３８２號","E_COORD97":166161.73000000001,"N_COORD97":2561693.8300000001,"ADDRESS":"中興街３８２號","OBJECTID":496064},"geometry":{"x":166161.73000000138,"y":2561693.8300000019}},{"attributes":{"ID":496092,"DIS_CODE":0,"TOWNNAME":"佳里區","LI":"鎮山里","LIN":"7鄰","STREET":"中興街","SECT":" ","MAREA":" ","LANE":" ","ALLEY":" ","HOUSE_NO":"３８６號","E_COORD97":166160.95000000001,"N_COORD97":2561697.8500000001,"ADDRESS":"中興街３８６號","OBJECTID":496065},"geometry":{"x":166160.95000000205,"y":2561697.8499999996}},{"attributes":{"ID":496093,"DIS_CODE":0,"TOWNNAME":"佳里區","LI":"鎮山里","LIN":"7鄰","STREET":"中興街","SECT":" ","MAREA":" ","LANE":" ","ALLEY":" ","HOUSE_NO":"３８８號","E_COORD97":166159.92999999999,"N_COORD97":2561702.4199999999,"ADDRESS":"中興街３８８號","OBJECTID":496066},"geometry":{"x":166159.9299999997,"y":2561702.4200000018}},{"attributes":{"ID":496094,"DIS_CODE":0,"TOWNNAME":"佳里區","LI":"鎮山里","LIN":"7鄰","STREET":"中興街","SECT":" ","MAREA":" ","LANE":" ","ALLEY":" ","HOUSE_NO":"３９０號","E_COORD97":166159.34,"N_COORD97":2561706.7999999998,"ADDRESS":"中興街３９０號","OBJECTID":496067},"geometry":{"x":166159.33999999985,"y":2561706.8000000007}},{"attributes":{"ID":496095,"DIS_CODE":0,"TOWNNAME":"新化區","LI":"協興里","LIN":"7鄰","STREET":"太平街","SECT":" ","MAREA":" ","LANE":" ","ALLEY":" ","HOUSE_NO":"１４３號","E_COORD97":178285.82000000001,"N_COORD97":2548637.25,"ADDRESS":"太平街１４３號","OBJECTID":496068},"geometry":{"x":178285.8200000003,"y":2548637.2500000019}},{"attributes":{"ID":496096,"DIS_CODE":0,"TOWNNAME":"新化區","LI":"護國里","LIN":"7鄰","STREET":"民生路","SECT":" ","MAREA":" ","LANE":" ","ALLEY":" ","HOUSE_NO":"８５號之３","E_COORD97":179344.10999999999,"N_COORD97":2548560.2599999998,"ADDRESS":"民生路８５號之３","OBJECTID":496069},"geometry":{"x":179344.11000000127,"y":2548560.2600000016}},{"attributes":{"ID":496097,"DIS_CODE":0,"TOWNNAME":"北區","LI":"成功里","LIN":"20鄰","STREET":"中華北路","SECT":"二段","MAREA":" ","LANE":" ","ALLEY":" ","HOUSE_NO":"２８５號","E_COORD97":168913.10000000001,"N_COORD97":2546954.79,"ADDRESS":"中華北路二段２８５號","OBJECTID":496070},"geometry":{"x":168913.10000000056,"y":2546954.790000001}},{"attributes":{"ID":496098,"DIS_CODE":0,"TOWNNAME":"北區","LI":"成德里","LIN":"24鄰","STREET":"文成二路","SECT":" ","MAREA":" ","LANE":" ","ALLEY":" ","HOUSE_NO":"３８０號","E_COORD97":168097.78,"N_COORD97":2546170.6299999999,"ADDRESS":"文成二路３８０號","OBJECTID":496071},"geometry":{"x":168097.78000000026,"y":2546170.629999999}},{"attributes":{"ID":496099,"DIS_CODE":0,"TOWNNAME":"新化區","LI":"護國里","LIN":"7鄰","STREET":"中山路","SECT":" ","MAREA":" ","LANE":" ","ALLEY":" ","HOUSE_NO":"２０３號","E_COORD97":179285.91,"N_COORD97":2548495.25,"ADDRESS":"中山路２０３號","OBJECTID":496072},"geometry":{"x":179285.91000000108,"y":2548495.2500000019}},{"attributes":{"ID":496100,"DIS_CODE":0,"TOWNNAME":"新化區","LI":"護國里","LIN":"7鄰","STREET":"民生路","SECT":" ","MAREA":" ","LANE":" ","ALLEY":" ","HOUSE_NO":"８３號","E_COORD97":179358.06,"N_COORD97":2548542.25,"ADDRESS":"民生路８３號","OBJECTID":496073},"geometry":{"x":179358.05999999959,"y":2548542.2500000019}},{"attributes":{"ID":496101,"DIS_CODE":0,"TOWNNAME":"新化區","LI":"豐榮里","LIN":"7鄰","STREET":"大智路","SECT":" ","MAREA":" ","LANE":" ","ALLEY":" ","HOUSE_NO":"３０７號","E_COORD97":177933.63,"N_COORD97":2547863.25,"ADDRESS":"大智路３０７號","OBJECTID":496074},"geometry":{"x":177933.62999999989,"y":2547863.25}},{"attributes":{"ID":496102,"DIS_CODE":0,"TOWNNAME":"新化區","LI":"豐榮里","LIN":"7鄰","STREET":"大智路","SECT":" ","MAREA":" ","LANE":" ","ALLEY":" ","HOUSE_NO":"２４０號","E_COORD97":177905.73000000001,"N_COORD97":2547997.25,"ADDRESS":"大智路２４０號","OBJECTID":496075},"geometry":{"x":177905.73000000138,"y":2547997.2500000019}},{"attributes":{"ID":496103,"DIS_CODE":0,"TOWNNAME":"北區","LI":"力行里","LIN":"15鄰","STREET":"力行街","SECT":" ","MAREA":" ","LANE":" ","ALLEY":" ","HOUSE_NO":"１號","E_COORD97":170847.16,"N_COORD97":2545369.98,"ADDRESS":"力行街１號","OBJECTID":496076},"geometry":{"x":170847.16000000108,"y":2545369.9800000004}},{"attributes":{"ID":496104,"DIS_CODE":0,"TOWNNAME":"新化區","LI":"武安里","LIN":"7鄰","STREET":"和平街","SECT":" ","MAREA":" ","LANE":" ","ALLEY":" ","HOUSE_NO":"１１７號","E_COORD97":178950.32000000001,"N_COORD97":2548136.25,"ADDRESS":"和平街１１７號","OBJECTID":496077},"geometry":{"x":178950.3200000003,"y":2548136.2500000019}},{"attributes":{"ID":496105,"DIS_CODE":0,"TOWNNAME":"新化區","LI":"護國里","LIN":"7鄰","STREET":"中山路","SECT":" ","MAREA":" ","LANE":" ","ALLEY":" ","HOUSE_NO":"１９５號","E_COORD97":179289.10999999999,"N_COORD97":2548509.25,"ADDRESS":"中山路１９５號","OBJECTID":496078},"geometry":{"x":179289.11000000034,"y":2548509.2500000019}},{"attributes":{"ID":496106,"DIS_CODE":0,"TOWNNAME":"新化區","LI":"協興里","LIN":"7鄰","STREET":"太平街","SECT":" ","MAREA":" ","LANE":" ","ALLEY":" ","HOUSE_NO":"１４９號","E_COORD97":178272.22,"N_COORD97":2548644.25,"ADDRESS":"太平街１４９號","OBJECTID":496079},"geometry":{"x":178272.21999999974,"y":2548644.2500000019}},{"attributes":{"ID":496107,"DIS_CODE":0,"TOWNNAME":"安南區","LI":"淵東里","LIN":"7鄰","STREET":"本原街","SECT":"三段","MAREA":" ","LANE":" ","ALLEY":" ","HOUSE_NO":"２３３號","E_COORD97":165386.60999999999,"N_COORD97":2550290.5099999998,"ADDRESS":"本原街三段２３３號","OBJECTID":496080},"geometry":{"x":165386.61000000034,"y":2550290.5100000016}},{"attributes":{"ID":496108,"DIS_CODE":0,"TOWNNAME":"安南區","LI":"淵東里","LIN":"7鄰","STREET":"本原街","SECT":"三段","MAREA":" ","LANE":" ","ALLEY":" ","HOUSE_NO":"２３５號","E_COORD97":165381.91,"N_COORD97":2550287.9900000002,"ADDRESS":"本原街三段２３５號","OBJECTID":496081},"geometry":{"x":165381.91000000108,"y":2550287.9900000021}},{"attributes":{"ID":496109,"DIS_CODE":0,"TOWNNAME":"安南區","LI":"溪心里","LIN":"7鄰","STREET":"本原街","SECT":"二段","MAREA":" ","LANE":" ","ALLEY":" ","HOUSE_NO":"３０３號","E_COORD97":166402.63,"N_COORD97":2550638.54,"ADDRESS":"本原街二段３０３號","OBJECTID":496082},"geometry":{"x":166402.63000000082,"y":2550638.540000001}},{"attributes":{"ID":496110,"DIS_CODE":0,"TOWNNAME":"安南區","LI":"頂安里","LIN":"7鄰","STREET":"頂安街","SECT":" ","MAREA":" ","LANE":" ","ALLEY":" ","HOUSE_NO":"５１０號之１","E_COORD97":168719.76000000001,"N_COORD97":2549308.9100000001,"ADDRESS":"頂安街５１０號之１","OBJECTID":496083},"geometry":{"x":168719.75999999885,"y":2549308.910000002}},{"attributes":{"ID":496111,"DIS_CODE":0,"TOWNNAME":"安南區","LI":"公親里","LIN":"7鄰","STREET":"公學路","SECT":"一段","MAREA":" ","LANE":" ","ALLEY":" ","HOUSE_NO":"８５號","E_COORD97":168410.41,"N_COORD97":2553023.71,"ADDRESS":"公學路一段８５號","OBJECTID":496084},"geometry":{"x":168410.41000000015,"y":2553023.7100000009}},{"attributes":{"ID":496112,"DIS_CODE":0,"TOWNNAME":"安南區","LI":"公親里","LIN":"7鄰","STREET":"公學路","SECT":"一段","MAREA":" ","LANE":" ","ALLEY":" ","HOUSE_NO":"９６號","E_COORD97":168380.57999999999,"N_COORD97":2553052.8500000001,"ADDRESS":"公學路一段９６號","OBJECTID":496085},"geometry":{"x":168380.57999999914,"y":2553052.8499999996}},{"attributes":{"ID":496113,"DIS_CODE":0,"TOWNNAME":"永康區","LI":"南灣里","LIN":"7鄰","STREET":"大灣路","SECT":" ","MAREA":" ","LANE":" ","ALLEY":" ","HOUSE_NO":"５７５號","E_COORD97":174359.25,"N_COORD97":2544545.25,"ADDRESS":"大灣路５７５號","OBJECTID":496086},"geometry":{"x":174359.25,"y":2544545.2500000019}},{"attributes":{"ID":496114,"DIS_CODE":0,"TOWNNAME":"永康區","LI":"復國里","LIN":"7鄰","STREET":"復國一路","SECT":" ","MAREA":" ","LANE":" ","ALLEY":" ","HOUSE_NO":"２７０號","E_COORD97":172747.60999999999,"N_COORD97":2545393.8799999999,"ADDRESS":"復國一路２７０號","OBJECTID":496087},"geometry":{"x":172747.6100000022,"y":2545393.8800000027}},{"attributes":{"ID":496115,"DIS_CODE":0,"TOWNNAME":"永康區","LI":"南灣里","LIN":"7鄰","STREET":"南興路","SECT":" ","MAREA":" ","LANE":" ","ALLEY":" ","HOUSE_NO":"１３８號","E_COORD97":174313.03,"N_COORD97":2544517.6699999999,"ADDRESS":"南興路１３８號","OBJECTID":496088},"geometry":{"x":174313.03000000119,"y":2544517.6699999999}},{"attributes":{"ID":496116,"DIS_CODE":0,"TOWNNAME":"永康區","LI":"北灣里","LIN":"7鄰","STREET":"信義街","SECT":" ","MAREA":" ","LANE":" ","ALLEY":" ","HOUSE_NO":"１３９號","E_COORD97":175117.72,"N_COORD97":2545616.0499999998,"ADDRESS":"信義街１３９號","OBJECTID":496089},"geometry":{"x":175117.7200000016,"y":2545616.0500000026}},{"attributes":{"ID":496117,"DIS_CODE":0,"TOWNNAME":"永康區","LI":"南灣里","LIN":"7鄰","STREET":"南興路","SECT":" ","MAREA":" ","LANE":" ","ALLEY":" ","HOUSE_NO":"１１０號","E_COORD97":174301.06,"N_COORD97":2544442.0899999999,"ADDRESS":"南興路１１０號","OBJECTID":496090},"geometry":{"x":174301.05999999959,"y":2544442.0900000017}},{"attributes":{"ID":496118,"DIS_CODE":0,"TOWNNAME":"永康區","LI":"東灣里","LIN":"7鄰","STREET":"大灣路","SECT":" ","MAREA":" ","LANE":" ","ALLEY":" ","HOUSE_NO":"４１４號","E_COORD97":174787.51999999999,"N_COORD97":2545019.2799999998,"ADDRESS":"大灣路４１４號","OBJECTID":496091},"geometry":{"x":174787.51999999955,"y":2545019.2800000012}},{"attributes":{"ID":496119,"DIS_CODE":0,"TOWNNAME":"永康區","LI":"永康里","LIN":"7鄰","STREET":"永中街","SECT":" ","MAREA":" ","LANE":" ","ALLEY":" ","HOUSE_NO":"６３號","E_COORD97":173934.17000000001,"N_COORD97":2547227.7400000002,"ADDRESS":"永中街６３號","OBJECTID":496092},"geometry":{"x":173934.17000000086,"y":2547227.7400000021}},{"attributes":{"ID":496120,"DIS_CODE":0,"TOWNNAME":"永康區","LI":"尚頂里","LIN":"7鄰","STREET":"尚頂路","SECT":" ","MAREA":" ","LANE":" ","ALLEY":" ","HOUSE_NO":"１１２號","E_COORD97":171001.54999999999,"N_COORD97":2547687.0099999998,"ADDRESS":"尚頂路１１２號","OBJECTID":496093},"geometry":{"x":171001.55000000075,"y":2547687.0100000016}},{"attributes":{"ID":496121,"DIS_CODE":0,"TOWNNAME":"永康區","LI":"尚頂里","LIN":"7鄰","STREET":"尚頂路","SECT":" ","MAREA":" ","LANE":" ","ALLEY":" ","HOUSE_NO":"９９號","E_COORD97":170980.73999999999,"N_COORD97":2547670.2799999998,"ADDRESS":"尚頂路９９號","OBJECTID":496094},"geometry":{"x":170980.74000000115,"y":2547670.2800000012}},{"attributes":{"ID":496122,"DIS_CODE":0,"TOWNNAME":"東區","LI":"大同里","LIN":"7鄰","STREET":"大同路","SECT":"一段","MAREA":" ","LANE":" ","ALLEY":" ","HOUSE_NO":"１０７號","E_COORD97":169155.62,"N_COORD97":2542988.9300000002,"ADDRESS":"大同路一段１０７號","OBJECTID":496095},"geometry":{"x":169155.62000000104,"y":2542988.9299999997}},{"attributes":{"ID":496123,"DIS_CODE":0,"TOWNNAME":"中西區","LI":"銀同里","LIN":"7鄰","STREET":"府中街","SECT":" ","MAREA":" ","LANE":" ","ALLEY":" ","HOUSE_NO":"２６號","E_COORD97":168786.51999999999,"N_COORD97":2543509.4500000002,"ADDRESS":"府中街２６號","OBJECTID":496096},"geometry":{"x":168786.51999999955,"y":2543509.4500000011}},{"attributes":{"ID":496124,"DIS_CODE":0,"TOWNNAME":"中西區","LI":"銀同里","LIN":"7鄰","STREET":"府中街","SECT":" ","MAREA":" ","LANE":" ","ALLEY":" ","HOUSE_NO":"２８號","E_COORD97":168779.06,"N_COORD97":2543504.71,"ADDRESS":"府中街２８號","OBJECTID":496097},"geometry":{"x":168779.06000000052,"y":2543504.7100000009}},{"attributes":{"ID":496125,"DIS_CODE":0,"TOWNNAME":"中西區","LI":"銀同里","LIN":"7鄰","STREET":"府中街","SECT":" ","MAREA":" ","LANE":" ","ALLEY":" ","HOUSE_NO":"３０號","E_COORD97":168771.16,"N_COORD97":2543501.4100000001,"ADDRESS":"府中街３０號","OBJECTID":496098},"geometry":{"x":168771.16000000015,"y":2543501.4100000001}},{"attributes":{"ID":496126,"DIS_CODE":0,"TOWNNAME":"中西區","LI":"銀同里","LIN":"7鄰","STREET":"府中街","SECT":" ","MAREA":" ","LANE":" ","ALLEY":" ","HOUSE_NO":"３２號","E_COORD97":168767.28,"N_COORD97":2543499.4100000001,"ADDRESS":"府中街３２號","OBJECTID":496099},"geometry":{"x":168767.28000000026,"y":2543499.4100000039}},{"attributes":{"ID":496127,"DIS_CODE":0,"TOWNNAME":"中西區","LI":"銀同里","LIN":"7鄰","STREET":"府中街","SECT":" ","MAREA":" ","LANE":" ","ALLEY":" ","HOUSE_NO":"３４號","E_COORD97":168760.39999999999,"N_COORD97":2543493.4300000002,"ADDRESS":"府中街３４號","OBJECTID":496100},"geometry":{"x":168760.4000000013,"y":2543493.4300000016}},{"attributes":{"ID":496128,"DIS_CODE":0,"TOWNNAME":"中西區","LI":"銀同里","LIN":"7鄰","STREET":"府中街","SECT":" ","MAREA":" ","LANE":" ","ALLEY":" ","HOUSE_NO":"３６號","E_COORD97":168755.91,"N_COORD97":2543489.6200000001,"ADDRESS":"府中街３６號","OBJECTID":496101},"geometry":{"x":168755.91000000015,"y":2543489.6200000029}},{"attributes":{"ID":496129,"DIS_CODE":0,"TOWNNAME":"中西區","LI":"銀同里","LIN":"7鄰","STREET":"府中街","SECT":" ","MAREA":" ","LANE":" ","ALLEY":" ","HOUSE_NO":"３８號","E_COORD97":168748.10999999999,"N_COORD97":2543482.4100000001,"ADDRESS":"府中街３８號","OBJECTID":496102},"geometry":{"x":168748.11000000034,"y":2543482.4099999983}},{"attributes":{"ID":496130,"DIS_CODE":0,"TOWNNAME":"中西區","LI":"銀同里","LIN":"7鄰","STREET":"府中街","SECT":" ","MAREA":" ","LANE":" ","ALLEY":" ","HOUSE_NO":"４０號","E_COORD97":168743.48000000001,"N_COORD97":2543479.54,"ADDRESS":"府中街４０號","OBJECTID":496103},"geometry":{"x":168743.48000000138,"y":2543479.5399999991}},{"attributes":{"ID":496131,"DIS_CODE":0,"TOWNNAME":"中西區","LI":"赤嵌里","LIN":"7鄰","STREET":"公園路","SECT":" ","MAREA":" ","LANE":" ","ALLEY":" ","HOUSE_NO":"６２號","E_COORD97":168599.28,"N_COORD97":2544039.52,"ADDRESS":"公園路６２號","OBJECTID":496104},"geometry":{"x":168599.28000000026,"y":2544039.5199999996}},{"attributes":{"ID":496132,"DIS_CODE":0,"TOWNNAME":"中西區","LI":"赤嵌里","LIN":"7鄰","STREET":"公園路","SECT":" ","MAREA":" ","LANE":" ","ALLEY":" ","HOUSE_NO":"６４號","E_COORD97":168602.92000000001,"N_COORD97":2544044.1400000001,"ADDRESS":"公園路６４號","OBJECTID":496105},"geometry":{"x":168602.91999999993,"y":2544044.1400000043}},{"attributes":{"ID":496133,"DIS_CODE":0,"TOWNNAME":"中西區","LI":"赤嵌里","LIN":"7鄰","STREET":"公園路","SECT":" ","MAREA":" ","LANE":" ","ALLEY":" ","HOUSE_NO":"６６號","E_COORD97":168605.23000000001,"N_COORD97":2544049.4199999999,"ADDRESS":"公園路６６號","OBJECTID":496106},"geometry":{"x":168605.23000000045,"y":2544049.4200000018}},{"attributes":{"ID":496134,"DIS_CODE":0,"TOWNNAME":"中西區","LI":"赤嵌里","LIN":"7鄰","STREET":"公園路","SECT":" ","MAREA":" ","LANE":" ","ALLEY":" ","HOUSE_NO":"６８號","E_COORD97":168607.87,"N_COORD97":2544056.6800000002,"ADDRESS":"公園路６８號","OBJECTID":496107},"geometry":{"x":168607.87000000104,"y":2544056.6800000034}},{"attributes":{"ID":496135,"DIS_CODE":0,"TOWNNAME":"中西區","LI":"赤嵌里","LIN":"7鄰","STREET":"公園路","SECT":" ","MAREA":" ","LANE":" ","ALLEY":" ","HOUSE_NO":"７０號","E_COORD97":168610.85000000001,"N_COORD97":2544060.3100000001,"ADDRESS":"公園路７０號","OBJECTID":496108},"geometry":{"x":168610.85000000056,"y":2544060.3100000024}},{"attributes":{"ID":496136,"DIS_CODE":0,"TOWNNAME":"中西區","LI":"赤嵌里","LIN":"7鄰","STREET":"公園路","SECT":" ","MAREA":" ","LANE":" ","ALLEY":" ","HOUSE_NO":"７２號","E_COORD97":168612.5,"N_COORD97":2544064.6000000001,"ADDRESS":"公園路７２號","OBJECTID":496109},"geometry":{"x":168612.50000000093,"y":2544064.6000000015}},{"attributes":{"ID":496137,"DIS_CODE":0,"TOWNNAME":"中西區","LI":"赤嵌里","LIN":"7鄰","STREET":"公園路","SECT":" ","MAREA":" ","LANE":" ","ALLEY":" ","HOUSE_NO":"７４號","E_COORD97":168614.48000000001,"N_COORD97":2544068.23,"ADDRESS":"公園路７４號","OBJECTID":496110},"geometry":{"x":168614.48000000138,"y":2544068.2300000023}},{"attributes":{"ID":496138,"DIS_CODE":0,"TOWNNAME":"中西區","LI":"赤嵌里","LIN":"7鄰","STREET":"公園路","SECT":" ","MAREA":" ","LANE":" ","ALLEY":" ","HOUSE_NO":"７６號","E_COORD97":168615.48000000001,"N_COORD97":2544072.1899999999,"ADDRESS":"公園路７６號","OBJECTID":496111},"geometry":{"x":168615.48000000045,"y":2544072.1899999995}},{"attributes":{"ID":496139,"DIS_CODE":0,"TOWNNAME":"中西區","LI":"赤嵌里","LIN":"7鄰","STREET":"公園路","SECT":" ","MAREA":" ","LANE":" ","ALLEY":" ","HOUSE_NO":"７８號","E_COORD97":168615.81,"N_COORD97":2544073.8399999999,"ADDRESS":"公園路７８號","OBJECTID":496112},"geometry":{"x":168615.80999999866,"y":2544073.8400000017}},{"attributes":{"ID":496140,"DIS_CODE":0,"TOWNNAME":"中西區","LI":"赤嵌里","LIN":"7鄰","STREET":"公園路","SECT":" ","MAREA":" ","LANE":" ","ALLEY":" ","HOUSE_NO":"８０號","E_COORD97":168618.78,"N_COORD97":2544076.48,"ADDRESS":"公園路８０號","OBJECTID":496113},"geometry":{"x":168618.78000000119,"y":2544076.4800000023}},{"attributes":{"ID":496141,"DIS_CODE":0,"TOWNNAME":"中西區","LI":"赤嵌里","LIN":"7鄰","STREET":"公園路","SECT":" ","MAREA":" ","LANE":" ","ALLEY":" ","HOUSE_NO":"８２號","E_COORD97":168623.07999999999,"N_COORD97":2544085.73,"ADDRESS":"公園路８２號","OBJECTID":496114},"geometry":{"x":168623.08000000194,"y":2544085.7300000023}},{"attributes":{"ID":496142,"DIS_CODE":0,"TOWNNAME":"中西區","LI":"赤嵌里","LIN":"7鄰","STREET":"公園路","SECT":" ","MAREA":" ","LANE":" ","ALLEY":" ","HOUSE_NO":"８６號","E_COORD97":168624.39999999999,"N_COORD97":2544095.2999999998,"ADDRESS":"公園路８６號","OBJECTID":496115},"geometry":{"x":168624.40000000037,"y":2544095.3000000026}},{"attributes":{"ID":496143,"DIS_CODE":0,"TOWNNAME":"中西區","LI":"赤嵌里","LIN":"7鄰","STREET":"公園路","SECT":" ","MAREA":" ","LANE":" ","ALLEY":" ","HOUSE_NO":"８８號","E_COORD97":168628.03,"N_COORD97":2544105.5299999998,"ADDRESS":"公園路８８號","OBJECTID":496116},"geometry":{"x":168628.03000000026,"y":2544105.5300000012}},{"attributes":{"ID":496144,"DIS_CODE":0,"TOWNNAME":"中西區","LI":"赤嵌里","LIN":"7鄰","STREET":"慈音街","SECT":" ","MAREA":" ","LANE":" ","ALLEY":" ","HOUSE_NO":"９號","E_COORD97":168652.48999999999,"N_COORD97":2544111.4700000002,"ADDRESS":"慈音街９號","OBJECTID":496117},"geometry":{"x":168652.49000000022,"y":2544111.4700000025}},{"attributes":{"ID":496145,"DIS_CODE":0,"TOWNNAME":"中西區","LI":"赤嵌里","LIN":"7鄰","STREET":"民族路","SECT":"二段","MAREA":" ","LANE":" ","ALLEY":" ","HOUSE_NO":"１００號","E_COORD97":168625.72,"N_COORD97":2544029.6099999999,"ADDRESS":"民族路二段１００號","OBJECTID":496118},"geometry":{"x":168625.72000000067,"y":2544029.6100000031}},{"attributes":{"ID":496146,"DIS_CODE":0,"TOWNNAME":"中西區","LI":"赤嵌里","LIN":"7鄰","STREET":"廣慈街","SECT":" ","MAREA":" ","LANE":" ","ALLEY":" ","HOUSE_NO":"１１號","E_COORD97":168647.85999999999,"N_COORD97":2544047.77,"ADDRESS":"廣慈街１１號","OBJECTID":496119},"geometry":{"x":168647.86000000034,"y":2544047.7699999996}},{"attributes":{"ID":496147,"DIS_CODE":0,"TOWNNAME":"中西區","LI":"赤嵌里","LIN":"7鄰","STREET":"廣慈街","SECT":" ","MAREA":" ","LANE":" ","ALLEY":" ","HOUSE_NO":"１１號地下一層","E_COORD97":168647.85999999999,"N_COORD97":2544047.77,"ADDRESS":"廣慈街１１號地下一層","OBJECTID":496120},"geometry":{"x":168647.86000000034,"y":2544047.7699999996}},{"attributes":{"ID":496148,"DIS_CODE":0,"TOWNNAME":"中西區","LI":"赤嵌里","LIN":"7鄰","STREET":"廣慈街","SECT":" ","MAREA":" ","LANE":" ","ALLEY":" ","HOUSE_NO":"１５號","E_COORD97":168662.41,"N_COORD97":2544077.1400000001,"ADDRESS":"廣慈街１５號","OBJECTID":496121},"geometry":{"x":168662.41000000108,"y":2544077.1400000006}},{"attributes":{"ID":496149,"DIS_CODE":0,"TOWNNAME":"中西區","LI":"赤嵌里","LIN":"7鄰","STREET":"廣慈街","SECT":" ","MAREA":" ","LANE":" ","ALLEY":" ","HOUSE_NO":"１７號","E_COORD97":168668.03,"N_COORD97":2544084.0800000001,"ADDRESS":"廣慈街１７號","OBJECTID":496122},"geometry":{"x":168668.03000000119,"y":2544084.0800000001}},{"attributes":{"ID":496150,"DIS_CODE":0,"TOWNNAME":"仁德區","LI":"後壁里","LIN":"7鄰","STREET":"德善一街","SECT":" ","MAREA":" ","LANE":" ","ALLEY":" ","HOUSE_NO":"６０號之１","E_COORD97":173539.44,"N_COORD97":2539065.2999999998,"ADDRESS":"德善一街６０號之１","OBJECTID":496123},"geometry":{"x":173539.44000000134,"y":2539065.3000000007}},{"attributes":{"ID":496151,"DIS_CODE":0,"TOWNNAME":"仁德區","LI":"新田里","LIN":"7鄰","STREET":"新田一街","SECT":" ","MAREA":" ","LANE":" ","ALLEY":" ","HOUSE_NO":"２３２號","E_COORD97":174387.95000000001,"N_COORD97":2538928.9900000002,"ADDRESS":"新田一街２３２號","OBJECTID":496124},"geometry":{"x":174387.95000000112,"y":2538928.9900000039}},{"attributes":{"ID":496152,"DIS_CODE":0,"TOWNNAME":"仁德區","LI":"新田里","LIN":"7鄰","STREET":"新田路","SECT":" ","MAREA":" ","LANE":" ","ALLEY":" ","HOUSE_NO":"３０號","E_COORD97":174491.76999999999,"N_COORD97":2538939.2400000002,"ADDRESS":"新田路３０號","OBJECTID":496125},"geometry":{"x":174491.77000000142,"y":2538939.2400000002}},{"attributes":{"ID":496153,"DIS_CODE":0,"TOWNNAME":"仁德區","LI":"新田里","LIN":"7鄰","STREET":"新田一街","SECT":" ","MAREA":" ","LANE":" ","ALLEY":" ","HOUSE_NO":"２３０號","E_COORD97":174390.48000000001,"N_COORD97":2538890.5,"ADDRESS":"新田一街２３０號","OBJECTID":496126},"geometry":{"x":174390.48000000045,"y":2538890.5}},{"attributes":{"ID":496154,"DIS_CODE":0,"TOWNNAME":"仁德區","LI":"田厝里","LIN":"7鄰","STREET":"中正路","SECT":"一段","MAREA":" ","LANE":" ","ALLEY":" ","HOUSE_NO":"６１１號","E_COORD97":172947.29999999999,"N_COORD97":2537874.9900000002,"ADDRESS":"中正路一段６１１號","OBJECTID":496127},"geometry":{"x":172947.29999999888,"y":2537874.9900000021}},{"attributes":{"ID":496155,"DIS_CODE":0,"TOWNNAME":"下營區","LI":"後街里","LIN":"7鄰","STREET":"人和三街","SECT":" ","MAREA":" ","LANE":" ","ALLEY":" ","HOUSE_NO":"８號","E_COORD97":174388.84,"N_COORD97":2570764.6600000001,"ADDRESS":"人和三街８號","OBJECTID":496128},"geometry":{"x":174388.84000000078,"y":2570764.660000002}},{"attributes":{"ID":496156,"DIS_CODE":0,"TOWNNAME":"仁德區","LI":"上崙里","LIN":"7鄰","STREET":"德善路","SECT":" ","MAREA":" ","LANE":" ","ALLEY":" ","HOUSE_NO":"３５２之１號","E_COORD97":174025.42999999999,"N_COORD97":2538251.2999999998,"ADDRESS":"德善路３５２之１號","OBJECTID":496129},"geometry":{"x":174025.4299999997,"y":2538251.3000000007}},{"attributes":{"ID":496157,"DIS_CODE":0,"TOWNNAME":"下營區","LI":"仁里里","LIN":"7鄰","STREET":"九分街","SECT":" ","MAREA":" ","LANE":" ","ALLEY":" ","HOUSE_NO":"１１號","E_COORD97":174167.84,"N_COORD97":2570228.9300000002,"ADDRESS":"九分街１１號","OBJECTID":496130},"geometry":{"x":174167.84000000171,"y":2570228.9300000016}},{"attributes":{"ID":496158,"DIS_CODE":0,"TOWNNAME":"下營區","LI":"仁里里","LIN":"7鄰","STREET":"九分街","SECT":" ","MAREA":" ","LANE":" ","ALLEY":" ","HOUSE_NO":"２７號","E_COORD97":174154.89000000001,"N_COORD97":2570193.0699999998,"ADDRESS":"九分街２７號","OBJECTID":496131},"geometry":{"x":174154.88999999966,"y":2570193.0700000003}},{"attributes":{"ID":496159,"DIS_CODE":0,"TOWNNAME":"下營區","LI":"仁里里","LIN":"7鄰","STREET":"九分街","SECT":" ","MAREA":" ","LANE":" ","ALLEY":" ","HOUSE_NO":"２９號","E_COORD97":174153.54999999999,"N_COORD97":2570188.5,"ADDRESS":"九分街２９號","OBJECTID":496132},"geometry":{"x":174153.55000000075,"y":2570188.5000000019}},{"attributes":{"ID":496160,"DIS_CODE":0,"TOWNNAME":"下營區","LI":"仁里里","LIN":"7鄰","STREET":"九分街","SECT":" ","MAREA":" ","LANE":" ","ALLEY":" ","HOUSE_NO":"３１號","E_COORD97":174159.72,"N_COORD97":2570173.5,"ADDRESS":"九分街３１號","OBJECTID":496133},"geometry":{"x":174159.71999999974,"y":2570173.5}},{"attributes":{"ID":496161,"DIS_CODE":0,"TOWNNAME":"下營區","LI":"仁里里","LIN":"7鄰","STREET":"九分街","SECT":" ","MAREA":" ","LANE":" ","ALLEY":" ","HOUSE_NO":"３號","E_COORD97":174165.17000000001,"N_COORD97":2570247.5,"ADDRESS":"九分街３號","OBJECTID":496134},"geometry":{"x":174165.16999999993,"y":2570247.5}},{"attributes":{"ID":496162,"DIS_CODE":0,"TOWNNAME":"下營區","LI":"後街里","LIN":"7鄰","STREET":"人和三街","SECT":" ","MAREA":" ","LANE":" ","ALLEY":" ","HOUSE_NO":"１０號","E_COORD97":174376.44,"N_COORD97":2570753.46,"ADDRESS":"人和三街１０號","OBJECTID":496135},"geometry":{"x":174376.44000000134,"y":2570753.4600000028}},{"attributes":{"ID":496163,"DIS_CODE":0,"TOWNNAME":"中西區","LI":"西賢里","LIN":"7鄰","STREET":"西賢街","SECT":" ","MAREA":" ","LANE":" ","ALLEY":" ","HOUSE_NO":"３０６號","E_COORD97":165826.42000000001,"N_COORD97":2545049.7400000002,"ADDRESS":"西賢街３０６號","OBJECTID":496136},"geometry":{"x":165826.41999999993,"y":2545049.7400000002}},{"attributes":{"ID":496164,"DIS_CODE":0,"TOWNNAME":"中西區","LI":"西賢里","LIN":"7鄰","STREET":"西賢街","SECT":" ","MAREA":" ","LANE":" ","ALLEY":" ","HOUSE_NO":"３０８號","E_COORD97":165826.79999999999,"N_COORD97":2545054.9500000002,"ADDRESS":"西賢街３０８號","OBJECTID":496137},"geometry":{"x":165826.79999999981,"y":2545054.9500000011}},{"attributes":{"ID":496165,"DIS_CODE":0,"TOWNNAME":"中西區","LI":"西賢里","LIN":"7鄰","STREET":"西賢街","SECT":" ","MAREA":" ","LANE":" ","ALLEY":" ","HOUSE_NO":"３１０號","E_COORD97":165827.17999999999,"N_COORD97":2545060.0299999998,"ADDRESS":"西賢街３１０號","OBJECTID":496138},"geometry":{"x":165827.18000000063,"y":2545060.0299999993}},{"attributes":{"ID":496166,"DIS_CODE":0,"TOWNNAME":"中西區","LI":"西賢里","LIN":"7鄰","STREET":"和緯路","SECT":"五段","MAREA":" ","LANE":" ","ALLEY":" ","HOUSE_NO":"３０５號","E_COORD97":165835.44,"N_COORD97":2545073.6200000001,"ADDRESS":"和緯路五段３０５號","OBJECTID":496139},"geometry":{"x":165835.44000000041,"y":2545073.6200000029}},{"attributes":{"ID":496167,"DIS_CODE":0,"TOWNNAME":"中西區","LI":"西賢里","LIN":"7鄰","STREET":"和緯路","SECT":"五段","MAREA":" ","LANE":" ","ALLEY":" ","HOUSE_NO":"３０７號","E_COORD97":165830.23000000001,"N_COORD97":2545074.25,"ADDRESS":"和緯路五段３０７號","OBJECTID":496140},"geometry":{"x":165830.23000000045,"y":2545074.2500000019}},{"attributes":{"ID":496168,"DIS_CODE":0,"TOWNNAME":"中西區","LI":"保安里","LIN":"7鄰","STREET":"府前路","SECT":"二段","MAREA":" ","LANE":" ","ALLEY":" ","HOUSE_NO":"５６號","E_COORD97":167613.10999999999,"N_COORD97":2543504.1600000001,"ADDRESS":"府前路二段５６號","OBJECTID":496141},"geometry":{"x":167613.11000000127,"y":2543504.1600000001}},{"attributes":{"ID":496169,"DIS_CODE":0,"TOWNNAME":"中西區","LI":"保安里","LIN":"7鄰","STREET":"府前路","SECT":"二段","MAREA":" ","LANE":" ","ALLEY":" ","HOUSE_NO":"５８號","E_COORD97":167608.92000000001,"N_COORD97":2543504.2799999998,"ADDRESS":"府前路二段５８號","OBJECTID":496142},"geometry":{"x":167608.92000000086,"y":2543504.2800000012}},{"attributes":{"ID":496170,"DIS_CODE":0,"TOWNNAME":"中西區","LI":"保安里","LIN":"7鄰","STREET":"府前路","SECT":"二段","MAREA":" ","LANE":" ","ALLEY":" ","HOUSE_NO":"６０號","E_COORD97":167602.95000000001,"N_COORD97":2543505.4300000002,"ADDRESS":"府前路二段６０號","OBJECTID":496143},"geometry":{"x":167602.95000000019,"y":2543505.4299999978}},{"attributes":{"ID":496171,"DIS_CODE":0,"TOWNNAME":"新市區","LI":"新市里","LIN":"7鄰","STREET":"中興街","SECT":" ","MAREA":" ","LANE":" ","ALLEY":" ","HOUSE_NO":"１３５號","E_COORD97":177488.41,"N_COORD97":2553095.75,"ADDRESS":"中興街１３５號","OBJECTID":496144},"geometry":{"x":177488.41000000201,"y":2553095.7500000019}},{"attributes":{"ID":496172,"DIS_CODE":0,"TOWNNAME":"永康區","LI":"尚頂里","LIN":"7鄰","STREET":"尚頂路","SECT":" ","MAREA":" ","LANE":" ","ALLEY":" ","HOUSE_NO":"９１號","E_COORD97":171010.59,"N_COORD97":2547636.27,"ADDRESS":"尚頂路９１號","OBJECTID":496145},"geometry":{"x":171010.58999999985,"y":2547636.2700000033}},{"attributes":{"ID":496173,"DIS_CODE":0,"TOWNNAME":"永康區","LI":"東灣里","LIN":"7鄰","STREET":"大灣路","SECT":" ","MAREA":" ","LANE":" ","ALLEY":" ","HOUSE_NO":"４００號","E_COORD97":174795.78,"N_COORD97":2545042.6899999999,"ADDRESS":"大灣路４００號","OBJECTID":496146},"geometry":{"x":174795.78000000212,"y":2545042.6899999976}},{"attributes":{"ID":496174,"DIS_CODE":0,"TOWNNAME":"永康區","LI":"正強里","LIN":"7鄰","STREET":"正義街","SECT":" ","MAREA":" ","LANE":" ","ALLEY":" ","HOUSE_NO":"８８號","E_COORD97":173466.62,"N_COORD97":2547596.0099999998,"ADDRESS":"正義街８８號","OBJECTID":496147},"geometry":{"x":173466.62000000104,"y":2547596.0099999998}},{"attributes":{"ID":496175,"DIS_CODE":0,"TOWNNAME":"永康區","LI":"尚頂里","LIN":"7鄰","STREET":"\u25A0信街","SECT":" ","MAREA":" ","LANE":" ","ALLEY":" ","HOUSE_NO":"１７３號","E_COORD97":171007.69,"N_COORD97":2547760.25,"ADDRESS":"\u25A0信街１７３號","OBJECTID":496148},"geometry":{"x":171007.68999999948,"y":2547760.2500000019}},{"attributes":{"ID":496176,"DIS_CODE":0,"TOWNNAME":"永康區","LI":"尚頂里","LIN":"7鄰","STREET":"尚頂路","SECT":" ","MAREA":" ","LANE":" ","ALLEY":" ","HOUSE_NO":"９０號","E_COORD97":171075.23000000001,"N_COORD97":2547613.8399999999,"ADDRESS":"尚頂路９０號","OBJECTID":496149},"geometry":{"x":171075.23000000045,"y":2547613.8400000017}},{"attributes":{"ID":496177,"DIS_CODE":0,"TOWNNAME":"永康區","LI":"尚頂里","LIN":"7鄰","STREET":"尚頂路","SECT":" ","MAREA":" ","LANE":" ","ALLEY":" ","HOUSE_NO":"８５號","E_COORD97":171030.89000000001,"N_COORD97":2547621.27,"ADDRESS":"尚頂路８５號","OBJECTID":496150},"geometry":{"x":171030.88999999966,"y":2547621.2699999996}},{"attributes":{"ID":496178,"DIS_CODE":0,"TOWNNAME":"永康區","LI":"東灣里","LIN":"7鄰","STREET":"大灣路","SECT":" ","MAREA":" ","LANE":" ","ALLEY":" ","HOUSE_NO":"４１０號","E_COORD97":174790.92999999999,"N_COORD97":2545026.2799999998,"ADDRESS":"大灣路４１０號","OBJECTID":496151},"geometry":{"x":174790.93000000156,"y":2545026.2800000012}},{"attributes":{"ID":496179,"DIS_CODE":0,"TOWNNAME":"永康區","LI":"東灣里","LIN":"7鄰","STREET":"大灣路","SECT":" ","MAREA":" ","LANE":" ","ALLEY":" ","HOUSE_NO":"４０８號","E_COORD97":174792.32999999999,"N_COORD97":2545029.2799999998,"ADDRESS":"大灣路４０８號","OBJECTID":496152},"geometry":{"x":174792.33000000101,"y":2545029.2800000012}},{"attributes":{"ID":496180,"DIS_CODE":0,"TOWNNAME":"永康區","LI":"南灣里","LIN":"7鄰","STREET":"南興路","SECT":" ","MAREA":" ","LANE":" ","ALLEY":" ","HOUSE_NO":"１４２號","E_COORD97":174315.38,"N_COORD97":2544527.6699999999,"ADDRESS":"南興路１４２號","OBJECTID":496153},"geometry":{"x":174315.38000000082,"y":2544527.6699999999}},{"attributes":{"ID":496181,"DIS_CODE":0,"TOWNNAME":"永康區","LI":"尚頂里","LIN":"7鄰","STREET":"\u25A0信街","SECT":" ","MAREA":" ","LANE":" ","ALLEY":" ","HOUSE_NO":"３號","E_COORD97":170740.16,"N_COORD97":2547329.29,"ADDRESS":"\u25A0信街３號","OBJECTID":496154},"geometry":{"x":170740.16000000108,"y":2547329.2899999991}},{"attributes":{"ID":496182,"DIS_CODE":0,"TOWNNAME":"永康區","LI":"東灣里","LIN":"7鄰","STREET":"大灣路","SECT":" ","MAREA":" ","LANE":" ","ALLEY":" ","HOUSE_NO":"４３０號","E_COORD97":174770.06,"N_COORD97":2544989.8199999998,"ADDRESS":"大灣路４３０號","OBJECTID":496155},"geometry":{"x":174770.06000000052,"y":2544989.8200000022}},{"attributes":{"ID":496183,"DIS_CODE":0,"TOWNNAME":"永康區","LI":"南灣里","LIN":"7鄰","STREET":"南興路","SECT":" ","MAREA":" ","LANE":" ","ALLEY":" ","HOUSE_NO":"９６號","E_COORD97":174296.42999999999,"N_COORD97":2544390.2000000002,"ADDRESS":"南興路９６號","OBJECTID":496156},"geometry":{"x":174296.43000000063,"y":2544390.1999999993}},{"attributes":{"ID":496184,"DIS_CODE":0,"TOWNNAME":"永康區","LI":"東灣里","LIN":"7鄰","STREET":"大灣路","SECT":" ","MAREA":" ","LANE":" ","ALLEY":" ","HOUSE_NO":"４３２號","E_COORD97":174767.63,"N_COORD97":2544983.8199999998,"ADDRESS":"大灣路４３２號","OBJECTID":496157},"geometry":{"x":174767.63000000175,"y":2544983.8200000003}},{"attributes":{"ID":496185,"DIS_CODE":0,"TOWNNAME":"永康區","LI":"東灣里","LIN":"7鄰","STREET":"大灣路","SECT":" ","MAREA":" ","LANE":" ","ALLEY":" ","HOUSE_NO":"３９８號","E_COORD97":174797.47,"N_COORD97":2545045.5699999998,"ADDRESS":"大灣路３９８號","OBJECTID":496158},"geometry":{"x":174797.4700000016,"y":2545045.5700000022}},{"attributes":{"ID":496186,"DIS_CODE":0,"TOWNNAME":"永康區","LI":"南灣里","LIN":"7鄰","STREET":"南興路","SECT":" ","MAREA":" ","LANE":" ","ALLEY":" ","HOUSE_NO":"９４號","E_COORD97":174293.19,"N_COORD97":2544373.1200000001,"ADDRESS":"南興路９４號","OBJECTID":496159},"geometry":{"x":174293.19000000227,"y":2544373.120000001}},{"attributes":{"ID":496187,"DIS_CODE":0,"TOWNNAME":"永康區","LI":"東灣里","LIN":"7鄰","STREET":"大灣路","SECT":" ","MAREA":" ","LANE":" ","ALLEY":" ","HOUSE_NO":"４１６號","E_COORD97":174785.35999999999,"N_COORD97":2545015.7799999998,"ADDRESS":"大灣路４１６號","OBJECTID":496160},"geometry":{"x":174785.36000000127,"y":2545015.7800000012}},{"attributes":{"ID":496188,"DIS_CODE":0,"TOWNNAME":"永康區","LI":"東灣里","LIN":"7鄰","STREET":"大灣路","SECT":" ","MAREA":" ","LANE":" ","ALLEY":" ","HOUSE_NO":"４１２號","E_COORD97":174789.37,"N_COORD97":2545023.0299999998,"ADDRESS":"大灣路４１２號","OBJECTID":496161},"geometry":{"x":174789.37000000011,"y":2545023.0299999993}},{"attributes":{"ID":496189,"DIS_CODE":0,"TOWNNAME":"佳里區","LI":"安西里","LIN":"7鄰","STREET":"民生街","SECT":" ","MAREA":" ","LANE":" ","ALLEY":" ","HOUSE_NO":"２號","E_COORD97":165625.14999999999,"N_COORD97":2562524.4399999999,"ADDRESS":"民生街２號","OBJECTID":496162},"geometry":{"x":165625.15000000037,"y":2562524.4399999995}},{"attributes":{"ID":496190,"DIS_CODE":0,"TOWNNAME":"佳里區","LI":"安西里","LIN":"7鄰","STREET":"民生街","SECT":" ","MAREA":" ","LANE":" ","ALLEY":" ","HOUSE_NO":"８號","E_COORD97":165625.54999999999,"N_COORD97":2562540.2999999998,"ADDRESS":"民生街８號","OBJECTID":496163},"geometry":{"x":165625.54999999981,"y":2562540.3000000007}},{"attributes":{"ID":496191,"DIS_CODE":0,"TOWNNAME":"佳里區","LI":"安西里","LIN":"7鄰","STREET":"民權街","SECT":" ","MAREA":" ","LANE":" ","ALLEY":" ","HOUSE_NO":"１０號","E_COORD97":165648.70000000001,"N_COORD97":2562550.6899999999,"ADDRESS":"民權街１０號","OBJECTID":496164},"geometry":{"x":165648.70000000019,"y":2562550.6899999976}},{"attributes":{"ID":496192,"DIS_CODE":0,"TOWNNAME":"佳里區","LI":"安西里","LIN":"7鄰","STREET":"民權街","SECT":" ","MAREA":" ","LANE":" ","ALLEY":" ","HOUSE_NO":"１２號","E_COORD97":165644.22,"N_COORD97":2562550.7599999998,"ADDRESS":"民權街１２號","OBJECTID":496165},"geometry":{"x":165644.21999999974,"y":2562550.7600000035}},{"attributes":{"ID":496193,"DIS_CODE":0,"TOWNNAME":"佳里區","LI":"安西里","LIN":"7鄰","STREET":"民權街","SECT":" ","MAREA":" ","LANE":" ","ALLEY":" ","HOUSE_NO":"１４號","E_COORD97":165639.76999999999,"N_COORD97":2562550.6800000002,"ADDRESS":"民權街１４號","OBJECTID":496166},"geometry":{"x":165639.77000000048,"y":2562550.6799999997}},{"attributes":{"ID":496194,"DIS_CODE":0,"TOWNNAME":"佳里區","LI":"安西里","LIN":"7鄰","STREET":"民權街","SECT":" ","MAREA":" ","LANE":" ","ALLEY":" ","HOUSE_NO":"１６號","E_COORD97":165635.17000000001,"N_COORD97":2562550.54,"ADDRESS":"民權街１６號","OBJECTID":496167},"geometry":{"x":165635.16999999993,"y":2562550.5399999991}},{"attributes":{"ID":496195,"DIS_CODE":0,"TOWNNAME":"佳里區","LI":"安西里","LIN":"7鄰","STREET":"民權街","SECT":" ","MAREA":" ","LANE":" ","ALLEY":" ","HOUSE_NO":"１８號","E_COORD97":165629.85000000001,"N_COORD97":2562550.6299999999,"ADDRESS":"民權街１８號","OBJECTID":496168},"geometry":{"x":165629.84999999963,"y":2562550.6300000027}},{"attributes":{"ID":496196,"DIS_CODE":0,"TOWNNAME":"佳里區","LI":"安西里","LIN":"7鄰","STREET":"民權街","SECT":" ","MAREA":" ","LANE":" ","ALLEY":" ","HOUSE_NO":"１號","E_COORD97":165671.76000000001,"N_COORD97":2562538.1000000001,"ADDRESS":"民權街１號","OBJECTID":496169},"geometry":{"x":165671.75999999978,"y":2562538.1000000034}},{"attributes":{"ID":496197,"DIS_CODE":0,"TOWNNAME":"佳里區","LI":"安西里","LIN":"7鄰","STREET":"民權街","SECT":" ","MAREA":" ","LANE":" ","ALLEY":" ","HOUSE_NO":"２０號","E_COORD97":165624.41,"N_COORD97":2562550.1699999999,"ADDRESS":"民權街２０號","OBJECTID":496170},"geometry":{"x":165624.41000000108,"y":2562550.1699999999}},{"attributes":{"ID":496198,"DIS_CODE":0,"TOWNNAME":"佳里區","LI":"安西里","LIN":"7鄰","STREET":"民權街","SECT":" ","MAREA":" ","LANE":" ","ALLEY":" ","HOUSE_NO":"２號","E_COORD97":165677.07000000001,"N_COORD97":2562549.3399999999,"ADDRESS":"民權街２號","OBJECTID":496171},"geometry":{"x":165677.06999999937,"y":2562549.3399999999}},{"attributes":{"ID":496199,"DIS_CODE":0,"TOWNNAME":"佳里區","LI":"安西里","LIN":"7鄰","STREET":"民權街","SECT":" ","MAREA":" ","LANE":" ","ALLEY":" ","HOUSE_NO":"３號","E_COORD97":165667.26999999999,"N_COORD97":2562537.6000000001,"ADDRESS":"民權街３號","OBJECTID":496172},"geometry":{"x":165667.27000000048,"y":2562537.5999999996}},{"attributes":{"ID":496200,"DIS_CODE":0,"TOWNNAME":"佳里區","LI":"安西里","LIN":"7鄰","STREET":"民權街","SECT":" ","MAREA":" ","LANE":" ","ALLEY":" ","HOUSE_NO":"４號","E_COORD97":165672.57999999999,"N_COORD97":2562549.1200000001,"ADDRESS":"民權街４號","OBJECTID":496173},"geometry":{"x":165672.58000000101,"y":2562549.120000001}},{"attributes":{"ID":496201,"DIS_CODE":0,"TOWNNAME":"佳里區","LI":"安西里","LIN":"7鄰","STREET":"民權街","SECT":" ","MAREA":" ","LANE":" ","ALLEY":" ","HOUSE_NO":"６號","E_COORD97":165657.79000000001,"N_COORD97":2562550.6499999999,"ADDRESS":"民權街６號","OBJECTID":496174},"geometry":{"x":165657.79000000004,"y":2562550.6500000004}},{"attributes":{"ID":496202,"DIS_CODE":0,"TOWNNAME":"佳里區","LI":"安西里","LIN":"7鄰","STREET":"民權街","SECT":" ","MAREA":" ","LANE":" ","ALLEY":" ","HOUSE_NO":"８號","E_COORD97":165653.31,"N_COORD97":2562550.4300000002,"ADDRESS":"民權街８號","OBJECTID":496175},"geometry":{"x":165653.31000000052,"y":2562550.4300000016}},{"attributes":{"ID":496203,"DIS_CODE":0,"TOWNNAME":"安南區","LI":"城北里","LIN":"7鄰","STREET":"安中路","SECT":"六段","MAREA":" ","LANE":" ","ALLEY":" ","HOUSE_NO":"３３２之１號","E_COORD97":161349.16,"N_COORD97":2551314.3799999999,"ADDRESS":"安中路六段３３２之１號","OBJECTID":496176},"geometry":{"x":161349.16000000108,"y":2551314.3800000008}},{"attributes":{"ID":496204,"DIS_CODE":0,"TOWNNAME":"安南區","LI":"公\u25A0里","LIN":"7鄰","STREET":"安興街","SECT":" ","MAREA":" ","LANE":" ","ALLEY":" ","HOUSE_NO":"３１１號","E_COORD97":163895.25,"N_COORD97":2552189.23,"ADDRESS":"安興街３１１號","OBJECTID":496177},"geometry":{"x":163895.25,"y":2552189.2300000004}},{"attributes":{"ID":496205,"DIS_CODE":0,"TOWNNAME":"安南區","LI":"城北里","LIN":"7鄰","STREET":"安中路","SECT":"六段","MAREA":" ","LANE":" ","ALLEY":" ","HOUSE_NO":"２１８之３號","E_COORD97":161584.23000000001,"N_COORD97":2551296.4900000002,"ADDRESS":"安中路六段２１８之３號","OBJECTID":496178},"geometry":{"x":161584.23000000138,"y":2551296.4900000002}},{"attributes":{"ID":496206,"DIS_CODE":0,"TOWNNAME":"安南區","LI":"\u25A0田里","LIN":"7鄰","STREET":"工業二路","SECT":" ","MAREA":" ","LANE":" ","ALLEY":" ","HOUSE_NO":"３６號","E_COORD97":163621.39000000001,"N_COORD97":2548630.8100000001,"ADDRESS":"工業二路３６號","OBJECTID":496179},"geometry":{"x":163621.39000000153,"y":2548630.8100000024}},{"attributes":{"ID":496207,"DIS_CODE":0,"TOWNNAME":"安南區","LI":"\u25A0田里","LIN":"7鄰","STREET":"工環路","SECT":" ","MAREA":" ","LANE":" ","ALLEY":" ","HOUSE_NO":"１２號","E_COORD97":163760.45999999999,"N_COORD97":2548568.25,"ADDRESS":"工環路１２號","OBJECTID":496180},"geometry":{"x":163760.46000000089,"y":2548568.25}},{"attributes":{"ID":496208,"DIS_CODE":0,"TOWNNAME":"安南區","LI":"\u25A0田里","LIN":"7鄰","STREET":"工業二路","SECT":" ","MAREA":" ","LANE":" ","ALLEY":" ","HOUSE_NO":"２６號","E_COORD97":163718.32000000001,"N_COORD97":2548490.4300000002,"ADDRESS":"工業二路２６號","OBJECTID":496181},"geometry":{"x":163718.32000000123,"y":2548490.4300000016}},{"attributes":{"ID":496209,"DIS_CODE":0,"TOWNNAME":"安南區","LI":"\u25A0田里","LIN":"7鄰","STREET":"工業三路","SECT":" ","MAREA":" ","LANE":" ","ALLEY":" ","HOUSE_NO":"８號","E_COORD97":163473.13,"N_COORD97":2548142.1499999999,"ADDRESS":"工業三路８號","OBJECTID":496182},"geometry":{"x":163473.13000000082,"y":2548142.1500000004}},{"attributes":{"ID":496210,"DIS_CODE":0,"TOWNNAME":"安南區","LI":"\u25A0田里","LIN":"7鄰","STREET":"工業二路","SECT":" ","MAREA":" ","LANE":" ","ALLEY":" ","HOUSE_NO":"４０號","E_COORD97":163404.48999999999,"N_COORD97":2548795.98,"ADDRESS":"工業二路４０號","OBJECTID":496183},"geometry":{"x":163404.49000000209,"y":2548795.9800000023}},{"attributes":{"ID":496211,"DIS_CODE":0,"TOWNNAME":"新市區","LI":"新市里","LIN":"7鄰","STREET":"中興街","SECT":" ","MAREA":" ","LANE":" ","ALLEY":" ","HOUSE_NO":"１２３號","E_COORD97":177514.45999999999,"N_COORD97":2553096.5,"ADDRESS":"中興街１２３號","OBJECTID":496184},"geometry":{"x":177514.45999999996,"y":2553096.5}},{"attributes":{"ID":496212,"DIS_CODE":0,"TOWNNAME":"中西區","LI":"民主里","LIN":"7鄰","STREET":"大智街","SECT":" ","MAREA":" ","LANE":" ","ALLEY":" ","HOUSE_NO":"６６號","E_COORD97":167275.03,"N_COORD97":2543540.1400000001,"ADDRESS":"大智街６６號","OBJECTID":496185},"geometry":{"x":167275.03000000119,"y":2543540.1400000025}},{"attributes":{"ID":496213,"DIS_CODE":0,"TOWNNAME":"中西區","LI":"民主里","LIN":"7鄰","STREET":"大智街","SECT":" ","MAREA":" ","LANE":" ","ALLEY":" ","HOUSE_NO":"６８號","E_COORD97":167296.14999999999,"N_COORD97":2543535.8300000001,"ADDRESS":"大智街６８號","OBJECTID":496186},"geometry":{"x":167296.1500000013,"y":2543535.8300000001}},{"attributes":{"ID":496214,"DIS_CODE":0,"TOWNNAME":"中西區","LI":"民主里","LIN":"7鄰","STREET":"大智街","SECT":" ","MAREA":" ","LANE":" ","ALLEY":" ","HOUSE_NO":"７２號","E_COORD97":167296.14999999999,"N_COORD97":2543529.7200000002,"ADDRESS":"大智街７２號","OBJECTID":496187},"geometry":{"x":167296.1500000013,"y":2543529.7200000025}},{"attributes":{"ID":496215,"DIS_CODE":0,"TOWNNAME":"中西區","LI":"民主里","LIN":"7鄰","STREET":"大智街","SECT":" ","MAREA":" ","LANE":" ","ALLEY":" ","HOUSE_NO":"７４號","E_COORD97":167296.85000000001,"N_COORD97":2543523.8900000001,"ADDRESS":"大智街７４號","OBJECTID":496188},"geometry":{"x":167296.85000000149,"y":2543523.8900000043}},{"attributes":{"ID":496216,"DIS_CODE":0,"TOWNNAME":"中西區","LI":"民主里","LIN":"7鄰","STREET":"大智街","SECT":" ","MAREA":" ","LANE":" ","ALLEY":" ","HOUSE_NO":"７４號之１","E_COORD97":167296.14999999999,"N_COORD97":2543518.6200000001,"ADDRESS":"大智街７４號之１","OBJECTID":496189},"geometry":{"x":167296.1500000013,"y":2543518.620000001}},{"attributes":{"ID":496217,"DIS_CODE":0,"TOWNNAME":"中西區","LI":"民主里","LIN":"7鄰","STREET":"府前路","SECT":"二段","MAREA":" ","LANE":" ","ALLEY":" ","HOUSE_NO":"１６７號","E_COORD97":167297.63,"N_COORD97":2543546.5899999999,"ADDRESS":"府前路二段１６７號","OBJECTID":496190},"geometry":{"x":167297.63000000082,"y":2543546.5900000017}},{"attributes":{"ID":496218,"DIS_CODE":0,"TOWNNAME":"中西區","LI":"民主里","LIN":"7鄰","STREET":"府前路","SECT":"二段","MAREA":" ","LANE":" ","ALLEY":" ","HOUSE_NO":"１６９號","E_COORD97":167290.88,"N_COORD97":2543547.9199999999,"ADDRESS":"府前路二段１６９號","OBJECTID":496191},"geometry":{"x":167290.88000000082,"y":2543547.9200000018}},{"attributes":{"ID":496219,"DIS_CODE":0,"TOWNNAME":"中西區","LI":"民主里","LIN":"7鄰","STREET":"府前路","SECT":"二段","MAREA":" ","LANE":" ","ALLEY":" ","HOUSE_NO":"１７３號","E_COORD97":167284.98999999999,"N_COORD97":2543549.3500000001,"ADDRESS":"府前路二段１７３號","OBJECTID":496192},"geometry":{"x":167284.99000000115,"y":2543549.3499999996}},{"attributes":{"ID":496220,"DIS_CODE":0,"TOWNNAME":"中西區","LI":"民主里","LIN":"7鄰","STREET":"府前路","SECT":"二段","MAREA":" ","LANE":" ","ALLEY":" ","HOUSE_NO":"１７５號","E_COORD97":167279.85999999999,"N_COORD97":2543548.9700000002,"ADDRESS":"府前路二段１７５號","OBJECTID":496193},"geometry":{"x":167279.86000000034,"y":2543548.9700000007}},{"attributes":{"ID":496221,"DIS_CODE":0,"TOWNNAME":"中西區","LI":"民主里","LIN":"7鄰","STREET":"府前路","SECT":"二段","MAREA":" ","LANE":" ","ALLEY":" ","HOUSE_NO":"１７７號","E_COORD97":167274.16,"N_COORD97":2543549.9100000001,"ADDRESS":"府前路二段１７７號","OBJECTID":496194},"geometry":{"x":167274.16000000015,"y":2543549.9100000001}},{"attributes":{"ID":496222,"DIS_CODE":0,"TOWNNAME":"中西區","LI":"民主里","LIN":"7鄰","STREET":"金華路","SECT":"三段","MAREA":" ","LANE":" ","ALLEY":" ","HOUSE_NO":"９６號","E_COORD97":167253.34,"N_COORD97":2543528.3399999999,"ADDRESS":"金華路三段９６號","OBJECTID":496195},"geometry":{"x":167253.34000000078,"y":2543528.3400000017}},{"attributes":{"ID":496223,"DIS_CODE":0,"TOWNNAME":"中西區","LI":"民主里","LIN":"7鄰","STREET":"金華路","SECT":"三段","MAREA":" ","LANE":" ","ALLEY":" ","HOUSE_NO":"９８號","E_COORD97":167253.47,"N_COORD97":2543534.4500000002,"ADDRESS":"金華路三段９８號","OBJECTID":496196},"geometry":{"x":167253.46999999974,"y":2543534.4499999993}},{"attributes":{"ID":496224,"DIS_CODE":0,"TOWNNAME":"中西區","LI":"民主里","LIN":"7鄰","STREET":"保安路","SECT":" ","MAREA":" ","LANE":" ","ALLEY":" ","HOUSE_NO":"１６８號","E_COORD97":167287.92000000001,"N_COORD97":2543521.2599999998,"ADDRESS":"保安路１６８號","OBJECTID":496197},"geometry":{"x":167287.91999999993,"y":2543521.2600000016}},{"attributes":{"ID":496225,"DIS_CODE":0,"TOWNNAME":"中西區","LI":"民主里","LIN":"7鄰","STREET":"保安路","SECT":" ","MAREA":" ","LANE":" ","ALLEY":" ","HOUSE_NO":"１７０號","E_COORD97":167282.59,"N_COORD97":2543522.9300000002,"ADDRESS":"保安路１７０號","OBJECTID":496198},"geometry":{"x":167282.59000000078,"y":2543522.9300000016}},{"attributes":{"ID":496226,"DIS_CODE":0,"TOWNNAME":"中西區","LI":"民主里","LIN":"7鄰","STREET":"保安路","SECT":" ","MAREA":" ","LANE":" ","ALLEY":" ","HOUSE_NO":"１７２號","E_COORD97":167279.14000000001,"N_COORD97":2543523.77,"ADDRESS":"保安路１７２號","OBJECTID":496199},"geometry":{"x":167279.13999999966,"y":2543523.7700000033}},{"attributes":{"ID":496227,"DIS_CODE":0,"TOWNNAME":"永康區","LI":"崑山里","LIN":"15鄰","STREET":"大灣路","SECT":" ","MAREA":" ","LANE":" ","ALLEY":" ","HOUSE_NO":"９６４號","E_COORD97":173568.85000000001,"N_COORD97":2544413.3199999998,"ADDRESS":"大灣路９６４號","OBJECTID":496200},"geometry":{"x":173568.84999999963,"y":2544413.3200000022}}]}