{"displayFieldName":"TOWNNAME","fieldAliases":{"ID":"ID","DIS_CODE":"DIS_CODE","TOWNNAME":"TOWNNAME","LI":"LI","LIN":"LIN","STREET":"STREET","SECT":"SECT","MAREA":"MAREA","LANE":"LANE","ALLEY":"ALLEY","HOUSE_NO":"HOUSE_NO","E_COORD97":"E_COORD97","N_COORD97":"N_COORD97","ADDRESS":"ADDRESS","OBJECTID":"OBJECTID"},"geometryType":"esriGeometryPoint","spatialReference":{"wkid":102443,"latestWkid":3826},"fields":[{"name":"ID","type":"esriFieldTypeDouble","alias":"ID"},{"name":"DIS_CODE","type":"esriFieldTypeInteger","alias":"DIS_CODE"},{"name":"TOWNNAME","type":"esriFieldTypeString","alias":"TOWNNAME","length":8},{"name":"LI","type":"esriFieldTypeString","alias":"LI","length":8},{"name":"LIN","type":"esriFieldTypeString","alias":"LIN","length":12},{"name":"STREET","type":"esriFieldTypeString","alias":"STREET","length":20},{"name":"SECT","type":"esriFieldTypeString","alias":"SECT","length":8},{"name":"MAREA","type":"esriFieldTypeString","alias":"MAREA","length":12},{"name":"LANE","type":"esriFieldTypeString","alias":"LANE","length":10},{"name":"ALLEY","type":"esriFieldTypeString","alias":"ALLEY","length":10},{"name":"HOUSE_NO","type":"esriFieldTypeString","alias":"HOUSE_NO","length":20},{"name":"E_COORD97","type":"esriFieldTypeDouble","alias":"E_COORD97"},{"name":"N_COORD97","type":"esriFieldTypeDouble","alias":"N_COORD97"},{"name":"ADDRESS","type":"esriFieldTypeString","alias":"ADDRESS","length":50},{"name":"OBJECTID","type":"esriFieldTypeOID","alias":"OBJECTID"}],"features":[{"attributes":{"ID":468626,"DIS_CODE":0,"TOWNNAME":"北區","LI":"開元里","LIN":"5鄰","STREET":"北園街","SECT":" ","MAREA":" ","LANE":" ","ALLEY":" ","HOUSE_NO":"１１３號","E_COORD97":170332.89999999999,"N_COORD97":2545915.96,"ADDRESS":"北園街１１３號","OBJECTID":468601},"geometry":{"x":170332.90000000037,"y":2545915.9600000009}},{"attributes":{"ID":468627,"DIS_CODE":0,"TOWNNAME":"北區","LI":"開元里","LIN":"5鄰","STREET":"北園街","SECT":" ","MAREA":" ","LANE":" ","ALLEY":" ","HOUSE_NO":"１１５號","E_COORD97":170332.28,"N_COORD97":2545920.52,"ADDRESS":"北園街１１５號","OBJECTID":468602},"geometry":{"x":170332.27999999933,"y":2545920.5200000014}},{"attributes":{"ID":468628,"DIS_CODE":0,"TOWNNAME":"北區","LI":"開元里","LIN":"5鄰","STREET":"北園街","SECT":" ","MAREA":" ","LANE":" ","ALLEY":" ","HOUSE_NO":"１１７號","E_COORD97":170332.28,"N_COORD97":2545925.8799999999,"ADDRESS":"北園街１１７號","OBJECTID":468603},"geometry":{"x":170332.27999999933,"y":2545925.8800000027}},{"attributes":{"ID":468629,"DIS_CODE":0,"TOWNNAME":"北區","LI":"開元里","LIN":"5鄰","STREET":"北園街","SECT":" ","MAREA":" ","LANE":" ","ALLEY":" ","HOUSE_NO":"１１９號","E_COORD97":170331.92999999999,"N_COORD97":2545930.2799999998,"ADDRESS":"北園街１１９號","OBJECTID":468604},"geometry":{"x":170331.9299999997,"y":2545930.2799999975}},{"attributes":{"ID":468630,"DIS_CODE":0,"TOWNNAME":"北區","LI":"開元里","LIN":"5鄰","STREET":"北園街","SECT":" ","MAREA":" ","LANE":" ","ALLEY":" ","HOUSE_NO":"１２１號","E_COORD97":170329.64999999999,"N_COORD97":2545934.1400000001,"ADDRESS":"北園街１２１號","OBJECTID":468605},"geometry":{"x":170329.65000000037,"y":2545934.1400000025}},{"attributes":{"ID":468631,"DIS_CODE":0,"TOWNNAME":"北區","LI":"開元里","LIN":"5鄰","STREET":"北園街","SECT":" ","MAREA":" ","LANE":" ","ALLEY":" ","HOUSE_NO":"１２３號","E_COORD97":170329.20999999999,"N_COORD97":2545938.5299999998,"ADDRESS":"北園街１２３號","OBJECTID":468606},"geometry":{"x":170329.21000000183,"y":2545938.5299999993}},{"attributes":{"ID":468632,"DIS_CODE":0,"TOWNNAME":"安平區","LI":"港仔里","LIN":"5鄰","STREET":"安平路","SECT":" ","MAREA":" ","LANE":" ","ALLEY":" ","HOUSE_NO":"９１號","E_COORD97":164404.45999999999,"N_COORD97":2544457.71,"ADDRESS":"安平路９１號","OBJECTID":468607},"geometry":{"x":164404.46000000183,"y":2544457.7100000046}},{"attributes":{"ID":468633,"DIS_CODE":0,"TOWNNAME":"北區","LI":"玉皇里","LIN":"5鄰","STREET":"崇安街","SECT":" ","MAREA":" ","LANE":" ","ALLEY":" ","HOUSE_NO":"９１之１號","E_COORD97":168756.29999999999,"N_COORD97":2544592.8799999999,"ADDRESS":"崇安街９１之１號","OBJECTID":468608},"geometry":{"x":168756.29999999981,"y":2544592.879999999}},{"attributes":{"ID":468634,"DIS_CODE":0,"TOWNNAME":"北區","LI":"玉皇里","LIN":"5鄰","STREET":"崇安街","SECT":" ","MAREA":" ","LANE":" ","ALLEY":" ","HOUSE_NO":"９１之２號","E_COORD97":168754.39999999999,"N_COORD97":2544597.96,"ADDRESS":"崇安街９１之２號","OBJECTID":468609},"geometry":{"x":168754.40000000037,"y":2544597.9600000009}},{"attributes":{"ID":468635,"DIS_CODE":0,"TOWNNAME":"安平區","LI":"港仔里","LIN":"5鄰","STREET":"安平路","SECT":" ","MAREA":" ","LANE":" ","ALLEY":" ","HOUSE_NO":"９７號之１","E_COORD97":164370.67000000001,"N_COORD97":2544463.1299999999,"ADDRESS":"安平路９７號之１","OBJECTID":468610},"geometry":{"x":164370.66999999899,"y":2544463.1300000027}},{"attributes":{"ID":468636,"DIS_CODE":0,"TOWNNAME":"安平區","LI":"平安里","LIN":"5鄰","STREET":"安平路","SECT":" ","MAREA":" ","LANE":" ","ALLEY":" ","HOUSE_NO":"２９６號","E_COORD97":165750.54999999999,"N_COORD97":2544352.54,"ADDRESS":"安平路２９６號","OBJECTID":468611},"geometry":{"x":165750.54999999981,"y":2544352.540000001}},{"attributes":{"ID":468637,"DIS_CODE":0,"TOWNNAME":"安平區","LI":"平安里","LIN":"5鄰","STREET":"安平路","SECT":" ","MAREA":" ","LANE":" ","ALLEY":" ","HOUSE_NO":"２９８號","E_COORD97":165746.56,"N_COORD97":2544352.3199999998,"ADDRESS":"安平路２９８號","OBJECTID":468612},"geometry":{"x":165746.56000000052,"y":2544352.3200000022}},{"attributes":{"ID":468638,"DIS_CODE":0,"TOWNNAME":"安平區","LI":"平安里","LIN":"5鄰","STREET":"安平路","SECT":" ","MAREA":" ","LANE":" ","ALLEY":" ","HOUSE_NO":"３００號","E_COORD97":165741.82999999999,"N_COORD97":2544352.2400000002,"ADDRESS":"安平路３００號","OBJECTID":468613},"geometry":{"x":165741.83000000101,"y":2544352.2400000021}},{"attributes":{"ID":468639,"DIS_CODE":0,"TOWNNAME":"安平區","LI":"平安里","LIN":"5鄰","STREET":"安平路","SECT":" ","MAREA":" ","LANE":" ","ALLEY":" ","HOUSE_NO":"３０４號","E_COORD97":165723.59,"N_COORD97":2544371.6400000001,"ADDRESS":"安平路３０４號","OBJECTID":468614},"geometry":{"x":165723.58999999985,"y":2544371.6400000006}},{"attributes":{"ID":468640,"DIS_CODE":0,"TOWNNAME":"北區","LI":"東興里","LIN":"5鄰","STREET":"東興路","SECT":"二段","MAREA":" ","LANE":" ","ALLEY":" ","HOUSE_NO":"５９號","E_COORD97":170888.07999999999,"N_COORD97":2544619.3199999998,"ADDRESS":"東興路二段５９號","OBJECTID":468615},"geometry":{"x":170888.08000000101,"y":2544619.320000004}},{"attributes":{"ID":468641,"DIS_CODE":0,"TOWNNAME":"南區","LI":"金華里","LIN":"5鄰","STREET":"健康路","SECT":"二段","MAREA":" ","LANE":" ","ALLEY":" ","HOUSE_NO":"２２７號","E_COORD97":167064.03,"N_COORD97":2542456.2799999998,"ADDRESS":"健康路二段２２７號","OBJECTID":468616},"geometry":{"x":167064.03000000212,"y":2542456.2800000012}},{"attributes":{"ID":468642,"DIS_CODE":0,"TOWNNAME":"南區","LI":"金華里","LIN":"5鄰","STREET":"聖南街","SECT":" ","MAREA":" ","LANE":" ","ALLEY":" ","HOUSE_NO":"１１號","E_COORD97":167058.37,"N_COORD97":2542413.9100000001,"ADDRESS":"聖南街１１號","OBJECTID":468617},"geometry":{"x":167058.37000000104,"y":2542413.9100000001}},{"attributes":{"ID":468643,"DIS_CODE":0,"TOWNNAME":"東山區","LI":"東中里","LIN":"5鄰","STREET":"中興路","SECT":" ","MAREA":" ","LANE":" ","ALLEY":" ","HOUSE_NO":"１０２號","E_COORD97":188988.89000000001,"N_COORD97":2580247.3900000001,"ADDRESS":"中興路１０２號","OBJECTID":468618},"geometry":{"x":188988.8900000006,"y":2580247.3900000006}},{"attributes":{"ID":468644,"DIS_CODE":0,"TOWNNAME":"東山區","LI":"東中里","LIN":"5鄰","STREET":"中興路","SECT":" ","MAREA":" ","LANE":" ","ALLEY":" ","HOUSE_NO":"１０４號","E_COORD97":188988.29000000001,"N_COORD97":2580251.3500000001,"ADDRESS":"中興路１０４號","OBJECTID":468619},"geometry":{"x":188988.29000000097,"y":2580251.3500000015}},{"attributes":{"ID":468645,"DIS_CODE":0,"TOWNNAME":"東山區","LI":"東中里","LIN":"5鄰","STREET":"中興路","SECT":" ","MAREA":" ","LANE":" ","ALLEY":" ","HOUSE_NO":"１０６號","E_COORD97":188987.82999999999,"N_COORD97":2580256.3799999999,"ADDRESS":"中興路１０６號","OBJECTID":468620},"geometry":{"x":188987.83000000101,"y":2580256.379999999}},{"attributes":{"ID":468646,"DIS_CODE":0,"TOWNNAME":"東山區","LI":"東中里","LIN":"5鄰","STREET":"中興路","SECT":" ","MAREA":" ","LANE":" ","ALLEY":" ","HOUSE_NO":"１０８號","E_COORD97":188986.54999999999,"N_COORD97":2580260.6899999999,"ADDRESS":"中興路１０８號","OBJECTID":468621},"geometry":{"x":188986.54999999981,"y":2580260.6899999995}},{"attributes":{"ID":468647,"DIS_CODE":0,"TOWNNAME":"東山區","LI":"東中里","LIN":"5鄰","STREET":"中興路","SECT":" ","MAREA":" ","LANE":" ","ALLEY":" ","HOUSE_NO":"１１２號","E_COORD97":188985.81,"N_COORD97":2580268.7400000002,"ADDRESS":"中興路１１２號","OBJECTID":468622},"geometry":{"x":188985.81000000052,"y":2580268.7400000002}},{"attributes":{"ID":468648,"DIS_CODE":0,"TOWNNAME":"東山區","LI":"東中里","LIN":"5鄰","STREET":"中興路","SECT":" ","MAREA":" ","LANE":" ","ALLEY":" ","HOUSE_NO":"１１６號之１","E_COORD97":189012.35999999999,"N_COORD97":2580269.46,"ADDRESS":"中興路１１６號之１","OBJECTID":468623},"geometry":{"x":189012.36000000034,"y":2580269.4600000028}},{"attributes":{"ID":468649,"DIS_CODE":0,"TOWNNAME":"東山區","LI":"東中里","LIN":"5鄰","STREET":"中興路","SECT":" ","MAREA":" ","LANE":" ","ALLEY":" ","HOUSE_NO":"１１６號","E_COORD97":188984.70999999999,"N_COORD97":2580277.3900000001,"ADDRESS":"中興路１１６號","OBJECTID":468624},"geometry":{"x":188984.71000000183,"y":2580277.3900000006}},{"attributes":{"ID":468650,"DIS_CODE":0,"TOWNNAME":"東山區","LI":"東中里","LIN":"5鄰","STREET":"中興路","SECT":" ","MAREA":" ","LANE":" ","ALLEY":" ","HOUSE_NO":"１１８號之１","E_COORD97":189003.42999999999,"N_COORD97":2580281.04,"ADDRESS":"中興路１１８號之１","OBJECTID":468625},"geometry":{"x":189003.43000000063,"y":2580281.040000001}},{"attributes":{"ID":468651,"DIS_CODE":0,"TOWNNAME":"東山區","LI":"東山里","LIN":"5鄰","STREET":"中興路","SECT":" ","MAREA":" ","LANE":" ","ALLEY":" ","HOUSE_NO":"１２８號","E_COORD97":188979.12,"N_COORD97":2580311.77,"ADDRESS":"中興路１２８號","OBJECTID":468626},"geometry":{"x":188979.12000000104,"y":2580311.7699999996}},{"attributes":{"ID":468652,"DIS_CODE":0,"TOWNNAME":"東山區","LI":"東山里","LIN":"5鄰","STREET":"中興路","SECT":" ","MAREA":" ","LANE":" ","ALLEY":" ","HOUSE_NO":"１３０號","E_COORD97":188978.62,"N_COORD97":2580316.2200000002,"ADDRESS":"中興路１３０號","OBJECTID":468627},"geometry":{"x":188978.62000000197,"y":2580316.2200000007}},{"attributes":{"ID":468653,"DIS_CODE":0,"TOWNNAME":"東山區","LI":"東山里","LIN":"5鄰","STREET":"中興路","SECT":" ","MAREA":" ","LANE":" ","ALLEY":" ","HOUSE_NO":"１３２號","E_COORD97":188978.07999999999,"N_COORD97":2580320.6499999999,"ADDRESS":"中興路１３２號","OBJECTID":468628},"geometry":{"x":188978.08000000007,"y":2580320.6500000004}},{"attributes":{"ID":468654,"DIS_CODE":0,"TOWNNAME":"東山區","LI":"東山里","LIN":"5鄰","STREET":"中興路","SECT":" ","MAREA":" ","LANE":" ","ALLEY":" ","HOUSE_NO":"１３４號","E_COORD97":188976.92000000001,"N_COORD97":2580324.9300000002,"ADDRESS":"中興路１３４號","OBJECTID":468629},"geometry":{"x":188976.92000000086,"y":2580324.9299999978}},{"attributes":{"ID":468655,"DIS_CODE":0,"TOWNNAME":"東山區","LI":"東山里","LIN":"5鄰","STREET":"中興路","SECT":" ","MAREA":" ","LANE":" ","ALLEY":" ","HOUSE_NO":"１３６號","E_COORD97":188976.92000000001,"N_COORD97":2580329.5299999998,"ADDRESS":"中興路１３６號","OBJECTID":468630},"geometry":{"x":188976.92000000086,"y":2580329.5299999993}},{"attributes":{"ID":468656,"DIS_CODE":0,"TOWNNAME":"東山區","LI":"東中里","LIN":"5鄰","STREET":"中興路","SECT":" ","MAREA":" ","LANE":" ","ALLEY":" ","HOUSE_NO":"９２號","E_COORD97":188991.53,"N_COORD97":2580225.6299999999,"ADDRESS":"中興路９２號","OBJECTID":468631},"geometry":{"x":188991.53000000119,"y":2580225.6300000008}},{"attributes":{"ID":468657,"DIS_CODE":0,"TOWNNAME":"東山區","LI":"東中里","LIN":"5鄰","STREET":"中興路","SECT":" ","MAREA":" ","LANE":" ","ALLEY":" ","HOUSE_NO":"９４號","E_COORD97":188991.03,"N_COORD97":2580229.04,"ADDRESS":"中興路９４號","OBJECTID":468632},"geometry":{"x":188991.03000000026,"y":2580229.0400000028}},{"attributes":{"ID":468658,"DIS_CODE":0,"TOWNNAME":"東山區","LI":"東中里","LIN":"5鄰","STREET":"中興路","SECT":" ","MAREA":" ","LANE":" ","ALLEY":" ","HOUSE_NO":"９６號","E_COORD97":188991.28,"N_COORD97":2580233.6600000001,"ADDRESS":"中興路９６號","OBJECTID":468633},"geometry":{"x":188991.28000000212,"y":2580233.660000002}},{"attributes":{"ID":468659,"DIS_CODE":0,"TOWNNAME":"東山區","LI":"東中里","LIN":"5鄰","STREET":"中興路","SECT":" ","MAREA":" ","LANE":" ","ALLEY":" ","HOUSE_NO":"９８號","E_COORD97":188990.44,"N_COORD97":2580237.4700000002,"ADDRESS":"中興路９８號","OBJECTID":468634},"geometry":{"x":188990.44000000227,"y":2580237.4700000007}},{"attributes":{"ID":468660,"DIS_CODE":0,"TOWNNAME":"新營區","LI":"好平里","LIN":"5鄰","STREET":"新進路","SECT":"二段","MAREA":" ","LANE":" ","ALLEY":" ","HOUSE_NO":"８１號","E_COORD97":179524.32000000001,"N_COORD97":2577721.1299999999,"ADDRESS":"新進路二段８１號","OBJECTID":468635},"geometry":{"x":179524.3200000003,"y":2577721.129999999}},{"attributes":{"ID":468661,"DIS_CODE":0,"TOWNNAME":"新營區","LI":"好平里","LIN":"5鄰","STREET":"新進路","SECT":"二段","MAREA":" ","LANE":" ","ALLEY":" ","HOUSE_NO":"１０６號","E_COORD97":179472.41,"N_COORD97":2577742.4199999999,"ADDRESS":"新進路二段１０６號","OBJECTID":468636},"geometry":{"x":179472.41000000108,"y":2577742.4200000018}},{"attributes":{"ID":468662,"DIS_CODE":0,"TOWNNAME":"新營區","LI":"新南里","LIN":"5鄰","STREET":"新北三街","SECT":" ","MAREA":" ","LANE":" ","ALLEY":" ","HOUSE_NO":"９２號","E_COORD97":178565.92000000001,"N_COORD97":2578817.6600000001,"ADDRESS":"新北三街９２號","OBJECTID":468637},"geometry":{"x":178565.91999999993,"y":2578817.6600000001}},{"attributes":{"ID":468663,"DIS_CODE":0,"TOWNNAME":"新營區","LI":"大宏里","LIN":"5鄰","STREET":"民族路","SECT":" ","MAREA":" ","LANE":" ","ALLEY":" ","HOUSE_NO":"１３號","E_COORD97":180279.89000000001,"N_COORD97":2578529.3199999998,"ADDRESS":"民族路１３號","OBJECTID":468638},"geometry":{"x":180279.88999999966,"y":2578529.3200000003}},{"attributes":{"ID":468664,"DIS_CODE":0,"TOWNNAME":"新營區","LI":"新南里","LIN":"5鄰","STREET":"新北三街","SECT":" ","MAREA":" ","LANE":" ","ALLEY":" ","HOUSE_NO":"８０號","E_COORD97":178540.34,"N_COORD97":2578794.5299999998,"ADDRESS":"新北三街８０號","OBJECTID":468639},"geometry":{"x":178540.34000000078,"y":2578794.5299999993}},{"attributes":{"ID":468665,"DIS_CODE":0,"TOWNNAME":"新營區","LI":"延平里","LIN":"5鄰","STREET":"長春街","SECT":" ","MAREA":" ","LANE":" ","ALLEY":" ","HOUSE_NO":"２之３３號","E_COORD97":179690.29000000001,"N_COORD97":2577895.3799999999,"ADDRESS":"長春街２之３３號","OBJECTID":468640},"geometry":{"x":179690.29000000097,"y":2577895.3800000008}},{"attributes":{"ID":468666,"DIS_CODE":0,"TOWNNAME":"新營區","LI":"好平里","LIN":"5鄰","STREET":"南昌街","SECT":" ","MAREA":" ","LANE":" ","ALLEY":" ","HOUSE_NO":"４４號之１０","E_COORD97":179461.39000000001,"N_COORD97":2577679.4100000001,"ADDRESS":"南昌街４４號之１０","OBJECTID":468641},"geometry":{"x":179461.39000000153,"y":2577679.410000002}},{"attributes":{"ID":468667,"DIS_CODE":0,"TOWNNAME":"新營區","LI":"新南里","LIN":"5鄰","STREET":"新北三街","SECT":" ","MAREA":" ","LANE":" ","ALLEY":" ","HOUSE_NO":"８８號","E_COORD97":178558.84,"N_COORD97":2578812.1600000001,"ADDRESS":"新北三街８８號","OBJECTID":468642},"geometry":{"x":178558.84000000078,"y":2578812.1600000039}},{"attributes":{"ID":468668,"DIS_CODE":0,"TOWNNAME":"新營區","LI":"興安里","LIN":"5鄰","STREET":"工業街","SECT":" ","MAREA":" ","LANE":" ","ALLEY":" ","HOUSE_NO":"６１號","E_COORD97":180605.19,"N_COORD97":2577878.8100000001,"ADDRESS":"工業街６１號","OBJECTID":468643},"geometry":{"x":180605.19000000041,"y":2577878.8099999987}},{"attributes":{"ID":468669,"DIS_CODE":0,"TOWNNAME":"新營區","LI":"新南里","LIN":"5鄰","STREET":"新北三街","SECT":" ","MAREA":" ","LANE":" ","ALLEY":" ","HOUSE_NO":"５２號","E_COORD97":178559.63,"N_COORD97":2578775.6099999999,"ADDRESS":"新北三街５２號","OBJECTID":468644},"geometry":{"x":178559.62999999896,"y":2578775.6100000013}},{"attributes":{"ID":468670,"DIS_CODE":0,"TOWNNAME":"新營區","LI":"延平里","LIN":"5鄰","STREET":"長春街","SECT":" ","MAREA":" ","LANE":" ","ALLEY":" ","HOUSE_NO":"２之２號","E_COORD97":179759.394011,"N_COORD97":2577936.0973399999,"ADDRESS":"長春街２之２號","OBJECTID":468645},"geometry":{"x":179759.3940110011,"y":2577936.0973380003}},{"attributes":{"ID":468671,"DIS_CODE":0,"TOWNNAME":"新營區","LI":"新北里","LIN":"5鄰","STREET":"三興街","SECT":" ","MAREA":" ","LANE":" ","ALLEY":" ","HOUSE_NO":"１０５號之５","E_COORD97":179417.38,"N_COORD97":2579237.7999999998,"ADDRESS":"三興街１０５號之５","OBJECTID":468646},"geometry":{"x":179417.37999999896,"y":2579237.8000000007}},{"attributes":{"ID":468672,"DIS_CODE":0,"TOWNNAME":"新營區","LI":"新北里","LIN":"5鄰","STREET":"三興街","SECT":" ","MAREA":" ","LANE":" ","ALLEY":" ","HOUSE_NO":"１０９號之５","E_COORD97":179431.88,"N_COORD97":2579274.2799999998,"ADDRESS":"三興街１０９號之５","OBJECTID":468647},"geometry":{"x":179431.88000000082,"y":2579274.2799999993}},{"attributes":{"ID":468673,"DIS_CODE":0,"TOWNNAME":"新營區","LI":"新北里","LIN":"5鄰","STREET":"三興街","SECT":" ","MAREA":" ","LANE":" ","ALLEY":" ","HOUSE_NO":"１０５號之７","E_COORD97":179410.14000000001,"N_COORD97":2579237.8300000001,"ADDRESS":"三興街１０５號之７","OBJECTID":468648},"geometry":{"x":179410.13999999966,"y":2579237.8300000038}},{"attributes":{"ID":468674,"DIS_CODE":0,"TOWNNAME":"新營區","LI":"民權里","LIN":"5鄰","STREET":"三民路","SECT":" ","MAREA":" ","LANE":" ","ALLEY":" ","HOUSE_NO":"８８號之１","E_COORD97":180010.79000000001,"N_COORD97":2578475.27,"ADDRESS":"三民路８８號之１","OBJECTID":468649},"geometry":{"x":180010.79000000004,"y":2578475.2700000014}},{"attributes":{"ID":468675,"DIS_CODE":0,"TOWNNAME":"新營區","LI":"新北里","LIN":"5鄰","STREET":"三興街","SECT":" ","MAREA":" ","LANE":" ","ALLEY":" ","HOUSE_NO":"１０９號之３","E_COORD97":179426.60999999999,"N_COORD97":2579255.48,"ADDRESS":"三興街１０９號之３","OBJECTID":468650},"geometry":{"x":179426.6100000022,"y":2579255.4800000023}},{"attributes":{"ID":468676,"DIS_CODE":0,"TOWNNAME":"新營區","LI":"新北里","LIN":"5鄰","STREET":"三興街","SECT":" ","MAREA":" ","LANE":" ","ALLEY":" ","HOUSE_NO":"１０９號之７","E_COORD97":179420.57000000001,"N_COORD97":2579278.77,"ADDRESS":"三興街１０９號之７","OBJECTID":468651},"geometry":{"x":179420.57000000123,"y":2579278.7700000014}},{"attributes":{"ID":468677,"DIS_CODE":0,"TOWNNAME":"新營區","LI":"新北里","LIN":"5鄰","STREET":"三興街","SECT":" ","MAREA":" ","LANE":" ","ALLEY":" ","HOUSE_NO":"１０５號之２","E_COORD97":179409.10999999999,"N_COORD97":2579222.3399999999,"ADDRESS":"三興街１０５號之２","OBJECTID":468652},"geometry":{"x":179409.11000000034,"y":2579222.3400000017}},{"attributes":{"ID":468678,"DIS_CODE":0,"TOWNNAME":"新營區","LI":"南紙里","LIN":"5鄰","STREET":"南紙街","SECT":" ","MAREA":" ","LANE":" ","ALLEY":" ","HOUSE_NO":"５５號","E_COORD97":177824.88,"N_COORD97":2577655.1099999999,"ADDRESS":"南紙街５５號","OBJECTID":468653},"geometry":{"x":177824.87999999989,"y":2577655.1099999994}},{"attributes":{"ID":468679,"DIS_CODE":0,"TOWNNAME":"新營區","LI":"中營里","LIN":"5鄰","STREET":"中山路","SECT":" ","MAREA":" ","LANE":" ","ALLEY":" ","HOUSE_NO":"２０之１號","E_COORD97":180662.39999999999,"N_COORD97":2578422.3700000001,"ADDRESS":"中山路２０之１號","OBJECTID":468654},"geometry":{"x":180662.4000000013,"y":2578422.3700000029}},{"attributes":{"ID":468680,"DIS_CODE":0,"TOWNNAME":"新營區","LI":"新南里","LIN":"5鄰","STREET":"新北三街","SECT":" ","MAREA":" ","LANE":" ","ALLEY":" ","HOUSE_NO":"１２８號","E_COORD97":178504.67999999999,"N_COORD97":2578790.2799999998,"ADDRESS":"新北三街１２８號","OBJECTID":468655},"geometry":{"x":178504.6799999997,"y":2578790.2800000012}},{"attributes":{"ID":468681,"DIS_CODE":0,"TOWNNAME":"新營區","LI":"忠政里","LIN":"5鄰","STREET":"安和街","SECT":" ","MAREA":" ","LANE":" ","ALLEY":" ","HOUSE_NO":"２７之１號","E_COORD97":180001.54999999999,"N_COORD97":2579256.0699999998,"ADDRESS":"安和街２７之１號","OBJECTID":468656},"geometry":{"x":180001.55000000075,"y":2579256.0700000003}},{"attributes":{"ID":468682,"DIS_CODE":0,"TOWNNAME":"新營區","LI":"忠政里","LIN":"5鄰","STREET":"安和街","SECT":" ","MAREA":" ","LANE":" ","ALLEY":" ","HOUSE_NO":"１１號","E_COORD97":180049.07000000001,"N_COORD97":2579251.3599999999,"ADDRESS":"安和街１１號","OBJECTID":468657},"geometry":{"x":180049.07000000216,"y":2579251.3600000013}},{"attributes":{"ID":468683,"DIS_CODE":0,"TOWNNAME":"新營區","LI":"大宏里","LIN":"5鄰","STREET":"三民路","SECT":" ","MAREA":" ","LANE":" ","ALLEY":" ","HOUSE_NO":"５４號","E_COORD97":180282.84,"N_COORD97":2578499.3900000001,"ADDRESS":"三民路５４號","OBJECTID":468658},"geometry":{"x":180282.84000000078,"y":2578499.3900000025}},{"attributes":{"ID":468684,"DIS_CODE":0,"TOWNNAME":"新營區","LI":"忠政里","LIN":"5鄰","STREET":"安和街","SECT":" ","MAREA":" ","LANE":" ","ALLEY":" ","HOUSE_NO":"３５號","E_COORD97":179982.70000000001,"N_COORD97":2579257.21,"ADDRESS":"安和街３５號","OBJECTID":468659},"geometry":{"x":179982.70000000019,"y":2579257.2100000028}},{"attributes":{"ID":468685,"DIS_CODE":0,"TOWNNAME":"北區","LI":"安民里","LIN":"5鄰","STREET":"康樂街","SECT":" ","MAREA":" ","LANE":" ","ALLEY":" ","HOUSE_NO":"４０４號","E_COORD97":167780.10999999999,"N_COORD97":2544716.4700000002,"ADDRESS":"康樂街４０４號","OBJECTID":468660},"geometry":{"x":167780.11000000034,"y":2544716.4700000007}},{"attributes":{"ID":468686,"DIS_CODE":0,"TOWNNAME":"鹽水區","LI":"水正里","LIN":"5鄰","STREET":"中正路","SECT":" ","MAREA":" ","LANE":" ","ALLEY":" ","HOUSE_NO":"２５號","E_COORD97":175130.70999999999,"N_COORD97":2579919.9199999999,"ADDRESS":"中正路２５號","OBJECTID":468661},"geometry":{"x":175130.71000000089,"y":2579919.9200000018}},{"attributes":{"ID":468687,"DIS_CODE":0,"TOWNNAME":"鹽水區","LI":"水正里","LIN":"5鄰","STREET":"中正路","SECT":" ","MAREA":" ","LANE":" ","ALLEY":" ","HOUSE_NO":"２７號","E_COORD97":175129.16,"N_COORD97":2579915.23,"ADDRESS":"中正路２７號","OBJECTID":468662},"geometry":{"x":175129.16000000108,"y":2579915.2300000023}},{"attributes":{"ID":468688,"DIS_CODE":0,"TOWNNAME":"鹽水區","LI":"水正里","LIN":"5鄰","STREET":"中正路","SECT":" ","MAREA":" ","LANE":" ","ALLEY":" ","HOUSE_NO":"２９號","E_COORD97":175127.92999999999,"N_COORD97":2579910.8399999999,"ADDRESS":"中正路２９號","OBJECTID":468663},"geometry":{"x":175127.9299999997,"y":2579910.8399999999}},{"attributes":{"ID":468689,"DIS_CODE":0,"TOWNNAME":"鹽水區","LI":"中境里","LIN":"5鄰","STREET":"中正路","SECT":" ","MAREA":" ","LANE":" ","ALLEY":" ","HOUSE_NO":"３０號","E_COORD97":175109.98999999999,"N_COORD97":2579956.8700000001,"ADDRESS":"中正路３０號","OBJECTID":468664},"geometry":{"x":175109.99000000115,"y":2579956.870000001}},{"attributes":{"ID":468690,"DIS_CODE":0,"TOWNNAME":"鹽水區","LI":"水正里","LIN":"5鄰","STREET":"中正路","SECT":" ","MAREA":" ","LANE":" ","ALLEY":" ","HOUSE_NO":"３１號","E_COORD97":175126.73000000001,"N_COORD97":2579906.54,"ADDRESS":"中正路３１號","OBJECTID":468665},"geometry":{"x":175126.73000000045,"y":2579906.5399999972}},{"attributes":{"ID":468691,"DIS_CODE":0,"TOWNNAME":"鹽水區","LI":"中境里","LIN":"5鄰","STREET":"中正路","SECT":" ","MAREA":" ","LANE":" ","ALLEY":" ","HOUSE_NO":"３２號","E_COORD97":175109.16,"N_COORD97":2579952.6600000001,"ADDRESS":"中正路３２號","OBJECTID":468666},"geometry":{"x":175109.16000000108,"y":2579952.660000002}},{"attributes":{"ID":468692,"DIS_CODE":0,"TOWNNAME":"鹽水區","LI":"中境里","LIN":"5鄰","STREET":"中正路","SECT":" ","MAREA":" ","LANE":" ","ALLEY":" ","HOUSE_NO":"３４號","E_COORD97":175107.57999999999,"N_COORD97":2579948.04,"ADDRESS":"中正路３４號","OBJECTID":468667},"geometry":{"x":175107.58000000101,"y":2579948.040000001}},{"attributes":{"ID":468693,"DIS_CODE":0,"TOWNNAME":"鹽水區","LI":"水正里","LIN":"5鄰","STREET":"中正路","SECT":" ","MAREA":" ","LANE":" ","ALLEY":" ","HOUSE_NO":"３５號","E_COORD97":175124.38,"N_COORD97":2579896.4300000002,"ADDRESS":"中正路３５號","OBJECTID":468668},"geometry":{"x":175124.38000000082,"y":2579896.4299999997}},{"attributes":{"ID":468694,"DIS_CODE":0,"TOWNNAME":"鹽水區","LI":"中境里","LIN":"5鄰","STREET":"中正路","SECT":" ","MAREA":" ","LANE":" ","ALLEY":" ","HOUSE_NO":"３６號","E_COORD97":175105.95999999999,"N_COORD97":2579943.1400000001,"ADDRESS":"中正路３６號","OBJECTID":468669},"geometry":{"x":175105.95999999996,"y":2579943.1400000025}},{"attributes":{"ID":468695,"DIS_CODE":0,"TOWNNAME":"鹽水區","LI":"中境里","LIN":"5鄰","STREET":"中正路","SECT":" ","MAREA":" ","LANE":" ","ALLEY":" ","HOUSE_NO":"３８號","E_COORD97":175104.51999999999,"N_COORD97":2579938.7000000002,"ADDRESS":"中正路３８號","OBJECTID":468670},"geometry":{"x":175104.51999999955,"y":2579938.6999999993}},{"attributes":{"ID":468696,"DIS_CODE":0,"TOWNNAME":"鹽水區","LI":"中境里","LIN":"5鄰","STREET":"中正路","SECT":" ","MAREA":" ","LANE":" ","ALLEY":" ","HOUSE_NO":"４０號","E_COORD97":175104.23000000001,"N_COORD97":2579934.46,"ADDRESS":"中正路４０號","OBJECTID":468671},"geometry":{"x":175104.23000000045,"y":2579934.4600000028}},{"attributes":{"ID":468697,"DIS_CODE":0,"TOWNNAME":"鹽水區","LI":"中境里","LIN":"5鄰","STREET":"中正路","SECT":" ","MAREA":" ","LANE":" ","ALLEY":" ","HOUSE_NO":"４２號","E_COORD97":175102.69,"N_COORD97":2579930.1200000001,"ADDRESS":"中正路４２號","OBJECTID":468672},"geometry":{"x":175102.69000000041,"y":2579930.1200000029}},{"attributes":{"ID":468698,"DIS_CODE":0,"TOWNNAME":"鹽水區","LI":"中境里","LIN":"5鄰","STREET":"中正路","SECT":" ","MAREA":" ","LANE":" ","ALLEY":" ","HOUSE_NO":"４４號","E_COORD97":175101.44,"N_COORD97":2579925.79,"ADDRESS":"中正路４４號","OBJECTID":468673},"geometry":{"x":175101.44000000041,"y":2579925.790000001}},{"attributes":{"ID":468699,"DIS_CODE":0,"TOWNNAME":"鹽水區","LI":"中境里","LIN":"5鄰","STREET":"中正路","SECT":" ","MAREA":" ","LANE":" ","ALLEY":" ","HOUSE_NO":"４６號","E_COORD97":175100.25,"N_COORD97":2579921.8100000001,"ADDRESS":"中正路４６號","OBJECTID":468674},"geometry":{"x":175100.25,"y":2579921.8100000005}},{"attributes":{"ID":468700,"DIS_CODE":0,"TOWNNAME":"關廟區","LI":"北花里","LIN":"5鄰","STREET":"花園二街","SECT":" ","MAREA":" ","LANE":" ","ALLEY":" ","HOUSE_NO":"５１號","E_COORD97":182077.44,"N_COORD97":2540291.25,"ADDRESS":"花園二街５１號","OBJECTID":468675},"geometry":{"x":182077.44000000227,"y":2540291.2500000019}},{"attributes":{"ID":468701,"DIS_CODE":0,"TOWNNAME":"關廟區","LI":"下湖里","LIN":"5鄰","STREET":"下湖二街","SECT":" ","MAREA":" ","LANE":" ","ALLEY":" ","HOUSE_NO":"７０號","E_COORD97":179404.44,"N_COORD97":2543022.25,"ADDRESS":"下湖二街７０號","OBJECTID":468676},"geometry":{"x":179404.44000000134,"y":2543022.2499999981}},{"attributes":{"ID":468702,"DIS_CODE":0,"TOWNNAME":"關廟區","LI":"下湖里","LIN":"5鄰","STREET":"下湖二街","SECT":" ","MAREA":" ","LANE":" ","ALLEY":" ","HOUSE_NO":"４５號","E_COORD97":179371.64000000001,"N_COORD97":2542991.2999999998,"ADDRESS":"下湖二街４５號","OBJECTID":468677},"geometry":{"x":179371.6400000006,"y":2542991.3000000007}},{"attributes":{"ID":468703,"DIS_CODE":0,"TOWNNAME":"關廟區","LI":"五甲里","LIN":"5鄰","STREET":"大順路","SECT":" ","MAREA":" ","LANE":" ","ALLEY":" ","HOUSE_NO":"１５６號","E_COORD97":181271.37,"N_COORD97":2538678.25,"ADDRESS":"大順路１５６號","OBJECTID":468678},"geometry":{"x":181271.37000000104,"y":2538678.25}},{"attributes":{"ID":468704,"DIS_CODE":0,"TOWNNAME":"關廟區","LI":"山西里","LIN":"5鄰","STREET":"正義街","SECT":" ","MAREA":" ","LANE":" ","ALLEY":" ","HOUSE_NO":"８２號","E_COORD97":180878.85999999999,"N_COORD97":2540280.27,"ADDRESS":"正義街８２號","OBJECTID":468679},"geometry":{"x":180878.86000000034,"y":2540280.2700000014}},{"attributes":{"ID":468705,"DIS_CODE":0,"TOWNNAME":"關廟區","LI":"五甲里","LIN":"5鄰","STREET":"五甲路","SECT":" ","MAREA":" ","LANE":" ","ALLEY":" ","HOUSE_NO":"１７號","E_COORD97":181275.92000000001,"N_COORD97":2539087.25,"ADDRESS":"五甲路１７號","OBJECTID":468680},"geometry":{"x":181275.92000000086,"y":2539087.2500000019}},{"attributes":{"ID":468706,"DIS_CODE":0,"TOWNNAME":"關廟區","LI":"下湖里","LIN":"5鄰","STREET":"下湖二街","SECT":" ","MAREA":" ","LANE":" ","ALLEY":" ","HOUSE_NO":"４７號","E_COORD97":179380.54000000001,"N_COORD97":2543001.2999999998,"ADDRESS":"下湖二街４７號","OBJECTID":468681},"geometry":{"x":179380.54000000004,"y":2543001.3000000007}},{"attributes":{"ID":468707,"DIS_CODE":0,"TOWNNAME":"關廟區","LI":"松腳里","LIN":"5鄰","STREET":"中山路","SECT":"一段","MAREA":" ","LANE":" ","ALLEY":" ","HOUSE_NO":"１１號","E_COORD97":182089.70999999999,"N_COORD97":2539944.2799999998,"ADDRESS":"中山路一段１１號","OBJECTID":468682},"geometry":{"x":182089.70999999996,"y":2539944.2800000012}},{"attributes":{"ID":468708,"DIS_CODE":0,"TOWNNAME":"關廟區","LI":"松腳里","LIN":"5鄰","STREET":"中山路","SECT":"一段","MAREA":" ","LANE":" ","ALLEY":" ","HOUSE_NO":"４７號","E_COORD97":182008.70999999999,"N_COORD97":2539949.2799999998,"ADDRESS":"中山路一段４７號","OBJECTID":468683},"geometry":{"x":182008.70999999996,"y":2539949.2799999993}},{"attributes":{"ID":468709,"DIS_CODE":0,"TOWNNAME":"關廟區","LI":"松腳里","LIN":"5鄰","STREET":"中山路","SECT":"一段","MAREA":" ","LANE":" ","ALLEY":" ","HOUSE_NO":"５６號","E_COORD97":182044.01000000001,"N_COORD97":2539983.2799999998,"ADDRESS":"中山路一段５６號","OBJECTID":468684},"geometry":{"x":182044.01000000164,"y":2539983.2799999993}},{"attributes":{"ID":468710,"DIS_CODE":0,"TOWNNAME":"關廟區","LI":"山西里","LIN":"5鄰","STREET":"文衡路","SECT":" ","MAREA":" ","LANE":" ","ALLEY":" ","HOUSE_NO":"８３號","E_COORD97":180893.48999999999,"N_COORD97":2540268.3300000001,"ADDRESS":"文衡路８３號","OBJECTID":468685},"geometry":{"x":180893.48999999929,"y":2540268.3300000001}},{"attributes":{"ID":468711,"DIS_CODE":0,"TOWNNAME":"關廟區","LI":"松腳里","LIN":"5鄰","STREET":"中山路","SECT":"一段","MAREA":" ","LANE":" ","ALLEY":" ","HOUSE_NO":"５８號","E_COORD97":182070.51000000001,"N_COORD97":2539985.2799999998,"ADDRESS":"中山路一段５８號","OBJECTID":468686},"geometry":{"x":182070.50999999978,"y":2539985.2800000012}},{"attributes":{"ID":468712,"DIS_CODE":0,"TOWNNAME":"關廟區","LI":"深坑里","LIN":"5鄰","STREET":"深坑三街","SECT":" ","MAREA":" ","LANE":" ","ALLEY":" ","HOUSE_NO":"６２號","E_COORD97":181904.47,"N_COORD97":2537694.2799999998,"ADDRESS":"深坑三街６２號","OBJECTID":468687},"geometry":{"x":181904.46999999974,"y":2537694.2799999993}},{"attributes":{"ID":468713,"DIS_CODE":0,"TOWNNAME":"關廟區","LI":"香洋里","LIN":"5鄰","STREET":"市場北街","SECT":" ","MAREA":" ","LANE":" ","ALLEY":" ","HOUSE_NO":"１００號","E_COORD97":181098.54000000001,"N_COORD97":2540216.25,"ADDRESS":"市場北街１００號","OBJECTID":468688},"geometry":{"x":181098.54000000097,"y":2540216.2500000019}},{"attributes":{"ID":468714,"DIS_CODE":0,"TOWNNAME":"關廟區","LI":"布袋里","LIN":"5鄰","STREET":"長文街","SECT":" ","MAREA":" ","LANE":" ","ALLEY":" ","HOUSE_NO":"６９號","E_COORD97":182975.89000000001,"N_COORD97":2535458.25,"ADDRESS":"長文街６９號","OBJECTID":468689},"geometry":{"x":182975.8900000006,"y":2535458.2499999981}},{"attributes":{"ID":468715,"DIS_CODE":0,"TOWNNAME":"關廟區","LI":"深坑里","LIN":"5鄰","STREET":"深坑三街","SECT":" ","MAREA":" ","LANE":" ","ALLEY":" ","HOUSE_NO":"４０號","E_COORD97":181828.47,"N_COORD97":2537737.2799999998,"ADDRESS":"深坑三街４０號","OBJECTID":468690},"geometry":{"x":181828.46999999974,"y":2537737.2800000012}},{"attributes":{"ID":468716,"DIS_CODE":0,"TOWNNAME":"關廟區","LI":"深坑里","LIN":"5鄰","STREET":"深坑三街","SECT":" ","MAREA":" ","LANE":" ","ALLEY":" ","HOUSE_NO":"５１號","E_COORD97":181894.37,"N_COORD97":2537739.2999999998,"ADDRESS":"深坑三街５１號","OBJECTID":468691},"geometry":{"x":181894.36999999918,"y":2537739.3000000007}},{"attributes":{"ID":468717,"DIS_CODE":0,"TOWNNAME":"關廟區","LI":"北花里","LIN":"5鄰","STREET":"園東街","SECT":" ","MAREA":" ","LANE":" ","ALLEY":" ","HOUSE_NO":"１３５號","E_COORD97":182022.10999999999,"N_COORD97":2540213.25,"ADDRESS":"園東街１３５號","OBJECTID":468692},"geometry":{"x":182022.11000000127,"y":2540213.2500000019}},{"attributes":{"ID":468718,"DIS_CODE":0,"TOWNNAME":"關廟區","LI":"深坑里","LIN":"5鄰","STREET":"深坑三街","SECT":" ","MAREA":" ","LANE":" ","ALLEY":" ","HOUSE_NO":"６６號","E_COORD97":181884.76999999999,"N_COORD97":2537691.2999999998,"ADDRESS":"深坑三街６６號","OBJECTID":468693},"geometry":{"x":181884.77000000048,"y":2537691.3000000026}},{"attributes":{"ID":468719,"DIS_CODE":0,"TOWNNAME":"關廟區","LI":"南花里","LIN":"5鄰","STREET":"花園一街","SECT":" ","MAREA":" ","LANE":" ","ALLEY":" ","HOUSE_NO":"８７號","E_COORD97":181921.14000000001,"N_COORD97":2540177.25,"ADDRESS":"花園一街８７號","OBJECTID":468694},"geometry":{"x":181921.1400000006,"y":2540177.25}},{"attributes":{"ID":468720,"DIS_CODE":0,"TOWNNAME":"關廟區","LI":"北花里","LIN":"5鄰","STREET":"花園二街","SECT":" ","MAREA":" ","LANE":" ","ALLEY":" ","HOUSE_NO":"４７號","E_COORD97":182086.23999999999,"N_COORD97":2540289.25,"ADDRESS":"花園二街４７號","OBJECTID":468695},"geometry":{"x":182086.24000000022,"y":2540289.25}},{"attributes":{"ID":468721,"DIS_CODE":0,"TOWNNAME":"關廟區","LI":"關廟里","LIN":"5鄰","STREET":"中山路","SECT":"二段","MAREA":" ","LANE":" ","ALLEY":" ","HOUSE_NO":"１３９號","E_COORD97":180838.81,"N_COORD97":2540031.6800000002,"ADDRESS":"中山路二段１３９號","OBJECTID":468696},"geometry":{"x":180838.81000000052,"y":2540031.6799999997}},{"attributes":{"ID":468722,"DIS_CODE":0,"TOWNNAME":"關廟區","LI":"龜洞里","LIN":"5鄰","STREET":"南橋街","SECT":" ","MAREA":" ","LANE":" ","ALLEY":" ","HOUSE_NO":"３２號","E_COORD97":182221.94,"N_COORD97":2532682.25,"ADDRESS":"南橋街３２號","OBJECTID":468697},"geometry":{"x":182221.94000000134,"y":2532682.2500000019}},{"attributes":{"ID":468723,"DIS_CODE":0,"TOWNNAME":"關廟區","LI":"香洋里","LIN":"5鄰","STREET":"市場北街","SECT":" ","MAREA":" ","LANE":" ","ALLEY":" ","HOUSE_NO":"１１２號","E_COORD97":181077.34,"N_COORD97":2540221.25,"ADDRESS":"市場北街１１２號","OBJECTID":468698},"geometry":{"x":181077.34000000171,"y":2540221.25}},{"attributes":{"ID":468724,"DIS_CODE":0,"TOWNNAME":"關廟區","LI":"香洋里","LIN":"5鄰","STREET":"忠孝街","SECT":" ","MAREA":" ","LANE":" ","ALLEY":" ","HOUSE_NO":"１２２號","E_COORD97":181026.04000000001,"N_COORD97":2540273.25,"ADDRESS":"忠孝街１２２號","OBJECTID":468699},"geometry":{"x":181026.04000000097,"y":2540273.2500000019}},{"attributes":{"ID":468725,"DIS_CODE":0,"TOWNNAME":"關廟區","LI":"南花里","LIN":"5鄰","STREET":"花園一街","SECT":" ","MAREA":" ","LANE":" ","ALLEY":" ","HOUSE_NO":"７０號","E_COORD97":181996.04000000001,"N_COORD97":2540185.25,"ADDRESS":"花園一街７０號","OBJECTID":468700},"geometry":{"x":181996.04000000004,"y":2540185.2500000019}},{"attributes":{"ID":468726,"DIS_CODE":0,"TOWNNAME":"關廟區","LI":"布袋里","LIN":"5鄰","STREET":"南雄南路","SECT":" ","MAREA":" ","LANE":" ","ALLEY":" ","HOUSE_NO":"１７８號","E_COORD97":183104.09,"N_COORD97":2535536.25,"ADDRESS":"南雄南路１７８號","OBJECTID":468701},"geometry":{"x":183104.08999999985,"y":2535536.2499999981}},{"attributes":{"ID":468727,"DIS_CODE":0,"TOWNNAME":"關廟區","LI":"北花里","LIN":"5鄰","STREET":"旺萊路","SECT":" ","MAREA":" ","LANE":" ","ALLEY":" ","HOUSE_NO":"５７７號","E_COORD97":182218.64000000001,"N_COORD97":2540292.25,"ADDRESS":"旺萊路５７７號","OBJECTID":468702},"geometry":{"x":182218.63999999966,"y":2540292.25}},{"attributes":{"ID":468728,"DIS_CODE":0,"TOWNNAME":"關廟區","LI":"南花里","LIN":"5鄰","STREET":"花園一街","SECT":" ","MAREA":" ","LANE":" ","ALLEY":" ","HOUSE_NO":"８０號","E_COORD97":181960.73999999999,"N_COORD97":2540187.25,"ADDRESS":"花園一街８０號","OBJECTID":468703},"geometry":{"x":181960.74000000115,"y":2540187.25}},{"attributes":{"ID":468729,"DIS_CODE":0,"TOWNNAME":"關廟區","LI":"關廟里","LIN":"5鄰","STREET":"中山路","SECT":"二段","MAREA":" ","LANE":" ","ALLEY":" ","HOUSE_NO":"１４９號","E_COORD97":180813.81,"N_COORD97":2540036.6800000002,"ADDRESS":"中山路二段１４９號","OBJECTID":468704},"geometry":{"x":180813.80999999959,"y":2540036.6800000016}},{"attributes":{"ID":468730,"DIS_CODE":0,"TOWNNAME":"關廟區","LI":"香洋里","LIN":"5鄰","STREET":"市場北街","SECT":" ","MAREA":" ","LANE":" ","ALLEY":" ","HOUSE_NO":"１１０號","E_COORD97":181082.04000000001,"N_COORD97":2540220.25,"ADDRESS":"市場北街１１０號","OBJECTID":468705},"geometry":{"x":181082.04000000097,"y":2540220.25}},{"attributes":{"ID":468731,"DIS_CODE":0,"TOWNNAME":"關廟區","LI":"南花里","LIN":"5鄰","STREET":"花園一街","SECT":" ","MAREA":" ","LANE":" ","ALLEY":" ","HOUSE_NO":"８８號","E_COORD97":181952.23999999999,"N_COORD97":2540206.25,"ADDRESS":"花園一街８８號","OBJECTID":468706},"geometry":{"x":181952.24000000115,"y":2540206.2500000019}},{"attributes":{"ID":468732,"DIS_CODE":0,"TOWNNAME":"關廟區","LI":"南花里","LIN":"5鄰","STREET":"花園一街","SECT":" ","MAREA":" ","LANE":" ","ALLEY":" ","HOUSE_NO":"８１號","E_COORD97":181937.34,"N_COORD97":2540175.25,"ADDRESS":"花園一街８１號","OBJECTID":468707},"geometry":{"x":181937.34000000078,"y":2540175.2500000019}},{"attributes":{"ID":468733,"DIS_CODE":0,"TOWNNAME":"關廟區","LI":"深坑里","LIN":"5鄰","STREET":"深坑三街","SECT":" ","MAREA":" ","LANE":" ","ALLEY":" ","HOUSE_NO":"７２號","E_COORD97":181877.26999999999,"N_COORD97":2537664.2799999998,"ADDRESS":"深坑三街７２號","OBJECTID":468708},"geometry":{"x":181877.26999999955,"y":2537664.2799999993}},{"attributes":{"ID":468734,"DIS_CODE":0,"TOWNNAME":"關廟區","LI":"南花里","LIN":"5鄰","STREET":"花園一街","SECT":" ","MAREA":" ","LANE":" ","ALLEY":" ","HOUSE_NO":"８５號","E_COORD97":181925.04000000001,"N_COORD97":2540176.25,"ADDRESS":"花園一街８５號","OBJECTID":468709},"geometry":{"x":181925.04000000004,"y":2540176.25}},{"attributes":{"ID":468735,"DIS_CODE":0,"TOWNNAME":"關廟區","LI":"南花里","LIN":"5鄰","STREET":"園東街","SECT":" ","MAREA":" ","LANE":" ","ALLEY":" ","HOUSE_NO":"９０號","E_COORD97":182025.85999999999,"N_COORD97":2540136.25,"ADDRESS":"園東街９０號","OBJECTID":468710},"geometry":{"x":182025.86000000127,"y":2540136.25}},{"attributes":{"ID":468736,"DIS_CODE":0,"TOWNNAME":"關廟區","LI":"關廟里","LIN":"5鄰","STREET":"中山路","SECT":"二段","MAREA":" ","LANE":" ","ALLEY":" ","HOUSE_NO":"１４５號","E_COORD97":180821.51000000001,"N_COORD97":2540034.6800000002,"ADDRESS":"中山路二段１４５號","OBJECTID":468711},"geometry":{"x":180821.50999999978,"y":2540034.6799999997}},{"attributes":{"ID":468737,"DIS_CODE":0,"TOWNNAME":"關廟區","LI":"布袋里","LIN":"5鄰","STREET":"南雄南路","SECT":" ","MAREA":" ","LANE":" ","ALLEY":" ","HOUSE_NO":"２０６號","E_COORD97":183198.19,"N_COORD97":2535414.25,"ADDRESS":"南雄南路２０６號","OBJECTID":468712},"geometry":{"x":183198.19000000134,"y":2535414.2500000037}},{"attributes":{"ID":468738,"DIS_CODE":0,"TOWNNAME":"關廟區","LI":"香洋里","LIN":"5鄰","STREET":"市場北街","SECT":" ","MAREA":" ","LANE":" ","ALLEY":" ","HOUSE_NO":"１２０號","E_COORD97":181055.54000000001,"N_COORD97":2540226.25,"ADDRESS":"市場北街１２０號","OBJECTID":468713},"geometry":{"x":181055.54000000004,"y":2540226.2500000019}},{"attributes":{"ID":468739,"DIS_CODE":0,"TOWNNAME":"關廟區","LI":"深坑里","LIN":"5鄰","STREET":"深坑三街","SECT":" ","MAREA":" ","LANE":" ","ALLEY":" ","HOUSE_NO":"７３號","E_COORD97":181953.07000000001,"N_COORD97":2537686.2999999998,"ADDRESS":"深坑三街７３號","OBJECTID":468714},"geometry":{"x":181953.07000000123,"y":2537686.3000000045}},{"attributes":{"ID":468740,"DIS_CODE":0,"TOWNNAME":"關廟區","LI":"南花里","LIN":"5鄰","STREET":"花園一街","SECT":" ","MAREA":" ","LANE":" ","ALLEY":" ","HOUSE_NO":"７３號","E_COORD97":181964.14000000001,"N_COORD97":2540172.25,"ADDRESS":"花園一街７３號","OBJECTID":468715},"geometry":{"x":181964.1400000006,"y":2540172.2500000019}},{"attributes":{"ID":468741,"DIS_CODE":0,"TOWNNAME":"關廟區","LI":"香洋里","LIN":"5鄰","STREET":"市場北街","SECT":" ","MAREA":" ","LANE":" ","ALLEY":" ","HOUSE_NO":"１０８號","E_COORD97":181086.64000000001,"N_COORD97":2540219.25,"ADDRESS":"市場北街１０８號","OBJECTID":468716},"geometry":{"x":181086.63999999966,"y":2540219.2500000019}},{"attributes":{"ID":468742,"DIS_CODE":0,"TOWNNAME":"關廟區","LI":"北花里","LIN":"5鄰","STREET":"旺萊路","SECT":" ","MAREA":" ","LANE":" ","ALLEY":" ","HOUSE_NO":"５７１號","E_COORD97":182214.04000000001,"N_COORD97":2540278.25,"ADDRESS":"旺萊路５７１號","OBJECTID":468717},"geometry":{"x":182214.04000000097,"y":2540278.25}},{"attributes":{"ID":468743,"DIS_CODE":0,"TOWNNAME":"關廟區","LI":"南花里","LIN":"5鄰","STREET":"花園一街","SECT":" ","MAREA":" ","LANE":" ","ALLEY":" ","HOUSE_NO":"９６號","E_COORD97":181942.34,"N_COORD97":2540196.25,"ADDRESS":"花園一街９６號","OBJECTID":468718},"geometry":{"x":181942.34000000078,"y":2540196.2500000019}},{"attributes":{"ID":468744,"DIS_CODE":0,"TOWNNAME":"關廟區","LI":"埤頭里","LIN":"5鄰","STREET":"關新路","SECT":"一段","MAREA":" ","LANE":" ","ALLEY":" ","HOUSE_NO":"８８３號","E_COORD97":179067.17000000001,"N_COORD97":2544010.25,"ADDRESS":"關新路一段８８３號","OBJECTID":468719},"geometry":{"x":179067.17000000086,"y":2544010.2500000019}},{"attributes":{"ID":468745,"DIS_CODE":0,"TOWNNAME":"關廟區","LI":"北花里","LIN":"5鄰","STREET":"花園二街","SECT":" ","MAREA":" ","LANE":" ","ALLEY":" ","HOUSE_NO":"５號","E_COORD97":182186.29000000001,"N_COORD97":2540258.25,"ADDRESS":"花園二街５號","OBJECTID":468720},"geometry":{"x":182186.29000000004,"y":2540258.25}},{"attributes":{"ID":468746,"DIS_CODE":0,"TOWNNAME":"關廟區","LI":"布袋里","LIN":"5鄰","STREET":"長文街","SECT":" ","MAREA":" ","LANE":" ","ALLEY":" ","HOUSE_NO":"１號","E_COORD97":183099.09,"N_COORD97":2535534.25,"ADDRESS":"長文街１號","OBJECTID":468721},"geometry":{"x":183099.08999999985,"y":2535534.2500000019}},{"attributes":{"ID":468747,"DIS_CODE":0,"TOWNNAME":"關廟區","LI":"南花里","LIN":"5鄰","STREET":"花園一街","SECT":" ","MAREA":" ","LANE":" ","ALLEY":" ","HOUSE_NO":"８６號","E_COORD97":181962.23999999999,"N_COORD97":2540210.25,"ADDRESS":"花園一街８６號","OBJECTID":468722},"geometry":{"x":181962.24000000115,"y":2540210.25}},{"attributes":{"ID":468748,"DIS_CODE":0,"TOWNNAME":"關廟區","LI":"北花里","LIN":"5鄰","STREET":"旺萊路","SECT":" ","MAREA":" ","LANE":" ","ALLEY":" ","HOUSE_NO":"５７９號","E_COORD97":182219.44,"N_COORD97":2540296.25,"ADDRESS":"旺萊路５７９號","OBJECTID":468723},"geometry":{"x":182219.44000000041,"y":2540296.25}},{"attributes":{"ID":468749,"DIS_CODE":0,"TOWNNAME":"關廟區","LI":"香洋里","LIN":"5鄰","STREET":"忠孝街","SECT":" ","MAREA":" ","LANE":" ","ALLEY":" ","HOUSE_NO":"１１８號","E_COORD97":181023.34,"N_COORD97":2540266.25,"ADDRESS":"忠孝街１１８號","OBJECTID":468724},"geometry":{"x":181023.34000000078,"y":2540266.2500000037}},{"attributes":{"ID":468750,"DIS_CODE":0,"TOWNNAME":"關廟區","LI":"北花里","LIN":"5鄰","STREET":"花園二街","SECT":" ","MAREA":" ","LANE":" ","ALLEY":" ","HOUSE_NO":"２２號","E_COORD97":182154.54000000001,"N_COORD97":2540287.25,"ADDRESS":"花園二街２２號","OBJECTID":468725},"geometry":{"x":182154.54000000097,"y":2540287.2500000019}},{"attributes":{"ID":468751,"DIS_CODE":0,"TOWNNAME":"關廟區","LI":"布袋里","LIN":"5鄰","STREET":"長文街","SECT":" ","MAREA":" ","LANE":" ","ALLEY":" ","HOUSE_NO":"６３號","E_COORD97":182994.48999999999,"N_COORD97":2535466.2999999998,"ADDRESS":"長文街６３號","OBJECTID":468726},"geometry":{"x":182994.49000000115,"y":2535466.3000000026}},{"attributes":{"ID":468752,"DIS_CODE":0,"TOWNNAME":"關廟區","LI":"南花里","LIN":"5鄰","STREET":"花園一街","SECT":" ","MAREA":" ","LANE":" ","ALLEY":" ","HOUSE_NO":"７２號","E_COORD97":181982.23999999999,"N_COORD97":2540186.25,"ADDRESS":"花園一街７２號","OBJECTID":468727},"geometry":{"x":181982.24000000115,"y":2540186.2500000019}},{"attributes":{"ID":468753,"DIS_CODE":0,"TOWNNAME":"關廟區","LI":"香洋里","LIN":"5鄰","STREET":"忠孝街","SECT":" ","MAREA":" ","LANE":" ","ALLEY":" ","HOUSE_NO":"１０８號","E_COORD97":181017.64000000001,"N_COORD97":2540247.25,"ADDRESS":"忠孝街１０８號","OBJECTID":468728},"geometry":{"x":181017.6400000006,"y":2540247.2500000019}},{"attributes":{"ID":468754,"DIS_CODE":0,"TOWNNAME":"關廟區","LI":"香洋里","LIN":"5鄰","STREET":"忠孝街","SECT":" ","MAREA":" ","LANE":" ","ALLEY":" ","HOUSE_NO":"１１６號","E_COORD97":181022.23999999999,"N_COORD97":2540262.25,"ADDRESS":"忠孝街１１６號","OBJECTID":468729},"geometry":{"x":181022.24000000022,"y":2540262.25}},{"attributes":{"ID":468755,"DIS_CODE":0,"TOWNNAME":"關廟區","LI":"新光里","LIN":"5鄰","STREET":"北寮街","SECT":" ","MAREA":" ","LANE":" ","ALLEY":" ","HOUSE_NO":"３８號","E_COORD97":184112.76999999999,"N_COORD97":2541815.25,"ADDRESS":"北寮街３８號","OBJECTID":468730},"geometry":{"x":184112.76999999955,"y":2541815.2499999981}},{"attributes":{"ID":468756,"DIS_CODE":0,"TOWNNAME":"關廟區","LI":"埤頭里","LIN":"5鄰","STREET":"關新路","SECT":"一段","MAREA":" ","LANE":" ","ALLEY":" ","HOUSE_NO":"８７７號","E_COORD97":179073.87,"N_COORD97":2543990.2999999998,"ADDRESS":"關新路一段８７７號","OBJECTID":468731},"geometry":{"x":179073.87000000104,"y":2543990.3000000026}},{"attributes":{"ID":468757,"DIS_CODE":0,"TOWNNAME":"關廟區","LI":"南花里","LIN":"5鄰","STREET":"園東街","SECT":" ","MAREA":" ","LANE":" ","ALLEY":" ","HOUSE_NO":"１０８號","E_COORD97":182030.20999999999,"N_COORD97":2540165.25,"ADDRESS":"園東街１０８號","OBJECTID":468732},"geometry":{"x":182030.20999999996,"y":2540165.2500000019}},{"attributes":{"ID":468758,"DIS_CODE":0,"TOWNNAME":"關廟區","LI":"新光里","LIN":"5鄰","STREET":"北寮街","SECT":" ","MAREA":" ","LANE":" ","ALLEY":" ","HOUSE_NO":"５３號","E_COORD97":184107.07000000001,"N_COORD97":2541859.25,"ADDRESS":"北寮街５３號","OBJECTID":468733},"geometry":{"x":184107.0700000003,"y":2541859.2499999981}},{"attributes":{"ID":468759,"DIS_CODE":0,"TOWNNAME":"關廟區","LI":"布袋里","LIN":"5鄰","STREET":"長文街","SECT":" ","MAREA":" ","LANE":" ","ALLEY":" ","HOUSE_NO":"１０７號","E_COORD97":182905.73999999999,"N_COORD97":2535420.2999999998,"ADDRESS":"長文街１０７號","OBJECTID":468734},"geometry":{"x":182905.73999999929,"y":2535420.3000000007}},{"attributes":{"ID":468760,"DIS_CODE":0,"TOWNNAME":"關廟區","LI":"新光里","LIN":"5鄰","STREET":"北寮街","SECT":" ","MAREA":" ","LANE":" ","ALLEY":" ","HOUSE_NO":"６５號","E_COORD97":184144.67000000001,"N_COORD97":2541862.25,"ADDRESS":"北寮街６５號","OBJECTID":468735},"geometry":{"x":184144.66999999993,"y":2541862.25}},{"attributes":{"ID":468761,"DIS_CODE":0,"TOWNNAME":"關廟區","LI":"北花里","LIN":"5鄰","STREET":"花園一街","SECT":" ","MAREA":" ","LANE":" ","ALLEY":" ","HOUSE_NO":"６０號","E_COORD97":182014.44,"N_COORD97":2540183.25,"ADDRESS":"花園一街６０號","OBJECTID":468736},"geometry":{"x":182014.44000000041,"y":2540183.25}},{"attributes":{"ID":468762,"DIS_CODE":0,"TOWNNAME":"關廟區","LI":"南花里","LIN":"5鄰","STREET":"花園一街","SECT":" ","MAREA":" ","LANE":" ","ALLEY":" ","HOUSE_NO":"９０號","E_COORD97":181942.64000000001,"N_COORD97":2540210.25,"ADDRESS":"花園一街９０號","OBJECTID":468737},"geometry":{"x":181942.63999999966,"y":2540210.25}},{"attributes":{"ID":468763,"DIS_CODE":0,"TOWNNAME":"關廟區","LI":"松腳里","LIN":"5鄰","STREET":"旺萊路","SECT":" ","MAREA":" ","LANE":" ","ALLEY":" ","HOUSE_NO":"５６０號","E_COORD97":182141.54000000001,"N_COORD97":2539979.25,"ADDRESS":"旺萊路５６０號","OBJECTID":468738},"geometry":{"x":182141.54000000097,"y":2539979.2500000019}},{"attributes":{"ID":468764,"DIS_CODE":0,"TOWNNAME":"關廟區","LI":"布袋里","LIN":"5鄰","STREET":"長文街","SECT":" ","MAREA":" ","LANE":" ","ALLEY":" ","HOUSE_NO":"１７０號","E_COORD97":182765.84,"N_COORD97":2535358.25,"ADDRESS":"長文街１７０號","OBJECTID":468739},"geometry":{"x":182765.84000000171,"y":2535358.2500000019}},{"attributes":{"ID":468765,"DIS_CODE":0,"TOWNNAME":"關廟區","LI":"布袋里","LIN":"5鄰","STREET":"長文街","SECT":" ","MAREA":" ","LANE":" ","ALLEY":" ","HOUSE_NO":"１２５號","E_COORD97":182872.94,"N_COORD97":2535402.25,"ADDRESS":"長文街１２５號","OBJECTID":468740},"geometry":{"x":182872.94000000134,"y":2535402.2500000019}},{"attributes":{"ID":468766,"DIS_CODE":0,"TOWNNAME":"關廟區","LI":"香洋里","LIN":"5鄰","STREET":"忠孝街","SECT":" ","MAREA":" ","LANE":" ","ALLEY":" ","HOUSE_NO":"１１２號","E_COORD97":181020.64000000001,"N_COORD97":2540257.25,"ADDRESS":"忠孝街１１２號","OBJECTID":468741},"geometry":{"x":181020.63999999966,"y":2540257.2500000019}},{"attributes":{"ID":468767,"DIS_CODE":0,"TOWNNAME":"關廟區","LI":"布袋里","LIN":"5鄰","STREET":"南雄南路","SECT":" ","MAREA":" ","LANE":" ","ALLEY":" ","HOUSE_NO":"１９７號","E_COORD97":183187.79000000001,"N_COORD97":2535483.2999999998,"ADDRESS":"南雄南路１９７號","OBJECTID":468742},"geometry":{"x":183187.79000000004,"y":2535483.3000000026}},{"attributes":{"ID":468768,"DIS_CODE":0,"TOWNNAME":"關廟區","LI":"五甲里","LIN":"5鄰","STREET":"五福路","SECT":" ","MAREA":" ","LANE":" ","ALLEY":" ","HOUSE_NO":"１６號","E_COORD97":181345.32000000001,"N_COORD97":2538948.25,"ADDRESS":"五福路１６號","OBJECTID":468743},"geometry":{"x":181345.3200000003,"y":2538948.2500000019}},{"attributes":{"ID":468769,"DIS_CODE":0,"TOWNNAME":"關廟區","LI":"新光里","LIN":"5鄰","STREET":"北寮街","SECT":" ","MAREA":" ","LANE":" ","ALLEY":" ","HOUSE_NO":"２１號","E_COORD97":184000.26999999999,"N_COORD97":2541803.25,"ADDRESS":"北寮街２１號","OBJECTID":468744},"geometry":{"x":184000.27000000048,"y":2541803.2500000019}},{"attributes":{"ID":468770,"DIS_CODE":0,"TOWNNAME":"關廟區","LI":"香洋里","LIN":"5鄰","STREET":"忠孝街","SECT":" ","MAREA":" ","LANE":" ","ALLEY":" ","HOUSE_NO":"１３０號","E_COORD97":181030.64000000001,"N_COORD97":2540291.25,"ADDRESS":"忠孝街１３０號","OBJECTID":468745},"geometry":{"x":181030.63999999966,"y":2540291.2500000019}},{"attributes":{"ID":468771,"DIS_CODE":0,"TOWNNAME":"關廟區","LI":"北花里","LIN":"5鄰","STREET":"花園一街","SECT":" ","MAREA":" ","LANE":" ","ALLEY":" ","HOUSE_NO":"６８號","E_COORD97":182001.84,"N_COORD97":2540185.25,"ADDRESS":"花園一街６８號","OBJECTID":468746},"geometry":{"x":182001.84000000078,"y":2540185.2500000019}},{"attributes":{"ID":468772,"DIS_CODE":0,"TOWNNAME":"關廟區","LI":"南花里","LIN":"5鄰","STREET":"花園一街","SECT":" ","MAREA":" ","LANE":" ","ALLEY":" ","HOUSE_NO":"１００號","E_COORD97":181929.39000000001,"N_COORD97":2540193.25,"ADDRESS":"花園一街１００號","OBJECTID":468747},"geometry":{"x":181929.38999999873,"y":2540193.25}},{"attributes":{"ID":468773,"DIS_CODE":0,"TOWNNAME":"關廟區","LI":"香洋里","LIN":"5鄰","STREET":"忠孝街","SECT":" ","MAREA":" ","LANE":" ","ALLEY":" ","HOUSE_NO":"１２８號","E_COORD97":181029.94,"N_COORD97":2540286.25,"ADDRESS":"忠孝街１２８號","OBJECTID":468748},"geometry":{"x":181029.94000000134,"y":2540286.2500000037}},{"attributes":{"ID":468774,"DIS_CODE":0,"TOWNNAME":"關廟區","LI":"北花里","LIN":"5鄰","STREET":"旺萊路","SECT":" ","MAREA":" ","LANE":" ","ALLEY":" ","HOUSE_NO":"５７５號","E_COORD97":182217.14000000001,"N_COORD97":2540287.25,"ADDRESS":"旺萊路５７５號","OBJECTID":468749},"geometry":{"x":182217.13999999966,"y":2540287.2500000019}},{"attributes":{"ID":468775,"DIS_CODE":0,"TOWNNAME":"關廟區","LI":"松腳里","LIN":"5鄰","STREET":"中山路","SECT":"一段","MAREA":" ","LANE":" ","ALLEY":" ","HOUSE_NO":"５２號","E_COORD97":182028.31,"N_COORD97":2539967.2799999998,"ADDRESS":"中山路一段５２號","OBJECTID":468750},"geometry":{"x":182028.31000000145,"y":2539967.2800000012}},{"attributes":{"ID":468776,"DIS_CODE":0,"TOWNNAME":"關廟區","LI":"山西里","LIN":"5鄰","STREET":"文衡路","SECT":" ","MAREA":" ","LANE":" ","ALLEY":" ","HOUSE_NO":"９７號","E_COORD97":180898.48999999999,"N_COORD97":2540313.3300000001,"ADDRESS":"文衡路９７號","OBJECTID":468751},"geometry":{"x":180898.49000000022,"y":2540313.3300000019}},{"attributes":{"ID":468777,"DIS_CODE":0,"TOWNNAME":"關廟區","LI":"松腳里","LIN":"5鄰","STREET":"中山路","SECT":"一段","MAREA":" ","LANE":" ","ALLEY":" ","HOUSE_NO":"２３號","E_COORD97":182052.81,"N_COORD97":2539945.2799999998,"ADDRESS":"中山路一段２３號","OBJECTID":468752},"geometry":{"x":182052.81000000052,"y":2539945.2799999993}},{"attributes":{"ID":468778,"DIS_CODE":0,"TOWNNAME":"關廟區","LI":"北花里","LIN":"5鄰","STREET":"花園二街","SECT":" ","MAREA":" ","LANE":" ","ALLEY":" ","HOUSE_NO":"４５號","E_COORD97":182093.14000000001,"N_COORD97":2540287.25,"ADDRESS":"花園二街４５號","OBJECTID":468753},"geometry":{"x":182093.13999999966,"y":2540287.2500000019}},{"attributes":{"ID":468779,"DIS_CODE":0,"TOWNNAME":"北區","LI":"大山里","LIN":"5鄰","STREET":"精忠街","SECT":" ","MAREA":" ","LANE":" ","ALLEY":" ","HOUSE_NO":"９３號","E_COORD97":169368.35000000001,"N_COORD97":2545497.1699999999,"ADDRESS":"精忠街９３號","OBJECTID":468754},"geometry":{"x":169368.35000000149,"y":2545497.1699999999}},{"attributes":{"ID":468780,"DIS_CODE":0,"TOWNNAME":"北區","LI":"大山里","LIN":"5鄰","STREET":"精忠街","SECT":" ","MAREA":" ","LANE":" ","ALLEY":" ","HOUSE_NO":"９５號","E_COORD97":169365.01000000001,"N_COORD97":2545499.7400000002,"ADDRESS":"精忠街９５號","OBJECTID":468755},"geometry":{"x":169365.00999999978,"y":2545499.7400000002}},{"attributes":{"ID":468781,"DIS_CODE":0,"TOWNNAME":"北區","LI":"成德里","LIN":"5鄰","STREET":"育德路","SECT":" ","MAREA":" ","LANE":" ","ALLEY":" ","HOUSE_NO":"１１６號","E_COORD97":168485.79999999999,"N_COORD97":2545398.5299999998,"ADDRESS":"育德路１１６號","OBJECTID":468756},"geometry":{"x":168485.80000000168,"y":2545398.5299999993}},{"attributes":{"ID":468782,"DIS_CODE":0,"TOWNNAME":"北區","LI":"大山里","LIN":"5鄰","STREET":"精忠街","SECT":" ","MAREA":" ","LANE":" ","ALLEY":" ","HOUSE_NO":"９７號","E_COORD97":169361.32999999999,"N_COORD97":2545500.7400000002,"ADDRESS":"精忠街９７號","OBJECTID":468757},"geometry":{"x":169361.33000000101,"y":2545500.7400000002}},{"attributes":{"ID":468783,"DIS_CODE":0,"TOWNNAME":"北區","LI":"成德里","LIN":"5鄰","STREET":"育德路","SECT":" ","MAREA":" ","LANE":" ","ALLEY":" ","HOUSE_NO":"１００號","E_COORD97":168467.23000000001,"N_COORD97":2545370.8399999999,"ADDRESS":"育德路１００號","OBJECTID":468758},"geometry":{"x":168467.23000000138,"y":2545370.8399999999}},{"attributes":{"ID":468784,"DIS_CODE":0,"TOWNNAME":"北區","LI":"成德里","LIN":"5鄰","STREET":"育德路","SECT":" ","MAREA":" ","LANE":" ","ALLEY":" ","HOUSE_NO":"１０２號","E_COORD97":168468.88,"N_COORD97":2545374.3599999999,"ADDRESS":"育德路１０２號","OBJECTID":468759},"geometry":{"x":168468.88000000082,"y":2545374.3600000013}},{"attributes":{"ID":468785,"DIS_CODE":0,"TOWNNAME":"北區","LI":"成德里","LIN":"5鄰","STREET":"育德路","SECT":" ","MAREA":" ","LANE":" ","ALLEY":" ","HOUSE_NO":"１０４號","E_COORD97":168470.98999999999,"N_COORD97":2545377.4100000001,"ADDRESS":"育德路１０４號","OBJECTID":468760},"geometry":{"x":168470.99000000022,"y":2545377.4100000001}},{"attributes":{"ID":468786,"DIS_CODE":0,"TOWNNAME":"北區","LI":"成德里","LIN":"5鄰","STREET":"育德路","SECT":" ","MAREA":" ","LANE":" ","ALLEY":" ","HOUSE_NO":"１０６號","E_COORD97":168473.57999999999,"N_COORD97":2545380.9300000002,"ADDRESS":"育德路１０６號","OBJECTID":468761},"geometry":{"x":168473.58000000007,"y":2545380.9300000016}},{"attributes":{"ID":468787,"DIS_CODE":0,"TOWNNAME":"北區","LI":"成德里","LIN":"5鄰","STREET":"育德路","SECT":" ","MAREA":" ","LANE":" ","ALLEY":" ","HOUSE_NO":"１０８號","E_COORD97":168475.92999999999,"N_COORD97":2545384.4500000002,"ADDRESS":"育德路１０８號","OBJECTID":468762},"geometry":{"x":168475.9299999997,"y":2545384.4500000011}},{"attributes":{"ID":468788,"DIS_CODE":0,"TOWNNAME":"北區","LI":"成德里","LIN":"5鄰","STREET":"育德路","SECT":" ","MAREA":" ","LANE":" ","ALLEY":" ","HOUSE_NO":"１１０號","E_COORD97":168478.28,"N_COORD97":2545387.9700000002,"ADDRESS":"育德路１１０號","OBJECTID":468763},"geometry":{"x":168478.28000000119,"y":2545387.9700000044}},{"attributes":{"ID":468789,"DIS_CODE":0,"TOWNNAME":"北區","LI":"成德里","LIN":"5鄰","STREET":"育德路","SECT":" ","MAREA":" ","LANE":" ","ALLEY":" ","HOUSE_NO":"１１２號","E_COORD97":168481.10000000001,"N_COORD97":2545391.4900000002,"ADDRESS":"育德路１１２號","OBJECTID":468764},"geometry":{"x":168481.09999999963,"y":2545391.4900000021}},{"attributes":{"ID":468790,"DIS_CODE":0,"TOWNNAME":"北區","LI":"成德里","LIN":"5鄰","STREET":"育德路","SECT":" ","MAREA":" ","LANE":" ","ALLEY":" ","HOUSE_NO":"１１４號","E_COORD97":168482.73999999999,"N_COORD97":2545395.0099999998,"ADDRESS":"育德路１１４號","OBJECTID":468765},"geometry":{"x":168482.74000000022,"y":2545395.0100000016}},{"attributes":{"ID":468791,"DIS_CODE":0,"TOWNNAME":"北區","LI":"成德里","LIN":"5鄰","STREET":"育德路","SECT":" ","MAREA":" ","LANE":" ","ALLEY":" ","HOUSE_NO":"８６號","E_COORD97":168448.67000000001,"N_COORD97":2545346.1899999999,"ADDRESS":"育德路８６號","OBJECTID":468766},"geometry":{"x":168448.66999999993,"y":2545346.1900000013}},{"attributes":{"ID":468792,"DIS_CODE":0,"TOWNNAME":"北區","LI":"成德里","LIN":"5鄰","STREET":"育德路","SECT":" ","MAREA":" ","LANE":" ","ALLEY":" ","HOUSE_NO":"８８號","E_COORD97":168451.73000000001,"N_COORD97":2545349.71,"ADDRESS":"育德路８８號","OBJECTID":468767},"geometry":{"x":168451.73000000138,"y":2545349.7100000028}},{"attributes":{"ID":468793,"DIS_CODE":0,"TOWNNAME":"北區","LI":"成德里","LIN":"5鄰","STREET":"育德路","SECT":" ","MAREA":" ","LANE":" ","ALLEY":" ","HOUSE_NO":"９０號","E_COORD97":168454.31,"N_COORD97":2545353.7000000002,"ADDRESS":"育德路９０號","OBJECTID":468768},"geometry":{"x":168454.30999999959,"y":2545353.6999999993}},{"attributes":{"ID":468794,"DIS_CODE":0,"TOWNNAME":"北區","LI":"成德里","LIN":"5鄰","STREET":"育德路","SECT":" ","MAREA":" ","LANE":" ","ALLEY":" ","HOUSE_NO":"９２號","E_COORD97":168456.89000000001,"N_COORD97":2545356.52,"ADDRESS":"育德路９２號","OBJECTID":468769},"geometry":{"x":168456.8900000006,"y":2545356.5200000014}},{"attributes":{"ID":468795,"DIS_CODE":0,"TOWNNAME":"北區","LI":"成德里","LIN":"5鄰","STREET":"育德路","SECT":" ","MAREA":" ","LANE":" ","ALLEY":" ","HOUSE_NO":"９４號","E_COORD97":168459.48000000001,"N_COORD97":2545360.5099999998,"ADDRESS":"育德路９４號","OBJECTID":468770},"geometry":{"x":168459.48000000045,"y":2545360.5100000016}},{"attributes":{"ID":468796,"DIS_CODE":0,"TOWNNAME":"北區","LI":"成德里","LIN":"5鄰","STREET":"育德路","SECT":" ","MAREA":" ","LANE":" ","ALLEY":" ","HOUSE_NO":"９６號","E_COORD97":168461.82999999999,"N_COORD97":2545364.0299999998,"ADDRESS":"育德路９６號","OBJECTID":468771},"geometry":{"x":168461.83000000007,"y":2545364.0300000012}},{"attributes":{"ID":468797,"DIS_CODE":0,"TOWNNAME":"北區","LI":"大山里","LIN":"5鄰","STREET":"精忠街","SECT":" ","MAREA":" ","LANE":" ","ALLEY":" ","HOUSE_NO":"１０１號","E_COORD97":169350.82999999999,"N_COORD97":2545501.8700000001,"ADDRESS":"精忠街１０１號","OBJECTID":468772},"geometry":{"x":169350.83000000101,"y":2545501.8700000029}},{"attributes":{"ID":468798,"DIS_CODE":0,"TOWNNAME":"北區","LI":"大山里","LIN":"5鄰","STREET":"精忠街","SECT":" ","MAREA":" ","LANE":" ","ALLEY":" ","HOUSE_NO":"１０１號之１","E_COORD97":169346.98999999999,"N_COORD97":2545502.6499999999,"ADDRESS":"精忠街１０１號之１","OBJECTID":468773},"geometry":{"x":169346.99000000022,"y":2545502.6500000022}},{"attributes":{"ID":468799,"DIS_CODE":0,"TOWNNAME":"北區","LI":"大山里","LIN":"5鄰","STREET":"精忠街","SECT":" ","MAREA":" ","LANE":" ","ALLEY":" ","HOUSE_NO":"１０１號之２","E_COORD97":169345.67999999999,"N_COORD97":2545493.2799999998,"ADDRESS":"精忠街１０１號之２","OBJECTID":468774},"geometry":{"x":169345.6799999997,"y":2545493.2800000031}},{"attributes":{"ID":468800,"DIS_CODE":0,"TOWNNAME":"北區","LI":"大山里","LIN":"5鄰","STREET":"精忠街","SECT":" ","MAREA":" ","LANE":" ","ALLEY":" ","HOUSE_NO":"１０１號之３","E_COORD97":169344.79999999999,"N_COORD97":2545487.48,"ADDRESS":"精忠街１０１號之３","OBJECTID":468775},"geometry":{"x":169344.79999999981,"y":2545487.4800000023}},{"attributes":{"ID":468801,"DIS_CODE":0,"TOWNNAME":"北區","LI":"大山里","LIN":"5鄰","STREET":"精忠街","SECT":" ","MAREA":" ","LANE":" ","ALLEY":" ","HOUSE_NO":"１０１號之４","E_COORD97":169344.79999999999,"N_COORD97":2545483.3300000001,"ADDRESS":"精忠街１０１號之４","OBJECTID":468776},"geometry":{"x":169344.79999999981,"y":2545483.3300000038}},{"attributes":{"ID":468802,"DIS_CODE":0,"TOWNNAME":"北區","LI":"大山里","LIN":"5鄰","STREET":"精忠街","SECT":" ","MAREA":" ","LANE":" ","ALLEY":" ","HOUSE_NO":"５９號","E_COORD97":169433.76000000001,"N_COORD97":2545465.9700000002,"ADDRESS":"精忠街５９號","OBJECTID":468777},"geometry":{"x":169433.76000000071,"y":2545465.9700000044}},{"attributes":{"ID":468803,"DIS_CODE":0,"TOWNNAME":"北區","LI":"大山里","LIN":"5鄰","STREET":"精忠街","SECT":" ","MAREA":" ","LANE":" ","ALLEY":" ","HOUSE_NO":"７５號","E_COORD97":169408.38,"N_COORD97":2545488.5499999998,"ADDRESS":"精忠街７５號","OBJECTID":468778},"geometry":{"x":169408.37999999989,"y":2545488.5500000007}},{"attributes":{"ID":468804,"DIS_CODE":0,"TOWNNAME":"北區","LI":"大山里","LIN":"5鄰","STREET":"精忠街","SECT":" ","MAREA":" ","LANE":" ","ALLEY":" ","HOUSE_NO":"８９號之１","E_COORD97":169374.54999999999,"N_COORD97":2545497,"ADDRESS":"精忠街８９號之１","OBJECTID":468779},"geometry":{"x":169374.55000000075,"y":2545497.0000000019}},{"attributes":{"ID":468805,"DIS_CODE":0,"TOWNNAME":"北區","LI":"大山里","LIN":"5鄰","STREET":"精忠街","SECT":" ","MAREA":" ","LANE":" ","ALLEY":" ","HOUSE_NO":"９９號","E_COORD97":169354.42000000001,"N_COORD97":2545503.0800000001,"ADDRESS":"精忠街９９號","OBJECTID":468780},"geometry":{"x":169354.41999999993,"y":2545503.0800000019}},{"attributes":{"ID":468806,"DIS_CODE":0,"TOWNNAME":"北區","LI":"大仁里","LIN":"5鄰","STREET":"北門路","SECT":"二段","MAREA":" ","LANE":" ","ALLEY":" ","HOUSE_NO":"２９３號","E_COORD97":169570.56,"N_COORD97":2545411.6299999999,"ADDRESS":"北門路二段２９３號","OBJECTID":468781},"geometry":{"x":169570.56000000052,"y":2545411.629999999}},{"attributes":{"ID":468807,"DIS_CODE":0,"TOWNNAME":"北區","LI":"大仁里","LIN":"5鄰","STREET":"北門路","SECT":"二段","MAREA":" ","LANE":" ","ALLEY":" ","HOUSE_NO":"２９５號","E_COORD97":169571.67000000001,"N_COORD97":2545415.1499999999,"ADDRESS":"北門路二段２９５號","OBJECTID":468782},"geometry":{"x":169571.67000000179,"y":2545415.1500000022}},{"attributes":{"ID":468808,"DIS_CODE":0,"TOWNNAME":"北區","LI":"大仁里","LIN":"5鄰","STREET":"北門路","SECT":"二段","MAREA":" ","LANE":" ","ALLEY":" ","HOUSE_NO":"２９７號","E_COORD97":169570.76000000001,"N_COORD97":2545418.9500000002,"ADDRESS":"北門路二段２９７號","OBJECTID":468783},"geometry":{"x":169570.75999999885,"y":2545418.9499999993}},{"attributes":{"ID":468809,"DIS_CODE":0,"TOWNNAME":"北區","LI":"大仁里","LIN":"5鄰","STREET":"北門路","SECT":"二段","MAREA":" ","LANE":" ","ALLEY":" ","HOUSE_NO":"２９９號","E_COORD97":169574.34,"N_COORD97":2545422.27,"ADDRESS":"北門路二段２９９號","OBJECTID":468784},"geometry":{"x":169574.34000000078,"y":2545422.2700000033}},{"attributes":{"ID":468810,"DIS_CODE":0,"TOWNNAME":"北區","LI":"大仁里","LIN":"5鄰","STREET":"北門路","SECT":"二段","MAREA":" ","LANE":" ","ALLEY":" ","HOUSE_NO":"３０１號","E_COORD97":169573.69,"N_COORD97":2545425.9100000001,"ADDRESS":"北門路二段３０１號","OBJECTID":468785},"geometry":{"x":169573.69000000227,"y":2545425.910000002}},{"attributes":{"ID":468811,"DIS_CODE":0,"TOWNNAME":"北區","LI":"大仁里","LIN":"5鄰","STREET":"北門路","SECT":"二段","MAREA":" ","LANE":" ","ALLEY":" ","HOUSE_NO":"３０３號","E_COORD97":169575.57999999999,"N_COORD97":2545430.79,"ADDRESS":"北門路二段３０３號","OBJECTID":468786},"geometry":{"x":169575.58000000007,"y":2545430.7899999991}},{"attributes":{"ID":468812,"DIS_CODE":0,"TOWNNAME":"北區","LI":"大仁里","LIN":"5鄰","STREET":"北門路","SECT":"二段","MAREA":" ","LANE":" ","ALLEY":" ","HOUSE_NO":"３０５號","E_COORD97":169575.51000000001,"N_COORD97":2545435.2200000002,"ADDRESS":"北門路二段３０５號","OBJECTID":468787},"geometry":{"x":169575.50999999978,"y":2545435.2200000025}},{"attributes":{"ID":468813,"DIS_CODE":0,"TOWNNAME":"北區","LI":"大仁里","LIN":"5鄰","STREET":"精忠街","SECT":" ","MAREA":" ","LANE":" ","ALLEY":" ","HOUSE_NO":"１１號","E_COORD97":169545.67999999999,"N_COORD97":2545453.4900000002,"ADDRESS":"精忠街１１號","OBJECTID":468788},"geometry":{"x":169545.6799999997,"y":2545453.4900000021}},{"attributes":{"ID":468814,"DIS_CODE":0,"TOWNNAME":"北區","LI":"大仁里","LIN":"5鄰","STREET":"精忠街","SECT":" ","MAREA":" ","LANE":" ","ALLEY":" ","HOUSE_NO":"１９號","E_COORD97":169532.39000000001,"N_COORD97":2545457.25,"ADDRESS":"精忠街１９號","OBJECTID":468789},"geometry":{"x":169532.38999999966,"y":2545457.2500000019}},{"attributes":{"ID":468815,"DIS_CODE":0,"TOWNNAME":"北區","LI":"大仁里","LIN":"5鄰","STREET":"精忠街","SECT":" ","MAREA":" ","LANE":" ","ALLEY":" ","HOUSE_NO":"１號之１","E_COORD97":169569.60999999999,"N_COORD97":2545445.8300000001,"ADDRESS":"精忠街１號之１","OBJECTID":468790},"geometry":{"x":169569.61000000127,"y":2545445.8299999982}},{"attributes":{"ID":468816,"DIS_CODE":0,"TOWNNAME":"北區","LI":"大仁里","LIN":"5鄰","STREET":"精忠街","SECT":" ","MAREA":" ","LANE":" ","ALLEY":" ","HOUSE_NO":"１號之２","E_COORD97":169574.67000000001,"N_COORD97":2545444.2400000002,"ADDRESS":"精忠街１號之２","OBJECTID":468791},"geometry":{"x":169574.66999999993,"y":2545444.2400000021}},{"attributes":{"ID":468817,"DIS_CODE":0,"TOWNNAME":"北區","LI":"大仁里","LIN":"5鄰","STREET":"精忠街","SECT":" ","MAREA":" ","LANE":" ","ALLEY":" ","HOUSE_NO":"２１號","E_COORD97":169528.91,"N_COORD97":2545458.4399999999,"ADDRESS":"精忠街２１號","OBJECTID":468792},"geometry":{"x":169528.91000000015,"y":2545458.4400000032}},{"attributes":{"ID":468818,"DIS_CODE":0,"TOWNNAME":"北區","LI":"大仁里","LIN":"5鄰","STREET":"精忠街","SECT":" ","MAREA":" ","LANE":" ","ALLEY":" ","HOUSE_NO":"２３號","E_COORD97":169524.54000000001,"N_COORD97":2545459.79,"ADDRESS":"精忠街２３號","OBJECTID":468793},"geometry":{"x":169524.54000000004,"y":2545459.790000001}},{"attributes":{"ID":468819,"DIS_CODE":0,"TOWNNAME":"北區","LI":"大仁里","LIN":"5鄰","STREET":"精忠街","SECT":" ","MAREA":" ","LANE":" ","ALLEY":" ","HOUSE_NO":"３號","E_COORD97":169559.5,"N_COORD97":2545448.7200000002,"ADDRESS":"精忠街３號","OBJECTID":468794},"geometry":{"x":169559.50000000093,"y":2545448.7200000025}},{"attributes":{"ID":468820,"DIS_CODE":0,"TOWNNAME":"北區","LI":"大仁里","LIN":"5鄰","STREET":"精忠街","SECT":" ","MAREA":" ","LANE":" ","ALLEY":" ","HOUSE_NO":"５號","E_COORD97":169556.01999999999,"N_COORD97":2545449.7000000002,"ADDRESS":"精忠街５號","OBJECTID":468795},"geometry":{"x":169556.02000000048,"y":2545449.700000003}},{"attributes":{"ID":468821,"DIS_CODE":0,"TOWNNAME":"北區","LI":"大仁里","LIN":"5鄰","STREET":"精忠街","SECT":" ","MAREA":" ","LANE":" ","ALLEY":" ","HOUSE_NO":"７號","E_COORD97":169553.10999999999,"N_COORD97":2545450.8999999999,"ADDRESS":"精忠街７號","OBJECTID":468796},"geometry":{"x":169553.11000000034,"y":2545450.9000000022}},{"attributes":{"ID":468822,"DIS_CODE":0,"TOWNNAME":"北區","LI":"大仁里","LIN":"5鄰","STREET":"精忠街","SECT":" ","MAREA":" ","LANE":" ","ALLEY":" ","HOUSE_NO":"９號","E_COORD97":169549.63,"N_COORD97":2545452.3999999999,"ADDRESS":"精忠街９號","OBJECTID":468797},"geometry":{"x":169549.62999999989,"y":2545452.3999999985}},{"attributes":{"ID":468823,"DIS_CODE":0,"TOWNNAME":"北區","LI":"大仁里","LIN":"5鄰","STREET":"北門路","SECT":"二段","MAREA":" ","LANE":" ","ALLEY":" ","HOUSE_NO":"２８５號","E_COORD97":169564.82999999999,"N_COORD97":2545399.1299999999,"ADDRESS":"北門路二段２８５號","OBJECTID":468798},"geometry":{"x":169564.83000000007,"y":2545399.1300000008}},{"attributes":{"ID":468824,"DIS_CODE":0,"TOWNNAME":"北區","LI":"大仁里","LIN":"5鄰","STREET":"北門路","SECT":"二段","MAREA":" ","LANE":" ","ALLEY":" ","HOUSE_NO":"２８７號","E_COORD97":169566.95000000001,"N_COORD97":2545402.5600000001,"ADDRESS":"北門路二段２８７號","OBJECTID":468799},"geometry":{"x":169566.95000000112,"y":2545402.5600000024}},{"attributes":{"ID":468825,"DIS_CODE":0,"TOWNNAME":"北區","LI":"大仁里","LIN":"5鄰","STREET":"北門路","SECT":"二段","MAREA":" ","LANE":" ","ALLEY":" ","HOUSE_NO":"２８９號","E_COORD97":169569.07000000001,"N_COORD97":2545407.5299999998,"ADDRESS":"北門路二段２８９號","OBJECTID":468800},"geometry":{"x":169569.0700000003,"y":2545407.5300000012}}]}