{"displayFieldName":"TOWNNAME","fieldAliases":{"ID":"ID","DIS_CODE":"DIS_CODE","TOWNNAME":"TOWNNAME","LI":"LI","LIN":"LIN","STREET":"STREET","SECT":"SECT","MAREA":"MAREA","LANE":"LANE","ALLEY":"ALLEY","HOUSE_NO":"HOUSE_NO","E_COORD97":"E_COORD97","N_COORD97":"N_COORD97","ADDRESS":"ADDRESS","OBJECTID":"OBJECTID"},"geometryType":"esriGeometryPoint","spatialReference":{"wkid":102443,"latestWkid":3826},"fields":[{"name":"ID","type":"esriFieldTypeDouble","alias":"ID"},{"name":"DIS_CODE","type":"esriFieldTypeInteger","alias":"DIS_CODE"},{"name":"TOWNNAME","type":"esriFieldTypeString","alias":"TOWNNAME","length":8},{"name":"LI","type":"esriFieldTypeString","alias":"LI","length":8},{"name":"LIN","type":"esriFieldTypeString","alias":"LIN","length":12},{"name":"STREET","type":"esriFieldTypeString","alias":"STREET","length":20},{"name":"SECT","type":"esriFieldTypeString","alias":"SECT","length":8},{"name":"MAREA","type":"esriFieldTypeString","alias":"MAREA","length":12},{"name":"LANE","type":"esriFieldTypeString","alias":"LANE","length":10},{"name":"ALLEY","type":"esriFieldTypeString","alias":"ALLEY","length":10},{"name":"HOUSE_NO","type":"esriFieldTypeString","alias":"HOUSE_NO","length":20},{"name":"E_COORD97","type":"esriFieldTypeDouble","alias":"E_COORD97"},{"name":"N_COORD97","type":"esriFieldTypeDouble","alias":"N_COORD97"},{"name":"ADDRESS","type":"esriFieldTypeString","alias":"ADDRESS","length":50},{"name":"OBJECTID","type":"esriFieldTypeOID","alias":"OBJECTID"}],"features":[{"attributes":{"ID":559028,"DIS_CODE":0,"TOWNNAME":"安南區","LI":"公親里","LIN":"9鄰","STREET":"公學路","SECT":"一段","MAREA":" ","LANE":" ","ALLEY":" ","HOUSE_NO":"２１５號","E_COORD97":167995.17999999999,"N_COORD97":2553026.23,"ADDRESS":"公學路一段２１５號","OBJECTID":559001},"geometry":{"x":167995.18000000063,"y":2553026.2300000023}},{"attributes":{"ID":559029,"DIS_CODE":0,"TOWNNAME":"安南區","LI":"公親里","LIN":"9鄰","STREET":"公學路","SECT":"一段","MAREA":" ","LANE":" ","ALLEY":" ","HOUSE_NO":"２１７號","E_COORD97":167994.66,"N_COORD97":2553022.1000000001,"ADDRESS":"公學路一段２１７號","OBJECTID":559002},"geometry":{"x":167994.66000000015,"y":2553022.1000000015}},{"attributes":{"ID":559030,"DIS_CODE":0,"TOWNNAME":"安南區","LI":"公親里","LIN":"9鄰","STREET":"公學路","SECT":"一段","MAREA":" ","LANE":" ","ALLEY":" ","HOUSE_NO":"２２１號","E_COORD97":167983.79000000001,"N_COORD97":2553009.1800000002,"ADDRESS":"公學路一段２２１號","OBJECTID":559003},"geometry":{"x":167983.79000000004,"y":2553009.1799999997}},{"attributes":{"ID":559031,"DIS_CODE":0,"TOWNNAME":"安南區","LI":"公親里","LIN":"9鄰","STREET":"公學路","SECT":"一段","MAREA":" ","LANE":" ","ALLEY":" ","HOUSE_NO":"２２７號","E_COORD97":167982.23999999999,"N_COORD97":2552994.7000000002,"ADDRESS":"公學路一段２２７號","OBJECTID":559004},"geometry":{"x":167982.24000000022,"y":2552994.7000000011}},{"attributes":{"ID":559032,"DIS_CODE":0,"TOWNNAME":"安南區","LI":"公親里","LIN":"9鄰","STREET":"公學路","SECT":"一段","MAREA":" ","LANE":" ","ALLEY":" ","HOUSE_NO":"２３５號","E_COORD97":167978.60999999999,"N_COORD97":2552970.1000000001,"ADDRESS":"公學路一段２３５號","OBJECTID":559005},"geometry":{"x":167978.61000000034,"y":2552970.0999999996}},{"attributes":{"ID":559033,"DIS_CODE":0,"TOWNNAME":"安南區","LI":"公親里","LIN":"9鄰","STREET":"公學路","SECT":"一段","MAREA":" ","LANE":" ","ALLEY":" ","HOUSE_NO":"２４１號","E_COORD97":167974.47,"N_COORD97":2552952.5299999998,"ADDRESS":"公學路一段２４１號","OBJECTID":559006},"geometry":{"x":167974.47000000067,"y":2552952.5299999993}},{"attributes":{"ID":559034,"DIS_CODE":0,"TOWNNAME":"安南區","LI":"公親里","LIN":"9鄰","STREET":"公學路","SECT":"一段","MAREA":" ","LANE":" ","ALLEY":" ","HOUSE_NO":"２５１號","E_COORD97":167963.09,"N_COORD97":2552930.8199999998,"ADDRESS":"公學路一段２５１號","OBJECTID":559007},"geometry":{"x":167963.08999999985,"y":2552930.8200000003}},{"attributes":{"ID":559035,"DIS_CODE":0,"TOWNNAME":"安南區","LI":"公親里","LIN":"9鄰","STREET":"公學路","SECT":"一段","MAREA":" ","LANE":" ","ALLEY":" ","HOUSE_NO":"２５３號","E_COORD97":167961.53,"N_COORD97":2552925.1299999999,"ADDRESS":"公學路一段２５３號","OBJECTID":559008},"geometry":{"x":167961.53000000119,"y":2552925.1299999971}},{"attributes":{"ID":559036,"DIS_CODE":0,"TOWNNAME":"安南區","LI":"公親里","LIN":"9鄰","STREET":"公學路","SECT":"一段","MAREA":" ","LANE":" ","ALLEY":" ","HOUSE_NO":"２５５號","E_COORD97":167959.98000000001,"N_COORD97":2552918.9300000002,"ADDRESS":"公學路一段２５５號","OBJECTID":559009},"geometry":{"x":167959.98000000138,"y":2552918.9300000016}},{"attributes":{"ID":559037,"DIS_CODE":0,"TOWNNAME":"安南區","LI":"公親里","LIN":"9鄰","STREET":"公學路","SECT":"一段","MAREA":" ","LANE":" ","ALLEY":" ","HOUSE_NO":"２６９號","E_COORD97":167949.10999999999,"N_COORD97":2552888.9500000002,"ADDRESS":"公學路一段２６９號","OBJECTID":559010},"geometry":{"x":167949.11000000127,"y":2552888.9499999993}},{"attributes":{"ID":559038,"DIS_CODE":0,"TOWNNAME":"安南區","LI":"公親里","LIN":"9鄰","STREET":"公學路","SECT":"一段","MAREA":" ","LANE":" ","ALLEY":" ","HOUSE_NO":"２７１號","E_COORD97":167948.07999999999,"N_COORD97":2552883.7799999998,"ADDRESS":"公學路一段２７１號","OBJECTID":559011},"geometry":{"x":167948.08000000007,"y":2552883.7799999993}},{"attributes":{"ID":559039,"DIS_CODE":0,"TOWNNAME":"安南區","LI":"公親里","LIN":"9鄰","STREET":"公學路","SECT":"一段","MAREA":" ","LANE":" ","ALLEY":" ","HOUSE_NO":"２７５號","E_COORD97":167942.07152500001,"N_COORD97":2552880.8520499999,"ADDRESS":"公學路一段２７５號","OBJECTID":559012},"geometry":{"x":167942.07152500097,"y":2552880.8520529997}},{"attributes":{"ID":559040,"DIS_CODE":0,"TOWNNAME":"安南區","LI":"溪頂里","LIN":"9鄰","STREET":"惠安街","SECT":" ","MAREA":" ","LANE":" ","ALLEY":" ","HOUSE_NO":"１０３號","E_COORD97":168786.75,"N_COORD97":2547464.8500000001,"ADDRESS":"惠安街１０３號","OBJECTID":559013},"geometry":{"x":168786.75000000093,"y":2547464.8499999996}},{"attributes":{"ID":559041,"DIS_CODE":0,"TOWNNAME":"安南區","LI":"溪頂里","LIN":"9鄰","STREET":"惠安街","SECT":" ","MAREA":" ","LANE":" ","ALLEY":" ","HOUSE_NO":"１０７號","E_COORD97":168769.54000000001,"N_COORD97":2547465.48,"ADDRESS":"惠安街１０７號","OBJECTID":559014},"geometry":{"x":168769.54000000097,"y":2547465.4800000004}},{"attributes":{"ID":559042,"DIS_CODE":0,"TOWNNAME":"安南區","LI":"溪頂里","LIN":"9鄰","STREET":"惠安街","SECT":" ","MAREA":" ","LANE":" ","ALLEY":" ","HOUSE_NO":"１０９號","E_COORD97":168760.64999999999,"N_COORD97":2547465.6200000001,"ADDRESS":"惠安街１０９號","OBJECTID":559015},"geometry":{"x":168760.6500000013,"y":2547465.6199999992}},{"attributes":{"ID":559043,"DIS_CODE":0,"TOWNNAME":"安南區","LI":"溪頂里","LIN":"9鄰","STREET":"惠安街","SECT":" ","MAREA":" ","LANE":" ","ALLEY":" ","HOUSE_NO":"１１１號","E_COORD97":168751.92999999999,"N_COORD97":2547465.6200000001,"ADDRESS":"惠安街１１１號","OBJECTID":559016},"geometry":{"x":168751.9299999997,"y":2547465.6199999992}},{"attributes":{"ID":559044,"DIS_CODE":0,"TOWNNAME":"安南區","LI":"溪頂里","LIN":"9鄰","STREET":"惠安街","SECT":" ","MAREA":" ","LANE":" ","ALLEY":" ","HOUSE_NO":"１１３號","E_COORD97":168744.29000000001,"N_COORD97":2547465.1499999999,"ADDRESS":"惠安街１１３號","OBJECTID":559017},"geometry":{"x":168744.29000000097,"y":2547465.1500000022}},{"attributes":{"ID":559045,"DIS_CODE":0,"TOWNNAME":"安南區","LI":"溪頂里","LIN":"9鄰","STREET":"惠安街","SECT":" ","MAREA":" ","LANE":" ","ALLEY":" ","HOUSE_NO":"１１５號","E_COORD97":168733.92000000001,"N_COORD97":2547464.5800000001,"ADDRESS":"惠安街１１５號","OBJECTID":559018},"geometry":{"x":168733.91999999993,"y":2547464.5800000001}},{"attributes":{"ID":559046,"DIS_CODE":0,"TOWNNAME":"永康區","LI":"南灣里","LIN":"9鄰","STREET":"大灣路","SECT":" ","MAREA":" ","LANE":" ","ALLEY":" ","HOUSE_NO":"６２３號","E_COORD97":174192.29000000001,"N_COORD97":2544517.2599999998,"ADDRESS":"大灣路６２３號","OBJECTID":559019},"geometry":{"x":174192.29000000097,"y":2544517.2600000035}},{"attributes":{"ID":559047,"DIS_CODE":0,"TOWNNAME":"永康區","LI":"北灣里","LIN":"9鄰","STREET":"大灣七街","SECT":" ","MAREA":" ","LANE":" ","ALLEY":" ","HOUSE_NO":"４０號","E_COORD97":175113.63,"N_COORD97":2545657.7799999998,"ADDRESS":"大灣七街４０號","OBJECTID":559020},"geometry":{"x":175113.63000000082,"y":2545657.7799999993}},{"attributes":{"ID":559048,"DIS_CODE":0,"TOWNNAME":"安南區","LI":"安順里","LIN":"9鄰","STREET":"安和路","SECT":"四段","MAREA":" ","LANE":" ","ALLEY":" ","HOUSE_NO":"１３９號","E_COORD97":169908.44,"N_COORD97":2550434.1800000002,"ADDRESS":"安和路四段１３９號","OBJECTID":559021},"geometry":{"x":169908.44000000134,"y":2550434.1800000034}},{"attributes":{"ID":559049,"DIS_CODE":0,"TOWNNAME":"安南區","LI":"安順里","LIN":"9鄰","STREET":"安和路","SECT":"四段","MAREA":" ","LANE":" ","ALLEY":" ","HOUSE_NO":"１４１號","E_COORD97":169907.92000000001,"N_COORD97":2550438.6299999999,"ADDRESS":"安和路四段１４１號","OBJECTID":559022},"geometry":{"x":169907.92000000086,"y":2550438.629999999}},{"attributes":{"ID":559050,"DIS_CODE":0,"TOWNNAME":"安南區","LI":"佃西里","LIN":"9鄰","STREET":"公學路","SECT":"四段","MAREA":" ","LANE":" ","ALLEY":" ","HOUSE_NO":"３９６號","E_COORD97":165124.26999999999,"N_COORD97":2551713.2000000002,"ADDRESS":"公學路四段３９６號","OBJECTID":559023},"geometry":{"x":165124.27000000048,"y":2551713.1999999993}},{"attributes":{"ID":559051,"DIS_CODE":0,"TOWNNAME":"仁德區","LI":"新田里","LIN":"9鄰","STREET":"北保路","SECT":" ","MAREA":" ","LANE":" ","ALLEY":" ","HOUSE_NO":"１７３號","E_COORD97":173470.62,"N_COORD97":2539455.7400000002,"ADDRESS":"北保路１７３號","OBJECTID":559024},"geometry":{"x":173470.62000000011,"y":2539455.7400000002}},{"attributes":{"ID":559052,"DIS_CODE":0,"TOWNNAME":"仁德區","LI":"新田里","LIN":"9鄰","STREET":"北保路","SECT":" ","MAREA":" ","LANE":" ","ALLEY":" ","HOUSE_NO":"１５７號","E_COORD97":173440.51000000001,"N_COORD97":2539467.75,"ADDRESS":"北保路１５７號","OBJECTID":559025},"geometry":{"x":173440.50999999978,"y":2539467.75}},{"attributes":{"ID":559053,"DIS_CODE":0,"TOWNNAME":"仁德區","LI":"新田里","LIN":"9鄰","STREET":"北保路","SECT":" ","MAREA":" ","LANE":" ","ALLEY":" ","HOUSE_NO":"１４３號","E_COORD97":173414.06,"N_COORD97":2539478.25,"ADDRESS":"北保路１４３號","OBJECTID":559026},"geometry":{"x":173414.06000000052,"y":2539478.25}},{"attributes":{"ID":559054,"DIS_CODE":0,"TOWNNAME":"仁德區","LI":"新田里","LIN":"9鄰","STREET":"中正路","SECT":"二段","MAREA":" ","LANE":" ","ALLEY":" ","HOUSE_NO":"５１０號","E_COORD97":173388.03853699999,"N_COORD97":2539510.0026500002,"ADDRESS":"中正路二段５１０號","OBJECTID":559027},"geometry":{"x":173388.03853700031,"y":2539510.0026500002}},{"attributes":{"ID":559055,"DIS_CODE":0,"TOWNNAME":"仁德區","LI":"新田里","LIN":"9鄰","STREET":"北保路","SECT":" ","MAREA":" ","LANE":" ","ALLEY":" ","HOUSE_NO":"１５１號","E_COORD97":173429.42000000001,"N_COORD97":2539472,"ADDRESS":"北保路１５１號","OBJECTID":559028},"geometry":{"x":173429.41999999993,"y":2539472.0000000019}},{"attributes":{"ID":559056,"DIS_CODE":0,"TOWNNAME":"仁德區","LI":"新田里","LIN":"9鄰","STREET":"中正路","SECT":"二段","MAREA":" ","LANE":" ","ALLEY":" ","HOUSE_NO":"５４６號","E_COORD97":173376.98999999999,"N_COORD97":2539600.2799999998,"ADDRESS":"中正路二段５４６號","OBJECTID":559029},"geometry":{"x":173376.99000000022,"y":2539600.2799999993}},{"attributes":{"ID":559057,"DIS_CODE":0,"TOWNNAME":"仁德區","LI":"新田里","LIN":"9鄰","STREET":"北保路","SECT":" ","MAREA":" ","LANE":" ","ALLEY":" ","HOUSE_NO":"１３５號","E_COORD97":173396.92000000001,"N_COORD97":2539484.9900000002,"ADDRESS":"北保路１３５號","OBJECTID":559030},"geometry":{"x":173396.91999999993,"y":2539484.9900000039}},{"attributes":{"ID":559058,"DIS_CODE":0,"TOWNNAME":"仁德區","LI":"新田里","LIN":"9鄰","STREET":"北保路","SECT":" ","MAREA":" ","LANE":" ","ALLEY":" ","HOUSE_NO":"１４９號","E_COORD97":173425.82999999999,"N_COORD97":2539472.5,"ADDRESS":"北保路１４９號","OBJECTID":559031},"geometry":{"x":173425.83000000101,"y":2539472.5000000019}},{"attributes":{"ID":559059,"DIS_CODE":0,"TOWNNAME":"仁德區","LI":"後壁里","LIN":"9鄰","STREET":"德善二街","SECT":" ","MAREA":" ","LANE":" ","ALLEY":" ","HOUSE_NO":"６２號","E_COORD97":173704.85999999999,"N_COORD97":2538985.5099999998,"ADDRESS":"德善二街６２號","OBJECTID":559032},"geometry":{"x":173704.86000000034,"y":2538985.5099999998}},{"attributes":{"ID":559060,"DIS_CODE":0,"TOWNNAME":"仁德區","LI":"新田里","LIN":"9鄰","STREET":"北保路","SECT":" ","MAREA":" ","LANE":" ","ALLEY":" ","HOUSE_NO":"１３７號","E_COORD97":173400.67000000001,"N_COORD97":2539483.5,"ADDRESS":"北保路１３７號","OBJECTID":559033},"geometry":{"x":173400.66999999993,"y":2539483.5}},{"attributes":{"ID":559061,"DIS_CODE":0,"TOWNNAME":"仁德區","LI":"太子里","LIN":"9鄰","STREET":"太子路","SECT":" ","MAREA":" ","LANE":" ","ALLEY":" ","HOUSE_NO":"１４０之１號","E_COORD97":174512.79999999999,"N_COORD97":2543551.6200000001,"ADDRESS":"太子路１４０之１號","OBJECTID":559034},"geometry":{"x":174512.80000000075,"y":2543551.620000001}},{"attributes":{"ID":559062,"DIS_CODE":0,"TOWNNAME":"仁德區","LI":"太子里","LIN":"9鄰","STREET":"太子路","SECT":" ","MAREA":" ","LANE":" ","ALLEY":" ","HOUSE_NO":"１４０之６號","E_COORD97":174488.85000000001,"N_COORD97":2543533.9900000002,"ADDRESS":"太子路１４０之６號","OBJECTID":559035},"geometry":{"x":174488.84999999963,"y":2543533.9900000021}},{"attributes":{"ID":559063,"DIS_CODE":0,"TOWNNAME":"下營區","LI":"後街里","LIN":"9鄰","STREET":"人和三街","SECT":" ","MAREA":" ","LANE":" ","ALLEY":" ","HOUSE_NO":"３號","E_COORD97":174413.45000000001,"N_COORD97":2570740.9300000002,"ADDRESS":"人和三街３號","OBJECTID":559036},"geometry":{"x":174413.45000000112,"y":2570740.9300000016}},{"attributes":{"ID":559064,"DIS_CODE":0,"TOWNNAME":"仁德區","LI":"仁德里","LIN":"9鄰","STREET":"仁德二街","SECT":" ","MAREA":" ","LANE":" ","ALLEY":" ","HOUSE_NO":"１２之１號","E_COORD97":173270.26999999999,"N_COORD97":2541085.04,"ADDRESS":"仁德二街１２之１號","OBJECTID":559037},"geometry":{"x":173270.27000000048,"y":2541085.040000001}},{"attributes":{"ID":559065,"DIS_CODE":0,"TOWNNAME":"仁德區","LI":"仁德里","LIN":"9鄰","STREET":"仁德二街","SECT":" ","MAREA":" ","LANE":" ","ALLEY":" ","HOUSE_NO":"２之１號","E_COORD97":173290.72,"N_COORD97":2541092.04,"ADDRESS":"仁德二街２之１號","OBJECTID":559038},"geometry":{"x":173290.72000000067,"y":2541092.040000001}},{"attributes":{"ID":559066,"DIS_CODE":0,"TOWNNAME":"下營區","LI":"後街里","LIN":"9鄰","STREET":"人和三街","SECT":" ","MAREA":" ","LANE":" ","ALLEY":" ","HOUSE_NO":"１號","E_COORD97":174419.10999999999,"N_COORD97":2570743.2000000002,"ADDRESS":"人和三街１號","OBJECTID":559039},"geometry":{"x":174419.1100000022,"y":2570743.2000000011}},{"attributes":{"ID":559067,"DIS_CODE":0,"TOWNNAME":"下營區","LI":"宅內里","LIN":"9鄰","STREET":"人和三街","SECT":" ","MAREA":" ","LANE":" ","ALLEY":" ","HOUSE_NO":"７３號","E_COORD97":174229.56,"N_COORD97":2570705.3799999999,"ADDRESS":"人和三街７３號","OBJECTID":559040},"geometry":{"x":174229.55999999959,"y":2570705.379999999}},{"attributes":{"ID":559068,"DIS_CODE":0,"TOWNNAME":"下營區","LI":"宅內里","LIN":"9鄰","STREET":"人和三街","SECT":" ","MAREA":" ","LANE":" ","ALLEY":" ","HOUSE_NO":"７５號","E_COORD97":174224.67000000001,"N_COORD97":2570705.0800000001,"ADDRESS":"人和三街７５號","OBJECTID":559041},"geometry":{"x":174224.66999999993,"y":2570705.0800000001}},{"attributes":{"ID":559069,"DIS_CODE":0,"TOWNNAME":"下營區","LI":"宅內里","LIN":"9鄰","STREET":"人和三街","SECT":" ","MAREA":" ","LANE":" ","ALLEY":" ","HOUSE_NO":"７７號","E_COORD97":174219.60999999999,"N_COORD97":2570704.77,"ADDRESS":"人和三街７７號","OBJECTID":559042},"geometry":{"x":174219.61000000127,"y":2570704.7700000014}},{"attributes":{"ID":559070,"DIS_CODE":0,"TOWNNAME":"下營區","LI":"宅內里","LIN":"9鄰","STREET":"人和三街","SECT":" ","MAREA":" ","LANE":" ","ALLEY":" ","HOUSE_NO":"７９號","E_COORD97":174214.98000000001,"N_COORD97":2570704.3500000001,"ADDRESS":"人和三街７９號","OBJECTID":559043},"geometry":{"x":174214.98000000231,"y":2570704.3500000015}},{"attributes":{"ID":559071,"DIS_CODE":0,"TOWNNAME":"下營區","LI":"後街里","LIN":"9鄰","STREET":"人和三街","SECT":" ","MAREA":" ","LANE":" ","ALLEY":" ","HOUSE_NO":"７號","E_COORD97":174408.95000000001,"N_COORD97":2570739.1099999999,"ADDRESS":"人和三街７號","OBJECTID":559044},"geometry":{"x":174408.95000000019,"y":2570739.1100000031}},{"attributes":{"ID":559072,"DIS_CODE":0,"TOWNNAME":"下營區","LI":"宅內里","LIN":"9鄰","STREET":"人和三街","SECT":" ","MAREA":" ","LANE":" ","ALLEY":" ","HOUSE_NO":"８１號","E_COORD97":174209.64999999999,"N_COORD97":2570703.9399999999,"ADDRESS":"人和三街８１號","OBJECTID":559045},"geometry":{"x":174209.65000000037,"y":2570703.9400000013}},{"attributes":{"ID":559073,"DIS_CODE":0,"TOWNNAME":"下營區","LI":"宅內里","LIN":"9鄰","STREET":"人和三街","SECT":" ","MAREA":" ","LANE":" ","ALLEY":" ","HOUSE_NO":"８３號","E_COORD97":174206.10999999999,"N_COORD97":2570703.3900000001,"ADDRESS":"人和三街８３號","OBJECTID":559046},"geometry":{"x":174206.11000000127,"y":2570703.3900000006}},{"attributes":{"ID":559074,"DIS_CODE":0,"TOWNNAME":"下營區","LI":"後街里","LIN":"9鄰","STREET":"三民街","SECT":" ","MAREA":" ","LANE":" ","ALLEY":" ","HOUSE_NO":"２號","E_COORD97":174407.69,"N_COORD97":2570703.6800000002,"ADDRESS":"三民街２號","OBJECTID":559047},"geometry":{"x":174407.69000000041,"y":2570703.6799999997}},{"attributes":{"ID":559075,"DIS_CODE":0,"TOWNNAME":"中西區","LI":"赤嵌里","LIN":"9鄰","STREET":"觀亭街","SECT":" ","MAREA":" ","LANE":" ","ALLEY":" ","HOUSE_NO":"５２號","E_COORD97":168563.59,"N_COORD97":2544117.4100000001,"ADDRESS":"觀亭街５２號","OBJECTID":559048},"geometry":{"x":168563.59000000078,"y":2544117.410000002}},{"attributes":{"ID":559076,"DIS_CODE":0,"TOWNNAME":"中西區","LI":"赤嵌里","LIN":"9鄰","STREET":"觀亭街","SECT":" ","MAREA":" ","LANE":" ","ALLEY":" ","HOUSE_NO":"５６號","E_COORD97":168567.22,"N_COORD97":2544133.5899999999,"ADDRESS":"觀亭街５６號","OBJECTID":559049},"geometry":{"x":168567.21999999974,"y":2544133.5900000017}},{"attributes":{"ID":559077,"DIS_CODE":0,"TOWNNAME":"中西區","LI":"赤嵌里","LIN":"9鄰","STREET":"觀亭街","SECT":" ","MAREA":" ","LANE":" ","ALLEY":" ","HOUSE_NO":"３２號","E_COORD97":168556.32000000001,"N_COORD97":2544089.0299999998,"ADDRESS":"觀亭街３２號","OBJECTID":559050},"geometry":{"x":168556.32000000123,"y":2544089.0300000012}},{"attributes":{"ID":559078,"DIS_CODE":0,"TOWNNAME":"中西區","LI":"赤嵌里","LIN":"9鄰","STREET":"民族路","SECT":"二段","MAREA":" ","LANE":" ","ALLEY":" ","HOUSE_NO":"１１２號之２","E_COORD97":168567.54999999999,"N_COORD97":2544051.0699999998,"ADDRESS":"民族路二段１１２號之２","OBJECTID":559051},"geometry":{"x":168567.55000000075,"y":2544051.0699999984}},{"attributes":{"ID":559079,"DIS_CODE":0,"TOWNNAME":"中西區","LI":"赤嵌里","LIN":"9鄰","STREET":"民族路","SECT":"二段","MAREA":" ","LANE":" ","ALLEY":" ","HOUSE_NO":"１１２號之３","E_COORD97":168562.92999999999,"N_COORD97":2544052.7200000002,"ADDRESS":"民族路二段１１２號之３","OBJECTID":559052},"geometry":{"x":168562.93000000063,"y":2544052.7200000007}},{"attributes":{"ID":559080,"DIS_CODE":0,"TOWNNAME":"中西區","LI":"赤嵌里","LIN":"9鄰","STREET":"民族路","SECT":"二段","MAREA":" ","LANE":" ","ALLEY":" ","HOUSE_NO":"１１４號","E_COORD97":168559.29000000001,"N_COORD97":2544055.0299999998,"ADDRESS":"民族路二段１１４號","OBJECTID":559053},"geometry":{"x":168559.29000000097,"y":2544055.0300000012}},{"attributes":{"ID":559081,"DIS_CODE":0,"TOWNNAME":"中西區","LI":"赤嵌里","LIN":"9鄰","STREET":"民族路","SECT":"二段","MAREA":" ","LANE":" ","ALLEY":" ","HOUSE_NO":"１１６號","E_COORD97":168556.32000000001,"N_COORD97":2544055.6899999999,"ADDRESS":"民族路二段１１６號","OBJECTID":559054},"geometry":{"x":168556.32000000123,"y":2544055.6899999995}},{"attributes":{"ID":559082,"DIS_CODE":0,"TOWNNAME":"中西區","LI":"赤嵌里","LIN":"9鄰","STREET":"民族路","SECT":"二段","MAREA":" ","LANE":" ","ALLEY":" ","HOUSE_NO":"１１８號","E_COORD97":168552.67999999999,"N_COORD97":2544057.3399999999,"ADDRESS":"民族路二段１１８號","OBJECTID":559055},"geometry":{"x":168552.68000000063,"y":2544057.3400000017}},{"attributes":{"ID":559083,"DIS_CODE":0,"TOWNNAME":"中西區","LI":"赤嵌里","LIN":"9鄰","STREET":"民族路","SECT":"二段","MAREA":" ","LANE":" ","ALLEY":" ","HOUSE_NO":"１２０號","E_COORD97":168549.37,"N_COORD97":2544058,"ADDRESS":"民族路二段１２０號","OBJECTID":559056},"geometry":{"x":168549.37000000011,"y":2544057.9999999981}},{"attributes":{"ID":559084,"DIS_CODE":0,"TOWNNAME":"中西區","LI":"赤嵌里","LIN":"9鄰","STREET":"民族路","SECT":"二段","MAREA":" ","LANE":" ","ALLEY":" ","HOUSE_NO":"１２２號","E_COORD97":168546.39999999999,"N_COORD97":2544059.3199999998,"ADDRESS":"民族路二段１２２號","OBJECTID":559057},"geometry":{"x":168546.40000000037,"y":2544059.3200000003}},{"attributes":{"ID":559085,"DIS_CODE":0,"TOWNNAME":"中西區","LI":"赤嵌里","LIN":"9鄰","STREET":"民族路","SECT":"二段","MAREA":" ","LANE":" ","ALLEY":" ","HOUSE_NO":"１２４號","E_COORD97":168542.42999999999,"N_COORD97":2544060.6400000001,"ADDRESS":"民族路二段１２４號","OBJECTID":559058},"geometry":{"x":168542.43000000156,"y":2544060.6400000006}},{"attributes":{"ID":559086,"DIS_CODE":0,"TOWNNAME":"中西區","LI":"赤嵌里","LIN":"9鄰","STREET":"觀亭街","SECT":" ","MAREA":" ","LANE":" ","ALLEY":" ","HOUSE_NO":"１０號","E_COORD97":168552.01999999999,"N_COORD97":2544077.7999999998,"ADDRESS":"觀亭街１０號","OBJECTID":559059},"geometry":{"x":168552.02000000048,"y":2544077.8000000026}},{"attributes":{"ID":559087,"DIS_CODE":0,"TOWNNAME":"中西區","LI":"赤嵌里","LIN":"9鄰","STREET":"觀亭街","SECT":" ","MAREA":" ","LANE":" ","ALLEY":" ","HOUSE_NO":"１２號","E_COORD97":168555.64999999999,"N_COORD97":2544076.1499999999,"ADDRESS":"觀亭街１２號","OBJECTID":559060},"geometry":{"x":168555.6500000013,"y":2544076.1500000022}},{"attributes":{"ID":559088,"DIS_CODE":0,"TOWNNAME":"中西區","LI":"赤嵌里","LIN":"9鄰","STREET":"觀亭街","SECT":" ","MAREA":" ","LANE":" ","ALLEY":" ","HOUSE_NO":"１６號","E_COORD97":168559.29000000001,"N_COORD97":2544074.8300000001,"ADDRESS":"觀亭街１６號","OBJECTID":559061},"geometry":{"x":168559.29000000097,"y":2544074.8300000001}},{"attributes":{"ID":559089,"DIS_CODE":0,"TOWNNAME":"中西區","LI":"赤嵌里","LIN":"9鄰","STREET":"觀亭街","SECT":" ","MAREA":" ","LANE":" ","ALLEY":" ","HOUSE_NO":"１８號","E_COORD97":168562.60000000001,"N_COORD97":2544073.5,"ADDRESS":"觀亭街１８號","OBJECTID":559062},"geometry":{"x":168562.59999999963,"y":2544073.5}},{"attributes":{"ID":559090,"DIS_CODE":0,"TOWNNAME":"中西區","LI":"赤嵌里","LIN":"9鄰","STREET":"觀亭街","SECT":" ","MAREA":" ","LANE":" ","ALLEY":" ","HOUSE_NO":"２０號","E_COORD97":168565.89999999999,"N_COORD97":2544072.52,"ADDRESS":"觀亭街２０號","OBJECTID":559063},"geometry":{"x":168565.9000000013,"y":2544072.5200000014}},{"attributes":{"ID":559091,"DIS_CODE":0,"TOWNNAME":"中西區","LI":"赤嵌里","LIN":"9鄰","STREET":"觀亭街","SECT":" ","MAREA":" ","LANE":" ","ALLEY":" ","HOUSE_NO":"２２號","E_COORD97":168569.54000000001,"N_COORD97":2544071.5299999998,"ADDRESS":"觀亭街２２號","OBJECTID":559064},"geometry":{"x":168569.54000000097,"y":2544071.5300000012}},{"attributes":{"ID":559092,"DIS_CODE":0,"TOWNNAME":"中西區","LI":"赤嵌里","LIN":"9鄰","STREET":"觀亭街","SECT":" ","MAREA":" ","LANE":" ","ALLEY":" ","HOUSE_NO":"２６號","E_COORD97":168558.29999999999,"N_COORD97":2544082.4300000002,"ADDRESS":"觀亭街２６號","OBJECTID":559065},"geometry":{"x":168558.29999999981,"y":2544082.4300000016}},{"attributes":{"ID":559093,"DIS_CODE":0,"TOWNNAME":"中西區","LI":"赤嵌里","LIN":"9鄰","STREET":"觀亭街","SECT":" ","MAREA":" ","LANE":" ","ALLEY":" ","HOUSE_NO":"２８號","E_COORD97":168549.38,"N_COORD97":2544084.0800000001,"ADDRESS":"觀亭街２８號","OBJECTID":559066},"geometry":{"x":168549.37999999989,"y":2544084.0800000001}},{"attributes":{"ID":559094,"DIS_CODE":0,"TOWNNAME":"中西區","LI":"赤嵌里","LIN":"9鄰","STREET":"觀亭街","SECT":" ","MAREA":" ","LANE":" ","ALLEY":" ","HOUSE_NO":"３０號","E_COORD97":168549.38,"N_COORD97":2544088.04,"ADDRESS":"觀亭街３０號","OBJECTID":559067},"geometry":{"x":168549.37999999989,"y":2544088.040000001}},{"attributes":{"ID":559095,"DIS_CODE":0,"TOWNNAME":"中西區","LI":"赤嵌里","LIN":"9鄰","STREET":"公園路","SECT":" ","MAREA":" ","LANE":" ","ALLEY":" ","HOUSE_NO":"１０１號","E_COORD97":168584.73999999999,"N_COORD97":2544077.4700000002,"ADDRESS":"公園路１０１號","OBJECTID":559068},"geometry":{"x":168584.73999999929,"y":2544077.4700000025}},{"attributes":{"ID":559096,"DIS_CODE":0,"TOWNNAME":"中西區","LI":"赤嵌里","LIN":"9鄰","STREET":"公園路","SECT":" ","MAREA":" ","LANE":" ","ALLEY":" ","HOUSE_NO":"１０７號","E_COORD97":168587.38,"N_COORD97":2544084.7400000002,"ADDRESS":"公園路１０７號","OBJECTID":559069},"geometry":{"x":168587.38000000082,"y":2544084.7400000021}},{"attributes":{"ID":559097,"DIS_CODE":0,"TOWNNAME":"中西區","LI":"赤嵌里","LIN":"9鄰","STREET":"公園路","SECT":" ","MAREA":" ","LANE":" ","ALLEY":" ","HOUSE_NO":"８９號","E_COORD97":168574.82000000001,"N_COORD97":2544051.0699999998,"ADDRESS":"公園路８９號","OBJECTID":559070},"geometry":{"x":168574.82000000123,"y":2544051.0699999984}},{"attributes":{"ID":559098,"DIS_CODE":0,"TOWNNAME":"中西區","LI":"赤嵌里","LIN":"9鄰","STREET":"公園路","SECT":" ","MAREA":" ","LANE":" ","ALLEY":" ","HOUSE_NO":"９１號","E_COORD97":168574.48999999999,"N_COORD97":2544055.3599999999,"ADDRESS":"公園路９１號","OBJECTID":559071},"geometry":{"x":168574.49000000022,"y":2544055.3600000013}},{"attributes":{"ID":559099,"DIS_CODE":0,"TOWNNAME":"中西區","LI":"赤嵌里","LIN":"9鄰","STREET":"公園路","SECT":" ","MAREA":" ","LANE":" ","ALLEY":" ","HOUSE_NO":"９３號","E_COORD97":168576.14999999999,"N_COORD97":2544058.9900000002,"ADDRESS":"公園路９３號","OBJECTID":559072},"geometry":{"x":168576.1500000013,"y":2544058.9900000021}},{"attributes":{"ID":559100,"DIS_CODE":0,"TOWNNAME":"中西區","LI":"赤嵌里","LIN":"9鄰","STREET":"公園路","SECT":" ","MAREA":" ","LANE":" ","ALLEY":" ","HOUSE_NO":"９５號","E_COORD97":168578.13,"N_COORD97":2544062.9500000002,"ADDRESS":"公園路９５號","OBJECTID":559073},"geometry":{"x":168578.12999999989,"y":2544062.9499999993}},{"attributes":{"ID":559101,"DIS_CODE":0,"TOWNNAME":"中西區","LI":"赤嵌里","LIN":"9鄰","STREET":"公園路","SECT":" ","MAREA":" ","LANE":" ","ALLEY":" ","HOUSE_NO":"９７號","E_COORD97":168579.45000000001,"N_COORD97":2544067.2400000002,"ADDRESS":"公園路９７號","OBJECTID":559074},"geometry":{"x":168579.45000000019,"y":2544067.2400000021}},{"attributes":{"ID":559102,"DIS_CODE":0,"TOWNNAME":"中西區","LI":"赤嵌里","LIN":"9鄰","STREET":"公園路","SECT":" ","MAREA":" ","LANE":" ","ALLEY":" ","HOUSE_NO":"９９號","E_COORD97":168579.12,"N_COORD97":2544072.1899999999,"ADDRESS":"公園路９９號","OBJECTID":559075},"geometry":{"x":168579.12000000104,"y":2544072.1899999995}},{"attributes":{"ID":559103,"DIS_CODE":0,"TOWNNAME":"中西區","LI":"赤嵌里","LIN":"9鄰","STREET":"觀亭街","SECT":" ","MAREA":" ","LANE":" ","ALLEY":" ","HOUSE_NO":"３６號","E_COORD97":168554.98999999999,"N_COORD97":2544093.98,"ADDRESS":"觀亭街３６號","OBJECTID":559076},"geometry":{"x":168554.99000000115,"y":2544093.9800000023}},{"attributes":{"ID":559104,"DIS_CODE":0,"TOWNNAME":"中西區","LI":"赤嵌里","LIN":"9鄰","STREET":"觀亭街","SECT":" ","MAREA":" ","LANE":" ","ALLEY":" ","HOUSE_NO":"３８號","E_COORD97":168556.98000000001,"N_COORD97":2544096.6200000001,"ADDRESS":"觀亭街３８號","OBJECTID":559077},"geometry":{"x":168556.98000000138,"y":2544096.6200000029}},{"attributes":{"ID":559105,"DIS_CODE":0,"TOWNNAME":"中西區","LI":"赤嵌里","LIN":"9鄰","STREET":"觀亭街","SECT":" ","MAREA":" ","LANE":" ","ALLEY":" ","HOUSE_NO":"４０號","E_COORD97":168567.22,"N_COORD97":2544089.3599999999,"ADDRESS":"觀亭街４０號","OBJECTID":559078},"geometry":{"x":168567.21999999974,"y":2544089.3600000013}},{"attributes":{"ID":559106,"DIS_CODE":0,"TOWNNAME":"中西區","LI":"赤嵌里","LIN":"9鄰","STREET":"觀亭街","SECT":" ","MAREA":" ","LANE":" ","ALLEY":" ","HOUSE_NO":"４２號","E_COORD97":168567.88,"N_COORD97":2544083.4199999999,"ADDRESS":"觀亭街４２號","OBJECTID":559079},"geometry":{"x":168567.87999999989,"y":2544083.4200000018}},{"attributes":{"ID":559107,"DIS_CODE":0,"TOWNNAME":"中西區","LI":"赤嵌里","LIN":"9鄰","STREET":"公園路","SECT":" ","MAREA":" ","LANE":" ","ALLEY":" ","HOUSE_NO":"１１３號","E_COORD97":168604.57000000001,"N_COORD97":2544119.3900000001,"ADDRESS":"公園路１１３號","OBJECTID":559080},"geometry":{"x":168604.5700000003,"y":2544119.3900000006}},{"attributes":{"ID":559108,"DIS_CODE":0,"TOWNNAME":"中西區","LI":"赤嵌里","LIN":"9鄰","STREET":"觀亭街","SECT":" ","MAREA":" ","LANE":" ","ALLEY":" ","HOUSE_NO":"４８號","E_COORD97":168557.31,"N_COORD97":2544101.8999999999,"ADDRESS":"觀亭街４８號","OBJECTID":559081},"geometry":{"x":168557.31000000052,"y":2544101.9000000004}},{"attributes":{"ID":559109,"DIS_CODE":0,"TOWNNAME":"中西區","LI":"赤嵌里","LIN":"9鄰","STREET":"觀亭街","SECT":" ","MAREA":" ","LANE":" ","ALLEY":" ","HOUSE_NO":"５０號","E_COORD97":168558.95999999999,"N_COORD97":2544104.8700000001,"ADDRESS":"觀亭街５０號","OBJECTID":559082},"geometry":{"x":168558.95999999996,"y":2544104.8700000029}},{"attributes":{"ID":559110,"DIS_CODE":0,"TOWNNAME":"中西區","LI":"赤嵌里","LIN":"9鄰","STREET":"觀亭街","SECT":" ","MAREA":" ","LANE":" ","ALLEY":" ","HOUSE_NO":"４６號","E_COORD97":168575.48999999999,"N_COORD97":2544098.71,"ADDRESS":"觀亭街４６號","OBJECTID":559083},"geometry":{"x":168575.49000000115,"y":2544098.7100000028}},{"attributes":{"ID":559111,"DIS_CODE":0,"TOWNNAME":"中西區","LI":"西湖里","LIN":"9鄰","STREET":"民權路","SECT":"四段","MAREA":" ","LANE":" ","ALLEY":" ","HOUSE_NO":"１６６號","E_COORD97":166121.76000000001,"N_COORD97":2544439.4900000002,"ADDRESS":"民權路四段１６６號","OBJECTID":559084},"geometry":{"x":166121.76000000071,"y":2544439.4900000021}},{"attributes":{"ID":559112,"DIS_CODE":0,"TOWNNAME":"中西區","LI":"西湖里","LIN":"9鄰","STREET":"民權路","SECT":"四段","MAREA":" ","LANE":" ","ALLEY":" ","HOUSE_NO":"１６８之１號","E_COORD97":166109.82000000001,"N_COORD97":2544439.1099999999,"ADDRESS":"民權路四段１６８之１號","OBJECTID":559085},"geometry":{"x":166109.82000000123,"y":2544439.1099999994}},{"attributes":{"ID":559113,"DIS_CODE":0,"TOWNNAME":"中西區","LI":"西湖里","LIN":"9鄰","STREET":"民權路","SECT":"四段","MAREA":" ","LANE":" ","ALLEY":" ","HOUSE_NO":"１６６之１號","E_COORD97":166118.07999999999,"N_COORD97":2544439.3700000001,"ADDRESS":"民權路四段１６６之１號","OBJECTID":559086},"geometry":{"x":166118.08000000101,"y":2544439.370000001}},{"attributes":{"ID":559114,"DIS_CODE":0,"TOWNNAME":"中西區","LI":"西湖里","LIN":"9鄰","STREET":"民權路","SECT":"四段","MAREA":" ","LANE":" ","ALLEY":" ","HOUSE_NO":"１６８號","E_COORD97":166113.88,"N_COORD97":2544439.3700000001,"ADDRESS":"民權路四段１６８號","OBJECTID":559087},"geometry":{"x":166113.88000000082,"y":2544439.370000001}},{"attributes":{"ID":559115,"DIS_CODE":0,"TOWNNAME":"中西區","LI":"西湖里","LIN":"9鄰","STREET":"民權路","SECT":"四段","MAREA":" ","LANE":" ","ALLEY":" ","HOUSE_NO":"１６８之２號","E_COORD97":166105.63,"N_COORD97":2544437.8399999999,"ADDRESS":"民權路四段１６８之２號","OBJECTID":559088},"geometry":{"x":166105.63000000082,"y":2544437.8399999999}},{"attributes":{"ID":559116,"DIS_CODE":0,"TOWNNAME":"中西區","LI":"協和里","LIN":"9鄰","STREET":"成功路","SECT":" ","MAREA":" ","LANE":" ","ALLEY":" ","HOUSE_NO":"５５９號","E_COORD97":167414.76999999999,"N_COORD97":2544811.8100000001,"ADDRESS":"成功路５５９號","OBJECTID":559089},"geometry":{"x":167414.77000000048,"y":2544811.8100000005}},{"attributes":{"ID":559117,"DIS_CODE":0,"TOWNNAME":"新市區","LI":"永就里","LIN":"9鄰","STREET":"中山路","SECT":" ","MAREA":" ","LANE":" ","ALLEY":" ","HOUSE_NO":"２０７號","E_COORD97":177450.45999999999,"N_COORD97":2551992.25,"ADDRESS":"中山路２０７號","OBJECTID":559090},"geometry":{"x":177450.45999999996,"y":2551992.25}},{"attributes":{"ID":559118,"DIS_CODE":0,"TOWNNAME":"新市區","LI":"新市里","LIN":"9鄰","STREET":"中興街","SECT":" ","MAREA":" ","LANE":" ","ALLEY":" ","HOUSE_NO":"１４２號","E_COORD97":177473.48000000001,"N_COORD97":2553114.5,"ADDRESS":"中興街１４２號","OBJECTID":559091},"geometry":{"x":177473.48000000138,"y":2553114.5000000019}},{"attributes":{"ID":559119,"DIS_CODE":0,"TOWNNAME":"新市區","LI":"新和里","LIN":"9鄰","STREET":"可口街","SECT":" ","MAREA":" ","LANE":" ","ALLEY":" ","HOUSE_NO":"１７號","E_COORD97":177575.51000000001,"N_COORD97":2552408,"ADDRESS":"可口街１７號","OBJECTID":559092},"geometry":{"x":177575.51000000164,"y":2552408}},{"attributes":{"ID":559120,"DIS_CODE":0,"TOWNNAME":"安南區","LI":"安慶里","LIN":"9鄰","STREET":"長溪路","SECT":"一段","MAREA":" ","LANE":" ","ALLEY":" ","HOUSE_NO":"３６６號","E_COORD97":168676.20000000001,"N_COORD97":2548897.5899999999,"ADDRESS":"長溪路一段３６６號","OBJECTID":559093},"geometry":{"x":168676.20000000019,"y":2548897.5899999999}},{"attributes":{"ID":559121,"DIS_CODE":0,"TOWNNAME":"安南區","LI":"安慶里","LIN":"9鄰","STREET":"長溪路","SECT":"一段","MAREA":" ","LANE":" ","ALLEY":" ","HOUSE_NO":"３６８號","E_COORD97":168673.62,"N_COORD97":2548900.98,"ADDRESS":"長溪路一段３６８號","OBJECTID":559094},"geometry":{"x":168673.61999999918,"y":2548900.9800000023}},{"attributes":{"ID":559122,"DIS_CODE":0,"TOWNNAME":"新市區","LI":"永就里","LIN":"9鄰","STREET":"中山路","SECT":" ","MAREA":" ","LANE":" ","ALLEY":" ","HOUSE_NO":"２００號","E_COORD97":177770.29000000001,"N_COORD97":2552262,"ADDRESS":"中山路２００號","OBJECTID":559095},"geometry":{"x":177770.29000000004,"y":2552262}},{"attributes":{"ID":559123,"DIS_CODE":0,"TOWNNAME":"新市區","LI":"永就里","LIN":"9鄰","STREET":"中山路","SECT":" ","MAREA":" ","LANE":" ","ALLEY":" ","HOUSE_NO":"１９４號","E_COORD97":177787.17999999999,"N_COORD97":2552272.75,"ADDRESS":"中山路１９４號","OBJECTID":559096},"geometry":{"x":177787.1799999997,"y":2552272.7500000019}},{"attributes":{"ID":559124,"DIS_CODE":0,"TOWNNAME":"新市區","LI":"永就里","LIN":"9鄰","STREET":"中山路","SECT":" ","MAREA":" ","LANE":" ","ALLEY":" ","HOUSE_NO":"１９９之６號","E_COORD97":177536.87,"N_COORD97":2552037.2999999998,"ADDRESS":"中山路１９９之６號","OBJECTID":559097},"geometry":{"x":177536.87000000104,"y":2552037.3000000007}},{"attributes":{"ID":559125,"DIS_CODE":0,"TOWNNAME":"新市區","LI":"永就里","LIN":"9鄰","STREET":"中山路","SECT":" ","MAREA":" ","LANE":" ","ALLEY":" ","HOUSE_NO":"２０２之１６號","E_COORD97":177752.04000000001,"N_COORD97":2552280.5499999998,"ADDRESS":"中山路２０２之１６號","OBJECTID":559098},"geometry":{"x":177752.04000000097,"y":2552280.5500000026}},{"attributes":{"ID":559126,"DIS_CODE":0,"TOWNNAME":"新市區","LI":"永就里","LIN":"9鄰","STREET":"中山路","SECT":" ","MAREA":" ","LANE":" ","ALLEY":" ","HOUSE_NO":"１７５號","E_COORD97":178036.31,"N_COORD97":2552373.2400000002,"ADDRESS":"中山路１７５號","OBJECTID":559099},"geometry":{"x":178036.31000000052,"y":2552373.2400000039}},{"attributes":{"ID":559127,"DIS_CODE":0,"TOWNNAME":"新市區","LI":"新和里","LIN":"9鄰","STREET":"可口街","SECT":" ","MAREA":" ","LANE":" ","ALLEY":" ","HOUSE_NO":"３５號","E_COORD97":177587.01000000001,"N_COORD97":2552443.75,"ADDRESS":"可口街３５號","OBJECTID":559100},"geometry":{"x":177587.00999999978,"y":2552443.75}},{"attributes":{"ID":559128,"DIS_CODE":0,"TOWNNAME":"新市區","LI":"新市里","LIN":"9鄰","STREET":"中興街","SECT":" ","MAREA":" ","LANE":" ","ALLEY":" ","HOUSE_NO":"８６號","E_COORD97":177591.26999999999,"N_COORD97":2553117.75,"ADDRESS":"中興街８６號","OBJECTID":559101},"geometry":{"x":177591.27000000048,"y":2553117.75}},{"attributes":{"ID":559129,"DIS_CODE":0,"TOWNNAME":"新市區","LI":"新市里","LIN":"9鄰","STREET":"中興街","SECT":" ","MAREA":" ","LANE":" ","ALLEY":" ","HOUSE_NO":"６８號","E_COORD97":177631.32000000001,"N_COORD97":2553120.5,"ADDRESS":"中興街６８號","OBJECTID":559102},"geometry":{"x":177631.3200000003,"y":2553120.5000000037}},{"attributes":{"ID":559130,"DIS_CODE":0,"TOWNNAME":"新市區","LI":"新市里","LIN":"9鄰","STREET":"中興街","SECT":" ","MAREA":" ","LANE":" ","ALLEY":" ","HOUSE_NO":"８４號","E_COORD97":177595.37,"N_COORD97":2553117.75,"ADDRESS":"中興街８４號","OBJECTID":559103},"geometry":{"x":177595.36999999918,"y":2553117.75}},{"attributes":{"ID":559131,"DIS_CODE":0,"TOWNNAME":"新市區","LI":"新市里","LIN":"9鄰","STREET":"中興街","SECT":" ","MAREA":" ","LANE":" ","ALLEY":" ","HOUSE_NO":"７０號","E_COORD97":177626.84,"N_COORD97":2553120.25,"ADDRESS":"中興街７０號","OBJECTID":559104},"geometry":{"x":177626.83999999985,"y":2553120.2500000019}},{"attributes":{"ID":559132,"DIS_CODE":0,"TOWNNAME":"新市區","LI":"新市里","LIN":"9鄰","STREET":"中興街","SECT":" ","MAREA":" ","LANE":" ","ALLEY":" ","HOUSE_NO":"６６號","E_COORD97":177635.51999999999,"N_COORD97":2553121,"ADDRESS":"中興街６６號","OBJECTID":559105},"geometry":{"x":177635.51999999955,"y":2553121.0000000019}},{"attributes":{"ID":559133,"DIS_CODE":0,"TOWNNAME":"新市區","LI":"新市里","LIN":"9鄰","STREET":"中興街","SECT":" ","MAREA":" ","LANE":" ","ALLEY":" ","HOUSE_NO":"１１８號","E_COORD97":177522.45999999999,"N_COORD97":2553115.5,"ADDRESS":"中興街１１８號","OBJECTID":559106},"geometry":{"x":177522.46000000089,"y":2553115.5000000019}},{"attributes":{"ID":559134,"DIS_CODE":0,"TOWNNAME":"新市區","LI":"新市里","LIN":"9鄰","STREET":"中興街","SECT":" ","MAREA":" ","LANE":" ","ALLEY":" ","HOUSE_NO":"１３８號","E_COORD97":177483.57000000001,"N_COORD97":2553114.5,"ADDRESS":"中興街１３８號","OBJECTID":559107},"geometry":{"x":177483.5700000003,"y":2553114.5000000019}},{"attributes":{"ID":559135,"DIS_CODE":0,"TOWNNAME":"新市區","LI":"永就里","LIN":"9鄰","STREET":"中華路","SECT":" ","MAREA":" ","LANE":" ","ALLEY":" ","HOUSE_NO":"３３號","E_COORD97":177447.56,"N_COORD97":2551848,"ADDRESS":"中華路３３號","OBJECTID":559108},"geometry":{"x":177447.55999999959,"y":2551848}},{"attributes":{"ID":559136,"DIS_CODE":0,"TOWNNAME":"新市區","LI":"新市里","LIN":"9鄰","STREET":"中興街","SECT":" ","MAREA":" ","LANE":" ","ALLEY":" ","HOUSE_NO":"１３２號","E_COORD97":177495.32000000001,"N_COORD97":2553115,"ADDRESS":"中興街１３２號","OBJECTID":559109},"geometry":{"x":177495.3200000003,"y":2553115.0000000019}},{"attributes":{"ID":559137,"DIS_CODE":0,"TOWNNAME":"新市區","LI":"新市里","LIN":"9鄰","STREET":"中興街","SECT":" ","MAREA":" ","LANE":" ","ALLEY":" ","HOUSE_NO":"１３６號","E_COORD97":177487.76000000001,"N_COORD97":2553114.5,"ADDRESS":"中興街１３６號","OBJECTID":559110},"geometry":{"x":177487.76000000071,"y":2553114.5000000019}},{"attributes":{"ID":559138,"DIS_CODE":0,"TOWNNAME":"新市區","LI":"港墘里","LIN":"9鄰","STREET":"長安街","SECT":" ","MAREA":" ","LANE":" ","ALLEY":" ","HOUSE_NO":"１３號","E_COORD97":178468.37,"N_COORD97":2552674.3199999998,"ADDRESS":"長安街１３號","OBJECTID":559111},"geometry":{"x":178468.36999999918,"y":2552674.3200000003}},{"attributes":{"ID":559139,"DIS_CODE":0,"TOWNNAME":"新市區","LI":"三舍里","LIN":"9鄰","STREET":"大順一路","SECT":" ","MAREA":" ","LANE":" ","ALLEY":" ","HOUSE_NO":"２３號","E_COORD97":177110.17000000001,"N_COORD97":2555420,"ADDRESS":"大順一路２３號","OBJECTID":559112},"geometry":{"x":177110.17000000179,"y":2555420.0000000019}},{"attributes":{"ID":559140,"DIS_CODE":0,"TOWNNAME":"東區","LI":"中西里","LIN":"33鄰","STREET":"林森路","SECT":"二段","MAREA":" ","LANE":" ","ALLEY":" ","HOUSE_NO":"１１９號之６","E_COORD97":170413.5,"N_COORD97":2543423.71,"ADDRESS":"林森路二段１１９號之６","OBJECTID":559113},"geometry":{"x":170413.5,"y":2543423.7100000046}},{"attributes":{"ID":559141,"DIS_CODE":0,"TOWNNAME":"東區","LI":"中西里","LIN":"33鄰","STREET":"林森路","SECT":"二段","MAREA":" ","LANE":" ","ALLEY":" ","HOUSE_NO":"１１９號之７","E_COORD97":170413.5,"N_COORD97":2543423.71,"ADDRESS":"林森路二段１１９號之７","OBJECTID":559114},"geometry":{"x":170413.5,"y":2543423.7100000046}},{"attributes":{"ID":559142,"DIS_CODE":0,"TOWNNAME":"東區","LI":"中西里","LIN":"33鄰","STREET":"林森路","SECT":"二段","MAREA":" ","LANE":" ","ALLEY":" ","HOUSE_NO":"１１９號之８","E_COORD97":170413.5,"N_COORD97":2543423.71,"ADDRESS":"林森路二段１１９號之８","OBJECTID":559115},"geometry":{"x":170413.5,"y":2543423.7100000046}},{"attributes":{"ID":559143,"DIS_CODE":0,"TOWNNAME":"東區","LI":"中西里","LIN":"33鄰","STREET":"林森路","SECT":"二段","MAREA":" ","LANE":" ","ALLEY":" ","HOUSE_NO":"１１９號之９","E_COORD97":170413.5,"N_COORD97":2543423.71,"ADDRESS":"林森路二段１１９號之９","OBJECTID":559116},"geometry":{"x":170413.5,"y":2543423.7100000046}},{"attributes":{"ID":559144,"DIS_CODE":0,"TOWNNAME":"東區","LI":"中西里","LIN":"33鄰","STREET":"林森路","SECT":"二段","MAREA":" ","LANE":" ","ALLEY":" ","HOUSE_NO":"１１９號之１０","E_COORD97":170413.5,"N_COORD97":2543423.71,"ADDRESS":"林森路二段１１９號之１０","OBJECTID":559117},"geometry":{"x":170413.5,"y":2543423.7100000046}},{"attributes":{"ID":559145,"DIS_CODE":0,"TOWNNAME":"永康區","LI":"西灣里","LIN":"21鄰","STREET":"永大路","SECT":"二段","MAREA":" ","LANE":" ","ALLEY":" ","HOUSE_NO":"２１３號","E_COORD97":174341.09,"N_COORD97":2545332.0600000001,"ADDRESS":"永大路二段２１３號","OBJECTID":559118},"geometry":{"x":174341.09000000078,"y":2545332.0600000005}},{"attributes":{"ID":559146,"DIS_CODE":0,"TOWNNAME":"新市區","LI":"三舍里","LIN":"9鄰","STREET":"大順三路","SECT":" ","MAREA":" ","LANE":" ","ALLEY":" ","HOUSE_NO":"８５號","E_COORD97":177107.51000000001,"N_COORD97":2555398,"ADDRESS":"大順三路８５號","OBJECTID":559119},"geometry":{"x":177107.50999999978,"y":2555398}},{"attributes":{"ID":559147,"DIS_CODE":0,"TOWNNAME":"新市區","LI":"新市里","LIN":"9鄰","STREET":"中興街","SECT":" ","MAREA":" ","LANE":" ","ALLEY":" ","HOUSE_NO":"７８號","E_COORD97":177608.26999999999,"N_COORD97":2553118,"ADDRESS":"中興街７８號","OBJECTID":559120},"geometry":{"x":177608.27000000048,"y":2553118.0000000019}},{"attributes":{"ID":559148,"DIS_CODE":0,"TOWNNAME":"新市區","LI":"港墘里","LIN":"9鄰","STREET":"長安街","SECT":" ","MAREA":" ","LANE":" ","ALLEY":" ","HOUSE_NO":"７號","E_COORD97":178480.62,"N_COORD97":2552669.3199999998,"ADDRESS":"長安街７號","OBJECTID":559121},"geometry":{"x":178480.62000000104,"y":2552669.3200000022}},{"attributes":{"ID":559149,"DIS_CODE":0,"TOWNNAME":"新市區","LI":"新市里","LIN":"9鄰","STREET":"中興街","SECT":" ","MAREA":" ","LANE":" ","ALLEY":" ","HOUSE_NO":"８０號","E_COORD97":177603.76999999999,"N_COORD97":2553118,"ADDRESS":"中興街８０號","OBJECTID":559122},"geometry":{"x":177603.76999999955,"y":2553118.0000000019}},{"attributes":{"ID":559150,"DIS_CODE":0,"TOWNNAME":"新市區","LI":"永就里","LIN":"9鄰","STREET":"中山路","SECT":" ","MAREA":" ","LANE":" ","ALLEY":" ","HOUSE_NO":"２２０號","E_COORD97":177556.98999999999,"N_COORD97":2552121.75,"ADDRESS":"中山路２２０號","OBJECTID":559123},"geometry":{"x":177556.99000000022,"y":2552121.75}},{"attributes":{"ID":559151,"DIS_CODE":0,"TOWNNAME":"新市區","LI":"永就里","LIN":"9鄰","STREET":"中華路","SECT":" ","MAREA":" ","LANE":" ","ALLEY":" ","HOUSE_NO":"４１之２號","E_COORD97":177474.59,"N_COORD97":2551820.5499999998,"ADDRESS":"中華路４１之２號","OBJECTID":559124},"geometry":{"x":177474.58999999985,"y":2551820.5500000026}},{"attributes":{"ID":559152,"DIS_CODE":0,"TOWNNAME":"新市區","LI":"新市里","LIN":"9鄰","STREET":"中興街","SECT":" ","MAREA":" ","LANE":" ","ALLEY":" ","HOUSE_NO":"１００號","E_COORD97":177563.32000000001,"N_COORD97":2553117,"ADDRESS":"中興街１００號","OBJECTID":559125},"geometry":{"x":177563.3200000003,"y":2553116.9999999981}},{"attributes":{"ID":559153,"DIS_CODE":0,"TOWNNAME":"新市區","LI":"三舍里","LIN":"9鄰","STREET":"大順七路","SECT":" ","MAREA":" ","LANE":" ","ALLEY":" ","HOUSE_NO":"６６號","E_COORD97":177067.79000000001,"N_COORD97":2555678.7599999998,"ADDRESS":"大順七路６６號","OBJECTID":559126},"geometry":{"x":177067.79000000097,"y":2555678.7600000016}},{"attributes":{"ID":559154,"DIS_CODE":0,"TOWNNAME":"新市區","LI":"三舍里","LIN":"9鄰","STREET":"大順三路","SECT":" ","MAREA":" ","LANE":" ","ALLEY":" ","HOUSE_NO":"８３號","E_COORD97":177122.01000000001,"N_COORD97":2555379,"ADDRESS":"大順三路８３號","OBJECTID":559127},"geometry":{"x":177122.01000000071,"y":2555379.0000000019}},{"attributes":{"ID":559155,"DIS_CODE":0,"TOWNNAME":"新市區","LI":"永就里","LIN":"9鄰","STREET":"中山路","SECT":" ","MAREA":" ","LANE":" ","ALLEY":" ","HOUSE_NO":"２０５號","E_COORD97":177459.76000000001,"N_COORD97":2551998.5,"ADDRESS":"中山路２０５號","OBJECTID":559128},"geometry":{"x":177459.75999999978,"y":2551998.5000000037}},{"attributes":{"ID":559156,"DIS_CODE":0,"TOWNNAME":"新市區","LI":"永就里","LIN":"9鄰","STREET":"中山路","SECT":" ","MAREA":" ","LANE":" ","ALLEY":" ","HOUSE_NO":"２０４號","E_COORD97":177686.26000000001,"N_COORD97":2552214,"ADDRESS":"中山路２０４號","OBJECTID":559129},"geometry":{"x":177686.26000000071,"y":2552214}},{"attributes":{"ID":559157,"DIS_CODE":0,"TOWNNAME":"新市區","LI":"新市里","LIN":"9鄰","STREET":"中興街","SECT":" ","MAREA":" ","LANE":" ","ALLEY":" ","HOUSE_NO":"９４號","E_COORD97":177576.01999999999,"N_COORD97":2553117.25,"ADDRESS":"中興街９４號","OBJECTID":559130},"geometry":{"x":177576.02000000048,"y":2553117.25}},{"attributes":{"ID":559158,"DIS_CODE":0,"TOWNNAME":"新市區","LI":"永就里","LIN":"9鄰","STREET":"中山路","SECT":" ","MAREA":" ","LANE":" ","ALLEY":" ","HOUSE_NO":"２２２號","E_COORD97":177540.45999999999,"N_COORD97":2552115,"ADDRESS":"中山路２２２號","OBJECTID":559131},"geometry":{"x":177540.46000000183,"y":2552115.0000000019}},{"attributes":{"ID":559159,"DIS_CODE":0,"TOWNNAME":"新市區","LI":"三舍里","LIN":"9鄰","STREET":"大順三路","SECT":" ","MAREA":" ","LANE":" ","ALLEY":" ","HOUSE_NO":"７５號","E_COORD97":177154.85000000001,"N_COORD97":2555382.75,"ADDRESS":"大順三路７５號","OBJECTID":559132},"geometry":{"x":177154.85000000056,"y":2555382.75}},{"attributes":{"ID":559160,"DIS_CODE":0,"TOWNNAME":"新市區","LI":"三舍里","LIN":"9鄰","STREET":"大順三路","SECT":" ","MAREA":" ","LANE":" ","ALLEY":" ","HOUSE_NO":"８１號","E_COORD97":177127.17000000001,"N_COORD97":2555380,"ADDRESS":"大順三路８１號","OBJECTID":559133},"geometry":{"x":177127.17000000179,"y":2555380.0000000019}},{"attributes":{"ID":559161,"DIS_CODE":0,"TOWNNAME":"新市區","LI":"新市里","LIN":"9鄰","STREET":"中興街","SECT":" ","MAREA":" ","LANE":" ","ALLEY":" ","HOUSE_NO":"１１４號","E_COORD97":177533.26999999999,"N_COORD97":2553115.75,"ADDRESS":"中興街１１４號","OBJECTID":559134},"geometry":{"x":177533.27000000048,"y":2553115.7500000037}},{"attributes":{"ID":559162,"DIS_CODE":0,"TOWNNAME":"新市區","LI":"三舍里","LIN":"9鄰","STREET":"大順七路","SECT":" ","MAREA":" ","LANE":" ","ALLEY":" ","HOUSE_NO":"６８號","E_COORD97":177085.98000000001,"N_COORD97":2555678.2599999998,"ADDRESS":"大順七路６８號","OBJECTID":559135},"geometry":{"x":177085.98000000045,"y":2555678.2600000035}},{"attributes":{"ID":559163,"DIS_CODE":0,"TOWNNAME":"新市區","LI":"三舍里","LIN":"9鄰","STREET":"大順三路","SECT":" ","MAREA":" ","LANE":" ","ALLEY":" ","HOUSE_NO":"７１號","E_COORD97":177163.17000000001,"N_COORD97":2555412.75,"ADDRESS":"大順三路７１號","OBJECTID":559136},"geometry":{"x":177163.17000000086,"y":2555412.75}},{"attributes":{"ID":559164,"DIS_CODE":0,"TOWNNAME":"新市區","LI":"新市里","LIN":"9鄰","STREET":"中興街","SECT":" ","MAREA":" ","LANE":" ","ALLEY":" ","HOUSE_NO":"７２號","E_COORD97":177622.07000000001,"N_COORD97":2553119.25,"ADDRESS":"中興街７２號","OBJECTID":559137},"geometry":{"x":177622.07000000123,"y":2553119.2500000019}},{"attributes":{"ID":559165,"DIS_CODE":0,"TOWNNAME":"新市區","LI":"永就里","LIN":"9鄰","STREET":"中山路","SECT":" ","MAREA":" ","LANE":" ","ALLEY":" ","HOUSE_NO":"２２７號","E_COORD97":177360.76999999999,"N_COORD97":2551938,"ADDRESS":"中山路２２７號","OBJECTID":559138},"geometry":{"x":177360.77000000048,"y":2551938.0000000019}},{"attributes":{"ID":559166,"DIS_CODE":0,"TOWNNAME":"新市區","LI":"新市里","LIN":"9鄰","STREET":"中興街","SECT":" ","MAREA":" ","LANE":" ","ALLEY":" ","HOUSE_NO":"６０號","E_COORD97":177647.92999999999,"N_COORD97":2553123.25,"ADDRESS":"中興街６０號","OBJECTID":559139},"geometry":{"x":177647.93000000063,"y":2553123.2500000019}},{"attributes":{"ID":559167,"DIS_CODE":0,"TOWNNAME":"新市區","LI":"港墘里","LIN":"9鄰","STREET":"長安街","SECT":" ","MAREA":" ","LANE":" ","ALLEY":" ","HOUSE_NO":"５號","E_COORD97":178485.32000000001,"N_COORD97":2552669.8199999998,"ADDRESS":"長安街５號","OBJECTID":559140},"geometry":{"x":178485.3200000003,"y":2552669.8200000003}},{"attributes":{"ID":559168,"DIS_CODE":0,"TOWNNAME":"新市區","LI":"永就里","LIN":"9鄰","STREET":"中山路","SECT":" ","MAREA":" ","LANE":" ","ALLEY":" ","HOUSE_NO":"１９９之２號","E_COORD97":177574.64999999999,"N_COORD97":2552056.2999999998,"ADDRESS":"中山路１９９之２號","OBJECTID":559141},"geometry":{"x":177574.65000000037,"y":2552056.3000000026}},{"attributes":{"ID":559169,"DIS_CODE":0,"TOWNNAME":"新市區","LI":"三舍里","LIN":"9鄰","STREET":"大順七路","SECT":" ","MAREA":" ","LANE":" ","ALLEY":" ","HOUSE_NO":"７０號","E_COORD97":177083.67999999999,"N_COORD97":2555694.2599999998,"ADDRESS":"大順七路７０號","OBJECTID":559142},"geometry":{"x":177083.6799999997,"y":2555694.2599999998}},{"attributes":{"ID":559170,"DIS_CODE":0,"TOWNNAME":"新市區","LI":"永就里","LIN":"9鄰","STREET":"中山路","SECT":" ","MAREA":" ","LANE":" ","ALLEY":" ","HOUSE_NO":"２２３號","E_COORD97":177369.73000000001,"N_COORD97":2551938.25,"ADDRESS":"中山路２２３號","OBJECTID":559143},"geometry":{"x":177369.73000000231,"y":2551938.25}},{"attributes":{"ID":559171,"DIS_CODE":0,"TOWNNAME":"新市區","LI":"永就里","LIN":"9鄰","STREET":"中山路","SECT":" ","MAREA":" ","LANE":" ","ALLEY":" ","HOUSE_NO":"２０２之２４號","E_COORD97":177704.95000000001,"N_COORD97":2552250.0499999998,"ADDRESS":"中山路２０２之２４號","OBJECTID":559144},"geometry":{"x":177704.95000000019,"y":2552250.0500000026}},{"attributes":{"ID":559172,"DIS_CODE":0,"TOWNNAME":"新市區","LI":"新市里","LIN":"9鄰","STREET":"中興街","SECT":" ","MAREA":" ","LANE":" ","ALLEY":" ","HOUSE_NO":"１３０號","E_COORD97":177498.67999999999,"N_COORD97":2553115,"ADDRESS":"中興街１３０號","OBJECTID":559145},"geometry":{"x":177498.68000000063,"y":2553115.0000000019}},{"attributes":{"ID":559173,"DIS_CODE":0,"TOWNNAME":"新市區","LI":"新市里","LIN":"9鄰","STREET":"中興街","SECT":" ","MAREA":" ","LANE":" ","ALLEY":" ","HOUSE_NO":"１０４號","E_COORD97":177555.23000000001,"N_COORD97":2553116.25,"ADDRESS":"中興街１０４號","OBJECTID":559146},"geometry":{"x":177555.23000000138,"y":2553116.2500000019}},{"attributes":{"ID":559174,"DIS_CODE":0,"TOWNNAME":"新市區","LI":"新市里","LIN":"9鄰","STREET":"仁愛街","SECT":" ","MAREA":" ","LANE":" ","ALLEY":" ","HOUSE_NO":"３２９號","E_COORD97":177645.92000000001,"N_COORD97":2553147.7799999998,"ADDRESS":"仁愛街３２９號","OBJECTID":559147},"geometry":{"x":177645.92000000179,"y":2553147.7799999993}},{"attributes":{"ID":559175,"DIS_CODE":0,"TOWNNAME":"新市區","LI":"永就里","LIN":"9鄰","STREET":"中山路","SECT":" ","MAREA":" ","LANE":" ","ALLEY":" ","HOUSE_NO":"１９９之１０號","E_COORD97":177511.35000000001,"N_COORD97":2552024.5499999998,"ADDRESS":"中山路１９９之１０號","OBJECTID":559148},"geometry":{"x":177511.34999999963,"y":2552024.5500000007}},{"attributes":{"ID":559176,"DIS_CODE":0,"TOWNNAME":"新市區","LI":"三舍里","LIN":"9鄰","STREET":"大順一路","SECT":" ","MAREA":" ","LANE":" ","ALLEY":" ","HOUSE_NO":"１５號","E_COORD97":177141.51000000001,"N_COORD97":2555425,"ADDRESS":"大順一路１５號","OBJECTID":559149},"geometry":{"x":177141.51000000164,"y":2555425}},{"attributes":{"ID":559177,"DIS_CODE":0,"TOWNNAME":"新市區","LI":"三舍里","LIN":"9鄰","STREET":"大順三路","SECT":" ","MAREA":" ","LANE":" ","ALLEY":" ","HOUSE_NO":"１２３號","E_COORD97":177111.13,"N_COORD97":2555697.25,"ADDRESS":"大順三路１２３號","OBJECTID":559150},"geometry":{"x":177111.13000000082,"y":2555697.2500000019}},{"attributes":{"ID":559178,"DIS_CODE":0,"TOWNNAME":"新市區","LI":"新市里","LIN":"9鄰","STREET":"中興街","SECT":" ","MAREA":" ","LANE":" ","ALLEY":" ","HOUSE_NO":"７６號","E_COORD97":177612.73000000001,"N_COORD97":2553118.25,"ADDRESS":"中興街７６號","OBJECTID":559151},"geometry":{"x":177612.73000000138,"y":2553118.25}},{"attributes":{"ID":559179,"DIS_CODE":0,"TOWNNAME":"新市區","LI":"三舍里","LIN":"9鄰","STREET":"大順三路","SECT":" ","MAREA":" ","LANE":" ","ALLEY":" ","HOUSE_NO":"７３號","E_COORD97":177159.70999999999,"N_COORD97":2555383.75,"ADDRESS":"大順三路７３號","OBJECTID":559152},"geometry":{"x":177159.71000000089,"y":2555383.7500000037}},{"attributes":{"ID":559180,"DIS_CODE":0,"TOWNNAME":"新市區","LI":"新市里","LIN":"9鄰","STREET":"中興街","SECT":" ","MAREA":" ","LANE":" ","ALLEY":" ","HOUSE_NO":"１２０號","E_COORD97":177519.01000000001,"N_COORD97":2553115.5,"ADDRESS":"中興街１２０號","OBJECTID":559153},"geometry":{"x":177519.00999999978,"y":2553115.5000000019}},{"attributes":{"ID":559181,"DIS_CODE":0,"TOWNNAME":"新市區","LI":"新市里","LIN":"9鄰","STREET":"中興街","SECT":" ","MAREA":" ","LANE":" ","ALLEY":" ","HOUSE_NO":"１１６號","E_COORD97":177527.57000000001,"N_COORD97":2553115.75,"ADDRESS":"中興街１１６號","OBJECTID":559154},"geometry":{"x":177527.5700000003,"y":2553115.7500000037}},{"attributes":{"ID":559182,"DIS_CODE":0,"TOWNNAME":"新市區","LI":"永就里","LIN":"9鄰","STREET":"中山路","SECT":" ","MAREA":" ","LANE":" ","ALLEY":" ","HOUSE_NO":"２０９號","E_COORD97":177455.20999999999,"N_COORD97":2551965,"ADDRESS":"中山路２０９號","OBJECTID":559155},"geometry":{"x":177455.20999999996,"y":2551965.0000000019}},{"attributes":{"ID":559183,"DIS_CODE":0,"TOWNNAME":"安南區","LI":"城北里","LIN":"9鄰","STREET":"尊安街","SECT":" ","MAREA":" ","LANE":" ","ALLEY":" ","HOUSE_NO":"３７號","E_COORD97":160880.73000000001,"N_COORD97":2551600.9399999999,"ADDRESS":"尊安街３７號","OBJECTID":559156},"geometry":{"x":160880.73000000138,"y":2551600.9399999995}},{"attributes":{"ID":559184,"DIS_CODE":0,"TOWNNAME":"安南區","LI":"淵西里","LIN":"9鄰","STREET":"安中路","SECT":"四段","MAREA":" ","LANE":" ","ALLEY":" ","HOUSE_NO":"２８８之２號","E_COORD97":164584.63,"N_COORD97":2550203.96,"ADDRESS":"安中路四段２８８之２號","OBJECTID":559157},"geometry":{"x":164584.63000000175,"y":2550203.9600000028}},{"attributes":{"ID":559185,"DIS_CODE":0,"TOWNNAME":"東區","LI":"龍山里","LIN":"18鄰","STREET":"府連路","SECT":" ","MAREA":" ","LANE":" ","ALLEY":" ","HOUSE_NO":"４３７號","E_COORD97":169736.34,"N_COORD97":2542995.46,"ADDRESS":"府連路４３７號","OBJECTID":559158},"geometry":{"x":169736.33999999985,"y":2542995.4600000028}},{"attributes":{"ID":559186,"DIS_CODE":0,"TOWNNAME":"東區","LI":"中西里","LIN":"8鄰","STREET":"勝利路","SECT":" ","MAREA":" ","LANE":" ","ALLEY":" ","HOUSE_NO":"４８號","E_COORD97":169828.19,"N_COORD97":2543524.6299999999,"ADDRESS":"勝利路４８號","OBJECTID":559159},"geometry":{"x":169828.19000000134,"y":2543524.6300000008}},{"attributes":{"ID":559187,"DIS_CODE":0,"TOWNNAME":"東區","LI":"中西里","LIN":"35鄰","STREET":"林森路","SECT":"二段","MAREA":" ","LANE":" ","ALLEY":" ","HOUSE_NO":"１０９號之３","E_COORD97":170413.5,"N_COORD97":2543423.71,"ADDRESS":"林森路二段１０９號之３","OBJECTID":559160},"geometry":{"x":170413.5,"y":2543423.7100000046}},{"attributes":{"ID":559188,"DIS_CODE":0,"TOWNNAME":"東區","LI":"中西里","LIN":"35鄰","STREET":"林森路","SECT":"二段","MAREA":" ","LANE":" ","ALLEY":" ","HOUSE_NO":"１０９號之４","E_COORD97":170413.5,"N_COORD97":2543423.71,"ADDRESS":"林森路二段１０９號之４","OBJECTID":559161},"geometry":{"x":170413.5,"y":2543423.7100000046}},{"attributes":{"ID":559189,"DIS_CODE":0,"TOWNNAME":"東區","LI":"中西里","LIN":"35鄰","STREET":"林森路","SECT":"二段","MAREA":" ","LANE":" ","ALLEY":" ","HOUSE_NO":"１０９號之５","E_COORD97":170413.5,"N_COORD97":2543423.71,"ADDRESS":"林森路二段１０９號之５","OBJECTID":559162},"geometry":{"x":170413.5,"y":2543423.7100000046}},{"attributes":{"ID":559190,"DIS_CODE":0,"TOWNNAME":"東區","LI":"中西里","LIN":"35鄰","STREET":"林森路","SECT":"二段","MAREA":" ","LANE":" ","ALLEY":" ","HOUSE_NO":"１０９號之６","E_COORD97":170413.5,"N_COORD97":2543423.71,"ADDRESS":"林森路二段１０９號之６","OBJECTID":559163},"geometry":{"x":170413.5,"y":2543423.7100000046}},{"attributes":{"ID":559191,"DIS_CODE":0,"TOWNNAME":"東區","LI":"中西里","LIN":"35鄰","STREET":"林森路","SECT":"二段","MAREA":" ","LANE":" ","ALLEY":" ","HOUSE_NO":"１０９號之７","E_COORD97":170413.5,"N_COORD97":2543423.71,"ADDRESS":"林森路二段１０９號之７","OBJECTID":559164},"geometry":{"x":170413.5,"y":2543423.7100000046}},{"attributes":{"ID":559192,"DIS_CODE":0,"TOWNNAME":"東區","LI":"中西里","LIN":"35鄰","STREET":"林森路","SECT":"二段","MAREA":" ","LANE":" ","ALLEY":" ","HOUSE_NO":"１０９號之８","E_COORD97":170413.5,"N_COORD97":2543423.71,"ADDRESS":"林森路二段１０９號之８","OBJECTID":559165},"geometry":{"x":170413.5,"y":2543423.7100000046}},{"attributes":{"ID":559193,"DIS_CODE":0,"TOWNNAME":"東區","LI":"中西里","LIN":"35鄰","STREET":"林森路","SECT":"二段","MAREA":" ","LANE":" ","ALLEY":" ","HOUSE_NO":"１０９號之９","E_COORD97":170413.5,"N_COORD97":2543423.71,"ADDRESS":"林森路二段１０９號之９","OBJECTID":559166},"geometry":{"x":170413.5,"y":2543423.7100000046}},{"attributes":{"ID":559194,"DIS_CODE":0,"TOWNNAME":"東區","LI":"中西里","LIN":"35鄰","STREET":"林森路","SECT":"二段","MAREA":" ","LANE":" ","ALLEY":" ","HOUSE_NO":"１０９號之１０","E_COORD97":170413.5,"N_COORD97":2543423.71,"ADDRESS":"林森路二段１０９號之１０","OBJECTID":559167},"geometry":{"x":170413.5,"y":2543423.7100000046}},{"attributes":{"ID":559195,"DIS_CODE":0,"TOWNNAME":"東區","LI":"德高里","LIN":"6鄰","STREET":"自由路","SECT":"一段","MAREA":" ","LANE":" ","ALLEY":" ","HOUSE_NO":"６１號","E_COORD97":171452.75,"N_COORD97":2540877.3399999999,"ADDRESS":"自由路一段６１號","OBJECTID":559168},"geometry":{"x":171452.75000000186,"y":2540877.3399999999}},{"attributes":{"ID":559196,"DIS_CODE":0,"TOWNNAME":"東區","LI":"中西里","LIN":"35鄰","STREET":"林森路","SECT":"二段","MAREA":" ","LANE":" ","ALLEY":" ","HOUSE_NO":"１０９號之１１","E_COORD97":170413.5,"N_COORD97":2543423.71,"ADDRESS":"林森路二段１０９號之１１","OBJECTID":559169},"geometry":{"x":170413.5,"y":2543423.7100000046}},{"attributes":{"ID":559197,"DIS_CODE":0,"TOWNNAME":"安南區","LI":"淵西里","LIN":"9鄰","STREET":"安中路","SECT":"四段","MAREA":" ","LANE":" ","ALLEY":" ","HOUSE_NO":"２８８號","E_COORD97":164592.92999999999,"N_COORD97":2550198.5699999998,"ADDRESS":"安中路四段２８８號","OBJECTID":559170},"geometry":{"x":164592.93000000063,"y":2550198.5700000022}},{"attributes":{"ID":559198,"DIS_CODE":0,"TOWNNAME":"安南區","LI":"淵西里","LIN":"9鄰","STREET":"安中路","SECT":"四段","MAREA":" ","LANE":" ","ALLEY":" ","HOUSE_NO":"２８８之１號","E_COORD97":164588.78,"N_COORD97":2550202.7200000002,"ADDRESS":"安中路四段２８８之１號","OBJECTID":559171},"geometry":{"x":164588.78000000026,"y":2550202.7200000007}},{"attributes":{"ID":559199,"DIS_CODE":0,"TOWNNAME":"安南區","LI":"淵西里","LIN":"9鄰","STREET":"安中路","SECT":"四段","MAREA":" ","LANE":" ","ALLEY":" ","HOUSE_NO":"２８８之３號","E_COORD97":164580.89000000001,"N_COORD97":2550205.6200000001,"ADDRESS":"安中路四段２８８之３號","OBJECTID":559172},"geometry":{"x":164580.89000000153,"y":2550205.6200000029}},{"attributes":{"ID":559200,"DIS_CODE":0,"TOWNNAME":"佳里區","LI":"東寧里","LIN":"9鄰","STREET":"文化路","SECT":" ","MAREA":" ","LANE":" ","ALLEY":" ","HOUSE_NO":"１７６號","E_COORD97":165827.01000000001,"N_COORD97":2562597.5800000001,"ADDRESS":"文化路１７６號","OBJECTID":559173},"geometry":{"x":165827.01000000071,"y":2562597.5800000019}},{"attributes":{"ID":559201,"DIS_CODE":0,"TOWNNAME":"安南區","LI":"淵西里","LIN":"9鄰","STREET":"安中路","SECT":"四段","MAREA":" ","LANE":" ","ALLEY":" ","HOUSE_NO":"２８８之５號","E_COORD97":164576.32000000001,"N_COORD97":2550207.8999999999,"ADDRESS":"安中路四段２８８之５號","OBJECTID":559174},"geometry":{"x":164576.3200000003,"y":2550207.9000000004}},{"attributes":{"ID":559202,"DIS_CODE":0,"TOWNNAME":"安南區","LI":"淵西里","LIN":"9鄰","STREET":"安中路","SECT":"四段","MAREA":" ","LANE":" ","ALLEY":" ","HOUSE_NO":"２８８之６號","E_COORD97":164572.37,"N_COORD97":2550209.5600000001,"ADDRESS":"安中路四段２８８之６號","OBJECTID":559175},"geometry":{"x":164572.37000000011,"y":2550209.5600000024}},{"attributes":{"ID":559203,"DIS_CODE":0,"TOWNNAME":"安南區","LI":"城北里","LIN":"9鄰","STREET":"城安東街","SECT":" ","MAREA":" ","LANE":" ","ALLEY":" ","HOUSE_NO":"５３號","E_COORD97":160763.09,"N_COORD97":2551769.77,"ADDRESS":"城安東街５３號","OBJECTID":559176},"geometry":{"x":160763.08999999985,"y":2551769.7700000014}},{"attributes":{"ID":559204,"DIS_CODE":0,"TOWNNAME":"安南區","LI":"城北里","LIN":"9鄰","STREET":"尊安街","SECT":" ","MAREA":" ","LANE":" ","ALLEY":" ","HOUSE_NO":"５２號","E_COORD97":160903.89999999999,"N_COORD97":2551568.5,"ADDRESS":"尊安街５２號","OBJECTID":559177},"geometry":{"x":160903.90000000037,"y":2551568.5000000019}},{"attributes":{"ID":559205,"DIS_CODE":0,"TOWNNAME":"安南區","LI":"砂崙里","LIN":"9鄰","STREET":"青砂街","SECT":"一段","MAREA":" ","LANE":" ","ALLEY":" ","HOUSE_NO":"６８０之１號","E_COORD97":159970.5,"N_COORD97":2552825.5299999998,"ADDRESS":"青砂街一段６８０之１號","OBJECTID":559178},"geometry":{"x":159970.5,"y":2552825.5300000012}},{"attributes":{"ID":559206,"DIS_CODE":0,"TOWNNAME":"安南區","LI":"海東里","LIN":"9鄰","STREET":"安吉路","SECT":"一段","MAREA":" ","LANE":" ","ALLEY":" ","HOUSE_NO":"１１８號","E_COORD97":166798.32999999999,"N_COORD97":2549313.7400000002,"ADDRESS":"安吉路一段１１８號","OBJECTID":559179},"geometry":{"x":166798.33000000007,"y":2549313.7400000002}},{"attributes":{"ID":559207,"DIS_CODE":0,"TOWNNAME":"安南區","LI":"海東里","LIN":"9鄰","STREET":"安吉路","SECT":"一段","MAREA":" ","LANE":" ","ALLEY":" ","HOUSE_NO":"１２０號","E_COORD97":166799.64000000001,"N_COORD97":2549317.3599999999,"ADDRESS":"安吉路一段１２０號","OBJECTID":559180},"geometry":{"x":166799.63999999966,"y":2549317.3600000013}},{"attributes":{"ID":559208,"DIS_CODE":0,"TOWNNAME":"安南區","LI":"海東里","LIN":"9鄰","STREET":"安吉路","SECT":"一段","MAREA":" ","LANE":" ","ALLEY":" ","HOUSE_NO":"１２２號","E_COORD97":166800.48000000001,"N_COORD97":2549321.7400000002,"ADDRESS":"安吉路一段１２２號","OBJECTID":559181},"geometry":{"x":166800.48000000138,"y":2549321.7400000002}},{"attributes":{"ID":559209,"DIS_CODE":0,"TOWNNAME":"安南區","LI":"海東里","LIN":"9鄰","STREET":"安吉路","SECT":"一段","MAREA":" ","LANE":" ","ALLEY":" ","HOUSE_NO":"１２６號","E_COORD97":166801.23999999999,"N_COORD97":2549325.9399999999,"ADDRESS":"安吉路一段１２６號","OBJECTID":559182},"geometry":{"x":166801.24000000022,"y":2549325.9399999995}},{"attributes":{"ID":559210,"DIS_CODE":0,"TOWNNAME":"安南區","LI":"海東里","LIN":"9鄰","STREET":"安吉路","SECT":"一段","MAREA":" ","LANE":" ","ALLEY":" ","HOUSE_NO":"１２８號","E_COORD97":166802.07999999999,"N_COORD97":2549330.2599999998,"ADDRESS":"安吉路一段１２８號","OBJECTID":559183},"geometry":{"x":166802.08000000007,"y":2549330.2599999998}},{"attributes":{"ID":559211,"DIS_CODE":0,"TOWNNAME":"安南區","LI":"海東里","LIN":"9鄰","STREET":"安吉路","SECT":"一段","MAREA":" ","LANE":" ","ALLEY":" ","HOUSE_NO":"１３０號","E_COORD97":166802.73999999999,"N_COORD97":2549334.4300000002,"ADDRESS":"安吉路一段１３０號","OBJECTID":559184},"geometry":{"x":166802.74000000022,"y":2549334.4300000016}},{"attributes":{"ID":559212,"DIS_CODE":0,"TOWNNAME":"安南區","LI":"海東里","LIN":"9鄰","STREET":"安吉路","SECT":"一段","MAREA":" ","LANE":" ","ALLEY":" ","HOUSE_NO":"１３２號","E_COORD97":166803.23000000001,"N_COORD97":2549338.7999999998,"ADDRESS":"安吉路一段１３２號","OBJECTID":559185},"geometry":{"x":166803.23000000045,"y":2549338.8000000007}},{"attributes":{"ID":559213,"DIS_CODE":0,"TOWNNAME":"安南區","LI":"海東里","LIN":"9鄰","STREET":"安吉路","SECT":"一段","MAREA":" ","LANE":" ","ALLEY":" ","HOUSE_NO":"１３６號","E_COORD97":166803.72,"N_COORD97":2549343.0600000001,"ADDRESS":"安吉路一段１３６號","OBJECTID":559186},"geometry":{"x":166803.71999999974,"y":2549343.0600000005}},{"attributes":{"ID":559214,"DIS_CODE":0,"TOWNNAME":"安南區","LI":"海東里","LIN":"9鄰","STREET":"安吉路","SECT":"一段","MAREA":" ","LANE":" ","ALLEY":" ","HOUSE_NO":"１３８號","E_COORD97":166804.45000000001,"N_COORD97":2549347.1899999999,"ADDRESS":"安吉路一段１３８號","OBJECTID":559187},"geometry":{"x":166804.45000000019,"y":2549347.1899999995}},{"attributes":{"ID":559215,"DIS_CODE":0,"TOWNNAME":"安南區","LI":"海東里","LIN":"9鄰","STREET":"安吉路","SECT":"一段","MAREA":" ","LANE":" ","ALLEY":" ","HOUSE_NO":"１４０號","E_COORD97":166804.69,"N_COORD97":2549351.52,"ADDRESS":"安吉路一段１４０號","OBJECTID":559188},"geometry":{"x":166804.69000000041,"y":2549351.5200000014}},{"attributes":{"ID":559216,"DIS_CODE":0,"TOWNNAME":"佳里區","LI":"鎮山里","LIN":"9鄰","STREET":"仁愛路","SECT":" ","MAREA":" ","LANE":" ","ALLEY":" ","HOUSE_NO":"１４８號","E_COORD97":166375.10999999999,"N_COORD97":2561389.1600000001,"ADDRESS":"仁愛路１４８號","OBJECTID":559189},"geometry":{"x":166375.11000000034,"y":2561389.160000002}},{"attributes":{"ID":559217,"DIS_CODE":0,"TOWNNAME":"佳里區","LI":"鎮山里","LIN":"9鄰","STREET":"仁愛路","SECT":" ","MAREA":" ","LANE":" ","ALLEY":" ","HOUSE_NO":"１５０號","E_COORD97":166370.47,"N_COORD97":2561389.21,"ADDRESS":"仁愛路１５０號","OBJECTID":559190},"geometry":{"x":166370.46999999881,"y":2561389.2100000046}},{"attributes":{"ID":559218,"DIS_CODE":0,"TOWNNAME":"佳里區","LI":"鎮山里","LIN":"9鄰","STREET":"仁愛路","SECT":" ","MAREA":" ","LANE":" ","ALLEY":" ","HOUSE_NO":"１５２號","E_COORD97":166359.85000000001,"N_COORD97":2561392.5899999999,"ADDRESS":"仁愛路１５２號","OBJECTID":559191},"geometry":{"x":166359.85000000056,"y":2561392.5900000036}},{"attributes":{"ID":559219,"DIS_CODE":0,"TOWNNAME":"佳里區","LI":"鎮山里","LIN":"9鄰","STREET":"仁愛路","SECT":" ","MAREA":" ","LANE":" ","ALLEY":" ","HOUSE_NO":"１６８號","E_COORD97":166313.88,"N_COORD97":2561421.0699999998,"ADDRESS":"仁愛路１６８號","OBJECTID":559192},"geometry":{"x":166313.88000000082,"y":2561421.0700000022}},{"attributes":{"ID":559220,"DIS_CODE":0,"TOWNNAME":"佳里區","LI":"鎮山里","LIN":"9鄰","STREET":"仁愛路","SECT":" ","MAREA":" ","LANE":" ","ALLEY":" ","HOUSE_NO":"１７６號","E_COORD97":166298.48999999999,"N_COORD97":2561421.5499999998,"ADDRESS":"仁愛路１７６號","OBJECTID":559193},"geometry":{"x":166298.49000000115,"y":2561421.5500000026}},{"attributes":{"ID":559221,"DIS_CODE":0,"TOWNNAME":"佳里區","LI":"鎮山里","LIN":"9鄰","STREET":"仁愛路","SECT":" ","MAREA":" ","LANE":" ","ALLEY":" ","HOUSE_NO":"１７８號","E_COORD97":166294.39000000001,"N_COORD97":2561422.7999999998,"ADDRESS":"仁愛路１７８號","OBJECTID":559194},"geometry":{"x":166294.38999999966,"y":2561422.8000000026}},{"attributes":{"ID":559222,"DIS_CODE":0,"TOWNNAME":"佳里區","LI":"鎮山里","LIN":"9鄰","STREET":"仁愛路","SECT":" ","MAREA":" ","LANE":" ","ALLEY":" ","HOUSE_NO":"１８０號","E_COORD97":166290.29999999999,"N_COORD97":2561424.0499999998,"ADDRESS":"仁愛路１８０號","OBJECTID":559195},"geometry":{"x":166290.29999999888,"y":2561424.0500000045}},{"attributes":{"ID":559223,"DIS_CODE":0,"TOWNNAME":"佳里區","LI":"鎮山里","LIN":"9鄰","STREET":"仁愛路","SECT":" ","MAREA":" ","LANE":" ","ALLEY":" ","HOUSE_NO":"１８２號","E_COORD97":166286.20999999999,"N_COORD97":2561425.2999999998,"ADDRESS":"仁愛路１８２號","OBJECTID":559196},"geometry":{"x":166286.21000000183,"y":2561425.3000000007}},{"attributes":{"ID":559224,"DIS_CODE":0,"TOWNNAME":"佳里區","LI":"鎮山里","LIN":"9鄰","STREET":"仁愛路","SECT":" ","MAREA":" ","LANE":" ","ALLEY":" ","HOUSE_NO":"１８４號","E_COORD97":166282.12,"N_COORD97":2561426.5499999998,"ADDRESS":"仁愛路１８４號","OBJECTID":559197},"geometry":{"x":166282.12000000104,"y":2561426.5500000007}},{"attributes":{"ID":559225,"DIS_CODE":0,"TOWNNAME":"佳里區","LI":"鎮山里","LIN":"9鄰","STREET":"仁愛路","SECT":" ","MAREA":" ","LANE":" ","ALLEY":" ","HOUSE_NO":"１９２號","E_COORD97":166266.06,"N_COORD97":2561431.6699999999,"ADDRESS":"仁愛路１９２號","OBJECTID":559198},"geometry":{"x":166266.05999999959,"y":2561431.6699999999}},{"attributes":{"ID":559226,"DIS_CODE":0,"TOWNNAME":"佳里區","LI":"鎮山里","LIN":"9鄰","STREET":"仁愛路","SECT":" ","MAREA":" ","LANE":" ","ALLEY":" ","HOUSE_NO":"１９６號","E_COORD97":166255.63,"N_COORD97":2561437.96,"ADDRESS":"仁愛路１９６號","OBJECTID":559199},"geometry":{"x":166255.62999999989,"y":2561437.9600000009}},{"attributes":{"ID":559227,"DIS_CODE":0,"TOWNNAME":"佳里區","LI":"鎮山里","LIN":"9鄰","STREET":"仁愛路","SECT":" ","MAREA":" ","LANE":" ","ALLEY":" ","HOUSE_NO":"１９８號","E_COORD97":166251.62,"N_COORD97":2561438.9900000002,"ADDRESS":"仁愛路１９８號","OBJECTID":559200},"geometry":{"x":166251.62000000104,"y":2561438.9900000021}}]}