{"displayFieldName":"TOWNNAME","fieldAliases":{"ID":"ID","DIS_CODE":"DIS_CODE","TOWNNAME":"TOWNNAME","LI":"LI","LIN":"LIN","STREET":"STREET","SECT":"SECT","MAREA":"MAREA","LANE":"LANE","ALLEY":"ALLEY","HOUSE_NO":"HOUSE_NO","E_COORD97":"E_COORD97","N_COORD97":"N_COORD97","ADDRESS":"ADDRESS","OBJECTID":"OBJECTID"},"geometryType":"esriGeometryPoint","spatialReference":{"wkid":102443,"latestWkid":3826},"fields":[{"name":"ID","type":"esriFieldTypeDouble","alias":"ID"},{"name":"DIS_CODE","type":"esriFieldTypeInteger","alias":"DIS_CODE"},{"name":"TOWNNAME","type":"esriFieldTypeString","alias":"TOWNNAME","length":8},{"name":"LI","type":"esriFieldTypeString","alias":"LI","length":8},{"name":"LIN","type":"esriFieldTypeString","alias":"LIN","length":12},{"name":"STREET","type":"esriFieldTypeString","alias":"STREET","length":20},{"name":"SECT","type":"esriFieldTypeString","alias":"SECT","length":8},{"name":"MAREA","type":"esriFieldTypeString","alias":"MAREA","length":12},{"name":"LANE","type":"esriFieldTypeString","alias":"LANE","length":10},{"name":"ALLEY","type":"esriFieldTypeString","alias":"ALLEY","length":10},{"name":"HOUSE_NO","type":"esriFieldTypeString","alias":"HOUSE_NO","length":20},{"name":"E_COORD97","type":"esriFieldTypeDouble","alias":"E_COORD97"},{"name":"N_COORD97","type":"esriFieldTypeDouble","alias":"N_COORD97"},{"name":"ADDRESS","type":"esriFieldTypeString","alias":"ADDRESS","length":50},{"name":"OBJECTID","type":"esriFieldTypeOID","alias":"OBJECTID"}],"features":[{"attributes":{"ID":250005,"DIS_CODE":0,"TOWNNAME":"永康區","LI":"勝利里","LIN":"14鄰","STREET":"勝利街","SECT":" ","MAREA":" ","LANE":"７７巷","ALLEY":" ","HOUSE_NO":"１４號","E_COORD97":171267.76000000001,"N_COORD97":2544788.5099999998,"ADDRESS":"勝利街７７巷１４號","OBJECTID":250001},"geometry":{"x":171267.76000000164,"y":2544788.5099999998}},{"attributes":{"ID":250006,"DIS_CODE":0,"TOWNNAME":"永康區","LI":"勝利里","LIN":"6鄰","STREET":"勝學路","SECT":" ","MAREA":" ","LANE":"３０巷","ALLEY":" ","HOUSE_NO":"１號","E_COORD97":171169.17000000001,"N_COORD97":2544644.2599999998,"ADDRESS":"勝學路３０巷１號","OBJECTID":250002},"geometry":{"x":171169.17000000086,"y":2544644.2600000016}},{"attributes":{"ID":250007,"DIS_CODE":0,"TOWNNAME":"永康區","LI":"復華里","LIN":"12鄰","STREET":"國華街","SECT":" ","MAREA":" ","LANE":"１００巷","ALLEY":" ","HOUSE_NO":"３９號","E_COORD97":172861.45999999999,"N_COORD97":2546009.04,"ADDRESS":"國華街１００巷３９號","OBJECTID":250003},"geometry":{"x":172861.45999999996,"y":2546009.0399999991}},{"attributes":{"ID":250008,"DIS_CODE":0,"TOWNNAME":"永康區","LI":"復華里","LIN":"28鄰","STREET":"復華八街","SECT":" ","MAREA":" ","LANE":"４５巷","ALLEY":" ","HOUSE_NO":"２０號","E_COORD97":172728.04000000001,"N_COORD97":2546347.2599999998,"ADDRESS":"復華八街４５巷２０號","OBJECTID":250004},"geometry":{"x":172728.04000000097,"y":2546347.2599999998}},{"attributes":{"ID":250009,"DIS_CODE":0,"TOWNNAME":"中西區","LI":"小西里","LIN":"14鄰","STREET":"府前路","SECT":"一段","MAREA":" ","LANE":"３５９巷","ALLEY":" ","HOUSE_NO":"２８號三樓之２","E_COORD97":167918.67000000001,"N_COORD97":2543369.77,"ADDRESS":"府前路一段３５９巷２８號三樓之２","OBJECTID":250005},"geometry":{"x":167918.66999999899,"y":2543369.7699999996}},{"attributes":{"ID":250010,"DIS_CODE":0,"TOWNNAME":"中西區","LI":"小西里","LIN":"14鄰","STREET":"府前路","SECT":"一段","MAREA":" ","LANE":"３５９巷","ALLEY":" ","HOUSE_NO":"２８號五樓之１","E_COORD97":167918.67000000001,"N_COORD97":2543369.77,"ADDRESS":"府前路一段３５９巷２８號五樓之１","OBJECTID":250006},"geometry":{"x":167918.66999999899,"y":2543369.7699999996}},{"attributes":{"ID":250011,"DIS_CODE":0,"TOWNNAME":"七股區","LI":"三股里","LIN":"11鄰","STREET":" ","SECT":" ","MAREA":"三股","LANE":" ","ALLEY":" ","HOUSE_NO":"３１號之１２","E_COORD97":159390.07000000001,"N_COORD97":2555535.1299999999,"ADDRESS":"三股３１號之１２","OBJECTID":250007},"geometry":{"x":159390.07000000123,"y":2555535.129999999}},{"attributes":{"ID":250012,"DIS_CODE":0,"TOWNNAME":"七股區","LI":"三股里","LIN":"11鄰","STREET":" ","SECT":" ","MAREA":"三股","LANE":" ","ALLEY":" ","HOUSE_NO":"３１號之１３","E_COORD97":159369.63,"N_COORD97":2555535.4100000001,"ADDRESS":"三股３１號之１３","OBJECTID":250008},"geometry":{"x":159369.62999999989,"y":2555535.4100000039}},{"attributes":{"ID":250013,"DIS_CODE":0,"TOWNNAME":"七股區","LI":"三股里","LIN":"11鄰","STREET":" ","SECT":" ","MAREA":"三股","LANE":" ","ALLEY":" ","HOUSE_NO":"３１號之１４","E_COORD97":159426.10999999999,"N_COORD97":2555589.25,"ADDRESS":"三股３１號之１４","OBJECTID":250009},"geometry":{"x":159426.11000000034,"y":2555589.25}},{"attributes":{"ID":250014,"DIS_CODE":0,"TOWNNAME":"七股區","LI":"三股里","LIN":"11鄰","STREET":" ","SECT":" ","MAREA":"三股","LANE":" ","ALLEY":" ","HOUSE_NO":"３１號之１５","E_COORD97":159435.51000000001,"N_COORD97":2555657.27,"ADDRESS":"三股３１號之１５","OBJECTID":250010},"geometry":{"x":159435.51000000071,"y":2555657.2699999996}},{"attributes":{"ID":250015,"DIS_CODE":0,"TOWNNAME":"七股區","LI":"三股里","LIN":"11鄰","STREET":" ","SECT":" ","MAREA":"三股","LANE":" ","ALLEY":" ","HOUSE_NO":"３１號之１６","E_COORD97":159424.04999999999,"N_COORD97":2555641.8900000001,"ADDRESS":"三股３１號之１６","OBJECTID":250011},"geometry":{"x":159424.05000000075,"y":2555641.8900000025}},{"attributes":{"ID":250016,"DIS_CODE":0,"TOWNNAME":"七股區","LI":"三股里","LIN":"11鄰","STREET":" ","SECT":" ","MAREA":"三股","LANE":" ","ALLEY":" ","HOUSE_NO":"３１號之１","E_COORD97":159440.38,"N_COORD97":2555486.46,"ADDRESS":"三股３１號之１","OBJECTID":250012},"geometry":{"x":159440.38000000082,"y":2555486.4600000028}},{"attributes":{"ID":250017,"DIS_CODE":0,"TOWNNAME":"中西區","LI":"小西里","LIN":"14鄰","STREET":"府前路","SECT":"一段","MAREA":" ","LANE":"３５９巷","ALLEY":" ","HOUSE_NO":"２８號五樓之２","E_COORD97":167918.67000000001,"N_COORD97":2543369.77,"ADDRESS":"府前路一段３５９巷２８號五樓之２","OBJECTID":250013},"geometry":{"x":167918.66999999899,"y":2543369.7699999996}},{"attributes":{"ID":250018,"DIS_CODE":0,"TOWNNAME":"安南區","LI":"安慶里","LIN":"14鄰","STREET":"安中路","SECT":"一段","MAREA":" ","LANE":" ","ALLEY":" ","HOUSE_NO":"１１５號","E_COORD97":168968.39000000001,"N_COORD97":2548347.4100000001,"ADDRESS":"安中路一段１１５號","OBJECTID":250014},"geometry":{"x":168968.3900000006,"y":2548347.4100000001}},{"attributes":{"ID":250019,"DIS_CODE":0,"TOWNNAME":"安南區","LI":"安慶里","LIN":"14鄰","STREET":"安中路","SECT":"一段","MAREA":" ","LANE":" ","ALLEY":" ","HOUSE_NO":"１１９號","E_COORD97":168959.98999999999,"N_COORD97":2548350.77,"ADDRESS":"安中路一段１１９號","OBJECTID":250015},"geometry":{"x":168959.99000000115,"y":2548350.7699999996}},{"attributes":{"ID":250020,"DIS_CODE":0,"TOWNNAME":"安南區","LI":"安慶里","LIN":"14鄰","STREET":"安中路","SECT":"一段","MAREA":" ","LANE":" ","ALLEY":" ","HOUSE_NO":"１２１號","E_COORD97":168955.10999999999,"N_COORD97":2548352.4700000002,"ADDRESS":"安中路一段１２１號","OBJECTID":250016},"geometry":{"x":168955.11000000034,"y":2548352.4700000025}},{"attributes":{"ID":250021,"DIS_CODE":0,"TOWNNAME":"安南區","LI":"安慶里","LIN":"14鄰","STREET":"安中路","SECT":"一段","MAREA":" ","LANE":" ","ALLEY":" ","HOUSE_NO":"１２２號","E_COORD97":168939.32999999999,"N_COORD97":2548409.5299999998,"ADDRESS":"安中路一段１２２號","OBJECTID":250017},"geometry":{"x":168939.33000000007,"y":2548409.5299999993}},{"attributes":{"ID":250022,"DIS_CODE":0,"TOWNNAME":"七股區","LI":"三股里","LIN":"11鄰","STREET":" ","SECT":" ","MAREA":"三股","LANE":" ","ALLEY":" ","HOUSE_NO":"３１號之２","E_COORD97":159434.78,"N_COORD97":2555506.3399999999,"ADDRESS":"三股３１號之２","OBJECTID":250018},"geometry":{"x":159434.78000000119,"y":2555506.3400000017}},{"attributes":{"ID":250023,"DIS_CODE":0,"TOWNNAME":"下營區","LI":"營前里","LIN":"14鄰","STREET":"復興街","SECT":" ","MAREA":" ","LANE":" ","ALLEY":" ","HOUSE_NO":"１９號","E_COORD97":174723.35999999999,"N_COORD97":2570421.2000000002,"ADDRESS":"復興街１９號","OBJECTID":250019},"geometry":{"x":174723.36000000034,"y":2570421.2000000011}},{"attributes":{"ID":250024,"DIS_CODE":0,"TOWNNAME":"北區","LI":"振興里","LIN":"14鄰","STREET":"長榮路","SECT":"四段","MAREA":" ","LANE":" ","ALLEY":" ","HOUSE_NO":"１１６號","E_COORD97":170279.16,"N_COORD97":2545133.1200000001,"ADDRESS":"長榮路四段１１６號","OBJECTID":250020},"geometry":{"x":170279.16000000108,"y":2545133.1200000048}},{"attributes":{"ID":250025,"DIS_CODE":0,"TOWNNAME":"北區","LI":"振興里","LIN":"14鄰","STREET":"長榮路","SECT":"四段","MAREA":" ","LANE":" ","ALLEY":" ","HOUSE_NO":"１１８號","E_COORD97":170276.42999999999,"N_COORD97":2545136.9399999999,"ADDRESS":"長榮路四段１１８號","OBJECTID":250021},"geometry":{"x":170276.42999999877,"y":2545136.9400000013}},{"attributes":{"ID":250026,"DIS_CODE":0,"TOWNNAME":"北區","LI":"振興里","LIN":"14鄰","STREET":"長榮路","SECT":"四段","MAREA":" ","LANE":" ","ALLEY":" ","HOUSE_NO":"１２０號","E_COORD97":170274.47,"N_COORD97":2545140.9700000002,"ADDRESS":"長榮路四段１２０號","OBJECTID":250022},"geometry":{"x":170274.46999999881,"y":2545140.9700000025}},{"attributes":{"ID":250027,"DIS_CODE":0,"TOWNNAME":"中西區","LI":"小西里","LIN":"14鄰","STREET":"府前路","SECT":"一段","MAREA":" ","LANE":"３５９巷","ALLEY":" ","HOUSE_NO":"２８號五樓之３","E_COORD97":167918.67000000001,"N_COORD97":2543369.77,"ADDRESS":"府前路一段３５９巷２８號五樓之３","OBJECTID":250023},"geometry":{"x":167918.66999999899,"y":2543369.7699999996}},{"attributes":{"ID":250028,"DIS_CODE":0,"TOWNNAME":"七股區","LI":"三股里","LIN":"11鄰","STREET":" ","SECT":" ","MAREA":"三股","LANE":" ","ALLEY":" ","HOUSE_NO":"３１號之５","E_COORD97":159429.45000000001,"N_COORD97":2555506.3100000001,"ADDRESS":"三股３１號之５","OBJECTID":250024},"geometry":{"x":159429.45000000205,"y":2555506.3100000024}},{"attributes":{"ID":250029,"DIS_CODE":0,"TOWNNAME":"七股區","LI":"三股里","LIN":"11鄰","STREET":" ","SECT":" ","MAREA":"三股","LANE":" ","ALLEY":" ","HOUSE_NO":"３１號","E_COORD97":159418.20999999999,"N_COORD97":2555509.1600000001,"ADDRESS":"三股３１號","OBJECTID":250025},"geometry":{"x":159418.20999999996,"y":2555509.1600000001}},{"attributes":{"ID":250030,"DIS_CODE":0,"TOWNNAME":"中西區","LI":"小西里","LIN":"14鄰","STREET":"府前路","SECT":"一段","MAREA":" ","LANE":"３５９巷","ALLEY":" ","HOUSE_NO":"２８號六樓之１","E_COORD97":167918.67000000001,"N_COORD97":2543369.77,"ADDRESS":"府前路一段３５９巷２８號六樓之１","OBJECTID":250026},"geometry":{"x":167918.66999999899,"y":2543369.7699999996}},{"attributes":{"ID":250031,"DIS_CODE":0,"TOWNNAME":"中西區","LI":"小西里","LIN":"14鄰","STREET":"府前路","SECT":"一段","MAREA":" ","LANE":"３５９巷","ALLEY":" ","HOUSE_NO":"２８號六樓之２","E_COORD97":167918.67000000001,"N_COORD97":2543369.77,"ADDRESS":"府前路一段３５９巷２８號六樓之２","OBJECTID":250027},"geometry":{"x":167918.66999999899,"y":2543369.7699999996}},{"attributes":{"ID":250032,"DIS_CODE":0,"TOWNNAME":"七股區","LI":"三股里","LIN":"11鄰","STREET":" ","SECT":" ","MAREA":"三股","LANE":" ","ALLEY":" ","HOUSE_NO":"３２號之１０","E_COORD97":159269.89999999999,"N_COORD97":2555520.8300000001,"ADDRESS":"三股３２號之１０","OBJECTID":250028},"geometry":{"x":159269.90000000037,"y":2555520.8300000001}},{"attributes":{"ID":250033,"DIS_CODE":0,"TOWNNAME":"中西區","LI":"小西里","LIN":"14鄰","STREET":"府前路","SECT":"一段","MAREA":" ","LANE":"３５９巷","ALLEY":" ","HOUSE_NO":"２８號六樓之３","E_COORD97":167918.67000000001,"N_COORD97":2543369.77,"ADDRESS":"府前路一段３５９巷２８號六樓之３","OBJECTID":250029},"geometry":{"x":167918.66999999899,"y":2543369.7699999996}},{"attributes":{"ID":250034,"DIS_CODE":0,"TOWNNAME":"中西區","LI":"小西里","LIN":"14鄰","STREET":"府前路","SECT":"一段","MAREA":" ","LANE":"３５９巷","ALLEY":" ","HOUSE_NO":"２８號六樓之４","E_COORD97":167918.67000000001,"N_COORD97":2543369.77,"ADDRESS":"府前路一段３５９巷２８號六樓之４","OBJECTID":250030},"geometry":{"x":167918.66999999899,"y":2543369.7699999996}},{"attributes":{"ID":250035,"DIS_CODE":0,"TOWNNAME":"東區","LI":"東門里","LIN":"1鄰","STREET":"東門路","SECT":"一段","MAREA":" ","LANE":" ","ALLEY":" ","HOUSE_NO":"３９號","E_COORD97":169217.29999999999,"N_COORD97":2543264.8199999998,"ADDRESS":"東門路一段３９號","OBJECTID":250031},"geometry":{"x":169217.29999999981,"y":2543264.8200000003}},{"attributes":{"ID":250036,"DIS_CODE":0,"TOWNNAME":"永康區","LI":"勝利里","LIN":"36鄰","STREET":"勝學路","SECT":" ","MAREA":" ","LANE":"６０巷","ALLEY":" ","HOUSE_NO":"１２號","E_COORD97":171183.56,"N_COORD97":2544727,"ADDRESS":"勝學路６０巷１２號","OBJECTID":250032},"geometry":{"x":171183.55999999959,"y":2544727.0000000019}},{"attributes":{"ID":250037,"DIS_CODE":0,"TOWNNAME":"永康區","LI":"勝利里","LIN":"39鄰","STREET":"勝華街","SECT":" ","MAREA":" ","LANE":"３７巷","ALLEY":" ","HOUSE_NO":"８號","E_COORD97":171440.94,"N_COORD97":2545188.6099999999,"ADDRESS":"勝華街３７巷８號","OBJECTID":250033},"geometry":{"x":171440.94000000041,"y":2545188.6099999994}},{"attributes":{"ID":250038,"DIS_CODE":0,"TOWNNAME":"永康區","LI":"復華里","LIN":"32鄰","STREET":"國華街","SECT":" ","MAREA":" ","LANE":"１２５巷","ALLEY":" ","HOUSE_NO":"７號","E_COORD97":172576.70999999999,"N_COORD97":2546275.2400000002,"ADDRESS":"國華街１２５巷７號","OBJECTID":250034},"geometry":{"x":172576.70999999996,"y":2546275.2400000021}},{"attributes":{"ID":250039,"DIS_CODE":0,"TOWNNAME":"七股區","LI":"大寮里","LIN":"11鄰","STREET":" ","SECT":" ","MAREA":"大寮","LANE":" ","ALLEY":" ","HOUSE_NO":"１１５號之１","E_COORD97":163294.34,"N_COORD97":2560740.5899999999,"ADDRESS":"大寮１１５號之１","OBJECTID":250035},"geometry":{"x":163294.33999999985,"y":2560740.5899999999}},{"attributes":{"ID":250040,"DIS_CODE":0,"TOWNNAME":"永康區","LI":"復國里","LIN":"32鄰","STREET":"復華一街","SECT":" ","MAREA":" ","LANE":"２８巷","ALLEY":" ","HOUSE_NO":"４１號","E_COORD97":172646.26000000001,"N_COORD97":2545206.7799999998,"ADDRESS":"復華一街２８巷４１號","OBJECTID":250036},"geometry":{"x":172646.26000000071,"y":2545206.7799999993}},{"attributes":{"ID":250041,"DIS_CODE":0,"TOWNNAME":"永康區","LI":"復華里","LIN":"1鄰","STREET":"復國二路","SECT":" ","MAREA":" ","LANE":"２４４巷","ALLEY":" ","HOUSE_NO":"３號","E_COORD97":173021.95999999999,"N_COORD97":2545932.2000000002,"ADDRESS":"復國二路２４４巷３號","OBJECTID":250037},"geometry":{"x":173021.95999999996,"y":2545932.2000000011}},{"attributes":{"ID":250042,"DIS_CODE":0,"TOWNNAME":"中西區","LI":"小西里","LIN":"14鄰","STREET":"府前路","SECT":"一段","MAREA":" ","LANE":"３５９巷","ALLEY":" ","HOUSE_NO":"２８號四樓之１","E_COORD97":167918.67000000001,"N_COORD97":2543369.77,"ADDRESS":"府前路一段３５９巷２８號四樓之１","OBJECTID":250038},"geometry":{"x":167918.66999999899,"y":2543369.7699999996}},{"attributes":{"ID":250043,"DIS_CODE":0,"TOWNNAME":"新營區","LI":"永生里","LIN":"14鄰","STREET":"永安街","SECT":" ","MAREA":" ","LANE":" ","ALLEY":" ","HOUSE_NO":"１５號","E_COORD97":179884.29000000001,"N_COORD97":2577930.9399999999,"ADDRESS":"永安街１５號","OBJECTID":250039},"geometry":{"x":179884.29000000004,"y":2577930.9399999995}},{"attributes":{"ID":250044,"DIS_CODE":0,"TOWNNAME":"中西區","LI":"小西里","LIN":"14鄰","STREET":"府前路","SECT":"一段","MAREA":" ","LANE":"３５９巷","ALLEY":" ","HOUSE_NO":"２８號四樓之２","E_COORD97":167918.67000000001,"N_COORD97":2543369.77,"ADDRESS":"府前路一段３５９巷２８號四樓之２","OBJECTID":250040},"geometry":{"x":167918.66999999899,"y":2543369.7699999996}},{"attributes":{"ID":250045,"DIS_CODE":0,"TOWNNAME":"中西區","LI":"大南里","LIN":"14鄰","STREET":"樹林街","SECT":"二段","MAREA":" ","LANE":"１２５巷","ALLEY":" ","HOUSE_NO":"１８號一樓","E_COORD97":168215.91,"N_COORD97":2542945.6400000001,"ADDRESS":"樹林街二段１２５巷１８號一樓","OBJECTID":250041},"geometry":{"x":168215.91000000108,"y":2542945.6399999987}},{"attributes":{"ID":250046,"DIS_CODE":0,"TOWNNAME":"中西區","LI":"大南里","LIN":"14鄰","STREET":"樹林街","SECT":"二段","MAREA":" ","LANE":"１２５巷","ALLEY":" ","HOUSE_NO":"１８號二樓","E_COORD97":168215.91,"N_COORD97":2542945.6400000001,"ADDRESS":"樹林街二段１２５巷１８號二樓","OBJECTID":250042},"geometry":{"x":168215.91000000108,"y":2542945.6399999987}},{"attributes":{"ID":250047,"DIS_CODE":0,"TOWNNAME":"中西區","LI":"大南里","LIN":"14鄰","STREET":"樹林街","SECT":"二段","MAREA":" ","LANE":"１２５巷","ALLEY":" ","HOUSE_NO":"１８號三樓","E_COORD97":168215.91,"N_COORD97":2542945.6400000001,"ADDRESS":"樹林街二段１２５巷１８號三樓","OBJECTID":250043},"geometry":{"x":168215.91000000108,"y":2542945.6399999987}},{"attributes":{"ID":250048,"DIS_CODE":0,"TOWNNAME":"北區","LI":"振興里","LIN":"14鄰","STREET":"長榮路","SECT":"四段","MAREA":" ","LANE":" ","ALLEY":" ","HOUSE_NO":"１２２號","E_COORD97":170272.29000000001,"N_COORD97":2545144.5699999998,"ADDRESS":"長榮路四段１２２號","OBJECTID":250044},"geometry":{"x":170272.29000000004,"y":2545144.5700000022}},{"attributes":{"ID":250049,"DIS_CODE":0,"TOWNNAME":"北區","LI":"振興里","LIN":"14鄰","STREET":"長榮路","SECT":"四段","MAREA":" ","LANE":" ","ALLEY":" ","HOUSE_NO":"１２４號","E_COORD97":170270,"N_COORD97":2545147.3999999999,"ADDRESS":"長榮路四段１２４號","OBJECTID":250045},"geometry":{"x":170270.00000000093,"y":2545147.4000000041}},{"attributes":{"ID":250050,"DIS_CODE":0,"TOWNNAME":"七股區","LI":"大寮里","LIN":"11鄰","STREET":" ","SECT":" ","MAREA":"大寮","LANE":" ","ALLEY":" ","HOUSE_NO":"１１５號","E_COORD97":163310.76000000001,"N_COORD97":2560768.9700000002,"ADDRESS":"大寮１１５號","OBJECTID":250046},"geometry":{"x":163310.76000000071,"y":2560768.9700000007}},{"attributes":{"ID":250051,"DIS_CODE":0,"TOWNNAME":"七股區","LI":"大寮里","LIN":"11鄰","STREET":" ","SECT":" ","MAREA":"大寮","LANE":" ","ALLEY":" ","HOUSE_NO":"１１６號","E_COORD97":163311.60000000001,"N_COORD97":2560742.3500000001,"ADDRESS":"大寮１１６號","OBJECTID":250047},"geometry":{"x":163311.60000000056,"y":2560742.3499999996}},{"attributes":{"ID":250052,"DIS_CODE":0,"TOWNNAME":"北區","LI":"振興里","LIN":"14鄰","STREET":"長榮路","SECT":"四段","MAREA":" ","LANE":" ","ALLEY":" ","HOUSE_NO":"１２６號","E_COORD97":170267.60000000001,"N_COORD97":2545151.1000000001,"ADDRESS":"長榮路四段１２６號","OBJECTID":250048},"geometry":{"x":170267.60000000056,"y":2545151.0999999996}},{"attributes":{"ID":250053,"DIS_CODE":0,"TOWNNAME":"北區","LI":"振興里","LIN":"14鄰","STREET":"長榮路","SECT":"四段","MAREA":" ","LANE":" ","ALLEY":" ","HOUSE_NO":"１２８號","E_COORD97":170265.95999999999,"N_COORD97":2545155.0299999998,"ADDRESS":"長榮路四段１２８號","OBJECTID":250049},"geometry":{"x":170265.95999999996,"y":2545155.0299999993}},{"attributes":{"ID":250054,"DIS_CODE":0,"TOWNNAME":"北區","LI":"振興里","LIN":"14鄰","STREET":"長榮路","SECT":"四段","MAREA":" ","LANE":" ","ALLEY":" ","HOUSE_NO":"１０４號","E_COORD97":170297.26000000001,"N_COORD97":2545107.8199999998,"ADDRESS":"長榮路四段１０４號","OBJECTID":250050},"geometry":{"x":170297.25999999978,"y":2545107.8200000022}},{"attributes":{"ID":250055,"DIS_CODE":0,"TOWNNAME":"中西區","LI":"大南里","LIN":"14鄰","STREET":"樹林街","SECT":"二段","MAREA":" ","LANE":"１２５巷","ALLEY":" ","HOUSE_NO":"１８號五樓","E_COORD97":168215.91,"N_COORD97":2542945.6400000001,"ADDRESS":"樹林街二段１２５巷１８號五樓","OBJECTID":250051},"geometry":{"x":168215.91000000108,"y":2542945.6399999987}},{"attributes":{"ID":250056,"DIS_CODE":0,"TOWNNAME":"七股區","LI":"大寮里","LIN":"11鄰","STREET":" ","SECT":" ","MAREA":"大寮","LANE":" ","ALLEY":" ","HOUSE_NO":"１２１號之５","E_COORD97":163288.29999999999,"N_COORD97":2560690.04,"ADDRESS":"大寮１２１號之５","OBJECTID":250052},"geometry":{"x":163288.30000000168,"y":2560690.0400000028}},{"attributes":{"ID":250057,"DIS_CODE":0,"TOWNNAME":"中西區","LI":"大南里","LIN":"14鄰","STREET":"樹林街","SECT":"二段","MAREA":" ","LANE":"１２５巷","ALLEY":" ","HOUSE_NO":"１８號四樓","E_COORD97":168215.91,"N_COORD97":2542945.6400000001,"ADDRESS":"樹林街二段１２５巷１８號四樓","OBJECTID":250053},"geometry":{"x":168215.91000000108,"y":2542945.6399999987}},{"attributes":{"ID":250058,"DIS_CODE":0,"TOWNNAME":"中西區","LI":"大南里","LIN":"14鄰","STREET":"樹林街","SECT":"二段","MAREA":" ","LANE":"１２５巷","ALLEY":" ","HOUSE_NO":"２０號一樓","E_COORD97":168209.22,"N_COORD97":2542945.29,"ADDRESS":"樹林街二段１２５巷２０號一樓","OBJECTID":250054},"geometry":{"x":168209.21999999974,"y":2542945.2899999991}},{"attributes":{"ID":250059,"DIS_CODE":0,"TOWNNAME":"中西區","LI":"大南里","LIN":"14鄰","STREET":"樹林街","SECT":"二段","MAREA":" ","LANE":"１２５巷","ALLEY":" ","HOUSE_NO":"２０號二樓","E_COORD97":168209.22,"N_COORD97":2542945.29,"ADDRESS":"樹林街二段１２５巷２０號二樓","OBJECTID":250055},"geometry":{"x":168209.21999999974,"y":2542945.2899999991}},{"attributes":{"ID":250060,"DIS_CODE":0,"TOWNNAME":"中西區","LI":"大南里","LIN":"14鄰","STREET":"樹林街","SECT":"二段","MAREA":" ","LANE":"１２５巷","ALLEY":" ","HOUSE_NO":"２０號三樓","E_COORD97":168209.22,"N_COORD97":2542945.29,"ADDRESS":"樹林街二段１２５巷２０號三樓","OBJECTID":250056},"geometry":{"x":168209.21999999974,"y":2542945.2899999991}},{"attributes":{"ID":250061,"DIS_CODE":0,"TOWNNAME":"南區","LI":"再興里","LIN":"4鄰","STREET":"新慶街","SECT":" ","MAREA":" ","LANE":"１０巷","ALLEY":" ","HOUSE_NO":"１１號","E_COORD97":167262.45000000001,"N_COORD97":2542369.7799999998,"ADDRESS":"新慶街１０巷１１號","OBJECTID":250057},"geometry":{"x":167262.45000000019,"y":2542369.7799999993}},{"attributes":{"ID":250062,"DIS_CODE":0,"TOWNNAME":"南區","LI":"再興里","LIN":"4鄰","STREET":"新慶街","SECT":" ","MAREA":" ","LANE":"１０巷","ALLEY":" ","HOUSE_NO":"１５號","E_COORD97":167255.67999999999,"N_COORD97":2542369.46,"ADDRESS":"新慶街１０巷１５號","OBJECTID":250058},"geometry":{"x":167255.68000000156,"y":2542369.4600000009}},{"attributes":{"ID":250063,"DIS_CODE":0,"TOWNNAME":"中西區","LI":"大南里","LIN":"14鄰","STREET":"樹林街","SECT":"二段","MAREA":" ","LANE":"１２５巷","ALLEY":" ","HOUSE_NO":"２０號五樓","E_COORD97":168209.22,"N_COORD97":2542945.29,"ADDRESS":"樹林街二段１２５巷２０號五樓","OBJECTID":250059},"geometry":{"x":168209.21999999974,"y":2542945.2899999991}},{"attributes":{"ID":250064,"DIS_CODE":0,"TOWNNAME":"七股區","LI":"玉成里","LIN":"11鄰","STREET":" ","SECT":" ","MAREA":"玉成","LANE":" ","ALLEY":" ","HOUSE_NO":"１０４號之１","E_COORD97":161254.64000000001,"N_COORD97":2560618.5099999998,"ADDRESS":"玉成１０４號之１","OBJECTID":250060},"geometry":{"x":161254.63999999966,"y":2560618.5099999998}},{"attributes":{"ID":250065,"DIS_CODE":0,"TOWNNAME":"中西區","LI":"大南里","LIN":"14鄰","STREET":"樹林街","SECT":"二段","MAREA":" ","LANE":"１２５巷","ALLEY":" ","HOUSE_NO":"２０號四樓","E_COORD97":168209.22,"N_COORD97":2542945.29,"ADDRESS":"樹林街二段１２５巷２０號四樓","OBJECTID":250061},"geometry":{"x":168209.21999999974,"y":2542945.2899999991}},{"attributes":{"ID":250066,"DIS_CODE":0,"TOWNNAME":"七股區","LI":"玉成里","LIN":"11鄰","STREET":" ","SECT":" ","MAREA":"玉成","LANE":" ","ALLEY":" ","HOUSE_NO":"１０４號之２","E_COORD97":161277.45000000001,"N_COORD97":2560621.77,"ADDRESS":"玉成１０４號之２","OBJECTID":250062},"geometry":{"x":161277.45000000112,"y":2560621.7700000014}},{"attributes":{"ID":250067,"DIS_CODE":0,"TOWNNAME":"七股區","LI":"玉成里","LIN":"11鄰","STREET":" ","SECT":" ","MAREA":"玉成","LANE":" ","ALLEY":" ","HOUSE_NO":"１０４號之３","E_COORD97":161316.20999999999,"N_COORD97":2560604.4199999999,"ADDRESS":"玉成１０４號之３","OBJECTID":250063},"geometry":{"x":161316.21000000089,"y":2560604.4200000018}},{"attributes":{"ID":250068,"DIS_CODE":0,"TOWNNAME":"永康區","LI":"復華里","LIN":"4鄰","STREET":"復國二路","SECT":" ","MAREA":" ","LANE":"２４３巷","ALLEY":" ","HOUSE_NO":"２８號","E_COORD97":172944.07999999999,"N_COORD97":2546142.0699999998,"ADDRESS":"復國二路２４３巷２８號","OBJECTID":250064},"geometry":{"x":172944.08000000194,"y":2546142.0700000003}},{"attributes":{"ID":250069,"DIS_CODE":0,"TOWNNAME":"永康區","LI":"復華里","LIN":"25鄰","STREET":"復華八街","SECT":" ","MAREA":" ","LANE":"４９巷","ALLEY":" ","HOUSE_NO":"８號","E_COORD97":172779.57999999999,"N_COORD97":2546423.5299999998,"ADDRESS":"復華八街４９巷８號","OBJECTID":250065},"geometry":{"x":172779.57999999914,"y":2546423.5299999975}},{"attributes":{"ID":250070,"DIS_CODE":0,"TOWNNAME":"七股區","LI":"大埕里","LIN":"11鄰","STREET":" ","SECT":" ","MAREA":"大埕","LANE":" ","ALLEY":" ","HOUSE_NO":"３９６號","E_COORD97":161686.20000000001,"N_COORD97":2559935.1000000001,"ADDRESS":"大埕３９６號","OBJECTID":250066},"geometry":{"x":161686.20000000112,"y":2559935.1000000015}},{"attributes":{"ID":250071,"DIS_CODE":0,"TOWNNAME":"永康區","LI":"復華里","LIN":"25鄰","STREET":"復華八街","SECT":" ","MAREA":" ","LANE":"４９巷","ALLEY":" ","HOUSE_NO":"１３號","E_COORD97":172756.76000000001,"N_COORD97":2546412.7799999998,"ADDRESS":"復華八街４９巷１３號","OBJECTID":250067},"geometry":{"x":172756.76000000071,"y":2546412.7800000012}},{"attributes":{"ID":250072,"DIS_CODE":0,"TOWNNAME":"永康區","LI":"復國里","LIN":"24鄰","STREET":"復華三街","SECT":" ","MAREA":" ","LANE":"９０巷","ALLEY":" ","HOUSE_NO":"８號","E_COORD97":172617.32000000001,"N_COORD97":2545587.2799999998,"ADDRESS":"復華三街９０巷８號","OBJECTID":250068},"geometry":{"x":172617.32000000216,"y":2545587.2799999993}},{"attributes":{"ID":250073,"DIS_CODE":0,"TOWNNAME":"永康區","LI":"復華里","LIN":"14鄰","STREET":"國華街","SECT":" ","MAREA":" ","LANE":"９２巷","ALLEY":" ","HOUSE_NO":"９號","E_COORD97":172887.69,"N_COORD97":2545871.7400000002,"ADDRESS":"國華街９２巷９號","OBJECTID":250069},"geometry":{"x":172887.68999999948,"y":2545871.7400000021}},{"attributes":{"ID":250074,"DIS_CODE":0,"TOWNNAME":"永康區","LI":"勝利里","LIN":"14鄰","STREET":"勝利街","SECT":" ","MAREA":" ","LANE":"７７巷","ALLEY":" ","HOUSE_NO":"１３號","E_COORD97":171302.60000000001,"N_COORD97":2544763.5099999998,"ADDRESS":"勝利街７７巷１３號","OBJECTID":250070},"geometry":{"x":171302.60000000149,"y":2544763.5100000016}},{"attributes":{"ID":250075,"DIS_CODE":0,"TOWNNAME":"中西區","LI":"大南里","LIN":"14鄰","STREET":"樹林街","SECT":"二段","MAREA":" ","LANE":"１２５巷","ALLEY":" ","HOUSE_NO":"３３號二樓之１","E_COORD97":168188.79000000001,"N_COORD97":2542951.6200000001,"ADDRESS":"樹林街二段１２５巷３３號二樓之１","OBJECTID":250071},"geometry":{"x":168188.79000000004,"y":2542951.620000001}},{"attributes":{"ID":250076,"DIS_CODE":0,"TOWNNAME":"安平區","LI":"國平里","LIN":"14鄰","STREET":"健康路","SECT":"三段","MAREA":" ","LANE":" ","ALLEY":" ","HOUSE_NO":"１４８號","E_COORD97":165570.10000000001,"N_COORD97":2542683.7000000002,"ADDRESS":"健康路三段１４８號","OBJECTID":250072},"geometry":{"x":165570.10000000056,"y":2542683.7000000011}},{"attributes":{"ID":250077,"DIS_CODE":0,"TOWNNAME":"安平區","LI":"國平里","LIN":"14鄰","STREET":"健康路","SECT":"三段","MAREA":" ","LANE":" ","ALLEY":" ","HOUSE_NO":"１５０號","E_COORD97":165565.32999999999,"N_COORD97":2542684.1000000001,"ADDRESS":"健康路三段１５０號","OBJECTID":250073},"geometry":{"x":165565.33000000101,"y":2542684.1000000034}},{"attributes":{"ID":250078,"DIS_CODE":0,"TOWNNAME":"安平區","LI":"國平里","LIN":"14鄰","STREET":"健康路","SECT":"三段","MAREA":" ","LANE":" ","ALLEY":" ","HOUSE_NO":"１５２號","E_COORD97":165561.76000000001,"N_COORD97":2542685.29,"ADDRESS":"健康路三段１５２號","OBJECTID":250074},"geometry":{"x":165561.76000000164,"y":2542685.2899999972}},{"attributes":{"ID":250079,"DIS_CODE":0,"TOWNNAME":"安平區","LI":"國平里","LIN":"14鄰","STREET":"健康路","SECT":"三段","MAREA":" ","LANE":" ","ALLEY":" ","HOUSE_NO":"１５４號","E_COORD97":165556.98999999999,"N_COORD97":2542685.8799999999,"ADDRESS":"健康路三段１５４號","OBJECTID":250075},"geometry":{"x":165556.99000000022,"y":2542685.8800000008}},{"attributes":{"ID":250080,"DIS_CODE":0,"TOWNNAME":"安平區","LI":"國平里","LIN":"14鄰","STREET":"健康路","SECT":"三段","MAREA":" ","LANE":" ","ALLEY":" ","HOUSE_NO":"１５６號","E_COORD97":165553.22,"N_COORD97":2542686.48,"ADDRESS":"健康路三段１５６號","OBJECTID":250076},"geometry":{"x":165553.21999999974,"y":2542686.4800000023}},{"attributes":{"ID":250081,"DIS_CODE":0,"TOWNNAME":"永康區","LI":"復國里","LIN":"23鄰","STREET":"復華三街","SECT":" ","MAREA":" ","LANE":" ","ALLEY":" ","HOUSE_NO":"９６號","E_COORD97":172583.88,"N_COORD97":2545569.02,"ADDRESS":"復華三街９６號","OBJECTID":250077},"geometry":{"x":172583.87999999989,"y":2545569.0199999996}},{"attributes":{"ID":250082,"DIS_CODE":0,"TOWNNAME":"官田區","LI":"南\u25A0里","LIN":"11鄰","STREET":" ","SECT":" ","MAREA":"三結義","LANE":" ","ALLEY":" ","HOUSE_NO":"２號之１","E_COORD97":179803.17999999999,"N_COORD97":2568092.96,"ADDRESS":"三結義２號之１","OBJECTID":250078},"geometry":{"x":179803.1799999997,"y":2568092.9600000009}},{"attributes":{"ID":250083,"DIS_CODE":0,"TOWNNAME":"永康區","LI":"復國里","LIN":"32鄰","STREET":"復華一街","SECT":" ","MAREA":" ","LANE":"１９巷","ALLEY":" ","HOUSE_NO":"７號","E_COORD97":172649.70000000001,"N_COORD97":2545041.52,"ADDRESS":"復華一街１９巷７號","OBJECTID":250079},"geometry":{"x":172649.70000000019,"y":2545041.5200000014}},{"attributes":{"ID":250084,"DIS_CODE":0,"TOWNNAME":"永康區","LI":"復國里","LIN":"32鄰","STREET":"復華一街","SECT":" ","MAREA":" ","LANE":"２８巷","ALLEY":" ","HOUSE_NO":"１３號","E_COORD97":172617.51000000001,"N_COORD97":2545124.27,"ADDRESS":"復華一街２８巷１３號","OBJECTID":250080},"geometry":{"x":172617.51000000071,"y":2545124.2700000014}},{"attributes":{"ID":250085,"DIS_CODE":0,"TOWNNAME":"永康區","LI":"復國里","LIN":"23鄰","STREET":"復國一路","SECT":" ","MAREA":" ","LANE":"３１５巷","ALLEY":" ","HOUSE_NO":"８號","E_COORD97":172714.89999999999,"N_COORD97":2545634.02,"ADDRESS":"復國一路３１５巷８號","OBJECTID":250081},"geometry":{"x":172714.90000000037,"y":2545634.0200000033}},{"attributes":{"ID":250086,"DIS_CODE":0,"TOWNNAME":"永康區","LI":"復國里","LIN":"23鄰","STREET":"復華三街","SECT":" ","MAREA":" ","LANE":"９０巷","ALLEY":" ","HOUSE_NO":"１９號","E_COORD97":172600.01000000001,"N_COORD97":2545613.0899999999,"ADDRESS":"復華三街９０巷１９號","OBJECTID":250082},"geometry":{"x":172600.00999999978,"y":2545613.0899999999}},{"attributes":{"ID":250087,"DIS_CODE":0,"TOWNNAME":"永康區","LI":"網寮里","LIN":"22鄰","STREET":"永春街","SECT":" ","MAREA":" ","LANE":"１３巷","ALLEY":" ","HOUSE_NO":"２號","E_COORD97":173769.51000000001,"N_COORD97":2546248.9199999999,"ADDRESS":"永春街１３巷２號","OBJECTID":250083},"geometry":{"x":173769.50999999978,"y":2546248.9200000037}},{"attributes":{"ID":250088,"DIS_CODE":0,"TOWNNAME":"永康區","LI":"復國里","LIN":"31鄰","STREET":"復國一路","SECT":" ","MAREA":" ","LANE":"１５９巷","ALLEY":" ","HOUSE_NO":"５號","E_COORD97":172686.38,"N_COORD97":2545163.0299999998,"ADDRESS":"復國一路１５９巷５號","OBJECTID":250084},"geometry":{"x":172686.38000000082,"y":2545163.0300000012}},{"attributes":{"ID":250089,"DIS_CODE":0,"TOWNNAME":"永康區","LI":"勝利里","LIN":"6鄰","STREET":"勝學路","SECT":" ","MAREA":" ","LANE":"３０巷","ALLEY":" ","HOUSE_NO":"９號","E_COORD97":171184.88,"N_COORD97":2544642,"ADDRESS":"勝學路３０巷９號","OBJECTID":250085},"geometry":{"x":171184.87999999989,"y":2544642.0000000019}},{"attributes":{"ID":250090,"DIS_CODE":0,"TOWNNAME":"安南區","LI":"溪心里","LIN":"11鄰","STREET":"安吉路","SECT":"一段","MAREA":" ","LANE":"９９９巷","ALLEY":" ","HOUSE_NO":"３５號","E_COORD97":166961.20000000001,"N_COORD97":2550616.0299999998,"ADDRESS":"安吉路一段９９９巷３５號","OBJECTID":250086},"geometry":{"x":166961.20000000205,"y":2550616.0299999993}},{"attributes":{"ID":250091,"DIS_CODE":0,"TOWNNAME":"中西區","LI":"大南里","LIN":"14鄰","STREET":"樹林街","SECT":"二段","MAREA":" ","LANE":"１２５巷","ALLEY":" ","HOUSE_NO":"３３號二樓之２","E_COORD97":168188.79000000001,"N_COORD97":2542951.6200000001,"ADDRESS":"樹林街二段１２５巷３３號二樓之２","OBJECTID":250087},"geometry":{"x":168188.79000000004,"y":2542951.620000001}},{"attributes":{"ID":250092,"DIS_CODE":0,"TOWNNAME":"中西區","LI":"大南里","LIN":"14鄰","STREET":"樹林街","SECT":"二段","MAREA":" ","LANE":"１２５巷","ALLEY":" ","HOUSE_NO":"３３號二樓之３","E_COORD97":168188.79000000001,"N_COORD97":2542951.6200000001,"ADDRESS":"樹林街二段１２５巷３３號二樓之３","OBJECTID":250088},"geometry":{"x":168188.79000000004,"y":2542951.620000001}},{"attributes":{"ID":250093,"DIS_CODE":0,"TOWNNAME":"中西區","LI":"大南里","LIN":"14鄰","STREET":"樹林街","SECT":"二段","MAREA":" ","LANE":"１２５巷","ALLEY":" ","HOUSE_NO":"３３號二樓之４","E_COORD97":168188.79000000001,"N_COORD97":2542951.6200000001,"ADDRESS":"樹林街二段１２５巷３３號二樓之４","OBJECTID":250089},"geometry":{"x":168188.79000000004,"y":2542951.620000001}},{"attributes":{"ID":250094,"DIS_CODE":0,"TOWNNAME":"中西區","LI":"大南里","LIN":"14鄰","STREET":"樹林街","SECT":"二段","MAREA":" ","LANE":"１２５巷","ALLEY":" ","HOUSE_NO":"３３號二樓之５","E_COORD97":168188.79000000001,"N_COORD97":2542951.6200000001,"ADDRESS":"樹林街二段１２５巷３３號二樓之５","OBJECTID":250090},"geometry":{"x":168188.79000000004,"y":2542951.620000001}},{"attributes":{"ID":250095,"DIS_CODE":0,"TOWNNAME":"中西區","LI":"大南里","LIN":"14鄰","STREET":"樹林街","SECT":"二段","MAREA":" ","LANE":"１２５巷","ALLEY":" ","HOUSE_NO":"３３號二樓之６","E_COORD97":168188.79000000001,"N_COORD97":2542951.6200000001,"ADDRESS":"樹林街二段１２５巷３３號二樓之６","OBJECTID":250091},"geometry":{"x":168188.79000000004,"y":2542951.620000001}},{"attributes":{"ID":250096,"DIS_CODE":0,"TOWNNAME":"中西區","LI":"大南里","LIN":"14鄰","STREET":"樹林街","SECT":"二段","MAREA":" ","LANE":"１２５巷","ALLEY":" ","HOUSE_NO":"３３號三樓之１","E_COORD97":168188.79000000001,"N_COORD97":2542951.6200000001,"ADDRESS":"樹林街二段１２５巷３３號三樓之１","OBJECTID":250092},"geometry":{"x":168188.79000000004,"y":2542951.620000001}},{"attributes":{"ID":250097,"DIS_CODE":0,"TOWNNAME":"中西區","LI":"大南里","LIN":"14鄰","STREET":"樹林街","SECT":"二段","MAREA":" ","LANE":"１２５巷","ALLEY":" ","HOUSE_NO":"３３號三樓之２","E_COORD97":168188.79000000001,"N_COORD97":2542951.6200000001,"ADDRESS":"樹林街二段１２５巷３３號三樓之２","OBJECTID":250093},"geometry":{"x":168188.79000000004,"y":2542951.620000001}},{"attributes":{"ID":250098,"DIS_CODE":0,"TOWNNAME":"安南區","LI":"理想里","LIN":"14鄰","STREET":"大安街","SECT":" ","MAREA":" ","LANE":"８９巷","ALLEY":" ","HOUSE_NO":"８號","E_COORD97":167207.01999999999,"N_COORD97":2548097.3399999999,"ADDRESS":"大安街８９巷８號","OBJECTID":250094},"geometry":{"x":167207.01999999955,"y":2548097.3400000017}},{"attributes":{"ID":250099,"DIS_CODE":0,"TOWNNAME":"安平區","LI":"國平里","LIN":"14鄰","STREET":"健康路","SECT":"三段","MAREA":" ","LANE":" ","ALLEY":" ","HOUSE_NO":"１５８號","E_COORD97":165549.04999999999,"N_COORD97":2542687.4700000002,"ADDRESS":"健康路三段１５８號","OBJECTID":250095},"geometry":{"x":165549.04999999981,"y":2542687.4700000025}},{"attributes":{"ID":250100,"DIS_CODE":0,"TOWNNAME":"安平區","LI":"國平里","LIN":"14鄰","STREET":"健康路","SECT":"三段","MAREA":" ","LANE":" ","ALLEY":" ","HOUSE_NO":"１６０號","E_COORD97":165545.26999999999,"N_COORD97":2542688.46,"ADDRESS":"健康路三段１６０號","OBJECTID":250096},"geometry":{"x":165545.27000000048,"y":2542688.4600000009}},{"attributes":{"ID":250101,"DIS_CODE":0,"TOWNNAME":"安平區","LI":"國平里","LIN":"14鄰","STREET":"健康路","SECT":"三段","MAREA":" ","LANE":" ","ALLEY":" ","HOUSE_NO":"１６２號","E_COORD97":165540.70000000001,"N_COORD97":2542689.0600000001,"ADDRESS":"健康路三段１６２號","OBJECTID":250097},"geometry":{"x":165540.70000000112,"y":2542689.0600000024}},{"attributes":{"ID":250102,"DIS_CODE":0,"TOWNNAME":"安平區","LI":"國平里","LIN":"14鄰","STREET":"健康路","SECT":"三段","MAREA":" ","LANE":" ","ALLEY":" ","HOUSE_NO":"１６４號","E_COORD97":165536.92999999999,"N_COORD97":2542690.0499999998,"ADDRESS":"健康路三段１６４號","OBJECTID":250098},"geometry":{"x":165536.93000000063,"y":2542690.0500000026}},{"attributes":{"ID":250103,"DIS_CODE":0,"TOWNNAME":"安平區","LI":"國平里","LIN":"14鄰","STREET":"健康路","SECT":"三段","MAREA":" ","LANE":" ","ALLEY":" ","HOUSE_NO":"１６６號","E_COORD97":165532.95999999999,"N_COORD97":2542690.8399999999,"ADDRESS":"健康路三段１６６號","OBJECTID":250099},"geometry":{"x":165532.95999999996,"y":2542690.8400000017}},{"attributes":{"ID":250104,"DIS_CODE":0,"TOWNNAME":"安平區","LI":"國平里","LIN":"14鄰","STREET":"健康路","SECT":"三段","MAREA":" ","LANE":" ","ALLEY":" ","HOUSE_NO":"１６８號","E_COORD97":165527.98999999999,"N_COORD97":2542691.6299999999,"ADDRESS":"健康路三段１６８號","OBJECTID":250100},"geometry":{"x":165527.99000000022,"y":2542691.629999999}},{"attributes":{"ID":250105,"DIS_CODE":0,"TOWNNAME":"安平區","LI":"國平里","LIN":"14鄰","STREET":"健康路","SECT":"三段","MAREA":" ","LANE":" ","ALLEY":" ","HOUSE_NO":"１７０號","E_COORD97":165524.01999999999,"N_COORD97":2542692.6299999999,"ADDRESS":"健康路三段１７０號","OBJECTID":250101},"geometry":{"x":165524.01999999862,"y":2542692.629999999}},{"attributes":{"ID":250106,"DIS_CODE":0,"TOWNNAME":"安平區","LI":"國平里","LIN":"14鄰","STREET":"健康路","SECT":"三段","MAREA":" ","LANE":" ","ALLEY":" ","HOUSE_NO":"１７２號","E_COORD97":165519.85000000001,"N_COORD97":2542693.6200000001,"ADDRESS":"健康路三段１７２號","OBJECTID":250102},"geometry":{"x":165519.84999999963,"y":2542693.6200000029}},{"attributes":{"ID":250107,"DIS_CODE":0,"TOWNNAME":"新市區","LI":"社內里","LIN":"11鄰","STREET":" ","SECT":" ","MAREA":"社內","LANE":" ","ALLEY":" ","HOUSE_NO":"１１２之１號","E_COORD97":176460.48000000001,"N_COORD97":2552755.2999999998,"ADDRESS":"社內１１２之１號","OBJECTID":250103},"geometry":{"x":176460.48000000045,"y":2552755.3000000007}},{"attributes":{"ID":250108,"DIS_CODE":0,"TOWNNAME":"新市區","LI":"港墘里","LIN":"11鄰","STREET":" ","SECT":" ","MAREA":"崙頂","LANE":" ","ALLEY":" ","HOUSE_NO":"３１之１號","E_COORD97":178885.51999999999,"N_COORD97":2552614.0499999998,"ADDRESS":"崙頂３１之１號","OBJECTID":250104},"geometry":{"x":178885.51999999862,"y":2552614.0500000026}},{"attributes":{"ID":250109,"DIS_CODE":0,"TOWNNAME":"新市區","LI":"港墘里","LIN":"11鄰","STREET":" ","SECT":" ","MAREA":"崙頂","LANE":" ","ALLEY":" ","HOUSE_NO":"３５之３號","E_COORD97":178812.64999999999,"N_COORD97":2552601.7999999998,"ADDRESS":"崙頂３５之３號","OBJECTID":250105},"geometry":{"x":178812.65000000224,"y":2552601.8000000026}},{"attributes":{"ID":250110,"DIS_CODE":0,"TOWNNAME":"新市區","LI":"港墘里","LIN":"11鄰","STREET":" ","SECT":" ","MAREA":"崙頂","LANE":" ","ALLEY":" ","HOUSE_NO":"３０號","E_COORD97":178873.64999999999,"N_COORD97":2552579.25,"ADDRESS":"崙頂３０號","OBJECTID":250106},"geometry":{"x":178873.64999999944,"y":2552579.25}},{"attributes":{"ID":250111,"DIS_CODE":0,"TOWNNAME":"新市區","LI":"社內里","LIN":"11鄰","STREET":" ","SECT":" ","MAREA":"社內","LANE":" ","ALLEY":" ","HOUSE_NO":"１２２之１號","E_COORD97":176534.42000000001,"N_COORD97":2552826.7999999998,"ADDRESS":"社內１２２之１號","OBJECTID":250107},"geometry":{"x":176534.42000000086,"y":2552826.8000000007}},{"attributes":{"ID":250112,"DIS_CODE":0,"TOWNNAME":"仁德區","LI":"後壁里","LIN":"12鄰","STREET":"德南路","SECT":" ","MAREA":" ","LANE":"２５１巷","ALLEY":" ","HOUSE_NO":"１８號","E_COORD97":173847.40753200001,"N_COORD97":2538448.0010799998,"ADDRESS":"德南路２５１巷１８號","OBJECTID":250108},"geometry":{"x":173847.40753199905,"y":2538448.0010760017}},{"attributes":{"ID":250113,"DIS_CODE":0,"TOWNNAME":"新市區","LI":"潭頂里","LIN":"11鄰","STREET":" ","SECT":" ","MAREA":"潭頂","LANE":" ","ALLEY":" ","HOUSE_NO":"３７７號之６","E_COORD97":180573.66,"N_COORD97":2552991.7999999998,"ADDRESS":"潭頂３７７號之６","OBJECTID":250109},"geometry":{"x":180573.66000000201,"y":2552991.8000000026}},{"attributes":{"ID":250114,"DIS_CODE":0,"TOWNNAME":"永康區","LI":"復華里","LIN":"4鄰","STREET":"復國二路","SECT":" ","MAREA":" ","LANE":"２６９巷","ALLEY":" ","HOUSE_NO":"１５號","E_COORD97":172994.82999999999,"N_COORD97":2546192.0600000001,"ADDRESS":"復國二路２６９巷１５號","OBJECTID":250110},"geometry":{"x":172994.83000000007,"y":2546192.0600000024}},{"attributes":{"ID":250115,"DIS_CODE":0,"TOWNNAME":"中西區","LI":"大南里","LIN":"14鄰","STREET":"樹林街","SECT":"二段","MAREA":" ","LANE":"１２５巷","ALLEY":" ","HOUSE_NO":"３３號三樓之３","E_COORD97":168188.79000000001,"N_COORD97":2542951.6200000001,"ADDRESS":"樹林街二段１２５巷３３號三樓之３","OBJECTID":250111},"geometry":{"x":168188.79000000004,"y":2542951.620000001}},{"attributes":{"ID":250116,"DIS_CODE":0,"TOWNNAME":"中西區","LI":"大南里","LIN":"14鄰","STREET":"樹林街","SECT":"二段","MAREA":" ","LANE":"１２５巷","ALLEY":" ","HOUSE_NO":"３３號三樓之７","E_COORD97":168188.79000000001,"N_COORD97":2542951.6200000001,"ADDRESS":"樹林街二段１２５巷３３號三樓之７","OBJECTID":250112},"geometry":{"x":168188.79000000004,"y":2542951.620000001}},{"attributes":{"ID":250117,"DIS_CODE":0,"TOWNNAME":"中西區","LI":"大南里","LIN":"14鄰","STREET":"樹林街","SECT":"二段","MAREA":" ","LANE":"１２５巷","ALLEY":" ","HOUSE_NO":"３３號三樓之５","E_COORD97":168188.79000000001,"N_COORD97":2542951.6200000001,"ADDRESS":"樹林街二段１２５巷３３號三樓之５","OBJECTID":250113},"geometry":{"x":168188.79000000004,"y":2542951.620000001}},{"attributes":{"ID":250118,"DIS_CODE":0,"TOWNNAME":"安平區","LI":"國平里","LIN":"14鄰","STREET":"健康路","SECT":"三段","MAREA":" ","LANE":" ","ALLEY":" ","HOUSE_NO":"１７４號","E_COORD97":165516.07000000001,"N_COORD97":2542694.21,"ADDRESS":"健康路三段１７４號","OBJECTID":250114},"geometry":{"x":165516.07000000216,"y":2542694.2100000009}},{"attributes":{"ID":250119,"DIS_CODE":0,"TOWNNAME":"永康區","LI":"勝利里","LIN":"5鄰","STREET":"勝學路","SECT":" ","MAREA":" ","LANE":" ","ALLEY":" ","HOUSE_NO":"６７號","E_COORD97":171145.72,"N_COORD97":2544752.2599999998,"ADDRESS":"勝學路６７號","OBJECTID":250115},"geometry":{"x":171145.71999999974,"y":2544752.2600000016}},{"attributes":{"ID":250120,"DIS_CODE":0,"TOWNNAME":"中西區","LI":"大南里","LIN":"14鄰","STREET":"樹林街","SECT":"二段","MAREA":" ","LANE":"１２５巷","ALLEY":" ","HOUSE_NO":"３３號三樓之６","E_COORD97":168188.79000000001,"N_COORD97":2542951.6200000001,"ADDRESS":"樹林街二段１２５巷３３號三樓之６","OBJECTID":250116},"geometry":{"x":168188.79000000004,"y":2542951.620000001}},{"attributes":{"ID":250121,"DIS_CODE":0,"TOWNNAME":"中西區","LI":"大南里","LIN":"14鄰","STREET":"樹林街","SECT":"二段","MAREA":" ","LANE":"１２５巷","ALLEY":" ","HOUSE_NO":"３３號五樓之１","E_COORD97":168188.79000000001,"N_COORD97":2542951.6200000001,"ADDRESS":"樹林街二段１２５巷３３號五樓之１","OBJECTID":250117},"geometry":{"x":168188.79000000004,"y":2542951.620000001}},{"attributes":{"ID":250122,"DIS_CODE":0,"TOWNNAME":"中西區","LI":"大南里","LIN":"14鄰","STREET":"樹林街","SECT":"二段","MAREA":" ","LANE":"１２５巷","ALLEY":" ","HOUSE_NO":"３３號五樓之２","E_COORD97":168188.79000000001,"N_COORD97":2542951.6200000001,"ADDRESS":"樹林街二段１２５巷３３號五樓之２","OBJECTID":250118},"geometry":{"x":168188.79000000004,"y":2542951.620000001}},{"attributes":{"ID":250123,"DIS_CODE":0,"TOWNNAME":"中西區","LI":"大南里","LIN":"14鄰","STREET":"樹林街","SECT":"二段","MAREA":" ","LANE":"１２５巷","ALLEY":" ","HOUSE_NO":"３３號五樓之３","E_COORD97":168188.79000000001,"N_COORD97":2542951.6200000001,"ADDRESS":"樹林街二段１２５巷３３號五樓之３","OBJECTID":250119},"geometry":{"x":168188.79000000004,"y":2542951.620000001}},{"attributes":{"ID":250124,"DIS_CODE":0,"TOWNNAME":"中西區","LI":"大南里","LIN":"14鄰","STREET":"樹林街","SECT":"二段","MAREA":" ","LANE":"１２５巷","ALLEY":" ","HOUSE_NO":"３３號五樓之４","E_COORD97":168188.79000000001,"N_COORD97":2542951.6200000001,"ADDRESS":"樹林街二段１２５巷３３號五樓之４","OBJECTID":250120},"geometry":{"x":168188.79000000004,"y":2542951.620000001}},{"attributes":{"ID":250125,"DIS_CODE":0,"TOWNNAME":"中西區","LI":"大南里","LIN":"14鄰","STREET":"樹林街","SECT":"二段","MAREA":" ","LANE":"１２５巷","ALLEY":" ","HOUSE_NO":"３３號五樓之５","E_COORD97":168188.79000000001,"N_COORD97":2542951.6200000001,"ADDRESS":"樹林街二段１２５巷３３號五樓之５","OBJECTID":250121},"geometry":{"x":168188.79000000004,"y":2542951.620000001}},{"attributes":{"ID":250126,"DIS_CODE":0,"TOWNNAME":"南區","LI":"喜北里","LIN":"8鄰","STREET":"喜樹路","SECT":" ","MAREA":" ","LANE":"１１８巷","ALLEY":" ","HOUSE_NO":"２２號","E_COORD97":165810.22,"N_COORD97":2538352,"ADDRESS":"喜樹路１１８巷２２號","OBJECTID":250122},"geometry":{"x":165810.22000000067,"y":2538351.9999999981}},{"attributes":{"ID":250127,"DIS_CODE":0,"TOWNNAME":"中西區","LI":"大南里","LIN":"14鄰","STREET":"樹林街","SECT":"二段","MAREA":" ","LANE":"１２５巷","ALLEY":" ","HOUSE_NO":"３３號五樓之６","E_COORD97":168188.79000000001,"N_COORD97":2542951.6200000001,"ADDRESS":"樹林街二段１２５巷３３號五樓之６","OBJECTID":250123},"geometry":{"x":168188.79000000004,"y":2542951.620000001}},{"attributes":{"ID":250128,"DIS_CODE":0,"TOWNNAME":"中西區","LI":"大南里","LIN":"14鄰","STREET":"樹林街","SECT":"二段","MAREA":" ","LANE":"１２５巷","ALLEY":" ","HOUSE_NO":"３３號四樓之１","E_COORD97":168188.79000000001,"N_COORD97":2542951.6200000001,"ADDRESS":"樹林街二段１２５巷３３號四樓之１","OBJECTID":250124},"geometry":{"x":168188.79000000004,"y":2542951.620000001}},{"attributes":{"ID":250129,"DIS_CODE":0,"TOWNNAME":"中西區","LI":"大南里","LIN":"14鄰","STREET":"樹林街","SECT":"二段","MAREA":" ","LANE":"１２５巷","ALLEY":" ","HOUSE_NO":"３３號四樓之２","E_COORD97":168188.79000000001,"N_COORD97":2542951.6200000001,"ADDRESS":"樹林街二段１２５巷３３號四樓之２","OBJECTID":250125},"geometry":{"x":168188.79000000004,"y":2542951.620000001}},{"attributes":{"ID":250130,"DIS_CODE":0,"TOWNNAME":"永康區","LI":"復國里","LIN":"8鄰","STREET":"復國二路","SECT":" ","MAREA":" ","LANE":"６３巷","ALLEY":" ","HOUSE_NO":"４號","E_COORD97":172812.84,"N_COORD97":2545144.02,"ADDRESS":"復國二路６３巷４號","OBJECTID":250126},"geometry":{"x":172812.83999999985,"y":2545144.0200000014}},{"attributes":{"ID":250131,"DIS_CODE":0,"TOWNNAME":"永康區","LI":"復國里","LIN":"8鄰","STREET":"復國二路","SECT":" ","MAREA":" ","LANE":"６１巷","ALLEY":" ","HOUSE_NO":"２７號","E_COORD97":172755.54000000001,"N_COORD97":2545111.5800000001,"ADDRESS":"復國二路６１巷２７號","OBJECTID":250127},"geometry":{"x":172755.54000000004,"y":2545111.5800000001}},{"attributes":{"ID":250132,"DIS_CODE":0,"TOWNNAME":"永康區","LI":"神洲里","LIN":"6鄰","STREET":"忠孝路","SECT":" ","MAREA":" ","LANE":"５４巷","ALLEY":" ","HOUSE_NO":"１２號","E_COORD97":172142.59,"N_COORD97":2544754.25,"ADDRESS":"忠孝路５４巷１２號","OBJECTID":250128},"geometry":{"x":172142.59000000078,"y":2544754.25}},{"attributes":{"ID":250133,"DIS_CODE":0,"TOWNNAME":"中西區","LI":"三合里","LIN":"11鄰","STREET":"文賢路","SECT":" ","MAREA":" ","LANE":"３２巷","ALLEY":" ","HOUSE_NO":"４號","E_COORD97":167478.14000000001,"N_COORD97":2544465.27,"ADDRESS":"文賢路３２巷４號","OBJECTID":250129},"geometry":{"x":167478.1400000006,"y":2544465.2699999996}},{"attributes":{"ID":250134,"DIS_CODE":0,"TOWNNAME":"中西區","LI":"大南里","LIN":"14鄰","STREET":"樹林街","SECT":"二段","MAREA":" ","LANE":"１２５巷","ALLEY":" ","HOUSE_NO":"３３號四樓之３","E_COORD97":168188.79000000001,"N_COORD97":2542951.6200000001,"ADDRESS":"樹林街二段１２５巷３３號四樓之３","OBJECTID":250130},"geometry":{"x":168188.79000000004,"y":2542951.620000001}},{"attributes":{"ID":250135,"DIS_CODE":0,"TOWNNAME":"中西區","LI":"大南里","LIN":"14鄰","STREET":"樹林街","SECT":"二段","MAREA":" ","LANE":"１２５巷","ALLEY":" ","HOUSE_NO":"３３號四樓之４","E_COORD97":168188.79000000001,"N_COORD97":2542951.6200000001,"ADDRESS":"樹林街二段１２５巷３３號四樓之４","OBJECTID":250131},"geometry":{"x":168188.79000000004,"y":2542951.620000001}},{"attributes":{"ID":250136,"DIS_CODE":0,"TOWNNAME":"中西區","LI":"大南里","LIN":"14鄰","STREET":"樹林街","SECT":"二段","MAREA":" ","LANE":"１２５巷","ALLEY":" ","HOUSE_NO":"３３號四樓之５","E_COORD97":168188.79000000001,"N_COORD97":2542951.6200000001,"ADDRESS":"樹林街二段１２５巷３３號四樓之５","OBJECTID":250132},"geometry":{"x":168188.79000000004,"y":2542951.620000001}},{"attributes":{"ID":250137,"DIS_CODE":0,"TOWNNAME":"中西區","LI":"大南里","LIN":"14鄰","STREET":"樹林街","SECT":"二段","MAREA":" ","LANE":"１２５巷","ALLEY":" ","HOUSE_NO":"３３號四樓之６","E_COORD97":168188.79000000001,"N_COORD97":2542951.6200000001,"ADDRESS":"樹林街二段１２５巷３３號四樓之６","OBJECTID":250133},"geometry":{"x":168188.79000000004,"y":2542951.620000001}},{"attributes":{"ID":250138,"DIS_CODE":0,"TOWNNAME":"中西區","LI":"三民里","LIN":"14鄰","STREET":"民族路","SECT":"二段","MAREA":" ","LANE":"１７３巷","ALLEY":" ","HOUSE_NO":"２號一樓之１","E_COORD97":168648.20999999999,"N_COORD97":2543966.6200000001,"ADDRESS":"民族路二段１７３巷２號一樓之１","OBJECTID":250134},"geometry":{"x":168648.21000000089,"y":2543966.620000001}},{"attributes":{"ID":250139,"DIS_CODE":0,"TOWNNAME":"中西區","LI":"三民里","LIN":"14鄰","STREET":"民族路","SECT":"二段","MAREA":" ","LANE":"１７３巷","ALLEY":" ","HOUSE_NO":"２號一樓之２","E_COORD97":168645.76000000001,"N_COORD97":2543969.27,"ADDRESS":"民族路二段１７３巷２號一樓之２","OBJECTID":250135},"geometry":{"x":168645.76000000071,"y":2543969.2700000014}},{"attributes":{"ID":250140,"DIS_CODE":0,"TOWNNAME":"中西區","LI":"三民里","LIN":"14鄰","STREET":"民族路","SECT":"二段","MAREA":" ","LANE":"１７３巷","ALLEY":" ","HOUSE_NO":"２號二樓之１","E_COORD97":168648.20999999999,"N_COORD97":2543966.6200000001,"ADDRESS":"民族路二段１７３巷２號二樓之１","OBJECTID":250136},"geometry":{"x":168648.21000000089,"y":2543966.620000001}},{"attributes":{"ID":250141,"DIS_CODE":0,"TOWNNAME":"南區","LI":"佛壇里","LIN":"4鄰","STREET":"興南街","SECT":" ","MAREA":" ","LANE":"１６６巷","ALLEY":" ","HOUSE_NO":"１２號之１","E_COORD97":166122.92000000001,"N_COORD97":2535900.1699999999,"ADDRESS":"興南街１６６巷１２號之１","OBJECTID":250137},"geometry":{"x":166122.91999999993,"y":2535900.1700000018}},{"attributes":{"ID":250142,"DIS_CODE":0,"TOWNNAME":"中西區","LI":"三民里","LIN":"14鄰","STREET":"民族路","SECT":"二段","MAREA":" ","LANE":"１７３巷","ALLEY":" ","HOUSE_NO":"２號二樓之２","E_COORD97":168645.76000000001,"N_COORD97":2543969.27,"ADDRESS":"民族路二段１７３巷２號二樓之２","OBJECTID":250138},"geometry":{"x":168645.76000000071,"y":2543969.2700000014}},{"attributes":{"ID":250143,"DIS_CODE":0,"TOWNNAME":"中西區","LI":"三民里","LIN":"14鄰","STREET":"民族路","SECT":"二段","MAREA":" ","LANE":"１７３巷","ALLEY":" ","HOUSE_NO":"２號三樓之１","E_COORD97":168648.20999999999,"N_COORD97":2543966.6200000001,"ADDRESS":"民族路二段１７３巷２號三樓之１","OBJECTID":250139},"geometry":{"x":168648.21000000089,"y":2543966.620000001}},{"attributes":{"ID":250144,"DIS_CODE":0,"TOWNNAME":"中西區","LI":"三民里","LIN":"14鄰","STREET":"民族路","SECT":"二段","MAREA":" ","LANE":"１７３巷","ALLEY":" ","HOUSE_NO":"２號三樓之２","E_COORD97":168645.76000000001,"N_COORD97":2543969.27,"ADDRESS":"民族路二段１７３巷２號三樓之２","OBJECTID":250140},"geometry":{"x":168645.76000000071,"y":2543969.2700000014}},{"attributes":{"ID":250145,"DIS_CODE":0,"TOWNNAME":"中西區","LI":"三民里","LIN":"14鄰","STREET":"民族路","SECT":"二段","MAREA":" ","LANE":"１７３巷","ALLEY":" ","HOUSE_NO":"２號五樓之１","E_COORD97":168648.20999999999,"N_COORD97":2543966.6200000001,"ADDRESS":"民族路二段１７３巷２號五樓之１","OBJECTID":250141},"geometry":{"x":168648.21000000089,"y":2543966.620000001}},{"attributes":{"ID":250146,"DIS_CODE":0,"TOWNNAME":"安平區","LI":"國平里","LIN":"14鄰","STREET":"健康路","SECT":"三段","MAREA":" ","LANE":" ","ALLEY":" ","HOUSE_NO":"１７６號","E_COORD97":165511.64000000001,"N_COORD97":2542695.2200000002,"ADDRESS":"健康路三段１７６號","OBJECTID":250142},"geometry":{"x":165511.64000000153,"y":2542695.2200000025}},{"attributes":{"ID":250147,"DIS_CODE":0,"TOWNNAME":"安平區","LI":"國平里","LIN":"14鄰","STREET":"健康路","SECT":"三段","MAREA":" ","LANE":" ","ALLEY":" ","HOUSE_NO":"１７８號","E_COORD97":165507.13,"N_COORD97":2542695.7999999998,"ADDRESS":"健康路三段１７８號","OBJECTID":250143},"geometry":{"x":165507.13000000082,"y":2542695.8000000007}},{"attributes":{"ID":250148,"DIS_CODE":0,"TOWNNAME":"安平區","LI":"國平里","LIN":"14鄰","STREET":"健康路","SECT":"三段","MAREA":" ","LANE":" ","ALLEY":" ","HOUSE_NO":"１８０號","E_COORD97":165506.16,"N_COORD97":2542717.5800000001,"ADDRESS":"健康路三段１８０號","OBJECTID":250144},"geometry":{"x":165506.16000000015,"y":2542717.5800000001}},{"attributes":{"ID":250149,"DIS_CODE":0,"TOWNNAME":"安平區","LI":"國平里","LIN":"14鄰","STREET":"健康路","SECT":"三段","MAREA":" ","LANE":" ","ALLEY":" ","HOUSE_NO":"１８０號之１","E_COORD97":165513.09,"N_COORD97":2542723.5699999998,"ADDRESS":"健康路三段１８０號之１","OBJECTID":250145},"geometry":{"x":165513.08999999985,"y":2542723.5700000022}},{"attributes":{"ID":250150,"DIS_CODE":0,"TOWNNAME":"麻豆區","LI":"磚井里","LIN":"11鄰","STREET":" ","SECT":" ","MAREA":"磚子井","LANE":" ","ALLEY":" ","HOUSE_NO":"１０６號之６","E_COORD97":173354.85000000001,"N_COORD97":2562994.1499999999,"ADDRESS":"磚子井１０６號之６","OBJECTID":250146},"geometry":{"x":173354.84999999963,"y":2562994.1500000022}},{"attributes":{"ID":250151,"DIS_CODE":0,"TOWNNAME":"麻豆區","LI":"磚井里","LIN":"11鄰","STREET":" ","SECT":" ","MAREA":"磚子井","LANE":" ","ALLEY":" ","HOUSE_NO":"１０６號之７","E_COORD97":173334.72,"N_COORD97":2562971.4399999999,"ADDRESS":"磚子井１０６號之７","OBJECTID":250147},"geometry":{"x":173334.72000000067,"y":2562971.4399999995}},{"attributes":{"ID":250152,"DIS_CODE":0,"TOWNNAME":"麻豆區","LI":"磚井里","LIN":"11鄰","STREET":" ","SECT":" ","MAREA":"磚子井","LANE":" ","ALLEY":" ","HOUSE_NO":"１０６號之８","E_COORD97":173329.41,"N_COORD97":2562969.8999999999,"ADDRESS":"磚子井１０６號之８","OBJECTID":250148},"geometry":{"x":173329.41000000015,"y":2562969.9000000004}},{"attributes":{"ID":250153,"DIS_CODE":0,"TOWNNAME":"麻豆區","LI":"磚井里","LIN":"11鄰","STREET":" ","SECT":" ","MAREA":"磚子井","LANE":" ","ALLEY":" ","HOUSE_NO":"１０７號之１","E_COORD97":173516.44,"N_COORD97":2563116.3199999998,"ADDRESS":"磚子井１０７號之１","OBJECTID":250149},"geometry":{"x":173516.44000000041,"y":2563116.3200000003}},{"attributes":{"ID":250154,"DIS_CODE":0,"TOWNNAME":"永康區","LI":"崑山里","LIN":"34鄰","STREET":"大仁街","SECT":" ","MAREA":" ","LANE":"１４３巷","ALLEY":" ","HOUSE_NO":"１２號","E_COORD97":173838.13,"N_COORD97":2544918.6200000001,"ADDRESS":"大仁街１４３巷１２號","OBJECTID":250150},"geometry":{"x":173838.12999999989,"y":2544918.620000001}},{"attributes":{"ID":250155,"DIS_CODE":0,"TOWNNAME":"永康區","LI":"崑山里","LIN":"29鄰","STREET":"大仁街","SECT":" ","MAREA":" ","LANE":"１２５巷","ALLEY":" ","HOUSE_NO":"２１號","E_COORD97":173793.59,"N_COORD97":2544864.1000000001,"ADDRESS":"大仁街１２５巷２１號","OBJECTID":250151},"geometry":{"x":173793.59000000078,"y":2544864.1000000034}},{"attributes":{"ID":250156,"DIS_CODE":0,"TOWNNAME":"中西區","LI":"三民里","LIN":"14鄰","STREET":"民族路","SECT":"二段","MAREA":" ","LANE":"１７３巷","ALLEY":" ","HOUSE_NO":"２號五樓之２","E_COORD97":168645.76000000001,"N_COORD97":2543969.27,"ADDRESS":"民族路二段１７３巷２號五樓之２","OBJECTID":250152},"geometry":{"x":168645.76000000071,"y":2543969.2700000014}},{"attributes":{"ID":250157,"DIS_CODE":0,"TOWNNAME":"麻豆區","LI":"磚井里","LIN":"11鄰","STREET":" ","SECT":" ","MAREA":"磚子井","LANE":" ","ALLEY":" ","HOUSE_NO":"１０７號之５","E_COORD97":173493.01000000001,"N_COORD97":2563103.4300000002,"ADDRESS":"磚子井１０７號之５","OBJECTID":250153},"geometry":{"x":173493.00999999978,"y":2563103.4300000016}},{"attributes":{"ID":250158,"DIS_CODE":0,"TOWNNAME":"中西區","LI":"三民里","LIN":"14鄰","STREET":"民族路","SECT":"二段","MAREA":" ","LANE":"１７３巷","ALLEY":" ","HOUSE_NO":"２號四樓之１","E_COORD97":168648.20999999999,"N_COORD97":2543966.6200000001,"ADDRESS":"民族路二段１７３巷２號四樓之１","OBJECTID":250154},"geometry":{"x":168648.21000000089,"y":2543966.620000001}},{"attributes":{"ID":250159,"DIS_CODE":0,"TOWNNAME":"中西區","LI":"三民里","LIN":"14鄰","STREET":"民族路","SECT":"二段","MAREA":" ","LANE":"１７３巷","ALLEY":" ","HOUSE_NO":"２號四樓之２","E_COORD97":168645.76000000001,"N_COORD97":2543969.27,"ADDRESS":"民族路二段１７３巷２號四樓之２","OBJECTID":250155},"geometry":{"x":168645.76000000071,"y":2543969.2700000014}},{"attributes":{"ID":250160,"DIS_CODE":0,"TOWNNAME":"安平區","LI":"國平里","LIN":"14鄰","STREET":"健康路","SECT":"三段","MAREA":" ","LANE":" ","ALLEY":" ","HOUSE_NO":"１８０號之１０","E_COORD97":165555.60000000001,"N_COORD97":2542714.6499999999,"ADDRESS":"健康路三段１８０號之１０","OBJECTID":250156},"geometry":{"x":165555.59999999963,"y":2542714.6500000004}},{"attributes":{"ID":250161,"DIS_CODE":0,"TOWNNAME":"麻豆區","LI":"磚井里","LIN":"11鄰","STREET":" ","SECT":" ","MAREA":"磚子井","LANE":" ","ALLEY":" ","HOUSE_NO":"１０７號之６","E_COORD97":173489.32999999999,"N_COORD97":2563100.6099999999,"ADDRESS":"磚子井１０７號之６","OBJECTID":250157},"geometry":{"x":173489.33000000007,"y":2563100.6100000031}},{"attributes":{"ID":250162,"DIS_CODE":0,"TOWNNAME":"東區","LI":"東門里","LIN":"1鄰","STREET":"東門路","SECT":"一段","MAREA":" ","LANE":" ","ALLEY":" ","HOUSE_NO":"３號","E_COORD97":169175.14999999999,"N_COORD97":2543329.8500000001,"ADDRESS":"東門路一段３號","OBJECTID":250158},"geometry":{"x":169175.15000000037,"y":2543329.8500000034}},{"attributes":{"ID":250163,"DIS_CODE":0,"TOWNNAME":"楠西區","LI":"灣丘里","LIN":"8鄰","STREET":" ","SECT":" ","MAREA":"灣丘","LANE":" ","ALLEY":" ","HOUSE_NO":"８３號","E_COORD97":201395.155585,"N_COORD97":2564373.00722,"ADDRESS":"灣丘８３號","OBJECTID":250159},"geometry":{"x":201395.15558500122,"y":2564373.0072229989}},{"attributes":{"ID":250164,"DIS_CODE":0,"TOWNNAME":"永康區","LI":"勝利里","LIN":"22鄰","STREET":"中華一路","SECT":" ","MAREA":" ","LANE":"１８２巷","ALLEY":" ","HOUSE_NO":"１０號","E_COORD97":171522.26999999999,"N_COORD97":2545071.5,"ADDRESS":"中華一路１８２巷１０號","OBJECTID":250160},"geometry":{"x":171522.27000000048,"y":2545071.5}},{"attributes":{"ID":250165,"DIS_CODE":0,"TOWNNAME":"永康區","LI":"神洲里","LIN":"5鄰","STREET":"忠孝路","SECT":" ","MAREA":" ","LANE":"４４巷","ALLEY":" ","HOUSE_NO":"４號","E_COORD97":172120.28,"N_COORD97":2544725.7400000002,"ADDRESS":"忠孝路４４巷４號","OBJECTID":250161},"geometry":{"x":172120.28000000026,"y":2544725.7400000021}},{"attributes":{"ID":250166,"DIS_CODE":0,"TOWNNAME":"永康區","LI":"勝利里","LIN":"26鄰","STREET":"勝利街","SECT":" ","MAREA":" ","LANE":"７４巷","ALLEY":" ","HOUSE_NO":"１３號","E_COORD97":171399.66,"N_COORD97":2544709.5,"ADDRESS":"勝利街７４巷１３號","OBJECTID":250162},"geometry":{"x":171399.66000000108,"y":2544709.5000000019}},{"attributes":{"ID":250167,"DIS_CODE":0,"TOWNNAME":"中西區","LI":"三民里","LIN":"14鄰","STREET":"民族路","SECT":"二段","MAREA":" ","LANE":"１７３巷","ALLEY":" ","HOUSE_NO":"６號二樓之１","E_COORD97":168659.42999999999,"N_COORD97":2543961.5299999998,"ADDRESS":"民族路二段１７３巷６號二樓之１","OBJECTID":250163},"geometry":{"x":168659.43000000156,"y":2543961.5299999993}},{"attributes":{"ID":250168,"DIS_CODE":0,"TOWNNAME":"中西區","LI":"三民里","LIN":"14鄰","STREET":"民族路","SECT":"二段","MAREA":" ","LANE":"１７３巷","ALLEY":" ","HOUSE_NO":"６號二樓之１０","E_COORD97":168659.42999999999,"N_COORD97":2543961.5299999998,"ADDRESS":"民族路二段１７３巷６號二樓之１０","OBJECTID":250164},"geometry":{"x":168659.43000000156,"y":2543961.5299999993}},{"attributes":{"ID":250169,"DIS_CODE":0,"TOWNNAME":"中西區","LI":"三民里","LIN":"14鄰","STREET":"民族路","SECT":"二段","MAREA":" ","LANE":"１７３巷","ALLEY":" ","HOUSE_NO":"６號二樓之１１","E_COORD97":168659.42999999999,"N_COORD97":2543961.5299999998,"ADDRESS":"民族路二段１７３巷６號二樓之１１","OBJECTID":250165},"geometry":{"x":168659.43000000156,"y":2543961.5299999993}},{"attributes":{"ID":250170,"DIS_CODE":0,"TOWNNAME":"中西區","LI":"三民里","LIN":"14鄰","STREET":"民族路","SECT":"二段","MAREA":" ","LANE":"１７３巷","ALLEY":" ","HOUSE_NO":"６號二樓之１２","E_COORD97":168659.42999999999,"N_COORD97":2543961.5299999998,"ADDRESS":"民族路二段１７３巷６號二樓之１２","OBJECTID":250166},"geometry":{"x":168659.43000000156,"y":2543961.5299999993}},{"attributes":{"ID":250171,"DIS_CODE":0,"TOWNNAME":"中西區","LI":"三民里","LIN":"14鄰","STREET":"民族路","SECT":"二段","MAREA":" ","LANE":"１７３巷","ALLEY":" ","HOUSE_NO":"６號二樓之２","E_COORD97":168659.42999999999,"N_COORD97":2543961.5299999998,"ADDRESS":"民族路二段１７３巷６號二樓之２","OBJECTID":250167},"geometry":{"x":168659.43000000156,"y":2543961.5299999993}},{"attributes":{"ID":250172,"DIS_CODE":0,"TOWNNAME":"中西區","LI":"三民里","LIN":"14鄰","STREET":"民族路","SECT":"二段","MAREA":" ","LANE":"１７３巷","ALLEY":" ","HOUSE_NO":"６號二樓之３","E_COORD97":168659.42999999999,"N_COORD97":2543961.5299999998,"ADDRESS":"民族路二段１７３巷６號二樓之３","OBJECTID":250168},"geometry":{"x":168659.43000000156,"y":2543961.5299999993}},{"attributes":{"ID":250173,"DIS_CODE":0,"TOWNNAME":"中西區","LI":"三民里","LIN":"14鄰","STREET":"民族路","SECT":"二段","MAREA":" ","LANE":"１７３巷","ALLEY":" ","HOUSE_NO":"６號二樓之４","E_COORD97":168659.42999999999,"N_COORD97":2543961.5299999998,"ADDRESS":"民族路二段１７３巷６號二樓之４","OBJECTID":250169},"geometry":{"x":168659.43000000156,"y":2543961.5299999993}},{"attributes":{"ID":250174,"DIS_CODE":0,"TOWNNAME":"中西區","LI":"三民里","LIN":"14鄰","STREET":"民族路","SECT":"二段","MAREA":" ","LANE":"１７３巷","ALLEY":" ","HOUSE_NO":"６號二樓之５","E_COORD97":168659.42999999999,"N_COORD97":2543961.5299999998,"ADDRESS":"民族路二段１７３巷６號二樓之５","OBJECTID":250170},"geometry":{"x":168659.43000000156,"y":2543961.5299999993}},{"attributes":{"ID":250175,"DIS_CODE":0,"TOWNNAME":"北門區","LI":"鯤江里","LIN":"11鄰","STREET":" ","SECT":" ","MAREA":"新圍","LANE":" ","ALLEY":" ","HOUSE_NO":"２４號","E_COORD97":163110.26000000001,"N_COORD97":2576977.48,"ADDRESS":"新圍２４號","OBJECTID":250171},"geometry":{"x":163110.25999999978,"y":2576977.4800000023}},{"attributes":{"ID":250176,"DIS_CODE":0,"TOWNNAME":"南區","LI":"再興里","LIN":"14鄰","STREET":"金華路","SECT":"二段","MAREA":" ","LANE":"１００巷","ALLEY":" ","HOUSE_NO":"９號","E_COORD97":167136.87,"N_COORD97":2542100.2000000002,"ADDRESS":"金華路二段１００巷９號","OBJECTID":250172},"geometry":{"x":167136.87000000104,"y":2542100.2000000011}},{"attributes":{"ID":250177,"DIS_CODE":0,"TOWNNAME":"安平區","LI":"國平里","LIN":"14鄰","STREET":"健康路","SECT":"三段","MAREA":" ","LANE":" ","ALLEY":" ","HOUSE_NO":"１８０號之１１","E_COORD97":165560.57000000001,"N_COORD97":2542713.8500000001,"ADDRESS":"健康路三段１８０號之１１","OBJECTID":250173},"geometry":{"x":165560.57000000123,"y":2542713.8500000015}},{"attributes":{"ID":250178,"DIS_CODE":0,"TOWNNAME":"安平區","LI":"國平里","LIN":"14鄰","STREET":"健康路","SECT":"三段","MAREA":" ","LANE":" ","ALLEY":" ","HOUSE_NO":"１８０號之１２","E_COORD97":165565.32999999999,"N_COORD97":2542713.0600000001,"ADDRESS":"健康路三段１８０號之１２","OBJECTID":250174},"geometry":{"x":165565.33000000101,"y":2542713.0600000024}},{"attributes":{"ID":250179,"DIS_CODE":0,"TOWNNAME":"北門區","LI":"鯤江里","LIN":"11鄰","STREET":" ","SECT":" ","MAREA":"新圍","LANE":" ","ALLEY":" ","HOUSE_NO":"２５號","E_COORD97":163115.32000000001,"N_COORD97":2576962.6099999999,"ADDRESS":"新圍２５號","OBJECTID":250175},"geometry":{"x":163115.3200000003,"y":2576962.6099999994}},{"attributes":{"ID":250180,"DIS_CODE":0,"TOWNNAME":"永康區","LI":"埔園里","LIN":"31鄰","STREET":"永大路","SECT":"三段","MAREA":" ","LANE":"４６９巷","ALLEY":" ","HOUSE_NO":"１２１號","E_COORD97":173671.59,"N_COORD97":2548789.73,"ADDRESS":"永大路三段４６９巷１２１號","OBJECTID":250176},"geometry":{"x":173671.59000000078,"y":2548789.7300000004}},{"attributes":{"ID":250181,"DIS_CODE":0,"TOWNNAME":"北門區","LI":"中樞里","LIN":"11鄰","STREET":" ","SECT":" ","MAREA":"溪底寮","LANE":" ","ALLEY":" ","HOUSE_NO":"１０３之１０號","E_COORD97":160124.20999999999,"N_COORD97":2570558.6499999999,"ADDRESS":"溪底寮１０３之１０號","OBJECTID":250177},"geometry":{"x":160124.21000000183,"y":2570558.6500000004}},{"attributes":{"ID":250182,"DIS_CODE":0,"TOWNNAME":"永康區","LI":"崑山里","LIN":"28鄰","STREET":"大灣路","SECT":" ","MAREA":" ","LANE":"９４２巷","ALLEY":" ","HOUSE_NO":"１８１號","E_COORD97":173727.09,"N_COORD97":2544811.9900000002,"ADDRESS":"大灣路９４２巷１８１號","OBJECTID":250178},"geometry":{"x":173727.09000000171,"y":2544811.9900000021}},{"attributes":{"ID":250183,"DIS_CODE":0,"TOWNNAME":"北門區","LI":"中樞里","LIN":"11鄰","STREET":" ","SECT":" ","MAREA":"溪底寮","LANE":" ","ALLEY":" ","HOUSE_NO":"１０３號之１０","E_COORD97":160124.20999999999,"N_COORD97":2570558.6499999999,"ADDRESS":"溪底寮１０３號之１０","OBJECTID":250179},"geometry":{"x":160124.21000000183,"y":2570558.6500000004}},{"attributes":{"ID":250184,"DIS_CODE":0,"TOWNNAME":"北門區","LI":"中樞里","LIN":"11鄰","STREET":" ","SECT":" ","MAREA":"溪底寮","LANE":" ","ALLEY":" ","HOUSE_NO":"１０３之１號","E_COORD97":160244.12,"N_COORD97":2570693.8700000001,"ADDRESS":"溪底寮１０３之１號","OBJECTID":250180},"geometry":{"x":160244.12000000104,"y":2570693.870000001}},{"attributes":{"ID":250185,"DIS_CODE":0,"TOWNNAME":"永康區","LI":"埔園里","LIN":"17鄰","STREET":"中山路","SECT":" ","MAREA":" ","LANE":"３８３巷","ALLEY":" ","HOUSE_NO":"３號之２","E_COORD97":173486.31,"N_COORD97":2548499.2999999998,"ADDRESS":"中山路３８３巷３號之２","OBJECTID":250181},"geometry":{"x":173486.31000000145,"y":2548499.3000000026}},{"attributes":{"ID":250186,"DIS_CODE":0,"TOWNNAME":"北門區","LI":"中樞里","LIN":"11鄰","STREET":" ","SECT":" ","MAREA":"溪底寮","LANE":" ","ALLEY":" ","HOUSE_NO":"１０３號之３","E_COORD97":160229.26000000001,"N_COORD97":2570371.7400000002,"ADDRESS":"溪底寮１０３號之３","OBJECTID":250182},"geometry":{"x":160229.26000000071,"y":2570371.7400000002}},{"attributes":{"ID":250187,"DIS_CODE":0,"TOWNNAME":"北門區","LI":"中樞里","LIN":"11鄰","STREET":" ","SECT":" ","MAREA":"溪底寮","LANE":" ","ALLEY":" ","HOUSE_NO":"１０４號","E_COORD97":160211.89999999999,"N_COORD97":2570768.2999999998,"ADDRESS":"溪底寮１０４號","OBJECTID":250183},"geometry":{"x":160211.9000000013,"y":2570768.3000000007}},{"attributes":{"ID":250188,"DIS_CODE":0,"TOWNNAME":"安平區","LI":"國平里","LIN":"14鄰","STREET":"健康路","SECT":"三段","MAREA":" ","LANE":" ","ALLEY":" ","HOUSE_NO":"１８０號之１３","E_COORD97":165569.89999999999,"N_COORD97":2542712.27,"ADDRESS":"健康路三段１８０號之１３","OBJECTID":250184},"geometry":{"x":165569.90000000224,"y":2542712.2699999996}},{"attributes":{"ID":250189,"DIS_CODE":0,"TOWNNAME":"北門區","LI":"中樞里","LIN":"11鄰","STREET":" ","SECT":" ","MAREA":"溪底寮","LANE":" ","ALLEY":" ","HOUSE_NO":"９０號之１","E_COORD97":161156.57000000001,"N_COORD97":2571296.54,"ADDRESS":"溪底寮９０號之１","OBJECTID":250185},"geometry":{"x":161156.57000000123,"y":2571296.540000001}},{"attributes":{"ID":250190,"DIS_CODE":0,"TOWNNAME":"安平區","LI":"國平里","LIN":"14鄰","STREET":"健康路","SECT":"三段","MAREA":" ","LANE":" ","ALLEY":" ","HOUSE_NO":"１８０號之１４","E_COORD97":165575.47,"N_COORD97":2542714.6499999999,"ADDRESS":"健康路三段１８０號之１４","OBJECTID":250186},"geometry":{"x":165575.4700000016,"y":2542714.6500000004}},{"attributes":{"ID":250191,"DIS_CODE":0,"TOWNNAME":"安平區","LI":"國平里","LIN":"14鄰","STREET":"健康路","SECT":"三段","MAREA":" ","LANE":" ","ALLEY":" ","HOUSE_NO":"１８０號之１５","E_COORD97":165576.45999999999,"N_COORD97":2542720.6000000001,"ADDRESS":"健康路三段１８０號之１５","OBJECTID":250187},"geometry":{"x":165576.46000000089,"y":2542720.5999999996}},{"attributes":{"ID":250192,"DIS_CODE":0,"TOWNNAME":"北門區","LI":"中樞里","LIN":"11鄰","STREET":" ","SECT":" ","MAREA":"溪底寮","LANE":" ","ALLEY":" ","HOUSE_NO":"９８號","E_COORD97":161215.13,"N_COORD97":2571404.1400000001,"ADDRESS":"溪底寮９８號","OBJECTID":250188},"geometry":{"x":161215.13000000082,"y":2571404.1400000006}},{"attributes":{"ID":250193,"DIS_CODE":0,"TOWNNAME":"永康區","LI":"崑山里","LIN":"34鄰","STREET":"大仁街","SECT":" ","MAREA":" ","LANE":"１２５巷","ALLEY":" ","HOUSE_NO":"１０號","E_COORD97":173832.01000000001,"N_COORD97":2544864.6600000001,"ADDRESS":"大仁街１２５巷１０號","OBJECTID":250189},"geometry":{"x":173832.00999999978,"y":2544864.660000002}},{"attributes":{"ID":250194,"DIS_CODE":0,"TOWNNAME":"永康區","LI":"崑山里","LIN":"29鄰","STREET":"大灣路","SECT":" ","MAREA":" ","LANE":"９４２巷","ALLEY":" ","HOUSE_NO":"１４６號","E_COORD97":173765.29999999999,"N_COORD97":2544872.5699999998,"ADDRESS":"大灣路９４２巷１４６號","OBJECTID":250190},"geometry":{"x":173765.30000000075,"y":2544872.5700000022}},{"attributes":{"ID":250195,"DIS_CODE":0,"TOWNNAME":"安平區","LI":"國平里","LIN":"14鄰","STREET":"健康路","SECT":"三段","MAREA":" ","LANE":" ","ALLEY":" ","HOUSE_NO":"１８０號之１６","E_COORD97":165571.89000000001,"N_COORD97":2542719.6099999999,"ADDRESS":"健康路三段１８０號之１６","OBJECTID":250191},"geometry":{"x":165571.88999999966,"y":2542719.6099999994}},{"attributes":{"ID":250196,"DIS_CODE":0,"TOWNNAME":"北門區","LI":"雙春里","LIN":"11鄰","STREET":" ","SECT":" ","MAREA":"雙春","LANE":" ","ALLEY":" ","HOUSE_NO":"１０６之１號","E_COORD97":161752.07999999999,"N_COORD97":2577861.46,"ADDRESS":"雙春１０６之１號","OBJECTID":250192},"geometry":{"x":161752.08000000007,"y":2577861.4600000046}},{"attributes":{"ID":250197,"DIS_CODE":0,"TOWNNAME":"北門區","LI":"雙春里","LIN":"11鄰","STREET":" ","SECT":" ","MAREA":"雙春","LANE":" ","ALLEY":" ","HOUSE_NO":"１０６號","E_COORD97":162031.17000000001,"N_COORD97":2577741.7799999998,"ADDRESS":"雙春１０６號","OBJECTID":250193},"geometry":{"x":162031.16999999993,"y":2577741.7799999993}},{"attributes":{"ID":250198,"DIS_CODE":0,"TOWNNAME":"北門區","LI":"雙春里","LIN":"11鄰","STREET":" ","SECT":" ","MAREA":"雙春","LANE":" ","ALLEY":" ","HOUSE_NO":"７３之１０號","E_COORD97":159212.04000000001,"N_COORD97":2578371.8900000001,"ADDRESS":"雙春７３之１０號","OBJECTID":250194},"geometry":{"x":159212.04000000097,"y":2578371.8900000006}},{"attributes":{"ID":250199,"DIS_CODE":0,"TOWNNAME":"北門區","LI":"雙春里","LIN":"11鄰","STREET":" ","SECT":" ","MAREA":"雙春","LANE":" ","ALLEY":" ","HOUSE_NO":"７３之１２號","E_COORD97":160958.59,"N_COORD97":2578262.5299999998,"ADDRESS":"雙春７３之１２號","OBJECTID":250195},"geometry":{"x":160958.58999999985,"y":2578262.5299999975}},{"attributes":{"ID":250200,"DIS_CODE":0,"TOWNNAME":"北門區","LI":"雙春里","LIN":"11鄰","STREET":" ","SECT":" ","MAREA":"雙春","LANE":" ","ALLEY":" ","HOUSE_NO":"７３之１號","E_COORD97":160036.54999999999,"N_COORD97":2578293.5099999998,"ADDRESS":"雙春７３之１號","OBJECTID":250196},"geometry":{"x":160036.54999999981,"y":2578293.5099999998}},{"attributes":{"ID":250201,"DIS_CODE":0,"TOWNNAME":"北門區","LI":"雙春里","LIN":"11鄰","STREET":" ","SECT":" ","MAREA":"雙春","LANE":" ","ALLEY":" ","HOUSE_NO":"７３號","E_COORD97":160795.69,"N_COORD97":2578315.6400000001,"ADDRESS":"雙春７３號","OBJECTID":250197},"geometry":{"x":160795.69000000041,"y":2578315.6400000025}},{"attributes":{"ID":250202,"DIS_CODE":0,"TOWNNAME":"北門區","LI":"雙春里","LIN":"11鄰","STREET":" ","SECT":" ","MAREA":"雙春","LANE":" ","ALLEY":" ","HOUSE_NO":"７４之９號","E_COORD97":159942.45999999999,"N_COORD97":2580161.0499999998,"ADDRESS":"雙春７４之９號","OBJECTID":250198},"geometry":{"x":159942.45999999996,"y":2580161.0500000007}},{"attributes":{"ID":250203,"DIS_CODE":0,"TOWNNAME":"官田區","LI":"二鎮里","LIN":"11鄰","STREET":" ","SECT":" ","MAREA":"二鎮","LANE":" ","ALLEY":" ","HOUSE_NO":"９２號之１","E_COORD97":181464.62,"N_COORD97":2568320.6899999999,"ADDRESS":"二鎮９２號之１","OBJECTID":250199},"geometry":{"x":181464.62000000104,"y":2568320.6899999995}},{"attributes":{"ID":250204,"DIS_CODE":0,"TOWNNAME":"官田區","LI":"二鎮里","LIN":"11鄰","STREET":" ","SECT":" ","MAREA":"二鎮","LANE":" ","ALLEY":" ","HOUSE_NO":"９２號","E_COORD97":181478.13,"N_COORD97":2568318.0499999998,"ADDRESS":"二鎮９２號","OBJECTID":250200},"geometry":{"x":181478.12999999989,"y":2568318.0500000026}}]}