{"displayFieldName":"TOWNNAME","fieldAliases":{"ID":"ID","DIS_CODE":"DIS_CODE","TOWNNAME":"TOWNNAME","LI":"LI","LIN":"LIN","STREET":"STREET","SECT":"SECT","MAREA":"MAREA","LANE":"LANE","ALLEY":"ALLEY","HOUSE_NO":"HOUSE_NO","E_COORD97":"E_COORD97","N_COORD97":"N_COORD97","ADDRESS":"ADDRESS","OBJECTID":"OBJECTID"},"geometryType":"esriGeometryPoint","spatialReference":{"wkid":102443,"latestWkid":3826},"fields":[{"name":"ID","type":"esriFieldTypeDouble","alias":"ID"},{"name":"DIS_CODE","type":"esriFieldTypeInteger","alias":"DIS_CODE"},{"name":"TOWNNAME","type":"esriFieldTypeString","alias":"TOWNNAME","length":8},{"name":"LI","type":"esriFieldTypeString","alias":"LI","length":8},{"name":"LIN","type":"esriFieldTypeString","alias":"LIN","length":12},{"name":"STREET","type":"esriFieldTypeString","alias":"STREET","length":20},{"name":"SECT","type":"esriFieldTypeString","alias":"SECT","length":8},{"name":"MAREA","type":"esriFieldTypeString","alias":"MAREA","length":12},{"name":"LANE","type":"esriFieldTypeString","alias":"LANE","length":10},{"name":"ALLEY","type":"esriFieldTypeString","alias":"ALLEY","length":10},{"name":"HOUSE_NO","type":"esriFieldTypeString","alias":"HOUSE_NO","length":20},{"name":"E_COORD97","type":"esriFieldTypeDouble","alias":"E_COORD97"},{"name":"N_COORD97","type":"esriFieldTypeDouble","alias":"N_COORD97"},{"name":"ADDRESS","type":"esriFieldTypeString","alias":"ADDRESS","length":50},{"name":"OBJECTID","type":"esriFieldTypeOID","alias":"OBJECTID"}],"features":[{"attributes":{"ID":468226,"DIS_CODE":0,"TOWNNAME":"麻豆區","LI":"油車里","LIN":"5鄰","STREET":"自由路","SECT":" ","MAREA":" ","LANE":" ","ALLEY":" ","HOUSE_NO":"３８號之１５","E_COORD97":172635.32999999999,"N_COORD97":2565213.8100000001,"ADDRESS":"自由路３８號之１５","OBJECTID":468201},"geometry":{"x":172635.33000000007,"y":2565213.8100000024}},{"attributes":{"ID":468227,"DIS_CODE":0,"TOWNNAME":"麻豆區","LI":"油車里","LIN":"5鄰","STREET":"自由路","SECT":" ","MAREA":" ","LANE":" ","ALLEY":" ","HOUSE_NO":"３８號之１６","E_COORD97":172647.75,"N_COORD97":2565203.7999999998,"ADDRESS":"自由路３８號之１６","OBJECTID":468202},"geometry":{"x":172647.75,"y":2565203.8000000026}},{"attributes":{"ID":468228,"DIS_CODE":0,"TOWNNAME":"麻豆區","LI":"油車里","LIN":"5鄰","STREET":"自由路","SECT":" ","MAREA":" ","LANE":" ","ALLEY":" ","HOUSE_NO":"３８號之１７","E_COORD97":172652.41,"N_COORD97":2565204.1800000002,"ADDRESS":"自由路３８號之１７","OBJECTID":468203},"geometry":{"x":172652.41000000108,"y":2565204.1799999997}},{"attributes":{"ID":468229,"DIS_CODE":0,"TOWNNAME":"麻豆區","LI":"油車里","LIN":"5鄰","STREET":"自由路","SECT":" ","MAREA":" ","LANE":" ","ALLEY":" ","HOUSE_NO":"３８號之１８","E_COORD97":172657.07000000001,"N_COORD97":2565204.54,"ADDRESS":"自由路３８號之１８","OBJECTID":468204},"geometry":{"x":172657.07000000123,"y":2565204.5399999991}},{"attributes":{"ID":468230,"DIS_CODE":0,"TOWNNAME":"麻豆區","LI":"油車里","LIN":"5鄰","STREET":"自由路","SECT":" ","MAREA":" ","LANE":" ","ALLEY":" ","HOUSE_NO":"３８號之１９","E_COORD97":172661.73000000001,"N_COORD97":2565204.8999999999,"ADDRESS":"自由路３８號之１９","OBJECTID":468205},"geometry":{"x":172661.73000000045,"y":2565204.9000000041}},{"attributes":{"ID":468231,"DIS_CODE":0,"TOWNNAME":"麻豆區","LI":"油車里","LIN":"5鄰","STREET":"自由路","SECT":" ","MAREA":" ","LANE":" ","ALLEY":" ","HOUSE_NO":"３８號之１","E_COORD97":172559.31,"N_COORD97":2565199.7799999998,"ADDRESS":"自由路３８號之１","OBJECTID":468206},"geometry":{"x":172559.31000000052,"y":2565199.7799999993}},{"attributes":{"ID":468232,"DIS_CODE":0,"TOWNNAME":"麻豆區","LI":"油車里","LIN":"5鄰","STREET":"自由路","SECT":" ","MAREA":" ","LANE":" ","ALLEY":" ","HOUSE_NO":"３８號之２０","E_COORD97":172666.39000000001,"N_COORD97":2565205.27,"ADDRESS":"自由路３８號之２０","OBJECTID":468207},"geometry":{"x":172666.38999999966,"y":2565205.2700000033}},{"attributes":{"ID":468233,"DIS_CODE":0,"TOWNNAME":"麻豆區","LI":"油車里","LIN":"5鄰","STREET":"自由路","SECT":" ","MAREA":" ","LANE":" ","ALLEY":" ","HOUSE_NO":"３８號之２","E_COORD97":172558.98000000001,"N_COORD97":2565204.5699999998,"ADDRESS":"自由路３８號之２","OBJECTID":468208},"geometry":{"x":172558.98000000138,"y":2565204.5700000022}},{"attributes":{"ID":468234,"DIS_CODE":0,"TOWNNAME":"麻豆區","LI":"油車里","LIN":"5鄰","STREET":"自由路","SECT":" ","MAREA":" ","LANE":" ","ALLEY":" ","HOUSE_NO":"３８號之３","E_COORD97":172558.73999999999,"N_COORD97":2565209.1400000001,"ADDRESS":"自由路３８號之３","OBJECTID":468209},"geometry":{"x":172558.74000000115,"y":2565209.1400000006}},{"attributes":{"ID":468235,"DIS_CODE":0,"TOWNNAME":"麻豆區","LI":"油車里","LIN":"5鄰","STREET":"自由路","SECT":" ","MAREA":" ","LANE":" ","ALLEY":" ","HOUSE_NO":"３８號之４","E_COORD97":172558.84,"N_COORD97":2565214.2000000002,"ADDRESS":"自由路３８號之４","OBJECTID":468210},"geometry":{"x":172558.83999999985,"y":2565214.1999999993}},{"attributes":{"ID":468236,"DIS_CODE":0,"TOWNNAME":"麻豆區","LI":"油車里","LIN":"5鄰","STREET":"自由路","SECT":" ","MAREA":" ","LANE":" ","ALLEY":" ","HOUSE_NO":"３８號之５","E_COORD97":172577.95999999999,"N_COORD97":2565211.0699999998,"ADDRESS":"自由路３８號之５","OBJECTID":468211},"geometry":{"x":172577.95999999996,"y":2565211.0700000022}},{"attributes":{"ID":468237,"DIS_CODE":0,"TOWNNAME":"麻豆區","LI":"油車里","LIN":"5鄰","STREET":"自由路","SECT":" ","MAREA":" ","LANE":" ","ALLEY":" ","HOUSE_NO":"３８號之６","E_COORD97":172583.51000000001,"N_COORD97":2565211.2599999998,"ADDRESS":"自由路３８號之６","OBJECTID":468212},"geometry":{"x":172583.51000000071,"y":2565211.2599999998}},{"attributes":{"ID":468238,"DIS_CODE":0,"TOWNNAME":"麻豆區","LI":"油車里","LIN":"5鄰","STREET":"自由路","SECT":" ","MAREA":" ","LANE":" ","ALLEY":" ","HOUSE_NO":"３８號之７","E_COORD97":172589.06,"N_COORD97":2565211.4500000002,"ADDRESS":"自由路３８號之７","OBJECTID":468213},"geometry":{"x":172589.05999999959,"y":2565211.4500000011}},{"attributes":{"ID":468239,"DIS_CODE":0,"TOWNNAME":"麻豆區","LI":"油車里","LIN":"5鄰","STREET":"自由路","SECT":" ","MAREA":" ","LANE":" ","ALLEY":" ","HOUSE_NO":"３８號之８","E_COORD97":172594.62,"N_COORD97":2565211.6400000001,"ADDRESS":"自由路３８號之８","OBJECTID":468214},"geometry":{"x":172594.62000000197,"y":2565211.6400000025}},{"attributes":{"ID":468240,"DIS_CODE":0,"TOWNNAME":"麻豆區","LI":"油車里","LIN":"5鄰","STREET":"自由路","SECT":" ","MAREA":" ","LANE":" ","ALLEY":" ","HOUSE_NO":"３８號之９","E_COORD97":172600.17000000001,"N_COORD97":2565211.8300000001,"ADDRESS":"自由路３８號之９","OBJECTID":468215},"geometry":{"x":172600.16999999993,"y":2565211.8300000038}},{"attributes":{"ID":468241,"DIS_CODE":0,"TOWNNAME":"麻豆區","LI":"油車里","LIN":"5鄰","STREET":"自由路","SECT":" ","MAREA":" ","LANE":" ","ALLEY":" ","HOUSE_NO":"４２號","E_COORD97":172556,"N_COORD97":2565238.2400000002,"ADDRESS":"自由路４２號","OBJECTID":468216},"geometry":{"x":172556,"y":2565238.2400000002}},{"attributes":{"ID":468242,"DIS_CODE":0,"TOWNNAME":"麻豆區","LI":"油車里","LIN":"5鄰","STREET":"自由路","SECT":" ","MAREA":" ","LANE":" ","ALLEY":" ","HOUSE_NO":"４４號之１","E_COORD97":172550.60999999999,"N_COORD97":2565279.6299999999,"ADDRESS":"自由路４４號之１","OBJECTID":468217},"geometry":{"x":172550.61000000034,"y":2565279.629999999}},{"attributes":{"ID":468243,"DIS_CODE":0,"TOWNNAME":"麻豆區","LI":"油車里","LIN":"5鄰","STREET":"自由路","SECT":" ","MAREA":" ","LANE":" ","ALLEY":" ","HOUSE_NO":"４４號","E_COORD97":172557.09,"N_COORD97":2565262.77,"ADDRESS":"自由路４４號","OBJECTID":468218},"geometry":{"x":172557.08999999985,"y":2565262.7700000033}},{"attributes":{"ID":468244,"DIS_CODE":0,"TOWNNAME":"麻豆區","LI":"油車里","LIN":"5鄰","STREET":"自由路","SECT":" ","MAREA":" ","LANE":" ","ALLEY":" ","HOUSE_NO":"４６號","E_COORD97":172553.81,"N_COORD97":2565295.1899999999,"ADDRESS":"自由路４６號","OBJECTID":468219},"geometry":{"x":172553.81000000145,"y":2565295.1900000013}},{"attributes":{"ID":468245,"DIS_CODE":0,"TOWNNAME":"麻豆區","LI":"巷口里","LIN":"5鄰","STREET":"和平路","SECT":" ","MAREA":" ","LANE":" ","ALLEY":" ","HOUSE_NO":"１號之１５","E_COORD97":173126.57000000001,"N_COORD97":2564357.2599999998,"ADDRESS":"和平路１號之１５","OBJECTID":468220},"geometry":{"x":173126.57000000123,"y":2564357.2599999998}},{"attributes":{"ID":468246,"DIS_CODE":0,"TOWNNAME":"麻豆區","LI":"巷口里","LIN":"5鄰","STREET":"和平路","SECT":" ","MAREA":" ","LANE":" ","ALLEY":" ","HOUSE_NO":"１號之１６","E_COORD97":173126.70999999999,"N_COORD97":2564352.4300000002,"ADDRESS":"和平路１號之１６","OBJECTID":468221},"geometry":{"x":173126.71000000089,"y":2564352.4299999997}},{"attributes":{"ID":468247,"DIS_CODE":0,"TOWNNAME":"麻豆區","LI":"巷口里","LIN":"5鄰","STREET":"和平路","SECT":" ","MAREA":" ","LANE":" ","ALLEY":" ","HOUSE_NO":"１號之１７","E_COORD97":173126.92000000001,"N_COORD97":2564347.8799999999,"ADDRESS":"和平路１號之１７","OBJECTID":468222},"geometry":{"x":173126.92000000086,"y":2564347.879999999}},{"attributes":{"ID":468248,"DIS_CODE":0,"TOWNNAME":"麻豆區","LI":"巷口里","LIN":"5鄰","STREET":"和平路","SECT":" ","MAREA":" ","LANE":" ","ALLEY":" ","HOUSE_NO":"１號之１８","E_COORD97":173126.92999999999,"N_COORD97":2564344.1400000001,"ADDRESS":"和平路１號之１８","OBJECTID":468223},"geometry":{"x":173126.93000000063,"y":2564344.1400000025}},{"attributes":{"ID":468249,"DIS_CODE":0,"TOWNNAME":"麻豆區","LI":"巷口里","LIN":"5鄰","STREET":"和平路","SECT":" ","MAREA":" ","LANE":" ","ALLEY":" ","HOUSE_NO":"１號之１９","E_COORD97":173126.87,"N_COORD97":2564338.8700000001,"ADDRESS":"和平路１號之１９","OBJECTID":468224},"geometry":{"x":173126.86999999918,"y":2564338.8700000029}},{"attributes":{"ID":468250,"DIS_CODE":0,"TOWNNAME":"麻豆區","LI":"巷口里","LIN":"5鄰","STREET":"和平路","SECT":" ","MAREA":" ","LANE":" ","ALLEY":" ","HOUSE_NO":"１號之１","E_COORD97":173096.48999999999,"N_COORD97":2564380.0499999998,"ADDRESS":"和平路１號之１","OBJECTID":468225},"geometry":{"x":173096.49000000115,"y":2564380.0500000007}},{"attributes":{"ID":468251,"DIS_CODE":0,"TOWNNAME":"麻豆區","LI":"巷口里","LIN":"5鄰","STREET":"和平路","SECT":" ","MAREA":" ","LANE":" ","ALLEY":" ","HOUSE_NO":"１號之２１","E_COORD97":173127.63,"N_COORD97":2564329.6400000001,"ADDRESS":"和平路１號之２１","OBJECTID":468226},"geometry":{"x":173127.62999999989,"y":2564329.6400000025}},{"attributes":{"ID":468252,"DIS_CODE":0,"TOWNNAME":"麻豆區","LI":"巷口里","LIN":"5鄰","STREET":"和平路","SECT":" ","MAREA":" ","LANE":" ","ALLEY":" ","HOUSE_NO":"１號之２２","E_COORD97":173127.59,"N_COORD97":2564325.0800000001,"ADDRESS":"和平路１號之２２","OBJECTID":468227},"geometry":{"x":173127.59000000078,"y":2564325.0800000001}},{"attributes":{"ID":468253,"DIS_CODE":0,"TOWNNAME":"麻豆區","LI":"巷口里","LIN":"5鄰","STREET":"和平路","SECT":" ","MAREA":" ","LANE":" ","ALLEY":" ","HOUSE_NO":"１號之２３","E_COORD97":173111.39000000001,"N_COORD97":2564336.0699999998,"ADDRESS":"和平路１號之２３","OBJECTID":468228},"geometry":{"x":173111.3900000006,"y":2564336.070000004}},{"attributes":{"ID":468254,"DIS_CODE":0,"TOWNNAME":"麻豆區","LI":"巷口里","LIN":"5鄰","STREET":"和平路","SECT":" ","MAREA":" ","LANE":" ","ALLEY":" ","HOUSE_NO":"１號之２４","E_COORD97":173104.63,"N_COORD97":2564336.0699999998,"ADDRESS":"和平路１號之２４","OBJECTID":468229},"geometry":{"x":173104.63000000175,"y":2564336.070000004}},{"attributes":{"ID":468255,"DIS_CODE":0,"TOWNNAME":"麻豆區","LI":"巷口里","LIN":"5鄰","STREET":"和平路","SECT":" ","MAREA":" ","LANE":" ","ALLEY":" ","HOUSE_NO":"１號之２５","E_COORD97":173096.79000000001,"N_COORD97":2564337.6200000001,"ADDRESS":"和平路１號之２５","OBJECTID":468230},"geometry":{"x":173096.78999999911,"y":2564337.6200000029}},{"attributes":{"ID":468256,"DIS_CODE":0,"TOWNNAME":"麻豆區","LI":"巷口里","LIN":"5鄰","STREET":"和平路","SECT":" ","MAREA":" ","LANE":" ","ALLEY":" ","HOUSE_NO":"１號之２６","E_COORD97":173092.92999999999,"N_COORD97":2564337.4199999999,"ADDRESS":"和平路１號之２６","OBJECTID":468231},"geometry":{"x":173092.93000000063,"y":2564337.4200000018}},{"attributes":{"ID":468257,"DIS_CODE":0,"TOWNNAME":"麻豆區","LI":"巷口里","LIN":"5鄰","STREET":"和平路","SECT":" ","MAREA":" ","LANE":" ","ALLEY":" ","HOUSE_NO":"１號之２７","E_COORD97":173083.84,"N_COORD97":2564337.2000000002,"ADDRESS":"和平路１號之２７","OBJECTID":468232},"geometry":{"x":173083.83999999985,"y":2564337.200000003}},{"attributes":{"ID":468258,"DIS_CODE":0,"TOWNNAME":"麻豆區","LI":"巷口里","LIN":"5鄰","STREET":"和平路","SECT":" ","MAREA":" ","LANE":" ","ALLEY":" ","HOUSE_NO":"１號之２８","E_COORD97":173079.73000000001,"N_COORD97":2564337.04,"ADDRESS":"和平路１號之２８","OBJECTID":468233},"geometry":{"x":173079.73000000138,"y":2564337.0399999991}},{"attributes":{"ID":468259,"DIS_CODE":0,"TOWNNAME":"麻豆區","LI":"巷口里","LIN":"5鄰","STREET":"和平路","SECT":" ","MAREA":" ","LANE":" ","ALLEY":" ","HOUSE_NO":"１號之２９","E_COORD97":173070.85999999999,"N_COORD97":2564337.79,"ADDRESS":"和平路１號之２９","OBJECTID":468234},"geometry":{"x":173070.86000000034,"y":2564337.790000001}},{"attributes":{"ID":468260,"DIS_CODE":0,"TOWNNAME":"麻豆區","LI":"巷口里","LIN":"5鄰","STREET":"和平路","SECT":" ","MAREA":" ","LANE":" ","ALLEY":" ","HOUSE_NO":"１號之３０","E_COORD97":173065.39999999999,"N_COORD97":2564337.6400000001,"ADDRESS":"和平路１號之３０","OBJECTID":468235},"geometry":{"x":173065.40000000037,"y":2564337.6400000006}},{"attributes":{"ID":468261,"DIS_CODE":0,"TOWNNAME":"麻豆區","LI":"巷口里","LIN":"5鄰","STREET":"和平路","SECT":" ","MAREA":" ","LANE":" ","ALLEY":" ","HOUSE_NO":"１號之３１","E_COORD97":173067.48999999999,"N_COORD97":2564346.79,"ADDRESS":"和平路１號之３１","OBJECTID":468236},"geometry":{"x":173067.49000000115,"y":2564346.7900000028}},{"attributes":{"ID":468262,"DIS_CODE":0,"TOWNNAME":"麻豆區","LI":"巷口里","LIN":"5鄰","STREET":"和平路","SECT":" ","MAREA":" ","LANE":" ","ALLEY":" ","HOUSE_NO":"１號之３２","E_COORD97":173073.31,"N_COORD97":2564348.8300000001,"ADDRESS":"和平路１號之３２","OBJECTID":468237},"geometry":{"x":173073.31000000052,"y":2564348.8300000019}},{"attributes":{"ID":468263,"DIS_CODE":0,"TOWNNAME":"麻豆區","LI":"巷口里","LIN":"5鄰","STREET":"和平路","SECT":" ","MAREA":" ","LANE":" ","ALLEY":" ","HOUSE_NO":"１號之３３","E_COORD97":173079.73000000001,"N_COORD97":2564349.0099999998,"ADDRESS":"和平路１號之３３","OBJECTID":468238},"geometry":{"x":173079.73000000138,"y":2564349.0099999979}},{"attributes":{"ID":468264,"DIS_CODE":0,"TOWNNAME":"麻豆區","LI":"巷口里","LIN":"5鄰","STREET":"和平路","SECT":" ","MAREA":" ","LANE":" ","ALLEY":" ","HOUSE_NO":"１號之３４","E_COORD97":173086.26999999999,"N_COORD97":2564349.7000000002,"ADDRESS":"和平路１號之３４","OBJECTID":468239},"geometry":{"x":173086.26999999862,"y":2564349.6999999993}},{"attributes":{"ID":468265,"DIS_CODE":0,"TOWNNAME":"麻豆區","LI":"巷口里","LIN":"5鄰","STREET":"和平路","SECT":" ","MAREA":" ","LANE":" ","ALLEY":" ","HOUSE_NO":"１號之３５","E_COORD97":173092.72,"N_COORD97":2564348.5499999998,"ADDRESS":"和平路１號之３５","OBJECTID":468240},"geometry":{"x":173092.72000000067,"y":2564348.5500000007}},{"attributes":{"ID":468266,"DIS_CODE":0,"TOWNNAME":"麻豆區","LI":"巷口里","LIN":"5鄰","STREET":"和平路","SECT":" ","MAREA":" ","LANE":" ","ALLEY":" ","HOUSE_NO":"１號之３６","E_COORD97":173098.69,"N_COORD97":2564348.8100000001,"ADDRESS":"和平路１號之３６","OBJECTID":468241},"geometry":{"x":173098.69000000134,"y":2564348.8100000024}},{"attributes":{"ID":468267,"DIS_CODE":0,"TOWNNAME":"麻豆區","LI":"巷口里","LIN":"5鄰","STREET":"和平路","SECT":" ","MAREA":" ","LANE":" ","ALLEY":" ","HOUSE_NO":"１號之３７","E_COORD97":173105.26999999999,"N_COORD97":2564350.5099999998,"ADDRESS":"和平路１號之３７","OBJECTID":468242},"geometry":{"x":173105.27000000048,"y":2564350.5100000016}},{"attributes":{"ID":468268,"DIS_CODE":0,"TOWNNAME":"麻豆區","LI":"巷口里","LIN":"5鄰","STREET":"和平路","SECT":" ","MAREA":" ","LANE":" ","ALLEY":" ","HOUSE_NO":"１號之３８","E_COORD97":173111.54000000001,"N_COORD97":2564351.1600000001,"ADDRESS":"和平路１號之３８","OBJECTID":468243},"geometry":{"x":173111.54000000004,"y":2564351.1600000001}},{"attributes":{"ID":468269,"DIS_CODE":0,"TOWNNAME":"麻豆區","LI":"巷口里","LIN":"5鄰","STREET":"和平路","SECT":" ","MAREA":" ","LANE":" ","ALLEY":" ","HOUSE_NO":"１號之３","E_COORD97":173154.45000000001,"N_COORD97":2564398.9900000002,"ADDRESS":"和平路１號之３","OBJECTID":468244},"geometry":{"x":173154.45000000112,"y":2564398.9900000021}},{"attributes":{"ID":468270,"DIS_CODE":0,"TOWNNAME":"麻豆區","LI":"巷口里","LIN":"5鄰","STREET":"和平路","SECT":" ","MAREA":" ","LANE":" ","ALLEY":" ","HOUSE_NO":"１號之５","E_COORD97":173142.88,"N_COORD97":2564397.1800000002,"ADDRESS":"和平路１號之５","OBJECTID":468245},"geometry":{"x":173142.87999999989,"y":2564397.1800000016}},{"attributes":{"ID":468271,"DIS_CODE":0,"TOWNNAME":"麻豆區","LI":"巷口里","LIN":"5鄰","STREET":"和平路","SECT":" ","MAREA":" ","LANE":" ","ALLEY":" ","HOUSE_NO":"１號之６","E_COORD97":173138.39000000001,"N_COORD97":2564396,"ADDRESS":"和平路１號之６","OBJECTID":468246},"geometry":{"x":173138.3900000006,"y":2564396}},{"attributes":{"ID":468272,"DIS_CODE":0,"TOWNNAME":"麻豆區","LI":"巷口里","LIN":"5鄰","STREET":"和平路","SECT":" ","MAREA":" ","LANE":" ","ALLEY":" ","HOUSE_NO":"１號","E_COORD97":173107.39999999999,"N_COORD97":2564378.52,"ADDRESS":"和平路１號","OBJECTID":468247},"geometry":{"x":173107.4000000013,"y":2564378.5199999996}},{"attributes":{"ID":468273,"DIS_CODE":0,"TOWNNAME":"新營區","LI":"埤寮里","LIN":"5鄰","STREET":"中正路","SECT":" ","MAREA":" ","LANE":" ","ALLEY":" ","HOUSE_NO":"５５２之１號","E_COORD97":180128.82999999999,"N_COORD97":2581046.2200000002,"ADDRESS":"中正路５５２之１號","OBJECTID":468248},"geometry":{"x":180128.83000000101,"y":2581046.2199999988}},{"attributes":{"ID":468274,"DIS_CODE":0,"TOWNNAME":"新營區","LI":"興安里","LIN":"5鄰","STREET":"工業街","SECT":" ","MAREA":" ","LANE":" ","ALLEY":" ","HOUSE_NO":"８３號","E_COORD97":180630.51000000001,"N_COORD97":2577591.8700000001,"ADDRESS":"工業街８３號","OBJECTID":468249},"geometry":{"x":180630.51000000071,"y":2577591.8700000029}},{"attributes":{"ID":468275,"DIS_CODE":0,"TOWNNAME":"新營區","LI":"新南里","LIN":"5鄰","STREET":"新北三街","SECT":" ","MAREA":" ","LANE":" ","ALLEY":" ","HOUSE_NO":"５４號","E_COORD97":178555.53,"N_COORD97":2578772.3100000001,"ADDRESS":"新北三街５４號","OBJECTID":468250},"geometry":{"x":178555.53000000026,"y":2578772.3100000024}},{"attributes":{"ID":468276,"DIS_CODE":0,"TOWNNAME":"新營區","LI":"中營里","LIN":"5鄰","STREET":"三民路","SECT":" ","MAREA":" ","LANE":" ","ALLEY":" ","HOUSE_NO":"６之１２號","E_COORD97":180640.22,"N_COORD97":2578491.1299999999,"ADDRESS":"三民路６之１２號","OBJECTID":468251},"geometry":{"x":180640.21999999974,"y":2578491.129999999}},{"attributes":{"ID":468277,"DIS_CODE":0,"TOWNNAME":"新營區","LI":"中營里","LIN":"5鄰","STREET":"中山路","SECT":" ","MAREA":" ","LANE":" ","ALLEY":" ","HOUSE_NO":"１２號","E_COORD97":180694.95999999999,"N_COORD97":2578484.1699999999,"ADDRESS":"中山路１２號","OBJECTID":468252},"geometry":{"x":180694.95999999996,"y":2578484.1700000018}},{"attributes":{"ID":468278,"DIS_CODE":0,"TOWNNAME":"新營區","LI":"興安里","LIN":"5鄰","STREET":"工業街","SECT":" ","MAREA":" ","LANE":" ","ALLEY":" ","HOUSE_NO":"８１號","E_COORD97":180640.85999999999,"N_COORD97":2577836.5699999998,"ADDRESS":"工業街８１號","OBJECTID":468253},"geometry":{"x":180640.86000000127,"y":2577836.570000004}},{"attributes":{"ID":468279,"DIS_CODE":0,"TOWNNAME":"新營區","LI":"新南里","LIN":"5鄰","STREET":"新北三街","SECT":" ","MAREA":" ","LANE":" ","ALLEY":" ","HOUSE_NO":"１３０號","E_COORD97":178501.59,"N_COORD97":2578786.9700000002,"ADDRESS":"新北三街１３０號","OBJECTID":468254},"geometry":{"x":178501.58999999985,"y":2578786.9700000044}},{"attributes":{"ID":468280,"DIS_CODE":0,"TOWNNAME":"新營區","LI":"中營里","LIN":"5鄰","STREET":"三民路","SECT":" ","MAREA":" ","LANE":" ","ALLEY":" ","HOUSE_NO":"６之８號","E_COORD97":180647.14000000001,"N_COORD97":2578486.6699999999,"ADDRESS":"三民路６之８號","OBJECTID":468255},"geometry":{"x":180647.13999999966,"y":2578486.6700000018}},{"attributes":{"ID":468281,"DIS_CODE":0,"TOWNNAME":"新營區","LI":"新南里","LIN":"5鄰","STREET":"新北三街","SECT":" ","MAREA":" ","LANE":" ","ALLEY":" ","HOUSE_NO":"５３號","E_COORD97":178562.60000000001,"N_COORD97":2578754.5600000001,"ADDRESS":"新北三街５３號","OBJECTID":468256},"geometry":{"x":178562.59999999963,"y":2578754.5600000005}},{"attributes":{"ID":468282,"DIS_CODE":0,"TOWNNAME":"新營區","LI":"新南里","LIN":"5鄰","STREET":"新北三街","SECT":" ","MAREA":" ","LANE":" ","ALLEY":" ","HOUSE_NO":"１３４號","E_COORD97":178494.39999999999,"N_COORD97":2578780.3599999999,"ADDRESS":"新北三街１３４號","OBJECTID":468257},"geometry":{"x":178494.4000000013,"y":2578780.3600000013}},{"attributes":{"ID":468283,"DIS_CODE":0,"TOWNNAME":"新營區","LI":"中營里","LIN":"5鄰","STREET":"三民路","SECT":" ","MAREA":" ","LANE":" ","ALLEY":" ","HOUSE_NO":"６號","E_COORD97":180649.73999999999,"N_COORD97":2578484.3799999999,"ADDRESS":"三民路６號","OBJECTID":468258},"geometry":{"x":180649.74000000115,"y":2578484.3800000008}},{"attributes":{"ID":468284,"DIS_CODE":0,"TOWNNAME":"新營區","LI":"中營里","LIN":"5鄰","STREET":"大同路","SECT":" ","MAREA":" ","LANE":" ","ALLEY":" ","HOUSE_NO":"１號","E_COORD97":180701.91,"N_COORD97":2578487.4500000002,"ADDRESS":"大同路１號","OBJECTID":468259},"geometry":{"x":180701.91000000015,"y":2578487.4500000011}},{"attributes":{"ID":468285,"DIS_CODE":0,"TOWNNAME":"新營區","LI":"大宏里","LIN":"5鄰","STREET":"中正路","SECT":" ","MAREA":" ","LANE":" ","ALLEY":" ","HOUSE_NO":"６之１號","E_COORD97":180063.12,"N_COORD97":2578492.73,"ADDRESS":"中正路６之１號","OBJECTID":468260},"geometry":{"x":180063.12000000011,"y":2578492.7300000004}},{"attributes":{"ID":468286,"DIS_CODE":0,"TOWNNAME":"新營區","LI":"新南里","LIN":"5鄰","STREET":"新北三街","SECT":" ","MAREA":" ","LANE":" ","ALLEY":" ","HOUSE_NO":"１２２號","E_COORD97":178513.91,"N_COORD97":2578795.77,"ADDRESS":"新北三街１２２號","OBJECTID":468261},"geometry":{"x":178513.90999999922,"y":2578795.7699999996}},{"attributes":{"ID":468287,"DIS_CODE":0,"TOWNNAME":"新營區","LI":"中營里","LIN":"5鄰","STREET":"中山路","SECT":" ","MAREA":" ","LANE":" ","ALLEY":" ","HOUSE_NO":"１８號","E_COORD97":180662.07999999999,"N_COORD97":2578451.1000000001,"ADDRESS":"中山路１８號","OBJECTID":468262},"geometry":{"x":180662.08000000007,"y":2578451.0999999996}},{"attributes":{"ID":468288,"DIS_CODE":0,"TOWNNAME":"新營區","LI":"新南里","LIN":"5鄰","STREET":"新北三街","SECT":" ","MAREA":" ","LANE":" ","ALLEY":" ","HOUSE_NO":"５０號","E_COORD97":178562.72,"N_COORD97":2578778.9199999999,"ADDRESS":"新北三街５０號","OBJECTID":468263},"geometry":{"x":178562.72000000067,"y":2578778.9199999999}},{"attributes":{"ID":468289,"DIS_CODE":0,"TOWNNAME":"新營區","LI":"大宏里","LIN":"5鄰","STREET":"三民路","SECT":" ","MAREA":" ","LANE":" ","ALLEY":" ","HOUSE_NO":"７６之８號","E_COORD97":180109.35999999999,"N_COORD97":2578484.77,"ADDRESS":"三民路７６之８號","OBJECTID":468264},"geometry":{"x":180109.36000000034,"y":2578484.7699999996}},{"attributes":{"ID":468290,"DIS_CODE":0,"TOWNNAME":"新營區","LI":"新南里","LIN":"5鄰","STREET":"新北三街","SECT":" ","MAREA":" ","LANE":" ","ALLEY":" ","HOUSE_NO":"１３６號","E_COORD97":178491.32000000001,"N_COORD97":2578778.1600000001,"ADDRESS":"新北三街１３６號","OBJECTID":468265},"geometry":{"x":178491.32000000123,"y":2578778.1600000039}},{"attributes":{"ID":468291,"DIS_CODE":0,"TOWNNAME":"新營區","LI":"新南里","LIN":"5鄰","STREET":"新北三街","SECT":" ","MAREA":" ","LANE":" ","ALLEY":" ","HOUSE_NO":"１４０號","E_COORD97":178485.16,"N_COORD97":2578772.6499999999,"ADDRESS":"新北三街１４０號","OBJECTID":468266},"geometry":{"x":178485.16000000201,"y":2578772.6500000022}},{"attributes":{"ID":468292,"DIS_CODE":0,"TOWNNAME":"新營區","LI":"中營里","LIN":"5鄰","STREET":"中山路","SECT":" ","MAREA":" ","LANE":" ","ALLEY":" ","HOUSE_NO":"１０號","E_COORD97":180699.06,"N_COORD97":2578485.2599999998,"ADDRESS":"中山路１０號","OBJECTID":468267},"geometry":{"x":180699.05999999959,"y":2578485.2599999979}},{"attributes":{"ID":468293,"DIS_CODE":0,"TOWNNAME":"新營區","LI":"中營里","LIN":"5鄰","STREET":"開元路","SECT":" ","MAREA":" ","LANE":" ","ALLEY":" ","HOUSE_NO":"１號","E_COORD97":180749.98000000001,"N_COORD97":2578486.1200000001,"ADDRESS":"開元路１號","OBJECTID":468268},"geometry":{"x":180749.98000000138,"y":2578486.120000001}},{"attributes":{"ID":468294,"DIS_CODE":0,"TOWNNAME":"新營區","LI":"興安里","LIN":"5鄰","STREET":"工業街","SECT":" ","MAREA":" ","LANE":" ","ALLEY":" ","HOUSE_NO":"８３之２號","E_COORD97":180674.94,"N_COORD97":2577591.73,"ADDRESS":"工業街８３之２號","OBJECTID":468269},"geometry":{"x":180674.94000000041,"y":2577591.7300000023}},{"attributes":{"ID":468295,"DIS_CODE":0,"TOWNNAME":"新營區","LI":"興安里","LIN":"5鄰","STREET":"工業街","SECT":" ","MAREA":" ","LANE":" ","ALLEY":" ","HOUSE_NO":"８５號","E_COORD97":180728.51000000001,"N_COORD97":2577549.3199999998,"ADDRESS":"工業街８５號","OBJECTID":468270},"geometry":{"x":180728.50999999885,"y":2577549.3200000003}},{"attributes":{"ID":468296,"DIS_CODE":0,"TOWNNAME":"新營區","LI":"新南里","LIN":"5鄰","STREET":"新北三街","SECT":" ","MAREA":" ","LANE":" ","ALLEY":" ","HOUSE_NO":"１１８號","E_COORD97":178525.22,"N_COORD97":2578806.79,"ADDRESS":"新北三街１１８號","OBJECTID":468271},"geometry":{"x":178525.22000000067,"y":2578806.7900000028}},{"attributes":{"ID":468297,"DIS_CODE":0,"TOWNNAME":"新營區","LI":"好平里","LIN":"5鄰","STREET":"新進路","SECT":"二段","MAREA":" ","LANE":" ","ALLEY":" ","HOUSE_NO":"１０９號","E_COORD97":179438.53,"N_COORD97":2577714.8999999999,"ADDRESS":"新進路二段１０９號","OBJECTID":468272},"geometry":{"x":179438.53000000026,"y":2577714.9000000004}},{"attributes":{"ID":468298,"DIS_CODE":0,"TOWNNAME":"新營區","LI":"興安里","LIN":"5鄰","STREET":"工業街","SECT":" ","MAREA":" ","LANE":" ","ALLEY":" ","HOUSE_NO":"６９號之２","E_COORD97":180630.89999999999,"N_COORD97":2577862.1400000001,"ADDRESS":"工業街６９號之２","OBJECTID":468273},"geometry":{"x":180630.90000000037,"y":2577862.1400000006}},{"attributes":{"ID":468299,"DIS_CODE":0,"TOWNNAME":"新營區","LI":"大宏里","LIN":"5鄰","STREET":"三民路","SECT":" ","MAREA":" ","LANE":" ","ALLEY":" ","HOUSE_NO":"６８之４號","E_COORD97":180213.20999999999,"N_COORD97":2578604.9900000002,"ADDRESS":"三民路６８之４號","OBJECTID":468274},"geometry":{"x":180213.20999999996,"y":2578604.9900000002}},{"attributes":{"ID":468300,"DIS_CODE":0,"TOWNNAME":"新營區","LI":"大宏里","LIN":"5鄰","STREET":"三民路","SECT":" ","MAREA":" ","LANE":" ","ALLEY":" ","HOUSE_NO":"６４號","E_COORD97":180220.42000000001,"N_COORD97":2578495.2599999998,"ADDRESS":"三民路６４號","OBJECTID":468275},"geometry":{"x":180220.41999999993,"y":2578495.2599999998}},{"attributes":{"ID":468301,"DIS_CODE":0,"TOWNNAME":"新營區","LI":"中營里","LIN":"5鄰","STREET":"中山路","SECT":" ","MAREA":" ","LANE":" ","ALLEY":" ","HOUSE_NO":"３４號之３","E_COORD97":180622.47,"N_COORD97":2578453.5699999998,"ADDRESS":"中山路３４號之３","OBJECTID":468276},"geometry":{"x":180622.47000000067,"y":2578453.570000004}},{"attributes":{"ID":468302,"DIS_CODE":0,"TOWNNAME":"新營區","LI":"大宏里","LIN":"5鄰","STREET":"三民路","SECT":" ","MAREA":" ","LANE":" ","ALLEY":" ","HOUSE_NO":"５６之６號","E_COORD97":180260.95999999999,"N_COORD97":2578535,"ADDRESS":"三民路５６之６號","OBJECTID":468277},"geometry":{"x":180260.95999999996,"y":2578535.0000000037}},{"attributes":{"ID":468303,"DIS_CODE":0,"TOWNNAME":"新營區","LI":"好平里","LIN":"5鄰","STREET":"新進路","SECT":"二段","MAREA":" ","LANE":" ","ALLEY":" ","HOUSE_NO":"８３號","E_COORD97":179519.20000000001,"N_COORD97":2577720.04,"ADDRESS":"新進路二段８３號","OBJECTID":468278},"geometry":{"x":179519.20000000112,"y":2577720.0400000028}},{"attributes":{"ID":468304,"DIS_CODE":0,"TOWNNAME":"新營區","LI":"埤寮里","LIN":"5鄰","STREET":"中正路","SECT":" ","MAREA":" ","LANE":" ","ALLEY":" ","HOUSE_NO":"５５６號","E_COORD97":180141.92999999999,"N_COORD97":2581102.5800000001,"ADDRESS":"中正路５５６號","OBJECTID":468279},"geometry":{"x":180141.9299999997,"y":2581102.5800000019}},{"attributes":{"ID":468305,"DIS_CODE":0,"TOWNNAME":"新營區","LI":"中營里","LIN":"5鄰","STREET":"中山路","SECT":" ","MAREA":" ","LANE":" ","ALLEY":" ","HOUSE_NO":"３４號之１","E_COORD97":180623.29999999999,"N_COORD97":2578430.3100000001,"ADDRESS":"中山路３４號之１","OBJECTID":468280},"geometry":{"x":180623.30000000168,"y":2578430.3100000005}},{"attributes":{"ID":468306,"DIS_CODE":0,"TOWNNAME":"新營區","LI":"延平里","LIN":"5鄰","STREET":"長春街","SECT":" ","MAREA":" ","LANE":" ","ALLEY":" ","HOUSE_NO":"２之３４號","E_COORD97":179688.23999999999,"N_COORD97":2577894.2799999998,"ADDRESS":"長春街２之３４號","OBJECTID":468281},"geometry":{"x":179688.23999999929,"y":2577894.2799999993}},{"attributes":{"ID":468307,"DIS_CODE":0,"TOWNNAME":"新營區","LI":"延平里","LIN":"5鄰","STREET":"長春街","SECT":" ","MAREA":" ","LANE":" ","ALLEY":" ","HOUSE_NO":"２之１７號","E_COORD97":179723.12,"N_COORD97":2577915.1600000001,"ADDRESS":"長春街２之１７號","OBJECTID":468282},"geometry":{"x":179723.12000000104,"y":2577915.160000002}},{"attributes":{"ID":468308,"DIS_CODE":0,"TOWNNAME":"新營區","LI":"好平里","LIN":"5鄰","STREET":"新進路","SECT":"二段","MAREA":" ","LANE":" ","ALLEY":" ","HOUSE_NO":"１０２號","E_COORD97":179481.62,"N_COORD97":2577742.3799999999,"ADDRESS":"新進路二段１０２號","OBJECTID":468283},"geometry":{"x":179481.62000000011,"y":2577742.3800000008}},{"attributes":{"ID":468309,"DIS_CODE":0,"TOWNNAME":"新營區","LI":"民權里","LIN":"5鄰","STREET":"三民路","SECT":" ","MAREA":" ","LANE":" ","ALLEY":" ","HOUSE_NO":"９２號之４","E_COORD97":179963.79999999999,"N_COORD97":2578503.1699999999,"ADDRESS":"三民路９２號之４","OBJECTID":468284},"geometry":{"x":179963.80000000168,"y":2578503.1700000037}},{"attributes":{"ID":468310,"DIS_CODE":0,"TOWNNAME":"新營區","LI":"新南里","LIN":"5鄰","STREET":"新北三街","SECT":" ","MAREA":" ","LANE":" ","ALLEY":" ","HOUSE_NO":"９０號","E_COORD97":178562.82999999999,"N_COORD97":2578814.3500000001,"ADDRESS":"新北三街９０號","OBJECTID":468285},"geometry":{"x":178562.83000000007,"y":2578814.3500000015}},{"attributes":{"ID":468311,"DIS_CODE":0,"TOWNNAME":"新營區","LI":"大宏里","LIN":"5鄰","STREET":"三民路","SECT":" ","MAREA":" ","LANE":" ","ALLEY":" ","HOUSE_NO":"６８之５號","E_COORD97":180196.62,"N_COORD97":2578558.5600000001,"ADDRESS":"三民路６８之５號","OBJECTID":468286},"geometry":{"x":180196.62000000104,"y":2578558.5599999987}},{"attributes":{"ID":468312,"DIS_CODE":0,"TOWNNAME":"新營區","LI":"新南里","LIN":"5鄰","STREET":"新北三街","SECT":" ","MAREA":" ","LANE":" ","ALLEY":" ","HOUSE_NO":"９８號","E_COORD97":178575.17000000001,"N_COORD97":2578826.4900000002,"ADDRESS":"新北三街９８號","OBJECTID":468287},"geometry":{"x":178575.17000000086,"y":2578826.4900000002}},{"attributes":{"ID":468313,"DIS_CODE":0,"TOWNNAME":"新營區","LI":"興安里","LIN":"5鄰","STREET":"工業街","SECT":" ","MAREA":" ","LANE":" ","ALLEY":" ","HOUSE_NO":"５９號之１","E_COORD97":180606.38,"N_COORD97":2577892.1600000001,"ADDRESS":"工業街５９號之１","OBJECTID":468288},"geometry":{"x":180606.38000000082,"y":2577892.1600000001}},{"attributes":{"ID":468314,"DIS_CODE":0,"TOWNNAME":"新營區","LI":"新南里","LIN":"5鄰","STREET":"新北三街","SECT":" ","MAREA":" ","LANE":" ","ALLEY":" ","HOUSE_NO":"８２號","E_COORD97":178545.47,"N_COORD97":2578797.8300000001,"ADDRESS":"新北三街８２號","OBJECTID":468289},"geometry":{"x":178545.4700000016,"y":2578797.8300000019}},{"attributes":{"ID":468315,"DIS_CODE":0,"TOWNNAME":"新營區","LI":"興安里","LIN":"5鄰","STREET":"工業街","SECT":" ","MAREA":" ","LANE":" ","ALLEY":" ","HOUSE_NO":"５９號","E_COORD97":180592.01999999999,"N_COORD97":2577903.25,"ADDRESS":"工業街５９號","OBJECTID":468290},"geometry":{"x":180592.01999999955,"y":2577903.2500000019}},{"attributes":{"ID":468316,"DIS_CODE":0,"TOWNNAME":"新營區","LI":"中營里","LIN":"5鄰","STREET":"中山路","SECT":" ","MAREA":" ","LANE":" ","ALLEY":" ","HOUSE_NO":"１８之３號","E_COORD97":180665.57999999999,"N_COORD97":2578446.7200000002,"ADDRESS":"中山路１８之３號","OBJECTID":468291},"geometry":{"x":180665.57999999914,"y":2578446.7200000025}},{"attributes":{"ID":468317,"DIS_CODE":0,"TOWNNAME":"新營區","LI":"好平里","LIN":"5鄰","STREET":"新進路","SECT":"二段","MAREA":" ","LANE":" ","ALLEY":" ","HOUSE_NO":"８５號","E_COORD97":179514.09,"N_COORD97":2577720.0699999998,"ADDRESS":"新進路二段８５號","OBJECTID":468292},"geometry":{"x":179514.08999999985,"y":2577720.0700000003}},{"attributes":{"ID":468318,"DIS_CODE":0,"TOWNNAME":"新營區","LI":"大宏里","LIN":"5鄰","STREET":"三民路","SECT":" ","MAREA":" ","LANE":" ","ALLEY":" ","HOUSE_NO":"６０號","E_COORD97":180239.85999999999,"N_COORD97":2578496.27,"ADDRESS":"三民路６０號","OBJECTID":468293},"geometry":{"x":180239.86000000034,"y":2578496.2700000014}},{"attributes":{"ID":468319,"DIS_CODE":0,"TOWNNAME":"新營區","LI":"埤寮里","LIN":"5鄰","STREET":"中正路","SECT":" ","MAREA":" ","LANE":" ","ALLEY":" ","HOUSE_NO":"５５２號","E_COORD97":180140.73000000001,"N_COORD97":2581067.1499999999,"ADDRESS":"中正路５５２號","OBJECTID":468294},"geometry":{"x":180140.73000000045,"y":2581067.1500000041}},{"attributes":{"ID":468320,"DIS_CODE":0,"TOWNNAME":"新營區","LI":"延平里","LIN":"5鄰","STREET":"長春街","SECT":" ","MAREA":" ","LANE":" ","ALLEY":" ","HOUSE_NO":"１６號","E_COORD97":179749.26301299999,"N_COORD97":2577919.2169300001,"ADDRESS":"長春街１６號","OBJECTID":468295},"geometry":{"x":179749.26301299967,"y":2577919.2169310022}},{"attributes":{"ID":468321,"DIS_CODE":0,"TOWNNAME":"歸仁區","LI":"六甲里","LIN":"5鄰","STREET":"中正十五街","SECT":" ","MAREA":" ","LANE":" ","ALLEY":" ","HOUSE_NO":"１６號","E_COORD97":176438.01000000001,"N_COORD97":2539491.25,"ADDRESS":"中正十五街１６號","OBJECTID":468296},"geometry":{"x":176438.01000000164,"y":2539491.2500000019}},{"attributes":{"ID":468322,"DIS_CODE":0,"TOWNNAME":"歸仁區","LI":"六甲里","LIN":"5鄰","STREET":"中正十五街","SECT":" ","MAREA":" ","LANE":" ","ALLEY":" ","HOUSE_NO":"２６號","E_COORD97":176431.70999999999,"N_COORD97":2539462.25,"ADDRESS":"中正十五街２６號","OBJECTID":468297},"geometry":{"x":176431.70999999903,"y":2539462.2499999981}},{"attributes":{"ID":468323,"DIS_CODE":0,"TOWNNAME":"歸仁區","LI":"大廟里","LIN":"5鄰","STREET":"和順路","SECT":"二段","MAREA":" ","LANE":" ","ALLEY":" ","HOUSE_NO":"２５５號","E_COORD97":175842.04000000001,"N_COORD97":2543578.2799999998,"ADDRESS":"和順路二段２５５號","OBJECTID":468298},"geometry":{"x":175842.04000000097,"y":2543578.2800000012}},{"attributes":{"ID":468324,"DIS_CODE":0,"TOWNNAME":"歸仁區","LI":"六甲里","LIN":"5鄰","STREET":"中正十五街","SECT":" ","MAREA":" ","LANE":" ","ALLEY":" ","HOUSE_NO":"４０號","E_COORD97":176426.31,"N_COORD97":2539419.25,"ADDRESS":"中正十五街４０號","OBJECTID":468299},"geometry":{"x":176426.31000000052,"y":2539419.2500000019}},{"attributes":{"ID":468325,"DIS_CODE":0,"TOWNNAME":"歸仁區","LI":"六甲里","LIN":"5鄰","STREET":"中正十五街","SECT":" ","MAREA":" ","LANE":" ","ALLEY":" ","HOUSE_NO":"２８號","E_COORD97":176431.60999999999,"N_COORD97":2539456.25,"ADDRESS":"中正十五街２８號","OBJECTID":468300},"geometry":{"x":176431.61000000127,"y":2539456.2500000019}},{"attributes":{"ID":468326,"DIS_CODE":0,"TOWNNAME":"歸仁區","LI":"大廟里","LIN":"5鄰","STREET":"和順路","SECT":"二段","MAREA":" ","LANE":" ","ALLEY":" ","HOUSE_NO":"２２１號","E_COORD97":175962.04000000001,"N_COORD97":2543581.27,"ADDRESS":"和順路二段２２１號","OBJECTID":468301},"geometry":{"x":175962.04000000097,"y":2543581.2700000033}},{"attributes":{"ID":468327,"DIS_CODE":0,"TOWNNAME":"歸仁區","LI":"七甲里","LIN":"5鄰","STREET":"中正北路","SECT":"二段","MAREA":" ","LANE":" ","ALLEY":" ","HOUSE_NO":"４５８號","E_COORD97":177482.32000000001,"N_COORD97":2543127.2599999998,"ADDRESS":"中正北路二段４５８號","OBJECTID":468302},"geometry":{"x":177482.31999999937,"y":2543127.2600000035}},{"attributes":{"ID":468328,"DIS_CODE":0,"TOWNNAME":"歸仁區","LI":"六甲里","LIN":"5鄰","STREET":"中正十五街","SECT":" ","MAREA":" ","LANE":" ","ALLEY":" ","HOUSE_NO":"４２號","E_COORD97":176425.31,"N_COORD97":2539414.25,"ADDRESS":"中正十五街４２號","OBJECTID":468303},"geometry":{"x":176425.30999999959,"y":2539414.25}},{"attributes":{"ID":468329,"DIS_CODE":0,"TOWNNAME":"歸仁區","LI":"六甲里","LIN":"5鄰","STREET":"中正十五街","SECT":" ","MAREA":" ","LANE":" ","ALLEY":" ","HOUSE_NO":"８號","E_COORD97":176439.95999999999,"N_COORD97":2539515.25,"ADDRESS":"中正十五街８號","OBJECTID":468304},"geometry":{"x":176439.95999999996,"y":2539515.25}},{"attributes":{"ID":468330,"DIS_CODE":0,"TOWNNAME":"歸仁區","LI":"八甲里","LIN":"5鄰","STREET":"大光街","SECT":" ","MAREA":" ","LANE":" ","ALLEY":" ","HOUSE_NO":"８５號","E_COORD97":177974.87,"N_COORD97":2541766.6099999999,"ADDRESS":"大光街８５號","OBJECTID":468305},"geometry":{"x":177974.87000000011,"y":2541766.6099999994}},{"attributes":{"ID":468331,"DIS_CODE":0,"TOWNNAME":"歸仁區","LI":"大廟里","LIN":"5鄰","STREET":"和順路","SECT":"二段","MAREA":" ","LANE":" ","ALLEY":" ","HOUSE_NO":"３０９號","E_COORD97":175647.14000000001,"N_COORD97":2543545.2799999998,"ADDRESS":"和順路二段３０９號","OBJECTID":468306},"geometry":{"x":175647.14000000153,"y":2543545.2800000012}},{"attributes":{"ID":468332,"DIS_CODE":0,"TOWNNAME":"歸仁區","LI":"大廟里","LIN":"5鄰","STREET":"和順路","SECT":"二段","MAREA":" ","LANE":" ","ALLEY":" ","HOUSE_NO":"２６５號","E_COORD97":175815.34,"N_COORD97":2543562.2799999998,"ADDRESS":"和順路二段２６５號","OBJECTID":468307},"geometry":{"x":175815.33999999892,"y":2543562.2799999993}},{"attributes":{"ID":468333,"DIS_CODE":0,"TOWNNAME":"歸仁區","LI":"六甲里","LIN":"5鄰","STREET":"中正十五街","SECT":" ","MAREA":" ","LANE":" ","ALLEY":" ","HOUSE_NO":"３６號","E_COORD97":176427.41,"N_COORD97":2539431.25,"ADDRESS":"中正十五街３６號","OBJECTID":468308},"geometry":{"x":176427.41000000108,"y":2539431.25}},{"attributes":{"ID":468334,"DIS_CODE":0,"TOWNNAME":"歸仁區","LI":"大廟里","LIN":"5鄰","STREET":"和順路","SECT":"二段","MAREA":" ","LANE":" ","ALLEY":" ","HOUSE_NO":"２０９號","E_COORD97":175983.64000000001,"N_COORD97":2543586.2799999998,"ADDRESS":"和順路二段２０９號","OBJECTID":468309},"geometry":{"x":175983.63999999966,"y":2543586.2799999993}},{"attributes":{"ID":468335,"DIS_CODE":0,"TOWNNAME":"歸仁區","LI":"大廟里","LIN":"5鄰","STREET":"和順路","SECT":"二段","MAREA":" ","LANE":" ","ALLEY":" ","HOUSE_NO":"３５５號","E_COORD97":175548.64000000001,"N_COORD97":2543529.2799999998,"ADDRESS":"和順路二段３５５號","OBJECTID":468310},"geometry":{"x":175548.63999999966,"y":2543529.2799999993}},{"attributes":{"ID":468336,"DIS_CODE":0,"TOWNNAME":"歸仁區","LI":"武東里","LIN":"5鄰","STREET":"中正南路","SECT":"二段","MAREA":" ","LANE":" ","ALLEY":" ","HOUSE_NO":"１９３之１號","E_COORD97":175485.60999999999,"N_COORD97":2535429.2999999998,"ADDRESS":"中正南路二段１９３之１號","OBJECTID":468311},"geometry":{"x":175485.61000000127,"y":2535429.3000000026}},{"attributes":{"ID":468337,"DIS_CODE":0,"TOWNNAME":"歸仁區","LI":"大廟里","LIN":"5鄰","STREET":"和順路","SECT":"二段","MAREA":" ","LANE":" ","ALLEY":" ","HOUSE_NO":"２７３號","E_COORD97":175784.64000000001,"N_COORD97":2543578.2799999998,"ADDRESS":"和順路二段２７３號","OBJECTID":468312},"geometry":{"x":175784.6400000006,"y":2543578.2800000012}},{"attributes":{"ID":468338,"DIS_CODE":0,"TOWNNAME":"歸仁區","LI":"大潭里","LIN":"5鄰","STREET":"長榮路","SECT":"一段","MAREA":" ","LANE":" ","ALLEY":" ","HOUSE_NO":"２５３號","E_COORD97":175180.07000000001,"N_COORD97":2534540.2799999998,"ADDRESS":"長榮路一段２５３號","OBJECTID":468313},"geometry":{"x":175180.0700000003,"y":2534540.2800000012}},{"attributes":{"ID":468339,"DIS_CODE":0,"TOWNNAME":"歸仁區","LI":"大廟里","LIN":"5鄰","STREET":"和順路","SECT":"二段","MAREA":" ","LANE":" ","ALLEY":" ","HOUSE_NO":"３０５號","E_COORD97":175687.14000000001,"N_COORD97":2543557.2799999998,"ADDRESS":"和順路二段３０５號","OBJECTID":468314},"geometry":{"x":175687.13999999966,"y":2543557.2800000031}},{"attributes":{"ID":468340,"DIS_CODE":0,"TOWNNAME":"歸仁區","LI":"八甲里","LIN":"5鄰","STREET":"大光街","SECT":" ","MAREA":" ","LANE":" ","ALLEY":" ","HOUSE_NO":"７７號","E_COORD97":177970.67000000001,"N_COORD97":2541748.6099999999,"ADDRESS":"大光街７７號","OBJECTID":468315},"geometry":{"x":177970.66999999993,"y":2541748.6100000013}},{"attributes":{"ID":468341,"DIS_CODE":0,"TOWNNAME":"歸仁區","LI":"八甲里","LIN":"5鄰","STREET":"大明一街","SECT":" ","MAREA":" ","LANE":" ","ALLEY":" ","HOUSE_NO":"３７號","E_COORD97":177913.51999999999,"N_COORD97":2541762.6099999999,"ADDRESS":"大明一街３７號","OBJECTID":468316},"geometry":{"x":177913.51999999955,"y":2541762.6100000013}},{"attributes":{"ID":468342,"DIS_CODE":0,"TOWNNAME":"歸仁區","LI":"六甲里","LIN":"5鄰","STREET":"中正十五街","SECT":" ","MAREA":" ","LANE":" ","ALLEY":" ","HOUSE_NO":"３２號","E_COORD97":176430.60999999999,"N_COORD97":2539443.25,"ADDRESS":"中正十五街３２號","OBJECTID":468317},"geometry":{"x":176430.61000000034,"y":2539443.2500000019}},{"attributes":{"ID":468343,"DIS_CODE":0,"TOWNNAME":"歸仁區","LI":"八甲里","LIN":"5鄰","STREET":"大明一街","SECT":" ","MAREA":" ","LANE":" ","ALLEY":" ","HOUSE_NO":"３５號","E_COORD97":177913.62,"N_COORD97":2541766.6099999999,"ADDRESS":"大明一街３５號","OBJECTID":468318},"geometry":{"x":177913.62000000011,"y":2541766.6099999994}},{"attributes":{"ID":468344,"DIS_CODE":0,"TOWNNAME":"歸仁區","LI":"武東里","LIN":"5鄰","STREET":"武東二街","SECT":" ","MAREA":" ","LANE":" ","ALLEY":" ","HOUSE_NO":"２９號","E_COORD97":175478.04000000001,"N_COORD97":2535365.25,"ADDRESS":"武東二街２９號","OBJECTID":468319},"geometry":{"x":175478.04000000004,"y":2535365.25}},{"attributes":{"ID":468345,"DIS_CODE":0,"TOWNNAME":"歸仁區","LI":"武東里","LIN":"5鄰","STREET":"中正南路","SECT":"二段","MAREA":" ","LANE":" ","ALLEY":" ","HOUSE_NO":"２０３號","E_COORD97":175459.31,"N_COORD97":2535395.2799999998,"ADDRESS":"中正南路二段２０３號","OBJECTID":468320},"geometry":{"x":175459.30999999866,"y":2535395.2799999993}},{"attributes":{"ID":468346,"DIS_CODE":0,"TOWNNAME":"歸仁區","LI":"八甲里","LIN":"5鄰","STREET":"大光二街","SECT":" ","MAREA":" ","LANE":" ","ALLEY":" ","HOUSE_NO":"２２號","E_COORD97":177936.01999999999,"N_COORD97":2541740.6099999999,"ADDRESS":"大光二街２２號","OBJECTID":468321},"geometry":{"x":177936.01999999955,"y":2541740.6099999994}},{"attributes":{"ID":468347,"DIS_CODE":0,"TOWNNAME":"歸仁區","LI":"八甲里","LIN":"5鄰","STREET":"大明街","SECT":" ","MAREA":" ","LANE":" ","ALLEY":" ","HOUSE_NO":"７２號","E_COORD97":177989.57000000001,"N_COORD97":2541847.6099999999,"ADDRESS":"大明街７２號","OBJECTID":468322},"geometry":{"x":177989.57000000123,"y":2541847.6100000013}},{"attributes":{"ID":468348,"DIS_CODE":0,"TOWNNAME":"歸仁區","LI":"八甲里","LIN":"5鄰","STREET":"大明街","SECT":" ","MAREA":" ","LANE":" ","ALLEY":" ","HOUSE_NO":"６６號","E_COORD97":177959.87,"N_COORD97":2541850.6099999999,"ADDRESS":"大明街６６號","OBJECTID":468323},"geometry":{"x":177959.86999999918,"y":2541850.6100000013}},{"attributes":{"ID":468349,"DIS_CODE":0,"TOWNNAME":"歸仁區","LI":"文化里","LIN":"5鄰","STREET":"國光街","SECT":" ","MAREA":" ","LANE":" ","ALLEY":" ","HOUSE_NO":"１８７號","E_COORD97":177341.85999999999,"N_COORD97":2541319.3300000001,"ADDRESS":"國光街１８７號","OBJECTID":468324},"geometry":{"x":177341.86000000127,"y":2541319.3300000001}},{"attributes":{"ID":468350,"DIS_CODE":0,"TOWNNAME":"歸仁區","LI":"八甲里","LIN":"5鄰","STREET":"大明街","SECT":" ","MAREA":" ","LANE":" ","ALLEY":" ","HOUSE_NO":"６４號","E_COORD97":177952.67000000001,"N_COORD97":2541852.6099999999,"ADDRESS":"大明街６４號","OBJECTID":468325},"geometry":{"x":177952.67000000179,"y":2541852.6099999994}},{"attributes":{"ID":468351,"DIS_CODE":0,"TOWNNAME":"北區","LI":"國姓里","LIN":"5鄰","STREET":"西門路","SECT":"四段","MAREA":" ","LANE":" ","ALLEY":" ","HOUSE_NO":"１５８號","E_COORD97":168807.45999999999,"N_COORD97":2545529.5499999998,"ADDRESS":"西門路四段１５８號","OBJECTID":468326},"geometry":{"x":168807.46000000089,"y":2545529.5500000007}},{"attributes":{"ID":468352,"DIS_CODE":0,"TOWNNAME":"北區","LI":"正風里","LIN":"5鄰","STREET":"公園路","SECT":" ","MAREA":" ","LANE":" ","ALLEY":" ","HOUSE_NO":"９４２之１號","E_COORD97":169426.73000000001,"N_COORD97":2546221.0299999998,"ADDRESS":"公園路９４２之１號","OBJECTID":468327},"geometry":{"x":169426.73000000138,"y":2546221.0300000012}},{"attributes":{"ID":468353,"DIS_CODE":0,"TOWNNAME":"柳營區","LI":"人和里","LIN":"5鄰","STREET":"界和路","SECT":" ","MAREA":" ","LANE":" ","ALLEY":" ","HOUSE_NO":"３５１號","E_COORD97":178637.01000000001,"N_COORD97":2575980.6400000001,"ADDRESS":"界和路３５１號","OBJECTID":468328},"geometry":{"x":178637.01000000071,"y":2575980.6400000006}},{"attributes":{"ID":468354,"DIS_CODE":0,"TOWNNAME":"柳營區","LI":"中埕里","LIN":"5鄰","STREET":"建安街","SECT":" ","MAREA":" ","LANE":" ","ALLEY":" ","HOUSE_NO":"１１２號","E_COORD97":179945.04000000001,"N_COORD97":2575036.3300000001,"ADDRESS":"建安街１１２號","OBJECTID":468329},"geometry":{"x":179945.04000000004,"y":2575036.3300000001}},{"attributes":{"ID":468355,"DIS_CODE":0,"TOWNNAME":"柳營區","LI":"中埕里","LIN":"5鄰","STREET":"建安街","SECT":" ","MAREA":" ","LANE":" ","ALLEY":" ","HOUSE_NO":"１１６號","E_COORD97":179944.79000000001,"N_COORD97":2575040.77,"ADDRESS":"建安街１１６號","OBJECTID":468330},"geometry":{"x":179944.79000000004,"y":2575040.7700000033}},{"attributes":{"ID":468356,"DIS_CODE":0,"TOWNNAME":"柳營區","LI":"中埕里","LIN":"5鄰","STREET":"建安街","SECT":" ","MAREA":" ","LANE":" ","ALLEY":" ","HOUSE_NO":"１１８號","E_COORD97":179944.53,"N_COORD97":2575045.2000000002,"ADDRESS":"建安街１１８號","OBJECTID":468331},"geometry":{"x":179944.53000000119,"y":2575045.2000000011}},{"attributes":{"ID":468357,"DIS_CODE":0,"TOWNNAME":"柳營區","LI":"中埕里","LIN":"5鄰","STREET":"建安街","SECT":" ","MAREA":" ","LANE":" ","ALLEY":" ","HOUSE_NO":"１２０號","E_COORD97":179944.28,"N_COORD97":2575049.6400000001,"ADDRESS":"建安街１２０號","OBJECTID":468332},"geometry":{"x":179944.28000000119,"y":2575049.6400000025}},{"attributes":{"ID":468358,"DIS_CODE":0,"TOWNNAME":"柳營區","LI":"中埕里","LIN":"5鄰","STREET":"建安街","SECT":" ","MAREA":" ","LANE":" ","ALLEY":" ","HOUSE_NO":"１２２號","E_COORD97":179944.01999999999,"N_COORD97":2575054.0699999998,"ADDRESS":"建安街１２２號","OBJECTID":468333},"geometry":{"x":179944.02000000048,"y":2575054.0700000022}},{"attributes":{"ID":468359,"DIS_CODE":0,"TOWNNAME":"柳營區","LI":"中埕里","LIN":"5鄰","STREET":"建安街","SECT":" ","MAREA":" ","LANE":" ","ALLEY":" ","HOUSE_NO":"１２６號","E_COORD97":179943.76000000001,"N_COORD97":2575058.5,"ADDRESS":"建安街１２６號","OBJECTID":468334},"geometry":{"x":179943.76000000164,"y":2575058.5}},{"attributes":{"ID":468360,"DIS_CODE":0,"TOWNNAME":"柳營區","LI":"中埕里","LIN":"5鄰","STREET":"建安街","SECT":" ","MAREA":" ","LANE":" ","ALLEY":" ","HOUSE_NO":"１２８號","E_COORD97":179943.51000000001,"N_COORD97":2575062.9399999999,"ADDRESS":"建安街１２８號","OBJECTID":468335},"geometry":{"x":179943.50999999978,"y":2575062.9400000032}},{"attributes":{"ID":468361,"DIS_CODE":0,"TOWNNAME":"柳營區","LI":"中埕里","LIN":"5鄰","STREET":"建安街","SECT":" ","MAREA":" ","LANE":" ","ALLEY":" ","HOUSE_NO":"１３０號","E_COORD97":179943.25,"N_COORD97":2575067.3700000001,"ADDRESS":"建安街１３０號","OBJECTID":468336},"geometry":{"x":179943.25,"y":2575067.370000001}},{"attributes":{"ID":468362,"DIS_CODE":0,"TOWNNAME":"柳營區","LI":"光福里","LIN":"5鄰","STREET":"柳營路","SECT":"二段","MAREA":" ","LANE":" ","ALLEY":" ","HOUSE_NO":"６號","E_COORD97":179685.98999999999,"N_COORD97":2575107.6299999999,"ADDRESS":"柳營路二段６號","OBJECTID":468337},"geometry":{"x":179685.99000000022,"y":2575107.629999999}},{"attributes":{"ID":468363,"DIS_CODE":0,"TOWNNAME":"柳營區","LI":"人和里","LIN":"5鄰","STREET":"界和路","SECT":" ","MAREA":" ","LANE":" ","ALLEY":" ","HOUSE_NO":"１００號","E_COORD97":178609.39999999999,"N_COORD97":2576131.9399999999,"ADDRESS":"界和路１００號","OBJECTID":468338},"geometry":{"x":178609.40000000224,"y":2576131.9400000013}},{"attributes":{"ID":468364,"DIS_CODE":0,"TOWNNAME":"柳營區","LI":"人和里","LIN":"5鄰","STREET":"界和路","SECT":" ","MAREA":" ","LANE":" ","ALLEY":" ","HOUSE_NO":"１０２號","E_COORD97":178606.89000000001,"N_COORD97":2576135.3999999999,"ADDRESS":"界和路１０２號","OBJECTID":468339},"geometry":{"x":178606.89000000153,"y":2576135.3999999985}},{"attributes":{"ID":468365,"DIS_CODE":0,"TOWNNAME":"柳營區","LI":"人和里","LIN":"5鄰","STREET":"界和路","SECT":" ","MAREA":" ","LANE":" ","ALLEY":" ","HOUSE_NO":"１０６號","E_COORD97":178603.56,"N_COORD97":2576139.48,"ADDRESS":"界和路１０６號","OBJECTID":468340},"geometry":{"x":178603.55999999959,"y":2576139.4800000023}},{"attributes":{"ID":468366,"DIS_CODE":0,"TOWNNAME":"柳營區","LI":"人和里","LIN":"5鄰","STREET":"界和路","SECT":" ","MAREA":" ","LANE":" ","ALLEY":" ","HOUSE_NO":"１０８號","E_COORD97":178601.87,"N_COORD97":2576142.3199999998,"ADDRESS":"界和路１０８號","OBJECTID":468341},"geometry":{"x":178601.87000000011,"y":2576142.3200000003}},{"attributes":{"ID":468367,"DIS_CODE":0,"TOWNNAME":"柳營區","LI":"人和里","LIN":"5鄰","STREET":"界和路","SECT":" ","MAREA":" ","LANE":" ","ALLEY":" ","HOUSE_NO":"１１８號","E_COORD97":178596.39000000001,"N_COORD97":2576160.0299999998,"ADDRESS":"界和路１１８號","OBJECTID":468342},"geometry":{"x":178596.38999999966,"y":2576160.0299999993}},{"attributes":{"ID":468368,"DIS_CODE":0,"TOWNNAME":"柳營區","LI":"人和里","LIN":"5鄰","STREET":"界和路","SECT":" ","MAREA":" ","LANE":" ","ALLEY":" ","HOUSE_NO":"１７號","E_COORD97":178646.69,"N_COORD97":2576024.3300000001,"ADDRESS":"界和路１７號","OBJECTID":468343},"geometry":{"x":178646.69000000134,"y":2576024.3300000019}},{"attributes":{"ID":468369,"DIS_CODE":0,"TOWNNAME":"柳營區","LI":"人和里","LIN":"5鄰","STREET":"界和路","SECT":" ","MAREA":" ","LANE":" ","ALLEY":" ","HOUSE_NO":"３１號","E_COORD97":178647.57000000001,"N_COORD97":2576044.6299999999,"ADDRESS":"界和路３１號","OBJECTID":468344},"geometry":{"x":178647.57000000123,"y":2576044.6300000027}},{"attributes":{"ID":468370,"DIS_CODE":0,"TOWNNAME":"柳營區","LI":"人和里","LIN":"5鄰","STREET":"界和路","SECT":" ","MAREA":" ","LANE":" ","ALLEY":" ","HOUSE_NO":"３４７號","E_COORD97":178619.06,"N_COORD97":2575982.5899999999,"ADDRESS":"界和路３４７號","OBJECTID":468345},"geometry":{"x":178619.05999999959,"y":2575982.5900000017}},{"attributes":{"ID":468371,"DIS_CODE":0,"TOWNNAME":"柳營區","LI":"人和里","LIN":"5鄰","STREET":"界和路","SECT":" ","MAREA":" ","LANE":" ","ALLEY":" ","HOUSE_NO":"３５３號","E_COORD97":178636.20999999999,"N_COORD97":2575990.7999999998,"ADDRESS":"界和路３５３號","OBJECTID":468346},"geometry":{"x":178636.21000000089,"y":2575990.8000000045}},{"attributes":{"ID":468372,"DIS_CODE":0,"TOWNNAME":"柳營區","LI":"人和里","LIN":"5鄰","STREET":"界和路","SECT":" ","MAREA":" ","LANE":" ","ALLEY":" ","HOUSE_NO":"３５５號","E_COORD97":178639.53,"N_COORD97":2575994.23,"ADDRESS":"界和路３５５號","OBJECTID":468347},"geometry":{"x":178639.53000000119,"y":2575994.2299999986}},{"attributes":{"ID":468373,"DIS_CODE":0,"TOWNNAME":"柳營區","LI":"人和里","LIN":"5鄰","STREET":"界和路","SECT":" ","MAREA":" ","LANE":" ","ALLEY":" ","HOUSE_NO":"３６９號","E_COORD97":178666.13,"N_COORD97":2576007.5499999998,"ADDRESS":"界和路３６９號","OBJECTID":468348},"geometry":{"x":178666.12999999989,"y":2576007.5500000026}},{"attributes":{"ID":468374,"DIS_CODE":0,"TOWNNAME":"柳營區","LI":"人和里","LIN":"5鄰","STREET":"界和路","SECT":" ","MAREA":" ","LANE":" ","ALLEY":" ","HOUSE_NO":"４７號","E_COORD97":178608.31,"N_COORD97":2576064.9900000002,"ADDRESS":"界和路４７號","OBJECTID":468349},"geometry":{"x":178608.30999999959,"y":2576064.9900000021}},{"attributes":{"ID":468375,"DIS_CODE":0,"TOWNNAME":"柳營區","LI":"人和里","LIN":"5鄰","STREET":"界和路","SECT":" ","MAREA":" ","LANE":" ","ALLEY":" ","HOUSE_NO":"８號","E_COORD97":178703.60999999999,"N_COORD97":2576028.3599999999,"ADDRESS":"界和路８號","OBJECTID":468350},"geometry":{"x":178703.61000000034,"y":2576028.3599999994}},{"attributes":{"ID":468376,"DIS_CODE":0,"TOWNNAME":"柳營區","LI":"人和里","LIN":"5鄰","STREET":"界和路","SECT":" ","MAREA":" ","LANE":" ","ALLEY":" ","HOUSE_NO":"９２號","E_COORD97":178616.92999999999,"N_COORD97":2576121.5499999998,"ADDRESS":"界和路９２號","OBJECTID":468351},"geometry":{"x":178616.93000000156,"y":2576121.5500000045}},{"attributes":{"ID":468377,"DIS_CODE":0,"TOWNNAME":"柳營區","LI":"人和里","LIN":"5鄰","STREET":"界和路","SECT":" ","MAREA":" ","LANE":" ","ALLEY":" ","HOUSE_NO":"９６號","E_COORD97":178614.42000000001,"N_COORD97":2576125.02,"ADDRESS":"界和路９６號","OBJECTID":468352},"geometry":{"x":178614.42000000086,"y":2576125.0200000014}},{"attributes":{"ID":468378,"DIS_CODE":0,"TOWNNAME":"柳營區","LI":"人和里","LIN":"5鄰","STREET":"界和路","SECT":" ","MAREA":" ","LANE":" ","ALLEY":" ","HOUSE_NO":"９８號","E_COORD97":178611.91,"N_COORD97":2576128.48,"ADDRESS":"界和路９８號","OBJECTID":468353},"geometry":{"x":178611.91000000015,"y":2576128.4800000042}},{"attributes":{"ID":468379,"DIS_CODE":0,"TOWNNAME":"柳營區","LI":"士林里","LIN":"5鄰","STREET":"進學一街","SECT":" ","MAREA":" ","LANE":" ","ALLEY":" ","HOUSE_NO":"４８號","E_COORD97":179394.23000000001,"N_COORD97":2574999.3399999999,"ADDRESS":"進學一街４８號","OBJECTID":468354},"geometry":{"x":179394.23000000138,"y":2574999.3399999999}},{"attributes":{"ID":468380,"DIS_CODE":0,"TOWNNAME":"柳營區","LI":"大農里","LIN":"5鄰","STREET":"義士路","SECT":"一段","MAREA":" ","LANE":" ","ALLEY":" ","HOUSE_NO":"３４１號","E_COORD97":186148.63,"N_COORD97":2575717.3399999999,"ADDRESS":"義士路一段３４１號","OBJECTID":468355},"geometry":{"x":186148.62999999989,"y":2575717.3399999999}},{"attributes":{"ID":468381,"DIS_CODE":0,"TOWNNAME":"柳營區","LI":"大農里","LIN":"5鄰","STREET":"義士路","SECT":"一段","MAREA":" ","LANE":" ","ALLEY":" ","HOUSE_NO":"３４５號","E_COORD97":186139.29000000001,"N_COORD97":2575708.9700000002,"ADDRESS":"義士路一段３４５號","OBJECTID":468356},"geometry":{"x":186139.29000000004,"y":2575708.9700000025}},{"attributes":{"ID":468382,"DIS_CODE":0,"TOWNNAME":"柳營區","LI":"大農里","LIN":"5鄰","STREET":"義士路","SECT":"一段","MAREA":" ","LANE":" ","ALLEY":" ","HOUSE_NO":"３４７號","E_COORD97":186133.14000000001,"N_COORD97":2575706.3199999998,"ADDRESS":"義士路一段３４７號","OBJECTID":468357},"geometry":{"x":186133.13999999966,"y":2575706.3200000022}},{"attributes":{"ID":468383,"DIS_CODE":0,"TOWNNAME":"柳營區","LI":"大農里","LIN":"5鄰","STREET":"義士路","SECT":"一段","MAREA":" ","LANE":" ","ALLEY":" ","HOUSE_NO":"３５３號","E_COORD97":186126.88,"N_COORD97":2575700.2999999998,"ADDRESS":"義士路一段３５３號","OBJECTID":468358},"geometry":{"x":186126.87999999989,"y":2575700.3000000026}},{"attributes":{"ID":468384,"DIS_CODE":0,"TOWNNAME":"柳營區","LI":"大農里","LIN":"5鄰","STREET":"義士路","SECT":"一段","MAREA":" ","LANE":" ","ALLEY":" ","HOUSE_NO":"３５７號","E_COORD97":186118.44,"N_COORD97":2575697.0499999998,"ADDRESS":"義士路一段３５７號","OBJECTID":468359},"geometry":{"x":186118.44000000041,"y":2575697.0500000007}},{"attributes":{"ID":468385,"DIS_CODE":0,"TOWNNAME":"柳營區","LI":"大農里","LIN":"5鄰","STREET":"義士路","SECT":"一段","MAREA":" ","LANE":" ","ALLEY":" ","HOUSE_NO":"３５９號","E_COORD97":186113.92999999999,"N_COORD97":2575695.5800000001,"ADDRESS":"義士路一段３５９號","OBJECTID":468360},"geometry":{"x":186113.9299999997,"y":2575695.5800000001}},{"attributes":{"ID":468386,"DIS_CODE":0,"TOWNNAME":"柳營區","LI":"大農里","LIN":"5鄰","STREET":"義士路","SECT":"一段","MAREA":" ","LANE":" ","ALLEY":" ","HOUSE_NO":"３６１號","E_COORD97":186109.5,"N_COORD97":2575694.0899999999,"ADDRESS":"義士路一段３６１號","OBJECTID":468361},"geometry":{"x":186109.50000000186,"y":2575694.0900000017}},{"attributes":{"ID":468387,"DIS_CODE":0,"TOWNNAME":"柳營區","LI":"大農里","LIN":"5鄰","STREET":"義士路","SECT":"一段","MAREA":" ","LANE":" ","ALLEY":" ","HOUSE_NO":"３６３號","E_COORD97":186105.07999999999,"N_COORD97":2575691.9900000002,"ADDRESS":"義士路一段３６３號","OBJECTID":468362},"geometry":{"x":186105.08000000007,"y":2575691.9900000021}},{"attributes":{"ID":468388,"DIS_CODE":0,"TOWNNAME":"北區","LI":"實踐里","LIN":"5鄰","STREET":"大武街","SECT":" ","MAREA":" ","LANE":" ","ALLEY":" ","HOUSE_NO":"１３８號","E_COORD97":169634.97,"N_COORD97":2545955.8500000001,"ADDRESS":"大武街１３８號","OBJECTID":468363},"geometry":{"x":169634.96999999974,"y":2545955.8499999996}},{"attributes":{"ID":468389,"DIS_CODE":0,"TOWNNAME":"麻豆區","LI":"興農里","LIN":"5鄰","STREET":"和平路","SECT":" ","MAREA":" ","LANE":" ","ALLEY":" ","HOUSE_NO":"４６號","E_COORD97":172370.70999999999,"N_COORD97":2564263.29,"ADDRESS":"和平路４６號","OBJECTID":468364},"geometry":{"x":172370.71000000089,"y":2564263.290000001}},{"attributes":{"ID":468390,"DIS_CODE":0,"TOWNNAME":"北區","LI":"玉皇里","LIN":"5鄰","STREET":"崇安街","SECT":" ","MAREA":" ","LANE":" ","ALLEY":" ","HOUSE_NO":"８１號","E_COORD97":168731.35000000001,"N_COORD97":2544589.8999999999,"ADDRESS":"崇安街８１號","OBJECTID":468365},"geometry":{"x":168731.35000000056,"y":2544589.9000000004}},{"attributes":{"ID":468391,"DIS_CODE":0,"TOWNNAME":"北區","LI":"玉皇里","LIN":"5鄰","STREET":"崇安街","SECT":" ","MAREA":" ","LANE":" ","ALLEY":" ","HOUSE_NO":"８３號","E_COORD97":168734.51000000001,"N_COORD97":2544592.0899999999,"ADDRESS":"崇安街８３號","OBJECTID":468366},"geometry":{"x":168734.50999999978,"y":2544592.0899999999}},{"attributes":{"ID":468392,"DIS_CODE":0,"TOWNNAME":"北區","LI":"玉皇里","LIN":"5鄰","STREET":"崇安街","SECT":" ","MAREA":" ","LANE":" ","ALLEY":" ","HOUSE_NO":"８７號","E_COORD97":168738.82000000001,"N_COORD97":2544598.8300000001,"ADDRESS":"崇安街８７號","OBJECTID":468367},"geometry":{"x":168738.82000000123,"y":2544598.8300000019}},{"attributes":{"ID":468393,"DIS_CODE":0,"TOWNNAME":"北區","LI":"玉皇里","LIN":"5鄰","STREET":"崇安街","SECT":" ","MAREA":" ","LANE":" ","ALLEY":" ","HOUSE_NO":"８９號","E_COORD97":168740.53,"N_COORD97":2544601.6699999999,"ADDRESS":"崇安街８９號","OBJECTID":468368},"geometry":{"x":168740.53000000212,"y":2544601.6699999999}},{"attributes":{"ID":468394,"DIS_CODE":0,"TOWNNAME":"北區","LI":"玉皇里","LIN":"5鄰","STREET":"福德街","SECT":" ","MAREA":" ","LANE":" ","ALLEY":" ","HOUSE_NO":"１２號","E_COORD97":168717.78,"N_COORD97":2544581.5800000001,"ADDRESS":"福德街１２號","OBJECTID":468369},"geometry":{"x":168717.78000000026,"y":2544581.5800000001}},{"attributes":{"ID":468395,"DIS_CODE":0,"TOWNNAME":"北區","LI":"玉皇里","LIN":"5鄰","STREET":"福德街","SECT":" ","MAREA":" ","LANE":" ","ALLEY":" ","HOUSE_NO":"１４號","E_COORD97":168719.85000000001,"N_COORD97":2544585.7200000002,"ADDRESS":"福德街１４號","OBJECTID":468370},"geometry":{"x":168719.85000000056,"y":2544585.7200000007}},{"attributes":{"ID":468396,"DIS_CODE":0,"TOWNNAME":"北區","LI":"玉皇里","LIN":"5鄰","STREET":"福德街","SECT":" ","MAREA":" ","LANE":" ","ALLEY":" ","HOUSE_NO":"１６號","E_COORD97":168721.32999999999,"N_COORD97":2544590.3799999999,"ADDRESS":"福德街１６號","OBJECTID":468371},"geometry":{"x":168721.33000000194,"y":2544590.3800000027}},{"attributes":{"ID":468397,"DIS_CODE":0,"TOWNNAME":"北區","LI":"玉皇里","LIN":"5鄰","STREET":"福德街","SECT":" ","MAREA":" ","LANE":" ","ALLEY":" ","HOUSE_NO":"２４號","E_COORD97":168726.97,"N_COORD97":2544606.0299999998,"ADDRESS":"福德街２４號","OBJECTID":468372},"geometry":{"x":168726.9700000016,"y":2544606.0299999993}},{"attributes":{"ID":468398,"DIS_CODE":0,"TOWNNAME":"北區","LI":"玉皇里","LIN":"5鄰","STREET":"福德街","SECT":" ","MAREA":" ","LANE":" ","ALLEY":" ","HOUSE_NO":"２６號","E_COORD97":168728.53,"N_COORD97":2544610.8199999998,"ADDRESS":"福德街２６號","OBJECTID":468373},"geometry":{"x":168728.53000000026,"y":2544610.8200000003}},{"attributes":{"ID":468399,"DIS_CODE":0,"TOWNNAME":"北區","LI":"玉皇里","LIN":"5鄰","STREET":"福德街","SECT":" ","MAREA":" ","LANE":" ","ALLEY":" ","HOUSE_NO":"２６號之１","E_COORD97":168732.84,"N_COORD97":2544621.6899999999,"ADDRESS":"福德街２６號之１","OBJECTID":468374},"geometry":{"x":168732.83999999892,"y":2544621.6899999995}},{"attributes":{"ID":468400,"DIS_CODE":0,"TOWNNAME":"北區","LI":"玉皇里","LIN":"5鄰","STREET":"公園南路","SECT":" ","MAREA":" ","LANE":" ","ALLEY":" ","HOUSE_NO":"１３７號","E_COORD97":168752.04000000001,"N_COORD97":2544639.0499999998,"ADDRESS":"公園南路１３７號","OBJECTID":468375},"geometry":{"x":168752.03999999911,"y":2544639.0500000026}},{"attributes":{"ID":468401,"DIS_CODE":0,"TOWNNAME":"北區","LI":"玉皇里","LIN":"5鄰","STREET":"公園南路","SECT":" ","MAREA":" ","LANE":" ","ALLEY":" ","HOUSE_NO":"１３９號","E_COORD97":168748.51999999999,"N_COORD97":2544640.3900000001,"ADDRESS":"公園南路１３９號","OBJECTID":468376},"geometry":{"x":168748.52000000048,"y":2544640.3900000025}},{"attributes":{"ID":468402,"DIS_CODE":0,"TOWNNAME":"北區","LI":"玉皇里","LIN":"5鄰","STREET":"公園南路","SECT":" ","MAREA":" ","LANE":" ","ALLEY":" ","HOUSE_NO":"１４１號","E_COORD97":168744.5,"N_COORD97":2544642.71,"ADDRESS":"公園南路１４１號","OBJECTID":468377},"geometry":{"x":168744.50000000093,"y":2544642.7100000009}},{"attributes":{"ID":468403,"DIS_CODE":0,"TOWNNAME":"北區","LI":"玉皇里","LIN":"5鄰","STREET":"公園南路","SECT":" ","MAREA":" ","LANE":" ","ALLEY":" ","HOUSE_NO":"１２７號","E_COORD97":168780.48999999999,"N_COORD97":2544631.4700000002,"ADDRESS":"公園南路１２７號","OBJECTID":468378},"geometry":{"x":168780.49000000115,"y":2544631.4700000007}},{"attributes":{"ID":468404,"DIS_CODE":0,"TOWNNAME":"北區","LI":"玉皇里","LIN":"5鄰","STREET":"公園南路","SECT":" ","MAREA":" ","LANE":" ","ALLEY":" ","HOUSE_NO":"１２９號","E_COORD97":168767.51000000001,"N_COORD97":2544634.9500000002,"ADDRESS":"公園南路１２９號","OBJECTID":468379},"geometry":{"x":168767.51000000071,"y":2544634.9500000011}},{"attributes":{"ID":468405,"DIS_CODE":0,"TOWNNAME":"北區","LI":"玉皇里","LIN":"5鄰","STREET":"崇安街","SECT":" ","MAREA":" ","LANE":" ","ALLEY":" ","HOUSE_NO":"１０１號","E_COORD97":168766.22,"N_COORD97":2544592.5699999998,"ADDRESS":"崇安街１０１號","OBJECTID":468380},"geometry":{"x":168766.22000000067,"y":2544592.5700000003}},{"attributes":{"ID":468406,"DIS_CODE":0,"TOWNNAME":"北區","LI":"玉皇里","LIN":"5鄰","STREET":"崇安街","SECT":" ","MAREA":" ","LANE":" ","ALLEY":" ","HOUSE_NO":"１０９號","E_COORD97":168778.35000000001,"N_COORD97":2544593.3300000001,"ADDRESS":"崇安街１０９號","OBJECTID":468381},"geometry":{"x":168778.3499999987,"y":2544593.3300000019}},{"attributes":{"ID":468407,"DIS_CODE":0,"TOWNNAME":"北區","LI":"玉皇里","LIN":"5鄰","STREET":"崇安街","SECT":" ","MAREA":" ","LANE":" ","ALLEY":" ","HOUSE_NO":"１１１號","E_COORD97":168780.67999999999,"N_COORD97":2544595.0099999998,"ADDRESS":"崇安街１１１號","OBJECTID":468382},"geometry":{"x":168780.6799999997,"y":2544595.0100000016}},{"attributes":{"ID":468408,"DIS_CODE":0,"TOWNNAME":"北區","LI":"玉皇里","LIN":"5鄰","STREET":"崇安街","SECT":" ","MAREA":" ","LANE":" ","ALLEY":" ","HOUSE_NO":"１１３號","E_COORD97":168785.23000000001,"N_COORD97":2544596.4700000002,"ADDRESS":"崇安街１１３號","OBJECTID":468383},"geometry":{"x":168785.23000000231,"y":2544596.4700000007}},{"attributes":{"ID":468409,"DIS_CODE":0,"TOWNNAME":"北區","LI":"玉皇里","LIN":"5鄰","STREET":"崇安街","SECT":" ","MAREA":" ","LANE":" ","ALLEY":" ","HOUSE_NO":"９１號","E_COORD97":168742.81,"N_COORD97":2544592.1600000001,"ADDRESS":"崇安街９１號","OBJECTID":468384},"geometry":{"x":168742.80999999959,"y":2544592.1600000001}},{"attributes":{"ID":468410,"DIS_CODE":0,"TOWNNAME":"麻豆區","LI":"興農里","LIN":"5鄰","STREET":"和平路","SECT":" ","MAREA":" ","LANE":" ","ALLEY":" ","HOUSE_NO":"４８號","E_COORD97":172416.72,"N_COORD97":2564302.48,"ADDRESS":"和平路４８號","OBJECTID":468385},"geometry":{"x":172416.71999999974,"y":2564302.4799999986}},{"attributes":{"ID":468411,"DIS_CODE":0,"TOWNNAME":"南區","LI":"金華里","LIN":"5鄰","STREET":"金華路","SECT":"二段","MAREA":" ","LANE":" ","ALLEY":" ","HOUSE_NO":"８７號","E_COORD97":167067.10000000001,"N_COORD97":2542226.3599999999,"ADDRESS":"金華路二段８７號","OBJECTID":468386},"geometry":{"x":167067.10000000056,"y":2542226.3599999994}},{"attributes":{"ID":468412,"DIS_CODE":0,"TOWNNAME":"北區","LI":"興南里","LIN":"5鄰","STREET":"公園北路","SECT":" ","MAREA":" ","LANE":" ","ALLEY":" ","HOUSE_NO":"１９５號","E_COORD97":168887.23000000001,"N_COORD97":2545036.2599999998,"ADDRESS":"公園北路１９５號","OBJECTID":468387},"geometry":{"x":168887.23000000138,"y":2545036.2600000016}},{"attributes":{"ID":468413,"DIS_CODE":0,"TOWNNAME":"北區","LI":"興南里","LIN":"5鄰","STREET":"公園北路","SECT":" ","MAREA":" ","LANE":" ","ALLEY":" ","HOUSE_NO":"１９７號","E_COORD97":168880.76000000001,"N_COORD97":2545038.98,"ADDRESS":"公園北路１９７號","OBJECTID":468388},"geometry":{"x":168880.75999999978,"y":2545038.9800000023}},{"attributes":{"ID":468414,"DIS_CODE":0,"TOWNNAME":"北區","LI":"興南里","LIN":"5鄰","STREET":"公園北路","SECT":" ","MAREA":" ","LANE":" ","ALLEY":" ","HOUSE_NO":"１９９號","E_COORD97":168854.56,"N_COORD97":2545028.9399999999,"ADDRESS":"公園北路１９９號","OBJECTID":468389},"geometry":{"x":168854.55999999959,"y":2545028.9400000013}},{"attributes":{"ID":468415,"DIS_CODE":0,"TOWNNAME":"歸仁區","LI":"文化里","LIN":"5鄰","STREET":"民權一街","SECT":" ","MAREA":" ","LANE":" ","ALLEY":" ","HOUSE_NO":"４０號","E_COORD97":177305.04999999999,"N_COORD97":2541337.3300000001,"ADDRESS":"民權一街４０號","OBJECTID":468390},"geometry":{"x":177305.04999999981,"y":2541337.3300000019}},{"attributes":{"ID":468416,"DIS_CODE":0,"TOWNNAME":"歸仁區","LI":"武東里","LIN":"5鄰","STREET":"武東二街","SECT":" ","MAREA":" ","LANE":" ","ALLEY":" ","HOUSE_NO":"４５號","E_COORD97":175461.64000000001,"N_COORD97":2535372.25,"ADDRESS":"武東二街４５號","OBJECTID":468391},"geometry":{"x":175461.63999999966,"y":2535372.25}},{"attributes":{"ID":468417,"DIS_CODE":0,"TOWNNAME":"歸仁區","LI":"八甲里","LIN":"5鄰","STREET":"大光街","SECT":" ","MAREA":" ","LANE":" ","ALLEY":" ","HOUSE_NO":"８３號","E_COORD97":177973.76999999999,"N_COORD97":2541762.6099999999,"ADDRESS":"大光街８３號","OBJECTID":468392},"geometry":{"x":177973.77000000048,"y":2541762.6100000013}},{"attributes":{"ID":468418,"DIS_CODE":0,"TOWNNAME":"歸仁區","LI":"八甲里","LIN":"5鄰","STREET":"大明一街","SECT":" ","MAREA":" ","LANE":" ","ALLEY":" ","HOUSE_NO":"７號","E_COORD97":177924.97,"N_COORD97":2541844.6099999999,"ADDRESS":"大明一街７號","OBJECTID":468393},"geometry":{"x":177924.9700000016,"y":2541844.6099999994}},{"attributes":{"ID":468419,"DIS_CODE":0,"TOWNNAME":"歸仁區","LI":"八甲里","LIN":"5鄰","STREET":"大明一街","SECT":" ","MAREA":" ","LANE":" ","ALLEY":" ","HOUSE_NO":"３３號","E_COORD97":177914.62,"N_COORD97":2541771.6099999999,"ADDRESS":"大明一街３３號","OBJECTID":468394},"geometry":{"x":177914.62000000104,"y":2541771.6100000031}},{"attributes":{"ID":468420,"DIS_CODE":0,"TOWNNAME":"歸仁區","LI":"南興里","LIN":"5鄰","STREET":"文化街","SECT":"三段","MAREA":" ","LANE":" ","ALLEY":" ","HOUSE_NO":"３４０號","E_COORD97":176234.44,"N_COORD97":2541204.3300000001,"ADDRESS":"文化街三段３４０號","OBJECTID":468395},"geometry":{"x":176234.44000000134,"y":2541204.3300000001}},{"attributes":{"ID":468421,"DIS_CODE":0,"TOWNNAME":"歸仁區","LI":"武東里","LIN":"5鄰","STREET":"中正南路","SECT":"二段","MAREA":" ","LANE":" ","ALLEY":" ","HOUSE_NO":"１９３號","E_COORD97":175470.81,"N_COORD97":2535451.2799999998,"ADDRESS":"中正南路二段１９３號","OBJECTID":468396},"geometry":{"x":175470.80999999959,"y":2535451.2800000012}},{"attributes":{"ID":468422,"DIS_CODE":0,"TOWNNAME":"歸仁區","LI":"八甲里","LIN":"5鄰","STREET":"大光街","SECT":" ","MAREA":" ","LANE":" ","ALLEY":" ","HOUSE_NO":"８７號","E_COORD97":177975.87,"N_COORD97":2541770.6099999999,"ADDRESS":"大光街８７號","OBJECTID":468397},"geometry":{"x":177975.87000000104,"y":2541770.6099999994}},{"attributes":{"ID":468423,"DIS_CODE":0,"TOWNNAME":"歸仁區","LI":"南興里","LIN":"5鄰","STREET":"文化街","SECT":"三段","MAREA":" ","LANE":" ","ALLEY":" ","HOUSE_NO":"３２８號","E_COORD97":176266.14000000001,"N_COORD97":2541203.3300000001,"ADDRESS":"文化街三段３２８號","OBJECTID":468398},"geometry":{"x":176266.1400000006,"y":2541203.3300000001}},{"attributes":{"ID":468424,"DIS_CODE":0,"TOWNNAME":"歸仁區","LI":"南興里","LIN":"5鄰","STREET":"文化街","SECT":"三段","MAREA":" ","LANE":" ","ALLEY":" ","HOUSE_NO":"３３２號","E_COORD97":176254.94,"N_COORD97":2541204.3300000001,"ADDRESS":"文化街三段３３２號","OBJECTID":468399},"geometry":{"x":176254.94000000134,"y":2541204.3300000001}},{"attributes":{"ID":468425,"DIS_CODE":0,"TOWNNAME":"歸仁區","LI":"南興里","LIN":"5鄰","STREET":"文化街","SECT":"三段","MAREA":" ","LANE":" ","ALLEY":" ","HOUSE_NO":"３３８號","E_COORD97":176239.54000000001,"N_COORD97":2541204.3300000001,"ADDRESS":"文化街三段３３８號","OBJECTID":468400},"geometry":{"x":176239.54000000004,"y":2541204.3300000001}}]}