{"displayFieldName":"TOWNNAME","fieldAliases":{"ID":"ID","DIS_CODE":"DIS_CODE","TOWNNAME":"TOWNNAME","LI":"LI","LIN":"LIN","STREET":"STREET","SECT":"SECT","MAREA":"MAREA","LANE":"LANE","ALLEY":"ALLEY","HOUSE_NO":"HOUSE_NO","E_COORD97":"E_COORD97","N_COORD97":"N_COORD97","ADDRESS":"ADDRESS","OBJECTID":"OBJECTID"},"geometryType":"esriGeometryPoint","spatialReference":{"wkid":102443,"latestWkid":3826},"fields":[{"name":"ID","type":"esriFieldTypeDouble","alias":"ID"},{"name":"DIS_CODE","type":"esriFieldTypeInteger","alias":"DIS_CODE"},{"name":"TOWNNAME","type":"esriFieldTypeString","alias":"TOWNNAME","length":8},{"name":"LI","type":"esriFieldTypeString","alias":"LI","length":8},{"name":"LIN","type":"esriFieldTypeString","alias":"LIN","length":12},{"name":"STREET","type":"esriFieldTypeString","alias":"STREET","length":20},{"name":"SECT","type":"esriFieldTypeString","alias":"SECT","length":8},{"name":"MAREA","type":"esriFieldTypeString","alias":"MAREA","length":12},{"name":"LANE","type":"esriFieldTypeString","alias":"LANE","length":10},{"name":"ALLEY","type":"esriFieldTypeString","alias":"ALLEY","length":10},{"name":"HOUSE_NO","type":"esriFieldTypeString","alias":"HOUSE_NO","length":20},{"name":"E_COORD97","type":"esriFieldTypeDouble","alias":"E_COORD97"},{"name":"N_COORD97","type":"esriFieldTypeDouble","alias":"N_COORD97"},{"name":"ADDRESS","type":"esriFieldTypeString","alias":"ADDRESS","length":50},{"name":"OBJECTID","type":"esriFieldTypeOID","alias":"OBJECTID"}],"features":[{"attributes":{"ID":390825,"DIS_CODE":0,"TOWNNAME":"東區","LI":"小東里","LIN":"33鄰","STREET":"東興路","SECT":" ","MAREA":" ","LANE":"２８４巷","ALLEY":" ","HOUSE_NO":"３４號","E_COORD97":171147.31,"N_COORD97":2543996.8100000001,"ADDRESS":"東興路２８４巷３４號","OBJECTID":390801},"geometry":{"x":171147.31000000052,"y":2543996.8100000024}},{"attributes":{"ID":390826,"DIS_CODE":0,"TOWNNAME":"東區","LI":"後甲里","LIN":"29鄰","STREET":"裕農路","SECT":" ","MAREA":" ","LANE":"６６１巷","ALLEY":" ","HOUSE_NO":"８號之２三樓之２","E_COORD97":171732.09,"N_COORD97":2543265.6499999999,"ADDRESS":"裕農路６６１巷８號之２三樓之２","OBJECTID":390802},"geometry":{"x":171732.09000000078,"y":2543265.6500000022}},{"attributes":{"ID":390827,"DIS_CODE":0,"TOWNNAME":"東區","LI":"後甲里","LIN":"29鄰","STREET":"裕農路","SECT":" ","MAREA":" ","LANE":"６６１巷","ALLEY":" ","HOUSE_NO":"８號之２四樓","E_COORD97":171732.09,"N_COORD97":2543265.6499999999,"ADDRESS":"裕農路６６１巷８號之２四樓","OBJECTID":390803},"geometry":{"x":171732.09000000078,"y":2543265.6500000022}},{"attributes":{"ID":390828,"DIS_CODE":0,"TOWNNAME":"東區","LI":"後甲里","LIN":"29鄰","STREET":"裕農路","SECT":" ","MAREA":" ","LANE":"６６１巷","ALLEY":" ","HOUSE_NO":"８號之２四樓之１","E_COORD97":171732.09,"N_COORD97":2543265.6499999999,"ADDRESS":"裕農路６６１巷８號之２四樓之１","OBJECTID":390804},"geometry":{"x":171732.09000000078,"y":2543265.6500000022}},{"attributes":{"ID":390829,"DIS_CODE":0,"TOWNNAME":"東區","LI":"虎尾里","LIN":"29鄰","STREET":"東成街","SECT":" ","MAREA":" ","LANE":"２００巷","ALLEY":" ","HOUSE_NO":"５６號五樓","E_COORD97":171868.17000000001,"N_COORD97":2542139.04,"ADDRESS":"東成街２００巷５６號五樓","OBJECTID":390805},"geometry":{"x":171868.16999999993,"y":2542139.040000001}},{"attributes":{"ID":390830,"DIS_CODE":0,"TOWNNAME":"東區","LI":"虎尾里","LIN":"29鄰","STREET":"東成街","SECT":" ","MAREA":" ","LANE":"２００巷","ALLEY":" ","HOUSE_NO":"５６號六樓","E_COORD97":171868.17000000001,"N_COORD97":2542139.04,"ADDRESS":"東成街２００巷５６號六樓","OBJECTID":390806},"geometry":{"x":171868.16999999993,"y":2542139.040000001}},{"attributes":{"ID":390831,"DIS_CODE":0,"TOWNNAME":"東區","LI":"虎尾里","LIN":"29鄰","STREET":"東成街","SECT":" ","MAREA":" ","LANE":"２００巷","ALLEY":" ","HOUSE_NO":"５６號四樓","E_COORD97":171868.17000000001,"N_COORD97":2542139.04,"ADDRESS":"東成街２００巷５６號四樓","OBJECTID":390807},"geometry":{"x":171868.16999999993,"y":2542139.040000001}},{"attributes":{"ID":390832,"DIS_CODE":0,"TOWNNAME":"東區","LI":"虎尾里","LIN":"29鄰","STREET":"東成街","SECT":" ","MAREA":" ","LANE":"２００巷","ALLEY":" ","HOUSE_NO":"５８號三樓","E_COORD97":171880.51999999999,"N_COORD97":2542142.5800000001,"ADDRESS":"東成街２００巷５８號三樓","OBJECTID":390808},"geometry":{"x":171880.51999999955,"y":2542142.5800000019}},{"attributes":{"ID":390833,"DIS_CODE":0,"TOWNNAME":"東區","LI":"虎尾里","LIN":"29鄰","STREET":"東成街","SECT":" ","MAREA":" ","LANE":"２００巷","ALLEY":" ","HOUSE_NO":"５８號六樓","E_COORD97":171880.51999999999,"N_COORD97":2542142.5800000001,"ADDRESS":"東成街２００巷５８號六樓","OBJECTID":390809},"geometry":{"x":171880.51999999955,"y":2542142.5800000019}},{"attributes":{"ID":390834,"DIS_CODE":0,"TOWNNAME":"東區","LI":"虎尾里","LIN":"29鄰","STREET":"東成街","SECT":" ","MAREA":" ","LANE":"２００巷","ALLEY":" ","HOUSE_NO":"６０號七樓","E_COORD97":171880.12,"N_COORD97":2542133.9199999999,"ADDRESS":"東成街２００巷６０號七樓","OBJECTID":390810},"geometry":{"x":171880.12000000104,"y":2542133.9200000018}},{"attributes":{"ID":390835,"DIS_CODE":0,"TOWNNAME":"東區","LI":"虎尾里","LIN":"29鄰","STREET":"東成街","SECT":" ","MAREA":" ","LANE":"２００巷","ALLEY":" ","HOUSE_NO":"６０號三樓","E_COORD97":171880.12,"N_COORD97":2542133.9199999999,"ADDRESS":"東成街２００巷６０號三樓","OBJECTID":390811},"geometry":{"x":171880.12000000104,"y":2542133.9200000018}},{"attributes":{"ID":390836,"DIS_CODE":0,"TOWNNAME":"東區","LI":"虎尾里","LIN":"29鄰","STREET":"東成街","SECT":" ","MAREA":" ","LANE":"２００巷","ALLEY":" ","HOUSE_NO":"６０號五樓","E_COORD97":171880.12,"N_COORD97":2542133.9199999999,"ADDRESS":"東成街２００巷６０號五樓","OBJECTID":390812},"geometry":{"x":171880.12000000104,"y":2542133.9200000018}},{"attributes":{"ID":390837,"DIS_CODE":0,"TOWNNAME":"東區","LI":"虎尾里","LIN":"29鄰","STREET":"東成街","SECT":" ","MAREA":" ","LANE":"２００巷","ALLEY":" ","HOUSE_NO":"６０號六樓","E_COORD97":171880.12,"N_COORD97":2542133.9199999999,"ADDRESS":"東成街２００巷６０號六樓","OBJECTID":390813},"geometry":{"x":171880.12000000104,"y":2542133.9200000018}},{"attributes":{"ID":390838,"DIS_CODE":0,"TOWNNAME":"東區","LI":"虎尾里","LIN":"29鄰","STREET":"東成街","SECT":" ","MAREA":" ","LANE":"２００巷","ALLEY":" ","HOUSE_NO":"５４號四樓","E_COORD97":171871.98000000001,"N_COORD97":2542145.6000000001,"ADDRESS":"東成街２００巷５４號四樓","OBJECTID":390814},"geometry":{"x":171871.98000000045,"y":2542145.6000000015}},{"attributes":{"ID":390839,"DIS_CODE":0,"TOWNNAME":"東區","LI":"虎尾里","LIN":"29鄰","STREET":"東成街","SECT":" ","MAREA":" ","LANE":"２００巷","ALLEY":" ","HOUSE_NO":"５４號七樓","E_COORD97":171871.98000000001,"N_COORD97":2542145.6000000001,"ADDRESS":"東成街２００巷５４號七樓","OBJECTID":390815},"geometry":{"x":171871.98000000045,"y":2542145.6000000015}},{"attributes":{"ID":390840,"DIS_CODE":0,"TOWNNAME":"東區","LI":"虎尾里","LIN":"29鄰","STREET":"東成街","SECT":" ","MAREA":" ","LANE":"２００巷","ALLEY":" ","HOUSE_NO":"５８號四樓","E_COORD97":171880.51999999999,"N_COORD97":2542142.5800000001,"ADDRESS":"東成街２００巷５８號四樓","OBJECTID":390816},"geometry":{"x":171880.51999999955,"y":2542142.5800000019}},{"attributes":{"ID":390841,"DIS_CODE":0,"TOWNNAME":"東區","LI":"虎尾里","LIN":"29鄰","STREET":"東成街","SECT":" ","MAREA":" ","LANE":"２００巷","ALLEY":" ","HOUSE_NO":"５８號五樓","E_COORD97":171880.51999999999,"N_COORD97":2542142.5800000001,"ADDRESS":"東成街２００巷５８號五樓","OBJECTID":390817},"geometry":{"x":171880.51999999955,"y":2542142.5800000019}},{"attributes":{"ID":390842,"DIS_CODE":0,"TOWNNAME":"東區","LI":"虎尾里","LIN":"29鄰","STREET":"東成街","SECT":" ","MAREA":" ","LANE":"２００巷","ALLEY":" ","HOUSE_NO":"５８號七樓","E_COORD97":171880.51999999999,"N_COORD97":2542142.5800000001,"ADDRESS":"東成街２００巷５８號七樓","OBJECTID":390818},"geometry":{"x":171880.51999999955,"y":2542142.5800000019}},{"attributes":{"ID":390843,"DIS_CODE":0,"TOWNNAME":"東區","LI":"虎尾里","LIN":"29鄰","STREET":"東成街","SECT":" ","MAREA":" ","LANE":"２００巷","ALLEY":" ","HOUSE_NO":"６０號四樓","E_COORD97":171880.12,"N_COORD97":2542133.9199999999,"ADDRESS":"東成街２００巷６０號四樓","OBJECTID":390819},"geometry":{"x":171880.12000000104,"y":2542133.9200000018}},{"attributes":{"ID":390844,"DIS_CODE":0,"TOWNNAME":"東區","LI":"東明里","LIN":"5鄰","STREET":"怡東路","SECT":" ","MAREA":" ","LANE":"７２巷","ALLEY":" ","HOUSE_NO":"２號","E_COORD97":170873.48999999999,"N_COORD97":2543624.23,"ADDRESS":"怡東路７２巷２號","OBJECTID":390820},"geometry":{"x":170873.49000000209,"y":2543624.2300000023}},{"attributes":{"ID":390845,"DIS_CODE":0,"TOWNNAME":"東區","LI":"莊敬里","LIN":"19鄰","STREET":"東光路","SECT":"二段","MAREA":" ","LANE":"３６巷","ALLEY":" ","HOUSE_NO":"３１號","E_COORD97":171327.51999999999,"N_COORD97":2544051.8399999999,"ADDRESS":"東光路二段３６巷３１號","OBJECTID":390821},"geometry":{"x":171327.52000000048,"y":2544051.8399999999}},{"attributes":{"ID":390846,"DIS_CODE":0,"TOWNNAME":"東區","LI":"莊敬里","LIN":"19鄰","STREET":"東光路","SECT":"二段","MAREA":" ","LANE":"３６巷","ALLEY":" ","HOUSE_NO":"３３號","E_COORD97":171326.07000000001,"N_COORD97":2544064.6600000001,"ADDRESS":"東光路二段３６巷３３號","OBJECTID":390822},"geometry":{"x":171326.07000000123,"y":2544064.660000002}},{"attributes":{"ID":390847,"DIS_CODE":0,"TOWNNAME":"東區","LI":"莊敬里","LIN":"19鄰","STREET":"東光路","SECT":"二段","MAREA":" ","LANE":"３６巷","ALLEY":" ","HOUSE_NO":"３５號","E_COORD97":171337.76999999999,"N_COORD97":2544067.6699999999,"ADDRESS":"東光路二段３６巷３５號","OBJECTID":390823},"geometry":{"x":171337.77000000048,"y":2544067.6700000018}},{"attributes":{"ID":390848,"DIS_CODE":0,"TOWNNAME":"東區","LI":"虎尾里","LIN":"29鄰","STREET":"東成街","SECT":" ","MAREA":" ","LANE":"２００巷","ALLEY":" ","HOUSE_NO":"３４號","E_COORD97":171870.54000000001,"N_COORD97":2542236.4300000002,"ADDRESS":"東成街２００巷３４號","OBJECTID":390824},"geometry":{"x":171870.54000000004,"y":2542236.4299999997}},{"attributes":{"ID":390849,"DIS_CODE":0,"TOWNNAME":"東區","LI":"虎尾里","LIN":"29鄰","STREET":"東成街","SECT":" ","MAREA":" ","LANE":"２００巷","ALLEY":" ","HOUSE_NO":"３６號","E_COORD97":171869.88,"N_COORD97":2542232.6200000001,"ADDRESS":"東成街２００巷３６號","OBJECTID":390825},"geometry":{"x":171869.87999999989,"y":2542232.6200000029}},{"attributes":{"ID":390850,"DIS_CODE":0,"TOWNNAME":"東區","LI":"虎尾里","LIN":"29鄰","STREET":"東成街","SECT":" ","MAREA":" ","LANE":"２００巷","ALLEY":" ","HOUSE_NO":"４號","E_COORD97":171866.62,"N_COORD97":2542296.5099999998,"ADDRESS":"東成街２００巷４號","OBJECTID":390826},"geometry":{"x":171866.62000000011,"y":2542296.5100000016}},{"attributes":{"ID":390851,"DIS_CODE":0,"TOWNNAME":"東區","LI":"虎尾里","LIN":"29鄰","STREET":"東成街","SECT":" ","MAREA":" ","LANE":"２００巷","ALLEY":" ","HOUSE_NO":"５０號","E_COORD97":171879.98999999999,"N_COORD97":2542167.3100000001,"ADDRESS":"東成街２００巷５０號","OBJECTID":390827},"geometry":{"x":171879.99000000022,"y":2542167.3100000005}},{"attributes":{"ID":390852,"DIS_CODE":0,"TOWNNAME":"東區","LI":"虎尾里","LIN":"29鄰","STREET":"東成街","SECT":" ","MAREA":" ","LANE":"２００巷","ALLEY":" ","HOUSE_NO":"６號","E_COORD97":171866.60000000001,"N_COORD97":2542292.3900000001,"ADDRESS":"東成街２００巷６號","OBJECTID":390828},"geometry":{"x":171866.59999999963,"y":2542292.3900000006}},{"attributes":{"ID":390853,"DIS_CODE":0,"TOWNNAME":"東區","LI":"虎尾里","LIN":"29鄰","STREET":"東成街","SECT":" ","MAREA":" ","LANE":"２００巷","ALLEY":" ","HOUSE_NO":"８號","E_COORD97":171866.85999999999,"N_COORD97":2542288.1200000001,"ADDRESS":"東成街２００巷８號","OBJECTID":390829},"geometry":{"x":171866.86000000127,"y":2542288.120000001}},{"attributes":{"ID":390854,"DIS_CODE":0,"TOWNNAME":"東區","LI":"莊敬里","LIN":"19鄰","STREET":"莊敬路","SECT":" ","MAREA":" ","LANE":"１８１巷","ALLEY":" ","HOUSE_NO":"３號","E_COORD97":171341.31,"N_COORD97":2544093.2799999998,"ADDRESS":"莊敬路１８１巷３號","OBJECTID":390830},"geometry":{"x":171341.30999999959,"y":2544093.2800000012}},{"attributes":{"ID":390855,"DIS_CODE":0,"TOWNNAME":"東區","LI":"莊敬里","LIN":"19鄰","STREET":"莊敬路","SECT":" ","MAREA":" ","LANE":"１８１巷","ALLEY":" ","HOUSE_NO":"５號","E_COORD97":171336.94,"N_COORD97":2544093.0899999999,"ADDRESS":"莊敬路１８１巷５號","OBJECTID":390831},"geometry":{"x":171336.94000000134,"y":2544093.0899999999}},{"attributes":{"ID":390856,"DIS_CODE":0,"TOWNNAME":"永康區","LI":"大橋里","LIN":"29鄰","STREET":"大橋一街","SECT":" ","MAREA":" ","LANE":"２５０巷","ALLEY":" ","HOUSE_NO":"７號一樓","E_COORD97":171096.06,"N_COORD97":2546498.75,"ADDRESS":"大橋一街２５０巷７號一樓","OBJECTID":390832},"geometry":{"x":171096.06000000145,"y":2546498.7500000019}},{"attributes":{"ID":390857,"DIS_CODE":0,"TOWNNAME":"永康區","LI":"六合里","LIN":"29鄰","STREET":"中華二路","SECT":" ","MAREA":" ","LANE":"２６６巷","ALLEY":" ","HOUSE_NO":"１１號四樓之１","E_COORD97":171344.13,"N_COORD97":2545447.96,"ADDRESS":"中華二路２６６巷１１號四樓之１","OBJECTID":390833},"geometry":{"x":171344.13000000082,"y":2545447.9600000009}},{"attributes":{"ID":390858,"DIS_CODE":0,"TOWNNAME":"永康區","LI":"六合里","LIN":"29鄰","STREET":"中華二路","SECT":" ","MAREA":" ","LANE":"２６６巷","ALLEY":" ","HOUSE_NO":"１３號四樓之１","E_COORD97":171334.70000000001,"N_COORD97":2545447.6699999999,"ADDRESS":"中華二路２６６巷１３號四樓之１","OBJECTID":390834},"geometry":{"x":171334.70000000205,"y":2545447.6700000018}},{"attributes":{"ID":390859,"DIS_CODE":0,"TOWNNAME":"永康區","LI":"六合里","LIN":"29鄰","STREET":"中華二路","SECT":" ","MAREA":" ","LANE":"２６６巷","ALLEY":" ","HOUSE_NO":"９號四樓之１","E_COORD97":171353.72,"N_COORD97":2545448.1499999999,"ADDRESS":"中華二路２６６巷９號四樓之１","OBJECTID":390835},"geometry":{"x":171353.71999999974,"y":2545448.1500000022}},{"attributes":{"ID":390860,"DIS_CODE":0,"TOWNNAME":"永康區","LI":"尚頂里","LIN":"29鄰","STREET":"南台街","SECT":" ","MAREA":" ","LANE":"８９巷","ALLEY":" ","HOUSE_NO":"１５號十二樓之２","E_COORD97":170214.54999999999,"N_COORD97":2546941.0499999998,"ADDRESS":"南台街８９巷１５號十二樓之２","OBJECTID":390836},"geometry":{"x":170214.54999999981,"y":2546941.0500000026}},{"attributes":{"ID":390861,"DIS_CODE":0,"TOWNNAME":"永康區","LI":"尚頂里","LIN":"29鄰","STREET":"南台街","SECT":" ","MAREA":" ","LANE":"８９巷","ALLEY":" ","HOUSE_NO":"１３號之１七樓之１","E_COORD97":170218.25,"N_COORD97":2546957.0499999998,"ADDRESS":"南台街８９巷１３號之１七樓之１","OBJECTID":390837},"geometry":{"x":170218.25,"y":2546957.0500000007}},{"attributes":{"ID":390862,"DIS_CODE":0,"TOWNNAME":"永康區","LI":"尚頂里","LIN":"29鄰","STREET":"南台街","SECT":" ","MAREA":" ","LANE":"８９巷","ALLEY":" ","HOUSE_NO":"１５號五樓之２","E_COORD97":170213.29999999999,"N_COORD97":2546941.0499999998,"ADDRESS":"南台街８９巷１５號五樓之２","OBJECTID":390838},"geometry":{"x":170213.30000000075,"y":2546941.0500000026}},{"attributes":{"ID":390863,"DIS_CODE":0,"TOWNNAME":"東區","LI":"東明里","LIN":"20鄰","STREET":"東安路","SECT":" ","MAREA":" ","LANE":"４８巷","ALLEY":" ","HOUSE_NO":"７號","E_COORD97":170708.88,"N_COORD97":2543640.8300000001,"ADDRESS":"東安路４８巷７號","OBJECTID":390839},"geometry":{"x":170708.87999999989,"y":2543640.8300000001}},{"attributes":{"ID":390864,"DIS_CODE":0,"TOWNNAME":"永康區","LI":"尚頂里","LIN":"29鄰","STREET":"南台街","SECT":" ","MAREA":" ","LANE":"８９巷","ALLEY":" ","HOUSE_NO":"１３號十二樓之３","E_COORD97":170216.10999999999,"N_COORD97":2546972.7999999998,"ADDRESS":"南台街８９巷１３號十二樓之３","OBJECTID":390840},"geometry":{"x":170216.11000000034,"y":2546972.8000000045}},{"attributes":{"ID":390865,"DIS_CODE":0,"TOWNNAME":"永康區","LI":"尚頂里","LIN":"29鄰","STREET":"南台街","SECT":" ","MAREA":" ","LANE":"８９巷","ALLEY":" ","HOUSE_NO":"１９號八樓之１","E_COORD97":170206.01000000001,"N_COORD97":2546925.7999999998,"ADDRESS":"南台街８９巷１９號八樓之１","OBJECTID":390841},"geometry":{"x":170206.00999999978,"y":2546925.8000000026}},{"attributes":{"ID":390866,"DIS_CODE":0,"TOWNNAME":"永康區","LI":"尚頂里","LIN":"29鄰","STREET":"南台街","SECT":" ","MAREA":" ","LANE":"８９巷","ALLEY":" ","HOUSE_NO":"１９號九樓之１","E_COORD97":170206.01000000001,"N_COORD97":2546925.7999999998,"ADDRESS":"南台街８９巷１９號九樓之１","OBJECTID":390842},"geometry":{"x":170206.00999999978,"y":2546925.8000000026}},{"attributes":{"ID":390867,"DIS_CODE":0,"TOWNNAME":"永康區","LI":"尚頂里","LIN":"29鄰","STREET":"南台街","SECT":" ","MAREA":" ","LANE":"８９巷","ALLEY":" ","HOUSE_NO":"１９號十樓之１","E_COORD97":170206.01000000001,"N_COORD97":2546925.7999999998,"ADDRESS":"南台街８９巷１９號十樓之１","OBJECTID":390843},"geometry":{"x":170206.00999999978,"y":2546925.8000000026}},{"attributes":{"ID":390868,"DIS_CODE":0,"TOWNNAME":"永康區","LI":"尚頂里","LIN":"29鄰","STREET":"南台街","SECT":" ","MAREA":" ","LANE":"８９巷","ALLEY":" ","HOUSE_NO":"１３號之１五樓之３","E_COORD97":170218.35000000001,"N_COORD97":2546957.0499999998,"ADDRESS":"南台街８９巷１３號之１五樓之３","OBJECTID":390844},"geometry":{"x":170218.35000000056,"y":2546957.0500000007}},{"attributes":{"ID":390869,"DIS_CODE":0,"TOWNNAME":"東區","LI":"自強里","LIN":"29鄰","STREET":"中華東路","SECT":"二段","MAREA":" ","LANE":"１８５巷","ALLEY":" ","HOUSE_NO":"１６號七樓","E_COORD97":171383.23999999999,"N_COORD97":2542776.96,"ADDRESS":"中華東路二段１８５巷１６號七樓","OBJECTID":390845},"geometry":{"x":171383.24000000022,"y":2542776.9600000009}},{"attributes":{"ID":390870,"DIS_CODE":0,"TOWNNAME":"東區","LI":"自強里","LIN":"29鄰","STREET":"中華東路","SECT":"二段","MAREA":" ","LANE":"１８５巷","ALLEY":" ","HOUSE_NO":"１６號七樓之１","E_COORD97":171383.23999999999,"N_COORD97":2542776.96,"ADDRESS":"中華東路二段１８５巷１６號七樓之１","OBJECTID":390846},"geometry":{"x":171383.24000000022,"y":2542776.9600000009}},{"attributes":{"ID":390871,"DIS_CODE":0,"TOWNNAME":"東區","LI":"自強里","LIN":"29鄰","STREET":"中華東路","SECT":"二段","MAREA":" ","LANE":"１８５巷","ALLEY":" ","HOUSE_NO":"１６號七樓之２","E_COORD97":171383.23999999999,"N_COORD97":2542776.96,"ADDRESS":"中華東路二段１８５巷１６號七樓之２","OBJECTID":390847},"geometry":{"x":171383.24000000022,"y":2542776.9600000009}},{"attributes":{"ID":390872,"DIS_CODE":0,"TOWNNAME":"東區","LI":"自強里","LIN":"29鄰","STREET":"中華東路","SECT":"二段","MAREA":" ","LANE":"１８５巷","ALLEY":" ","HOUSE_NO":"１６號七樓之３","E_COORD97":171383.23999999999,"N_COORD97":2542776.96,"ADDRESS":"中華東路二段１８５巷１６號七樓之３","OBJECTID":390848},"geometry":{"x":171383.24000000022,"y":2542776.9600000009}},{"attributes":{"ID":390873,"DIS_CODE":0,"TOWNNAME":"善化區","LI":"光文里","LIN":"13鄰","STREET":"樹人路","SECT":" ","MAREA":" ","LANE":" ","ALLEY":" ","HOUSE_NO":"５６號","E_COORD97":178376.51000000001,"N_COORD97":2559054.25,"ADDRESS":"樹人路５６號","OBJECTID":390849},"geometry":{"x":178376.50999999978,"y":2559054.25}},{"attributes":{"ID":390874,"DIS_CODE":0,"TOWNNAME":"東區","LI":"自強里","LIN":"29鄰","STREET":"中華東路","SECT":"二段","MAREA":" ","LANE":"１８５巷","ALLEY":" ","HOUSE_NO":"１６號九樓","E_COORD97":171383.23999999999,"N_COORD97":2542776.96,"ADDRESS":"中華東路二段１８５巷１６號九樓","OBJECTID":390850},"geometry":{"x":171383.24000000022,"y":2542776.9600000009}},{"attributes":{"ID":390875,"DIS_CODE":0,"TOWNNAME":"東區","LI":"自強里","LIN":"29鄰","STREET":"中華東路","SECT":"二段","MAREA":" ","LANE":"１８５巷","ALLEY":" ","HOUSE_NO":"１６號九樓之１","E_COORD97":171383.23999999999,"N_COORD97":2542776.96,"ADDRESS":"中華東路二段１８５巷１６號九樓之１","OBJECTID":390851},"geometry":{"x":171383.24000000022,"y":2542776.9600000009}},{"attributes":{"ID":390876,"DIS_CODE":0,"TOWNNAME":"東區","LI":"自強里","LIN":"29鄰","STREET":"中華東路","SECT":"二段","MAREA":" ","LANE":"１８５巷","ALLEY":" ","HOUSE_NO":"１６號九樓之２","E_COORD97":171383.23999999999,"N_COORD97":2542776.96,"ADDRESS":"中華東路二段１８５巷１６號九樓之２","OBJECTID":390852},"geometry":{"x":171383.24000000022,"y":2542776.9600000009}},{"attributes":{"ID":390877,"DIS_CODE":0,"TOWNNAME":"東區","LI":"自強里","LIN":"29鄰","STREET":"中華東路","SECT":"二段","MAREA":" ","LANE":"１８５巷","ALLEY":" ","HOUSE_NO":"１６號九樓之３","E_COORD97":171383.23999999999,"N_COORD97":2542776.96,"ADDRESS":"中華東路二段１８５巷１６號九樓之３","OBJECTID":390853},"geometry":{"x":171383.24000000022,"y":2542776.9600000009}},{"attributes":{"ID":390878,"DIS_CODE":0,"TOWNNAME":"東區","LI":"自強里","LIN":"29鄰","STREET":"中華東路","SECT":"二段","MAREA":" ","LANE":"１８５巷","ALLEY":" ","HOUSE_NO":"１６號二十樓","E_COORD97":171383.23999999999,"N_COORD97":2542776.96,"ADDRESS":"中華東路二段１８５巷１６號二十樓","OBJECTID":390854},"geometry":{"x":171383.24000000022,"y":2542776.9600000009}},{"attributes":{"ID":390879,"DIS_CODE":0,"TOWNNAME":"東區","LI":"東明里","LIN":"14鄰","STREET":"東安路","SECT":" ","MAREA":" ","LANE":"７６巷","ALLEY":" ","HOUSE_NO":"４５號","E_COORD97":170808.98000000001,"N_COORD97":2543669.8199999998,"ADDRESS":"東安路７６巷４５號","OBJECTID":390855},"geometry":{"x":170808.98000000045,"y":2543669.820000004}},{"attributes":{"ID":390880,"DIS_CODE":0,"TOWNNAME":"東區","LI":"自強里","LIN":"29鄰","STREET":"中華東路","SECT":"二段","MAREA":" ","LANE":"１８５巷","ALLEY":" ","HOUSE_NO":"１６號八樓","E_COORD97":171383.23999999999,"N_COORD97":2542776.96,"ADDRESS":"中華東路二段１８５巷１６號八樓","OBJECTID":390856},"geometry":{"x":171383.24000000022,"y":2542776.9600000009}},{"attributes":{"ID":390881,"DIS_CODE":0,"TOWNNAME":"東區","LI":"自強里","LIN":"29鄰","STREET":"中華東路","SECT":"二段","MAREA":" ","LANE":"１８５巷","ALLEY":" ","HOUSE_NO":"１６號八樓之１","E_COORD97":171383.23999999999,"N_COORD97":2542776.96,"ADDRESS":"中華東路二段１８５巷１６號八樓之１","OBJECTID":390857},"geometry":{"x":171383.24000000022,"y":2542776.9600000009}},{"attributes":{"ID":390882,"DIS_CODE":0,"TOWNNAME":"東區","LI":"自強里","LIN":"29鄰","STREET":"中華東路","SECT":"二段","MAREA":" ","LANE":"１８５巷","ALLEY":" ","HOUSE_NO":"１６號八樓之２","E_COORD97":171383.23999999999,"N_COORD97":2542776.96,"ADDRESS":"中華東路二段１８５巷１６號八樓之２","OBJECTID":390858},"geometry":{"x":171383.24000000022,"y":2542776.9600000009}},{"attributes":{"ID":390883,"DIS_CODE":0,"TOWNNAME":"東區","LI":"自強里","LIN":"29鄰","STREET":"中華東路","SECT":"二段","MAREA":" ","LANE":"１８５巷","ALLEY":" ","HOUSE_NO":"１６號八樓之３","E_COORD97":171383.23999999999,"N_COORD97":2542776.96,"ADDRESS":"中華東路二段１８５巷１６號八樓之３","OBJECTID":390859},"geometry":{"x":171383.24000000022,"y":2542776.9600000009}},{"attributes":{"ID":390884,"DIS_CODE":0,"TOWNNAME":"東區","LI":"自強里","LIN":"29鄰","STREET":"中華東路","SECT":"二段","MAREA":" ","LANE":"１８５巷","ALLEY":" ","HOUSE_NO":"１６號十一樓","E_COORD97":171383.23999999999,"N_COORD97":2542776.96,"ADDRESS":"中華東路二段１８５巷１６號十一樓","OBJECTID":390860},"geometry":{"x":171383.24000000022,"y":2542776.9600000009}},{"attributes":{"ID":390885,"DIS_CODE":0,"TOWNNAME":"東區","LI":"自強里","LIN":"29鄰","STREET":"中華東路","SECT":"二段","MAREA":" ","LANE":"１８５巷","ALLEY":" ","HOUSE_NO":"１６號十一樓之１","E_COORD97":171383.23999999999,"N_COORD97":2542776.96,"ADDRESS":"中華東路二段１８５巷１６號十一樓之１","OBJECTID":390861},"geometry":{"x":171383.24000000022,"y":2542776.9600000009}},{"attributes":{"ID":390886,"DIS_CODE":0,"TOWNNAME":"東區","LI":"自強里","LIN":"29鄰","STREET":"中華東路","SECT":"二段","MAREA":" ","LANE":"１８５巷","ALLEY":" ","HOUSE_NO":"１６號十一樓之２","E_COORD97":171383.23999999999,"N_COORD97":2542776.96,"ADDRESS":"中華東路二段１８５巷１６號十一樓之２","OBJECTID":390862},"geometry":{"x":171383.24000000022,"y":2542776.9600000009}},{"attributes":{"ID":390887,"DIS_CODE":0,"TOWNNAME":"東區","LI":"自強里","LIN":"29鄰","STREET":"中華東路","SECT":"二段","MAREA":" ","LANE":"１８５巷","ALLEY":" ","HOUSE_NO":"１６號十一樓之３","E_COORD97":171383.23999999999,"N_COORD97":2542776.96,"ADDRESS":"中華東路二段１８５巷１６號十一樓之３","OBJECTID":390863},"geometry":{"x":171383.24000000022,"y":2542776.9600000009}},{"attributes":{"ID":390888,"DIS_CODE":0,"TOWNNAME":"東區","LI":"自強里","LIN":"29鄰","STREET":"中華東路","SECT":"二段","MAREA":" ","LANE":"１８５巷","ALLEY":" ","HOUSE_NO":"１６號十七樓","E_COORD97":171383.23999999999,"N_COORD97":2542776.96,"ADDRESS":"中華東路二段１８５巷１６號十七樓","OBJECTID":390864},"geometry":{"x":171383.24000000022,"y":2542776.9600000009}},{"attributes":{"ID":390889,"DIS_CODE":0,"TOWNNAME":"東區","LI":"自強里","LIN":"29鄰","STREET":"中華東路","SECT":"二段","MAREA":" ","LANE":"１８５巷","ALLEY":" ","HOUSE_NO":"１６號十七樓之１","E_COORD97":171383.23999999999,"N_COORD97":2542776.96,"ADDRESS":"中華東路二段１８５巷１６號十七樓之１","OBJECTID":390865},"geometry":{"x":171383.24000000022,"y":2542776.9600000009}},{"attributes":{"ID":390890,"DIS_CODE":0,"TOWNNAME":"東區","LI":"自強里","LIN":"29鄰","STREET":"中華東路","SECT":"二段","MAREA":" ","LANE":"１８５巷","ALLEY":" ","HOUSE_NO":"１６號十七樓之２","E_COORD97":171383.23999999999,"N_COORD97":2542776.96,"ADDRESS":"中華東路二段１８５巷１６號十七樓之２","OBJECTID":390866},"geometry":{"x":171383.24000000022,"y":2542776.9600000009}},{"attributes":{"ID":390891,"DIS_CODE":0,"TOWNNAME":"東區","LI":"自強里","LIN":"29鄰","STREET":"中華東路","SECT":"二段","MAREA":" ","LANE":"１８５巷","ALLEY":" ","HOUSE_NO":"１６號十七樓之３","E_COORD97":171383.23999999999,"N_COORD97":2542776.96,"ADDRESS":"中華東路二段１８５巷１６號十七樓之３","OBJECTID":390867},"geometry":{"x":171383.24000000022,"y":2542776.9600000009}},{"attributes":{"ID":390892,"DIS_CODE":0,"TOWNNAME":"東區","LI":"自強里","LIN":"29鄰","STREET":"中華東路","SECT":"二段","MAREA":" ","LANE":"１８５巷","ALLEY":" ","HOUSE_NO":"１６號十九樓","E_COORD97":171383.23999999999,"N_COORD97":2542776.96,"ADDRESS":"中華東路二段１８５巷１６號十九樓","OBJECTID":390868},"geometry":{"x":171383.24000000022,"y":2542776.9600000009}},{"attributes":{"ID":390893,"DIS_CODE":0,"TOWNNAME":"東區","LI":"自強里","LIN":"29鄰","STREET":"中華東路","SECT":"二段","MAREA":" ","LANE":"１８５巷","ALLEY":" ","HOUSE_NO":"１６號十九樓之１","E_COORD97":171383.23999999999,"N_COORD97":2542776.96,"ADDRESS":"中華東路二段１８５巷１６號十九樓之１","OBJECTID":390869},"geometry":{"x":171383.24000000022,"y":2542776.9600000009}},{"attributes":{"ID":390894,"DIS_CODE":0,"TOWNNAME":"東區","LI":"自強里","LIN":"29鄰","STREET":"中華東路","SECT":"二段","MAREA":" ","LANE":"１８５巷","ALLEY":" ","HOUSE_NO":"１６號十二樓","E_COORD97":171383.23999999999,"N_COORD97":2542776.96,"ADDRESS":"中華東路二段１８５巷１６號十二樓","OBJECTID":390870},"geometry":{"x":171383.24000000022,"y":2542776.9600000009}},{"attributes":{"ID":390895,"DIS_CODE":0,"TOWNNAME":"東區","LI":"自強里","LIN":"29鄰","STREET":"中華東路","SECT":"二段","MAREA":" ","LANE":"１８５巷","ALLEY":" ","HOUSE_NO":"１６號十二樓之１","E_COORD97":171383.23999999999,"N_COORD97":2542776.96,"ADDRESS":"中華東路二段１８５巷１６號十二樓之１","OBJECTID":390871},"geometry":{"x":171383.24000000022,"y":2542776.9600000009}},{"attributes":{"ID":390896,"DIS_CODE":0,"TOWNNAME":"東區","LI":"自強里","LIN":"29鄰","STREET":"中華東路","SECT":"二段","MAREA":" ","LANE":"１８５巷","ALLEY":" ","HOUSE_NO":"１６號十二樓之２","E_COORD97":171383.23999999999,"N_COORD97":2542776.96,"ADDRESS":"中華東路二段１８５巷１６號十二樓之２","OBJECTID":390872},"geometry":{"x":171383.24000000022,"y":2542776.9600000009}},{"attributes":{"ID":390897,"DIS_CODE":0,"TOWNNAME":"東區","LI":"自強里","LIN":"29鄰","STREET":"中華東路","SECT":"二段","MAREA":" ","LANE":"１８５巷","ALLEY":" ","HOUSE_NO":"１６號十二樓之３","E_COORD97":171383.23999999999,"N_COORD97":2542776.96,"ADDRESS":"中華東路二段１８５巷１６號十二樓之３","OBJECTID":390873},"geometry":{"x":171383.24000000022,"y":2542776.9600000009}},{"attributes":{"ID":390898,"DIS_CODE":0,"TOWNNAME":"東區","LI":"自強里","LIN":"29鄰","STREET":"中華東路","SECT":"二段","MAREA":" ","LANE":"１８５巷","ALLEY":" ","HOUSE_NO":"１６號十八樓","E_COORD97":171383.23999999999,"N_COORD97":2542776.96,"ADDRESS":"中華東路二段１８５巷１６號十八樓","OBJECTID":390874},"geometry":{"x":171383.24000000022,"y":2542776.9600000009}},{"attributes":{"ID":390899,"DIS_CODE":0,"TOWNNAME":"東區","LI":"自強里","LIN":"29鄰","STREET":"中華東路","SECT":"二段","MAREA":" ","LANE":"１８５巷","ALLEY":" ","HOUSE_NO":"１６號十八樓之１","E_COORD97":171383.23999999999,"N_COORD97":2542776.96,"ADDRESS":"中華東路二段１８５巷１６號十八樓之１","OBJECTID":390875},"geometry":{"x":171383.24000000022,"y":2542776.9600000009}},{"attributes":{"ID":390900,"DIS_CODE":0,"TOWNNAME":"東區","LI":"自強里","LIN":"29鄰","STREET":"中華東路","SECT":"二段","MAREA":" ","LANE":"１８５巷","ALLEY":" ","HOUSE_NO":"１６號十八樓之２","E_COORD97":171383.23999999999,"N_COORD97":2542776.96,"ADDRESS":"中華東路二段１８５巷１６號十八樓之２","OBJECTID":390876},"geometry":{"x":171383.24000000022,"y":2542776.9600000009}},{"attributes":{"ID":390901,"DIS_CODE":0,"TOWNNAME":"東區","LI":"自強里","LIN":"29鄰","STREET":"中華東路","SECT":"二段","MAREA":" ","LANE":"１８５巷","ALLEY":" ","HOUSE_NO":"１６號十八樓之３","E_COORD97":171383.23999999999,"N_COORD97":2542776.96,"ADDRESS":"中華東路二段１８５巷１６號十八樓之３","OBJECTID":390877},"geometry":{"x":171383.24000000022,"y":2542776.9600000009}},{"attributes":{"ID":390902,"DIS_CODE":0,"TOWNNAME":"東區","LI":"自強里","LIN":"29鄰","STREET":"中華東路","SECT":"二段","MAREA":" ","LANE":"１８５巷","ALLEY":" ","HOUSE_NO":"１６號十三樓","E_COORD97":171383.23999999999,"N_COORD97":2542776.96,"ADDRESS":"中華東路二段１８５巷１６號十三樓","OBJECTID":390878},"geometry":{"x":171383.24000000022,"y":2542776.9600000009}},{"attributes":{"ID":390903,"DIS_CODE":0,"TOWNNAME":"東區","LI":"自強里","LIN":"29鄰","STREET":"中華東路","SECT":"二段","MAREA":" ","LANE":"１８５巷","ALLEY":" ","HOUSE_NO":"１６號十三樓之１","E_COORD97":171383.23999999999,"N_COORD97":2542776.96,"ADDRESS":"中華東路二段１８５巷１６號十三樓之１","OBJECTID":390879},"geometry":{"x":171383.24000000022,"y":2542776.9600000009}},{"attributes":{"ID":390904,"DIS_CODE":0,"TOWNNAME":"東區","LI":"自強里","LIN":"29鄰","STREET":"中華東路","SECT":"二段","MAREA":" ","LANE":"１８５巷","ALLEY":" ","HOUSE_NO":"１６號十三樓之２","E_COORD97":171383.23999999999,"N_COORD97":2542776.96,"ADDRESS":"中華東路二段１８５巷１６號十三樓之２","OBJECTID":390880},"geometry":{"x":171383.24000000022,"y":2542776.9600000009}},{"attributes":{"ID":390905,"DIS_CODE":0,"TOWNNAME":"永康區","LI":"尚頂里","LIN":"29鄰","STREET":"南台街","SECT":" ","MAREA":" ","LANE":"８９巷","ALLEY":" ","HOUSE_NO":"１９號十一樓之１","E_COORD97":170207.26000000001,"N_COORD97":2546925.7999999998,"ADDRESS":"南台街８９巷１９號十一樓之１","OBJECTID":390881},"geometry":{"x":170207.26000000071,"y":2546925.8000000026}},{"attributes":{"ID":390906,"DIS_CODE":0,"TOWNNAME":"東區","LI":"自強里","LIN":"29鄰","STREET":"中華東路","SECT":"二段","MAREA":" ","LANE":"１８５巷","ALLEY":" ","HOUSE_NO":"１６號十三樓之３","E_COORD97":171383.23999999999,"N_COORD97":2542776.96,"ADDRESS":"中華東路二段１８５巷１６號十三樓之３","OBJECTID":390882},"geometry":{"x":171383.24000000022,"y":2542776.9600000009}},{"attributes":{"ID":390907,"DIS_CODE":0,"TOWNNAME":"東區","LI":"自強里","LIN":"29鄰","STREET":"中華東路","SECT":"二段","MAREA":" ","LANE":"１８５巷","ALLEY":" ","HOUSE_NO":"１６號十五樓","E_COORD97":171383.23999999999,"N_COORD97":2542776.96,"ADDRESS":"中華東路二段１８５巷１６號十五樓","OBJECTID":390883},"geometry":{"x":171383.24000000022,"y":2542776.9600000009}},{"attributes":{"ID":390908,"DIS_CODE":0,"TOWNNAME":"東區","LI":"自強里","LIN":"29鄰","STREET":"中華東路","SECT":"二段","MAREA":" ","LANE":"１８５巷","ALLEY":" ","HOUSE_NO":"１６號十五樓之１","E_COORD97":171383.23999999999,"N_COORD97":2542776.96,"ADDRESS":"中華東路二段１８５巷１６號十五樓之１","OBJECTID":390884},"geometry":{"x":171383.24000000022,"y":2542776.9600000009}},{"attributes":{"ID":390909,"DIS_CODE":0,"TOWNNAME":"東區","LI":"自強里","LIN":"29鄰","STREET":"中華東路","SECT":"二段","MAREA":" ","LANE":"１８５巷","ALLEY":" ","HOUSE_NO":"１６號十五樓之２","E_COORD97":171383.23999999999,"N_COORD97":2542776.96,"ADDRESS":"中華東路二段１８５巷１６號十五樓之２","OBJECTID":390885},"geometry":{"x":171383.24000000022,"y":2542776.9600000009}},{"attributes":{"ID":390910,"DIS_CODE":0,"TOWNNAME":"東區","LI":"自強里","LIN":"29鄰","STREET":"中華東路","SECT":"二段","MAREA":" ","LANE":"１８５巷","ALLEY":" ","HOUSE_NO":"１６號十五樓之３","E_COORD97":171383.23999999999,"N_COORD97":2542776.96,"ADDRESS":"中華東路二段１８５巷１６號十五樓之３","OBJECTID":390886},"geometry":{"x":171383.24000000022,"y":2542776.9600000009}},{"attributes":{"ID":390911,"DIS_CODE":0,"TOWNNAME":"東區","LI":"自強里","LIN":"29鄰","STREET":"中華東路","SECT":"二段","MAREA":" ","LANE":"１８５巷","ALLEY":" ","HOUSE_NO":"１６號十六樓","E_COORD97":171383.23999999999,"N_COORD97":2542776.96,"ADDRESS":"中華東路二段１８５巷１６號十六樓","OBJECTID":390887},"geometry":{"x":171383.24000000022,"y":2542776.9600000009}},{"attributes":{"ID":390912,"DIS_CODE":0,"TOWNNAME":"東區","LI":"自強里","LIN":"29鄰","STREET":"中華東路","SECT":"二段","MAREA":" ","LANE":"１８５巷","ALLEY":" ","HOUSE_NO":"１６號十六樓之１","E_COORD97":171383.23999999999,"N_COORD97":2542776.96,"ADDRESS":"中華東路二段１８５巷１６號十六樓之１","OBJECTID":390888},"geometry":{"x":171383.24000000022,"y":2542776.9600000009}},{"attributes":{"ID":390913,"DIS_CODE":0,"TOWNNAME":"東區","LI":"自強里","LIN":"29鄰","STREET":"中華東路","SECT":"二段","MAREA":" ","LANE":"１８５巷","ALLEY":" ","HOUSE_NO":"１６號十六樓之２","E_COORD97":171383.23999999999,"N_COORD97":2542776.96,"ADDRESS":"中華東路二段１８５巷１６號十六樓之２","OBJECTID":390889},"geometry":{"x":171383.24000000022,"y":2542776.9600000009}},{"attributes":{"ID":390914,"DIS_CODE":0,"TOWNNAME":"東區","LI":"自強里","LIN":"29鄰","STREET":"中華東路","SECT":"二段","MAREA":" ","LANE":"１８５巷","ALLEY":" ","HOUSE_NO":"１６號十六樓之３","E_COORD97":171383.23999999999,"N_COORD97":2542776.96,"ADDRESS":"中華東路二段１８５巷１６號十六樓之３","OBJECTID":390890},"geometry":{"x":171383.24000000022,"y":2542776.9600000009}},{"attributes":{"ID":390915,"DIS_CODE":0,"TOWNNAME":"東區","LI":"自強里","LIN":"29鄰","STREET":"中華東路","SECT":"二段","MAREA":" ","LANE":"１８５巷","ALLEY":" ","HOUSE_NO":"１６號十四樓","E_COORD97":171383.23999999999,"N_COORD97":2542776.96,"ADDRESS":"中華東路二段１８５巷１６號十四樓","OBJECTID":390891},"geometry":{"x":171383.24000000022,"y":2542776.9600000009}},{"attributes":{"ID":390916,"DIS_CODE":0,"TOWNNAME":"東區","LI":"自強里","LIN":"29鄰","STREET":"中華東路","SECT":"二段","MAREA":" ","LANE":"１８５巷","ALLEY":" ","HOUSE_NO":"１６號十四樓之１","E_COORD97":171383.23999999999,"N_COORD97":2542776.96,"ADDRESS":"中華東路二段１８５巷１６號十四樓之１","OBJECTID":390892},"geometry":{"x":171383.24000000022,"y":2542776.9600000009}},{"attributes":{"ID":390917,"DIS_CODE":0,"TOWNNAME":"東區","LI":"自強里","LIN":"29鄰","STREET":"中華東路","SECT":"二段","MAREA":" ","LANE":"１８５巷","ALLEY":" ","HOUSE_NO":"１６號十四樓之２","E_COORD97":171383.23999999999,"N_COORD97":2542776.96,"ADDRESS":"中華東路二段１８５巷１６號十四樓之２","OBJECTID":390893},"geometry":{"x":171383.24000000022,"y":2542776.9600000009}},{"attributes":{"ID":390918,"DIS_CODE":0,"TOWNNAME":"東區","LI":"自強里","LIN":"29鄰","STREET":"中華東路","SECT":"二段","MAREA":" ","LANE":"１８５巷","ALLEY":" ","HOUSE_NO":"１６號十四樓之３","E_COORD97":171383.23999999999,"N_COORD97":2542776.96,"ADDRESS":"中華東路二段１８５巷１６號十四樓之３","OBJECTID":390894},"geometry":{"x":171383.24000000022,"y":2542776.9600000009}},{"attributes":{"ID":390919,"DIS_CODE":0,"TOWNNAME":"東區","LI":"自強里","LIN":"29鄰","STREET":"中華東路","SECT":"二段","MAREA":" ","LANE":"１８５巷","ALLEY":" ","HOUSE_NO":"１６號十樓","E_COORD97":171383.23999999999,"N_COORD97":2542776.96,"ADDRESS":"中華東路二段１８５巷１６號十樓","OBJECTID":390895},"geometry":{"x":171383.24000000022,"y":2542776.9600000009}},{"attributes":{"ID":390920,"DIS_CODE":0,"TOWNNAME":"東區","LI":"自強里","LIN":"29鄰","STREET":"中華東路","SECT":"二段","MAREA":" ","LANE":"１８５巷","ALLEY":" ","HOUSE_NO":"１６號十樓之１","E_COORD97":171383.23999999999,"N_COORD97":2542776.96,"ADDRESS":"中華東路二段１８５巷１６號十樓之１","OBJECTID":390896},"geometry":{"x":171383.24000000022,"y":2542776.9600000009}},{"attributes":{"ID":390921,"DIS_CODE":0,"TOWNNAME":"東區","LI":"自強里","LIN":"29鄰","STREET":"中華東路","SECT":"二段","MAREA":" ","LANE":"１８５巷","ALLEY":" ","HOUSE_NO":"１６號十樓之２","E_COORD97":171383.23999999999,"N_COORD97":2542776.96,"ADDRESS":"中華東路二段１８５巷１６號十樓之２","OBJECTID":390897},"geometry":{"x":171383.24000000022,"y":2542776.9600000009}},{"attributes":{"ID":390922,"DIS_CODE":0,"TOWNNAME":"東區","LI":"自強里","LIN":"29鄰","STREET":"中華東路","SECT":"二段","MAREA":" ","LANE":"１８５巷","ALLEY":" ","HOUSE_NO":"１６號十樓之３","E_COORD97":171383.23999999999,"N_COORD97":2542776.96,"ADDRESS":"中華東路二段１８５巷１６號十樓之３","OBJECTID":390898},"geometry":{"x":171383.24000000022,"y":2542776.9600000009}},{"attributes":{"ID":390923,"DIS_CODE":0,"TOWNNAME":"東區","LI":"自強里","LIN":"29鄰","STREET":"中華東路","SECT":"二段","MAREA":" ","LANE":"１８５巷","ALLEY":" ","HOUSE_NO":"１６號三樓","E_COORD97":171383.23999999999,"N_COORD97":2542776.96,"ADDRESS":"中華東路二段１８５巷１６號三樓","OBJECTID":390899},"geometry":{"x":171383.24000000022,"y":2542776.9600000009}},{"attributes":{"ID":390924,"DIS_CODE":0,"TOWNNAME":"東區","LI":"自強里","LIN":"29鄰","STREET":"中華東路","SECT":"二段","MAREA":" ","LANE":"１８５巷","ALLEY":" ","HOUSE_NO":"１６號三樓之１","E_COORD97":171383.23999999999,"N_COORD97":2542776.96,"ADDRESS":"中華東路二段１８５巷１６號三樓之１","OBJECTID":390900},"geometry":{"x":171383.24000000022,"y":2542776.9600000009}},{"attributes":{"ID":390925,"DIS_CODE":0,"TOWNNAME":"東區","LI":"自強里","LIN":"29鄰","STREET":"中華東路","SECT":"二段","MAREA":" ","LANE":"１８５巷","ALLEY":" ","HOUSE_NO":"１６號三樓之２","E_COORD97":171383.23999999999,"N_COORD97":2542776.96,"ADDRESS":"中華東路二段１８５巷１６號三樓之２","OBJECTID":390901},"geometry":{"x":171383.24000000022,"y":2542776.9600000009}},{"attributes":{"ID":390926,"DIS_CODE":0,"TOWNNAME":"東區","LI":"自強里","LIN":"29鄰","STREET":"中華東路","SECT":"二段","MAREA":" ","LANE":"１８５巷","ALLEY":" ","HOUSE_NO":"１６號三樓之３","E_COORD97":171383.23999999999,"N_COORD97":2542776.96,"ADDRESS":"中華東路二段１８５巷１６號三樓之３","OBJECTID":390902},"geometry":{"x":171383.24000000022,"y":2542776.9600000009}},{"attributes":{"ID":390927,"DIS_CODE":0,"TOWNNAME":"東區","LI":"自強里","LIN":"29鄰","STREET":"中華東路","SECT":"二段","MAREA":" ","LANE":"１８５巷","ALLEY":" ","HOUSE_NO":"１６號五樓","E_COORD97":171383.23999999999,"N_COORD97":2542776.96,"ADDRESS":"中華東路二段１８５巷１６號五樓","OBJECTID":390903},"geometry":{"x":171383.24000000022,"y":2542776.9600000009}},{"attributes":{"ID":390928,"DIS_CODE":0,"TOWNNAME":"安南區","LI":"溪墘里","LIN":"25鄰","STREET":"安寧街","SECT":" ","MAREA":" ","LANE":"９巷","ALLEY":" ","HOUSE_NO":"４號","E_COORD97":167410.51000000001,"N_COORD97":2546895.7599999998,"ADDRESS":"安寧街９巷４號","OBJECTID":390904},"geometry":{"x":167410.50999999978,"y":2546895.7599999998}},{"attributes":{"ID":390929,"DIS_CODE":0,"TOWNNAME":"歸仁區","LI":"後市里","LIN":"41鄰","STREET":"國光街","SECT":" ","MAREA":" ","LANE":"６０巷","ALLEY":" ","HOUSE_NO":"３號","E_COORD97":177142.04820300001,"N_COORD97":2540904.85788,"ADDRESS":"國光街６０巷３號","OBJECTID":390905},"geometry":{"x":177142.04820299987,"y":2540904.8578750025}},{"attributes":{"ID":390930,"DIS_CODE":0,"TOWNNAME":"東區","LI":"自強里","LIN":"29鄰","STREET":"中華東路","SECT":"二段","MAREA":" ","LANE":"１８５巷","ALLEY":" ","HOUSE_NO":"１６號五樓之１","E_COORD97":171383.23999999999,"N_COORD97":2542776.96,"ADDRESS":"中華東路二段１８５巷１６號五樓之１","OBJECTID":390906},"geometry":{"x":171383.24000000022,"y":2542776.9600000009}},{"attributes":{"ID":390931,"DIS_CODE":0,"TOWNNAME":"東區","LI":"自強里","LIN":"29鄰","STREET":"中華東路","SECT":"二段","MAREA":" ","LANE":"１８５巷","ALLEY":" ","HOUSE_NO":"１６號五樓之２","E_COORD97":171383.23999999999,"N_COORD97":2542776.96,"ADDRESS":"中華東路二段１８５巷１６號五樓之２","OBJECTID":390907},"geometry":{"x":171383.24000000022,"y":2542776.9600000009}},{"attributes":{"ID":390932,"DIS_CODE":0,"TOWNNAME":"永康區","LI":"尚頂里","LIN":"29鄰","STREET":"南台街","SECT":" ","MAREA":" ","LANE":"８９巷","ALLEY":" ","HOUSE_NO":"１７號十二樓之２","E_COORD97":170199.54000000001,"N_COORD97":2546926.7999999998,"ADDRESS":"南台街８９巷１７號十二樓之２","OBJECTID":390908},"geometry":{"x":170199.54000000004,"y":2546926.8000000026}},{"attributes":{"ID":390933,"DIS_CODE":0,"TOWNNAME":"東區","LI":"自強里","LIN":"29鄰","STREET":"中華東路","SECT":"二段","MAREA":" ","LANE":"１８５巷","ALLEY":" ","HOUSE_NO":"１６號五樓之３","E_COORD97":171383.23999999999,"N_COORD97":2542776.96,"ADDRESS":"中華東路二段１８５巷１６號五樓之３","OBJECTID":390909},"geometry":{"x":171383.24000000022,"y":2542776.9600000009}},{"attributes":{"ID":390934,"DIS_CODE":0,"TOWNNAME":"東區","LI":"自強里","LIN":"29鄰","STREET":"中華東路","SECT":"二段","MAREA":" ","LANE":"１８５巷","ALLEY":" ","HOUSE_NO":"１６號六樓","E_COORD97":171383.23999999999,"N_COORD97":2542776.96,"ADDRESS":"中華東路二段１８５巷１６號六樓","OBJECTID":390910},"geometry":{"x":171383.24000000022,"y":2542776.9600000009}},{"attributes":{"ID":390935,"DIS_CODE":0,"TOWNNAME":"東區","LI":"自強里","LIN":"29鄰","STREET":"中華東路","SECT":"二段","MAREA":" ","LANE":"１８５巷","ALLEY":" ","HOUSE_NO":"１６號六樓之１","E_COORD97":171383.23999999999,"N_COORD97":2542776.96,"ADDRESS":"中華東路二段１８５巷１６號六樓之１","OBJECTID":390911},"geometry":{"x":171383.24000000022,"y":2542776.9600000009}},{"attributes":{"ID":390936,"DIS_CODE":0,"TOWNNAME":"東區","LI":"自強里","LIN":"29鄰","STREET":"中華東路","SECT":"二段","MAREA":" ","LANE":"１８５巷","ALLEY":" ","HOUSE_NO":"１６號六樓之２","E_COORD97":171383.23999999999,"N_COORD97":2542776.96,"ADDRESS":"中華東路二段１８５巷１６號六樓之２","OBJECTID":390912},"geometry":{"x":171383.24000000022,"y":2542776.9600000009}},{"attributes":{"ID":390937,"DIS_CODE":0,"TOWNNAME":"東區","LI":"自強里","LIN":"29鄰","STREET":"中華東路","SECT":"二段","MAREA":" ","LANE":"１８５巷","ALLEY":" ","HOUSE_NO":"１６號六樓之３","E_COORD97":171383.23999999999,"N_COORD97":2542776.96,"ADDRESS":"中華東路二段１８５巷１６號六樓之３","OBJECTID":390913},"geometry":{"x":171383.24000000022,"y":2542776.9600000009}},{"attributes":{"ID":390938,"DIS_CODE":0,"TOWNNAME":"東區","LI":"自強里","LIN":"29鄰","STREET":"中華東路","SECT":"二段","MAREA":" ","LANE":"１８５巷","ALLEY":" ","HOUSE_NO":"１６號四樓","E_COORD97":171383.23999999999,"N_COORD97":2542776.96,"ADDRESS":"中華東路二段１８５巷１６號四樓","OBJECTID":390914},"geometry":{"x":171383.24000000022,"y":2542776.9600000009}},{"attributes":{"ID":390939,"DIS_CODE":0,"TOWNNAME":"東區","LI":"自強里","LIN":"29鄰","STREET":"中華東路","SECT":"二段","MAREA":" ","LANE":"１８５巷","ALLEY":" ","HOUSE_NO":"１６號四樓之１","E_COORD97":171383.23999999999,"N_COORD97":2542776.96,"ADDRESS":"中華東路二段１８５巷１６號四樓之１","OBJECTID":390915},"geometry":{"x":171383.24000000022,"y":2542776.9600000009}},{"attributes":{"ID":390940,"DIS_CODE":0,"TOWNNAME":"東區","LI":"自強里","LIN":"29鄰","STREET":"中華東路","SECT":"二段","MAREA":" ","LANE":"１８５巷","ALLEY":" ","HOUSE_NO":"１６號四樓之２","E_COORD97":171383.23999999999,"N_COORD97":2542776.96,"ADDRESS":"中華東路二段１８５巷１６號四樓之２","OBJECTID":390916},"geometry":{"x":171383.24000000022,"y":2542776.9600000009}},{"attributes":{"ID":390941,"DIS_CODE":0,"TOWNNAME":"東區","LI":"自強里","LIN":"29鄰","STREET":"中華東路","SECT":"二段","MAREA":" ","LANE":"１８５巷","ALLEY":" ","HOUSE_NO":"１６號四樓之３","E_COORD97":171383.23999999999,"N_COORD97":2542776.96,"ADDRESS":"中華東路二段１８５巷１６號四樓之３","OBJECTID":390917},"geometry":{"x":171383.24000000022,"y":2542776.9600000009}},{"attributes":{"ID":390942,"DIS_CODE":0,"TOWNNAME":"東區","LI":"自強里","LIN":"29鄰","STREET":"中華東路","SECT":"二段","MAREA":" ","LANE":"１８５巷","ALLEY":" ","HOUSE_NO":"３２號七樓","E_COORD97":171420.48999999999,"N_COORD97":2542781.9900000002,"ADDRESS":"中華東路二段１８５巷３２號七樓","OBJECTID":390918},"geometry":{"x":171420.49000000022,"y":2542781.9900000002}},{"attributes":{"ID":390943,"DIS_CODE":0,"TOWNNAME":"東區","LI":"自強里","LIN":"29鄰","STREET":"中華東路","SECT":"二段","MAREA":" ","LANE":"１８５巷","ALLEY":" ","HOUSE_NO":"３２號七樓之１","E_COORD97":171420.48999999999,"N_COORD97":2542781.9900000002,"ADDRESS":"中華東路二段１８５巷３２號七樓之１","OBJECTID":390919},"geometry":{"x":171420.49000000022,"y":2542781.9900000002}},{"attributes":{"ID":390944,"DIS_CODE":0,"TOWNNAME":"東區","LI":"自強里","LIN":"29鄰","STREET":"中華東路","SECT":"二段","MAREA":" ","LANE":"１８５巷","ALLEY":" ","HOUSE_NO":"３２號七樓之２","E_COORD97":171420.48999999999,"N_COORD97":2542781.9900000002,"ADDRESS":"中華東路二段１８５巷３２號七樓之２","OBJECTID":390920},"geometry":{"x":171420.49000000022,"y":2542781.9900000002}},{"attributes":{"ID":390945,"DIS_CODE":0,"TOWNNAME":"東區","LI":"自強里","LIN":"29鄰","STREET":"中華東路","SECT":"二段","MAREA":" ","LANE":"１８５巷","ALLEY":" ","HOUSE_NO":"３２號七樓之３","E_COORD97":171420.48999999999,"N_COORD97":2542781.9900000002,"ADDRESS":"中華東路二段１８５巷３２號七樓之３","OBJECTID":390921},"geometry":{"x":171420.49000000022,"y":2542781.9900000002}},{"attributes":{"ID":390946,"DIS_CODE":0,"TOWNNAME":"東區","LI":"自強里","LIN":"29鄰","STREET":"中華東路","SECT":"二段","MAREA":" ","LANE":"１８５巷","ALLEY":" ","HOUSE_NO":"３２號九樓","E_COORD97":171420.48999999999,"N_COORD97":2542781.9900000002,"ADDRESS":"中華東路二段１８５巷３２號九樓","OBJECTID":390922},"geometry":{"x":171420.49000000022,"y":2542781.9900000002}},{"attributes":{"ID":390947,"DIS_CODE":0,"TOWNNAME":"東區","LI":"自強里","LIN":"29鄰","STREET":"中華東路","SECT":"二段","MAREA":" ","LANE":"１８５巷","ALLEY":" ","HOUSE_NO":"３２號九樓之１","E_COORD97":171420.48999999999,"N_COORD97":2542781.9900000002,"ADDRESS":"中華東路二段１８５巷３２號九樓之１","OBJECTID":390923},"geometry":{"x":171420.49000000022,"y":2542781.9900000002}},{"attributes":{"ID":390948,"DIS_CODE":0,"TOWNNAME":"東區","LI":"自強里","LIN":"29鄰","STREET":"中華東路","SECT":"二段","MAREA":" ","LANE":"１８５巷","ALLEY":" ","HOUSE_NO":"３２號九樓之２","E_COORD97":171420.48999999999,"N_COORD97":2542781.9900000002,"ADDRESS":"中華東路二段１８５巷３２號九樓之２","OBJECTID":390924},"geometry":{"x":171420.49000000022,"y":2542781.9900000002}},{"attributes":{"ID":390949,"DIS_CODE":0,"TOWNNAME":"東區","LI":"自強里","LIN":"29鄰","STREET":"中華東路","SECT":"二段","MAREA":" ","LANE":"１８５巷","ALLEY":" ","HOUSE_NO":"３２號九樓之３","E_COORD97":171420.48999999999,"N_COORD97":2542781.9900000002,"ADDRESS":"中華東路二段１８５巷３２號九樓之３","OBJECTID":390925},"geometry":{"x":171420.49000000022,"y":2542781.9900000002}},{"attributes":{"ID":390950,"DIS_CODE":0,"TOWNNAME":"東區","LI":"自強里","LIN":"29鄰","STREET":"中華東路","SECT":"二段","MAREA":" ","LANE":"１８５巷","ALLEY":" ","HOUSE_NO":"３２號八樓","E_COORD97":171420.48999999999,"N_COORD97":2542781.9900000002,"ADDRESS":"中華東路二段１８５巷３２號八樓","OBJECTID":390926},"geometry":{"x":171420.49000000022,"y":2542781.9900000002}},{"attributes":{"ID":390951,"DIS_CODE":0,"TOWNNAME":"東區","LI":"自強里","LIN":"29鄰","STREET":"中華東路","SECT":"二段","MAREA":" ","LANE":"１８５巷","ALLEY":" ","HOUSE_NO":"３２號八樓之１","E_COORD97":171420.48999999999,"N_COORD97":2542781.9900000002,"ADDRESS":"中華東路二段１８５巷３２號八樓之１","OBJECTID":390927},"geometry":{"x":171420.49000000022,"y":2542781.9900000002}},{"attributes":{"ID":390952,"DIS_CODE":0,"TOWNNAME":"東區","LI":"自強里","LIN":"29鄰","STREET":"中華東路","SECT":"二段","MAREA":" ","LANE":"１８５巷","ALLEY":" ","HOUSE_NO":"３２號八樓之２","E_COORD97":171420.48999999999,"N_COORD97":2542781.9900000002,"ADDRESS":"中華東路二段１８５巷３２號八樓之２","OBJECTID":390928},"geometry":{"x":171420.49000000022,"y":2542781.9900000002}},{"attributes":{"ID":390953,"DIS_CODE":0,"TOWNNAME":"東區","LI":"自強里","LIN":"29鄰","STREET":"中華東路","SECT":"二段","MAREA":" ","LANE":"１８５巷","ALLEY":" ","HOUSE_NO":"３２號八樓之３","E_COORD97":171420.48999999999,"N_COORD97":2542781.9900000002,"ADDRESS":"中華東路二段１８５巷３２號八樓之３","OBJECTID":390929},"geometry":{"x":171420.49000000022,"y":2542781.9900000002}},{"attributes":{"ID":390954,"DIS_CODE":0,"TOWNNAME":"東區","LI":"自強里","LIN":"29鄰","STREET":"中華東路","SECT":"二段","MAREA":" ","LANE":"１８５巷","ALLEY":" ","HOUSE_NO":"３２號十一樓","E_COORD97":171420.48999999999,"N_COORD97":2542781.9900000002,"ADDRESS":"中華東路二段１８５巷３２號十一樓","OBJECTID":390930},"geometry":{"x":171420.49000000022,"y":2542781.9900000002}},{"attributes":{"ID":390955,"DIS_CODE":0,"TOWNNAME":"善化區","LI":"光文里","LIN":"13鄰","STREET":"樹人路","SECT":" ","MAREA":" ","LANE":" ","ALLEY":" ","HOUSE_NO":"３６號","E_COORD97":178385.76999999999,"N_COORD97":2558997,"ADDRESS":"樹人路３６號","OBJECTID":390931},"geometry":{"x":178385.77000000048,"y":2558997.0000000019}},{"attributes":{"ID":390956,"DIS_CODE":0,"TOWNNAME":"善化區","LI":"西關里","LIN":"13鄰","STREET":"復興街","SECT":" ","MAREA":" ","LANE":" ","ALLEY":" ","HOUSE_NO":"１４６號","E_COORD97":176640.14999999999,"N_COORD97":2559019.2599999998,"ADDRESS":"復興街１４６號","OBJECTID":390932},"geometry":{"x":176640.1500000013,"y":2559019.2600000016}},{"attributes":{"ID":390957,"DIS_CODE":0,"TOWNNAME":"東區","LI":"自強里","LIN":"29鄰","STREET":"中華東路","SECT":"二段","MAREA":" ","LANE":"１８５巷","ALLEY":" ","HOUSE_NO":"３２號十一樓之１","E_COORD97":171420.48999999999,"N_COORD97":2542781.9900000002,"ADDRESS":"中華東路二段１８５巷３２號十一樓之１","OBJECTID":390933},"geometry":{"x":171420.49000000022,"y":2542781.9900000002}},{"attributes":{"ID":390958,"DIS_CODE":0,"TOWNNAME":"東區","LI":"自強里","LIN":"29鄰","STREET":"中華東路","SECT":"二段","MAREA":" ","LANE":"１８５巷","ALLEY":" ","HOUSE_NO":"３２號十一樓之２","E_COORD97":171420.48999999999,"N_COORD97":2542781.9900000002,"ADDRESS":"中華東路二段１８５巷３２號十一樓之２","OBJECTID":390934},"geometry":{"x":171420.49000000022,"y":2542781.9900000002}},{"attributes":{"ID":390959,"DIS_CODE":0,"TOWNNAME":"東區","LI":"自強里","LIN":"29鄰","STREET":"中華東路","SECT":"二段","MAREA":" ","LANE":"１８５巷","ALLEY":" ","HOUSE_NO":"３２號十一樓之３","E_COORD97":171420.48999999999,"N_COORD97":2542781.9900000002,"ADDRESS":"中華東路二段１８５巷３２號十一樓之３","OBJECTID":390935},"geometry":{"x":171420.49000000022,"y":2542781.9900000002}},{"attributes":{"ID":390960,"DIS_CODE":0,"TOWNNAME":"東區","LI":"自強里","LIN":"29鄰","STREET":"中華東路","SECT":"二段","MAREA":" ","LANE":"１８５巷","ALLEY":" ","HOUSE_NO":"３２號十七樓","E_COORD97":171420.48999999999,"N_COORD97":2542781.9900000002,"ADDRESS":"中華東路二段１８５巷３２號十七樓","OBJECTID":390936},"geometry":{"x":171420.49000000022,"y":2542781.9900000002}},{"attributes":{"ID":390961,"DIS_CODE":0,"TOWNNAME":"東區","LI":"自強里","LIN":"29鄰","STREET":"中華東路","SECT":"二段","MAREA":" ","LANE":"１８５巷","ALLEY":" ","HOUSE_NO":"３２號十七樓之１","E_COORD97":171420.48999999999,"N_COORD97":2542781.9900000002,"ADDRESS":"中華東路二段１８５巷３２號十七樓之１","OBJECTID":390937},"geometry":{"x":171420.49000000022,"y":2542781.9900000002}},{"attributes":{"ID":390962,"DIS_CODE":0,"TOWNNAME":"東區","LI":"自強里","LIN":"29鄰","STREET":"中華東路","SECT":"二段","MAREA":" ","LANE":"１８５巷","ALLEY":" ","HOUSE_NO":"３２號十七樓之２","E_COORD97":171420.48999999999,"N_COORD97":2542781.9900000002,"ADDRESS":"中華東路二段１８５巷３２號十七樓之２","OBJECTID":390938},"geometry":{"x":171420.49000000022,"y":2542781.9900000002}},{"attributes":{"ID":390963,"DIS_CODE":0,"TOWNNAME":"東區","LI":"自強里","LIN":"29鄰","STREET":"中華東路","SECT":"二段","MAREA":" ","LANE":"１８５巷","ALLEY":" ","HOUSE_NO":"３２號十七樓之３","E_COORD97":171420.48999999999,"N_COORD97":2542781.9900000002,"ADDRESS":"中華東路二段１８５巷３２號十七樓之３","OBJECTID":390939},"geometry":{"x":171420.49000000022,"y":2542781.9900000002}},{"attributes":{"ID":390964,"DIS_CODE":0,"TOWNNAME":"東區","LI":"自強里","LIN":"29鄰","STREET":"中華東路","SECT":"二段","MAREA":" ","LANE":"１８５巷","ALLEY":" ","HOUSE_NO":"３２號十二樓","E_COORD97":171420.48999999999,"N_COORD97":2542781.9900000002,"ADDRESS":"中華東路二段１８５巷３２號十二樓","OBJECTID":390940},"geometry":{"x":171420.49000000022,"y":2542781.9900000002}},{"attributes":{"ID":390965,"DIS_CODE":0,"TOWNNAME":"東區","LI":"自強里","LIN":"29鄰","STREET":"中華東路","SECT":"二段","MAREA":" ","LANE":"１８５巷","ALLEY":" ","HOUSE_NO":"３２號十二樓之１","E_COORD97":171420.48999999999,"N_COORD97":2542781.9900000002,"ADDRESS":"中華東路二段１８５巷３２號十二樓之１","OBJECTID":390941},"geometry":{"x":171420.49000000022,"y":2542781.9900000002}},{"attributes":{"ID":390966,"DIS_CODE":0,"TOWNNAME":"永康區","LI":"尚頂里","LIN":"29鄰","STREET":"南台街","SECT":" ","MAREA":" ","LANE":"８９巷","ALLEY":" ","HOUSE_NO":"１３號九樓之１","E_COORD97":170214.76000000001,"N_COORD97":2546972.7999999998,"ADDRESS":"南台街８９巷１３號九樓之１","OBJECTID":390942},"geometry":{"x":170214.75999999978,"y":2546972.8000000045}},{"attributes":{"ID":390967,"DIS_CODE":0,"TOWNNAME":"東區","LI":"自強里","LIN":"29鄰","STREET":"中華東路","SECT":"二段","MAREA":" ","LANE":"１８５巷","ALLEY":" ","HOUSE_NO":"３２號十二樓之２","E_COORD97":171420.48999999999,"N_COORD97":2542781.9900000002,"ADDRESS":"中華東路二段１８５巷３２號十二樓之２","OBJECTID":390943},"geometry":{"x":171420.49000000022,"y":2542781.9900000002}},{"attributes":{"ID":390968,"DIS_CODE":0,"TOWNNAME":"東區","LI":"自強里","LIN":"29鄰","STREET":"中華東路","SECT":"二段","MAREA":" ","LANE":"１８５巷","ALLEY":" ","HOUSE_NO":"３２號十二樓之３","E_COORD97":171420.48999999999,"N_COORD97":2542781.9900000002,"ADDRESS":"中華東路二段１８５巷３２號十二樓之３","OBJECTID":390944},"geometry":{"x":171420.49000000022,"y":2542781.9900000002}},{"attributes":{"ID":390969,"DIS_CODE":0,"TOWNNAME":"東區","LI":"自強里","LIN":"29鄰","STREET":"中華東路","SECT":"二段","MAREA":" ","LANE":"１８５巷","ALLEY":" ","HOUSE_NO":"３２號十八樓","E_COORD97":171420.48999999999,"N_COORD97":2542781.9900000002,"ADDRESS":"中華東路二段１８５巷３２號十八樓","OBJECTID":390945},"geometry":{"x":171420.49000000022,"y":2542781.9900000002}},{"attributes":{"ID":390970,"DIS_CODE":0,"TOWNNAME":"東區","LI":"自強里","LIN":"29鄰","STREET":"中華東路","SECT":"二段","MAREA":" ","LANE":"１８５巷","ALLEY":" ","HOUSE_NO":"３２號十八樓之１","E_COORD97":171420.48999999999,"N_COORD97":2542781.9900000002,"ADDRESS":"中華東路二段１８５巷３２號十八樓之１","OBJECTID":390946},"geometry":{"x":171420.49000000022,"y":2542781.9900000002}},{"attributes":{"ID":390971,"DIS_CODE":0,"TOWNNAME":"東區","LI":"自強里","LIN":"29鄰","STREET":"中華東路","SECT":"二段","MAREA":" ","LANE":"１８５巷","ALLEY":" ","HOUSE_NO":"３２號十八樓之２","E_COORD97":171420.48999999999,"N_COORD97":2542781.9900000002,"ADDRESS":"中華東路二段１８５巷３２號十八樓之２","OBJECTID":390947},"geometry":{"x":171420.49000000022,"y":2542781.9900000002}},{"attributes":{"ID":390972,"DIS_CODE":0,"TOWNNAME":"東區","LI":"自強里","LIN":"29鄰","STREET":"中華東路","SECT":"二段","MAREA":" ","LANE":"１８５巷","ALLEY":" ","HOUSE_NO":"３２號十八樓之３","E_COORD97":171420.48999999999,"N_COORD97":2542781.9900000002,"ADDRESS":"中華東路二段１８５巷３２號十八樓之３","OBJECTID":390948},"geometry":{"x":171420.49000000022,"y":2542781.9900000002}},{"attributes":{"ID":390973,"DIS_CODE":0,"TOWNNAME":"東區","LI":"自強里","LIN":"29鄰","STREET":"中華東路","SECT":"二段","MAREA":" ","LANE":"１８５巷","ALLEY":" ","HOUSE_NO":"３２號十三樓","E_COORD97":171420.48999999999,"N_COORD97":2542781.9900000002,"ADDRESS":"中華東路二段１８５巷３２號十三樓","OBJECTID":390949},"geometry":{"x":171420.49000000022,"y":2542781.9900000002}},{"attributes":{"ID":390974,"DIS_CODE":0,"TOWNNAME":"東區","LI":"自強里","LIN":"29鄰","STREET":"中華東路","SECT":"二段","MAREA":" ","LANE":"１８５巷","ALLEY":" ","HOUSE_NO":"３２號十三樓之１","E_COORD97":171420.48999999999,"N_COORD97":2542781.9900000002,"ADDRESS":"中華東路二段１８５巷３２號十三樓之１","OBJECTID":390950},"geometry":{"x":171420.49000000022,"y":2542781.9900000002}},{"attributes":{"ID":390975,"DIS_CODE":0,"TOWNNAME":"東區","LI":"自強里","LIN":"29鄰","STREET":"中華東路","SECT":"二段","MAREA":" ","LANE":"１８５巷","ALLEY":" ","HOUSE_NO":"３２號十三樓之２","E_COORD97":171420.48999999999,"N_COORD97":2542781.9900000002,"ADDRESS":"中華東路二段１８５巷３２號十三樓之２","OBJECTID":390951},"geometry":{"x":171420.49000000022,"y":2542781.9900000002}},{"attributes":{"ID":390976,"DIS_CODE":0,"TOWNNAME":"東區","LI":"自強里","LIN":"29鄰","STREET":"中華東路","SECT":"二段","MAREA":" ","LANE":"１８５巷","ALLEY":" ","HOUSE_NO":"３２號十三樓之３","E_COORD97":171420.48999999999,"N_COORD97":2542781.9900000002,"ADDRESS":"中華東路二段１８５巷３２號十三樓之３","OBJECTID":390952},"geometry":{"x":171420.49000000022,"y":2542781.9900000002}},{"attributes":{"ID":390977,"DIS_CODE":0,"TOWNNAME":"東區","LI":"自強里","LIN":"29鄰","STREET":"中華東路","SECT":"二段","MAREA":" ","LANE":"１８５巷","ALLEY":" ","HOUSE_NO":"３２號十五樓","E_COORD97":171420.48999999999,"N_COORD97":2542781.9900000002,"ADDRESS":"中華東路二段１８５巷３２號十五樓","OBJECTID":390953},"geometry":{"x":171420.49000000022,"y":2542781.9900000002}},{"attributes":{"ID":390978,"DIS_CODE":0,"TOWNNAME":"東區","LI":"自強里","LIN":"29鄰","STREET":"中華東路","SECT":"二段","MAREA":" ","LANE":"１８５巷","ALLEY":" ","HOUSE_NO":"３２號十五樓之１","E_COORD97":171420.48999999999,"N_COORD97":2542781.9900000002,"ADDRESS":"中華東路二段１８５巷３２號十五樓之１","OBJECTID":390954},"geometry":{"x":171420.49000000022,"y":2542781.9900000002}},{"attributes":{"ID":390979,"DIS_CODE":0,"TOWNNAME":"東區","LI":"自強里","LIN":"29鄰","STREET":"中華東路","SECT":"二段","MAREA":" ","LANE":"１８５巷","ALLEY":" ","HOUSE_NO":"３２號十五樓之２","E_COORD97":171420.48999999999,"N_COORD97":2542781.9900000002,"ADDRESS":"中華東路二段１８５巷３２號十五樓之２","OBJECTID":390955},"geometry":{"x":171420.49000000022,"y":2542781.9900000002}},{"attributes":{"ID":390980,"DIS_CODE":0,"TOWNNAME":"東區","LI":"自強里","LIN":"29鄰","STREET":"中華東路","SECT":"二段","MAREA":" ","LANE":"１８５巷","ALLEY":" ","HOUSE_NO":"３２號十五樓之３","E_COORD97":171420.48999999999,"N_COORD97":2542781.9900000002,"ADDRESS":"中華東路二段１８５巷３２號十五樓之３","OBJECTID":390956},"geometry":{"x":171420.49000000022,"y":2542781.9900000002}},{"attributes":{"ID":390981,"DIS_CODE":0,"TOWNNAME":"東區","LI":"自強里","LIN":"29鄰","STREET":"中華東路","SECT":"二段","MAREA":" ","LANE":"１８５巷","ALLEY":" ","HOUSE_NO":"３２號十六樓","E_COORD97":171420.48999999999,"N_COORD97":2542781.9900000002,"ADDRESS":"中華東路二段１８５巷３２號十六樓","OBJECTID":390957},"geometry":{"x":171420.49000000022,"y":2542781.9900000002}},{"attributes":{"ID":390982,"DIS_CODE":0,"TOWNNAME":"東區","LI":"自強里","LIN":"29鄰","STREET":"中華東路","SECT":"二段","MAREA":" ","LANE":"１８５巷","ALLEY":" ","HOUSE_NO":"３２號十六樓之１","E_COORD97":171420.48999999999,"N_COORD97":2542781.9900000002,"ADDRESS":"中華東路二段１８５巷３２號十六樓之１","OBJECTID":390958},"geometry":{"x":171420.49000000022,"y":2542781.9900000002}},{"attributes":{"ID":390983,"DIS_CODE":0,"TOWNNAME":"東區","LI":"自強里","LIN":"29鄰","STREET":"中華東路","SECT":"二段","MAREA":" ","LANE":"１８５巷","ALLEY":" ","HOUSE_NO":"３２號十六樓之２","E_COORD97":171420.48999999999,"N_COORD97":2542781.9900000002,"ADDRESS":"中華東路二段１８５巷３２號十六樓之２","OBJECTID":390959},"geometry":{"x":171420.49000000022,"y":2542781.9900000002}},{"attributes":{"ID":390984,"DIS_CODE":0,"TOWNNAME":"東區","LI":"自強里","LIN":"29鄰","STREET":"中華東路","SECT":"二段","MAREA":" ","LANE":"１８５巷","ALLEY":" ","HOUSE_NO":"３２號十六樓之３","E_COORD97":171420.48999999999,"N_COORD97":2542781.9900000002,"ADDRESS":"中華東路二段１８５巷３２號十六樓之３","OBJECTID":390960},"geometry":{"x":171420.49000000022,"y":2542781.9900000002}},{"attributes":{"ID":390985,"DIS_CODE":0,"TOWNNAME":"東區","LI":"東明里","LIN":"14鄰","STREET":"東安路","SECT":" ","MAREA":" ","LANE":"７６巷","ALLEY":" ","HOUSE_NO":"４３號","E_COORD97":170804.47,"N_COORD97":2543667.7599999998,"ADDRESS":"東安路７６巷４３號","OBJECTID":390961},"geometry":{"x":170804.46999999974,"y":2543667.7600000016}},{"attributes":{"ID":390986,"DIS_CODE":0,"TOWNNAME":"東區","LI":"自強里","LIN":"29鄰","STREET":"中華東路","SECT":"二段","MAREA":" ","LANE":"１８５巷","ALLEY":" ","HOUSE_NO":"３２號十四樓","E_COORD97":171420.48999999999,"N_COORD97":2542781.9900000002,"ADDRESS":"中華東路二段１８５巷３２號十四樓","OBJECTID":390962},"geometry":{"x":171420.49000000022,"y":2542781.9900000002}},{"attributes":{"ID":390987,"DIS_CODE":0,"TOWNNAME":"東區","LI":"自強里","LIN":"29鄰","STREET":"中華東路","SECT":"二段","MAREA":" ","LANE":"１８５巷","ALLEY":" ","HOUSE_NO":"３２號十四樓之１","E_COORD97":171420.48999999999,"N_COORD97":2542781.9900000002,"ADDRESS":"中華東路二段１８５巷３２號十四樓之１","OBJECTID":390963},"geometry":{"x":171420.49000000022,"y":2542781.9900000002}},{"attributes":{"ID":390988,"DIS_CODE":0,"TOWNNAME":"東區","LI":"東明里","LIN":"5鄰","STREET":"怡東路","SECT":" ","MAREA":" ","LANE":"７２巷","ALLEY":" ","HOUSE_NO":"１０號","E_COORD97":170901.35999999999,"N_COORD97":2543621.4399999999,"ADDRESS":"怡東路７２巷１０號","OBJECTID":390964},"geometry":{"x":170901.3599999994,"y":2543621.4400000013}},{"attributes":{"ID":390989,"DIS_CODE":0,"TOWNNAME":"東區","LI":"自強里","LIN":"29鄰","STREET":"中華東路","SECT":"二段","MAREA":" ","LANE":"１８５巷","ALLEY":" ","HOUSE_NO":"３２號十四樓之２","E_COORD97":171420.48999999999,"N_COORD97":2542781.9900000002,"ADDRESS":"中華東路二段１８５巷３２號十四樓之２","OBJECTID":390965},"geometry":{"x":171420.49000000022,"y":2542781.9900000002}},{"attributes":{"ID":390990,"DIS_CODE":0,"TOWNNAME":"東區","LI":"自強里","LIN":"29鄰","STREET":"中華東路","SECT":"二段","MAREA":" ","LANE":"１８５巷","ALLEY":" ","HOUSE_NO":"３２號十四樓之３","E_COORD97":171420.48999999999,"N_COORD97":2542781.9900000002,"ADDRESS":"中華東路二段１８５巷３２號十四樓之３","OBJECTID":390966},"geometry":{"x":171420.49000000022,"y":2542781.9900000002}},{"attributes":{"ID":390991,"DIS_CODE":0,"TOWNNAME":"東區","LI":"自強里","LIN":"29鄰","STREET":"中華東路","SECT":"二段","MAREA":" ","LANE":"１８５巷","ALLEY":" ","HOUSE_NO":"３２號十樓","E_COORD97":171420.48999999999,"N_COORD97":2542781.9900000002,"ADDRESS":"中華東路二段１８５巷３２號十樓","OBJECTID":390967},"geometry":{"x":171420.49000000022,"y":2542781.9900000002}},{"attributes":{"ID":390992,"DIS_CODE":0,"TOWNNAME":"東區","LI":"自強里","LIN":"29鄰","STREET":"中華東路","SECT":"二段","MAREA":" ","LANE":"１８５巷","ALLEY":" ","HOUSE_NO":"３２號十樓之１","E_COORD97":171420.48999999999,"N_COORD97":2542781.9900000002,"ADDRESS":"中華東路二段１８５巷３２號十樓之１","OBJECTID":390968},"geometry":{"x":171420.49000000022,"y":2542781.9900000002}},{"attributes":{"ID":390993,"DIS_CODE":0,"TOWNNAME":"東區","LI":"自強里","LIN":"29鄰","STREET":"中華東路","SECT":"二段","MAREA":" ","LANE":"１８５巷","ALLEY":" ","HOUSE_NO":"３２號十樓之２","E_COORD97":171420.48999999999,"N_COORD97":2542781.9900000002,"ADDRESS":"中華東路二段１８５巷３２號十樓之２","OBJECTID":390969},"geometry":{"x":171420.49000000022,"y":2542781.9900000002}},{"attributes":{"ID":390994,"DIS_CODE":0,"TOWNNAME":"東區","LI":"自強里","LIN":"29鄰","STREET":"中華東路","SECT":"二段","MAREA":" ","LANE":"１８５巷","ALLEY":" ","HOUSE_NO":"３２號十樓之３","E_COORD97":171420.48999999999,"N_COORD97":2542781.9900000002,"ADDRESS":"中華東路二段１８５巷３２號十樓之３","OBJECTID":390970},"geometry":{"x":171420.49000000022,"y":2542781.9900000002}},{"attributes":{"ID":390995,"DIS_CODE":0,"TOWNNAME":"東區","LI":"自強里","LIN":"29鄰","STREET":"中華東路","SECT":"二段","MAREA":" ","LANE":"１８５巷","ALLEY":" ","HOUSE_NO":"３２號三樓","E_COORD97":171420.48999999999,"N_COORD97":2542781.9900000002,"ADDRESS":"中華東路二段１８５巷３２號三樓","OBJECTID":390971},"geometry":{"x":171420.49000000022,"y":2542781.9900000002}},{"attributes":{"ID":390996,"DIS_CODE":0,"TOWNNAME":"東區","LI":"自強里","LIN":"29鄰","STREET":"中華東路","SECT":"二段","MAREA":" ","LANE":"１８５巷","ALLEY":" ","HOUSE_NO":"３２號三樓之１","E_COORD97":171420.48999999999,"N_COORD97":2542781.9900000002,"ADDRESS":"中華東路二段１８５巷３２號三樓之１","OBJECTID":390972},"geometry":{"x":171420.49000000022,"y":2542781.9900000002}},{"attributes":{"ID":390997,"DIS_CODE":0,"TOWNNAME":"東區","LI":"自強里","LIN":"29鄰","STREET":"中華東路","SECT":"二段","MAREA":" ","LANE":"１８５巷","ALLEY":" ","HOUSE_NO":"３２號三樓之２","E_COORD97":171420.48999999999,"N_COORD97":2542781.9900000002,"ADDRESS":"中華東路二段１８５巷３２號三樓之２","OBJECTID":390973},"geometry":{"x":171420.49000000022,"y":2542781.9900000002}},{"attributes":{"ID":390998,"DIS_CODE":0,"TOWNNAME":"東區","LI":"自強里","LIN":"29鄰","STREET":"中華東路","SECT":"二段","MAREA":" ","LANE":"１８５巷","ALLEY":" ","HOUSE_NO":"３２號三樓之３","E_COORD97":171420.48999999999,"N_COORD97":2542781.9900000002,"ADDRESS":"中華東路二段１８５巷３２號三樓之３","OBJECTID":390974},"geometry":{"x":171420.49000000022,"y":2542781.9900000002}},{"attributes":{"ID":390999,"DIS_CODE":0,"TOWNNAME":"東區","LI":"自強里","LIN":"29鄰","STREET":"中華東路","SECT":"二段","MAREA":" ","LANE":"１８５巷","ALLEY":" ","HOUSE_NO":"３２號五樓","E_COORD97":171420.48999999999,"N_COORD97":2542781.9900000002,"ADDRESS":"中華東路二段１８５巷３２號五樓","OBJECTID":390975},"geometry":{"x":171420.49000000022,"y":2542781.9900000002}},{"attributes":{"ID":391000,"DIS_CODE":0,"TOWNNAME":"東區","LI":"自強里","LIN":"29鄰","STREET":"中華東路","SECT":"二段","MAREA":" ","LANE":"１８５巷","ALLEY":" ","HOUSE_NO":"３２號五樓之１","E_COORD97":171420.48999999999,"N_COORD97":2542781.9900000002,"ADDRESS":"中華東路二段１８５巷３２號五樓之１","OBJECTID":390976},"geometry":{"x":171420.49000000022,"y":2542781.9900000002}},{"attributes":{"ID":391001,"DIS_CODE":0,"TOWNNAME":"東區","LI":"自強里","LIN":"29鄰","STREET":"中華東路","SECT":"二段","MAREA":" ","LANE":"１８５巷","ALLEY":" ","HOUSE_NO":"３２號五樓之２","E_COORD97":171420.48999999999,"N_COORD97":2542781.9900000002,"ADDRESS":"中華東路二段１８５巷３２號五樓之２","OBJECTID":390977},"geometry":{"x":171420.49000000022,"y":2542781.9900000002}},{"attributes":{"ID":391002,"DIS_CODE":0,"TOWNNAME":"東區","LI":"自強里","LIN":"29鄰","STREET":"中華東路","SECT":"二段","MAREA":" ","LANE":"１８５巷","ALLEY":" ","HOUSE_NO":"３２號五樓之３","E_COORD97":171420.48999999999,"N_COORD97":2542781.9900000002,"ADDRESS":"中華東路二段１８５巷３２號五樓之３","OBJECTID":390978},"geometry":{"x":171420.49000000022,"y":2542781.9900000002}},{"attributes":{"ID":391003,"DIS_CODE":0,"TOWNNAME":"東區","LI":"自強里","LIN":"29鄰","STREET":"中華東路","SECT":"二段","MAREA":" ","LANE":"１８５巷","ALLEY":" ","HOUSE_NO":"３２號六樓","E_COORD97":171420.48999999999,"N_COORD97":2542781.9900000002,"ADDRESS":"中華東路二段１８５巷３２號六樓","OBJECTID":390979},"geometry":{"x":171420.49000000022,"y":2542781.9900000002}},{"attributes":{"ID":391004,"DIS_CODE":0,"TOWNNAME":"新營區","LI":"忠政里","LIN":"29鄰","STREET":"府西路","SECT":" ","MAREA":" ","LANE":"８７巷","ALLEY":" ","HOUSE_NO":"７號","E_COORD97":179766.32999999999,"N_COORD97":2579198.4199999999,"ADDRESS":"府西路８７巷７號","OBJECTID":390980},"geometry":{"x":179766.33000000101,"y":2579198.4199999999}},{"attributes":{"ID":391005,"DIS_CODE":0,"TOWNNAME":"東區","LI":"自強里","LIN":"29鄰","STREET":"中華東路","SECT":"二段","MAREA":" ","LANE":"１８５巷","ALLEY":" ","HOUSE_NO":"３２號六樓之１","E_COORD97":171420.48999999999,"N_COORD97":2542781.9900000002,"ADDRESS":"中華東路二段１８５巷３２號六樓之１","OBJECTID":390981},"geometry":{"x":171420.49000000022,"y":2542781.9900000002}},{"attributes":{"ID":391006,"DIS_CODE":0,"TOWNNAME":"東區","LI":"自強里","LIN":"29鄰","STREET":"中華東路","SECT":"二段","MAREA":" ","LANE":"１８５巷","ALLEY":" ","HOUSE_NO":"３２號六樓之２","E_COORD97":171420.48999999999,"N_COORD97":2542781.9900000002,"ADDRESS":"中華東路二段１８５巷３２號六樓之２","OBJECTID":390982},"geometry":{"x":171420.49000000022,"y":2542781.9900000002}},{"attributes":{"ID":391007,"DIS_CODE":0,"TOWNNAME":"東區","LI":"自強里","LIN":"29鄰","STREET":"中華東路","SECT":"二段","MAREA":" ","LANE":"１８５巷","ALLEY":" ","HOUSE_NO":"３２號六樓之３","E_COORD97":171420.48999999999,"N_COORD97":2542781.9900000002,"ADDRESS":"中華東路二段１８５巷３２號六樓之３","OBJECTID":390983},"geometry":{"x":171420.49000000022,"y":2542781.9900000002}},{"attributes":{"ID":391008,"DIS_CODE":0,"TOWNNAME":"東區","LI":"自強里","LIN":"29鄰","STREET":"中華東路","SECT":"二段","MAREA":" ","LANE":"１８５巷","ALLEY":" ","HOUSE_NO":"３２號四樓","E_COORD97":171420.48999999999,"N_COORD97":2542781.9900000002,"ADDRESS":"中華東路二段１８５巷３２號四樓","OBJECTID":390984},"geometry":{"x":171420.49000000022,"y":2542781.9900000002}},{"attributes":{"ID":391009,"DIS_CODE":0,"TOWNNAME":"東區","LI":"自強里","LIN":"29鄰","STREET":"中華東路","SECT":"二段","MAREA":" ","LANE":"１８５巷","ALLEY":" ","HOUSE_NO":"３２號四樓之１","E_COORD97":171420.48999999999,"N_COORD97":2542781.9900000002,"ADDRESS":"中華東路二段１８５巷３２號四樓之１","OBJECTID":390985},"geometry":{"x":171420.49000000022,"y":2542781.9900000002}},{"attributes":{"ID":391010,"DIS_CODE":0,"TOWNNAME":"東區","LI":"自強里","LIN":"29鄰","STREET":"中華東路","SECT":"二段","MAREA":" ","LANE":"１８５巷","ALLEY":" ","HOUSE_NO":"３２號四樓之２","E_COORD97":171420.48999999999,"N_COORD97":2542781.9900000002,"ADDRESS":"中華東路二段１８５巷３２號四樓之２","OBJECTID":390986},"geometry":{"x":171420.49000000022,"y":2542781.9900000002}},{"attributes":{"ID":391011,"DIS_CODE":0,"TOWNNAME":"東區","LI":"自強里","LIN":"29鄰","STREET":"中華東路","SECT":"二段","MAREA":" ","LANE":"１８５巷","ALLEY":" ","HOUSE_NO":"３２號四樓之３","E_COORD97":171420.48999999999,"N_COORD97":2542781.9900000002,"ADDRESS":"中華東路二段１８５巷３２號四樓之３","OBJECTID":390987},"geometry":{"x":171420.49000000022,"y":2542781.9900000002}},{"attributes":{"ID":391012,"DIS_CODE":0,"TOWNNAME":"永康區","LI":"尚頂里","LIN":"29鄰","STREET":"南台街","SECT":" ","MAREA":" ","LANE":"８９巷","ALLEY":" ","HOUSE_NO":"１３號之１二樓之２","E_COORD97":170218.39000000001,"N_COORD97":2546957.0499999998,"ADDRESS":"南台街８９巷１３號之１二樓之２","OBJECTID":390988},"geometry":{"x":170218.38999999966,"y":2546957.0500000007}},{"attributes":{"ID":391013,"DIS_CODE":0,"TOWNNAME":"永康區","LI":"尚頂里","LIN":"29鄰","STREET":"南台街","SECT":" ","MAREA":" ","LANE":"８９巷","ALLEY":" ","HOUSE_NO":"１７號五樓之２","E_COORD97":170198.29000000001,"N_COORD97":2546926.7999999998,"ADDRESS":"南台街８９巷１７號五樓之２","OBJECTID":390989},"geometry":{"x":170198.29000000097,"y":2546926.8000000026}},{"attributes":{"ID":391014,"DIS_CODE":0,"TOWNNAME":"東區","LI":"東明里","LIN":"5鄰","STREET":"怡東路","SECT":" ","MAREA":" ","LANE":"７２巷","ALLEY":" ","HOUSE_NO":"１２號","E_COORD97":170908.32999999999,"N_COORD97":2543620.75,"ADDRESS":"怡東路７２巷１２號","OBJECTID":390990},"geometry":{"x":170908.33000000101,"y":2543620.7500000019}},{"attributes":{"ID":391015,"DIS_CODE":0,"TOWNNAME":"東區","LI":"東明里","LIN":"5鄰","STREET":"怡東路","SECT":" ","MAREA":" ","LANE":"７２巷","ALLEY":" ","HOUSE_NO":"４號","E_COORD97":170880.88,"N_COORD97":2543623.5299999998,"ADDRESS":"怡東路７２巷４號","OBJECTID":390991},"geometry":{"x":170880.88000000082,"y":2543623.5300000031}},{"attributes":{"ID":391016,"DIS_CODE":0,"TOWNNAME":"東區","LI":"東明里","LIN":"5鄰","STREET":"怡東路","SECT":" ","MAREA":" ","LANE":"７２巷","ALLEY":" ","HOUSE_NO":"６號","E_COORD97":170886.73000000001,"N_COORD97":2543622.8300000001,"ADDRESS":"怡東路７２巷６號","OBJECTID":390992},"geometry":{"x":170886.73000000045,"y":2543622.8300000019}},{"attributes":{"ID":391017,"DIS_CODE":0,"TOWNNAME":"東區","LI":"東明里","LIN":"5鄰","STREET":"怡東路","SECT":" ","MAREA":" ","LANE":"７２巷","ALLEY":" ","HOUSE_NO":"８號","E_COORD97":170893.70000000001,"N_COORD97":2543622.4199999999,"ADDRESS":"怡東路７２巷８號","OBJECTID":390993},"geometry":{"x":170893.70000000019,"y":2543622.4200000018}},{"attributes":{"ID":391018,"DIS_CODE":0,"TOWNNAME":"東區","LI":"東明里","LIN":"6鄰","STREET":"怡東路","SECT":" ","MAREA":" ","LANE":"７２巷","ALLEY":" ","HOUSE_NO":"１１號","E_COORD97":170913.85999999999,"N_COORD97":2543648.3199999998,"ADDRESS":"怡東路７２巷１１號","OBJECTID":390994},"geometry":{"x":170913.86000000127,"y":2543648.3200000003}},{"attributes":{"ID":391019,"DIS_CODE":0,"TOWNNAME":"永康區","LI":"尚頂里","LIN":"29鄰","STREET":"南台街","SECT":" ","MAREA":" ","LANE":"８９巷","ALLEY":" ","HOUSE_NO":"１３號六樓之１","E_COORD97":170214.76000000001,"N_COORD97":2546972.7999999998,"ADDRESS":"南台街８９巷１３號六樓之１","OBJECTID":390995},"geometry":{"x":170214.75999999978,"y":2546972.8000000045}},{"attributes":{"ID":391020,"DIS_CODE":0,"TOWNNAME":"永康區","LI":"尚頂里","LIN":"29鄰","STREET":"南台街","SECT":" ","MAREA":" ","LANE":"８９巷","ALLEY":" ","HOUSE_NO":"１３號之１八樓之１","E_COORD97":170218.25,"N_COORD97":2546957.0499999998,"ADDRESS":"南台街８９巷１３號之１八樓之１","OBJECTID":390996},"geometry":{"x":170218.25,"y":2546957.0500000007}},{"attributes":{"ID":391021,"DIS_CODE":0,"TOWNNAME":"永康區","LI":"尚頂里","LIN":"29鄰","STREET":"南台街","SECT":" ","MAREA":" ","LANE":"８９巷","ALLEY":" ","HOUSE_NO":"１７號六樓之１","E_COORD97":170198.14999999999,"N_COORD97":2546926.7999999998,"ADDRESS":"南台街８９巷１７號六樓之１","OBJECTID":390997},"geometry":{"x":170198.1500000013,"y":2546926.8000000026}},{"attributes":{"ID":391022,"DIS_CODE":0,"TOWNNAME":"永康區","LI":"尚頂里","LIN":"29鄰","STREET":"南台街","SECT":" ","MAREA":" ","LANE":"８９巷","ALLEY":" ","HOUSE_NO":"１３號之１四樓之１","E_COORD97":170218.25,"N_COORD97":2546957.0499999998,"ADDRESS":"南台街８９巷１３號之１四樓之１","OBJECTID":390998},"geometry":{"x":170218.25,"y":2546957.0500000007}},{"attributes":{"ID":391023,"DIS_CODE":0,"TOWNNAME":"永康區","LI":"尚頂里","LIN":"29鄰","STREET":"南台街","SECT":" ","MAREA":" ","LANE":"８９巷","ALLEY":" ","HOUSE_NO":"１３號七樓之２","E_COORD97":170214.89999999999,"N_COORD97":2546972.7999999998,"ADDRESS":"南台街８９巷１３號七樓之２","OBJECTID":390999},"geometry":{"x":170214.9000000013,"y":2546972.8000000045}},{"attributes":{"ID":391024,"DIS_CODE":0,"TOWNNAME":"東區","LI":"東明里","LIN":"9鄰","STREET":"怡東路","SECT":" ","MAREA":" ","LANE":"８６巷","ALLEY":" ","HOUSE_NO":"１號","E_COORD97":170892.56,"N_COORD97":2543708.3500000001,"ADDRESS":"怡東路８６巷１號","OBJECTID":391000},"geometry":{"x":170892.56000000145,"y":2543708.3499999996}}]}