{"displayFieldName":"TOWNNAME","fieldAliases":{"ID":"ID","DIS_CODE":"DIS_CODE","TOWNNAME":"TOWNNAME","LI":"LI","LIN":"LIN","STREET":"STREET","SECT":"SECT","MAREA":"MAREA","LANE":"LANE","ALLEY":"ALLEY","HOUSE_NO":"HOUSE_NO","E_COORD97":"E_COORD97","N_COORD97":"N_COORD97","ADDRESS":"ADDRESS","OBJECTID":"OBJECTID"},"geometryType":"esriGeometryPoint","spatialReference":{"wkid":102443,"latestWkid":3826},"fields":[{"name":"ID","type":"esriFieldTypeDouble","alias":"ID"},{"name":"DIS_CODE","type":"esriFieldTypeInteger","alias":"DIS_CODE"},{"name":"TOWNNAME","type":"esriFieldTypeString","alias":"TOWNNAME","length":8},{"name":"LI","type":"esriFieldTypeString","alias":"LI","length":8},{"name":"LIN","type":"esriFieldTypeString","alias":"LIN","length":12},{"name":"STREET","type":"esriFieldTypeString","alias":"STREET","length":20},{"name":"SECT","type":"esriFieldTypeString","alias":"SECT","length":8},{"name":"MAREA","type":"esriFieldTypeString","alias":"MAREA","length":12},{"name":"LANE","type":"esriFieldTypeString","alias":"LANE","length":10},{"name":"ALLEY","type":"esriFieldTypeString","alias":"ALLEY","length":10},{"name":"HOUSE_NO","type":"esriFieldTypeString","alias":"HOUSE_NO","length":20},{"name":"E_COORD97","type":"esriFieldTypeDouble","alias":"E_COORD97"},{"name":"N_COORD97","type":"esriFieldTypeDouble","alias":"N_COORD97"},{"name":"ADDRESS","type":"esriFieldTypeString","alias":"ADDRESS","length":50},{"name":"OBJECTID","type":"esriFieldTypeOID","alias":"OBJECTID"}],"features":[{"attributes":{"ID":171802,"DIS_CODE":0,"TOWNNAME":"白河區","LI":"白河里","LIN":" ","STREET":" ","SECT":" ","MAREA":" ","LANE":"市場三巷","ALLEY":" ","HOUSE_NO":"２１號","E_COORD97":190238.42999999999,"N_COORD97":2583063.7200000002,"ADDRESS":"市場三巷２１號","OBJECTID":171801},"geometry":{"x":190238.4299999997,"y":2583063.7200000044}},{"attributes":{"ID":171803,"DIS_CODE":0,"TOWNNAME":"白河區","LI":"白河里","LIN":" ","STREET":" ","SECT":" ","MAREA":" ","LANE":"市場三巷","ALLEY":" ","HOUSE_NO":"２２號","E_COORD97":190236.70000000001,"N_COORD97":2583058.2599999998,"ADDRESS":"市場三巷２２號","OBJECTID":171802},"geometry":{"x":190236.70000000112,"y":2583058.2599999998}},{"attributes":{"ID":171804,"DIS_CODE":0,"TOWNNAME":"白河區","LI":"白河里","LIN":" ","STREET":" ","SECT":" ","MAREA":" ","LANE":"市場三巷","ALLEY":" ","HOUSE_NO":"２３號","E_COORD97":190240.82000000001,"N_COORD97":2583062.8900000001,"ADDRESS":"市場三巷２３號","OBJECTID":171803},"geometry":{"x":190240.82000000123,"y":2583062.8900000025}},{"attributes":{"ID":171805,"DIS_CODE":0,"TOWNNAME":"白河區","LI":"白河里","LIN":" ","STREET":" ","SECT":" ","MAREA":" ","LANE":"市場三巷","ALLEY":" ","HOUSE_NO":"２４號","E_COORD97":190239.04000000001,"N_COORD97":2583057.4199999999,"ADDRESS":"市場三巷２４號","OBJECTID":171804},"geometry":{"x":190239.04000000097,"y":2583057.4199999999}},{"attributes":{"ID":171806,"DIS_CODE":0,"TOWNNAME":"白河區","LI":"白河里","LIN":" ","STREET":" ","SECT":" ","MAREA":" ","LANE":"市場三巷","ALLEY":" ","HOUSE_NO":"２５號","E_COORD97":190243.51999999999,"N_COORD97":2583062,"ADDRESS":"市場三巷２５號","OBJECTID":171805},"geometry":{"x":190243.52000000048,"y":2583062.0000000019}},{"attributes":{"ID":171807,"DIS_CODE":0,"TOWNNAME":"西港區","LI":"南海里","LIN":"12鄰","STREET":" ","SECT":" ","MAREA":"南海埔","LANE":" ","ALLEY":" ","HOUSE_NO":"１１３號之１","E_COORD97":167749.09,"N_COORD97":2557426.2999999998,"ADDRESS":"南海埔１１３號之１","OBJECTID":171806},"geometry":{"x":167749.08999999985,"y":2557426.3000000026}},{"attributes":{"ID":171808,"DIS_CODE":0,"TOWNNAME":"西港區","LI":"南海里","LIN":"12鄰","STREET":" ","SECT":" ","MAREA":"南海埔","LANE":" ","ALLEY":" ","HOUSE_NO":"１１３號之２","E_COORD97":167749.57000000001,"N_COORD97":2557401.9500000002,"ADDRESS":"南海埔１１３號之２","OBJECTID":171807},"geometry":{"x":167749.5700000003,"y":2557401.9499999993}},{"attributes":{"ID":171809,"DIS_CODE":0,"TOWNNAME":"西港區","LI":"南海里","LIN":"12鄰","STREET":" ","SECT":" ","MAREA":"南海埔","LANE":" ","ALLEY":" ","HOUSE_NO":"１１３號","E_COORD97":167765.67999999999,"N_COORD97":2557425.9100000001,"ADDRESS":"南海埔１１３號","OBJECTID":171808},"geometry":{"x":167765.6799999997,"y":2557425.9100000001}},{"attributes":{"ID":171810,"DIS_CODE":0,"TOWNNAME":"西港區","LI":"南海里","LIN":"12鄰","STREET":" ","SECT":" ","MAREA":"南海埔","LANE":" ","ALLEY":" ","HOUSE_NO":"１１４號","E_COORD97":167738.92999999999,"N_COORD97":2557407.1200000001,"ADDRESS":"南海埔１１４號","OBJECTID":171809},"geometry":{"x":167738.93000000156,"y":2557407.1200000029}},{"attributes":{"ID":171811,"DIS_CODE":0,"TOWNNAME":"白河區","LI":"白河里","LIN":" ","STREET":" ","SECT":" ","MAREA":" ","LANE":"市場三巷","ALLEY":" ","HOUSE_NO":"２６號","E_COORD97":190241.73999999999,"N_COORD97":2583056.4500000002,"ADDRESS":"市場三巷２６號","OBJECTID":171810},"geometry":{"x":190241.74000000115,"y":2583056.4499999993}},{"attributes":{"ID":171812,"DIS_CODE":0,"TOWNNAME":"白河區","LI":"白河里","LIN":" ","STREET":" ","SECT":" ","MAREA":" ","LANE":"市場三巷","ALLEY":" ","HOUSE_NO":"２７號","E_COORD97":190246.38,"N_COORD97":2583061,"ADDRESS":"市場三巷２７號","OBJECTID":171811},"geometry":{"x":190246.38000000175,"y":2583061.0000000037}},{"attributes":{"ID":171813,"DIS_CODE":0,"TOWNNAME":"白河區","LI":"白河里","LIN":" ","STREET":" ","SECT":" ","MAREA":" ","LANE":"市場三巷","ALLEY":" ","HOUSE_NO":"２８號","E_COORD97":190244.54000000001,"N_COORD97":2583055.4900000002,"ADDRESS":"市場三巷２８號","OBJECTID":171812},"geometry":{"x":190244.54000000097,"y":2583055.4900000021}},{"attributes":{"ID":171814,"DIS_CODE":0,"TOWNNAME":"白河區","LI":"白河里","LIN":" ","STREET":" ","SECT":" ","MAREA":" ","LANE":"市場三巷","ALLEY":" ","HOUSE_NO":"２９號","E_COORD97":190248.92999999999,"N_COORD97":2583060.2000000002,"ADDRESS":"市場三巷２９號","OBJECTID":171813},"geometry":{"x":190248.9299999997,"y":2583060.2000000011}},{"attributes":{"ID":171815,"DIS_CODE":0,"TOWNNAME":"白河區","LI":"白河里","LIN":" ","STREET":" ","SECT":" ","MAREA":" ","LANE":"市場三巷","ALLEY":" ","HOUSE_NO":"２號","E_COORD97":190204.56,"N_COORD97":2583067.1200000001,"ADDRESS":"市場三巷２號","OBJECTID":171814},"geometry":{"x":190204.56000000052,"y":2583067.120000001}},{"attributes":{"ID":171816,"DIS_CODE":0,"TOWNNAME":"白河區","LI":"白河里","LIN":" ","STREET":" ","SECT":" ","MAREA":" ","LANE":"市場三巷","ALLEY":" ","HOUSE_NO":"３０號","E_COORD97":190247.16,"N_COORD97":2583054.6000000001,"ADDRESS":"市場三巷３０號","OBJECTID":171815},"geometry":{"x":190247.16000000108,"y":2583054.6000000015}},{"attributes":{"ID":171817,"DIS_CODE":0,"TOWNNAME":"白河區","LI":"白河里","LIN":" ","STREET":" ","SECT":" ","MAREA":" ","LANE":"市場三巷","ALLEY":" ","HOUSE_NO":"３２號","E_COORD97":190249.63,"N_COORD97":2583053.8900000001,"ADDRESS":"市場三巷３２號","OBJECTID":171816},"geometry":{"x":190249.62999999896,"y":2583053.8900000025}},{"attributes":{"ID":171818,"DIS_CODE":0,"TOWNNAME":"白河區","LI":"白河里","LIN":" ","STREET":" ","SECT":" ","MAREA":" ","LANE":"市場三巷","ALLEY":" ","HOUSE_NO":"３號","E_COORD97":190208.73000000001,"N_COORD97":2583072.0099999998,"ADDRESS":"市場三巷３號","OBJECTID":171817},"geometry":{"x":190208.73000000045,"y":2583072.0100000016}},{"attributes":{"ID":171819,"DIS_CODE":0,"TOWNNAME":"白河區","LI":"白河里","LIN":" ","STREET":" ","SECT":" ","MAREA":" ","LANE":"市場三巷","ALLEY":" ","HOUSE_NO":"４號","E_COORD97":190206.91,"N_COORD97":2583066.2799999998,"ADDRESS":"市場三巷４號","OBJECTID":171818},"geometry":{"x":190206.91000000015,"y":2583066.2800000012}},{"attributes":{"ID":171820,"DIS_CODE":0,"TOWNNAME":"白河區","LI":"白河里","LIN":" ","STREET":" ","SECT":" ","MAREA":" ","LANE":"市場三巷","ALLEY":" ","HOUSE_NO":"５號","E_COORD97":190211.42000000001,"N_COORD97":2583071.1099999999,"ADDRESS":"市場三巷５號","OBJECTID":171819},"geometry":{"x":190211.41999999993,"y":2583071.1100000013}},{"attributes":{"ID":171821,"DIS_CODE":0,"TOWNNAME":"白河區","LI":"白河里","LIN":" ","STREET":" ","SECT":" ","MAREA":" ","LANE":"市場三巷","ALLEY":" ","HOUSE_NO":"６號","E_COORD97":190209.60000000001,"N_COORD97":2583065.3100000001,"ADDRESS":"市場三巷６號","OBJECTID":171820},"geometry":{"x":190209.60000000056,"y":2583065.3100000005}},{"attributes":{"ID":171822,"DIS_CODE":0,"TOWNNAME":"白河區","LI":"白河里","LIN":" ","STREET":" ","SECT":" ","MAREA":" ","LANE":"市場三巷","ALLEY":" ","HOUSE_NO":"７號","E_COORD97":190214.28,"N_COORD97":2583070.1099999999,"ADDRESS":"市場三巷７號","OBJECTID":171821},"geometry":{"x":190214.28000000119,"y":2583070.1100000031}},{"attributes":{"ID":171823,"DIS_CODE":0,"TOWNNAME":"白河區","LI":"白河里","LIN":" ","STREET":" ","SECT":" ","MAREA":" ","LANE":"市場五巷","ALLEY":" ","HOUSE_NO":"２７號","E_COORD97":190243.39000000001,"N_COORD97":2583045.6400000001,"ADDRESS":"市場五巷２７號","OBJECTID":171822},"geometry":{"x":190243.3900000006,"y":2583045.6400000006}},{"attributes":{"ID":171824,"DIS_CODE":0,"TOWNNAME":"白河區","LI":"白河里","LIN":" ","STREET":" ","SECT":" ","MAREA":" ","LANE":"市場五巷","ALLEY":" ","HOUSE_NO":"２８號","E_COORD97":190241.88,"N_COORD97":2583039.6699999999,"ADDRESS":"市場五巷２８號","OBJECTID":171823},"geometry":{"x":190241.88000000082,"y":2583039.6700000037}},{"attributes":{"ID":171825,"DIS_CODE":0,"TOWNNAME":"白河區","LI":"白河里","LIN":" ","STREET":" ","SECT":" ","MAREA":" ","LANE":"市場五巷","ALLEY":" ","HOUSE_NO":"２９號","E_COORD97":190246.69,"N_COORD97":2583044.73,"ADDRESS":"市場五巷２９號","OBJECTID":171824},"geometry":{"x":190246.69000000134,"y":2583044.7300000004}},{"attributes":{"ID":171826,"DIS_CODE":0,"TOWNNAME":"白河區","LI":"白河里","LIN":" ","STREET":" ","SECT":" ","MAREA":" ","LANE":"市場五巷","ALLEY":" ","HOUSE_NO":"３０號","E_COORD97":190245.17999999999,"N_COORD97":2583038.7599999998,"ADDRESS":"市場五巷３０號","OBJECTID":171825},"geometry":{"x":190245.1799999997,"y":2583038.7600000035}},{"attributes":{"ID":171827,"DIS_CODE":0,"TOWNNAME":"白河區","LI":"白河里","LIN":" ","STREET":" ","SECT":" ","MAREA":" ","LANE":"市場五巷","ALLEY":" ","HOUSE_NO":"３１號","E_COORD97":190249.72,"N_COORD97":2583043.9100000001,"ADDRESS":"市場五巷３１號","OBJECTID":171826},"geometry":{"x":190249.72000000067,"y":2583043.9100000001}},{"attributes":{"ID":171828,"DIS_CODE":0,"TOWNNAME":"白河區","LI":"白河里","LIN":" ","STREET":" ","SECT":" ","MAREA":" ","LANE":"市場五巷","ALLEY":" ","HOUSE_NO":"３２號","E_COORD97":190248.20999999999,"N_COORD97":2583037.9500000002,"ADDRESS":"市場五巷３２號","OBJECTID":171827},"geometry":{"x":190248.21000000089,"y":2583037.9500000011}},{"attributes":{"ID":171829,"DIS_CODE":0,"TOWNNAME":"永康區","LI":"二王里","LIN":"47鄰","STREET":"南工街","SECT":" ","MAREA":" ","LANE":"２２６巷","ALLEY":"１弄","HOUSE_NO":"１號六樓之１","E_COORD97":171984.91,"N_COORD97":2546024.98,"ADDRESS":"南工街２２６巷１弄１號六樓之１","OBJECTID":171828},"geometry":{"x":171984.91000000108,"y":2546024.9799999986}},{"attributes":{"ID":171830,"DIS_CODE":0,"TOWNNAME":"永康區","LI":"勝利里","LIN":"38鄰","STREET":"勝利街","SECT":" ","MAREA":" ","LANE":"１９７巷","ALLEY":"８弄","HOUSE_NO":"１０號七樓之４","E_COORD97":171351.41,"N_COORD97":2545188.0499999998,"ADDRESS":"勝利街１９７巷８弄１０號七樓之４","OBJECTID":171829},"geometry":{"x":171351.41000000015,"y":2545188.0500000026}},{"attributes":{"ID":171831,"DIS_CODE":0,"TOWNNAME":"永康區","LI":"勝利里","LIN":"38鄰","STREET":"勝利街","SECT":" ","MAREA":" ","LANE":"１９７巷","ALLEY":"８弄","HOUSE_NO":"８號二樓之２","E_COORD97":171347.20999999999,"N_COORD97":2545178.2999999998,"ADDRESS":"勝利街１９７巷８弄８號二樓之２","OBJECTID":171830},"geometry":{"x":171347.20999999996,"y":2545178.3000000007}},{"attributes":{"ID":171832,"DIS_CODE":0,"TOWNNAME":"永康區","LI":"勝利里","LIN":"38鄰","STREET":"勝利街","SECT":" ","MAREA":" ","LANE":"１９７巷","ALLEY":"８弄","HOUSE_NO":"８號三樓之１","E_COORD97":171347.07000000001,"N_COORD97":2545178.2999999998,"ADDRESS":"勝利街１９７巷８弄８號三樓之１","OBJECTID":171831},"geometry":{"x":171347.0700000003,"y":2545178.3000000007}},{"attributes":{"ID":171833,"DIS_CODE":0,"TOWNNAME":"東區","LI":"南聖里","LIN":"6鄰","STREET":"裕農路","SECT":" ","MAREA":" ","LANE":"７２６巷","ALLEY":"２弄","HOUSE_NO":"１１號二樓之１","E_COORD97":171821.09,"N_COORD97":2543177.1600000001,"ADDRESS":"裕農路７２６巷２弄１１號二樓之１","OBJECTID":171832},"geometry":{"x":171821.08999999985,"y":2543177.160000002}},{"attributes":{"ID":171834,"DIS_CODE":0,"TOWNNAME":"東區","LI":"南聖里","LIN":"6鄰","STREET":"裕農路","SECT":" ","MAREA":" ","LANE":"７２６巷","ALLEY":"２弄","HOUSE_NO":"１１號二樓之２","E_COORD97":171821.09,"N_COORD97":2543177.1600000001,"ADDRESS":"裕農路７２６巷２弄１１號二樓之２","OBJECTID":171833},"geometry":{"x":171821.08999999985,"y":2543177.160000002}},{"attributes":{"ID":171835,"DIS_CODE":0,"TOWNNAME":"東區","LI":"東聖里","LIN":"17鄰","STREET":"中華東路","SECT":"二段","MAREA":" ","LANE":"１３３巷","ALLEY":"１７弄","HOUSE_NO":"３７號五樓","E_COORD97":171516.76000000001,"N_COORD97":2542956.3399999999,"ADDRESS":"中華東路二段１３３巷１７弄３７號五樓","OBJECTID":171834},"geometry":{"x":171516.75999999978,"y":2542956.3399999999}},{"attributes":{"ID":171836,"DIS_CODE":0,"TOWNNAME":"東區","LI":"東聖里","LIN":"17鄰","STREET":"中華東路","SECT":"二段","MAREA":" ","LANE":"１３３巷","ALLEY":"１７弄","HOUSE_NO":"３９號二樓","E_COORD97":171525.13,"N_COORD97":2542956.8999999999,"ADDRESS":"中華東路二段１３３巷１７弄３９號二樓","OBJECTID":171835},"geometry":{"x":171525.13000000082,"y":2542956.9000000004}},{"attributes":{"ID":171837,"DIS_CODE":0,"TOWNNAME":"永康區","LI":"二王里","LIN":"47鄰","STREET":"南工街","SECT":" ","MAREA":" ","LANE":"２２６巷","ALLEY":"１弄","HOUSE_NO":"１號三樓之１","E_COORD97":171984.91,"N_COORD97":2546024.98,"ADDRESS":"南工街２２６巷１弄１號三樓之１","OBJECTID":171836},"geometry":{"x":171984.91000000108,"y":2546024.9799999986}},{"attributes":{"ID":171838,"DIS_CODE":0,"TOWNNAME":"永康區","LI":"中興里","LIN":"25鄰","STREET":"中華路","SECT":" ","MAREA":" ","LANE":"２８０巷","ALLEY":"１８弄","HOUSE_NO":"１號六樓","E_COORD97":171722.54000000001,"N_COORD97":2545178.7599999998,"ADDRESS":"中華路２８０巷１８弄１號六樓","OBJECTID":171837},"geometry":{"x":171722.54000000097,"y":2545178.7600000016}},{"attributes":{"ID":171839,"DIS_CODE":0,"TOWNNAME":"永康區","LI":"勝利里","LIN":"38鄰","STREET":"勝利街","SECT":" ","MAREA":" ","LANE":"１９７巷","ALLEY":"８弄","HOUSE_NO":"８號三樓之３","E_COORD97":171347.17000000001,"N_COORD97":2545178.2999999998,"ADDRESS":"勝利街１９７巷８弄８號三樓之３","OBJECTID":171838},"geometry":{"x":171347.17000000086,"y":2545178.3000000007}},{"attributes":{"ID":171840,"DIS_CODE":0,"TOWNNAME":"南區","LI":"郡南里","LIN":"24鄰","STREET":"永成路","SECT":"三段","MAREA":" ","LANE":" ","ALLEY":" ","HOUSE_NO":"１３８號","E_COORD97":167508.60000000001,"N_COORD97":2540629.8100000001,"ADDRESS":"永成路三段１３８號","OBJECTID":171839},"geometry":{"x":167508.5999999987,"y":2540629.8100000024}},{"attributes":{"ID":171841,"DIS_CODE":0,"TOWNNAME":"南區","LI":"郡南里","LIN":"24鄰","STREET":"永成路","SECT":"三段","MAREA":" ","LANE":" ","ALLEY":" ","HOUSE_NO":"１３６號","E_COORD97":167507.95999999999,"N_COORD97":2540622.3500000001,"ADDRESS":"永成路三段１３６號","OBJECTID":171840},"geometry":{"x":167507.95999999996,"y":2540622.3500000015}},{"attributes":{"ID":171842,"DIS_CODE":0,"TOWNNAME":"安南區","LI":"大安里","LIN":"7鄰","STREET":"大安街","SECT":" ","MAREA":" ","LANE":" ","ALLEY":" ","HOUSE_NO":"１５８號","E_COORD97":167333.60999999999,"N_COORD97":2548199.6099999999,"ADDRESS":"大安街１５８號","OBJECTID":171841},"geometry":{"x":167333.61000000127,"y":2548199.6099999975}},{"attributes":{"ID":171843,"DIS_CODE":0,"TOWNNAME":"安南區","LI":"大安里","LIN":"7鄰","STREET":"大安街","SECT":" ","MAREA":" ","LANE":" ","ALLEY":" ","HOUSE_NO":"１６４號","E_COORD97":167340.70999999999,"N_COORD97":2548211.2999999998,"ADDRESS":"大安街１６４號","OBJECTID":171842},"geometry":{"x":167340.71000000089,"y":2548211.3000000026}},{"attributes":{"ID":171844,"DIS_CODE":0,"TOWNNAME":"新營區","LI":"新東里","LIN":" ","STREET":"民族路","SECT":" ","MAREA":" ","LANE":"１５０巷","ALLEY":"５５弄","HOUSE_NO":"３號４樓","E_COORD97":180607.44,"N_COORD97":2579383.8500000001,"ADDRESS":"民族路１５０巷５５弄３號４樓","OBJECTID":171843},"geometry":{"x":180607.44000000041,"y":2579383.8500000015}},{"attributes":{"ID":171845,"DIS_CODE":0,"TOWNNAME":"永康區","LI":"神洲里","LIN":"20鄰","STREET":"忠孝路","SECT":" ","MAREA":" ","LANE":"７６巷","ALLEY":"６３弄","HOUSE_NO":"２８號三樓","E_COORD97":172170.17000000001,"N_COORD97":2545052.2400000002,"ADDRESS":"忠孝路７６巷６３弄２８號三樓","OBJECTID":171844},"geometry":{"x":172170.16999999993,"y":2545052.2400000002}},{"attributes":{"ID":171846,"DIS_CODE":0,"TOWNNAME":"永康區","LI":"神洲里","LIN":"20鄰","STREET":"忠孝路","SECT":" ","MAREA":" ","LANE":"７６巷","ALLEY":"６３弄","HOUSE_NO":"２６號二樓","E_COORD97":172180.13,"N_COORD97":2545049.6600000001,"ADDRESS":"忠孝路７６巷６３弄２６號二樓","OBJECTID":171845},"geometry":{"x":172180.12999999989,"y":2545049.6600000001}},{"attributes":{"ID":171847,"DIS_CODE":0,"TOWNNAME":"永康區","LI":"五王里","LIN":"14鄰","STREET":"中華二路","SECT":" ","MAREA":" ","LANE":"２０６巷","ALLEY":"６８弄","HOUSE_NO":"５９號三樓之２","E_COORD97":171642.56,"N_COORD97":2545698.0899999999,"ADDRESS":"中華二路２０６巷６８弄５９號三樓之２","OBJECTID":171846},"geometry":{"x":171642.56000000052,"y":2545698.089999998}},{"attributes":{"ID":171848,"DIS_CODE":0,"TOWNNAME":"永康區","LI":"勝利里","LIN":"38鄰","STREET":"勝利街","SECT":" ","MAREA":" ","LANE":"１９７巷","ALLEY":"８弄","HOUSE_NO":"１０號七樓之１","E_COORD97":171351.38,"N_COORD97":2545188.0499999998,"ADDRESS":"勝利街１９７巷８弄１０號七樓之１","OBJECTID":171847},"geometry":{"x":171351.37999999989,"y":2545188.0500000026}},{"attributes":{"ID":171849,"DIS_CODE":0,"TOWNNAME":"永康區","LI":"勝利里","LIN":"38鄰","STREET":"勝利街","SECT":" ","MAREA":" ","LANE":"１９７巷","ALLEY":"８弄","HOUSE_NO":"８號四樓之２","E_COORD97":171347.20999999999,"N_COORD97":2545178.2999999998,"ADDRESS":"勝利街１９７巷８弄８號四樓之２","OBJECTID":171848},"geometry":{"x":171347.20999999996,"y":2545178.3000000007}},{"attributes":{"ID":171850,"DIS_CODE":0,"TOWNNAME":"永康區","LI":"神洲里","LIN":"20鄰","STREET":"忠孝路","SECT":" ","MAREA":" ","LANE":"７６巷","ALLEY":"６３弄","HOUSE_NO":"２６號五樓","E_COORD97":172180.13,"N_COORD97":2545049.6600000001,"ADDRESS":"忠孝路７６巷６３弄２６號五樓","OBJECTID":171849},"geometry":{"x":172180.12999999989,"y":2545049.6600000001}},{"attributes":{"ID":171851,"DIS_CODE":0,"TOWNNAME":"永康區","LI":"勝利里","LIN":"38鄰","STREET":"勝利街","SECT":" ","MAREA":" ","LANE":"１９７巷","ALLEY":"８弄","HOUSE_NO":"１０號五樓之２","E_COORD97":171351.51999999999,"N_COORD97":2545188.0499999998,"ADDRESS":"勝利街１９７巷８弄１０號五樓之２","OBJECTID":171850},"geometry":{"x":171351.51999999955,"y":2545188.0500000026}},{"attributes":{"ID":171852,"DIS_CODE":0,"TOWNNAME":"永康區","LI":"神洲里","LIN":"20鄰","STREET":"忠孝路","SECT":" ","MAREA":" ","LANE":"７６巷","ALLEY":"６３弄","HOUSE_NO":"２４號五樓","E_COORD97":172186.75,"N_COORD97":2545049.3500000001,"ADDRESS":"忠孝路７６巷６３弄２４號五樓","OBJECTID":171851},"geometry":{"x":172186.74999999907,"y":2545049.3500000015}},{"attributes":{"ID":171853,"DIS_CODE":0,"TOWNNAME":"永康區","LI":"\u25A0行里","LIN":"40鄰","STREET":"永安路","SECT":" ","MAREA":" ","LANE":"１０５巷","ALLEY":"４６弄","HOUSE_NO":"２號五樓之１","E_COORD97":172609.73999999999,"N_COORD97":2549313.0800000001,"ADDRESS":"永安路１０５巷４６弄２號五樓之１","OBJECTID":171852},"geometry":{"x":172609.74000000115,"y":2549313.0800000019}},{"attributes":{"ID":171854,"DIS_CODE":0,"TOWNNAME":"永康區","LI":"神洲里","LIN":"14鄰","STREET":"忠孝路","SECT":" ","MAREA":" ","LANE":"７６巷","ALLEY":"６３弄","HOUSE_NO":"２５號三樓","E_COORD97":172224.89000000001,"N_COORD97":2545020.8500000001,"ADDRESS":"忠孝路７６巷６３弄２５號三樓","OBJECTID":171853},"geometry":{"x":172224.8900000006,"y":2545020.8499999996}},{"attributes":{"ID":171855,"DIS_CODE":0,"TOWNNAME":"永康區","LI":"神洲里","LIN":"14鄰","STREET":"忠孝路","SECT":" ","MAREA":" ","LANE":"７６巷","ALLEY":"６３弄","HOUSE_NO":"２７號三樓","E_COORD97":172210.88,"N_COORD97":2545021.1000000001,"ADDRESS":"忠孝路７６巷６３弄２７號三樓","OBJECTID":171854},"geometry":{"x":172210.87999999989,"y":2545021.1000000015}},{"attributes":{"ID":171856,"DIS_CODE":0,"TOWNNAME":"東區","LI":"東聖里","LIN":"17鄰","STREET":"中華東路","SECT":"二段","MAREA":" ","LANE":"１３３巷","ALLEY":"１７弄","HOUSE_NO":"４３號三樓","E_COORD97":171541.87,"N_COORD97":2542956.5299999998,"ADDRESS":"中華東路二段１３３巷１７弄４３號三樓","OBJECTID":171855},"geometry":{"x":171541.86999999918,"y":2542956.5300000012}},{"attributes":{"ID":171857,"DIS_CODE":0,"TOWNNAME":"東區","LI":"東聖里","LIN":"17鄰","STREET":"中華東路","SECT":"二段","MAREA":" ","LANE":"１３３巷","ALLEY":"１７弄","HOUSE_NO":"４３號五樓","E_COORD97":171541.87,"N_COORD97":2542956.5299999998,"ADDRESS":"中華東路二段１３３巷１７弄４３號五樓","OBJECTID":171856},"geometry":{"x":171541.86999999918,"y":2542956.5300000012}},{"attributes":{"ID":171858,"DIS_CODE":0,"TOWNNAME":"東區","LI":"東聖里","LIN":"17鄰","STREET":"中華東路","SECT":"二段","MAREA":" ","LANE":"１３３巷","ALLEY":"１７弄","HOUSE_NO":"４３號四樓","E_COORD97":171541.87,"N_COORD97":2542956.5299999998,"ADDRESS":"中華東路二段１３３巷１７弄４３號四樓","OBJECTID":171857},"geometry":{"x":171541.86999999918,"y":2542956.5300000012}},{"attributes":{"ID":171859,"DIS_CODE":0,"TOWNNAME":"東區","LI":"東聖里","LIN":"17鄰","STREET":"中華東路","SECT":"二段","MAREA":" ","LANE":"１３３巷","ALLEY":"１７弄","HOUSE_NO":"２３號二樓","E_COORD97":171458.70000000001,"N_COORD97":2542960.25,"ADDRESS":"中華東路二段１３３巷１７弄２３號二樓","OBJECTID":171858},"geometry":{"x":171458.70000000112,"y":2542960.25}},{"attributes":{"ID":171860,"DIS_CODE":0,"TOWNNAME":"東區","LI":"東聖里","LIN":"12鄰","STREET":"中華東路","SECT":"二段","MAREA":" ","LANE":"１３３巷","ALLEY":"１７弄","HOUSE_NO":"２４號三樓","E_COORD97":171465.42999999999,"N_COORD97":2542931.3399999999,"ADDRESS":"中華東路二段１３３巷１７弄２４號三樓","OBJECTID":171859},"geometry":{"x":171465.43000000063,"y":2542931.3400000017}},{"attributes":{"ID":171861,"DIS_CODE":0,"TOWNNAME":"東區","LI":"東聖里","LIN":"12鄰","STREET":"中華東路","SECT":"二段","MAREA":" ","LANE":"１３３巷","ALLEY":"１７弄","HOUSE_NO":"２８號二樓","E_COORD97":171481.14999999999,"N_COORD97":2542931.2000000002,"ADDRESS":"中華東路二段１３３巷１７弄２８號二樓","OBJECTID":171860},"geometry":{"x":171481.1500000013,"y":2542931.2000000011}},{"attributes":{"ID":171862,"DIS_CODE":0,"TOWNNAME":"東區","LI":"東聖里","LIN":"12鄰","STREET":"中華東路","SECT":"二段","MAREA":" ","LANE":"１３３巷","ALLEY":"１７弄","HOUSE_NO":"２８號五樓","E_COORD97":171481.14999999999,"N_COORD97":2542931.2000000002,"ADDRESS":"中華東路二段１３３巷１７弄２８號五樓","OBJECTID":171861},"geometry":{"x":171481.1500000013,"y":2542931.2000000011}},{"attributes":{"ID":171863,"DIS_CODE":0,"TOWNNAME":"白河區","LI":"白河里","LIN":" ","STREET":" ","SECT":" ","MAREA":" ","LANE":"市場五巷","ALLEY":" ","HOUSE_NO":"３３號","E_COORD97":190252.32000000001,"N_COORD97":2583043.0600000001,"ADDRESS":"市場五巷３３號","OBJECTID":171862},"geometry":{"x":190252.32000000216,"y":2583043.0600000005}},{"attributes":{"ID":171864,"DIS_CODE":0,"TOWNNAME":"白河區","LI":"白河里","LIN":" ","STREET":" ","SECT":" ","MAREA":" ","LANE":"市場五巷","ALLEY":" ","HOUSE_NO":"３４號","E_COORD97":190250.79999999999,"N_COORD97":2583037.1000000001,"ADDRESS":"市場五巷３４號","OBJECTID":171863},"geometry":{"x":190250.80000000075,"y":2583037.1000000015}},{"attributes":{"ID":171865,"DIS_CODE":0,"TOWNNAME":"白河區","LI":"白河里","LIN":" ","STREET":" ","SECT":" ","MAREA":" ","LANE":"市場五巷","ALLEY":" ","HOUSE_NO":"３５號","E_COORD97":190254.57000000001,"N_COORD97":2583042.4700000002,"ADDRESS":"市場五巷３５號","OBJECTID":171864},"geometry":{"x":190254.57000000123,"y":2583042.4700000025}},{"attributes":{"ID":171866,"DIS_CODE":0,"TOWNNAME":"白河區","LI":"白河里","LIN":" ","STREET":" ","SECT":" ","MAREA":" ","LANE":"市場五巷","ALLEY":" ","HOUSE_NO":"３６號","E_COORD97":190253.06,"N_COORD97":2583036.5099999998,"ADDRESS":"市場五巷３６號","OBJECTID":171865},"geometry":{"x":190253.05999999959,"y":2583036.5099999998}},{"attributes":{"ID":171867,"DIS_CODE":0,"TOWNNAME":"東區","LI":"東聖里","LIN":"12鄰","STREET":"中華東路","SECT":"二段","MAREA":" ","LANE":"１３３巷","ALLEY":"５７弄","HOUSE_NO":"２７號四樓","E_COORD97":171527.39000000001,"N_COORD97":2542924.6400000001,"ADDRESS":"中華東路二段１３３巷５７弄２７號四樓","OBJECTID":171866},"geometry":{"x":171527.38999999966,"y":2542924.6400000006}},{"attributes":{"ID":171868,"DIS_CODE":0,"TOWNNAME":"東區","LI":"東聖里","LIN":"10鄰","STREET":"中華東路","SECT":"二段","MAREA":" ","LANE":"１３３巷","ALLEY":"７７弄","HOUSE_NO":"２號七樓之１","E_COORD97":171598.94,"N_COORD97":2542840.0699999998,"ADDRESS":"中華東路二段１３３巷７７弄２號七樓之１","OBJECTID":171867},"geometry":{"x":171598.94000000041,"y":2542840.0700000003}},{"attributes":{"ID":171869,"DIS_CODE":0,"TOWNNAME":"東區","LI":"南聖里","LIN":"6鄰","STREET":"裕農路","SECT":" ","MAREA":" ","LANE":"７２６巷","ALLEY":"２弄","HOUSE_NO":"９號三樓之２","E_COORD97":171828.01999999999,"N_COORD97":2543177.7000000002,"ADDRESS":"裕農路７２６巷２弄９號三樓之２","OBJECTID":171868},"geometry":{"x":171828.01999999955,"y":2543177.6999999974}},{"attributes":{"ID":171870,"DIS_CODE":0,"TOWNNAME":"山上區","LI":"山上里","LIN":"12鄰","STREET":" ","SECT":" ","MAREA":"山上","LANE":" ","ALLEY":" ","HOUSE_NO":"１８４號","E_COORD97":184245.51000000001,"N_COORD97":2555498.25,"ADDRESS":"山上１８４號","OBJECTID":171869},"geometry":{"x":184245.50999999978,"y":2555498.25}},{"attributes":{"ID":171871,"DIS_CODE":0,"TOWNNAME":"白河區","LI":"白河里","LIN":" ","STREET":" ","SECT":" ","MAREA":" ","LANE":"市場六巷","ALLEY":" ","HOUSE_NO":"２３號","E_COORD97":190235.45999999999,"N_COORD97":2583039.1299999999,"ADDRESS":"市場六巷２３號","OBJECTID":171870},"geometry":{"x":190235.45999999996,"y":2583039.1300000008}},{"attributes":{"ID":171872,"DIS_CODE":0,"TOWNNAME":"白河區","LI":"白河里","LIN":" ","STREET":" ","SECT":" ","MAREA":" ","LANE":"市場六巷","ALLEY":" ","HOUSE_NO":"２９號","E_COORD97":190244.45999999999,"N_COORD97":2583036.3300000001,"ADDRESS":"市場六巷２９號","OBJECTID":171871},"geometry":{"x":190244.46000000089,"y":2583036.3300000019}},{"attributes":{"ID":171873,"DIS_CODE":0,"TOWNNAME":"白河區","LI":"白河里","LIN":" ","STREET":" ","SECT":" ","MAREA":" ","LANE":"市場六巷","ALLEY":" ","HOUSE_NO":"３３號","E_COORD97":190249.73999999999,"N_COORD97":2583034.9700000002,"ADDRESS":"市場六巷３３號","OBJECTID":171872},"geometry":{"x":190249.74000000115,"y":2583034.9700000044}},{"attributes":{"ID":171874,"DIS_CODE":0,"TOWNNAME":"白河區","LI":"白河里","LIN":" ","STREET":" ","SECT":" ","MAREA":" ","LANE":"市場六巷","ALLEY":" ","HOUSE_NO":"３５號","E_COORD97":190252.22,"N_COORD97":2583034.23,"ADDRESS":"市場六巷３５號","OBJECTID":171873},"geometry":{"x":190252.21999999974,"y":2583034.2300000023}},{"attributes":{"ID":171875,"DIS_CODE":0,"TOWNNAME":"白河區","LI":"白河里","LIN":" ","STREET":" ","SECT":" ","MAREA":" ","LANE":"市場四巷","ALLEY":" ","HOUSE_NO":"１１號","E_COORD97":190216.54000000001,"N_COORD97":2583059.6699999999,"ADDRESS":"市場四巷１１號","OBJECTID":171874},"geometry":{"x":190216.53999999911,"y":2583059.6699999981}},{"attributes":{"ID":171876,"DIS_CODE":0,"TOWNNAME":"白河區","LI":"白河里","LIN":" ","STREET":" ","SECT":" ","MAREA":" ","LANE":"市場四巷","ALLEY":" ","HOUSE_NO":"１３號","E_COORD97":190221.97,"N_COORD97":2583058.3100000001,"ADDRESS":"市場四巷１３號","OBJECTID":171875},"geometry":{"x":190221.9700000016,"y":2583058.3100000005}},{"attributes":{"ID":171877,"DIS_CODE":0,"TOWNNAME":"白河區","LI":"白河里","LIN":" ","STREET":" ","SECT":" ","MAREA":" ","LANE":"市場四巷","ALLEY":" ","HOUSE_NO":"１５號","E_COORD97":190224.39000000001,"N_COORD97":2583057.4100000001,"ADDRESS":"市場四巷１５號","OBJECTID":171876},"geometry":{"x":190224.3900000006,"y":2583057.4100000001}},{"attributes":{"ID":171878,"DIS_CODE":0,"TOWNNAME":"白河區","LI":"白河里","LIN":" ","STREET":" ","SECT":" ","MAREA":" ","LANE":"市場四巷","ALLEY":" ","HOUSE_NO":"２３號","E_COORD97":190238.23999999999,"N_COORD97":2583054.04,"ADDRESS":"市場四巷２３號","OBJECTID":171877},"geometry":{"x":190238.24000000115,"y":2583054.040000001}},{"attributes":{"ID":171879,"DIS_CODE":0,"TOWNNAME":"白河區","LI":"白河里","LIN":" ","STREET":" ","SECT":" ","MAREA":" ","LANE":"市場四巷","ALLEY":" ","HOUSE_NO":"２４號","E_COORD97":190237.59,"N_COORD97":2583049.3500000001,"ADDRESS":"市場四巷２４號","OBJECTID":171878},"geometry":{"x":190237.58999999985,"y":2583049.3500000015}},{"attributes":{"ID":171880,"DIS_CODE":0,"TOWNNAME":"白河區","LI":"永安里","LIN":"5鄰","STREET":" ","SECT":" ","MAREA":" ","LANE":"九龍橫巷","ALLEY":" ","HOUSE_NO":"１２號","E_COORD97":190014.51999999999,"N_COORD97":2582982.5099999998,"ADDRESS":"九龍橫巷１２號","OBJECTID":171879},"geometry":{"x":190014.52000000142,"y":2582982.5099999998}},{"attributes":{"ID":171881,"DIS_CODE":0,"TOWNNAME":"白河區","LI":"永安里","LIN":"5鄰","STREET":" ","SECT":" ","MAREA":" ","LANE":"九龍橫巷","ALLEY":" ","HOUSE_NO":"１４號","E_COORD97":190016.82000000001,"N_COORD97":2582985.9500000002,"ADDRESS":"九龍橫巷１４號","OBJECTID":171880},"geometry":{"x":190016.82000000123,"y":2582985.950000003}},{"attributes":{"ID":171882,"DIS_CODE":0,"TOWNNAME":"東區","LI":"小東里","LIN":"26鄰","STREET":"小東路","SECT":" ","MAREA":" ","LANE":" ","ALLEY":"２４弄","HOUSE_NO":"２５號三樓","E_COORD97":170752.97086599999,"N_COORD97":2544388.2301500002,"ADDRESS":"小東路２４弄２５號三樓","OBJECTID":171881},"geometry":{"x":170752.97086600121,"y":2544388.2301520016}},{"attributes":{"ID":171883,"DIS_CODE":0,"TOWNNAME":"新市區","LI":"大社里","LIN":"12鄰","STREET":" ","SECT":" ","MAREA":"大社","LANE":" ","ALLEY":" ","HOUSE_NO":"３１３之５號","E_COORD97":180137.98999999999,"N_COORD97":2554630.7999999998,"ADDRESS":"大社３１３之５號","OBJECTID":171882},"geometry":{"x":180137.99000000115,"y":2554630.8000000007}},{"attributes":{"ID":171884,"DIS_CODE":0,"TOWNNAME":"新市區","LI":"大營里","LIN":"12鄰","STREET":" ","SECT":" ","MAREA":"大營","LANE":" ","ALLEY":" ","HOUSE_NO":"２４０號","E_COORD97":179229.34,"N_COORD97":2555600,"ADDRESS":"大營２４０號","OBJECTID":171883},"geometry":{"x":179229.33999999985,"y":2555600.0000000019}},{"attributes":{"ID":171885,"DIS_CODE":0,"TOWNNAME":"新市區","LI":"大社里","LIN":"12鄰","STREET":" ","SECT":" ","MAREA":"大社","LANE":" ","ALLEY":" ","HOUSE_NO":"３１３之３號","E_COORD97":180141.35000000001,"N_COORD97":2554631.5499999998,"ADDRESS":"大社３１３之３號","OBJECTID":171884},"geometry":{"x":180141.35000000149,"y":2554631.5500000007}},{"attributes":{"ID":171886,"DIS_CODE":0,"TOWNNAME":"西港區","LI":"後營里","LIN":"12鄰","STREET":" ","SECT":" ","MAREA":"後營","LANE":" ","ALLEY":" ","HOUSE_NO":"２５５號之１","E_COORD97":169821,"N_COORD97":2560132.25,"ADDRESS":"後營２５５號之１","OBJECTID":171885},"geometry":{"x":169821.00000000093,"y":2560132.25}},{"attributes":{"ID":171887,"DIS_CODE":0,"TOWNNAME":"西港區","LI":"後營里","LIN":"12鄰","STREET":" ","SECT":" ","MAREA":"後營","LANE":" ","ALLEY":" ","HOUSE_NO":"２５５號","E_COORD97":169824.66,"N_COORD97":2560132.0800000001,"ADDRESS":"後營２５５號","OBJECTID":171886},"geometry":{"x":169824.66000000108,"y":2560132.0800000019}},{"attributes":{"ID":171888,"DIS_CODE":0,"TOWNNAME":"西港區","LI":"後營里","LIN":"12鄰","STREET":" ","SECT":" ","MAREA":"後營","LANE":" ","ALLEY":" ","HOUSE_NO":"２５６號之２","E_COORD97":169837.04999999999,"N_COORD97":2560129.3399999999,"ADDRESS":"後營２５６號之２","OBJECTID":171887},"geometry":{"x":169837.05000000075,"y":2560129.3400000036}},{"attributes":{"ID":171889,"DIS_CODE":0,"TOWNNAME":"西港區","LI":"後營里","LIN":"12鄰","STREET":" ","SECT":" ","MAREA":"後營","LANE":" ","ALLEY":" ","HOUSE_NO":"２５６號","E_COORD97":169832.17000000001,"N_COORD97":2560132.02,"ADDRESS":"後營２５６號","OBJECTID":171888},"geometry":{"x":169832.16999999993,"y":2560132.0200000014}},{"attributes":{"ID":171890,"DIS_CODE":0,"TOWNNAME":"西港區","LI":"後營里","LIN":"12鄰","STREET":" ","SECT":" ","MAREA":"後營","LANE":" ","ALLEY":" ","HOUSE_NO":"２５７號之１","E_COORD97":169836.23000000001,"N_COORD97":2560155.1099999999,"ADDRESS":"後營２５７號之１","OBJECTID":171889},"geometry":{"x":169836.23000000231,"y":2560155.1100000013}},{"attributes":{"ID":171891,"DIS_CODE":0,"TOWNNAME":"西港區","LI":"後營里","LIN":"12鄰","STREET":" ","SECT":" ","MAREA":"後營","LANE":" ","ALLEY":" ","HOUSE_NO":"２５７號之２","E_COORD97":169811.14999999999,"N_COORD97":2560161.04,"ADDRESS":"後營２５７號之２","OBJECTID":171890},"geometry":{"x":169811.14999999944,"y":2560161.0399999972}},{"attributes":{"ID":171892,"DIS_CODE":0,"TOWNNAME":"西港區","LI":"後營里","LIN":"12鄰","STREET":" ","SECT":" ","MAREA":"後營","LANE":" ","ALLEY":" ","HOUSE_NO":"２５９號","E_COORD97":169833.20999999999,"N_COORD97":2560184.6899999999,"ADDRESS":"後營２５９號","OBJECTID":171891},"geometry":{"x":169833.21000000089,"y":2560184.6900000013}},{"attributes":{"ID":171893,"DIS_CODE":0,"TOWNNAME":"西港區","LI":"後營里","LIN":"12鄰","STREET":" ","SECT":" ","MAREA":"後營","LANE":" ","ALLEY":" ","HOUSE_NO":"２６０號之２","E_COORD97":169882.03,"N_COORD97":2560174.3199999998,"ADDRESS":"後營２６０號之２","OBJECTID":171892},"geometry":{"x":169882.03000000119,"y":2560174.320000004}},{"attributes":{"ID":171894,"DIS_CODE":0,"TOWNNAME":"西港區","LI":"後營里","LIN":"12鄰","STREET":" ","SECT":" ","MAREA":"後營","LANE":" ","ALLEY":" ","HOUSE_NO":"２６０號之３","E_COORD97":169880.92999999999,"N_COORD97":2560169.2799999998,"ADDRESS":"後營２６０號之３","OBJECTID":171893},"geometry":{"x":169880.9299999997,"y":2560169.2799999993}},{"attributes":{"ID":171895,"DIS_CODE":0,"TOWNNAME":"西港區","LI":"後營里","LIN":"12鄰","STREET":" ","SECT":" ","MAREA":"後營","LANE":" ","ALLEY":" ","HOUSE_NO":"２６０號之４","E_COORD97":169881.28,"N_COORD97":2560165.1600000001,"ADDRESS":"後營２６０號之４","OBJECTID":171894},"geometry":{"x":169881.28000000026,"y":2560165.1600000039}},{"attributes":{"ID":171896,"DIS_CODE":0,"TOWNNAME":"西港區","LI":"後營里","LIN":"12鄰","STREET":" ","SECT":" ","MAREA":"後營","LANE":" ","ALLEY":" ","HOUSE_NO":"２６０號之５","E_COORD97":169880.73999999999,"N_COORD97":2560159.3500000001,"ADDRESS":"後營２６０號之５","OBJECTID":171895},"geometry":{"x":169880.74000000115,"y":2560159.3499999996}},{"attributes":{"ID":171897,"DIS_CODE":0,"TOWNNAME":"西港區","LI":"後營里","LIN":"12鄰","STREET":" ","SECT":" ","MAREA":"後營","LANE":" ","ALLEY":" ","HOUSE_NO":"２６０號之６","E_COORD97":169881.22,"N_COORD97":2560153.5899999999,"ADDRESS":"後營２６０號之６","OBJECTID":171896},"geometry":{"x":169881.21999999881,"y":2560153.5899999999}},{"attributes":{"ID":171898,"DIS_CODE":0,"TOWNNAME":"西港區","LI":"後營里","LIN":"12鄰","STREET":" ","SECT":" ","MAREA":"後營","LANE":" ","ALLEY":" ","HOUSE_NO":"２６０號","E_COORD97":169868.34,"N_COORD97":2560174.7799999998,"ADDRESS":"後營２６０號","OBJECTID":171897},"geometry":{"x":169868.33999999985,"y":2560174.7800000012}},{"attributes":{"ID":171899,"DIS_CODE":0,"TOWNNAME":"新市區","LI":"港墘里","LIN":"12鄰","STREET":"中山路","SECT":" ","MAREA":" ","LANE":" ","ALLEY":" ","HOUSE_NO":"１５６號","E_COORD97":178261.01000000001,"N_COORD97":2552599,"ADDRESS":"中山路１５６號","OBJECTID":171898},"geometry":{"x":178261.01000000071,"y":2552599.0000000019}},{"attributes":{"ID":171900,"DIS_CODE":0,"TOWNNAME":"東區","LI":"崇善里","LIN":"24鄰","STREET":"崇善十二街","SECT":" ","MAREA":" ","LANE":"６巷","ALLEY":"１５弄","HOUSE_NO":"１０號三樓","E_COORD97":171276.75,"N_COORD97":2541054.6600000001,"ADDRESS":"崇善十二街６巷１５弄１０號三樓","OBJECTID":171899},"geometry":{"x":171276.75000000093,"y":2541054.660000002}},{"attributes":{"ID":171901,"DIS_CODE":0,"TOWNNAME":"新市區","LI":"港墘里","LIN":"12鄰","STREET":"中山路","SECT":" ","MAREA":" ","LANE":" ","ALLEY":" ","HOUSE_NO":"１３６號","E_COORD97":178369.23000000001,"N_COORD97":2552742.5,"ADDRESS":"中山路１３６號","OBJECTID":171900},"geometry":{"x":178369.23000000045,"y":2552742.5000000019}},{"attributes":{"ID":171902,"DIS_CODE":0,"TOWNNAME":"東區","LI":"崇誨里","LIN":"17鄰","STREET":"林森路","SECT":"二段","MAREA":" ","LANE":"１９２巷","ALLEY":"３６弄","HOUSE_NO":"３號三樓","E_COORD97":170630.64999999999,"N_COORD97":2543317.3100000001,"ADDRESS":"林森路二段１９２巷３６弄３號三樓","OBJECTID":171901},"geometry":{"x":170630.6500000013,"y":2543317.3099999987}},{"attributes":{"ID":171903,"DIS_CODE":0,"TOWNNAME":"東區","LI":"崇誨里","LIN":"17鄰","STREET":"林森路","SECT":"二段","MAREA":" ","LANE":"１９２巷","ALLEY":"３６弄","HOUSE_NO":"３號六樓","E_COORD97":170630.64999999999,"N_COORD97":2543317.3100000001,"ADDRESS":"林森路二段１９２巷３６弄３號六樓","OBJECTID":171902},"geometry":{"x":170630.6500000013,"y":2543317.3099999987}},{"attributes":{"ID":171904,"DIS_CODE":0,"TOWNNAME":"新市區","LI":"港墘里","LIN":"12鄰","STREET":"中山路","SECT":" ","MAREA":" ","LANE":" ","ALLEY":" ","HOUSE_NO":"１３８之５號","E_COORD97":178363.48999999999,"N_COORD97":2552720.2999999998,"ADDRESS":"中山路１３８之５號","OBJECTID":171903},"geometry":{"x":178363.49000000115,"y":2552720.3000000026}},{"attributes":{"ID":171905,"DIS_CODE":0,"TOWNNAME":"新市區","LI":"港墘里","LIN":"12鄰","STREET":"中山路","SECT":" ","MAREA":" ","LANE":" ","ALLEY":" ","HOUSE_NO":"１５４號","E_COORD97":178271.87,"N_COORD97":2552599.5,"ADDRESS":"中山路１５４號","OBJECTID":171904},"geometry":{"x":178271.87000000197,"y":2552599.5000000019}},{"attributes":{"ID":171906,"DIS_CODE":0,"TOWNNAME":"東區","LI":"崇誨里","LIN":"17鄰","STREET":"林森路","SECT":"二段","MAREA":" ","LANE":"１９２巷","ALLEY":"３６弄","HOUSE_NO":"５號七樓","E_COORD97":170632.47,"N_COORD97":2543311.5299999998,"ADDRESS":"林森路二段１９２巷３６弄５號七樓","OBJECTID":171905},"geometry":{"x":170632.47000000067,"y":2543311.5300000031}},{"attributes":{"ID":171907,"DIS_CODE":0,"TOWNNAME":"東區","LI":"崇誨里","LIN":"17鄰","STREET":"林森路","SECT":"二段","MAREA":" ","LANE":"１９２巷","ALLEY":"３６弄","HOUSE_NO":"５號三樓","E_COORD97":170632.47,"N_COORD97":2543311.5299999998,"ADDRESS":"林森路二段１９２巷３６弄５號三樓","OBJECTID":171906},"geometry":{"x":170632.47000000067,"y":2543311.5300000031}},{"attributes":{"ID":171908,"DIS_CODE":0,"TOWNNAME":"東區","LI":"崇誨里","LIN":"17鄰","STREET":"林森路","SECT":"二段","MAREA":" ","LANE":"１９２巷","ALLEY":"３６弄","HOUSE_NO":"５號五樓","E_COORD97":170632.47,"N_COORD97":2543311.5299999998,"ADDRESS":"林森路二段１９２巷３６弄５號五樓","OBJECTID":171907},"geometry":{"x":170632.47000000067,"y":2543311.5300000031}},{"attributes":{"ID":171909,"DIS_CODE":0,"TOWNNAME":"東區","LI":"崇誨里","LIN":"17鄰","STREET":"林森路","SECT":"二段","MAREA":" ","LANE":"１９２巷","ALLEY":"３６弄","HOUSE_NO":"７號七樓之４","E_COORD97":170634.28,"N_COORD97":2543304.0800000001,"ADDRESS":"林森路二段１９２巷３６弄７號七樓之４","OBJECTID":171908},"geometry":{"x":170634.28000000119,"y":2543304.0800000001}},{"attributes":{"ID":171910,"DIS_CODE":0,"TOWNNAME":"東區","LI":"崇誨里","LIN":"17鄰","STREET":"林森路","SECT":"二段","MAREA":" ","LANE":"１９２巷","ALLEY":"３６弄","HOUSE_NO":"７號六樓之１","E_COORD97":170634.28,"N_COORD97":2543304.0800000001,"ADDRESS":"林森路二段１９２巷３６弄７號六樓之１","OBJECTID":171909},"geometry":{"x":170634.28000000119,"y":2543304.0800000001}},{"attributes":{"ID":171911,"DIS_CODE":0,"TOWNNAME":"安南區","LI":"布袋里","LIN":"1鄰","STREET":"長和路","SECT":"四段","MAREA":" ","LANE":"２３１巷","ALLEY":" ","HOUSE_NO":"１４５號","E_COORD97":168836.57000000001,"N_COORD97":2551305.1099999999,"ADDRESS":"長和路四段２３１巷１４５號","OBJECTID":171910},"geometry":{"x":168836.5700000003,"y":2551305.1099999994}},{"attributes":{"ID":171912,"DIS_CODE":0,"TOWNNAME":"新市區","LI":"大社里","LIN":"12鄰","STREET":" ","SECT":" ","MAREA":"大社","LANE":" ","ALLEY":" ","HOUSE_NO":"３９８號","E_COORD97":180147.56,"N_COORD97":2554705,"ADDRESS":"大社３９８號","OBJECTID":171911},"geometry":{"x":180147.55999999959,"y":2554705.0000000019}},{"attributes":{"ID":171913,"DIS_CODE":0,"TOWNNAME":"新市區","LI":"大社里","LIN":"12鄰","STREET":" ","SECT":" ","MAREA":"大社","LANE":" ","ALLEY":" ","HOUSE_NO":"４０２之３４號","E_COORD97":180348.45999999999,"N_COORD97":2554691.0499999998,"ADDRESS":"大社４０２之３４號","OBJECTID":171912},"geometry":{"x":180348.46000000089,"y":2554691.0500000045}},{"attributes":{"ID":171914,"DIS_CODE":0,"TOWNNAME":"新市區","LI":"大社里","LIN":"12鄰","STREET":" ","SECT":" ","MAREA":"大社","LANE":" ","ALLEY":" ","HOUSE_NO":"４０２之１９號","E_COORD97":180314.31,"N_COORD97":2554666.5499999998,"ADDRESS":"大社４０２之１９號","OBJECTID":171913},"geometry":{"x":180314.30999999866,"y":2554666.5500000007}},{"attributes":{"ID":171915,"DIS_CODE":0,"TOWNNAME":"新市區","LI":"大社里","LIN":"12鄰","STREET":" ","SECT":" ","MAREA":"大社","LANE":" ","ALLEY":" ","HOUSE_NO":"４０２之２５號","E_COORD97":180337.10000000001,"N_COORD97":2554647.2999999998,"ADDRESS":"大社４０２之２５號","OBJECTID":171914},"geometry":{"x":180337.09999999963,"y":2554647.3000000007}},{"attributes":{"ID":171916,"DIS_CODE":0,"TOWNNAME":"東區","LI":"崇誨里","LIN":"17鄰","STREET":"林森路","SECT":"二段","MAREA":" ","LANE":"１９２巷","ALLEY":"３６弄","HOUSE_NO":"７號六樓之４","E_COORD97":170634.28,"N_COORD97":2543304.0800000001,"ADDRESS":"林森路二段１９２巷３６弄７號六樓之４","OBJECTID":171915},"geometry":{"x":170634.28000000119,"y":2543304.0800000001}},{"attributes":{"ID":171917,"DIS_CODE":0,"TOWNNAME":"新市區","LI":"港墘里","LIN":"12鄰","STREET":"中山路","SECT":" ","MAREA":" ","LANE":" ","ALLEY":" ","HOUSE_NO":"１５２號","E_COORD97":178303.45999999999,"N_COORD97":2552632.5,"ADDRESS":"中山路１５２號","OBJECTID":171916},"geometry":{"x":178303.46000000089,"y":2552632.5000000037}},{"attributes":{"ID":171918,"DIS_CODE":0,"TOWNNAME":"東區","LI":"崇誨里","LIN":"17鄰","STREET":"林森路","SECT":"二段","MAREA":" ","LANE":"１９２巷","ALLEY":"３６弄","HOUSE_NO":"７號四樓","E_COORD97":170634.28,"N_COORD97":2543304.0800000001,"ADDRESS":"林森路二段１９２巷３６弄７號四樓","OBJECTID":171917},"geometry":{"x":170634.28000000119,"y":2543304.0800000001}},{"attributes":{"ID":171919,"DIS_CODE":0,"TOWNNAME":"東區","LI":"崇誨里","LIN":"17鄰","STREET":"林森路","SECT":"二段","MAREA":" ","LANE":"１９２巷","ALLEY":"３６弄","HOUSE_NO":"９號三樓","E_COORD97":170635.53,"N_COORD97":2543296.04,"ADDRESS":"林森路二段１９２巷３６弄９號三樓","OBJECTID":171918},"geometry":{"x":170635.53000000026,"y":2543296.0399999991}},{"attributes":{"ID":171920,"DIS_CODE":0,"TOWNNAME":"新市區","LI":"豐華里","LIN":"12鄰","STREET":" ","SECT":" ","MAREA":"豐華","LANE":" ","ALLEY":" ","HOUSE_NO":"４７之１２９號","E_COORD97":174240.35000000001,"N_COORD97":2554445.5499999998,"ADDRESS":"豐華４７之１２９號","OBJECTID":171919},"geometry":{"x":174240.35000000149,"y":2554445.5500000007}},{"attributes":{"ID":171921,"DIS_CODE":0,"TOWNNAME":"東區","LI":"崇誨里","LIN":"17鄰","STREET":"林森路","SECT":"二段","MAREA":" ","LANE":"１９２巷","ALLEY":"３６弄","HOUSE_NO":"３號五樓","E_COORD97":170630.64999999999,"N_COORD97":2543317.3100000001,"ADDRESS":"林森路二段１９２巷３６弄３號五樓","OBJECTID":171920},"geometry":{"x":170630.6500000013,"y":2543317.3099999987}},{"attributes":{"ID":171922,"DIS_CODE":0,"TOWNNAME":"永康區","LI":"中興里","LIN":"25鄰","STREET":"中華路","SECT":" ","MAREA":" ","LANE":"２８０巷","ALLEY":"１８弄","HOUSE_NO":"１號四樓之１","E_COORD97":171724.67999999999,"N_COORD97":2545178.7999999998,"ADDRESS":"中華路２８０巷１８弄１號四樓之１","OBJECTID":171921},"geometry":{"x":171724.68000000063,"y":2545178.8000000007}},{"attributes":{"ID":171923,"DIS_CODE":0,"TOWNNAME":"永康區","LI":"中興里","LIN":"25鄰","STREET":"中華路","SECT":" ","MAREA":" ","LANE":"２８０巷","ALLEY":"１８弄","HOUSE_NO":"１號七樓","E_COORD97":171722.54000000001,"N_COORD97":2545178.7599999998,"ADDRESS":"中華路２８０巷１８弄１號七樓","OBJECTID":171922},"geometry":{"x":171722.54000000097,"y":2545178.7600000016}},{"attributes":{"ID":171924,"DIS_CODE":0,"TOWNNAME":"永康區","LI":"中興里","LIN":"25鄰","STREET":"中華路","SECT":" ","MAREA":" ","LANE":"２８０巷","ALLEY":"１８弄","HOUSE_NO":"１號四樓之２","E_COORD97":171724.81,"N_COORD97":2545178.7999999998,"ADDRESS":"中華路２８０巷１８弄１號四樓之２","OBJECTID":171923},"geometry":{"x":171724.80999999866,"y":2545178.8000000007}},{"attributes":{"ID":171925,"DIS_CODE":0,"TOWNNAME":"永康區","LI":"中興里","LIN":"25鄰","STREET":"中華路","SECT":" ","MAREA":" ","LANE":"２８０巷","ALLEY":"１８弄","HOUSE_NO":"１號五樓之１","E_COORD97":171724.67999999999,"N_COORD97":2545178.7999999998,"ADDRESS":"中華路２８０巷１８弄１號五樓之１","OBJECTID":171924},"geometry":{"x":171724.68000000063,"y":2545178.8000000007}},{"attributes":{"ID":171926,"DIS_CODE":0,"TOWNNAME":"永康區","LI":"二王里","LIN":"4鄰","STREET":"二王路","SECT":" ","MAREA":" ","LANE":"８６巷","ALLEY":"２２弄","HOUSE_NO":"１號五樓之１","E_COORD97":172973.48999999999,"N_COORD97":2546673.7799999998,"ADDRESS":"二王路８６巷２２弄１號五樓之１","OBJECTID":171925},"geometry":{"x":172973.49000000022,"y":2546673.7800000012}},{"attributes":{"ID":171927,"DIS_CODE":0,"TOWNNAME":"新市區","LI":"豐華里","LIN":"12鄰","STREET":" ","SECT":" ","MAREA":"豐華","LANE":" ","ALLEY":" ","HOUSE_NO":"４７之１３５號","E_COORD97":174247.23000000001,"N_COORD97":2554470.7999999998,"ADDRESS":"豐華４７之１３５號","OBJECTID":171926},"geometry":{"x":174247.23000000138,"y":2554470.8000000007}},{"attributes":{"ID":171928,"DIS_CODE":0,"TOWNNAME":"永康區","LI":"二王里","LIN":"47鄰","STREET":"南工街","SECT":" ","MAREA":" ","LANE":"２２６巷","ALLEY":"３弄","HOUSE_NO":"１號四樓之２","E_COORD97":171977.98000000001,"N_COORD97":2545990.6000000001,"ADDRESS":"南工街２２６巷３弄１號四樓之２","OBJECTID":171927},"geometry":{"x":171977.98000000138,"y":2545990.6000000015}},{"attributes":{"ID":171929,"DIS_CODE":0,"TOWNNAME":"安南區","LI":"溪東里","LIN":" ","STREET":"府安路","SECT":"五段","MAREA":" ","LANE":"９８巷","ALLEY":"５５弄","HOUSE_NO":"７號一樓","E_COORD97":168015.38,"N_COORD97":2547311.9500000002,"ADDRESS":"府安路五段９８巷５５弄７號一樓","OBJECTID":171928},"geometry":{"x":168015.37999999989,"y":2547311.9499999993}},{"attributes":{"ID":171930,"DIS_CODE":0,"TOWNNAME":"永康區","LI":"神洲里","LIN":"17鄰","STREET":"忠孝路","SECT":" ","MAREA":" ","LANE":"７６巷","ALLEY":"４７弄","HOUSE_NO":"１７號五樓","E_COORD97":172171.06,"N_COORD97":2544937.1899999999,"ADDRESS":"忠孝路７６巷４７弄１７號五樓","OBJECTID":171929},"geometry":{"x":172171.06000000052,"y":2544937.1899999995}},{"attributes":{"ID":171931,"DIS_CODE":0,"TOWNNAME":"永康區","LI":"神洲里","LIN":"20鄰","STREET":"忠孝路","SECT":" ","MAREA":" ","LANE":"７６巷","ALLEY":"６３弄","HOUSE_NO":"２４號二樓","E_COORD97":172186.75,"N_COORD97":2545049.3500000001,"ADDRESS":"忠孝路７６巷６３弄２４號二樓","OBJECTID":171930},"geometry":{"x":172186.74999999907,"y":2545049.3500000015}},{"attributes":{"ID":171932,"DIS_CODE":0,"TOWNNAME":"永康區","LI":"神洲里","LIN":"20鄰","STREET":"忠孝路","SECT":" ","MAREA":" ","LANE":"７６巷","ALLEY":"６３弄","HOUSE_NO":"２６號三樓","E_COORD97":172180.13,"N_COORD97":2545049.6600000001,"ADDRESS":"忠孝路７６巷６３弄２６號三樓","OBJECTID":171931},"geometry":{"x":172180.12999999989,"y":2545049.6600000001}},{"attributes":{"ID":171933,"DIS_CODE":0,"TOWNNAME":"永康區","LI":"神洲里","LIN":"14鄰","STREET":"忠孝路","SECT":" ","MAREA":" ","LANE":"７６巷","ALLEY":"６３弄","HOUSE_NO":"２５號二樓","E_COORD97":172224.89000000001,"N_COORD97":2545020.8500000001,"ADDRESS":"忠孝路７６巷６３弄２５號二樓","OBJECTID":171932},"geometry":{"x":172224.8900000006,"y":2545020.8499999996}},{"attributes":{"ID":171934,"DIS_CODE":0,"TOWNNAME":"仁德區","LI":"一甲里","LIN":"12鄰","STREET":"忠義路","SECT":" ","MAREA":" ","LANE":" ","ALLEY":" ","HOUSE_NO":"３５１號","E_COORD97":173537.34,"N_COORD97":2541873.77,"ADDRESS":"忠義路３５１號","OBJECTID":171933},"geometry":{"x":173537.34000000078,"y":2541873.7700000014}},{"attributes":{"ID":171935,"DIS_CODE":0,"TOWNNAME":"永康區","LI":"勝利里","LIN":"7鄰","STREET":"勝利街","SECT":" ","MAREA":" ","LANE":"２２巷","ALLEY":"５弄","HOUSE_NO":"９號五樓之２","E_COORD97":171244.76999999999,"N_COORD97":2544594.27,"ADDRESS":"勝利街２２巷５弄９號五樓之２","OBJECTID":171934},"geometry":{"x":171244.76999999955,"y":2544594.2699999996}},{"attributes":{"ID":171936,"DIS_CODE":0,"TOWNNAME":"永康區","LI":"神洲里","LIN":"15鄰","STREET":"忠孝路","SECT":" ","MAREA":" ","LANE":"７６巷","ALLEY":"６３弄","HOUSE_NO":"３１號五樓","E_COORD97":172162.28,"N_COORD97":2545030.29,"ADDRESS":"忠孝路７６巷６３弄３１號五樓","OBJECTID":171935},"geometry":{"x":172162.28000000119,"y":2545030.2899999991}},{"attributes":{"ID":171937,"DIS_CODE":0,"TOWNNAME":"永康區","LI":"神洲里","LIN":"15鄰","STREET":"忠孝路","SECT":" ","MAREA":" ","LANE":"７６巷","ALLEY":"６３弄","HOUSE_NO":"２９號二樓","E_COORD97":172177.07999999999,"N_COORD97":2545028.79,"ADDRESS":"忠孝路７６巷６３弄２９號二樓","OBJECTID":171936},"geometry":{"x":172177.08000000007,"y":2545028.790000001}},{"attributes":{"ID":171938,"DIS_CODE":0,"TOWNNAME":"永康區","LI":"神洲里","LIN":"15鄰","STREET":"忠孝路","SECT":" ","MAREA":" ","LANE":"７６巷","ALLEY":"４９弄","HOUSE_NO":"６號三樓","E_COORD97":172177.64000000001,"N_COORD97":2544985.2400000002,"ADDRESS":"忠孝路７６巷４９弄６號三樓","OBJECTID":171937},"geometry":{"x":172177.6400000006,"y":2544985.2400000002}},{"attributes":{"ID":171939,"DIS_CODE":0,"TOWNNAME":"永康區","LI":"勝利里","LIN":"33鄰","STREET":"中華路","SECT":" ","MAREA":" ","LANE":"７巷","ALLEY":"２０弄","HOUSE_NO":"３８號十一樓之２","E_COORD97":171532.87,"N_COORD97":2544441.0499999998,"ADDRESS":"中華路７巷２０弄３８號十一樓之２","OBJECTID":171938},"geometry":{"x":171532.87000000011,"y":2544441.0500000007}},{"attributes":{"ID":171940,"DIS_CODE":0,"TOWNNAME":"永康區","LI":"神洲里","LIN":"14鄰","STREET":"忠孝路","SECT":" ","MAREA":" ","LANE":"７６巷","ALLEY":"４９弄","HOUSE_NO":"２號三樓","E_COORD97":172223.26999999999,"N_COORD97":2545006.1000000001,"ADDRESS":"忠孝路７６巷４９弄２號三樓","OBJECTID":171939},"geometry":{"x":172223.26999999955,"y":2545006.0999999996}},{"attributes":{"ID":171941,"DIS_CODE":0,"TOWNNAME":"南區","LI":"郡南里","LIN":"12鄰","STREET":"永吉街","SECT":" ","MAREA":" ","LANE":" ","ALLEY":" ","HOUSE_NO":"５６號","E_COORD97":167321.29999999999,"N_COORD97":2540692.4500000002,"ADDRESS":"永吉街５６號","OBJECTID":171940},"geometry":{"x":167321.30000000075,"y":2540692.4500000011}},{"attributes":{"ID":171942,"DIS_CODE":0,"TOWNNAME":"中西區","LI":"大南里","LIN":"12鄰","STREET":"南門路","SECT":" ","MAREA":" ","LANE":" ","ALLEY":" ","HOUSE_NO":"３８號","E_COORD97":168371.09,"N_COORD97":2542991.8700000001,"ADDRESS":"南門路３８號","OBJECTID":171941},"geometry":{"x":168371.08999999985,"y":2542991.870000001}},{"attributes":{"ID":171943,"DIS_CODE":0,"TOWNNAME":"中西區","LI":"小西里","LIN":"12鄰","STREET":"府前路","SECT":"一段","MAREA":" ","LANE":" ","ALLEY":" ","HOUSE_NO":"３７３號","E_COORD97":167869.17999999999,"N_COORD97":2543402.4100000001,"ADDRESS":"府前路一段３７３號","OBJECTID":171942},"geometry":{"x":167869.1799999997,"y":2543402.410000002}},{"attributes":{"ID":171944,"DIS_CODE":0,"TOWNNAME":"中西區","LI":"小西里","LIN":"12鄰","STREET":"府前路","SECT":"一段","MAREA":" ","LANE":" ","ALLEY":" ","HOUSE_NO":"３７５號","E_COORD97":167865.60000000001,"N_COORD97":2543405.02,"ADDRESS":"府前路一段３７５號","OBJECTID":171943},"geometry":{"x":167865.59999999963,"y":2543405.0199999996}},{"attributes":{"ID":171945,"DIS_CODE":0,"TOWNNAME":"南區","LI":"郡南里","LIN":"12鄰","STREET":"永吉街","SECT":" ","MAREA":" ","LANE":" ","ALLEY":" ","HOUSE_NO":"６４號","E_COORD97":167326.07999999999,"N_COORD97":2540724.8900000001,"ADDRESS":"永吉街６４號","OBJECTID":171944},"geometry":{"x":167326.08000000007,"y":2540724.8900000025}},{"attributes":{"ID":171946,"DIS_CODE":0,"TOWNNAME":"永康區","LI":"東灣里","LIN":"25鄰","STREET":"大灣二街","SECT":" ","MAREA":" ","LANE":" ","ALLEY":" ","HOUSE_NO":"９１號","E_COORD97":174764.23000000001,"N_COORD97":2544744.2799999998,"ADDRESS":"大灣二街９１號","OBJECTID":171945},"geometry":{"x":174764.23000000231,"y":2544744.2800000012}},{"attributes":{"ID":171947,"DIS_CODE":0,"TOWNNAME":"永康區","LI":"埔園里","LIN":"5鄰","STREET":"聖龍街","SECT":" ","MAREA":" ","LANE":" ","ALLEY":" ","HOUSE_NO":"１７號","E_COORD97":173825.19,"N_COORD97":2547798,"ADDRESS":"聖龍街１７號","OBJECTID":171946},"geometry":{"x":173825.19000000227,"y":2547798.0000000037}},{"attributes":{"ID":171948,"DIS_CODE":0,"TOWNNAME":"永康區","LI":"埔園里","LIN":"32鄰","STREET":"永大路","SECT":"三段","MAREA":" ","LANE":" ","ALLEY":" ","HOUSE_NO":"４４７號","E_COORD97":174038.56,"N_COORD97":2548668.27,"ADDRESS":"永大路三段４４７號","OBJECTID":171947},"geometry":{"x":174038.55999999959,"y":2548668.2700000014}},{"attributes":{"ID":171949,"DIS_CODE":0,"TOWNNAME":"永康區","LI":"東灣里","LIN":"24鄰","STREET":"大灣二街","SECT":" ","MAREA":" ","LANE":" ","ALLEY":" ","HOUSE_NO":"９６號","E_COORD97":174793.73999999999,"N_COORD97":2544776.25,"ADDRESS":"大灣二街９６號","OBJECTID":171948},"geometry":{"x":174793.74000000022,"y":2544776.2500000019}},{"attributes":{"ID":171950,"DIS_CODE":0,"TOWNNAME":"永康區","LI":"勝利里","LIN":"7鄰","STREET":"勝利街","SECT":" ","MAREA":" ","LANE":"２２巷","ALLEY":"５弄","HOUSE_NO":"７號七樓之２","E_COORD97":171244.76999999999,"N_COORD97":2544594.27,"ADDRESS":"勝利街２２巷５弄７號七樓之２","OBJECTID":171949},"geometry":{"x":171244.76999999955,"y":2544594.2699999996}},{"attributes":{"ID":171951,"DIS_CODE":0,"TOWNNAME":"永康區","LI":"神洲里","LIN":"20鄰","STREET":"忠孝路","SECT":" ","MAREA":" ","LANE":"７６巷","ALLEY":"６３弄","HOUSE_NO":"２２號五樓","E_COORD97":172196.35000000001,"N_COORD97":2545049.5800000001,"ADDRESS":"忠孝路７６巷６３弄２２號五樓","OBJECTID":171950},"geometry":{"x":172196.35000000056,"y":2545049.5800000001}},{"attributes":{"ID":171952,"DIS_CODE":0,"TOWNNAME":"永康區","LI":"神洲里","LIN":"20鄰","STREET":"忠孝路","SECT":" ","MAREA":" ","LANE":"７６巷","ALLEY":"６３弄","HOUSE_NO":"２８號二樓","E_COORD97":172170.17000000001,"N_COORD97":2545052.2400000002,"ADDRESS":"忠孝路７６巷６３弄２８號二樓","OBJECTID":171951},"geometry":{"x":172170.16999999993,"y":2545052.2400000002}},{"attributes":{"ID":171953,"DIS_CODE":0,"TOWNNAME":"永康區","LI":"勝利里","LIN":"38鄰","STREET":"勝利街","SECT":" ","MAREA":" ","LANE":"１９７巷","ALLEY":"８弄","HOUSE_NO":"８號三樓之２","E_COORD97":171347.20999999999,"N_COORD97":2545178.2999999998,"ADDRESS":"勝利街１９７巷８弄８號三樓之２","OBJECTID":171952},"geometry":{"x":171347.20999999996,"y":2545178.3000000007}},{"attributes":{"ID":171954,"DIS_CODE":0,"TOWNNAME":"永康區","LI":"神洲里","LIN":"20鄰","STREET":"忠孝路","SECT":" ","MAREA":" ","LANE":"７６巷","ALLEY":"６３弄","HOUSE_NO":"３２號五樓","E_COORD97":172155,"N_COORD97":2545052.4900000002,"ADDRESS":"忠孝路７６巷６３弄３２號五樓","OBJECTID":171953},"geometry":{"x":172155.00000000093,"y":2545052.4900000021}},{"attributes":{"ID":171955,"DIS_CODE":0,"TOWNNAME":"永康區","LI":"神洲里","LIN":"20鄰","STREET":"忠孝路","SECT":" ","MAREA":" ","LANE":"７６巷","ALLEY":"６３弄","HOUSE_NO":"２２號三樓","E_COORD97":172196.35000000001,"N_COORD97":2545049.5800000001,"ADDRESS":"忠孝路７６巷６３弄２２號三樓","OBJECTID":171954},"geometry":{"x":172196.35000000056,"y":2545049.5800000001}},{"attributes":{"ID":171956,"DIS_CODE":0,"TOWNNAME":"永康區","LI":"神洲里","LIN":"20鄰","STREET":"忠孝路","SECT":" ","MAREA":" ","LANE":"７６巷","ALLEY":"６３弄","HOUSE_NO":"３０號三樓","E_COORD97":172163.51999999999,"N_COORD97":2545049.5899999999,"ADDRESS":"忠孝路７６巷６３弄３０號三樓","OBJECTID":171955},"geometry":{"x":172163.51999999955,"y":2545049.5899999999}},{"attributes":{"ID":171957,"DIS_CODE":0,"TOWNNAME":"永康區","LI":"神洲里","LIN":"20鄰","STREET":"忠孝路","SECT":" ","MAREA":" ","LANE":"７６巷","ALLEY":"６３弄","HOUSE_NO":"２４號四樓","E_COORD97":172186.75,"N_COORD97":2545049.3500000001,"ADDRESS":"忠孝路７６巷６３弄２４號四樓","OBJECTID":171956},"geometry":{"x":172186.74999999907,"y":2545049.3500000015}},{"attributes":{"ID":171958,"DIS_CODE":0,"TOWNNAME":"永康區","LI":"神洲里","LIN":"20鄰","STREET":"忠孝路","SECT":" ","MAREA":" ","LANE":"７６巷","ALLEY":"６３弄","HOUSE_NO":"２４號三樓","E_COORD97":172186.75,"N_COORD97":2545049.3500000001,"ADDRESS":"忠孝路７６巷６３弄２４號三樓","OBJECTID":171957},"geometry":{"x":172186.74999999907,"y":2545049.3500000015}},{"attributes":{"ID":171959,"DIS_CODE":0,"TOWNNAME":"永康區","LI":"東橋里","LIN":"18鄰","STREET":"中山南路","SECT":" ","MAREA":" ","LANE":" ","ALLEY":" ","HOUSE_NO":"３７１號","E_COORD97":172718.48999999999,"N_COORD97":2546791.3900000001,"ADDRESS":"中山南路３７１號","OBJECTID":171958},"geometry":{"x":172718.49000000115,"y":2546791.3900000006}},{"attributes":{"ID":171960,"DIS_CODE":0,"TOWNNAME":"永康區","LI":"建國里","LIN":"24鄰","STREET":"復興路","SECT":" ","MAREA":" ","LANE":" ","ALLEY":" ","HOUSE_NO":"７７號","E_COORD97":172865.16,"N_COORD97":2544310.5699999998,"ADDRESS":"復興路７７號","OBJECTID":171959},"geometry":{"x":172865.16000000015,"y":2544310.5700000022}},{"attributes":{"ID":171961,"DIS_CODE":0,"TOWNNAME":"永康區","LI":"南灣里","LIN":"14鄰","STREET":"大灣路","SECT":" ","MAREA":" ","LANE":" ","ALLEY":" ","HOUSE_NO":"６３６號","E_COORD97":174502.13,"N_COORD97":2544613.7999999998,"ADDRESS":"大灣路６３６號","OBJECTID":171960},"geometry":{"x":174502.13000000082,"y":2544613.8000000026}},{"attributes":{"ID":171962,"DIS_CODE":0,"TOWNNAME":"永康區","LI":"神洲里","LIN":"20鄰","STREET":"忠孝路","SECT":" ","MAREA":" ","LANE":"７６巷","ALLEY":"６３弄","HOUSE_NO":"２０號三樓","E_COORD97":172202.32999999999,"N_COORD97":2545049.7999999998,"ADDRESS":"忠孝路７６巷６３弄２０號三樓","OBJECTID":171961},"geometry":{"x":172202.33000000101,"y":2545049.8000000007}},{"attributes":{"ID":171963,"DIS_CODE":0,"TOWNNAME":"永康區","LI":"神洲里","LIN":"20鄰","STREET":"忠孝路","SECT":" ","MAREA":" ","LANE":"７６巷","ALLEY":"６３弄","HOUSE_NO":"３２號二樓","E_COORD97":172155,"N_COORD97":2545052.4900000002,"ADDRESS":"忠孝路７６巷６３弄３２號二樓","OBJECTID":171962},"geometry":{"x":172155.00000000093,"y":2545052.4900000021}},{"attributes":{"ID":171964,"DIS_CODE":0,"TOWNNAME":"永康區","LI":"神洲里","LIN":"14鄰","STREET":"忠孝路","SECT":" ","MAREA":" ","LANE":"７６巷","ALLEY":"４９弄","HOUSE_NO":"４號五樓","E_COORD97":172208.23000000001,"N_COORD97":2545008.1000000001,"ADDRESS":"忠孝路７６巷４９弄４號五樓","OBJECTID":171963},"geometry":{"x":172208.23000000138,"y":2545008.0999999996}},{"attributes":{"ID":171965,"DIS_CODE":0,"TOWNNAME":"永康區","LI":"神洲里","LIN":"20鄰","STREET":"忠孝路","SECT":" ","MAREA":" ","LANE":"７６巷","ALLEY":"６３弄","HOUSE_NO":"２０號四樓","E_COORD97":172202.32999999999,"N_COORD97":2545049.7999999998,"ADDRESS":"忠孝路７６巷６３弄２０號四樓","OBJECTID":171964},"geometry":{"x":172202.33000000101,"y":2545049.8000000007}},{"attributes":{"ID":171966,"DIS_CODE":0,"TOWNNAME":"永康區","LI":"神洲里","LIN":"20鄰","STREET":"忠孝路","SECT":" ","MAREA":" ","LANE":"７６巷","ALLEY":"６３弄","HOUSE_NO":"２２號二樓","E_COORD97":172196.35000000001,"N_COORD97":2545049.5800000001,"ADDRESS":"忠孝路７６巷６３弄２２號二樓","OBJECTID":171965},"geometry":{"x":172196.35000000056,"y":2545049.5800000001}},{"attributes":{"ID":171967,"DIS_CODE":0,"TOWNNAME":"永康區","LI":"埔園里","LIN":"5鄰","STREET":"聖龍街","SECT":" ","MAREA":" ","LANE":" ","ALLEY":" ","HOUSE_NO":"４５號","E_COORD97":173905.67000000001,"N_COORD97":2547813.2400000002,"ADDRESS":"聖龍街４５號","OBJECTID":171966},"geometry":{"x":173905.66999999993,"y":2547813.2400000039}},{"attributes":{"ID":171968,"DIS_CODE":0,"TOWNNAME":"永康區","LI":"烏竹里","LIN":"18鄰","STREET":"龍中街","SECT":" ","MAREA":" ","LANE":" ","ALLEY":" ","HOUSE_NO":"２３４號","E_COORD97":174374.76999999999,"N_COORD97":2548573.2400000002,"ADDRESS":"龍中街２３４號","OBJECTID":171967},"geometry":{"x":174374.77000000142,"y":2548573.2400000021}},{"attributes":{"ID":171969,"DIS_CODE":0,"TOWNNAME":"南區","LI":"郡南里","LIN":"12鄰","STREET":"永吉街","SECT":" ","MAREA":" ","LANE":" ","ALLEY":" ","HOUSE_NO":"６６號","E_COORD97":167325.17000000001,"N_COORD97":2540728.98,"ADDRESS":"永吉街６６號","OBJECTID":171968},"geometry":{"x":167325.16999999993,"y":2540728.9800000004}},{"attributes":{"ID":171970,"DIS_CODE":0,"TOWNNAME":"安南區","LI":"佃西里","LIN":"12鄰","STREET":"公學路","SECT":"五段","MAREA":" ","LANE":" ","ALLEY":" ","HOUSE_NO":"１９０號","E_COORD97":164752.75,"N_COORD97":2552109.3900000001,"ADDRESS":"公學路五段１９０號","OBJECTID":171969},"geometry":{"x":164752.75,"y":2552109.3900000025}},{"attributes":{"ID":171971,"DIS_CODE":0,"TOWNNAME":"安南區","LI":"佃西里","LIN":"12鄰","STREET":"公學路","SECT":"五段","MAREA":" ","LANE":" ","ALLEY":" ","HOUSE_NO":"１９４號","E_COORD97":164761.73000000001,"N_COORD97":2552138.8599999999,"ADDRESS":"公學路五段１９４號","OBJECTID":171970},"geometry":{"x":164761.73000000045,"y":2552138.8600000013}},{"attributes":{"ID":171972,"DIS_CODE":0,"TOWNNAME":"永康區","LI":"勝利里","LIN":"7鄰","STREET":"勝利街","SECT":" ","MAREA":" ","LANE":"２２巷","ALLEY":"５弄","HOUSE_NO":"５號六樓","E_COORD97":171242.5,"N_COORD97":2544594.23,"ADDRESS":"勝利街２２巷５弄５號六樓","OBJECTID":171971},"geometry":{"x":171242.49999999907,"y":2544594.2300000023}},{"attributes":{"ID":171973,"DIS_CODE":0,"TOWNNAME":"永康區","LI":"勝利里","LIN":"7鄰","STREET":"勝利街","SECT":" ","MAREA":" ","LANE":"２２巷","ALLEY":"５弄","HOUSE_NO":"７號三樓之１","E_COORD97":171244.63,"N_COORD97":2544594.27,"ADDRESS":"勝利街２２巷５弄７號三樓之１","OBJECTID":171972},"geometry":{"x":171244.62999999989,"y":2544594.2699999996}},{"attributes":{"ID":171974,"DIS_CODE":0,"TOWNNAME":"永康區","LI":"勝利里","LIN":"33鄰","STREET":"中華路","SECT":" ","MAREA":" ","LANE":"７巷","ALLEY":"２０弄","HOUSE_NO":"３８號四樓之２","E_COORD97":171531.62,"N_COORD97":2544441.0499999998,"ADDRESS":"中華路７巷２０弄３８號四樓之２","OBJECTID":171973},"geometry":{"x":171531.62000000011,"y":2544441.0500000007}},{"attributes":{"ID":171975,"DIS_CODE":0,"TOWNNAME":"永康區","LI":"勝利里","LIN":"37鄰","STREET":"勝利街","SECT":" ","MAREA":" ","LANE":"１９７巷","ALLEY":"９弄","HOUSE_NO":"６號二樓","E_COORD97":171310.70999999999,"N_COORD97":2545100.0099999998,"ADDRESS":"勝利街１９７巷９弄６號二樓","OBJECTID":171974},"geometry":{"x":171310.71000000183,"y":2545100.0100000016}},{"attributes":{"ID":171976,"DIS_CODE":0,"TOWNNAME":"永康區","LI":"神洲里","LIN":"16鄰","STREET":"忠孝路","SECT":" ","MAREA":" ","LANE":"７６巷","ALLEY":"４９弄","HOUSE_NO":"５號五樓","E_COORD97":172255.82000000001,"N_COORD97":2544962.48,"ADDRESS":"忠孝路７６巷４９弄５號五樓","OBJECTID":171975},"geometry":{"x":172255.8200000003,"y":2544962.4800000004}},{"attributes":{"ID":171977,"DIS_CODE":0,"TOWNNAME":"安南區","LI":"佃西里","LIN":"12鄰","STREET":"公學路","SECT":"五段","MAREA":" ","LANE":" ","ALLEY":" ","HOUSE_NO":"２００號","E_COORD97":164758.51000000001,"N_COORD97":2552150.3700000001,"ADDRESS":"公學路五段２００號","OBJECTID":171976},"geometry":{"x":164758.51000000071,"y":2552150.3700000029}},{"attributes":{"ID":171978,"DIS_CODE":0,"TOWNNAME":"安南區","LI":"大安里","LIN":"3鄰","STREET":"理安街","SECT":" ","MAREA":" ","LANE":" ","ALLEY":" ","HOUSE_NO":"９號","E_COORD97":167262.25,"N_COORD97":2547900.8100000001,"ADDRESS":"理安街９號","OBJECTID":171977},"geometry":{"x":167262.25000000186,"y":2547900.8100000005}},{"attributes":{"ID":171979,"DIS_CODE":0,"TOWNNAME":"永康區","LI":"埔園里","LIN":"39鄰","STREET":"自強路","SECT":" ","MAREA":" ","LANE":" ","ALLEY":" ","HOUSE_NO":"５７８號","E_COORD97":174017.20999999999,"N_COORD97":2548147.2999999998,"ADDRESS":"自強路５７８號","OBJECTID":171978},"geometry":{"x":174017.20999999996,"y":2548147.3000000026}},{"attributes":{"ID":171980,"DIS_CODE":0,"TOWNNAME":"永康區","LI":"南灣里","LIN":"13鄰","STREET":"大灣路","SECT":" ","MAREA":" ","LANE":" ","ALLEY":" ","HOUSE_NO":"５７２號","E_COORD97":174612.79000000001,"N_COORD97":2544717.1899999999,"ADDRESS":"大灣路５７２號","OBJECTID":171979},"geometry":{"x":174612.79000000097,"y":2544717.1899999976}},{"attributes":{"ID":171981,"DIS_CODE":0,"TOWNNAME":"永康區","LI":"烏竹里","LIN":"4鄰","STREET":"烏竹街","SECT":" ","MAREA":" ","LANE":" ","ALLEY":" ","HOUSE_NO":"７８號","E_COORD97":174506.76000000001,"N_COORD97":2549400.1099999999,"ADDRESS":"烏竹街７８號","OBJECTID":171980},"geometry":{"x":174506.75999999978,"y":2549400.1100000031}},{"attributes":{"ID":171982,"DIS_CODE":0,"TOWNNAME":"永康區","LI":"南灣里","LIN":"25鄰","STREET":"立興街","SECT":" ","MAREA":" ","LANE":" ","ALLEY":" ","HOUSE_NO":"８４號","E_COORD97":174547.82000000001,"N_COORD97":2544785.79,"ADDRESS":"立興街８４號","OBJECTID":171981},"geometry":{"x":174547.8200000003,"y":2544785.790000001}},{"attributes":{"ID":171983,"DIS_CODE":0,"TOWNNAME":"東區","LI":"大智里","LIN":"17鄰","STREET":"德東街","SECT":" ","MAREA":" ","LANE":"１５１巷","ALLEY":"３７弄","HOUSE_NO":"５號二樓","E_COORD97":171156.85999999999,"N_COORD97":2540378.4900000002,"ADDRESS":"德東街１５１巷３７弄５號二樓","OBJECTID":171982},"geometry":{"x":171156.86000000034,"y":2540378.4900000002}},{"attributes":{"ID":171984,"DIS_CODE":0,"TOWNNAME":"東區","LI":"虎尾里","LIN":"9鄰","STREET":"東成街","SECT":" ","MAREA":" ","LANE":"１８２巷","ALLEY":"１弄","HOUSE_NO":"２號二樓","E_COORD97":171770.72,"N_COORD97":2542250.6099999999,"ADDRESS":"東成街１８２巷１弄２號二樓","OBJECTID":171983},"geometry":{"x":171770.71999999974,"y":2542250.6100000013}},{"attributes":{"ID":171985,"DIS_CODE":0,"TOWNNAME":"東區","LI":"虎尾里","LIN":"9鄰","STREET":"東成街","SECT":" ","MAREA":" ","LANE":"１８２巷","ALLEY":"１弄","HOUSE_NO":"２號三樓","E_COORD97":171770.72,"N_COORD97":2542250.6099999999,"ADDRESS":"東成街１８２巷１弄２號三樓","OBJECTID":171984},"geometry":{"x":171770.71999999974,"y":2542250.6100000013}},{"attributes":{"ID":171986,"DIS_CODE":0,"TOWNNAME":"東區","LI":"虎尾里","LIN":"9鄰","STREET":"東成街","SECT":" ","MAREA":" ","LANE":"１８２巷","ALLEY":"１弄","HOUSE_NO":"２號五樓","E_COORD97":171770.72,"N_COORD97":2542250.6099999999,"ADDRESS":"東成街１８２巷１弄２號五樓","OBJECTID":171985},"geometry":{"x":171770.71999999974,"y":2542250.6100000013}},{"attributes":{"ID":171987,"DIS_CODE":0,"TOWNNAME":"東區","LI":"虎尾里","LIN":"9鄰","STREET":"東成街","SECT":" ","MAREA":" ","LANE":"１８２巷","ALLEY":"１弄","HOUSE_NO":"２號四樓","E_COORD97":171770.72,"N_COORD97":2542250.6099999999,"ADDRESS":"東成街１８２巷１弄２號四樓","OBJECTID":171986},"geometry":{"x":171770.71999999974,"y":2542250.6100000013}},{"attributes":{"ID":171988,"DIS_CODE":0,"TOWNNAME":"永康區","LI":"神洲里","LIN":"14鄰","STREET":"忠孝路","SECT":" ","MAREA":" ","LANE":"７６巷","ALLEY":"６３弄","HOUSE_NO":"１５號三樓","E_COORD97":172235.47,"N_COORD97":2544992.4199999999,"ADDRESS":"忠孝路７６巷６３弄１５號三樓","OBJECTID":171987},"geometry":{"x":172235.46999999974,"y":2544992.4200000018}},{"attributes":{"ID":171989,"DIS_CODE":0,"TOWNNAME":"永康區","LI":"烏竹里","LIN":"18鄰","STREET":"自強路","SECT":" ","MAREA":" ","LANE":"７７３巷","ALLEY":"５弄","HOUSE_NO":"２１號二樓","E_COORD97":174419.85000000001,"N_COORD97":2548547.6400000001,"ADDRESS":"自強路７７３巷５弄２１號二樓","OBJECTID":171988},"geometry":{"x":174419.84999999963,"y":2548547.6400000025}},{"attributes":{"ID":171990,"DIS_CODE":0,"TOWNNAME":"永康區","LI":"崑山里","LIN":"18鄰","STREET":"大灣路","SECT":" ","MAREA":" ","LANE":"９４２巷","ALLEY":"３４弄","HOUSE_NO":"１號六樓","E_COORD97":173659.26999999999,"N_COORD97":2544546.5099999998,"ADDRESS":"大灣路９４２巷３４弄１號六樓","OBJECTID":171989},"geometry":{"x":173659.27000000142,"y":2544546.5100000016}},{"attributes":{"ID":171991,"DIS_CODE":0,"TOWNNAME":"永康區","LI":"崑山里","LIN":"18鄰","STREET":"大灣路","SECT":" ","MAREA":" ","LANE":"９４２巷","ALLEY":"３４弄","HOUSE_NO":"１８號三樓","E_COORD97":173696.57000000001,"N_COORD97":2544517.9199999999,"ADDRESS":"大灣路９４２巷３４弄１８號三樓","OBJECTID":171990},"geometry":{"x":173696.5700000003,"y":2544517.9200000018}},{"attributes":{"ID":171992,"DIS_CODE":0,"TOWNNAME":"永康區","LI":"神洲里","LIN":"14鄰","STREET":"忠孝路","SECT":" ","MAREA":" ","LANE":"７６巷","ALLEY":"６３弄","HOUSE_NO":"１５號二樓","E_COORD97":172235.47,"N_COORD97":2544992.4199999999,"ADDRESS":"忠孝路７６巷６３弄１５號二樓","OBJECTID":171991},"geometry":{"x":172235.46999999974,"y":2544992.4200000018}},{"attributes":{"ID":171993,"DIS_CODE":0,"TOWNNAME":"永康區","LI":"神洲里","LIN":"14鄰","STREET":"忠孝路","SECT":" ","MAREA":" ","LANE":"７６巷","ALLEY":"６３弄","HOUSE_NO":"１３號四樓","E_COORD97":172237.35000000001,"N_COORD97":2544984.6400000001,"ADDRESS":"忠孝路７６巷６３弄１３號四樓","OBJECTID":171992},"geometry":{"x":172237.35000000056,"y":2544984.6400000025}},{"attributes":{"ID":171994,"DIS_CODE":0,"TOWNNAME":"永康區","LI":"崑山里","LIN":"18鄰","STREET":"大灣路","SECT":" ","MAREA":" ","LANE":"９４２巷","ALLEY":"３４弄","HOUSE_NO":"１號四樓","E_COORD97":173659.26999999999,"N_COORD97":2544546.5099999998,"ADDRESS":"大灣路９４２巷３４弄１號四樓","OBJECTID":171993},"geometry":{"x":173659.27000000142,"y":2544546.5100000016}},{"attributes":{"ID":171995,"DIS_CODE":0,"TOWNNAME":"永康區","LI":"東橋里","LIN":"18鄰","STREET":"中山南路","SECT":" ","MAREA":" ","LANE":" ","ALLEY":" ","HOUSE_NO":"３６９號","E_COORD97":172714.32999999999,"N_COORD97":2546789.8900000001,"ADDRESS":"中山南路３６９號","OBJECTID":171994},"geometry":{"x":172714.33000000101,"y":2546789.8900000025}},{"attributes":{"ID":171996,"DIS_CODE":0,"TOWNNAME":"永康區","LI":"神洲里","LIN":"14鄰","STREET":"忠孝路","SECT":" ","MAREA":" ","LANE":"７６巷","ALLEY":"６３弄","HOUSE_NO":"１５號四樓","E_COORD97":172235.47,"N_COORD97":2544992.4199999999,"ADDRESS":"忠孝路７６巷６３弄１５號四樓","OBJECTID":171995},"geometry":{"x":172235.46999999974,"y":2544992.4200000018}},{"attributes":{"ID":171997,"DIS_CODE":0,"TOWNNAME":"永康區","LI":"崑山里","LIN":"18鄰","STREET":"大灣路","SECT":" ","MAREA":" ","LANE":"９４２巷","ALLEY":"３４弄","HOUSE_NO":"１號五樓","E_COORD97":173659.26999999999,"N_COORD97":2544546.5099999998,"ADDRESS":"大灣路９４２巷３４弄１號五樓","OBJECTID":171996},"geometry":{"x":173659.27000000142,"y":2544546.5100000016}},{"attributes":{"ID":171998,"DIS_CODE":0,"TOWNNAME":"永康區","LI":"崑山里","LIN":"18鄰","STREET":"大灣路","SECT":" ","MAREA":" ","LANE":"９４２巷","ALLEY":"３４弄","HOUSE_NO":"１號二樓","E_COORD97":173659.26999999999,"N_COORD97":2544546.5099999998,"ADDRESS":"大灣路９４２巷３４弄１號二樓","OBJECTID":171997},"geometry":{"x":173659.27000000142,"y":2544546.5100000016}},{"attributes":{"ID":171999,"DIS_CODE":0,"TOWNNAME":"永康區","LI":"崑山里","LIN":"18鄰","STREET":"大灣路","SECT":" ","MAREA":" ","LANE":"９４２巷","ALLEY":"３４弄","HOUSE_NO":"１８號四樓","E_COORD97":173696.57000000001,"N_COORD97":2544517.9199999999,"ADDRESS":"大灣路９４２巷３４弄１８號四樓","OBJECTID":171998},"geometry":{"x":173696.5700000003,"y":2544517.9200000018}},{"attributes":{"ID":172000,"DIS_CODE":0,"TOWNNAME":"永康區","LI":"神洲里","LIN":"17鄰","STREET":"忠孝路","SECT":" ","MAREA":" ","LANE":"７６巷","ALLEY":"４７弄","HOUSE_NO":"１１號三樓","E_COORD97":172208.37,"N_COORD97":2544940.8300000001,"ADDRESS":"忠孝路７６巷４７弄１１號三樓","OBJECTID":171999},"geometry":{"x":172208.37000000104,"y":2544940.8300000038}},{"attributes":{"ID":172001,"DIS_CODE":0,"TOWNNAME":"永康區","LI":"崑山里","LIN":"18鄰","STREET":"大灣路","SECT":" ","MAREA":" ","LANE":"９４２巷","ALLEY":"３４弄","HOUSE_NO":"１８號六樓","E_COORD97":173696.57000000001,"N_COORD97":2544517.9199999999,"ADDRESS":"大灣路９４２巷３４弄１８號六樓","OBJECTID":172000},"geometry":{"x":173696.5700000003,"y":2544517.9200000018}}]}