{"displayFieldName":"TOWNNAME","fieldAliases":{"ID":"ID","DIS_CODE":"DIS_CODE","TOWNNAME":"TOWNNAME","LI":"LI","LIN":"LIN","STREET":"STREET","SECT":"SECT","MAREA":"MAREA","LANE":"LANE","ALLEY":"ALLEY","HOUSE_NO":"HOUSE_NO","E_COORD97":"E_COORD97","N_COORD97":"N_COORD97","ADDRESS":"ADDRESS","OBJECTID":"OBJECTID"},"geometryType":"esriGeometryPoint","spatialReference":{"wkid":102443,"latestWkid":3826},"fields":[{"name":"ID","type":"esriFieldTypeDouble","alias":"ID"},{"name":"DIS_CODE","type":"esriFieldTypeInteger","alias":"DIS_CODE"},{"name":"TOWNNAME","type":"esriFieldTypeString","alias":"TOWNNAME","length":8},{"name":"LI","type":"esriFieldTypeString","alias":"LI","length":8},{"name":"LIN","type":"esriFieldTypeString","alias":"LIN","length":12},{"name":"STREET","type":"esriFieldTypeString","alias":"STREET","length":20},{"name":"SECT","type":"esriFieldTypeString","alias":"SECT","length":8},{"name":"MAREA","type":"esriFieldTypeString","alias":"MAREA","length":12},{"name":"LANE","type":"esriFieldTypeString","alias":"LANE","length":10},{"name":"ALLEY","type":"esriFieldTypeString","alias":"ALLEY","length":10},{"name":"HOUSE_NO","type":"esriFieldTypeString","alias":"HOUSE_NO","length":20},{"name":"E_COORD97","type":"esriFieldTypeDouble","alias":"E_COORD97"},{"name":"N_COORD97","type":"esriFieldTypeDouble","alias":"N_COORD97"},{"name":"ADDRESS","type":"esriFieldTypeString","alias":"ADDRESS","length":50},{"name":"OBJECTID","type":"esriFieldTypeOID","alias":"OBJECTID"}],"features":[{"attributes":{"ID":461426,"DIS_CODE":0,"TOWNNAME":"南區","LI":"金華里","LIN":"20鄰","STREET":"尊南街","SECT":" ","MAREA":" ","LANE":" ","ALLEY":" ","HOUSE_NO":"２５３號二樓之１０","E_COORD97":166844.89000000001,"N_COORD97":2542384.3300000001,"ADDRESS":"尊南街２５３號二樓之１０","OBJECTID":461401},"geometry":{"x":166844.88999999966,"y":2542384.3299999982}},{"attributes":{"ID":461427,"DIS_CODE":0,"TOWNNAME":"南區","LI":"金華里","LIN":"20鄰","STREET":"尊南街","SECT":" ","MAREA":" ","LANE":" ","ALLEY":" ","HOUSE_NO":"２５３號二樓之１１","E_COORD97":166844.89000000001,"N_COORD97":2542384.3300000001,"ADDRESS":"尊南街２５３號二樓之１１","OBJECTID":461402},"geometry":{"x":166844.88999999966,"y":2542384.3299999982}},{"attributes":{"ID":461428,"DIS_CODE":0,"TOWNNAME":"南區","LI":"金華里","LIN":"20鄰","STREET":"尊南街","SECT":" ","MAREA":" ","LANE":" ","ALLEY":" ","HOUSE_NO":"２５３號二樓之１２","E_COORD97":166844.89000000001,"N_COORD97":2542384.3300000001,"ADDRESS":"尊南街２５３號二樓之１２","OBJECTID":461403},"geometry":{"x":166844.88999999966,"y":2542384.3299999982}},{"attributes":{"ID":461429,"DIS_CODE":0,"TOWNNAME":"南區","LI":"金華里","LIN":"20鄰","STREET":"尊南街","SECT":" ","MAREA":" ","LANE":" ","ALLEY":" ","HOUSE_NO":"２５３號二樓之１３","E_COORD97":166844.89000000001,"N_COORD97":2542384.3300000001,"ADDRESS":"尊南街２５３號二樓之１３","OBJECTID":461404},"geometry":{"x":166844.88999999966,"y":2542384.3299999982}},{"attributes":{"ID":461430,"DIS_CODE":0,"TOWNNAME":"南區","LI":"金華里","LIN":"20鄰","STREET":"尊南街","SECT":" ","MAREA":" ","LANE":" ","ALLEY":" ","HOUSE_NO":"２５３號五樓之５","E_COORD97":166844.89000000001,"N_COORD97":2542384.3300000001,"ADDRESS":"尊南街２５３號五樓之５","OBJECTID":461405},"geometry":{"x":166844.88999999966,"y":2542384.3299999982}},{"attributes":{"ID":461431,"DIS_CODE":0,"TOWNNAME":"南區","LI":"金華里","LIN":"20鄰","STREET":"尊南街","SECT":" ","MAREA":" ","LANE":" ","ALLEY":" ","HOUSE_NO":"２５３號五樓之６","E_COORD97":166844.89000000001,"N_COORD97":2542384.3300000001,"ADDRESS":"尊南街２５３號五樓之６","OBJECTID":461406},"geometry":{"x":166844.88999999966,"y":2542384.3299999982}},{"attributes":{"ID":461432,"DIS_CODE":0,"TOWNNAME":"南區","LI":"金華里","LIN":"20鄰","STREET":"尊南街","SECT":" ","MAREA":" ","LANE":" ","ALLEY":" ","HOUSE_NO":"２５３號五樓之７","E_COORD97":166844.89000000001,"N_COORD97":2542384.3300000001,"ADDRESS":"尊南街２５３號五樓之７","OBJECTID":461407},"geometry":{"x":166844.88999999966,"y":2542384.3299999982}},{"attributes":{"ID":461433,"DIS_CODE":0,"TOWNNAME":"南區","LI":"金華里","LIN":"20鄰","STREET":"尊南街","SECT":" ","MAREA":" ","LANE":" ","ALLEY":" ","HOUSE_NO":"２５３號五樓之８","E_COORD97":166844.89000000001,"N_COORD97":2542384.3300000001,"ADDRESS":"尊南街２５３號五樓之８","OBJECTID":461408},"geometry":{"x":166844.88999999966,"y":2542384.3299999982}},{"attributes":{"ID":461434,"DIS_CODE":0,"TOWNNAME":"南區","LI":"金華里","LIN":"20鄰","STREET":"尊南街","SECT":" ","MAREA":" ","LANE":" ","ALLEY":" ","HOUSE_NO":"２５３號五樓之９","E_COORD97":166844.89000000001,"N_COORD97":2542384.3300000001,"ADDRESS":"尊南街２５３號五樓之９","OBJECTID":461409},"geometry":{"x":166844.88999999966,"y":2542384.3299999982}},{"attributes":{"ID":461435,"DIS_CODE":0,"TOWNNAME":"南區","LI":"金華里","LIN":"20鄰","STREET":"尊南街","SECT":" ","MAREA":" ","LANE":" ","ALLEY":" ","HOUSE_NO":"２５３號四樓之１","E_COORD97":166844.89000000001,"N_COORD97":2542384.3300000001,"ADDRESS":"尊南街２５３號四樓之１","OBJECTID":461410},"geometry":{"x":166844.88999999966,"y":2542384.3299999982}},{"attributes":{"ID":461436,"DIS_CODE":0,"TOWNNAME":"南區","LI":"金華里","LIN":"20鄰","STREET":"尊南街","SECT":" ","MAREA":" ","LANE":" ","ALLEY":" ","HOUSE_NO":"２５３號四樓之１０","E_COORD97":166844.89000000001,"N_COORD97":2542384.3300000001,"ADDRESS":"尊南街２５３號四樓之１０","OBJECTID":461411},"geometry":{"x":166844.88999999966,"y":2542384.3299999982}},{"attributes":{"ID":461437,"DIS_CODE":0,"TOWNNAME":"南區","LI":"金華里","LIN":"20鄰","STREET":"尊南街","SECT":" ","MAREA":" ","LANE":" ","ALLEY":" ","HOUSE_NO":"２５３號四樓之１１","E_COORD97":166844.89000000001,"N_COORD97":2542384.3300000001,"ADDRESS":"尊南街２５３號四樓之１１","OBJECTID":461412},"geometry":{"x":166844.88999999966,"y":2542384.3299999982}},{"attributes":{"ID":461438,"DIS_CODE":0,"TOWNNAME":"南區","LI":"金華里","LIN":"20鄰","STREET":"尊南街","SECT":" ","MAREA":" ","LANE":" ","ALLEY":" ","HOUSE_NO":"２５３號四樓之１２","E_COORD97":166844.89000000001,"N_COORD97":2542384.3300000001,"ADDRESS":"尊南街２５３號四樓之１２","OBJECTID":461413},"geometry":{"x":166844.88999999966,"y":2542384.3299999982}},{"attributes":{"ID":461439,"DIS_CODE":0,"TOWNNAME":"南區","LI":"金華里","LIN":"20鄰","STREET":"尊南街","SECT":" ","MAREA":" ","LANE":" ","ALLEY":" ","HOUSE_NO":"２５３號四樓之１３","E_COORD97":166844.89000000001,"N_COORD97":2542384.3300000001,"ADDRESS":"尊南街２５３號四樓之１３","OBJECTID":461414},"geometry":{"x":166844.88999999966,"y":2542384.3299999982}},{"attributes":{"ID":461440,"DIS_CODE":0,"TOWNNAME":"南區","LI":"金華里","LIN":"20鄰","STREET":"尊南街","SECT":" ","MAREA":" ","LANE":" ","ALLEY":" ","HOUSE_NO":"２５３號四樓之２","E_COORD97":166844.89000000001,"N_COORD97":2542384.3300000001,"ADDRESS":"尊南街２５３號四樓之２","OBJECTID":461415},"geometry":{"x":166844.88999999966,"y":2542384.3299999982}},{"attributes":{"ID":461441,"DIS_CODE":0,"TOWNNAME":"南區","LI":"金華里","LIN":"20鄰","STREET":"尊南街","SECT":" ","MAREA":" ","LANE":" ","ALLEY":" ","HOUSE_NO":"２５３號四樓之３","E_COORD97":166844.89000000001,"N_COORD97":2542384.3300000001,"ADDRESS":"尊南街２５３號四樓之３","OBJECTID":461416},"geometry":{"x":166844.88999999966,"y":2542384.3299999982}},{"attributes":{"ID":461442,"DIS_CODE":0,"TOWNNAME":"南區","LI":"金華里","LIN":"20鄰","STREET":"尊南街","SECT":" ","MAREA":" ","LANE":" ","ALLEY":" ","HOUSE_NO":"２５３號四樓之４","E_COORD97":166844.89000000001,"N_COORD97":2542384.3300000001,"ADDRESS":"尊南街２５３號四樓之４","OBJECTID":461417},"geometry":{"x":166844.88999999966,"y":2542384.3299999982}},{"attributes":{"ID":461443,"DIS_CODE":0,"TOWNNAME":"南區","LI":"金華里","LIN":"20鄰","STREET":"尊南街","SECT":" ","MAREA":" ","LANE":" ","ALLEY":" ","HOUSE_NO":"２５３號四樓之５","E_COORD97":166844.89000000001,"N_COORD97":2542384.3300000001,"ADDRESS":"尊南街２５３號四樓之５","OBJECTID":461418},"geometry":{"x":166844.88999999966,"y":2542384.3299999982}},{"attributes":{"ID":461444,"DIS_CODE":0,"TOWNNAME":"南區","LI":"金華里","LIN":"20鄰","STREET":"尊南街","SECT":" ","MAREA":" ","LANE":" ","ALLEY":" ","HOUSE_NO":"２５３號四樓之７","E_COORD97":166844.89000000001,"N_COORD97":2542384.3300000001,"ADDRESS":"尊南街２５３號四樓之７","OBJECTID":461419},"geometry":{"x":166844.88999999966,"y":2542384.3299999982}},{"attributes":{"ID":461445,"DIS_CODE":0,"TOWNNAME":"南區","LI":"金華里","LIN":"20鄰","STREET":"尊南街","SECT":" ","MAREA":" ","LANE":" ","ALLEY":" ","HOUSE_NO":"２５３號四樓之９","E_COORD97":166844.89000000001,"N_COORD97":2542384.3300000001,"ADDRESS":"尊南街２５３號四樓之９","OBJECTID":461420},"geometry":{"x":166844.88999999966,"y":2542384.3299999982}},{"attributes":{"ID":461446,"DIS_CODE":0,"TOWNNAME":"南區","LI":"金華里","LIN":"20鄰","STREET":"尊南街","SECT":" ","MAREA":" ","LANE":" ","ALLEY":" ","HOUSE_NO":"２５３號四樓之６","E_COORD97":166844.89000000001,"N_COORD97":2542384.3300000001,"ADDRESS":"尊南街２５３號四樓之６","OBJECTID":461421},"geometry":{"x":166844.88999999966,"y":2542384.3299999982}},{"attributes":{"ID":461447,"DIS_CODE":0,"TOWNNAME":"南區","LI":"金華里","LIN":"20鄰","STREET":"尊南街","SECT":" ","MAREA":" ","LANE":" ","ALLEY":" ","HOUSE_NO":"２５３號四樓之８","E_COORD97":166844.89000000001,"N_COORD97":2542384.3300000001,"ADDRESS":"尊南街２５３號四樓之８","OBJECTID":461422},"geometry":{"x":166844.88999999966,"y":2542384.3299999982}},{"attributes":{"ID":461448,"DIS_CODE":0,"TOWNNAME":"南區","LI":"金華里","LIN":"20鄰","STREET":"尊南街","SECT":" ","MAREA":" ","LANE":" ","ALLEY":" ","HOUSE_NO":"２５３號一樓之１０","E_COORD97":166793.78,"N_COORD97":2542380.1899999999,"ADDRESS":"尊南街２５３號一樓之１０","OBJECTID":461423},"geometry":{"x":166793.78000000026,"y":2542380.1899999995}},{"attributes":{"ID":461449,"DIS_CODE":0,"TOWNNAME":"南區","LI":"金華里","LIN":"20鄰","STREET":"尊南街","SECT":" ","MAREA":" ","LANE":" ","ALLEY":" ","HOUSE_NO":"２５３號一樓之１１","E_COORD97":166788.70999999999,"N_COORD97":2542375.71,"ADDRESS":"尊南街２５３號一樓之１１","OBJECTID":461424},"geometry":{"x":166788.71000000089,"y":2542375.7100000009}},{"attributes":{"ID":461450,"DIS_CODE":0,"TOWNNAME":"南區","LI":"金華里","LIN":"20鄰","STREET":"尊南街","SECT":" ","MAREA":" ","LANE":" ","ALLEY":" ","HOUSE_NO":"２５３號一樓之１２","E_COORD97":166781.12,"N_COORD97":2542376.0800000001,"ADDRESS":"尊南街２５３號一樓之１２","OBJECTID":461425},"geometry":{"x":166781.12000000011,"y":2542376.0800000038}},{"attributes":{"ID":461451,"DIS_CODE":0,"TOWNNAME":"南區","LI":"金華里","LIN":"20鄰","STREET":"尊南街","SECT":" ","MAREA":" ","LANE":" ","ALLEY":" ","HOUSE_NO":"２５３號一樓之１３","E_COORD97":166782.23999999999,"N_COORD97":2542371.4900000002,"ADDRESS":"尊南街２５３號一樓之１３","OBJECTID":461426},"geometry":{"x":166782.24000000022,"y":2542371.4900000021}},{"attributes":{"ID":461452,"DIS_CODE":0,"TOWNNAME":"南區","LI":"金華里","LIN":"20鄰","STREET":"尊南街","SECT":" ","MAREA":" ","LANE":" ","ALLEY":" ","HOUSE_NO":"２５３號一樓之３","E_COORD97":166829.23000000001,"N_COORD97":2542381.7999999998,"ADDRESS":"尊南街２５３號一樓之３","OBJECTID":461427},"geometry":{"x":166829.23000000138,"y":2542381.7999999989}},{"attributes":{"ID":461453,"DIS_CODE":0,"TOWNNAME":"南區","LI":"金華里","LIN":"20鄰","STREET":"尊南街","SECT":" ","MAREA":" ","LANE":" ","ALLEY":" ","HOUSE_NO":"２５３號一樓之４","E_COORD97":166823.56,"N_COORD97":2542384.48,"ADDRESS":"尊南街２５３號一樓之４","OBJECTID":461428},"geometry":{"x":166823.55999999959,"y":2542384.4800000023}},{"attributes":{"ID":461454,"DIS_CODE":0,"TOWNNAME":"南區","LI":"金華里","LIN":"20鄰","STREET":"尊南街","SECT":" ","MAREA":" ","LANE":" ","ALLEY":" ","HOUSE_NO":"２５３號一樓之５","E_COORD97":166820.79000000001,"N_COORD97":2542380.29,"ADDRESS":"尊南街２５３號一樓之５","OBJECTID":461429},"geometry":{"x":166820.79000000004,"y":2542380.2900000028}},{"attributes":{"ID":461455,"DIS_CODE":0,"TOWNNAME":"南區","LI":"金華里","LIN":"20鄰","STREET":"尊南街","SECT":" ","MAREA":" ","LANE":" ","ALLEY":" ","HOUSE_NO":"２５３號一樓之６","E_COORD97":166814.54000000001,"N_COORD97":2542382.9199999999,"ADDRESS":"尊南街２５３號一樓之６","OBJECTID":461430},"geometry":{"x":166814.5400000019,"y":2542382.9199999999}},{"attributes":{"ID":461456,"DIS_CODE":0,"TOWNNAME":"南區","LI":"金華里","LIN":"20鄰","STREET":"尊南街","SECT":" ","MAREA":" ","LANE":" ","ALLEY":" ","HOUSE_NO":"２５３號一樓之８","E_COORD97":166805.20999999999,"N_COORD97":2542382.2799999998,"ADDRESS":"尊南街２５３號一樓之８","OBJECTID":461431},"geometry":{"x":166805.21000000089,"y":2542382.2800000012}},{"attributes":{"ID":461457,"DIS_CODE":0,"TOWNNAME":"南區","LI":"金華里","LIN":"20鄰","STREET":"尊南街","SECT":" ","MAREA":" ","LANE":" ","ALLEY":" ","HOUSE_NO":"２５３號一樓之９","E_COORD97":166800.70000000001,"N_COORD97":2542377.9399999999,"ADDRESS":"尊南街２５３號一樓之９","OBJECTID":461432},"geometry":{"x":166800.70000000112,"y":2542377.9400000013}},{"attributes":{"ID":461458,"DIS_CODE":0,"TOWNNAME":"新營區","LI":"興業里","LIN":"20鄰","STREET":"中山路","SECT":" ","MAREA":" ","LANE":" ","ALLEY":" ","HOUSE_NO":"１１５號九樓之４","E_COORD97":180279.22,"N_COORD97":2578215.9900000002,"ADDRESS":"中山路１１５號九樓之４","OBJECTID":461433},"geometry":{"x":180279.21999999974,"y":2578215.9900000002}},{"attributes":{"ID":461459,"DIS_CODE":0,"TOWNNAME":"新營區","LI":"興業里","LIN":"20鄰","STREET":"中山路","SECT":" ","MAREA":" ","LANE":" ","ALLEY":" ","HOUSE_NO":"１１５號九樓之３","E_COORD97":180279.29000000001,"N_COORD97":2578215.9900000002,"ADDRESS":"中山路１１５號九樓之３","OBJECTID":461434},"geometry":{"x":180279.29000000004,"y":2578215.9900000002}},{"attributes":{"ID":461460,"DIS_CODE":0,"TOWNNAME":"新營區","LI":"興業里","LIN":"20鄰","STREET":"中山路","SECT":" ","MAREA":" ","LANE":" ","ALLEY":" ","HOUSE_NO":"１１５號十一樓之５","E_COORD97":180280.60000000001,"N_COORD97":2578215.9900000002,"ADDRESS":"中山路１１５號十一樓之５","OBJECTID":461435},"geometry":{"x":180280.60000000056,"y":2578215.9900000002}},{"attributes":{"ID":461461,"DIS_CODE":0,"TOWNNAME":"新營區","LI":"興業里","LIN":"20鄰","STREET":"中山路","SECT":" ","MAREA":" ","LANE":" ","ALLEY":" ","HOUSE_NO":"１１５號九樓之５","E_COORD97":180279.35000000001,"N_COORD97":2578215.9900000002,"ADDRESS":"中山路１１５號九樓之５","OBJECTID":461436},"geometry":{"x":180279.35000000056,"y":2578215.9900000002}},{"attributes":{"ID":461462,"DIS_CODE":0,"TOWNNAME":"新營區","LI":"興業里","LIN":"20鄰","STREET":"中山路","SECT":" ","MAREA":" ","LANE":" ","ALLEY":" ","HOUSE_NO":"１１５號十三樓之４","E_COORD97":180280.47,"N_COORD97":2578215.9900000002,"ADDRESS":"中山路１１５號十三樓之４","OBJECTID":461437},"geometry":{"x":180280.46999999974,"y":2578215.9900000002}},{"attributes":{"ID":461463,"DIS_CODE":0,"TOWNNAME":"新營區","LI":"興業里","LIN":"20鄰","STREET":"中山路","SECT":" ","MAREA":" ","LANE":" ","ALLEY":" ","HOUSE_NO":"１１５號十四樓之３","E_COORD97":180280.54000000001,"N_COORD97":2578215.9900000002,"ADDRESS":"中山路１１５號十四樓之３","OBJECTID":461438},"geometry":{"x":180280.54000000004,"y":2578215.9900000002}},{"attributes":{"ID":461464,"DIS_CODE":0,"TOWNNAME":"新營區","LI":"興業里","LIN":"20鄰","STREET":"中山路","SECT":" ","MAREA":" ","LANE":" ","ALLEY":" ","HOUSE_NO":"１１５號十六樓之５","E_COORD97":180280.60000000001,"N_COORD97":2578215.9900000002,"ADDRESS":"中山路１１５號十六樓之５","OBJECTID":461439},"geometry":{"x":180280.60000000056,"y":2578215.9900000002}},{"attributes":{"ID":461465,"DIS_CODE":0,"TOWNNAME":"北區","LI":"成功里","LIN":"20鄰","STREET":"中華北路","SECT":"二段","MAREA":" ","LANE":" ","ALLEY":" ","HOUSE_NO":"２７９號七樓之１","E_COORD97":168881.47,"N_COORD97":2546951.5800000001,"ADDRESS":"中華北路二段２７９號七樓之１","OBJECTID":461440},"geometry":{"x":168881.47000000067,"y":2546951.5800000001}},{"attributes":{"ID":461466,"DIS_CODE":0,"TOWNNAME":"北區","LI":"成功里","LIN":"20鄰","STREET":"中華北路","SECT":"二段","MAREA":" ","LANE":" ","ALLEY":" ","HOUSE_NO":"２７９號七樓之２","E_COORD97":168881.47,"N_COORD97":2546951.5800000001,"ADDRESS":"中華北路二段２７９號七樓之２","OBJECTID":461441},"geometry":{"x":168881.47000000067,"y":2546951.5800000001}},{"attributes":{"ID":461467,"DIS_CODE":0,"TOWNNAME":"佳里區","LI":"鎮山里","LIN":"20鄰","STREET":"鎮山街","SECT":" ","MAREA":" ","LANE":" ","ALLEY":" ","HOUSE_NO":"２６８號","E_COORD97":166236.88,"N_COORD97":2560823.1400000001,"ADDRESS":"鎮山街２６８號","OBJECTID":461442},"geometry":{"x":166236.87999999989,"y":2560823.1400000043}},{"attributes":{"ID":461468,"DIS_CODE":0,"TOWNNAME":"北區","LI":"成功里","LIN":"20鄰","STREET":"中華北路","SECT":"二段","MAREA":" ","LANE":" ","ALLEY":" ","HOUSE_NO":"２７９號二樓之１","E_COORD97":168881.47,"N_COORD97":2546951.5800000001,"ADDRESS":"中華北路二段２７９號二樓之１","OBJECTID":461443},"geometry":{"x":168881.47000000067,"y":2546951.5800000001}},{"attributes":{"ID":461469,"DIS_CODE":0,"TOWNNAME":"北區","LI":"成功里","LIN":"20鄰","STREET":"中華北路","SECT":"二段","MAREA":" ","LANE":" ","ALLEY":" ","HOUSE_NO":"２７９號二樓之２","E_COORD97":168881.47,"N_COORD97":2546951.5800000001,"ADDRESS":"中華北路二段２７９號二樓之２","OBJECTID":461444},"geometry":{"x":168881.47000000067,"y":2546951.5800000001}},{"attributes":{"ID":461470,"DIS_CODE":0,"TOWNNAME":"北區","LI":"成功里","LIN":"20鄰","STREET":"中華北路","SECT":"二段","MAREA":" ","LANE":" ","ALLEY":" ","HOUSE_NO":"２７９號八樓之１","E_COORD97":168881.47,"N_COORD97":2546951.5800000001,"ADDRESS":"中華北路二段２７９號八樓之１","OBJECTID":461445},"geometry":{"x":168881.47000000067,"y":2546951.5800000001}},{"attributes":{"ID":461471,"DIS_CODE":0,"TOWNNAME":"北區","LI":"成功里","LIN":"20鄰","STREET":"中華北路","SECT":"二段","MAREA":" ","LANE":" ","ALLEY":" ","HOUSE_NO":"２７９號八樓之２","E_COORD97":168881.47,"N_COORD97":2546951.5800000001,"ADDRESS":"中華北路二段２７９號八樓之２","OBJECTID":461446},"geometry":{"x":168881.47000000067,"y":2546951.5800000001}},{"attributes":{"ID":461472,"DIS_CODE":0,"TOWNNAME":"北區","LI":"成功里","LIN":"20鄰","STREET":"中華北路","SECT":"二段","MAREA":" ","LANE":" ","ALLEY":" ","HOUSE_NO":"２７９號三樓之１","E_COORD97":168881.47,"N_COORD97":2546951.5800000001,"ADDRESS":"中華北路二段２７９號三樓之１","OBJECTID":461447},"geometry":{"x":168881.47000000067,"y":2546951.5800000001}},{"attributes":{"ID":461473,"DIS_CODE":0,"TOWNNAME":"北區","LI":"成功里","LIN":"20鄰","STREET":"中華北路","SECT":"二段","MAREA":" ","LANE":" ","ALLEY":" ","HOUSE_NO":"２７９號三樓之２","E_COORD97":168881.47,"N_COORD97":2546951.5800000001,"ADDRESS":"中華北路二段２７９號三樓之２","OBJECTID":461448},"geometry":{"x":168881.47000000067,"y":2546951.5800000001}},{"attributes":{"ID":461474,"DIS_CODE":0,"TOWNNAME":"北區","LI":"成功里","LIN":"20鄰","STREET":"中華北路","SECT":"二段","MAREA":" ","LANE":" ","ALLEY":" ","HOUSE_NO":"２７９號五樓之１","E_COORD97":168881.47,"N_COORD97":2546951.5800000001,"ADDRESS":"中華北路二段２７９號五樓之１","OBJECTID":461449},"geometry":{"x":168881.47000000067,"y":2546951.5800000001}},{"attributes":{"ID":461475,"DIS_CODE":0,"TOWNNAME":"北區","LI":"成功里","LIN":"20鄰","STREET":"中華北路","SECT":"二段","MAREA":" ","LANE":" ","ALLEY":" ","HOUSE_NO":"２７９號五樓之２","E_COORD97":168881.47,"N_COORD97":2546951.5800000001,"ADDRESS":"中華北路二段２７９號五樓之２","OBJECTID":461450},"geometry":{"x":168881.47000000067,"y":2546951.5800000001}},{"attributes":{"ID":461476,"DIS_CODE":0,"TOWNNAME":"北區","LI":"成功里","LIN":"20鄰","STREET":"中華北路","SECT":"二段","MAREA":" ","LANE":" ","ALLEY":" ","HOUSE_NO":"２７９號六樓之１","E_COORD97":168881.47,"N_COORD97":2546951.5800000001,"ADDRESS":"中華北路二段２７９號六樓之１","OBJECTID":461451},"geometry":{"x":168881.47000000067,"y":2546951.5800000001}},{"attributes":{"ID":461477,"DIS_CODE":0,"TOWNNAME":"北區","LI":"成功里","LIN":"20鄰","STREET":"中華北路","SECT":"二段","MAREA":" ","LANE":" ","ALLEY":" ","HOUSE_NO":"２７９號六樓之２","E_COORD97":168881.47,"N_COORD97":2546951.5800000001,"ADDRESS":"中華北路二段２７９號六樓之２","OBJECTID":461452},"geometry":{"x":168881.47000000067,"y":2546951.5800000001}},{"attributes":{"ID":461478,"DIS_CODE":0,"TOWNNAME":"北區","LI":"成功里","LIN":"20鄰","STREET":"中華北路","SECT":"二段","MAREA":" ","LANE":" ","ALLEY":" ","HOUSE_NO":"２７９號四樓之１","E_COORD97":168881.47,"N_COORD97":2546951.5800000001,"ADDRESS":"中華北路二段２７９號四樓之１","OBJECTID":461453},"geometry":{"x":168881.47000000067,"y":2546951.5800000001}},{"attributes":{"ID":461479,"DIS_CODE":0,"TOWNNAME":"北區","LI":"成功里","LIN":"20鄰","STREET":"中華北路","SECT":"二段","MAREA":" ","LANE":" ","ALLEY":" ","HOUSE_NO":"２７９號四樓之２","E_COORD97":168881.47,"N_COORD97":2546951.5800000001,"ADDRESS":"中華北路二段２７９號四樓之２","OBJECTID":461454},"geometry":{"x":168881.47000000067,"y":2546951.5800000001}},{"attributes":{"ID":461480,"DIS_CODE":0,"TOWNNAME":"北區","LI":"成功里","LIN":"20鄰","STREET":"中華北路","SECT":"二段","MAREA":" ","LANE":" ","ALLEY":" ","HOUSE_NO":"２８３號七樓之１","E_COORD97":168903.14000000001,"N_COORD97":2546954.5,"ADDRESS":"中華北路二段２８３號七樓之１","OBJECTID":461455},"geometry":{"x":168903.13999999966,"y":2546954.5000000019}},{"attributes":{"ID":461481,"DIS_CODE":0,"TOWNNAME":"北區","LI":"成功里","LIN":"20鄰","STREET":"中華北路","SECT":"二段","MAREA":" ","LANE":" ","ALLEY":" ","HOUSE_NO":"２８３號七樓之２","E_COORD97":168903.14000000001,"N_COORD97":2546954.5,"ADDRESS":"中華北路二段２８３號七樓之２","OBJECTID":461456},"geometry":{"x":168903.13999999966,"y":2546954.5000000019}},{"attributes":{"ID":461482,"DIS_CODE":0,"TOWNNAME":"北區","LI":"成功里","LIN":"20鄰","STREET":"中華北路","SECT":"二段","MAREA":" ","LANE":" ","ALLEY":" ","HOUSE_NO":"２８３號二樓之１","E_COORD97":168903.14000000001,"N_COORD97":2546954.5,"ADDRESS":"中華北路二段２８３號二樓之１","OBJECTID":461457},"geometry":{"x":168903.13999999966,"y":2546954.5000000019}},{"attributes":{"ID":461483,"DIS_CODE":0,"TOWNNAME":"北區","LI":"成功里","LIN":"20鄰","STREET":"中華北路","SECT":"二段","MAREA":" ","LANE":" ","ALLEY":" ","HOUSE_NO":"２８３號二樓之２","E_COORD97":168903.14000000001,"N_COORD97":2546954.5,"ADDRESS":"中華北路二段２８３號二樓之２","OBJECTID":461458},"geometry":{"x":168903.13999999966,"y":2546954.5000000019}},{"attributes":{"ID":461484,"DIS_CODE":0,"TOWNNAME":"北區","LI":"成功里","LIN":"20鄰","STREET":"中華北路","SECT":"二段","MAREA":" ","LANE":" ","ALLEY":" ","HOUSE_NO":"２８３號八樓之１","E_COORD97":168903.14000000001,"N_COORD97":2546954.5,"ADDRESS":"中華北路二段２８３號八樓之１","OBJECTID":461459},"geometry":{"x":168903.13999999966,"y":2546954.5000000019}},{"attributes":{"ID":461485,"DIS_CODE":0,"TOWNNAME":"北區","LI":"成功里","LIN":"20鄰","STREET":"中華北路","SECT":"二段","MAREA":" ","LANE":" ","ALLEY":" ","HOUSE_NO":"２８３號八樓之２","E_COORD97":168903.14000000001,"N_COORD97":2546954.5,"ADDRESS":"中華北路二段２８３號八樓之２","OBJECTID":461460},"geometry":{"x":168903.13999999966,"y":2546954.5000000019}},{"attributes":{"ID":461486,"DIS_CODE":0,"TOWNNAME":"北區","LI":"成功里","LIN":"20鄰","STREET":"中華北路","SECT":"二段","MAREA":" ","LANE":" ","ALLEY":" ","HOUSE_NO":"２８３號三樓之１","E_COORD97":168903.14000000001,"N_COORD97":2546954.5,"ADDRESS":"中華北路二段２８３號三樓之１","OBJECTID":461461},"geometry":{"x":168903.13999999966,"y":2546954.5000000019}},{"attributes":{"ID":461487,"DIS_CODE":0,"TOWNNAME":"北區","LI":"成功里","LIN":"20鄰","STREET":"中華北路","SECT":"二段","MAREA":" ","LANE":" ","ALLEY":" ","HOUSE_NO":"２８３號三樓之２","E_COORD97":168903.14000000001,"N_COORD97":2546954.5,"ADDRESS":"中華北路二段２８３號三樓之２","OBJECTID":461462},"geometry":{"x":168903.13999999966,"y":2546954.5000000019}},{"attributes":{"ID":461488,"DIS_CODE":0,"TOWNNAME":"北區","LI":"成功里","LIN":"20鄰","STREET":"中華北路","SECT":"二段","MAREA":" ","LANE":" ","ALLEY":" ","HOUSE_NO":"２８３號五樓之１","E_COORD97":168903.14000000001,"N_COORD97":2546954.5,"ADDRESS":"中華北路二段２８３號五樓之１","OBJECTID":461463},"geometry":{"x":168903.13999999966,"y":2546954.5000000019}},{"attributes":{"ID":461489,"DIS_CODE":0,"TOWNNAME":"北區","LI":"成功里","LIN":"20鄰","STREET":"中華北路","SECT":"二段","MAREA":" ","LANE":" ","ALLEY":" ","HOUSE_NO":"２８３號五樓之２","E_COORD97":168903.14000000001,"N_COORD97":2546954.5,"ADDRESS":"中華北路二段２８３號五樓之２","OBJECTID":461464},"geometry":{"x":168903.13999999966,"y":2546954.5000000019}},{"attributes":{"ID":461490,"DIS_CODE":0,"TOWNNAME":"北區","LI":"成功里","LIN":"20鄰","STREET":"中華北路","SECT":"二段","MAREA":" ","LANE":" ","ALLEY":" ","HOUSE_NO":"２８３號六樓之１","E_COORD97":168903.14000000001,"N_COORD97":2546954.5,"ADDRESS":"中華北路二段２８３號六樓之１","OBJECTID":461465},"geometry":{"x":168903.13999999966,"y":2546954.5000000019}},{"attributes":{"ID":461491,"DIS_CODE":0,"TOWNNAME":"北區","LI":"成功里","LIN":"20鄰","STREET":"中華北路","SECT":"二段","MAREA":" ","LANE":" ","ALLEY":" ","HOUSE_NO":"２８３號六樓之２","E_COORD97":168903.14000000001,"N_COORD97":2546954.5,"ADDRESS":"中華北路二段２８３號六樓之２","OBJECTID":461466},"geometry":{"x":168903.13999999966,"y":2546954.5000000019}},{"attributes":{"ID":461492,"DIS_CODE":0,"TOWNNAME":"北區","LI":"成功里","LIN":"20鄰","STREET":"中華北路","SECT":"二段","MAREA":" ","LANE":" ","ALLEY":" ","HOUSE_NO":"２８３號四樓之１","E_COORD97":168903.14000000001,"N_COORD97":2546954.5,"ADDRESS":"中華北路二段２８３號四樓之１","OBJECTID":461467},"geometry":{"x":168903.13999999966,"y":2546954.5000000019}},{"attributes":{"ID":461493,"DIS_CODE":0,"TOWNNAME":"北區","LI":"成功里","LIN":"20鄰","STREET":"中華北路","SECT":"二段","MAREA":" ","LANE":" ","ALLEY":" ","HOUSE_NO":"２８３號四樓之２","E_COORD97":168903.14000000001,"N_COORD97":2546954.5,"ADDRESS":"中華北路二段２８３號四樓之２","OBJECTID":461468},"geometry":{"x":168903.13999999966,"y":2546954.5000000019}},{"attributes":{"ID":461494,"DIS_CODE":0,"TOWNNAME":"安平區","LI":"國平里","LIN":"20鄰","STREET":"育平五街","SECT":" ","MAREA":" ","LANE":" ","ALLEY":" ","HOUSE_NO":"６號二十二樓之８","E_COORD97":164895.03,"N_COORD97":2543486.02,"ADDRESS":"育平五街６號二十二樓之８","OBJECTID":461469},"geometry":{"x":164895.03000000119,"y":2543486.0200000014}},{"attributes":{"ID":461495,"DIS_CODE":0,"TOWNNAME":"安平區","LI":"國平里","LIN":"20鄰","STREET":"育平五街","SECT":" ","MAREA":" ","LANE":" ","ALLEY":" ","HOUSE_NO":"６號二十二樓之９","E_COORD97":164895.03,"N_COORD97":2543486.02,"ADDRESS":"育平五街６號二十二樓之９","OBJECTID":461470},"geometry":{"x":164895.03000000119,"y":2543486.0200000014}},{"attributes":{"ID":461496,"DIS_CODE":0,"TOWNNAME":"安平區","LI":"國平里","LIN":"20鄰","STREET":"育平五街","SECT":" ","MAREA":" ","LANE":" ","ALLEY":" ","HOUSE_NO":"６號二十樓之１０","E_COORD97":164895.03,"N_COORD97":2543486.02,"ADDRESS":"育平五街６號二十樓之１０","OBJECTID":461471},"geometry":{"x":164895.03000000119,"y":2543486.0200000014}},{"attributes":{"ID":461497,"DIS_CODE":0,"TOWNNAME":"安平區","LI":"國平里","LIN":"20鄰","STREET":"育平五街","SECT":" ","MAREA":" ","LANE":" ","ALLEY":" ","HOUSE_NO":"６號二十樓之１１","E_COORD97":164895.03,"N_COORD97":2543486.02,"ADDRESS":"育平五街６號二十樓之１１","OBJECTID":461472},"geometry":{"x":164895.03000000119,"y":2543486.0200000014}},{"attributes":{"ID":461498,"DIS_CODE":0,"TOWNNAME":"安平區","LI":"國平里","LIN":"20鄰","STREET":"育平五街","SECT":" ","MAREA":" ","LANE":" ","ALLEY":" ","HOUSE_NO":"６號二十樓之１２","E_COORD97":164895.03,"N_COORD97":2543486.02,"ADDRESS":"育平五街６號二十樓之１２","OBJECTID":461473},"geometry":{"x":164895.03000000119,"y":2543486.0200000014}},{"attributes":{"ID":461499,"DIS_CODE":0,"TOWNNAME":"安平區","LI":"國平里","LIN":"20鄰","STREET":"育平五街","SECT":" ","MAREA":" ","LANE":" ","ALLEY":" ","HOUSE_NO":"６號二十樓之８","E_COORD97":164895.03,"N_COORD97":2543486.02,"ADDRESS":"育平五街６號二十樓之８","OBJECTID":461474},"geometry":{"x":164895.03000000119,"y":2543486.0200000014}},{"attributes":{"ID":461500,"DIS_CODE":0,"TOWNNAME":"安平區","LI":"國平里","LIN":"20鄰","STREET":"育平五街","SECT":" ","MAREA":" ","LANE":" ","ALLEY":" ","HOUSE_NO":"６號二十樓之９","E_COORD97":164895.03,"N_COORD97":2543486.02,"ADDRESS":"育平五街６號二十樓之９","OBJECTID":461475},"geometry":{"x":164895.03000000119,"y":2543486.0200000014}},{"attributes":{"ID":461501,"DIS_CODE":0,"TOWNNAME":"安平區","LI":"國平里","LIN":"20鄰","STREET":"育平五街","SECT":" ","MAREA":" ","LANE":" ","ALLEY":" ","HOUSE_NO":"６號八樓之１０","E_COORD97":164895.03,"N_COORD97":2543486.02,"ADDRESS":"育平五街６號八樓之１０","OBJECTID":461476},"geometry":{"x":164895.03000000119,"y":2543486.0200000014}},{"attributes":{"ID":461502,"DIS_CODE":0,"TOWNNAME":"安平區","LI":"國平里","LIN":"20鄰","STREET":"育平五街","SECT":" ","MAREA":" ","LANE":" ","ALLEY":" ","HOUSE_NO":"６號八樓之１１","E_COORD97":164895.03,"N_COORD97":2543486.02,"ADDRESS":"育平五街６號八樓之１１","OBJECTID":461477},"geometry":{"x":164895.03000000119,"y":2543486.0200000014}},{"attributes":{"ID":461503,"DIS_CODE":0,"TOWNNAME":"安平區","LI":"國平里","LIN":"20鄰","STREET":"育平五街","SECT":" ","MAREA":" ","LANE":" ","ALLEY":" ","HOUSE_NO":"６號八樓之１２","E_COORD97":164895.03,"N_COORD97":2543486.02,"ADDRESS":"育平五街６號八樓之１２","OBJECTID":461478},"geometry":{"x":164895.03000000119,"y":2543486.0200000014}},{"attributes":{"ID":461504,"DIS_CODE":0,"TOWNNAME":"安平區","LI":"國平里","LIN":"20鄰","STREET":"育平五街","SECT":" ","MAREA":" ","LANE":" ","ALLEY":" ","HOUSE_NO":"６號八樓之１３","E_COORD97":164895.03,"N_COORD97":2543486.02,"ADDRESS":"育平五街６號八樓之１３","OBJECTID":461479},"geometry":{"x":164895.03000000119,"y":2543486.0200000014}},{"attributes":{"ID":461505,"DIS_CODE":0,"TOWNNAME":"安平區","LI":"國平里","LIN":"20鄰","STREET":"育平五街","SECT":" ","MAREA":" ","LANE":" ","ALLEY":" ","HOUSE_NO":"６號八樓之１４","E_COORD97":164895.03,"N_COORD97":2543486.02,"ADDRESS":"育平五街６號八樓之１４","OBJECTID":461480},"geometry":{"x":164895.03000000119,"y":2543486.0200000014}},{"attributes":{"ID":461506,"DIS_CODE":0,"TOWNNAME":"安平區","LI":"國平里","LIN":"20鄰","STREET":"育平五街","SECT":" ","MAREA":" ","LANE":" ","ALLEY":" ","HOUSE_NO":"６號八樓之８","E_COORD97":164895.03,"N_COORD97":2543486.02,"ADDRESS":"育平五街６號八樓之８","OBJECTID":461481},"geometry":{"x":164895.03000000119,"y":2543486.0200000014}},{"attributes":{"ID":461507,"DIS_CODE":0,"TOWNNAME":"安平區","LI":"國平里","LIN":"20鄰","STREET":"育平五街","SECT":" ","MAREA":" ","LANE":" ","ALLEY":" ","HOUSE_NO":"６號八樓之９","E_COORD97":164895.03,"N_COORD97":2543486.02,"ADDRESS":"育平五街６號八樓之９","OBJECTID":461482},"geometry":{"x":164895.03000000119,"y":2543486.0200000014}},{"attributes":{"ID":461508,"DIS_CODE":0,"TOWNNAME":"安平區","LI":"國平里","LIN":"20鄰","STREET":"育平五街","SECT":" ","MAREA":" ","LANE":" ","ALLEY":" ","HOUSE_NO":"６號十一樓之１０","E_COORD97":164895.03,"N_COORD97":2543486.02,"ADDRESS":"育平五街６號十一樓之１０","OBJECTID":461483},"geometry":{"x":164895.03000000119,"y":2543486.0200000014}},{"attributes":{"ID":461509,"DIS_CODE":0,"TOWNNAME":"安平區","LI":"國平里","LIN":"20鄰","STREET":"育平五街","SECT":" ","MAREA":" ","LANE":" ","ALLEY":" ","HOUSE_NO":"６號十一樓之１１","E_COORD97":164895.03,"N_COORD97":2543486.02,"ADDRESS":"育平五街６號十一樓之１１","OBJECTID":461484},"geometry":{"x":164895.03000000119,"y":2543486.0200000014}},{"attributes":{"ID":461510,"DIS_CODE":0,"TOWNNAME":"安平區","LI":"國平里","LIN":"20鄰","STREET":"育平五街","SECT":" ","MAREA":" ","LANE":" ","ALLEY":" ","HOUSE_NO":"６號十一樓之１２","E_COORD97":164895.03,"N_COORD97":2543486.02,"ADDRESS":"育平五街６號十一樓之１２","OBJECTID":461485},"geometry":{"x":164895.03000000119,"y":2543486.0200000014}},{"attributes":{"ID":461511,"DIS_CODE":0,"TOWNNAME":"安平區","LI":"國平里","LIN":"20鄰","STREET":"育平五街","SECT":" ","MAREA":" ","LANE":" ","ALLEY":" ","HOUSE_NO":"６號十一樓之１３","E_COORD97":164895.03,"N_COORD97":2543486.02,"ADDRESS":"育平五街６號十一樓之１３","OBJECTID":461486},"geometry":{"x":164895.03000000119,"y":2543486.0200000014}},{"attributes":{"ID":461512,"DIS_CODE":0,"TOWNNAME":"安平區","LI":"國平里","LIN":"20鄰","STREET":"育平五街","SECT":" ","MAREA":" ","LANE":" ","ALLEY":" ","HOUSE_NO":"６號十一樓之８","E_COORD97":164895.03,"N_COORD97":2543486.02,"ADDRESS":"育平五街６號十一樓之８","OBJECTID":461487},"geometry":{"x":164895.03000000119,"y":2543486.0200000014}},{"attributes":{"ID":461513,"DIS_CODE":0,"TOWNNAME":"安平區","LI":"國平里","LIN":"20鄰","STREET":"育平五街","SECT":" ","MAREA":" ","LANE":" ","ALLEY":" ","HOUSE_NO":"６號十一樓之９","E_COORD97":164895.03,"N_COORD97":2543486.02,"ADDRESS":"育平五街６號十一樓之９","OBJECTID":461488},"geometry":{"x":164895.03000000119,"y":2543486.0200000014}},{"attributes":{"ID":461514,"DIS_CODE":0,"TOWNNAME":"安平區","LI":"國平里","LIN":"20鄰","STREET":"育平五街","SECT":" ","MAREA":" ","LANE":" ","ALLEY":" ","HOUSE_NO":"６號十七樓之１０","E_COORD97":164895.03,"N_COORD97":2543486.02,"ADDRESS":"育平五街６號十七樓之１０","OBJECTID":461489},"geometry":{"x":164895.03000000119,"y":2543486.0200000014}},{"attributes":{"ID":461515,"DIS_CODE":0,"TOWNNAME":"安平區","LI":"國平里","LIN":"20鄰","STREET":"育平五街","SECT":" ","MAREA":" ","LANE":" ","ALLEY":" ","HOUSE_NO":"６號十七樓之１１","E_COORD97":164895.03,"N_COORD97":2543486.02,"ADDRESS":"育平五街６號十七樓之１１","OBJECTID":461490},"geometry":{"x":164895.03000000119,"y":2543486.0200000014}},{"attributes":{"ID":461516,"DIS_CODE":0,"TOWNNAME":"安平區","LI":"國平里","LIN":"20鄰","STREET":"育平五街","SECT":" ","MAREA":" ","LANE":" ","ALLEY":" ","HOUSE_NO":"６號十七樓之１２","E_COORD97":164895.03,"N_COORD97":2543486.02,"ADDRESS":"育平五街６號十七樓之１２","OBJECTID":461491},"geometry":{"x":164895.03000000119,"y":2543486.0200000014}},{"attributes":{"ID":461517,"DIS_CODE":0,"TOWNNAME":"安平區","LI":"國平里","LIN":"20鄰","STREET":"育平五街","SECT":" ","MAREA":" ","LANE":" ","ALLEY":" ","HOUSE_NO":"６號十七樓之１３","E_COORD97":164895.03,"N_COORD97":2543486.02,"ADDRESS":"育平五街６號十七樓之１３","OBJECTID":461492},"geometry":{"x":164895.03000000119,"y":2543486.0200000014}},{"attributes":{"ID":461518,"DIS_CODE":0,"TOWNNAME":"安平區","LI":"國平里","LIN":"20鄰","STREET":"育平五街","SECT":" ","MAREA":" ","LANE":" ","ALLEY":" ","HOUSE_NO":"６號十七樓之１４","E_COORD97":164895.03,"N_COORD97":2543486.02,"ADDRESS":"育平五街６號十七樓之１４","OBJECTID":461493},"geometry":{"x":164895.03000000119,"y":2543486.0200000014}},{"attributes":{"ID":461519,"DIS_CODE":0,"TOWNNAME":"安平區","LI":"國平里","LIN":"20鄰","STREET":"育平五街","SECT":" ","MAREA":" ","LANE":" ","ALLEY":" ","HOUSE_NO":"６號十七樓之８","E_COORD97":164895.03,"N_COORD97":2543486.02,"ADDRESS":"育平五街６號十七樓之８","OBJECTID":461494},"geometry":{"x":164895.03000000119,"y":2543486.0200000014}},{"attributes":{"ID":461520,"DIS_CODE":0,"TOWNNAME":"安平區","LI":"國平里","LIN":"20鄰","STREET":"育平五街","SECT":" ","MAREA":" ","LANE":" ","ALLEY":" ","HOUSE_NO":"６號十七樓之９","E_COORD97":164895.03,"N_COORD97":2543486.02,"ADDRESS":"育平五街６號十七樓之９","OBJECTID":461495},"geometry":{"x":164895.03000000119,"y":2543486.0200000014}},{"attributes":{"ID":461521,"DIS_CODE":0,"TOWNNAME":"安平區","LI":"國平里","LIN":"20鄰","STREET":"育平五街","SECT":" ","MAREA":" ","LANE":" ","ALLEY":" ","HOUSE_NO":"６號十九樓之１０","E_COORD97":164895.03,"N_COORD97":2543486.02,"ADDRESS":"育平五街６號十九樓之１０","OBJECTID":461496},"geometry":{"x":164895.03000000119,"y":2543486.0200000014}},{"attributes":{"ID":461522,"DIS_CODE":0,"TOWNNAME":"安平區","LI":"國平里","LIN":"20鄰","STREET":"育平五街","SECT":" ","MAREA":" ","LANE":" ","ALLEY":" ","HOUSE_NO":"６號十九樓之１１","E_COORD97":164895.03,"N_COORD97":2543486.02,"ADDRESS":"育平五街６號十九樓之１１","OBJECTID":461497},"geometry":{"x":164895.03000000119,"y":2543486.0200000014}},{"attributes":{"ID":461523,"DIS_CODE":0,"TOWNNAME":"安平區","LI":"國平里","LIN":"20鄰","STREET":"育平五街","SECT":" ","MAREA":" ","LANE":" ","ALLEY":" ","HOUSE_NO":"６號十九樓之１２","E_COORD97":164895.03,"N_COORD97":2543486.02,"ADDRESS":"育平五街６號十九樓之１２","OBJECTID":461498},"geometry":{"x":164895.03000000119,"y":2543486.0200000014}},{"attributes":{"ID":461524,"DIS_CODE":0,"TOWNNAME":"東區","LI":"崇文里","LIN":"20鄰","STREET":"崇德二十街","SECT":" ","MAREA":" ","LANE":" ","ALLEY":" ","HOUSE_NO":"９０號","E_COORD97":171049.95999999999,"N_COORD97":2540902.4700000002,"ADDRESS":"崇德二十街９０號","OBJECTID":461499},"geometry":{"x":171049.96000000089,"y":2540902.4699999988}},{"attributes":{"ID":461525,"DIS_CODE":0,"TOWNNAME":"安平區","LI":"國平里","LIN":"20鄰","STREET":"育平五街","SECT":" ","MAREA":" ","LANE":" ","ALLEY":" ","HOUSE_NO":"６號十九樓之１３","E_COORD97":164895.03,"N_COORD97":2543486.02,"ADDRESS":"育平五街６號十九樓之１３","OBJECTID":461500},"geometry":{"x":164895.03000000119,"y":2543486.0200000014}},{"attributes":{"ID":461526,"DIS_CODE":0,"TOWNNAME":"安平區","LI":"國平里","LIN":"20鄰","STREET":"育平五街","SECT":" ","MAREA":" ","LANE":" ","ALLEY":" ","HOUSE_NO":"６號十九樓之１４","E_COORD97":164895.03,"N_COORD97":2543486.02,"ADDRESS":"育平五街６號十九樓之１４","OBJECTID":461501},"geometry":{"x":164895.03000000119,"y":2543486.0200000014}},{"attributes":{"ID":461527,"DIS_CODE":0,"TOWNNAME":"安平區","LI":"國平里","LIN":"20鄰","STREET":"育平五街","SECT":" ","MAREA":" ","LANE":" ","ALLEY":" ","HOUSE_NO":"６號十九樓之８","E_COORD97":164895.03,"N_COORD97":2543486.02,"ADDRESS":"育平五街６號十九樓之８","OBJECTID":461502},"geometry":{"x":164895.03000000119,"y":2543486.0200000014}},{"attributes":{"ID":461528,"DIS_CODE":0,"TOWNNAME":"安平區","LI":"國平里","LIN":"20鄰","STREET":"育平五街","SECT":" ","MAREA":" ","LANE":" ","ALLEY":" ","HOUSE_NO":"６號十九樓之９","E_COORD97":164895.03,"N_COORD97":2543486.02,"ADDRESS":"育平五街６號十九樓之９","OBJECTID":461503},"geometry":{"x":164895.03000000119,"y":2543486.0200000014}},{"attributes":{"ID":461529,"DIS_CODE":0,"TOWNNAME":"安平區","LI":"國平里","LIN":"20鄰","STREET":"育平五街","SECT":" ","MAREA":" ","LANE":" ","ALLEY":" ","HOUSE_NO":"６號十二樓之１０","E_COORD97":164895.03,"N_COORD97":2543486.02,"ADDRESS":"育平五街６號十二樓之１０","OBJECTID":461504},"geometry":{"x":164895.03000000119,"y":2543486.0200000014}},{"attributes":{"ID":461530,"DIS_CODE":0,"TOWNNAME":"安平區","LI":"國平里","LIN":"20鄰","STREET":"育平五街","SECT":" ","MAREA":" ","LANE":" ","ALLEY":" ","HOUSE_NO":"６號十二樓之１１","E_COORD97":164895.03,"N_COORD97":2543486.02,"ADDRESS":"育平五街６號十二樓之１１","OBJECTID":461505},"geometry":{"x":164895.03000000119,"y":2543486.0200000014}},{"attributes":{"ID":461531,"DIS_CODE":0,"TOWNNAME":"安平區","LI":"國平里","LIN":"20鄰","STREET":"育平五街","SECT":" ","MAREA":" ","LANE":" ","ALLEY":" ","HOUSE_NO":"６號十二樓之１２","E_COORD97":164895.03,"N_COORD97":2543486.02,"ADDRESS":"育平五街６號十二樓之１２","OBJECTID":461506},"geometry":{"x":164895.03000000119,"y":2543486.0200000014}},{"attributes":{"ID":461532,"DIS_CODE":0,"TOWNNAME":"安平區","LI":"國平里","LIN":"20鄰","STREET":"育平五街","SECT":" ","MAREA":" ","LANE":" ","ALLEY":" ","HOUSE_NO":"６號十二樓之１３","E_COORD97":164895.03,"N_COORD97":2543486.02,"ADDRESS":"育平五街６號十二樓之１３","OBJECTID":461507},"geometry":{"x":164895.03000000119,"y":2543486.0200000014}},{"attributes":{"ID":461533,"DIS_CODE":0,"TOWNNAME":"安平區","LI":"國平里","LIN":"20鄰","STREET":"育平五街","SECT":" ","MAREA":" ","LANE":" ","ALLEY":" ","HOUSE_NO":"６號十二樓之１４","E_COORD97":164895.03,"N_COORD97":2543486.02,"ADDRESS":"育平五街６號十二樓之１４","OBJECTID":461508},"geometry":{"x":164895.03000000119,"y":2543486.0200000014}},{"attributes":{"ID":461534,"DIS_CODE":0,"TOWNNAME":"安平區","LI":"國平里","LIN":"20鄰","STREET":"育平五街","SECT":" ","MAREA":" ","LANE":" ","ALLEY":" ","HOUSE_NO":"６號十二樓之９","E_COORD97":164895.03,"N_COORD97":2543486.02,"ADDRESS":"育平五街６號十二樓之９","OBJECTID":461509},"geometry":{"x":164895.03000000119,"y":2543486.0200000014}},{"attributes":{"ID":461535,"DIS_CODE":0,"TOWNNAME":"安平區","LI":"國平里","LIN":"20鄰","STREET":"育平五街","SECT":" ","MAREA":" ","LANE":" ","ALLEY":" ","HOUSE_NO":"６號十八樓之１０","E_COORD97":164895.03,"N_COORD97":2543486.02,"ADDRESS":"育平五街６號十八樓之１０","OBJECTID":461510},"geometry":{"x":164895.03000000119,"y":2543486.0200000014}},{"attributes":{"ID":461536,"DIS_CODE":0,"TOWNNAME":"安平區","LI":"國平里","LIN":"20鄰","STREET":"育平五街","SECT":" ","MAREA":" ","LANE":" ","ALLEY":" ","HOUSE_NO":"６號十八樓之１１","E_COORD97":164895.03,"N_COORD97":2543486.02,"ADDRESS":"育平五街６號十八樓之１１","OBJECTID":461511},"geometry":{"x":164895.03000000119,"y":2543486.0200000014}},{"attributes":{"ID":461537,"DIS_CODE":0,"TOWNNAME":"安平區","LI":"國平里","LIN":"20鄰","STREET":"育平五街","SECT":" ","MAREA":" ","LANE":" ","ALLEY":" ","HOUSE_NO":"６號十八樓之１２","E_COORD97":164895.03,"N_COORD97":2543486.02,"ADDRESS":"育平五街６號十八樓之１２","OBJECTID":461512},"geometry":{"x":164895.03000000119,"y":2543486.0200000014}},{"attributes":{"ID":461538,"DIS_CODE":0,"TOWNNAME":"安平區","LI":"國平里","LIN":"20鄰","STREET":"育平五街","SECT":" ","MAREA":" ","LANE":" ","ALLEY":" ","HOUSE_NO":"６號十八樓之１３","E_COORD97":164895.03,"N_COORD97":2543486.02,"ADDRESS":"育平五街６號十八樓之１３","OBJECTID":461513},"geometry":{"x":164895.03000000119,"y":2543486.0200000014}},{"attributes":{"ID":461539,"DIS_CODE":0,"TOWNNAME":"安平區","LI":"國平里","LIN":"20鄰","STREET":"育平五街","SECT":" ","MAREA":" ","LANE":" ","ALLEY":" ","HOUSE_NO":"６號十八樓之１４","E_COORD97":164895.03,"N_COORD97":2543486.02,"ADDRESS":"育平五街６號十八樓之１４","OBJECTID":461514},"geometry":{"x":164895.03000000119,"y":2543486.0200000014}},{"attributes":{"ID":461540,"DIS_CODE":0,"TOWNNAME":"安平區","LI":"國平里","LIN":"20鄰","STREET":"育平五街","SECT":" ","MAREA":" ","LANE":" ","ALLEY":" ","HOUSE_NO":"６號十八樓之８","E_COORD97":164895.03,"N_COORD97":2543486.02,"ADDRESS":"育平五街６號十八樓之８","OBJECTID":461515},"geometry":{"x":164895.03000000119,"y":2543486.0200000014}},{"attributes":{"ID":461541,"DIS_CODE":0,"TOWNNAME":"安平區","LI":"國平里","LIN":"20鄰","STREET":"育平五街","SECT":" ","MAREA":" ","LANE":" ","ALLEY":" ","HOUSE_NO":"６號十八樓之９","E_COORD97":164895.03,"N_COORD97":2543486.02,"ADDRESS":"育平五街６號十八樓之９","OBJECTID":461516},"geometry":{"x":164895.03000000119,"y":2543486.0200000014}},{"attributes":{"ID":461542,"DIS_CODE":0,"TOWNNAME":"安平區","LI":"國平里","LIN":"20鄰","STREET":"育平五街","SECT":" ","MAREA":" ","LANE":" ","ALLEY":" ","HOUSE_NO":"６號十三樓之１０","E_COORD97":164895.03,"N_COORD97":2543486.02,"ADDRESS":"育平五街６號十三樓之１０","OBJECTID":461517},"geometry":{"x":164895.03000000119,"y":2543486.0200000014}},{"attributes":{"ID":461543,"DIS_CODE":0,"TOWNNAME":"安平區","LI":"國平里","LIN":"20鄰","STREET":"育平五街","SECT":" ","MAREA":" ","LANE":" ","ALLEY":" ","HOUSE_NO":"６號十三樓之１１","E_COORD97":164895.03,"N_COORD97":2543486.02,"ADDRESS":"育平五街６號十三樓之１１","OBJECTID":461518},"geometry":{"x":164895.03000000119,"y":2543486.0200000014}},{"attributes":{"ID":461544,"DIS_CODE":0,"TOWNNAME":"安平區","LI":"國平里","LIN":"20鄰","STREET":"育平五街","SECT":" ","MAREA":" ","LANE":" ","ALLEY":" ","HOUSE_NO":"６號十三樓之１２","E_COORD97":164895.03,"N_COORD97":2543486.02,"ADDRESS":"育平五街６號十三樓之１２","OBJECTID":461519},"geometry":{"x":164895.03000000119,"y":2543486.0200000014}},{"attributes":{"ID":461545,"DIS_CODE":0,"TOWNNAME":"安平區","LI":"國平里","LIN":"20鄰","STREET":"育平五街","SECT":" ","MAREA":" ","LANE":" ","ALLEY":" ","HOUSE_NO":"６號十三樓之１３","E_COORD97":164895.03,"N_COORD97":2543486.02,"ADDRESS":"育平五街６號十三樓之１３","OBJECTID":461520},"geometry":{"x":164895.03000000119,"y":2543486.0200000014}},{"attributes":{"ID":461546,"DIS_CODE":0,"TOWNNAME":"安平區","LI":"國平里","LIN":"20鄰","STREET":"育平五街","SECT":" ","MAREA":" ","LANE":" ","ALLEY":" ","HOUSE_NO":"６號十三樓之１４","E_COORD97":164895.03,"N_COORD97":2543486.02,"ADDRESS":"育平五街６號十三樓之１４","OBJECTID":461521},"geometry":{"x":164895.03000000119,"y":2543486.0200000014}},{"attributes":{"ID":461547,"DIS_CODE":0,"TOWNNAME":"安平區","LI":"國平里","LIN":"20鄰","STREET":"育平五街","SECT":" ","MAREA":" ","LANE":" ","ALLEY":" ","HOUSE_NO":"６號十三樓之８","E_COORD97":164895.03,"N_COORD97":2543486.02,"ADDRESS":"育平五街６號十三樓之８","OBJECTID":461522},"geometry":{"x":164895.03000000119,"y":2543486.0200000014}},{"attributes":{"ID":461548,"DIS_CODE":0,"TOWNNAME":"安平區","LI":"國平里","LIN":"20鄰","STREET":"育平五街","SECT":" ","MAREA":" ","LANE":" ","ALLEY":" ","HOUSE_NO":"６號十三樓之９","E_COORD97":164895.03,"N_COORD97":2543486.02,"ADDRESS":"育平五街６號十三樓之９","OBJECTID":461523},"geometry":{"x":164895.03000000119,"y":2543486.0200000014}},{"attributes":{"ID":461549,"DIS_CODE":0,"TOWNNAME":"安平區","LI":"國平里","LIN":"20鄰","STREET":"育平五街","SECT":" ","MAREA":" ","LANE":" ","ALLEY":" ","HOUSE_NO":"６號十五樓之１０","E_COORD97":164895.03,"N_COORD97":2543486.02,"ADDRESS":"育平五街６號十五樓之１０","OBJECTID":461524},"geometry":{"x":164895.03000000119,"y":2543486.0200000014}},{"attributes":{"ID":461550,"DIS_CODE":0,"TOWNNAME":"安平區","LI":"國平里","LIN":"20鄰","STREET":"育平五街","SECT":" ","MAREA":" ","LANE":" ","ALLEY":" ","HOUSE_NO":"６號十五樓之１１","E_COORD97":164895.03,"N_COORD97":2543486.02,"ADDRESS":"育平五街６號十五樓之１１","OBJECTID":461525},"geometry":{"x":164895.03000000119,"y":2543486.0200000014}},{"attributes":{"ID":461551,"DIS_CODE":0,"TOWNNAME":"安平區","LI":"國平里","LIN":"20鄰","STREET":"育平五街","SECT":" ","MAREA":" ","LANE":" ","ALLEY":" ","HOUSE_NO":"６號十五樓之１２","E_COORD97":164895.03,"N_COORD97":2543486.02,"ADDRESS":"育平五街６號十五樓之１２","OBJECTID":461526},"geometry":{"x":164895.03000000119,"y":2543486.0200000014}},{"attributes":{"ID":461552,"DIS_CODE":0,"TOWNNAME":"安平區","LI":"國平里","LIN":"20鄰","STREET":"育平五街","SECT":" ","MAREA":" ","LANE":" ","ALLEY":" ","HOUSE_NO":"６號十五樓之１３","E_COORD97":164895.03,"N_COORD97":2543486.02,"ADDRESS":"育平五街６號十五樓之１３","OBJECTID":461527},"geometry":{"x":164895.03000000119,"y":2543486.0200000014}},{"attributes":{"ID":461553,"DIS_CODE":0,"TOWNNAME":"安平區","LI":"國平里","LIN":"20鄰","STREET":"育平五街","SECT":" ","MAREA":" ","LANE":" ","ALLEY":" ","HOUSE_NO":"６號十五樓之１４","E_COORD97":164895.03,"N_COORD97":2543486.02,"ADDRESS":"育平五街６號十五樓之１４","OBJECTID":461528},"geometry":{"x":164895.03000000119,"y":2543486.0200000014}},{"attributes":{"ID":461554,"DIS_CODE":0,"TOWNNAME":"安平區","LI":"國平里","LIN":"20鄰","STREET":"育平五街","SECT":" ","MAREA":" ","LANE":" ","ALLEY":" ","HOUSE_NO":"６號十五樓之８","E_COORD97":164895.03,"N_COORD97":2543486.02,"ADDRESS":"育平五街６號十五樓之８","OBJECTID":461529},"geometry":{"x":164895.03000000119,"y":2543486.0200000014}},{"attributes":{"ID":461555,"DIS_CODE":0,"TOWNNAME":"安平區","LI":"國平里","LIN":"20鄰","STREET":"育平五街","SECT":" ","MAREA":" ","LANE":" ","ALLEY":" ","HOUSE_NO":"６號十五樓之９","E_COORD97":164895.03,"N_COORD97":2543486.02,"ADDRESS":"育平五街６號十五樓之９","OBJECTID":461530},"geometry":{"x":164895.03000000119,"y":2543486.0200000014}},{"attributes":{"ID":461556,"DIS_CODE":0,"TOWNNAME":"安平區","LI":"國平里","LIN":"20鄰","STREET":"育平五街","SECT":" ","MAREA":" ","LANE":" ","ALLEY":" ","HOUSE_NO":"６號十六樓之１０","E_COORD97":164895.03,"N_COORD97":2543486.02,"ADDRESS":"育平五街６號十六樓之１０","OBJECTID":461531},"geometry":{"x":164895.03000000119,"y":2543486.0200000014}},{"attributes":{"ID":461557,"DIS_CODE":0,"TOWNNAME":"安平區","LI":"國平里","LIN":"20鄰","STREET":"育平五街","SECT":" ","MAREA":" ","LANE":" ","ALLEY":" ","HOUSE_NO":"６號十六樓之１１","E_COORD97":164895.03,"N_COORD97":2543486.02,"ADDRESS":"育平五街６號十六樓之１１","OBJECTID":461532},"geometry":{"x":164895.03000000119,"y":2543486.0200000014}},{"attributes":{"ID":461558,"DIS_CODE":0,"TOWNNAME":"安平區","LI":"國平里","LIN":"20鄰","STREET":"育平五街","SECT":" ","MAREA":" ","LANE":" ","ALLEY":" ","HOUSE_NO":"６號十六樓之１２","E_COORD97":164895.03,"N_COORD97":2543486.02,"ADDRESS":"育平五街６號十六樓之１２","OBJECTID":461533},"geometry":{"x":164895.03000000119,"y":2543486.0200000014}},{"attributes":{"ID":461559,"DIS_CODE":0,"TOWNNAME":"安平區","LI":"國平里","LIN":"20鄰","STREET":"育平五街","SECT":" ","MAREA":" ","LANE":" ","ALLEY":" ","HOUSE_NO":"６號十六樓之１３","E_COORD97":164895.03,"N_COORD97":2543486.02,"ADDRESS":"育平五街６號十六樓之１３","OBJECTID":461534},"geometry":{"x":164895.03000000119,"y":2543486.0200000014}},{"attributes":{"ID":461560,"DIS_CODE":0,"TOWNNAME":"安平區","LI":"國平里","LIN":"20鄰","STREET":"育平五街","SECT":" ","MAREA":" ","LANE":" ","ALLEY":" ","HOUSE_NO":"６號十六樓之１４","E_COORD97":164895.03,"N_COORD97":2543486.02,"ADDRESS":"育平五街６號十六樓之１４","OBJECTID":461535},"geometry":{"x":164895.03000000119,"y":2543486.0200000014}},{"attributes":{"ID":461561,"DIS_CODE":0,"TOWNNAME":"安平區","LI":"國平里","LIN":"20鄰","STREET":"育平五街","SECT":" ","MAREA":" ","LANE":" ","ALLEY":" ","HOUSE_NO":"６號十六樓之８","E_COORD97":164895.03,"N_COORD97":2543486.02,"ADDRESS":"育平五街６號十六樓之８","OBJECTID":461536},"geometry":{"x":164895.03000000119,"y":2543486.0200000014}},{"attributes":{"ID":461562,"DIS_CODE":0,"TOWNNAME":"安平區","LI":"國平里","LIN":"20鄰","STREET":"育平五街","SECT":" ","MAREA":" ","LANE":" ","ALLEY":" ","HOUSE_NO":"６號十六樓之９","E_COORD97":164895.03,"N_COORD97":2543486.02,"ADDRESS":"育平五街６號十六樓之９","OBJECTID":461537},"geometry":{"x":164895.03000000119,"y":2543486.0200000014}},{"attributes":{"ID":461563,"DIS_CODE":0,"TOWNNAME":"安平區","LI":"國平里","LIN":"20鄰","STREET":"育平五街","SECT":" ","MAREA":" ","LANE":" ","ALLEY":" ","HOUSE_NO":"６號十四樓之１０","E_COORD97":164895.03,"N_COORD97":2543486.02,"ADDRESS":"育平五街６號十四樓之１０","OBJECTID":461538},"geometry":{"x":164895.03000000119,"y":2543486.0200000014}},{"attributes":{"ID":461564,"DIS_CODE":0,"TOWNNAME":"安平區","LI":"國平里","LIN":"20鄰","STREET":"育平五街","SECT":" ","MAREA":" ","LANE":" ","ALLEY":" ","HOUSE_NO":"６號十四樓之１１","E_COORD97":164895.03,"N_COORD97":2543486.02,"ADDRESS":"育平五街６號十四樓之１１","OBJECTID":461539},"geometry":{"x":164895.03000000119,"y":2543486.0200000014}},{"attributes":{"ID":461565,"DIS_CODE":0,"TOWNNAME":"安平區","LI":"國平里","LIN":"20鄰","STREET":"育平五街","SECT":" ","MAREA":" ","LANE":" ","ALLEY":" ","HOUSE_NO":"６號十四樓之１２","E_COORD97":164895.03,"N_COORD97":2543486.02,"ADDRESS":"育平五街６號十四樓之１２","OBJECTID":461540},"geometry":{"x":164895.03000000119,"y":2543486.0200000014}},{"attributes":{"ID":461566,"DIS_CODE":0,"TOWNNAME":"安平區","LI":"國平里","LIN":"20鄰","STREET":"育平五街","SECT":" ","MAREA":" ","LANE":" ","ALLEY":" ","HOUSE_NO":"６號十四樓之１３","E_COORD97":164895.03,"N_COORD97":2543486.02,"ADDRESS":"育平五街６號十四樓之１３","OBJECTID":461541},"geometry":{"x":164895.03000000119,"y":2543486.0200000014}},{"attributes":{"ID":461567,"DIS_CODE":0,"TOWNNAME":"安平區","LI":"國平里","LIN":"20鄰","STREET":"育平五街","SECT":" ","MAREA":" ","LANE":" ","ALLEY":" ","HOUSE_NO":"６號十四樓之１４","E_COORD97":164895.03,"N_COORD97":2543486.02,"ADDRESS":"育平五街６號十四樓之１４","OBJECTID":461542},"geometry":{"x":164895.03000000119,"y":2543486.0200000014}},{"attributes":{"ID":461568,"DIS_CODE":0,"TOWNNAME":"安平區","LI":"國平里","LIN":"20鄰","STREET":"育平五街","SECT":" ","MAREA":" ","LANE":" ","ALLEY":" ","HOUSE_NO":"６號三樓之１１","E_COORD97":164895.03,"N_COORD97":2543486.02,"ADDRESS":"育平五街６號三樓之１１","OBJECTID":461543},"geometry":{"x":164895.03000000119,"y":2543486.0200000014}},{"attributes":{"ID":461569,"DIS_CODE":0,"TOWNNAME":"安平區","LI":"國平里","LIN":"20鄰","STREET":"育平五街","SECT":" ","MAREA":" ","LANE":" ","ALLEY":" ","HOUSE_NO":"６號三樓之１２","E_COORD97":164895.03,"N_COORD97":2543486.02,"ADDRESS":"育平五街６號三樓之１２","OBJECTID":461544},"geometry":{"x":164895.03000000119,"y":2543486.0200000014}},{"attributes":{"ID":461570,"DIS_CODE":0,"TOWNNAME":"安平區","LI":"國平里","LIN":"20鄰","STREET":"育平五街","SECT":" ","MAREA":" ","LANE":" ","ALLEY":" ","HOUSE_NO":"６號三樓之１３","E_COORD97":164895.03,"N_COORD97":2543486.02,"ADDRESS":"育平五街６號三樓之１３","OBJECTID":461545},"geometry":{"x":164895.03000000119,"y":2543486.0200000014}},{"attributes":{"ID":461571,"DIS_CODE":0,"TOWNNAME":"安平區","LI":"國平里","LIN":"20鄰","STREET":"育平五街","SECT":" ","MAREA":" ","LANE":" ","ALLEY":" ","HOUSE_NO":"６號三樓之１４","E_COORD97":164895.03,"N_COORD97":2543486.02,"ADDRESS":"育平五街６號三樓之１４","OBJECTID":461546},"geometry":{"x":164895.03000000119,"y":2543486.0200000014}},{"attributes":{"ID":461572,"DIS_CODE":0,"TOWNNAME":"安平區","LI":"國平里","LIN":"20鄰","STREET":"育平五街","SECT":" ","MAREA":" ","LANE":" ","ALLEY":" ","HOUSE_NO":"６號三樓之８","E_COORD97":164895.03,"N_COORD97":2543486.02,"ADDRESS":"育平五街６號三樓之８","OBJECTID":461547},"geometry":{"x":164895.03000000119,"y":2543486.0200000014}},{"attributes":{"ID":461573,"DIS_CODE":0,"TOWNNAME":"安平區","LI":"國平里","LIN":"20鄰","STREET":"育平五街","SECT":" ","MAREA":" ","LANE":" ","ALLEY":" ","HOUSE_NO":"６號三樓之９","E_COORD97":164895.03,"N_COORD97":2543486.02,"ADDRESS":"育平五街６號三樓之９","OBJECTID":461548},"geometry":{"x":164895.03000000119,"y":2543486.0200000014}},{"attributes":{"ID":461574,"DIS_CODE":0,"TOWNNAME":"東區","LI":"崇成里","LIN":"20鄰","STREET":"崇明十九街","SECT":" ","MAREA":" ","LANE":" ","ALLEY":" ","HOUSE_NO":"４９號","E_COORD97":170743.01000000001,"N_COORD97":2541148.29,"ADDRESS":"崇明十九街４９號","OBJECTID":461549},"geometry":{"x":170743.01000000071,"y":2541148.2899999991}},{"attributes":{"ID":461575,"DIS_CODE":0,"TOWNNAME":"安平區","LI":"國平里","LIN":"20鄰","STREET":"育平五街","SECT":" ","MAREA":" ","LANE":" ","ALLEY":" ","HOUSE_NO":"６號五樓之１０","E_COORD97":164895.03,"N_COORD97":2543486.02,"ADDRESS":"育平五街６號五樓之１０","OBJECTID":461550},"geometry":{"x":164895.03000000119,"y":2543486.0200000014}},{"attributes":{"ID":461576,"DIS_CODE":0,"TOWNNAME":"安平區","LI":"國平里","LIN":"20鄰","STREET":"育平五街","SECT":" ","MAREA":" ","LANE":" ","ALLEY":" ","HOUSE_NO":"６號五樓之１１","E_COORD97":164895.03,"N_COORD97":2543486.02,"ADDRESS":"育平五街６號五樓之１１","OBJECTID":461551},"geometry":{"x":164895.03000000119,"y":2543486.0200000014}},{"attributes":{"ID":461577,"DIS_CODE":0,"TOWNNAME":"安平區","LI":"國平里","LIN":"20鄰","STREET":"育平五街","SECT":" ","MAREA":" ","LANE":" ","ALLEY":" ","HOUSE_NO":"６號五樓之１２","E_COORD97":164895.03,"N_COORD97":2543486.02,"ADDRESS":"育平五街６號五樓之１２","OBJECTID":461552},"geometry":{"x":164895.03000000119,"y":2543486.0200000014}},{"attributes":{"ID":461578,"DIS_CODE":0,"TOWNNAME":"安平區","LI":"國平里","LIN":"20鄰","STREET":"育平五街","SECT":" ","MAREA":" ","LANE":" ","ALLEY":" ","HOUSE_NO":"６號五樓之１３","E_COORD97":164895.03,"N_COORD97":2543486.02,"ADDRESS":"育平五街６號五樓之１３","OBJECTID":461553},"geometry":{"x":164895.03000000119,"y":2543486.0200000014}},{"attributes":{"ID":461579,"DIS_CODE":0,"TOWNNAME":"安平區","LI":"國平里","LIN":"20鄰","STREET":"育平五街","SECT":" ","MAREA":" ","LANE":" ","ALLEY":" ","HOUSE_NO":"６號五樓之１４","E_COORD97":164895.03,"N_COORD97":2543486.02,"ADDRESS":"育平五街６號五樓之１４","OBJECTID":461554},"geometry":{"x":164895.03000000119,"y":2543486.0200000014}},{"attributes":{"ID":461580,"DIS_CODE":0,"TOWNNAME":"安平區","LI":"國平里","LIN":"20鄰","STREET":"育平五街","SECT":" ","MAREA":" ","LANE":" ","ALLEY":" ","HOUSE_NO":"６號六樓之１３","E_COORD97":164895.03,"N_COORD97":2543486.02,"ADDRESS":"育平五街６號六樓之１３","OBJECTID":461555},"geometry":{"x":164895.03000000119,"y":2543486.0200000014}},{"attributes":{"ID":461581,"DIS_CODE":0,"TOWNNAME":"安平區","LI":"國平里","LIN":"20鄰","STREET":"育平五街","SECT":" ","MAREA":" ","LANE":" ","ALLEY":" ","HOUSE_NO":"６號六樓之１４","E_COORD97":164895.03,"N_COORD97":2543486.02,"ADDRESS":"育平五街６號六樓之１４","OBJECTID":461556},"geometry":{"x":164895.03000000119,"y":2543486.0200000014}},{"attributes":{"ID":461582,"DIS_CODE":0,"TOWNNAME":"安平區","LI":"國平里","LIN":"20鄰","STREET":"育平五街","SECT":" ","MAREA":" ","LANE":" ","ALLEY":" ","HOUSE_NO":"６號六樓之８","E_COORD97":164895.03,"N_COORD97":2543486.02,"ADDRESS":"育平五街６號六樓之８","OBJECTID":461557},"geometry":{"x":164895.03000000119,"y":2543486.0200000014}},{"attributes":{"ID":461583,"DIS_CODE":0,"TOWNNAME":"安平區","LI":"國平里","LIN":"20鄰","STREET":"育平五街","SECT":" ","MAREA":" ","LANE":" ","ALLEY":" ","HOUSE_NO":"６號六樓之９","E_COORD97":164895.03,"N_COORD97":2543486.02,"ADDRESS":"育平五街６號六樓之９","OBJECTID":461558},"geometry":{"x":164895.03000000119,"y":2543486.0200000014}},{"attributes":{"ID":461584,"DIS_CODE":0,"TOWNNAME":"安平區","LI":"國平里","LIN":"20鄰","STREET":"育平五街","SECT":" ","MAREA":" ","LANE":" ","ALLEY":" ","HOUSE_NO":"６號四樓之１０","E_COORD97":164895.03,"N_COORD97":2543486.02,"ADDRESS":"育平五街６號四樓之１０","OBJECTID":461559},"geometry":{"x":164895.03000000119,"y":2543486.0200000014}},{"attributes":{"ID":461585,"DIS_CODE":0,"TOWNNAME":"安平區","LI":"國平里","LIN":"20鄰","STREET":"育平五街","SECT":" ","MAREA":" ","LANE":" ","ALLEY":" ","HOUSE_NO":"６號四樓之１１","E_COORD97":164895.03,"N_COORD97":2543486.02,"ADDRESS":"育平五街６號四樓之１１","OBJECTID":461560},"geometry":{"x":164895.03000000119,"y":2543486.0200000014}},{"attributes":{"ID":461586,"DIS_CODE":0,"TOWNNAME":"安平區","LI":"國平里","LIN":"20鄰","STREET":"育平五街","SECT":" ","MAREA":" ","LANE":" ","ALLEY":" ","HOUSE_NO":"６號四樓之１２","E_COORD97":164895.03,"N_COORD97":2543486.02,"ADDRESS":"育平五街６號四樓之１２","OBJECTID":461561},"geometry":{"x":164895.03000000119,"y":2543486.0200000014}},{"attributes":{"ID":461587,"DIS_CODE":0,"TOWNNAME":"歸仁區","LI":"文化里","LIN":"20鄰","STREET":"大德路","SECT":" ","MAREA":" ","LANE":" ","ALLEY":" ","HOUSE_NO":"２１１號四樓之１","E_COORD97":177223.60000000001,"N_COORD97":2541515.3399999999,"ADDRESS":"大德路２１１號四樓之１","OBJECTID":461562},"geometry":{"x":177223.59999999963,"y":2541515.3399999999}},{"attributes":{"ID":461588,"DIS_CODE":0,"TOWNNAME":"歸仁區","LI":"文化里","LIN":"20鄰","STREET":"大德路","SECT":" ","MAREA":" ","LANE":" ","ALLEY":" ","HOUSE_NO":"２１１號四樓之８","E_COORD97":177223.63,"N_COORD97":2541515.3399999999,"ADDRESS":"大德路２１１號四樓之８","OBJECTID":461563},"geometry":{"x":177223.62999999989,"y":2541515.3399999999}},{"attributes":{"ID":461589,"DIS_CODE":0,"TOWNNAME":"歸仁區","LI":"文化里","LIN":"20鄰","STREET":"大德路","SECT":" ","MAREA":" ","LANE":" ","ALLEY":" ","HOUSE_NO":"２１１號三樓之７","E_COORD97":177223.60999999999,"N_COORD97":2541515.3399999999,"ADDRESS":"大德路２１１號三樓之７","OBJECTID":461564},"geometry":{"x":177223.61000000127,"y":2541515.3399999999}},{"attributes":{"ID":461590,"DIS_CODE":0,"TOWNNAME":"歸仁區","LI":"文化里","LIN":"20鄰","STREET":"大德路","SECT":" ","MAREA":" ","LANE":" ","ALLEY":" ","HOUSE_NO":"２１１號四樓之１２","E_COORD97":177223.87,"N_COORD97":2541515.3399999999,"ADDRESS":"大德路２１１號四樓之１２","OBJECTID":461565},"geometry":{"x":177223.87000000011,"y":2541515.3399999999}},{"attributes":{"ID":461591,"DIS_CODE":0,"TOWNNAME":"歸仁區","LI":"文化里","LIN":"20鄰","STREET":"大德路","SECT":" ","MAREA":" ","LANE":" ","ALLEY":" ","HOUSE_NO":"２１１號三樓之５","E_COORD97":177223.63,"N_COORD97":2541515.3399999999,"ADDRESS":"大德路２１１號三樓之５","OBJECTID":461566},"geometry":{"x":177223.62999999989,"y":2541515.3399999999}},{"attributes":{"ID":461592,"DIS_CODE":0,"TOWNNAME":"歸仁區","LI":"文化里","LIN":"20鄰","STREET":"大德路","SECT":" ","MAREA":" ","LANE":" ","ALLEY":" ","HOUSE_NO":"２１１號四樓之７","E_COORD97":177223.60999999999,"N_COORD97":2541515.3399999999,"ADDRESS":"大德路２１１號四樓之７","OBJECTID":461567},"geometry":{"x":177223.61000000127,"y":2541515.3399999999}},{"attributes":{"ID":461593,"DIS_CODE":0,"TOWNNAME":"歸仁區","LI":"許厝里","LIN":"20鄰","STREET":"仁愛北街","SECT":" ","MAREA":" ","LANE":" ","ALLEY":" ","HOUSE_NO":"７０號四樓","E_COORD97":178300.42999999999,"N_COORD97":2540875.25,"ADDRESS":"仁愛北街７０號四樓","OBJECTID":461568},"geometry":{"x":178300.43000000063,"y":2540875.25}},{"attributes":{"ID":461594,"DIS_CODE":0,"TOWNNAME":"歸仁區","LI":"許厝里","LIN":"20鄰","STREET":"仁愛北街","SECT":" ","MAREA":" ","LANE":" ","ALLEY":" ","HOUSE_NO":"７０號三樓","E_COORD97":178300.42999999999,"N_COORD97":2540875.25,"ADDRESS":"仁愛北街７０號三樓","OBJECTID":461569},"geometry":{"x":178300.43000000063,"y":2540875.25}},{"attributes":{"ID":461595,"DIS_CODE":0,"TOWNNAME":"安南區","LI":"鳳凰里","LIN":"20鄰","STREET":"怡安路","SECT":"二段","MAREA":" ","LANE":" ","ALLEY":" ","HOUSE_NO":"５５１號","E_COORD97":167528.83990799999,"N_COORD97":2549444.87622,"ADDRESS":"怡安路二段５５１號","OBJECTID":461570},"geometry":{"x":167528.83990800101,"y":2549444.8762159999}},{"attributes":{"ID":461596,"DIS_CODE":0,"TOWNNAME":"安南區","LI":"鳳凰里","LIN":"20鄰","STREET":"怡安路","SECT":"二段","MAREA":" ","LANE":" ","ALLEY":" ","HOUSE_NO":"５８５號","E_COORD97":167453.47,"N_COORD97":2549462.6600000001,"ADDRESS":"怡安路二段５８５號","OBJECTID":461571},"geometry":{"x":167453.46999999974,"y":2549462.660000002}},{"attributes":{"ID":461597,"DIS_CODE":0,"TOWNNAME":"安南區","LI":"鳳凰里","LIN":"20鄰","STREET":"怡安路","SECT":"二段","MAREA":" ","LANE":" ","ALLEY":" ","HOUSE_NO":"５８３號","E_COORD97":167457.66,"N_COORD97":2549461.4500000002,"ADDRESS":"怡安路二段５８３號","OBJECTID":461572},"geometry":{"x":167457.66000000015,"y":2549461.4499999993}},{"attributes":{"ID":461598,"DIS_CODE":0,"TOWNNAME":"安南區","LI":"鳳凰里","LIN":"20鄰","STREET":"怡安路","SECT":"二段","MAREA":" ","LANE":" ","ALLEY":" ","HOUSE_NO":"５８７號","E_COORD97":167449.82999999999,"N_COORD97":2549463.8700000001,"ADDRESS":"怡安路二段５８７號","OBJECTID":461573},"geometry":{"x":167449.83000000007,"y":2549463.870000001}},{"attributes":{"ID":461599,"DIS_CODE":0,"TOWNNAME":"安南區","LI":"鳳凰里","LIN":"20鄰","STREET":"怡安路","SECT":"二段","MAREA":" ","LANE":" ","ALLEY":" ","HOUSE_NO":"５８９號","E_COORD97":167445.20535599999,"N_COORD97":2549465.1962000001,"ADDRESS":"怡安路二段５８９號","OBJECTID":461574},"geometry":{"x":167445.20535600092,"y":2549465.1962050013}},{"attributes":{"ID":461600,"DIS_CODE":0,"TOWNNAME":"安南區","LI":"鳳凰里","LIN":"20鄰","STREET":"怡安路","SECT":"二段","MAREA":" ","LANE":" ","ALLEY":" ","HOUSE_NO":"５４９號","E_COORD97":167533.07456899999,"N_COORD97":2549443.81788,"ADDRESS":"怡安路二段５４９號","OBJECTID":461575},"geometry":{"x":167533.07456900179,"y":2549443.8178830016}},{"attributes":{"ID":461601,"DIS_CODE":0,"TOWNNAME":"安南區","LI":"鳳凰里","LIN":"20鄰","STREET":"怡安路","SECT":"二段","MAREA":" ","LANE":" ","ALLEY":" ","HOUSE_NO":"５５３號","E_COORD97":167524.18178099999,"N_COORD97":2549445.7228799998,"ADDRESS":"怡安路二段５５３號","OBJECTID":461576},"geometry":{"x":167524.18178100046,"y":2549445.7228820007}},{"attributes":{"ID":461602,"DIS_CODE":0,"TOWNNAME":"安南區","LI":"鳳凰里","LIN":"20鄰","STREET":"怡安路","SECT":"二段","MAREA":" ","LANE":" ","ALLEY":" ","HOUSE_NO":"５５５號","E_COORD97":167520.58231900001,"N_COORD97":2549447.4162099999,"ADDRESS":"怡安路二段５５５號","OBJECTID":461577},"geometry":{"x":167520.58231900074,"y":2549447.4162140004}},{"attributes":{"ID":461603,"DIS_CODE":0,"TOWNNAME":"安南區","LI":"鳳凰里","LIN":"20鄰","STREET":"怡安路","SECT":"二段","MAREA":" ","LANE":" ","ALLEY":" ","HOUSE_NO":"５５９號","E_COORD97":167509.89999999999,"N_COORD97":2549449.3700000001,"ADDRESS":"怡安路二段５５９號","OBJECTID":461578},"geometry":{"x":167509.9000000013,"y":2549449.370000001}},{"attributes":{"ID":461604,"DIS_CODE":0,"TOWNNAME":"安南區","LI":"鳳凰里","LIN":"20鄰","STREET":"怡安路","SECT":"二段","MAREA":" ","LANE":" ","ALLEY":" ","HOUSE_NO":"５６３號","E_COORD97":167501.69,"N_COORD97":2549452,"ADDRESS":"怡安路二段５６３號","OBJECTID":461579},"geometry":{"x":167501.69000000041,"y":2549451.9999999981}},{"attributes":{"ID":461605,"DIS_CODE":0,"TOWNNAME":"安南區","LI":"鳳凰里","LIN":"20鄰","STREET":"怡安路","SECT":"二段","MAREA":" ","LANE":" ","ALLEY":" ","HOUSE_NO":"５６５號","E_COORD97":167497.10000000001,"N_COORD97":2549452.4900000002,"ADDRESS":"怡安路二段５６５號","OBJECTID":461580},"geometry":{"x":167497.10000000056,"y":2549452.4900000039}},{"attributes":{"ID":461606,"DIS_CODE":0,"TOWNNAME":"安南區","LI":"鳳凰里","LIN":"20鄰","STREET":"怡安路","SECT":"二段","MAREA":" ","LANE":" ","ALLEY":" ","HOUSE_NO":"５６７號","E_COORD97":167492.79999999999,"N_COORD97":2549453.4700000002,"ADDRESS":"怡安路二段５６７號","OBJECTID":461581},"geometry":{"x":167492.80000000075,"y":2549453.4700000025}},{"attributes":{"ID":461607,"DIS_CODE":0,"TOWNNAME":"安南區","LI":"鳳凰里","LIN":"20鄰","STREET":"怡安路","SECT":"二段","MAREA":" ","LANE":" ","ALLEY":" ","HOUSE_NO":"５７１號","E_COORD97":167484.01000000001,"N_COORD97":2549455.3199999998,"ADDRESS":"怡安路二段５７１號","OBJECTID":461582},"geometry":{"x":167484.01000000164,"y":2549455.3200000022}},{"attributes":{"ID":461608,"DIS_CODE":0,"TOWNNAME":"安南區","LI":"鳳凰里","LIN":"20鄰","STREET":"怡安路","SECT":"二段","MAREA":" ","LANE":" ","ALLEY":" ","HOUSE_NO":"５７３號","E_COORD97":167479.42000000001,"N_COORD97":2549456.3900000001,"ADDRESS":"怡安路二段５７３號","OBJECTID":461583},"geometry":{"x":167479.41999999993,"y":2549456.3900000006}},{"attributes":{"ID":461609,"DIS_CODE":0,"TOWNNAME":"安南區","LI":"鳳凰里","LIN":"20鄰","STREET":"怡安路","SECT":"二段","MAREA":" ","LANE":" ","ALLEY":" ","HOUSE_NO":"５８１號","E_COORD97":167462.51999999999,"N_COORD97":2549460.1400000001,"ADDRESS":"怡安路二段５８１號","OBJECTID":461584},"geometry":{"x":167462.52000000048,"y":2549460.1400000025}},{"attributes":{"ID":461610,"DIS_CODE":0,"TOWNNAME":"安南區","LI":"鳳凰里","LIN":"20鄰","STREET":"怡安路","SECT":"二段","MAREA":" ","LANE":" ","ALLEY":" ","HOUSE_NO":"５７７號","E_COORD97":167471.01000000001,"N_COORD97":2549458.6400000001,"ADDRESS":"怡安路二段５７７號","OBJECTID":461585},"geometry":{"x":167471.01000000071,"y":2549458.6400000043}},{"attributes":{"ID":461611,"DIS_CODE":0,"TOWNNAME":"安南區","LI":"鳳凰里","LIN":"20鄰","STREET":"怡安路","SECT":"二段","MAREA":" ","LANE":" ","ALLEY":" ","HOUSE_NO":"５７９號","E_COORD97":167466.89999999999,"N_COORD97":2549459.2999999998,"ADDRESS":"怡安路二段５７９號","OBJECTID":461586},"geometry":{"x":167466.90000000224,"y":2549459.3000000026}},{"attributes":{"ID":461612,"DIS_CODE":0,"TOWNNAME":"安南區","LI":"鳳凰里","LIN":"20鄰","STREET":"怡安路","SECT":"二段","MAREA":" ","LANE":" ","ALLEY":" ","HOUSE_NO":"５６１號","E_COORD97":167505.79000000001,"N_COORD97":2549450.3399999999,"ADDRESS":"怡安路二段５６１號","OBJECTID":461587},"geometry":{"x":167505.79000000004,"y":2549450.3400000017}},{"attributes":{"ID":461613,"DIS_CODE":0,"TOWNNAME":"安南區","LI":"鳳凰里","LIN":"20鄰","STREET":"怡安路","SECT":"二段","MAREA":" ","LANE":" ","ALLEY":" ","HOUSE_NO":"５７５號","E_COORD97":167475.41,"N_COORD97":2549457.3700000001,"ADDRESS":"怡安路二段５７５號","OBJECTID":461588},"geometry":{"x":167475.41000000108,"y":2549457.3699999992}},{"attributes":{"ID":461614,"DIS_CODE":0,"TOWNNAME":"安南區","LI":"鳳凰里","LIN":"20鄰","STREET":"怡安路","SECT":"二段","MAREA":" ","LANE":" ","ALLEY":" ","HOUSE_NO":"５５７號","E_COORD97":167515.28899299999,"N_COORD97":2549448.0512100002,"ADDRESS":"怡安路二段５５７號","OBJECTID":461589},"geometry":{"x":167515.28899300005,"y":2549448.0512139983}},{"attributes":{"ID":461615,"DIS_CODE":0,"TOWNNAME":"安南區","LI":"鳳凰里","LIN":"20鄰","STREET":"怡安路","SECT":"二段","MAREA":" ","LANE":" ","ALLEY":" ","HOUSE_NO":"５６９號","E_COORD97":167488.60000000001,"N_COORD97":2549454.3500000001,"ADDRESS":"怡安路二段５６９號","OBJECTID":461590},"geometry":{"x":167488.60000000056,"y":2549454.3500000015}},{"attributes":{"ID":461616,"DIS_CODE":0,"TOWNNAME":"安南區","LI":"鳳凰里","LIN":"20鄰","STREET":"怡安路","SECT":"二段","MAREA":" ","LANE":" ","ALLEY":" ","HOUSE_NO":"５４７號","E_COORD97":167538.367895,"N_COORD97":2549442.7595500001,"ADDRESS":"怡安路二段５４７號","OBJECTID":461591},"geometry":{"x":167538.36789499968,"y":2549442.7595499996}},{"attributes":{"ID":461617,"DIS_CODE":0,"TOWNNAME":"安南區","LI":"溪墘里","LIN":"20鄰","STREET":"郡安路","SECT":"五段","MAREA":" ","LANE":" ","ALLEY":" ","HOUSE_NO":"２１７號","E_COORD97":167241.03,"N_COORD97":2547731.4300000002,"ADDRESS":"郡安路五段２１７號","OBJECTID":461592},"geometry":{"x":167241.03000000119,"y":2547731.4300000016}},{"attributes":{"ID":461618,"DIS_CODE":0,"TOWNNAME":"安南區","LI":"溪墘里","LIN":"20鄰","STREET":"郡安路","SECT":"五段","MAREA":" ","LANE":" ","ALLEY":" ","HOUSE_NO":"２１８號","E_COORD97":167236.92000000001,"N_COORD97":2547730.0600000001,"ADDRESS":"郡安路五段２１８號","OBJECTID":461593},"geometry":{"x":167236.91999999993,"y":2547730.0600000042}},{"attributes":{"ID":461619,"DIS_CODE":0,"TOWNNAME":"安南區","LI":"溪墘里","LIN":"20鄰","STREET":"郡安路","SECT":"五段","MAREA":" ","LANE":" ","ALLEY":" ","HOUSE_NO":"２１９號","E_COORD97":167232.13,"N_COORD97":2547729.4300000002,"ADDRESS":"郡安路五段２１９號","OBJECTID":461594},"geometry":{"x":167232.12999999989,"y":2547729.4299999997}},{"attributes":{"ID":461620,"DIS_CODE":0,"TOWNNAME":"安南區","LI":"溪墘里","LIN":"20鄰","STREET":"郡安路","SECT":"五段","MAREA":" ","LANE":" ","ALLEY":" ","HOUSE_NO":"２２６號","E_COORD97":167197.41,"N_COORD97":2547725.1800000002,"ADDRESS":"郡安路五段２２６號","OBJECTID":461595},"geometry":{"x":167197.41000000108,"y":2547725.1800000034}},{"attributes":{"ID":461621,"DIS_CODE":0,"TOWNNAME":"安南區","LI":"溪墘里","LIN":"20鄰","STREET":"郡安路","SECT":"五段","MAREA":" ","LANE":" ","ALLEY":" ","HOUSE_NO":"２２７號","E_COORD97":167192.90067500001,"N_COORD97":2547724.4593600002,"ADDRESS":"郡安路五段２２７號","OBJECTID":461596},"geometry":{"x":167192.90067499969,"y":2547724.4593560044}},{"attributes":{"ID":461622,"DIS_CODE":0,"TOWNNAME":"安南區","LI":"溪墘里","LIN":"20鄰","STREET":"郡安路","SECT":"五段","MAREA":" ","LANE":" ","ALLEY":" ","HOUSE_NO":"２２８號","E_COORD97":167189.016527,"N_COORD97":2547723.5068600001,"ADDRESS":"郡安路五段２２８號","OBJECTID":461597},"geometry":{"x":167189.01652700081,"y":2547723.5068570022}},{"attributes":{"ID":461623,"DIS_CODE":0,"TOWNNAME":"安南區","LI":"\u25A0南里","LIN":"20鄰","STREET":"環福街","SECT":" ","MAREA":" ","LANE":" ","ALLEY":" ","HOUSE_NO":"１０８號","E_COORD97":170434.81,"N_COORD97":2552454,"ADDRESS":"環福街１０８號","OBJECTID":461598},"geometry":{"x":170434.81000000145,"y":2552454.0000000019}},{"attributes":{"ID":461624,"DIS_CODE":0,"TOWNNAME":"安南區","LI":"\u25A0南里","LIN":"20鄰","STREET":"環福街","SECT":" ","MAREA":" ","LANE":" ","ALLEY":" ","HOUSE_NO":"１１０號","E_COORD97":170429.35999999999,"N_COORD97":2552457.1499999999,"ADDRESS":"環福街１１０號","OBJECTID":461599},"geometry":{"x":170429.36000000127,"y":2552457.1500000022}},{"attributes":{"ID":461625,"DIS_CODE":0,"TOWNNAME":"安南區","LI":"\u25A0南里","LIN":"20鄰","STREET":"環福街","SECT":" ","MAREA":" ","LANE":" ","ALLEY":" ","HOUSE_NO":"１１２號","E_COORD97":170429.79000000001,"N_COORD97":2552462.0299999998,"ADDRESS":"環福街１１２號","OBJECTID":461600},"geometry":{"x":170429.79000000004,"y":2552462.0300000031}}]}