{"displayFieldName":"TOWNNAME","fieldAliases":{"ID":"ID","DIS_CODE":"DIS_CODE","TOWNNAME":"TOWNNAME","LI":"LI","LIN":"LIN","STREET":"STREET","SECT":"SECT","MAREA":"MAREA","LANE":"LANE","ALLEY":"ALLEY","HOUSE_NO":"HOUSE_NO","E_COORD97":"E_COORD97","N_COORD97":"N_COORD97","ADDRESS":"ADDRESS","OBJECTID":"OBJECTID"},"geometryType":"esriGeometryPoint","spatialReference":{"wkid":102443,"latestWkid":3826},"fields":[{"name":"ID","type":"esriFieldTypeDouble","alias":"ID"},{"name":"DIS_CODE","type":"esriFieldTypeInteger","alias":"DIS_CODE"},{"name":"TOWNNAME","type":"esriFieldTypeString","alias":"TOWNNAME","length":8},{"name":"LI","type":"esriFieldTypeString","alias":"LI","length":8},{"name":"LIN","type":"esriFieldTypeString","alias":"LIN","length":12},{"name":"STREET","type":"esriFieldTypeString","alias":"STREET","length":20},{"name":"SECT","type":"esriFieldTypeString","alias":"SECT","length":8},{"name":"MAREA","type":"esriFieldTypeString","alias":"MAREA","length":12},{"name":"LANE","type":"esriFieldTypeString","alias":"LANE","length":10},{"name":"ALLEY","type":"esriFieldTypeString","alias":"ALLEY","length":10},{"name":"HOUSE_NO","type":"esriFieldTypeString","alias":"HOUSE_NO","length":20},{"name":"E_COORD97","type":"esriFieldTypeDouble","alias":"E_COORD97"},{"name":"N_COORD97","type":"esriFieldTypeDouble","alias":"N_COORD97"},{"name":"ADDRESS","type":"esriFieldTypeString","alias":"ADDRESS","length":50},{"name":"OBJECTID","type":"esriFieldTypeOID","alias":"OBJECTID"}],"features":[{"attributes":{"ID":75801,"DIS_CODE":0,"TOWNNAME":"新營區","LI":"五興里","LIN":"6鄰","STREET":" ","SECT":" ","MAREA":"五間厝","LANE":" ","ALLEY":" ","HOUSE_NO":"７３之１號","E_COORD97":175865.10999999999,"N_COORD97":2574727.8700000001,"ADDRESS":"五間厝７３之１號","OBJECTID":75801},"geometry":{"x":175865.1100000022,"y":2574727.870000001}},{"attributes":{"ID":75802,"DIS_CODE":0,"TOWNNAME":"新營區","LI":"埤寮里","LIN":"6鄰","STREET":" ","SECT":" ","MAREA":"埤寮","LANE":" ","ALLEY":" ","HOUSE_NO":"２０之３號","E_COORD97":180359.07000000001,"N_COORD97":2580897.8500000001,"ADDRESS":"埤寮２０之３號","OBJECTID":75802},"geometry":{"x":180359.06999999937,"y":2580897.8499999996}},{"attributes":{"ID":75803,"DIS_CODE":0,"TOWNNAME":"新營區","LI":"埤寮里","LIN":"6鄰","STREET":" ","SECT":" ","MAREA":"埤寮","LANE":" ","ALLEY":" ","HOUSE_NO":"２１號之３","E_COORD97":180264.60999999999,"N_COORD97":2580818.5499999998,"ADDRESS":"埤寮２１號之３","OBJECTID":75803},"geometry":{"x":180264.61000000127,"y":2580818.5500000026}},{"attributes":{"ID":75804,"DIS_CODE":0,"TOWNNAME":"新營區","LI":"埤寮里","LIN":"6鄰","STREET":" ","SECT":" ","MAREA":"埤寮","LANE":" ","ALLEY":" ","HOUSE_NO":"２５號","E_COORD97":180368.62,"N_COORD97":2580851.2200000002,"ADDRESS":"埤寮２５號","OBJECTID":75804},"geometry":{"x":180368.62000000011,"y":2580851.2200000025}},{"attributes":{"ID":75805,"DIS_CODE":0,"TOWNNAME":"歸仁區","LI":"辜厝里","LIN":"44鄰","STREET":"中正南路","SECT":"一段","MAREA":" ","LANE":" ","ALLEY":" ","HOUSE_NO":"３０６號","E_COORD97":177184.94,"N_COORD97":2540247.9500000002,"ADDRESS":"中正南路一段３０６號","OBJECTID":75805},"geometry":{"x":177184.94000000041,"y":2540247.9500000011}},{"attributes":{"ID":75806,"DIS_CODE":0,"TOWNNAME":"新營區","LI":"姑爺里","LIN":"6鄰","STREET":" ","SECT":" ","MAREA":"姑爺","LANE":" ","ALLEY":" ","HOUSE_NO":"４７之６號","E_COORD97":174344.12,"N_COORD97":2574798.6699999999,"ADDRESS":"姑爺４７之６號","OBJECTID":75806},"geometry":{"x":174344.12000000197,"y":2574798.6700000018}},{"attributes":{"ID":75807,"DIS_CODE":0,"TOWNNAME":"新營區","LI":"護鎮里","LIN":"6鄰","STREET":" ","SECT":" ","MAREA":"後鎮","LANE":" ","ALLEY":" ","HOUSE_NO":"６２之７號","E_COORD97":179026.85000000001,"N_COORD97":2581196.54,"ADDRESS":"後鎮６２之７號","OBJECTID":75807},"geometry":{"x":179026.84999999963,"y":2581196.540000001}},{"attributes":{"ID":75808,"DIS_CODE":0,"TOWNNAME":"新營區","LI":"五興里","LIN":"6鄰","STREET":" ","SECT":" ","MAREA":"五間厝","LANE":" ","ALLEY":" ","HOUSE_NO":"６７之１號","E_COORD97":175803.95000000001,"N_COORD97":2574779.1099999999,"ADDRESS":"五間厝６７之１號","OBJECTID":75808},"geometry":{"x":175803.95000000112,"y":2574779.1099999994}},{"attributes":{"ID":75809,"DIS_CODE":0,"TOWNNAME":"新營區","LI":"五興里","LIN":"6鄰","STREET":" ","SECT":" ","MAREA":"五間厝","LANE":" ","ALLEY":" ","HOUSE_NO":"７２號之２","E_COORD97":175866.88,"N_COORD97":2574673.5899999999,"ADDRESS":"五間厝７２之２號","OBJECTID":75809},"geometry":{"x":175866.88000000082,"y":2574673.5900000017}},{"attributes":{"ID":75810,"DIS_CODE":0,"TOWNNAME":"新營區","LI":"護鎮里","LIN":"6鄰","STREET":" ","SECT":" ","MAREA":"後鎮","LANE":" ","ALLEY":" ","HOUSE_NO":"１０９號","E_COORD97":178766.48999999999,"N_COORD97":2581757.0099999998,"ADDRESS":"後鎮１０９號","OBJECTID":75810},"geometry":{"x":178766.49000000115,"y":2581757.0100000016}},{"attributes":{"ID":75811,"DIS_CODE":0,"TOWNNAME":"東山區","LI":"嶺南里","LIN":"6鄰","STREET":" ","SECT":" ","MAREA":"宅子內","LANE":" ","ALLEY":" ","HOUSE_NO":"４號之２","E_COORD97":192621.67000000001,"N_COORD97":2572285.2200000002,"ADDRESS":"宅子內４號之２","OBJECTID":75811},"geometry":{"x":192621.67000000086,"y":2572285.2200000007}},{"attributes":{"ID":75812,"DIS_CODE":0,"TOWNNAME":"東山區","LI":"嶺南里","LIN":"6鄰","STREET":" ","SECT":" ","MAREA":"宅子內","LANE":" ","ALLEY":" ","HOUSE_NO":"４號","E_COORD97":192654.73000000001,"N_COORD97":2572296.04,"ADDRESS":"宅子內４號","OBJECTID":75812},"geometry":{"x":192654.73000000045,"y":2572296.040000001}},{"attributes":{"ID":75813,"DIS_CODE":0,"TOWNNAME":"東山區","LI":"嶺南里","LIN":"6鄰","STREET":" ","SECT":" ","MAREA":"宅子內","LANE":" ","ALLEY":" ","HOUSE_NO":"５號","E_COORD97":192598.88,"N_COORD97":2572244.3100000001,"ADDRESS":"宅子內５號","OBJECTID":75813},"geometry":{"x":192598.87999999989,"y":2572244.3100000042}},{"attributes":{"ID":75814,"DIS_CODE":0,"TOWNNAME":"東山區","LI":"嶺南里","LIN":"6鄰","STREET":" ","SECT":" ","MAREA":"宅子內","LANE":" ","ALLEY":" ","HOUSE_NO":"６號之１","E_COORD97":192627.87,"N_COORD97":2572371.3399999999,"ADDRESS":"宅子內６號之１","OBJECTID":75814},"geometry":{"x":192627.87000000011,"y":2572371.3399999999}},{"attributes":{"ID":75815,"DIS_CODE":0,"TOWNNAME":"東山區","LI":"嶺南里","LIN":"6鄰","STREET":" ","SECT":" ","MAREA":"宅子內","LANE":" ","ALLEY":" ","HOUSE_NO":"８號","E_COORD97":192501.35999999999,"N_COORD97":2572147.2999999998,"ADDRESS":"宅子內８號","OBJECTID":75815},"geometry":{"x":192501.36000000034,"y":2572147.3000000026}},{"attributes":{"ID":75816,"DIS_CODE":0,"TOWNNAME":"東山區","LI":"嶺南里","LIN":"6鄰","STREET":" ","SECT":" ","MAREA":"宅子內","LANE":" ","ALLEY":" ","HOUSE_NO":"９號","E_COORD97":192573.28,"N_COORD97":2572158.1499999999,"ADDRESS":"宅子內９號","OBJECTID":75816},"geometry":{"x":192573.28000000212,"y":2572158.1500000022}},{"attributes":{"ID":75817,"DIS_CODE":0,"TOWNNAME":"東山區","LI":"東正里","LIN":"6鄰","STREET":" ","SECT":" ","MAREA":"東勢","LANE":" ","ALLEY":" ","HOUSE_NO":"４１號","E_COORD97":189430.26000000001,"N_COORD97":2580124.8900000001,"ADDRESS":"東勢４１號","OBJECTID":75817},"geometry":{"x":189430.26000000071,"y":2580124.8900000006}},{"attributes":{"ID":75818,"DIS_CODE":0,"TOWNNAME":"東山區","LI":"東正里","LIN":"6鄰","STREET":" ","SECT":" ","MAREA":"東勢","LANE":" ","ALLEY":" ","HOUSE_NO":"４９號","E_COORD97":189426.95000000001,"N_COORD97":2580147.7000000002,"ADDRESS":"東勢４９號","OBJECTID":75818},"geometry":{"x":189426.95000000019,"y":2580147.7000000011}},{"attributes":{"ID":75819,"DIS_CODE":0,"TOWNNAME":"東山區","LI":"東正里","LIN":"6鄰","STREET":" ","SECT":" ","MAREA":"東勢","LANE":" ","ALLEY":" ","HOUSE_NO":"５０號","E_COORD97":189413.17000000001,"N_COORD97":2580111.8100000001,"ADDRESS":"東勢５０號","OBJECTID":75819},"geometry":{"x":189413.16999999993,"y":2580111.8100000005}},{"attributes":{"ID":75820,"DIS_CODE":0,"TOWNNAME":"永康區","LI":"中華里","LIN":"19鄰","STREET":"小東路","SECT":" ","MAREA":" ","LANE":"４７７巷","ALLEY":"４６弄","HOUSE_NO":"１號之７","E_COORD97":171657.19,"N_COORD97":2544537.0499999998,"ADDRESS":"小東路４７７巷４６弄１號之７","OBJECTID":75820},"geometry":{"x":171657.19000000227,"y":2544537.0500000026}},{"attributes":{"ID":75821,"DIS_CODE":0,"TOWNNAME":"永康區","LI":"中華里","LIN":"19鄰","STREET":"小東路","SECT":" ","MAREA":" ","LANE":"４７７巷","ALLEY":"４６弄","HOUSE_NO":"５號之２７","E_COORD97":171654.39000000001,"N_COORD97":2544535.6600000001,"ADDRESS":"小東路４７７巷４６弄５號之２７","OBJECTID":75821},"geometry":{"x":171654.38999999966,"y":2544535.660000002}},{"attributes":{"ID":75822,"DIS_CODE":0,"TOWNNAME":"永康區","LI":"中華里","LIN":"19鄰","STREET":"小東路","SECT":" ","MAREA":" ","LANE":"４７７巷","ALLEY":"４６弄","HOUSE_NO":"３號之８","E_COORD97":171646.07000000001,"N_COORD97":2544536.3999999999,"ADDRESS":"小東路４７７巷４６弄３號之８","OBJECTID":75822},"geometry":{"x":171646.07000000123,"y":2544536.4000000004}},{"attributes":{"ID":75823,"DIS_CODE":0,"TOWNNAME":"東山區","LI":"林安里","LIN":"6鄰","STREET":" ","SECT":" ","MAREA":"林安","LANE":" ","ALLEY":" ","HOUSE_NO":"３９號","E_COORD97":191879,"N_COORD97":2575534.9700000002,"ADDRESS":"林安３９號","OBJECTID":75823},"geometry":{"x":191879,"y":2575534.9700000007}},{"attributes":{"ID":75824,"DIS_CODE":0,"TOWNNAME":"東山區","LI":"林安里","LIN":"6鄰","STREET":" ","SECT":" ","MAREA":"林安","LANE":" ","ALLEY":" ","HOUSE_NO":"４０號之１","E_COORD97":191862.12,"N_COORD97":2575538.9199999999,"ADDRESS":"林安４０號之１","OBJECTID":75824},"geometry":{"x":191862.11999999918,"y":2575538.9200000018}},{"attributes":{"ID":75825,"DIS_CODE":0,"TOWNNAME":"東山區","LI":"林安里","LIN":"6鄰","STREET":" ","SECT":" ","MAREA":"林安","LANE":" ","ALLEY":" ","HOUSE_NO":"４０號","E_COORD97":191817.56,"N_COORD97":2575462.8500000001,"ADDRESS":"林安４０號","OBJECTID":75825},"geometry":{"x":191817.55999999959,"y":2575462.8499999996}},{"attributes":{"ID":75826,"DIS_CODE":0,"TOWNNAME":"東山區","LI":"林安里","LIN":"6鄰","STREET":" ","SECT":" ","MAREA":"林安","LANE":" ","ALLEY":" ","HOUSE_NO":"４１號","E_COORD97":191836.76999999999,"N_COORD97":2575505.77,"ADDRESS":"林安４１號","OBJECTID":75826},"geometry":{"x":191836.76999999862,"y":2575505.7700000014}},{"attributes":{"ID":75827,"DIS_CODE":0,"TOWNNAME":"東山區","LI":"林安里","LIN":"6鄰","STREET":" ","SECT":" ","MAREA":"林安","LANE":" ","ALLEY":" ","HOUSE_NO":"４２號之１","E_COORD97":191761.91,"N_COORD97":2575433.0699999998,"ADDRESS":"林安４２號之１","OBJECTID":75827},"geometry":{"x":191761.91000000201,"y":2575433.0700000022}},{"attributes":{"ID":75828,"DIS_CODE":0,"TOWNNAME":"東山區","LI":"林安里","LIN":"6鄰","STREET":" ","SECT":" ","MAREA":"林安","LANE":" ","ALLEY":" ","HOUSE_NO":"４２號","E_COORD97":191818.76999999999,"N_COORD97":2575512.6800000002,"ADDRESS":"林安４２號","OBJECTID":75828},"geometry":{"x":191818.77000000048,"y":2575512.6800000034}},{"attributes":{"ID":75829,"DIS_CODE":0,"TOWNNAME":"東山區","LI":"林安里","LIN":"6鄰","STREET":" ","SECT":" ","MAREA":"林安","LANE":" ","ALLEY":" ","HOUSE_NO":"４３號","E_COORD97":191785.73999999999,"N_COORD97":2575509.5899999999,"ADDRESS":"林安４３號","OBJECTID":75829},"geometry":{"x":191785.74000000115,"y":2575509.5899999999}},{"attributes":{"ID":75830,"DIS_CODE":0,"TOWNNAME":"東山區","LI":"林安里","LIN":"6鄰","STREET":" ","SECT":" ","MAREA":"林安","LANE":" ","ALLEY":" ","HOUSE_NO":"４４號","E_COORD97":191767.94,"N_COORD97":2575504.3500000001,"ADDRESS":"林安４４號","OBJECTID":75830},"geometry":{"x":191767.94000000134,"y":2575504.3499999978}},{"attributes":{"ID":75831,"DIS_CODE":0,"TOWNNAME":"東山區","LI":"林安里","LIN":"6鄰","STREET":" ","SECT":" ","MAREA":"林安","LANE":" ","ALLEY":" ","HOUSE_NO":"４５號","E_COORD97":191770.92999999999,"N_COORD97":2575522.48,"ADDRESS":"林安４５號","OBJECTID":75831},"geometry":{"x":191770.9299999997,"y":2575522.4800000023}},{"attributes":{"ID":75832,"DIS_CODE":0,"TOWNNAME":"新化區","LI":"全興里","LIN":"6鄰","STREET":" ","SECT":" ","MAREA":"竹子\u25A0","LANE":" ","ALLEY":" ","HOUSE_NO":"７８號之８","E_COORD97":177555.73999999999,"N_COORD97":2547740.2599999998,"ADDRESS":"竹子\u25A0７８號之８","OBJECTID":75832},"geometry":{"x":177555.74000000209,"y":2547740.2599999998}},{"attributes":{"ID":75833,"DIS_CODE":0,"TOWNNAME":"新化區","LI":"崙頂里","LIN":"6鄰","STREET":" ","SECT":" ","MAREA":"崙子頂","LANE":" ","ALLEY":" ","HOUSE_NO":"２６４號之２","E_COORD97":176656.07999999999,"N_COORD97":2547100.2599999998,"ADDRESS":"崙子頂２６４號之２","OBJECTID":75833},"geometry":{"x":176656.08000000007,"y":2547100.2599999998}},{"attributes":{"ID":75834,"DIS_CODE":0,"TOWNNAME":"新化區","LI":"礁坑里","LIN":"6鄰","STREET":" ","SECT":" ","MAREA":"三十六崙","LANE":" ","ALLEY":" ","HOUSE_NO":"９６號","E_COORD97":184927.72,"N_COORD97":2549226.25,"ADDRESS":"三十六崙９６號","OBJECTID":75834},"geometry":{"x":184927.71999999881,"y":2549226.25}},{"attributes":{"ID":75835,"DIS_CODE":0,"TOWNNAME":"新化區","LI":"崙頂里","LIN":"6鄰","STREET":" ","SECT":" ","MAREA":"崙子頂","LANE":" ","ALLEY":" ","HOUSE_NO":"２６６號","E_COORD97":176751.13,"N_COORD97":2547037.25,"ADDRESS":"崙子頂２６６號","OBJECTID":75835},"geometry":{"x":176751.13000000082,"y":2547037.2500000019}},{"attributes":{"ID":75836,"DIS_CODE":0,"TOWNNAME":"永康區","LI":"中華里","LIN":"19鄰","STREET":"小東路","SECT":" ","MAREA":" ","LANE":"４７７巷","ALLEY":"４６弄","HOUSE_NO":"１號之１８","E_COORD97":171658.51000000001,"N_COORD97":2544537.0499999998,"ADDRESS":"小東路４７７巷４６弄１號之１８","OBJECTID":75836},"geometry":{"x":171658.50999999978,"y":2544537.0500000026}},{"attributes":{"ID":75837,"DIS_CODE":0,"TOWNNAME":"永康區","LI":"中華里","LIN":"19鄰","STREET":"小東路","SECT":" ","MAREA":" ","LANE":"４７７巷","ALLEY":"４６弄","HOUSE_NO":"１號之２６","E_COORD97":171658.47,"N_COORD97":2544537.0499999998,"ADDRESS":"小東路４７７巷４６弄１號之２６","OBJECTID":75837},"geometry":{"x":171658.47000000067,"y":2544537.0500000026}},{"attributes":{"ID":75838,"DIS_CODE":0,"TOWNNAME":"永康區","LI":"中華里","LIN":"19鄰","STREET":"小東路","SECT":" ","MAREA":" ","LANE":"４７７巷","ALLEY":"４６弄","HOUSE_NO":"１號之３７","E_COORD97":171658.44,"N_COORD97":2544537.0499999998,"ADDRESS":"小東路４７７巷４６弄１號之３７","OBJECTID":75838},"geometry":{"x":171658.44000000041,"y":2544537.0500000026}},{"attributes":{"ID":75839,"DIS_CODE":0,"TOWNNAME":"柳營區","LI":"大農里","LIN":"7鄰","STREET":"義士路","SECT":"一段","MAREA":" ","LANE":"２８１巷","ALLEY":" ","HOUSE_NO":"３號","E_COORD97":186304.76000000001,"N_COORD97":2575760.1400000001,"ADDRESS":"義士路一段２８１巷３號","OBJECTID":75839},"geometry":{"x":186304.76000000071,"y":2575760.1400000006}},{"attributes":{"ID":75840,"DIS_CODE":0,"TOWNNAME":"柳營區","LI":"大農里","LIN":"7鄰","STREET":"義士路","SECT":"一段","MAREA":" ","LANE":" ","ALLEY":" ","HOUSE_NO":"２８７號","E_COORD97":186264.70000000001,"N_COORD97":2575759.7599999998,"ADDRESS":"義士路一段２８７號","OBJECTID":75840},"geometry":{"x":186264.70000000112,"y":2575759.7600000035}},{"attributes":{"ID":75841,"DIS_CODE":0,"TOWNNAME":"柳營區","LI":"大農里","LIN":"7鄰","STREET":"義士路","SECT":"一段","MAREA":" ","LANE":" ","ALLEY":" ","HOUSE_NO":"４７號","E_COORD97":186782.92000000001,"N_COORD97":2575793.3300000001,"ADDRESS":"義士路一段４７號","OBJECTID":75841},"geometry":{"x":186782.92000000179,"y":2575793.3300000038}},{"attributes":{"ID":75842,"DIS_CODE":0,"TOWNNAME":"新化區","LI":"崙頂里","LIN":"6鄰","STREET":" ","SECT":" ","MAREA":"崙子頂","LANE":" ","ALLEY":" ","HOUSE_NO":"２５３號之１","E_COORD97":176702.95999999999,"N_COORD97":2547062.2599999998,"ADDRESS":"崙子頂２５３號之１","OBJECTID":75842},"geometry":{"x":176702.95999999903,"y":2547062.2599999998}},{"attributes":{"ID":75843,"DIS_CODE":0,"TOWNNAME":"新化區","LI":"羊林里","LIN":"6鄰","STREET":" ","SECT":" ","MAREA":"\u25A0拔林","LANE":" ","ALLEY":" ","HOUSE_NO":"５０１號之３","E_COORD97":183520.479165,"N_COORD97":2551650.1558900001,"ADDRESS":"\u25A0拔林５０１號之３","OBJECTID":75843},"geometry":{"x":183520.47916500177,"y":2551650.1558940019}},{"attributes":{"ID":75844,"DIS_CODE":0,"TOWNNAME":"新化區","LI":"羊林里","LIN":"6鄰","STREET":" ","SECT":" ","MAREA":"\u25A0拔林","LANE":" ","ALLEY":" ","HOUSE_NO":"４９３號之６","E_COORD97":183454.67000000001,"N_COORD97":2551400.2599999998,"ADDRESS":"\u25A0拔林４９３號之６","OBJECTID":75844},"geometry":{"x":183454.66999999993,"y":2551400.2600000016}},{"attributes":{"ID":75845,"DIS_CODE":0,"TOWNNAME":"新化區","LI":"崙頂里","LIN":"6鄰","STREET":" ","SECT":" ","MAREA":"崙子頂","LANE":" ","ALLEY":" ","HOUSE_NO":"２５９號","E_COORD97":176694.32999999999,"N_COORD97":2547102.25,"ADDRESS":"崙子頂２５９號","OBJECTID":75845},"geometry":{"x":176694.33000000101,"y":2547102.2500000019}},{"attributes":{"ID":75846,"DIS_CODE":0,"TOWNNAME":"永康區","LI":"中華里","LIN":"19鄰","STREET":"小東路","SECT":" ","MAREA":" ","LANE":"４７７巷","ALLEY":"４６弄","HOUSE_NO":"１號之１０","E_COORD97":171658.42000000001,"N_COORD97":2544537.0499999998,"ADDRESS":"小東路４７７巷４６弄１號之１０","OBJECTID":75846},"geometry":{"x":171658.42000000179,"y":2544537.0500000026}},{"attributes":{"ID":75847,"DIS_CODE":0,"TOWNNAME":"永康區","LI":"中華里","LIN":"19鄰","STREET":"小東路","SECT":" ","MAREA":" ","LANE":"４７７巷","ALLEY":"４６弄","HOUSE_NO":"５號之３６","E_COORD97":171654.42000000001,"N_COORD97":2544535.6600000001,"ADDRESS":"小東路４７７巷４６弄５號之３６","OBJECTID":75847},"geometry":{"x":171654.41999999993,"y":2544535.660000002}},{"attributes":{"ID":75848,"DIS_CODE":0,"TOWNNAME":"永康區","LI":"中華里","LIN":"19鄰","STREET":"小東路","SECT":" ","MAREA":" ","LANE":"４７７巷","ALLEY":"４６弄","HOUSE_NO":"１號之４２","E_COORD97":171658.5,"N_COORD97":2544537.0499999998,"ADDRESS":"小東路４７７巷４６弄１號之４２","OBJECTID":75848},"geometry":{"x":171658.50000000093,"y":2544537.0500000026}},{"attributes":{"ID":75849,"DIS_CODE":0,"TOWNNAME":"永康區","LI":"中華里","LIN":"19鄰","STREET":"小東路","SECT":" ","MAREA":" ","LANE":"４７７巷","ALLEY":"４６弄","HOUSE_NO":"１號之２９","E_COORD97":171658.45000000001,"N_COORD97":2544537.0499999998,"ADDRESS":"小東路４７７巷４６弄１號之２９","OBJECTID":75849},"geometry":{"x":171658.45000000205,"y":2544537.0500000026}},{"attributes":{"ID":75850,"DIS_CODE":0,"TOWNNAME":"永康區","LI":"中華里","LIN":"19鄰","STREET":"小東路","SECT":" ","MAREA":" ","LANE":"４７７巷","ALLEY":"４６弄","HOUSE_NO":"１號之３２","E_COORD97":171658.5,"N_COORD97":2544537.0499999998,"ADDRESS":"小東路４７７巷４６弄１號之３２","OBJECTID":75850},"geometry":{"x":171658.50000000093,"y":2544537.0500000026}},{"attributes":{"ID":75851,"DIS_CODE":0,"TOWNNAME":"永康區","LI":"中華里","LIN":"19鄰","STREET":"小東路","SECT":" ","MAREA":" ","LANE":"４７７巷","ALLEY":"４６弄","HOUSE_NO":"５號之９","E_COORD97":171653.14999999999,"N_COORD97":2544535.6600000001,"ADDRESS":"小東路４７７巷４６弄５號之９","OBJECTID":75851},"geometry":{"x":171653.15000000037,"y":2544535.660000002}},{"attributes":{"ID":75852,"DIS_CODE":0,"TOWNNAME":"永康區","LI":"中華里","LIN":"19鄰","STREET":"小東路","SECT":" ","MAREA":" ","LANE":"４７７巷","ALLEY":"４６弄","HOUSE_NO":"１號之１","E_COORD97":171657.10999999999,"N_COORD97":2544537.0499999998,"ADDRESS":"小東路４７７巷４６弄１號之１","OBJECTID":75852},"geometry":{"x":171657.11000000034,"y":2544537.0500000026}},{"attributes":{"ID":75853,"DIS_CODE":0,"TOWNNAME":"永康區","LI":"中華里","LIN":"19鄰","STREET":"小東路","SECT":" ","MAREA":" ","LANE":"４７７巷","ALLEY":"４６弄","HOUSE_NO":"５號之３０","E_COORD97":171654.35999999999,"N_COORD97":2544535.6600000001,"ADDRESS":"小東路４７７巷４６弄５號之３０","OBJECTID":75853},"geometry":{"x":171654.36000000127,"y":2544535.660000002}},{"attributes":{"ID":75854,"DIS_CODE":0,"TOWNNAME":"永康區","LI":"中華里","LIN":"19鄰","STREET":"小東路","SECT":" ","MAREA":" ","LANE":"４７７巷","ALLEY":"４６弄","HOUSE_NO":"５號之１８","E_COORD97":171654.45999999999,"N_COORD97":2544535.6600000001,"ADDRESS":"小東路４７７巷４６弄５號之１８","OBJECTID":75854},"geometry":{"x":171654.45999999996,"y":2544535.660000002}},{"attributes":{"ID":75855,"DIS_CODE":0,"TOWNNAME":"永康區","LI":"中華里","LIN":"19鄰","STREET":"小東路","SECT":" ","MAREA":" ","LANE":"４７７巷","ALLEY":"４６弄","HOUSE_NO":"５號之５","E_COORD97":171653.22,"N_COORD97":2544535.6600000001,"ADDRESS":"小東路４７７巷４６弄５號之５","OBJECTID":75855},"geometry":{"x":171653.22000000067,"y":2544535.660000002}},{"attributes":{"ID":75856,"DIS_CODE":0,"TOWNNAME":"永康區","LI":"中華里","LIN":"19鄰","STREET":"小東路","SECT":" ","MAREA":" ","LANE":"４７７巷","ALLEY":"４６弄","HOUSE_NO":"５號之２０","E_COORD97":171654.35999999999,"N_COORD97":2544535.6600000001,"ADDRESS":"小東路４７７巷４６弄５號之２０","OBJECTID":75856},"geometry":{"x":171654.36000000127,"y":2544535.660000002}},{"attributes":{"ID":75857,"DIS_CODE":0,"TOWNNAME":"歸仁區","LI":"看東里","LIN":"5鄰","STREET":"成功五街","SECT":" ","MAREA":" ","LANE":" ","ALLEY":" ","HOUSE_NO":"９９號","E_COORD97":178426.56,"N_COORD97":2539912.3599999999,"ADDRESS":"成功五街９９號","OBJECTID":75857},"geometry":{"x":178426.56000000052,"y":2539912.3600000013}},{"attributes":{"ID":75858,"DIS_CODE":0,"TOWNNAME":"新化區","LI":"羊林里","LIN":"6鄰","STREET":" ","SECT":" ","MAREA":"\u25A0拔林","LANE":" ","ALLEY":" ","HOUSE_NO":"４９０號","E_COORD97":183441.62,"N_COORD97":2551636.25,"ADDRESS":"\u25A0拔林４９０號","OBJECTID":75858},"geometry":{"x":183441.62000000011,"y":2551636.25}},{"attributes":{"ID":75859,"DIS_CODE":0,"TOWNNAME":"新化區","LI":"羊林里","LIN":"6鄰","STREET":" ","SECT":" ","MAREA":"\u25A0拔林","LANE":" ","ALLEY":" ","HOUSE_NO":"４８７號之１７","E_COORD97":183397.07000000001,"N_COORD97":2551713.2599999998,"ADDRESS":"\u25A0拔林４８７號之１７","OBJECTID":75859},"geometry":{"x":183397.07000000216,"y":2551713.2600000016}},{"attributes":{"ID":75860,"DIS_CODE":0,"TOWNNAME":"新化區","LI":"羊林里","LIN":"6鄰","STREET":" ","SECT":" ","MAREA":"\u25A0拔林","LANE":" ","ALLEY":" ","HOUSE_NO":"４８３號之１","E_COORD97":183500.64999999999,"N_COORD97":2551734.2599999998,"ADDRESS":"\u25A0拔林４８３號之１","OBJECTID":75860},"geometry":{"x":183500.6500000013,"y":2551734.2599999998}},{"attributes":{"ID":75861,"DIS_CODE":0,"TOWNNAME":"新化區","LI":"礁坑里","LIN":"6鄰","STREET":" ","SECT":" ","MAREA":"三十六崙","LANE":" ","ALLEY":" ","HOUSE_NO":"６號之１","E_COORD97":185103.20000000001,"N_COORD97":2549553.2599999998,"ADDRESS":"三十六崙６號之１","OBJECTID":75861},"geometry":{"x":185103.20000000112,"y":2549553.2600000016}},{"attributes":{"ID":75862,"DIS_CODE":0,"TOWNNAME":"新化區","LI":"北勢里","LIN":"6鄰","STREET":" ","SECT":" ","MAREA":"北勢","LANE":" ","ALLEY":" ","HOUSE_NO":"１１１號","E_COORD97":177140.98000000001,"N_COORD97":2549727.2599999998,"ADDRESS":"北勢１１１號","OBJECTID":75862},"geometry":{"x":177140.98000000138,"y":2549727.2599999998}},{"attributes":{"ID":75863,"DIS_CODE":0,"TOWNNAME":"新化區","LI":"\u25A0拔里","LIN":"6鄰","STREET":" ","SECT":" ","MAREA":"\u25A0拔林","LANE":" ","ALLEY":" ","HOUSE_NO":"２６５號之１","E_COORD97":183556.64999999999,"N_COORD97":2551937.2599999998,"ADDRESS":"\u25A0拔林２６５號之１","OBJECTID":75863},"geometry":{"x":183556.6500000013,"y":2551937.2599999998}},{"attributes":{"ID":75864,"DIS_CODE":0,"TOWNNAME":"新化區","LI":"礁坑里","LIN":"6鄰","STREET":" ","SECT":" ","MAREA":"三十六崙","LANE":" ","ALLEY":" ","HOUSE_NO":"９５號","E_COORD97":184932.01999999999,"N_COORD97":2549226.25,"ADDRESS":"三十六崙９５號","OBJECTID":75864},"geometry":{"x":184932.01999999955,"y":2549226.25}},{"attributes":{"ID":75865,"DIS_CODE":0,"TOWNNAME":"新化區","LI":"全興里","LIN":"6鄰","STREET":" ","SECT":" ","MAREA":"竹子\u25A0","LANE":" ","ALLEY":" ","HOUSE_NO":"７４號之１","E_COORD97":177582.10999999999,"N_COORD97":2547706.2599999998,"ADDRESS":"竹子\u25A0７４號之１","OBJECTID":75865},"geometry":{"x":177582.1099999994,"y":2547706.2599999998}},{"attributes":{"ID":75866,"DIS_CODE":0,"TOWNNAME":"新化區","LI":"北勢里","LIN":"6鄰","STREET":" ","SECT":" ","MAREA":"北勢","LANE":" ","ALLEY":" ","HOUSE_NO":"１００號之２０","E_COORD97":177306.76999999999,"N_COORD97":2549730.2599999998,"ADDRESS":"北勢１００號之２０","OBJECTID":75866},"geometry":{"x":177306.76999999955,"y":2549730.2599999998}},{"attributes":{"ID":75867,"DIS_CODE":0,"TOWNNAME":"新化區","LI":"北勢里","LIN":"6鄰","STREET":" ","SECT":" ","MAREA":"北勢","LANE":" ","ALLEY":" ","HOUSE_NO":"１００號之３","E_COORD97":177204.32999999999,"N_COORD97":2549766.2599999998,"ADDRESS":"北勢１００號之３","OBJECTID":75867},"geometry":{"x":177204.33000000101,"y":2549766.2600000016}},{"attributes":{"ID":75868,"DIS_CODE":0,"TOWNNAME":"新化區","LI":"大坑里","LIN":"6鄰","STREET":" ","SECT":" ","MAREA":"大坑尾","LANE":" ","ALLEY":" ","HOUSE_NO":"１４６號","E_COORD97":186979.32999999999,"N_COORD97":2545862.25,"ADDRESS":"大坑尾１４６號","OBJECTID":75868},"geometry":{"x":186979.33000000101,"y":2545862.25}},{"attributes":{"ID":75869,"DIS_CODE":0,"TOWNNAME":"新化區","LI":"\u25A0拔里","LIN":"6鄰","STREET":" ","SECT":" ","MAREA":"\u25A0拔林","LANE":" ","ALLEY":" ","HOUSE_NO":"２３６號","E_COORD97":183589.82000000001,"N_COORD97":2551980.25,"ADDRESS":"\u25A0拔林２３６號","OBJECTID":75869},"geometry":{"x":183589.8200000003,"y":2551980.2500000019}},{"attributes":{"ID":75870,"DIS_CODE":0,"TOWNNAME":"新化區","LI":"豐榮里","LIN":"6鄰","STREET":" ","SECT":" ","MAREA":"洋子","LANE":" ","ALLEY":" ","HOUSE_NO":"１０９號之６","E_COORD97":177878.63,"N_COORD97":2548210.2599999998,"ADDRESS":"洋子１０９號之６","OBJECTID":75870},"geometry":{"x":177878.63000000082,"y":2548210.2600000016}},{"attributes":{"ID":75871,"DIS_CODE":0,"TOWNNAME":"歸仁區","LI":"許厝里","LIN":"13鄰","STREET":"中山路","SECT":"一段","MAREA":" ","LANE":" ","ALLEY":" ","HOUSE_NO":"４９５號","E_COORD97":178013.51000000001,"N_COORD97":2540712.25,"ADDRESS":"中山路一段４９５號","OBJECTID":75871},"geometry":{"x":178013.51000000071,"y":2540712.25}},{"attributes":{"ID":75872,"DIS_CODE":0,"TOWNNAME":"歸仁區","LI":"辜厝里","LIN":"13鄰","STREET":"大順街","SECT":" ","MAREA":" ","LANE":" ","ALLEY":" ","HOUSE_NO":"６號","E_COORD97":177507.42000000001,"N_COORD97":2540525.5899999999,"ADDRESS":"大順街６號","OBJECTID":75872},"geometry":{"x":177507.42000000086,"y":2540525.5900000017}},{"attributes":{"ID":75873,"DIS_CODE":0,"TOWNNAME":"北區","LI":"興南里","LIN":"7鄰","STREET":"公園路","SECT":" ","MAREA":" ","LANE":" ","ALLEY":" ","HOUSE_NO":"３３３號","E_COORD97":169077.23000000001,"N_COORD97":2545031.5099999998,"ADDRESS":"公園路３３３號","OBJECTID":75873},"geometry":{"x":169077.23000000138,"y":2545031.5100000016}},{"attributes":{"ID":75874,"DIS_CODE":0,"TOWNNAME":"永康區","LI":"中華里","LIN":"19鄰","STREET":"小東路","SECT":" ","MAREA":" ","LANE":"４７７巷","ALLEY":"４６弄","HOUSE_NO":"１號之３１","E_COORD97":171658.35999999999,"N_COORD97":2544537.0499999998,"ADDRESS":"小東路４７７巷４６弄１號之３１","OBJECTID":75874},"geometry":{"x":171658.36000000127,"y":2544537.0500000026}},{"attributes":{"ID":75875,"DIS_CODE":0,"TOWNNAME":"永康區","LI":"中華里","LIN":"19鄰","STREET":"小東路","SECT":" ","MAREA":" ","LANE":"４７７巷","ALLEY":"４６弄","HOUSE_NO":"１號之４０","E_COORD97":171658.42000000001,"N_COORD97":2544537.0499999998,"ADDRESS":"小東路４７７巷４６弄１號之４０","OBJECTID":75875},"geometry":{"x":171658.42000000179,"y":2544537.0500000026}},{"attributes":{"ID":75876,"DIS_CODE":0,"TOWNNAME":"永康區","LI":"中華里","LIN":"19鄰","STREET":"小東路","SECT":" ","MAREA":" ","LANE":"４７７巷","ALLEY":"４６弄","HOUSE_NO":"１號之２７","E_COORD97":171658.44,"N_COORD97":2544537.0499999998,"ADDRESS":"小東路４７７巷４６弄１號之２７","OBJECTID":75876},"geometry":{"x":171658.44000000041,"y":2544537.0500000026}},{"attributes":{"ID":75877,"DIS_CODE":0,"TOWNNAME":"永康區","LI":"中華里","LIN":"19鄰","STREET":"小東路","SECT":" ","MAREA":" ","LANE":"４７７巷","ALLEY":"４６弄","HOUSE_NO":"１號之１９","E_COORD97":171658.45000000001,"N_COORD97":2544537.0499999998,"ADDRESS":"小東路４７７巷４６弄１號之１９","OBJECTID":75877},"geometry":{"x":171658.45000000205,"y":2544537.0500000026}},{"attributes":{"ID":75878,"DIS_CODE":0,"TOWNNAME":"永康區","LI":"中華里","LIN":"19鄰","STREET":"小東路","SECT":" ","MAREA":" ","LANE":"４７７巷","ALLEY":"４６弄","HOUSE_NO":"５號之２２","E_COORD97":171654.45000000001,"N_COORD97":2544535.6600000001,"ADDRESS":"小東路４７７巷４６弄５號之２２","OBJECTID":75878},"geometry":{"x":171654.45000000019,"y":2544535.660000002}},{"attributes":{"ID":75879,"DIS_CODE":0,"TOWNNAME":"永康區","LI":"中華里","LIN":"19鄰","STREET":"小東路","SECT":" ","MAREA":" ","LANE":"４７７巷","ALLEY":"４６弄","HOUSE_NO":"３號之３","E_COORD97":171646.01999999999,"N_COORD97":2544536.3999999999,"ADDRESS":"小東路４７７巷４６弄３號之３","OBJECTID":75879},"geometry":{"x":171646.02000000048,"y":2544536.4000000004}},{"attributes":{"ID":75880,"DIS_CODE":0,"TOWNNAME":"永康區","LI":"中華里","LIN":"19鄰","STREET":"小東路","SECT":" ","MAREA":" ","LANE":"４７７巷","ALLEY":"４６弄","HOUSE_NO":"１號之３９","E_COORD97":171658.45000000001,"N_COORD97":2544537.0499999998,"ADDRESS":"小東路４７７巷４６弄１號之３９","OBJECTID":75880},"geometry":{"x":171658.45000000205,"y":2544537.0500000026}},{"attributes":{"ID":75881,"DIS_CODE":0,"TOWNNAME":"永康區","LI":"中華里","LIN":"19鄰","STREET":"小東路","SECT":" ","MAREA":" ","LANE":"４７７巷","ALLEY":"４６弄","HOUSE_NO":"１號之１７","E_COORD97":171658.44,"N_COORD97":2544537.0499999998,"ADDRESS":"小東路４７７巷４６弄１號之１７","OBJECTID":75881},"geometry":{"x":171658.44000000041,"y":2544537.0500000026}},{"attributes":{"ID":75882,"DIS_CODE":0,"TOWNNAME":"永康區","LI":"中華里","LIN":"19鄰","STREET":"小東路","SECT":" ","MAREA":" ","LANE":"４７７巷","ALLEY":"４６弄","HOUSE_NO":"５號之４","E_COORD97":171653.09,"N_COORD97":2544535.6600000001,"ADDRESS":"小東路４７７巷４６弄５號之４","OBJECTID":75882},"geometry":{"x":171653.08999999985,"y":2544535.660000002}},{"attributes":{"ID":75883,"DIS_CODE":0,"TOWNNAME":"歸仁區","LI":"辜厝里","LIN":"7鄰","STREET":"大順街","SECT":" ","MAREA":" ","LANE":" ","ALLEY":" ","HOUSE_NO":"３８號","E_COORD97":177447.07999999999,"N_COORD97":2540577.1499999999,"ADDRESS":"大順街３８號","OBJECTID":75883},"geometry":{"x":177447.08000000101,"y":2540577.1500000022}},{"attributes":{"ID":75884,"DIS_CODE":0,"TOWNNAME":"新營區","LI":"埤寮里","LIN":" ","STREET":"建國路","SECT":" ","MAREA":" ","LANE":" ","ALLEY":" ","HOUSE_NO":"２７之２號","E_COORD97":179921.84,"N_COORD97":2580998.4700000002,"ADDRESS":"建國路２７之２號","OBJECTID":75884},"geometry":{"x":179921.84000000078,"y":2580998.4700000025}},{"attributes":{"ID":75885,"DIS_CODE":0,"TOWNNAME":"歸仁區","LI":"崙頂里","LIN":"18鄰","STREET":"大成一街","SECT":" ","MAREA":" ","LANE":" ","ALLEY":" ","HOUSE_NO":"１１５號","E_COORD97":177909.23000000001,"N_COORD97":2540188.9100000001,"ADDRESS":"大成一街１１５號","OBJECTID":75885},"geometry":{"x":177909.23000000138,"y":2540188.9100000001}},{"attributes":{"ID":75886,"DIS_CODE":0,"TOWNNAME":"歸仁區","LI":"辜厝里","LIN":"32鄰","STREET":"中正南路","SECT":"一段","MAREA":" ","LANE":" ","ALLEY":" ","HOUSE_NO":"２１４號","E_COORD97":177339.54999999999,"N_COORD97":2540355.4500000002,"ADDRESS":"中正南路一段２１４號","OBJECTID":75886},"geometry":{"x":177339.54999999888,"y":2540355.450000003}},{"attributes":{"ID":75887,"DIS_CODE":0,"TOWNNAME":"新化區","LI":"羊林里","LIN":"6鄰","STREET":" ","SECT":" ","MAREA":"\u25A0拔林","LANE":" ","ALLEY":" ","HOUSE_NO":"５０１號之９","E_COORD97":183544.47,"N_COORD97":2551650.2599999998,"ADDRESS":"\u25A0拔林５０１號之９","OBJECTID":75887},"geometry":{"x":183544.4700000016,"y":2551650.2599999998}},{"attributes":{"ID":75888,"DIS_CODE":0,"TOWNNAME":"新化區","LI":"唪口里","LIN":"6鄰","STREET":" ","SECT":" ","MAREA":"唪口","LANE":" ","ALLEY":" ","HOUSE_NO":"７１號","E_COORD97":178037.10000000001,"N_COORD97":2549003.25,"ADDRESS":"唪口７１號","OBJECTID":75888},"geometry":{"x":178037.09999999963,"y":2549003.2500000037}},{"attributes":{"ID":75889,"DIS_CODE":0,"TOWNNAME":"新化區","LI":"北勢里","LIN":"6鄰","STREET":" ","SECT":" ","MAREA":"北勢","LANE":" ","ALLEY":" ","HOUSE_NO":"１００號之１６","E_COORD97":177319.07999999999,"N_COORD97":2549750.2599999998,"ADDRESS":"北勢１００號之１６","OBJECTID":75889},"geometry":{"x":177319.08000000007,"y":2549750.2600000016}},{"attributes":{"ID":75890,"DIS_CODE":0,"TOWNNAME":"新化區","LI":"崙頂里","LIN":"6鄰","STREET":" ","SECT":" ","MAREA":"崙子頂","LANE":" ","ALLEY":" ","HOUSE_NO":"２５８號之２","E_COORD97":176689.12825000001,"N_COORD97":2547073.77703,"ADDRESS":"崙子頂２５８號之２","OBJECTID":75890},"geometry":{"x":176689.128250001,"y":2547073.7770250011}},{"attributes":{"ID":75891,"DIS_CODE":0,"TOWNNAME":"新化區","LI":"礁坑里","LIN":"6鄰","STREET":" ","SECT":" ","MAREA":"三十六崙","LANE":" ","ALLEY":" ","HOUSE_NO":"２５號","E_COORD97":184951.22,"N_COORD97":2549185.25,"ADDRESS":"三十六崙２５號","OBJECTID":75891},"geometry":{"x":184951.21999999974,"y":2549185.25}},{"attributes":{"ID":75892,"DIS_CODE":0,"TOWNNAME":"新化區","LI":"\u25A0拔里","LIN":"6鄰","STREET":" ","SECT":" ","MAREA":"\u25A0拔林","LANE":" ","ALLEY":" ","HOUSE_NO":"２６６號之１","E_COORD97":183547.85000000001,"N_COORD97":2551938.2599999998,"ADDRESS":"\u25A0拔林２６６號之１","OBJECTID":75892},"geometry":{"x":183547.84999999963,"y":2551938.2599999998}},{"attributes":{"ID":75893,"DIS_CODE":0,"TOWNNAME":"新化區","LI":"礁坑里","LIN":"6鄰","STREET":" ","SECT":" ","MAREA":"三十六崙","LANE":" ","ALLEY":" ","HOUSE_NO":"８號","E_COORD97":184833.26999999999,"N_COORD97":2549182.25,"ADDRESS":"三十六崙８號","OBJECTID":75893},"geometry":{"x":184833.26999999955,"y":2549182.25}},{"attributes":{"ID":75894,"DIS_CODE":0,"TOWNNAME":"新化區","LI":"北勢里","LIN":"6鄰","STREET":" ","SECT":" ","MAREA":"北勢","LANE":" ","ALLEY":" ","HOUSE_NO":"１０５號之５","E_COORD97":177123.64000000001,"N_COORD97":2549696.2599999998,"ADDRESS":"北勢１０５號之５","OBJECTID":75894},"geometry":{"x":177123.64000000153,"y":2549696.2599999998}},{"attributes":{"ID":75895,"DIS_CODE":0,"TOWNNAME":"新化區","LI":"唪口里","LIN":"6鄰","STREET":" ","SECT":" ","MAREA":"唪口","LANE":" ","ALLEY":" ","HOUSE_NO":"８６號之５","E_COORD97":178049.66,"N_COORD97":2549089.2599999998,"ADDRESS":"唪口８６號之５","OBJECTID":75895},"geometry":{"x":178049.66000000201,"y":2549089.2599999998}},{"attributes":{"ID":75896,"DIS_CODE":0,"TOWNNAME":"新化區","LI":"唪口里","LIN":"6鄰","STREET":" ","SECT":" ","MAREA":"唪口","LANE":" ","ALLEY":" ","HOUSE_NO":"５９號之３","E_COORD97":178082.14000000001,"N_COORD97":2549096.2599999998,"ADDRESS":"唪口５９號之３","OBJECTID":75896},"geometry":{"x":178082.1400000006,"y":2549096.2599999998}},{"attributes":{"ID":75897,"DIS_CODE":0,"TOWNNAME":"新化區","LI":"崙頂里","LIN":"6鄰","STREET":" ","SECT":" ","MAREA":"崙子頂","LANE":" ","ALLEY":" ","HOUSE_NO":"２４５號","E_COORD97":176660.13,"N_COORD97":2546997.25,"ADDRESS":"崙子頂２４５號","OBJECTID":75897},"geometry":{"x":176660.13000000082,"y":2546997.2500000019}},{"attributes":{"ID":75898,"DIS_CODE":0,"TOWNNAME":"新化區","LI":"礁坑里","LIN":"6鄰","STREET":" ","SECT":" ","MAREA":"三十六崙","LANE":" ","ALLEY":" ","HOUSE_NO":"１４０號","E_COORD97":184888.76999999999,"N_COORD97":2549213.25,"ADDRESS":"三十六崙１４０號","OBJECTID":75898},"geometry":{"x":184888.77000000048,"y":2549213.2500000037}},{"attributes":{"ID":75899,"DIS_CODE":0,"TOWNNAME":"新化區","LI":"豐榮里","LIN":"6鄰","STREET":" ","SECT":" ","MAREA":"洋子","LANE":" ","ALLEY":" ","HOUSE_NO":"１３４號","E_COORD97":177863.57999999999,"N_COORD97":2548136.25,"ADDRESS":"洋子１３４號","OBJECTID":75899},"geometry":{"x":177863.58000000194,"y":2548136.2500000019}},{"attributes":{"ID":75900,"DIS_CODE":0,"TOWNNAME":"新化區","LI":"唪口里","LIN":"6鄰","STREET":" ","SECT":" ","MAREA":"唪口","LANE":" ","ALLEY":" ","HOUSE_NO":"６６號之１","E_COORD97":178080.92999999999,"N_COORD97":2548987.2599999998,"ADDRESS":"唪口６６號之１","OBJECTID":75900},"geometry":{"x":178080.9299999997,"y":2548987.2600000016}},{"attributes":{"ID":75901,"DIS_CODE":0,"TOWNNAME":"北區","LI":"興南里","LIN":"7鄰","STREET":"公園北路","SECT":" ","MAREA":" ","LANE":" ","ALLEY":" ","HOUSE_NO":"９８號","E_COORD97":169033.60000000001,"N_COORD97":2545034.3599999999,"ADDRESS":"公園北路９８號","OBJECTID":75901},"geometry":{"x":169033.59999999963,"y":2545034.3599999994}},{"attributes":{"ID":75902,"DIS_CODE":0,"TOWNNAME":"北區","LI":"興南里","LIN":"7鄰","STREET":"公園北路","SECT":" ","MAREA":" ","LANE":" ","ALLEY":" ","HOUSE_NO":"９８號之１","E_COORD97":169030.84,"N_COORD97":2545035.96,"ADDRESS":"公園北路９８號之１","OBJECTID":75902},"geometry":{"x":169030.83999999985,"y":2545035.9600000046}},{"attributes":{"ID":75903,"DIS_CODE":0,"TOWNNAME":"北區","LI":"興南里","LIN":"7鄰","STREET":"公園北路","SECT":" ","MAREA":" ","LANE":" ","ALLEY":" ","HOUSE_NO":"９８號之２","E_COORD97":169026.48999999999,"N_COORD97":2545037.3300000001,"ADDRESS":"公園北路９８號之２","OBJECTID":75903},"geometry":{"x":169026.49000000022,"y":2545037.3300000019}},{"attributes":{"ID":75904,"DIS_CODE":0,"TOWNNAME":"歸仁區","LI":"七甲里","LIN":"7鄰","STREET":"七甲一街","SECT":" ","MAREA":" ","LANE":" ","ALLEY":" ","HOUSE_NO":"１０３號","E_COORD97":177620.14000000001,"N_COORD97":2542686.6600000001,"ADDRESS":"七甲一街１０３號","OBJECTID":75904},"geometry":{"x":177620.13999999966,"y":2542686.6600000001}},{"attributes":{"ID":75905,"DIS_CODE":0,"TOWNNAME":"歸仁區","LI":"大廟里","LIN":"7鄰","STREET":"大廟一街","SECT":" ","MAREA":" ","LANE":" ","ALLEY":" ","HOUSE_NO":"１２９號","E_COORD97":175723.42000000001,"N_COORD97":2543881.2400000002,"ADDRESS":"大廟一街１２９號","OBJECTID":75905},"geometry":{"x":175723.42000000179,"y":2543881.2400000021}},{"attributes":{"ID":75906,"DIS_CODE":0,"TOWNNAME":"歸仁區","LI":"文化里","LIN":"7鄰","STREET":"文化三街","SECT":" ","MAREA":" ","LANE":" ","ALLEY":" ","HOUSE_NO":"１４號","E_COORD97":177221.56,"N_COORD97":2541242.3399999999,"ADDRESS":"文化三街１４號","OBJECTID":75906},"geometry":{"x":177221.55999999959,"y":2541242.3400000017}},{"attributes":{"ID":75907,"DIS_CODE":0,"TOWNNAME":"歸仁區","LI":"沙崙里","LIN":"7鄰","STREET":" ","SECT":" ","MAREA":"沙崙","LANE":" ","ALLEY":" ","HOUSE_NO":"２６５號","E_COORD97":179583.98000000001,"N_COORD97":2537911.25,"ADDRESS":"沙崙２６５號","OBJECTID":75907},"geometry":{"x":179583.98000000138,"y":2537911.2500000019}},{"attributes":{"ID":75908,"DIS_CODE":0,"TOWNNAME":"新化區","LI":"崙頂里","LIN":"6鄰","STREET":" ","SECT":" ","MAREA":"崙子頂","LANE":" ","ALLEY":" ","HOUSE_NO":"２５６號","E_COORD97":176672.42999999999,"N_COORD97":2547061.25,"ADDRESS":"崙子頂２５６號","OBJECTID":75908},"geometry":{"x":176672.43000000156,"y":2547061.2500000019}},{"attributes":{"ID":75909,"DIS_CODE":0,"TOWNNAME":"新化區","LI":"大坑里","LIN":"6鄰","STREET":" ","SECT":" ","MAREA":"大坑尾","LANE":" ","ALLEY":" ","HOUSE_NO":"１３７號","E_COORD97":187065.82999999999,"N_COORD97":2545864.25,"ADDRESS":"大坑尾１３７號","OBJECTID":75909},"geometry":{"x":187065.83000000101,"y":2545864.2500000019}},{"attributes":{"ID":75910,"DIS_CODE":0,"TOWNNAME":"新化區","LI":"\u25A0拔里","LIN":"6鄰","STREET":" ","SECT":" ","MAREA":"\u25A0拔林","LANE":" ","ALLEY":" ","HOUSE_NO":"２６９號","E_COORD97":183526.51999999999,"N_COORD97":2551900.25,"ADDRESS":"\u25A0拔林２６９號","OBJECTID":75910},"geometry":{"x":183526.51999999955,"y":2551900.25}},{"attributes":{"ID":75911,"DIS_CODE":0,"TOWNNAME":"新化區","LI":"大坑里","LIN":"6鄰","STREET":" ","SECT":" ","MAREA":"大坑尾","LANE":" ","ALLEY":" ","HOUSE_NO":"１３８號","E_COORD97":187067.42999999999,"N_COORD97":2545812.25,"ADDRESS":"大坑尾１３８號","OBJECTID":75911},"geometry":{"x":187067.43000000156,"y":2545812.25}},{"attributes":{"ID":75912,"DIS_CODE":0,"TOWNNAME":"新化區","LI":"唪口里","LIN":"6鄰","STREET":" ","SECT":" ","MAREA":"唪口","LANE":" ","ALLEY":" ","HOUSE_NO":"６８號之１０","E_COORD97":178099.89000000001,"N_COORD97":2548985.2599999998,"ADDRESS":"唪口６８號之１０","OBJECTID":75912},"geometry":{"x":178099.88999999966,"y":2548985.2599999998}},{"attributes":{"ID":75913,"DIS_CODE":0,"TOWNNAME":"新化區","LI":"豐榮里","LIN":"6鄰","STREET":" ","SECT":" ","MAREA":"洋子","LANE":" ","ALLEY":" ","HOUSE_NO":"１４１號","E_COORD97":177847.07999999999,"N_COORD97":2548140.25,"ADDRESS":"洋子１４１號","OBJECTID":75913},"geometry":{"x":177847.08000000101,"y":2548140.25}},{"attributes":{"ID":75914,"DIS_CODE":0,"TOWNNAME":"新化區","LI":"豐榮里","LIN":"6鄰","STREET":" ","SECT":" ","MAREA":"洋子","LANE":" ","ALLEY":" ","HOUSE_NO":"１５０號之１","E_COORD97":177803.01000000001,"N_COORD97":2548062.2599999998,"ADDRESS":"洋子１５０號之１","OBJECTID":75914},"geometry":{"x":177803.01000000071,"y":2548062.2599999998}},{"attributes":{"ID":75915,"DIS_CODE":0,"TOWNNAME":"新化區","LI":"崙頂里","LIN":"6鄰","STREET":" ","SECT":" ","MAREA":"崙子頂","LANE":" ","ALLEY":" ","HOUSE_NO":"２４３號之１","E_COORD97":176618.66,"N_COORD97":2547025.2599999998,"ADDRESS":"崙子頂２４３號之１","OBJECTID":75915},"geometry":{"x":176618.66000000015,"y":2547025.2599999998}},{"attributes":{"ID":75916,"DIS_CODE":0,"TOWNNAME":"新化區","LI":"礁坑里","LIN":"6鄰","STREET":" ","SECT":" ","MAREA":"三十六崙","LANE":" ","ALLEY":" ","HOUSE_NO":"１５２號","E_COORD97":184635.76999999999,"N_COORD97":2549172.25,"ADDRESS":"三十六崙１５２號","OBJECTID":75916},"geometry":{"x":184635.77000000142,"y":2549172.25}},{"attributes":{"ID":75917,"DIS_CODE":0,"TOWNNAME":"新化區","LI":"唪口里","LIN":"6鄰","STREET":" ","SECT":" ","MAREA":"唪口","LANE":" ","ALLEY":" ","HOUSE_NO":"７４號","E_COORD97":177994.10000000001,"N_COORD97":2549016.25,"ADDRESS":"唪口７４號","OBJECTID":75917},"geometry":{"x":177994.10000000056,"y":2549016.25}},{"attributes":{"ID":75918,"DIS_CODE":0,"TOWNNAME":"新化區","LI":"崙頂里","LIN":"6鄰","STREET":" ","SECT":" ","MAREA":"崙子頂","LANE":" ","ALLEY":" ","HOUSE_NO":"２４３號","E_COORD97":176632.13,"N_COORD97":2547007.25,"ADDRESS":"崙子頂２４３號","OBJECTID":75918},"geometry":{"x":176632.12999999989,"y":2547007.2500000019}},{"attributes":{"ID":75919,"DIS_CODE":0,"TOWNNAME":"永康區","LI":"中華里","LIN":"19鄰","STREET":"小東路","SECT":" ","MAREA":" ","LANE":"４７７巷","ALLEY":"４６弄","HOUSE_NO":"３號之５","E_COORD97":171646.07999999999,"N_COORD97":2544536.3999999999,"ADDRESS":"小東路４７７巷４６弄３號之５","OBJECTID":75919},"geometry":{"x":171646.08000000101,"y":2544536.4000000004}},{"attributes":{"ID":75920,"DIS_CODE":0,"TOWNNAME":"永康區","LI":"中華里","LIN":"19鄰","STREET":"小東路","SECT":" ","MAREA":" ","LANE":"４７７巷","ALLEY":"４６弄","HOUSE_NO":"１號之４４","E_COORD97":171658.39000000001,"N_COORD97":2544537.0499999998,"ADDRESS":"小東路４７７巷４６弄１號之４４","OBJECTID":75920},"geometry":{"x":171658.39000000153,"y":2544537.0500000026}},{"attributes":{"ID":75921,"DIS_CODE":0,"TOWNNAME":"永康區","LI":"中華里","LIN":"19鄰","STREET":"小東路","SECT":" ","MAREA":" ","LANE":"４７７巷","ALLEY":"４６弄","HOUSE_NO":"５號之２４","E_COORD97":171654.34,"N_COORD97":2544535.6600000001,"ADDRESS":"小東路４７７巷４６弄５號之２４","OBJECTID":75921},"geometry":{"x":171654.34000000078,"y":2544535.660000002}},{"attributes":{"ID":75922,"DIS_CODE":0,"TOWNNAME":"永康區","LI":"中華里","LIN":"19鄰","STREET":"小東路","SECT":" ","MAREA":" ","LANE":"４７７巷","ALLEY":"４６弄","HOUSE_NO":"５號之２１","E_COORD97":171654.31,"N_COORD97":2544535.6600000001,"ADDRESS":"小東路４７７巷４６弄５號之２１","OBJECTID":75922},"geometry":{"x":171654.31000000052,"y":2544535.660000002}},{"attributes":{"ID":75923,"DIS_CODE":0,"TOWNNAME":"永康區","LI":"大橋里","LIN":"19鄰","STREET":"大橋一街","SECT":" ","MAREA":" ","LANE":"１３９巷","ALLEY":"２２弄","HOUSE_NO":"３７號","E_COORD97":171024.17999999999,"N_COORD97":2546584.29,"ADDRESS":"大橋一街１３９巷２２弄３７號","OBJECTID":75923},"geometry":{"x":171024.18000000156,"y":2546584.2899999972}},{"attributes":{"ID":75924,"DIS_CODE":0,"TOWNNAME":"永康區","LI":"大橋里","LIN":"19鄰","STREET":"大橋一街","SECT":" ","MAREA":" ","LANE":"１３９巷","ALLEY":"２２弄","HOUSE_NO":"４１號","E_COORD97":171033.07999999999,"N_COORD97":2546590.04,"ADDRESS":"大橋一街１３９巷２２弄４１號","OBJECTID":75924},"geometry":{"x":171033.08000000007,"y":2546590.040000001}},{"attributes":{"ID":75925,"DIS_CODE":0,"TOWNNAME":"新化區","LI":"\u25A0拔里","LIN":"6鄰","STREET":" ","SECT":" ","MAREA":"\u25A0拔林","LANE":" ","ALLEY":" ","HOUSE_NO":"２６５號","E_COORD97":183560.82000000001,"N_COORD97":2551936.25,"ADDRESS":"\u25A0拔林２６５號","OBJECTID":75925},"geometry":{"x":183560.8200000003,"y":2551936.2500000019}},{"attributes":{"ID":75926,"DIS_CODE":0,"TOWNNAME":"新化區","LI":"全興里","LIN":"6鄰","STREET":" ","SECT":" ","MAREA":"竹子\u25A0","LANE":" ","ALLEY":" ","HOUSE_NO":"７８號","E_COORD97":177584.88,"N_COORD97":2547746.25,"ADDRESS":"竹子\u25A0７８號","OBJECTID":75926},"geometry":{"x":177584.87999999896,"y":2547746.2500000019}},{"attributes":{"ID":75927,"DIS_CODE":0,"TOWNNAME":"永康區","LI":"大橋里","LIN":"19鄰","STREET":"大橋一街","SECT":" ","MAREA":" ","LANE":"１３９巷","ALLEY":"２２弄","HOUSE_NO":"５３號","E_COORD97":171050.63,"N_COORD97":2546593.54,"ADDRESS":"大橋一街１３９巷２２弄５３號","OBJECTID":75927},"geometry":{"x":171050.63000000082,"y":2546593.540000001}},{"attributes":{"ID":75928,"DIS_CODE":0,"TOWNNAME":"仁德區","LI":"仁義里","LIN":"19鄰","STREET":"中山路","SECT":" ","MAREA":" ","LANE":"３２８巷","ALLEY":"１６弄","HOUSE_NO":"２２號","E_COORD97":174019.64000000001,"N_COORD97":2541299.7400000002,"ADDRESS":"中山路３２８巷１６弄２２號","OBJECTID":75928},"geometry":{"x":174019.63999999873,"y":2541299.7400000002}},{"attributes":{"ID":75929,"DIS_CODE":0,"TOWNNAME":"安南區","LI":"溪東里","LIN":"19鄰","STREET":"府安路","SECT":"五段","MAREA":" ","LANE":"１１巷","ALLEY":"９３弄","HOUSE_NO":"１９號","E_COORD97":168359.16,"N_COORD97":2547611.2400000002,"ADDRESS":"府安路五段１１巷９３弄１９號","OBJECTID":75929},"geometry":{"x":168359.16000000015,"y":2547611.2400000021}},{"attributes":{"ID":75930,"DIS_CODE":0,"TOWNNAME":"安南區","LI":"溪東里","LIN":"19鄰","STREET":"府安路","SECT":"五段","MAREA":" ","LANE":"１１巷","ALLEY":"９３弄","HOUSE_NO":"２２號","E_COORD97":168350.39999999999,"N_COORD97":2547630.2000000002,"ADDRESS":"府安路五段１１巷９３弄２２號","OBJECTID":75930},"geometry":{"x":168350.4000000013,"y":2547630.2000000011}},{"attributes":{"ID":75931,"DIS_CODE":0,"TOWNNAME":"安南區","LI":"溪東里","LIN":"19鄰","STREET":"府安路","SECT":"五段","MAREA":" ","LANE":"１１巷","ALLEY":"９３弄","HOUSE_NO":"２３號","E_COORD97":168347.07999999999,"N_COORD97":2547609.46,"ADDRESS":"府安路五段１１巷９３弄２３號","OBJECTID":75931},"geometry":{"x":168347.08000000101,"y":2547609.4600000028}},{"attributes":{"ID":75932,"DIS_CODE":0,"TOWNNAME":"安南區","LI":"溪東里","LIN":"19鄰","STREET":"府安路","SECT":"五段","MAREA":" ","LANE":"１１巷","ALLEY":"９３弄","HOUSE_NO":"２４號","E_COORD97":168343.09,"N_COORD97":2547628.4900000002,"ADDRESS":"府安路五段１１巷９３弄２４號","OBJECTID":75932},"geometry":{"x":168343.09000000171,"y":2547628.4900000039}},{"attributes":{"ID":75933,"DIS_CODE":0,"TOWNNAME":"安南區","LI":"溪東里","LIN":"19鄰","STREET":"府安路","SECT":"五段","MAREA":" ","LANE":"１１巷","ALLEY":"９３弄","HOUSE_NO":"２６號","E_COORD97":168337.06,"N_COORD97":2547628.4300000002,"ADDRESS":"府安路五段１１巷９３弄２６號","OBJECTID":75933},"geometry":{"x":168337.05999999959,"y":2547628.4300000034}},{"attributes":{"ID":75934,"DIS_CODE":0,"TOWNNAME":"安南區","LI":"溪東里","LIN":"19鄰","STREET":"府安路","SECT":"五段","MAREA":" ","LANE":"１１巷","ALLEY":"９３弄","HOUSE_NO":"２１號","E_COORD97":168353.12,"N_COORD97":2547610.3799999999,"ADDRESS":"府安路五段１１巷９３弄２１號","OBJECTID":75934},"geometry":{"x":168353.12000000011,"y":2547610.379999999}},{"attributes":{"ID":75935,"DIS_CODE":0,"TOWNNAME":"歸仁區","LI":"看東里","LIN":"4鄰","STREET":"成功路","SECT":"一段","MAREA":" ","LANE":" ","ALLEY":" ","HOUSE_NO":"１９６號","E_COORD97":178462.53,"N_COORD97":2540186.8300000001,"ADDRESS":"成功路一段１９６號","OBJECTID":75935},"geometry":{"x":178462.53000000212,"y":2540186.8300000001}},{"attributes":{"ID":75936,"DIS_CODE":0,"TOWNNAME":"西港區","LI":"營西里","LIN":"6鄰","STREET":" ","SECT":" ","MAREA":"後營","LANE":" ","ALLEY":" ","HOUSE_NO":"５４號","E_COORD97":169692.14999999999,"N_COORD97":2560300.5499999998,"ADDRESS":"後營５４號","OBJECTID":75936},"geometry":{"x":169692.15000000037,"y":2560300.5500000007}},{"attributes":{"ID":75937,"DIS_CODE":0,"TOWNNAME":"歸仁區","LI":"大潭里","LIN":"7鄰","STREET":"長榮路","SECT":"一段","MAREA":" ","LANE":" ","ALLEY":" ","HOUSE_NO":"２３３號","E_COORD97":175141.07000000001,"N_COORD97":2534553.2799999998,"ADDRESS":"長榮路一段２３３號","OBJECTID":75937},"geometry":{"x":175141.0700000003,"y":2534553.2800000012}},{"attributes":{"ID":75938,"DIS_CODE":0,"TOWNNAME":"歸仁區","LI":"七甲里","LIN":"7鄰","STREET":"七甲一街","SECT":" ","MAREA":" ","LANE":" ","ALLEY":" ","HOUSE_NO":"６１號","E_COORD97":177615.19,"N_COORD97":2542555.6600000001,"ADDRESS":"七甲一街６１號","OBJECTID":75938},"geometry":{"x":177615.19000000041,"y":2542555.660000002}},{"attributes":{"ID":75939,"DIS_CODE":0,"TOWNNAME":"東山區","LI":"南勢里","LIN":"7鄰","STREET":" ","SECT":" ","MAREA":"大洋","LANE":" ","ALLEY":" ","HOUSE_NO":"６４號","E_COORD97":195652.60000000001,"N_COORD97":2572948.4500000002,"ADDRESS":"大洋６４號","OBJECTID":75939},"geometry":{"x":195652.60000000056,"y":2572948.4500000011}},{"attributes":{"ID":75940,"DIS_CODE":0,"TOWNNAME":"東山區","LI":"南勢里","LIN":"7鄰","STREET":" ","SECT":" ","MAREA":"大洋","LANE":" ","ALLEY":" ","HOUSE_NO":"６４號之１","E_COORD97":195627.07999999999,"N_COORD97":2572923.3399999999,"ADDRESS":"大洋６４號之１","OBJECTID":75940},"geometry":{"x":195627.08000000007,"y":2572923.3399999999}},{"attributes":{"ID":75941,"DIS_CODE":0,"TOWNNAME":"新化區","LI":"豐榮里","LIN":"6鄰","STREET":" ","SECT":" ","MAREA":"洋子","LANE":" ","ALLEY":" ","HOUSE_NO":"１４６號","E_COORD97":177831.28,"N_COORD97":2548081.25,"ADDRESS":"洋子１４６號","OBJECTID":75941},"geometry":{"x":177831.28000000026,"y":2548081.2500000019}},{"attributes":{"ID":75942,"DIS_CODE":0,"TOWNNAME":"永康區","LI":"勝利里","LIN":"19鄰","STREET":"勝利街","SECT":" ","MAREA":" ","LANE":"１９７巷","ALLEY":"２５弄","HOUSE_NO":"４５號","E_COORD97":171295.82000000001,"N_COORD97":2545048.04,"ADDRESS":"勝利街１９７巷２５弄４５號","OBJECTID":75942},"geometry":{"x":171295.82000000123,"y":2545048.040000001}},{"attributes":{"ID":75943,"DIS_CODE":0,"TOWNNAME":"永康區","LI":"勝利里","LIN":"19鄰","STREET":"勝利街","SECT":" ","MAREA":" ","LANE":"１９７巷","ALLEY":"２５弄","HOUSE_NO":"３２號","E_COORD97":171255.82000000001,"N_COORD97":2545041.5299999998,"ADDRESS":"勝利街１９７巷２５弄３２號","OBJECTID":75943},"geometry":{"x":171255.8200000003,"y":2545041.5300000012}},{"attributes":{"ID":75944,"DIS_CODE":0,"TOWNNAME":"永康區","LI":"勝利里","LIN":"19鄰","STREET":"勝利街","SECT":" ","MAREA":" ","LANE":"１９７巷","ALLEY":"２５弄","HOUSE_NO":"３６號","E_COORD97":171255.20999999999,"N_COORD97":2545033.2799999998,"ADDRESS":"勝利街１９７巷２５弄３６號","OBJECTID":75944},"geometry":{"x":171255.21000000089,"y":2545033.2800000012}},{"attributes":{"ID":75945,"DIS_CODE":0,"TOWNNAME":"永康區","LI":"勝利里","LIN":"19鄰","STREET":"勝利街","SECT":" ","MAREA":" ","LANE":"１９７巷","ALLEY":"２５弄","HOUSE_NO":"８３號","E_COORD97":171311.59,"N_COORD97":2545009.75,"ADDRESS":"勝利街１９７巷２５弄８３號","OBJECTID":75945},"geometry":{"x":171311.59000000078,"y":2545009.7500000019}},{"attributes":{"ID":75946,"DIS_CODE":0,"TOWNNAME":"永康區","LI":"勝利里","LIN":"19鄰","STREET":"勝利街","SECT":" ","MAREA":" ","LANE":"１９７巷","ALLEY":"２５弄","HOUSE_NO":"８１號","E_COORD97":171312.14999999999,"N_COORD97":2545053.5,"ADDRESS":"勝利街１９７巷２５弄８１號","OBJECTID":75946},"geometry":{"x":171312.1500000013,"y":2545053.5}},{"attributes":{"ID":75947,"DIS_CODE":0,"TOWNNAME":"永康區","LI":"勝利里","LIN":"19鄰","STREET":"勝利街","SECT":" ","MAREA":" ","LANE":"１９７巷","ALLEY":"２５弄","HOUSE_NO":"４０號","E_COORD97":171254.60999999999,"N_COORD97":2545024.5299999998,"ADDRESS":"勝利街１９７巷２５弄４０號","OBJECTID":75947},"geometry":{"x":171254.61000000127,"y":2545024.5300000012}},{"attributes":{"ID":75948,"DIS_CODE":0,"TOWNNAME":"永康區","LI":"勝利里","LIN":"19鄰","STREET":"勝利街","SECT":" ","MAREA":" ","LANE":"１９７巷","ALLEY":"２５弄","HOUSE_NO":"３１號","E_COORD97":171277.07000000001,"N_COORD97":2545021.5,"ADDRESS":"勝利街１９７巷２５弄３１號","OBJECTID":75948},"geometry":{"x":171277.07000000123,"y":2545021.5000000019}},{"attributes":{"ID":75949,"DIS_CODE":0,"TOWNNAME":"永康區","LI":"勝利里","LIN":"19鄰","STREET":"勝利街","SECT":" ","MAREA":" ","LANE":"１９７巷","ALLEY":"２５弄","HOUSE_NO":"２７號","E_COORD97":171277.42999999999,"N_COORD97":2545031.5,"ADDRESS":"勝利街１９７巷２５弄２７號","OBJECTID":75949},"geometry":{"x":171277.43000000063,"y":2545031.5000000019}},{"attributes":{"ID":75950,"DIS_CODE":0,"TOWNNAME":"永康區","LI":"勝利里","LIN":"19鄰","STREET":"勝利街","SECT":" ","MAREA":" ","LANE":"１９７巷","ALLEY":"３７弄","HOUSE_NO":"１２號","E_COORD97":171215.45000000001,"N_COORD97":2545117.5,"ADDRESS":"勝利街１９７巷３７弄１２號","OBJECTID":75950},"geometry":{"x":171215.45000000019,"y":2545117.5000000019}},{"attributes":{"ID":75951,"DIS_CODE":0,"TOWNNAME":"永康區","LI":"大橋里","LIN":"19鄰","STREET":"大橋一街","SECT":" ","MAREA":" ","LANE":"１３９巷","ALLEY":"２２弄","HOUSE_NO":"３５號","E_COORD97":171019.38,"N_COORD97":2546580.79,"ADDRESS":"大橋一街１３９巷２２弄３５號","OBJECTID":75951},"geometry":{"x":171019.37999999989,"y":2546580.7899999991}},{"attributes":{"ID":75952,"DIS_CODE":0,"TOWNNAME":"永康區","LI":"二王里","LIN":"19鄰","STREET":"中山南路","SECT":" ","MAREA":" ","LANE":"６４４巷","ALLEY":"１９弄","HOUSE_NO":"２號之１","E_COORD97":172412.70999999999,"N_COORD97":2546612.46,"ADDRESS":"中山南路６４４巷１９弄２號之１","OBJECTID":75952},"geometry":{"x":172412.71000000089,"y":2546612.4600000046}},{"attributes":{"ID":75953,"DIS_CODE":0,"TOWNNAME":"永康區","LI":"二王里","LIN":"19鄰","STREET":"中山南路","SECT":" ","MAREA":" ","LANE":"６４４巷","ALLEY":"２９弄","HOUSE_NO":"６號","E_COORD97":172424.48000000001,"N_COORD97":2546574.48,"ADDRESS":"中山南路６４４巷２９弄６號","OBJECTID":75953},"geometry":{"x":172424.48000000045,"y":2546574.4800000042}},{"attributes":{"ID":75954,"DIS_CODE":0,"TOWNNAME":"永康區","LI":"二王里","LIN":"19鄰","STREET":"中山南路","SECT":" ","MAREA":" ","LANE":"６４４巷","ALLEY":"１９弄","HOUSE_NO":"２號之３","E_COORD97":172422.85000000001,"N_COORD97":2546612.71,"ADDRESS":"中山南路６４４巷１９弄２號之３","OBJECTID":75954},"geometry":{"x":172422.84999999963,"y":2546612.7100000009}},{"attributes":{"ID":75955,"DIS_CODE":0,"TOWNNAME":"永康區","LI":"二王里","LIN":"19鄰","STREET":"中山南路","SECT":" ","MAREA":" ","LANE":"６４４巷","ALLEY":"２９弄","HOUSE_NO":"３號","E_COORD97":172427.79999999999,"N_COORD97":2546594.8999999999,"ADDRESS":"中山南路６４４巷２９弄３號","OBJECTID":75955},"geometry":{"x":172427.80000000075,"y":2546594.9000000004}},{"attributes":{"ID":75956,"DIS_CODE":0,"TOWNNAME":"永康區","LI":"二王里","LIN":"19鄰","STREET":"中山南路","SECT":" ","MAREA":" ","LANE":"６４４巷","ALLEY":"２９弄","HOUSE_NO":"２號","E_COORD97":172411.89999999999,"N_COORD97":2546574.23,"ADDRESS":"中山南路６４４巷２９弄２號","OBJECTID":75956},"geometry":{"x":172411.9000000013,"y":2546574.2300000023}},{"attributes":{"ID":75957,"DIS_CODE":0,"TOWNNAME":"永康區","LI":"二王里","LIN":"19鄰","STREET":"中山南路","SECT":" ","MAREA":" ","LANE":"６４４巷","ALLEY":"２９弄","HOUSE_NO":"７號","E_COORD97":172445.48000000001,"N_COORD97":2546586.1499999999,"ADDRESS":"中山南路６４４巷２９弄７號","OBJECTID":75957},"geometry":{"x":172445.48000000138,"y":2546586.1500000004}},{"attributes":{"ID":75958,"DIS_CODE":0,"TOWNNAME":"永康區","LI":"二王里","LIN":"19鄰","STREET":"中山南路","SECT":" ","MAREA":" ","LANE":"６４４巷","ALLEY":"１９弄","HOUSE_NO":"２號","E_COORD97":172425.10999999999,"N_COORD97":2546612.9100000001,"ADDRESS":"中山南路６４４巷１９弄２號","OBJECTID":75958},"geometry":{"x":172425.11000000034,"y":2546612.910000002}},{"attributes":{"ID":75959,"DIS_CODE":0,"TOWNNAME":"永康區","LI":"二王里","LIN":"19鄰","STREET":"中山南路","SECT":" ","MAREA":" ","LANE":"６４４巷","ALLEY":"２９弄","HOUSE_NO":"８號","E_COORD97":172429.82000000001,"N_COORD97":2546574.73,"ADDRESS":"中山南路６４４巷２９弄８號","OBJECTID":75959},"geometry":{"x":172429.82000000123,"y":2546574.7300000004}},{"attributes":{"ID":75960,"DIS_CODE":0,"TOWNNAME":"東山區","LI":"南勢里","LIN":"7鄰","STREET":" ","SECT":" ","MAREA":"大洋","LANE":" ","ALLEY":" ","HOUSE_NO":"６４號之２","E_COORD97":195602.44,"N_COORD97":2572927.3900000001,"ADDRESS":"大洋６４號之２","OBJECTID":75960},"geometry":{"x":195602.44000000134,"y":2572927.3900000006}},{"attributes":{"ID":75961,"DIS_CODE":0,"TOWNNAME":"歸仁區","LI":"西埔里","LIN":"7鄰","STREET":"西埔一街","SECT":" ","MAREA":" ","LANE":" ","ALLEY":" ","HOUSE_NO":"５７號","E_COORD97":177126.01999999999,"N_COORD97":2544305.25,"ADDRESS":"西埔一街５７號","OBJECTID":75961},"geometry":{"x":177126.02000000142,"y":2544305.2500000019}},{"attributes":{"ID":75962,"DIS_CODE":0,"TOWNNAME":"永康區","LI":"三合里","LIN":"19鄰","STREET":"南工街","SECT":" ","MAREA":" ","LANE":"２６７巷","ALLEY":"２７弄","HOUSE_NO":"７號","E_COORD97":171921.10000000001,"N_COORD97":2545874.1000000001,"ADDRESS":"南工街２６７巷２７弄７號","OBJECTID":75962},"geometry":{"x":171921.09999999963,"y":2545874.0999999978}},{"attributes":{"ID":75963,"DIS_CODE":0,"TOWNNAME":"永康區","LI":"二王里","LIN":"19鄰","STREET":"中山南路","SECT":" ","MAREA":" ","LANE":"６４４巷","ALLEY":"１９弄","HOUSE_NO":"４號","E_COORD97":172429.22,"N_COORD97":2546613.1600000001,"ADDRESS":"中山南路６４４巷１９弄４號","OBJECTID":75963},"geometry":{"x":172429.2200000016,"y":2546613.1600000001}},{"attributes":{"ID":75964,"DIS_CODE":0,"TOWNNAME":"安南區","LI":"佃東里","LIN":"19鄰","STREET":"公學路","SECT":"四段","MAREA":" ","LANE":"１２２巷","ALLEY":"９６弄","HOUSE_NO":"３８號","E_COORD97":165672.60999999999,"N_COORD97":2552295.9100000001,"ADDRESS":"公學路四段１２２巷９６弄３８號","OBJECTID":75964},"geometry":{"x":165672.61000000127,"y":2552295.9100000001}},{"attributes":{"ID":75965,"DIS_CODE":0,"TOWNNAME":"仁德區","LI":"保安里","LIN":"19鄰","STREET":"文賢路","SECT":"二段","MAREA":" ","LANE":"１５巷","ALLEY":"５６弄","HOUSE_NO":"６號","E_COORD97":171946.28,"N_COORD97":2535923.3199999998,"ADDRESS":"文賢路二段１５巷５６弄６號","OBJECTID":75965},"geometry":{"x":171946.28000000212,"y":2535923.3200000022}},{"attributes":{"ID":75966,"DIS_CODE":0,"TOWNNAME":"仁德區","LI":"保安里","LIN":"19鄰","STREET":"文賢路","SECT":"二段","MAREA":" ","LANE":"１５巷","ALLEY":"１８弄","HOUSE_NO":"３號","E_COORD97":171845.72,"N_COORD97":2535889.8300000001,"ADDRESS":"文賢路二段１５巷１８弄３號","OBJECTID":75966},"geometry":{"x":171845.71999999974,"y":2535889.8300000019}},{"attributes":{"ID":75967,"DIS_CODE":0,"TOWNNAME":"仁德區","LI":"保安里","LIN":"19鄰","STREET":"文賢路","SECT":"二段","MAREA":" ","LANE":"１５巷","ALLEY":"５６弄","HOUSE_NO":"１０號","E_COORD97":171939.12,"N_COORD97":2535917.5699999998,"ADDRESS":"文賢路二段１５巷５６弄１０號","OBJECTID":75967},"geometry":{"x":171939.12000000104,"y":2535917.570000004}},{"attributes":{"ID":75968,"DIS_CODE":0,"TOWNNAME":"仁德區","LI":"保安里","LIN":"19鄰","STREET":"文賢路","SECT":"二段","MAREA":" ","LANE":"１５巷","ALLEY":"１８弄","HOUSE_NO":"７號","E_COORD97":171851.04000000001,"N_COORD97":2535882.3300000001,"ADDRESS":"文賢路二段１５巷１８弄７號","OBJECTID":75968},"geometry":{"x":171851.0400000019,"y":2535882.3300000019}},{"attributes":{"ID":75969,"DIS_CODE":0,"TOWNNAME":"新化區","LI":"\u25A0拔里","LIN":"6鄰","STREET":" ","SECT":" ","MAREA":"\u25A0拔林","LANE":" ","ALLEY":" ","HOUSE_NO":"２６７號之２","E_COORD97":183529.48000000001,"N_COORD97":2551920.2599999998,"ADDRESS":"\u25A0拔林２６７號之２","OBJECTID":75969},"geometry":{"x":183529.48000000045,"y":2551920.2599999998}},{"attributes":{"ID":75970,"DIS_CODE":0,"TOWNNAME":"新化區","LI":"礁坑里","LIN":"6鄰","STREET":" ","SECT":" ","MAREA":"三十六崙","LANE":" ","ALLEY":" ","HOUSE_NO":"１７號","E_COORD97":184893.62,"N_COORD97":2549161.25,"ADDRESS":"三十六崙１７號","OBJECTID":75970},"geometry":{"x":184893.62000000104,"y":2549161.25}},{"attributes":{"ID":75971,"DIS_CODE":0,"TOWNNAME":"新化區","LI":"北勢里","LIN":"6鄰","STREET":" ","SECT":" ","MAREA":"北勢","LANE":" ","ALLEY":" ","HOUSE_NO":"１１０號之１","E_COORD97":177249.01000000001,"N_COORD97":2549774.2599999998,"ADDRESS":"北勢１１０號之１","OBJECTID":75971},"geometry":{"x":177249.01000000071,"y":2549774.2599999998}},{"attributes":{"ID":75972,"DIS_CODE":0,"TOWNNAME":"新化區","LI":"崙頂里","LIN":"6鄰","STREET":" ","SECT":" ","MAREA":"崙子頂","LANE":" ","ALLEY":" ","HOUSE_NO":"２５５號","E_COORD97":176702.03,"N_COORD97":2547071.25,"ADDRESS":"崙子頂２５５號","OBJECTID":75972},"geometry":{"x":176702.03000000119,"y":2547071.2500000019}},{"attributes":{"ID":75973,"DIS_CODE":0,"TOWNNAME":"新化區","LI":"北勢里","LIN":"6鄰","STREET":" ","SECT":" ","MAREA":"北勢","LANE":" ","ALLEY":" ","HOUSE_NO":"１００號之２１","E_COORD97":177303.76000000001,"N_COORD97":2549727.2599999998,"ADDRESS":"北勢１００號之２１","OBJECTID":75973},"geometry":{"x":177303.75999999978,"y":2549727.2599999998}},{"attributes":{"ID":75974,"DIS_CODE":0,"TOWNNAME":"新化區","LI":"\u25A0拔里","LIN":"6鄰","STREET":" ","SECT":" ","MAREA":"\u25A0拔林","LANE":" ","ALLEY":" ","HOUSE_NO":"２３６號之１","E_COORD97":183594.45000000001,"N_COORD97":2551981.2599999998,"ADDRESS":"\u25A0拔林２３６號之１","OBJECTID":75974},"geometry":{"x":183594.45000000112,"y":2551981.2599999998}},{"attributes":{"ID":75975,"DIS_CODE":0,"TOWNNAME":"新化區","LI":"\u25A0拔里","LIN":"6鄰","STREET":" ","SECT":" ","MAREA":"\u25A0拔林","LANE":" ","ALLEY":" ","HOUSE_NO":"２３４號之１","E_COORD97":183613.95000000001,"N_COORD97":2551928.2599999998,"ADDRESS":"\u25A0拔林２３４號之１","OBJECTID":75975},"geometry":{"x":183613.95000000019,"y":2551928.2599999998}},{"attributes":{"ID":75976,"DIS_CODE":0,"TOWNNAME":"新化區","LI":"北勢里","LIN":"6鄰","STREET":" ","SECT":" ","MAREA":"北勢","LANE":" ","ALLEY":" ","HOUSE_NO":"１０６號之１","E_COORD97":177200.38,"N_COORD97":2549713.2599999998,"ADDRESS":"北勢１０６之１號","OBJECTID":75976},"geometry":{"x":177200.38000000082,"y":2549713.2599999998}},{"attributes":{"ID":75977,"DIS_CODE":0,"TOWNNAME":"新化區","LI":"礁坑里","LIN":"6鄰","STREET":" ","SECT":" ","MAREA":"三十六崙","LANE":" ","ALLEY":" ","HOUSE_NO":"１４號","E_COORD97":184862.32000000001,"N_COORD97":2549171.25,"ADDRESS":"三十六崙１４號","OBJECTID":75977},"geometry":{"x":184862.32000000123,"y":2549171.25}},{"attributes":{"ID":75978,"DIS_CODE":0,"TOWNNAME":"新化區","LI":"\u25A0拔里","LIN":"6鄰","STREET":" ","SECT":" ","MAREA":"\u25A0拔林","LANE":" ","ALLEY":" ","HOUSE_NO":"２３６號之２","E_COORD97":183600.17999999999,"N_COORD97":2551983.2599999998,"ADDRESS":"\u25A0拔林２３６號之２","OBJECTID":75978},"geometry":{"x":183600.1799999997,"y":2551983.2600000016}},{"attributes":{"ID":75979,"DIS_CODE":0,"TOWNNAME":"新化區","LI":"\u25A0拔里","LIN":"6鄰","STREET":" ","SECT":" ","MAREA":"\u25A0拔林","LANE":" ","ALLEY":" ","HOUSE_NO":"２３２號之１","E_COORD97":183648.35000000001,"N_COORD97":2552008.2599999998,"ADDRESS":"\u25A0拔林２３２號之１","OBJECTID":75979},"geometry":{"x":183648.34999999963,"y":2552008.2600000016}},{"attributes":{"ID":75980,"DIS_CODE":0,"TOWNNAME":"新化區","LI":"\u25A0拔里","LIN":"6鄰","STREET":" ","SECT":" ","MAREA":"\u25A0拔林","LANE":" ","ALLEY":" ","HOUSE_NO":"２２８號之４","E_COORD97":183680.66,"N_COORD97":2551907.2599999998,"ADDRESS":"\u25A0拔林２２８號之４","OBJECTID":75980},"geometry":{"x":183680.66000000015,"y":2551907.2599999998}},{"attributes":{"ID":75981,"DIS_CODE":0,"TOWNNAME":"新化區","LI":"北勢里","LIN":"6鄰","STREET":" ","SECT":" ","MAREA":"北勢","LANE":" ","ALLEY":" ","HOUSE_NO":"１００號之２５","E_COORD97":177279.29000000001,"N_COORD97":2549742.2599999998,"ADDRESS":"北勢１００號之２５","OBJECTID":75981},"geometry":{"x":177279.29000000097,"y":2549742.2600000016}},{"attributes":{"ID":75982,"DIS_CODE":0,"TOWNNAME":"新化區","LI":"北勢里","LIN":"6鄰","STREET":" ","SECT":" ","MAREA":"北勢","LANE":" ","ALLEY":" ","HOUSE_NO":"１０５號之２","E_COORD97":177160.44,"N_COORD97":2549682.2599999998,"ADDRESS":"北勢１０５號之２","OBJECTID":75982},"geometry":{"x":177160.44000000134,"y":2549682.2600000016}},{"attributes":{"ID":75983,"DIS_CODE":0,"TOWNNAME":"新化區","LI":"唪口里","LIN":"6鄰","STREET":" ","SECT":" ","MAREA":"唪口","LANE":" ","ALLEY":" ","HOUSE_NO":"８６號之２","E_COORD97":178038.54999999999,"N_COORD97":2549104.2599999998,"ADDRESS":"唪口８６號之２","OBJECTID":75983},"geometry":{"x":178038.55000000075,"y":2549104.2599999979}},{"attributes":{"ID":75984,"DIS_CODE":0,"TOWNNAME":"新化區","LI":"羊林里","LIN":"6鄰","STREET":" ","SECT":" ","MAREA":"\u25A0拔林","LANE":" ","ALLEY":" ","HOUSE_NO":"４８７號之２３","E_COORD97":183388.82000000001,"N_COORD97":2551764.2599999998,"ADDRESS":"\u25A0拔林４８７號之２３","OBJECTID":75984},"geometry":{"x":183388.82000000123,"y":2551764.2599999998}},{"attributes":{"ID":75985,"DIS_CODE":0,"TOWNNAME":"新化區","LI":"唪口里","LIN":"6鄰","STREET":" ","SECT":" ","MAREA":"唪口","LANE":" ","ALLEY":" ","HOUSE_NO":"８５號之５","E_COORD97":177975.66,"N_COORD97":2549096.2599999998,"ADDRESS":"唪口８５號之５","OBJECTID":75985},"geometry":{"x":177975.66000000108,"y":2549096.2599999998}},{"attributes":{"ID":75986,"DIS_CODE":0,"TOWNNAME":"新化區","LI":"豐榮里","LIN":"6鄰","STREET":" ","SECT":" ","MAREA":"洋子","LANE":" ","ALLEY":" ","HOUSE_NO":"１４２號","E_COORD97":177861.48000000001,"N_COORD97":2548118.25,"ADDRESS":"洋子１４２號","OBJECTID":75986},"geometry":{"x":177861.48000000138,"y":2548118.2500000037}},{"attributes":{"ID":75987,"DIS_CODE":0,"TOWNNAME":"新化區","LI":"唪口里","LIN":"6鄰","STREET":" ","SECT":" ","MAREA":"唪口","LANE":" ","ALLEY":" ","HOUSE_NO":"６８號之４","E_COORD97":178092.92999999999,"N_COORD97":2548977.2599999998,"ADDRESS":"唪口６８號之４","OBJECTID":75987},"geometry":{"x":178092.92999999877,"y":2548977.2600000016}},{"attributes":{"ID":75988,"DIS_CODE":0,"TOWNNAME":"新化區","LI":"大坑里","LIN":"6鄰","STREET":" ","SECT":" ","MAREA":"大坑尾","LANE":" ","ALLEY":" ","HOUSE_NO":"１４５號","E_COORD97":187087.53,"N_COORD97":2545840.25,"ADDRESS":"大坑尾１４５號","OBJECTID":75988},"geometry":{"x":187087.52999999933,"y":2545840.2500000019}},{"attributes":{"ID":75989,"DIS_CODE":0,"TOWNNAME":"仁德區","LI":"保安里","LIN":"19鄰","STREET":"文賢路","SECT":"二段","MAREA":" ","LANE":"１５巷","ALLEY":"１８弄","HOUSE_NO":"１１號","E_COORD97":171857.76000000001,"N_COORD97":2535874.3300000001,"ADDRESS":"文賢路二段１５巷１８弄１１號","OBJECTID":75989},"geometry":{"x":171857.76000000164,"y":2535874.3300000001}},{"attributes":{"ID":75990,"DIS_CODE":0,"TOWNNAME":"仁德區","LI":"保安里","LIN":"19鄰","STREET":"文賢路","SECT":"二段","MAREA":" ","LANE":"１５巷","ALLEY":"５６弄","HOUSE_NO":"１６號","E_COORD97":171930.92000000001,"N_COORD97":2535912.3199999998,"ADDRESS":"文賢路二段１５巷５６弄１６號","OBJECTID":75990},"geometry":{"x":171930.91999999993,"y":2535912.3200000003}},{"attributes":{"ID":75991,"DIS_CODE":0,"TOWNNAME":"仁德區","LI":"後壁里","LIN":"19鄰","STREET":"德崙路","SECT":" ","MAREA":" ","LANE":"２１巷","ALLEY":"９弄","HOUSE_NO":"８號","E_COORD97":173258.23999999999,"N_COORD97":2538658.27,"ADDRESS":"德崙路２１巷９弄８號","OBJECTID":75991},"geometry":{"x":173258.24000000022,"y":2538658.2700000033}},{"attributes":{"ID":75992,"DIS_CODE":0,"TOWNNAME":"仁德區","LI":"後壁里","LIN":"19鄰","STREET":"德崙路","SECT":" ","MAREA":" ","LANE":"２１巷","ALLEY":"９弄","HOUSE_NO":"１８號","E_COORD97":173245.17999999999,"N_COORD97":2538673.27,"ADDRESS":"德崙路２１巷９弄１８號","OBJECTID":75992},"geometry":{"x":173245.18000000063,"y":2538673.2700000014}},{"attributes":{"ID":75993,"DIS_CODE":0,"TOWNNAME":"仁德區","LI":"後壁里","LIN":"19鄰","STREET":"德崙路","SECT":" ","MAREA":" ","LANE":"２１巷","ALLEY":"９弄","HOUSE_NO":"４號","E_COORD97":173264.12,"N_COORD97":2538652.02,"ADDRESS":"德崙路２１巷９弄４號","OBJECTID":75993},"geometry":{"x":173264.12000000011,"y":2538652.0199999996}},{"attributes":{"ID":75994,"DIS_CODE":0,"TOWNNAME":"仁德區","LI":"後壁里","LIN":"19鄰","STREET":"德崙路","SECT":" ","MAREA":" ","LANE":"２１巷","ALLEY":"９弄","HOUSE_NO":"１號","E_COORD97":173258.29000000001,"N_COORD97":2538645.02,"ADDRESS":"德崙路２１巷９弄１號","OBJECTID":75994},"geometry":{"x":173258.29000000097,"y":2538645.0199999996}},{"attributes":{"ID":75995,"DIS_CODE":0,"TOWNNAME":"仁德區","LI":"後壁里","LIN":"19鄰","STREET":"德崙路","SECT":" ","MAREA":" ","LANE":"２１巷","ALLEY":"９弄","HOUSE_NO":"１４號","E_COORD97":173250.98999999999,"N_COORD97":2538667.52,"ADDRESS":"德崙路２１巷９弄１４號","OBJECTID":75995},"geometry":{"x":173250.99000000022,"y":2538667.5200000014}},{"attributes":{"ID":75996,"DIS_CODE":0,"TOWNNAME":"新化區","LI":"崙頂里","LIN":"6鄰","STREET":" ","SECT":" ","MAREA":"崙子頂","LANE":" ","ALLEY":" ","HOUSE_NO":"２６１號之２","E_COORD97":176629.38,"N_COORD97":2547132.2599999998,"ADDRESS":"崙子頂２６１號之２","OBJECTID":75996},"geometry":{"x":176629.38000000082,"y":2547132.2600000016}},{"attributes":{"ID":75997,"DIS_CODE":0,"TOWNNAME":"新化區","LI":"唪口里","LIN":"6鄰","STREET":" ","SECT":" ","MAREA":"唪口","LANE":" ","ALLEY":" ","HOUSE_NO":"８６號之１","E_COORD97":178038.42999999999,"N_COORD97":2549110.2599999998,"ADDRESS":"唪口８６號之１","OBJECTID":75997},"geometry":{"x":178038.4299999997,"y":2549110.2599999998}},{"attributes":{"ID":75998,"DIS_CODE":0,"TOWNNAME":"新化區","LI":"唪口里","LIN":"6鄰","STREET":" ","SECT":" ","MAREA":"唪口","LANE":" ","ALLEY":" ","HOUSE_NO":"８６號之７","E_COORD97":178050.44,"N_COORD97":2549106.2599999998,"ADDRESS":"唪口８６號之７","OBJECTID":75998},"geometry":{"x":178050.44000000134,"y":2549106.2599999998}},{"attributes":{"ID":75999,"DIS_CODE":0,"TOWNNAME":"新化區","LI":"崙頂里","LIN":"6鄰","STREET":" ","SECT":" ","MAREA":"崙子頂","LANE":" ","ALLEY":" ","HOUSE_NO":"２６８號","E_COORD97":176781.23000000001,"N_COORD97":2547035.25,"ADDRESS":"崙子頂２６８號","OBJECTID":75999},"geometry":{"x":176781.23000000045,"y":2547035.25}},{"attributes":{"ID":76000,"DIS_CODE":0,"TOWNNAME":"新化區","LI":"崙頂里","LIN":"6鄰","STREET":" ","SECT":" ","MAREA":"崙子頂","LANE":" ","ALLEY":" ","HOUSE_NO":"３０８號","E_COORD97":176808.32999999999,"N_COORD97":2546984.25,"ADDRESS":"崙子頂３０８號","OBJECTID":76000},"geometry":{"x":176808.33000000007,"y":2546984.25}}]}