{"displayFieldName":"TOWNNAME","fieldAliases":{"ID":"ID","DIS_CODE":"DIS_CODE","TOWNNAME":"TOWNNAME","LI":"LI","LIN":"LIN","STREET":"STREET","SECT":"SECT","MAREA":"MAREA","LANE":"LANE","ALLEY":"ALLEY","HOUSE_NO":"HOUSE_NO","E_COORD97":"E_COORD97","N_COORD97":"N_COORD97","ADDRESS":"ADDRESS","OBJECTID":"OBJECTID"},"geometryType":"esriGeometryPoint","spatialReference":{"wkid":102443,"latestWkid":3826},"fields":[{"name":"ID","type":"esriFieldTypeDouble","alias":"ID"},{"name":"DIS_CODE","type":"esriFieldTypeInteger","alias":"DIS_CODE"},{"name":"TOWNNAME","type":"esriFieldTypeString","alias":"TOWNNAME","length":8},{"name":"LI","type":"esriFieldTypeString","alias":"LI","length":8},{"name":"LIN","type":"esriFieldTypeString","alias":"LIN","length":12},{"name":"STREET","type":"esriFieldTypeString","alias":"STREET","length":20},{"name":"SECT","type":"esriFieldTypeString","alias":"SECT","length":8},{"name":"MAREA","type":"esriFieldTypeString","alias":"MAREA","length":12},{"name":"LANE","type":"esriFieldTypeString","alias":"LANE","length":10},{"name":"ALLEY","type":"esriFieldTypeString","alias":"ALLEY","length":10},{"name":"HOUSE_NO","type":"esriFieldTypeString","alias":"HOUSE_NO","length":20},{"name":"E_COORD97","type":"esriFieldTypeDouble","alias":"E_COORD97"},{"name":"N_COORD97","type":"esriFieldTypeDouble","alias":"N_COORD97"},{"name":"ADDRESS","type":"esriFieldTypeString","alias":"ADDRESS","length":50},{"name":"OBJECTID","type":"esriFieldTypeOID","alias":"OBJECTID"}],"features":[{"attributes":{"ID":480426,"DIS_CODE":0,"TOWNNAME":"東區","LI":"仁和里","LIN":"26鄰","STREET":"利東街","SECT":" ","MAREA":" ","LANE":" ","ALLEY":" ","HOUSE_NO":"５５號六樓之２","E_COORD97":171682.59,"N_COORD97":2541095.3199999998,"ADDRESS":"利東街５５號六樓之２","OBJECTID":480401},"geometry":{"x":171682.59000000171,"y":2541095.3200000003}},{"attributes":{"ID":480427,"DIS_CODE":0,"TOWNNAME":"東區","LI":"仁和里","LIN":"26鄰","STREET":"利東街","SECT":" ","MAREA":" ","LANE":" ","ALLEY":" ","HOUSE_NO":"５５號四樓","E_COORD97":171682.59,"N_COORD97":2541095.3199999998,"ADDRESS":"利東街５５號四樓","OBJECTID":480402},"geometry":{"x":171682.59000000171,"y":2541095.3200000003}},{"attributes":{"ID":480428,"DIS_CODE":0,"TOWNNAME":"東區","LI":"仁和里","LIN":"26鄰","STREET":"利東街","SECT":" ","MAREA":" ","LANE":" ","ALLEY":" ","HOUSE_NO":"５５號四樓之１","E_COORD97":171682.59,"N_COORD97":2541095.3199999998,"ADDRESS":"利東街５５號四樓之１","OBJECTID":480403},"geometry":{"x":171682.59000000171,"y":2541095.3200000003}},{"attributes":{"ID":480429,"DIS_CODE":0,"TOWNNAME":"東區","LI":"仁和里","LIN":"26鄰","STREET":"利東街","SECT":" ","MAREA":" ","LANE":" ","ALLEY":" ","HOUSE_NO":"５５號四樓之２","E_COORD97":171682.59,"N_COORD97":2541095.3199999998,"ADDRESS":"利東街５５號四樓之２","OBJECTID":480404},"geometry":{"x":171682.59000000171,"y":2541095.3200000003}},{"attributes":{"ID":480430,"DIS_CODE":0,"TOWNNAME":"東區","LI":"仁和里","LIN":"26鄰","STREET":"利東街","SECT":" ","MAREA":" ","LANE":" ","ALLEY":" ","HOUSE_NO":"５７號七樓","E_COORD97":171680.41,"N_COORD97":2541101.2400000002,"ADDRESS":"利東街５７號七樓","OBJECTID":480405},"geometry":{"x":171680.41000000015,"y":2541101.2400000021}},{"attributes":{"ID":480431,"DIS_CODE":0,"TOWNNAME":"東區","LI":"仁和里","LIN":"26鄰","STREET":"利東街","SECT":" ","MAREA":" ","LANE":" ","ALLEY":" ","HOUSE_NO":"５７號七樓之１","E_COORD97":171680.41,"N_COORD97":2541101.2400000002,"ADDRESS":"利東街５７號七樓之１","OBJECTID":480406},"geometry":{"x":171680.41000000015,"y":2541101.2400000021}},{"attributes":{"ID":480432,"DIS_CODE":0,"TOWNNAME":"東區","LI":"仁和里","LIN":"26鄰","STREET":"利東街","SECT":" ","MAREA":" ","LANE":" ","ALLEY":" ","HOUSE_NO":"５７號九樓","E_COORD97":171680.41,"N_COORD97":2541101.2400000002,"ADDRESS":"利東街５７號九樓","OBJECTID":480407},"geometry":{"x":171680.41000000015,"y":2541101.2400000021}},{"attributes":{"ID":480433,"DIS_CODE":0,"TOWNNAME":"東區","LI":"仁和里","LIN":"26鄰","STREET":"利東街","SECT":" ","MAREA":" ","LANE":" ","ALLEY":" ","HOUSE_NO":"５７號九樓之１","E_COORD97":171680.41,"N_COORD97":2541101.2400000002,"ADDRESS":"利東街５７號九樓之１","OBJECTID":480408},"geometry":{"x":171680.41000000015,"y":2541101.2400000021}},{"attributes":{"ID":480434,"DIS_CODE":0,"TOWNNAME":"東區","LI":"仁和里","LIN":"26鄰","STREET":"利東街","SECT":" ","MAREA":" ","LANE":" ","ALLEY":" ","HOUSE_NO":"５７號三樓","E_COORD97":171680.41,"N_COORD97":2541101.2400000002,"ADDRESS":"利東街５７號三樓","OBJECTID":480409},"geometry":{"x":171680.41000000015,"y":2541101.2400000021}},{"attributes":{"ID":480435,"DIS_CODE":0,"TOWNNAME":"東區","LI":"仁和里","LIN":"26鄰","STREET":"利東街","SECT":" ","MAREA":" ","LANE":" ","ALLEY":" ","HOUSE_NO":"５７號三樓之１","E_COORD97":171680.41,"N_COORD97":2541101.2400000002,"ADDRESS":"利東街５７號三樓之１","OBJECTID":480410},"geometry":{"x":171680.41000000015,"y":2541101.2400000021}},{"attributes":{"ID":480436,"DIS_CODE":0,"TOWNNAME":"東區","LI":"仁和里","LIN":"26鄰","STREET":"利東街","SECT":" ","MAREA":" ","LANE":" ","ALLEY":" ","HOUSE_NO":"５７號五樓","E_COORD97":171680.41,"N_COORD97":2541101.2400000002,"ADDRESS":"利東街５７號五樓","OBJECTID":480411},"geometry":{"x":171680.41000000015,"y":2541101.2400000021}},{"attributes":{"ID":480437,"DIS_CODE":0,"TOWNNAME":"東區","LI":"仁和里","LIN":"26鄰","STREET":"利東街","SECT":" ","MAREA":" ","LANE":" ","ALLEY":" ","HOUSE_NO":"５７號五樓之１","E_COORD97":171680.41,"N_COORD97":2541101.2400000002,"ADDRESS":"利東街５７號五樓之１","OBJECTID":480412},"geometry":{"x":171680.41000000015,"y":2541101.2400000021}},{"attributes":{"ID":480438,"DIS_CODE":0,"TOWNNAME":"東區","LI":"仁和里","LIN":"26鄰","STREET":"利東街","SECT":" ","MAREA":" ","LANE":" ","ALLEY":" ","HOUSE_NO":"５７號六樓","E_COORD97":171680.41,"N_COORD97":2541101.2400000002,"ADDRESS":"利東街５７號六樓","OBJECTID":480413},"geometry":{"x":171680.41000000015,"y":2541101.2400000021}},{"attributes":{"ID":480439,"DIS_CODE":0,"TOWNNAME":"東區","LI":"仁和里","LIN":"26鄰","STREET":"利東街","SECT":" ","MAREA":" ","LANE":" ","ALLEY":" ","HOUSE_NO":"５７號六樓之１","E_COORD97":171680.41,"N_COORD97":2541101.2400000002,"ADDRESS":"利東街５７號六樓之１","OBJECTID":480414},"geometry":{"x":171680.41000000015,"y":2541101.2400000021}},{"attributes":{"ID":480440,"DIS_CODE":0,"TOWNNAME":"東區","LI":"仁和里","LIN":"26鄰","STREET":"利東街","SECT":" ","MAREA":" ","LANE":" ","ALLEY":" ","HOUSE_NO":"５７號四樓","E_COORD97":171680.41,"N_COORD97":2541101.2400000002,"ADDRESS":"利東街５７號四樓","OBJECTID":480415},"geometry":{"x":171680.41000000015,"y":2541101.2400000021}},{"attributes":{"ID":480441,"DIS_CODE":0,"TOWNNAME":"東區","LI":"仁和里","LIN":"26鄰","STREET":"利東街","SECT":" ","MAREA":" ","LANE":" ","ALLEY":" ","HOUSE_NO":"５７號四樓之１","E_COORD97":171680.41,"N_COORD97":2541101.2400000002,"ADDRESS":"利東街５７號四樓之１","OBJECTID":480416},"geometry":{"x":171680.41000000015,"y":2541101.2400000021}},{"attributes":{"ID":480442,"DIS_CODE":0,"TOWNNAME":"東區","LI":"仁和里","LIN":"26鄰","STREET":"利東街","SECT":" ","MAREA":" ","LANE":" ","ALLEY":" ","HOUSE_NO":"７５號七樓之１","E_COORD97":171677.73000000001,"N_COORD97":2541068.75,"ADDRESS":"利東街７５號七樓之１","OBJECTID":480417},"geometry":{"x":171677.73000000138,"y":2541068.75}},{"attributes":{"ID":480443,"DIS_CODE":0,"TOWNNAME":"東區","LI":"仁和里","LIN":"26鄰","STREET":"利東街","SECT":" ","MAREA":" ","LANE":" ","ALLEY":" ","HOUSE_NO":"７５號七樓之２","E_COORD97":171677.73000000001,"N_COORD97":2541068.75,"ADDRESS":"利東街７５號七樓之２","OBJECTID":480418},"geometry":{"x":171677.73000000138,"y":2541068.75}},{"attributes":{"ID":480444,"DIS_CODE":0,"TOWNNAME":"東區","LI":"仁和里","LIN":"26鄰","STREET":"利東街","SECT":" ","MAREA":" ","LANE":" ","ALLEY":" ","HOUSE_NO":"７５號九樓","E_COORD97":171677.73000000001,"N_COORD97":2541068.75,"ADDRESS":"利東街７５號九樓","OBJECTID":480419},"geometry":{"x":171677.73000000138,"y":2541068.75}},{"attributes":{"ID":480445,"DIS_CODE":0,"TOWNNAME":"東區","LI":"仁和里","LIN":"26鄰","STREET":"利東街","SECT":" ","MAREA":" ","LANE":" ","ALLEY":" ","HOUSE_NO":"７５號九樓之１","E_COORD97":171677.73000000001,"N_COORD97":2541068.75,"ADDRESS":"利東街７５號九樓之１","OBJECTID":480420},"geometry":{"x":171677.73000000138,"y":2541068.75}},{"attributes":{"ID":480446,"DIS_CODE":0,"TOWNNAME":"東區","LI":"仁和里","LIN":"26鄰","STREET":"利東街","SECT":" ","MAREA":" ","LANE":" ","ALLEY":" ","HOUSE_NO":"７５號九樓之２","E_COORD97":171677.73000000001,"N_COORD97":2541068.75,"ADDRESS":"利東街７５號九樓之２","OBJECTID":480421},"geometry":{"x":171677.73000000138,"y":2541068.75}},{"attributes":{"ID":480447,"DIS_CODE":0,"TOWNNAME":"東區","LI":"仁和里","LIN":"26鄰","STREET":"利東街","SECT":" ","MAREA":" ","LANE":" ","ALLEY":" ","HOUSE_NO":"７５號八樓","E_COORD97":171677.73000000001,"N_COORD97":2541068.75,"ADDRESS":"利東街７５號八樓","OBJECTID":480422},"geometry":{"x":171677.73000000138,"y":2541068.75}},{"attributes":{"ID":480448,"DIS_CODE":0,"TOWNNAME":"東區","LI":"仁和里","LIN":"26鄰","STREET":"利東街","SECT":" ","MAREA":" ","LANE":" ","ALLEY":" ","HOUSE_NO":"７５號八樓之１","E_COORD97":171677.73000000001,"N_COORD97":2541068.75,"ADDRESS":"利東街７５號八樓之１","OBJECTID":480423},"geometry":{"x":171677.73000000138,"y":2541068.75}},{"attributes":{"ID":480449,"DIS_CODE":0,"TOWNNAME":"東區","LI":"仁和里","LIN":"26鄰","STREET":"利東街","SECT":" ","MAREA":" ","LANE":" ","ALLEY":" ","HOUSE_NO":"７５號八樓之２","E_COORD97":171677.73000000001,"N_COORD97":2541068.75,"ADDRESS":"利東街７５號八樓之２","OBJECTID":480424},"geometry":{"x":171677.73000000138,"y":2541068.75}},{"attributes":{"ID":480450,"DIS_CODE":0,"TOWNNAME":"東區","LI":"仁和里","LIN":"26鄰","STREET":"利東街","SECT":" ","MAREA":" ","LANE":" ","ALLEY":" ","HOUSE_NO":"７５號五樓","E_COORD97":171677.73000000001,"N_COORD97":2541068.75,"ADDRESS":"利東街７５號五樓","OBJECTID":480425},"geometry":{"x":171677.73000000138,"y":2541068.75}},{"attributes":{"ID":480451,"DIS_CODE":0,"TOWNNAME":"東區","LI":"仁和里","LIN":"26鄰","STREET":"利東街","SECT":" ","MAREA":" ","LANE":" ","ALLEY":" ","HOUSE_NO":"７５號五樓之１","E_COORD97":171677.73000000001,"N_COORD97":2541068.75,"ADDRESS":"利東街７５號五樓之１","OBJECTID":480426},"geometry":{"x":171677.73000000138,"y":2541068.75}},{"attributes":{"ID":480452,"DIS_CODE":0,"TOWNNAME":"東區","LI":"仁和里","LIN":"26鄰","STREET":"利東街","SECT":" ","MAREA":" ","LANE":" ","ALLEY":" ","HOUSE_NO":"７５號五樓之２","E_COORD97":171677.73000000001,"N_COORD97":2541068.75,"ADDRESS":"利東街７５號五樓之２","OBJECTID":480427},"geometry":{"x":171677.73000000138,"y":2541068.75}},{"attributes":{"ID":480453,"DIS_CODE":0,"TOWNNAME":"東區","LI":"仁和里","LIN":"26鄰","STREET":"利東街","SECT":" ","MAREA":" ","LANE":" ","ALLEY":" ","HOUSE_NO":"７５號六樓","E_COORD97":171677.73000000001,"N_COORD97":2541068.75,"ADDRESS":"利東街７５號六樓","OBJECTID":480428},"geometry":{"x":171677.73000000138,"y":2541068.75}},{"attributes":{"ID":480454,"DIS_CODE":0,"TOWNNAME":"東區","LI":"仁和里","LIN":"26鄰","STREET":"利東街","SECT":" ","MAREA":" ","LANE":" ","ALLEY":" ","HOUSE_NO":"７５號六樓之１","E_COORD97":171677.73000000001,"N_COORD97":2541068.75,"ADDRESS":"利東街７５號六樓之１","OBJECTID":480429},"geometry":{"x":171677.73000000138,"y":2541068.75}},{"attributes":{"ID":480455,"DIS_CODE":0,"TOWNNAME":"東區","LI":"仁和里","LIN":"26鄰","STREET":"利東街","SECT":" ","MAREA":" ","LANE":" ","ALLEY":" ","HOUSE_NO":"７５號六樓之２","E_COORD97":171677.73000000001,"N_COORD97":2541068.75,"ADDRESS":"利東街７５號六樓之２","OBJECTID":480430},"geometry":{"x":171677.73000000138,"y":2541068.75}},{"attributes":{"ID":480456,"DIS_CODE":0,"TOWNNAME":"東區","LI":"仁和里","LIN":"26鄰","STREET":"利東街","SECT":" ","MAREA":" ","LANE":" ","ALLEY":" ","HOUSE_NO":"７５號四樓","E_COORD97":171677.73000000001,"N_COORD97":2541068.75,"ADDRESS":"利東街７５號四樓","OBJECTID":480431},"geometry":{"x":171677.73000000138,"y":2541068.75}},{"attributes":{"ID":480457,"DIS_CODE":0,"TOWNNAME":"東區","LI":"仁和里","LIN":"26鄰","STREET":"利東街","SECT":" ","MAREA":" ","LANE":" ","ALLEY":" ","HOUSE_NO":"７５號四樓之１","E_COORD97":171677.73000000001,"N_COORD97":2541068.75,"ADDRESS":"利東街７５號四樓之１","OBJECTID":480432},"geometry":{"x":171677.73000000138,"y":2541068.75}},{"attributes":{"ID":480458,"DIS_CODE":0,"TOWNNAME":"東區","LI":"仁和里","LIN":"26鄰","STREET":"利東街","SECT":" ","MAREA":" ","LANE":" ","ALLEY":" ","HOUSE_NO":"７５號四樓之２","E_COORD97":171677.73000000001,"N_COORD97":2541068.75,"ADDRESS":"利東街７５號四樓之２","OBJECTID":480433},"geometry":{"x":171677.73000000138,"y":2541068.75}},{"attributes":{"ID":480459,"DIS_CODE":0,"TOWNNAME":"永康區","LI":"網寮里","LIN":"26鄰","STREET":"永興路","SECT":" ","MAREA":" ","LANE":" ","ALLEY":" ","HOUSE_NO":"９１號八樓之１","E_COORD97":173982.51000000001,"N_COORD97":2546562.8599999999,"ADDRESS":"永興路９１號八樓之１","OBJECTID":480434},"geometry":{"x":173982.51000000071,"y":2546562.8599999994}},{"attributes":{"ID":480460,"DIS_CODE":0,"TOWNNAME":"永康區","LI":"網寮里","LIN":"26鄰","STREET":"永興路","SECT":" ","MAREA":" ","LANE":" ","ALLEY":" ","HOUSE_NO":"９１號七樓之３","E_COORD97":173982.60999999999,"N_COORD97":2546562.8599999999,"ADDRESS":"永興路９１號七樓之３","OBJECTID":480435},"geometry":{"x":173982.61000000034,"y":2546562.8599999994}},{"attributes":{"ID":480461,"DIS_CODE":0,"TOWNNAME":"永康區","LI":"永康里","LIN":"26鄰","STREET":"中山北路","SECT":" ","MAREA":" ","LANE":" ","ALLEY":" ","HOUSE_NO":"１１４號十七樓之２","E_COORD97":174165.12,"N_COORD97":2547447.25,"ADDRESS":"中山北路１１４號十七樓之２","OBJECTID":480436},"geometry":{"x":174165.12000000104,"y":2547447.2500000019}},{"attributes":{"ID":480462,"DIS_CODE":0,"TOWNNAME":"永康區","LI":"永康里","LIN":"26鄰","STREET":"中山北路","SECT":" ","MAREA":" ","LANE":" ","ALLEY":" ","HOUSE_NO":"７２號五樓之１","E_COORD97":174076.98999999999,"N_COORD97":2547388.7599999998,"ADDRESS":"中山北路７２號五樓之１","OBJECTID":480437},"geometry":{"x":174076.99000000022,"y":2547388.7600000035}},{"attributes":{"ID":480463,"DIS_CODE":0,"TOWNNAME":"永康區","LI":"永康里","LIN":"26鄰","STREET":"中山北路","SECT":" ","MAREA":" ","LANE":" ","ALLEY":" ","HOUSE_NO":"１１４號十二樓之２","E_COORD97":174165.12,"N_COORD97":2547447.25,"ADDRESS":"中山北路１１４號十二樓之２","OBJECTID":480438},"geometry":{"x":174165.12000000104,"y":2547447.2500000019}},{"attributes":{"ID":480464,"DIS_CODE":0,"TOWNNAME":"永康區","LI":"網寮里","LIN":"26鄰","STREET":"永興路","SECT":" ","MAREA":" ","LANE":" ","ALLEY":" ","HOUSE_NO":"９１號四樓之１","E_COORD97":173982.51000000001,"N_COORD97":2546562.8599999999,"ADDRESS":"永興路９１號四樓之１","OBJECTID":480439},"geometry":{"x":173982.51000000071,"y":2546562.8599999994}},{"attributes":{"ID":480465,"DIS_CODE":0,"TOWNNAME":"永康區","LI":"永康里","LIN":"26鄰","STREET":"永大路","SECT":"二段","MAREA":" ","LANE":" ","ALLEY":" ","HOUSE_NO":"１１２９號十樓之５","E_COORD97":174198.59,"N_COORD97":2547482.3599999999,"ADDRESS":"永大路二段１１２９號十樓之５","OBJECTID":480440},"geometry":{"x":174198.59000000078,"y":2547482.3599999994}},{"attributes":{"ID":480466,"DIS_CODE":0,"TOWNNAME":"永康區","LI":"安康里","LIN":"26鄰","STREET":"大橋一街","SECT":" ","MAREA":" ","LANE":" ","ALLEY":" ","HOUSE_NO":"５３號十二樓之２","E_COORD97":170780.12,"N_COORD97":2546346.7999999998,"ADDRESS":"大橋一街５３號十二樓之２","OBJECTID":480441},"geometry":{"x":170780.12000000011,"y":2546346.8000000026}},{"attributes":{"ID":480467,"DIS_CODE":0,"TOWNNAME":"安南區","LI":"鳳凰里","LIN":"26鄰","STREET":"同安路","SECT":" ","MAREA":" ","LANE":" ","ALLEY":" ","HOUSE_NO":"４１０號十八樓之２","E_COORD97":167367.51999999999,"N_COORD97":2549438.6800000002,"ADDRESS":"同安路４１０號十八樓之２","OBJECTID":480442},"geometry":{"x":167367.52000000048,"y":2549438.6800000016}},{"attributes":{"ID":480468,"DIS_CODE":0,"TOWNNAME":"安南區","LI":"鳳凰里","LIN":"26鄰","STREET":"同安路","SECT":" ","MAREA":" ","LANE":" ","ALLEY":" ","HOUSE_NO":"４００號七樓之１","E_COORD97":167362.76000000001,"N_COORD97":2549428.75,"ADDRESS":"同安路４００號七樓之１","OBJECTID":480443},"geometry":{"x":167362.76000000071,"y":2549428.75}},{"attributes":{"ID":480469,"DIS_CODE":0,"TOWNNAME":"安南區","LI":"鳳凰里","LIN":"26鄰","STREET":"同安路","SECT":" ","MAREA":" ","LANE":" ","ALLEY":" ","HOUSE_NO":"４００號七樓之２","E_COORD97":167362.76000000001,"N_COORD97":2549428.75,"ADDRESS":"同安路４００號七樓之２","OBJECTID":480444},"geometry":{"x":167362.76000000071,"y":2549428.75}},{"attributes":{"ID":480470,"DIS_CODE":0,"TOWNNAME":"安南區","LI":"鳳凰里","LIN":"26鄰","STREET":"同安路","SECT":" ","MAREA":" ","LANE":" ","ALLEY":" ","HOUSE_NO":"４００號七樓之３","E_COORD97":167362.76000000001,"N_COORD97":2549428.75,"ADDRESS":"同安路４００號七樓之３","OBJECTID":480445},"geometry":{"x":167362.76000000071,"y":2549428.75}},{"attributes":{"ID":480471,"DIS_CODE":0,"TOWNNAME":"安南區","LI":"鳳凰里","LIN":"26鄰","STREET":"同安路","SECT":" ","MAREA":" ","LANE":" ","ALLEY":" ","HOUSE_NO":"４００號九樓之１","E_COORD97":167362.76000000001,"N_COORD97":2549428.75,"ADDRESS":"同安路４００號九樓之１","OBJECTID":480446},"geometry":{"x":167362.76000000071,"y":2549428.75}},{"attributes":{"ID":480472,"DIS_CODE":0,"TOWNNAME":"安南區","LI":"鳳凰里","LIN":"26鄰","STREET":"同安路","SECT":" ","MAREA":" ","LANE":" ","ALLEY":" ","HOUSE_NO":"４００號九樓之２","E_COORD97":167362.76000000001,"N_COORD97":2549428.75,"ADDRESS":"同安路４００號九樓之２","OBJECTID":480447},"geometry":{"x":167362.76000000071,"y":2549428.75}},{"attributes":{"ID":480473,"DIS_CODE":0,"TOWNNAME":"安南區","LI":"鳳凰里","LIN":"26鄰","STREET":"同安路","SECT":" ","MAREA":" ","LANE":" ","ALLEY":" ","HOUSE_NO":"４００號九樓之３","E_COORD97":167362.76000000001,"N_COORD97":2549428.75,"ADDRESS":"同安路４００號九樓之３","OBJECTID":480448},"geometry":{"x":167362.76000000071,"y":2549428.75}},{"attributes":{"ID":480474,"DIS_CODE":0,"TOWNNAME":"安南區","LI":"鳳凰里","LIN":"26鄰","STREET":"同安路","SECT":" ","MAREA":" ","LANE":" ","ALLEY":" ","HOUSE_NO":"４００號八樓之１","E_COORD97":167362.76000000001,"N_COORD97":2549428.75,"ADDRESS":"同安路４００號八樓之１","OBJECTID":480449},"geometry":{"x":167362.76000000071,"y":2549428.75}},{"attributes":{"ID":480475,"DIS_CODE":0,"TOWNNAME":"安南區","LI":"鳳凰里","LIN":"26鄰","STREET":"同安路","SECT":" ","MAREA":" ","LANE":" ","ALLEY":" ","HOUSE_NO":"４００號八樓之２","E_COORD97":167362.76000000001,"N_COORD97":2549428.75,"ADDRESS":"同安路４００號八樓之２","OBJECTID":480450},"geometry":{"x":167362.76000000071,"y":2549428.75}},{"attributes":{"ID":480476,"DIS_CODE":0,"TOWNNAME":"安南區","LI":"鳳凰里","LIN":"26鄰","STREET":"同安路","SECT":" ","MAREA":" ","LANE":" ","ALLEY":" ","HOUSE_NO":"４００號八樓之３","E_COORD97":167362.76000000001,"N_COORD97":2549428.75,"ADDRESS":"同安路４００號八樓之３","OBJECTID":480451},"geometry":{"x":167362.76000000071,"y":2549428.75}},{"attributes":{"ID":480477,"DIS_CODE":0,"TOWNNAME":"安南區","LI":"鳳凰里","LIN":"26鄰","STREET":"同安路","SECT":" ","MAREA":" ","LANE":" ","ALLEY":" ","HOUSE_NO":"４００號十一樓之１","E_COORD97":167362.76000000001,"N_COORD97":2549428.75,"ADDRESS":"同安路４００號十一樓之１","OBJECTID":480452},"geometry":{"x":167362.76000000071,"y":2549428.75}},{"attributes":{"ID":480478,"DIS_CODE":0,"TOWNNAME":"安南區","LI":"鳳凰里","LIN":"26鄰","STREET":"同安路","SECT":" ","MAREA":" ","LANE":" ","ALLEY":" ","HOUSE_NO":"４００號十一樓之２","E_COORD97":167362.76000000001,"N_COORD97":2549428.75,"ADDRESS":"同安路４００號十一樓之２","OBJECTID":480453},"geometry":{"x":167362.76000000071,"y":2549428.75}},{"attributes":{"ID":480479,"DIS_CODE":0,"TOWNNAME":"安南區","LI":"鳳凰里","LIN":"26鄰","STREET":"同安路","SECT":" ","MAREA":" ","LANE":" ","ALLEY":" ","HOUSE_NO":"４００號十一樓之３","E_COORD97":167362.76000000001,"N_COORD97":2549428.75,"ADDRESS":"同安路４００號十一樓之３","OBJECTID":480454},"geometry":{"x":167362.76000000071,"y":2549428.75}},{"attributes":{"ID":480480,"DIS_CODE":0,"TOWNNAME":"安南區","LI":"鳳凰里","LIN":"26鄰","STREET":"同安路","SECT":" ","MAREA":" ","LANE":" ","ALLEY":" ","HOUSE_NO":"４００號十七樓之１","E_COORD97":167362.76000000001,"N_COORD97":2549428.75,"ADDRESS":"同安路４００號十七樓之１","OBJECTID":480455},"geometry":{"x":167362.76000000071,"y":2549428.75}},{"attributes":{"ID":480481,"DIS_CODE":0,"TOWNNAME":"安南區","LI":"鳳凰里","LIN":"26鄰","STREET":"同安路","SECT":" ","MAREA":" ","LANE":" ","ALLEY":" ","HOUSE_NO":"４００號十七樓之２","E_COORD97":167362.76000000001,"N_COORD97":2549428.75,"ADDRESS":"同安路４００號十七樓之２","OBJECTID":480456},"geometry":{"x":167362.76000000071,"y":2549428.75}},{"attributes":{"ID":480482,"DIS_CODE":0,"TOWNNAME":"安南區","LI":"鳳凰里","LIN":"26鄰","STREET":"同安路","SECT":" ","MAREA":" ","LANE":" ","ALLEY":" ","HOUSE_NO":"４００號十七樓之３","E_COORD97":167362.76000000001,"N_COORD97":2549428.75,"ADDRESS":"同安路４００號十七樓之３","OBJECTID":480457},"geometry":{"x":167362.76000000071,"y":2549428.75}},{"attributes":{"ID":480483,"DIS_CODE":0,"TOWNNAME":"南區","LI":"新興里","LIN":"18鄰","STREET":"三官路","SECT":" ","MAREA":" ","LANE":" ","ALLEY":" ","HOUSE_NO":"１７９號","E_COORD97":167282.85999999999,"N_COORD97":2542009.6600000001,"ADDRESS":"三官路１７９號","OBJECTID":480458},"geometry":{"x":167282.86000000127,"y":2542009.6600000039}},{"attributes":{"ID":480484,"DIS_CODE":0,"TOWNNAME":"安南區","LI":"鳳凰里","LIN":"26鄰","STREET":"同安路","SECT":" ","MAREA":" ","LANE":" ","ALLEY":" ","HOUSE_NO":"４００號十二樓之１","E_COORD97":167362.76000000001,"N_COORD97":2549428.75,"ADDRESS":"同安路４００號十二樓之１","OBJECTID":480459},"geometry":{"x":167362.76000000071,"y":2549428.75}},{"attributes":{"ID":480485,"DIS_CODE":0,"TOWNNAME":"安南區","LI":"鳳凰里","LIN":"26鄰","STREET":"同安路","SECT":" ","MAREA":" ","LANE":" ","ALLEY":" ","HOUSE_NO":"４００號十二樓之２","E_COORD97":167362.76000000001,"N_COORD97":2549428.75,"ADDRESS":"同安路４００號十二樓之２","OBJECTID":480460},"geometry":{"x":167362.76000000071,"y":2549428.75}},{"attributes":{"ID":480486,"DIS_CODE":0,"TOWNNAME":"安南區","LI":"鳳凰里","LIN":"26鄰","STREET":"同安路","SECT":" ","MAREA":" ","LANE":" ","ALLEY":" ","HOUSE_NO":"４００號十二樓之３","E_COORD97":167362.76000000001,"N_COORD97":2549428.75,"ADDRESS":"同安路４００號十二樓之３","OBJECTID":480461},"geometry":{"x":167362.76000000071,"y":2549428.75}},{"attributes":{"ID":480487,"DIS_CODE":0,"TOWNNAME":"安南區","LI":"鳳凰里","LIN":"26鄰","STREET":"同安路","SECT":" ","MAREA":" ","LANE":" ","ALLEY":" ","HOUSE_NO":"４００號十八樓之１","E_COORD97":167362.76000000001,"N_COORD97":2549428.75,"ADDRESS":"同安路４００號十八樓之１","OBJECTID":480462},"geometry":{"x":167362.76000000071,"y":2549428.75}},{"attributes":{"ID":480488,"DIS_CODE":0,"TOWNNAME":"安南區","LI":"鳳凰里","LIN":"26鄰","STREET":"同安路","SECT":" ","MAREA":" ","LANE":" ","ALLEY":" ","HOUSE_NO":"４００號十八樓之２","E_COORD97":167362.76000000001,"N_COORD97":2549428.75,"ADDRESS":"同安路４００號十八樓之２","OBJECTID":480463},"geometry":{"x":167362.76000000071,"y":2549428.75}},{"attributes":{"ID":480489,"DIS_CODE":0,"TOWNNAME":"安南區","LI":"鳳凰里","LIN":"26鄰","STREET":"同安路","SECT":" ","MAREA":" ","LANE":" ","ALLEY":" ","HOUSE_NO":"４００號十八樓之３","E_COORD97":167362.76000000001,"N_COORD97":2549428.75,"ADDRESS":"同安路４００號十八樓之３","OBJECTID":480464},"geometry":{"x":167362.76000000071,"y":2549428.75}},{"attributes":{"ID":480490,"DIS_CODE":0,"TOWNNAME":"安南區","LI":"鳳凰里","LIN":"26鄰","STREET":"同安路","SECT":" ","MAREA":" ","LANE":" ","ALLEY":" ","HOUSE_NO":"４００號十三樓之１","E_COORD97":167362.76000000001,"N_COORD97":2549428.75,"ADDRESS":"同安路４００號十三樓之１","OBJECTID":480465},"geometry":{"x":167362.76000000071,"y":2549428.75}},{"attributes":{"ID":480491,"DIS_CODE":0,"TOWNNAME":"安南區","LI":"鳳凰里","LIN":"26鄰","STREET":"同安路","SECT":" ","MAREA":" ","LANE":" ","ALLEY":" ","HOUSE_NO":"４００號十三樓之２","E_COORD97":167362.76000000001,"N_COORD97":2549428.75,"ADDRESS":"同安路４００號十三樓之２","OBJECTID":480466},"geometry":{"x":167362.76000000071,"y":2549428.75}},{"attributes":{"ID":480492,"DIS_CODE":0,"TOWNNAME":"安南區","LI":"鳳凰里","LIN":"26鄰","STREET":"同安路","SECT":" ","MAREA":" ","LANE":" ","ALLEY":" ","HOUSE_NO":"４００號十三樓之３","E_COORD97":167362.76000000001,"N_COORD97":2549428.75,"ADDRESS":"同安路４００號十三樓之３","OBJECTID":480467},"geometry":{"x":167362.76000000071,"y":2549428.75}},{"attributes":{"ID":480493,"DIS_CODE":0,"TOWNNAME":"安南區","LI":"鳳凰里","LIN":"26鄰","STREET":"同安路","SECT":" ","MAREA":" ","LANE":" ","ALLEY":" ","HOUSE_NO":"４００號十五樓之１","E_COORD97":167362.76000000001,"N_COORD97":2549428.75,"ADDRESS":"同安路４００號十五樓之１","OBJECTID":480468},"geometry":{"x":167362.76000000071,"y":2549428.75}},{"attributes":{"ID":480494,"DIS_CODE":0,"TOWNNAME":"安南區","LI":"鳳凰里","LIN":"26鄰","STREET":"同安路","SECT":" ","MAREA":" ","LANE":" ","ALLEY":" ","HOUSE_NO":"４００號十五樓之２","E_COORD97":167362.76000000001,"N_COORD97":2549428.75,"ADDRESS":"同安路４００號十五樓之２","OBJECTID":480469},"geometry":{"x":167362.76000000071,"y":2549428.75}},{"attributes":{"ID":480495,"DIS_CODE":0,"TOWNNAME":"安南區","LI":"鳳凰里","LIN":"26鄰","STREET":"同安路","SECT":" ","MAREA":" ","LANE":" ","ALLEY":" ","HOUSE_NO":"４００號十五樓之３","E_COORD97":167362.76000000001,"N_COORD97":2549428.75,"ADDRESS":"同安路４００號十五樓之３","OBJECTID":480470},"geometry":{"x":167362.76000000071,"y":2549428.75}},{"attributes":{"ID":480496,"DIS_CODE":0,"TOWNNAME":"安南區","LI":"鳳凰里","LIN":"26鄰","STREET":"同安路","SECT":" ","MAREA":" ","LANE":" ","ALLEY":" ","HOUSE_NO":"４００號十六樓之１","E_COORD97":167362.76000000001,"N_COORD97":2549428.75,"ADDRESS":"同安路４００號十六樓之１","OBJECTID":480471},"geometry":{"x":167362.76000000071,"y":2549428.75}},{"attributes":{"ID":480497,"DIS_CODE":0,"TOWNNAME":"安南區","LI":"鳳凰里","LIN":"26鄰","STREET":"同安路","SECT":" ","MAREA":" ","LANE":" ","ALLEY":" ","HOUSE_NO":"４００號十六樓之２","E_COORD97":167362.76000000001,"N_COORD97":2549428.75,"ADDRESS":"同安路４００號十六樓之２","OBJECTID":480472},"geometry":{"x":167362.76000000071,"y":2549428.75}},{"attributes":{"ID":480498,"DIS_CODE":0,"TOWNNAME":"安南區","LI":"鳳凰里","LIN":"26鄰","STREET":"同安路","SECT":" ","MAREA":" ","LANE":" ","ALLEY":" ","HOUSE_NO":"４００號十六樓之３","E_COORD97":167362.76000000001,"N_COORD97":2549428.75,"ADDRESS":"同安路４００號十六樓之３","OBJECTID":480473},"geometry":{"x":167362.76000000071,"y":2549428.75}},{"attributes":{"ID":480499,"DIS_CODE":0,"TOWNNAME":"安南區","LI":"鳳凰里","LIN":"26鄰","STREET":"同安路","SECT":" ","MAREA":" ","LANE":" ","ALLEY":" ","HOUSE_NO":"４００號十四樓之１","E_COORD97":167362.76000000001,"N_COORD97":2549428.75,"ADDRESS":"同安路４００號十四樓之１","OBJECTID":480474},"geometry":{"x":167362.76000000071,"y":2549428.75}},{"attributes":{"ID":480500,"DIS_CODE":0,"TOWNNAME":"安南區","LI":"鳳凰里","LIN":"26鄰","STREET":"同安路","SECT":" ","MAREA":" ","LANE":" ","ALLEY":" ","HOUSE_NO":"４００號十四樓之２","E_COORD97":167362.76000000001,"N_COORD97":2549428.75,"ADDRESS":"同安路４００號十四樓之２","OBJECTID":480475},"geometry":{"x":167362.76000000071,"y":2549428.75}},{"attributes":{"ID":480501,"DIS_CODE":0,"TOWNNAME":"南區","LI":"新興里","LIN":"18鄰","STREET":"三官路","SECT":" ","MAREA":" ","LANE":" ","ALLEY":" ","HOUSE_NO":"１３５號","E_COORD97":167324.31,"N_COORD97":2542095.3999999999,"ADDRESS":"三官路１３５號","OBJECTID":480476},"geometry":{"x":167324.31000000145,"y":2542095.4000000004}},{"attributes":{"ID":480502,"DIS_CODE":0,"TOWNNAME":"安南區","LI":"鳳凰里","LIN":"26鄰","STREET":"同安路","SECT":" ","MAREA":" ","LANE":" ","ALLEY":" ","HOUSE_NO":"４００號十四樓之３","E_COORD97":167362.76000000001,"N_COORD97":2549428.75,"ADDRESS":"同安路４００號十四樓之３","OBJECTID":480477},"geometry":{"x":167362.76000000071,"y":2549428.75}},{"attributes":{"ID":480503,"DIS_CODE":0,"TOWNNAME":"永康區","LI":"蔦松里","LIN":"8鄰","STREET":"中正北路","SECT":" ","MAREA":" ","LANE":"４２９巷","ALLEY":" ","HOUSE_NO":"８號","E_COORD97":173612.5,"N_COORD97":2549188.23,"ADDRESS":"中正北路４２９巷８號","OBJECTID":480478},"geometry":{"x":173612.50000000186,"y":2549188.2300000023}},{"attributes":{"ID":480504,"DIS_CODE":0,"TOWNNAME":"永康區","LI":"蔦松里","LIN":"8鄰","STREET":"中正北路","SECT":" ","MAREA":" ","LANE":"４２９巷","ALLEY":" ","HOUSE_NO":"６號","E_COORD97":173610.35000000001,"N_COORD97":2549184.23,"ADDRESS":"中正北路４２９巷６號","OBJECTID":480479},"geometry":{"x":173610.35000000056,"y":2549184.2300000023}},{"attributes":{"ID":480505,"DIS_CODE":0,"TOWNNAME":"永康區","LI":"新樹里","LIN":"8鄰","STREET":"富強路","SECT":"二段","MAREA":" ","LANE":"５６巷","ALLEY":" ","HOUSE_NO":"５６號","E_COORD97":175795.79999999999,"N_COORD97":2547007.54,"ADDRESS":"富強路二段５６巷５６號","OBJECTID":480480},"geometry":{"x":175795.80000000075,"y":2547007.540000001}},{"attributes":{"ID":480506,"DIS_CODE":0,"TOWNNAME":"東區","LI":"龍山里","LIN":"8鄰","STREET":"東門路","SECT":"二段","MAREA":" ","LANE":"１５８巷","ALLEY":" ","HOUSE_NO":"７６號","E_COORD97":170043.07999999999,"N_COORD97":2542767.25,"ADDRESS":"東門路二段１５８巷７６號","OBJECTID":480481},"geometry":{"x":170043.08000000007,"y":2542767.25}},{"attributes":{"ID":480507,"DIS_CODE":0,"TOWNNAME":"東區","LI":"龍山里","LIN":"8鄰","STREET":"東門路","SECT":"二段","MAREA":" ","LANE":"１５８巷","ALLEY":" ","HOUSE_NO":"７８號","E_COORD97":170062.82999999999,"N_COORD97":2542781.6600000001,"ADDRESS":"東門路二段１５８巷７８號","OBJECTID":480482},"geometry":{"x":170062.83000000101,"y":2542781.6600000001}},{"attributes":{"ID":480508,"DIS_CODE":0,"TOWNNAME":"東區","LI":"虎尾里","LIN":"8鄰","STREET":"富農街","SECT":"一段","MAREA":" ","LANE":"４８巷","ALLEY":" ","HOUSE_NO":"３０號","E_COORD97":171645.67999999999,"N_COORD97":2542137.4100000001,"ADDRESS":"富農街一段４８巷３０號","OBJECTID":480483},"geometry":{"x":171645.6799999997,"y":2542137.410000002}},{"attributes":{"ID":480509,"DIS_CODE":0,"TOWNNAME":"安南區","LI":"鳳凰里","LIN":"26鄰","STREET":"同安路","SECT":" ","MAREA":" ","LANE":" ","ALLEY":" ","HOUSE_NO":"４００號十樓之１","E_COORD97":167362.76000000001,"N_COORD97":2549428.75,"ADDRESS":"同安路４００號十樓之１","OBJECTID":480484},"geometry":{"x":167362.76000000071,"y":2549428.75}},{"attributes":{"ID":480510,"DIS_CODE":0,"TOWNNAME":"安南區","LI":"鳳凰里","LIN":"26鄰","STREET":"同安路","SECT":" ","MAREA":" ","LANE":" ","ALLEY":" ","HOUSE_NO":"４００號十樓之２","E_COORD97":167362.76000000001,"N_COORD97":2549428.75,"ADDRESS":"同安路４００號十樓之２","OBJECTID":480485},"geometry":{"x":167362.76000000071,"y":2549428.75}},{"attributes":{"ID":480511,"DIS_CODE":0,"TOWNNAME":"安南區","LI":"鳳凰里","LIN":"26鄰","STREET":"同安路","SECT":" ","MAREA":" ","LANE":" ","ALLEY":" ","HOUSE_NO":"４００號十樓之３","E_COORD97":167362.76000000001,"N_COORD97":2549428.75,"ADDRESS":"同安路４００號十樓之３","OBJECTID":480486},"geometry":{"x":167362.76000000071,"y":2549428.75}},{"attributes":{"ID":480512,"DIS_CODE":0,"TOWNNAME":"安南區","LI":"鳳凰里","LIN":"26鄰","STREET":"同安路","SECT":" ","MAREA":" ","LANE":" ","ALLEY":" ","HOUSE_NO":"４００號五樓之１","E_COORD97":167362.76000000001,"N_COORD97":2549428.75,"ADDRESS":"同安路４００號五樓之１","OBJECTID":480487},"geometry":{"x":167362.76000000071,"y":2549428.75}},{"attributes":{"ID":480513,"DIS_CODE":0,"TOWNNAME":"安南區","LI":"鳳凰里","LIN":"26鄰","STREET":"同安路","SECT":" ","MAREA":" ","LANE":" ","ALLEY":" ","HOUSE_NO":"４００號五樓之２","E_COORD97":167362.76000000001,"N_COORD97":2549428.75,"ADDRESS":"同安路４００號五樓之２","OBJECTID":480488},"geometry":{"x":167362.76000000071,"y":2549428.75}},{"attributes":{"ID":480514,"DIS_CODE":0,"TOWNNAME":"安南區","LI":"鳳凰里","LIN":"26鄰","STREET":"同安路","SECT":" ","MAREA":" ","LANE":" ","ALLEY":" ","HOUSE_NO":"４００號五樓之３","E_COORD97":167362.76000000001,"N_COORD97":2549428.75,"ADDRESS":"同安路４００號五樓之３","OBJECTID":480489},"geometry":{"x":167362.76000000071,"y":2549428.75}},{"attributes":{"ID":480515,"DIS_CODE":0,"TOWNNAME":"安南區","LI":"鳳凰里","LIN":"26鄰","STREET":"同安路","SECT":" ","MAREA":" ","LANE":" ","ALLEY":" ","HOUSE_NO":"４００號六樓之１","E_COORD97":167362.76000000001,"N_COORD97":2549428.75,"ADDRESS":"同安路４００號六樓之１","OBJECTID":480490},"geometry":{"x":167362.76000000071,"y":2549428.75}},{"attributes":{"ID":480516,"DIS_CODE":0,"TOWNNAME":"安南區","LI":"鳳凰里","LIN":"26鄰","STREET":"同安路","SECT":" ","MAREA":" ","LANE":" ","ALLEY":" ","HOUSE_NO":"４００號六樓之２","E_COORD97":167362.76000000001,"N_COORD97":2549428.75,"ADDRESS":"同安路４００號六樓之２","OBJECTID":480491},"geometry":{"x":167362.76000000071,"y":2549428.75}},{"attributes":{"ID":480517,"DIS_CODE":0,"TOWNNAME":"安南區","LI":"鳳凰里","LIN":"26鄰","STREET":"同安路","SECT":" ","MAREA":" ","LANE":" ","ALLEY":" ","HOUSE_NO":"４００號六樓之３","E_COORD97":167362.76000000001,"N_COORD97":2549428.75,"ADDRESS":"同安路４００號六樓之３","OBJECTID":480492},"geometry":{"x":167362.76000000071,"y":2549428.75}},{"attributes":{"ID":480518,"DIS_CODE":0,"TOWNNAME":"安南區","LI":"鳳凰里","LIN":"26鄰","STREET":"同安路","SECT":" ","MAREA":" ","LANE":" ","ALLEY":" ","HOUSE_NO":"４１０號七樓之１","E_COORD97":167367.51999999999,"N_COORD97":2549438.6800000002,"ADDRESS":"同安路４１０號七樓之１","OBJECTID":480493},"geometry":{"x":167367.52000000048,"y":2549438.6800000016}},{"attributes":{"ID":480519,"DIS_CODE":0,"TOWNNAME":"安南區","LI":"鳳凰里","LIN":"26鄰","STREET":"同安路","SECT":" ","MAREA":" ","LANE":" ","ALLEY":" ","HOUSE_NO":"４１０號七樓之２","E_COORD97":167367.51999999999,"N_COORD97":2549438.6800000002,"ADDRESS":"同安路４１０號七樓之２","OBJECTID":480494},"geometry":{"x":167367.52000000048,"y":2549438.6800000016}},{"attributes":{"ID":480520,"DIS_CODE":0,"TOWNNAME":"安南區","LI":"鳳凰里","LIN":"26鄰","STREET":"同安路","SECT":" ","MAREA":" ","LANE":" ","ALLEY":" ","HOUSE_NO":"４１０號九樓之１","E_COORD97":167367.51999999999,"N_COORD97":2549438.6800000002,"ADDRESS":"同安路４１０號九樓之１","OBJECTID":480495},"geometry":{"x":167367.52000000048,"y":2549438.6800000016}},{"attributes":{"ID":480521,"DIS_CODE":0,"TOWNNAME":"安南區","LI":"鳳凰里","LIN":"26鄰","STREET":"同安路","SECT":" ","MAREA":" ","LANE":" ","ALLEY":" ","HOUSE_NO":"４１０號九樓之２","E_COORD97":167367.51999999999,"N_COORD97":2549438.6800000002,"ADDRESS":"同安路４１０號九樓之２","OBJECTID":480496},"geometry":{"x":167367.52000000048,"y":2549438.6800000016}},{"attributes":{"ID":480522,"DIS_CODE":0,"TOWNNAME":"安南區","LI":"鳳凰里","LIN":"26鄰","STREET":"同安路","SECT":" ","MAREA":" ","LANE":" ","ALLEY":" ","HOUSE_NO":"４１０號八樓之１","E_COORD97":167367.51999999999,"N_COORD97":2549438.6800000002,"ADDRESS":"同安路４１０號八樓之１","OBJECTID":480497},"geometry":{"x":167367.52000000048,"y":2549438.6800000016}},{"attributes":{"ID":480523,"DIS_CODE":0,"TOWNNAME":"安南區","LI":"鳳凰里","LIN":"26鄰","STREET":"同安路","SECT":" ","MAREA":" ","LANE":" ","ALLEY":" ","HOUSE_NO":"４１０號八樓之２","E_COORD97":167367.51999999999,"N_COORD97":2549438.6800000002,"ADDRESS":"同安路４１０號八樓之２","OBJECTID":480498},"geometry":{"x":167367.52000000048,"y":2549438.6800000016}},{"attributes":{"ID":480524,"DIS_CODE":0,"TOWNNAME":"安南區","LI":"鳳凰里","LIN":"26鄰","STREET":"同安路","SECT":" ","MAREA":" ","LANE":" ","ALLEY":" ","HOUSE_NO":"４１０號十一樓之１","E_COORD97":167367.51999999999,"N_COORD97":2549438.6800000002,"ADDRESS":"同安路４１０號十一樓之１","OBJECTID":480499},"geometry":{"x":167367.52000000048,"y":2549438.6800000016}},{"attributes":{"ID":480525,"DIS_CODE":0,"TOWNNAME":"安南區","LI":"鳳凰里","LIN":"26鄰","STREET":"同安路","SECT":" ","MAREA":" ","LANE":" ","ALLEY":" ","HOUSE_NO":"４１０號十一樓之２","E_COORD97":167367.51999999999,"N_COORD97":2549438.6800000002,"ADDRESS":"同安路４１０號十一樓之２","OBJECTID":480500},"geometry":{"x":167367.52000000048,"y":2549438.6800000016}},{"attributes":{"ID":480526,"DIS_CODE":0,"TOWNNAME":"安南區","LI":"鳳凰里","LIN":"26鄰","STREET":"同安路","SECT":" ","MAREA":" ","LANE":" ","ALLEY":" ","HOUSE_NO":"４１０號十七樓之１","E_COORD97":167367.51999999999,"N_COORD97":2549438.6800000002,"ADDRESS":"同安路４１０號十七樓之１","OBJECTID":480501},"geometry":{"x":167367.52000000048,"y":2549438.6800000016}},{"attributes":{"ID":480527,"DIS_CODE":0,"TOWNNAME":"安南區","LI":"鳳凰里","LIN":"26鄰","STREET":"同安路","SECT":" ","MAREA":" ","LANE":" ","ALLEY":" ","HOUSE_NO":"４１０號十七樓之２","E_COORD97":167367.51999999999,"N_COORD97":2549438.6800000002,"ADDRESS":"同安路４１０號十七樓之２","OBJECTID":480502},"geometry":{"x":167367.52000000048,"y":2549438.6800000016}},{"attributes":{"ID":480528,"DIS_CODE":0,"TOWNNAME":"安南區","LI":"鳳凰里","LIN":"26鄰","STREET":"同安路","SECT":" ","MAREA":" ","LANE":" ","ALLEY":" ","HOUSE_NO":"４１０號十二樓之１","E_COORD97":167367.51999999999,"N_COORD97":2549438.6800000002,"ADDRESS":"同安路４１０號十二樓之１","OBJECTID":480503},"geometry":{"x":167367.52000000048,"y":2549438.6800000016}},{"attributes":{"ID":480529,"DIS_CODE":0,"TOWNNAME":"安南區","LI":"鳳凰里","LIN":"26鄰","STREET":"同安路","SECT":" ","MAREA":" ","LANE":" ","ALLEY":" ","HOUSE_NO":"４１０號十二樓之２","E_COORD97":167367.51999999999,"N_COORD97":2549438.6800000002,"ADDRESS":"同安路４１０號十二樓之２","OBJECTID":480504},"geometry":{"x":167367.52000000048,"y":2549438.6800000016}},{"attributes":{"ID":480530,"DIS_CODE":0,"TOWNNAME":"安南區","LI":"鳳凰里","LIN":"26鄰","STREET":"同安路","SECT":" ","MAREA":" ","LANE":" ","ALLEY":" ","HOUSE_NO":"４１０號十三樓之１","E_COORD97":167367.51999999999,"N_COORD97":2549438.6800000002,"ADDRESS":"同安路４１０號十三樓之１","OBJECTID":480505},"geometry":{"x":167367.52000000048,"y":2549438.6800000016}},{"attributes":{"ID":480531,"DIS_CODE":0,"TOWNNAME":"安南區","LI":"鳳凰里","LIN":"26鄰","STREET":"同安路","SECT":" ","MAREA":" ","LANE":" ","ALLEY":" ","HOUSE_NO":"４１０號十三樓之２","E_COORD97":167367.51999999999,"N_COORD97":2549438.6800000002,"ADDRESS":"同安路４１０號十三樓之２","OBJECTID":480506},"geometry":{"x":167367.52000000048,"y":2549438.6800000016}},{"attributes":{"ID":480532,"DIS_CODE":0,"TOWNNAME":"安南區","LI":"鳳凰里","LIN":"26鄰","STREET":"同安路","SECT":" ","MAREA":" ","LANE":" ","ALLEY":" ","HOUSE_NO":"４１０號十五樓之１","E_COORD97":167367.51999999999,"N_COORD97":2549438.6800000002,"ADDRESS":"同安路４１０號十五樓之１","OBJECTID":480507},"geometry":{"x":167367.52000000048,"y":2549438.6800000016}},{"attributes":{"ID":480533,"DIS_CODE":0,"TOWNNAME":"安南區","LI":"鳳凰里","LIN":"26鄰","STREET":"同安路","SECT":" ","MAREA":" ","LANE":" ","ALLEY":" ","HOUSE_NO":"４１０號十五樓之２","E_COORD97":167367.51999999999,"N_COORD97":2549438.6800000002,"ADDRESS":"同安路４１０號十五樓之２","OBJECTID":480508},"geometry":{"x":167367.52000000048,"y":2549438.6800000016}},{"attributes":{"ID":480534,"DIS_CODE":0,"TOWNNAME":"安南區","LI":"鳳凰里","LIN":"26鄰","STREET":"同安路","SECT":" ","MAREA":" ","LANE":" ","ALLEY":" ","HOUSE_NO":"４１０號十六樓之１","E_COORD97":167367.51999999999,"N_COORD97":2549438.6800000002,"ADDRESS":"同安路４１０號十六樓之１","OBJECTID":480509},"geometry":{"x":167367.52000000048,"y":2549438.6800000016}},{"attributes":{"ID":480535,"DIS_CODE":0,"TOWNNAME":"安南區","LI":"鳳凰里","LIN":"26鄰","STREET":"同安路","SECT":" ","MAREA":" ","LANE":" ","ALLEY":" ","HOUSE_NO":"４１０號十六樓之２","E_COORD97":167367.51999999999,"N_COORD97":2549438.6800000002,"ADDRESS":"同安路４１０號十六樓之２","OBJECTID":480510},"geometry":{"x":167367.52000000048,"y":2549438.6800000016}},{"attributes":{"ID":480536,"DIS_CODE":0,"TOWNNAME":"安南區","LI":"鳳凰里","LIN":"26鄰","STREET":"同安路","SECT":" ","MAREA":" ","LANE":" ","ALLEY":" ","HOUSE_NO":"４１０號十四樓之１","E_COORD97":167367.51999999999,"N_COORD97":2549438.6800000002,"ADDRESS":"同安路４１０號十四樓之１","OBJECTID":480511},"geometry":{"x":167367.52000000048,"y":2549438.6800000016}},{"attributes":{"ID":480537,"DIS_CODE":0,"TOWNNAME":"安南區","LI":"鳳凰里","LIN":"26鄰","STREET":"同安路","SECT":" ","MAREA":" ","LANE":" ","ALLEY":" ","HOUSE_NO":"４１０號十四樓之２","E_COORD97":167367.51999999999,"N_COORD97":2549438.6800000002,"ADDRESS":"同安路４１０號十四樓之２","OBJECTID":480512},"geometry":{"x":167367.52000000048,"y":2549438.6800000016}},{"attributes":{"ID":480538,"DIS_CODE":0,"TOWNNAME":"安南區","LI":"鳳凰里","LIN":"26鄰","STREET":"同安路","SECT":" ","MAREA":" ","LANE":" ","ALLEY":" ","HOUSE_NO":"４１０號十樓之１","E_COORD97":167367.51999999999,"N_COORD97":2549438.6800000002,"ADDRESS":"同安路４１０號十樓之１","OBJECTID":480513},"geometry":{"x":167367.52000000048,"y":2549438.6800000016}},{"attributes":{"ID":480539,"DIS_CODE":0,"TOWNNAME":"安南區","LI":"鳳凰里","LIN":"26鄰","STREET":"同安路","SECT":" ","MAREA":" ","LANE":" ","ALLEY":" ","HOUSE_NO":"４１０號十樓之２","E_COORD97":167367.51999999999,"N_COORD97":2549438.6800000002,"ADDRESS":"同安路４１０號十樓之２","OBJECTID":480514},"geometry":{"x":167367.52000000048,"y":2549438.6800000016}},{"attributes":{"ID":480540,"DIS_CODE":0,"TOWNNAME":"安南區","LI":"鳳凰里","LIN":"26鄰","STREET":"同安路","SECT":" ","MAREA":" ","LANE":" ","ALLEY":" ","HOUSE_NO":"４１０號五樓之１","E_COORD97":167367.51999999999,"N_COORD97":2549438.6800000002,"ADDRESS":"同安路４１０號五樓之１","OBJECTID":480515},"geometry":{"x":167367.52000000048,"y":2549438.6800000016}},{"attributes":{"ID":480541,"DIS_CODE":0,"TOWNNAME":"安南區","LI":"鳳凰里","LIN":"26鄰","STREET":"同安路","SECT":" ","MAREA":" ","LANE":" ","ALLEY":" ","HOUSE_NO":"４１０號五樓之２","E_COORD97":167367.51999999999,"N_COORD97":2549438.6800000002,"ADDRESS":"同安路４１０號五樓之２","OBJECTID":480516},"geometry":{"x":167367.52000000048,"y":2549438.6800000016}},{"attributes":{"ID":480542,"DIS_CODE":0,"TOWNNAME":"安南區","LI":"鳳凰里","LIN":"26鄰","STREET":"同安路","SECT":" ","MAREA":" ","LANE":" ","ALLEY":" ","HOUSE_NO":"４１０號六樓之１","E_COORD97":167367.51999999999,"N_COORD97":2549438.6800000002,"ADDRESS":"同安路４１０號六樓之１","OBJECTID":480517},"geometry":{"x":167367.52000000048,"y":2549438.6800000016}},{"attributes":{"ID":480543,"DIS_CODE":0,"TOWNNAME":"安南區","LI":"鳳凰里","LIN":"26鄰","STREET":"同安路","SECT":" ","MAREA":" ","LANE":" ","ALLEY":" ","HOUSE_NO":"４１０號六樓之２","E_COORD97":167367.51999999999,"N_COORD97":2549438.6800000002,"ADDRESS":"同安路４１０號六樓之２","OBJECTID":480518},"geometry":{"x":167367.52000000048,"y":2549438.6800000016}},{"attributes":{"ID":480544,"DIS_CODE":0,"TOWNNAME":"安南區","LI":"鳳凰里","LIN":"26鄰","STREET":"同安路","SECT":" ","MAREA":" ","LANE":" ","ALLEY":" ","HOUSE_NO":"４２０號七樓之１","E_COORD97":167381.89717499999,"N_COORD97":2549469.2178699998,"ADDRESS":"同安路４２０號七樓之１","OBJECTID":480519},"geometry":{"x":167381.89717500005,"y":2549469.2178690024}},{"attributes":{"ID":480545,"DIS_CODE":0,"TOWNNAME":"安南區","LI":"鳳凰里","LIN":"26鄰","STREET":"同安路","SECT":" ","MAREA":" ","LANE":" ","ALLEY":" ","HOUSE_NO":"４２０號七樓之２","E_COORD97":167381.89717499999,"N_COORD97":2549469.2178699998,"ADDRESS":"同安路４２０號七樓之２","OBJECTID":480520},"geometry":{"x":167381.89717500005,"y":2549469.2178690024}},{"attributes":{"ID":480546,"DIS_CODE":0,"TOWNNAME":"安南區","LI":"鳳凰里","LIN":"26鄰","STREET":"同安路","SECT":" ","MAREA":" ","LANE":" ","ALLEY":" ","HOUSE_NO":"４２０號九樓之１","E_COORD97":167381.89717499999,"N_COORD97":2549469.2178699998,"ADDRESS":"同安路４２０號九樓之１","OBJECTID":480521},"geometry":{"x":167381.89717500005,"y":2549469.2178690024}},{"attributes":{"ID":480547,"DIS_CODE":0,"TOWNNAME":"安南區","LI":"鳳凰里","LIN":"26鄰","STREET":"同安路","SECT":" ","MAREA":" ","LANE":" ","ALLEY":" ","HOUSE_NO":"４２０號九樓之２","E_COORD97":167381.89717499999,"N_COORD97":2549469.2178699998,"ADDRESS":"同安路４２０號九樓之２","OBJECTID":480522},"geometry":{"x":167381.89717500005,"y":2549469.2178690024}},{"attributes":{"ID":480548,"DIS_CODE":0,"TOWNNAME":"安南區","LI":"鳳凰里","LIN":"26鄰","STREET":"同安路","SECT":" ","MAREA":" ","LANE":" ","ALLEY":" ","HOUSE_NO":"４２０號八樓之１","E_COORD97":167381.89717499999,"N_COORD97":2549469.2178699998,"ADDRESS":"同安路４２０號八樓之１","OBJECTID":480523},"geometry":{"x":167381.89717500005,"y":2549469.2178690024}},{"attributes":{"ID":480549,"DIS_CODE":0,"TOWNNAME":"安南區","LI":"鳳凰里","LIN":"26鄰","STREET":"同安路","SECT":" ","MAREA":" ","LANE":" ","ALLEY":" ","HOUSE_NO":"４２０號八樓之２","E_COORD97":167381.89717499999,"N_COORD97":2549469.2178699998,"ADDRESS":"同安路４２０號八樓之２","OBJECTID":480524},"geometry":{"x":167381.89717500005,"y":2549469.2178690024}},{"attributes":{"ID":480550,"DIS_CODE":0,"TOWNNAME":"安南區","LI":"鳳凰里","LIN":"26鄰","STREET":"同安路","SECT":" ","MAREA":" ","LANE":" ","ALLEY":" ","HOUSE_NO":"４２０號十一樓之１","E_COORD97":167381.89717499999,"N_COORD97":2549469.2178699998,"ADDRESS":"同安路４２０號十一樓之１","OBJECTID":480525},"geometry":{"x":167381.89717500005,"y":2549469.2178690024}},{"attributes":{"ID":480551,"DIS_CODE":0,"TOWNNAME":"安南區","LI":"鳳凰里","LIN":"26鄰","STREET":"同安路","SECT":" ","MAREA":" ","LANE":" ","ALLEY":" ","HOUSE_NO":"４２０號十一樓之２","E_COORD97":167381.89717499999,"N_COORD97":2549469.2178699998,"ADDRESS":"同安路４２０號十一樓之２","OBJECTID":480526},"geometry":{"x":167381.89717500005,"y":2549469.2178690024}},{"attributes":{"ID":480552,"DIS_CODE":0,"TOWNNAME":"安南區","LI":"鳳凰里","LIN":"26鄰","STREET":"同安路","SECT":" ","MAREA":" ","LANE":" ","ALLEY":" ","HOUSE_NO":"４２０號十七樓之１","E_COORD97":167381.89717499999,"N_COORD97":2549469.2178699998,"ADDRESS":"同安路４２０號十七樓之１","OBJECTID":480527},"geometry":{"x":167381.89717500005,"y":2549469.2178690024}},{"attributes":{"ID":480553,"DIS_CODE":0,"TOWNNAME":"安南區","LI":"鳳凰里","LIN":"26鄰","STREET":"同安路","SECT":" ","MAREA":" ","LANE":" ","ALLEY":" ","HOUSE_NO":"４２０號十七樓之２","E_COORD97":167381.89717499999,"N_COORD97":2549469.2178699998,"ADDRESS":"同安路４２０號十七樓之２","OBJECTID":480528},"geometry":{"x":167381.89717500005,"y":2549469.2178690024}},{"attributes":{"ID":480554,"DIS_CODE":0,"TOWNNAME":"安南區","LI":"鳳凰里","LIN":"26鄰","STREET":"同安路","SECT":" ","MAREA":" ","LANE":" ","ALLEY":" ","HOUSE_NO":"４２０號十二樓之１","E_COORD97":167381.89717499999,"N_COORD97":2549469.2178699998,"ADDRESS":"同安路４２０號十二樓之１","OBJECTID":480529},"geometry":{"x":167381.89717500005,"y":2549469.2178690024}},{"attributes":{"ID":480555,"DIS_CODE":0,"TOWNNAME":"安南區","LI":"鳳凰里","LIN":"26鄰","STREET":"同安路","SECT":" ","MAREA":" ","LANE":" ","ALLEY":" ","HOUSE_NO":"４２０號十二樓之２","E_COORD97":167381.89717499999,"N_COORD97":2549469.2178699998,"ADDRESS":"同安路４２０號十二樓之２","OBJECTID":480530},"geometry":{"x":167381.89717500005,"y":2549469.2178690024}},{"attributes":{"ID":480556,"DIS_CODE":0,"TOWNNAME":"安南區","LI":"鳳凰里","LIN":"26鄰","STREET":"同安路","SECT":" ","MAREA":" ","LANE":" ","ALLEY":" ","HOUSE_NO":"４２０號十八樓之１","E_COORD97":167381.89717499999,"N_COORD97":2549469.2178699998,"ADDRESS":"同安路４２０號十八樓之１","OBJECTID":480531},"geometry":{"x":167381.89717500005,"y":2549469.2178690024}},{"attributes":{"ID":480557,"DIS_CODE":0,"TOWNNAME":"東區","LI":"成大里","LIN":"26鄰","STREET":"育樂街","SECT":" ","MAREA":" ","LANE":" ","ALLEY":" ","HOUSE_NO":"７６號二樓","E_COORD97":169563.29000000001,"N_COORD97":2544037.4900000002,"ADDRESS":"育樂街７６號二樓","OBJECTID":480532},"geometry":{"x":169563.29000000004,"y":2544037.4900000002}},{"attributes":{"ID":480558,"DIS_CODE":0,"TOWNNAME":"安南區","LI":"鳳凰里","LIN":"26鄰","STREET":"同安路","SECT":" ","MAREA":" ","LANE":" ","ALLEY":" ","HOUSE_NO":"４２０號十八樓之２","E_COORD97":167381.89717499999,"N_COORD97":2549469.2178699998,"ADDRESS":"同安路４２０號十八樓之２","OBJECTID":480533},"geometry":{"x":167381.89717500005,"y":2549469.2178690024}},{"attributes":{"ID":480559,"DIS_CODE":0,"TOWNNAME":"南區","LI":"新興里","LIN":"18鄰","STREET":"三官路","SECT":" ","MAREA":" ","LANE":" ","ALLEY":" ","HOUSE_NO":"１２９號","E_COORD97":167328.98000000001,"N_COORD97":2542110.8100000001,"ADDRESS":"三官路１２９號","OBJECTID":480534},"geometry":{"x":167328.98000000231,"y":2542110.8100000024}},{"attributes":{"ID":480560,"DIS_CODE":0,"TOWNNAME":"南區","LI":"新興里","LIN":"18鄰","STREET":"三官路","SECT":" ","MAREA":" ","LANE":" ","ALLEY":" ","HOUSE_NO":"１３１號","E_COORD97":167327.91,"N_COORD97":2542104,"ADDRESS":"三官路１３１號","OBJECTID":480535},"geometry":{"x":167327.91000000108,"y":2542104}},{"attributes":{"ID":480561,"DIS_CODE":0,"TOWNNAME":"南區","LI":"新興里","LIN":"18鄰","STREET":"三官路","SECT":" ","MAREA":" ","LANE":" ","ALLEY":" ","HOUSE_NO":"１３３號","E_COORD97":167325.91,"N_COORD97":2542099.3999999999,"ADDRESS":"三官路１３３號","OBJECTID":480536},"geometry":{"x":167325.91000000201,"y":2542099.3999999985}},{"attributes":{"ID":480562,"DIS_CODE":0,"TOWNNAME":"南區","LI":"新興里","LIN":"18鄰","STREET":"三官路","SECT":" ","MAREA":" ","LANE":" ","ALLEY":" ","HOUSE_NO":"１３７號","E_COORD97":167323.31,"N_COORD97":2542090.6099999999,"ADDRESS":"三官路１３７號","OBJECTID":480537},"geometry":{"x":167323.31000000052,"y":2542090.6100000031}},{"attributes":{"ID":480563,"DIS_CODE":0,"TOWNNAME":"南區","LI":"新興里","LIN":"18鄰","STREET":"三官路","SECT":" ","MAREA":" ","LANE":" ","ALLEY":" ","HOUSE_NO":"１３９號","E_COORD97":167320.31,"N_COORD97":2542085.6099999999,"ADDRESS":"三官路１３９號","OBJECTID":480538},"geometry":{"x":167320.30999999959,"y":2542085.6099999994}},{"attributes":{"ID":480564,"DIS_CODE":0,"TOWNNAME":"南區","LI":"新興里","LIN":"18鄰","STREET":"三官路","SECT":" ","MAREA":" ","LANE":" ","ALLEY":" ","HOUSE_NO":"１４１號","E_COORD97":167317.10999999999,"N_COORD97":2542080.4100000001,"ADDRESS":"三官路１４１號","OBJECTID":480539},"geometry":{"x":167317.11000000034,"y":2542080.410000002}},{"attributes":{"ID":480565,"DIS_CODE":0,"TOWNNAME":"南區","LI":"新興里","LIN":"18鄰","STREET":"三官路","SECT":" ","MAREA":" ","LANE":" ","ALLEY":" ","HOUSE_NO":"１４１號地下室","E_COORD97":167317.10999999999,"N_COORD97":2542080.4100000001,"ADDRESS":"三官路１４１號地下室","OBJECTID":480540},"geometry":{"x":167317.11000000034,"y":2542080.410000002}},{"attributes":{"ID":480566,"DIS_CODE":0,"TOWNNAME":"南區","LI":"新興里","LIN":"18鄰","STREET":"三官路","SECT":" ","MAREA":" ","LANE":" ","ALLEY":" ","HOUSE_NO":"１４３號","E_COORD97":167321.10999999999,"N_COORD97":2542060.1299999999,"ADDRESS":"三官路１４３號","OBJECTID":480541},"geometry":{"x":167321.1099999994,"y":2542060.1300000008}},{"attributes":{"ID":480567,"DIS_CODE":0,"TOWNNAME":"南區","LI":"新興里","LIN":"18鄰","STREET":"三官路","SECT":" ","MAREA":" ","LANE":" ","ALLEY":" ","HOUSE_NO":"１６１號","E_COORD97":167305.32999999999,"N_COORD97":2542057.0699999998,"ADDRESS":"三官路１６１號","OBJECTID":480542},"geometry":{"x":167305.33000000007,"y":2542057.0700000003}},{"attributes":{"ID":480568,"DIS_CODE":0,"TOWNNAME":"南區","LI":"新興里","LIN":"18鄰","STREET":"三官路","SECT":" ","MAREA":" ","LANE":" ","ALLEY":" ","HOUSE_NO":"１６３號","E_COORD97":167305.04999999999,"N_COORD97":2542051.9399999999,"ADDRESS":"三官路１６３號","OBJECTID":480543},"geometry":{"x":167305.04999999981,"y":2542051.9400000013}},{"attributes":{"ID":480569,"DIS_CODE":0,"TOWNNAME":"北區","LI":"五福里","LIN":"8鄰","STREET":"自強街","SECT":" ","MAREA":" ","LANE":"６２巷","ALLEY":" ","HOUSE_NO":"１號","E_COORD97":168298.28,"N_COORD97":2544563.3900000001,"ADDRESS":"自強街６２巷１號","OBJECTID":480544},"geometry":{"x":168298.28000000119,"y":2544563.3900000006}},{"attributes":{"ID":480570,"DIS_CODE":0,"TOWNNAME":"南區","LI":"新興里","LIN":"18鄰","STREET":"三官路","SECT":" ","MAREA":" ","LANE":" ","ALLEY":" ","HOUSE_NO":"１６５號","E_COORD97":167303.39000000001,"N_COORD97":2542048.96,"ADDRESS":"三官路１６５號","OBJECTID":480545},"geometry":{"x":167303.39000000153,"y":2542048.9600000046}},{"attributes":{"ID":480571,"DIS_CODE":0,"TOWNNAME":"南區","LI":"新興里","LIN":"18鄰","STREET":"三官路","SECT":" ","MAREA":" ","LANE":" ","ALLEY":" ","HOUSE_NO":"１６７號","E_COORD97":167301.10000000001,"N_COORD97":2542044.2400000002,"ADDRESS":"三官路１６７號","OBJECTID":480546},"geometry":{"x":167301.09999999963,"y":2542044.2400000021}},{"attributes":{"ID":480572,"DIS_CODE":0,"TOWNNAME":"南區","LI":"新興里","LIN":"18鄰","STREET":"三官路","SECT":" ","MAREA":" ","LANE":" ","ALLEY":" ","HOUSE_NO":"１６９號","E_COORD97":167299.5,"N_COORD97":2542039.4399999999,"ADDRESS":"三官路１６９號","OBJECTID":480547},"geometry":{"x":167299.49999999907,"y":2542039.4399999995}},{"attributes":{"ID":480573,"DIS_CODE":0,"TOWNNAME":"南區","LI":"新興里","LIN":"18鄰","STREET":"三官路","SECT":" ","MAREA":" ","LANE":" ","ALLEY":" ","HOUSE_NO":"１７１號","E_COORD97":167297.69,"N_COORD97":2542034.6400000001,"ADDRESS":"三官路１７１號","OBJECTID":480548},"geometry":{"x":167297.69000000134,"y":2542034.6400000025}},{"attributes":{"ID":480574,"DIS_CODE":0,"TOWNNAME":"南區","LI":"新興里","LIN":"18鄰","STREET":"三官路","SECT":" ","MAREA":" ","LANE":" ","ALLEY":" ","HOUSE_NO":"１７３號","E_COORD97":167296.48999999999,"N_COORD97":2542029.8500000001,"ADDRESS":"三官路１７３號","OBJECTID":480549},"geometry":{"x":167296.49000000209,"y":2542029.8499999996}},{"attributes":{"ID":480575,"DIS_CODE":0,"TOWNNAME":"南區","LI":"新興里","LIN":"18鄰","STREET":"三官路","SECT":" ","MAREA":" ","LANE":" ","ALLEY":" ","HOUSE_NO":"１７５號","E_COORD97":167296.53,"N_COORD97":2542024,"ADDRESS":"三官路１７５號","OBJECTID":480550},"geometry":{"x":167296.53000000119,"y":2542024.0000000037}},{"attributes":{"ID":480576,"DIS_CODE":0,"TOWNNAME":"南區","LI":"新興里","LIN":"18鄰","STREET":"三官路","SECT":" ","MAREA":" ","LANE":" ","ALLEY":" ","HOUSE_NO":"１７７號","E_COORD97":167286.04999999999,"N_COORD97":2542015.1200000001,"ADDRESS":"三官路１７７號","OBJECTID":480551},"geometry":{"x":167286.05000000075,"y":2542015.1200000029}},{"attributes":{"ID":480577,"DIS_CODE":0,"TOWNNAME":"安南區","LI":"鳳凰里","LIN":"26鄰","STREET":"同安路","SECT":" ","MAREA":" ","LANE":" ","ALLEY":" ","HOUSE_NO":"４２０號十三樓之１","E_COORD97":167381.89717499999,"N_COORD97":2549469.2178699998,"ADDRESS":"同安路４２０號十三樓之１","OBJECTID":480552},"geometry":{"x":167381.89717500005,"y":2549469.2178690024}},{"attributes":{"ID":480578,"DIS_CODE":0,"TOWNNAME":"安南區","LI":"鳳凰里","LIN":"26鄰","STREET":"同安路","SECT":" ","MAREA":" ","LANE":" ","ALLEY":" ","HOUSE_NO":"４２０號十三樓之２","E_COORD97":167381.89717499999,"N_COORD97":2549469.2178699998,"ADDRESS":"同安路４２０號十三樓之２","OBJECTID":480553},"geometry":{"x":167381.89717500005,"y":2549469.2178690024}},{"attributes":{"ID":480579,"DIS_CODE":0,"TOWNNAME":"安南區","LI":"鳳凰里","LIN":"26鄰","STREET":"同安路","SECT":" ","MAREA":" ","LANE":" ","ALLEY":" ","HOUSE_NO":"４２０號十五樓之１","E_COORD97":167381.89717499999,"N_COORD97":2549469.2178699998,"ADDRESS":"同安路４２０號十五樓之１","OBJECTID":480554},"geometry":{"x":167381.89717500005,"y":2549469.2178690024}},{"attributes":{"ID":480580,"DIS_CODE":0,"TOWNNAME":"安南區","LI":"鳳凰里","LIN":"26鄰","STREET":"同安路","SECT":" ","MAREA":" ","LANE":" ","ALLEY":" ","HOUSE_NO":"４２０號十五樓之２","E_COORD97":167381.89717499999,"N_COORD97":2549469.2178699998,"ADDRESS":"同安路４２０號十五樓之２","OBJECTID":480555},"geometry":{"x":167381.89717500005,"y":2549469.2178690024}},{"attributes":{"ID":480581,"DIS_CODE":0,"TOWNNAME":"安南區","LI":"鳳凰里","LIN":"26鄰","STREET":"同安路","SECT":" ","MAREA":" ","LANE":" ","ALLEY":" ","HOUSE_NO":"４２０號十六樓之１","E_COORD97":167381.89717499999,"N_COORD97":2549469.2178699998,"ADDRESS":"同安路４２０號十六樓之１","OBJECTID":480556},"geometry":{"x":167381.89717500005,"y":2549469.2178690024}},{"attributes":{"ID":480582,"DIS_CODE":0,"TOWNNAME":"安南區","LI":"鳳凰里","LIN":"26鄰","STREET":"同安路","SECT":" ","MAREA":" ","LANE":" ","ALLEY":" ","HOUSE_NO":"４２０號十六樓之２","E_COORD97":167381.89717499999,"N_COORD97":2549469.2178699998,"ADDRESS":"同安路４２０號十六樓之２","OBJECTID":480557},"geometry":{"x":167381.89717500005,"y":2549469.2178690024}},{"attributes":{"ID":480583,"DIS_CODE":0,"TOWNNAME":"安南區","LI":"鳳凰里","LIN":"26鄰","STREET":"同安路","SECT":" ","MAREA":" ","LANE":" ","ALLEY":" ","HOUSE_NO":"４２０號十四樓之１","E_COORD97":167381.89717499999,"N_COORD97":2549469.2178699998,"ADDRESS":"同安路４２０號十四樓之１","OBJECTID":480558},"geometry":{"x":167381.89717500005,"y":2549469.2178690024}},{"attributes":{"ID":480584,"DIS_CODE":0,"TOWNNAME":"安南區","LI":"鳳凰里","LIN":"26鄰","STREET":"同安路","SECT":" ","MAREA":" ","LANE":" ","ALLEY":" ","HOUSE_NO":"４２０號十四樓之２","E_COORD97":167381.89717499999,"N_COORD97":2549469.2178699998,"ADDRESS":"同安路４２０號十四樓之２","OBJECTID":480559},"geometry":{"x":167381.89717500005,"y":2549469.2178690024}},{"attributes":{"ID":480585,"DIS_CODE":0,"TOWNNAME":"安南區","LI":"鳳凰里","LIN":"26鄰","STREET":"同安路","SECT":" ","MAREA":" ","LANE":" ","ALLEY":" ","HOUSE_NO":"４２０號十樓之１","E_COORD97":167381.89717499999,"N_COORD97":2549469.2178699998,"ADDRESS":"同安路４２０號十樓之１","OBJECTID":480560},"geometry":{"x":167381.89717500005,"y":2549469.2178690024}},{"attributes":{"ID":480586,"DIS_CODE":0,"TOWNNAME":"安南區","LI":"鳳凰里","LIN":"26鄰","STREET":"同安路","SECT":" ","MAREA":" ","LANE":" ","ALLEY":" ","HOUSE_NO":"４２０號十樓之２","E_COORD97":167381.89717499999,"N_COORD97":2549469.2178699998,"ADDRESS":"同安路４２０號十樓之２","OBJECTID":480561},"geometry":{"x":167381.89717500005,"y":2549469.2178690024}},{"attributes":{"ID":480587,"DIS_CODE":0,"TOWNNAME":"安南區","LI":"鳳凰里","LIN":"26鄰","STREET":"同安路","SECT":" ","MAREA":" ","LANE":" ","ALLEY":" ","HOUSE_NO":"４２０號五樓之１","E_COORD97":167381.89717499999,"N_COORD97":2549469.2178699998,"ADDRESS":"同安路４２０號五樓之１","OBJECTID":480562},"geometry":{"x":167381.89717500005,"y":2549469.2178690024}},{"attributes":{"ID":480588,"DIS_CODE":0,"TOWNNAME":"安南區","LI":"鳳凰里","LIN":"26鄰","STREET":"同安路","SECT":" ","MAREA":" ","LANE":" ","ALLEY":" ","HOUSE_NO":"４２０號五樓之２","E_COORD97":167381.89717499999,"N_COORD97":2549469.2178699998,"ADDRESS":"同安路４２０號五樓之２","OBJECTID":480563},"geometry":{"x":167381.89717500005,"y":2549469.2178690024}},{"attributes":{"ID":480589,"DIS_CODE":0,"TOWNNAME":"安南區","LI":"鳳凰里","LIN":"26鄰","STREET":"同安路","SECT":" ","MAREA":" ","LANE":" ","ALLEY":" ","HOUSE_NO":"４２０號六樓之１","E_COORD97":167381.89717499999,"N_COORD97":2549469.2178699998,"ADDRESS":"同安路４２０號六樓之１","OBJECTID":480564},"geometry":{"x":167381.89717500005,"y":2549469.2178690024}},{"attributes":{"ID":480590,"DIS_CODE":0,"TOWNNAME":"安南區","LI":"鳳凰里","LIN":"26鄰","STREET":"同安路","SECT":" ","MAREA":" ","LANE":" ","ALLEY":" ","HOUSE_NO":"４２０號六樓之２","E_COORD97":167381.89717499999,"N_COORD97":2549469.2178699998,"ADDRESS":"同安路４２０號六樓之２","OBJECTID":480565},"geometry":{"x":167381.89717500005,"y":2549469.2178690024}},{"attributes":{"ID":480591,"DIS_CODE":0,"TOWNNAME":"東區","LI":"成大里","LIN":"26鄰","STREET":"育樂街","SECT":" ","MAREA":" ","LANE":" ","ALLEY":" ","HOUSE_NO":"７６號八樓","E_COORD97":169563.29000000001,"N_COORD97":2544037.4900000002,"ADDRESS":"育樂街７６號八樓","OBJECTID":480566},"geometry":{"x":169563.29000000004,"y":2544037.4900000002}},{"attributes":{"ID":480592,"DIS_CODE":0,"TOWNNAME":"南區","LI":"新興里","LIN":"18鄰","STREET":"三官路","SECT":" ","MAREA":" ","LANE":" ","ALLEY":" ","HOUSE_NO":"１８１號","E_COORD97":167279.20999999999,"N_COORD97":2542005.2599999998,"ADDRESS":"三官路１８１號","OBJECTID":480567},"geometry":{"x":167279.20999999996,"y":2542005.2600000016}},{"attributes":{"ID":480593,"DIS_CODE":0,"TOWNNAME":"南區","LI":"新興里","LIN":"18鄰","STREET":"仁慈街","SECT":" ","MAREA":" ","LANE":" ","ALLEY":" ","HOUSE_NO":"１２號","E_COORD97":167407.16,"N_COORD97":2542101,"ADDRESS":"仁慈街１２號","OBJECTID":480568},"geometry":{"x":167407.16000000201,"y":2542101}},{"attributes":{"ID":480594,"DIS_CODE":0,"TOWNNAME":"南區","LI":"新興里","LIN":"18鄰","STREET":"仁慈街","SECT":" ","MAREA":" ","LANE":" ","ALLEY":" ","HOUSE_NO":"１２號之１","E_COORD97":167403.76000000001,"N_COORD97":2542092.0099999998,"ADDRESS":"仁慈街１２號之１","OBJECTID":480569},"geometry":{"x":167403.75999999978,"y":2542092.0100000016}},{"attributes":{"ID":480595,"DIS_CODE":0,"TOWNNAME":"南區","LI":"新興里","LIN":"18鄰","STREET":"仁慈街","SECT":" ","MAREA":" ","LANE":" ","ALLEY":" ","HOUSE_NO":"１４號","E_COORD97":167400.16,"N_COORD97":2542093,"ADDRESS":"仁慈街１４號","OBJECTID":480570},"geometry":{"x":167400.16000000015,"y":2542093.0000000019}},{"attributes":{"ID":480596,"DIS_CODE":0,"TOWNNAME":"南區","LI":"新興里","LIN":"18鄰","STREET":"仁慈街","SECT":" ","MAREA":" ","LANE":" ","ALLEY":" ","HOUSE_NO":"１５號","E_COORD97":167361.41,"N_COORD97":2542093.1899999999,"ADDRESS":"仁慈街１５號","OBJECTID":480571},"geometry":{"x":167361.41000000201,"y":2542093.1900000032}},{"attributes":{"ID":480597,"DIS_CODE":0,"TOWNNAME":"南區","LI":"新興里","LIN":"18鄰","STREET":"仁慈街","SECT":" ","MAREA":" ","LANE":" ","ALLEY":" ","HOUSE_NO":"１６號","E_COORD97":167398.16,"N_COORD97":2542105.7999999998,"ADDRESS":"仁慈街１６號","OBJECTID":480572},"geometry":{"x":167398.16000000015,"y":2542105.8000000007}},{"attributes":{"ID":480598,"DIS_CODE":0,"TOWNNAME":"南區","LI":"新興里","LIN":"18鄰","STREET":"仁慈街","SECT":" ","MAREA":" ","LANE":" ","ALLEY":" ","HOUSE_NO":"１７號","E_COORD97":167357.91,"N_COORD97":2542096.6800000002,"ADDRESS":"仁慈街１７號","OBJECTID":480573},"geometry":{"x":167357.90999999922,"y":2542096.6799999997}},{"attributes":{"ID":480599,"DIS_CODE":0,"TOWNNAME":"南區","LI":"新興里","LIN":"18鄰","STREET":"仁慈街","SECT":" ","MAREA":" ","LANE":" ","ALLEY":" ","HOUSE_NO":"１８號","E_COORD97":167387.14999999999,"N_COORD97":2542099.3999999999,"ADDRESS":"仁慈街１８號","OBJECTID":480574},"geometry":{"x":167387.15000000224,"y":2542099.3999999985}},{"attributes":{"ID":480600,"DIS_CODE":0,"TOWNNAME":"南區","LI":"新興里","LIN":"18鄰","STREET":"仁慈街","SECT":" ","MAREA":" ","LANE":" ","ALLEY":" ","HOUSE_NO":"１９號","E_COORD97":167348.79999999999,"N_COORD97":2542100.4700000002,"ADDRESS":"仁慈街１９號","OBJECTID":480575},"geometry":{"x":167348.80000000075,"y":2542100.4700000025}},{"attributes":{"ID":480601,"DIS_CODE":0,"TOWNNAME":"南區","LI":"新興里","LIN":"18鄰","STREET":"仁慈街","SECT":" ","MAREA":" ","LANE":" ","ALLEY":" ","HOUSE_NO":"１號","E_COORD97":167408.20000000001,"N_COORD97":2542068,"ADDRESS":"仁慈街１號","OBJECTID":480576},"geometry":{"x":167408.20000000019,"y":2542068.0000000037}},{"attributes":{"ID":480602,"DIS_CODE":0,"TOWNNAME":"南區","LI":"新興里","LIN":"18鄰","STREET":"仁慈街","SECT":" ","MAREA":" ","LANE":" ","ALLEY":" ","HOUSE_NO":"２號","E_COORD97":167420.76999999999,"N_COORD97":2542083.4100000001,"ADDRESS":"仁慈街２號","OBJECTID":480577},"geometry":{"x":167420.76999999955,"y":2542083.410000002}},{"attributes":{"ID":480603,"DIS_CODE":0,"TOWNNAME":"南區","LI":"新興里","LIN":"18鄰","STREET":"仁慈街","SECT":" ","MAREA":" ","LANE":" ","ALLEY":" ","HOUSE_NO":"３０號","E_COORD97":167395.76000000001,"N_COORD97":2542122.79,"ADDRESS":"仁慈街３０號","OBJECTID":480578},"geometry":{"x":167395.75999999978,"y":2542122.7900000028}},{"attributes":{"ID":480604,"DIS_CODE":0,"TOWNNAME":"南區","LI":"新興里","LIN":"18鄰","STREET":"仁慈街","SECT":" ","MAREA":" ","LANE":" ","ALLEY":" ","HOUSE_NO":"３８號","E_COORD97":167366.34,"N_COORD97":2542122.0899999999,"ADDRESS":"仁慈街３８號","OBJECTID":480579},"geometry":{"x":167366.33999999985,"y":2542122.0900000017}},{"attributes":{"ID":480605,"DIS_CODE":0,"TOWNNAME":"東區","LI":"成大里","LIN":"26鄰","STREET":"育樂街","SECT":" ","MAREA":" ","LANE":" ","ALLEY":" ","HOUSE_NO":"６８號二樓","E_COORD97":169592.14000000001,"N_COORD97":2544034.0800000001,"ADDRESS":"育樂街６８號二樓","OBJECTID":480580},"geometry":{"x":169592.1400000006,"y":2544034.0800000038}},{"attributes":{"ID":480606,"DIS_CODE":0,"TOWNNAME":"東區","LI":"成大里","LIN":"26鄰","STREET":"育樂街","SECT":" ","MAREA":" ","LANE":" ","ALLEY":" ","HOUSE_NO":"６８號八樓","E_COORD97":169592.14000000001,"N_COORD97":2544034.0800000001,"ADDRESS":"育樂街６８號八樓","OBJECTID":480581},"geometry":{"x":169592.1400000006,"y":2544034.0800000038}},{"attributes":{"ID":480607,"DIS_CODE":0,"TOWNNAME":"東區","LI":"成大里","LIN":"26鄰","STREET":"育樂街","SECT":" ","MAREA":" ","LANE":" ","ALLEY":" ","HOUSE_NO":"６８號三樓","E_COORD97":169592.14000000001,"N_COORD97":2544034.0800000001,"ADDRESS":"育樂街６８號三樓","OBJECTID":480582},"geometry":{"x":169592.1400000006,"y":2544034.0800000038}},{"attributes":{"ID":480608,"DIS_CODE":0,"TOWNNAME":"南區","LI":"新興里","LIN":"20鄰","STREET":"新興路","SECT":" ","MAREA":" ","LANE":" ","ALLEY":" ","HOUSE_NO":"１９４號","E_COORD97":167317.79999999999,"N_COORD97":2541997.52,"ADDRESS":"新興路１９４號","OBJECTID":480583},"geometry":{"x":167317.80000000168,"y":2541997.5200000014}},{"attributes":{"ID":480609,"DIS_CODE":0,"TOWNNAME":"東區","LI":"成大里","LIN":"26鄰","STREET":"育樂街","SECT":" ","MAREA":" ","LANE":" ","ALLEY":" ","HOUSE_NO":"６８號五樓","E_COORD97":169592.14000000001,"N_COORD97":2544034.0800000001,"ADDRESS":"育樂街６８號五樓","OBJECTID":480584},"geometry":{"x":169592.1400000006,"y":2544034.0800000038}},{"attributes":{"ID":480610,"DIS_CODE":0,"TOWNNAME":"東區","LI":"成大里","LIN":"26鄰","STREET":"育樂街","SECT":" ","MAREA":" ","LANE":" ","ALLEY":" ","HOUSE_NO":"６８號六樓","E_COORD97":169592.14000000001,"N_COORD97":2544034.0800000001,"ADDRESS":"育樂街６８號六樓","OBJECTID":480585},"geometry":{"x":169592.1400000006,"y":2544034.0800000038}},{"attributes":{"ID":480611,"DIS_CODE":0,"TOWNNAME":"東區","LI":"成大里","LIN":"26鄰","STREET":"育樂街","SECT":" ","MAREA":" ","LANE":" ","ALLEY":" ","HOUSE_NO":"６８號四樓","E_COORD97":169592.14000000001,"N_COORD97":2544034.0800000001,"ADDRESS":"育樂街６８號四樓","OBJECTID":480586},"geometry":{"x":169592.1400000006,"y":2544034.0800000038}},{"attributes":{"ID":480612,"DIS_CODE":0,"TOWNNAME":"東區","LI":"成大里","LIN":"26鄰","STREET":"育樂街","SECT":" ","MAREA":" ","LANE":" ","ALLEY":" ","HOUSE_NO":"７０號七樓","E_COORD97":169590.22,"N_COORD97":2544047.7400000002,"ADDRESS":"育樂街７０號七樓","OBJECTID":480587},"geometry":{"x":169590.22000000067,"y":2544047.7400000021}},{"attributes":{"ID":480613,"DIS_CODE":0,"TOWNNAME":"東區","LI":"成大里","LIN":"26鄰","STREET":"育樂街","SECT":" ","MAREA":" ","LANE":" ","ALLEY":" ","HOUSE_NO":"７０號二樓","E_COORD97":169590.22,"N_COORD97":2544047.7400000002,"ADDRESS":"育樂街７０號二樓","OBJECTID":480588},"geometry":{"x":169590.22000000067,"y":2544047.7400000021}},{"attributes":{"ID":480614,"DIS_CODE":0,"TOWNNAME":"東區","LI":"成大里","LIN":"26鄰","STREET":"育樂街","SECT":" ","MAREA":" ","LANE":" ","ALLEY":" ","HOUSE_NO":"７０號八樓","E_COORD97":169590.22,"N_COORD97":2544047.7400000002,"ADDRESS":"育樂街７０號八樓","OBJECTID":480589},"geometry":{"x":169590.22000000067,"y":2544047.7400000021}},{"attributes":{"ID":480615,"DIS_CODE":0,"TOWNNAME":"東區","LI":"成大里","LIN":"26鄰","STREET":"育樂街","SECT":" ","MAREA":" ","LANE":" ","ALLEY":" ","HOUSE_NO":"７０號三樓","E_COORD97":169590.22,"N_COORD97":2544047.7400000002,"ADDRESS":"育樂街７０號三樓","OBJECTID":480590},"geometry":{"x":169590.22000000067,"y":2544047.7400000021}},{"attributes":{"ID":480616,"DIS_CODE":0,"TOWNNAME":"東區","LI":"成大里","LIN":"26鄰","STREET":"育樂街","SECT":" ","MAREA":" ","LANE":" ","ALLEY":" ","HOUSE_NO":"７０號五樓","E_COORD97":169590.22,"N_COORD97":2544047.7400000002,"ADDRESS":"育樂街７０號五樓","OBJECTID":480591},"geometry":{"x":169590.22000000067,"y":2544047.7400000021}},{"attributes":{"ID":480617,"DIS_CODE":0,"TOWNNAME":"東區","LI":"成大里","LIN":"26鄰","STREET":"育樂街","SECT":" ","MAREA":" ","LANE":" ","ALLEY":" ","HOUSE_NO":"７２號七樓","E_COORD97":169564.57000000001,"N_COORD97":2544050.2999999998,"ADDRESS":"育樂街７２號七樓","OBJECTID":480592},"geometry":{"x":169564.57000000123,"y":2544050.3000000045}},{"attributes":{"ID":480618,"DIS_CODE":0,"TOWNNAME":"東區","LI":"成大里","LIN":"26鄰","STREET":"育樂街","SECT":" ","MAREA":" ","LANE":" ","ALLEY":" ","HOUSE_NO":"７２號三樓","E_COORD97":169564.57000000001,"N_COORD97":2544050.2999999998,"ADDRESS":"育樂街７２號三樓","OBJECTID":480593},"geometry":{"x":169564.57000000123,"y":2544050.3000000045}},{"attributes":{"ID":480619,"DIS_CODE":0,"TOWNNAME":"東區","LI":"成大里","LIN":"26鄰","STREET":"育樂街","SECT":" ","MAREA":" ","LANE":" ","ALLEY":" ","HOUSE_NO":"７２號五樓","E_COORD97":169564.57000000001,"N_COORD97":2544050.2999999998,"ADDRESS":"育樂街７２號五樓","OBJECTID":480594},"geometry":{"x":169564.57000000123,"y":2544050.3000000045}},{"attributes":{"ID":480620,"DIS_CODE":0,"TOWNNAME":"東區","LI":"成大里","LIN":"26鄰","STREET":"育樂街","SECT":" ","MAREA":" ","LANE":" ","ALLEY":" ","HOUSE_NO":"７２號六樓","E_COORD97":169564.57000000001,"N_COORD97":2544050.2999999998,"ADDRESS":"育樂街７２號六樓","OBJECTID":480595},"geometry":{"x":169564.57000000123,"y":2544050.3000000045}},{"attributes":{"ID":480621,"DIS_CODE":0,"TOWNNAME":"東區","LI":"成大里","LIN":"26鄰","STREET":"育樂街","SECT":" ","MAREA":" ","LANE":" ","ALLEY":" ","HOUSE_NO":"７２號四樓","E_COORD97":169564.57000000001,"N_COORD97":2544050.2999999998,"ADDRESS":"育樂街７２號四樓","OBJECTID":480596},"geometry":{"x":169564.57000000123,"y":2544050.3000000045}},{"attributes":{"ID":480622,"DIS_CODE":0,"TOWNNAME":"東區","LI":"成大里","LIN":"26鄰","STREET":"育樂街","SECT":" ","MAREA":" ","LANE":" ","ALLEY":" ","HOUSE_NO":"７６號七樓","E_COORD97":169563.29000000001,"N_COORD97":2544037.4900000002,"ADDRESS":"育樂街７６號七樓","OBJECTID":480597},"geometry":{"x":169563.29000000004,"y":2544037.4900000002}},{"attributes":{"ID":480623,"DIS_CODE":0,"TOWNNAME":"東區","LI":"成大里","LIN":"26鄰","STREET":"育樂街","SECT":" ","MAREA":" ","LANE":" ","ALLEY":" ","HOUSE_NO":"７６號三樓","E_COORD97":169563.29000000001,"N_COORD97":2544037.4900000002,"ADDRESS":"育樂街７６號三樓","OBJECTID":480598},"geometry":{"x":169563.29000000004,"y":2544037.4900000002}},{"attributes":{"ID":480624,"DIS_CODE":0,"TOWNNAME":"東區","LI":"成大里","LIN":"26鄰","STREET":"育樂街","SECT":" ","MAREA":" ","LANE":" ","ALLEY":" ","HOUSE_NO":"７６號五樓","E_COORD97":169563.29000000001,"N_COORD97":2544037.4900000002,"ADDRESS":"育樂街７６號五樓","OBJECTID":480599},"geometry":{"x":169563.29000000004,"y":2544037.4900000002}},{"attributes":{"ID":480625,"DIS_CODE":0,"TOWNNAME":"南區","LI":"新興里","LIN":"19鄰","STREET":"新興路","SECT":" ","MAREA":" ","LANE":" ","ALLEY":" ","HOUSE_NO":"１６０號之４","E_COORD97":167384.04000000001,"N_COORD97":2542069.1400000001,"ADDRESS":"新興路１６０號之４","OBJECTID":480600},"geometry":{"x":167384.03999999911,"y":2542069.1400000025}}]}