{"displayFieldName":"TOWNNAME","fieldAliases":{"ID":"ID","DIS_CODE":"DIS_CODE","TOWNNAME":"TOWNNAME","LI":"LI","LIN":"LIN","STREET":"STREET","SECT":"SECT","MAREA":"MAREA","LANE":"LANE","ALLEY":"ALLEY","HOUSE_NO":"HOUSE_NO","E_COORD97":"E_COORD97","N_COORD97":"N_COORD97","ADDRESS":"ADDRESS","OBJECTID":"OBJECTID"},"geometryType":"esriGeometryPoint","spatialReference":{"wkid":102443,"latestWkid":3826},"fields":[{"name":"ID","type":"esriFieldTypeDouble","alias":"ID"},{"name":"DIS_CODE","type":"esriFieldTypeInteger","alias":"DIS_CODE"},{"name":"TOWNNAME","type":"esriFieldTypeString","alias":"TOWNNAME","length":8},{"name":"LI","type":"esriFieldTypeString","alias":"LI","length":8},{"name":"LIN","type":"esriFieldTypeString","alias":"LIN","length":12},{"name":"STREET","type":"esriFieldTypeString","alias":"STREET","length":20},{"name":"SECT","type":"esriFieldTypeString","alias":"SECT","length":8},{"name":"MAREA","type":"esriFieldTypeString","alias":"MAREA","length":12},{"name":"LANE","type":"esriFieldTypeString","alias":"LANE","length":10},{"name":"ALLEY","type":"esriFieldTypeString","alias":"ALLEY","length":10},{"name":"HOUSE_NO","type":"esriFieldTypeString","alias":"HOUSE_NO","length":20},{"name":"E_COORD97","type":"esriFieldTypeDouble","alias":"E_COORD97"},{"name":"N_COORD97","type":"esriFieldTypeDouble","alias":"N_COORD97"},{"name":"ADDRESS","type":"esriFieldTypeString","alias":"ADDRESS","length":50},{"name":"OBJECTID","type":"esriFieldTypeOID","alias":"OBJECTID"}],"features":[{"attributes":{"ID":521028,"DIS_CODE":0,"TOWNNAME":"東區","LI":"自強里","LIN":"31鄰","STREET":"中華東路","SECT":"二段","MAREA":" ","LANE":" ","ALLEY":" ","HOUSE_NO":"１９７號十三樓之１１","E_COORD97":171303.89000000001,"N_COORD97":2542749.1699999999,"ADDRESS":"中華東路二段１９７號十三樓之１１","OBJECTID":521001},"geometry":{"x":171303.88999999873,"y":2542749.1700000018}},{"attributes":{"ID":521029,"DIS_CODE":0,"TOWNNAME":"東區","LI":"自強里","LIN":"31鄰","STREET":"中華東路","SECT":"二段","MAREA":" ","LANE":" ","ALLEY":" ","HOUSE_NO":"１９７號十三樓之１２","E_COORD97":171303.89000000001,"N_COORD97":2542749.1699999999,"ADDRESS":"中華東路二段１９７號十三樓之１２","OBJECTID":521002},"geometry":{"x":171303.88999999873,"y":2542749.1700000018}},{"attributes":{"ID":521030,"DIS_CODE":0,"TOWNNAME":"東區","LI":"自強里","LIN":"31鄰","STREET":"中華東路","SECT":"二段","MAREA":" ","LANE":" ","ALLEY":" ","HOUSE_NO":"１９７號十三樓之１３","E_COORD97":171303.89000000001,"N_COORD97":2542749.1699999999,"ADDRESS":"中華東路二段１９７號十三樓之１３","OBJECTID":521003},"geometry":{"x":171303.88999999873,"y":2542749.1700000018}},{"attributes":{"ID":521031,"DIS_CODE":0,"TOWNNAME":"東區","LI":"自強里","LIN":"31鄰","STREET":"中華東路","SECT":"二段","MAREA":" ","LANE":" ","ALLEY":" ","HOUSE_NO":"１９７號十三樓之１４","E_COORD97":171303.89000000001,"N_COORD97":2542749.1699999999,"ADDRESS":"中華東路二段１９７號十三樓之１４","OBJECTID":521004},"geometry":{"x":171303.88999999873,"y":2542749.1700000018}},{"attributes":{"ID":521032,"DIS_CODE":0,"TOWNNAME":"東區","LI":"自強里","LIN":"31鄰","STREET":"中華東路","SECT":"二段","MAREA":" ","LANE":" ","ALLEY":" ","HOUSE_NO":"１９７號十三樓之１５","E_COORD97":171303.89000000001,"N_COORD97":2542749.1699999999,"ADDRESS":"中華東路二段１９７號十三樓之１５","OBJECTID":521005},"geometry":{"x":171303.88999999873,"y":2542749.1700000018}},{"attributes":{"ID":521033,"DIS_CODE":0,"TOWNNAME":"東區","LI":"自強里","LIN":"31鄰","STREET":"中華東路","SECT":"二段","MAREA":" ","LANE":" ","ALLEY":" ","HOUSE_NO":"１９７號十三樓之１６","E_COORD97":171303.89000000001,"N_COORD97":2542749.1699999999,"ADDRESS":"中華東路二段１９７號十三樓之１６","OBJECTID":521006},"geometry":{"x":171303.88999999873,"y":2542749.1700000018}},{"attributes":{"ID":521034,"DIS_CODE":0,"TOWNNAME":"東區","LI":"自強里","LIN":"31鄰","STREET":"中華東路","SECT":"二段","MAREA":" ","LANE":" ","ALLEY":" ","HOUSE_NO":"１９７號十三樓之２","E_COORD97":171303.89000000001,"N_COORD97":2542749.1699999999,"ADDRESS":"中華東路二段１９７號十三樓之２","OBJECTID":521007},"geometry":{"x":171303.88999999873,"y":2542749.1700000018}},{"attributes":{"ID":521035,"DIS_CODE":0,"TOWNNAME":"東區","LI":"自強里","LIN":"31鄰","STREET":"中華東路","SECT":"二段","MAREA":" ","LANE":" ","ALLEY":" ","HOUSE_NO":"１９７號十三樓之３","E_COORD97":171303.89000000001,"N_COORD97":2542749.1699999999,"ADDRESS":"中華東路二段１９７號十三樓之３","OBJECTID":521008},"geometry":{"x":171303.88999999873,"y":2542749.1700000018}},{"attributes":{"ID":521036,"DIS_CODE":0,"TOWNNAME":"東區","LI":"自強里","LIN":"31鄰","STREET":"中華東路","SECT":"二段","MAREA":" ","LANE":" ","ALLEY":" ","HOUSE_NO":"１９７號十三樓之５","E_COORD97":171303.89000000001,"N_COORD97":2542749.1699999999,"ADDRESS":"中華東路二段１９７號十三樓之５","OBJECTID":521009},"geometry":{"x":171303.88999999873,"y":2542749.1700000018}},{"attributes":{"ID":521037,"DIS_CODE":0,"TOWNNAME":"東區","LI":"自強里","LIN":"31鄰","STREET":"中華東路","SECT":"二段","MAREA":" ","LANE":" ","ALLEY":" ","HOUSE_NO":"１９７號十三樓之６","E_COORD97":171303.89000000001,"N_COORD97":2542749.1699999999,"ADDRESS":"中華東路二段１９７號十三樓之６","OBJECTID":521010},"geometry":{"x":171303.88999999873,"y":2542749.1700000018}},{"attributes":{"ID":521038,"DIS_CODE":0,"TOWNNAME":"東區","LI":"自強里","LIN":"31鄰","STREET":"中華東路","SECT":"二段","MAREA":" ","LANE":" ","ALLEY":" ","HOUSE_NO":"１９７號十三樓之７","E_COORD97":171303.89000000001,"N_COORD97":2542749.1699999999,"ADDRESS":"中華東路二段１９７號十三樓之７","OBJECTID":521011},"geometry":{"x":171303.88999999873,"y":2542749.1700000018}},{"attributes":{"ID":521039,"DIS_CODE":0,"TOWNNAME":"東區","LI":"自強里","LIN":"31鄰","STREET":"中華東路","SECT":"二段","MAREA":" ","LANE":" ","ALLEY":" ","HOUSE_NO":"１９７號十三樓之８","E_COORD97":171303.89000000001,"N_COORD97":2542749.1699999999,"ADDRESS":"中華東路二段１９７號十三樓之８","OBJECTID":521012},"geometry":{"x":171303.88999999873,"y":2542749.1700000018}},{"attributes":{"ID":521040,"DIS_CODE":0,"TOWNNAME":"東區","LI":"自強里","LIN":"31鄰","STREET":"中華東路","SECT":"二段","MAREA":" ","LANE":" ","ALLEY":" ","HOUSE_NO":"１９７號三樓之８","E_COORD97":171303.89000000001,"N_COORD97":2542749.1699999999,"ADDRESS":"中華東路二段１９７號三樓之８","OBJECTID":521013},"geometry":{"x":171303.88999999873,"y":2542749.1700000018}},{"attributes":{"ID":521041,"DIS_CODE":0,"TOWNNAME":"東區","LI":"自強里","LIN":"31鄰","STREET":"中華東路","SECT":"二段","MAREA":" ","LANE":" ","ALLEY":" ","HOUSE_NO":"１９７號十三樓之９","E_COORD97":171303.89000000001,"N_COORD97":2542749.1699999999,"ADDRESS":"中華東路二段１９７號十三樓之９","OBJECTID":521014},"geometry":{"x":171303.88999999873,"y":2542749.1700000018}},{"attributes":{"ID":521042,"DIS_CODE":0,"TOWNNAME":"東區","LI":"自強里","LIN":"31鄰","STREET":"中華東路","SECT":"二段","MAREA":" ","LANE":" ","ALLEY":" ","HOUSE_NO":"１９７號十五樓","E_COORD97":171303.89000000001,"N_COORD97":2542749.1699999999,"ADDRESS":"中華東路二段１９７號十五樓","OBJECTID":521015},"geometry":{"x":171303.88999999873,"y":2542749.1700000018}},{"attributes":{"ID":521043,"DIS_CODE":0,"TOWNNAME":"東區","LI":"自強里","LIN":"31鄰","STREET":"中華東路","SECT":"二段","MAREA":" ","LANE":" ","ALLEY":" ","HOUSE_NO":"１９７號十五樓之１","E_COORD97":171303.89000000001,"N_COORD97":2542749.1699999999,"ADDRESS":"中華東路二段１９７號十五樓之１","OBJECTID":521016},"geometry":{"x":171303.88999999873,"y":2542749.1700000018}},{"attributes":{"ID":521044,"DIS_CODE":0,"TOWNNAME":"東區","LI":"自強里","LIN":"31鄰","STREET":"中華東路","SECT":"二段","MAREA":" ","LANE":" ","ALLEY":" ","HOUSE_NO":"１９７號十五樓之１０","E_COORD97":171303.89000000001,"N_COORD97":2542749.1699999999,"ADDRESS":"中華東路二段１９７號十五樓之１０","OBJECTID":521017},"geometry":{"x":171303.88999999873,"y":2542749.1700000018}},{"attributes":{"ID":521045,"DIS_CODE":0,"TOWNNAME":"東區","LI":"自強里","LIN":"31鄰","STREET":"中華東路","SECT":"二段","MAREA":" ","LANE":" ","ALLEY":" ","HOUSE_NO":"１９７號十五樓之１１","E_COORD97":171303.89000000001,"N_COORD97":2542749.1699999999,"ADDRESS":"中華東路二段１９７號十五樓之１１","OBJECTID":521018},"geometry":{"x":171303.88999999873,"y":2542749.1700000018}},{"attributes":{"ID":521046,"DIS_CODE":0,"TOWNNAME":"東區","LI":"自強里","LIN":"31鄰","STREET":"中華東路","SECT":"二段","MAREA":" ","LANE":" ","ALLEY":" ","HOUSE_NO":"１９７號十五樓之１２","E_COORD97":171303.89000000001,"N_COORD97":2542749.1699999999,"ADDRESS":"中華東路二段１９７號十五樓之１２","OBJECTID":521019},"geometry":{"x":171303.88999999873,"y":2542749.1700000018}},{"attributes":{"ID":521047,"DIS_CODE":0,"TOWNNAME":"東區","LI":"自強里","LIN":"31鄰","STREET":"中華東路","SECT":"二段","MAREA":" ","LANE":" ","ALLEY":" ","HOUSE_NO":"１９７號十五樓之１３","E_COORD97":171303.89000000001,"N_COORD97":2542749.1699999999,"ADDRESS":"中華東路二段１９７號十五樓之１３","OBJECTID":521020},"geometry":{"x":171303.88999999873,"y":2542749.1700000018}},{"attributes":{"ID":521048,"DIS_CODE":0,"TOWNNAME":"東區","LI":"自強里","LIN":"31鄰","STREET":"中華東路","SECT":"二段","MAREA":" ","LANE":" ","ALLEY":" ","HOUSE_NO":"１９７號十五樓之１４","E_COORD97":171303.89000000001,"N_COORD97":2542749.1699999999,"ADDRESS":"中華東路二段１９７號十五樓之１４","OBJECTID":521021},"geometry":{"x":171303.88999999873,"y":2542749.1700000018}},{"attributes":{"ID":521049,"DIS_CODE":0,"TOWNNAME":"東區","LI":"自強里","LIN":"31鄰","STREET":"中華東路","SECT":"二段","MAREA":" ","LANE":" ","ALLEY":" ","HOUSE_NO":"１９７號十五樓之１５","E_COORD97":171303.89000000001,"N_COORD97":2542749.1699999999,"ADDRESS":"中華東路二段１９７號十五樓之１５","OBJECTID":521022},"geometry":{"x":171303.88999999873,"y":2542749.1700000018}},{"attributes":{"ID":521050,"DIS_CODE":0,"TOWNNAME":"東區","LI":"自強里","LIN":"31鄰","STREET":"中華東路","SECT":"二段","MAREA":" ","LANE":" ","ALLEY":" ","HOUSE_NO":"１９７號十五樓之１６","E_COORD97":171303.89000000001,"N_COORD97":2542749.1699999999,"ADDRESS":"中華東路二段１９７號十五樓之１６","OBJECTID":521023},"geometry":{"x":171303.88999999873,"y":2542749.1700000018}},{"attributes":{"ID":521051,"DIS_CODE":0,"TOWNNAME":"東區","LI":"自強里","LIN":"31鄰","STREET":"中華東路","SECT":"二段","MAREA":" ","LANE":" ","ALLEY":" ","HOUSE_NO":"１９７號十五樓之２","E_COORD97":171303.89000000001,"N_COORD97":2542749.1699999999,"ADDRESS":"中華東路二段１９７號十五樓之２","OBJECTID":521024},"geometry":{"x":171303.88999999873,"y":2542749.1700000018}},{"attributes":{"ID":521052,"DIS_CODE":0,"TOWNNAME":"東區","LI":"自強里","LIN":"31鄰","STREET":"中華東路","SECT":"二段","MAREA":" ","LANE":" ","ALLEY":" ","HOUSE_NO":"１９７號十五樓之３","E_COORD97":171303.89000000001,"N_COORD97":2542749.1699999999,"ADDRESS":"中華東路二段１９７號十五樓之３","OBJECTID":521025},"geometry":{"x":171303.88999999873,"y":2542749.1700000018}},{"attributes":{"ID":521053,"DIS_CODE":0,"TOWNNAME":"東區","LI":"自強里","LIN":"31鄰","STREET":"中華東路","SECT":"二段","MAREA":" ","LANE":" ","ALLEY":" ","HOUSE_NO":"１９７號十五樓之５","E_COORD97":171303.89000000001,"N_COORD97":2542749.1699999999,"ADDRESS":"中華東路二段１９７號十五樓之５","OBJECTID":521026},"geometry":{"x":171303.88999999873,"y":2542749.1700000018}},{"attributes":{"ID":521054,"DIS_CODE":0,"TOWNNAME":"東區","LI":"自強里","LIN":"31鄰","STREET":"中華東路","SECT":"二段","MAREA":" ","LANE":" ","ALLEY":" ","HOUSE_NO":"１９７號十五樓之６","E_COORD97":171303.89000000001,"N_COORD97":2542749.1699999999,"ADDRESS":"中華東路二段１９７號十五樓之６","OBJECTID":521027},"geometry":{"x":171303.88999999873,"y":2542749.1700000018}},{"attributes":{"ID":521055,"DIS_CODE":0,"TOWNNAME":"東區","LI":"自強里","LIN":"31鄰","STREET":"中華東路","SECT":"二段","MAREA":" ","LANE":" ","ALLEY":" ","HOUSE_NO":"１９７號十五樓之７","E_COORD97":171303.89000000001,"N_COORD97":2542749.1699999999,"ADDRESS":"中華東路二段１９７號十五樓之７","OBJECTID":521028},"geometry":{"x":171303.88999999873,"y":2542749.1700000018}},{"attributes":{"ID":521056,"DIS_CODE":0,"TOWNNAME":"東區","LI":"自強里","LIN":"31鄰","STREET":"中華東路","SECT":"二段","MAREA":" ","LANE":" ","ALLEY":" ","HOUSE_NO":"１９７號十五樓之８","E_COORD97":171303.89000000001,"N_COORD97":2542749.1699999999,"ADDRESS":"中華東路二段１９７號十五樓之８","OBJECTID":521029},"geometry":{"x":171303.88999999873,"y":2542749.1700000018}},{"attributes":{"ID":521057,"DIS_CODE":0,"TOWNNAME":"東區","LI":"自強里","LIN":"31鄰","STREET":"中華東路","SECT":"二段","MAREA":" ","LANE":" ","ALLEY":" ","HOUSE_NO":"１９７號六樓","E_COORD97":171303.89000000001,"N_COORD97":2542749.1699999999,"ADDRESS":"中華東路二段１９７號六樓","OBJECTID":521030},"geometry":{"x":171303.88999999873,"y":2542749.1700000018}},{"attributes":{"ID":521058,"DIS_CODE":0,"TOWNNAME":"東區","LI":"自強里","LIN":"31鄰","STREET":"中華東路","SECT":"二段","MAREA":" ","LANE":" ","ALLEY":" ","HOUSE_NO":"１９７號十五樓之９","E_COORD97":171303.89000000001,"N_COORD97":2542749.1699999999,"ADDRESS":"中華東路二段１９７號十五樓之９","OBJECTID":521031},"geometry":{"x":171303.88999999873,"y":2542749.1700000018}},{"attributes":{"ID":521059,"DIS_CODE":0,"TOWNNAME":"東區","LI":"自強里","LIN":"31鄰","STREET":"中華東路","SECT":"二段","MAREA":" ","LANE":" ","ALLEY":" ","HOUSE_NO":"１９７號十六樓","E_COORD97":171303.89000000001,"N_COORD97":2542749.1699999999,"ADDRESS":"中華東路二段１９７號十六樓","OBJECTID":521032},"geometry":{"x":171303.88999999873,"y":2542749.1700000018}},{"attributes":{"ID":521060,"DIS_CODE":0,"TOWNNAME":"東區","LI":"自強里","LIN":"31鄰","STREET":"中華東路","SECT":"二段","MAREA":" ","LANE":" ","ALLEY":" ","HOUSE_NO":"１９７號十六樓之１","E_COORD97":171303.89000000001,"N_COORD97":2542749.1699999999,"ADDRESS":"中華東路二段１９７號十六樓之１","OBJECTID":521033},"geometry":{"x":171303.88999999873,"y":2542749.1700000018}},{"attributes":{"ID":521061,"DIS_CODE":0,"TOWNNAME":"東區","LI":"富強里","LIN":"31鄰","STREET":"裕農路","SECT":" ","MAREA":" ","LANE":" ","ALLEY":" ","HOUSE_NO":"３７８號四樓","E_COORD97":171140.10000000001,"N_COORD97":2543077.2599999998,"ADDRESS":"裕農路３７８號四樓","OBJECTID":521034},"geometry":{"x":171140.10000000056,"y":2543077.2600000016}},{"attributes":{"ID":521062,"DIS_CODE":0,"TOWNNAME":"東區","LI":"自強里","LIN":"31鄰","STREET":"中華東路","SECT":"二段","MAREA":" ","LANE":" ","ALLEY":" ","HOUSE_NO":"１９７號十六樓之１０","E_COORD97":171303.89000000001,"N_COORD97":2542749.1699999999,"ADDRESS":"中華東路二段１９７號十六樓之１０","OBJECTID":521035},"geometry":{"x":171303.88999999873,"y":2542749.1700000018}},{"attributes":{"ID":521063,"DIS_CODE":0,"TOWNNAME":"東區","LI":"自強里","LIN":"31鄰","STREET":"中華東路","SECT":"二段","MAREA":" ","LANE":" ","ALLEY":" ","HOUSE_NO":"１９７號十六樓之１１","E_COORD97":171303.89000000001,"N_COORD97":2542749.1699999999,"ADDRESS":"中華東路二段１９７號十六樓之１１","OBJECTID":521036},"geometry":{"x":171303.88999999873,"y":2542749.1700000018}},{"attributes":{"ID":521064,"DIS_CODE":0,"TOWNNAME":"東區","LI":"自強里","LIN":"31鄰","STREET":"中華東路","SECT":"二段","MAREA":" ","LANE":" ","ALLEY":" ","HOUSE_NO":"１９７號十六樓之１２","E_COORD97":171303.89000000001,"N_COORD97":2542749.1699999999,"ADDRESS":"中華東路二段１９７號十六樓之１２","OBJECTID":521037},"geometry":{"x":171303.88999999873,"y":2542749.1700000018}},{"attributes":{"ID":521065,"DIS_CODE":0,"TOWNNAME":"東區","LI":"自強里","LIN":"31鄰","STREET":"中華東路","SECT":"二段","MAREA":" ","LANE":" ","ALLEY":" ","HOUSE_NO":"１９７號十六樓之１３","E_COORD97":171303.89000000001,"N_COORD97":2542749.1699999999,"ADDRESS":"中華東路二段１９７號十六樓之１３","OBJECTID":521038},"geometry":{"x":171303.88999999873,"y":2542749.1700000018}},{"attributes":{"ID":521066,"DIS_CODE":0,"TOWNNAME":"東區","LI":"自強里","LIN":"31鄰","STREET":"中華東路","SECT":"二段","MAREA":" ","LANE":" ","ALLEY":" ","HOUSE_NO":"１９７號十六樓之１４","E_COORD97":171303.89000000001,"N_COORD97":2542749.1699999999,"ADDRESS":"中華東路二段１９７號十六樓之１４","OBJECTID":521039},"geometry":{"x":171303.88999999873,"y":2542749.1700000018}},{"attributes":{"ID":521067,"DIS_CODE":0,"TOWNNAME":"東區","LI":"自強里","LIN":"31鄰","STREET":"中華東路","SECT":"二段","MAREA":" ","LANE":" ","ALLEY":" ","HOUSE_NO":"１９７號十六樓之１５","E_COORD97":171303.89000000001,"N_COORD97":2542749.1699999999,"ADDRESS":"中華東路二段１９７號十六樓之１５","OBJECTID":521040},"geometry":{"x":171303.88999999873,"y":2542749.1700000018}},{"attributes":{"ID":521068,"DIS_CODE":0,"TOWNNAME":"東區","LI":"自強里","LIN":"31鄰","STREET":"中華東路","SECT":"二段","MAREA":" ","LANE":" ","ALLEY":" ","HOUSE_NO":"１９７號十六樓之１６","E_COORD97":171303.89000000001,"N_COORD97":2542749.1699999999,"ADDRESS":"中華東路二段１９７號十六樓之１６","OBJECTID":521041},"geometry":{"x":171303.88999999873,"y":2542749.1700000018}},{"attributes":{"ID":521069,"DIS_CODE":0,"TOWNNAME":"東區","LI":"自強里","LIN":"31鄰","STREET":"中華東路","SECT":"二段","MAREA":" ","LANE":" ","ALLEY":" ","HOUSE_NO":"１９７號十六樓之２","E_COORD97":171303.89000000001,"N_COORD97":2542749.1699999999,"ADDRESS":"中華東路二段１９７號十六樓之２","OBJECTID":521042},"geometry":{"x":171303.88999999873,"y":2542749.1700000018}},{"attributes":{"ID":521070,"DIS_CODE":0,"TOWNNAME":"東區","LI":"自強里","LIN":"31鄰","STREET":"中華東路","SECT":"二段","MAREA":" ","LANE":" ","ALLEY":" ","HOUSE_NO":"１９７號十六樓之３","E_COORD97":171303.89000000001,"N_COORD97":2542749.1699999999,"ADDRESS":"中華東路二段１９７號十六樓之３","OBJECTID":521043},"geometry":{"x":171303.88999999873,"y":2542749.1700000018}},{"attributes":{"ID":521071,"DIS_CODE":0,"TOWNNAME":"玉井區","LI":"玉井里","LIN":" ","STREET":"樹糖街","SECT":" ","MAREA":" ","LANE":" ","ALLEY":" ","HOUSE_NO":"４９號","E_COORD97":194712.94,"N_COORD97":2558484.2400000002,"ADDRESS":"樹糖街４９號","OBJECTID":521044},"geometry":{"x":194712.94000000041,"y":2558484.2400000021}},{"attributes":{"ID":521072,"DIS_CODE":0,"TOWNNAME":"東區","LI":"自強里","LIN":"31鄰","STREET":"中華東路","SECT":"二段","MAREA":" ","LANE":" ","ALLEY":" ","HOUSE_NO":"１９７號十六樓之５","E_COORD97":171303.89000000001,"N_COORD97":2542749.1699999999,"ADDRESS":"中華東路二段１９７號十六樓之５","OBJECTID":521045},"geometry":{"x":171303.88999999873,"y":2542749.1700000018}},{"attributes":{"ID":521073,"DIS_CODE":0,"TOWNNAME":"東區","LI":"自強里","LIN":"31鄰","STREET":"中華東路","SECT":"二段","MAREA":" ","LANE":" ","ALLEY":" ","HOUSE_NO":"１９７號十六樓之６","E_COORD97":171303.89000000001,"N_COORD97":2542749.1699999999,"ADDRESS":"中華東路二段１９７號十六樓之６","OBJECTID":521046},"geometry":{"x":171303.88999999873,"y":2542749.1700000018}},{"attributes":{"ID":521074,"DIS_CODE":0,"TOWNNAME":"東區","LI":"自強里","LIN":"31鄰","STREET":"中華東路","SECT":"二段","MAREA":" ","LANE":" ","ALLEY":" ","HOUSE_NO":"１９７號十六樓之７","E_COORD97":171303.89000000001,"N_COORD97":2542749.1699999999,"ADDRESS":"中華東路二段１９７號十六樓之７","OBJECTID":521047},"geometry":{"x":171303.88999999873,"y":2542749.1700000018}},{"attributes":{"ID":521075,"DIS_CODE":0,"TOWNNAME":"東區","LI":"自強里","LIN":"31鄰","STREET":"中華東路","SECT":"二段","MAREA":" ","LANE":" ","ALLEY":" ","HOUSE_NO":"１９７號十六樓之８","E_COORD97":171303.89000000001,"N_COORD97":2542749.1699999999,"ADDRESS":"中華東路二段１９７號十六樓之８","OBJECTID":521048},"geometry":{"x":171303.88999999873,"y":2542749.1700000018}},{"attributes":{"ID":521076,"DIS_CODE":0,"TOWNNAME":"東區","LI":"自強里","LIN":"31鄰","STREET":"中華東路","SECT":"二段","MAREA":" ","LANE":" ","ALLEY":" ","HOUSE_NO":"１９７號十六樓之９","E_COORD97":171303.89000000001,"N_COORD97":2542749.1699999999,"ADDRESS":"中華東路二段１９７號十六樓之９","OBJECTID":521049},"geometry":{"x":171303.88999999873,"y":2542749.1700000018}},{"attributes":{"ID":521077,"DIS_CODE":0,"TOWNNAME":"東區","LI":"自強里","LIN":"31鄰","STREET":"中華東路","SECT":"二段","MAREA":" ","LANE":" ","ALLEY":" ","HOUSE_NO":"１９７號十四樓","E_COORD97":171303.89000000001,"N_COORD97":2542749.1699999999,"ADDRESS":"中華東路二段１９７號十四樓","OBJECTID":521050},"geometry":{"x":171303.88999999873,"y":2542749.1700000018}},{"attributes":{"ID":521078,"DIS_CODE":0,"TOWNNAME":"東區","LI":"自強里","LIN":"31鄰","STREET":"中華東路","SECT":"二段","MAREA":" ","LANE":" ","ALLEY":" ","HOUSE_NO":"１９７號十四樓之１","E_COORD97":171303.89000000001,"N_COORD97":2542749.1699999999,"ADDRESS":"中華東路二段１９７號十四樓之１","OBJECTID":521051},"geometry":{"x":171303.88999999873,"y":2542749.1700000018}},{"attributes":{"ID":521079,"DIS_CODE":0,"TOWNNAME":"東區","LI":"自強里","LIN":"31鄰","STREET":"中華東路","SECT":"二段","MAREA":" ","LANE":" ","ALLEY":" ","HOUSE_NO":"１９７號十四樓之１０","E_COORD97":171303.89000000001,"N_COORD97":2542749.1699999999,"ADDRESS":"中華東路二段１９７號十四樓之１０","OBJECTID":521052},"geometry":{"x":171303.88999999873,"y":2542749.1700000018}},{"attributes":{"ID":521080,"DIS_CODE":0,"TOWNNAME":"東區","LI":"自強里","LIN":"31鄰","STREET":"中華東路","SECT":"二段","MAREA":" ","LANE":" ","ALLEY":" ","HOUSE_NO":"１９７號十四樓之１１","E_COORD97":171303.89000000001,"N_COORD97":2542749.1699999999,"ADDRESS":"中華東路二段１９７號十四樓之１１","OBJECTID":521053},"geometry":{"x":171303.88999999873,"y":2542749.1700000018}},{"attributes":{"ID":521081,"DIS_CODE":0,"TOWNNAME":"東區","LI":"自強里","LIN":"31鄰","STREET":"中華東路","SECT":"二段","MAREA":" ","LANE":" ","ALLEY":" ","HOUSE_NO":"１９７號十四樓之１２","E_COORD97":171303.89000000001,"N_COORD97":2542749.1699999999,"ADDRESS":"中華東路二段１９７號十四樓之１２","OBJECTID":521054},"geometry":{"x":171303.88999999873,"y":2542749.1700000018}},{"attributes":{"ID":521082,"DIS_CODE":0,"TOWNNAME":"東區","LI":"自強里","LIN":"31鄰","STREET":"中華東路","SECT":"二段","MAREA":" ","LANE":" ","ALLEY":" ","HOUSE_NO":"１９７號十四樓之１３","E_COORD97":171303.89000000001,"N_COORD97":2542749.1699999999,"ADDRESS":"中華東路二段１９７號十四樓之１３","OBJECTID":521055},"geometry":{"x":171303.88999999873,"y":2542749.1700000018}},{"attributes":{"ID":521083,"DIS_CODE":0,"TOWNNAME":"東區","LI":"自強里","LIN":"31鄰","STREET":"中華東路","SECT":"二段","MAREA":" ","LANE":" ","ALLEY":" ","HOUSE_NO":"１９７號十四樓之１４","E_COORD97":171303.89000000001,"N_COORD97":2542749.1699999999,"ADDRESS":"中華東路二段１９７號十四樓之１４","OBJECTID":521056},"geometry":{"x":171303.88999999873,"y":2542749.1700000018}},{"attributes":{"ID":521084,"DIS_CODE":0,"TOWNNAME":"東區","LI":"自強里","LIN":"31鄰","STREET":"中華東路","SECT":"二段","MAREA":" ","LANE":" ","ALLEY":" ","HOUSE_NO":"１９７號十四樓之１５","E_COORD97":171303.89000000001,"N_COORD97":2542749.1699999999,"ADDRESS":"中華東路二段１９７號十四樓之１５","OBJECTID":521057},"geometry":{"x":171303.88999999873,"y":2542749.1700000018}},{"attributes":{"ID":521085,"DIS_CODE":0,"TOWNNAME":"東區","LI":"自強里","LIN":"31鄰","STREET":"中華東路","SECT":"二段","MAREA":" ","LANE":" ","ALLEY":" ","HOUSE_NO":"１９７號十四樓之１６","E_COORD97":171303.89000000001,"N_COORD97":2542749.1699999999,"ADDRESS":"中華東路二段１９７號十四樓之１６","OBJECTID":521058},"geometry":{"x":171303.88999999873,"y":2542749.1700000018}},{"attributes":{"ID":521086,"DIS_CODE":0,"TOWNNAME":"東區","LI":"自強里","LIN":"31鄰","STREET":"中華東路","SECT":"二段","MAREA":" ","LANE":" ","ALLEY":" ","HOUSE_NO":"１９７號十四樓之２","E_COORD97":171303.89000000001,"N_COORD97":2542749.1699999999,"ADDRESS":"中華東路二段１９７號十四樓之２","OBJECTID":521059},"geometry":{"x":171303.88999999873,"y":2542749.1700000018}},{"attributes":{"ID":521087,"DIS_CODE":0,"TOWNNAME":"東區","LI":"自強里","LIN":"31鄰","STREET":"中華東路","SECT":"二段","MAREA":" ","LANE":" ","ALLEY":" ","HOUSE_NO":"１９７號十四樓之３","E_COORD97":171303.89000000001,"N_COORD97":2542749.1699999999,"ADDRESS":"中華東路二段１９７號十四樓之３","OBJECTID":521060},"geometry":{"x":171303.88999999873,"y":2542749.1700000018}},{"attributes":{"ID":521088,"DIS_CODE":0,"TOWNNAME":"永康區","LI":"崑山里","LIN":"31鄰","STREET":"永大路","SECT":"二段","MAREA":" ","LANE":" ","ALLEY":" ","HOUSE_NO":"２７號四樓之２","E_COORD97":174133.34,"N_COORD97":2544722.54,"ADDRESS":"永大路二段２７號四樓之２","OBJECTID":521061},"geometry":{"x":174133.33999999985,"y":2544722.540000001}},{"attributes":{"ID":521089,"DIS_CODE":0,"TOWNNAME":"東區","LI":"自強里","LIN":"31鄰","STREET":"中華東路","SECT":"二段","MAREA":" ","LANE":" ","ALLEY":" ","HOUSE_NO":"１９７號十四樓之５","E_COORD97":171303.89000000001,"N_COORD97":2542749.1699999999,"ADDRESS":"中華東路二段１９７號十四樓之５","OBJECTID":521062},"geometry":{"x":171303.88999999873,"y":2542749.1700000018}},{"attributes":{"ID":521090,"DIS_CODE":0,"TOWNNAME":"東區","LI":"自強里","LIN":"31鄰","STREET":"中華東路","SECT":"二段","MAREA":" ","LANE":" ","ALLEY":" ","HOUSE_NO":"１９７號十四樓之６","E_COORD97":171303.89000000001,"N_COORD97":2542749.1699999999,"ADDRESS":"中華東路二段１９７號十四樓之６","OBJECTID":521063},"geometry":{"x":171303.88999999873,"y":2542749.1700000018}},{"attributes":{"ID":521091,"DIS_CODE":0,"TOWNNAME":"佳里區","LI":"建南里","LIN":"31鄰","STREET":"南勢街","SECT":" ","MAREA":" ","LANE":" ","ALLEY":" ","HOUSE_NO":"２５５號","E_COORD97":165627.19,"N_COORD97":2560769.9399999999,"ADDRESS":"南勢街２５５號","OBJECTID":521064},"geometry":{"x":165627.18999999948,"y":2560769.9400000013}},{"attributes":{"ID":521092,"DIS_CODE":0,"TOWNNAME":"東區","LI":"自強里","LIN":"31鄰","STREET":"中華東路","SECT":"二段","MAREA":" ","LANE":" ","ALLEY":" ","HOUSE_NO":"１９７號十四樓之７","E_COORD97":171303.89000000001,"N_COORD97":2542749.1699999999,"ADDRESS":"中華東路二段１９７號十四樓之７","OBJECTID":521065},"geometry":{"x":171303.88999999873,"y":2542749.1700000018}},{"attributes":{"ID":521093,"DIS_CODE":0,"TOWNNAME":"東區","LI":"自強里","LIN":"31鄰","STREET":"中華東路","SECT":"二段","MAREA":" ","LANE":" ","ALLEY":" ","HOUSE_NO":"１９７號十四樓之８","E_COORD97":171303.89000000001,"N_COORD97":2542749.1699999999,"ADDRESS":"中華東路二段１９７號十四樓之８","OBJECTID":521066},"geometry":{"x":171303.88999999873,"y":2542749.1700000018}},{"attributes":{"ID":521094,"DIS_CODE":0,"TOWNNAME":"東區","LI":"自強里","LIN":"31鄰","STREET":"中華東路","SECT":"二段","MAREA":" ","LANE":" ","ALLEY":" ","HOUSE_NO":"１９７號十四樓之９","E_COORD97":171303.89000000001,"N_COORD97":2542749.1699999999,"ADDRESS":"中華東路二段１９７號十四樓之９","OBJECTID":521067},"geometry":{"x":171303.88999999873,"y":2542749.1700000018}},{"attributes":{"ID":521095,"DIS_CODE":0,"TOWNNAME":"東區","LI":"自強里","LIN":"31鄰","STREET":"中華東路","SECT":"二段","MAREA":" ","LANE":" ","ALLEY":" ","HOUSE_NO":"１９７號十樓","E_COORD97":171303.89000000001,"N_COORD97":2542749.1699999999,"ADDRESS":"中華東路二段１９７號十樓","OBJECTID":521068},"geometry":{"x":171303.88999999873,"y":2542749.1700000018}},{"attributes":{"ID":521096,"DIS_CODE":0,"TOWNNAME":"東區","LI":"自強里","LIN":"31鄰","STREET":"中華東路","SECT":"二段","MAREA":" ","LANE":" ","ALLEY":" ","HOUSE_NO":"１９７號十樓之１","E_COORD97":171303.89000000001,"N_COORD97":2542749.1699999999,"ADDRESS":"中華東路二段１９７號十樓之１","OBJECTID":521069},"geometry":{"x":171303.88999999873,"y":2542749.1700000018}},{"attributes":{"ID":521097,"DIS_CODE":0,"TOWNNAME":"歸仁區","LI":"後市里","LIN":"31鄰","STREET":"民族北街","SECT":" ","MAREA":" ","LANE":" ","ALLEY":" ","HOUSE_NO":"４９號","E_COORD97":177416.82999999999,"N_COORD97":2540947.75,"ADDRESS":"民族北街４９號","OBJECTID":521070},"geometry":{"x":177416.83000000101,"y":2540947.7500000037}},{"attributes":{"ID":521098,"DIS_CODE":0,"TOWNNAME":"東區","LI":"自強里","LIN":"31鄰","STREET":"中華東路","SECT":"二段","MAREA":" ","LANE":" ","ALLEY":" ","HOUSE_NO":"１９７號十樓之１０","E_COORD97":171303.89000000001,"N_COORD97":2542749.1699999999,"ADDRESS":"中華東路二段１９７號十樓之１０","OBJECTID":521071},"geometry":{"x":171303.88999999873,"y":2542749.1700000018}},{"attributes":{"ID":521099,"DIS_CODE":0,"TOWNNAME":"東區","LI":"自強里","LIN":"31鄰","STREET":"中華東路","SECT":"二段","MAREA":" ","LANE":" ","ALLEY":" ","HOUSE_NO":"１９７號十樓之１１","E_COORD97":171303.89000000001,"N_COORD97":2542749.1699999999,"ADDRESS":"中華東路二段１９７號十樓之１１","OBJECTID":521072},"geometry":{"x":171303.88999999873,"y":2542749.1700000018}},{"attributes":{"ID":521100,"DIS_CODE":0,"TOWNNAME":"東區","LI":"自強里","LIN":"31鄰","STREET":"中華東路","SECT":"二段","MAREA":" ","LANE":" ","ALLEY":" ","HOUSE_NO":"１９７號十樓之１２","E_COORD97":171303.89000000001,"N_COORD97":2542749.1699999999,"ADDRESS":"中華東路二段１９７號十樓之１２","OBJECTID":521073},"geometry":{"x":171303.88999999873,"y":2542749.1700000018}},{"attributes":{"ID":521101,"DIS_CODE":0,"TOWNNAME":"東區","LI":"自強里","LIN":"31鄰","STREET":"中華東路","SECT":"二段","MAREA":" ","LANE":" ","ALLEY":" ","HOUSE_NO":"１９７號十樓之１３","E_COORD97":171303.89000000001,"N_COORD97":2542749.1699999999,"ADDRESS":"中華東路二段１９７號十樓之１３","OBJECTID":521074},"geometry":{"x":171303.88999999873,"y":2542749.1700000018}},{"attributes":{"ID":521102,"DIS_CODE":0,"TOWNNAME":"東區","LI":"自強里","LIN":"31鄰","STREET":"中華東路","SECT":"二段","MAREA":" ","LANE":" ","ALLEY":" ","HOUSE_NO":"１９７號十樓之１４","E_COORD97":171303.89000000001,"N_COORD97":2542749.1699999999,"ADDRESS":"中華東路二段１９７號十樓之１４","OBJECTID":521075},"geometry":{"x":171303.88999999873,"y":2542749.1700000018}},{"attributes":{"ID":521103,"DIS_CODE":0,"TOWNNAME":"東區","LI":"自強里","LIN":"31鄰","STREET":"中華東路","SECT":"二段","MAREA":" ","LANE":" ","ALLEY":" ","HOUSE_NO":"１９７號十樓之１５","E_COORD97":171303.89000000001,"N_COORD97":2542749.1699999999,"ADDRESS":"中華東路二段１９７號十樓之１５","OBJECTID":521076},"geometry":{"x":171303.88999999873,"y":2542749.1700000018}},{"attributes":{"ID":521104,"DIS_CODE":0,"TOWNNAME":"東區","LI":"自強里","LIN":"31鄰","STREET":"中華東路","SECT":"二段","MAREA":" ","LANE":" ","ALLEY":" ","HOUSE_NO":"１９７號十樓之１６","E_COORD97":171303.89000000001,"N_COORD97":2542749.1699999999,"ADDRESS":"中華東路二段１９７號十樓之１６","OBJECTID":521077},"geometry":{"x":171303.88999999873,"y":2542749.1700000018}},{"attributes":{"ID":521105,"DIS_CODE":0,"TOWNNAME":"東區","LI":"自強里","LIN":"31鄰","STREET":"中華東路","SECT":"二段","MAREA":" ","LANE":" ","ALLEY":" ","HOUSE_NO":"１９７號十樓之２","E_COORD97":171303.89000000001,"N_COORD97":2542749.1699999999,"ADDRESS":"中華東路二段１９７號十樓之２","OBJECTID":521078},"geometry":{"x":171303.88999999873,"y":2542749.1700000018}},{"attributes":{"ID":521106,"DIS_CODE":0,"TOWNNAME":"東區","LI":"自強里","LIN":"31鄰","STREET":"中華東路","SECT":"二段","MAREA":" ","LANE":" ","ALLEY":" ","HOUSE_NO":"１９７號十樓之３","E_COORD97":171303.89000000001,"N_COORD97":2542749.1699999999,"ADDRESS":"中華東路二段１９７號十樓之３","OBJECTID":521079},"geometry":{"x":171303.88999999873,"y":2542749.1700000018}},{"attributes":{"ID":521107,"DIS_CODE":0,"TOWNNAME":"東區","LI":"自強里","LIN":"31鄰","STREET":"中華東路","SECT":"二段","MAREA":" ","LANE":" ","ALLEY":" ","HOUSE_NO":"１９７號十樓之５","E_COORD97":171303.89000000001,"N_COORD97":2542749.1699999999,"ADDRESS":"中華東路二段１９７號十樓之５","OBJECTID":521080},"geometry":{"x":171303.88999999873,"y":2542749.1700000018}},{"attributes":{"ID":521108,"DIS_CODE":0,"TOWNNAME":"東區","LI":"自強里","LIN":"31鄰","STREET":"中華東路","SECT":"二段","MAREA":" ","LANE":" ","ALLEY":" ","HOUSE_NO":"１９７號十樓之６","E_COORD97":171303.89000000001,"N_COORD97":2542749.1699999999,"ADDRESS":"中華東路二段１９７號十樓之６","OBJECTID":521081},"geometry":{"x":171303.88999999873,"y":2542749.1700000018}},{"attributes":{"ID":521109,"DIS_CODE":0,"TOWNNAME":"東區","LI":"自強里","LIN":"31鄰","STREET":"中華東路","SECT":"二段","MAREA":" ","LANE":" ","ALLEY":" ","HOUSE_NO":"１９７號十樓之７","E_COORD97":171303.89000000001,"N_COORD97":2542749.1699999999,"ADDRESS":"中華東路二段１９７號十樓之７","OBJECTID":521082},"geometry":{"x":171303.88999999873,"y":2542749.1700000018}},{"attributes":{"ID":521110,"DIS_CODE":0,"TOWNNAME":"東區","LI":"自強里","LIN":"31鄰","STREET":"中華東路","SECT":"二段","MAREA":" ","LANE":" ","ALLEY":" ","HOUSE_NO":"１９７號十樓之８","E_COORD97":171303.89000000001,"N_COORD97":2542749.1699999999,"ADDRESS":"中華東路二段１９７號十樓之８","OBJECTID":521083},"geometry":{"x":171303.88999999873,"y":2542749.1700000018}},{"attributes":{"ID":521111,"DIS_CODE":0,"TOWNNAME":"東區","LI":"自強里","LIN":"31鄰","STREET":"中華東路","SECT":"二段","MAREA":" ","LANE":" ","ALLEY":" ","HOUSE_NO":"１９７號十樓之９","E_COORD97":171303.89000000001,"N_COORD97":2542749.1699999999,"ADDRESS":"中華東路二段１９７號十樓之９","OBJECTID":521084},"geometry":{"x":171303.88999999873,"y":2542749.1700000018}},{"attributes":{"ID":521112,"DIS_CODE":0,"TOWNNAME":"東區","LI":"自強里","LIN":"31鄰","STREET":"中華東路","SECT":"二段","MAREA":" ","LANE":" ","ALLEY":" ","HOUSE_NO":"１９７號三樓","E_COORD97":171303.89000000001,"N_COORD97":2542749.1699999999,"ADDRESS":"中華東路二段１９７號三樓","OBJECTID":521085},"geometry":{"x":171303.88999999873,"y":2542749.1700000018}},{"attributes":{"ID":521113,"DIS_CODE":0,"TOWNNAME":"東區","LI":"自強里","LIN":"31鄰","STREET":"中華東路","SECT":"二段","MAREA":" ","LANE":" ","ALLEY":" ","HOUSE_NO":"１９７號三樓之１","E_COORD97":171303.89000000001,"N_COORD97":2542749.1699999999,"ADDRESS":"中華東路二段１９７號三樓之１","OBJECTID":521086},"geometry":{"x":171303.88999999873,"y":2542749.1700000018}},{"attributes":{"ID":521114,"DIS_CODE":0,"TOWNNAME":"東區","LI":"自強里","LIN":"31鄰","STREET":"中華東路","SECT":"二段","MAREA":" ","LANE":" ","ALLEY":" ","HOUSE_NO":"１９７號三樓之１０","E_COORD97":171303.89000000001,"N_COORD97":2542749.1699999999,"ADDRESS":"中華東路二段１９７號三樓之１０","OBJECTID":521087},"geometry":{"x":171303.88999999873,"y":2542749.1700000018}},{"attributes":{"ID":521115,"DIS_CODE":0,"TOWNNAME":"東區","LI":"富強里","LIN":"31鄰","STREET":"裕農路","SECT":" ","MAREA":" ","LANE":" ","ALLEY":" ","HOUSE_NO":"３７０號五樓","E_COORD97":171080.64999999999,"N_COORD97":2543068.4100000001,"ADDRESS":"裕農路３７０號五樓","OBJECTID":521088},"geometry":{"x":171080.65000000037,"y":2543068.4100000001}},{"attributes":{"ID":521116,"DIS_CODE":0,"TOWNNAME":"東區","LI":"自強里","LIN":"31鄰","STREET":"中華東路","SECT":"二段","MAREA":" ","LANE":" ","ALLEY":" ","HOUSE_NO":"１９７號三樓之１１","E_COORD97":171303.89000000001,"N_COORD97":2542749.1699999999,"ADDRESS":"中華東路二段１９７號三樓之１１","OBJECTID":521089},"geometry":{"x":171303.88999999873,"y":2542749.1700000018}},{"attributes":{"ID":521117,"DIS_CODE":0,"TOWNNAME":"東區","LI":"自強里","LIN":"31鄰","STREET":"中華東路","SECT":"二段","MAREA":" ","LANE":" ","ALLEY":" ","HOUSE_NO":"１９７號三樓之１２","E_COORD97":171303.89000000001,"N_COORD97":2542749.1699999999,"ADDRESS":"中華東路二段１９７號三樓之１２","OBJECTID":521090},"geometry":{"x":171303.88999999873,"y":2542749.1700000018}},{"attributes":{"ID":521118,"DIS_CODE":0,"TOWNNAME":"東區","LI":"自強里","LIN":"31鄰","STREET":"中華東路","SECT":"二段","MAREA":" ","LANE":" ","ALLEY":" ","HOUSE_NO":"１９７號三樓之１３","E_COORD97":171303.89000000001,"N_COORD97":2542749.1699999999,"ADDRESS":"中華東路二段１９７號三樓之１３","OBJECTID":521091},"geometry":{"x":171303.88999999873,"y":2542749.1700000018}},{"attributes":{"ID":521119,"DIS_CODE":0,"TOWNNAME":"東區","LI":"自強里","LIN":"31鄰","STREET":"中華東路","SECT":"二段","MAREA":" ","LANE":" ","ALLEY":" ","HOUSE_NO":"１９７號三樓之１４","E_COORD97":171303.89000000001,"N_COORD97":2542749.1699999999,"ADDRESS":"中華東路二段１９７號三樓之１４","OBJECTID":521092},"geometry":{"x":171303.88999999873,"y":2542749.1700000018}},{"attributes":{"ID":521120,"DIS_CODE":0,"TOWNNAME":"東區","LI":"自強里","LIN":"31鄰","STREET":"中華東路","SECT":"二段","MAREA":" ","LANE":" ","ALLEY":" ","HOUSE_NO":"１９７號三樓之２","E_COORD97":171303.89000000001,"N_COORD97":2542749.1699999999,"ADDRESS":"中華東路二段１９７號三樓之２","OBJECTID":521093},"geometry":{"x":171303.88999999873,"y":2542749.1700000018}},{"attributes":{"ID":521121,"DIS_CODE":0,"TOWNNAME":"東區","LI":"自強里","LIN":"31鄰","STREET":"中華東路","SECT":"二段","MAREA":" ","LANE":" ","ALLEY":" ","HOUSE_NO":"１９７號三樓之３","E_COORD97":171303.89000000001,"N_COORD97":2542749.1699999999,"ADDRESS":"中華東路二段１９７號三樓之３","OBJECTID":521094},"geometry":{"x":171303.88999999873,"y":2542749.1700000018}},{"attributes":{"ID":521122,"DIS_CODE":0,"TOWNNAME":"東區","LI":"自強里","LIN":"31鄰","STREET":"中華東路","SECT":"二段","MAREA":" ","LANE":" ","ALLEY":" ","HOUSE_NO":"１９７號三樓之５","E_COORD97":171303.89000000001,"N_COORD97":2542749.1699999999,"ADDRESS":"中華東路二段１９７號三樓之５","OBJECTID":521095},"geometry":{"x":171303.88999999873,"y":2542749.1700000018}},{"attributes":{"ID":521123,"DIS_CODE":0,"TOWNNAME":"東區","LI":"自強里","LIN":"31鄰","STREET":"中華東路","SECT":"二段","MAREA":" ","LANE":" ","ALLEY":" ","HOUSE_NO":"１９７號三樓之６","E_COORD97":171303.89000000001,"N_COORD97":2542749.1699999999,"ADDRESS":"中華東路二段１９７號三樓之６","OBJECTID":521096},"geometry":{"x":171303.88999999873,"y":2542749.1700000018}},{"attributes":{"ID":521124,"DIS_CODE":0,"TOWNNAME":"東區","LI":"自強里","LIN":"31鄰","STREET":"中華東路","SECT":"二段","MAREA":" ","LANE":" ","ALLEY":" ","HOUSE_NO":"１９７號三樓之７","E_COORD97":171303.89000000001,"N_COORD97":2542749.1699999999,"ADDRESS":"中華東路二段１９７號三樓之７","OBJECTID":521097},"geometry":{"x":171303.88999999873,"y":2542749.1700000018}},{"attributes":{"ID":521125,"DIS_CODE":0,"TOWNNAME":"東區","LI":"富強里","LIN":"31鄰","STREET":"裕農路","SECT":" ","MAREA":" ","LANE":" ","ALLEY":" ","HOUSE_NO":"３７０號七樓","E_COORD97":171080.64999999999,"N_COORD97":2543068.4100000001,"ADDRESS":"裕農路３７０號七樓","OBJECTID":521098},"geometry":{"x":171080.65000000037,"y":2543068.4100000001}},{"attributes":{"ID":521126,"DIS_CODE":0,"TOWNNAME":"東區","LI":"自強里","LIN":"31鄰","STREET":"中華東路","SECT":"二段","MAREA":" ","LANE":" ","ALLEY":" ","HOUSE_NO":"１９７號三樓之９","E_COORD97":171303.89000000001,"N_COORD97":2542749.1699999999,"ADDRESS":"中華東路二段１９７號三樓之９","OBJECTID":521099},"geometry":{"x":171303.88999999873,"y":2542749.1700000018}},{"attributes":{"ID":521127,"DIS_CODE":0,"TOWNNAME":"東區","LI":"自強里","LIN":"31鄰","STREET":"中華東路","SECT":"二段","MAREA":" ","LANE":" ","ALLEY":" ","HOUSE_NO":"１９７號五樓","E_COORD97":171303.89000000001,"N_COORD97":2542749.1699999999,"ADDRESS":"中華東路二段１９７號五樓","OBJECTID":521100},"geometry":{"x":171303.88999999873,"y":2542749.1700000018}},{"attributes":{"ID":521128,"DIS_CODE":0,"TOWNNAME":"東區","LI":"自強里","LIN":"31鄰","STREET":"中華東路","SECT":"二段","MAREA":" ","LANE":" ","ALLEY":" ","HOUSE_NO":"１９７號五樓之１","E_COORD97":171303.89000000001,"N_COORD97":2542749.1699999999,"ADDRESS":"中華東路二段１９７號五樓之１","OBJECTID":521101},"geometry":{"x":171303.88999999873,"y":2542749.1700000018}},{"attributes":{"ID":521129,"DIS_CODE":0,"TOWNNAME":"東區","LI":"自強里","LIN":"31鄰","STREET":"中華東路","SECT":"二段","MAREA":" ","LANE":" ","ALLEY":" ","HOUSE_NO":"１９７號五樓之１０","E_COORD97":171303.89000000001,"N_COORD97":2542749.1699999999,"ADDRESS":"中華東路二段１９７號五樓之１０","OBJECTID":521102},"geometry":{"x":171303.88999999873,"y":2542749.1700000018}},{"attributes":{"ID":521130,"DIS_CODE":0,"TOWNNAME":"東區","LI":"自強里","LIN":"31鄰","STREET":"中華東路","SECT":"二段","MAREA":" ","LANE":" ","ALLEY":" ","HOUSE_NO":"１９７號五樓之１１","E_COORD97":171303.89000000001,"N_COORD97":2542749.1699999999,"ADDRESS":"中華東路二段１９７號五樓之１１","OBJECTID":521103},"geometry":{"x":171303.88999999873,"y":2542749.1700000018}},{"attributes":{"ID":521131,"DIS_CODE":0,"TOWNNAME":"東區","LI":"自強里","LIN":"31鄰","STREET":"中華東路","SECT":"二段","MAREA":" ","LANE":" ","ALLEY":" ","HOUSE_NO":"１９７號五樓之１２","E_COORD97":171303.89000000001,"N_COORD97":2542749.1699999999,"ADDRESS":"中華東路二段１９７號五樓之１２","OBJECTID":521104},"geometry":{"x":171303.88999999873,"y":2542749.1700000018}},{"attributes":{"ID":521132,"DIS_CODE":0,"TOWNNAME":"東區","LI":"自強里","LIN":"31鄰","STREET":"中華東路","SECT":"二段","MAREA":" ","LANE":" ","ALLEY":" ","HOUSE_NO":"１９７號五樓之１３","E_COORD97":171303.89000000001,"N_COORD97":2542749.1699999999,"ADDRESS":"中華東路二段１９７號五樓之１３","OBJECTID":521105},"geometry":{"x":171303.88999999873,"y":2542749.1700000018}},{"attributes":{"ID":521133,"DIS_CODE":0,"TOWNNAME":"東區","LI":"自強里","LIN":"31鄰","STREET":"中華東路","SECT":"二段","MAREA":" ","LANE":" ","ALLEY":" ","HOUSE_NO":"１９７號五樓之１４","E_COORD97":171303.89000000001,"N_COORD97":2542749.1699999999,"ADDRESS":"中華東路二段１９７號五樓之１４","OBJECTID":521106},"geometry":{"x":171303.88999999873,"y":2542749.1700000018}},{"attributes":{"ID":521134,"DIS_CODE":0,"TOWNNAME":"東區","LI":"自強里","LIN":"31鄰","STREET":"中華東路","SECT":"二段","MAREA":" ","LANE":" ","ALLEY":" ","HOUSE_NO":"１９７號五樓之１５","E_COORD97":171303.89000000001,"N_COORD97":2542749.1699999999,"ADDRESS":"中華東路二段１９７號五樓之１５","OBJECTID":521107},"geometry":{"x":171303.88999999873,"y":2542749.1700000018}},{"attributes":{"ID":521135,"DIS_CODE":0,"TOWNNAME":"東區","LI":"自強里","LIN":"31鄰","STREET":"中華東路","SECT":"二段","MAREA":" ","LANE":" ","ALLEY":" ","HOUSE_NO":"１９７號五樓之１６","E_COORD97":171303.89000000001,"N_COORD97":2542749.1699999999,"ADDRESS":"中華東路二段１９７號五樓之１６","OBJECTID":521108},"geometry":{"x":171303.88999999873,"y":2542749.1700000018}},{"attributes":{"ID":521136,"DIS_CODE":0,"TOWNNAME":"東區","LI":"自強里","LIN":"31鄰","STREET":"中華東路","SECT":"二段","MAREA":" ","LANE":" ","ALLEY":" ","HOUSE_NO":"１９７號五樓之２","E_COORD97":171303.89000000001,"N_COORD97":2542749.1699999999,"ADDRESS":"中華東路二段１９７號五樓之２","OBJECTID":521109},"geometry":{"x":171303.88999999873,"y":2542749.1700000018}},{"attributes":{"ID":521137,"DIS_CODE":0,"TOWNNAME":"東區","LI":"自強里","LIN":"31鄰","STREET":"中華東路","SECT":"二段","MAREA":" ","LANE":" ","ALLEY":" ","HOUSE_NO":"１９７號五樓之３","E_COORD97":171303.89000000001,"N_COORD97":2542749.1699999999,"ADDRESS":"中華東路二段１９７號五樓之３","OBJECTID":521110},"geometry":{"x":171303.88999999873,"y":2542749.1700000018}},{"attributes":{"ID":521138,"DIS_CODE":0,"TOWNNAME":"東區","LI":"自強里","LIN":"31鄰","STREET":"中華東路","SECT":"二段","MAREA":" ","LANE":" ","ALLEY":" ","HOUSE_NO":"１９７號五樓之５","E_COORD97":171303.89000000001,"N_COORD97":2542749.1699999999,"ADDRESS":"中華東路二段１９７號五樓之５","OBJECTID":521111},"geometry":{"x":171303.88999999873,"y":2542749.1700000018}},{"attributes":{"ID":521139,"DIS_CODE":0,"TOWNNAME":"東區","LI":"自強里","LIN":"31鄰","STREET":"中華東路","SECT":"二段","MAREA":" ","LANE":" ","ALLEY":" ","HOUSE_NO":"１９７號五樓之６","E_COORD97":171303.89000000001,"N_COORD97":2542749.1699999999,"ADDRESS":"中華東路二段１９７號五樓之６","OBJECTID":521112},"geometry":{"x":171303.88999999873,"y":2542749.1700000018}},{"attributes":{"ID":521140,"DIS_CODE":0,"TOWNNAME":"東區","LI":"自強里","LIN":"31鄰","STREET":"中華東路","SECT":"二段","MAREA":" ","LANE":" ","ALLEY":" ","HOUSE_NO":"１９７號五樓之７","E_COORD97":171303.89000000001,"N_COORD97":2542749.1699999999,"ADDRESS":"中華東路二段１９７號五樓之７","OBJECTID":521113},"geometry":{"x":171303.88999999873,"y":2542749.1700000018}},{"attributes":{"ID":521141,"DIS_CODE":0,"TOWNNAME":"東區","LI":"自強里","LIN":"31鄰","STREET":"中華東路","SECT":"二段","MAREA":" ","LANE":" ","ALLEY":" ","HOUSE_NO":"１９７號五樓之８","E_COORD97":171303.89000000001,"N_COORD97":2542749.1699999999,"ADDRESS":"中華東路二段１９７號五樓之８","OBJECTID":521114},"geometry":{"x":171303.88999999873,"y":2542749.1700000018}},{"attributes":{"ID":521142,"DIS_CODE":0,"TOWNNAME":"東區","LI":"自強里","LIN":"31鄰","STREET":"中華東路","SECT":"二段","MAREA":" ","LANE":" ","ALLEY":" ","HOUSE_NO":"１９７號五樓之９","E_COORD97":171303.89000000001,"N_COORD97":2542749.1699999999,"ADDRESS":"中華東路二段１９７號五樓之９","OBJECTID":521115},"geometry":{"x":171303.88999999873,"y":2542749.1700000018}},{"attributes":{"ID":521143,"DIS_CODE":0,"TOWNNAME":"歸仁區","LI":"許厝里","LIN":"31鄰","STREET":"和平南街","SECT":" ","MAREA":" ","LANE":" ","ALLEY":" ","HOUSE_NO":"９號","E_COORD97":177857.87,"N_COORD97":2540707.25,"ADDRESS":"和平南街９號","OBJECTID":521116},"geometry":{"x":177857.87000000011,"y":2540707.2500000019}},{"attributes":{"ID":521144,"DIS_CODE":0,"TOWNNAME":"永康區","LI":"\u25A0行里","LIN":"31鄰","STREET":"仁愛街","SECT":" ","MAREA":" ","LANE":" ","ALLEY":" ","HOUSE_NO":"４６號五樓","E_COORD97":171939.87,"N_COORD97":2549186.77,"ADDRESS":"仁愛街４６號五樓","OBJECTID":521117},"geometry":{"x":171939.87000000011,"y":2549186.7700000014}},{"attributes":{"ID":521145,"DIS_CODE":0,"TOWNNAME":"東區","LI":"自強里","LIN":"31鄰","STREET":"中華東路","SECT":"二段","MAREA":" ","LANE":" ","ALLEY":" ","HOUSE_NO":"１９７號六樓之１０","E_COORD97":171303.89000000001,"N_COORD97":2542749.1699999999,"ADDRESS":"中華東路二段１９７號六樓之１０","OBJECTID":521118},"geometry":{"x":171303.88999999873,"y":2542749.1700000018}},{"attributes":{"ID":521146,"DIS_CODE":0,"TOWNNAME":"東區","LI":"自強里","LIN":"31鄰","STREET":"中華東路","SECT":"二段","MAREA":" ","LANE":" ","ALLEY":" ","HOUSE_NO":"１９７號六樓之１１","E_COORD97":171303.89000000001,"N_COORD97":2542749.1699999999,"ADDRESS":"中華東路二段１９７號六樓之１１","OBJECTID":521119},"geometry":{"x":171303.88999999873,"y":2542749.1700000018}},{"attributes":{"ID":521147,"DIS_CODE":0,"TOWNNAME":"東區","LI":"自強里","LIN":"31鄰","STREET":"中華東路","SECT":"二段","MAREA":" ","LANE":" ","ALLEY":" ","HOUSE_NO":"１９７號六樓之１２","E_COORD97":171303.89000000001,"N_COORD97":2542749.1699999999,"ADDRESS":"中華東路二段１９７號六樓之１２","OBJECTID":521120},"geometry":{"x":171303.88999999873,"y":2542749.1700000018}},{"attributes":{"ID":521148,"DIS_CODE":0,"TOWNNAME":"東區","LI":"自強里","LIN":"31鄰","STREET":"中華東路","SECT":"二段","MAREA":" ","LANE":" ","ALLEY":" ","HOUSE_NO":"１９７號六樓之１３","E_COORD97":171303.89000000001,"N_COORD97":2542749.1699999999,"ADDRESS":"中華東路二段１９７號六樓之１３","OBJECTID":521121},"geometry":{"x":171303.88999999873,"y":2542749.1700000018}},{"attributes":{"ID":521149,"DIS_CODE":0,"TOWNNAME":"東區","LI":"自強里","LIN":"31鄰","STREET":"中華東路","SECT":"二段","MAREA":" ","LANE":" ","ALLEY":" ","HOUSE_NO":"１９７號六樓之１４","E_COORD97":171303.89000000001,"N_COORD97":2542749.1699999999,"ADDRESS":"中華東路二段１９７號六樓之１４","OBJECTID":521122},"geometry":{"x":171303.88999999873,"y":2542749.1700000018}},{"attributes":{"ID":521150,"DIS_CODE":0,"TOWNNAME":"東區","LI":"自強里","LIN":"31鄰","STREET":"中華東路","SECT":"二段","MAREA":" ","LANE":" ","ALLEY":" ","HOUSE_NO":"１９７號六樓之１５","E_COORD97":171303.89000000001,"N_COORD97":2542749.1699999999,"ADDRESS":"中華東路二段１９７號六樓之１５","OBJECTID":521123},"geometry":{"x":171303.88999999873,"y":2542749.1700000018}},{"attributes":{"ID":521151,"DIS_CODE":0,"TOWNNAME":"東區","LI":"自強里","LIN":"31鄰","STREET":"中華東路","SECT":"二段","MAREA":" ","LANE":" ","ALLEY":" ","HOUSE_NO":"１９７號六樓之１６","E_COORD97":171303.89000000001,"N_COORD97":2542749.1699999999,"ADDRESS":"中華東路二段１９７號六樓之１６","OBJECTID":521124},"geometry":{"x":171303.88999999873,"y":2542749.1700000018}},{"attributes":{"ID":521152,"DIS_CODE":0,"TOWNNAME":"東區","LI":"自強里","LIN":"31鄰","STREET":"中華東路","SECT":"二段","MAREA":" ","LANE":" ","ALLEY":" ","HOUSE_NO":"１９７號六樓之２","E_COORD97":171303.89000000001,"N_COORD97":2542749.1699999999,"ADDRESS":"中華東路二段１９７號六樓之２","OBJECTID":521125},"geometry":{"x":171303.88999999873,"y":2542749.1700000018}},{"attributes":{"ID":521153,"DIS_CODE":0,"TOWNNAME":"東區","LI":"自強里","LIN":"31鄰","STREET":"中華東路","SECT":"二段","MAREA":" ","LANE":" ","ALLEY":" ","HOUSE_NO":"１９７號六樓之３","E_COORD97":171303.89000000001,"N_COORD97":2542749.1699999999,"ADDRESS":"中華東路二段１９７號六樓之３","OBJECTID":521126},"geometry":{"x":171303.88999999873,"y":2542749.1700000018}},{"attributes":{"ID":521154,"DIS_CODE":0,"TOWNNAME":"東區","LI":"自強里","LIN":"31鄰","STREET":"中華東路","SECT":"二段","MAREA":" ","LANE":" ","ALLEY":" ","HOUSE_NO":"１９７號六樓之５","E_COORD97":171303.89000000001,"N_COORD97":2542749.1699999999,"ADDRESS":"中華東路二段１９７號六樓之５","OBJECTID":521127},"geometry":{"x":171303.88999999873,"y":2542749.1700000018}},{"attributes":{"ID":521155,"DIS_CODE":0,"TOWNNAME":"東區","LI":"自強里","LIN":"31鄰","STREET":"中華東路","SECT":"二段","MAREA":" ","LANE":" ","ALLEY":" ","HOUSE_NO":"１９７號六樓之６","E_COORD97":171303.89000000001,"N_COORD97":2542749.1699999999,"ADDRESS":"中華東路二段１９７號六樓之６","OBJECTID":521128},"geometry":{"x":171303.88999999873,"y":2542749.1700000018}},{"attributes":{"ID":521156,"DIS_CODE":0,"TOWNNAME":"東區","LI":"自強里","LIN":"31鄰","STREET":"中華東路","SECT":"二段","MAREA":" ","LANE":" ","ALLEY":" ","HOUSE_NO":"１９７號六樓之７","E_COORD97":171303.89000000001,"N_COORD97":2542749.1699999999,"ADDRESS":"中華東路二段１９７號六樓之７","OBJECTID":521129},"geometry":{"x":171303.88999999873,"y":2542749.1700000018}},{"attributes":{"ID":521157,"DIS_CODE":0,"TOWNNAME":"東區","LI":"自強里","LIN":"31鄰","STREET":"中華東路","SECT":"二段","MAREA":" ","LANE":" ","ALLEY":" ","HOUSE_NO":"１９７號六樓之８","E_COORD97":171303.89000000001,"N_COORD97":2542749.1699999999,"ADDRESS":"中華東路二段１９７號六樓之８","OBJECTID":521130},"geometry":{"x":171303.88999999873,"y":2542749.1700000018}},{"attributes":{"ID":521158,"DIS_CODE":0,"TOWNNAME":"東區","LI":"自強里","LIN":"31鄰","STREET":"中華東路","SECT":"二段","MAREA":" ","LANE":" ","ALLEY":" ","HOUSE_NO":"１９７號六樓之９","E_COORD97":171303.89000000001,"N_COORD97":2542749.1699999999,"ADDRESS":"中華東路二段１９７號六樓之９","OBJECTID":521131},"geometry":{"x":171303.88999999873,"y":2542749.1700000018}},{"attributes":{"ID":521159,"DIS_CODE":0,"TOWNNAME":"東區","LI":"自強里","LIN":"31鄰","STREET":"中華東路","SECT":"二段","MAREA":" ","LANE":" ","ALLEY":" ","HOUSE_NO":"１９７號四樓","E_COORD97":171303.89000000001,"N_COORD97":2542749.1699999999,"ADDRESS":"中華東路二段１９７號四樓","OBJECTID":521132},"geometry":{"x":171303.88999999873,"y":2542749.1700000018}},{"attributes":{"ID":521160,"DIS_CODE":0,"TOWNNAME":"東區","LI":"自強里","LIN":"31鄰","STREET":"中華東路","SECT":"二段","MAREA":" ","LANE":" ","ALLEY":" ","HOUSE_NO":"１９７號四樓之１","E_COORD97":171303.89000000001,"N_COORD97":2542749.1699999999,"ADDRESS":"中華東路二段１９７號四樓之１","OBJECTID":521133},"geometry":{"x":171303.88999999873,"y":2542749.1700000018}},{"attributes":{"ID":521161,"DIS_CODE":0,"TOWNNAME":"東區","LI":"自強里","LIN":"31鄰","STREET":"中華東路","SECT":"二段","MAREA":" ","LANE":" ","ALLEY":" ","HOUSE_NO":"１９７號四樓之１０","E_COORD97":171303.89000000001,"N_COORD97":2542749.1699999999,"ADDRESS":"中華東路二段１９７號四樓之１０","OBJECTID":521134},"geometry":{"x":171303.88999999873,"y":2542749.1700000018}},{"attributes":{"ID":521162,"DIS_CODE":0,"TOWNNAME":"東區","LI":"自強里","LIN":"31鄰","STREET":"中華東路","SECT":"二段","MAREA":" ","LANE":" ","ALLEY":" ","HOUSE_NO":"１９７號四樓之１１","E_COORD97":171303.89000000001,"N_COORD97":2542749.1699999999,"ADDRESS":"中華東路二段１９７號四樓之１１","OBJECTID":521135},"geometry":{"x":171303.88999999873,"y":2542749.1700000018}},{"attributes":{"ID":521163,"DIS_CODE":0,"TOWNNAME":"東區","LI":"自強里","LIN":"31鄰","STREET":"中華東路","SECT":"二段","MAREA":" ","LANE":" ","ALLEY":" ","HOUSE_NO":"１９７號四樓之１２","E_COORD97":171303.89000000001,"N_COORD97":2542749.1699999999,"ADDRESS":"中華東路二段１９７號四樓之１２","OBJECTID":521136},"geometry":{"x":171303.88999999873,"y":2542749.1700000018}},{"attributes":{"ID":521164,"DIS_CODE":0,"TOWNNAME":"東區","LI":"自強里","LIN":"31鄰","STREET":"中華東路","SECT":"二段","MAREA":" ","LANE":" ","ALLEY":" ","HOUSE_NO":"１９７號四樓之１３","E_COORD97":171303.89000000001,"N_COORD97":2542749.1699999999,"ADDRESS":"中華東路二段１９７號四樓之１３","OBJECTID":521137},"geometry":{"x":171303.88999999873,"y":2542749.1700000018}},{"attributes":{"ID":521165,"DIS_CODE":0,"TOWNNAME":"東區","LI":"自強里","LIN":"31鄰","STREET":"中華東路","SECT":"二段","MAREA":" ","LANE":" ","ALLEY":" ","HOUSE_NO":"１９７號四樓之１４","E_COORD97":171303.89000000001,"N_COORD97":2542749.1699999999,"ADDRESS":"中華東路二段１９７號四樓之１４","OBJECTID":521138},"geometry":{"x":171303.88999999873,"y":2542749.1700000018}},{"attributes":{"ID":521166,"DIS_CODE":0,"TOWNNAME":"東區","LI":"自強里","LIN":"31鄰","STREET":"中華東路","SECT":"二段","MAREA":" ","LANE":" ","ALLEY":" ","HOUSE_NO":"１９７號四樓之２","E_COORD97":171303.89000000001,"N_COORD97":2542749.1699999999,"ADDRESS":"中華東路二段１９７號四樓之２","OBJECTID":521139},"geometry":{"x":171303.88999999873,"y":2542749.1700000018}},{"attributes":{"ID":521167,"DIS_CODE":0,"TOWNNAME":"東區","LI":"自強里","LIN":"31鄰","STREET":"中華東路","SECT":"二段","MAREA":" ","LANE":" ","ALLEY":" ","HOUSE_NO":"１９７號四樓之３","E_COORD97":171303.89000000001,"N_COORD97":2542749.1699999999,"ADDRESS":"中華東路二段１９７號四樓之３","OBJECTID":521140},"geometry":{"x":171303.88999999873,"y":2542749.1700000018}},{"attributes":{"ID":521168,"DIS_CODE":0,"TOWNNAME":"東區","LI":"自強里","LIN":"31鄰","STREET":"中華東路","SECT":"二段","MAREA":" ","LANE":" ","ALLEY":" ","HOUSE_NO":"１９７號四樓之５","E_COORD97":171303.89000000001,"N_COORD97":2542749.1699999999,"ADDRESS":"中華東路二段１９７號四樓之５","OBJECTID":521141},"geometry":{"x":171303.88999999873,"y":2542749.1700000018}},{"attributes":{"ID":521169,"DIS_CODE":0,"TOWNNAME":"東區","LI":"自強里","LIN":"31鄰","STREET":"中華東路","SECT":"二段","MAREA":" ","LANE":" ","ALLEY":" ","HOUSE_NO":"１９７號四樓之６","E_COORD97":171303.89000000001,"N_COORD97":2542749.1699999999,"ADDRESS":"中華東路二段１９７號四樓之６","OBJECTID":521142},"geometry":{"x":171303.88999999873,"y":2542749.1700000018}},{"attributes":{"ID":521170,"DIS_CODE":0,"TOWNNAME":"東區","LI":"自強里","LIN":"31鄰","STREET":"中華東路","SECT":"二段","MAREA":" ","LANE":" ","ALLEY":" ","HOUSE_NO":"１９７號四樓之７","E_COORD97":171303.89000000001,"N_COORD97":2542749.1699999999,"ADDRESS":"中華東路二段１９７號四樓之７","OBJECTID":521143},"geometry":{"x":171303.88999999873,"y":2542749.1700000018}},{"attributes":{"ID":521171,"DIS_CODE":0,"TOWNNAME":"東區","LI":"自強里","LIN":"31鄰","STREET":"中華東路","SECT":"二段","MAREA":" ","LANE":" ","ALLEY":" ","HOUSE_NO":"１９７號四樓之８","E_COORD97":171303.89000000001,"N_COORD97":2542749.1699999999,"ADDRESS":"中華東路二段１９７號四樓之８","OBJECTID":521144},"geometry":{"x":171303.88999999873,"y":2542749.1700000018}},{"attributes":{"ID":521172,"DIS_CODE":0,"TOWNNAME":"東區","LI":"自強里","LIN":"31鄰","STREET":"中華東路","SECT":"二段","MAREA":" ","LANE":" ","ALLEY":" ","HOUSE_NO":"１９７號四樓之９","E_COORD97":171303.89000000001,"N_COORD97":2542749.1699999999,"ADDRESS":"中華東路二段１９７號四樓之９","OBJECTID":521145},"geometry":{"x":171303.88999999873,"y":2542749.1700000018}},{"attributes":{"ID":521173,"DIS_CODE":0,"TOWNNAME":"東區","LI":"富強里","LIN":"31鄰","STREET":"裕農路","SECT":" ","MAREA":" ","LANE":" ","ALLEY":" ","HOUSE_NO":"３５２號七樓之１","E_COORD97":171026.64000000001,"N_COORD97":2543046.6400000001,"ADDRESS":"裕農路３５２號七樓之１","OBJECTID":521146},"geometry":{"x":171026.6400000006,"y":2543046.6400000006}},{"attributes":{"ID":521174,"DIS_CODE":0,"TOWNNAME":"東區","LI":"富強里","LIN":"31鄰","STREET":"裕農路","SECT":" ","MAREA":" ","LANE":" ","ALLEY":" ","HOUSE_NO":"３５２號七樓之２","E_COORD97":171026.64000000001,"N_COORD97":2543046.6400000001,"ADDRESS":"裕農路３５２號七樓之２","OBJECTID":521147},"geometry":{"x":171026.6400000006,"y":2543046.6400000006}},{"attributes":{"ID":521175,"DIS_CODE":0,"TOWNNAME":"東區","LI":"富強里","LIN":"31鄰","STREET":"裕農路","SECT":" ","MAREA":" ","LANE":" ","ALLEY":" ","HOUSE_NO":"３５２號七樓","E_COORD97":171026.64000000001,"N_COORD97":2543046.6400000001,"ADDRESS":"裕農路３５２號七樓","OBJECTID":521148},"geometry":{"x":171026.6400000006,"y":2543046.6400000006}},{"attributes":{"ID":521176,"DIS_CODE":0,"TOWNNAME":"東區","LI":"富強里","LIN":"31鄰","STREET":"裕農路","SECT":" ","MAREA":" ","LANE":" ","ALLEY":" ","HOUSE_NO":"３５２號七樓之３","E_COORD97":171026.64000000001,"N_COORD97":2543046.6400000001,"ADDRESS":"裕農路３５２號七樓之３","OBJECTID":521149},"geometry":{"x":171026.6400000006,"y":2543046.6400000006}},{"attributes":{"ID":521177,"DIS_CODE":0,"TOWNNAME":"東區","LI":"富強里","LIN":"31鄰","STREET":"裕農路","SECT":" ","MAREA":" ","LANE":" ","ALLEY":" ","HOUSE_NO":"３５２號五樓","E_COORD97":171026.64000000001,"N_COORD97":2543046.6400000001,"ADDRESS":"裕農路３５２號五樓","OBJECTID":521150},"geometry":{"x":171026.6400000006,"y":2543046.6400000006}},{"attributes":{"ID":521178,"DIS_CODE":0,"TOWNNAME":"東區","LI":"富強里","LIN":"31鄰","STREET":"裕農路","SECT":" ","MAREA":" ","LANE":" ","ALLEY":" ","HOUSE_NO":"３５２號五樓之１","E_COORD97":171026.64000000001,"N_COORD97":2543046.6400000001,"ADDRESS":"裕農路３５２號五樓之１","OBJECTID":521151},"geometry":{"x":171026.6400000006,"y":2543046.6400000006}},{"attributes":{"ID":521179,"DIS_CODE":0,"TOWNNAME":"東區","LI":"富強里","LIN":"31鄰","STREET":"裕農路","SECT":" ","MAREA":" ","LANE":" ","ALLEY":" ","HOUSE_NO":"３５２號五樓之２","E_COORD97":171026.64000000001,"N_COORD97":2543046.6400000001,"ADDRESS":"裕農路３５２號五樓之２","OBJECTID":521152},"geometry":{"x":171026.6400000006,"y":2543046.6400000006}},{"attributes":{"ID":521180,"DIS_CODE":0,"TOWNNAME":"東區","LI":"富強里","LIN":"31鄰","STREET":"裕農路","SECT":" ","MAREA":" ","LANE":" ","ALLEY":" ","HOUSE_NO":"３５２號五樓之３","E_COORD97":171026.64000000001,"N_COORD97":2543046.6400000001,"ADDRESS":"裕農路３５２號五樓之３","OBJECTID":521153},"geometry":{"x":171026.6400000006,"y":2543046.6400000006}},{"attributes":{"ID":521181,"DIS_CODE":0,"TOWNNAME":"東區","LI":"富強里","LIN":"31鄰","STREET":"裕農路","SECT":" ","MAREA":" ","LANE":" ","ALLEY":" ","HOUSE_NO":"３５２號六樓","E_COORD97":171026.64000000001,"N_COORD97":2543046.6400000001,"ADDRESS":"裕農路３５２號六樓","OBJECTID":521154},"geometry":{"x":171026.6400000006,"y":2543046.6400000006}},{"attributes":{"ID":521182,"DIS_CODE":0,"TOWNNAME":"歸仁區","LI":"後市里","LIN":"31鄰","STREET":"民族北街","SECT":" ","MAREA":" ","LANE":" ","ALLEY":" ","HOUSE_NO":"４７號四樓之１","E_COORD97":177417.76000000001,"N_COORD97":2540947.75,"ADDRESS":"民族北街４７號四樓之１","OBJECTID":521155},"geometry":{"x":177417.75999999885,"y":2540947.7500000037}},{"attributes":{"ID":521183,"DIS_CODE":0,"TOWNNAME":"東區","LI":"富強里","LIN":"31鄰","STREET":"裕農路","SECT":" ","MAREA":" ","LANE":" ","ALLEY":" ","HOUSE_NO":"３５２號六樓之１","E_COORD97":171026.64000000001,"N_COORD97":2543046.6400000001,"ADDRESS":"裕農路３５２號六樓之１","OBJECTID":521156},"geometry":{"x":171026.6400000006,"y":2543046.6400000006}},{"attributes":{"ID":521184,"DIS_CODE":0,"TOWNNAME":"東區","LI":"富強里","LIN":"31鄰","STREET":"裕農路","SECT":" ","MAREA":" ","LANE":" ","ALLEY":" ","HOUSE_NO":"３５２號六樓之２","E_COORD97":171026.64000000001,"N_COORD97":2543046.6400000001,"ADDRESS":"裕農路３５２號六樓之２","OBJECTID":521157},"geometry":{"x":171026.6400000006,"y":2543046.6400000006}},{"attributes":{"ID":521185,"DIS_CODE":0,"TOWNNAME":"東區","LI":"富強里","LIN":"31鄰","STREET":"裕農路","SECT":" ","MAREA":" ","LANE":" ","ALLEY":" ","HOUSE_NO":"３５２號六樓之３","E_COORD97":171026.64000000001,"N_COORD97":2543046.6400000001,"ADDRESS":"裕農路３５２號六樓之３","OBJECTID":521158},"geometry":{"x":171026.6400000006,"y":2543046.6400000006}},{"attributes":{"ID":521186,"DIS_CODE":0,"TOWNNAME":"東區","LI":"富強里","LIN":"31鄰","STREET":"裕農路","SECT":" ","MAREA":" ","LANE":" ","ALLEY":" ","HOUSE_NO":"３５２號四樓","E_COORD97":171026.64000000001,"N_COORD97":2543046.6400000001,"ADDRESS":"裕農路３５２號四樓","OBJECTID":521159},"geometry":{"x":171026.6400000006,"y":2543046.6400000006}},{"attributes":{"ID":521187,"DIS_CODE":0,"TOWNNAME":"東區","LI":"富強里","LIN":"31鄰","STREET":"裕農路","SECT":" ","MAREA":" ","LANE":" ","ALLEY":" ","HOUSE_NO":"３５２號四樓之１","E_COORD97":171026.64000000001,"N_COORD97":2543046.6400000001,"ADDRESS":"裕農路３５２號四樓之１","OBJECTID":521160},"geometry":{"x":171026.6400000006,"y":2543046.6400000006}},{"attributes":{"ID":521188,"DIS_CODE":0,"TOWNNAME":"東區","LI":"富強里","LIN":"31鄰","STREET":"裕農路","SECT":" ","MAREA":" ","LANE":" ","ALLEY":" ","HOUSE_NO":"３５２號四樓之２","E_COORD97":171026.64000000001,"N_COORD97":2543046.6400000001,"ADDRESS":"裕農路３５２號四樓之２","OBJECTID":521161},"geometry":{"x":171026.6400000006,"y":2543046.6400000006}},{"attributes":{"ID":521189,"DIS_CODE":0,"TOWNNAME":"東區","LI":"富強里","LIN":"31鄰","STREET":"裕農路","SECT":" ","MAREA":" ","LANE":" ","ALLEY":" ","HOUSE_NO":"３５２號四樓之３","E_COORD97":171026.64000000001,"N_COORD97":2543046.6400000001,"ADDRESS":"裕農路３５２號四樓之３","OBJECTID":521162},"geometry":{"x":171026.6400000006,"y":2543046.6400000006}},{"attributes":{"ID":521190,"DIS_CODE":0,"TOWNNAME":"東區","LI":"富強里","LIN":"31鄰","STREET":"裕農路","SECT":" ","MAREA":" ","LANE":" ","ALLEY":" ","HOUSE_NO":"３６２號七樓","E_COORD97":171065.62,"N_COORD97":2543059.8799999999,"ADDRESS":"裕農路３６２號七樓","OBJECTID":521163},"geometry":{"x":171065.62000000197,"y":2543059.879999999}},{"attributes":{"ID":521191,"DIS_CODE":0,"TOWNNAME":"東區","LI":"富強里","LIN":"31鄰","STREET":"裕農路","SECT":" ","MAREA":" ","LANE":" ","ALLEY":" ","HOUSE_NO":"３６２號七樓之１","E_COORD97":171065.62,"N_COORD97":2543059.8799999999,"ADDRESS":"裕農路３６２號七樓之１","OBJECTID":521164},"geometry":{"x":171065.62000000197,"y":2543059.879999999}},{"attributes":{"ID":521192,"DIS_CODE":0,"TOWNNAME":"東區","LI":"富強里","LIN":"31鄰","STREET":"裕農路","SECT":" ","MAREA":" ","LANE":" ","ALLEY":" ","HOUSE_NO":"３６２號九樓","E_COORD97":171065.62,"N_COORD97":2543059.8799999999,"ADDRESS":"裕農路３６２號九樓","OBJECTID":521165},"geometry":{"x":171065.62000000197,"y":2543059.879999999}},{"attributes":{"ID":521193,"DIS_CODE":0,"TOWNNAME":"東區","LI":"富強里","LIN":"31鄰","STREET":"裕農路","SECT":" ","MAREA":" ","LANE":" ","ALLEY":" ","HOUSE_NO":"３６２號九樓之１","E_COORD97":171065.62,"N_COORD97":2543059.8799999999,"ADDRESS":"裕農路３６２號九樓之１","OBJECTID":521166},"geometry":{"x":171065.62000000197,"y":2543059.879999999}},{"attributes":{"ID":521194,"DIS_CODE":0,"TOWNNAME":"東區","LI":"富強里","LIN":"31鄰","STREET":"裕農路","SECT":" ","MAREA":" ","LANE":" ","ALLEY":" ","HOUSE_NO":"３６２號八樓","E_COORD97":171065.62,"N_COORD97":2543059.8799999999,"ADDRESS":"裕農路３６２號八樓","OBJECTID":521167},"geometry":{"x":171065.62000000197,"y":2543059.879999999}},{"attributes":{"ID":521195,"DIS_CODE":0,"TOWNNAME":"東區","LI":"富強里","LIN":"31鄰","STREET":"裕農路","SECT":" ","MAREA":" ","LANE":" ","ALLEY":" ","HOUSE_NO":"３６２號八樓之１","E_COORD97":171065.62,"N_COORD97":2543059.8799999999,"ADDRESS":"裕農路３６２號八樓之１","OBJECTID":521168},"geometry":{"x":171065.62000000197,"y":2543059.879999999}},{"attributes":{"ID":521196,"DIS_CODE":0,"TOWNNAME":"東區","LI":"富強里","LIN":"31鄰","STREET":"裕農路","SECT":" ","MAREA":" ","LANE":" ","ALLEY":" ","HOUSE_NO":"３６２號十一樓","E_COORD97":171065.62,"N_COORD97":2543059.8799999999,"ADDRESS":"裕農路３６２號十一樓","OBJECTID":521169},"geometry":{"x":171065.62000000197,"y":2543059.879999999}},{"attributes":{"ID":521197,"DIS_CODE":0,"TOWNNAME":"東區","LI":"富強里","LIN":"31鄰","STREET":"裕農路","SECT":" ","MAREA":" ","LANE":" ","ALLEY":" ","HOUSE_NO":"３６２號十一樓之１","E_COORD97":171065.62,"N_COORD97":2543059.8799999999,"ADDRESS":"裕農路３６２號十一樓之１","OBJECTID":521170},"geometry":{"x":171065.62000000197,"y":2543059.879999999}},{"attributes":{"ID":521198,"DIS_CODE":0,"TOWNNAME":"東區","LI":"富強里","LIN":"31鄰","STREET":"裕農路","SECT":" ","MAREA":" ","LANE":" ","ALLEY":" ","HOUSE_NO":"３６２號十二樓","E_COORD97":171065.62,"N_COORD97":2543059.8799999999,"ADDRESS":"裕農路３６２號十二樓","OBJECTID":521171},"geometry":{"x":171065.62000000197,"y":2543059.879999999}},{"attributes":{"ID":521199,"DIS_CODE":0,"TOWNNAME":"東區","LI":"富強里","LIN":"31鄰","STREET":"裕農路","SECT":" ","MAREA":" ","LANE":" ","ALLEY":" ","HOUSE_NO":"３６２號十二樓之１","E_COORD97":171065.62,"N_COORD97":2543059.8799999999,"ADDRESS":"裕農路３６２號十二樓之１","OBJECTID":521172},"geometry":{"x":171065.62000000197,"y":2543059.879999999}},{"attributes":{"ID":521200,"DIS_CODE":0,"TOWNNAME":"東區","LI":"富強里","LIN":"31鄰","STREET":"裕農路","SECT":" ","MAREA":" ","LANE":" ","ALLEY":" ","HOUSE_NO":"３６２號十三樓","E_COORD97":171065.62,"N_COORD97":2543059.8799999999,"ADDRESS":"裕農路３６２號十三樓","OBJECTID":521173},"geometry":{"x":171065.62000000197,"y":2543059.879999999}},{"attributes":{"ID":521201,"DIS_CODE":0,"TOWNNAME":"東區","LI":"富強里","LIN":"31鄰","STREET":"裕農路","SECT":" ","MAREA":" ","LANE":" ","ALLEY":" ","HOUSE_NO":"３６２號十三樓之１","E_COORD97":171065.62,"N_COORD97":2543059.8799999999,"ADDRESS":"裕農路３６２號十三樓之１","OBJECTID":521174},"geometry":{"x":171065.62000000197,"y":2543059.879999999}},{"attributes":{"ID":521202,"DIS_CODE":0,"TOWNNAME":"東區","LI":"富強里","LIN":"31鄰","STREET":"裕農路","SECT":" ","MAREA":" ","LANE":" ","ALLEY":" ","HOUSE_NO":"３６２號十五樓","E_COORD97":171065.62,"N_COORD97":2543059.8799999999,"ADDRESS":"裕農路３６２號十五樓","OBJECTID":521175},"geometry":{"x":171065.62000000197,"y":2543059.879999999}},{"attributes":{"ID":521203,"DIS_CODE":0,"TOWNNAME":"東區","LI":"富強里","LIN":"31鄰","STREET":"裕農路","SECT":" ","MAREA":" ","LANE":" ","ALLEY":" ","HOUSE_NO":"３６２號十五樓之１","E_COORD97":171065.62,"N_COORD97":2543059.8799999999,"ADDRESS":"裕農路３６２號十五樓之１","OBJECTID":521176},"geometry":{"x":171065.62000000197,"y":2543059.879999999}},{"attributes":{"ID":521204,"DIS_CODE":0,"TOWNNAME":"東區","LI":"富強里","LIN":"31鄰","STREET":"裕農路","SECT":" ","MAREA":" ","LANE":" ","ALLEY":" ","HOUSE_NO":"３６２號十四樓","E_COORD97":171065.62,"N_COORD97":2543059.8799999999,"ADDRESS":"裕農路３６２號十四樓","OBJECTID":521177},"geometry":{"x":171065.62000000197,"y":2543059.879999999}},{"attributes":{"ID":521205,"DIS_CODE":0,"TOWNNAME":"東區","LI":"富強里","LIN":"31鄰","STREET":"裕農路","SECT":" ","MAREA":" ","LANE":" ","ALLEY":" ","HOUSE_NO":"３６２號十四樓之１","E_COORD97":171065.62,"N_COORD97":2543059.8799999999,"ADDRESS":"裕農路３６２號十四樓之１","OBJECTID":521178},"geometry":{"x":171065.62000000197,"y":2543059.879999999}},{"attributes":{"ID":521206,"DIS_CODE":0,"TOWNNAME":"東區","LI":"富強里","LIN":"31鄰","STREET":"裕農路","SECT":" ","MAREA":" ","LANE":" ","ALLEY":" ","HOUSE_NO":"３６２號十樓","E_COORD97":171065.62,"N_COORD97":2543059.8799999999,"ADDRESS":"裕農路３６２號十樓","OBJECTID":521179},"geometry":{"x":171065.62000000197,"y":2543059.879999999}},{"attributes":{"ID":521207,"DIS_CODE":0,"TOWNNAME":"東區","LI":"富強里","LIN":"31鄰","STREET":"裕農路","SECT":" ","MAREA":" ","LANE":" ","ALLEY":" ","HOUSE_NO":"３６２號十樓之１","E_COORD97":171065.62,"N_COORD97":2543059.8799999999,"ADDRESS":"裕農路３６２號十樓之１","OBJECTID":521180},"geometry":{"x":171065.62000000197,"y":2543059.879999999}},{"attributes":{"ID":521208,"DIS_CODE":0,"TOWNNAME":"東區","LI":"富強里","LIN":"31鄰","STREET":"裕農路","SECT":" ","MAREA":" ","LANE":" ","ALLEY":" ","HOUSE_NO":"３６２號五樓","E_COORD97":171065.62,"N_COORD97":2543059.8799999999,"ADDRESS":"裕農路３６２號五樓","OBJECTID":521181},"geometry":{"x":171065.62000000197,"y":2543059.879999999}},{"attributes":{"ID":521209,"DIS_CODE":0,"TOWNNAME":"東區","LI":"富強里","LIN":"31鄰","STREET":"裕農路","SECT":" ","MAREA":" ","LANE":" ","ALLEY":" ","HOUSE_NO":"３６２號五樓之１","E_COORD97":171065.62,"N_COORD97":2543059.8799999999,"ADDRESS":"裕農路３６２號五樓之１","OBJECTID":521182},"geometry":{"x":171065.62000000197,"y":2543059.879999999}},{"attributes":{"ID":521210,"DIS_CODE":0,"TOWNNAME":"東區","LI":"富強里","LIN":"31鄰","STREET":"裕農路","SECT":" ","MAREA":" ","LANE":" ","ALLEY":" ","HOUSE_NO":"３６２號六樓","E_COORD97":171065.62,"N_COORD97":2543059.8799999999,"ADDRESS":"裕農路３６２號六樓","OBJECTID":521183},"geometry":{"x":171065.62000000197,"y":2543059.879999999}},{"attributes":{"ID":521211,"DIS_CODE":0,"TOWNNAME":"東區","LI":"富強里","LIN":"31鄰","STREET":"裕農路","SECT":" ","MAREA":" ","LANE":" ","ALLEY":" ","HOUSE_NO":"３６２號六樓之１","E_COORD97":171065.62,"N_COORD97":2543059.8799999999,"ADDRESS":"裕農路３６２號六樓之１","OBJECTID":521184},"geometry":{"x":171065.62000000197,"y":2543059.879999999}},{"attributes":{"ID":521212,"DIS_CODE":0,"TOWNNAME":"東區","LI":"富強里","LIN":"31鄰","STREET":"裕農路","SECT":" ","MAREA":" ","LANE":" ","ALLEY":" ","HOUSE_NO":"３６２號四樓","E_COORD97":171065.62,"N_COORD97":2543059.8799999999,"ADDRESS":"裕農路３６２號四樓","OBJECTID":521185},"geometry":{"x":171065.62000000197,"y":2543059.879999999}},{"attributes":{"ID":521213,"DIS_CODE":0,"TOWNNAME":"東區","LI":"富強里","LIN":"31鄰","STREET":"裕農路","SECT":" ","MAREA":" ","LANE":" ","ALLEY":" ","HOUSE_NO":"３６２號四樓之１","E_COORD97":171065.62,"N_COORD97":2543059.8799999999,"ADDRESS":"裕農路３６２號四樓之１","OBJECTID":521186},"geometry":{"x":171065.62000000197,"y":2543059.879999999}},{"attributes":{"ID":521214,"DIS_CODE":0,"TOWNNAME":"東區","LI":"富強里","LIN":"31鄰","STREET":"裕農路","SECT":" ","MAREA":" ","LANE":" ","ALLEY":" ","HOUSE_NO":"３７０號七樓之１","E_COORD97":171080.64999999999,"N_COORD97":2543068.4100000001,"ADDRESS":"裕農路３７０號七樓之１","OBJECTID":521187},"geometry":{"x":171080.65000000037,"y":2543068.4100000001}},{"attributes":{"ID":521215,"DIS_CODE":0,"TOWNNAME":"東區","LI":"富強里","LIN":"31鄰","STREET":"裕農路","SECT":" ","MAREA":" ","LANE":" ","ALLEY":" ","HOUSE_NO":"３７０號九樓","E_COORD97":171080.64999999999,"N_COORD97":2543068.4100000001,"ADDRESS":"裕農路３７０號九樓","OBJECTID":521188},"geometry":{"x":171080.65000000037,"y":2543068.4100000001}},{"attributes":{"ID":521216,"DIS_CODE":0,"TOWNNAME":"仁德區","LI":"新田里","LIN":"10鄰","STREET":"北保一街","SECT":" ","MAREA":" ","LANE":" ","ALLEY":" ","HOUSE_NO":"２８號","E_COORD97":173243.57000000001,"N_COORD97":2539459.2400000002,"ADDRESS":"北保一街２８號","OBJECTID":521189},"geometry":{"x":173243.57000000123,"y":2539459.2399999984}},{"attributes":{"ID":521217,"DIS_CODE":0,"TOWNNAME":"楠西區","LI":"楠西里","LIN":" ","STREET":"茄拔路","SECT":" ","MAREA":" ","LANE":" ","ALLEY":" ","HOUSE_NO":"１２５號","E_COORD97":197248.84,"N_COORD97":2563807.2799999998,"ADDRESS":"茄拔路１２５號","OBJECTID":521190},"geometry":{"x":197248.83999999985,"y":2563807.2799999993}},{"attributes":{"ID":521218,"DIS_CODE":0,"TOWNNAME":"楠西區","LI":"楠西里","LIN":" ","STREET":"中正路","SECT":" ","MAREA":" ","LANE":" ","ALLEY":" ","HOUSE_NO":"９５號","E_COORD97":197257.91,"N_COORD97":2564004.25,"ADDRESS":"中正路９５號","OBJECTID":521191},"geometry":{"x":197257.91000000108,"y":2564004.25}},{"attributes":{"ID":521219,"DIS_CODE":0,"TOWNNAME":"東區","LI":"富強里","LIN":"31鄰","STREET":"裕農路","SECT":" ","MAREA":" ","LANE":" ","ALLEY":" ","HOUSE_NO":"３７０號九樓之１","E_COORD97":171080.64999999999,"N_COORD97":2543068.4100000001,"ADDRESS":"裕農路３７０號九樓之１","OBJECTID":521192},"geometry":{"x":171080.65000000037,"y":2543068.4100000001}},{"attributes":{"ID":521220,"DIS_CODE":0,"TOWNNAME":"東區","LI":"富強里","LIN":"31鄰","STREET":"裕農路","SECT":" ","MAREA":" ","LANE":" ","ALLEY":" ","HOUSE_NO":"３７０號八樓","E_COORD97":171080.64999999999,"N_COORD97":2543068.4100000001,"ADDRESS":"裕農路３７０號八樓","OBJECTID":521193},"geometry":{"x":171080.65000000037,"y":2543068.4100000001}},{"attributes":{"ID":521221,"DIS_CODE":0,"TOWNNAME":"東區","LI":"富強里","LIN":"31鄰","STREET":"裕農路","SECT":" ","MAREA":" ","LANE":" ","ALLEY":" ","HOUSE_NO":"３７０號八樓之１","E_COORD97":171080.64999999999,"N_COORD97":2543068.4100000001,"ADDRESS":"裕農路３７０號八樓之１","OBJECTID":521194},"geometry":{"x":171080.65000000037,"y":2543068.4100000001}},{"attributes":{"ID":521222,"DIS_CODE":0,"TOWNNAME":"東區","LI":"富強里","LIN":"31鄰","STREET":"裕農路","SECT":" ","MAREA":" ","LANE":" ","ALLEY":" ","HOUSE_NO":"３７０號十一樓","E_COORD97":171080.64999999999,"N_COORD97":2543068.4100000001,"ADDRESS":"裕農路３７０號十一樓","OBJECTID":521195},"geometry":{"x":171080.65000000037,"y":2543068.4100000001}},{"attributes":{"ID":521223,"DIS_CODE":0,"TOWNNAME":"東區","LI":"富強里","LIN":"31鄰","STREET":"裕農路","SECT":" ","MAREA":" ","LANE":" ","ALLEY":" ","HOUSE_NO":"３７０號十一樓之１","E_COORD97":171080.64999999999,"N_COORD97":2543068.4100000001,"ADDRESS":"裕農路３７０號十一樓之１","OBJECTID":521196},"geometry":{"x":171080.65000000037,"y":2543068.4100000001}},{"attributes":{"ID":521224,"DIS_CODE":0,"TOWNNAME":"東區","LI":"富強里","LIN":"31鄰","STREET":"裕農路","SECT":" ","MAREA":" ","LANE":" ","ALLEY":" ","HOUSE_NO":"３７０號十二樓","E_COORD97":171080.64999999999,"N_COORD97":2543068.4100000001,"ADDRESS":"裕農路３７０號十二樓","OBJECTID":521197},"geometry":{"x":171080.65000000037,"y":2543068.4100000001}},{"attributes":{"ID":521225,"DIS_CODE":0,"TOWNNAME":"東區","LI":"富強里","LIN":"31鄰","STREET":"裕農路","SECT":" ","MAREA":" ","LANE":" ","ALLEY":" ","HOUSE_NO":"３７０號十二樓之１","E_COORD97":171080.64999999999,"N_COORD97":2543068.4100000001,"ADDRESS":"裕農路３７０號十二樓之１","OBJECTID":521198},"geometry":{"x":171080.65000000037,"y":2543068.4100000001}},{"attributes":{"ID":521226,"DIS_CODE":0,"TOWNNAME":"東區","LI":"富強里","LIN":"31鄰","STREET":"裕農路","SECT":" ","MAREA":" ","LANE":" ","ALLEY":" ","HOUSE_NO":"３７０號十三樓","E_COORD97":171080.64999999999,"N_COORD97":2543068.4100000001,"ADDRESS":"裕農路３７０號十三樓","OBJECTID":521199},"geometry":{"x":171080.65000000037,"y":2543068.4100000001}},{"attributes":{"ID":521227,"DIS_CODE":0,"TOWNNAME":"東區","LI":"富強里","LIN":"31鄰","STREET":"裕農路","SECT":" ","MAREA":" ","LANE":" ","ALLEY":" ","HOUSE_NO":"３７０號十三樓之１","E_COORD97":171080.64999999999,"N_COORD97":2543068.4100000001,"ADDRESS":"裕農路３７０號十三樓之１","OBJECTID":521200},"geometry":{"x":171080.65000000037,"y":2543068.4100000001}}]}