{"displayFieldName":"TOWNNAME","fieldAliases":{"ID":"ID","DIS_CODE":"DIS_CODE","TOWNNAME":"TOWNNAME","LI":"LI","LIN":"LIN","STREET":"STREET","SECT":"SECT","MAREA":"MAREA","LANE":"LANE","ALLEY":"ALLEY","HOUSE_NO":"HOUSE_NO","E_COORD97":"E_COORD97","N_COORD97":"N_COORD97","ADDRESS":"ADDRESS","OBJECTID":"OBJECTID"},"geometryType":"esriGeometryPoint","spatialReference":{"wkid":102443,"latestWkid":3826},"fields":[{"name":"ID","type":"esriFieldTypeDouble","alias":"ID"},{"name":"DIS_CODE","type":"esriFieldTypeInteger","alias":"DIS_CODE"},{"name":"TOWNNAME","type":"esriFieldTypeString","alias":"TOWNNAME","length":8},{"name":"LI","type":"esriFieldTypeString","alias":"LI","length":8},{"name":"LIN","type":"esriFieldTypeString","alias":"LIN","length":12},{"name":"STREET","type":"esriFieldTypeString","alias":"STREET","length":20},{"name":"SECT","type":"esriFieldTypeString","alias":"SECT","length":8},{"name":"MAREA","type":"esriFieldTypeString","alias":"MAREA","length":12},{"name":"LANE","type":"esriFieldTypeString","alias":"LANE","length":10},{"name":"ALLEY","type":"esriFieldTypeString","alias":"ALLEY","length":10},{"name":"HOUSE_NO","type":"esriFieldTypeString","alias":"HOUSE_NO","length":20},{"name":"E_COORD97","type":"esriFieldTypeDouble","alias":"E_COORD97"},{"name":"N_COORD97","type":"esriFieldTypeDouble","alias":"N_COORD97"},{"name":"ADDRESS","type":"esriFieldTypeString","alias":"ADDRESS","length":50},{"name":"OBJECTID","type":"esriFieldTypeOID","alias":"OBJECTID"}],"features":[{"attributes":{"ID":567228,"DIS_CODE":0,"TOWNNAME":"歸仁區","LI":"六甲里","LIN":"37鄰","STREET":"六甲八街","SECT":" ","MAREA":" ","LANE":" ","ALLEY":" ","HOUSE_NO":"２２６號","E_COORD97":175315.42000000001,"N_COORD97":2539769.25,"ADDRESS":"六甲八街２２６號","OBJECTID":567201},"geometry":{"x":175315.42000000086,"y":2539769.2500000019}},{"attributes":{"ID":567229,"DIS_CODE":0,"TOWNNAME":"歸仁區","LI":"六甲里","LIN":"37鄰","STREET":"六甲八街","SECT":" ","MAREA":" ","LANE":" ","ALLEY":" ","HOUSE_NO":"２２８號","E_COORD97":175314.51999999999,"N_COORD97":2539777.25,"ADDRESS":"六甲八街２２８號","OBJECTID":567202},"geometry":{"x":175314.52000000048,"y":2539777.25}},{"attributes":{"ID":567230,"DIS_CODE":0,"TOWNNAME":"歸仁區","LI":"六甲里","LIN":"37鄰","STREET":"六甲八街","SECT":" ","MAREA":" ","LANE":" ","ALLEY":" ","HOUSE_NO":"２３６號","E_COORD97":175307.42000000001,"N_COORD97":2539794.25,"ADDRESS":"六甲八街２３６號","OBJECTID":567203},"geometry":{"x":175307.41999999993,"y":2539794.25}},{"attributes":{"ID":567231,"DIS_CODE":0,"TOWNNAME":"歸仁區","LI":"南興里","LIN":"37鄰","STREET":"文化街","SECT":"三段","MAREA":" ","LANE":" ","ALLEY":" ","HOUSE_NO":"３６１號","E_COORD97":175986.14000000001,"N_COORD97":2541194.3300000001,"ADDRESS":"文化街三段３６１號","OBJECTID":567204},"geometry":{"x":175986.14000000153,"y":2541194.3299999982}},{"attributes":{"ID":567232,"DIS_CODE":0,"TOWNNAME":"歸仁區","LI":"六甲里","LIN":"37鄰","STREET":"六甲八街","SECT":" ","MAREA":" ","LANE":" ","ALLEY":" ","HOUSE_NO":"１６０號","E_COORD97":175351.51999999999,"N_COORD97":2539589.25,"ADDRESS":"六甲八街１６０號","OBJECTID":567205},"geometry":{"x":175351.52000000048,"y":2539589.2500000019}},{"attributes":{"ID":567233,"DIS_CODE":0,"TOWNNAME":"歸仁區","LI":"南興里","LIN":"37鄰","STREET":"文化街","SECT":"三段","MAREA":" ","LANE":" ","ALLEY":" ","HOUSE_NO":"２９７號","E_COORD97":176193.23999999999,"N_COORD97":2541183.3300000001,"ADDRESS":"文化街三段２９７號","OBJECTID":567206},"geometry":{"x":176193.24000000115,"y":2541183.3300000001}},{"attributes":{"ID":567234,"DIS_CODE":0,"TOWNNAME":"歸仁區","LI":"六甲里","LIN":"37鄰","STREET":"六甲八街","SECT":" ","MAREA":" ","LANE":" ","ALLEY":" ","HOUSE_NO":"２１６號","E_COORD97":175309.65932999999,"N_COORD97":2539750.2161500002,"ADDRESS":"六甲八街２１６號","OBJECTID":567207},"geometry":{"x":175309.65933000017,"y":2539750.2161540017}},{"attributes":{"ID":567235,"DIS_CODE":0,"TOWNNAME":"歸仁區","LI":"南興里","LIN":"37鄰","STREET":"文化街","SECT":"三段","MAREA":" ","LANE":" ","ALLEY":" ","HOUSE_NO":"２８１號","E_COORD97":176233.23999999999,"N_COORD97":2541184.3300000001,"ADDRESS":"文化街三段２８１號","OBJECTID":567208},"geometry":{"x":176233.24000000022,"y":2541184.3300000038}},{"attributes":{"ID":567236,"DIS_CODE":0,"TOWNNAME":"歸仁區","LI":"六甲里","LIN":"37鄰","STREET":"六甲八街","SECT":" ","MAREA":" ","LANE":" ","ALLEY":" ","HOUSE_NO":"２５６號","E_COORD97":175316.01999999999,"N_COORD97":2539875.25,"ADDRESS":"六甲八街２５６號","OBJECTID":567209},"geometry":{"x":175316.02000000048,"y":2539875.25}},{"attributes":{"ID":567237,"DIS_CODE":0,"TOWNNAME":"歸仁區","LI":"南保里","LIN":"37鄰","STREET":"中山路","SECT":"三段","MAREA":" ","LANE":" ","ALLEY":" ","HOUSE_NO":"１２８號","E_COORD97":176685.16,"N_COORD97":2540915.0800000001,"ADDRESS":"中山路三段１２８號","OBJECTID":567210},"geometry":{"x":176685.16000000108,"y":2540915.0800000019}},{"attributes":{"ID":567238,"DIS_CODE":0,"TOWNNAME":"歸仁區","LI":"南興里","LIN":"37鄰","STREET":"民生北街","SECT":" ","MAREA":" ","LANE":" ","ALLEY":" ","HOUSE_NO":"７９號","E_COORD97":176268.59,"N_COORD97":2541168.29,"ADDRESS":"民生北街７９號","OBJECTID":567211},"geometry":{"x":176268.59000000078,"y":2541168.290000001}},{"attributes":{"ID":567239,"DIS_CODE":0,"TOWNNAME":"玉井區","LI":"玉田里","LIN":"37鄰","STREET":"民族路","SECT":" ","MAREA":" ","LANE":" ","ALLEY":" ","HOUSE_NO":"９０號","E_COORD97":195286.73999999999,"N_COORD97":2557922.29,"ADDRESS":"民族路９０號","OBJECTID":567212},"geometry":{"x":195286.74000000022,"y":2557922.290000001}},{"attributes":{"ID":567240,"DIS_CODE":0,"TOWNNAME":"玉井區","LI":"玉田里","LIN":"37鄰","STREET":"民族路","SECT":" ","MAREA":" ","LANE":" ","ALLEY":" ","HOUSE_NO":"９２號","E_COORD97":195184.84,"N_COORD97":2558064.2799999998,"ADDRESS":"民族路９２號","OBJECTID":567213},"geometry":{"x":195184.84000000078,"y":2558064.2799999993}},{"attributes":{"ID":567241,"DIS_CODE":0,"TOWNNAME":"玉井區","LI":"玉田里","LIN":"37鄰","STREET":"民生路","SECT":" ","MAREA":" ","LANE":" ","ALLEY":" ","HOUSE_NO":"３５７號","E_COORD97":195150.38,"N_COORD97":2558045.29,"ADDRESS":"民生路３５７號","OBJECTID":567214},"geometry":{"x":195150.37999999989,"y":2558045.290000001}},{"attributes":{"ID":567242,"DIS_CODE":0,"TOWNNAME":"玉井區","LI":"玉田里","LIN":"37鄰","STREET":"民生路","SECT":" ","MAREA":" ","LANE":" ","ALLEY":" ","HOUSE_NO":"３３７號","E_COORD97":195152.67999999999,"N_COORD97":2558057.2799999998,"ADDRESS":"民生路３３７號","OBJECTID":567215},"geometry":{"x":195152.6799999997,"y":2558057.2799999993}},{"attributes":{"ID":567243,"DIS_CODE":0,"TOWNNAME":"玉井區","LI":"玉田里","LIN":"37鄰","STREET":"民生路","SECT":" ","MAREA":" ","LANE":" ","ALLEY":" ","HOUSE_NO":"３１９號","E_COORD97":195287.67999999999,"N_COORD97":2557889.2799999998,"ADDRESS":"民生路３１９號","OBJECTID":567216},"geometry":{"x":195287.68000000063,"y":2557889.2800000012}},{"attributes":{"ID":567244,"DIS_CODE":0,"TOWNNAME":"玉井區","LI":"玉田里","LIN":"37鄰","STREET":"民生路","SECT":" ","MAREA":" ","LANE":" ","ALLEY":" ","HOUSE_NO":"３２５號","E_COORD97":195160.48999999999,"N_COORD97":2558094.2799999998,"ADDRESS":"民生路３２５號","OBJECTID":567217},"geometry":{"x":195160.49000000115,"y":2558094.2799999993}},{"attributes":{"ID":567245,"DIS_CODE":0,"TOWNNAME":"玉井區","LI":"玉田里","LIN":"37鄰","STREET":"民生路","SECT":" ","MAREA":" ","LANE":" ","ALLEY":" ","HOUSE_NO":"３２１號","E_COORD97":195286.38,"N_COORD97":2557879.2799999998,"ADDRESS":"民生路３２１號","OBJECTID":567218},"geometry":{"x":195286.38000000082,"y":2557879.2800000012}},{"attributes":{"ID":567246,"DIS_CODE":0,"TOWNNAME":"玉井區","LI":"玉田里","LIN":"37鄰","STREET":"民生路","SECT":" ","MAREA":" ","LANE":" ","ALLEY":" ","HOUSE_NO":"３３１號","E_COORD97":195155.59,"N_COORD97":2558068.2799999998,"ADDRESS":"民生路３３１號","OBJECTID":567219},"geometry":{"x":195155.58999999985,"y":2558068.2800000012}},{"attributes":{"ID":567247,"DIS_CODE":0,"TOWNNAME":"玉井區","LI":"玉田里","LIN":"37鄰","STREET":"民生路","SECT":" ","MAREA":" ","LANE":" ","ALLEY":" ","HOUSE_NO":"３２３號","E_COORD97":195179.88,"N_COORD97":2558095.2799999998,"ADDRESS":"民生路３２３號","OBJECTID":567220},"geometry":{"x":195179.88000000082,"y":2558095.2800000031}},{"attributes":{"ID":567248,"DIS_CODE":0,"TOWNNAME":"玉井區","LI":"玉田里","LIN":"37鄰","STREET":"民生路","SECT":" ","MAREA":" ","LANE":" ","ALLEY":" ","HOUSE_NO":"３２９號","E_COORD97":195156.07999999999,"N_COORD97":2558071.2799999998,"ADDRESS":"民生路３２９號","OBJECTID":567221},"geometry":{"x":195156.07999999914,"y":2558071.2800000031}},{"attributes":{"ID":567249,"DIS_CODE":0,"TOWNNAME":"玉井區","LI":"玉田里","LIN":"37鄰","STREET":"民生路","SECT":" ","MAREA":" ","LANE":" ","ALLEY":" ","HOUSE_NO":"３１７號","E_COORD97":195288.57999999999,"N_COORD97":2557901.2799999998,"ADDRESS":"民生路３１７號","OBJECTID":567222},"geometry":{"x":195288.58000000101,"y":2557901.2799999993}},{"attributes":{"ID":567250,"DIS_CODE":0,"TOWNNAME":"玉井區","LI":"玉田里","LIN":"37鄰","STREET":"民生路","SECT":" ","MAREA":" ","LANE":" ","ALLEY":" ","HOUSE_NO":"３５５號","E_COORD97":195151.59,"N_COORD97":2558050.29,"ADDRESS":"民生路３５５號","OBJECTID":567223},"geometry":{"x":195151.59000000078,"y":2558050.2899999991}},{"attributes":{"ID":567251,"DIS_CODE":0,"TOWNNAME":"玉井區","LI":"玉田里","LIN":"37鄰","STREET":"民生路","SECT":" ","MAREA":" ","LANE":" ","ALLEY":" ","HOUSE_NO":"３２７號","E_COORD97":195156.57999999999,"N_COORD97":2558074.2799999998,"ADDRESS":"民生路３２７號","OBJECTID":567224},"geometry":{"x":195156.58000000101,"y":2558074.2799999993}},{"attributes":{"ID":567252,"DIS_CODE":0,"TOWNNAME":"新營區","LI":"民榮里","LIN":"37鄰","STREET":"太子路","SECT":" ","MAREA":" ","LANE":" ","ALLEY":" ","HOUSE_NO":"３２號之６","E_COORD97":178259.34,"N_COORD97":2578174.6699999999,"ADDRESS":"太子路３２號之６","OBJECTID":567225},"geometry":{"x":178259.33999999985,"y":2578174.6700000018}},{"attributes":{"ID":567253,"DIS_CODE":0,"TOWNNAME":"歸仁區","LI":"南興里","LIN":"37鄰","STREET":"文化街","SECT":"三段","MAREA":" ","LANE":" ","ALLEY":" ","HOUSE_NO":"３０７號","E_COORD97":176150.14000000001,"N_COORD97":2541171.3300000001,"ADDRESS":"文化街三段３０７號","OBJECTID":567226},"geometry":{"x":176150.13999999966,"y":2541171.3300000019}},{"attributes":{"ID":567254,"DIS_CODE":0,"TOWNNAME":"歸仁區","LI":"南興里","LIN":"37鄰","STREET":"文化街","SECT":"三段","MAREA":" ","LANE":" ","ALLEY":" ","HOUSE_NO":"３７１號","E_COORD97":175975.94,"N_COORD97":2541195.3300000001,"ADDRESS":"文化街三段３７１號","OBJECTID":567227},"geometry":{"x":175975.94000000041,"y":2541195.3300000019}},{"attributes":{"ID":567255,"DIS_CODE":0,"TOWNNAME":"歸仁區","LI":"南興里","LIN":"37鄰","STREET":"文化街","SECT":"三段","MAREA":" ","LANE":" ","ALLEY":" ","HOUSE_NO":"３５７號","E_COORD97":175995.44,"N_COORD97":2541193.3300000001,"ADDRESS":"文化街三段３５７號","OBJECTID":567228},"geometry":{"x":175995.44000000134,"y":2541193.3300000001}},{"attributes":{"ID":567256,"DIS_CODE":0,"TOWNNAME":"永康區","LI":"龍潭里","LIN":"39鄰","STREET":"永明街","SECT":" ","MAREA":" ","LANE":" ","ALLEY":" ","HOUSE_NO":"２６７之１號","E_COORD97":174628.13,"N_COORD97":2547287.79,"ADDRESS":"永明街２６７之１號","OBJECTID":567229},"geometry":{"x":174628.12999999989,"y":2547287.790000001}},{"attributes":{"ID":567257,"DIS_CODE":0,"TOWNNAME":"中西區","LI":"永福里","LIN":"7鄰","STREET":"中正路","SECT":" ","MAREA":" ","LANE":" ","ALLEY":" ","HOUSE_NO":"７５號","E_COORD97":168121.64000000001,"N_COORD97":2543627.6200000001,"ADDRESS":"中正路７５號","OBJECTID":567230},"geometry":{"x":168121.63999999966,"y":2543627.6199999992}},{"attributes":{"ID":567258,"DIS_CODE":0,"TOWNNAME":"歸仁區","LI":"南興里","LIN":"37鄰","STREET":"文化街","SECT":"三段","MAREA":" ","LANE":" ","ALLEY":" ","HOUSE_NO":"３８５號","E_COORD97":175938.94,"N_COORD97":2541189.3300000001,"ADDRESS":"文化街三段３８５號","OBJECTID":567231},"geometry":{"x":175938.94000000041,"y":2541189.3300000019}},{"attributes":{"ID":567259,"DIS_CODE":0,"TOWNNAME":"歸仁區","LI":"六甲里","LIN":"37鄰","STREET":"六甲八街","SECT":" ","MAREA":" ","LANE":" ","ALLEY":" ","HOUSE_NO":"１２８號","E_COORD97":175382.92000000001,"N_COORD97":2539511.25,"ADDRESS":"六甲八街１２８號","OBJECTID":567232},"geometry":{"x":175382.92000000086,"y":2539511.2500000019}},{"attributes":{"ID":567260,"DIS_CODE":0,"TOWNNAME":"歸仁區","LI":"南興里","LIN":"37鄰","STREET":"文化街","SECT":"三段","MAREA":" ","LANE":" ","ALLEY":" ","HOUSE_NO":"３２７號","E_COORD97":176069.14000000001,"N_COORD97":2541182.3300000001,"ADDRESS":"文化街三段３２７號","OBJECTID":567233},"geometry":{"x":176069.14000000153,"y":2541182.3300000019}},{"attributes":{"ID":567261,"DIS_CODE":0,"TOWNNAME":"歸仁區","LI":"南興里","LIN":"37鄰","STREET":"文化街","SECT":"三段","MAREA":" ","LANE":" ","ALLEY":" ","HOUSE_NO":"３３９號","E_COORD97":176051.73999999999,"N_COORD97":2541187.3300000001,"ADDRESS":"文化街三段３３９號","OBJECTID":567234},"geometry":{"x":176051.74000000022,"y":2541187.3300000001}},{"attributes":{"ID":567262,"DIS_CODE":0,"TOWNNAME":"歸仁區","LI":"六甲里","LIN":"37鄰","STREET":"六甲八街","SECT":" ","MAREA":" ","LANE":" ","ALLEY":" ","HOUSE_NO":"１５６號","E_COORD97":175349.42000000001,"N_COORD97":2539575.25,"ADDRESS":"六甲八街１５６號","OBJECTID":567235},"geometry":{"x":175349.42000000086,"y":2539575.2500000019}},{"attributes":{"ID":567263,"DIS_CODE":0,"TOWNNAME":"歸仁區","LI":"南興里","LIN":"37鄰","STREET":"文化街","SECT":"三段","MAREA":" ","LANE":" ","ALLEY":" ","HOUSE_NO":"３０３號","E_COORD97":176173.84,"N_COORD97":2541187.3300000001,"ADDRESS":"文化街三段３０３號","OBJECTID":567236},"geometry":{"x":176173.84000000078,"y":2541187.3300000001}},{"attributes":{"ID":567264,"DIS_CODE":0,"TOWNNAME":"北區","LI":"成德里","LIN":"37鄰","STREET":"育德二路","SECT":" ","MAREA":" ","LANE":" ","ALLEY":" ","HOUSE_NO":"４７７號","E_COORD97":168177.97,"N_COORD97":2546532.3300000001,"ADDRESS":"育德二路４７７號","OBJECTID":567237},"geometry":{"x":168177.97000000067,"y":2546532.3300000019}},{"attributes":{"ID":567265,"DIS_CODE":0,"TOWNNAME":"北區","LI":"成德里","LIN":"37鄰","STREET":"育德二路","SECT":" ","MAREA":" ","LANE":" ","ALLEY":" ","HOUSE_NO":"４７９號","E_COORD97":168177.34,"N_COORD97":2546537.1000000001,"ADDRESS":"育德二路４７９號","OBJECTID":567238},"geometry":{"x":168177.34000000078,"y":2546537.1000000015}},{"attributes":{"ID":567266,"DIS_CODE":0,"TOWNNAME":"北區","LI":"成德里","LIN":"37鄰","STREET":"育德三街","SECT":" ","MAREA":" ","LANE":" ","ALLEY":" ","HOUSE_NO":"２２９號","E_COORD97":168122.17000000001,"N_COORD97":2546485.6800000002,"ADDRESS":"育德三街２２９號","OBJECTID":567239},"geometry":{"x":168122.17000000179,"y":2546485.6800000016}},{"attributes":{"ID":567267,"DIS_CODE":0,"TOWNNAME":"北區","LI":"成德里","LIN":"37鄰","STREET":"育德三街","SECT":" ","MAREA":" ","LANE":" ","ALLEY":" ","HOUSE_NO":"２３１號","E_COORD97":168121.37,"N_COORD97":2546491.0800000001,"ADDRESS":"育德三街２３１號","OBJECTID":567240},"geometry":{"x":168121.37000000104,"y":2546491.0800000001}},{"attributes":{"ID":567268,"DIS_CODE":0,"TOWNNAME":"北區","LI":"成德里","LIN":"37鄰","STREET":"育德三街","SECT":" ","MAREA":" ","LANE":" ","ALLEY":" ","HOUSE_NO":"２３３號","E_COORD97":168120.89999999999,"N_COORD97":2546495.2000000002,"ADDRESS":"育德三街２３３號","OBJECTID":567241},"geometry":{"x":168120.90000000037,"y":2546495.2000000011}},{"attributes":{"ID":567269,"DIS_CODE":0,"TOWNNAME":"北區","LI":"成德里","LIN":"37鄰","STREET":"育德三街","SECT":" ","MAREA":" ","LANE":" ","ALLEY":" ","HOUSE_NO":"２３５號","E_COORD97":168120.57999999999,"N_COORD97":2546499.4900000002,"ADDRESS":"育德三街２３５號","OBJECTID":567242},"geometry":{"x":168120.58000000007,"y":2546499.4900000039}},{"attributes":{"ID":567270,"DIS_CODE":0,"TOWNNAME":"北區","LI":"成德里","LIN":"37鄰","STREET":"育德三街","SECT":" ","MAREA":" ","LANE":" ","ALLEY":" ","HOUSE_NO":"２３７號","E_COORD97":168120.10000000001,"N_COORD97":2546503.46,"ADDRESS":"育德三街２３７號","OBJECTID":567243},"geometry":{"x":168120.09999999963,"y":2546503.4600000009}},{"attributes":{"ID":567271,"DIS_CODE":0,"TOWNNAME":"北區","LI":"成德里","LIN":"37鄰","STREET":"育德三街","SECT":" ","MAREA":" ","LANE":" ","ALLEY":" ","HOUSE_NO":"２３９號","E_COORD97":168119.63,"N_COORD97":2546507.5899999999,"ADDRESS":"育德三街２３９號","OBJECTID":567244},"geometry":{"x":168119.63000000082,"y":2546507.5899999999}},{"attributes":{"ID":567272,"DIS_CODE":0,"TOWNNAME":"北區","LI":"成德里","LIN":"37鄰","STREET":"育德三街","SECT":" ","MAREA":" ","LANE":" ","ALLEY":" ","HOUSE_NO":"２４１號","E_COORD97":168119.14999999999,"N_COORD97":2546512.0299999998,"ADDRESS":"育德三街２４１號","OBJECTID":567245},"geometry":{"x":168119.15000000037,"y":2546512.0300000031}},{"attributes":{"ID":567273,"DIS_CODE":0,"TOWNNAME":"北區","LI":"成德里","LIN":"37鄰","STREET":"育德三街","SECT":" ","MAREA":" ","LANE":" ","ALLEY":" ","HOUSE_NO":"２４３號","E_COORD97":168118.82999999999,"N_COORD97":2546515.8399999999,"ADDRESS":"育德三街２４３號","OBJECTID":567246},"geometry":{"x":168118.83000000007,"y":2546515.8399999999}},{"attributes":{"ID":567274,"DIS_CODE":0,"TOWNNAME":"北區","LI":"成德里","LIN":"37鄰","STREET":"育德三街","SECT":" ","MAREA":" ","LANE":" ","ALLEY":" ","HOUSE_NO":"２４５號","E_COORD97":168118.20000000001,"N_COORD97":2546520.0499999998,"ADDRESS":"育德三街２４５號","OBJECTID":567247},"geometry":{"x":168118.20000000019,"y":2546520.0500000045}},{"attributes":{"ID":567275,"DIS_CODE":0,"TOWNNAME":"北區","LI":"成德里","LIN":"37鄰","STREET":"育德三街","SECT":" ","MAREA":" ","LANE":" ","ALLEY":" ","HOUSE_NO":"２４７號","E_COORD97":168117.88,"N_COORD97":2546524.4900000002,"ADDRESS":"育德三街２４７號","OBJECTID":567248},"geometry":{"x":168117.88000000082,"y":2546524.4900000021}},{"attributes":{"ID":567276,"DIS_CODE":0,"TOWNNAME":"北區","LI":"成德里","LIN":"37鄰","STREET":"育德三街","SECT":" ","MAREA":" ","LANE":" ","ALLEY":" ","HOUSE_NO":"２４９號","E_COORD97":168117.25,"N_COORD97":2546528.6200000001,"ADDRESS":"育德三街２４９號","OBJECTID":567249},"geometry":{"x":168117.25000000093,"y":2546528.620000001}},{"attributes":{"ID":567277,"DIS_CODE":0,"TOWNNAME":"北區","LI":"成德里","LIN":"37鄰","STREET":"育德三街","SECT":" ","MAREA":" ","LANE":" ","ALLEY":" ","HOUSE_NO":"２５１號","E_COORD97":168116.76999999999,"N_COORD97":2546532.75,"ADDRESS":"育德三街２５１號","OBJECTID":567250},"geometry":{"x":168116.77000000048,"y":2546532.7500000019}},{"attributes":{"ID":567278,"DIS_CODE":0,"TOWNNAME":"北區","LI":"成德里","LIN":"37鄰","STREET":"育德三街","SECT":" ","MAREA":" ","LANE":" ","ALLEY":" ","HOUSE_NO":"２５３號","E_COORD97":168116.29000000001,"N_COORD97":2546537.0299999998,"ADDRESS":"育德三街２５３號","OBJECTID":567251},"geometry":{"x":168116.29000000004,"y":2546537.0300000012}},{"attributes":{"ID":567279,"DIS_CODE":0,"TOWNNAME":"北區","LI":"成德里","LIN":"37鄰","STREET":"育德三街","SECT":" ","MAREA":" ","LANE":" ","ALLEY":" ","HOUSE_NO":"２５５號","E_COORD97":168115.98000000001,"N_COORD97":2546541.3199999998,"ADDRESS":"育德三街２５５號","OBJECTID":567252},"geometry":{"x":168115.98000000138,"y":2546541.320000004}},{"attributes":{"ID":567280,"DIS_CODE":0,"TOWNNAME":"北區","LI":"成德里","LIN":"37鄰","STREET":"育德三街","SECT":" ","MAREA":" ","LANE":" ","ALLEY":" ","HOUSE_NO":"２５７號","E_COORD97":168117.25,"N_COORD97":2546554.0600000001,"ADDRESS":"育德三街２５７號","OBJECTID":567253},"geometry":{"x":168117.25000000093,"y":2546554.0600000024}},{"attributes":{"ID":567281,"DIS_CODE":0,"TOWNNAME":"北區","LI":"成德里","LIN":"37鄰","STREET":"育德三街","SECT":" ","MAREA":" ","LANE":" ","ALLEY":" ","HOUSE_NO":"２７３號","E_COORD97":168075.97,"N_COORD97":2546549.6899999999,"ADDRESS":"育德三街２７３號","OBJECTID":567254},"geometry":{"x":168075.9700000016,"y":2546549.6900000013}},{"attributes":{"ID":567282,"DIS_CODE":0,"TOWNNAME":"北區","LI":"成德里","LIN":"37鄰","STREET":"育德三街","SECT":" ","MAREA":" ","LANE":" ","ALLEY":" ","HOUSE_NO":"２６５號","E_COORD97":168097.56,"N_COORD97":2546552.0800000001,"ADDRESS":"育德三街２６５號","OBJECTID":567255},"geometry":{"x":168097.56000000052,"y":2546552.0800000001}},{"attributes":{"ID":567283,"DIS_CODE":0,"TOWNNAME":"北區","LI":"成德里","LIN":"37鄰","STREET":"育德三街","SECT":" ","MAREA":" ","LANE":" ","ALLEY":" ","HOUSE_NO":"２６１號","E_COORD97":168108.67000000001,"N_COORD97":2546553.0299999998,"ADDRESS":"育德三街２６１號","OBJECTID":567256},"geometry":{"x":168108.67000000179,"y":2546553.0300000012}},{"attributes":{"ID":567284,"DIS_CODE":0,"TOWNNAME":"北區","LI":"成德里","LIN":"37鄰","STREET":"育德三街","SECT":" ","MAREA":" ","LANE":" ","ALLEY":" ","HOUSE_NO":"２６９號","E_COORD97":168087.23999999999,"N_COORD97":2546550.8100000001,"ADDRESS":"育德三街２６９號","OBJECTID":567257},"geometry":{"x":168087.24000000115,"y":2546550.8100000005}},{"attributes":{"ID":567285,"DIS_CODE":0,"TOWNNAME":"北區","LI":"成德里","LIN":"37鄰","STREET":"育德三街","SECT":" ","MAREA":" ","LANE":" ","ALLEY":" ","HOUSE_NO":"２５９號","E_COORD97":168113.28,"N_COORD97":2546553.6600000001,"ADDRESS":"育德三街２５９號","OBJECTID":567258},"geometry":{"x":168113.27999999933,"y":2546553.660000002}},{"attributes":{"ID":567286,"DIS_CODE":0,"TOWNNAME":"永康區","LI":"\u25A0行里","LIN":"30鄰","STREET":"中正北路","SECT":" ","MAREA":" ","LANE":" ","ALLEY":" ","HOUSE_NO":"２８１號","E_COORD97":172747.04999999999,"N_COORD97":2549140.2200000002,"ADDRESS":"中正北路２８１號","OBJECTID":567259},"geometry":{"x":172747.04999999981,"y":2549140.2200000025}},{"attributes":{"ID":567287,"DIS_CODE":0,"TOWNNAME":"北區","LI":"成德里","LIN":"37鄰","STREET":"育德三街","SECT":" ","MAREA":" ","LANE":" ","ALLEY":" ","HOUSE_NO":"２６３號","E_COORD97":168103.28,"N_COORD97":2546552.3900000001,"ADDRESS":"育德三街２６３號","OBJECTID":567260},"geometry":{"x":168103.28000000212,"y":2546552.3900000025}},{"attributes":{"ID":567288,"DIS_CODE":0,"TOWNNAME":"北區","LI":"成德里","LIN":"37鄰","STREET":"育德三街","SECT":" ","MAREA":" ","LANE":" ","ALLEY":" ","HOUSE_NO":"２６７號","E_COORD97":168092.48000000001,"N_COORD97":2546551.2799999998,"ADDRESS":"育德三街２６７號","OBJECTID":567261},"geometry":{"x":168092.48000000138,"y":2546551.2800000012}},{"attributes":{"ID":567289,"DIS_CODE":0,"TOWNNAME":"北區","LI":"成德里","LIN":"37鄰","STREET":"育德三街","SECT":" ","MAREA":" ","LANE":" ","ALLEY":" ","HOUSE_NO":"２７１號","E_COORD97":168081.53,"N_COORD97":2546550.1699999999,"ADDRESS":"育德三街２７１號","OBJECTID":567262},"geometry":{"x":168081.53000000119,"y":2546550.1700000018}},{"attributes":{"ID":567290,"DIS_CODE":0,"TOWNNAME":"北區","LI":"成德里","LIN":"37鄰","STREET":"育德三街","SECT":" ","MAREA":" ","LANE":" ","ALLEY":" ","HOUSE_NO":"２７５號","E_COORD97":168116.45000000001,"N_COORD97":2546563.98,"ADDRESS":"育德三街２７５號","OBJECTID":567263},"geometry":{"x":168116.45000000019,"y":2546563.9799999986}},{"attributes":{"ID":567291,"DIS_CODE":0,"TOWNNAME":"北區","LI":"成德里","LIN":"37鄰","STREET":"育德三街","SECT":" ","MAREA":" ","LANE":" ","ALLEY":" ","HOUSE_NO":"２７７號","E_COORD97":168111.69,"N_COORD97":2546563.5099999998,"ADDRESS":"育德三街２７７號","OBJECTID":567264},"geometry":{"x":168111.69000000041,"y":2546563.5100000035}},{"attributes":{"ID":567292,"DIS_CODE":0,"TOWNNAME":"北區","LI":"成德里","LIN":"37鄰","STREET":"育德三街","SECT":" ","MAREA":" ","LANE":" ","ALLEY":" ","HOUSE_NO":"２７９號","E_COORD97":168107.25,"N_COORD97":2546563.0299999998,"ADDRESS":"育德三街２７９號","OBJECTID":567265},"geometry":{"x":168107.25000000093,"y":2546563.0300000012}},{"attributes":{"ID":567293,"DIS_CODE":0,"TOWNNAME":"北區","LI":"成德里","LIN":"37鄰","STREET":"育德三街","SECT":" ","MAREA":" ","LANE":" ","ALLEY":" ","HOUSE_NO":"２８１號","E_COORD97":168101.85000000001,"N_COORD97":2546562.5499999998,"ADDRESS":"育德三街２８１號","OBJECTID":567266},"geometry":{"x":168101.84999999963,"y":2546562.5500000007}},{"attributes":{"ID":567294,"DIS_CODE":0,"TOWNNAME":"北區","LI":"成德里","LIN":"37鄰","STREET":"育德三街","SECT":" ","MAREA":" ","LANE":" ","ALLEY":" ","HOUSE_NO":"２８３號","E_COORD97":168096.29000000001,"N_COORD97":2546562.0800000001,"ADDRESS":"育德三街２８３號","OBJECTID":567267},"geometry":{"x":168096.29000000097,"y":2546562.0800000001}},{"attributes":{"ID":567295,"DIS_CODE":0,"TOWNNAME":"北區","LI":"成德里","LIN":"37鄰","STREET":"育德三街","SECT":" ","MAREA":" ","LANE":" ","ALLEY":" ","HOUSE_NO":"２８７號","E_COORD97":168085.66,"N_COORD97":2546560.4900000002,"ADDRESS":"育德三街２８７號","OBJECTID":567268},"geometry":{"x":168085.66000000108,"y":2546560.4900000039}},{"attributes":{"ID":567296,"DIS_CODE":0,"TOWNNAME":"北區","LI":"成德里","LIN":"37鄰","STREET":"育德三街","SECT":" ","MAREA":" ","LANE":" ","ALLEY":" ","HOUSE_NO":"２８９號","E_COORD97":168080.57999999999,"N_COORD97":2546559.7000000002,"ADDRESS":"育德三街２８９號","OBJECTID":567269},"geometry":{"x":168080.58000000194,"y":2546559.7000000011}},{"attributes":{"ID":567297,"DIS_CODE":0,"TOWNNAME":"北區","LI":"成德里","LIN":"37鄰","STREET":"育德三街","SECT":" ","MAREA":" ","LANE":" ","ALLEY":" ","HOUSE_NO":"２９１號","E_COORD97":168075.17999999999,"N_COORD97":2546558.8999999999,"ADDRESS":"育德三街２９１號","OBJECTID":567270},"geometry":{"x":168075.18000000063,"y":2546558.9000000022}},{"attributes":{"ID":567298,"DIS_CODE":0,"TOWNNAME":"北區","LI":"成德里","LIN":"37鄰","STREET":"育德二路","SECT":" ","MAREA":" ","LANE":" ","ALLEY":" ","HOUSE_NO":"４７１號","E_COORD97":168185.91,"N_COORD97":2546506.46,"ADDRESS":"育德二路４７１號","OBJECTID":567271},"geometry":{"x":168185.91000000108,"y":2546506.4600000009}},{"attributes":{"ID":567299,"DIS_CODE":0,"TOWNNAME":"安平區","LI":"育平里","LIN":"37鄰","STREET":"育平三街","SECT":" ","MAREA":" ","LANE":" ","ALLEY":" ","HOUSE_NO":"４３號","E_COORD97":164445.85999999999,"N_COORD97":2543174.8300000001,"ADDRESS":"育平三街４３號","OBJECTID":567272},"geometry":{"x":164445.86000000034,"y":2543174.8300000019}},{"attributes":{"ID":567300,"DIS_CODE":0,"TOWNNAME":"歸仁區","LI":"許厝里","LIN":"37鄰","STREET":"信義南路","SECT":" ","MAREA":" ","LANE":" ","ALLEY":" ","HOUSE_NO":"５６號","E_COORD97":178058.59,"N_COORD97":2540586.29,"ADDRESS":"信義南路５６號","OBJECTID":567273},"geometry":{"x":178058.59000000078,"y":2540586.2899999991}},{"attributes":{"ID":567301,"DIS_CODE":0,"TOWNNAME":"歸仁區","LI":"後市里","LIN":"37鄰","STREET":"民族一街","SECT":" ","MAREA":" ","LANE":" ","ALLEY":" ","HOUSE_NO":"５０號","E_COORD97":177313.63,"N_COORD97":2541026.75,"ADDRESS":"民族一街５０號","OBJECTID":567274},"geometry":{"x":177313.62999999989,"y":2541026.7500000019}},{"attributes":{"ID":567302,"DIS_CODE":0,"TOWNNAME":"歸仁區","LI":"許厝里","LIN":"37鄰","STREET":"信義南路","SECT":" ","MAREA":" ","LANE":" ","ALLEY":" ","HOUSE_NO":"５８號","E_COORD97":178060.69,"N_COORD97":2540583.29,"ADDRESS":"信義南路５８號","OBJECTID":567275},"geometry":{"x":178060.69000000041,"y":2540583.2899999972}},{"attributes":{"ID":567303,"DIS_CODE":0,"TOWNNAME":"歸仁區","LI":"南興里","LIN":"37鄰","STREET":"民生北街","SECT":" ","MAREA":" ","LANE":" ","ALLEY":" ","HOUSE_NO":"３７號","E_COORD97":176261.89000000001,"N_COORD97":2541067.29,"ADDRESS":"民生北街３７號","OBJECTID":567276},"geometry":{"x":176261.88999999966,"y":2541067.2899999991}},{"attributes":{"ID":567304,"DIS_CODE":0,"TOWNNAME":"歸仁區","LI":"許厝里","LIN":"37鄰","STREET":"信義南路","SECT":" ","MAREA":" ","LANE":" ","ALLEY":" ","HOUSE_NO":"６４號","E_COORD97":178067.79000000001,"N_COORD97":2540573.29,"ADDRESS":"信義南路６４號","OBJECTID":567277},"geometry":{"x":178067.79000000097,"y":2540573.2900000028}},{"attributes":{"ID":567305,"DIS_CODE":0,"TOWNNAME":"歸仁區","LI":"許厝里","LIN":"37鄰","STREET":"信義南路","SECT":" ","MAREA":" ","LANE":" ","ALLEY":" ","HOUSE_NO":"７０號","E_COORD97":178073.89000000001,"N_COORD97":2540563.29,"ADDRESS":"信義南路７０號","OBJECTID":567278},"geometry":{"x":178073.88999999966,"y":2540563.2900000028}},{"attributes":{"ID":567306,"DIS_CODE":0,"TOWNNAME":"歸仁區","LI":"許厝里","LIN":"37鄰","STREET":"信義南路","SECT":" ","MAREA":" ","LANE":" ","ALLEY":" ","HOUSE_NO":"３４號","E_COORD97":178036.29000000001,"N_COORD97":2540619.29,"ADDRESS":"信義南路３４號","OBJECTID":567279},"geometry":{"x":178036.29000000004,"y":2540619.2899999991}},{"attributes":{"ID":567307,"DIS_CODE":0,"TOWNNAME":"歸仁區","LI":"許厝里","LIN":"37鄰","STREET":"信義南路","SECT":" ","MAREA":" ","LANE":" ","ALLEY":" ","HOUSE_NO":"４６號","E_COORD97":178046.39000000001,"N_COORD97":2540603.29,"ADDRESS":"信義南路４６號","OBJECTID":567280},"geometry":{"x":178046.3900000006,"y":2540603.2899999991}},{"attributes":{"ID":567308,"DIS_CODE":0,"TOWNNAME":"歸仁區","LI":"許厝里","LIN":"37鄰","STREET":"信義南路","SECT":" ","MAREA":" ","LANE":" ","ALLEY":" ","HOUSE_NO":"２８號","E_COORD97":178029.09,"N_COORD97":2540629.29,"ADDRESS":"信義南路２８號","OBJECTID":567281},"geometry":{"x":178029.08999999985,"y":2540629.2899999991}},{"attributes":{"ID":567309,"DIS_CODE":0,"TOWNNAME":"歸仁區","LI":"許厝里","LIN":"37鄰","STREET":"信義南路","SECT":" ","MAREA":" ","LANE":" ","ALLEY":" ","HOUSE_NO":"４２號","E_COORD97":178044.39000000001,"N_COORD97":2540606.29,"ADDRESS":"信義南路４２號","OBJECTID":567282},"geometry":{"x":178044.3900000006,"y":2540606.2899999991}},{"attributes":{"ID":567310,"DIS_CODE":0,"TOWNNAME":"永康區","LI":"龍潭里","LIN":"39鄰","STREET":"國民路","SECT":" ","MAREA":" ","LANE":" ","ALLEY":" ","HOUSE_NO":"１１３號","E_COORD97":174396.85999999999,"N_COORD97":2547243.5600000001,"ADDRESS":"國民路１１３號","OBJECTID":567283},"geometry":{"x":174396.8599999994,"y":2547243.5600000005}},{"attributes":{"ID":567311,"DIS_CODE":0,"TOWNNAME":"永康區","LI":"龍潭里","LIN":"35鄰","STREET":"龍橋街","SECT":" ","MAREA":" ","LANE":" ","ALLEY":" ","HOUSE_NO":"１１７號","E_COORD97":174661.28,"N_COORD97":2548551.4500000002,"ADDRESS":"龍橋街１１７號","OBJECTID":567284},"geometry":{"x":174661.28000000026,"y":2548551.4500000011}},{"attributes":{"ID":567312,"DIS_CODE":0,"TOWNNAME":"永康區","LI":"\u25A0行里","LIN":"10鄰","STREET":"中正路","SECT":" ","MAREA":" ","LANE":" ","ALLEY":" ","HOUSE_NO":"４０９號","E_COORD97":172382.85000000001,"N_COORD97":2548489.5600000001,"ADDRESS":"中正路４０９號","OBJECTID":567285},"geometry":{"x":172382.85000000056,"y":2548489.5600000042}},{"attributes":{"ID":567313,"DIS_CODE":0,"TOWNNAME":"歸仁區","LI":"許厝里","LIN":"37鄰","STREET":"信義南路","SECT":" ","MAREA":" ","LANE":" ","ALLEY":" ","HOUSE_NO":"３２號","E_COORD97":178033.19,"N_COORD97":2540623.29,"ADDRESS":"信義南路３２號","OBJECTID":567286},"geometry":{"x":178033.19000000134,"y":2540623.2899999991}},{"attributes":{"ID":567314,"DIS_CODE":0,"TOWNNAME":"歸仁區","LI":"許厝里","LIN":"37鄰","STREET":"信義南路","SECT":" ","MAREA":" ","LANE":" ","ALLEY":" ","HOUSE_NO":"４８號","E_COORD97":178049.48999999999,"N_COORD97":2540599.29,"ADDRESS":"信義南路４８號","OBJECTID":567287},"geometry":{"x":178049.49000000115,"y":2540599.2899999991}},{"attributes":{"ID":567315,"DIS_CODE":0,"TOWNNAME":"歸仁區","LI":"許厝里","LIN":"37鄰","STREET":"信義南路","SECT":" ","MAREA":" ","LANE":" ","ALLEY":" ","HOUSE_NO":"２４號","E_COORD97":178022.98999999999,"N_COORD97":2540637.29,"ADDRESS":"信義南路２４號","OBJECTID":567288},"geometry":{"x":178022.99000000022,"y":2540637.2899999991}},{"attributes":{"ID":567316,"DIS_CODE":0,"TOWNNAME":"歸仁區","LI":"許厝里","LIN":"37鄰","STREET":"信義南路","SECT":" ","MAREA":" ","LANE":" ","ALLEY":" ","HOUSE_NO":"３０號","E_COORD97":178031.19,"N_COORD97":2540626.29,"ADDRESS":"信義南路３０號","OBJECTID":567289},"geometry":{"x":178031.19000000134,"y":2540626.2899999991}},{"attributes":{"ID":567317,"DIS_CODE":0,"TOWNNAME":"歸仁區","LI":"後市里","LIN":"37鄰","STREET":"民族一街","SECT":" ","MAREA":" ","LANE":" ","ALLEY":" ","HOUSE_NO":"５４號","E_COORD97":177305.42999999999,"N_COORD97":2541026.75,"ADDRESS":"民族一街５４號","OBJECTID":567290},"geometry":{"x":177305.43000000063,"y":2541026.7500000019}},{"attributes":{"ID":567318,"DIS_CODE":0,"TOWNNAME":"歸仁區","LI":"後市里","LIN":"37鄰","STREET":"民族一街","SECT":" ","MAREA":" ","LANE":" ","ALLEY":" ","HOUSE_NO":"４６號","E_COORD97":177322.92999999999,"N_COORD97":2541026.75,"ADDRESS":"民族一街４６號","OBJECTID":567291},"geometry":{"x":177322.9299999997,"y":2541026.7500000019}},{"attributes":{"ID":567319,"DIS_CODE":0,"TOWNNAME":"歸仁區","LI":"許厝里","LIN":"37鄰","STREET":"信義南路","SECT":" ","MAREA":" ","LANE":" ","ALLEY":" ","HOUSE_NO":"６２號","E_COORD97":178065.79000000001,"N_COORD97":2540576.29,"ADDRESS":"信義南路６２號","OBJECTID":567292},"geometry":{"x":178065.79000000097,"y":2540576.2899999991}},{"attributes":{"ID":567320,"DIS_CODE":0,"TOWNNAME":"歸仁區","LI":"後市里","LIN":"37鄰","STREET":"民族一街","SECT":" ","MAREA":" ","LANE":" ","ALLEY":" ","HOUSE_NO":"５２號","E_COORD97":177309.53,"N_COORD97":2541026.75,"ADDRESS":"民族一街５２號","OBJECTID":567293},"geometry":{"x":177309.53000000026,"y":2541026.7500000019}},{"attributes":{"ID":567321,"DIS_CODE":0,"TOWNNAME":"歸仁區","LI":"後市里","LIN":"37鄰","STREET":"民族一街","SECT":" ","MAREA":" ","LANE":" ","ALLEY":" ","HOUSE_NO":"６８號","E_COORD97":177274.73000000001,"N_COORD97":2541027.75,"ADDRESS":"民族一街６８號","OBJECTID":567294},"geometry":{"x":177274.73000000231,"y":2541027.75}},{"attributes":{"ID":567322,"DIS_CODE":0,"TOWNNAME":"歸仁區","LI":"許厝里","LIN":"37鄰","STREET":"信義南路","SECT":" ","MAREA":" ","LANE":" ","ALLEY":" ","HOUSE_NO":"５４號","E_COORD97":178056.59,"N_COORD97":2540589.29,"ADDRESS":"信義南路５４號","OBJECTID":567295},"geometry":{"x":178056.59000000171,"y":2540589.2899999991}},{"attributes":{"ID":567323,"DIS_CODE":0,"TOWNNAME":"歸仁區","LI":"後市里","LIN":"37鄰","STREET":"民族一街","SECT":" ","MAREA":" ","LANE":" ","ALLEY":" ","HOUSE_NO":"６４號","E_COORD97":177283.92999999999,"N_COORD97":2541027.75,"ADDRESS":"民族一街６４號","OBJECTID":567296},"geometry":{"x":177283.9299999997,"y":2541027.75}},{"attributes":{"ID":567324,"DIS_CODE":0,"TOWNNAME":"歸仁區","LI":"南興里","LIN":"37鄰","STREET":"民生北街","SECT":" ","MAREA":" ","LANE":" ","ALLEY":" ","HOUSE_NO":"５１號","E_COORD97":176263.19,"N_COORD97":2541120.29,"ADDRESS":"民生北街５１號","OBJECTID":567297},"geometry":{"x":176263.19000000134,"y":2541120.290000001}},{"attributes":{"ID":567325,"DIS_CODE":0,"TOWNNAME":"歸仁區","LI":"後市里","LIN":"37鄰","STREET":"民族一街","SECT":" ","MAREA":" ","LANE":" ","ALLEY":" ","HOUSE_NO":"６０號","E_COORD97":177292.13,"N_COORD97":2541027.75,"ADDRESS":"民族一街６０號","OBJECTID":567298},"geometry":{"x":177292.13000000082,"y":2541027.75}},{"attributes":{"ID":567326,"DIS_CODE":0,"TOWNNAME":"歸仁區","LI":"後市里","LIN":"37鄰","STREET":"民族一街","SECT":" ","MAREA":" ","LANE":" ","ALLEY":" ","HOUSE_NO":"６２號","E_COORD97":177288.03,"N_COORD97":2541027.75,"ADDRESS":"民族一街６２號","OBJECTID":567299},"geometry":{"x":177288.03000000119,"y":2541027.75}},{"attributes":{"ID":567327,"DIS_CODE":0,"TOWNNAME":"歸仁區","LI":"許厝里","LIN":"37鄰","STREET":"信義南路","SECT":" ","MAREA":" ","LANE":" ","ALLEY":" ","HOUSE_NO":"６８號","E_COORD97":178072.89000000001,"N_COORD97":2540566.29,"ADDRESS":"信義南路６８號","OBJECTID":567300},"geometry":{"x":178072.89000000153,"y":2540566.2899999972}},{"attributes":{"ID":567328,"DIS_CODE":0,"TOWNNAME":"永康區","LI":"龍潭里","LIN":"5鄰","STREET":"龍埔街","SECT":" ","MAREA":" ","LANE":" ","ALLEY":" ","HOUSE_NO":"２５號","E_COORD97":174812.35999999999,"N_COORD97":2548189.1800000002,"ADDRESS":"龍埔街２５號","OBJECTID":567301},"geometry":{"x":174812.3600000022,"y":2548189.1799999997}},{"attributes":{"ID":567329,"DIS_CODE":0,"TOWNNAME":"永康區","LI":"\u25A0行里","LIN":"43鄰","STREET":"正南三路","SECT":" ","MAREA":" ","LANE":" ","ALLEY":" ","HOUSE_NO":"１６０號","E_COORD97":171657.78,"N_COORD97":2547837.4900000002,"ADDRESS":"正南三路１６０號","OBJECTID":567302},"geometry":{"x":171657.78000000026,"y":2547837.4900000002}},{"attributes":{"ID":567330,"DIS_CODE":0,"TOWNNAME":"中西區","LI":"永福里","LIN":"7鄰","STREET":"中正路","SECT":" ","MAREA":" ","LANE":" ","ALLEY":" ","HOUSE_NO":"７９號","E_COORD97":168109.03,"N_COORD97":2543631.6600000001,"ADDRESS":"中正路７９號","OBJECTID":567303},"geometry":{"x":168109.03000000119,"y":2543631.660000002}},{"attributes":{"ID":567331,"DIS_CODE":0,"TOWNNAME":"永康區","LI":"龍潭里","LIN":"35鄰","STREET":"龍橋街","SECT":" ","MAREA":" ","LANE":" ","ALLEY":" ","HOUSE_NO":"１４５號","E_COORD97":174640.45999999999,"N_COORD97":2548643.0099999998,"ADDRESS":"龍橋街１４５號","OBJECTID":567304},"geometry":{"x":174640.46000000089,"y":2548643.0100000016}},{"attributes":{"ID":567332,"DIS_CODE":0,"TOWNNAME":"東區","LI":"東明里","LIN":"28鄰","STREET":"東安路","SECT":" ","MAREA":" ","LANE":" ","ALLEY":" ","HOUSE_NO":"９號","E_COORD97":170643.39999999999,"N_COORD97":2543511.5,"ADDRESS":"東安路９號","OBJECTID":567305},"geometry":{"x":170643.40000000037,"y":2543511.5}},{"attributes":{"ID":567333,"DIS_CODE":0,"TOWNNAME":"永康區","LI":"龍潭里","LIN":"35鄰","STREET":"龍橋街","SECT":" ","MAREA":" ","LANE":" ","ALLEY":" ","HOUSE_NO":"１２１號","E_COORD97":174663.76000000001,"N_COORD97":2548567.2400000002,"ADDRESS":"龍橋街１２１號","OBJECTID":567306},"geometry":{"x":174663.76000000071,"y":2548567.2400000021}},{"attributes":{"ID":567334,"DIS_CODE":0,"TOWNNAME":"歸仁區","LI":"許厝里","LIN":"37鄰","STREET":"信義南路","SECT":" ","MAREA":" ","LANE":" ","ALLEY":" ","HOUSE_NO":"６０號","E_COORD97":178062.69,"N_COORD97":2540579.29,"ADDRESS":"信義南路６０號","OBJECTID":567307},"geometry":{"x":178062.69000000041,"y":2540579.2899999991}},{"attributes":{"ID":567335,"DIS_CODE":0,"TOWNNAME":"歸仁區","LI":"南興里","LIN":"37鄰","STREET":"文化街","SECT":"三段","MAREA":" ","LANE":" ","ALLEY":" ","HOUSE_NO":"２７３號","E_COORD97":176260.94,"N_COORD97":2541187.3300000001,"ADDRESS":"文化街三段２７３號","OBJECTID":567308},"geometry":{"x":176260.94000000041,"y":2541187.3300000001}},{"attributes":{"ID":567336,"DIS_CODE":0,"TOWNNAME":"歸仁區","LI":"後市里","LIN":"37鄰","STREET":"民權三街","SECT":" ","MAREA":" ","LANE":" ","ALLEY":" ","HOUSE_NO":"１５０號","E_COORD97":177329.48000000001,"N_COORD97":2541054.75,"ADDRESS":"民權三街１５０號","OBJECTID":567309},"geometry":{"x":177329.48000000138,"y":2541054.75}},{"attributes":{"ID":567337,"DIS_CODE":0,"TOWNNAME":"歸仁區","LI":"南興里","LIN":"37鄰","STREET":"民生北街","SECT":" ","MAREA":" ","LANE":" ","ALLEY":" ","HOUSE_NO":"６１號","E_COORD97":176266.39000000001,"N_COORD97":2541145.29,"ADDRESS":"民生北街６１號","OBJECTID":567310},"geometry":{"x":176266.3900000006,"y":2541145.2899999991}},{"attributes":{"ID":567338,"DIS_CODE":0,"TOWNNAME":"歸仁區","LI":"六甲里","LIN":"37鄰","STREET":"六甲八街","SECT":" ","MAREA":" ","LANE":" ","ALLEY":" ","HOUSE_NO":"１７６號","E_COORD97":175346.78856799999,"N_COORD97":2539632.4766299999,"ADDRESS":"六甲八街１７６號","OBJECTID":567311},"geometry":{"x":175346.78856800031,"y":2539632.4766339995}},{"attributes":{"ID":567339,"DIS_CODE":0,"TOWNNAME":"歸仁區","LI":"後市里","LIN":"37鄰","STREET":"民族一街","SECT":" ","MAREA":" ","LANE":" ","ALLEY":" ","HOUSE_NO":"５８號","E_COORD97":177296.23000000001,"N_COORD97":2541027.75,"ADDRESS":"民族一街５８號","OBJECTID":567312},"geometry":{"x":177296.23000000045,"y":2541027.75}},{"attributes":{"ID":567340,"DIS_CODE":0,"TOWNNAME":"歸仁區","LI":"南興里","LIN":"37鄰","STREET":"民生北街","SECT":" ","MAREA":" ","LANE":" ","ALLEY":" ","HOUSE_NO":"７５號","E_COORD97":176257.29000000001,"N_COORD97":2541158.29,"ADDRESS":"民生北街７５號","OBJECTID":567313},"geometry":{"x":176257.29000000097,"y":2541158.2899999991}},{"attributes":{"ID":567341,"DIS_CODE":0,"TOWNNAME":"北區","LI":"成德里","LIN":"37鄰","STREET":"育德二路","SECT":" ","MAREA":" ","LANE":" ","ALLEY":" ","HOUSE_NO":"４８９號","E_COORD97":168167.48000000001,"N_COORD97":2546552.04,"ADDRESS":"育德二路４８９號","OBJECTID":567314},"geometry":{"x":168167.48000000045,"y":2546552.0399999972}},{"attributes":{"ID":567342,"DIS_CODE":0,"TOWNNAME":"仁德區","LI":"成功里","LIN":"37鄰","STREET":"保華路","SECT":" ","MAREA":" ","LANE":" ","ALLEY":" ","HOUSE_NO":"１６號","E_COORD97":170741.23000000001,"N_COORD97":2539996.5,"ADDRESS":"保華路１６號","OBJECTID":567315},"geometry":{"x":170741.23000000045,"y":2539996.5000000037}},{"attributes":{"ID":567343,"DIS_CODE":0,"TOWNNAME":"安平區","LI":"育平里","LIN":"37鄰","STREET":"平豐路","SECT":" ","MAREA":" ","LANE":" ","ALLEY":" ","HOUSE_NO":"１２６號","E_COORD97":164343.04000000001,"N_COORD97":2543140.73,"ADDRESS":"平豐路１２６號","OBJECTID":567316},"geometry":{"x":164343.0400000019,"y":2543140.7300000004}},{"attributes":{"ID":567344,"DIS_CODE":0,"TOWNNAME":"北區","LI":"成德里","LIN":"37鄰","STREET":"海安路","SECT":"三段","MAREA":" ","LANE":" ","ALLEY":" ","HOUSE_NO":"８８２號","E_COORD97":168040.32000000001,"N_COORD97":2546475.77,"ADDRESS":"海安路三段８８２號","OBJECTID":567317},"geometry":{"x":168040.32000000216,"y":2546475.7699999996}},{"attributes":{"ID":567345,"DIS_CODE":0,"TOWNNAME":"北區","LI":"成德里","LIN":"37鄰","STREET":"海安路","SECT":"三段","MAREA":" ","LANE":" ","ALLEY":" ","HOUSE_NO":"８９６號","E_COORD97":168038.10000000001,"N_COORD97":2546498.48,"ADDRESS":"海安路三段８９６號","OBJECTID":567318},"geometry":{"x":168038.10000000056,"y":2546498.4800000004}},{"attributes":{"ID":567346,"DIS_CODE":0,"TOWNNAME":"北區","LI":"成德里","LIN":"37鄰","STREET":"海安路","SECT":"三段","MAREA":" ","LANE":" ","ALLEY":" ","HOUSE_NO":"８９２號","E_COORD97":168038.57000000001,"N_COORD97":2546494.0299999998,"ADDRESS":"海安路三段８９２號","OBJECTID":567319},"geometry":{"x":168038.57000000216,"y":2546494.0299999993}},{"attributes":{"ID":567347,"DIS_CODE":0,"TOWNNAME":"永康區","LI":"\u25A0行里","LIN":"10鄰","STREET":"中正路","SECT":" ","MAREA":" ","LANE":" ","ALLEY":" ","HOUSE_NO":"４７３號","E_COORD97":172274.29999999999,"N_COORD97":2548601.25,"ADDRESS":"中正路４７３號","OBJECTID":567320},"geometry":{"x":172274.29999999981,"y":2548601.2500000019}},{"attributes":{"ID":567348,"DIS_CODE":0,"TOWNNAME":"永康區","LI":"\u25A0行里","LIN":"9鄰","STREET":"正南五街","SECT":" ","MAREA":" ","LANE":" ","ALLEY":" ","HOUSE_NO":"７２號","E_COORD97":172130.72,"N_COORD97":2547887,"ADDRESS":"正南五街７２號","OBJECTID":567321},"geometry":{"x":172130.71999999881,"y":2547887.0000000019}},{"attributes":{"ID":567349,"DIS_CODE":0,"TOWNNAME":"北區","LI":"成德里","LIN":"37鄰","STREET":"海安路","SECT":"三段","MAREA":" ","LANE":" ","ALLEY":" ","HOUSE_NO":"８９０號","E_COORD97":168039.04999999999,"N_COORD97":2546490.7000000002,"ADDRESS":"海安路三段８９０號","OBJECTID":567322},"geometry":{"x":168039.04999999981,"y":2546490.7000000011}},{"attributes":{"ID":567350,"DIS_CODE":0,"TOWNNAME":"北區","LI":"成德里","LIN":"37鄰","STREET":"海安路","SECT":"三段","MAREA":" ","LANE":" ","ALLEY":" ","HOUSE_NO":"８８８號","E_COORD97":168039.04999999999,"N_COORD97":2546486.4100000001,"ADDRESS":"海安路三段８８８號","OBJECTID":567323},"geometry":{"x":168039.04999999981,"y":2546486.4100000039}},{"attributes":{"ID":567351,"DIS_CODE":0,"TOWNNAME":"北區","LI":"成德里","LIN":"37鄰","STREET":"海安路","SECT":"三段","MAREA":" ","LANE":" ","ALLEY":" ","HOUSE_NO":"８８６號","E_COORD97":168039.67999999999,"N_COORD97":2546481.4900000002,"ADDRESS":"海安路三段８８６號","OBJECTID":567324},"geometry":{"x":168039.68000000063,"y":2546481.4900000002}},{"attributes":{"ID":567352,"DIS_CODE":0,"TOWNNAME":"北區","LI":"成德里","LIN":"37鄰","STREET":"文成五街","SECT":" ","MAREA":" ","LANE":" ","ALLEY":" ","HOUSE_NO":"２７６號","E_COORD97":168141.62,"N_COORD97":2546492.6600000001,"ADDRESS":"文成五街２７６號","OBJECTID":567325},"geometry":{"x":168141.62000000104,"y":2546492.660000002}},{"attributes":{"ID":567353,"DIS_CODE":0,"TOWNNAME":"歸仁區","LI":"南興里","LIN":"37鄰","STREET":"文化街","SECT":"三段","MAREA":" ","LANE":" ","ALLEY":" ","HOUSE_NO":"３３１號","E_COORD97":176060.94,"N_COORD97":2541182.3300000001,"ADDRESS":"文化街三段３３１號","OBJECTID":567326},"geometry":{"x":176060.94000000041,"y":2541182.3300000019}},{"attributes":{"ID":567354,"DIS_CODE":0,"TOWNNAME":"歸仁區","LI":"南興里","LIN":"37鄰","STREET":"文化街","SECT":"三段","MAREA":" ","LANE":" ","ALLEY":" ","HOUSE_NO":"３６７號","E_COORD97":175980.04000000001,"N_COORD97":2541194.3300000001,"ADDRESS":"文化街三段３６７號","OBJECTID":567327},"geometry":{"x":175980.04000000004,"y":2541194.3299999982}},{"attributes":{"ID":567355,"DIS_CODE":0,"TOWNNAME":"歸仁區","LI":"南興里","LIN":"37鄰","STREET":"文化街","SECT":"三段","MAREA":" ","LANE":" ","ALLEY":" ","HOUSE_NO":"２７７號","E_COORD97":176252.73999999999,"N_COORD97":2541183.3300000001,"ADDRESS":"文化街三段２７７號","OBJECTID":567328},"geometry":{"x":176252.74000000115,"y":2541183.3300000001}},{"attributes":{"ID":567356,"DIS_CODE":0,"TOWNNAME":"歸仁區","LI":"南保里","LIN":"37鄰","STREET":"中山路","SECT":"三段","MAREA":" ","LANE":" ","ALLEY":" ","HOUSE_NO":"１０２號","E_COORD97":176746.91,"N_COORD97":2540902.3300000001,"ADDRESS":"中山路三段１０２號","OBJECTID":567329},"geometry":{"x":176746.91000000015,"y":2540902.3300000001}},{"attributes":{"ID":567357,"DIS_CODE":0,"TOWNNAME":"歸仁區","LI":"南保里","LIN":"37鄰","STREET":"中山路","SECT":"三段","MAREA":" ","LANE":" ","ALLEY":" ","HOUSE_NO":"１１２號","E_COORD97":176720.69,"N_COORD97":2540907.9700000002,"ADDRESS":"中山路三段１１２號","OBJECTID":567330},"geometry":{"x":176720.69000000227,"y":2540907.9700000007}},{"attributes":{"ID":567358,"DIS_CODE":0,"TOWNNAME":"歸仁區","LI":"南保里","LIN":"37鄰","STREET":"中山路","SECT":"三段","MAREA":" ","LANE":" ","ALLEY":" ","HOUSE_NO":"１３４號","E_COORD97":176666.01000000001,"N_COORD97":2540915.0499999998,"ADDRESS":"中山路三段１３４號","OBJECTID":567331},"geometry":{"x":176666.01000000071,"y":2540915.0500000007}},{"attributes":{"ID":567359,"DIS_CODE":0,"TOWNNAME":"歸仁區","LI":"南興里","LIN":"37鄰","STREET":"民生北街","SECT":" ","MAREA":" ","LANE":" ","ALLEY":" ","HOUSE_NO":"８５號","E_COORD97":176261.70999999999,"N_COORD97":2541180.25,"ADDRESS":"民生北街８５號","OBJECTID":567332},"geometry":{"x":176261.70999999996,"y":2541180.25}},{"attributes":{"ID":567360,"DIS_CODE":0,"TOWNNAME":"北區","LI":"成德里","LIN":"37鄰","STREET":"北成路","SECT":" ","MAREA":" ","LANE":" ","ALLEY":" ","HOUSE_NO":"４０１號","E_COORD97":168030.82000000001,"N_COORD97":2546533.0899999999,"ADDRESS":"北成路４０１號","OBJECTID":567333},"geometry":{"x":168030.82000000123,"y":2546533.0900000017}},{"attributes":{"ID":567361,"DIS_CODE":0,"TOWNNAME":"北區","LI":"成德里","LIN":"37鄰","STREET":"育德三街","SECT":" ","MAREA":" ","LANE":" ","ALLEY":" ","HOUSE_NO":"２７０號","E_COORD97":168140.92000000001,"N_COORD97":2546545.6000000001,"ADDRESS":"育德三街２７０號","OBJECTID":567334},"geometry":{"x":168140.92000000179,"y":2546545.6000000034}},{"attributes":{"ID":567362,"DIS_CODE":0,"TOWNNAME":"永康區","LI":"東灣里","LIN":"37鄰","STREET":"大灣一街","SECT":" ","MAREA":" ","LANE":" ","ALLEY":" ","HOUSE_NO":"３０１號","E_COORD97":175061.14000000001,"N_COORD97":2544837.7599999998,"ADDRESS":"大灣一街３０１號","OBJECTID":567335},"geometry":{"x":175061.1400000006,"y":2544837.7599999998}},{"attributes":{"ID":567363,"DIS_CODE":0,"TOWNNAME":"永康區","LI":"東灣里","LIN":"37鄰","STREET":"大灣一街","SECT":" ","MAREA":" ","LANE":" ","ALLEY":" ","HOUSE_NO":"３０３號","E_COORD97":175050.51999999999,"N_COORD97":2544852.6499999999,"ADDRESS":"大灣一街３０３號","OBJECTID":567336},"geometry":{"x":175050.51999999955,"y":2544852.6500000004}},{"attributes":{"ID":567364,"DIS_CODE":0,"TOWNNAME":"永康區","LI":"龍潭里","LIN":"29鄰","STREET":"龍潭街","SECT":" ","MAREA":" ","LANE":" ","ALLEY":" ","HOUSE_NO":"４８號","E_COORD97":174754.17000000001,"N_COORD97":2547821.8999999999,"ADDRESS":"龍潭街４８號","OBJECTID":567337},"geometry":{"x":174754.17000000086,"y":2547821.9000000004}},{"attributes":{"ID":567365,"DIS_CODE":0,"TOWNNAME":"永康區","LI":"\u25A0洲里","LIN":"22鄰","STREET":"中正南路","SECT":" ","MAREA":" ","LANE":" ","ALLEY":" ","HOUSE_NO":"７３１號","E_COORD97":171596.84,"N_COORD97":2548877.9900000002,"ADDRESS":"中正南路７３１號","OBJECTID":567338},"geometry":{"x":171596.84000000078,"y":2548877.9900000002}},{"attributes":{"ID":567366,"DIS_CODE":0,"TOWNNAME":"永康區","LI":"\u25A0行里","LIN":"40鄰","STREET":"永安路","SECT":" ","MAREA":" ","LANE":" ","ALLEY":" ","HOUSE_NO":"１１３號之１","E_COORD97":172693.70000000001,"N_COORD97":2549366.0600000001,"ADDRESS":"永安路１１３號之１","OBJECTID":567339},"geometry":{"x":172693.70000000019,"y":2549366.0600000005}},{"attributes":{"ID":567367,"DIS_CODE":0,"TOWNNAME":"永康區","LI":"龍潭里","LIN":"35鄰","STREET":"自強路","SECT":" ","MAREA":" ","LANE":" ","ALLEY":" ","HOUSE_NO":"７８２號","E_COORD97":174525.94,"N_COORD97":2548564.7999999998,"ADDRESS":"自強路７８２號","OBJECTID":567340},"geometry":{"x":174525.94000000134,"y":2548564.8000000007}},{"attributes":{"ID":567368,"DIS_CODE":0,"TOWNNAME":"永康區","LI":"南灣里","LIN":"37鄰","STREET":"南灣街","SECT":" ","MAREA":" ","LANE":" ","ALLEY":" ","HOUSE_NO":"９６之１號","E_COORD97":174420.07999999999,"N_COORD97":2544969.0899999999,"ADDRESS":"南灣街９６之１號","OBJECTID":567341},"geometry":{"x":174420.08000000007,"y":2544969.0899999999}},{"attributes":{"ID":567369,"DIS_CODE":0,"TOWNNAME":"歸仁區","LI":"許厝里","LIN":"37鄰","STREET":"信義南路","SECT":" ","MAREA":" ","LANE":" ","ALLEY":" ","HOUSE_NO":"７２號","E_COORD97":178075.60000000001,"N_COORD97":2540561.0600000001,"ADDRESS":"信義南路７２號","OBJECTID":567342},"geometry":{"x":178075.60000000056,"y":2540561.0600000024}},{"attributes":{"ID":567370,"DIS_CODE":0,"TOWNNAME":"永康區","LI":"永康里","LIN":"37鄰","STREET":"大同街","SECT":" ","MAREA":" ","LANE":" ","ALLEY":" ","HOUSE_NO":"８３６號","E_COORD97":174481.14999999999,"N_COORD97":2546877.3300000001,"ADDRESS":"大同街８３６號","OBJECTID":567343},"geometry":{"x":174481.15000000037,"y":2546877.3300000019}},{"attributes":{"ID":567371,"DIS_CODE":0,"TOWNNAME":"永康區","LI":"永康里","LIN":"37鄰","STREET":"西勢路","SECT":" ","MAREA":" ","LANE":" ","ALLEY":" ","HOUSE_NO":"７７８號","E_COORD97":174468.64999999999,"N_COORD97":2546736.0699999998,"ADDRESS":"西勢路７７８號","OBJECTID":567344},"geometry":{"x":174468.6500000013,"y":2546736.0700000003}},{"attributes":{"ID":567372,"DIS_CODE":0,"TOWNNAME":"永康區","LI":"永康里","LIN":"37鄰","STREET":"大同街","SECT":" ","MAREA":" ","LANE":" ","ALLEY":" ","HOUSE_NO":"８３８號","E_COORD97":174480.13,"N_COORD97":2546881.3399999999,"ADDRESS":"大同街８３８號","OBJECTID":567345},"geometry":{"x":174480.13000000082,"y":2546881.3400000017}},{"attributes":{"ID":567373,"DIS_CODE":0,"TOWNNAME":"永康區","LI":"永康里","LIN":"37鄰","STREET":"西勢路","SECT":" ","MAREA":" ","LANE":" ","ALLEY":" ","HOUSE_NO":"７６０號","E_COORD97":174497.29000000001,"N_COORD97":2546745.3199999998,"ADDRESS":"西勢路７６０號","OBJECTID":567346},"geometry":{"x":174497.29000000097,"y":2546745.3200000022}},{"attributes":{"ID":567374,"DIS_CODE":0,"TOWNNAME":"永康區","LI":"永康里","LIN":"37鄰","STREET":"大同街","SECT":" ","MAREA":" ","LANE":" ","ALLEY":" ","HOUSE_NO":"８０８號","E_COORD97":174497.37,"N_COORD97":2546817.9199999999,"ADDRESS":"大同街８０８號","OBJECTID":567347},"geometry":{"x":174497.37000000104,"y":2546817.9199999999}},{"attributes":{"ID":567375,"DIS_CODE":0,"TOWNNAME":"永康區","LI":"永康里","LIN":"37鄰","STREET":"大同街","SECT":" ","MAREA":" ","LANE":" ","ALLEY":" ","HOUSE_NO":"７９２號","E_COORD97":174503.70999999999,"N_COORD97":2546794.9199999999,"ADDRESS":"大同街７９２號","OBJECTID":567348},"geometry":{"x":174503.70999999996,"y":2546794.9200000037}},{"attributes":{"ID":567376,"DIS_CODE":0,"TOWNNAME":"永康區","LI":"永康里","LIN":"37鄰","STREET":"永大路","SECT":"二段","MAREA":" ","LANE":" ","ALLEY":" ","HOUSE_NO":"１２３０號","E_COORD97":174341.57999999999,"N_COORD97":2546782.21,"ADDRESS":"永大路二段１２３０號","OBJECTID":567349},"geometry":{"x":174341.58000000101,"y":2546782.2100000009}},{"attributes":{"ID":567377,"DIS_CODE":0,"TOWNNAME":"永康區","LI":"永康里","LIN":"37鄰","STREET":"大同街","SECT":" ","MAREA":" ","LANE":" ","ALLEY":" ","HOUSE_NO":"８００號","E_COORD97":174500.45999999999,"N_COORD97":2546806.4199999999,"ADDRESS":"大同街８００號","OBJECTID":567350},"geometry":{"x":174500.45999999996,"y":2546806.4200000018}},{"attributes":{"ID":567378,"DIS_CODE":0,"TOWNNAME":"永康區","LI":"永康里","LIN":"37鄰","STREET":"大同街","SECT":" ","MAREA":" ","LANE":" ","ALLEY":" ","HOUSE_NO":"７８６號","E_COORD97":174506.72,"N_COORD97":2546783.9199999999,"ADDRESS":"大同街７８６號","OBJECTID":567351},"geometry":{"x":174506.71999999974,"y":2546783.9199999999}},{"attributes":{"ID":567379,"DIS_CODE":0,"TOWNNAME":"仁德區","LI":"後壁里","LIN":"37鄰","STREET":"德洋一街","SECT":" ","MAREA":" ","LANE":" ","ALLEY":" ","HOUSE_NO":"５３號","E_COORD97":173139.42000000001,"N_COORD97":2539197.52,"ADDRESS":"德洋一街５３號","OBJECTID":567352},"geometry":{"x":173139.41999999993,"y":2539197.5199999996}},{"attributes":{"ID":567380,"DIS_CODE":0,"TOWNNAME":"永康區","LI":"龍潭里","LIN":"35鄰","STREET":"自強路","SECT":" ","MAREA":" ","LANE":" ","ALLEY":" ","HOUSE_NO":"７６６號","E_COORD97":174498.64000000001,"N_COORD97":2548543.0499999998,"ADDRESS":"自強路７６６號","OBJECTID":567353},"geometry":{"x":174498.63999999966,"y":2548543.0500000007}},{"attributes":{"ID":567381,"DIS_CODE":0,"TOWNNAME":"仁德區","LI":"仁義里","LIN":"37鄰","STREET":"仁義六街","SECT":" ","MAREA":" ","LANE":" ","ALLEY":" ","HOUSE_NO":"９９號","E_COORD97":173759.79000000001,"N_COORD97":2539960.7599999998,"ADDRESS":"仁義六街９９號","OBJECTID":567354},"geometry":{"x":173759.7900000019,"y":2539960.7600000035}},{"attributes":{"ID":567382,"DIS_CODE":0,"TOWNNAME":"仁德區","LI":"成功里","LIN":"37鄰","STREET":"保華路","SECT":" ","MAREA":" ","LANE":" ","ALLEY":" ","HOUSE_NO":"２６號","E_COORD97":170712.70000000001,"N_COORD97":2539996,"ADDRESS":"保華路２６號","OBJECTID":567355},"geometry":{"x":170712.70000000112,"y":2539996}},{"attributes":{"ID":567383,"DIS_CODE":0,"TOWNNAME":"仁德區","LI":"成功里","LIN":"37鄰","STREET":"保華路","SECT":" ","MAREA":" ","LANE":" ","ALLEY":" ","HOUSE_NO":"３８號","E_COORD97":170686.60000000001,"N_COORD97":2539995.75,"ADDRESS":"保華路３８號","OBJECTID":567356},"geometry":{"x":170686.59999999963,"y":2539995.7500000019}},{"attributes":{"ID":567384,"DIS_CODE":0,"TOWNNAME":"仁德區","LI":"後壁里","LIN":"37鄰","STREET":"民安路","SECT":"一段","MAREA":" ","LANE":" ","ALLEY":" ","HOUSE_NO":"４０２號","E_COORD97":173171.51000000001,"N_COORD97":2539341.0600000001,"ADDRESS":"民安路一段４０２號","OBJECTID":567357},"geometry":{"x":173171.51000000164,"y":2539341.0600000005}},{"attributes":{"ID":567385,"DIS_CODE":0,"TOWNNAME":"仁德區","LI":"後壁里","LIN":"37鄰","STREET":"民安路","SECT":"一段","MAREA":" ","LANE":" ","ALLEY":" ","HOUSE_NO":"４２０號","E_COORD97":173213.87,"N_COORD97":2539318.0600000001,"ADDRESS":"民安路一段４２０號","OBJECTID":567358},"geometry":{"x":173213.87000000104,"y":2539318.0600000005}},{"attributes":{"ID":567386,"DIS_CODE":0,"TOWNNAME":"仁德區","LI":"太子里","LIN":"37鄰","STREET":"長興一街","SECT":" ","MAREA":" ","LANE":" ","ALLEY":" ","HOUSE_NO":"６２號","E_COORD97":174519.26999999999,"N_COORD97":2543830.2599999998,"ADDRESS":"長興一街６２號","OBJECTID":567359},"geometry":{"x":174519.27000000048,"y":2543830.2600000016}},{"attributes":{"ID":567387,"DIS_CODE":0,"TOWNNAME":"仁德區","LI":"仁義里","LIN":"37鄰","STREET":"中正路","SECT":"二段","MAREA":" ","LANE":" ","ALLEY":" ","HOUSE_NO":"７３４號","E_COORD97":173447.64999999999,"N_COORD97":2540063.77,"ADDRESS":"中正路二段７３４號","OBJECTID":567360},"geometry":{"x":173447.6500000013,"y":2540063.7699999996}},{"attributes":{"ID":567388,"DIS_CODE":0,"TOWNNAME":"仁德區","LI":"太子里","LIN":"37鄰","STREET":"長興一街","SECT":" ","MAREA":" ","LANE":" ","ALLEY":" ","HOUSE_NO":"３５號","E_COORD97":174559.13,"N_COORD97":2543811.5,"ADDRESS":"長興一街３５號","OBJECTID":567361},"geometry":{"x":174559.13000000175,"y":2543811.5000000019}},{"attributes":{"ID":567389,"DIS_CODE":0,"TOWNNAME":"仁德區","LI":"後壁里","LIN":"37鄰","STREET":"民安路","SECT":"一段","MAREA":" ","LANE":" ","ALLEY":" ","HOUSE_NO":"３８６號","E_COORD97":173140.39000000001,"N_COORD97":2539360.3100000001,"ADDRESS":"民安路一段３８６號","OBJECTID":567362},"geometry":{"x":173140.3900000006,"y":2539360.3100000005}},{"attributes":{"ID":567390,"DIS_CODE":0,"TOWNNAME":"仁德區","LI":"後壁里","LIN":"37鄰","STREET":"德洋一街","SECT":" ","MAREA":" ","LANE":" ","ALLEY":" ","HOUSE_NO":"８９號","E_COORD97":173191.75,"N_COORD97":2539287.27,"ADDRESS":"德洋一街８９號","OBJECTID":567363},"geometry":{"x":173191.75,"y":2539287.2700000014}},{"attributes":{"ID":567391,"DIS_CODE":0,"TOWNNAME":"仁德區","LI":"太子里","LIN":"37鄰","STREET":"長興一街","SECT":" ","MAREA":" ","LANE":" ","ALLEY":" ","HOUSE_NO":"３１號","E_COORD97":174568.34,"N_COORD97":2543814.7599999998,"ADDRESS":"長興一街３１號","OBJECTID":567364},"geometry":{"x":174568.34000000078,"y":2543814.7599999998}},{"attributes":{"ID":567392,"DIS_CODE":0,"TOWNNAME":"永康區","LI":"永康里","LIN":"37鄰","STREET":"西勢路","SECT":" ","MAREA":" ","LANE":" ","ALLEY":" ","HOUSE_NO":"７６６號","E_COORD97":174488.48999999999,"N_COORD97":2546741.5699999998,"ADDRESS":"西勢路７６６號","OBJECTID":567365},"geometry":{"x":174488.49000000022,"y":2546741.5700000003}},{"attributes":{"ID":567393,"DIS_CODE":0,"TOWNNAME":"永康區","LI":"永康里","LIN":"37鄰","STREET":"西勢路","SECT":" ","MAREA":" ","LANE":" ","ALLEY":" ","HOUSE_NO":"７８８號","E_COORD97":174452.89999999999,"N_COORD97":2546731.8199999998,"ADDRESS":"西勢路７８８號","OBJECTID":567366},"geometry":{"x":174452.9000000013,"y":2546731.8200000022}},{"attributes":{"ID":567394,"DIS_CODE":0,"TOWNNAME":"永康區","LI":"永康里","LIN":"37鄰","STREET":"西勢路","SECT":" ","MAREA":" ","LANE":" ","ALLEY":" ","HOUSE_NO":"７７２號","E_COORD97":174476.60999999999,"N_COORD97":2546738.3199999998,"ADDRESS":"西勢路７７２號","OBJECTID":567367},"geometry":{"x":174476.6100000022,"y":2546738.320000004}},{"attributes":{"ID":567395,"DIS_CODE":0,"TOWNNAME":"永康區","LI":"龍潭里","LIN":"10鄰","STREET":"龍潭街","SECT":" ","MAREA":" ","LANE":" ","ALLEY":" ","HOUSE_NO":"１６３號","E_COORD97":174889.39000000001,"N_COORD97":2548281.1800000002,"ADDRESS":"龍潭街１６３號","OBJECTID":567368},"geometry":{"x":174889.39000000153,"y":2548281.1800000034}},{"attributes":{"ID":567396,"DIS_CODE":0,"TOWNNAME":"永康區","LI":"永康里","LIN":"37鄰","STREET":"大同街","SECT":" ","MAREA":" ","LANE":" ","ALLEY":" ","HOUSE_NO":"７９８號","E_COORD97":174501.60999999999,"N_COORD97":2546802.6699999999,"ADDRESS":"大同街７９８號","OBJECTID":567369},"geometry":{"x":174501.61000000034,"y":2546802.6699999999}},{"attributes":{"ID":567397,"DIS_CODE":0,"TOWNNAME":"永康區","LI":"崑山里","LIN":"37鄰","STREET":"大仁街","SECT":" ","MAREA":" ","LANE":" ","ALLEY":" ","HOUSE_NO":"１５４號","E_COORD97":173916.34,"N_COORD97":2544975.79,"ADDRESS":"大仁街１５４號","OBJECTID":567370},"geometry":{"x":173916.33999999985,"y":2544975.7899999991}},{"attributes":{"ID":567398,"DIS_CODE":0,"TOWNNAME":"永康區","LI":"\u25A0洲里","LIN":"22鄰","STREET":"中正南路","SECT":" ","MAREA":" ","LANE":" ","ALLEY":" ","HOUSE_NO":"６８７號","E_COORD97":171486.01000000001,"N_COORD97":2548777.4900000002,"ADDRESS":"中正南路６８７號","OBJECTID":567371},"geometry":{"x":171486.00999999978,"y":2548777.4900000002}},{"attributes":{"ID":567399,"DIS_CODE":0,"TOWNNAME":"東區","LI":"莊敬里","LIN":"24鄰","STREET":"東光路","SECT":"二段","MAREA":" ","LANE":" ","ALLEY":" ","HOUSE_NO":"１５號","E_COORD97":171194.53,"N_COORD97":2544013.52,"ADDRESS":"東光路二段１５號","OBJECTID":567372},"geometry":{"x":171194.53000000026,"y":2544013.5200000033}},{"attributes":{"ID":567400,"DIS_CODE":0,"TOWNNAME":"東區","LI":"莊敬里","LIN":"24鄰","STREET":"東光路","SECT":"二段","MAREA":" ","LANE":" ","ALLEY":" ","HOUSE_NO":"１７號","E_COORD97":171194.89999999999,"N_COORD97":2544016.9900000002,"ADDRESS":"東光路二段１７號","OBJECTID":567373},"geometry":{"x":171194.9000000013,"y":2544016.9900000002}},{"attributes":{"ID":567401,"DIS_CODE":0,"TOWNNAME":"東區","LI":"莊敬里","LIN":"24鄰","STREET":"東光路","SECT":"二段","MAREA":" ","LANE":" ","ALLEY":" ","HOUSE_NO":"１９號","E_COORD97":171194.82999999999,"N_COORD97":2544021.1899999999,"ADDRESS":"東光路二段１９號","OBJECTID":567374},"geometry":{"x":171194.83000000101,"y":2544021.1899999995}},{"attributes":{"ID":567402,"DIS_CODE":0,"TOWNNAME":"東區","LI":"莊敬里","LIN":"24鄰","STREET":"東光路","SECT":"二段","MAREA":" ","LANE":" ","ALLEY":" ","HOUSE_NO":"２１號","E_COORD97":171195.26999999999,"N_COORD97":2544024.5699999998,"ADDRESS":"東光路二段２１號","OBJECTID":567375},"geometry":{"x":171195.27000000048,"y":2544024.5700000022}},{"attributes":{"ID":567403,"DIS_CODE":0,"TOWNNAME":"東區","LI":"莊敬里","LIN":"24鄰","STREET":"東光路","SECT":"二段","MAREA":" ","LANE":" ","ALLEY":" ","HOUSE_NO":"２３號","E_COORD97":171194.01999999999,"N_COORD97":2544029.8700000001,"ADDRESS":"東光路二段２３號","OBJECTID":567376},"geometry":{"x":171194.01999999955,"y":2544029.8700000048}},{"attributes":{"ID":567404,"DIS_CODE":0,"TOWNNAME":"永康區","LI":"埔園里","LIN":"37鄰","STREET":"龍國街","SECT":" ","MAREA":" ","LANE":" ","ALLEY":" ","HOUSE_NO":"１８１號","E_COORD97":174383.06,"N_COORD97":2548082.0800000001,"ADDRESS":"龍國街１８１號","OBJECTID":567377},"geometry":{"x":174383.06000000145,"y":2548082.0800000038}},{"attributes":{"ID":567405,"DIS_CODE":0,"TOWNNAME":"永康區","LI":"埔園里","LIN":"37鄰","STREET":"龍國街","SECT":" ","MAREA":" ","LANE":" ","ALLEY":" ","HOUSE_NO":"１７５號","E_COORD97":174382.45999999999,"N_COORD97":2548062.0800000001,"ADDRESS":"龍國街１７５號","OBJECTID":567378},"geometry":{"x":174382.46000000183,"y":2548062.0800000019}},{"attributes":{"ID":567406,"DIS_CODE":0,"TOWNNAME":"永康區","LI":"埔園里","LIN":"37鄰","STREET":"龍國街","SECT":" ","MAREA":" ","LANE":" ","ALLEY":" ","HOUSE_NO":"１３７號","E_COORD97":174323.25,"N_COORD97":2548071.29,"ADDRESS":"龍國街１３７號","OBJECTID":567379},"geometry":{"x":174323.25000000093,"y":2548071.2899999991}},{"attributes":{"ID":567407,"DIS_CODE":0,"TOWNNAME":"永康區","LI":"埔園里","LIN":"37鄰","STREET":"龍中街","SECT":" ","MAREA":" ","LANE":" ","ALLEY":" ","HOUSE_NO":"４４３號","E_COORD97":174394.35999999999,"N_COORD97":2548168.3700000001,"ADDRESS":"龍中街４４３號","OBJECTID":567380},"geometry":{"x":174394.36000000127,"y":2548168.370000001}},{"attributes":{"ID":567408,"DIS_CODE":0,"TOWNNAME":"東區","LI":"莊敬里","LIN":"15鄰","STREET":"東光路","SECT":"二段","MAREA":" ","LANE":" ","ALLEY":" ","HOUSE_NO":"４７號","E_COORD97":171201.76000000001,"N_COORD97":2544079.9300000002,"ADDRESS":"東光路二段４７號","OBJECTID":567381},"geometry":{"x":171201.76000000071,"y":2544079.9300000016}},{"attributes":{"ID":567409,"DIS_CODE":0,"TOWNNAME":"東區","LI":"莊敬里","LIN":"10鄰","STREET":"東光路","SECT":"二段","MAREA":" ","LANE":" ","ALLEY":" ","HOUSE_NO":"９２號","E_COORD97":171240.79999999999,"N_COORD97":2544203.7599999998,"ADDRESS":"東光路二段９２號","OBJECTID":567382},"geometry":{"x":171240.80000000075,"y":2544203.7599999998}},{"attributes":{"ID":567410,"DIS_CODE":0,"TOWNNAME":"東區","LI":"莊敬里","LIN":"9鄰","STREET":"東光路","SECT":"二段","MAREA":" ","LANE":" ","ALLEY":" ","HOUSE_NO":"９９號","E_COORD97":171213.63,"N_COORD97":2544193.3799999999,"ADDRESS":"東光路二段９９號","OBJECTID":567383},"geometry":{"x":171213.63000000082,"y":2544193.3800000027}},{"attributes":{"ID":567411,"DIS_CODE":0,"TOWNNAME":"永康區","LI":"埔園里","LIN":"37鄰","STREET":"龍中街","SECT":" ","MAREA":" ","LANE":" ","ALLEY":" ","HOUSE_NO":"４０３號之１","E_COORD97":174407.38,"N_COORD97":2548073.1899999999,"ADDRESS":"龍中街４０３號之１","OBJECTID":567384},"geometry":{"x":174407.37999999989,"y":2548073.1899999995}},{"attributes":{"ID":567412,"DIS_CODE":0,"TOWNNAME":"永康區","LI":"復興里","LIN":"28鄰","STREET":"興國街","SECT":" ","MAREA":" ","LANE":" ","ALLEY":" ","HOUSE_NO":"２６７號","E_COORD97":172334.48000000001,"N_COORD97":2545053.4900000002,"ADDRESS":"興國街２６７號","OBJECTID":567385},"geometry":{"x":172334.48000000045,"y":2545053.4900000021}},{"attributes":{"ID":567413,"DIS_CODE":0,"TOWNNAME":"佳里區","LI":"建南里","LIN":"37鄰","STREET":"四維二街","SECT":" ","MAREA":" ","LANE":" ","ALLEY":" ","HOUSE_NO":"１３２號","E_COORD97":165662.64000000001,"N_COORD97":2561301.1600000001,"ADDRESS":"四維二街１３２號","OBJECTID":567386},"geometry":{"x":165662.6400000006,"y":2561301.160000002}},{"attributes":{"ID":567414,"DIS_CODE":0,"TOWNNAME":"東區","LI":"和平里","LIN":"1鄰","STREET":"仁和路","SECT":" ","MAREA":" ","LANE":" ","ALLEY":" ","HOUSE_NO":"９號之１６","E_COORD97":171045.64000000001,"N_COORD97":2542220.71,"ADDRESS":"仁和路９號之１６","OBJECTID":567387},"geometry":{"x":171045.63999999966,"y":2542220.7100000028}},{"attributes":{"ID":567415,"DIS_CODE":0,"TOWNNAME":"佳里區","LI":"建南里","LIN":"37鄰","STREET":"四維二街","SECT":" ","MAREA":" ","LANE":" ","ALLEY":" ","HOUSE_NO":"１３４號","E_COORD97":165662.73000000001,"N_COORD97":2561297.2599999998,"ADDRESS":"四維二街１３４號","OBJECTID":567388},"geometry":{"x":165662.73000000231,"y":2561297.2600000016}},{"attributes":{"ID":567416,"DIS_CODE":0,"TOWNNAME":"佳里區","LI":"建南里","LIN":"37鄰","STREET":"四維三街","SECT":" ","MAREA":" ","LANE":" ","ALLEY":" ","HOUSE_NO":"５９號","E_COORD97":165554.48000000001,"N_COORD97":2561298.1400000001,"ADDRESS":"四維三街５９號","OBJECTID":567389},"geometry":{"x":165554.48000000138,"y":2561298.1400000043}},{"attributes":{"ID":567417,"DIS_CODE":0,"TOWNNAME":"佳里區","LI":"建南里","LIN":"37鄰","STREET":"四維三街","SECT":" ","MAREA":" ","LANE":" ","ALLEY":" ","HOUSE_NO":"６０號","E_COORD97":165528.60000000001,"N_COORD97":2561275.3900000001,"ADDRESS":"四維三街６０號","OBJECTID":567390},"geometry":{"x":165528.59999999963,"y":2561275.3900000006}},{"attributes":{"ID":567418,"DIS_CODE":0,"TOWNNAME":"佳里區","LI":"建南里","LIN":"37鄰","STREET":"四維三街","SECT":" ","MAREA":" ","LANE":" ","ALLEY":" ","HOUSE_NO":"６１號","E_COORD97":165553.98000000001,"N_COORD97":2561292.4199999999,"ADDRESS":"四維三街６１號","OBJECTID":567391},"geometry":{"x":165553.98000000045,"y":2561292.4200000018}},{"attributes":{"ID":567419,"DIS_CODE":0,"TOWNNAME":"佳里區","LI":"建南里","LIN":"37鄰","STREET":"四維三街","SECT":" ","MAREA":" ","LANE":" ","ALLEY":" ","HOUSE_NO":"６２號","E_COORD97":165527.64999999999,"N_COORD97":2561270.1499999999,"ADDRESS":"四維三街６２號","OBJECTID":567392},"geometry":{"x":165527.6500000013,"y":2561270.1500000004}},{"attributes":{"ID":567420,"DIS_CODE":0,"TOWNNAME":"佳里區","LI":"建南里","LIN":"37鄰","STREET":"四維三街","SECT":" ","MAREA":" ","LANE":" ","ALLEY":" ","HOUSE_NO":"６３號","E_COORD97":165553.60000000001,"N_COORD97":2561287.4700000002,"ADDRESS":"四維三街６３號","OBJECTID":567393},"geometry":{"x":165553.59999999963,"y":2561287.4700000007}},{"attributes":{"ID":567421,"DIS_CODE":0,"TOWNNAME":"佳里區","LI":"建南里","LIN":"37鄰","STREET":"四維三街","SECT":" ","MAREA":" ","LANE":" ","ALLEY":" ","HOUSE_NO":"６４號","E_COORD97":165527.44,"N_COORD97":2561265.6000000001,"ADDRESS":"四維三街６４號","OBJECTID":567394},"geometry":{"x":165527.44000000134,"y":2561265.5999999996}},{"attributes":{"ID":567422,"DIS_CODE":0,"TOWNNAME":"佳里區","LI":"建南里","LIN":"37鄰","STREET":"四維三街","SECT":" ","MAREA":" ","LANE":" ","ALLEY":" ","HOUSE_NO":"６９號","E_COORD97":165549.53,"N_COORD97":2561278.54,"ADDRESS":"四維三街６９號","OBJECTID":567395},"geometry":{"x":165549.53000000026,"y":2561278.5399999991}},{"attributes":{"ID":567423,"DIS_CODE":0,"TOWNNAME":"佳里區","LI":"建南里","LIN":"37鄰","STREET":"四維三街","SECT":" ","MAREA":" ","LANE":" ","ALLEY":" ","HOUSE_NO":"７１號","E_COORD97":165548.79999999999,"N_COORD97":2561272.75,"ADDRESS":"四維三街７１號","OBJECTID":567396},"geometry":{"x":165548.79999999981,"y":2561272.7500000037}},{"attributes":{"ID":567424,"DIS_CODE":0,"TOWNNAME":"佳里區","LI":"建南里","LIN":"37鄰","STREET":"四維三街","SECT":" ","MAREA":" ","LANE":" ","ALLEY":" ","HOUSE_NO":"７３號","E_COORD97":165547.54000000001,"N_COORD97":2561266.9300000002,"ADDRESS":"四維三街７３號","OBJECTID":567397},"geometry":{"x":165547.54000000004,"y":2561266.9299999997}},{"attributes":{"ID":567425,"DIS_CODE":0,"TOWNNAME":"佳里區","LI":"建南里","LIN":"37鄰","STREET":"四維三街","SECT":" ","MAREA":" ","LANE":" ","ALLEY":" ","HOUSE_NO":"７５號","E_COORD97":165546.25,"N_COORD97":2561262.04,"ADDRESS":"四維三街７５號","OBJECTID":567398},"geometry":{"x":165546.25,"y":2561262.0399999991}},{"attributes":{"ID":567426,"DIS_CODE":0,"TOWNNAME":"佳里區","LI":"建南里","LIN":"37鄰","STREET":"安南路","SECT":" ","MAREA":" ","LANE":" ","ALLEY":" ","HOUSE_NO":"１６３號","E_COORD97":165660.73999999999,"N_COORD97":2561324.5499999998,"ADDRESS":"安南路１６３號","OBJECTID":567399},"geometry":{"x":165660.74000000209,"y":2561324.5500000007}},{"attributes":{"ID":567427,"DIS_CODE":0,"TOWNNAME":"佳里區","LI":"建南里","LIN":"37鄰","STREET":"安南路","SECT":" ","MAREA":" ","LANE":" ","ALLEY":" ","HOUSE_NO":"１６５號","E_COORD97":165656.14999999999,"N_COORD97":2561324.6400000001,"ADDRESS":"安南路１６５號","OBJECTID":567400},"geometry":{"x":165656.15000000037,"y":2561324.6400000006}}]}