{"displayFieldName":"TOWNNAME","fieldAliases":{"ID":"ID","DIS_CODE":"DIS_CODE","TOWNNAME":"TOWNNAME","LI":"LI","LIN":"LIN","STREET":"STREET","SECT":"SECT","MAREA":"MAREA","LANE":"LANE","ALLEY":"ALLEY","HOUSE_NO":"HOUSE_NO","E_COORD97":"E_COORD97","N_COORD97":"N_COORD97","ADDRESS":"ADDRESS","OBJECTID":"OBJECTID"},"geometryType":"esriGeometryPoint","spatialReference":{"wkid":102443,"latestWkid":3826},"fields":[{"name":"ID","type":"esriFieldTypeDouble","alias":"ID"},{"name":"DIS_CODE","type":"esriFieldTypeInteger","alias":"DIS_CODE"},{"name":"TOWNNAME","type":"esriFieldTypeString","alias":"TOWNNAME","length":8},{"name":"LI","type":"esriFieldTypeString","alias":"LI","length":8},{"name":"LIN","type":"esriFieldTypeString","alias":"LIN","length":12},{"name":"STREET","type":"esriFieldTypeString","alias":"STREET","length":20},{"name":"SECT","type":"esriFieldTypeString","alias":"SECT","length":8},{"name":"MAREA","type":"esriFieldTypeString","alias":"MAREA","length":12},{"name":"LANE","type":"esriFieldTypeString","alias":"LANE","length":10},{"name":"ALLEY","type":"esriFieldTypeString","alias":"ALLEY","length":10},{"name":"HOUSE_NO","type":"esriFieldTypeString","alias":"HOUSE_NO","length":20},{"name":"E_COORD97","type":"esriFieldTypeDouble","alias":"E_COORD97"},{"name":"N_COORD97","type":"esriFieldTypeDouble","alias":"N_COORD97"},{"name":"ADDRESS","type":"esriFieldTypeString","alias":"ADDRESS","length":50},{"name":"OBJECTID","type":"esriFieldTypeOID","alias":"OBJECTID"}],"features":[{"attributes":{"ID":121601,"DIS_CODE":0,"TOWNNAME":"永康區","LI":"三合里","LIN":"16鄰","STREET":"南工街","SECT":" ","MAREA":" ","LANE":"２４７巷","ALLEY":"２弄","HOUSE_NO":"１５號","E_COORD97":171942.34,"N_COORD97":2545911.5600000001,"ADDRESS":"南工街２４７巷２弄１５號","OBJECTID":121601},"geometry":{"x":171942.34000000078,"y":2545911.5600000005}},{"attributes":{"ID":121602,"DIS_CODE":0,"TOWNNAME":"永康區","LI":"三合里","LIN":"16鄰","STREET":"南工街","SECT":" ","MAREA":" ","LANE":"２４７巷","ALLEY":"４弄","HOUSE_NO":"１８號","E_COORD97":171933.95999999999,"N_COORD97":2545881.9900000002,"ADDRESS":"南工街２４７巷４弄１８號","OBJECTID":121602},"geometry":{"x":171933.95999999996,"y":2545881.9900000002}},{"attributes":{"ID":121603,"DIS_CODE":0,"TOWNNAME":"永康區","LI":"三合里","LIN":"16鄰","STREET":"南工街","SECT":" ","MAREA":" ","LANE":"２４７巷","ALLEY":"２弄","HOUSE_NO":"２號","E_COORD97":171971.91,"N_COORD97":2545919.75,"ADDRESS":"南工街２４７巷２弄２號","OBJECTID":121603},"geometry":{"x":171971.91000000015,"y":2545919.75}},{"attributes":{"ID":121604,"DIS_CODE":0,"TOWNNAME":"永康區","LI":"三合里","LIN":"16鄰","STREET":"南工街","SECT":" ","MAREA":" ","LANE":"２４７巷","ALLEY":"２弄","HOUSE_NO":"１８號","E_COORD97":171940.60000000001,"N_COORD97":2545924.5,"ADDRESS":"南工街２４７巷２弄１８號","OBJECTID":121604},"geometry":{"x":171940.60000000056,"y":2545924.5000000019}},{"attributes":{"ID":121605,"DIS_CODE":0,"TOWNNAME":"永康區","LI":"三合里","LIN":"16鄰","STREET":"南工街","SECT":" ","MAREA":" ","LANE":"２４７巷","ALLEY":"４弄","HOUSE_NO":"３號","E_COORD97":171958.5,"N_COORD97":2545866.3599999999,"ADDRESS":"南工街２４７巷４弄３號","OBJECTID":121605},"geometry":{"x":171958.50000000093,"y":2545866.3600000013}},{"attributes":{"ID":121606,"DIS_CODE":0,"TOWNNAME":"永康區","LI":"二王里","LIN":"16鄰","STREET":"忠孝路","SECT":" ","MAREA":" ","LANE":"４５０巷","ALLEY":"１６弄","HOUSE_NO":"９號","E_COORD97":172540.26000000001,"N_COORD97":2546588.0499999998,"ADDRESS":"忠孝路４５０巷１６弄９號","OBJECTID":121606},"geometry":{"x":172540.25999999978,"y":2546588.0500000045}},{"attributes":{"ID":121607,"DIS_CODE":0,"TOWNNAME":"中西區","LI":"五妃里","LIN":"16鄰","STREET":"慶中街","SECT":" ","MAREA":" ","LANE":"２０６巷","ALLEY":"６弄","HOUSE_NO":"２號","E_COORD97":168593.57000000001,"N_COORD97":2542800.96,"ADDRESS":"慶中街２０６巷６弄２號","OBJECTID":121607},"geometry":{"x":168593.57000000123,"y":2542800.9600000009}},{"attributes":{"ID":121608,"DIS_CODE":0,"TOWNNAME":"中西區","LI":"五妃里","LIN":"16鄰","STREET":"慶中街","SECT":" ","MAREA":" ","LANE":"２０６巷","ALLEY":"６弄","HOUSE_NO":"４號","E_COORD97":168588.97,"N_COORD97":2542801.7200000002,"ADDRESS":"慶中街２０６巷６弄４號","OBJECTID":121608},"geometry":{"x":168588.96999999974,"y":2542801.7200000007}},{"attributes":{"ID":121609,"DIS_CODE":0,"TOWNNAME":"中西區","LI":"五妃里","LIN":"16鄰","STREET":"慶中街","SECT":" ","MAREA":" ","LANE":"２０６巷","ALLEY":"６弄","HOUSE_NO":"６號","E_COORD97":168584.12,"N_COORD97":2542802.6099999999,"ADDRESS":"慶中街２０６巷６弄６號","OBJECTID":121609},"geometry":{"x":168584.12000000104,"y":2542802.6100000013}},{"attributes":{"ID":121610,"DIS_CODE":0,"TOWNNAME":"中西區","LI":"五妃里","LIN":"16鄰","STREET":"慶中街","SECT":" ","MAREA":" ","LANE":"２０６巷","ALLEY":"６弄","HOUSE_NO":"８號","E_COORD97":168580.04000000001,"N_COORD97":2542803.7599999998,"ADDRESS":"慶中街２０６巷６弄８號","OBJECTID":121610},"geometry":{"x":168580.04000000097,"y":2542803.7599999998}},{"attributes":{"ID":121611,"DIS_CODE":0,"TOWNNAME":"永康區","LI":"網寮里","LIN":"16鄰","STREET":"永二街","SECT":" ","MAREA":" ","LANE":"２４４巷","ALLEY":"４８弄","HOUSE_NO":"１號","E_COORD97":173281.84,"N_COORD97":2546637.75,"ADDRESS":"永二街２４４巷４８弄１號","OBJECTID":121611},"geometry":{"x":173281.84000000078,"y":2546637.7500000019}},{"attributes":{"ID":121612,"DIS_CODE":0,"TOWNNAME":"仁德區","LI":"大甲里","LIN":"13鄰","STREET":"行大一街","SECT":" ","MAREA":" ","LANE":" ","ALLEY":" ","HOUSE_NO":"３３４號","E_COORD97":169557.70000000001,"N_COORD97":2535168.9900000002,"ADDRESS":"行大一街３３４號","OBJECTID":121612},"geometry":{"x":169557.70000000019,"y":2535168.9900000039}},{"attributes":{"ID":121613,"DIS_CODE":0,"TOWNNAME":"麻豆區","LI":"總榮里","LIN":"1鄰","STREET":" ","SECT":" ","MAREA":"總爺\u25A0","LANE":" ","ALLEY":" ","HOUSE_NO":"３號之３０","E_COORD97":174960.56,"N_COORD97":2564721.6299999999,"ADDRESS":"總爺\u25A0３號之３０","OBJECTID":121613},"geometry":{"x":174960.55999999959,"y":2564721.6300000008}},{"attributes":{"ID":121614,"DIS_CODE":0,"TOWNNAME":"永康區","LI":"網寮里","LIN":"16鄰","STREET":"永二街","SECT":" ","MAREA":" ","LANE":"２４４巷","ALLEY":"４８弄","HOUSE_NO":"５號","E_COORD97":173291.64000000001,"N_COORD97":2546635,"ADDRESS":"永二街２４４巷４８弄５號","OBJECTID":121614},"geometry":{"x":173291.63999999966,"y":2546635.0000000037}},{"attributes":{"ID":121615,"DIS_CODE":0,"TOWNNAME":"永康區","LI":"復興里","LIN":"16鄰","STREET":"復興路","SECT":" ","MAREA":" ","LANE":"３５６巷","ALLEY":"４１弄","HOUSE_NO":"１號","E_COORD97":172284.17999999999,"N_COORD97":2544458.5299999998,"ADDRESS":"復興路３５６巷４１弄１號","OBJECTID":121615},"geometry":{"x":172284.18000000063,"y":2544458.5300000012}},{"attributes":{"ID":121616,"DIS_CODE":0,"TOWNNAME":"西港區","LI":"港東里","LIN":"15鄰","STREET":" ","SECT":" ","MAREA":"八份","LANE":" ","ALLEY":" ","HOUSE_NO":"３４號","E_COORD97":169983.29000000001,"N_COORD97":2558633.29,"ADDRESS":"八份３４號","OBJECTID":121616},"geometry":{"x":169983.29000000097,"y":2558633.2899999991}},{"attributes":{"ID":121617,"DIS_CODE":0,"TOWNNAME":"永康區","LI":"復興里","LIN":"16鄰","STREET":"復興路","SECT":" ","MAREA":" ","LANE":"３５６巷","ALLEY":"４１弄","HOUSE_NO":"４號","E_COORD97":172272,"N_COORD97":2544458.5299999998,"ADDRESS":"復興路３５６巷４１弄４號","OBJECTID":121617},"geometry":{"x":172272.00000000093,"y":2544458.5300000012}},{"attributes":{"ID":121618,"DIS_CODE":0,"TOWNNAME":"永康區","LI":"網寮里","LIN":"16鄰","STREET":"永二街","SECT":" ","MAREA":" ","LANE":"２４４巷","ALLEY":"６２弄","HOUSE_NO":"２號","E_COORD97":173283.76999999999,"N_COORD97":2546703.29,"ADDRESS":"永二街２４４巷６２弄２號","OBJECTID":121618},"geometry":{"x":173283.77000000048,"y":2546703.2900000028}},{"attributes":{"ID":121619,"DIS_CODE":0,"TOWNNAME":"永康區","LI":"網寮里","LIN":"16鄰","STREET":"永興路","SECT":" ","MAREA":" ","LANE":"４２７巷","ALLEY":"２３弄","HOUSE_NO":"８號","E_COORD97":173282.92999999999,"N_COORD97":2546782.9500000002,"ADDRESS":"永興路４２７巷２３弄８號","OBJECTID":121619},"geometry":{"x":173282.9299999997,"y":2546782.9499999993}},{"attributes":{"ID":121620,"DIS_CODE":0,"TOWNNAME":"永康區","LI":"網寮里","LIN":"16鄰","STREET":"永二街","SECT":" ","MAREA":" ","LANE":"２４４巷","ALLEY":"６２弄","HOUSE_NO":"７號","E_COORD97":173278.92000000001,"N_COORD97":2546719.0299999998,"ADDRESS":"永二街２４４巷６２弄７號","OBJECTID":121620},"geometry":{"x":173278.91999999899,"y":2546719.0300000012}},{"attributes":{"ID":121621,"DIS_CODE":0,"TOWNNAME":"永康區","LI":"網寮里","LIN":"16鄰","STREET":"永二街","SECT":" ","MAREA":" ","LANE":"２４４巷","ALLEY":"６２弄","HOUSE_NO":"８號","E_COORD97":173285.32000000001,"N_COORD97":2546686.04,"ADDRESS":"永二街２４４巷６２弄８號","OBJECTID":121621},"geometry":{"x":173285.32000000123,"y":2546686.040000001}},{"attributes":{"ID":121622,"DIS_CODE":0,"TOWNNAME":"安南區","LI":"安慶里","LIN":"16鄰","STREET":"安中路","SECT":"一段","MAREA":" ","LANE":"１８９巷","ALLEY":"４１弄","HOUSE_NO":"１號","E_COORD97":168788.85000000001,"N_COORD97":2548372.6099999999,"ADDRESS":"安中路一段１８９巷４１弄１號","OBJECTID":121622},"geometry":{"x":168788.85000000056,"y":2548372.6100000031}},{"attributes":{"ID":121623,"DIS_CODE":0,"TOWNNAME":"安南區","LI":"安慶里","LIN":"16鄰","STREET":"安中路","SECT":"一段","MAREA":" ","LANE":"１８９巷","ALLEY":"４１弄","HOUSE_NO":"３號","E_COORD97":168792.32999999999,"N_COORD97":2548372.8599999999,"ADDRESS":"安中路一段１８９巷４１弄３號","OBJECTID":121623},"geometry":{"x":168792.33000000007,"y":2548372.8599999994}},{"attributes":{"ID":121624,"DIS_CODE":0,"TOWNNAME":"安南區","LI":"安慶里","LIN":"16鄰","STREET":"安中路","SECT":"一段","MAREA":" ","LANE":"１８９巷","ALLEY":"４１弄","HOUSE_NO":"５號","E_COORD97":168796.47,"N_COORD97":2548373.0499999998,"ADDRESS":"安中路一段１８９巷４１弄５號","OBJECTID":121624},"geometry":{"x":168796.4700000016,"y":2548373.0500000007}},{"attributes":{"ID":121625,"DIS_CODE":0,"TOWNNAME":"安南區","LI":"安慶里","LIN":"16鄰","STREET":"安中路","SECT":"一段","MAREA":" ","LANE":"１８９巷","ALLEY":"４１弄","HOUSE_NO":"７號","E_COORD97":168800.73999999999,"N_COORD97":2548373.5899999999,"ADDRESS":"安中路一段１８９巷４１弄７號","OBJECTID":121625},"geometry":{"x":168800.74000000115,"y":2548373.5900000036}},{"attributes":{"ID":121626,"DIS_CODE":0,"TOWNNAME":"安南區","LI":"安慶里","LIN":"16鄰","STREET":"安中路","SECT":"一段","MAREA":" ","LANE":"１８９巷","ALLEY":"４１弄","HOUSE_NO":"９號","E_COORD97":168804.39999999999,"N_COORD97":2548373.7799999998,"ADDRESS":"安中路一段１８９巷４１弄９號","OBJECTID":121626},"geometry":{"x":168804.40000000224,"y":2548373.7799999993}},{"attributes":{"ID":121627,"DIS_CODE":0,"TOWNNAME":"安南區","LI":"安慶里","LIN":"16鄰","STREET":"安中路","SECT":"一段","MAREA":" ","LANE":"１８９巷","ALLEY":"４１弄","HOUSE_NO":"１１號","E_COORD97":168808.78,"N_COORD97":2548374.3900000001,"ADDRESS":"安中路一段１８９巷４１弄１１號","OBJECTID":121627},"geometry":{"x":168808.78000000119,"y":2548374.3900000006}},{"attributes":{"ID":121628,"DIS_CODE":0,"TOWNNAME":"安南區","LI":"安慶里","LIN":"16鄰","STREET":"安中路","SECT":"一段","MAREA":" ","LANE":"１８９巷","ALLEY":"４１弄","HOUSE_NO":"１３號","E_COORD97":168812.20000000001,"N_COORD97":2548374.75,"ADDRESS":"安中路一段１８９巷４１弄１３號","OBJECTID":121628},"geometry":{"x":168812.20000000205,"y":2548374.75}},{"attributes":{"ID":121629,"DIS_CODE":0,"TOWNNAME":"安南區","LI":"安慶里","LIN":"16鄰","STREET":"安中路","SECT":"一段","MAREA":" ","LANE":"１８９巷","ALLEY":"４１弄","HOUSE_NO":"１５號","E_COORD97":168816.95000000001,"N_COORD97":2548375.3599999999,"ADDRESS":"安中路一段１８９巷４１弄１５號","OBJECTID":121629},"geometry":{"x":168816.95000000019,"y":2548375.3600000013}},{"attributes":{"ID":121630,"DIS_CODE":0,"TOWNNAME":"安南區","LI":"安慶里","LIN":"16鄰","STREET":"安中路","SECT":"一段","MAREA":" ","LANE":"１８９巷","ALLEY":"４１弄","HOUSE_NO":"２１號","E_COORD97":168828,"N_COORD97":2548375.6800000002,"ADDRESS":"安中路一段１８９巷４１弄２１號","OBJECTID":121630},"geometry":{"x":168828,"y":2548375.6799999997}},{"attributes":{"ID":121631,"DIS_CODE":0,"TOWNNAME":"安南區","LI":"安慶里","LIN":"16鄰","STREET":"安中路","SECT":"一段","MAREA":" ","LANE":"１８９巷","ALLEY":"４１弄","HOUSE_NO":"２３號","E_COORD97":168831.87,"N_COORD97":2548376.5299999998,"ADDRESS":"安中路一段１８９巷４１弄２３號","OBJECTID":121631},"geometry":{"x":168831.87000000104,"y":2548376.5300000031}},{"attributes":{"ID":121632,"DIS_CODE":0,"TOWNNAME":"安南區","LI":"安慶里","LIN":"16鄰","STREET":"安中路","SECT":"一段","MAREA":" ","LANE":"１８９巷","ALLEY":"４１弄","HOUSE_NO":"２５號","E_COORD97":168836.12,"N_COORD97":2548377.1299999999,"ADDRESS":"安中路一段１８９巷４１弄２５號","OBJECTID":121632},"geometry":{"x":168836.12000000011,"y":2548377.1300000008}},{"attributes":{"ID":121633,"DIS_CODE":0,"TOWNNAME":"安南區","LI":"安慶里","LIN":"16鄰","STREET":"安中路","SECT":"一段","MAREA":" ","LANE":"１８９巷","ALLEY":"４１弄","HOUSE_NO":"２７號","E_COORD97":168839.79000000001,"N_COORD97":2548377.3999999999,"ADDRESS":"安中路一段１８９巷４１弄２７號","OBJECTID":121633},"geometry":{"x":168839.79000000004,"y":2548377.4000000004}},{"attributes":{"ID":121634,"DIS_CODE":0,"TOWNNAME":"安南區","LI":"安慶里","LIN":"16鄰","STREET":"安中路","SECT":"一段","MAREA":" ","LANE":"１８９巷","ALLEY":"４１弄","HOUSE_NO":"２號","E_COORD97":168792.04999999999,"N_COORD97":2548344.9900000002,"ADDRESS":"安中路一段１８９巷４１弄２號","OBJECTID":121634},"geometry":{"x":168792.04999999981,"y":2548344.9900000021}},{"attributes":{"ID":121635,"DIS_CODE":0,"TOWNNAME":"安南區","LI":"安慶里","LIN":"16鄰","STREET":"安中路","SECT":"一段","MAREA":" ","LANE":"１８９巷","ALLEY":"４１弄","HOUSE_NO":"４號","E_COORD97":168796.35000000001,"N_COORD97":2548344.5,"ADDRESS":"安中路一段１８９巷４１弄４號","OBJECTID":121635},"geometry":{"x":168796.34999999963,"y":2548344.5000000019}},{"attributes":{"ID":121636,"DIS_CODE":0,"TOWNNAME":"麻豆區","LI":"總榮里","LIN":"1鄰","STREET":" ","SECT":" ","MAREA":"總爺\u25A0","LANE":" ","ALLEY":" ","HOUSE_NO":"３號之３１","E_COORD97":174956.88,"N_COORD97":2564717.4900000002,"ADDRESS":"總爺\u25A0３號之３１","OBJECTID":121636},"geometry":{"x":174956.87999999989,"y":2564717.4900000021}},{"attributes":{"ID":121637,"DIS_CODE":0,"TOWNNAME":"麻豆區","LI":"總榮里","LIN":"1鄰","STREET":" ","SECT":" ","MAREA":"總爺\u25A0","LANE":" ","ALLEY":" ","HOUSE_NO":"３號之３２","E_COORD97":174953.5,"N_COORD97":2564714.3999999999,"ADDRESS":"總爺\u25A0３號之３２","OBJECTID":121637},"geometry":{"x":174953.50000000186,"y":2564714.4000000022}},{"attributes":{"ID":121638,"DIS_CODE":0,"TOWNNAME":"麻豆區","LI":"總榮里","LIN":"1鄰","STREET":" ","SECT":" ","MAREA":"總爺\u25A0","LANE":" ","ALLEY":" ","HOUSE_NO":"３號之３３","E_COORD97":174950.29999999999,"N_COORD97":2564710.9100000001,"ADDRESS":"總爺\u25A0３號之３３","OBJECTID":121638},"geometry":{"x":174950.29999999981,"y":2564710.910000002}},{"attributes":{"ID":121639,"DIS_CODE":0,"TOWNNAME":"麻豆區","LI":"總榮里","LIN":"1鄰","STREET":" ","SECT":" ","MAREA":"總爺\u25A0","LANE":" ","ALLEY":" ","HOUSE_NO":"３號之３４","E_COORD97":174947.42000000001,"N_COORD97":2564707.7200000002,"ADDRESS":"總爺\u25A0３號之３４","OBJECTID":121639},"geometry":{"x":174947.42000000086,"y":2564707.7200000007}},{"attributes":{"ID":121640,"DIS_CODE":0,"TOWNNAME":"麻豆區","LI":"總榮里","LIN":"1鄰","STREET":" ","SECT":" ","MAREA":"總爺\u25A0","LANE":" ","ALLEY":" ","HOUSE_NO":"３號之３５","E_COORD97":174944.72,"N_COORD97":2564704.0299999998,"ADDRESS":"總爺\u25A0３號之３５","OBJECTID":121640},"geometry":{"x":174944.71999999881,"y":2564704.0299999993}},{"attributes":{"ID":121641,"DIS_CODE":0,"TOWNNAME":"麻豆區","LI":"總榮里","LIN":"1鄰","STREET":" ","SECT":" ","MAREA":"總爺\u25A0","LANE":" ","ALLEY":" ","HOUSE_NO":"３號之３６","E_COORD97":174941.29999999999,"N_COORD97":2564700.7400000002,"ADDRESS":"總爺\u25A0３號之３６","OBJECTID":121641},"geometry":{"x":174941.30000000075,"y":2564700.7400000039}},{"attributes":{"ID":121642,"DIS_CODE":0,"TOWNNAME":"麻豆區","LI":"總榮里","LIN":"1鄰","STREET":" ","SECT":" ","MAREA":"總爺\u25A0","LANE":" ","ALLEY":" ","HOUSE_NO":"３號之３７","E_COORD97":174938.25,"N_COORD97":2564696.9100000001,"ADDRESS":"總爺\u25A0３號之３７","OBJECTID":121642},"geometry":{"x":174938.25000000186,"y":2564696.910000002}},{"attributes":{"ID":121643,"DIS_CODE":0,"TOWNNAME":"麻豆區","LI":"總榮里","LIN":"1鄰","STREET":" ","SECT":" ","MAREA":"總爺\u25A0","LANE":" ","ALLEY":" ","HOUSE_NO":"３號之３８","E_COORD97":174934.98999999999,"N_COORD97":2564693.54,"ADDRESS":"總爺\u25A0３號之３８","OBJECTID":121643},"geometry":{"x":174934.99000000209,"y":2564693.5399999991}},{"attributes":{"ID":121644,"DIS_CODE":0,"TOWNNAME":"麻豆區","LI":"總榮里","LIN":"1鄰","STREET":" ","SECT":" ","MAREA":"總爺\u25A0","LANE":" ","ALLEY":" ","HOUSE_NO":"３號之３９","E_COORD97":174932.97,"N_COORD97":2564688.4100000001,"ADDRESS":"總爺\u25A0３號之３９","OBJECTID":121644},"geometry":{"x":174932.9700000016,"y":2564688.4100000001}},{"attributes":{"ID":121645,"DIS_CODE":0,"TOWNNAME":"安南區","LI":"安慶里","LIN":"16鄰","STREET":"安中路","SECT":"一段","MAREA":" ","LANE":"１８９巷","ALLEY":"４１弄","HOUSE_NO":"６號","E_COORD97":168800.07000000001,"N_COORD97":2548344.3100000001,"ADDRESS":"安中路一段１８９巷４１弄６號","OBJECTID":121645},"geometry":{"x":168800.07000000123,"y":2548344.3100000005}},{"attributes":{"ID":121646,"DIS_CODE":0,"TOWNNAME":"麻豆區","LI":"總榮里","LIN":"1鄰","STREET":" ","SECT":" ","MAREA":"總爺\u25A0","LANE":" ","ALLEY":" ","HOUSE_NO":"３號之３","E_COORD97":174947.85000000001,"N_COORD97":2564781.8300000001,"ADDRESS":"總爺\u25A0３號之３","OBJECTID":121646},"geometry":{"x":174947.85000000056,"y":2564781.8300000019}},{"attributes":{"ID":121647,"DIS_CODE":0,"TOWNNAME":"安南區","LI":"安慶里","LIN":"16鄰","STREET":"安中路","SECT":"一段","MAREA":" ","LANE":"１８９巷","ALLEY":"４１弄","HOUSE_NO":"８號","E_COORD97":168804.07999999999,"N_COORD97":2548344.6000000001,"ADDRESS":"安中路一段１８９巷４１弄８號","OBJECTID":121647},"geometry":{"x":168804.08000000007,"y":2548344.5999999996}},{"attributes":{"ID":121648,"DIS_CODE":0,"TOWNNAME":"安南區","LI":"安慶里","LIN":"16鄰","STREET":"安中路","SECT":"一段","MAREA":" ","LANE":"１８９巷","ALLEY":"４１弄","HOUSE_NO":"１０號","E_COORD97":168808.17999999999,"N_COORD97":2548344.7000000002,"ADDRESS":"安中路一段１８９巷４１弄１０號","OBJECTID":121648},"geometry":{"x":168808.1799999997,"y":2548344.700000003}},{"attributes":{"ID":121649,"DIS_CODE":0,"TOWNNAME":"安南區","LI":"安慶里","LIN":"16鄰","STREET":"安中路","SECT":"一段","MAREA":" ","LANE":"１８９巷","ALLEY":"４１弄","HOUSE_NO":"１２號","E_COORD97":168812.19,"N_COORD97":2548344.8900000001,"ADDRESS":"安中路一段１８９巷４１弄１２號","OBJECTID":121649},"geometry":{"x":168812.19000000041,"y":2548344.8900000043}},{"attributes":{"ID":121650,"DIS_CODE":0,"TOWNNAME":"安南區","LI":"安慶里","LIN":"16鄰","STREET":"安中路","SECT":"一段","MAREA":" ","LANE":"１８９巷","ALLEY":"４１弄","HOUSE_NO":"１８號","E_COORD97":168823.91,"N_COORD97":2548345.2000000002,"ADDRESS":"安中路一段１８９巷４１弄１８號","OBJECTID":121650},"geometry":{"x":168823.91000000015,"y":2548345.2000000011}},{"attributes":{"ID":121651,"DIS_CODE":0,"TOWNNAME":"安南區","LI":"安慶里","LIN":"16鄰","STREET":"安中路","SECT":"一段","MAREA":" ","LANE":"１８９巷","ALLEY":"４１弄","HOUSE_NO":"２０號","E_COORD97":168827.73000000001,"N_COORD97":2548345.8199999998,"ADDRESS":"安中路一段１８９巷４１弄２０號","OBJECTID":121651},"geometry":{"x":168827.73000000138,"y":2548345.8200000022}},{"attributes":{"ID":121652,"DIS_CODE":0,"TOWNNAME":"安南區","LI":"安慶里","LIN":"16鄰","STREET":"安中路","SECT":"一段","MAREA":" ","LANE":"１８９巷","ALLEY":"４１弄","HOUSE_NO":"２２號","E_COORD97":168832.51000000001,"N_COORD97":2548346.4300000002,"ADDRESS":"安中路一段１８９巷４１弄２２號","OBJECTID":121652},"geometry":{"x":168832.51000000071,"y":2548346.4299999997}},{"attributes":{"ID":121653,"DIS_CODE":0,"TOWNNAME":"安南區","LI":"安慶里","LIN":"16鄰","STREET":"安中路","SECT":"一段","MAREA":" ","LANE":"１８９巷","ALLEY":"４１弄","HOUSE_NO":"２４號","E_COORD97":168835.64000000001,"N_COORD97":2548347.79,"ADDRESS":"安中路一段１８９巷４１弄２４號","OBJECTID":121653},"geometry":{"x":168835.63999999966,"y":2548347.790000001}},{"attributes":{"ID":121654,"DIS_CODE":0,"TOWNNAME":"安南區","LI":"長安里","LIN":"16鄰","STREET":"長溪路","SECT":"三段","MAREA":" ","LANE":"３７３巷","ALLEY":"２１弄","HOUSE_NO":"１２５號","E_COORD97":167673.63,"N_COORD97":2551773.1200000001,"ADDRESS":"長溪路三段３７３巷２１弄１２５號","OBJECTID":121654},"geometry":{"x":167673.63000000082,"y":2551773.1200000029}},{"attributes":{"ID":121655,"DIS_CODE":0,"TOWNNAME":"永康區","LI":"中華里","LIN":"16鄰","STREET":"小東路","SECT":" ","MAREA":" ","LANE":"４７７巷","ALLEY":"２８弄","HOUSE_NO":"１６號","E_COORD97":171673.23000000001,"N_COORD97":2544419.3100000001,"ADDRESS":"小東路４７７巷２８弄１６號","OBJECTID":121655},"geometry":{"x":171673.23000000045,"y":2544419.3100000042}},{"attributes":{"ID":121656,"DIS_CODE":0,"TOWNNAME":"永康區","LI":"中華里","LIN":"16鄰","STREET":"小東路","SECT":" ","MAREA":" ","LANE":"４７７巷","ALLEY":"２８弄","HOUSE_NO":"２８號","E_COORD97":171699.82999999999,"N_COORD97":2544420.77,"ADDRESS":"小東路４７７巷２８弄２８號","OBJECTID":121656},"geometry":{"x":171699.83000000194,"y":2544420.7699999996}},{"attributes":{"ID":121657,"DIS_CODE":0,"TOWNNAME":"永康區","LI":"中華里","LIN":"16鄰","STREET":"小東路","SECT":" ","MAREA":" ","LANE":"４７７巷","ALLEY":"２８弄","HOUSE_NO":"６號","E_COORD97":171650.16,"N_COORD97":2544419.3100000001,"ADDRESS":"小東路４７７巷２８弄６號","OBJECTID":121657},"geometry":{"x":171650.16000000201,"y":2544419.3100000042}},{"attributes":{"ID":121658,"DIS_CODE":0,"TOWNNAME":"永康區","LI":"中華里","LIN":"16鄰","STREET":"小東路","SECT":" ","MAREA":" ","LANE":"４７７巷","ALLEY":"２８弄","HOUSE_NO":"２２號","E_COORD97":171686.73999999999,"N_COORD97":2544420.04,"ADDRESS":"小東路４７７巷２８弄２２號","OBJECTID":121658},"geometry":{"x":171686.74000000022,"y":2544420.040000001}},{"attributes":{"ID":121659,"DIS_CODE":0,"TOWNNAME":"永康區","LI":"中華里","LIN":"16鄰","STREET":"小東路","SECT":" ","MAREA":" ","LANE":"４７７巷","ALLEY":"１０弄","HOUSE_NO":"５號","E_COORD97":171650.26999999999,"N_COORD97":2544383.8999999999,"ADDRESS":"小東路４７７巷１０弄５號","OBJECTID":121659},"geometry":{"x":171650.26999999955,"y":2544383.9000000004}},{"attributes":{"ID":121660,"DIS_CODE":0,"TOWNNAME":"永康區","LI":"中華里","LIN":"16鄰","STREET":"小東路","SECT":" ","MAREA":" ","LANE":"４７７巷","ALLEY":"１０弄","HOUSE_NO":"１１號","E_COORD97":171663.98000000001,"N_COORD97":2544384.2999999998,"ADDRESS":"小東路４７７巷１０弄１１號","OBJECTID":121660},"geometry":{"x":171663.98000000138,"y":2544384.3000000007}},{"attributes":{"ID":121661,"DIS_CODE":0,"TOWNNAME":"永康區","LI":"中華里","LIN":"16鄰","STREET":"小東路","SECT":" ","MAREA":" ","LANE":"４７７巷","ALLEY":"１０弄","HOUSE_NO":"１９號","E_COORD97":171681.13,"N_COORD97":2544384.6200000001,"ADDRESS":"小東路４７７巷１０弄１９號","OBJECTID":121661},"geometry":{"x":171681.13000000082,"y":2544384.6200000029}},{"attributes":{"ID":121662,"DIS_CODE":0,"TOWNNAME":"永康區","LI":"中華里","LIN":"16鄰","STREET":"小東路","SECT":" ","MAREA":" ","LANE":"４７７巷","ALLEY":"１０弄","HOUSE_NO":"３號","E_COORD97":171645.70000000001,"N_COORD97":2544384.2000000002,"ADDRESS":"小東路４７７巷１０弄３號","OBJECTID":121662},"geometry":{"x":171645.70000000112,"y":2544384.1999999993}},{"attributes":{"ID":121663,"DIS_CODE":0,"TOWNNAME":"永康區","LI":"中華里","LIN":"16鄰","STREET":"小東路","SECT":" ","MAREA":" ","LANE":"４７７巷","ALLEY":"１０弄","HOUSE_NO":"２１號","E_COORD97":171685.70000000001,"N_COORD97":2544384.52,"ADDRESS":"小東路４７７巷１０弄２１號","OBJECTID":121663},"geometry":{"x":171685.70000000205,"y":2544384.5200000014}},{"attributes":{"ID":121664,"DIS_CODE":0,"TOWNNAME":"麻豆區","LI":"總榮里","LIN":"1鄰","STREET":" ","SECT":" ","MAREA":"總爺\u25A0","LANE":" ","ALLEY":" ","HOUSE_NO":"３號之４０","E_COORD97":174928.41,"N_COORD97":2564684.02,"ADDRESS":"總爺\u25A0３號之４０","OBJECTID":121664},"geometry":{"x":174928.41000000015,"y":2564684.0199999996}},{"attributes":{"ID":121665,"DIS_CODE":0,"TOWNNAME":"麻豆區","LI":"總榮里","LIN":"1鄰","STREET":" ","SECT":" ","MAREA":"總爺\u25A0","LANE":" ","ALLEY":" ","HOUSE_NO":"３號之４","E_COORD97":174946.79000000001,"N_COORD97":2564777,"ADDRESS":"總爺\u25A0３號之４","OBJECTID":121665},"geometry":{"x":174946.79000000097,"y":2564777.0000000037}},{"attributes":{"ID":121666,"DIS_CODE":0,"TOWNNAME":"麻豆區","LI":"總榮里","LIN":"1鄰","STREET":" ","SECT":" ","MAREA":"總爺\u25A0","LANE":" ","ALLEY":" ","HOUSE_NO":"８號之２","E_COORD97":175053.76000000001,"N_COORD97":2564689.7200000002,"ADDRESS":"總爺\u25A0８號之２","OBJECTID":121666},"geometry":{"x":175053.76000000071,"y":2564689.7200000007}},{"attributes":{"ID":121667,"DIS_CODE":0,"TOWNNAME":"麻豆區","LI":"總榮里","LIN":"1鄰","STREET":" ","SECT":" ","MAREA":"總爺\u25A0","LANE":" ","ALLEY":" ","HOUSE_NO":"８號之３","E_COORD97":175059.26999999999,"N_COORD97":2564690.96,"ADDRESS":"總爺\u25A0８號之３","OBJECTID":121667},"geometry":{"x":175059.26999999955,"y":2564690.9600000028}},{"attributes":{"ID":121668,"DIS_CODE":0,"TOWNNAME":"麻豆區","LI":"總榮里","LIN":"1鄰","STREET":" ","SECT":" ","MAREA":"總爺\u25A0","LANE":" ","ALLEY":" ","HOUSE_NO":"８號之４","E_COORD97":175064.94,"N_COORD97":2564676.6499999999,"ADDRESS":"總爺\u25A0８號之４","OBJECTID":121668},"geometry":{"x":175064.94000000134,"y":2564676.6500000004}},{"attributes":{"ID":121669,"DIS_CODE":0,"TOWNNAME":"麻豆區","LI":"總榮里","LIN":"1鄰","STREET":" ","SECT":" ","MAREA":"總爺\u25A0","LANE":" ","ALLEY":" ","HOUSE_NO":"８號之５","E_COORD97":175058.10000000001,"N_COORD97":2564674.8799999999,"ADDRESS":"總爺\u25A0８號之５","OBJECTID":121669},"geometry":{"x":175058.10000000056,"y":2564674.8800000027}},{"attributes":{"ID":121670,"DIS_CODE":0,"TOWNNAME":"麻豆區","LI":"總榮里","LIN":"1鄰","STREET":" ","SECT":" ","MAREA":"總爺\u25A0","LANE":" ","ALLEY":" ","HOUSE_NO":"８號之６","E_COORD97":175051.32000000001,"N_COORD97":2564672.9199999999,"ADDRESS":"總爺\u25A0８號之６","OBJECTID":121670},"geometry":{"x":175051.3200000003,"y":2564672.9200000018}},{"attributes":{"ID":121671,"DIS_CODE":0,"TOWNNAME":"麻豆區","LI":"總榮里","LIN":"1鄰","STREET":" ","SECT":" ","MAREA":"總爺\u25A0","LANE":" ","ALLEY":" ","HOUSE_NO":"８號之７","E_COORD97":175045.64000000001,"N_COORD97":2564671.29,"ADDRESS":"總爺\u25A0８號之７","OBJECTID":121671},"geometry":{"x":175045.6400000006,"y":2564671.2899999991}},{"attributes":{"ID":121672,"DIS_CODE":0,"TOWNNAME":"麻豆區","LI":"總榮里","LIN":"1鄰","STREET":" ","SECT":" ","MAREA":"總爺\u25A0","LANE":" ","ALLEY":" ","HOUSE_NO":"８號","E_COORD97":175042.73999999999,"N_COORD97":2564685.6800000002,"ADDRESS":"總爺\u25A0８號","OBJECTID":121672},"geometry":{"x":175042.74000000022,"y":2564685.6799999997}},{"attributes":{"ID":121673,"DIS_CODE":0,"TOWNNAME":"麻豆區","LI":"總榮里","LIN":"1鄰","STREET":" ","SECT":" ","MAREA":"總爺\u25A0","LANE":" ","ALLEY":" ","HOUSE_NO":"９５號之１","E_COORD97":174767.85000000001,"N_COORD97":2564732.5800000001,"ADDRESS":"總爺\u25A0９５號之１","OBJECTID":121673},"geometry":{"x":174767.85000000056,"y":2564732.5800000019}},{"attributes":{"ID":121674,"DIS_CODE":0,"TOWNNAME":"麻豆區","LI":"總榮里","LIN":"1鄰","STREET":" ","SECT":" ","MAREA":"總爺\u25A0","LANE":" ","ALLEY":" ","HOUSE_NO":"９５號","E_COORD97":174763.06,"N_COORD97":2564732.71,"ADDRESS":"總爺\u25A0９５號","OBJECTID":121674},"geometry":{"x":174763.06000000052,"y":2564732.7100000028}},{"attributes":{"ID":121675,"DIS_CODE":0,"TOWNNAME":"麻豆區","LI":"總榮里","LIN":"1鄰","STREET":" ","SECT":" ","MAREA":"總爺\u25A0","LANE":" ","ALLEY":" ","HOUSE_NO":"９６號","E_COORD97":174743.73999999999,"N_COORD97":2564727.25,"ADDRESS":"總爺\u25A0９６號","OBJECTID":121675},"geometry":{"x":174743.74000000115,"y":2564727.25}},{"attributes":{"ID":121676,"DIS_CODE":0,"TOWNNAME":"麻豆區","LI":"總榮里","LIN":"1鄰","STREET":" ","SECT":" ","MAREA":"總爺\u25A0","LANE":" ","ALLEY":" ","HOUSE_NO":"９７號","E_COORD97":174743.32999999999,"N_COORD97":2564721.5600000001,"ADDRESS":"總爺\u25A0９７號","OBJECTID":121676},"geometry":{"x":174743.33000000101,"y":2564721.5600000005}},{"attributes":{"ID":121677,"DIS_CODE":0,"TOWNNAME":"麻豆區","LI":"總榮里","LIN":"1鄰","STREET":" ","SECT":" ","MAREA":"總爺\u25A0","LANE":" ","ALLEY":" ","HOUSE_NO":"９８號","E_COORD97":174742.87,"N_COORD97":2564714.8700000001,"ADDRESS":"總爺\u25A0９８號","OBJECTID":121677},"geometry":{"x":174742.87000000104,"y":2564714.8700000029}},{"attributes":{"ID":121678,"DIS_CODE":0,"TOWNNAME":"麻豆區","LI":"總榮里","LIN":"1鄰","STREET":" ","SECT":" ","MAREA":"總爺\u25A0","LANE":" ","ALLEY":" ","HOUSE_NO":"９９號","E_COORD97":174742.78,"N_COORD97":2564708.29,"ADDRESS":"總爺\u25A0９９號","OBJECTID":121678},"geometry":{"x":174742.78000000026,"y":2564708.2899999991}},{"attributes":{"ID":121679,"DIS_CODE":0,"TOWNNAME":"麻豆區","LI":"總榮里","LIN":"1鄰","STREET":" ","SECT":" ","MAREA":"總爺\u25A0","LANE":" ","ALLEY":" ","HOUSE_NO":"９號","E_COORD97":175083.60000000001,"N_COORD97":2564671.6299999999,"ADDRESS":"總爺\u25A0９號","OBJECTID":121679},"geometry":{"x":175083.60000000056,"y":2564671.629999999}},{"attributes":{"ID":121680,"DIS_CODE":0,"TOWNNAME":"麻豆區","LI":"總榮里","LIN":"6鄰","STREET":" ","SECT":" ","MAREA":"總爺\u25A0","LANE":" ","ALLEY":" ","HOUSE_NO":"５６號","E_COORD97":174952.29000000001,"N_COORD97":2564403.48,"ADDRESS":"總爺\u25A0５６號","OBJECTID":121680},"geometry":{"x":174952.29000000097,"y":2564403.4800000004}},{"attributes":{"ID":121681,"DIS_CODE":0,"TOWNNAME":"麻豆區","LI":"總榮里","LIN":"6鄰","STREET":" ","SECT":" ","MAREA":"總爺\u25A0","LANE":" ","ALLEY":" ","HOUSE_NO":"５７號之１","E_COORD97":174923.17000000001,"N_COORD97":2564284.48,"ADDRESS":"總爺\u25A0５７號之１","OBJECTID":121681},"geometry":{"x":174923.16999999993,"y":2564284.4800000004}},{"attributes":{"ID":121682,"DIS_CODE":0,"TOWNNAME":"麻豆區","LI":"總榮里","LIN":"6鄰","STREET":" ","SECT":" ","MAREA":"總爺\u25A0","LANE":" ","ALLEY":" ","HOUSE_NO":"５７號","E_COORD97":174938.62,"N_COORD97":2564337.9500000002,"ADDRESS":"總爺\u25A0５７號","OBJECTID":121682},"geometry":{"x":174938.62000000011,"y":2564337.9499999993}},{"attributes":{"ID":121683,"DIS_CODE":0,"TOWNNAME":"麻豆區","LI":"總榮里","LIN":"6鄰","STREET":" ","SECT":" ","MAREA":"總爺\u25A0","LANE":" ","ALLEY":" ","HOUSE_NO":"５８號","E_COORD97":174919.07000000001,"N_COORD97":2564345.4900000002,"ADDRESS":"總爺\u25A0５８號","OBJECTID":121683},"geometry":{"x":174919.0700000003,"y":2564345.4900000002}},{"attributes":{"ID":121684,"DIS_CODE":0,"TOWNNAME":"麻豆區","LI":"總榮里","LIN":"6鄰","STREET":" ","SECT":" ","MAREA":"總爺\u25A0","LANE":" ","ALLEY":" ","HOUSE_NO":"６０號之１","E_COORD97":174857.35999999999,"N_COORD97":2564290.4900000002,"ADDRESS":"總爺\u25A0６０號之１","OBJECTID":121684},"geometry":{"x":174857.36000000034,"y":2564290.4900000021}},{"attributes":{"ID":121685,"DIS_CODE":0,"TOWNNAME":"麻豆區","LI":"總榮里","LIN":"6鄰","STREET":" ","SECT":" ","MAREA":"總爺\u25A0","LANE":" ","ALLEY":" ","HOUSE_NO":"６０號之２","E_COORD97":174832.66,"N_COORD97":2564301.8900000001,"ADDRESS":"總爺\u25A0６０號之２","OBJECTID":121685},"geometry":{"x":174832.66000000108,"y":2564301.8900000006}},{"attributes":{"ID":121686,"DIS_CODE":0,"TOWNNAME":"麻豆區","LI":"總榮里","LIN":"6鄰","STREET":" ","SECT":" ","MAREA":"總爺\u25A0","LANE":" ","ALLEY":" ","HOUSE_NO":"６０號之３","E_COORD97":174866.37,"N_COORD97":2564312.48,"ADDRESS":"總爺\u25A0６０號之３","OBJECTID":121686},"geometry":{"x":174866.37000000104,"y":2564312.4800000004}},{"attributes":{"ID":121687,"DIS_CODE":0,"TOWNNAME":"麻豆區","LI":"總榮里","LIN":"6鄰","STREET":" ","SECT":" ","MAREA":"總爺\u25A0","LANE":" ","ALLEY":" ","HOUSE_NO":"６０號之４","E_COORD97":174761.17000000001,"N_COORD97":2564362.6499999999,"ADDRESS":"總爺\u25A0６０號之４","OBJECTID":121687},"geometry":{"x":174761.17000000086,"y":2564362.6500000041}},{"attributes":{"ID":121688,"DIS_CODE":0,"TOWNNAME":"麻豆區","LI":"總榮里","LIN":"6鄰","STREET":" ","SECT":" ","MAREA":"總爺\u25A0","LANE":" ","ALLEY":" ","HOUSE_NO":"６０號","E_COORD97":174856.92000000001,"N_COORD97":2564259.1299999999,"ADDRESS":"總爺\u25A0６０號","OBJECTID":121688},"geometry":{"x":174856.91999999993,"y":2564259.129999999}},{"attributes":{"ID":121689,"DIS_CODE":0,"TOWNNAME":"麻豆區","LI":"總榮里","LIN":"6鄰","STREET":" ","SECT":" ","MAREA":"總爺\u25A0","LANE":" ","ALLEY":" ","HOUSE_NO":"６１號之１","E_COORD97":174834.45000000001,"N_COORD97":2564382.2599999998,"ADDRESS":"總爺\u25A0６１號之１","OBJECTID":121689},"geometry":{"x":174834.45000000019,"y":2564382.2600000016}},{"attributes":{"ID":121690,"DIS_CODE":0,"TOWNNAME":"麻豆區","LI":"總榮里","LIN":"6鄰","STREET":" ","SECT":" ","MAREA":"總爺\u25A0","LANE":" ","ALLEY":" ","HOUSE_NO":"６１號之２","E_COORD97":174767.01000000001,"N_COORD97":2564396.2400000002,"ADDRESS":"總爺\u25A0６１號之２","OBJECTID":121690},"geometry":{"x":174767.01000000071,"y":2564396.2400000021}},{"attributes":{"ID":121691,"DIS_CODE":0,"TOWNNAME":"麻豆區","LI":"總榮里","LIN":"6鄰","STREET":" ","SECT":" ","MAREA":"總爺\u25A0","LANE":" ","ALLEY":" ","HOUSE_NO":"６１號之３","E_COORD97":174829.12,"N_COORD97":2564432.8300000001,"ADDRESS":"總爺\u25A0６１號之３","OBJECTID":121691},"geometry":{"x":174829.12000000104,"y":2564432.8300000019}},{"attributes":{"ID":121692,"DIS_CODE":0,"TOWNNAME":"麻豆區","LI":"總榮里","LIN":"6鄰","STREET":" ","SECT":" ","MAREA":"總爺\u25A0","LANE":" ","ALLEY":" ","HOUSE_NO":"６１號之４","E_COORD97":174764.34,"N_COORD97":2564411.6299999999,"ADDRESS":"總爺\u25A0６１號之４","OBJECTID":121692},"geometry":{"x":174764.33999999892,"y":2564411.629999999}},{"attributes":{"ID":121693,"DIS_CODE":0,"TOWNNAME":"麻豆區","LI":"總榮里","LIN":"6鄰","STREET":" ","SECT":" ","MAREA":"總爺\u25A0","LANE":" ","ALLEY":" ","HOUSE_NO":"６１號","E_COORD97":174835.04000000001,"N_COORD97":2564346.1000000001,"ADDRESS":"總爺\u25A0６１號","OBJECTID":121693},"geometry":{"x":174835.04000000097,"y":2564346.1000000015}},{"attributes":{"ID":121694,"DIS_CODE":0,"TOWNNAME":"麻豆區","LI":"總榮里","LIN":"6鄰","STREET":" ","SECT":" ","MAREA":"總爺\u25A0","LANE":" ","ALLEY":" ","HOUSE_NO":"６２號之１０","E_COORD97":174883.26999999999,"N_COORD97":2564501.8900000001,"ADDRESS":"總爺\u25A0６２號之１０","OBJECTID":121694},"geometry":{"x":174883.27000000142,"y":2564501.8900000006}},{"attributes":{"ID":121695,"DIS_CODE":0,"TOWNNAME":"麻豆區","LI":"總榮里","LIN":"6鄰","STREET":" ","SECT":" ","MAREA":"總爺\u25A0","LANE":" ","ALLEY":" ","HOUSE_NO":"６２號之１","E_COORD97":174861.42999999999,"N_COORD97":2564400.2999999998,"ADDRESS":"總爺\u25A0６２號之１","OBJECTID":121695},"geometry":{"x":174861.4299999997,"y":2564400.3000000026}},{"attributes":{"ID":121696,"DIS_CODE":0,"TOWNNAME":"麻豆區","LI":"總榮里","LIN":"6鄰","STREET":" ","SECT":" ","MAREA":"總爺\u25A0","LANE":" ","ALLEY":" ","HOUSE_NO":"６２號之２","E_COORD97":174891.04999999999,"N_COORD97":2564424.29,"ADDRESS":"總爺\u25A0６２號之２","OBJECTID":121696},"geometry":{"x":174891.04999999981,"y":2564424.2899999991}},{"attributes":{"ID":121697,"DIS_CODE":0,"TOWNNAME":"麻豆區","LI":"總榮里","LIN":"6鄰","STREET":" ","SECT":" ","MAREA":"總爺\u25A0","LANE":" ","ALLEY":" ","HOUSE_NO":"６２號之３","E_COORD97":174891.17000000001,"N_COORD97":2564406.6099999999,"ADDRESS":"總爺\u25A0６２號之３","OBJECTID":121697},"geometry":{"x":174891.17000000179,"y":2564406.6100000013}},{"attributes":{"ID":121698,"DIS_CODE":0,"TOWNNAME":"麻豆區","LI":"總榮里","LIN":"6鄰","STREET":" ","SECT":" ","MAREA":"總爺\u25A0","LANE":" ","ALLEY":" ","HOUSE_NO":"６２號之５","E_COORD97":174850.66,"N_COORD97":2564391.98,"ADDRESS":"總爺\u25A0６２號之５","OBJECTID":121698},"geometry":{"x":174850.65999999922,"y":2564391.9800000023}},{"attributes":{"ID":121699,"DIS_CODE":0,"TOWNNAME":"麻豆區","LI":"總榮里","LIN":"6鄰","STREET":" ","SECT":" ","MAREA":"總爺\u25A0","LANE":" ","ALLEY":" ","HOUSE_NO":"６２號之６","E_COORD97":174885.79000000001,"N_COORD97":2564442.7200000002,"ADDRESS":"總爺\u25A0６２號之６","OBJECTID":121699},"geometry":{"x":174885.79000000097,"y":2564442.7200000007}},{"attributes":{"ID":121700,"DIS_CODE":0,"TOWNNAME":"麻豆區","LI":"總榮里","LIN":"6鄰","STREET":" ","SECT":" ","MAREA":"總爺\u25A0","LANE":" ","ALLEY":" ","HOUSE_NO":"６２號","E_COORD97":174858.35999999999,"N_COORD97":2564371.8999999999,"ADDRESS":"總爺\u25A0６２號","OBJECTID":121700},"geometry":{"x":174858.36000000127,"y":2564371.9000000022}},{"attributes":{"ID":121701,"DIS_CODE":0,"TOWNNAME":"麻豆區","LI":"總榮里","LIN":"6鄰","STREET":" ","SECT":" ","MAREA":"總爺\u25A0","LANE":" ","ALLEY":" ","HOUSE_NO":"６３號","E_COORD97":174909.72,"N_COORD97":2564375.4399999999,"ADDRESS":"總爺\u25A0６３號","OBJECTID":121701},"geometry":{"x":174909.72000000067,"y":2564375.4399999995}},{"attributes":{"ID":121702,"DIS_CODE":0,"TOWNNAME":"麻豆區","LI":"總榮里","LIN":"10鄰","STREET":" ","SECT":" ","MAREA":"總爺\u25A0","LANE":" ","ALLEY":" ","HOUSE_NO":"８９號之１","E_COORD97":175044.94,"N_COORD97":2564590.79,"ADDRESS":"總爺\u25A0８９號之１","OBJECTID":121702},"geometry":{"x":175044.94000000041,"y":2564590.7900000028}},{"attributes":{"ID":121703,"DIS_CODE":0,"TOWNNAME":"麻豆區","LI":"總榮里","LIN":"10鄰","STREET":" ","SECT":" ","MAREA":"總爺\u25A0","LANE":" ","ALLEY":" ","HOUSE_NO":"８９號之２","E_COORD97":175051.38,"N_COORD97":2564574.2599999998,"ADDRESS":"總爺\u25A0８９號之２","OBJECTID":121703},"geometry":{"x":175051.38000000082,"y":2564574.2599999998}},{"attributes":{"ID":121704,"DIS_CODE":0,"TOWNNAME":"麻豆區","LI":"總榮里","LIN":"10鄰","STREET":" ","SECT":" ","MAREA":"總爺\u25A0","LANE":" ","ALLEY":" ","HOUSE_NO":"８９號之３","E_COORD97":175030.60000000001,"N_COORD97":2564594.9700000002,"ADDRESS":"總爺\u25A0８９號之３","OBJECTID":121704},"geometry":{"x":175030.60000000056,"y":2564594.9700000025}},{"attributes":{"ID":121705,"DIS_CODE":0,"TOWNNAME":"麻豆區","LI":"總榮里","LIN":"10鄰","STREET":" ","SECT":" ","MAREA":"總爺\u25A0","LANE":" ","ALLEY":" ","HOUSE_NO":"８９號","E_COORD97":175026.39000000001,"N_COORD97":2564582.4700000002,"ADDRESS":"總爺\u25A0８９號","OBJECTID":121705},"geometry":{"x":175026.38999999966,"y":2564582.4700000025}},{"attributes":{"ID":121706,"DIS_CODE":0,"TOWNNAME":"麻豆區","LI":"總榮里","LIN":"10鄰","STREET":" ","SECT":" ","MAREA":"總爺\u25A0","LANE":" ","ALLEY":" ","HOUSE_NO":"９０號","E_COORD97":175007.73999999999,"N_COORD97":2564586.9900000002,"ADDRESS":"總爺\u25A0９０號","OBJECTID":121706},"geometry":{"x":175007.74000000022,"y":2564586.9899999984}},{"attributes":{"ID":121707,"DIS_CODE":0,"TOWNNAME":"麻豆區","LI":"總榮里","LIN":"10鄰","STREET":" ","SECT":" ","MAREA":"總爺\u25A0","LANE":" ","ALLEY":" ","HOUSE_NO":"９１號之１０","E_COORD97":175019.64000000001,"N_COORD97":2564677.1099999999,"ADDRESS":"總爺\u25A0９１號之１０","OBJECTID":121707},"geometry":{"x":175019.63999999966,"y":2564677.1100000031}},{"attributes":{"ID":121708,"DIS_CODE":0,"TOWNNAME":"麻豆區","LI":"總榮里","LIN":"10鄰","STREET":" ","SECT":" ","MAREA":"總爺\u25A0","LANE":" ","ALLEY":" ","HOUSE_NO":"９１號之１１","E_COORD97":175018.51999999999,"N_COORD97":2564681.7200000002,"ADDRESS":"總爺\u25A0９１號之１１","OBJECTID":121708},"geometry":{"x":175018.51999999955,"y":2564681.7200000025}},{"attributes":{"ID":121709,"DIS_CODE":0,"TOWNNAME":"麻豆區","LI":"總榮里","LIN":"10鄰","STREET":" ","SECT":" ","MAREA":"總爺\u25A0","LANE":" ","ALLEY":" ","HOUSE_NO":"９１號之１２","E_COORD97":175016.85000000001,"N_COORD97":2564687.02,"ADDRESS":"總爺\u25A0９１號之１２","OBJECTID":121709},"geometry":{"x":175016.85000000149,"y":2564687.0199999996}},{"attributes":{"ID":121710,"DIS_CODE":0,"TOWNNAME":"麻豆區","LI":"總榮里","LIN":"10鄰","STREET":" ","SECT":" ","MAREA":"總爺\u25A0","LANE":" ","ALLEY":" ","HOUSE_NO":"９１號之１３","E_COORD97":175001.13,"N_COORD97":2564688.1699999999,"ADDRESS":"總爺\u25A0９１號之１３","OBJECTID":121710},"geometry":{"x":175001.12999999989,"y":2564688.1700000018}},{"attributes":{"ID":121711,"DIS_CODE":0,"TOWNNAME":"麻豆區","LI":"總榮里","LIN":"10鄰","STREET":" ","SECT":" ","MAREA":"總爺\u25A0","LANE":" ","ALLEY":" ","HOUSE_NO":"９１號之１４","E_COORD97":175006.22,"N_COORD97":2564703.7799999998,"ADDRESS":"總爺\u25A0９１號之１４","OBJECTID":121711},"geometry":{"x":175006.22000000067,"y":2564703.7800000012}},{"attributes":{"ID":121712,"DIS_CODE":0,"TOWNNAME":"麻豆區","LI":"總榮里","LIN":"10鄰","STREET":" ","SECT":" ","MAREA":"總爺\u25A0","LANE":" ","ALLEY":" ","HOUSE_NO":"９１號之１５","E_COORD97":175033,"N_COORD97":2564633.3300000001,"ADDRESS":"總爺\u25A0９１號之１５","OBJECTID":121712},"geometry":{"x":175033.00000000186,"y":2564633.3300000019}},{"attributes":{"ID":121713,"DIS_CODE":0,"TOWNNAME":"麻豆區","LI":"總榮里","LIN":"10鄰","STREET":" ","SECT":" ","MAREA":"總爺\u25A0","LANE":" ","ALLEY":" ","HOUSE_NO":"９１號之１","E_COORD97":175042.12,"N_COORD97":2564611.0899999999,"ADDRESS":"總爺\u25A0９１號之１","OBJECTID":121713},"geometry":{"x":175042.12000000011,"y":2564611.0900000017}},{"attributes":{"ID":121714,"DIS_CODE":0,"TOWNNAME":"麻豆區","LI":"總榮里","LIN":"10鄰","STREET":" ","SECT":" ","MAREA":"總爺\u25A0","LANE":" ","ALLEY":" ","HOUSE_NO":"９１號之２","E_COORD97":175031.45999999999,"N_COORD97":2564643.3100000001,"ADDRESS":"總爺\u25A0９１號之２","OBJECTID":121714},"geometry":{"x":175031.45999999903,"y":2564643.3100000024}},{"attributes":{"ID":121715,"DIS_CODE":0,"TOWNNAME":"麻豆區","LI":"總榮里","LIN":"10鄰","STREET":" ","SECT":" ","MAREA":"總爺\u25A0","LANE":" ","ALLEY":" ","HOUSE_NO":"９１號之３","E_COORD97":175031.06,"N_COORD97":2564647.54,"ADDRESS":"總爺\u25A0９１號之３","OBJECTID":121715},"geometry":{"x":175031.06000000052,"y":2564647.540000001}},{"attributes":{"ID":121716,"DIS_CODE":0,"TOWNNAME":"麻豆區","LI":"總榮里","LIN":"10鄰","STREET":" ","SECT":" ","MAREA":"總爺\u25A0","LANE":" ","ALLEY":" ","HOUSE_NO":"９１號之６","E_COORD97":175022.85000000001,"N_COORD97":2564659.3500000001,"ADDRESS":"總爺\u25A0９１號之６","OBJECTID":121716},"geometry":{"x":175022.84999999963,"y":2564659.3500000015}},{"attributes":{"ID":121717,"DIS_CODE":0,"TOWNNAME":"麻豆區","LI":"總榮里","LIN":"10鄰","STREET":" ","SECT":" ","MAREA":"總爺\u25A0","LANE":" ","ALLEY":" ","HOUSE_NO":"９１號之７","E_COORD97":175020.79000000001,"N_COORD97":2564664.8999999999,"ADDRESS":"總爺\u25A0９１號之７","OBJECTID":121717},"geometry":{"x":175020.79000000004,"y":2564664.9000000004}},{"attributes":{"ID":121718,"DIS_CODE":0,"TOWNNAME":"麻豆區","LI":"總榮里","LIN":"10鄰","STREET":" ","SECT":" ","MAREA":"總爺\u25A0","LANE":" ","ALLEY":" ","HOUSE_NO":"９１號之８","E_COORD97":175020.45999999999,"N_COORD97":2564669.21,"ADDRESS":"總爺\u25A0９１號之８","OBJECTID":121718},"geometry":{"x":175020.46000000089,"y":2564669.2100000028}},{"attributes":{"ID":121719,"DIS_CODE":0,"TOWNNAME":"麻豆區","LI":"總榮里","LIN":"10鄰","STREET":" ","SECT":" ","MAREA":"總爺\u25A0","LANE":" ","ALLEY":" ","HOUSE_NO":"９１號","E_COORD97":175024.84,"N_COORD97":2564624.75,"ADDRESS":"總爺\u25A0９１號","OBJECTID":121719},"geometry":{"x":175024.83999999985,"y":2564624.75}},{"attributes":{"ID":121720,"DIS_CODE":0,"TOWNNAME":"麻豆區","LI":"總榮里","LIN":"10鄰","STREET":" ","SECT":" ","MAREA":"總爺\u25A0","LANE":" ","ALLEY":" ","HOUSE_NO":"９２號","E_COORD97":174991.26000000001,"N_COORD97":2564635.71,"ADDRESS":"總爺\u25A0９２號","OBJECTID":121720},"geometry":{"x":174991.25999999978,"y":2564635.7100000009}},{"attributes":{"ID":121721,"DIS_CODE":0,"TOWNNAME":"麻豆區","LI":"總榮里","LIN":"10鄰","STREET":" ","SECT":" ","MAREA":"總爺\u25A0","LANE":" ","ALLEY":" ","HOUSE_NO":"９３號","E_COORD97":174944.23000000001,"N_COORD97":2564571.23,"ADDRESS":"總爺\u25A0９３號","OBJECTID":121721},"geometry":{"x":174944.23000000138,"y":2564571.2300000004}},{"attributes":{"ID":121722,"DIS_CODE":0,"TOWNNAME":"麻豆區","LI":"總榮里","LIN":"9鄰","STREET":" ","SECT":" ","MAREA":"總爺\u25A0","LANE":" ","ALLEY":" ","HOUSE_NO":"８４號之３","E_COORD97":174963.07000000001,"N_COORD97":2564521.6000000001,"ADDRESS":"總爺\u25A0８４號之３","OBJECTID":121722},"geometry":{"x":174963.0700000003,"y":2564521.6000000034}},{"attributes":{"ID":121723,"DIS_CODE":0,"TOWNNAME":"麻豆區","LI":"總榮里","LIN":"9鄰","STREET":" ","SECT":" ","MAREA":"總爺\u25A0","LANE":" ","ALLEY":" ","HOUSE_NO":"８４號","E_COORD97":174995.64999999999,"N_COORD97":2564528.8500000001,"ADDRESS":"總爺\u25A0８４號","OBJECTID":121723},"geometry":{"x":174995.6500000013,"y":2564528.8499999996}},{"attributes":{"ID":121724,"DIS_CODE":0,"TOWNNAME":"麻豆區","LI":"總榮里","LIN":"9鄰","STREET":" ","SECT":" ","MAREA":"總爺\u25A0","LANE":" ","ALLEY":" ","HOUSE_NO":"８５號","E_COORD97":174904.39999999999,"N_COORD97":2564519.02,"ADDRESS":"總爺\u25A0８５號","OBJECTID":121724},"geometry":{"x":174904.4000000013,"y":2564519.0200000014}},{"attributes":{"ID":121725,"DIS_CODE":0,"TOWNNAME":"麻豆區","LI":"總榮里","LIN":"9鄰","STREET":" ","SECT":" ","MAREA":"總爺\u25A0","LANE":" ","ALLEY":" ","HOUSE_NO":"８６號","E_COORD97":174923.16,"N_COORD97":2564545.3599999999,"ADDRESS":"總爺\u25A0８６號","OBJECTID":121725},"geometry":{"x":174923.16000000015,"y":2564545.3599999994}},{"attributes":{"ID":121726,"DIS_CODE":0,"TOWNNAME":"麻豆區","LI":"總榮里","LIN":"9鄰","STREET":" ","SECT":" ","MAREA":"總爺\u25A0","LANE":" ","ALLEY":" ","HOUSE_NO":"８７號之１","E_COORD97":175024.51999999999,"N_COORD97":2564546.9300000002,"ADDRESS":"總爺\u25A0８７號之１","OBJECTID":121726},"geometry":{"x":175024.52000000048,"y":2564546.9300000016}},{"attributes":{"ID":121727,"DIS_CODE":0,"TOWNNAME":"麻豆區","LI":"總榮里","LIN":"9鄰","STREET":" ","SECT":" ","MAREA":"總爺\u25A0","LANE":" ","ALLEY":" ","HOUSE_NO":"８７號之２","E_COORD97":175004.67000000001,"N_COORD97":2564565.48,"ADDRESS":"總爺\u25A0８７號之２","OBJECTID":121727},"geometry":{"x":175004.67000000179,"y":2564565.4800000004}},{"attributes":{"ID":121728,"DIS_CODE":0,"TOWNNAME":"麻豆區","LI":"總榮里","LIN":"9鄰","STREET":" ","SECT":" ","MAREA":"總爺\u25A0","LANE":" ","ALLEY":" ","HOUSE_NO":"８７號","E_COORD97":175006.48000000001,"N_COORD97":2564546.1699999999,"ADDRESS":"總爺\u25A0８７號","OBJECTID":121728},"geometry":{"x":175006.48000000231,"y":2564546.1700000018}},{"attributes":{"ID":121729,"DIS_CODE":0,"TOWNNAME":"麻豆區","LI":"南勢里","LIN":"2鄰","STREET":" ","SECT":" ","MAREA":"\u25A0帝\u25A0","LANE":" ","ALLEY":" ","HOUSE_NO":"１１號","E_COORD97":173567.45000000001,"N_COORD97":2565726.2200000002,"ADDRESS":"\u25A0帝\u25A0１１號","OBJECTID":121729},"geometry":{"x":173567.45000000112,"y":2565726.2200000025}},{"attributes":{"ID":121730,"DIS_CODE":0,"TOWNNAME":"麻豆區","LI":"南勢里","LIN":"2鄰","STREET":" ","SECT":" ","MAREA":"\u25A0帝\u25A0","LANE":" ","ALLEY":" ","HOUSE_NO":"１２號之２","E_COORD97":173567.13,"N_COORD97":2565691.6299999999,"ADDRESS":"\u25A0帝\u25A0１２號之２","OBJECTID":121730},"geometry":{"x":173567.12999999989,"y":2565691.6300000008}},{"attributes":{"ID":121731,"DIS_CODE":0,"TOWNNAME":"麻豆區","LI":"南勢里","LIN":"2鄰","STREET":" ","SECT":" ","MAREA":"\u25A0帝\u25A0","LANE":" ","ALLEY":" ","HOUSE_NO":"１２號","E_COORD97":173562.01999999999,"N_COORD97":2565702.3599999999,"ADDRESS":"\u25A0帝\u25A0１２號","OBJECTID":121731},"geometry":{"x":173562.01999999955,"y":2565702.3599999994}},{"attributes":{"ID":121732,"DIS_CODE":0,"TOWNNAME":"麻豆區","LI":"南勢里","LIN":"2鄰","STREET":" ","SECT":" ","MAREA":"\u25A0帝\u25A0","LANE":" ","ALLEY":" ","HOUSE_NO":"１３號之１","E_COORD97":173618.01000000001,"N_COORD97":2565543.5099999998,"ADDRESS":"\u25A0帝\u25A0１３號之１","OBJECTID":121732},"geometry":{"x":173618.01000000071,"y":2565543.5100000016}},{"attributes":{"ID":121733,"DIS_CODE":0,"TOWNNAME":"麻豆區","LI":"南勢里","LIN":"2鄰","STREET":" ","SECT":" ","MAREA":"\u25A0帝\u25A0","LANE":" ","ALLEY":" ","HOUSE_NO":"１３號之３","E_COORD97":173702.48000000001,"N_COORD97":2565585.1000000001,"ADDRESS":"\u25A0帝\u25A0１３號之３","OBJECTID":121733},"geometry":{"x":173702.48000000045,"y":2565585.0999999996}},{"attributes":{"ID":121734,"DIS_CODE":0,"TOWNNAME":"麻豆區","LI":"南勢里","LIN":"2鄰","STREET":" ","SECT":" ","MAREA":"\u25A0帝\u25A0","LANE":" ","ALLEY":" ","HOUSE_NO":"１３號之４","E_COORD97":173678.92000000001,"N_COORD97":2565574.7999999998,"ADDRESS":"\u25A0帝\u25A0１３號之４","OBJECTID":121734},"geometry":{"x":173678.91999999993,"y":2565574.8000000007}},{"attributes":{"ID":121735,"DIS_CODE":0,"TOWNNAME":"麻豆區","LI":"南勢里","LIN":"2鄰","STREET":" ","SECT":" ","MAREA":"\u25A0帝\u25A0","LANE":" ","ALLEY":" ","HOUSE_NO":"１３號之６","E_COORD97":173661.63,"N_COORD97":2565568.29,"ADDRESS":"\u25A0帝\u25A0１３號之６","OBJECTID":121735},"geometry":{"x":173661.62999999989,"y":2565568.290000001}},{"attributes":{"ID":121736,"DIS_CODE":0,"TOWNNAME":"麻豆區","LI":"南勢里","LIN":"2鄰","STREET":" ","SECT":" ","MAREA":"\u25A0帝\u25A0","LANE":" ","ALLEY":" ","HOUSE_NO":"１３號之７","E_COORD97":173651.76999999999,"N_COORD97":2565563.29,"ADDRESS":"\u25A0帝\u25A0１３號之７","OBJECTID":121736},"geometry":{"x":173651.76999999955,"y":2565563.2899999991}},{"attributes":{"ID":121737,"DIS_CODE":0,"TOWNNAME":"麻豆區","LI":"南勢里","LIN":"2鄰","STREET":" ","SECT":" ","MAREA":"\u25A0帝\u25A0","LANE":" ","ALLEY":" ","HOUSE_NO":"１４號之１０","E_COORD97":173627.59,"N_COORD97":2565638.8100000001,"ADDRESS":"\u25A0帝\u25A0１４號之１０","OBJECTID":121737},"geometry":{"x":173627.59000000078,"y":2565638.8100000005}},{"attributes":{"ID":121738,"DIS_CODE":0,"TOWNNAME":"麻豆區","LI":"南勢里","LIN":"2鄰","STREET":" ","SECT":" ","MAREA":"\u25A0帝\u25A0","LANE":" ","ALLEY":" ","HOUSE_NO":"１４號之１１","E_COORD97":173578.29999999999,"N_COORD97":2565640.96,"ADDRESS":"\u25A0帝\u25A0１４號之１１","OBJECTID":121738},"geometry":{"x":173578.30000000075,"y":2565640.9600000009}},{"attributes":{"ID":121739,"DIS_CODE":0,"TOWNNAME":"麻豆區","LI":"南勢里","LIN":"2鄰","STREET":" ","SECT":" ","MAREA":"\u25A0帝\u25A0","LANE":" ","ALLEY":" ","HOUSE_NO":"１４號之１２","E_COORD97":173625.78,"N_COORD97":2565643.4100000001,"ADDRESS":"\u25A0帝\u25A0１４號之１２","OBJECTID":121739},"geometry":{"x":173625.78000000026,"y":2565643.410000002}},{"attributes":{"ID":121740,"DIS_CODE":0,"TOWNNAME":"麻豆區","LI":"南勢里","LIN":"2鄰","STREET":" ","SECT":" ","MAREA":"\u25A0帝\u25A0","LANE":" ","ALLEY":" ","HOUSE_NO":"１４號之１３","E_COORD97":173470.95999999999,"N_COORD97":2565615.3399999999,"ADDRESS":"\u25A0帝\u25A0１４號之１３","OBJECTID":121740},"geometry":{"x":173470.96000000089,"y":2565615.3400000036}},{"attributes":{"ID":121741,"DIS_CODE":0,"TOWNNAME":"麻豆區","LI":"南勢里","LIN":"2鄰","STREET":" ","SECT":" ","MAREA":"\u25A0帝\u25A0","LANE":" ","ALLEY":" ","HOUSE_NO":"１４號之１５","E_COORD97":173527.98000000001,"N_COORD97":2565628,"ADDRESS":"\u25A0帝\u25A0１４號之１５","OBJECTID":121741},"geometry":{"x":173527.98000000045,"y":2565628.0000000037}},{"attributes":{"ID":121742,"DIS_CODE":0,"TOWNNAME":"麻豆區","LI":"南勢里","LIN":"2鄰","STREET":" ","SECT":" ","MAREA":"\u25A0帝\u25A0","LANE":" ","ALLEY":" ","HOUSE_NO":"１４號之１６","E_COORD97":173579.39000000001,"N_COORD97":2565662.54,"ADDRESS":"\u25A0帝\u25A0１４號之１６","OBJECTID":121742},"geometry":{"x":173579.3900000006,"y":2565662.5399999991}},{"attributes":{"ID":121743,"DIS_CODE":0,"TOWNNAME":"麻豆區","LI":"南勢里","LIN":"2鄰","STREET":" ","SECT":" ","MAREA":"\u25A0帝\u25A0","LANE":" ","ALLEY":" ","HOUSE_NO":"１４號之１８","E_COORD97":173525.54999999999,"N_COORD97":2565599.9300000002,"ADDRESS":"\u25A0帝\u25A0１４號之１８","OBJECTID":121743},"geometry":{"x":173525.55000000168,"y":2565599.9299999997}},{"attributes":{"ID":121744,"DIS_CODE":0,"TOWNNAME":"麻豆區","LI":"南勢里","LIN":"2鄰","STREET":" ","SECT":" ","MAREA":"\u25A0帝\u25A0","LANE":" ","ALLEY":" ","HOUSE_NO":"１４號之２","E_COORD97":173581.14999999999,"N_COORD97":2565583.5800000001,"ADDRESS":"\u25A0帝\u25A0１４號之２","OBJECTID":121744},"geometry":{"x":173581.15000000037,"y":2565583.5800000019}},{"attributes":{"ID":121745,"DIS_CODE":0,"TOWNNAME":"麻豆區","LI":"南勢里","LIN":"2鄰","STREET":" ","SECT":" ","MAREA":"\u25A0帝\u25A0","LANE":" ","ALLEY":" ","HOUSE_NO":"１４號之３","E_COORD97":173517.47,"N_COORD97":2565621.8999999999,"ADDRESS":"\u25A0帝\u25A0１４號之３","OBJECTID":121745},"geometry":{"x":173517.4700000016,"y":2565621.9000000041}},{"attributes":{"ID":121746,"DIS_CODE":0,"TOWNNAME":"麻豆區","LI":"南勢里","LIN":"2鄰","STREET":" ","SECT":" ","MAREA":"\u25A0帝\u25A0","LANE":" ","ALLEY":" ","HOUSE_NO":"１４號之４","E_COORD97":173585.76000000001,"N_COORD97":2565599.5899999999,"ADDRESS":"\u25A0帝\u25A0１４號之４","OBJECTID":121746},"geometry":{"x":173585.76000000071,"y":2565599.589999998}},{"attributes":{"ID":121747,"DIS_CODE":0,"TOWNNAME":"麻豆區","LI":"南勢里","LIN":"2鄰","STREET":" ","SECT":" ","MAREA":"\u25A0帝\u25A0","LANE":" ","ALLEY":" ","HOUSE_NO":"１４號之５","E_COORD97":173585.26999999999,"N_COORD97":2565617.96,"ADDRESS":"\u25A0帝\u25A0１４號之５","OBJECTID":121747},"geometry":{"x":173585.27000000048,"y":2565617.9600000009}},{"attributes":{"ID":121748,"DIS_CODE":0,"TOWNNAME":"麻豆區","LI":"南勢里","LIN":"2鄰","STREET":" ","SECT":" ","MAREA":"\u25A0帝\u25A0","LANE":" ","ALLEY":" ","HOUSE_NO":"１４號之６","E_COORD97":173580.13,"N_COORD97":2565630.9399999999,"ADDRESS":"\u25A0帝\u25A0１４號之６","OBJECTID":121748},"geometry":{"x":173580.12999999989,"y":2565630.9400000032}},{"attributes":{"ID":121749,"DIS_CODE":0,"TOWNNAME":"麻豆區","LI":"南勢里","LIN":"2鄰","STREET":" ","SECT":" ","MAREA":"\u25A0帝\u25A0","LANE":" ","ALLEY":" ","HOUSE_NO":"１４號之９","E_COORD97":173576.60999999999,"N_COORD97":2565648.5,"ADDRESS":"\u25A0帝\u25A0１４號之９","OBJECTID":121749},"geometry":{"x":173576.6100000022,"y":2565648.5000000019}},{"attributes":{"ID":121750,"DIS_CODE":0,"TOWNNAME":"麻豆區","LI":"南勢里","LIN":"2鄰","STREET":" ","SECT":" ","MAREA":"\u25A0帝\u25A0","LANE":" ","ALLEY":" ","HOUSE_NO":"１４號","E_COORD97":173602.60999999999,"N_COORD97":2565530.6000000001,"ADDRESS":"\u25A0帝\u25A0１４號","OBJECTID":121750},"geometry":{"x":173602.61000000127,"y":2565530.5999999996}},{"attributes":{"ID":121751,"DIS_CODE":0,"TOWNNAME":"麻豆區","LI":"南勢里","LIN":"2鄰","STREET":" ","SECT":" ","MAREA":"\u25A0帝\u25A0","LANE":" ","ALLEY":" ","HOUSE_NO":"１５號之１","E_COORD97":173799.79000000001,"N_COORD97":2565632.6499999999,"ADDRESS":"\u25A0帝\u25A0１５號之１","OBJECTID":121751},"geometry":{"x":173799.79000000004,"y":2565632.6500000004}},{"attributes":{"ID":121752,"DIS_CODE":0,"TOWNNAME":"麻豆區","LI":"南勢里","LIN":"2鄰","STREET":" ","SECT":" ","MAREA":"\u25A0帝\u25A0","LANE":" ","ALLEY":" ","HOUSE_NO":"１５號之３","E_COORD97":173821.01000000001,"N_COORD97":2565640.0800000001,"ADDRESS":"\u25A0帝\u25A0１５號之３","OBJECTID":121752},"geometry":{"x":173821.01000000071,"y":2565640.0800000001}},{"attributes":{"ID":121753,"DIS_CODE":0,"TOWNNAME":"麻豆區","LI":"南勢里","LIN":"2鄰","STREET":" ","SECT":" ","MAREA":"\u25A0帝\u25A0","LANE":" ","ALLEY":" ","HOUSE_NO":"１９號之２９","E_COORD97":174239.87,"N_COORD97":2565938.71,"ADDRESS":"\u25A0帝\u25A0１９號之２９","OBJECTID":121753},"geometry":{"x":174239.87000000011,"y":2565938.7100000009}},{"attributes":{"ID":121754,"DIS_CODE":0,"TOWNNAME":"麻豆區","LI":"南勢里","LIN":"2鄰","STREET":" ","SECT":" ","MAREA":"\u25A0帝\u25A0","LANE":" ","ALLEY":" ","HOUSE_NO":"１９號之３６","E_COORD97":174411.39999999999,"N_COORD97":2565995.5800000001,"ADDRESS":"\u25A0帝\u25A0１９號之３６","OBJECTID":121754},"geometry":{"x":174411.40000000037,"y":2565995.5800000001}},{"attributes":{"ID":121755,"DIS_CODE":0,"TOWNNAME":"麻豆區","LI":"南勢里","LIN":"2鄰","STREET":" ","SECT":" ","MAREA":"\u25A0帝\u25A0","LANE":" ","ALLEY":" ","HOUSE_NO":"１９號","E_COORD97":173920.54999999999,"N_COORD97":2565915.0899999999,"ADDRESS":"\u25A0帝\u25A0１９號","OBJECTID":121755},"geometry":{"x":173920.55000000168,"y":2565915.0900000036}},{"attributes":{"ID":121756,"DIS_CODE":0,"TOWNNAME":"麻豆區","LI":"南勢里","LIN":"7鄰","STREET":" ","SECT":" ","MAREA":"\u25A0帝\u25A0","LANE":" ","ALLEY":" ","HOUSE_NO":"５０號之１１","E_COORD97":173999.57000000001,"N_COORD97":2565387.54,"ADDRESS":"\u25A0帝\u25A0５０號之１１","OBJECTID":121756},"geometry":{"x":173999.57000000123,"y":2565387.5399999991}},{"attributes":{"ID":121757,"DIS_CODE":0,"TOWNNAME":"麻豆區","LI":"南勢里","LIN":"8鄰","STREET":" ","SECT":" ","MAREA":"\u25A0帝\u25A0","LANE":" ","ALLEY":" ","HOUSE_NO":"６０號","E_COORD97":174263.27338200001,"N_COORD97":2565539.5246299999,"ADDRESS":"\u25A0帝\u25A0６０號","OBJECTID":121757},"geometry":{"x":174263.27338200063,"y":2565539.5246330015}},{"attributes":{"ID":121758,"DIS_CODE":0,"TOWNNAME":"永康區","LI":"中華里","LIN":"16鄰","STREET":"小東路","SECT":" ","MAREA":" ","LANE":"４７７巷","ALLEY":"１０弄","HOUSE_NO":"１５號","E_COORD97":171672.70999999999,"N_COORD97":2544384.2999999998,"ADDRESS":"小東路４７７巷１０弄１５號","OBJECTID":121758},"geometry":{"x":171672.70999999996,"y":2544384.3000000007}},{"attributes":{"ID":121759,"DIS_CODE":0,"TOWNNAME":"永康區","LI":"中華里","LIN":"16鄰","STREET":"小東路","SECT":" ","MAREA":" ","LANE":"４７７巷","ALLEY":"２８弄","HOUSE_NO":"１８號","E_COORD97":171677.70000000001,"N_COORD97":2544419.73,"ADDRESS":"小東路４７７巷２８弄１８號","OBJECTID":121759},"geometry":{"x":171677.70000000112,"y":2544419.7300000042}},{"attributes":{"ID":121760,"DIS_CODE":0,"TOWNNAME":"永康區","LI":"中華里","LIN":"16鄰","STREET":"小東路","SECT":" ","MAREA":" ","LANE":"４７７巷","ALLEY":"２８弄","HOUSE_NO":"４號","E_COORD97":171646.42000000001,"N_COORD97":2544419.3100000001,"ADDRESS":"小東路４７７巷２８弄４號","OBJECTID":121760},"geometry":{"x":171646.41999999899,"y":2544419.3100000042}},{"attributes":{"ID":121761,"DIS_CODE":0,"TOWNNAME":"永康區","LI":"大橋里","LIN":"16鄰","STREET":"大橋一街","SECT":" ","MAREA":" ","LANE":"１０３巷","ALLEY":"６２弄","HOUSE_NO":"５號","E_COORD97":170961.48999999999,"N_COORD97":2546578.75,"ADDRESS":"大橋一街１０３巷６２弄５號","OBJECTID":121761},"geometry":{"x":170961.49000000209,"y":2546578.7499999981}},{"attributes":{"ID":121762,"DIS_CODE":0,"TOWNNAME":"永康區","LI":"三合里","LIN":"16鄰","STREET":"南工街","SECT":" ","MAREA":" ","LANE":"２４７巷","ALLEY":"４弄","HOUSE_NO":"１７號","E_COORD97":171931.89999999999,"N_COORD97":2545870.8599999999,"ADDRESS":"南工街２４７巷４弄１７號","OBJECTID":121762},"geometry":{"x":171931.90000000224,"y":2545870.8599999994}},{"attributes":{"ID":121763,"DIS_CODE":0,"TOWNNAME":"永康區","LI":"三合里","LIN":"16鄰","STREET":"南工街","SECT":" ","MAREA":" ","LANE":"２４７巷","ALLEY":"２弄","HOUSE_NO":"１６號","E_COORD97":171944.70999999999,"N_COORD97":2545923.75,"ADDRESS":"南工街２４７巷２弄１６號","OBJECTID":121763},"geometry":{"x":171944.71000000183,"y":2545923.75}},{"attributes":{"ID":121764,"DIS_CODE":0,"TOWNNAME":"永康區","LI":"三合里","LIN":"16鄰","STREET":"南工街","SECT":" ","MAREA":" ","LANE":"２４７巷","ALLEY":"２弄","HOUSE_NO":"１０號","E_COORD97":171956.70999999999,"N_COORD97":2545922,"ADDRESS":"南工街２４７巷２弄１０號","OBJECTID":121764},"geometry":{"x":171956.71000000089,"y":2545922}},{"attributes":{"ID":121765,"DIS_CODE":0,"TOWNNAME":"永康區","LI":"三合里","LIN":"16鄰","STREET":"南工街","SECT":" ","MAREA":" ","LANE":"２４７巷","ALLEY":"２弄","HOUSE_NO":"１１號","E_COORD97":171950.57999999999,"N_COORD97":2545910.3100000001,"ADDRESS":"南工街２４７巷２弄１１號","OBJECTID":121765},"geometry":{"x":171950.58000000007,"y":2545910.3100000005}},{"attributes":{"ID":121766,"DIS_CODE":0,"TOWNNAME":"永康區","LI":"三合里","LIN":"16鄰","STREET":"南工街","SECT":" ","MAREA":" ","LANE":"２４７巷","ALLEY":"４弄","HOUSE_NO":"１６號","E_COORD97":171938.26999999999,"N_COORD97":2545881.4900000002,"ADDRESS":"南工街２４７巷４弄１６號","OBJECTID":121766},"geometry":{"x":171938.26999999955,"y":2545881.4900000002}},{"attributes":{"ID":121767,"DIS_CODE":0,"TOWNNAME":"永康區","LI":"三合里","LIN":"16鄰","STREET":"南工街","SECT":" ","MAREA":" ","LANE":"２４７巷","ALLEY":"４弄","HOUSE_NO":"２號","E_COORD97":171965.07000000001,"N_COORD97":2545876.9900000002,"ADDRESS":"南工街２４７巷４弄２號","OBJECTID":121767},"geometry":{"x":171965.07000000123,"y":2545876.9900000021}},{"attributes":{"ID":121768,"DIS_CODE":0,"TOWNNAME":"仁德區","LI":"仁義里","LIN":"16鄰","STREET":"義林路","SECT":" ","MAREA":" ","LANE":"２４１巷","ALLEY":"２弄","HOUSE_NO":"７號","E_COORD97":174516.16,"N_COORD97":2541300.2200000002,"ADDRESS":"義林路２４１巷２弄７號","OBJECTID":121768},"geometry":{"x":174516.16000000015,"y":2541300.2200000007}},{"attributes":{"ID":121769,"DIS_CODE":0,"TOWNNAME":"麻豆區","LI":"南勢里","LIN":"9鄰","STREET":" ","SECT":" ","MAREA":"\u25A0帝\u25A0","LANE":" ","ALLEY":" ","HOUSE_NO":"６２號之６","E_COORD97":174430.32999999999,"N_COORD97":2565759.2000000002,"ADDRESS":"\u25A0帝\u25A0６２號之６","OBJECTID":121769},"geometry":{"x":174430.33000000007,"y":2565759.2000000011}},{"attributes":{"ID":121770,"DIS_CODE":0,"TOWNNAME":"麻豆區","LI":"南勢里","LIN":"7鄰","STREET":" ","SECT":" ","MAREA":"\u25A0帝\u25A0","LANE":" ","ALLEY":" ","HOUSE_NO":"４７號之３","E_COORD97":174134.47,"N_COORD97":2565232.1600000001,"ADDRESS":"\u25A0帝\u25A0４７號之３","OBJECTID":121770},"geometry":{"x":174134.4700000016,"y":2565232.1600000001}},{"attributes":{"ID":121771,"DIS_CODE":0,"TOWNNAME":"仁德區","LI":"成功里","LIN":"29鄰","STREET":"成功一街","SECT":" ","MAREA":" ","LANE":"１巷","ALLEY":"２６弄","HOUSE_NO":"３２號","E_COORD97":170684.01000000001,"N_COORD97":2540122.6800000002,"ADDRESS":"成功一街１巷２６弄３２號","OBJECTID":121771},"geometry":{"x":170684.00999999978,"y":2540122.6799999997}},{"attributes":{"ID":121772,"DIS_CODE":0,"TOWNNAME":"仁德區","LI":"上崙里","LIN":"16鄰","STREET":"德崙路","SECT":" ","MAREA":" ","LANE":"３７０巷","ALLEY":"４９弄","HOUSE_NO":"８號","E_COORD97":174038.89000000001,"N_COORD97":2537933.02,"ADDRESS":"德崙路３７０巷４９弄８號","OBJECTID":121772},"geometry":{"x":174038.8900000006,"y":2537933.0199999996}},{"attributes":{"ID":121773,"DIS_CODE":0,"TOWNNAME":"仁德區","LI":"仁義里","LIN":"16鄰","STREET":"義林路","SECT":" ","MAREA":" ","LANE":"２４１巷","ALLEY":"２弄","HOUSE_NO":"２０號","E_COORD97":174538.23000000001,"N_COORD97":2541316.5099999998,"ADDRESS":"義林路２４１巷２弄２０號","OBJECTID":121773},"geometry":{"x":174538.23000000045,"y":2541316.5100000016}},{"attributes":{"ID":121774,"DIS_CODE":0,"TOWNNAME":"仁德區","LI":"仁義里","LIN":"16鄰","STREET":"義林路","SECT":" ","MAREA":" ","LANE":"２４１巷","ALLEY":"２弄","HOUSE_NO":"１６號","E_COORD97":174537.59,"N_COORD97":2541308.2599999998,"ADDRESS":"義林路２４１巷２弄１６號","OBJECTID":121774},"geometry":{"x":174537.59000000078,"y":2541308.2599999998}},{"attributes":{"ID":121775,"DIS_CODE":0,"TOWNNAME":"仁德區","LI":"仁義里","LIN":"16鄰","STREET":"義林路","SECT":" ","MAREA":" ","LANE":"２４１巷","ALLEY":"２弄","HOUSE_NO":"２號","E_COORD97":174531.54000000001,"N_COORD97":2541280.2599999998,"ADDRESS":"義林路２４１巷２弄２號","OBJECTID":121775},"geometry":{"x":174531.54000000097,"y":2541280.2600000016}},{"attributes":{"ID":121776,"DIS_CODE":0,"TOWNNAME":"仁德區","LI":"仁義里","LIN":"16鄰","STREET":"義林路","SECT":" ","MAREA":" ","LANE":"２４１巷","ALLEY":"１弄","HOUSE_NO":"２號","E_COORD97":174514.47,"N_COORD97":2541274.73,"ADDRESS":"義林路２４１巷１弄２號","OBJECTID":121776},"geometry":{"x":174514.47000000067,"y":2541274.7300000023}},{"attributes":{"ID":121777,"DIS_CODE":0,"TOWNNAME":"仁德區","LI":"土庫里","LIN":"16鄰","STREET":"土庫一街","SECT":" ","MAREA":" ","LANE":"２２巷","ALLEY":"２３弄","HOUSE_NO":"２３號","E_COORD97":174578.07999999999,"N_COORD97":2543037,"ADDRESS":"土庫一街２２巷２３弄２３號","OBJECTID":121777},"geometry":{"x":174578.08000000007,"y":2543037}},{"attributes":{"ID":121778,"DIS_CODE":0,"TOWNNAME":"仁德區","LI":"土庫里","LIN":"16鄰","STREET":"土庫一街","SECT":" ","MAREA":" ","LANE":"２２巷","ALLEY":"２３弄","HOUSE_NO":"２０號","E_COORD97":174561.12,"N_COORD97":2543025.75,"ADDRESS":"土庫一街２２巷２３弄２０號","OBJECTID":121778},"geometry":{"x":174561.12000000197,"y":2543025.7500000037}},{"attributes":{"ID":121779,"DIS_CODE":0,"TOWNNAME":"仁德區","LI":"仁義里","LIN":"16鄰","STREET":"義林路","SECT":" ","MAREA":" ","LANE":"２４１巷","ALLEY":"２弄","HOUSE_NO":"１５號","E_COORD97":174520.04999999999,"N_COORD97":2541315.9700000002,"ADDRESS":"義林路２４１巷２弄１５號","OBJECTID":121779},"geometry":{"x":174520.04999999981,"y":2541315.9700000007}},{"attributes":{"ID":121780,"DIS_CODE":0,"TOWNNAME":"仁德區","LI":"成功里","LIN":"4鄰","STREET":"成功三街","SECT":" ","MAREA":" ","LANE":"８６巷","ALLEY":"１弄","HOUSE_NO":"１２號","E_COORD97":171152.20000000001,"N_COORD97":2539793.96,"ADDRESS":"成功三街８６巷１弄１２號","OBJECTID":121780},"geometry":{"x":171152.20000000112,"y":2539793.9600000009}},{"attributes":{"ID":121781,"DIS_CODE":0,"TOWNNAME":"仁德區","LI":"田厝里","LIN":"9鄰","STREET":"田厝二街","SECT":" ","MAREA":" ","LANE":"６４巷","ALLEY":"３７弄","HOUSE_NO":"４１號","E_COORD97":172394.82589599999,"N_COORD97":2537735.5702599999,"ADDRESS":"田厝二街６４巷３７弄４１號","OBJECTID":121781},"geometry":{"x":172394.82589599956,"y":2537735.5702630039}},{"attributes":{"ID":121782,"DIS_CODE":0,"TOWNNAME":"仁德區","LI":"仁義里","LIN":"16鄰","STREET":"義林路","SECT":" ","MAREA":" ","LANE":"２４１巷","ALLEY":"２弄","HOUSE_NO":"１０號","E_COORD97":174536.04000000001,"N_COORD97":2541296.2599999998,"ADDRESS":"義林路２４１巷２弄１０號","OBJECTID":121782},"geometry":{"x":174536.03999999911,"y":2541296.2600000035}},{"attributes":{"ID":121783,"DIS_CODE":0,"TOWNNAME":"仁德區","LI":"上崙里","LIN":"16鄰","STREET":"德崙路","SECT":" ","MAREA":" ","LANE":"３７０巷","ALLEY":"４９弄","HOUSE_NO":"３號","E_COORD97":174043.38,"N_COORD97":2537950.02,"ADDRESS":"德崙路３７０巷４９弄３號","OBJECTID":121783},"geometry":{"x":174043.37999999989,"y":2537950.0199999996}},{"attributes":{"ID":121784,"DIS_CODE":0,"TOWNNAME":"仁德區","LI":"仁義里","LIN":"16鄰","STREET":"義林路","SECT":" ","MAREA":" ","LANE":"２４１巷","ALLEY":"２弄","HOUSE_NO":"１１號","E_COORD97":174518.32000000001,"N_COORD97":2541307.9700000002,"ADDRESS":"義林路２４１巷２弄１１號","OBJECTID":121784},"geometry":{"x":174518.32000000123,"y":2541307.9700000007}},{"attributes":{"ID":121785,"DIS_CODE":0,"TOWNNAME":"仁德區","LI":"仁義里","LIN":"16鄰","STREET":"義林路","SECT":" ","MAREA":" ","LANE":"２４１巷","ALLEY":"２弄","HOUSE_NO":"１３號","E_COORD97":174519.26000000001,"N_COORD97":2541311.9700000002,"ADDRESS":"義林路２４１巷２弄１３號","OBJECTID":121785},"geometry":{"x":174519.26000000071,"y":2541311.9700000007}},{"attributes":{"ID":121786,"DIS_CODE":0,"TOWNNAME":"仁德區","LI":"仁義里","LIN":"16鄰","STREET":"義林路","SECT":" ","MAREA":" ","LANE":"２４１巷","ALLEY":"２弄","HOUSE_NO":"１２號","E_COORD97":174536.39000000001,"N_COORD97":2541300.2599999998,"ADDRESS":"義林路２４１巷２弄１２號","OBJECTID":121786},"geometry":{"x":174536.38999999966,"y":2541300.2600000016}},{"attributes":{"ID":121787,"DIS_CODE":0,"TOWNNAME":"仁德區","LI":"仁義里","LIN":"16鄰","STREET":"義林路","SECT":" ","MAREA":" ","LANE":"２４１巷","ALLEY":"２弄","HOUSE_NO":"５號","E_COORD97":174515.69,"N_COORD97":2541295.9700000002,"ADDRESS":"義林路２４１巷２弄５號","OBJECTID":121787},"geometry":{"x":174515.69000000134,"y":2541295.9700000044}},{"attributes":{"ID":121788,"DIS_CODE":0,"TOWNNAME":"仁德區","LI":"仁義里","LIN":"16鄰","STREET":"義林路","SECT":" ","MAREA":" ","LANE":"２４１巷","ALLEY":"２弄","HOUSE_NO":"６號","E_COORD97":174533.25,"N_COORD97":2541288.2599999998,"ADDRESS":"義林路２４１巷２弄６號","OBJECTID":121788},"geometry":{"x":174533.25000000093,"y":2541288.2599999998}},{"attributes":{"ID":121789,"DIS_CODE":0,"TOWNNAME":"仁德區","LI":"上崙里","LIN":"16鄰","STREET":"德崙路","SECT":" ","MAREA":" ","LANE":"３７０巷","ALLEY":"４９弄","HOUSE_NO":"２號","E_COORD97":174026.12,"N_COORD97":2537931.52,"ADDRESS":"德崙路３７０巷４９弄２號","OBJECTID":121789},"geometry":{"x":174026.12000000104,"y":2537931.5200000014}},{"attributes":{"ID":121790,"DIS_CODE":0,"TOWNNAME":"仁德區","LI":"土庫里","LIN":"16鄰","STREET":"土庫一街","SECT":" ","MAREA":" ","LANE":"２２巷","ALLEY":"２３弄","HOUSE_NO":"２１號","E_COORD97":174557.32000000001,"N_COORD97":2543032.5,"ADDRESS":"土庫一街２２巷２３弄２１號","OBJECTID":121790},"geometry":{"x":174557.32000000123,"y":2543032.5000000019}},{"attributes":{"ID":121791,"DIS_CODE":0,"TOWNNAME":"仁德區","LI":"成功里","LIN":"16鄰","STREET":"全福路","SECT":" ","MAREA":" ","LANE":"７５巷","ALLEY":"１３弄","HOUSE_NO":"２０號","E_COORD97":170975.97,"N_COORD97":2539366,"ADDRESS":"全福路７５巷１３弄２０號","OBJECTID":121791},"geometry":{"x":170975.96999999974,"y":2539366.0000000037}},{"attributes":{"ID":121792,"DIS_CODE":0,"TOWNNAME":"仁德區","LI":"成功里","LIN":"16鄰","STREET":"全福路","SECT":" ","MAREA":" ","LANE":"７５巷","ALLEY":"１３弄","HOUSE_NO":"１８號","E_COORD97":170979.95000000001,"N_COORD97":2539366,"ADDRESS":"全福路７５巷１３弄１８號","OBJECTID":121792},"geometry":{"x":170979.95000000019,"y":2539366.0000000037}},{"attributes":{"ID":121793,"DIS_CODE":0,"TOWNNAME":"仁德區","LI":"成功里","LIN":"16鄰","STREET":"全福路","SECT":" ","MAREA":" ","LANE":"７５巷","ALLEY":"１３弄","HOUSE_NO":"２９號","E_COORD97":170953.37,"N_COORD97":2539352.7400000002,"ADDRESS":"全福路７５巷１３弄２９號","OBJECTID":121793},"geometry":{"x":170953.37000000011,"y":2539352.7400000002}},{"attributes":{"ID":121794,"DIS_CODE":0,"TOWNNAME":"仁德區","LI":"成功里","LIN":"16鄰","STREET":"全福路","SECT":" ","MAREA":" ","LANE":"７５巷","ALLEY":"１３弄","HOUSE_NO":"３２號","E_COORD97":170939.14000000001,"N_COORD97":2539367,"ADDRESS":"全福路７５巷１３弄３２號","OBJECTID":121794},"geometry":{"x":170939.13999999966,"y":2539367.0000000019}},{"attributes":{"ID":121795,"DIS_CODE":0,"TOWNNAME":"仁德區","LI":"成功里","LIN":"16鄰","STREET":"全福路","SECT":" ","MAREA":" ","LANE":"７５巷","ALLEY":"１３弄","HOUSE_NO":"１９號","E_COORD97":170974.10000000001,"N_COORD97":2539350.4900000002,"ADDRESS":"全福路７５巷１３弄１９號","OBJECTID":121795},"geometry":{"x":170974.10000000056,"y":2539350.4900000021}},{"attributes":{"ID":121796,"DIS_CODE":0,"TOWNNAME":"仁德區","LI":"成功里","LIN":"16鄰","STREET":"全福路","SECT":" ","MAREA":" ","LANE":"７５巷","ALLEY":"１３弄","HOUSE_NO":"２３號","E_COORD97":170966.20999999999,"N_COORD97":2539351.4900000002,"ADDRESS":"全福路７５巷１３弄２３號","OBJECTID":121796},"geometry":{"x":170966.20999999996,"y":2539351.4900000002}},{"attributes":{"ID":121797,"DIS_CODE":0,"TOWNNAME":"仁德區","LI":"成功里","LIN":"16鄰","STREET":"全福路","SECT":" ","MAREA":" ","LANE":"７５巷","ALLEY":"１３弄","HOUSE_NO":"１６號","E_COORD97":170984.41,"N_COORD97":2539365.5,"ADDRESS":"全福路７５巷１３弄１６號","OBJECTID":121797},"geometry":{"x":170984.41000000108,"y":2539365.5}},{"attributes":{"ID":121798,"DIS_CODE":0,"TOWNNAME":"仁德區","LI":"成功里","LIN":"16鄰","STREET":"全福路","SECT":" ","MAREA":" ","LANE":"７５巷","ALLEY":"１４弄","HOUSE_NO":"３號","E_COORD97":171062.92999999999,"N_COORD97":2539356.9900000002,"ADDRESS":"全福路７５巷１４弄３號","OBJECTID":121798},"geometry":{"x":171062.9299999997,"y":2539356.9900000021}},{"attributes":{"ID":121799,"DIS_CODE":0,"TOWNNAME":"仁德區","LI":"成功里","LIN":"16鄰","STREET":"全福路","SECT":" ","MAREA":" ","LANE":"７５巷","ALLEY":"１３弄","HOUSE_NO":"４７號","E_COORD97":170915.26000000001,"N_COORD97":2539356.4900000002,"ADDRESS":"全福路７５巷１３弄４７號","OBJECTID":121799},"geometry":{"x":170915.26000000164,"y":2539356.4900000021}},{"attributes":{"ID":121800,"DIS_CODE":0,"TOWNNAME":"仁德區","LI":"仁德里","LIN":"26鄰","STREET":"淨修街","SECT":" ","MAREA":" ","LANE":"１７５巷","ALLEY":"３０弄","HOUSE_NO":"２號","E_COORD97":171974.62,"N_COORD97":2541236.6899999999,"ADDRESS":"淨修街１７５巷３０弄２號","OBJECTID":121800},"geometry":{"x":171974.62000000104,"y":2541236.6900000013}}]}