{"displayFieldName":"TOWNNAME","fieldAliases":{"ID":"ID","DIS_CODE":"DIS_CODE","TOWNNAME":"TOWNNAME","LI":"LI","LIN":"LIN","STREET":"STREET","SECT":"SECT","MAREA":"MAREA","LANE":"LANE","ALLEY":"ALLEY","HOUSE_NO":"HOUSE_NO","E_COORD97":"E_COORD97","N_COORD97":"N_COORD97","ADDRESS":"ADDRESS","OBJECTID":"OBJECTID"},"geometryType":"esriGeometryPoint","spatialReference":{"wkid":102443,"latestWkid":3826},"fields":[{"name":"ID","type":"esriFieldTypeDouble","alias":"ID"},{"name":"DIS_CODE","type":"esriFieldTypeInteger","alias":"DIS_CODE"},{"name":"TOWNNAME","type":"esriFieldTypeString","alias":"TOWNNAME","length":8},{"name":"LI","type":"esriFieldTypeString","alias":"LI","length":8},{"name":"LIN","type":"esriFieldTypeString","alias":"LIN","length":12},{"name":"STREET","type":"esriFieldTypeString","alias":"STREET","length":20},{"name":"SECT","type":"esriFieldTypeString","alias":"SECT","length":8},{"name":"MAREA","type":"esriFieldTypeString","alias":"MAREA","length":12},{"name":"LANE","type":"esriFieldTypeString","alias":"LANE","length":10},{"name":"ALLEY","type":"esriFieldTypeString","alias":"ALLEY","length":10},{"name":"HOUSE_NO","type":"esriFieldTypeString","alias":"HOUSE_NO","length":20},{"name":"E_COORD97","type":"esriFieldTypeDouble","alias":"E_COORD97"},{"name":"N_COORD97","type":"esriFieldTypeDouble","alias":"N_COORD97"},{"name":"ADDRESS","type":"esriFieldTypeString","alias":"ADDRESS","length":50},{"name":"OBJECTID","type":"esriFieldTypeOID","alias":"OBJECTID"}],"features":[{"attributes":{"ID":354410,"DIS_CODE":0,"TOWNNAME":"永康區","LI":"龍潭里","LIN":" ","STREET":"龍潭街","SECT":" ","MAREA":" ","LANE":" ","ALLEY":" ","HOUSE_NO":"４６號","E_COORD97":174754.10999999999,"N_COORD97":2547817.04,"ADDRESS":"龍潭街４６號","OBJECTID":354401},"geometry":{"x":174754.11000000034,"y":2547817.0400000028}},{"attributes":{"ID":354411,"DIS_CODE":0,"TOWNNAME":"安南區","LI":"大安里","LIN":"4鄰","STREET":"理安街","SECT":" ","MAREA":" ","LANE":" ","ALLEY":" ","HOUSE_NO":"４１號","E_COORD97":167306.95999999999,"N_COORD97":2547964.48,"ADDRESS":"理安街４１號","OBJECTID":354402},"geometry":{"x":167306.96000000089,"y":2547964.4800000042}},{"attributes":{"ID":354412,"DIS_CODE":0,"TOWNNAME":"永康區","LI":"埔園里","LIN":" ","STREET":"中山路","SECT":" ","MAREA":" ","LANE":" ","ALLEY":" ","HOUSE_NO":"４８６號","E_COORD97":173577.73999999999,"N_COORD97":2548553.1800000002,"ADDRESS":"中山路４８６號","OBJECTID":354403},"geometry":{"x":173577.74000000115,"y":2548553.1800000016}},{"attributes":{"ID":354413,"DIS_CODE":0,"TOWNNAME":"永康區","LI":"龍潭里","LIN":" ","STREET":"龍潭街","SECT":" ","MAREA":" ","LANE":" ","ALLEY":" ","HOUSE_NO":"１８６號","E_COORD97":174898.85999999999,"N_COORD97":2548199.1299999999,"ADDRESS":"龍潭街１８６號","OBJECTID":354404},"geometry":{"x":174898.8600000022,"y":2548199.1300000027}},{"attributes":{"ID":354414,"DIS_CODE":0,"TOWNNAME":"永康區","LI":"龍潭里","LIN":" ","STREET":"永明街","SECT":" ","MAREA":" ","LANE":" ","ALLEY":" ","HOUSE_NO":"３３０之４號","E_COORD97":174563.82000000001,"N_COORD97":2547135.0499999998,"ADDRESS":"永明街３３０之４號","OBJECTID":354405},"geometry":{"x":174563.82000000123,"y":2547135.0500000026}},{"attributes":{"ID":354415,"DIS_CODE":0,"TOWNNAME":"安南區","LI":"安富里","LIN":"20鄰","STREET":"郡安路","SECT":"五段","MAREA":" ","LANE":"１７８巷","ALLEY":" ","HOUSE_NO":"１００號","E_COORD97":167553.53,"N_COORD97":2547496.71,"ADDRESS":"郡安路五段１７８巷１００號","OBJECTID":354406},"geometry":{"x":167553.53000000026,"y":2547496.7100000028}},{"attributes":{"ID":354416,"DIS_CODE":0,"TOWNNAME":"安南區","LI":"安富里","LIN":"20鄰","STREET":"郡安路","SECT":"五段","MAREA":" ","LANE":"１７８巷","ALLEY":" ","HOUSE_NO":"１０２號","E_COORD97":167555.19,"N_COORD97":2547488.5499999998,"ADDRESS":"郡安路五段１７８巷１０２號","OBJECTID":354407},"geometry":{"x":167555.19000000134,"y":2547488.5500000007}},{"attributes":{"ID":354417,"DIS_CODE":0,"TOWNNAME":"安南區","LI":"安富里","LIN":"20鄰","STREET":"郡安路","SECT":"五段","MAREA":" ","LANE":"１７８巷","ALLEY":" ","HOUSE_NO":"１０６號","E_COORD97":167556.85999999999,"N_COORD97":2547478.5699999998,"ADDRESS":"郡安路五段１７８巷１０６號","OBJECTID":354408},"geometry":{"x":167556.8600000022,"y":2547478.5700000003}},{"attributes":{"ID":354418,"DIS_CODE":0,"TOWNNAME":"安南區","LI":"安富里","LIN":"20鄰","STREET":"郡安路","SECT":"五段","MAREA":" ","LANE":"１７８巷","ALLEY":" ","HOUSE_NO":"１１２號","E_COORD97":167559.85999999999,"N_COORD97":2547465.5899999999,"ADDRESS":"郡安路五段１７８巷１１２號","OBJECTID":354409},"geometry":{"x":167559.86000000034,"y":2547465.5900000017}},{"attributes":{"ID":354419,"DIS_CODE":0,"TOWNNAME":"安南區","LI":"安富里","LIN":"20鄰","STREET":"郡安路","SECT":"五段","MAREA":" ","LANE":"１７８巷","ALLEY":" ","HOUSE_NO":"１１４號","E_COORD97":167560.19,"N_COORD97":2547460.6000000001,"ADDRESS":"郡安路五段１７８巷１１４號","OBJECTID":354410},"geometry":{"x":167560.19000000134,"y":2547460.5999999996}},{"attributes":{"ID":354420,"DIS_CODE":0,"TOWNNAME":"安南區","LI":"安富里","LIN":"20鄰","STREET":"郡安路","SECT":"五段","MAREA":" ","LANE":"１７８巷","ALLEY":" ","HOUSE_NO":"９３號","E_COORD97":167573.29999999999,"N_COORD97":2547512.3799999999,"ADDRESS":"郡安路五段１７８巷９３號","OBJECTID":354411},"geometry":{"x":167573.29999999981,"y":2547512.379999999}},{"attributes":{"ID":354421,"DIS_CODE":0,"TOWNNAME":"安南區","LI":"大安里","LIN":"6鄰","STREET":"大安街","SECT":" ","MAREA":" ","LANE":"１３８巷","ALLEY":" ","HOUSE_NO":"１３號","E_COORD97":167347.64000000001,"N_COORD97":2548137.9399999999,"ADDRESS":"大安街１３８巷１３號","OBJECTID":354412},"geometry":{"x":167347.6400000006,"y":2548137.9400000013}},{"attributes":{"ID":354422,"DIS_CODE":0,"TOWNNAME":"安南區","LI":"大安里","LIN":"6鄰","STREET":"大安街","SECT":" ","MAREA":" ","LANE":"１３８巷","ALLEY":" ","HOUSE_NO":"１４號","E_COORD97":167333.76999999999,"N_COORD97":2548116.7400000002,"ADDRESS":"大安街１３８巷１４號","OBJECTID":354413},"geometry":{"x":167333.76999999955,"y":2548116.7400000002}},{"attributes":{"ID":354423,"DIS_CODE":0,"TOWNNAME":"安南區","LI":"大安里","LIN":"6鄰","STREET":"大安街","SECT":" ","MAREA":" ","LANE":"１３８巷","ALLEY":" ","HOUSE_NO":"１５號","E_COORD97":167352.04999999999,"N_COORD97":2548135.8300000001,"ADDRESS":"大安街１３８巷１５號","OBJECTID":354414},"geometry":{"x":167352.05000000075,"y":2548135.8300000019}},{"attributes":{"ID":354424,"DIS_CODE":0,"TOWNNAME":"安南區","LI":"大安里","LIN":"6鄰","STREET":"大安街","SECT":" ","MAREA":" ","LANE":"１３８巷","ALLEY":" ","HOUSE_NO":"１６號","E_COORD97":167338.38,"N_COORD97":2548113.8599999999,"ADDRESS":"大安街１３８巷１６號","OBJECTID":354415},"geometry":{"x":167338.38000000082,"y":2548113.8600000013}},{"attributes":{"ID":354425,"DIS_CODE":0,"TOWNNAME":"安南區","LI":"大安里","LIN":"6鄰","STREET":"大安街","SECT":" ","MAREA":" ","LANE":"１３８巷","ALLEY":" ","HOUSE_NO":"１７號","E_COORD97":167354.92999999999,"N_COORD97":2548132.1800000002,"ADDRESS":"大安街１３８巷１７號","OBJECTID":354416},"geometry":{"x":167354.9299999997,"y":2548132.1800000016}},{"attributes":{"ID":354426,"DIS_CODE":0,"TOWNNAME":"安南區","LI":"大安里","LIN":"6鄰","STREET":"大安街","SECT":" ","MAREA":" ","LANE":"１３８巷","ALLEY":" ","HOUSE_NO":"１８號","E_COORD97":167342.22,"N_COORD97":2548111.5600000001,"ADDRESS":"大安街１３８巷１８號","OBJECTID":354417},"geometry":{"x":167342.22000000067,"y":2548111.5600000005}},{"attributes":{"ID":354427,"DIS_CODE":0,"TOWNNAME":"安南區","LI":"大安里","LIN":"6鄰","STREET":"大安街","SECT":" ","MAREA":" ","LANE":"１３８巷","ALLEY":" ","HOUSE_NO":"１９號","E_COORD97":167359.14999999999,"N_COORD97":2548129.5,"ADDRESS":"大安街１３８巷１９號","OBJECTID":354418},"geometry":{"x":167359.1500000013,"y":2548129.5}},{"attributes":{"ID":354428,"DIS_CODE":0,"TOWNNAME":"安南區","LI":"大安里","LIN":"6鄰","STREET":"大安街","SECT":" ","MAREA":" ","LANE":"１３８巷","ALLEY":" ","HOUSE_NO":"１號","E_COORD97":167323.07000000001,"N_COORD97":2548151.7400000002,"ADDRESS":"大安街１３８巷１號","OBJECTID":354419},"geometry":{"x":167323.06999999937,"y":2548151.7400000002}},{"attributes":{"ID":354429,"DIS_CODE":0,"TOWNNAME":"安南區","LI":"大安里","LIN":"6鄰","STREET":"大安街","SECT":" ","MAREA":" ","LANE":"１３８巷","ALLEY":" ","HOUSE_NO":"２０號","E_COORD97":167345.85999999999,"N_COORD97":2548109.0699999998,"ADDRESS":"大安街１３８巷２０號","OBJECTID":354420},"geometry":{"x":167345.86000000034,"y":2548109.0700000003}},{"attributes":{"ID":354430,"DIS_CODE":0,"TOWNNAME":"安南區","LI":"大安里","LIN":"6鄰","STREET":"大安街","SECT":" ","MAREA":" ","LANE":"１３８巷","ALLEY":" ","HOUSE_NO":"２１號","E_COORD97":167362.79999999999,"N_COORD97":2548127.77,"ADDRESS":"大安街１３８巷２１號","OBJECTID":354421},"geometry":{"x":167362.79999999981,"y":2548127.7700000033}},{"attributes":{"ID":354431,"DIS_CODE":0,"TOWNNAME":"安南區","LI":"大安里","LIN":"6鄰","STREET":"大安街","SECT":" ","MAREA":" ","LANE":"１３８巷","ALLEY":" ","HOUSE_NO":"２２號","E_COORD97":167349.89000000001,"N_COORD97":2548105.8100000001,"ADDRESS":"大安街１３８巷２２號","OBJECTID":354422},"geometry":{"x":167349.8900000006,"y":2548105.8100000024}},{"attributes":{"ID":354432,"DIS_CODE":0,"TOWNNAME":"安南區","LI":"大安里","LIN":"6鄰","STREET":"大安街","SECT":" ","MAREA":" ","LANE":"１３８巷","ALLEY":" ","HOUSE_NO":"２３號","E_COORD97":167367.60000000001,"N_COORD97":2548125.6699999999,"ADDRESS":"大安街１３８巷２３號","OBJECTID":354423},"geometry":{"x":167367.59999999963,"y":2548125.6700000018}},{"attributes":{"ID":354433,"DIS_CODE":0,"TOWNNAME":"安南區","LI":"大安里","LIN":"6鄰","STREET":"大安街","SECT":" ","MAREA":" ","LANE":"１３８巷","ALLEY":" ","HOUSE_NO":"２４號","E_COORD97":167353.35000000001,"N_COORD97":2548102.9300000002,"ADDRESS":"大安街１３８巷２４號","OBJECTID":354424},"geometry":{"x":167353.35000000056,"y":2548102.9300000034}},{"attributes":{"ID":354434,"DIS_CODE":0,"TOWNNAME":"安南區","LI":"大安里","LIN":"6鄰","STREET":"大安街","SECT":" ","MAREA":" ","LANE":"１３８巷","ALLEY":" ","HOUSE_NO":"２５號","E_COORD97":167370.67000000001,"N_COORD97":2548121.6400000001,"ADDRESS":"大安街１３８巷２５號","OBJECTID":354425},"geometry":{"x":167370.66999999993,"y":2548121.6400000006}},{"attributes":{"ID":354435,"DIS_CODE":0,"TOWNNAME":"安南區","LI":"大安里","LIN":"6鄰","STREET":"大安街","SECT":" ","MAREA":" ","LANE":"１３８巷","ALLEY":" ","HOUSE_NO":"２６號","E_COORD97":167357.19,"N_COORD97":2548099.8700000001,"ADDRESS":"大安街１３８巷２６號","OBJECTID":354426},"geometry":{"x":167357.19000000134,"y":2548099.870000001}},{"attributes":{"ID":354436,"DIS_CODE":0,"TOWNNAME":"安南區","LI":"大安里","LIN":"6鄰","STREET":"大安街","SECT":" ","MAREA":" ","LANE":"１３８巷","ALLEY":" ","HOUSE_NO":"２７號","E_COORD97":167375.85000000001,"N_COORD97":2548119.7200000002,"ADDRESS":"大安街１３８巷２７號","OBJECTID":354427},"geometry":{"x":167375.84999999963,"y":2548119.7200000025}},{"attributes":{"ID":354437,"DIS_CODE":0,"TOWNNAME":"安南區","LI":"大安里","LIN":"6鄰","STREET":"大安街","SECT":" ","MAREA":" ","LANE":"１３８巷","ALLEY":" ","HOUSE_NO":"２８號","E_COORD97":167361.03,"N_COORD97":2548097.5699999998,"ADDRESS":"大安街１３８巷２８號","OBJECTID":354428},"geometry":{"x":167361.03000000119,"y":2548097.5700000022}},{"attributes":{"ID":354438,"DIS_CODE":0,"TOWNNAME":"安南區","LI":"大安里","LIN":"6鄰","STREET":"大安街","SECT":" ","MAREA":" ","LANE":"１３８巷","ALLEY":" ","HOUSE_NO":"２號","E_COORD97":167309.01999999999,"N_COORD97":2548129.5800000001,"ADDRESS":"大安街１３８巷２號","OBJECTID":354429},"geometry":{"x":167309.01999999955,"y":2548129.5800000038}},{"attributes":{"ID":354439,"DIS_CODE":0,"TOWNNAME":"安南區","LI":"大安里","LIN":"6鄰","STREET":"大安街","SECT":" ","MAREA":" ","LANE":"１３８巷","ALLEY":" ","HOUSE_NO":"３０號","E_COORD97":167364.67000000001,"N_COORD97":2548095.27,"ADDRESS":"大安街１３８巷３０號","OBJECTID":354430},"geometry":{"x":167364.67000000086,"y":2548095.2700000014}},{"attributes":{"ID":354440,"DIS_CODE":0,"TOWNNAME":"東區","LI":"中西里","LIN":"8鄰","STREET":"勝利路","SECT":" ","MAREA":" ","LANE":" ","ALLEY":" ","HOUSE_NO":"５０號三樓之１２","E_COORD97":169830.25,"N_COORD97":2543536.9100000001,"ADDRESS":"勝利路５０號三樓之１２","OBJECTID":354431},"geometry":{"x":169830.25,"y":2543536.9100000039}},{"attributes":{"ID":354441,"DIS_CODE":0,"TOWNNAME":"東區","LI":"中西里","LIN":"8鄰","STREET":"勝利路","SECT":" ","MAREA":" ","LANE":" ","ALLEY":" ","HOUSE_NO":"５０號三樓之１３","E_COORD97":169830.25,"N_COORD97":2543536.9100000001,"ADDRESS":"勝利路５０號三樓之１３","OBJECTID":354432},"geometry":{"x":169830.25,"y":2543536.9100000039}},{"attributes":{"ID":354442,"DIS_CODE":0,"TOWNNAME":"東區","LI":"中西里","LIN":"8鄰","STREET":"勝利路","SECT":" ","MAREA":" ","LANE":" ","ALLEY":" ","HOUSE_NO":"５０號三樓之１４","E_COORD97":169830.25,"N_COORD97":2543536.9100000001,"ADDRESS":"勝利路５０號三樓之１４","OBJECTID":354433},"geometry":{"x":169830.25,"y":2543536.9100000039}},{"attributes":{"ID":354443,"DIS_CODE":0,"TOWNNAME":"東區","LI":"中西里","LIN":"8鄰","STREET":"勝利路","SECT":" ","MAREA":" ","LANE":" ","ALLEY":" ","HOUSE_NO":"５０號三樓之１５","E_COORD97":169830.25,"N_COORD97":2543536.9100000001,"ADDRESS":"勝利路５０號三樓之１５","OBJECTID":354434},"geometry":{"x":169830.25,"y":2543536.9100000039}},{"attributes":{"ID":354444,"DIS_CODE":0,"TOWNNAME":"東區","LI":"中西里","LIN":"8鄰","STREET":"勝利路","SECT":" ","MAREA":" ","LANE":" ","ALLEY":" ","HOUSE_NO":"５０號三樓之１６","E_COORD97":169830.25,"N_COORD97":2543536.9100000001,"ADDRESS":"勝利路５０號三樓之１６","OBJECTID":354435},"geometry":{"x":169830.25,"y":2543536.9100000039}},{"attributes":{"ID":354445,"DIS_CODE":0,"TOWNNAME":"東區","LI":"中西里","LIN":"8鄰","STREET":"勝利路","SECT":" ","MAREA":" ","LANE":" ","ALLEY":" ","HOUSE_NO":"５０號三樓之１７","E_COORD97":169830.25,"N_COORD97":2543536.9100000001,"ADDRESS":"勝利路５０號三樓之１７","OBJECTID":354436},"geometry":{"x":169830.25,"y":2543536.9100000039}},{"attributes":{"ID":354446,"DIS_CODE":0,"TOWNNAME":"東區","LI":"中西里","LIN":"8鄰","STREET":"勝利路","SECT":" ","MAREA":" ","LANE":" ","ALLEY":" ","HOUSE_NO":"５０號四樓","E_COORD97":169830.25,"N_COORD97":2543536.9100000001,"ADDRESS":"勝利路５０號四樓","OBJECTID":354437},"geometry":{"x":169830.25,"y":2543536.9100000039}},{"attributes":{"ID":354447,"DIS_CODE":0,"TOWNNAME":"安南區","LI":"安富里","LIN":"20鄰","STREET":"郡安路","SECT":"五段","MAREA":" ","LANE":"１７８巷","ALLEY":" ","HOUSE_NO":"９６號","E_COORD97":167551.53,"N_COORD97":2547503.6899999999,"ADDRESS":"郡安路五段１７８巷９６號","OBJECTID":354438},"geometry":{"x":167551.53000000026,"y":2547503.6899999995}},{"attributes":{"ID":354448,"DIS_CODE":0,"TOWNNAME":"永康區","LI":"勝利里","LIN":"20鄰","STREET":"勝學路","SECT":" ","MAREA":" ","LANE":"２６９巷","ALLEY":" ","HOUSE_NO":"１號","E_COORD97":171167.01000000001,"N_COORD97":2545303.7599999998,"ADDRESS":"勝學路２６９巷１號","OBJECTID":354439},"geometry":{"x":171167.00999999978,"y":2545303.7600000035}},{"attributes":{"ID":354449,"DIS_CODE":0,"TOWNNAME":"新化區","LI":"協興里","LIN":"6鄰","STREET":"忠孝路","SECT":" ","MAREA":" ","LANE":"１９０巷","ALLEY":" ","HOUSE_NO":"５號","E_COORD97":178394.32000000001,"N_COORD97":2548636.25,"ADDRESS":"忠孝路１９０巷５號","OBJECTID":354440},"geometry":{"x":178394.31999999937,"y":2548636.25}},{"attributes":{"ID":354450,"DIS_CODE":0,"TOWNNAME":"新化區","LI":"協興里","LIN":"6鄰","STREET":"忠孝路","SECT":" ","MAREA":" ","LANE":"１９６巷","ALLEY":" ","HOUSE_NO":"５號","E_COORD97":178357.32000000001,"N_COORD97":2548586.25,"ADDRESS":"忠孝路１９６巷５號","OBJECTID":354441},"geometry":{"x":178357.32000000123,"y":2548586.2500000037}},{"attributes":{"ID":354451,"DIS_CODE":0,"TOWNNAME":"新化區","LI":"協興里","LIN":"6鄰","STREET":"忠孝路","SECT":" ","MAREA":" ","LANE":"１９０巷","ALLEY":" ","HOUSE_NO":"３３號","E_COORD97":178341.07000000001,"N_COORD97":2548614.25,"ADDRESS":"忠孝路１９０巷３３號","OBJECTID":354442},"geometry":{"x":178341.0700000003,"y":2548614.2500000019}},{"attributes":{"ID":354452,"DIS_CODE":0,"TOWNNAME":"白河區","LI":"庄內里","LIN":"6鄰","STREET":"裕民街","SECT":" ","MAREA":" ","LANE":"６９巷","ALLEY":" ","HOUSE_NO":"１０號","E_COORD97":190833.95999999999,"N_COORD97":2583603.79,"ADDRESS":"裕民街６９巷１０號","OBJECTID":354443},"geometry":{"x":190833.95999999996,"y":2583603.7899999972}},{"attributes":{"ID":354453,"DIS_CODE":0,"TOWNNAME":"白河區","LI":"庄內里","LIN":"6鄰","STREET":"裕民街","SECT":" ","MAREA":" ","LANE":"６９巷","ALLEY":" ","HOUSE_NO":"２號","E_COORD97":190814.10000000001,"N_COORD97":2583600.71,"ADDRESS":"裕民街６９巷２號","OBJECTID":354444},"geometry":{"x":190814.0999999987,"y":2583600.7100000028}},{"attributes":{"ID":354454,"DIS_CODE":0,"TOWNNAME":"白河區","LI":"庄內里","LIN":"6鄰","STREET":"裕民街","SECT":" ","MAREA":" ","LANE":"６９巷","ALLEY":" ","HOUSE_NO":"６號","E_COORD97":190820.56,"N_COORD97":2583601.98,"ADDRESS":"裕民街６９巷６號","OBJECTID":354445},"geometry":{"x":190820.55999999959,"y":2583601.9800000023}},{"attributes":{"ID":354455,"DIS_CODE":0,"TOWNNAME":"白河區","LI":"庄內里","LIN":"6鄰","STREET":"裕民街","SECT":" ","MAREA":" ","LANE":"６９巷","ALLEY":" ","HOUSE_NO":"８號","E_COORD97":190827.37,"N_COORD97":2583602.7999999998,"ADDRESS":"裕民街６９巷８號","OBJECTID":354446},"geometry":{"x":190827.37000000011,"y":2583602.8000000026}},{"attributes":{"ID":354456,"DIS_CODE":0,"TOWNNAME":"南區","LI":"同安里","LIN":" ","STREET":"灣里路","SECT":" ","MAREA":" ","LANE":"４００巷","ALLEY":" ","HOUSE_NO":"３１號","E_COORD97":166062.88,"N_COORD97":2536122.6099999999,"ADDRESS":"灣里路４００巷３１號","OBJECTID":354447},"geometry":{"x":166062.88000000175,"y":2536122.6099999994}},{"attributes":{"ID":354457,"DIS_CODE":0,"TOWNNAME":"永康區","LI":"西灣里","LIN":"6鄰","STREET":"大灣五街","SECT":" ","MAREA":" ","LANE":"９３巷","ALLEY":" ","HOUSE_NO":"５３號","E_COORD97":174575.95999999999,"N_COORD97":2545210.5,"ADDRESS":"大灣五街９３巷５３號","OBJECTID":354448},"geometry":{"x":174575.96000000089,"y":2545210.5}},{"attributes":{"ID":354458,"DIS_CODE":0,"TOWNNAME":"永康區","LI":"西橋里","LIN":"6鄰","STREET":"中山南路","SECT":" ","MAREA":" ","LANE":"４３巷","ALLEY":" ","HOUSE_NO":"４１號","E_COORD97":170681.53,"N_COORD97":2545956.6200000001,"ADDRESS":"中山南路４３巷４１號","OBJECTID":354449},"geometry":{"x":170681.53000000212,"y":2545956.620000001}},{"attributes":{"ID":354459,"DIS_CODE":0,"TOWNNAME":"永康區","LI":"西橋里","LIN":"6鄰","STREET":"中華西街","SECT":" ","MAREA":" ","LANE":"６３巷","ALLEY":" ","HOUSE_NO":"５２號","E_COORD97":170640.29000000001,"N_COORD97":2545977.7400000002,"ADDRESS":"中華西街６３巷５２號","OBJECTID":354450},"geometry":{"x":170640.29000000004,"y":2545977.7400000002}},{"attributes":{"ID":354460,"DIS_CODE":0,"TOWNNAME":"東區","LI":"中西里","LIN":"8鄰","STREET":"勝利路","SECT":" ","MAREA":" ","LANE":" ","ALLEY":" ","HOUSE_NO":"５０號四樓之１","E_COORD97":169830.25,"N_COORD97":2543536.9100000001,"ADDRESS":"勝利路５０號四樓之１","OBJECTID":354451},"geometry":{"x":169830.25,"y":2543536.9100000039}},{"attributes":{"ID":354461,"DIS_CODE":0,"TOWNNAME":"東區","LI":"中西里","LIN":"8鄰","STREET":"勝利路","SECT":" ","MAREA":" ","LANE":" ","ALLEY":" ","HOUSE_NO":"５０號四樓之２","E_COORD97":169830.25,"N_COORD97":2543536.9100000001,"ADDRESS":"勝利路５０號四樓之２","OBJECTID":354452},"geometry":{"x":169830.25,"y":2543536.9100000039}},{"attributes":{"ID":354462,"DIS_CODE":0,"TOWNNAME":"永康區","LI":"西灣里","LIN":"6鄰","STREET":"大灣五街","SECT":" ","MAREA":" ","LANE":"９３巷","ALLEY":" ","HOUSE_NO":"３３號","E_COORD97":174593.42000000001,"N_COORD97":2545246.7400000002,"ADDRESS":"大灣五街９３巷３３號","OBJECTID":354453},"geometry":{"x":174593.42000000086,"y":2545246.7400000039}},{"attributes":{"ID":354463,"DIS_CODE":0,"TOWNNAME":"永康區","LI":"西灣里","LIN":"6鄰","STREET":"大灣五街","SECT":" ","MAREA":" ","LANE":"９３巷","ALLEY":" ","HOUSE_NO":"５５號","E_COORD97":174574.54999999999,"N_COORD97":2545207.5,"ADDRESS":"大灣五街９３巷５５號","OBJECTID":354454},"geometry":{"x":174574.54999999981,"y":2545207.5000000037}},{"attributes":{"ID":354464,"DIS_CODE":0,"TOWNNAME":"永康區","LI":"西灣里","LIN":"6鄰","STREET":"大灣五街","SECT":" ","MAREA":" ","LANE":"９３巷","ALLEY":" ","HOUSE_NO":"３７號","E_COORD97":174589.28,"N_COORD97":2545235.2400000002,"ADDRESS":"大灣五街９３巷３７號","OBJECTID":354455},"geometry":{"x":174589.28000000119,"y":2545235.2400000002}},{"attributes":{"ID":354465,"DIS_CODE":0,"TOWNNAME":"永康區","LI":"西橋里","LIN":"6鄰","STREET":"中華西街","SECT":" ","MAREA":" ","LANE":"６３巷","ALLEY":" ","HOUSE_NO":"５６號","E_COORD97":170629.87,"N_COORD97":2545974.7400000002,"ADDRESS":"中華西街６３巷５６號","OBJECTID":354456},"geometry":{"x":170629.86999999918,"y":2545974.7400000002}},{"attributes":{"ID":354466,"DIS_CODE":0,"TOWNNAME":"永康區","LI":"西橋里","LIN":"6鄰","STREET":"中華西街","SECT":" ","MAREA":" ","LANE":"６３巷","ALLEY":" ","HOUSE_NO":"３８號","E_COORD97":170648.20999999999,"N_COORD97":2546000.5499999998,"ADDRESS":"中華西街６３巷３８號","OBJECTID":354457},"geometry":{"x":170648.21000000089,"y":2546000.5500000007}},{"attributes":{"ID":354467,"DIS_CODE":0,"TOWNNAME":"永康區","LI":"西灣里","LIN":"6鄰","STREET":"大灣五街","SECT":" ","MAREA":" ","LANE":"９３巷","ALLEY":" ","HOUSE_NO":"３９號","E_COORD97":174587.01000000001,"N_COORD97":2545229.4900000002,"ADDRESS":"大灣五街９３巷３９號","OBJECTID":354458},"geometry":{"x":174587.01000000164,"y":2545229.4900000021}},{"attributes":{"ID":354468,"DIS_CODE":0,"TOWNNAME":"南區","LI":"竹溪里","LIN":"4鄰","STREET":"體育路","SECT":" ","MAREA":" ","LANE":"４１巷","ALLEY":" ","HOUSE_NO":"２號","E_COORD97":168720.42999999999,"N_COORD97":2542239.7799999998,"ADDRESS":"體育路４１巷２號","OBJECTID":354459},"geometry":{"x":168720.43000000156,"y":2542239.7800000012}},{"attributes":{"ID":354469,"DIS_CODE":0,"TOWNNAME":"南區","LI":"竹溪里","LIN":"5鄰","STREET":"體育路","SECT":" ","MAREA":" ","LANE":"４１巷","ALLEY":" ","HOUSE_NO":"２９號","E_COORD97":168855.60000000001,"N_COORD97":2542260.29,"ADDRESS":"體育路４１巷２９號","OBJECTID":354460},"geometry":{"x":168855.59999999963,"y":2542260.2899999991}},{"attributes":{"ID":354470,"DIS_CODE":0,"TOWNNAME":"南區","LI":"竹溪里","LIN":"1鄰","STREET":"健康路","SECT":"一段","MAREA":" ","LANE":"１１３巷","ALLEY":" ","HOUSE_NO":"４２號","E_COORD97":168930.51999999999,"N_COORD97":2542281.4300000002,"ADDRESS":"健康路一段１１３巷４２號","OBJECTID":354461},"geometry":{"x":168930.52000000048,"y":2542281.4299999997}},{"attributes":{"ID":354471,"DIS_CODE":0,"TOWNNAME":"南區","LI":"竹溪里","LIN":"1鄰","STREET":"健康路","SECT":"一段","MAREA":" ","LANE":"１１３巷","ALLEY":" ","HOUSE_NO":"４４號","E_COORD97":168930.10000000001,"N_COORD97":2542276.8500000001,"ADDRESS":"健康路一段１１３巷４４號","OBJECTID":354462},"geometry":{"x":168930.10000000056,"y":2542276.8500000015}},{"attributes":{"ID":354472,"DIS_CODE":0,"TOWNNAME":"南區","LI":"竹溪里","LIN":"1鄰","STREET":"健康路","SECT":"一段","MAREA":" ","LANE":"１１３巷","ALLEY":" ","HOUSE_NO":"４６號","E_COORD97":168930.51999999999,"N_COORD97":2542272.27,"ADDRESS":"健康路一段１１３巷４６號","OBJECTID":354463},"geometry":{"x":168930.52000000048,"y":2542272.2699999977}},{"attributes":{"ID":354473,"DIS_CODE":0,"TOWNNAME":"永康區","LI":"西橋里","LIN":"6鄰","STREET":"中華西街","SECT":" ","MAREA":" ","LANE":"６３巷","ALLEY":" ","HOUSE_NO":"４２號","E_COORD97":170640.73999999999,"N_COORD97":2545996.2999999998,"ADDRESS":"中華西街６３巷４２號","OBJECTID":354464},"geometry":{"x":170640.74000000022,"y":2545996.3000000045}},{"attributes":{"ID":354474,"DIS_CODE":0,"TOWNNAME":"東區","LI":"大智里","LIN":"20鄰","STREET":"崇善十五街","SECT":" ","MAREA":" ","LANE":" ","ALLEY":" ","HOUSE_NO":"３７號","E_COORD97":171320.48000000001,"N_COORD97":2540548.29,"ADDRESS":"崇善十五街３７號","OBJECTID":354465},"geometry":{"x":171320.48000000045,"y":2540548.2899999991}},{"attributes":{"ID":354475,"DIS_CODE":0,"TOWNNAME":"善化區","LI":"坐駕里","LIN":"6鄰","STREET":"民權路","SECT":" ","MAREA":" ","LANE":"２８５巷","ALLEY":" ","HOUSE_NO":"１號","E_COORD97":177934.04000000001,"N_COORD97":2558928.0099999998,"ADDRESS":"民權路２８５巷１號","OBJECTID":354466},"geometry":{"x":177934.04000000097,"y":2558928.0100000035}},{"attributes":{"ID":354476,"DIS_CODE":0,"TOWNNAME":"中西區","LI":"西賢里","LIN":"20鄰","STREET":"西賢一街","SECT":" ","MAREA":" ","LANE":"１８７巷","ALLEY":" ","HOUSE_NO":"３８號","E_COORD97":165640.57000000001,"N_COORD97":2544961.8300000001,"ADDRESS":"西賢一街１８７巷３８號","OBJECTID":354467},"geometry":{"x":165640.57000000123,"y":2544961.8300000019}},{"attributes":{"ID":354477,"DIS_CODE":0,"TOWNNAME":"中西區","LI":"西賢里","LIN":"20鄰","STREET":"西賢一街","SECT":" ","MAREA":" ","LANE":"１８７巷","ALLEY":" ","HOUSE_NO":"４０號","E_COORD97":165635.48999999999,"N_COORD97":2544961.9700000002,"ADDRESS":"西賢一街１８７巷４０號","OBJECTID":354468},"geometry":{"x":165635.49000000115,"y":2544961.9700000025}},{"attributes":{"ID":354478,"DIS_CODE":0,"TOWNNAME":"中西區","LI":"西賢里","LIN":"20鄰","STREET":"西賢一街","SECT":" ","MAREA":" ","LANE":"１８７巷","ALLEY":" ","HOUSE_NO":"４２號","E_COORD97":165630.95999999999,"N_COORD97":2544961.9700000002,"ADDRESS":"西賢一街１８７巷４２號","OBJECTID":354469},"geometry":{"x":165630.95999999996,"y":2544961.9700000025}},{"attributes":{"ID":354479,"DIS_CODE":0,"TOWNNAME":"中西區","LI":"西賢里","LIN":"20鄰","STREET":"西賢一街","SECT":" ","MAREA":" ","LANE":"１８７巷","ALLEY":" ","HOUSE_NO":"４６號","E_COORD97":165625.92000000001,"N_COORD97":2544960.1499999999,"ADDRESS":"西賢一街１８７巷４６號","OBJECTID":354470},"geometry":{"x":165625.92000000086,"y":2544960.1500000022}},{"attributes":{"ID":354480,"DIS_CODE":0,"TOWNNAME":"中西區","LI":"西賢里","LIN":"20鄰","STREET":"西賢一街","SECT":" ","MAREA":" ","LANE":"１８７巷","ALLEY":" ","HOUSE_NO":"４８號","E_COORD97":165622.22,"N_COORD97":2544960.52,"ADDRESS":"西賢一街１８７巷４８號","OBJECTID":354471},"geometry":{"x":165622.21999999974,"y":2544960.5200000014}},{"attributes":{"ID":354481,"DIS_CODE":0,"TOWNNAME":"中西區","LI":"西賢里","LIN":"20鄰","STREET":"西賢一街","SECT":" ","MAREA":" ","LANE":"１８７巷","ALLEY":" ","HOUSE_NO":"５０號","E_COORD97":165618.14999999999,"N_COORD97":2544960.52,"ADDRESS":"西賢一街１８７巷５０號","OBJECTID":354472},"geometry":{"x":165618.1500000013,"y":2544960.5200000014}},{"attributes":{"ID":354482,"DIS_CODE":0,"TOWNNAME":"中西區","LI":"西賢里","LIN":"20鄰","STREET":"西賢一街","SECT":" ","MAREA":" ","LANE":"１８７巷","ALLEY":" ","HOUSE_NO":"５２號","E_COORD97":165614.26999999999,"N_COORD97":2544960.3399999999,"ADDRESS":"西賢一街１８７巷５２號","OBJECTID":354473},"geometry":{"x":165614.27000000048,"y":2544960.3399999999}},{"attributes":{"ID":354483,"DIS_CODE":0,"TOWNNAME":"中西區","LI":"西賢里","LIN":"20鄰","STREET":"西賢一街","SECT":" ","MAREA":" ","LANE":"１８７巷","ALLEY":" ","HOUSE_NO":"５６號","E_COORD97":165610.01999999999,"N_COORD97":2544960.8900000001,"ADDRESS":"西賢一街１８７巷５６號","OBJECTID":354474},"geometry":{"x":165610.01999999955,"y":2544960.8900000006}},{"attributes":{"ID":354484,"DIS_CODE":0,"TOWNNAME":"中西區","LI":"西賢里","LIN":"20鄰","STREET":"西賢一街","SECT":" ","MAREA":" ","LANE":"１８７巷","ALLEY":" ","HOUSE_NO":"５８號","E_COORD97":165605.39999999999,"N_COORD97":2544961.6299999999,"ADDRESS":"西賢一街１８７巷５８號","OBJECTID":354475},"geometry":{"x":165605.39999999944,"y":2544961.6300000027}},{"attributes":{"ID":354485,"DIS_CODE":0,"TOWNNAME":"中西區","LI":"西賢里","LIN":"20鄰","STREET":"西賢一街","SECT":" ","MAREA":" ","LANE":"１８７巷","ALLEY":" ","HOUSE_NO":"６０號","E_COORD97":165600.78,"N_COORD97":2544962.1800000002,"ADDRESS":"西賢一街１８７巷６０號","OBJECTID":354476},"geometry":{"x":165600.78000000026,"y":2544962.1800000016}},{"attributes":{"ID":354486,"DIS_CODE":0,"TOWNNAME":"中西區","LI":"西賢里","LIN":"20鄰","STREET":"西賢一街","SECT":" ","MAREA":" ","LANE":"１８７巷","ALLEY":" ","HOUSE_NO":"６２號","E_COORD97":165597.07999999999,"N_COORD97":2544961.8100000001,"ADDRESS":"西賢一街１８７巷６２號","OBJECTID":354477},"geometry":{"x":165597.07999999914,"y":2544961.8100000042}},{"attributes":{"ID":354487,"DIS_CODE":0,"TOWNNAME":"中西區","LI":"西賢里","LIN":"20鄰","STREET":"西賢一街","SECT":" ","MAREA":" ","LANE":"１８７巷","ALLEY":" ","HOUSE_NO":"６６號","E_COORD97":165593.39000000001,"N_COORD97":2544962.1800000002,"ADDRESS":"西賢一街１８７巷６６號","OBJECTID":354478},"geometry":{"x":165593.3900000006,"y":2544962.1800000016}},{"attributes":{"ID":354488,"DIS_CODE":0,"TOWNNAME":"永康區","LI":"西灣里","LIN":"6鄰","STREET":"大灣五街","SECT":" ","MAREA":" ","LANE":"９３巷","ALLEY":" ","HOUSE_NO":"４５號","E_COORD97":174606.95999999999,"N_COORD97":2545210.75,"ADDRESS":"大灣五街９３巷４５號","OBJECTID":354479},"geometry":{"x":174606.95999999996,"y":2545210.7500000019}},{"attributes":{"ID":354489,"DIS_CODE":0,"TOWNNAME":"永康區","LI":"西灣里","LIN":"6鄰","STREET":"大灣五街","SECT":" ","MAREA":" ","LANE":"９３巷","ALLEY":" ","HOUSE_NO":"２９號","E_COORD97":174594.51999999999,"N_COORD97":2545250.7400000002,"ADDRESS":"大灣五街９３巷２９號","OBJECTID":354480},"geometry":{"x":174594.51999999955,"y":2545250.7400000021}},{"attributes":{"ID":354490,"DIS_CODE":0,"TOWNNAME":"永康區","LI":"西灣里","LIN":"6鄰","STREET":"大灣五街","SECT":" ","MAREA":" ","LANE":"９３巷","ALLEY":" ","HOUSE_NO":"５１號","E_COORD97":174578.01000000001,"N_COORD97":2545214.9900000002,"ADDRESS":"大灣五街９３巷５１號","OBJECTID":354481},"geometry":{"x":174578.00999999978,"y":2545214.9900000021}},{"attributes":{"ID":354491,"DIS_CODE":0,"TOWNNAME":"永康區","LI":"西橋里","LIN":"6鄰","STREET":"中華西街","SECT":" ","MAREA":" ","LANE":"６３巷","ALLEY":" ","HOUSE_NO":"４８號","E_COORD97":170652.98999999999,"N_COORD97":2545971.9900000002,"ADDRESS":"中華西街６３巷４８號","OBJECTID":354482},"geometry":{"x":170652.99000000209,"y":2545971.9900000021}},{"attributes":{"ID":354492,"DIS_CODE":0,"TOWNNAME":"永康區","LI":"西橋里","LIN":"6鄰","STREET":"中山南路","SECT":" ","MAREA":" ","LANE":"４３巷","ALLEY":" ","HOUSE_NO":"４５號","E_COORD97":170677.39000000001,"N_COORD97":2545964.1200000001,"ADDRESS":"中山南路４３巷４５號","OBJECTID":354483},"geometry":{"x":170677.3900000006,"y":2545964.1200000029}},{"attributes":{"ID":354493,"DIS_CODE":0,"TOWNNAME":"永康區","LI":"安康里","LIN":"6鄰","STREET":"中華路","SECT":" ","MAREA":" ","LANE":"７２７巷","ALLEY":" ","HOUSE_NO":"１５號","E_COORD97":170786.35000000001,"N_COORD97":2546384.4900000002,"ADDRESS":"中華路７２７巷１５號","OBJECTID":354484},"geometry":{"x":170786.35000000056,"y":2546384.4900000039}},{"attributes":{"ID":354494,"DIS_CODE":0,"TOWNNAME":"永康區","LI":"安康里","LIN":"6鄰","STREET":"中華路","SECT":" ","MAREA":" ","LANE":"７２７巷","ALLEY":" ","HOUSE_NO":"９號","E_COORD97":170805.67000000001,"N_COORD97":2546386.4900000002,"ADDRESS":"中華路７２７巷９號","OBJECTID":354485},"geometry":{"x":170805.67000000179,"y":2546386.4900000002}},{"attributes":{"ID":354495,"DIS_CODE":0,"TOWNNAME":"南區","LI":"竹溪里","LIN":"4鄰","STREET":"體育路","SECT":" ","MAREA":" ","LANE":"４１巷","ALLEY":" ","HOUSE_NO":"４號","E_COORD97":168724.94,"N_COORD97":2542239.7799999998,"ADDRESS":"體育路４１巷４號","OBJECTID":354486},"geometry":{"x":168724.94000000134,"y":2542239.7800000012}},{"attributes":{"ID":354496,"DIS_CODE":0,"TOWNNAME":"東區","LI":"中西里","LIN":"8鄰","STREET":"勝利路","SECT":" ","MAREA":" ","LANE":" ","ALLEY":" ","HOUSE_NO":"５０號四樓之３","E_COORD97":169830.25,"N_COORD97":2543536.9100000001,"ADDRESS":"勝利路５０號四樓之３","OBJECTID":354487},"geometry":{"x":169830.25,"y":2543536.9100000039}},{"attributes":{"ID":354497,"DIS_CODE":0,"TOWNNAME":"東區","LI":"中西里","LIN":"8鄰","STREET":"勝利路","SECT":" ","MAREA":" ","LANE":" ","ALLEY":" ","HOUSE_NO":"５０號四樓之４","E_COORD97":169830.25,"N_COORD97":2543536.9100000001,"ADDRESS":"勝利路５０號四樓之４","OBJECTID":354488},"geometry":{"x":169830.25,"y":2543536.9100000039}},{"attributes":{"ID":354498,"DIS_CODE":0,"TOWNNAME":"北區","LI":"長榮里","LIN":"13鄰","STREET":"長榮路","SECT":"五段","MAREA":" ","LANE":" ","ALLEY":" ","HOUSE_NO":"９號","E_COORD97":170104.14000000001,"N_COORD97":2545377.7999999998,"ADDRESS":"長榮路五段９號","OBJECTID":354489},"geometry":{"x":170104.1400000006,"y":2545377.8000000007}},{"attributes":{"ID":354499,"DIS_CODE":0,"TOWNNAME":"東區","LI":"中西里","LIN":"8鄰","STREET":"勝利路","SECT":" ","MAREA":" ","LANE":" ","ALLEY":" ","HOUSE_NO":"５０號四樓之５","E_COORD97":169830.25,"N_COORD97":2543536.9100000001,"ADDRESS":"勝利路５０號四樓之５","OBJECTID":354490},"geometry":{"x":169830.25,"y":2543536.9100000039}},{"attributes":{"ID":354500,"DIS_CODE":0,"TOWNNAME":"東區","LI":"中西里","LIN":"8鄰","STREET":"勝利路","SECT":" ","MAREA":" ","LANE":" ","ALLEY":" ","HOUSE_NO":"５０號四樓之６","E_COORD97":169830.25,"N_COORD97":2543536.9100000001,"ADDRESS":"勝利路５０號四樓之６","OBJECTID":354491},"geometry":{"x":169830.25,"y":2543536.9100000039}},{"attributes":{"ID":354501,"DIS_CODE":0,"TOWNNAME":"東區","LI":"中西里","LIN":"8鄰","STREET":"勝利路","SECT":" ","MAREA":" ","LANE":" ","ALLEY":" ","HOUSE_NO":"５０號四樓之７","E_COORD97":169830.25,"N_COORD97":2543536.9100000001,"ADDRESS":"勝利路５０號四樓之７","OBJECTID":354492},"geometry":{"x":169830.25,"y":2543536.9100000039}},{"attributes":{"ID":354502,"DIS_CODE":0,"TOWNNAME":"東區","LI":"中西里","LIN":"8鄰","STREET":"勝利路","SECT":" ","MAREA":" ","LANE":" ","ALLEY":" ","HOUSE_NO":"５０號四樓之８","E_COORD97":169830.25,"N_COORD97":2543536.9100000001,"ADDRESS":"勝利路５０號四樓之８","OBJECTID":354493},"geometry":{"x":169830.25,"y":2543536.9100000039}},{"attributes":{"ID":354503,"DIS_CODE":0,"TOWNNAME":"東區","LI":"中西里","LIN":"8鄰","STREET":"勝利路","SECT":" ","MAREA":" ","LANE":" ","ALLEY":" ","HOUSE_NO":"５０號四樓之９","E_COORD97":169830.25,"N_COORD97":2543536.9100000001,"ADDRESS":"勝利路５０號四樓之９","OBJECTID":354494},"geometry":{"x":169830.25,"y":2543536.9100000039}},{"attributes":{"ID":354504,"DIS_CODE":0,"TOWNNAME":"東區","LI":"中西里","LIN":"8鄰","STREET":"勝利路","SECT":" ","MAREA":" ","LANE":" ","ALLEY":" ","HOUSE_NO":"５０號四樓之１０","E_COORD97":169830.25,"N_COORD97":2543536.9100000001,"ADDRESS":"勝利路５０號四樓之１０","OBJECTID":354495},"geometry":{"x":169830.25,"y":2543536.9100000039}},{"attributes":{"ID":354505,"DIS_CODE":0,"TOWNNAME":"東區","LI":"中西里","LIN":"8鄰","STREET":"勝利路","SECT":" ","MAREA":" ","LANE":" ","ALLEY":" ","HOUSE_NO":"５０號四樓之１１","E_COORD97":169830.25,"N_COORD97":2543536.9100000001,"ADDRESS":"勝利路５０號四樓之１１","OBJECTID":354496},"geometry":{"x":169830.25,"y":2543536.9100000039}},{"attributes":{"ID":354506,"DIS_CODE":0,"TOWNNAME":"東區","LI":"中西里","LIN":"8鄰","STREET":"勝利路","SECT":" ","MAREA":" ","LANE":" ","ALLEY":" ","HOUSE_NO":"５０號四樓之１２","E_COORD97":169830.25,"N_COORD97":2543536.9100000001,"ADDRESS":"勝利路５０號四樓之１２","OBJECTID":354497},"geometry":{"x":169830.25,"y":2543536.9100000039}},{"attributes":{"ID":354507,"DIS_CODE":0,"TOWNNAME":"東區","LI":"中西里","LIN":"8鄰","STREET":"勝利路","SECT":" ","MAREA":" ","LANE":" ","ALLEY":" ","HOUSE_NO":"５０號四樓之１３","E_COORD97":169830.25,"N_COORD97":2543536.9100000001,"ADDRESS":"勝利路５０號四樓之１３","OBJECTID":354498},"geometry":{"x":169830.25,"y":2543536.9100000039}},{"attributes":{"ID":354508,"DIS_CODE":0,"TOWNNAME":"永康區","LI":"南灣里","LIN":"1鄰","STREET":"大灣二街","SECT":" ","MAREA":" ","LANE":" ","ALLEY":" ","HOUSE_NO":"１２５號","E_COORD97":174716.5,"N_COORD97":2544802.6899999999,"ADDRESS":"大灣二街１２５號","OBJECTID":354499},"geometry":{"x":174716.50000000093,"y":2544802.6900000013}},{"attributes":{"ID":354509,"DIS_CODE":0,"TOWNNAME":"安南區","LI":"溪東里","LIN":"20鄰","STREET":"郡安路","SECT":"五段","MAREA":" ","LANE":"３１巷","ALLEY":" ","HOUSE_NO":"５號","E_COORD97":168227.29000000001,"N_COORD97":2547584.71,"ADDRESS":"郡安路五段３１巷５號","OBJECTID":354500},"geometry":{"x":168227.29000000097,"y":2547584.7100000028}},{"attributes":{"ID":354510,"DIS_CODE":0,"TOWNNAME":"安南區","LI":"溪東里","LIN":"20鄰","STREET":"郡安路","SECT":"五段","MAREA":" ","LANE":"３１巷","ALLEY":" ","HOUSE_NO":"７號","E_COORD97":168233.01000000001,"N_COORD97":2547585.7599999998,"ADDRESS":"郡安路五段３１巷７號","OBJECTID":354501},"geometry":{"x":168233.00999999978,"y":2547585.7600000035}},{"attributes":{"ID":354511,"DIS_CODE":0,"TOWNNAME":"安南區","LI":"溪東里","LIN":"20鄰","STREET":"郡安路","SECT":"五段","MAREA":" ","LANE":"３１巷","ALLEY":" ","HOUSE_NO":"９號","E_COORD97":168239.42999999999,"N_COORD97":2547586.23,"ADDRESS":"郡安路五段３１巷９號","OBJECTID":354502},"geometry":{"x":168239.43000000063,"y":2547586.2299999986}},{"attributes":{"ID":354512,"DIS_CODE":0,"TOWNNAME":"中西區","LI":"建國里","LIN":"20鄰","STREET":"新美街","SECT":" ","MAREA":" ","LANE":"５０巷","ALLEY":" ","HOUSE_NO":"３５號","E_COORD97":168087.17000000001,"N_COORD97":2543960.2999999998,"ADDRESS":"新美街５０巷３５號","OBJECTID":354503},"geometry":{"x":168087.17000000086,"y":2543960.3000000007}},{"attributes":{"ID":354513,"DIS_CODE":0,"TOWNNAME":"南區","LI":"竹溪里","LIN":"4鄰","STREET":"體育路","SECT":" ","MAREA":" ","LANE":"４１巷","ALLEY":" ","HOUSE_NO":"８號","E_COORD97":168735.35000000001,"N_COORD97":2542240.4700000002,"ADDRESS":"體育路４１巷８號","OBJECTID":354504},"geometry":{"x":168735.34999999963,"y":2542240.4700000007}},{"attributes":{"ID":354514,"DIS_CODE":0,"TOWNNAME":"南區","LI":"竹溪里","LIN":"4鄰","STREET":"體育路","SECT":" ","MAREA":" ","LANE":"４１巷","ALLEY":" ","HOUSE_NO":"１０號","E_COORD97":168740.54999999999,"N_COORD97":2542239.7799999998,"ADDRESS":"體育路４１巷１０號","OBJECTID":354505},"geometry":{"x":168740.55000000075,"y":2542239.7800000012}},{"attributes":{"ID":354515,"DIS_CODE":0,"TOWNNAME":"東區","LI":"忠孝里","LIN":"6鄰","STREET":"榮譽街","SECT":" ","MAREA":" ","LANE":"８４巷","ALLEY":" ","HOUSE_NO":"３７之１號","E_COORD97":169851.32000000001,"N_COORD97":2541677.4700000002,"ADDRESS":"榮譽街８４巷３７之１號","OBJECTID":354506},"geometry":{"x":169851.32000000123,"y":2541677.4700000007}},{"attributes":{"ID":354516,"DIS_CODE":0,"TOWNNAME":"東區","LI":"忠孝里","LIN":"6鄰","STREET":"榮譽街","SECT":" ","MAREA":" ","LANE":"８４巷","ALLEY":" ","HOUSE_NO":"３７之２號","E_COORD97":169854.01000000001,"N_COORD97":2541679.9900000002,"ADDRESS":"榮譽街８４巷３７之２號","OBJECTID":354507},"geometry":{"x":169854.01000000164,"y":2541679.9900000021}},{"attributes":{"ID":354517,"DIS_CODE":0,"TOWNNAME":"南區","LI":"竹溪里","LIN":"4鄰","STREET":"健康路","SECT":"一段","MAREA":" ","LANE":"１３３巷","ALLEY":" ","HOUSE_NO":"５６號","E_COORD97":168866.42999999999,"N_COORD97":2542221.9100000001,"ADDRESS":"健康路一段１３３巷５６號","OBJECTID":354508},"geometry":{"x":168866.43000000063,"y":2542221.910000002}},{"attributes":{"ID":354518,"DIS_CODE":0,"TOWNNAME":"南區","LI":"竹溪里","LIN":"4鄰","STREET":"健康路","SECT":"一段","MAREA":" ","LANE":"１３３巷","ALLEY":" ","HOUSE_NO":"５８號","E_COORD97":168868.04999999999,"N_COORD97":2542225.6899999999,"ADDRESS":"健康路一段１３３巷５８號","OBJECTID":354509},"geometry":{"x":168868.04999999981,"y":2542225.6900000032}},{"attributes":{"ID":354519,"DIS_CODE":0,"TOWNNAME":"南區","LI":"新興里","LIN":"6鄰","STREET":"西門路","SECT":"一段","MAREA":" ","LANE":"４４１巷","ALLEY":" ","HOUSE_NO":"２４號","E_COORD97":167642.57999999999,"N_COORD97":2542419.75,"ADDRESS":"西門路一段４４１巷２４號","OBJECTID":354510},"geometry":{"x":167642.58000000007,"y":2542419.7500000019}},{"attributes":{"ID":354520,"DIS_CODE":0,"TOWNNAME":"南區","LI":"同安里","LIN":"6鄰","STREET":"明興路","SECT":" ","MAREA":" ","LANE":"１１８１巷","ALLEY":" ","HOUSE_NO":"３８之３號","E_COORD97":166646.85999999999,"N_COORD97":2536335.75,"ADDRESS":"明興路１１８１巷３８之３號","OBJECTID":354511},"geometry":{"x":166646.86000000127,"y":2536335.75}},{"attributes":{"ID":354521,"DIS_CODE":0,"TOWNNAME":"南區","LI":"同安里","LIN":"6鄰","STREET":"明興路","SECT":" ","MAREA":" ","LANE":"１１８１巷","ALLEY":" ","HOUSE_NO":"１５６號","E_COORD97":166893.34,"N_COORD97":2536286,"ADDRESS":"明興路１１８１巷１５６號","OBJECTID":354512},"geometry":{"x":166893.33999999985,"y":2536286}},{"attributes":{"ID":354522,"DIS_CODE":0,"TOWNNAME":"南區","LI":"同安里","LIN":"6鄰","STREET":"明興路","SECT":" ","MAREA":" ","LANE":"１１８１巷","ALLEY":" ","HOUSE_NO":"２８０號","E_COORD97":167063.01000000001,"N_COORD97":2536123.2999999998,"ADDRESS":"明興路１１８１巷２８０號","OBJECTID":354513},"geometry":{"x":167063.00999999978,"y":2536123.3000000045}},{"attributes":{"ID":354523,"DIS_CODE":0,"TOWNNAME":"南區","LI":"新昌里","LIN":"6鄰","STREET":"西門路","SECT":"一段","MAREA":" ","LANE":"５４５巷","ALLEY":" ","HOUSE_NO":"３號","E_COORD97":167676.04000000001,"N_COORD97":2542687.4199999999,"ADDRESS":"西門路一段５４５巷３號","OBJECTID":354514},"geometry":{"x":167676.04000000097,"y":2542687.4199999999}},{"attributes":{"ID":354524,"DIS_CODE":0,"TOWNNAME":"南區","LI":"新昌里","LIN":"6鄰","STREET":"西門路","SECT":"一段","MAREA":" ","LANE":"５４５巷","ALLEY":" ","HOUSE_NO":"３之１號","E_COORD97":167675.88,"N_COORD97":2542683.77,"ADDRESS":"西門路一段５４５巷３之１號","OBJECTID":354515},"geometry":{"x":167675.87999999989,"y":2542683.7700000014}},{"attributes":{"ID":354525,"DIS_CODE":0,"TOWNNAME":"南區","LI":"新昌里","LIN":"6鄰","STREET":"西門路","SECT":"一段","MAREA":" ","LANE":"５４５巷","ALLEY":" ","HOUSE_NO":"１之１３號","E_COORD97":167707.51999999999,"N_COORD97":2542612.6600000001,"ADDRESS":"西門路一段５４５巷１之１３號","OBJECTID":354516},"geometry":{"x":167707.52000000142,"y":2542612.6599999983}},{"attributes":{"ID":354526,"DIS_CODE":0,"TOWNNAME":"南區","LI":"新昌里","LIN":"6鄰","STREET":"西門路","SECT":"一段","MAREA":" ","LANE":"５４５巷","ALLEY":" ","HOUSE_NO":"１之１９號","E_COORD97":167674.66,"N_COORD97":2542613.9300000002,"ADDRESS":"西門路一段５４５巷１之１９號","OBJECTID":354517},"geometry":{"x":167674.66000000015,"y":2542613.9300000034}},{"attributes":{"ID":354527,"DIS_CODE":0,"TOWNNAME":"南區","LI":"新昌里","LIN":"6鄰","STREET":"西門路","SECT":"一段","MAREA":" ","LANE":"５４５巷","ALLEY":" ","HOUSE_NO":"１之１４號","E_COORD97":167702.44,"N_COORD97":2542612.98,"ADDRESS":"西門路一段５４５巷１之１４號","OBJECTID":354518},"geometry":{"x":167702.44000000134,"y":2542612.9800000004}},{"attributes":{"ID":354528,"DIS_CODE":0,"TOWNNAME":"南區","LI":"新昌里","LIN":"6鄰","STREET":"西門路","SECT":"一段","MAREA":" ","LANE":"５４５巷","ALLEY":" ","HOUSE_NO":"１之１５號","E_COORD97":167697.04000000001,"N_COORD97":2542613.2999999998,"ADDRESS":"西門路一段５４５巷１之１５號","OBJECTID":354519},"geometry":{"x":167697.04000000004,"y":2542613.3000000026}},{"attributes":{"ID":354529,"DIS_CODE":0,"TOWNNAME":"南區","LI":"新昌里","LIN":"6鄰","STREET":"西門路","SECT":"一段","MAREA":" ","LANE":"５４５巷","ALLEY":" ","HOUSE_NO":"１之１６號","E_COORD97":167691.32999999999,"N_COORD97":2542613.1400000001,"ADDRESS":"西門路一段５４５巷１之１６號","OBJECTID":354520},"geometry":{"x":167691.33000000101,"y":2542613.1400000006}},{"attributes":{"ID":354530,"DIS_CODE":0,"TOWNNAME":"南區","LI":"新昌里","LIN":"6鄰","STREET":"西門路","SECT":"一段","MAREA":" ","LANE":"５４５巷","ALLEY":" ","HOUSE_NO":"１之１７號","E_COORD97":167685.29000000001,"N_COORD97":2542613.77,"ADDRESS":"西門路一段５４５巷１之１７號","OBJECTID":354521},"geometry":{"x":167685.29000000004,"y":2542613.7699999996}},{"attributes":{"ID":354531,"DIS_CODE":0,"TOWNNAME":"南區","LI":"新昌里","LIN":"6鄰","STREET":"西門路","SECT":"一段","MAREA":" ","LANE":"５４５巷","ALLEY":" ","HOUSE_NO":"１之１８號","E_COORD97":167679.89999999999,"N_COORD97":2542613.77,"ADDRESS":"西門路一段５４５巷１之１８號","OBJECTID":354522},"geometry":{"x":167679.90000000037,"y":2542613.7699999996}},{"attributes":{"ID":354532,"DIS_CODE":0,"TOWNNAME":"南區","LI":"新昌里","LIN":"6鄰","STREET":"西門路","SECT":"一段","MAREA":" ","LANE":"５４５巷","ALLEY":" ","HOUSE_NO":"１之２０號","E_COORD97":167669.10000000001,"N_COORD97":2542613.9300000002,"ADDRESS":"西門路一段５４５巷１之２０號","OBJECTID":354523},"geometry":{"x":167669.09999999963,"y":2542613.9300000034}},{"attributes":{"ID":354533,"DIS_CODE":0,"TOWNNAME":"南區","LI":"新昌里","LIN":"6鄰","STREET":"西門路","SECT":"一段","MAREA":" ","LANE":"５４５巷","ALLEY":" ","HOUSE_NO":"１之２１號","E_COORD97":167664.17999999999,"N_COORD97":2542613.9300000002,"ADDRESS":"西門路一段５４５巷１之２１號","OBJECTID":354524},"geometry":{"x":167664.18000000156,"y":2542613.9300000034}},{"attributes":{"ID":354534,"DIS_CODE":0,"TOWNNAME":"東區","LI":"中西里","LIN":"8鄰","STREET":"勝利路","SECT":" ","MAREA":" ","LANE":" ","ALLEY":" ","HOUSE_NO":"５０號四樓之１４","E_COORD97":169830.25,"N_COORD97":2543536.9100000001,"ADDRESS":"勝利路５０號四樓之１４","OBJECTID":354525},"geometry":{"x":169830.25,"y":2543536.9100000039}},{"attributes":{"ID":354535,"DIS_CODE":0,"TOWNNAME":"東區","LI":"中西里","LIN":"8鄰","STREET":"勝利路","SECT":" ","MAREA":" ","LANE":" ","ALLEY":" ","HOUSE_NO":"５０號四樓之１５","E_COORD97":169830.25,"N_COORD97":2543536.9100000001,"ADDRESS":"勝利路５０號四樓之１５","OBJECTID":354526},"geometry":{"x":169830.25,"y":2543536.9100000039}},{"attributes":{"ID":354536,"DIS_CODE":0,"TOWNNAME":"東區","LI":"中西里","LIN":"8鄰","STREET":"勝利路","SECT":" ","MAREA":" ","LANE":" ","ALLEY":" ","HOUSE_NO":"５０號四樓之１６","E_COORD97":169830.25,"N_COORD97":2543536.9100000001,"ADDRESS":"勝利路５０號四樓之１６","OBJECTID":354527},"geometry":{"x":169830.25,"y":2543536.9100000039}},{"attributes":{"ID":354537,"DIS_CODE":0,"TOWNNAME":"學甲區","LI":"平和里","LIN":"20鄰","STREET":" ","SECT":" ","MAREA":"西平寮","LANE":" ","ALLEY":" ","HOUSE_NO":"１１號","E_COORD97":169348.26000000001,"N_COORD97":2573360.9100000001,"ADDRESS":"西平寮１１號","OBJECTID":354528},"geometry":{"x":169348.25999999978,"y":2573360.9100000001}},{"attributes":{"ID":354538,"DIS_CODE":0,"TOWNNAME":"南區","LI":"新昌里","LIN":"6鄰","STREET":"西門路","SECT":"一段","MAREA":" ","LANE":"５４５巷","ALLEY":" ","HOUSE_NO":"１之２２號","E_COORD97":167659.42000000001,"N_COORD97":2542614.5699999998,"ADDRESS":"西門路一段５４５巷１之２２號","OBJECTID":354529},"geometry":{"x":167659.42000000179,"y":2542614.5700000022}},{"attributes":{"ID":354539,"DIS_CODE":0,"TOWNNAME":"南區","LI":"新昌里","LIN":"6鄰","STREET":"西門路","SECT":"一段","MAREA":" ","LANE":"５４５巷","ALLEY":" ","HOUSE_NO":"３之２號","E_COORD97":167675.13,"N_COORD97":2542679.1800000002,"ADDRESS":"西門路一段５４５巷３之２號","OBJECTID":354530},"geometry":{"x":167675.13000000082,"y":2542679.1799999997}},{"attributes":{"ID":354540,"DIS_CODE":0,"TOWNNAME":"南區","LI":"新昌里","LIN":"6鄰","STREET":"西門路","SECT":"一段","MAREA":" ","LANE":"５４５巷","ALLEY":" ","HOUSE_NO":"３之３號","E_COORD97":167674.01999999999,"N_COORD97":2542673.46,"ADDRESS":"西門路一段５４５巷３之３號","OBJECTID":354531},"geometry":{"x":167674.02000000048,"y":2542673.4600000028}},{"attributes":{"ID":354541,"DIS_CODE":0,"TOWNNAME":"南區","LI":"新昌里","LIN":"6鄰","STREET":"西門路","SECT":"一段","MAREA":" ","LANE":"５４５巷","ALLEY":" ","HOUSE_NO":"３之５號","E_COORD97":167672.91,"N_COORD97":2542667.5899999999,"ADDRESS":"西門路一段５４５巷３之５號","OBJECTID":354532},"geometry":{"x":167672.91000000015,"y":2542667.5900000036}},{"attributes":{"ID":354542,"DIS_CODE":0,"TOWNNAME":"南區","LI":"新昌里","LIN":"6鄰","STREET":"西門路","SECT":"一段","MAREA":" ","LANE":"５４５巷","ALLEY":" ","HOUSE_NO":"３之６號","E_COORD97":167671.64000000001,"N_COORD97":2542662.6699999999,"ADDRESS":"西門路一段５４５巷３之６號","OBJECTID":354533},"geometry":{"x":167671.6400000006,"y":2542662.6699999999}},{"attributes":{"ID":354543,"DIS_CODE":0,"TOWNNAME":"南區","LI":"明興里","LIN":"10鄰","STREET":"金華路","SECT":"一段","MAREA":" ","LANE":"１０２巷","ALLEY":" ","HOUSE_NO":"２５號","E_COORD97":167046.29000000001,"N_COORD97":2540515.3199999998,"ADDRESS":"金華路一段１０２巷２５號","OBJECTID":354534},"geometry":{"x":167046.29000000004,"y":2540515.3200000003}},{"attributes":{"ID":354544,"DIS_CODE":0,"TOWNNAME":"南區","LI":"竹溪里","LIN":"4鄰","STREET":"健康路","SECT":"一段","MAREA":" ","LANE":"１３３巷","ALLEY":" ","HOUSE_NO":"５２號","E_COORD97":168874.54999999999,"N_COORD97":2542226.77,"ADDRESS":"健康路一段１３３巷５２號","OBJECTID":354535},"geometry":{"x":168874.55000000075,"y":2542226.7699999996}},{"attributes":{"ID":354545,"DIS_CODE":0,"TOWNNAME":"南區","LI":"竹溪里","LIN":"4鄰","STREET":"健康路","SECT":"一段","MAREA":" ","LANE":"１３３巷","ALLEY":" ","HOUSE_NO":"５４號","E_COORD97":168878.32999999999,"N_COORD97":2542221.3700000001,"ADDRESS":"健康路一段１３３巷５４號","OBJECTID":354536},"geometry":{"x":168878.33000000007,"y":2542221.370000001}},{"attributes":{"ID":354546,"DIS_CODE":0,"TOWNNAME":"南區","LI":"竹溪里","LIN":"4鄰","STREET":"健康路","SECT":"一段","MAREA":" ","LANE":"１３３巷","ALLEY":" ","HOUSE_NO":"４６號","E_COORD97":168878.32999999999,"N_COORD97":2542237.5800000001,"ADDRESS":"健康路一段１３３巷４６號","OBJECTID":354537},"geometry":{"x":168878.33000000007,"y":2542237.5800000019}},{"attributes":{"ID":354547,"DIS_CODE":0,"TOWNNAME":"南區","LI":"竹溪里","LIN":"6鄰","STREET":"健康路","SECT":"一段","MAREA":" ","LANE":"１３３巷","ALLEY":" ","HOUSE_NO":"１８號","E_COORD97":168877.25,"N_COORD97":2542241.3700000001,"ADDRESS":"健康路一段１３３巷１８號","OBJECTID":354538},"geometry":{"x":168877.25,"y":2542241.370000001}},{"attributes":{"ID":354548,"DIS_CODE":0,"TOWNNAME":"南區","LI":"新昌里","LIN":"6鄰","STREET":"西門路","SECT":"一段","MAREA":" ","LANE":"５４５巷","ALLEY":" ","HOUSE_NO":"３之７號","E_COORD97":167670.04999999999,"N_COORD97":2542656.79,"ADDRESS":"西門路一段５４５巷３之７號","OBJECTID":354539},"geometry":{"x":167670.04999999981,"y":2542656.7899999991}},{"attributes":{"ID":354549,"DIS_CODE":0,"TOWNNAME":"南區","LI":"新昌里","LIN":"6鄰","STREET":"西門路","SECT":"一段","MAREA":" ","LANE":"５４５巷","ALLEY":" ","HOUSE_NO":"３之８號","E_COORD97":167668.78,"N_COORD97":2542651.3999999999,"ADDRESS":"西門路一段５４５巷３之８號","OBJECTID":354540},"geometry":{"x":167668.78000000026,"y":2542651.4000000004}},{"attributes":{"ID":354550,"DIS_CODE":0,"TOWNNAME":"南區","LI":"新昌里","LIN":"6鄰","STREET":"西門路","SECT":"一段","MAREA":" ","LANE":"５４５巷","ALLEY":" ","HOUSE_NO":"３之９號","E_COORD97":167667.51000000001,"N_COORD97":2542645.8399999999,"ADDRESS":"西門路一段５４５巷３之９號","OBJECTID":354541},"geometry":{"x":167667.51000000071,"y":2542645.8400000017}},{"attributes":{"ID":354551,"DIS_CODE":0,"TOWNNAME":"南區","LI":"新昌里","LIN":"6鄰","STREET":"西門路","SECT":"一段","MAREA":" ","LANE":"５４５巷","ALLEY":" ","HOUSE_NO":"１之１２號","E_COORD97":167683.54999999999,"N_COORD97":2542630.7599999998,"ADDRESS":"西門路一段５４５巷１之１２號","OBJECTID":354542},"geometry":{"x":167683.54999999981,"y":2542630.7599999998}},{"attributes":{"ID":354552,"DIS_CODE":0,"TOWNNAME":"南區","LI":"新昌里","LIN":"6鄰","STREET":"西門路","SECT":"一段","MAREA":" ","LANE":"５４５巷","ALLEY":" ","HOUSE_NO":"３之１０號","E_COORD97":167674.17999999999,"N_COORD97":2542630.6000000001,"ADDRESS":"西門路一段５４５巷３之１０號","OBJECTID":354543},"geometry":{"x":167674.1799999997,"y":2542630.6000000015}},{"attributes":{"ID":354553,"DIS_CODE":0,"TOWNNAME":"東區","LI":"忠孝里","LIN":"6鄰","STREET":"榮譽街","SECT":" ","MAREA":" ","LANE":"８４巷","ALLEY":" ","HOUSE_NO":"２７號","E_COORD97":169771.75,"N_COORD97":2541640.1699999999,"ADDRESS":"榮譽街８４巷２７號","OBJECTID":354544},"geometry":{"x":169771.75000000093,"y":2541640.1700000018}},{"attributes":{"ID":354554,"DIS_CODE":0,"TOWNNAME":"東區","LI":"大學里","LIN":"6鄰","STREET":"大學路","SECT":" ","MAREA":" ","LANE":"１２巷","ALLEY":" ","HOUSE_NO":"４號","E_COORD97":170055.37,"N_COORD97":2544002.9199999999,"ADDRESS":"大學路１２巷４號","OBJECTID":354545},"geometry":{"x":170055.37000000197,"y":2544002.9199999999}},{"attributes":{"ID":354555,"DIS_CODE":0,"TOWNNAME":"東區","LI":"大學里","LIN":"6鄰","STREET":"大學路","SECT":" ","MAREA":" ","LANE":"１２巷","ALLEY":" ","HOUSE_NO":"８號","E_COORD97":170054.07000000001,"N_COORD97":2543959.8999999999,"ADDRESS":"大學路１２巷８號","OBJECTID":354546},"geometry":{"x":170054.07000000216,"y":2543959.9000000004}},{"attributes":{"ID":354556,"DIS_CODE":0,"TOWNNAME":"東區","LI":"忠孝里","LIN":"6鄰","STREET":"榮譽街","SECT":" ","MAREA":" ","LANE":"８４巷","ALLEY":" ","HOUSE_NO":"２０號","E_COORD97":169752.87,"N_COORD97":2541628.6499999999,"ADDRESS":"榮譽街８４巷２０號","OBJECTID":354547},"geometry":{"x":169752.87000000011,"y":2541628.6500000004}},{"attributes":{"ID":354557,"DIS_CODE":0,"TOWNNAME":"東區","LI":"忠孝里","LIN":"6鄰","STREET":"榮譽街","SECT":" ","MAREA":" ","LANE":"８４巷","ALLEY":" ","HOUSE_NO":"７５號","E_COORD97":169805.84,"N_COORD97":2541637.1099999999,"ADDRESS":"榮譽街８４巷７５號","OBJECTID":354548},"geometry":{"x":169805.83999999985,"y":2541637.1100000013}},{"attributes":{"ID":354558,"DIS_CODE":0,"TOWNNAME":"東區","LI":"大福里","LIN":"6鄰","STREET":"立德八路","SECT":" ","MAREA":" ","LANE":"１４巷","ALLEY":" ","HOUSE_NO":"２５號","E_COORD97":169451.64999999999,"N_COORD97":2541799.98,"ADDRESS":"立德八路１４巷２５號","OBJECTID":354549},"geometry":{"x":169451.65000000037,"y":2541799.9800000004}},{"attributes":{"ID":354559,"DIS_CODE":0,"TOWNNAME":"安南區","LI":"頂安里","LIN":"6鄰","STREET":"怡安路","SECT":"一段","MAREA":" ","LANE":"３８４巷","ALLEY":" ","HOUSE_NO":"１０號","E_COORD97":168742.04999999999,"N_COORD97":2549205.0600000001,"ADDRESS":"怡安路一段３８４巷１０號","OBJECTID":354550},"geometry":{"x":168742.05000000075,"y":2549205.0600000042}},{"attributes":{"ID":354560,"DIS_CODE":0,"TOWNNAME":"安南區","LI":"頂安里","LIN":"6鄰","STREET":"怡安路","SECT":"一段","MAREA":" ","LANE":"３８４巷","ALLEY":" ","HOUSE_NO":"１２號","E_COORD97":168743.31,"N_COORD97":2549211.79,"ADDRESS":"怡安路一段３８４巷１２號","OBJECTID":354551},"geometry":{"x":168743.31000000052,"y":2549211.7899999972}},{"attributes":{"ID":354561,"DIS_CODE":0,"TOWNNAME":"安南區","LI":"頂安里","LIN":"6鄰","STREET":"怡安路","SECT":"一段","MAREA":" ","LANE":"３８４巷","ALLEY":" ","HOUSE_NO":"１６號","E_COORD97":168749.20999999999,"N_COORD97":2549219.7799999998,"ADDRESS":"怡安路一段３８４巷１６號","OBJECTID":354552},"geometry":{"x":168749.21000000183,"y":2549219.7800000012}},{"attributes":{"ID":354562,"DIS_CODE":0,"TOWNNAME":"安南區","LI":"安西里","LIN":"6鄰","STREET":"安和路","SECT":"一段","MAREA":" ","LANE":"２８５巷","ALLEY":" ","HOUSE_NO":"６９號之１","E_COORD97":169059.44,"N_COORD97":2548035.6299999999,"ADDRESS":"安和路一段２８５巷６９號之１","OBJECTID":354553},"geometry":{"x":169059.44000000041,"y":2548035.629999999}},{"attributes":{"ID":354563,"DIS_CODE":0,"TOWNNAME":"安南區","LI":"淵西里","LIN":"6鄰","STREET":"安中路","SECT":"四段","MAREA":" ","LANE":"２９０巷","ALLEY":" ","HOUSE_NO":"１４５號","E_COORD97":164819.39000000001,"N_COORD97":2550276.5899999999,"ADDRESS":"安中路四段２９０巷１４５號","OBJECTID":354554},"geometry":{"x":164819.38999999966,"y":2550276.5900000017}},{"attributes":{"ID":354564,"DIS_CODE":0,"TOWNNAME":"善化區","LI":"坐駕里","LIN":"6鄰","STREET":"民權路","SECT":" ","MAREA":" ","LANE":"２８５巷","ALLEY":" ","HOUSE_NO":"２號","E_COORD97":177928.59,"N_COORD97":2558927.5099999998,"ADDRESS":"民權路２８５巷２號","OBJECTID":354555},"geometry":{"x":177928.58999999985,"y":2558927.5099999998}},{"attributes":{"ID":354565,"DIS_CODE":0,"TOWNNAME":"善化區","LI":"文昌里","LIN":"6鄰","STREET":"永福路","SECT":" ","MAREA":" ","LANE":"１６２巷","ALLEY":" ","HOUSE_NO":"６號","E_COORD97":177187.98000000001,"N_COORD97":2558787.5,"ADDRESS":"永福路１６２巷６號","OBJECTID":354556},"geometry":{"x":177187.98000000045,"y":2558787.5000000019}},{"attributes":{"ID":354566,"DIS_CODE":0,"TOWNNAME":"善化區","LI":"文昌里","LIN":"6鄰","STREET":"永福路","SECT":" ","MAREA":" ","LANE":"１５６巷","ALLEY":" ","HOUSE_NO":"３號","E_COORD97":177183,"N_COORD97":2558774.25,"ADDRESS":"永福路１５６巷３號","OBJECTID":354557},"geometry":{"x":177183.00000000093,"y":2558774.2500000037}},{"attributes":{"ID":354567,"DIS_CODE":0,"TOWNNAME":"善化區","LI":"文昌里","LIN":"6鄰","STREET":"永福路","SECT":" ","MAREA":" ","LANE":"１５６巷","ALLEY":" ","HOUSE_NO":"１號","E_COORD97":177189.23999999999,"N_COORD97":2558772.5,"ADDRESS":"永福路１５６巷１號","OBJECTID":354558},"geometry":{"x":177189.24000000022,"y":2558772.5000000037}},{"attributes":{"ID":354568,"DIS_CODE":0,"TOWNNAME":"學甲區","LI":"平和里","LIN":"20鄰","STREET":" ","SECT":" ","MAREA":"西平寮","LANE":" ","ALLEY":" ","HOUSE_NO":"１２號","E_COORD97":169206.95000000001,"N_COORD97":2573714.3900000001,"ADDRESS":"西平寮１２號","OBJECTID":354559},"geometry":{"x":169206.95000000019,"y":2573714.3900000006}},{"attributes":{"ID":354569,"DIS_CODE":0,"TOWNNAME":"善化區","LI":"坐駕里","LIN":"6鄰","STREET":"民權路","SECT":" ","MAREA":" ","LANE":"２８５巷","ALLEY":" ","HOUSE_NO":"６號","E_COORD97":177906.39999999999,"N_COORD97":2558923.7599999998,"ADDRESS":"民權路２８５巷６號","OBJECTID":354560},"geometry":{"x":177906.4000000013,"y":2558923.7600000016}},{"attributes":{"ID":354570,"DIS_CODE":0,"TOWNNAME":"善化區","LI":"文昌里","LIN":"6鄰","STREET":"文昌路","SECT":" ","MAREA":" ","LANE":"５０巷","ALLEY":" ","HOUSE_NO":"２號之２","E_COORD97":177173.26999999999,"N_COORD97":2558732.5299999998,"ADDRESS":"文昌路５０巷２號之２","OBJECTID":354561},"geometry":{"x":177173.26999999955,"y":2558732.5299999993}},{"attributes":{"ID":354571,"DIS_CODE":0,"TOWNNAME":"善化區","LI":"文正里","LIN":"6鄰","STREET":"文正路","SECT":" ","MAREA":" ","LANE":"７９巷","ALLEY":" ","HOUSE_NO":"１１號","E_COORD97":177033.20999999999,"N_COORD97":2559358.0299999998,"ADDRESS":"文正路７９巷１１號","OBJECTID":354562},"geometry":{"x":177033.20999999996,"y":2559358.0300000031}},{"attributes":{"ID":354572,"DIS_CODE":0,"TOWNNAME":"善化區","LI":"文正里","LIN":"6鄰","STREET":"文正路","SECT":" ","MAREA":" ","LANE":"６９巷","ALLEY":" ","HOUSE_NO":"３號","E_COORD97":177069.31,"N_COORD97":2559328.7799999998,"ADDRESS":"文正路６９巷３號","OBJECTID":354563},"geometry":{"x":177069.30999999959,"y":2559328.7799999993}},{"attributes":{"ID":354573,"DIS_CODE":0,"TOWNNAME":"善化區","LI":"文正里","LIN":"6鄰","STREET":"文正路","SECT":" ","MAREA":" ","LANE":"７９巷","ALLEY":" ","HOUSE_NO":"２８號","E_COORD97":177075.16,"N_COORD97":2559371.2799999998,"ADDRESS":"文正路７９巷２８號","OBJECTID":354564},"geometry":{"x":177075.16000000108,"y":2559371.2800000012}},{"attributes":{"ID":354574,"DIS_CODE":0,"TOWNNAME":"仁德區","LI":"上崙里","LIN":"6鄰","STREET":"德南路","SECT":" ","MAREA":" ","LANE":"３９９巷","ALLEY":" ","HOUSE_NO":"２８號","E_COORD97":173992.59,"N_COORD97":2538271.02,"ADDRESS":"德南路３９９巷２８號","OBJECTID":354565},"geometry":{"x":173992.58999999985,"y":2538271.0200000014}},{"attributes":{"ID":354575,"DIS_CODE":0,"TOWNNAME":"仁德區","LI":"大甲里","LIN":"6鄰","STREET":"行大街","SECT":" ","MAREA":" ","LANE":"３０７巷","ALLEY":" ","HOUSE_NO":"４３號","E_COORD97":169694.29000000001,"N_COORD97":2535084.7400000002,"ADDRESS":"行大街３０７巷４３號","OBJECTID":354566},"geometry":{"x":169694.29000000004,"y":2535084.7400000002}},{"attributes":{"ID":354576,"DIS_CODE":0,"TOWNNAME":"仁德區","LI":"土庫里","LIN":"6鄰","STREET":"土庫三街","SECT":" ","MAREA":" ","LANE":"７９巷","ALLEY":" ","HOUSE_NO":"２號","E_COORD97":174323.28,"N_COORD97":2543094,"ADDRESS":"土庫三街７９巷２號","OBJECTID":354567},"geometry":{"x":174323.28000000119,"y":2543094}},{"attributes":{"ID":354577,"DIS_CODE":0,"TOWNNAME":"仁德區","LI":"土庫里","LIN":"6鄰","STREET":"土庫三街","SECT":" ","MAREA":" ","LANE":"５７巷","ALLEY":" ","HOUSE_NO":"１號","E_COORD97":174256.5,"N_COORD97":2543102,"ADDRESS":"土庫三街５７巷１號","OBJECTID":354568},"geometry":{"x":174256.5,"y":2543102.0000000037}},{"attributes":{"ID":354578,"DIS_CODE":0,"TOWNNAME":"仁德區","LI":"上崙里","LIN":"6鄰","STREET":"德南路","SECT":" ","MAREA":" ","LANE":"３９９巷","ALLEY":" ","HOUSE_NO":"２４號","E_COORD97":173983.59,"N_COORD97":2538267.52,"ADDRESS":"德南路３９９巷２４號","OBJECTID":354569},"geometry":{"x":173983.59000000078,"y":2538267.5200000014}},{"attributes":{"ID":354579,"DIS_CODE":0,"TOWNNAME":"仁德區","LI":"土庫里","LIN":"6鄰","STREET":"土庫三街","SECT":" ","MAREA":" ","LANE":"６１巷","ALLEY":" ","HOUSE_NO":"６號","E_COORD97":174272.82000000001,"N_COORD97":2543103.75,"ADDRESS":"土庫三街６１巷６號","OBJECTID":354570},"geometry":{"x":174272.8200000003,"y":2543103.7500000037}},{"attributes":{"ID":354580,"DIS_CODE":0,"TOWNNAME":"仁德區","LI":"土庫里","LIN":"6鄰","STREET":"土庫三街","SECT":" ","MAREA":" ","LANE":"６１巷","ALLEY":" ","HOUSE_NO":"１號","E_COORD97":174261.42999999999,"N_COORD97":2543091.75,"ADDRESS":"土庫三街６１巷１號","OBJECTID":354571},"geometry":{"x":174261.4299999997,"y":2543091.7500000019}},{"attributes":{"ID":354581,"DIS_CODE":0,"TOWNNAME":"仁德區","LI":"土庫里","LIN":"6鄰","STREET":"土庫三街","SECT":" ","MAREA":" ","LANE":"６１巷","ALLEY":" ","HOUSE_NO":"１７號","E_COORD97":174277.39999999999,"N_COORD97":2543143.7400000002,"ADDRESS":"土庫三街６１巷１７號","OBJECTID":354572},"geometry":{"x":174277.40000000037,"y":2543143.7400000002}},{"attributes":{"ID":354582,"DIS_CODE":0,"TOWNNAME":"南區","LI":"府南里","LIN":" ","STREET":"大成路","SECT":"二段","MAREA":" ","LANE":"１４３巷","ALLEY":" ","HOUSE_NO":"２７號之１","E_COORD97":167321.76999999999,"N_COORD97":2541603.75,"ADDRESS":"大成路二段１４３巷２７號之１","OBJECTID":354573},"geometry":{"x":167321.77000000048,"y":2541603.75}},{"attributes":{"ID":354583,"DIS_CODE":0,"TOWNNAME":"仁德區","LI":"土庫里","LIN":"6鄰","STREET":"土庫三街","SECT":" ","MAREA":" ","LANE":"７１巷","ALLEY":" ","HOUSE_NO":"１０號","E_COORD97":174310.37,"N_COORD97":2543109.75,"ADDRESS":"土庫三街７１巷１０號","OBJECTID":354574},"geometry":{"x":174310.37000000104,"y":2543109.75}},{"attributes":{"ID":354584,"DIS_CODE":0,"TOWNNAME":"南區","LI":"府南里","LIN":"25鄰","STREET":"大成路","SECT":"二段","MAREA":" ","LANE":"１４３巷","ALLEY":" ","HOUSE_NO":"３３號","E_COORD97":167292.38,"N_COORD97":2541591.6400000001,"ADDRESS":"大成路二段１４３巷３３號","OBJECTID":354575},"geometry":{"x":167292.38000000082,"y":2541591.6400000006}},{"attributes":{"ID":354585,"DIS_CODE":0,"TOWNNAME":"南區","LI":"府南里","LIN":"25鄰","STREET":"大成路","SECT":"二段","MAREA":" ","LANE":"１４３巷","ALLEY":" ","HOUSE_NO":"３３號之１","E_COORD97":167313.63,"N_COORD97":2541584.6699999999,"ADDRESS":"大成路二段１４３巷３３號之１","OBJECTID":354576},"geometry":{"x":167313.62999999989,"y":2541584.6699999999}},{"attributes":{"ID":354586,"DIS_CODE":0,"TOWNNAME":"南區","LI":"府南里","LIN":"25鄰","STREET":"大成路","SECT":"二段","MAREA":" ","LANE":"１４３巷","ALLEY":" ","HOUSE_NO":"３５號","E_COORD97":167282.84,"N_COORD97":2541576.5099999998,"ADDRESS":"大成路二段１４３巷３５號","OBJECTID":354577},"geometry":{"x":167282.83999999985,"y":2541576.5100000016}},{"attributes":{"ID":354587,"DIS_CODE":0,"TOWNNAME":"南區","LI":"府南里","LIN":"25鄰","STREET":"大成路","SECT":"二段","MAREA":" ","LANE":"１４３巷","ALLEY":" ","HOUSE_NO":"３７號","E_COORD97":167289.14999999999,"N_COORD97":2541574.5099999998,"ADDRESS":"大成路二段１４３巷３７號","OBJECTID":354578},"geometry":{"x":167289.1500000013,"y":2541574.5099999998}},{"attributes":{"ID":354588,"DIS_CODE":0,"TOWNNAME":"南區","LI":"府南里","LIN":"25鄰","STREET":"大成路","SECT":"二段","MAREA":" ","LANE":"１４３巷","ALLEY":" ","HOUSE_NO":"３９號","E_COORD97":167293.79999999999,"N_COORD97":2541573.02,"ADDRESS":"大成路二段１４３巷３９號","OBJECTID":354579},"geometry":{"x":167293.79999999981,"y":2541573.0200000014}},{"attributes":{"ID":354589,"DIS_CODE":0,"TOWNNAME":"南區","LI":"府南里","LIN":"25鄰","STREET":"大成路","SECT":"二段","MAREA":" ","LANE":"１４３巷","ALLEY":" ","HOUSE_NO":"４１號","E_COORD97":167297.45000000001,"N_COORD97":2541571.9399999999,"ADDRESS":"大成路二段１４３巷４１號","OBJECTID":354580},"geometry":{"x":167297.45000000112,"y":2541571.9399999995}},{"attributes":{"ID":354590,"DIS_CODE":0,"TOWNNAME":"南區","LI":"府南里","LIN":"24鄰","STREET":"大成路","SECT":"二段","MAREA":" ","LANE":"１４３巷","ALLEY":" ","HOUSE_NO":"２９號之１","E_COORD97":167318.85999999999,"N_COORD97":2541598.27,"ADDRESS":"大成路二段１４３巷２９號之１","OBJECTID":354581},"geometry":{"x":167318.86000000034,"y":2541598.2700000014}},{"attributes":{"ID":354591,"DIS_CODE":0,"TOWNNAME":"南區","LI":"府南里","LIN":"24鄰","STREET":"大成路","SECT":"二段","MAREA":" ","LANE":"１４３巷","ALLEY":" ","HOUSE_NO":"３１號","E_COORD97":167294.63,"N_COORD97":2541596.8599999999,"ADDRESS":"大成路二段１４３巷３１號","OBJECTID":354582},"geometry":{"x":167294.62999999989,"y":2541596.8599999975}},{"attributes":{"ID":354592,"DIS_CODE":0,"TOWNNAME":"南區","LI":"府南里","LIN":"24鄰","STREET":"大成路","SECT":"二段","MAREA":" ","LANE":"１４３巷","ALLEY":" ","HOUSE_NO":"３１號之１","E_COORD97":167315.04000000001,"N_COORD97":2541590.3100000001,"ADDRESS":"大成路二段１４３巷３１號之１","OBJECTID":354583},"geometry":{"x":167315.04000000097,"y":2541590.3100000005}},{"attributes":{"ID":354593,"DIS_CODE":0,"TOWNNAME":"仁德區","LI":"大甲里","LIN":"6鄰","STREET":"行大街","SECT":" ","MAREA":" ","LANE":"３０７巷","ALLEY":" ","HOUSE_NO":"３１號","E_COORD97":169712.14999999999,"N_COORD97":2535104.4900000002,"ADDRESS":"行大街３０７巷３１號","OBJECTID":354584},"geometry":{"x":169712.15000000037,"y":2535104.4900000039}},{"attributes":{"ID":354594,"DIS_CODE":0,"TOWNNAME":"仁德區","LI":"仁義里","LIN":"6鄰","STREET":"中山路","SECT":" ","MAREA":" ","LANE":"４４１巷","ALLEY":" ","HOUSE_NO":"２１號","E_COORD97":173763.38,"N_COORD97":2541189.9900000002,"ADDRESS":"中山路４４１巷２１號","OBJECTID":354585},"geometry":{"x":173763.37999999989,"y":2541189.9899999984}},{"attributes":{"ID":354595,"DIS_CODE":0,"TOWNNAME":"仁德區","LI":"仁義里","LIN":"6鄰","STREET":"中山路","SECT":" ","MAREA":" ","LANE":"４４１巷","ALLEY":" ","HOUSE_NO":"１７號","E_COORD97":173762.23999999999,"N_COORD97":2541198.2400000002,"ADDRESS":"中山路４４１巷１７號","OBJECTID":354586},"geometry":{"x":173762.24000000115,"y":2541198.2400000002}},{"attributes":{"ID":354596,"DIS_CODE":0,"TOWNNAME":"仁德區","LI":"仁義里","LIN":"6鄰","STREET":"中山路","SECT":" ","MAREA":" ","LANE":"４４１巷","ALLEY":" ","HOUSE_NO":"１４號","E_COORD97":173748.39000000001,"N_COORD97":2541183.73,"ADDRESS":"中山路４４１巷１４號","OBJECTID":354587},"geometry":{"x":173748.38999999873,"y":2541183.7300000004}},{"attributes":{"ID":354597,"DIS_CODE":0,"TOWNNAME":"仁德區","LI":"仁義里","LIN":"6鄰","STREET":"中山路","SECT":" ","MAREA":" ","LANE":"４４１巷","ALLEY":" ","HOUSE_NO":"８號","E_COORD97":173747.32000000001,"N_COORD97":2541199.4900000002,"ADDRESS":"中山路４４１巷８號","OBJECTID":354588},"geometry":{"x":173747.3200000003,"y":2541199.4900000002}},{"attributes":{"ID":354598,"DIS_CODE":0,"TOWNNAME":"仁德區","LI":"大甲里","LIN":"6鄰","STREET":"行大街","SECT":" ","MAREA":" ","LANE":"３０７巷","ALLEY":" ","HOUSE_NO":"２５號","E_COORD97":169696.57999999999,"N_COORD97":2535110.7400000002,"ADDRESS":"行大街３０７巷２５號","OBJECTID":354589},"geometry":{"x":169696.58000000101,"y":2535110.7400000021}},{"attributes":{"ID":354599,"DIS_CODE":0,"TOWNNAME":"仁德區","LI":"仁義里","LIN":"6鄰","STREET":"中山路","SECT":" ","MAREA":" ","LANE":"４４１巷","ALLEY":" ","HOUSE_NO":"１１號","E_COORD97":173761.28,"N_COORD97":2541210.2400000002,"ADDRESS":"中山路４４１巷１１號","OBJECTID":354590},"geometry":{"x":173761.28000000026,"y":2541210.2400000021}},{"attributes":{"ID":354600,"DIS_CODE":0,"TOWNNAME":"仁德區","LI":"仁義里","LIN":"6鄰","STREET":"中山路","SECT":" ","MAREA":" ","LANE":"４４１巷","ALLEY":" ","HOUSE_NO":"２３號","E_COORD97":173763.79999999999,"N_COORD97":2541185.9900000002,"ADDRESS":"中山路４４１巷２３號","OBJECTID":354591},"geometry":{"x":173763.79999999981,"y":2541185.9900000002}},{"attributes":{"ID":354601,"DIS_CODE":0,"TOWNNAME":"仁德區","LI":"大甲里","LIN":"6鄰","STREET":"行大街","SECT":" ","MAREA":" ","LANE":"３０７巷","ALLEY":" ","HOUSE_NO":"３號","E_COORD97":169708.42999999999,"N_COORD97":2535140.5,"ADDRESS":"行大街３０７巷３號","OBJECTID":354592},"geometry":{"x":169708.4299999997,"y":2535140.5}},{"attributes":{"ID":354602,"DIS_CODE":0,"TOWNNAME":"仁德區","LI":"仁義里","LIN":"6鄰","STREET":"中山路","SECT":" ","MAREA":" ","LANE":"４４１巷","ALLEY":" ","HOUSE_NO":"１３號","E_COORD97":173761.76999999999,"N_COORD97":2541206.7400000002,"ADDRESS":"中山路４４１巷１３號","OBJECTID":354593},"geometry":{"x":173761.77000000048,"y":2541206.7400000021}},{"attributes":{"ID":354603,"DIS_CODE":0,"TOWNNAME":"仁德區","LI":"上崙里","LIN":"6鄰","STREET":"德南路","SECT":" ","MAREA":" ","LANE":"３９９巷","ALLEY":" ","HOUSE_NO":"２２號","E_COORD97":173979.59,"N_COORD97":2538266.27,"ADDRESS":"德南路３９９巷２２號","OBJECTID":354594},"geometry":{"x":173979.59000000171,"y":2538266.2700000014}},{"attributes":{"ID":354604,"DIS_CODE":0,"TOWNNAME":"仁德區","LI":"土庫里","LIN":"6鄰","STREET":"土庫三街","SECT":" ","MAREA":" ","LANE":"６１巷","ALLEY":" ","HOUSE_NO":"５號","E_COORD97":174267.17999999999,"N_COORD97":2543107,"ADDRESS":"土庫三街６１巷５號","OBJECTID":354595},"geometry":{"x":174267.18000000063,"y":2543107.0000000019}},{"attributes":{"ID":354605,"DIS_CODE":0,"TOWNNAME":"仁德區","LI":"上崙里","LIN":"6鄰","STREET":"德南路","SECT":" ","MAREA":" ","LANE":"３９９巷","ALLEY":" ","HOUSE_NO":"１８號","E_COORD97":173971.59,"N_COORD97":2538264.27,"ADDRESS":"德南路３９９巷１８號","OBJECTID":354596},"geometry":{"x":173971.59000000078,"y":2538264.2699999996}},{"attributes":{"ID":354606,"DIS_CODE":0,"TOWNNAME":"仁德區","LI":"上崙里","LIN":"6鄰","STREET":"德南路","SECT":" ","MAREA":" ","LANE":"３９９巷","ALLEY":" ","HOUSE_NO":"３０號","E_COORD97":173996.34,"N_COORD97":2538272.02,"ADDRESS":"德南路３９９巷３０號","OBJECTID":354597},"geometry":{"x":173996.33999999985,"y":2538272.0199999996}},{"attributes":{"ID":354607,"DIS_CODE":0,"TOWNNAME":"仁德區","LI":"大甲里","LIN":"6鄰","STREET":"行大街","SECT":" ","MAREA":" ","LANE":"３０７巷","ALLEY":" ","HOUSE_NO":"４５號","E_COORD97":169689.23000000001,"N_COORD97":2535090.4900000002,"ADDRESS":"行大街３０７巷４５號","OBJECTID":354598},"geometry":{"x":169689.23000000138,"y":2535090.4900000002}},{"attributes":{"ID":354608,"DIS_CODE":0,"TOWNNAME":"仁德區","LI":"土庫里","LIN":"6鄰","STREET":"土庫三街","SECT":" ","MAREA":" ","LANE":"６１巷","ALLEY":" ","HOUSE_NO":"９號","E_COORD97":174286.70999999999,"N_COORD97":2543100.75,"ADDRESS":"土庫三街６１巷９號","OBJECTID":354599},"geometry":{"x":174286.70999999996,"y":2543100.7500000019}},{"attributes":{"ID":354609,"DIS_CODE":0,"TOWNNAME":"仁德區","LI":"上崙里","LIN":"6鄰","STREET":"德南路","SECT":" ","MAREA":" ","LANE":"３９９巷","ALLEY":" ","HOUSE_NO":"１４號","E_COORD97":173964.13,"N_COORD97":2538262.02,"ADDRESS":"德南路３９９巷１４號","OBJECTID":354600},"geometry":{"x":173964.13000000175,"y":2538262.0199999996}}]}