{"displayFieldName":"TOWNNAME","fieldAliases":{"ID":"ID","DIS_CODE":"DIS_CODE","TOWNNAME":"TOWNNAME","LI":"LI","LIN":"LIN","STREET":"STREET","SECT":"SECT","MAREA":"MAREA","LANE":"LANE","ALLEY":"ALLEY","HOUSE_NO":"HOUSE_NO","E_COORD97":"E_COORD97","N_COORD97":"N_COORD97","ADDRESS":"ADDRESS","OBJECTID":"OBJECTID"},"geometryType":"esriGeometryPoint","spatialReference":{"wkid":102443,"latestWkid":3826},"fields":[{"name":"ID","type":"esriFieldTypeDouble","alias":"ID"},{"name":"DIS_CODE","type":"esriFieldTypeInteger","alias":"DIS_CODE"},{"name":"TOWNNAME","type":"esriFieldTypeString","alias":"TOWNNAME","length":8},{"name":"LI","type":"esriFieldTypeString","alias":"LI","length":8},{"name":"LIN","type":"esriFieldTypeString","alias":"LIN","length":12},{"name":"STREET","type":"esriFieldTypeString","alias":"STREET","length":20},{"name":"SECT","type":"esriFieldTypeString","alias":"SECT","length":8},{"name":"MAREA","type":"esriFieldTypeString","alias":"MAREA","length":12},{"name":"LANE","type":"esriFieldTypeString","alias":"LANE","length":10},{"name":"ALLEY","type":"esriFieldTypeString","alias":"ALLEY","length":10},{"name":"HOUSE_NO","type":"esriFieldTypeString","alias":"HOUSE_NO","length":20},{"name":"E_COORD97","type":"esriFieldTypeDouble","alias":"E_COORD97"},{"name":"N_COORD97","type":"esriFieldTypeDouble","alias":"N_COORD97"},{"name":"ADDRESS","type":"esriFieldTypeString","alias":"ADDRESS","length":50},{"name":"OBJECTID","type":"esriFieldTypeOID","alias":"OBJECTID"}],"features":[{"attributes":{"ID":519028,"DIS_CODE":0,"TOWNNAME":"仁德區","LI":"仁義里","LIN":"1鄰","STREET":"義林六街","SECT":" ","MAREA":" ","LANE":" ","ALLEY":" ","HOUSE_NO":"４９號","E_COORD97":174348.59,"N_COORD97":2541063.52,"ADDRESS":"義林六街４９號","OBJECTID":519001},"geometry":{"x":174348.58999999985,"y":2541063.5199999996}},{"attributes":{"ID":519029,"DIS_CODE":0,"TOWNNAME":"仁德區","LI":"仁義里","LIN":"1鄰","STREET":"義林五街","SECT":" ","MAREA":" ","LANE":" ","ALLEY":" ","HOUSE_NO":"１８之７號","E_COORD97":174396.51000000001,"N_COORD97":2541023.5499999998,"ADDRESS":"義林五街１８之７號","OBJECTID":519002},"geometry":{"x":174396.50999999978,"y":2541023.5500000007}},{"attributes":{"ID":519030,"DIS_CODE":0,"TOWNNAME":"仁德區","LI":"仁義里","LIN":"1鄰","STREET":"義林五街","SECT":" ","MAREA":" ","LANE":" ","ALLEY":" ","HOUSE_NO":"８８號","E_COORD97":174205.92000000001,"N_COORD97":2541047.52,"ADDRESS":"義林五街８８號","OBJECTID":519003},"geometry":{"x":174205.91999999993,"y":2541047.5200000014}},{"attributes":{"ID":519031,"DIS_CODE":0,"TOWNNAME":"仁德區","LI":"仁義里","LIN":"1鄰","STREET":"義林二街","SECT":" ","MAREA":" ","LANE":" ","ALLEY":" ","HOUSE_NO":"１８號","E_COORD97":174117.42999999999,"N_COORD97":2541022.27,"ADDRESS":"義林二街１８號","OBJECTID":519004},"geometry":{"x":174117.4299999997,"y":2541022.2700000014}},{"attributes":{"ID":519032,"DIS_CODE":0,"TOWNNAME":"仁德區","LI":"仁義里","LIN":"1鄰","STREET":"義林二街","SECT":" ","MAREA":" ","LANE":" ","ALLEY":" ","HOUSE_NO":"５６號","E_COORD97":174131.53,"N_COORD97":2541125.52,"ADDRESS":"義林二街５６號","OBJECTID":519005},"geometry":{"x":174131.53000000119,"y":2541125.5200000014}},{"attributes":{"ID":519033,"DIS_CODE":0,"TOWNNAME":"仁德區","LI":"仁義里","LIN":"1鄰","STREET":"義林六街","SECT":" ","MAREA":" ","LANE":" ","ALLEY":" ","HOUSE_NO":"８３號","E_COORD97":174219.38,"N_COORD97":2541080.0099999998,"ADDRESS":"義林六街８３號","OBJECTID":519006},"geometry":{"x":174219.37999999989,"y":2541080.0099999998}},{"attributes":{"ID":519034,"DIS_CODE":0,"TOWNNAME":"仁德區","LI":"仁義里","LIN":"1鄰","STREET":"義林二街","SECT":" ","MAREA":" ","LANE":" ","ALLEY":" ","HOUSE_NO":"７２號","E_COORD97":174138.84,"N_COORD97":2541180.0099999998,"ADDRESS":"義林二街７２號","OBJECTID":519007},"geometry":{"x":174138.83999999892,"y":2541180.0100000016}},{"attributes":{"ID":519035,"DIS_CODE":0,"TOWNNAME":"仁德區","LI":"仁義里","LIN":"1鄰","STREET":"義林二街","SECT":" ","MAREA":" ","LANE":" ","ALLEY":" ","HOUSE_NO":"２２號","E_COORD97":174118.88,"N_COORD97":2541032.02,"ADDRESS":"義林二街２２號","OBJECTID":519008},"geometry":{"x":174118.88000000082,"y":2541032.0199999996}},{"attributes":{"ID":519036,"DIS_CODE":0,"TOWNNAME":"仁德區","LI":"仁義里","LIN":"1鄰","STREET":"義林二街","SECT":" ","MAREA":" ","LANE":" ","ALLEY":" ","HOUSE_NO":"４８號","E_COORD97":174129.70000000001,"N_COORD97":2541110.7599999998,"ADDRESS":"義林二街４８號","OBJECTID":519009},"geometry":{"x":174129.70000000019,"y":2541110.7600000016}},{"attributes":{"ID":519037,"DIS_CODE":0,"TOWNNAME":"仁德區","LI":"仁義里","LIN":"1鄰","STREET":"義林路","SECT":" ","MAREA":" ","LANE":" ","ALLEY":" ","HOUSE_NO":"２０５號","E_COORD97":174476.59,"N_COORD97":2541031.52,"ADDRESS":"義林路２０５號","OBJECTID":519010},"geometry":{"x":174476.59000000078,"y":2541031.5200000014}},{"attributes":{"ID":519038,"DIS_CODE":0,"TOWNNAME":"仁德區","LI":"仁義里","LIN":"1鄰","STREET":"中山路","SECT":" ","MAREA":" ","LANE":" ","ALLEY":" ","HOUSE_NO":"１４７號","E_COORD97":174599.10000000001,"N_COORD97":2541113.2400000002,"ADDRESS":"中山路１４７號","OBJECTID":519011},"geometry":{"x":174599.09999999963,"y":2541113.2400000002}},{"attributes":{"ID":519039,"DIS_CODE":0,"TOWNNAME":"仁德區","LI":"仁義里","LIN":"1鄰","STREET":"義林六街","SECT":" ","MAREA":" ","LANE":" ","ALLEY":" ","HOUSE_NO":"６９號","E_COORD97":174249.35999999999,"N_COORD97":2541070.2599999998,"ADDRESS":"義林六街６９號","OBJECTID":519012},"geometry":{"x":174249.3599999994,"y":2541070.2600000016}},{"attributes":{"ID":519040,"DIS_CODE":0,"TOWNNAME":"仁德區","LI":"仁義里","LIN":"1鄰","STREET":"義林六街","SECT":" ","MAREA":" ","LANE":" ","ALLEY":" ","HOUSE_NO":"４７號","E_COORD97":174352.67999999999,"N_COORD97":2541063.02,"ADDRESS":"義林六街４７號","OBJECTID":519013},"geometry":{"x":174352.6799999997,"y":2541063.0199999996}},{"attributes":{"ID":519041,"DIS_CODE":0,"TOWNNAME":"仁德區","LI":"仁義里","LIN":"1鄰","STREET":"義林六街","SECT":" ","MAREA":" ","LANE":" ","ALLEY":" ","HOUSE_NO":"３５號","E_COORD97":174381.76999999999,"N_COORD97":2541059.52,"ADDRESS":"義林六街３５號","OBJECTID":519014},"geometry":{"x":174381.77000000048,"y":2541059.5199999996}},{"attributes":{"ID":519042,"DIS_CODE":0,"TOWNNAME":"仁德區","LI":"仁義里","LIN":"1鄰","STREET":"義林二街","SECT":" ","MAREA":" ","LANE":" ","ALLEY":" ","HOUSE_NO":"２０號","E_COORD97":174118.35999999999,"N_COORD97":2541027.27,"ADDRESS":"義林二街２０號","OBJECTID":519015},"geometry":{"x":174118.36000000034,"y":2541027.2699999996}},{"attributes":{"ID":519043,"DIS_CODE":0,"TOWNNAME":"仁德區","LI":"仁義里","LIN":"1鄰","STREET":"義林路","SECT":" ","MAREA":" ","LANE":" ","ALLEY":" ","HOUSE_NO":"２０７號","E_COORD97":174476.89999999999,"N_COORD97":2541036.02,"ADDRESS":"義林路２０７號","OBJECTID":519016},"geometry":{"x":174476.9000000013,"y":2541036.0199999996}},{"attributes":{"ID":519044,"DIS_CODE":0,"TOWNNAME":"仁德區","LI":"仁義里","LIN":"1鄰","STREET":"義林六街","SECT":" ","MAREA":" ","LANE":" ","ALLEY":" ","HOUSE_NO":"７３號","E_COORD97":174248.01000000001,"N_COORD97":2541060.52,"ADDRESS":"義林六街７３號","OBJECTID":519017},"geometry":{"x":174248.01000000071,"y":2541060.5200000033}},{"attributes":{"ID":519045,"DIS_CODE":0,"TOWNNAME":"白河區","LI":"白河里","LIN":"1鄰","STREET":"八德街","SECT":" ","MAREA":" ","LANE":" ","ALLEY":" ","HOUSE_NO":"６號","E_COORD97":190037.88,"N_COORD97":2582701.4399999999,"ADDRESS":"八德街６號","OBJECTID":519018},"geometry":{"x":190037.88000000175,"y":2582701.4400000032}},{"attributes":{"ID":519046,"DIS_CODE":0,"TOWNNAME":"仁德區","LI":"仁德里","LIN":"1鄰","STREET":"中正路","SECT":"二段","MAREA":" ","LANE":" ","ALLEY":" ","HOUSE_NO":"６２５號","E_COORD97":173345.76999999999,"N_COORD97":2539926.7799999998,"ADDRESS":"中正路二段６２５號","OBJECTID":519019},"geometry":{"x":173345.77000000142,"y":2539926.7800000012}},{"attributes":{"ID":519047,"DIS_CODE":0,"TOWNNAME":"仁德區","LI":"仁德里","LIN":"1鄰","STREET":"中正路","SECT":"二段","MAREA":" ","LANE":" ","ALLEY":" ","HOUSE_NO":"６６９號","E_COORD97":173411.89999999999,"N_COORD97":2540038.52,"ADDRESS":"中正路二段６６９號","OBJECTID":519020},"geometry":{"x":173411.90000000224,"y":2540038.5199999996}},{"attributes":{"ID":519048,"DIS_CODE":0,"TOWNNAME":"仁德區","LI":"太子里","LIN":"1鄰","STREET":"太子路","SECT":" ","MAREA":" ","LANE":" ","ALLEY":" ","HOUSE_NO":"２１２號","E_COORD97":174227.01000000001,"N_COORD97":2543514.0099999998,"ADDRESS":"太子路２１２號","OBJECTID":519021},"geometry":{"x":174227.00999999978,"y":2543514.0099999998}},{"attributes":{"ID":519049,"DIS_CODE":0,"TOWNNAME":"仁德區","LI":"太子里","LIN":"1鄰","STREET":"太子路","SECT":" ","MAREA":" ","LANE":" ","ALLEY":" ","HOUSE_NO":"２１０號","E_COORD97":174232.67000000001,"N_COORD97":2543514.2599999998,"ADDRESS":"太子路２１０號","OBJECTID":519022},"geometry":{"x":174232.66999999993,"y":2543514.2600000016}},{"attributes":{"ID":519050,"DIS_CODE":0,"TOWNNAME":"仁德區","LI":"仁義里","LIN":"1鄰","STREET":"義林七街","SECT":" ","MAREA":" ","LANE":" ","ALLEY":" ","HOUSE_NO":"６３號","E_COORD97":174375.13,"N_COORD97":2541114.2599999998,"ADDRESS":"義林七街６３號","OBJECTID":519023},"geometry":{"x":174375.13000000082,"y":2541114.2600000016}},{"attributes":{"ID":519051,"DIS_CODE":0,"TOWNNAME":"仁德區","LI":"仁德里","LIN":"1鄰","STREET":"中正路","SECT":"二段","MAREA":" ","LANE":" ","ALLEY":" ","HOUSE_NO":"６６７號","E_COORD97":173410.87,"N_COORD97":2540034.77,"ADDRESS":"中正路二段６６７號","OBJECTID":519024},"geometry":{"x":173410.87000000104,"y":2540034.7700000033}},{"attributes":{"ID":519052,"DIS_CODE":0,"TOWNNAME":"仁德區","LI":"仁德里","LIN":"1鄰","STREET":"中正路","SECT":"二段","MAREA":" ","LANE":" ","ALLEY":" ","HOUSE_NO":"６７３號","E_COORD97":173414.62,"N_COORD97":2540045.77,"ADDRESS":"中正路二段６７３號","OBJECTID":519025},"geometry":{"x":173414.62000000011,"y":2540045.7700000014}},{"attributes":{"ID":519053,"DIS_CODE":0,"TOWNNAME":"仁德區","LI":"仁德里","LIN":"1鄰","STREET":"中正路","SECT":"二段","MAREA":" ","LANE":" ","ALLEY":" ","HOUSE_NO":"６８３號","E_COORD97":173422.42000000001,"N_COORD97":2540067.27,"ADDRESS":"中正路二段６８３號","OBJECTID":519026},"geometry":{"x":173422.41999999993,"y":2540067.2699999996}},{"attributes":{"ID":519054,"DIS_CODE":0,"TOWNNAME":"仁德區","LI":"仁義里","LIN":"1鄰","STREET":"義林二街","SECT":" ","MAREA":" ","LANE":" ","ALLEY":" ","HOUSE_NO":"２８號","E_COORD97":174123.73000000001,"N_COORD97":2541071.7599999998,"ADDRESS":"義林二街２８號","OBJECTID":519027},"geometry":{"x":174123.73000000138,"y":2541071.7599999998}},{"attributes":{"ID":519055,"DIS_CODE":0,"TOWNNAME":"仁德區","LI":"仁義里","LIN":"1鄰","STREET":"義林二街","SECT":" ","MAREA":" ","LANE":" ","ALLEY":" ","HOUSE_NO":"６２號","E_COORD97":174133.82000000001,"N_COORD97":2541143.02,"ADDRESS":"義林二街６２號","OBJECTID":519028},"geometry":{"x":174133.8200000003,"y":2541143.0200000014}},{"attributes":{"ID":519056,"DIS_CODE":0,"TOWNNAME":"仁德區","LI":"仁德里","LIN":"1鄰","STREET":"中正路","SECT":"二段","MAREA":" ","LANE":" ","ALLEY":" ","HOUSE_NO":"６７７號","E_COORD97":173416.95000000001,"N_COORD97":2540054.02,"ADDRESS":"中正路二段６７７號","OBJECTID":519029},"geometry":{"x":173416.95000000112,"y":2540054.0200000014}},{"attributes":{"ID":519057,"DIS_CODE":0,"TOWNNAME":"仁德區","LI":"仁德里","LIN":"1鄰","STREET":"中正路","SECT":"二段","MAREA":" ","LANE":" ","ALLEY":" ","HOUSE_NO":"６３１號","E_COORD97":173356.5,"N_COORD97":2539953.77,"ADDRESS":"中正路二段６３１號","OBJECTID":519030},"geometry":{"x":173356.50000000186,"y":2539953.7700000014}},{"attributes":{"ID":519058,"DIS_CODE":0,"TOWNNAME":"仁德區","LI":"仁德里","LIN":"1鄰","STREET":"中正路","SECT":"二段","MAREA":" ","LANE":" ","ALLEY":" ","HOUSE_NO":"６４７號","E_COORD97":173391.04000000001,"N_COORD97":2539984.2799999998,"ADDRESS":"中正路二段６４７號","OBJECTID":519031},"geometry":{"x":173391.04000000004,"y":2539984.2800000012}},{"attributes":{"ID":519059,"DIS_CODE":0,"TOWNNAME":"仁德區","LI":"仁德里","LIN":"1鄰","STREET":"中正路","SECT":"二段","MAREA":" ","LANE":" ","ALLEY":" ","HOUSE_NO":"６０７號","E_COORD97":173369.09,"N_COORD97":2539861.52,"ADDRESS":"中正路二段６０７號","OBJECTID":519032},"geometry":{"x":173369.08999999985,"y":2539861.5200000014}},{"attributes":{"ID":519060,"DIS_CODE":0,"TOWNNAME":"仁德區","LI":"太子里","LIN":"1鄰","STREET":"太子北路","SECT":" ","MAREA":" ","LANE":" ","ALLEY":" ","HOUSE_NO":"１號","E_COORD97":174172.06,"N_COORD97":2543543.5099999998,"ADDRESS":"太子北路１號","OBJECTID":519033},"geometry":{"x":174172.05999999959,"y":2543543.5100000016}},{"attributes":{"ID":519061,"DIS_CODE":0,"TOWNNAME":"仁德區","LI":"仁義里","LIN":"1鄰","STREET":"義林七街","SECT":" ","MAREA":" ","LANE":" ","ALLEY":" ","HOUSE_NO":"１１１號","E_COORD97":174205.12,"N_COORD97":2541135.52,"ADDRESS":"義林七街１１１號","OBJECTID":519034},"geometry":{"x":174205.12000000197,"y":2541135.5200000014}},{"attributes":{"ID":519062,"DIS_CODE":0,"TOWNNAME":"安南區","LI":"\u25A0田里","LIN":"1鄰","STREET":"本田路","SECT":"二段","MAREA":" ","LANE":" ","ALLEY":" ","HOUSE_NO":"１５５號","E_COORD97":162025.43762300001,"N_COORD97":2548029.81336,"ADDRESS":"本田路二段１５５號","OBJECTID":519035},"geometry":{"x":162025.43762300164,"y":2548029.8133620005}},{"attributes":{"ID":519063,"DIS_CODE":0,"TOWNNAME":"安南區","LI":"\u25A0田里","LIN":"1鄰","STREET":"本田路","SECT":"二段","MAREA":" ","LANE":" ","ALLEY":" ","HOUSE_NO":"１５７號","E_COORD97":162033.69711800001,"N_COORD97":2548031.5066900002,"ADDRESS":"本田路二段１５７號","OBJECTID":519036},"geometry":{"x":162033.69711800013,"y":2548031.5066940039}},{"attributes":{"ID":519064,"DIS_CODE":0,"TOWNNAME":"安南區","LI":"\u25A0田里","LIN":"1鄰","STREET":"本田路","SECT":"二段","MAREA":" ","LANE":" ","ALLEY":" ","HOUSE_NO":"１５９號","E_COORD97":162041.74483000001,"N_COORD97":2548033.6233600001,"ADDRESS":"本田路二段１５９號","OBJECTID":519037},"geometry":{"x":162041.74483000021,"y":2548033.6233600006}},{"attributes":{"ID":519065,"DIS_CODE":0,"TOWNNAME":"安南區","LI":"公\u25A0里","LIN":"1鄰","STREET":"安興街","SECT":" ","MAREA":" ","LANE":" ","ALLEY":" ","HOUSE_NO":"１８號","E_COORD97":164427.62,"N_COORD97":2552314.9199999999,"ADDRESS":"安興街１８號","OBJECTID":519038},"geometry":{"x":164427.62000000104,"y":2552314.9200000018}},{"attributes":{"ID":519066,"DIS_CODE":0,"TOWNNAME":"白河區","LI":"白河里","LIN":"1鄰","STREET":"八德街","SECT":" ","MAREA":" ","LANE":" ","ALLEY":" ","HOUSE_NO":"８號","E_COORD97":190041.31,"N_COORD97":2582708.4399999999,"ADDRESS":"八德街８號","OBJECTID":519039},"geometry":{"x":190041.30999999866,"y":2582708.4400000032}},{"attributes":{"ID":519067,"DIS_CODE":0,"TOWNNAME":"安南區","LI":"淵東里","LIN":"1鄰","STREET":"海佃路","SECT":"四段","MAREA":" ","LANE":" ","ALLEY":" ","HOUSE_NO":"１０２之１號","E_COORD97":165695.72,"N_COORD97":2550704.6800000002,"ADDRESS":"海佃路四段１０２之１號","OBJECTID":519040},"geometry":{"x":165695.71999999974,"y":2550704.6799999997}},{"attributes":{"ID":519068,"DIS_CODE":0,"TOWNNAME":"安南區","LI":"淵東里","LIN":"1鄰","STREET":"海佃路","SECT":"四段","MAREA":" ","LANE":" ","ALLEY":" ","HOUSE_NO":"１１２之１號","E_COORD97":165686.45999999999,"N_COORD97":2550724.0699999998,"ADDRESS":"海佃路四段１１２之１號","OBJECTID":519041},"geometry":{"x":165686.46000000089,"y":2550724.0700000022}},{"attributes":{"ID":519069,"DIS_CODE":0,"TOWNNAME":"安南區","LI":"佃東里","LIN":"1鄰","STREET":"台江大道","SECT":"三段","MAREA":" ","LANE":" ","ALLEY":" ","HOUSE_NO":"２２號","E_COORD97":166956.17000000001,"N_COORD97":2551265.3199999998,"ADDRESS":"台江大道三段２２號","OBJECTID":519042},"geometry":{"x":166956.17000000086,"y":2551265.3200000022}},{"attributes":{"ID":519070,"DIS_CODE":0,"TOWNNAME":"東區","LI":"大福里","LIN":"1鄰","STREET":"大同路","SECT":"二段","MAREA":" ","LANE":" ","ALLEY":" ","HOUSE_NO":"３２３號","E_COORD97":169475.62,"N_COORD97":2541600.0699999998,"ADDRESS":"大同路二段３２３號","OBJECTID":519043},"geometry":{"x":169475.62000000197,"y":2541600.070000004}},{"attributes":{"ID":519071,"DIS_CODE":0,"TOWNNAME":"東區","LI":"大福里","LIN":"1鄰","STREET":"大同路","SECT":"二段","MAREA":" ","LANE":" ","ALLEY":" ","HOUSE_NO":"２６５號","E_COORD97":169459.97,"N_COORD97":2541714.8700000001,"ADDRESS":"大同路二段２６５號","OBJECTID":519044},"geometry":{"x":169459.97000000067,"y":2541714.8700000029}},{"attributes":{"ID":519072,"DIS_CODE":0,"TOWNNAME":"東區","LI":"大福里","LIN":"1鄰","STREET":"大同路","SECT":"二段","MAREA":" ","LANE":" ","ALLEY":" ","HOUSE_NO":"２６７號","E_COORD97":169461.37,"N_COORD97":2541711.3900000001,"ADDRESS":"大同路二段２６７號","OBJECTID":519045},"geometry":{"x":169461.37000000011,"y":2541711.3900000025}},{"attributes":{"ID":519073,"DIS_CODE":0,"TOWNNAME":"東區","LI":"大福里","LIN":"1鄰","STREET":"大同路","SECT":"二段","MAREA":" ","LANE":" ","ALLEY":" ","HOUSE_NO":"２７３號","E_COORD97":169459.16,"N_COORD97":2541696.4199999999,"ADDRESS":"大同路二段２７３號","OBJECTID":519046},"geometry":{"x":169459.16000000108,"y":2541696.4200000018}},{"attributes":{"ID":519074,"DIS_CODE":0,"TOWNNAME":"東區","LI":"大福里","LIN":"1鄰","STREET":"大同路","SECT":"二段","MAREA":" ","LANE":" ","ALLEY":" ","HOUSE_NO":"２７５號","E_COORD97":169460.73999999999,"N_COORD97":2541693.0099999998,"ADDRESS":"大同路二段２７５號","OBJECTID":519047},"geometry":{"x":169460.74000000022,"y":2541693.0100000016}},{"attributes":{"ID":519075,"DIS_CODE":0,"TOWNNAME":"東區","LI":"大福里","LIN":"1鄰","STREET":"大同路","SECT":"二段","MAREA":" ","LANE":" ","ALLEY":" ","HOUSE_NO":"２７７號","E_COORD97":169461,"N_COORD97":2541689.0699999998,"ADDRESS":"大同路二段２７７號","OBJECTID":519048},"geometry":{"x":169461.00000000186,"y":2541689.0700000022}},{"attributes":{"ID":519076,"DIS_CODE":0,"TOWNNAME":"東區","LI":"大福里","LIN":"1鄰","STREET":"大同路","SECT":"二段","MAREA":" ","LANE":" ","ALLEY":" ","HOUSE_NO":"２７９號","E_COORD97":169461.26999999999,"N_COORD97":2541683.7999999998,"ADDRESS":"大同路二段２７９號","OBJECTID":519049},"geometry":{"x":169461.26999999955,"y":2541683.8000000045}},{"attributes":{"ID":519077,"DIS_CODE":0,"TOWNNAME":"東區","LI":"大福里","LIN":"1鄰","STREET":"大同路","SECT":"二段","MAREA":" ","LANE":" ","ALLEY":" ","HOUSE_NO":"２８１號","E_COORD97":169462.32000000001,"N_COORD97":2541679.6000000001,"ADDRESS":"大同路二段２８１號","OBJECTID":519050},"geometry":{"x":169462.3200000003,"y":2541679.5999999996}},{"attributes":{"ID":519078,"DIS_CODE":0,"TOWNNAME":"東區","LI":"大福里","LIN":"1鄰","STREET":"大同路","SECT":"二段","MAREA":" ","LANE":" ","ALLEY":" ","HOUSE_NO":"２８３號","E_COORD97":169463.89000000001,"N_COORD97":2541675.3999999999,"ADDRESS":"大同路二段２８３號","OBJECTID":519051},"geometry":{"x":169463.8900000006,"y":2541675.4000000004}},{"attributes":{"ID":519079,"DIS_CODE":0,"TOWNNAME":"東區","LI":"大福里","LIN":"1鄰","STREET":"大同路","SECT":"二段","MAREA":" ","LANE":" ","ALLEY":" ","HOUSE_NO":"２８５號","E_COORD97":169464.16,"N_COORD97":2541673.04,"ADDRESS":"大同路二段２８５號","OBJECTID":519052},"geometry":{"x":169464.16000000108,"y":2541673.0399999991}},{"attributes":{"ID":519080,"DIS_CODE":0,"TOWNNAME":"東區","LI":"大福里","LIN":"1鄰","STREET":"大同路","SECT":"二段","MAREA":" ","LANE":" ","ALLEY":" ","HOUSE_NO":"２８７號","E_COORD97":169463.89000000001,"N_COORD97":2541669.1000000001,"ADDRESS":"大同路二段２８７號","OBJECTID":519053},"geometry":{"x":169463.8900000006,"y":2541669.0999999996}},{"attributes":{"ID":519081,"DIS_CODE":0,"TOWNNAME":"東區","LI":"大福里","LIN":"1鄰","STREET":"大同路","SECT":"二段","MAREA":" ","LANE":" ","ALLEY":" ","HOUSE_NO":"２８９號","E_COORD97":169465.20999999999,"N_COORD97":2541666.21,"ADDRESS":"大同路二段２８９號","OBJECTID":519054},"geometry":{"x":169465.21000000089,"y":2541666.2100000009}},{"attributes":{"ID":519082,"DIS_CODE":0,"TOWNNAME":"東區","LI":"大福里","LIN":"1鄰","STREET":"大同路","SECT":"二段","MAREA":" ","LANE":" ","ALLEY":" ","HOUSE_NO":"２９１號","E_COORD97":169466.51999999999,"N_COORD97":2541663.0699999998,"ADDRESS":"大同路二段２９１號","OBJECTID":519055},"geometry":{"x":169466.51999999955,"y":2541663.0700000003}},{"attributes":{"ID":519083,"DIS_CODE":0,"TOWNNAME":"東區","LI":"大福里","LIN":"1鄰","STREET":"大同路","SECT":"二段","MAREA":" ","LANE":" ","ALLEY":" ","HOUSE_NO":"２９３號","E_COORD97":169465.47,"N_COORD97":2541659.9199999999,"ADDRESS":"大同路二段２９３號","OBJECTID":519056},"geometry":{"x":169465.46999999974,"y":2541659.9200000018}},{"attributes":{"ID":519084,"DIS_CODE":0,"TOWNNAME":"東區","LI":"大福里","LIN":"1鄰","STREET":"大同路","SECT":"二段","MAREA":" ","LANE":" ","ALLEY":" ","HOUSE_NO":"２９５號","E_COORD97":169466.26000000001,"N_COORD97":2541656.2400000002,"ADDRESS":"大同路二段２９５號","OBJECTID":519057},"geometry":{"x":169466.26000000071,"y":2541656.2400000039}},{"attributes":{"ID":519085,"DIS_CODE":0,"TOWNNAME":"東區","LI":"大福里","LIN":"1鄰","STREET":"大同路","SECT":"二段","MAREA":" ","LANE":" ","ALLEY":" ","HOUSE_NO":"２９７號","E_COORD97":169466.79000000001,"N_COORD97":2541652.3100000001,"ADDRESS":"大同路二段２９７號","OBJECTID":519058},"geometry":{"x":169466.79000000004,"y":2541652.3100000005}},{"attributes":{"ID":519086,"DIS_CODE":0,"TOWNNAME":"東區","LI":"大福里","LIN":"1鄰","STREET":"大同路","SECT":"二段","MAREA":" ","LANE":" ","ALLEY":" ","HOUSE_NO":"２９９號","E_COORD97":169467.31,"N_COORD97":2541648.6299999999,"ADDRESS":"大同路二段２９９號","OBJECTID":519059},"geometry":{"x":169467.31000000052,"y":2541648.629999999}},{"attributes":{"ID":519087,"DIS_CODE":0,"TOWNNAME":"東區","LI":"大福里","LIN":"1鄰","STREET":"大同路","SECT":"二段","MAREA":" ","LANE":" ","ALLEY":" ","HOUSE_NO":"３０１號","E_COORD97":169467.57000000001,"N_COORD97":2541645.2200000002,"ADDRESS":"大同路二段３０１號","OBJECTID":519060},"geometry":{"x":169467.57000000216,"y":2541645.2200000007}},{"attributes":{"ID":519088,"DIS_CODE":0,"TOWNNAME":"東區","LI":"大福里","LIN":"1鄰","STREET":"大同路","SECT":"二段","MAREA":" ","LANE":" ","ALLEY":" ","HOUSE_NO":"３０３號","E_COORD97":169467.84,"N_COORD97":2541642.0699999998,"ADDRESS":"大同路二段３０３號","OBJECTID":519061},"geometry":{"x":169467.83999999985,"y":2541642.0700000022}},{"attributes":{"ID":519089,"DIS_CODE":0,"TOWNNAME":"東區","LI":"大福里","LIN":"1鄰","STREET":"大同路","SECT":"二段","MAREA":" ","LANE":" ","ALLEY":" ","HOUSE_NO":"３０７號","E_COORD97":169469.14999999999,"N_COORD97":2541636.2999999998,"ADDRESS":"大同路二段３０７號","OBJECTID":519062},"geometry":{"x":169469.1500000013,"y":2541636.3000000045}},{"attributes":{"ID":519090,"DIS_CODE":0,"TOWNNAME":"東區","LI":"大福里","LIN":"1鄰","STREET":"大同路","SECT":"二段","MAREA":" ","LANE":" ","ALLEY":" ","HOUSE_NO":"３０９號","E_COORD97":169470.45999999999,"N_COORD97":2541631.3100000001,"ADDRESS":"大同路二段３０９號","OBJECTID":519063},"geometry":{"x":169470.46000000089,"y":2541631.3100000005}},{"attributes":{"ID":519091,"DIS_CODE":0,"TOWNNAME":"東區","LI":"大福里","LIN":"1鄰","STREET":"大同路","SECT":"二段","MAREA":" ","LANE":" ","ALLEY":" ","HOUSE_NO":"３１１號","E_COORD97":169471.78,"N_COORD97":2541627.3700000001,"ADDRESS":"大同路二段３１１號","OBJECTID":519064},"geometry":{"x":169471.78000000119,"y":2541627.3700000029}},{"attributes":{"ID":519092,"DIS_CODE":0,"TOWNNAME":"東區","LI":"大福里","LIN":"1鄰","STREET":"大同路","SECT":"二段","MAREA":" ","LANE":" ","ALLEY":" ","HOUSE_NO":"３１３號","E_COORD97":169472.29999999999,"N_COORD97":2541622.3900000001,"ADDRESS":"大同路二段３１３號","OBJECTID":519065},"geometry":{"x":169472.30000000168,"y":2541622.3900000025}},{"attributes":{"ID":519093,"DIS_CODE":0,"TOWNNAME":"東區","LI":"大福里","LIN":"1鄰","STREET":"大同路","SECT":"二段","MAREA":" ","LANE":" ","ALLEY":" ","HOUSE_NO":"３２１號","E_COORD97":169473.32999999999,"N_COORD97":2541603.8799999999,"ADDRESS":"大同路二段３２１號","OBJECTID":519066},"geometry":{"x":169473.33000000007,"y":2541603.8800000008}},{"attributes":{"ID":519094,"DIS_CODE":0,"TOWNNAME":"東區","LI":"大福里","LIN":"1鄰","STREET":"大同路","SECT":"二段","MAREA":" ","LANE":" ","ALLEY":" ","HOUSE_NO":"３２５號","E_COORD97":169476.76999999999,"N_COORD97":2541597.02,"ADDRESS":"大同路二段３２５號","OBJECTID":519067},"geometry":{"x":169476.76999999955,"y":2541597.0200000014}},{"attributes":{"ID":519095,"DIS_CODE":0,"TOWNNAME":"東區","LI":"大福里","LIN":"1鄰","STREET":"大同路","SECT":"二段","MAREA":" ","LANE":" ","ALLEY":" ","HOUSE_NO":"３２７號","E_COORD97":169477.53,"N_COORD97":2541594.3599999999,"ADDRESS":"大同路二段３２７號","OBJECTID":519068},"geometry":{"x":169477.53000000026,"y":2541594.3600000013}},{"attributes":{"ID":519096,"DIS_CODE":0,"TOWNNAME":"東區","LI":"東光里","LIN":"1鄰","STREET":"東寧路","SECT":" ","MAREA":" ","LANE":" ","ALLEY":" ","HOUSE_NO":"４４３號","E_COORD97":171087.45999999999,"N_COORD97":2543325.3300000001,"ADDRESS":"東寧路４４３號","OBJECTID":519069},"geometry":{"x":171087.46000000089,"y":2543325.3300000019}},{"attributes":{"ID":519097,"DIS_CODE":0,"TOWNNAME":"東區","LI":"東光里","LIN":"1鄰","STREET":"東寧路","SECT":" ","MAREA":" ","LANE":" ","ALLEY":" ","HOUSE_NO":"４４１號","E_COORD97":171084.42999999999,"N_COORD97":2543329.4199999999,"ADDRESS":"東寧路４４１號","OBJECTID":519070},"geometry":{"x":171084.4299999997,"y":2543329.4199999981}},{"attributes":{"ID":519098,"DIS_CODE":0,"TOWNNAME":"東區","LI":"南聖里","LIN":"1鄰","STREET":"裕農路","SECT":" ","MAREA":" ","LANE":" ","ALLEY":" ","HOUSE_NO":"７１８號","E_COORD97":171832.09,"N_COORD97":2543232.1400000001,"ADDRESS":"裕農路７１８號","OBJECTID":519071},"geometry":{"x":171832.09000000078,"y":2543232.1400000025}},{"attributes":{"ID":519099,"DIS_CODE":0,"TOWNNAME":"東區","LI":"東光里","LIN":"1鄰","STREET":"東寧路","SECT":" ","MAREA":" ","LANE":" ","ALLEY":" ","HOUSE_NO":"３７３號","E_COORD97":170924.66,"N_COORD97":2543381.4100000001,"ADDRESS":"東寧路３７３號","OBJECTID":519072},"geometry":{"x":170924.66000000201,"y":2543381.410000002}},{"attributes":{"ID":519100,"DIS_CODE":0,"TOWNNAME":"東區","LI":"東光里","LIN":"1鄰","STREET":"東寧路","SECT":" ","MAREA":" ","LANE":" ","ALLEY":" ","HOUSE_NO":"３７１號","E_COORD97":170917.54000000001,"N_COORD97":2543383.3100000001,"ADDRESS":"東寧路３７１號","OBJECTID":519073},"geometry":{"x":170917.54000000097,"y":2543383.3100000024}},{"attributes":{"ID":519101,"DIS_CODE":0,"TOWNNAME":"東區","LI":"莊敬里","LIN":"1鄰","STREET":"小東路","SECT":" ","MAREA":" ","LANE":" ","ALLEY":" ","HOUSE_NO":"２５６號之３","E_COORD97":171136.35000000001,"N_COORD97":2544336.0499999998,"ADDRESS":"小東路２５６號之３","OBJECTID":519074},"geometry":{"x":171136.3499999987,"y":2544336.0500000007}},{"attributes":{"ID":519102,"DIS_CODE":0,"TOWNNAME":"安南區","LI":"淵東里","LIN":"1鄰","STREET":"海佃路","SECT":"四段","MAREA":" ","LANE":" ","ALLEY":" ","HOUSE_NO":"７號","E_COORD97":165766.34,"N_COORD97":2550472.9500000002,"ADDRESS":"海佃路四段７號","OBJECTID":519075},"geometry":{"x":165766.34000000171,"y":2550472.9500000011}},{"attributes":{"ID":519103,"DIS_CODE":0,"TOWNNAME":"安南區","LI":"淵東里","LIN":"1鄰","STREET":"海佃路","SECT":"四段","MAREA":" ","LANE":" ","ALLEY":" ","HOUSE_NO":"９號","E_COORD97":165761.57000000001,"N_COORD97":2550476.4300000002,"ADDRESS":"海佃路四段９號","OBJECTID":519076},"geometry":{"x":165761.5700000003,"y":2550476.4300000034}},{"attributes":{"ID":519104,"DIS_CODE":0,"TOWNNAME":"安南區","LI":"淵東里","LIN":"1鄰","STREET":"海佃路","SECT":"四段","MAREA":" ","LANE":" ","ALLEY":" ","HOUSE_NO":"１１號","E_COORD97":165757.64999999999,"N_COORD97":2550482.0899999999,"ADDRESS":"海佃路四段１１號","OBJECTID":519077},"geometry":{"x":165757.65000000037,"y":2550482.0900000036}},{"attributes":{"ID":519105,"DIS_CODE":0,"TOWNNAME":"安南區","LI":"梅花里","LIN":"1鄰","STREET":"安中路","SECT":"一段","MAREA":" ","LANE":" ","ALLEY":" ","HOUSE_NO":"４９９號","E_COORD97":168046.62,"N_COORD97":2548936.7400000002,"ADDRESS":"安中路一段４９９號","OBJECTID":519078},"geometry":{"x":168046.62000000104,"y":2548936.7400000021}},{"attributes":{"ID":519106,"DIS_CODE":0,"TOWNNAME":"安南區","LI":"梅花里","LIN":"1鄰","STREET":"安中路","SECT":"一段","MAREA":" ","LANE":" ","ALLEY":" ","HOUSE_NO":"５０１號","E_COORD97":168046.62,"N_COORD97":2548936.7400000002,"ADDRESS":"安中路一段５０１號","OBJECTID":519079},"geometry":{"x":168046.62000000104,"y":2548936.7400000021}},{"attributes":{"ID":519107,"DIS_CODE":0,"TOWNNAME":"安南區","LI":"梅花里","LIN":"1鄰","STREET":"安中路","SECT":"一段","MAREA":" ","LANE":" ","ALLEY":" ","HOUSE_NO":"５０３號","E_COORD97":168046.62,"N_COORD97":2548936.7400000002,"ADDRESS":"安中路一段５０３號","OBJECTID":519080},"geometry":{"x":168046.62000000104,"y":2548936.7400000021}},{"attributes":{"ID":519108,"DIS_CODE":0,"TOWNNAME":"安南區","LI":"梅花里","LIN":"1鄰","STREET":"安中路","SECT":"一段","MAREA":" ","LANE":" ","ALLEY":" ","HOUSE_NO":"５０５號","E_COORD97":168046.62,"N_COORD97":2548936.7400000002,"ADDRESS":"安中路一段５０５號","OBJECTID":519081},"geometry":{"x":168046.62000000104,"y":2548936.7400000021}},{"attributes":{"ID":519109,"DIS_CODE":0,"TOWNNAME":"安南區","LI":"梅花里","LIN":"1鄰","STREET":"安中路","SECT":"一段","MAREA":" ","LANE":" ","ALLEY":" ","HOUSE_NO":"５０７號","E_COORD97":168046.62,"N_COORD97":2548936.7400000002,"ADDRESS":"安中路一段５０７號","OBJECTID":519082},"geometry":{"x":168046.62000000104,"y":2548936.7400000021}},{"attributes":{"ID":519110,"DIS_CODE":0,"TOWNNAME":"安南區","LI":"梅花里","LIN":"1鄰","STREET":"安中路","SECT":"一段","MAREA":" ","LANE":" ","ALLEY":" ","HOUSE_NO":"５０９號","E_COORD97":168046.62,"N_COORD97":2548936.7400000002,"ADDRESS":"安中路一段５０９號","OBJECTID":519083},"geometry":{"x":168046.62000000104,"y":2548936.7400000021}},{"attributes":{"ID":519111,"DIS_CODE":0,"TOWNNAME":"安南區","LI":"梅花里","LIN":"1鄰","STREET":"安中路","SECT":"一段","MAREA":" ","LANE":" ","ALLEY":" ","HOUSE_NO":"５１１號","E_COORD97":168046.62,"N_COORD97":2548936.7400000002,"ADDRESS":"安中路一段５１１號","OBJECTID":519084},"geometry":{"x":168046.62000000104,"y":2548936.7400000021}},{"attributes":{"ID":519112,"DIS_CODE":0,"TOWNNAME":"安南區","LI":"梅花里","LIN":"1鄰","STREET":"安中路","SECT":"一段","MAREA":" ","LANE":" ","ALLEY":" ","HOUSE_NO":"５１３號","E_COORD97":168046.62,"N_COORD97":2548936.7400000002,"ADDRESS":"安中路一段５１３號","OBJECTID":519085},"geometry":{"x":168046.62000000104,"y":2548936.7400000021}},{"attributes":{"ID":519113,"DIS_CODE":0,"TOWNNAME":"安南區","LI":"梅花里","LIN":"1鄰","STREET":"安中路","SECT":"一段","MAREA":" ","LANE":" ","ALLEY":" ","HOUSE_NO":"５１５號","E_COORD97":168046.62,"N_COORD97":2548936.7400000002,"ADDRESS":"安中路一段５１５號","OBJECTID":519086},"geometry":{"x":168046.62000000104,"y":2548936.7400000021}},{"attributes":{"ID":519114,"DIS_CODE":0,"TOWNNAME":"安南區","LI":"梅花里","LIN":"1鄰","STREET":"安中路","SECT":"一段","MAREA":" ","LANE":" ","ALLEY":" ","HOUSE_NO":"５１７號","E_COORD97":168046.62,"N_COORD97":2548936.7400000002,"ADDRESS":"安中路一段５１７號","OBJECTID":519087},"geometry":{"x":168046.62000000104,"y":2548936.7400000021}},{"attributes":{"ID":519115,"DIS_CODE":0,"TOWNNAME":"安南區","LI":"梅花里","LIN":"1鄰","STREET":"安中路","SECT":"一段","MAREA":" ","LANE":" ","ALLEY":" ","HOUSE_NO":"５１９號","E_COORD97":168046.62,"N_COORD97":2548936.7400000002,"ADDRESS":"安中路一段５１９號","OBJECTID":519088},"geometry":{"x":168046.62000000104,"y":2548936.7400000021}},{"attributes":{"ID":519116,"DIS_CODE":0,"TOWNNAME":"安南區","LI":"梅花里","LIN":"1鄰","STREET":"安中路","SECT":"一段","MAREA":" ","LANE":" ","ALLEY":" ","HOUSE_NO":"５２１號","E_COORD97":168046.62,"N_COORD97":2548936.7400000002,"ADDRESS":"安中路一段５２１號","OBJECTID":519089},"geometry":{"x":168046.62000000104,"y":2548936.7400000021}},{"attributes":{"ID":519117,"DIS_CODE":0,"TOWNNAME":"安南區","LI":"梅花里","LIN":"1鄰","STREET":"安中路","SECT":"一段","MAREA":" ","LANE":" ","ALLEY":" ","HOUSE_NO":"５２３號","E_COORD97":168046.62,"N_COORD97":2548936.7400000002,"ADDRESS":"安中路一段５２３號","OBJECTID":519090},"geometry":{"x":168046.62000000104,"y":2548936.7400000021}},{"attributes":{"ID":519118,"DIS_CODE":0,"TOWNNAME":"安南區","LI":"梅花里","LIN":"1鄰","STREET":"安中路","SECT":"一段","MAREA":" ","LANE":" ","ALLEY":" ","HOUSE_NO":"５２５號","E_COORD97":168046.62,"N_COORD97":2548936.7400000002,"ADDRESS":"安中路一段５２５號","OBJECTID":519091},"geometry":{"x":168046.62000000104,"y":2548936.7400000021}},{"attributes":{"ID":519119,"DIS_CODE":0,"TOWNNAME":"安南區","LI":"梅花里","LIN":"1鄰","STREET":"安中路","SECT":"一段","MAREA":" ","LANE":" ","ALLEY":" ","HOUSE_NO":"５２７號","E_COORD97":168046.62,"N_COORD97":2548936.7400000002,"ADDRESS":"安中路一段５２７號","OBJECTID":519092},"geometry":{"x":168046.62000000104,"y":2548936.7400000021}},{"attributes":{"ID":519120,"DIS_CODE":0,"TOWNNAME":"安南區","LI":"梅花里","LIN":"1鄰","STREET":"安中路","SECT":"一段","MAREA":" ","LANE":" ","ALLEY":" ","HOUSE_NO":"５２９號","E_COORD97":168046.62,"N_COORD97":2548936.7400000002,"ADDRESS":"安中路一段５２９號","OBJECTID":519093},"geometry":{"x":168046.62000000104,"y":2548936.7400000021}},{"attributes":{"ID":519121,"DIS_CODE":0,"TOWNNAME":"安南區","LI":"梅花里","LIN":"1鄰","STREET":"安中路","SECT":"一段","MAREA":" ","LANE":" ","ALLEY":" ","HOUSE_NO":"５３１號","E_COORD97":168046.62,"N_COORD97":2548936.7400000002,"ADDRESS":"安中路一段５３１號","OBJECTID":519094},"geometry":{"x":168046.62000000104,"y":2548936.7400000021}},{"attributes":{"ID":519122,"DIS_CODE":0,"TOWNNAME":"安南區","LI":"梅花里","LIN":"1鄰","STREET":"安中路","SECT":"一段","MAREA":" ","LANE":" ","ALLEY":" ","HOUSE_NO":"５３３號","E_COORD97":168046.62,"N_COORD97":2548936.7400000002,"ADDRESS":"安中路一段５３３號","OBJECTID":519095},"geometry":{"x":168046.62000000104,"y":2548936.7400000021}},{"attributes":{"ID":519123,"DIS_CODE":0,"TOWNNAME":"安南區","LI":"梅花里","LIN":"1鄰","STREET":"安中路","SECT":"一段","MAREA":" ","LANE":" ","ALLEY":" ","HOUSE_NO":"５３５號","E_COORD97":168046.62,"N_COORD97":2548936.7400000002,"ADDRESS":"安中路一段５３５號","OBJECTID":519096},"geometry":{"x":168046.62000000104,"y":2548936.7400000021}},{"attributes":{"ID":519124,"DIS_CODE":0,"TOWNNAME":"安南區","LI":"梅花里","LIN":"1鄰","STREET":"安中路","SECT":"一段","MAREA":" ","LANE":" ","ALLEY":" ","HOUSE_NO":"５３７號","E_COORD97":168046.62,"N_COORD97":2548936.7400000002,"ADDRESS":"安中路一段５３７號","OBJECTID":519097},"geometry":{"x":168046.62000000104,"y":2548936.7400000021}},{"attributes":{"ID":519125,"DIS_CODE":0,"TOWNNAME":"安南區","LI":"梅花里","LIN":"1鄰","STREET":"安中路","SECT":"一段","MAREA":" ","LANE":" ","ALLEY":" ","HOUSE_NO":"５３９號","E_COORD97":168046.62,"N_COORD97":2548936.7400000002,"ADDRESS":"安中路一段５３９號","OBJECTID":519098},"geometry":{"x":168046.62000000104,"y":2548936.7400000021}},{"attributes":{"ID":519126,"DIS_CODE":0,"TOWNNAME":"安南區","LI":"梅花里","LIN":"1鄰","STREET":"安中路","SECT":"一段","MAREA":" ","LANE":" ","ALLEY":" ","HOUSE_NO":"５４１號","E_COORD97":168046.62,"N_COORD97":2548936.7400000002,"ADDRESS":"安中路一段５４１號","OBJECTID":519099},"geometry":{"x":168046.62000000104,"y":2548936.7400000021}},{"attributes":{"ID":519127,"DIS_CODE":0,"TOWNNAME":"安南區","LI":"梅花里","LIN":"1鄰","STREET":"安中路","SECT":"一段","MAREA":" ","LANE":" ","ALLEY":" ","HOUSE_NO":"５４３號","E_COORD97":168046.62,"N_COORD97":2548936.7400000002,"ADDRESS":"安中路一段５４３號","OBJECTID":519100},"geometry":{"x":168046.62000000104,"y":2548936.7400000021}},{"attributes":{"ID":519128,"DIS_CODE":0,"TOWNNAME":"安南區","LI":"梅花里","LIN":"1鄰","STREET":"安中路","SECT":"一段","MAREA":" ","LANE":" ","ALLEY":" ","HOUSE_NO":"５４５號","E_COORD97":168046.62,"N_COORD97":2548936.7400000002,"ADDRESS":"安中路一段５４５號","OBJECTID":519101},"geometry":{"x":168046.62000000104,"y":2548936.7400000021}},{"attributes":{"ID":519129,"DIS_CODE":0,"TOWNNAME":"安南區","LI":"梅花里","LIN":"1鄰","STREET":"安中路","SECT":"一段","MAREA":" ","LANE":" ","ALLEY":" ","HOUSE_NO":"５４７號","E_COORD97":168046.62,"N_COORD97":2548936.7400000002,"ADDRESS":"安中路一段５４７號","OBJECTID":519102},"geometry":{"x":168046.62000000104,"y":2548936.7400000021}},{"attributes":{"ID":519130,"DIS_CODE":0,"TOWNNAME":"安南區","LI":"梅花里","LIN":"1鄰","STREET":"安中路","SECT":"一段","MAREA":" ","LANE":" ","ALLEY":" ","HOUSE_NO":"５４９號","E_COORD97":168046.62,"N_COORD97":2548936.7400000002,"ADDRESS":"安中路一段５４９號","OBJECTID":519103},"geometry":{"x":168046.62000000104,"y":2548936.7400000021}},{"attributes":{"ID":519131,"DIS_CODE":0,"TOWNNAME":"安南區","LI":"梅花里","LIN":"1鄰","STREET":"安中路","SECT":"一段","MAREA":" ","LANE":" ","ALLEY":" ","HOUSE_NO":"５５１號","E_COORD97":168046.62,"N_COORD97":2548936.7400000002,"ADDRESS":"安中路一段５５１號","OBJECTID":519104},"geometry":{"x":168046.62000000104,"y":2548936.7400000021}},{"attributes":{"ID":519132,"DIS_CODE":0,"TOWNNAME":"白河區","LI":"白河里","LIN":"1鄰","STREET":"八德街","SECT":" ","MAREA":" ","LANE":" ","ALLEY":" ","HOUSE_NO":"１３號","E_COORD97":190020.92999999999,"N_COORD97":2582706.2000000002,"ADDRESS":"八德街１３號","OBJECTID":519105},"geometry":{"x":190020.93000000063,"y":2582706.200000003}},{"attributes":{"ID":519133,"DIS_CODE":0,"TOWNNAME":"白河區","LI":"白河里","LIN":"1鄰","STREET":"八德街","SECT":" ","MAREA":" ","LANE":" ","ALLEY":" ","HOUSE_NO":"１５號","E_COORD97":190023.23000000001,"N_COORD97":2582710.1800000002,"ADDRESS":"八德街１５號","OBJECTID":519106},"geometry":{"x":190023.23000000138,"y":2582710.1799999978}},{"attributes":{"ID":519134,"DIS_CODE":0,"TOWNNAME":"白河區","LI":"白河里","LIN":"1鄰","STREET":"八德街","SECT":" ","MAREA":" ","LANE":" ","ALLEY":" ","HOUSE_NO":"１７號","E_COORD97":190025.51999999999,"N_COORD97":2582714.1699999999,"ADDRESS":"八德街１７號","OBJECTID":519107},"geometry":{"x":190025.52000000048,"y":2582714.1700000037}},{"attributes":{"ID":519135,"DIS_CODE":0,"TOWNNAME":"白河區","LI":"白河里","LIN":"1鄰","STREET":"八德街","SECT":" ","MAREA":" ","LANE":" ","ALLEY":" ","HOUSE_NO":"１９號","E_COORD97":190027.82000000001,"N_COORD97":2582718.1600000001,"ADDRESS":"八德街１９號","OBJECTID":519108},"geometry":{"x":190027.8200000003,"y":2582718.160000002}},{"attributes":{"ID":519136,"DIS_CODE":0,"TOWNNAME":"白河區","LI":"白河里","LIN":"1鄰","STREET":"八德街","SECT":" ","MAREA":" ","LANE":" ","ALLEY":" ","HOUSE_NO":"１之１號","E_COORD97":190016.54999999999,"N_COORD97":2582657.8700000001,"ADDRESS":"八德街１之１號","OBJECTID":519109},"geometry":{"x":190016.55000000075,"y":2582657.8700000029}},{"attributes":{"ID":519137,"DIS_CODE":0,"TOWNNAME":"白河區","LI":"白河里","LIN":"1鄰","STREET":"八德街","SECT":" ","MAREA":" ","LANE":" ","ALLEY":" ","HOUSE_NO":"１之２號","E_COORD97":190019.64999999999,"N_COORD97":2582663.9900000002,"ADDRESS":"八德街１之２號","OBJECTID":519110},"geometry":{"x":190019.65000000224,"y":2582663.9900000002}},{"attributes":{"ID":519138,"DIS_CODE":0,"TOWNNAME":"白河區","LI":"白河里","LIN":"1鄰","STREET":"八德街","SECT":" ","MAREA":" ","LANE":" ","ALLEY":" ","HOUSE_NO":"１之３號","E_COORD97":190022.73999999999,"N_COORD97":2582670.1099999999,"ADDRESS":"八德街１之３號","OBJECTID":519111},"geometry":{"x":190022.74000000115,"y":2582670.1100000013}},{"attributes":{"ID":519139,"DIS_CODE":0,"TOWNNAME":"白河區","LI":"白河里","LIN":"1鄰","STREET":"八德街","SECT":" ","MAREA":" ","LANE":" ","ALLEY":" ","HOUSE_NO":"１之４號","E_COORD97":190025.82999999999,"N_COORD97":2582676.2400000002,"ADDRESS":"八德街１之４號","OBJECTID":519112},"geometry":{"x":190025.83000000007,"y":2582676.2400000002}},{"attributes":{"ID":519140,"DIS_CODE":0,"TOWNNAME":"安南區","LI":"梅花里","LIN":"1鄰","STREET":"安中路","SECT":"一段","MAREA":" ","LANE":" ","ALLEY":" ","HOUSE_NO":"６８７號","E_COORD97":167701.60000000001,"N_COORD97":2549162.6499999999,"ADDRESS":"安中路一段６８７號","OBJECTID":519113},"geometry":{"x":167701.59999999963,"y":2549162.6500000004}},{"attributes":{"ID":519141,"DIS_CODE":0,"TOWNNAME":"安南區","LI":"梅花里","LIN":"1鄰","STREET":"安中路","SECT":"一段","MAREA":" ","LANE":" ","ALLEY":" ","HOUSE_NO":"６８９號","E_COORD97":167694.35000000001,"N_COORD97":2549154.1000000001,"ADDRESS":"安中路一段６８９號","OBJECTID":519114},"geometry":{"x":167694.35000000056,"y":2549154.1000000015}},{"attributes":{"ID":519142,"DIS_CODE":0,"TOWNNAME":"安南區","LI":"梅花里","LIN":"1鄰","STREET":"安中路","SECT":"一段","MAREA":" ","LANE":" ","ALLEY":" ","HOUSE_NO":"５５９號","E_COORD97":167970.56,"N_COORD97":2548991.6899999999,"ADDRESS":"安中路一段５５９號","OBJECTID":519115},"geometry":{"x":167970.56000000052,"y":2548991.6899999995}},{"attributes":{"ID":519143,"DIS_CODE":0,"TOWNNAME":"安南區","LI":"梅花里","LIN":"1鄰","STREET":"安中路","SECT":"一段","MAREA":" ","LANE":" ","ALLEY":" ","HOUSE_NO":"５６１號","E_COORD97":167970.56,"N_COORD97":2548991.6899999999,"ADDRESS":"安中路一段５６１號","OBJECTID":519116},"geometry":{"x":167970.56000000052,"y":2548991.6899999995}},{"attributes":{"ID":519144,"DIS_CODE":0,"TOWNNAME":"安南區","LI":"梅花里","LIN":"1鄰","STREET":"安中路","SECT":"一段","MAREA":" ","LANE":" ","ALLEY":" ","HOUSE_NO":"５６９號","E_COORD97":167950.89000000001,"N_COORD97":2549000.2799999998,"ADDRESS":"安中路一段５６９號","OBJECTID":519117},"geometry":{"x":167950.89000000153,"y":2549000.2800000012}},{"attributes":{"ID":519145,"DIS_CODE":0,"TOWNNAME":"安南區","LI":"梅花里","LIN":"1鄰","STREET":"安中路","SECT":"一段","MAREA":" ","LANE":" ","ALLEY":" ","HOUSE_NO":"５７１號","E_COORD97":167942,"N_COORD97":2549004.77,"ADDRESS":"安中路一段５７１號","OBJECTID":519118},"geometry":{"x":167941.99999999907,"y":2549004.7699999996}},{"attributes":{"ID":519146,"DIS_CODE":0,"TOWNNAME":"安南區","LI":"梅花里","LIN":"1鄰","STREET":"安中路","SECT":"一段","MAREA":" ","LANE":" ","ALLEY":" ","HOUSE_NO":"５７３號","E_COORD97":167942,"N_COORD97":2549004.77,"ADDRESS":"安中路一段５７３號","OBJECTID":519119},"geometry":{"x":167941.99999999907,"y":2549004.7699999996}},{"attributes":{"ID":519147,"DIS_CODE":0,"TOWNNAME":"安南區","LI":"安東里","LIN":"1鄰","STREET":"安和路","SECT":"一段","MAREA":" ","LANE":" ","ALLEY":" ","HOUSE_NO":"４２６號","E_COORD97":169373.07000000001,"N_COORD97":2548334.54,"ADDRESS":"安和路一段４２６號","OBJECTID":519120},"geometry":{"x":169373.07000000123,"y":2548334.5399999991}},{"attributes":{"ID":519148,"DIS_CODE":0,"TOWNNAME":"安南區","LI":"布袋里","LIN":"1鄰","STREET":"工明南二路","SECT":" ","MAREA":" ","LANE":" ","ALLEY":" ","HOUSE_NO":"６２號","E_COORD97":168660.92000000001,"N_COORD97":2551070.9399999999,"ADDRESS":"工明南二路６２號","OBJECTID":519121},"geometry":{"x":168660.91999999993,"y":2551070.9400000013}},{"attributes":{"ID":519149,"DIS_CODE":0,"TOWNNAME":"安南區","LI":"布袋里","LIN":"1鄰","STREET":"工明南二路","SECT":" ","MAREA":" ","LANE":" ","ALLEY":" ","HOUSE_NO":"６６號","E_COORD97":168651.78,"N_COORD97":2551082.2799999998,"ADDRESS":"工明南二路６６號","OBJECTID":519122},"geometry":{"x":168651.78000000026,"y":2551082.2799999993}},{"attributes":{"ID":519150,"DIS_CODE":0,"TOWNNAME":"安南區","LI":"布袋里","LIN":"1鄰","STREET":"工明南二路","SECT":" ","MAREA":" ","LANE":" ","ALLEY":" ","HOUSE_NO":"６８號","E_COORD97":168642.23999999999,"N_COORD97":2551085.0299999998,"ADDRESS":"工明南二路６８號","OBJECTID":519123},"geometry":{"x":168642.24000000022,"y":2551085.0299999993}},{"attributes":{"ID":519151,"DIS_CODE":0,"TOWNNAME":"安南區","LI":"布袋里","LIN":"1鄰","STREET":"工明路","SECT":" ","MAREA":" ","LANE":" ","ALLEY":" ","HOUSE_NO":"３１０號","E_COORD97":168584.62,"N_COORD97":2551390.3599999999,"ADDRESS":"工明路３１０號","OBJECTID":519124},"geometry":{"x":168584.62000000104,"y":2551390.3599999994}},{"attributes":{"ID":519152,"DIS_CODE":0,"TOWNNAME":"安南區","LI":"布袋里","LIN":"1鄰","STREET":"工明南三路","SECT":" ","MAREA":" ","LANE":" ","ALLEY":" ","HOUSE_NO":"３２號","E_COORD97":168990.14000000001,"N_COORD97":2551003.29,"ADDRESS":"工明南三路３２號","OBJECTID":519125},"geometry":{"x":168990.14000000153,"y":2551003.290000001}},{"attributes":{"ID":519153,"DIS_CODE":0,"TOWNNAME":"安南區","LI":"\u25A0田里","LIN":"1鄰","STREET":"本田路","SECT":"二段","MAREA":" ","LANE":" ","ALLEY":" ","HOUSE_NO":"２６９號","E_COORD97":162283.35000000001,"N_COORD97":2548106.52,"ADDRESS":"本田路二段２６９號","OBJECTID":519126},"geometry":{"x":162283.34999999963,"y":2548106.5200000014}},{"attributes":{"ID":519154,"DIS_CODE":0,"TOWNNAME":"安南區","LI":"佃東里","LIN":"1鄰","STREET":"台江大道","SECT":"三段","MAREA":" ","LANE":" ","ALLEY":" ","HOUSE_NO":"３２８號","E_COORD97":166127.85999999999,"N_COORD97":2551318.3500000001,"ADDRESS":"台江大道三段３２８號","OBJECTID":519127},"geometry":{"x":166127.8600000022,"y":2551318.3500000015}},{"attributes":{"ID":519155,"DIS_CODE":0,"TOWNNAME":"白河區","LI":"永安里","LIN":"1鄰","STREET":"九龍街","SECT":" ","MAREA":" ","LANE":" ","ALLEY":" ","HOUSE_NO":"５１號","E_COORD97":190076.98999999999,"N_COORD97":2582955.3799999999,"ADDRESS":"九龍街５１號","OBJECTID":519128},"geometry":{"x":190076.99000000115,"y":2582955.379999999}},{"attributes":{"ID":519156,"DIS_CODE":0,"TOWNNAME":"白河區","LI":"永安里","LIN":"1鄰","STREET":"九龍街","SECT":" ","MAREA":" ","LANE":" ","ALLEY":" ","HOUSE_NO":"５２號","E_COORD97":190084.20000000001,"N_COORD97":2582968.2200000002,"ADDRESS":"九龍街５２號","OBJECTID":519129},"geometry":{"x":190084.20000000112,"y":2582968.2200000007}},{"attributes":{"ID":519157,"DIS_CODE":0,"TOWNNAME":"白河區","LI":"白河里","LIN":"1鄰","STREET":"十全街","SECT":" ","MAREA":" ","LANE":" ","ALLEY":" ","HOUSE_NO":"１４５號","E_COORD97":190050.60000000001,"N_COORD97":2582721.9500000002,"ADDRESS":"十全街１４５號","OBJECTID":519130},"geometry":{"x":190050.59999999963,"y":2582721.9500000011}},{"attributes":{"ID":519158,"DIS_CODE":0,"TOWNNAME":"白河區","LI":"白河里","LIN":"1鄰","STREET":"十全街","SECT":" ","MAREA":" ","LANE":" ","ALLEY":" ","HOUSE_NO":"１４７號","E_COORD97":190033.09,"N_COORD97":2582727.9199999999,"ADDRESS":"十全街１４７號","OBJECTID":519131},"geometry":{"x":190033.09000000171,"y":2582727.9199999999}},{"attributes":{"ID":519159,"DIS_CODE":0,"TOWNNAME":"白河區","LI":"白河里","LIN":"1鄰","STREET":"十全街","SECT":" ","MAREA":" ","LANE":" ","ALLEY":" ","HOUSE_NO":"１４９號","E_COORD97":190030.73999999999,"N_COORD97":2582732.5499999998,"ADDRESS":"十全街１４９號","OBJECTID":519132},"geometry":{"x":190030.74000000209,"y":2582732.5500000045}},{"attributes":{"ID":519160,"DIS_CODE":0,"TOWNNAME":"白河區","LI":"白河里","LIN":"1鄰","STREET":"十全街","SECT":" ","MAREA":" ","LANE":" ","ALLEY":" ","HOUSE_NO":"１５１號","E_COORD97":190027.42000000001,"N_COORD97":2582734.77,"ADDRESS":"十全街１５１號","OBJECTID":519133},"geometry":{"x":190027.42000000179,"y":2582734.7700000014}},{"attributes":{"ID":519161,"DIS_CODE":0,"TOWNNAME":"白河區","LI":"白河里","LIN":"1鄰","STREET":"十全街","SECT":" ","MAREA":" ","LANE":" ","ALLEY":" ","HOUSE_NO":"１５３號","E_COORD97":190024.10000000001,"N_COORD97":2582737,"ADDRESS":"十全街１５３號","OBJECTID":519134},"geometry":{"x":190024.0999999987,"y":2582737.0000000019}},{"attributes":{"ID":519162,"DIS_CODE":0,"TOWNNAME":"白河區","LI":"白河里","LIN":"1鄰","STREET":"十全街","SECT":" ","MAREA":" ","LANE":" ","ALLEY":" ","HOUSE_NO":"１５５號","E_COORD97":190020.78,"N_COORD97":2582739.2200000002,"ADDRESS":"十全街１５５號","OBJECTID":519135},"geometry":{"x":190020.78000000119,"y":2582739.2200000025}},{"attributes":{"ID":519163,"DIS_CODE":0,"TOWNNAME":"白河區","LI":"白河里","LIN":"1鄰","STREET":"十全街","SECT":" ","MAREA":" ","LANE":" ","ALLEY":" ","HOUSE_NO":"１５７號","E_COORD97":190017.47,"N_COORD97":2582741.4500000002,"ADDRESS":"十全街１５７號","OBJECTID":519136},"geometry":{"x":190017.47000000067,"y":2582741.4499999993}},{"attributes":{"ID":519164,"DIS_CODE":0,"TOWNNAME":"白河區","LI":"白河里","LIN":"1鄰","STREET":"十全街","SECT":" ","MAREA":" ","LANE":" ","ALLEY":" ","HOUSE_NO":"１５９號","E_COORD97":190014.14999999999,"N_COORD97":2582743.6699999999,"ADDRESS":"十全街１５９號","OBJECTID":519137},"geometry":{"x":190014.15000000037,"y":2582743.6699999999}},{"attributes":{"ID":519165,"DIS_CODE":0,"TOWNNAME":"白河區","LI":"秀祐里","LIN":"1鄰","STREET":"三民路","SECT":" ","MAREA":" ","LANE":" ","ALLEY":" ","HOUSE_NO":"５９２之１號","E_COORD97":189571.39000000001,"N_COORD97":2583659.1400000001,"ADDRESS":"三民路５９２之１號","OBJECTID":519138},"geometry":{"x":189571.39000000153,"y":2583659.1400000025}},{"attributes":{"ID":519166,"DIS_CODE":0,"TOWNNAME":"白河區","LI":"秀祐里","LIN":"1鄰","STREET":"三民路","SECT":" ","MAREA":" ","LANE":" ","ALLEY":" ","HOUSE_NO":"６６８之１號","E_COORD97":189303.37,"N_COORD97":2583838.4199999999,"ADDRESS":"三民路６６８之１號","OBJECTID":519139},"geometry":{"x":189303.37000000011,"y":2583838.4200000018}},{"attributes":{"ID":519167,"DIS_CODE":0,"TOWNNAME":"白河區","LI":"秀祐里","LIN":"1鄰","STREET":"三民路","SECT":" ","MAREA":" ","LANE":" ","ALLEY":" ","HOUSE_NO":"６６８號","E_COORD97":189251.64999999999,"N_COORD97":2583704.75,"ADDRESS":"三民路６６８號","OBJECTID":519140},"geometry":{"x":189251.65000000224,"y":2583704.7500000019}},{"attributes":{"ID":519168,"DIS_CODE":0,"TOWNNAME":"白河區","LI":"秀祐里","LIN":"1鄰","STREET":"三民路","SECT":" ","MAREA":" ","LANE":" ","ALLEY":" ","HOUSE_NO":"７９０號","E_COORD97":188863.17000000001,"N_COORD97":2583805.2400000002,"ADDRESS":"三民路７９０號","OBJECTID":519141},"geometry":{"x":188863.17000000086,"y":2583805.2400000002}},{"attributes":{"ID":519169,"DIS_CODE":0,"TOWNNAME":"新化區","LI":"護國里","LIN":"8鄰","STREET":"信義路","SECT":" ","MAREA":" ","LANE":" ","ALLEY":" ","HOUSE_NO":"８４號之３","E_COORD97":179837.23000000001,"N_COORD97":2548723.2599999998,"ADDRESS":"信義路８４號之３","OBJECTID":519142},"geometry":{"x":179837.23000000045,"y":2548723.2599999998}},{"attributes":{"ID":519170,"DIS_CODE":0,"TOWNNAME":"新化區","LI":"東榮里","LIN":"4鄰","STREET":"信義路","SECT":" ","MAREA":" ","LANE":" ","ALLEY":" ","HOUSE_NO":"８５號","E_COORD97":179849.78,"N_COORD97":2548691.25,"ADDRESS":"信義路８５號","OBJECTID":519143},"geometry":{"x":179849.78000000119,"y":2548691.2500000037}},{"attributes":{"ID":519171,"DIS_CODE":0,"TOWNNAME":"新化區","LI":"清水里","LIN":"5鄰","STREET":"中山路","SECT":" ","MAREA":" ","LANE":" ","ALLEY":" ","HOUSE_NO":"４８０號之３","E_COORD97":178647.76000000001,"N_COORD97":2548449.2599999998,"ADDRESS":"中山路４８０號之３","OBJECTID":519144},"geometry":{"x":178647.75999999978,"y":2548449.2599999998}},{"attributes":{"ID":519172,"DIS_CODE":0,"TOWNNAME":"新化區","LI":"清水里","LIN":"5鄰","STREET":"中山路","SECT":" ","MAREA":" ","LANE":" ","ALLEY":" ","HOUSE_NO":"５００號之２","E_COORD97":178590.06,"N_COORD97":2548425.2599999998,"ADDRESS":"中山路５００號之２","OBJECTID":519145},"geometry":{"x":178590.05999999959,"y":2548425.2599999998}},{"attributes":{"ID":519173,"DIS_CODE":0,"TOWNNAME":"新化區","LI":"護國里","LIN":"7鄰","STREET":"復興路","SECT":" ","MAREA":" ","LANE":" ","ALLEY":" ","HOUSE_NO":"２８２號","E_COORD97":179338.22,"N_COORD97":2548424.25,"ADDRESS":"復興路２８２號","OBJECTID":519146},"geometry":{"x":179338.21999999974,"y":2548424.2500000019}},{"attributes":{"ID":519174,"DIS_CODE":0,"TOWNNAME":"新化區","LI":"東榮里","LIN":"4鄰","STREET":"信義路","SECT":" ","MAREA":" ","LANE":" ","ALLEY":" ","HOUSE_NO":"８５號之６","E_COORD97":179845.92999999999,"N_COORD97":2548706.2599999998,"ADDRESS":"信義路８５號之６","OBJECTID":519147},"geometry":{"x":179845.93000000156,"y":2548706.2599999998}},{"attributes":{"ID":519175,"DIS_CODE":0,"TOWNNAME":"新化區","LI":"東榮里","LIN":"20鄰","STREET":"復興路","SECT":" ","MAREA":" ","LANE":" ","ALLEY":" ","HOUSE_NO":"２５６號","E_COORD97":179364.82000000001,"N_COORD97":2548320.2400000002,"ADDRESS":"復興路２５６號","OBJECTID":519148},"geometry":{"x":179364.82000000123,"y":2548320.2400000002}},{"attributes":{"ID":519176,"DIS_CODE":0,"TOWNNAME":"新化區","LI":"協興里","LIN":"14鄰","STREET":"太平街","SECT":" ","MAREA":" ","LANE":" ","ALLEY":" ","HOUSE_NO":"１７０號之２","E_COORD97":178217.28,"N_COORD97":2548660.2599999998,"ADDRESS":"太平街１７０號之２","OBJECTID":519149},"geometry":{"x":178217.28000000119,"y":2548660.2600000035}},{"attributes":{"ID":519177,"DIS_CODE":0,"TOWNNAME":"新化區","LI":"知義里","LIN":"14鄰","STREET":"復興路","SECT":" ","MAREA":" ","LANE":" ","ALLEY":" ","HOUSE_NO":"１４９號","E_COORD97":179462.32000000001,"N_COORD97":2547810.25,"ADDRESS":"復興路１４９號","OBJECTID":519150},"geometry":{"x":179462.31999999937,"y":2547810.2500000019}},{"attributes":{"ID":519178,"DIS_CODE":0,"TOWNNAME":"新化區","LI":"護國里","LIN":"7鄰","STREET":"復興路","SECT":" ","MAREA":" ","LANE":" ","ALLEY":" ","HOUSE_NO":"２８２號之３","E_COORD97":179334.37,"N_COORD97":2548438.2599999998,"ADDRESS":"復興路２８２號之３","OBJECTID":519151},"geometry":{"x":179334.37000000011,"y":2548438.2599999998}},{"attributes":{"ID":519179,"DIS_CODE":0,"TOWNNAME":"新化區","LI":"中央里","LIN":"6鄰","STREET":"信義路","SECT":" ","MAREA":" ","LANE":" ","ALLEY":" ","HOUSE_NO":"３８６號","E_COORD97":178785.63,"N_COORD97":2548322.25,"ADDRESS":"信義路３８６號","OBJECTID":519152},"geometry":{"x":178785.63000000082,"y":2548322.2500000019}},{"attributes":{"ID":519180,"DIS_CODE":0,"TOWNNAME":"新化區","LI":"太平里","LIN":"1鄰","STREET":"中正路","SECT":" ","MAREA":" ","LANE":" ","ALLEY":" ","HOUSE_NO":"５０６號之１","E_COORD97":179007.54000000001,"N_COORD97":2548743.2599999998,"ADDRESS":"中正路５０６號之１","OBJECTID":519153},"geometry":{"x":179007.54000000004,"y":2548743.2600000016}},{"attributes":{"ID":519181,"DIS_CODE":0,"TOWNNAME":"永康區","LI":"\u25A0行里","LIN":"1鄰","STREET":"中正北路","SECT":" ","MAREA":" ","LANE":" ","ALLEY":" ","HOUSE_NO":"３０號","E_COORD97":171925.42000000001,"N_COORD97":2549052.6899999999,"ADDRESS":"中正北路３０號","OBJECTID":519154},"geometry":{"x":171925.41999999993,"y":2549052.6899999995}},{"attributes":{"ID":519182,"DIS_CODE":0,"TOWNNAME":"永康區","LI":"中華里","LIN":"1鄰","STREET":"小東路","SECT":" ","MAREA":" ","LANE":" ","ALLEY":" ","HOUSE_NO":"６８９號之９８","E_COORD97":172059.84,"N_COORD97":2544344.3399999999,"ADDRESS":"小東路６８９號之９８","OBJECTID":519155},"geometry":{"x":172059.83999999985,"y":2544344.3400000017}},{"attributes":{"ID":519183,"DIS_CODE":0,"TOWNNAME":"永康區","LI":"中華里","LIN":"1鄰","STREET":"小東路","SECT":" ","MAREA":" ","LANE":" ","ALLEY":" ","HOUSE_NO":"６８９號之１００","E_COORD97":172060.98999999999,"N_COORD97":2544344.3399999999,"ADDRESS":"小東路６８９號之１００","OBJECTID":519156},"geometry":{"x":172060.99000000022,"y":2544344.3400000017}},{"attributes":{"ID":519184,"DIS_CODE":0,"TOWNNAME":"永康區","LI":"\u25A0洲里","LIN":"1鄰","STREET":"仁愛街","SECT":" ","MAREA":" ","LANE":" ","ALLEY":" ","HOUSE_NO":"９號","E_COORD97":171936.39999999999,"N_COORD97":2549224.96,"ADDRESS":"仁愛街９號","OBJECTID":519157},"geometry":{"x":171936.40000000037,"y":2549224.9600000009}},{"attributes":{"ID":519185,"DIS_CODE":0,"TOWNNAME":"新化區","LI":"太平里","LIN":"1鄰","STREET":"忠孝路","SECT":" ","MAREA":" ","LANE":" ","ALLEY":" ","HOUSE_NO":"４１號","E_COORD97":179060.87,"N_COORD97":2548703.25,"ADDRESS":"忠孝路４１號","OBJECTID":519158},"geometry":{"x":179060.87000000104,"y":2548703.25}},{"attributes":{"ID":519186,"DIS_CODE":0,"TOWNNAME":"安南區","LI":"布袋里","LIN":"1鄰","STREET":"工明南三路","SECT":" ","MAREA":" ","LANE":" ","ALLEY":" ","HOUSE_NO":"２０６號","E_COORD97":168672.82000000001,"N_COORD97":2550944.4700000002,"ADDRESS":"工明南三路２０６號","OBJECTID":519159},"geometry":{"x":168672.82000000123,"y":2550944.4700000007}},{"attributes":{"ID":519187,"DIS_CODE":0,"TOWNNAME":"安南區","LI":"布袋里","LIN":"1鄰","STREET":"工明南三路","SECT":" ","MAREA":" ","LANE":" ","ALLEY":" ","HOUSE_NO":"１６８號","E_COORD97":168774.76999999999,"N_COORD97":2550915.54,"ADDRESS":"工明南三路１６８號","OBJECTID":519160},"geometry":{"x":168774.76999999955,"y":2550915.5400000028}},{"attributes":{"ID":519188,"DIS_CODE":0,"TOWNNAME":"安南區","LI":"布袋里","LIN":"1鄰","STREET":"工明南三路","SECT":" ","MAREA":" ","LANE":" ","ALLEY":" ","HOUSE_NO":"１７０號","E_COORD97":168769.88,"N_COORD97":2550917.79,"ADDRESS":"工明南三路１７０號","OBJECTID":519161},"geometry":{"x":168769.87999999989,"y":2550917.790000001}},{"attributes":{"ID":519189,"DIS_CODE":0,"TOWNNAME":"安南區","LI":"淵中里","LIN":"1鄰","STREET":"樂安二街","SECT":" ","MAREA":" ","LANE":" ","ALLEY":" ","HOUSE_NO":"１８８號","E_COORD97":165576.35000000001,"N_COORD97":2549808.4399999999,"ADDRESS":"樂安二街１８８號","OBJECTID":519162},"geometry":{"x":165576.35000000056,"y":2549808.4400000013}},{"attributes":{"ID":519190,"DIS_CODE":0,"TOWNNAME":"安南區","LI":"淵中里","LIN":"1鄰","STREET":"樂安二街","SECT":" ","MAREA":" ","LANE":" ","ALLEY":" ","HOUSE_NO":"１９０號","E_COORD97":165572.89000000001,"N_COORD97":2549809.2799999998,"ADDRESS":"樂安二街１９０號","OBJECTID":519163},"geometry":{"x":165572.8900000006,"y":2549809.2800000031}},{"attributes":{"ID":519191,"DIS_CODE":0,"TOWNNAME":"安南區","LI":"淵中里","LIN":"1鄰","STREET":"樂安二街","SECT":" ","MAREA":" ","LANE":" ","ALLEY":" ","HOUSE_NO":"１９２號","E_COORD97":165569.04000000001,"N_COORD97":2549810.8199999998,"ADDRESS":"樂安二街１９２號","OBJECTID":519164},"geometry":{"x":165569.04000000097,"y":2549810.8200000022}},{"attributes":{"ID":519192,"DIS_CODE":0,"TOWNNAME":"安南區","LI":"淵中里","LIN":"1鄰","STREET":"樂安二街","SECT":" ","MAREA":" ","LANE":" ","ALLEY":" ","HOUSE_NO":"１９６號","E_COORD97":165565.73000000001,"N_COORD97":2549811.7400000002,"ADDRESS":"樂安二街１９６號","OBJECTID":519165},"geometry":{"x":165565.73000000045,"y":2549811.7400000021}},{"attributes":{"ID":519193,"DIS_CODE":0,"TOWNNAME":"安南區","LI":"海西里","LIN":"1鄰","STREET":"海環街","SECT":" ","MAREA":" ","LANE":" ","ALLEY":" ","HOUSE_NO":"５３７之２號","E_COORD97":166257.34,"N_COORD97":2549252.7799999998,"ADDRESS":"海環街５３７之２號","OBJECTID":519166},"geometry":{"x":166257.33999999985,"y":2549252.7799999975}},{"attributes":{"ID":519194,"DIS_CODE":0,"TOWNNAME":"安南區","LI":"大安里","LIN":"1鄰","STREET":"大安街","SECT":" ","MAREA":" ","LANE":" ","ALLEY":" ","HOUSE_NO":"４８號","E_COORD97":167166.39999999999,"N_COORD97":2547962.9900000002,"ADDRESS":"大安街４８號","OBJECTID":519167},"geometry":{"x":167166.40000000037,"y":2547962.9900000002}},{"attributes":{"ID":519195,"DIS_CODE":0,"TOWNNAME":"安南區","LI":"安西里","LIN":"1鄰","STREET":"安和路","SECT":"一段","MAREA":" ","LANE":" ","ALLEY":" ","HOUSE_NO":"１９３號","E_COORD97":169329.78,"N_COORD97":2547886.1499999999,"ADDRESS":"安和路一段１９３號","OBJECTID":519168},"geometry":{"x":169329.78000000026,"y":2547886.1500000022}},{"attributes":{"ID":519196,"DIS_CODE":0,"TOWNNAME":"新化區","LI":"協興里","LIN":"14鄰","STREET":"太平街","SECT":" ","MAREA":" ","LANE":" ","ALLEY":" ","HOUSE_NO":"１７０號之１","E_COORD97":178222.75,"N_COORD97":2548661.2599999998,"ADDRESS":"太平街１７０號之１","OBJECTID":519169},"geometry":{"x":178222.75,"y":2548661.2600000016}},{"attributes":{"ID":519197,"DIS_CODE":0,"TOWNNAME":"新化區","LI":"太平里","LIN":"17鄰","STREET":"太平街","SECT":" ","MAREA":" ","LANE":" ","ALLEY":" ","HOUSE_NO":"７７號之１","E_COORD97":178764.70000000001,"N_COORD97":2548764.2599999998,"ADDRESS":"太平街７７號之１","OBJECTID":519170},"geometry":{"x":178764.70000000205,"y":2548764.2599999998}},{"attributes":{"ID":519198,"DIS_CODE":0,"TOWNNAME":"新化區","LI":"護國里","LIN":"8鄰","STREET":"信義路","SECT":" ","MAREA":" ","LANE":" ","ALLEY":" ","HOUSE_NO":"７８號","E_COORD97":179860.67999999999,"N_COORD97":2548722.25,"ADDRESS":"信義路７８號","OBJECTID":519171},"geometry":{"x":179860.6799999997,"y":2548722.2500000019}},{"attributes":{"ID":519199,"DIS_CODE":0,"TOWNNAME":"安南區","LI":"安東里","LIN":"1鄰","STREET":"安和路","SECT":"一段","MAREA":" ","LANE":" ","ALLEY":" ","HOUSE_NO":"３４４號","E_COORD97":169287.45000000001,"N_COORD97":2548164.73,"ADDRESS":"安和路一段３４４號","OBJECTID":519172},"geometry":{"x":169287.45000000112,"y":2548164.7300000004}},{"attributes":{"ID":519200,"DIS_CODE":0,"TOWNNAME":"安南區","LI":"安東里","LIN":"1鄰","STREET":"安和路","SECT":"一段","MAREA":" ","LANE":" ","ALLEY":" ","HOUSE_NO":"３７８號","E_COORD97":169321.67999999999,"N_COORD97":2548248.73,"ADDRESS":"安和路一段３７８號","OBJECTID":519173},"geometry":{"x":169321.6799999997,"y":2548248.7300000023}},{"attributes":{"ID":519201,"DIS_CODE":0,"TOWNNAME":"安南區","LI":"安東里","LIN":"1鄰","STREET":"安和路","SECT":"一段","MAREA":" ","LANE":" ","ALLEY":" ","HOUSE_NO":"４１８號","E_COORD97":169352.85000000001,"N_COORD97":2548322.9399999999,"ADDRESS":"安和路一段４１８號","OBJECTID":519174},"geometry":{"x":169352.84999999963,"y":2548322.9399999976}},{"attributes":{"ID":519202,"DIS_CODE":0,"TOWNNAME":"安南區","LI":"安東里","LIN":"1鄰","STREET":"安和路","SECT":"一段","MAREA":" ","LANE":" ","ALLEY":" ","HOUSE_NO":"４６６號","E_COORD97":169393.25,"N_COORD97":2548424.8799999999,"ADDRESS":"安和路一段４６６號","OBJECTID":519175},"geometry":{"x":169393.25000000186,"y":2548424.8800000027}},{"attributes":{"ID":519203,"DIS_CODE":0,"TOWNNAME":"善化區","LI":"東關里","LIN":"1鄰","STREET":"中山路","SECT":" ","MAREA":" ","LANE":" ","ALLEY":" ","HOUSE_NO":"３５２號","E_COORD97":177625.32999999999,"N_COORD97":2559105.5,"ADDRESS":"中山路３５２號","OBJECTID":519176},"geometry":{"x":177625.33000000101,"y":2559105.5000000019}},{"attributes":{"ID":519204,"DIS_CODE":0,"TOWNNAME":"善化區","LI":"坐駕里","LIN":"1鄰","STREET":"中山路","SECT":" ","MAREA":" ","LANE":" ","ALLEY":" ","HOUSE_NO":"２８１號之１","E_COORD97":177901.04999999999,"N_COORD97":2559063.52,"ADDRESS":"中山路２８１號之１","OBJECTID":519177},"geometry":{"x":177901.05000000075,"y":2559063.5200000033}},{"attributes":{"ID":519205,"DIS_CODE":0,"TOWNNAME":"善化區","LI":"南關里","LIN":"1鄰","STREET":"三民路","SECT":" ","MAREA":" ","LANE":" ","ALLEY":" ","HOUSE_NO":"３４號之３","E_COORD97":177094.23000000001,"N_COORD97":2558945.02,"ADDRESS":"三民路３４號之３","OBJECTID":519178},"geometry":{"x":177094.23000000045,"y":2558945.0200000014}},{"attributes":{"ID":519206,"DIS_CODE":0,"TOWNNAME":"善化區","LI":"南關里","LIN":"1鄰","STREET":"三民路","SECT":" ","MAREA":" ","LANE":" ","ALLEY":" ","HOUSE_NO":"４４號","E_COORD97":177116.03,"N_COORD97":2558976.0099999998,"ADDRESS":"三民路４４號","OBJECTID":519179},"geometry":{"x":177116.03000000026,"y":2558976.0100000016}},{"attributes":{"ID":519207,"DIS_CODE":0,"TOWNNAME":"善化區","LI":"北關里","LIN":"1鄰","STREET":"中山路","SECT":" ","MAREA":" ","LANE":" ","ALLEY":" ","HOUSE_NO":"５３２號","E_COORD97":177025.63,"N_COORD97":2559180.25,"ADDRESS":"中山路５３２號","OBJECTID":519180},"geometry":{"x":177025.63000000175,"y":2559180.25}},{"attributes":{"ID":519208,"DIS_CODE":0,"TOWNNAME":"新化區","LI":"太平里","LIN":"1鄰","STREET":"中正路","SECT":" ","MAREA":" ","LANE":" ","ALLEY":" ","HOUSE_NO":"５０６號之２","E_COORD97":179007.56,"N_COORD97":2548743.2599999998,"ADDRESS":"中正路５０６號之２","OBJECTID":519181},"geometry":{"x":179007.56000000145,"y":2548743.2600000016}},{"attributes":{"ID":519209,"DIS_CODE":0,"TOWNNAME":"善化區","LI":"南關里","LIN":"1鄰","STREET":"三民路","SECT":" ","MAREA":" ","LANE":" ","ALLEY":" ","HOUSE_NO":"３４號","E_COORD97":177095.5,"N_COORD97":2558961.2599999998,"ADDRESS":"三民路３４號","OBJECTID":519182},"geometry":{"x":177095.5,"y":2558961.2600000016}},{"attributes":{"ID":519210,"DIS_CODE":0,"TOWNNAME":"善化區","LI":"東關里","LIN":"1鄰","STREET":"中正路","SECT":" ","MAREA":" ","LANE":" ","ALLEY":" ","HOUSE_NO":"５６９號","E_COORD97":177658.44,"N_COORD97":2559281,"ADDRESS":"中正路５６９號","OBJECTID":519183},"geometry":{"x":177658.44000000134,"y":2559281.0000000037}},{"attributes":{"ID":519211,"DIS_CODE":0,"TOWNNAME":"善化區","LI":"南關里","LIN":"1鄰","STREET":"三民路","SECT":" ","MAREA":" ","LANE":" ","ALLEY":" ","HOUSE_NO":"４６號","E_COORD97":177101,"N_COORD97":2558982.5099999998,"ADDRESS":"三民路４６號","OBJECTID":519184},"geometry":{"x":177101,"y":2558982.5100000035}},{"attributes":{"ID":519212,"DIS_CODE":0,"TOWNNAME":"善化區","LI":"東關里","LIN":"1鄰","STREET":"中山路","SECT":" ","MAREA":" ","LANE":" ","ALLEY":" ","HOUSE_NO":"３６２號","E_COORD97":177601.12,"N_COORD97":2559105.75,"ADDRESS":"中山路３６２號","OBJECTID":519185},"geometry":{"x":177601.12000000104,"y":2559105.75}},{"attributes":{"ID":519213,"DIS_CODE":0,"TOWNNAME":"善化區","LI":"坐駕里","LIN":"1鄰","STREET":"中山路","SECT":" ","MAREA":" ","LANE":" ","ALLEY":" ","HOUSE_NO":"２８１號之７","E_COORD97":177896.75,"N_COORD97":2559063.52,"ADDRESS":"中山路２８１號之７","OBJECTID":519186},"geometry":{"x":177896.75000000093,"y":2559063.5200000033}},{"attributes":{"ID":519214,"DIS_CODE":0,"TOWNNAME":"善化區","LI":"坐駕里","LIN":"1鄰","STREET":"中山路","SECT":" ","MAREA":" ","LANE":" ","ALLEY":" ","HOUSE_NO":"２７９號","E_COORD97":177909.54999999999,"N_COORD97":2559062.5,"ADDRESS":"中山路２７９號","OBJECTID":519187},"geometry":{"x":177909.55000000075,"y":2559062.5}},{"attributes":{"ID":519215,"DIS_CODE":0,"TOWNNAME":"善化區","LI":"西關里","LIN":"1鄰","STREET":"三民路","SECT":" ","MAREA":" ","LANE":" ","ALLEY":" ","HOUSE_NO":"５４號","E_COORD97":177102.14000000001,"N_COORD97":2559006.0099999998,"ADDRESS":"三民路５４號","OBJECTID":519188},"geometry":{"x":177102.1400000006,"y":2559006.0100000035}},{"attributes":{"ID":519216,"DIS_CODE":0,"TOWNNAME":"善化區","LI":"東關里","LIN":"1鄰","STREET":"中正路","SECT":" ","MAREA":" ","LANE":" ","ALLEY":" ","HOUSE_NO":"６３９號","E_COORD97":177638.70000000001,"N_COORD97":2559502.75,"ADDRESS":"中正路６３９號","OBJECTID":519189},"geometry":{"x":177638.70000000019,"y":2559502.7499999981}},{"attributes":{"ID":519217,"DIS_CODE":0,"TOWNNAME":"善化區","LI":"東關里","LIN":"1鄰","STREET":"中正路","SECT":" ","MAREA":" ","LANE":" ","ALLEY":" ","HOUSE_NO":"６１５號","E_COORD97":177625.39999999999,"N_COORD97":2559450.75,"ADDRESS":"中正路６１５號","OBJECTID":519190},"geometry":{"x":177625.40000000037,"y":2559450.75}},{"attributes":{"ID":519218,"DIS_CODE":0,"TOWNNAME":"善化區","LI":"南關里","LIN":"1鄰","STREET":"平等路","SECT":" ","MAREA":" ","LANE":" ","ALLEY":" ","HOUSE_NO":"７８號","E_COORD97":177127.70000000001,"N_COORD97":2558976.75,"ADDRESS":"平等路７８號","OBJECTID":519191},"geometry":{"x":177127.70000000112,"y":2558976.75}},{"attributes":{"ID":519219,"DIS_CODE":0,"TOWNNAME":"善化區","LI":"東關里","LIN":"1鄰","STREET":"中正路","SECT":" ","MAREA":" ","LANE":" ","ALLEY":" ","HOUSE_NO":"６６５號","E_COORD97":177634.5,"N_COORD97":2559560.5,"ADDRESS":"中正路６６５號","OBJECTID":519192},"geometry":{"x":177634.5,"y":2559560.5000000019}},{"attributes":{"ID":519220,"DIS_CODE":0,"TOWNNAME":"善化區","LI":"東關里","LIN":"1鄰","STREET":"中正路","SECT":" ","MAREA":" ","LANE":" ","ALLEY":" ","HOUSE_NO":"５５１號","E_COORD97":177662.09,"N_COORD97":2559240.5,"ADDRESS":"中正路５５１號","OBJECTID":519193},"geometry":{"x":177662.09000000078,"y":2559240.5000000037}},{"attributes":{"ID":519221,"DIS_CODE":0,"TOWNNAME":"善化區","LI":"東關里","LIN":"1鄰","STREET":"中正路","SECT":" ","MAREA":" ","LANE":" ","ALLEY":" ","HOUSE_NO":"６４１號","E_COORD97":177638.19,"N_COORD97":2559506.9900000002,"ADDRESS":"中正路６４１號","OBJECTID":519194},"geometry":{"x":177638.19000000134,"y":2559506.9900000002}},{"attributes":{"ID":519222,"DIS_CODE":0,"TOWNNAME":"善化區","LI":"南關里","LIN":"1鄰","STREET":"三民路","SECT":" ","MAREA":" ","LANE":" ","ALLEY":" ","HOUSE_NO":"４８號","E_COORD97":177103.14000000001,"N_COORD97":2558987.0099999998,"ADDRESS":"三民路４８號","OBJECTID":519195},"geometry":{"x":177103.13999999873,"y":2558987.0100000016}},{"attributes":{"ID":519223,"DIS_CODE":0,"TOWNNAME":"善化區","LI":"東關里","LIN":"1鄰","STREET":"中正路","SECT":" ","MAREA":" ","LANE":" ","ALLEY":" ","HOUSE_NO":"６４７號","E_COORD97":177637.20000000001,"N_COORD97":2559520,"ADDRESS":"中正路６４７號","OBJECTID":519196},"geometry":{"x":177637.20000000019,"y":2559520}},{"attributes":{"ID":519224,"DIS_CODE":0,"TOWNNAME":"善化區","LI":"東關里","LIN":"1鄰","STREET":"中正路","SECT":" ","MAREA":" ","LANE":" ","ALLEY":" ","HOUSE_NO":"５４７號","E_COORD97":177663.03,"N_COORD97":2559231.25,"ADDRESS":"中正路５４７號","OBJECTID":519197},"geometry":{"x":177663.03000000119,"y":2559231.25}},{"attributes":{"ID":519225,"DIS_CODE":0,"TOWNNAME":"善化區","LI":"東關里","LIN":"1鄰","STREET":"中山路","SECT":" ","MAREA":" ","LANE":" ","ALLEY":" ","HOUSE_NO":"３５０號","E_COORD97":177635.62,"N_COORD97":2559103.5,"ADDRESS":"中山路３５０號","OBJECTID":519198},"geometry":{"x":177635.62000000011,"y":2559103.5}},{"attributes":{"ID":519226,"DIS_CODE":0,"TOWNNAME":"善化區","LI":"東關里","LIN":"1鄰","STREET":"中正路","SECT":" ","MAREA":" ","LANE":" ","ALLEY":" ","HOUSE_NO":"５４９號","E_COORD97":177662.59,"N_COORD97":2559235.5,"ADDRESS":"中正路５４９號","OBJECTID":519199},"geometry":{"x":177662.58999999985,"y":2559235.5}},{"attributes":{"ID":519227,"DIS_CODE":0,"TOWNNAME":"善化區","LI":"東關里","LIN":"1鄰","STREET":"中正路","SECT":" ","MAREA":" ","LANE":" ","ALLEY":" ","HOUSE_NO":"５５７號","E_COORD97":177660.78,"N_COORD97":2559253.75,"ADDRESS":"中正路５５７號","OBJECTID":519200},"geometry":{"x":177660.78000000212,"y":2559253.7500000019}}]}