{"displayFieldName":"TOWNNAME","fieldAliases":{"ID":"ID","DIS_CODE":"DIS_CODE","TOWNNAME":"TOWNNAME","LI":"LI","LIN":"LIN","STREET":"STREET","SECT":"SECT","MAREA":"MAREA","LANE":"LANE","ALLEY":"ALLEY","HOUSE_NO":"HOUSE_NO","E_COORD97":"E_COORD97","N_COORD97":"N_COORD97","ADDRESS":"ADDRESS","OBJECTID":"OBJECTID"},"geometryType":"esriGeometryPoint","spatialReference":{"wkid":102443,"latestWkid":3826},"fields":[{"name":"ID","type":"esriFieldTypeDouble","alias":"ID"},{"name":"DIS_CODE","type":"esriFieldTypeInteger","alias":"DIS_CODE"},{"name":"TOWNNAME","type":"esriFieldTypeString","alias":"TOWNNAME","length":8},{"name":"LI","type":"esriFieldTypeString","alias":"LI","length":8},{"name":"LIN","type":"esriFieldTypeString","alias":"LIN","length":12},{"name":"STREET","type":"esriFieldTypeString","alias":"STREET","length":20},{"name":"SECT","type":"esriFieldTypeString","alias":"SECT","length":8},{"name":"MAREA","type":"esriFieldTypeString","alias":"MAREA","length":12},{"name":"LANE","type":"esriFieldTypeString","alias":"LANE","length":10},{"name":"ALLEY","type":"esriFieldTypeString","alias":"ALLEY","length":10},{"name":"HOUSE_NO","type":"esriFieldTypeString","alias":"HOUSE_NO","length":20},{"name":"E_COORD97","type":"esriFieldTypeDouble","alias":"E_COORD97"},{"name":"N_COORD97","type":"esriFieldTypeDouble","alias":"N_COORD97"},{"name":"ADDRESS","type":"esriFieldTypeString","alias":"ADDRESS","length":50},{"name":"OBJECTID","type":"esriFieldTypeOID","alias":"OBJECTID"}],"features":[{"attributes":{"ID":574628,"DIS_CODE":0,"TOWNNAME":"永康區","LI":"復國里","LIN":"32鄰","STREET":"復華一街","SECT":" ","MAREA":" ","LANE":" ","ALLEY":" ","HOUSE_NO":"１６號","E_COORD97":172675.14000000001,"N_COORD97":2545088.0099999998,"ADDRESS":"復華一街１６號","OBJECTID":574601},"geometry":{"x":172675.13999999966,"y":2545088.0099999998}},{"attributes":{"ID":574629,"DIS_CODE":0,"TOWNNAME":"永康區","LI":"復國里","LIN":"28鄰","STREET":"復華二街","SECT":" ","MAREA":" ","LANE":" ","ALLEY":" ","HOUSE_NO":"３０號","E_COORD97":172599.32999999999,"N_COORD97":2545363.52,"ADDRESS":"復華二街３０號","OBJECTID":574602},"geometry":{"x":172599.33000000007,"y":2545363.5200000014}},{"attributes":{"ID":574630,"DIS_CODE":0,"TOWNNAME":"仁德區","LI":"保安里","LIN":"23鄰","STREET":"保學一街","SECT":" ","MAREA":" ","LANE":" ","ALLEY":" ","HOUSE_NO":"１號","E_COORD97":171572.37,"N_COORD97":2535600.3999999999,"ADDRESS":"保學一街１號","OBJECTID":574603},"geometry":{"x":171572.36999999918,"y":2535600.4000000041}},{"attributes":{"ID":574631,"DIS_CODE":0,"TOWNNAME":"安南區","LI":"溪北里","LIN":"23鄰","STREET":"敦安街","SECT":" ","MAREA":" ","LANE":" ","ALLEY":" ","HOUSE_NO":"６４號","E_COORD97":169206.87,"N_COORD97":2547557.4100000001,"ADDRESS":"敦安街６４號","OBJECTID":574604},"geometry":{"x":169206.87000000011,"y":2547557.4100000001}},{"attributes":{"ID":574632,"DIS_CODE":0,"TOWNNAME":"東區","LI":"新東里","LIN":"23鄰","STREET":"裕豐街","SECT":" ","MAREA":" ","LANE":" ","ALLEY":" ","HOUSE_NO":"１０５號","E_COORD97":170744.62,"N_COORD97":2542999.23,"ADDRESS":"裕豐街１０５號","OBJECTID":574605},"geometry":{"x":170744.62000000011,"y":2542999.2300000042}},{"attributes":{"ID":574633,"DIS_CODE":0,"TOWNNAME":"東區","LI":"新東里","LIN":"23鄰","STREET":"裕豐街","SECT":" ","MAREA":" ","LANE":" ","ALLEY":" ","HOUSE_NO":"１０７號","E_COORD97":170745.19,"N_COORD97":2543003.23,"ADDRESS":"裕豐街１０７號","OBJECTID":574606},"geometry":{"x":170745.19000000227,"y":2543003.2300000023}},{"attributes":{"ID":574634,"DIS_CODE":0,"TOWNNAME":"東區","LI":"新東里","LIN":"23鄰","STREET":"裕豐街","SECT":" ","MAREA":" ","LANE":" ","ALLEY":" ","HOUSE_NO":"１１１號","E_COORD97":170746.32999999999,"N_COORD97":2543010.4199999999,"ADDRESS":"裕豐街１１１號","OBJECTID":574607},"geometry":{"x":170746.33000000007,"y":2543010.4199999999}},{"attributes":{"ID":574635,"DIS_CODE":0,"TOWNNAME":"東區","LI":"新東里","LIN":"23鄰","STREET":"裕豐街","SECT":" ","MAREA":" ","LANE":" ","ALLEY":" ","HOUSE_NO":"１１３號","E_COORD97":170746.45000000001,"N_COORD97":2543013.96,"ADDRESS":"裕豐街１１３號","OBJECTID":574608},"geometry":{"x":170746.45000000205,"y":2543013.9600000009}},{"attributes":{"ID":574636,"DIS_CODE":0,"TOWNNAME":"永康區","LI":"復興里","LIN":"7鄰","STREET":"復興路","SECT":" ","MAREA":" ","LANE":" ","ALLEY":" ","HOUSE_NO":"３５５號","E_COORD97":172187.62,"N_COORD97":2544314.27,"ADDRESS":"復興路３５５號","OBJECTID":574609},"geometry":{"x":172187.62000000011,"y":2544314.2700000014}},{"attributes":{"ID":574637,"DIS_CODE":0,"TOWNNAME":"永康區","LI":"網寮里","LIN":"19鄰","STREET":"文化路","SECT":" ","MAREA":" ","LANE":" ","ALLEY":" ","HOUSE_NO":"３３０號","E_COORD97":173418.39000000001,"N_COORD97":2546178.0899999999,"ADDRESS":"文化路３３０號","OBJECTID":574610},"geometry":{"x":173418.3900000006,"y":2546178.0899999999}},{"attributes":{"ID":574638,"DIS_CODE":0,"TOWNNAME":"永康區","LI":"復華里","LIN":"23鄰","STREET":"復華七街","SECT":" ","MAREA":" ","LANE":" ","ALLEY":" ","HOUSE_NO":"６３號","E_COORD97":172738.23999999999,"N_COORD97":2546063.02,"ADDRESS":"復華七街６３號","OBJECTID":574611},"geometry":{"x":172738.24000000115,"y":2546063.0199999996}},{"attributes":{"ID":574639,"DIS_CODE":0,"TOWNNAME":"永康區","LI":"復華里","LIN":"23鄰","STREET":"復華八街","SECT":" ","MAREA":" ","LANE":" ","ALLEY":" ","HOUSE_NO":"２６號","E_COORD97":172697.64999999999,"N_COORD97":2546178.77,"ADDRESS":"復華八街２６號","OBJECTID":574612},"geometry":{"x":172697.65000000037,"y":2546178.7700000014}},{"attributes":{"ID":574640,"DIS_CODE":0,"TOWNNAME":"永康區","LI":"復華里","LIN":"23鄰","STREET":"復華七街","SECT":" ","MAREA":" ","LANE":" ","ALLEY":" ","HOUSE_NO":"５７號","E_COORD97":172727.79000000001,"N_COORD97":2546052.02,"ADDRESS":"復華七街５７號","OBJECTID":574613},"geometry":{"x":172727.79000000097,"y":2546052.0200000014}},{"attributes":{"ID":574641,"DIS_CODE":0,"TOWNNAME":"東區","LI":"虎尾里","LIN":"23鄰","STREET":"東成街","SECT":" ","MAREA":" ","LANE":" ","ALLEY":" ","HOUSE_NO":"１９２號","E_COORD97":171800.73000000001,"N_COORD97":2542298.2400000002,"ADDRESS":"東成街１９２號","OBJECTID":574614},"geometry":{"x":171800.73000000045,"y":2542298.2400000021}},{"attributes":{"ID":574642,"DIS_CODE":0,"TOWNNAME":"永康區","LI":"復國里","LIN":"17鄰","STREET":"國華街","SECT":" ","MAREA":" ","LANE":" ","ALLEY":" ","HOUSE_NO":"８０號","E_COORD97":172863.95999999999,"N_COORD97":2545806.7999999998,"ADDRESS":"國華街８０號","OBJECTID":574615},"geometry":{"x":172863.96000000089,"y":2545806.8000000026}},{"attributes":{"ID":574643,"DIS_CODE":0,"TOWNNAME":"永康區","LI":"復華里","LIN":"1鄰","STREET":"復國二路","SECT":" ","MAREA":" ","LANE":" ","ALLEY":" ","HOUSE_NO":"２１８號","E_COORD97":172970.88,"N_COORD97":2545877.77,"ADDRESS":"復國二路２１８號","OBJECTID":574616},"geometry":{"x":172970.88000000082,"y":2545877.7700000014}},{"attributes":{"ID":574644,"DIS_CODE":0,"TOWNNAME":"永康區","LI":"復興里","LIN":"10鄰","STREET":"復興路","SECT":" ","MAREA":" ","LANE":" ","ALLEY":" ","HOUSE_NO":"４０８號","E_COORD97":172108.10000000001,"N_COORD97":2544339.7999999998,"ADDRESS":"復興路４０８號","OBJECTID":574617},"geometry":{"x":172108.10000000056,"y":2544339.8000000026}},{"attributes":{"ID":574645,"DIS_CODE":0,"TOWNNAME":"東區","LI":"虎尾里","LIN":"23鄰","STREET":"東成街","SECT":" ","MAREA":" ","LANE":" ","ALLEY":" ","HOUSE_NO":"１９６號","E_COORD97":171814.16,"N_COORD97":2542300.4300000002,"ADDRESS":"東成街１９６號","OBJECTID":574618},"geometry":{"x":171814.16000000015,"y":2542300.4299999997}},{"attributes":{"ID":574646,"DIS_CODE":0,"TOWNNAME":"永康區","LI":"\u25A0洲里","LIN":"23鄰","STREET":"中正南路","SECT":" ","MAREA":" ","LANE":" ","ALLEY":" ","HOUSE_NO":"６４１號","E_COORD97":171324.13,"N_COORD97":2548628,"ADDRESS":"中正南路６４１號","OBJECTID":574619},"geometry":{"x":171324.12999999989,"y":2548628}},{"attributes":{"ID":574647,"DIS_CODE":0,"TOWNNAME":"永康區","LI":"復國里","LIN":"34鄰","STREET":"復華一街","SECT":" ","MAREA":" ","LANE":" ","ALLEY":" ","HOUSE_NO":"６１號","E_COORD97":172541.73000000001,"N_COORD97":2545071.5299999998,"ADDRESS":"復華一街６１號","OBJECTID":574620},"geometry":{"x":172541.73000000231,"y":2545071.5300000012}},{"attributes":{"ID":574648,"DIS_CODE":0,"TOWNNAME":"永康區","LI":"復華里","LIN":"29鄰","STREET":"國華街","SECT":" ","MAREA":" ","LANE":" ","ALLEY":" ","HOUSE_NO":"１１３號","E_COORD97":172635.45999999999,"N_COORD97":2546230.0600000001,"ADDRESS":"國華街１１３號","OBJECTID":574621},"geometry":{"x":172635.45999999996,"y":2546230.0600000005}},{"attributes":{"ID":574649,"DIS_CODE":0,"TOWNNAME":"永康區","LI":"龍潭里","LIN":"23鄰","STREET":"龍安街","SECT":" ","MAREA":" ","LANE":" ","ALLEY":" ","HOUSE_NO":"１４１號","E_COORD97":174609.12,"N_COORD97":2548407.3399999999,"ADDRESS":"龍安街１４１號","OBJECTID":574622},"geometry":{"x":174609.12000000104,"y":2548407.3399999999}},{"attributes":{"ID":574650,"DIS_CODE":0,"TOWNNAME":"永康區","LI":"龍潭里","LIN":"23鄰","STREET":"龍中街","SECT":" ","MAREA":" ","LANE":" ","ALLEY":" ","HOUSE_NO":"１８０號","E_COORD97":174404.23000000001,"N_COORD97":2548391.8199999998,"ADDRESS":"龍中街１８０號","OBJECTID":574623},"geometry":{"x":174404.23000000045,"y":2548391.8200000003}},{"attributes":{"ID":574651,"DIS_CODE":0,"TOWNNAME":"永康區","LI":"龍潭里","LIN":"23鄰","STREET":"龍中街","SECT":" ","MAREA":" ","LANE":" ","ALLEY":" ","HOUSE_NO":"１４０號","E_COORD97":174415.89000000001,"N_COORD97":2548289.5299999998,"ADDRESS":"龍中街１４０號","OBJECTID":574624},"geometry":{"x":174415.88999999966,"y":2548289.5300000012}},{"attributes":{"ID":574652,"DIS_CODE":0,"TOWNNAME":"永康區","LI":"復國里","LIN":"23鄰","STREET":"復國一路","SECT":" ","MAREA":" ","LANE":" ","ALLEY":" ","HOUSE_NO":"３２１號","E_COORD97":172746.81,"N_COORD97":2545647.27,"ADDRESS":"復國一路３２１號","OBJECTID":574625},"geometry":{"x":172746.80999999959,"y":2545647.2700000014}},{"attributes":{"ID":574653,"DIS_CODE":0,"TOWNNAME":"永康區","LI":"復國里","LIN":"23鄰","STREET":"復國一路","SECT":" ","MAREA":" ","LANE":" ","ALLEY":" ","HOUSE_NO":"３３３號","E_COORD97":172747.89999999999,"N_COORD97":2545678.4700000002,"ADDRESS":"復國一路３３３號","OBJECTID":574626},"geometry":{"x":172747.9000000013,"y":2545678.4700000007}},{"attributes":{"ID":574654,"DIS_CODE":0,"TOWNNAME":"永康區","LI":"復國里","LIN":"23鄰","STREET":"復國一路","SECT":" ","MAREA":" ","LANE":" ","ALLEY":" ","HOUSE_NO":"３３１號","E_COORD97":172748.39999999999,"N_COORD97":2545673.77,"ADDRESS":"復國一路３３１號","OBJECTID":574627},"geometry":{"x":172748.40000000037,"y":2545673.7700000014}},{"attributes":{"ID":574655,"DIS_CODE":0,"TOWNNAME":"安南區","LI":"州北里","LIN":"23鄰","STREET":"安和路","SECT":"五段","MAREA":" ","LANE":" ","ALLEY":" ","HOUSE_NO":"２５９號","E_COORD97":169738.17999999999,"N_COORD97":2551992.1499999999,"ADDRESS":"安和路五段２５９號","OBJECTID":574628},"geometry":{"x":169738.18000000063,"y":2551992.1500000022}},{"attributes":{"ID":574656,"DIS_CODE":0,"TOWNNAME":"永康區","LI":"蔦松里","LIN":"8鄰","STREET":"中正北路","SECT":" ","MAREA":" ","LANE":" ","ALLEY":" ","HOUSE_NO":"４４３號","E_COORD97":173629.23000000001,"N_COORD97":2549154.7400000002,"ADDRESS":"中正北路４４３號","OBJECTID":574629},"geometry":{"x":173629.23000000045,"y":2549154.7400000002}},{"attributes":{"ID":574657,"DIS_CODE":0,"TOWNNAME":"永康區","LI":"復國里","LIN":"35鄰","STREET":"復國一路","SECT":" ","MAREA":" ","LANE":" ","ALLEY":" ","HOUSE_NO":"１０７號","E_COORD97":172696.79999999999,"N_COORD97":2545015.52,"ADDRESS":"復國一路１０７號","OBJECTID":574630},"geometry":{"x":172696.80000000075,"y":2545015.5199999996}},{"attributes":{"ID":574658,"DIS_CODE":0,"TOWNNAME":"永康區","LI":"復國里","LIN":"31鄰","STREET":"復國一路","SECT":" ","MAREA":" ","LANE":" ","ALLEY":" ","HOUSE_NO":"１６９號","E_COORD97":172706.67999999999,"N_COORD97":2545178.7799999998,"ADDRESS":"復國一路１６９號","OBJECTID":574631},"geometry":{"x":172706.6799999997,"y":2545178.7800000012}},{"attributes":{"ID":574659,"DIS_CODE":0,"TOWNNAME":"永康區","LI":"復興里","LIN":"10鄰","STREET":"復興路","SECT":" ","MAREA":" ","LANE":" ","ALLEY":" ","HOUSE_NO":"３８８號","E_COORD97":172150.10000000001,"N_COORD97":2544342.5499999998,"ADDRESS":"復興路３８８號","OBJECTID":574632},"geometry":{"x":172150.10000000149,"y":2544342.5500000007}},{"attributes":{"ID":574660,"DIS_CODE":0,"TOWNNAME":"永康區","LI":"大灣里","LIN":"23鄰","STREET":"民族路","SECT":" ","MAREA":" ","LANE":" ","ALLEY":" ","HOUSE_NO":"３６７號","E_COORD97":174966.53,"N_COORD97":2545226.5600000001,"ADDRESS":"民族路３６７號","OBJECTID":574633},"geometry":{"x":174966.53000000026,"y":2545226.5600000005}},{"attributes":{"ID":574661,"DIS_CODE":0,"TOWNNAME":"安南區","LI":"溪頂里","LIN":"23鄰","STREET":"惠安街","SECT":" ","MAREA":" ","LANE":" ","ALLEY":" ","HOUSE_NO":"９６號","E_COORD97":168926.06,"N_COORD97":2547487.73,"ADDRESS":"惠安街９６號","OBJECTID":574634},"geometry":{"x":168926.05999999866,"y":2547487.7300000004}},{"attributes":{"ID":574662,"DIS_CODE":0,"TOWNNAME":"安南區","LI":"溪頂里","LIN":"23鄰","STREET":"惠安街","SECT":" ","MAREA":" ","LANE":" ","ALLEY":" ","HOUSE_NO":"９８號","E_COORD97":168919.5,"N_COORD97":2547487.46,"ADDRESS":"惠安街９８號","OBJECTID":574635},"geometry":{"x":168919.5,"y":2547487.4600000028}},{"attributes":{"ID":574663,"DIS_CODE":0,"TOWNNAME":"安南區","LI":"溪頂里","LIN":"23鄰","STREET":"惠安街","SECT":" ","MAREA":" ","LANE":" ","ALLEY":" ","HOUSE_NO":"９８號之１","E_COORD97":168904.92999999999,"N_COORD97":2547487.73,"ADDRESS":"惠安街９８號之１","OBJECTID":574636},"geometry":{"x":168904.9299999997,"y":2547487.7300000004}},{"attributes":{"ID":574664,"DIS_CODE":0,"TOWNNAME":"安南區","LI":"溪頂里","LIN":"23鄰","STREET":"惠安街","SECT":" ","MAREA":" ","LANE":" ","ALLEY":" ","HOUSE_NO":"９８號之２","E_COORD97":168898.31,"N_COORD97":2547488.3300000001,"ADDRESS":"惠安街９８號之２","OBJECTID":574637},"geometry":{"x":168898.30999999959,"y":2547488.3300000019}},{"attributes":{"ID":574665,"DIS_CODE":0,"TOWNNAME":"安南區","LI":"鳳凰里","LIN":"23鄰","STREET":"怡安路","SECT":"二段","MAREA":" ","LANE":" ","ALLEY":" ","HOUSE_NO":"６０７號","E_COORD97":167307.57887699999,"N_COORD97":2549502.4495199998,"ADDRESS":"怡安路二段６０７號","OBJECTID":574638},"geometry":{"x":167307.57887700107,"y":2549502.4495180026}},{"attributes":{"ID":574666,"DIS_CODE":0,"TOWNNAME":"安南區","LI":"溪北里","LIN":"23鄰","STREET":"敦安街","SECT":" ","MAREA":" ","LANE":" ","ALLEY":" ","HOUSE_NO":"７８號","E_COORD97":169185.25,"N_COORD97":2547553.8999999999,"ADDRESS":"敦安街７８號","OBJECTID":574639},"geometry":{"x":169185.25000000093,"y":2547553.9000000004}},{"attributes":{"ID":574667,"DIS_CODE":0,"TOWNNAME":"安南區","LI":"溪北里","LIN":"23鄰","STREET":"敦安街","SECT":" ","MAREA":" ","LANE":" ","ALLEY":" ","HOUSE_NO":"４０號","E_COORD97":169256.57000000001,"N_COORD97":2547565.3999999999,"ADDRESS":"敦安街４０號","OBJECTID":574640},"geometry":{"x":169256.5700000003,"y":2547565.4000000022}},{"attributes":{"ID":574668,"DIS_CODE":0,"TOWNNAME":"安南區","LI":"溪北里","LIN":"23鄰","STREET":"敦安街","SECT":" ","MAREA":" ","LANE":" ","ALLEY":" ","HOUSE_NO":"３２號","E_COORD97":169274.14000000001,"N_COORD97":2547567.8399999999,"ADDRESS":"敦安街３２號","OBJECTID":574641},"geometry":{"x":169274.13999999966,"y":2547567.8399999999}},{"attributes":{"ID":574669,"DIS_CODE":0,"TOWNNAME":"中西區","LI":"西賢里","LIN":"23鄰","STREET":"西賢二街","SECT":" ","MAREA":" ","LANE":" ","ALLEY":" ","HOUSE_NO":"５９號","E_COORD97":165563.39999999999,"N_COORD97":2544490.6899999999,"ADDRESS":"西賢二街５９號","OBJECTID":574642},"geometry":{"x":165563.4000000013,"y":2544490.6900000013}},{"attributes":{"ID":574670,"DIS_CODE":0,"TOWNNAME":"永康區","LI":"永康里","LIN":"23鄰","STREET":"中山南路","SECT":" ","MAREA":" ","LANE":" ","ALLEY":" ","HOUSE_NO":"５５９號","E_COORD97":173448.31,"N_COORD97":2547158.75,"ADDRESS":"中山南路５５９號","OBJECTID":574643},"geometry":{"x":173448.30999999959,"y":2547158.7500000037}},{"attributes":{"ID":574671,"DIS_CODE":0,"TOWNNAME":"永康區","LI":"永康里","LIN":"23鄰","STREET":"中山南路","SECT":" ","MAREA":" ","LANE":" ","ALLEY":" ","HOUSE_NO":"６３５之１號","E_COORD97":173700.09,"N_COORD97":2547319.2400000002,"ADDRESS":"中山南路６３５之１號","OBJECTID":574644},"geometry":{"x":173700.09000000078,"y":2547319.2400000021}},{"attributes":{"ID":574672,"DIS_CODE":0,"TOWNNAME":"永康區","LI":"永康里","LIN":"23鄰","STREET":"中山南路","SECT":" ","MAREA":" ","LANE":" ","ALLEY":" ","HOUSE_NO":"５４９號","E_COORD97":173429.78,"N_COORD97":2547143.46,"ADDRESS":"中山南路５４９號","OBJECTID":574645},"geometry":{"x":173429.78000000119,"y":2547143.4600000009}},{"attributes":{"ID":574673,"DIS_CODE":0,"TOWNNAME":"永康區","LI":"復國里","LIN":"17鄰","STREET":"國華街","SECT":" ","MAREA":" ","LANE":" ","ALLEY":" ","HOUSE_NO":"８４號","E_COORD97":172866,"N_COORD97":2545815.0499999998,"ADDRESS":"國華街８４號","OBJECTID":574646},"geometry":{"x":172866,"y":2545815.0500000045}},{"attributes":{"ID":574674,"DIS_CODE":0,"TOWNNAME":"永康區","LI":"復華里","LIN":"29鄰","STREET":"國華街","SECT":" ","MAREA":" ","LANE":" ","ALLEY":" ","HOUSE_NO":"１０７號","E_COORD97":172629.42999999999,"N_COORD97":2546216.5600000001,"ADDRESS":"國華街１０７號","OBJECTID":574647},"geometry":{"x":172629.43000000156,"y":2546216.5600000005}},{"attributes":{"ID":574675,"DIS_CODE":0,"TOWNNAME":"永康區","LI":"大灣里","LIN":"23鄰","STREET":"民族路","SECT":" ","MAREA":" ","LANE":" ","ALLEY":" ","HOUSE_NO":"３７７號","E_COORD97":174950.89999999999,"N_COORD97":2545245.3300000001,"ADDRESS":"民族路３７７號","OBJECTID":574648},"geometry":{"x":174950.90000000037,"y":2545245.3300000001}},{"attributes":{"ID":574676,"DIS_CODE":0,"TOWNNAME":"永康區","LI":"網寮里","LIN":"17鄰","STREET":"永興路","SECT":" ","MAREA":" ","LANE":" ","ALLEY":" ","HOUSE_NO":"４３１號","E_COORD97":173255.98000000001,"N_COORD97":2546889.5800000001,"ADDRESS":"永興路４３１號","OBJECTID":574649},"geometry":{"x":173255.98000000138,"y":2546889.5800000019}},{"attributes":{"ID":574677,"DIS_CODE":0,"TOWNNAME":"永康區","LI":"大灣里","LIN":"23鄰","STREET":"大灣路","SECT":" ","MAREA":" ","LANE":" ","ALLEY":" ","HOUSE_NO":"２３７號","E_COORD97":174935.60999999999,"N_COORD97":2545244.6899999999,"ADDRESS":"大灣路２３７號","OBJECTID":574650},"geometry":{"x":174935.61000000034,"y":2545244.6899999995}},{"attributes":{"ID":574678,"DIS_CODE":0,"TOWNNAME":"仁德區","LI":"仁德里","LIN":"23鄰","STREET":"中山路","SECT":" ","MAREA":" ","LANE":" ","ALLEY":" ","HOUSE_NO":"８９５號","E_COORD97":172377.70999999999,"N_COORD97":2541596.4900000002,"ADDRESS":"中山路８９５號","OBJECTID":574651},"geometry":{"x":172377.71000000089,"y":2541596.4900000002}},{"attributes":{"ID":574679,"DIS_CODE":0,"TOWNNAME":"仁德區","LI":"太子里","LIN":"23鄰","STREET":"中正路","SECT":"三段","MAREA":" ","LANE":" ","ALLEY":" ","HOUSE_NO":"７１７號","E_COORD97":173741.51000000001,"N_COORD97":2543698.77,"ADDRESS":"中正路三段７１７號","OBJECTID":574652},"geometry":{"x":173741.51000000071,"y":2543698.7699999996}},{"attributes":{"ID":574680,"DIS_CODE":0,"TOWNNAME":"仁德區","LI":"太子里","LIN":"23鄰","STREET":"中正路","SECT":"三段","MAREA":" ","LANE":" ","ALLEY":" ","HOUSE_NO":"７２１號","E_COORD97":173744.41,"N_COORD97":2543706.77,"ADDRESS":"中正路三段７２１號","OBJECTID":574653},"geometry":{"x":173744.41000000108,"y":2543706.7700000033}},{"attributes":{"ID":574681,"DIS_CODE":0,"TOWNNAME":"仁德區","LI":"太子里","LIN":"23鄰","STREET":"中正路","SECT":"三段","MAREA":" ","LANE":" ","ALLEY":" ","HOUSE_NO":"７１５號","E_COORD97":173738.79000000001,"N_COORD97":2543691.27,"ADDRESS":"中正路三段７１５號","OBJECTID":574654},"geometry":{"x":173738.79000000004,"y":2543691.2700000014}},{"attributes":{"ID":574682,"DIS_CODE":0,"TOWNNAME":"永康區","LI":"復國里","LIN":"32鄰","STREET":"復華一街","SECT":" ","MAREA":" ","LANE":" ","ALLEY":" ","HOUSE_NO":"２６號","E_COORD97":172658.34,"N_COORD97":2545087.7599999998,"ADDRESS":"復華一街２６號","OBJECTID":574655},"geometry":{"x":172658.33999999985,"y":2545087.7600000016}},{"attributes":{"ID":574683,"DIS_CODE":0,"TOWNNAME":"永康區","LI":"復國里","LIN":"29鄰","STREET":"復華二街","SECT":" ","MAREA":" ","LANE":" ","ALLEY":" ","HOUSE_NO":"２１號","E_COORD97":172593.04000000001,"N_COORD97":2545345.52,"ADDRESS":"復華二街２１號","OBJECTID":574656},"geometry":{"x":172593.04000000004,"y":2545345.5199999996}},{"attributes":{"ID":574684,"DIS_CODE":0,"TOWNNAME":"仁德區","LI":"太子里","LIN":"23鄰","STREET":"中正路","SECT":"三段","MAREA":" ","LANE":" ","ALLEY":" ","HOUSE_NO":"７０９號","E_COORD97":173701.87,"N_COORD97":2543609.7799999998,"ADDRESS":"中正路三段７０９號","OBJECTID":574657},"geometry":{"x":173701.87000000104,"y":2543609.7799999993}},{"attributes":{"ID":574685,"DIS_CODE":0,"TOWNNAME":"仁德區","LI":"仁德里","LIN":"23鄰","STREET":"文心路","SECT":" ","MAREA":" ","LANE":" ","ALLEY":" ","HOUSE_NO":"５０號","E_COORD97":172172.92999999999,"N_COORD97":2541372.4300000002,"ADDRESS":"文心路５０號","OBJECTID":574658},"geometry":{"x":172172.9299999997,"y":2541372.4299999997}},{"attributes":{"ID":574686,"DIS_CODE":0,"TOWNNAME":"仁德區","LI":"仁德里","LIN":"23鄰","STREET":"中山路","SECT":" ","MAREA":" ","LANE":" ","ALLEY":" ","HOUSE_NO":"８９１號","E_COORD97":172385.89999999999,"N_COORD97":2541594.2400000002,"ADDRESS":"中山路８９１號","OBJECTID":574659},"geometry":{"x":172385.90000000037,"y":2541594.2400000002}},{"attributes":{"ID":574687,"DIS_CODE":0,"TOWNNAME":"仁德區","LI":"仁義里","LIN":"23鄰","STREET":"中清路","SECT":" ","MAREA":" ","LANE":" ","ALLEY":" ","HOUSE_NO":"１６８號","E_COORD97":173737.89999999999,"N_COORD97":2541506.79,"ADDRESS":"中清路１６８號","OBJECTID":574660},"geometry":{"x":173737.9000000013,"y":2541506.790000001}},{"attributes":{"ID":574688,"DIS_CODE":0,"TOWNNAME":"仁德區","LI":"仁德里","LIN":"23鄰","STREET":"中山路","SECT":" ","MAREA":" ","LANE":" ","ALLEY":" ","HOUSE_NO":"８９３號","E_COORD97":172382.01999999999,"N_COORD97":2541595.7400000002,"ADDRESS":"中山路８９３號","OBJECTID":574661},"geometry":{"x":172382.01999999955,"y":2541595.7400000021}},{"attributes":{"ID":574689,"DIS_CODE":0,"TOWNNAME":"仁德區","LI":"仁義里","LIN":"23鄰","STREET":"中清路","SECT":" ","MAREA":" ","LANE":" ","ALLEY":" ","HOUSE_NO":"１５０號","E_COORD97":173735.26000000001,"N_COORD97":2541469.0499999998,"ADDRESS":"中清路１５０號","OBJECTID":574662},"geometry":{"x":173735.25999999978,"y":2541469.0500000026}},{"attributes":{"ID":574690,"DIS_CODE":0,"TOWNNAME":"麻豆區","LI":"穀興里","LIN":"11鄰","STREET":"中山路","SECT":" ","MAREA":" ","LANE":" ","ALLEY":" ","HOUSE_NO":"２０號","E_COORD97":172998.60999999999,"N_COORD97":2564831.5499999998,"ADDRESS":"中山路２０號","OBJECTID":574663},"geometry":{"x":172998.61000000127,"y":2564831.5500000045}},{"attributes":{"ID":574691,"DIS_CODE":0,"TOWNNAME":"仁德區","LI":"仁義里","LIN":"23鄰","STREET":"中清路","SECT":" ","MAREA":" ","LANE":" ","ALLEY":" ","HOUSE_NO":"１４８號","E_COORD97":173735.45999999999,"N_COORD97":2541464.7999999998,"ADDRESS":"中清路１４８號","OBJECTID":574664},"geometry":{"x":173735.46000000089,"y":2541464.8000000026}},{"attributes":{"ID":574692,"DIS_CODE":0,"TOWNNAME":"永康區","LI":"復國里","LIN":"36鄰","STREET":"復國一路","SECT":" ","MAREA":" ","LANE":" ","ALLEY":" ","HOUSE_NO":"２７號","E_COORD97":172692.38,"N_COORD97":2544828.77,"ADDRESS":"復國一路２７號","OBJECTID":574665},"geometry":{"x":172692.37999999989,"y":2544828.7700000033}},{"attributes":{"ID":574693,"DIS_CODE":0,"TOWNNAME":"永康區","LI":"復國里","LIN":"36鄰","STREET":"復國一路","SECT":" ","MAREA":" ","LANE":" ","ALLEY":" ","HOUSE_NO":"６１號","E_COORD97":172690.70999999999,"N_COORD97":2544903.9700000002,"ADDRESS":"復國一路６１號","OBJECTID":574666},"geometry":{"x":172690.71000000089,"y":2544903.9700000025}},{"attributes":{"ID":574694,"DIS_CODE":0,"TOWNNAME":"永康區","LI":"網寮里","LIN":"17鄰","STREET":"永興路","SECT":" ","MAREA":" ","LANE":" ","ALLEY":" ","HOUSE_NO":"３４９號","E_COORD97":173416.66,"N_COORD97":2546806.2400000002,"ADDRESS":"永興路３４９號","OBJECTID":574667},"geometry":{"x":173416.66000000201,"y":2546806.2400000039}},{"attributes":{"ID":574695,"DIS_CODE":0,"TOWNNAME":"永康區","LI":"復國里","LIN":"21鄰","STREET":"復華六街","SECT":" ","MAREA":" ","LANE":" ","ALLEY":" ","HOUSE_NO":"７９號","E_COORD97":172654.35999999999,"N_COORD97":2545836.6400000001,"ADDRESS":"復華六街７９號","OBJECTID":574668},"geometry":{"x":172654.3600000022,"y":2545836.6400000006}},{"attributes":{"ID":574696,"DIS_CODE":0,"TOWNNAME":"仁德區","LI":"太子里","LIN":"23鄰","STREET":"太子路","SECT":" ","MAREA":" ","LANE":" ","ALLEY":" ","HOUSE_NO":"３６０號","E_COORD97":173760.95999999999,"N_COORD97":2543537.2599999998,"ADDRESS":"太子路３６０號","OBJECTID":574669},"geometry":{"x":173760.96000000089,"y":2543537.2599999979}},{"attributes":{"ID":574697,"DIS_CODE":0,"TOWNNAME":"安南區","LI":"溪北里","LIN":"23鄰","STREET":"敦安街","SECT":" ","MAREA":" ","LANE":" ","ALLEY":" ","HOUSE_NO":"８０號","E_COORD97":169181.79999999999,"N_COORD97":2547554.0499999998,"ADDRESS":"敦安街８０號","OBJECTID":574670},"geometry":{"x":169181.79999999981,"y":2547554.0500000045}},{"attributes":{"ID":574698,"DIS_CODE":0,"TOWNNAME":"安南區","LI":"溪北里","LIN":"23鄰","STREET":"敦安街","SECT":" ","MAREA":" ","LANE":" ","ALLEY":" ","HOUSE_NO":"７２號","E_COORD97":169190.62,"N_COORD97":2547553.4399999999,"ADDRESS":"敦安街７２號","OBJECTID":574671},"geometry":{"x":169190.61999999918,"y":2547553.4400000032}},{"attributes":{"ID":574699,"DIS_CODE":0,"TOWNNAME":"安南區","LI":"溪北里","LIN":"23鄰","STREET":"敦安街","SECT":" ","MAREA":" ","LANE":" ","ALLEY":" ","HOUSE_NO":"６８號","E_COORD97":169197.78,"N_COORD97":2547557.04,"ADDRESS":"敦安街６８號","OBJECTID":574672},"geometry":{"x":169197.78000000026,"y":2547557.040000001}},{"attributes":{"ID":574700,"DIS_CODE":0,"TOWNNAME":"永康區","LI":"龍潭里","LIN":"15鄰","STREET":"龍潭街","SECT":" ","MAREA":" ","LANE":" ","ALLEY":" ","HOUSE_NO":"２３６號","E_COORD97":174923.87,"N_COORD97":2548313,"ADDRESS":"龍潭街２３６號","OBJECTID":574673},"geometry":{"x":174923.87000000197,"y":2548313.0000000037}},{"attributes":{"ID":574701,"DIS_CODE":0,"TOWNNAME":"永康區","LI":"龍潭里","LIN":"31鄰","STREET":"中山北路","SECT":" ","MAREA":" ","LANE":" ","ALLEY":" ","HOUSE_NO":"１９７號","E_COORD97":174304.38,"N_COORD97":2547554.5499999998,"ADDRESS":"中山北路１９７號","OBJECTID":574674},"geometry":{"x":174304.37999999989,"y":2547554.5500000026}},{"attributes":{"ID":574702,"DIS_CODE":0,"TOWNNAME":"永康區","LI":"蔦松里","LIN":"9鄰","STREET":"正北三路","SECT":" ","MAREA":" ","LANE":" ","ALLEY":" ","HOUSE_NO":"１０７號","E_COORD97":174403.26999999999,"N_COORD97":2549998.2400000002,"ADDRESS":"正北三路１０７號","OBJECTID":574675},"geometry":{"x":174403.26999999955,"y":2549998.2400000021}},{"attributes":{"ID":574703,"DIS_CODE":0,"TOWNNAME":"東區","LI":"東明里","LIN":"23鄰","STREET":"怡東路","SECT":" ","MAREA":" ","LANE":" ","ALLEY":" ","HOUSE_NO":"２９號","E_COORD97":170805.79000000001,"N_COORD97":2543520.9100000001,"ADDRESS":"怡東路２９號","OBJECTID":574676},"geometry":{"x":170805.79000000097,"y":2543520.910000002}},{"attributes":{"ID":574704,"DIS_CODE":0,"TOWNNAME":"東區","LI":"東明里","LIN":"23鄰","STREET":"怡東路","SECT":" ","MAREA":" ","LANE":" ","ALLEY":" ","HOUSE_NO":"３１號","E_COORD97":170805.98999999999,"N_COORD97":2543524.52,"ADDRESS":"怡東路３１號","OBJECTID":574677},"geometry":{"x":170805.99000000115,"y":2543524.5199999996}},{"attributes":{"ID":574705,"DIS_CODE":0,"TOWNNAME":"東區","LI":"東明里","LIN":"23鄰","STREET":"怡東路","SECT":" ","MAREA":" ","LANE":" ","ALLEY":" ","HOUSE_NO":"３３號","E_COORD97":170805.79000000001,"N_COORD97":2543528.9199999999,"ADDRESS":"怡東路３３號","OBJECTID":574678},"geometry":{"x":170805.79000000097,"y":2543528.9199999999}},{"attributes":{"ID":574706,"DIS_CODE":0,"TOWNNAME":"永康區","LI":"龍潭里","LIN":"25鄰","STREET":"龍昌街","SECT":" ","MAREA":" ","LANE":" ","ALLEY":" ","HOUSE_NO":"１６號","E_COORD97":175026.73999999999,"N_COORD97":2547781.1800000002,"ADDRESS":"龍昌街１６號","OBJECTID":574679},"geometry":{"x":175026.74000000115,"y":2547781.1799999997}},{"attributes":{"ID":574707,"DIS_CODE":0,"TOWNNAME":"永康區","LI":"龍潭里","LIN":"13鄰","STREET":"龍橋街","SECT":" ","MAREA":" ","LANE":" ","ALLEY":" ","HOUSE_NO":"７７號","E_COORD97":174752.26000000001,"N_COORD97":2548426.2400000002,"ADDRESS":"龍橋街７７號","OBJECTID":574680},"geometry":{"x":174752.25999999978,"y":2548426.2400000002}},{"attributes":{"ID":574708,"DIS_CODE":0,"TOWNNAME":"永康區","LI":"網寮里","LIN":"19鄰","STREET":"文化路","SECT":" ","MAREA":" ","LANE":" ","ALLEY":" ","HOUSE_NO":"３１６號","E_COORD97":173425.35999999999,"N_COORD97":2546172.4300000002,"ADDRESS":"文化路３１６號","OBJECTID":574681},"geometry":{"x":173425.36000000034,"y":2546172.4299999997}},{"attributes":{"ID":574709,"DIS_CODE":0,"TOWNNAME":"永康區","LI":"復華里","LIN":"16鄰","STREET":"復華七街","SECT":" ","MAREA":" ","LANE":" ","ALLEY":" ","HOUSE_NO":"９２號","E_COORD97":172838.81,"N_COORD97":2546135.6800000002,"ADDRESS":"復華七街９２號","OBJECTID":574682},"geometry":{"x":172838.81000000052,"y":2546135.6800000016}},{"attributes":{"ID":574710,"DIS_CODE":0,"TOWNNAME":"永康區","LI":"\u25A0行里","LIN":"8鄰","STREET":"中正一街","SECT":" ","MAREA":" ","LANE":" ","ALLEY":" ","HOUSE_NO":"３０號","E_COORD97":172782.31,"N_COORD97":2548274.25,"ADDRESS":"中正一街３０號","OBJECTID":574683},"geometry":{"x":172782.30999999959,"y":2548274.2500000037}},{"attributes":{"ID":574711,"DIS_CODE":0,"TOWNNAME":"善化區","LI":"光文里","LIN":"23鄰","STREET":"中山路","SECT":" ","MAREA":" ","LANE":" ","ALLEY":" ","HOUSE_NO":"１３８號","E_COORD97":178495.34,"N_COORD97":2559179.25,"ADDRESS":"中山路１３８號","OBJECTID":574684},"geometry":{"x":178495.33999999985,"y":2559179.25}},{"attributes":{"ID":574712,"DIS_CODE":0,"TOWNNAME":"永康區","LI":"網寮里","LIN":"21鄰","STREET":"文化路","SECT":" ","MAREA":" ","LANE":" ","ALLEY":" ","HOUSE_NO":"２６６號","E_COORD97":173501.48999999999,"N_COORD97":2546132.3799999999,"ADDRESS":"文化路２６６號","OBJECTID":574685},"geometry":{"x":173501.49000000115,"y":2546132.379999999}},{"attributes":{"ID":574713,"DIS_CODE":0,"TOWNNAME":"永康區","LI":"復華里","LIN":"41鄰","STREET":"復華六街","SECT":" ","MAREA":" ","LANE":" ","ALLEY":" ","HOUSE_NO":"１１８號","E_COORD97":172588.51999999999,"N_COORD97":2545858.46,"ADDRESS":"復華六街１１８號","OBJECTID":574686},"geometry":{"x":172588.52000000048,"y":2545858.4600000009}},{"attributes":{"ID":574714,"DIS_CODE":0,"TOWNNAME":"永康區","LI":"復華里","LIN":"40鄰","STREET":"復華七街","SECT":" ","MAREA":" ","LANE":" ","ALLEY":" ","HOUSE_NO":"１４號","E_COORD97":172604.56,"N_COORD97":2545961.3900000001,"ADDRESS":"復華七街１４號","OBJECTID":574687},"geometry":{"x":172604.55999999959,"y":2545961.3899999987}},{"attributes":{"ID":574715,"DIS_CODE":0,"TOWNNAME":"永康區","LI":"網寮里","LIN":"21鄰","STREET":"永勝街","SECT":" ","MAREA":" ","LANE":" ","ALLEY":" ","HOUSE_NO":"１１號","E_COORD97":173619.29000000001,"N_COORD97":2546202.48,"ADDRESS":"永勝街１１號","OBJECTID":574688},"geometry":{"x":173619.29000000097,"y":2546202.4800000023}},{"attributes":{"ID":574716,"DIS_CODE":0,"TOWNNAME":"永康區","LI":"復國里","LIN":"36鄰","STREET":"復國一路","SECT":" ","MAREA":" ","LANE":" ","ALLEY":" ","HOUSE_NO":"４９號","E_COORD97":172691.70000000001,"N_COORD97":2544877.4199999999,"ADDRESS":"復國一路４９號","OBJECTID":574689},"geometry":{"x":172691.70000000019,"y":2544877.4199999999}},{"attributes":{"ID":574717,"DIS_CODE":0,"TOWNNAME":"永康區","LI":"復華里","LIN":"15鄰","STREET":"復國一路","SECT":" ","MAREA":" ","LANE":" ","ALLEY":" ","HOUSE_NO":"４１２號","E_COORD97":172756.44,"N_COORD97":2545974.52,"ADDRESS":"復國一路４１２號","OBJECTID":574690},"geometry":{"x":172756.44000000041,"y":2545974.5200000014}},{"attributes":{"ID":574718,"DIS_CODE":0,"TOWNNAME":"永康區","LI":"網寮里","LIN":"3鄰","STREET":"永和街","SECT":" ","MAREA":" ","LANE":" ","ALLEY":" ","HOUSE_NO":"１９５號","E_COORD97":173472.44,"N_COORD97":2546519.3599999999,"ADDRESS":"永和街１９５號","OBJECTID":574691},"geometry":{"x":173472.44000000041,"y":2546519.3599999994}},{"attributes":{"ID":574719,"DIS_CODE":0,"TOWNNAME":"永康區","LI":"龍潭里","LIN":"25鄰","STREET":"龍昌街","SECT":" ","MAREA":" ","LANE":" ","ALLEY":" ","HOUSE_NO":"１８號","E_COORD97":175026.44,"N_COORD97":2547785.9300000002,"ADDRESS":"龍昌街１８號","OBJECTID":574692},"geometry":{"x":175026.44000000041,"y":2547785.9300000016}},{"attributes":{"ID":574720,"DIS_CODE":0,"TOWNNAME":"永康區","LI":"龍潭里","LIN":"25鄰","STREET":"龍昌街","SECT":" ","MAREA":" ","LANE":" ","ALLEY":" ","HOUSE_NO":"３９號","E_COORD97":175000.51999999999,"N_COORD97":2547841.3999999999,"ADDRESS":"龍昌街３９號","OBJECTID":574693},"geometry":{"x":175000.52000000048,"y":2547841.4000000004}},{"attributes":{"ID":574721,"DIS_CODE":0,"TOWNNAME":"永康區","LI":"龍潭里","LIN":"32鄰","STREET":"龍中街","SECT":" ","MAREA":" ","LANE":" ","ALLEY":" ","HOUSE_NO":"５０號之２","E_COORD97":174455.04000000001,"N_COORD97":2547965.8500000001,"ADDRESS":"龍中街５０號之２","OBJECTID":574694},"geometry":{"x":174455.04000000097,"y":2547965.8500000015}},{"attributes":{"ID":574722,"DIS_CODE":0,"TOWNNAME":"永康區","LI":"龍潭里","LIN":"31鄰","STREET":"中山北路","SECT":" ","MAREA":" ","LANE":" ","ALLEY":" ","HOUSE_NO":"２５３號","E_COORD97":174467.39000000001,"N_COORD97":2547624.3199999998,"ADDRESS":"中山北路２５３號","OBJECTID":574695},"geometry":{"x":174467.3900000006,"y":2547624.3200000022}},{"attributes":{"ID":574723,"DIS_CODE":0,"TOWNNAME":"永康區","LI":"網寮里","LIN":"23鄰","STREET":"文化路","SECT":" ","MAREA":" ","LANE":" ","ALLEY":" ","HOUSE_NO":"１１８號","E_COORD97":173927.73000000001,"N_COORD97":2546249.0099999998,"ADDRESS":"文化路１１８號","OBJECTID":574696},"geometry":{"x":173927.73000000045,"y":2546249.0100000016}},{"attributes":{"ID":574724,"DIS_CODE":0,"TOWNNAME":"善化區","LI":"光文里","LIN":"23鄰","STREET":"中山路","SECT":" ","MAREA":" ","LANE":" ","ALLEY":" ","HOUSE_NO":"１７０號","E_COORD97":178410.44,"N_COORD97":2559166.25,"ADDRESS":"中山路１７０號","OBJECTID":574697},"geometry":{"x":178410.44000000041,"y":2559166.25}},{"attributes":{"ID":574725,"DIS_CODE":0,"TOWNNAME":"善化區","LI":"光文里","LIN":"23鄰","STREET":"公園路","SECT":" ","MAREA":" ","LANE":" ","ALLEY":" ","HOUSE_NO":"２６號","E_COORD97":178314.16,"N_COORD97":2559258.25,"ADDRESS":"公園路２６號","OBJECTID":574698},"geometry":{"x":178314.16000000108,"y":2559258.25}},{"attributes":{"ID":574726,"DIS_CODE":0,"TOWNNAME":"善化區","LI":"光文里","LIN":"23鄰","STREET":"中山路","SECT":" ","MAREA":" ","LANE":" ","ALLEY":" ","HOUSE_NO":"１４６號","E_COORD97":178475.94,"N_COORD97":2559175.75,"ADDRESS":"中山路１４６號","OBJECTID":574699},"geometry":{"x":178475.94000000134,"y":2559175.7500000019}},{"attributes":{"ID":574727,"DIS_CODE":0,"TOWNNAME":"善化區","LI":"光文里","LIN":"23鄰","STREET":"中山路","SECT":" ","MAREA":" ","LANE":" ","ALLEY":" ","HOUSE_NO":"１８２號之５","E_COORD97":178251.84,"N_COORD97":2559288.77,"ADDRESS":"中山路１８２號之５","OBJECTID":574700},"geometry":{"x":178251.84000000078,"y":2559288.7700000033}},{"attributes":{"ID":574728,"DIS_CODE":0,"TOWNNAME":"善化區","LI":"光文里","LIN":"23鄰","STREET":"中山路","SECT":" ","MAREA":" ","LANE":" ","ALLEY":" ","HOUSE_NO":"１３２號","E_COORD97":178515.57999999999,"N_COORD97":2559181.75,"ADDRESS":"中山路１３２號","OBJECTID":574701},"geometry":{"x":178515.58000000007,"y":2559181.7500000019}},{"attributes":{"ID":574729,"DIS_CODE":0,"TOWNNAME":"永康區","LI":"網寮里","LIN":"4鄰","STREET":"永勝街","SECT":" ","MAREA":" ","LANE":" ","ALLEY":" ","HOUSE_NO":"１５８號","E_COORD97":173410.59,"N_COORD97":2546421.5600000001,"ADDRESS":"永勝街１５８號","OBJECTID":574702},"geometry":{"x":173410.59000000078,"y":2546421.5600000042}},{"attributes":{"ID":574730,"DIS_CODE":0,"TOWNNAME":"永康區","LI":"龍潭里","LIN":"13鄰","STREET":"龍橋街","SECT":" ","MAREA":" ","LANE":" ","ALLEY":" ","HOUSE_NO":"７１號","E_COORD97":174762,"N_COORD97":2548420.6899999999,"ADDRESS":"龍橋街７１號","OBJECTID":574703},"geometry":{"x":174762.00000000093,"y":2548420.6900000013}},{"attributes":{"ID":574731,"DIS_CODE":0,"TOWNNAME":"永康區","LI":"龍潭里","LIN":"24鄰","STREET":"中山北路","SECT":" ","MAREA":" ","LANE":" ","ALLEY":" ","HOUSE_NO":"３３０號","E_COORD97":174973.57000000001,"N_COORD97":2547636.29,"ADDRESS":"中山北路３３０號","OBJECTID":574704},"geometry":{"x":174973.57000000216,"y":2547636.290000001}},{"attributes":{"ID":574732,"DIS_CODE":0,"TOWNNAME":"永康區","LI":"網寮里","LIN":"17鄰","STREET":"永勝街","SECT":" ","MAREA":" ","LANE":" ","ALLEY":" ","HOUSE_NO":"２７１號","E_COORD97":173427.73999999999,"N_COORD97":2546785.5,"ADDRESS":"永勝街２７１號","OBJECTID":574705},"geometry":{"x":173427.74000000022,"y":2546785.5000000019}},{"attributes":{"ID":574733,"DIS_CODE":0,"TOWNNAME":"善化區","LI":"光文里","LIN":"23鄰","STREET":"中山路","SECT":" ","MAREA":" ","LANE":" ","ALLEY":" ","HOUSE_NO":"１４０號","E_COORD97":178490.54000000001,"N_COORD97":2559178.75,"ADDRESS":"中山路１４０號","OBJECTID":574706},"geometry":{"x":178490.54000000004,"y":2559178.7500000019}},{"attributes":{"ID":574734,"DIS_CODE":0,"TOWNNAME":"永康區","LI":"復華里","LIN":"23鄰","STREET":"復華八街","SECT":" ","MAREA":" ","LANE":" ","ALLEY":" ","HOUSE_NO":"１６號","E_COORD97":172683.57999999999,"N_COORD97":2546143.7400000002,"ADDRESS":"復華八街１６號","OBJECTID":574707},"geometry":{"x":172683.58000000101,"y":2546143.7400000002}},{"attributes":{"ID":574735,"DIS_CODE":0,"TOWNNAME":"永康區","LI":"復國里","LIN":"23鄰","STREET":"復國一路","SECT":" ","MAREA":" ","LANE":" ","ALLEY":" ","HOUSE_NO":"３２７號","E_COORD97":172748.10000000001,"N_COORD97":2545662.02,"ADDRESS":"復國一路３２７號","OBJECTID":574708},"geometry":{"x":172748.09999999963,"y":2545662.0200000014}},{"attributes":{"ID":574736,"DIS_CODE":0,"TOWNNAME":"永康區","LI":"復國里","LIN":"23鄰","STREET":"復國一路","SECT":" ","MAREA":" ","LANE":" ","ALLEY":" ","HOUSE_NO":"３２３號","E_COORD97":172747.10999999999,"N_COORD97":2545652.52,"ADDRESS":"復國一路３２３號","OBJECTID":574709},"geometry":{"x":172747.11000000034,"y":2545652.5200000014}},{"attributes":{"ID":574737,"DIS_CODE":0,"TOWNNAME":"永康區","LI":"復華里","LIN":"4鄰","STREET":"復國二路","SECT":" ","MAREA":" ","LANE":" ","ALLEY":" ","HOUSE_NO":"２６１號","E_COORD97":173027.87,"N_COORD97":2546165.77,"ADDRESS":"復國二路２６１號","OBJECTID":574710},"geometry":{"x":173027.87000000011,"y":2546165.7700000014}},{"attributes":{"ID":574738,"DIS_CODE":0,"TOWNNAME":"永康區","LI":"網寮里","LIN":"4鄰","STREET":"永勝街","SECT":" ","MAREA":" ","LANE":" ","ALLEY":" ","HOUSE_NO":"１６０號","E_COORD97":173406.39999999999,"N_COORD97":2546423.8100000001,"ADDRESS":"永勝街１６０號","OBJECTID":574711},"geometry":{"x":173406.40000000037,"y":2546423.8100000024}},{"attributes":{"ID":574739,"DIS_CODE":0,"TOWNNAME":"永康區","LI":"復國里","LIN":"23鄰","STREET":"復國一路","SECT":" ","MAREA":" ","LANE":" ","ALLEY":" ","HOUSE_NO":"３３５號","E_COORD97":172748.23999999999,"N_COORD97":2545683.23,"ADDRESS":"復國一路３３５號","OBJECTID":574712},"geometry":{"x":172748.24000000209,"y":2545683.2300000004}},{"attributes":{"ID":574740,"DIS_CODE":0,"TOWNNAME":"永康區","LI":"復國里","LIN":"23鄰","STREET":"復國一路","SECT":" ","MAREA":" ","LANE":" ","ALLEY":" ","HOUSE_NO":"３２５號","E_COORD97":172747.70000000001,"N_COORD97":2545657.77,"ADDRESS":"復國一路３２５號","OBJECTID":574713},"geometry":{"x":172747.70000000019,"y":2545657.7700000014}},{"attributes":{"ID":574741,"DIS_CODE":0,"TOWNNAME":"永康區","LI":"復華里","LIN":"23鄰","STREET":"復華七街","SECT":" ","MAREA":" ","LANE":" ","ALLEY":" ","HOUSE_NO":"６１號","E_COORD97":172734.70000000001,"N_COORD97":2546059.27,"ADDRESS":"復華七街６１號","OBJECTID":574714},"geometry":{"x":172734.70000000019,"y":2546059.2699999996}},{"attributes":{"ID":574742,"DIS_CODE":0,"TOWNNAME":"永康區","LI":"網寮里","LIN":"23鄰","STREET":"永吉路","SECT":" ","MAREA":" ","LANE":" ","ALLEY":" ","HOUSE_NO":"３５號","E_COORD97":174005.45999999999,"N_COORD97":2546327.6600000001,"ADDRESS":"永吉路３５號","OBJECTID":574715},"geometry":{"x":174005.45999999996,"y":2546327.6600000001}},{"attributes":{"ID":574743,"DIS_CODE":0,"TOWNNAME":"永康區","LI":"復華里","LIN":"23鄰","STREET":"復華八街","SECT":" ","MAREA":" ","LANE":" ","ALLEY":" ","HOUSE_NO":"２２號","E_COORD97":172692.47,"N_COORD97":2546170.52,"ADDRESS":"復華八街２２號","OBJECTID":574716},"geometry":{"x":172692.47000000067,"y":2546170.5200000014}},{"attributes":{"ID":574744,"DIS_CODE":0,"TOWNNAME":"永康區","LI":"復華里","LIN":"23鄰","STREET":"復華八街","SECT":" ","MAREA":" ","LANE":" ","ALLEY":" ","HOUSE_NO":"４６號","E_COORD97":172720.14999999999,"N_COORD97":2546217.2799999998,"ADDRESS":"復華八街４６號","OBJECTID":574717},"geometry":{"x":172720.15000000224,"y":2546217.2799999993}},{"attributes":{"ID":574745,"DIS_CODE":0,"TOWNNAME":"永康區","LI":"復華里","LIN":"23鄰","STREET":"復華八街","SECT":" ","MAREA":" ","LANE":" ","ALLEY":" ","HOUSE_NO":"２號","E_COORD97":172661.47,"N_COORD97":2546122.7400000002,"ADDRESS":"復華八街２號","OBJECTID":574718},"geometry":{"x":172661.4700000016,"y":2546122.7400000021}},{"attributes":{"ID":574746,"DIS_CODE":0,"TOWNNAME":"永康區","LI":"網寮里","LIN":"23鄰","STREET":"永吉路","SECT":" ","MAREA":" ","LANE":" ","ALLEY":" ","HOUSE_NO":"１２號","E_COORD97":174031.13,"N_COORD97":2546319.6200000001,"ADDRESS":"永吉路１２號","OBJECTID":574719},"geometry":{"x":174031.12999999989,"y":2546319.6199999992}},{"attributes":{"ID":574747,"DIS_CODE":0,"TOWNNAME":"永康區","LI":"復華里","LIN":"23鄰","STREET":"復華八街","SECT":" ","MAREA":" ","LANE":" ","ALLEY":" ","HOUSE_NO":"３０號","E_COORD97":172702.64999999999,"N_COORD97":2546187.52,"ADDRESS":"復華八街３０號","OBJECTID":574720},"geometry":{"x":172702.65000000037,"y":2546187.5200000014}},{"attributes":{"ID":574748,"DIS_CODE":0,"TOWNNAME":"永康區","LI":"網寮里","LIN":"23鄰","STREET":"文化路","SECT":" ","MAREA":" ","LANE":" ","ALLEY":" ","HOUSE_NO":"１３８號","E_COORD97":173867.56,"N_COORD97":2546229.4100000001,"ADDRESS":"文化路１３８號","OBJECTID":574721},"geometry":{"x":173867.56000000145,"y":2546229.410000002}},{"attributes":{"ID":574749,"DIS_CODE":0,"TOWNNAME":"永康區","LI":"龍潭里","LIN":"23鄰","STREET":"龍中街","SECT":" ","MAREA":" ","LANE":" ","ALLEY":" ","HOUSE_NO":"１７０號","E_COORD97":174406.92000000001,"N_COORD97":2548360.02,"ADDRESS":"龍中街１７０號","OBJECTID":574722},"geometry":{"x":174406.92000000086,"y":2548360.0200000033}},{"attributes":{"ID":574750,"DIS_CODE":0,"TOWNNAME":"永康區","LI":"龍潭里","LIN":"23鄰","STREET":"龍中街","SECT":" ","MAREA":" ","LANE":" ","ALLEY":" ","HOUSE_NO":"１９８號","E_COORD97":174400.89999999999,"N_COORD97":2548426.8100000001,"ADDRESS":"龍中街１９８號","OBJECTID":574723},"geometry":{"x":174400.9000000013,"y":2548426.8100000042}},{"attributes":{"ID":574751,"DIS_CODE":0,"TOWNNAME":"新市區","LI":"新市里","LIN":"23鄰","STREET":"復興路","SECT":" ","MAREA":" ","LANE":" ","ALLEY":" ","HOUSE_NO":"９９號","E_COORD97":177799.47831000001,"N_COORD97":2553578.8258699998,"ADDRESS":"復興路９９號","OBJECTID":574724},"geometry":{"x":177799.47831000015,"y":2553578.8258659989}},{"attributes":{"ID":574752,"DIS_CODE":0,"TOWNNAME":"永康區","LI":"網寮里","LIN":"23鄰","STREET":"文化路","SECT":" ","MAREA":" ","LANE":" ","ALLEY":" ","HOUSE_NO":"１２６號","E_COORD97":173902.13,"N_COORD97":2546242.2599999998,"ADDRESS":"文化路１２６號","OBJECTID":574725},"geometry":{"x":173902.13000000082,"y":2546242.2599999998}},{"attributes":{"ID":574753,"DIS_CODE":0,"TOWNNAME":"永康區","LI":"網寮里","LIN":"23鄰","STREET":"文化路","SECT":" ","MAREA":" ","LANE":" ","ALLEY":" ","HOUSE_NO":"１４８號","E_COORD97":173845.45999999999,"N_COORD97":2546222.4100000001,"ADDRESS":"文化路１４８號","OBJECTID":574726},"geometry":{"x":173845.46000000089,"y":2546222.410000002}},{"attributes":{"ID":574754,"DIS_CODE":0,"TOWNNAME":"永康區","LI":"復華里","LIN":"23鄰","STREET":"復國一路","SECT":" ","MAREA":" ","LANE":" ","ALLEY":" ","HOUSE_NO":"４４０號","E_COORD97":172702.95000000001,"N_COORD97":2546048.21,"ADDRESS":"復國一路４４０號","OBJECTID":574727},"geometry":{"x":172702.95000000112,"y":2546048.2100000028}},{"attributes":{"ID":574755,"DIS_CODE":0,"TOWNNAME":"永康區","LI":"網寮里","LIN":"23鄰","STREET":"永大一路","SECT":" ","MAREA":" ","LANE":" ","ALLEY":" ","HOUSE_NO":"２１３號","E_COORD97":173775.97,"N_COORD97":2546332.6800000002,"ADDRESS":"永大一路２１３號","OBJECTID":574728},"geometry":{"x":173775.97000000067,"y":2546332.6800000016}},{"attributes":{"ID":574756,"DIS_CODE":0,"TOWNNAME":"麻豆區","LI":"穀興里","LIN":"11鄰","STREET":"中山路","SECT":" ","MAREA":" ","LANE":" ","ALLEY":" ","HOUSE_NO":"２２號","E_COORD97":172993.87,"N_COORD97":2564831.52,"ADDRESS":"中山路２２號","OBJECTID":574729},"geometry":{"x":172993.87000000104,"y":2564831.5200000014}},{"attributes":{"ID":574757,"DIS_CODE":0,"TOWNNAME":"永康區","LI":"龍潭里","LIN":"23鄰","STREET":"龍中街","SECT":" ","MAREA":" ","LANE":" ","ALLEY":" ","HOUSE_NO":"１７４號","E_COORD97":174405.51000000001,"N_COORD97":2548369.52,"ADDRESS":"龍中街１７４號","OBJECTID":574730},"geometry":{"x":174405.51000000164,"y":2548369.5199999996}},{"attributes":{"ID":574758,"DIS_CODE":0,"TOWNNAME":"永康區","LI":"網寮里","LIN":"4鄰","STREET":"永勝街","SECT":" ","MAREA":" ","LANE":" ","ALLEY":" ","HOUSE_NO":"１６２號","E_COORD97":173413.76999999999,"N_COORD97":2546438.9199999999,"ADDRESS":"永勝街１６２號","OBJECTID":574731},"geometry":{"x":173413.77000000048,"y":2546438.9200000037}},{"attributes":{"ID":574759,"DIS_CODE":0,"TOWNNAME":"永康區","LI":"龍潭里","LIN":"44鄰","STREET":"永平街","SECT":" ","MAREA":" ","LANE":" ","ALLEY":" ","HOUSE_NO":"２８８之６號","E_COORD97":174684.87,"N_COORD97":2547050.2999999998,"ADDRESS":"永平街２８８之６號","OBJECTID":574732},"geometry":{"x":174684.87000000197,"y":2547050.3000000007}},{"attributes":{"ID":574760,"DIS_CODE":0,"TOWNNAME":"永康區","LI":"龍潭里","LIN":"12鄰","STREET":"龍橋街","SECT":" ","MAREA":" ","LANE":" ","ALLEY":" ","HOUSE_NO":"４７號","E_COORD97":174805.98999999999,"N_COORD97":2548380.1499999999,"ADDRESS":"龍橋街４７號","OBJECTID":574733},"geometry":{"x":174805.99000000022,"y":2548380.1500000041}},{"attributes":{"ID":574761,"DIS_CODE":0,"TOWNNAME":"永康區","LI":"網寮里","LIN":"23鄰","STREET":"文化路","SECT":" ","MAREA":" ","LANE":" ","ALLEY":" ","HOUSE_NO":"１６２號","E_COORD97":173819.95000000001,"N_COORD97":2546215.1600000001,"ADDRESS":"文化路１６２號","OBJECTID":574734},"geometry":{"x":173819.95000000205,"y":2546215.160000002}},{"attributes":{"ID":574762,"DIS_CODE":0,"TOWNNAME":"永康區","LI":"復國里","LIN":"23鄰","STREET":"復國一路","SECT":" ","MAREA":" ","LANE":" ","ALLEY":" ","HOUSE_NO":"３１９號","E_COORD97":172746.14999999999,"N_COORD97":2545642.02,"ADDRESS":"復國一路３１９號","OBJECTID":574735},"geometry":{"x":172746.1500000013,"y":2545642.0200000014}},{"attributes":{"ID":574763,"DIS_CODE":0,"TOWNNAME":"永康區","LI":"復華里","LIN":"23鄰","STREET":"復國一路","SECT":" ","MAREA":" ","LANE":" ","ALLEY":" ","HOUSE_NO":"４３８號","E_COORD97":172706.10000000001,"N_COORD97":2546044.71,"ADDRESS":"復國一路４３８號","OBJECTID":574736},"geometry":{"x":172706.0999999987,"y":2546044.7100000028}},{"attributes":{"ID":574764,"DIS_CODE":0,"TOWNNAME":"永康區","LI":"龍潭里","LIN":"23鄰","STREET":"龍中街","SECT":" ","MAREA":" ","LANE":" ","ALLEY":" ","HOUSE_NO":"１８８號","E_COORD97":174403.17000000001,"N_COORD97":2548406.8199999998,"ADDRESS":"龍中街１８８號","OBJECTID":574737},"geometry":{"x":174403.17000000086,"y":2548406.8200000022}},{"attributes":{"ID":574765,"DIS_CODE":0,"TOWNNAME":"永康區","LI":"網寮里","LIN":"23鄰","STREET":"文化路","SECT":" ","MAREA":" ","LANE":" ","ALLEY":" ","HOUSE_NO":"１７０號","E_COORD97":173803.09,"N_COORD97":2546209.1600000001,"ADDRESS":"文化路１７０號","OBJECTID":574738},"geometry":{"x":173803.08999999985,"y":2546209.1600000001}},{"attributes":{"ID":574766,"DIS_CODE":0,"TOWNNAME":"永康區","LI":"復華里","LIN":"23鄰","STREET":"復國一路","SECT":" ","MAREA":" ","LANE":" ","ALLEY":" ","HOUSE_NO":"４３６號","E_COORD97":172712.48000000001,"N_COORD97":2546036.7799999998,"ADDRESS":"復國一路４３６號","OBJECTID":574739},"geometry":{"x":172712.48000000045,"y":2546036.7800000012}},{"attributes":{"ID":574767,"DIS_CODE":0,"TOWNNAME":"永康區","LI":"三合里","LIN":"23鄰","STREET":"南工街","SECT":" ","MAREA":" ","LANE":" ","ALLEY":" ","HOUSE_NO":"３４１號","E_COORD97":171737,"N_COORD97":2546031.3599999999,"ADDRESS":"南工街３４１號","OBJECTID":574740},"geometry":{"x":171737,"y":2546031.3599999994}},{"attributes":{"ID":574768,"DIS_CODE":0,"TOWNNAME":"永康區","LI":"網寮里","LIN":"24鄰","STREET":"永和街","SECT":" ","MAREA":" ","LANE":" ","ALLEY":" ","HOUSE_NO":"２９號","E_COORD97":173766.85999999999,"N_COORD97":2546475.6400000001,"ADDRESS":"永和街２９號","OBJECTID":574741},"geometry":{"x":173766.86000000127,"y":2546475.6400000025}},{"attributes":{"ID":574769,"DIS_CODE":0,"TOWNNAME":"永康區","LI":"龍潭里","LIN":"31鄰","STREET":"中山北路","SECT":" ","MAREA":" ","LANE":" ","ALLEY":" ","HOUSE_NO":"２１２號","E_COORD97":174409.32000000001,"N_COORD97":2547541.2000000002,"ADDRESS":"中山北路２１２號","OBJECTID":574742},"geometry":{"x":174409.32000000123,"y":2547541.200000003}},{"attributes":{"ID":574770,"DIS_CODE":0,"TOWNNAME":"永康區","LI":"\u25A0洲里","LIN":"23鄰","STREET":"洲尾街","SECT":" ","MAREA":" ","LANE":" ","ALLEY":" ","HOUSE_NO":"７號","E_COORD97":171180.42000000001,"N_COORD97":2548571.5,"ADDRESS":"洲尾街７號","OBJECTID":574743},"geometry":{"x":171180.42000000179,"y":2548571.5000000019}},{"attributes":{"ID":574771,"DIS_CODE":0,"TOWNNAME":"永康區","LI":"正強里","LIN":"23鄰","STREET":"正強街","SECT":" ","MAREA":" ","LANE":" ","ALLEY":" ","HOUSE_NO":"１９５號","E_COORD97":173298.19,"N_COORD97":2547660,"ADDRESS":"正強街１９５號","OBJECTID":574744},"geometry":{"x":173298.19000000134,"y":2547660.0000000019}},{"attributes":{"ID":574772,"DIS_CODE":0,"TOWNNAME":"永康區","LI":"復華里","LIN":"23鄰","STREET":"復華八街","SECT":" ","MAREA":" ","LANE":" ","ALLEY":" ","HOUSE_NO":"４２號","E_COORD97":172717.89999999999,"N_COORD97":2546212.7799999998,"ADDRESS":"復華八街４２號","OBJECTID":574745},"geometry":{"x":172717.90000000037,"y":2546212.7800000012}},{"attributes":{"ID":574773,"DIS_CODE":0,"TOWNNAME":"永康區","LI":"復國里","LIN":"23鄰","STREET":"復華三街","SECT":" ","MAREA":" ","LANE":" ","ALLEY":" ","HOUSE_NO":"９４號","E_COORD97":172588.53,"N_COORD97":2545568.77,"ADDRESS":"復華三街９４號","OBJECTID":574746},"geometry":{"x":172588.52999999933,"y":2545568.7700000014}},{"attributes":{"ID":574774,"DIS_CODE":0,"TOWNNAME":"永康區","LI":"三合里","LIN":"23鄰","STREET":"中山東路","SECT":" ","MAREA":" ","LANE":" ","ALLEY":" ","HOUSE_NO":"８９號","E_COORD97":171743.79000000001,"N_COORD97":2545953.3500000001,"ADDRESS":"中山東路８９號","OBJECTID":574747},"geometry":{"x":171743.79000000004,"y":2545953.3499999996}},{"attributes":{"ID":574775,"DIS_CODE":0,"TOWNNAME":"永康區","LI":"三合里","LIN":"23鄰","STREET":"中山東路","SECT":" ","MAREA":" ","LANE":" ","ALLEY":" ","HOUSE_NO":"６７號","E_COORD97":171727.03,"N_COORD97":2546003.7799999998,"ADDRESS":"中山東路６７號","OBJECTID":574748},"geometry":{"x":171727.03000000026,"y":2546003.7799999993}},{"attributes":{"ID":574776,"DIS_CODE":0,"TOWNNAME":"永康區","LI":"大灣里","LIN":"23鄰","STREET":"大灣路","SECT":" ","MAREA":" ","LANE":" ","ALLEY":" ","HOUSE_NO":"２４７號","E_COORD97":174926.20999999999,"N_COORD97":2545224.1600000001,"ADDRESS":"大灣路２４７號","OBJECTID":574749},"geometry":{"x":174926.20999999996,"y":2545224.160000002}},{"attributes":{"ID":574777,"DIS_CODE":0,"TOWNNAME":"永康區","LI":"蔦松里","LIN":"2鄰","STREET":"中正北路","SECT":" ","MAREA":" ","LANE":" ","ALLEY":" ","HOUSE_NO":"５２３之７號","E_COORD97":173864.92999999999,"N_COORD97":2549182.04,"ADDRESS":"中正北路５２３之７號","OBJECTID":574750},"geometry":{"x":173864.9299999997,"y":2549182.0399999991}},{"attributes":{"ID":574778,"DIS_CODE":0,"TOWNNAME":"永康區","LI":"復華里","LIN":"39鄰","STREET":"復國一路","SECT":" ","MAREA":" ","LANE":" ","ALLEY":" ","HOUSE_NO":"３７７號","E_COORD97":172757.70999999999,"N_COORD97":2545912,"ADDRESS":"復國一路３７７號","OBJECTID":574751},"geometry":{"x":172757.70999999996,"y":2545912}},{"attributes":{"ID":574779,"DIS_CODE":0,"TOWNNAME":"永康區","LI":"復華里","LIN":"41鄰","STREET":"復華六街","SECT":" ","MAREA":" ","LANE":" ","ALLEY":" ","HOUSE_NO":"９６號","E_COORD97":172634.16,"N_COORD97":2545857.3399999999,"ADDRESS":"復華六街９６號","OBJECTID":574752},"geometry":{"x":172634.16000000108,"y":2545857.3400000017}},{"attributes":{"ID":574780,"DIS_CODE":0,"TOWNNAME":"永康區","LI":"龍潭里","LIN":"44鄰","STREET":"永平街","SECT":" ","MAREA":" ","LANE":" ","ALLEY":" ","HOUSE_NO":"２８６之２３號","E_COORD97":174685.5,"N_COORD97":2547069.2999999998,"ADDRESS":"永平街２８６之２３號","OBJECTID":574753},"geometry":{"x":174685.50000000186,"y":2547069.3000000007}},{"attributes":{"ID":574781,"DIS_CODE":0,"TOWNNAME":"永康區","LI":"三合里","LIN":"23鄰","STREET":"中山東路","SECT":" ","MAREA":" ","LANE":" ","ALLEY":" ","HOUSE_NO":"９３號","E_COORD97":171746.60000000001,"N_COORD97":2545944.8500000001,"ADDRESS":"中山東路９３號","OBJECTID":574754},"geometry":{"x":171746.5999999987,"y":2545944.8500000015}},{"attributes":{"ID":574782,"DIS_CODE":0,"TOWNNAME":"永康區","LI":"三合里","LIN":"23鄰","STREET":"南工街","SECT":" ","MAREA":" ","LANE":" ","ALLEY":" ","HOUSE_NO":"３１７號","E_COORD97":171799.67000000001,"N_COORD97":2546049.27,"ADDRESS":"南工街３１７號","OBJECTID":574755},"geometry":{"x":171799.67000000086,"y":2546049.2700000033}},{"attributes":{"ID":574783,"DIS_CODE":0,"TOWNNAME":"永康區","LI":"三合里","LIN":"23鄰","STREET":"南工街","SECT":" ","MAREA":" ","LANE":" ","ALLEY":" ","HOUSE_NO":"３２７號","E_COORD97":171774.60999999999,"N_COORD97":2546041.02,"ADDRESS":"南工街３２７號","OBJECTID":574756},"geometry":{"x":171774.6100000022,"y":2546041.0200000033}},{"attributes":{"ID":574784,"DIS_CODE":0,"TOWNNAME":"永康區","LI":"三合里","LIN":"23鄰","STREET":"中山東路","SECT":" ","MAREA":" ","LANE":" ","ALLEY":" ","HOUSE_NO":"７３號","E_COORD97":171730.76999999999,"N_COORD97":2545990.7799999998,"ADDRESS":"中山東路７３號","OBJECTID":574757},"geometry":{"x":171730.77000000048,"y":2545990.7799999993}},{"attributes":{"ID":574785,"DIS_CODE":0,"TOWNNAME":"永康區","LI":"三合里","LIN":"23鄰","STREET":"南工街","SECT":" ","MAREA":" ","LANE":" ","ALLEY":" ","HOUSE_NO":"３４７號","E_COORD97":171724.41,"N_COORD97":2546027.3599999999,"ADDRESS":"南工街３４７號","OBJECTID":574758},"geometry":{"x":171724.41000000015,"y":2546027.3599999994}},{"attributes":{"ID":574786,"DIS_CODE":0,"TOWNNAME":"永康區","LI":"大灣里","LIN":"23鄰","STREET":"民族路","SECT":" ","MAREA":" ","LANE":" ","ALLEY":" ","HOUSE_NO":"３７３號","E_COORD97":174957.26000000001,"N_COORD97":2545237.8300000001,"ADDRESS":"民族路３７３號","OBJECTID":574759},"geometry":{"x":174957.26000000071,"y":2545237.8300000001}},{"attributes":{"ID":574787,"DIS_CODE":0,"TOWNNAME":"永康區","LI":"大灣里","LIN":"23鄰","STREET":"民族路","SECT":" ","MAREA":" ","LANE":" ","ALLEY":" ","HOUSE_NO":"３６９號","E_COORD97":174963.32999999999,"N_COORD97":2545230.0600000001,"ADDRESS":"民族路３６９號","OBJECTID":574760},"geometry":{"x":174963.33000000101,"y":2545230.0600000005}},{"attributes":{"ID":574788,"DIS_CODE":0,"TOWNNAME":"永康區","LI":"三合里","LIN":"23鄰","STREET":"中山東路","SECT":" ","MAREA":" ","LANE":" ","ALLEY":" ","HOUSE_NO":"７１號","E_COORD97":171729.53,"N_COORD97":2545995.2799999998,"ADDRESS":"中山東路７１號","OBJECTID":574761},"geometry":{"x":171729.53000000119,"y":2545995.2800000012}},{"attributes":{"ID":574789,"DIS_CODE":0,"TOWNNAME":"永康區","LI":"三合里","LIN":"23鄰","STREET":"南工街","SECT":" ","MAREA":" ","LANE":" ","ALLEY":" ","HOUSE_NO":"３３１號","E_COORD97":171764.66,"N_COORD97":2546038.77,"ADDRESS":"南工街３３１號","OBJECTID":574762},"geometry":{"x":171764.66000000015,"y":2546038.7699999996}},{"attributes":{"ID":574790,"DIS_CODE":0,"TOWNNAME":"永康區","LI":"龍潭里","LIN":"23鄰","STREET":"龍安街","SECT":" ","MAREA":" ","LANE":" ","ALLEY":" ","HOUSE_NO":"１４９號","E_COORD97":174611.23000000001,"N_COORD97":2548423.8199999998,"ADDRESS":"龍安街１４９號","OBJECTID":574763},"geometry":{"x":174611.23000000045,"y":2548423.8200000022}},{"attributes":{"ID":574791,"DIS_CODE":0,"TOWNNAME":"永康區","LI":"三合里","LIN":"23鄰","STREET":"南工街","SECT":" ","MAREA":" ","LANE":" ","ALLEY":" ","HOUSE_NO":"３３３號","E_COORD97":171760.16,"N_COORD97":2546037.27,"ADDRESS":"南工街３３３號","OBJECTID":574764},"geometry":{"x":171760.16000000015,"y":2546037.2700000014}},{"attributes":{"ID":574792,"DIS_CODE":0,"TOWNNAME":"永康區","LI":"三合里","LIN":"23鄰","STREET":"南工街","SECT":" ","MAREA":" ","LANE":" ","ALLEY":" ","HOUSE_NO":"３１５號","E_COORD97":171804.07000000001,"N_COORD97":2546050.02,"ADDRESS":"南工街３１５號","OBJECTID":574765},"geometry":{"x":171804.07000000123,"y":2546050.0199999996}},{"attributes":{"ID":574793,"DIS_CODE":0,"TOWNNAME":"永康區","LI":"復華里","LIN":"23鄰","STREET":"復華七街","SECT":" ","MAREA":" ","LANE":" ","ALLEY":" ","HOUSE_NO":"６５號","E_COORD97":172741.73999999999,"N_COORD97":2546066.77,"ADDRESS":"復華七街６５號","OBJECTID":574766},"geometry":{"x":172741.74000000115,"y":2546066.7700000014}},{"attributes":{"ID":574794,"DIS_CODE":0,"TOWNNAME":"永康區","LI":"大灣里","LIN":"23鄰","STREET":"民族路","SECT":" ","MAREA":" ","LANE":" ","ALLEY":" ","HOUSE_NO":"３７５號","E_COORD97":174954.06,"N_COORD97":2545241.5800000001,"ADDRESS":"民族路３７５號","OBJECTID":574767},"geometry":{"x":174954.05999999959,"y":2545241.5800000019}},{"attributes":{"ID":574795,"DIS_CODE":0,"TOWNNAME":"永康區","LI":"三合里","LIN":"23鄰","STREET":"南工街","SECT":" ","MAREA":" ","LANE":" ","ALLEY":" ","HOUSE_NO":"３３７號","E_COORD97":171750.37,"N_COORD97":2546034.77,"ADDRESS":"南工街３３７號","OBJECTID":574768},"geometry":{"x":171750.36999999918,"y":2546034.7699999996}},{"attributes":{"ID":574796,"DIS_CODE":0,"TOWNNAME":"永康區","LI":"龍潭里","LIN":"31鄰","STREET":"龍中街","SECT":" ","MAREA":" ","LANE":" ","ALLEY":" ","HOUSE_NO":"３６號","E_COORD97":174441.38,"N_COORD97":2547896.8399999999,"ADDRESS":"龍中街３６號","OBJECTID":574769},"geometry":{"x":174441.37999999989,"y":2547896.839999998}},{"attributes":{"ID":574797,"DIS_CODE":0,"TOWNNAME":"東區","LI":"東光里","LIN":"23鄰","STREET":"怡東路","SECT":" ","MAREA":" ","LANE":" ","ALLEY":" ","HOUSE_NO":"１６７號","E_COORD97":170886.12,"N_COORD97":2543883.4700000002,"ADDRESS":"怡東路１６７號","OBJECTID":574770},"geometry":{"x":170886.12000000104,"y":2543883.4700000025}},{"attributes":{"ID":574798,"DIS_CODE":0,"TOWNNAME":"東區","LI":"新東里","LIN":"23鄰","STREET":"裕豐街","SECT":" ","MAREA":" ","LANE":" ","ALLEY":" ","HOUSE_NO":"１０９號","E_COORD97":170745.88,"N_COORD97":2543006.8799999999,"ADDRESS":"裕豐街１０９號","OBJECTID":574771},"geometry":{"x":170745.87999999989,"y":2543006.8800000027}},{"attributes":{"ID":574799,"DIS_CODE":0,"TOWNNAME":"東區","LI":"新東里","LIN":"23鄰","STREET":"裕豐街","SECT":" ","MAREA":" ","LANE":" ","ALLEY":" ","HOUSE_NO":"９５號","E_COORD97":170737.88,"N_COORD97":2542970.3900000001,"ADDRESS":"裕豐街９５號","OBJECTID":574772},"geometry":{"x":170737.87999999989,"y":2542970.3900000006}},{"attributes":{"ID":574800,"DIS_CODE":0,"TOWNNAME":"東區","LI":"忠孝里","LIN":"23鄰","STREET":"崇明五街","SECT":" ","MAREA":" ","LANE":" ","ALLEY":" ","HOUSE_NO":"８號","E_COORD97":169594.07000000001,"N_COORD97":2542222.8300000001,"ADDRESS":"崇明五街８號","OBJECTID":574773},"geometry":{"x":169594.0700000003,"y":2542222.8300000019}},{"attributes":{"ID":574801,"DIS_CODE":0,"TOWNNAME":"東區","LI":"忠孝里","LIN":"23鄰","STREET":"崇明六街","SECT":" ","MAREA":" ","LANE":" ","ALLEY":" ","HOUSE_NO":"５號之４","E_COORD97":169618.14999999999,"N_COORD97":2542199.8199999998,"ADDRESS":"崇明六街５號之４","OBJECTID":574774},"geometry":{"x":169618.1500000013,"y":2542199.8200000022}},{"attributes":{"ID":574802,"DIS_CODE":0,"TOWNNAME":"東區","LI":"忠孝里","LIN":"23鄰","STREET":"崇明六街","SECT":" ","MAREA":" ","LANE":" ","ALLEY":" ","HOUSE_NO":"５號之５","E_COORD97":169622.87,"N_COORD97":2542201.3900000001,"ADDRESS":"崇明六街５號之５","OBJECTID":574775},"geometry":{"x":169622.86999999918,"y":2542201.3899999987}},{"attributes":{"ID":574803,"DIS_CODE":0,"TOWNNAME":"東區","LI":"忠孝里","LIN":"23鄰","STREET":"崇明六街","SECT":" ","MAREA":" ","LANE":" ","ALLEY":" ","HOUSE_NO":"５號之６","E_COORD97":169627.57999999999,"N_COORD97":2542203.75,"ADDRESS":"崇明六街５號之６","OBJECTID":574776},"geometry":{"x":169627.58000000007,"y":2542203.75}},{"attributes":{"ID":574804,"DIS_CODE":0,"TOWNNAME":"東區","LI":"忠孝里","LIN":"23鄰","STREET":"崇明六街","SECT":" ","MAREA":" ","LANE":" ","ALLEY":" ","HOUSE_NO":"５號之７","E_COORD97":169633.07999999999,"N_COORD97":2542205.5800000001,"ADDRESS":"崇明六街５號之７","OBJECTID":574777},"geometry":{"x":169633.08000000007,"y":2542205.5800000001}},{"attributes":{"ID":574805,"DIS_CODE":0,"TOWNNAME":"東區","LI":"忠孝里","LIN":"23鄰","STREET":"崇明六街","SECT":" ","MAREA":" ","LANE":" ","ALLEY":" ","HOUSE_NO":"５號之８","E_COORD97":169638.04999999999,"N_COORD97":2542207.6699999999,"ADDRESS":"崇明六街５號之８","OBJECTID":574778},"geometry":{"x":169638.04999999981,"y":2542207.6699999999}},{"attributes":{"ID":574806,"DIS_CODE":0,"TOWNNAME":"新市區","LI":"新和里","LIN":"23鄰","STREET":"中正路","SECT":" ","MAREA":" ","LANE":" ","ALLEY":" ","HOUSE_NO":"２１６號","E_COORD97":177429.01000000001,"N_COORD97":2552816.5,"ADDRESS":"中正路２１６號","OBJECTID":574779},"geometry":{"x":177429.00999999978,"y":2552816.5000000019}},{"attributes":{"ID":574807,"DIS_CODE":0,"TOWNNAME":"永康區","LI":"蔦松里","LIN":"9鄰","STREET":"中正北路","SECT":" ","MAREA":" ","LANE":" ","ALLEY":" ","HOUSE_NO":"５８６號","E_COORD97":174338.66,"N_COORD97":2549521.48,"ADDRESS":"中正北路５８６號","OBJECTID":574780},"geometry":{"x":174338.65999999922,"y":2549521.4800000023}},{"attributes":{"ID":574808,"DIS_CODE":0,"TOWNNAME":"新市區","LI":"新和里","LIN":"23鄰","STREET":"中正路","SECT":" ","MAREA":" ","LANE":" ","ALLEY":" ","HOUSE_NO":"１２９號","E_COORD97":177386.62,"N_COORD97":2552723.75,"ADDRESS":"中正路１２９號","OBJECTID":574781},"geometry":{"x":177386.62000000011,"y":2552723.7500000019}},{"attributes":{"ID":574809,"DIS_CODE":0,"TOWNNAME":"新市區","LI":"新和里","LIN":"23鄰","STREET":"中正路","SECT":" ","MAREA":" ","LANE":" ","ALLEY":" ","HOUSE_NO":"１４１號","E_COORD97":177389.01000000001,"N_COORD97":2552760,"ADDRESS":"中正路１４１號","OBJECTID":574782},"geometry":{"x":177389.01000000164,"y":2552760}},{"attributes":{"ID":574810,"DIS_CODE":0,"TOWNNAME":"新市區","LI":"新和里","LIN":"23鄰","STREET":"中正路","SECT":" ","MAREA":" ","LANE":" ","ALLEY":" ","HOUSE_NO":"１３５號","E_COORD97":177388.37,"N_COORD97":2552736.5,"ADDRESS":"中正路１３５號","OBJECTID":574783},"geometry":{"x":177388.37000000011,"y":2552736.5}},{"attributes":{"ID":574811,"DIS_CODE":0,"TOWNNAME":"仁德區","LI":"太子里","LIN":"23鄰","STREET":"太子路","SECT":" ","MAREA":" ","LANE":" ","ALLEY":" ","HOUSE_NO":"３５６號","E_COORD97":173769.95999999999,"N_COORD97":2543537.0099999998,"ADDRESS":"太子路３５６號","OBJECTID":574784},"geometry":{"x":173769.95999999996,"y":2543537.0100000016}},{"attributes":{"ID":574812,"DIS_CODE":0,"TOWNNAME":"仁德區","LI":"太子里","LIN":"23鄰","STREET":"太子路","SECT":" ","MAREA":" ","LANE":" ","ALLEY":" ","HOUSE_NO":"３６８號","E_COORD97":173744.35000000001,"N_COORD97":2543535.5099999998,"ADDRESS":"太子路３６８號","OBJECTID":574785},"geometry":{"x":173744.35000000056,"y":2543535.5099999979}},{"attributes":{"ID":574813,"DIS_CODE":0,"TOWNNAME":"仁德區","LI":"太子里","LIN":"23鄰","STREET":"長興五街","SECT":" ","MAREA":" ","LANE":" ","ALLEY":" ","HOUSE_NO":"３９號","E_COORD97":173548.07000000001,"N_COORD97":2543653.2599999998,"ADDRESS":"長興五街３９號","OBJECTID":574786},"geometry":{"x":173548.07000000123,"y":2543653.2600000016}},{"attributes":{"ID":574814,"DIS_CODE":0,"TOWNNAME":"永康區","LI":"復華里","LIN":"4鄰","STREET":"復國二路","SECT":" ","MAREA":" ","LANE":" ","ALLEY":" ","HOUSE_NO":"２５５號","E_COORD97":173024.82000000001,"N_COORD97":2546153.77,"ADDRESS":"復國二路２５５號","OBJECTID":574787},"geometry":{"x":173024.82000000123,"y":2546153.7699999996}},{"attributes":{"ID":574815,"DIS_CODE":0,"TOWNNAME":"永康區","LI":"龍潭里","LIN":"31鄰","STREET":"中山北路","SECT":" ","MAREA":" ","LANE":" ","ALLEY":" ","HOUSE_NO":"１８６號","E_COORD97":174341.35000000001,"N_COORD97":2547532.8900000001,"ADDRESS":"中山北路１８６號","OBJECTID":574788},"geometry":{"x":174341.34999999963,"y":2547532.8900000025}},{"attributes":{"ID":574816,"DIS_CODE":0,"TOWNNAME":"永康區","LI":"龍潭里","LIN":"44鄰","STREET":"永平街","SECT":" ","MAREA":" ","LANE":" ","ALLEY":" ","HOUSE_NO":"２８２之３號","E_COORD97":174657.42000000001,"N_COORD97":2547013.54,"ADDRESS":"永平街２８２之３號","OBJECTID":574789},"geometry":{"x":174657.42000000086,"y":2547013.5400000028}},{"attributes":{"ID":574817,"DIS_CODE":0,"TOWNNAME":"仁德區","LI":"太子里","LIN":"23鄰","STREET":"太子路","SECT":" ","MAREA":" ","LANE":" ","ALLEY":" ","HOUSE_NO":"３５８號","E_COORD97":173765.39000000001,"N_COORD97":2543537.2599999998,"ADDRESS":"太子路３５８號","OBJECTID":574790},"geometry":{"x":173765.39000000153,"y":2543537.2599999979}},{"attributes":{"ID":574818,"DIS_CODE":0,"TOWNNAME":"仁德區","LI":"仁德里","LIN":"23鄰","STREET":"文善街","SECT":" ","MAREA":" ","LANE":" ","ALLEY":" ","HOUSE_NO":"１０７號","E_COORD97":172326.95999999999,"N_COORD97":2541480.8300000001,"ADDRESS":"文善街１０７號","OBJECTID":574791},"geometry":{"x":172326.95999999996,"y":2541480.8300000019}},{"attributes":{"ID":574819,"DIS_CODE":0,"TOWNNAME":"仁德區","LI":"太子里","LIN":"23鄰","STREET":"太子路","SECT":" ","MAREA":" ","LANE":" ","ALLEY":" ","HOUSE_NO":"３７０號","E_COORD97":173740.60999999999,"N_COORD97":2543535.7599999998,"ADDRESS":"太子路３７０號","OBJECTID":574792},"geometry":{"x":173740.61000000034,"y":2543535.7599999998}},{"attributes":{"ID":574820,"DIS_CODE":0,"TOWNNAME":"仁德區","LI":"太子里","LIN":"23鄰","STREET":"太子路","SECT":" ","MAREA":" ","LANE":" ","ALLEY":" ","HOUSE_NO":"３６４號","E_COORD97":173751.22,"N_COORD97":2543539.0099999998,"ADDRESS":"太子路３６４號","OBJECTID":574793},"geometry":{"x":173751.21999999974,"y":2543539.0100000035}},{"attributes":{"ID":574821,"DIS_CODE":0,"TOWNNAME":"永康區","LI":"復華里","LIN":"16鄰","STREET":"復華七街","SECT":" ","MAREA":" ","LANE":" ","ALLEY":" ","HOUSE_NO":"１００號","E_COORD97":172851.72,"N_COORD97":2546149.1699999999,"ADDRESS":"復華七街１００號","OBJECTID":574794},"geometry":{"x":172851.72000000067,"y":2546149.1700000018}},{"attributes":{"ID":574822,"DIS_CODE":0,"TOWNNAME":"永康區","LI":"復華里","LIN":"22鄰","STREET":"復華七街","SECT":" ","MAREA":" ","LANE":" ","ALLEY":" ","HOUSE_NO":"９７號","E_COORD97":172806.98999999999,"N_COORD97":2546130.5499999998,"ADDRESS":"復華七街９７號","OBJECTID":574795},"geometry":{"x":172806.99000000022,"y":2546130.5500000026}},{"attributes":{"ID":574823,"DIS_CODE":0,"TOWNNAME":"永康區","LI":"復華里","LIN":"39鄰","STREET":"復國一路","SECT":" ","MAREA":" ","LANE":" ","ALLEY":" ","HOUSE_NO":"４０９號","E_COORD97":172730.25,"N_COORD97":2545982.02,"ADDRESS":"復國一路４０９號","OBJECTID":574796},"geometry":{"x":172730.25,"y":2545982.0199999996}},{"attributes":{"ID":574824,"DIS_CODE":0,"TOWNNAME":"永康區","LI":"龍潭里","LIN":"32鄰","STREET":"龍中街","SECT":" ","MAREA":" ","LANE":" ","ALLEY":" ","HOUSE_NO":"４６號之２","E_COORD97":174456.42000000001,"N_COORD97":2547955.0899999999,"ADDRESS":"龍中街４６號之２","OBJECTID":574797},"geometry":{"x":174456.41999999993,"y":2547955.0899999999}},{"attributes":{"ID":574825,"DIS_CODE":0,"TOWNNAME":"永康區","LI":"網寮里","LIN":"24鄰","STREET":"永春街","SECT":" ","MAREA":" ","LANE":" ","ALLEY":" ","HOUSE_NO":"４７號","E_COORD97":173732.95999999999,"N_COORD97":2546407.6499999999,"ADDRESS":"永春街４７號","OBJECTID":574798},"geometry":{"x":173732.95999999903,"y":2546407.6500000022}},{"attributes":{"ID":574826,"DIS_CODE":0,"TOWNNAME":"永康區","LI":"龍潭里","LIN":"44鄰","STREET":"永平街","SECT":" ","MAREA":" ","LANE":" ","ALLEY":" ","HOUSE_NO":"２８６之７號","E_COORD97":174684.25,"N_COORD97":2547069.2999999998,"ADDRESS":"永平街２８６之７號","OBJECTID":574799},"geometry":{"x":174684.25000000093,"y":2547069.3000000007}},{"attributes":{"ID":574827,"DIS_CODE":0,"TOWNNAME":"永康區","LI":"復國里","LIN":"21鄰","STREET":"復華六街","SECT":" ","MAREA":" ","LANE":" ","ALLEY":" ","HOUSE_NO":"１１５號","E_COORD97":172565.20999999999,"N_COORD97":2545835.1699999999,"ADDRESS":"復華六街１１５號","OBJECTID":574800},"geometry":{"x":172565.21000000183,"y":2545835.1700000018}}]}