{"displayFieldName":"TOWNNAME","fieldAliases":{"ID":"ID","DIS_CODE":"DIS_CODE","TOWNNAME":"TOWNNAME","LI":"LI","LIN":"LIN","STREET":"STREET","SECT":"SECT","MAREA":"MAREA","LANE":"LANE","ALLEY":"ALLEY","HOUSE_NO":"HOUSE_NO","E_COORD97":"E_COORD97","N_COORD97":"N_COORD97","ADDRESS":"ADDRESS","OBJECTID":"OBJECTID"},"geometryType":"esriGeometryPoint","spatialReference":{"wkid":102443,"latestWkid":3826},"fields":[{"name":"ID","type":"esriFieldTypeDouble","alias":"ID"},{"name":"DIS_CODE","type":"esriFieldTypeInteger","alias":"DIS_CODE"},{"name":"TOWNNAME","type":"esriFieldTypeString","alias":"TOWNNAME","length":8},{"name":"LI","type":"esriFieldTypeString","alias":"LI","length":8},{"name":"LIN","type":"esriFieldTypeString","alias":"LIN","length":12},{"name":"STREET","type":"esriFieldTypeString","alias":"STREET","length":20},{"name":"SECT","type":"esriFieldTypeString","alias":"SECT","length":8},{"name":"MAREA","type":"esriFieldTypeString","alias":"MAREA","length":12},{"name":"LANE","type":"esriFieldTypeString","alias":"LANE","length":10},{"name":"ALLEY","type":"esriFieldTypeString","alias":"ALLEY","length":10},{"name":"HOUSE_NO","type":"esriFieldTypeString","alias":"HOUSE_NO","length":20},{"name":"E_COORD97","type":"esriFieldTypeDouble","alias":"E_COORD97"},{"name":"N_COORD97","type":"esriFieldTypeDouble","alias":"N_COORD97"},{"name":"ADDRESS","type":"esriFieldTypeString","alias":"ADDRESS","length":50},{"name":"OBJECTID","type":"esriFieldTypeOID","alias":"OBJECTID"}],"features":[{"attributes":{"ID":593228,"DIS_CODE":0,"TOWNNAME":"東區","LI":"崇德里","LIN":"11鄰","STREET":"崇德十一街","SECT":" ","MAREA":" ","LANE":" ","ALLEY":" ","HOUSE_NO":"５３號四樓","E_COORD97":170949.94,"N_COORD97":2541481.4100000001,"ADDRESS":"崇德十一街５３號四樓","OBJECTID":593201},"geometry":{"x":170949.94000000041,"y":2541481.4100000001}},{"attributes":{"ID":593229,"DIS_CODE":0,"TOWNNAME":"東區","LI":"崇德里","LIN":"11鄰","STREET":"崇德十一街","SECT":" ","MAREA":" ","LANE":" ","ALLEY":" ","HOUSE_NO":"５５號三樓","E_COORD97":170952.42999999999,"N_COORD97":2541474.6000000001,"ADDRESS":"崇德十一街５５號三樓","OBJECTID":593202},"geometry":{"x":170952.4299999997,"y":2541474.6000000015}},{"attributes":{"ID":593230,"DIS_CODE":0,"TOWNNAME":"東區","LI":"崇德里","LIN":"11鄰","STREET":"崇德十一街","SECT":" ","MAREA":" ","LANE":" ","ALLEY":" ","HOUSE_NO":"５５號五樓","E_COORD97":170952.42999999999,"N_COORD97":2541474.6000000001,"ADDRESS":"崇德十一街５５號五樓","OBJECTID":593203},"geometry":{"x":170952.4299999997,"y":2541474.6000000015}},{"attributes":{"ID":593231,"DIS_CODE":0,"TOWNNAME":"東區","LI":"崇德里","LIN":"11鄰","STREET":"崇德十一街","SECT":" ","MAREA":" ","LANE":" ","ALLEY":" ","HOUSE_NO":"５５號六樓","E_COORD97":170952.42999999999,"N_COORD97":2541474.6000000001,"ADDRESS":"崇德十一街５５號六樓","OBJECTID":593204},"geometry":{"x":170952.4299999997,"y":2541474.6000000015}},{"attributes":{"ID":593232,"DIS_CODE":0,"TOWNNAME":"東區","LI":"崇德里","LIN":"11鄰","STREET":"崇德十一街","SECT":" ","MAREA":" ","LANE":" ","ALLEY":" ","HOUSE_NO":"５５號四樓","E_COORD97":170952.42999999999,"N_COORD97":2541474.6000000001,"ADDRESS":"崇德十一街５５號四樓","OBJECTID":593205},"geometry":{"x":170952.4299999997,"y":2541474.6000000015}},{"attributes":{"ID":593233,"DIS_CODE":0,"TOWNNAME":"東區","LI":"崇德里","LIN":"11鄰","STREET":"崇德十一街","SECT":" ","MAREA":" ","LANE":" ","ALLEY":" ","HOUSE_NO":"４５號五樓","E_COORD97":170931.25,"N_COORD97":2541469.54,"ADDRESS":"崇德十一街４５號五樓","OBJECTID":593206},"geometry":{"x":170931.25000000093,"y":2541469.5399999991}},{"attributes":{"ID":593234,"DIS_CODE":0,"TOWNNAME":"東區","LI":"崇德里","LIN":"11鄰","STREET":"崇德十一街","SECT":" ","MAREA":" ","LANE":" ","ALLEY":" ","HOUSE_NO":"４９號三樓","E_COORD97":170932.66,"N_COORD97":2541481.4100000001,"ADDRESS":"崇德十一街４９號三樓","OBJECTID":593207},"geometry":{"x":170932.66000000015,"y":2541481.4100000001}},{"attributes":{"ID":593235,"DIS_CODE":0,"TOWNNAME":"北區","LI":"安民里","LIN":"11鄰","STREET":"國華街","SECT":"四段","MAREA":" ","LANE":" ","ALLEY":" ","HOUSE_NO":"１６號","E_COORD97":168027.70000000001,"N_COORD97":2544596.2799999998,"ADDRESS":"國華街四段１６號","OBJECTID":593208},"geometry":{"x":168027.70000000112,"y":2544596.2800000012}},{"attributes":{"ID":593236,"DIS_CODE":0,"TOWNNAME":"北區","LI":"安民里","LIN":"11鄰","STREET":"國華街","SECT":"四段","MAREA":" ","LANE":" ","ALLEY":" ","HOUSE_NO":"２５號","E_COORD97":168025.85000000001,"N_COORD97":2544628.7200000002,"ADDRESS":"國華街四段２５號","OBJECTID":593209},"geometry":{"x":168025.85000000149,"y":2544628.7200000007}},{"attributes":{"ID":593237,"DIS_CODE":0,"TOWNNAME":"中西區","LI":"民權里","LIN":"11鄰","STREET":"民權路","SECT":"三段","MAREA":" ","LANE":" ","ALLEY":" ","HOUSE_NO":"１８２之３號四樓之１","E_COORD97":167539.26000000001,"N_COORD97":2544265.73,"ADDRESS":"民權路三段１８２之３號四樓之１","OBJECTID":593210},"geometry":{"x":167539.25999999978,"y":2544265.7300000004}},{"attributes":{"ID":593238,"DIS_CODE":0,"TOWNNAME":"中西區","LI":"民權里","LIN":"11鄰","STREET":"民權路","SECT":"三段","MAREA":" ","LANE":" ","ALLEY":" ","HOUSE_NO":"１８２號之１四樓之３","E_COORD97":167533.26000000001,"N_COORD97":2544251.4300000002,"ADDRESS":"民權路三段１８２號之１四樓之３","OBJECTID":593211},"geometry":{"x":167533.26000000164,"y":2544251.4300000034}},{"attributes":{"ID":593239,"DIS_CODE":0,"TOWNNAME":"東區","LI":"崇善里","LIN":"11鄰","STREET":"崇善八街","SECT":" ","MAREA":" ","LANE":" ","ALLEY":" ","HOUSE_NO":"１８號三樓","E_COORD97":171113.28,"N_COORD97":2541372.96,"ADDRESS":"崇善八街１８號三樓","OBJECTID":593212},"geometry":{"x":171113.28000000026,"y":2541372.9600000009}},{"attributes":{"ID":593240,"DIS_CODE":0,"TOWNNAME":"東區","LI":"崇善里","LIN":"11鄰","STREET":"崇善八街","SECT":" ","MAREA":" ","LANE":" ","ALLEY":" ","HOUSE_NO":"１８號五樓","E_COORD97":171113.28,"N_COORD97":2541372.96,"ADDRESS":"崇善八街１８號五樓","OBJECTID":593213},"geometry":{"x":171113.28000000026,"y":2541372.9600000009}},{"attributes":{"ID":593241,"DIS_CODE":0,"TOWNNAME":"東區","LI":"崇善里","LIN":"11鄰","STREET":"崇善八街","SECT":" ","MAREA":" ","LANE":" ","ALLEY":" ","HOUSE_NO":"１８號四樓","E_COORD97":171113.28,"N_COORD97":2541372.96,"ADDRESS":"崇善八街１８號四樓","OBJECTID":593214},"geometry":{"x":171113.28000000026,"y":2541372.9600000009}},{"attributes":{"ID":593242,"DIS_CODE":0,"TOWNNAME":"東區","LI":"崇善里","LIN":"11鄰","STREET":"崇善八街","SECT":" ","MAREA":" ","LANE":" ","ALLEY":" ","HOUSE_NO":"１８號二樓","E_COORD97":171113.28,"N_COORD97":2541372.96,"ADDRESS":"崇善八街１８號二樓","OBJECTID":593215},"geometry":{"x":171113.28000000026,"y":2541372.9600000009}},{"attributes":{"ID":593243,"DIS_CODE":0,"TOWNNAME":"東區","LI":"和平里","LIN":"11鄰","STREET":"仁和路","SECT":" ","MAREA":" ","LANE":" ","ALLEY":" ","HOUSE_NO":"９５號四樓之２","E_COORD97":171315.45999999999,"N_COORD97":2541408.8900000001,"ADDRESS":"仁和路９５號四樓之２","OBJECTID":593216},"geometry":{"x":171315.45999999996,"y":2541408.8900000025}},{"attributes":{"ID":593244,"DIS_CODE":0,"TOWNNAME":"東區","LI":"和平里","LIN":"11鄰","STREET":"仁和路","SECT":" ","MAREA":" ","LANE":" ","ALLEY":" ","HOUSE_NO":"９５號四樓之５","E_COORD97":171315.45999999999,"N_COORD97":2541408.8900000001,"ADDRESS":"仁和路９５號四樓之５","OBJECTID":593217},"geometry":{"x":171315.45999999996,"y":2541408.8900000025}},{"attributes":{"ID":593245,"DIS_CODE":0,"TOWNNAME":"東區","LI":"和平里","LIN":"11鄰","STREET":"仁和路","SECT":" ","MAREA":" ","LANE":" ","ALLEY":" ","HOUSE_NO":"９５號四樓之６","E_COORD97":171315.45999999999,"N_COORD97":2541408.8900000001,"ADDRESS":"仁和路９５號四樓之６","OBJECTID":593218},"geometry":{"x":171315.45999999996,"y":2541408.8900000025}},{"attributes":{"ID":593246,"DIS_CODE":0,"TOWNNAME":"東區","LI":"和平里","LIN":"11鄰","STREET":"仁和路","SECT":" ","MAREA":" ","LANE":" ","ALLEY":" ","HOUSE_NO":"９５號四樓之３","E_COORD97":171315.45999999999,"N_COORD97":2541408.8900000001,"ADDRESS":"仁和路９５號四樓之３","OBJECTID":593219},"geometry":{"x":171315.45999999996,"y":2541408.8900000025}},{"attributes":{"ID":593247,"DIS_CODE":0,"TOWNNAME":"東區","LI":"和平里","LIN":"11鄰","STREET":"仁和路","SECT":" ","MAREA":" ","LANE":" ","ALLEY":" ","HOUSE_NO":"９３號之１四樓","E_COORD97":171294.48999999999,"N_COORD97":2541448.75,"ADDRESS":"仁和路９３號之１四樓","OBJECTID":593220},"geometry":{"x":171294.49000000115,"y":2541448.75}},{"attributes":{"ID":593248,"DIS_CODE":0,"TOWNNAME":"東區","LI":"和平里","LIN":"11鄰","STREET":"仁和路","SECT":" ","MAREA":" ","LANE":" ","ALLEY":" ","HOUSE_NO":"９３號之１五樓","E_COORD97":171294.48999999999,"N_COORD97":2541448.75,"ADDRESS":"仁和路９３號之１五樓","OBJECTID":593221},"geometry":{"x":171294.49000000115,"y":2541448.75}},{"attributes":{"ID":593249,"DIS_CODE":0,"TOWNNAME":"東區","LI":"和平里","LIN":"11鄰","STREET":"仁和路","SECT":" ","MAREA":" ","LANE":" ","ALLEY":" ","HOUSE_NO":"９３號之１六樓","E_COORD97":171294.48999999999,"N_COORD97":2541448.75,"ADDRESS":"仁和路９３號之１六樓","OBJECTID":593222},"geometry":{"x":171294.49000000115,"y":2541448.75}},{"attributes":{"ID":593250,"DIS_CODE":0,"TOWNNAME":"東區","LI":"和平里","LIN":"11鄰","STREET":"仁和路","SECT":" ","MAREA":" ","LANE":" ","ALLEY":" ","HOUSE_NO":"９３號之１七樓","E_COORD97":171294.48999999999,"N_COORD97":2541448.75,"ADDRESS":"仁和路９３號之１七樓","OBJECTID":593223},"geometry":{"x":171294.49000000115,"y":2541448.75}},{"attributes":{"ID":593251,"DIS_CODE":0,"TOWNNAME":"東區","LI":"和平里","LIN":"11鄰","STREET":"仁和路","SECT":" ","MAREA":" ","LANE":" ","ALLEY":" ","HOUSE_NO":"９３號之１八樓","E_COORD97":171294.48999999999,"N_COORD97":2541448.75,"ADDRESS":"仁和路９３號之１八樓","OBJECTID":593224},"geometry":{"x":171294.49000000115,"y":2541448.75}},{"attributes":{"ID":593252,"DIS_CODE":0,"TOWNNAME":"東區","LI":"和平里","LIN":"11鄰","STREET":"仁和路","SECT":" ","MAREA":" ","LANE":" ","ALLEY":" ","HOUSE_NO":"９３號之１九樓","E_COORD97":171294.48999999999,"N_COORD97":2541448.75,"ADDRESS":"仁和路９３號之１九樓","OBJECTID":593225},"geometry":{"x":171294.49000000115,"y":2541448.75}},{"attributes":{"ID":593253,"DIS_CODE":0,"TOWNNAME":"東區","LI":"和平里","LIN":"11鄰","STREET":"仁和路","SECT":" ","MAREA":" ","LANE":" ","ALLEY":" ","HOUSE_NO":"９３號之１四樓之１","E_COORD97":171294.48999999999,"N_COORD97":2541448.75,"ADDRESS":"仁和路９３號之１四樓之１","OBJECTID":593226},"geometry":{"x":171294.49000000115,"y":2541448.75}},{"attributes":{"ID":593254,"DIS_CODE":0,"TOWNNAME":"東區","LI":"和平里","LIN":"11鄰","STREET":"仁和路","SECT":" ","MAREA":" ","LANE":" ","ALLEY":" ","HOUSE_NO":"９３號之１五樓之１","E_COORD97":171294.48999999999,"N_COORD97":2541448.75,"ADDRESS":"仁和路９３號之１五樓之１","OBJECTID":593227},"geometry":{"x":171294.49000000115,"y":2541448.75}},{"attributes":{"ID":593255,"DIS_CODE":0,"TOWNNAME":"東區","LI":"和平里","LIN":"11鄰","STREET":"仁和路","SECT":" ","MAREA":" ","LANE":" ","ALLEY":" ","HOUSE_NO":"９３號之１六樓之１","E_COORD97":171294.48999999999,"N_COORD97":2541448.75,"ADDRESS":"仁和路９３號之１六樓之１","OBJECTID":593228},"geometry":{"x":171294.49000000115,"y":2541448.75}},{"attributes":{"ID":593256,"DIS_CODE":0,"TOWNNAME":"東區","LI":"和平里","LIN":"11鄰","STREET":"仁和路","SECT":" ","MAREA":" ","LANE":" ","ALLEY":" ","HOUSE_NO":"９３號之１七樓之１","E_COORD97":171294.48999999999,"N_COORD97":2541448.75,"ADDRESS":"仁和路９３號之１七樓之１","OBJECTID":593229},"geometry":{"x":171294.49000000115,"y":2541448.75}},{"attributes":{"ID":593257,"DIS_CODE":0,"TOWNNAME":"東區","LI":"和平里","LIN":"11鄰","STREET":"仁和路","SECT":" ","MAREA":" ","LANE":" ","ALLEY":" ","HOUSE_NO":"９３號之１八樓之１","E_COORD97":171294.48999999999,"N_COORD97":2541448.75,"ADDRESS":"仁和路９３號之１八樓之１","OBJECTID":593230},"geometry":{"x":171294.49000000115,"y":2541448.75}},{"attributes":{"ID":593258,"DIS_CODE":0,"TOWNNAME":"東區","LI":"和平里","LIN":"11鄰","STREET":"仁和路","SECT":" ","MAREA":" ","LANE":" ","ALLEY":" ","HOUSE_NO":"９３號之１九樓之１","E_COORD97":171294.48999999999,"N_COORD97":2541448.75,"ADDRESS":"仁和路９３號之１九樓之１","OBJECTID":593231},"geometry":{"x":171294.49000000115,"y":2541448.75}},{"attributes":{"ID":593259,"DIS_CODE":0,"TOWNNAME":"東區","LI":"和平里","LIN":"11鄰","STREET":"仁和路","SECT":" ","MAREA":" ","LANE":" ","ALLEY":" ","HOUSE_NO":"９３號之１四樓之２","E_COORD97":171294.48999999999,"N_COORD97":2541448.75,"ADDRESS":"仁和路９３號之１四樓之２","OBJECTID":593232},"geometry":{"x":171294.49000000115,"y":2541448.75}},{"attributes":{"ID":593260,"DIS_CODE":0,"TOWNNAME":"東區","LI":"和平里","LIN":"11鄰","STREET":"仁和路","SECT":" ","MAREA":" ","LANE":" ","ALLEY":" ","HOUSE_NO":"９３號之１五樓之２","E_COORD97":171294.48999999999,"N_COORD97":2541448.75,"ADDRESS":"仁和路９３號之１五樓之２","OBJECTID":593233},"geometry":{"x":171294.49000000115,"y":2541448.75}},{"attributes":{"ID":593261,"DIS_CODE":0,"TOWNNAME":"東區","LI":"和平里","LIN":"11鄰","STREET":"仁和路","SECT":" ","MAREA":" ","LANE":" ","ALLEY":" ","HOUSE_NO":"９３號之１六樓之２","E_COORD97":171294.48999999999,"N_COORD97":2541448.75,"ADDRESS":"仁和路９３號之１六樓之２","OBJECTID":593234},"geometry":{"x":171294.49000000115,"y":2541448.75}},{"attributes":{"ID":593262,"DIS_CODE":0,"TOWNNAME":"東區","LI":"和平里","LIN":"11鄰","STREET":"仁和路","SECT":" ","MAREA":" ","LANE":" ","ALLEY":" ","HOUSE_NO":"９３號之１七樓之２","E_COORD97":171294.48999999999,"N_COORD97":2541448.75,"ADDRESS":"仁和路９３號之１七樓之２","OBJECTID":593235},"geometry":{"x":171294.49000000115,"y":2541448.75}},{"attributes":{"ID":593263,"DIS_CODE":0,"TOWNNAME":"東區","LI":"和平里","LIN":"11鄰","STREET":"仁和路","SECT":" ","MAREA":" ","LANE":" ","ALLEY":" ","HOUSE_NO":"９３號之１八樓之２","E_COORD97":171294.48999999999,"N_COORD97":2541448.75,"ADDRESS":"仁和路９３號之１八樓之２","OBJECTID":593236},"geometry":{"x":171294.49000000115,"y":2541448.75}},{"attributes":{"ID":593264,"DIS_CODE":0,"TOWNNAME":"東區","LI":"和平里","LIN":"11鄰","STREET":"仁和路","SECT":" ","MAREA":" ","LANE":" ","ALLEY":" ","HOUSE_NO":"９３號之１九樓之２","E_COORD97":171294.48999999999,"N_COORD97":2541448.75,"ADDRESS":"仁和路９３號之１九樓之２","OBJECTID":593237},"geometry":{"x":171294.49000000115,"y":2541448.75}},{"attributes":{"ID":593265,"DIS_CODE":0,"TOWNNAME":"東區","LI":"和平里","LIN":"11鄰","STREET":"仁和路","SECT":" ","MAREA":" ","LANE":" ","ALLEY":" ","HOUSE_NO":"９３號之１四樓之３","E_COORD97":171294.48999999999,"N_COORD97":2541448.75,"ADDRESS":"仁和路９３號之１四樓之３","OBJECTID":593238},"geometry":{"x":171294.49000000115,"y":2541448.75}},{"attributes":{"ID":593266,"DIS_CODE":0,"TOWNNAME":"東區","LI":"和平里","LIN":"11鄰","STREET":"仁和路","SECT":" ","MAREA":" ","LANE":" ","ALLEY":" ","HOUSE_NO":"９３號之１五樓之３","E_COORD97":171294.48999999999,"N_COORD97":2541448.75,"ADDRESS":"仁和路９３號之１五樓之３","OBJECTID":593239},"geometry":{"x":171294.49000000115,"y":2541448.75}},{"attributes":{"ID":593267,"DIS_CODE":0,"TOWNNAME":"東區","LI":"和平里","LIN":"11鄰","STREET":"仁和路","SECT":" ","MAREA":" ","LANE":" ","ALLEY":" ","HOUSE_NO":"９３號之１六樓之３","E_COORD97":171294.48999999999,"N_COORD97":2541448.75,"ADDRESS":"仁和路９３號之１六樓之３","OBJECTID":593240},"geometry":{"x":171294.49000000115,"y":2541448.75}},{"attributes":{"ID":593268,"DIS_CODE":0,"TOWNNAME":"東區","LI":"和平里","LIN":"11鄰","STREET":"仁和路","SECT":" ","MAREA":" ","LANE":" ","ALLEY":" ","HOUSE_NO":"９３號之１七樓之３","E_COORD97":171294.48999999999,"N_COORD97":2541448.75,"ADDRESS":"仁和路９３號之１七樓之３","OBJECTID":593241},"geometry":{"x":171294.49000000115,"y":2541448.75}},{"attributes":{"ID":593269,"DIS_CODE":0,"TOWNNAME":"東區","LI":"和平里","LIN":"11鄰","STREET":"仁和路","SECT":" ","MAREA":" ","LANE":" ","ALLEY":" ","HOUSE_NO":"９３號之１八樓之３","E_COORD97":171294.48999999999,"N_COORD97":2541448.75,"ADDRESS":"仁和路９３號之１八樓之３","OBJECTID":593242},"geometry":{"x":171294.49000000115,"y":2541448.75}},{"attributes":{"ID":593270,"DIS_CODE":0,"TOWNNAME":"東區","LI":"和平里","LIN":"11鄰","STREET":"仁和路","SECT":" ","MAREA":" ","LANE":" ","ALLEY":" ","HOUSE_NO":"９３號之１九樓之３","E_COORD97":171294.48999999999,"N_COORD97":2541448.75,"ADDRESS":"仁和路９３號之１九樓之３","OBJECTID":593243},"geometry":{"x":171294.49000000115,"y":2541448.75}},{"attributes":{"ID":593271,"DIS_CODE":0,"TOWNNAME":"東區","LI":"和平里","LIN":"11鄰","STREET":"仁和路","SECT":" ","MAREA":" ","LANE":" ","ALLEY":" ","HOUSE_NO":"９５號五樓","E_COORD97":171315.45999999999,"N_COORD97":2541408.8900000001,"ADDRESS":"仁和路９５號五樓","OBJECTID":593244},"geometry":{"x":171315.45999999996,"y":2541408.8900000025}},{"attributes":{"ID":593272,"DIS_CODE":0,"TOWNNAME":"東區","LI":"和平里","LIN":"11鄰","STREET":"仁和路","SECT":" ","MAREA":" ","LANE":" ","ALLEY":" ","HOUSE_NO":"９５號六樓","E_COORD97":171315.45999999999,"N_COORD97":2541408.8900000001,"ADDRESS":"仁和路９５號六樓","OBJECTID":593245},"geometry":{"x":171315.45999999996,"y":2541408.8900000025}},{"attributes":{"ID":593273,"DIS_CODE":0,"TOWNNAME":"東區","LI":"和平里","LIN":"11鄰","STREET":"仁和路","SECT":" ","MAREA":" ","LANE":" ","ALLEY":" ","HOUSE_NO":"９５號七樓","E_COORD97":171315.45999999999,"N_COORD97":2541408.8900000001,"ADDRESS":"仁和路９５號七樓","OBJECTID":593246},"geometry":{"x":171315.45999999996,"y":2541408.8900000025}},{"attributes":{"ID":593274,"DIS_CODE":0,"TOWNNAME":"東區","LI":"和平里","LIN":"11鄰","STREET":"仁和路","SECT":" ","MAREA":" ","LANE":" ","ALLEY":" ","HOUSE_NO":"９５號八樓","E_COORD97":171315.45999999999,"N_COORD97":2541408.8900000001,"ADDRESS":"仁和路９５號八樓","OBJECTID":593247},"geometry":{"x":171315.45999999996,"y":2541408.8900000025}},{"attributes":{"ID":593275,"DIS_CODE":0,"TOWNNAME":"東區","LI":"和平里","LIN":"11鄰","STREET":"仁和路","SECT":" ","MAREA":" ","LANE":" ","ALLEY":" ","HOUSE_NO":"９５號九樓","E_COORD97":171315.45999999999,"N_COORD97":2541408.8900000001,"ADDRESS":"仁和路９５號九樓","OBJECTID":593248},"geometry":{"x":171315.45999999996,"y":2541408.8900000025}},{"attributes":{"ID":593276,"DIS_CODE":0,"TOWNNAME":"東區","LI":"和平里","LIN":"11鄰","STREET":"仁和路","SECT":" ","MAREA":" ","LANE":" ","ALLEY":" ","HOUSE_NO":"９５號五樓之１","E_COORD97":171315.45999999999,"N_COORD97":2541408.8900000001,"ADDRESS":"仁和路９５號五樓之１","OBJECTID":593249},"geometry":{"x":171315.45999999996,"y":2541408.8900000025}},{"attributes":{"ID":593277,"DIS_CODE":0,"TOWNNAME":"東區","LI":"和平里","LIN":"11鄰","STREET":"仁和路","SECT":" ","MAREA":" ","LANE":" ","ALLEY":" ","HOUSE_NO":"９５號六樓之１","E_COORD97":171315.45999999999,"N_COORD97":2541408.8900000001,"ADDRESS":"仁和路９５號六樓之１","OBJECTID":593250},"geometry":{"x":171315.45999999996,"y":2541408.8900000025}},{"attributes":{"ID":593278,"DIS_CODE":0,"TOWNNAME":"東區","LI":"和平里","LIN":"11鄰","STREET":"仁和路","SECT":" ","MAREA":" ","LANE":" ","ALLEY":" ","HOUSE_NO":"９５號七樓之１","E_COORD97":171315.45999999999,"N_COORD97":2541408.8900000001,"ADDRESS":"仁和路９５號七樓之１","OBJECTID":593251},"geometry":{"x":171315.45999999996,"y":2541408.8900000025}},{"attributes":{"ID":593279,"DIS_CODE":0,"TOWNNAME":"東區","LI":"和平里","LIN":"11鄰","STREET":"仁和路","SECT":" ","MAREA":" ","LANE":" ","ALLEY":" ","HOUSE_NO":"９５號八樓之１","E_COORD97":171315.45999999999,"N_COORD97":2541408.8900000001,"ADDRESS":"仁和路９５號八樓之１","OBJECTID":593252},"geometry":{"x":171315.45999999996,"y":2541408.8900000025}},{"attributes":{"ID":593280,"DIS_CODE":0,"TOWNNAME":"東區","LI":"和平里","LIN":"11鄰","STREET":"仁和路","SECT":" ","MAREA":" ","LANE":" ","ALLEY":" ","HOUSE_NO":"９５號九樓之１","E_COORD97":171315.45999999999,"N_COORD97":2541408.8900000001,"ADDRESS":"仁和路９５號九樓之１","OBJECTID":593253},"geometry":{"x":171315.45999999996,"y":2541408.8900000025}},{"attributes":{"ID":593281,"DIS_CODE":0,"TOWNNAME":"東區","LI":"和平里","LIN":"11鄰","STREET":"仁和路","SECT":" ","MAREA":" ","LANE":" ","ALLEY":" ","HOUSE_NO":"９５號五樓之２","E_COORD97":171315.45999999999,"N_COORD97":2541408.8900000001,"ADDRESS":"仁和路９５號五樓之２","OBJECTID":593254},"geometry":{"x":171315.45999999996,"y":2541408.8900000025}},{"attributes":{"ID":593282,"DIS_CODE":0,"TOWNNAME":"東區","LI":"和平里","LIN":"11鄰","STREET":"仁和路","SECT":" ","MAREA":" ","LANE":" ","ALLEY":" ","HOUSE_NO":"９５號五樓之３","E_COORD97":171315.45999999999,"N_COORD97":2541408.8900000001,"ADDRESS":"仁和路９５號五樓之３","OBJECTID":593255},"geometry":{"x":171315.45999999996,"y":2541408.8900000025}},{"attributes":{"ID":593283,"DIS_CODE":0,"TOWNNAME":"東區","LI":"和平里","LIN":"11鄰","STREET":"仁和路","SECT":" ","MAREA":" ","LANE":" ","ALLEY":" ","HOUSE_NO":"９５號五樓之４","E_COORD97":171315.45999999999,"N_COORD97":2541408.8900000001,"ADDRESS":"仁和路９５號五樓之４","OBJECTID":593256},"geometry":{"x":171315.45999999996,"y":2541408.8900000025}},{"attributes":{"ID":593284,"DIS_CODE":0,"TOWNNAME":"東區","LI":"和平里","LIN":"11鄰","STREET":"仁和路","SECT":" ","MAREA":" ","LANE":" ","ALLEY":" ","HOUSE_NO":"９５號五樓之５","E_COORD97":171315.45999999999,"N_COORD97":2541408.8900000001,"ADDRESS":"仁和路９５號五樓之５","OBJECTID":593257},"geometry":{"x":171315.45999999996,"y":2541408.8900000025}},{"attributes":{"ID":593285,"DIS_CODE":0,"TOWNNAME":"東區","LI":"和平里","LIN":"11鄰","STREET":"仁和路","SECT":" ","MAREA":" ","LANE":" ","ALLEY":" ","HOUSE_NO":"９５號五樓之７","E_COORD97":171315.45999999999,"N_COORD97":2541408.8900000001,"ADDRESS":"仁和路９５號五樓之７","OBJECTID":593258},"geometry":{"x":171315.45999999996,"y":2541408.8900000025}},{"attributes":{"ID":593286,"DIS_CODE":0,"TOWNNAME":"東區","LI":"和平里","LIN":"11鄰","STREET":"仁和路","SECT":" ","MAREA":" ","LANE":" ","ALLEY":" ","HOUSE_NO":"９５號六樓之２","E_COORD97":171315.45999999999,"N_COORD97":2541408.8900000001,"ADDRESS":"仁和路９５號六樓之２","OBJECTID":593259},"geometry":{"x":171315.45999999996,"y":2541408.8900000025}},{"attributes":{"ID":593287,"DIS_CODE":0,"TOWNNAME":"東區","LI":"和平里","LIN":"11鄰","STREET":"仁和路","SECT":" ","MAREA":" ","LANE":" ","ALLEY":" ","HOUSE_NO":"９５號六樓之３","E_COORD97":171315.45999999999,"N_COORD97":2541408.8900000001,"ADDRESS":"仁和路９５號六樓之３","OBJECTID":593260},"geometry":{"x":171315.45999999996,"y":2541408.8900000025}},{"attributes":{"ID":593288,"DIS_CODE":0,"TOWNNAME":"東區","LI":"和平里","LIN":"11鄰","STREET":"仁和路","SECT":" ","MAREA":" ","LANE":" ","ALLEY":" ","HOUSE_NO":"９５號六樓之４","E_COORD97":171315.45999999999,"N_COORD97":2541408.8900000001,"ADDRESS":"仁和路９５號六樓之４","OBJECTID":593261},"geometry":{"x":171315.45999999996,"y":2541408.8900000025}},{"attributes":{"ID":593289,"DIS_CODE":0,"TOWNNAME":"東區","LI":"和平里","LIN":"11鄰","STREET":"仁和路","SECT":" ","MAREA":" ","LANE":" ","ALLEY":" ","HOUSE_NO":"９５號六樓之５","E_COORD97":171315.45999999999,"N_COORD97":2541408.8900000001,"ADDRESS":"仁和路９５號六樓之５","OBJECTID":593262},"geometry":{"x":171315.45999999996,"y":2541408.8900000025}},{"attributes":{"ID":593290,"DIS_CODE":0,"TOWNNAME":"東區","LI":"和平里","LIN":"11鄰","STREET":"仁和路","SECT":" ","MAREA":" ","LANE":" ","ALLEY":" ","HOUSE_NO":"９５號六樓之６","E_COORD97":171315.45999999999,"N_COORD97":2541408.8900000001,"ADDRESS":"仁和路９５號六樓之６","OBJECTID":593263},"geometry":{"x":171315.45999999996,"y":2541408.8900000025}},{"attributes":{"ID":593291,"DIS_CODE":0,"TOWNNAME":"東區","LI":"和平里","LIN":"11鄰","STREET":"仁和路","SECT":" ","MAREA":" ","LANE":" ","ALLEY":" ","HOUSE_NO":"９５號六樓之７","E_COORD97":171315.45999999999,"N_COORD97":2541408.8900000001,"ADDRESS":"仁和路９５號六樓之７","OBJECTID":593264},"geometry":{"x":171315.45999999996,"y":2541408.8900000025}},{"attributes":{"ID":593292,"DIS_CODE":0,"TOWNNAME":"東區","LI":"和平里","LIN":"11鄰","STREET":"仁和路","SECT":" ","MAREA":" ","LANE":" ","ALLEY":" ","HOUSE_NO":"９５號七樓之２","E_COORD97":171315.45999999999,"N_COORD97":2541408.8900000001,"ADDRESS":"仁和路９５號七樓之２","OBJECTID":593265},"geometry":{"x":171315.45999999996,"y":2541408.8900000025}},{"attributes":{"ID":593293,"DIS_CODE":0,"TOWNNAME":"東區","LI":"和平里","LIN":"11鄰","STREET":"仁和路","SECT":" ","MAREA":" ","LANE":" ","ALLEY":" ","HOUSE_NO":"９５號七樓之３","E_COORD97":171315.45999999999,"N_COORD97":2541408.8900000001,"ADDRESS":"仁和路９５號七樓之３","OBJECTID":593266},"geometry":{"x":171315.45999999996,"y":2541408.8900000025}},{"attributes":{"ID":593294,"DIS_CODE":0,"TOWNNAME":"東區","LI":"和平里","LIN":"11鄰","STREET":"仁和路","SECT":" ","MAREA":" ","LANE":" ","ALLEY":" ","HOUSE_NO":"９５號七樓之４","E_COORD97":171315.45999999999,"N_COORD97":2541408.8900000001,"ADDRESS":"仁和路９５號七樓之４","OBJECTID":593267},"geometry":{"x":171315.45999999996,"y":2541408.8900000025}},{"attributes":{"ID":593295,"DIS_CODE":0,"TOWNNAME":"東區","LI":"和平里","LIN":"11鄰","STREET":"仁和路","SECT":" ","MAREA":" ","LANE":" ","ALLEY":" ","HOUSE_NO":"９５號七樓之５","E_COORD97":171315.45999999999,"N_COORD97":2541408.8900000001,"ADDRESS":"仁和路９５號七樓之５","OBJECTID":593268},"geometry":{"x":171315.45999999996,"y":2541408.8900000025}},{"attributes":{"ID":593296,"DIS_CODE":0,"TOWNNAME":"東區","LI":"和平里","LIN":"11鄰","STREET":"仁和路","SECT":" ","MAREA":" ","LANE":" ","ALLEY":" ","HOUSE_NO":"９５號七樓之６","E_COORD97":171315.45999999999,"N_COORD97":2541408.8900000001,"ADDRESS":"仁和路９５號七樓之６","OBJECTID":593269},"geometry":{"x":171315.45999999996,"y":2541408.8900000025}},{"attributes":{"ID":593297,"DIS_CODE":0,"TOWNNAME":"東區","LI":"和平里","LIN":"11鄰","STREET":"仁和路","SECT":" ","MAREA":" ","LANE":" ","ALLEY":" ","HOUSE_NO":"９５號七樓之７","E_COORD97":171315.45999999999,"N_COORD97":2541408.8900000001,"ADDRESS":"仁和路９５號七樓之７","OBJECTID":593270},"geometry":{"x":171315.45999999996,"y":2541408.8900000025}},{"attributes":{"ID":593298,"DIS_CODE":0,"TOWNNAME":"東區","LI":"和平里","LIN":"11鄰","STREET":"仁和路","SECT":" ","MAREA":" ","LANE":" ","ALLEY":" ","HOUSE_NO":"９５號八樓之２","E_COORD97":171315.45999999999,"N_COORD97":2541408.8900000001,"ADDRESS":"仁和路９５號八樓之２","OBJECTID":593271},"geometry":{"x":171315.45999999996,"y":2541408.8900000025}},{"attributes":{"ID":593299,"DIS_CODE":0,"TOWNNAME":"東區","LI":"和平里","LIN":"11鄰","STREET":"仁和路","SECT":" ","MAREA":" ","LANE":" ","ALLEY":" ","HOUSE_NO":"９５號八樓之３","E_COORD97":171315.45999999999,"N_COORD97":2541408.8900000001,"ADDRESS":"仁和路９５號八樓之３","OBJECTID":593272},"geometry":{"x":171315.45999999996,"y":2541408.8900000025}},{"attributes":{"ID":593300,"DIS_CODE":0,"TOWNNAME":"東區","LI":"和平里","LIN":"11鄰","STREET":"仁和路","SECT":" ","MAREA":" ","LANE":" ","ALLEY":" ","HOUSE_NO":"９５號八樓之４","E_COORD97":171315.45999999999,"N_COORD97":2541408.8900000001,"ADDRESS":"仁和路９５號八樓之４","OBJECTID":593273},"geometry":{"x":171315.45999999996,"y":2541408.8900000025}},{"attributes":{"ID":593301,"DIS_CODE":0,"TOWNNAME":"東區","LI":"和平里","LIN":"11鄰","STREET":"仁和路","SECT":" ","MAREA":" ","LANE":" ","ALLEY":" ","HOUSE_NO":"９５號八樓之５","E_COORD97":171315.45999999999,"N_COORD97":2541408.8900000001,"ADDRESS":"仁和路９５號八樓之５","OBJECTID":593274},"geometry":{"x":171315.45999999996,"y":2541408.8900000025}},{"attributes":{"ID":593302,"DIS_CODE":0,"TOWNNAME":"東區","LI":"和平里","LIN":"11鄰","STREET":"仁和路","SECT":" ","MAREA":" ","LANE":" ","ALLEY":" ","HOUSE_NO":"９５號八樓之６","E_COORD97":171315.45999999999,"N_COORD97":2541408.8900000001,"ADDRESS":"仁和路９５號八樓之６","OBJECTID":593275},"geometry":{"x":171315.45999999996,"y":2541408.8900000025}},{"attributes":{"ID":593303,"DIS_CODE":0,"TOWNNAME":"東區","LI":"和平里","LIN":"11鄰","STREET":"仁和路","SECT":" ","MAREA":" ","LANE":" ","ALLEY":" ","HOUSE_NO":"９５號八樓之７","E_COORD97":171315.45999999999,"N_COORD97":2541408.8900000001,"ADDRESS":"仁和路９５號八樓之７","OBJECTID":593276},"geometry":{"x":171315.45999999996,"y":2541408.8900000025}},{"attributes":{"ID":593304,"DIS_CODE":0,"TOWNNAME":"東區","LI":"和平里","LIN":"11鄰","STREET":"仁和路","SECT":" ","MAREA":" ","LANE":" ","ALLEY":" ","HOUSE_NO":"９５號九樓之２","E_COORD97":171315.45999999999,"N_COORD97":2541408.8900000001,"ADDRESS":"仁和路９５號九樓之２","OBJECTID":593277},"geometry":{"x":171315.45999999996,"y":2541408.8900000025}},{"attributes":{"ID":593305,"DIS_CODE":0,"TOWNNAME":"東區","LI":"和平里","LIN":"11鄰","STREET":"仁和路","SECT":" ","MAREA":" ","LANE":" ","ALLEY":" ","HOUSE_NO":"９５號九樓之３","E_COORD97":171315.45999999999,"N_COORD97":2541408.8900000001,"ADDRESS":"仁和路９５號九樓之３","OBJECTID":593278},"geometry":{"x":171315.45999999996,"y":2541408.8900000025}},{"attributes":{"ID":593306,"DIS_CODE":0,"TOWNNAME":"東區","LI":"和平里","LIN":"11鄰","STREET":"仁和路","SECT":" ","MAREA":" ","LANE":" ","ALLEY":" ","HOUSE_NO":"９５號四樓之７","E_COORD97":171315.45999999999,"N_COORD97":2541408.8900000001,"ADDRESS":"仁和路９５號四樓之７","OBJECTID":593279},"geometry":{"x":171315.45999999996,"y":2541408.8900000025}},{"attributes":{"ID":593307,"DIS_CODE":0,"TOWNNAME":"東區","LI":"裕農里","LIN":"11鄰","STREET":"東寧路","SECT":" ","MAREA":" ","LANE":" ","ALLEY":" ","HOUSE_NO":"５０８號二樓","E_COORD97":171122.14000000001,"N_COORD97":2543277.4500000002,"ADDRESS":"東寧路５０８號二樓","OBJECTID":593280},"geometry":{"x":171122.13999999966,"y":2543277.4499999993}},{"attributes":{"ID":593308,"DIS_CODE":0,"TOWNNAME":"東區","LI":"裕農里","LIN":"11鄰","STREET":"東寧路","SECT":" ","MAREA":" ","LANE":" ","ALLEY":" ","HOUSE_NO":"５０８號三樓","E_COORD97":171122.14000000001,"N_COORD97":2543277.4500000002,"ADDRESS":"東寧路５０８號三樓","OBJECTID":593281},"geometry":{"x":171122.13999999966,"y":2543277.4499999993}},{"attributes":{"ID":593309,"DIS_CODE":0,"TOWNNAME":"東區","LI":"裕農里","LIN":"11鄰","STREET":"東寧路","SECT":" ","MAREA":" ","LANE":" ","ALLEY":" ","HOUSE_NO":"５０８號四樓","E_COORD97":171122.14000000001,"N_COORD97":2543277.4500000002,"ADDRESS":"東寧路５０８號四樓","OBJECTID":593282},"geometry":{"x":171122.13999999966,"y":2543277.4499999993}},{"attributes":{"ID":593310,"DIS_CODE":0,"TOWNNAME":"東區","LI":"裕農里","LIN":"11鄰","STREET":"東寧路","SECT":" ","MAREA":" ","LANE":" ","ALLEY":" ","HOUSE_NO":"５０８號五樓","E_COORD97":171122.14000000001,"N_COORD97":2543277.4500000002,"ADDRESS":"東寧路５０８號五樓","OBJECTID":593283},"geometry":{"x":171122.13999999966,"y":2543277.4499999993}},{"attributes":{"ID":593311,"DIS_CODE":0,"TOWNNAME":"東區","LI":"裕農里","LIN":"11鄰","STREET":"東寧路","SECT":" ","MAREA":" ","LANE":" ","ALLEY":" ","HOUSE_NO":"５０８號六樓","E_COORD97":171122.14000000001,"N_COORD97":2543277.4500000002,"ADDRESS":"東寧路５０８號六樓","OBJECTID":593284},"geometry":{"x":171122.13999999966,"y":2543277.4499999993}},{"attributes":{"ID":593312,"DIS_CODE":0,"TOWNNAME":"東區","LI":"裕農里","LIN":"11鄰","STREET":"東寧路","SECT":" ","MAREA":" ","LANE":" ","ALLEY":" ","HOUSE_NO":"５０８號七樓","E_COORD97":171122.14000000001,"N_COORD97":2543277.4500000002,"ADDRESS":"東寧路５０８號七樓","OBJECTID":593285},"geometry":{"x":171122.13999999966,"y":2543277.4499999993}},{"attributes":{"ID":593313,"DIS_CODE":0,"TOWNNAME":"東區","LI":"龍山里","LIN":"11鄰","STREET":"光華街","SECT":" ","MAREA":" ","LANE":" ","ALLEY":" ","HOUSE_NO":"１２號二樓","E_COORD97":169955.89000000001,"N_COORD97":2542780.4100000001,"ADDRESS":"光華街１２號二樓","OBJECTID":593286},"geometry":{"x":169955.88999999966,"y":2542780.4100000001}},{"attributes":{"ID":593314,"DIS_CODE":0,"TOWNNAME":"東區","LI":"龍山里","LIN":"11鄰","STREET":"光華街","SECT":" ","MAREA":" ","LANE":" ","ALLEY":" ","HOUSE_NO":"１２號二樓之１","E_COORD97":169955.89000000001,"N_COORD97":2542780.4100000001,"ADDRESS":"光華街１２號二樓之１","OBJECTID":593287},"geometry":{"x":169955.88999999966,"y":2542780.4100000001}},{"attributes":{"ID":593315,"DIS_CODE":0,"TOWNNAME":"東區","LI":"龍山里","LIN":"11鄰","STREET":"光華街","SECT":" ","MAREA":" ","LANE":" ","ALLEY":" ","HOUSE_NO":"１２號二樓之２","E_COORD97":169955.89000000001,"N_COORD97":2542780.4100000001,"ADDRESS":"光華街１２號二樓之２","OBJECTID":593288},"geometry":{"x":169955.88999999966,"y":2542780.4100000001}},{"attributes":{"ID":593316,"DIS_CODE":0,"TOWNNAME":"東區","LI":"龍山里","LIN":"11鄰","STREET":"光華街","SECT":" ","MAREA":" ","LANE":" ","ALLEY":" ","HOUSE_NO":"１２號二樓之３","E_COORD97":169955.89000000001,"N_COORD97":2542780.4100000001,"ADDRESS":"光華街１２號二樓之３","OBJECTID":593289},"geometry":{"x":169955.88999999966,"y":2542780.4100000001}},{"attributes":{"ID":593317,"DIS_CODE":0,"TOWNNAME":"東區","LI":"龍山里","LIN":"11鄰","STREET":"光華街","SECT":" ","MAREA":" ","LANE":" ","ALLEY":" ","HOUSE_NO":"１２號二樓之４","E_COORD97":169955.89000000001,"N_COORD97":2542780.4100000001,"ADDRESS":"光華街１２號二樓之４","OBJECTID":593290},"geometry":{"x":169955.88999999966,"y":2542780.4100000001}},{"attributes":{"ID":593318,"DIS_CODE":0,"TOWNNAME":"東區","LI":"龍山里","LIN":"11鄰","STREET":"光華街","SECT":" ","MAREA":" ","LANE":" ","ALLEY":" ","HOUSE_NO":"１２號二樓之５","E_COORD97":169955.89000000001,"N_COORD97":2542780.4100000001,"ADDRESS":"光華街１２號二樓之５","OBJECTID":593291},"geometry":{"x":169955.88999999966,"y":2542780.4100000001}},{"attributes":{"ID":593319,"DIS_CODE":0,"TOWNNAME":"東區","LI":"龍山里","LIN":"11鄰","STREET":"光華街","SECT":" ","MAREA":" ","LANE":" ","ALLEY":" ","HOUSE_NO":"１２號三樓","E_COORD97":169955.89000000001,"N_COORD97":2542780.4100000001,"ADDRESS":"光華街１２號三樓","OBJECTID":593292},"geometry":{"x":169955.88999999966,"y":2542780.4100000001}},{"attributes":{"ID":593320,"DIS_CODE":0,"TOWNNAME":"東區","LI":"龍山里","LIN":"11鄰","STREET":"光華街","SECT":" ","MAREA":" ","LANE":" ","ALLEY":" ","HOUSE_NO":"１２號三樓之１","E_COORD97":169955.89000000001,"N_COORD97":2542780.4100000001,"ADDRESS":"光華街１２號三樓之１","OBJECTID":593293},"geometry":{"x":169955.88999999966,"y":2542780.4100000001}},{"attributes":{"ID":593321,"DIS_CODE":0,"TOWNNAME":"東區","LI":"龍山里","LIN":"11鄰","STREET":"光華街","SECT":" ","MAREA":" ","LANE":" ","ALLEY":" ","HOUSE_NO":"１２號三樓之２","E_COORD97":169955.89000000001,"N_COORD97":2542780.4100000001,"ADDRESS":"光華街１２號三樓之２","OBJECTID":593294},"geometry":{"x":169955.88999999966,"y":2542780.4100000001}},{"attributes":{"ID":593322,"DIS_CODE":0,"TOWNNAME":"東區","LI":"龍山里","LIN":"11鄰","STREET":"光華街","SECT":" ","MAREA":" ","LANE":" ","ALLEY":" ","HOUSE_NO":"１２號三樓之３","E_COORD97":169955.89000000001,"N_COORD97":2542780.4100000001,"ADDRESS":"光華街１２號三樓之３","OBJECTID":593295},"geometry":{"x":169955.88999999966,"y":2542780.4100000001}},{"attributes":{"ID":593323,"DIS_CODE":0,"TOWNNAME":"東區","LI":"龍山里","LIN":"11鄰","STREET":"光華街","SECT":" ","MAREA":" ","LANE":" ","ALLEY":" ","HOUSE_NO":"１２號三樓之４","E_COORD97":169955.89000000001,"N_COORD97":2542780.4100000001,"ADDRESS":"光華街１２號三樓之４","OBJECTID":593296},"geometry":{"x":169955.88999999966,"y":2542780.4100000001}},{"attributes":{"ID":593324,"DIS_CODE":0,"TOWNNAME":"東區","LI":"龍山里","LIN":"11鄰","STREET":"光華街","SECT":" ","MAREA":" ","LANE":" ","ALLEY":" ","HOUSE_NO":"１２號三樓之５","E_COORD97":169955.89000000001,"N_COORD97":2542780.4100000001,"ADDRESS":"光華街１２號三樓之５","OBJECTID":593297},"geometry":{"x":169955.88999999966,"y":2542780.4100000001}},{"attributes":{"ID":593325,"DIS_CODE":0,"TOWNNAME":"東區","LI":"龍山里","LIN":"11鄰","STREET":"光華街","SECT":" ","MAREA":" ","LANE":" ","ALLEY":" ","HOUSE_NO":"１２號四樓","E_COORD97":169955.89000000001,"N_COORD97":2542780.4100000001,"ADDRESS":"光華街１２號四樓","OBJECTID":593298},"geometry":{"x":169955.88999999966,"y":2542780.4100000001}},{"attributes":{"ID":593326,"DIS_CODE":0,"TOWNNAME":"東區","LI":"龍山里","LIN":"11鄰","STREET":"光華街","SECT":" ","MAREA":" ","LANE":" ","ALLEY":" ","HOUSE_NO":"１２號四樓之１","E_COORD97":169955.89000000001,"N_COORD97":2542780.4100000001,"ADDRESS":"光華街１２號四樓之１","OBJECTID":593299},"geometry":{"x":169955.88999999966,"y":2542780.4100000001}},{"attributes":{"ID":593327,"DIS_CODE":0,"TOWNNAME":"東區","LI":"龍山里","LIN":"11鄰","STREET":"光華街","SECT":" ","MAREA":" ","LANE":" ","ALLEY":" ","HOUSE_NO":"１２號四樓之２","E_COORD97":169955.89000000001,"N_COORD97":2542780.4100000001,"ADDRESS":"光華街１２號四樓之２","OBJECTID":593300},"geometry":{"x":169955.88999999966,"y":2542780.4100000001}},{"attributes":{"ID":593328,"DIS_CODE":0,"TOWNNAME":"東區","LI":"龍山里","LIN":"11鄰","STREET":"光華街","SECT":" ","MAREA":" ","LANE":" ","ALLEY":" ","HOUSE_NO":"１２號四樓之３","E_COORD97":169955.89000000001,"N_COORD97":2542780.4100000001,"ADDRESS":"光華街１２號四樓之３","OBJECTID":593301},"geometry":{"x":169955.88999999966,"y":2542780.4100000001}},{"attributes":{"ID":593329,"DIS_CODE":0,"TOWNNAME":"東區","LI":"龍山里","LIN":"11鄰","STREET":"光華街","SECT":" ","MAREA":" ","LANE":" ","ALLEY":" ","HOUSE_NO":"１２號四樓之４","E_COORD97":169955.89000000001,"N_COORD97":2542780.4100000001,"ADDRESS":"光華街１２號四樓之４","OBJECTID":593302},"geometry":{"x":169955.88999999966,"y":2542780.4100000001}},{"attributes":{"ID":593330,"DIS_CODE":0,"TOWNNAME":"東區","LI":"龍山里","LIN":"11鄰","STREET":"光華街","SECT":" ","MAREA":" ","LANE":" ","ALLEY":" ","HOUSE_NO":"１２號四樓之５","E_COORD97":169955.89000000001,"N_COORD97":2542780.4100000001,"ADDRESS":"光華街１２號四樓之５","OBJECTID":593303},"geometry":{"x":169955.88999999966,"y":2542780.4100000001}},{"attributes":{"ID":593331,"DIS_CODE":0,"TOWNNAME":"東區","LI":"龍山里","LIN":"11鄰","STREET":"光華街","SECT":" ","MAREA":" ","LANE":" ","ALLEY":" ","HOUSE_NO":"１２號五樓","E_COORD97":169955.89000000001,"N_COORD97":2542780.4100000001,"ADDRESS":"光華街１２號五樓","OBJECTID":593304},"geometry":{"x":169955.88999999966,"y":2542780.4100000001}},{"attributes":{"ID":593332,"DIS_CODE":0,"TOWNNAME":"東區","LI":"龍山里","LIN":"11鄰","STREET":"光華街","SECT":" ","MAREA":" ","LANE":" ","ALLEY":" ","HOUSE_NO":"１２號五樓之１","E_COORD97":169955.89000000001,"N_COORD97":2542780.4100000001,"ADDRESS":"光華街１２號五樓之１","OBJECTID":593305},"geometry":{"x":169955.88999999966,"y":2542780.4100000001}},{"attributes":{"ID":593333,"DIS_CODE":0,"TOWNNAME":"東區","LI":"龍山里","LIN":"11鄰","STREET":"光華街","SECT":" ","MAREA":" ","LANE":" ","ALLEY":" ","HOUSE_NO":"１２號五樓之２","E_COORD97":169955.89000000001,"N_COORD97":2542780.4100000001,"ADDRESS":"光華街１２號五樓之２","OBJECTID":593306},"geometry":{"x":169955.88999999966,"y":2542780.4100000001}},{"attributes":{"ID":593334,"DIS_CODE":0,"TOWNNAME":"東區","LI":"龍山里","LIN":"11鄰","STREET":"光華街","SECT":" ","MAREA":" ","LANE":" ","ALLEY":" ","HOUSE_NO":"１２號五樓之３","E_COORD97":169955.89000000001,"N_COORD97":2542780.4100000001,"ADDRESS":"光華街１２號五樓之３","OBJECTID":593307},"geometry":{"x":169955.88999999966,"y":2542780.4100000001}},{"attributes":{"ID":593335,"DIS_CODE":0,"TOWNNAME":"東區","LI":"龍山里","LIN":"11鄰","STREET":"光華街","SECT":" ","MAREA":" ","LANE":" ","ALLEY":" ","HOUSE_NO":"１２號五樓之４","E_COORD97":169955.89000000001,"N_COORD97":2542780.4100000001,"ADDRESS":"光華街１２號五樓之４","OBJECTID":593308},"geometry":{"x":169955.88999999966,"y":2542780.4100000001}},{"attributes":{"ID":593336,"DIS_CODE":0,"TOWNNAME":"東區","LI":"龍山里","LIN":"11鄰","STREET":"光華街","SECT":" ","MAREA":" ","LANE":" ","ALLEY":" ","HOUSE_NO":"１２號五樓之５","E_COORD97":169955.89000000001,"N_COORD97":2542780.4100000001,"ADDRESS":"光華街１２號五樓之５","OBJECTID":593309},"geometry":{"x":169955.88999999966,"y":2542780.4100000001}},{"attributes":{"ID":593337,"DIS_CODE":0,"TOWNNAME":"東區","LI":"龍山里","LIN":"11鄰","STREET":"光華街","SECT":" ","MAREA":" ","LANE":" ","ALLEY":" ","HOUSE_NO":"１２號六樓","E_COORD97":169955.89000000001,"N_COORD97":2542780.4100000001,"ADDRESS":"光華街１２號六樓","OBJECTID":593310},"geometry":{"x":169955.88999999966,"y":2542780.4100000001}},{"attributes":{"ID":593338,"DIS_CODE":0,"TOWNNAME":"東區","LI":"龍山里","LIN":"11鄰","STREET":"光華街","SECT":" ","MAREA":" ","LANE":" ","ALLEY":" ","HOUSE_NO":"１２號六樓之１","E_COORD97":169955.89000000001,"N_COORD97":2542780.4100000001,"ADDRESS":"光華街１２號六樓之１","OBJECTID":593311},"geometry":{"x":169955.88999999966,"y":2542780.4100000001}},{"attributes":{"ID":593339,"DIS_CODE":0,"TOWNNAME":"東區","LI":"龍山里","LIN":"11鄰","STREET":"光華街","SECT":" ","MAREA":" ","LANE":" ","ALLEY":" ","HOUSE_NO":"１２號六樓之２","E_COORD97":169955.89000000001,"N_COORD97":2542780.4100000001,"ADDRESS":"光華街１２號六樓之２","OBJECTID":593312},"geometry":{"x":169955.88999999966,"y":2542780.4100000001}},{"attributes":{"ID":593340,"DIS_CODE":0,"TOWNNAME":"東區","LI":"龍山里","LIN":"11鄰","STREET":"光華街","SECT":" ","MAREA":" ","LANE":" ","ALLEY":" ","HOUSE_NO":"１２號六樓之３","E_COORD97":169955.89000000001,"N_COORD97":2542780.4100000001,"ADDRESS":"光華街１２號六樓之３","OBJECTID":593313},"geometry":{"x":169955.88999999966,"y":2542780.4100000001}},{"attributes":{"ID":593341,"DIS_CODE":0,"TOWNNAME":"東區","LI":"龍山里","LIN":"11鄰","STREET":"光華街","SECT":" ","MAREA":" ","LANE":" ","ALLEY":" ","HOUSE_NO":"１２號六樓之４","E_COORD97":169955.89000000001,"N_COORD97":2542780.4100000001,"ADDRESS":"光華街１２號六樓之４","OBJECTID":593314},"geometry":{"x":169955.88999999966,"y":2542780.4100000001}},{"attributes":{"ID":593342,"DIS_CODE":0,"TOWNNAME":"東區","LI":"龍山里","LIN":"11鄰","STREET":"光華街","SECT":" ","MAREA":" ","LANE":" ","ALLEY":" ","HOUSE_NO":"１２號六樓之５","E_COORD97":169955.89000000001,"N_COORD97":2542780.4100000001,"ADDRESS":"光華街１２號六樓之５","OBJECTID":593315},"geometry":{"x":169955.88999999966,"y":2542780.4100000001}},{"attributes":{"ID":593343,"DIS_CODE":0,"TOWNNAME":"東區","LI":"龍山里","LIN":"11鄰","STREET":"光華街","SECT":" ","MAREA":" ","LANE":" ","ALLEY":" ","HOUSE_NO":"１２號七樓","E_COORD97":169955.89000000001,"N_COORD97":2542780.4100000001,"ADDRESS":"光華街１２號七樓","OBJECTID":593316},"geometry":{"x":169955.88999999966,"y":2542780.4100000001}},{"attributes":{"ID":593344,"DIS_CODE":0,"TOWNNAME":"東區","LI":"龍山里","LIN":"11鄰","STREET":"光華街","SECT":" ","MAREA":" ","LANE":" ","ALLEY":" ","HOUSE_NO":"１２號七樓之１","E_COORD97":169955.89000000001,"N_COORD97":2542780.4100000001,"ADDRESS":"光華街１２號七樓之１","OBJECTID":593317},"geometry":{"x":169955.88999999966,"y":2542780.4100000001}},{"attributes":{"ID":593345,"DIS_CODE":0,"TOWNNAME":"東區","LI":"龍山里","LIN":"11鄰","STREET":"光華街","SECT":" ","MAREA":" ","LANE":" ","ALLEY":" ","HOUSE_NO":"１２號七樓之２","E_COORD97":169955.89000000001,"N_COORD97":2542780.4100000001,"ADDRESS":"光華街１２號七樓之２","OBJECTID":593318},"geometry":{"x":169955.88999999966,"y":2542780.4100000001}},{"attributes":{"ID":593346,"DIS_CODE":0,"TOWNNAME":"東區","LI":"龍山里","LIN":"11鄰","STREET":"光華街","SECT":" ","MAREA":" ","LANE":" ","ALLEY":" ","HOUSE_NO":"１２號七樓之３","E_COORD97":169955.89000000001,"N_COORD97":2542780.4100000001,"ADDRESS":"光華街１２號七樓之３","OBJECTID":593319},"geometry":{"x":169955.88999999966,"y":2542780.4100000001}},{"attributes":{"ID":593347,"DIS_CODE":0,"TOWNNAME":"東區","LI":"龍山里","LIN":"11鄰","STREET":"光華街","SECT":" ","MAREA":" ","LANE":" ","ALLEY":" ","HOUSE_NO":"１２號七樓之４","E_COORD97":169955.89000000001,"N_COORD97":2542780.4100000001,"ADDRESS":"光華街１２號七樓之４","OBJECTID":593320},"geometry":{"x":169955.88999999966,"y":2542780.4100000001}},{"attributes":{"ID":593348,"DIS_CODE":0,"TOWNNAME":"東區","LI":"龍山里","LIN":"11鄰","STREET":"光華街","SECT":" ","MAREA":" ","LANE":" ","ALLEY":" ","HOUSE_NO":"１２號七樓之５","E_COORD97":169955.89000000001,"N_COORD97":2542780.4100000001,"ADDRESS":"光華街１２號七樓之５","OBJECTID":593321},"geometry":{"x":169955.88999999966,"y":2542780.4100000001}},{"attributes":{"ID":593349,"DIS_CODE":0,"TOWNNAME":"東區","LI":"龍山里","LIN":"11鄰","STREET":"光華街","SECT":" ","MAREA":" ","LANE":" ","ALLEY":" ","HOUSE_NO":"１２號八樓","E_COORD97":169955.89000000001,"N_COORD97":2542780.4100000001,"ADDRESS":"光華街１２號八樓","OBJECTID":593322},"geometry":{"x":169955.88999999966,"y":2542780.4100000001}},{"attributes":{"ID":593350,"DIS_CODE":0,"TOWNNAME":"東區","LI":"龍山里","LIN":"11鄰","STREET":"光華街","SECT":" ","MAREA":" ","LANE":" ","ALLEY":" ","HOUSE_NO":"１２號八樓之１","E_COORD97":169955.89000000001,"N_COORD97":2542780.4100000001,"ADDRESS":"光華街１２號八樓之１","OBJECTID":593323},"geometry":{"x":169955.88999999966,"y":2542780.4100000001}},{"attributes":{"ID":593351,"DIS_CODE":0,"TOWNNAME":"東區","LI":"龍山里","LIN":"11鄰","STREET":"光華街","SECT":" ","MAREA":" ","LANE":" ","ALLEY":" ","HOUSE_NO":"１２號八樓之２","E_COORD97":169955.89000000001,"N_COORD97":2542780.4100000001,"ADDRESS":"光華街１２號八樓之２","OBJECTID":593324},"geometry":{"x":169955.88999999966,"y":2542780.4100000001}},{"attributes":{"ID":593352,"DIS_CODE":0,"TOWNNAME":"東區","LI":"龍山里","LIN":"11鄰","STREET":"光華街","SECT":" ","MAREA":" ","LANE":" ","ALLEY":" ","HOUSE_NO":"１２號八樓之３","E_COORD97":169955.89000000001,"N_COORD97":2542780.4100000001,"ADDRESS":"光華街１２號八樓之３","OBJECTID":593325},"geometry":{"x":169955.88999999966,"y":2542780.4100000001}},{"attributes":{"ID":593353,"DIS_CODE":0,"TOWNNAME":"東區","LI":"龍山里","LIN":"11鄰","STREET":"光華街","SECT":" ","MAREA":" ","LANE":" ","ALLEY":" ","HOUSE_NO":"１２號八樓之４","E_COORD97":169955.89000000001,"N_COORD97":2542780.4100000001,"ADDRESS":"光華街１２號八樓之４","OBJECTID":593326},"geometry":{"x":169955.88999999966,"y":2542780.4100000001}},{"attributes":{"ID":593354,"DIS_CODE":0,"TOWNNAME":"東區","LI":"龍山里","LIN":"11鄰","STREET":"光華街","SECT":" ","MAREA":" ","LANE":" ","ALLEY":" ","HOUSE_NO":"１２號八樓之５","E_COORD97":169955.89000000001,"N_COORD97":2542780.4100000001,"ADDRESS":"光華街１２號八樓之５","OBJECTID":593327},"geometry":{"x":169955.88999999966,"y":2542780.4100000001}},{"attributes":{"ID":593355,"DIS_CODE":0,"TOWNNAME":"東區","LI":"龍山里","LIN":"11鄰","STREET":"光華街","SECT":" ","MAREA":" ","LANE":" ","ALLEY":" ","HOUSE_NO":"１２號九樓","E_COORD97":169955.89000000001,"N_COORD97":2542780.4100000001,"ADDRESS":"光華街１２號九樓","OBJECTID":593328},"geometry":{"x":169955.88999999966,"y":2542780.4100000001}},{"attributes":{"ID":593356,"DIS_CODE":0,"TOWNNAME":"東區","LI":"龍山里","LIN":"11鄰","STREET":"光華街","SECT":" ","MAREA":" ","LANE":" ","ALLEY":" ","HOUSE_NO":"１２號九樓之１","E_COORD97":169955.89000000001,"N_COORD97":2542780.4100000001,"ADDRESS":"光華街１２號九樓之１","OBJECTID":593329},"geometry":{"x":169955.88999999966,"y":2542780.4100000001}},{"attributes":{"ID":593357,"DIS_CODE":0,"TOWNNAME":"東區","LI":"龍山里","LIN":"11鄰","STREET":"光華街","SECT":" ","MAREA":" ","LANE":" ","ALLEY":" ","HOUSE_NO":"１２號九樓之２","E_COORD97":169955.89000000001,"N_COORD97":2542780.4100000001,"ADDRESS":"光華街１２號九樓之２","OBJECTID":593330},"geometry":{"x":169955.88999999966,"y":2542780.4100000001}},{"attributes":{"ID":593358,"DIS_CODE":0,"TOWNNAME":"東區","LI":"龍山里","LIN":"11鄰","STREET":"光華街","SECT":" ","MAREA":" ","LANE":" ","ALLEY":" ","HOUSE_NO":"１２號九樓之３","E_COORD97":169955.89000000001,"N_COORD97":2542780.4100000001,"ADDRESS":"光華街１２號九樓之３","OBJECTID":593331},"geometry":{"x":169955.88999999966,"y":2542780.4100000001}},{"attributes":{"ID":593359,"DIS_CODE":0,"TOWNNAME":"東區","LI":"龍山里","LIN":"11鄰","STREET":"光華街","SECT":" ","MAREA":" ","LANE":" ","ALLEY":" ","HOUSE_NO":"１２號九樓之４","E_COORD97":169955.89000000001,"N_COORD97":2542780.4100000001,"ADDRESS":"光華街１２號九樓之４","OBJECTID":593332},"geometry":{"x":169955.88999999966,"y":2542780.4100000001}},{"attributes":{"ID":593360,"DIS_CODE":0,"TOWNNAME":"東區","LI":"龍山里","LIN":"11鄰","STREET":"光華街","SECT":" ","MAREA":" ","LANE":" ","ALLEY":" ","HOUSE_NO":"１２號九樓之５","E_COORD97":169955.89000000001,"N_COORD97":2542780.4100000001,"ADDRESS":"光華街１２號九樓之５","OBJECTID":593333},"geometry":{"x":169955.88999999966,"y":2542780.4100000001}},{"attributes":{"ID":593361,"DIS_CODE":0,"TOWNNAME":"東區","LI":"龍山里","LIN":"11鄰","STREET":"光華街","SECT":" ","MAREA":" ","LANE":" ","ALLEY":" ","HOUSE_NO":"３４號二樓","E_COORD97":169877.60999999999,"N_COORD97":2542820.2599999998,"ADDRESS":"光華街３４號二樓","OBJECTID":593334},"geometry":{"x":169877.6100000022,"y":2542820.2600000016}},{"attributes":{"ID":593362,"DIS_CODE":0,"TOWNNAME":"東區","LI":"龍山里","LIN":"11鄰","STREET":"光華街","SECT":" ","MAREA":" ","LANE":" ","ALLEY":" ","HOUSE_NO":"３４號二樓之１","E_COORD97":169877.60999999999,"N_COORD97":2542820.2599999998,"ADDRESS":"光華街３４號二樓之１","OBJECTID":593335},"geometry":{"x":169877.6100000022,"y":2542820.2600000016}},{"attributes":{"ID":593363,"DIS_CODE":0,"TOWNNAME":"東區","LI":"龍山里","LIN":"11鄰","STREET":"光華街","SECT":" ","MAREA":" ","LANE":" ","ALLEY":" ","HOUSE_NO":"３４號三樓","E_COORD97":169877.60999999999,"N_COORD97":2542820.2599999998,"ADDRESS":"光華街３４號三樓","OBJECTID":593336},"geometry":{"x":169877.6100000022,"y":2542820.2600000016}},{"attributes":{"ID":593364,"DIS_CODE":0,"TOWNNAME":"東區","LI":"龍山里","LIN":"11鄰","STREET":"光華街","SECT":" ","MAREA":" ","LANE":" ","ALLEY":" ","HOUSE_NO":"３４號三樓之１","E_COORD97":169877.60999999999,"N_COORD97":2542820.2599999998,"ADDRESS":"光華街３４號三樓之１","OBJECTID":593337},"geometry":{"x":169877.6100000022,"y":2542820.2600000016}},{"attributes":{"ID":593365,"DIS_CODE":0,"TOWNNAME":"東區","LI":"龍山里","LIN":"11鄰","STREET":"光華街","SECT":" ","MAREA":" ","LANE":" ","ALLEY":" ","HOUSE_NO":"３４號三樓之２","E_COORD97":169877.60999999999,"N_COORD97":2542820.2599999998,"ADDRESS":"光華街３４號三樓之２","OBJECTID":593338},"geometry":{"x":169877.6100000022,"y":2542820.2600000016}},{"attributes":{"ID":593366,"DIS_CODE":0,"TOWNNAME":"東區","LI":"龍山里","LIN":"11鄰","STREET":"光華街","SECT":" ","MAREA":" ","LANE":" ","ALLEY":" ","HOUSE_NO":"３４號三樓之３","E_COORD97":169877.60999999999,"N_COORD97":2542820.2599999998,"ADDRESS":"光華街３４號三樓之３","OBJECTID":593339},"geometry":{"x":169877.6100000022,"y":2542820.2600000016}},{"attributes":{"ID":593367,"DIS_CODE":0,"TOWNNAME":"東區","LI":"龍山里","LIN":"11鄰","STREET":"光華街","SECT":" ","MAREA":" ","LANE":" ","ALLEY":" ","HOUSE_NO":"３４號四樓","E_COORD97":169877.60999999999,"N_COORD97":2542820.2599999998,"ADDRESS":"光華街３４號四樓","OBJECTID":593340},"geometry":{"x":169877.6100000022,"y":2542820.2600000016}},{"attributes":{"ID":593368,"DIS_CODE":0,"TOWNNAME":"東區","LI":"龍山里","LIN":"11鄰","STREET":"光華街","SECT":" ","MAREA":" ","LANE":" ","ALLEY":" ","HOUSE_NO":"３４號四樓之１","E_COORD97":169877.60999999999,"N_COORD97":2542820.2599999998,"ADDRESS":"光華街３４號四樓之１","OBJECTID":593341},"geometry":{"x":169877.6100000022,"y":2542820.2600000016}},{"attributes":{"ID":593369,"DIS_CODE":0,"TOWNNAME":"東區","LI":"龍山里","LIN":"11鄰","STREET":"光華街","SECT":" ","MAREA":" ","LANE":" ","ALLEY":" ","HOUSE_NO":"３４號四樓之２","E_COORD97":169877.60999999999,"N_COORD97":2542820.2599999998,"ADDRESS":"光華街３４號四樓之２","OBJECTID":593342},"geometry":{"x":169877.6100000022,"y":2542820.2600000016}},{"attributes":{"ID":593370,"DIS_CODE":0,"TOWNNAME":"東區","LI":"龍山里","LIN":"11鄰","STREET":"光華街","SECT":" ","MAREA":" ","LANE":" ","ALLEY":" ","HOUSE_NO":"３４號四樓之３","E_COORD97":169877.60999999999,"N_COORD97":2542820.2599999998,"ADDRESS":"光華街３４號四樓之３","OBJECTID":593343},"geometry":{"x":169877.6100000022,"y":2542820.2600000016}},{"attributes":{"ID":593371,"DIS_CODE":0,"TOWNNAME":"東區","LI":"龍山里","LIN":"11鄰","STREET":"光華街","SECT":" ","MAREA":" ","LANE":" ","ALLEY":" ","HOUSE_NO":"３４號五樓","E_COORD97":169877.60999999999,"N_COORD97":2542820.2599999998,"ADDRESS":"光華街３４號五樓","OBJECTID":593344},"geometry":{"x":169877.6100000022,"y":2542820.2600000016}},{"attributes":{"ID":593372,"DIS_CODE":0,"TOWNNAME":"東區","LI":"龍山里","LIN":"11鄰","STREET":"光華街","SECT":" ","MAREA":" ","LANE":" ","ALLEY":" ","HOUSE_NO":"３４號五樓之１","E_COORD97":169877.60999999999,"N_COORD97":2542820.2599999998,"ADDRESS":"光華街３４號五樓之１","OBJECTID":593345},"geometry":{"x":169877.6100000022,"y":2542820.2600000016}},{"attributes":{"ID":593373,"DIS_CODE":0,"TOWNNAME":"東區","LI":"龍山里","LIN":"11鄰","STREET":"光華街","SECT":" ","MAREA":" ","LANE":" ","ALLEY":" ","HOUSE_NO":"３４號五樓之２","E_COORD97":169877.60999999999,"N_COORD97":2542820.2599999998,"ADDRESS":"光華街３４號五樓之２","OBJECTID":593346},"geometry":{"x":169877.6100000022,"y":2542820.2600000016}},{"attributes":{"ID":593374,"DIS_CODE":0,"TOWNNAME":"東區","LI":"龍山里","LIN":"11鄰","STREET":"光華街","SECT":" ","MAREA":" ","LANE":" ","ALLEY":" ","HOUSE_NO":"３４號五樓之３","E_COORD97":169877.60999999999,"N_COORD97":2542820.2599999998,"ADDRESS":"光華街３４號五樓之３","OBJECTID":593347},"geometry":{"x":169877.6100000022,"y":2542820.2600000016}},{"attributes":{"ID":593375,"DIS_CODE":0,"TOWNNAME":"東區","LI":"龍山里","LIN":"11鄰","STREET":"光華街","SECT":" ","MAREA":" ","LANE":" ","ALLEY":" ","HOUSE_NO":"３４號六樓","E_COORD97":169877.60999999999,"N_COORD97":2542820.2599999998,"ADDRESS":"光華街３４號六樓","OBJECTID":593348},"geometry":{"x":169877.6100000022,"y":2542820.2600000016}},{"attributes":{"ID":593376,"DIS_CODE":0,"TOWNNAME":"東區","LI":"龍山里","LIN":"11鄰","STREET":"光華街","SECT":" ","MAREA":" ","LANE":" ","ALLEY":" ","HOUSE_NO":"３４號六樓之１","E_COORD97":169877.60999999999,"N_COORD97":2542820.2599999998,"ADDRESS":"光華街３４號六樓之１","OBJECTID":593349},"geometry":{"x":169877.6100000022,"y":2542820.2600000016}},{"attributes":{"ID":593377,"DIS_CODE":0,"TOWNNAME":"東區","LI":"龍山里","LIN":"11鄰","STREET":"光華街","SECT":" ","MAREA":" ","LANE":" ","ALLEY":" ","HOUSE_NO":"３４號六樓之２","E_COORD97":169877.60999999999,"N_COORD97":2542820.2599999998,"ADDRESS":"光華街３４號六樓之２","OBJECTID":593350},"geometry":{"x":169877.6100000022,"y":2542820.2600000016}},{"attributes":{"ID":593378,"DIS_CODE":0,"TOWNNAME":"東區","LI":"龍山里","LIN":"11鄰","STREET":"光華街","SECT":" ","MAREA":" ","LANE":" ","ALLEY":" ","HOUSE_NO":"３４號六樓之３","E_COORD97":169877.60999999999,"N_COORD97":2542820.2599999998,"ADDRESS":"光華街３４號六樓之３","OBJECTID":593351},"geometry":{"x":169877.6100000022,"y":2542820.2600000016}},{"attributes":{"ID":593379,"DIS_CODE":0,"TOWNNAME":"東區","LI":"龍山里","LIN":"11鄰","STREET":"光華街","SECT":" ","MAREA":" ","LANE":" ","ALLEY":" ","HOUSE_NO":"３４號七樓","E_COORD97":169877.60999999999,"N_COORD97":2542820.2599999998,"ADDRESS":"光華街３４號七樓","OBJECTID":593352},"geometry":{"x":169877.6100000022,"y":2542820.2600000016}},{"attributes":{"ID":593380,"DIS_CODE":0,"TOWNNAME":"東區","LI":"龍山里","LIN":"11鄰","STREET":"光華街","SECT":" ","MAREA":" ","LANE":" ","ALLEY":" ","HOUSE_NO":"３４號七樓之１","E_COORD97":169877.60999999999,"N_COORD97":2542820.2599999998,"ADDRESS":"光華街３４號七樓之１","OBJECTID":593353},"geometry":{"x":169877.6100000022,"y":2542820.2600000016}},{"attributes":{"ID":593381,"DIS_CODE":0,"TOWNNAME":"東區","LI":"龍山里","LIN":"11鄰","STREET":"光華街","SECT":" ","MAREA":" ","LANE":" ","ALLEY":" ","HOUSE_NO":"３４號七樓之２","E_COORD97":169877.60999999999,"N_COORD97":2542820.2599999998,"ADDRESS":"光華街３４號七樓之２","OBJECTID":593354},"geometry":{"x":169877.6100000022,"y":2542820.2600000016}},{"attributes":{"ID":593382,"DIS_CODE":0,"TOWNNAME":"東區","LI":"龍山里","LIN":"11鄰","STREET":"光華街","SECT":" ","MAREA":" ","LANE":" ","ALLEY":" ","HOUSE_NO":"３４號七樓之３","E_COORD97":169877.60999999999,"N_COORD97":2542820.2599999998,"ADDRESS":"光華街３４號七樓之３","OBJECTID":593355},"geometry":{"x":169877.6100000022,"y":2542820.2600000016}},{"attributes":{"ID":593383,"DIS_CODE":0,"TOWNNAME":"東區","LI":"龍山里","LIN":"11鄰","STREET":"光華街","SECT":" ","MAREA":" ","LANE":" ","ALLEY":" ","HOUSE_NO":"３４號八樓","E_COORD97":169877.60999999999,"N_COORD97":2542820.2599999998,"ADDRESS":"光華街３４號八樓","OBJECTID":593356},"geometry":{"x":169877.6100000022,"y":2542820.2600000016}},{"attributes":{"ID":593384,"DIS_CODE":0,"TOWNNAME":"東區","LI":"龍山里","LIN":"11鄰","STREET":"光華街","SECT":" ","MAREA":" ","LANE":" ","ALLEY":" ","HOUSE_NO":"３４號八樓之１","E_COORD97":169877.60999999999,"N_COORD97":2542820.2599999998,"ADDRESS":"光華街３４號八樓之１","OBJECTID":593357},"geometry":{"x":169877.6100000022,"y":2542820.2600000016}},{"attributes":{"ID":593385,"DIS_CODE":0,"TOWNNAME":"東區","LI":"龍山里","LIN":"11鄰","STREET":"光華街","SECT":" ","MAREA":" ","LANE":" ","ALLEY":" ","HOUSE_NO":"３４號九樓","E_COORD97":169877.60999999999,"N_COORD97":2542820.2599999998,"ADDRESS":"光華街３４號九樓","OBJECTID":593358},"geometry":{"x":169877.6100000022,"y":2542820.2600000016}},{"attributes":{"ID":593386,"DIS_CODE":0,"TOWNNAME":"東區","LI":"龍山里","LIN":"11鄰","STREET":"光華街","SECT":" ","MAREA":" ","LANE":" ","ALLEY":" ","HOUSE_NO":"３４號九樓之１","E_COORD97":169877.60999999999,"N_COORD97":2542820.2599999998,"ADDRESS":"光華街３４號九樓之１","OBJECTID":593359},"geometry":{"x":169877.6100000022,"y":2542820.2600000016}},{"attributes":{"ID":593387,"DIS_CODE":0,"TOWNNAME":"東區","LI":"龍山里","LIN":"11鄰","STREET":"光華街","SECT":" ","MAREA":" ","LANE":" ","ALLEY":" ","HOUSE_NO":"１８號三樓","E_COORD97":169930.64999999999,"N_COORD97":2542794.48,"ADDRESS":"光華街１８號三樓","OBJECTID":593360},"geometry":{"x":169930.6500000013,"y":2542794.4800000023}},{"attributes":{"ID":593388,"DIS_CODE":0,"TOWNNAME":"東區","LI":"龍山里","LIN":"11鄰","STREET":"光華街","SECT":" ","MAREA":" ","LANE":" ","ALLEY":" ","HOUSE_NO":"１８號四樓","E_COORD97":169930.64999999999,"N_COORD97":2542794.48,"ADDRESS":"光華街１８號四樓","OBJECTID":593361},"geometry":{"x":169930.6500000013,"y":2542794.4800000023}},{"attributes":{"ID":593389,"DIS_CODE":0,"TOWNNAME":"東區","LI":"龍山里","LIN":"11鄰","STREET":"光華街","SECT":" ","MAREA":" ","LANE":" ","ALLEY":" ","HOUSE_NO":"１８號五樓","E_COORD97":169930.64999999999,"N_COORD97":2542794.48,"ADDRESS":"光華街１８號五樓","OBJECTID":593362},"geometry":{"x":169930.6500000013,"y":2542794.4800000023}},{"attributes":{"ID":593390,"DIS_CODE":0,"TOWNNAME":"東區","LI":"龍山里","LIN":"11鄰","STREET":"光華街","SECT":" ","MAREA":" ","LANE":" ","ALLEY":" ","HOUSE_NO":"１８號六樓","E_COORD97":169930.64999999999,"N_COORD97":2542794.48,"ADDRESS":"光華街１８號六樓","OBJECTID":593363},"geometry":{"x":169930.6500000013,"y":2542794.4800000023}},{"attributes":{"ID":593391,"DIS_CODE":0,"TOWNNAME":"東區","LI":"龍山里","LIN":"11鄰","STREET":"光華街","SECT":" ","MAREA":" ","LANE":" ","ALLEY":" ","HOUSE_NO":"１８號七樓","E_COORD97":169930.64999999999,"N_COORD97":2542794.48,"ADDRESS":"光華街１８號七樓","OBJECTID":593364},"geometry":{"x":169930.6500000013,"y":2542794.4800000023}},{"attributes":{"ID":593392,"DIS_CODE":0,"TOWNNAME":"東區","LI":"龍山里","LIN":"11鄰","STREET":"光華街","SECT":" ","MAREA":" ","LANE":" ","ALLEY":" ","HOUSE_NO":"１８號八樓","E_COORD97":169930.64999999999,"N_COORD97":2542794.48,"ADDRESS":"光華街１８號八樓","OBJECTID":593365},"geometry":{"x":169930.6500000013,"y":2542794.4800000023}},{"attributes":{"ID":593393,"DIS_CODE":0,"TOWNNAME":"東區","LI":"龍山里","LIN":"11鄰","STREET":"光華街","SECT":" ","MAREA":" ","LANE":" ","ALLEY":" ","HOUSE_NO":"１８號九樓","E_COORD97":169930.64999999999,"N_COORD97":2542794.48,"ADDRESS":"光華街１８號九樓","OBJECTID":593366},"geometry":{"x":169930.6500000013,"y":2542794.4800000023}},{"attributes":{"ID":593394,"DIS_CODE":0,"TOWNNAME":"東區","LI":"龍山里","LIN":"11鄰","STREET":"光華街","SECT":" ","MAREA":" ","LANE":" ","ALLEY":" ","HOUSE_NO":"２０號三樓","E_COORD97":169924.17000000001,"N_COORD97":2542798.9399999999,"ADDRESS":"光華街２０號三樓","OBJECTID":593367},"geometry":{"x":169924.17000000179,"y":2542798.9399999995}},{"attributes":{"ID":593395,"DIS_CODE":0,"TOWNNAME":"東區","LI":"龍山里","LIN":"11鄰","STREET":"光華街","SECT":" ","MAREA":" ","LANE":" ","ALLEY":" ","HOUSE_NO":"２０號四樓","E_COORD97":169924.17000000001,"N_COORD97":2542798.9399999999,"ADDRESS":"光華街２０號四樓","OBJECTID":593368},"geometry":{"x":169924.17000000179,"y":2542798.9399999995}},{"attributes":{"ID":593396,"DIS_CODE":0,"TOWNNAME":"東區","LI":"龍山里","LIN":"11鄰","STREET":"光華街","SECT":" ","MAREA":" ","LANE":" ","ALLEY":" ","HOUSE_NO":"２０號五樓","E_COORD97":169924.17000000001,"N_COORD97":2542798.9399999999,"ADDRESS":"光華街２０號五樓","OBJECTID":593369},"geometry":{"x":169924.17000000179,"y":2542798.9399999995}},{"attributes":{"ID":593397,"DIS_CODE":0,"TOWNNAME":"東區","LI":"龍山里","LIN":"11鄰","STREET":"光華街","SECT":" ","MAREA":" ","LANE":" ","ALLEY":" ","HOUSE_NO":"２０號六樓","E_COORD97":169924.17000000001,"N_COORD97":2542798.9399999999,"ADDRESS":"光華街２０號六樓","OBJECTID":593370},"geometry":{"x":169924.17000000179,"y":2542798.9399999995}},{"attributes":{"ID":593398,"DIS_CODE":0,"TOWNNAME":"東區","LI":"龍山里","LIN":"11鄰","STREET":"光華街","SECT":" ","MAREA":" ","LANE":" ","ALLEY":" ","HOUSE_NO":"２０號七樓","E_COORD97":169924.17000000001,"N_COORD97":2542798.9399999999,"ADDRESS":"光華街２０號七樓","OBJECTID":593371},"geometry":{"x":169924.17000000179,"y":2542798.9399999995}},{"attributes":{"ID":593399,"DIS_CODE":0,"TOWNNAME":"東區","LI":"龍山里","LIN":"11鄰","STREET":"光華街","SECT":" ","MAREA":" ","LANE":" ","ALLEY":" ","HOUSE_NO":"２０號八樓","E_COORD97":169924.17000000001,"N_COORD97":2542798.9399999999,"ADDRESS":"光華街２０號八樓","OBJECTID":593372},"geometry":{"x":169924.17000000179,"y":2542798.9399999995}},{"attributes":{"ID":593400,"DIS_CODE":0,"TOWNNAME":"東區","LI":"龍山里","LIN":"11鄰","STREET":"光華街","SECT":" ","MAREA":" ","LANE":" ","ALLEY":" ","HOUSE_NO":"２０號九樓","E_COORD97":169924.17000000001,"N_COORD97":2542798.9399999999,"ADDRESS":"光華街２０號九樓","OBJECTID":593373},"geometry":{"x":169924.17000000179,"y":2542798.9399999995}},{"attributes":{"ID":593401,"DIS_CODE":0,"TOWNNAME":"東區","LI":"龍山里","LIN":"11鄰","STREET":"光華街","SECT":" ","MAREA":" ","LANE":" ","ALLEY":" ","HOUSE_NO":"２２號三樓","E_COORD97":169917.39000000001,"N_COORD97":2542802.6899999999,"ADDRESS":"光華街２２號三樓","OBJECTID":593374},"geometry":{"x":169917.39000000153,"y":2542802.6900000013}},{"attributes":{"ID":593402,"DIS_CODE":0,"TOWNNAME":"東區","LI":"龍山里","LIN":"11鄰","STREET":"光華街","SECT":" ","MAREA":" ","LANE":" ","ALLEY":" ","HOUSE_NO":"２２號四樓","E_COORD97":169917.39000000001,"N_COORD97":2542802.6899999999,"ADDRESS":"光華街２２號四樓","OBJECTID":593375},"geometry":{"x":169917.39000000153,"y":2542802.6900000013}},{"attributes":{"ID":593403,"DIS_CODE":0,"TOWNNAME":"東區","LI":"龍山里","LIN":"11鄰","STREET":"光華街","SECT":" ","MAREA":" ","LANE":" ","ALLEY":" ","HOUSE_NO":"２２號五樓","E_COORD97":169917.39000000001,"N_COORD97":2542802.6899999999,"ADDRESS":"光華街２２號五樓","OBJECTID":593376},"geometry":{"x":169917.39000000153,"y":2542802.6900000013}},{"attributes":{"ID":593404,"DIS_CODE":0,"TOWNNAME":"東區","LI":"龍山里","LIN":"11鄰","STREET":"光華街","SECT":" ","MAREA":" ","LANE":" ","ALLEY":" ","HOUSE_NO":"２２號六樓","E_COORD97":169917.39000000001,"N_COORD97":2542802.6899999999,"ADDRESS":"光華街２２號六樓","OBJECTID":593377},"geometry":{"x":169917.39000000153,"y":2542802.6900000013}},{"attributes":{"ID":593405,"DIS_CODE":0,"TOWNNAME":"東區","LI":"龍山里","LIN":"11鄰","STREET":"光華街","SECT":" ","MAREA":" ","LANE":" ","ALLEY":" ","HOUSE_NO":"２２號七樓","E_COORD97":169917.39000000001,"N_COORD97":2542802.6899999999,"ADDRESS":"光華街２２號七樓","OBJECTID":593378},"geometry":{"x":169917.39000000153,"y":2542802.6900000013}},{"attributes":{"ID":593406,"DIS_CODE":0,"TOWNNAME":"東區","LI":"龍山里","LIN":"11鄰","STREET":"光華街","SECT":" ","MAREA":" ","LANE":" ","ALLEY":" ","HOUSE_NO":"２２號八樓","E_COORD97":169917.39000000001,"N_COORD97":2542802.6899999999,"ADDRESS":"光華街２２號八樓","OBJECTID":593379},"geometry":{"x":169917.39000000153,"y":2542802.6900000013}},{"attributes":{"ID":593407,"DIS_CODE":0,"TOWNNAME":"東區","LI":"龍山里","LIN":"11鄰","STREET":"光華街","SECT":" ","MAREA":" ","LANE":" ","ALLEY":" ","HOUSE_NO":"２２號九樓","E_COORD97":169917.39000000001,"N_COORD97":2542802.6899999999,"ADDRESS":"光華街２２號九樓","OBJECTID":593380},"geometry":{"x":169917.39000000153,"y":2542802.6900000013}},{"attributes":{"ID":593408,"DIS_CODE":0,"TOWNNAME":"東區","LI":"龍山里","LIN":"11鄰","STREET":"光華街","SECT":" ","MAREA":" ","LANE":" ","ALLEY":" ","HOUSE_NO":"２４號三樓","E_COORD97":169911.04999999999,"N_COORD97":2542806.1499999999,"ADDRESS":"光華街２４號三樓","OBJECTID":593381},"geometry":{"x":169911.04999999981,"y":2542806.1500000004}},{"attributes":{"ID":593409,"DIS_CODE":0,"TOWNNAME":"東區","LI":"龍山里","LIN":"11鄰","STREET":"光華街","SECT":" ","MAREA":" ","LANE":" ","ALLEY":" ","HOUSE_NO":"２４號四樓","E_COORD97":169911.04999999999,"N_COORD97":2542806.1499999999,"ADDRESS":"光華街２４號四樓","OBJECTID":593382},"geometry":{"x":169911.04999999981,"y":2542806.1500000004}},{"attributes":{"ID":593410,"DIS_CODE":0,"TOWNNAME":"東區","LI":"龍山里","LIN":"11鄰","STREET":"光華街","SECT":" ","MAREA":" ","LANE":" ","ALLEY":" ","HOUSE_NO":"２４號五樓","E_COORD97":169911.04999999999,"N_COORD97":2542806.1499999999,"ADDRESS":"光華街２４號五樓","OBJECTID":593383},"geometry":{"x":169911.04999999981,"y":2542806.1500000004}},{"attributes":{"ID":593411,"DIS_CODE":0,"TOWNNAME":"東區","LI":"龍山里","LIN":"11鄰","STREET":"光華街","SECT":" ","MAREA":" ","LANE":" ","ALLEY":" ","HOUSE_NO":"２４號六樓","E_COORD97":169911.04999999999,"N_COORD97":2542806.1499999999,"ADDRESS":"光華街２４號六樓","OBJECTID":593384},"geometry":{"x":169911.04999999981,"y":2542806.1500000004}},{"attributes":{"ID":593412,"DIS_CODE":0,"TOWNNAME":"東區","LI":"龍山里","LIN":"11鄰","STREET":"光華街","SECT":" ","MAREA":" ","LANE":" ","ALLEY":" ","HOUSE_NO":"２４號七樓","E_COORD97":169911.04999999999,"N_COORD97":2542806.1499999999,"ADDRESS":"光華街２４號七樓","OBJECTID":593385},"geometry":{"x":169911.04999999981,"y":2542806.1500000004}},{"attributes":{"ID":593413,"DIS_CODE":0,"TOWNNAME":"東區","LI":"龍山里","LIN":"11鄰","STREET":"光華街","SECT":" ","MAREA":" ","LANE":" ","ALLEY":" ","HOUSE_NO":"２４號八樓","E_COORD97":169911.04999999999,"N_COORD97":2542806.1499999999,"ADDRESS":"光華街２４號八樓","OBJECTID":593386},"geometry":{"x":169911.04999999981,"y":2542806.1500000004}},{"attributes":{"ID":593414,"DIS_CODE":0,"TOWNNAME":"東區","LI":"龍山里","LIN":"11鄰","STREET":"光華街","SECT":" ","MAREA":" ","LANE":" ","ALLEY":" ","HOUSE_NO":"２４號九樓","E_COORD97":169911.04999999999,"N_COORD97":2542806.1499999999,"ADDRESS":"光華街２４號九樓","OBJECTID":593387},"geometry":{"x":169911.04999999981,"y":2542806.1500000004}},{"attributes":{"ID":593415,"DIS_CODE":0,"TOWNNAME":"東區","LI":"龍山里","LIN":"11鄰","STREET":"光華街","SECT":" ","MAREA":" ","LANE":" ","ALLEY":" ","HOUSE_NO":"２６號三樓","E_COORD97":169906.57999999999,"N_COORD97":2542810.1800000002,"ADDRESS":"光華街２６號三樓","OBJECTID":593388},"geometry":{"x":169906.58000000101,"y":2542810.1800000016}},{"attributes":{"ID":593416,"DIS_CODE":0,"TOWNNAME":"東區","LI":"龍山里","LIN":"11鄰","STREET":"光華街","SECT":" ","MAREA":" ","LANE":" ","ALLEY":" ","HOUSE_NO":"２６號四樓","E_COORD97":169906.57999999999,"N_COORD97":2542810.1800000002,"ADDRESS":"光華街２６號四樓","OBJECTID":593389},"geometry":{"x":169906.58000000101,"y":2542810.1800000016}},{"attributes":{"ID":593417,"DIS_CODE":0,"TOWNNAME":"東區","LI":"德高里","LIN":"11鄰","STREET":"德高街","SECT":" ","MAREA":" ","LANE":" ","ALLEY":" ","HOUSE_NO":"７６號七樓","E_COORD97":171491.97,"N_COORD97":2540806.7599999998,"ADDRESS":"德高街７６號七樓","OBJECTID":593390},"geometry":{"x":171491.97000000067,"y":2540806.7599999998}},{"attributes":{"ID":593418,"DIS_CODE":0,"TOWNNAME":"東區","LI":"德高里","LIN":"11鄰","STREET":"德高街","SECT":" ","MAREA":" ","LANE":" ","ALLEY":" ","HOUSE_NO":"７６號五樓","E_COORD97":171491.97,"N_COORD97":2540806.7599999998,"ADDRESS":"德高街７６號五樓","OBJECTID":593391},"geometry":{"x":171491.97000000067,"y":2540806.7599999998}},{"attributes":{"ID":593419,"DIS_CODE":0,"TOWNNAME":"東區","LI":"龍山里","LIN":"11鄰","STREET":"光華街","SECT":" ","MAREA":" ","LANE":" ","ALLEY":" ","HOUSE_NO":"２６號六樓","E_COORD97":169906.57999999999,"N_COORD97":2542810.1800000002,"ADDRESS":"光華街２６號六樓","OBJECTID":593392},"geometry":{"x":169906.58000000101,"y":2542810.1800000016}},{"attributes":{"ID":593420,"DIS_CODE":0,"TOWNNAME":"東區","LI":"龍山里","LIN":"11鄰","STREET":"光華街","SECT":" ","MAREA":" ","LANE":" ","ALLEY":" ","HOUSE_NO":"２６號七樓","E_COORD97":169906.57999999999,"N_COORD97":2542810.1800000002,"ADDRESS":"光華街２６號七樓","OBJECTID":593393},"geometry":{"x":169906.58000000101,"y":2542810.1800000016}},{"attributes":{"ID":593421,"DIS_CODE":0,"TOWNNAME":"東區","LI":"龍山里","LIN":"11鄰","STREET":"光華街","SECT":" ","MAREA":" ","LANE":" ","ALLEY":" ","HOUSE_NO":"２６號八樓","E_COORD97":169906.57999999999,"N_COORD97":2542810.1800000002,"ADDRESS":"光華街２６號八樓","OBJECTID":593394},"geometry":{"x":169906.58000000101,"y":2542810.1800000016}},{"attributes":{"ID":593422,"DIS_CODE":0,"TOWNNAME":"東區","LI":"龍山里","LIN":"11鄰","STREET":"光華街","SECT":" ","MAREA":" ","LANE":" ","ALLEY":" ","HOUSE_NO":"２６號九樓","E_COORD97":169906.57999999999,"N_COORD97":2542810.1800000002,"ADDRESS":"光華街２６號九樓","OBJECTID":593395},"geometry":{"x":169906.58000000101,"y":2542810.1800000016}},{"attributes":{"ID":593423,"DIS_CODE":0,"TOWNNAME":"東區","LI":"龍山里","LIN":"11鄰","STREET":"光華街","SECT":" ","MAREA":" ","LANE":" ","ALLEY":" ","HOUSE_NO":"２８號三樓","E_COORD97":169901.82999999999,"N_COORD97":2542813.3500000001,"ADDRESS":"光華街２８號三樓","OBJECTID":593396},"geometry":{"x":169901.83000000101,"y":2542813.3499999996}},{"attributes":{"ID":593424,"DIS_CODE":0,"TOWNNAME":"東區","LI":"龍山里","LIN":"11鄰","STREET":"光華街","SECT":" ","MAREA":" ","LANE":" ","ALLEY":" ","HOUSE_NO":"２８號四樓","E_COORD97":169901.82999999999,"N_COORD97":2542813.3500000001,"ADDRESS":"光華街２８號四樓","OBJECTID":593397},"geometry":{"x":169901.83000000101,"y":2542813.3499999996}},{"attributes":{"ID":593425,"DIS_CODE":0,"TOWNNAME":"東區","LI":"龍山里","LIN":"11鄰","STREET":"光華街","SECT":" ","MAREA":" ","LANE":" ","ALLEY":" ","HOUSE_NO":"２８號五樓","E_COORD97":169901.82999999999,"N_COORD97":2542813.3500000001,"ADDRESS":"光華街２８號五樓","OBJECTID":593398},"geometry":{"x":169901.83000000101,"y":2542813.3499999996}},{"attributes":{"ID":593426,"DIS_CODE":0,"TOWNNAME":"東區","LI":"龍山里","LIN":"11鄰","STREET":"光華街","SECT":" ","MAREA":" ","LANE":" ","ALLEY":" ","HOUSE_NO":"２８號六樓","E_COORD97":169901.82999999999,"N_COORD97":2542813.3500000001,"ADDRESS":"光華街２８號六樓","OBJECTID":593399},"geometry":{"x":169901.83000000101,"y":2542813.3499999996}},{"attributes":{"ID":593427,"DIS_CODE":0,"TOWNNAME":"東區","LI":"龍山里","LIN":"11鄰","STREET":"光華街","SECT":" ","MAREA":" ","LANE":" ","ALLEY":" ","HOUSE_NO":"２８號七樓","E_COORD97":169901.82999999999,"N_COORD97":2542813.3500000001,"ADDRESS":"光華街２８號七樓","OBJECTID":593400},"geometry":{"x":169901.83000000101,"y":2542813.3499999996}}]}