{"displayFieldName":"TOWNNAME","fieldAliases":{"ID":"ID","DIS_CODE":"DIS_CODE","TOWNNAME":"TOWNNAME","LI":"LI","LIN":"LIN","STREET":"STREET","SECT":"SECT","MAREA":"MAREA","LANE":"LANE","ALLEY":"ALLEY","HOUSE_NO":"HOUSE_NO","E_COORD97":"E_COORD97","N_COORD97":"N_COORD97","ADDRESS":"ADDRESS","OBJECTID":"OBJECTID"},"geometryType":"esriGeometryPoint","spatialReference":{"wkid":102443,"latestWkid":3826},"fields":[{"name":"ID","type":"esriFieldTypeDouble","alias":"ID"},{"name":"DIS_CODE","type":"esriFieldTypeInteger","alias":"DIS_CODE"},{"name":"TOWNNAME","type":"esriFieldTypeString","alias":"TOWNNAME","length":8},{"name":"LI","type":"esriFieldTypeString","alias":"LI","length":8},{"name":"LIN","type":"esriFieldTypeString","alias":"LIN","length":12},{"name":"STREET","type":"esriFieldTypeString","alias":"STREET","length":20},{"name":"SECT","type":"esriFieldTypeString","alias":"SECT","length":8},{"name":"MAREA","type":"esriFieldTypeString","alias":"MAREA","length":12},{"name":"LANE","type":"esriFieldTypeString","alias":"LANE","length":10},{"name":"ALLEY","type":"esriFieldTypeString","alias":"ALLEY","length":10},{"name":"HOUSE_NO","type":"esriFieldTypeString","alias":"HOUSE_NO","length":20},{"name":"E_COORD97","type":"esriFieldTypeDouble","alias":"E_COORD97"},{"name":"N_COORD97","type":"esriFieldTypeDouble","alias":"N_COORD97"},{"name":"ADDRESS","type":"esriFieldTypeString","alias":"ADDRESS","length":50},{"name":"OBJECTID","type":"esriFieldTypeOID","alias":"OBJECTID"}],"features":[{"attributes":{"ID":236005,"DIS_CODE":0,"TOWNNAME":"中西區","LI":"郡王里","LIN":"14鄰","STREET":"建業街","SECT":" ","MAREA":" ","LANE":" ","ALLEY":" ","HOUSE_NO":"４１號之３二樓","E_COORD97":168479.84,"N_COORD97":2543142.6400000001,"ADDRESS":"建業街４１號之３二樓","OBJECTID":236001},"geometry":{"x":168479.83999999985,"y":2543142.6400000043}},{"attributes":{"ID":236006,"DIS_CODE":0,"TOWNNAME":"永康區","LI":"烏竹里","LIN":"16鄰","STREET":"龍橋街","SECT":" ","MAREA":" ","LANE":"２９６巷","ALLEY":" ","HOUSE_NO":"１２號","E_COORD97":174551.47,"N_COORD97":2549004.75,"ADDRESS":"龍橋街２９６巷１２號","OBJECTID":236002},"geometry":{"x":174551.46999999881,"y":2549004.75}},{"attributes":{"ID":236007,"DIS_CODE":0,"TOWNNAME":"永康區","LI":"勝利里","LIN":"16鄰","STREET":"勝利街","SECT":" ","MAREA":" ","LANE":"１０７巷","ALLEY":" ","HOUSE_NO":"６８號","E_COORD97":171184.07000000001,"N_COORD97":2544940.75,"ADDRESS":"勝利街１０７巷６８號","OBJECTID":236003},"geometry":{"x":171184.0700000003,"y":2544940.75}},{"attributes":{"ID":236008,"DIS_CODE":0,"TOWNNAME":"永康區","LI":"勝利里","LIN":"16鄰","STREET":"勝利街","SECT":" ","MAREA":" ","LANE":"１１３巷","ALLEY":" ","HOUSE_NO":"２１號","E_COORD97":171301.64000000001,"N_COORD97":2544919.25,"ADDRESS":"勝利街１１３巷２１號","OBJECTID":236004},"geometry":{"x":171301.63999999966,"y":2544919.2500000019}},{"attributes":{"ID":236009,"DIS_CODE":0,"TOWNNAME":"永康區","LI":"烏竹里","LIN":"16鄰","STREET":"龍橋街","SECT":" ","MAREA":" ","LANE":"２９６巷","ALLEY":" ","HOUSE_NO":"２７號","E_COORD97":174584.39999999999,"N_COORD97":2549048.4900000002,"ADDRESS":"龍橋街２９６巷２７號","OBJECTID":236005},"geometry":{"x":174584.40000000037,"y":2549048.4900000002}},{"attributes":{"ID":236010,"DIS_CODE":0,"TOWNNAME":"下營區","LI":"營前里","LIN":"21鄰","STREET":"中華街","SECT":" ","MAREA":" ","LANE":"１８巷","ALLEY":" ","HOUSE_NO":"１８號","E_COORD97":174843.83011099999,"N_COORD97":2570402.5403800001,"ADDRESS":"中華街１８巷１８號","OBJECTID":236006},"geometry":{"x":174843.83011100162,"y":2570402.5403840002}},{"attributes":{"ID":236011,"DIS_CODE":0,"TOWNNAME":"東區","LI":"復興里","LIN":"13鄰","STREET":"自由路","SECT":"三段","MAREA":" ","LANE":" ","ALLEY":" ","HOUSE_NO":"２４３號六樓之２","E_COORD97":171759.97,"N_COORD97":2542606.8399999999,"ADDRESS":"自由路三段２４３號六樓之２","OBJECTID":236007},"geometry":{"x":171759.97000000067,"y":2542606.8399999999}},{"attributes":{"ID":236012,"DIS_CODE":0,"TOWNNAME":"東區","LI":"復興里","LIN":"13鄰","STREET":"自由路","SECT":"三段","MAREA":" ","LANE":" ","ALLEY":" ","HOUSE_NO":"２４３號六樓之３","E_COORD97":171759.97,"N_COORD97":2542606.8399999999,"ADDRESS":"自由路三段２４３號六樓之３","OBJECTID":236008},"geometry":{"x":171759.97000000067,"y":2542606.8399999999}},{"attributes":{"ID":236013,"DIS_CODE":0,"TOWNNAME":"東區","LI":"復興里","LIN":"13鄰","STREET":"自由路","SECT":"三段","MAREA":" ","LANE":" ","ALLEY":" ","HOUSE_NO":"２４３號四樓","E_COORD97":171759.97,"N_COORD97":2542606.8399999999,"ADDRESS":"自由路三段２４３號四樓","OBJECTID":236009},"geometry":{"x":171759.97000000067,"y":2542606.8399999999}},{"attributes":{"ID":236014,"DIS_CODE":0,"TOWNNAME":"東區","LI":"復興里","LIN":"13鄰","STREET":"自由路","SECT":"三段","MAREA":" ","LANE":" ","ALLEY":" ","HOUSE_NO":"２４３號四樓之１","E_COORD97":171759.97,"N_COORD97":2542606.8399999999,"ADDRESS":"自由路三段２４３號四樓之１","OBJECTID":236010},"geometry":{"x":171759.97000000067,"y":2542606.8399999999}},{"attributes":{"ID":236015,"DIS_CODE":0,"TOWNNAME":"東區","LI":"復興里","LIN":"13鄰","STREET":"自由路","SECT":"三段","MAREA":" ","LANE":" ","ALLEY":" ","HOUSE_NO":"２４３號四樓之２","E_COORD97":171759.97,"N_COORD97":2542606.8399999999,"ADDRESS":"自由路三段２４３號四樓之２","OBJECTID":236011},"geometry":{"x":171759.97000000067,"y":2542606.8399999999}},{"attributes":{"ID":236016,"DIS_CODE":0,"TOWNNAME":"東區","LI":"復興里","LIN":"13鄰","STREET":"自由路","SECT":"三段","MAREA":" ","LANE":" ","ALLEY":" ","HOUSE_NO":"２４３號四樓之３","E_COORD97":171759.97,"N_COORD97":2542606.8399999999,"ADDRESS":"自由路三段２４３號四樓之３","OBJECTID":236012},"geometry":{"x":171759.97000000067,"y":2542606.8399999999}},{"attributes":{"ID":236017,"DIS_CODE":0,"TOWNNAME":"東區","LI":"自強里","LIN":"13鄰","STREET":"富農街","SECT":"一段","MAREA":" ","LANE":"１３１巷","ALLEY":" ","HOUSE_NO":"４４號七樓","E_COORD97":171393.04000000001,"N_COORD97":2542489.3399999999,"ADDRESS":"富農街一段１３１巷４４號七樓","OBJECTID":236013},"geometry":{"x":171393.04000000004,"y":2542489.3400000036}},{"attributes":{"ID":236018,"DIS_CODE":0,"TOWNNAME":"東區","LI":"自強里","LIN":"13鄰","STREET":"富農街","SECT":"一段","MAREA":" ","LANE":"１３１巷","ALLEY":" ","HOUSE_NO":"４４號九樓","E_COORD97":171393.04000000001,"N_COORD97":2542489.3399999999,"ADDRESS":"富農街一段１３１巷４４號九樓","OBJECTID":236014},"geometry":{"x":171393.04000000004,"y":2542489.3400000036}},{"attributes":{"ID":236019,"DIS_CODE":0,"TOWNNAME":"東區","LI":"自強里","LIN":"13鄰","STREET":"富農街","SECT":"一段","MAREA":" ","LANE":"１３１巷","ALLEY":" ","HOUSE_NO":"４４號二樓","E_COORD97":171393.04000000001,"N_COORD97":2542489.3399999999,"ADDRESS":"富農街一段１３１巷４４號二樓","OBJECTID":236015},"geometry":{"x":171393.04000000004,"y":2542489.3400000036}},{"attributes":{"ID":236020,"DIS_CODE":0,"TOWNNAME":"中西區","LI":"郡王里","LIN":"14鄰","STREET":"建業街","SECT":" ","MAREA":" ","LANE":" ","ALLEY":" ","HOUSE_NO":"４１號之３三樓","E_COORD97":168479.84,"N_COORD97":2543142.6400000001,"ADDRESS":"建業街４１號之３三樓","OBJECTID":236016},"geometry":{"x":168479.83999999985,"y":2543142.6400000043}},{"attributes":{"ID":236021,"DIS_CODE":0,"TOWNNAME":"中西區","LI":"郡王里","LIN":"14鄰","STREET":"建業街","SECT":" ","MAREA":" ","LANE":" ","ALLEY":" ","HOUSE_NO":"４１號之３五樓","E_COORD97":168479.84,"N_COORD97":2543142.6400000001,"ADDRESS":"建業街４１號之３五樓","OBJECTID":236017},"geometry":{"x":168479.83999999985,"y":2543142.6400000043}},{"attributes":{"ID":236022,"DIS_CODE":0,"TOWNNAME":"中西區","LI":"郡王里","LIN":"14鄰","STREET":"建業街","SECT":" ","MAREA":" ","LANE":" ","ALLEY":" ","HOUSE_NO":"４１號之３六樓","E_COORD97":168479.84,"N_COORD97":2543142.6400000001,"ADDRESS":"建業街４１號之３六樓","OBJECTID":236018},"geometry":{"x":168479.83999999985,"y":2543142.6400000043}},{"attributes":{"ID":236023,"DIS_CODE":0,"TOWNNAME":"中西區","LI":"郡王里","LIN":"14鄰","STREET":"建業街","SECT":" ","MAREA":" ","LANE":" ","ALLEY":" ","HOUSE_NO":"４１號之３四樓","E_COORD97":168479.84,"N_COORD97":2543142.6400000001,"ADDRESS":"建業街４１號之３四樓","OBJECTID":236019},"geometry":{"x":168479.83999999985,"y":2543142.6400000043}},{"attributes":{"ID":236024,"DIS_CODE":0,"TOWNNAME":"永康區","LI":"烏竹里","LIN":"16鄰","STREET":"龍橋街","SECT":" ","MAREA":" ","LANE":"１８６巷","ALLEY":" ","HOUSE_NO":"５１號","E_COORD97":174755.12,"N_COORD97":2548819.7999999998,"ADDRESS":"龍橋街１８６巷５１號","OBJECTID":236020},"geometry":{"x":174755.12000000104,"y":2548819.8000000007}},{"attributes":{"ID":236025,"DIS_CODE":0,"TOWNNAME":"永康區","LI":"埔園里","LIN":"16鄰","STREET":"八德街","SECT":" ","MAREA":" ","LANE":"３５６巷","ALLEY":" ","HOUSE_NO":"２號","E_COORD97":173522.23000000001,"N_COORD97":2548579.8300000001,"ADDRESS":"八德街３５６巷２號","OBJECTID":236021},"geometry":{"x":173522.23000000138,"y":2548579.8300000019}},{"attributes":{"ID":236026,"DIS_CODE":0,"TOWNNAME":"東區","LI":"自強里","LIN":"13鄰","STREET":"富農街","SECT":"一段","MAREA":" ","LANE":"１３１巷","ALLEY":" ","HOUSE_NO":"４４號八樓","E_COORD97":171393.04000000001,"N_COORD97":2542489.3399999999,"ADDRESS":"富農街一段１３１巷４４號八樓","OBJECTID":236022},"geometry":{"x":171393.04000000004,"y":2542489.3400000036}},{"attributes":{"ID":236027,"DIS_CODE":0,"TOWNNAME":"東區","LI":"自強里","LIN":"13鄰","STREET":"富農街","SECT":"一段","MAREA":" ","LANE":"１３１巷","ALLEY":" ","HOUSE_NO":"４４號三樓","E_COORD97":171393.04000000001,"N_COORD97":2542489.3399999999,"ADDRESS":"富農街一段１３１巷４４號三樓","OBJECTID":236023},"geometry":{"x":171393.04000000004,"y":2542489.3400000036}},{"attributes":{"ID":236028,"DIS_CODE":0,"TOWNNAME":"新市區","LI":"社內里","LIN":"16鄰","STREET":" ","SECT":" ","MAREA":"社內","LANE":" ","ALLEY":" ","HOUSE_NO":"１６４之１１號","E_COORD97":176173.64000000001,"N_COORD97":2553093.5499999998,"ADDRESS":"社內１６４之１１號","OBJECTID":236024},"geometry":{"x":176173.63999999966,"y":2553093.5500000007}},{"attributes":{"ID":236029,"DIS_CODE":0,"TOWNNAME":"六甲區","LI":"七甲里","LIN":"8鄰","STREET":"七甲街","SECT":" ","MAREA":" ","LANE":"１０８巷","ALLEY":" ","HOUSE_NO":"８號","E_COORD97":183075.45000000001,"N_COORD97":2569070.2799999998,"ADDRESS":"七甲街１０８巷８號","OBJECTID":236025},"geometry":{"x":183075.44999999925,"y":2569070.2800000012}},{"attributes":{"ID":236030,"DIS_CODE":0,"TOWNNAME":"東區","LI":"自強里","LIN":"13鄰","STREET":"富農街","SECT":"一段","MAREA":" ","LANE":"１３１巷","ALLEY":" ","HOUSE_NO":"４４號五樓","E_COORD97":171393.04000000001,"N_COORD97":2542489.3399999999,"ADDRESS":"富農街一段１３１巷４４號五樓","OBJECTID":236026},"geometry":{"x":171393.04000000004,"y":2542489.3400000036}},{"attributes":{"ID":236031,"DIS_CODE":0,"TOWNNAME":"新市區","LI":"社內里","LIN":"16鄰","STREET":" ","SECT":" ","MAREA":"社內","LANE":" ","ALLEY":" ","HOUSE_NO":"１６７之１號","E_COORD97":176214.60999999999,"N_COORD97":2552942.7999999998,"ADDRESS":"社內１６７之１號","OBJECTID":236027},"geometry":{"x":176214.61000000127,"y":2552942.8000000007}},{"attributes":{"ID":236032,"DIS_CODE":0,"TOWNNAME":"東區","LI":"自強里","LIN":"13鄰","STREET":"富農街","SECT":"一段","MAREA":" ","LANE":"１３１巷","ALLEY":" ","HOUSE_NO":"４４號六樓","E_COORD97":171393.04000000001,"N_COORD97":2542489.3399999999,"ADDRESS":"富農街一段１３１巷４４號六樓","OBJECTID":236028},"geometry":{"x":171393.04000000004,"y":2542489.3400000036}},{"attributes":{"ID":236033,"DIS_CODE":0,"TOWNNAME":"東區","LI":"自強里","LIN":"13鄰","STREET":"富農街","SECT":"一段","MAREA":" ","LANE":"１３１巷","ALLEY":" ","HOUSE_NO":"４４號四樓","E_COORD97":171393.04000000001,"N_COORD97":2542489.3399999999,"ADDRESS":"富農街一段１３１巷４４號四樓","OBJECTID":236029},"geometry":{"x":171393.04000000004,"y":2542489.3400000036}},{"attributes":{"ID":236034,"DIS_CODE":0,"TOWNNAME":"山上區","LI":"明和里","LIN":"16鄰","STREET":" ","SECT":" ","MAREA":"明和","LANE":" ","ALLEY":" ","HOUSE_NO":"１９號之２","E_COORD97":183446.95999999999,"N_COORD97":2556055.2999999998,"ADDRESS":"明和１９號之２","OBJECTID":236030},"geometry":{"x":183446.96000000089,"y":2556055.2999999989}},{"attributes":{"ID":236035,"DIS_CODE":0,"TOWNNAME":"山上區","LI":"南洲里","LIN":"16鄰","STREET":" ","SECT":" ","MAREA":"南洲","LANE":" ","ALLEY":" ","HOUSE_NO":"２９２號","E_COORD97":183578.34,"N_COORD97":2555683.25,"ADDRESS":"南洲２９２號","OBJECTID":236031},"geometry":{"x":183578.34000000078,"y":2555683.2500000019}},{"attributes":{"ID":236036,"DIS_CODE":0,"TOWNNAME":"東區","LI":"自強里","LIN":"13鄰","STREET":"富農街","SECT":"一段","MAREA":" ","LANE":"１３１巷","ALLEY":" ","HOUSE_NO":"４５號七樓","E_COORD97":171395.85999999999,"N_COORD97":2542469.3399999999,"ADDRESS":"富農街一段１３１巷４５號七樓","OBJECTID":236032},"geometry":{"x":171395.86000000034,"y":2542469.3400000017}},{"attributes":{"ID":236037,"DIS_CODE":0,"TOWNNAME":"東區","LI":"自強里","LIN":"13鄰","STREET":"富農街","SECT":"一段","MAREA":" ","LANE":"１３１巷","ALLEY":" ","HOUSE_NO":"４５號二樓","E_COORD97":171395.85999999999,"N_COORD97":2542469.3399999999,"ADDRESS":"富農街一段１３１巷４５號二樓","OBJECTID":236033},"geometry":{"x":171395.86000000034,"y":2542469.3400000017}},{"attributes":{"ID":236038,"DIS_CODE":0,"TOWNNAME":"東區","LI":"自強里","LIN":"13鄰","STREET":"富農街","SECT":"一段","MAREA":" ","LANE":"１３１巷","ALLEY":" ","HOUSE_NO":"４５號三樓","E_COORD97":171395.85999999999,"N_COORD97":2542469.3399999999,"ADDRESS":"富農街一段１３１巷４５號三樓","OBJECTID":236034},"geometry":{"x":171395.86000000034,"y":2542469.3400000017}},{"attributes":{"ID":236039,"DIS_CODE":0,"TOWNNAME":"東區","LI":"自強里","LIN":"13鄰","STREET":"富農街","SECT":"一段","MAREA":" ","LANE":"１３１巷","ALLEY":" ","HOUSE_NO":"４５號五樓","E_COORD97":171395.85999999999,"N_COORD97":2542469.3399999999,"ADDRESS":"富農街一段１３１巷４５號五樓","OBJECTID":236035},"geometry":{"x":171395.86000000034,"y":2542469.3400000017}},{"attributes":{"ID":236040,"DIS_CODE":0,"TOWNNAME":"中西區","LI":"郡王里","LIN":"14鄰","STREET":"建業街","SECT":" ","MAREA":" ","LANE":" ","ALLEY":" ","HOUSE_NO":"４１號五樓","E_COORD97":168493.20999999999,"N_COORD97":2543143.0899999999,"ADDRESS":"建業街４１號五樓","OBJECTID":236036},"geometry":{"x":168493.21000000183,"y":2543143.0900000017}},{"attributes":{"ID":236041,"DIS_CODE":0,"TOWNNAME":"中西區","LI":"郡王里","LIN":"14鄰","STREET":"建業街","SECT":" ","MAREA":" ","LANE":" ","ALLEY":" ","HOUSE_NO":"４１號六樓","E_COORD97":168493.20999999999,"N_COORD97":2543143.0899999999,"ADDRESS":"建業街４１號六樓","OBJECTID":236037},"geometry":{"x":168493.21000000183,"y":2543143.0900000017}},{"attributes":{"ID":236042,"DIS_CODE":0,"TOWNNAME":"山上區","LI":"明和里","LIN":"16鄰","STREET":" ","SECT":" ","MAREA":"明和","LANE":" ","ALLEY":" ","HOUSE_NO":"３２號","E_COORD97":183394.98999999999,"N_COORD97":2556055.25,"ADDRESS":"明和３２號","OBJECTID":236038},"geometry":{"x":183394.99000000022,"y":2556055.2500000037}},{"attributes":{"ID":236043,"DIS_CODE":0,"TOWNNAME":"山上區","LI":"南洲里","LIN":"16鄰","STREET":" ","SECT":" ","MAREA":"南洲","LANE":" ","ALLEY":" ","HOUSE_NO":"２９０號","E_COORD97":183567.84,"N_COORD97":2555649.25,"ADDRESS":"南洲２９０號","OBJECTID":236039},"geometry":{"x":183567.84000000078,"y":2555649.2500000019}},{"attributes":{"ID":236044,"DIS_CODE":0,"TOWNNAME":"山上區","LI":"南洲里","LIN":"16鄰","STREET":" ","SECT":" ","MAREA":"南洲","LANE":" ","ALLEY":" ","HOUSE_NO":"２９１號","E_COORD97":183590.04000000001,"N_COORD97":2555681.25,"ADDRESS":"南洲２９１號","OBJECTID":236040},"geometry":{"x":183590.03999999911,"y":2555681.25}},{"attributes":{"ID":236045,"DIS_CODE":0,"TOWNNAME":"山上區","LI":"南洲里","LIN":"16鄰","STREET":" ","SECT":" ","MAREA":"南洲","LANE":" ","ALLEY":" ","HOUSE_NO":"２８８號","E_COORD97":183609.14000000001,"N_COORD97":2555647.25,"ADDRESS":"南洲２８８號","OBJECTID":236041},"geometry":{"x":183609.13999999966,"y":2555647.25}},{"attributes":{"ID":236046,"DIS_CODE":0,"TOWNNAME":"山上區","LI":"南洲里","LIN":"16鄰","STREET":" ","SECT":" ","MAREA":"南洲","LANE":" ","ALLEY":" ","HOUSE_NO":"２８７號","E_COORD97":183631.94,"N_COORD97":2555656.25,"ADDRESS":"南洲２８７號","OBJECTID":236042},"geometry":{"x":183631.94000000227,"y":2555656.2500000019}},{"attributes":{"ID":236047,"DIS_CODE":0,"TOWNNAME":"山上區","LI":"明和里","LIN":"16鄰","STREET":" ","SECT":" ","MAREA":"明和","LANE":" ","ALLEY":" ","HOUSE_NO":"１９號之３","E_COORD97":183453.01999999999,"N_COORD97":2556049.2999999998,"ADDRESS":"明和１９號之３","OBJECTID":236043},"geometry":{"x":183453.02000000048,"y":2556049.3000000026}},{"attributes":{"ID":236048,"DIS_CODE":0,"TOWNNAME":"山上區","LI":"南洲里","LIN":"16鄰","STREET":" ","SECT":" ","MAREA":"南洲","LANE":" ","ALLEY":" ","HOUSE_NO":"２８６號","E_COORD97":183633.54000000001,"N_COORD97":2555691.25,"ADDRESS":"南洲２８６號","OBJECTID":236044},"geometry":{"x":183633.54000000004,"y":2555691.25}},{"attributes":{"ID":236049,"DIS_CODE":0,"TOWNNAME":"山上區","LI":"南洲里","LIN":"16鄰","STREET":" ","SECT":" ","MAREA":"南洲","LANE":" ","ALLEY":" ","HOUSE_NO":"２９５號","E_COORD97":183600.64000000001,"N_COORD97":2555681.25,"ADDRESS":"南洲２９５號","OBJECTID":236045},"geometry":{"x":183600.63999999966,"y":2555681.25}},{"attributes":{"ID":236050,"DIS_CODE":0,"TOWNNAME":"山上區","LI":"明和里","LIN":"16鄰","STREET":" ","SECT":" ","MAREA":"明和","LANE":" ","ALLEY":" ","HOUSE_NO":"３３之６號","E_COORD97":183406.69,"N_COORD97":2556094.2999999998,"ADDRESS":"明和３３之６號","OBJECTID":236046},"geometry":{"x":183406.69000000134,"y":2556094.3000000026}},{"attributes":{"ID":236051,"DIS_CODE":0,"TOWNNAME":"山上區","LI":"明和里","LIN":"16鄰","STREET":" ","SECT":" ","MAREA":"明和","LANE":" ","ALLEY":" ","HOUSE_NO":"１９號之１","E_COORD97":183435.12,"N_COORD97":2556066.2999999998,"ADDRESS":"明和１９號之１","OBJECTID":236047},"geometry":{"x":183435.12000000011,"y":2556066.3000000026}},{"attributes":{"ID":236052,"DIS_CODE":0,"TOWNNAME":"山上區","LI":"明和里","LIN":"16鄰","STREET":" ","SECT":" ","MAREA":"明和","LANE":" ","ALLEY":" ","HOUSE_NO":"２７號","E_COORD97":183419.09,"N_COORD97":2556049.25,"ADDRESS":"明和２７號","OBJECTID":236048},"geometry":{"x":183419.09000000078,"y":2556049.2500000019}},{"attributes":{"ID":236053,"DIS_CODE":0,"TOWNNAME":"山上區","LI":"明和里","LIN":"16鄰","STREET":" ","SECT":" ","MAREA":"明和","LANE":" ","ALLEY":" ","HOUSE_NO":"３３號","E_COORD97":183380.29000000001,"N_COORD97":2556086.25,"ADDRESS":"明和３３號","OBJECTID":236049},"geometry":{"x":183380.29000000097,"y":2556086.2500000019}},{"attributes":{"ID":236054,"DIS_CODE":0,"TOWNNAME":"山上區","LI":"明和里","LIN":"16鄰","STREET":" ","SECT":" ","MAREA":"明和","LANE":" ","ALLEY":" ","HOUSE_NO":"３３號之３","E_COORD97":183394.62,"N_COORD97":2556091.2999999998,"ADDRESS":"明和３３號之３","OBJECTID":236050},"geometry":{"x":183394.61999999918,"y":2556091.3000000007}},{"attributes":{"ID":236055,"DIS_CODE":0,"TOWNNAME":"山上區","LI":"南洲里","LIN":"16鄰","STREET":" ","SECT":" ","MAREA":"南洲","LANE":" ","ALLEY":" ","HOUSE_NO":"２９４號","E_COORD97":183562.84,"N_COORD97":2555686.25,"ADDRESS":"南洲２９４號","OBJECTID":236051},"geometry":{"x":183562.84000000078,"y":2555686.2500000019}},{"attributes":{"ID":236056,"DIS_CODE":0,"TOWNNAME":"山上區","LI":"明和里","LIN":"16鄰","STREET":" ","SECT":" ","MAREA":"明和","LANE":" ","ALLEY":" ","HOUSE_NO":"３３之２號","E_COORD97":183390.19,"N_COORD97":2556093.2999999998,"ADDRESS":"明和３３之２號","OBJECTID":236052},"geometry":{"x":183390.19000000134,"y":2556093.3000000026}},{"attributes":{"ID":236057,"DIS_CODE":0,"TOWNNAME":"山上區","LI":"明和里","LIN":"16鄰","STREET":" ","SECT":" ","MAREA":"明和","LANE":" ","ALLEY":" ","HOUSE_NO":"３３之１號","E_COORD97":183385.98999999999,"N_COORD97":2556092.2999999998,"ADDRESS":"明和３３之１號","OBJECTID":236053},"geometry":{"x":183385.99000000115,"y":2556092.3000000007}},{"attributes":{"ID":236058,"DIS_CODE":0,"TOWNNAME":"山上區","LI":"明和里","LIN":"16鄰","STREET":" ","SECT":" ","MAREA":"明和","LANE":" ","ALLEY":" ","HOUSE_NO":"３３之７號","E_COORD97":183410.89000000001,"N_COORD97":2556093.2999999998,"ADDRESS":"明和３３之７號","OBJECTID":236054},"geometry":{"x":183410.88999999966,"y":2556093.3000000026}},{"attributes":{"ID":236059,"DIS_CODE":0,"TOWNNAME":"山上區","LI":"明和里","LIN":"16鄰","STREET":" ","SECT":" ","MAREA":"明和","LANE":" ","ALLEY":" ","HOUSE_NO":"３３之５號","E_COORD97":183402.48999999999,"N_COORD97":2556094.2999999998,"ADDRESS":"明和３３之５號","OBJECTID":236055},"geometry":{"x":183402.49000000209,"y":2556094.3000000026}},{"attributes":{"ID":236060,"DIS_CODE":0,"TOWNNAME":"山上區","LI":"明和里","LIN":"16鄰","STREET":" ","SECT":" ","MAREA":"明和","LANE":" ","ALLEY":" ","HOUSE_NO":"３３之４號","E_COORD97":183398.79000000001,"N_COORD97":2556092.2999999998,"ADDRESS":"明和３３之４號","OBJECTID":236056},"geometry":{"x":183398.79000000097,"y":2556092.3000000007}},{"attributes":{"ID":236061,"DIS_CODE":0,"TOWNNAME":"善化區","LI":"胡厝里","LIN":"16鄰","STREET":" ","SECT":" ","MAREA":"胡厝寮","LANE":" ","ALLEY":" ","HOUSE_NO":"２４７號","E_COORD97":174889.35999999999,"N_COORD97":2560172.75,"ADDRESS":"胡厝寮２４７號","OBJECTID":236057},"geometry":{"x":174889.36000000127,"y":2560172.75}},{"attributes":{"ID":236062,"DIS_CODE":0,"TOWNNAME":"善化區","LI":"田寮里","LIN":"16鄰","STREET":" ","SECT":" ","MAREA":"六分寮","LANE":" ","ALLEY":" ","HOUSE_NO":"１９９之４０號","E_COORD97":179314.95999999999,"N_COORD97":2561675.77,"ADDRESS":"六分寮１９９之４０號","OBJECTID":236058},"geometry":{"x":179314.95999999996,"y":2561675.7700000033}},{"attributes":{"ID":236063,"DIS_CODE":0,"TOWNNAME":"善化區","LI":"田寮里","LIN":"16鄰","STREET":" ","SECT":" ","MAREA":"六分寮","LANE":" ","ALLEY":" ","HOUSE_NO":"１８６號之１０","E_COORD97":178969.79000000001,"N_COORD97":2561594.77,"ADDRESS":"六分寮１８６號之１０","OBJECTID":236059},"geometry":{"x":178969.79000000097,"y":2561594.7700000014}},{"attributes":{"ID":236064,"DIS_CODE":0,"TOWNNAME":"善化區","LI":"小新里","LIN":"16鄰","STREET":" ","SECT":" ","MAREA":"小新營","LANE":" ","ALLEY":" ","HOUSE_NO":"１２９號","E_COORD97":179835.91,"N_COORD97":2558208.25,"ADDRESS":"小新營１２９號","OBJECTID":236060},"geometry":{"x":179835.91000000015,"y":2558208.2500000019}},{"attributes":{"ID":236065,"DIS_CODE":0,"TOWNNAME":"善化區","LI":"田寮里","LIN":"16鄰","STREET":" ","SECT":" ","MAREA":"六分寮","LANE":" ","ALLEY":" ","HOUSE_NO":"１８６號之３","E_COORD97":178945.64999999999,"N_COORD97":2561641.52,"ADDRESS":"六分寮１８６號之３","OBJECTID":236061},"geometry":{"x":178945.6500000013,"y":2561641.5200000014}},{"attributes":{"ID":236066,"DIS_CODE":0,"TOWNNAME":"善化區","LI":"溪美里","LIN":"16鄰","STREET":" ","SECT":" ","MAREA":"溪尾","LANE":" ","ALLEY":" ","HOUSE_NO":"１５５號之１","E_COORD97":176964.54999999999,"N_COORD97":2561315.52,"ADDRESS":"溪尾１５５號之１","OBJECTID":236062},"geometry":{"x":176964.54999999981,"y":2561315.5200000014}},{"attributes":{"ID":236067,"DIS_CODE":0,"TOWNNAME":"善化區","LI":"六德里","LIN":"16鄰","STREET":" ","SECT":" ","MAREA":"六分寮","LANE":" ","ALLEY":" ","HOUSE_NO":"３３３號","E_COORD97":178328.66,"N_COORD97":2561359.75,"ADDRESS":"六分寮３３３號","OBJECTID":236063},"geometry":{"x":178328.66000000015,"y":2561359.75}},{"attributes":{"ID":236068,"DIS_CODE":0,"TOWNNAME":"善化區","LI":"田寮里","LIN":"16鄰","STREET":" ","SECT":" ","MAREA":"六分寮","LANE":" ","ALLEY":" ","HOUSE_NO":"１８３號之１６","E_COORD97":178961.07999999999,"N_COORD97":2561561.52,"ADDRESS":"六分寮１８３號之１６","OBJECTID":236064},"geometry":{"x":178961.08000000101,"y":2561561.5199999996}},{"attributes":{"ID":236069,"DIS_CODE":0,"TOWNNAME":"善化區","LI":"六德里","LIN":"16鄰","STREET":" ","SECT":" ","MAREA":"六分寮","LANE":" ","ALLEY":" ","HOUSE_NO":"３３３之１４號","E_COORD97":178269.35000000001,"N_COORD97":2561412.02,"ADDRESS":"六分寮３３３之１４號","OBJECTID":236065},"geometry":{"x":178269.34999999963,"y":2561412.0199999996}},{"attributes":{"ID":236070,"DIS_CODE":0,"TOWNNAME":"善化區","LI":"田寮里","LIN":"16鄰","STREET":" ","SECT":" ","MAREA":"六分寮","LANE":" ","ALLEY":" ","HOUSE_NO":"１９８號之１３","E_COORD97":179038.57000000001,"N_COORD97":2561625.52,"ADDRESS":"六分寮１９８號之１３","OBJECTID":236066},"geometry":{"x":179038.57000000216,"y":2561625.5199999996}},{"attributes":{"ID":236071,"DIS_CODE":0,"TOWNNAME":"善化區","LI":"溪美里","LIN":"16鄰","STREET":" ","SECT":" ","MAREA":"溪尾","LANE":" ","ALLEY":" ","HOUSE_NO":"１４８號","E_COORD97":176941.20999999999,"N_COORD97":2561328.02,"ADDRESS":"溪尾１４８號","OBJECTID":236067},"geometry":{"x":176941.21000000089,"y":2561328.0200000033}},{"attributes":{"ID":236072,"DIS_CODE":0,"TOWNNAME":"善化區","LI":"溪美里","LIN":"16鄰","STREET":" ","SECT":" ","MAREA":"溪尾","LANE":" ","ALLEY":" ","HOUSE_NO":"１５０號","E_COORD97":176968.95999999999,"N_COORD97":2561333.02,"ADDRESS":"溪尾１５０號","OBJECTID":236068},"geometry":{"x":176968.95999999996,"y":2561333.0200000014}},{"attributes":{"ID":236073,"DIS_CODE":0,"TOWNNAME":"東區","LI":"關聖里","LIN":"16鄰","STREET":"裕忠路","SECT":" ","MAREA":" ","LANE":" ","ALLEY":" ","HOUSE_NO":"９７之９號","E_COORD97":172313.79999999999,"N_COORD97":2542940.5699999998,"ADDRESS":"裕忠路９７之９號","OBJECTID":236069},"geometry":{"x":172313.80000000075,"y":2542940.5700000022}},{"attributes":{"ID":236074,"DIS_CODE":0,"TOWNNAME":"善化區","LI":"六德里","LIN":"16鄰","STREET":" ","SECT":" ","MAREA":"六分寮","LANE":" ","ALLEY":" ","HOUSE_NO":"３３３之１０號","E_COORD97":178302.62,"N_COORD97":2561388.77,"ADDRESS":"六分寮３３３之１０號","OBJECTID":236070},"geometry":{"x":178302.62000000104,"y":2561388.7700000014}},{"attributes":{"ID":236075,"DIS_CODE":0,"TOWNNAME":"善化區","LI":"溪美里","LIN":"16鄰","STREET":" ","SECT":" ","MAREA":"溪尾","LANE":" ","ALLEY":" ","HOUSE_NO":"１５３號","E_COORD97":176931.04999999999,"N_COORD97":2561309.52,"ADDRESS":"溪尾１５３號","OBJECTID":236071},"geometry":{"x":176931.04999999888,"y":2561309.5199999996}},{"attributes":{"ID":236076,"DIS_CODE":0,"TOWNNAME":"善化區","LI":"胡家里","LIN":"16鄰","STREET":" ","SECT":" ","MAREA":"胡厝寮","LANE":" ","ALLEY":" ","HOUSE_NO":"１５３號之３","E_COORD97":175244.85999999999,"N_COORD97":2560701.52,"ADDRESS":"胡厝寮１５３號之３","OBJECTID":236072},"geometry":{"x":175244.86000000127,"y":2560701.5200000014}},{"attributes":{"ID":236077,"DIS_CODE":0,"TOWNNAME":"善化區","LI":"胡厝里","LIN":"16鄰","STREET":" ","SECT":" ","MAREA":"胡厝寮","LANE":" ","ALLEY":" ","HOUSE_NO":"２５０號","E_COORD97":174924.75,"N_COORD97":2560132.5,"ADDRESS":"胡厝寮２５０號","OBJECTID":236073},"geometry":{"x":174924.75000000093,"y":2560132.5000000019}},{"attributes":{"ID":236078,"DIS_CODE":0,"TOWNNAME":"善化區","LI":"胡厝里","LIN":"16鄰","STREET":" ","SECT":" ","MAREA":"胡厝寮","LANE":" ","ALLEY":" ","HOUSE_NO":"２４８號","E_COORD97":174902.5,"N_COORD97":2560132.75,"ADDRESS":"胡厝寮２４８號","OBJECTID":236074},"geometry":{"x":174902.50000000186,"y":2560132.75}},{"attributes":{"ID":236079,"DIS_CODE":0,"TOWNNAME":"善化區","LI":"坐駕里","LIN":"16鄰","STREET":"大成路","SECT":" ","MAREA":" ","LANE":"１５巷","ALLEY":" ","HOUSE_NO":"１號","E_COORD97":178879.60999999999,"N_COORD97":2558911,"ADDRESS":"大成路１５巷１號","OBJECTID":236075},"geometry":{"x":178879.61000000127,"y":2558911}},{"attributes":{"ID":236080,"DIS_CODE":0,"TOWNNAME":"仁德區","LI":"後壁里","LIN":"16鄰","STREET":"德南路","SECT":" ","MAREA":" ","LANE":"４３巷","ALLEY":" ","HOUSE_NO":"９號","E_COORD97":173391.63,"N_COORD97":2538789.02,"ADDRESS":"德南路４３巷９號","OBJECTID":236076},"geometry":{"x":173391.63000000082,"y":2538789.0200000033}},{"attributes":{"ID":236081,"DIS_CODE":0,"TOWNNAME":"仁德區","LI":"仁義里","LIN":"16鄰","STREET":"義林路","SECT":" ","MAREA":" ","LANE":"２３３巷","ALLEY":" ","HOUSE_NO":"１４之１號","E_COORD97":174485.07000000001,"N_COORD97":2541261.2999999998,"ADDRESS":"義林路２３３巷１４之１號","OBJECTID":236077},"geometry":{"x":174485.0700000003,"y":2541261.3000000026}},{"attributes":{"ID":236082,"DIS_CODE":0,"TOWNNAME":"東區","LI":"自強里","LIN":"13鄰","STREET":"富農街","SECT":"一段","MAREA":" ","LANE":"１３１巷","ALLEY":" ","HOUSE_NO":"４５號六樓","E_COORD97":171395.85999999999,"N_COORD97":2542469.3399999999,"ADDRESS":"富農街一段１３１巷４５號六樓","OBJECTID":236078},"geometry":{"x":171395.86000000034,"y":2542469.3400000017}},{"attributes":{"ID":236083,"DIS_CODE":0,"TOWNNAME":"東區","LI":"自強里","LIN":"13鄰","STREET":"富農街","SECT":"一段","MAREA":" ","LANE":"１３１巷","ALLEY":" ","HOUSE_NO":"４５號四樓","E_COORD97":171395.85999999999,"N_COORD97":2542469.3399999999,"ADDRESS":"富農街一段１３１巷４５號四樓","OBJECTID":236079},"geometry":{"x":171395.86000000034,"y":2542469.3400000017}},{"attributes":{"ID":236084,"DIS_CODE":0,"TOWNNAME":"東區","LI":"自強里","LIN":"13鄰","STREET":"富農街","SECT":"一段","MAREA":" ","LANE":"１３１巷","ALLEY":" ","HOUSE_NO":"４６號七樓","E_COORD97":171386.10999999999,"N_COORD97":2542489.1000000001,"ADDRESS":"富農街一段１３１巷４６號七樓","OBJECTID":236080},"geometry":{"x":171386.11000000034,"y":2542489.0999999996}},{"attributes":{"ID":236085,"DIS_CODE":0,"TOWNNAME":"東區","LI":"自強里","LIN":"13鄰","STREET":"富農街","SECT":"一段","MAREA":" ","LANE":"１３１巷","ALLEY":" ","HOUSE_NO":"４６號二樓","E_COORD97":171386.10999999999,"N_COORD97":2542489.1000000001,"ADDRESS":"富農街一段１３１巷４６號二樓","OBJECTID":236081},"geometry":{"x":171386.11000000034,"y":2542489.0999999996}},{"attributes":{"ID":236086,"DIS_CODE":0,"TOWNNAME":"東區","LI":"自強里","LIN":"13鄰","STREET":"富農街","SECT":"一段","MAREA":" ","LANE":"１３１巷","ALLEY":" ","HOUSE_NO":"４６號八樓","E_COORD97":171386.10999999999,"N_COORD97":2542489.1000000001,"ADDRESS":"富農街一段１３１巷４６號八樓","OBJECTID":236082},"geometry":{"x":171386.11000000034,"y":2542489.0999999996}},{"attributes":{"ID":236087,"DIS_CODE":0,"TOWNNAME":"東區","LI":"自強里","LIN":"13鄰","STREET":"富農街","SECT":"一段","MAREA":" ","LANE":"１３１巷","ALLEY":" ","HOUSE_NO":"４６號三樓","E_COORD97":171386.10999999999,"N_COORD97":2542489.1000000001,"ADDRESS":"富農街一段１３１巷４６號三樓","OBJECTID":236083},"geometry":{"x":171386.11000000034,"y":2542489.0999999996}},{"attributes":{"ID":236088,"DIS_CODE":0,"TOWNNAME":"安南區","LI":"海佃里","LIN":"17鄰","STREET":"海佃路","SECT":"一段","MAREA":" ","LANE":"１５７巷","ALLEY":" ","HOUSE_NO":"５號","E_COORD97":167100.63,"N_COORD97":2547114.96,"ADDRESS":"海佃路一段１５７巷５號","OBJECTID":236084},"geometry":{"x":167100.63000000082,"y":2547114.9600000028}},{"attributes":{"ID":236089,"DIS_CODE":0,"TOWNNAME":"中西區","LI":"郡王里","LIN":"14鄰","STREET":"建業街","SECT":" ","MAREA":" ","LANE":" ","ALLEY":" ","HOUSE_NO":"４１號四樓","E_COORD97":168493.20999999999,"N_COORD97":2543143.0899999999,"ADDRESS":"建業街４１號四樓","OBJECTID":236085},"geometry":{"x":168493.21000000183,"y":2543143.0900000017}},{"attributes":{"ID":236090,"DIS_CODE":0,"TOWNNAME":"仁德區","LI":"仁德里","LIN":"14鄰","STREET":"中正路","SECT":"三段","MAREA":" ","LANE":" ","ALLEY":" ","HOUSE_NO":"４５號","E_COORD97":173330.60000000001,"N_COORD97":2541513.27,"ADDRESS":"中正路三段４５號","OBJECTID":236086},"geometry":{"x":173330.60000000056,"y":2541513.2700000033}},{"attributes":{"ID":236091,"DIS_CODE":0,"TOWNNAME":"永康區","LI":"大橋里","LIN":"14鄰","STREET":"大橋二街","SECT":" ","MAREA":" ","LANE":" ","ALLEY":" ","HOUSE_NO":"２８號","E_COORD97":170779.97,"N_COORD97":2546545.71,"ADDRESS":"大橋二街２８號","OBJECTID":236087},"geometry":{"x":170779.97000000067,"y":2546545.7100000009}},{"attributes":{"ID":236092,"DIS_CODE":0,"TOWNNAME":"仁德區","LI":"一甲里","LIN":"16鄰","STREET":"中清路","SECT":" ","MAREA":" ","LANE":"２５５巷","ALLEY":" ","HOUSE_NO":"７號","E_COORD97":173709.19,"N_COORD97":2541755.7999999998,"ADDRESS":"中清路２５５巷７號","OBJECTID":236088},"geometry":{"x":173709.19000000041,"y":2541755.8000000026}},{"attributes":{"ID":236093,"DIS_CODE":0,"TOWNNAME":"東區","LI":"自強里","LIN":"13鄰","STREET":"富農街","SECT":"一段","MAREA":" ","LANE":"１３１巷","ALLEY":" ","HOUSE_NO":"４６號五樓","E_COORD97":171386.10999999999,"N_COORD97":2542489.1000000001,"ADDRESS":"富農街一段１３１巷４６號五樓","OBJECTID":236089},"geometry":{"x":171386.11000000034,"y":2542489.0999999996}},{"attributes":{"ID":236094,"DIS_CODE":0,"TOWNNAME":"東區","LI":"自強里","LIN":"13鄰","STREET":"富農街","SECT":"一段","MAREA":" ","LANE":"１３１巷","ALLEY":" ","HOUSE_NO":"４６號六樓","E_COORD97":171386.10999999999,"N_COORD97":2542489.1000000001,"ADDRESS":"富農街一段１３１巷４６號六樓","OBJECTID":236090},"geometry":{"x":171386.11000000034,"y":2542489.0999999996}},{"attributes":{"ID":236095,"DIS_CODE":0,"TOWNNAME":"東區","LI":"自強里","LIN":"13鄰","STREET":"富農街","SECT":"一段","MAREA":" ","LANE":"１３１巷","ALLEY":" ","HOUSE_NO":"４６號四樓","E_COORD97":171386.10999999999,"N_COORD97":2542489.1000000001,"ADDRESS":"富農街一段１３１巷４６號四樓","OBJECTID":236091},"geometry":{"x":171386.11000000034,"y":2542489.0999999996}},{"attributes":{"ID":236096,"DIS_CODE":0,"TOWNNAME":"東區","LI":"自強里","LIN":"13鄰","STREET":"富農街","SECT":"一段","MAREA":" ","LANE":"１３１巷","ALLEY":" ","HOUSE_NO":"４７號七樓","E_COORD97":171387.97,"N_COORD97":2542469.0600000001,"ADDRESS":"富農街一段１３１巷４７號七樓","OBJECTID":236092},"geometry":{"x":171387.96999999974,"y":2542469.0600000024}},{"attributes":{"ID":236097,"DIS_CODE":0,"TOWNNAME":"東區","LI":"自強里","LIN":"13鄰","STREET":"富農街","SECT":"一段","MAREA":" ","LANE":"１３１巷","ALLEY":" ","HOUSE_NO":"４７號二樓","E_COORD97":171387.97,"N_COORD97":2542469.0600000001,"ADDRESS":"富農街一段１３１巷４７號二樓","OBJECTID":236093},"geometry":{"x":171387.96999999974,"y":2542469.0600000024}},{"attributes":{"ID":236098,"DIS_CODE":0,"TOWNNAME":"東區","LI":"自強里","LIN":"13鄰","STREET":"富農街","SECT":"一段","MAREA":" ","LANE":"１３１巷","ALLEY":" ","HOUSE_NO":"４７號三樓","E_COORD97":171387.97,"N_COORD97":2542469.0600000001,"ADDRESS":"富農街一段１３１巷４７號三樓","OBJECTID":236094},"geometry":{"x":171387.96999999974,"y":2542469.0600000024}},{"attributes":{"ID":236099,"DIS_CODE":0,"TOWNNAME":"東區","LI":"自強里","LIN":"13鄰","STREET":"富農街","SECT":"一段","MAREA":" ","LANE":"１３１巷","ALLEY":" ","HOUSE_NO":"４７號五樓","E_COORD97":171387.97,"N_COORD97":2542469.0600000001,"ADDRESS":"富農街一段１３１巷４７號五樓","OBJECTID":236095},"geometry":{"x":171387.96999999974,"y":2542469.0600000024}},{"attributes":{"ID":236100,"DIS_CODE":0,"TOWNNAME":"東區","LI":"自強里","LIN":"13鄰","STREET":"富農街","SECT":"一段","MAREA":" ","LANE":"１３１巷","ALLEY":" ","HOUSE_NO":"４７號六樓","E_COORD97":171387.97,"N_COORD97":2542469.0600000001,"ADDRESS":"富農街一段１３１巷４７號六樓","OBJECTID":236096},"geometry":{"x":171387.96999999974,"y":2542469.0600000024}},{"attributes":{"ID":236101,"DIS_CODE":0,"TOWNNAME":"東區","LI":"自強里","LIN":"13鄰","STREET":"富農街","SECT":"一段","MAREA":" ","LANE":"１３１巷","ALLEY":" ","HOUSE_NO":"４７號四樓","E_COORD97":171387.97,"N_COORD97":2542469.0600000001,"ADDRESS":"富農街一段１３１巷４７號四樓","OBJECTID":236097},"geometry":{"x":171387.96999999974,"y":2542469.0600000024}},{"attributes":{"ID":236102,"DIS_CODE":0,"TOWNNAME":"東區","LI":"自強里","LIN":"13鄰","STREET":"富農街","SECT":"一段","MAREA":" ","LANE":"１３１巷","ALLEY":" ","HOUSE_NO":"４８號七樓","E_COORD97":171377.26000000001,"N_COORD97":2542488.1499999999,"ADDRESS":"富農街一段１３１巷４８號七樓","OBJECTID":236098},"geometry":{"x":171377.25999999978,"y":2542488.1500000022}},{"attributes":{"ID":236103,"DIS_CODE":0,"TOWNNAME":"東區","LI":"自強里","LIN":"13鄰","STREET":"富農街","SECT":"一段","MAREA":" ","LANE":"１３１巷","ALLEY":" ","HOUSE_NO":"４８號九樓","E_COORD97":171377.26000000001,"N_COORD97":2542488.1499999999,"ADDRESS":"富農街一段１３１巷４８號九樓","OBJECTID":236099},"geometry":{"x":171377.25999999978,"y":2542488.1500000022}},{"attributes":{"ID":236104,"DIS_CODE":0,"TOWNNAME":"東區","LI":"自強里","LIN":"13鄰","STREET":"富農街","SECT":"一段","MAREA":" ","LANE":"１３１巷","ALLEY":" ","HOUSE_NO":"４８號二樓","E_COORD97":171377.26000000001,"N_COORD97":2542488.1499999999,"ADDRESS":"富農街一段１３１巷４８號二樓","OBJECTID":236100},"geometry":{"x":171377.25999999978,"y":2542488.1500000022}},{"attributes":{"ID":236105,"DIS_CODE":0,"TOWNNAME":"西港區","LI":"劉厝里","LIN":"16鄰","STREET":" ","SECT":" ","MAREA":"蚶西港","LANE":" ","ALLEY":" ","HOUSE_NO":"２２號之１０","E_COORD97":165829.51999999999,"N_COORD97":2559037.9399999999,"ADDRESS":"蚶西港２２號之１０","OBJECTID":236101},"geometry":{"x":165829.52000000048,"y":2559037.9400000013}},{"attributes":{"ID":236106,"DIS_CODE":0,"TOWNNAME":"東區","LI":"自強里","LIN":"13鄰","STREET":"富農街","SECT":"一段","MAREA":" ","LANE":"１３１巷","ALLEY":" ","HOUSE_NO":"４８號八樓","E_COORD97":171377.26000000001,"N_COORD97":2542488.1499999999,"ADDRESS":"富農街一段１３１巷４８號八樓","OBJECTID":236102},"geometry":{"x":171377.25999999978,"y":2542488.1500000022}},{"attributes":{"ID":236107,"DIS_CODE":0,"TOWNNAME":"東區","LI":"自強里","LIN":"13鄰","STREET":"富農街","SECT":"一段","MAREA":" ","LANE":"１３１巷","ALLEY":" ","HOUSE_NO":"４８號三樓","E_COORD97":171377.26000000001,"N_COORD97":2542488.1499999999,"ADDRESS":"富農街一段１３１巷４８號三樓","OBJECTID":236103},"geometry":{"x":171377.25999999978,"y":2542488.1500000022}},{"attributes":{"ID":236108,"DIS_CODE":0,"TOWNNAME":"東區","LI":"自強里","LIN":"13鄰","STREET":"富農街","SECT":"一段","MAREA":" ","LANE":"１３１巷","ALLEY":" ","HOUSE_NO":"４８號五樓","E_COORD97":171377.26000000001,"N_COORD97":2542488.1499999999,"ADDRESS":"富農街一段１３１巷４８號五樓","OBJECTID":236104},"geometry":{"x":171377.25999999978,"y":2542488.1500000022}},{"attributes":{"ID":236109,"DIS_CODE":0,"TOWNNAME":"東區","LI":"自強里","LIN":"13鄰","STREET":"富農街","SECT":"一段","MAREA":" ","LANE":"１３１巷","ALLEY":" ","HOUSE_NO":"４８號六樓","E_COORD97":171377.26000000001,"N_COORD97":2542488.1499999999,"ADDRESS":"富農街一段１３１巷４８號六樓","OBJECTID":236105},"geometry":{"x":171377.25999999978,"y":2542488.1500000022}},{"attributes":{"ID":236110,"DIS_CODE":0,"TOWNNAME":"東區","LI":"自強里","LIN":"13鄰","STREET":"富農街","SECT":"一段","MAREA":" ","LANE":"１３１巷","ALLEY":" ","HOUSE_NO":"４８號四樓","E_COORD97":171377.26000000001,"N_COORD97":2542488.1499999999,"ADDRESS":"富農街一段１３１巷４８號四樓","OBJECTID":236106},"geometry":{"x":171377.25999999978,"y":2542488.1500000022}},{"attributes":{"ID":236111,"DIS_CODE":0,"TOWNNAME":"永康區","LI":"大橋里","LIN":"14鄰","STREET":"中華路","SECT":" ","MAREA":" ","LANE":" ","ALLEY":" ","HOUSE_NO":"７８２號","E_COORD97":170844.32000000001,"N_COORD97":2546448,"ADDRESS":"中華路７８２號","OBJECTID":236107},"geometry":{"x":170844.32000000123,"y":2546448}},{"attributes":{"ID":236112,"DIS_CODE":0,"TOWNNAME":"東區","LI":"自強里","LIN":"13鄰","STREET":"富農街","SECT":"一段","MAREA":" ","LANE":"１３１巷","ALLEY":" ","HOUSE_NO":"４９號七樓","E_COORD97":171381.23000000001,"N_COORD97":2542468.77,"ADDRESS":"富農街一段１３１巷４９號七樓","OBJECTID":236108},"geometry":{"x":171381.23000000138,"y":2542468.7699999996}},{"attributes":{"ID":236113,"DIS_CODE":0,"TOWNNAME":"東區","LI":"自強里","LIN":"13鄰","STREET":"富農街","SECT":"一段","MAREA":" ","LANE":"１３１巷","ALLEY":" ","HOUSE_NO":"４９號二樓","E_COORD97":171381.23000000001,"N_COORD97":2542468.77,"ADDRESS":"富農街一段１３１巷４９號二樓","OBJECTID":236109},"geometry":{"x":171381.23000000138,"y":2542468.7699999996}},{"attributes":{"ID":236114,"DIS_CODE":0,"TOWNNAME":"東區","LI":"自強里","LIN":"13鄰","STREET":"富農街","SECT":"一段","MAREA":" ","LANE":"１３１巷","ALLEY":" ","HOUSE_NO":"４９號三樓","E_COORD97":171381.23000000001,"N_COORD97":2542468.77,"ADDRESS":"富農街一段１３１巷４９號三樓","OBJECTID":236110},"geometry":{"x":171381.23000000138,"y":2542468.7699999996}},{"attributes":{"ID":236115,"DIS_CODE":0,"TOWNNAME":"東區","LI":"自強里","LIN":"13鄰","STREET":"富農街","SECT":"一段","MAREA":" ","LANE":"１３１巷","ALLEY":" ","HOUSE_NO":"４９號五樓","E_COORD97":171381.23000000001,"N_COORD97":2542468.77,"ADDRESS":"富農街一段１３１巷４９號五樓","OBJECTID":236111},"geometry":{"x":171381.23000000138,"y":2542468.7699999996}},{"attributes":{"ID":236116,"DIS_CODE":0,"TOWNNAME":"東區","LI":"自強里","LIN":"13鄰","STREET":"富農街","SECT":"一段","MAREA":" ","LANE":"１３１巷","ALLEY":" ","HOUSE_NO":"４９號六樓","E_COORD97":171381.23000000001,"N_COORD97":2542468.77,"ADDRESS":"富農街一段１３１巷４９號六樓","OBJECTID":236112},"geometry":{"x":171381.23000000138,"y":2542468.7699999996}},{"attributes":{"ID":236117,"DIS_CODE":0,"TOWNNAME":"東區","LI":"自強里","LIN":"13鄰","STREET":"富農街","SECT":"一段","MAREA":" ","LANE":"１３１巷","ALLEY":" ","HOUSE_NO":"４９號四樓","E_COORD97":171381.23000000001,"N_COORD97":2542468.77,"ADDRESS":"富農街一段１３１巷４９號四樓","OBJECTID":236113},"geometry":{"x":171381.23000000138,"y":2542468.7699999996}},{"attributes":{"ID":236118,"DIS_CODE":0,"TOWNNAME":"東區","LI":"自強里","LIN":"13鄰","STREET":"富農街","SECT":"一段","MAREA":" ","LANE":"１３１巷","ALLEY":" ","HOUSE_NO":"５０號七樓","E_COORD97":171369.84,"N_COORD97":2542487.9100000001,"ADDRESS":"富農街一段１３１巷５０號七樓","OBJECTID":236114},"geometry":{"x":171369.83999999985,"y":2542487.9100000001}},{"attributes":{"ID":236119,"DIS_CODE":0,"TOWNNAME":"東區","LI":"自強里","LIN":"13鄰","STREET":"富農街","SECT":"一段","MAREA":" ","LANE":"１３１巷","ALLEY":" ","HOUSE_NO":"５０號九樓","E_COORD97":171369.84,"N_COORD97":2542487.9100000001,"ADDRESS":"富農街一段１３１巷５０號九樓","OBJECTID":236115},"geometry":{"x":171369.83999999985,"y":2542487.9100000001}},{"attributes":{"ID":236120,"DIS_CODE":0,"TOWNNAME":"東區","LI":"自強里","LIN":"13鄰","STREET":"富農街","SECT":"一段","MAREA":" ","LANE":"１３１巷","ALLEY":" ","HOUSE_NO":"５０號二樓","E_COORD97":171369.84,"N_COORD97":2542487.9100000001,"ADDRESS":"富農街一段１３１巷５０號二樓","OBJECTID":236116},"geometry":{"x":171369.83999999985,"y":2542487.9100000001}},{"attributes":{"ID":236121,"DIS_CODE":0,"TOWNNAME":"安定區","LI":"中沙里","LIN":"1鄰","STREET":" ","SECT":" ","MAREA":"中崙","LANE":" ","ALLEY":" ","HOUSE_NO":"６３號","E_COORD97":169126.26000000001,"N_COORD97":2553238.25,"ADDRESS":"中崙６３號","OBJECTID":236117},"geometry":{"x":169126.25999999978,"y":2553238.2500000019}},{"attributes":{"ID":236122,"DIS_CODE":0,"TOWNNAME":"東區","LI":"自強里","LIN":"13鄰","STREET":"富農街","SECT":"一段","MAREA":" ","LANE":"１３１巷","ALLEY":" ","HOUSE_NO":"５０號八樓","E_COORD97":171369.84,"N_COORD97":2542487.9100000001,"ADDRESS":"富農街一段１３１巷５０號八樓","OBJECTID":236118},"geometry":{"x":171369.83999999985,"y":2542487.9100000001}},{"attributes":{"ID":236123,"DIS_CODE":0,"TOWNNAME":"東區","LI":"自強里","LIN":"13鄰","STREET":"富農街","SECT":"一段","MAREA":" ","LANE":"１３１巷","ALLEY":" ","HOUSE_NO":"５０號三樓","E_COORD97":171369.84,"N_COORD97":2542487.9100000001,"ADDRESS":"富農街一段１３１巷５０號三樓","OBJECTID":236119},"geometry":{"x":171369.83999999985,"y":2542487.9100000001}},{"attributes":{"ID":236124,"DIS_CODE":0,"TOWNNAME":"東區","LI":"自強里","LIN":"13鄰","STREET":"富農街","SECT":"一段","MAREA":" ","LANE":"１３１巷","ALLEY":" ","HOUSE_NO":"５０號五樓","E_COORD97":171369.84,"N_COORD97":2542487.9100000001,"ADDRESS":"富農街一段１３１巷５０號五樓","OBJECTID":236120},"geometry":{"x":171369.83999999985,"y":2542487.9100000001}},{"attributes":{"ID":236125,"DIS_CODE":0,"TOWNNAME":"東區","LI":"自強里","LIN":"13鄰","STREET":"富農街","SECT":"一段","MAREA":" ","LANE":"１３１巷","ALLEY":" ","HOUSE_NO":"５０號六樓","E_COORD97":171369.84,"N_COORD97":2542487.9100000001,"ADDRESS":"富農街一段１３１巷５０號六樓","OBJECTID":236121},"geometry":{"x":171369.83999999985,"y":2542487.9100000001}},{"attributes":{"ID":236126,"DIS_CODE":0,"TOWNNAME":"東區","LI":"自強里","LIN":"13鄰","STREET":"富農街","SECT":"一段","MAREA":" ","LANE":"１３１巷","ALLEY":" ","HOUSE_NO":"５０號四樓","E_COORD97":171369.84,"N_COORD97":2542487.9100000001,"ADDRESS":"富農街一段１３１巷５０號四樓","OBJECTID":236122},"geometry":{"x":171369.83999999985,"y":2542487.9100000001}},{"attributes":{"ID":236127,"DIS_CODE":0,"TOWNNAME":"東區","LI":"自強里","LIN":"13鄰","STREET":"富農街","SECT":"一段","MAREA":" ","LANE":"１３１巷","ALLEY":" ","HOUSE_NO":"５１號七樓","E_COORD97":171372.19,"N_COORD97":2542468.3399999999,"ADDRESS":"富農街一段１３１巷５１號七樓","OBJECTID":236123},"geometry":{"x":171372.18999999948,"y":2542468.3399999999}},{"attributes":{"ID":236128,"DIS_CODE":0,"TOWNNAME":"東區","LI":"自強里","LIN":"13鄰","STREET":"富農街","SECT":"一段","MAREA":" ","LANE":"１３１巷","ALLEY":" ","HOUSE_NO":"５１號二樓","E_COORD97":171372.19,"N_COORD97":2542468.3399999999,"ADDRESS":"富農街一段１３１巷５１號二樓","OBJECTID":236124},"geometry":{"x":171372.18999999948,"y":2542468.3399999999}},{"attributes":{"ID":236129,"DIS_CODE":0,"TOWNNAME":"東區","LI":"自強里","LIN":"13鄰","STREET":"富農街","SECT":"一段","MAREA":" ","LANE":"１３１巷","ALLEY":" ","HOUSE_NO":"５１號三樓","E_COORD97":171372.19,"N_COORD97":2542468.3399999999,"ADDRESS":"富農街一段１３１巷５１號三樓","OBJECTID":236125},"geometry":{"x":171372.18999999948,"y":2542468.3399999999}},{"attributes":{"ID":236130,"DIS_CODE":0,"TOWNNAME":"東區","LI":"自強里","LIN":"13鄰","STREET":"富農街","SECT":"一段","MAREA":" ","LANE":"１３１巷","ALLEY":" ","HOUSE_NO":"５１號五樓","E_COORD97":171372.19,"N_COORD97":2542468.3399999999,"ADDRESS":"富農街一段１３１巷５１號五樓","OBJECTID":236126},"geometry":{"x":171372.18999999948,"y":2542468.3399999999}},{"attributes":{"ID":236131,"DIS_CODE":0,"TOWNNAME":"東區","LI":"自強里","LIN":"13鄰","STREET":"富農街","SECT":"一段","MAREA":" ","LANE":"１３１巷","ALLEY":" ","HOUSE_NO":"５１號六樓","E_COORD97":171372.19,"N_COORD97":2542468.3399999999,"ADDRESS":"富農街一段１３１巷５１號六樓","OBJECTID":236127},"geometry":{"x":171372.18999999948,"y":2542468.3399999999}},{"attributes":{"ID":236132,"DIS_CODE":0,"TOWNNAME":"東區","LI":"自強里","LIN":"13鄰","STREET":"富農街","SECT":"一段","MAREA":" ","LANE":"１３１巷","ALLEY":" ","HOUSE_NO":"５１號四樓","E_COORD97":171372.19,"N_COORD97":2542468.3399999999,"ADDRESS":"富農街一段１３１巷５１號四樓","OBJECTID":236128},"geometry":{"x":171372.18999999948,"y":2542468.3399999999}},{"attributes":{"ID":236133,"DIS_CODE":0,"TOWNNAME":"東區","LI":"自強里","LIN":"13鄰","STREET":"富農街","SECT":"一段","MAREA":" ","LANE":"１３１巷","ALLEY":" ","HOUSE_NO":"５２號七樓","E_COORD97":171361.23999999999,"N_COORD97":2542487.6699999999,"ADDRESS":"富農街一段１３１巷５２號七樓","OBJECTID":236129},"geometry":{"x":171361.24000000022,"y":2542487.6700000018}},{"attributes":{"ID":236134,"DIS_CODE":0,"TOWNNAME":"東區","LI":"自強里","LIN":"13鄰","STREET":"富農街","SECT":"一段","MAREA":" ","LANE":"１３１巷","ALLEY":" ","HOUSE_NO":"５２號二樓","E_COORD97":171361.23999999999,"N_COORD97":2542487.6699999999,"ADDRESS":"富農街一段１３１巷５２號二樓","OBJECTID":236130},"geometry":{"x":171361.24000000022,"y":2542487.6700000018}},{"attributes":{"ID":236135,"DIS_CODE":0,"TOWNNAME":"東區","LI":"自強里","LIN":"13鄰","STREET":"富農街","SECT":"一段","MAREA":" ","LANE":"１３１巷","ALLEY":" ","HOUSE_NO":"５２號八樓","E_COORD97":171361.23999999999,"N_COORD97":2542487.6699999999,"ADDRESS":"富農街一段１３１巷５２號八樓","OBJECTID":236131},"geometry":{"x":171361.24000000022,"y":2542487.6700000018}},{"attributes":{"ID":236136,"DIS_CODE":0,"TOWNNAME":"東區","LI":"自強里","LIN":"13鄰","STREET":"富農街","SECT":"一段","MAREA":" ","LANE":"１３１巷","ALLEY":" ","HOUSE_NO":"５２號三樓","E_COORD97":171361.23999999999,"N_COORD97":2542487.6699999999,"ADDRESS":"富農街一段１３１巷５２號三樓","OBJECTID":236132},"geometry":{"x":171361.24000000022,"y":2542487.6700000018}},{"attributes":{"ID":236137,"DIS_CODE":0,"TOWNNAME":"東區","LI":"自強里","LIN":"13鄰","STREET":"富農街","SECT":"一段","MAREA":" ","LANE":"１３１巷","ALLEY":" ","HOUSE_NO":"５２號五樓","E_COORD97":171361.23999999999,"N_COORD97":2542487.6699999999,"ADDRESS":"富農街一段１３１巷５２號五樓","OBJECTID":236133},"geometry":{"x":171361.24000000022,"y":2542487.6700000018}},{"attributes":{"ID":236138,"DIS_CODE":0,"TOWNNAME":"東區","LI":"自強里","LIN":"13鄰","STREET":"富農街","SECT":"一段","MAREA":" ","LANE":"１３１巷","ALLEY":" ","HOUSE_NO":"５２號六樓","E_COORD97":171361.23999999999,"N_COORD97":2542487.6699999999,"ADDRESS":"富農街一段１３１巷５２號六樓","OBJECTID":236134},"geometry":{"x":171361.24000000022,"y":2542487.6700000018}},{"attributes":{"ID":236139,"DIS_CODE":0,"TOWNNAME":"東區","LI":"自強里","LIN":"13鄰","STREET":"富農街","SECT":"一段","MAREA":" ","LANE":"１３１巷","ALLEY":" ","HOUSE_NO":"５２號四樓","E_COORD97":171361.23999999999,"N_COORD97":2542487.6699999999,"ADDRESS":"富農街一段１３１巷５２號四樓","OBJECTID":236135},"geometry":{"x":171361.24000000022,"y":2542487.6700000018}},{"attributes":{"ID":236140,"DIS_CODE":0,"TOWNNAME":"東區","LI":"自強里","LIN":"13鄰","STREET":"富農街","SECT":"一段","MAREA":" ","LANE":"１３１巷","ALLEY":" ","HOUSE_NO":"５３號七樓","E_COORD97":171363.14999999999,"N_COORD97":2542468.6299999999,"ADDRESS":"富農街一段１３１巷５３號七樓","OBJECTID":236136},"geometry":{"x":171363.1500000013,"y":2542468.629999999}},{"attributes":{"ID":236141,"DIS_CODE":0,"TOWNNAME":"東區","LI":"自強里","LIN":"13鄰","STREET":"富農街","SECT":"一段","MAREA":" ","LANE":"１３１巷","ALLEY":" ","HOUSE_NO":"５３號二樓","E_COORD97":171363.14999999999,"N_COORD97":2542468.6299999999,"ADDRESS":"富農街一段１３１巷５３號二樓","OBJECTID":236137},"geometry":{"x":171363.1500000013,"y":2542468.629999999}},{"attributes":{"ID":236142,"DIS_CODE":0,"TOWNNAME":"東區","LI":"自強里","LIN":"13鄰","STREET":"富農街","SECT":"一段","MAREA":" ","LANE":"１３１巷","ALLEY":" ","HOUSE_NO":"５３號三樓","E_COORD97":171363.14999999999,"N_COORD97":2542468.6299999999,"ADDRESS":"富農街一段１３１巷５３號三樓","OBJECTID":236138},"geometry":{"x":171363.1500000013,"y":2542468.629999999}},{"attributes":{"ID":236143,"DIS_CODE":0,"TOWNNAME":"東區","LI":"自強里","LIN":"13鄰","STREET":"富農街","SECT":"一段","MAREA":" ","LANE":"１３１巷","ALLEY":" ","HOUSE_NO":"５３號五樓","E_COORD97":171363.14999999999,"N_COORD97":2542468.6299999999,"ADDRESS":"富農街一段１３１巷５３號五樓","OBJECTID":236139},"geometry":{"x":171363.1500000013,"y":2542468.629999999}},{"attributes":{"ID":236144,"DIS_CODE":0,"TOWNNAME":"白河區","LI":"永安里","LIN":"16鄰","STREET":"新生路","SECT":" ","MAREA":" ","LANE":" ","ALLEY":" ","HOUSE_NO":"３號","E_COORD97":190083.07000000001,"N_COORD97":2583177.1099999999,"ADDRESS":"新生路３號","OBJECTID":236140},"geometry":{"x":190083.07000000123,"y":2583177.1099999994}},{"attributes":{"ID":236145,"DIS_CODE":0,"TOWNNAME":"西港區","LI":"劉厝里","LIN":"16鄰","STREET":" ","SECT":" ","MAREA":"蚶西港","LANE":" ","ALLEY":" ","HOUSE_NO":"１４號之１","E_COORD97":165934.25,"N_COORD97":2559099.54,"ADDRESS":"蚶西港１４號之１","OBJECTID":236141},"geometry":{"x":165934.25,"y":2559099.5399999991}},{"attributes":{"ID":236146,"DIS_CODE":0,"TOWNNAME":"西港區","LI":"劉厝里","LIN":"16鄰","STREET":" ","SECT":" ","MAREA":"蚶西港","LANE":" ","ALLEY":" ","HOUSE_NO":"１４號之２","E_COORD97":165977.23999999999,"N_COORD97":2559105.8500000001,"ADDRESS":"蚶西港１４號之２","OBJECTID":236142},"geometry":{"x":165977.24000000022,"y":2559105.8500000015}},{"attributes":{"ID":236147,"DIS_CODE":0,"TOWNNAME":"西港區","LI":"劉厝里","LIN":"16鄰","STREET":" ","SECT":" ","MAREA":"蚶西港","LANE":" ","ALLEY":" ","HOUSE_NO":"１４號之３","E_COORD97":165969.98999999999,"N_COORD97":2559098.29,"ADDRESS":"蚶西港１４號之３","OBJECTID":236143},"geometry":{"x":165969.99000000115,"y":2559098.2900000028}},{"attributes":{"ID":236148,"DIS_CODE":0,"TOWNNAME":"西港區","LI":"劉厝里","LIN":"16鄰","STREET":" ","SECT":" ","MAREA":"蚶西港","LANE":" ","ALLEY":" ","HOUSE_NO":"１４號之６","E_COORD97":165891.41,"N_COORD97":2559112.3700000001,"ADDRESS":"蚶西港１４號之６","OBJECTID":236144},"geometry":{"x":165891.41000000015,"y":2559112.370000001}},{"attributes":{"ID":236149,"DIS_CODE":0,"TOWNNAME":"西港區","LI":"劉厝里","LIN":"16鄰","STREET":" ","SECT":" ","MAREA":"蚶西港","LANE":" ","ALLEY":" ","HOUSE_NO":"１４號","E_COORD97":165901.82999999999,"N_COORD97":2559103.98,"ADDRESS":"蚶西港１４號","OBJECTID":236145},"geometry":{"x":165901.83000000007,"y":2559103.9800000004}},{"attributes":{"ID":236150,"DIS_CODE":0,"TOWNNAME":"西港區","LI":"劉厝里","LIN":"16鄰","STREET":" ","SECT":" ","MAREA":"蚶西港","LANE":" ","ALLEY":" ","HOUSE_NO":"１６號","E_COORD97":165890.76999999999,"N_COORD97":2559082.9300000002,"ADDRESS":"蚶西港１６號","OBJECTID":236146},"geometry":{"x":165890.77000000048,"y":2559082.9299999997}},{"attributes":{"ID":236151,"DIS_CODE":0,"TOWNNAME":"西港區","LI":"劉厝里","LIN":"16鄰","STREET":" ","SECT":" ","MAREA":"蚶西港","LANE":" ","ALLEY":" ","HOUSE_NO":"１７號之１","E_COORD97":165865.97,"N_COORD97":2559070.8300000001,"ADDRESS":"蚶西港１７號之１","OBJECTID":236147},"geometry":{"x":165865.97000000067,"y":2559070.8300000001}},{"attributes":{"ID":236152,"DIS_CODE":0,"TOWNNAME":"西港區","LI":"劉厝里","LIN":"16鄰","STREET":" ","SECT":" ","MAREA":"蚶西港","LANE":" ","ALLEY":" ","HOUSE_NO":"１７號之２","E_COORD97":165846.60000000001,"N_COORD97":2559121.5800000001,"ADDRESS":"蚶西港１７號之２","OBJECTID":236148},"geometry":{"x":165846.59999999963,"y":2559121.5800000019}},{"attributes":{"ID":236153,"DIS_CODE":0,"TOWNNAME":"西港區","LI":"劉厝里","LIN":"16鄰","STREET":" ","SECT":" ","MAREA":"蚶西港","LANE":" ","ALLEY":" ","HOUSE_NO":"１７號之３","E_COORD97":165865.42000000001,"N_COORD97":2559123.0899999999,"ADDRESS":"蚶西港１７號之３","OBJECTID":236149},"geometry":{"x":165865.41999999993,"y":2559123.0899999999}},{"attributes":{"ID":236154,"DIS_CODE":0,"TOWNNAME":"西港區","LI":"劉厝里","LIN":"16鄰","STREET":" ","SECT":" ","MAREA":"蚶西港","LANE":" ","ALLEY":" ","HOUSE_NO":"１７號","E_COORD97":165874.47,"N_COORD97":2559087.1200000001,"ADDRESS":"蚶西港１７號","OBJECTID":236150},"geometry":{"x":165874.47000000067,"y":2559087.120000001}},{"attributes":{"ID":236155,"DIS_CODE":0,"TOWNNAME":"西港區","LI":"劉厝里","LIN":"16鄰","STREET":" ","SECT":" ","MAREA":"蚶西港","LANE":" ","ALLEY":" ","HOUSE_NO":"１８號之１０","E_COORD97":165828.19,"N_COORD97":2559093.8100000001,"ADDRESS":"蚶西港１８號之１０","OBJECTID":236151},"geometry":{"x":165828.19000000041,"y":2559093.8100000024}},{"attributes":{"ID":236156,"DIS_CODE":0,"TOWNNAME":"東區","LI":"自強里","LIN":"13鄰","STREET":"富農街","SECT":"一段","MAREA":" ","LANE":"１３１巷","ALLEY":" ","HOUSE_NO":"５３號六樓","E_COORD97":171363.14999999999,"N_COORD97":2542468.6299999999,"ADDRESS":"富農街一段１３１巷５３號六樓","OBJECTID":236152},"geometry":{"x":171363.1500000013,"y":2542468.629999999}},{"attributes":{"ID":236157,"DIS_CODE":0,"TOWNNAME":"西港區","LI":"劉厝里","LIN":"16鄰","STREET":" ","SECT":" ","MAREA":"蚶西港","LANE":" ","ALLEY":" ","HOUSE_NO":"２０之７號","E_COORD97":165745.51000000001,"N_COORD97":2559075.5099999998,"ADDRESS":"蚶西港２０之７號","OBJECTID":236153},"geometry":{"x":165745.51000000071,"y":2559075.5100000016}},{"attributes":{"ID":236158,"DIS_CODE":0,"TOWNNAME":"東區","LI":"自強里","LIN":"13鄰","STREET":"富農街","SECT":"一段","MAREA":" ","LANE":"１３１巷","ALLEY":" ","HOUSE_NO":"５３號四樓","E_COORD97":171363.14999999999,"N_COORD97":2542468.6299999999,"ADDRESS":"富農街一段１３１巷５３號四樓","OBJECTID":236154},"geometry":{"x":171363.1500000013,"y":2542468.629999999}},{"attributes":{"ID":236159,"DIS_CODE":0,"TOWNNAME":"東區","LI":"自強里","LIN":"13鄰","STREET":"富農街","SECT":"一段","MAREA":" ","LANE":"１３１巷","ALLEY":" ","HOUSE_NO":"５４號七樓","E_COORD97":171351.91,"N_COORD97":2542487.9100000001,"ADDRESS":"富農街一段１３１巷５４號七樓","OBJECTID":236155},"geometry":{"x":171351.91000000201,"y":2542487.9100000001}},{"attributes":{"ID":236160,"DIS_CODE":0,"TOWNNAME":"西港區","LI":"劉厝里","LIN":"16鄰","STREET":" ","SECT":" ","MAREA":"蚶西港","LANE":" ","ALLEY":" ","HOUSE_NO":"２０號","E_COORD97":165806.64999999999,"N_COORD97":2559068.29,"ADDRESS":"蚶西港２０號","OBJECTID":236156},"geometry":{"x":165806.65000000037,"y":2559068.290000001}},{"attributes":{"ID":236161,"DIS_CODE":0,"TOWNNAME":"西港區","LI":"劉厝里","LIN":"16鄰","STREET":" ","SECT":" ","MAREA":"蚶西港","LANE":" ","ALLEY":" ","HOUSE_NO":"２１號之１２","E_COORD97":165715.44,"N_COORD97":2559029,"ADDRESS":"蚶西港２１號之１２","OBJECTID":236157},"geometry":{"x":165715.44000000227,"y":2559029}},{"attributes":{"ID":236162,"DIS_CODE":0,"TOWNNAME":"西港區","LI":"劉厝里","LIN":"16鄰","STREET":" ","SECT":" ","MAREA":"蚶西港","LANE":" ","ALLEY":" ","HOUSE_NO":"２１號之６","E_COORD97":165807.70999999999,"N_COORD97":2559048.21,"ADDRESS":"蚶西港２１號之６","OBJECTID":236158},"geometry":{"x":165807.70999999996,"y":2559048.2100000028}},{"attributes":{"ID":236163,"DIS_CODE":0,"TOWNNAME":"西港區","LI":"劉厝里","LIN":"16鄰","STREET":" ","SECT":" ","MAREA":"蚶西港","LANE":" ","ALLEY":" ","HOUSE_NO":"２１號之７","E_COORD97":165804.19,"N_COORD97":2559027.6000000001,"ADDRESS":"蚶西港２１號之７","OBJECTID":236159},"geometry":{"x":165804.19000000134,"y":2559027.5999999996}},{"attributes":{"ID":236164,"DIS_CODE":0,"TOWNNAME":"西港區","LI":"劉厝里","LIN":"16鄰","STREET":" ","SECT":" ","MAREA":"蚶西港","LANE":" ","ALLEY":" ","HOUSE_NO":"２１號","E_COORD97":165816.01000000001,"N_COORD97":2559046.8900000001,"ADDRESS":"蚶西港２１號","OBJECTID":236160},"geometry":{"x":165816.01000000164,"y":2559046.8900000006}},{"attributes":{"ID":236165,"DIS_CODE":0,"TOWNNAME":"東區","LI":"自強里","LIN":"13鄰","STREET":"富農街","SECT":"一段","MAREA":" ","LANE":"１３１巷","ALLEY":" ","HOUSE_NO":"５４號九樓","E_COORD97":171351.91,"N_COORD97":2542487.9100000001,"ADDRESS":"富農街一段１３１巷５４號九樓","OBJECTID":236161},"geometry":{"x":171351.91000000201,"y":2542487.9100000001}},{"attributes":{"ID":236166,"DIS_CODE":0,"TOWNNAME":"東區","LI":"自強里","LIN":"13鄰","STREET":"富農街","SECT":"一段","MAREA":" ","LANE":"１３１巷","ALLEY":" ","HOUSE_NO":"５４號二樓","E_COORD97":171351.91,"N_COORD97":2542487.9100000001,"ADDRESS":"富農街一段１３１巷５４號二樓","OBJECTID":236162},"geometry":{"x":171351.91000000201,"y":2542487.9100000001}},{"attributes":{"ID":236167,"DIS_CODE":0,"TOWNNAME":"西港區","LI":"劉厝里","LIN":"16鄰","STREET":" ","SECT":" ","MAREA":"蚶西港","LANE":" ","ALLEY":" ","HOUSE_NO":"２２號之１１","E_COORD97":165828.25,"N_COORD97":2559051.0899999999,"ADDRESS":"蚶西港２２號之１１","OBJECTID":236163},"geometry":{"x":165828.25000000186,"y":2559051.0900000017}},{"attributes":{"ID":236168,"DIS_CODE":0,"TOWNNAME":"西港區","LI":"劉厝里","LIN":"16鄰","STREET":" ","SECT":" ","MAREA":"蚶西港","LANE":" ","ALLEY":" ","HOUSE_NO":"２２號之１２","E_COORD97":165834.07000000001,"N_COORD97":2559050.9900000002,"ADDRESS":"蚶西港２２號之１２","OBJECTID":236164},"geometry":{"x":165834.0700000003,"y":2559050.9900000021}},{"attributes":{"ID":236169,"DIS_CODE":0,"TOWNNAME":"西港區","LI":"劉厝里","LIN":"16鄰","STREET":" ","SECT":" ","MAREA":"蚶西港","LANE":" ","ALLEY":" ","HOUSE_NO":"２２號之１","E_COORD97":165851.53,"N_COORD97":2559053.0699999998,"ADDRESS":"蚶西港２２號之１","OBJECTID":236165},"geometry":{"x":165851.53000000026,"y":2559053.0700000003}},{"attributes":{"ID":236170,"DIS_CODE":0,"TOWNNAME":"永康區","LI":"埔園里","LIN":"16鄰","STREET":"中山路","SECT":" ","MAREA":" ","LANE":"３８３巷","ALLEY":" ","HOUSE_NO":"１８號","E_COORD97":173486.31,"N_COORD97":2548534.4900000002,"ADDRESS":"中山路３８３巷１８號","OBJECTID":236166},"geometry":{"x":173486.31000000145,"y":2548534.4900000021}},{"attributes":{"ID":236171,"DIS_CODE":0,"TOWNNAME":"永康區","LI":"西勢里","LIN":"16鄰","STREET":"西勢路","SECT":" ","MAREA":" ","LANE":"８２巷","ALLEY":" ","HOUSE_NO":"２１號","E_COORD97":176062.97,"N_COORD97":2546821.54,"ADDRESS":"西勢路８２巷２１號","OBJECTID":236167},"geometry":{"x":176062.96999999974,"y":2546821.540000001}},{"attributes":{"ID":236172,"DIS_CODE":0,"TOWNNAME":"永康區","LI":"西勢里","LIN":"16鄰","STREET":"西勢路","SECT":" ","MAREA":" ","LANE":"６６巷","ALLEY":" ","HOUSE_NO":"３５號","E_COORD97":176135.54999999999,"N_COORD97":2546854.04,"ADDRESS":"西勢路６６巷３５號","OBJECTID":236168},"geometry":{"x":176135.54999999981,"y":2546854.0400000028}},{"attributes":{"ID":236173,"DIS_CODE":0,"TOWNNAME":"永康區","LI":"西勢里","LIN":"16鄰","STREET":"西勢路","SECT":" ","MAREA":" ","LANE":"６６巷","ALLEY":" ","HOUSE_NO":"３３號","E_COORD97":176135.34,"N_COORD97":2546850.29,"ADDRESS":"西勢路６６巷３３號","OBJECTID":236169},"geometry":{"x":176135.33999999985,"y":2546850.290000001}},{"attributes":{"ID":236174,"DIS_CODE":0,"TOWNNAME":"東區","LI":"自強里","LIN":"13鄰","STREET":"富農街","SECT":"一段","MAREA":" ","LANE":"１３１巷","ALLEY":" ","HOUSE_NO":"５４號八樓","E_COORD97":171351.91,"N_COORD97":2542487.9100000001,"ADDRESS":"富農街一段１３１巷５４號八樓","OBJECTID":236170},"geometry":{"x":171351.91000000201,"y":2542487.9100000001}},{"attributes":{"ID":236175,"DIS_CODE":0,"TOWNNAME":"東區","LI":"自強里","LIN":"13鄰","STREET":"富農街","SECT":"一段","MAREA":" ","LANE":"１３１巷","ALLEY":" ","HOUSE_NO":"５４號三樓","E_COORD97":171351.91,"N_COORD97":2542487.9100000001,"ADDRESS":"富農街一段１３１巷５４號三樓","OBJECTID":236171},"geometry":{"x":171351.91000000201,"y":2542487.9100000001}},{"attributes":{"ID":236176,"DIS_CODE":0,"TOWNNAME":"東區","LI":"自強里","LIN":"13鄰","STREET":"富農街","SECT":"一段","MAREA":" ","LANE":"１３１巷","ALLEY":" ","HOUSE_NO":"５４號五樓","E_COORD97":171351.91,"N_COORD97":2542487.9100000001,"ADDRESS":"富農街一段１３１巷５４號五樓","OBJECTID":236172},"geometry":{"x":171351.91000000201,"y":2542487.9100000001}},{"attributes":{"ID":236177,"DIS_CODE":0,"TOWNNAME":"東區","LI":"自強里","LIN":"13鄰","STREET":"富農街","SECT":"一段","MAREA":" ","LANE":"１３１巷","ALLEY":" ","HOUSE_NO":"５４號六樓","E_COORD97":171351.91,"N_COORD97":2542487.9100000001,"ADDRESS":"富農街一段１３１巷５４號六樓","OBJECTID":236173},"geometry":{"x":171351.91000000201,"y":2542487.9100000001}},{"attributes":{"ID":236178,"DIS_CODE":0,"TOWNNAME":"東區","LI":"自強里","LIN":"13鄰","STREET":"富農街","SECT":"一段","MAREA":" ","LANE":"１３１巷","ALLEY":" ","HOUSE_NO":"５４號四樓","E_COORD97":171351.91,"N_COORD97":2542487.9100000001,"ADDRESS":"富農街一段１３１巷５４號四樓","OBJECTID":236174},"geometry":{"x":171351.91000000201,"y":2542487.9100000001}},{"attributes":{"ID":236179,"DIS_CODE":0,"TOWNNAME":"東區","LI":"自強里","LIN":"13鄰","STREET":"富農街","SECT":"一段","MAREA":" ","LANE":"１３１巷","ALLEY":" ","HOUSE_NO":"５５號七樓","E_COORD97":171356.12,"N_COORD97":2542468.2000000002,"ADDRESS":"富農街一段１３１巷５５號七樓","OBJECTID":236175},"geometry":{"x":171356.12000000104,"y":2542468.1999999993}},{"attributes":{"ID":236180,"DIS_CODE":0,"TOWNNAME":"東區","LI":"自強里","LIN":"13鄰","STREET":"富農街","SECT":"一段","MAREA":" ","LANE":"１３１巷","ALLEY":" ","HOUSE_NO":"５５號二樓","E_COORD97":171356.12,"N_COORD97":2542468.2000000002,"ADDRESS":"富農街一段１３１巷５５號二樓","OBJECTID":236176},"geometry":{"x":171356.12000000104,"y":2542468.1999999993}},{"attributes":{"ID":236181,"DIS_CODE":0,"TOWNNAME":"東區","LI":"自強里","LIN":"13鄰","STREET":"富農街","SECT":"一段","MAREA":" ","LANE":"１３１巷","ALLEY":" ","HOUSE_NO":"５５號三樓","E_COORD97":171356.12,"N_COORD97":2542468.2000000002,"ADDRESS":"富農街一段１３１巷５５號三樓","OBJECTID":236177},"geometry":{"x":171356.12000000104,"y":2542468.1999999993}},{"attributes":{"ID":236182,"DIS_CODE":0,"TOWNNAME":"東區","LI":"自強里","LIN":"13鄰","STREET":"富農街","SECT":"一段","MAREA":" ","LANE":"１３１巷","ALLEY":" ","HOUSE_NO":"５５號五樓","E_COORD97":171356.12,"N_COORD97":2542468.2000000002,"ADDRESS":"富農街一段１３１巷５５號五樓","OBJECTID":236178},"geometry":{"x":171356.12000000104,"y":2542468.1999999993}},{"attributes":{"ID":236183,"DIS_CODE":0,"TOWNNAME":"東區","LI":"自強里","LIN":"13鄰","STREET":"富農街","SECT":"一段","MAREA":" ","LANE":"１３１巷","ALLEY":" ","HOUSE_NO":"５５號六樓","E_COORD97":171356.12,"N_COORD97":2542468.2000000002,"ADDRESS":"富農街一段１３１巷５５號六樓","OBJECTID":236179},"geometry":{"x":171356.12000000104,"y":2542468.1999999993}},{"attributes":{"ID":236184,"DIS_CODE":0,"TOWNNAME":"永康區","LI":"大橋里","LIN":"14鄰","STREET":"大橋一街","SECT":" ","MAREA":" ","LANE":" ","ALLEY":" ","HOUSE_NO":"７１號","E_COORD97":170926.84,"N_COORD97":2546431.5,"ADDRESS":"大橋一街７１號","OBJECTID":236180},"geometry":{"x":170926.84000000078,"y":2546431.5000000037}},{"attributes":{"ID":236185,"DIS_CODE":0,"TOWNNAME":"永康區","LI":"大橋里","LIN":"14鄰","STREET":"中華路","SECT":" ","MAREA":" ","LANE":" ","ALLEY":" ","HOUSE_NO":"７６８號之２","E_COORD97":170879.09,"N_COORD97":2546416.7999999998,"ADDRESS":"中華路７６８號之２","OBJECTID":236181},"geometry":{"x":170879.09000000171,"y":2546416.8000000045}},{"attributes":{"ID":236186,"DIS_CODE":0,"TOWNNAME":"永康區","LI":"大橋里","LIN":"14鄰","STREET":"中華路","SECT":" ","MAREA":" ","LANE":" ","ALLEY":" ","HOUSE_NO":"７７８號","E_COORD97":170851.12,"N_COORD97":2546442.5,"ADDRESS":"中華路７７８號","OBJECTID":236182},"geometry":{"x":170851.12000000104,"y":2546442.5000000019}},{"attributes":{"ID":236187,"DIS_CODE":0,"TOWNNAME":"永康區","LI":"三民里","LIN":"14鄰","STREET":"中正北路","SECT":" ","MAREA":" ","LANE":" ","ALLEY":" ","HOUSE_NO":"９４８號之９","E_COORD97":175601.09,"N_COORD97":2550615.04,"ADDRESS":"中正北路９４８號之９","OBJECTID":236183},"geometry":{"x":175601.08999999985,"y":2550615.040000001}},{"attributes":{"ID":236188,"DIS_CODE":0,"TOWNNAME":"安南區","LI":"海東里","LIN":"17鄰","STREET":"同安路","SECT":" ","MAREA":" ","LANE":"３４７巷","ALLEY":" ","HOUSE_NO":"２號","E_COORD97":167242.48000000001,"N_COORD97":2549311.6299999999,"ADDRESS":"同安路３４７巷２號","OBJECTID":236184},"geometry":{"x":167242.47999999952,"y":2549311.6300000008}},{"attributes":{"ID":236189,"DIS_CODE":0,"TOWNNAME":"東區","LI":"自強里","LIN":"13鄰","STREET":"富農街","SECT":"一段","MAREA":" ","LANE":"１３１巷","ALLEY":" ","HOUSE_NO":"５５號四樓","E_COORD97":171356.12,"N_COORD97":2542468.2000000002,"ADDRESS":"富農街一段１３１巷５５號四樓","OBJECTID":236185},"geometry":{"x":171356.12000000104,"y":2542468.1999999993}},{"attributes":{"ID":236190,"DIS_CODE":0,"TOWNNAME":"東區","LI":"裕聖里","LIN":"16鄰","STREET":"裕敬路","SECT":" ","MAREA":" ","LANE":" ","ALLEY":" ","HOUSE_NO":"８號","E_COORD97":172277.42999999999,"N_COORD97":2542234.6600000001,"ADDRESS":"裕敬路８號","OBJECTID":236186},"geometry":{"x":172277.43000000063,"y":2542234.660000002}},{"attributes":{"ID":236191,"DIS_CODE":0,"TOWNNAME":"西港區","LI":"慶安里","LIN":"16鄰","STREET":"慶安路","SECT":" ","MAREA":" ","LANE":"１４６巷","ALLEY":" ","HOUSE_NO":"１號","E_COORD97":168017.20000000001,"N_COORD97":2557916.6400000001,"ADDRESS":"慶安路１４６巷１號","OBJECTID":236187},"geometry":{"x":168017.20000000205,"y":2557916.6400000006}},{"attributes":{"ID":236192,"DIS_CODE":0,"TOWNNAME":"西港區","LI":"慶安里","LIN":"16鄰","STREET":"慶安路","SECT":" ","MAREA":" ","LANE":"１４６巷","ALLEY":" ","HOUSE_NO":"２號","E_COORD97":168017.16,"N_COORD97":2557920.52,"ADDRESS":"慶安路１４６巷２號","OBJECTID":236188},"geometry":{"x":168017.16000000015,"y":2557920.5199999996}},{"attributes":{"ID":236193,"DIS_CODE":0,"TOWNNAME":"西港區","LI":"慶安里","LIN":"16鄰","STREET":"慶安路","SECT":" ","MAREA":" ","LANE":"１４６巷","ALLEY":" ","HOUSE_NO":"３號","E_COORD97":168017.37,"N_COORD97":2557924.8500000001,"ADDRESS":"慶安路１４６巷３號","OBJECTID":236189},"geometry":{"x":168017.37000000011,"y":2557924.8499999996}},{"attributes":{"ID":236194,"DIS_CODE":0,"TOWNNAME":"西港區","LI":"慶安里","LIN":"16鄰","STREET":"慶安路","SECT":" ","MAREA":" ","LANE":"１４６巷","ALLEY":" ","HOUSE_NO":"３之１號","E_COORD97":168017.23999999999,"N_COORD97":2557929.3500000001,"ADDRESS":"慶安路１４６巷３之１號","OBJECTID":236190},"geometry":{"x":168017.24000000115,"y":2557929.3500000015}},{"attributes":{"ID":236195,"DIS_CODE":0,"TOWNNAME":"西港區","LI":"慶安里","LIN":"16鄰","STREET":"慶安路","SECT":" ","MAREA":" ","LANE":"１４６巷","ALLEY":" ","HOUSE_NO":"５號","E_COORD97":168017.29999999999,"N_COORD97":2557932.6000000001,"ADDRESS":"慶安路１４６巷５號","OBJECTID":236191},"geometry":{"x":168017.29999999981,"y":2557932.5999999996}},{"attributes":{"ID":236196,"DIS_CODE":0,"TOWNNAME":"西港區","LI":"慶安里","LIN":"16鄰","STREET":"慶安路","SECT":" ","MAREA":" ","LANE":"１４６巷","ALLEY":" ","HOUSE_NO":"７號","E_COORD97":168017.64000000001,"N_COORD97":2557944.0299999998,"ADDRESS":"慶安路１４６巷７號","OBJECTID":236192},"geometry":{"x":168017.6400000006,"y":2557944.0299999975}},{"attributes":{"ID":236197,"DIS_CODE":0,"TOWNNAME":"永康區","LI":"大橋里","LIN":"14鄰","STREET":"中華路","SECT":" ","MAREA":" ","LANE":" ","ALLEY":" ","HOUSE_NO":"７９６號","E_COORD97":170805.19,"N_COORD97":2546484.7400000002,"ADDRESS":"中華路７９６號","OBJECTID":236193},"geometry":{"x":170805.19000000134,"y":2546484.7400000021}},{"attributes":{"ID":236198,"DIS_CODE":0,"TOWNNAME":"永康區","LI":"三民里","LIN":"14鄰","STREET":"中正北路","SECT":" ","MAREA":" ","LANE":" ","ALLEY":" ","HOUSE_NO":"９４８號之３","E_COORD97":175582.22,"N_COORD97":2550598.5499999998,"ADDRESS":"中正北路９４８號之３","OBJECTID":236194},"geometry":{"x":175582.2200000016,"y":2550598.5500000045}},{"attributes":{"ID":236199,"DIS_CODE":0,"TOWNNAME":"仁德區","LI":"新田里","LIN":"4鄰","STREET":"勝利一街","SECT":" ","MAREA":" ","LANE":"５８巷","ALLEY":" ","HOUSE_NO":"６號","E_COORD97":173975.509983,"N_COORD97":2539346.5400100001,"ADDRESS":"勝利一街５８巷６號","OBJECTID":236195},"geometry":{"x":173975.50998300128,"y":2539346.5400060005}},{"attributes":{"ID":236200,"DIS_CODE":0,"TOWNNAME":"永康區","LI":"三民里","LIN":"14鄰","STREET":"中正北路","SECT":" ","MAREA":" ","LANE":" ","ALLEY":" ","HOUSE_NO":"９５０號之１","E_COORD97":175616.32000000001,"N_COORD97":2550628.79,"ADDRESS":"中正北路９５０號之１","OBJECTID":236196},"geometry":{"x":175616.32000000123,"y":2550628.7899999991}},{"attributes":{"ID":236201,"DIS_CODE":0,"TOWNNAME":"永康區","LI":"大橋里","LIN":"14鄰","STREET":"中華路","SECT":" ","MAREA":" ","LANE":" ","ALLEY":" ","HOUSE_NO":"７９０號","E_COORD97":170831.60999999999,"N_COORD97":2546460.2400000002,"ADDRESS":"中華路７９０號","OBJECTID":236197},"geometry":{"x":170831.61000000034,"y":2546460.2400000002}},{"attributes":{"ID":236202,"DIS_CODE":0,"TOWNNAME":"永康區","LI":"三民里","LIN":"14鄰","STREET":"中正北路","SECT":" ","MAREA":" ","LANE":" ","ALLEY":" ","HOUSE_NO":"９１２號","E_COORD97":175299.60000000001,"N_COORD97":2550361.25,"ADDRESS":"中正北路９１２號","OBJECTID":236198},"geometry":{"x":175299.59999999963,"y":2550361.25}},{"attributes":{"ID":236203,"DIS_CODE":0,"TOWNNAME":"永康區","LI":"大橋里","LIN":"14鄰","STREET":"中華路","SECT":" ","MAREA":" ","LANE":" ","ALLEY":" ","HOUSE_NO":"７６８號之１","E_COORD97":170882.16,"N_COORD97":2546413.7999999998,"ADDRESS":"中華路７６８號之１","OBJECTID":236199},"geometry":{"x":170882.16000000015,"y":2546413.8000000026}},{"attributes":{"ID":236204,"DIS_CODE":0,"TOWNNAME":"安南區","LI":"新順里","LIN":"16鄰","STREET":"安生街","SECT":" ","MAREA":" ","LANE":"４９巷","ALLEY":" ","HOUSE_NO":"１０號","E_COORD97":169629.82000000001,"N_COORD97":2549439.2000000002,"ADDRESS":"安生街４９巷１０號","OBJECTID":236200},"geometry":{"x":169629.8200000003,"y":2549439.1999999993}}]}