{"displayFieldName":"TOWNNAME","fieldAliases":{"ID":"ID","DIS_CODE":"DIS_CODE","TOWNNAME":"TOWNNAME","LI":"LI","LIN":"LIN","STREET":"STREET","SECT":"SECT","MAREA":"MAREA","LANE":"LANE","ALLEY":"ALLEY","HOUSE_NO":"HOUSE_NO","E_COORD97":"E_COORD97","N_COORD97":"N_COORD97","ADDRESS":"ADDRESS","OBJECTID":"OBJECTID"},"geometryType":"esriGeometryPoint","spatialReference":{"wkid":102443,"latestWkid":3826},"fields":[{"name":"ID","type":"esriFieldTypeDouble","alias":"ID"},{"name":"DIS_CODE","type":"esriFieldTypeInteger","alias":"DIS_CODE"},{"name":"TOWNNAME","type":"esriFieldTypeString","alias":"TOWNNAME","length":8},{"name":"LI","type":"esriFieldTypeString","alias":"LI","length":8},{"name":"LIN","type":"esriFieldTypeString","alias":"LIN","length":12},{"name":"STREET","type":"esriFieldTypeString","alias":"STREET","length":20},{"name":"SECT","type":"esriFieldTypeString","alias":"SECT","length":8},{"name":"MAREA","type":"esriFieldTypeString","alias":"MAREA","length":12},{"name":"LANE","type":"esriFieldTypeString","alias":"LANE","length":10},{"name":"ALLEY","type":"esriFieldTypeString","alias":"ALLEY","length":10},{"name":"HOUSE_NO","type":"esriFieldTypeString","alias":"HOUSE_NO","length":20},{"name":"E_COORD97","type":"esriFieldTypeDouble","alias":"E_COORD97"},{"name":"N_COORD97","type":"esriFieldTypeDouble","alias":"N_COORD97"},{"name":"ADDRESS","type":"esriFieldTypeString","alias":"ADDRESS","length":50},{"name":"OBJECTID","type":"esriFieldTypeOID","alias":"OBJECTID"}],"features":[{"attributes":{"ID":247605,"DIS_CODE":0,"TOWNNAME":"安平區","LI":"育平里","LIN":"14鄰","STREET":"育平路","SECT":" ","MAREA":" ","LANE":" ","ALLEY":" ","HOUSE_NO":"２１２號七樓之１８","E_COORD97":164690.60999999999,"N_COORD97":2543415.9199999999,"ADDRESS":"育平路２１２號七樓之１８","OBJECTID":247601},"geometry":{"x":164690.61000000127,"y":2543415.9200000018}},{"attributes":{"ID":247606,"DIS_CODE":0,"TOWNNAME":"永康區","LI":"北灣里","LIN":"1鄰","STREET":"文賢街","SECT":" ","MAREA":" ","LANE":" ","ALLEY":" ","HOUSE_NO":"１９３號","E_COORD97":175356.88,"N_COORD97":2545489.0600000001,"ADDRESS":"文賢街１９３號","OBJECTID":247602},"geometry":{"x":175356.87999999989,"y":2545489.0600000042}},{"attributes":{"ID":247607,"DIS_CODE":0,"TOWNNAME":"新營區","LI":"姑爺里","LIN":"11鄰","STREET":" ","SECT":" ","MAREA":"挖仔","LANE":" ","ALLEY":" ","HOUSE_NO":"４３號之３０","E_COORD97":173979.94,"N_COORD97":2575562.4700000002,"ADDRESS":"挖仔４３之３０號","OBJECTID":247603},"geometry":{"x":173979.94000000134,"y":2575562.4700000044}},{"attributes":{"ID":247608,"DIS_CODE":0,"TOWNNAME":"新營區","LI":"南興里","LIN":"11鄰","STREET":"和平路","SECT":" ","MAREA":" ","LANE":"１０２巷","ALLEY":" ","HOUSE_NO":"３１號","E_COORD97":179313.01999999999,"N_COORD97":2577594.7799999998,"ADDRESS":"和平路１０２巷３１號","OBJECTID":247604},"geometry":{"x":179313.02000000048,"y":2577594.7800000012}},{"attributes":{"ID":247609,"DIS_CODE":0,"TOWNNAME":"安平區","LI":"育平里","LIN":"14鄰","STREET":"育平路","SECT":" ","MAREA":" ","LANE":" ","ALLEY":" ","HOUSE_NO":"２１２號七樓之２０","E_COORD97":164690.60999999999,"N_COORD97":2543415.9199999999,"ADDRESS":"育平路２１２號七樓之２０","OBJECTID":247605},"geometry":{"x":164690.61000000127,"y":2543415.9200000018}},{"attributes":{"ID":247610,"DIS_CODE":0,"TOWNNAME":"新營區","LI":"姑爺里","LIN":"11鄰","STREET":" ","SECT":" ","MAREA":"挖仔","LANE":" ","ALLEY":" ","HOUSE_NO":"４３之５８號","E_COORD97":173948.31,"N_COORD97":2575580.3500000001,"ADDRESS":"挖仔４３之５８號","OBJECTID":247606},"geometry":{"x":173948.30999999959,"y":2575580.3500000015}},{"attributes":{"ID":247611,"DIS_CODE":0,"TOWNNAME":"新營區","LI":"姑爺里","LIN":"11鄰","STREET":" ","SECT":" ","MAREA":"挖仔","LANE":" ","ALLEY":" ","HOUSE_NO":"４３之４５號","E_COORD97":173943.35999999999,"N_COORD97":2575611.3799999999,"ADDRESS":"挖仔４３之４５號","OBJECTID":247607},"geometry":{"x":173943.36000000127,"y":2575611.379999999}},{"attributes":{"ID":247612,"DIS_CODE":0,"TOWNNAME":"柳營區","LI":"大農里","LIN":"9鄰","STREET":" ","SECT":" ","MAREA":"農場","LANE":" ","ALLEY":" ","HOUSE_NO":"１９號之２","E_COORD97":183311.60999999999,"N_COORD97":2575881.9300000002,"ADDRESS":"農場１９號之２","OBJECTID":247608},"geometry":{"x":183311.61000000034,"y":2575881.9300000016}},{"attributes":{"ID":247613,"DIS_CODE":0,"TOWNNAME":"柳營區","LI":"大農里","LIN":"9鄰","STREET":" ","SECT":" ","MAREA":"農場","LANE":" ","ALLEY":" ","HOUSE_NO":"１９號之３","E_COORD97":183306.23000000001,"N_COORD97":2575881.8199999998,"ADDRESS":"農場１９號之３","OBJECTID":247609},"geometry":{"x":183306.23000000231,"y":2575881.820000004}},{"attributes":{"ID":247614,"DIS_CODE":0,"TOWNNAME":"柳營區","LI":"大農里","LIN":"9鄰","STREET":" ","SECT":" ","MAREA":"農場","LANE":" ","ALLEY":" ","HOUSE_NO":"１９號之４","E_COORD97":183300.92999999999,"N_COORD97":2575881.79,"ADDRESS":"農場１９號之４","OBJECTID":247610},"geometry":{"x":183300.93000000063,"y":2575881.790000001}},{"attributes":{"ID":247615,"DIS_CODE":0,"TOWNNAME":"新營區","LI":"新東里","LIN":"11鄰","STREET":"東泰八街","SECT":" ","MAREA":" ","LANE":"２巷","ALLEY":" ","HOUSE_NO":"１７號","E_COORD97":181156.84,"N_COORD97":2579705.75,"ADDRESS":"東泰八街２巷１７號","OBJECTID":247611},"geometry":{"x":181156.83999999985,"y":2579705.75}},{"attributes":{"ID":247616,"DIS_CODE":0,"TOWNNAME":"柳營區","LI":"大農里","LIN":"9鄰","STREET":" ","SECT":" ","MAREA":"農場","LANE":" ","ALLEY":" ","HOUSE_NO":"１９號之５","E_COORD97":183295.14000000001,"N_COORD97":2575881.9199999999,"ADDRESS":"農場１９號之５","OBJECTID":247612},"geometry":{"x":183295.13999999966,"y":2575881.9200000018}},{"attributes":{"ID":247617,"DIS_CODE":0,"TOWNNAME":"新營區","LI":"延平里","LIN":"11鄰","STREET":"成功街","SECT":" ","MAREA":" ","LANE":"５７巷","ALLEY":" ","HOUSE_NO":"１５號","E_COORD97":179591.97457600001,"N_COORD97":2577931.4406699999,"ADDRESS":"成功街５７巷１５號","OBJECTID":247613},"geometry":{"x":179591.97457600199,"y":2577931.4406739995}},{"attributes":{"ID":247618,"DIS_CODE":0,"TOWNNAME":"歸仁區","LI":"後市里","LIN":"34鄰","STREET":"民族北街","SECT":" ","MAREA":" ","LANE":"１７巷","ALLEY":" ","HOUSE_NO":"３１號","E_COORD97":177308.57999999999,"N_COORD97":2540871.75,"ADDRESS":"民族北街１７巷３１號","OBJECTID":247614},"geometry":{"x":177308.58000000007,"y":2540871.75}},{"attributes":{"ID":247619,"DIS_CODE":0,"TOWNNAME":"歸仁區","LI":"後市里","LIN":"34鄰","STREET":"民族北街","SECT":" ","MAREA":" ","LANE":"１７巷","ALLEY":" ","HOUSE_NO":"４２號","E_COORD97":177308.67999999999,"N_COORD97":2540892.75,"ADDRESS":"民族北街１７巷４２號","OBJECTID":247615},"geometry":{"x":177308.68000000063,"y":2540892.75}},{"attributes":{"ID":247620,"DIS_CODE":0,"TOWNNAME":"歸仁區","LI":"後市里","LIN":"34鄰","STREET":"民族北街","SECT":" ","MAREA":" ","LANE":"１７巷","ALLEY":" ","HOUSE_NO":"６２號","E_COORD97":177271.78,"N_COORD97":2540903.75,"ADDRESS":"民族北街１７巷６２號","OBJECTID":247616},"geometry":{"x":177271.78000000026,"y":2540903.7500000019}},{"attributes":{"ID":247621,"DIS_CODE":0,"TOWNNAME":"柳營區","LI":"大農里","LIN":"9鄰","STREET":" ","SECT":" ","MAREA":"農場","LANE":" ","ALLEY":" ","HOUSE_NO":"２０號之１","E_COORD97":183305.82999999999,"N_COORD97":2575875.0899999999,"ADDRESS":"農場２０號之１","OBJECTID":247617},"geometry":{"x":183305.83000000101,"y":2575875.0899999999}},{"attributes":{"ID":247622,"DIS_CODE":0,"TOWNNAME":"柳營區","LI":"大農里","LIN":"9鄰","STREET":" ","SECT":" ","MAREA":"農場","LANE":" ","ALLEY":" ","HOUSE_NO":"２０號之４","E_COORD97":183284.09,"N_COORD97":2575874.8799999999,"ADDRESS":"農場２０號之４","OBJECTID":247618},"geometry":{"x":183284.08999999985,"y":2575874.879999999}},{"attributes":{"ID":247623,"DIS_CODE":0,"TOWNNAME":"柳營區","LI":"大農里","LIN":"9鄰","STREET":" ","SECT":" ","MAREA":"農場","LANE":" ","ALLEY":" ","HOUSE_NO":"２０號之５","E_COORD97":183297.62,"N_COORD97":2575874.6499999999,"ADDRESS":"農場２０號之５","OBJECTID":247619},"geometry":{"x":183297.62000000011,"y":2575874.6500000004}},{"attributes":{"ID":247624,"DIS_CODE":0,"TOWNNAME":"柳營區","LI":"大農里","LIN":"9鄰","STREET":" ","SECT":" ","MAREA":"農場","LANE":" ","ALLEY":" ","HOUSE_NO":"２５號之３","E_COORD97":183288,"N_COORD97":2575855.79,"ADDRESS":"農場２５號之３","OBJECTID":247620},"geometry":{"x":183288,"y":2575855.7899999991}},{"attributes":{"ID":247625,"DIS_CODE":0,"TOWNNAME":"柳營區","LI":"大農里","LIN":"9鄰","STREET":" ","SECT":" ","MAREA":"農場","LANE":" ","ALLEY":" ","HOUSE_NO":"２５號之４","E_COORD97":183281.12,"N_COORD97":2575855.71,"ADDRESS":"農場２５號之４","OBJECTID":247621},"geometry":{"x":183281.12000000197,"y":2575855.7100000009}},{"attributes":{"ID":247626,"DIS_CODE":0,"TOWNNAME":"歸仁區","LI":"後市里","LIN":"34鄰","STREET":"民族北街","SECT":" ","MAREA":" ","LANE":"１７巷","ALLEY":" ","HOUSE_NO":"５６號","E_COORD97":177277.88,"N_COORD97":2540894.75,"ADDRESS":"民族北街１７巷５６號","OBJECTID":247622},"geometry":{"x":177277.87999999989,"y":2540894.7500000019}},{"attributes":{"ID":247627,"DIS_CODE":0,"TOWNNAME":"歸仁區","LI":"南保里","LIN":"34鄰","STREET":"民權六街","SECT":" ","MAREA":" ","LANE":"８１巷","ALLEY":" ","HOUSE_NO":"１０號","E_COORD97":176767.04000000001,"N_COORD97":2541045.29,"ADDRESS":"民權六街８１巷１０號","OBJECTID":247623},"geometry":{"x":176767.0400000019,"y":2541045.290000001}},{"attributes":{"ID":247628,"DIS_CODE":0,"TOWNNAME":"歸仁區","LI":"南保里","LIN":"34鄰","STREET":"民權六街","SECT":" ","MAREA":" ","LANE":"８１巷","ALLEY":" ","HOUSE_NO":"１２號","E_COORD97":176762.84,"N_COORD97":2541029.29,"ADDRESS":"民權六街８１巷１２號","OBJECTID":247624},"geometry":{"x":176762.83999999985,"y":2541029.290000001}},{"attributes":{"ID":247629,"DIS_CODE":0,"TOWNNAME":"安平區","LI":"育平里","LIN":"14鄰","STREET":"育平路","SECT":" ","MAREA":" ","LANE":" ","ALLEY":" ","HOUSE_NO":"２１２號七樓之２２","E_COORD97":164690.60999999999,"N_COORD97":2543415.9199999999,"ADDRESS":"育平路２１２號七樓之２２","OBJECTID":247625},"geometry":{"x":164690.61000000127,"y":2543415.9200000018}},{"attributes":{"ID":247630,"DIS_CODE":0,"TOWNNAME":"永康區","LI":"王行里","LIN":"1鄰","STREET":"王行路","SECT":" ","MAREA":" ","LANE":" ","ALLEY":" ","HOUSE_NO":"９號","E_COORD97":175579.41,"N_COORD97":2547840.3999999999,"ADDRESS":"王行路９號","OBJECTID":247626},"geometry":{"x":175579.41000000015,"y":2547840.4000000022}},{"attributes":{"ID":247631,"DIS_CODE":0,"TOWNNAME":"歸仁區","LI":"七甲里","LIN":"11鄰","STREET":"丁厝街","SECT":" ","MAREA":" ","LANE":"４１巷","ALLEY":" ","HOUSE_NO":"１６號","E_COORD97":175957.04000000001,"N_COORD97":2541938.25,"ADDRESS":"丁厝街４１巷１６號","OBJECTID":247627},"geometry":{"x":175957.04000000097,"y":2541938.2500000019}},{"attributes":{"ID":247632,"DIS_CODE":0,"TOWNNAME":"北區","LI":"東興里","LIN":"11鄰","STREET":"小東路","SECT":" ","MAREA":" ","LANE":"４２３巷","ALLEY":" ","HOUSE_NO":"５號","E_COORD97":171336.78,"N_COORD97":2544489.4500000002,"ADDRESS":"小東路４２３巷５號","OBJECTID":247628},"geometry":{"x":171336.78000000026,"y":2544489.4500000011}},{"attributes":{"ID":247633,"DIS_CODE":0,"TOWNNAME":"北區","LI":"華興里","LIN":"11鄰","STREET":"南園街","SECT":" ","MAREA":" ","LANE":"１０１巷","ALLEY":" ","HOUSE_NO":"２６號","E_COORD97":170770.12,"N_COORD97":2545463.6099999999,"ADDRESS":"南園街１０１巷２６號","OBJECTID":247629},"geometry":{"x":170770.12000000011,"y":2545463.6099999975}},{"attributes":{"ID":247634,"DIS_CODE":0,"TOWNNAME":"歸仁區","LI":"南保里","LIN":"34鄰","STREET":"民權六街","SECT":" ","MAREA":" ","LANE":"８１巷","ALLEY":" ","HOUSE_NO":"６號","E_COORD97":176765.89000000001,"N_COORD97":2541076.29,"ADDRESS":"民權六街８１巷６號","OBJECTID":247630},"geometry":{"x":176765.89000000153,"y":2541076.290000001}},{"attributes":{"ID":247635,"DIS_CODE":0,"TOWNNAME":"新營區","LI":"忠政里","LIN":"6鄰","STREET":"府西路","SECT":" ","MAREA":" ","LANE":"２２巷","ALLEY":" ","HOUSE_NO":"２４號","E_COORD97":179888.32999999999,"N_COORD97":2579202.2799999998,"ADDRESS":"府西路２２巷２４號","OBJECTID":247631},"geometry":{"x":179888.33000000101,"y":2579202.2799999993}},{"attributes":{"ID":247636,"DIS_CODE":0,"TOWNNAME":"新營區","LI":"忠政里","LIN":"6鄰","STREET":"府西路","SECT":" ","MAREA":" ","LANE":"２２巷","ALLEY":" ","HOUSE_NO":"２８號","E_COORD97":179897.54000000001,"N_COORD97":2579203.3399999999,"ADDRESS":"府西路２２巷２８號","OBJECTID":247632},"geometry":{"x":179897.54000000004,"y":2579203.3399999999}},{"attributes":{"ID":247637,"DIS_CODE":0,"TOWNNAME":"新營區","LI":"忠政里","LIN":"6鄰","STREET":"府西路","SECT":" ","MAREA":" ","LANE":"２２巷","ALLEY":" ","HOUSE_NO":"２９號","E_COORD97":179873.04999999999,"N_COORD97":2579214.5299999998,"ADDRESS":"府西路２２巷２９號","OBJECTID":247633},"geometry":{"x":179873.05000000075,"y":2579214.5299999993}},{"attributes":{"ID":247638,"DIS_CODE":0,"TOWNNAME":"新營區","LI":"忠政里","LIN":"6鄰","STREET":"府西路","SECT":" ","MAREA":" ","LANE":"２２巷","ALLEY":" ","HOUSE_NO":"５號","E_COORD97":179848.22,"N_COORD97":2579213.5299999998,"ADDRESS":"府西路２２巷５號","OBJECTID":247634},"geometry":{"x":179848.21999999974,"y":2579213.5300000012}},{"attributes":{"ID":247639,"DIS_CODE":0,"TOWNNAME":"新營區","LI":"忠政里","LIN":"6鄰","STREET":"府西路","SECT":" ","MAREA":" ","LANE":"２２巷","ALLEY":" ","HOUSE_NO":"３０號","E_COORD97":179904.72,"N_COORD97":2579202.2000000002,"ADDRESS":"府西路２２巷３０號","OBJECTID":247635},"geometry":{"x":179904.71999999974,"y":2579202.2000000011}},{"attributes":{"ID":247640,"DIS_CODE":0,"TOWNNAME":"新營區","LI":"忠政里","LIN":"6鄰","STREET":"府西路","SECT":" ","MAREA":" ","LANE":"２２巷","ALLEY":" ","HOUSE_NO":"３７號","E_COORD97":179890.45999999999,"N_COORD97":2579215.5499999998,"ADDRESS":"府西路２２巷３７號","OBJECTID":247636},"geometry":{"x":179890.46000000089,"y":2579215.5500000007}},{"attributes":{"ID":247641,"DIS_CODE":0,"TOWNNAME":"新營區","LI":"忠政里","LIN":"6鄰","STREET":"府西路","SECT":" ","MAREA":" ","LANE":"２２巷","ALLEY":" ","HOUSE_NO":"４３號","E_COORD97":179903.75,"N_COORD97":2579216.6000000001,"ADDRESS":"府西路２２巷４３號","OBJECTID":247637},"geometry":{"x":179903.75000000093,"y":2579216.6000000015}},{"attributes":{"ID":247642,"DIS_CODE":0,"TOWNNAME":"新營區","LI":"忠政里","LIN":"6鄰","STREET":"府西路","SECT":" ","MAREA":" ","LANE":"２２巷","ALLEY":" ","HOUSE_NO":"３９號","E_COORD97":179894.54999999999,"N_COORD97":2579215.5299999998,"ADDRESS":"府西路２２巷３９號","OBJECTID":247638},"geometry":{"x":179894.55000000075,"y":2579215.5300000031}},{"attributes":{"ID":247643,"DIS_CODE":0,"TOWNNAME":"新營區","LI":"忠政里","LIN":"6鄰","STREET":"府西路","SECT":" ","MAREA":" ","LANE":"２２巷","ALLEY":" ","HOUSE_NO":"５５號","E_COORD97":179889.45999999999,"N_COORD97":2579236.6000000001,"ADDRESS":"府西路２２巷５５號","OBJECTID":247639},"geometry":{"x":179889.45999999996,"y":2579236.6000000015}},{"attributes":{"ID":247644,"DIS_CODE":0,"TOWNNAME":"新營區","LI":"忠政里","LIN":"6鄰","STREET":"府西路","SECT":" ","MAREA":" ","LANE":"２２巷","ALLEY":" ","HOUSE_NO":"１９號","E_COORD97":179857.73999999999,"N_COORD97":2579235.6400000001,"ADDRESS":"府西路２２巷１９號","OBJECTID":247640},"geometry":{"x":179857.73999999929,"y":2579235.6400000006}},{"attributes":{"ID":247645,"DIS_CODE":0,"TOWNNAME":"新營區","LI":"忠政里","LIN":"6鄰","STREET":"府西路","SECT":" ","MAREA":" ","LANE":"２２巷","ALLEY":" ","HOUSE_NO":"２２號","E_COORD97":179884.23999999999,"N_COORD97":2579202.29,"ADDRESS":"府西路２２巷２２號","OBJECTID":247641},"geometry":{"x":179884.24000000022,"y":2579202.2899999991}},{"attributes":{"ID":247646,"DIS_CODE":0,"TOWNNAME":"新營區","LI":"忠政里","LIN":"6鄰","STREET":"府西路","SECT":" ","MAREA":" ","LANE":"２２巷","ALLEY":" ","HOUSE_NO":"２６號","E_COORD97":179893.45000000001,"N_COORD97":2579202.25,"ADDRESS":"府西路２２巷２６號","OBJECTID":247642},"geometry":{"x":179893.45000000019,"y":2579202.2500000019}},{"attributes":{"ID":247647,"DIS_CODE":0,"TOWNNAME":"歸仁區","LI":"許厝里","LIN":"34鄰","STREET":"和平南街","SECT":" ","MAREA":" ","LANE":"５５巷","ALLEY":" ","HOUSE_NO":"２２號","E_COORD97":177875.88,"N_COORD97":2540561.8199999998,"ADDRESS":"和平南街５５巷２２號","OBJECTID":247643},"geometry":{"x":177875.87999999989,"y":2540561.8200000022}},{"attributes":{"ID":247648,"DIS_CODE":0,"TOWNNAME":"歸仁區","LI":"辜厝里","LIN":"34鄰","STREET":"大吉二街","SECT":" ","MAREA":" ","LANE":"２６巷","ALLEY":" ","HOUSE_NO":"２２號","E_COORD97":177260.79000000001,"N_COORD97":2540493.6800000002,"ADDRESS":"大吉二街２６巷２２號","OBJECTID":247644},"geometry":{"x":177260.79000000097,"y":2540493.6800000016}},{"attributes":{"ID":247649,"DIS_CODE":0,"TOWNNAME":"安平區","LI":"育平里","LIN":"34鄰","STREET":"郡平路","SECT":" ","MAREA":" ","LANE":"２７４巷","ALLEY":" ","HOUSE_NO":"６之１號","E_COORD97":164439.54999999999,"N_COORD97":2543413.2799999998,"ADDRESS":"郡平路２７４巷６之１號","OBJECTID":247645},"geometry":{"x":164439.55000000075,"y":2543413.2799999993}},{"attributes":{"ID":247650,"DIS_CODE":0,"TOWNNAME":"安平區","LI":"育平里","LIN":"34鄰","STREET":"郡平路","SECT":" ","MAREA":" ","LANE":"２７４巷","ALLEY":" ","HOUSE_NO":"２號","E_COORD97":164431.60999999999,"N_COORD97":2543399.1499999999,"ADDRESS":"郡平路２７４巷２號","OBJECTID":247646},"geometry":{"x":164431.61000000127,"y":2543399.1500000004}},{"attributes":{"ID":247651,"DIS_CODE":0,"TOWNNAME":"安平區","LI":"育平里","LIN":"34鄰","STREET":"郡平路","SECT":" ","MAREA":" ","LANE":"２７４巷","ALLEY":" ","HOUSE_NO":"２之２號","E_COORD97":164445.10000000001,"N_COORD97":2543398.8300000001,"ADDRESS":"郡平路２７４巷２之２號","OBJECTID":247647},"geometry":{"x":164445.09999999963,"y":2543398.8300000019}},{"attributes":{"ID":247652,"DIS_CODE":0,"TOWNNAME":"安平區","LI":"育平里","LIN":"34鄰","STREET":"郡平路","SECT":" ","MAREA":" ","LANE":"２７４巷","ALLEY":" ","HOUSE_NO":"２之３號","E_COORD97":164450.66,"N_COORD97":2543398.2000000002,"ADDRESS":"郡平路２７４巷２之３號","OBJECTID":247648},"geometry":{"x":164450.65999999922,"y":2543398.200000003}},{"attributes":{"ID":247653,"DIS_CODE":0,"TOWNNAME":"安平區","LI":"育平里","LIN":"34鄰","STREET":"郡平路","SECT":" ","MAREA":" ","LANE":"２７４巷","ALLEY":" ","HOUSE_NO":"２之５號","E_COORD97":164457.32999999999,"N_COORD97":2543397.7200000002,"ADDRESS":"郡平路２７４巷２之５號","OBJECTID":247649},"geometry":{"x":164457.33000000007,"y":2543397.7200000025}},{"attributes":{"ID":247654,"DIS_CODE":0,"TOWNNAME":"安平區","LI":"育平里","LIN":"34鄰","STREET":"郡平路","SECT":" ","MAREA":" ","LANE":"２７４巷","ALLEY":" ","HOUSE_NO":"２之６號","E_COORD97":164461.76999999999,"N_COORD97":2543397.2400000002,"ADDRESS":"郡平路２７４巷２之６號","OBJECTID":247650},"geometry":{"x":164461.77000000048,"y":2543397.2400000021}},{"attributes":{"ID":247655,"DIS_CODE":0,"TOWNNAME":"安平區","LI":"育平里","LIN":"34鄰","STREET":"郡平路","SECT":" ","MAREA":" ","LANE":"２７４巷","ALLEY":" ","HOUSE_NO":"２之７號","E_COORD97":164467.32999999999,"N_COORD97":2543395.9700000002,"ADDRESS":"郡平路２７４巷２之７號","OBJECTID":247651},"geometry":{"x":164467.33000000007,"y":2543395.9700000025}},{"attributes":{"ID":247656,"DIS_CODE":0,"TOWNNAME":"安平區","LI":"育平里","LIN":"34鄰","STREET":"郡平路","SECT":" ","MAREA":" ","LANE":"２７４巷","ALLEY":" ","HOUSE_NO":"６之２號","E_COORD97":164446.53,"N_COORD97":2543412.4900000002,"ADDRESS":"郡平路２７４巷６之２號","OBJECTID":247652},"geometry":{"x":164446.52999999933,"y":2543412.4900000021}},{"attributes":{"ID":247657,"DIS_CODE":0,"TOWNNAME":"安平區","LI":"育平里","LIN":"34鄰","STREET":"郡平路","SECT":" ","MAREA":" ","LANE":"２７４巷","ALLEY":" ","HOUSE_NO":"６之３號","E_COORD97":164452.41,"N_COORD97":2543411.3700000001,"ADDRESS":"郡平路２７４巷６之３號","OBJECTID":247653},"geometry":{"x":164452.41000000201,"y":2543411.370000001}},{"attributes":{"ID":247658,"DIS_CODE":0,"TOWNNAME":"安平區","LI":"育平里","LIN":"14鄰","STREET":"育平路","SECT":" ","MAREA":" ","LANE":" ","ALLEY":" ","HOUSE_NO":"２１２號九樓之１２","E_COORD97":164690.60999999999,"N_COORD97":2543415.9199999999,"ADDRESS":"育平路２１２號九樓之１２","OBJECTID":247654},"geometry":{"x":164690.61000000127,"y":2543415.9200000018}},{"attributes":{"ID":247659,"DIS_CODE":0,"TOWNNAME":"安平區","LI":"育平里","LIN":"14鄰","STREET":"育平路","SECT":" ","MAREA":" ","LANE":" ","ALLEY":" ","HOUSE_NO":"２１２號九樓之１４","E_COORD97":164690.60999999999,"N_COORD97":2543415.9199999999,"ADDRESS":"育平路２１２號九樓之１４","OBJECTID":247655},"geometry":{"x":164690.61000000127,"y":2543415.9200000018}},{"attributes":{"ID":247660,"DIS_CODE":0,"TOWNNAME":"北區","LI":"正覺里","LIN":"14鄰","STREET":"西門路","SECT":"四段","MAREA":" ","LANE":" ","ALLEY":" ","HOUSE_NO":"４８２號","E_COORD97":169130.79000000001,"N_COORD97":2546320.2599999998,"ADDRESS":"西門路四段４８２號","OBJECTID":247656},"geometry":{"x":169130.79000000097,"y":2546320.2599999998}},{"attributes":{"ID":247661,"DIS_CODE":0,"TOWNNAME":"北區","LI":"長榮里","LIN":"11鄰","STREET":"長榮路","SECT":"五段","MAREA":" ","LANE":"４１巷","ALLEY":" ","HOUSE_NO":"５號","E_COORD97":170084.45999999999,"N_COORD97":2545440.8199999998,"ADDRESS":"長榮路五段４１巷５號","OBJECTID":247657},"geometry":{"x":170084.45999999996,"y":2545440.8200000022}},{"attributes":{"ID":247662,"DIS_CODE":0,"TOWNNAME":"北區","LI":"長榮里","LIN":"11鄰","STREET":"長榮路","SECT":"五段","MAREA":" ","LANE":"４１巷","ALLEY":" ","HOUSE_NO":"７號","E_COORD97":170086.84,"N_COORD97":2545426.2200000002,"ADDRESS":"長榮路五段４１巷７號","OBJECTID":247658},"geometry":{"x":170086.83999999985,"y":2545426.2200000007}},{"attributes":{"ID":247663,"DIS_CODE":0,"TOWNNAME":"南區","LI":"金華里","LIN":"11鄰","STREET":"金華路","SECT":"二段","MAREA":" ","LANE":"１４７巷","ALLEY":" ","HOUSE_NO":"４３號","E_COORD97":166886.91,"N_COORD97":2542370.6699999999,"ADDRESS":"金華路二段１４７巷４３號","OBJECTID":247659},"geometry":{"x":166886.91000000108,"y":2542370.6699999999}},{"attributes":{"ID":247664,"DIS_CODE":0,"TOWNNAME":"南區","LI":"金華里","LIN":"11鄰","STREET":"金華路","SECT":"二段","MAREA":" ","LANE":"１４７巷","ALLEY":" ","HOUSE_NO":"４５號","E_COORD97":166882.42999999999,"N_COORD97":2542370.9399999999,"ADDRESS":"金華路二段１４７巷４５號","OBJECTID":247660},"geometry":{"x":166882.4299999997,"y":2542370.9400000013}},{"attributes":{"ID":247665,"DIS_CODE":0,"TOWNNAME":"東區","LI":"東聖里","LIN":"8鄰","STREET":"富農街","SECT":"二段","MAREA":" ","LANE":"４３巷","ALLEY":" ","HOUSE_NO":"２號","E_COORD97":171608.07000000001,"N_COORD97":2542966.3799999999,"ADDRESS":"富農街二段４３巷２號","OBJECTID":247661},"geometry":{"x":171608.0700000003,"y":2542966.3800000027}},{"attributes":{"ID":247666,"DIS_CODE":0,"TOWNNAME":"東區","LI":"東聖里","LIN":"8鄰","STREET":"富農街","SECT":"二段","MAREA":" ","LANE":"４３巷","ALLEY":" ","HOUSE_NO":"３８號","E_COORD97":171572.98999999999,"N_COORD97":2542964.73,"ADDRESS":"富農街二段４３巷３８號","OBJECTID":247662},"geometry":{"x":171572.99000000022,"y":2542964.7300000004}},{"attributes":{"ID":247667,"DIS_CODE":0,"TOWNNAME":"東區","LI":"東聖里","LIN":"8鄰","STREET":"富農街","SECT":"二段","MAREA":" ","LANE":"４３巷","ALLEY":" ","HOUSE_NO":"４號","E_COORD97":171598.95999999999,"N_COORD97":2542965.2599999998,"ADDRESS":"富農街二段４３巷４號","OBJECTID":247663},"geometry":{"x":171598.96000000183,"y":2542965.2600000016}},{"attributes":{"ID":247668,"DIS_CODE":0,"TOWNNAME":"東區","LI":"東聖里","LIN":"8鄰","STREET":"富農街","SECT":"二段","MAREA":" ","LANE":"４３巷","ALLEY":" ","HOUSE_NO":"６號","E_COORD97":171590.39999999999,"N_COORD97":2542965.0800000001,"ADDRESS":"富農街二段４３巷６號","OBJECTID":247664},"geometry":{"x":171590.40000000037,"y":2542965.0800000001}},{"attributes":{"ID":247669,"DIS_CODE":0,"TOWNNAME":"東區","LI":"東聖里","LIN":"9鄰","STREET":"富農街","SECT":"二段","MAREA":" ","LANE":"４３巷","ALLEY":" ","HOUSE_NO":"２２號","E_COORD97":171609.92999999999,"N_COORD97":2542993.71,"ADDRESS":"富農街二段４３巷２２號","OBJECTID":247665},"geometry":{"x":171609.9299999997,"y":2542993.7100000028}},{"attributes":{"ID":247670,"DIS_CODE":0,"TOWNNAME":"東區","LI":"東聖里","LIN":"9鄰","STREET":"富農街","SECT":"二段","MAREA":" ","LANE":"４３巷","ALLEY":" ","HOUSE_NO":"２４號","E_COORD97":171605.10000000001,"N_COORD97":2542990.73,"ADDRESS":"富農街二段４３巷２４號","OBJECTID":247666},"geometry":{"x":171605.10000000056,"y":2542990.7300000023}},{"attributes":{"ID":247671,"DIS_CODE":0,"TOWNNAME":"東區","LI":"東聖里","LIN":"9鄰","STREET":"富農街","SECT":"二段","MAREA":" ","LANE":"４３巷","ALLEY":" ","HOUSE_NO":"２６號","E_COORD97":171598.59,"N_COORD97":2542992.96,"ADDRESS":"富農街二段４３巷２６號","OBJECTID":247667},"geometry":{"x":171598.59000000078,"y":2542992.9600000028}},{"attributes":{"ID":247672,"DIS_CODE":0,"TOWNNAME":"東區","LI":"東聖里","LIN":"9鄰","STREET":"富農街","SECT":"二段","MAREA":" ","LANE":"４３巷","ALLEY":" ","HOUSE_NO":"２８號","E_COORD97":171592.82000000001,"N_COORD97":2542991.48,"ADDRESS":"富農街二段４３巷２８號","OBJECTID":247668},"geometry":{"x":171592.8200000003,"y":2542991.4800000023}},{"attributes":{"ID":247673,"DIS_CODE":0,"TOWNNAME":"安平區","LI":"育平里","LIN":"14鄰","STREET":"育平路","SECT":" ","MAREA":" ","LANE":" ","ALLEY":" ","HOUSE_NO":"２１２號九樓之１６","E_COORD97":164690.60999999999,"N_COORD97":2543415.9199999999,"ADDRESS":"育平路２１２號九樓之１６","OBJECTID":247669},"geometry":{"x":164690.61000000127,"y":2543415.9200000018}},{"attributes":{"ID":247674,"DIS_CODE":0,"TOWNNAME":"安平區","LI":"育平里","LIN":"14鄰","STREET":"育平路","SECT":" ","MAREA":" ","LANE":" ","ALLEY":" ","HOUSE_NO":"２１２號九樓之１８","E_COORD97":164690.60999999999,"N_COORD97":2543415.9199999999,"ADDRESS":"育平路２１２號九樓之１８","OBJECTID":247670},"geometry":{"x":164690.61000000127,"y":2543415.9200000018}},{"attributes":{"ID":247675,"DIS_CODE":0,"TOWNNAME":"安平區","LI":"育平里","LIN":"14鄰","STREET":"育平路","SECT":" ","MAREA":" ","LANE":" ","ALLEY":" ","HOUSE_NO":"２１２號九樓之２０","E_COORD97":164690.60999999999,"N_COORD97":2543415.9199999999,"ADDRESS":"育平路２１２號九樓之２０","OBJECTID":247671},"geometry":{"x":164690.61000000127,"y":2543415.9200000018}},{"attributes":{"ID":247676,"DIS_CODE":0,"TOWNNAME":"安平區","LI":"育平里","LIN":"14鄰","STREET":"育平路","SECT":" ","MAREA":" ","LANE":" ","ALLEY":" ","HOUSE_NO":"２１２號九樓之２２","E_COORD97":164690.60999999999,"N_COORD97":2543415.9199999999,"ADDRESS":"育平路２１２號九樓之２２","OBJECTID":247672},"geometry":{"x":164690.61000000127,"y":2543415.9200000018}},{"attributes":{"ID":247677,"DIS_CODE":0,"TOWNNAME":"安平區","LI":"育平里","LIN":"14鄰","STREET":"育平路","SECT":" ","MAREA":" ","LANE":" ","ALLEY":" ","HOUSE_NO":"２１２號八樓之１２","E_COORD97":164690.60999999999,"N_COORD97":2543415.9199999999,"ADDRESS":"育平路２１２號八樓之１２","OBJECTID":247673},"geometry":{"x":164690.61000000127,"y":2543415.9200000018}},{"attributes":{"ID":247678,"DIS_CODE":0,"TOWNNAME":"安平區","LI":"育平里","LIN":"14鄰","STREET":"育平路","SECT":" ","MAREA":" ","LANE":" ","ALLEY":" ","HOUSE_NO":"２１２號八樓之１４","E_COORD97":164690.60999999999,"N_COORD97":2543415.9199999999,"ADDRESS":"育平路２１２號八樓之１４","OBJECTID":247674},"geometry":{"x":164690.61000000127,"y":2543415.9200000018}},{"attributes":{"ID":247679,"DIS_CODE":0,"TOWNNAME":"安平區","LI":"育平里","LIN":"14鄰","STREET":"育平路","SECT":" ","MAREA":" ","LANE":" ","ALLEY":" ","HOUSE_NO":"２１２號八樓之１６","E_COORD97":164690.60999999999,"N_COORD97":2543415.9199999999,"ADDRESS":"育平路２１２號八樓之１６","OBJECTID":247675},"geometry":{"x":164690.61000000127,"y":2543415.9200000018}},{"attributes":{"ID":247680,"DIS_CODE":0,"TOWNNAME":"安平區","LI":"育平里","LIN":"14鄰","STREET":"育平路","SECT":" ","MAREA":" ","LANE":" ","ALLEY":" ","HOUSE_NO":"２１２號八樓之１８","E_COORD97":164690.60999999999,"N_COORD97":2543415.9199999999,"ADDRESS":"育平路２１２號八樓之１８","OBJECTID":247676},"geometry":{"x":164690.61000000127,"y":2543415.9200000018}},{"attributes":{"ID":247681,"DIS_CODE":0,"TOWNNAME":"安平區","LI":"育平里","LIN":"14鄰","STREET":"育平路","SECT":" ","MAREA":" ","LANE":" ","ALLEY":" ","HOUSE_NO":"２１２號八樓之２０","E_COORD97":164690.60999999999,"N_COORD97":2543415.9199999999,"ADDRESS":"育平路２１２號八樓之２０","OBJECTID":247677},"geometry":{"x":164690.61000000127,"y":2543415.9200000018}},{"attributes":{"ID":247682,"DIS_CODE":0,"TOWNNAME":"安平區","LI":"育平里","LIN":"14鄰","STREET":"育平路","SECT":" ","MAREA":" ","LANE":" ","ALLEY":" ","HOUSE_NO":"２１２號八樓之２２","E_COORD97":164690.60999999999,"N_COORD97":2543415.9199999999,"ADDRESS":"育平路２１２號八樓之２２","OBJECTID":247678},"geometry":{"x":164690.61000000127,"y":2543415.9200000018}},{"attributes":{"ID":247683,"DIS_CODE":0,"TOWNNAME":"新營區","LI":"興安里","LIN":"11鄰","STREET":"新進路","SECT":" ","MAREA":" ","LANE":"３４５巷","ALLEY":" ","HOUSE_NO":"２號","E_COORD97":179865.79000000001,"N_COORD97":2577731.6800000002,"ADDRESS":"新進路３４５巷２號","OBJECTID":247679},"geometry":{"x":179865.7900000019,"y":2577731.6799999997}},{"attributes":{"ID":247684,"DIS_CODE":0,"TOWNNAME":"東區","LI":"東聖里","LIN":"10鄰","STREET":"中華東路","SECT":"二段","MAREA":" ","LANE":"１３３巷","ALLEY":" ","HOUSE_NO":"６１號","E_COORD97":171556.72,"N_COORD97":2542834.6499999999,"ADDRESS":"中華東路二段１３３巷６１號","OBJECTID":247680},"geometry":{"x":171556.72000000067,"y":2542834.6500000022}},{"attributes":{"ID":247685,"DIS_CODE":0,"TOWNNAME":"東區","LI":"東聖里","LIN":"10鄰","STREET":"中華東路","SECT":"二段","MAREA":" ","LANE":"１３３巷","ALLEY":" ","HOUSE_NO":"６７號","E_COORD97":171568.28,"N_COORD97":2542832.23,"ADDRESS":"中華東路二段１３３巷６７號","OBJECTID":247681},"geometry":{"x":171568.28000000212,"y":2542832.2300000004}},{"attributes":{"ID":247686,"DIS_CODE":0,"TOWNNAME":"東區","LI":"東聖里","LIN":"10鄰","STREET":"中華東路","SECT":"二段","MAREA":" ","LANE":"１３３巷","ALLEY":" ","HOUSE_NO":"７１號","E_COORD97":171576.91,"N_COORD97":2542830.6299999999,"ADDRESS":"中華東路二段１３３巷７１號","OBJECTID":247682},"geometry":{"x":171576.91000000015,"y":2542830.629999999}},{"attributes":{"ID":247687,"DIS_CODE":0,"TOWNNAME":"東區","LI":"東聖里","LIN":"10鄰","STREET":"中華東路","SECT":"二段","MAREA":" ","LANE":"１３３巷","ALLEY":" ","HOUSE_NO":"７５號","E_COORD97":171585.12,"N_COORD97":2542831.6400000001,"ADDRESS":"中華東路二段１３３巷７５號","OBJECTID":247683},"geometry":{"x":171585.12000000104,"y":2542831.6400000025}},{"attributes":{"ID":247688,"DIS_CODE":0,"TOWNNAME":"東區","LI":"東聖里","LIN":"9鄰","STREET":"富農街","SECT":"二段","MAREA":" ","LANE":"４３巷","ALLEY":" ","HOUSE_NO":"３２號","E_COORD97":171571.23000000001,"N_COORD97":2542992.2200000002,"ADDRESS":"富農街二段４３巷３２號","OBJECTID":247684},"geometry":{"x":171571.23000000138,"y":2542992.2200000007}},{"attributes":{"ID":247689,"DIS_CODE":0,"TOWNNAME":"新營區","LI":"嘉芳里","LIN":"11鄰","STREET":"復興路","SECT":" ","MAREA":" ","LANE":"８０３巷","ALLEY":" ","HOUSE_NO":"８號","E_COORD97":177106.89999999999,"N_COORD97":2578545.6899999999,"ADDRESS":"復興路８０３巷８號","OBJECTID":247685},"geometry":{"x":177106.90000000037,"y":2578545.6899999995}},{"attributes":{"ID":247690,"DIS_CODE":0,"TOWNNAME":"新營區","LI":"南興里","LIN":"11鄰","STREET":"和平路","SECT":" ","MAREA":" ","LANE":"１０２巷","ALLEY":" ","HOUSE_NO":"２７號","E_COORD97":179324.25,"N_COORD97":2577593.6200000001,"ADDRESS":"和平路１０２巷２７號","OBJECTID":247686},"geometry":{"x":179324.25000000093,"y":2577593.6200000029}},{"attributes":{"ID":247691,"DIS_CODE":0,"TOWNNAME":"安平區","LI":"育平里","LIN":"34鄰","STREET":"郡平路","SECT":" ","MAREA":" ","LANE":"２７４巷","ALLEY":" ","HOUSE_NO":"６之５號","E_COORD97":164458.28,"N_COORD97":2543410.7400000002,"ADDRESS":"郡平路２７４巷６之５號","OBJECTID":247687},"geometry":{"x":164458.28000000026,"y":2543410.7400000021}},{"attributes":{"ID":247692,"DIS_CODE":0,"TOWNNAME":"安平區","LI":"育平里","LIN":"34鄰","STREET":"郡平路","SECT":" ","MAREA":" ","LANE":"２７４巷","ALLEY":" ","HOUSE_NO":"６之６號","E_COORD97":164463.84,"N_COORD97":2543410.2599999998,"ADDRESS":"郡平路２７４巷６之６號","OBJECTID":247688},"geometry":{"x":164463.83999999985,"y":2543410.2600000016}},{"attributes":{"ID":247693,"DIS_CODE":0,"TOWNNAME":"安平區","LI":"育平里","LIN":"34鄰","STREET":"郡平路","SECT":" ","MAREA":" ","LANE":"２７４巷","ALLEY":" ","HOUSE_NO":"６之７號","E_COORD97":164469.23000000001,"N_COORD97":2543409.1499999999,"ADDRESS":"郡平路２７４巷６之７號","OBJECTID":247689},"geometry":{"x":164469.23000000231,"y":2543409.1500000004}},{"attributes":{"ID":247694,"DIS_CODE":0,"TOWNNAME":"安平區","LI":"育平里","LIN":"34鄰","STREET":"郡平路","SECT":" ","MAREA":" ","LANE":"２７４巷","ALLEY":" ","HOUSE_NO":"３０號","E_COORD97":164444.51999999999,"N_COORD97":2543506.6499999999,"ADDRESS":"郡平路２７４巷３０號","OBJECTID":247690},"geometry":{"x":164444.52000000048,"y":2543506.6500000004}},{"attributes":{"ID":247695,"DIS_CODE":0,"TOWNNAME":"北區","LI":"成德里","LIN":"34鄰","STREET":"育德路","SECT":" ","MAREA":" ","LANE":"４２３巷","ALLEY":" ","HOUSE_NO":"１５號","E_COORD97":168606.29999999999,"N_COORD97":2545999.9100000001,"ADDRESS":"育德路４２３巷１５號","OBJECTID":247691},"geometry":{"x":168606.30000000075,"y":2545999.910000002}},{"attributes":{"ID":247696,"DIS_CODE":0,"TOWNNAME":"北區","LI":"成德里","LIN":"34鄰","STREET":"育德路","SECT":" ","MAREA":" ","LANE":"４２３巷","ALLEY":" ","HOUSE_NO":"３號","E_COORD97":168642.98000000001,"N_COORD97":2545998.96,"ADDRESS":"育德路４２３巷３號","OBJECTID":247692},"geometry":{"x":168642.98000000138,"y":2545998.9600000028}},{"attributes":{"ID":247697,"DIS_CODE":0,"TOWNNAME":"北區","LI":"成德里","LIN":"34鄰","STREET":"育德路","SECT":" ","MAREA":" ","LANE":"４２３巷","ALLEY":" ","HOUSE_NO":"５號","E_COORD97":168637.42000000001,"N_COORD97":2545999.2799999998,"ADDRESS":"育德路４２３巷５號","OBJECTID":247693},"geometry":{"x":168637.41999999993,"y":2545999.2800000012}},{"attributes":{"ID":247698,"DIS_CODE":0,"TOWNNAME":"北區","LI":"成德里","LIN":"34鄰","STREET":"育德路","SECT":" ","MAREA":" ","LANE":"４２３巷","ALLEY":" ","HOUSE_NO":"６號","E_COORD97":168644.41,"N_COORD97":2546011.6600000001,"ADDRESS":"育德路４２３巷６號","OBJECTID":247694},"geometry":{"x":168644.41000000015,"y":2546011.660000002}},{"attributes":{"ID":247699,"DIS_CODE":0,"TOWNNAME":"北區","LI":"成德里","LIN":"34鄰","STREET":"育德路","SECT":" ","MAREA":" ","LANE":"４２３巷","ALLEY":" ","HOUSE_NO":"７號","E_COORD97":168632.66,"N_COORD97":2545999.4399999999,"ADDRESS":"育德路４２３巷７號","OBJECTID":247695},"geometry":{"x":168632.65999999922,"y":2545999.4399999995}},{"attributes":{"ID":247700,"DIS_CODE":0,"TOWNNAME":"北區","LI":"成德里","LIN":"34鄰","STREET":"育德路","SECT":" ","MAREA":" ","LANE":"４２３巷","ALLEY":" ","HOUSE_NO":"８號","E_COORD97":168639.48000000001,"N_COORD97":2546011.8199999998,"ADDRESS":"育德路４２３巷８號","OBJECTID":247696},"geometry":{"x":168639.48000000231,"y":2546011.8200000003}},{"attributes":{"ID":247701,"DIS_CODE":0,"TOWNNAME":"北區","LI":"成德里","LIN":"34鄰","STREET":"育德路","SECT":" ","MAREA":" ","LANE":"４２３巷","ALLEY":" ","HOUSE_NO":"９號","E_COORD97":168627.57999999999,"N_COORD97":2545999.4399999999,"ADDRESS":"育德路４２３巷９號","OBJECTID":247697},"geometry":{"x":168627.58000000007,"y":2545999.4399999995}},{"attributes":{"ID":247702,"DIS_CODE":0,"TOWNNAME":"安平區","LI":"育平里","LIN":"14鄰","STREET":"育平路","SECT":" ","MAREA":" ","LANE":" ","ALLEY":" ","HOUSE_NO":"２１２號十一樓之１２","E_COORD97":164690.60999999999,"N_COORD97":2543415.9199999999,"ADDRESS":"育平路２１２號十一樓之１２","OBJECTID":247698},"geometry":{"x":164690.61000000127,"y":2543415.9200000018}},{"attributes":{"ID":247703,"DIS_CODE":0,"TOWNNAME":"安平區","LI":"育平里","LIN":"14鄰","STREET":"育平路","SECT":" ","MAREA":" ","LANE":" ","ALLEY":" ","HOUSE_NO":"２１２號十一樓之１４","E_COORD97":164690.60999999999,"N_COORD97":2543415.9199999999,"ADDRESS":"育平路２１２號十一樓之１４","OBJECTID":247699},"geometry":{"x":164690.61000000127,"y":2543415.9200000018}},{"attributes":{"ID":247704,"DIS_CODE":0,"TOWNNAME":"安平區","LI":"育平里","LIN":"14鄰","STREET":"育平路","SECT":" ","MAREA":" ","LANE":" ","ALLEY":" ","HOUSE_NO":"２１２號十一樓之１６","E_COORD97":164690.60999999999,"N_COORD97":2543415.9199999999,"ADDRESS":"育平路２１２號十一樓之１６","OBJECTID":247700},"geometry":{"x":164690.61000000127,"y":2543415.9200000018}},{"attributes":{"ID":247705,"DIS_CODE":0,"TOWNNAME":"安平區","LI":"育平里","LIN":"14鄰","STREET":"育平路","SECT":" ","MAREA":" ","LANE":" ","ALLEY":" ","HOUSE_NO":"２１２號十一樓之１８","E_COORD97":164690.60999999999,"N_COORD97":2543415.9199999999,"ADDRESS":"育平路２１２號十一樓之１８","OBJECTID":247701},"geometry":{"x":164690.61000000127,"y":2543415.9200000018}},{"attributes":{"ID":247706,"DIS_CODE":0,"TOWNNAME":"安平區","LI":"育平里","LIN":"14鄰","STREET":"育平路","SECT":" ","MAREA":" ","LANE":" ","ALLEY":" ","HOUSE_NO":"２１２號十一樓之２０","E_COORD97":164690.60999999999,"N_COORD97":2543415.9199999999,"ADDRESS":"育平路２１２號十一樓之２０","OBJECTID":247702},"geometry":{"x":164690.61000000127,"y":2543415.9200000018}},{"attributes":{"ID":247707,"DIS_CODE":0,"TOWNNAME":"安平區","LI":"育平里","LIN":"14鄰","STREET":"育平路","SECT":" ","MAREA":" ","LANE":" ","ALLEY":" ","HOUSE_NO":"２１２號十一樓之２２","E_COORD97":164690.60999999999,"N_COORD97":2543415.9199999999,"ADDRESS":"育平路２１２號十一樓之２２","OBJECTID":247703},"geometry":{"x":164690.61000000127,"y":2543415.9200000018}},{"attributes":{"ID":247708,"DIS_CODE":0,"TOWNNAME":"安平區","LI":"育平里","LIN":"14鄰","STREET":"育平路","SECT":" ","MAREA":" ","LANE":" ","ALLEY":" ","HOUSE_NO":"２１２號十七樓之１２","E_COORD97":164690.60999999999,"N_COORD97":2543415.9199999999,"ADDRESS":"育平路２１２號十七樓之１２","OBJECTID":247704},"geometry":{"x":164690.61000000127,"y":2543415.9200000018}},{"attributes":{"ID":247709,"DIS_CODE":0,"TOWNNAME":"北區","LI":"大仁里","LIN":"11鄰","STREET":"北門路","SECT":"二段","MAREA":" ","LANE":"２１７巷","ALLEY":" ","HOUSE_NO":"１１號","E_COORD97":169452.60999999999,"N_COORD97":2545272.0600000001,"ADDRESS":"北門路二段２１７巷１１號","OBJECTID":247705},"geometry":{"x":169452.61000000127,"y":2545272.0600000042}},{"attributes":{"ID":247710,"DIS_CODE":0,"TOWNNAME":"北區","LI":"大仁里","LIN":"11鄰","STREET":"北門路","SECT":"二段","MAREA":" ","LANE":"２１７巷","ALLEY":" ","HOUSE_NO":"１３號","E_COORD97":169446.73000000001,"N_COORD97":2545272.7000000002,"ADDRESS":"北門路二段２１７巷１３號","OBJECTID":247706},"geometry":{"x":169446.73000000138,"y":2545272.6999999993}},{"attributes":{"ID":247711,"DIS_CODE":0,"TOWNNAME":"北區","LI":"東興里","LIN":"11鄰","STREET":"小東路","SECT":" ","MAREA":" ","LANE":"４０１巷","ALLEY":" ","HOUSE_NO":"４７號","E_COORD97":171301.34,"N_COORD97":2544458.5899999999,"ADDRESS":"小東路４０１巷４７號","OBJECTID":247707},"geometry":{"x":171301.34000000078,"y":2544458.5900000017}},{"attributes":{"ID":247712,"DIS_CODE":0,"TOWNNAME":"北區","LI":"東興里","LIN":"11鄰","STREET":"小東路","SECT":" ","MAREA":" ","LANE":"４０１巷","ALLEY":" ","HOUSE_NO":"４８號","E_COORD97":171301.73000000001,"N_COORD97":2544461.3199999998,"ADDRESS":"小東路４０１巷４８號","OBJECTID":247708},"geometry":{"x":171301.73000000045,"y":2544461.3200000022}},{"attributes":{"ID":247713,"DIS_CODE":0,"TOWNNAME":"北區","LI":"東興里","LIN":"11鄰","STREET":"小東路","SECT":" ","MAREA":" ","LANE":"４０１巷","ALLEY":" ","HOUSE_NO":"４９號","E_COORD97":171302.01999999999,"N_COORD97":2544464.4300000002,"ADDRESS":"小東路４０１巷４９號","OBJECTID":247709},"geometry":{"x":171302.02000000048,"y":2544464.4299999997}},{"attributes":{"ID":247714,"DIS_CODE":0,"TOWNNAME":"北區","LI":"東興里","LIN":"11鄰","STREET":"小東路","SECT":" ","MAREA":" ","LANE":"４０１巷","ALLEY":" ","HOUSE_NO":"５０號","E_COORD97":171302.51000000001,"N_COORD97":2544467.9300000002,"ADDRESS":"小東路４０１巷５０號","OBJECTID":247710},"geometry":{"x":171302.50999999978,"y":2544467.9299999997}},{"attributes":{"ID":247715,"DIS_CODE":0,"TOWNNAME":"北區","LI":"玉皇里","LIN":"11鄰","STREET":"佑民街","SECT":" ","MAREA":" ","LANE":"４２巷","ALLEY":" ","HOUSE_NO":"５號","E_COORD97":168645.85999999999,"N_COORD97":2544424.6899999999,"ADDRESS":"佑民街４２巷５號","OBJECTID":247711},"geometry":{"x":168645.86000000127,"y":2544424.6899999995}},{"attributes":{"ID":247716,"DIS_CODE":0,"TOWNNAME":"北區","LI":"玉皇里","LIN":"11鄰","STREET":"佑民街","SECT":" ","MAREA":" ","LANE":"４２巷","ALLEY":" ","HOUSE_NO":"１１號","E_COORD97":168668.84,"N_COORD97":2544444.25,"ADDRESS":"佑民街４２巷１１號","OBJECTID":247712},"geometry":{"x":168668.84000000078,"y":2544444.2500000019}},{"attributes":{"ID":247717,"DIS_CODE":0,"TOWNNAME":"北區","LI":"玉皇里","LIN":"11鄰","STREET":"佑民街","SECT":" ","MAREA":" ","LANE":"４２巷","ALLEY":" ","HOUSE_NO":"１３號","E_COORD97":168669.89000000001,"N_COORD97":2544440.9399999999,"ADDRESS":"佑民街４２巷１３號","OBJECTID":247713},"geometry":{"x":168669.8900000006,"y":2544440.9399999976}},{"attributes":{"ID":247718,"DIS_CODE":0,"TOWNNAME":"北區","LI":"玉皇里","LIN":"11鄰","STREET":"佑民街","SECT":" ","MAREA":" ","LANE":"４２巷","ALLEY":" ","HOUSE_NO":"１５號","E_COORD97":168671.37,"N_COORD97":2544437.7999999998,"ADDRESS":"佑民街４２巷１５號","OBJECTID":247714},"geometry":{"x":168671.37000000011,"y":2544437.8000000026}},{"attributes":{"ID":247719,"DIS_CODE":0,"TOWNNAME":"北區","LI":"玉皇里","LIN":"11鄰","STREET":"佑民街","SECT":" ","MAREA":" ","LANE":"４２巷","ALLEY":" ","HOUSE_NO":"１７號","E_COORD97":168676.60999999999,"N_COORD97":2544439.3399999999,"ADDRESS":"佑民街４２巷１７號","OBJECTID":247715},"geometry":{"x":168676.61000000034,"y":2544439.3400000017}},{"attributes":{"ID":247720,"DIS_CODE":0,"TOWNNAME":"北區","LI":"成德里","LIN":"34鄰","STREET":"育德路","SECT":" ","MAREA":" ","LANE":"４２３巷","ALLEY":" ","HOUSE_NO":"１１號","E_COORD97":168621.85999999999,"N_COORD97":2545999.5899999999,"ADDRESS":"育德路４２３巷１１號","OBJECTID":247716},"geometry":{"x":168621.86000000127,"y":2545999.5899999999}},{"attributes":{"ID":247721,"DIS_CODE":0,"TOWNNAME":"北區","LI":"成德里","LIN":"34鄰","STREET":"育德路","SECT":" ","MAREA":" ","LANE":"４２３巷","ALLEY":" ","HOUSE_NO":"１３號","E_COORD97":168614.07999999999,"N_COORD97":2546000.0699999998,"ADDRESS":"育德路４２３巷１３號","OBJECTID":247717},"geometry":{"x":168614.08000000007,"y":2546000.0700000003}},{"attributes":{"ID":247722,"DIS_CODE":0,"TOWNNAME":"北區","LI":"成德里","LIN":"34鄰","STREET":"育德路","SECT":" ","MAREA":" ","LANE":"４２３巷","ALLEY":" ","HOUSE_NO":"２０號","E_COORD97":168606.29999999999,"N_COORD97":2546012.4500000002,"ADDRESS":"育德路４２３巷２０號","OBJECTID":247718},"geometry":{"x":168606.30000000075,"y":2546012.4499999993}},{"attributes":{"ID":247723,"DIS_CODE":0,"TOWNNAME":"北區","LI":"成德里","LIN":"34鄰","STREET":"育德路","SECT":" ","MAREA":" ","LANE":"４２３巷","ALLEY":" ","HOUSE_NO":"１８號","E_COORD97":168616.31,"N_COORD97":2546012.29,"ADDRESS":"育德路４２３巷１８號","OBJECTID":247719},"geometry":{"x":168616.31000000052,"y":2546012.290000001}},{"attributes":{"ID":247724,"DIS_CODE":0,"TOWNNAME":"安平區","LI":"育平里","LIN":"14鄰","STREET":"育平路","SECT":" ","MAREA":" ","LANE":" ","ALLEY":" ","HOUSE_NO":"２１２號十七樓之１４","E_COORD97":164690.60999999999,"N_COORD97":2543415.9199999999,"ADDRESS":"育平路２１２號十七樓之１４","OBJECTID":247720},"geometry":{"x":164690.61000000127,"y":2543415.9200000018}},{"attributes":{"ID":247725,"DIS_CODE":0,"TOWNNAME":"安平區","LI":"育平里","LIN":"14鄰","STREET":"育平路","SECT":" ","MAREA":" ","LANE":" ","ALLEY":" ","HOUSE_NO":"２１２號十七樓之１６","E_COORD97":164690.60999999999,"N_COORD97":2543415.9199999999,"ADDRESS":"育平路２１２號十七樓之１６","OBJECTID":247721},"geometry":{"x":164690.61000000127,"y":2543415.9200000018}},{"attributes":{"ID":247726,"DIS_CODE":0,"TOWNNAME":"安平區","LI":"育平里","LIN":"14鄰","STREET":"育平路","SECT":" ","MAREA":" ","LANE":" ","ALLEY":" ","HOUSE_NO":"２１２號十七樓之１８","E_COORD97":164690.60999999999,"N_COORD97":2543415.9199999999,"ADDRESS":"育平路２１２號十七樓之１８","OBJECTID":247722},"geometry":{"x":164690.61000000127,"y":2543415.9200000018}},{"attributes":{"ID":247727,"DIS_CODE":0,"TOWNNAME":"安平區","LI":"育平里","LIN":"14鄰","STREET":"育平路","SECT":" ","MAREA":" ","LANE":" ","ALLEY":" ","HOUSE_NO":"２１２號十七樓之２０","E_COORD97":164690.60999999999,"N_COORD97":2543415.9199999999,"ADDRESS":"育平路２１２號十七樓之２０","OBJECTID":247723},"geometry":{"x":164690.61000000127,"y":2543415.9200000018}},{"attributes":{"ID":247728,"DIS_CODE":0,"TOWNNAME":"安平區","LI":"育平里","LIN":"14鄰","STREET":"育平路","SECT":" ","MAREA":" ","LANE":" ","ALLEY":" ","HOUSE_NO":"２１２號十七樓之２２","E_COORD97":164690.60999999999,"N_COORD97":2543415.9199999999,"ADDRESS":"育平路２１２號十七樓之２２","OBJECTID":247724},"geometry":{"x":164690.61000000127,"y":2543415.9200000018}},{"attributes":{"ID":247729,"DIS_CODE":0,"TOWNNAME":"安平區","LI":"育平里","LIN":"14鄰","STREET":"育平路","SECT":" ","MAREA":" ","LANE":" ","ALLEY":" ","HOUSE_NO":"２１２號十二樓之１２","E_COORD97":164690.60999999999,"N_COORD97":2543415.9199999999,"ADDRESS":"育平路２１２號十二樓之１２","OBJECTID":247725},"geometry":{"x":164690.61000000127,"y":2543415.9200000018}},{"attributes":{"ID":247730,"DIS_CODE":0,"TOWNNAME":"安平區","LI":"育平里","LIN":"14鄰","STREET":"育平路","SECT":" ","MAREA":" ","LANE":" ","ALLEY":" ","HOUSE_NO":"２１２號十二樓之１４","E_COORD97":164690.60999999999,"N_COORD97":2543415.9199999999,"ADDRESS":"育平路２１２號十二樓之１４","OBJECTID":247726},"geometry":{"x":164690.61000000127,"y":2543415.9200000018}},{"attributes":{"ID":247731,"DIS_CODE":0,"TOWNNAME":"安平區","LI":"育平里","LIN":"14鄰","STREET":"育平路","SECT":" ","MAREA":" ","LANE":" ","ALLEY":" ","HOUSE_NO":"２１２號十二樓之１６","E_COORD97":164690.60999999999,"N_COORD97":2543415.9199999999,"ADDRESS":"育平路２１２號十二樓之１６","OBJECTID":247727},"geometry":{"x":164690.61000000127,"y":2543415.9200000018}},{"attributes":{"ID":247732,"DIS_CODE":0,"TOWNNAME":"安平區","LI":"育平里","LIN":"14鄰","STREET":"育平路","SECT":" ","MAREA":" ","LANE":" ","ALLEY":" ","HOUSE_NO":"２１２號十二樓之１８","E_COORD97":164690.60999999999,"N_COORD97":2543415.9199999999,"ADDRESS":"育平路２１２號十二樓之１８","OBJECTID":247728},"geometry":{"x":164690.61000000127,"y":2543415.9200000018}},{"attributes":{"ID":247733,"DIS_CODE":0,"TOWNNAME":"北區","LI":"玉皇里","LIN":"11鄰","STREET":"佑民街","SECT":" ","MAREA":" ","LANE":" ","ALLEY":" ","HOUSE_NO":"５０號","E_COORD97":168642.64000000001,"N_COORD97":2544456.48,"ADDRESS":"佑民街５０號","OBJECTID":247729},"geometry":{"x":168642.64000000153,"y":2544456.4800000023}},{"attributes":{"ID":247734,"DIS_CODE":0,"TOWNNAME":"安平區","LI":"平安里","LIN":"11鄰","STREET":"安平路","SECT":" ","MAREA":" ","LANE":"５００巷","ALLEY":" ","HOUSE_NO":"１９號","E_COORD97":165148.87,"N_COORD97":2544427.9500000002,"ADDRESS":"安平路５００巷１９號","OBJECTID":247730},"geometry":{"x":165148.87000000011,"y":2544427.9500000011}},{"attributes":{"ID":247735,"DIS_CODE":0,"TOWNNAME":"安平區","LI":"平安里","LIN":"11鄰","STREET":"安平路","SECT":" ","MAREA":" ","LANE":"５００巷","ALLEY":" ","HOUSE_NO":"２１號","E_COORD97":165149.76999999999,"N_COORD97":2544433.5899999999,"ADDRESS":"安平路５００巷２１號","OBJECTID":247731},"geometry":{"x":165149.77000000048,"y":2544433.5900000036}},{"attributes":{"ID":247736,"DIS_CODE":0,"TOWNNAME":"東區","LI":"東聖里","LIN":"13鄰","STREET":"中華東路","SECT":"二段","MAREA":" ","LANE":"４１巷","ALLEY":" ","HOUSE_NO":"１７號","E_COORD97":171494.12,"N_COORD97":2543111.3399999999,"ADDRESS":"中華東路二段４１巷１７號","OBJECTID":247732},"geometry":{"x":171494.12000000011,"y":2543111.3400000017}},{"attributes":{"ID":247737,"DIS_CODE":0,"TOWNNAME":"東區","LI":"東聖里","LIN":"13鄰","STREET":"中華東路","SECT":"二段","MAREA":" ","LANE":"４１巷","ALLEY":" ","HOUSE_NO":"１９號","E_COORD97":171498.47,"N_COORD97":2543113.3700000001,"ADDRESS":"中華東路二段４１巷１９號","OBJECTID":247733},"geometry":{"x":171498.4700000016,"y":2543113.370000001}},{"attributes":{"ID":247738,"DIS_CODE":0,"TOWNNAME":"東區","LI":"東聖里","LIN":"13鄰","STREET":"中華東路","SECT":"二段","MAREA":" ","LANE":"４１巷","ALLEY":" ","HOUSE_NO":"２１號","E_COORD97":171503.23000000001,"N_COORD97":2543111.2000000002,"ADDRESS":"中華東路二段４１巷２１號","OBJECTID":247734},"geometry":{"x":171503.23000000138,"y":2543111.2000000011}},{"attributes":{"ID":247739,"DIS_CODE":0,"TOWNNAME":"東區","LI":"東聖里","LIN":"13鄰","STREET":"中華東路","SECT":"二段","MAREA":" ","LANE":"４１巷","ALLEY":" ","HOUSE_NO":"２５號","E_COORD97":171512.89000000001,"N_COORD97":2543112.1499999999,"ADDRESS":"中華東路二段４１巷２５號","OBJECTID":247735},"geometry":{"x":171512.8900000006,"y":2543112.1500000022}},{"attributes":{"ID":247740,"DIS_CODE":0,"TOWNNAME":"東區","LI":"東聖里","LIN":"13鄰","STREET":"中華東路","SECT":"二段","MAREA":" ","LANE":"４１巷","ALLEY":" ","HOUSE_NO":"２９號","E_COORD97":171526.35000000001,"N_COORD97":2543109.8399999999,"ADDRESS":"中華東路二段４１巷２９號","OBJECTID":247736},"geometry":{"x":171526.35000000149,"y":2543109.8400000036}},{"attributes":{"ID":247741,"DIS_CODE":0,"TOWNNAME":"東區","LI":"東聖里","LIN":"13鄰","STREET":"中華東路","SECT":"二段","MAREA":" ","LANE":"４１巷","ALLEY":" ","HOUSE_NO":"３１號","E_COORD97":171532.60000000001,"N_COORD97":2543109.71,"ADDRESS":"中華東路二段４１巷３１號","OBJECTID":247737},"geometry":{"x":171532.59999999963,"y":2543109.7100000028}},{"attributes":{"ID":247742,"DIS_CODE":0,"TOWNNAME":"南化區","LI":"西埔里","LIN":"11鄰","STREET":" ","SECT":" ","MAREA":"西埔","LANE":" ","ALLEY":" ","HOUSE_NO":"１１６號","E_COORD97":193281.69,"N_COORD97":2549583.75,"ADDRESS":"西埔１１６號","OBJECTID":247738},"geometry":{"x":193281.69000000134,"y":2549583.7500000019}},{"attributes":{"ID":247743,"DIS_CODE":0,"TOWNNAME":"東區","LI":"東聖里","LIN":"13鄰","STREET":"中華東路","SECT":"二段","MAREA":" ","LANE":"４１巷","ALLEY":" ","HOUSE_NO":"３５號","E_COORD97":171546.75,"N_COORD97":2543110.6600000001,"ADDRESS":"中華東路二段４１巷３５號","OBJECTID":247739},"geometry":{"x":171546.75000000093,"y":2543110.6600000001}},{"attributes":{"ID":247744,"DIS_CODE":0,"TOWNNAME":"東區","LI":"東聖里","LIN":"13鄰","STREET":"中華東路","SECT":"二段","MAREA":" ","LANE":"４１巷","ALLEY":" ","HOUSE_NO":"３９號","E_COORD97":171560,"N_COORD97":2543107.2000000002,"ADDRESS":"中華東路二段４１巷３９號","OBJECTID":247740},"geometry":{"x":171560.00000000093,"y":2543107.2000000011}},{"attributes":{"ID":247745,"DIS_CODE":0,"TOWNNAME":"東區","LI":"東聖里","LIN":"13鄰","STREET":"中華東路","SECT":"二段","MAREA":" ","LANE":"４１巷","ALLEY":" ","HOUSE_NO":"４３號","E_COORD97":171568.06,"N_COORD97":2543107.6800000002,"ADDRESS":"中華東路二段４１巷４３號","OBJECTID":247741},"geometry":{"x":171568.06000000052,"y":2543107.6800000016}},{"attributes":{"ID":247746,"DIS_CODE":0,"TOWNNAME":"安平區","LI":"平安里","LIN":"11鄰","STREET":"安平路","SECT":" ","MAREA":" ","LANE":"５００巷","ALLEY":" ","HOUSE_NO":"９號","E_COORD97":165132.69,"N_COORD97":2544371.2799999998,"ADDRESS":"安平路５００巷９號","OBJECTID":247742},"geometry":{"x":165132.69000000134,"y":2544371.2800000012}},{"attributes":{"ID":247747,"DIS_CODE":0,"TOWNNAME":"歸仁區","LI":"南興里","LIN":"11鄰","STREET":"民生二街","SECT":" ","MAREA":" ","LANE":"１４６巷","ALLEY":" ","HOUSE_NO":"１２號","E_COORD97":176048.98999999999,"N_COORD97":2541381.29,"ADDRESS":"民生二街１４６巷１２號","OBJECTID":247743},"geometry":{"x":176048.99000000115,"y":2541381.290000001}},{"attributes":{"ID":247748,"DIS_CODE":0,"TOWNNAME":"東區","LI":"東聖里","LIN":"13鄰","STREET":"中華東路","SECT":"二段","MAREA":" ","LANE":"４１巷","ALLEY":" ","HOUSE_NO":"４９號","E_COORD97":171583.53,"N_COORD97":2543106.8999999999,"ADDRESS":"中華東路二段４１巷４９號","OBJECTID":247744},"geometry":{"x":171583.53000000212,"y":2543106.9000000022}},{"attributes":{"ID":247749,"DIS_CODE":0,"TOWNNAME":"歸仁區","LI":"看東里","LIN":"11鄰","STREET":"忠孝南路","SECT":" ","MAREA":" ","LANE":" ","ALLEY":" ","HOUSE_NO":"１２９號","E_COORD97":178553.70999999999,"N_COORD97":2540328.96,"ADDRESS":"忠孝南路１２９號","OBJECTID":247745},"geometry":{"x":178553.70999999996,"y":2540328.9600000009}},{"attributes":{"ID":247750,"DIS_CODE":0,"TOWNNAME":"永康區","LI":"蔦松里","LIN":"5鄰","STREET":"蔦松二街","SECT":" ","MAREA":" ","LANE":" ","ALLEY":" ","HOUSE_NO":"１０１號","E_COORD97":173763.60000000001,"N_COORD97":2549377.8199999998,"ADDRESS":"蔦松二街１０１號","OBJECTID":247746},"geometry":{"x":173763.59999999963,"y":2549377.8200000003}},{"attributes":{"ID":247751,"DIS_CODE":0,"TOWNNAME":"永康區","LI":"龍潭里","LIN":"5鄰","STREET":"龍潭街","SECT":" ","MAREA":" ","LANE":" ","ALLEY":" ","HOUSE_NO":"１７２號","E_COORD97":174887.84,"N_COORD97":2548157.4100000001,"ADDRESS":"龍潭街１７２號","OBJECTID":247747},"geometry":{"x":174887.83999999985,"y":2548157.4100000001}},{"attributes":{"ID":247752,"DIS_CODE":0,"TOWNNAME":"永康區","LI":"網寮里","LIN":"18鄰","STREET":"永二街","SECT":" ","MAREA":" ","LANE":" ","ALLEY":" ","HOUSE_NO":"１８５號","E_COORD97":173435.85999999999,"N_COORD97":2546347.9399999999,"ADDRESS":"永二街１８５號","OBJECTID":247748},"geometry":{"x":173435.8600000022,"y":2546347.9400000013}},{"attributes":{"ID":247753,"DIS_CODE":0,"TOWNNAME":"永康區","LI":"龍潭里","LIN":"39鄰","STREET":"永明街","SECT":" ","MAREA":" ","LANE":" ","ALLEY":" ","HOUSE_NO":"２６５之１１號","E_COORD97":174629.37,"N_COORD97":2547263.5499999998,"ADDRESS":"永明街２６５之１１號","OBJECTID":247749},"geometry":{"x":174629.37000000104,"y":2547263.5500000026}},{"attributes":{"ID":247754,"DIS_CODE":0,"TOWNNAME":"永康區","LI":"\u25A0行里","LIN":"40鄰","STREET":"永安路","SECT":" ","MAREA":" ","LANE":" ","ALLEY":" ","HOUSE_NO":"１１３號之６","E_COORD97":172679.06,"N_COORD97":2549382.8100000001,"ADDRESS":"永安路１１３號之６","OBJECTID":247750},"geometry":{"x":172679.05999999959,"y":2549382.8100000042}},{"attributes":{"ID":247755,"DIS_CODE":0,"TOWNNAME":"永康區","LI":"龍潭里","LIN":"5鄰","STREET":"龍潭街","SECT":" ","MAREA":" ","LANE":" ","ALLEY":" ","HOUSE_NO":"１６２號","E_COORD97":174880.20000000001,"N_COORD97":2548130.6600000001,"ADDRESS":"龍潭街１６２號","OBJECTID":247751},"geometry":{"x":174880.20000000019,"y":2548130.660000002}},{"attributes":{"ID":247756,"DIS_CODE":0,"TOWNNAME":"永康區","LI":"蔦松里","LIN":"5鄰","STREET":"蔦松二街","SECT":" ","MAREA":" ","LANE":" ","ALLEY":" ","HOUSE_NO":"１２９號","E_COORD97":173801.32999999999,"N_COORD97":2549436.25,"ADDRESS":"蔦松二街１２９號","OBJECTID":247752},"geometry":{"x":173801.33000000007,"y":2549436.25}},{"attributes":{"ID":247757,"DIS_CODE":0,"TOWNNAME":"永康區","LI":"龍潭里","LIN":"40鄰","STREET":"永明街","SECT":" ","MAREA":" ","LANE":" ","ALLEY":" ","HOUSE_NO":"３０６號","E_COORD97":174542.37,"N_COORD97":2547193.6099999999,"ADDRESS":"永明街３０６號","OBJECTID":247753},"geometry":{"x":174542.36999999918,"y":2547193.6100000013}},{"attributes":{"ID":247758,"DIS_CODE":0,"TOWNNAME":"永康區","LI":"\u25A0行里","LIN":"40鄰","STREET":"永安路","SECT":" ","MAREA":" ","LANE":" ","ALLEY":" ","HOUSE_NO":"１２１號","E_COORD97":172644.45999999999,"N_COORD97":2549418.5800000001,"ADDRESS":"永安路１２１號","OBJECTID":247754},"geometry":{"x":172644.45999999996,"y":2549418.5800000019}},{"attributes":{"ID":247759,"DIS_CODE":0,"TOWNNAME":"永康區","LI":"網寮里","LIN":"26鄰","STREET":"永華路","SECT":" ","MAREA":" ","LANE":" ","ALLEY":" ","HOUSE_NO":"５７６號","E_COORD97":173890.29000000001,"N_COORD97":2546565.0099999998,"ADDRESS":"永華路５７６號","OBJECTID":247755},"geometry":{"x":173890.2900000019,"y":2546565.0100000016}},{"attributes":{"ID":247760,"DIS_CODE":0,"TOWNNAME":"永康區","LI":"龍潭里","LIN":"39鄰","STREET":"永明街","SECT":" ","MAREA":" ","LANE":" ","ALLEY":" ","HOUSE_NO":"２６１之５號","E_COORD97":174626.64000000001,"N_COORD97":2547230.27,"ADDRESS":"永明街２６１之５號","OBJECTID":247756},"geometry":{"x":174626.64000000153,"y":2547230.2700000014}},{"attributes":{"ID":247761,"DIS_CODE":0,"TOWNNAME":"永康區","LI":"龍潭里","LIN":"39鄰","STREET":"永明街","SECT":" ","MAREA":" ","LANE":" ","ALLEY":" ","HOUSE_NO":"２６５之６號","E_COORD97":174628.12,"N_COORD97":2547263.5499999998,"ADDRESS":"永明街２６５之６號","OBJECTID":247757},"geometry":{"x":174628.12000000011,"y":2547263.5500000026}},{"attributes":{"ID":247762,"DIS_CODE":0,"TOWNNAME":"永康區","LI":"\u25A0行里","LIN":"40鄰","STREET":"永安路","SECT":" ","MAREA":" ","LANE":" ","ALLEY":" ","HOUSE_NO":"１１３號","E_COORD97":172701.76000000001,"N_COORD97":2549338.8199999998,"ADDRESS":"永安路１１３號","OBJECTID":247758},"geometry":{"x":172701.75999999885,"y":2549338.8200000022}},{"attributes":{"ID":247763,"DIS_CODE":0,"TOWNNAME":"永康區","LI":"龍潭里","LIN":"5鄰","STREET":"龍潭街","SECT":" ","MAREA":" ","LANE":" ","ALLEY":" ","HOUSE_NO":"１８４號","E_COORD97":174898,"N_COORD97":2548191.9900000002,"ADDRESS":"龍潭街１８４號","OBJECTID":247759},"geometry":{"x":174898.00000000093,"y":2548191.9900000021}},{"attributes":{"ID":247764,"DIS_CODE":0,"TOWNNAME":"永康區","LI":"龍潭里","LIN":"39鄰","STREET":"永明街","SECT":" ","MAREA":" ","LANE":" ","ALLEY":" ","HOUSE_NO":"２６３之８號","E_COORD97":174632.28,"N_COORD97":2547243.6200000001,"ADDRESS":"永明街２６３之８號","OBJECTID":247760},"geometry":{"x":174632.28000000026,"y":2547243.6200000029}},{"attributes":{"ID":247765,"DIS_CODE":0,"TOWNNAME":"永康區","LI":"龍潭里","LIN":"39鄰","STREET":"永明街","SECT":" ","MAREA":" ","LANE":" ","ALLEY":" ","HOUSE_NO":"２６１之２號","E_COORD97":174626.64000000001,"N_COORD97":2547230.27,"ADDRESS":"永明街２６１之２號","OBJECTID":247761},"geometry":{"x":174626.64000000153,"y":2547230.2700000014}},{"attributes":{"ID":247766,"DIS_CODE":0,"TOWNNAME":"永康區","LI":"龍潭里","LIN":"4鄰","STREET":"龍潭街","SECT":" ","MAREA":" ","LANE":" ","ALLEY":" ","HOUSE_NO":"１２７號","E_COORD97":174868.48000000001,"N_COORD97":2548173.2799999998,"ADDRESS":"龍潭街１２７號","OBJECTID":247762},"geometry":{"x":174868.48000000045,"y":2548173.2799999993}},{"attributes":{"ID":247767,"DIS_CODE":0,"TOWNNAME":"北區","LI":"成德里","LIN":"34鄰","STREET":"育德路","SECT":" ","MAREA":" ","LANE":"４２３巷","ALLEY":" ","HOUSE_NO":"１６號","E_COORD97":168620.91,"N_COORD97":2546012.4500000002,"ADDRESS":"育德路４２３巷１６號","OBJECTID":247763},"geometry":{"x":168620.91000000201,"y":2546012.4499999993}},{"attributes":{"ID":247768,"DIS_CODE":0,"TOWNNAME":"北區","LI":"成德里","LIN":"34鄰","STREET":"育德路","SECT":" ","MAREA":" ","LANE":"４２３巷","ALLEY":" ","HOUSE_NO":"１２號","E_COORD97":168627.10000000001,"N_COORD97":2546012.4500000002,"ADDRESS":"育德路４２３巷１２號","OBJECTID":247764},"geometry":{"x":168627.09999999963,"y":2546012.4499999993}},{"attributes":{"ID":247769,"DIS_CODE":0,"TOWNNAME":"北區","LI":"成德里","LIN":"34鄰","STREET":"育德路","SECT":" ","MAREA":" ","LANE":"４２３巷","ALLEY":" ","HOUSE_NO":"１０號","E_COORD97":168633.60999999999,"N_COORD97":2546012.1400000001,"ADDRESS":"育德路４２３巷１０號","OBJECTID":247765},"geometry":{"x":168633.61000000127,"y":2546012.1400000025}},{"attributes":{"ID":247770,"DIS_CODE":0,"TOWNNAME":"歸仁區","LI":"許厝里","LIN":"34鄰","STREET":"和平南街","SECT":" ","MAREA":" ","LANE":"５５巷","ALLEY":" ","HOUSE_NO":"７號","E_COORD97":177852.13,"N_COORD97":2540575.8199999998,"ADDRESS":"和平南街５５巷７號","OBJECTID":247766},"geometry":{"x":177852.12999999989,"y":2540575.8200000022}},{"attributes":{"ID":247771,"DIS_CODE":0,"TOWNNAME":"歸仁區","LI":"許厝里","LIN":"34鄰","STREET":"和平南街","SECT":" ","MAREA":" ","LANE":"５５巷","ALLEY":" ","HOUSE_NO":"６號","E_COORD97":177842.82999999999,"N_COORD97":2540564.8199999998,"ADDRESS":"和平南街５５巷６號","OBJECTID":247767},"geometry":{"x":177842.83000000007,"y":2540564.8200000022}},{"attributes":{"ID":247772,"DIS_CODE":0,"TOWNNAME":"歸仁區","LI":"許厝里","LIN":"34鄰","STREET":"和平南街","SECT":" ","MAREA":" ","LANE":"５５巷","ALLEY":" ","HOUSE_NO":"１８號","E_COORD97":177867.67999999999,"N_COORD97":2540562.8199999998,"ADDRESS":"和平南街５５巷１８號","OBJECTID":247768},"geometry":{"x":177867.68000000156,"y":2540562.8200000003}},{"attributes":{"ID":247773,"DIS_CODE":0,"TOWNNAME":"歸仁區","LI":"許厝里","LIN":"34鄰","STREET":"和平南街","SECT":" ","MAREA":" ","LANE":"５５巷","ALLEY":" ","HOUSE_NO":"８號","E_COORD97":177846.92999999999,"N_COORD97":2540564.8199999998,"ADDRESS":"和平南街５５巷８號","OBJECTID":247769},"geometry":{"x":177846.9299999997,"y":2540564.8200000022}},{"attributes":{"ID":247774,"DIS_CODE":0,"TOWNNAME":"歸仁區","LI":"許厝里","LIN":"34鄰","STREET":"和平南街","SECT":" ","MAREA":" ","LANE":"５５巷","ALLEY":" ","HOUSE_NO":"２號","E_COORD97":177838.73000000001,"N_COORD97":2540564.8199999998,"ADDRESS":"和平南街５５巷２號","OBJECTID":247770},"geometry":{"x":177838.73000000045,"y":2540564.8200000022}},{"attributes":{"ID":247775,"DIS_CODE":0,"TOWNNAME":"歸仁區","LI":"許厝里","LIN":"34鄰","STREET":"和平南街","SECT":" ","MAREA":" ","LANE":"５５巷","ALLEY":" ","HOUSE_NO":"１１號","E_COORD97":177860.57999999999,"N_COORD97":2540575.8199999998,"ADDRESS":"和平南街５５巷１１號","OBJECTID":247771},"geometry":{"x":177860.58000000101,"y":2540575.8200000022}},{"attributes":{"ID":247776,"DIS_CODE":0,"TOWNNAME":"歸仁區","LI":"許厝里","LIN":"34鄰","STREET":"和平南街","SECT":" ","MAREA":" ","LANE":"５５巷","ALLEY":" ","HOUSE_NO":"２０號","E_COORD97":177871.78,"N_COORD97":2540561.8199999998,"ADDRESS":"和平南街５５巷２０號","OBJECTID":247772},"geometry":{"x":177871.78000000026,"y":2540561.8200000022}},{"attributes":{"ID":247777,"DIS_CODE":0,"TOWNNAME":"歸仁區","LI":"許厝里","LIN":"34鄰","STREET":"和平南街","SECT":" ","MAREA":" ","LANE":"５５巷","ALLEY":" ","HOUSE_NO":"１６號","E_COORD97":177863.57999999999,"N_COORD97":2540562.8199999998,"ADDRESS":"和平南街５５巷１６號","OBJECTID":247773},"geometry":{"x":177863.58000000194,"y":2540562.8200000003}},{"attributes":{"ID":247778,"DIS_CODE":0,"TOWNNAME":"歸仁區","LI":"許厝里","LIN":"34鄰","STREET":"和平南街","SECT":" ","MAREA":" ","LANE":"５５巷","ALLEY":" ","HOUSE_NO":"１０號","E_COORD97":177851.28,"N_COORD97":2540563.8199999998,"ADDRESS":"和平南街５５巷１０號","OBJECTID":247774},"geometry":{"x":177851.28000000119,"y":2540563.8200000003}},{"attributes":{"ID":247779,"DIS_CODE":0,"TOWNNAME":"歸仁區","LI":"後市里","LIN":"34鄰","STREET":"中山路","SECT":"二段","MAREA":" ","LANE":"１０８巷","ALLEY":" ","HOUSE_NO":"１號","E_COORD97":177325.03,"N_COORD97":2540845.7400000002,"ADDRESS":"中山路二段１０８巷１號","OBJECTID":247775},"geometry":{"x":177325.03000000212,"y":2540845.7400000002}},{"attributes":{"ID":247780,"DIS_CODE":0,"TOWNNAME":"歸仁區","LI":"許厝里","LIN":"34鄰","STREET":"和平南街","SECT":" ","MAREA":" ","LANE":"５５巷","ALLEY":" ","HOUSE_NO":"２４號","E_COORD97":177879.98000000001,"N_COORD97":2540561.8199999998,"ADDRESS":"和平南街５５巷２４號","OBJECTID":247776},"geometry":{"x":177879.98000000231,"y":2540561.8200000022}},{"attributes":{"ID":247781,"DIS_CODE":0,"TOWNNAME":"歸仁區","LI":"許厝里","LIN":"34鄰","STREET":"和平南街","SECT":" ","MAREA":" ","LANE":"５５巷","ALLEY":" ","HOUSE_NO":"１９號","E_COORD97":177876.98000000001,"N_COORD97":2540573.8199999998,"ADDRESS":"和平南街５５巷１９號","OBJECTID":247777},"geometry":{"x":177876.98000000138,"y":2540573.8200000003}},{"attributes":{"ID":247782,"DIS_CODE":0,"TOWNNAME":"歸仁區","LI":"許厝里","LIN":"34鄰","STREET":"和平南街","SECT":" ","MAREA":" ","LANE":"５５巷","ALLEY":" ","HOUSE_NO":"１３號","E_COORD97":177864.67999999999,"N_COORD97":2540575.8199999998,"ADDRESS":"和平南街５５巷１３號","OBJECTID":247778},"geometry":{"x":177864.68000000063,"y":2540575.8200000022}},{"attributes":{"ID":247783,"DIS_CODE":0,"TOWNNAME":"歸仁區","LI":"後市里","LIN":"34鄰","STREET":"民族北街","SECT":" ","MAREA":" ","LANE":"１７巷","ALLEY":" ","HOUSE_NO":"４６號","E_COORD97":177295.38,"N_COORD97":2540910.75,"ADDRESS":"民族北街１７巷４６號","OBJECTID":247779},"geometry":{"x":177295.38000000082,"y":2540910.7500000019}},{"attributes":{"ID":247784,"DIS_CODE":0,"TOWNNAME":"歸仁區","LI":"許厝里","LIN":"34鄰","STREET":"和平南街","SECT":" ","MAREA":" ","LANE":"５５巷","ALLEY":" ","HOUSE_NO":"１４號","E_COORD97":177859.48000000001,"N_COORD97":2540563.8199999998,"ADDRESS":"和平南街５５巷１４號","OBJECTID":247780},"geometry":{"x":177859.48000000231,"y":2540563.8200000003}},{"attributes":{"ID":247785,"DIS_CODE":0,"TOWNNAME":"歸仁區","LI":"新厝里","LIN":"11鄰","STREET":"公園十街","SECT":" ","MAREA":" ","LANE":" ","ALLEY":" ","HOUSE_NO":"８號","E_COORD97":177689.28,"N_COORD97":2540438,"ADDRESS":"公園十街８號","OBJECTID":247781},"geometry":{"x":177689.28000000026,"y":2540438.0000000019}},{"attributes":{"ID":247786,"DIS_CODE":0,"TOWNNAME":"新營區","LI":"南紙里","LIN":"11鄰","STREET":"太子路","SECT":" ","MAREA":" ","LANE":"２００巷","ALLEY":" ","HOUSE_NO":"７號","E_COORD97":177889.26999999999,"N_COORD97":2577896.2200000002,"ADDRESS":"太子路２００巷７號","OBJECTID":247782},"geometry":{"x":177889.27000000048,"y":2577896.2200000007}},{"attributes":{"ID":247787,"DIS_CODE":0,"TOWNNAME":"新營區","LI":"大宏里","LIN":"11鄰","STREET":"三民路","SECT":" ","MAREA":" ","LANE":"８巷","ALLEY":" ","HOUSE_NO":"１７號","E_COORD97":180527.60999999999,"N_COORD97":2578569.1200000001,"ADDRESS":"三民路８巷１７號","OBJECTID":247783},"geometry":{"x":180527.61000000127,"y":2578569.1200000048}},{"attributes":{"ID":247788,"DIS_CODE":0,"TOWNNAME":"新營區","LI":"王公里","LIN":"11鄰","STREET":"義和街","SECT":" ","MAREA":" ","LANE":"８巷","ALLEY":" ","HOUSE_NO":"８號","E_COORD97":180508.5,"N_COORD97":2579107.4300000002,"ADDRESS":"義和街８巷８號","OBJECTID":247784},"geometry":{"x":180508.50000000186,"y":2579107.4299999997}},{"attributes":{"ID":247789,"DIS_CODE":0,"TOWNNAME":"新營區","LI":"三仙里","LIN":"11鄰","STREET":"民權路","SECT":" ","MAREA":" ","LANE":"４１巷","ALLEY":" ","HOUSE_NO":"５號之２","E_COORD97":179664.94,"N_COORD97":2578264.27,"ADDRESS":"民權路４１巷５號之２","OBJECTID":247785},"geometry":{"x":179664.94000000041,"y":2578264.2699999996}},{"attributes":{"ID":247790,"DIS_CODE":0,"TOWNNAME":"新營區","LI":"三仙里","LIN":"11鄰","STREET":"民權路","SECT":" ","MAREA":" ","LANE":"４１巷","ALLEY":" ","HOUSE_NO":"３號","E_COORD97":179676.04999999999,"N_COORD97":2578267.48,"ADDRESS":"民權路４１巷３號","OBJECTID":247786},"geometry":{"x":179676.05000000075,"y":2578267.4799999986}},{"attributes":{"ID":247791,"DIS_CODE":0,"TOWNNAME":"歸仁區","LI":"七甲里","LIN":"11鄰","STREET":"南丁路","SECT":" ","MAREA":" ","LANE":"７３巷","ALLEY":" ","HOUSE_NO":"８３號","E_COORD97":175908.59,"N_COORD97":2541698.25,"ADDRESS":"南丁路７３巷８３號","OBJECTID":247787},"geometry":{"x":175908.58999999892,"y":2541698.2500000019}},{"attributes":{"ID":247792,"DIS_CODE":0,"TOWNNAME":"關廟區","LI":"深坑里","LIN":"11鄰","STREET":"深坑二街","SECT":" ","MAREA":" ","LANE":"１０６巷","ALLEY":" ","HOUSE_NO":"１０６號","E_COORD97":181365.57000000001,"N_COORD97":2537293.2999999998,"ADDRESS":"深坑二街１０６巷１０６號","OBJECTID":247788},"geometry":{"x":181365.5700000003,"y":2537293.3000000045}},{"attributes":{"ID":247793,"DIS_CODE":0,"TOWNNAME":"新營區","LI":"五興里","LIN":"11鄰","STREET":" ","SECT":" ","MAREA":"五間厝","LANE":" ","ALLEY":" ","HOUSE_NO":"１２１號","E_COORD97":175484.12,"N_COORD97":2574294.4900000002,"ADDRESS":"五間厝１２１號","OBJECTID":247789},"geometry":{"x":175484.12000000104,"y":2574294.4900000021}},{"attributes":{"ID":247794,"DIS_CODE":0,"TOWNNAME":"新市區","LI":"大營里","LIN":"18鄰","STREET":" ","SECT":" ","MAREA":"豐榮","LANE":" ","ALLEY":" ","HOUSE_NO":"５號","E_COORD97":178997.89999999999,"N_COORD97":2554457.5,"ADDRESS":"豐榮５號","OBJECTID":247790},"geometry":{"x":178997.9000000013,"y":2554457.5000000019}},{"attributes":{"ID":247795,"DIS_CODE":0,"TOWNNAME":"新市區","LI":"三舍里","LIN":"7鄰","STREET":" ","SECT":" ","MAREA":"三舍","LANE":" ","ALLEY":" ","HOUSE_NO":"１６５號","E_COORD97":177543.95999999999,"N_COORD97":2554794.75,"ADDRESS":"三舍１６５號","OBJECTID":247791},"geometry":{"x":177543.96000000183,"y":2554794.7500000019}},{"attributes":{"ID":247796,"DIS_CODE":0,"TOWNNAME":"南區","LI":"佛壇里","LIN":"11鄰","STREET":"灣裡路","SECT":" ","MAREA":" ","LANE":"４２１巷","ALLEY":" ","HOUSE_NO":"３號","E_COORD97":166268.48999999999,"N_COORD97":2536010.1000000001,"ADDRESS":"灣裡路４２１巷３號","OBJECTID":247792},"geometry":{"x":166268.49000000022,"y":2536010.0999999996}},{"attributes":{"ID":247797,"DIS_CODE":0,"TOWNNAME":"南區","LI":"佛壇里","LIN":"11鄰","STREET":"灣裡路","SECT":" ","MAREA":" ","LANE":"４２１巷","ALLEY":" ","HOUSE_NO":"４號","E_COORD97":166270.17999999999,"N_COORD97":2535984.6299999999,"ADDRESS":"灣裡路４２１巷４號","OBJECTID":247793},"geometry":{"x":166270.1799999997,"y":2535984.6300000008}},{"attributes":{"ID":247798,"DIS_CODE":0,"TOWNNAME":"南區","LI":"佛壇里","LIN":"11鄰","STREET":"灣裡路","SECT":" ","MAREA":" ","LANE":"４２１巷","ALLEY":" ","HOUSE_NO":"１號","E_COORD97":166262.85999999999,"N_COORD97":2536007.5800000001,"ADDRESS":"灣裡路４２１巷１號","OBJECTID":247794},"geometry":{"x":166262.86000000034,"y":2536007.5800000001}},{"attributes":{"ID":247799,"DIS_CODE":0,"TOWNNAME":"北區","LI":"大港里","LIN":"34鄰","STREET":"大興街","SECT":" ","MAREA":" ","LANE":"５２８巷","ALLEY":" ","HOUSE_NO":"３５號","E_COORD97":165957.57999999999,"N_COORD97":2545554.3199999998,"ADDRESS":"大興街５２８巷３５號","OBJECTID":247795},"geometry":{"x":165957.58000000007,"y":2545554.3200000003}},{"attributes":{"ID":247800,"DIS_CODE":0,"TOWNNAME":"新化區","LI":"東榮里","LIN":"34鄰","STREET":"中正路","SECT":" ","MAREA":" ","LANE":"３８８巷","ALLEY":" ","HOUSE_NO":"１６號","E_COORD97":179156.26000000001,"N_COORD97":2548404.25,"ADDRESS":"中正路３８８巷１６號","OBJECTID":247796},"geometry":{"x":179156.26000000071,"y":2548404.2500000019}},{"attributes":{"ID":247801,"DIS_CODE":0,"TOWNNAME":"永康區","LI":"埔園里","LIN":"34鄰","STREET":"永大路","SECT":"三段","MAREA":" ","LANE":"６１８巷","ALLEY":" ","HOUSE_NO":"３８號","E_COORD97":174157.26999999999,"N_COORD97":2548713.6499999999,"ADDRESS":"永大路三段６１８巷３８號","OBJECTID":247797},"geometry":{"x":174157.26999999955,"y":2548713.6500000022}},{"attributes":{"ID":247802,"DIS_CODE":0,"TOWNNAME":"安平區","LI":"育平里","LIN":"14鄰","STREET":"育平路","SECT":" ","MAREA":" ","LANE":" ","ALLEY":" ","HOUSE_NO":"２１２號十二樓之２０","E_COORD97":164690.60999999999,"N_COORD97":2543415.9199999999,"ADDRESS":"育平路２１２號十二樓之２０","OBJECTID":247798},"geometry":{"x":164690.61000000127,"y":2543415.9200000018}},{"attributes":{"ID":247803,"DIS_CODE":0,"TOWNNAME":"安平區","LI":"育平里","LIN":"14鄰","STREET":"育平路","SECT":" ","MAREA":" ","LANE":" ","ALLEY":" ","HOUSE_NO":"２１２號十二樓之２２","E_COORD97":164690.60999999999,"N_COORD97":2543415.9199999999,"ADDRESS":"育平路２１２號十二樓之２２","OBJECTID":247799},"geometry":{"x":164690.61000000127,"y":2543415.9200000018}},{"attributes":{"ID":247804,"DIS_CODE":0,"TOWNNAME":"安平區","LI":"育平里","LIN":"14鄰","STREET":"育平路","SECT":" ","MAREA":" ","LANE":" ","ALLEY":" ","HOUSE_NO":"２１２號十三樓之１２","E_COORD97":164690.60999999999,"N_COORD97":2543415.9199999999,"ADDRESS":"育平路２１２號十三樓之１２","OBJECTID":247800},"geometry":{"x":164690.61000000127,"y":2543415.9200000018}}]}