{"displayFieldName":"TOWNNAME","fieldAliases":{"ID":"ID","DIS_CODE":"DIS_CODE","TOWNNAME":"TOWNNAME","LI":"LI","LIN":"LIN","STREET":"STREET","SECT":"SECT","MAREA":"MAREA","LANE":"LANE","ALLEY":"ALLEY","HOUSE_NO":"HOUSE_NO","E_COORD97":"E_COORD97","N_COORD97":"N_COORD97","ADDRESS":"ADDRESS","OBJECTID":"OBJECTID"},"geometryType":"esriGeometryPoint","spatialReference":{"wkid":102443,"latestWkid":3826},"fields":[{"name":"ID","type":"esriFieldTypeDouble","alias":"ID"},{"name":"DIS_CODE","type":"esriFieldTypeInteger","alias":"DIS_CODE"},{"name":"TOWNNAME","type":"esriFieldTypeString","alias":"TOWNNAME","length":8},{"name":"LI","type":"esriFieldTypeString","alias":"LI","length":8},{"name":"LIN","type":"esriFieldTypeString","alias":"LIN","length":12},{"name":"STREET","type":"esriFieldTypeString","alias":"STREET","length":20},{"name":"SECT","type":"esriFieldTypeString","alias":"SECT","length":8},{"name":"MAREA","type":"esriFieldTypeString","alias":"MAREA","length":12},{"name":"LANE","type":"esriFieldTypeString","alias":"LANE","length":10},{"name":"ALLEY","type":"esriFieldTypeString","alias":"ALLEY","length":10},{"name":"HOUSE_NO","type":"esriFieldTypeString","alias":"HOUSE_NO","length":20},{"name":"E_COORD97","type":"esriFieldTypeDouble","alias":"E_COORD97"},{"name":"N_COORD97","type":"esriFieldTypeDouble","alias":"N_COORD97"},{"name":"ADDRESS","type":"esriFieldTypeString","alias":"ADDRESS","length":50},{"name":"OBJECTID","type":"esriFieldTypeOID","alias":"OBJECTID"}],"features":[{"attributes":{"ID":23001,"DIS_CODE":0,"TOWNNAME":"安南區","LI":"安東里","LIN":"14鄰","STREET":"安和路","SECT":"一段","MAREA":" ","LANE":"２２０巷","ALLEY":"４４弄","HOUSE_NO":"２８號","E_COORD97":169495.89999999999,"N_COORD97":2547901.46,"ADDRESS":"安和路一段２２０巷４４弄２８號","OBJECTID":23001},"geometry":{"x":169495.90000000224,"y":2547901.4600000028}},{"attributes":{"ID":23002,"DIS_CODE":0,"TOWNNAME":"安南區","LI":"安東里","LIN":"14鄰","STREET":"安和路","SECT":"一段","MAREA":" ","LANE":"２２０巷","ALLEY":"４４弄","HOUSE_NO":"２號","E_COORD97":169446.42000000001,"N_COORD97":2547949.2200000002,"ADDRESS":"安和路一段２２０巷４４弄２號","OBJECTID":23002},"geometry":{"x":169446.42000000086,"y":2547949.2200000007}},{"attributes":{"ID":23003,"DIS_CODE":0,"TOWNNAME":"安南區","LI":"安順里","LIN":"24鄰","STREET":"北安路","SECT":"三段","MAREA":" ","LANE":" ","ALLEY":" ","HOUSE_NO":"７３６號","E_COORD97":169427.88,"N_COORD97":2550557.3700000001,"ADDRESS":"北安路三段７３６號","OBJECTID":23003},"geometry":{"x":169427.88000000175,"y":2550557.3700000029}},{"attributes":{"ID":23004,"DIS_CODE":0,"TOWNNAME":"新市區","LI":"新市里","LIN":"24鄰","STREET":"復興路","SECT":" ","MAREA":" ","LANE":" ","ALLEY":" ","HOUSE_NO":"４９號","E_COORD97":177801.03,"N_COORD97":2553431.0299999998,"ADDRESS":"復興路４９號","OBJECTID":23004},"geometry":{"x":177801.03000000026,"y":2553431.0299999993}},{"attributes":{"ID":23005,"DIS_CODE":0,"TOWNNAME":"新市區","LI":"新和里","LIN":"24鄰","STREET":"永福街","SECT":" ","MAREA":" ","LANE":" ","ALLEY":" ","HOUSE_NO":"１１６號","E_COORD97":177487.45999999999,"N_COORD97":2552737.5,"ADDRESS":"永福街１１６號","OBJECTID":23005},"geometry":{"x":177487.45999999996,"y":2552737.5000000037}},{"attributes":{"ID":23006,"DIS_CODE":0,"TOWNNAME":"新市區","LI":"新和里","LIN":"24鄰","STREET":"永福街","SECT":" ","MAREA":" ","LANE":" ","ALLEY":" ","HOUSE_NO":"９６號","E_COORD97":177529.06,"N_COORD97":2552733,"ADDRESS":"永福街９６號","OBJECTID":23006},"geometry":{"x":177529.05999999959,"y":2552733}},{"attributes":{"ID":23007,"DIS_CODE":0,"TOWNNAME":"北門區","LI":"玉港里","LIN":"13鄰","STREET":" ","SECT":" ","MAREA":"灰\u25A0港","LANE":" ","ALLEY":" ","HOUSE_NO":"１２５號","E_COORD97":161552.85999999999,"N_COORD97":2573634.7599999998,"ADDRESS":"灰\u25A0港１２５號","OBJECTID":23007},"geometry":{"x":161552.86000000127,"y":2573634.7600000016}},{"attributes":{"ID":23008,"DIS_CODE":0,"TOWNNAME":"北門區","LI":"玉港里","LIN":"13鄰","STREET":" ","SECT":" ","MAREA":"灰\u25A0港","LANE":" ","ALLEY":" ","HOUSE_NO":"１２６號之１","E_COORD97":161584.20000000001,"N_COORD97":2573662.6099999999,"ADDRESS":"灰\u25A0港１２６號之１","OBJECTID":23008},"geometry":{"x":161584.20000000112,"y":2573662.6100000013}},{"attributes":{"ID":23009,"DIS_CODE":0,"TOWNNAME":"北門區","LI":"玉港里","LIN":"13鄰","STREET":" ","SECT":" ","MAREA":"灰\u25A0港","LANE":" ","ALLEY":" ","HOUSE_NO":"１２６號之２","E_COORD97":161528.73999999999,"N_COORD97":2573668.2799999998,"ADDRESS":"灰\u25A0港１２６號之２","OBJECTID":23009},"geometry":{"x":161528.74000000022,"y":2573668.2800000012}},{"attributes":{"ID":23010,"DIS_CODE":0,"TOWNNAME":"北門區","LI":"玉港里","LIN":"13鄰","STREET":" ","SECT":" ","MAREA":"灰\u25A0港","LANE":" ","ALLEY":" ","HOUSE_NO":"１２６號","E_COORD97":161552.10000000001,"N_COORD97":2573672.3599999999,"ADDRESS":"灰\u25A0港１２６號","OBJECTID":23010},"geometry":{"x":161552.10000000056,"y":2573672.3599999994}},{"attributes":{"ID":23011,"DIS_CODE":0,"TOWNNAME":"安南區","LI":"安東里","LIN":"14鄰","STREET":"安和路","SECT":"一段","MAREA":" ","LANE":"２２０巷","ALLEY":"４４弄","HOUSE_NO":"３０號","E_COORD97":169500.72,"N_COORD97":2547896.2200000002,"ADDRESS":"安和路一段２２０巷４４弄３０號","OBJECTID":23011},"geometry":{"x":169500.72000000067,"y":2547896.2200000025}},{"attributes":{"ID":23012,"DIS_CODE":0,"TOWNNAME":"北門區","LI":"玉港里","LIN":"13鄰","STREET":" ","SECT":" ","MAREA":"灰\u25A0港","LANE":" ","ALLEY":" ","HOUSE_NO":"１２７號之３","E_COORD97":161375.12,"N_COORD97":2573654.96,"ADDRESS":"灰\u25A0港１２７號之３","OBJECTID":23012},"geometry":{"x":161375.12000000011,"y":2573654.9600000028}},{"attributes":{"ID":23013,"DIS_CODE":0,"TOWNNAME":"北門區","LI":"玉港里","LIN":"13鄰","STREET":" ","SECT":" ","MAREA":"灰\u25A0港","LANE":" ","ALLEY":" ","HOUSE_NO":"１２７號之４","E_COORD97":161359.31,"N_COORD97":2573659.4100000001,"ADDRESS":"灰\u25A0港１２７號之４","OBJECTID":23013},"geometry":{"x":161359.31000000052,"y":2573659.4100000001}},{"attributes":{"ID":23014,"DIS_CODE":0,"TOWNNAME":"北門區","LI":"玉港里","LIN":"13鄰","STREET":" ","SECT":" ","MAREA":"灰\u25A0港","LANE":" ","ALLEY":" ","HOUSE_NO":"１２７號之５","E_COORD97":161344.87,"N_COORD97":2573657.1200000001,"ADDRESS":"灰\u25A0港１２７號之５","OBJECTID":23014},"geometry":{"x":161344.87000000011,"y":2573657.1200000029}},{"attributes":{"ID":23015,"DIS_CODE":0,"TOWNNAME":"北門區","LI":"玉港里","LIN":"13鄰","STREET":" ","SECT":" ","MAREA":"灰\u25A0港","LANE":" ","ALLEY":" ","HOUSE_NO":"１２７號","E_COORD97":161433.23000000001,"N_COORD97":2573659.8999999999,"ADDRESS":"灰\u25A0港１２７號","OBJECTID":23015},"geometry":{"x":161433.23000000231,"y":2573659.9000000004}},{"attributes":{"ID":23016,"DIS_CODE":0,"TOWNNAME":"北門區","LI":"玉港里","LIN":"13鄰","STREET":" ","SECT":" ","MAREA":"灰\u25A0港","LANE":" ","ALLEY":" ","HOUSE_NO":"１２８號","E_COORD97":161468.32999999999,"N_COORD97":2573514.2599999998,"ADDRESS":"灰\u25A0港１２８號","OBJECTID":23016},"geometry":{"x":161468.33000000101,"y":2573514.2599999998}},{"attributes":{"ID":23017,"DIS_CODE":0,"TOWNNAME":"大內區","LI":"內郭里","LIN":"8鄰","STREET":" ","SECT":" ","MAREA":"後堀","LANE":" ","ALLEY":" ","HOUSE_NO":"１８號之１","E_COORD97":185675.48999999999,"N_COORD97":2557492.3199999998,"ADDRESS":"後堀１８號之１","OBJECTID":23017},"geometry":{"x":185675.49000000022,"y":2557492.320000004}},{"attributes":{"ID":23018,"DIS_CODE":0,"TOWNNAME":"安南區","LI":"安東里","LIN":"14鄰","STREET":"安和路","SECT":"一段","MAREA":" ","LANE":"２２０巷","ALLEY":"４４弄","HOUSE_NO":"３１號","E_COORD97":169520.22,"N_COORD97":2547906.4700000002,"ADDRESS":"安和路一段２２０巷４４弄３１號","OBJECTID":23018},"geometry":{"x":169520.2200000016,"y":2547906.4700000007}},{"attributes":{"ID":23019,"DIS_CODE":0,"TOWNNAME":"北門區","LI":"玉港里","LIN":"13鄰","STREET":" ","SECT":" ","MAREA":"灰\u25A0港","LANE":" ","ALLEY":" ","HOUSE_NO":"１２９之２１號","E_COORD97":160880.20000000001,"N_COORD97":2572683.9399999999,"ADDRESS":"灰\u25A0港１２９之２１號","OBJECTID":23019},"geometry":{"x":160880.20000000019,"y":2572683.9400000013}},{"attributes":{"ID":23020,"DIS_CODE":0,"TOWNNAME":"安南區","LI":"安東里","LIN":"14鄰","STREET":"安和路","SECT":"一段","MAREA":" ","LANE":"２２０巷","ALLEY":"４４弄","HOUSE_NO":"３２號","E_COORD97":169505.34,"N_COORD97":2547893.0800000001,"ADDRESS":"安和路一段２２０巷４４弄３２號","OBJECTID":23020},"geometry":{"x":169505.33999999985,"y":2547893.0800000019}},{"attributes":{"ID":23021,"DIS_CODE":0,"TOWNNAME":"安南區","LI":"安東里","LIN":"14鄰","STREET":"安和路","SECT":"一段","MAREA":" ","LANE":"２２０巷","ALLEY":"４４弄","HOUSE_NO":"３３號","E_COORD97":169525.25,"N_COORD97":2547901.6499999999,"ADDRESS":"安和路一段２２０巷４４弄３３號","OBJECTID":23021},"geometry":{"x":169525.24999999907,"y":2547901.6500000004}},{"attributes":{"ID":23022,"DIS_CODE":0,"TOWNNAME":"安南區","LI":"安東里","LIN":"14鄰","STREET":"安和路","SECT":"一段","MAREA":" ","LANE":"２２０巷","ALLEY":"４４弄","HOUSE_NO":"３４號","E_COORD97":169510.37,"N_COORD97":2547888.2599999998,"ADDRESS":"安和路一段２２０巷４４弄３４號","OBJECTID":23022},"geometry":{"x":169510.37000000011,"y":2547888.2600000016}},{"attributes":{"ID":23023,"DIS_CODE":0,"TOWNNAME":"安南區","LI":"安東里","LIN":"14鄰","STREET":"安和路","SECT":"一段","MAREA":" ","LANE":"２２０巷","ALLEY":"４４弄","HOUSE_NO":"３５號","E_COORD97":169529.03,"N_COORD97":2547897.6699999999,"ADDRESS":"安和路一段２２０巷４４弄３５號","OBJECTID":23023},"geometry":{"x":169529.03000000119,"y":2547897.6699999999}},{"attributes":{"ID":23024,"DIS_CODE":0,"TOWNNAME":"安南區","LI":"安東里","LIN":"14鄰","STREET":"安和路","SECT":"一段","MAREA":" ","LANE":"２２０巷","ALLEY":"４４弄","HOUSE_NO":"３７號","E_COORD97":169535.32000000001,"N_COORD97":2547893.6899999999,"ADDRESS":"安和路一段２２０巷４４弄３７號","OBJECTID":23024},"geometry":{"x":169535.31999999937,"y":2547893.6899999995}},{"attributes":{"ID":23025,"DIS_CODE":0,"TOWNNAME":"安南區","LI":"安東里","LIN":"14鄰","STREET":"安和路","SECT":"一段","MAREA":" ","LANE":"２２０巷","ALLEY":"４４弄","HOUSE_NO":"３８號","E_COORD97":169519.17000000001,"N_COORD97":2547879.46,"ADDRESS":"安和路一段２２０巷４４弄３８號","OBJECTID":23025},"geometry":{"x":169519.17000000179,"y":2547879.4600000009}},{"attributes":{"ID":23026,"DIS_CODE":0,"TOWNNAME":"安南區","LI":"安東里","LIN":"14鄰","STREET":"安和路","SECT":"一段","MAREA":" ","LANE":"２２０巷","ALLEY":"４４弄","HOUSE_NO":"６號","E_COORD97":169454.39000000001,"N_COORD97":2547942.73,"ADDRESS":"安和路一段２２０巷４４弄６號","OBJECTID":23026},"geometry":{"x":169454.38999999966,"y":2547942.7300000023}},{"attributes":{"ID":23027,"DIS_CODE":0,"TOWNNAME":"安南區","LI":"安東里","LIN":"14鄰","STREET":"安和路","SECT":"一段","MAREA":" ","LANE":"２２０巷","ALLEY":"５４弄","HOUSE_NO":"２２號","E_COORD97":169511.42000000001,"N_COORD97":2547934.9700000002,"ADDRESS":"安和路一段２２０巷５４弄２２號","OBJECTID":23027},"geometry":{"x":169511.42000000086,"y":2547934.9700000025}},{"attributes":{"ID":23028,"DIS_CODE":0,"TOWNNAME":"安南區","LI":"安東里","LIN":"14鄰","STREET":"安和路","SECT":"一段","MAREA":" ","LANE":"２２０巷","ALLEY":"５４弄","HOUSE_NO":"２４號","E_COORD97":169515.60999999999,"N_COORD97":2547930.1499999999,"ADDRESS":"安和路一段２２０巷５４弄２４號","OBJECTID":23028},"geometry":{"x":169515.61000000127,"y":2547930.1500000022}},{"attributes":{"ID":23029,"DIS_CODE":0,"TOWNNAME":"北門區","LI":"玉港里","LIN":"13鄰","STREET":" ","SECT":" ","MAREA":"灰\u25A0港","LANE":" ","ALLEY":" ","HOUSE_NO":"１２９號之２１","E_COORD97":160880.20000000001,"N_COORD97":2572683.9399999999,"ADDRESS":"灰\u25A0港１２９號之２１","OBJECTID":23029},"geometry":{"x":160880.20000000019,"y":2572683.9400000013}},{"attributes":{"ID":23030,"DIS_CODE":0,"TOWNNAME":"安南區","LI":"安東里","LIN":"14鄰","STREET":"安和路","SECT":"一段","MAREA":" ","LANE":"２２０巷","ALLEY":"５４弄","HOUSE_NO":"２６號","E_COORD97":169520.64000000001,"N_COORD97":2547925.3300000001,"ADDRESS":"安和路一段２２０巷５４弄２６號","OBJECTID":23030},"geometry":{"x":169520.64000000153,"y":2547925.3300000019}},{"attributes":{"ID":23031,"DIS_CODE":0,"TOWNNAME":"北門區","LI":"玉港里","LIN":"13鄰","STREET":" ","SECT":" ","MAREA":"灰\u25A0港","LANE":" ","ALLEY":" ","HOUSE_NO":"１２９之２２號","E_COORD97":160878.84,"N_COORD97":2572687.9399999999,"ADDRESS":"灰\u25A0港１２９之２２號","OBJECTID":23031},"geometry":{"x":160878.83999999985,"y":2572687.9400000013}},{"attributes":{"ID":23032,"DIS_CODE":0,"TOWNNAME":"安南區","LI":"安東里","LIN":"14鄰","STREET":"安和路","SECT":"一段","MAREA":" ","LANE":"２２０巷","ALLEY":"５４弄","HOUSE_NO":"２８號","E_COORD97":169525.04000000001,"N_COORD97":2547920.7200000002,"ADDRESS":"安和路一段２２０巷５４弄２８號","OBJECTID":23032},"geometry":{"x":169525.03999999911,"y":2547920.7200000007}},{"attributes":{"ID":23033,"DIS_CODE":0,"TOWNNAME":"永康區","LI":"西灣里","LIN":"24鄰","STREET":"永大路","SECT":"二段","MAREA":" ","LANE":" ","ALLEY":" ","HOUSE_NO":"３１３號","E_COORD97":174416.54000000001,"N_COORD97":2545602.0299999998,"ADDRESS":"永大路二段３１３號","OBJECTID":23033},"geometry":{"x":174416.54000000097,"y":2545602.0299999993}},{"attributes":{"ID":23034,"DIS_CODE":0,"TOWNNAME":"北門區","LI":"玉港里","LIN":"13鄰","STREET":" ","SECT":" ","MAREA":"灰\u25A0港","LANE":" ","ALLEY":" ","HOUSE_NO":"１２９號之２２","E_COORD97":160878.84,"N_COORD97":2572687.9399999999,"ADDRESS":"灰\u25A0港１２９號之２２","OBJECTID":23034},"geometry":{"x":160878.83999999985,"y":2572687.9400000013}},{"attributes":{"ID":23035,"DIS_CODE":0,"TOWNNAME":"安平區","LI":"億載里","LIN":"4鄰","STREET":"光州路","SECT":" ","MAREA":" ","LANE":" ","ALLEY":" ","HOUSE_NO":"３號","E_COORD97":163898.82000000001,"N_COORD97":2543256.5899999999,"ADDRESS":"光州路３號","OBJECTID":23035},"geometry":{"x":163898.82000000216,"y":2543256.5899999999}},{"attributes":{"ID":23036,"DIS_CODE":0,"TOWNNAME":"北門區","LI":"玉港里","LIN":"13鄰","STREET":" ","SECT":" ","MAREA":"灰\u25A0港","LANE":" ","ALLEY":" ","HOUSE_NO":"１２９之２３號","E_COORD97":160877.32999999999,"N_COORD97":2572692.21,"ADDRESS":"灰\u25A0港１２９之２３號","OBJECTID":23036},"geometry":{"x":160877.33000000007,"y":2572692.2100000009}},{"attributes":{"ID":23037,"DIS_CODE":0,"TOWNNAME":"永康區","LI":"西灣里","LIN":"24鄰","STREET":"國光八街","SECT":" ","MAREA":" ","LANE":" ","ALLEY":" ","HOUSE_NO":"７號","E_COORD97":174421.54000000001,"N_COORD97":2545748.9900000002,"ADDRESS":"國光八街７號","OBJECTID":23037},"geometry":{"x":174421.54000000097,"y":2545748.9900000002}},{"attributes":{"ID":23038,"DIS_CODE":0,"TOWNNAME":"永康區","LI":"西灣里","LIN":"24鄰","STREET":"永大路","SECT":"二段","MAREA":" ","LANE":" ","ALLEY":" ","HOUSE_NO":"３２９號","E_COORD97":174426.81,"N_COORD97":2545638.02,"ADDRESS":"永大路二段３２９號","OBJECTID":23038},"geometry":{"x":174426.80999999959,"y":2545638.0200000014}},{"attributes":{"ID":23039,"DIS_CODE":0,"TOWNNAME":"永康區","LI":"西灣里","LIN":"24鄰","STREET":"永大路","SECT":"二段","MAREA":" ","LANE":" ","ALLEY":" ","HOUSE_NO":"３１５號","E_COORD97":174417.23000000001,"N_COORD97":2545606.7799999998,"ADDRESS":"永大路二段３１５號","OBJECTID":23039},"geometry":{"x":174417.23000000138,"y":2545606.7799999993}},{"attributes":{"ID":23040,"DIS_CODE":0,"TOWNNAME":"東山區","LI":"東河里","LIN":"16鄰","STREET":" ","SECT":" ","MAREA":"吉貝耍","LANE":" ","ALLEY":" ","HOUSE_NO":"１５５號","E_COORD97":186818.16,"N_COORD97":2577212.4900000002,"ADDRESS":"吉貝耍１５５號","OBJECTID":23040},"geometry":{"x":186818.16000000015,"y":2577212.4900000002}},{"attributes":{"ID":23041,"DIS_CODE":0,"TOWNNAME":"永康區","LI":"西灣里","LIN":"24鄰","STREET":"永大路","SECT":"二段","MAREA":" ","LANE":" ","ALLEY":" ","HOUSE_NO":"３２５號","E_COORD97":174424.10000000001,"N_COORD97":2545630.77,"ADDRESS":"永大路二段３２５號","OBJECTID":23041},"geometry":{"x":174424.10000000056,"y":2545630.7699999996}},{"attributes":{"ID":23042,"DIS_CODE":0,"TOWNNAME":"安南區","LI":"安東里","LIN":"14鄰","STREET":"安和路","SECT":"一段","MAREA":" ","LANE":"２２０巷","ALLEY":"５４弄","HOUSE_NO":"３２號","E_COORD97":169534.69,"N_COORD97":2547911.0800000001,"ADDRESS":"安和路一段２２０巷５４弄３２號","OBJECTID":23042},"geometry":{"x":169534.69000000227,"y":2547911.0800000001}},{"attributes":{"ID":23043,"DIS_CODE":0,"TOWNNAME":"北門區","LI":"玉港里","LIN":"13鄰","STREET":" ","SECT":" ","MAREA":"灰\u25A0港","LANE":" ","ALLEY":" ","HOUSE_NO":"１２９之２５號","E_COORD97":160876.06,"N_COORD97":2572696.3500000001,"ADDRESS":"灰\u25A0港１２９之２５號","OBJECTID":23043},"geometry":{"x":160876.06000000052,"y":2572696.3499999996}},{"attributes":{"ID":23044,"DIS_CODE":0,"TOWNNAME":"新營區","LI":"民生里","LIN":"14鄰","STREET":"民治路","SECT":" ","MAREA":" ","LANE":"２２５巷","ALLEY":"５６弄","HOUSE_NO":"７號","E_COORD97":178870.07000000001,"N_COORD97":2578290.1499999999,"ADDRESS":"民治路２２５巷５６弄７號","OBJECTID":23044},"geometry":{"x":178870.0700000003,"y":2578290.1500000041}},{"attributes":{"ID":23045,"DIS_CODE":0,"TOWNNAME":"安南區","LI":"安東里","LIN":"14鄰","STREET":"安和路","SECT":"一段","MAREA":" ","LANE":"２２０巷","ALLEY":"５４弄","HOUSE_NO":"３４號","E_COORD97":169539.29999999999,"N_COORD97":2547906.8900000001,"ADDRESS":"安和路一段２２０巷５４弄３４號","OBJECTID":23045},"geometry":{"x":169539.29999999981,"y":2547906.8900000006}},{"attributes":{"ID":23046,"DIS_CODE":0,"TOWNNAME":"安南區","LI":"安東里","LIN":"14鄰","STREET":"安和路","SECT":"一段","MAREA":" ","LANE":"２２０巷","ALLEY":"５４弄","HOUSE_NO":"３６號","E_COORD97":169544.54000000001,"N_COORD97":2547902.4900000002,"ADDRESS":"安和路一段２２０巷５４弄３６號","OBJECTID":23046},"geometry":{"x":169544.54000000097,"y":2547902.4900000002}},{"attributes":{"ID":23047,"DIS_CODE":0,"TOWNNAME":"北門區","LI":"玉港里","LIN":"13鄰","STREET":" ","SECT":" ","MAREA":"灰\u25A0港","LANE":" ","ALLEY":" ","HOUSE_NO":"１２９之２６號","E_COORD97":160874.89000000001,"N_COORD97":2572700.7000000002,"ADDRESS":"灰\u25A0港１２９之２６號","OBJECTID":23047},"geometry":{"x":160874.88999999966,"y":2572700.6999999993}},{"attributes":{"ID":23048,"DIS_CODE":0,"TOWNNAME":"安南區","LI":"安東里","LIN":"14鄰","STREET":"安和路","SECT":"一段","MAREA":" ","LANE":"２２０巷","ALLEY":"５４弄","HOUSE_NO":"３０號","E_COORD97":169530.07999999999,"N_COORD97":2547915.8999999999,"ADDRESS":"安和路一段２２０巷５４弄３０號","OBJECTID":23048},"geometry":{"x":169530.08000000194,"y":2547915.9000000004}},{"attributes":{"ID":23049,"DIS_CODE":0,"TOWNNAME":"北門區","LI":"玉港里","LIN":"13鄰","STREET":" ","SECT":" ","MAREA":"灰\u25A0港","LANE":" ","ALLEY":" ","HOUSE_NO":"１２９之２７號","E_COORD97":160873.57000000001,"N_COORD97":2572704.6899999999,"ADDRESS":"灰\u25A0港１２９之２７號","OBJECTID":23049},"geometry":{"x":160873.57000000123,"y":2572704.6899999995}},{"attributes":{"ID":23050,"DIS_CODE":0,"TOWNNAME":"北門區","LI":"玉港里","LIN":"13鄰","STREET":" ","SECT":" ","MAREA":"灰\u25A0港","LANE":" ","ALLEY":" ","HOUSE_NO":"１２９之２８號","E_COORD97":160872.29999999999,"N_COORD97":2572708.6800000002,"ADDRESS":"灰\u25A0港１２９之２８號","OBJECTID":23050},"geometry":{"x":160872.29999999981,"y":2572708.6800000034}},{"attributes":{"ID":23051,"DIS_CODE":0,"TOWNNAME":"安南區","LI":"安東里","LIN":"14鄰","STREET":"安和路","SECT":"一段","MAREA":" ","LANE":"２２０巷","ALLEY":"４４弄","HOUSE_NO":"３６號","E_COORD97":169515.39999999999,"N_COORD97":2547884.4900000002,"ADDRESS":"安和路一段２２０巷４４弄３６號","OBJECTID":23051},"geometry":{"x":169515.4000000013,"y":2547884.4900000021}},{"attributes":{"ID":23052,"DIS_CODE":0,"TOWNNAME":"北門區","LI":"玉港里","LIN":"13鄰","STREET":" ","SECT":" ","MAREA":"灰\u25A0港","LANE":" ","ALLEY":" ","HOUSE_NO":"１２９號之２８","E_COORD97":160872.29999999999,"N_COORD97":2572708.6800000002,"ADDRESS":"灰\u25A0港１２９號之２８","OBJECTID":23052},"geometry":{"x":160872.29999999981,"y":2572708.6800000034}},{"attributes":{"ID":23053,"DIS_CODE":0,"TOWNNAME":"安南區","LI":"安東里","LIN":"14鄰","STREET":"安和路","SECT":"一段","MAREA":" ","LANE":"２２０巷","ALLEY":"４４弄","HOUSE_NO":"１９號之２","E_COORD97":169492.76000000001,"N_COORD97":2547941.25,"ADDRESS":"安和路一段２２０巷４４弄１９號之２","OBJECTID":23053},"geometry":{"x":169492.75999999885,"y":2547941.25}},{"attributes":{"ID":23054,"DIS_CODE":0,"TOWNNAME":"安南區","LI":"安東里","LIN":"14鄰","STREET":"安和路","SECT":"一段","MAREA":" ","LANE":"２２０巷","ALLEY":"４４弄","HOUSE_NO":"１６號","E_COORD97":169472.63,"N_COORD97":2547925.9700000002,"ADDRESS":"安和路一段２２０巷４４弄１６號","OBJECTID":23054},"geometry":{"x":169472.63000000082,"y":2547925.9700000007}},{"attributes":{"ID":23055,"DIS_CODE":0,"TOWNNAME":"北門區","LI":"玉港里","LIN":"13鄰","STREET":" ","SECT":" ","MAREA":"灰\u25A0港","LANE":" ","ALLEY":" ","HOUSE_NO":"１２９之２９號","E_COORD97":160870.89999999999,"N_COORD97":2572713.0299999998,"ADDRESS":"灰\u25A0港１２９之２９號","OBJECTID":23055},"geometry":{"x":160870.90000000224,"y":2572713.0300000012}},{"attributes":{"ID":23056,"DIS_CODE":0,"TOWNNAME":"安南區","LI":"安東里","LIN":"14鄰","STREET":"安和路","SECT":"一段","MAREA":" ","LANE":"２２０巷","ALLEY":"４４弄","HOUSE_NO":"２２號","E_COORD97":169481.44,"N_COORD97":2547914.6600000001,"ADDRESS":"安和路一段２２０巷４４弄２２號","OBJECTID":23056},"geometry":{"x":169481.44000000041,"y":2547914.6600000001}},{"attributes":{"ID":23057,"DIS_CODE":0,"TOWNNAME":"北門區","LI":"玉港里","LIN":"13鄰","STREET":" ","SECT":" ","MAREA":"灰\u25A0港","LANE":" ","ALLEY":" ","HOUSE_NO":"１２９之３０號","E_COORD97":160869.92999999999,"N_COORD97":2572717.0600000001,"ADDRESS":"灰\u25A0港１２９之３０號","OBJECTID":23057},"geometry":{"x":160869.93000000156,"y":2572717.0600000042}},{"attributes":{"ID":23058,"DIS_CODE":0,"TOWNNAME":"永康區","LI":"西灣里","LIN":"24鄰","STREET":"國光七街","SECT":" ","MAREA":" ","LANE":"６巷","ALLEY":" ","HOUSE_NO":"１８號","E_COORD97":174386.81,"N_COORD97":2545620.96,"ADDRESS":"國光七街６巷１８號","OBJECTID":23058},"geometry":{"x":174386.81000000052,"y":2545620.9600000009}},{"attributes":{"ID":23059,"DIS_CODE":0,"TOWNNAME":"永康區","LI":"西灣里","LIN":"24鄰","STREET":"永大路","SECT":"二段","MAREA":" ","LANE":" ","ALLEY":" ","HOUSE_NO":"３２７號","E_COORD97":174425.64000000001,"N_COORD97":2545634.27,"ADDRESS":"永大路二段３２７號","OBJECTID":23059},"geometry":{"x":174425.6400000006,"y":2545634.2699999996}},{"attributes":{"ID":23060,"DIS_CODE":0,"TOWNNAME":"永康區","LI":"西灣里","LIN":"24鄰","STREET":"永大路","SECT":"二段","MAREA":" ","LANE":" ","ALLEY":" ","HOUSE_NO":"２８５號","E_COORD97":174400.89999999999,"N_COORD97":2545541.77,"ADDRESS":"永大路二段２８５號","OBJECTID":23060},"geometry":{"x":174400.9000000013,"y":2545541.7700000014}},{"attributes":{"ID":23061,"DIS_CODE":0,"TOWNNAME":"永康區","LI":"西灣里","LIN":"24鄰","STREET":"永大路","SECT":"二段","MAREA":" ","LANE":" ","ALLEY":" ","HOUSE_NO":"２９７號","E_COORD97":174407.39999999999,"N_COORD97":2545567.02,"ADDRESS":"永大路二段２９７號","OBJECTID":23061},"geometry":{"x":174407.4000000013,"y":2545567.0200000014}},{"attributes":{"ID":23062,"DIS_CODE":0,"TOWNNAME":"北門區","LI":"玉港里","LIN":"13鄰","STREET":" ","SECT":" ","MAREA":"灰\u25A0港","LANE":" ","ALLEY":" ","HOUSE_NO":"１２９之３１號","E_COORD97":160868.67000000001,"N_COORD97":2572721.6499999999,"ADDRESS":"灰\u25A0港１２９之３１號","OBJECTID":23062},"geometry":{"x":160868.67000000086,"y":2572721.6500000004}},{"attributes":{"ID":23063,"DIS_CODE":0,"TOWNNAME":"北門區","LI":"玉港里","LIN":"13鄰","STREET":" ","SECT":" ","MAREA":"灰\u25A0港","LANE":" ","ALLEY":" ","HOUSE_NO":"１２９號之３１","E_COORD97":160868.67000000001,"N_COORD97":2572721.6499999999,"ADDRESS":"灰\u25A0港１２９號之３１","OBJECTID":23063},"geometry":{"x":160868.67000000086,"y":2572721.6500000004}},{"attributes":{"ID":23064,"DIS_CODE":0,"TOWNNAME":"永康區","LI":"建國里","LIN":"24鄰","STREET":"復興路","SECT":" ","MAREA":" ","LANE":" ","ALLEY":" ","HOUSE_NO":"９１號","E_COORD97":172836.67000000001,"N_COORD97":2544311.02,"ADDRESS":"復興路９１號","OBJECTID":23064},"geometry":{"x":172836.67000000179,"y":2544311.0199999996}},{"attributes":{"ID":23065,"DIS_CODE":0,"TOWNNAME":"北門區","LI":"玉港里","LIN":"13鄰","STREET":" ","SECT":" ","MAREA":"灰\u25A0港","LANE":" ","ALLEY":" ","HOUSE_NO":"１２９之３２號","E_COORD97":160867.92000000001,"N_COORD97":2572725.7599999998,"ADDRESS":"灰\u25A0港１２９之３２號","OBJECTID":23065},"geometry":{"x":160867.91999999993,"y":2572725.7600000016}},{"attributes":{"ID":23066,"DIS_CODE":0,"TOWNNAME":"北門區","LI":"玉港里","LIN":"13鄰","STREET":" ","SECT":" ","MAREA":"灰\u25A0港","LANE":" ","ALLEY":" ","HOUSE_NO":"１２９號之３２","E_COORD97":160867.92000000001,"N_COORD97":2572725.7599999998,"ADDRESS":"灰\u25A0港１２９號之３２","OBJECTID":23066},"geometry":{"x":160867.91999999993,"y":2572725.7600000016}},{"attributes":{"ID":23067,"DIS_CODE":0,"TOWNNAME":"永康區","LI":"西灣里","LIN":"24鄰","STREET":"永大路","SECT":"二段","MAREA":" ","LANE":" ","ALLEY":" ","HOUSE_NO":"３３１號","E_COORD97":174428.62,"N_COORD97":2545641.77,"ADDRESS":"永大路二段３３１號","OBJECTID":23067},"geometry":{"x":174428.62000000011,"y":2545641.7699999996}},{"attributes":{"ID":23068,"DIS_CODE":0,"TOWNNAME":"永康區","LI":"西灣里","LIN":"24鄰","STREET":"永大路","SECT":"二段","MAREA":" ","LANE":" ","ALLEY":" ","HOUSE_NO":"２８９號","E_COORD97":174403.04999999999,"N_COORD97":2545550.02,"ADDRESS":"永大路二段２８９號","OBJECTID":23068},"geometry":{"x":174403.04999999981,"y":2545550.0200000014}},{"attributes":{"ID":23069,"DIS_CODE":0,"TOWNNAME":"永康區","LI":"西灣里","LIN":"24鄰","STREET":"永大路","SECT":"二段","MAREA":" ","LANE":" ","ALLEY":" ","HOUSE_NO":"３０９號","E_COORD97":174413.69,"N_COORD97":2545593.2799999998,"ADDRESS":"永大路二段３０９號","OBJECTID":23069},"geometry":{"x":174413.69000000134,"y":2545593.2799999993}},{"attributes":{"ID":23070,"DIS_CODE":0,"TOWNNAME":"永康區","LI":"建國里","LIN":"24鄰","STREET":"復興路","SECT":" ","MAREA":" ","LANE":" ","ALLEY":" ","HOUSE_NO":"９５號","E_COORD97":172828.10000000001,"N_COORD97":2544311.4100000001,"ADDRESS":"復興路９５號","OBJECTID":23070},"geometry":{"x":172828.0999999987,"y":2544311.410000002}},{"attributes":{"ID":23071,"DIS_CODE":0,"TOWNNAME":"永康區","LI":"北灣里","LIN":"24鄰","STREET":"大灣路","SECT":" ","MAREA":" ","LANE":" ","ALLEY":" ","HOUSE_NO":"１１號","E_COORD97":175360.92999999999,"N_COORD97":2545931.8599999999,"ADDRESS":"大灣路１１號","OBJECTID":23071},"geometry":{"x":175360.93000000063,"y":2545931.8599999994}},{"attributes":{"ID":23072,"DIS_CODE":0,"TOWNNAME":"北門區","LI":"玉港里","LIN":"13鄰","STREET":" ","SECT":" ","MAREA":"灰\u25A0港","LANE":" ","ALLEY":" ","HOUSE_NO":"１２９之３３號","E_COORD97":160866.89999999999,"N_COORD97":2572729.6899999999,"ADDRESS":"灰\u25A0港１２９之３３號","OBJECTID":23072},"geometry":{"x":160866.90000000037,"y":2572729.6900000013}},{"attributes":{"ID":23073,"DIS_CODE":0,"TOWNNAME":"北門區","LI":"玉港里","LIN":"13鄰","STREET":" ","SECT":" ","MAREA":"灰\u25A0港","LANE":" ","ALLEY":" ","HOUSE_NO":"１２９之３５號","E_COORD97":160865.95000000001,"N_COORD97":2572733.96,"ADDRESS":"灰\u25A0港１２９之３５號","OBJECTID":23073},"geometry":{"x":160865.95000000112,"y":2572733.9600000009}},{"attributes":{"ID":23074,"DIS_CODE":0,"TOWNNAME":"北門區","LI":"玉港里","LIN":"13鄰","STREET":" ","SECT":" ","MAREA":"灰\u25A0港","LANE":" ","ALLEY":" ","HOUSE_NO":"１２９之３６號","E_COORD97":160865.10999999999,"N_COORD97":2572738.23,"ADDRESS":"灰\u25A0港１２９之３６號","OBJECTID":23074},"geometry":{"x":160865.11000000127,"y":2572738.2300000004}},{"attributes":{"ID":23075,"DIS_CODE":0,"TOWNNAME":"北門區","LI":"玉港里","LIN":"13鄰","STREET":" ","SECT":" ","MAREA":"灰\u25A0港","LANE":" ","ALLEY":" ","HOUSE_NO":"１２９號之３６","E_COORD97":160865.10999999999,"N_COORD97":2572738.23,"ADDRESS":"灰\u25A0港１２９號之３６","OBJECTID":23075},"geometry":{"x":160865.11000000127,"y":2572738.2300000004}},{"attributes":{"ID":23076,"DIS_CODE":0,"TOWNNAME":"北門區","LI":"玉港里","LIN":"13鄰","STREET":" ","SECT":" ","MAREA":"灰\u25A0港","LANE":" ","ALLEY":" ","HOUSE_NO":"１２９之３７號","E_COORD97":160864.63,"N_COORD97":2572741.5699999998,"ADDRESS":"灰\u25A0港１２９之３７號","OBJECTID":23076},"geometry":{"x":160864.62999999989,"y":2572741.5700000022}},{"attributes":{"ID":23077,"DIS_CODE":0,"TOWNNAME":"北門區","LI":"玉港里","LIN":"13鄰","STREET":" ","SECT":" ","MAREA":"灰\u25A0港","LANE":" ","ALLEY":" ","HOUSE_NO":"１２９之３８號","E_COORD97":160863.79999999999,"N_COORD97":2572745.8399999999,"ADDRESS":"灰\u25A0港１２９之３８號","OBJECTID":23077},"geometry":{"x":160863.79999999981,"y":2572745.8400000017}},{"attributes":{"ID":23078,"DIS_CODE":0,"TOWNNAME":"白河區","LI":"蓮潭里","LIN":"8鄰","STREET":" ","SECT":" ","MAREA":"蓮潭","LANE":" ","ALLEY":" ","HOUSE_NO":"８號","E_COORD97":188743.76000000001,"N_COORD97":2588544.8399999999,"ADDRESS":"蓮潭８號","OBJECTID":23078},"geometry":{"x":188743.76000000071,"y":2588544.8400000017}},{"attributes":{"ID":23079,"DIS_CODE":0,"TOWNNAME":"安南區","LI":"安西里","LIN":"14鄰","STREET":"安和路","SECT":"一段","MAREA":" ","LANE":"１５９巷","ALLEY":"１２１弄","HOUSE_NO":"８號","E_COORD97":169146.35999999999,"N_COORD97":2547979.3199999998,"ADDRESS":"安和路一段１５９巷１２１弄８號","OBJECTID":23079},"geometry":{"x":169146.36000000034,"y":2547979.3200000022}},{"attributes":{"ID":23080,"DIS_CODE":0,"TOWNNAME":"安南區","LI":"安西里","LIN":"14鄰","STREET":"安和路","SECT":"一段","MAREA":" ","LANE":"１５９巷","ALLEY":"１２１弄","HOUSE_NO":"１０號","E_COORD97":169141.66,"N_COORD97":2547978.54,"ADDRESS":"安和路一段１５９巷１２１弄１０號","OBJECTID":23080},"geometry":{"x":169141.66000000108,"y":2547978.5399999991}},{"attributes":{"ID":23081,"DIS_CODE":0,"TOWNNAME":"安南區","LI":"安西里","LIN":"14鄰","STREET":"安和路","SECT":"一段","MAREA":" ","LANE":"１５９巷","ALLEY":"１２１弄","HOUSE_NO":"１２號","E_COORD97":169137.75,"N_COORD97":2547977.75,"ADDRESS":"安和路一段１５９巷１２１弄１２號","OBJECTID":23081},"geometry":{"x":169137.75000000093,"y":2547977.75}},{"attributes":{"ID":23082,"DIS_CODE":0,"TOWNNAME":"安南區","LI":"安西里","LIN":"14鄰","STREET":"安和路","SECT":"一段","MAREA":" ","LANE":"１５９巷","ALLEY":"１２１弄","HOUSE_NO":"１４號","E_COORD97":169132.66,"N_COORD97":2547977.75,"ADDRESS":"安和路一段１５９巷１２１弄１４號","OBJECTID":23082},"geometry":{"x":169132.66000000015,"y":2547977.75}},{"attributes":{"ID":23083,"DIS_CODE":0,"TOWNNAME":"安南區","LI":"安西里","LIN":"14鄰","STREET":"安和路","SECT":"一段","MAREA":" ","LANE":"１５９巷","ALLEY":"１２１弄","HOUSE_NO":"１６號","E_COORD97":169128.35000000001,"N_COORD97":2547976.1899999999,"ADDRESS":"安和路一段１５９巷１２１弄１６號","OBJECTID":23083},"geometry":{"x":169128.35000000056,"y":2547976.1900000013}},{"attributes":{"ID":23084,"DIS_CODE":0,"TOWNNAME":"楠西區","LI":"灣丘里","LIN":"14鄰","STREET":" ","SECT":" ","MAREA":"鳳興","LANE":" ","ALLEY":" ","HOUSE_NO":"２４號","E_COORD97":198671.37,"N_COORD97":2562632.25,"ADDRESS":"鳳興２４號","OBJECTID":23084},"geometry":{"x":198671.37000000011,"y":2562632.2500000037}},{"attributes":{"ID":23085,"DIS_CODE":0,"TOWNNAME":"安南區","LI":"安西里","LIN":"14鄰","STREET":"安和路","SECT":"一段","MAREA":" ","LANE":"１５９巷","ALLEY":"１２１弄","HOUSE_NO":"１８號","E_COORD97":169124.44,"N_COORD97":2547974.2400000002,"ADDRESS":"安和路一段１５９巷１２１弄１８號","OBJECTID":23085},"geometry":{"x":169124.44000000227,"y":2547974.2400000021}},{"attributes":{"ID":23086,"DIS_CODE":0,"TOWNNAME":"安南區","LI":"安西里","LIN":"14鄰","STREET":"安和路","SECT":"一段","MAREA":" ","LANE":"１５９巷","ALLEY":"１２１弄","HOUSE_NO":"２號","E_COORD97":169159.66,"N_COORD97":2547982.4399999999,"ADDRESS":"安和路一段１５９巷１２１弄２號","OBJECTID":23086},"geometry":{"x":169159.66000000015,"y":2547982.4399999995}},{"attributes":{"ID":23087,"DIS_CODE":0,"TOWNNAME":"安南區","LI":"安西里","LIN":"14鄰","STREET":"安和路","SECT":"一段","MAREA":" ","LANE":"１５９巷","ALLEY":"１２１弄","HOUSE_NO":"６號","E_COORD97":169150.66,"N_COORD97":2547980.8799999999,"ADDRESS":"安和路一段１５９巷１２１弄６號","OBJECTID":23087},"geometry":{"x":169150.66000000108,"y":2547980.8800000008}},{"attributes":{"ID":23088,"DIS_CODE":0,"TOWNNAME":"安南區","LI":"安西里","LIN":"14鄰","STREET":"安和路","SECT":"一段","MAREA":" ","LANE":"１５９巷","ALLEY":"７５弄","HOUSE_NO":"２號","E_COORD97":169177.66,"N_COORD97":2547841.98,"ADDRESS":"安和路一段１５９巷７５弄２號","OBJECTID":23088},"geometry":{"x":169177.66000000108,"y":2547841.9800000004}},{"attributes":{"ID":23089,"DIS_CODE":0,"TOWNNAME":"安南區","LI":"安西里","LIN":"14鄰","STREET":"安和路","SECT":"一段","MAREA":" ","LANE":"１５９巷","ALLEY":"７５弄","HOUSE_NO":"４號","E_COORD97":169173.75,"N_COORD97":2547840.4199999999,"ADDRESS":"安和路一段１５９巷７５弄４號","OBJECTID":23089},"geometry":{"x":169173.75,"y":2547840.4200000018}},{"attributes":{"ID":23090,"DIS_CODE":0,"TOWNNAME":"安南區","LI":"安西里","LIN":"14鄰","STREET":"安和路","SECT":"一段","MAREA":" ","LANE":"１５９巷","ALLEY":"７５弄","HOUSE_NO":"８號","E_COORD97":169165.14000000001,"N_COORD97":2547835.3399999999,"ADDRESS":"安和路一段１５９巷７５弄８號","OBJECTID":23090},"geometry":{"x":169165.1400000006,"y":2547835.3399999999}},{"attributes":{"ID":23091,"DIS_CODE":0,"TOWNNAME":"安南區","LI":"安西里","LIN":"14鄰","STREET":"安和路","SECT":"一段","MAREA":" ","LANE":"１５９巷","ALLEY":"７６弄","HOUSE_NO":"１號","E_COORD97":169217.85000000001,"N_COORD97":2547876.71,"ADDRESS":"安和路一段１５９巷７６弄１號","OBJECTID":23091},"geometry":{"x":169217.85000000056,"y":2547876.7100000028}},{"attributes":{"ID":23092,"DIS_CODE":0,"TOWNNAME":"北門區","LI":"玉港里","LIN":"13鄰","STREET":" ","SECT":" ","MAREA":"灰\u25A0港","LANE":" ","ALLEY":" ","HOUSE_NO":"１２９之３９號","E_COORD97":160862.82999999999,"N_COORD97":2572750.21,"ADDRESS":"灰\u25A0港１２９之３９號","OBJECTID":23092},"geometry":{"x":160862.83000000101,"y":2572750.209999999}},{"attributes":{"ID":23093,"DIS_CODE":0,"TOWNNAME":"北門區","LI":"玉港里","LIN":"13鄰","STREET":" ","SECT":" ","MAREA":"灰\u25A0港","LANE":" ","ALLEY":" ","HOUSE_NO":"１２９號之３９","E_COORD97":160862.82999999999,"N_COORD97":2572750.21,"ADDRESS":"灰\u25A0港１２９號之３９","OBJECTID":23093},"geometry":{"x":160862.83000000101,"y":2572750.209999999}},{"attributes":{"ID":23094,"DIS_CODE":0,"TOWNNAME":"北門區","LI":"玉港里","LIN":"13鄰","STREET":" ","SECT":" ","MAREA":"灰\u25A0港","LANE":" ","ALLEY":" ","HOUSE_NO":"１２９之４號","E_COORD97":160956.10000000001,"N_COORD97":2572550.6899999999,"ADDRESS":"灰\u25A0港１２９之４號","OBJECTID":23094},"geometry":{"x":160956.09999999963,"y":2572550.6900000013}},{"attributes":{"ID":23095,"DIS_CODE":0,"TOWNNAME":"北門區","LI":"玉港里","LIN":"13鄰","STREET":" ","SECT":" ","MAREA":"灰\u25A0港","LANE":" ","ALLEY":" ","HOUSE_NO":"１３０號","E_COORD97":161495.94,"N_COORD97":2573605.96,"ADDRESS":"灰\u25A0港１３０號","OBJECTID":23095},"geometry":{"x":161495.94000000041,"y":2573605.9600000009}},{"attributes":{"ID":23096,"DIS_CODE":0,"TOWNNAME":"安南區","LI":"安西里","LIN":"14鄰","STREET":"安和路","SECT":"一段","MAREA":" ","LANE":"１５９巷","ALLEY":"７６弄","HOUSE_NO":"３號","E_COORD97":169221.76999999999,"N_COORD97":2547881.0099999998,"ADDRESS":"安和路一段１５９巷７６弄３號","OBJECTID":23096},"geometry":{"x":169221.77000000048,"y":2547881.0099999998}},{"attributes":{"ID":23097,"DIS_CODE":0,"TOWNNAME":"安南區","LI":"安西里","LIN":"14鄰","STREET":"安和路","SECT":"一段","MAREA":" ","LANE":"１５９巷","ALLEY":"７６弄","HOUSE_NO":"５號","E_COORD97":169225.29000000001,"N_COORD97":2547884.1400000001,"ADDRESS":"安和路一段１５９巷７６弄５號","OBJECTID":23097},"geometry":{"x":169225.29000000097,"y":2547884.1400000006}},{"attributes":{"ID":23098,"DIS_CODE":0,"TOWNNAME":"安南區","LI":"安西里","LIN":"14鄰","STREET":"安和路","SECT":"一段","MAREA":" ","LANE":"１５９巷","ALLEY":"８５弄","HOUSE_NO":"１５號","E_COORD97":169151.82999999999,"N_COORD97":2547864.1899999999,"ADDRESS":"安和路一段１５９巷８５弄１５號","OBJECTID":23098},"geometry":{"x":169151.83000000007,"y":2547864.1900000013}},{"attributes":{"ID":23099,"DIS_CODE":0,"TOWNNAME":"安南區","LI":"安西里","LIN":"14鄰","STREET":"安和路","SECT":"一段","MAREA":" ","LANE":"１５９巷","ALLEY":"８５弄","HOUSE_NO":"１９號","E_COORD97":169143.22,"N_COORD97":2547862.23,"ADDRESS":"安和路一段１５９巷８５弄１９號","OBJECTID":23099},"geometry":{"x":169143.21999999974,"y":2547862.2300000023}},{"attributes":{"ID":23100,"DIS_CODE":0,"TOWNNAME":"安南區","LI":"安西里","LIN":"14鄰","STREET":"安和路","SECT":"一段","MAREA":" ","LANE":"１５９巷","ALLEY":"８５弄","HOUSE_NO":"１號","E_COORD97":169180.79000000001,"N_COORD97":2547867.7000000002,"ADDRESS":"安和路一段１５９巷８５弄１號","OBJECTID":23100},"geometry":{"x":169180.79000000004,"y":2547867.7000000011}},{"attributes":{"ID":23101,"DIS_CODE":0,"TOWNNAME":"安南區","LI":"安西里","LIN":"14鄰","STREET":"安和路","SECT":"一段","MAREA":" ","LANE":"１５９巷","ALLEY":"８５弄","HOUSE_NO":"３號","E_COORD97":169176.10000000001,"N_COORD97":2547868.8799999999,"ADDRESS":"安和路一段１５９巷８５弄３號","OBJECTID":23101},"geometry":{"x":169176.09999999963,"y":2547868.8800000027}},{"attributes":{"ID":23102,"DIS_CODE":0,"TOWNNAME":"安南區","LI":"安西里","LIN":"14鄰","STREET":"安和路","SECT":"一段","MAREA":" ","LANE":"１５９巷","ALLEY":"８５弄","HOUSE_NO":"５號","E_COORD97":169172.17999999999,"N_COORD97":2547868.1000000001,"ADDRESS":"安和路一段１５９巷８５弄５號","OBJECTID":23102},"geometry":{"x":169172.1799999997,"y":2547868.1000000034}},{"attributes":{"ID":23103,"DIS_CODE":0,"TOWNNAME":"北門區","LI":"玉港里","LIN":"13鄰","STREET":" ","SECT":" ","MAREA":"灰\u25A0港","LANE":" ","ALLEY":" ","HOUSE_NO":"１３１號","E_COORD97":161495.85999999999,"N_COORD97":2573593.5699999998,"ADDRESS":"灰\u25A0港１３１號","OBJECTID":23103},"geometry":{"x":161495.86000000034,"y":2573593.5700000003}},{"attributes":{"ID":23104,"DIS_CODE":0,"TOWNNAME":"安南區","LI":"安西里","LIN":"14鄰","STREET":"安和路","SECT":"一段","MAREA":" ","LANE":"１５９巷","ALLEY":"８５弄","HOUSE_NO":"７號","E_COORD97":169168.66,"N_COORD97":2547866.9199999999,"ADDRESS":"安和路一段１５９巷８５弄７號","OBJECTID":23104},"geometry":{"x":169168.66000000108,"y":2547866.9200000018}},{"attributes":{"ID":23105,"DIS_CODE":0,"TOWNNAME":"安南區","LI":"安和里","LIN":"14鄰","STREET":"安和路","SECT":"一段","MAREA":" ","LANE":"９６巷","ALLEY":"４２弄","HOUSE_NO":"１０號","E_COORD97":169610.01999999999,"N_COORD97":2547664.5099999998,"ADDRESS":"安和路一段９６巷４２弄１０號","OBJECTID":23105},"geometry":{"x":169610.02000000048,"y":2547664.5099999998}},{"attributes":{"ID":23106,"DIS_CODE":0,"TOWNNAME":"安南區","LI":"安和里","LIN":"14鄰","STREET":"安和路","SECT":"一段","MAREA":" ","LANE":"９６巷","ALLEY":"４２弄","HOUSE_NO":"１１號","E_COORD97":169625.37,"N_COORD97":2547678.6299999999,"ADDRESS":"安和路一段９６巷４２弄１１號","OBJECTID":23106},"geometry":{"x":169625.37000000104,"y":2547678.6300000008}},{"attributes":{"ID":23107,"DIS_CODE":0,"TOWNNAME":"安南區","LI":"安和里","LIN":"14鄰","STREET":"安和路","SECT":"一段","MAREA":" ","LANE":"９６巷","ALLEY":"４２弄","HOUSE_NO":"１２號","E_COORD97":169615.44,"N_COORD97":2547660.2999999998,"ADDRESS":"安和路一段９６巷４２弄１２號","OBJECTID":23107},"geometry":{"x":169615.44000000041,"y":2547660.3000000007}},{"attributes":{"ID":23108,"DIS_CODE":0,"TOWNNAME":"安南區","LI":"安和里","LIN":"14鄰","STREET":"安和路","SECT":"一段","MAREA":" ","LANE":"９６巷","ALLEY":"４２弄","HOUSE_NO":"１３號","E_COORD97":169631.14999999999,"N_COORD97":2547675.8199999998,"ADDRESS":"安和路一段９６巷４２弄１３號","OBJECTID":23108},"geometry":{"x":169631.15000000037,"y":2547675.8200000003}},{"attributes":{"ID":23109,"DIS_CODE":0,"TOWNNAME":"安南區","LI":"安和里","LIN":"14鄰","STREET":"安和路","SECT":"一段","MAREA":" ","LANE":"９６巷","ALLEY":"４２弄","HOUSE_NO":"１４號","E_COORD97":169620.25,"N_COORD97":2547657.29,"ADDRESS":"安和路一段９６巷４２弄１４號","OBJECTID":23109},"geometry":{"x":169620.25000000186,"y":2547657.290000001}},{"attributes":{"ID":23110,"DIS_CODE":0,"TOWNNAME":"安南區","LI":"安和里","LIN":"14鄰","STREET":"安和路","SECT":"一段","MAREA":" ","LANE":"９６巷","ALLEY":"４２弄","HOUSE_NO":"１５號","E_COORD97":169636.04000000001,"N_COORD97":2547672.5600000001,"ADDRESS":"安和路一段９６巷４２弄１５號","OBJECTID":23110},"geometry":{"x":169636.04000000097,"y":2547672.5600000042}},{"attributes":{"ID":23111,"DIS_CODE":0,"TOWNNAME":"安南區","LI":"安和里","LIN":"14鄰","STREET":"安和路","SECT":"一段","MAREA":" ","LANE":"９６巷","ALLEY":"４２弄","HOUSE_NO":"１７號","E_COORD97":169640.92000000001,"N_COORD97":2547669.3100000001,"ADDRESS":"安和路一段９６巷４２弄１７號","OBJECTID":23111},"geometry":{"x":169640.91999999993,"y":2547669.3100000005}},{"attributes":{"ID":23112,"DIS_CODE":0,"TOWNNAME":"安南區","LI":"安和里","LIN":"14鄰","STREET":"安和路","SECT":"一段","MAREA":" ","LANE":"９６巷","ALLEY":"４２弄","HOUSE_NO":"１８號","E_COORD97":169630.5,"N_COORD97":2547650.1099999999,"ADDRESS":"安和路一段９６巷４２弄１８號","OBJECTID":23112},"geometry":{"x":169630.50000000186,"y":2547650.1099999994}},{"attributes":{"ID":23113,"DIS_CODE":0,"TOWNNAME":"安南區","LI":"安和里","LIN":"14鄰","STREET":"安和路","SECT":"一段","MAREA":" ","LANE":"９６巷","ALLEY":"４２弄","HOUSE_NO":"１９號","E_COORD97":169646.14000000001,"N_COORD97":2547664.4300000002,"ADDRESS":"安和路一段９６巷４２弄１９號","OBJECTID":23113},"geometry":{"x":169646.14000000153,"y":2547664.4299999997}},{"attributes":{"ID":23114,"DIS_CODE":0,"TOWNNAME":"安定區","LI":"安定里","LIN":"8鄰","STREET":" ","SECT":" ","MAREA":"安定","LANE":" ","ALLEY":" ","HOUSE_NO":"５８號之２６","E_COORD97":171936.35999999999,"N_COORD97":2558080.3199999998,"ADDRESS":"安定５８號之２６","OBJECTID":23114},"geometry":{"x":171936.36000000127,"y":2558080.3200000022}},{"attributes":{"ID":23115,"DIS_CODE":0,"TOWNNAME":"安南區","LI":"安和里","LIN":"14鄰","STREET":"安和路","SECT":"一段","MAREA":" ","LANE":"９６巷","ALLEY":"４２弄","HOUSE_NO":"１號","E_COORD97":169600.51000000001,"N_COORD97":2547696.4399999999,"ADDRESS":"安和路一段９６巷４２弄１號","OBJECTID":23115},"geometry":{"x":169600.51000000071,"y":2547696.4400000013}},{"attributes":{"ID":23116,"DIS_CODE":0,"TOWNNAME":"安南區","LI":"安和里","LIN":"14鄰","STREET":"安和路","SECT":"一段","MAREA":" ","LANE":"９６巷","ALLEY":"４２弄","HOUSE_NO":"２０號","E_COORD97":169636.04000000001,"N_COORD97":2547646.5299999998,"ADDRESS":"安和路一段９６巷４２弄２０號","OBJECTID":23116},"geometry":{"x":169636.04000000097,"y":2547646.5299999993}},{"attributes":{"ID":23117,"DIS_CODE":0,"TOWNNAME":"安南區","LI":"安和里","LIN":"14鄰","STREET":"安和路","SECT":"一段","MAREA":" ","LANE":"９６巷","ALLEY":"４２弄","HOUSE_NO":"２３號","E_COORD97":169655.57999999999,"N_COORD97":2547657.5899999999,"ADDRESS":"安和路一段９６巷４２弄２３號","OBJECTID":23117},"geometry":{"x":169655.58000000194,"y":2547657.5899999999}},{"attributes":{"ID":23118,"DIS_CODE":0,"TOWNNAME":"安南區","LI":"安和里","LIN":"14鄰","STREET":"安和路","SECT":"一段","MAREA":" ","LANE":"９６巷","ALLEY":"４２弄","HOUSE_NO":"２４號","E_COORD97":169646.14000000001,"N_COORD97":2547639.0499999998,"ADDRESS":"安和路一段９６巷４２弄２４號","OBJECTID":23118},"geometry":{"x":169646.14000000153,"y":2547639.0500000045}},{"attributes":{"ID":23119,"DIS_CODE":0,"TOWNNAME":"安南區","LI":"安和里","LIN":"14鄰","STREET":"安和路","SECT":"一段","MAREA":" ","LANE":"９６巷","ALLEY":"４２弄","HOUSE_NO":"２５號","E_COORD97":169661.12,"N_COORD97":2547653.6899999999,"ADDRESS":"安和路一段９６巷４２弄２５號","OBJECTID":23119},"geometry":{"x":169661.12000000104,"y":2547653.6900000032}},{"attributes":{"ID":23120,"DIS_CODE":0,"TOWNNAME":"安南區","LI":"安和里","LIN":"14鄰","STREET":"安和路","SECT":"一段","MAREA":" ","LANE":"９６巷","ALLEY":"４２弄","HOUSE_NO":"２６號","E_COORD97":169652,"N_COORD97":2547636.4399999999,"ADDRESS":"安和路一段９６巷４２弄２６號","OBJECTID":23120},"geometry":{"x":169652,"y":2547636.4400000013}},{"attributes":{"ID":23121,"DIS_CODE":0,"TOWNNAME":"北門區","LI":"玉港里","LIN":"13鄰","STREET":" ","SECT":" ","MAREA":"灰\u25A0港","LANE":" ","ALLEY":" ","HOUSE_NO":"１３２號","E_COORD97":161442.45000000001,"N_COORD97":2573530.1499999999,"ADDRESS":"灰\u25A0港１３２號","OBJECTID":23121},"geometry":{"x":161442.45000000019,"y":2573530.1500000041}},{"attributes":{"ID":23122,"DIS_CODE":0,"TOWNNAME":"北門區","LI":"玉港里","LIN":"13鄰","STREET":" ","SECT":" ","MAREA":"灰\u25A0港","LANE":" ","ALLEY":" ","HOUSE_NO":"１３３號","E_COORD97":161441.85000000001,"N_COORD97":2573511.9199999999,"ADDRESS":"灰\u25A0港１３３號","OBJECTID":23122},"geometry":{"x":161441.85000000056,"y":2573511.9200000018}},{"attributes":{"ID":23123,"DIS_CODE":0,"TOWNNAME":"北門區","LI":"玉港里","LIN":"13鄰","STREET":" ","SECT":" ","MAREA":"灰\u25A0港","LANE":" ","ALLEY":" ","HOUSE_NO":"１３４號","E_COORD97":161463.19,"N_COORD97":2573489.8599999999,"ADDRESS":"灰\u25A0港１３４號","OBJECTID":23123},"geometry":{"x":161463.19000000041,"y":2573489.8599999994}},{"attributes":{"ID":23124,"DIS_CODE":0,"TOWNNAME":"北門區","LI":"玉港里","LIN":"13鄰","STREET":" ","SECT":" ","MAREA":"灰\u25A0港","LANE":" ","ALLEY":" ","HOUSE_NO":"１３５號","E_COORD97":161440.87,"N_COORD97":2573492.4100000001,"ADDRESS":"灰\u25A0港１３５號","OBJECTID":23124},"geometry":{"x":161440.87000000104,"y":2573492.410000002}},{"attributes":{"ID":23125,"DIS_CODE":0,"TOWNNAME":"北門區","LI":"玉港里","LIN":"13鄰","STREET":" ","SECT":" ","MAREA":"灰\u25A0港","LANE":" ","ALLEY":" ","HOUSE_NO":"１３８之２０號","E_COORD97":161636.12,"N_COORD97":2573687.27,"ADDRESS":"灰\u25A0港１３８之２０號","OBJECTID":23125},"geometry":{"x":161636.12000000104,"y":2573687.2699999996}},{"attributes":{"ID":23126,"DIS_CODE":0,"TOWNNAME":"北門區","LI":"玉港里","LIN":"13鄰","STREET":" ","SECT":" ","MAREA":"灰\u25A0港","LANE":" ","ALLEY":" ","HOUSE_NO":"１３８號之２０","E_COORD97":161636.12,"N_COORD97":2573687.27,"ADDRESS":"灰\u25A0港１３８號之２０","OBJECTID":23126},"geometry":{"x":161636.12000000104,"y":2573687.2699999996}},{"attributes":{"ID":23127,"DIS_CODE":0,"TOWNNAME":"北門區","LI":"玉港里","LIN":"13鄰","STREET":" ","SECT":" ","MAREA":"灰\u25A0港","LANE":" ","ALLEY":" ","HOUSE_NO":"１３８號","E_COORD97":161332.54000000001,"N_COORD97":2573470.3799999999,"ADDRESS":"灰\u25A0港１３８號","OBJECTID":23127},"geometry":{"x":161332.54000000097,"y":2573470.3800000008}},{"attributes":{"ID":23128,"DIS_CODE":0,"TOWNNAME":"官田區","LI":"社子里","LIN":"13鄰","STREET":" ","SECT":" ","MAREA":"六\u25A0","LANE":" ","ALLEY":" ","HOUSE_NO":"１７號","E_COORD97":185303.20999999999,"N_COORD97":2562910.9900000002,"ADDRESS":"六\u25A0１７號","OBJECTID":23128},"geometry":{"x":185303.21000000089,"y":2562910.9900000002}},{"attributes":{"ID":23129,"DIS_CODE":0,"TOWNNAME":"官田區","LI":"社子里","LIN":"13鄰","STREET":" ","SECT":" ","MAREA":"六\u25A0","LANE":" ","ALLEY":" ","HOUSE_NO":"１８號之１","E_COORD97":185323.20000000001,"N_COORD97":2562916.6800000002,"ADDRESS":"六\u25A0１８號之１","OBJECTID":23129},"geometry":{"x":185323.20000000019,"y":2562916.6799999997}},{"attributes":{"ID":23130,"DIS_CODE":0,"TOWNNAME":"官田區","LI":"社子里","LIN":"13鄰","STREET":" ","SECT":" ","MAREA":"六\u25A0","LANE":" ","ALLEY":" ","HOUSE_NO":"１８號之２","E_COORD97":185356.47,"N_COORD97":2562925.3100000001,"ADDRESS":"六\u25A0１８號之２","OBJECTID":23130},"geometry":{"x":185356.46999999974,"y":2562925.3100000024}},{"attributes":{"ID":23131,"DIS_CODE":0,"TOWNNAME":"官田區","LI":"社子里","LIN":"13鄰","STREET":" ","SECT":" ","MAREA":"六\u25A0","LANE":" ","ALLEY":" ","HOUSE_NO":"１８號","E_COORD97":185337.98999999999,"N_COORD97":2562933.46,"ADDRESS":"六\u25A0１８號","OBJECTID":23131},"geometry":{"x":185337.99000000022,"y":2562933.459999999}},{"attributes":{"ID":23132,"DIS_CODE":0,"TOWNNAME":"官田區","LI":"社子里","LIN":"13鄰","STREET":" ","SECT":" ","MAREA":"六\u25A0","LANE":" ","ALLEY":" ","HOUSE_NO":"１９號","E_COORD97":185349.54999999999,"N_COORD97":2562965.2599999998,"ADDRESS":"六\u25A0１９號","OBJECTID":23132},"geometry":{"x":185349.55000000168,"y":2562965.2600000016}},{"attributes":{"ID":23133,"DIS_CODE":0,"TOWNNAME":"官田區","LI":"社子里","LIN":"13鄰","STREET":" ","SECT":" ","MAREA":"六\u25A0","LANE":" ","ALLEY":" ","HOUSE_NO":"２０號之１３","E_COORD97":185311.23000000001,"N_COORD97":2562954.29,"ADDRESS":"六\u25A0２０號之１３","OBJECTID":23133},"geometry":{"x":185311.23000000045,"y":2562954.290000001}},{"attributes":{"ID":23134,"DIS_CODE":0,"TOWNNAME":"官田區","LI":"社子里","LIN":"13鄰","STREET":" ","SECT":" ","MAREA":"六\u25A0","LANE":" ","ALLEY":" ","HOUSE_NO":"２０號之１","E_COORD97":185316.73999999999,"N_COORD97":2562989.7200000002,"ADDRESS":"六\u25A0２０號之１","OBJECTID":23134},"geometry":{"x":185316.74000000115,"y":2562989.7200000025}},{"attributes":{"ID":23135,"DIS_CODE":0,"TOWNNAME":"佳里區","LI":"建南里","LIN":"24鄰","STREET":"成功路","SECT":" ","MAREA":" ","LANE":" ","ALLEY":" ","HOUSE_NO":"２３３號","E_COORD97":165358.76000000001,"N_COORD97":2561068.2799999998,"ADDRESS":"成功路２３３號","OBJECTID":23135},"geometry":{"x":165358.76000000071,"y":2561068.2799999975}},{"attributes":{"ID":23136,"DIS_CODE":0,"TOWNNAME":"七股區","LI":"大潭里","LIN":"24鄰","STREET":" ","SECT":" ","MAREA":"頂潭","LANE":" ","ALLEY":" ","HOUSE_NO":"６２號之１","E_COORD97":161486.63,"N_COORD97":2565537.1600000001,"ADDRESS":"頂潭６２號之１","OBJECTID":23136},"geometry":{"x":161486.63000000082,"y":2565537.1600000001}},{"attributes":{"ID":23137,"DIS_CODE":0,"TOWNNAME":"七股區","LI":"大潭里","LIN":"24鄰","STREET":" ","SECT":" ","MAREA":"頂潭","LANE":" ","ALLEY":" ","HOUSE_NO":"６２號","E_COORD97":161473.35000000001,"N_COORD97":2565547.46,"ADDRESS":"頂潭６２號","OBJECTID":23137},"geometry":{"x":161473.34999999963,"y":2565547.4600000046}},{"attributes":{"ID":23138,"DIS_CODE":0,"TOWNNAME":"七股區","LI":"大潭里","LIN":"24鄰","STREET":" ","SECT":" ","MAREA":"頂潭","LANE":" ","ALLEY":" ","HOUSE_NO":"６５號","E_COORD97":161475.89999999999,"N_COORD97":2565440.6200000001,"ADDRESS":"頂潭６５號","OBJECTID":23138},"geometry":{"x":161475.89999999944,"y":2565440.620000001}},{"attributes":{"ID":23139,"DIS_CODE":0,"TOWNNAME":"七股區","LI":"大潭里","LIN":"24鄰","STREET":" ","SECT":" ","MAREA":"頂潭","LANE":" ","ALLEY":" ","HOUSE_NO":"６６號","E_COORD97":161456.57999999999,"N_COORD97":2565440.27,"ADDRESS":"頂潭６６號","OBJECTID":23139},"geometry":{"x":161456.58000000101,"y":2565440.2700000014}},{"attributes":{"ID":23140,"DIS_CODE":0,"TOWNNAME":"官田區","LI":"社子里","LIN":"13鄰","STREET":" ","SECT":" ","MAREA":"六\u25A0","LANE":" ","ALLEY":" ","HOUSE_NO":"２６號","E_COORD97":185421.22,"N_COORD97":2562939.98,"ADDRESS":"六\u25A0２６號","OBJECTID":23140},"geometry":{"x":185421.2200000016,"y":2562939.9800000042}},{"attributes":{"ID":23141,"DIS_CODE":0,"TOWNNAME":"官田區","LI":"社子里","LIN":"13鄰","STREET":" ","SECT":" ","MAREA":"六\u25A0","LANE":" ","ALLEY":" ","HOUSE_NO":"２７號","E_COORD97":185426.28,"N_COORD97":2562940.5299999998,"ADDRESS":"六\u25A0２７號","OBJECTID":23141},"geometry":{"x":185426.28000000212,"y":2562940.5299999993}},{"attributes":{"ID":23142,"DIS_CODE":0,"TOWNNAME":"大內區","LI":"頭社里","LIN":"8鄰","STREET":" ","SECT":" ","MAREA":"頭社","LANE":" ","ALLEY":" ","HOUSE_NO":"８４之３５號","E_COORD97":186122.70000000001,"N_COORD97":2560185.3199999998,"ADDRESS":"頭社８４之３５號","OBJECTID":23142},"geometry":{"x":186122.70000000019,"y":2560185.3200000022}},{"attributes":{"ID":23143,"DIS_CODE":0,"TOWNNAME":"善化區","LI":"溪美里","LIN":"8鄰","STREET":" ","SECT":" ","MAREA":"溪尾","LANE":" ","ALLEY":" ","HOUSE_NO":"７９號之１","E_COORD97":176725.13,"N_COORD97":2561270.52,"ADDRESS":"溪尾７９號之１","OBJECTID":23143},"geometry":{"x":176725.12999999989,"y":2561270.5200000033}},{"attributes":{"ID":23144,"DIS_CODE":0,"TOWNNAME":"善化區","LI":"嘉北里","LIN":"8鄰","STREET":" ","SECT":" ","MAREA":"茄拔","LANE":" ","ALLEY":" ","HOUSE_NO":"１７９號之５","E_COORD97":181053.57000000001,"N_COORD97":2560018.02,"ADDRESS":"茄拔１７９號之５","OBJECTID":23144},"geometry":{"x":181053.5700000003,"y":2560018.0199999996}},{"attributes":{"ID":23145,"DIS_CODE":0,"TOWNNAME":"善化區","LI":"溪美里","LIN":"8鄰","STREET":" ","SECT":" ","MAREA":"溪尾","LANE":" ","ALLEY":" ","HOUSE_NO":"８２號","E_COORD97":176686.35000000001,"N_COORD97":2561369.27,"ADDRESS":"溪尾８２號","OBJECTID":23145},"geometry":{"x":176686.3499999987,"y":2561369.2699999996}},{"attributes":{"ID":23146,"DIS_CODE":0,"TOWNNAME":"善化區","LI":"東隆里","LIN":"8鄰","STREET":" ","SECT":" ","MAREA":"東勢寮","LANE":" ","ALLEY":" ","HOUSE_NO":"２０２之１３號","E_COORD97":179598.03,"N_COORD97":2561669.27,"ADDRESS":"東勢寮２０２之１３號","OBJECTID":23146},"geometry":{"x":179598.03000000026,"y":2561669.2700000014}},{"attributes":{"ID":23147,"DIS_CODE":0,"TOWNNAME":"善化區","LI":"東昌里","LIN":"8鄰","STREET":" ","SECT":" ","MAREA":"東勢寮","LANE":" ","ALLEY":" ","HOUSE_NO":"８１號之８","E_COORD97":180396.38,"N_COORD97":2561894.27,"ADDRESS":"東勢寮８１號之８","OBJECTID":23147},"geometry":{"x":180396.38000000082,"y":2561894.2700000014}},{"attributes":{"ID":23148,"DIS_CODE":0,"TOWNNAME":"善化區","LI":"溪美里","LIN":"8鄰","STREET":" ","SECT":" ","MAREA":"溪尾","LANE":" ","ALLEY":" ","HOUSE_NO":"７９號之２","E_COORD97":176720.45000000001,"N_COORD97":2561269.02,"ADDRESS":"溪尾７９號之２","OBJECTID":23148},"geometry":{"x":176720.45000000112,"y":2561269.0199999996}},{"attributes":{"ID":23149,"DIS_CODE":0,"TOWNNAME":"善化區","LI":"東隆里","LIN":"8鄰","STREET":" ","SECT":" ","MAREA":"東勢寮","LANE":" ","ALLEY":" ","HOUSE_NO":"２０１之５號","E_COORD97":179801.42000000001,"N_COORD97":2561720.02,"ADDRESS":"東勢寮２０１之５號","OBJECTID":23149},"geometry":{"x":179801.41999999993,"y":2561720.0199999996}},{"attributes":{"ID":23150,"DIS_CODE":0,"TOWNNAME":"善化區","LI":"嘉北里","LIN":"8鄰","STREET":" ","SECT":" ","MAREA":"茄拔","LANE":" ","ALLEY":" ","HOUSE_NO":"１７８號之１","E_COORD97":181052.07999999999,"N_COORD97":2560004.02,"ADDRESS":"茄拔１７８號之１","OBJECTID":23150},"geometry":{"x":181052.07999999914,"y":2560004.0200000014}},{"attributes":{"ID":23151,"DIS_CODE":0,"TOWNNAME":"善化區","LI":"嘉北里","LIN":"8鄰","STREET":" ","SECT":" ","MAREA":"茄拔","LANE":" ","ALLEY":" ","HOUSE_NO":"１８０號之２","E_COORD97":181135.01000000001,"N_COORD97":2560015.52,"ADDRESS":"茄拔１８０號之２","OBJECTID":23151},"geometry":{"x":181135.00999999978,"y":2560015.5199999996}},{"attributes":{"ID":23152,"DIS_CODE":0,"TOWNNAME":"善化區","LI":"溪美里","LIN":"8鄰","STREET":" ","SECT":" ","MAREA":"溪尾","LANE":" ","ALLEY":" ","HOUSE_NO":"７６號","E_COORD97":176653.32000000001,"N_COORD97":2561357.77,"ADDRESS":"溪尾７６號","OBJECTID":23152},"geometry":{"x":176653.3200000003,"y":2561357.7700000014}},{"attributes":{"ID":23153,"DIS_CODE":0,"TOWNNAME":"善化區","LI":"溪美里","LIN":"8鄰","STREET":" ","SECT":" ","MAREA":"溪尾","LANE":" ","ALLEY":" ","HOUSE_NO":"７２號之２４","E_COORD97":176043.17999999999,"N_COORD97":2561237.77,"ADDRESS":"溪尾７２號之２４","OBJECTID":23153},"geometry":{"x":176043.1799999997,"y":2561237.7699999996}},{"attributes":{"ID":23154,"DIS_CODE":0,"TOWNNAME":"善化區","LI":"胡家里","LIN":"8鄰","STREET":" ","SECT":" ","MAREA":"胡厝寮","LANE":" ","ALLEY":" ","HOUSE_NO":"６３號","E_COORD97":175410.95999999999,"N_COORD97":2560736,"ADDRESS":"胡厝寮６３號","OBJECTID":23154},"geometry":{"x":175410.95999999996,"y":2560736.0000000019}},{"attributes":{"ID":23155,"DIS_CODE":0,"TOWNNAME":"善化區","LI":"嘉北里","LIN":"8鄰","STREET":" ","SECT":" ","MAREA":"茄拔","LANE":" ","ALLEY":" ","HOUSE_NO":"１８０號之１８","E_COORD97":181113.09,"N_COORD97":2560130.02,"ADDRESS":"茄拔１８０號之１８","OBJECTID":23155},"geometry":{"x":181113.09000000078,"y":2560130.0199999996}},{"attributes":{"ID":23156,"DIS_CODE":0,"TOWNNAME":"善化區","LI":"胡厝里","LIN":"8鄰","STREET":" ","SECT":" ","MAREA":"胡厝寮","LANE":" ","ALLEY":" ","HOUSE_NO":"２０８號之６","E_COORD97":175308.89000000001,"N_COORD97":2560218.02,"ADDRESS":"胡厝寮２０８號之６","OBJECTID":23156},"geometry":{"x":175308.8900000006,"y":2560218.0199999996}},{"attributes":{"ID":23157,"DIS_CODE":0,"TOWNNAME":"善化區","LI":"胡厝里","LIN":"8鄰","STREET":" ","SECT":" ","MAREA":"胡厝寮","LANE":" ","ALLEY":" ","HOUSE_NO":"２０５號之１","E_COORD97":175316.51999999999,"N_COORD97":2560425.02,"ADDRESS":"胡厝寮２０５號之１","OBJECTID":23157},"geometry":{"x":175316.51999999955,"y":2560425.0199999996}},{"attributes":{"ID":23158,"DIS_CODE":0,"TOWNNAME":"善化區","LI":"嘉北里","LIN":"8鄰","STREET":" ","SECT":" ","MAREA":"茄拔","LANE":" ","ALLEY":" ","HOUSE_NO":"１８０號之１０","E_COORD97":181122.5,"N_COORD97":2560107.77,"ADDRESS":"茄拔１８０號之１０","OBJECTID":23158},"geometry":{"x":181122.50000000093,"y":2560107.7699999996}},{"attributes":{"ID":23159,"DIS_CODE":0,"TOWNNAME":"善化區","LI":"胡厝里","LIN":"8鄰","STREET":" ","SECT":" ","MAREA":"胡厝寮","LANE":" ","ALLEY":" ","HOUSE_NO":"２０７號之３","E_COORD97":175350.19,"N_COORD97":2560398.27,"ADDRESS":"胡厝寮２０７號之３","OBJECTID":23159},"geometry":{"x":175350.19000000041,"y":2560398.2700000014}},{"attributes":{"ID":23160,"DIS_CODE":0,"TOWNNAME":"善化區","LI":"溪美里","LIN":"8鄰","STREET":" ","SECT":" ","MAREA":"溪尾","LANE":" ","ALLEY":" ","HOUSE_NO":"８１號","E_COORD97":176704.51000000001,"N_COORD97":2561330.02,"ADDRESS":"溪尾８１號","OBJECTID":23160},"geometry":{"x":176704.51000000071,"y":2561330.0199999996}},{"attributes":{"ID":23161,"DIS_CODE":0,"TOWNNAME":"安南區","LI":"安和里","LIN":"14鄰","STREET":"安和路","SECT":"一段","MAREA":" ","LANE":"９６巷","ALLEY":"４２弄","HOUSE_NO":"２８號","E_COORD97":169657.85999999999,"N_COORD97":2547634.4900000002,"ADDRESS":"安和路一段９６巷４２弄２８號","OBJECTID":23161},"geometry":{"x":169657.86000000127,"y":2547634.4900000002}},{"attributes":{"ID":23162,"DIS_CODE":0,"TOWNNAME":"安南區","LI":"安和里","LIN":"14鄰","STREET":"安和路","SECT":"一段","MAREA":" ","LANE":"９６巷","ALLEY":"４２弄","HOUSE_NO":"２９號","E_COORD97":169672.19,"N_COORD97":2547647.5099999998,"ADDRESS":"安和路一段９６巷４２弄２９號","OBJECTID":23162},"geometry":{"x":169672.19000000134,"y":2547647.5099999998}},{"attributes":{"ID":23163,"DIS_CODE":0,"TOWNNAME":"安南區","LI":"安和里","LIN":"14鄰","STREET":"安和路","SECT":"一段","MAREA":" ","LANE":"９６巷","ALLEY":"４２弄","HOUSE_NO":"３０號","E_COORD97":169663.07000000001,"N_COORD97":2547631.8900000001,"ADDRESS":"安和路一段９６巷４２弄３０號","OBJECTID":23163},"geometry":{"x":169663.07000000123,"y":2547631.8900000006}},{"attributes":{"ID":23164,"DIS_CODE":0,"TOWNNAME":"安南區","LI":"安和里","LIN":"14鄰","STREET":"安和路","SECT":"一段","MAREA":" ","LANE":"９６巷","ALLEY":"４２弄","HOUSE_NO":"３１號","E_COORD97":169678.04999999999,"N_COORD97":2547644.8999999999,"ADDRESS":"安和路一段９６巷４２弄３１號","OBJECTID":23164},"geometry":{"x":169678.05000000075,"y":2547644.9000000004}},{"attributes":{"ID":23165,"DIS_CODE":0,"TOWNNAME":"東區","LI":"東門里","LIN":"24鄰","STREET":"東榮街","SECT":" ","MAREA":" ","LANE":" ","ALLEY":" ","HOUSE_NO":"１４１號","E_COORD97":169539.85999999999,"N_COORD97":2543186.27,"ADDRESS":"東榮街１４１號","OBJECTID":23165},"geometry":{"x":169539.86000000034,"y":2543186.2699999996}},{"attributes":{"ID":23166,"DIS_CODE":0,"TOWNNAME":"安南區","LI":"安和里","LIN":"14鄰","STREET":"安和路","SECT":"一段","MAREA":" ","LANE":"９６巷","ALLEY":"４２弄","HOUSE_NO":"３２號","E_COORD97":169668.60999999999,"N_COORD97":2547628.96,"ADDRESS":"安和路一段９６巷４２弄３２號","OBJECTID":23166},"geometry":{"x":169668.61000000034,"y":2547628.9600000009}},{"attributes":{"ID":23167,"DIS_CODE":0,"TOWNNAME":"安南區","LI":"安和里","LIN":"14鄰","STREET":"安和路","SECT":"一段","MAREA":" ","LANE":"９６巷","ALLEY":"４２弄","HOUSE_NO":"３４號","E_COORD97":169674.14999999999,"N_COORD97":2547625.0499999998,"ADDRESS":"安和路一段９６巷４２弄３４號","OBJECTID":23167},"geometry":{"x":169674.1500000013,"y":2547625.0499999989}},{"attributes":{"ID":23168,"DIS_CODE":0,"TOWNNAME":"安南區","LI":"安和里","LIN":"14鄰","STREET":"安和路","SECT":"一段","MAREA":" ","LANE":"９６巷","ALLEY":"４２弄","HOUSE_NO":"３５號","E_COORD97":169688.79999999999,"N_COORD97":2547639.3700000001,"ADDRESS":"安和路一段９６巷４２弄３５號","OBJECTID":23168},"geometry":{"x":169688.79999999981,"y":2547639.370000001}},{"attributes":{"ID":23169,"DIS_CODE":0,"TOWNNAME":"安南區","LI":"安和里","LIN":"14鄰","STREET":"安和路","SECT":"一段","MAREA":" ","LANE":"９６巷","ALLEY":"４２弄","HOUSE_NO":"３６號","E_COORD97":169680.01000000001,"N_COORD97":2547622.4500000002,"ADDRESS":"安和路一段９６巷４２弄３６號","OBJECTID":23169},"geometry":{"x":169680.01000000071,"y":2547622.4500000011}},{"attributes":{"ID":23170,"DIS_CODE":0,"TOWNNAME":"安南區","LI":"安和里","LIN":"14鄰","STREET":"安和路","SECT":"一段","MAREA":" ","LANE":"９６巷","ALLEY":"４２弄","HOUSE_NO":"３７號","E_COORD97":169694.98999999999,"N_COORD97":2547637.0899999999,"ADDRESS":"安和路一段９６巷４２弄３７號","OBJECTID":23170},"geometry":{"x":169694.99000000022,"y":2547637.0899999999}},{"attributes":{"ID":23171,"DIS_CODE":0,"TOWNNAME":"安南區","LI":"安和里","LIN":"14鄰","STREET":"安和路","SECT":"一段","MAREA":" ","LANE":"９６巷","ALLEY":"４２弄","HOUSE_NO":"３８號","E_COORD97":169686.85000000001,"N_COORD97":2547619.8500000001,"ADDRESS":"安和路一段９６巷４２弄３８號","OBJECTID":23171},"geometry":{"x":169686.84999999963,"y":2547619.8500000015}},{"attributes":{"ID":23172,"DIS_CODE":0,"TOWNNAME":"安南區","LI":"安和里","LIN":"14鄰","STREET":"安和路","SECT":"一段","MAREA":" ","LANE":"９６巷","ALLEY":"４２弄","HOUSE_NO":"３號","E_COORD97":169606,"N_COORD97":2547692.9500000002,"ADDRESS":"安和路一段９６巷４２弄３號","OBJECTID":23172},"geometry":{"x":169606,"y":2547692.9500000011}},{"attributes":{"ID":23173,"DIS_CODE":0,"TOWNNAME":"白河區","LI":"蓮潭里","LIN":"8鄰","STREET":" ","SECT":" ","MAREA":"蓮潭","LANE":" ","ALLEY":" ","HOUSE_NO":"９號","E_COORD97":188775.20000000001,"N_COORD97":2588570.5800000001,"ADDRESS":"蓮潭９號","OBJECTID":23173},"geometry":{"x":188775.20000000112,"y":2588570.5800000019}},{"attributes":{"ID":23174,"DIS_CODE":0,"TOWNNAME":"善化區","LI":"胡家里","LIN":"8鄰","STREET":" ","SECT":" ","MAREA":"胡厝寮","LANE":" ","ALLEY":" ","HOUSE_NO":"６１號之１","E_COORD97":175442.14999999999,"N_COORD97":2560746.27,"ADDRESS":"胡厝寮６１號之１","OBJECTID":23174},"geometry":{"x":175442.15000000037,"y":2560746.2699999996}},{"attributes":{"ID":23175,"DIS_CODE":0,"TOWNNAME":"安南區","LI":"安和里","LIN":"14鄰","STREET":"安和路","SECT":"一段","MAREA":" ","LANE":"９６巷","ALLEY":"４２弄","HOUSE_NO":"５號","E_COORD97":169611.53,"N_COORD97":2547689.75,"ADDRESS":"安和路一段９６巷４２弄５號","OBJECTID":23175},"geometry":{"x":169611.53000000026,"y":2547689.75}},{"attributes":{"ID":23176,"DIS_CODE":0,"TOWNNAME":"安南區","LI":"安和里","LIN":"14鄰","STREET":"安和路","SECT":"一段","MAREA":" ","LANE":"９６巷","ALLEY":"４２弄","HOUSE_NO":"６號","E_COORD97":169599.79999999999,"N_COORD97":2547671.7200000002,"ADDRESS":"安和路一段９６巷４２弄６號","OBJECTID":23176},"geometry":{"x":169599.80000000075,"y":2547671.7200000044}},{"attributes":{"ID":23177,"DIS_CODE":0,"TOWNNAME":"安南區","LI":"安和里","LIN":"14鄰","STREET":"安和路","SECT":"一段","MAREA":" ","LANE":"９６巷","ALLEY":"４２弄","HOUSE_NO":"７號","E_COORD97":169616.04000000001,"N_COORD97":2547686.1499999999,"ADDRESS":"安和路一段９６巷４２弄７號","OBJECTID":23177},"geometry":{"x":169616.04000000004,"y":2547686.1500000022}},{"attributes":{"ID":23178,"DIS_CODE":0,"TOWNNAME":"安南區","LI":"安和里","LIN":"14鄰","STREET":"安和路","SECT":"一段","MAREA":" ","LANE":"９６巷","ALLEY":"４２弄","HOUSE_NO":"９號","E_COORD97":169620.54999999999,"N_COORD97":2547682.2400000002,"ADDRESS":"安和路一段９６巷４２弄９號","OBJECTID":23178},"geometry":{"x":169620.55000000075,"y":2547682.2400000021}},{"attributes":{"ID":23179,"DIS_CODE":0,"TOWNNAME":"安南區","LI":"安和里","LIN":"14鄰","STREET":"安和路","SECT":"一段","MAREA":" ","LANE":"９６巷","ALLEY":"４８弄","HOUSE_NO":"２０號","E_COORD97":169649.07000000001,"N_COORD97":2547681.02,"ADDRESS":"安和路一段９６巷４８弄２０號","OBJECTID":23179},"geometry":{"x":169649.07000000216,"y":2547681.0199999996}},{"attributes":{"ID":23180,"DIS_CODE":0,"TOWNNAME":"安南區","LI":"安和里","LIN":"14鄰","STREET":"安和路","SECT":"一段","MAREA":" ","LANE":"９６巷","ALLEY":"４８弄","HOUSE_NO":"２４號","E_COORD97":169662.10000000001,"N_COORD97":2547671.9100000001,"ADDRESS":"安和路一段９６巷４８弄２４號","OBJECTID":23180},"geometry":{"x":169662.10000000056,"y":2547671.9100000001}},{"attributes":{"ID":23181,"DIS_CODE":0,"TOWNNAME":"安南區","LI":"安和里","LIN":"14鄰","STREET":"安和路","SECT":"一段","MAREA":" ","LANE":"９６巷","ALLEY":"４８弄","HOUSE_NO":"２６號","E_COORD97":169668.60999999999,"N_COORD97":2547668.3300000001,"ADDRESS":"安和路一段９６巷４８弄２６號","OBJECTID":23181},"geometry":{"x":169668.61000000034,"y":2547668.3300000019}},{"attributes":{"ID":23182,"DIS_CODE":0,"TOWNNAME":"安南區","LI":"安和里","LIN":"14鄰","STREET":"安和路","SECT":"一段","MAREA":" ","LANE":"９６巷","ALLEY":"４８弄","HOUSE_NO":"２８號","E_COORD97":169674.79999999999,"N_COORD97":2547665.3999999999,"ADDRESS":"安和路一段９６巷４８弄２８號","OBJECTID":23182},"geometry":{"x":169674.80000000075,"y":2547665.4000000004}},{"attributes":{"ID":23183,"DIS_CODE":0,"TOWNNAME":"安南區","LI":"安和里","LIN":"14鄰","STREET":"安和路","SECT":"一段","MAREA":" ","LANE":"９６巷","ALLEY":"４８弄","HOUSE_NO":"３０號","E_COORD97":169680.32999999999,"N_COORD97":2547662.48,"ADDRESS":"安和路一段９６巷４８弄３０號","OBJECTID":23183},"geometry":{"x":169680.33000000007,"y":2547662.4799999986}},{"attributes":{"ID":23184,"DIS_CODE":0,"TOWNNAME":"安南區","LI":"安和里","LIN":"14鄰","STREET":"安和路","SECT":"一段","MAREA":" ","LANE":"９６巷","ALLEY":"４８弄","HOUSE_NO":"３２號","E_COORD97":169685.87,"N_COORD97":2547659.8700000001,"ADDRESS":"安和路一段９６巷４８弄３２號","OBJECTID":23184},"geometry":{"x":169685.87000000104,"y":2547659.870000001}},{"attributes":{"ID":23185,"DIS_CODE":0,"TOWNNAME":"安南區","LI":"安和里","LIN":"14鄰","STREET":"安和路","SECT":"一段","MAREA":" ","LANE":"９６巷","ALLEY":"４８弄","HOUSE_NO":"３４號","E_COORD97":169691.41,"N_COORD97":2547657.5899999999,"ADDRESS":"安和路一段９６巷４８弄３４號","OBJECTID":23185},"geometry":{"x":169691.41000000108,"y":2547657.5899999999}},{"attributes":{"ID":23186,"DIS_CODE":0,"TOWNNAME":"安南區","LI":"安和里","LIN":"14鄰","STREET":"安和路","SECT":"一段","MAREA":" ","LANE":"９６巷","ALLEY":"４８弄","HOUSE_NO":"３６號","E_COORD97":169696.62,"N_COORD97":2547654.9900000002,"ADDRESS":"安和路一段９６巷４８弄３６號","OBJECTID":23186},"geometry":{"x":169696.62000000104,"y":2547654.9900000002}},{"attributes":{"ID":23187,"DIS_CODE":0,"TOWNNAME":"安南區","LI":"安和里","LIN":"14鄰","STREET":"安和路","SECT":"一段","MAREA":" ","LANE":"９６巷","ALLEY":"４８弄","HOUSE_NO":"３８號","E_COORD97":169702.16,"N_COORD97":2547652.0600000001,"ADDRESS":"安和路一段９６巷４８弄３８號","OBJECTID":23187},"geometry":{"x":169702.16000000015,"y":2547652.0600000042}},{"attributes":{"ID":23188,"DIS_CODE":0,"TOWNNAME":"安南區","LI":"安和里","LIN":"14鄰","STREET":"安和路","SECT":"一段","MAREA":" ","LANE":"９６巷","ALLEY":"４２弄","HOUSE_NO":"４號","E_COORD97":169595.28,"N_COORD97":2547675.9300000002,"ADDRESS":"安和路一段９６巷４２弄４號","OBJECTID":23188},"geometry":{"x":169595.28000000119,"y":2547675.9300000034}},{"attributes":{"ID":23189,"DIS_CODE":0,"TOWNNAME":"安南區","LI":"安西里","LIN":"14鄰","STREET":"安和路","SECT":"一段","MAREA":" ","LANE":"１５９巷","ALLEY":"８５弄","HOUSE_NO":"１１號","E_COORD97":169160.44,"N_COORD97":2547865.3599999999,"ADDRESS":"安和路一段１５９巷８５弄１１號","OBJECTID":23189},"geometry":{"x":169160.44000000134,"y":2547865.3599999994}},{"attributes":{"ID":23190,"DIS_CODE":0,"TOWNNAME":"新營區","LI":"新東里","LIN":"14鄰","STREET":"東興六街","SECT":" ","MAREA":" ","LANE":"８９巷","ALLEY":"２０弄","HOUSE_NO":"１７號","E_COORD97":180999.63,"N_COORD97":2579331.0499999998,"ADDRESS":"東興六街８９巷２０弄１７號","OBJECTID":23190},"geometry":{"x":180999.63000000082,"y":2579331.0500000007}},{"attributes":{"ID":23191,"DIS_CODE":0,"TOWNNAME":"新營區","LI":"新東里","LIN":"14鄰","STREET":"東興六街","SECT":" ","MAREA":" ","LANE":"８９巷","ALLEY":"１４弄","HOUSE_NO":"１２之１號","E_COORD97":181005.92000000001,"N_COORD97":2579266.8599999999,"ADDRESS":"東興六街８９巷１４弄１２之１號","OBJECTID":23191},"geometry":{"x":181005.92000000086,"y":2579266.8599999994}},{"attributes":{"ID":23192,"DIS_CODE":0,"TOWNNAME":"新營區","LI":"新東里","LIN":"14鄰","STREET":"東興六街","SECT":" ","MAREA":" ","LANE":"８９巷","ALLEY":"１４弄","HOUSE_NO":"７號","E_COORD97":180983.89000000001,"N_COORD97":2579286.8300000001,"ADDRESS":"東興六街８９巷１４弄７號","OBJECTID":23192},"geometry":{"x":180983.8900000006,"y":2579286.8300000019}},{"attributes":{"ID":23193,"DIS_CODE":0,"TOWNNAME":"新營區","LI":"新東里","LIN":"14鄰","STREET":"東興六街","SECT":" ","MAREA":" ","LANE":"８９巷","ALLEY":"１４弄","HOUSE_NO":"８號","E_COORD97":180989.97,"N_COORD97":2579266.8700000001,"ADDRESS":"東興六街８９巷１４弄８號","OBJECTID":23193},"geometry":{"x":180989.9700000016,"y":2579266.8700000029}},{"attributes":{"ID":23194,"DIS_CODE":0,"TOWNNAME":"新營區","LI":"新東里","LIN":"14鄰","STREET":"東興六街","SECT":" ","MAREA":" ","LANE":"８９巷","ALLEY":"１４弄","HOUSE_NO":"３號","E_COORD97":180975.76000000001,"N_COORD97":2579286.8700000001,"ADDRESS":"東興六街８９巷１４弄３號","OBJECTID":23194},"geometry":{"x":180975.75999999978,"y":2579286.8700000029}},{"attributes":{"ID":23195,"DIS_CODE":0,"TOWNNAME":"新營區","LI":"新東里","LIN":"14鄰","STREET":"東興六街","SECT":" ","MAREA":" ","LANE":"８９巷","ALLEY":"１４弄","HOUSE_NO":"５號","E_COORD97":180980.81,"N_COORD97":2579286.8399999999,"ADDRESS":"東興六街８９巷１４弄５號","OBJECTID":23195},"geometry":{"x":180980.81000000052,"y":2579286.8399999999}},{"attributes":{"ID":23196,"DIS_CODE":0,"TOWNNAME":"新營區","LI":"民生里","LIN":"14鄰","STREET":"民治路","SECT":" ","MAREA":" ","LANE":"２２５巷","ALLEY":"５６弄","HOUSE_NO":"９號","E_COORD97":178871.01000000001,"N_COORD97":2578285.7200000002,"ADDRESS":"民治路２２５巷５６弄９號","OBJECTID":23196},"geometry":{"x":178871.01000000071,"y":2578285.7200000007}},{"attributes":{"ID":23197,"DIS_CODE":0,"TOWNNAME":"新營區","LI":"新東里","LIN":"14鄰","STREET":"東興六街","SECT":" ","MAREA":" ","LANE":"８９巷","ALLEY":"１４弄","HOUSE_NO":"２號","E_COORD97":180980.76999999999,"N_COORD97":2579266.9100000001,"ADDRESS":"東興六街８９巷１４弄２號","OBJECTID":23197},"geometry":{"x":180980.76999999862,"y":2579266.9100000001}},{"attributes":{"ID":23198,"DIS_CODE":0,"TOWNNAME":"新營區","LI":"新東里","LIN":"14鄰","STREET":"東興六街","SECT":" ","MAREA":" ","LANE":"８９巷","ALLEY":"２０弄","HOUSE_NO":"１５號","E_COORD97":180995.53,"N_COORD97":2579329.9700000002,"ADDRESS":"東興六街８９巷２０弄１５號","OBJECTID":23198},"geometry":{"x":180995.53000000119,"y":2579329.9700000025}},{"attributes":{"ID":23199,"DIS_CODE":0,"TOWNNAME":"新營區","LI":"民生里","LIN":"14鄰","STREET":"民治路","SECT":" ","MAREA":" ","LANE":"２２５巷","ALLEY":"５６弄","HOUSE_NO":"２０號","E_COORD97":178836.53,"N_COORD97":2578278.1400000001,"ADDRESS":"民治路２２５巷５６弄２０號","OBJECTID":23199},"geometry":{"x":178836.53000000026,"y":2578278.1400000025}},{"attributes":{"ID":23200,"DIS_CODE":0,"TOWNNAME":"新營區","LI":"新東里","LIN":"14鄰","STREET":"東興六街","SECT":" ","MAREA":" ","LANE":"８９巷","ALLEY":"２０弄","HOUSE_NO":"１４號","E_COORD97":180998.51000000001,"N_COORD97":2579310.02,"ADDRESS":"東興六街８９巷２０弄１４號","OBJECTID":23200},"geometry":{"x":180998.51000000071,"y":2579310.0199999996}}]}