{"displayFieldName":"TOWNNAME","fieldAliases":{"ID":"ID","DIS_CODE":"DIS_CODE","TOWNNAME":"TOWNNAME","LI":"LI","LIN":"LIN","STREET":"STREET","SECT":"SECT","MAREA":"MAREA","LANE":"LANE","ALLEY":"ALLEY","HOUSE_NO":"HOUSE_NO","E_COORD97":"E_COORD97","N_COORD97":"N_COORD97","ADDRESS":"ADDRESS","OBJECTID":"OBJECTID"},"geometryType":"esriGeometryPoint","spatialReference":{"wkid":102443,"latestWkid":3826},"fields":[{"name":"ID","type":"esriFieldTypeDouble","alias":"ID"},{"name":"DIS_CODE","type":"esriFieldTypeInteger","alias":"DIS_CODE"},{"name":"TOWNNAME","type":"esriFieldTypeString","alias":"TOWNNAME","length":8},{"name":"LI","type":"esriFieldTypeString","alias":"LI","length":8},{"name":"LIN","type":"esriFieldTypeString","alias":"LIN","length":12},{"name":"STREET","type":"esriFieldTypeString","alias":"STREET","length":20},{"name":"SECT","type":"esriFieldTypeString","alias":"SECT","length":8},{"name":"MAREA","type":"esriFieldTypeString","alias":"MAREA","length":12},{"name":"LANE","type":"esriFieldTypeString","alias":"LANE","length":10},{"name":"ALLEY","type":"esriFieldTypeString","alias":"ALLEY","length":10},{"name":"HOUSE_NO","type":"esriFieldTypeString","alias":"HOUSE_NO","length":20},{"name":"E_COORD97","type":"esriFieldTypeDouble","alias":"E_COORD97"},{"name":"N_COORD97","type":"esriFieldTypeDouble","alias":"N_COORD97"},{"name":"ADDRESS","type":"esriFieldTypeString","alias":"ADDRESS","length":50},{"name":"OBJECTID","type":"esriFieldTypeOID","alias":"OBJECTID"}],"features":[{"attributes":{"ID":231605,"DIS_CODE":0,"TOWNNAME":"東區","LI":"崇德里","LIN":"14鄰","STREET":"崇明路","SECT":" ","MAREA":" ","LANE":" ","ALLEY":" ","HOUSE_NO":"４９１號","E_COORD97":170566.06,"N_COORD97":2541447.7999999998,"ADDRESS":"崇明路４９１號","OBJECTID":231601},"geometry":{"x":170566.06000000052,"y":2541447.8000000026}},{"attributes":{"ID":231606,"DIS_CODE":0,"TOWNNAME":"東區","LI":"崇德里","LIN":"14鄰","STREET":"崇明路","SECT":" ","MAREA":" ","LANE":" ","ALLEY":" ","HOUSE_NO":"４９３號","E_COORD97":170569.39000000001,"N_COORD97":2541443.7999999998,"ADDRESS":"崇明路４９３號","OBJECTID":231602},"geometry":{"x":170569.38999999966,"y":2541443.8000000026}},{"attributes":{"ID":231607,"DIS_CODE":0,"TOWNNAME":"東區","LI":"崇德里","LIN":"14鄰","STREET":"崇明路","SECT":" ","MAREA":" ","LANE":" ","ALLEY":" ","HOUSE_NO":"４９７號","E_COORD97":170577.17000000001,"N_COORD97":2541436.7000000002,"ADDRESS":"崇明路４９７號","OBJECTID":231603},"geometry":{"x":170577.17000000086,"y":2541436.7000000011}},{"attributes":{"ID":231608,"DIS_CODE":0,"TOWNNAME":"東區","LI":"崇德里","LIN":"14鄰","STREET":"崇明路","SECT":" ","MAREA":" ","LANE":" ","ALLEY":" ","HOUSE_NO":"４９９號","E_COORD97":170580.5,"N_COORD97":2541433.1499999999,"ADDRESS":"崇明路４９９號","OBJECTID":231604},"geometry":{"x":170580.50000000093,"y":2541433.1499999985}},{"attributes":{"ID":231609,"DIS_CODE":0,"TOWNNAME":"東區","LI":"崇德里","LIN":"14鄰","STREET":"崇明路","SECT":" ","MAREA":" ","LANE":" ","ALLEY":" ","HOUSE_NO":"５０１號","E_COORD97":170584.26999999999,"N_COORD97":2541430.0499999998,"ADDRESS":"崇明路５０１號","OBJECTID":231605},"geometry":{"x":170584.27000000142,"y":2541430.0500000007}},{"attributes":{"ID":231610,"DIS_CODE":0,"TOWNNAME":"東區","LI":"崇德里","LIN":"14鄰","STREET":"崇明路","SECT":" ","MAREA":" ","LANE":" ","ALLEY":" ","HOUSE_NO":"５０３號","E_COORD97":170587.16,"N_COORD97":2541426.0499999998,"ADDRESS":"崇明路５０３號","OBJECTID":231606},"geometry":{"x":170587.16000000015,"y":2541426.0500000007}},{"attributes":{"ID":231611,"DIS_CODE":0,"TOWNNAME":"東區","LI":"崇德里","LIN":"14鄰","STREET":"崇明路","SECT":" ","MAREA":" ","LANE":" ","ALLEY":" ","HOUSE_NO":"５０５號","E_COORD97":170590.04999999999,"N_COORD97":2541422.7200000002,"ADDRESS":"崇明路５０５號","OBJECTID":231607},"geometry":{"x":170590.05000000075,"y":2541422.7200000007}},{"attributes":{"ID":231612,"DIS_CODE":0,"TOWNNAME":"東區","LI":"東明里","LIN":"14鄰","STREET":"怡東路","SECT":" ","MAREA":" ","LANE":" ","ALLEY":" ","HOUSE_NO":"９１號","E_COORD97":170845.45000000001,"N_COORD97":2543694.3199999998,"ADDRESS":"怡東路９１號","OBJECTID":231608},"geometry":{"x":170845.45000000112,"y":2543694.3200000022}},{"attributes":{"ID":231613,"DIS_CODE":0,"TOWNNAME":"東區","LI":"崇德里","LIN":"14鄰","STREET":"崇明路","SECT":" ","MAREA":" ","LANE":" ","ALLEY":" ","HOUSE_NO":"４４１號","E_COORD97":170470.60000000001,"N_COORD97":2541541.8900000001,"ADDRESS":"崇明路４４１號","OBJECTID":231609},"geometry":{"x":170470.60000000056,"y":2541541.8900000025}},{"attributes":{"ID":231614,"DIS_CODE":0,"TOWNNAME":"東區","LI":"崇德里","LIN":"14鄰","STREET":"崇明路","SECT":" ","MAREA":" ","LANE":" ","ALLEY":" ","HOUSE_NO":"４６９號","E_COORD97":170517.26999999999,"N_COORD97":2541502.8700000001,"ADDRESS":"崇明路４６９號","OBJECTID":231610},"geometry":{"x":170517.27000000048,"y":2541502.870000001}},{"attributes":{"ID":231615,"DIS_CODE":0,"TOWNNAME":"東區","LI":"崇德里","LIN":"14鄰","STREET":"崇明路","SECT":" ","MAREA":" ","LANE":" ","ALLEY":" ","HOUSE_NO":"４８１號","E_COORD97":170548.73999999999,"N_COORD97":2541464.8799999999,"ADDRESS":"崇明路４８１號","OBJECTID":231611},"geometry":{"x":170548.74000000022,"y":2541464.8800000008}},{"attributes":{"ID":231616,"DIS_CODE":0,"TOWNNAME":"東區","LI":"崇德里","LIN":"14鄰","STREET":"崇明路","SECT":" ","MAREA":" ","LANE":" ","ALLEY":" ","HOUSE_NO":"４８７號","E_COORD97":170559.39999999999,"N_COORD97":2541454.4500000002,"ADDRESS":"崇明路４８７號","OBJECTID":231612},"geometry":{"x":170559.4000000013,"y":2541454.4500000011}},{"attributes":{"ID":231617,"DIS_CODE":0,"TOWNNAME":"東區","LI":"崇德里","LIN":"14鄰","STREET":"崇明路","SECT":" ","MAREA":" ","LANE":" ","ALLEY":" ","HOUSE_NO":"４９５號","E_COORD97":170573.39000000001,"N_COORD97":2541440.4700000002,"ADDRESS":"崇明路４９５號","OBJECTID":231613},"geometry":{"x":170573.39000000153,"y":2541440.4700000007}},{"attributes":{"ID":231618,"DIS_CODE":0,"TOWNNAME":"東區","LI":"東明里","LIN":"14鄰","STREET":"怡東路","SECT":" ","MAREA":" ","LANE":" ","ALLEY":" ","HOUSE_NO":"８１號","E_COORD97":170840.47,"N_COORD97":2543671.8100000001,"ADDRESS":"怡東路８１號","OBJECTID":231614},"geometry":{"x":170840.46999999974,"y":2543671.8100000005}},{"attributes":{"ID":231619,"DIS_CODE":0,"TOWNNAME":"仁德區","LI":"太子里","LIN":"23鄰","STREET":"中正路","SECT":"三段","MAREA":" ","LANE":"７０４巷","ALLEY":" ","HOUSE_NO":"３７號一樓","E_COORD97":173803.14999999999,"N_COORD97":2543647.7799999998,"ADDRESS":"中正路三段７０４巷３７號一樓","OBJECTID":231615},"geometry":{"x":173803.15000000037,"y":2543647.7799999993}},{"attributes":{"ID":231620,"DIS_CODE":0,"TOWNNAME":"東區","LI":"大智里","LIN":"23鄰","STREET":"德東街","SECT":" ","MAREA":" ","LANE":"１８０巷","ALLEY":" ","HOUSE_NO":"６號","E_COORD97":171285.76999999999,"N_COORD97":2540218.5099999998,"ADDRESS":"德東街１８０巷６號","OBJECTID":231616},"geometry":{"x":171285.76999999955,"y":2540218.5099999998}},{"attributes":{"ID":231621,"DIS_CODE":0,"TOWNNAME":"仁德區","LI":"太子里","LIN":"23鄰","STREET":"中正路","SECT":"三段","MAREA":" ","LANE":"７０４巷","ALLEY":" ","HOUSE_NO":"３７號四樓","E_COORD97":173803.14999999999,"N_COORD97":2543647.7799999998,"ADDRESS":"中正路三段７０４巷３７號四樓","OBJECTID":231617},"geometry":{"x":173803.15000000037,"y":2543647.7799999993}},{"attributes":{"ID":231622,"DIS_CODE":0,"TOWNNAME":"安南區","LI":"鳳凰里","LIN":"24鄰","STREET":"怡安路","SECT":"二段","MAREA":" ","LANE":"５４５巷","ALLEY":" ","HOUSE_NO":"１０號","E_COORD97":167506.10000000001,"N_COORD97":2549379.1200000001,"ADDRESS":"怡安路二段５４５巷１０號","OBJECTID":231618},"geometry":{"x":167506.10000000056,"y":2549379.1200000029}},{"attributes":{"ID":231623,"DIS_CODE":0,"TOWNNAME":"安南區","LI":"鳳凰里","LIN":"24鄰","STREET":"怡安路","SECT":"二段","MAREA":" ","LANE":"５４５巷","ALLEY":" ","HOUSE_NO":"１２號","E_COORD97":167505.28,"N_COORD97":2549374.0800000001,"ADDRESS":"怡安路二段５４５巷１２號","OBJECTID":231619},"geometry":{"x":167505.28000000119,"y":2549374.0800000019}},{"attributes":{"ID":231624,"DIS_CODE":0,"TOWNNAME":"安南區","LI":"鳳凰里","LIN":"24鄰","STREET":"怡安路","SECT":"二段","MAREA":" ","LANE":"５４５巷","ALLEY":" ","HOUSE_NO":"１６號","E_COORD97":167503.32000000001,"N_COORD97":2549370.79,"ADDRESS":"怡安路二段５４５巷１６號","OBJECTID":231620},"geometry":{"x":167503.32000000123,"y":2549370.7899999991}},{"attributes":{"ID":231625,"DIS_CODE":0,"TOWNNAME":"東區","LI":"東明里","LIN":"14鄰","STREET":"怡東路","SECT":" ","MAREA":" ","LANE":" ","ALLEY":" ","HOUSE_NO":"８３號","E_COORD97":170842.51999999999,"N_COORD97":2543676.1899999999,"ADDRESS":"怡東路８３號","OBJECTID":231621},"geometry":{"x":170842.52000000048,"y":2543676.1899999995}},{"attributes":{"ID":231626,"DIS_CODE":0,"TOWNNAME":"東區","LI":"崇德里","LIN":"14鄰","STREET":"崇明路","SECT":" ","MAREA":" ","LANE":" ","ALLEY":" ","HOUSE_NO":"４３９號","E_COORD97":170466.97,"N_COORD97":2541546.0800000001,"ADDRESS":"崇明路４３９號","OBJECTID":231622},"geometry":{"x":170466.97000000067,"y":2541546.0800000019}},{"attributes":{"ID":231627,"DIS_CODE":0,"TOWNNAME":"東區","LI":"崇德里","LIN":"14鄰","STREET":"崇明路","SECT":" ","MAREA":" ","LANE":" ","ALLEY":" ","HOUSE_NO":"４０３號","E_COORD97":170426.12,"N_COORD97":2541593.3199999998,"ADDRESS":"崇明路４０３號","OBJECTID":231623},"geometry":{"x":170426.12000000011,"y":2541593.3200000003}},{"attributes":{"ID":231628,"DIS_CODE":0,"TOWNNAME":"安南區","LI":"鳳凰里","LIN":"24鄰","STREET":"怡安路","SECT":"二段","MAREA":" ","LANE":"５４５巷","ALLEY":" ","HOUSE_NO":"１８號","E_COORD97":167498.17000000001,"N_COORD97":2549364.8300000001,"ADDRESS":"怡安路二段５４５巷１８號","OBJECTID":231624},"geometry":{"x":167498.16999999993,"y":2549364.8300000001}},{"attributes":{"ID":231629,"DIS_CODE":0,"TOWNNAME":"東區","LI":"南聖里","LIN":"2鄰","STREET":"裕農路","SECT":" ","MAREA":" ","LANE":"６６８巷","ALLEY":" ","HOUSE_NO":"２號","E_COORD97":171716.26999999999,"N_COORD97":2543204.4500000002,"ADDRESS":"裕農路６６８巷２號","OBJECTID":231625},"geometry":{"x":171716.26999999955,"y":2543204.4500000011}},{"attributes":{"ID":231630,"DIS_CODE":0,"TOWNNAME":"東區","LI":"南聖里","LIN":"2鄰","STREET":"裕農路","SECT":" ","MAREA":" ","LANE":"６６８巷","ALLEY":" ","HOUSE_NO":"４號","E_COORD97":171716.44,"N_COORD97":2543199.9500000002,"ADDRESS":"裕農路６６８巷４號","OBJECTID":231626},"geometry":{"x":171716.44000000227,"y":2543199.950000003}},{"attributes":{"ID":231631,"DIS_CODE":0,"TOWNNAME":"新市區","LI":"港墘里","LIN":"2鄰","STREET":"三民街","SECT":" ","MAREA":" ","LANE":"１０巷","ALLEY":" ","HOUSE_NO":"１６號","E_COORD97":178577.28,"N_COORD97":2553478.79,"ADDRESS":"三民街１０巷１６號","OBJECTID":231627},"geometry":{"x":178577.28000000026,"y":2553478.790000001}},{"attributes":{"ID":231632,"DIS_CODE":0,"TOWNNAME":"新市區","LI":"港墘里","LIN":"2鄰","STREET":"三民街","SECT":" ","MAREA":" ","LANE":"１０巷","ALLEY":" ","HOUSE_NO":"２號","E_COORD97":178588.32000000001,"N_COORD97":2553435.54,"ADDRESS":"三民街１０巷２號","OBJECTID":231628},"geometry":{"x":178588.32000000123,"y":2553435.540000001}},{"attributes":{"ID":231633,"DIS_CODE":0,"TOWNNAME":"新市區","LI":"港墘里","LIN":"2鄰","STREET":"三民街","SECT":" ","MAREA":" ","LANE":"１０巷","ALLEY":" ","HOUSE_NO":"７號","E_COORD97":178572.07000000001,"N_COORD97":2553388.04,"ADDRESS":"三民街１０巷７號","OBJECTID":231629},"geometry":{"x":178572.0700000003,"y":2553388.040000001}},{"attributes":{"ID":231634,"DIS_CODE":0,"TOWNNAME":"新市區","LI":"港墘里","LIN":"2鄰","STREET":"三民街","SECT":" ","MAREA":" ","LANE":"１０巷","ALLEY":" ","HOUSE_NO":"５號","E_COORD97":178570.62,"N_COORD97":2553384.29,"ADDRESS":"三民街１０巷５號","OBJECTID":231630},"geometry":{"x":178570.62000000104,"y":2553384.2899999991}},{"attributes":{"ID":231635,"DIS_CODE":0,"TOWNNAME":"安南區","LI":"溪心里","LIN":"2鄰","STREET":"海佃路","SECT":"二段","MAREA":" ","LANE":"５７３巷","ALLEY":" ","HOUSE_NO":"２號","E_COORD97":166574.20000000001,"N_COORD97":2549377.0600000001,"ADDRESS":"海佃路二段５７３巷２號","OBJECTID":231631},"geometry":{"x":166574.20000000019,"y":2549377.0600000005}},{"attributes":{"ID":231636,"DIS_CODE":0,"TOWNNAME":"安南區","LI":"原佃里","LIN":"2鄰","STREET":"本原街","SECT":"一段","MAREA":" ","LANE":"１６７巷","ALLEY":" ","HOUSE_NO":"２號","E_COORD97":167820.29999999999,"N_COORD97":2550127.46,"ADDRESS":"本原街一段１６７巷２號","OBJECTID":231632},"geometry":{"x":167820.30000000075,"y":2550127.4600000009}},{"attributes":{"ID":231637,"DIS_CODE":0,"TOWNNAME":"安南區","LI":"原佃里","LIN":"2鄰","STREET":"本原街","SECT":"一段","MAREA":" ","LANE":"９７巷","ALLEY":" ","HOUSE_NO":"６６號","E_COORD97":167914.04000000001,"N_COORD97":2550027.0499999998,"ADDRESS":"本原街一段９７巷６６號","OBJECTID":231633},"geometry":{"x":167914.04000000004,"y":2550027.0500000026}},{"attributes":{"ID":231638,"DIS_CODE":0,"TOWNNAME":"安南區","LI":"總頭里","LIN":"2鄰","STREET":"總安街","SECT":"二段","MAREA":" ","LANE":"３１５巷","ALLEY":" ","HOUSE_NO":"１１號","E_COORD97":168419.41,"N_COORD97":2550436.1800000002,"ADDRESS":"總安街二段３１５巷１１號","OBJECTID":231634},"geometry":{"x":168419.41000000108,"y":2550436.1799999997}},{"attributes":{"ID":231639,"DIS_CODE":0,"TOWNNAME":"安南區","LI":"總頭里","LIN":"2鄰","STREET":"總安街","SECT":"二段","MAREA":" ","LANE":"３１５巷","ALLEY":" ","HOUSE_NO":"１號","E_COORD97":168423.48000000001,"N_COORD97":2550462.3599999999,"ADDRESS":"總安街二段３１５巷１號","OBJECTID":231635},"geometry":{"x":168423.48000000045,"y":2550462.3599999994}},{"attributes":{"ID":231640,"DIS_CODE":0,"TOWNNAME":"安南區","LI":"總頭里","LIN":"2鄰","STREET":"總安街","SECT":"二段","MAREA":" ","LANE":"３１５巷","ALLEY":" ","HOUSE_NO":"２５號","E_COORD97":168412.63,"N_COORD97":2550404.1400000001,"ADDRESS":"總安街二段３１５巷２５號","OBJECTID":231636},"geometry":{"x":168412.63000000082,"y":2550404.1400000006}},{"attributes":{"ID":231641,"DIS_CODE":0,"TOWNNAME":"安南區","LI":"總頭里","LIN":"2鄰","STREET":"總安街","SECT":"二段","MAREA":" ","LANE":"３１５巷","ALLEY":" ","HOUSE_NO":"２９號","E_COORD97":168413.53,"N_COORD97":2550388.79,"ADDRESS":"總安街二段３１５巷２９號","OBJECTID":231637},"geometry":{"x":168413.53000000212,"y":2550388.790000001}},{"attributes":{"ID":231642,"DIS_CODE":0,"TOWNNAME":"安南區","LI":"總頭里","LIN":"2鄰","STREET":"總安街","SECT":"二段","MAREA":" ","LANE":"３１５巷","ALLEY":" ","HOUSE_NO":"２號","E_COORD97":168402.84,"N_COORD97":2550464.8999999999,"ADDRESS":"總安街二段３１５巷２號","OBJECTID":231638},"geometry":{"x":168402.84000000078,"y":2550464.9000000022}},{"attributes":{"ID":231643,"DIS_CODE":0,"TOWNNAME":"安南區","LI":"總頭里","LIN":"2鄰","STREET":"總安街","SECT":"二段","MAREA":" ","LANE":"３１５巷","ALLEY":" ","HOUSE_NO":"３１號","E_COORD97":168415.23000000001,"N_COORD97":2550384.8700000001,"ADDRESS":"總安街二段３１５巷３１號","OBJECTID":231639},"geometry":{"x":168415.23000000045,"y":2550384.8700000029}},{"attributes":{"ID":231644,"DIS_CODE":0,"TOWNNAME":"南區","LI":"喜東里","LIN":"2鄰","STREET":"明興路","SECT":" ","MAREA":" ","LANE":"３９３巷","ALLEY":" ","HOUSE_NO":"１號","E_COORD97":166366.57000000001,"N_COORD97":2538884.54,"ADDRESS":"明興路３９３巷１號","OBJECTID":231640},"geometry":{"x":166366.5700000003,"y":2538884.540000001}},{"attributes":{"ID":231645,"DIS_CODE":0,"TOWNNAME":"中西區","LI":"五妃里","LIN":"2鄰","STREET":"南門路","SECT":" ","MAREA":" ","LANE":"２４５巷","ALLEY":" ","HOUSE_NO":"１０號","E_COORD97":168405.45000000001,"N_COORD97":2542512.8599999999,"ADDRESS":"南門路２４５巷１０號","OBJECTID":231641},"geometry":{"x":168405.45000000205,"y":2542512.8600000013}},{"attributes":{"ID":231646,"DIS_CODE":0,"TOWNNAME":"中西區","LI":"五妃里","LIN":"2鄰","STREET":"南門路","SECT":" ","MAREA":" ","LANE":"２４５巷","ALLEY":" ","HOUSE_NO":"１２號","E_COORD97":168415.04000000001,"N_COORD97":2542512.98,"ADDRESS":"南門路２４５巷１２號","OBJECTID":231642},"geometry":{"x":168415.04000000097,"y":2542512.9800000042}},{"attributes":{"ID":231647,"DIS_CODE":0,"TOWNNAME":"中西區","LI":"五妃里","LIN":"2鄰","STREET":"南門路","SECT":" ","MAREA":" ","LANE":"２４５巷","ALLEY":" ","HOUSE_NO":"１４號","E_COORD97":168414.92000000001,"N_COORD97":2542517.9500000002,"ADDRESS":"南門路２４５巷１４號","OBJECTID":231643},"geometry":{"x":168414.91999999993,"y":2542517.9499999993}},{"attributes":{"ID":231648,"DIS_CODE":0,"TOWNNAME":"中西區","LI":"五妃里","LIN":"2鄰","STREET":"南門路","SECT":" ","MAREA":" ","LANE":"２４５巷","ALLEY":" ","HOUSE_NO":"１號","E_COORD97":168408.60000000001,"N_COORD97":2542538.1699999999,"ADDRESS":"南門路２４５巷１號","OBJECTID":231644},"geometry":{"x":168408.59999999963,"y":2542538.1700000037}},{"attributes":{"ID":231649,"DIS_CODE":0,"TOWNNAME":"中西區","LI":"小西里","LIN":"2鄰","STREET":"永福路","SECT":"一段","MAREA":" ","LANE":"２３３巷","ALLEY":" ","HOUSE_NO":"２０號","E_COORD97":167838.29999999999,"N_COORD97":2543280.0299999998,"ADDRESS":"永福路一段２３３巷２０號","OBJECTID":231645},"geometry":{"x":167838.30000000075,"y":2543280.0299999993}},{"attributes":{"ID":231650,"DIS_CODE":0,"TOWNNAME":"中西區","LI":"小西里","LIN":"2鄰","STREET":"永福路","SECT":"一段","MAREA":" ","LANE":"２３３巷","ALLEY":" ","HOUSE_NO":"２號","E_COORD97":167920.89000000001,"N_COORD97":2543274.6699999999,"ADDRESS":"永福路一段２３３巷２號","OBJECTID":231646},"geometry":{"x":167920.8900000006,"y":2543274.6700000018}},{"attributes":{"ID":231651,"DIS_CODE":0,"TOWNNAME":"中西區","LI":"大南里","LIN":"2鄰","STREET":"健康路","SECT":"一段","MAREA":" ","LANE":"３２８巷","ALLEY":" ","HOUSE_NO":"１１號","E_COORD97":168209.10000000001,"N_COORD97":2542504.1899999999,"ADDRESS":"健康路一段３２８巷１１號","OBJECTID":231647},"geometry":{"x":168209.10000000056,"y":2542504.1900000013}},{"attributes":{"ID":231652,"DIS_CODE":0,"TOWNNAME":"中西區","LI":"大南里","LIN":"2鄰","STREET":"健康路","SECT":"一段","MAREA":" ","LANE":"３２８巷","ALLEY":" ","HOUSE_NO":"１號","E_COORD97":168209.45000000001,"N_COORD97":2542474.6400000001,"ADDRESS":"健康路一段３２８巷１號","OBJECTID":231648},"geometry":{"x":168209.45000000112,"y":2542474.6400000043}},{"attributes":{"ID":231653,"DIS_CODE":0,"TOWNNAME":"永康區","LI":"三合里","LIN":"23鄰","STREET":"南工街","SECT":" ","MAREA":" ","LANE":"３２３巷","ALLEY":" ","HOUSE_NO":"７號","E_COORD97":171791.38,"N_COORD97":2546016.25,"ADDRESS":"南工街３２３巷７號","OBJECTID":231649},"geometry":{"x":171791.38000000082,"y":2546016.2500000037}},{"attributes":{"ID":231654,"DIS_CODE":0,"TOWNNAME":"中西區","LI":"大南里","LIN":"2鄰","STREET":"健康路","SECT":"一段","MAREA":" ","LANE":"３２８巷","ALLEY":" ","HOUSE_NO":"３號","E_COORD97":168189.72,"N_COORD97":2542485.1899999999,"ADDRESS":"健康路一段３２８巷３號","OBJECTID":231650},"geometry":{"x":168189.72000000067,"y":2542485.1899999995}},{"attributes":{"ID":231655,"DIS_CODE":0,"TOWNNAME":"中西區","LI":"大南里","LIN":"2鄰","STREET":"健康路","SECT":"一段","MAREA":" ","LANE":"３２８巷","ALLEY":" ","HOUSE_NO":"５號","E_COORD97":168195.35999999999,"N_COORD97":2542484.8399999999,"ADDRESS":"健康路一段３２８巷５號","OBJECTID":231651},"geometry":{"x":168195.36000000034,"y":2542484.8399999999}},{"attributes":{"ID":231656,"DIS_CODE":0,"TOWNNAME":"中西區","LI":"大南里","LIN":"2鄰","STREET":"健康路","SECT":"一段","MAREA":" ","LANE":"３２８巷","ALLEY":" ","HOUSE_NO":"７號","E_COORD97":168201,"N_COORD97":2542484.8399999999,"ADDRESS":"健康路一段３２８巷７號","OBJECTID":231652},"geometry":{"x":168201,"y":2542484.8399999999}},{"attributes":{"ID":231657,"DIS_CODE":0,"TOWNNAME":"安南區","LI":"海西里","LIN":"2鄰","STREET":"海環街","SECT":" ","MAREA":" ","LANE":"４３７巷","ALLEY":" ","HOUSE_NO":"１１號","E_COORD97":166108.48999999999,"N_COORD97":2549045.3599999999,"ADDRESS":"海環街４３７巷１１號","OBJECTID":231653},"geometry":{"x":166108.49000000115,"y":2549045.3599999994}},{"attributes":{"ID":231658,"DIS_CODE":0,"TOWNNAME":"安南區","LI":"海西里","LIN":"2鄰","STREET":"海環街","SECT":" ","MAREA":" ","LANE":"４３７巷","ALLEY":" ","HOUSE_NO":"１５號","E_COORD97":166103.04000000001,"N_COORD97":2549051.23,"ADDRESS":"海環街４３７巷１５號","OBJECTID":231654},"geometry":{"x":166103.04000000097,"y":2549051.2300000042}},{"attributes":{"ID":231659,"DIS_CODE":0,"TOWNNAME":"安南區","LI":"海西里","LIN":"2鄰","STREET":"海環街","SECT":" ","MAREA":" ","LANE":"４３７巷","ALLEY":" ","HOUSE_NO":"１７號","E_COORD97":166099.69,"N_COORD97":2549054.1499999999,"ADDRESS":"海環街４３７巷１７號","OBJECTID":231655},"geometry":{"x":166099.69000000041,"y":2549054.1500000004}},{"attributes":{"ID":231660,"DIS_CODE":0,"TOWNNAME":"安南區","LI":"海西里","LIN":"2鄰","STREET":"海環街","SECT":" ","MAREA":" ","LANE":"４３７巷","ALLEY":" ","HOUSE_NO":"１號","E_COORD97":166118.12,"N_COORD97":2549026.5499999998,"ADDRESS":"海環街４３７巷１號","OBJECTID":231656},"geometry":{"x":166118.12000000104,"y":2549026.5500000026}},{"attributes":{"ID":231661,"DIS_CODE":0,"TOWNNAME":"安南區","LI":"海西里","LIN":"2鄰","STREET":"海環街","SECT":" ","MAREA":" ","LANE":"４３７巷","ALLEY":" ","HOUSE_NO":"５號","E_COORD97":166113.92999999999,"N_COORD97":2549032.3999999999,"ADDRESS":"海環街４３７巷５號","OBJECTID":231657},"geometry":{"x":166113.93000000063,"y":2549032.4000000004}},{"attributes":{"ID":231662,"DIS_CODE":0,"TOWNNAME":"安南區","LI":"海西里","LIN":"2鄰","STREET":"海環街","SECT":" ","MAREA":" ","LANE":"４３７巷","ALLEY":" ","HOUSE_NO":"７號","E_COORD97":166111.42000000001,"N_COORD97":2549035.3300000001,"ADDRESS":"海環街４３７巷７號","OBJECTID":231658},"geometry":{"x":166111.41999999993,"y":2549035.3300000001}},{"attributes":{"ID":231663,"DIS_CODE":0,"TOWNNAME":"安南區","LI":"溪心里","LIN":"2鄰","STREET":"海環街","SECT":" ","MAREA":" ","LANE":"７１５巷","ALLEY":" ","HOUSE_NO":"４０號","E_COORD97":166481.70000000001,"N_COORD97":2549406.9399999999,"ADDRESS":"海環街７１５巷４０號","OBJECTID":231659},"geometry":{"x":166481.70000000112,"y":2549406.9399999995}},{"attributes":{"ID":231664,"DIS_CODE":0,"TOWNNAME":"安南區","LI":"溪心里","LIN":"2鄰","STREET":"海佃路","SECT":"二段","MAREA":" ","LANE":"５７３巷","ALLEY":" ","HOUSE_NO":"１０號","E_COORD97":166563.38,"N_COORD97":2549365.2000000002,"ADDRESS":"海佃路二段５７３巷１０號","OBJECTID":231660},"geometry":{"x":166563.38000000082,"y":2549365.1999999974}},{"attributes":{"ID":231665,"DIS_CODE":0,"TOWNNAME":"安南區","LI":"溪心里","LIN":"2鄰","STREET":"海佃路","SECT":"二段","MAREA":" ","LANE":"５７３巷","ALLEY":" ","HOUSE_NO":"１２號","E_COORD97":166560.64000000001,"N_COORD97":2549362.2000000002,"ADDRESS":"海佃路二段５７３巷１２號","OBJECTID":231661},"geometry":{"x":166560.63999999966,"y":2549362.200000003}},{"attributes":{"ID":231666,"DIS_CODE":0,"TOWNNAME":"安南區","LI":"溪心里","LIN":"2鄰","STREET":"海佃路","SECT":"二段","MAREA":" ","LANE":"５７３巷","ALLEY":" ","HOUSE_NO":"１４號","E_COORD97":166557.37,"N_COORD97":2549359.8599999999,"ADDRESS":"海佃路二段５７３巷１４號","OBJECTID":231662},"geometry":{"x":166557.37000000011,"y":2549359.8599999994}},{"attributes":{"ID":231667,"DIS_CODE":0,"TOWNNAME":"安南區","LI":"溪心里","LIN":"2鄰","STREET":"海佃路","SECT":"二段","MAREA":" ","LANE":"５７３巷","ALLEY":" ","HOUSE_NO":"１６號","E_COORD97":166555.54999999999,"N_COORD97":2549356.3399999999,"ADDRESS":"海佃路二段５７３巷１６號","OBJECTID":231663},"geometry":{"x":166555.55000000075,"y":2549356.3400000017}},{"attributes":{"ID":231668,"DIS_CODE":0,"TOWNNAME":"安南區","LI":"溪心里","LIN":"2鄰","STREET":"海佃路","SECT":"二段","MAREA":" ","LANE":"５７３巷","ALLEY":" ","HOUSE_NO":"１８號","E_COORD97":166552.03,"N_COORD97":2549353.21,"ADDRESS":"海佃路二段５７３巷１８號","OBJECTID":231664},"geometry":{"x":166552.03000000212,"y":2549353.209999999}},{"attributes":{"ID":231669,"DIS_CODE":0,"TOWNNAME":"安南區","LI":"溪心里","LIN":"2鄰","STREET":"海佃路","SECT":"二段","MAREA":" ","LANE":"５７３巷","ALLEY":" ","HOUSE_NO":"２０號","E_COORD97":166548.37,"N_COORD97":2549350.21,"ADDRESS":"海佃路二段５７３巷２０號","OBJECTID":231665},"geometry":{"x":166548.37000000104,"y":2549350.2100000046}},{"attributes":{"ID":231670,"DIS_CODE":0,"TOWNNAME":"安南區","LI":"溪心里","LIN":"2鄰","STREET":"海佃路","SECT":"二段","MAREA":" ","LANE":"５７３巷","ALLEY":" ","HOUSE_NO":"２４號","E_COORD97":166545.23999999999,"N_COORD97":2549347.3500000001,"ADDRESS":"海佃路二段５７３巷２４號","OBJECTID":231666},"geometry":{"x":166545.24000000022,"y":2549347.3499999996}},{"attributes":{"ID":231671,"DIS_CODE":0,"TOWNNAME":"安南區","LI":"溪心里","LIN":"2鄰","STREET":"海環街","SECT":" ","MAREA":" ","LANE":"７１５巷","ALLEY":" ","HOUSE_NO":"３８號","E_COORD97":166484.63,"N_COORD97":2549403.4500000002,"ADDRESS":"海環街７１５巷３８號","OBJECTID":231667},"geometry":{"x":166484.62999999989,"y":2549403.4499999993}},{"attributes":{"ID":231672,"DIS_CODE":0,"TOWNNAME":"安南區","LI":"溪心里","LIN":"2鄰","STREET":"海環街","SECT":" ","MAREA":" ","LANE":"７１５巷","ALLEY":" ","HOUSE_NO":"３６號","E_COORD97":166487.56,"N_COORD97":2549400.4199999999,"ADDRESS":"海環街７１５巷３６號","OBJECTID":231668},"geometry":{"x":166487.56000000052,"y":2549400.4199999999}},{"attributes":{"ID":231673,"DIS_CODE":0,"TOWNNAME":"安南區","LI":"\u25A0南里","LIN":"2鄰","STREET":"安昌街","SECT":" ","MAREA":" ","LANE":"１３１巷","ALLEY":" ","HOUSE_NO":"１４號","E_COORD97":170000.88,"N_COORD97":2552349.5,"ADDRESS":"安昌街１３１巷１４號","OBJECTID":231669},"geometry":{"x":170000.88000000082,"y":2552349.5}},{"attributes":{"ID":231674,"DIS_CODE":0,"TOWNNAME":"安南區","LI":"\u25A0南里","LIN":"2鄰","STREET":"安昌街","SECT":" ","MAREA":" ","LANE":"１３１巷","ALLEY":" ","HOUSE_NO":"６號","E_COORD97":170019.23000000001,"N_COORD97":2552371.5600000001,"ADDRESS":"安昌街１３１巷６號","OBJECTID":231670},"geometry":{"x":170019.23000000231,"y":2552371.5600000042}},{"attributes":{"ID":231675,"DIS_CODE":0,"TOWNNAME":"安南區","LI":"\u25A0南里","LIN":"2鄰","STREET":"安昌街","SECT":" ","MAREA":" ","LANE":"１３５巷","ALLEY":" ","HOUSE_NO":"１２號","E_COORD97":169986.69,"N_COORD97":2552417.6899999999,"ADDRESS":"安昌街１３５巷１２號","OBJECTID":231671},"geometry":{"x":169986.69000000041,"y":2552417.6900000013}},{"attributes":{"ID":231676,"DIS_CODE":0,"TOWNNAME":"南區","LI":"喜東里","LIN":"2鄰","STREET":"明興路","SECT":" ","MAREA":" ","LANE":"３９３巷","ALLEY":" ","HOUSE_NO":"３號","E_COORD97":166370.73000000001,"N_COORD97":2538883.5499999998,"ADDRESS":"明興路３９３巷３號","OBJECTID":231672},"geometry":{"x":166370.73000000045,"y":2538883.5500000007}},{"attributes":{"ID":231677,"DIS_CODE":0,"TOWNNAME":"南區","LI":"喜南里","LIN":"2鄰","STREET":"喜樹路","SECT":" ","MAREA":" ","LANE":"３１６巷","ALLEY":" ","HOUSE_NO":"３６號","E_COORD97":165702.78,"N_COORD97":2537730.79,"ADDRESS":"喜樹路３１６巷３６號","OBJECTID":231673},"geometry":{"x":165702.78000000212,"y":2537730.7899999991}},{"attributes":{"ID":231678,"DIS_CODE":0,"TOWNNAME":"南區","LI":"喜南里","LIN":"2鄰","STREET":"喜樹路","SECT":" ","MAREA":" ","LANE":"３１６巷","ALLEY":" ","HOUSE_NO":"４０號","E_COORD97":165691.14999999999,"N_COORD97":2537719.1600000001,"ADDRESS":"喜樹路３１６巷４０號","OBJECTID":231674},"geometry":{"x":165691.15000000037,"y":2537719.1600000001}},{"attributes":{"ID":231679,"DIS_CODE":0,"TOWNNAME":"南區","LI":"喜南里","LIN":"2鄰","STREET":"喜樹路","SECT":" ","MAREA":" ","LANE":"３４０巷","ALLEY":" ","HOUSE_NO":"２號","E_COORD97":165725.85999999999,"N_COORD97":2537707.1299999999,"ADDRESS":"喜樹路３４０巷２號","OBJECTID":231675},"geometry":{"x":165725.86000000034,"y":2537707.1300000008}},{"attributes":{"ID":231680,"DIS_CODE":0,"TOWNNAME":"南區","LI":"喜南里","LIN":"2鄰","STREET":"喜樹路","SECT":" ","MAREA":" ","LANE":"３４０巷","ALLEY":" ","HOUSE_NO":"４號","E_COORD97":165720.23999999999,"N_COORD97":2537707.1299999999,"ADDRESS":"喜樹路３４０巷４號","OBJECTID":231676},"geometry":{"x":165720.24000000115,"y":2537707.1300000008}},{"attributes":{"ID":231681,"DIS_CODE":0,"TOWNNAME":"南區","LI":"喜南里","LIN":"2鄰","STREET":"喜樹路","SECT":" ","MAREA":" ","LANE":"３４０巷","ALLEY":" ","HOUSE_NO":"４號之１","E_COORD97":165719.64000000001,"N_COORD97":2537716.1499999999,"ADDRESS":"喜樹路３４０巷４號之１","OBJECTID":231677},"geometry":{"x":165719.63999999966,"y":2537716.1500000004}},{"attributes":{"ID":231682,"DIS_CODE":0,"TOWNNAME":"南區","LI":"喜南里","LIN":"2鄰","STREET":"喜樹路","SECT":" ","MAREA":" ","LANE":"３４０巷","ALLEY":" ","HOUSE_NO":"６號","E_COORD97":165715.22,"N_COORD97":2537706.73,"ADDRESS":"喜樹路３４０巷６號","OBJECTID":231678},"geometry":{"x":165715.22000000067,"y":2537706.7299999986}},{"attributes":{"ID":231683,"DIS_CODE":0,"TOWNNAME":"南區","LI":"喜南里","LIN":"2鄰","STREET":"喜樹路","SECT":" ","MAREA":" ","LANE":"３４０巷","ALLEY":" ","HOUSE_NO":"６號之１","E_COORD97":165715.22,"N_COORD97":2537715.75,"ADDRESS":"喜樹路３４０巷６號之１","OBJECTID":231679},"geometry":{"x":165715.22000000067,"y":2537715.75}},{"attributes":{"ID":231684,"DIS_CODE":0,"TOWNNAME":"永康區","LI":"神洲里","LIN":"2鄰","STREET":"忠孝路","SECT":" ","MAREA":" ","LANE":"３２巷","ALLEY":" ","HOUSE_NO":"１８號","E_COORD97":172158.73999999999,"N_COORD97":2544635.5800000001,"ADDRESS":"忠孝路３２巷１８號","OBJECTID":231680},"geometry":{"x":172158.74000000115,"y":2544635.5800000019}},{"attributes":{"ID":231685,"DIS_CODE":0,"TOWNNAME":"永康區","LI":"神洲里","LIN":"2鄰","STREET":"忠孝路","SECT":" ","MAREA":" ","LANE":"３２巷","ALLEY":" ","HOUSE_NO":"１２號","E_COORD97":172129.56,"N_COORD97":2544635.7400000002,"ADDRESS":"忠孝路３２巷１２號","OBJECTID":231681},"geometry":{"x":172129.55999999959,"y":2544635.7400000002}},{"attributes":{"ID":231686,"DIS_CODE":0,"TOWNNAME":"永康區","LI":"神洲里","LIN":"2鄰","STREET":"忠孝路","SECT":" ","MAREA":" ","LANE":"２２巷","ALLEY":" ","HOUSE_NO":"７號","E_COORD97":172117.14999999999,"N_COORD97":2544616.6000000001,"ADDRESS":"忠孝路２２巷７號","OBJECTID":231682},"geometry":{"x":172117.1500000013,"y":2544616.6000000034}},{"attributes":{"ID":231687,"DIS_CODE":0,"TOWNNAME":"安南區","LI":"淵東里","LIN":"2鄰","STREET":"海佃路","SECT":"四段","MAREA":" ","LANE":"５５巷","ALLEY":" ","HOUSE_NO":"１３０號","E_COORD97":165445.48000000001,"N_COORD97":2550552.04,"ADDRESS":"海佃路四段５５巷１３０號","OBJECTID":231683},"geometry":{"x":165445.48000000045,"y":2550552.0399999991}},{"attributes":{"ID":231688,"DIS_CODE":0,"TOWNNAME":"安南區","LI":"淵東里","LIN":"2鄰","STREET":"海佃路","SECT":"四段","MAREA":" ","LANE":"５５巷","ALLEY":" ","HOUSE_NO":"１３４號","E_COORD97":165457.39000000001,"N_COORD97":2550522.1699999999,"ADDRESS":"海佃路四段５５巷１３４號","OBJECTID":231684},"geometry":{"x":165457.39000000153,"y":2550522.1699999981}},{"attributes":{"ID":231689,"DIS_CODE":0,"TOWNNAME":"安南區","LI":"淵東里","LIN":"2鄰","STREET":"海佃路","SECT":"四段","MAREA":" ","LANE":"５５巷","ALLEY":" ","HOUSE_NO":"１４０號","E_COORD97":165442.20999999999,"N_COORD97":2550504.3999999999,"ADDRESS":"海佃路四段５５巷１４０號","OBJECTID":231685},"geometry":{"x":165442.21000000089,"y":2550504.4000000041}},{"attributes":{"ID":231690,"DIS_CODE":0,"TOWNNAME":"安南區","LI":"淵東里","LIN":"2鄰","STREET":"海佃路","SECT":"四段","MAREA":" ","LANE":"５５巷","ALLEY":" ","HOUSE_NO":"１４２號","E_COORD97":165435.25,"N_COORD97":2550500.77,"ADDRESS":"海佃路四段５５巷１４２號","OBJECTID":231686},"geometry":{"x":165435.25000000093,"y":2550500.7699999977}},{"attributes":{"ID":231691,"DIS_CODE":0,"TOWNNAME":"中西區","LI":"公正里","LIN":"17鄰","STREET":"衛民街","SECT":" ","MAREA":" ","LANE":"１２４巷","ALLEY":" ","HOUSE_NO":"１０號","E_COORD97":168851.06,"N_COORD97":2543786.5,"ADDRESS":"衛民街１２４巷１０號","OBJECTID":231687},"geometry":{"x":168851.05999999959,"y":2543786.5}},{"attributes":{"ID":231692,"DIS_CODE":0,"TOWNNAME":"安南區","LI":"淵東里","LIN":"2鄰","STREET":"海佃路","SECT":"四段","MAREA":" ","LANE":"５５巷","ALLEY":" ","HOUSE_NO":"１４６號","E_COORD97":165412.10999999999,"N_COORD97":2550513.8500000001,"ADDRESS":"海佃路四段５５巷１４６號","OBJECTID":231688},"geometry":{"x":165412.11000000034,"y":2550513.8499999978}},{"attributes":{"ID":231693,"DIS_CODE":0,"TOWNNAME":"安南區","LI":"淵東里","LIN":"2鄰","STREET":"海佃路","SECT":"四段","MAREA":" ","LANE":"５５巷","ALLEY":" ","HOUSE_NO":"１４８號","E_COORD97":165423.44,"N_COORD97":2550494.4199999999,"ADDRESS":"海佃路四段５５巷１４８號","OBJECTID":231689},"geometry":{"x":165423.44000000041,"y":2550494.4200000018}},{"attributes":{"ID":231694,"DIS_CODE":0,"TOWNNAME":"安南區","LI":"淵東里","LIN":"2鄰","STREET":"海佃路","SECT":"四段","MAREA":" ","LANE":"５５巷","ALLEY":" ","HOUSE_NO":"１５０號","E_COORD97":165417.39000000001,"N_COORD97":2550492,"ADDRESS":"海佃路四段５５巷１５０號","OBJECTID":231690},"geometry":{"x":165417.3900000006,"y":2550492}},{"attributes":{"ID":231695,"DIS_CODE":0,"TOWNNAME":"安南區","LI":"淵東里","LIN":"2鄰","STREET":"海佃路","SECT":"四段","MAREA":" ","LANE":"５５巷","ALLEY":" ","HOUSE_NO":"１５６號","E_COORD97":165396.79999999999,"N_COORD97":2550481.73,"ADDRESS":"海佃路四段５５巷１５６號","OBJECTID":231691},"geometry":{"x":165396.79999999981,"y":2550481.7300000042}},{"attributes":{"ID":231696,"DIS_CODE":0,"TOWNNAME":"安南區","LI":"公\u25A0里","LIN":"2鄰","STREET":"公學路","SECT":"五段","MAREA":" ","LANE":"３６３巷","ALLEY":" ","HOUSE_NO":"５２號","E_COORD97":164272.39999999999,"N_COORD97":2552289.48,"ADDRESS":"公學路五段３６３巷５２號","OBJECTID":231692},"geometry":{"x":164272.40000000037,"y":2552289.4800000004}},{"attributes":{"ID":231697,"DIS_CODE":0,"TOWNNAME":"安南區","LI":"公\u25A0里","LIN":"2鄰","STREET":"公學路","SECT":"五段","MAREA":" ","LANE":"３６３巷","ALLEY":" ","HOUSE_NO":"５８號","E_COORD97":164251.57999999999,"N_COORD97":2552290.4700000002,"ADDRESS":"公學路五段３６３巷５８號","OBJECTID":231693},"geometry":{"x":164251.58000000101,"y":2552290.4700000007}},{"attributes":{"ID":231698,"DIS_CODE":0,"TOWNNAME":"安南區","LI":"公\u25A0里","LIN":"2鄰","STREET":"安興街","SECT":" ","MAREA":" ","LANE":"４３巷","ALLEY":" ","HOUSE_NO":"２４號","E_COORD97":164309.07000000001,"N_COORD97":2552244.9300000002,"ADDRESS":"安興街４３巷２４號","OBJECTID":231694},"geometry":{"x":164309.07000000216,"y":2552244.9299999997}},{"attributes":{"ID":231699,"DIS_CODE":0,"TOWNNAME":"安南區","LI":"南興里","LIN":"2鄰","STREET":"安興街","SECT":" ","MAREA":" ","LANE":"３８１巷","ALLEY":" ","HOUSE_NO":"３９號","E_COORD97":163693.70000000001,"N_COORD97":2552231.6499999999,"ADDRESS":"安興街３８１巷３９號","OBJECTID":231695},"geometry":{"x":163693.70000000019,"y":2552231.6500000041}},{"attributes":{"ID":231700,"DIS_CODE":0,"TOWNNAME":"安南區","LI":"南興里","LIN":"2鄰","STREET":"安興街","SECT":" ","MAREA":" ","LANE":"３８１巷","ALLEY":" ","HOUSE_NO":"４３號","E_COORD97":163714.12,"N_COORD97":2552248.8999999999,"ADDRESS":"安興街３８１巷４３號","OBJECTID":231696},"geometry":{"x":163714.12000000104,"y":2552248.9000000004}},{"attributes":{"ID":231701,"DIS_CODE":0,"TOWNNAME":"安南區","LI":"南興里","LIN":"2鄰","STREET":"安興街","SECT":" ","MAREA":" ","LANE":"３８１巷","ALLEY":" ","HOUSE_NO":"４７號","E_COORD97":163674.13,"N_COORD97":2552202.6400000001,"ADDRESS":"安興街３８１巷４７號","OBJECTID":231697},"geometry":{"x":163674.12999999989,"y":2552202.6400000025}},{"attributes":{"ID":231702,"DIS_CODE":0,"TOWNNAME":"安南區","LI":"南興里","LIN":"2鄰","STREET":"安興街","SECT":" ","MAREA":" ","LANE":"３８１巷","ALLEY":" ","HOUSE_NO":"５７號","E_COORD97":163663.60000000001,"N_COORD97":2552196.8599999999,"ADDRESS":"安興街３８１巷５７號","OBJECTID":231698},"geometry":{"x":163663.59999999963,"y":2552196.8600000013}},{"attributes":{"ID":231703,"DIS_CODE":0,"TOWNNAME":"東區","LI":"崇德里","LIN":"2鄰","STREET":"崇善路","SECT":" ","MAREA":" ","LANE":"２３２巷","ALLEY":" ","HOUSE_NO":"５８號","E_COORD97":170631.51000000001,"N_COORD97":2541872.4199999999,"ADDRESS":"崇善路２３２巷５８號","OBJECTID":231699},"geometry":{"x":170631.50999999978,"y":2541872.4200000018}},{"attributes":{"ID":231704,"DIS_CODE":0,"TOWNNAME":"善化區","LI":"北關里","LIN":"2鄰","STREET":"中山路","SECT":" ","MAREA":" ","LANE":"５２４巷","ALLEY":" ","HOUSE_NO":"１１號","E_COORD97":177057.22,"N_COORD97":2559221.5,"ADDRESS":"中山路５２４巷１１號","OBJECTID":231700},"geometry":{"x":177057.22000000067,"y":2559221.5000000019}},{"attributes":{"ID":231705,"DIS_CODE":0,"TOWNNAME":"仁德區","LI":"上崙里","LIN":"2鄰","STREET":"德崙路","SECT":" ","MAREA":" ","LANE":"２９１巷","ALLEY":" ","HOUSE_NO":"８８號","E_COORD97":173831.23999999999,"N_COORD97":2538280.2599999998,"ADDRESS":"德崙路２９１巷８８號","OBJECTID":231701},"geometry":{"x":173831.24000000022,"y":2538280.2600000016}},{"attributes":{"ID":231706,"DIS_CODE":0,"TOWNNAME":"仁德區","LI":"上崙里","LIN":"2鄰","STREET":"德崙路","SECT":" ","MAREA":" ","LANE":"２９１巷","ALLEY":" ","HOUSE_NO":"１０８號","E_COORD97":173801.79000000001,"N_COORD97":2538321.0099999998,"ADDRESS":"德崙路２９１巷１０８號","OBJECTID":231702},"geometry":{"x":173801.79000000004,"y":2538321.0099999998}},{"attributes":{"ID":231707,"DIS_CODE":0,"TOWNNAME":"仁德區","LI":"上崙里","LIN":"2鄰","STREET":"德崙路","SECT":" ","MAREA":" ","LANE":"２９１巷","ALLEY":" ","HOUSE_NO":"８３號","E_COORD97":173792.63,"N_COORD97":2538290.5099999998,"ADDRESS":"德崙路２９１巷８３號","OBJECTID":231703},"geometry":{"x":173792.62999999989,"y":2538290.5099999998}},{"attributes":{"ID":231708,"DIS_CODE":0,"TOWNNAME":"仁德區","LI":"上崙里","LIN":"2鄰","STREET":"德崙路","SECT":" ","MAREA":" ","LANE":"２９１巷","ALLEY":" ","HOUSE_NO":"１００號","E_COORD97":173817.59,"N_COORD97":2538300.7599999998,"ADDRESS":"德崙路２９１巷１００號","OBJECTID":231704},"geometry":{"x":173817.59000000078,"y":2538300.7600000016}},{"attributes":{"ID":231709,"DIS_CODE":0,"TOWNNAME":"仁德區","LI":"上崙里","LIN":"2鄰","STREET":"德崙路","SECT":" ","MAREA":" ","LANE":"２９１巷","ALLEY":" ","HOUSE_NO":"１０６號","E_COORD97":173807.54000000001,"N_COORD97":2538315.7599999998,"ADDRESS":"德崙路２９１巷１０６號","OBJECTID":231705},"geometry":{"x":173807.54000000097,"y":2538315.7599999998}},{"attributes":{"ID":231710,"DIS_CODE":0,"TOWNNAME":"南區","LI":"興農里","LIN":"2鄰","STREET":"灣裡路","SECT":" ","MAREA":" ","LANE":"２６３巷","ALLEY":" ","HOUSE_NO":"５１號","E_COORD97":166255.69,"N_COORD97":2536420.5899999999,"ADDRESS":"灣裡路２６３巷５１號","OBJECTID":231706},"geometry":{"x":166255.69000000041,"y":2536420.5899999999}},{"attributes":{"ID":231711,"DIS_CODE":0,"TOWNNAME":"南區","LI":"興農里","LIN":"2鄰","STREET":"灣裡路","SECT":" ","MAREA":" ","LANE":"２６３巷","ALLEY":" ","HOUSE_NO":"５７號","E_COORD97":166277.32999999999,"N_COORD97":2536425.3100000001,"ADDRESS":"灣裡路２６３巷５７號","OBJECTID":231707},"geometry":{"x":166277.33000000101,"y":2536425.3100000024}},{"attributes":{"ID":231712,"DIS_CODE":0,"TOWNNAME":"南區","LI":"明德里","LIN":"2鄰","STREET":"大成路","SECT":"一段","MAREA":" ","LANE":"１９３巷","ALLEY":" ","HOUSE_NO":"６７號","E_COORD97":168039.76000000001,"N_COORD97":2541672.02,"ADDRESS":"大成路一段１９３巷６７號","OBJECTID":231708},"geometry":{"x":168039.75999999978,"y":2541672.0200000014}},{"attributes":{"ID":231713,"DIS_CODE":0,"TOWNNAME":"南區","LI":"明德里","LIN":"2鄰","STREET":"大成路","SECT":"一段","MAREA":" ","LANE":"１９３巷","ALLEY":" ","HOUSE_NO":"４０號","E_COORD97":168019.75,"N_COORD97":2541686.4700000002,"ADDRESS":"大成路一段１９３巷４０號","OBJECTID":231709},"geometry":{"x":168019.75,"y":2541686.4700000025}},{"attributes":{"ID":231714,"DIS_CODE":0,"TOWNNAME":"新市區","LI":"港墘里","LIN":"23鄰","STREET":"光華街","SECT":" ","MAREA":" ","LANE":"１５２巷","ALLEY":" ","HOUSE_NO":"５號","E_COORD97":177925.79000000001,"N_COORD97":2552818.5,"ADDRESS":"光華街１５２巷５號","OBJECTID":231710},"geometry":{"x":177925.79000000004,"y":2552818.5}},{"attributes":{"ID":231715,"DIS_CODE":0,"TOWNNAME":"南區","LI":"明德里","LIN":"2鄰","STREET":"大成路","SECT":"一段","MAREA":" ","LANE":"１９３巷","ALLEY":" ","HOUSE_NO":"３９號","E_COORD97":168014.98999999999,"N_COORD97":2541686.7000000002,"ADDRESS":"大成路一段１９３巷３９號","OBJECTID":231711},"geometry":{"x":168014.99000000022,"y":2541686.7000000011}},{"attributes":{"ID":231716,"DIS_CODE":0,"TOWNNAME":"歸仁區","LI":"八甲里","LIN":"14鄰","STREET":"大明街","SECT":" ","MAREA":" ","LANE":"１３８巷","ALLEY":" ","HOUSE_NO":"１００號","E_COORD97":178729.99481500001,"N_COORD97":2541646.0617499999,"ADDRESS":"大明街１３８巷１００號","OBJECTID":231712},"geometry":{"x":178729.99481500126,"y":2541646.0617520008}},{"attributes":{"ID":231717,"DIS_CODE":0,"TOWNNAME":"南區","LI":"明德里","LIN":"2鄰","STREET":"大成路","SECT":"一段","MAREA":" ","LANE":"１９３巷","ALLEY":" ","HOUSE_NO":"２８號","E_COORD97":167944.51000000001,"N_COORD97":2541685.5099999998,"ADDRESS":"大成路一段１９３巷２８號","OBJECTID":231713},"geometry":{"x":167944.50999999978,"y":2541685.5100000016}},{"attributes":{"ID":231718,"DIS_CODE":0,"TOWNNAME":"南區","LI":"明德里","LIN":"2鄰","STREET":"大成路","SECT":"一段","MAREA":" ","LANE":"１９３巷","ALLEY":" ","HOUSE_NO":"２７號","E_COORD97":167938.32000000001,"N_COORD97":2541685.3599999999,"ADDRESS":"大成路一段１９３巷２７號","OBJECTID":231714},"geometry":{"x":167938.3200000003,"y":2541685.3600000031}},{"attributes":{"ID":231719,"DIS_CODE":0,"TOWNNAME":"南區","LI":"喜南里","LIN":"2鄰","STREET":"喜樹路","SECT":" ","MAREA":" ","LANE":"３４０巷","ALLEY":" ","HOUSE_NO":"２０之１號","E_COORD97":165672.89000000001,"N_COORD97":2537712.71,"ADDRESS":"喜樹路３４０巷２０之１號","OBJECTID":231715},"geometry":{"x":165672.8900000006,"y":2537712.7100000009}},{"attributes":{"ID":231720,"DIS_CODE":0,"TOWNNAME":"東區","LI":"復興里","LIN":"13鄰","STREET":"自由路","SECT":"三段","MAREA":" ","LANE":" ","ALLEY":" ","HOUSE_NO":"２４３號地下一層","E_COORD97":171759.97,"N_COORD97":2542606.8399999999,"ADDRESS":"自由路三段２４３號地下一層","OBJECTID":231716},"geometry":{"x":171759.97000000067,"y":2542606.8399999999}},{"attributes":{"ID":231721,"DIS_CODE":0,"TOWNNAME":"東區","LI":"復興里","LIN":"13鄰","STREET":"自由路","SECT":"三段","MAREA":" ","LANE":" ","ALLEY":" ","HOUSE_NO":"２４３號地下二層","E_COORD97":171759.97,"N_COORD97":2542606.8399999999,"ADDRESS":"自由路三段２４３號地下二層","OBJECTID":231717},"geometry":{"x":171759.97000000067,"y":2542606.8399999999}},{"attributes":{"ID":231722,"DIS_CODE":0,"TOWNNAME":"東區","LI":"復興里","LIN":"14鄰","STREET":"裕學路","SECT":" ","MAREA":" ","LANE":"１８５巷","ALLEY":" ","HOUSE_NO":"１３０號","E_COORD97":171695.60999999999,"N_COORD97":2542624.9399999999,"ADDRESS":"裕學路１８５巷１３０號","OBJECTID":231718},"geometry":{"x":171695.61000000127,"y":2542624.9400000013}},{"attributes":{"ID":231723,"DIS_CODE":0,"TOWNNAME":"東區","LI":"復興里","LIN":"14鄰","STREET":"裕學路","SECT":" ","MAREA":" ","LANE":"１８５巷","ALLEY":" ","HOUSE_NO":"１３２號","E_COORD97":171696.41,"N_COORD97":2542621.3599999999,"ADDRESS":"裕學路１８５巷１３２號","OBJECTID":231719},"geometry":{"x":171696.41000000108,"y":2542621.3600000013}},{"attributes":{"ID":231724,"DIS_CODE":0,"TOWNNAME":"東區","LI":"復興里","LIN":"14鄰","STREET":"裕學路","SECT":" ","MAREA":" ","LANE":"１８５巷","ALLEY":" ","HOUSE_NO":"１３６號","E_COORD97":171696.41,"N_COORD97":2542616.1899999999,"ADDRESS":"裕學路１８５巷１３６號","OBJECTID":231720},"geometry":{"x":171696.41000000108,"y":2542616.1900000013}},{"attributes":{"ID":231725,"DIS_CODE":0,"TOWNNAME":"東區","LI":"復興里","LIN":"14鄰","STREET":"裕學路","SECT":" ","MAREA":" ","LANE":"１８５巷","ALLEY":" ","HOUSE_NO":"１３８號","E_COORD97":171696.41,"N_COORD97":2542612.21,"ADDRESS":"裕學路１８５巷１３８號","OBJECTID":231721},"geometry":{"x":171696.41000000108,"y":2542612.2100000009}},{"attributes":{"ID":231726,"DIS_CODE":0,"TOWNNAME":"永康區","LI":"網寮里","LIN":"23鄰","STREET":"文化路","SECT":" ","MAREA":" ","LANE":"１２８巷","ALLEY":" ","HOUSE_NO":"４號五樓之２","E_COORD97":173903.53,"N_COORD97":2546260,"ADDRESS":"文化路１２８巷４號五樓之２","OBJECTID":231722},"geometry":{"x":173903.53000000026,"y":2546260.0000000019}},{"attributes":{"ID":231727,"DIS_CODE":0,"TOWNNAME":"東區","LI":"復興里","LIN":"14鄰","STREET":"裕學路","SECT":" ","MAREA":" ","LANE":"１８５巷","ALLEY":" ","HOUSE_NO":"１４０號","E_COORD97":171696.41,"N_COORD97":2542608.2400000002,"ADDRESS":"裕學路１８５巷１４０號","OBJECTID":231723},"geometry":{"x":171696.41000000108,"y":2542608.2400000002}},{"attributes":{"ID":231728,"DIS_CODE":0,"TOWNNAME":"東區","LI":"復興里","LIN":"12鄰","STREET":"裕學路","SECT":" ","MAREA":" ","LANE":"１８５巷","ALLEY":" ","HOUSE_NO":"１２０號","E_COORD97":171695.20999999999,"N_COORD97":2542638.8599999999,"ADDRESS":"裕學路１８５巷１２０號","OBJECTID":231724},"geometry":{"x":171695.20999999996,"y":2542638.8600000013}},{"attributes":{"ID":231729,"DIS_CODE":0,"TOWNNAME":"東區","LI":"復興里","LIN":"12鄰","STREET":"裕學路","SECT":" ","MAREA":" ","LANE":"１８５巷","ALLEY":" ","HOUSE_NO":"１０１號","E_COORD97":171719.20000000001,"N_COORD97":2542632.1400000001,"ADDRESS":"裕學路１８５巷１０１號","OBJECTID":231725},"geometry":{"x":171719.20000000019,"y":2542632.1400000025}},{"attributes":{"ID":231730,"DIS_CODE":0,"TOWNNAME":"東區","LI":"復興里","LIN":"12鄰","STREET":"裕學路","SECT":" ","MAREA":" ","LANE":"１８５巷","ALLEY":" ","HOUSE_NO":"１２２號","E_COORD97":171695.20999999999,"N_COORD97":2542636.0699999998,"ADDRESS":"裕學路１８５巷１２２號","OBJECTID":231726},"geometry":{"x":171695.20999999996,"y":2542636.0700000003}},{"attributes":{"ID":231731,"DIS_CODE":0,"TOWNNAME":"東區","LI":"復興里","LIN":"12鄰","STREET":"裕學路","SECT":" ","MAREA":" ","LANE":"１８５巷","ALLEY":" ","HOUSE_NO":"１０３號","E_COORD97":171719.20000000001,"N_COORD97":2542628.5600000001,"ADDRESS":"裕學路１８５巷１０３號","OBJECTID":231727},"geometry":{"x":171719.20000000019,"y":2542628.5600000024}},{"attributes":{"ID":231732,"DIS_CODE":0,"TOWNNAME":"安南區","LI":"大安里","LIN":"2鄰","STREET":"大安街","SECT":" ","MAREA":" ","LANE":"６８巷","ALLEY":" ","HOUSE_NO":"１０號","E_COORD97":167232.91,"N_COORD97":2547957.1200000001,"ADDRESS":"大安街６８巷１０號","OBJECTID":231728},"geometry":{"x":167232.91000000108,"y":2547957.1199999992}},{"attributes":{"ID":231733,"DIS_CODE":0,"TOWNNAME":"安南區","LI":"大安里","LIN":"2鄰","STREET":"大安街","SECT":" ","MAREA":" ","LANE":"６８巷","ALLEY":" ","HOUSE_NO":"１４號","E_COORD97":167241.38,"N_COORD97":2547951.5600000001,"ADDRESS":"大安街６８巷１４號","OBJECTID":231729},"geometry":{"x":167241.38000000082,"y":2547951.5600000024}},{"attributes":{"ID":231734,"DIS_CODE":0,"TOWNNAME":"安南區","LI":"大安里","LIN":"2鄰","STREET":"大安街","SECT":" ","MAREA":" ","LANE":"６８巷","ALLEY":" ","HOUSE_NO":"１６號","E_COORD97":167244.10000000001,"N_COORD97":2547946.8700000001,"ADDRESS":"大安街６８巷１６號","OBJECTID":231730},"geometry":{"x":167244.09999999963,"y":2547946.8700000029}},{"attributes":{"ID":231735,"DIS_CODE":0,"TOWNNAME":"安南區","LI":"大安里","LIN":"2鄰","STREET":"大安街","SECT":" ","MAREA":" ","LANE":"６８巷","ALLEY":" ","HOUSE_NO":"２０號","E_COORD97":167252.32000000001,"N_COORD97":2547941.46,"ADDRESS":"大安街６８巷２０號","OBJECTID":231731},"geometry":{"x":167252.32000000123,"y":2547941.4600000046}},{"attributes":{"ID":231736,"DIS_CODE":0,"TOWNNAME":"安南區","LI":"大安里","LIN":"2鄰","STREET":"大安街","SECT":" ","MAREA":" ","LANE":"６８巷","ALLEY":" ","HOUSE_NO":"２２號","E_COORD97":167256.59,"N_COORD97":2547939.0499999998,"ADDRESS":"大安街６８巷２２號","OBJECTID":231732},"geometry":{"x":167256.59000000078,"y":2547939.0500000007}},{"attributes":{"ID":231737,"DIS_CODE":0,"TOWNNAME":"安南區","LI":"大安里","LIN":"2鄰","STREET":"大安街","SECT":" ","MAREA":" ","LANE":"６８巷","ALLEY":" ","HOUSE_NO":"２４號","E_COORD97":167261.22,"N_COORD97":2547936.3300000001,"ADDRESS":"大安街６８巷２４號","OBJECTID":231733},"geometry":{"x":167261.22000000067,"y":2547936.3300000001}},{"attributes":{"ID":231738,"DIS_CODE":0,"TOWNNAME":"安南區","LI":"大安里","LIN":"2鄰","STREET":"大安街","SECT":" ","MAREA":" ","LANE":"６８巷","ALLEY":" ","HOUSE_NO":"２６號","E_COORD97":167265.48999999999,"N_COORD97":2547934.48,"ADDRESS":"大安街６８巷２６號","OBJECTID":231734},"geometry":{"x":167265.49000000022,"y":2547934.4800000023}},{"attributes":{"ID":231739,"DIS_CODE":0,"TOWNNAME":"新化區","LI":"清水里","LIN":"2鄰","STREET":"信義路","SECT":" ","MAREA":" ","LANE":"４１２巷","ALLEY":" ","HOUSE_NO":"３８號","E_COORD97":178742.48000000001,"N_COORD97":2548327.25,"ADDRESS":"信義路４１２巷３８號","OBJECTID":231735},"geometry":{"x":178742.48000000045,"y":2548327.25}},{"attributes":{"ID":231740,"DIS_CODE":0,"TOWNNAME":"東區","LI":"自強里","LIN":"7鄰","STREET":"東門路","SECT":"三段","MAREA":" ","LANE":"３７巷","ALLEY":" ","HOUSE_NO":"５７號","E_COORD97":171227.10999999999,"N_COORD97":2542353.3500000001,"ADDRESS":"東門路三段３７巷５７號","OBJECTID":231736},"geometry":{"x":171227.11000000127,"y":2542353.3500000034}},{"attributes":{"ID":231741,"DIS_CODE":0,"TOWNNAME":"東區","LI":"自強里","LIN":"7鄰","STREET":"東門路","SECT":"三段","MAREA":" ","LANE":"３７巷","ALLEY":" ","HOUSE_NO":"５９號","E_COORD97":171227.42000000001,"N_COORD97":2542349.3999999999,"ADDRESS":"東門路三段３７巷５９號","OBJECTID":231737},"geometry":{"x":171227.41999999993,"y":2542349.4000000004}},{"attributes":{"ID":231742,"DIS_CODE":0,"TOWNNAME":"東區","LI":"自強里","LIN":"10鄰","STREET":"東門路","SECT":"三段","MAREA":" ","LANE":"１１巷","ALLEY":" ","HOUSE_NO":"６號","E_COORD97":171122.82999999999,"N_COORD97":2542456.8100000001,"ADDRESS":"東門路三段１１巷６號","OBJECTID":231738},"geometry":{"x":171122.83000000007,"y":2542456.8100000024}},{"attributes":{"ID":231743,"DIS_CODE":0,"TOWNNAME":"東區","LI":"自強里","LIN":"10鄰","STREET":"東門路","SECT":"三段","MAREA":" ","LANE":"１１巷","ALLEY":" ","HOUSE_NO":"７號","E_COORD97":171080.92999999999,"N_COORD97":2542421.0499999998,"ADDRESS":"東門路三段１１巷７號","OBJECTID":231739},"geometry":{"x":171080.9299999997,"y":2542421.0500000045}},{"attributes":{"ID":231744,"DIS_CODE":0,"TOWNNAME":"東區","LI":"自強里","LIN":"10鄰","STREET":"東門路","SECT":"三段","MAREA":" ","LANE":"１１巷","ALLEY":" ","HOUSE_NO":"８號","E_COORD97":171126.14999999999,"N_COORD97":2542461.0800000001,"ADDRESS":"東門路三段１１巷８號","OBJECTID":231740},"geometry":{"x":171126.15000000037,"y":2542461.0800000038}},{"attributes":{"ID":231745,"DIS_CODE":0,"TOWNNAME":"東區","LI":"自強里","LIN":"10鄰","STREET":"東門路","SECT":"三段","MAREA":" ","LANE":"１１巷","ALLEY":" ","HOUSE_NO":"９號","E_COORD97":171086.53,"N_COORD97":2542427.23,"ADDRESS":"東門路三段１１巷９號","OBJECTID":231741},"geometry":{"x":171086.53000000026,"y":2542427.2300000023}},{"attributes":{"ID":231746,"DIS_CODE":0,"TOWNNAME":"白河區","LI":"庄內里","LIN":"2鄰","STREET":"愛國街","SECT":" ","MAREA":" ","LANE":"７７巷","ALLEY":" ","HOUSE_NO":"１０號","E_COORD97":191021.84,"N_COORD97":2583446.2200000002,"ADDRESS":"愛國街７７巷１０號","OBJECTID":231742},"geometry":{"x":191021.84000000078,"y":2583446.2200000007}},{"attributes":{"ID":231747,"DIS_CODE":0,"TOWNNAME":"白河區","LI":"庄內里","LIN":"2鄰","STREET":"新興路","SECT":" ","MAREA":" ","LANE":"２２８巷","ALLEY":" ","HOUSE_NO":"１２號","E_COORD97":191066.85000000001,"N_COORD97":2583422.6499999999,"ADDRESS":"新興路２２８巷１２號","OBJECTID":231743},"geometry":{"x":191066.85000000149,"y":2583422.6500000004}},{"attributes":{"ID":231748,"DIS_CODE":0,"TOWNNAME":"白河區","LI":"庄內里","LIN":"2鄰","STREET":"新興路","SECT":" ","MAREA":" ","LANE":"２２８巷","ALLEY":" ","HOUSE_NO":"１４號","E_COORD97":191064.38,"N_COORD97":2583427.3100000001,"ADDRESS":"新興路２２８巷１４號","OBJECTID":231744},"geometry":{"x":191064.37999999989,"y":2583427.3100000024}},{"attributes":{"ID":231749,"DIS_CODE":0,"TOWNNAME":"白河區","LI":"庄內里","LIN":"2鄰","STREET":"新興路","SECT":" ","MAREA":" ","LANE":"２２８巷","ALLEY":" ","HOUSE_NO":"１６號","E_COORD97":191062.92999999999,"N_COORD97":2583431.48,"ADDRESS":"新興路２２８巷１６號","OBJECTID":231745},"geometry":{"x":191062.93000000156,"y":2583431.4800000042}},{"attributes":{"ID":231750,"DIS_CODE":0,"TOWNNAME":"東區","LI":"自強里","LIN":"20鄰","STREET":"中華東路","SECT":"二段","MAREA":" ","LANE":"２４３巷","ALLEY":" ","HOUSE_NO":"３９號之２","E_COORD97":171394.23000000001,"N_COORD97":2542600.25,"ADDRESS":"中華東路二段２４３巷３９號之２","OBJECTID":231746},"geometry":{"x":171394.23000000138,"y":2542600.2500000019}},{"attributes":{"ID":231751,"DIS_CODE":0,"TOWNNAME":"東區","LI":"自強里","LIN":"20鄰","STREET":"中華東路","SECT":"二段","MAREA":" ","LANE":"２４３巷","ALLEY":" ","HOUSE_NO":"３９號地下一層","E_COORD97":171386.23999999999,"N_COORD97":2542604.8799999999,"ADDRESS":"中華東路二段２４３巷３９號地下一層","OBJECTID":231747},"geometry":{"x":171386.24000000022,"y":2542604.8800000008}},{"attributes":{"ID":231752,"DIS_CODE":0,"TOWNNAME":"永康區","LI":"烏竹里","LIN":"2鄰","STREET":"烏竹街","SECT":" ","MAREA":" ","LANE":"６２巷","ALLEY":" ","HOUSE_NO":"２３號","E_COORD97":174565.85000000001,"N_COORD97":2549417.75,"ADDRESS":"烏竹街６２巷２３號","OBJECTID":231748},"geometry":{"x":174565.85000000149,"y":2549417.7500000019}},{"attributes":{"ID":231753,"DIS_CODE":0,"TOWNNAME":"東區","LI":"崇德里","LIN":"14鄰","STREET":"崇明路","SECT":" ","MAREA":" ","LANE":" ","ALLEY":" ","HOUSE_NO":"４０５號","E_COORD97":170431.91,"N_COORD97":2541589.4100000001,"ADDRESS":"崇明路４０５號","OBJECTID":231749},"geometry":{"x":170431.91000000108,"y":2541589.4100000001}},{"attributes":{"ID":231754,"DIS_CODE":0,"TOWNNAME":"永康區","LI":"復興里","LIN":"23鄰","STREET":"復興路","SECT":" ","MAREA":" ","LANE":"２４６巷","ALLEY":" ","HOUSE_NO":"１５號","E_COORD97":172392.76999999999,"N_COORD97":2544436.1200000001,"ADDRESS":"復興路２４６巷１５號","OBJECTID":231750},"geometry":{"x":172392.76999999955,"y":2544436.1200000029}},{"attributes":{"ID":231755,"DIS_CODE":0,"TOWNNAME":"永康區","LI":"南灣里","LIN":"2鄰","STREET":"大灣路","SECT":" ","MAREA":" ","LANE":"４３５巷","ALLEY":" ","HOUSE_NO":"２號之１","E_COORD97":174701.47,"N_COORD97":2544763.2999999998,"ADDRESS":"大灣路４３５巷２號之１","OBJECTID":231751},"geometry":{"x":174701.47000000067,"y":2544763.3000000026}},{"attributes":{"ID":231756,"DIS_CODE":0,"TOWNNAME":"永康區","LI":"南灣里","LIN":"2鄰","STREET":"大灣一街","SECT":" ","MAREA":" ","LANE":"１４７巷","ALLEY":" ","HOUSE_NO":"１號","E_COORD97":174670.64999999999,"N_COORD97":2544648.75,"ADDRESS":"大灣一街１４７巷１號","OBJECTID":231752},"geometry":{"x":174670.65000000037,"y":2544648.75}},{"attributes":{"ID":231757,"DIS_CODE":0,"TOWNNAME":"永康區","LI":"埔園里","LIN":"2鄰","STREET":"中山路","SECT":" ","MAREA":" ","LANE":"１２０巷","ALLEY":" ","HOUSE_NO":"９號","E_COORD97":173830.42999999999,"N_COORD97":2547757.5,"ADDRESS":"中山路１２０巷９號","OBJECTID":231753},"geometry":{"x":173830.43000000063,"y":2547757.5000000019}},{"attributes":{"ID":231758,"DIS_CODE":0,"TOWNNAME":"永康區","LI":"埔園里","LIN":"2鄰","STREET":"中山路","SECT":" ","MAREA":" ","LANE":"１２０巷","ALLEY":" ","HOUSE_NO":"８號","E_COORD97":173831.42999999999,"N_COORD97":2547714.4900000002,"ADDRESS":"中山路１２０巷８號","OBJECTID":231754},"geometry":{"x":173831.43000000156,"y":2547714.4900000021}},{"attributes":{"ID":231759,"DIS_CODE":0,"TOWNNAME":"永康區","LI":"埔園里","LIN":"2鄰","STREET":"中山路","SECT":" ","MAREA":" ","LANE":"１２０巷","ALLEY":" ","HOUSE_NO":"１號","E_COORD97":173806.82999999999,"N_COORD97":2547748.4900000002,"ADDRESS":"中山路１２０巷１號","OBJECTID":231755},"geometry":{"x":173806.82999999914,"y":2547748.4900000021}},{"attributes":{"ID":231760,"DIS_CODE":0,"TOWNNAME":"永康區","LI":"尚頂里","LIN":"2鄰","STREET":"中正二街","SECT":" ","MAREA":" ","LANE":"１６９巷","ALLEY":" ","HOUSE_NO":"１５號","E_COORD97":171282.37,"N_COORD97":2547761.5,"ADDRESS":"中正二街１６９巷１５號","OBJECTID":231756},"geometry":{"x":171282.37000000011,"y":2547761.5000000019}},{"attributes":{"ID":231761,"DIS_CODE":0,"TOWNNAME":"永康區","LI":"西灣里","LIN":"2鄰","STREET":"大灣路","SECT":" ","MAREA":" ","LANE":"４０６巷","ALLEY":" ","HOUSE_NO":"６４號","E_COORD97":174653.26000000001,"N_COORD97":2545113.4900000002,"ADDRESS":"大灣路４０６巷６４號","OBJECTID":231757},"geometry":{"x":174653.26000000071,"y":2545113.4900000021}},{"attributes":{"ID":231762,"DIS_CODE":0,"TOWNNAME":"永康區","LI":"尚頂里","LIN":"2鄰","STREET":"中正南路","SECT":" ","MAREA":" ","LANE":"３４４巷","ALLEY":" ","HOUSE_NO":"９號","E_COORD97":171037.63,"N_COORD97":2547949.9900000002,"ADDRESS":"中正南路３４４巷９號","OBJECTID":231758},"geometry":{"x":171037.62999999989,"y":2547949.9900000002}},{"attributes":{"ID":231763,"DIS_CODE":0,"TOWNNAME":"東區","LI":"崇信里","LIN":"2鄰","STREET":"崇學路","SECT":" ","MAREA":" ","LANE":"２３０巷","ALLEY":" ","HOUSE_NO":"１７號","E_COORD97":170667.07999999999,"N_COORD97":2542534.6899999999,"ADDRESS":"崇學路２３０巷１７號","OBJECTID":231759},"geometry":{"x":170667.08000000007,"y":2542534.6900000013}},{"attributes":{"ID":231764,"DIS_CODE":0,"TOWNNAME":"東區","LI":"自強里","LIN":"18鄰","STREET":"中華東路","SECT":"二段","MAREA":" ","LANE":"２０３巷","ALLEY":" ","HOUSE_NO":"２２號","E_COORD97":171298.25,"N_COORD97":2542662.3700000001,"ADDRESS":"中華東路二段２０３巷２２號","OBJECTID":231760},"geometry":{"x":171298.25,"y":2542662.370000001}},{"attributes":{"ID":231765,"DIS_CODE":0,"TOWNNAME":"東區","LI":"自強里","LIN":"18鄰","STREET":"中華東路","SECT":"二段","MAREA":" ","LANE":"２０３巷","ALLEY":" ","HOUSE_NO":"２４號","E_COORD97":171290.94,"N_COORD97":2542661.9700000002,"ADDRESS":"中華東路二段２０３巷２４號","OBJECTID":231761},"geometry":{"x":171290.94000000227,"y":2542661.9699999988}},{"attributes":{"ID":231766,"DIS_CODE":0,"TOWNNAME":"東區","LI":"自強里","LIN":"18鄰","STREET":"中華東路","SECT":"二段","MAREA":" ","LANE":"２０３巷","ALLEY":" ","HOUSE_NO":"２６號","E_COORD97":171283.03,"N_COORD97":2542660.3500000001,"ADDRESS":"中華東路二段２０３巷２６號","OBJECTID":231762},"geometry":{"x":171283.03000000026,"y":2542660.3499999996}},{"attributes":{"ID":231767,"DIS_CODE":0,"TOWNNAME":"東區","LI":"自強里","LIN":"18鄰","STREET":"中華東路","SECT":"二段","MAREA":" ","LANE":"２０３巷","ALLEY":" ","HOUSE_NO":"２８號","E_COORD97":171276.53,"N_COORD97":2542660.1499999999,"ADDRESS":"中華東路二段２０３巷２８號","OBJECTID":231763},"geometry":{"x":171276.53000000212,"y":2542660.1500000004}},{"attributes":{"ID":231768,"DIS_CODE":0,"TOWNNAME":"東區","LI":"自強里","LIN":"18鄰","STREET":"中華東路","SECT":"二段","MAREA":" ","LANE":"２０３巷","ALLEY":" ","HOUSE_NO":"２號","E_COORD97":171292.31,"N_COORD97":2542706.48,"ADDRESS":"中華東路二段２０３巷２號","OBJECTID":231764},"geometry":{"x":171292.30999999959,"y":2542706.4800000023}},{"attributes":{"ID":231769,"DIS_CODE":0,"TOWNNAME":"白河區","LI":"永安里","LIN":"2鄰","STREET":"中正路","SECT":" ","MAREA":" ","LANE":"２７巷","ALLEY":" ","HOUSE_NO":"７號","E_COORD97":190124.5,"N_COORD97":2583073.2000000002,"ADDRESS":"中正路２７巷７號","OBJECTID":231765},"geometry":{"x":190124.5,"y":2583073.2000000011}},{"attributes":{"ID":231770,"DIS_CODE":0,"TOWNNAME":"南區","LI":"省躬里","LIN":"2鄰","STREET":"省躬三街","SECT":" ","MAREA":" ","LANE":"１６５巷","ALLEY":" ","HOUSE_NO":"９號","E_COORD97":165767.67999999999,"N_COORD97":2536751.3199999998,"ADDRESS":"省躬三街１６５巷９號","OBJECTID":231766},"geometry":{"x":165767.68000000063,"y":2536751.3200000022}},{"attributes":{"ID":231771,"DIS_CODE":0,"TOWNNAME":"南區","LI":"廣州里","LIN":"2鄰","STREET":"健康路","SECT":"二段","MAREA":" ","LANE":"１５０巷","ALLEY":" ","HOUSE_NO":"１５號","E_COORD97":167337.51999999999,"N_COORD97":2542522.0699999998,"ADDRESS":"健康路二段１５０巷１５號","OBJECTID":231767},"geometry":{"x":167337.51999999955,"y":2542522.070000004}},{"attributes":{"ID":231772,"DIS_CODE":0,"TOWNNAME":"南區","LI":"永寧里","LIN":"2鄰","STREET":"灣裡路","SECT":" ","MAREA":" ","LANE":"１８６巷","ALLEY":" ","HOUSE_NO":"１６號","E_COORD97":166005.35000000001,"N_COORD97":2536644.1099999999,"ADDRESS":"灣裡路１８６巷１６號","OBJECTID":231768},"geometry":{"x":166005.35000000056,"y":2536644.1099999994}},{"attributes":{"ID":231773,"DIS_CODE":0,"TOWNNAME":"南區","LI":"同安里","LIN":"2鄰","STREET":"灣裡路","SECT":" ","MAREA":" ","LANE":"４００巷","ALLEY":" ","HOUSE_NO":"３９號","E_COORD97":166046.63,"N_COORD97":2536142.2599999998,"ADDRESS":"灣裡路４００巷３９號","OBJECTID":231769},"geometry":{"x":166046.63000000082,"y":2536142.2599999998}},{"attributes":{"ID":231774,"DIS_CODE":0,"TOWNNAME":"南區","LI":"佛壇里","LIN":"2鄰","STREET":"興南街","SECT":" ","MAREA":" ","LANE":"２５２巷","ALLEY":" ","HOUSE_NO":"８號","E_COORD97":165960.62,"N_COORD97":2535750.23,"ADDRESS":"興南街２５２巷８號","OBJECTID":231770},"geometry":{"x":165960.62000000011,"y":2535750.2300000004}},{"attributes":{"ID":231775,"DIS_CODE":0,"TOWNNAME":"南區","LI":"佛壇里","LIN":"2鄰","STREET":"興南街","SECT":" ","MAREA":" ","LANE":"２５２巷","ALLEY":" ","HOUSE_NO":"１０號","E_COORD97":165957.92000000001,"N_COORD97":2535755.1499999999,"ADDRESS":"興南街２５２巷１０號","OBJECTID":231771},"geometry":{"x":165957.92000000086,"y":2535755.1500000022}},{"attributes":{"ID":231776,"DIS_CODE":0,"TOWNNAME":"東區","LI":"崇德里","LIN":"14鄰","STREET":"崇明路","SECT":" ","MAREA":" ","LANE":" ","ALLEY":" ","HOUSE_NO":"３９９號","E_COORD97":170416.56,"N_COORD97":2541604.3300000001,"ADDRESS":"崇明路３９９號","OBJECTID":231772},"geometry":{"x":170416.56000000052,"y":2541604.3300000001}},{"attributes":{"ID":231777,"DIS_CODE":0,"TOWNNAME":"南區","LI":"佛壇里","LIN":"2鄰","STREET":"興南街","SECT":" ","MAREA":" ","LANE":"２５２巷","ALLEY":" ","HOUSE_NO":"１２號","E_COORD97":165955.22,"N_COORD97":2535761.0299999998,"ADDRESS":"興南街２５２巷１２號","OBJECTID":231773},"geometry":{"x":165955.2200000016,"y":2535761.0300000031}},{"attributes":{"ID":231778,"DIS_CODE":0,"TOWNNAME":"南區","LI":"佛壇里","LIN":"2鄰","STREET":"興南街","SECT":" ","MAREA":" ","LANE":"２５２巷","ALLEY":" ","HOUSE_NO":"２２號","E_COORD97":165941.41,"N_COORD97":2535782.46,"ADDRESS":"興南街２５２巷２２號","OBJECTID":231774},"geometry":{"x":165941.41000000108,"y":2535782.4600000009}},{"attributes":{"ID":231779,"DIS_CODE":0,"TOWNNAME":"南區","LI":"佛壇里","LIN":"2鄰","STREET":"興南街","SECT":" ","MAREA":" ","LANE":"２５２巷","ALLEY":" ","HOUSE_NO":"１８號","E_COORD97":165947.44,"N_COORD97":2535771.5099999998,"ADDRESS":"興南街２５２巷１８號","OBJECTID":231775},"geometry":{"x":165947.44000000041,"y":2535771.5099999979}},{"attributes":{"ID":231780,"DIS_CODE":0,"TOWNNAME":"南區","LI":"佛壇里","LIN":"2鄰","STREET":"興南街","SECT":" ","MAREA":" ","LANE":"２５２巷","ALLEY":" ","HOUSE_NO":"１６號","E_COORD97":165951.41,"N_COORD97":2535766.27,"ADDRESS":"興南街２５２巷１６號","OBJECTID":231776},"geometry":{"x":165951.41000000108,"y":2535766.2700000033}},{"attributes":{"ID":231781,"DIS_CODE":0,"TOWNNAME":"南區","LI":"佛壇里","LIN":"2鄰","STREET":"興南街","SECT":" ","MAREA":" ","LANE":"２５２巷","ALLEY":" ","HOUSE_NO":"２０號","E_COORD97":165943.79000000001,"N_COORD97":2535777.2200000002,"ADDRESS":"興南街２５２巷２０號","OBJECTID":231777},"geometry":{"x":165943.79000000097,"y":2535777.2200000007}},{"attributes":{"ID":231782,"DIS_CODE":0,"TOWNNAME":"南區","LI":"佛壇里","LIN":"2鄰","STREET":"興南街","SECT":" ","MAREA":" ","LANE":"２５２巷","ALLEY":" ","HOUSE_NO":"４８號","E_COORD97":165917.28,"N_COORD97":2535832.4700000002,"ADDRESS":"興南街２５２巷４８號","OBJECTID":231778},"geometry":{"x":165917.28000000026,"y":2535832.4700000007}},{"attributes":{"ID":231783,"DIS_CODE":0,"TOWNNAME":"南區","LI":"文南里","LIN":"2鄰","STREET":"建南路","SECT":" ","MAREA":" ","LANE":"１３５巷","ALLEY":" ","HOUSE_NO":"６號","E_COORD97":166982.56,"N_COORD97":2542809.98,"ADDRESS":"建南路１３５巷６號","OBJECTID":231779},"geometry":{"x":166982.56000000052,"y":2542809.9800000004}},{"attributes":{"ID":231784,"DIS_CODE":0,"TOWNNAME":"東區","LI":"大福里","LIN":"2鄰","STREET":"榮譽街","SECT":" ","MAREA":" ","LANE":"２５巷","ALLEY":" ","HOUSE_NO":"６號","E_COORD97":169577.79999999999,"N_COORD97":2541655.2400000002,"ADDRESS":"榮譽街２５巷６號","OBJECTID":231780},"geometry":{"x":169577.80000000075,"y":2541655.2400000002}},{"attributes":{"ID":231785,"DIS_CODE":0,"TOWNNAME":"安南區","LI":"海佃里","LIN":"2鄰","STREET":"國安街","SECT":" ","MAREA":" ","LANE":"９２巷","ALLEY":" ","HOUSE_NO":"１０號","E_COORD97":166911.92000000001,"N_COORD97":2547039.2000000002,"ADDRESS":"國安街９２巷１０號","OBJECTID":231781},"geometry":{"x":166911.92000000179,"y":2547039.1999999993}},{"attributes":{"ID":231786,"DIS_CODE":0,"TOWNNAME":"安南區","LI":"海佃里","LIN":"2鄰","STREET":"國安街","SECT":" ","MAREA":" ","LANE":"９２巷","ALLEY":" ","HOUSE_NO":"１２號","E_COORD97":166910.59,"N_COORD97":2547043.1800000002,"ADDRESS":"國安街９２巷１２號","OBJECTID":231782},"geometry":{"x":166910.59000000171,"y":2547043.1799999997}},{"attributes":{"ID":231787,"DIS_CODE":0,"TOWNNAME":"安南區","LI":"海佃里","LIN":"2鄰","STREET":"國安街","SECT":" ","MAREA":" ","LANE":"９２巷","ALLEY":" ","HOUSE_NO":"２號","E_COORD97":166917.23999999999,"N_COORD97":2547022.5899999999,"ADDRESS":"國安街９２巷２號","OBJECTID":231783},"geometry":{"x":166917.24000000115,"y":2547022.5899999999}},{"attributes":{"ID":231788,"DIS_CODE":0,"TOWNNAME":"安南區","LI":"海佃里","LIN":"2鄰","STREET":"國安街","SECT":" ","MAREA":" ","LANE":"９２巷","ALLEY":" ","HOUSE_NO":"６號","E_COORD97":166914.57999999999,"N_COORD97":2547031.23,"ADDRESS":"國安街９２巷６號","OBJECTID":231784},"geometry":{"x":166914.58000000101,"y":2547031.2300000023}},{"attributes":{"ID":231789,"DIS_CODE":0,"TOWNNAME":"安南區","LI":"海佃里","LIN":"2鄰","STREET":"國安街","SECT":" ","MAREA":" ","LANE":"９２巷","ALLEY":" ","HOUSE_NO":"８號","E_COORD97":166913.25,"N_COORD97":2547035.21,"ADDRESS":"國安街９２巷８號","OBJECTID":231785},"geometry":{"x":166913.25000000093,"y":2547035.2100000028}},{"attributes":{"ID":231790,"DIS_CODE":0,"TOWNNAME":"安南區","LI":"城中里","LIN":"2鄰","STREET":"安中路","SECT":"六段","MAREA":" ","LANE":"５８１巷","ALLEY":" ","HOUSE_NO":"１０號","E_COORD97":160813.29999999999,"N_COORD97":2551416.3999999999,"ADDRESS":"安中路六段５８１巷１０號","OBJECTID":231786},"geometry":{"x":160813.30000000168,"y":2551416.4000000041}},{"attributes":{"ID":231791,"DIS_CODE":0,"TOWNNAME":"安南區","LI":"學東里","LIN":"2鄰","STREET":"公學路","SECT":"六段","MAREA":" ","LANE":"４６９巷","ALLEY":" ","HOUSE_NO":"６４號","E_COORD97":162571.67000000001,"N_COORD97":2553054.8999999999,"ADDRESS":"公學路六段４６９巷６４號","OBJECTID":231787},"geometry":{"x":162571.66999999993,"y":2553054.9000000022}},{"attributes":{"ID":231792,"DIS_CODE":0,"TOWNNAME":"安南區","LI":"學東里","LIN":"2鄰","STREET":"公學路","SECT":"六段","MAREA":" ","LANE":"４６９巷","ALLEY":" ","HOUSE_NO":"６６號","E_COORD97":162571.67000000001,"N_COORD97":2553049.27,"ADDRESS":"公學路六段４６９巷６６號","OBJECTID":231788},"geometry":{"x":162571.66999999993,"y":2553049.2699999996}},{"attributes":{"ID":231793,"DIS_CODE":0,"TOWNNAME":"安南區","LI":"學東里","LIN":"2鄰","STREET":"公學路","SECT":"六段","MAREA":" ","LANE":"４６９巷","ALLEY":" ","HOUSE_NO":"６８號","E_COORD97":162571.67000000001,"N_COORD97":2553044.0299999998,"ADDRESS":"公學路六段４６９巷６８號","OBJECTID":231789},"geometry":{"x":162571.66999999993,"y":2553044.0299999993}},{"attributes":{"ID":231794,"DIS_CODE":0,"TOWNNAME":"安南區","LI":"學東里","LIN":"2鄰","STREET":"公學路","SECT":"六段","MAREA":" ","LANE":"４６９巷","ALLEY":" ","HOUSE_NO":"７０號","E_COORD97":162567.39000000001,"N_COORD97":2553037.04,"ADDRESS":"公學路六段４６９巷７０號","OBJECTID":231790},"geometry":{"x":162567.3900000006,"y":2553037.0399999991}},{"attributes":{"ID":231795,"DIS_CODE":0,"TOWNNAME":"東區","LI":"自強里","LIN":"17鄰","STREET":"中華東路","SECT":"二段","MAREA":" ","LANE":"２９５巷","ALLEY":" ","HOUSE_NO":"１５號","E_COORD97":171187.38,"N_COORD97":2542521.4100000001,"ADDRESS":"中華東路二段２９５巷１５號","OBJECTID":231791},"geometry":{"x":171187.38000000175,"y":2542521.4100000001}},{"attributes":{"ID":231796,"DIS_CODE":0,"TOWNNAME":"東區","LI":"自強里","LIN":"17鄰","STREET":"中華東路","SECT":"二段","MAREA":" ","LANE":"２９５巷","ALLEY":" ","HOUSE_NO":"１７號","E_COORD97":171191.54000000001,"N_COORD97":2542518.23,"ADDRESS":"中華東路二段２９５巷１７號","OBJECTID":231792},"geometry":{"x":171191.5400000019,"y":2542518.2300000023}},{"attributes":{"ID":231797,"DIS_CODE":0,"TOWNNAME":"東區","LI":"自強里","LIN":"17鄰","STREET":"中華東路","SECT":"二段","MAREA":" ","LANE":"２９５巷","ALLEY":" ","HOUSE_NO":"１９號","E_COORD97":171194.72,"N_COORD97":2542515.46,"ADDRESS":"中華東路二段２９５巷１９號","OBJECTID":231793},"geometry":{"x":171194.71999999974,"y":2542515.4600000009}},{"attributes":{"ID":231798,"DIS_CODE":0,"TOWNNAME":"東區","LI":"自強里","LIN":"17鄰","STREET":"中華東路","SECT":"二段","MAREA":" ","LANE":"２９５巷","ALLEY":" ","HOUSE_NO":"１號","E_COORD97":171159.84,"N_COORD97":2542547.6499999999,"ADDRESS":"中華東路二段２９５巷１號","OBJECTID":231794},"geometry":{"x":171159.83999999985,"y":2542547.6500000004}},{"attributes":{"ID":231799,"DIS_CODE":0,"TOWNNAME":"東區","LI":"自強里","LIN":"17鄰","STREET":"中華東路","SECT":"二段","MAREA":" ","LANE":"２９５巷","ALLEY":" ","HOUSE_NO":"２１號","E_COORD97":171197.76999999999,"N_COORD97":2542512.6899999999,"ADDRESS":"中華東路二段２９５巷２１號","OBJECTID":231795},"geometry":{"x":171197.76999999955,"y":2542512.6899999995}},{"attributes":{"ID":231800,"DIS_CODE":0,"TOWNNAME":"東區","LI":"成大里","LIN":"23鄰","STREET":"育樂街","SECT":" ","MAREA":" ","LANE":"１４１巷","ALLEY":" ","HOUSE_NO":"４１號","E_COORD97":169596.17999999999,"N_COORD97":2543950.1200000001,"ADDRESS":"育樂街１４１巷４１號","OBJECTID":231796},"geometry":{"x":169596.1799999997,"y":2543950.1200000048}},{"attributes":{"ID":231801,"DIS_CODE":0,"TOWNNAME":"安南區","LI":"總頭里","LIN":"2鄰","STREET":"總安街","SECT":"二段","MAREA":" ","LANE":"３４３巷","ALLEY":" ","HOUSE_NO":"１１號","E_COORD97":168346.45999999999,"N_COORD97":2550442.7000000002,"ADDRESS":"總安街二段３４３巷１１號","OBJECTID":231797},"geometry":{"x":168346.46000000089,"y":2550442.6999999993}},{"attributes":{"ID":231802,"DIS_CODE":0,"TOWNNAME":"安南區","LI":"總頭里","LIN":"2鄰","STREET":"總安街","SECT":"二段","MAREA":" ","LANE":"３４３巷","ALLEY":" ","HOUSE_NO":"１號","E_COORD97":168347.97,"N_COORD97":2550469.5800000001,"ADDRESS":"總安街二段３４３巷１號","OBJECTID":231798},"geometry":{"x":168347.97000000067,"y":2550469.5800000019}},{"attributes":{"ID":231803,"DIS_CODE":0,"TOWNNAME":"安南區","LI":"公\u25A0里","LIN":"2鄰","STREET":"公學路","SECT":"五段","MAREA":" ","LANE":"３６３巷","ALLEY":" ","HOUSE_NO":"５０號","E_COORD97":164280.98999999999,"N_COORD97":2552303.0099999998,"ADDRESS":"公學路五段３６３巷５０號","OBJECTID":231799},"geometry":{"x":164280.99000000115,"y":2552303.0099999979}},{"attributes":{"ID":231804,"DIS_CODE":0,"TOWNNAME":"東區","LI":"自強里","LIN":"15鄰","STREET":"中華東路","SECT":"二段","MAREA":" ","LANE":"２９５巷","ALLEY":" ","HOUSE_NO":"５９號","E_COORD97":171280.38,"N_COORD97":2542483.2400000002,"ADDRESS":"中華東路二段２９５巷５９號","OBJECTID":231800},"geometry":{"x":171280.37999999989,"y":2542483.2400000002}}]}