{"displayFieldName":"TOWNNAME","fieldAliases":{"ID":"ID","DIS_CODE":"DIS_CODE","TOWNNAME":"TOWNNAME","LI":"LI","LIN":"LIN","STREET":"STREET","SECT":"SECT","MAREA":"MAREA","LANE":"LANE","ALLEY":"ALLEY","HOUSE_NO":"HOUSE_NO","E_COORD97":"E_COORD97","N_COORD97":"N_COORD97","ADDRESS":"ADDRESS","OBJECTID":"OBJECTID"},"geometryType":"esriGeometryPoint","spatialReference":{"wkid":102443,"latestWkid":3826},"fields":[{"name":"ID","type":"esriFieldTypeDouble","alias":"ID"},{"name":"DIS_CODE","type":"esriFieldTypeInteger","alias":"DIS_CODE"},{"name":"TOWNNAME","type":"esriFieldTypeString","alias":"TOWNNAME","length":8},{"name":"LI","type":"esriFieldTypeString","alias":"LI","length":8},{"name":"LIN","type":"esriFieldTypeString","alias":"LIN","length":12},{"name":"STREET","type":"esriFieldTypeString","alias":"STREET","length":20},{"name":"SECT","type":"esriFieldTypeString","alias":"SECT","length":8},{"name":"MAREA","type":"esriFieldTypeString","alias":"MAREA","length":12},{"name":"LANE","type":"esriFieldTypeString","alias":"LANE","length":10},{"name":"ALLEY","type":"esriFieldTypeString","alias":"ALLEY","length":10},{"name":"HOUSE_NO","type":"esriFieldTypeString","alias":"HOUSE_NO","length":20},{"name":"E_COORD97","type":"esriFieldTypeDouble","alias":"E_COORD97"},{"name":"N_COORD97","type":"esriFieldTypeDouble","alias":"N_COORD97"},{"name":"ADDRESS","type":"esriFieldTypeString","alias":"ADDRESS","length":50},{"name":"OBJECTID","type":"esriFieldTypeOID","alias":"OBJECTID"}],"features":[{"attributes":{"ID":599428,"DIS_CODE":0,"TOWNNAME":"永康區","LI":"復國里","LIN":"27鄰","STREET":"復華三街","SECT":" ","MAREA":" ","LANE":" ","ALLEY":" ","HOUSE_NO":"６６號十樓之５","E_COORD97":172710.69,"N_COORD97":2545600.7999999998,"ADDRESS":"復華三街６６號十樓之５","OBJECTID":599401},"geometry":{"x":172710.69000000041,"y":2545600.8000000026}},{"attributes":{"ID":599429,"DIS_CODE":0,"TOWNNAME":"永康區","LI":"復國里","LIN":"27鄰","STREET":"復華三街","SECT":" ","MAREA":" ","LANE":" ","ALLEY":" ","HOUSE_NO":"６８號六樓之２","E_COORD97":172699.14000000001,"N_COORD97":2545576.0499999998,"ADDRESS":"復華三街６８號六樓之２","OBJECTID":599402},"geometry":{"x":172699.14000000153,"y":2545576.0500000007}},{"attributes":{"ID":599430,"DIS_CODE":0,"TOWNNAME":"永康區","LI":"復國里","LIN":"27鄰","STREET":"復華三街","SECT":" ","MAREA":" ","LANE":" ","ALLEY":" ","HOUSE_NO":"６６號六樓之７","E_COORD97":172710.60999999999,"N_COORD97":2545600.7999999998,"ADDRESS":"復華三街６６號六樓之７","OBJECTID":599403},"geometry":{"x":172710.61000000127,"y":2545600.8000000026}},{"attributes":{"ID":599431,"DIS_CODE":0,"TOWNNAME":"東區","LI":"後甲里","LIN":"27鄰","STREET":"建東街","SECT":" ","MAREA":" ","LANE":" ","ALLEY":" ","HOUSE_NO":"３６號","E_COORD97":171791.31,"N_COORD97":2543383.5699999998,"ADDRESS":"建東街３６號","OBJECTID":599404},"geometry":{"x":171791.31000000052,"y":2543383.570000004}},{"attributes":{"ID":599432,"DIS_CODE":0,"TOWNNAME":"永康區","LI":"復國里","LIN":"27鄰","STREET":"復華三街","SECT":" ","MAREA":" ","LANE":" ","ALLEY":" ","HOUSE_NO":"６６號十五樓之２","E_COORD97":172711.92000000001,"N_COORD97":2545600.7999999998,"ADDRESS":"復華三街６６號十五樓之２","OBJECTID":599405},"geometry":{"x":172711.92000000086,"y":2545600.8000000026}},{"attributes":{"ID":599433,"DIS_CODE":0,"TOWNNAME":"永康區","LI":"復國里","LIN":"27鄰","STREET":"復華三街","SECT":" ","MAREA":" ","LANE":" ","ALLEY":" ","HOUSE_NO":"６８號十八樓之５","E_COORD97":172700.41,"N_COORD97":2545576.0499999998,"ADDRESS":"復華三街６８號十八樓之５","OBJECTID":599406},"geometry":{"x":172700.41000000015,"y":2545576.0500000007}},{"attributes":{"ID":599434,"DIS_CODE":0,"TOWNNAME":"永康區","LI":"復國里","LIN":"27鄰","STREET":"復華三街","SECT":" ","MAREA":" ","LANE":" ","ALLEY":" ","HOUSE_NO":"６６號四樓之４","E_COORD97":172710.56,"N_COORD97":2545600.7999999998,"ADDRESS":"復華三街６６號四樓之４","OBJECTID":599407},"geometry":{"x":172710.56000000052,"y":2545600.8000000026}},{"attributes":{"ID":599435,"DIS_CODE":0,"TOWNNAME":"永康區","LI":"復國里","LIN":"27鄰","STREET":"復華三街","SECT":" ","MAREA":" ","LANE":" ","ALLEY":" ","HOUSE_NO":"６６號十四樓之６","E_COORD97":172711.89000000001,"N_COORD97":2545600.7999999998,"ADDRESS":"復華三街６６號十四樓之６","OBJECTID":599408},"geometry":{"x":172711.88999999966,"y":2545600.8000000026}},{"attributes":{"ID":599436,"DIS_CODE":0,"TOWNNAME":"永康區","LI":"復國里","LIN":"27鄰","STREET":"復華三街","SECT":" ","MAREA":" ","LANE":" ","ALLEY":" ","HOUSE_NO":"６６號十四樓之４","E_COORD97":172711.81,"N_COORD97":2545600.7999999998,"ADDRESS":"復華三街６６號十四樓之４","OBJECTID":599409},"geometry":{"x":172711.81000000052,"y":2545600.8000000026}},{"attributes":{"ID":599437,"DIS_CODE":0,"TOWNNAME":"永康區","LI":"復國里","LIN":"27鄰","STREET":"復華三街","SECT":" ","MAREA":" ","LANE":" ","ALLEY":" ","HOUSE_NO":"６６號五樓之１","E_COORD97":172710.54000000001,"N_COORD97":2545600.7999999998,"ADDRESS":"復華三街６６號五樓之１","OBJECTID":599410},"geometry":{"x":172710.5400000019,"y":2545600.8000000026}},{"attributes":{"ID":599438,"DIS_CODE":0,"TOWNNAME":"永康區","LI":"復國里","LIN":"27鄰","STREET":"復華三街","SECT":" ","MAREA":" ","LANE":" ","ALLEY":" ","HOUSE_NO":"６６號十五樓之３","E_COORD97":172711.88,"N_COORD97":2545600.7999999998,"ADDRESS":"復華三街６６號十五樓之３","OBJECTID":599411},"geometry":{"x":172711.88000000082,"y":2545600.8000000026}},{"attributes":{"ID":599439,"DIS_CODE":0,"TOWNNAME":"永康區","LI":"復國里","LIN":"27鄰","STREET":"復華三街","SECT":" ","MAREA":" ","LANE":" ","ALLEY":" ","HOUSE_NO":"６８號十四樓之５","E_COORD97":172700.41,"N_COORD97":2545576.0499999998,"ADDRESS":"復華三街６８號十四樓之５","OBJECTID":599412},"geometry":{"x":172700.41000000015,"y":2545576.0500000007}},{"attributes":{"ID":599440,"DIS_CODE":0,"TOWNNAME":"永康區","LI":"復國里","LIN":"27鄰","STREET":"復華三街","SECT":" ","MAREA":" ","LANE":" ","ALLEY":" ","HOUSE_NO":"６８號十樓之３","E_COORD97":172699.10000000001,"N_COORD97":2545576.0499999998,"ADDRESS":"復華三街６８號十樓之３","OBJECTID":599413},"geometry":{"x":172699.09999999963,"y":2545576.0500000007}},{"attributes":{"ID":599441,"DIS_CODE":0,"TOWNNAME":"永康區","LI":"復國里","LIN":"27鄰","STREET":"復華三街","SECT":" ","MAREA":" ","LANE":" ","ALLEY":" ","HOUSE_NO":"６８號五樓之５","E_COORD97":172699.16,"N_COORD97":2545576.0499999998,"ADDRESS":"復華三街６８號五樓之５","OBJECTID":599414},"geometry":{"x":172699.16000000015,"y":2545576.0500000007}},{"attributes":{"ID":599442,"DIS_CODE":0,"TOWNNAME":"永康區","LI":"復國里","LIN":"27鄰","STREET":"復華三街","SECT":" ","MAREA":" ","LANE":" ","ALLEY":" ","HOUSE_NO":"６８號五樓之３","E_COORD97":172699.10000000001,"N_COORD97":2545576.0499999998,"ADDRESS":"復華三街６８號五樓之３","OBJECTID":599415},"geometry":{"x":172699.09999999963,"y":2545576.0500000007}},{"attributes":{"ID":599443,"DIS_CODE":0,"TOWNNAME":"永康區","LI":"復國里","LIN":"27鄰","STREET":"復華三街","SECT":" ","MAREA":" ","LANE":" ","ALLEY":" ","HOUSE_NO":"６６號三樓之３","E_COORD97":172710.63,"N_COORD97":2545600.7999999998,"ADDRESS":"復華三街６６號三樓之３","OBJECTID":599416},"geometry":{"x":172710.62999999989,"y":2545600.8000000026}},{"attributes":{"ID":599444,"DIS_CODE":0,"TOWNNAME":"永康區","LI":"復國里","LIN":"27鄰","STREET":"復華三街","SECT":" ","MAREA":" ","LANE":" ","ALLEY":" ","HOUSE_NO":"６６號十三樓之５","E_COORD97":172711.94,"N_COORD97":2545600.7999999998,"ADDRESS":"復華三街６６號十三樓之５","OBJECTID":599417},"geometry":{"x":172711.94000000134,"y":2545600.8000000026}},{"attributes":{"ID":599445,"DIS_CODE":0,"TOWNNAME":"永康區","LI":"復國里","LIN":"27鄰","STREET":"復華三街","SECT":" ","MAREA":" ","LANE":" ","ALLEY":" ","HOUSE_NO":"６６號五樓之４","E_COORD97":172710.56,"N_COORD97":2545600.7999999998,"ADDRESS":"復華三街６６號五樓之４","OBJECTID":599418},"geometry":{"x":172710.56000000052,"y":2545600.8000000026}},{"attributes":{"ID":599446,"DIS_CODE":0,"TOWNNAME":"永康區","LI":"復國里","LIN":"27鄰","STREET":"復華三街","SECT":" ","MAREA":" ","LANE":" ","ALLEY":" ","HOUSE_NO":"６６號十樓之７","E_COORD97":172710.60999999999,"N_COORD97":2545600.7999999998,"ADDRESS":"復華三街６６號十樓之７","OBJECTID":599419},"geometry":{"x":172710.61000000127,"y":2545600.8000000026}},{"attributes":{"ID":599447,"DIS_CODE":0,"TOWNNAME":"永康區","LI":"復國里","LIN":"27鄰","STREET":"復華三街","SECT":" ","MAREA":" ","LANE":" ","ALLEY":" ","HOUSE_NO":"６６號五樓之５","E_COORD97":172710.69,"N_COORD97":2545600.7999999998,"ADDRESS":"復華三街６６號五樓之５","OBJECTID":599420},"geometry":{"x":172710.69000000041,"y":2545600.8000000026}},{"attributes":{"ID":599448,"DIS_CODE":0,"TOWNNAME":"永康區","LI":"復國里","LIN":"27鄰","STREET":"復華三街","SECT":" ","MAREA":" ","LANE":" ","ALLEY":" ","HOUSE_NO":"６６號六樓之６","E_COORD97":172710.64000000001,"N_COORD97":2545600.7999999998,"ADDRESS":"復華三街６６號六樓之６","OBJECTID":599421},"geometry":{"x":172710.63999999966,"y":2545600.8000000026}},{"attributes":{"ID":599449,"DIS_CODE":0,"TOWNNAME":"永康區","LI":"復國里","LIN":"27鄰","STREET":"復華三街","SECT":" ","MAREA":" ","LANE":" ","ALLEY":" ","HOUSE_NO":"６８號六樓之４","E_COORD97":172699.03,"N_COORD97":2545576.0499999998,"ADDRESS":"復華三街６８號六樓之４","OBJECTID":599422},"geometry":{"x":172699.03000000119,"y":2545576.0500000007}},{"attributes":{"ID":599450,"DIS_CODE":0,"TOWNNAME":"永康區","LI":"復國里","LIN":"27鄰","STREET":"復華三街","SECT":" ","MAREA":" ","LANE":" ","ALLEY":" ","HOUSE_NO":"６６號十六樓之３","E_COORD97":172711.88,"N_COORD97":2545600.7999999998,"ADDRESS":"復華三街６６號十六樓之３","OBJECTID":599423},"geometry":{"x":172711.88000000082,"y":2545600.8000000026}},{"attributes":{"ID":599451,"DIS_CODE":0,"TOWNNAME":"永康區","LI":"復國里","LIN":"27鄰","STREET":"復華三街","SECT":" ","MAREA":" ","LANE":" ","ALLEY":" ","HOUSE_NO":"６６號十五樓之１","E_COORD97":172711.79000000001,"N_COORD97":2545600.7999999998,"ADDRESS":"復華三街６６號十五樓之１","OBJECTID":599424},"geometry":{"x":172711.79000000004,"y":2545600.8000000026}},{"attributes":{"ID":599452,"DIS_CODE":0,"TOWNNAME":"永康區","LI":"復國里","LIN":"27鄰","STREET":"復華三街","SECT":" ","MAREA":" ","LANE":" ","ALLEY":" ","HOUSE_NO":"６６號六樓之２","E_COORD97":172710.67000000001,"N_COORD97":2545600.7999999998,"ADDRESS":"復華三街６６號六樓之２","OBJECTID":599425},"geometry":{"x":172710.66999999993,"y":2545600.8000000026}},{"attributes":{"ID":599453,"DIS_CODE":0,"TOWNNAME":"永康區","LI":"復國里","LIN":"27鄰","STREET":"復華三街","SECT":" ","MAREA":" ","LANE":" ","ALLEY":" ","HOUSE_NO":"６６號五樓之３","E_COORD97":172710.63,"N_COORD97":2545600.7999999998,"ADDRESS":"復華三街６６號五樓之３","OBJECTID":599426},"geometry":{"x":172710.62999999989,"y":2545600.8000000026}},{"attributes":{"ID":599454,"DIS_CODE":0,"TOWNNAME":"永康區","LI":"復國里","LIN":"27鄰","STREET":"復華三街","SECT":" ","MAREA":" ","LANE":" ","ALLEY":" ","HOUSE_NO":"６６號十六樓之２","E_COORD97":172711.92000000001,"N_COORD97":2545600.7999999998,"ADDRESS":"復華三街６６號十六樓之２","OBJECTID":599427},"geometry":{"x":172711.92000000086,"y":2545600.8000000026}},{"attributes":{"ID":599455,"DIS_CODE":0,"TOWNNAME":"永康區","LI":"復國里","LIN":"27鄰","STREET":"復華三街","SECT":" ","MAREA":" ","LANE":" ","ALLEY":" ","HOUSE_NO":"６８號六樓之１","E_COORD97":172699.01000000001,"N_COORD97":2545576.0499999998,"ADDRESS":"復華三街６８號六樓之１","OBJECTID":599428},"geometry":{"x":172699.01000000071,"y":2545576.0500000007}},{"attributes":{"ID":599456,"DIS_CODE":0,"TOWNNAME":"永康區","LI":"復國里","LIN":"27鄰","STREET":"復華三街","SECT":" ","MAREA":" ","LANE":" ","ALLEY":" ","HOUSE_NO":"６６號十七樓之１","E_COORD97":172711.79000000001,"N_COORD97":2545600.7999999998,"ADDRESS":"復華三街６６號十七樓之１","OBJECTID":599429},"geometry":{"x":172711.79000000004,"y":2545600.8000000026}},{"attributes":{"ID":599457,"DIS_CODE":0,"TOWNNAME":"永康區","LI":"復國里","LIN":"27鄰","STREET":"復華三街","SECT":" ","MAREA":" ","LANE":" ","ALLEY":" ","HOUSE_NO":"６６號九樓之１","E_COORD97":172710.54000000001,"N_COORD97":2545600.7999999998,"ADDRESS":"復華三街６６號九樓之１","OBJECTID":599430},"geometry":{"x":172710.5400000019,"y":2545600.8000000026}},{"attributes":{"ID":599458,"DIS_CODE":0,"TOWNNAME":"永康區","LI":"復國里","LIN":"27鄰","STREET":"復華三街","SECT":" ","MAREA":" ","LANE":" ","ALLEY":" ","HOUSE_NO":"６６號九樓之４","E_COORD97":172710.56,"N_COORD97":2545600.7999999998,"ADDRESS":"復華三街６６號九樓之４","OBJECTID":599431},"geometry":{"x":172710.56000000052,"y":2545600.8000000026}},{"attributes":{"ID":599459,"DIS_CODE":0,"TOWNNAME":"永康區","LI":"復國里","LIN":"27鄰","STREET":"復華三街","SECT":" ","MAREA":" ","LANE":" ","ALLEY":" ","HOUSE_NO":"６６號十九樓之３","E_COORD97":172711.88,"N_COORD97":2545600.7999999998,"ADDRESS":"復華三街６６號十九樓之３","OBJECTID":599432},"geometry":{"x":172711.88000000082,"y":2545600.8000000026}},{"attributes":{"ID":599460,"DIS_CODE":0,"TOWNNAME":"永康區","LI":"復國里","LIN":"27鄰","STREET":"復華三街","SECT":" ","MAREA":" ","LANE":" ","ALLEY":" ","HOUSE_NO":"６６號七樓之４","E_COORD97":172710.56,"N_COORD97":2545600.7999999998,"ADDRESS":"復華三街６６號七樓之４","OBJECTID":599433},"geometry":{"x":172710.56000000052,"y":2545600.8000000026}},{"attributes":{"ID":599461,"DIS_CODE":0,"TOWNNAME":"永康區","LI":"復國里","LIN":"27鄰","STREET":"復華三街","SECT":" ","MAREA":" ","LANE":" ","ALLEY":" ","HOUSE_NO":"６６號七樓之５","E_COORD97":172710.69,"N_COORD97":2545600.7999999998,"ADDRESS":"復華三街６６號七樓之５","OBJECTID":599434},"geometry":{"x":172710.69000000041,"y":2545600.8000000026}},{"attributes":{"ID":599462,"DIS_CODE":0,"TOWNNAME":"永康區","LI":"復國里","LIN":"27鄰","STREET":"復華三街","SECT":" ","MAREA":" ","LANE":" ","ALLEY":" ","HOUSE_NO":"６６號九樓之５","E_COORD97":172710.69,"N_COORD97":2545600.7999999998,"ADDRESS":"復華三街６６號九樓之５","OBJECTID":599435},"geometry":{"x":172710.69000000041,"y":2545600.8000000026}},{"attributes":{"ID":599463,"DIS_CODE":0,"TOWNNAME":"永康區","LI":"復國里","LIN":"27鄰","STREET":"復華三街","SECT":" ","MAREA":" ","LANE":" ","ALLEY":" ","HOUSE_NO":"６６號十七樓之５","E_COORD97":172711.94,"N_COORD97":2545600.7999999998,"ADDRESS":"復華三街６６號十七樓之５","OBJECTID":599436},"geometry":{"x":172711.94000000134,"y":2545600.8000000026}},{"attributes":{"ID":599464,"DIS_CODE":0,"TOWNNAME":"永康區","LI":"復國里","LIN":"27鄰","STREET":"復華三街","SECT":" ","MAREA":" ","LANE":" ","ALLEY":" ","HOUSE_NO":"６６號十四樓之５","E_COORD97":172711.94,"N_COORD97":2545600.7999999998,"ADDRESS":"復華三街６６號十四樓之５","OBJECTID":599437},"geometry":{"x":172711.94000000134,"y":2545600.8000000026}},{"attributes":{"ID":599465,"DIS_CODE":0,"TOWNNAME":"永康區","LI":"復國里","LIN":"27鄰","STREET":"復華三街","SECT":" ","MAREA":" ","LANE":" ","ALLEY":" ","HOUSE_NO":"６６號十九樓之５","E_COORD97":172711.94,"N_COORD97":2545600.7999999998,"ADDRESS":"復華三街６６號十九樓之５","OBJECTID":599438},"geometry":{"x":172711.94000000134,"y":2545600.8000000026}},{"attributes":{"ID":599466,"DIS_CODE":0,"TOWNNAME":"永康區","LI":"復國里","LIN":"27鄰","STREET":"復華三街","SECT":" ","MAREA":" ","LANE":" ","ALLEY":" ","HOUSE_NO":"６６號十二樓之３","E_COORD97":172711.88,"N_COORD97":2545600.7999999998,"ADDRESS":"復華三街６６號十二樓之３","OBJECTID":599439},"geometry":{"x":172711.88000000082,"y":2545600.8000000026}},{"attributes":{"ID":599467,"DIS_CODE":0,"TOWNNAME":"永康區","LI":"復國里","LIN":"27鄰","STREET":"復華三街","SECT":" ","MAREA":" ","LANE":" ","ALLEY":" ","HOUSE_NO":"６６號十八樓之１","E_COORD97":172711.79000000001,"N_COORD97":2545600.7999999998,"ADDRESS":"復華三街６６號十八樓之１","OBJECTID":599440},"geometry":{"x":172711.79000000004,"y":2545600.8000000026}},{"attributes":{"ID":599468,"DIS_CODE":0,"TOWNNAME":"永康區","LI":"復國里","LIN":"27鄰","STREET":"復華三街","SECT":" ","MAREA":" ","LANE":" ","ALLEY":" ","HOUSE_NO":"６８號十六樓之６","E_COORD97":172700.35999999999,"N_COORD97":2545576.0499999998,"ADDRESS":"復華三街６８號十六樓之６","OBJECTID":599441},"geometry":{"x":172700.36000000127,"y":2545576.0500000007}},{"attributes":{"ID":599469,"DIS_CODE":0,"TOWNNAME":"永康區","LI":"復國里","LIN":"27鄰","STREET":"復華三街","SECT":" ","MAREA":" ","LANE":" ","ALLEY":" ","HOUSE_NO":"６６號十七樓之６","E_COORD97":172711.89000000001,"N_COORD97":2545600.7999999998,"ADDRESS":"復華三街６６號十七樓之６","OBJECTID":599442},"geometry":{"x":172711.88999999966,"y":2545600.8000000026}},{"attributes":{"ID":599470,"DIS_CODE":0,"TOWNNAME":"永康區","LI":"復國里","LIN":"27鄰","STREET":"復華三街","SECT":" ","MAREA":" ","LANE":" ","ALLEY":" ","HOUSE_NO":"６６號十七樓之７","E_COORD97":172711.85999999999,"N_COORD97":2545600.7999999998,"ADDRESS":"復華三街６６號十七樓之７","OBJECTID":599443},"geometry":{"x":172711.8599999994,"y":2545600.8000000026}},{"attributes":{"ID":599471,"DIS_CODE":0,"TOWNNAME":"永康區","LI":"復國里","LIN":"27鄰","STREET":"復華三街","SECT":" ","MAREA":" ","LANE":" ","ALLEY":" ","HOUSE_NO":"６６號十九樓之２","E_COORD97":172711.92000000001,"N_COORD97":2545600.7999999998,"ADDRESS":"復華三街６６號十九樓之２","OBJECTID":599444},"geometry":{"x":172711.92000000086,"y":2545600.8000000026}},{"attributes":{"ID":599472,"DIS_CODE":0,"TOWNNAME":"新市區","LI":"新和里","LIN":"27鄰","STREET":"忠孝街","SECT":" ","MAREA":" ","LANE":" ","ALLEY":" ","HOUSE_NO":"１７７號","E_COORD97":177715.07000000001,"N_COORD97":2552769.25,"ADDRESS":"忠孝街１７７號","OBJECTID":599445},"geometry":{"x":177715.07000000123,"y":2552769.25}},{"attributes":{"ID":599473,"DIS_CODE":0,"TOWNNAME":"永康區","LI":"復國里","LIN":"27鄰","STREET":"復華三街","SECT":" ","MAREA":" ","LANE":" ","ALLEY":" ","HOUSE_NO":"６６號七樓之６","E_COORD97":172710.64000000001,"N_COORD97":2545600.7999999998,"ADDRESS":"復華三街６６號七樓之６","OBJECTID":599446},"geometry":{"x":172710.63999999966,"y":2545600.8000000026}},{"attributes":{"ID":599474,"DIS_CODE":0,"TOWNNAME":"永康區","LI":"復國里","LIN":"27鄰","STREET":"復華三街","SECT":" ","MAREA":" ","LANE":" ","ALLEY":" ","HOUSE_NO":"６６號七樓之２","E_COORD97":172710.67000000001,"N_COORD97":2545600.7999999998,"ADDRESS":"復華三街６６號七樓之２","OBJECTID":599447},"geometry":{"x":172710.66999999993,"y":2545600.8000000026}},{"attributes":{"ID":599475,"DIS_CODE":0,"TOWNNAME":"永康區","LI":"復國里","LIN":"27鄰","STREET":"復華三街","SECT":" ","MAREA":" ","LANE":" ","ALLEY":" ","HOUSE_NO":"６８號十九樓之６","E_COORD97":172700.35999999999,"N_COORD97":2545576.0499999998,"ADDRESS":"復華三街６８號十九樓之６","OBJECTID":599448},"geometry":{"x":172700.36000000127,"y":2545576.0500000007}},{"attributes":{"ID":599476,"DIS_CODE":0,"TOWNNAME":"永康區","LI":"復國里","LIN":"27鄰","STREET":"復華三街","SECT":" ","MAREA":" ","LANE":" ","ALLEY":" ","HOUSE_NO":"６６號十九樓之７","E_COORD97":172711.85999999999,"N_COORD97":2545600.7999999998,"ADDRESS":"復華三街６６號十九樓之７","OBJECTID":599449},"geometry":{"x":172711.8599999994,"y":2545600.8000000026}},{"attributes":{"ID":599477,"DIS_CODE":0,"TOWNNAME":"永康區","LI":"復國里","LIN":"27鄰","STREET":"復華三街","SECT":" ","MAREA":" ","LANE":" ","ALLEY":" ","HOUSE_NO":"６８號十七樓之１","E_COORD97":172700.26000000001,"N_COORD97":2545576.0499999998,"ADDRESS":"復華三街６８號十七樓之１","OBJECTID":599450},"geometry":{"x":172700.26000000164,"y":2545576.0500000007}},{"attributes":{"ID":599478,"DIS_CODE":0,"TOWNNAME":"永康區","LI":"復國里","LIN":"27鄰","STREET":"復華三街","SECT":" ","MAREA":" ","LANE":" ","ALLEY":" ","HOUSE_NO":"６６號七樓之７","E_COORD97":172710.60999999999,"N_COORD97":2545600.7999999998,"ADDRESS":"復華三街６６號七樓之７","OBJECTID":599451},"geometry":{"x":172710.61000000127,"y":2545600.8000000026}},{"attributes":{"ID":599479,"DIS_CODE":0,"TOWNNAME":"永康區","LI":"復國里","LIN":"27鄰","STREET":"復華三街","SECT":" ","MAREA":" ","LANE":" ","ALLEY":" ","HOUSE_NO":"６６號十八樓之２","E_COORD97":172711.92000000001,"N_COORD97":2545600.7999999998,"ADDRESS":"復華三街６６號十八樓之２","OBJECTID":599452},"geometry":{"x":172711.92000000086,"y":2545600.8000000026}},{"attributes":{"ID":599480,"DIS_CODE":0,"TOWNNAME":"永康區","LI":"復國里","LIN":"27鄰","STREET":"復華三街","SECT":" ","MAREA":" ","LANE":" ","ALLEY":" ","HOUSE_NO":"６８號十七樓之２","E_COORD97":172700.39000000001,"N_COORD97":2545576.0499999998,"ADDRESS":"復華三街６８號十七樓之２","OBJECTID":599453},"geometry":{"x":172700.38999999966,"y":2545576.0500000007}},{"attributes":{"ID":599481,"DIS_CODE":0,"TOWNNAME":"永康區","LI":"大灣里","LIN":"27鄰","STREET":"大灣六街","SECT":" ","MAREA":" ","LANE":" ","ALLEY":" ","HOUSE_NO":"４０號","E_COORD97":175244.82000000001,"N_COORD97":2545230.8799999999,"ADDRESS":"大灣六街４０號","OBJECTID":599454},"geometry":{"x":175244.82000000216,"y":2545230.8800000027}},{"attributes":{"ID":599482,"DIS_CODE":0,"TOWNNAME":"永康區","LI":"大灣里","LIN":"27鄰","STREET":"大灣六街","SECT":" ","MAREA":" ","LANE":" ","ALLEY":" ","HOUSE_NO":"２２號","E_COORD97":175283,"N_COORD97":2545212.52,"ADDRESS":"大灣六街２２號","OBJECTID":599455},"geometry":{"x":175283.00000000093,"y":2545212.5199999996}},{"attributes":{"ID":599483,"DIS_CODE":0,"TOWNNAME":"永康區","LI":"大灣里","LIN":"27鄰","STREET":"大灣六街","SECT":" ","MAREA":" ","LANE":" ","ALLEY":" ","HOUSE_NO":"１０號","E_COORD97":175303.57000000001,"N_COORD97":2545211.27,"ADDRESS":"大灣六街１０號","OBJECTID":599456},"geometry":{"x":175303.5700000003,"y":2545211.2699999996}},{"attributes":{"ID":599484,"DIS_CODE":0,"TOWNNAME":"永康區","LI":"大灣里","LIN":"27鄰","STREET":"大灣六街","SECT":" ","MAREA":" ","LANE":" ","ALLEY":" ","HOUSE_NO":"１６號","E_COORD97":175295.41,"N_COORD97":2545211.27,"ADDRESS":"大灣六街１６號","OBJECTID":599457},"geometry":{"x":175295.41000000108,"y":2545211.2699999996}},{"attributes":{"ID":599485,"DIS_CODE":0,"TOWNNAME":"永康區","LI":"大灣里","LIN":"27鄰","STREET":"大灣六街","SECT":" ","MAREA":" ","LANE":" ","ALLEY":" ","HOUSE_NO":"１８號","E_COORD97":175290.76999999999,"N_COORD97":2545211.27,"ADDRESS":"大灣六街１８號","OBJECTID":599458},"geometry":{"x":175290.77000000048,"y":2545211.2699999996}},{"attributes":{"ID":599486,"DIS_CODE":0,"TOWNNAME":"永康區","LI":"大灣里","LIN":"27鄰","STREET":"大灣六街","SECT":" ","MAREA":" ","LANE":" ","ALLEY":" ","HOUSE_NO":"２８號","E_COORD97":175270.95000000001,"N_COORD97":2545218.0099999998,"ADDRESS":"大灣六街２８號","OBJECTID":599459},"geometry":{"x":175270.95000000205,"y":2545218.0100000016}},{"attributes":{"ID":599487,"DIS_CODE":0,"TOWNNAME":"永康區","LI":"大灣里","LIN":"27鄰","STREET":"大灣六街","SECT":" ","MAREA":" ","LANE":" ","ALLEY":" ","HOUSE_NO":"４３號","E_COORD97":175186.97,"N_COORD97":2545210.5699999998,"ADDRESS":"大灣六街４３號","OBJECTID":599460},"geometry":{"x":175186.96999999974,"y":2545210.5699999984}},{"attributes":{"ID":599488,"DIS_CODE":0,"TOWNNAME":"永康區","LI":"大灣里","LIN":"27鄰","STREET":"大灣六街","SECT":" ","MAREA":" ","LANE":" ","ALLEY":" ","HOUSE_NO":"３０號","E_COORD97":175261.03,"N_COORD97":2545223.3799999999,"ADDRESS":"大灣六街３０號","OBJECTID":599461},"geometry":{"x":175261.03000000119,"y":2545223.379999999}},{"attributes":{"ID":599489,"DIS_CODE":0,"TOWNNAME":"永康區","LI":"大灣里","LIN":"27鄰","STREET":"大灣六街","SECT":" ","MAREA":" ","LANE":" ","ALLEY":" ","HOUSE_NO":"２７號","E_COORD97":175234.47,"N_COORD97":2545215.79,"ADDRESS":"大灣六街２７號","OBJECTID":599462},"geometry":{"x":175234.46999999974,"y":2545215.790000001}},{"attributes":{"ID":599490,"DIS_CODE":0,"TOWNNAME":"永康區","LI":"中興里","LIN":"27鄰","STREET":"中山東路","SECT":" ","MAREA":" ","LANE":" ","ALLEY":" ","HOUSE_NO":"３１９號","E_COORD97":171901.17999999999,"N_COORD97":2545344.9900000002,"ADDRESS":"中山東路３１９號","OBJECTID":599463},"geometry":{"x":171901.18000000063,"y":2545344.9900000021}},{"attributes":{"ID":599491,"DIS_CODE":0,"TOWNNAME":"永康區","LI":"中興里","LIN":"27鄰","STREET":"中山東路","SECT":" ","MAREA":" ","LANE":" ","ALLEY":" ","HOUSE_NO":"３２９號","E_COORD97":171906.04000000001,"N_COORD97":2545312.52,"ADDRESS":"中山東路３２９號","OBJECTID":599464},"geometry":{"x":171906.04000000097,"y":2545312.5200000014}},{"attributes":{"ID":599492,"DIS_CODE":0,"TOWNNAME":"新市區","LI":"新和里","LIN":"27鄰","STREET":"忠孝街","SECT":" ","MAREA":" ","LANE":" ","ALLEY":" ","HOUSE_NO":"１６９號","E_COORD97":177712.98000000001,"N_COORD97":2552751.75,"ADDRESS":"忠孝街１６９號","OBJECTID":599465},"geometry":{"x":177712.98000000045,"y":2552751.75}},{"attributes":{"ID":599493,"DIS_CODE":0,"TOWNNAME":"新市區","LI":"新和里","LIN":"27鄰","STREET":"忠孝街","SECT":" ","MAREA":" ","LANE":" ","ALLEY":" ","HOUSE_NO":"１６６號","E_COORD97":177730.20000000001,"N_COORD97":2552748.25,"ADDRESS":"忠孝街１６６號","OBJECTID":599466},"geometry":{"x":177730.20000000019,"y":2552748.25}},{"attributes":{"ID":599494,"DIS_CODE":0,"TOWNNAME":"新市區","LI":"新和里","LIN":"27鄰","STREET":"忠孝街","SECT":" ","MAREA":" ","LANE":" ","ALLEY":" ","HOUSE_NO":"１５７號","E_COORD97":177708.03,"N_COORD97":2552726.5,"ADDRESS":"忠孝街１５７號","OBJECTID":599467},"geometry":{"x":177708.02999999933,"y":2552726.5}},{"attributes":{"ID":599495,"DIS_CODE":0,"TOWNNAME":"新市區","LI":"新和里","LIN":"27鄰","STREET":"忠孝街","SECT":" ","MAREA":" ","LANE":" ","ALLEY":" ","HOUSE_NO":"１８６號","E_COORD97":177739.84,"N_COORD97":2552837.5,"ADDRESS":"忠孝街１８６號","OBJECTID":599468},"geometry":{"x":177739.84000000078,"y":2552837.5000000019}},{"attributes":{"ID":599496,"DIS_CODE":0,"TOWNNAME":"新市區","LI":"新和里","LIN":"27鄰","STREET":"忠孝街","SECT":" ","MAREA":" ","LANE":" ","ALLEY":" ","HOUSE_NO":"１９０號","E_COORD97":177739.39999999999,"N_COORD97":2552846.5,"ADDRESS":"忠孝街１９０號","OBJECTID":599469},"geometry":{"x":177739.40000000037,"y":2552846.5000000019}},{"attributes":{"ID":599497,"DIS_CODE":0,"TOWNNAME":"新市區","LI":"新和里","LIN":"27鄰","STREET":"忠孝街","SECT":" ","MAREA":" ","LANE":" ","ALLEY":" ","HOUSE_NO":"１９２號","E_COORD97":177739.39999999999,"N_COORD97":2552851.25,"ADDRESS":"忠孝街１９２號","OBJECTID":599470},"geometry":{"x":177739.40000000037,"y":2552851.2500000037}},{"attributes":{"ID":599498,"DIS_CODE":0,"TOWNNAME":"新市區","LI":"新和里","LIN":"27鄰","STREET":"忠孝街","SECT":" ","MAREA":" ","LANE":" ","ALLEY":" ","HOUSE_NO":"１７３號","E_COORD97":177714.84,"N_COORD97":2552760.25,"ADDRESS":"忠孝街１７３號","OBJECTID":599471},"geometry":{"x":177714.84000000078,"y":2552760.2500000019}},{"attributes":{"ID":599499,"DIS_CODE":0,"TOWNNAME":"新市區","LI":"新和里","LIN":"27鄰","STREET":"忠孝街","SECT":" ","MAREA":" ","LANE":" ","ALLEY":" ","HOUSE_NO":"１７１號","E_COORD97":177713.92999999999,"N_COORD97":2552756,"ADDRESS":"忠孝街１７１號","OBJECTID":599472},"geometry":{"x":177713.93000000063,"y":2552756.0000000019}},{"attributes":{"ID":599500,"DIS_CODE":0,"TOWNNAME":"新市區","LI":"新和里","LIN":"27鄰","STREET":"忠孝街","SECT":" ","MAREA":" ","LANE":" ","ALLEY":" ","HOUSE_NO":"１８４號","E_COORD97":177740.04000000001,"N_COORD97":2552833,"ADDRESS":"忠孝街１８４號","OBJECTID":599473},"geometry":{"x":177740.0400000019,"y":2552833.0000000019}},{"attributes":{"ID":599501,"DIS_CODE":0,"TOWNNAME":"新市區","LI":"新和里","LIN":"27鄰","STREET":"忠孝街","SECT":" ","MAREA":" ","LANE":" ","ALLEY":" ","HOUSE_NO":"１８９號","E_COORD97":177712.84,"N_COORD97":2552808.75,"ADDRESS":"忠孝街１８９號","OBJECTID":599474},"geometry":{"x":177712.84000000078,"y":2552808.75}},{"attributes":{"ID":599502,"DIS_CODE":0,"TOWNNAME":"新市區","LI":"新和里","LIN":"27鄰","STREET":"忠孝街","SECT":" ","MAREA":" ","LANE":" ","ALLEY":" ","HOUSE_NO":"１８８號","E_COORD97":177739.98999999999,"N_COORD97":2552842,"ADDRESS":"忠孝街１８８號","OBJECTID":599475},"geometry":{"x":177739.99000000022,"y":2552842}},{"attributes":{"ID":599503,"DIS_CODE":0,"TOWNNAME":"新市區","LI":"新和里","LIN":"27鄰","STREET":"忠孝街","SECT":" ","MAREA":" ","LANE":" ","ALLEY":" ","HOUSE_NO":"１６８號","E_COORD97":177731.10000000001,"N_COORD97":2552752.25,"ADDRESS":"忠孝街１６８號","OBJECTID":599476},"geometry":{"x":177731.10000000056,"y":2552752.25}},{"attributes":{"ID":599504,"DIS_CODE":0,"TOWNNAME":"新市區","LI":"新和里","LIN":"27鄰","STREET":"忠孝街","SECT":" ","MAREA":" ","LANE":" ","ALLEY":" ","HOUSE_NO":"１６４號","E_COORD97":177729.39999999999,"N_COORD97":2552744,"ADDRESS":"忠孝街１６４號","OBJECTID":599477},"geometry":{"x":177729.39999999944,"y":2552744}},{"attributes":{"ID":599505,"DIS_CODE":0,"TOWNNAME":"新市區","LI":"新和里","LIN":"27鄰","STREET":"忠孝街","SECT":" ","MAREA":" ","LANE":" ","ALLEY":" ","HOUSE_NO":"１７５號","E_COORD97":177715.64000000001,"N_COORD97":2552764.5,"ADDRESS":"忠孝街１７５號","OBJECTID":599478},"geometry":{"x":177715.6400000006,"y":2552764.4999999981}},{"attributes":{"ID":599506,"DIS_CODE":0,"TOWNNAME":"新市區","LI":"新和里","LIN":"27鄰","STREET":"忠孝街","SECT":" ","MAREA":" ","LANE":" ","ALLEY":" ","HOUSE_NO":"１６７號","E_COORD97":177712.14000000001,"N_COORD97":2552747.75,"ADDRESS":"忠孝街１６７號","OBJECTID":599479},"geometry":{"x":177712.1400000006,"y":2552747.75}},{"attributes":{"ID":599507,"DIS_CODE":0,"TOWNNAME":"新市區","LI":"新和里","LIN":"27鄰","STREET":"忠孝街","SECT":" ","MAREA":" ","LANE":" ","ALLEY":" ","HOUSE_NO":"１６２號","E_COORD97":177728.56,"N_COORD97":2552740,"ADDRESS":"忠孝街１６２號","OBJECTID":599480},"geometry":{"x":177728.55999999959,"y":2552740}},{"attributes":{"ID":599508,"DIS_CODE":0,"TOWNNAME":"新市區","LI":"新和里","LIN":"27鄰","STREET":"忠孝街","SECT":" ","MAREA":" ","LANE":" ","ALLEY":" ","HOUSE_NO":"１８２之３號","E_COORD97":177744.23999999999,"N_COORD97":2552798.7999999998,"ADDRESS":"忠孝街１８２之３號","OBJECTID":599481},"geometry":{"x":177744.24000000115,"y":2552798.8000000026}},{"attributes":{"ID":599509,"DIS_CODE":0,"TOWNNAME":"新市區","LI":"新和里","LIN":"27鄰","STREET":"忠孝街","SECT":" ","MAREA":" ","LANE":" ","ALLEY":" ","HOUSE_NO":"１８２號之２","E_COORD97":177744.25,"N_COORD97":2552803.7999999998,"ADDRESS":"忠孝街１８２號之２","OBJECTID":599482},"geometry":{"x":177744.25000000093,"y":2552803.8000000007}},{"attributes":{"ID":599510,"DIS_CODE":0,"TOWNNAME":"新市區","LI":"新和里","LIN":"27鄰","STREET":"忠孝街","SECT":" ","MAREA":" ","LANE":" ","ALLEY":" ","HOUSE_NO":"１７０號","E_COORD97":177732.01000000001,"N_COORD97":2552756.5,"ADDRESS":"忠孝街１７０號","OBJECTID":599483},"geometry":{"x":177732.01000000071,"y":2552756.5}},{"attributes":{"ID":599511,"DIS_CODE":0,"TOWNNAME":"新市區","LI":"新和里","LIN":"27鄰","STREET":"忠孝街","SECT":" ","MAREA":" ","LANE":" ","ALLEY":" ","HOUSE_NO":"１６３號","E_COORD97":177710.48000000001,"N_COORD97":2552739.25,"ADDRESS":"忠孝街１６３號","OBJECTID":599484},"geometry":{"x":177710.48000000231,"y":2552739.2500000037}},{"attributes":{"ID":599512,"DIS_CODE":0,"TOWNNAME":"永康區","LI":"中興里","LIN":"27鄰","STREET":"中興街","SECT":" ","MAREA":" ","LANE":" ","ALLEY":" ","HOUSE_NO":"７３號","E_COORD97":172064.72,"N_COORD97":2545305.46,"ADDRESS":"中興街７３號","OBJECTID":599485},"geometry":{"x":172064.7200000016,"y":2545305.4600000009}},{"attributes":{"ID":599513,"DIS_CODE":0,"TOWNNAME":"永康區","LI":"尚頂里","LIN":"12鄰","STREET":"尚頂路","SECT":" ","MAREA":" ","LANE":" ","ALLEY":" ","HOUSE_NO":"１號","E_COORD97":171255.17000000001,"N_COORD97":2547402.6299999999,"ADDRESS":"尚頂路１號","OBJECTID":599486},"geometry":{"x":171255.17000000086,"y":2547402.6300000027}},{"attributes":{"ID":599514,"DIS_CODE":0,"TOWNNAME":"永康區","LI":"中興里","LIN":"27鄰","STREET":"中興街","SECT":" ","MAREA":" ","LANE":" ","ALLEY":" ","HOUSE_NO":"７１號","E_COORD97":172065.48000000001,"N_COORD97":2545299.96,"ADDRESS":"中興街７１號","OBJECTID":599487},"geometry":{"x":172065.48000000231,"y":2545299.9600000009}},{"attributes":{"ID":599515,"DIS_CODE":0,"TOWNNAME":"永康區","LI":"中興里","LIN":"27鄰","STREET":"中興街","SECT":" ","MAREA":" ","LANE":" ","ALLEY":" ","HOUSE_NO":"７７號","E_COORD97":172065.29999999999,"N_COORD97":2545315.5,"ADDRESS":"中興街７７號","OBJECTID":599488},"geometry":{"x":172065.29999999981,"y":2545315.5}},{"attributes":{"ID":599516,"DIS_CODE":0,"TOWNNAME":"永康區","LI":"中興里","LIN":"27鄰","STREET":"中山東路","SECT":" ","MAREA":" ","LANE":" ","ALLEY":" ","HOUSE_NO":"３３３號","E_COORD97":171908.48000000001,"N_COORD97":2545303.27,"ADDRESS":"中山東路３３３號","OBJECTID":599489},"geometry":{"x":171908.48000000138,"y":2545303.2699999977}},{"attributes":{"ID":599517,"DIS_CODE":0,"TOWNNAME":"永康區","LI":"大灣里","LIN":"27鄰","STREET":"大灣六街","SECT":" ","MAREA":" ","LANE":" ","ALLEY":" ","HOUSE_NO":"７２號","E_COORD97":175141.54000000001,"N_COORD97":2545297.6000000001,"ADDRESS":"大灣六街７２號","OBJECTID":599490},"geometry":{"x":175141.54000000097,"y":2545297.5999999996}},{"attributes":{"ID":599518,"DIS_CODE":0,"TOWNNAME":"永康區","LI":"大灣里","LIN":"27鄰","STREET":"大灣六街","SECT":" ","MAREA":" ","LANE":" ","ALLEY":" ","HOUSE_NO":"７０號","E_COORD97":175159.39000000001,"N_COORD97":2545283.5,"ADDRESS":"大灣六街７０號","OBJECTID":599491},"geometry":{"x":175159.3900000006,"y":2545283.5000000019}},{"attributes":{"ID":599519,"DIS_CODE":0,"TOWNNAME":"永康區","LI":"\u25A0行里","LIN":"27鄰","STREET":"中正南路","SECT":" ","MAREA":" ","LANE":" ","ALLEY":" ","HOUSE_NO":"３３２號","E_COORD97":170818.48999999999,"N_COORD97":2548026.3900000001,"ADDRESS":"中正南路３３２號","OBJECTID":599492},"geometry":{"x":170818.49000000022,"y":2548026.3900000043}},{"attributes":{"ID":599520,"DIS_CODE":0,"TOWNNAME":"仁德區","LI":"太子里","LIN":"27鄰","STREET":"太子四街","SECT":" ","MAREA":" ","LANE":" ","ALLEY":" ","HOUSE_NO":"７號","E_COORD97":173149.87,"N_COORD97":2543311.2599999998,"ADDRESS":"太子四街７號","OBJECTID":599493},"geometry":{"x":173149.87000000011,"y":2543311.2600000016}},{"attributes":{"ID":599521,"DIS_CODE":0,"TOWNNAME":"永康區","LI":"二王里","LIN":"24鄰","STREET":"忠孝路","SECT":" ","MAREA":" ","LANE":" ","ALLEY":" ","HOUSE_NO":"３８５號","E_COORD97":172364.85000000001,"N_COORD97":2546278.04,"ADDRESS":"忠孝路３８５號","OBJECTID":599494},"geometry":{"x":172364.84999999963,"y":2546278.040000001}},{"attributes":{"ID":599522,"DIS_CODE":0,"TOWNNAME":"永康區","LI":"中華里","LIN":"2鄰","STREET":"忠孝路","SECT":" ","MAREA":" ","LANE":" ","ALLEY":" ","HOUSE_NO":"８５號","E_COORD97":172069.97,"N_COORD97":2544565.6200000001,"ADDRESS":"忠孝路８５號","OBJECTID":599495},"geometry":{"x":172069.97000000067,"y":2544565.620000001}},{"attributes":{"ID":599523,"DIS_CODE":0,"TOWNNAME":"永康區","LI":"西灣里","LIN":"18鄰","STREET":"永大路","SECT":"二段","MAREA":" ","LANE":" ","ALLEY":" ","HOUSE_NO":"５８０號","E_COORD97":174428.98999999999,"N_COORD97":2545518.23,"ADDRESS":"永大路二段５８０號","OBJECTID":599496},"geometry":{"x":174428.99000000115,"y":2545518.2300000042}},{"attributes":{"ID":599524,"DIS_CODE":0,"TOWNNAME":"永康區","LI":"西灣里","LIN":"20鄰","STREET":"永大路","SECT":"二段","MAREA":" ","LANE":" ","ALLEY":" ","HOUSE_NO":"７５８號","E_COORD97":174538.42999999999,"N_COORD97":2545907.5800000001,"ADDRESS":"永大路二段７５８號","OBJECTID":599497},"geometry":{"x":174538.43000000063,"y":2545907.5800000001}},{"attributes":{"ID":599525,"DIS_CODE":0,"TOWNNAME":"永康區","LI":"北灣里","LIN":"39鄰","STREET":"永大路","SECT":"二段","MAREA":" ","LANE":" ","ALLEY":" ","HOUSE_NO":"９１８號","E_COORD97":174496.45000000001,"N_COORD97":2546234.7999999998,"ADDRESS":"永大路二段９１８號","OBJECTID":599498},"geometry":{"x":174496.45000000112,"y":2546234.8000000026}},{"attributes":{"ID":599526,"DIS_CODE":0,"TOWNNAME":"永康區","LI":"西灣里","LIN":"15鄰","STREET":"永大路","SECT":"二段","MAREA":" ","LANE":" ","ALLEY":" ","HOUSE_NO":"４１６號","E_COORD97":174341.31,"N_COORD97":2545200.54,"ADDRESS":"永大路二段４１６號","OBJECTID":599499},"geometry":{"x":174341.31000000052,"y":2545200.540000001}},{"attributes":{"ID":599527,"DIS_CODE":0,"TOWNNAME":"永康區","LI":"西灣里","LIN":"9鄰","STREET":"永大路","SECT":"二段","MAREA":" ","LANE":" ","ALLEY":" ","HOUSE_NO":"４３２號","E_COORD97":174354,"N_COORD97":2545246.02,"ADDRESS":"永大路二段４３２號","OBJECTID":599500},"geometry":{"x":174354.00000000093,"y":2545246.0199999996}},{"attributes":{"ID":599528,"DIS_CODE":0,"TOWNNAME":"永康區","LI":"西灣里","LIN":"9鄰","STREET":"永大路","SECT":"二段","MAREA":" ","LANE":" ","ALLEY":" ","HOUSE_NO":"４５６號","E_COORD97":174366.63,"N_COORD97":2545291.3399999999,"ADDRESS":"永大路二段４５６號","OBJECTID":599501},"geometry":{"x":174366.63000000082,"y":2545291.3400000017}},{"attributes":{"ID":599529,"DIS_CODE":0,"TOWNNAME":"仁德區","LI":"太子里","LIN":"27鄰","STREET":"大吉路","SECT":" ","MAREA":" ","LANE":" ","ALLEY":" ","HOUSE_NO":"１３７號","E_COORD97":173305.32000000001,"N_COORD97":2543320.5,"ADDRESS":"大吉路１３７號","OBJECTID":599502},"geometry":{"x":173305.3200000003,"y":2543320.5000000019}},{"attributes":{"ID":599530,"DIS_CODE":0,"TOWNNAME":"仁德區","LI":"太子里","LIN":"27鄰","STREET":"大吉路","SECT":" ","MAREA":" ","LANE":" ","ALLEY":" ","HOUSE_NO":"１２６號","E_COORD97":173614.17999999999,"N_COORD97":2543350.9900000002,"ADDRESS":"大吉路１２６號","OBJECTID":599503},"geometry":{"x":173614.1799999997,"y":2543350.9900000021}},{"attributes":{"ID":599531,"DIS_CODE":0,"TOWNNAME":"仁德區","LI":"太子里","LIN":"27鄰","STREET":"大吉路","SECT":" ","MAREA":" ","LANE":" ","ALLEY":" ","HOUSE_NO":"１３１號","E_COORD97":173346.98000000001,"N_COORD97":2543321.25,"ADDRESS":"大吉路１３１號","OBJECTID":599504},"geometry":{"x":173346.98000000231,"y":2543321.2500000019}},{"attributes":{"ID":599532,"DIS_CODE":0,"TOWNNAME":"仁德區","LI":"太子里","LIN":"27鄰","STREET":"太子路","SECT":" ","MAREA":" ","LANE":" ","ALLEY":" ","HOUSE_NO":"７０３號","E_COORD97":173287.67999999999,"N_COORD97":2543507.2599999998,"ADDRESS":"太子路７０３號","OBJECTID":599505},"geometry":{"x":173287.68000000063,"y":2543507.2600000016}},{"attributes":{"ID":599533,"DIS_CODE":0,"TOWNNAME":"仁德區","LI":"太子里","LIN":"27鄰","STREET":"大吉路","SECT":" ","MAREA":" ","LANE":" ","ALLEY":" ","HOUSE_NO":"１７號","E_COORD97":173693.01000000001,"N_COORD97":2543330,"ADDRESS":"大吉路１７號","OBJECTID":599506},"geometry":{"x":173693.00999999978,"y":2543330.0000000019}},{"attributes":{"ID":599534,"DIS_CODE":0,"TOWNNAME":"東區","LI":"後甲里","LIN":"27鄰","STREET":"建東街","SECT":" ","MAREA":" ","LANE":" ","ALLEY":" ","HOUSE_NO":"１６號","E_COORD97":171796.10999999999,"N_COORD97":2543336.6299999999,"ADDRESS":"建東街１６號","OBJECTID":599507},"geometry":{"x":171796.11000000034,"y":2543336.629999999}},{"attributes":{"ID":599535,"DIS_CODE":0,"TOWNNAME":"東區","LI":"後甲里","LIN":"27鄰","STREET":"建東街","SECT":" ","MAREA":" ","LANE":" ","ALLEY":" ","HOUSE_NO":"１８號","E_COORD97":171795.32000000001,"N_COORD97":2543340.8700000001,"ADDRESS":"建東街１８號","OBJECTID":599508},"geometry":{"x":171795.32000000123,"y":2543340.870000001}},{"attributes":{"ID":599536,"DIS_CODE":0,"TOWNNAME":"東區","LI":"後甲里","LIN":"27鄰","STREET":"建東街","SECT":" ","MAREA":" ","LANE":" ","ALLEY":" ","HOUSE_NO":"２０號","E_COORD97":171796.38,"N_COORD97":2543345.1000000001,"ADDRESS":"建東街２０號","OBJECTID":599509},"geometry":{"x":171796.38000000082,"y":2543345.1000000034}},{"attributes":{"ID":599537,"DIS_CODE":0,"TOWNNAME":"東區","LI":"後甲里","LIN":"27鄰","STREET":"建東街","SECT":" ","MAREA":" ","LANE":" ","ALLEY":" ","HOUSE_NO":"２４號","E_COORD97":171796.17000000001,"N_COORD97":2543356.1699999999,"ADDRESS":"建東街２４號","OBJECTID":599510},"geometry":{"x":171796.17000000086,"y":2543356.1700000018}},{"attributes":{"ID":599538,"DIS_CODE":0,"TOWNNAME":"東區","LI":"後甲里","LIN":"27鄰","STREET":"建東街","SECT":" ","MAREA":" ","LANE":" ","ALLEY":" ","HOUSE_NO":"２６號","E_COORD97":171794.31,"N_COORD97":2543361.1200000001,"ADDRESS":"建東街２６號","OBJECTID":599511},"geometry":{"x":171794.30999999866,"y":2543361.1200000029}},{"attributes":{"ID":599539,"DIS_CODE":0,"TOWNNAME":"東區","LI":"後甲里","LIN":"27鄰","STREET":"建東街","SECT":" ","MAREA":" ","LANE":" ","ALLEY":" ","HOUSE_NO":"２８號","E_COORD97":171795.54999999999,"N_COORD97":2543364.6400000001,"ADDRESS":"建東街２８號","OBJECTID":599512},"geometry":{"x":171795.54999999981,"y":2543364.6400000006}},{"attributes":{"ID":599540,"DIS_CODE":0,"TOWNNAME":"東區","LI":"後甲里","LIN":"27鄰","STREET":"建東街","SECT":" ","MAREA":" ","LANE":" ","ALLEY":" ","HOUSE_NO":"３２號","E_COORD97":171793.82999999999,"N_COORD97":2543375.6800000002,"ADDRESS":"建東街３２號","OBJECTID":599513},"geometry":{"x":171793.83000000101,"y":2543375.6800000016}},{"attributes":{"ID":599541,"DIS_CODE":0,"TOWNNAME":"仁德區","LI":"太子里","LIN":"27鄰","STREET":"大利路","SECT":" ","MAREA":" ","LANE":" ","ALLEY":" ","HOUSE_NO":"６５號","E_COORD97":173545.26000000001,"N_COORD97":2543190.2400000002,"ADDRESS":"大利路６５號","OBJECTID":599514},"geometry":{"x":173545.25999999978,"y":2543190.2400000021}},{"attributes":{"ID":599542,"DIS_CODE":0,"TOWNNAME":"仁德區","LI":"太子里","LIN":"27鄰","STREET":"太子路","SECT":" ","MAREA":" ","LANE":" ","ALLEY":" ","HOUSE_NO":"６９３之１號","E_COORD97":173372.57931,"N_COORD97":2543520.35402,"ADDRESS":"太子路６９３之１號","OBJECTID":599515},"geometry":{"x":173372.57931000087,"y":2543520.3540200014}},{"attributes":{"ID":599543,"DIS_CODE":0,"TOWNNAME":"仁德區","LI":"太子里","LIN":"27鄰","STREET":"太子路","SECT":" ","MAREA":" ","LANE":" ","ALLEY":" ","HOUSE_NO":"７０７之２號","E_COORD97":173241.82000000001,"N_COORD97":2543497.29,"ADDRESS":"太子路７０７之２號","OBJECTID":599516},"geometry":{"x":173241.82000000123,"y":2543497.290000001}},{"attributes":{"ID":599544,"DIS_CODE":0,"TOWNNAME":"仁德區","LI":"成功里","LIN":"27鄰","STREET":"成功一街","SECT":" ","MAREA":" ","LANE":" ","ALLEY":" ","HOUSE_NO":"２６號","E_COORD97":170523.95000000001,"N_COORD97":2540125.52,"ADDRESS":"成功一街２６號","OBJECTID":599517},"geometry":{"x":170523.95000000019,"y":2540125.5200000014}},{"attributes":{"ID":599545,"DIS_CODE":0,"TOWNNAME":"永康區","LI":"大灣里","LIN":"27鄰","STREET":"大灣六街","SECT":" ","MAREA":" ","LANE":" ","ALLEY":" ","HOUSE_NO":"７６號","E_COORD97":175134.01000000001,"N_COORD97":2545301.3399999999,"ADDRESS":"大灣六街７６號","OBJECTID":599518},"geometry":{"x":175134.00999999978,"y":2545301.3400000017}},{"attributes":{"ID":599546,"DIS_CODE":0,"TOWNNAME":"永康區","LI":"大灣里","LIN":"27鄰","STREET":"大灣六街","SECT":" ","MAREA":" ","LANE":" ","ALLEY":" ","HOUSE_NO":"５６號","E_COORD97":175200.98000000001,"N_COORD97":2545256.4900000002,"ADDRESS":"大灣六街５６號","OBJECTID":599519},"geometry":{"x":175200.98000000045,"y":2545256.4900000021}},{"attributes":{"ID":599547,"DIS_CODE":0,"TOWNNAME":"永康區","LI":"大灣里","LIN":"27鄰","STREET":"大灣六街","SECT":" ","MAREA":" ","LANE":" ","ALLEY":" ","HOUSE_NO":"６６號","E_COORD97":175175.73000000001,"N_COORD97":2545286.0600000001,"ADDRESS":"大灣六街６６號","OBJECTID":599520},"geometry":{"x":175175.73000000045,"y":2545286.0600000024}},{"attributes":{"ID":599548,"DIS_CODE":0,"TOWNNAME":"永康區","LI":"大灣里","LIN":"27鄰","STREET":"中灣五街","SECT":" ","MAREA":" ","LANE":" ","ALLEY":" ","HOUSE_NO":"３８號","E_COORD97":175147.62,"N_COORD97":2545214.7000000002,"ADDRESS":"中灣五街３８號","OBJECTID":599521},"geometry":{"x":175147.62000000197,"y":2545214.6999999993}},{"attributes":{"ID":599549,"DIS_CODE":0,"TOWNNAME":"永康區","LI":"大灣里","LIN":"27鄰","STREET":"大灣六街","SECT":" ","MAREA":" ","LANE":" ","ALLEY":" ","HOUSE_NO":"６８號","E_COORD97":175165.39999999999,"N_COORD97":2545278.5,"ADDRESS":"大灣六街６８號","OBJECTID":599522},"geometry":{"x":175165.4000000013,"y":2545278.4999999981}},{"attributes":{"ID":599550,"DIS_CODE":0,"TOWNNAME":"永康區","LI":"大灣里","LIN":"27鄰","STREET":"大灣六街","SECT":" ","MAREA":" ","LANE":" ","ALLEY":" ","HOUSE_NO":"２０號","E_COORD97":175286.76000000001,"N_COORD97":2545211.77,"ADDRESS":"大灣六街２０號","OBJECTID":599523},"geometry":{"x":175286.75999999978,"y":2545211.7699999977}},{"attributes":{"ID":599551,"DIS_CODE":0,"TOWNNAME":"永康區","LI":"大灣里","LIN":"27鄰","STREET":"大灣六街","SECT":" ","MAREA":" ","LANE":" ","ALLEY":" ","HOUSE_NO":"３８號","E_COORD97":175248.87,"N_COORD97":2545228.8799999999,"ADDRESS":"大灣六街３８號","OBJECTID":599524},"geometry":{"x":175248.87000000011,"y":2545228.8800000008}},{"attributes":{"ID":599552,"DIS_CODE":0,"TOWNNAME":"永康區","LI":"大灣里","LIN":"27鄰","STREET":"大灣六街","SECT":" ","MAREA":" ","LANE":" ","ALLEY":" ","HOUSE_NO":"５２號","E_COORD97":175205.73000000001,"N_COORD97":2545253.7400000002,"ADDRESS":"大灣六街５２號","OBJECTID":599525},"geometry":{"x":175205.73000000045,"y":2545253.7400000039}},{"attributes":{"ID":599553,"DIS_CODE":0,"TOWNNAME":"安南區","LI":"安富里","LIN":"27鄰","STREET":"安寧街","SECT":" ","MAREA":" ","LANE":" ","ALLEY":" ","HOUSE_NO":"３８號","E_COORD97":167421.69,"N_COORD97":2546968.3999999999,"ADDRESS":"安寧街３８號","OBJECTID":599526},"geometry":{"x":167421.69000000041,"y":2546968.4000000041}},{"attributes":{"ID":599554,"DIS_CODE":0,"TOWNNAME":"安南區","LI":"安富里","LIN":"27鄰","STREET":"安寧街","SECT":" ","MAREA":" ","LANE":" ","ALLEY":" ","HOUSE_NO":"１６號","E_COORD97":167433.63,"N_COORD97":2546909.1499999999,"ADDRESS":"安寧街１６號","OBJECTID":599527},"geometry":{"x":167433.62999999989,"y":2546909.1500000022}},{"attributes":{"ID":599555,"DIS_CODE":0,"TOWNNAME":"安南區","LI":"安富里","LIN":"27鄰","STREET":"安寧街","SECT":" ","MAREA":" ","LANE":" ","ALLEY":" ","HOUSE_NO":"１８號","E_COORD97":167433.25,"N_COORD97":2546914.9199999999,"ADDRESS":"安寧街１８號","OBJECTID":599528},"geometry":{"x":167433.25,"y":2546914.9200000018}},{"attributes":{"ID":599556,"DIS_CODE":0,"TOWNNAME":"安南區","LI":"安富里","LIN":"27鄰","STREET":"安寧街","SECT":" ","MAREA":" ","LANE":" ","ALLEY":" ","HOUSE_NO":"１４號","E_COORD97":167435.17000000001,"N_COORD97":2546904.1099999999,"ADDRESS":"安寧街１４號","OBJECTID":599529},"geometry":{"x":167435.16999999993,"y":2546904.1099999994}},{"attributes":{"ID":599557,"DIS_CODE":0,"TOWNNAME":"安南區","LI":"安富里","LIN":"27鄰","STREET":"安寧街","SECT":" ","MAREA":" ","LANE":" ","ALLEY":" ","HOUSE_NO":"２８號","E_COORD97":167427.07999999999,"N_COORD97":2546941.0800000001,"ADDRESS":"安寧街２８號","OBJECTID":599530},"geometry":{"x":167427.08000000101,"y":2546941.0800000019}},{"attributes":{"ID":599558,"DIS_CODE":0,"TOWNNAME":"安南區","LI":"安富里","LIN":"27鄰","STREET":"安寧街","SECT":" ","MAREA":" ","LANE":" ","ALLEY":" ","HOUSE_NO":"３４號","E_COORD97":167423.60999999999,"N_COORD97":2546958.0099999998,"ADDRESS":"安寧街３４號","OBJECTID":599531},"geometry":{"x":167423.61000000127,"y":2546958.0100000016}},{"attributes":{"ID":599559,"DIS_CODE":0,"TOWNNAME":"安南區","LI":"安富里","LIN":"27鄰","STREET":"安寧街","SECT":" ","MAREA":" ","LANE":" ","ALLEY":" ","HOUSE_NO":"４０號","E_COORD97":167420.53,"N_COORD97":2546974.1699999999,"ADDRESS":"安寧街４０號","OBJECTID":599532},"geometry":{"x":167420.53000000119,"y":2546974.1700000018}},{"attributes":{"ID":599560,"DIS_CODE":0,"TOWNNAME":"安南區","LI":"安富里","LIN":"27鄰","STREET":"安寧街","SECT":" ","MAREA":" ","LANE":" ","ALLEY":" ","HOUSE_NO":"４２號","E_COORD97":167419.38,"N_COORD97":2546979.1699999999,"ADDRESS":"安寧街４２號","OBJECTID":599533},"geometry":{"x":167419.38000000082,"y":2546979.1699999981}},{"attributes":{"ID":599561,"DIS_CODE":0,"TOWNNAME":"安南區","LI":"安富里","LIN":"27鄰","STREET":"安寧街","SECT":" ","MAREA":" ","LANE":" ","ALLEY":" ","HOUSE_NO":"４４號","E_COORD97":167418.22,"N_COORD97":2546984.1699999999,"ADDRESS":"安寧街４４號","OBJECTID":599534},"geometry":{"x":167418.2200000016,"y":2546984.1700000018}},{"attributes":{"ID":599562,"DIS_CODE":0,"TOWNNAME":"安南區","LI":"安富里","LIN":"27鄰","STREET":"安寧街","SECT":" ","MAREA":" ","LANE":" ","ALLEY":" ","HOUSE_NO":"５２號","E_COORD97":167414.37,"N_COORD97":2547006.7599999998,"ADDRESS":"安寧街５２號","OBJECTID":599535},"geometry":{"x":167414.37000000104,"y":2547006.7600000016}},{"attributes":{"ID":599563,"DIS_CODE":0,"TOWNNAME":"安南區","LI":"安富里","LIN":"27鄰","STREET":"安寧街","SECT":" ","MAREA":" ","LANE":" ","ALLEY":" ","HOUSE_NO":"５４號","E_COORD97":167412.82999999999,"N_COORD97":2547012.1400000001,"ADDRESS":"安寧街５４號","OBJECTID":599536},"geometry":{"x":167412.83000000194,"y":2547012.1400000025}},{"attributes":{"ID":599564,"DIS_CODE":0,"TOWNNAME":"安南區","LI":"安富里","LIN":"27鄰","STREET":"安寧街","SECT":" ","MAREA":" ","LANE":" ","ALLEY":" ","HOUSE_NO":"５６號","E_COORD97":167411.67000000001,"N_COORD97":2547017.9100000001,"ADDRESS":"安寧街５６號","OBJECTID":599537},"geometry":{"x":167411.66999999993,"y":2547017.9100000001}},{"attributes":{"ID":599565,"DIS_CODE":0,"TOWNNAME":"安南區","LI":"安富里","LIN":"27鄰","STREET":"安寧街","SECT":" ","MAREA":" ","LANE":" ","ALLEY":" ","HOUSE_NO":"６０號","E_COORD97":167409.73999999999,"N_COORD97":2547026.7599999998,"ADDRESS":"安寧街６０號","OBJECTID":599538},"geometry":{"x":167409.74000000022,"y":2547026.7600000016}},{"attributes":{"ID":599566,"DIS_CODE":0,"TOWNNAME":"安南區","LI":"安富里","LIN":"27鄰","STREET":"安寧街","SECT":" ","MAREA":" ","LANE":" ","ALLEY":" ","HOUSE_NO":"６２號","E_COORD97":167409.35999999999,"N_COORD97":2547032.5299999998,"ADDRESS":"安寧街６２號","OBJECTID":599539},"geometry":{"x":167409.3600000022,"y":2547032.5299999993}},{"attributes":{"ID":599567,"DIS_CODE":0,"TOWNNAME":"安南區","LI":"安富里","LIN":"27鄰","STREET":"安寧街","SECT":" ","MAREA":" ","LANE":" ","ALLEY":" ","HOUSE_NO":"６４號","E_COORD97":167408.59,"N_COORD97":2547037.9199999999,"ADDRESS":"安寧街６４號","OBJECTID":599540},"geometry":{"x":167408.58999999985,"y":2547037.9199999999}},{"attributes":{"ID":599568,"DIS_CODE":0,"TOWNNAME":"安南區","LI":"安富里","LIN":"27鄰","STREET":"安寧街","SECT":" ","MAREA":" ","LANE":" ","ALLEY":" ","HOUSE_NO":"７０號","E_COORD97":167403.95999999999,"N_COORD97":2547054.0699999998,"ADDRESS":"安寧街７０號","OBJECTID":599541},"geometry":{"x":167403.96000000089,"y":2547054.0700000003}},{"attributes":{"ID":599569,"DIS_CODE":0,"TOWNNAME":"安南區","LI":"安富里","LIN":"27鄰","STREET":"安寧街","SECT":" ","MAREA":" ","LANE":" ","ALLEY":" ","HOUSE_NO":"７２號","E_COORD97":167403.19,"N_COORD97":2547059.0800000001,"ADDRESS":"安寧街７２號","OBJECTID":599542},"geometry":{"x":167403.19000000041,"y":2547059.0800000019}},{"attributes":{"ID":599570,"DIS_CODE":0,"TOWNNAME":"安南區","LI":"安富里","LIN":"27鄰","STREET":"安寧街","SECT":" ","MAREA":" ","LANE":" ","ALLEY":" ","HOUSE_NO":"８０號","E_COORD97":167397.79999999999,"N_COORD97":2547082.1400000001,"ADDRESS":"安寧街８０號","OBJECTID":599543},"geometry":{"x":167397.80000000075,"y":2547082.1400000043}},{"attributes":{"ID":599571,"DIS_CODE":0,"TOWNNAME":"安南區","LI":"安富里","LIN":"27鄰","STREET":"安寧街","SECT":" ","MAREA":" ","LANE":" ","ALLEY":" ","HOUSE_NO":"８２號","E_COORD97":167397.79999999999,"N_COORD97":2547087.9100000001,"ADDRESS":"安寧街８２號","OBJECTID":599544},"geometry":{"x":167397.80000000075,"y":2547087.910000002}},{"attributes":{"ID":599572,"DIS_CODE":0,"TOWNNAME":"安南區","LI":"安富里","LIN":"27鄰","STREET":"安寧街","SECT":" ","MAREA":" ","LANE":" ","ALLEY":" ","HOUSE_NO":"８４號","E_COORD97":167396.64000000001,"N_COORD97":2547092.5299999998,"ADDRESS":"安寧街８４號","OBJECTID":599545},"geometry":{"x":167396.64000000153,"y":2547092.5300000012}},{"attributes":{"ID":599573,"DIS_CODE":0,"TOWNNAME":"安南區","LI":"安富里","LIN":"27鄰","STREET":"安寧街","SECT":" ","MAREA":" ","LANE":" ","ALLEY":" ","HOUSE_NO":"８６號","E_COORD97":167395.10000000001,"N_COORD97":2547098.2999999998,"ADDRESS":"安寧街８６號","OBJECTID":599546},"geometry":{"x":167395.10000000149,"y":2547098.3000000045}},{"attributes":{"ID":599574,"DIS_CODE":0,"TOWNNAME":"安南區","LI":"安富里","LIN":"27鄰","STREET":"安寧街","SECT":" ","MAREA":" ","LANE":" ","ALLEY":" ","HOUSE_NO":"８號","E_COORD97":167439.41,"N_COORD97":2546887.9500000002,"ADDRESS":"安寧街８號","OBJECTID":599547},"geometry":{"x":167439.41000000201,"y":2546887.9499999993}},{"attributes":{"ID":599575,"DIS_CODE":0,"TOWNNAME":"安南區","LI":"安富里","LIN":"27鄰","STREET":"安寧街","SECT":" ","MAREA":" ","LANE":" ","ALLEY":" ","HOUSE_NO":"９０號","E_COORD97":167392.39999999999,"N_COORD97":2547108.6800000002,"ADDRESS":"安寧街９０號","OBJECTID":599548},"geometry":{"x":167392.4000000013,"y":2547108.6800000016}},{"attributes":{"ID":599576,"DIS_CODE":0,"TOWNNAME":"安南區","LI":"安富里","LIN":"27鄰","STREET":"安寧街","SECT":" ","MAREA":" ","LANE":" ","ALLEY":" ","HOUSE_NO":"９２號","E_COORD97":167391.63,"N_COORD97":2547114.3300000001,"ADDRESS":"安寧街９２號","OBJECTID":599549},"geometry":{"x":167391.62999999989,"y":2547114.3300000038}},{"attributes":{"ID":599577,"DIS_CODE":0,"TOWNNAME":"安南區","LI":"安富里","LIN":"27鄰","STREET":"安寧街","SECT":" ","MAREA":" ","LANE":" ","ALLEY":" ","HOUSE_NO":"９４號","E_COORD97":167389.70999999999,"N_COORD97":2547119.3300000001,"ADDRESS":"安寧街９４號","OBJECTID":599550},"geometry":{"x":167389.71000000183,"y":2547119.3300000001}},{"attributes":{"ID":599578,"DIS_CODE":0,"TOWNNAME":"安南區","LI":"安富里","LIN":"27鄰","STREET":"安寧街","SECT":" ","MAREA":" ","LANE":" ","ALLEY":" ","HOUSE_NO":"９６號","E_COORD97":167388.94,"N_COORD97":2547124.7200000002,"ADDRESS":"安寧街９６號","OBJECTID":599551},"geometry":{"x":167388.94000000134,"y":2547124.7200000007}},{"attributes":{"ID":599579,"DIS_CODE":0,"TOWNNAME":"永康區","LI":"甲頂里","LIN":"27鄰","STREET":"小北路","SECT":" ","MAREA":" ","LANE":" ","ALLEY":" ","HOUSE_NO":"６號","E_COORD97":169482.92999999999,"N_COORD97":2546751.3199999998,"ADDRESS":"小北路６號","OBJECTID":599552},"geometry":{"x":169482.9299999997,"y":2546751.3200000003}},{"attributes":{"ID":599580,"DIS_CODE":0,"TOWNNAME":"永康區","LI":"甲頂里","LIN":"27鄰","STREET":"小北路","SECT":" ","MAREA":" ","LANE":" ","ALLEY":" ","HOUSE_NO":"１０號","E_COORD97":169495.98000000001,"N_COORD97":2546761.0099999998,"ADDRESS":"小北路１０號","OBJECTID":599553},"geometry":{"x":169495.98000000138,"y":2546761.0100000016}},{"attributes":{"ID":599581,"DIS_CODE":0,"TOWNNAME":"永康區","LI":"甲頂里","LIN":"27鄰","STREET":"小北路","SECT":" ","MAREA":" ","LANE":" ","ALLEY":" ","HOUSE_NO":"１２號","E_COORD97":169501.10000000001,"N_COORD97":2546765.6000000001,"ADDRESS":"小北路１２號","OBJECTID":599554},"geometry":{"x":169501.10000000056,"y":2546765.5999999996}},{"attributes":{"ID":599582,"DIS_CODE":0,"TOWNNAME":"永康區","LI":"甲頂里","LIN":"27鄰","STREET":"小北路","SECT":" ","MAREA":" ","LANE":" ","ALLEY":" ","HOUSE_NO":"１６號","E_COORD97":169504.82000000001,"N_COORD97":2546769.8900000001,"ADDRESS":"小北路１６號","OBJECTID":599555},"geometry":{"x":169504.82000000216,"y":2546769.8900000025}},{"attributes":{"ID":599583,"DIS_CODE":0,"TOWNNAME":"永康區","LI":"五王里","LIN":"20鄰","STREET":"成功路","SECT":" ","MAREA":" ","LANE":" ","ALLEY":" ","HOUSE_NO":"１５５號","E_COORD97":171339.22,"N_COORD97":2545750.0800000001,"ADDRESS":"成功路１５５號","OBJECTID":599556},"geometry":{"x":171339.2200000016,"y":2545750.0800000019}},{"attributes":{"ID":599584,"DIS_CODE":0,"TOWNNAME":"安南區","LI":"溪北里","LIN":"23鄰","STREET":"敬安街","SECT":" ","MAREA":" ","LANE":" ","ALLEY":" ","HOUSE_NO":"１３號四樓之４","E_COORD97":169160.48000000001,"N_COORD97":2547570.2599999998,"ADDRESS":"敬安街１３號四樓之４","OBJECTID":599557},"geometry":{"x":169160.48000000138,"y":2547570.2600000016}},{"attributes":{"ID":599585,"DIS_CODE":0,"TOWNNAME":"南區","LI":"大恩里","LIN":"23鄰","STREET":"大同路","SECT":"二段","MAREA":" ","LANE":" ","ALLEY":" ","HOUSE_NO":"７５２號之１一樓","E_COORD97":169557.29000000001,"N_COORD97":2540605.21,"ADDRESS":"大同路二段７５２號之１一樓","OBJECTID":599558},"geometry":{"x":169557.2900000019,"y":2540605.2100000009}},{"attributes":{"ID":599586,"DIS_CODE":0,"TOWNNAME":"安平區","LI":"文平里","LIN":"23鄰","STREET":"健康一街","SECT":" ","MAREA":" ","LANE":" ","ALLEY":" ","HOUSE_NO":"５２號之１","E_COORD97":165947.28,"N_COORD97":2542778.5499999998,"ADDRESS":"健康一街５２號之１","OBJECTID":599559},"geometry":{"x":165947.28000000119,"y":2542778.5500000026}},{"attributes":{"ID":599587,"DIS_CODE":0,"TOWNNAME":"南區","LI":"大恩里","LIN":"23鄰","STREET":"大同路","SECT":"二段","MAREA":" ","LANE":" ","ALLEY":" ","HOUSE_NO":"８２０號","E_COORD97":169683.64000000001,"N_COORD97":2540126.29,"ADDRESS":"大同路二段８２０號","OBJECTID":599560},"geometry":{"x":169683.6400000006,"y":2540126.290000001}},{"attributes":{"ID":599588,"DIS_CODE":0,"TOWNNAME":"南區","LI":"建南里","LIN":"23鄰","STREET":"永成路","SECT":"二段","MAREA":" ","LANE":" ","ALLEY":" ","HOUSE_NO":"８７２號","E_COORD97":167556.26000000001,"N_COORD97":2539781.5,"ADDRESS":"永成路二段８７２號","OBJECTID":599561},"geometry":{"x":167556.25999999978,"y":2539781.5}},{"attributes":{"ID":599589,"DIS_CODE":0,"TOWNNAME":"南區","LI":"建南里","LIN":"23鄰","STREET":"永成路","SECT":"二段","MAREA":" ","LANE":" ","ALLEY":" ","HOUSE_NO":"６００號","E_COORD97":167480.48000000001,"N_COORD97":2539320.9100000001,"ADDRESS":"永成路二段６００號","OBJECTID":599562},"geometry":{"x":167480.48000000138,"y":2539320.9100000001}},{"attributes":{"ID":599590,"DIS_CODE":0,"TOWNNAME":"南區","LI":"建南里","LIN":"23鄰","STREET":"永成路","SECT":"二段","MAREA":" ","LANE":" ","ALLEY":" ","HOUSE_NO":"５９６號","E_COORD97":167519.42999999999,"N_COORD97":2539107.23,"ADDRESS":"永成路二段５９６號","OBJECTID":599563},"geometry":{"x":167519.4299999997,"y":2539107.2300000042}},{"attributes":{"ID":599591,"DIS_CODE":0,"TOWNNAME":"南區","LI":"建南里","LIN":"23鄰","STREET":"永成路","SECT":"二段","MAREA":" ","LANE":" ","ALLEY":" ","HOUSE_NO":"６９３號","E_COORD97":167481.01000000001,"N_COORD97":2539308.5899999999,"ADDRESS":"永成路二段６９３號","OBJECTID":599564},"geometry":{"x":167481.01000000071,"y":2539308.5900000017}},{"attributes":{"ID":599592,"DIS_CODE":0,"TOWNNAME":"南區","LI":"建南里","LIN":"23鄰","STREET":"永成路","SECT":"二段","MAREA":" ","LANE":" ","ALLEY":" ","HOUSE_NO":"６９１號","E_COORD97":167481.01000000001,"N_COORD97":2539303.4500000002,"ADDRESS":"永成路二段６９１號","OBJECTID":599565},"geometry":{"x":167481.01000000071,"y":2539303.4499999993}},{"attributes":{"ID":599593,"DIS_CODE":0,"TOWNNAME":"南區","LI":"建南里","LIN":"23鄰","STREET":"永成路","SECT":"二段","MAREA":" ","LANE":" ","ALLEY":" ","HOUSE_NO":"６８９號","E_COORD97":167480.85000000001,"N_COORD97":2539297.4100000001,"ADDRESS":"永成路二段６８９號","OBJECTID":599566},"geometry":{"x":167480.84999999963,"y":2539297.4100000001}},{"attributes":{"ID":599594,"DIS_CODE":0,"TOWNNAME":"南區","LI":"建南里","LIN":"23鄰","STREET":"永成路","SECT":"二段","MAREA":" ","LANE":" ","ALLEY":" ","HOUSE_NO":"６８７號","E_COORD97":167480.85000000001,"N_COORD97":2539292.02,"ADDRESS":"永成路二段６８７號","OBJECTID":599567},"geometry":{"x":167480.84999999963,"y":2539292.0200000014}},{"attributes":{"ID":599595,"DIS_CODE":0,"TOWNNAME":"南區","LI":"建南里","LIN":"23鄰","STREET":"永成路","SECT":"二段","MAREA":" ","LANE":" ","ALLEY":" ","HOUSE_NO":"６８１號","E_COORD97":167480.22,"N_COORD97":2539267.73,"ADDRESS":"永成路二段６８１號","OBJECTID":599568},"geometry":{"x":167480.21999999974,"y":2539267.7300000023}},{"attributes":{"ID":599596,"DIS_CODE":0,"TOWNNAME":"南區","LI":"建南里","LIN":"23鄰","STREET":"永成路","SECT":"二段","MAREA":" ","LANE":" ","ALLEY":" ","HOUSE_NO":"６７９號","E_COORD97":167480.22,"N_COORD97":2539262.1699999999,"ADDRESS":"永成路二段６７９號","OBJECTID":599569},"geometry":{"x":167480.21999999974,"y":2539262.1699999999}},{"attributes":{"ID":599597,"DIS_CODE":0,"TOWNNAME":"南區","LI":"建南里","LIN":"23鄰","STREET":"永成路","SECT":"二段","MAREA":" ","LANE":" ","ALLEY":" ","HOUSE_NO":"６８３號","E_COORD97":167480.38,"N_COORD97":2539272.8100000001,"ADDRESS":"永成路二段６８３號","OBJECTID":599570},"geometry":{"x":167480.38000000082,"y":2539272.8100000042}},{"attributes":{"ID":599598,"DIS_CODE":0,"TOWNNAME":"南區","LI":"建南里","LIN":"23鄰","STREET":"永成路","SECT":"二段","MAREA":" ","LANE":" ","ALLEY":" ","HOUSE_NO":"５５１號","E_COORD97":167478.95000000001,"N_COORD97":2539125.7200000002,"ADDRESS":"永成路二段５５１號","OBJECTID":599571},"geometry":{"x":167478.95000000112,"y":2539125.7200000025}},{"attributes":{"ID":599599,"DIS_CODE":0,"TOWNNAME":"南區","LI":"建南里","LIN":"23鄰","STREET":"永成路","SECT":"二段","MAREA":" ","LANE":" ","ALLEY":" ","HOUSE_NO":"５２９號","E_COORD97":167479.26000000001,"N_COORD97":2539098.5800000001,"ADDRESS":"永成路二段５２９號","OBJECTID":599572},"geometry":{"x":167479.26000000071,"y":2539098.5800000019}},{"attributes":{"ID":599600,"DIS_CODE":0,"TOWNNAME":"南區","LI":"建南里","LIN":"23鄰","STREET":"永成路","SECT":"二段","MAREA":" ","LANE":" ","ALLEY":" ","HOUSE_NO":"５２５號","E_COORD97":167479.10000000001,"N_COORD97":2539092.8599999999,"ADDRESS":"永成路二段５２５號","OBJECTID":599573},"geometry":{"x":167479.09999999963,"y":2539092.8600000013}},{"attributes":{"ID":599601,"DIS_CODE":0,"TOWNNAME":"南區","LI":"建南里","LIN":"23鄰","STREET":"永成路","SECT":"二段","MAREA":" ","LANE":" ","ALLEY":" ","HOUSE_NO":"５１５號","E_COORD97":167479.26000000001,"N_COORD97":2539081.8300000001,"ADDRESS":"永成路二段５１５號","OBJECTID":599574},"geometry":{"x":167479.26000000071,"y":2539081.8300000001}},{"attributes":{"ID":599602,"DIS_CODE":0,"TOWNNAME":"南區","LI":"建南里","LIN":"23鄰","STREET":"永成路","SECT":"二段","MAREA":" ","LANE":" ","ALLEY":" ","HOUSE_NO":"５１１號","E_COORD97":167479.10000000001,"N_COORD97":2539075,"ADDRESS":"永成路二段５１１號","OBJECTID":599575},"geometry":{"x":167479.09999999963,"y":2539075.0000000019}},{"attributes":{"ID":599603,"DIS_CODE":0,"TOWNNAME":"南區","LI":"建南里","LIN":"23鄰","STREET":"永成路","SECT":"二段","MAREA":" ","LANE":" ","ALLEY":" ","HOUSE_NO":"６２８號","E_COORD97":167519.10999999999,"N_COORD97":2539134.2200000002,"ADDRESS":"永成路二段６２８號","OBJECTID":599576},"geometry":{"x":167519.11000000034,"y":2539134.2200000007}},{"attributes":{"ID":599604,"DIS_CODE":0,"TOWNNAME":"南區","LI":"建南里","LIN":"23鄰","STREET":"永成路","SECT":"二段","MAREA":" ","LANE":" ","ALLEY":" ","HOUSE_NO":"６３２號","E_COORD97":167518.63,"N_COORD97":2539145.8100000001,"ADDRESS":"永成路二段６３２號","OBJECTID":599577},"geometry":{"x":167518.62999999989,"y":2539145.8100000005}},{"attributes":{"ID":599605,"DIS_CODE":0,"TOWNNAME":"南區","LI":"建南里","LIN":"23鄰","STREET":"永成路","SECT":"二段","MAREA":" ","LANE":" ","ALLEY":" ","HOUSE_NO":"６２６號","E_COORD97":167519.26999999999,"N_COORD97":2539128.6600000001,"ADDRESS":"永成路二段６２６號","OBJECTID":599578},"geometry":{"x":167519.26999999862,"y":2539128.660000002}},{"attributes":{"ID":599606,"DIS_CODE":0,"TOWNNAME":"南區","LI":"建南里","LIN":"23鄰","STREET":"永成路","SECT":"二段","MAREA":" ","LANE":" ","ALLEY":" ","HOUSE_NO":"６２２號","E_COORD97":167519.26999999999,"N_COORD97":2539123.4199999999,"ADDRESS":"永成路二段６２２號","OBJECTID":599579},"geometry":{"x":167519.26999999862,"y":2539123.4200000018}},{"attributes":{"ID":599607,"DIS_CODE":0,"TOWNNAME":"南區","LI":"建南里","LIN":"23鄰","STREET":"永成路","SECT":"二段","MAREA":" ","LANE":" ","ALLEY":" ","HOUSE_NO":"５９８號","E_COORD97":167519.26999999999,"N_COORD97":2539112.3100000001,"ADDRESS":"永成路二段５９８號","OBJECTID":599580},"geometry":{"x":167519.26999999862,"y":2539112.3100000005}},{"attributes":{"ID":599608,"DIS_CODE":0,"TOWNNAME":"南區","LI":"建南里","LIN":"23鄰","STREET":"永成路","SECT":"二段","MAREA":" ","LANE":" ","ALLEY":" ","HOUSE_NO":"５８８號","E_COORD97":167519.75,"N_COORD97":2539089.4500000002,"ADDRESS":"永成路二段５８８號","OBJECTID":599581},"geometry":{"x":167519.75,"y":2539089.4499999993}},{"attributes":{"ID":599609,"DIS_CODE":0,"TOWNNAME":"南區","LI":"建南里","LIN":"23鄰","STREET":"永成路","SECT":"二段","MAREA":" ","LANE":" ","ALLEY":" ","HOUSE_NO":"５８６號","E_COORD97":167519.59,"N_COORD97":2539084.0499999998,"ADDRESS":"永成路二段５８６號","OBJECTID":599582},"geometry":{"x":167519.59000000078,"y":2539084.0500000007}},{"attributes":{"ID":599610,"DIS_CODE":0,"TOWNNAME":"南區","LI":"建南里","LIN":"23鄰","STREET":"永成路","SECT":"二段","MAREA":" ","LANE":" ","ALLEY":" ","HOUSE_NO":"５８２號","E_COORD97":167519.10999999999,"N_COORD97":2539078.4199999999,"ADDRESS":"永成路二段５８２號","OBJECTID":599583},"geometry":{"x":167519.11000000034,"y":2539078.4200000037}},{"attributes":{"ID":599611,"DIS_CODE":0,"TOWNNAME":"南區","LI":"建南里","LIN":"23鄰","STREET":"永成路","SECT":"二段","MAREA":" ","LANE":" ","ALLEY":" ","HOUSE_NO":"５７８號","E_COORD97":167518.48000000001,"N_COORD97":2539071.75,"ADDRESS":"永成路二段５７８號","OBJECTID":599584},"geometry":{"x":167518.48000000045,"y":2539071.75}},{"attributes":{"ID":599612,"DIS_CODE":0,"TOWNNAME":"南區","LI":"建南里","LIN":"23鄰","STREET":"永成路","SECT":"二段","MAREA":" ","LANE":" ","ALLEY":" ","HOUSE_NO":"５７０號","E_COORD97":167519.26999999999,"N_COORD97":2539056.0299999998,"ADDRESS":"永成路二段５７０號","OBJECTID":599585},"geometry":{"x":167519.26999999862,"y":2539056.0299999993}},{"attributes":{"ID":599613,"DIS_CODE":0,"TOWNNAME":"南區","LI":"建南里","LIN":"23鄰","STREET":"永成路","SECT":"二段","MAREA":" ","LANE":" ","ALLEY":" ","HOUSE_NO":"７８１號","E_COORD97":167482.76000000001,"N_COORD97":2539986,"ADDRESS":"永成路二段７８１號","OBJECTID":599586},"geometry":{"x":167482.76000000071,"y":2539986}},{"attributes":{"ID":599614,"DIS_CODE":0,"TOWNNAME":"南區","LI":"建南里","LIN":"23鄰","STREET":"永成路","SECT":"二段","MAREA":" ","LANE":" ","ALLEY":" ","HOUSE_NO":"９６０號","E_COORD97":167493.87,"N_COORD97":2539989.8100000001,"ADDRESS":"永成路二段９６０號","OBJECTID":599587},"geometry":{"x":167493.87000000197,"y":2539989.8100000024}},{"attributes":{"ID":599615,"DIS_CODE":0,"TOWNNAME":"安南區","LI":"溪頂里","LIN":"23鄰","STREET":"泰安街","SECT":" ","MAREA":" ","LANE":" ","ALLEY":" ","HOUSE_NO":"５７號","E_COORD97":168764.09,"N_COORD97":2547627.48,"ADDRESS":"泰安街５７號","OBJECTID":599588},"geometry":{"x":168764.09000000078,"y":2547627.4800000004}},{"attributes":{"ID":599616,"DIS_CODE":0,"TOWNNAME":"安南區","LI":"溪北里","LIN":"23鄰","STREET":"敬安街","SECT":" ","MAREA":" ","LANE":" ","ALLEY":" ","HOUSE_NO":"９號","E_COORD97":169152.53,"N_COORD97":2547569.1299999999,"ADDRESS":"敬安街９號","OBJECTID":599589},"geometry":{"x":169152.53000000212,"y":2547569.1300000008}},{"attributes":{"ID":599617,"DIS_CODE":0,"TOWNNAME":"南區","LI":"文華里","LIN":"23鄰","STREET":"美南街","SECT":" ","MAREA":" ","LANE":" ","ALLEY":" ","HOUSE_NO":"１１１號四樓之４","E_COORD97":166765.92999999999,"N_COORD97":2542929.8500000001,"ADDRESS":"美南街１１１號四樓之４","OBJECTID":599590},"geometry":{"x":166765.93000000063,"y":2542929.8500000034}},{"attributes":{"ID":599618,"DIS_CODE":0,"TOWNNAME":"東區","LI":"新東里","LIN":"23鄰","STREET":"裕豐街","SECT":" ","MAREA":" ","LANE":" ","ALLEY":" ","HOUSE_NO":"１０１號六樓","E_COORD97":170742.34,"N_COORD97":2542985.7599999998,"ADDRESS":"裕豐街１０１號六樓","OBJECTID":599591},"geometry":{"x":170742.34000000078,"y":2542985.7600000016}},{"attributes":{"ID":599619,"DIS_CODE":0,"TOWNNAME":"麻豆區","LI":"新建里","LIN":"10鄰","STREET":"麻學路","SECT":"一段","MAREA":" ","LANE":" ","ALLEY":" ","HOUSE_NO":"５號二樓","E_COORD97":172246.32999999999,"N_COORD97":2565016.3900000001,"ADDRESS":"麻學路一段５號二樓","OBJECTID":599592},"geometry":{"x":172246.33000000101,"y":2565016.3900000025}},{"attributes":{"ID":599620,"DIS_CODE":0,"TOWNNAME":"麻豆區","LI":"新建里","LIN":"10鄰","STREET":"麻學路","SECT":"一段","MAREA":" ","LANE":" ","ALLEY":" ","HOUSE_NO":"５號三樓","E_COORD97":172246.32999999999,"N_COORD97":2565016.3900000001,"ADDRESS":"麻學路一段５號三樓","OBJECTID":599593},"geometry":{"x":172246.33000000101,"y":2565016.3900000025}},{"attributes":{"ID":599621,"DIS_CODE":0,"TOWNNAME":"東區","LI":"大智里","LIN":"25鄰","STREET":"文東街","SECT":" ","MAREA":" ","LANE":" ","ALLEY":" ","HOUSE_NO":"７２號","E_COORD97":171413.26999999999,"N_COORD97":2540193.1699999999,"ADDRESS":"文東街７２號","OBJECTID":599594},"geometry":{"x":171413.27000000142,"y":2540193.1700000018}},{"attributes":{"ID":599622,"DIS_CODE":0,"TOWNNAME":"永康區","LI":"東橋里","LIN":"14鄰","STREET":"東橋三路","SECT":" ","MAREA":" ","LANE":" ","ALLEY":" ","HOUSE_NO":"１１號","E_COORD97":171650.5,"N_COORD97":2546505.2400000002,"ADDRESS":"東橋三路１１號","OBJECTID":599595},"geometry":{"x":171650.5,"y":2546505.2400000021}},{"attributes":{"ID":599623,"DIS_CODE":0,"TOWNNAME":"永康區","LI":"東橋里","LIN":"14鄰","STREET":"東橋三路","SECT":" ","MAREA":" ","LANE":" ","ALLEY":" ","HOUSE_NO":"１３號","E_COORD97":171647.64999999999,"N_COORD97":2546510.3799999999,"ADDRESS":"東橋三路１３號","OBJECTID":599596},"geometry":{"x":171647.6500000013,"y":2546510.3800000008}},{"attributes":{"ID":599624,"DIS_CODE":0,"TOWNNAME":"東區","LI":"大智里","LIN":"25鄰","STREET":"文東街","SECT":" ","MAREA":" ","LANE":" ","ALLEY":" ","HOUSE_NO":"７３號","E_COORD97":171352.64999999999,"N_COORD97":2540214.48,"ADDRESS":"文東街７３號","OBJECTID":599597},"geometry":{"x":171352.6500000013,"y":2540214.4800000023}},{"attributes":{"ID":599625,"DIS_CODE":0,"TOWNNAME":"東區","LI":"大智里","LIN":"25鄰","STREET":"文東街","SECT":" ","MAREA":" ","LANE":" ","ALLEY":" ","HOUSE_NO":"９５號","E_COORD97":171413.60999999999,"N_COORD97":2540217.9300000002,"ADDRESS":"文東街９５號","OBJECTID":599598},"geometry":{"x":171413.61000000127,"y":2540217.9300000016}},{"attributes":{"ID":599626,"DIS_CODE":0,"TOWNNAME":"下營區","LI":"營前里","LIN":"10鄰","STREET":"中正南路","SECT":" ","MAREA":" ","LANE":" ","ALLEY":" ","HOUSE_NO":"１７７號","E_COORD97":174702.17999999999,"N_COORD97":2570076.1499999999,"ADDRESS":"中正南路１７７號","OBJECTID":599599},"geometry":{"x":174702.1799999997,"y":2570076.1500000022}},{"attributes":{"ID":599627,"DIS_CODE":0,"TOWNNAME":"中西區","LI":"藥王里","LIN":"21鄰","STREET":"西和路","SECT":" ","MAREA":" ","LANE":" ","ALLEY":" ","HOUSE_NO":"１１６號","E_COORD97":166919.57000000001,"N_COORD97":2544598.3399999999,"ADDRESS":"西和路１１６號","OBJECTID":599600},"geometry":{"x":166919.5700000003,"y":2544598.3400000036}}]}