{"displayFieldName":"TOWNNAME","fieldAliases":{"ID":"ID","DIS_CODE":"DIS_CODE","TOWNNAME":"TOWNNAME","LI":"LI","LIN":"LIN","STREET":"STREET","SECT":"SECT","MAREA":"MAREA","LANE":"LANE","ALLEY":"ALLEY","HOUSE_NO":"HOUSE_NO","E_COORD97":"E_COORD97","N_COORD97":"N_COORD97","ADDRESS":"ADDRESS","OBJECTID":"OBJECTID"},"geometryType":"esriGeometryPoint","spatialReference":{"wkid":102443,"latestWkid":3826},"fields":[{"name":"ID","type":"esriFieldTypeDouble","alias":"ID"},{"name":"DIS_CODE","type":"esriFieldTypeInteger","alias":"DIS_CODE"},{"name":"TOWNNAME","type":"esriFieldTypeString","alias":"TOWNNAME","length":8},{"name":"LI","type":"esriFieldTypeString","alias":"LI","length":8},{"name":"LIN","type":"esriFieldTypeString","alias":"LIN","length":12},{"name":"STREET","type":"esriFieldTypeString","alias":"STREET","length":20},{"name":"SECT","type":"esriFieldTypeString","alias":"SECT","length":8},{"name":"MAREA","type":"esriFieldTypeString","alias":"MAREA","length":12},{"name":"LANE","type":"esriFieldTypeString","alias":"LANE","length":10},{"name":"ALLEY","type":"esriFieldTypeString","alias":"ALLEY","length":10},{"name":"HOUSE_NO","type":"esriFieldTypeString","alias":"HOUSE_NO","length":20},{"name":"E_COORD97","type":"esriFieldTypeDouble","alias":"E_COORD97"},{"name":"N_COORD97","type":"esriFieldTypeDouble","alias":"N_COORD97"},{"name":"ADDRESS","type":"esriFieldTypeString","alias":"ADDRESS","length":50},{"name":"OBJECTID","type":"esriFieldTypeOID","alias":"OBJECTID"}],"features":[{"attributes":{"ID":119601,"DIS_CODE":0,"TOWNNAME":"安平區","LI":"平安里","LIN":"16鄰","STREET":"安平路","SECT":" ","MAREA":" ","LANE":"５５０巷","ALLEY":"４５弄","HOUSE_NO":"２４號之１","E_COORD97":164975.98000000001,"N_COORD97":2544544.0899999999,"ADDRESS":"安平路５５０巷４５弄２４號之１","OBJECTID":119601},"geometry":{"x":164975.97999999952,"y":2544544.0899999999}},{"attributes":{"ID":119602,"DIS_CODE":0,"TOWNNAME":"安平區","LI":"平安里","LIN":"16鄰","STREET":"安平路","SECT":" ","MAREA":" ","LANE":"５５０巷","ALLEY":"４５弄","HOUSE_NO":"２６號","E_COORD97":164973.10000000001,"N_COORD97":2544546.1899999999,"ADDRESS":"安平路５５０巷４５弄２６號","OBJECTID":119602},"geometry":{"x":164973.10000000056,"y":2544546.1900000013}},{"attributes":{"ID":119603,"DIS_CODE":0,"TOWNNAME":"安平區","LI":"平安里","LIN":"16鄰","STREET":"安平路","SECT":" ","MAREA":" ","LANE":"５５０巷","ALLEY":"４５弄","HOUSE_NO":"２８號","E_COORD97":164969.04999999999,"N_COORD97":2544547.0899999999,"ADDRESS":"安平路５５０巷４５弄２８號","OBJECTID":119603},"geometry":{"x":164969.04999999981,"y":2544547.0900000017}},{"attributes":{"ID":119604,"DIS_CODE":0,"TOWNNAME":"安平區","LI":"平安里","LIN":"16鄰","STREET":"安平路","SECT":" ","MAREA":" ","LANE":"５５０巷","ALLEY":"４５弄","HOUSE_NO":"２號","E_COORD97":165014.06,"N_COORD97":2544531.3500000001,"ADDRESS":"安平路５５０巷４５弄２號","OBJECTID":119604},"geometry":{"x":165014.06000000052,"y":2544531.3500000015}},{"attributes":{"ID":119605,"DIS_CODE":0,"TOWNNAME":"安平區","LI":"平安里","LIN":"16鄰","STREET":"安平路","SECT":" ","MAREA":" ","LANE":"５５０巷","ALLEY":"４５弄","HOUSE_NO":"３４號","E_COORD97":164958.70000000001,"N_COORD97":2544550.23,"ADDRESS":"安平路５５０巷４５弄３４號","OBJECTID":119605},"geometry":{"x":164958.70000000019,"y":2544550.2300000023}},{"attributes":{"ID":119606,"DIS_CODE":0,"TOWNNAME":"安平區","LI":"平安里","LIN":"16鄰","STREET":"安平路","SECT":" ","MAREA":" ","LANE":"５５０巷","ALLEY":"４５弄","HOUSE_NO":"３６號","E_COORD97":164953.89999999999,"N_COORD97":2544551.73,"ADDRESS":"安平路５５０巷４５弄３６號","OBJECTID":119606},"geometry":{"x":164953.90000000037,"y":2544551.7300000004}},{"attributes":{"ID":119607,"DIS_CODE":0,"TOWNNAME":"安平區","LI":"平安里","LIN":"16鄰","STREET":"安平路","SECT":" ","MAREA":" ","LANE":"５５０巷","ALLEY":"４５弄","HOUSE_NO":"３８號","E_COORD97":164949.97,"N_COORD97":2544551.5899999999,"ADDRESS":"安平路５５０巷４５弄３８號","OBJECTID":119607},"geometry":{"x":164949.9700000016,"y":2544551.5899999999}},{"attributes":{"ID":119608,"DIS_CODE":0,"TOWNNAME":"安平區","LI":"平安里","LIN":"16鄰","STREET":"安平路","SECT":" ","MAREA":" ","LANE":"５５０巷","ALLEY":"４５弄","HOUSE_NO":"４０號","E_COORD97":164946.45000000001,"N_COORD97":2544553.4199999999,"ADDRESS":"安平路５５０巷４５弄４０號","OBJECTID":119608},"geometry":{"x":164946.45000000019,"y":2544553.4199999981}},{"attributes":{"ID":119609,"DIS_CODE":0,"TOWNNAME":"安平區","LI":"平安里","LIN":"16鄰","STREET":"安平路","SECT":" ","MAREA":" ","LANE":"５５０巷","ALLEY":"４５弄","HOUSE_NO":"４２號","E_COORD97":164941.70999999999,"N_COORD97":2544554.1899999999,"ADDRESS":"安平路５５０巷４５弄４２號","OBJECTID":119609},"geometry":{"x":164941.70999999903,"y":2544554.1899999995}},{"attributes":{"ID":119610,"DIS_CODE":0,"TOWNNAME":"安平區","LI":"平安里","LIN":"16鄰","STREET":"安平路","SECT":" ","MAREA":" ","LANE":"５５０巷","ALLEY":"４５弄","HOUSE_NO":"４４號","E_COORD97":164938.45000000001,"N_COORD97":2544555.9300000002,"ADDRESS":"安平路５５０巷４５弄４４號","OBJECTID":119610},"geometry":{"x":164938.45000000019,"y":2544555.9299999997}},{"attributes":{"ID":119611,"DIS_CODE":0,"TOWNNAME":"安平區","LI":"平安里","LIN":"16鄰","STREET":"安平路","SECT":" ","MAREA":" ","LANE":"５５０巷","ALLEY":"４５弄","HOUSE_NO":"４６號","E_COORD97":164933.19,"N_COORD97":2544557.2799999998,"ADDRESS":"安平路５５０巷４５弄４６號","OBJECTID":119611},"geometry":{"x":164933.19000000041,"y":2544557.2800000031}},{"attributes":{"ID":119612,"DIS_CODE":0,"TOWNNAME":"安平區","LI":"平安里","LIN":"16鄰","STREET":"安平路","SECT":" ","MAREA":" ","LANE":"５５０巷","ALLEY":"４５弄","HOUSE_NO":"４８號","E_COORD97":164928.69,"N_COORD97":2544559.8300000001,"ADDRESS":"安平路５５０巷４５弄４８號","OBJECTID":119612},"geometry":{"x":164928.69000000041,"y":2544559.8300000001}},{"attributes":{"ID":119613,"DIS_CODE":0,"TOWNNAME":"安平區","LI":"平安里","LIN":"16鄰","STREET":"安平路","SECT":" ","MAREA":" ","LANE":"５５０巷","ALLEY":"４５弄","HOUSE_NO":"４號","E_COORD97":165010.16,"N_COORD97":2544532.0899999999,"ADDRESS":"安平路５５０巷４５弄４號","OBJECTID":119613},"geometry":{"x":165010.16000000201,"y":2544532.0900000036}},{"attributes":{"ID":119614,"DIS_CODE":0,"TOWNNAME":"安平區","LI":"平安里","LIN":"16鄰","STREET":"安平路","SECT":" ","MAREA":" ","LANE":"５５０巷","ALLEY":"４５弄","HOUSE_NO":"５０號","E_COORD97":164924.19,"N_COORD97":2544560.2799999998,"ADDRESS":"安平路５５０巷４５弄５０號","OBJECTID":119614},"geometry":{"x":164924.19000000134,"y":2544560.2799999993}},{"attributes":{"ID":119615,"DIS_CODE":0,"TOWNNAME":"安平區","LI":"平安里","LIN":"16鄰","STREET":"安平路","SECT":" ","MAREA":" ","LANE":"５５０巷","ALLEY":"４５弄","HOUSE_NO":"６號","E_COORD97":165007,"N_COORD97":2544532.9900000002,"ADDRESS":"安平路５５０巷４５弄６號","OBJECTID":119615},"geometry":{"x":165007,"y":2544532.9900000039}},{"attributes":{"ID":119616,"DIS_CODE":0,"TOWNNAME":"安平區","LI":"平安里","LIN":"16鄰","STREET":"安平路","SECT":" ","MAREA":" ","LANE":"５５０巷","ALLEY":"４５弄","HOUSE_NO":"８之１號","E_COORD97":165012.85999999999,"N_COORD97":2544550.5299999998,"ADDRESS":"安平路５５０巷４５弄８之１號","OBJECTID":119616},"geometry":{"x":165012.86000000127,"y":2544550.5300000012}},{"attributes":{"ID":119617,"DIS_CODE":0,"TOWNNAME":"安平區","LI":"平安里","LIN":"16鄰","STREET":"安平路","SECT":" ","MAREA":" ","LANE":"５５０巷","ALLEY":"４５弄","HOUSE_NO":"８號","E_COORD97":165003.54999999999,"N_COORD97":2544534.3399999999,"ADDRESS":"安平路５５０巷４５弄８號","OBJECTID":119617},"geometry":{"x":165003.54999999981,"y":2544534.3400000017}},{"attributes":{"ID":119618,"DIS_CODE":0,"TOWNNAME":"安平區","LI":"平安里","LIN":"16鄰","STREET":"安平路","SECT":" ","MAREA":" ","LANE":"５５０巷","ALLEY":"４５弄","HOUSE_NO":"８號之２","E_COORD97":165001.60000000001,"N_COORD97":2544555.1800000002,"ADDRESS":"安平路５５０巷４５弄８號之２","OBJECTID":119618},"geometry":{"x":165001.60000000149,"y":2544555.1800000034}},{"attributes":{"ID":119619,"DIS_CODE":0,"TOWNNAME":"歸仁區","LI":"南興里","LIN":"16鄰","STREET":"南興一街","SECT":" ","MAREA":" ","LANE":"４８巷","ALLEY":"１弄","HOUSE_NO":"３號","E_COORD97":175763.59,"N_COORD97":2541306.25,"ADDRESS":"南興一街４８巷１弄３號","OBJECTID":119619},"geometry":{"x":175763.59000000078,"y":2541306.25}},{"attributes":{"ID":119620,"DIS_CODE":0,"TOWNNAME":"歸仁區","LI":"媽廟里","LIN":"16鄰","STREET":"媽廟二街","SECT":" ","MAREA":" ","LANE":"３１巷","ALLEY":"４２弄","HOUSE_NO":"１０號","E_COORD97":177744.92999999999,"N_COORD97":2543824.7200000002,"ADDRESS":"媽廟二街３１巷４２弄１０號","OBJECTID":119620},"geometry":{"x":177744.9299999997,"y":2543824.7200000025}},{"attributes":{"ID":119621,"DIS_CODE":0,"TOWNNAME":"東區","LI":"大智里","LIN":"20鄰","STREET":"生產路","SECT":" ","MAREA":" ","LANE":" ","ALLEY":" ","HOUSE_NO":"６６０號","E_COORD97":171283.5,"N_COORD97":2540747.23,"ADDRESS":"生產路６６０號","OBJECTID":119621},"geometry":{"x":171283.50000000093,"y":2540747.2300000004}},{"attributes":{"ID":119622,"DIS_CODE":0,"TOWNNAME":"西港區","LI":"慶安里","LIN":"4鄰","STREET":" ","SECT":" ","MAREA":"中州","LANE":" ","ALLEY":" ","HOUSE_NO":"３１之１８號","E_COORD97":167289.47,"N_COORD97":2558097.4399999999,"ADDRESS":"中州３１之１８號","OBJECTID":119622},"geometry":{"x":167289.4700000016,"y":2558097.4400000032}},{"attributes":{"ID":119623,"DIS_CODE":0,"TOWNNAME":"西港區","LI":"慶安里","LIN":"4鄰","STREET":" ","SECT":" ","MAREA":"中州","LANE":" ","ALLEY":" ","HOUSE_NO":"３１之１９號","E_COORD97":167284.85999999999,"N_COORD97":2558097.1800000002,"ADDRESS":"中州３１之１９號","OBJECTID":119623},"geometry":{"x":167284.86000000034,"y":2558097.1800000016}},{"attributes":{"ID":119624,"DIS_CODE":0,"TOWNNAME":"歸仁區","LI":"武東里","LIN":"16鄰","STREET":"光明街","SECT":" ","MAREA":" ","LANE":"８６巷","ALLEY":"３４０弄","HOUSE_NO":"１０６號","E_COORD97":175229.17000000001,"N_COORD97":2536907.25,"ADDRESS":"光明街８６巷３４０弄１０６號","OBJECTID":119624},"geometry":{"x":175229.17000000086,"y":2536907.2500000019}},{"attributes":{"ID":119625,"DIS_CODE":0,"TOWNNAME":"西港區","LI":"慶安里","LIN":"4鄰","STREET":" ","SECT":" ","MAREA":"中州","LANE":" ","ALLEY":" ","HOUSE_NO":"３１之５號","E_COORD97":167266.45999999999,"N_COORD97":2558126.4300000002,"ADDRESS":"中州３１之５號","OBJECTID":119625},"geometry":{"x":167266.46000000089,"y":2558126.4300000016}},{"attributes":{"ID":119626,"DIS_CODE":0,"TOWNNAME":"西港區","LI":"慶安里","LIN":"4鄰","STREET":" ","SECT":" ","MAREA":"中州","LANE":" ","ALLEY":" ","HOUSE_NO":"３１之６號","E_COORD97":167261.70999999999,"N_COORD97":2558126.27,"ADDRESS":"中州３１之６號","OBJECTID":119626},"geometry":{"x":167261.70999999996,"y":2558126.2700000014}},{"attributes":{"ID":119627,"DIS_CODE":0,"TOWNNAME":"西港區","LI":"慶安里","LIN":"4鄰","STREET":" ","SECT":" ","MAREA":"中州","LANE":" ","ALLEY":" ","HOUSE_NO":"３１之７號","E_COORD97":167257.63,"N_COORD97":2558125.6400000001,"ADDRESS":"中州３１之７號","OBJECTID":119627},"geometry":{"x":167257.62999999989,"y":2558125.6400000025}},{"attributes":{"ID":119628,"DIS_CODE":0,"TOWNNAME":"西港區","LI":"慶安里","LIN":"4鄰","STREET":" ","SECT":" ","MAREA":"中州","LANE":" ","ALLEY":" ","HOUSE_NO":"３１之８號","E_COORD97":167253.47,"N_COORD97":2558125.0499999998,"ADDRESS":"中州３１之８號","OBJECTID":119628},"geometry":{"x":167253.46999999974,"y":2558125.0499999989}},{"attributes":{"ID":119629,"DIS_CODE":0,"TOWNNAME":"西港區","LI":"慶安里","LIN":"4鄰","STREET":" ","SECT":" ","MAREA":"中州","LANE":" ","ALLEY":" ","HOUSE_NO":"３１之９號","E_COORD97":167249.04000000001,"N_COORD97":2558124.7999999998,"ADDRESS":"中州３１之９號","OBJECTID":119629},"geometry":{"x":167249.04000000097,"y":2558124.8000000026}},{"attributes":{"ID":119630,"DIS_CODE":0,"TOWNNAME":"西港區","LI":"慶安里","LIN":"4鄰","STREET":" ","SECT":" ","MAREA":"中州","LANE":" ","ALLEY":" ","HOUSE_NO":"３２號之１","E_COORD97":167265.70000000001,"N_COORD97":2558170.29,"ADDRESS":"中州３２號之１","OBJECTID":119630},"geometry":{"x":167265.70000000019,"y":2558170.290000001}},{"attributes":{"ID":119631,"DIS_CODE":0,"TOWNNAME":"西港區","LI":"慶安里","LIN":"4鄰","STREET":" ","SECT":" ","MAREA":"中州","LANE":" ","ALLEY":" ","HOUSE_NO":"３２號","E_COORD97":167289.89999999999,"N_COORD97":2558168.1099999999,"ADDRESS":"中州３２號","OBJECTID":119631},"geometry":{"x":167289.90000000037,"y":2558168.1100000013}},{"attributes":{"ID":119632,"DIS_CODE":0,"TOWNNAME":"西港區","LI":"慶安里","LIN":"4鄰","STREET":" ","SECT":" ","MAREA":"中州","LANE":" ","ALLEY":" ","HOUSE_NO":"３３號之１","E_COORD97":167235.94,"N_COORD97":2558149.6699999999,"ADDRESS":"中州３３號之１","OBJECTID":119632},"geometry":{"x":167235.93999999948,"y":2558149.6699999999}},{"attributes":{"ID":119633,"DIS_CODE":0,"TOWNNAME":"西港區","LI":"慶安里","LIN":"4鄰","STREET":" ","SECT":" ","MAREA":"中州","LANE":" ","ALLEY":" ","HOUSE_NO":"３３號之２","E_COORD97":167230.69,"N_COORD97":2558169.9399999999,"ADDRESS":"中州３３號之２","OBJECTID":119633},"geometry":{"x":167230.69000000041,"y":2558169.9400000013}},{"attributes":{"ID":119634,"DIS_CODE":0,"TOWNNAME":"西港區","LI":"慶安里","LIN":"4鄰","STREET":" ","SECT":" ","MAREA":"中州","LANE":" ","ALLEY":" ","HOUSE_NO":"３３號","E_COORD97":167247.37,"N_COORD97":2558176.6800000002,"ADDRESS":"中州３３號","OBJECTID":119634},"geometry":{"x":167247.37000000011,"y":2558176.6799999997}},{"attributes":{"ID":119635,"DIS_CODE":0,"TOWNNAME":"西港區","LI":"慶安里","LIN":"4鄰","STREET":" ","SECT":" ","MAREA":"中州","LANE":" ","ALLEY":" ","HOUSE_NO":"３５號","E_COORD97":167193.39000000001,"N_COORD97":2558184.4100000001,"ADDRESS":"中州３５號","OBJECTID":119635},"geometry":{"x":167193.3900000006,"y":2558184.410000002}},{"attributes":{"ID":119636,"DIS_CODE":0,"TOWNNAME":"歸仁區","LI":"看東里","LIN":"16鄰","STREET":"中山路","SECT":"一段","MAREA":" ","LANE":"１巷","ALLEY":"４６弄","HOUSE_NO":"１２號","E_COORD97":179517.67999999999,"N_COORD97":2540217.5699999998,"ADDRESS":"中山路一段１巷４６弄１２號","OBJECTID":119636},"geometry":{"x":179517.68000000063,"y":2540217.5700000022}},{"attributes":{"ID":119637,"DIS_CODE":0,"TOWNNAME":"西港區","LI":"慶安里","LIN":"4鄰","STREET":" ","SECT":" ","MAREA":"中州","LANE":" ","ALLEY":" ","HOUSE_NO":"３６號","E_COORD97":167243.95999999999,"N_COORD97":2558193.98,"ADDRESS":"中州３６號","OBJECTID":119637},"geometry":{"x":167243.96000000183,"y":2558193.9800000023}},{"attributes":{"ID":119638,"DIS_CODE":0,"TOWNNAME":"西港區","LI":"南海里","LIN":"4鄰","STREET":" ","SECT":" ","MAREA":"南海埔","LANE":" ","ALLEY":" ","HOUSE_NO":"３０號之５","E_COORD97":167668.01000000001,"N_COORD97":2557560.27,"ADDRESS":"南海埔３０號之５","OBJECTID":119638},"geometry":{"x":167668.00999999978,"y":2557560.2700000014}},{"attributes":{"ID":119639,"DIS_CODE":0,"TOWNNAME":"歸仁區","LI":"看東里","LIN":"16鄰","STREET":"中山路","SECT":"一段","MAREA":" ","LANE":"１巷","ALLEY":"３８弄","HOUSE_NO":"１６號","E_COORD97":179522.88,"N_COORD97":2540245.5699999998,"ADDRESS":"中山路一段１巷３８弄１６號","OBJECTID":119639},"geometry":{"x":179522.88000000082,"y":2540245.5700000003}},{"attributes":{"ID":119640,"DIS_CODE":0,"TOWNNAME":"西港區","LI":"南海里","LIN":"4鄰","STREET":" ","SECT":" ","MAREA":"南海埔","LANE":" ","ALLEY":" ","HOUSE_NO":"３０號之６","E_COORD97":167672,"N_COORD97":2557560.6000000001,"ADDRESS":"南海埔３０號之６","OBJECTID":119640},"geometry":{"x":167672,"y":2557560.5999999996}},{"attributes":{"ID":119641,"DIS_CODE":0,"TOWNNAME":"西港區","LI":"南海里","LIN":"4鄰","STREET":" ","SECT":" ","MAREA":"南海埔","LANE":" ","ALLEY":" ","HOUSE_NO":"３０號之７","E_COORD97":167676.35999999999,"N_COORD97":2557561.4500000002,"ADDRESS":"南海埔３０號之７","OBJECTID":119641},"geometry":{"x":167676.36000000127,"y":2557561.450000003}},{"attributes":{"ID":119642,"DIS_CODE":0,"TOWNNAME":"西港區","LI":"南海里","LIN":"4鄰","STREET":" ","SECT":" ","MAREA":"南海埔","LANE":" ","ALLEY":" ","HOUSE_NO":"３０號之８","E_COORD97":167680.34,"N_COORD97":2557561.9700000002,"ADDRESS":"南海埔３０號之８","OBJECTID":119642},"geometry":{"x":167680.34000000171,"y":2557561.9700000007}},{"attributes":{"ID":119643,"DIS_CODE":0,"TOWNNAME":"西港區","LI":"南海里","LIN":"4鄰","STREET":" ","SECT":" ","MAREA":"南海埔","LANE":" ","ALLEY":" ","HOUSE_NO":"３０號之９","E_COORD97":167684.42000000001,"N_COORD97":2557562.3900000001,"ADDRESS":"南海埔３０號之９","OBJECTID":119643},"geometry":{"x":167684.41999999993,"y":2557562.3900000006}},{"attributes":{"ID":119644,"DIS_CODE":0,"TOWNNAME":"西港區","LI":"南海里","LIN":"4鄰","STREET":" ","SECT":" ","MAREA":"南海埔","LANE":" ","ALLEY":" ","HOUSE_NO":"３１號","E_COORD97":167690.44,"N_COORD97":2557546.9399999999,"ADDRESS":"南海埔３１號","OBJECTID":119644},"geometry":{"x":167690.44000000227,"y":2557546.9399999995}},{"attributes":{"ID":119645,"DIS_CODE":0,"TOWNNAME":"歸仁區","LI":"武東里","LIN":"16鄰","STREET":"光明街","SECT":" ","MAREA":" ","LANE":"８６巷","ALLEY":"３４０弄","HOUSE_NO":"１００號","E_COORD97":175208.19,"N_COORD97":2536907.25,"ADDRESS":"光明街８６巷３４０弄１００號","OBJECTID":119645},"geometry":{"x":175208.19000000041,"y":2536907.2500000019}},{"attributes":{"ID":119646,"DIS_CODE":0,"TOWNNAME":"歸仁區","LI":"南興里","LIN":"16鄰","STREET":"南興一街","SECT":" ","MAREA":" ","LANE":"４８巷","ALLEY":"１弄","HOUSE_NO":"１號","E_COORD97":175757.48999999999,"N_COORD97":2541308.25,"ADDRESS":"南興一街４８巷１弄１號","OBJECTID":119646},"geometry":{"x":175757.49000000115,"y":2541308.2500000019}},{"attributes":{"ID":119647,"DIS_CODE":0,"TOWNNAME":"新營區","LI":"忠政里","LIN":"16鄰","STREET":"府西路","SECT":" ","MAREA":" ","LANE":"２５７巷","ALLEY":"４０弄","HOUSE_NO":"８號","E_COORD97":179715.72,"N_COORD97":2579731.3399999999,"ADDRESS":"府西路２５７巷４０弄８號","OBJECTID":119647},"geometry":{"x":179715.72000000067,"y":2579731.3399999999}},{"attributes":{"ID":119648,"DIS_CODE":0,"TOWNNAME":"新營區","LI":"忠政里","LIN":"16鄰","STREET":"府西路","SECT":" ","MAREA":" ","LANE":"２５７巷","ALLEY":"３１弄","HOUSE_NO":"９號","E_COORD97":179703.89999999999,"N_COORD97":2579633.9399999999,"ADDRESS":"府西路２５７巷３１弄９號","OBJECTID":119648},"geometry":{"x":179703.90000000037,"y":2579633.9400000013}},{"attributes":{"ID":119649,"DIS_CODE":0,"TOWNNAME":"新營區","LI":"忠政里","LIN":"16鄰","STREET":"府西路","SECT":" ","MAREA":" ","LANE":"２５７巷","ALLEY":"３１弄","HOUSE_NO":"１號","E_COORD97":179702.98000000001,"N_COORD97":2579649.4500000002,"ADDRESS":"府西路２５７巷３１弄１號","OBJECTID":119649},"geometry":{"x":179702.98000000138,"y":2579649.4499999993}},{"attributes":{"ID":119650,"DIS_CODE":0,"TOWNNAME":"新營區","LI":"忠政里","LIN":"16鄰","STREET":"府西路","SECT":" ","MAREA":" ","LANE":"２５７巷","ALLEY":"３１弄","HOUSE_NO":"１１號","E_COORD97":179705.16,"N_COORD97":2579629.5099999998,"ADDRESS":"府西路２５７巷３１弄１１號","OBJECTID":119650},"geometry":{"x":179705.16000000015,"y":2579629.5099999979}},{"attributes":{"ID":119651,"DIS_CODE":0,"TOWNNAME":"仁德區","LI":"太子里","LIN":"35鄰","STREET":"太子路","SECT":" ","MAREA":" ","LANE":"４５９巷","ALLEY":" ","HOUSE_NO":"１號","E_COORD97":174230.92999999999,"N_COORD97":2543477.5,"ADDRESS":"太子路４５９巷１號","OBJECTID":119651},"geometry":{"x":174230.9299999997,"y":2543477.5}},{"attributes":{"ID":119652,"DIS_CODE":0,"TOWNNAME":"學甲區","LI":"慈福里","LIN":"24鄰","STREET":"綿和路","SECT":" ","MAREA":" ","LANE":" ","ALLEY":" ","HOUSE_NO":"４６號","E_COORD97":166286.01000000001,"N_COORD97":2570378.9100000001,"ADDRESS":"綿和路４６號","OBJECTID":119652},"geometry":{"x":166286.01000000071,"y":2570378.910000002}},{"attributes":{"ID":119653,"DIS_CODE":0,"TOWNNAME":"北區","LI":"裕民里","LIN":"5鄰","STREET":"臨安路","SECT":"二段","MAREA":" ","LANE":" ","ALLEY":" ","HOUSE_NO":"８６號","E_COORD97":167745.01999999999,"N_COORD97":2544830.4700000002,"ADDRESS":"臨安路二段８６號","OBJECTID":119653},"geometry":{"x":167745.02000000048,"y":2544830.4700000007}},{"attributes":{"ID":119654,"DIS_CODE":0,"TOWNNAME":"永康區","LI":"五王里","LIN":"24鄰","STREET":"成功路","SECT":" ","MAREA":" ","LANE":" ","ALLEY":" ","HOUSE_NO":"２５８號六樓之１４","E_COORD97":171315.01000000001,"N_COORD97":2545846.04,"ADDRESS":"成功路２５８號六樓之１４","OBJECTID":119654},"geometry":{"x":171315.00999999978,"y":2545846.0399999991}},{"attributes":{"ID":119655,"DIS_CODE":0,"TOWNNAME":"永康區","LI":"五王里","LIN":"24鄰","STREET":"成功路","SECT":" ","MAREA":" ","LANE":" ","ALLEY":" ","HOUSE_NO":"２５８號五樓之９","E_COORD97":171313.82000000001,"N_COORD97":2545846.04,"ADDRESS":"成功路２５８號五樓之９","OBJECTID":119655},"geometry":{"x":171313.82000000123,"y":2545846.0399999991}},{"attributes":{"ID":119656,"DIS_CODE":0,"TOWNNAME":"永康區","LI":"五王里","LIN":"24鄰","STREET":"成功路","SECT":" ","MAREA":" ","LANE":" ","ALLEY":" ","HOUSE_NO":"２５８號六樓之３","E_COORD97":171313.82999999999,"N_COORD97":2545846.04,"ADDRESS":"成功路２５８號六樓之３","OBJECTID":119656},"geometry":{"x":171313.83000000101,"y":2545846.0399999991}},{"attributes":{"ID":119657,"DIS_CODE":0,"TOWNNAME":"北區","LI":"力行里","LIN":"15鄰","STREET":"力行街","SECT":" ","MAREA":" ","LANE":" ","ALLEY":" ","HOUSE_NO":"１１號","E_COORD97":170870.79000000001,"N_COORD97":2545364.9399999999,"ADDRESS":"力行街１１號","OBJECTID":119657},"geometry":{"x":170870.79000000004,"y":2545364.9400000013}},{"attributes":{"ID":119658,"DIS_CODE":0,"TOWNNAME":"西港區","LI":"南海里","LIN":"4鄰","STREET":" ","SECT":" ","MAREA":"南海埔","LANE":" ","ALLEY":" ","HOUSE_NO":"３２號之１","E_COORD97":167691.92999999999,"N_COORD97":2557537.21,"ADDRESS":"南海埔３２號之１","OBJECTID":119658},"geometry":{"x":167691.93000000063,"y":2557537.2100000009}},{"attributes":{"ID":119659,"DIS_CODE":0,"TOWNNAME":"西港區","LI":"南海里","LIN":"4鄰","STREET":" ","SECT":" ","MAREA":"南海埔","LANE":" ","ALLEY":" ","HOUSE_NO":"３２號之２","E_COORD97":167694.26999999999,"N_COORD97":2557532.3700000001,"ADDRESS":"南海埔３２號之２","OBJECTID":119659},"geometry":{"x":167694.27000000048,"y":2557532.370000001}},{"attributes":{"ID":119660,"DIS_CODE":0,"TOWNNAME":"西港區","LI":"南海里","LIN":"4鄰","STREET":" ","SECT":" ","MAREA":"南海埔","LANE":" ","ALLEY":" ","HOUSE_NO":"３２號之３","E_COORD97":167695.42000000001,"N_COORD97":2557527.5499999998,"ADDRESS":"南海埔３２號之３","OBJECTID":119660},"geometry":{"x":167695.42000000086,"y":2557527.5500000007}},{"attributes":{"ID":119661,"DIS_CODE":0,"TOWNNAME":"西港區","LI":"南海里","LIN":"4鄰","STREET":" ","SECT":" ","MAREA":"南海埔","LANE":" ","ALLEY":" ","HOUSE_NO":"３４號","E_COORD97":167713.16,"N_COORD97":2557559.3900000001,"ADDRESS":"南海埔３４號","OBJECTID":119661},"geometry":{"x":167713.16000000015,"y":2557559.3900000006}},{"attributes":{"ID":119662,"DIS_CODE":0,"TOWNNAME":"善化區","LI":"胡家里","LIN":"4鄰","STREET":" ","SECT":" ","MAREA":"胡厝寮","LANE":" ","ALLEY":" ","HOUSE_NO":"３０２號之１５","E_COORD97":175513.66,"N_COORD97":2560363.77,"ADDRESS":"胡厝寮３０２號之１５","OBJECTID":119662},"geometry":{"x":175513.66000000201,"y":2560363.7700000033}},{"attributes":{"ID":119663,"DIS_CODE":0,"TOWNNAME":"善化區","LI":"胡家里","LIN":"4鄰","STREET":" ","SECT":" ","MAREA":"胡厝寮","LANE":" ","ALLEY":" ","HOUSE_NO":"３０２號之１６","E_COORD97":175508.29000000001,"N_COORD97":2560363.9300000002,"ADDRESS":"胡厝寮３０２號之１６","OBJECTID":119663},"geometry":{"x":175508.29000000097,"y":2560363.9300000016}},{"attributes":{"ID":119664,"DIS_CODE":0,"TOWNNAME":"善化區","LI":"胡家里","LIN":"4鄰","STREET":" ","SECT":" ","MAREA":"胡厝寮","LANE":" ","ALLEY":" ","HOUSE_NO":"３０２號之１７","E_COORD97":175502.98999999999,"N_COORD97":2560364.0099999998,"ADDRESS":"胡厝寮３０２號之１７","OBJECTID":119664},"geometry":{"x":175502.99000000209,"y":2560364.0099999998}},{"attributes":{"ID":119665,"DIS_CODE":0,"TOWNNAME":"善化區","LI":"胡家里","LIN":"4鄰","STREET":" ","SECT":" ","MAREA":"胡厝寮","LANE":" ","ALLEY":" ","HOUSE_NO":"３０２號之８","E_COORD97":175515.94,"N_COORD97":2560340.23,"ADDRESS":"胡厝寮３０２號之８","OBJECTID":119665},"geometry":{"x":175515.94000000134,"y":2560340.2300000004}},{"attributes":{"ID":119666,"DIS_CODE":0,"TOWNNAME":"善化區","LI":"胡家里","LIN":"4鄰","STREET":" ","SECT":" ","MAREA":"胡厝寮","LANE":" ","ALLEY":" ","HOUSE_NO":"３０２號之９","E_COORD97":175510.44,"N_COORD97":2560339.6899999999,"ADDRESS":"胡厝寮３０２號之９","OBJECTID":119666},"geometry":{"x":175510.44000000134,"y":2560339.6899999995}},{"attributes":{"ID":119667,"DIS_CODE":0,"TOWNNAME":"善化區","LI":"胡厝里","LIN":"13鄰","STREET":" ","SECT":" ","MAREA":"胡厝寮","LANE":" ","ALLEY":" ","HOUSE_NO":"２２３號之１","E_COORD97":175032.76999999999,"N_COORD97":2560304.4900000002,"ADDRESS":"胡厝寮２２３號之１","OBJECTID":119667},"geometry":{"x":175032.77000000048,"y":2560304.4900000002}},{"attributes":{"ID":119668,"DIS_CODE":0,"TOWNNAME":"歸仁區","LI":"七甲里","LIN":"16鄰","STREET":"南潭二街","SECT":" ","MAREA":" ","LANE":"１３０巷","ALLEY":"１１弄","HOUSE_NO":"１５號","E_COORD97":176483.09,"N_COORD97":2542915.7000000002,"ADDRESS":"南潭二街１３０巷１１弄１５號","OBJECTID":119668},"geometry":{"x":176483.08999999985,"y":2542915.6999999993}},{"attributes":{"ID":119669,"DIS_CODE":0,"TOWNNAME":"北區","LI":"力行里","LIN":"15鄰","STREET":"力行街","SECT":" ","MAREA":" ","LANE":" ","ALLEY":" ","HOUSE_NO":"１３號","E_COORD97":170875.01999999999,"N_COORD97":2545364.77,"ADDRESS":"力行街１３號","OBJECTID":119669},"geometry":{"x":170875.01999999955,"y":2545364.7700000033}},{"attributes":{"ID":119670,"DIS_CODE":0,"TOWNNAME":"白河區","LI":"河東里","LIN":"4鄰","STREET":" ","SECT":" ","MAREA":"糞箕湖","LANE":" ","ALLEY":" ","HOUSE_NO":"６１之１號","E_COORD97":192136.10000000001,"N_COORD97":2582420.3300000001,"ADDRESS":"糞箕湖６１之１號","OBJECTID":119670},"geometry":{"x":192136.09999999963,"y":2582420.3300000001}},{"attributes":{"ID":119671,"DIS_CODE":0,"TOWNNAME":"白河區","LI":"河東里","LIN":"4鄰","STREET":" ","SECT":" ","MAREA":"糞箕湖","LANE":" ","ALLEY":" ","HOUSE_NO":"６１之２號","E_COORD97":192132.04999999999,"N_COORD97":2582422.1299999999,"ADDRESS":"糞箕湖６１之２號","OBJECTID":119671},"geometry":{"x":192132.05000000075,"y":2582422.1300000008}},{"attributes":{"ID":119672,"DIS_CODE":0,"TOWNNAME":"白河區","LI":"河東里","LIN":"4鄰","STREET":" ","SECT":" ","MAREA":"糞箕湖","LANE":" ","ALLEY":" ","HOUSE_NO":"６１之３號","E_COORD97":192127.48000000001,"N_COORD97":2582422.9100000001,"ADDRESS":"糞箕湖６１之３號","OBJECTID":119672},"geometry":{"x":192127.48000000045,"y":2582422.9100000001}},{"attributes":{"ID":119673,"DIS_CODE":0,"TOWNNAME":"善化區","LI":"溪美里","LIN":"14鄰","STREET":" ","SECT":" ","MAREA":"溪尾","LANE":" ","ALLEY":" ","HOUSE_NO":"１２９號之３","E_COORD97":176919.41,"N_COORD97":2561368.8700000001,"ADDRESS":"溪尾１２９號之３","OBJECTID":119673},"geometry":{"x":176919.41000000108,"y":2561368.8700000029}},{"attributes":{"ID":119674,"DIS_CODE":0,"TOWNNAME":"善化區","LI":"文昌里","LIN":"17鄰","STREET":" ","SECT":" ","MAREA":"益民寮","LANE":" ","ALLEY":" ","HOUSE_NO":"１號之３","E_COORD97":177749.20999999999,"N_COORD97":2557180.2200000002,"ADDRESS":"益民寮１號之３","OBJECTID":119674},"geometry":{"x":177749.21000000089,"y":2557180.2200000007}},{"attributes":{"ID":119675,"DIS_CODE":0,"TOWNNAME":"善化區","LI":"東隆里","LIN":"7鄰","STREET":" ","SECT":" ","MAREA":"東勢寮","LANE":" ","ALLEY":" ","HOUSE_NO":"１９３號之３","E_COORD97":179811.22,"N_COORD97":2561807.7000000002,"ADDRESS":"東勢寮１９３號之３","OBJECTID":119675},"geometry":{"x":179811.21999999974,"y":2561807.6999999993}},{"attributes":{"ID":119676,"DIS_CODE":0,"TOWNNAME":"善化區","LI":"溪美里","LIN":"1鄰","STREET":" ","SECT":" ","MAREA":"溪尾","LANE":" ","ALLEY":" ","HOUSE_NO":"９７７號","E_COORD97":177143.95000000001,"N_COORD97":2560070.1800000002,"ADDRESS":"溪尾９７７號","OBJECTID":119676},"geometry":{"x":177143.95000000019,"y":2560070.1800000016}},{"attributes":{"ID":119677,"DIS_CODE":0,"TOWNNAME":"善化區","LI":"溪美里","LIN":"1鄰","STREET":" ","SECT":" ","MAREA":"溪尾","LANE":" ","ALLEY":" ","HOUSE_NO":"９７９號","E_COORD97":177128.14000000001,"N_COORD97":2560068.5099999998,"ADDRESS":"溪尾９７９號","OBJECTID":119677},"geometry":{"x":177128.13999999966,"y":2560068.5100000016}},{"attributes":{"ID":119678,"DIS_CODE":0,"TOWNNAME":"善化區","LI":"溪美里","LIN":"6鄰","STREET":" ","SECT":" ","MAREA":"溪尾","LANE":" ","ALLEY":" ","HOUSE_NO":"５５號之３","E_COORD97":176765.39000000001,"N_COORD97":2561181.4300000002,"ADDRESS":"溪尾５５號之３","OBJECTID":119678},"geometry":{"x":176765.38999999966,"y":2561181.4299999997}},{"attributes":{"ID":119679,"DIS_CODE":0,"TOWNNAME":"善化區","LI":"嘉北里","LIN":"12鄰","STREET":" ","SECT":" ","MAREA":"茄拔","LANE":" ","ALLEY":" ","HOUSE_NO":"２７１號之１５","E_COORD97":180787.72,"N_COORD97":2559862.6699999999,"ADDRESS":"茄拔２７１號之１５","OBJECTID":119679},"geometry":{"x":180787.71999999974,"y":2559862.6699999981}},{"attributes":{"ID":119680,"DIS_CODE":0,"TOWNNAME":"善化區","LI":"嘉北里","LIN":"12鄰","STREET":" ","SECT":" ","MAREA":"茄拔","LANE":" ","ALLEY":" ","HOUSE_NO":"２７１號之１６","E_COORD97":180782.23999999999,"N_COORD97":2559863.29,"ADDRESS":"茄拔２７１號之１６","OBJECTID":119680},"geometry":{"x":180782.24000000115,"y":2559863.2899999991}},{"attributes":{"ID":119681,"DIS_CODE":0,"TOWNNAME":"善化區","LI":"嘉北里","LIN":"12鄰","STREET":" ","SECT":" ","MAREA":"茄拔","LANE":" ","ALLEY":" ","HOUSE_NO":"２７１號之１７","E_COORD97":180775.42999999999,"N_COORD97":2559862.7599999998,"ADDRESS":"茄拔２７１號之１７","OBJECTID":119681},"geometry":{"x":180775.43000000063,"y":2559862.7600000016}},{"attributes":{"ID":119682,"DIS_CODE":0,"TOWNNAME":"善化區","LI":"嘉北里","LIN":"12鄰","STREET":" ","SECT":" ","MAREA":"茄拔","LANE":" ","ALLEY":" ","HOUSE_NO":"２７１號之１８","E_COORD97":180769.38,"N_COORD97":2559862.2000000002,"ADDRESS":"茄拔２７１號之１８","OBJECTID":119682},"geometry":{"x":180769.38000000082,"y":2559862.200000003}},{"attributes":{"ID":119683,"DIS_CODE":0,"TOWNNAME":"善化區","LI":"溪美里","LIN":"12鄰","STREET":" ","SECT":" ","MAREA":"溪尾","LANE":" ","ALLEY":" ","HOUSE_NO":"１１３之７號","E_COORD97":176447,"N_COORD97":2561773.3799999999,"ADDRESS":"溪尾１１３之７號","OBJECTID":119683},"geometry":{"x":176447.00000000093,"y":2561773.3800000008}},{"attributes":{"ID":119684,"DIS_CODE":0,"TOWNNAME":"善化區","LI":"溪美里","LIN":"12鄰","STREET":" ","SECT":" ","MAREA":"溪尾","LANE":" ","ALLEY":" ","HOUSE_NO":"１１３號之３１","E_COORD97":175282.47,"N_COORD97":2562667.8799999999,"ADDRESS":"溪尾１１３號之３１","OBJECTID":119684},"geometry":{"x":175282.47000000067,"y":2562667.8800000027}},{"attributes":{"ID":119685,"DIS_CODE":0,"TOWNNAME":"善化區","LI":"溪美里","LIN":"3鄰","STREET":" ","SECT":" ","MAREA":"溪尾","LANE":" ","ALLEY":" ","HOUSE_NO":"１９號之２","E_COORD97":176822.34,"N_COORD97":2561026.96,"ADDRESS":"溪尾１９號之２","OBJECTID":119685},"geometry":{"x":176822.34000000171,"y":2561026.9600000009}},{"attributes":{"ID":119686,"DIS_CODE":0,"TOWNNAME":"白河區","LI":"河東里","LIN":"4鄰","STREET":" ","SECT":" ","MAREA":"糞箕湖","LANE":" ","ALLEY":" ","HOUSE_NO":"６１之５號","E_COORD97":192120.92000000001,"N_COORD97":2582424.8300000001,"ADDRESS":"糞箕湖６１之５號","OBJECTID":119686},"geometry":{"x":192120.91999999899,"y":2582424.8300000038}},{"attributes":{"ID":119687,"DIS_CODE":0,"TOWNNAME":"白河區","LI":"河東里","LIN":"4鄰","STREET":" ","SECT":" ","MAREA":"糞箕湖","LANE":" ","ALLEY":" ","HOUSE_NO":"６１之６號","E_COORD97":192116.95999999999,"N_COORD97":2582426.23,"ADDRESS":"糞箕湖６１之６號","OBJECTID":119687},"geometry":{"x":192116.95999999996,"y":2582426.2300000042}},{"attributes":{"ID":119688,"DIS_CODE":0,"TOWNNAME":"白河區","LI":"河東里","LIN":"4鄰","STREET":" ","SECT":" ","MAREA":"糞箕湖","LANE":" ","ALLEY":" ","HOUSE_NO":"６１之７號","E_COORD97":192139.95999999999,"N_COORD97":2582449.0800000001,"ADDRESS":"糞箕湖６１之７號","OBJECTID":119688},"geometry":{"x":192139.96000000089,"y":2582449.0800000001}},{"attributes":{"ID":119689,"DIS_CODE":0,"TOWNNAME":"白河區","LI":"河東里","LIN":"4鄰","STREET":" ","SECT":" ","MAREA":"糞箕湖","LANE":" ","ALLEY":" ","HOUSE_NO":"６１之８號","E_COORD97":192141.14999999999,"N_COORD97":2582453.1200000001,"ADDRESS":"糞箕湖６１之８號","OBJECTID":119689},"geometry":{"x":192141.15000000037,"y":2582453.120000001}},{"attributes":{"ID":119690,"DIS_CODE":0,"TOWNNAME":"白河區","LI":"河東里","LIN":"4鄰","STREET":" ","SECT":" ","MAREA":"糞箕湖","LANE":" ","ALLEY":" ","HOUSE_NO":"６１號","E_COORD97":192139.82000000001,"N_COORD97":2582418.98,"ADDRESS":"糞箕湖６１號","OBJECTID":119690},"geometry":{"x":192139.82000000123,"y":2582418.9800000023}},{"attributes":{"ID":119691,"DIS_CODE":0,"TOWNNAME":"白河區","LI":"河東里","LIN":"4鄰","STREET":" ","SECT":" ","MAREA":"糞箕湖","LANE":" ","ALLEY":" ","HOUSE_NO":"６２之２０號","E_COORD97":192027.26999999999,"N_COORD97":2582454.6400000001,"ADDRESS":"糞箕湖６２之２０號","OBJECTID":119691},"geometry":{"x":192027.27000000048,"y":2582454.6400000025}},{"attributes":{"ID":119692,"DIS_CODE":0,"TOWNNAME":"白河區","LI":"河東里","LIN":"4鄰","STREET":" ","SECT":" ","MAREA":"糞箕湖","LANE":" ","ALLEY":" ","HOUSE_NO":"６２之２２號","E_COORD97":192018.63,"N_COORD97":2582457.1400000001,"ADDRESS":"糞箕湖６２之２２號","OBJECTID":119692},"geometry":{"x":192018.63000000082,"y":2582457.1400000043}},{"attributes":{"ID":119693,"DIS_CODE":0,"TOWNNAME":"白河區","LI":"河東里","LIN":"4鄰","STREET":" ","SECT":" ","MAREA":"糞箕湖","LANE":" ","ALLEY":" ","HOUSE_NO":"６２之２３號","E_COORD97":192019.16,"N_COORD97":2582472.1899999999,"ADDRESS":"糞箕湖６２之２３號","OBJECTID":119693},"geometry":{"x":192019.16000000015,"y":2582472.1899999995}},{"attributes":{"ID":119694,"DIS_CODE":0,"TOWNNAME":"白河區","LI":"河東里","LIN":"4鄰","STREET":" ","SECT":" ","MAREA":"糞箕湖","LANE":" ","ALLEY":" ","HOUSE_NO":"６２之２４號","E_COORD97":192019.79000000001,"N_COORD97":2582475.8199999998,"ADDRESS":"糞箕湖６２之２４號","OBJECTID":119694},"geometry":{"x":192019.79000000004,"y":2582475.8199999984}},{"attributes":{"ID":119695,"DIS_CODE":0,"TOWNNAME":"白河區","LI":"河東里","LIN":"4鄰","STREET":" ","SECT":" ","MAREA":"糞箕湖","LANE":" ","ALLEY":" ","HOUSE_NO":"６２之２５號","E_COORD97":192020.42000000001,"N_COORD97":2582479.4399999999,"ADDRESS":"糞箕湖６２之２５號","OBJECTID":119695},"geometry":{"x":192020.41999999993,"y":2582479.4400000013}},{"attributes":{"ID":119696,"DIS_CODE":0,"TOWNNAME":"白河區","LI":"河東里","LIN":"4鄰","STREET":" ","SECT":" ","MAREA":"糞箕湖","LANE":" ","ALLEY":" ","HOUSE_NO":"６２之２６號","E_COORD97":192021.04999999999,"N_COORD97":2582483.0699999998,"ADDRESS":"糞箕湖６２之２６號","OBJECTID":119696},"geometry":{"x":192021.04999999981,"y":2582483.0700000003}},{"attributes":{"ID":119697,"DIS_CODE":0,"TOWNNAME":"白河區","LI":"河東里","LIN":"4鄰","STREET":" ","SECT":" ","MAREA":"糞箕湖","LANE":" ","ALLEY":" ","HOUSE_NO":"６２之２７號","E_COORD97":192021.67999999999,"N_COORD97":2582486.7000000002,"ADDRESS":"糞箕湖６２之２７號","OBJECTID":119697},"geometry":{"x":192021.6799999997,"y":2582486.7000000011}},{"attributes":{"ID":119698,"DIS_CODE":0,"TOWNNAME":"白河區","LI":"河東里","LIN":"4鄰","STREET":" ","SECT":" ","MAREA":"糞箕湖","LANE":" ","ALLEY":" ","HOUSE_NO":"６２之２８號","E_COORD97":192022.31,"N_COORD97":2582490.3300000001,"ADDRESS":"糞箕湖６２之２８號","OBJECTID":119698},"geometry":{"x":192022.30999999959,"y":2582490.3300000019}},{"attributes":{"ID":119699,"DIS_CODE":0,"TOWNNAME":"白河區","LI":"河東里","LIN":"4鄰","STREET":" ","SECT":" ","MAREA":"糞箕湖","LANE":" ","ALLEY":" ","HOUSE_NO":"６２之２９號","E_COORD97":192022.94,"N_COORD97":2582493.96,"ADDRESS":"糞箕湖６２之２９號","OBJECTID":119699},"geometry":{"x":192022.94000000041,"y":2582493.9600000028}},{"attributes":{"ID":119700,"DIS_CODE":0,"TOWNNAME":"白河區","LI":"河東里","LIN":"4鄰","STREET":" ","SECT":" ","MAREA":"糞箕湖","LANE":" ","ALLEY":" ","HOUSE_NO":"６２之３０號","E_COORD97":192023.57000000001,"N_COORD97":2582497.5899999999,"ADDRESS":"糞箕湖６２之３０號","OBJECTID":119700},"geometry":{"x":192023.5700000003,"y":2582497.5900000036}},{"attributes":{"ID":119701,"DIS_CODE":0,"TOWNNAME":"歸仁區","LI":"七甲里","LIN":"16鄰","STREET":"南潭二街","SECT":" ","MAREA":" ","LANE":"１３０巷","ALLEY":"１１弄","HOUSE_NO":"２５號","E_COORD97":176505.69,"N_COORD97":2542915.7000000002,"ADDRESS":"南潭二街１３０巷１１弄２５號","OBJECTID":119701},"geometry":{"x":176505.69000000134,"y":2542915.6999999993}},{"attributes":{"ID":119702,"DIS_CODE":0,"TOWNNAME":"歸仁區","LI":"看東里","LIN":"16鄰","STREET":"中山路","SECT":"一段","MAREA":" ","LANE":"１巷","ALLEY":"３８弄","HOUSE_NO":"２２號","E_COORD97":179505.48000000001,"N_COORD97":2540254.5699999998,"ADDRESS":"中山路一段１巷３８弄２２號","OBJECTID":119702},"geometry":{"x":179505.47999999952,"y":2540254.5700000022}},{"attributes":{"ID":119703,"DIS_CODE":0,"TOWNNAME":"關廟區","LI":"東勢里","LIN":"16鄰","STREET":"和平路","SECT":" ","MAREA":" ","LANE":"１４５巷","ALLEY":"３弄","HOUSE_NO":"５號","E_COORD97":181645.94,"N_COORD97":2539620.25,"ADDRESS":"和平路１４５巷３弄５號","OBJECTID":119703},"geometry":{"x":181645.94000000134,"y":2539620.25}},{"attributes":{"ID":119704,"DIS_CODE":0,"TOWNNAME":"關廟區","LI":"東勢里","LIN":"16鄰","STREET":"和平路","SECT":" ","MAREA":" ","LANE":"１４５巷","ALLEY":"３弄","HOUSE_NO":"３號","E_COORD97":181653.64000000001,"N_COORD97":2539645.25,"ADDRESS":"和平路１４５巷３弄３號","OBJECTID":119704},"geometry":{"x":181653.6400000006,"y":2539645.25}},{"attributes":{"ID":119705,"DIS_CODE":0,"TOWNNAME":"關廟區","LI":"香洋里","LIN":"16鄰","STREET":"中央路","SECT":" ","MAREA":" ","LANE":"２２巷","ALLEY":"３１弄","HOUSE_NO":"１０號","E_COORD97":181556.44,"N_COORD97":2540104.96,"ADDRESS":"中央路２２巷３１弄１０號","OBJECTID":119705},"geometry":{"x":181556.44000000041,"y":2540104.9600000009}},{"attributes":{"ID":119706,"DIS_CODE":0,"TOWNNAME":"關廟區","LI":"香洋里","LIN":"16鄰","STREET":"中央路","SECT":" ","MAREA":" ","LANE":"２２巷","ALLEY":"７弄","HOUSE_NO":"７號","E_COORD97":181527.63,"N_COORD97":2540083.8900000001,"ADDRESS":"中央路２２巷７弄７號","OBJECTID":119706},"geometry":{"x":181527.62999999989,"y":2540083.8900000025}},{"attributes":{"ID":119707,"DIS_CODE":0,"TOWNNAME":"南區","LI":"建南里","LIN":"16鄰","STREET":"中華南路","SECT":"二段","MAREA":" ","LANE":"２３３巷","ALLEY":"３６弄","HOUSE_NO":"９號","E_COORD97":166881.97,"N_COORD97":2540057.5099999998,"ADDRESS":"中華南路二段２３３巷３６弄９號","OBJECTID":119707},"geometry":{"x":166881.96999999974,"y":2540057.5100000016}},{"attributes":{"ID":119708,"DIS_CODE":0,"TOWNNAME":"東區","LI":"富強里","LIN":"21鄰","STREET":"東門路","SECT":"二段","MAREA":" ","LANE":"３０１巷","ALLEY":"１２弄","HOUSE_NO":"２１號","E_COORD97":170822.39000000001,"N_COORD97":2542639.5,"ADDRESS":"東門路二段３０１巷１２弄２１號","OBJECTID":119708},"geometry":{"x":170822.38999999966,"y":2542639.5}},{"attributes":{"ID":119709,"DIS_CODE":0,"TOWNNAME":"東區","LI":"衛國里","LIN":"22鄰","STREET":"衛國街","SECT":" ","MAREA":" ","LANE":"１１４巷","ALLEY":"９弄","HOUSE_NO":"１０號之５","E_COORD97":170479.03,"N_COORD97":2543193.5600000001,"ADDRESS":"衛國街１１４巷９弄１０號之５","OBJECTID":119709},"geometry":{"x":170479.03000000026,"y":2543193.5599999987}},{"attributes":{"ID":119710,"DIS_CODE":0,"TOWNNAME":"南區","LI":"明亮里","LIN":"16鄰","STREET":"金華路","SECT":"一段","MAREA":" ","LANE":"３５２巷","ALLEY":"１１１弄","HOUSE_NO":"３號","E_COORD97":167274.85000000001,"N_COORD97":2541073.1899999999,"ADDRESS":"金華路一段３５２巷１１１弄３號","OBJECTID":119710},"geometry":{"x":167274.85000000149,"y":2541073.1900000013}},{"attributes":{"ID":119711,"DIS_CODE":0,"TOWNNAME":"南區","LI":"明亮里","LIN":"16鄰","STREET":"金華路","SECT":"一段","MAREA":" ","LANE":"３５２巷","ALLEY":"１１１弄","HOUSE_NO":"２１號","E_COORD97":167324.67000000001,"N_COORD97":2541103.6800000002,"ADDRESS":"金華路一段３５２巷１１１弄２１號","OBJECTID":119711},"geometry":{"x":167324.66999999993,"y":2541103.6800000034}},{"attributes":{"ID":119712,"DIS_CODE":0,"TOWNNAME":"永康區","LI":"西灣里","LIN":"35鄰","STREET":"國光八街","SECT":" ","MAREA":" ","LANE":"８７巷","ALLEY":" ","HOUSE_NO":"１號","E_COORD97":174253.59,"N_COORD97":2545734.7000000002,"ADDRESS":"國光八街８７巷１號","OBJECTID":119712},"geometry":{"x":174253.58999999985,"y":2545734.7000000011}},{"attributes":{"ID":119713,"DIS_CODE":0,"TOWNNAME":"北區","LI":"力行里","LIN":"15鄰","STREET":"力行街","SECT":" ","MAREA":" ","LANE":" ","ALLEY":" ","HOUSE_NO":"１５號","E_COORD97":170879.26000000001,"N_COORD97":2545362.9900000002,"ADDRESS":"力行街１５號","OBJECTID":119713},"geometry":{"x":170879.25999999978,"y":2545362.9900000002}},{"attributes":{"ID":119714,"DIS_CODE":0,"TOWNNAME":"北區","LI":"力行里","LIN":"15鄰","STREET":"力行街","SECT":" ","MAREA":" ","LANE":" ","ALLEY":" ","HOUSE_NO":"１７號","E_COORD97":170884.63,"N_COORD97":2545361.52,"ADDRESS":"力行街１７號","OBJECTID":119714},"geometry":{"x":170884.63000000082,"y":2545361.5199999996}},{"attributes":{"ID":119715,"DIS_CODE":0,"TOWNNAME":"北區","LI":"力行里","LIN":"15鄰","STREET":"力行街","SECT":" ","MAREA":" ","LANE":" ","ALLEY":" ","HOUSE_NO":"２５號","E_COORD97":170902.23000000001,"N_COORD97":2545356.9700000002,"ADDRESS":"力行街２５號","OBJECTID":119715},"geometry":{"x":170902.23000000045,"y":2545356.9700000007}},{"attributes":{"ID":119716,"DIS_CODE":0,"TOWNNAME":"北區","LI":"力行里","LIN":"15鄰","STREET":"力行街","SECT":" ","MAREA":" ","LANE":" ","ALLEY":" ","HOUSE_NO":"２７號","E_COORD97":170906.95000000001,"N_COORD97":2545356.1499999999,"ADDRESS":"力行街２７號","OBJECTID":119716},"geometry":{"x":170906.95000000019,"y":2545356.1500000041}},{"attributes":{"ID":119717,"DIS_CODE":0,"TOWNNAME":"北區","LI":"力行里","LIN":"15鄰","STREET":"力行街","SECT":" ","MAREA":" ","LANE":" ","ALLEY":" ","HOUSE_NO":"２９號","E_COORD97":170911.51000000001,"N_COORD97":2545355.1800000002,"ADDRESS":"力行街２９號","OBJECTID":119717},"geometry":{"x":170911.50999999978,"y":2545355.1800000034}},{"attributes":{"ID":119718,"DIS_CODE":0,"TOWNNAME":"北區","LI":"玉皇里","LIN":"15鄰","STREET":"成功路","SECT":" ","MAREA":" ","LANE":" ","ALLEY":" ","HOUSE_NO":"１０６號","E_COORD97":168568.54000000001,"N_COORD97":2544328.4500000002,"ADDRESS":"成功路１０６號","OBJECTID":119718},"geometry":{"x":168568.54000000004,"y":2544328.4499999993}},{"attributes":{"ID":119719,"DIS_CODE":0,"TOWNNAME":"北區","LI":"玉皇里","LIN":"15鄰","STREET":"成功路","SECT":" ","MAREA":" ","LANE":" ","ALLEY":" ","HOUSE_NO":"１１２號","E_COORD97":168555.88,"N_COORD97":2544331.4500000002,"ADDRESS":"成功路１１２號","OBJECTID":119719},"geometry":{"x":168555.87999999989,"y":2544331.4499999993}},{"attributes":{"ID":119720,"DIS_CODE":0,"TOWNNAME":"北區","LI":"玉皇里","LIN":"15鄰","STREET":"成功路","SECT":" ","MAREA":" ","LANE":" ","ALLEY":" ","HOUSE_NO":"９６號","E_COORD97":168594.16,"N_COORD97":2544323.71,"ADDRESS":"成功路９６號","OBJECTID":119720},"geometry":{"x":168594.16000000108,"y":2544323.7100000028}},{"attributes":{"ID":119721,"DIS_CODE":0,"TOWNNAME":"北區","LI":"玉皇里","LIN":"15鄰","STREET":"佑民街","SECT":" ","MAREA":" ","LANE":" ","ALLEY":" ","HOUSE_NO":"１０號","E_COORD97":168589.23000000001,"N_COORD97":2544384.2799999998,"ADDRESS":"佑民街１０號","OBJECTID":119721},"geometry":{"x":168589.23000000138,"y":2544384.2800000031}},{"attributes":{"ID":119722,"DIS_CODE":0,"TOWNNAME":"北區","LI":"玉皇里","LIN":"15鄰","STREET":"佑民街","SECT":" ","MAREA":" ","LANE":" ","ALLEY":" ","HOUSE_NO":"１２號","E_COORD97":168613.35000000001,"N_COORD97":2544379.48,"ADDRESS":"佑民街１２號","OBJECTID":119722},"geometry":{"x":168613.34999999963,"y":2544379.4800000004}},{"attributes":{"ID":119723,"DIS_CODE":0,"TOWNNAME":"北區","LI":"玉皇里","LIN":"15鄰","STREET":"佑民街","SECT":" ","MAREA":" ","LANE":" ","ALLEY":" ","HOUSE_NO":"１２號之１","E_COORD97":168604.45000000001,"N_COORD97":2544381.9900000002,"ADDRESS":"佑民街１２號之１","OBJECTID":119723},"geometry":{"x":168604.45000000112,"y":2544381.9900000021}},{"attributes":{"ID":119724,"DIS_CODE":0,"TOWNNAME":"仁德區","LI":"仁義里","LIN":"35鄰","STREET":"勝利路","SECT":" ","MAREA":" ","LANE":" ","ALLEY":" ","HOUSE_NO":"４６號","E_COORD97":173531.73999999999,"N_COORD97":2539922.0099999998,"ADDRESS":"勝利路４６號","OBJECTID":119724},"geometry":{"x":173531.74000000115,"y":2539922.0100000016}},{"attributes":{"ID":119725,"DIS_CODE":0,"TOWNNAME":"東區","LI":"富強里","LIN":"20鄰","STREET":"裕農路","SECT":" ","MAREA":" ","LANE":"２８８巷","ALLEY":"９６弄","HOUSE_NO":"４６號之１","E_COORD97":170971.20000000001,"N_COORD97":2542811.3199999998,"ADDRESS":"裕農路２８８巷９６弄４６號之１","OBJECTID":119725},"geometry":{"x":170971.20000000019,"y":2542811.3200000003}},{"attributes":{"ID":119726,"DIS_CODE":0,"TOWNNAME":"東區","LI":"忠孝里","LIN":"31鄰","STREET":"中華東路","SECT":"三段","MAREA":" ","LANE":"４５２巷","ALLEY":"８弄","HOUSE_NO":"１２號","E_COORD97":169947.97,"N_COORD97":2541609.4199999999,"ADDRESS":"中華東路三段４５２巷８弄１２號","OBJECTID":119726},"geometry":{"x":169947.97000000067,"y":2541609.4199999999}},{"attributes":{"ID":119727,"DIS_CODE":0,"TOWNNAME":"東區","LI":"忠孝里","LIN":"31鄰","STREET":"中華東路","SECT":"三段","MAREA":" ","LANE":"４５２巷","ALLEY":"８弄","HOUSE_NO":"２２號","E_COORD97":169977.48000000001,"N_COORD97":2541615.0699999998,"ADDRESS":"中華東路三段４５２巷８弄２２號","OBJECTID":119727},"geometry":{"x":169977.48000000138,"y":2541615.0700000022}},{"attributes":{"ID":119728,"DIS_CODE":0,"TOWNNAME":"東區","LI":"富強里","LIN":"6鄰","STREET":"中華東路","SECT":"二段","MAREA":" ","LANE":"４８巷","ALLEY":"１７弄","HOUSE_NO":"４０號","E_COORD97":171311.06,"N_COORD97":2542895.8799999999,"ADDRESS":"中華東路二段４８巷１７弄４０號","OBJECTID":119728},"geometry":{"x":171311.05999999959,"y":2542895.8800000008}},{"attributes":{"ID":119729,"DIS_CODE":0,"TOWNNAME":"北區","LI":"大和里","LIN":"16鄰","STREET":"文賢路","SECT":" ","MAREA":" ","LANE":"７９９巷","ALLEY":"５８弄","HOUSE_NO":"１０號","E_COORD97":167162.32000000001,"N_COORD97":2546307.1000000001,"ADDRESS":"文賢路７９９巷５８弄１０號","OBJECTID":119729},"geometry":{"x":167162.32000000123,"y":2546307.0999999996}},{"attributes":{"ID":119730,"DIS_CODE":0,"TOWNNAME":"北區","LI":"大和里","LIN":"16鄰","STREET":"文賢路","SECT":" ","MAREA":" ","LANE":"７９９巷","ALLEY":"５８弄","HOUSE_NO":"１１號","E_COORD97":167142.92999999999,"N_COORD97":2546307.48,"ADDRESS":"文賢路７９９巷５８弄１１號","OBJECTID":119730},"geometry":{"x":167142.93000000063,"y":2546307.4800000023}},{"attributes":{"ID":119731,"DIS_CODE":0,"TOWNNAME":"北區","LI":"大和里","LIN":"16鄰","STREET":"文賢路","SECT":" ","MAREA":" ","LANE":"７９９巷","ALLEY":"５８弄","HOUSE_NO":"１２號","E_COORD97":167161.95000000001,"N_COORD97":2546311.2999999998,"ADDRESS":"文賢路７９９巷５８弄１２號","OBJECTID":119731},"geometry":{"x":167161.95000000112,"y":2546311.2999999989}},{"attributes":{"ID":119732,"DIS_CODE":0,"TOWNNAME":"北區","LI":"大和里","LIN":"16鄰","STREET":"文賢路","SECT":" ","MAREA":" ","LANE":"７９９巷","ALLEY":"５８弄","HOUSE_NO":"１３號","E_COORD97":167142.48000000001,"N_COORD97":2546311.0899999999,"ADDRESS":"文賢路７９９巷５８弄１３號","OBJECTID":119732},"geometry":{"x":167142.47999999952,"y":2546311.0899999999}},{"attributes":{"ID":119733,"DIS_CODE":0,"TOWNNAME":"北區","LI":"大和里","LIN":"16鄰","STREET":"文賢路","SECT":" ","MAREA":" ","LANE":"７９９巷","ALLEY":"５８弄","HOUSE_NO":"１４號","E_COORD97":167161.14000000001,"N_COORD97":2546314.9199999999,"ADDRESS":"文賢路７９９巷５８弄１４號","OBJECTID":119733},"geometry":{"x":167161.1400000006,"y":2546314.9199999999}},{"attributes":{"ID":119734,"DIS_CODE":0,"TOWNNAME":"永康區","LI":"龍潭里","LIN":"35鄰","STREET":"自強路","SECT":" ","MAREA":" ","LANE":"７５０巷","ALLEY":" ","HOUSE_NO":"５１號","E_COORD97":174515.51999999999,"N_COORD97":2548486.9399999999,"ADDRESS":"自強路７５０巷５１號","OBJECTID":119734},"geometry":{"x":174515.52000000142,"y":2548486.9400000013}},{"attributes":{"ID":119735,"DIS_CODE":0,"TOWNNAME":"北區","LI":"玉皇里","LIN":"15鄰","STREET":"佑民街","SECT":" ","MAREA":" ","LANE":" ","ALLEY":" ","HOUSE_NO":"１２號之２","E_COORD97":168593.26000000001,"N_COORD97":2544389.8500000001,"ADDRESS":"佑民街１２號之２","OBJECTID":119735},"geometry":{"x":168593.26000000071,"y":2544389.8499999996}},{"attributes":{"ID":119736,"DIS_CODE":0,"TOWNNAME":"白河區","LI":"河東里","LIN":"4鄰","STREET":" ","SECT":" ","MAREA":"糞箕湖","LANE":" ","ALLEY":" ","HOUSE_NO":"６２之３１號","E_COORD97":192024.20999999999,"N_COORD97":2582501.21,"ADDRESS":"糞箕湖６２之３１號","OBJECTID":119736},"geometry":{"x":192024.21000000183,"y":2582501.2100000046}},{"attributes":{"ID":119737,"DIS_CODE":0,"TOWNNAME":"白河區","LI":"河東里","LIN":"4鄰","STREET":" ","SECT":" ","MAREA":"糞箕湖","LANE":" ","ALLEY":" ","HOUSE_NO":"６２之３２號","E_COORD97":192024.84,"N_COORD97":2582504.8399999999,"ADDRESS":"糞箕湖６２之３２號","OBJECTID":119737},"geometry":{"x":192024.84000000171,"y":2582504.8399999999}},{"attributes":{"ID":119738,"DIS_CODE":0,"TOWNNAME":"白河區","LI":"河東里","LIN":"4鄰","STREET":" ","SECT":" ","MAREA":"糞箕湖","LANE":" ","ALLEY":" ","HOUSE_NO":"６２之３３號","E_COORD97":192025.47,"N_COORD97":2582508.4700000002,"ADDRESS":"糞箕湖６２之３３號","OBJECTID":119738},"geometry":{"x":192025.46999999881,"y":2582508.4700000007}},{"attributes":{"ID":119739,"DIS_CODE":0,"TOWNNAME":"白河區","LI":"河東里","LIN":"4鄰","STREET":" ","SECT":" ","MAREA":"糞箕湖","LANE":" ","ALLEY":" ","HOUSE_NO":"６２之３４號","E_COORD97":192026.10000000001,"N_COORD97":2582512.1000000001,"ADDRESS":"糞箕湖６２之３４號","OBJECTID":119739},"geometry":{"x":192026.09999999963,"y":2582512.1000000015}},{"attributes":{"ID":119740,"DIS_CODE":0,"TOWNNAME":"善化區","LI":"溪美里","LIN":"1鄰","STREET":" ","SECT":" ","MAREA":"溪尾","LANE":" ","ALLEY":" ","HOUSE_NO":"９８１號","E_COORD97":177126.91,"N_COORD97":2560064.02,"ADDRESS":"溪尾９８１號","OBJECTID":119740},"geometry":{"x":177126.91000000015,"y":2560064.0200000014}},{"attributes":{"ID":119741,"DIS_CODE":0,"TOWNNAME":"善化區","LI":"溪美里","LIN":"1鄰","STREET":" ","SECT":" ","MAREA":"溪尾","LANE":" ","ALLEY":" ","HOUSE_NO":"９８３號","E_COORD97":177126.85000000001,"N_COORD97":2560060.2799999998,"ADDRESS":"溪尾９８３號","OBJECTID":119741},"geometry":{"x":177126.84999999963,"y":2560060.2799999993}},{"attributes":{"ID":119742,"DIS_CODE":0,"TOWNNAME":"善化區","LI":"溪美里","LIN":"1鄰","STREET":" ","SECT":" ","MAREA":"溪尾","LANE":" ","ALLEY":" ","HOUSE_NO":"９８５號","E_COORD97":177128.45999999999,"N_COORD97":2560056.23,"ADDRESS":"溪尾９８５號","OBJECTID":119742},"geometry":{"x":177128.45999999903,"y":2560056.2300000042}},{"attributes":{"ID":119743,"DIS_CODE":0,"TOWNNAME":"善化區","LI":"溪美里","LIN":"1鄰","STREET":" ","SECT":" ","MAREA":"溪尾","LANE":" ","ALLEY":" ","HOUSE_NO":"９８７號","E_COORD97":177128.60999999999,"N_COORD97":2560052.1400000001,"ADDRESS":"溪尾９８７號","OBJECTID":119743},"geometry":{"x":177128.61000000127,"y":2560052.1400000006}},{"attributes":{"ID":119744,"DIS_CODE":0,"TOWNNAME":"善化區","LI":"溪美里","LIN":"1鄰","STREET":" ","SECT":" ","MAREA":"溪尾","LANE":" ","ALLEY":" ","HOUSE_NO":"９８９號","E_COORD97":177128.76999999999,"N_COORD97":2560048.0499999998,"ADDRESS":"溪尾９８９號","OBJECTID":119744},"geometry":{"x":177128.76999999955,"y":2560048.0500000026}},{"attributes":{"ID":119745,"DIS_CODE":0,"TOWNNAME":"善化區","LI":"溪美里","LIN":"1鄰","STREET":" ","SECT":" ","MAREA":"溪尾","LANE":" ","ALLEY":" ","HOUSE_NO":"９７７之２號","E_COORD97":177145.75,"N_COORD97":2560064.75,"ADDRESS":"溪尾９７７之２號","OBJECTID":119745},"geometry":{"x":177145.75000000093,"y":2560064.75}},{"attributes":{"ID":119746,"DIS_CODE":0,"TOWNNAME":"善化區","LI":"溪美里","LIN":"1鄰","STREET":" ","SECT":" ","MAREA":"溪尾","LANE":" ","ALLEY":" ","HOUSE_NO":"９７７之３號","E_COORD97":177172.17999999999,"N_COORD97":2560065.2799999998,"ADDRESS":"溪尾９７７之３號","OBJECTID":119746},"geometry":{"x":177172.1799999997,"y":2560065.2800000012}},{"attributes":{"ID":119747,"DIS_CODE":0,"TOWNNAME":"善化區","LI":"溪美里","LIN":"1鄰","STREET":" ","SECT":" ","MAREA":"溪尾","LANE":" ","ALLEY":" ","HOUSE_NO":"９７７之５號","E_COORD97":177175.76000000001,"N_COORD97":2560062.04,"ADDRESS":"溪尾９７７之５號","OBJECTID":119747},"geometry":{"x":177175.76000000071,"y":2560062.0399999991}},{"attributes":{"ID":119748,"DIS_CODE":0,"TOWNNAME":"善化區","LI":"溪美里","LIN":"1鄰","STREET":" ","SECT":" ","MAREA":"溪尾","LANE":" ","ALLEY":" ","HOUSE_NO":"９７７之６號","E_COORD97":177147.10999999999,"N_COORD97":2560060.3700000001,"ADDRESS":"溪尾９７７之６號","OBJECTID":119748},"geometry":{"x":177147.11000000127,"y":2560060.3700000029}},{"attributes":{"ID":119749,"DIS_CODE":0,"TOWNNAME":"北區","LI":"玉皇里","LIN":"15鄰","STREET":"佑民街","SECT":" ","MAREA":" ","LANE":" ","ALLEY":" ","HOUSE_NO":"１２號之３","E_COORD97":168595.42999999999,"N_COORD97":2544394.0499999998,"ADDRESS":"佑民街１２號之３","OBJECTID":119749},"geometry":{"x":168595.43000000063,"y":2544394.0499999989}},{"attributes":{"ID":119750,"DIS_CODE":0,"TOWNNAME":"北區","LI":"玉皇里","LIN":"15鄰","STREET":"佑民街","SECT":" ","MAREA":" ","LANE":" ","ALLEY":" ","HOUSE_NO":"１４號","E_COORD97":168599.51000000001,"N_COORD97":2544396.7000000002,"ADDRESS":"佑民街１４號","OBJECTID":119750},"geometry":{"x":168599.51000000164,"y":2544396.7000000011}},{"attributes":{"ID":119751,"DIS_CODE":0,"TOWNNAME":"北區","LI":"玉皇里","LIN":"15鄰","STREET":"佑民街","SECT":" ","MAREA":" ","LANE":" ","ALLEY":" ","HOUSE_NO":"１６號","E_COORD97":168601.89999999999,"N_COORD97":2544399.7400000002,"ADDRESS":"佑民街１６號","OBJECTID":119751},"geometry":{"x":168601.90000000037,"y":2544399.7400000021}},{"attributes":{"ID":119752,"DIS_CODE":0,"TOWNNAME":"北區","LI":"玉皇里","LIN":"15鄰","STREET":"佑民街","SECT":" ","MAREA":" ","LANE":" ","ALLEY":" ","HOUSE_NO":"１８號","E_COORD97":168603.72,"N_COORD97":2544405.1699999999,"ADDRESS":"佑民街１８號","OBJECTID":119752},"geometry":{"x":168603.72000000067,"y":2544405.1699999999}},{"attributes":{"ID":119753,"DIS_CODE":0,"TOWNNAME":"北區","LI":"玉皇里","LIN":"15鄰","STREET":"佑民街","SECT":" ","MAREA":" ","LANE":" ","ALLEY":" ","HOUSE_NO":"２號","E_COORD97":168560.03,"N_COORD97":2544339.5899999999,"ADDRESS":"佑民街２號","OBJECTID":119753},"geometry":{"x":168560.03000000119,"y":2544339.5900000017}},{"attributes":{"ID":119754,"DIS_CODE":0,"TOWNNAME":"北區","LI":"玉皇里","LIN":"15鄰","STREET":"佑民街","SECT":" ","MAREA":" ","LANE":" ","ALLEY":" ","HOUSE_NO":"４號","E_COORD97":168568.48999999999,"N_COORD97":2544352.1400000001,"ADDRESS":"佑民街４號","OBJECTID":119754},"geometry":{"x":168568.49000000115,"y":2544352.1400000006}},{"attributes":{"ID":119755,"DIS_CODE":0,"TOWNNAME":"北區","LI":"玉皇里","LIN":"15鄰","STREET":"佑民街","SECT":" ","MAREA":" ","LANE":" ","ALLEY":" ","HOUSE_NO":"６號","E_COORD97":168572.70999999999,"N_COORD97":2544357.5099999998,"ADDRESS":"佑民街６號","OBJECTID":119755},"geometry":{"x":168572.70999999996,"y":2544357.5100000016}},{"attributes":{"ID":119756,"DIS_CODE":0,"TOWNNAME":"北區","LI":"玉皇里","LIN":"15鄰","STREET":"佑民街","SECT":" ","MAREA":" ","LANE":" ","ALLEY":" ","HOUSE_NO":"８號","E_COORD97":168575.98000000001,"N_COORD97":2544362.8999999999,"ADDRESS":"佑民街８號","OBJECTID":119756},"geometry":{"x":168575.98000000045,"y":2544362.9000000004}},{"attributes":{"ID":119757,"DIS_CODE":0,"TOWNNAME":"北區","LI":"玉皇里","LIN":"15鄰","STREET":"佑民街","SECT":" ","MAREA":" ","LANE":" ","ALLEY":" ","HOUSE_NO":"８號之１","E_COORD97":168579.23999999999,"N_COORD97":2544366.48,"ADDRESS":"佑民街８號之１","OBJECTID":119757},"geometry":{"x":168579.24000000022,"y":2544366.4800000004}},{"attributes":{"ID":119758,"DIS_CODE":0,"TOWNNAME":"仁德區","LI":"仁義里","LIN":"35鄰","STREET":"勝利路","SECT":" ","MAREA":" ","LANE":" ","ALLEY":" ","HOUSE_NO":"４８之１號","E_COORD97":173562.5,"N_COORD97":2539915.5499999998,"ADDRESS":"勝利路４８之１號","OBJECTID":119758},"geometry":{"x":173562.5,"y":2539915.5500000045}},{"attributes":{"ID":119759,"DIS_CODE":0,"TOWNNAME":"仁德區","LI":"仁德里","LIN":"35鄰","STREET":"裕華三街","SECT":" ","MAREA":" ","LANE":" ","ALLEY":" ","HOUSE_NO":"２６２號","E_COORD97":172736.04000000001,"N_COORD97":2541733.9900000002,"ADDRESS":"裕華三街２６２號","OBJECTID":119759},"geometry":{"x":172736.04000000097,"y":2541733.9900000021}},{"attributes":{"ID":119760,"DIS_CODE":0,"TOWNNAME":"北區","LI":"大和里","LIN":"16鄰","STREET":"文賢路","SECT":" ","MAREA":" ","LANE":"７９９巷","ALLEY":"５８弄","HOUSE_NO":"１５號","E_COORD97":167141.23000000001,"N_COORD97":2546315.5099999998,"ADDRESS":"文賢路７９９巷５８弄１５號","OBJECTID":119760},"geometry":{"x":167141.23000000138,"y":2546315.5099999998}},{"attributes":{"ID":119761,"DIS_CODE":0,"TOWNNAME":"仁德區","LI":"仁德里","LIN":"35鄰","STREET":"裕華三街","SECT":" ","MAREA":" ","LANE":" ","ALLEY":" ","HOUSE_NO":"２５６號","E_COORD97":172748.72,"N_COORD97":2541730.2400000002,"ADDRESS":"裕華三街２５６號","OBJECTID":119761},"geometry":{"x":172748.71999999974,"y":2541730.2400000002}},{"attributes":{"ID":119762,"DIS_CODE":0,"TOWNNAME":"北區","LI":"大和里","LIN":"16鄰","STREET":"文賢路","SECT":" ","MAREA":" ","LANE":"７９９巷","ALLEY":"５８弄","HOUSE_NO":"１６號","E_COORD97":167160.63,"N_COORD97":2546319.1899999999,"ADDRESS":"文賢路７９９巷５８弄１６號","OBJECTID":119762},"geometry":{"x":167160.62999999989,"y":2546319.1900000013}},{"attributes":{"ID":119763,"DIS_CODE":0,"TOWNNAME":"北區","LI":"大和里","LIN":"16鄰","STREET":"文賢路","SECT":" ","MAREA":" ","LANE":"７９９巷","ALLEY":"５８弄","HOUSE_NO":"１７號","E_COORD97":167140.48999999999,"N_COORD97":2546319.4100000001,"ADDRESS":"文賢路７９９巷５８弄１７號","OBJECTID":119763},"geometry":{"x":167140.49000000209,"y":2546319.4100000001}},{"attributes":{"ID":119764,"DIS_CODE":0,"TOWNNAME":"北區","LI":"大和里","LIN":"16鄰","STREET":"文賢路","SECT":" ","MAREA":" ","LANE":"７９９巷","ALLEY":"５８弄","HOUSE_NO":"１８號","E_COORD97":167159.67000000001,"N_COORD97":2546324.0699999998,"ADDRESS":"文賢路７９９巷５８弄１８號","OBJECTID":119764},"geometry":{"x":167159.67000000086,"y":2546324.0700000022}},{"attributes":{"ID":119765,"DIS_CODE":0,"TOWNNAME":"北區","LI":"大和里","LIN":"16鄰","STREET":"文賢路","SECT":" ","MAREA":" ","LANE":"７９９巷","ALLEY":"５８弄","HOUSE_NO":"１９號","E_COORD97":167139.82999999999,"N_COORD97":2546323.7599999998,"ADDRESS":"文賢路７９９巷５８弄１９號","OBJECTID":119765},"geometry":{"x":167139.83000000194,"y":2546323.7599999998}},{"attributes":{"ID":119766,"DIS_CODE":0,"TOWNNAME":"仁德區","LI":"仁德里","LIN":"35鄰","STREET":"文山路","SECT":" ","MAREA":" ","LANE":" ","ALLEY":" ","HOUSE_NO":"６１號","E_COORD97":172852.14000000001,"N_COORD97":2541703.3199999998,"ADDRESS":"文山路６１號","OBJECTID":119766},"geometry":{"x":172852.1400000006,"y":2541703.320000004}},{"attributes":{"ID":119767,"DIS_CODE":0,"TOWNNAME":"北區","LI":"大和里","LIN":"16鄰","STREET":"文賢路","SECT":" ","MAREA":" ","LANE":"７９９巷","ALLEY":"５８弄","HOUSE_NO":"１號","E_COORD97":167146.47,"N_COORD97":2546286.25,"ADDRESS":"文賢路７９９巷５８弄１號","OBJECTID":119767},"geometry":{"x":167146.46999999974,"y":2546286.25}},{"attributes":{"ID":119768,"DIS_CODE":0,"TOWNNAME":"善化區","LI":"溪美里","LIN":"1鄰","STREET":" ","SECT":" ","MAREA":"溪尾","LANE":" ","ALLEY":" ","HOUSE_NO":"９７７之７號","E_COORD97":177187.45999999999,"N_COORD97":2560057.6600000001,"ADDRESS":"溪尾９７７之７號","OBJECTID":119768},"geometry":{"x":177187.45999999996,"y":2560057.660000002}},{"attributes":{"ID":119769,"DIS_CODE":0,"TOWNNAME":"白河區","LI":"河東里","LIN":"4鄰","STREET":" ","SECT":" ","MAREA":"糞箕湖","LANE":" ","ALLEY":" ","HOUSE_NO":"６２之３６號","E_COORD97":192007.47,"N_COORD97":2582460.9100000001,"ADDRESS":"糞箕湖６２之３６號","OBJECTID":119769},"geometry":{"x":192007.47000000067,"y":2582460.9100000001}},{"attributes":{"ID":119770,"DIS_CODE":0,"TOWNNAME":"北區","LI":"大和里","LIN":"16鄰","STREET":"文賢路","SECT":" ","MAREA":" ","LANE":"７９９巷","ALLEY":"５８弄","HOUSE_NO":"２０號","E_COORD97":167159.16,"N_COORD97":2546327.5299999998,"ADDRESS":"文賢路７９９巷５８弄２０號","OBJECTID":119770},"geometry":{"x":167159.16000000015,"y":2546327.5299999993}},{"attributes":{"ID":119771,"DIS_CODE":0,"TOWNNAME":"白河區","LI":"河東里","LIN":"4鄰","STREET":" ","SECT":" ","MAREA":"糞箕湖","LANE":" ","ALLEY":" ","HOUSE_NO":"６２之３７號","E_COORD97":192003.59,"N_COORD97":2582461.6699999999,"ADDRESS":"糞箕湖６２之３７號","OBJECTID":119771},"geometry":{"x":192003.59000000078,"y":2582461.6699999999}},{"attributes":{"ID":119772,"DIS_CODE":0,"TOWNNAME":"白河區","LI":"河東里","LIN":"4鄰","STREET":" ","SECT":" ","MAREA":"糞箕湖","LANE":" ","ALLEY":" ","HOUSE_NO":"６２之３８號","E_COORD97":191999.35999999999,"N_COORD97":2582462.9399999999,"ADDRESS":"糞箕湖６２之３８號","OBJECTID":119772},"geometry":{"x":191999.36000000034,"y":2582462.9399999995}},{"attributes":{"ID":119773,"DIS_CODE":0,"TOWNNAME":"北區","LI":"大和里","LIN":"16鄰","STREET":"文賢路","SECT":" ","MAREA":" ","LANE":"７９９巷","ALLEY":"５８弄","HOUSE_NO":"２號","E_COORD97":167165.64000000001,"N_COORD97":2546290.75,"ADDRESS":"文賢路７９９巷５８弄２號","OBJECTID":119773},"geometry":{"x":167165.63999999966,"y":2546290.7500000037}},{"attributes":{"ID":119774,"DIS_CODE":0,"TOWNNAME":"白河區","LI":"河東里","LIN":"4鄰","STREET":" ","SECT":" ","MAREA":"糞箕湖","LANE":" ","ALLEY":" ","HOUSE_NO":"６２之３９號","E_COORD97":192002.47,"N_COORD97":2582475.9199999999,"ADDRESS":"糞箕湖６２之３９號","OBJECTID":119774},"geometry":{"x":192002.47000000067,"y":2582475.9200000018}},{"attributes":{"ID":119775,"DIS_CODE":0,"TOWNNAME":"白河區","LI":"河東里","LIN":"4鄰","STREET":" ","SECT":" ","MAREA":"糞箕湖","LANE":" ","ALLEY":" ","HOUSE_NO":"６２之４０號","E_COORD97":192003.07999999999,"N_COORD97":2582479.3599999999,"ADDRESS":"糞箕湖６２之４０號","OBJECTID":119775},"geometry":{"x":192003.08000000194,"y":2582479.3600000013}},{"attributes":{"ID":119776,"DIS_CODE":0,"TOWNNAME":"仁德區","LI":"仁義里","LIN":"35鄰","STREET":"勝利路","SECT":" ","MAREA":" ","LANE":" ","ALLEY":" ","HOUSE_NO":"７６號","E_COORD97":173708.45000000001,"N_COORD97":2539847.75,"ADDRESS":"勝利路７６號","OBJECTID":119776},"geometry":{"x":173708.45000000112,"y":2539847.75}},{"attributes":{"ID":119777,"DIS_CODE":0,"TOWNNAME":"白河區","LI":"河東里","LIN":"4鄰","STREET":" ","SECT":" ","MAREA":"糞箕湖","LANE":" ","ALLEY":" ","HOUSE_NO":"６２之４１號","E_COORD97":192003.69,"N_COORD97":2582482.7999999998,"ADDRESS":"糞箕湖６２之４１號","OBJECTID":119777},"geometry":{"x":192003.69000000041,"y":2582482.8000000007}},{"attributes":{"ID":119778,"DIS_CODE":0,"TOWNNAME":"白河區","LI":"河東里","LIN":"4鄰","STREET":" ","SECT":" ","MAREA":"糞箕湖","LANE":" ","ALLEY":" ","HOUSE_NO":"６２之４２號","E_COORD97":192004.29999999999,"N_COORD97":2582486.2400000002,"ADDRESS":"糞箕湖６２之４２號","OBJECTID":119778},"geometry":{"x":192004.29999999981,"y":2582486.2400000002}},{"attributes":{"ID":119779,"DIS_CODE":0,"TOWNNAME":"白河區","LI":"河東里","LIN":"4鄰","STREET":" ","SECT":" ","MAREA":"糞箕湖","LANE":" ","ALLEY":" ","HOUSE_NO":"６２之４３號","E_COORD97":192004.91,"N_COORD97":2582489.6800000002,"ADDRESS":"糞箕湖６２之４３號","OBJECTID":119779},"geometry":{"x":192004.91000000108,"y":2582489.6799999978}},{"attributes":{"ID":119780,"DIS_CODE":0,"TOWNNAME":"白河區","LI":"河東里","LIN":"4鄰","STREET":" ","SECT":" ","MAREA":"糞箕湖","LANE":" ","ALLEY":" ","HOUSE_NO":"６２之４９號","E_COORD97":192008.56,"N_COORD97":2582510.3399999999,"ADDRESS":"糞箕湖６２之４９號","OBJECTID":119780},"geometry":{"x":192008.56000000052,"y":2582510.3400000017}},{"attributes":{"ID":119781,"DIS_CODE":0,"TOWNNAME":"白河區","LI":"河東里","LIN":"4鄰","STREET":" ","SECT":" ","MAREA":"糞箕湖","LANE":" ","ALLEY":" ","HOUSE_NO":"６２之５６號","E_COORD97":191987.29000000001,"N_COORD97":2582467.1400000001,"ADDRESS":"糞箕湖６２之５６號","OBJECTID":119781},"geometry":{"x":191987.29000000004,"y":2582467.1400000006}},{"attributes":{"ID":119782,"DIS_CODE":0,"TOWNNAME":"白河區","LI":"河東里","LIN":"4鄰","STREET":" ","SECT":" ","MAREA":"糞箕湖","LANE":" ","ALLEY":" ","HOUSE_NO":"６２之５７號","E_COORD97":191983.38,"N_COORD97":2582466.6800000002,"ADDRESS":"糞箕湖６２之５７號","OBJECTID":119782},"geometry":{"x":191983.37999999989,"y":2582466.6800000016}},{"attributes":{"ID":119783,"DIS_CODE":0,"TOWNNAME":"白河區","LI":"河東里","LIN":"4鄰","STREET":" ","SECT":" ","MAREA":"糞箕湖","LANE":" ","ALLEY":" ","HOUSE_NO":"６３之１０號","E_COORD97":191784.82000000001,"N_COORD97":2582553.5899999999,"ADDRESS":"糞箕湖６３之１０號","OBJECTID":119783},"geometry":{"x":191784.82000000216,"y":2582553.5899999999}},{"attributes":{"ID":119784,"DIS_CODE":0,"TOWNNAME":"白河區","LI":"河東里","LIN":"4鄰","STREET":" ","SECT":" ","MAREA":"糞箕湖","LANE":" ","ALLEY":" ","HOUSE_NO":"６３之１４號","E_COORD97":191939.12,"N_COORD97":2582498.0800000001,"ADDRESS":"糞箕湖６３之１４號","OBJECTID":119784},"geometry":{"x":191939.12000000104,"y":2582498.0800000019}},{"attributes":{"ID":119785,"DIS_CODE":0,"TOWNNAME":"白河區","LI":"河東里","LIN":"4鄰","STREET":" ","SECT":" ","MAREA":"糞箕湖","LANE":" ","ALLEY":" ","HOUSE_NO":"６３之１５號","E_COORD97":191919.35999999999,"N_COORD97":2582525.29,"ADDRESS":"糞箕湖６３之１５號","OBJECTID":119785},"geometry":{"x":191919.36000000034,"y":2582525.2899999991}},{"attributes":{"ID":119786,"DIS_CODE":0,"TOWNNAME":"白河區","LI":"河東里","LIN":"4鄰","STREET":" ","SECT":" ","MAREA":"糞箕湖","LANE":" ","ALLEY":" ","HOUSE_NO":"６３之１９號","E_COORD97":191738.01999999999,"N_COORD97":2582543.8300000001,"ADDRESS":"糞箕湖６３之１９號","OBJECTID":119786},"geometry":{"x":191738.01999999955,"y":2582543.8300000038}},{"attributes":{"ID":119787,"DIS_CODE":0,"TOWNNAME":"白河區","LI":"河東里","LIN":"4鄰","STREET":" ","SECT":" ","MAREA":"糞箕湖","LANE":" ","ALLEY":" ","HOUSE_NO":"６３之１號","E_COORD97":192094.32999999999,"N_COORD97":2582506.52,"ADDRESS":"糞箕湖６３之１號","OBJECTID":119787},"geometry":{"x":192094.33000000007,"y":2582506.5199999996}},{"attributes":{"ID":119788,"DIS_CODE":0,"TOWNNAME":"白河區","LI":"河東里","LIN":"4鄰","STREET":" ","SECT":" ","MAREA":"糞箕湖","LANE":" ","ALLEY":" ","HOUSE_NO":"６３之２０號","E_COORD97":191721.78,"N_COORD97":2582569.2599999998,"ADDRESS":"糞箕湖６３之２０號","OBJECTID":119788},"geometry":{"x":191721.78000000026,"y":2582569.2599999998}},{"attributes":{"ID":119789,"DIS_CODE":0,"TOWNNAME":"仁德區","LI":"仁德里","LIN":"35鄰","STREET":"文山路","SECT":" ","MAREA":" ","LANE":" ","ALLEY":" ","HOUSE_NO":"４９號","E_COORD97":172858.73999999999,"N_COORD97":2541748.3300000001,"ADDRESS":"文山路４９號","OBJECTID":119789},"geometry":{"x":172858.74000000115,"y":2541748.3300000019}},{"attributes":{"ID":119790,"DIS_CODE":0,"TOWNNAME":"白河區","LI":"河東里","LIN":"4鄰","STREET":" ","SECT":" ","MAREA":"糞箕湖","LANE":" ","ALLEY":" ","HOUSE_NO":"６３之２１號","E_COORD97":191731.70000000001,"N_COORD97":2582544.7999999998,"ADDRESS":"糞箕湖６３之２１號","OBJECTID":119790},"geometry":{"x":191731.70000000112,"y":2582544.8000000026}},{"attributes":{"ID":119791,"DIS_CODE":0,"TOWNNAME":"白河區","LI":"河東里","LIN":"4鄰","STREET":" ","SECT":" ","MAREA":"糞箕湖","LANE":" ","ALLEY":" ","HOUSE_NO":"６３之２４號","E_COORD97":191683.03,"N_COORD97":2582570.2200000002,"ADDRESS":"糞箕湖６３之２４號","OBJECTID":119791},"geometry":{"x":191683.03000000026,"y":2582570.2200000025}},{"attributes":{"ID":119792,"DIS_CODE":0,"TOWNNAME":"白河區","LI":"河東里","LIN":"4鄰","STREET":" ","SECT":" ","MAREA":"糞箕湖","LANE":" ","ALLEY":" ","HOUSE_NO":"６３之２６號","E_COORD97":191654.87,"N_COORD97":2582584.1000000001,"ADDRESS":"糞箕湖６３之２６號","OBJECTID":119792},"geometry":{"x":191654.87000000011,"y":2582584.0999999996}},{"attributes":{"ID":119793,"DIS_CODE":0,"TOWNNAME":"白河區","LI":"河東里","LIN":"4鄰","STREET":" ","SECT":" ","MAREA":"糞箕湖","LANE":" ","ALLEY":" ","HOUSE_NO":"６３之２號","E_COORD97":192126.34,"N_COORD97":2582468.21,"ADDRESS":"糞箕湖６３之２號","OBJECTID":119793},"geometry":{"x":192126.33999999985,"y":2582468.2100000028}},{"attributes":{"ID":119794,"DIS_CODE":0,"TOWNNAME":"白河區","LI":"河東里","LIN":"4鄰","STREET":" ","SECT":" ","MAREA":"糞箕湖","LANE":" ","ALLEY":" ","HOUSE_NO":"６３之３５號","E_COORD97":192050.53,"N_COORD97":2582446.79,"ADDRESS":"糞箕湖６３之３５號","OBJECTID":119794},"geometry":{"x":192050.53000000026,"y":2582446.7899999991}},{"attributes":{"ID":119795,"DIS_CODE":0,"TOWNNAME":"善化區","LI":"小新里","LIN":"14鄰","STREET":" ","SECT":" ","MAREA":"小新營","LANE":" ","ALLEY":" ","HOUSE_NO":"１１１號之１３","E_COORD97":179768.38,"N_COORD97":2558008.9500000002,"ADDRESS":"小新營１１１號之１３","OBJECTID":119795},"geometry":{"x":179768.38000000175,"y":2558008.9499999974}},{"attributes":{"ID":119796,"DIS_CODE":0,"TOWNNAME":"善化區","LI":"胡厝里","LIN":"17鄰","STREET":" ","SECT":" ","MAREA":"西衛","LANE":" ","ALLEY":" ","HOUSE_NO":"７號之５","E_COORD97":174403.67999999999,"N_COORD97":2559467.4300000002,"ADDRESS":"西衛７號之５","OBJECTID":119796},"geometry":{"x":174403.6799999997,"y":2559467.4299999978}},{"attributes":{"ID":119797,"DIS_CODE":0,"TOWNNAME":"北區","LI":"大和里","LIN":"16鄰","STREET":"文賢路","SECT":" ","MAREA":" ","LANE":"７９９巷","ALLEY":"５８弄","HOUSE_NO":"３號","E_COORD97":167145.66,"N_COORD97":2546290.2200000002,"ADDRESS":"文賢路７９９巷５８弄３號","OBJECTID":119797},"geometry":{"x":167145.66000000015,"y":2546290.2200000007}},{"attributes":{"ID":119798,"DIS_CODE":0,"TOWNNAME":"北區","LI":"大和里","LIN":"16鄰","STREET":"文賢路","SECT":" ","MAREA":" ","LANE":"７９９巷","ALLEY":"５８弄","HOUSE_NO":"４號","E_COORD97":167164.60999999999,"N_COORD97":2546294.29,"ADDRESS":"文賢路７９９巷５８弄４號","OBJECTID":119798},"geometry":{"x":167164.61000000034,"y":2546294.290000001}},{"attributes":{"ID":119799,"DIS_CODE":0,"TOWNNAME":"北區","LI":"大和里","LIN":"16鄰","STREET":"文賢路","SECT":" ","MAREA":" ","LANE":"７９９巷","ALLEY":"５８弄","HOUSE_NO":"５號","E_COORD97":167144.92000000001,"N_COORD97":2546294.7999999998,"ADDRESS":"文賢路７９９巷５８弄５號","OBJECTID":119799},"geometry":{"x":167144.92000000086,"y":2546294.8000000045}},{"attributes":{"ID":119800,"DIS_CODE":0,"TOWNNAME":"北區","LI":"大和里","LIN":"16鄰","STREET":"文賢路","SECT":" ","MAREA":" ","LANE":"７９９巷","ALLEY":"５８弄","HOUSE_NO":"６號","E_COORD97":167164.67999999999,"N_COORD97":2546299.1400000001,"ADDRESS":"文賢路７９９巷５８弄６號","OBJECTID":119800},"geometry":{"x":167164.68000000063,"y":2546299.1400000043}}]}