{"displayFieldName":"TOWNNAME","fieldAliases":{"ID":"ID","DIS_CODE":"DIS_CODE","TOWNNAME":"TOWNNAME","LI":"LI","LIN":"LIN","STREET":"STREET","SECT":"SECT","MAREA":"MAREA","LANE":"LANE","ALLEY":"ALLEY","HOUSE_NO":"HOUSE_NO","E_COORD97":"E_COORD97","N_COORD97":"N_COORD97","ADDRESS":"ADDRESS","OBJECTID":"OBJECTID"},"geometryType":"esriGeometryPoint","spatialReference":{"wkid":102443,"latestWkid":3826},"fields":[{"name":"ID","type":"esriFieldTypeDouble","alias":"ID"},{"name":"DIS_CODE","type":"esriFieldTypeInteger","alias":"DIS_CODE"},{"name":"TOWNNAME","type":"esriFieldTypeString","alias":"TOWNNAME","length":8},{"name":"LI","type":"esriFieldTypeString","alias":"LI","length":8},{"name":"LIN","type":"esriFieldTypeString","alias":"LIN","length":12},{"name":"STREET","type":"esriFieldTypeString","alias":"STREET","length":20},{"name":"SECT","type":"esriFieldTypeString","alias":"SECT","length":8},{"name":"MAREA","type":"esriFieldTypeString","alias":"MAREA","length":12},{"name":"LANE","type":"esriFieldTypeString","alias":"LANE","length":10},{"name":"ALLEY","type":"esriFieldTypeString","alias":"ALLEY","length":10},{"name":"HOUSE_NO","type":"esriFieldTypeString","alias":"HOUSE_NO","length":20},{"name":"E_COORD97","type":"esriFieldTypeDouble","alias":"E_COORD97"},{"name":"N_COORD97","type":"esriFieldTypeDouble","alias":"N_COORD97"},{"name":"ADDRESS","type":"esriFieldTypeString","alias":"ADDRESS","length":50},{"name":"OBJECTID","type":"esriFieldTypeOID","alias":"OBJECTID"}],"features":[{"attributes":{"ID":293009,"DIS_CODE":0,"TOWNNAME":"安定區","LI":"港口里","LIN":"8鄰","STREET":" ","SECT":" ","MAREA":"港口","LANE":" ","ALLEY":" ","HOUSE_NO":"２９２之２號","E_COORD97":171417.59,"N_COORD97":2554612.2999999998,"ADDRESS":"港口２９２之２號","OBJECTID":293001},"geometry":{"x":171417.58999999985,"y":2554612.3000000026}},{"attributes":{"ID":293010,"DIS_CODE":0,"TOWNNAME":"安定區","LI":"南安里","LIN":"4鄰","STREET":" ","SECT":" ","MAREA":"油車","LANE":" ","ALLEY":" ","HOUSE_NO":"３８之１６號","E_COORD97":170701.19,"N_COORD97":2555523.2999999998,"ADDRESS":"油車３８之１６號","OBJECTID":293002},"geometry":{"x":170701.19000000134,"y":2555523.3000000045}},{"attributes":{"ID":293011,"DIS_CODE":0,"TOWNNAME":"東區","LI":"小東里","LIN":"19鄰","STREET":"東興路","SECT":" ","MAREA":" ","LANE":"３１４巷","ALLEY":" ","HOUSE_NO":"２８號四樓","E_COORD97":171102.32999999999,"N_COORD97":2544129.3100000001,"ADDRESS":"東興路３１４巷２８號四樓","OBJECTID":293003},"geometry":{"x":171102.33000000007,"y":2544129.3100000024}},{"attributes":{"ID":293012,"DIS_CODE":0,"TOWNNAME":"安平區","LI":"平安里","LIN":"8鄰","STREET":"安平路","SECT":" ","MAREA":" ","LANE":" ","ALLEY":" ","HOUSE_NO":"４２０號九樓之２","E_COORD97":165342.62,"N_COORD97":2544345.21,"ADDRESS":"安平路４２０號九樓之２","OBJECTID":293004},"geometry":{"x":165342.62000000197,"y":2544345.2100000009}},{"attributes":{"ID":293013,"DIS_CODE":0,"TOWNNAME":"新市區","LI":"新和里","LIN":"43鄰","STREET":"民權路","SECT":" ","MAREA":" ","LANE":"３１巷","ALLEY":" ","HOUSE_NO":"３號","E_COORD97":177383.87,"N_COORD97":2553048.04,"ADDRESS":"民權路３１巷３號","OBJECTID":293005},"geometry":{"x":177383.87000000104,"y":2553048.0399999972}},{"attributes":{"ID":293014,"DIS_CODE":0,"TOWNNAME":"新市區","LI":"新和里","LIN":"20鄰","STREET":"成功街","SECT":" ","MAREA":" ","LANE":"１９巷","ALLEY":" ","HOUSE_NO":"４號","E_COORD97":177431.37,"N_COORD97":2552635.77,"ADDRESS":"成功街１９巷４號","OBJECTID":293006},"geometry":{"x":177431.37000000104,"y":2552635.7699999996}},{"attributes":{"ID":293015,"DIS_CODE":0,"TOWNNAME":"新市區","LI":"潭頂里","LIN":"4鄰","STREET":" ","SECT":" ","MAREA":"潭頂","LANE":" ","ALLEY":" ","HOUSE_NO":"１９４之１號","E_COORD97":180866.26000000001,"N_COORD97":2552943.0499999998,"ADDRESS":"潭頂１９４之１號","OBJECTID":293007},"geometry":{"x":180866.26000000071,"y":2552943.0500000026}},{"attributes":{"ID":293016,"DIS_CODE":0,"TOWNNAME":"新市區","LI":"豐華里","LIN":"4鄰","STREET":" ","SECT":" ","MAREA":"豐華","LANE":" ","ALLEY":" ","HOUSE_NO":"２６之５號","E_COORD97":173765.73000000001,"N_COORD97":2554147.2999999998,"ADDRESS":"豐華２６之５號","OBJECTID":293008},"geometry":{"x":173765.73000000231,"y":2554147.3000000026}},{"attributes":{"ID":293017,"DIS_CODE":0,"TOWNNAME":"新市區","LI":"潭頂里","LIN":"5鄰","STREET":" ","SECT":" ","MAREA":"潭頂","LANE":" ","ALLEY":" ","HOUSE_NO":"２２９號","E_COORD97":180759.29000000001,"N_COORD97":2553072.7400000002,"ADDRESS":"潭頂２２９號","OBJECTID":293009},"geometry":{"x":180759.2900000019,"y":2553072.7400000021}},{"attributes":{"ID":293018,"DIS_CODE":0,"TOWNNAME":"新市區","LI":"新和里","LIN":"34鄰","STREET":"仁愛街","SECT":" ","MAREA":" ","LANE":"２０５巷","ALLEY":" ","HOUSE_NO":"２０號","E_COORD97":177527.64000000001,"N_COORD97":2552819.2799999998,"ADDRESS":"仁愛街２０５巷２０號","OBJECTID":293010},"geometry":{"x":177527.6400000006,"y":2552819.2799999993}},{"attributes":{"ID":293019,"DIS_CODE":0,"TOWNNAME":"新市區","LI":"新和里","LIN":"39鄰","STREET":"中正路","SECT":" ","MAREA":" ","LANE":"１９５巷","ALLEY":" ","HOUSE_NO":"８號","E_COORD97":177312.98000000001,"N_COORD97":2552898.75,"ADDRESS":"中正路１９５巷８號","OBJECTID":293011},"geometry":{"x":177312.98000000045,"y":2552898.7500000037}},{"attributes":{"ID":293020,"DIS_CODE":0,"TOWNNAME":"新市區","LI":"新和里","LIN":"26鄰","STREET":"永福街","SECT":" ","MAREA":" ","LANE":"１６巷","ALLEY":" ","HOUSE_NO":"１４號","E_COORD97":177788.67000000001,"N_COORD97":2552713,"ADDRESS":"永福街１６巷１４號","OBJECTID":293012},"geometry":{"x":177788.67000000086,"y":2552713}},{"attributes":{"ID":293021,"DIS_CODE":0,"TOWNNAME":"北區","LI":"文元里","LIN":"17鄰","STREET":"文成路","SECT":" ","MAREA":" ","LANE":"７５０巷","ALLEY":" ","HOUSE_NO":"２１９號","E_COORD97":167605.04999999999,"N_COORD97":2546170.7200000002,"ADDRESS":"文成路７５０巷２１９號","OBJECTID":293013},"geometry":{"x":167605.04999999981,"y":2546170.7200000025}},{"attributes":{"ID":293022,"DIS_CODE":0,"TOWNNAME":"新市區","LI":"潭頂里","LIN":"14鄰","STREET":" ","SECT":" ","MAREA":"潭頂","LANE":" ","ALLEY":" ","HOUSE_NO":"５５０之３號","E_COORD97":180051.67000000001,"N_COORD97":2552979.0499999998,"ADDRESS":"潭頂５５０之３號","OBJECTID":293014},"geometry":{"x":180051.67000000086,"y":2552979.0500000026}},{"attributes":{"ID":293023,"DIS_CODE":0,"TOWNNAME":"新市區","LI":"豐華里","LIN":"5鄰","STREET":" ","SECT":" ","MAREA":"豐華","LANE":" ","ALLEY":" ","HOUSE_NO":"４２之４號","E_COORD97":173846.26000000001,"N_COORD97":2554390.2999999998,"ADDRESS":"豐華４２之４號","OBJECTID":293015},"geometry":{"x":173846.26000000071,"y":2554390.3000000007}},{"attributes":{"ID":293024,"DIS_CODE":0,"TOWNNAME":"北區","LI":"文元里","LIN":"17鄰","STREET":"文成路","SECT":" ","MAREA":" ","LANE":"７５０巷","ALLEY":" ","HOUSE_NO":"２１７號","E_COORD97":167604.54000000001,"N_COORD97":2546165.3799999999,"ADDRESS":"文成路７５０巷２１７號","OBJECTID":293016},"geometry":{"x":167604.5400000019,"y":2546165.379999999}},{"attributes":{"ID":293025,"DIS_CODE":0,"TOWNNAME":"北區","LI":"文元里","LIN":"17鄰","STREET":"文成路","SECT":" ","MAREA":" ","LANE":"７５０巷","ALLEY":" ","HOUSE_NO":"２１３號","E_COORD97":167604.67000000001,"N_COORD97":2546159.8599999999,"ADDRESS":"文成路７５０巷２１３號","OBJECTID":293017},"geometry":{"x":167604.66999999993,"y":2546159.8599999994}},{"attributes":{"ID":293026,"DIS_CODE":0,"TOWNNAME":"北區","LI":"文元里","LIN":"17鄰","STREET":"文成路","SECT":" ","MAREA":" ","LANE":"７５０巷","ALLEY":" ","HOUSE_NO":"２２５號","E_COORD97":167604.59,"N_COORD97":2546186.3199999998,"ADDRESS":"文成路７５０巷２２５號","OBJECTID":293018},"geometry":{"x":167604.59000000078,"y":2546186.3200000022}},{"attributes":{"ID":293027,"DIS_CODE":0,"TOWNNAME":"北區","LI":"文元里","LIN":"17鄰","STREET":"文成路","SECT":" ","MAREA":" ","LANE":"７５０巷","ALLEY":" ","HOUSE_NO":"２２７號","E_COORD97":167604.45999999999,"N_COORD97":2546195.0800000001,"ADDRESS":"文成路７５０巷２２７號","OBJECTID":293019},"geometry":{"x":167604.45999999996,"y":2546195.0800000019}},{"attributes":{"ID":293028,"DIS_CODE":0,"TOWNNAME":"安平區","LI":"平安里","LIN":"8鄰","STREET":"安平路","SECT":" ","MAREA":" ","LANE":" ","ALLEY":" ","HOUSE_NO":"４２０號二樓之１","E_COORD97":165342.62,"N_COORD97":2544345.21,"ADDRESS":"安平路４２０號二樓之１","OBJECTID":293020},"geometry":{"x":165342.62000000197,"y":2544345.2100000009}},{"attributes":{"ID":293029,"DIS_CODE":0,"TOWNNAME":"安平區","LI":"平安里","LIN":"8鄰","STREET":"安平路","SECT":" ","MAREA":" ","LANE":" ","ALLEY":" ","HOUSE_NO":"４２０號二樓之２","E_COORD97":165342.62,"N_COORD97":2544345.21,"ADDRESS":"安平路４２０號二樓之２","OBJECTID":293021},"geometry":{"x":165342.62000000197,"y":2544345.2100000009}},{"attributes":{"ID":293030,"DIS_CODE":0,"TOWNNAME":"安平區","LI":"平安里","LIN":"8鄰","STREET":"安平路","SECT":" ","MAREA":" ","LANE":" ","ALLEY":" ","HOUSE_NO":"４２０號八樓之１","E_COORD97":165342.62,"N_COORD97":2544345.21,"ADDRESS":"安平路４２０號八樓之１","OBJECTID":293022},"geometry":{"x":165342.62000000197,"y":2544345.2100000009}},{"attributes":{"ID":293031,"DIS_CODE":0,"TOWNNAME":"安平區","LI":"平安里","LIN":"8鄰","STREET":"安平路","SECT":" ","MAREA":" ","LANE":" ","ALLEY":" ","HOUSE_NO":"４２０號八樓之２","E_COORD97":165342.62,"N_COORD97":2544345.21,"ADDRESS":"安平路４２０號八樓之２","OBJECTID":293023},"geometry":{"x":165342.62000000197,"y":2544345.2100000009}},{"attributes":{"ID":293032,"DIS_CODE":0,"TOWNNAME":"新市區","LI":"新市里","LIN":"26鄰","STREET":"復興路","SECT":" ","MAREA":" ","LANE":"６巷","ALLEY":" ","HOUSE_NO":"２３號","E_COORD97":177900.23000000001,"N_COORD97":2553362.0299999998,"ADDRESS":"復興路６巷２３號","OBJECTID":293024},"geometry":{"x":177900.23000000231,"y":2553362.0300000012}},{"attributes":{"ID":293033,"DIS_CODE":0,"TOWNNAME":"新市區","LI":"豐華里","LIN":"4鄰","STREET":" ","SECT":" ","MAREA":"豐華","LANE":" ","ALLEY":" ","HOUSE_NO":"２７之２號","E_COORD97":173774.39000000001,"N_COORD97":2554088.6099999999,"ADDRESS":"豐華２７之２號","OBJECTID":293025},"geometry":{"x":173774.3900000006,"y":2554088.6099999994}},{"attributes":{"ID":293034,"DIS_CODE":0,"TOWNNAME":"新市區","LI":"潭頂里","LIN":"4鄰","STREET":" ","SECT":" ","MAREA":"潭頂","LANE":" ","ALLEY":" ","HOUSE_NO":"２０３號","E_COORD97":180848.06,"N_COORD97":2553045,"ADDRESS":"潭頂２０３號","OBJECTID":293026},"geometry":{"x":180848.05999999959,"y":2553045}},{"attributes":{"ID":293035,"DIS_CODE":0,"TOWNNAME":"新市區","LI":"新和里","LIN":"39鄰","STREET":"中正路","SECT":" ","MAREA":" ","LANE":"１９５巷","ALLEY":" ","HOUSE_NO":"３號","E_COORD97":177389.79000000001,"N_COORD97":2552915.25,"ADDRESS":"中正路１９５巷３號","OBJECTID":293027},"geometry":{"x":177389.79000000097,"y":2552915.2499999981}},{"attributes":{"ID":293036,"DIS_CODE":0,"TOWNNAME":"新市區","LI":"潭頂里","LIN":"4鄰","STREET":" ","SECT":" ","MAREA":"潭頂","LANE":" ","ALLEY":" ","HOUSE_NO":"２０５號","E_COORD97":180863.70000000001,"N_COORD97":2553078.5,"ADDRESS":"潭頂２０５號","OBJECTID":293028},"geometry":{"x":180863.70000000112,"y":2553078.5}},{"attributes":{"ID":293037,"DIS_CODE":0,"TOWNNAME":"新市區","LI":"豐華里","LIN":"5鄰","STREET":" ","SECT":" ","MAREA":"豐華","LANE":" ","ALLEY":" ","HOUSE_NO":"４１號","E_COORD97":173797.79000000001,"N_COORD97":2554380,"ADDRESS":"豐華４１號","OBJECTID":293029},"geometry":{"x":173797.79000000097,"y":2554380.0000000019}},{"attributes":{"ID":293038,"DIS_CODE":0,"TOWNNAME":"新市區","LI":"新和里","LIN":"39鄰","STREET":"中正路","SECT":" ","MAREA":" ","LANE":"１９５巷","ALLEY":" ","HOUSE_NO":"１０號","E_COORD97":177308.98999999999,"N_COORD97":2552898,"ADDRESS":"中正路１９５巷１０號","OBJECTID":293030},"geometry":{"x":177308.99000000115,"y":2552898.0000000019}},{"attributes":{"ID":293039,"DIS_CODE":0,"TOWNNAME":"新市區","LI":"潭頂里","LIN":"5鄰","STREET":" ","SECT":" ","MAREA":"潭頂","LANE":" ","ALLEY":" ","HOUSE_NO":"２３３之１號","E_COORD97":180723.64000000001,"N_COORD97":2553045.5499999998,"ADDRESS":"潭頂２３３之１號","OBJECTID":293031},"geometry":{"x":180723.63999999966,"y":2553045.5500000007}},{"attributes":{"ID":293040,"DIS_CODE":0,"TOWNNAME":"新市區","LI":"新市里","LIN":"5鄰","STREET":"華興街","SECT":" ","MAREA":" ","LANE":"７２巷","ALLEY":" ","HOUSE_NO":"１６號","E_COORD97":177601.64000000001,"N_COORD97":2553033.25,"ADDRESS":"華興街７２巷１６號","OBJECTID":293032},"geometry":{"x":177601.64000000153,"y":2553033.25}},{"attributes":{"ID":293041,"DIS_CODE":0,"TOWNNAME":"新市區","LI":"新市里","LIN":"25鄰","STREET":"復興路","SECT":" ","MAREA":" ","LANE":"６巷","ALLEY":" ","HOUSE_NO":"８號","E_COORD97":177853.03,"N_COORD97":2553329.0299999998,"ADDRESS":"復興路６巷８號","OBJECTID":293033},"geometry":{"x":177853.03000000119,"y":2553329.0299999993}},{"attributes":{"ID":293042,"DIS_CODE":0,"TOWNNAME":"新市區","LI":"新市里","LIN":"25鄰","STREET":"復興路","SECT":" ","MAREA":" ","LANE":"６巷","ALLEY":" ","HOUSE_NO":"１４號","E_COORD97":177865.12,"N_COORD97":2553335.2799999998,"ADDRESS":"復興路６巷１４號","OBJECTID":293034},"geometry":{"x":177865.12000000197,"y":2553335.2800000031}},{"attributes":{"ID":293043,"DIS_CODE":0,"TOWNNAME":"新市區","LI":"新和里","LIN":"20鄰","STREET":"成功街","SECT":" ","MAREA":" ","LANE":"２巷","ALLEY":" ","HOUSE_NO":"１號","E_COORD97":177483.62,"N_COORD97":2552575.02,"ADDRESS":"成功街２巷１號","OBJECTID":293035},"geometry":{"x":177483.62000000197,"y":2552575.0200000014}},{"attributes":{"ID":293044,"DIS_CODE":0,"TOWNNAME":"北區","LI":"文元里","LIN":"17鄰","STREET":"文成路","SECT":" ","MAREA":" ","LANE":"７５０巷","ALLEY":" ","HOUSE_NO":"２３５號","E_COORD97":167604.20999999999,"N_COORD97":2546222,"ADDRESS":"文成路７５０巷２３５號","OBJECTID":293036},"geometry":{"x":167604.20999999996,"y":2546222.0000000019}},{"attributes":{"ID":293045,"DIS_CODE":0,"TOWNNAME":"安平區","LI":"平安里","LIN":"8鄰","STREET":"安平路","SECT":" ","MAREA":" ","LANE":" ","ALLEY":" ","HOUSE_NO":"４２０號十一樓之１","E_COORD97":165342.62,"N_COORD97":2544345.21,"ADDRESS":"安平路４２０號十一樓之１","OBJECTID":293037},"geometry":{"x":165342.62000000197,"y":2544345.2100000009}},{"attributes":{"ID":293046,"DIS_CODE":0,"TOWNNAME":"安平區","LI":"平安里","LIN":"8鄰","STREET":"安平路","SECT":" ","MAREA":" ","LANE":" ","ALLEY":" ","HOUSE_NO":"４２０號十一樓之２","E_COORD97":165342.62,"N_COORD97":2544345.21,"ADDRESS":"安平路４２０號十一樓之２","OBJECTID":293038},"geometry":{"x":165342.62000000197,"y":2544345.2100000009}},{"attributes":{"ID":293047,"DIS_CODE":0,"TOWNNAME":"安平區","LI":"平安里","LIN":"8鄰","STREET":"安平路","SECT":" ","MAREA":" ","LANE":" ","ALLEY":" ","HOUSE_NO":"４２０號十二樓之１","E_COORD97":165342.62,"N_COORD97":2544345.21,"ADDRESS":"安平路４２０號十二樓之１","OBJECTID":293039},"geometry":{"x":165342.62000000197,"y":2544345.2100000009}},{"attributes":{"ID":293048,"DIS_CODE":0,"TOWNNAME":"安平區","LI":"平安里","LIN":"8鄰","STREET":"安平路","SECT":" ","MAREA":" ","LANE":" ","ALLEY":" ","HOUSE_NO":"４２０號十二樓之２","E_COORD97":165342.62,"N_COORD97":2544345.21,"ADDRESS":"安平路４２０號十二樓之２","OBJECTID":293040},"geometry":{"x":165342.62000000197,"y":2544345.2100000009}},{"attributes":{"ID":293049,"DIS_CODE":0,"TOWNNAME":"安平區","LI":"平安里","LIN":"8鄰","STREET":"安平路","SECT":" ","MAREA":" ","LANE":" ","ALLEY":" ","HOUSE_NO":"４２０號十三樓之１","E_COORD97":165342.62,"N_COORD97":2544345.21,"ADDRESS":"安平路４２０號十三樓之１","OBJECTID":293041},"geometry":{"x":165342.62000000197,"y":2544345.2100000009}},{"attributes":{"ID":293050,"DIS_CODE":0,"TOWNNAME":"安平區","LI":"平安里","LIN":"8鄰","STREET":"安平路","SECT":" ","MAREA":" ","LANE":" ","ALLEY":" ","HOUSE_NO":"４２０號十三樓之２","E_COORD97":165342.62,"N_COORD97":2544345.21,"ADDRESS":"安平路４２０號十三樓之２","OBJECTID":293042},"geometry":{"x":165342.62000000197,"y":2544345.2100000009}},{"attributes":{"ID":293051,"DIS_CODE":0,"TOWNNAME":"新市區","LI":"新和里","LIN":"42鄰","STREET":"勝利街","SECT":" ","MAREA":" ","LANE":"１２巷","ALLEY":" ","HOUSE_NO":"１１號","E_COORD97":177370.64999999999,"N_COORD97":2552993.5099999998,"ADDRESS":"勝利街１２巷１１號","OBJECTID":293043},"geometry":{"x":177370.6500000013,"y":2552993.5099999998}},{"attributes":{"ID":293052,"DIS_CODE":0,"TOWNNAME":"新市區","LI":"新和里","LIN":"18鄰","STREET":"銘傳街","SECT":" ","MAREA":" ","LANE":"３０巷","ALLEY":" ","HOUSE_NO":"１０號","E_COORD97":177509.39999999999,"N_COORD97":2552705,"ADDRESS":"銘傳街３０巷１０號","OBJECTID":293044},"geometry":{"x":177509.4000000013,"y":2552705.0000000019}},{"attributes":{"ID":293053,"DIS_CODE":0,"TOWNNAME":"新市區","LI":"新市里","LIN":"5鄰","STREET":"華興街","SECT":" ","MAREA":" ","LANE":"７２巷","ALLEY":" ","HOUSE_NO":"６號","E_COORD97":177600.48000000001,"N_COORD97":2553012,"ADDRESS":"華興街７２巷６號","OBJECTID":293045},"geometry":{"x":177600.48000000138,"y":2553011.9999999981}},{"attributes":{"ID":293054,"DIS_CODE":0,"TOWNNAME":"永康區","LI":"正強里","LIN":"4鄰","STREET":"中正路","SECT":" ","MAREA":" ","LANE":"５５巷","ALLEY":" ","HOUSE_NO":"３１號","E_COORD97":173561.53,"N_COORD97":2547713.7400000002,"ADDRESS":"中正路５５巷３１號","OBJECTID":293046},"geometry":{"x":173561.53000000026,"y":2547713.7400000002}},{"attributes":{"ID":293055,"DIS_CODE":0,"TOWNNAME":"永康區","LI":"正強里","LIN":"4鄰","STREET":"中正路","SECT":" ","MAREA":" ","LANE":"５５巷","ALLEY":" ","HOUSE_NO":"２５號","E_COORD97":173555.28,"N_COORD97":2547740.4900000002,"ADDRESS":"中正路５５巷２５號","OBJECTID":293047},"geometry":{"x":173555.28000000119,"y":2547740.4900000039}},{"attributes":{"ID":293056,"DIS_CODE":0,"TOWNNAME":"永康區","LI":"正強里","LIN":"4鄰","STREET":"中正路","SECT":" ","MAREA":" ","LANE":"５５巷","ALLEY":" ","HOUSE_NO":"２９號","E_COORD97":173563.16,"N_COORD97":2547721.4900000002,"ADDRESS":"中正路５５巷２９號","OBJECTID":293048},"geometry":{"x":173563.16000000108,"y":2547721.4900000021}},{"attributes":{"ID":293057,"DIS_CODE":0,"TOWNNAME":"永康區","LI":"正強里","LIN":"4鄰","STREET":"中正路","SECT":" ","MAREA":" ","LANE":"５５巷","ALLEY":" ","HOUSE_NO":"１號","E_COORD97":173592.98000000001,"N_COORD97":2547766.5499999998,"ADDRESS":"中正路５５巷１號","OBJECTID":293049},"geometry":{"x":173592.98000000138,"y":2547766.5500000007}},{"attributes":{"ID":293058,"DIS_CODE":0,"TOWNNAME":"永康區","LI":"北灣里","LIN":"18鄰","STREET":"文賢街","SECT":" ","MAREA":" ","LANE":"４２２巷","ALLEY":" ","HOUSE_NO":"２５號","E_COORD97":174645.88,"N_COORD97":2545880.6699999999,"ADDRESS":"文賢街４２２巷２５號","OBJECTID":293050},"geometry":{"x":174645.88000000082,"y":2545880.6699999999}},{"attributes":{"ID":293059,"DIS_CODE":0,"TOWNNAME":"永康區","LI":"北灣里","LIN":"20鄰","STREET":"大安街","SECT":" ","MAREA":" ","LANE":"４５０巷","ALLEY":" ","HOUSE_NO":"３６號","E_COORD97":174698.92000000001,"N_COORD97":2545977.7599999998,"ADDRESS":"大安街４５０巷３６號","OBJECTID":293051},"geometry":{"x":174698.91999999993,"y":2545977.7599999998}},{"attributes":{"ID":293060,"DIS_CODE":0,"TOWNNAME":"北區","LI":"六甲里","LIN":"12鄰","STREET":"和緯路","SECT":"二段","MAREA":" ","LANE":"３０巷","ALLEY":" ","HOUSE_NO":"１２號","E_COORD97":169044.42999999999,"N_COORD97":2545740.7200000002,"ADDRESS":"和緯路二段３０巷１２號","OBJECTID":293052},"geometry":{"x":169044.43000000063,"y":2545740.7200000007}},{"attributes":{"ID":293061,"DIS_CODE":0,"TOWNNAME":"北區","LI":"大豐里","LIN":"17鄰","STREET":"和緯路","SECT":"四段","MAREA":" ","LANE":"９５巷","ALLEY":" ","HOUSE_NO":"１０號","E_COORD97":167106.38,"N_COORD97":2545448.3100000001,"ADDRESS":"和緯路四段９５巷１０號","OBJECTID":293053},"geometry":{"x":167106.37999999989,"y":2545448.3100000024}},{"attributes":{"ID":293062,"DIS_CODE":0,"TOWNNAME":"北區","LI":"大豐里","LIN":"17鄰","STREET":"和緯路","SECT":"四段","MAREA":" ","LANE":"９５巷","ALLEY":" ","HOUSE_NO":"１２號","E_COORD97":167105.67999999999,"N_COORD97":2545444.8100000001,"ADDRESS":"和緯路四段９５巷１２號","OBJECTID":293054},"geometry":{"x":167105.6799999997,"y":2545444.8100000024}},{"attributes":{"ID":293063,"DIS_CODE":0,"TOWNNAME":"安平區","LI":"平安里","LIN":"8鄰","STREET":"安平路","SECT":" ","MAREA":" ","LANE":" ","ALLEY":" ","HOUSE_NO":"４２０號十樓之１","E_COORD97":165342.62,"N_COORD97":2544345.21,"ADDRESS":"安平路４２０號十樓之１","OBJECTID":293055},"geometry":{"x":165342.62000000197,"y":2544345.2100000009}},{"attributes":{"ID":293064,"DIS_CODE":0,"TOWNNAME":"安平區","LI":"平安里","LIN":"8鄰","STREET":"安平路","SECT":" ","MAREA":" ","LANE":" ","ALLEY":" ","HOUSE_NO":"４２０號十樓之２","E_COORD97":165342.62,"N_COORD97":2544345.21,"ADDRESS":"安平路４２０號十樓之２","OBJECTID":293056},"geometry":{"x":165342.62000000197,"y":2544345.2100000009}},{"attributes":{"ID":293065,"DIS_CODE":0,"TOWNNAME":"仁德區","LI":"太子里","LIN":"17鄰","STREET":"長興四街","SECT":" ","MAREA":" ","LANE":" ","ALLEY":" ","HOUSE_NO":"４３號","E_COORD97":174006.51902099999,"N_COORD97":2543602.2689800002,"ADDRESS":"長興四街４３號","OBJECTID":293057},"geometry":{"x":174006.51902100164,"y":2543602.2689820025}},{"attributes":{"ID":293066,"DIS_CODE":0,"TOWNNAME":"安平區","LI":"平安里","LIN":"8鄰","STREET":"安平路","SECT":" ","MAREA":" ","LANE":" ","ALLEY":" ","HOUSE_NO":"４２０號三樓之１","E_COORD97":165342.62,"N_COORD97":2544345.21,"ADDRESS":"安平路４２０號三樓之１","OBJECTID":293058},"geometry":{"x":165342.62000000197,"y":2544345.2100000009}},{"attributes":{"ID":293067,"DIS_CODE":0,"TOWNNAME":"安平區","LI":"平安里","LIN":"8鄰","STREET":"安平路","SECT":" ","MAREA":" ","LANE":" ","ALLEY":" ","HOUSE_NO":"４２０號三樓之２","E_COORD97":165342.62,"N_COORD97":2544345.21,"ADDRESS":"安平路４２０號三樓之２","OBJECTID":293059},"geometry":{"x":165342.62000000197,"y":2544345.2100000009}},{"attributes":{"ID":293068,"DIS_CODE":0,"TOWNNAME":"安平區","LI":"平安里","LIN":"8鄰","STREET":"安平路","SECT":" ","MAREA":" ","LANE":" ","ALLEY":" ","HOUSE_NO":"４２０號五樓之１","E_COORD97":165342.62,"N_COORD97":2544345.21,"ADDRESS":"安平路４２０號五樓之１","OBJECTID":293060},"geometry":{"x":165342.62000000197,"y":2544345.2100000009}},{"attributes":{"ID":293069,"DIS_CODE":0,"TOWNNAME":"安平區","LI":"平安里","LIN":"8鄰","STREET":"安平路","SECT":" ","MAREA":" ","LANE":" ","ALLEY":" ","HOUSE_NO":"４２０號五樓之２","E_COORD97":165342.62,"N_COORD97":2544345.21,"ADDRESS":"安平路４２０號五樓之２","OBJECTID":293061},"geometry":{"x":165342.62000000197,"y":2544345.2100000009}},{"attributes":{"ID":293070,"DIS_CODE":0,"TOWNNAME":"安平區","LI":"平安里","LIN":"8鄰","STREET":"安平路","SECT":" ","MAREA":" ","LANE":" ","ALLEY":" ","HOUSE_NO":"４２０號六樓之１","E_COORD97":165342.62,"N_COORD97":2544345.21,"ADDRESS":"安平路４２０號六樓之１","OBJECTID":293062},"geometry":{"x":165342.62000000197,"y":2544345.2100000009}},{"attributes":{"ID":293071,"DIS_CODE":0,"TOWNNAME":"安平區","LI":"平安里","LIN":"8鄰","STREET":"安平路","SECT":" ","MAREA":" ","LANE":" ","ALLEY":" ","HOUSE_NO":"４２０號六樓之２","E_COORD97":165342.62,"N_COORD97":2544345.21,"ADDRESS":"安平路４２０號六樓之２","OBJECTID":293063},"geometry":{"x":165342.62000000197,"y":2544345.2100000009}},{"attributes":{"ID":293072,"DIS_CODE":0,"TOWNNAME":"永康區","LI":"北灣里","LIN":"20鄰","STREET":"大安街","SECT":" ","MAREA":" ","LANE":"４６８巷","ALLEY":" ","HOUSE_NO":"１３號","E_COORD97":174635.92999999999,"N_COORD97":2545934.3199999998,"ADDRESS":"大安街４６８巷１３號","OBJECTID":293064},"geometry":{"x":174635.9299999997,"y":2545934.3199999984}},{"attributes":{"ID":293073,"DIS_CODE":0,"TOWNNAME":"永康區","LI":"北灣里","LIN":"39鄰","STREET":"大同街","SECT":" ","MAREA":" ","LANE":"７４０巷","ALLEY":" ","HOUSE_NO":"７２號","E_COORD97":174692.42000000001,"N_COORD97":2546661.9700000002,"ADDRESS":"大同街７４０巷７２號","OBJECTID":293065},"geometry":{"x":174692.41999999993,"y":2546661.9700000007}},{"attributes":{"ID":293074,"DIS_CODE":0,"TOWNNAME":"永康區","LI":"正強里","LIN":"4鄰","STREET":"中正路","SECT":" ","MAREA":" ","LANE":"５５巷","ALLEY":" ","HOUSE_NO":"１１號","E_COORD97":173577.54999999999,"N_COORD97":2547750.29,"ADDRESS":"中正路５５巷１１號","OBJECTID":293066},"geometry":{"x":173577.54999999981,"y":2547750.2899999991}},{"attributes":{"ID":293075,"DIS_CODE":0,"TOWNNAME":"永康區","LI":"北灣里","LIN":"4鄰","STREET":"信義街","SECT":" ","MAREA":" ","LANE":"４４巷","ALLEY":" ","HOUSE_NO":"２２號","E_COORD97":175488.32000000001,"N_COORD97":2545732.4100000001,"ADDRESS":"信義街４４巷２２號","OBJECTID":293067},"geometry":{"x":175488.3200000003,"y":2545732.4100000001}},{"attributes":{"ID":293076,"DIS_CODE":0,"TOWNNAME":"永康區","LI":"北灣里","LIN":"38鄰","STREET":"大灣路","SECT":" ","MAREA":" ","LANE":"４０巷","ALLEY":" ","HOUSE_NO":"１５１號","E_COORD97":174912.10999999999,"N_COORD97":2546240.77,"ADDRESS":"大灣路４０巷１５１號","OBJECTID":293068},"geometry":{"x":174912.11000000034,"y":2546240.7700000014}},{"attributes":{"ID":293077,"DIS_CODE":0,"TOWNNAME":"永康區","LI":"北灣里","LIN":"18鄰","STREET":"大安街","SECT":" ","MAREA":" ","LANE":"４５０巷","ALLEY":" ","HOUSE_NO":"２號","E_COORD97":174605.20000000001,"N_COORD97":2545892.6400000001,"ADDRESS":"大安街４５０巷２號","OBJECTID":293069},"geometry":{"x":174605.20000000112,"y":2545892.6400000025}},{"attributes":{"ID":293078,"DIS_CODE":0,"TOWNNAME":"永康區","LI":"北灣里","LIN":"20鄰","STREET":"大安街","SECT":" ","MAREA":" ","LANE":"４５０巷","ALLEY":" ","HOUSE_NO":"１３號","E_COORD97":174660.32000000001,"N_COORD97":2545944.8599999999,"ADDRESS":"大安街４５０巷１３號","OBJECTID":293070},"geometry":{"x":174660.32000000123,"y":2545944.8600000013}},{"attributes":{"ID":293079,"DIS_CODE":0,"TOWNNAME":"永康區","LI":"正強里","LIN":"4鄰","STREET":"中正路","SECT":" ","MAREA":" ","LANE":"５５巷","ALLEY":" ","HOUSE_NO":"２７號","E_COORD97":173557.41,"N_COORD97":2547730.7400000002,"ADDRESS":"中正路５５巷２７號","OBJECTID":293071},"geometry":{"x":173557.41000000201,"y":2547730.7400000002}},{"attributes":{"ID":293080,"DIS_CODE":0,"TOWNNAME":"永康區","LI":"北灣里","LIN":"39鄰","STREET":"大同街","SECT":" ","MAREA":" ","LANE":"７４０巷","ALLEY":" ","HOUSE_NO":"５６號","E_COORD97":174662.35999999999,"N_COORD97":2546652.7200000002,"ADDRESS":"大同街７４０巷５６號","OBJECTID":293072},"geometry":{"x":174662.36000000034,"y":2546652.7200000007}},{"attributes":{"ID":293081,"DIS_CODE":0,"TOWNNAME":"北區","LI":"文元里","LIN":"17鄰","STREET":"文賢路","SECT":" ","MAREA":" ","LANE":"１０３０巷","ALLEY":" ","HOUSE_NO":"２７號","E_COORD97":167491.89999999999,"N_COORD97":2546087.7400000002,"ADDRESS":"文賢路１０３０巷２７號","OBJECTID":293073},"geometry":{"x":167491.90000000037,"y":2546087.7400000039}},{"attributes":{"ID":293082,"DIS_CODE":0,"TOWNNAME":"永康區","LI":"復華里","LIN":"17鄰","STREET":"國華街","SECT":" ","MAREA":" ","LANE":"１０２巷","ALLEY":" ","HOUSE_NO":"６７號八樓之３","E_COORD97":172887.82000000001,"N_COORD97":2546139.23,"ADDRESS":"國華街１０２巷６７號八樓之３","OBJECTID":293074},"geometry":{"x":172887.8200000003,"y":2546139.2300000023}},{"attributes":{"ID":293083,"DIS_CODE":0,"TOWNNAME":"仁德區","LI":"太子里","LIN":"17鄰","STREET":"太興路","SECT":" ","MAREA":" ","LANE":"１１７巷","ALLEY":" ","HOUSE_NO":"２１號五樓","E_COORD97":174022.04999999999,"N_COORD97":2543574.25,"ADDRESS":"太興路１１７巷２１號五樓","OBJECTID":293075},"geometry":{"x":174022.04999999888,"y":2543574.25}},{"attributes":{"ID":293084,"DIS_CODE":0,"TOWNNAME":"中西區","LI":"開山里","LIN":"17鄰","STREET":"大同路","SECT":"一段","MAREA":" ","LANE":"７０巷","ALLEY":" ","HOUSE_NO":"１１號一樓","E_COORD97":169095.07000000001,"N_COORD97":2543035.8700000001,"ADDRESS":"大同路一段７０巷１１號一樓","OBJECTID":293076},"geometry":{"x":169095.07000000123,"y":2543035.870000001}},{"attributes":{"ID":293085,"DIS_CODE":0,"TOWNNAME":"安平區","LI":"平安里","LIN":"8鄰","STREET":"安平路","SECT":" ","MAREA":" ","LANE":" ","ALLEY":" ","HOUSE_NO":"４２０號四樓之１","E_COORD97":165342.62,"N_COORD97":2544345.21,"ADDRESS":"安平路４２０號四樓之１","OBJECTID":293077},"geometry":{"x":165342.62000000197,"y":2544345.2100000009}},{"attributes":{"ID":293086,"DIS_CODE":0,"TOWNNAME":"安平區","LI":"平安里","LIN":"8鄰","STREET":"安平路","SECT":" ","MAREA":" ","LANE":" ","ALLEY":" ","HOUSE_NO":"４２０號四樓之２","E_COORD97":165342.62,"N_COORD97":2544345.21,"ADDRESS":"安平路４２０號四樓之２","OBJECTID":293078},"geometry":{"x":165342.62000000197,"y":2544345.2100000009}},{"attributes":{"ID":293087,"DIS_CODE":0,"TOWNNAME":"安平區","LI":"平安里","LIN":"8鄰","STREET":"安平路","SECT":" ","MAREA":" ","LANE":" ","ALLEY":" ","HOUSE_NO":"４２２號七樓","E_COORD97":165338.20000000001,"N_COORD97":2544324.79,"ADDRESS":"安平路４２２號七樓","OBJECTID":293079},"geometry":{"x":165338.20000000019,"y":2544324.7899999991}},{"attributes":{"ID":293088,"DIS_CODE":0,"TOWNNAME":"安平區","LI":"平安里","LIN":"8鄰","STREET":"安平路","SECT":" ","MAREA":" ","LANE":" ","ALLEY":" ","HOUSE_NO":"４２２號九樓","E_COORD97":165338.20000000001,"N_COORD97":2544324.79,"ADDRESS":"安平路４２２號九樓","OBJECTID":293080},"geometry":{"x":165338.20000000019,"y":2544324.7899999991}},{"attributes":{"ID":293089,"DIS_CODE":0,"TOWNNAME":"安平區","LI":"平安里","LIN":"8鄰","STREET":"安平路","SECT":" ","MAREA":" ","LANE":" ","ALLEY":" ","HOUSE_NO":"４２２號八樓","E_COORD97":165338.20000000001,"N_COORD97":2544324.79,"ADDRESS":"安平路４２２號八樓","OBJECTID":293081},"geometry":{"x":165338.20000000019,"y":2544324.7899999991}},{"attributes":{"ID":293090,"DIS_CODE":0,"TOWNNAME":"安平區","LI":"平安里","LIN":"8鄰","STREET":"安平路","SECT":" ","MAREA":" ","LANE":" ","ALLEY":" ","HOUSE_NO":"４２２號十一樓","E_COORD97":165338.20000000001,"N_COORD97":2544324.79,"ADDRESS":"安平路４２２號十一樓","OBJECTID":293082},"geometry":{"x":165338.20000000019,"y":2544324.7899999991}},{"attributes":{"ID":293091,"DIS_CODE":0,"TOWNNAME":"安平區","LI":"平安里","LIN":"8鄰","STREET":"安平路","SECT":" ","MAREA":" ","LANE":" ","ALLEY":" ","HOUSE_NO":"４２２號十二樓","E_COORD97":165338.20000000001,"N_COORD97":2544324.79,"ADDRESS":"安平路４２２號十二樓","OBJECTID":293083},"geometry":{"x":165338.20000000019,"y":2544324.7899999991}},{"attributes":{"ID":293092,"DIS_CODE":0,"TOWNNAME":"安平區","LI":"平安里","LIN":"8鄰","STREET":"安平路","SECT":" ","MAREA":" ","LANE":" ","ALLEY":" ","HOUSE_NO":"４２２號十三樓","E_COORD97":165338.20000000001,"N_COORD97":2544324.79,"ADDRESS":"安平路４２２號十三樓","OBJECTID":293084},"geometry":{"x":165338.20000000019,"y":2544324.7899999991}},{"attributes":{"ID":293093,"DIS_CODE":0,"TOWNNAME":"安平區","LI":"平安里","LIN":"8鄰","STREET":"安平路","SECT":" ","MAREA":" ","LANE":" ","ALLEY":" ","HOUSE_NO":"４２２號十樓","E_COORD97":165338.20000000001,"N_COORD97":2544324.79,"ADDRESS":"安平路４２２號十樓","OBJECTID":293085},"geometry":{"x":165338.20000000019,"y":2544324.7899999991}},{"attributes":{"ID":293094,"DIS_CODE":0,"TOWNNAME":"永康區","LI":"北灣里","LIN":"20鄰","STREET":"大安街","SECT":" ","MAREA":" ","LANE":"４５０巷","ALLEY":" ","HOUSE_NO":"３０號","E_COORD97":174694.07999999999,"N_COORD97":2545962.8799999999,"ADDRESS":"大安街４５０巷３０號","OBJECTID":293086},"geometry":{"x":174694.08000000101,"y":2545962.879999999}},{"attributes":{"ID":293095,"DIS_CODE":0,"TOWNNAME":"永康區","LI":"北灣里","LIN":"20鄰","STREET":"北興路","SECT":" ","MAREA":" ","LANE":"３２巷","ALLEY":" ","HOUSE_NO":"１５號","E_COORD97":174673.85000000001,"N_COORD97":2545991.5699999998,"ADDRESS":"北興路３２巷１５號","OBJECTID":293087},"geometry":{"x":174673.84999999963,"y":2545991.5700000022}},{"attributes":{"ID":293096,"DIS_CODE":0,"TOWNNAME":"永康區","LI":"北灣里","LIN":"20鄰","STREET":"大安街","SECT":" ","MAREA":" ","LANE":"４５０巷","ALLEY":" ","HOUSE_NO":"９號","E_COORD97":174644.64999999999,"N_COORD97":2545929.8199999998,"ADDRESS":"大安街４５０巷９號","OBJECTID":293088},"geometry":{"x":174644.6500000013,"y":2545929.8200000003}},{"attributes":{"ID":293097,"DIS_CODE":0,"TOWNNAME":"永康區","LI":"北灣里","LIN":"20鄰","STREET":"大安街","SECT":" ","MAREA":" ","LANE":"４５０巷","ALLEY":" ","HOUSE_NO":"１１號","E_COORD97":174657.45999999999,"N_COORD97":2545940.3599999999,"ADDRESS":"大安街４５０巷１１號","OBJECTID":293089},"geometry":{"x":174657.46000000089,"y":2545940.3600000031}},{"attributes":{"ID":293098,"DIS_CODE":0,"TOWNNAME":"永康區","LI":"北灣里","LIN":"38鄰","STREET":"大灣路","SECT":" ","MAREA":" ","LANE":"４０巷","ALLEY":" ","HOUSE_NO":"２０５號","E_COORD97":174813.38,"N_COORD97":2546333.4500000002,"ADDRESS":"大灣路４０巷２０５號","OBJECTID":293090},"geometry":{"x":174813.38000000175,"y":2546333.4500000011}},{"attributes":{"ID":293099,"DIS_CODE":0,"TOWNNAME":"永康區","LI":"北灣里","LIN":"20鄰","STREET":"大安街","SECT":" ","MAREA":" ","LANE":"４５０巷","ALLEY":" ","HOUSE_NO":"２６號","E_COORD97":174686.82999999999,"N_COORD97":2545952.8799999999,"ADDRESS":"大安街４５０巷２６號","OBJECTID":293091},"geometry":{"x":174686.83000000194,"y":2545952.8799999971}},{"attributes":{"ID":293100,"DIS_CODE":0,"TOWNNAME":"中西區","LI":"開山里","LIN":"17鄰","STREET":"大同路","SECT":"一段","MAREA":" ","LANE":"７０巷","ALLEY":" ","HOUSE_NO":"１１號二樓","E_COORD97":169095.07000000001,"N_COORD97":2543035.8700000001,"ADDRESS":"大同路一段７０巷１１號二樓","OBJECTID":293092},"geometry":{"x":169095.07000000123,"y":2543035.870000001}},{"attributes":{"ID":293101,"DIS_CODE":0,"TOWNNAME":"中西區","LI":"開山里","LIN":"17鄰","STREET":"大同路","SECT":"一段","MAREA":" ","LANE":"７０巷","ALLEY":" ","HOUSE_NO":"１１號三樓","E_COORD97":169095.07000000001,"N_COORD97":2543035.8700000001,"ADDRESS":"大同路一段７０巷１１號三樓","OBJECTID":293093},"geometry":{"x":169095.07000000123,"y":2543035.870000001}},{"attributes":{"ID":293102,"DIS_CODE":0,"TOWNNAME":"中西區","LI":"開山里","LIN":"17鄰","STREET":"大同路","SECT":"一段","MAREA":" ","LANE":"７０巷","ALLEY":" ","HOUSE_NO":"１１號五樓","E_COORD97":169095.07000000001,"N_COORD97":2543035.8700000001,"ADDRESS":"大同路一段７０巷１１號五樓","OBJECTID":293094},"geometry":{"x":169095.07000000123,"y":2543035.870000001}},{"attributes":{"ID":293103,"DIS_CODE":0,"TOWNNAME":"中西區","LI":"開山里","LIN":"17鄰","STREET":"大同路","SECT":"一段","MAREA":" ","LANE":"７０巷","ALLEY":" ","HOUSE_NO":"１１號四樓","E_COORD97":169095.07000000001,"N_COORD97":2543035.8700000001,"ADDRESS":"大同路一段７０巷１１號四樓","OBJECTID":293095},"geometry":{"x":169095.07000000123,"y":2543035.870000001}},{"attributes":{"ID":293104,"DIS_CODE":0,"TOWNNAME":"中西區","LI":"開山里","LIN":"17鄰","STREET":"大同路","SECT":"一段","MAREA":" ","LANE":"７０巷","ALLEY":" ","HOUSE_NO":"１３號一樓","E_COORD97":169093.26999999999,"N_COORD97":2543042.8799999999,"ADDRESS":"大同路一段７０巷１３號一樓","OBJECTID":293096},"geometry":{"x":169093.27000000048,"y":2543042.879999999}},{"attributes":{"ID":293105,"DIS_CODE":0,"TOWNNAME":"中西區","LI":"開山里","LIN":"17鄰","STREET":"大同路","SECT":"一段","MAREA":" ","LANE":"７０巷","ALLEY":" ","HOUSE_NO":"１３號二樓","E_COORD97":169093.26999999999,"N_COORD97":2543042.8799999999,"ADDRESS":"大同路一段７０巷１３號二樓","OBJECTID":293097},"geometry":{"x":169093.27000000048,"y":2543042.879999999}},{"attributes":{"ID":293106,"DIS_CODE":0,"TOWNNAME":"東區","LI":"小東里","LIN":"19鄰","STREET":"東興路","SECT":" ","MAREA":" ","LANE":"３１４巷","ALLEY":" ","HOUSE_NO":"２８號五樓","E_COORD97":171102.32999999999,"N_COORD97":2544129.3100000001,"ADDRESS":"東興路３１４巷２８號五樓","OBJECTID":293098},"geometry":{"x":171102.33000000007,"y":2544129.3100000024}},{"attributes":{"ID":293107,"DIS_CODE":0,"TOWNNAME":"安平區","LI":"平安里","LIN":"8鄰","STREET":"安平路","SECT":" ","MAREA":" ","LANE":" ","ALLEY":" ","HOUSE_NO":"４２２號三樓","E_COORD97":165338.20000000001,"N_COORD97":2544324.79,"ADDRESS":"安平路４２２號三樓","OBJECTID":293099},"geometry":{"x":165338.20000000019,"y":2544324.7899999991}},{"attributes":{"ID":293108,"DIS_CODE":0,"TOWNNAME":"安平區","LI":"平安里","LIN":"8鄰","STREET":"安平路","SECT":" ","MAREA":" ","LANE":" ","ALLEY":" ","HOUSE_NO":"４２２號五樓","E_COORD97":165338.20000000001,"N_COORD97":2544324.79,"ADDRESS":"安平路４２２號五樓","OBJECTID":293100},"geometry":{"x":165338.20000000019,"y":2544324.7899999991}},{"attributes":{"ID":293109,"DIS_CODE":0,"TOWNNAME":"安平區","LI":"平安里","LIN":"8鄰","STREET":"安平路","SECT":" ","MAREA":" ","LANE":" ","ALLEY":" ","HOUSE_NO":"４２２號六樓","E_COORD97":165338.20000000001,"N_COORD97":2544324.79,"ADDRESS":"安平路４２２號六樓","OBJECTID":293101},"geometry":{"x":165338.20000000019,"y":2544324.7899999991}},{"attributes":{"ID":293110,"DIS_CODE":0,"TOWNNAME":"安平區","LI":"平安里","LIN":"8鄰","STREET":"安平路","SECT":" ","MAREA":" ","LANE":" ","ALLEY":" ","HOUSE_NO":"４２２號四樓","E_COORD97":165338.20000000001,"N_COORD97":2544324.79,"ADDRESS":"安平路４２２號四樓","OBJECTID":293102},"geometry":{"x":165338.20000000019,"y":2544324.7899999991}},{"attributes":{"ID":293111,"DIS_CODE":0,"TOWNNAME":"安平區","LI":"平安里","LIN":"8鄰","STREET":"安平路","SECT":" ","MAREA":" ","LANE":" ","ALLEY":" ","HOUSE_NO":"４２８號七樓之１","E_COORD97":165312.51999999999,"N_COORD97":2544327.4700000002,"ADDRESS":"安平路４２８號七樓之１","OBJECTID":293103},"geometry":{"x":165312.52000000048,"y":2544327.4700000025}},{"attributes":{"ID":293112,"DIS_CODE":0,"TOWNNAME":"永康區","LI":"王行里","LIN":"1鄰","STREET":"王行路","SECT":" ","MAREA":" ","LANE":" ","ALLEY":" ","HOUSE_NO":"１號","E_COORD97":175572.82000000001,"N_COORD97":2547813.3599999999,"ADDRESS":"王行路１號","OBJECTID":293104},"geometry":{"x":175572.8200000003,"y":2547813.3599999994}},{"attributes":{"ID":293113,"DIS_CODE":0,"TOWNNAME":"永康區","LI":"永康里","LIN":"39鄰","STREET":"永大路","SECT":"二段","MAREA":" ","LANE":"６７７巷","ALLEY":" ","HOUSE_NO":"１號","E_COORD97":174368.56,"N_COORD97":2546535.0299999998,"ADDRESS":"永大路二段６７７巷１號","OBJECTID":293105},"geometry":{"x":174368.55999999959,"y":2546535.0299999993}},{"attributes":{"ID":293114,"DIS_CODE":0,"TOWNNAME":"永康區","LI":"北灣里","LIN":"4鄰","STREET":"信義街","SECT":" ","MAREA":" ","LANE":"４４巷","ALLEY":" ","HOUSE_NO":"１０號","E_COORD97":175488.70999999999,"N_COORD97":2545707.9199999999,"ADDRESS":"信義街４４巷１０號","OBJECTID":293106},"geometry":{"x":175488.70999999996,"y":2545707.9200000018}},{"attributes":{"ID":293115,"DIS_CODE":0,"TOWNNAME":"永康區","LI":"北灣里","LIN":"18鄰","STREET":"文賢街","SECT":" ","MAREA":" ","LANE":"４２２巷","ALLEY":" ","HOUSE_NO":"３２號","E_COORD97":174675.14999999999,"N_COORD97":2545882.5699999998,"ADDRESS":"文賢街４２２巷３２號","OBJECTID":293107},"geometry":{"x":174675.1500000013,"y":2545882.5700000022}},{"attributes":{"ID":293116,"DIS_CODE":0,"TOWNNAME":"永康區","LI":"北灣里","LIN":"20鄰","STREET":"大安街","SECT":" ","MAREA":" ","LANE":"４６８巷","ALLEY":" ","HOUSE_NO":"１１號","E_COORD97":174644.47,"N_COORD97":2545951.4199999999,"ADDRESS":"大安街４６８巷１１號","OBJECTID":293108},"geometry":{"x":174644.46999999974,"y":2545951.4200000018}},{"attributes":{"ID":293117,"DIS_CODE":0,"TOWNNAME":"永康區","LI":"正強里","LIN":"26鄰","STREET":"中正路","SECT":" ","MAREA":" ","LANE":"１５５巷","ALLEY":" ","HOUSE_NO":"１３號","E_COORD97":173236.85000000001,"N_COORD97":2547863.3999999999,"ADDRESS":"中正路１５５巷１３號","OBJECTID":293109},"geometry":{"x":173236.85000000149,"y":2547863.4000000041}},{"attributes":{"ID":293118,"DIS_CODE":0,"TOWNNAME":"永康區","LI":"永康里","LIN":"39鄰","STREET":"永大路","SECT":"二段","MAREA":" ","LANE":"６３３巷","ALLEY":" ","HOUSE_NO":"５號","E_COORD97":174378.01000000001,"N_COORD97":2546413.02,"ADDRESS":"永大路二段６３３巷５號","OBJECTID":293110},"geometry":{"x":174378.00999999978,"y":2546413.0199999996}},{"attributes":{"ID":293119,"DIS_CODE":0,"TOWNNAME":"永康區","LI":"正強里","LIN":"46鄰","STREET":"中正路","SECT":" ","MAREA":" ","LANE":"２５６巷","ALLEY":" ","HOUSE_NO":"９號之４５","E_COORD97":173207.20999999999,"N_COORD97":2547991.8799999999,"ADDRESS":"中正路２５６巷９號之４５","OBJECTID":293111},"geometry":{"x":173207.20999999996,"y":2547991.8800000008}},{"attributes":{"ID":293120,"DIS_CODE":0,"TOWNNAME":"永康區","LI":"北灣里","LIN":"20鄰","STREET":"大安街","SECT":" ","MAREA":" ","LANE":"４５０巷","ALLEY":" ","HOUSE_NO":"３１號","E_COORD97":174699.20999999999,"N_COORD97":2546001.0699999998,"ADDRESS":"大安街４５０巷３１號","OBJECTID":293112},"geometry":{"x":174699.20999999903,"y":2546001.0700000022}},{"attributes":{"ID":293121,"DIS_CODE":0,"TOWNNAME":"永康區","LI":"永康里","LIN":"26鄰","STREET":"永明街","SECT":" ","MAREA":" ","LANE":"５３巷","ALLEY":" ","HOUSE_NO":"１９號","E_COORD97":174129.14000000001,"N_COORD97":2547366.3700000001,"ADDRESS":"永明街５３巷１９號","OBJECTID":293113},"geometry":{"x":174129.13999999966,"y":2547366.3700000029}},{"attributes":{"ID":293122,"DIS_CODE":0,"TOWNNAME":"永康區","LI":"北灣里","LIN":"18鄰","STREET":"文賢街","SECT":" ","MAREA":" ","LANE":"４２２巷","ALLEY":" ","HOUSE_NO":"２１號","E_COORD97":174653.84,"N_COORD97":2545876.9199999999,"ADDRESS":"文賢街４２２巷２１號","OBJECTID":293114},"geometry":{"x":174653.83999999985,"y":2545876.9200000018}},{"attributes":{"ID":293123,"DIS_CODE":0,"TOWNNAME":"中西區","LI":"開山里","LIN":"17鄰","STREET":"大同路","SECT":"一段","MAREA":" ","LANE":"７０巷","ALLEY":" ","HOUSE_NO":"１３號三樓","E_COORD97":169093.26999999999,"N_COORD97":2543042.8799999999,"ADDRESS":"大同路一段７０巷１３號三樓","OBJECTID":293115},"geometry":{"x":169093.27000000048,"y":2543042.879999999}},{"attributes":{"ID":293124,"DIS_CODE":0,"TOWNNAME":"中西區","LI":"開山里","LIN":"17鄰","STREET":"大同路","SECT":"一段","MAREA":" ","LANE":"７０巷","ALLEY":" ","HOUSE_NO":"１３號五樓","E_COORD97":169093.26999999999,"N_COORD97":2543042.8799999999,"ADDRESS":"大同路一段７０巷１３號五樓","OBJECTID":293116},"geometry":{"x":169093.27000000048,"y":2543042.879999999}},{"attributes":{"ID":293125,"DIS_CODE":0,"TOWNNAME":"中西區","LI":"開山里","LIN":"17鄰","STREET":"大同路","SECT":"一段","MAREA":" ","LANE":"７０巷","ALLEY":" ","HOUSE_NO":"１３號四樓","E_COORD97":169093.26999999999,"N_COORD97":2543042.8799999999,"ADDRESS":"大同路一段７０巷１３號四樓","OBJECTID":293117},"geometry":{"x":169093.27000000048,"y":2543042.879999999}},{"attributes":{"ID":293126,"DIS_CODE":0,"TOWNNAME":"北區","LI":"正覺里","LIN":"14鄰","STREET":"西門路","SECT":"四段","MAREA":" ","LANE":" ","ALLEY":" ","HOUSE_NO":"４９６號","E_COORD97":169155,"N_COORD97":2546348.8199999998,"ADDRESS":"西門路四段４９６號","OBJECTID":293118},"geometry":{"x":169155,"y":2546348.8200000022}},{"attributes":{"ID":293127,"DIS_CODE":0,"TOWNNAME":"北區","LI":"正覺里","LIN":"14鄰","STREET":"西門路","SECT":"四段","MAREA":" ","LANE":" ","ALLEY":" ","HOUSE_NO":"４９８號","E_COORD97":169160.91,"N_COORD97":2546357.27,"ADDRESS":"西門路四段４９８號","OBJECTID":293119},"geometry":{"x":169160.91000000015,"y":2546357.2699999996}},{"attributes":{"ID":293128,"DIS_CODE":0,"TOWNNAME":"北區","LI":"正覺里","LIN":"14鄰","STREET":"西門路","SECT":"四段","MAREA":" ","LANE":" ","ALLEY":" ","HOUSE_NO":"５１０號","E_COORD97":169176.76000000001,"N_COORD97":2546375.9500000002,"ADDRESS":"西門路四段５１０號","OBJECTID":293120},"geometry":{"x":169176.75999999978,"y":2546375.9499999993}},{"attributes":{"ID":293129,"DIS_CODE":0,"TOWNNAME":"北區","LI":"正覺里","LIN":"14鄰","STREET":"西門路","SECT":"四段","MAREA":" ","LANE":" ","ALLEY":" ","HOUSE_NO":"５１２號","E_COORD97":169182.57999999999,"N_COORD97":2546380.77,"ADDRESS":"西門路四段５１２號","OBJECTID":293121},"geometry":{"x":169182.58000000194,"y":2546380.7699999996}},{"attributes":{"ID":293130,"DIS_CODE":0,"TOWNNAME":"北區","LI":"正覺里","LIN":"14鄰","STREET":"西門路","SECT":"四段","MAREA":" ","LANE":" ","ALLEY":" ","HOUSE_NO":"５１６號","E_COORD97":169186.85999999999,"N_COORD97":2546389.71,"ADDRESS":"西門路四段５１６號","OBJECTID":293122},"geometry":{"x":169186.86000000034,"y":2546389.7100000009}},{"attributes":{"ID":293131,"DIS_CODE":0,"TOWNNAME":"北區","LI":"正覺里","LIN":"14鄰","STREET":"西門路","SECT":"四段","MAREA":" ","LANE":" ","ALLEY":" ","HOUSE_NO":"５１８號","E_COORD97":169191.22,"N_COORD97":2546393.71,"ADDRESS":"西門路四段５１８號","OBJECTID":293123},"geometry":{"x":169191.21999999881,"y":2546393.7100000046}},{"attributes":{"ID":293132,"DIS_CODE":0,"TOWNNAME":"北區","LI":"正覺里","LIN":"14鄰","STREET":"西門路","SECT":"四段","MAREA":" ","LANE":" ","ALLEY":" ","HOUSE_NO":"５２２號","E_COORD97":169195.23000000001,"N_COORD97":2546397.7999999998,"ADDRESS":"西門路四段５２２號","OBJECTID":293124},"geometry":{"x":169195.23000000045,"y":2546397.8000000026}},{"attributes":{"ID":293133,"DIS_CODE":0,"TOWNNAME":"鹽水區","LI":"水秀里","LIN":"14鄰","STREET":"文武街","SECT":" ","MAREA":" ","LANE":" ","ALLEY":" ","HOUSE_NO":"４３號","E_COORD97":175314.03,"N_COORD97":2580182.8900000001,"ADDRESS":"文武街４３號","OBJECTID":293125},"geometry":{"x":175314.03000000026,"y":2580182.8900000006}},{"attributes":{"ID":293134,"DIS_CODE":0,"TOWNNAME":"鹽水區","LI":"水秀里","LIN":"14鄰","STREET":"文武街","SECT":" ","MAREA":" ","LANE":" ","ALLEY":" ","HOUSE_NO":"５５號","E_COORD97":175263.14999999999,"N_COORD97":2580174.1000000001,"ADDRESS":"文武街５５號","OBJECTID":293126},"geometry":{"x":175263.1500000013,"y":2580174.0999999996}},{"attributes":{"ID":293135,"DIS_CODE":0,"TOWNNAME":"鹽水區","LI":"水秀里","LIN":"14鄰","STREET":"文武街","SECT":" ","MAREA":" ","LANE":" ","ALLEY":" ","HOUSE_NO":"５９號","E_COORD97":175247.39999999999,"N_COORD97":2580183.0699999998,"ADDRESS":"文武街５９號","OBJECTID":293127},"geometry":{"x":175247.40000000037,"y":2580183.0700000022}},{"attributes":{"ID":293136,"DIS_CODE":0,"TOWNNAME":"永康區","LI":"北灣里","LIN":"4鄰","STREET":"大灣路","SECT":" ","MAREA":" ","LANE":"１１９巷","ALLEY":" ","HOUSE_NO":"２９號","E_COORD97":175210.89000000001,"N_COORD97":2545533.9900000002,"ADDRESS":"大灣路１１９巷２９號","OBJECTID":293128},"geometry":{"x":175210.88999999966,"y":2545533.9900000021}},{"attributes":{"ID":293137,"DIS_CODE":0,"TOWNNAME":"永康區","LI":"北灣里","LIN":"18鄰","STREET":"文賢街","SECT":" ","MAREA":" ","LANE":"４２２巷","ALLEY":" ","HOUSE_NO":"２０號","E_COORD97":174716.76000000001,"N_COORD97":2545874.7400000002,"ADDRESS":"文賢街４２２巷２０號","OBJECTID":293129},"geometry":{"x":174716.75999999978,"y":2545874.7400000021}},{"attributes":{"ID":293138,"DIS_CODE":0,"TOWNNAME":"永康區","LI":"正強里","LIN":"25鄰","STREET":"中正路","SECT":" ","MAREA":" ","LANE":"１２７巷","ALLEY":" ","HOUSE_NO":"１８號","E_COORD97":173374.01000000001,"N_COORD97":2547821.4900000002,"ADDRESS":"中正路１２７巷１８號","OBJECTID":293130},"geometry":{"x":173374.00999999978,"y":2547821.4900000002}},{"attributes":{"ID":293139,"DIS_CODE":0,"TOWNNAME":"永康區","LI":"永康里","LIN":"26鄰","STREET":"永明街","SECT":" ","MAREA":" ","LANE":"６９巷","ALLEY":" ","HOUSE_NO":"１２號","E_COORD97":174202.26000000001,"N_COORD97":2547289.4900000002,"ADDRESS":"永明街６９巷１２號","OBJECTID":293131},"geometry":{"x":174202.26000000071,"y":2547289.4900000039}},{"attributes":{"ID":293140,"DIS_CODE":0,"TOWNNAME":"永康區","LI":"正強里","LIN":"25鄰","STREET":"中正路","SECT":" ","MAREA":" ","LANE":"１２７巷","ALLEY":" ","HOUSE_NO":"２號","E_COORD97":173362.34,"N_COORD97":2547861.25,"ADDRESS":"中正路１２７巷２號","OBJECTID":293132},"geometry":{"x":173362.33999999985,"y":2547861.2500000019}},{"attributes":{"ID":293141,"DIS_CODE":0,"TOWNNAME":"永康區","LI":"正強里","LIN":"25鄰","STREET":"中正路","SECT":" ","MAREA":" ","LANE":"１２７巷","ALLEY":" ","HOUSE_NO":"１２號","E_COORD97":173370.29999999999,"N_COORD97":2547834.2400000002,"ADDRESS":"中正路１２７巷１２號","OBJECTID":293133},"geometry":{"x":173370.30000000075,"y":2547834.2400000021}},{"attributes":{"ID":293142,"DIS_CODE":0,"TOWNNAME":"永康區","LI":"永康里","LIN":"26鄰","STREET":"永明街","SECT":" ","MAREA":" ","LANE":"６９巷","ALLEY":" ","HOUSE_NO":"２２號","E_COORD97":174191.59,"N_COORD97":2547305.9900000002,"ADDRESS":"永明街６９巷２２號","OBJECTID":293134},"geometry":{"x":174191.59000000171,"y":2547305.9900000002}},{"attributes":{"ID":293143,"DIS_CODE":0,"TOWNNAME":"永康區","LI":"正強里","LIN":"25鄰","STREET":"中正路","SECT":" ","MAREA":" ","LANE":"１２７巷","ALLEY":" ","HOUSE_NO":"１０號","E_COORD97":173368.51000000001,"N_COORD97":2547838.7400000002,"ADDRESS":"中正路１２７巷１０號","OBJECTID":293135},"geometry":{"x":173368.51000000071,"y":2547838.7400000002}},{"attributes":{"ID":293144,"DIS_CODE":0,"TOWNNAME":"永康區","LI":"永康里","LIN":"39鄰","STREET":"永福街","SECT":" ","MAREA":" ","LANE":"２１巷","ALLEY":" ","HOUSE_NO":"２６號","E_COORD97":174275.85999999999,"N_COORD97":2546435.02,"ADDRESS":"永福街２１巷２６號","OBJECTID":293136},"geometry":{"x":174275.86000000034,"y":2546435.0200000014}},{"attributes":{"ID":293145,"DIS_CODE":0,"TOWNNAME":"永康區","LI":"北灣里","LIN":"4鄰","STREET":"信義街","SECT":" ","MAREA":" ","LANE":"４４巷","ALLEY":" ","HOUSE_NO":"１２號","E_COORD97":175488.01999999999,"N_COORD97":2545712.1699999999,"ADDRESS":"信義街４４巷１２號","OBJECTID":293137},"geometry":{"x":175488.01999999955,"y":2545712.1700000018}},{"attributes":{"ID":293146,"DIS_CODE":0,"TOWNNAME":"鹽水區","LI":"水秀里","LIN":"14鄰","STREET":"文武街","SECT":" ","MAREA":" ","LANE":" ","ALLEY":" ","HOUSE_NO":"６１號","E_COORD97":175241.01999999999,"N_COORD97":2580183.0699999998,"ADDRESS":"文武街６１號","OBJECTID":293138},"geometry":{"x":175241.02000000142,"y":2580183.0700000022}},{"attributes":{"ID":293147,"DIS_CODE":0,"TOWNNAME":"鹽水區","LI":"水秀里","LIN":"14鄰","STREET":"文武街","SECT":" ","MAREA":" ","LANE":" ","ALLEY":" ","HOUSE_NO":"６３號","E_COORD97":175233.22,"N_COORD97":2580183.1299999999,"ADDRESS":"文武街６３號","OBJECTID":293139},"geometry":{"x":175233.22000000067,"y":2580183.129999999}},{"attributes":{"ID":293148,"DIS_CODE":0,"TOWNNAME":"關廟區","LI":"東勢里","LIN":"14鄰","STREET":"東榮街","SECT":" ","MAREA":" ","LANE":" ","ALLEY":" ","HOUSE_NO":"１６２號","E_COORD97":182200.67000000001,"N_COORD97":2539343.25,"ADDRESS":"東榮街１６２號","OBJECTID":293140},"geometry":{"x":182200.66999999899,"y":2539343.25}},{"attributes":{"ID":293149,"DIS_CODE":0,"TOWNNAME":"關廟區","LI":"北花里","LIN":"14鄰","STREET":"花園三街","SECT":" ","MAREA":" ","LANE":" ","ALLEY":" ","HOUSE_NO":"２９號","E_COORD97":181968.44,"N_COORD97":2540447.25,"ADDRESS":"花園三街２９號","OBJECTID":293141},"geometry":{"x":181968.44000000041,"y":2540447.2500000019}},{"attributes":{"ID":293150,"DIS_CODE":0,"TOWNNAME":"關廟區","LI":"東勢里","LIN":"14鄰","STREET":"東榮街","SECT":" ","MAREA":" ","LANE":" ","ALLEY":" ","HOUSE_NO":"１３０號","E_COORD97":182145.37,"N_COORD97":2539358.25,"ADDRESS":"東榮街１３０號","OBJECTID":293142},"geometry":{"x":182145.37000000197,"y":2539358.2500000019}},{"attributes":{"ID":293151,"DIS_CODE":0,"TOWNNAME":"關廟區","LI":"東勢里","LIN":"14鄰","STREET":"東榮街","SECT":" ","MAREA":" ","LANE":" ","ALLEY":" ","HOUSE_NO":"２２６號","E_COORD97":182332.67000000001,"N_COORD97":2539280.25,"ADDRESS":"東榮街２２６號","OBJECTID":293143},"geometry":{"x":182332.66999999993,"y":2539280.2500000019}},{"attributes":{"ID":293152,"DIS_CODE":0,"TOWNNAME":"關廟區","LI":"五甲里","LIN":"14鄰","STREET":"光復街","SECT":" ","MAREA":" ","LANE":" ","ALLEY":" ","HOUSE_NO":"３１號","E_COORD97":181432.09,"N_COORD97":2539211.2799999998,"ADDRESS":"光復街３１號","OBJECTID":293144},"geometry":{"x":181432.09000000078,"y":2539211.2800000012}},{"attributes":{"ID":293153,"DIS_CODE":0,"TOWNNAME":"關廟區","LI":"北勢里","LIN":"14鄰","STREET":"北安三街","SECT":" ","MAREA":" ","LANE":" ","ALLEY":" ","HOUSE_NO":"１７１號","E_COORD97":181370.54000000001,"N_COORD97":2540617.3199999998,"ADDRESS":"北安三街１７１號","OBJECTID":293145},"geometry":{"x":181370.54000000004,"y":2540617.3200000003}},{"attributes":{"ID":293154,"DIS_CODE":0,"TOWNNAME":"關廟區","LI":"北勢里","LIN":"14鄰","STREET":"北安三街","SECT":" ","MAREA":" ","LANE":" ","ALLEY":" ","HOUSE_NO":"１６９號","E_COORD97":181374.34,"N_COORD97":2540616.3199999998,"ADDRESS":"北安三街１６９號","OBJECTID":293146},"geometry":{"x":181374.34000000078,"y":2540616.3200000022}},{"attributes":{"ID":293155,"DIS_CODE":0,"TOWNNAME":"關廟區","LI":"北勢里","LIN":"14鄰","STREET":"北安三街","SECT":" ","MAREA":" ","LANE":" ","ALLEY":" ","HOUSE_NO":"１７５號","E_COORD97":181364.34,"N_COORD97":2540619.3199999998,"ADDRESS":"北安三街１７５號","OBJECTID":293147},"geometry":{"x":181364.34000000078,"y":2540619.3200000022}},{"attributes":{"ID":293156,"DIS_CODE":0,"TOWNNAME":"關廟區","LI":"五甲里","LIN":"14鄰","STREET":"光復街","SECT":" ","MAREA":" ","LANE":" ","ALLEY":" ","HOUSE_NO":"２７號","E_COORD97":181427.89000000001,"N_COORD97":2539201.2799999998,"ADDRESS":"光復街２７號","OBJECTID":293148},"geometry":{"x":181427.8900000006,"y":2539201.2800000012}},{"attributes":{"ID":293157,"DIS_CODE":0,"TOWNNAME":"關廟區","LI":"松腳里","LIN":"14鄰","STREET":"四維街","SECT":" ","MAREA":" ","LANE":" ","ALLEY":" ","HOUSE_NO":"８１號","E_COORD97":181879.91,"N_COORD97":2539652.25,"ADDRESS":"四維街８１號","OBJECTID":293149},"geometry":{"x":181879.91000000015,"y":2539652.2500000037}},{"attributes":{"ID":293158,"DIS_CODE":0,"TOWNNAME":"永康區","LI":"永康里","LIN":"26鄰","STREET":"永明街","SECT":" ","MAREA":" ","LANE":"５３巷","ALLEY":" ","HOUSE_NO":"２７號","E_COORD97":174135.23999999999,"N_COORD97":2547384.3700000001,"ADDRESS":"永明街５３巷２７號","OBJECTID":293150},"geometry":{"x":174135.24000000115,"y":2547384.3700000029}},{"attributes":{"ID":293159,"DIS_CODE":0,"TOWNNAME":"永康區","LI":"正強里","LIN":"46鄰","STREET":"中正路","SECT":" ","MAREA":" ","LANE":"２５６巷","ALLEY":" ","HOUSE_NO":"９號之４６","E_COORD97":173207.16,"N_COORD97":2547991.8799999999,"ADDRESS":"中正路２５６巷９號之４６","OBJECTID":293151},"geometry":{"x":173207.16000000108,"y":2547991.8800000008}},{"attributes":{"ID":293160,"DIS_CODE":0,"TOWNNAME":"永康區","LI":"正強里","LIN":"46鄰","STREET":"中正路","SECT":" ","MAREA":" ","LANE":"２５６巷","ALLEY":" ","HOUSE_NO":"９號之４９","E_COORD97":173207.14000000001,"N_COORD97":2547991.8799999999,"ADDRESS":"中正路２５６巷９號之４９","OBJECTID":293152},"geometry":{"x":173207.13999999966,"y":2547991.8800000008}},{"attributes":{"ID":293161,"DIS_CODE":0,"TOWNNAME":"永康區","LI":"北灣里","LIN":"4鄰","STREET":"信義街","SECT":" ","MAREA":" ","LANE":"４４巷","ALLEY":" ","HOUSE_NO":"８號","E_COORD97":175487.82000000001,"N_COORD97":2545704.4199999999,"ADDRESS":"信義街４４巷８號","OBJECTID":293153},"geometry":{"x":175487.82000000123,"y":2545704.4200000018}},{"attributes":{"ID":293162,"DIS_CODE":0,"TOWNNAME":"永康區","LI":"永康里","LIN":"26鄰","STREET":"永明街","SECT":" ","MAREA":" ","LANE":"６９巷","ALLEY":" ","HOUSE_NO":"１０號","E_COORD97":174190.03,"N_COORD97":2547282.5,"ADDRESS":"永明街６９巷１０號","OBJECTID":293154},"geometry":{"x":174190.03000000026,"y":2547282.5000000037}},{"attributes":{"ID":293163,"DIS_CODE":0,"TOWNNAME":"永康區","LI":"永康里","LIN":"26鄰","STREET":"永明街","SECT":" ","MAREA":" ","LANE":"６９巷","ALLEY":" ","HOUSE_NO":"１８號","E_COORD97":174195.85999999999,"N_COORD97":2547298.7400000002,"ADDRESS":"永明街６９巷１８號","OBJECTID":293155},"geometry":{"x":174195.86000000127,"y":2547298.7400000021}},{"attributes":{"ID":293164,"DIS_CODE":0,"TOWNNAME":"中西區","LI":"開山里","LIN":"17鄰","STREET":"大同路","SECT":"一段","MAREA":" ","LANE":"７０巷","ALLEY":" ","HOUSE_NO":"１７號一樓之１","E_COORD97":169087.32999999999,"N_COORD97":2543022.7400000002,"ADDRESS":"大同路一段７０巷１７號一樓之１","OBJECTID":293156},"geometry":{"x":169087.33000000007,"y":2543022.7400000039}},{"attributes":{"ID":293165,"DIS_CODE":0,"TOWNNAME":"中西區","LI":"開山里","LIN":"17鄰","STREET":"大同路","SECT":"一段","MAREA":" ","LANE":"７０巷","ALLEY":" ","HOUSE_NO":"１７號一樓之２","E_COORD97":169081.75,"N_COORD97":2543021.1200000001,"ADDRESS":"大同路一段７０巷１７號一樓之２","OBJECTID":293157},"geometry":{"x":169081.75000000093,"y":2543021.1200000048}},{"attributes":{"ID":293166,"DIS_CODE":0,"TOWNNAME":"中西區","LI":"開山里","LIN":"17鄰","STREET":"大同路","SECT":"一段","MAREA":" ","LANE":"７０巷","ALLEY":" ","HOUSE_NO":"１７號二樓之１","E_COORD97":169087.32999999999,"N_COORD97":2543022.7400000002,"ADDRESS":"大同路一段７０巷１７號二樓之１","OBJECTID":293158},"geometry":{"x":169087.33000000007,"y":2543022.7400000039}},{"attributes":{"ID":293167,"DIS_CODE":0,"TOWNNAME":"中西區","LI":"開山里","LIN":"17鄰","STREET":"大同路","SECT":"一段","MAREA":" ","LANE":"７０巷","ALLEY":" ","HOUSE_NO":"１７號二樓之２","E_COORD97":169081.75,"N_COORD97":2543021.1200000001,"ADDRESS":"大同路一段７０巷１７號二樓之２","OBJECTID":293159},"geometry":{"x":169081.75000000093,"y":2543021.1200000048}},{"attributes":{"ID":293168,"DIS_CODE":0,"TOWNNAME":"中西區","LI":"開山里","LIN":"17鄰","STREET":"大同路","SECT":"一段","MAREA":" ","LANE":"７０巷","ALLEY":" ","HOUSE_NO":"１７號二樓之３","E_COORD97":169078.51000000001,"N_COORD97":2543034.9700000002,"ADDRESS":"大同路一段７０巷１７號二樓之３","OBJECTID":293160},"geometry":{"x":169078.50999999978,"y":2543034.9699999988}},{"attributes":{"ID":293169,"DIS_CODE":0,"TOWNNAME":"中西區","LI":"開山里","LIN":"17鄰","STREET":"大同路","SECT":"一段","MAREA":" ","LANE":"７０巷","ALLEY":" ","HOUSE_NO":"１７號三樓之１","E_COORD97":169087.32999999999,"N_COORD97":2543022.7400000002,"ADDRESS":"大同路一段７０巷１７號三樓之１","OBJECTID":293161},"geometry":{"x":169087.33000000007,"y":2543022.7400000039}},{"attributes":{"ID":293170,"DIS_CODE":0,"TOWNNAME":"北區","LI":"大和里","LIN":"8鄰","STREET":"文賢路","SECT":" ","MAREA":" ","LANE":"７５９巷","ALLEY":" ","HOUSE_NO":"８號","E_COORD97":167291.98000000001,"N_COORD97":2546229.6000000001,"ADDRESS":"文賢路７５９巷８號","OBJECTID":293162},"geometry":{"x":167291.98000000138,"y":2546229.5999999996}},{"attributes":{"ID":293171,"DIS_CODE":0,"TOWNNAME":"中西區","LI":"開山里","LIN":"17鄰","STREET":"大同路","SECT":"一段","MAREA":" ","LANE":"７０巷","ALLEY":" ","HOUSE_NO":"１７號三樓之２","E_COORD97":169081.75,"N_COORD97":2543021.1200000001,"ADDRESS":"大同路一段７０巷１７號三樓之２","OBJECTID":293163},"geometry":{"x":169081.75000000093,"y":2543021.1200000048}},{"attributes":{"ID":293172,"DIS_CODE":0,"TOWNNAME":"中西區","LI":"開山里","LIN":"17鄰","STREET":"大同路","SECT":"一段","MAREA":" ","LANE":"７０巷","ALLEY":" ","HOUSE_NO":"１７號三樓之３","E_COORD97":169078.51000000001,"N_COORD97":2543034.9700000002,"ADDRESS":"大同路一段７０巷１７號三樓之３","OBJECTID":293164},"geometry":{"x":169078.50999999978,"y":2543034.9699999988}},{"attributes":{"ID":293173,"DIS_CODE":0,"TOWNNAME":"中西區","LI":"開山里","LIN":"17鄰","STREET":"大同路","SECT":"一段","MAREA":" ","LANE":"７０巷","ALLEY":" ","HOUSE_NO":"１７號五樓之１","E_COORD97":169087.32999999999,"N_COORD97":2543022.7400000002,"ADDRESS":"大同路一段７０巷１７號五樓之１","OBJECTID":293165},"geometry":{"x":169087.33000000007,"y":2543022.7400000039}},{"attributes":{"ID":293174,"DIS_CODE":0,"TOWNNAME":"中西區","LI":"開山里","LIN":"17鄰","STREET":"大同路","SECT":"一段","MAREA":" ","LANE":"７０巷","ALLEY":" ","HOUSE_NO":"１７號五樓之２","E_COORD97":169081.75,"N_COORD97":2543021.1200000001,"ADDRESS":"大同路一段７０巷１７號五樓之２","OBJECTID":293166},"geometry":{"x":169081.75000000093,"y":2543021.1200000048}},{"attributes":{"ID":293175,"DIS_CODE":0,"TOWNNAME":"關廟區","LI":"南花里","LIN":"14鄰","STREET":"花園一街","SECT":" ","MAREA":" ","LANE":" ","ALLEY":" ","HOUSE_NO":"１８１號","E_COORD97":181697.89000000001,"N_COORD97":2540140.25,"ADDRESS":"花園一街１８１號","OBJECTID":293167},"geometry":{"x":181697.8900000006,"y":2540140.25}},{"attributes":{"ID":293176,"DIS_CODE":0,"TOWNNAME":"關廟區","LI":"南花里","LIN":"14鄰","STREET":"花園一街","SECT":" ","MAREA":" ","LANE":" ","ALLEY":" ","HOUSE_NO":"１７９號","E_COORD97":181703.98999999999,"N_COORD97":2540140.25,"ADDRESS":"花園一街１７９號","OBJECTID":293168},"geometry":{"x":181703.99000000209,"y":2540140.25}},{"attributes":{"ID":293177,"DIS_CODE":0,"TOWNNAME":"關廟區","LI":"香洋里","LIN":"14鄰","STREET":"中正路","SECT":" ","MAREA":" ","LANE":" ","ALLEY":" ","HOUSE_NO":"９１１號","E_COORD97":181351.85999999999,"N_COORD97":2540209.25,"ADDRESS":"中正路９１１號","OBJECTID":293169},"geometry":{"x":181351.86000000034,"y":2540209.2500000019}},{"attributes":{"ID":293178,"DIS_CODE":0,"TOWNNAME":"關廟區","LI":"松腳里","LIN":"14鄰","STREET":"東興路","SECT":" ","MAREA":" ","LANE":" ","ALLEY":" ","HOUSE_NO":"２４９號","E_COORD97":181854.07000000001,"N_COORD97":2539565.25,"ADDRESS":"東興路２４９號","OBJECTID":293170},"geometry":{"x":181854.0700000003,"y":2539565.2500000019}},{"attributes":{"ID":293179,"DIS_CODE":0,"TOWNNAME":"關廟區","LI":"南花里","LIN":"14鄰","STREET":"花園一街","SECT":" ","MAREA":" ","LANE":" ","ALLEY":" ","HOUSE_NO":"１５７號","E_COORD97":181745.09,"N_COORD97":2540163.25,"ADDRESS":"花園一街１５７號","OBJECTID":293171},"geometry":{"x":181745.08999999985,"y":2540163.25}},{"attributes":{"ID":293180,"DIS_CODE":0,"TOWNNAME":"關廟區","LI":"五甲里","LIN":"14鄰","STREET":"光復街","SECT":" ","MAREA":" ","LANE":" ","ALLEY":" ","HOUSE_NO":"５號","E_COORD97":181391.23999999999,"N_COORD97":2539162.2799999998,"ADDRESS":"光復街５號","OBJECTID":293172},"geometry":{"x":181391.24000000022,"y":2539162.2799999993}},{"attributes":{"ID":293181,"DIS_CODE":0,"TOWNNAME":"關廟區","LI":"南花里","LIN":"14鄰","STREET":"花園一街","SECT":" ","MAREA":" ","LANE":" ","ALLEY":" ","HOUSE_NO":"１７５號","E_COORD97":181711.29000000001,"N_COORD97":2540138.25,"ADDRESS":"花園一街１７５號","OBJECTID":293173},"geometry":{"x":181711.29000000004,"y":2540138.2500000019}},{"attributes":{"ID":293182,"DIS_CODE":0,"TOWNNAME":"永康區","LI":"王行里","LIN":"4鄰","STREET":"育樂街","SECT":" ","MAREA":" ","LANE":"２１４巷","ALLEY":" ","HOUSE_NO":"６號","E_COORD97":175009.44,"N_COORD97":2548362.7799999998,"ADDRESS":"育樂街２１４巷６號","OBJECTID":293174},"geometry":{"x":175009.44000000041,"y":2548362.7800000012}},{"attributes":{"ID":293183,"DIS_CODE":0,"TOWNNAME":"永康區","LI":"正強里","LIN":"5鄰","STREET":"中正路","SECT":" ","MAREA":" ","LANE":"５５巷","ALLEY":" ","HOUSE_NO":"３２號","E_COORD97":173546.87,"N_COORD97":2547728.4900000002,"ADDRESS":"中正路５５巷３２號","OBJECTID":293175},"geometry":{"x":173546.87000000011,"y":2547728.4900000021}},{"attributes":{"ID":293184,"DIS_CODE":0,"TOWNNAME":"永康區","LI":"北灣里","LIN":"39鄰","STREET":"大同街","SECT":" ","MAREA":" ","LANE":"６２３巷","ALLEY":" ","HOUSE_NO":"１６號","E_COORD97":174551.98000000001,"N_COORD97":2546434.25,"ADDRESS":"大同街６２３巷１６號","OBJECTID":293176},"geometry":{"x":174551.98000000045,"y":2546434.2500000019}},{"attributes":{"ID":293185,"DIS_CODE":0,"TOWNNAME":"永康區","LI":"北灣里","LIN":"20鄰","STREET":"北興路","SECT":" ","MAREA":" ","LANE":"３２巷","ALLEY":" ","HOUSE_NO":"６號","E_COORD97":174655.57999999999,"N_COORD97":2546019.5699999998,"ADDRESS":"北興路３２巷６號","OBJECTID":293177},"geometry":{"x":174655.58000000007,"y":2546019.5700000003}},{"attributes":{"ID":293186,"DIS_CODE":0,"TOWNNAME":"永康區","LI":"北灣里","LIN":"20鄰","STREET":"北興路","SECT":" ","MAREA":" ","LANE":"３２巷","ALLEY":" ","HOUSE_NO":"３號","E_COORD97":174670.14999999999,"N_COORD97":2546017.0699999998,"ADDRESS":"北興路３２巷３號","OBJECTID":293178},"geometry":{"x":174670.1500000013,"y":2546017.0700000003}},{"attributes":{"ID":293187,"DIS_CODE":0,"TOWNNAME":"永康區","LI":"正強里","LIN":"4鄰","STREET":"中正路","SECT":" ","MAREA":" ","LANE":"５５巷","ALLEY":" ","HOUSE_NO":"３５號","E_COORD97":173563.20999999999,"N_COORD97":2547703.7400000002,"ADDRESS":"中正路５５巷３５號","OBJECTID":293179},"geometry":{"x":173563.20999999996,"y":2547703.7400000002}},{"attributes":{"ID":293188,"DIS_CODE":0,"TOWNNAME":"永康區","LI":"五王里","LIN":"38鄰","STREET":"中華路","SECT":" ","MAREA":" ","LANE":"５７８巷","ALLEY":" ","HOUSE_NO":"１７號之１８","E_COORD97":171333.64999999999,"N_COORD97":2545989.54,"ADDRESS":"中華路５７８巷１７號之１８","OBJECTID":293180},"geometry":{"x":171333.65000000224,"y":2545989.5400000028}},{"attributes":{"ID":293189,"DIS_CODE":0,"TOWNNAME":"永康區","LI":"五王里","LIN":"39鄰","STREET":"中華路","SECT":" ","MAREA":" ","LANE":"５７８巷","ALLEY":" ","HOUSE_NO":"１７號之８２","E_COORD97":171333.70000000001,"N_COORD97":2545989.54,"ADDRESS":"中華路５７８巷１７號之８２","OBJECTID":293181},"geometry":{"x":171333.70000000112,"y":2545989.5400000028}},{"attributes":{"ID":293190,"DIS_CODE":0,"TOWNNAME":"永康區","LI":"王行里","LIN":"4鄰","STREET":"育樂街","SECT":" ","MAREA":" ","LANE":"１８３巷","ALLEY":" ","HOUSE_NO":"８號","E_COORD97":174995.60000000001,"N_COORD97":2548255.4900000002,"ADDRESS":"育樂街１８３巷８號","OBJECTID":293182},"geometry":{"x":174995.59999999963,"y":2548255.4899999984}},{"attributes":{"ID":293191,"DIS_CODE":0,"TOWNNAME":"永康區","LI":"北灣里","LIN":"38鄰","STREET":"大灣路","SECT":" ","MAREA":" ","LANE":"４０巷","ALLEY":" ","HOUSE_NO":"２１７號","E_COORD97":174782.10000000001,"N_COORD97":2546354.73,"ADDRESS":"大灣路４０巷２１７號","OBJECTID":293183},"geometry":{"x":174782.09999999963,"y":2546354.7300000004}},{"attributes":{"ID":293192,"DIS_CODE":0,"TOWNNAME":"永康區","LI":"正強里","LIN":"4鄰","STREET":"中正路","SECT":" ","MAREA":" ","LANE":" ","ALLEY":" ","HOUSE_NO":"５１號","E_COORD97":173612.73999999999,"N_COORD97":2547775.5800000001,"ADDRESS":"中正路５１號","OBJECTID":293184},"geometry":{"x":173612.74000000209,"y":2547775.5800000001}},{"attributes":{"ID":293193,"DIS_CODE":0,"TOWNNAME":"永康區","LI":"北灣里","LIN":"18鄰","STREET":"文賢街","SECT":" ","MAREA":" ","LANE":" ","ALLEY":" ","HOUSE_NO":"４１６號","E_COORD97":174733.56,"N_COORD97":2545815.2000000002,"ADDRESS":"文賢街４１６號","OBJECTID":293185},"geometry":{"x":174733.55999999959,"y":2545815.1999999993}},{"attributes":{"ID":293194,"DIS_CODE":0,"TOWNNAME":"永康區","LI":"正強里","LIN":"26鄰","STREET":"中正路","SECT":" ","MAREA":" ","LANE":" ","ALLEY":" ","HOUSE_NO":"１５９號","E_COORD97":173259.01999999999,"N_COORD97":2547887.6400000001,"ADDRESS":"中正路１５９號","OBJECTID":293186},"geometry":{"x":173259.01999999955,"y":2547887.6400000006}},{"attributes":{"ID":293195,"DIS_CODE":0,"TOWNNAME":"永康區","LI":"五王里","LIN":"25鄰","STREET":"五福街","SECT":" ","MAREA":" ","LANE":" ","ALLEY":" ","HOUSE_NO":"２８號","E_COORD97":171324.95999999999,"N_COORD97":2545868.7999999998,"ADDRESS":"五福街２８號","OBJECTID":293187},"geometry":{"x":171324.96000000089,"y":2545868.8000000026}},{"attributes":{"ID":293196,"DIS_CODE":0,"TOWNNAME":"永康區","LI":"正強里","LIN":"40鄰","STREET":"四維街","SECT":" ","MAREA":" ","LANE":" ","ALLEY":" ","HOUSE_NO":"２０３號","E_COORD97":173249.63,"N_COORD97":2548480.8300000001,"ADDRESS":"四維街２０３號","OBJECTID":293188},"geometry":{"x":173249.62999999989,"y":2548480.8300000019}},{"attributes":{"ID":293197,"DIS_CODE":0,"TOWNNAME":"永康區","LI":"北灣里","LIN":"18鄰","STREET":"文賢街","SECT":" ","MAREA":" ","LANE":" ","ALLEY":" ","HOUSE_NO":"４６２號","E_COORD97":174621.26999999999,"N_COORD97":2545841.4199999999,"ADDRESS":"文賢街４６２號","OBJECTID":293189},"geometry":{"x":174621.27000000048,"y":2545841.4199999999}},{"attributes":{"ID":293198,"DIS_CODE":0,"TOWNNAME":"永康區","LI":"北灣里","LIN":"20鄰","STREET":"北興路","SECT":" ","MAREA":" ","LANE":" ","ALLEY":" ","HOUSE_NO":"２６號","E_COORD97":174635.32999999999,"N_COORD97":2546031.3199999998,"ADDRESS":"北興路２６號","OBJECTID":293190},"geometry":{"x":174635.33000000007,"y":2546031.3200000003}},{"attributes":{"ID":293199,"DIS_CODE":0,"TOWNNAME":"永康區","LI":"北灣里","LIN":"25鄰","STREET":"大灣六街","SECT":" ","MAREA":" ","LANE":" ","ALLEY":" ","HOUSE_NO":"９０號","E_COORD97":175093.60000000001,"N_COORD97":2545328.2400000002,"ADDRESS":"大灣六街９０號","OBJECTID":293191},"geometry":{"x":175093.60000000056,"y":2545328.2400000039}},{"attributes":{"ID":293200,"DIS_CODE":0,"TOWNNAME":"永康區","LI":"北灣里","LIN":"18鄰","STREET":"文賢街","SECT":" ","MAREA":" ","LANE":" ","ALLEY":" ","HOUSE_NO":"４０２號","E_COORD97":174764.51000000001,"N_COORD97":2545821.4700000002,"ADDRESS":"文賢街４０２號","OBJECTID":293192},"geometry":{"x":174764.50999999978,"y":2545821.4700000007}},{"attributes":{"ID":293201,"DIS_CODE":0,"TOWNNAME":"永康區","LI":"正強里","LIN":"5鄰","STREET":"中正路","SECT":" ","MAREA":" ","LANE":" ","ALLEY":" ","HOUSE_NO":"５７號","E_COORD97":173591.95000000001,"N_COORD97":2547793.9300000002,"ADDRESS":"中正路５７號","OBJECTID":293193},"geometry":{"x":173591.95000000019,"y":2547793.9299999997}},{"attributes":{"ID":293202,"DIS_CODE":0,"TOWNNAME":"永康區","LI":"北灣里","LIN":"18鄰","STREET":"文賢街","SECT":" ","MAREA":" ","LANE":" ","ALLEY":" ","HOUSE_NO":"４０６號","E_COORD97":174754.92999999999,"N_COORD97":2545811.6200000001,"ADDRESS":"文賢街４０６號","OBJECTID":293194},"geometry":{"x":174754.9299999997,"y":2545811.6200000029}},{"attributes":{"ID":293203,"DIS_CODE":0,"TOWNNAME":"永康區","LI":"正強里","LIN":"32鄰","STREET":"四維街","SECT":" ","MAREA":" ","LANE":" ","ALLEY":" ","HOUSE_NO":"２３號","E_COORD97":173416.82000000001,"N_COORD97":2547994.7999999998,"ADDRESS":"四維街２３號","OBJECTID":293195},"geometry":{"x":173416.8200000003,"y":2547994.8000000026}},{"attributes":{"ID":293204,"DIS_CODE":0,"TOWNNAME":"新市區","LI":"豐華里","LIN":"5鄰","STREET":" ","SECT":" ","MAREA":"豐華","LANE":" ","ALLEY":" ","HOUSE_NO":"４３之８號","E_COORD97":173878.51000000001,"N_COORD97":2554351.7999999998,"ADDRESS":"豐華４３之８號","OBJECTID":293196},"geometry":{"x":173878.51000000071,"y":2554351.8000000007}},{"attributes":{"ID":293205,"DIS_CODE":0,"TOWNNAME":"永康區","LI":"王行里","LIN":"4鄰","STREET":"育樂街","SECT":" ","MAREA":" ","LANE":"１８２巷","ALLEY":" ","HOUSE_NO":"７號","E_COORD97":175048.92000000001,"N_COORD97":2548373.6600000001,"ADDRESS":"育樂街１８２巷７號","OBJECTID":293197},"geometry":{"x":175048.92000000086,"y":2548373.660000002}},{"attributes":{"ID":293206,"DIS_CODE":0,"TOWNNAME":"永康區","LI":"北灣里","LIN":"39鄰","STREET":"大同街","SECT":" ","MAREA":" ","LANE":"６２３巷","ALLEY":" ","HOUSE_NO":"２０號","E_COORD97":174543.14999999999,"N_COORD97":2546431,"ADDRESS":"大同街６２３巷２０號","OBJECTID":293198},"geometry":{"x":174543.1500000013,"y":2546431}},{"attributes":{"ID":293207,"DIS_CODE":0,"TOWNNAME":"永康區","LI":"正強里","LIN":"24鄰","STREET":"中正路","SECT":" ","MAREA":" ","LANE":"１２７巷","ALLEY":" ","HOUSE_NO":"３０號","E_COORD97":173381.57000000001,"N_COORD97":2547785.5,"ADDRESS":"中正路１２７巷３０號","OBJECTID":293199},"geometry":{"x":173381.5700000003,"y":2547785.5000000019}},{"attributes":{"ID":293208,"DIS_CODE":0,"TOWNNAME":"永康區","LI":"北灣里","LIN":"20鄰","STREET":"北興路","SECT":" ","MAREA":" ","LANE":"３２巷","ALLEY":" ","HOUSE_NO":"１１號","E_COORD97":174672.72,"N_COORD97":2545999.8199999998,"ADDRESS":"北興路３２巷１１號","OBJECTID":293200},"geometry":{"x":174672.72000000067,"y":2545999.8200000022}}]}