{"displayFieldName":"TOWNNAME","fieldAliases":{"ID":"ID","DIS_CODE":"DIS_CODE","TOWNNAME":"TOWNNAME","LI":"LI","LIN":"LIN","STREET":"STREET","SECT":"SECT","MAREA":"MAREA","LANE":"LANE","ALLEY":"ALLEY","HOUSE_NO":"HOUSE_NO","E_COORD97":"E_COORD97","N_COORD97":"N_COORD97","ADDRESS":"ADDRESS","OBJECTID":"OBJECTID"},"geometryType":"esriGeometryPoint","spatialReference":{"wkid":102443,"latestWkid":3826},"fields":[{"name":"ID","type":"esriFieldTypeDouble","alias":"ID"},{"name":"DIS_CODE","type":"esriFieldTypeInteger","alias":"DIS_CODE"},{"name":"TOWNNAME","type":"esriFieldTypeString","alias":"TOWNNAME","length":8},{"name":"LI","type":"esriFieldTypeString","alias":"LI","length":8},{"name":"LIN","type":"esriFieldTypeString","alias":"LIN","length":12},{"name":"STREET","type":"esriFieldTypeString","alias":"STREET","length":20},{"name":"SECT","type":"esriFieldTypeString","alias":"SECT","length":8},{"name":"MAREA","type":"esriFieldTypeString","alias":"MAREA","length":12},{"name":"LANE","type":"esriFieldTypeString","alias":"LANE","length":10},{"name":"ALLEY","type":"esriFieldTypeString","alias":"ALLEY","length":10},{"name":"HOUSE_NO","type":"esriFieldTypeString","alias":"HOUSE_NO","length":20},{"name":"E_COORD97","type":"esriFieldTypeDouble","alias":"E_COORD97"},{"name":"N_COORD97","type":"esriFieldTypeDouble","alias":"N_COORD97"},{"name":"ADDRESS","type":"esriFieldTypeString","alias":"ADDRESS","length":50},{"name":"OBJECTID","type":"esriFieldTypeOID","alias":"OBJECTID"}],"features":[{"attributes":{"ID":242605,"DIS_CODE":0,"TOWNNAME":"安平區","LI":"建平里","LIN":"24鄰","STREET":"建平九街","SECT":" ","MAREA":" ","LANE":"６０巷","ALLEY":" ","HOUSE_NO":"３３號三樓之６","E_COORD97":166008.56,"N_COORD97":2543654,"ADDRESS":"建平九街６０巷３３號三樓之６","OBJECTID":242601},"geometry":{"x":166008.55999999959,"y":2543654}},{"attributes":{"ID":242606,"DIS_CODE":0,"TOWNNAME":"安平區","LI":"建平里","LIN":"24鄰","STREET":"建平九街","SECT":" ","MAREA":" ","LANE":"６０巷","ALLEY":" ","HOUSE_NO":"３３號三樓之７","E_COORD97":166008.56,"N_COORD97":2543654,"ADDRESS":"建平九街６０巷３３號三樓之７","OBJECTID":242602},"geometry":{"x":166008.55999999959,"y":2543654}},{"attributes":{"ID":242607,"DIS_CODE":0,"TOWNNAME":"安平區","LI":"建平里","LIN":"24鄰","STREET":"建平九街","SECT":" ","MAREA":" ","LANE":"６０巷","ALLEY":" ","HOUSE_NO":"３３號三樓之８","E_COORD97":166008.56,"N_COORD97":2543654,"ADDRESS":"建平九街６０巷３３號三樓之８","OBJECTID":242603},"geometry":{"x":166008.55999999959,"y":2543654}},{"attributes":{"ID":242608,"DIS_CODE":0,"TOWNNAME":"關廟區","LI":"北花里","LIN":"14鄰","STREET":"花園三街","SECT":" ","MAREA":" ","LANE":" ","ALLEY":" ","HOUSE_NO":"３９號","E_COORD97":181949.23999999999,"N_COORD97":2540451.25,"ADDRESS":"花園三街３９號","OBJECTID":242604},"geometry":{"x":181949.24000000022,"y":2540451.25}},{"attributes":{"ID":242609,"DIS_CODE":0,"TOWNNAME":"安平區","LI":"建平里","LIN":"24鄰","STREET":"建平九街","SECT":" ","MAREA":" ","LANE":"６０巷","ALLEY":" ","HOUSE_NO":"３３號三樓之９","E_COORD97":166008.56,"N_COORD97":2543654,"ADDRESS":"建平九街６０巷３３號三樓之９","OBJECTID":242605},"geometry":{"x":166008.55999999959,"y":2543654}},{"attributes":{"ID":242610,"DIS_CODE":0,"TOWNNAME":"安平區","LI":"建平里","LIN":"24鄰","STREET":"建平九街","SECT":" ","MAREA":" ","LANE":"６０巷","ALLEY":" ","HOUSE_NO":"３３號五樓之１","E_COORD97":166008.56,"N_COORD97":2543654,"ADDRESS":"建平九街６０巷３３號五樓之１","OBJECTID":242606},"geometry":{"x":166008.55999999959,"y":2543654}},{"attributes":{"ID":242611,"DIS_CODE":0,"TOWNNAME":"安平區","LI":"建平里","LIN":"24鄰","STREET":"建平九街","SECT":" ","MAREA":" ","LANE":"６０巷","ALLEY":" ","HOUSE_NO":"３３號五樓之１０","E_COORD97":166008.56,"N_COORD97":2543654,"ADDRESS":"建平九街６０巷３３號五樓之１０","OBJECTID":242607},"geometry":{"x":166008.55999999959,"y":2543654}},{"attributes":{"ID":242612,"DIS_CODE":0,"TOWNNAME":"安平區","LI":"建平里","LIN":"24鄰","STREET":"建平九街","SECT":" ","MAREA":" ","LANE":"６０巷","ALLEY":" ","HOUSE_NO":"３３號五樓之１１","E_COORD97":166008.56,"N_COORD97":2543654,"ADDRESS":"建平九街６０巷３３號五樓之１１","OBJECTID":242608},"geometry":{"x":166008.55999999959,"y":2543654}},{"attributes":{"ID":242613,"DIS_CODE":0,"TOWNNAME":"安平區","LI":"建平里","LIN":"24鄰","STREET":"建平九街","SECT":" ","MAREA":" ","LANE":"６０巷","ALLEY":" ","HOUSE_NO":"３３號五樓之１２","E_COORD97":166008.56,"N_COORD97":2543654,"ADDRESS":"建平九街６０巷３３號五樓之１２","OBJECTID":242609},"geometry":{"x":166008.55999999959,"y":2543654}},{"attributes":{"ID":242614,"DIS_CODE":0,"TOWNNAME":"安平區","LI":"建平里","LIN":"24鄰","STREET":"建平九街","SECT":" ","MAREA":" ","LANE":"６０巷","ALLEY":" ","HOUSE_NO":"３３號五樓之１３","E_COORD97":166008.56,"N_COORD97":2543654,"ADDRESS":"建平九街６０巷３３號五樓之１３","OBJECTID":242610},"geometry":{"x":166008.55999999959,"y":2543654}},{"attributes":{"ID":242615,"DIS_CODE":0,"TOWNNAME":"安平區","LI":"建平里","LIN":"24鄰","STREET":"建平九街","SECT":" ","MAREA":" ","LANE":"６０巷","ALLEY":" ","HOUSE_NO":"３３號五樓之１４","E_COORD97":166008.56,"N_COORD97":2543654,"ADDRESS":"建平九街６０巷３３號五樓之１４","OBJECTID":242611},"geometry":{"x":166008.55999999959,"y":2543654}},{"attributes":{"ID":242616,"DIS_CODE":0,"TOWNNAME":"安平區","LI":"建平里","LIN":"24鄰","STREET":"建平九街","SECT":" ","MAREA":" ","LANE":"６０巷","ALLEY":" ","HOUSE_NO":"３３號五樓之２","E_COORD97":166008.56,"N_COORD97":2543654,"ADDRESS":"建平九街６０巷３３號五樓之２","OBJECTID":242612},"geometry":{"x":166008.55999999959,"y":2543654}},{"attributes":{"ID":242617,"DIS_CODE":0,"TOWNNAME":"安平區","LI":"建平里","LIN":"24鄰","STREET":"建平九街","SECT":" ","MAREA":" ","LANE":"６０巷","ALLEY":" ","HOUSE_NO":"３３號五樓之３","E_COORD97":166008.56,"N_COORD97":2543654,"ADDRESS":"建平九街６０巷３３號五樓之３","OBJECTID":242613},"geometry":{"x":166008.55999999959,"y":2543654}},{"attributes":{"ID":242618,"DIS_CODE":0,"TOWNNAME":"安平區","LI":"建平里","LIN":"24鄰","STREET":"建平九街","SECT":" ","MAREA":" ","LANE":"６０巷","ALLEY":" ","HOUSE_NO":"３３號五樓之４","E_COORD97":166008.56,"N_COORD97":2543654,"ADDRESS":"建平九街６０巷３３號五樓之４","OBJECTID":242614},"geometry":{"x":166008.55999999959,"y":2543654}},{"attributes":{"ID":242619,"DIS_CODE":0,"TOWNNAME":"安平區","LI":"建平里","LIN":"24鄰","STREET":"建平九街","SECT":" ","MAREA":" ","LANE":"６０巷","ALLEY":" ","HOUSE_NO":"３３號五樓之５","E_COORD97":166008.56,"N_COORD97":2543654,"ADDRESS":"建平九街６０巷３３號五樓之５","OBJECTID":242615},"geometry":{"x":166008.55999999959,"y":2543654}},{"attributes":{"ID":242620,"DIS_CODE":0,"TOWNNAME":"安平區","LI":"建平里","LIN":"24鄰","STREET":"建平九街","SECT":" ","MAREA":" ","LANE":"６０巷","ALLEY":" ","HOUSE_NO":"３３號五樓之６","E_COORD97":166008.56,"N_COORD97":2543654,"ADDRESS":"建平九街６０巷３３號五樓之６","OBJECTID":242616},"geometry":{"x":166008.55999999959,"y":2543654}},{"attributes":{"ID":242621,"DIS_CODE":0,"TOWNNAME":"安平區","LI":"建平里","LIN":"24鄰","STREET":"建平九街","SECT":" ","MAREA":" ","LANE":"６０巷","ALLEY":" ","HOUSE_NO":"３３號五樓之７","E_COORD97":166008.56,"N_COORD97":2543654,"ADDRESS":"建平九街６０巷３３號五樓之７","OBJECTID":242617},"geometry":{"x":166008.55999999959,"y":2543654}},{"attributes":{"ID":242622,"DIS_CODE":0,"TOWNNAME":"安平區","LI":"建平里","LIN":"24鄰","STREET":"建平九街","SECT":" ","MAREA":" ","LANE":"６０巷","ALLEY":" ","HOUSE_NO":"３３號五樓之８","E_COORD97":166008.56,"N_COORD97":2543654,"ADDRESS":"建平九街６０巷３３號五樓之８","OBJECTID":242618},"geometry":{"x":166008.55999999959,"y":2543654}},{"attributes":{"ID":242623,"DIS_CODE":0,"TOWNNAME":"安平區","LI":"建平里","LIN":"24鄰","STREET":"建平九街","SECT":" ","MAREA":" ","LANE":"６０巷","ALLEY":" ","HOUSE_NO":"３３號五樓之９","E_COORD97":166008.56,"N_COORD97":2543654,"ADDRESS":"建平九街６０巷３３號五樓之９","OBJECTID":242619},"geometry":{"x":166008.55999999959,"y":2543654}},{"attributes":{"ID":242624,"DIS_CODE":0,"TOWNNAME":"安平區","LI":"建平里","LIN":"24鄰","STREET":"建平九街","SECT":" ","MAREA":" ","LANE":"６０巷","ALLEY":" ","HOUSE_NO":"３３號六樓之１","E_COORD97":166008.56,"N_COORD97":2543654,"ADDRESS":"建平九街６０巷３３號六樓之１","OBJECTID":242620},"geometry":{"x":166008.55999999959,"y":2543654}},{"attributes":{"ID":242625,"DIS_CODE":0,"TOWNNAME":"安平區","LI":"建平里","LIN":"24鄰","STREET":"建平九街","SECT":" ","MAREA":" ","LANE":"６０巷","ALLEY":" ","HOUSE_NO":"３３號六樓之１０","E_COORD97":166008.56,"N_COORD97":2543654,"ADDRESS":"建平九街６０巷３３號六樓之１０","OBJECTID":242621},"geometry":{"x":166008.55999999959,"y":2543654}},{"attributes":{"ID":242626,"DIS_CODE":0,"TOWNNAME":"安平區","LI":"建平里","LIN":"24鄰","STREET":"建平九街","SECT":" ","MAREA":" ","LANE":"６０巷","ALLEY":" ","HOUSE_NO":"３３號六樓之１１","E_COORD97":166008.56,"N_COORD97":2543654,"ADDRESS":"建平九街６０巷３３號六樓之１１","OBJECTID":242622},"geometry":{"x":166008.55999999959,"y":2543654}},{"attributes":{"ID":242627,"DIS_CODE":0,"TOWNNAME":"安平區","LI":"建平里","LIN":"24鄰","STREET":"建平九街","SECT":" ","MAREA":" ","LANE":"６０巷","ALLEY":" ","HOUSE_NO":"３３號六樓之１２","E_COORD97":166008.56,"N_COORD97":2543654,"ADDRESS":"建平九街６０巷３３號六樓之１２","OBJECTID":242623},"geometry":{"x":166008.55999999959,"y":2543654}},{"attributes":{"ID":242628,"DIS_CODE":0,"TOWNNAME":"安平區","LI":"建平里","LIN":"24鄰","STREET":"建平九街","SECT":" ","MAREA":" ","LANE":"６０巷","ALLEY":" ","HOUSE_NO":"３３號六樓之１３","E_COORD97":166008.56,"N_COORD97":2543654,"ADDRESS":"建平九街６０巷３３號六樓之１３","OBJECTID":242624},"geometry":{"x":166008.55999999959,"y":2543654}},{"attributes":{"ID":242629,"DIS_CODE":0,"TOWNNAME":"安平區","LI":"建平里","LIN":"24鄰","STREET":"建平九街","SECT":" ","MAREA":" ","LANE":"６０巷","ALLEY":" ","HOUSE_NO":"３３號六樓之１４","E_COORD97":166008.56,"N_COORD97":2543654,"ADDRESS":"建平九街６０巷３３號六樓之１４","OBJECTID":242625},"geometry":{"x":166008.55999999959,"y":2543654}},{"attributes":{"ID":242630,"DIS_CODE":0,"TOWNNAME":"安平區","LI":"建平里","LIN":"24鄰","STREET":"建平九街","SECT":" ","MAREA":" ","LANE":"６０巷","ALLEY":" ","HOUSE_NO":"３３號六樓之２","E_COORD97":166008.56,"N_COORD97":2543654,"ADDRESS":"建平九街６０巷３３號六樓之２","OBJECTID":242626},"geometry":{"x":166008.55999999959,"y":2543654}},{"attributes":{"ID":242631,"DIS_CODE":0,"TOWNNAME":"安平區","LI":"建平里","LIN":"24鄰","STREET":"建平九街","SECT":" ","MAREA":" ","LANE":"６０巷","ALLEY":" ","HOUSE_NO":"３３號六樓之３","E_COORD97":166008.56,"N_COORD97":2543654,"ADDRESS":"建平九街６０巷３３號六樓之３","OBJECTID":242627},"geometry":{"x":166008.55999999959,"y":2543654}},{"attributes":{"ID":242632,"DIS_CODE":0,"TOWNNAME":"安平區","LI":"建平里","LIN":"24鄰","STREET":"建平九街","SECT":" ","MAREA":" ","LANE":"６０巷","ALLEY":" ","HOUSE_NO":"３３號六樓之４","E_COORD97":166008.56,"N_COORD97":2543654,"ADDRESS":"建平九街６０巷３３號六樓之４","OBJECTID":242628},"geometry":{"x":166008.55999999959,"y":2543654}},{"attributes":{"ID":242633,"DIS_CODE":0,"TOWNNAME":"安平區","LI":"建平里","LIN":"24鄰","STREET":"建平九街","SECT":" ","MAREA":" ","LANE":"６０巷","ALLEY":" ","HOUSE_NO":"３３號六樓之５","E_COORD97":166008.56,"N_COORD97":2543654,"ADDRESS":"建平九街６０巷３３號六樓之５","OBJECTID":242629},"geometry":{"x":166008.55999999959,"y":2543654}},{"attributes":{"ID":242634,"DIS_CODE":0,"TOWNNAME":"安平區","LI":"建平里","LIN":"24鄰","STREET":"建平九街","SECT":" ","MAREA":" ","LANE":"６０巷","ALLEY":" ","HOUSE_NO":"３３號六樓之６","E_COORD97":166008.56,"N_COORD97":2543654,"ADDRESS":"建平九街６０巷３３號六樓之６","OBJECTID":242630},"geometry":{"x":166008.55999999959,"y":2543654}},{"attributes":{"ID":242635,"DIS_CODE":0,"TOWNNAME":"安平區","LI":"建平里","LIN":"24鄰","STREET":"建平九街","SECT":" ","MAREA":" ","LANE":"６０巷","ALLEY":" ","HOUSE_NO":"３３號六樓之７","E_COORD97":166008.56,"N_COORD97":2543654,"ADDRESS":"建平九街６０巷３３號六樓之７","OBJECTID":242631},"geometry":{"x":166008.55999999959,"y":2543654}},{"attributes":{"ID":242636,"DIS_CODE":0,"TOWNNAME":"新營區","LI":"新南里","LIN":"16鄰","STREET":"隋唐街","SECT":" ","MAREA":" ","LANE":"３１巷","ALLEY":" ","HOUSE_NO":"６１號四樓","E_COORD97":178686.76999999999,"N_COORD97":2578323.1800000002,"ADDRESS":"隋唐街３１巷６１號四樓","OBJECTID":242632},"geometry":{"x":178686.76999999955,"y":2578323.1800000034}},{"attributes":{"ID":242637,"DIS_CODE":0,"TOWNNAME":"安平區","LI":"建平里","LIN":"24鄰","STREET":"建平九街","SECT":" ","MAREA":" ","LANE":"６０巷","ALLEY":" ","HOUSE_NO":"３３號六樓之８","E_COORD97":166008.56,"N_COORD97":2543654,"ADDRESS":"建平九街６０巷３３號六樓之８","OBJECTID":242633},"geometry":{"x":166008.55999999959,"y":2543654}},{"attributes":{"ID":242638,"DIS_CODE":0,"TOWNNAME":"永康區","LI":"建國里","LIN":"14鄰","STREET":"復國路","SECT":" ","MAREA":" ","LANE":" ","ALLEY":" ","HOUSE_NO":"８９號三樓之１","E_COORD97":172703.29000000001,"N_COORD97":2544638.3799999999,"ADDRESS":"復國路８９號三樓之１","OBJECTID":242634},"geometry":{"x":172703.29000000004,"y":2544638.3800000008}},{"attributes":{"ID":242639,"DIS_CODE":0,"TOWNNAME":"永康區","LI":"建國里","LIN":"14鄰","STREET":"復國路","SECT":" ","MAREA":" ","LANE":" ","ALLEY":" ","HOUSE_NO":"８９號三樓之２","E_COORD97":172703.29000000001,"N_COORD97":2544638.3799999999,"ADDRESS":"復國路８９號三樓之２","OBJECTID":242635},"geometry":{"x":172703.29000000004,"y":2544638.3800000008}},{"attributes":{"ID":242640,"DIS_CODE":0,"TOWNNAME":"善化區","LI":"胡家里","LIN":"9鄰","STREET":" ","SECT":" ","MAREA":"胡厝寮","LANE":" ","ALLEY":" ","HOUSE_NO":"９２號","E_COORD97":175390,"N_COORD97":2560509.5,"ADDRESS":"胡厝寮９２號","OBJECTID":242636},"geometry":{"x":175390,"y":2560509.5000000019}},{"attributes":{"ID":242641,"DIS_CODE":0,"TOWNNAME":"東山區","LI":"東正里","LIN":"22鄰","STREET":" ","SECT":" ","MAREA":"東勢","LANE":" ","ALLEY":" ","HOUSE_NO":"１５０號","E_COORD97":189467.64999999999,"N_COORD97":2580357.8300000001,"ADDRESS":"東勢１５０號","OBJECTID":242637},"geometry":{"x":189467.6500000013,"y":2580357.8300000019}},{"attributes":{"ID":242642,"DIS_CODE":0,"TOWNNAME":"善化區","LI":"東隆里","LIN":"10鄰","STREET":" ","SECT":" ","MAREA":"東勢寮","LANE":" ","ALLEY":" ","HOUSE_NO":"２２５號","E_COORD97":179874.82000000001,"N_COORD97":2561436.5099999998,"ADDRESS":"東勢寮２２５號","OBJECTID":242638},"geometry":{"x":179874.82000000123,"y":2561436.5099999998}},{"attributes":{"ID":242643,"DIS_CODE":0,"TOWNNAME":"安平區","LI":"建平里","LIN":"24鄰","STREET":"建平九街","SECT":" ","MAREA":" ","LANE":"６０巷","ALLEY":" ","HOUSE_NO":"３３號六樓之９","E_COORD97":166008.56,"N_COORD97":2543654,"ADDRESS":"建平九街６０巷３３號六樓之９","OBJECTID":242639},"geometry":{"x":166008.55999999959,"y":2543654}},{"attributes":{"ID":242644,"DIS_CODE":0,"TOWNNAME":"善化區","LI":"溪美里","LIN":"10鄰","STREET":" ","SECT":" ","MAREA":"溪尾","LANE":" ","ALLEY":" ","HOUSE_NO":"９４號","E_COORD97":176790.38,"N_COORD97":2561420.02,"ADDRESS":"溪尾９４號","OBJECTID":242640},"geometry":{"x":176790.38000000082,"y":2561420.0200000014}},{"attributes":{"ID":242645,"DIS_CODE":0,"TOWNNAME":"安平區","LI":"建平里","LIN":"24鄰","STREET":"建平九街","SECT":" ","MAREA":" ","LANE":"６０巷","ALLEY":" ","HOUSE_NO":"３３號四樓之１","E_COORD97":166008.56,"N_COORD97":2543654,"ADDRESS":"建平九街６０巷３３號四樓之１","OBJECTID":242641},"geometry":{"x":166008.55999999959,"y":2543654}},{"attributes":{"ID":242646,"DIS_CODE":0,"TOWNNAME":"安平區","LI":"建平里","LIN":"24鄰","STREET":"建平九街","SECT":" ","MAREA":" ","LANE":"６０巷","ALLEY":" ","HOUSE_NO":"３３號四樓之１０","E_COORD97":166008.56,"N_COORD97":2543654,"ADDRESS":"建平九街６０巷３３號四樓之１０","OBJECTID":242642},"geometry":{"x":166008.55999999959,"y":2543654}},{"attributes":{"ID":242647,"DIS_CODE":0,"TOWNNAME":"安平區","LI":"建平里","LIN":"24鄰","STREET":"建平九街","SECT":" ","MAREA":" ","LANE":"６０巷","ALLEY":" ","HOUSE_NO":"３３號四樓之１１","E_COORD97":166008.56,"N_COORD97":2543654,"ADDRESS":"建平九街６０巷３３號四樓之１１","OBJECTID":242643},"geometry":{"x":166008.55999999959,"y":2543654}},{"attributes":{"ID":242648,"DIS_CODE":0,"TOWNNAME":"安平區","LI":"建平里","LIN":"24鄰","STREET":"建平九街","SECT":" ","MAREA":" ","LANE":"６０巷","ALLEY":" ","HOUSE_NO":"３３號四樓之１２","E_COORD97":166008.56,"N_COORD97":2543654,"ADDRESS":"建平九街６０巷３３號四樓之１２","OBJECTID":242644},"geometry":{"x":166008.55999999959,"y":2543654}},{"attributes":{"ID":242649,"DIS_CODE":0,"TOWNNAME":"安平區","LI":"建平里","LIN":"24鄰","STREET":"建平九街","SECT":" ","MAREA":" ","LANE":"６０巷","ALLEY":" ","HOUSE_NO":"３３號四樓之１３","E_COORD97":166008.56,"N_COORD97":2543654,"ADDRESS":"建平九街６０巷３３號四樓之１３","OBJECTID":242645},"geometry":{"x":166008.55999999959,"y":2543654}},{"attributes":{"ID":242650,"DIS_CODE":0,"TOWNNAME":"安平區","LI":"建平里","LIN":"24鄰","STREET":"建平九街","SECT":" ","MAREA":" ","LANE":"６０巷","ALLEY":" ","HOUSE_NO":"３３號四樓之１５","E_COORD97":166008.56,"N_COORD97":2543654,"ADDRESS":"建平九街６０巷３３號四樓之１５","OBJECTID":242646},"geometry":{"x":166008.55999999959,"y":2543654}},{"attributes":{"ID":242651,"DIS_CODE":0,"TOWNNAME":"安平區","LI":"建平里","LIN":"24鄰","STREET":"建平九街","SECT":" ","MAREA":" ","LANE":"６０巷","ALLEY":" ","HOUSE_NO":"３３號四樓之２","E_COORD97":166008.56,"N_COORD97":2543654,"ADDRESS":"建平九街６０巷３３號四樓之２","OBJECTID":242647},"geometry":{"x":166008.55999999959,"y":2543654}},{"attributes":{"ID":242652,"DIS_CODE":0,"TOWNNAME":"善化區","LI":"嘉南里","LIN":"12鄰","STREET":" ","SECT":" ","MAREA":"茄拔","LANE":" ","ALLEY":" ","HOUSE_NO":"３１１之２號","E_COORD97":180882.10000000001,"N_COORD97":2559624.27,"ADDRESS":"茄拔３１１之２號","OBJECTID":242648},"geometry":{"x":180882.10000000149,"y":2559624.2699999977}},{"attributes":{"ID":242653,"DIS_CODE":0,"TOWNNAME":"安平區","LI":"建平里","LIN":"24鄰","STREET":"建平九街","SECT":" ","MAREA":" ","LANE":"６０巷","ALLEY":" ","HOUSE_NO":"３３號四樓之３","E_COORD97":166008.56,"N_COORD97":2543654,"ADDRESS":"建平九街６０巷３３號四樓之３","OBJECTID":242649},"geometry":{"x":166008.55999999959,"y":2543654}},{"attributes":{"ID":242654,"DIS_CODE":0,"TOWNNAME":"安平區","LI":"建平里","LIN":"24鄰","STREET":"建平九街","SECT":" ","MAREA":" ","LANE":"６０巷","ALLEY":" ","HOUSE_NO":"３３號四樓之４","E_COORD97":166008.56,"N_COORD97":2543654,"ADDRESS":"建平九街６０巷３３號四樓之４","OBJECTID":242650},"geometry":{"x":166008.55999999959,"y":2543654}},{"attributes":{"ID":242655,"DIS_CODE":0,"TOWNNAME":"安平區","LI":"建平里","LIN":"24鄰","STREET":"建平九街","SECT":" ","MAREA":" ","LANE":"６０巷","ALLEY":" ","HOUSE_NO":"３３號四樓之５","E_COORD97":166008.56,"N_COORD97":2543654,"ADDRESS":"建平九街６０巷３３號四樓之５","OBJECTID":242651},"geometry":{"x":166008.55999999959,"y":2543654}},{"attributes":{"ID":242656,"DIS_CODE":0,"TOWNNAME":"東山區","LI":"東正里","LIN":"22鄰","STREET":" ","SECT":" ","MAREA":"東勢","LANE":" ","ALLEY":" ","HOUSE_NO":"１５２號","E_COORD97":189405,"N_COORD97":2580344.8700000001,"ADDRESS":"東勢１５２號","OBJECTID":242652},"geometry":{"x":189405.00000000186,"y":2580344.8700000029}},{"attributes":{"ID":242657,"DIS_CODE":0,"TOWNNAME":"善化區","LI":"東昌里","LIN":"8鄰","STREET":" ","SECT":" ","MAREA":"東勢寮","LANE":" ","ALLEY":" ","HOUSE_NO":"８６號之２","E_COORD97":180388.98999999999,"N_COORD97":2562055.27,"ADDRESS":"東勢寮８６號之２","OBJECTID":242653},"geometry":{"x":180388.99000000115,"y":2562055.2700000033}},{"attributes":{"ID":242658,"DIS_CODE":0,"TOWNNAME":"善化區","LI":"溪美里","LIN":"1鄰","STREET":" ","SECT":" ","MAREA":"溪尾","LANE":" ","ALLEY":" ","HOUSE_NO":"９５５號","E_COORD97":177119.97,"N_COORD97":2560177.27,"ADDRESS":"溪尾９５５號","OBJECTID":242654},"geometry":{"x":177119.97000000067,"y":2560177.2700000033}},{"attributes":{"ID":242659,"DIS_CODE":0,"TOWNNAME":"善化區","LI":"東隆里","LIN":"4鄰","STREET":" ","SECT":" ","MAREA":"東勢寮","LANE":" ","ALLEY":" ","HOUSE_NO":"１６７號","E_COORD97":180163.79999999999,"N_COORD97":2561968.5099999998,"ADDRESS":"東勢寮１６７號","OBJECTID":242655},"geometry":{"x":180163.80000000168,"y":2561968.5099999998}},{"attributes":{"ID":242660,"DIS_CODE":0,"TOWNNAME":"新營區","LI":"三仙里","LIN":"14鄰","STREET":"三興街","SECT":" ","MAREA":" ","LANE":" ","ALLEY":" ","HOUSE_NO":"２４號","E_COORD97":179486.85000000001,"N_COORD97":2578230.73,"ADDRESS":"三興街２４號","OBJECTID":242656},"geometry":{"x":179486.8499999987,"y":2578230.7300000004}},{"attributes":{"ID":242661,"DIS_CODE":0,"TOWNNAME":"安平區","LI":"建平里","LIN":"24鄰","STREET":"建平九街","SECT":" ","MAREA":" ","LANE":"６０巷","ALLEY":" ","HOUSE_NO":"３３號四樓之６","E_COORD97":166008.56,"N_COORD97":2543654,"ADDRESS":"建平九街６０巷３３號四樓之６","OBJECTID":242657},"geometry":{"x":166008.55999999959,"y":2543654}},{"attributes":{"ID":242662,"DIS_CODE":0,"TOWNNAME":"安平區","LI":"建平里","LIN":"24鄰","STREET":"建平九街","SECT":" ","MAREA":" ","LANE":"６０巷","ALLEY":" ","HOUSE_NO":"３３號四樓之７","E_COORD97":166008.56,"N_COORD97":2543654,"ADDRESS":"建平九街６０巷３３號四樓之７","OBJECTID":242658},"geometry":{"x":166008.55999999959,"y":2543654}},{"attributes":{"ID":242663,"DIS_CODE":0,"TOWNNAME":"南區","LI":"建南里","LIN":"24鄰","STREET":"明興路","SECT":" ","MAREA":" ","LANE":"１１９巷","ALLEY":" ","HOUSE_NO":"１號十二樓之７","E_COORD97":166676.95000000001,"N_COORD97":2539877.7799999998,"ADDRESS":"明興路１１９巷１號十二樓之７","OBJECTID":242659},"geometry":{"x":166676.95000000112,"y":2539877.7799999993}},{"attributes":{"ID":242664,"DIS_CODE":0,"TOWNNAME":"南區","LI":"建南里","LIN":"24鄰","STREET":"明興路","SECT":" ","MAREA":" ","LANE":"１１９巷","ALLEY":" ","HOUSE_NO":"１號十三樓之１","E_COORD97":166676.95000000001,"N_COORD97":2539877.7799999998,"ADDRESS":"明興路１１９巷１號十三樓之１","OBJECTID":242660},"geometry":{"x":166676.95000000112,"y":2539877.7799999993}},{"attributes":{"ID":242665,"DIS_CODE":0,"TOWNNAME":"南區","LI":"建南里","LIN":"24鄰","STREET":"明興路","SECT":" ","MAREA":" ","LANE":"１１９巷","ALLEY":" ","HOUSE_NO":"１號八樓之２","E_COORD97":166676.95000000001,"N_COORD97":2539877.7799999998,"ADDRESS":"明興路１１９巷１號八樓之２","OBJECTID":242661},"geometry":{"x":166676.95000000112,"y":2539877.7799999993}},{"attributes":{"ID":242666,"DIS_CODE":0,"TOWNNAME":"南區","LI":"建南里","LIN":"24鄰","STREET":"明興路","SECT":" ","MAREA":" ","LANE":"１１９巷","ALLEY":" ","HOUSE_NO":"１號八樓之３","E_COORD97":166676.95000000001,"N_COORD97":2539877.7799999998,"ADDRESS":"明興路１１９巷１號八樓之３","OBJECTID":242662},"geometry":{"x":166676.95000000112,"y":2539877.7799999993}},{"attributes":{"ID":242667,"DIS_CODE":0,"TOWNNAME":"南區","LI":"建南里","LIN":"24鄰","STREET":"明興路","SECT":" ","MAREA":" ","LANE":"１１９巷","ALLEY":" ","HOUSE_NO":"１號八樓之４","E_COORD97":166676.95000000001,"N_COORD97":2539877.7799999998,"ADDRESS":"明興路１１９巷１號八樓之４","OBJECTID":242663},"geometry":{"x":166676.95000000112,"y":2539877.7799999993}},{"attributes":{"ID":242668,"DIS_CODE":0,"TOWNNAME":"南區","LI":"建南里","LIN":"24鄰","STREET":"明興路","SECT":" ","MAREA":" ","LANE":"１１９巷","ALLEY":" ","HOUSE_NO":"１號八樓之５","E_COORD97":166676.95000000001,"N_COORD97":2539877.7799999998,"ADDRESS":"明興路１１９巷１號八樓之５","OBJECTID":242664},"geometry":{"x":166676.95000000112,"y":2539877.7799999993}},{"attributes":{"ID":242669,"DIS_CODE":0,"TOWNNAME":"南區","LI":"建南里","LIN":"24鄰","STREET":"明興路","SECT":" ","MAREA":" ","LANE":"１１９巷","ALLEY":" ","HOUSE_NO":"１號八樓之６","E_COORD97":166676.95000000001,"N_COORD97":2539877.7799999998,"ADDRESS":"明興路１１９巷１號八樓之６","OBJECTID":242665},"geometry":{"x":166676.95000000112,"y":2539877.7799999993}},{"attributes":{"ID":242670,"DIS_CODE":0,"TOWNNAME":"南區","LI":"建南里","LIN":"24鄰","STREET":"明興路","SECT":" ","MAREA":" ","LANE":"１１９巷","ALLEY":" ","HOUSE_NO":"１號十一樓之１","E_COORD97":166676.95000000001,"N_COORD97":2539877.7799999998,"ADDRESS":"明興路１１９巷１號十一樓之１","OBJECTID":242666},"geometry":{"x":166676.95000000112,"y":2539877.7799999993}},{"attributes":{"ID":242671,"DIS_CODE":0,"TOWNNAME":"南區","LI":"建南里","LIN":"24鄰","STREET":"明興路","SECT":" ","MAREA":" ","LANE":"１１９巷","ALLEY":" ","HOUSE_NO":"１號十一樓之２","E_COORD97":166676.95000000001,"N_COORD97":2539877.7799999998,"ADDRESS":"明興路１１９巷１號十一樓之２","OBJECTID":242667},"geometry":{"x":166676.95000000112,"y":2539877.7799999993}},{"attributes":{"ID":242672,"DIS_CODE":0,"TOWNNAME":"南區","LI":"建南里","LIN":"24鄰","STREET":"明興路","SECT":" ","MAREA":" ","LANE":"１１９巷","ALLEY":" ","HOUSE_NO":"１號十一樓之３","E_COORD97":166676.95000000001,"N_COORD97":2539877.7799999998,"ADDRESS":"明興路１１９巷１號十一樓之３","OBJECTID":242668},"geometry":{"x":166676.95000000112,"y":2539877.7799999993}},{"attributes":{"ID":242673,"DIS_CODE":0,"TOWNNAME":"南區","LI":"建南里","LIN":"24鄰","STREET":"明興路","SECT":" ","MAREA":" ","LANE":"１１９巷","ALLEY":" ","HOUSE_NO":"１號十一樓之４","E_COORD97":166676.95000000001,"N_COORD97":2539877.7799999998,"ADDRESS":"明興路１１９巷１號十一樓之４","OBJECTID":242669},"geometry":{"x":166676.95000000112,"y":2539877.7799999993}},{"attributes":{"ID":242674,"DIS_CODE":0,"TOWNNAME":"南區","LI":"建南里","LIN":"24鄰","STREET":"明興路","SECT":" ","MAREA":" ","LANE":"１１９巷","ALLEY":" ","HOUSE_NO":"１號十一樓之５","E_COORD97":166676.95000000001,"N_COORD97":2539877.7799999998,"ADDRESS":"明興路１１９巷１號十一樓之５","OBJECTID":242670},"geometry":{"x":166676.95000000112,"y":2539877.7799999993}},{"attributes":{"ID":242675,"DIS_CODE":0,"TOWNNAME":"南區","LI":"建南里","LIN":"24鄰","STREET":"明興路","SECT":" ","MAREA":" ","LANE":"１１９巷","ALLEY":" ","HOUSE_NO":"１號十一樓之６","E_COORD97":166676.95000000001,"N_COORD97":2539877.7799999998,"ADDRESS":"明興路１１９巷１號十一樓之６","OBJECTID":242671},"geometry":{"x":166676.95000000112,"y":2539877.7799999993}},{"attributes":{"ID":242676,"DIS_CODE":0,"TOWNNAME":"南區","LI":"建南里","LIN":"24鄰","STREET":"明興路","SECT":" ","MAREA":" ","LANE":"１１９巷","ALLEY":" ","HOUSE_NO":"１號十二樓之１","E_COORD97":166676.95000000001,"N_COORD97":2539877.7799999998,"ADDRESS":"明興路１１９巷１號十二樓之１","OBJECTID":242672},"geometry":{"x":166676.95000000112,"y":2539877.7799999993}},{"attributes":{"ID":242677,"DIS_CODE":0,"TOWNNAME":"南區","LI":"建南里","LIN":"24鄰","STREET":"明興路","SECT":" ","MAREA":" ","LANE":"１１９巷","ALLEY":" ","HOUSE_NO":"１號十二樓之２","E_COORD97":166676.95000000001,"N_COORD97":2539877.7799999998,"ADDRESS":"明興路１１９巷１號十二樓之２","OBJECTID":242673},"geometry":{"x":166676.95000000112,"y":2539877.7799999993}},{"attributes":{"ID":242678,"DIS_CODE":0,"TOWNNAME":"南區","LI":"建南里","LIN":"24鄰","STREET":"明興路","SECT":" ","MAREA":" ","LANE":"１１９巷","ALLEY":" ","HOUSE_NO":"１號十二樓之３","E_COORD97":166676.95000000001,"N_COORD97":2539877.7799999998,"ADDRESS":"明興路１１９巷１號十二樓之３","OBJECTID":242674},"geometry":{"x":166676.95000000112,"y":2539877.7799999993}},{"attributes":{"ID":242679,"DIS_CODE":0,"TOWNNAME":"南區","LI":"建南里","LIN":"24鄰","STREET":"明興路","SECT":" ","MAREA":" ","LANE":"１１９巷","ALLEY":" ","HOUSE_NO":"１號十二樓之５","E_COORD97":166676.95000000001,"N_COORD97":2539877.7799999998,"ADDRESS":"明興路１１９巷１號十二樓之５","OBJECTID":242675},"geometry":{"x":166676.95000000112,"y":2539877.7799999993}},{"attributes":{"ID":242680,"DIS_CODE":0,"TOWNNAME":"南區","LI":"建南里","LIN":"24鄰","STREET":"明興路","SECT":" ","MAREA":" ","LANE":"１１９巷","ALLEY":" ","HOUSE_NO":"１號十二樓之６","E_COORD97":166676.95000000001,"N_COORD97":2539877.7799999998,"ADDRESS":"明興路１１９巷１號十二樓之６","OBJECTID":242676},"geometry":{"x":166676.95000000112,"y":2539877.7799999993}},{"attributes":{"ID":242681,"DIS_CODE":0,"TOWNNAME":"南區","LI":"建南里","LIN":"24鄰","STREET":"明興路","SECT":" ","MAREA":" ","LANE":"１１９巷","ALLEY":" ","HOUSE_NO":"１號十三樓之２","E_COORD97":166676.95000000001,"N_COORD97":2539877.7799999998,"ADDRESS":"明興路１１９巷１號十三樓之２","OBJECTID":242677},"geometry":{"x":166676.95000000112,"y":2539877.7799999993}},{"attributes":{"ID":242682,"DIS_CODE":0,"TOWNNAME":"北區","LI":"文元里","LIN":"13鄰","STREET":"中華北路","SECT":"二段","MAREA":" ","LANE":"２５巷","ALLEY":" ","HOUSE_NO":"１８號","E_COORD97":167410.70999999999,"N_COORD97":2546505.8300000001,"ADDRESS":"中華北路二段２５巷１８號","OBJECTID":242678},"geometry":{"x":167410.71000000089,"y":2546505.8300000001}},{"attributes":{"ID":242683,"DIS_CODE":0,"TOWNNAME":"北區","LI":"文元里","LIN":"13鄰","STREET":"中華北路","SECT":"二段","MAREA":" ","LANE":"２５巷","ALLEY":" ","HOUSE_NO":"２０號","E_COORD97":167406.81,"N_COORD97":2546504.3999999999,"ADDRESS":"中華北路二段２５巷２０號","OBJECTID":242679},"geometry":{"x":167406.80999999959,"y":2546504.4000000022}},{"attributes":{"ID":242684,"DIS_CODE":0,"TOWNNAME":"北區","LI":"文元里","LIN":"13鄰","STREET":"中華北路","SECT":"二段","MAREA":" ","LANE":"２５巷","ALLEY":" ","HOUSE_NO":"１０號","E_COORD97":167425.67000000001,"N_COORD97":2546511.5600000001,"ADDRESS":"中華北路二段２５巷１０號","OBJECTID":242680},"geometry":{"x":167425.67000000086,"y":2546511.5600000005}},{"attributes":{"ID":242685,"DIS_CODE":0,"TOWNNAME":"北區","LI":"文元里","LIN":"13鄰","STREET":"中華北路","SECT":"二段","MAREA":" ","LANE":"２５巷","ALLEY":" ","HOUSE_NO":"１６號","E_COORD97":167414.19,"N_COORD97":2546507.4700000002,"ADDRESS":"中華北路二段２５巷１６號","OBJECTID":242681},"geometry":{"x":167414.19000000134,"y":2546507.4700000025}},{"attributes":{"ID":242686,"DIS_CODE":0,"TOWNNAME":"北區","LI":"文元里","LIN":"13鄰","STREET":"中華北路","SECT":"二段","MAREA":" ","LANE":"２５巷","ALLEY":" ","HOUSE_NO":"２２號","E_COORD97":167402.70999999999,"N_COORD97":2546502.7599999998,"ADDRESS":"中華北路二段２５巷２２號","OBJECTID":242682},"geometry":{"x":167402.70999999996,"y":2546502.7599999998}},{"attributes":{"ID":242687,"DIS_CODE":0,"TOWNNAME":"南區","LI":"建南里","LIN":"24鄰","STREET":"明興路","SECT":" ","MAREA":" ","LANE":"１１９巷","ALLEY":" ","HOUSE_NO":"１號十三樓之３","E_COORD97":166676.95000000001,"N_COORD97":2539877.7799999998,"ADDRESS":"明興路１１９巷１號十三樓之３","OBJECTID":242683},"geometry":{"x":166676.95000000112,"y":2539877.7799999993}},{"attributes":{"ID":242688,"DIS_CODE":0,"TOWNNAME":"南區","LI":"建南里","LIN":"24鄰","STREET":"明興路","SECT":" ","MAREA":" ","LANE":"１１９巷","ALLEY":" ","HOUSE_NO":"１號十三樓之４","E_COORD97":166676.95000000001,"N_COORD97":2539877.7799999998,"ADDRESS":"明興路１１９巷１號十三樓之４","OBJECTID":242684},"geometry":{"x":166676.95000000112,"y":2539877.7799999993}},{"attributes":{"ID":242689,"DIS_CODE":0,"TOWNNAME":"麻豆區","LI":"保安里","LIN":"1鄰","STREET":"中正路","SECT":" ","MAREA":" ","LANE":" ","ALLEY":" ","HOUSE_NO":"２７號","E_COORD97":173067.26999999999,"N_COORD97":2564898.3700000001,"ADDRESS":"中正路２７號","OBJECTID":242685},"geometry":{"x":173067.26999999955,"y":2564898.3700000029}},{"attributes":{"ID":242690,"DIS_CODE":0,"TOWNNAME":"佳里區","LI":"佳化里","LIN":"16鄰","STREET":" ","SECT":" ","MAREA":"佳里興","LANE":" ","ALLEY":" ","HOUSE_NO":"１５４號","E_COORD97":167313.79999999999,"N_COORD97":2565078.3399999999,"ADDRESS":"佳里興１５４號","OBJECTID":242686},"geometry":{"x":167313.79999999981,"y":2565078.3399999999}},{"attributes":{"ID":242691,"DIS_CODE":0,"TOWNNAME":"北區","LI":"長榮里","LIN":"16鄰","STREET":"長榮路","SECT":"五段","MAREA":" ","LANE":"４１巷","ALLEY":" ","HOUSE_NO":"６２號十一樓之１","E_COORD97":169898.56,"N_COORD97":2545584.5699999998,"ADDRESS":"長榮路五段４１巷６２號十一樓之１","OBJECTID":242687},"geometry":{"x":169898.55999999959,"y":2545584.5700000022}},{"attributes":{"ID":242692,"DIS_CODE":0,"TOWNNAME":"北區","LI":"長榮里","LIN":"16鄰","STREET":"長榮路","SECT":"五段","MAREA":" ","LANE":"４１巷","ALLEY":" ","HOUSE_NO":"６２號十一樓之２","E_COORD97":169898.56,"N_COORD97":2545584.5699999998,"ADDRESS":"長榮路五段４１巷６２號十一樓之２","OBJECTID":242688},"geometry":{"x":169898.55999999959,"y":2545584.5700000022}},{"attributes":{"ID":242693,"DIS_CODE":0,"TOWNNAME":"北區","LI":"長榮里","LIN":"16鄰","STREET":"長榮路","SECT":"五段","MAREA":" ","LANE":"４１巷","ALLEY":" ","HOUSE_NO":"６２號十一樓之３","E_COORD97":169898.56,"N_COORD97":2545584.5699999998,"ADDRESS":"長榮路五段４１巷６２號十一樓之３","OBJECTID":242689},"geometry":{"x":169898.55999999959,"y":2545584.5700000022}},{"attributes":{"ID":242694,"DIS_CODE":0,"TOWNNAME":"北區","LI":"長榮里","LIN":"16鄰","STREET":"長榮路","SECT":"五段","MAREA":" ","LANE":"４１巷","ALLEY":" ","HOUSE_NO":"６２號十一樓之５","E_COORD97":169898.56,"N_COORD97":2545584.5699999998,"ADDRESS":"長榮路五段４１巷６２號十一樓之５","OBJECTID":242690},"geometry":{"x":169898.55999999959,"y":2545584.5700000022}},{"attributes":{"ID":242695,"DIS_CODE":0,"TOWNNAME":"北區","LI":"長榮里","LIN":"16鄰","STREET":"長榮路","SECT":"五段","MAREA":" ","LANE":"４１巷","ALLEY":" ","HOUSE_NO":"６２號十二樓之１","E_COORD97":169898.56,"N_COORD97":2545584.5699999998,"ADDRESS":"長榮路五段４１巷６２號十二樓之１","OBJECTID":242691},"geometry":{"x":169898.55999999959,"y":2545584.5700000022}},{"attributes":{"ID":242696,"DIS_CODE":0,"TOWNNAME":"北區","LI":"長榮里","LIN":"16鄰","STREET":"長榮路","SECT":"五段","MAREA":" ","LANE":"４１巷","ALLEY":" ","HOUSE_NO":"６２號十二樓之２","E_COORD97":169898.56,"N_COORD97":2545584.5699999998,"ADDRESS":"長榮路五段４１巷６２號十二樓之２","OBJECTID":242692},"geometry":{"x":169898.55999999959,"y":2545584.5700000022}},{"attributes":{"ID":242697,"DIS_CODE":0,"TOWNNAME":"北區","LI":"長榮里","LIN":"16鄰","STREET":"長榮路","SECT":"五段","MAREA":" ","LANE":"４１巷","ALLEY":" ","HOUSE_NO":"６２號十二樓之３","E_COORD97":169898.56,"N_COORD97":2545584.5699999998,"ADDRESS":"長榮路五段４１巷６２號十二樓之３","OBJECTID":242693},"geometry":{"x":169898.55999999959,"y":2545584.5700000022}},{"attributes":{"ID":242698,"DIS_CODE":0,"TOWNNAME":"北區","LI":"長榮里","LIN":"16鄰","STREET":"長榮路","SECT":"五段","MAREA":" ","LANE":"４１巷","ALLEY":" ","HOUSE_NO":"６２號十二樓之５","E_COORD97":169898.56,"N_COORD97":2545584.5699999998,"ADDRESS":"長榮路五段４１巷６２號十二樓之５","OBJECTID":242694},"geometry":{"x":169898.55999999959,"y":2545584.5700000022}},{"attributes":{"ID":242699,"DIS_CODE":0,"TOWNNAME":"北區","LI":"長榮里","LIN":"16鄰","STREET":"長榮路","SECT":"五段","MAREA":" ","LANE":"４１巷","ALLEY":" ","HOUSE_NO":"６２號十三樓之１","E_COORD97":169898.56,"N_COORD97":2545584.5699999998,"ADDRESS":"長榮路五段４１巷６２號十三樓之１","OBJECTID":242695},"geometry":{"x":169898.55999999959,"y":2545584.5700000022}},{"attributes":{"ID":242700,"DIS_CODE":0,"TOWNNAME":"北區","LI":"長榮里","LIN":"16鄰","STREET":"長榮路","SECT":"五段","MAREA":" ","LANE":"４１巷","ALLEY":" ","HOUSE_NO":"６２號十三樓之２","E_COORD97":169898.56,"N_COORD97":2545584.5699999998,"ADDRESS":"長榮路五段４１巷６２號十三樓之２","OBJECTID":242696},"geometry":{"x":169898.55999999959,"y":2545584.5700000022}},{"attributes":{"ID":242701,"DIS_CODE":0,"TOWNNAME":"南區","LI":"建南里","LIN":"24鄰","STREET":"明興路","SECT":" ","MAREA":" ","LANE":"１１９巷","ALLEY":" ","HOUSE_NO":"１號十三樓之５","E_COORD97":166676.95000000001,"N_COORD97":2539877.7799999998,"ADDRESS":"明興路１１９巷１號十三樓之５","OBJECTID":242697},"geometry":{"x":166676.95000000112,"y":2539877.7799999993}},{"attributes":{"ID":242702,"DIS_CODE":0,"TOWNNAME":"南區","LI":"建南里","LIN":"24鄰","STREET":"明興路","SECT":" ","MAREA":" ","LANE":"１１９巷","ALLEY":" ","HOUSE_NO":"１號十三樓之６","E_COORD97":166676.95000000001,"N_COORD97":2539877.7799999998,"ADDRESS":"明興路１１９巷１號十三樓之６","OBJECTID":242698},"geometry":{"x":166676.95000000112,"y":2539877.7799999993}},{"attributes":{"ID":242703,"DIS_CODE":0,"TOWNNAME":"南區","LI":"建南里","LIN":"24鄰","STREET":"明興路","SECT":" ","MAREA":" ","LANE":"１１９巷","ALLEY":" ","HOUSE_NO":"１號十五樓之１","E_COORD97":166676.95000000001,"N_COORD97":2539877.7799999998,"ADDRESS":"明興路１１９巷１號十五樓之１","OBJECTID":242699},"geometry":{"x":166676.95000000112,"y":2539877.7799999993}},{"attributes":{"ID":242704,"DIS_CODE":0,"TOWNNAME":"永康區","LI":"建國里","LIN":"14鄰","STREET":"復國路","SECT":" ","MAREA":" ","LANE":" ","ALLEY":" ","HOUSE_NO":"８９號三樓之３","E_COORD97":172703.29000000001,"N_COORD97":2544638.3799999999,"ADDRESS":"復國路８９號三樓之３","OBJECTID":242700},"geometry":{"x":172703.29000000004,"y":2544638.3800000008}},{"attributes":{"ID":242705,"DIS_CODE":0,"TOWNNAME":"永康區","LI":"建國里","LIN":"14鄰","STREET":"復國路","SECT":" ","MAREA":" ","LANE":" ","ALLEY":" ","HOUSE_NO":"８９號三樓之５","E_COORD97":172703.29000000001,"N_COORD97":2544638.3799999999,"ADDRESS":"復國路８９號三樓之５","OBJECTID":242701},"geometry":{"x":172703.29000000004,"y":2544638.3800000008}},{"attributes":{"ID":242706,"DIS_CODE":0,"TOWNNAME":"永康區","LI":"建國里","LIN":"14鄰","STREET":"復國路","SECT":" ","MAREA":" ","LANE":" ","ALLEY":" ","HOUSE_NO":"８９號四樓之１","E_COORD97":172703.29000000001,"N_COORD97":2544638.3799999999,"ADDRESS":"復國路８９號四樓之１","OBJECTID":242702},"geometry":{"x":172703.29000000004,"y":2544638.3800000008}},{"attributes":{"ID":242707,"DIS_CODE":0,"TOWNNAME":"善化區","LI":"胡厝里","LIN":"4鄰","STREET":" ","SECT":" ","MAREA":"胡厝寮","LANE":" ","ALLEY":" ","HOUSE_NO":"１８１號之４","E_COORD97":175187.85000000001,"N_COORD97":2560545.27,"ADDRESS":"胡厝寮１８１號之４","OBJECTID":242703},"geometry":{"x":175187.8499999987,"y":2560545.2699999996}},{"attributes":{"ID":242708,"DIS_CODE":0,"TOWNNAME":"善化區","LI":"溪美里","LIN":"18鄰","STREET":" ","SECT":" ","MAREA":"溪尾","LANE":" ","ALLEY":" ","HOUSE_NO":"２１５號","E_COORD97":177232.29000000001,"N_COORD97":2561399.52,"ADDRESS":"溪尾２１５號","OBJECTID":242704},"geometry":{"x":177232.29000000097,"y":2561399.5200000033}},{"attributes":{"ID":242709,"DIS_CODE":0,"TOWNNAME":"永康區","LI":"建國里","LIN":"14鄰","STREET":"復國路","SECT":" ","MAREA":" ","LANE":" ","ALLEY":" ","HOUSE_NO":"８９號四樓之２","E_COORD97":172703.29000000001,"N_COORD97":2544638.3799999999,"ADDRESS":"復國路８９號四樓之２","OBJECTID":242705},"geometry":{"x":172703.29000000004,"y":2544638.3800000008}},{"attributes":{"ID":242710,"DIS_CODE":0,"TOWNNAME":"永康區","LI":"建國里","LIN":"14鄰","STREET":"復國路","SECT":" ","MAREA":" ","LANE":" ","ALLEY":" ","HOUSE_NO":"８９號四樓之３","E_COORD97":172703.29000000001,"N_COORD97":2544638.3799999999,"ADDRESS":"復國路８９號四樓之３","OBJECTID":242706},"geometry":{"x":172703.29000000004,"y":2544638.3800000008}},{"attributes":{"ID":242711,"DIS_CODE":0,"TOWNNAME":"永康區","LI":"建國里","LIN":"14鄰","STREET":"復國路","SECT":" ","MAREA":" ","LANE":" ","ALLEY":" ","HOUSE_NO":"８９號四樓之５","E_COORD97":172703.29000000001,"N_COORD97":2544638.3799999999,"ADDRESS":"復國路８９號四樓之５","OBJECTID":242707},"geometry":{"x":172703.29000000004,"y":2544638.3800000008}},{"attributes":{"ID":242712,"DIS_CODE":0,"TOWNNAME":"永康區","LI":"建國里","LIN":"14鄰","STREET":"復國路","SECT":" ","MAREA":" ","LANE":" ","ALLEY":" ","HOUSE_NO":"８９號五樓之１","E_COORD97":172703.29000000001,"N_COORD97":2544638.3799999999,"ADDRESS":"復國路８９號五樓之１","OBJECTID":242708},"geometry":{"x":172703.29000000004,"y":2544638.3800000008}},{"attributes":{"ID":242713,"DIS_CODE":0,"TOWNNAME":"永康區","LI":"建國里","LIN":"14鄰","STREET":"復國路","SECT":" ","MAREA":" ","LANE":" ","ALLEY":" ","HOUSE_NO":"８９號五樓之２","E_COORD97":172703.29000000001,"N_COORD97":2544638.3799999999,"ADDRESS":"復國路８９號五樓之２","OBJECTID":242709},"geometry":{"x":172703.29000000004,"y":2544638.3800000008}},{"attributes":{"ID":242714,"DIS_CODE":0,"TOWNNAME":"永康區","LI":"建國里","LIN":"14鄰","STREET":"復國路","SECT":" ","MAREA":" ","LANE":" ","ALLEY":" ","HOUSE_NO":"８９號五樓之３","E_COORD97":172703.29000000001,"N_COORD97":2544638.3799999999,"ADDRESS":"復國路８９號五樓之３","OBJECTID":242710},"geometry":{"x":172703.29000000004,"y":2544638.3800000008}},{"attributes":{"ID":242715,"DIS_CODE":0,"TOWNNAME":"永康區","LI":"建國里","LIN":"14鄰","STREET":"復國路","SECT":" ","MAREA":" ","LANE":" ","ALLEY":" ","HOUSE_NO":"８９號五樓之５","E_COORD97":172703.29000000001,"N_COORD97":2544638.3799999999,"ADDRESS":"復國路８９號五樓之５","OBJECTID":242711},"geometry":{"x":172703.29000000004,"y":2544638.3800000008}},{"attributes":{"ID":242716,"DIS_CODE":0,"TOWNNAME":"永康區","LI":"建國里","LIN":"14鄰","STREET":"復國路","SECT":" ","MAREA":" ","LANE":" ","ALLEY":" ","HOUSE_NO":"８９號六樓之１","E_COORD97":172703.29000000001,"N_COORD97":2544638.3799999999,"ADDRESS":"復國路８９號六樓之１","OBJECTID":242712},"geometry":{"x":172703.29000000004,"y":2544638.3800000008}},{"attributes":{"ID":242717,"DIS_CODE":0,"TOWNNAME":"永康區","LI":"建國里","LIN":"14鄰","STREET":"復國路","SECT":" ","MAREA":" ","LANE":" ","ALLEY":" ","HOUSE_NO":"８９號六樓之２","E_COORD97":172703.29000000001,"N_COORD97":2544638.3799999999,"ADDRESS":"復國路８９號六樓之２","OBJECTID":242713},"geometry":{"x":172703.29000000004,"y":2544638.3800000008}},{"attributes":{"ID":242718,"DIS_CODE":0,"TOWNNAME":"南區","LI":"建南里","LIN":"24鄰","STREET":"明興路","SECT":" ","MAREA":" ","LANE":"１１９巷","ALLEY":" ","HOUSE_NO":"１號十五樓之２","E_COORD97":166676.95000000001,"N_COORD97":2539877.7799999998,"ADDRESS":"明興路１１９巷１號十五樓之２","OBJECTID":242714},"geometry":{"x":166676.95000000112,"y":2539877.7799999993}},{"attributes":{"ID":242719,"DIS_CODE":0,"TOWNNAME":"南區","LI":"建南里","LIN":"24鄰","STREET":"明興路","SECT":" ","MAREA":" ","LANE":"１１９巷","ALLEY":" ","HOUSE_NO":"１號十五樓之３","E_COORD97":166676.95000000001,"N_COORD97":2539877.7799999998,"ADDRESS":"明興路１１９巷１號十五樓之３","OBJECTID":242715},"geometry":{"x":166676.95000000112,"y":2539877.7799999993}},{"attributes":{"ID":242720,"DIS_CODE":0,"TOWNNAME":"南區","LI":"建南里","LIN":"24鄰","STREET":"明興路","SECT":" ","MAREA":" ","LANE":"１１９巷","ALLEY":" ","HOUSE_NO":"１號十五樓之４","E_COORD97":166676.95000000001,"N_COORD97":2539877.7799999998,"ADDRESS":"明興路１１９巷１號十五樓之４","OBJECTID":242716},"geometry":{"x":166676.95000000112,"y":2539877.7799999993}},{"attributes":{"ID":242721,"DIS_CODE":0,"TOWNNAME":"南區","LI":"建南里","LIN":"24鄰","STREET":"明興路","SECT":" ","MAREA":" ","LANE":"１１９巷","ALLEY":" ","HOUSE_NO":"１號十五樓之５","E_COORD97":166676.95000000001,"N_COORD97":2539877.7799999998,"ADDRESS":"明興路１１９巷１號十五樓之５","OBJECTID":242717},"geometry":{"x":166676.95000000112,"y":2539877.7799999993}},{"attributes":{"ID":242722,"DIS_CODE":0,"TOWNNAME":"南區","LI":"建南里","LIN":"24鄰","STREET":"明興路","SECT":" ","MAREA":" ","LANE":"１１９巷","ALLEY":" ","HOUSE_NO":"１號十五樓之６","E_COORD97":166676.95000000001,"N_COORD97":2539877.7799999998,"ADDRESS":"明興路１１９巷１號十五樓之６","OBJECTID":242718},"geometry":{"x":166676.95000000112,"y":2539877.7799999993}},{"attributes":{"ID":242723,"DIS_CODE":0,"TOWNNAME":"南區","LI":"建南里","LIN":"24鄰","STREET":"明興路","SECT":" ","MAREA":" ","LANE":"１１９巷","ALLEY":" ","HOUSE_NO":"１號十四樓之１","E_COORD97":166676.95000000001,"N_COORD97":2539877.7799999998,"ADDRESS":"明興路１１９巷１號十四樓之１","OBJECTID":242719},"geometry":{"x":166676.95000000112,"y":2539877.7799999993}},{"attributes":{"ID":242724,"DIS_CODE":0,"TOWNNAME":"南區","LI":"建南里","LIN":"24鄰","STREET":"明興路","SECT":" ","MAREA":" ","LANE":"１１９巷","ALLEY":" ","HOUSE_NO":"１號十四樓之２","E_COORD97":166676.95000000001,"N_COORD97":2539877.7799999998,"ADDRESS":"明興路１１９巷１號十四樓之２","OBJECTID":242720},"geometry":{"x":166676.95000000112,"y":2539877.7799999993}},{"attributes":{"ID":242725,"DIS_CODE":0,"TOWNNAME":"南區","LI":"建南里","LIN":"24鄰","STREET":"明興路","SECT":" ","MAREA":" ","LANE":"１１９巷","ALLEY":" ","HOUSE_NO":"１號十四樓之３","E_COORD97":166676.95000000001,"N_COORD97":2539877.7799999998,"ADDRESS":"明興路１１９巷１號十四樓之３","OBJECTID":242721},"geometry":{"x":166676.95000000112,"y":2539877.7799999993}},{"attributes":{"ID":242726,"DIS_CODE":0,"TOWNNAME":"南區","LI":"建南里","LIN":"24鄰","STREET":"明興路","SECT":" ","MAREA":" ","LANE":"１１９巷","ALLEY":" ","HOUSE_NO":"１號十四樓之５","E_COORD97":166676.95000000001,"N_COORD97":2539877.7799999998,"ADDRESS":"明興路１１９巷１號十四樓之５","OBJECTID":242722},"geometry":{"x":166676.95000000112,"y":2539877.7799999993}},{"attributes":{"ID":242727,"DIS_CODE":0,"TOWNNAME":"南區","LI":"建南里","LIN":"24鄰","STREET":"明興路","SECT":" ","MAREA":" ","LANE":"１１９巷","ALLEY":" ","HOUSE_NO":"１號十四樓之６","E_COORD97":166676.95000000001,"N_COORD97":2539877.7799999998,"ADDRESS":"明興路１１９巷１號十四樓之６","OBJECTID":242723},"geometry":{"x":166676.95000000112,"y":2539877.7799999993}},{"attributes":{"ID":242728,"DIS_CODE":0,"TOWNNAME":"南區","LI":"建南里","LIN":"24鄰","STREET":"明興路","SECT":" ","MAREA":" ","LANE":"１１９巷","ALLEY":" ","HOUSE_NO":"１號十四樓之７","E_COORD97":166676.95000000001,"N_COORD97":2539877.7799999998,"ADDRESS":"明興路１１９巷１號十四樓之７","OBJECTID":242724},"geometry":{"x":166676.95000000112,"y":2539877.7799999993}},{"attributes":{"ID":242729,"DIS_CODE":0,"TOWNNAME":"南區","LI":"建南里","LIN":"24鄰","STREET":"明興路","SECT":" ","MAREA":" ","LANE":"１１９巷","ALLEY":" ","HOUSE_NO":"１號十樓之１","E_COORD97":166676.95000000001,"N_COORD97":2539877.7799999998,"ADDRESS":"明興路１１９巷１號十樓之１","OBJECTID":242725},"geometry":{"x":166676.95000000112,"y":2539877.7799999993}},{"attributes":{"ID":242730,"DIS_CODE":0,"TOWNNAME":"南區","LI":"建南里","LIN":"24鄰","STREET":"明興路","SECT":" ","MAREA":" ","LANE":"１１９巷","ALLEY":" ","HOUSE_NO":"１號十樓之２","E_COORD97":166676.95000000001,"N_COORD97":2539877.7799999998,"ADDRESS":"明興路１１９巷１號十樓之２","OBJECTID":242726},"geometry":{"x":166676.95000000112,"y":2539877.7799999993}},{"attributes":{"ID":242731,"DIS_CODE":0,"TOWNNAME":"南區","LI":"建南里","LIN":"24鄰","STREET":"明興路","SECT":" ","MAREA":" ","LANE":"１１９巷","ALLEY":" ","HOUSE_NO":"１號十樓之３","E_COORD97":166676.95000000001,"N_COORD97":2539877.7799999998,"ADDRESS":"明興路１１９巷１號十樓之３","OBJECTID":242727},"geometry":{"x":166676.95000000112,"y":2539877.7799999993}},{"attributes":{"ID":242732,"DIS_CODE":0,"TOWNNAME":"南區","LI":"建南里","LIN":"24鄰","STREET":"明興路","SECT":" ","MAREA":" ","LANE":"１１９巷","ALLEY":" ","HOUSE_NO":"１號十樓之４","E_COORD97":166676.95000000001,"N_COORD97":2539877.7799999998,"ADDRESS":"明興路１１９巷１號十樓之４","OBJECTID":242728},"geometry":{"x":166676.95000000112,"y":2539877.7799999993}},{"attributes":{"ID":242733,"DIS_CODE":0,"TOWNNAME":"南區","LI":"建南里","LIN":"24鄰","STREET":"明興路","SECT":" ","MAREA":" ","LANE":"１１９巷","ALLEY":" ","HOUSE_NO":"１號十樓之５","E_COORD97":166676.95000000001,"N_COORD97":2539877.7799999998,"ADDRESS":"明興路１１９巷１號十樓之５","OBJECTID":242729},"geometry":{"x":166676.95000000112,"y":2539877.7799999993}},{"attributes":{"ID":242734,"DIS_CODE":0,"TOWNNAME":"南區","LI":"建南里","LIN":"24鄰","STREET":"明興路","SECT":" ","MAREA":" ","LANE":"１１９巷","ALLEY":" ","HOUSE_NO":"１號十樓之６","E_COORD97":166676.95000000001,"N_COORD97":2539877.7799999998,"ADDRESS":"明興路１１９巷１號十樓之６","OBJECTID":242730},"geometry":{"x":166676.95000000112,"y":2539877.7799999993}},{"attributes":{"ID":242735,"DIS_CODE":0,"TOWNNAME":"新營區","LI":"新南里","LIN":"16鄰","STREET":"隋唐街","SECT":" ","MAREA":" ","LANE":"３１巷","ALLEY":" ","HOUSE_NO":"５５號六樓之２","E_COORD97":178689.04999999999,"N_COORD97":2578323.2200000002,"ADDRESS":"隋唐街３１巷５５號六樓之２","OBJECTID":242731},"geometry":{"x":178689.05000000168,"y":2578323.2200000007}},{"attributes":{"ID":242736,"DIS_CODE":0,"TOWNNAME":"安定區","LI":"蘇林里","LIN":"16鄰","STREET":" ","SECT":" ","MAREA":"蘇厝","LANE":" ","ALLEY":" ","HOUSE_NO":"１７９號","E_COORD97":173368.01999999999,"N_COORD97":2558981.25,"ADDRESS":"蘇厝１７９號","OBJECTID":242732},"geometry":{"x":173368.02000000048,"y":2558981.2500000019}},{"attributes":{"ID":242737,"DIS_CODE":0,"TOWNNAME":"南區","LI":"建南里","LIN":"24鄰","STREET":"明興路","SECT":" ","MAREA":" ","LANE":"１１９巷","ALLEY":" ","HOUSE_NO":"１號五樓之１","E_COORD97":166676.95000000001,"N_COORD97":2539877.7799999998,"ADDRESS":"明興路１１９巷１號五樓之１","OBJECTID":242733},"geometry":{"x":166676.95000000112,"y":2539877.7799999993}},{"attributes":{"ID":242738,"DIS_CODE":0,"TOWNNAME":"南區","LI":"建南里","LIN":"24鄰","STREET":"明興路","SECT":" ","MAREA":" ","LANE":"１１９巷","ALLEY":" ","HOUSE_NO":"１號五樓之２","E_COORD97":166676.95000000001,"N_COORD97":2539877.7799999998,"ADDRESS":"明興路１１９巷１號五樓之２","OBJECTID":242734},"geometry":{"x":166676.95000000112,"y":2539877.7799999993}},{"attributes":{"ID":242739,"DIS_CODE":0,"TOWNNAME":"南區","LI":"建南里","LIN":"24鄰","STREET":"明興路","SECT":" ","MAREA":" ","LANE":"１１９巷","ALLEY":" ","HOUSE_NO":"１號五樓之３","E_COORD97":166676.95000000001,"N_COORD97":2539877.7799999998,"ADDRESS":"明興路１１９巷１號五樓之３","OBJECTID":242735},"geometry":{"x":166676.95000000112,"y":2539877.7799999993}},{"attributes":{"ID":242740,"DIS_CODE":0,"TOWNNAME":"南區","LI":"建南里","LIN":"24鄰","STREET":"明興路","SECT":" ","MAREA":" ","LANE":"１１９巷","ALLEY":" ","HOUSE_NO":"１號五樓之４","E_COORD97":166676.95000000001,"N_COORD97":2539877.7799999998,"ADDRESS":"明興路１１９巷１號五樓之４","OBJECTID":242736},"geometry":{"x":166676.95000000112,"y":2539877.7799999993}},{"attributes":{"ID":242741,"DIS_CODE":0,"TOWNNAME":"南區","LI":"建南里","LIN":"24鄰","STREET":"明興路","SECT":" ","MAREA":" ","LANE":"１１９巷","ALLEY":" ","HOUSE_NO":"１號五樓之５","E_COORD97":166676.95000000001,"N_COORD97":2539877.7799999998,"ADDRESS":"明興路１１９巷１號五樓之５","OBJECTID":242737},"geometry":{"x":166676.95000000112,"y":2539877.7799999993}},{"attributes":{"ID":242742,"DIS_CODE":0,"TOWNNAME":"南區","LI":"建南里","LIN":"24鄰","STREET":"明興路","SECT":" ","MAREA":" ","LANE":"１１９巷","ALLEY":" ","HOUSE_NO":"１號五樓之６","E_COORD97":166676.95000000001,"N_COORD97":2539877.7799999998,"ADDRESS":"明興路１１９巷１號五樓之６","OBJECTID":242738},"geometry":{"x":166676.95000000112,"y":2539877.7799999993}},{"attributes":{"ID":242743,"DIS_CODE":0,"TOWNNAME":"南區","LI":"建南里","LIN":"24鄰","STREET":"明興路","SECT":" ","MAREA":" ","LANE":"１１９巷","ALLEY":" ","HOUSE_NO":"１號六樓之１","E_COORD97":166676.95000000001,"N_COORD97":2539877.7799999998,"ADDRESS":"明興路１１９巷１號六樓之１","OBJECTID":242739},"geometry":{"x":166676.95000000112,"y":2539877.7799999993}},{"attributes":{"ID":242744,"DIS_CODE":0,"TOWNNAME":"南區","LI":"建南里","LIN":"24鄰","STREET":"明興路","SECT":" ","MAREA":" ","LANE":"１１９巷","ALLEY":" ","HOUSE_NO":"１號六樓之２","E_COORD97":166676.95000000001,"N_COORD97":2539877.7799999998,"ADDRESS":"明興路１１９巷１號六樓之２","OBJECTID":242740},"geometry":{"x":166676.95000000112,"y":2539877.7799999993}},{"attributes":{"ID":242745,"DIS_CODE":0,"TOWNNAME":"南區","LI":"建南里","LIN":"24鄰","STREET":"明興路","SECT":" ","MAREA":" ","LANE":"１１９巷","ALLEY":" ","HOUSE_NO":"１號六樓之３","E_COORD97":166676.95000000001,"N_COORD97":2539877.7799999998,"ADDRESS":"明興路１１９巷１號六樓之３","OBJECTID":242741},"geometry":{"x":166676.95000000112,"y":2539877.7799999993}},{"attributes":{"ID":242746,"DIS_CODE":0,"TOWNNAME":"永康區","LI":"建國里","LIN":"14鄰","STREET":"復國路","SECT":" ","MAREA":" ","LANE":" ","ALLEY":" ","HOUSE_NO":"８９號六樓之３","E_COORD97":172703.29000000001,"N_COORD97":2544638.3799999999,"ADDRESS":"復國路８９號六樓之３","OBJECTID":242742},"geometry":{"x":172703.29000000004,"y":2544638.3800000008}},{"attributes":{"ID":242747,"DIS_CODE":0,"TOWNNAME":"善化區","LI":"嘉北里","LIN":"13鄰","STREET":" ","SECT":" ","MAREA":"茄拔","LANE":" ","ALLEY":" ","HOUSE_NO":"３０４之５號","E_COORD97":180864.34,"N_COORD97":2559674.52,"ADDRESS":"茄拔３０４之５號","OBJECTID":242743},"geometry":{"x":180864.34000000078,"y":2559674.5200000014}},{"attributes":{"ID":242748,"DIS_CODE":0,"TOWNNAME":"南區","LI":"建南里","LIN":"24鄰","STREET":"明興路","SECT":" ","MAREA":" ","LANE":"１１９巷","ALLEY":" ","HOUSE_NO":"１號六樓之４","E_COORD97":166676.95000000001,"N_COORD97":2539877.7799999998,"ADDRESS":"明興路１１９巷１號六樓之４","OBJECTID":242744},"geometry":{"x":166676.95000000112,"y":2539877.7799999993}},{"attributes":{"ID":242749,"DIS_CODE":0,"TOWNNAME":"南區","LI":"建南里","LIN":"24鄰","STREET":"明興路","SECT":" ","MAREA":" ","LANE":"１１９巷","ALLEY":" ","HOUSE_NO":"１號六樓之５","E_COORD97":166676.95000000001,"N_COORD97":2539877.7799999998,"ADDRESS":"明興路１１９巷１號六樓之５","OBJECTID":242745},"geometry":{"x":166676.95000000112,"y":2539877.7799999993}},{"attributes":{"ID":242750,"DIS_CODE":0,"TOWNNAME":"南區","LI":"建南里","LIN":"24鄰","STREET":"明興路","SECT":" ","MAREA":" ","LANE":"１１９巷","ALLEY":" ","HOUSE_NO":"１號六樓之６","E_COORD97":166676.95000000001,"N_COORD97":2539877.7799999998,"ADDRESS":"明興路１１９巷１號六樓之６","OBJECTID":242746},"geometry":{"x":166676.95000000112,"y":2539877.7799999993}},{"attributes":{"ID":242751,"DIS_CODE":0,"TOWNNAME":"南區","LI":"建南里","LIN":"24鄰","STREET":"明興路","SECT":" ","MAREA":" ","LANE":"１１９巷","ALLEY":" ","HOUSE_NO":"１號四樓之１","E_COORD97":166676.95000000001,"N_COORD97":2539877.7799999998,"ADDRESS":"明興路１１９巷１號四樓之１","OBJECTID":242747},"geometry":{"x":166676.95000000112,"y":2539877.7799999993}},{"attributes":{"ID":242752,"DIS_CODE":0,"TOWNNAME":"南區","LI":"建南里","LIN":"24鄰","STREET":"明興路","SECT":" ","MAREA":" ","LANE":"１１９巷","ALLEY":" ","HOUSE_NO":"１號七樓之１","E_COORD97":166676.95000000001,"N_COORD97":2539877.7799999998,"ADDRESS":"明興路１１９巷１號七樓之１","OBJECTID":242748},"geometry":{"x":166676.95000000112,"y":2539877.7799999993}},{"attributes":{"ID":242753,"DIS_CODE":0,"TOWNNAME":"南區","LI":"建南里","LIN":"24鄰","STREET":"明興路","SECT":" ","MAREA":" ","LANE":"１１９巷","ALLEY":" ","HOUSE_NO":"１號七樓之２","E_COORD97":166676.95000000001,"N_COORD97":2539877.7799999998,"ADDRESS":"明興路１１９巷１號七樓之２","OBJECTID":242749},"geometry":{"x":166676.95000000112,"y":2539877.7799999993}},{"attributes":{"ID":242754,"DIS_CODE":0,"TOWNNAME":"南區","LI":"建南里","LIN":"24鄰","STREET":"明興路","SECT":" ","MAREA":" ","LANE":"１１９巷","ALLEY":" ","HOUSE_NO":"１號七樓之３","E_COORD97":166676.95000000001,"N_COORD97":2539877.7799999998,"ADDRESS":"明興路１１９巷１號七樓之３","OBJECTID":242750},"geometry":{"x":166676.95000000112,"y":2539877.7799999993}},{"attributes":{"ID":242755,"DIS_CODE":0,"TOWNNAME":"南區","LI":"建南里","LIN":"24鄰","STREET":"明興路","SECT":" ","MAREA":" ","LANE":"１１９巷","ALLEY":" ","HOUSE_NO":"１號七樓之４","E_COORD97":166676.95000000001,"N_COORD97":2539877.7799999998,"ADDRESS":"明興路１１９巷１號七樓之４","OBJECTID":242751},"geometry":{"x":166676.95000000112,"y":2539877.7799999993}},{"attributes":{"ID":242756,"DIS_CODE":0,"TOWNNAME":"南區","LI":"建南里","LIN":"24鄰","STREET":"明興路","SECT":" ","MAREA":" ","LANE":"１１９巷","ALLEY":" ","HOUSE_NO":"１號七樓之５","E_COORD97":166676.95000000001,"N_COORD97":2539877.7799999998,"ADDRESS":"明興路１１９巷１號七樓之５","OBJECTID":242752},"geometry":{"x":166676.95000000112,"y":2539877.7799999993}},{"attributes":{"ID":242757,"DIS_CODE":0,"TOWNNAME":"南區","LI":"建南里","LIN":"24鄰","STREET":"明興路","SECT":" ","MAREA":" ","LANE":"１１９巷","ALLEY":" ","HOUSE_NO":"１號七樓之６","E_COORD97":166676.95000000001,"N_COORD97":2539877.7799999998,"ADDRESS":"明興路１１９巷１號七樓之６","OBJECTID":242753},"geometry":{"x":166676.95000000112,"y":2539877.7799999993}},{"attributes":{"ID":242758,"DIS_CODE":0,"TOWNNAME":"南區","LI":"建南里","LIN":"24鄰","STREET":"明興路","SECT":" ","MAREA":" ","LANE":"１１９巷","ALLEY":" ","HOUSE_NO":"１號九樓之１","E_COORD97":166676.95000000001,"N_COORD97":2539877.7799999998,"ADDRESS":"明興路１１９巷１號九樓之１","OBJECTID":242754},"geometry":{"x":166676.95000000112,"y":2539877.7799999993}},{"attributes":{"ID":242759,"DIS_CODE":0,"TOWNNAME":"南區","LI":"建南里","LIN":"24鄰","STREET":"明興路","SECT":" ","MAREA":" ","LANE":"１１９巷","ALLEY":" ","HOUSE_NO":"１號九樓之２","E_COORD97":166676.95000000001,"N_COORD97":2539877.7799999998,"ADDRESS":"明興路１１９巷１號九樓之２","OBJECTID":242755},"geometry":{"x":166676.95000000112,"y":2539877.7799999993}},{"attributes":{"ID":242760,"DIS_CODE":0,"TOWNNAME":"南區","LI":"建南里","LIN":"24鄰","STREET":"明興路","SECT":" ","MAREA":" ","LANE":"１１９巷","ALLEY":" ","HOUSE_NO":"１號九樓之３","E_COORD97":166676.95000000001,"N_COORD97":2539877.7799999998,"ADDRESS":"明興路１１９巷１號九樓之３","OBJECTID":242756},"geometry":{"x":166676.95000000112,"y":2539877.7799999993}},{"attributes":{"ID":242761,"DIS_CODE":0,"TOWNNAME":"南區","LI":"建南里","LIN":"24鄰","STREET":"明興路","SECT":" ","MAREA":" ","LANE":"１１９巷","ALLEY":" ","HOUSE_NO":"１號九樓之４","E_COORD97":166676.95000000001,"N_COORD97":2539877.7799999998,"ADDRESS":"明興路１１９巷１號九樓之４","OBJECTID":242757},"geometry":{"x":166676.95000000112,"y":2539877.7799999993}},{"attributes":{"ID":242762,"DIS_CODE":0,"TOWNNAME":"南區","LI":"建南里","LIN":"24鄰","STREET":"明興路","SECT":" ","MAREA":" ","LANE":"１１９巷","ALLEY":" ","HOUSE_NO":"１號九樓之５","E_COORD97":166676.95000000001,"N_COORD97":2539877.7799999998,"ADDRESS":"明興路１１９巷１號九樓之５","OBJECTID":242758},"geometry":{"x":166676.95000000112,"y":2539877.7799999993}},{"attributes":{"ID":242763,"DIS_CODE":0,"TOWNNAME":"南區","LI":"建南里","LIN":"24鄰","STREET":"明興路","SECT":" ","MAREA":" ","LANE":"１１９巷","ALLEY":" ","HOUSE_NO":"１號九樓之６","E_COORD97":166676.95000000001,"N_COORD97":2539877.7799999998,"ADDRESS":"明興路１１９巷１號九樓之６","OBJECTID":242759},"geometry":{"x":166676.95000000112,"y":2539877.7799999993}},{"attributes":{"ID":242764,"DIS_CODE":0,"TOWNNAME":"南區","LI":"建南里","LIN":"24鄰","STREET":"明興路","SECT":" ","MAREA":" ","LANE":"１１９巷","ALLEY":" ","HOUSE_NO":"１號八樓之１","E_COORD97":166676.95000000001,"N_COORD97":2539877.7799999998,"ADDRESS":"明興路１１９巷１號八樓之１","OBJECTID":242760},"geometry":{"x":166676.95000000112,"y":2539877.7799999993}},{"attributes":{"ID":242765,"DIS_CODE":0,"TOWNNAME":"善化區","LI":"嘉北里","LIN":"13鄰","STREET":" ","SECT":" ","MAREA":"茄拔","LANE":" ","ALLEY":" ","HOUSE_NO":"３０１之５號","E_COORD97":180919.17999999999,"N_COORD97":2559642.77,"ADDRESS":"茄拔３０１之５號","OBJECTID":242761},"geometry":{"x":180919.18000000063,"y":2559642.7700000014}},{"attributes":{"ID":242766,"DIS_CODE":0,"TOWNNAME":"善化區","LI":"嘉北里","LIN":"13鄰","STREET":" ","SECT":" ","MAREA":"茄拔","LANE":" ","ALLEY":" ","HOUSE_NO":"３５２號之３","E_COORD97":180636.37,"N_COORD97":2559688.77,"ADDRESS":"茄拔３５２號之３","OBJECTID":242762},"geometry":{"x":180636.37000000011,"y":2559688.7700000033}},{"attributes":{"ID":242767,"DIS_CODE":0,"TOWNNAME":"南區","LI":"建南里","LIN":"24鄰","STREET":"明興路","SECT":" ","MAREA":" ","LANE":"１１９巷","ALLEY":" ","HOUSE_NO":"１號四樓之２","E_COORD97":166676.95000000001,"N_COORD97":2539877.7799999998,"ADDRESS":"明興路１１９巷１號四樓之２","OBJECTID":242763},"geometry":{"x":166676.95000000112,"y":2539877.7799999993}},{"attributes":{"ID":242768,"DIS_CODE":0,"TOWNNAME":"南區","LI":"建南里","LIN":"24鄰","STREET":"明興路","SECT":" ","MAREA":" ","LANE":"１１９巷","ALLEY":" ","HOUSE_NO":"１號四樓之３","E_COORD97":166676.95000000001,"N_COORD97":2539877.7799999998,"ADDRESS":"明興路１１９巷１號四樓之３","OBJECTID":242764},"geometry":{"x":166676.95000000112,"y":2539877.7799999993}},{"attributes":{"ID":242769,"DIS_CODE":0,"TOWNNAME":"南區","LI":"建南里","LIN":"24鄰","STREET":"明興路","SECT":" ","MAREA":" ","LANE":"１１９巷","ALLEY":" ","HOUSE_NO":"１號四樓之５","E_COORD97":166676.95000000001,"N_COORD97":2539877.7799999998,"ADDRESS":"明興路１１９巷１號四樓之５","OBJECTID":242765},"geometry":{"x":166676.95000000112,"y":2539877.7799999993}},{"attributes":{"ID":242770,"DIS_CODE":0,"TOWNNAME":"南區","LI":"建南里","LIN":"24鄰","STREET":"明興路","SECT":" ","MAREA":" ","LANE":"１１９巷","ALLEY":" ","HOUSE_NO":"１號四樓之６","E_COORD97":166676.95000000001,"N_COORD97":2539877.7799999998,"ADDRESS":"明興路１１９巷１號四樓之６","OBJECTID":242766},"geometry":{"x":166676.95000000112,"y":2539877.7799999993}},{"attributes":{"ID":242771,"DIS_CODE":0,"TOWNNAME":"南區","LI":"建南里","LIN":"24鄰","STREET":"明興路","SECT":" ","MAREA":" ","LANE":"１１９巷","ALLEY":" ","HOUSE_NO":"１號四樓之７","E_COORD97":166676.95000000001,"N_COORD97":2539877.7799999998,"ADDRESS":"明興路１１９巷１號四樓之７","OBJECTID":242767},"geometry":{"x":166676.95000000112,"y":2539877.7799999993}},{"attributes":{"ID":242772,"DIS_CODE":0,"TOWNNAME":"南區","LI":"建南里","LIN":"24鄰","STREET":"明興路","SECT":" ","MAREA":" ","LANE":"１１９巷","ALLEY":" ","HOUSE_NO":"３號七樓之１","E_COORD97":166694.79999999999,"N_COORD97":2539874,"ADDRESS":"明興路１１９巷３號七樓之１","OBJECTID":242768},"geometry":{"x":166694.79999999981,"y":2539874}},{"attributes":{"ID":242773,"DIS_CODE":0,"TOWNNAME":"南區","LI":"建南里","LIN":"24鄰","STREET":"明興路","SECT":" ","MAREA":" ","LANE":"１１９巷","ALLEY":" ","HOUSE_NO":"３號七樓之２","E_COORD97":166694.79999999999,"N_COORD97":2539874,"ADDRESS":"明興路１１９巷３號七樓之２","OBJECTID":242769},"geometry":{"x":166694.79999999981,"y":2539874}},{"attributes":{"ID":242774,"DIS_CODE":0,"TOWNNAME":"南區","LI":"建南里","LIN":"24鄰","STREET":"明興路","SECT":" ","MAREA":" ","LANE":"１１９巷","ALLEY":" ","HOUSE_NO":"３號七樓之３","E_COORD97":166694.79999999999,"N_COORD97":2539874,"ADDRESS":"明興路１１９巷３號七樓之３","OBJECTID":242770},"geometry":{"x":166694.79999999981,"y":2539874}},{"attributes":{"ID":242775,"DIS_CODE":0,"TOWNNAME":"南區","LI":"建南里","LIN":"24鄰","STREET":"明興路","SECT":" ","MAREA":" ","LANE":"１１９巷","ALLEY":" ","HOUSE_NO":"３號七樓之４","E_COORD97":166694.79999999999,"N_COORD97":2539874,"ADDRESS":"明興路１１９巷３號七樓之４","OBJECTID":242771},"geometry":{"x":166694.79999999981,"y":2539874}},{"attributes":{"ID":242776,"DIS_CODE":0,"TOWNNAME":"南區","LI":"建南里","LIN":"24鄰","STREET":"明興路","SECT":" ","MAREA":" ","LANE":"１１９巷","ALLEY":" ","HOUSE_NO":"３號九樓之１","E_COORD97":166694.79999999999,"N_COORD97":2539874,"ADDRESS":"明興路１１９巷３號九樓之１","OBJECTID":242772},"geometry":{"x":166694.79999999981,"y":2539874}},{"attributes":{"ID":242777,"DIS_CODE":0,"TOWNNAME":"南區","LI":"建南里","LIN":"24鄰","STREET":"明興路","SECT":" ","MAREA":" ","LANE":"１１９巷","ALLEY":" ","HOUSE_NO":"３號九樓之２","E_COORD97":166694.79999999999,"N_COORD97":2539874,"ADDRESS":"明興路１１９巷３號九樓之２","OBJECTID":242773},"geometry":{"x":166694.79999999981,"y":2539874}},{"attributes":{"ID":242778,"DIS_CODE":0,"TOWNNAME":"南區","LI":"建南里","LIN":"24鄰","STREET":"明興路","SECT":" ","MAREA":" ","LANE":"１１９巷","ALLEY":" ","HOUSE_NO":"３號九樓之３","E_COORD97":166694.79999999999,"N_COORD97":2539874,"ADDRESS":"明興路１１９巷３號九樓之３","OBJECTID":242774},"geometry":{"x":166694.79999999981,"y":2539874}},{"attributes":{"ID":242779,"DIS_CODE":0,"TOWNNAME":"南區","LI":"建南里","LIN":"24鄰","STREET":"明興路","SECT":" ","MAREA":" ","LANE":"１１９巷","ALLEY":" ","HOUSE_NO":"３號九樓之４","E_COORD97":166694.79999999999,"N_COORD97":2539874,"ADDRESS":"明興路１１９巷３號九樓之４","OBJECTID":242775},"geometry":{"x":166694.79999999981,"y":2539874}},{"attributes":{"ID":242780,"DIS_CODE":0,"TOWNNAME":"南區","LI":"建南里","LIN":"24鄰","STREET":"明興路","SECT":" ","MAREA":" ","LANE":"１１９巷","ALLEY":" ","HOUSE_NO":"３號二樓之１","E_COORD97":166694.79999999999,"N_COORD97":2539874,"ADDRESS":"明興路１１９巷３號二樓之１","OBJECTID":242776},"geometry":{"x":166694.79999999981,"y":2539874}},{"attributes":{"ID":242781,"DIS_CODE":0,"TOWNNAME":"南區","LI":"建南里","LIN":"24鄰","STREET":"明興路","SECT":" ","MAREA":" ","LANE":"１１９巷","ALLEY":" ","HOUSE_NO":"３號二樓之２","E_COORD97":166694.79999999999,"N_COORD97":2539874,"ADDRESS":"明興路１１９巷３號二樓之２","OBJECTID":242777},"geometry":{"x":166694.79999999981,"y":2539874}},{"attributes":{"ID":242782,"DIS_CODE":0,"TOWNNAME":"南區","LI":"建南里","LIN":"24鄰","STREET":"明興路","SECT":" ","MAREA":" ","LANE":"１１９巷","ALLEY":" ","HOUSE_NO":"３號二樓之３","E_COORD97":166694.79999999999,"N_COORD97":2539874,"ADDRESS":"明興路１１９巷３號二樓之３","OBJECTID":242778},"geometry":{"x":166694.79999999981,"y":2539874}},{"attributes":{"ID":242783,"DIS_CODE":0,"TOWNNAME":"南區","LI":"建南里","LIN":"24鄰","STREET":"明興路","SECT":" ","MAREA":" ","LANE":"１１９巷","ALLEY":" ","HOUSE_NO":"３號二樓之４","E_COORD97":166694.79999999999,"N_COORD97":2539874,"ADDRESS":"明興路１１９巷３號二樓之４","OBJECTID":242779},"geometry":{"x":166694.79999999981,"y":2539874}},{"attributes":{"ID":242784,"DIS_CODE":0,"TOWNNAME":"南區","LI":"建南里","LIN":"24鄰","STREET":"明興路","SECT":" ","MAREA":" ","LANE":"１１９巷","ALLEY":" ","HOUSE_NO":"３號八樓之１","E_COORD97":166694.79999999999,"N_COORD97":2539874,"ADDRESS":"明興路１１９巷３號八樓之１","OBJECTID":242780},"geometry":{"x":166694.79999999981,"y":2539874}},{"attributes":{"ID":242785,"DIS_CODE":0,"TOWNNAME":"南區","LI":"建南里","LIN":"24鄰","STREET":"明興路","SECT":" ","MAREA":" ","LANE":"１１９巷","ALLEY":" ","HOUSE_NO":"３號八樓之２","E_COORD97":166694.79999999999,"N_COORD97":2539874,"ADDRESS":"明興路１１９巷３號八樓之２","OBJECTID":242781},"geometry":{"x":166694.79999999981,"y":2539874}},{"attributes":{"ID":242786,"DIS_CODE":0,"TOWNNAME":"南區","LI":"建南里","LIN":"24鄰","STREET":"明興路","SECT":" ","MAREA":" ","LANE":"１１９巷","ALLEY":" ","HOUSE_NO":"３號八樓之３","E_COORD97":166694.79999999999,"N_COORD97":2539874,"ADDRESS":"明興路１１９巷３號八樓之３","OBJECTID":242782},"geometry":{"x":166694.79999999981,"y":2539874}},{"attributes":{"ID":242787,"DIS_CODE":0,"TOWNNAME":"南區","LI":"建南里","LIN":"24鄰","STREET":"明興路","SECT":" ","MAREA":" ","LANE":"１１９巷","ALLEY":" ","HOUSE_NO":"３號八樓之４","E_COORD97":166694.79999999999,"N_COORD97":2539874,"ADDRESS":"明興路１１９巷３號八樓之４","OBJECTID":242783},"geometry":{"x":166694.79999999981,"y":2539874}},{"attributes":{"ID":242788,"DIS_CODE":0,"TOWNNAME":"南區","LI":"建南里","LIN":"24鄰","STREET":"明興路","SECT":" ","MAREA":" ","LANE":"１１９巷","ALLEY":" ","HOUSE_NO":"３號十一樓之１","E_COORD97":166694.79999999999,"N_COORD97":2539874,"ADDRESS":"明興路１１９巷３號十一樓之１","OBJECTID":242784},"geometry":{"x":166694.79999999981,"y":2539874}},{"attributes":{"ID":242789,"DIS_CODE":0,"TOWNNAME":"南區","LI":"建南里","LIN":"24鄰","STREET":"明興路","SECT":" ","MAREA":" ","LANE":"１１９巷","ALLEY":" ","HOUSE_NO":"３號十一樓之２","E_COORD97":166694.79999999999,"N_COORD97":2539874,"ADDRESS":"明興路１１９巷３號十一樓之２","OBJECTID":242785},"geometry":{"x":166694.79999999981,"y":2539874}},{"attributes":{"ID":242790,"DIS_CODE":0,"TOWNNAME":"南區","LI":"建南里","LIN":"24鄰","STREET":"明興路","SECT":" ","MAREA":" ","LANE":"１１９巷","ALLEY":" ","HOUSE_NO":"３號十一樓之３","E_COORD97":166694.79999999999,"N_COORD97":2539874,"ADDRESS":"明興路１１９巷３號十一樓之３","OBJECTID":242786},"geometry":{"x":166694.79999999981,"y":2539874}},{"attributes":{"ID":242791,"DIS_CODE":0,"TOWNNAME":"善化區","LI":"嘉南里","LIN":"2鄰","STREET":" ","SECT":" ","MAREA":"茄拔","LANE":" ","ALLEY":" ","HOUSE_NO":"６２號之８","E_COORD97":181113.14000000001,"N_COORD97":2559097.77,"ADDRESS":"茄拔６２號之８","OBJECTID":242787},"geometry":{"x":181113.1400000006,"y":2559097.7699999996}},{"attributes":{"ID":242792,"DIS_CODE":0,"TOWNNAME":"善化區","LI":"嘉南里","LIN":"4鄰","STREET":" ","SECT":" ","MAREA":"茄拔","LANE":" ","ALLEY":" ","HOUSE_NO":"８５號之２","E_COORD97":181016.20000000001,"N_COORD97":2559435.27,"ADDRESS":"茄拔８５號之２","OBJECTID":242788},"geometry":{"x":181016.20000000112,"y":2559435.2700000014}},{"attributes":{"ID":242793,"DIS_CODE":0,"TOWNNAME":"善化區","LI":"嘉北里","LIN":" ","STREET":" ","SECT":" ","MAREA":"茄拔","LANE":" ","ALLEY":" ","HOUSE_NO":"３５２之５號","E_COORD97":180635.97,"N_COORD97":2559698.77,"ADDRESS":"茄拔３５２之５號","OBJECTID":242789},"geometry":{"x":180635.97000000067,"y":2559698.7699999996}},{"attributes":{"ID":242794,"DIS_CODE":0,"TOWNNAME":"南區","LI":"建南里","LIN":"24鄰","STREET":"明興路","SECT":" ","MAREA":" ","LANE":"１１９巷","ALLEY":" ","HOUSE_NO":"３號十一樓之４","E_COORD97":166694.79999999999,"N_COORD97":2539874,"ADDRESS":"明興路１１９巷３號十一樓之４","OBJECTID":242790},"geometry":{"x":166694.79999999981,"y":2539874}},{"attributes":{"ID":242795,"DIS_CODE":0,"TOWNNAME":"南區","LI":"建南里","LIN":"24鄰","STREET":"明興路","SECT":" ","MAREA":" ","LANE":"１１９巷","ALLEY":" ","HOUSE_NO":"３號十二樓之１","E_COORD97":166694.79999999999,"N_COORD97":2539874,"ADDRESS":"明興路１１９巷３號十二樓之１","OBJECTID":242791},"geometry":{"x":166694.79999999981,"y":2539874}},{"attributes":{"ID":242796,"DIS_CODE":0,"TOWNNAME":"南區","LI":"建南里","LIN":"24鄰","STREET":"明興路","SECT":" ","MAREA":" ","LANE":"１１９巷","ALLEY":" ","HOUSE_NO":"３號十二樓之２","E_COORD97":166694.79999999999,"N_COORD97":2539874,"ADDRESS":"明興路１１９巷３號十二樓之２","OBJECTID":242792},"geometry":{"x":166694.79999999981,"y":2539874}},{"attributes":{"ID":242797,"DIS_CODE":0,"TOWNNAME":"善化區","LI":"東昌里","LIN":"5鄰","STREET":" ","SECT":" ","MAREA":"東勢寮","LANE":" ","ALLEY":" ","HOUSE_NO":"５８之２號","E_COORD97":180569.38,"N_COORD97":2561936.27,"ADDRESS":"東勢寮５８之２號","OBJECTID":242793},"geometry":{"x":180569.38000000082,"y":2561936.2699999996}},{"attributes":{"ID":242798,"DIS_CODE":0,"TOWNNAME":"善化區","LI":"嘉北里","LIN":"13鄰","STREET":" ","SECT":" ","MAREA":"茄拔","LANE":" ","ALLEY":" ","HOUSE_NO":"３５２號之６","E_COORD97":180636.12,"N_COORD97":2559702.27,"ADDRESS":"茄拔３５２號之６","OBJECTID":242794},"geometry":{"x":180636.12000000011,"y":2559702.2699999977}},{"attributes":{"ID":242799,"DIS_CODE":0,"TOWNNAME":"善化區","LI":"嘉北里","LIN":"13鄰","STREET":" ","SECT":" ","MAREA":"茄拔","LANE":" ","ALLEY":" ","HOUSE_NO":"３００之１３號","E_COORD97":180903.48000000001,"N_COORD97":2559711.27,"ADDRESS":"茄拔３００之１３號","OBJECTID":242795},"geometry":{"x":180903.48000000045,"y":2559711.2699999996}},{"attributes":{"ID":242800,"DIS_CODE":0,"TOWNNAME":"善化區","LI":"嘉北里","LIN":"13鄰","STREET":" ","SECT":" ","MAREA":"茄拔","LANE":" ","ALLEY":" ","HOUSE_NO":"３００之１４號","E_COORD97":180903.73000000001,"N_COORD97":2559715.77,"ADDRESS":"茄拔３００之１４號","OBJECTID":242796},"geometry":{"x":180903.73000000045,"y":2559715.7699999977}},{"attributes":{"ID":242801,"DIS_CODE":0,"TOWNNAME":"善化區","LI":"嘉北里","LIN":"13鄰","STREET":" ","SECT":" ","MAREA":"茄拔","LANE":" ","ALLEY":" ","HOUSE_NO":"３０４之４號","E_COORD97":180860.14000000001,"N_COORD97":2559675.02,"ADDRESS":"茄拔３０４之４號","OBJECTID":242797},"geometry":{"x":180860.1400000006,"y":2559675.0200000014}},{"attributes":{"ID":242802,"DIS_CODE":0,"TOWNNAME":"善化區","LI":"嘉南里","LIN":"1鄰","STREET":" ","SECT":" ","MAREA":"茄拔","LANE":" ","ALLEY":" ","HOUSE_NO":"５５號之１","E_COORD97":181095.14999999999,"N_COORD97":2559545.02,"ADDRESS":"茄拔５５號之１","OBJECTID":242798},"geometry":{"x":181095.1500000013,"y":2559545.0200000033}},{"attributes":{"ID":242803,"DIS_CODE":0,"TOWNNAME":"善化區","LI":"嘉南里","LIN":"6鄰","STREET":" ","SECT":" ","MAREA":"茄拔","LANE":" ","ALLEY":" ","HOUSE_NO":"１０３號之１","E_COORD97":181048.62,"N_COORD97":2559498.52,"ADDRESS":"茄拔１０３號之１","OBJECTID":242799},"geometry":{"x":181048.62000000197,"y":2559498.5200000014}},{"attributes":{"ID":242804,"DIS_CODE":0,"TOWNNAME":"善化區","LI":"嘉南里","LIN":"12鄰","STREET":" ","SECT":" ","MAREA":"茄拔","LANE":" ","ALLEY":" ","HOUSE_NO":"３６５號","E_COORD97":180532.5,"N_COORD97":2559674.5099999998,"ADDRESS":"茄拔３６５號","OBJECTID":242800},"geometry":{"x":180532.50000000093,"y":2559674.5100000016}}]}