{"displayFieldName":"TOWNNAME","fieldAliases":{"ID":"ID","DIS_CODE":"DIS_CODE","TOWNNAME":"TOWNNAME","LI":"LI","LIN":"LIN","STREET":"STREET","SECT":"SECT","MAREA":"MAREA","LANE":"LANE","ALLEY":"ALLEY","HOUSE_NO":"HOUSE_NO","E_COORD97":"E_COORD97","N_COORD97":"N_COORD97","ADDRESS":"ADDRESS","OBJECTID":"OBJECTID"},"geometryType":"esriGeometryPoint","spatialReference":{"wkid":102443,"latestWkid":3826},"fields":[{"name":"ID","type":"esriFieldTypeDouble","alias":"ID"},{"name":"DIS_CODE","type":"esriFieldTypeInteger","alias":"DIS_CODE"},{"name":"TOWNNAME","type":"esriFieldTypeString","alias":"TOWNNAME","length":8},{"name":"LI","type":"esriFieldTypeString","alias":"LI","length":8},{"name":"LIN","type":"esriFieldTypeString","alias":"LIN","length":12},{"name":"STREET","type":"esriFieldTypeString","alias":"STREET","length":20},{"name":"SECT","type":"esriFieldTypeString","alias":"SECT","length":8},{"name":"MAREA","type":"esriFieldTypeString","alias":"MAREA","length":12},{"name":"LANE","type":"esriFieldTypeString","alias":"LANE","length":10},{"name":"ALLEY","type":"esriFieldTypeString","alias":"ALLEY","length":10},{"name":"HOUSE_NO","type":"esriFieldTypeString","alias":"HOUSE_NO","length":20},{"name":"E_COORD97","type":"esriFieldTypeDouble","alias":"E_COORD97"},{"name":"N_COORD97","type":"esriFieldTypeDouble","alias":"N_COORD97"},{"name":"ADDRESS","type":"esriFieldTypeString","alias":"ADDRESS","length":50},{"name":"OBJECTID","type":"esriFieldTypeOID","alias":"OBJECTID"}],"features":[{"attributes":{"ID":336410,"DIS_CODE":0,"TOWNNAME":"永康區","LI":"埔園里","LIN":"36鄰","STREET":"龍中街","SECT":" ","MAREA":" ","LANE":"４８７巷","ALLEY":" ","HOUSE_NO":"２９號","E_COORD97":174305.89000000001,"N_COORD97":2548322.4900000002,"ADDRESS":"龍中街４８７巷２９號","OBJECTID":336401},"geometry":{"x":174305.88999999966,"y":2548322.4900000002}},{"attributes":{"ID":336411,"DIS_CODE":0,"TOWNNAME":"永康區","LI":"埔園里","LIN":"36鄰","STREET":"龍中街","SECT":" ","MAREA":" ","LANE":"４８７巷","ALLEY":" ","HOUSE_NO":"３５號","E_COORD97":174291.14000000001,"N_COORD97":2548320.8900000001,"ADDRESS":"龍中街４８７巷３５號","OBJECTID":336402},"geometry":{"x":174291.1400000006,"y":2548320.8900000006}},{"attributes":{"ID":336412,"DIS_CODE":0,"TOWNNAME":"永康區","LI":"埔園里","LIN":"36鄰","STREET":"龍中街","SECT":" ","MAREA":" ","LANE":"４８７巷","ALLEY":" ","HOUSE_NO":"２７號","E_COORD97":174310.17999999999,"N_COORD97":2548327.5,"ADDRESS":"龍中街４８７巷２７號","OBJECTID":336403},"geometry":{"x":174310.18000000063,"y":2548327.5000000019}},{"attributes":{"ID":336413,"DIS_CODE":0,"TOWNNAME":"永康區","LI":"埔園里","LIN":"36鄰","STREET":"龍中街","SECT":" ","MAREA":" ","LANE":"４８７巷","ALLEY":" ","HOUSE_NO":"２５號","E_COORD97":174314,"N_COORD97":2548324.8199999998,"ADDRESS":"龍中街４８７巷２５號","OBJECTID":336404},"geometry":{"x":174314,"y":2548324.820000004}},{"attributes":{"ID":336414,"DIS_CODE":0,"TOWNNAME":"永康區","LI":"埔園里","LIN":"36鄰","STREET":"龍中街","SECT":" ","MAREA":" ","LANE":"４８７巷","ALLEY":" ","HOUSE_NO":"２３號","E_COORD97":174318.25,"N_COORD97":2548331.3100000001,"ADDRESS":"龍中街４８７巷２３號","OBJECTID":336405},"geometry":{"x":174318.25000000093,"y":2548331.3100000005}},{"attributes":{"ID":336415,"DIS_CODE":0,"TOWNNAME":"永康區","LI":"埔園里","LIN":"36鄰","STREET":"永大路","SECT":"三段","MAREA":" ","LANE":"３６０巷","ALLEY":" ","HOUSE_NO":"２５號","E_COORD97":174230.75,"N_COORD97":2548193.5899999999,"ADDRESS":"永大路三段３６０巷２５號","OBJECTID":336406},"geometry":{"x":174230.75,"y":2548193.5900000036}},{"attributes":{"ID":336416,"DIS_CODE":0,"TOWNNAME":"永康區","LI":"埔園里","LIN":"36鄰","STREET":"龍中街","SECT":" ","MAREA":" ","LANE":"４８７巷","ALLEY":" ","HOUSE_NO":"１３號","E_COORD97":174349.16,"N_COORD97":2548351.5600000001,"ADDRESS":"龍中街４８７巷１３號","OBJECTID":336407},"geometry":{"x":174349.16000000108,"y":2548351.5600000024}},{"attributes":{"ID":336417,"DIS_CODE":0,"TOWNNAME":"永康區","LI":"\u25A0行里","LIN":"1鄰","STREET":"中正路","SECT":" ","MAREA":" ","LANE":"９７０巷","ALLEY":" ","HOUSE_NO":"２７號八樓之７","E_COORD97":172044.91,"N_COORD97":2549030.4199999999,"ADDRESS":"中正路９７０巷２７號八樓之７","OBJECTID":336408},"geometry":{"x":172044.91000000015,"y":2549030.4200000018}},{"attributes":{"ID":336418,"DIS_CODE":0,"TOWNNAME":"永康區","LI":"\u25A0行里","LIN":"1鄰","STREET":"中正路","SECT":" ","MAREA":" ","LANE":"９７０巷","ALLEY":" ","HOUSE_NO":"２７號九樓之８","E_COORD97":172044.91,"N_COORD97":2549030.4199999999,"ADDRESS":"中正路９７０巷２７號九樓之８","OBJECTID":336409},"geometry":{"x":172044.91000000015,"y":2549030.4200000018}},{"attributes":{"ID":336419,"DIS_CODE":0,"TOWNNAME":"麻豆區","LI":"中興里","LIN":"8鄰","STREET":"三民路","SECT":" ","MAREA":" ","LANE":" ","ALLEY":" ","HOUSE_NO":"６３號","E_COORD97":172813.12,"N_COORD97":2564347.3399999999,"ADDRESS":"三民路６３號","OBJECTID":336410},"geometry":{"x":172813.12000000011,"y":2564347.3400000036}},{"attributes":{"ID":336420,"DIS_CODE":0,"TOWNNAME":"善化區","LI":"北關里","LIN":"8鄰","STREET":"進學路","SECT":" ","MAREA":" ","LANE":" ","ALLEY":" ","HOUSE_NO":"１７號","E_COORD97":177287.62,"N_COORD97":2559222,"ADDRESS":"進學路１７號","OBJECTID":336411},"geometry":{"x":177287.62000000104,"y":2559222}},{"attributes":{"ID":336421,"DIS_CODE":0,"TOWNNAME":"善化區","LI":"坐駕里","LIN":"8鄰","STREET":"大成路","SECT":" ","MAREA":" ","LANE":" ","ALLEY":" ","HOUSE_NO":"３７９號","E_COORD97":177880.76999999999,"N_COORD97":2558769.5,"ADDRESS":"大成路３７９號","OBJECTID":336412},"geometry":{"x":177880.77000000048,"y":2558769.5000000019}},{"attributes":{"ID":336422,"DIS_CODE":0,"TOWNNAME":"永康區","LI":"三合里","LIN":"8鄰","STREET":"南工街","SECT":" ","MAREA":" ","LANE":" ","ALLEY":" ","HOUSE_NO":"１２７號","E_COORD97":172089.64000000001,"N_COORD97":2545772.4900000002,"ADDRESS":"南工街１２７號","OBJECTID":336413},"geometry":{"x":172089.6400000006,"y":2545772.4900000002}},{"attributes":{"ID":336423,"DIS_CODE":0,"TOWNNAME":"善化區","LI":"南關里","LIN":"8鄰","STREET":"三民路","SECT":" ","MAREA":" ","LANE":" ","ALLEY":" ","HOUSE_NO":"１７之１４號","E_COORD97":176950.73000000001,"N_COORD97":2558735.27,"ADDRESS":"三民路１７之１４號","OBJECTID":336414},"geometry":{"x":176950.73000000045,"y":2558735.2699999996}},{"attributes":{"ID":336424,"DIS_CODE":0,"TOWNNAME":"永康區","LI":"蔦松里","LIN":"8鄰","STREET":"中正北路","SECT":" ","MAREA":" ","LANE":" ","ALLEY":" ","HOUSE_NO":"４４９號","E_COORD97":173662.57999999999,"N_COORD97":2549153.7200000002,"ADDRESS":"中正北路４４９號","OBJECTID":336415},"geometry":{"x":173662.58000000007,"y":2549153.7200000025}},{"attributes":{"ID":336425,"DIS_CODE":0,"TOWNNAME":"永康區","LI":"蔦松里","LIN":"8鄰","STREET":"中正北路","SECT":" ","MAREA":" ","LANE":" ","ALLEY":" ","HOUSE_NO":"４０５號","E_COORD97":173534.37,"N_COORD97":2549155.4900000002,"ADDRESS":"中正北路４０５號","OBJECTID":336416},"geometry":{"x":173534.37000000104,"y":2549155.4900000021}},{"attributes":{"ID":336426,"DIS_CODE":0,"TOWNNAME":"善化區","LI":"南關里","LIN":"8鄰","STREET":"光復路","SECT":" ","MAREA":" ","LANE":" ","ALLEY":" ","HOUSE_NO":"５４０號","E_COORD97":176797.76000000001,"N_COORD97":2558908.7599999998,"ADDRESS":"光復路５４０號","OBJECTID":336417},"geometry":{"x":176797.76000000071,"y":2558908.7599999998}},{"attributes":{"ID":336427,"DIS_CODE":0,"TOWNNAME":"善化區","LI":"南關里","LIN":"8鄰","STREET":"光復路","SECT":" ","MAREA":" ","LANE":" ","ALLEY":" ","HOUSE_NO":"５１８號","E_COORD97":176814.31,"N_COORD97":2558867.25,"ADDRESS":"光復路５１８號","OBJECTID":336418},"geometry":{"x":176814.31000000052,"y":2558867.2500000019}},{"attributes":{"ID":336428,"DIS_CODE":0,"TOWNNAME":"善化區","LI":"南關里","LIN":"8鄰","STREET":"光復路","SECT":" ","MAREA":" ","LANE":" ","ALLEY":" ","HOUSE_NO":"５１６號","E_COORD97":176816.32000000001,"N_COORD97":2558863.2599999998,"ADDRESS":"光復路５１６號","OBJECTID":336419},"geometry":{"x":176816.32000000216,"y":2558863.2600000016}},{"attributes":{"ID":336429,"DIS_CODE":0,"TOWNNAME":"永康區","LI":"埔園里","LIN":"36鄰","STREET":"永大路","SECT":"三段","MAREA":" ","LANE":"３６０巷","ALLEY":" ","HOUSE_NO":"３１號","E_COORD97":174239.34,"N_COORD97":2548194.6000000001,"ADDRESS":"永大路三段３６０巷３１號","OBJECTID":336420},"geometry":{"x":174239.34000000078,"y":2548194.6000000015}},{"attributes":{"ID":336430,"DIS_CODE":0,"TOWNNAME":"永康區","LI":"正強里","LIN":"36鄰","STREET":"正強街","SECT":" ","MAREA":" ","LANE":"３１１巷","ALLEY":" ","HOUSE_NO":"７號","E_COORD97":173218.29000000001,"N_COORD97":2548198.6000000001,"ADDRESS":"正強街３１１巷７號","OBJECTID":336421},"geometry":{"x":173218.29000000004,"y":2548198.5999999996}},{"attributes":{"ID":336431,"DIS_CODE":0,"TOWNNAME":"永康區","LI":"正強里","LIN":"36鄰","STREET":"正強街","SECT":" ","MAREA":" ","LANE":"３０９巷","ALLEY":" ","HOUSE_NO":"１１號","E_COORD97":173214.07000000001,"N_COORD97":2548147.7599999998,"ADDRESS":"正強街３０９巷１１號","OBJECTID":336422},"geometry":{"x":173214.07000000216,"y":2548147.7599999998}},{"attributes":{"ID":336432,"DIS_CODE":0,"TOWNNAME":"永康區","LI":"正強里","LIN":"36鄰","STREET":"正強街","SECT":" ","MAREA":" ","LANE":"３１１巷","ALLEY":" ","HOUSE_NO":"２７號","E_COORD97":173174.63,"N_COORD97":2548188.6000000001,"ADDRESS":"正強街３１１巷２７號","OBJECTID":336423},"geometry":{"x":173174.63000000082,"y":2548188.5999999996}},{"attributes":{"ID":336433,"DIS_CODE":0,"TOWNNAME":"永康區","LI":"正強里","LIN":"36鄰","STREET":"正強街","SECT":" ","MAREA":" ","LANE":"３１１巷","ALLEY":" ","HOUSE_NO":"３號","E_COORD97":173227.48999999999,"N_COORD97":2548200.6000000001,"ADDRESS":"正強街３１１巷３號","OBJECTID":336424},"geometry":{"x":173227.49000000022,"y":2548200.6000000015}},{"attributes":{"ID":336434,"DIS_CODE":0,"TOWNNAME":"永康區","LI":"\u25A0行里","LIN":"1鄰","STREET":"中正路","SECT":" ","MAREA":" ","LANE":"９７０巷","ALLEY":" ","HOUSE_NO":"２７號五樓之１","E_COORD97":172044.91,"N_COORD97":2549030.4199999999,"ADDRESS":"中正路９７０巷２７號五樓之１","OBJECTID":336425},"geometry":{"x":172044.91000000015,"y":2549030.4200000018}},{"attributes":{"ID":336435,"DIS_CODE":0,"TOWNNAME":"永康區","LI":"\u25A0行里","LIN":"1鄰","STREET":"中正路","SECT":" ","MAREA":" ","LANE":"９７０巷","ALLEY":" ","HOUSE_NO":"２７號五樓之６","E_COORD97":172044.91,"N_COORD97":2549030.4199999999,"ADDRESS":"中正路９７０巷２７號五樓之６","OBJECTID":336426},"geometry":{"x":172044.91000000015,"y":2549030.4200000018}},{"attributes":{"ID":336436,"DIS_CODE":0,"TOWNNAME":"永康區","LI":"\u25A0行里","LIN":"1鄰","STREET":"中正路","SECT":" ","MAREA":" ","LANE":"９７０巷","ALLEY":" ","HOUSE_NO":"２７號六樓之７","E_COORD97":172044.91,"N_COORD97":2549030.4199999999,"ADDRESS":"中正路９７０巷２７號六樓之７","OBJECTID":336427},"geometry":{"x":172044.91000000015,"y":2549030.4200000018}},{"attributes":{"ID":336437,"DIS_CODE":0,"TOWNNAME":"永康區","LI":"\u25A0行里","LIN":"1鄰","STREET":"中正路","SECT":" ","MAREA":" ","LANE":"９７０巷","ALLEY":" ","HOUSE_NO":"２７號三樓之１０","E_COORD97":172044.91,"N_COORD97":2549030.4199999999,"ADDRESS":"中正路９７０巷２７號三樓之１０","OBJECTID":336428},"geometry":{"x":172044.91000000015,"y":2549030.4200000018}},{"attributes":{"ID":336438,"DIS_CODE":0,"TOWNNAME":"永康區","LI":"\u25A0行里","LIN":"1鄰","STREET":"中正路","SECT":" ","MAREA":" ","LANE":"９７０巷","ALLEY":" ","HOUSE_NO":"２７號十一樓之６","E_COORD97":172044.91,"N_COORD97":2549030.4199999999,"ADDRESS":"中正路９７０巷２７號十一樓之６","OBJECTID":336429},"geometry":{"x":172044.91000000015,"y":2549030.4200000018}},{"attributes":{"ID":336439,"DIS_CODE":0,"TOWNNAME":"永康區","LI":"\u25A0行里","LIN":"1鄰","STREET":"中正路","SECT":" ","MAREA":" ","LANE":"９７０巷","ALLEY":" ","HOUSE_NO":"２７號十一樓之２","E_COORD97":172044.91,"N_COORD97":2549030.4199999999,"ADDRESS":"中正路９７０巷２７號十一樓之２","OBJECTID":336430},"geometry":{"x":172044.91000000015,"y":2549030.4200000018}},{"attributes":{"ID":336440,"DIS_CODE":0,"TOWNNAME":"善化區","LI":"南關里","LIN":"8鄰","STREET":"光復路","SECT":" ","MAREA":" ","LANE":" ","ALLEY":" ","HOUSE_NO":"５３０號","E_COORD97":176805.81,"N_COORD97":2558887.2599999998,"ADDRESS":"光復路５３０號","OBJECTID":336431},"geometry":{"x":176805.81000000052,"y":2558887.2600000016}},{"attributes":{"ID":336441,"DIS_CODE":0,"TOWNNAME":"善化區","LI":"南關里","LIN":"8鄰","STREET":"光復路","SECT":" ","MAREA":" ","LANE":" ","ALLEY":" ","HOUSE_NO":"５５２號","E_COORD97":176792.53,"N_COORD97":2558931.7599999998,"ADDRESS":"光復路５５２號","OBJECTID":336432},"geometry":{"x":176792.53000000026,"y":2558931.7599999998}},{"attributes":{"ID":336442,"DIS_CODE":0,"TOWNNAME":"善化區","LI":"南關里","LIN":"8鄰","STREET":"三民路","SECT":" ","MAREA":" ","LANE":" ","ALLEY":" ","HOUSE_NO":"１７之１５號","E_COORD97":176950.89999999999,"N_COORD97":2558728.27,"ADDRESS":"三民路１７之１５號","OBJECTID":336433},"geometry":{"x":176950.90000000037,"y":2558728.2699999996}},{"attributes":{"ID":336443,"DIS_CODE":0,"TOWNNAME":"善化區","LI":"東關里","LIN":"8鄰","STREET":"中山路","SECT":" ","MAREA":" ","LANE":" ","ALLEY":" ","HOUSE_NO":"４４７號","E_COORD97":177296.06,"N_COORD97":2559113.25,"ADDRESS":"中山路４４７號","OBJECTID":336434},"geometry":{"x":177296.06000000052,"y":2559113.2500000037}},{"attributes":{"ID":336444,"DIS_CODE":0,"TOWNNAME":"善化區","LI":"南關里","LIN":"8鄰","STREET":"自由路","SECT":" ","MAREA":" ","LANE":" ","ALLEY":" ","HOUSE_NO":"１３４號","E_COORD97":177046.13,"N_COORD97":2558895.25,"ADDRESS":"自由路１３４號","OBJECTID":336435},"geometry":{"x":177046.13000000082,"y":2558895.25}},{"attributes":{"ID":336445,"DIS_CODE":0,"TOWNNAME":"善化區","LI":"南關里","LIN":"8鄰","STREET":"三民路","SECT":" ","MAREA":" ","LANE":" ","ALLEY":" ","HOUSE_NO":"１７號之２０","E_COORD97":176933.12,"N_COORD97":2558758.27,"ADDRESS":"三民路１７號之２０","OBJECTID":336436},"geometry":{"x":176933.12000000104,"y":2558758.2699999996}},{"attributes":{"ID":336446,"DIS_CODE":0,"TOWNNAME":"仁德區","LI":"太子里","LIN":"36鄰","STREET":"長興一街","SECT":" ","MAREA":" ","LANE":"１１０巷","ALLEY":" ","HOUSE_NO":"６號","E_COORD97":174376.17000000001,"N_COORD97":2543913.25,"ADDRESS":"長興一街１１０巷６號","OBJECTID":336437},"geometry":{"x":174376.17000000086,"y":2543913.25}},{"attributes":{"ID":336447,"DIS_CODE":0,"TOWNNAME":"仁德區","LI":"成功里","LIN":"36鄰","STREET":"保華路","SECT":" ","MAREA":" ","LANE":"４６巷","ALLEY":" ","HOUSE_NO":"３７號","E_COORD97":170654.84,"N_COORD97":2540081.7400000002,"ADDRESS":"保華路４６巷３７號","OBJECTID":336438},"geometry":{"x":170654.83999999985,"y":2540081.7400000002}},{"attributes":{"ID":336448,"DIS_CODE":0,"TOWNNAME":"仁德區","LI":"太子里","LIN":"36鄰","STREET":"長興一街","SECT":" ","MAREA":" ","LANE":"４０巷","ALLEY":" ","HOUSE_NO":"１３號","E_COORD97":174541.57000000001,"N_COORD97":2543884.5,"ADDRESS":"長興一街４０巷１３號","OBJECTID":336439},"geometry":{"x":174541.57000000123,"y":2543884.5}},{"attributes":{"ID":336449,"DIS_CODE":0,"TOWNNAME":"仁德區","LI":"成功里","LIN":"36鄰","STREET":"保華路","SECT":" ","MAREA":" ","LANE":"６４巷","ALLEY":" ","HOUSE_NO":"６號","E_COORD97":170624.25,"N_COORD97":2540021,"ADDRESS":"保華路６４巷６號","OBJECTID":336440},"geometry":{"x":170624.25000000093,"y":2540021.0000000019}},{"attributes":{"ID":336450,"DIS_CODE":0,"TOWNNAME":"仁德區","LI":"成功里","LIN":"36鄰","STREET":"保華路","SECT":" ","MAREA":" ","LANE":"４６巷","ALLEY":" ","HOUSE_NO":"２１號","E_COORD97":170654.29000000001,"N_COORD97":2540049.4900000002,"ADDRESS":"保華路４６巷２１號","OBJECTID":336441},"geometry":{"x":170654.29000000097,"y":2540049.4900000002}},{"attributes":{"ID":336451,"DIS_CODE":0,"TOWNNAME":"永康區","LI":"正強里","LIN":"36鄰","STREET":"正強街","SECT":" ","MAREA":" ","LANE":"３０９巷","ALLEY":" ","HOUSE_NO":"５號","E_COORD97":173226.60999999999,"N_COORD97":2548151.0099999998,"ADDRESS":"正強街３０９巷５號","OBJECTID":336442},"geometry":{"x":173226.61000000034,"y":2548151.0100000016}},{"attributes":{"ID":336452,"DIS_CODE":0,"TOWNNAME":"永康區","LI":"正強里","LIN":"36鄰","STREET":"正強街","SECT":" ","MAREA":" ","LANE":"３０７巷","ALLEY":" ","HOUSE_NO":"２２號","E_COORD97":173197.45999999999,"N_COORD97":2548118.9399999999,"ADDRESS":"正強街３０７巷２２號","OBJECTID":336443},"geometry":{"x":173197.46000000183,"y":2548118.9399999995}},{"attributes":{"ID":336453,"DIS_CODE":0,"TOWNNAME":"永康區","LI":"\u25A0行里","LIN":"1鄰","STREET":"中正路","SECT":" ","MAREA":" ","LANE":"９７０巷","ALLEY":" ","HOUSE_NO":"２７號九樓之３","E_COORD97":172044.91,"N_COORD97":2549030.4199999999,"ADDRESS":"中正路９７０巷２７號九樓之３","OBJECTID":336444},"geometry":{"x":172044.91000000015,"y":2549030.4200000018}},{"attributes":{"ID":336454,"DIS_CODE":0,"TOWNNAME":"永康區","LI":"\u25A0行里","LIN":"1鄰","STREET":"中正路","SECT":" ","MAREA":" ","LANE":"９７０巷","ALLEY":" ","HOUSE_NO":"２７號十樓之２","E_COORD97":172044.91,"N_COORD97":2549030.4199999999,"ADDRESS":"中正路９７０巷２７號十樓之２","OBJECTID":336445},"geometry":{"x":172044.91000000015,"y":2549030.4200000018}},{"attributes":{"ID":336455,"DIS_CODE":0,"TOWNNAME":"永康區","LI":"\u25A0行里","LIN":"1鄰","STREET":"中正路","SECT":" ","MAREA":" ","LANE":"９７０巷","ALLEY":" ","HOUSE_NO":"２７號五樓之７","E_COORD97":172044.91,"N_COORD97":2549030.4199999999,"ADDRESS":"中正路９７０巷２７號五樓之７","OBJECTID":336446},"geometry":{"x":172044.91000000015,"y":2549030.4200000018}},{"attributes":{"ID":336456,"DIS_CODE":0,"TOWNNAME":"永康區","LI":"\u25A0行里","LIN":"1鄰","STREET":"中正路","SECT":" ","MAREA":" ","LANE":"９７０巷","ALLEY":" ","HOUSE_NO":"２７號七樓之９","E_COORD97":172044.91,"N_COORD97":2549030.4199999999,"ADDRESS":"中正路９７０巷２７號七樓之９","OBJECTID":336447},"geometry":{"x":172044.91000000015,"y":2549030.4200000018}},{"attributes":{"ID":336457,"DIS_CODE":0,"TOWNNAME":"永康區","LI":"\u25A0行里","LIN":"1鄰","STREET":"中正路","SECT":" ","MAREA":" ","LANE":"９７０巷","ALLEY":" ","HOUSE_NO":"２７號四樓之１０","E_COORD97":172044.91,"N_COORD97":2549030.4199999999,"ADDRESS":"中正路９７０巷２７號四樓之１０","OBJECTID":336448},"geometry":{"x":172044.91000000015,"y":2549030.4200000018}},{"attributes":{"ID":336458,"DIS_CODE":0,"TOWNNAME":"永康區","LI":"\u25A0行里","LIN":"1鄰","STREET":"中正路","SECT":" ","MAREA":" ","LANE":"９７０巷","ALLEY":" ","HOUSE_NO":"２７號七樓之２","E_COORD97":172044.91,"N_COORD97":2549030.4199999999,"ADDRESS":"中正路９７０巷２７號七樓之２","OBJECTID":336449},"geometry":{"x":172044.91000000015,"y":2549030.4200000018}},{"attributes":{"ID":336459,"DIS_CODE":0,"TOWNNAME":"永康區","LI":"\u25A0行里","LIN":"1鄰","STREET":"中正路","SECT":" ","MAREA":" ","LANE":"９７０巷","ALLEY":" ","HOUSE_NO":"２７號八樓之６","E_COORD97":172044.91,"N_COORD97":2549030.4199999999,"ADDRESS":"中正路９７０巷２７號八樓之６","OBJECTID":336450},"geometry":{"x":172044.91000000015,"y":2549030.4200000018}},{"attributes":{"ID":336460,"DIS_CODE":0,"TOWNNAME":"永康區","LI":"\u25A0行里","LIN":"1鄰","STREET":"中正路","SECT":" ","MAREA":" ","LANE":"９７０巷","ALLEY":" ","HOUSE_NO":"２７號二樓之１","E_COORD97":172044.91,"N_COORD97":2549030.4199999999,"ADDRESS":"中正路９７０巷２７號二樓之１","OBJECTID":336451},"geometry":{"x":172044.91000000015,"y":2549030.4200000018}},{"attributes":{"ID":336461,"DIS_CODE":0,"TOWNNAME":"善化區","LI":"南關里","LIN":"8鄰","STREET":"光復路","SECT":" ","MAREA":" ","LANE":" ","ALLEY":" ","HOUSE_NO":"４１６號","E_COORD97":176920.70999999999,"N_COORD97":2558698.5099999998,"ADDRESS":"光復路４１６號","OBJECTID":336452},"geometry":{"x":176920.71000000089,"y":2558698.5100000016}},{"attributes":{"ID":336462,"DIS_CODE":0,"TOWNNAME":"善化區","LI":"東關里","LIN":"8鄰","STREET":"中山路","SECT":" ","MAREA":" ","LANE":" ","ALLEY":" ","HOUSE_NO":"４６１號","E_COORD97":177272.09,"N_COORD97":2559117,"ADDRESS":"中山路４６１號","OBJECTID":336453},"geometry":{"x":177272.09000000078,"y":2559117}},{"attributes":{"ID":336463,"DIS_CODE":0,"TOWNNAME":"善化區","LI":"南關里","LIN":"8鄰","STREET":"光復路","SECT":" ","MAREA":" ","LANE":" ","ALLEY":" ","HOUSE_NO":"４３２號","E_COORD97":176888.14000000001,"N_COORD97":2558733.7599999998,"ADDRESS":"光復路４３２號","OBJECTID":336454},"geometry":{"x":176888.1400000006,"y":2558733.7600000016}},{"attributes":{"ID":336464,"DIS_CODE":0,"TOWNNAME":"將軍區","LI":"長榮里","LIN":"5鄰","STREET":" ","SECT":" ","MAREA":"長榮","LANE":" ","ALLEY":" ","HOUSE_NO":"５９號","E_COORD97":164150.67000000001,"N_COORD97":2566281.0499999998,"ADDRESS":"長榮５９號","OBJECTID":336455},"geometry":{"x":164150.67000000086,"y":2566281.0500000007}},{"attributes":{"ID":336465,"DIS_CODE":0,"TOWNNAME":"善化區","LI":"南關里","LIN":"8鄰","STREET":"三民路","SECT":" ","MAREA":" ","LANE":" ","ALLEY":" ","HOUSE_NO":"１７號之２","E_COORD97":176933.87,"N_COORD97":2558825.77,"ADDRESS":"三民路１７號之２","OBJECTID":336456},"geometry":{"x":176933.87000000011,"y":2558825.7700000014}},{"attributes":{"ID":336466,"DIS_CODE":0,"TOWNNAME":"善化區","LI":"南關里","LIN":"8鄰","STREET":"三民路","SECT":" ","MAREA":" ","LANE":" ","ALLEY":" ","HOUSE_NO":"２１號","E_COORD97":177022.89999999999,"N_COORD97":2558869.5099999998,"ADDRESS":"三民路２１號","OBJECTID":336457},"geometry":{"x":177022.9000000013,"y":2558869.5099999998}},{"attributes":{"ID":336467,"DIS_CODE":0,"TOWNNAME":"善化區","LI":"南關里","LIN":"8鄰","STREET":"三民路","SECT":" ","MAREA":" ","LANE":" ","ALLEY":" ","HOUSE_NO":"１７號之１９","E_COORD97":176936.60999999999,"N_COORD97":2558756.52,"ADDRESS":"三民路１７號之１９","OBJECTID":336458},"geometry":{"x":176936.61000000127,"y":2558756.5200000014}},{"attributes":{"ID":336468,"DIS_CODE":0,"TOWNNAME":"善化區","LI":"南關里","LIN":"8鄰","STREET":"三民路","SECT":" ","MAREA":" ","LANE":" ","ALLEY":" ","HOUSE_NO":"２１號之２","E_COORD97":177039.64999999999,"N_COORD97":2558863.77,"ADDRESS":"三民路２１號之２","OBJECTID":336459},"geometry":{"x":177039.65000000224,"y":2558863.7699999996}},{"attributes":{"ID":336469,"DIS_CODE":0,"TOWNNAME":"楠西區","LI":"照興里","LIN":"5鄰","STREET":" ","SECT":" ","MAREA":"興北","LANE":" ","ALLEY":" ","HOUSE_NO":"５９號","E_COORD97":197838.87,"N_COORD97":2566975.25,"ADDRESS":"興北５９號","OBJECTID":336460},"geometry":{"x":197838.87000000011,"y":2566975.2499999981}},{"attributes":{"ID":336470,"DIS_CODE":0,"TOWNNAME":"善化區","LI":"南關里","LIN":"8鄰","STREET":"三民路","SECT":" ","MAREA":" ","LANE":" ","ALLEY":" ","HOUSE_NO":"１７號之６","E_COORD97":176958.48000000001,"N_COORD97":2558796.52,"ADDRESS":"三民路１７號之６","OBJECTID":336461},"geometry":{"x":176958.48000000138,"y":2558796.5200000014}},{"attributes":{"ID":336471,"DIS_CODE":0,"TOWNNAME":"永康區","LI":"三合里","LIN":"8鄰","STREET":"南工街","SECT":" ","MAREA":" ","LANE":" ","ALLEY":" ","HOUSE_NO":"１１１號","E_COORD97":172090.69,"N_COORD97":2545737.9900000002,"ADDRESS":"南工街１１１號","OBJECTID":336462},"geometry":{"x":172090.69000000041,"y":2545737.9900000021}},{"attributes":{"ID":336472,"DIS_CODE":0,"TOWNNAME":"佳里區","LI":"建南里","LIN":"36鄰","STREET":"成功路","SECT":" ","MAREA":" ","LANE":"１５０巷","ALLEY":" ","HOUSE_NO":"１號","E_COORD97":165373.07999999999,"N_COORD97":2561298.6600000001,"ADDRESS":"成功路１５０巷１號","OBJECTID":336463},"geometry":{"x":165373.08000000007,"y":2561298.660000002}},{"attributes":{"ID":336473,"DIS_CODE":0,"TOWNNAME":"佳里區","LI":"建南里","LIN":"36鄰","STREET":"成功路","SECT":" ","MAREA":" ","LANE":"２０２巷","ALLEY":" ","HOUSE_NO":"１１號","E_COORD97":165285.09,"N_COORD97":2561169.27,"ADDRESS":"成功路２０２巷１１號","OBJECTID":336464},"geometry":{"x":165285.09000000078,"y":2561169.2699999996}},{"attributes":{"ID":336474,"DIS_CODE":0,"TOWNNAME":"佳里區","LI":"建南里","LIN":"36鄰","STREET":"成功路","SECT":" ","MAREA":" ","LANE":"２０２巷","ALLEY":" ","HOUSE_NO":"１３號","E_COORD97":165276.94,"N_COORD97":2561168.3599999999,"ADDRESS":"成功路２０２巷１３號","OBJECTID":336465},"geometry":{"x":165276.94000000134,"y":2561168.3599999994}},{"attributes":{"ID":336475,"DIS_CODE":0,"TOWNNAME":"佳里區","LI":"建南里","LIN":"36鄰","STREET":"成功路","SECT":" ","MAREA":" ","LANE":"２０２巷","ALLEY":" ","HOUSE_NO":"１５號","E_COORD97":165266.19,"N_COORD97":2561167.6099999999,"ADDRESS":"成功路２０２巷１５號","OBJECTID":336466},"geometry":{"x":165266.19000000227,"y":2561167.6099999994}},{"attributes":{"ID":336476,"DIS_CODE":0,"TOWNNAME":"佳里區","LI":"建南里","LIN":"36鄰","STREET":"成功路","SECT":" ","MAREA":" ","LANE":"２０２巷","ALLEY":" ","HOUSE_NO":"１７號","E_COORD97":165251.32999999999,"N_COORD97":2561166.77,"ADDRESS":"成功路２０２巷１７號","OBJECTID":336467},"geometry":{"x":165251.33000000194,"y":2561166.7699999996}},{"attributes":{"ID":336477,"DIS_CODE":0,"TOWNNAME":"佳里區","LI":"建南里","LIN":"36鄰","STREET":"成功路","SECT":" ","MAREA":" ","LANE":"２０２巷","ALLEY":" ","HOUSE_NO":"１９號","E_COORD97":165237.79999999999,"N_COORD97":2561160.75,"ADDRESS":"成功路２０２巷１９號","OBJECTID":336468},"geometry":{"x":165237.80000000168,"y":2561160.7499999981}},{"attributes":{"ID":336478,"DIS_CODE":0,"TOWNNAME":"佳里區","LI":"建南里","LIN":"36鄰","STREET":"成功路","SECT":" ","MAREA":" ","LANE":"２０２巷","ALLEY":" ","HOUSE_NO":"１號","E_COORD97":165325.79999999999,"N_COORD97":2561173.8500000001,"ADDRESS":"成功路２０２巷１號","OBJECTID":336469},"geometry":{"x":165325.80000000168,"y":2561173.8500000015}},{"attributes":{"ID":336479,"DIS_CODE":0,"TOWNNAME":"佳里區","LI":"建南里","LIN":"36鄰","STREET":"成功路","SECT":" ","MAREA":" ","LANE":"２０２巷","ALLEY":" ","HOUSE_NO":"２１號","E_COORD97":165237.01000000001,"N_COORD97":2561165.1299999999,"ADDRESS":"成功路２０２巷２１號","OBJECTID":336470},"geometry":{"x":165237.01000000071,"y":2561165.1300000008}},{"attributes":{"ID":336480,"DIS_CODE":0,"TOWNNAME":"佳里區","LI":"建南里","LIN":"36鄰","STREET":"成功路","SECT":" ","MAREA":" ","LANE":"２０２巷","ALLEY":" ","HOUSE_NO":"２３號","E_COORD97":165216.10999999999,"N_COORD97":2561157.3500000001,"ADDRESS":"成功路２０２巷２３號","OBJECTID":336471},"geometry":{"x":165216.11000000127,"y":2561157.3500000015}},{"attributes":{"ID":336481,"DIS_CODE":0,"TOWNNAME":"永康區","LI":"\u25A0行里","LIN":"1鄰","STREET":"中正路","SECT":" ","MAREA":" ","LANE":"９７０巷","ALLEY":" ","HOUSE_NO":"２７號三樓之１","E_COORD97":172044.91,"N_COORD97":2549030.4199999999,"ADDRESS":"中正路９７０巷２７號三樓之１","OBJECTID":336472},"geometry":{"x":172044.91000000015,"y":2549030.4200000018}},{"attributes":{"ID":336482,"DIS_CODE":0,"TOWNNAME":"永康區","LI":"\u25A0行里","LIN":"1鄰","STREET":"中正路","SECT":" ","MAREA":" ","LANE":"９７０巷","ALLEY":" ","HOUSE_NO":"２７號八樓之１","E_COORD97":172044.91,"N_COORD97":2549030.4199999999,"ADDRESS":"中正路９７０巷２７號八樓之１","OBJECTID":336473},"geometry":{"x":172044.91000000015,"y":2549030.4200000018}},{"attributes":{"ID":336483,"DIS_CODE":0,"TOWNNAME":"永康區","LI":"\u25A0行里","LIN":"1鄰","STREET":"中正路","SECT":" ","MAREA":" ","LANE":"９７０巷","ALLEY":" ","HOUSE_NO":"２７號八樓之３","E_COORD97":172044.91,"N_COORD97":2549030.4199999999,"ADDRESS":"中正路９７０巷２７號八樓之３","OBJECTID":336474},"geometry":{"x":172044.91000000015,"y":2549030.4200000018}},{"attributes":{"ID":336484,"DIS_CODE":0,"TOWNNAME":"永康區","LI":"\u25A0行里","LIN":"1鄰","STREET":"中正路","SECT":" ","MAREA":" ","LANE":"９７０巷","ALLEY":" ","HOUSE_NO":"２７號三樓之７","E_COORD97":172044.91,"N_COORD97":2549030.4199999999,"ADDRESS":"中正路９７０巷２７號三樓之７","OBJECTID":336475},"geometry":{"x":172044.91000000015,"y":2549030.4200000018}},{"attributes":{"ID":336485,"DIS_CODE":0,"TOWNNAME":"永康區","LI":"\u25A0行里","LIN":"1鄰","STREET":"中正路","SECT":" ","MAREA":" ","LANE":"９７０巷","ALLEY":" ","HOUSE_NO":"２７號十樓之５","E_COORD97":172044.91,"N_COORD97":2549030.4199999999,"ADDRESS":"中正路９７０巷２７號十樓之５","OBJECTID":336476},"geometry":{"x":172044.91000000015,"y":2549030.4200000018}},{"attributes":{"ID":336486,"DIS_CODE":0,"TOWNNAME":"永康區","LI":"\u25A0行里","LIN":"1鄰","STREET":"中正路","SECT":" ","MAREA":" ","LANE":"９７０巷","ALLEY":" ","HOUSE_NO":"２７號九樓之６","E_COORD97":172044.91,"N_COORD97":2549030.4199999999,"ADDRESS":"中正路９７０巷２７號九樓之６","OBJECTID":336477},"geometry":{"x":172044.91000000015,"y":2549030.4200000018}},{"attributes":{"ID":336487,"DIS_CODE":0,"TOWNNAME":"永康區","LI":"\u25A0行里","LIN":"1鄰","STREET":"中正路","SECT":" ","MAREA":" ","LANE":"９７０巷","ALLEY":" ","HOUSE_NO":"２７號八樓之８","E_COORD97":172044.91,"N_COORD97":2549030.4199999999,"ADDRESS":"中正路９７０巷２７號八樓之８","OBJECTID":336478},"geometry":{"x":172044.91000000015,"y":2549030.4200000018}},{"attributes":{"ID":336488,"DIS_CODE":0,"TOWNNAME":"永康區","LI":"三合里","LIN":"8鄰","STREET":"南工街","SECT":" ","MAREA":" ","LANE":" ","ALLEY":" ","HOUSE_NO":"１３３號","E_COORD97":172089.82999999999,"N_COORD97":2545784.25,"ADDRESS":"南工街１３３號","OBJECTID":336479},"geometry":{"x":172089.83000000194,"y":2545784.25}},{"attributes":{"ID":336489,"DIS_CODE":0,"TOWNNAME":"永康區","LI":"三合里","LIN":"8鄰","STREET":"南工街","SECT":" ","MAREA":" ","LANE":" ","ALLEY":" ","HOUSE_NO":"１２１號","E_COORD97":172089.35000000001,"N_COORD97":2545760.2400000002,"ADDRESS":"南工街１２１號","OBJECTID":336480},"geometry":{"x":172089.35000000056,"y":2545760.2400000021}},{"attributes":{"ID":336490,"DIS_CODE":0,"TOWNNAME":"永康區","LI":"二王里","LIN":"8鄰","STREET":"中山南路","SECT":" ","MAREA":" ","LANE":" ","ALLEY":" ","HOUSE_NO":"８０２號","E_COORD97":172802.92999999999,"N_COORD97":2546797.6400000001,"ADDRESS":"中山南路８０２號","OBJECTID":336481},"geometry":{"x":172802.93000000063,"y":2546797.6400000025}},{"attributes":{"ID":336491,"DIS_CODE":0,"TOWNNAME":"永康區","LI":"二王里","LIN":"8鄰","STREET":"中山南路","SECT":" ","MAREA":" ","LANE":" ","ALLEY":" ","HOUSE_NO":"７８２號","E_COORD97":172764.23000000001,"N_COORD97":2546784.1400000001,"ADDRESS":"中山南路７８２號","OBJECTID":336482},"geometry":{"x":172764.23000000138,"y":2546784.1400000025}},{"attributes":{"ID":336492,"DIS_CODE":0,"TOWNNAME":"永康區","LI":"二王里","LIN":"8鄰","STREET":"中山南路","SECT":" ","MAREA":" ","LANE":" ","ALLEY":" ","HOUSE_NO":"７７２號","E_COORD97":172744.48999999999,"N_COORD97":2546776.1400000001,"ADDRESS":"中山南路７７２號","OBJECTID":336483},"geometry":{"x":172744.49000000022,"y":2546776.1400000006}},{"attributes":{"ID":336493,"DIS_CODE":0,"TOWNNAME":"永康區","LI":"二王里","LIN":"8鄰","STREET":"中山南路","SECT":" ","MAREA":" ","LANE":" ","ALLEY":" ","HOUSE_NO":"７９２之１號","E_COORD97":172789.70000000001,"N_COORD97":2546791.9399999999,"ADDRESS":"中山南路７９２之１號","OBJECTID":336484},"geometry":{"x":172789.70000000112,"y":2546791.9400000013}},{"attributes":{"ID":336494,"DIS_CODE":0,"TOWNNAME":"永康區","LI":"二王里","LIN":"8鄰","STREET":"中山南路","SECT":" ","MAREA":" ","LANE":" ","ALLEY":" ","HOUSE_NO":"７８６號","E_COORD97":172771.82999999999,"N_COORD97":2546786.6400000001,"ADDRESS":"中山南路７８６號","OBJECTID":336485},"geometry":{"x":172771.83000000101,"y":2546786.6400000006}},{"attributes":{"ID":336495,"DIS_CODE":0,"TOWNNAME":"永康區","LI":"二王里","LIN":"8鄰","STREET":"中山南路","SECT":" ","MAREA":" ","LANE":" ","ALLEY":" ","HOUSE_NO":"７６４號","E_COORD97":172721.70000000001,"N_COORD97":2546767.3900000001,"ADDRESS":"中山南路７６４號","OBJECTID":336486},"geometry":{"x":172721.70000000112,"y":2546767.3900000006}},{"attributes":{"ID":336496,"DIS_CODE":0,"TOWNNAME":"永康區","LI":"二王里","LIN":"8鄰","STREET":"中山南路","SECT":" ","MAREA":" ","LANE":" ","ALLEY":" ","HOUSE_NO":"７７０號","E_COORD97":172735.69,"N_COORD97":2546771.3900000001,"ADDRESS":"中山南路７７０號","OBJECTID":336487},"geometry":{"x":172735.69000000134,"y":2546771.3900000006}},{"attributes":{"ID":336497,"DIS_CODE":0,"TOWNNAME":"佳里區","LI":"建南里","LIN":"36鄰","STREET":"成功路","SECT":" ","MAREA":" ","LANE":"２０２巷","ALLEY":" ","HOUSE_NO":"３號","E_COORD97":165317.66,"N_COORD97":2561172.9300000002,"ADDRESS":"成功路２０２巷３號","OBJECTID":336488},"geometry":{"x":165317.66000000108,"y":2561172.9300000034}},{"attributes":{"ID":336498,"DIS_CODE":0,"TOWNNAME":"永康區","LI":"\u25A0行里","LIN":"1鄰","STREET":"中正路","SECT":" ","MAREA":" ","LANE":"９７０巷","ALLEY":" ","HOUSE_NO":"２７號五樓之５","E_COORD97":172044.91,"N_COORD97":2549030.4199999999,"ADDRESS":"中正路９７０巷２７號五樓之５","OBJECTID":336489},"geometry":{"x":172044.91000000015,"y":2549030.4200000018}},{"attributes":{"ID":336499,"DIS_CODE":0,"TOWNNAME":"永康區","LI":"\u25A0行里","LIN":"1鄰","STREET":"中正路","SECT":" ","MAREA":" ","LANE":"９７０巷","ALLEY":" ","HOUSE_NO":"２７號四樓之５","E_COORD97":172044.91,"N_COORD97":2549030.4199999999,"ADDRESS":"中正路９７０巷２７號四樓之５","OBJECTID":336490},"geometry":{"x":172044.91000000015,"y":2549030.4200000018}},{"attributes":{"ID":336500,"DIS_CODE":0,"TOWNNAME":"永康區","LI":"\u25A0行里","LIN":"1鄰","STREET":"中正路","SECT":" ","MAREA":" ","LANE":"９７０巷","ALLEY":" ","HOUSE_NO":"２７號九樓之１","E_COORD97":172044.91,"N_COORD97":2549030.4199999999,"ADDRESS":"中正路９７０巷２７號九樓之１","OBJECTID":336491},"geometry":{"x":172044.91000000015,"y":2549030.4200000018}},{"attributes":{"ID":336501,"DIS_CODE":0,"TOWNNAME":"永康區","LI":"\u25A0行里","LIN":"1鄰","STREET":"中正路","SECT":" ","MAREA":" ","LANE":"９７０巷","ALLEY":" ","HOUSE_NO":"２７號十一樓之１","E_COORD97":172044.91,"N_COORD97":2549030.4199999999,"ADDRESS":"中正路９７０巷２７號十一樓之１","OBJECTID":336492},"geometry":{"x":172044.91000000015,"y":2549030.4200000018}},{"attributes":{"ID":336502,"DIS_CODE":0,"TOWNNAME":"永康區","LI":"\u25A0行里","LIN":"1鄰","STREET":"中正路","SECT":" ","MAREA":" ","LANE":"９７０巷","ALLEY":" ","HOUSE_NO":"２７號十一樓之３","E_COORD97":172044.91,"N_COORD97":2549030.4199999999,"ADDRESS":"中正路９７０巷２７號十一樓之３","OBJECTID":336493},"geometry":{"x":172044.91000000015,"y":2549030.4200000018}},{"attributes":{"ID":336503,"DIS_CODE":0,"TOWNNAME":"永康區","LI":"\u25A0行里","LIN":"1鄰","STREET":"中正路","SECT":" ","MAREA":" ","LANE":"９７０巷","ALLEY":" ","HOUSE_NO":"２７號六樓之８","E_COORD97":172044.91,"N_COORD97":2549030.4199999999,"ADDRESS":"中正路９７０巷２７號六樓之８","OBJECTID":336494},"geometry":{"x":172044.91000000015,"y":2549030.4200000018}},{"attributes":{"ID":336504,"DIS_CODE":0,"TOWNNAME":"永康區","LI":"\u25A0行里","LIN":"1鄰","STREET":"中正路","SECT":" ","MAREA":" ","LANE":"９７０巷","ALLEY":" ","HOUSE_NO":"２７號九樓之７","E_COORD97":172044.91,"N_COORD97":2549030.4199999999,"ADDRESS":"中正路９７０巷２７號九樓之７","OBJECTID":336495},"geometry":{"x":172044.91000000015,"y":2549030.4200000018}},{"attributes":{"ID":336505,"DIS_CODE":0,"TOWNNAME":"永康區","LI":"\u25A0行里","LIN":"1鄰","STREET":"中正路","SECT":" ","MAREA":" ","LANE":"９７０巷","ALLEY":" ","HOUSE_NO":"２７號三樓之６","E_COORD97":172044.91,"N_COORD97":2549030.4199999999,"ADDRESS":"中正路９７０巷２７號三樓之６","OBJECTID":336496},"geometry":{"x":172044.91000000015,"y":2549030.4200000018}},{"attributes":{"ID":336506,"DIS_CODE":0,"TOWNNAME":"永康區","LI":"\u25A0行里","LIN":"1鄰","STREET":"中正路","SECT":" ","MAREA":" ","LANE":"９７０巷","ALLEY":" ","HOUSE_NO":"２７號五樓之９","E_COORD97":172044.91,"N_COORD97":2549030.4199999999,"ADDRESS":"中正路９７０巷２７號五樓之９","OBJECTID":336497},"geometry":{"x":172044.91000000015,"y":2549030.4200000018}},{"attributes":{"ID":336507,"DIS_CODE":0,"TOWNNAME":"永康區","LI":"\u25A0行里","LIN":"1鄰","STREET":"中正路","SECT":" ","MAREA":" ","LANE":"９７０巷","ALLEY":" ","HOUSE_NO":"２７號四樓之９","E_COORD97":172044.91,"N_COORD97":2549030.4199999999,"ADDRESS":"中正路９７０巷２７號四樓之９","OBJECTID":336498},"geometry":{"x":172044.91000000015,"y":2549030.4200000018}},{"attributes":{"ID":336508,"DIS_CODE":0,"TOWNNAME":"永康區","LI":"\u25A0行里","LIN":"1鄰","STREET":"中正路","SECT":" ","MAREA":" ","LANE":"９７０巷","ALLEY":" ","HOUSE_NO":"２７號六樓之３","E_COORD97":172044.91,"N_COORD97":2549030.4199999999,"ADDRESS":"中正路９７０巷２７號六樓之３","OBJECTID":336499},"geometry":{"x":172044.91000000015,"y":2549030.4200000018}},{"attributes":{"ID":336509,"DIS_CODE":0,"TOWNNAME":"永康區","LI":"\u25A0行里","LIN":"1鄰","STREET":"中正路","SECT":" ","MAREA":" ","LANE":"９７０巷","ALLEY":" ","HOUSE_NO":"２７號十一樓之８","E_COORD97":172044.91,"N_COORD97":2549030.4199999999,"ADDRESS":"中正路９７０巷２７號十一樓之８","OBJECTID":336500},"geometry":{"x":172044.91000000015,"y":2549030.4200000018}},{"attributes":{"ID":336510,"DIS_CODE":0,"TOWNNAME":"永康區","LI":"安康里","LIN":"1鄰","STREET":"中華路","SECT":" ","MAREA":" ","LANE":"７２７巷","ALLEY":" ","HOUSE_NO":"１６號三樓之３","E_COORD97":170790.76000000001,"N_COORD97":2546399.8300000001,"ADDRESS":"中華路７２７巷１６號三樓之３","OBJECTID":336501},"geometry":{"x":170790.75999999978,"y":2546399.8300000019}},{"attributes":{"ID":336511,"DIS_CODE":0,"TOWNNAME":"永康區","LI":"安康里","LIN":"1鄰","STREET":"中華路","SECT":" ","MAREA":" ","LANE":"７２７巷","ALLEY":" ","HOUSE_NO":"１６號十四樓之６","E_COORD97":170792.01000000001,"N_COORD97":2546399.8300000001,"ADDRESS":"中華路７２７巷１６號十四樓之６","OBJECTID":336502},"geometry":{"x":170792.01000000071,"y":2546399.8300000019}},{"attributes":{"ID":336512,"DIS_CODE":0,"TOWNNAME":"永康區","LI":"安康里","LIN":"1鄰","STREET":"中華路","SECT":" ","MAREA":" ","LANE":"７２７巷","ALLEY":" ","HOUSE_NO":"１６號六樓之８","E_COORD97":170790.81,"N_COORD97":2546399.8300000001,"ADDRESS":"中華路７２７巷１６號六樓之８","OBJECTID":336503},"geometry":{"x":170790.81000000145,"y":2546399.8300000019}},{"attributes":{"ID":336513,"DIS_CODE":0,"TOWNNAME":"永康區","LI":"安康里","LIN":"1鄰","STREET":"中華路","SECT":" ","MAREA":" ","LANE":"７２７巷","ALLEY":" ","HOUSE_NO":"１６號六樓之１","E_COORD97":170790.66,"N_COORD97":2546399.8300000001,"ADDRESS":"中華路７２７巷１６號六樓之１","OBJECTID":336504},"geometry":{"x":170790.65999999922,"y":2546399.8300000019}},{"attributes":{"ID":336514,"DIS_CODE":0,"TOWNNAME":"永康區","LI":"安康里","LIN":"1鄰","STREET":"中華路","SECT":" ","MAREA":" ","LANE":"７２７巷","ALLEY":" ","HOUSE_NO":"１６號十一樓之７","E_COORD97":170791.98999999999,"N_COORD97":2546399.8300000001,"ADDRESS":"中華路７２７巷１６號十一樓之７","OBJECTID":336505},"geometry":{"x":170791.99000000209,"y":2546399.8300000019}},{"attributes":{"ID":336515,"DIS_CODE":0,"TOWNNAME":"永康區","LI":"安康里","LIN":"1鄰","STREET":"中華路","SECT":" ","MAREA":" ","LANE":"７２７巷","ALLEY":" ","HOUSE_NO":"１６號五樓之５","E_COORD97":170790.81,"N_COORD97":2546399.8300000001,"ADDRESS":"中華路７２７巷１６號五樓之５","OBJECTID":336506},"geometry":{"x":170790.81000000145,"y":2546399.8300000019}},{"attributes":{"ID":336516,"DIS_CODE":0,"TOWNNAME":"永康區","LI":"安康里","LIN":"1鄰","STREET":"中華路","SECT":" ","MAREA":" ","LANE":"７２７巷","ALLEY":" ","HOUSE_NO":"１６號十樓之６","E_COORD97":170790.76000000001,"N_COORD97":2546399.8300000001,"ADDRESS":"中華路７２７巷１６號十樓之６","OBJECTID":336507},"geometry":{"x":170790.75999999978,"y":2546399.8300000019}},{"attributes":{"ID":336517,"DIS_CODE":0,"TOWNNAME":"永康區","LI":"安康里","LIN":"1鄰","STREET":"中華路","SECT":" ","MAREA":" ","LANE":"７２７巷","ALLEY":" ","HOUSE_NO":"１６號七樓之１","E_COORD97":170790.66,"N_COORD97":2546399.8300000001,"ADDRESS":"中華路７２７巷１６號七樓之１","OBJECTID":336508},"geometry":{"x":170790.65999999922,"y":2546399.8300000019}},{"attributes":{"ID":336518,"DIS_CODE":0,"TOWNNAME":"永康區","LI":"安康里","LIN":"1鄰","STREET":"中華路","SECT":" ","MAREA":" ","LANE":"７２７巷","ALLEY":" ","HOUSE_NO":"１６號十四樓之７","E_COORD97":170791.98999999999,"N_COORD97":2546399.8300000001,"ADDRESS":"中華路７２７巷１６號十四樓之７","OBJECTID":336509},"geometry":{"x":170791.99000000209,"y":2546399.8300000019}},{"attributes":{"ID":336519,"DIS_CODE":0,"TOWNNAME":"永康區","LI":"安康里","LIN":"1鄰","STREET":"中華路","SECT":" ","MAREA":" ","LANE":"７２７巷","ALLEY":" ","HOUSE_NO":"１６號十樓之２","E_COORD97":170790.79000000001,"N_COORD97":2546399.8300000001,"ADDRESS":"中華路７２７巷１６號十樓之２","OBJECTID":336510},"geometry":{"x":170790.79000000004,"y":2546399.8300000019}},{"attributes":{"ID":336520,"DIS_CODE":0,"TOWNNAME":"永康區","LI":"安康里","LIN":"1鄰","STREET":"中華路","SECT":" ","MAREA":" ","LANE":"７２７巷","ALLEY":" ","HOUSE_NO":"１６號七樓之８","E_COORD97":170790.81,"N_COORD97":2546399.8300000001,"ADDRESS":"中華路７２７巷１６號七樓之８","OBJECTID":336511},"geometry":{"x":170790.81000000145,"y":2546399.8300000019}},{"attributes":{"ID":336521,"DIS_CODE":0,"TOWNNAME":"南區","LI":"明興里","LIN":"13鄰","STREET":"金華路","SECT":"一段","MAREA":" ","LANE":"６０巷","ALLEY":" ","HOUSE_NO":"２３號","E_COORD97":166958.03,"N_COORD97":2540381.3100000001,"ADDRESS":"金華路一段６０巷２３號","OBJECTID":336512},"geometry":{"x":166958.03000000119,"y":2540381.3100000042}},{"attributes":{"ID":336522,"DIS_CODE":0,"TOWNNAME":"永康區","LI":"安康里","LIN":"1鄰","STREET":"中華路","SECT":" ","MAREA":" ","LANE":"７２７巷","ALLEY":" ","HOUSE_NO":"１６號八樓之５","E_COORD97":170790.81,"N_COORD97":2546399.8300000001,"ADDRESS":"中華路７２７巷１６號八樓之５","OBJECTID":336513},"geometry":{"x":170790.81000000145,"y":2546399.8300000019}},{"attributes":{"ID":336523,"DIS_CODE":0,"TOWNNAME":"永康區","LI":"安康里","LIN":"1鄰","STREET":"中華路","SECT":" ","MAREA":" ","LANE":"７２７巷","ALLEY":" ","HOUSE_NO":"１６號十一樓之３","E_COORD97":170792.01000000001,"N_COORD97":2546399.8300000001,"ADDRESS":"中華路７２７巷１６號十一樓之３","OBJECTID":336514},"geometry":{"x":170792.01000000071,"y":2546399.8300000019}},{"attributes":{"ID":336524,"DIS_CODE":0,"TOWNNAME":"永康區","LI":"安康里","LIN":"1鄰","STREET":"中華路","SECT":" ","MAREA":" ","LANE":"７２７巷","ALLEY":" ","HOUSE_NO":"１６號四樓之５","E_COORD97":170790.81,"N_COORD97":2546399.8300000001,"ADDRESS":"中華路７２７巷１６號四樓之５","OBJECTID":336515},"geometry":{"x":170790.81000000145,"y":2546399.8300000019}},{"attributes":{"ID":336525,"DIS_CODE":0,"TOWNNAME":"永康區","LI":"二王里","LIN":"8鄰","STREET":"中山南路","SECT":" ","MAREA":" ","LANE":" ","ALLEY":" ","HOUSE_NO":"７９２號","E_COORD97":172783.64000000001,"N_COORD97":2546790.8900000001,"ADDRESS":"中山南路７９２號","OBJECTID":336516},"geometry":{"x":172783.63999999966,"y":2546790.8900000006}},{"attributes":{"ID":336526,"DIS_CODE":0,"TOWNNAME":"佳里區","LI":"建南里","LIN":"36鄰","STREET":"成功路","SECT":" ","MAREA":" ","LANE":"２０２巷","ALLEY":" ","HOUSE_NO":"５號","E_COORD97":165309.51000000001,"N_COORD97":2561172.02,"ADDRESS":"成功路２０２巷５號","OBJECTID":336517},"geometry":{"x":165309.51000000071,"y":2561172.0199999977}},{"attributes":{"ID":336527,"DIS_CODE":0,"TOWNNAME":"佳里區","LI":"建南里","LIN":"36鄰","STREET":"成功路","SECT":" ","MAREA":" ","LANE":"２０２巷","ALLEY":" ","HOUSE_NO":"７號","E_COORD97":165301.37,"N_COORD97":2561171.1000000001,"ADDRESS":"成功路２０２巷７號","OBJECTID":336518},"geometry":{"x":165301.37000000011,"y":2561171.0999999996}},{"attributes":{"ID":336528,"DIS_CODE":0,"TOWNNAME":"永康區","LI":"復國里","LIN":"1鄰","STREET":"復國二路","SECT":" ","MAREA":" ","LANE":"１６巷","ALLEY":" ","HOUSE_NO":"６號","E_COORD97":172851.91,"N_COORD97":2544806.96,"ADDRESS":"復國二路１６巷６號","OBJECTID":336519},"geometry":{"x":172851.91000000015,"y":2544806.9600000009}},{"attributes":{"ID":336529,"DIS_CODE":0,"TOWNNAME":"永康區","LI":"安康里","LIN":"1鄰","STREET":"中華路","SECT":" ","MAREA":" ","LANE":"７２７巷","ALLEY":" ","HOUSE_NO":"１６號六樓之２","E_COORD97":170790.79000000001,"N_COORD97":2546399.8300000001,"ADDRESS":"中華路７２７巷１６號六樓之２","OBJECTID":336520},"geometry":{"x":170790.79000000004,"y":2546399.8300000019}},{"attributes":{"ID":336530,"DIS_CODE":0,"TOWNNAME":"永康區","LI":"安康里","LIN":"1鄰","STREET":"中華路","SECT":" ","MAREA":" ","LANE":"７２７巷","ALLEY":" ","HOUSE_NO":"１６號十樓之３","E_COORD97":170790.76000000001,"N_COORD97":2546399.8300000001,"ADDRESS":"中華路７２７巷１６號十樓之３","OBJECTID":336521},"geometry":{"x":170790.75999999978,"y":2546399.8300000019}},{"attributes":{"ID":336531,"DIS_CODE":0,"TOWNNAME":"永康區","LI":"安康里","LIN":"1鄰","STREET":"中華路","SECT":" ","MAREA":" ","LANE":"７２７巷","ALLEY":" ","HOUSE_NO":"１６號十四樓之５","E_COORD97":170792.06,"N_COORD97":2546399.8300000001,"ADDRESS":"中華路７２７巷１６號十四樓之５","OBJECTID":336522},"geometry":{"x":170792.05999999959,"y":2546399.8300000019}},{"attributes":{"ID":336532,"DIS_CODE":0,"TOWNNAME":"永康區","LI":"安康里","LIN":"1鄰","STREET":"中華路","SECT":" ","MAREA":" ","LANE":"７２７巷","ALLEY":" ","HOUSE_NO":"１６號十二樓之７","E_COORD97":170791.98999999999,"N_COORD97":2546399.8300000001,"ADDRESS":"中華路７２７巷１６號十二樓之７","OBJECTID":336523},"geometry":{"x":170791.99000000209,"y":2546399.8300000019}},{"attributes":{"ID":336533,"DIS_CODE":0,"TOWNNAME":"永康區","LI":"安康里","LIN":"1鄰","STREET":"中華路","SECT":" ","MAREA":" ","LANE":"７２７巷","ALLEY":" ","HOUSE_NO":"１６號七樓之３","E_COORD97":170790.76000000001,"N_COORD97":2546399.8300000001,"ADDRESS":"中華路７２７巷１６號七樓之３","OBJECTID":336524},"geometry":{"x":170790.75999999978,"y":2546399.8300000019}},{"attributes":{"ID":336534,"DIS_CODE":0,"TOWNNAME":"永康區","LI":"安康里","LIN":"1鄰","STREET":"中華路","SECT":" ","MAREA":" ","LANE":"７２７巷","ALLEY":" ","HOUSE_NO":"１６號十二樓之９","E_COORD97":170791.98999999999,"N_COORD97":2546399.8300000001,"ADDRESS":"中華路７２７巷１６號十二樓之９","OBJECTID":336525},"geometry":{"x":170791.99000000209,"y":2546399.8300000019}},{"attributes":{"ID":336535,"DIS_CODE":0,"TOWNNAME":"永康區","LI":"安康里","LIN":"1鄰","STREET":"中華路","SECT":" ","MAREA":" ","LANE":"７２７巷","ALLEY":" ","HOUSE_NO":"１６號十二樓之６","E_COORD97":170792.01000000001,"N_COORD97":2546399.8300000001,"ADDRESS":"中華路７２７巷１６號十二樓之６","OBJECTID":336526},"geometry":{"x":170792.01000000071,"y":2546399.8300000019}},{"attributes":{"ID":336536,"DIS_CODE":0,"TOWNNAME":"永康區","LI":"安康里","LIN":"1鄰","STREET":"中華路","SECT":" ","MAREA":" ","LANE":"７２７巷","ALLEY":" ","HOUSE_NO":"１６號四樓之３","E_COORD97":170790.76000000001,"N_COORD97":2546399.8300000001,"ADDRESS":"中華路７２７巷１６號四樓之３","OBJECTID":336527},"geometry":{"x":170790.75999999978,"y":2546399.8300000019}},{"attributes":{"ID":336537,"DIS_CODE":0,"TOWNNAME":"永康區","LI":"安康里","LIN":"1鄰","STREET":"中華路","SECT":" ","MAREA":" ","LANE":"７２７巷","ALLEY":" ","HOUSE_NO":"１６號十三樓之６","E_COORD97":170792.01000000001,"N_COORD97":2546399.8300000001,"ADDRESS":"中華路７２７巷１６號十三樓之６","OBJECTID":336528},"geometry":{"x":170792.01000000071,"y":2546399.8300000019}},{"attributes":{"ID":336538,"DIS_CODE":0,"TOWNNAME":"永康區","LI":"安康里","LIN":"1鄰","STREET":"中華路","SECT":" ","MAREA":" ","LANE":"７２７巷","ALLEY":" ","HOUSE_NO":"１６號十二樓之５","E_COORD97":170792.06,"N_COORD97":2546399.8300000001,"ADDRESS":"中華路７２７巷１６號十二樓之５","OBJECTID":336529},"geometry":{"x":170792.05999999959,"y":2546399.8300000019}},{"attributes":{"ID":336539,"DIS_CODE":0,"TOWNNAME":"永康區","LI":"安康里","LIN":"1鄰","STREET":"中華路","SECT":" ","MAREA":" ","LANE":"７２７巷","ALLEY":" ","HOUSE_NO":"１６號十三樓之５","E_COORD97":170792.06,"N_COORD97":2546399.8300000001,"ADDRESS":"中華路７２７巷１６號十三樓之５","OBJECTID":336530},"geometry":{"x":170792.05999999959,"y":2546399.8300000019}},{"attributes":{"ID":336540,"DIS_CODE":0,"TOWNNAME":"永康區","LI":"安康里","LIN":"1鄰","STREET":"中華路","SECT":" ","MAREA":" ","LANE":"７２７巷","ALLEY":" ","HOUSE_NO":"１６號十樓之７","E_COORD97":170790.73999999999,"N_COORD97":2546399.8300000001,"ADDRESS":"中華路７２７巷１６號十樓之７","OBJECTID":336531},"geometry":{"x":170790.74000000115,"y":2546399.8300000019}},{"attributes":{"ID":336541,"DIS_CODE":0,"TOWNNAME":"永康區","LI":"安康里","LIN":"1鄰","STREET":"中華路","SECT":" ","MAREA":" ","LANE":"７２７巷","ALLEY":" ","HOUSE_NO":"１６號十樓之８","E_COORD97":170790.81,"N_COORD97":2546399.8300000001,"ADDRESS":"中華路７２７巷１６號十樓之８","OBJECTID":336532},"geometry":{"x":170790.81000000145,"y":2546399.8300000019}},{"attributes":{"ID":336542,"DIS_CODE":0,"TOWNNAME":"永康區","LI":"安康里","LIN":"1鄰","STREET":"中華路","SECT":" ","MAREA":" ","LANE":"７２７巷","ALLEY":" ","HOUSE_NO":"１６號三樓之５","E_COORD97":170790.81,"N_COORD97":2546399.8300000001,"ADDRESS":"中華路７２７巷１６號三樓之５","OBJECTID":336533},"geometry":{"x":170790.81000000145,"y":2546399.8300000019}},{"attributes":{"ID":336543,"DIS_CODE":0,"TOWNNAME":"永康區","LI":"安康里","LIN":"1鄰","STREET":"中華路","SECT":" ","MAREA":" ","LANE":"７２７巷","ALLEY":" ","HOUSE_NO":"１６號八樓之２","E_COORD97":170790.79000000001,"N_COORD97":2546399.8300000001,"ADDRESS":"中華路７２７巷１６號八樓之２","OBJECTID":336534},"geometry":{"x":170790.79000000004,"y":2546399.8300000019}},{"attributes":{"ID":336544,"DIS_CODE":0,"TOWNNAME":"永康區","LI":"安康里","LIN":"1鄰","STREET":"中華路","SECT":" ","MAREA":" ","LANE":"７２７巷","ALLEY":" ","HOUSE_NO":"１６號四樓之２","E_COORD97":170790.79000000001,"N_COORD97":2546399.8300000001,"ADDRESS":"中華路７２７巷１６號四樓之２","OBJECTID":336535},"geometry":{"x":170790.79000000004,"y":2546399.8300000019}},{"attributes":{"ID":336545,"DIS_CODE":0,"TOWNNAME":"永康區","LI":"安康里","LIN":"1鄰","STREET":"中華路","SECT":" ","MAREA":" ","LANE":"７２７巷","ALLEY":" ","HOUSE_NO":"１６號三樓之９","E_COORD97":170790.73999999999,"N_COORD97":2546399.8300000001,"ADDRESS":"中華路７２７巷１６號三樓之９","OBJECTID":336536},"geometry":{"x":170790.74000000115,"y":2546399.8300000019}},{"attributes":{"ID":336546,"DIS_CODE":0,"TOWNNAME":"永康區","LI":"安康里","LIN":"1鄰","STREET":"中華路","SECT":" ","MAREA":" ","LANE":"７２７巷","ALLEY":" ","HOUSE_NO":"１６號十一樓之２","E_COORD97":170792.04000000001,"N_COORD97":2546399.8300000001,"ADDRESS":"中華路７２７巷１６號十一樓之２","OBJECTID":336537},"geometry":{"x":170792.04000000097,"y":2546399.8300000019}},{"attributes":{"ID":336547,"DIS_CODE":0,"TOWNNAME":"永康區","LI":"安康里","LIN":"1鄰","STREET":"中華路","SECT":" ","MAREA":" ","LANE":"７２７巷","ALLEY":" ","HOUSE_NO":"１６號八樓之８","E_COORD97":170790.81,"N_COORD97":2546399.8300000001,"ADDRESS":"中華路７２７巷１６號八樓之８","OBJECTID":336538},"geometry":{"x":170790.81000000145,"y":2546399.8300000019}},{"attributes":{"ID":336548,"DIS_CODE":0,"TOWNNAME":"永康區","LI":"安康里","LIN":"1鄰","STREET":"中華路","SECT":" ","MAREA":" ","LANE":"７２７巷","ALLEY":" ","HOUSE_NO":"１６號十三樓之８","E_COORD97":170792.06,"N_COORD97":2546399.8300000001,"ADDRESS":"中華路７２７巷１６號十三樓之８","OBJECTID":336539},"geometry":{"x":170792.05999999959,"y":2546399.8300000019}},{"attributes":{"ID":336549,"DIS_CODE":0,"TOWNNAME":"永康區","LI":"安康里","LIN":"1鄰","STREET":"中華路","SECT":" ","MAREA":" ","LANE":"７２７巷","ALLEY":" ","HOUSE_NO":"１６號十樓之５","E_COORD97":170790.81,"N_COORD97":2546399.8300000001,"ADDRESS":"中華路７２７巷１６號十樓之５","OBJECTID":336540},"geometry":{"x":170790.81000000145,"y":2546399.8300000019}},{"attributes":{"ID":336550,"DIS_CODE":0,"TOWNNAME":"永康區","LI":"安康里","LIN":"1鄰","STREET":"中華路","SECT":" ","MAREA":" ","LANE":"７２７巷","ALLEY":" ","HOUSE_NO":"１６號九樓之９","E_COORD97":170790.73999999999,"N_COORD97":2546399.8300000001,"ADDRESS":"中華路７２７巷１６號九樓之９","OBJECTID":336541},"geometry":{"x":170790.74000000115,"y":2546399.8300000019}},{"attributes":{"ID":336551,"DIS_CODE":0,"TOWNNAME":"永康區","LI":"安康里","LIN":"1鄰","STREET":"中華路","SECT":" ","MAREA":" ","LANE":"７２７巷","ALLEY":" ","HOUSE_NO":"１６號八樓之６","E_COORD97":170790.76000000001,"N_COORD97":2546399.8300000001,"ADDRESS":"中華路７２７巷１６號八樓之６","OBJECTID":336542},"geometry":{"x":170790.75999999978,"y":2546399.8300000019}},{"attributes":{"ID":336552,"DIS_CODE":0,"TOWNNAME":"永康區","LI":"二王里","LIN":"8鄰","STREET":"中山南路","SECT":" ","MAREA":" ","LANE":" ","ALLEY":" ","HOUSE_NO":"７９６號","E_COORD97":172791.73000000001,"N_COORD97":2546793.3900000001,"ADDRESS":"中山南路７９６號","OBJECTID":336543},"geometry":{"x":172791.73000000138,"y":2546793.3900000025}},{"attributes":{"ID":336553,"DIS_CODE":0,"TOWNNAME":"永康區","LI":"二王里","LIN":"8鄰","STREET":"中山南路","SECT":" ","MAREA":" ","LANE":" ","ALLEY":" ","HOUSE_NO":"７６８號","E_COORD97":172731.03,"N_COORD97":2546770.8900000001,"ADDRESS":"中山南路７６８號","OBJECTID":336544},"geometry":{"x":172731.03000000212,"y":2546770.8900000006}},{"attributes":{"ID":336554,"DIS_CODE":0,"TOWNNAME":"永康區","LI":"二王里","LIN":"8鄰","STREET":"中山南路","SECT":" ","MAREA":" ","LANE":" ","ALLEY":" ","HOUSE_NO":"８１６之１號","E_COORD97":172837,"N_COORD97":2546809.5899999999,"ADDRESS":"中山南路８１６之１號","OBJECTID":336545},"geometry":{"x":172837,"y":2546809.5899999999}},{"attributes":{"ID":336555,"DIS_CODE":0,"TOWNNAME":"永康區","LI":"安康里","LIN":"1鄰","STREET":"中華路","SECT":" ","MAREA":" ","LANE":"７２７巷","ALLEY":" ","HOUSE_NO":"１６號五樓之３","E_COORD97":170790.76000000001,"N_COORD97":2546399.8300000001,"ADDRESS":"中華路７２７巷１６號五樓之３","OBJECTID":336546},"geometry":{"x":170790.75999999978,"y":2546399.8300000019}},{"attributes":{"ID":336556,"DIS_CODE":0,"TOWNNAME":"中西區","LI":"元安里","LIN":"1鄰","STREET":"永華路","SECT":"一段","MAREA":" ","LANE":"２０巷","ALLEY":" ","HOUSE_NO":"１１號二樓之１","E_COORD97":167639.38,"N_COORD97":2543180.3199999998,"ADDRESS":"永華路一段２０巷１１號二樓之１","OBJECTID":336547},"geometry":{"x":167639.38000000175,"y":2543180.3200000003}},{"attributes":{"ID":336557,"DIS_CODE":0,"TOWNNAME":"中西區","LI":"元安里","LIN":"1鄰","STREET":"永華路","SECT":"一段","MAREA":" ","LANE":"２０巷","ALLEY":" ","HOUSE_NO":"１１號二樓之２","E_COORD97":167639.38,"N_COORD97":2543180.3199999998,"ADDRESS":"永華路一段２０巷１１號二樓之２","OBJECTID":336548},"geometry":{"x":167639.38000000175,"y":2543180.3200000003}},{"attributes":{"ID":336558,"DIS_CODE":0,"TOWNNAME":"中西區","LI":"元安里","LIN":"1鄰","STREET":"永華路","SECT":"一段","MAREA":" ","LANE":"２０巷","ALLEY":" ","HOUSE_NO":"１１號三樓之１","E_COORD97":167639.38,"N_COORD97":2543180.3199999998,"ADDRESS":"永華路一段２０巷１１號三樓之１","OBJECTID":336549},"geometry":{"x":167639.38000000175,"y":2543180.3200000003}},{"attributes":{"ID":336559,"DIS_CODE":0,"TOWNNAME":"中西區","LI":"元安里","LIN":"1鄰","STREET":"永華路","SECT":"一段","MAREA":" ","LANE":"２０巷","ALLEY":" ","HOUSE_NO":"１１號三樓之２","E_COORD97":167639.38,"N_COORD97":2543180.3199999998,"ADDRESS":"永華路一段２０巷１１號三樓之２","OBJECTID":336550},"geometry":{"x":167639.38000000175,"y":2543180.3200000003}},{"attributes":{"ID":336560,"DIS_CODE":0,"TOWNNAME":"中西區","LI":"元安里","LIN":"1鄰","STREET":"永華路","SECT":"一段","MAREA":" ","LANE":"２０巷","ALLEY":" ","HOUSE_NO":"１１號五樓之１","E_COORD97":167639.38,"N_COORD97":2543180.3199999998,"ADDRESS":"永華路一段２０巷１１號五樓之１","OBJECTID":336551},"geometry":{"x":167639.38000000175,"y":2543180.3200000003}},{"attributes":{"ID":336561,"DIS_CODE":0,"TOWNNAME":"中西區","LI":"元安里","LIN":"1鄰","STREET":"永華路","SECT":"一段","MAREA":" ","LANE":"２０巷","ALLEY":" ","HOUSE_NO":"１１號五樓之２","E_COORD97":167639.38,"N_COORD97":2543180.3199999998,"ADDRESS":"永華路一段２０巷１１號五樓之２","OBJECTID":336552},"geometry":{"x":167639.38000000175,"y":2543180.3200000003}},{"attributes":{"ID":336562,"DIS_CODE":0,"TOWNNAME":"中西區","LI":"元安里","LIN":"1鄰","STREET":"永華路","SECT":"一段","MAREA":" ","LANE":"２０巷","ALLEY":" ","HOUSE_NO":"１１號四樓之１","E_COORD97":167639.38,"N_COORD97":2543180.3199999998,"ADDRESS":"永華路一段２０巷１１號四樓之１","OBJECTID":336553},"geometry":{"x":167639.38000000175,"y":2543180.3200000003}},{"attributes":{"ID":336563,"DIS_CODE":0,"TOWNNAME":"中西區","LI":"元安里","LIN":"1鄰","STREET":"永華路","SECT":"一段","MAREA":" ","LANE":"２０巷","ALLEY":" ","HOUSE_NO":"１１號四樓之２","E_COORD97":167639.38,"N_COORD97":2543180.3199999998,"ADDRESS":"永華路一段２０巷１１號四樓之２","OBJECTID":336554},"geometry":{"x":167639.38000000175,"y":2543180.3200000003}},{"attributes":{"ID":336564,"DIS_CODE":0,"TOWNNAME":"中西區","LI":"元安里","LIN":"1鄰","STREET":"永華路","SECT":"一段","MAREA":" ","LANE":"２０巷","ALLEY":" ","HOUSE_NO":"１５號二樓之１","E_COORD97":167638.26000000001,"N_COORD97":2543202.1400000001,"ADDRESS":"永華路一段２０巷１５號二樓之１","OBJECTID":336555},"geometry":{"x":167638.25999999885,"y":2543202.1400000006}},{"attributes":{"ID":336565,"DIS_CODE":0,"TOWNNAME":"新市區","LI":"大社里","LIN":"36鄰","STREET":" ","SECT":" ","MAREA":"大社","LANE":" ","ALLEY":" ","HOUSE_NO":"５９１之３９號","E_COORD97":179323.12,"N_COORD97":2554361.5499999998,"ADDRESS":"大社５９１之３９號","OBJECTID":336556},"geometry":{"x":179323.12000000104,"y":2554361.5500000007}},{"attributes":{"ID":336566,"DIS_CODE":0,"TOWNNAME":"新市區","LI":"大社里","LIN":"36鄰","STREET":" ","SECT":" ","MAREA":"大社","LANE":" ","ALLEY":" ","HOUSE_NO":"５９１之２７號","E_COORD97":179338.14999999999,"N_COORD97":2554317.7999999998,"ADDRESS":"大社５９１之２７號","OBJECTID":336557},"geometry":{"x":179338.15000000224,"y":2554317.8000000026}},{"attributes":{"ID":336567,"DIS_CODE":0,"TOWNNAME":"新市區","LI":"大社里","LIN":"36鄰","STREET":" ","SECT":" ","MAREA":"大社","LANE":" ","ALLEY":" ","HOUSE_NO":"５９０之１９號","E_COORD97":179359.67999999999,"N_COORD97":2554364.2999999998,"ADDRESS":"大社５９０之１９號","OBJECTID":336558},"geometry":{"x":179359.68000000063,"y":2554364.3000000026}},{"attributes":{"ID":336568,"DIS_CODE":0,"TOWNNAME":"新市區","LI":"大社里","LIN":"36鄰","STREET":" ","SECT":" ","MAREA":"大社","LANE":" ","ALLEY":" ","HOUSE_NO":"５９１之１８號","E_COORD97":179348.45000000001,"N_COORD97":2554281.2999999998,"ADDRESS":"大社５９１之１８號","OBJECTID":336559},"geometry":{"x":179348.45000000112,"y":2554281.3000000007}},{"attributes":{"ID":336569,"DIS_CODE":0,"TOWNNAME":"新市區","LI":"大社里","LIN":"36鄰","STREET":" ","SECT":" ","MAREA":"大社","LANE":" ","ALLEY":" ","HOUSE_NO":"５９１之４７號","E_COORD97":179308.81,"N_COORD97":2554381.2999999998,"ADDRESS":"大社５９１之４７號","OBJECTID":336560},"geometry":{"x":179308.80999999959,"y":2554381.3000000026}},{"attributes":{"ID":336570,"DIS_CODE":0,"TOWNNAME":"永康區","LI":"埔園里","LIN":"36鄰","STREET":"龍埔街","SECT":" ","MAREA":" ","LANE":"２３３巷","ALLEY":" ","HOUSE_NO":"１號","E_COORD97":174272.28,"N_COORD97":2548248.8100000001,"ADDRESS":"龍埔街２３３巷１號","OBJECTID":336561},"geometry":{"x":174272.28000000119,"y":2548248.8100000005}},{"attributes":{"ID":336571,"DIS_CODE":0,"TOWNNAME":"中西區","LI":"元安里","LIN":"1鄰","STREET":"永華路","SECT":"一段","MAREA":" ","LANE":"２０巷","ALLEY":" ","HOUSE_NO":"１５號二樓之２","E_COORD97":167638.26000000001,"N_COORD97":2543202.1400000001,"ADDRESS":"永華路一段２０巷１５號二樓之２","OBJECTID":336562},"geometry":{"x":167638.25999999885,"y":2543202.1400000006}},{"attributes":{"ID":336572,"DIS_CODE":0,"TOWNNAME":"中西區","LI":"元安里","LIN":"1鄰","STREET":"永華路","SECT":"一段","MAREA":" ","LANE":"２０巷","ALLEY":" ","HOUSE_NO":"１５號三樓之１","E_COORD97":167638.26000000001,"N_COORD97":2543202.1400000001,"ADDRESS":"永華路一段２０巷１５號三樓之１","OBJECTID":336563},"geometry":{"x":167638.25999999885,"y":2543202.1400000006}},{"attributes":{"ID":336573,"DIS_CODE":0,"TOWNNAME":"永康區","LI":"三民里","LIN":"8鄰","STREET":"仁愛街","SECT":" ","MAREA":" ","LANE":" ","ALLEY":" ","HOUSE_NO":"４１１號","E_COORD97":172495.14000000001,"N_COORD97":2550426.27,"ADDRESS":"仁愛街４１１號","OBJECTID":336564},"geometry":{"x":172495.13999999966,"y":2550426.2700000033}},{"attributes":{"ID":336574,"DIS_CODE":0,"TOWNNAME":"永康區","LI":"埔園里","LIN":"36鄰","STREET":"龍埔街","SECT":" ","MAREA":" ","LANE":"２３３巷","ALLEY":" ","HOUSE_NO":"１０號","E_COORD97":174256.41,"N_COORD97":2548199.0699999998,"ADDRESS":"龍埔街２３３巷１０號","OBJECTID":336565},"geometry":{"x":174256.41000000108,"y":2548199.0700000022}},{"attributes":{"ID":336575,"DIS_CODE":0,"TOWNNAME":"永康區","LI":"崑山里","LIN":"36鄰","STREET":"大仁街","SECT":" ","MAREA":" ","LANE":"１８１巷","ALLEY":" ","HOUSE_NO":"１０號","E_COORD97":173885.42000000001,"N_COORD97":2545013.7999999998,"ADDRESS":"大仁街１８１巷１０號","OBJECTID":336566},"geometry":{"x":173885.41999999993,"y":2545013.8000000026}},{"attributes":{"ID":336576,"DIS_CODE":0,"TOWNNAME":"永康區","LI":"崑山里","LIN":"36鄰","STREET":"大灣路","SECT":" ","MAREA":" ","LANE":"９４２巷","ALLEY":" ","HOUSE_NO":"２２６號","E_COORD97":173830.75,"N_COORD97":2545056.29,"ADDRESS":"大灣路９４２巷２２６號","OBJECTID":336567},"geometry":{"x":173830.75,"y":2545056.290000001}},{"attributes":{"ID":336577,"DIS_CODE":0,"TOWNNAME":"永康區","LI":"崑山里","LIN":"36鄰","STREET":"大仁街","SECT":" ","MAREA":" ","LANE":"１８１巷","ALLEY":" ","HOUSE_NO":"９號","E_COORD97":173860.98999999999,"N_COORD97":2545002.5499999998,"ADDRESS":"大仁街１８１巷９號","OBJECTID":336568},"geometry":{"x":173860.99000000115,"y":2545002.5500000026}},{"attributes":{"ID":336578,"DIS_CODE":0,"TOWNNAME":"永康區","LI":"埔園里","LIN":"36鄰","STREET":"自強路","SECT":" ","MAREA":" ","LANE":"６３４巷","ALLEY":" ","HOUSE_NO":"７號","E_COORD97":174231.22,"N_COORD97":2548245.3100000001,"ADDRESS":"自強路６３４巷７號","OBJECTID":336569},"geometry":{"x":174231.2200000016,"y":2548245.3100000024}},{"attributes":{"ID":336579,"DIS_CODE":0,"TOWNNAME":"中西區","LI":"元安里","LIN":"1鄰","STREET":"永華路","SECT":"一段","MAREA":" ","LANE":"２０巷","ALLEY":" ","HOUSE_NO":"１５號三樓之２","E_COORD97":167638.26000000001,"N_COORD97":2543202.1400000001,"ADDRESS":"永華路一段２０巷１５號三樓之２","OBJECTID":336570},"geometry":{"x":167638.25999999885,"y":2543202.1400000006}},{"attributes":{"ID":336580,"DIS_CODE":0,"TOWNNAME":"中西區","LI":"元安里","LIN":"1鄰","STREET":"永華路","SECT":"一段","MAREA":" ","LANE":"２０巷","ALLEY":" ","HOUSE_NO":"１５號五樓之１","E_COORD97":167638.26000000001,"N_COORD97":2543202.1400000001,"ADDRESS":"永華路一段２０巷１５號五樓之１","OBJECTID":336571},"geometry":{"x":167638.25999999885,"y":2543202.1400000006}},{"attributes":{"ID":336581,"DIS_CODE":0,"TOWNNAME":"永康區","LI":"三民里","LIN":"8鄰","STREET":"仁愛街","SECT":" ","MAREA":" ","LANE":" ","ALLEY":" ","HOUSE_NO":"３９８號","E_COORD97":172467.81,"N_COORD97":2550271.7799999998,"ADDRESS":"仁愛街３９８號","OBJECTID":336572},"geometry":{"x":172467.81000000052,"y":2550271.7800000012}},{"attributes":{"ID":336582,"DIS_CODE":0,"TOWNNAME":"永康區","LI":"三民里","LIN":"8鄰","STREET":"仁愛街","SECT":" ","MAREA":" ","LANE":" ","ALLEY":" ","HOUSE_NO":"４０９號","E_COORD97":172491.25,"N_COORD97":2550422.27,"ADDRESS":"仁愛街４０９號","OBJECTID":336573},"geometry":{"x":172491.25,"y":2550422.2699999996}},{"attributes":{"ID":336583,"DIS_CODE":0,"TOWNNAME":"永康區","LI":"三合里","LIN":"8鄰","STREET":"南工街","SECT":" ","MAREA":" ","LANE":" ","ALLEY":" ","HOUSE_NO":"１１７號","E_COORD97":172090.81,"N_COORD97":2545749.9900000002,"ADDRESS":"南工街１１７號","OBJECTID":336574},"geometry":{"x":172090.80999999959,"y":2545749.9899999984}},{"attributes":{"ID":336584,"DIS_CODE":0,"TOWNNAME":"永康區","LI":"二王里","LIN":"8鄰","STREET":"中山南路","SECT":" ","MAREA":" ","LANE":" ","ALLEY":" ","HOUSE_NO":"７８８號","E_COORD97":172775.73000000001,"N_COORD97":2546788.1400000001,"ADDRESS":"中山南路７８８號","OBJECTID":336575},"geometry":{"x":172775.73000000231,"y":2546788.1400000025}},{"attributes":{"ID":336585,"DIS_CODE":0,"TOWNNAME":"安南區","LI":"溪心里","LIN":"8鄰","STREET":"海佃路","SECT":"二段","MAREA":" ","LANE":" ","ALLEY":" ","HOUSE_NO":"７７４號","E_COORD97":166487.04999999999,"N_COORD97":2549602.6600000001,"ADDRESS":"海佃路二段７７４號","OBJECTID":336576},"geometry":{"x":166487.05000000168,"y":2549602.6600000001}},{"attributes":{"ID":336586,"DIS_CODE":0,"TOWNNAME":"仁德區","LI":"成功里","LIN":"36鄰","STREET":"保華路","SECT":" ","MAREA":" ","LANE":"４６巷","ALLEY":" ","HOUSE_NO":"２９號","E_COORD97":170654.57000000001,"N_COORD97":2540065.9900000002,"ADDRESS":"保華路４６巷２９號","OBJECTID":336577},"geometry":{"x":170654.57000000123,"y":2540065.9900000021}},{"attributes":{"ID":336587,"DIS_CODE":0,"TOWNNAME":"仁德區","LI":"太子里","LIN":"36鄰","STREET":"長興一街","SECT":" ","MAREA":" ","LANE":"１１０巷","ALLEY":" ","HOUSE_NO":"４號","E_COORD97":174360.34,"N_COORD97":2543909.5,"ADDRESS":"長興一街１１０巷４號","OBJECTID":336578},"geometry":{"x":174360.33999999985,"y":2543909.5000000019}},{"attributes":{"ID":336588,"DIS_CODE":0,"TOWNNAME":"永康區","LI":"西灣里","LIN":"36鄰","STREET":"大勇路","SECT":" ","MAREA":" ","LANE":"１３５巷","ALLEY":" ","HOUSE_NO":"３２號","E_COORD97":174174.17999999999,"N_COORD97":2545657,"ADDRESS":"大勇路１３５巷３２號","OBJECTID":336579},"geometry":{"x":174174.18000000063,"y":2545657}},{"attributes":{"ID":336589,"DIS_CODE":0,"TOWNNAME":"永康區","LI":"西灣里","LIN":"36鄰","STREET":"大勇路","SECT":" ","MAREA":" ","LANE":"１３５巷","ALLEY":" ","HOUSE_NO":"３６號","E_COORD97":174169.98000000001,"N_COORD97":2545658,"ADDRESS":"大勇路１３５巷３６號","OBJECTID":336580},"geometry":{"x":174169.98000000045,"y":2545658}},{"attributes":{"ID":336590,"DIS_CODE":0,"TOWNNAME":"中西區","LI":"元安里","LIN":"1鄰","STREET":"永華路","SECT":"一段","MAREA":" ","LANE":"２０巷","ALLEY":" ","HOUSE_NO":"１５號五樓之２","E_COORD97":167638.26000000001,"N_COORD97":2543202.1400000001,"ADDRESS":"永華路一段２０巷１５號五樓之２","OBJECTID":336581},"geometry":{"x":167638.25999999885,"y":2543202.1400000006}},{"attributes":{"ID":336591,"DIS_CODE":0,"TOWNNAME":"中西區","LI":"元安里","LIN":"1鄰","STREET":"永華路","SECT":"一段","MAREA":" ","LANE":"２０巷","ALLEY":" ","HOUSE_NO":"１５號四樓之１","E_COORD97":167638.26000000001,"N_COORD97":2543202.1400000001,"ADDRESS":"永華路一段２０巷１５號四樓之１","OBJECTID":336582},"geometry":{"x":167638.25999999885,"y":2543202.1400000006}},{"attributes":{"ID":336592,"DIS_CODE":0,"TOWNNAME":"中西區","LI":"元安里","LIN":"1鄰","STREET":"永華路","SECT":"一段","MAREA":" ","LANE":"２０巷","ALLEY":" ","HOUSE_NO":"１５號四樓之２","E_COORD97":167638.26000000001,"N_COORD97":2543202.1400000001,"ADDRESS":"永華路一段２０巷１５號四樓之２","OBJECTID":336583},"geometry":{"x":167638.25999999885,"y":2543202.1400000006}},{"attributes":{"ID":336593,"DIS_CODE":0,"TOWNNAME":"中西區","LI":"元安里","LIN":"1鄰","STREET":"永華路","SECT":"一段","MAREA":" ","LANE":"２０巷","ALLEY":" ","HOUSE_NO":"１號二樓之１","E_COORD97":167638.79000000001,"N_COORD97":2543156.7000000002,"ADDRESS":"永華路一段２０巷１號二樓之１","OBJECTID":336584},"geometry":{"x":167638.79000000097,"y":2543156.6999999993}},{"attributes":{"ID":336594,"DIS_CODE":0,"TOWNNAME":"安南區","LI":"溪心里","LIN":"8鄰","STREET":"海佃路","SECT":"二段","MAREA":" ","LANE":" ","ALLEY":" ","HOUSE_NO":"７７６號","E_COORD97":166483.20000000001,"N_COORD97":2549606.6499999999,"ADDRESS":"海佃路二段７７６號","OBJECTID":336585},"geometry":{"x":166483.20000000112,"y":2549606.6500000004}},{"attributes":{"ID":336595,"DIS_CODE":0,"TOWNNAME":"安南區","LI":"溪心里","LIN":"8鄰","STREET":"海佃路","SECT":"二段","MAREA":" ","LANE":" ","ALLEY":" ","HOUSE_NO":"７７８號","E_COORD97":166480.85999999999,"N_COORD97":2549610.2200000002,"ADDRESS":"海佃路二段７７８號","OBJECTID":336586},"geometry":{"x":166480.86000000127,"y":2549610.2200000007}},{"attributes":{"ID":336596,"DIS_CODE":0,"TOWNNAME":"安南區","LI":"溪心里","LIN":"8鄰","STREET":"海佃路","SECT":"二段","MAREA":" ","LANE":" ","ALLEY":" ","HOUSE_NO":"７７８號之１","E_COORD97":166477.95999999999,"N_COORD97":2549614.2200000002,"ADDRESS":"海佃路二段７７８號之１","OBJECTID":336587},"geometry":{"x":166477.96000000089,"y":2549614.2200000044}},{"attributes":{"ID":336597,"DIS_CODE":0,"TOWNNAME":"安南區","LI":"城中里","LIN":"8鄰","STREET":"青砂街","SECT":"一段","MAREA":" ","LANE":" ","ALLEY":" ","HOUSE_NO":"１０２號","E_COORD97":160647.07000000001,"N_COORD97":2551584.48,"ADDRESS":"青砂街一段１０２號","OBJECTID":336588},"geometry":{"x":160647.0700000003,"y":2551584.4800000004}},{"attributes":{"ID":336598,"DIS_CODE":0,"TOWNNAME":"東區","LI":"崇文里","LIN":"36鄰","STREET":"崇德十九街","SECT":" ","MAREA":" ","LANE":"１２０巷","ALLEY":" ","HOUSE_NO":"２５號","E_COORD97":171153.51999999999,"N_COORD97":2540931.2999999998,"ADDRESS":"崇德十九街１２０巷２５號","OBJECTID":336589},"geometry":{"x":171153.51999999955,"y":2540931.3000000026}},{"attributes":{"ID":336599,"DIS_CODE":0,"TOWNNAME":"東區","LI":"崇文里","LIN":"36鄰","STREET":"崇德十九街","SECT":" ","MAREA":" ","LANE":"１２０巷","ALLEY":" ","HOUSE_NO":"２７號","E_COORD97":171155.89000000001,"N_COORD97":2540926.71,"ADDRESS":"崇德十九街１２０巷２７號","OBJECTID":336590},"geometry":{"x":171155.88999999966,"y":2540926.7100000009}},{"attributes":{"ID":336600,"DIS_CODE":0,"TOWNNAME":"東區","LI":"崇文里","LIN":"36鄰","STREET":"崇德十九街","SECT":" ","MAREA":" ","LANE":"１２０巷","ALLEY":" ","HOUSE_NO":"２９號","E_COORD97":171158.54999999999,"N_COORD97":2540922.7200000002,"ADDRESS":"崇德十九街１２０巷２９號","OBJECTID":336591},"geometry":{"x":171158.54999999981,"y":2540922.7200000025}},{"attributes":{"ID":336601,"DIS_CODE":0,"TOWNNAME":"東區","LI":"崇文里","LIN":"36鄰","STREET":"崇德十九街","SECT":" ","MAREA":" ","LANE":"１２０巷","ALLEY":" ","HOUSE_NO":"３１號","E_COORD97":171160.62,"N_COORD97":2540917.9900000002,"ADDRESS":"崇德十九街１２０巷３１號","OBJECTID":336592},"geometry":{"x":171160.62000000197,"y":2540917.9900000002}},{"attributes":{"ID":336602,"DIS_CODE":0,"TOWNNAME":"中西區","LI":"元安里","LIN":"1鄰","STREET":"永華路","SECT":"一段","MAREA":" ","LANE":"２０巷","ALLEY":" ","HOUSE_NO":"１號二樓之２","E_COORD97":167638.79000000001,"N_COORD97":2543156.7000000002,"ADDRESS":"永華路一段２０巷１號二樓之２","OBJECTID":336593},"geometry":{"x":167638.79000000097,"y":2543156.6999999993}},{"attributes":{"ID":336603,"DIS_CODE":0,"TOWNNAME":"中西區","LI":"元安里","LIN":"1鄰","STREET":"永華路","SECT":"一段","MAREA":" ","LANE":"２０巷","ALLEY":" ","HOUSE_NO":"１號三樓之１","E_COORD97":167638.79000000001,"N_COORD97":2543156.7000000002,"ADDRESS":"永華路一段２０巷１號三樓之１","OBJECTID":336594},"geometry":{"x":167638.79000000097,"y":2543156.6999999993}},{"attributes":{"ID":336604,"DIS_CODE":0,"TOWNNAME":"中西區","LI":"元安里","LIN":"1鄰","STREET":"永華路","SECT":"一段","MAREA":" ","LANE":"２０巷","ALLEY":" ","HOUSE_NO":"１號三樓之２","E_COORD97":167638.79000000001,"N_COORD97":2543156.7000000002,"ADDRESS":"永華路一段２０巷１號三樓之２","OBJECTID":336595},"geometry":{"x":167638.79000000097,"y":2543156.6999999993}},{"attributes":{"ID":336605,"DIS_CODE":0,"TOWNNAME":"中西區","LI":"元安里","LIN":"1鄰","STREET":"永華路","SECT":"一段","MAREA":" ","LANE":"２０巷","ALLEY":" ","HOUSE_NO":"１號五樓之１","E_COORD97":167638.79000000001,"N_COORD97":2543156.7000000002,"ADDRESS":"永華路一段２０巷１號五樓之１","OBJECTID":336596},"geometry":{"x":167638.79000000097,"y":2543156.6999999993}},{"attributes":{"ID":336606,"DIS_CODE":0,"TOWNNAME":"中西區","LI":"元安里","LIN":"1鄰","STREET":"永華路","SECT":"一段","MAREA":" ","LANE":"２０巷","ALLEY":" ","HOUSE_NO":"１號五樓之２","E_COORD97":167638.79000000001,"N_COORD97":2543156.7000000002,"ADDRESS":"永華路一段２０巷１號五樓之２","OBJECTID":336597},"geometry":{"x":167638.79000000097,"y":2543156.6999999993}},{"attributes":{"ID":336607,"DIS_CODE":0,"TOWNNAME":"中西區","LI":"元安里","LIN":"1鄰","STREET":"永華路","SECT":"一段","MAREA":" ","LANE":"２０巷","ALLEY":" ","HOUSE_NO":"１號四樓之１","E_COORD97":167638.79000000001,"N_COORD97":2543156.7000000002,"ADDRESS":"永華路一段２０巷１號四樓之１","OBJECTID":336598},"geometry":{"x":167638.79000000097,"y":2543156.6999999993}},{"attributes":{"ID":336608,"DIS_CODE":0,"TOWNNAME":"中西區","LI":"元安里","LIN":"1鄰","STREET":"永華路","SECT":"一段","MAREA":" ","LANE":"２０巷","ALLEY":" ","HOUSE_NO":"１號四樓之２","E_COORD97":167638.79000000001,"N_COORD97":2543156.7000000002,"ADDRESS":"永華路一段２０巷１號四樓之２","OBJECTID":336599},"geometry":{"x":167638.79000000097,"y":2543156.6999999993}},{"attributes":{"ID":336609,"DIS_CODE":0,"TOWNNAME":"中西區","LI":"元安里","LIN":"1鄰","STREET":"永華路","SECT":"一段","MAREA":" ","LANE":"２０巷","ALLEY":" ","HOUSE_NO":"７號二樓","E_COORD97":167639.76999999999,"N_COORD97":2543175.4900000002,"ADDRESS":"永華路一段２０巷７號二樓","OBJECTID":336600},"geometry":{"x":167639.77000000142,"y":2543175.4900000002}}]}