{"displayFieldName":"TOWNNAME","fieldAliases":{"ID":"ID","DIS_CODE":"DIS_CODE","TOWNNAME":"TOWNNAME","LI":"LI","LIN":"LIN","STREET":"STREET","SECT":"SECT","MAREA":"MAREA","LANE":"LANE","ALLEY":"ALLEY","HOUSE_NO":"HOUSE_NO","E_COORD97":"E_COORD97","N_COORD97":"N_COORD97","ADDRESS":"ADDRESS","OBJECTID":"OBJECTID"},"geometryType":"esriGeometryPoint","spatialReference":{"wkid":102443,"latestWkid":3826},"fields":[{"name":"ID","type":"esriFieldTypeDouble","alias":"ID"},{"name":"DIS_CODE","type":"esriFieldTypeInteger","alias":"DIS_CODE"},{"name":"TOWNNAME","type":"esriFieldTypeString","alias":"TOWNNAME","length":8},{"name":"LI","type":"esriFieldTypeString","alias":"LI","length":8},{"name":"LIN","type":"esriFieldTypeString","alias":"LIN","length":12},{"name":"STREET","type":"esriFieldTypeString","alias":"STREET","length":20},{"name":"SECT","type":"esriFieldTypeString","alias":"SECT","length":8},{"name":"MAREA","type":"esriFieldTypeString","alias":"MAREA","length":12},{"name":"LANE","type":"esriFieldTypeString","alias":"LANE","length":10},{"name":"ALLEY","type":"esriFieldTypeString","alias":"ALLEY","length":10},{"name":"HOUSE_NO","type":"esriFieldTypeString","alias":"HOUSE_NO","length":20},{"name":"E_COORD97","type":"esriFieldTypeDouble","alias":"E_COORD97"},{"name":"N_COORD97","type":"esriFieldTypeDouble","alias":"N_COORD97"},{"name":"ADDRESS","type":"esriFieldTypeString","alias":"ADDRESS","length":50},{"name":"OBJECTID","type":"esriFieldTypeOID","alias":"OBJECTID"}],"features":[{"attributes":{"ID":320409,"DIS_CODE":0,"TOWNNAME":"新化區","LI":"知義里","LIN":" ","STREET":" ","SECT":" ","MAREA":"新和庄","LANE":" ","ALLEY":" ","HOUSE_NO":"２４８號","E_COORD97":181234.39000000001,"N_COORD97":2547038.25,"ADDRESS":"新和庄２４８號","OBJECTID":320401},"geometry":{"x":181234.39000000153,"y":2547038.2500000019}},{"attributes":{"ID":320410,"DIS_CODE":0,"TOWNNAME":"將軍區","LI":"平沙里","LIN":"8鄰","STREET":" ","SECT":" ","MAREA":"平沙","LANE":" ","ALLEY":" ","HOUSE_NO":"７０號","E_COORD97":157208.67251999999,"N_COORD97":2568505.0563500002,"ADDRESS":"平沙７０號","OBJECTID":320402},"geometry":{"x":157208.67252000049,"y":2568505.0563510023}},{"attributes":{"ID":320411,"DIS_CODE":0,"TOWNNAME":"鹽水區","LI":"岸內里","LIN":"13鄰","STREET":"和平路","SECT":" ","MAREA":" ","LANE":"６５巷","ALLEY":" ","HOUSE_NO":"２６號","E_COORD97":175685.54999999999,"N_COORD97":2580451.5699999998,"ADDRESS":"和平路６５巷２６號","OBJECTID":320403},"geometry":{"x":175685.55000000075,"y":2580451.5700000022}},{"attributes":{"ID":320412,"DIS_CODE":0,"TOWNNAME":"鹽水區","LI":"岸內里","LIN":"14鄰","STREET":"和平路","SECT":" ","MAREA":" ","LANE":"６５巷","ALLEY":" ","HOUSE_NO":"２８號","E_COORD97":175684.32999999999,"N_COORD97":2580437.54,"ADDRESS":"和平路６５巷２８號","OBJECTID":320404},"geometry":{"x":175684.33000000101,"y":2580437.5399999991}},{"attributes":{"ID":320413,"DIS_CODE":0,"TOWNNAME":"新化區","LI":"唪口里","LIN":"7鄰","STREET":" ","SECT":" ","MAREA":"唪口","LANE":" ","ALLEY":" ","HOUSE_NO":"１１１號之４","E_COORD97":177967.17999999999,"N_COORD97":2548951.2599999998,"ADDRESS":"唪口１１１號之４","OBJECTID":320405},"geometry":{"x":177967.1799999997,"y":2548951.2599999998}},{"attributes":{"ID":320414,"DIS_CODE":0,"TOWNNAME":"南區","LI":"文華里","LIN":"17鄰","STREET":"南樂街","SECT":" ","MAREA":" ","LANE":" ","ALLEY":" ","HOUSE_NO":"１５號三樓之２","E_COORD97":166852.84,"N_COORD97":2543159.1499999999,"ADDRESS":"南樂街１５號三樓之２","OBJECTID":320406},"geometry":{"x":166852.83999999985,"y":2543159.1500000041}},{"attributes":{"ID":320415,"DIS_CODE":0,"TOWNNAME":"新化區","LI":"北勢里","LIN":"4鄰","STREET":" ","SECT":" ","MAREA":"北勢","LANE":" ","ALLEY":" ","HOUSE_NO":"５４號之１","E_COORD97":177326.06,"N_COORD97":2549560.2599999998,"ADDRESS":"北勢５４號之１","OBJECTID":320407},"geometry":{"x":177326.06000000052,"y":2549560.2600000016}},{"attributes":{"ID":320416,"DIS_CODE":0,"TOWNNAME":"中西區","LI":"安海里","LIN":"7鄰","STREET":"中正路","SECT":" ","MAREA":" ","LANE":" ","ALLEY":" ","HOUSE_NO":"３６２號","E_COORD97":167350.17448399999,"N_COORD97":2543852.58855,"ADDRESS":"中正路３６２號","OBJECTID":320408},"geometry":{"x":167350.17448400054,"y":2543852.588552}},{"attributes":{"ID":320417,"DIS_CODE":0,"TOWNNAME":"北區","LI":"光武里","LIN":"15鄰","STREET":"北門路","SECT":"二段","MAREA":" ","LANE":"５７７巷","ALLEY":" ","HOUSE_NO":"２２號五樓之１","E_COORD97":169576.16,"N_COORD97":2545799.7999999998,"ADDRESS":"北門路二段５７７巷２２號五樓之１","OBJECTID":320409},"geometry":{"x":169576.16000000015,"y":2545799.8000000045}},{"attributes":{"ID":320418,"DIS_CODE":0,"TOWNNAME":"北區","LI":"光武里","LIN":"15鄰","STREET":"北門路","SECT":"二段","MAREA":" ","LANE":"５７７巷","ALLEY":" ","HOUSE_NO":"２２號六樓之１","E_COORD97":169576.16,"N_COORD97":2545799.7999999998,"ADDRESS":"北門路二段５７７巷２２號六樓之１","OBJECTID":320410},"geometry":{"x":169576.16000000015,"y":2545799.8000000045}},{"attributes":{"ID":320419,"DIS_CODE":0,"TOWNNAME":"新化區","LI":"羊林里","LIN":"4鄰","STREET":" ","SECT":" ","MAREA":"\u25A0拔林","LANE":" ","ALLEY":" ","HOUSE_NO":"５１９號之２","E_COORD97":183707.17999999999,"N_COORD97":2551650.2599999998,"ADDRESS":"\u25A0拔林５１９號之２","OBJECTID":320411},"geometry":{"x":183707.1799999997,"y":2551650.2599999998}},{"attributes":{"ID":320420,"DIS_CODE":0,"TOWNNAME":"北區","LI":"光武里","LIN":"15鄰","STREET":"北門路","SECT":"二段","MAREA":" ","LANE":"５７７巷","ALLEY":" ","HOUSE_NO":"２２號七樓之１","E_COORD97":169576.16,"N_COORD97":2545799.7999999998,"ADDRESS":"北門路二段５７７巷２２號七樓之１","OBJECTID":320412},"geometry":{"x":169576.16000000015,"y":2545799.8000000045}},{"attributes":{"ID":320421,"DIS_CODE":0,"TOWNNAME":"新化區","LI":"知義里","LIN":" ","STREET":" ","SECT":" ","MAREA":"新和庄","LANE":" ","ALLEY":" ","HOUSE_NO":"８號之１０","E_COORD97":181213.98000000001,"N_COORD97":2547036.2599999998,"ADDRESS":"新和庄８號之１０","OBJECTID":320413},"geometry":{"x":181213.98000000045,"y":2547036.2600000035}},{"attributes":{"ID":320422,"DIS_CODE":0,"TOWNNAME":"新化區","LI":"唪口里","LIN":"8鄰","STREET":" ","SECT":" ","MAREA":"唪口","LANE":" ","ALLEY":" ","HOUSE_NO":"９２號之１４","E_COORD97":177957.88,"N_COORD97":2549190.2599999998,"ADDRESS":"唪口９２號之１４","OBJECTID":320414},"geometry":{"x":177957.88000000175,"y":2549190.2600000016}},{"attributes":{"ID":320423,"DIS_CODE":0,"TOWNNAME":"北區","LI":"光武里","LIN":"15鄰","STREET":"北門路","SECT":"二段","MAREA":" ","LANE":"５７７巷","ALLEY":" ","HOUSE_NO":"２２號八樓之１","E_COORD97":169576.16,"N_COORD97":2545799.7999999998,"ADDRESS":"北門路二段５７７巷２２號八樓之１","OBJECTID":320415},"geometry":{"x":169576.16000000015,"y":2545799.8000000045}},{"attributes":{"ID":320424,"DIS_CODE":0,"TOWNNAME":"北區","LI":"光武里","LIN":"15鄰","STREET":"北門路","SECT":"二段","MAREA":" ","LANE":"５７７巷","ALLEY":" ","HOUSE_NO":"２２號九樓之１","E_COORD97":169576.16,"N_COORD97":2545799.7999999998,"ADDRESS":"北門路二段５７７巷２２號九樓之１","OBJECTID":320416},"geometry":{"x":169576.16000000015,"y":2545799.8000000045}},{"attributes":{"ID":320425,"DIS_CODE":0,"TOWNNAME":"新化區","LI":"礁坑里","LIN":"8鄰","STREET":" ","SECT":" ","MAREA":"三十六崙","LANE":" ","ALLEY":" ","HOUSE_NO":"５８號","E_COORD97":185155.62,"N_COORD97":2549006.25,"ADDRESS":"三十六崙５８號","OBJECTID":320417},"geometry":{"x":185155.62000000011,"y":2549006.2499999981}},{"attributes":{"ID":320426,"DIS_CODE":0,"TOWNNAME":"北區","LI":"光武里","LIN":"15鄰","STREET":"北門路","SECT":"二段","MAREA":" ","LANE":"５７７巷","ALLEY":" ","HOUSE_NO":"２２號十樓之１","E_COORD97":169576.16,"N_COORD97":2545799.7999999998,"ADDRESS":"北門路二段５７７巷２２號十樓之１","OBJECTID":320418},"geometry":{"x":169576.16000000015,"y":2545799.8000000045}},{"attributes":{"ID":320427,"DIS_CODE":0,"TOWNNAME":"新化區","LI":"唪口里","LIN":"8鄰","STREET":" ","SECT":" ","MAREA":"唪口","LANE":" ","ALLEY":" ","HOUSE_NO":"１２９號之３","E_COORD97":177908.89000000001,"N_COORD97":2549002.2599999998,"ADDRESS":"唪口１２９號之３","OBJECTID":320419},"geometry":{"x":177908.8900000006,"y":2549002.2599999998}},{"attributes":{"ID":320428,"DIS_CODE":0,"TOWNNAME":"新化區","LI":"北勢里","LIN":"1鄰","STREET":" ","SECT":" ","MAREA":"北勢","LANE":" ","ALLEY":" ","HOUSE_NO":"１４０號之５","E_COORD97":177295.228348,"N_COORD97":2549457.8316000002,"ADDRESS":"北勢１４０號之５","OBJECTID":320420},"geometry":{"x":177295.22834800184,"y":2549457.8316019997}},{"attributes":{"ID":320429,"DIS_CODE":0,"TOWNNAME":"永康區","LI":"復華里","LIN":"15鄰","STREET":"國華街","SECT":" ","MAREA":" ","LANE":"８７巷","ALLEY":" ","HOUSE_NO":"７號","E_COORD97":172824.39000000001,"N_COORD97":2545877.2400000002,"ADDRESS":"國華街８７巷７號","OBJECTID":320421},"geometry":{"x":172824.38999999966,"y":2545877.2399999984}},{"attributes":{"ID":320430,"DIS_CODE":0,"TOWNNAME":"新化區","LI":"知義里","LIN":"4鄰","STREET":" ","SECT":" ","MAREA":"知母義","LANE":" ","ALLEY":" ","HOUSE_NO":"１０２號之９","E_COORD97":179697.57000000001,"N_COORD97":2547329.2599999998,"ADDRESS":"知母義１０２號之９","OBJECTID":320422},"geometry":{"x":179697.5700000003,"y":2547329.2600000016}},{"attributes":{"ID":320431,"DIS_CODE":0,"TOWNNAME":"新化區","LI":"崙頂里","LIN":"4鄰","STREET":" ","SECT":" ","MAREA":"崙子頂","LANE":" ","ALLEY":" ","HOUSE_NO":"１９３號","E_COORD97":176632.23000000001,"N_COORD97":2546852.25,"ADDRESS":"崙子頂１９３號","OBJECTID":320423},"geometry":{"x":176632.23000000231,"y":2546852.25}},{"attributes":{"ID":320432,"DIS_CODE":0,"TOWNNAME":"新化區","LI":"崙頂里","LIN":"4鄰","STREET":" ","SECT":" ","MAREA":"崙子頂","LANE":" ","ALLEY":" ","HOUSE_NO":"１９２號之１","E_COORD97":176636.06,"N_COORD97":2546819.2599999998,"ADDRESS":"崙子頂１９２號之１","OBJECTID":320424},"geometry":{"x":176636.06000000052,"y":2546819.2600000035}},{"attributes":{"ID":320433,"DIS_CODE":0,"TOWNNAME":"南區","LI":"文華里","LIN":"17鄰","STREET":"南樂街","SECT":" ","MAREA":" ","LANE":" ","ALLEY":" ","HOUSE_NO":"１５號三樓之３","E_COORD97":166852.84,"N_COORD97":2543159.1499999999,"ADDRESS":"南樂街１５號三樓之３","OBJECTID":320425},"geometry":{"x":166852.83999999985,"y":2543159.1500000041}},{"attributes":{"ID":320434,"DIS_CODE":0,"TOWNNAME":"新化區","LI":"知義里","LIN":"4鄰","STREET":" ","SECT":" ","MAREA":"知母義","LANE":" ","ALLEY":" ","HOUSE_NO":"１０２號之１０","E_COORD97":179701.81,"N_COORD97":2547255.2599999998,"ADDRESS":"知母義１０２號之１０","OBJECTID":320426},"geometry":{"x":179701.80999999959,"y":2547255.2599999998}},{"attributes":{"ID":320435,"DIS_CODE":0,"TOWNNAME":"玉井區","LI":"沙田里","LIN":"4鄰","STREET":" ","SECT":" ","MAREA":"沙田","LANE":" ","ALLEY":" ","HOUSE_NO":"３３之３號","E_COORD97":196718.04000000001,"N_COORD97":2556601.2999999998,"ADDRESS":"沙田３３之３號","OBJECTID":320427},"geometry":{"x":196718.04000000097,"y":2556601.3000000045}},{"attributes":{"ID":320436,"DIS_CODE":0,"TOWNNAME":"玉井區","LI":"竹圍里","LIN":"4鄰","STREET":" ","SECT":" ","MAREA":"竹圍","LANE":" ","ALLEY":" ","HOUSE_NO":"３０之１３號","E_COORD97":196082.69,"N_COORD97":2558402.73,"ADDRESS":"竹圍３０之１３號","OBJECTID":320428},"geometry":{"x":196082.69000000041,"y":2558402.7300000023}},{"attributes":{"ID":320437,"DIS_CODE":0,"TOWNNAME":"新化區","LI":"礁坑里","LIN":"4鄰","STREET":" ","SECT":" ","MAREA":"九層嶺","LANE":" ","ALLEY":" ","HOUSE_NO":"１８號之７","E_COORD97":185297.20024999999,"N_COORD97":2548314.6199500002,"ADDRESS":"九層嶺１８號之７","OBJECTID":320429},"geometry":{"x":185297.20025000162,"y":2548314.6199500021}},{"attributes":{"ID":320438,"DIS_CODE":0,"TOWNNAME":"新化區","LI":"知義里","LIN":"4鄰","STREET":" ","SECT":" ","MAREA":"知母義","LANE":" ","ALLEY":" ","HOUSE_NO":"１０２號之２３","E_COORD97":179620.63,"N_COORD97":2547554.96,"ADDRESS":"知母義１０２號之２３","OBJECTID":320430},"geometry":{"x":179620.62999999989,"y":2547554.9600000046}},{"attributes":{"ID":320439,"DIS_CODE":0,"TOWNNAME":"新市區","LI":"新市里","LIN":"4鄰","STREET":"華興街","SECT":" ","MAREA":" ","LANE":"５２巷","ALLEY":" ","HOUSE_NO":"１號","E_COORD97":177691.67955500001,"N_COORD97":2553033.56819,"ADDRESS":"華興街５２巷１號","OBJECTID":320431},"geometry":{"x":177691.67955500074,"y":2553033.5681880023}},{"attributes":{"ID":320440,"DIS_CODE":0,"TOWNNAME":"中西區","LI":"安海里","LIN":"7鄰","STREET":"中正路","SECT":" ","MAREA":" ","LANE":" ","ALLEY":" ","HOUSE_NO":"３６８號","E_COORD97":167341.06042600001,"N_COORD97":2543853.85855,"ADDRESS":"中正路３６８號","OBJECTID":320432},"geometry":{"x":167341.06042600051,"y":2543853.8585509993}},{"attributes":{"ID":320441,"DIS_CODE":0,"TOWNNAME":"北區","LI":"光武里","LIN":"15鄰","STREET":"北門路","SECT":"二段","MAREA":" ","LANE":"５７７巷","ALLEY":" ","HOUSE_NO":"２２號三樓之２","E_COORD97":169576.16,"N_COORD97":2545799.7999999998,"ADDRESS":"北門路二段５７７巷２２號三樓之２","OBJECTID":320433},"geometry":{"x":169576.16000000015,"y":2545799.8000000045}},{"attributes":{"ID":320442,"DIS_CODE":0,"TOWNNAME":"北區","LI":"光武里","LIN":"15鄰","STREET":"北門路","SECT":"二段","MAREA":" ","LANE":"５７７巷","ALLEY":" ","HOUSE_NO":"２２號四樓之２","E_COORD97":169576.16,"N_COORD97":2545799.7999999998,"ADDRESS":"北門路二段５７７巷２２號四樓之２","OBJECTID":320434},"geometry":{"x":169576.16000000015,"y":2545799.8000000045}},{"attributes":{"ID":320443,"DIS_CODE":0,"TOWNNAME":"北區","LI":"光武里","LIN":"15鄰","STREET":"北門路","SECT":"二段","MAREA":" ","LANE":"５７７巷","ALLEY":" ","HOUSE_NO":"２２號五樓之２","E_COORD97":169576.16,"N_COORD97":2545799.7999999998,"ADDRESS":"北門路二段５７７巷２２號五樓之２","OBJECTID":320435},"geometry":{"x":169576.16000000015,"y":2545799.8000000045}},{"attributes":{"ID":320444,"DIS_CODE":0,"TOWNNAME":"北區","LI":"光武里","LIN":"15鄰","STREET":"北門路","SECT":"二段","MAREA":" ","LANE":"５７７巷","ALLEY":" ","HOUSE_NO":"２２號六樓之２","E_COORD97":169576.16,"N_COORD97":2545799.7999999998,"ADDRESS":"北門路二段５７７巷２２號六樓之２","OBJECTID":320436},"geometry":{"x":169576.16000000015,"y":2545799.8000000045}},{"attributes":{"ID":320445,"DIS_CODE":0,"TOWNNAME":"將軍區","LI":"平沙里","LIN":"10鄰","STREET":" ","SECT":" ","MAREA":"平沙","LANE":" ","ALLEY":" ","HOUSE_NO":"８５號","E_COORD97":157224.98849399999,"N_COORD97":2568481.9846999999,"ADDRESS":"平沙８５號","OBJECTID":320437},"geometry":{"x":157224.98849400133,"y":2568481.9846960008}},{"attributes":{"ID":320446,"DIS_CODE":0,"TOWNNAME":"北區","LI":"光武里","LIN":"15鄰","STREET":"北門路","SECT":"二段","MAREA":" ","LANE":"５７７巷","ALLEY":" ","HOUSE_NO":"２２號七樓之２","E_COORD97":169576.16,"N_COORD97":2545799.7999999998,"ADDRESS":"北門路二段５７７巷２２號七樓之２","OBJECTID":320438},"geometry":{"x":169576.16000000015,"y":2545799.8000000045}},{"attributes":{"ID":320447,"DIS_CODE":0,"TOWNNAME":"北區","LI":"光武里","LIN":"15鄰","STREET":"北門路","SECT":"二段","MAREA":" ","LANE":"５７７巷","ALLEY":" ","HOUSE_NO":"２２號八樓之２","E_COORD97":169576.16,"N_COORD97":2545799.7999999998,"ADDRESS":"北門路二段５７７巷２２號八樓之２","OBJECTID":320439},"geometry":{"x":169576.16000000015,"y":2545799.8000000045}},{"attributes":{"ID":320448,"DIS_CODE":0,"TOWNNAME":"北區","LI":"光武里","LIN":"15鄰","STREET":"北門路","SECT":"二段","MAREA":" ","LANE":"５７７巷","ALLEY":" ","HOUSE_NO":"２２號九樓之２","E_COORD97":169576.16,"N_COORD97":2545799.7999999998,"ADDRESS":"北門路二段５７７巷２２號九樓之２","OBJECTID":320440},"geometry":{"x":169576.16000000015,"y":2545799.8000000045}},{"attributes":{"ID":320449,"DIS_CODE":0,"TOWNNAME":"官田區","LI":"渡頭里","LIN":"13鄰","STREET":" ","SECT":" ","MAREA":"渡子頭","LANE":" ","ALLEY":" ","HOUSE_NO":"９５號","E_COORD97":181083.75,"N_COORD97":2563167.4399999999,"ADDRESS":"渡９５號","OBJECTID":320441},"geometry":{"x":181083.75000000093,"y":2563167.4400000013}},{"attributes":{"ID":320450,"DIS_CODE":0,"TOWNNAME":"北區","LI":"光武里","LIN":"15鄰","STREET":"北門路","SECT":"二段","MAREA":" ","LANE":"５７７巷","ALLEY":" ","HOUSE_NO":"２２號十樓之２","E_COORD97":169576.16,"N_COORD97":2545799.7999999998,"ADDRESS":"北門路二段５７７巷２２號十樓之２","OBJECTID":320442},"geometry":{"x":169576.16000000015,"y":2545799.8000000045}},{"attributes":{"ID":320451,"DIS_CODE":0,"TOWNNAME":"北區","LI":"光武里","LIN":"15鄰","STREET":"北門路","SECT":"二段","MAREA":" ","LANE":"５７７巷","ALLEY":" ","HOUSE_NO":"２２號十一樓之１","E_COORD97":169576.16,"N_COORD97":2545799.7999999998,"ADDRESS":"北門路二段５７７巷２２號十一樓之１","OBJECTID":320443},"geometry":{"x":169576.16000000015,"y":2545799.8000000045}},{"attributes":{"ID":320452,"DIS_CODE":0,"TOWNNAME":"南區","LI":"文華里","LIN":"17鄰","STREET":"南樂街","SECT":" ","MAREA":" ","LANE":" ","ALLEY":" ","HOUSE_NO":"１５號五樓之１","E_COORD97":166852.84,"N_COORD97":2543159.1499999999,"ADDRESS":"南樂街１５號五樓之１","OBJECTID":320444},"geometry":{"x":166852.83999999985,"y":2543159.1500000041}},{"attributes":{"ID":320453,"DIS_CODE":0,"TOWNNAME":"永康區","LI":"六合里","LIN":"2鄰","STREET":"中山南路","SECT":" ","MAREA":" ","LANE":" ","ALLEY":" ","HOUSE_NO":"１４號","E_COORD97":170749.748467,"N_COORD97":2545781.82919,"ADDRESS":"中山南路１４號","OBJECTID":320445},"geometry":{"x":170749.74846700113,"y":2545781.829194}},{"attributes":{"ID":320454,"DIS_CODE":0,"TOWNNAME":"楠西區","LI":"鹿田里","LIN":"4鄰","STREET":" ","SECT":" ","MAREA":"鹿陶洋","LANE":" ","ALLEY":" ","HOUSE_NO":"４０號之９","E_COORD97":198060.54999999999,"N_COORD97":2560889.29,"ADDRESS":"鹿陶洋４０號之９","OBJECTID":320446},"geometry":{"x":198060.55000000075,"y":2560889.290000001}},{"attributes":{"ID":320455,"DIS_CODE":0,"TOWNNAME":"後壁區","LI":"長安里","LIN":" ","STREET":" ","SECT":" ","MAREA":"中寮","LANE":" ","ALLEY":" ","HOUSE_NO":"１３３之１號","E_COORD97":184210.04000000001,"N_COORD97":2581311.73,"ADDRESS":"中寮１３３之１號","OBJECTID":320447},"geometry":{"x":184210.04000000004,"y":2581311.7300000023}},{"attributes":{"ID":320456,"DIS_CODE":0,"TOWNNAME":"安平區","LI":"華平里","LIN":"4鄰","STREET":"怡平路","SECT":" ","MAREA":" ","LANE":"４６８巷","ALLEY":" ","HOUSE_NO":"１２號","E_COORD97":165253.75,"N_COORD97":2543872.52,"ADDRESS":"怡平路４６８巷１２號","OBJECTID":320448},"geometry":{"x":165253.75000000093,"y":2543872.5200000014}},{"attributes":{"ID":320457,"DIS_CODE":0,"TOWNNAME":"楠西區","LI":"照興里","LIN":"1鄰","STREET":" ","SECT":" ","MAREA":"興北","LANE":" ","ALLEY":" ","HOUSE_NO":"４９號之８","E_COORD97":198239.29000000001,"N_COORD97":2567305.1299999999,"ADDRESS":"興北４９號之８","OBJECTID":320449},"geometry":{"x":198239.29000000004,"y":2567305.1300000008}},{"attributes":{"ID":320458,"DIS_CODE":0,"TOWNNAME":"後壁區","LI":"長安里","LIN":" ","STREET":" ","SECT":" ","MAREA":"中寮","LANE":" ","ALLEY":" ","HOUSE_NO":"１４６之１號","E_COORD97":184150.19,"N_COORD97":2581381.2000000002,"ADDRESS":"中寮１４６之１號","OBJECTID":320450},"geometry":{"x":184150.19000000041,"y":2581381.2000000011}},{"attributes":{"ID":320459,"DIS_CODE":0,"TOWNNAME":"山上區","LI":"明和里","LIN":"13鄰","STREET":" ","SECT":" ","MAREA":"明和","LANE":" ","ALLEY":" ","HOUSE_NO":"２５５號","E_COORD97":182651.78,"N_COORD97":2556964.3399999999,"ADDRESS":"明和２５５號","OBJECTID":320451},"geometry":{"x":182651.78000000119,"y":2556964.3400000017}},{"attributes":{"ID":320460,"DIS_CODE":0,"TOWNNAME":"安平區","LI":"華平里","LIN":"4鄰","STREET":"怡平路","SECT":" ","MAREA":" ","LANE":"４６８巷","ALLEY":" ","HOUSE_NO":"１６號","E_COORD97":165249.48000000001,"N_COORD97":2543879.6800000002,"ADDRESS":"怡平路４６８巷１６號","OBJECTID":320452},"geometry":{"x":165249.48000000138,"y":2543879.6799999997}},{"attributes":{"ID":320461,"DIS_CODE":0,"TOWNNAME":"安平區","LI":"億載里","LIN":"13鄰","STREET":"健康四街","SECT":" ","MAREA":" ","LANE":"９５巷","ALLEY":" ","HOUSE_NO":"７號","E_COORD97":164152.32000000001,"N_COORD97":2543240.1099999999,"ADDRESS":"健康四街９５巷７號","OBJECTID":320453},"geometry":{"x":164152.3200000003,"y":2543240.1100000013}},{"attributes":{"ID":320462,"DIS_CODE":0,"TOWNNAME":"安平區","LI":"國平里","LIN":"4鄰","STREET":"建平五街","SECT":" ","MAREA":" ","LANE":"１５０巷","ALLEY":" ","HOUSE_NO":"４３號","E_COORD97":165629.07000000001,"N_COORD97":2543301.5099999998,"ADDRESS":"建平五街１５０巷４３號","OBJECTID":320454},"geometry":{"x":165629.0700000003,"y":2543301.5099999998}},{"attributes":{"ID":320463,"DIS_CODE":0,"TOWNNAME":"安平區","LI":"華平里","LIN":"4鄰","STREET":"怡平路","SECT":" ","MAREA":" ","LANE":"４６８巷","ALLEY":" ","HOUSE_NO":"２號","E_COORD97":165239.76000000001,"N_COORD97":2543859.6200000001,"ADDRESS":"怡平路４６８巷２號","OBJECTID":320455},"geometry":{"x":165239.76000000164,"y":2543859.6200000029}},{"attributes":{"ID":320464,"DIS_CODE":0,"TOWNNAME":"永康區","LI":"\u25A0洲里","LIN":"40鄰","STREET":"洲工街","SECT":" ","MAREA":" ","LANE":"１４５巷","ALLEY":" ","HOUSE_NO":"１２號","E_COORD97":170657.01000000001,"N_COORD97":2548642.5899999999,"ADDRESS":"洲工街１４５巷１２號","OBJECTID":320456},"geometry":{"x":170657.00999999978,"y":2548642.5900000017}},{"attributes":{"ID":320465,"DIS_CODE":0,"TOWNNAME":"永康區","LI":"埔園里","LIN":"34鄰","STREET":"八德街","SECT":" ","MAREA":" ","LANE":"８８巷","ALLEY":" ","HOUSE_NO":"５１號","E_COORD97":174191.13,"N_COORD97":2548628,"ADDRESS":"八德街８８巷５１號","OBJECTID":320457},"geometry":{"x":174191.12999999896,"y":2548628}},{"attributes":{"ID":320466,"DIS_CODE":0,"TOWNNAME":"北區","LI":"光武里","LIN":"15鄰","STREET":"北門路","SECT":"二段","MAREA":" ","LANE":"５７７巷","ALLEY":" ","HOUSE_NO":"２２號十一樓之２","E_COORD97":169576.16,"N_COORD97":2545799.7999999998,"ADDRESS":"北門路二段５７７巷２２號十一樓之２","OBJECTID":320458},"geometry":{"x":169576.16000000015,"y":2545799.8000000045}},{"attributes":{"ID":320467,"DIS_CODE":0,"TOWNNAME":"北區","LI":"光武里","LIN":"15鄰","STREET":"北門路","SECT":"二段","MAREA":" ","LANE":"５７７巷","ALLEY":" ","HOUSE_NO":"２６號二樓之１","E_COORD97":169557.42999999999,"N_COORD97":2545798.21,"ADDRESS":"北門路二段５７７巷２６號二樓之１","OBJECTID":320459},"geometry":{"x":169557.4299999997,"y":2545798.2100000028}},{"attributes":{"ID":320468,"DIS_CODE":0,"TOWNNAME":"南區","LI":"文華里","LIN":"17鄰","STREET":"南樂街","SECT":" ","MAREA":" ","LANE":" ","ALLEY":" ","HOUSE_NO":"１５號五樓之２","E_COORD97":166852.84,"N_COORD97":2543159.1499999999,"ADDRESS":"南樂街１５號五樓之２","OBJECTID":320460},"geometry":{"x":166852.83999999985,"y":2543159.1500000041}},{"attributes":{"ID":320469,"DIS_CODE":0,"TOWNNAME":"南區","LI":"文華里","LIN":"17鄰","STREET":"南樂街","SECT":" ","MAREA":" ","LANE":" ","ALLEY":" ","HOUSE_NO":"１５號四樓之１","E_COORD97":166852.84,"N_COORD97":2543159.1499999999,"ADDRESS":"南樂街１５號四樓之１","OBJECTID":320461},"geometry":{"x":166852.83999999985,"y":2543159.1500000041}},{"attributes":{"ID":320470,"DIS_CODE":0,"TOWNNAME":"南區","LI":"文華里","LIN":"17鄰","STREET":"南樂街","SECT":" ","MAREA":" ","LANE":" ","ALLEY":" ","HOUSE_NO":"１５號四樓之２","E_COORD97":166852.84,"N_COORD97":2543159.1499999999,"ADDRESS":"南樂街１５號四樓之２","OBJECTID":320462},"geometry":{"x":166852.83999999985,"y":2543159.1500000041}},{"attributes":{"ID":320471,"DIS_CODE":0,"TOWNNAME":"南區","LI":"文華里","LIN":"17鄰","STREET":"南樂街","SECT":" ","MAREA":" ","LANE":" ","ALLEY":" ","HOUSE_NO":"１７號五樓","E_COORD97":166847.09,"N_COORD97":2543154.5800000001,"ADDRESS":"南樂街１７號五樓","OBJECTID":320463},"geometry":{"x":166847.08999999985,"y":2543154.5800000001}},{"attributes":{"ID":320472,"DIS_CODE":0,"TOWNNAME":"南區","LI":"文華里","LIN":"17鄰","STREET":"南樂街","SECT":" ","MAREA":" ","LANE":" ","ALLEY":" ","HOUSE_NO":"１７號二樓","E_COORD97":166847.09,"N_COORD97":2543154.5800000001,"ADDRESS":"南樂街１７號二樓","OBJECTID":320464},"geometry":{"x":166847.08999999985,"y":2543154.5800000001}},{"attributes":{"ID":320473,"DIS_CODE":0,"TOWNNAME":"南區","LI":"文華里","LIN":"17鄰","STREET":"南樂街","SECT":" ","MAREA":" ","LANE":" ","ALLEY":" ","HOUSE_NO":"１７號三樓","E_COORD97":166847.09,"N_COORD97":2543154.5800000001,"ADDRESS":"南樂街１７號三樓","OBJECTID":320465},"geometry":{"x":166847.08999999985,"y":2543154.5800000001}},{"attributes":{"ID":320474,"DIS_CODE":0,"TOWNNAME":"南區","LI":"文華里","LIN":"17鄰","STREET":"南樂街","SECT":" ","MAREA":" ","LANE":" ","ALLEY":" ","HOUSE_NO":"１７號四樓","E_COORD97":166847.09,"N_COORD97":2543154.5800000001,"ADDRESS":"南樂街１７號四樓","OBJECTID":320466},"geometry":{"x":166847.08999999985,"y":2543154.5800000001}},{"attributes":{"ID":320475,"DIS_CODE":0,"TOWNNAME":"南區","LI":"文華里","LIN":"17鄰","STREET":"南樂街","SECT":" ","MAREA":" ","LANE":" ","ALLEY":" ","HOUSE_NO":"２７號二樓","E_COORD97":166819.88,"N_COORD97":2543147.1200000001,"ADDRESS":"南樂街２７號二樓","OBJECTID":320467},"geometry":{"x":166819.87999999989,"y":2543147.1200000029}},{"attributes":{"ID":320476,"DIS_CODE":0,"TOWNNAME":"中西區","LI":"安海里","LIN":"7鄰","STREET":"中正路","SECT":" ","MAREA":" ","LANE":" ","ALLEY":" ","HOUSE_NO":"３７０號","E_COORD97":167336.39741999999,"N_COORD97":2543854.7052199999,"ADDRESS":"中正路３７０號","OBJECTID":320468},"geometry":{"x":167336.39742000122,"y":2543854.7052170001}},{"attributes":{"ID":320478,"DIS_CODE":0,"TOWNNAME":"永康區","LI":"東橋里","LIN":"25鄰","STREET":"中正路","SECT":" ","MAREA":" ","LANE":"３５０巷","ALLEY":" ","HOUSE_NO":"１號","E_COORD97":172935.28,"N_COORD97":2548061.3500000001,"ADDRESS":"中正路３５０巷１號","OBJECTID":320469},"geometry":{"x":172935.28000000119,"y":2548061.3499999996}},{"attributes":{"ID":320479,"DIS_CODE":0,"TOWNNAME":"永康區","LI":"勝利里","LIN":"20鄰","STREET":"勝學路","SECT":" ","MAREA":" ","LANE":"２８２巷","ALLEY":" ","HOUSE_NO":"１２號","E_COORD97":171243.85999999999,"N_COORD97":2545331.7200000002,"ADDRESS":"勝學路２８２巷１２號","OBJECTID":320470},"geometry":{"x":171243.8600000022,"y":2545331.7200000007}},{"attributes":{"ID":320480,"DIS_CODE":0,"TOWNNAME":"永康區","LI":"勝利里","LIN":"20鄰","STREET":"勝學路","SECT":" ","MAREA":" ","LANE":"２８２巷","ALLEY":" ","HOUSE_NO":"８號","E_COORD97":171233.45999999999,"N_COORD97":2545331.8199999998,"ADDRESS":"勝學路２８２巷８號","OBJECTID":320471},"geometry":{"x":171233.46000000089,"y":2545331.8200000022}},{"attributes":{"ID":320481,"DIS_CODE":0,"TOWNNAME":"北區","LI":"光武里","LIN":"15鄰","STREET":"北門路","SECT":"二段","MAREA":" ","LANE":"５７７巷","ALLEY":" ","HOUSE_NO":"２６號二樓之２","E_COORD97":169557.42999999999,"N_COORD97":2545798.21,"ADDRESS":"北門路二段５７７巷２６號二樓之２","OBJECTID":320472},"geometry":{"x":169557.4299999997,"y":2545798.2100000028}},{"attributes":{"ID":320482,"DIS_CODE":0,"TOWNNAME":"北區","LI":"光武里","LIN":"15鄰","STREET":"北門路","SECT":"二段","MAREA":" ","LANE":"５７７巷","ALLEY":" ","HOUSE_NO":"２６號三樓之１","E_COORD97":169557.42999999999,"N_COORD97":2545798.21,"ADDRESS":"北門路二段５７７巷２６號三樓之１","OBJECTID":320473},"geometry":{"x":169557.4299999997,"y":2545798.2100000028}},{"attributes":{"ID":320483,"DIS_CODE":0,"TOWNNAME":"北區","LI":"光武里","LIN":"15鄰","STREET":"北門路","SECT":"二段","MAREA":" ","LANE":"５７７巷","ALLEY":" ","HOUSE_NO":"２６號四樓之１","E_COORD97":169557.42999999999,"N_COORD97":2545798.21,"ADDRESS":"北門路二段５７７巷２６號四樓之１","OBJECTID":320474},"geometry":{"x":169557.4299999997,"y":2545798.2100000028}},{"attributes":{"ID":320484,"DIS_CODE":0,"TOWNNAME":"北區","LI":"光武里","LIN":"15鄰","STREET":"北門路","SECT":"二段","MAREA":" ","LANE":"５７７巷","ALLEY":" ","HOUSE_NO":"２６號五樓之１","E_COORD97":169557.42999999999,"N_COORD97":2545798.21,"ADDRESS":"北門路二段５７７巷２６號五樓之１","OBJECTID":320475},"geometry":{"x":169557.4299999997,"y":2545798.2100000028}},{"attributes":{"ID":320485,"DIS_CODE":0,"TOWNNAME":"北區","LI":"光武里","LIN":"15鄰","STREET":"北門路","SECT":"二段","MAREA":" ","LANE":"５７７巷","ALLEY":" ","HOUSE_NO":"２６號六樓之１","E_COORD97":169557.42999999999,"N_COORD97":2545798.21,"ADDRESS":"北門路二段５７７巷２６號六樓之１","OBJECTID":320476},"geometry":{"x":169557.4299999997,"y":2545798.2100000028}},{"attributes":{"ID":320486,"DIS_CODE":0,"TOWNNAME":"北區","LI":"光武里","LIN":"15鄰","STREET":"北門路","SECT":"二段","MAREA":" ","LANE":"５７７巷","ALLEY":" ","HOUSE_NO":"２６號七樓之１","E_COORD97":169557.42999999999,"N_COORD97":2545798.21,"ADDRESS":"北門路二段５７７巷２６號七樓之１","OBJECTID":320477},"geometry":{"x":169557.4299999997,"y":2545798.2100000028}},{"attributes":{"ID":320487,"DIS_CODE":0,"TOWNNAME":"北區","LI":"光武里","LIN":"15鄰","STREET":"北門路","SECT":"二段","MAREA":" ","LANE":"５７７巷","ALLEY":" ","HOUSE_NO":"２６號八樓之１","E_COORD97":169557.42999999999,"N_COORD97":2545798.21,"ADDRESS":"北門路二段５７７巷２６號八樓之１","OBJECTID":320478},"geometry":{"x":169557.4299999997,"y":2545798.2100000028}},{"attributes":{"ID":320488,"DIS_CODE":0,"TOWNNAME":"北區","LI":"光武里","LIN":"15鄰","STREET":"北門路","SECT":"二段","MAREA":" ","LANE":"５７７巷","ALLEY":" ","HOUSE_NO":"２６號九樓之１","E_COORD97":169557.42999999999,"N_COORD97":2545798.21,"ADDRESS":"北門路二段５７７巷２６號九樓之１","OBJECTID":320479},"geometry":{"x":169557.4299999997,"y":2545798.2100000028}},{"attributes":{"ID":320489,"DIS_CODE":0,"TOWNNAME":"北區","LI":"光武里","LIN":"15鄰","STREET":"北門路","SECT":"二段","MAREA":" ","LANE":"５７７巷","ALLEY":" ","HOUSE_NO":"２６號十樓之１","E_COORD97":169557.42999999999,"N_COORD97":2545798.21,"ADDRESS":"北門路二段５７７巷２６號十樓之１","OBJECTID":320480},"geometry":{"x":169557.4299999997,"y":2545798.2100000028}},{"attributes":{"ID":320490,"DIS_CODE":0,"TOWNNAME":"北區","LI":"光武里","LIN":"15鄰","STREET":"北門路","SECT":"二段","MAREA":" ","LANE":"５７７巷","ALLEY":" ","HOUSE_NO":"２６號三樓之２","E_COORD97":169557.42999999999,"N_COORD97":2545798.21,"ADDRESS":"北門路二段５７７巷２６號三樓之２","OBJECTID":320481},"geometry":{"x":169557.4299999997,"y":2545798.2100000028}},{"attributes":{"ID":320491,"DIS_CODE":0,"TOWNNAME":"北區","LI":"光武里","LIN":"15鄰","STREET":"北門路","SECT":"二段","MAREA":" ","LANE":"５７７巷","ALLEY":" ","HOUSE_NO":"２６號四樓之２","E_COORD97":169557.42999999999,"N_COORD97":2545798.21,"ADDRESS":"北門路二段５７７巷２６號四樓之２","OBJECTID":320482},"geometry":{"x":169557.4299999997,"y":2545798.2100000028}},{"attributes":{"ID":320492,"DIS_CODE":0,"TOWNNAME":"北區","LI":"光武里","LIN":"15鄰","STREET":"北門路","SECT":"二段","MAREA":" ","LANE":"５７７巷","ALLEY":" ","HOUSE_NO":"２６號五樓之２","E_COORD97":169557.42999999999,"N_COORD97":2545798.21,"ADDRESS":"北門路二段５７７巷２６號五樓之２","OBJECTID":320483},"geometry":{"x":169557.4299999997,"y":2545798.2100000028}},{"attributes":{"ID":320493,"DIS_CODE":0,"TOWNNAME":"南區","LI":"文華里","LIN":"17鄰","STREET":"南樂街","SECT":" ","MAREA":" ","LANE":" ","ALLEY":" ","HOUSE_NO":"２７號三樓","E_COORD97":166819.88,"N_COORD97":2543147.1200000001,"ADDRESS":"南樂街２７號三樓","OBJECTID":320484},"geometry":{"x":166819.87999999989,"y":2543147.1200000029}},{"attributes":{"ID":320494,"DIS_CODE":0,"TOWNNAME":"南區","LI":"文華里","LIN":"17鄰","STREET":"南樂街","SECT":" ","MAREA":" ","LANE":" ","ALLEY":" ","HOUSE_NO":"２７號五樓","E_COORD97":166819.88,"N_COORD97":2543147.1200000001,"ADDRESS":"南樂街２７號五樓","OBJECTID":320485},"geometry":{"x":166819.87999999989,"y":2543147.1200000029}},{"attributes":{"ID":320495,"DIS_CODE":0,"TOWNNAME":"南區","LI":"文華里","LIN":"17鄰","STREET":"南樂街","SECT":" ","MAREA":" ","LANE":" ","ALLEY":" ","HOUSE_NO":"２７號四樓","E_COORD97":166819.88,"N_COORD97":2543147.1200000001,"ADDRESS":"南樂街２７號四樓","OBJECTID":320486},"geometry":{"x":166819.87999999989,"y":2543147.1200000029}},{"attributes":{"ID":320496,"DIS_CODE":0,"TOWNNAME":"歸仁區","LI":"辜厝里","LIN":"17鄰","STREET":"大順街","SECT":" ","MAREA":" ","LANE":" ","ALLEY":" ","HOUSE_NO":"１３號十四樓","E_COORD97":177457.92999999999,"N_COORD97":2540505.9500000002,"ADDRESS":"大順街１３號十四樓","OBJECTID":320487},"geometry":{"x":177457.93000000063,"y":2540505.9500000011}},{"attributes":{"ID":320497,"DIS_CODE":0,"TOWNNAME":"歸仁區","LI":"許厝里","LIN":"17鄰","STREET":"忠孝北路","SECT":" ","MAREA":" ","LANE":" ","ALLEY":" ","HOUSE_NO":"１７號三樓","E_COORD97":178444.22,"N_COORD97":2540724.25,"ADDRESS":"忠孝北路１７號三樓","OBJECTID":320488},"geometry":{"x":178444.22000000067,"y":2540724.2500000019}},{"attributes":{"ID":320498,"DIS_CODE":0,"TOWNNAME":"新營區","LI":"土庫里","LIN":"17鄰","STREET":" ","SECT":" ","MAREA":"卯舍","LANE":" ","ALLEY":" ","HOUSE_NO":"６８０號","E_COORD97":181071.949433,"N_COORD97":2580625.5991099998,"ADDRESS":"卯舍６８０號","OBJECTID":320489},"geometry":{"x":181071.94943299983,"y":2580625.5991140008}},{"attributes":{"ID":320499,"DIS_CODE":0,"TOWNNAME":"新市區","LI":"新市里","LIN":"4鄰","STREET":"華興街","SECT":" ","MAREA":" ","LANE":" ","ALLEY":" ","HOUSE_NO":"６２之１號","E_COORD97":177668.53168399999,"N_COORD97":2552997.42612,"ADDRESS":"華興街６２之１號","OBJECTID":320490},"geometry":{"x":177668.53168400098,"y":2552997.4261239991}},{"attributes":{"ID":320500,"DIS_CODE":0,"TOWNNAME":"將軍區","LI":"長沙里","LIN":"4鄰","STREET":" ","SECT":" ","MAREA":"長沙","LANE":" ","ALLEY":" ","HOUSE_NO":"２９之３號","E_COORD97":157299.681751,"N_COORD97":2568646.3629600001,"ADDRESS":"長沙２９之３號","OBJECTID":320491},"geometry":{"x":157299.68175100069,"y":2568646.3629630022}},{"attributes":{"ID":320501,"DIS_CODE":0,"TOWNNAME":"永康區","LI":"網寮里","LIN":"25鄰","STREET":"永春街","SECT":" ","MAREA":" ","LANE":"１０８巷","ALLEY":" ","HOUSE_NO":"１１號","E_COORD97":173780.38,"N_COORD97":2546616.6400000001,"ADDRESS":"永春街１０８巷１１號","OBJECTID":320492},"geometry":{"x":173780.37999999989,"y":2546616.6400000006}},{"attributes":{"ID":320502,"DIS_CODE":0,"TOWNNAME":"永康區","LI":"安康里","LIN":"25鄰","STREET":"中華路","SECT":" ","MAREA":" ","LANE":"７０３巷","ALLEY":" ","HOUSE_NO":"２６之３號","E_COORD97":170811.64999999999,"N_COORD97":2546298.2999999998,"ADDRESS":"中華路７０３巷２６之３號","OBJECTID":320493},"geometry":{"x":170811.6500000013,"y":2546298.3000000026}},{"attributes":{"ID":320503,"DIS_CODE":0,"TOWNNAME":"佳里區","LI":"嘉福里","LIN":"4鄰","STREET":" ","SECT":" ","MAREA":"下\u25A0","LANE":" ","ALLEY":" ","HOUSE_NO":"３７號之２","E_COORD97":163440.53552,"N_COORD97":2563508.2494199998,"ADDRESS":"下\u25A0３７之２號","OBJECTID":320494},"geometry":{"x":163440.53552000131,"y":2563508.2494200021}},{"attributes":{"ID":320504,"DIS_CODE":0,"TOWNNAME":"後壁區","LI":"長安里","LIN":" ","STREET":" ","SECT":" ","MAREA":"中寮","LANE":" ","ALLEY":" ","HOUSE_NO":"１４６之２號","E_COORD97":184156.23999999999,"N_COORD97":2581393.5499999998,"ADDRESS":"中寮１４６之２號","OBJECTID":320495},"geometry":{"x":184156.24000000022,"y":2581393.5500000045}},{"attributes":{"ID":320505,"DIS_CODE":0,"TOWNNAME":"永康區","LI":"崑山里","LIN":"39鄰","STREET":"國光三街","SECT":" ","MAREA":" ","LANE":"１０巷","ALLEY":" ","HOUSE_NO":"１８號","E_COORD97":174171,"N_COORD97":2544918.6299999999,"ADDRESS":"國光三街１０巷１８號","OBJECTID":320496},"geometry":{"x":174171.00000000093,"y":2544918.6300000008}},{"attributes":{"ID":320506,"DIS_CODE":0,"TOWNNAME":"永康區","LI":"埔園里","LIN":"34鄰","STREET":"永大路","SECT":"三段","MAREA":" ","LANE":"６１８巷","ALLEY":" ","HOUSE_NO":"５８號","E_COORD97":174174.28,"N_COORD97":2548709.7599999998,"ADDRESS":"永大路三段６１８巷５８號","OBJECTID":320497},"geometry":{"x":174174.28000000119,"y":2548709.7599999998}},{"attributes":{"ID":320507,"DIS_CODE":0,"TOWNNAME":"永康區","LI":"勝利里","LIN":"20鄰","STREET":"勝學路","SECT":" ","MAREA":" ","LANE":"２８２巷","ALLEY":" ","HOUSE_NO":"７號","E_COORD97":171240.70000000001,"N_COORD97":2545346.6899999999,"ADDRESS":"勝學路２８２巷７號","OBJECTID":320498},"geometry":{"x":171240.70000000019,"y":2545346.6899999995}},{"attributes":{"ID":320508,"DIS_CODE":0,"TOWNNAME":"永康區","LI":"西灣里","LIN":"4鄰","STREET":"大灣五街","SECT":" ","MAREA":" ","LANE":"６９巷","ALLEY":" ","HOUSE_NO":"１５號","E_COORD97":174693.03,"N_COORD97":2545208.0899999999,"ADDRESS":"大灣五街６９巷１５號","OBJECTID":320499},"geometry":{"x":174693.03000000119,"y":2545208.0900000017}},{"attributes":{"ID":320509,"DIS_CODE":0,"TOWNNAME":"永康區","LI":"勝利里","LIN":"20鄰","STREET":"勝學路","SECT":" ","MAREA":" ","LANE":"２８２巷","ALLEY":" ","HOUSE_NO":"１０號","E_COORD97":171239.75,"N_COORD97":2545329.3199999998,"ADDRESS":"勝學路２８２巷１０號","OBJECTID":320500},"geometry":{"x":171239.75000000093,"y":2545329.3200000022}},{"attributes":{"ID":320510,"DIS_CODE":0,"TOWNNAME":"北區","LI":"光武里","LIN":"15鄰","STREET":"北門路","SECT":"二段","MAREA":" ","LANE":"５７７巷","ALLEY":" ","HOUSE_NO":"２６號六樓之２","E_COORD97":169557.42999999999,"N_COORD97":2545798.21,"ADDRESS":"北門路二段５７７巷２６號六樓之２","OBJECTID":320501},"geometry":{"x":169557.4299999997,"y":2545798.2100000028}},{"attributes":{"ID":320511,"DIS_CODE":0,"TOWNNAME":"北區","LI":"光武里","LIN":"15鄰","STREET":"北門路","SECT":"二段","MAREA":" ","LANE":"５７７巷","ALLEY":" ","HOUSE_NO":"２６號七樓之２","E_COORD97":169557.42999999999,"N_COORD97":2545798.21,"ADDRESS":"北門路二段５７７巷２６號七樓之２","OBJECTID":320502},"geometry":{"x":169557.4299999997,"y":2545798.2100000028}},{"attributes":{"ID":320512,"DIS_CODE":0,"TOWNNAME":"北區","LI":"光武里","LIN":"15鄰","STREET":"北門路","SECT":"二段","MAREA":" ","LANE":"５７７巷","ALLEY":" ","HOUSE_NO":"２６號八樓之２","E_COORD97":169557.42999999999,"N_COORD97":2545798.21,"ADDRESS":"北門路二段５７７巷２６號八樓之２","OBJECTID":320503},"geometry":{"x":169557.4299999997,"y":2545798.2100000028}},{"attributes":{"ID":320513,"DIS_CODE":0,"TOWNNAME":"北區","LI":"光武里","LIN":"15鄰","STREET":"北門路","SECT":"二段","MAREA":" ","LANE":"５７７巷","ALLEY":" ","HOUSE_NO":"２６號九樓之２","E_COORD97":169557.42999999999,"N_COORD97":2545798.21,"ADDRESS":"北門路二段５７７巷２６號九樓之２","OBJECTID":320504},"geometry":{"x":169557.4299999997,"y":2545798.2100000028}},{"attributes":{"ID":320514,"DIS_CODE":0,"TOWNNAME":"北區","LI":"光武里","LIN":"15鄰","STREET":"北門路","SECT":"二段","MAREA":" ","LANE":"５７７巷","ALLEY":" ","HOUSE_NO":"２６號十樓之２","E_COORD97":169557.42999999999,"N_COORD97":2545798.21,"ADDRESS":"北門路二段５７７巷２６號十樓之２","OBJECTID":320505},"geometry":{"x":169557.4299999997,"y":2545798.2100000028}},{"attributes":{"ID":320515,"DIS_CODE":0,"TOWNNAME":"安平區","LI":"育平里","LIN":"17鄰","STREET":"育平路","SECT":" ","MAREA":" ","LANE":" ","ALLEY":" ","HOUSE_NO":"２１２號九樓之２５","E_COORD97":164690.60999999999,"N_COORD97":2543415.9199999999,"ADDRESS":"育平路２１２號九樓之２５","OBJECTID":320506},"geometry":{"x":164690.61000000127,"y":2543415.9200000018}},{"attributes":{"ID":320516,"DIS_CODE":0,"TOWNNAME":"安平區","LI":"育平里","LIN":"17鄰","STREET":"育平路","SECT":" ","MAREA":" ","LANE":" ","ALLEY":" ","HOUSE_NO":"２１２號七樓之２３","E_COORD97":164690.60999999999,"N_COORD97":2543415.9199999999,"ADDRESS":"育平路２１２號七樓之２３","OBJECTID":320507},"geometry":{"x":164690.61000000127,"y":2543415.9200000018}},{"attributes":{"ID":320517,"DIS_CODE":0,"TOWNNAME":"安平區","LI":"育平里","LIN":"17鄰","STREET":"育平路","SECT":" ","MAREA":" ","LANE":" ","ALLEY":" ","HOUSE_NO":"２１２號七樓之２５","E_COORD97":164690.60999999999,"N_COORD97":2543415.9199999999,"ADDRESS":"育平路２１２號七樓之２５","OBJECTID":320508},"geometry":{"x":164690.61000000127,"y":2543415.9200000018}},{"attributes":{"ID":320518,"DIS_CODE":0,"TOWNNAME":"安平區","LI":"育平里","LIN":"17鄰","STREET":"育平路","SECT":" ","MAREA":" ","LANE":" ","ALLEY":" ","HOUSE_NO":"２１２號七樓之２７","E_COORD97":164690.60999999999,"N_COORD97":2543415.9199999999,"ADDRESS":"育平路２１２號七樓之２７","OBJECTID":320509},"geometry":{"x":164690.61000000127,"y":2543415.9200000018}},{"attributes":{"ID":320519,"DIS_CODE":0,"TOWNNAME":"安平區","LI":"育平里","LIN":"17鄰","STREET":"育平路","SECT":" ","MAREA":" ","LANE":" ","ALLEY":" ","HOUSE_NO":"２１２號七樓之２９","E_COORD97":164690.60999999999,"N_COORD97":2543415.9199999999,"ADDRESS":"育平路２１２號七樓之２９","OBJECTID":320510},"geometry":{"x":164690.61000000127,"y":2543415.9200000018}},{"attributes":{"ID":320520,"DIS_CODE":0,"TOWNNAME":"安平區","LI":"育平里","LIN":"17鄰","STREET":"育平路","SECT":" ","MAREA":" ","LANE":" ","ALLEY":" ","HOUSE_NO":"２１２號七樓之３１","E_COORD97":164690.60999999999,"N_COORD97":2543415.9199999999,"ADDRESS":"育平路２１２號七樓之３１","OBJECTID":320511},"geometry":{"x":164690.61000000127,"y":2543415.9200000018}},{"attributes":{"ID":320521,"DIS_CODE":0,"TOWNNAME":"安平區","LI":"育平里","LIN":"17鄰","STREET":"育平路","SECT":" ","MAREA":" ","LANE":" ","ALLEY":" ","HOUSE_NO":"２１２號七樓之３３","E_COORD97":164690.60999999999,"N_COORD97":2543415.9199999999,"ADDRESS":"育平路２１２號七樓之３３","OBJECTID":320512},"geometry":{"x":164690.61000000127,"y":2543415.9200000018}},{"attributes":{"ID":320522,"DIS_CODE":0,"TOWNNAME":"歸仁區","LI":"新厝里","LIN":"27鄰","STREET":"中正五街","SECT":" ","MAREA":" ","LANE":" ","ALLEY":" ","HOUSE_NO":"１５號","E_COORD97":177009.400311,"N_COORD97":2540069.8626700002,"ADDRESS":"中正五街１５號","OBJECTID":320513},"geometry":{"x":177009.40031100065,"y":2540069.8626669999}},{"attributes":{"ID":320523,"DIS_CODE":0,"TOWNNAME":"關廟區","LI":"下湖里","LIN":"2鄰","STREET":"下湖二街","SECT":" ","MAREA":" ","LANE":" ","ALLEY":" ","HOUSE_NO":"３７號","E_COORD97":179362.31155799999,"N_COORD97":2542974.7252600002,"ADDRESS":"下湖二街３７號","OBJECTID":320514},"geometry":{"x":179362.31155800074,"y":2542974.7252620012}},{"attributes":{"ID":320524,"DIS_CODE":0,"TOWNNAME":"永康區","LI":"網寮里","LIN":"24鄰","STREET":"永大一路","SECT":" ","MAREA":" ","LANE":"１６０巷","ALLEY":" ","HOUSE_NO":"２６號","E_COORD97":173861.76999999999,"N_COORD97":2546441.6899999999,"ADDRESS":"永大一路１６０巷２６號","OBJECTID":320515},"geometry":{"x":173861.77000000048,"y":2546441.6899999995}},{"attributes":{"ID":320525,"DIS_CODE":0,"TOWNNAME":"永康區","LI":"東橋里","LIN":"14鄰","STREET":"東橋八街","SECT":" ","MAREA":" ","LANE":"２８巷","ALLEY":" ","HOUSE_NO":"２２號","E_COORD97":171435.07000000001,"N_COORD97":2546730.04,"ADDRESS":"東橋八街２８巷２２號","OBJECTID":320516},"geometry":{"x":171435.0700000003,"y":2546730.040000001}},{"attributes":{"ID":320526,"DIS_CODE":0,"TOWNNAME":"永康區","LI":"勝利里","LIN":"20鄰","STREET":"勝學路","SECT":" ","MAREA":" ","LANE":"２８２巷","ALLEY":" ","HOUSE_NO":"２１號","E_COORD97":171276.38,"N_COORD97":2545348.9700000002,"ADDRESS":"勝學路２８２巷２１號","OBJECTID":320517},"geometry":{"x":171276.37999999989,"y":2545348.9700000025}},{"attributes":{"ID":320527,"DIS_CODE":0,"TOWNNAME":"永康區","LI":"勝利里","LIN":"20鄰","STREET":"勝學路","SECT":" ","MAREA":" ","LANE":"２８２巷","ALLEY":" ","HOUSE_NO":"１５號","E_COORD97":171261.25,"N_COORD97":2545347.0600000001,"ADDRESS":"勝學路２８２巷１５號","OBJECTID":320518},"geometry":{"x":171261.25000000186,"y":2545347.0600000024}},{"attributes":{"ID":320528,"DIS_CODE":0,"TOWNNAME":"永康區","LI":"\u25A0行里","LIN":"39鄰","STREET":"永安路","SECT":" ","MAREA":" ","LANE":"１０３巷","ALLEY":" ","HOUSE_NO":"２２號","E_COORD97":172744.35999999999,"N_COORD97":2549195.6899999999,"ADDRESS":"永安路１０３巷２２號","OBJECTID":320519},"geometry":{"x":172744.36000000127,"y":2549195.6899999995}},{"attributes":{"ID":320529,"DIS_CODE":0,"TOWNNAME":"永康區","LI":"埔園里","LIN":"34鄰","STREET":"永大路","SECT":"三段","MAREA":" ","LANE":"５６０巷","ALLEY":" ","HOUSE_NO":"１９號","E_COORD97":174175.22,"N_COORD97":2548639.8500000001,"ADDRESS":"永大路三段５６０巷１９號","OBJECTID":320520},"geometry":{"x":174175.2200000016,"y":2548639.8500000015}},{"attributes":{"ID":320530,"DIS_CODE":0,"TOWNNAME":"永康區","LI":"西灣里","LIN":"4鄰","STREET":"大灣五街","SECT":" ","MAREA":" ","LANE":"６９巷","ALLEY":" ","HOUSE_NO":"２１號","E_COORD97":174681.56,"N_COORD97":2545193.3500000001,"ADDRESS":"大灣五街６９巷２１號","OBJECTID":320521},"geometry":{"x":174681.56000000052,"y":2545193.3499999996}},{"attributes":{"ID":320531,"DIS_CODE":0,"TOWNNAME":"永康區","LI":"勝利里","LIN":"20鄰","STREET":"勝學路","SECT":" ","MAREA":" ","LANE":"２８２巷","ALLEY":" ","HOUSE_NO":"１６號","E_COORD97":171249.45999999999,"N_COORD97":2545329.1800000002,"ADDRESS":"勝學路２８２巷１６號","OBJECTID":320522},"geometry":{"x":171249.45999999996,"y":2545329.1800000016}},{"attributes":{"ID":320532,"DIS_CODE":0,"TOWNNAME":"新化區","LI":"協興里","LIN":"15鄰","STREET":"大新路","SECT":" ","MAREA":" ","LANE":"１１１巷","ALLEY":" ","HOUSE_NO":"５０號七樓之１","E_COORD97":177987.91,"N_COORD97":2548642.2599999998,"ADDRESS":"大新路１１１巷５０號七樓之１","OBJECTID":320523},"geometry":{"x":177987.91000000015,"y":2548642.2599999998}},{"attributes":{"ID":320533,"DIS_CODE":0,"TOWNNAME":"新化區","LI":"協興里","LIN":"15鄰","STREET":"大新路","SECT":" ","MAREA":" ","LANE":"１１１巷","ALLEY":" ","HOUSE_NO":"５０號三樓之２","E_COORD97":177987.92999999999,"N_COORD97":2548642.2599999998,"ADDRESS":"大新路１１１巷５０號三樓之２","OBJECTID":320524},"geometry":{"x":177987.93000000156,"y":2548642.2599999998}},{"attributes":{"ID":320534,"DIS_CODE":0,"TOWNNAME":"新化區","LI":"協興里","LIN":"15鄰","STREET":"大新路","SECT":" ","MAREA":" ","LANE":"１１１巷","ALLEY":" ","HOUSE_NO":"５０號六樓之２","E_COORD97":177987.92999999999,"N_COORD97":2548642.2599999998,"ADDRESS":"大新路１１１巷５０號六樓之２","OBJECTID":320525},"geometry":{"x":177987.93000000156,"y":2548642.2599999998}},{"attributes":{"ID":320535,"DIS_CODE":0,"TOWNNAME":"新化區","LI":"協興里","LIN":"15鄰","STREET":"大新路","SECT":" ","MAREA":" ","LANE":"１１１巷","ALLEY":" ","HOUSE_NO":"５２號二樓之２","E_COORD97":177987.92999999999,"N_COORD97":2548642.2599999998,"ADDRESS":"大新路１１１巷５２號二樓之２","OBJECTID":320526},"geometry":{"x":177987.93000000156,"y":2548642.2599999998}},{"attributes":{"ID":320536,"DIS_CODE":0,"TOWNNAME":"安平區","LI":"育平里","LIN":"17鄰","STREET":"育平路","SECT":" ","MAREA":" ","LANE":" ","ALLEY":" ","HOUSE_NO":"２１２號七樓之３５","E_COORD97":164690.60999999999,"N_COORD97":2543415.9199999999,"ADDRESS":"育平路２１２號七樓之３５","OBJECTID":320527},"geometry":{"x":164690.61000000127,"y":2543415.9200000018}},{"attributes":{"ID":320537,"DIS_CODE":0,"TOWNNAME":"安平區","LI":"育平里","LIN":"17鄰","STREET":"育平路","SECT":" ","MAREA":" ","LANE":" ","ALLEY":" ","HOUSE_NO":"２１２號七樓之３７","E_COORD97":164690.60999999999,"N_COORD97":2543415.9199999999,"ADDRESS":"育平路２１２號七樓之３７","OBJECTID":320528},"geometry":{"x":164690.61000000127,"y":2543415.9200000018}},{"attributes":{"ID":320538,"DIS_CODE":0,"TOWNNAME":"安平區","LI":"育平里","LIN":"17鄰","STREET":"育平路","SECT":" ","MAREA":" ","LANE":" ","ALLEY":" ","HOUSE_NO":"２１２號九樓之２３","E_COORD97":164690.60999999999,"N_COORD97":2543415.9199999999,"ADDRESS":"育平路２１２號九樓之２３","OBJECTID":320529},"geometry":{"x":164690.61000000127,"y":2543415.9200000018}},{"attributes":{"ID":320539,"DIS_CODE":0,"TOWNNAME":"安平區","LI":"育平里","LIN":"17鄰","STREET":"育平路","SECT":" ","MAREA":" ","LANE":" ","ALLEY":" ","HOUSE_NO":"２１２號九樓之２７","E_COORD97":164690.60999999999,"N_COORD97":2543415.9199999999,"ADDRESS":"育平路２１２號九樓之２７","OBJECTID":320530},"geometry":{"x":164690.61000000127,"y":2543415.9200000018}},{"attributes":{"ID":320540,"DIS_CODE":0,"TOWNNAME":"安平區","LI":"育平里","LIN":"17鄰","STREET":"育平路","SECT":" ","MAREA":" ","LANE":" ","ALLEY":" ","HOUSE_NO":"２１２號九樓之２９","E_COORD97":164690.60999999999,"N_COORD97":2543415.9199999999,"ADDRESS":"育平路２１２號九樓之２９","OBJECTID":320531},"geometry":{"x":164690.61000000127,"y":2543415.9200000018}},{"attributes":{"ID":320541,"DIS_CODE":0,"TOWNNAME":"安平區","LI":"育平里","LIN":"17鄰","STREET":"育平路","SECT":" ","MAREA":" ","LANE":" ","ALLEY":" ","HOUSE_NO":"２１２號九樓之３１","E_COORD97":164690.60999999999,"N_COORD97":2543415.9199999999,"ADDRESS":"育平路２１２號九樓之３１","OBJECTID":320532},"geometry":{"x":164690.61000000127,"y":2543415.9200000018}},{"attributes":{"ID":320542,"DIS_CODE":0,"TOWNNAME":"安平區","LI":"育平里","LIN":"17鄰","STREET":"育平路","SECT":" ","MAREA":" ","LANE":" ","ALLEY":" ","HOUSE_NO":"２１２號九樓之３３","E_COORD97":164690.60999999999,"N_COORD97":2543415.9199999999,"ADDRESS":"育平路２１２號九樓之３３","OBJECTID":320533},"geometry":{"x":164690.61000000127,"y":2543415.9200000018}},{"attributes":{"ID":320543,"DIS_CODE":0,"TOWNNAME":"安平區","LI":"育平里","LIN":"17鄰","STREET":"育平路","SECT":" ","MAREA":" ","LANE":" ","ALLEY":" ","HOUSE_NO":"２１２號九樓之３５","E_COORD97":164690.60999999999,"N_COORD97":2543415.9199999999,"ADDRESS":"育平路２１２號九樓之３５","OBJECTID":320534},"geometry":{"x":164690.61000000127,"y":2543415.9200000018}},{"attributes":{"ID":320544,"DIS_CODE":0,"TOWNNAME":"東區","LI":"大同里","LIN":"1鄰","STREET":"東門路","SECT":"一段","MAREA":" ","LANE":" ","ALLEY":" ","HOUSE_NO":"５０號","E_COORD97":169262.17999999999,"N_COORD97":2543201.6099999999,"ADDRESS":"東門路一段５０號","OBJECTID":320535},"geometry":{"x":169262.1799999997,"y":2543201.6099999994}},{"attributes":{"ID":320545,"DIS_CODE":0,"TOWNNAME":"新化區","LI":"協興里","LIN":"15鄰","STREET":"大新路","SECT":" ","MAREA":" ","LANE":"１１１巷","ALLEY":" ","HOUSE_NO":"５２號六樓之１","E_COORD97":177987.91,"N_COORD97":2548642.2599999998,"ADDRESS":"大新路１１１巷５２號六樓之１","OBJECTID":320536},"geometry":{"x":177987.91000000015,"y":2548642.2599999998}},{"attributes":{"ID":320546,"DIS_CODE":0,"TOWNNAME":"東區","LI":"後甲里","LIN":"34鄰","STREET":" ","SECT":" ","MAREA":"精忠三村","LANE":" ","ALLEY":" ","HOUSE_NO":"１號之３７","E_COORD97":171747.60999999999,"N_COORD97":2543595.4399999999,"ADDRESS":"精忠三村１號之３７","OBJECTID":320537},"geometry":{"x":171747.61000000127,"y":2543595.4399999995}},{"attributes":{"ID":320547,"DIS_CODE":0,"TOWNNAME":"新化區","LI":"協興里","LIN":"15鄰","STREET":"大新路","SECT":" ","MAREA":" ","LANE":"１１１巷","ALLEY":" ","HOUSE_NO":"５２號三樓之２","E_COORD97":177987.92999999999,"N_COORD97":2548642.2599999998,"ADDRESS":"大新路１１１巷５２號三樓之２","OBJECTID":320538},"geometry":{"x":177987.93000000156,"y":2548642.2599999998}},{"attributes":{"ID":320548,"DIS_CODE":0,"TOWNNAME":"新化區","LI":"協興里","LIN":"15鄰","STREET":"大新路","SECT":" ","MAREA":" ","LANE":"１１１巷","ALLEY":" ","HOUSE_NO":"５２號四樓之４","E_COORD97":177987.91,"N_COORD97":2548642.2599999998,"ADDRESS":"大新路１１１巷５２號四樓之４","OBJECTID":320539},"geometry":{"x":177987.91000000015,"y":2548642.2599999998}},{"attributes":{"ID":320549,"DIS_CODE":0,"TOWNNAME":"新化區","LI":"協興里","LIN":"15鄰","STREET":"大新路","SECT":" ","MAREA":" ","LANE":"１１１巷","ALLEY":" ","HOUSE_NO":"４８號三樓之１","E_COORD97":177987.91,"N_COORD97":2548642.2599999998,"ADDRESS":"大新路１１１巷４８號三樓之１","OBJECTID":320540},"geometry":{"x":177987.91000000015,"y":2548642.2599999998}},{"attributes":{"ID":320550,"DIS_CODE":0,"TOWNNAME":"新化區","LI":"協興里","LIN":"15鄰","STREET":"大新路","SECT":" ","MAREA":" ","LANE":"１１１巷","ALLEY":" ","HOUSE_NO":"５０號六樓之１","E_COORD97":177987.91,"N_COORD97":2548642.2599999998,"ADDRESS":"大新路１１１巷５０號六樓之１","OBJECTID":320541},"geometry":{"x":177987.91000000015,"y":2548642.2599999998}},{"attributes":{"ID":320551,"DIS_CODE":0,"TOWNNAME":"新化區","LI":"協興里","LIN":"15鄰","STREET":"大新路","SECT":" ","MAREA":" ","LANE":"１１１巷","ALLEY":" ","HOUSE_NO":"５０號二樓之１","E_COORD97":177987.91,"N_COORD97":2548642.2599999998,"ADDRESS":"大新路１１１巷５０號二樓之１","OBJECTID":320542},"geometry":{"x":177987.91000000015,"y":2548642.2599999998}},{"attributes":{"ID":320552,"DIS_CODE":0,"TOWNNAME":"東區","LI":"後甲里","LIN":"34鄰","STREET":" ","SECT":" ","MAREA":"精忠三村","LANE":" ","ALLEY":" ","HOUSE_NO":"１號之５３","E_COORD97":171747.39999999999,"N_COORD97":2543654.71,"ADDRESS":"精忠三村１號之５３","OBJECTID":320543},"geometry":{"x":171747.4000000013,"y":2543654.7100000028}},{"attributes":{"ID":320553,"DIS_CODE":0,"TOWNNAME":"後壁區","LI":"長安里","LIN":" ","STREET":" ","SECT":" ","MAREA":"中寮","LANE":" ","ALLEY":" ","HOUSE_NO":"１４７之７號","E_COORD97":184153.56,"N_COORD97":2581429.2799999998,"ADDRESS":"中寮１４７之７號","OBJECTID":320544},"geometry":{"x":184153.55999999959,"y":2581429.2800000012}},{"attributes":{"ID":320554,"DIS_CODE":0,"TOWNNAME":"安定區","LI":"海寮里","LIN":"14鄰","STREET":" ","SECT":" ","MAREA":"海寮","LANE":" ","ALLEY":" ","HOUSE_NO":"１３４之４７號","E_COORD97":168757.60000000001,"N_COORD97":2555550.8700000001,"ADDRESS":"海寮１３４之４７號","OBJECTID":320545},"geometry":{"x":168757.59999999963,"y":2555550.8700000029}},{"attributes":{"ID":320555,"DIS_CODE":0,"TOWNNAME":"安定區","LI":"新吉里","LIN":"8鄰","STREET":" ","SECT":" ","MAREA":"新吉","LANE":" ","ALLEY":" ","HOUSE_NO":"７２之６號","E_COORD97":169164,"N_COORD97":2554057.02,"ADDRESS":"新吉７２之６號","OBJECTID":320546},"geometry":{"x":169164,"y":2554057.0200000014}},{"attributes":{"ID":320556,"DIS_CODE":0,"TOWNNAME":"安定區","LI":"新吉里","LIN":"8鄰","STREET":" ","SECT":" ","MAREA":"新吉","LANE":" ","ALLEY":" ","HOUSE_NO":"７２之５號","E_COORD97":169164.10000000001,"N_COORD97":2554052.1499999999,"ADDRESS":"新吉７２之５號","OBJECTID":320547},"geometry":{"x":169164.09999999963,"y":2554052.1499999985}},{"attributes":{"ID":320557,"DIS_CODE":0,"TOWNNAME":"將軍區","LI":"平沙里","LIN":"1鄰","STREET":" ","SECT":" ","MAREA":"平沙","LANE":" ","ALLEY":" ","HOUSE_NO":"１之１號","E_COORD97":157411.64999999999,"N_COORD97":2568621.1699999999,"ADDRESS":"平沙１之１號","OBJECTID":320548},"geometry":{"x":157411.6500000013,"y":2568621.1700000018}},{"attributes":{"ID":320558,"DIS_CODE":0,"TOWNNAME":"將軍區","LI":"平沙里","LIN":"1鄰","STREET":" ","SECT":" ","MAREA":"平沙","LANE":" ","ALLEY":" ","HOUSE_NO":"１之３號","E_COORD97":157467.79999999999,"N_COORD97":2568624.98,"ADDRESS":"平沙１之３號","OBJECTID":320549},"geometry":{"x":157467.80000000075,"y":2568624.9800000004}},{"attributes":{"ID":320559,"DIS_CODE":0,"TOWNNAME":"將軍區","LI":"平沙里","LIN":"4鄰","STREET":" ","SECT":" ","MAREA":"平沙","LANE":" ","ALLEY":" ","HOUSE_NO":"３１之６號","E_COORD97":157468.64999999999,"N_COORD97":2568532.0499999998,"ADDRESS":"平沙３１之６號","OBJECTID":320550},"geometry":{"x":157468.65000000224,"y":2568532.0500000007}},{"attributes":{"ID":320560,"DIS_CODE":0,"TOWNNAME":"將軍區","LI":"平沙里","LIN":"4鄰","STREET":" ","SECT":" ","MAREA":"平沙","LANE":" ","ALLEY":" ","HOUSE_NO":"３１號","E_COORD97":157418.85999999999,"N_COORD97":2568560.21,"ADDRESS":"平沙３１號","OBJECTID":320551},"geometry":{"x":157418.86000000034,"y":2568560.2100000046}},{"attributes":{"ID":320561,"DIS_CODE":0,"TOWNNAME":"新化區","LI":"協興里","LIN":"15鄰","STREET":"大新路","SECT":" ","MAREA":" ","LANE":"１１１巷","ALLEY":" ","HOUSE_NO":"４８號六樓之２","E_COORD97":177987.92999999999,"N_COORD97":2548642.2599999998,"ADDRESS":"大新路１１１巷４８號六樓之２","OBJECTID":320552},"geometry":{"x":177987.93000000156,"y":2548642.2599999998}},{"attributes":{"ID":320562,"DIS_CODE":0,"TOWNNAME":"安平區","LI":"育平里","LIN":"17鄰","STREET":"育平路","SECT":" ","MAREA":" ","LANE":" ","ALLEY":" ","HOUSE_NO":"２１２號九樓之３７","E_COORD97":164690.60999999999,"N_COORD97":2543415.9199999999,"ADDRESS":"育平路２１２號九樓之３７","OBJECTID":320553},"geometry":{"x":164690.61000000127,"y":2543415.9200000018}},{"attributes":{"ID":320563,"DIS_CODE":0,"TOWNNAME":"將軍區","LI":"平沙里","LIN":"4鄰","STREET":" ","SECT":" ","MAREA":"平沙","LANE":" ","ALLEY":" ","HOUSE_NO":"３４之１號","E_COORD97":157378.17999999999,"N_COORD97":2568547.0800000001,"ADDRESS":"平沙３４之１號","OBJECTID":320554},"geometry":{"x":157378.18000000063,"y":2568547.0800000019}},{"attributes":{"ID":320564,"DIS_CODE":0,"TOWNNAME":"將軍區","LI":"長沙里","LIN":"1鄰","STREET":" ","SECT":" ","MAREA":"長沙","LANE":" ","ALLEY":" ","HOUSE_NO":"２號","E_COORD97":157427.87869000001,"N_COORD97":2568670.70462,"ADDRESS":"長沙２號","OBJECTID":320555},"geometry":{"x":157427.87869000062,"y":2568670.704617003}},{"attributes":{"ID":320565,"DIS_CODE":0,"TOWNNAME":"安定區","LI":"海寮里","LIN":"13鄰","STREET":" ","SECT":" ","MAREA":"海寮","LANE":" ","ALLEY":" ","HOUSE_NO":"１２４之２號","E_COORD97":169113,"N_COORD97":2555224.8999999999,"ADDRESS":"海寮１２４之２號","OBJECTID":320556},"geometry":{"x":169113,"y":2555224.9000000022}},{"attributes":{"ID":320566,"DIS_CODE":0,"TOWNNAME":"安定區","LI":"海寮里","LIN":"13鄰","STREET":" ","SECT":" ","MAREA":"海寮","LANE":" ","ALLEY":" ","HOUSE_NO":"１２４之３號","E_COORD97":169118.07999999999,"N_COORD97":2555225.75,"ADDRESS":"海寮１２４之３號","OBJECTID":320557},"geometry":{"x":169118.08000000194,"y":2555225.7500000019}},{"attributes":{"ID":320567,"DIS_CODE":0,"TOWNNAME":"新市區","LI":"新市里","LIN":"4鄰","STREET":"華興街","SECT":" ","MAREA":" ","LANE":" ","ALLEY":" ","HOUSE_NO":"２６之１號","E_COORD97":177762.12959699999,"N_COORD97":2553009.6248300001,"ADDRESS":"華興街２６之１號","OBJECTID":320558},"geometry":{"x":177762.12959700078,"y":2553009.6248280015}},{"attributes":{"ID":320568,"DIS_CODE":0,"TOWNNAME":"安定區","LI":"港口里","LIN":"14鄰","STREET":" ","SECT":" ","MAREA":"港口","LANE":" ","ALLEY":" ","HOUSE_NO":"３３３之３３號","E_COORD97":170933.79000000001,"N_COORD97":2554763.6800000002,"ADDRESS":"港口３３３之３３號","OBJECTID":320559},"geometry":{"x":170933.7900000019,"y":2554763.6800000034}},{"attributes":{"ID":320569,"DIS_CODE":0,"TOWNNAME":"安定區","LI":"南安里","LIN":"1鄰","STREET":" ","SECT":" ","MAREA":"油車","LANE":" ","ALLEY":" ","HOUSE_NO":"４之２３號","E_COORD97":170909.85000000001,"N_COORD97":2555952.8199999998,"ADDRESS":"油車４之２３號","OBJECTID":320560},"geometry":{"x":170909.85000000056,"y":2555952.8200000003}},{"attributes":{"ID":320570,"DIS_CODE":0,"TOWNNAME":"將軍區","LI":"平沙里","LIN":"1鄰","STREET":" ","SECT":" ","MAREA":"平沙","LANE":" ","ALLEY":" ","HOUSE_NO":"２號","E_COORD97":157402.12,"N_COORD97":2568606.3500000001,"ADDRESS":"平沙２號","OBJECTID":320561},"geometry":{"x":157402.12000000011,"y":2568606.3500000015}},{"attributes":{"ID":320571,"DIS_CODE":0,"TOWNNAME":"歸仁區","LI":"崙頂里","LIN":"1鄰","STREET":"成功路","SECT":"一段","MAREA":" ","LANE":" ","ALLEY":" ","HOUSE_NO":"３３６號","E_COORD97":178228.66674300001,"N_COORD97":2539944.2518099998,"ADDRESS":"成功路一段３３６號","OBJECTID":320562},"geometry":{"x":178228.66674300004,"y":2539944.2518140003}},{"attributes":{"ID":320572,"DIS_CODE":0,"TOWNNAME":"安定區","LI":"港南里","LIN":"1鄰","STREET":" ","SECT":" ","MAREA":"港口","LANE":" ","ALLEY":" ","HOUSE_NO":"１之１０１號","E_COORD97":170667.92999999999,"N_COORD97":2554219.9100000001,"ADDRESS":"港口１之１０１號","OBJECTID":320563},"geometry":{"x":170667.9299999997,"y":2554219.9100000039}},{"attributes":{"ID":320573,"DIS_CODE":0,"TOWNNAME":"安定區","LI":"海寮里","LIN":"13鄰","STREET":" ","SECT":" ","MAREA":"海寮","LANE":" ","ALLEY":" ","HOUSE_NO":"１２４號","E_COORD97":169109.07000000001,"N_COORD97":2555224.71,"ADDRESS":"海寮１２４號","OBJECTID":320564},"geometry":{"x":169109.0700000003,"y":2555224.7100000009}},{"attributes":{"ID":320574,"DIS_CODE":0,"TOWNNAME":"歸仁區","LI":"大潭里","LIN":"2鄰","STREET":"大潭一街","SECT":" ","MAREA":" ","LANE":" ","ALLEY":" ","HOUSE_NO":"２９號","E_COORD97":175242.78094299999,"N_COORD97":2534694.65637,"ADDRESS":"大潭一街２９號","OBJECTID":320565},"geometry":{"x":175242.78094300069,"y":2534694.6563680004}},{"attributes":{"ID":320575,"DIS_CODE":0,"TOWNNAME":"山上區","LI":"明和里","LIN":"5鄰","STREET":" ","SECT":" ","MAREA":"明和","LANE":" ","ALLEY":" ","HOUSE_NO":"１３８號之１","E_COORD97":183163.14000000001,"N_COORD97":2556144.98,"ADDRESS":"明和１３８之１號","OBJECTID":320566},"geometry":{"x":183163.13999999966,"y":2556144.9800000004}},{"attributes":{"ID":320576,"DIS_CODE":0,"TOWNNAME":"新化區","LI":"協興里","LIN":"15鄰","STREET":"大新路","SECT":" ","MAREA":" ","LANE":"１１１巷","ALLEY":" ","HOUSE_NO":"５０號五樓之２","E_COORD97":177987.92999999999,"N_COORD97":2548642.2599999998,"ADDRESS":"大新路１１１巷５０號五樓之２","OBJECTID":320567},"geometry":{"x":177987.93000000156,"y":2548642.2599999998}},{"attributes":{"ID":320577,"DIS_CODE":0,"TOWNNAME":"新化區","LI":"協興里","LIN":"15鄰","STREET":"大新路","SECT":" ","MAREA":" ","LANE":"１１１巷","ALLEY":" ","HOUSE_NO":"５０號三樓之３","E_COORD97":177987.92999999999,"N_COORD97":2548642.2599999998,"ADDRESS":"大新路１１１巷５０號三樓之３","OBJECTID":320568},"geometry":{"x":177987.93000000156,"y":2548642.2599999998}},{"attributes":{"ID":320578,"DIS_CODE":0,"TOWNNAME":"永康區","LI":"建國里","LIN":"25鄰","STREET":" ","SECT":" ","MAREA":"慈光九村","LANE":" ","ALLEY":" ","HOUSE_NO":"２之３號","E_COORD97":172858.19,"N_COORD97":2544272.6800000002,"ADDRESS":"慈光九村２之３號","OBJECTID":320569},"geometry":{"x":172858.19000000041,"y":2544272.6799999997}},{"attributes":{"ID":320579,"DIS_CODE":0,"TOWNNAME":"歸仁區","LI":"大潭里","LIN":"2鄰","STREET":"大潭一街","SECT":" ","MAREA":" ","LANE":" ","ALLEY":" ","HOUSE_NO":"２１號","E_COORD97":175208.63391800001,"N_COORD97":2534712.05492,"ADDRESS":"大潭一街２１號","OBJECTID":320570},"geometry":{"x":175208.63391800039,"y":2534712.0549190007}},{"attributes":{"ID":320580,"DIS_CODE":0,"TOWNNAME":"新化區","LI":"協興里","LIN":"15鄰","STREET":"大新路","SECT":" ","MAREA":" ","LANE":"１１１巷","ALLEY":" ","HOUSE_NO":"４８號五樓之２","E_COORD97":177987.92999999999,"N_COORD97":2548642.2599999998,"ADDRESS":"大新路１１１巷４８號五樓之２","OBJECTID":320571},"geometry":{"x":177987.93000000156,"y":2548642.2599999998}},{"attributes":{"ID":320581,"DIS_CODE":0,"TOWNNAME":"新化區","LI":"協興里","LIN":"15鄰","STREET":"大新路","SECT":" ","MAREA":" ","LANE":"１１１巷","ALLEY":" ","HOUSE_NO":"５０號五樓之１","E_COORD97":177987.91,"N_COORD97":2548642.2599999998,"ADDRESS":"大新路１１１巷５０號五樓之１","OBJECTID":320572},"geometry":{"x":177987.91000000015,"y":2548642.2599999998}},{"attributes":{"ID":320582,"DIS_CODE":0,"TOWNNAME":"將軍區","LI":"西華里","LIN":"13鄰","STREET":" ","SECT":" ","MAREA":"西華","LANE":" ","ALLEY":" ","HOUSE_NO":"１４６之１號","E_COORD97":163389.92999999999,"N_COORD97":2566208.1499999999,"ADDRESS":"西華１４６之１號","OBJECTID":320573},"geometry":{"x":163389.9299999997,"y":2566208.1500000022}},{"attributes":{"ID":320583,"DIS_CODE":0,"TOWNNAME":"將軍區","LI":"西華里","LIN":"13鄰","STREET":" ","SECT":" ","MAREA":"西華","LANE":" ","ALLEY":" ","HOUSE_NO":"１４９號","E_COORD97":163430.07999999999,"N_COORD97":2566171.6400000001,"ADDRESS":"西華１４９號","OBJECTID":320574},"geometry":{"x":163430.08000000007,"y":2566171.6400000006}},{"attributes":{"ID":320584,"DIS_CODE":0,"TOWNNAME":"將軍區","LI":"西華里","LIN":"13鄰","STREET":" ","SECT":" ","MAREA":"西華","LANE":" ","ALLEY":" ","HOUSE_NO":"１４８號","E_COORD97":163420.34,"N_COORD97":2566190.3700000001,"ADDRESS":"西華１４８號","OBJECTID":320575},"geometry":{"x":163420.34000000171,"y":2566190.3700000029}},{"attributes":{"ID":320585,"DIS_CODE":0,"TOWNNAME":"新化區","LI":"協興里","LIN":"15鄰","STREET":"大新路","SECT":" ","MAREA":" ","LANE":"１１１巷","ALLEY":" ","HOUSE_NO":"４８號四樓之２","E_COORD97":177987.92999999999,"N_COORD97":2548642.2599999998,"ADDRESS":"大新路１１１巷４８號四樓之２","OBJECTID":320576},"geometry":{"x":177987.93000000156,"y":2548642.2599999998}},{"attributes":{"ID":320586,"DIS_CODE":0,"TOWNNAME":"新化區","LI":"協興里","LIN":"15鄰","STREET":"大新路","SECT":" ","MAREA":" ","LANE":"１１１巷","ALLEY":" ","HOUSE_NO":"４８號七樓之２","E_COORD97":177987.92999999999,"N_COORD97":2548642.2599999998,"ADDRESS":"大新路１１１巷４８號七樓之２","OBJECTID":320577},"geometry":{"x":177987.93000000156,"y":2548642.2599999998}},{"attributes":{"ID":320587,"DIS_CODE":0,"TOWNNAME":"安平區","LI":"育平里","LIN":"17鄰","STREET":"育平路","SECT":" ","MAREA":" ","LANE":" ","ALLEY":" ","HOUSE_NO":"２１２號八樓之２３","E_COORD97":164690.60999999999,"N_COORD97":2543415.9199999999,"ADDRESS":"育平路２１２號八樓之２３","OBJECTID":320578},"geometry":{"x":164690.61000000127,"y":2543415.9200000018}},{"attributes":{"ID":320588,"DIS_CODE":0,"TOWNNAME":"安平區","LI":"育平里","LIN":"17鄰","STREET":"育平路","SECT":" ","MAREA":" ","LANE":" ","ALLEY":" ","HOUSE_NO":"２１２號八樓之２５","E_COORD97":164690.60999999999,"N_COORD97":2543415.9199999999,"ADDRESS":"育平路２１２號八樓之２５","OBJECTID":320579},"geometry":{"x":164690.61000000127,"y":2543415.9200000018}},{"attributes":{"ID":320589,"DIS_CODE":0,"TOWNNAME":"仁德區","LI":"太子里","LIN":"17鄰","STREET":"太興路","SECT":" ","MAREA":" ","LANE":" ","ALLEY":" ","HOUSE_NO":"１２５號","E_COORD97":174084.729036,"N_COORD97":2543584.2906499999,"ADDRESS":"太興路１２５號","OBJECTID":320580},"geometry":{"x":174084.72903599963,"y":2543584.2906450015}},{"attributes":{"ID":320590,"DIS_CODE":0,"TOWNNAME":"將軍區","LI":"長沙里","LIN":"4鄰","STREET":" ","SECT":" ","MAREA":"長沙","LANE":" ","ALLEY":" ","HOUSE_NO":"３２之１號","E_COORD97":157313.948255,"N_COORD97":2568601.1765100001,"ADDRESS":"長沙３２之１號","OBJECTID":320581},"geometry":{"x":157313.94825500064,"y":2568601.1765100043}},{"attributes":{"ID":320591,"DIS_CODE":0,"TOWNNAME":"新化區","LI":"協興里","LIN":"15鄰","STREET":"大新路","SECT":" ","MAREA":" ","LANE":"１１１巷","ALLEY":" ","HOUSE_NO":"５２號二樓之４","E_COORD97":177987.91,"N_COORD97":2548642.2599999998,"ADDRESS":"大新路１１１巷５２號二樓之４","OBJECTID":320582},"geometry":{"x":177987.91000000015,"y":2548642.2599999998}},{"attributes":{"ID":320592,"DIS_CODE":0,"TOWNNAME":"將軍區","LI":"長沙里","LIN":"5鄰","STREET":" ","SECT":" ","MAREA":"長沙","LANE":" ","ALLEY":" ","HOUSE_NO":"３４號","E_COORD97":157312.60739300001,"N_COORD97":2568576.0896700001,"ADDRESS":"長沙３４號","OBJECTID":320583},"geometry":{"x":157312.60739300027,"y":2568576.089668002}},{"attributes":{"ID":320593,"DIS_CODE":0,"TOWNNAME":"新化區","LI":"協興里","LIN":"15鄰","STREET":"大新路","SECT":" ","MAREA":" ","LANE":"１１１巷","ALLEY":" ","HOUSE_NO":"５２號七樓之４","E_COORD97":177987.91,"N_COORD97":2548642.2599999998,"ADDRESS":"大新路１１１巷５２號七樓之４","OBJECTID":320584},"geometry":{"x":177987.91000000015,"y":2548642.2599999998}},{"attributes":{"ID":320594,"DIS_CODE":0,"TOWNNAME":"新化區","LI":"協興里","LIN":"15鄰","STREET":"大新路","SECT":" ","MAREA":" ","LANE":"１１１巷","ALLEY":" ","HOUSE_NO":"５２號五樓之２","E_COORD97":177987.92999999999,"N_COORD97":2548642.2599999998,"ADDRESS":"大新路１１１巷５２號五樓之２","OBJECTID":320585},"geometry":{"x":177987.93000000156,"y":2548642.2599999998}},{"attributes":{"ID":320595,"DIS_CODE":0,"TOWNNAME":"新化區","LI":"協興里","LIN":"15鄰","STREET":"大新路","SECT":" ","MAREA":" ","LANE":"１１１巷","ALLEY":" ","HOUSE_NO":"５２號四樓之１","E_COORD97":177987.91,"N_COORD97":2548642.2599999998,"ADDRESS":"大新路１１１巷５２號四樓之１","OBJECTID":320586},"geometry":{"x":177987.91000000015,"y":2548642.2599999998}},{"attributes":{"ID":320596,"DIS_CODE":0,"TOWNNAME":"將軍區","LI":"三吉里","LIN":"4鄰","STREET":" ","SECT":" ","MAREA":"三吉","LANE":" ","ALLEY":" ","HOUSE_NO":"２５號","E_COORD97":161277.17999999999,"N_COORD97":2567467.98,"ADDRESS":"三吉２５號","OBJECTID":320587},"geometry":{"x":161277.18000000063,"y":2567467.9800000004}},{"attributes":{"ID":320597,"DIS_CODE":0,"TOWNNAME":"將軍區","LI":"平沙里","LIN":"13鄰","STREET":" ","SECT":" ","MAREA":"平沙","LANE":" ","ALLEY":" ","HOUSE_NO":"１１５之１號","E_COORD97":157249.59,"N_COORD97":2568384.4199999999,"ADDRESS":"平沙１１５之１號","OBJECTID":320588},"geometry":{"x":157249.58999999985,"y":2568384.4199999981}},{"attributes":{"ID":320598,"DIS_CODE":0,"TOWNNAME":"新化區","LI":"協興里","LIN":"15鄰","STREET":"大新路","SECT":" ","MAREA":" ","LANE":"１１１巷","ALLEY":" ","HOUSE_NO":"５２號七樓之３","E_COORD97":177987.92999999999,"N_COORD97":2548642.2599999998,"ADDRESS":"大新路１１１巷５２號七樓之３","OBJECTID":320589},"geometry":{"x":177987.93000000156,"y":2548642.2599999998}},{"attributes":{"ID":320599,"DIS_CODE":0,"TOWNNAME":"將軍區","LI":"三吉里","LIN":"5鄰","STREET":" ","SECT":" ","MAREA":"三吉","LANE":" ","ALLEY":" ","HOUSE_NO":"３５之１號","E_COORD97":161404.42999999999,"N_COORD97":2567501.3100000001,"ADDRESS":"三吉３５之１號","OBJECTID":320590},"geometry":{"x":161404.43000000063,"y":2567501.3100000042}},{"attributes":{"ID":320600,"DIS_CODE":0,"TOWNNAME":"新化區","LI":"協興里","LIN":"15鄰","STREET":"大新路","SECT":" ","MAREA":" ","LANE":"１１１巷","ALLEY":" ","HOUSE_NO":"５２號三樓之４","E_COORD97":177987.91,"N_COORD97":2548642.2599999998,"ADDRESS":"大新路１１１巷５２號三樓之４","OBJECTID":320591},"geometry":{"x":177987.91000000015,"y":2548642.2599999998}},{"attributes":{"ID":320601,"DIS_CODE":0,"TOWNNAME":"將軍區","LI":"三吉里","LIN":"7鄰","STREET":" ","SECT":" ","MAREA":"三吉","LANE":" ","ALLEY":" ","HOUSE_NO":"５４號","E_COORD97":161112.53,"N_COORD97":2566914.6800000002,"ADDRESS":"三吉５４號","OBJECTID":320592},"geometry":{"x":161112.53000000119,"y":2566914.6800000034}},{"attributes":{"ID":320602,"DIS_CODE":0,"TOWNNAME":"新化區","LI":"協興里","LIN":"15鄰","STREET":"大新路","SECT":" ","MAREA":" ","LANE":"１１１巷","ALLEY":" ","HOUSE_NO":"５２號三樓之３","E_COORD97":177987.92999999999,"N_COORD97":2548642.2599999998,"ADDRESS":"大新路１１１巷５２號三樓之３","OBJECTID":320593},"geometry":{"x":177987.93000000156,"y":2548642.2599999998}},{"attributes":{"ID":320603,"DIS_CODE":0,"TOWNNAME":"安平區","LI":"育平里","LIN":"17鄰","STREET":"育平路","SECT":" ","MAREA":" ","LANE":" ","ALLEY":" ","HOUSE_NO":"２１２號八樓之２７","E_COORD97":164690.60999999999,"N_COORD97":2543415.9199999999,"ADDRESS":"育平路２１２號八樓之２７","OBJECTID":320594},"geometry":{"x":164690.61000000127,"y":2543415.9200000018}},{"attributes":{"ID":320604,"DIS_CODE":0,"TOWNNAME":"佳里區","LI":"六安里","LIN":"13鄰","STREET":" ","SECT":" ","MAREA":"六安","LANE":" ","ALLEY":" ","HOUSE_NO":"１０３號之１","E_COORD97":166126.63,"N_COORD97":2563857.0800000001,"ADDRESS":"六安１０３號之１","OBJECTID":320595},"geometry":{"x":166126.62999999989,"y":2563857.0800000001}},{"attributes":{"ID":320605,"DIS_CODE":0,"TOWNNAME":"東區","LI":"後甲里","LIN":"34鄰","STREET":" ","SECT":" ","MAREA":" ","LANE":" ","ALLEY":" ","HOUSE_NO":"１號之１２","E_COORD97":171748.48000000001,"N_COORD97":2543521.6299999999,"ADDRESS":"１號之１２","OBJECTID":320596},"geometry":{"x":171748.48000000231,"y":2543521.6300000008}},{"attributes":{"ID":320606,"DIS_CODE":0,"TOWNNAME":"將軍區","LI":"平沙里","LIN":"6鄰","STREET":" ","SECT":" ","MAREA":"平沙","LANE":" ","ALLEY":" ","HOUSE_NO":"５１之３號","E_COORD97":157301.270969,"N_COORD97":2568516.0630100002,"ADDRESS":"平沙５１之３號","OBJECTID":320597},"geometry":{"x":157301.27096900064,"y":2568516.0630110018}},{"attributes":{"ID":320607,"DIS_CODE":0,"TOWNNAME":"將軍區","LI":"平沙里","LIN":"8鄰","STREET":" ","SECT":" ","MAREA":"平沙","LANE":" ","ALLEY":" ","HOUSE_NO":"６８號","E_COORD97":157227.10745099999,"N_COORD97":2568513.5230100001,"ADDRESS":"平沙６８號","OBJECTID":320598},"geometry":{"x":157227.10745100118,"y":2568513.5230130032}},{"attributes":{"ID":320608,"DIS_CODE":0,"TOWNNAME":"將軍區","LI":"平沙里","LIN":"1鄰","STREET":" ","SECT":" ","MAREA":"平沙","LANE":" ","ALLEY":" ","HOUSE_NO":"６號","E_COORD97":157374.586904,"N_COORD97":2568604.9629600001,"ADDRESS":"平沙６號","OBJECTID":320599},"geometry":{"x":157374.58690400049,"y":2568604.9629630018}},{"attributes":{"ID":320609,"DIS_CODE":0,"TOWNNAME":"東區","LI":"後甲里","LIN":"34鄰","STREET":" ","SECT":" ","MAREA":"精忠三村","LANE":" ","ALLEY":" ","HOUSE_NO":"１號之１９","E_COORD97":171748.85999999999,"N_COORD97":2543540.1499999999,"ADDRESS":"精忠三村１號之１９","OBJECTID":320600},"geometry":{"x":171748.86000000034,"y":2543540.1500000022}}]}