{"displayFieldName":"TOWNNAME","fieldAliases":{"ID":"ID","DIS_CODE":"DIS_CODE","TOWNNAME":"TOWNNAME","LI":"LI","LIN":"LIN","STREET":"STREET","SECT":"SECT","MAREA":"MAREA","LANE":"LANE","ALLEY":"ALLEY","HOUSE_NO":"HOUSE_NO","E_COORD97":"E_COORD97","N_COORD97":"N_COORD97","ADDRESS":"ADDRESS","OBJECTID":"OBJECTID"},"geometryType":"esriGeometryPoint","spatialReference":{"wkid":102443,"latestWkid":3826},"fields":[{"name":"ID","type":"esriFieldTypeDouble","alias":"ID"},{"name":"DIS_CODE","type":"esriFieldTypeInteger","alias":"DIS_CODE"},{"name":"TOWNNAME","type":"esriFieldTypeString","alias":"TOWNNAME","length":8},{"name":"LI","type":"esriFieldTypeString","alias":"LI","length":8},{"name":"LIN","type":"esriFieldTypeString","alias":"LIN","length":12},{"name":"STREET","type":"esriFieldTypeString","alias":"STREET","length":20},{"name":"SECT","type":"esriFieldTypeString","alias":"SECT","length":8},{"name":"MAREA","type":"esriFieldTypeString","alias":"MAREA","length":12},{"name":"LANE","type":"esriFieldTypeString","alias":"LANE","length":10},{"name":"ALLEY","type":"esriFieldTypeString","alias":"ALLEY","length":10},{"name":"HOUSE_NO","type":"esriFieldTypeString","alias":"HOUSE_NO","length":20},{"name":"E_COORD97","type":"esriFieldTypeDouble","alias":"E_COORD97"},{"name":"N_COORD97","type":"esriFieldTypeDouble","alias":"N_COORD97"},{"name":"ADDRESS","type":"esriFieldTypeString","alias":"ADDRESS","length":50},{"name":"OBJECTID","type":"esriFieldTypeOID","alias":"OBJECTID"}],"features":[{"attributes":{"ID":152802,"DIS_CODE":0,"TOWNNAME":"官田區","LI":"湖山里","LIN":"5鄰","STREET":" ","SECT":" ","MAREA":"烏山頭","LANE":" ","ALLEY":" ","HOUSE_NO":"２８號之４","E_COORD97":183225.29999999999,"N_COORD97":2567573.6499999999,"ADDRESS":"烏山頭２８號之４","OBJECTID":152801},"geometry":{"x":183225.30000000168,"y":2567573.6500000022}},{"attributes":{"ID":152803,"DIS_CODE":0,"TOWNNAME":"六甲區","LI":"七甲里","LIN":"2鄰","STREET":"七甲街","SECT":" ","MAREA":" ","LANE":"９３巷","ALLEY":"２９弄","HOUSE_NO":"５號","E_COORD97":182947.29999999999,"N_COORD97":2568867.7400000002,"ADDRESS":"七甲街９３巷２９弄５號","OBJECTID":152802},"geometry":{"x":182947.30000000168,"y":2568867.7400000039}},{"attributes":{"ID":152804,"DIS_CODE":0,"TOWNNAME":"六甲區","LI":"七甲里","LIN":"2鄰","STREET":"七甲街","SECT":" ","MAREA":" ","LANE":"９３巷","ALLEY":"２９弄","HOUSE_NO":"７號","E_COORD97":182951.67999999999,"N_COORD97":2568867.0800000001,"ADDRESS":"七甲街９３巷２９弄７號","OBJECTID":152803},"geometry":{"x":182951.68000000063,"y":2568867.0800000001}},{"attributes":{"ID":152805,"DIS_CODE":0,"TOWNNAME":"六甲區","LI":"七甲里","LIN":"2鄰","STREET":"七甲街","SECT":" ","MAREA":" ","LANE":"９３巷","ALLEY":"２９弄","HOUSE_NO":"９號","E_COORD97":182956.09,"N_COORD97":2568866.5499999998,"ADDRESS":"七甲街９３巷２９弄９號","OBJECTID":152804},"geometry":{"x":182956.09000000078,"y":2568866.5500000026}},{"attributes":{"ID":152806,"DIS_CODE":0,"TOWNNAME":"六甲區","LI":"七甲里","LIN":"2鄰","STREET":"七甲街","SECT":" ","MAREA":" ","LANE":"９３巷","ALLEY":"４６弄","HOUSE_NO":"３３號","E_COORD97":182806.10000000001,"N_COORD97":2568919.3399999999,"ADDRESS":"七甲街９３巷４６弄３３號","OBJECTID":152805},"geometry":{"x":182806.10000000149,"y":2568919.3399999999}},{"attributes":{"ID":152807,"DIS_CODE":0,"TOWNNAME":"東區","LI":"仁和里","LIN":"12鄰","STREET":"仁和路","SECT":" ","MAREA":" ","LANE":"１３９巷","ALLEY":"５１弄","HOUSE_NO":"２０號之１","E_COORD97":171761.54000000001,"N_COORD97":2541212.6600000001,"ADDRESS":"仁和路１３９巷５１弄２０號之１","OBJECTID":152806},"geometry":{"x":171761.54000000097,"y":2541212.6600000039}},{"attributes":{"ID":152808,"DIS_CODE":0,"TOWNNAME":"東區","LI":"仁和里","LIN":"12鄰","STREET":"仁和路","SECT":" ","MAREA":" ","LANE":"１３９巷","ALLEY":"５１弄","HOUSE_NO":"２０號之１０","E_COORD97":171798.14000000001,"N_COORD97":2541216.2999999998,"ADDRESS":"仁和路１３９巷５１弄２０號之１０","OBJECTID":152807},"geometry":{"x":171798.1400000006,"y":2541216.3000000026}},{"attributes":{"ID":152809,"DIS_CODE":0,"TOWNNAME":"東區","LI":"仁和里","LIN":"12鄰","STREET":"仁和路","SECT":" ","MAREA":" ","LANE":"１３９巷","ALLEY":"５１弄","HOUSE_NO":"２０號之１１","E_COORD97":171802.28,"N_COORD97":2541215.0899999999,"ADDRESS":"仁和路１３９巷５１弄２０號之１１","OBJECTID":152808},"geometry":{"x":171802.28000000119,"y":2541215.0899999999}},{"attributes":{"ID":152810,"DIS_CODE":0,"TOWNNAME":"東區","LI":"仁和里","LIN":"12鄰","STREET":"仁和路","SECT":" ","MAREA":" ","LANE":"１３９巷","ALLEY":"５１弄","HOUSE_NO":"２０號之１２","E_COORD97":171806.66,"N_COORD97":2541217.0299999998,"ADDRESS":"仁和路１３９巷５１弄２０號之１２","OBJECTID":152809},"geometry":{"x":171806.66000000108,"y":2541217.0300000012}},{"attributes":{"ID":152811,"DIS_CODE":0,"TOWNNAME":"北區","LI":"重興里","LIN":"2鄰","STREET":"東豐路","SECT":" ","MAREA":" ","LANE":"３０５巷","ALLEY":"７４弄","HOUSE_NO":"３號","E_COORD97":170465.48000000001,"N_COORD97":2544991.6400000001,"ADDRESS":"東豐路３０５巷７４弄３號","OBJECTID":152810},"geometry":{"x":170465.48000000138,"y":2544991.6400000025}},{"attributes":{"ID":152812,"DIS_CODE":0,"TOWNNAME":"東區","LI":"仁和里","LIN":"12鄰","STREET":"仁和路","SECT":" ","MAREA":" ","LANE":"１３９巷","ALLEY":"５１弄","HOUSE_NO":"２０號之１３","E_COORD97":171811.39999999999,"N_COORD97":2541215.8199999998,"ADDRESS":"仁和路１３９巷５１弄２０號之１３","OBJECTID":152811},"geometry":{"x":171811.40000000037,"y":2541215.8200000022}},{"attributes":{"ID":152813,"DIS_CODE":0,"TOWNNAME":"東區","LI":"仁和里","LIN":"12鄰","STREET":"仁和路","SECT":" ","MAREA":" ","LANE":"１３９巷","ALLEY":"５１弄","HOUSE_NO":"２０號之１５","E_COORD97":171816.38,"N_COORD97":2541218.3700000001,"ADDRESS":"仁和路１３９巷５１弄２０號之１５","OBJECTID":152812},"geometry":{"x":171816.38000000175,"y":2541218.370000001}},{"attributes":{"ID":152814,"DIS_CODE":0,"TOWNNAME":"南區","LI":"田寮里","LIN":"2鄰","STREET":"新興路","SECT":" ","MAREA":" ","LANE":"２６７巷","ALLEY":"２７弄","HOUSE_NO":"１０號之１","E_COORD97":167263.48999999999,"N_COORD97":2541764.1499999999,"ADDRESS":"新興路２６７巷２７弄１０號之１","OBJECTID":152813},"geometry":{"x":167263.49000000022,"y":2541764.1500000004}},{"attributes":{"ID":152815,"DIS_CODE":0,"TOWNNAME":"南區","LI":"田寮里","LIN":"2鄰","STREET":"新興路","SECT":" ","MAREA":" ","LANE":"２６７巷","ALLEY":"２７弄","HOUSE_NO":"１０號之２","E_COORD97":167270.17000000001,"N_COORD97":2541762.4100000001,"ADDRESS":"新興路２６７巷２７弄１０號之２","OBJECTID":152814},"geometry":{"x":167270.17000000086,"y":2541762.4100000001}},{"attributes":{"ID":152816,"DIS_CODE":0,"TOWNNAME":"東區","LI":"仁和里","LIN":"12鄰","STREET":"仁和路","SECT":" ","MAREA":" ","LANE":"１３９巷","ALLEY":"５１弄","HOUSE_NO":"２０號之７","E_COORD97":171784.28,"N_COORD97":2541214.8399999999,"ADDRESS":"仁和路１３９巷５１弄２０號之７","OBJECTID":152815},"geometry":{"x":171784.28000000119,"y":2541214.8400000017}},{"attributes":{"ID":152817,"DIS_CODE":0,"TOWNNAME":"東區","LI":"仁和里","LIN":"12鄰","STREET":"仁和路","SECT":" ","MAREA":" ","LANE":"１３９巷","ALLEY":"５１弄","HOUSE_NO":"２０號之８","E_COORD97":171788.29999999999,"N_COORD97":2541217.3999999999,"ADDRESS":"仁和路１３９巷５１弄２０號之８","OBJECTID":152816},"geometry":{"x":171788.30000000075,"y":2541217.4000000004}},{"attributes":{"ID":152818,"DIS_CODE":0,"TOWNNAME":"東區","LI":"仁和里","LIN":"12鄰","STREET":"仁和路","SECT":" ","MAREA":" ","LANE":"１３９巷","ALLEY":"５１弄","HOUSE_NO":"２０號之９","E_COORD97":171793.51999999999,"N_COORD97":2541214.48,"ADDRESS":"仁和路１３９巷５１弄２０號之９","OBJECTID":152817},"geometry":{"x":171793.52000000048,"y":2541214.4800000042}},{"attributes":{"ID":152819,"DIS_CODE":0,"TOWNNAME":"北區","LI":"六甲里","LIN":"2鄰","STREET":"公園路","SECT":" ","MAREA":" ","LANE":"４５１巷","ALLEY":"３８弄","HOUSE_NO":"１０號","E_COORD97":168907.85000000001,"N_COORD97":2545567.9300000002,"ADDRESS":"公園路４５１巷３８弄１０號","OBJECTID":152818},"geometry":{"x":168907.85000000056,"y":2545567.9300000016}},{"attributes":{"ID":152820,"DIS_CODE":0,"TOWNNAME":"北區","LI":"六甲里","LIN":"2鄰","STREET":"公園路","SECT":" ","MAREA":" ","LANE":"４５１巷","ALLEY":"３８弄","HOUSE_NO":"１２號","E_COORD97":168909.10999999999,"N_COORD97":2545572.25,"ADDRESS":"公園路４５１巷３８弄１２號","OBJECTID":152819},"geometry":{"x":168909.11000000034,"y":2545572.2500000019}},{"attributes":{"ID":152821,"DIS_CODE":0,"TOWNNAME":"北區","LI":"六甲里","LIN":"2鄰","STREET":"公園路","SECT":" ","MAREA":" ","LANE":"４５１巷","ALLEY":"３８弄","HOUSE_NO":"１６號","E_COORD97":168907.41,"N_COORD97":2545579.48,"ADDRESS":"公園路４５１巷３８弄１６號","OBJECTID":152820},"geometry":{"x":168907.41000000201,"y":2545579.4800000004}},{"attributes":{"ID":152822,"DIS_CODE":0,"TOWNNAME":"北區","LI":"六甲里","LIN":"2鄰","STREET":"公園路","SECT":" ","MAREA":" ","LANE":"４５１巷","ALLEY":"３８弄","HOUSE_NO":"１８號","E_COORD97":168908.64999999999,"N_COORD97":2545584.1299999999,"ADDRESS":"公園路４５１巷３８弄１８號","OBJECTID":152821},"geometry":{"x":168908.65000000037,"y":2545584.129999999}},{"attributes":{"ID":152823,"DIS_CODE":0,"TOWNNAME":"北區","LI":"六甲里","LIN":"2鄰","STREET":"公園路","SECT":" ","MAREA":" ","LANE":"４５１巷","ALLEY":"３８弄","HOUSE_NO":"２號","E_COORD97":168900.14000000001,"N_COORD97":2545547.9100000001,"ADDRESS":"公園路４５１巷３８弄２號","OBJECTID":152822},"geometry":{"x":168900.13999999873,"y":2545547.910000002}},{"attributes":{"ID":152824,"DIS_CODE":0,"TOWNNAME":"北區","LI":"六甲里","LIN":"2鄰","STREET":"公園路","SECT":" ","MAREA":" ","LANE":"４５１巷","ALLEY":"３８弄","HOUSE_NO":"４號","E_COORD97":168901.72,"N_COORD97":2545552.0600000001,"ADDRESS":"公園路４５１巷３８弄４號","OBJECTID":152823},"geometry":{"x":168901.72000000067,"y":2545552.0600000005}},{"attributes":{"ID":152825,"DIS_CODE":0,"TOWNNAME":"北區","LI":"六甲里","LIN":"2鄰","STREET":"公園路","SECT":" ","MAREA":" ","LANE":"４５１巷","ALLEY":"３８弄","HOUSE_NO":"６號","E_COORD97":168902.31,"N_COORD97":2545557.3999999999,"ADDRESS":"公園路４５１巷３８弄６號","OBJECTID":152824},"geometry":{"x":168902.30999999866,"y":2545557.4000000004}},{"attributes":{"ID":152826,"DIS_CODE":0,"TOWNNAME":"北區","LI":"六甲里","LIN":"2鄰","STREET":"公園路","SECT":" ","MAREA":" ","LANE":"４５１巷","ALLEY":"３８弄","HOUSE_NO":"８號","E_COORD97":168902.91,"N_COORD97":2545560.5600000001,"ADDRESS":"公園路４５１巷３８弄８號","OBJECTID":152825},"geometry":{"x":168902.91000000108,"y":2545560.5600000024}},{"attributes":{"ID":152827,"DIS_CODE":0,"TOWNNAME":"北區","LI":"六甲里","LIN":"2鄰","STREET":"公園路","SECT":" ","MAREA":" ","LANE":"４５１巷","ALLEY":"３８弄","HOUSE_NO":"８號之１","E_COORD97":168903.89999999999,"N_COORD97":2545564.3700000001,"ADDRESS":"公園路４５１巷３８弄８號之１","OBJECTID":152826},"geometry":{"x":168903.90000000037,"y":2545564.370000001}},{"attributes":{"ID":152828,"DIS_CODE":0,"TOWNNAME":"北區","LI":"六甲里","LIN":"2鄰","STREET":"公園路","SECT":" ","MAREA":" ","LANE":"４５１巷","ALLEY":"３８弄","HOUSE_NO":"１之１號","E_COORD97":168884.51000000001,"N_COORD97":2545538.21,"ADDRESS":"公園路４５１巷３８弄１之１號","OBJECTID":152827},"geometry":{"x":168884.51000000071,"y":2545538.2100000009}},{"attributes":{"ID":152829,"DIS_CODE":0,"TOWNNAME":"北區","LI":"長德里","LIN":"2鄰","STREET":"公園南路","SECT":" ","MAREA":" ","LANE":"１５２巷","ALLEY":"１８弄","HOUSE_NO":"１９號","E_COORD97":168665.01999999999,"N_COORD97":2544771.4199999999,"ADDRESS":"公園南路１５２巷１８弄１９號","OBJECTID":152828},"geometry":{"x":168665.01999999955,"y":2544771.4200000018}},{"attributes":{"ID":152830,"DIS_CODE":0,"TOWNNAME":"北區","LI":"重興里","LIN":"2鄰","STREET":"東豐路","SECT":" ","MAREA":" ","LANE":"３０５巷","ALLEY":"５２弄","HOUSE_NO":"１號","E_COORD97":170461.82000000001,"N_COORD97":2544941.5800000001,"ADDRESS":"東豐路３０５巷５２弄１號","OBJECTID":152829},"geometry":{"x":170461.8200000003,"y":2544941.5800000001}},{"attributes":{"ID":152831,"DIS_CODE":0,"TOWNNAME":"北區","LI":"重興里","LIN":"2鄰","STREET":"東豐路","SECT":" ","MAREA":" ","LANE":"３０５巷","ALLEY":"５２弄","HOUSE_NO":"２號","E_COORD97":170458.37,"N_COORD97":2544921.6699999999,"ADDRESS":"東豐路３０５巷５２弄２號","OBJECTID":152830},"geometry":{"x":170458.37000000011,"y":2544921.6700000037}},{"attributes":{"ID":152832,"DIS_CODE":0,"TOWNNAME":"北區","LI":"重興里","LIN":"2鄰","STREET":"東豐路","SECT":" ","MAREA":" ","LANE":"３０５巷","ALLEY":"５２弄","HOUSE_NO":"３號","E_COORD97":170465.57999999999,"N_COORD97":2544940.54,"ADDRESS":"東豐路３０５巷５２弄３號","OBJECTID":152831},"geometry":{"x":170465.58000000007,"y":2544940.5399999991}},{"attributes":{"ID":152833,"DIS_CODE":0,"TOWNNAME":"北區","LI":"重興里","LIN":"2鄰","STREET":"東豐路","SECT":" ","MAREA":" ","LANE":"３０５巷","ALLEY":"５２弄","HOUSE_NO":"４號","E_COORD97":170462.34,"N_COORD97":2544921.04,"ADDRESS":"東豐路３０５巷５２弄４號","OBJECTID":152832},"geometry":{"x":170462.34000000078,"y":2544921.0399999991}},{"attributes":{"ID":152834,"DIS_CODE":0,"TOWNNAME":"北區","LI":"重興里","LIN":"2鄰","STREET":"東豐路","SECT":" ","MAREA":" ","LANE":"３０５巷","ALLEY":"５２弄","HOUSE_NO":"５號","E_COORD97":170469.87,"N_COORD97":2544940.3300000001,"ADDRESS":"東豐路３０５巷５２弄５號","OBJECTID":152833},"geometry":{"x":170469.87000000011,"y":2544940.3300000001}},{"attributes":{"ID":152835,"DIS_CODE":0,"TOWNNAME":"北區","LI":"重興里","LIN":"2鄰","STREET":"東豐路","SECT":" ","MAREA":" ","LANE":"３０５巷","ALLEY":"５２弄","HOUSE_NO":"６號","E_COORD97":170466.32000000001,"N_COORD97":2544919.8999999999,"ADDRESS":"東豐路３０５巷５２弄６號","OBJECTID":152834},"geometry":{"x":170466.32000000123,"y":2544919.9000000004}},{"attributes":{"ID":152836,"DIS_CODE":0,"TOWNNAME":"北區","LI":"重興里","LIN":"2鄰","STREET":"東豐路","SECT":" ","MAREA":" ","LANE":"３０５巷","ALLEY":"５２弄","HOUSE_NO":"７號","E_COORD97":170473.84,"N_COORD97":2544938.9700000002,"ADDRESS":"東豐路３０５巷５２弄７號","OBJECTID":152835},"geometry":{"x":170473.83999999892,"y":2544938.9700000007}},{"attributes":{"ID":152837,"DIS_CODE":0,"TOWNNAME":"後壁區","LI":"嘉民里","LIN":"5鄰","STREET":" ","SECT":" ","MAREA":"上茄苳","LANE":" ","ALLEY":" ","HOUSE_NO":"１６６號","E_COORD97":186483.72,"N_COORD97":2587212.6899999999,"ADDRESS":"上茄苳１６６號","OBJECTID":152836},"geometry":{"x":186483.71999999974,"y":2587212.6900000032}},{"attributes":{"ID":152838,"DIS_CODE":0,"TOWNNAME":"北區","LI":"重興里","LIN":"2鄰","STREET":"東豐路","SECT":" ","MAREA":" ","LANE":"３０５巷","ALLEY":"５２弄","HOUSE_NO":"８號","E_COORD97":170470.81,"N_COORD97":2544918.3300000001,"ADDRESS":"東豐路３０５巷５２弄８號","OBJECTID":152837},"geometry":{"x":170470.81000000052,"y":2544918.3300000019}},{"attributes":{"ID":152839,"DIS_CODE":0,"TOWNNAME":"北區","LI":"重興里","LIN":"2鄰","STREET":"東豐路","SECT":" ","MAREA":" ","LANE":"３０５巷","ALLEY":"７４弄","HOUSE_NO":"１０號","E_COORD97":170481.04999999999,"N_COORD97":2544972.6699999999,"ADDRESS":"東豐路３０５巷７４弄１０號","OBJECTID":152838},"geometry":{"x":170481.05000000168,"y":2544972.6700000018}},{"attributes":{"ID":152840,"DIS_CODE":0,"TOWNNAME":"北區","LI":"重興里","LIN":"2鄰","STREET":"東豐路","SECT":" ","MAREA":" ","LANE":"３０５巷","ALLEY":"７４弄","HOUSE_NO":"１１號","E_COORD97":170484.01999999999,"N_COORD97":2544990.3199999998,"ADDRESS":"東豐路３０５巷７４弄１１號","OBJECTID":152839},"geometry":{"x":170484.01999999955,"y":2544990.3200000022}},{"attributes":{"ID":152841,"DIS_CODE":0,"TOWNNAME":"北區","LI":"重興里","LIN":"2鄰","STREET":"東豐路","SECT":" ","MAREA":" ","LANE":"３０５巷","ALLEY":"７４弄","HOUSE_NO":"２號","E_COORD97":170457.32999999999,"N_COORD97":2544978.3300000001,"ADDRESS":"東豐路３０５巷７４弄２號","OBJECTID":152840},"geometry":{"x":170457.33000000194,"y":2544978.3300000038}},{"attributes":{"ID":152842,"DIS_CODE":0,"TOWNNAME":"北區","LI":"重興里","LIN":"2鄰","STREET":"東豐路","SECT":" ","MAREA":" ","LANE":"３０５巷","ALLEY":"７４弄","HOUSE_NO":"４號","E_COORD97":170467.28,"N_COORD97":2544972.4199999999,"ADDRESS":"東豐路３０５巷７４弄４號","OBJECTID":152841},"geometry":{"x":170467.28000000026,"y":2544972.4199999999}},{"attributes":{"ID":152843,"DIS_CODE":0,"TOWNNAME":"北區","LI":"重興里","LIN":"2鄰","STREET":"東豐路","SECT":" ","MAREA":" ","LANE":"３０５巷","ALLEY":"７４弄","HOUSE_NO":"６號","E_COORD97":170471.57000000001,"N_COORD97":2544972.4199999999,"ADDRESS":"東豐路３０５巷７４弄６號","OBJECTID":152842},"geometry":{"x":170471.57000000123,"y":2544972.4199999999}},{"attributes":{"ID":152844,"DIS_CODE":0,"TOWNNAME":"北區","LI":"重興里","LIN":"2鄰","STREET":"東豐路","SECT":" ","MAREA":" ","LANE":"３０５巷","ALLEY":"７４弄","HOUSE_NO":"７號","E_COORD97":170472.59,"N_COORD97":2544990.6499999999,"ADDRESS":"東豐路３０５巷７４弄７號","OBJECTID":152843},"geometry":{"x":170472.59000000078,"y":2544990.6500000022}},{"attributes":{"ID":152845,"DIS_CODE":0,"TOWNNAME":"北區","LI":"重興里","LIN":"2鄰","STREET":"東豐路","SECT":" ","MAREA":" ","LANE":"３０５巷","ALLEY":"７４弄","HOUSE_NO":"８號","E_COORD97":170476,"N_COORD97":2544972.5600000001,"ADDRESS":"東豐路３０５巷７４弄８號","OBJECTID":152844},"geometry":{"x":170476,"y":2544972.5600000005}},{"attributes":{"ID":152846,"DIS_CODE":0,"TOWNNAME":"北區","LI":"重興里","LIN":"2鄰","STREET":"東豐路","SECT":" ","MAREA":" ","LANE":"３０５巷","ALLEY":"７４弄","HOUSE_NO":"９號","E_COORD97":170478.70000000001,"N_COORD97":2544990.0899999999,"ADDRESS":"東豐路３０５巷７４弄９號","OBJECTID":152845},"geometry":{"x":170478.70000000205,"y":2544990.0900000017}},{"attributes":{"ID":152847,"DIS_CODE":0,"TOWNNAME":"東區","LI":"自強里","LIN":"5鄰","STREET":"東門路","SECT":"三段","MAREA":" ","LANE":"３７巷","ALLEY":"１０弄","HOUSE_NO":"１０號","E_COORD97":171260.03,"N_COORD97":2542336.98,"ADDRESS":"東門路三段３７巷１０弄１０號","OBJECTID":152846},"geometry":{"x":171260.03000000119,"y":2542336.9800000023}},{"attributes":{"ID":152848,"DIS_CODE":0,"TOWNNAME":"東區","LI":"自強里","LIN":"5鄰","STREET":"東門路","SECT":"三段","MAREA":" ","LANE":"３７巷","ALLEY":"１０弄","HOUSE_NO":"１１號","E_COORD97":171267.14999999999,"N_COORD97":2542356.9199999999,"ADDRESS":"東門路三段３７巷１０弄１１號","OBJECTID":152847},"geometry":{"x":171267.15000000037,"y":2542356.9200000018}},{"attributes":{"ID":152849,"DIS_CODE":0,"TOWNNAME":"東區","LI":"自強里","LIN":"5鄰","STREET":"東門路","SECT":"三段","MAREA":" ","LANE":"３７巷","ALLEY":"１０弄","HOUSE_NO":"１２號","E_COORD97":171263.85000000001,"N_COORD97":2542336.98,"ADDRESS":"東門路三段３７巷１０弄１２號","OBJECTID":152848},"geometry":{"x":171263.85000000056,"y":2542336.9800000023}},{"attributes":{"ID":152850,"DIS_CODE":0,"TOWNNAME":"永康區","LI":"五王里","LIN":"2鄰","STREET":"成功路","SECT":" ","MAREA":" ","LANE":"１７２巷","ALLEY":"８弄","HOUSE_NO":"１０號四樓之３","E_COORD97":171493.95000000001,"N_COORD97":2545595.2000000002,"ADDRESS":"成功路１７２巷８弄１０號四樓之３","OBJECTID":152849},"geometry":{"x":171493.94999999925,"y":2545595.200000003}},{"attributes":{"ID":152851,"DIS_CODE":0,"TOWNNAME":"永康區","LI":"五王里","LIN":"2鄰","STREET":"成功路","SECT":" ","MAREA":" ","LANE":"１７２巷","ALLEY":"８弄","HOUSE_NO":"１０號四樓之２","E_COORD97":171493.98000000001,"N_COORD97":2545595.2000000002,"ADDRESS":"成功路１７２巷８弄１０號四樓之２","OBJECTID":152850},"geometry":{"x":171493.97999999952,"y":2545595.200000003}},{"attributes":{"ID":152852,"DIS_CODE":0,"TOWNNAME":"東區","LI":"自強里","LIN":"11鄰","STREET":"東門路","SECT":"三段","MAREA":" ","LANE":"３７巷","ALLEY":"７５弄","HOUSE_NO":"５號","E_COORD97":171206.54999999999,"N_COORD97":2542398.3799999999,"ADDRESS":"東門路三段３７巷７５弄５號","OBJECTID":152851},"geometry":{"x":171206.55000000168,"y":2542398.379999999}},{"attributes":{"ID":152853,"DIS_CODE":0,"TOWNNAME":"東區","LI":"自強里","LIN":"11鄰","STREET":"東門路","SECT":"三段","MAREA":" ","LANE":"３７巷","ALLEY":"７５弄","HOUSE_NO":"６號","E_COORD97":171210.19,"N_COORD97":2542424.2000000002,"ADDRESS":"東門路三段３７巷７５弄６號","OBJECTID":152852},"geometry":{"x":171210.19000000134,"y":2542424.1999999993}},{"attributes":{"ID":152854,"DIS_CODE":0,"TOWNNAME":"東區","LI":"自強里","LIN":"11鄰","STREET":"東門路","SECT":"三段","MAREA":" ","LANE":"３７巷","ALLEY":"７５弄","HOUSE_NO":"７號","E_COORD97":171200.07000000001,"N_COORD97":2542398.0600000001,"ADDRESS":"東門路三段３７巷７５弄７號","OBJECTID":152853},"geometry":{"x":171200.07000000216,"y":2542398.0600000024}},{"attributes":{"ID":152855,"DIS_CODE":0,"TOWNNAME":"東區","LI":"自強里","LIN":"11鄰","STREET":"東門路","SECT":"三段","MAREA":" ","LANE":"３７巷","ALLEY":"７５弄","HOUSE_NO":"９號","E_COORD97":171199.12,"N_COORD97":2542405.48,"ADDRESS":"東門路三段３７巷７５弄９號","OBJECTID":152854},"geometry":{"x":171199.12000000011,"y":2542405.4800000023}},{"attributes":{"ID":152856,"DIS_CODE":0,"TOWNNAME":"東區","LI":"自強里","LIN":"11鄰","STREET":"東門路","SECT":"三段","MAREA":" ","LANE":"３７巷","ALLEY":"７７弄","HOUSE_NO":"１號","E_COORD97":171221.10000000001,"N_COORD97":2542445.3599999999,"ADDRESS":"東門路三段３７巷７７弄１號","OBJECTID":152855},"geometry":{"x":171221.0999999987,"y":2542445.3600000013}},{"attributes":{"ID":152857,"DIS_CODE":0,"TOWNNAME":"東區","LI":"自強里","LIN":"11鄰","STREET":"東門路","SECT":"三段","MAREA":" ","LANE":"３７巷","ALLEY":"７７弄","HOUSE_NO":"３號","E_COORD97":171221.73000000001,"N_COORD97":2542440.6299999999,"ADDRESS":"東門路三段３７巷７７弄３號","OBJECTID":152856},"geometry":{"x":171221.73000000138,"y":2542440.6300000008}},{"attributes":{"ID":152858,"DIS_CODE":0,"TOWNNAME":"東區","LI":"自強里","LIN":"11鄰","STREET":"東門路","SECT":"三段","MAREA":" ","LANE":"３７巷","ALLEY":"７７弄","HOUSE_NO":"５號","E_COORD97":171222.51999999999,"N_COORD97":2542436.3599999999,"ADDRESS":"東門路三段３７巷７７弄５號","OBJECTID":152857},"geometry":{"x":171222.51999999955,"y":2542436.3599999994}},{"attributes":{"ID":152859,"DIS_CODE":0,"TOWNNAME":"東區","LI":"自強里","LIN":"26鄰","STREET":"中華東路","SECT":"二段","MAREA":" ","LANE":"２０３巷","ALLEY":"１７弄","HOUSE_NO":"１０號","E_COORD97":171332.12,"N_COORD97":2542664.0499999998,"ADDRESS":"中華東路二段２０３巷１７弄１０號","OBJECTID":152858},"geometry":{"x":171332.12000000104,"y":2542664.0500000007}},{"attributes":{"ID":152860,"DIS_CODE":0,"TOWNNAME":"東區","LI":"自強里","LIN":"26鄰","STREET":"中華東路","SECT":"二段","MAREA":" ","LANE":"２０３巷","ALLEY":"１７弄","HOUSE_NO":"１１號","E_COORD97":171350.07999999999,"N_COORD97":2542677.6899999999,"ADDRESS":"中華東路二段２０３巷１７弄１１號","OBJECTID":152859},"geometry":{"x":171350.08000000007,"y":2542677.6900000013}},{"attributes":{"ID":152861,"DIS_CODE":0,"TOWNNAME":"東區","LI":"自強里","LIN":"26鄰","STREET":"中華東路","SECT":"二段","MAREA":" ","LANE":"２０３巷","ALLEY":"１７弄","HOUSE_NO":"１２號","E_COORD97":171336.38,"N_COORD97":2542664.8199999998,"ADDRESS":"中華東路二段２０３巷１７弄１２號","OBJECTID":152860},"geometry":{"x":171336.37999999989,"y":2542664.8200000003}},{"attributes":{"ID":152862,"DIS_CODE":0,"TOWNNAME":"東區","LI":"自強里","LIN":"26鄰","STREET":"中華東路","SECT":"二段","MAREA":" ","LANE":"２０３巷","ALLEY":"１７弄","HOUSE_NO":"１３號","E_COORD97":171358.01999999999,"N_COORD97":2542679.4199999999,"ADDRESS":"中華東路二段２０３巷１７弄１３號","OBJECTID":152861},"geometry":{"x":171358.02000000048,"y":2542679.4200000018}},{"attributes":{"ID":152863,"DIS_CODE":0,"TOWNNAME":"東區","LI":"自強里","LIN":"26鄰","STREET":"中華東路","SECT":"二段","MAREA":" ","LANE":"２０３巷","ALLEY":"１７弄","HOUSE_NO":"１４號","E_COORD97":171341.03,"N_COORD97":2542664.8199999998,"ADDRESS":"中華東路二段２０３巷１７弄１４號","OBJECTID":152862},"geometry":{"x":171341.03000000212,"y":2542664.8200000003}},{"attributes":{"ID":152864,"DIS_CODE":0,"TOWNNAME":"東區","LI":"自強里","LIN":"26鄰","STREET":"中華東路","SECT":"二段","MAREA":" ","LANE":"２０３巷","ALLEY":"１７弄","HOUSE_NO":"１５號","E_COORD97":171364.60000000001,"N_COORD97":2542681.1600000001,"ADDRESS":"中華東路二段２０３巷１７弄１５號","OBJECTID":152863},"geometry":{"x":171364.59999999963,"y":2542681.160000002}},{"attributes":{"ID":152865,"DIS_CODE":0,"TOWNNAME":"永康區","LI":"五王里","LIN":"2鄰","STREET":"成功路","SECT":" ","MAREA":" ","LANE":"１７２巷","ALLEY":"８弄","HOUSE_NO":"１０號三樓之１","E_COORD97":171493.85000000001,"N_COORD97":2545595.2000000002,"ADDRESS":"成功路１７２巷８弄１０號三樓之１","OBJECTID":152864},"geometry":{"x":171493.84999999963,"y":2545595.200000003}},{"attributes":{"ID":152866,"DIS_CODE":0,"TOWNNAME":"後壁區","LI":"嘉民里","LIN":"5鄰","STREET":" ","SECT":" ","MAREA":"上茄苳","LANE":" ","ALLEY":" ","HOUSE_NO":"１６７號","E_COORD97":186513.88,"N_COORD97":2587222.27,"ADDRESS":"上茄苳１６７號","OBJECTID":152865},"geometry":{"x":186513.88000000082,"y":2587222.2700000033}},{"attributes":{"ID":152867,"DIS_CODE":0,"TOWNNAME":"東區","LI":"自強里","LIN":"26鄰","STREET":"中華東路","SECT":"二段","MAREA":" ","LANE":"２０３巷","ALLEY":"１７弄","HOUSE_NO":"３４號","E_COORD97":171380.12,"N_COORD97":2542673.3300000001,"ADDRESS":"中華東路二段２０３巷１７弄３４號","OBJECTID":152866},"geometry":{"x":171380.12000000011,"y":2542673.3300000019}},{"attributes":{"ID":152868,"DIS_CODE":0,"TOWNNAME":"東區","LI":"自強里","LIN":"26鄰","STREET":"中華東路","SECT":"二段","MAREA":" ","LANE":"２０３巷","ALLEY":"１７弄","HOUSE_NO":"３６號","E_COORD97":171384.38,"N_COORD97":2542674.8700000001,"ADDRESS":"中華東路二段２０３巷１７弄３６號","OBJECTID":152867},"geometry":{"x":171384.38000000082,"y":2542674.8700000029}},{"attributes":{"ID":152869,"DIS_CODE":0,"TOWNNAME":"東區","LI":"自強里","LIN":"27鄰","STREET":"中華東路","SECT":"二段","MAREA":" ","LANE":"１３３巷","ALLEY":"４弄","HOUSE_NO":"１號","E_COORD97":171417.37,"N_COORD97":2542835.77,"ADDRESS":"中華東路二段１３３巷４弄１號","OBJECTID":152868},"geometry":{"x":171417.37000000011,"y":2542835.7700000014}},{"attributes":{"ID":152870,"DIS_CODE":0,"TOWNNAME":"東區","LI":"自強里","LIN":"27鄰","STREET":"中華東路","SECT":"二段","MAREA":" ","LANE":"１３３巷","ALLEY":"４弄","HOUSE_NO":"２號","E_COORD97":171410.64000000001,"N_COORD97":2542831.9399999999,"ADDRESS":"中華東路二段１３３巷４弄２號","OBJECTID":152869},"geometry":{"x":171410.63999999966,"y":2542831.9400000013}},{"attributes":{"ID":152871,"DIS_CODE":0,"TOWNNAME":"東區","LI":"自強里","LIN":"27鄰","STREET":"中華東路","SECT":"二段","MAREA":" ","LANE":"１３３巷","ALLEY":"４弄","HOUSE_NO":"３號","E_COORD97":171396.48000000001,"N_COORD97":2542832.6400000001,"ADDRESS":"中華東路二段１３３巷４弄３號","OBJECTID":152870},"geometry":{"x":171396.48000000138,"y":2542832.6400000006}},{"attributes":{"ID":152872,"DIS_CODE":0,"TOWNNAME":"東區","LI":"自強里","LIN":"25鄰","STREET":"中華東路","SECT":"二段","MAREA":" ","LANE":"１３３巷","ALLEY":"７０弄","HOUSE_NO":"１０號","E_COORD97":171533.23000000001,"N_COORD97":2542755.21,"ADDRESS":"中華東路二段１３３巷７０弄１０號","OBJECTID":152871},"geometry":{"x":171533.23000000138,"y":2542755.2100000009}},{"attributes":{"ID":152873,"DIS_CODE":0,"TOWNNAME":"東區","LI":"自強里","LIN":"25鄰","STREET":"中華東路","SECT":"二段","MAREA":" ","LANE":"１３３巷","ALLEY":"７０弄","HOUSE_NO":"１１號","E_COORD97":171522.39000000001,"N_COORD97":2542740.8999999999,"ADDRESS":"中華東路二段１３３巷７０弄１１號","OBJECTID":152872},"geometry":{"x":171522.38999999966,"y":2542740.9000000022}},{"attributes":{"ID":152874,"DIS_CODE":0,"TOWNNAME":"東區","LI":"自強里","LIN":"25鄰","STREET":"中華東路","SECT":"二段","MAREA":" ","LANE":"１３３巷","ALLEY":"７０弄","HOUSE_NO":"１２號","E_COORD97":171529.73999999999,"N_COORD97":2542755.0099999998,"ADDRESS":"中華東路二段１３３巷７０弄１２號","OBJECTID":152873},"geometry":{"x":171529.74000000115,"y":2542755.0099999998}},{"attributes":{"ID":152875,"DIS_CODE":0,"TOWNNAME":"東區","LI":"自強里","LIN":"25鄰","STREET":"中華東路","SECT":"二段","MAREA":" ","LANE":"１３３巷","ALLEY":"７０弄","HOUSE_NO":"１３號","E_COORD97":171518.32999999999,"N_COORD97":2542740.1299999999,"ADDRESS":"中華東路二段１３３巷７０弄１３號","OBJECTID":152874},"geometry":{"x":171518.32999999914,"y":2542740.129999999}},{"attributes":{"ID":152876,"DIS_CODE":0,"TOWNNAME":"東區","LI":"自強里","LIN":"25鄰","STREET":"中華東路","SECT":"二段","MAREA":" ","LANE":"１３３巷","ALLEY":"７０弄","HOUSE_NO":"１４號","E_COORD97":171524.91,"N_COORD97":2542754.6299999999,"ADDRESS":"中華東路二段１３３巷７０弄１４號","OBJECTID":152875},"geometry":{"x":171524.91000000201,"y":2542754.6300000008}},{"attributes":{"ID":152877,"DIS_CODE":0,"TOWNNAME":"東區","LI":"自強里","LIN":"25鄰","STREET":"中華東路","SECT":"二段","MAREA":" ","LANE":"１３３巷","ALLEY":"７０弄","HOUSE_NO":"１５號","E_COORD97":171513.48999999999,"N_COORD97":2542739.9399999999,"ADDRESS":"中華東路二段１３３巷７０弄１５號","OBJECTID":152876},"geometry":{"x":171513.49000000022,"y":2542739.9400000013}},{"attributes":{"ID":152878,"DIS_CODE":0,"TOWNNAME":"東區","LI":"自強里","LIN":"25鄰","STREET":"中華東路","SECT":"二段","MAREA":" ","LANE":"１３３巷","ALLEY":"７０弄","HOUSE_NO":"１７號","E_COORD97":171508.64999999999,"N_COORD97":2542739.1600000001,"ADDRESS":"中華東路二段１３３巷７０弄１７號","OBJECTID":152877},"geometry":{"x":171508.6500000013,"y":2542739.160000002}},{"attributes":{"ID":152879,"DIS_CODE":0,"TOWNNAME":"東區","LI":"自強里","LIN":"25鄰","STREET":"中華東路","SECT":"二段","MAREA":" ","LANE":"１３３巷","ALLEY":"７０弄","HOUSE_NO":"１８號","E_COORD97":171515.81,"N_COORD97":2542753.6600000001,"ADDRESS":"中華東路二段１３３巷７０弄１８號","OBJECTID":152878},"geometry":{"x":171515.80999999959,"y":2542753.6600000001}},{"attributes":{"ID":152880,"DIS_CODE":0,"TOWNNAME":"東區","LI":"自強里","LIN":"25鄰","STREET":"中華東路","SECT":"二段","MAREA":" ","LANE":"１３３巷","ALLEY":"７０弄","HOUSE_NO":"１９號","E_COORD97":171504.39000000001,"N_COORD97":2542738.9700000002,"ADDRESS":"中華東路二段１３３巷７０弄１９號","OBJECTID":152879},"geometry":{"x":171504.3900000006,"y":2542738.9700000007}},{"attributes":{"ID":152881,"DIS_CODE":0,"TOWNNAME":"官田區","LI":"湖山里","LIN":"5鄰","STREET":" ","SECT":" ","MAREA":"烏山頭","LANE":" ","ALLEY":" ","HOUSE_NO":"２８號之５","E_COORD97":183210.87,"N_COORD97":2567627.7200000002,"ADDRESS":"烏山頭２８號之５","OBJECTID":152880},"geometry":{"x":183210.87000000011,"y":2567627.7200000025}},{"attributes":{"ID":152882,"DIS_CODE":0,"TOWNNAME":"官田區","LI":"湖山里","LIN":"5鄰","STREET":" ","SECT":" ","MAREA":"烏山頭","LANE":" ","ALLEY":" ","HOUSE_NO":"２８號之６","E_COORD97":183231.76999999999,"N_COORD97":2567656.5600000001,"ADDRESS":"烏山頭２８號之６","OBJECTID":152881},"geometry":{"x":183231.76999999955,"y":2567656.5600000024}},{"attributes":{"ID":152883,"DIS_CODE":0,"TOWNNAME":"官田區","LI":"湖山里","LIN":"5鄰","STREET":" ","SECT":" ","MAREA":"烏山頭","LANE":" ","ALLEY":" ","HOUSE_NO":"２８號之８","E_COORD97":183230.67999999999,"N_COORD97":2567632.1600000001,"ADDRESS":"烏山頭２８號之８","OBJECTID":152882},"geometry":{"x":183230.6799999997,"y":2567632.160000002}},{"attributes":{"ID":152884,"DIS_CODE":0,"TOWNNAME":"官田區","LI":"湖山里","LIN":"5鄰","STREET":" ","SECT":" ","MAREA":"烏山頭","LANE":" ","ALLEY":" ","HOUSE_NO":"２８號之９","E_COORD97":183233.51999999999,"N_COORD97":2567621.5600000001,"ADDRESS":"烏山頭２８號之９","OBJECTID":152883},"geometry":{"x":183233.51999999955,"y":2567621.5600000042}},{"attributes":{"ID":152885,"DIS_CODE":0,"TOWNNAME":"官田區","LI":"湖山里","LIN":"5鄰","STREET":" ","SECT":" ","MAREA":"烏山頭","LANE":" ","ALLEY":" ","HOUSE_NO":"２８號","E_COORD97":183314.51999999999,"N_COORD97":2567623.3300000001,"ADDRESS":"烏山頭２８號","OBJECTID":152884},"geometry":{"x":183314.51999999955,"y":2567623.3300000019}},{"attributes":{"ID":152886,"DIS_CODE":0,"TOWNNAME":"白河區","LI":"昇安里","LIN":"5鄰","STREET":" ","SECT":" ","MAREA":"三間厝","LANE":" ","ALLEY":" ","HOUSE_NO":"５５之２６號","E_COORD97":192003.45999999999,"N_COORD97":2584923.1899999999,"ADDRESS":"三間厝５５之２６號","OBJECTID":152885},"geometry":{"x":192003.45999999996,"y":2584923.1899999995}},{"attributes":{"ID":152887,"DIS_CODE":0,"TOWNNAME":"白河區","LI":"昇安里","LIN":"5鄰","STREET":" ","SECT":" ","MAREA":"三間厝","LANE":" ","ALLEY":" ","HOUSE_NO":"５５之２號","E_COORD97":191794.04000000001,"N_COORD97":2584817.1699999999,"ADDRESS":"三間厝５５之２號","OBJECTID":152886},"geometry":{"x":191794.04000000004,"y":2584817.1700000018}},{"attributes":{"ID":152888,"DIS_CODE":0,"TOWNNAME":"白河區","LI":"昇安里","LIN":"5鄰","STREET":" ","SECT":" ","MAREA":"三間厝","LANE":" ","ALLEY":" ","HOUSE_NO":"５５之３號","E_COORD97":191803.70000000001,"N_COORD97":2584793.6099999999,"ADDRESS":"三間厝５５之３號","OBJECTID":152887},"geometry":{"x":191803.70000000019,"y":2584793.6100000013}},{"attributes":{"ID":152889,"DIS_CODE":0,"TOWNNAME":"白河區","LI":"昇安里","LIN":"5鄰","STREET":" ","SECT":" ","MAREA":"三間厝","LANE":" ","ALLEY":" ","HOUSE_NO":"５５之６號","E_COORD97":191797.25,"N_COORD97":2584871.27,"ADDRESS":"三間厝５５之６號","OBJECTID":152888},"geometry":{"x":191797.25000000093,"y":2584871.2699999996}},{"attributes":{"ID":152890,"DIS_CODE":0,"TOWNNAME":"白河區","LI":"昇安里","LIN":"5鄰","STREET":" ","SECT":" ","MAREA":"三間厝","LANE":" ","ALLEY":" ","HOUSE_NO":"５５之８號","E_COORD97":191829.78,"N_COORD97":2584827.21,"ADDRESS":"三間厝５５之８號","OBJECTID":152889},"geometry":{"x":191829.78000000119,"y":2584827.2100000046}},{"attributes":{"ID":152891,"DIS_CODE":0,"TOWNNAME":"白河區","LI":"昇安里","LIN":"5鄰","STREET":" ","SECT":" ","MAREA":"三間厝","LANE":" ","ALLEY":" ","HOUSE_NO":"５６之１２號","E_COORD97":191839.92999999999,"N_COORD97":2584848.2200000002,"ADDRESS":"三間厝５６之１２號","OBJECTID":152890},"geometry":{"x":191839.93000000063,"y":2584848.2200000025}},{"attributes":{"ID":152892,"DIS_CODE":0,"TOWNNAME":"白河區","LI":"昇安里","LIN":"5鄰","STREET":" ","SECT":" ","MAREA":"三間厝","LANE":" ","ALLEY":" ","HOUSE_NO":"５６號","E_COORD97":191825.07999999999,"N_COORD97":2584762.6499999999,"ADDRESS":"三間厝５６號","OBJECTID":152891},"geometry":{"x":191825.08000000194,"y":2584762.6500000041}},{"attributes":{"ID":152893,"DIS_CODE":0,"TOWNNAME":"白河區","LI":"昇安里","LIN":"5鄰","STREET":" ","SECT":" ","MAREA":"三間厝","LANE":" ","ALLEY":" ","HOUSE_NO":"５７號","E_COORD97":191832.32999999999,"N_COORD97":2584744.8100000001,"ADDRESS":"三間厝５７號","OBJECTID":152892},"geometry":{"x":191832.33000000101,"y":2584744.8100000024}},{"attributes":{"ID":152894,"DIS_CODE":0,"TOWNNAME":"白河區","LI":"昇安里","LIN":"5鄰","STREET":" ","SECT":" ","MAREA":"三間厝","LANE":" ","ALLEY":" ","HOUSE_NO":"５８號","E_COORD97":191861.94,"N_COORD97":2584721.9100000001,"ADDRESS":"三間厝５８號","OBJECTID":152893},"geometry":{"x":191861.93999999948,"y":2584721.9100000001}},{"attributes":{"ID":152895,"DIS_CODE":0,"TOWNNAME":"白河區","LI":"昇安里","LIN":"5鄰","STREET":" ","SECT":" ","MAREA":"三間厝","LANE":" ","ALLEY":" ","HOUSE_NO":"６１號","E_COORD97":191886.98000000001,"N_COORD97":2584724.1400000001,"ADDRESS":"三間厝６１號","OBJECTID":152894},"geometry":{"x":191886.98000000045,"y":2584724.1400000006}},{"attributes":{"ID":152896,"DIS_CODE":0,"TOWNNAME":"白河區","LI":"昇安里","LIN":"5鄰","STREET":" ","SECT":" ","MAREA":"三間厝","LANE":" ","ALLEY":" ","HOUSE_NO":"６２號","E_COORD97":191903.78,"N_COORD97":2584736.04,"ADDRESS":"三間厝６２號","OBJECTID":152895},"geometry":{"x":191903.78000000212,"y":2584736.040000001}},{"attributes":{"ID":152897,"DIS_CODE":0,"TOWNNAME":"白河區","LI":"昇安里","LIN":"5鄰","STREET":" ","SECT":" ","MAREA":"三間厝","LANE":" ","ALLEY":" ","HOUSE_NO":"６３號","E_COORD97":191907.26000000001,"N_COORD97":2584752.3100000001,"ADDRESS":"三間厝６３號","OBJECTID":152896},"geometry":{"x":191907.26000000071,"y":2584752.3100000024}},{"attributes":{"ID":152898,"DIS_CODE":0,"TOWNNAME":"白河區","LI":"昇安里","LIN":"5鄰","STREET":" ","SECT":" ","MAREA":"三間厝","LANE":" ","ALLEY":" ","HOUSE_NO":"６４號","E_COORD97":191909.14000000001,"N_COORD97":2584773.7599999998,"ADDRESS":"三間厝６４號","OBJECTID":152897},"geometry":{"x":191909.14000000153,"y":2584773.7599999998}},{"attributes":{"ID":152899,"DIS_CODE":0,"TOWNNAME":"白河區","LI":"大竹里","LIN":"5鄰","STREET":" ","SECT":" ","MAREA":"大排竹","LANE":" ","ALLEY":" ","HOUSE_NO":"７０之１號","E_COORD97":189792.26000000001,"N_COORD97":2585374.8399999999,"ADDRESS":"大排竹７０之１號","OBJECTID":152898},"geometry":{"x":189792.25999999978,"y":2585374.8400000017}},{"attributes":{"ID":152900,"DIS_CODE":0,"TOWNNAME":"白河區","LI":"大竹里","LIN":"5鄰","STREET":" ","SECT":" ","MAREA":"大排竹","LANE":" ","ALLEY":" ","HOUSE_NO":"７０號","E_COORD97":189776.42999999999,"N_COORD97":2585376.6200000001,"ADDRESS":"大排竹７０號","OBJECTID":152899},"geometry":{"x":189776.43000000063,"y":2585376.620000001}},{"attributes":{"ID":152901,"DIS_CODE":0,"TOWNNAME":"白河區","LI":"大竹里","LIN":"5鄰","STREET":" ","SECT":" ","MAREA":"大排竹","LANE":" ","ALLEY":" ","HOUSE_NO":"７１號","E_COORD97":189803.70000000001,"N_COORD97":2585385.77,"ADDRESS":"大排竹７１號","OBJECTID":152900},"geometry":{"x":189803.69999999925,"y":2585385.7700000014}},{"attributes":{"ID":152902,"DIS_CODE":0,"TOWNNAME":"白河區","LI":"大竹里","LIN":"5鄰","STREET":" ","SECT":" ","MAREA":"大排竹","LANE":" ","ALLEY":" ","HOUSE_NO":"７２之１號","E_COORD97":189770.94,"N_COORD97":2585401.2000000002,"ADDRESS":"大排竹７２之１號","OBJECTID":152901},"geometry":{"x":189770.94000000134,"y":2585401.1999999993}},{"attributes":{"ID":152903,"DIS_CODE":0,"TOWNNAME":"白河區","LI":"大竹里","LIN":"5鄰","STREET":" ","SECT":" ","MAREA":"大排竹","LANE":" ","ALLEY":" ","HOUSE_NO":"７２號","E_COORD97":189764.98000000001,"N_COORD97":2585409.1600000001,"ADDRESS":"大排竹７２號","OBJECTID":152902},"geometry":{"x":189764.98000000231,"y":2585409.1600000001}},{"attributes":{"ID":152904,"DIS_CODE":0,"TOWNNAME":"白河區","LI":"大竹里","LIN":"5鄰","STREET":" ","SECT":" ","MAREA":"大排竹","LANE":" ","ALLEY":" ","HOUSE_NO":"７３號","E_COORD97":189779.37,"N_COORD97":2585422.0499999998,"ADDRESS":"大排竹７３號","OBJECTID":152903},"geometry":{"x":189779.37000000104,"y":2585422.0500000026}},{"attributes":{"ID":152905,"DIS_CODE":0,"TOWNNAME":"白河區","LI":"大竹里","LIN":"5鄰","STREET":" ","SECT":" ","MAREA":"大排竹","LANE":" ","ALLEY":" ","HOUSE_NO":"７４之１號","E_COORD97":189728.26999999999,"N_COORD97":2585394.9399999999,"ADDRESS":"大排竹７４之１號","OBJECTID":152904},"geometry":{"x":189728.27000000048,"y":2585394.9400000013}},{"attributes":{"ID":152906,"DIS_CODE":0,"TOWNNAME":"白河區","LI":"大竹里","LIN":"5鄰","STREET":" ","SECT":" ","MAREA":"大排竹","LANE":" ","ALLEY":" ","HOUSE_NO":"７４號","E_COORD97":189734.38,"N_COORD97":2585407.5600000001,"ADDRESS":"大排竹７４號","OBJECTID":152905},"geometry":{"x":189734.38000000175,"y":2585407.5600000042}},{"attributes":{"ID":152907,"DIS_CODE":0,"TOWNNAME":"白河區","LI":"大竹里","LIN":"5鄰","STREET":" ","SECT":" ","MAREA":"大排竹","LANE":" ","ALLEY":" ","HOUSE_NO":"７５之１號","E_COORD97":189725.69,"N_COORD97":2585475.6499999999,"ADDRESS":"大排竹７５之１號","OBJECTID":152906},"geometry":{"x":189725.69000000041,"y":2585475.6500000022}},{"attributes":{"ID":152908,"DIS_CODE":0,"TOWNNAME":"白河區","LI":"大竹里","LIN":"5鄰","STREET":" ","SECT":" ","MAREA":"大排竹","LANE":" ","ALLEY":" ","HOUSE_NO":"７５之２號","E_COORD97":189703.57000000001,"N_COORD97":2585458.1000000001,"ADDRESS":"大排竹７５之２號","OBJECTID":152907},"geometry":{"x":189703.57000000123,"y":2585458.1000000015}},{"attributes":{"ID":152909,"DIS_CODE":0,"TOWNNAME":"白河區","LI":"大竹里","LIN":"5鄰","STREET":" ","SECT":" ","MAREA":"大排竹","LANE":" ","ALLEY":" ","HOUSE_NO":"７５號","E_COORD97":189741.32000000001,"N_COORD97":2585451.21,"ADDRESS":"大排竹７５號","OBJECTID":152908},"geometry":{"x":189741.3200000003,"y":2585451.2100000028}},{"attributes":{"ID":152910,"DIS_CODE":0,"TOWNNAME":"白河區","LI":"大竹里","LIN":"5鄰","STREET":" ","SECT":" ","MAREA":"大排竹","LANE":" ","ALLEY":" ","HOUSE_NO":"７６號","E_COORD97":189718.29999999999,"N_COORD97":2585420.3500000001,"ADDRESS":"大排竹７６號","OBJECTID":152909},"geometry":{"x":189718.30000000075,"y":2585420.3499999996}},{"attributes":{"ID":152911,"DIS_CODE":0,"TOWNNAME":"白河區","LI":"大竹里","LIN":"5鄰","STREET":" ","SECT":" ","MAREA":"大排竹","LANE":" ","ALLEY":" ","HOUSE_NO":"７７之２號","E_COORD97":189695.88,"N_COORD97":2585404.5699999998,"ADDRESS":"大排竹７７之２號","OBJECTID":152910},"geometry":{"x":189695.88000000082,"y":2585404.5700000022}},{"attributes":{"ID":152912,"DIS_CODE":0,"TOWNNAME":"白河區","LI":"大竹里","LIN":"5鄰","STREET":" ","SECT":" ","MAREA":"大排竹","LANE":" ","ALLEY":" ","HOUSE_NO":"７８之１０號","E_COORD97":189601.62,"N_COORD97":2585426.3900000001,"ADDRESS":"大排竹７８之１０號","OBJECTID":152911},"geometry":{"x":189601.62000000104,"y":2585426.3900000025}},{"attributes":{"ID":152913,"DIS_CODE":0,"TOWNNAME":"白河區","LI":"大竹里","LIN":"5鄰","STREET":" ","SECT":" ","MAREA":"大排竹","LANE":" ","ALLEY":" ","HOUSE_NO":"７８之１號","E_COORD97":189678.92000000001,"N_COORD97":2585401.7999999998,"ADDRESS":"大排竹７８之１號","OBJECTID":152912},"geometry":{"x":189678.92000000086,"y":2585401.8000000007}},{"attributes":{"ID":152914,"DIS_CODE":0,"TOWNNAME":"白河區","LI":"大竹里","LIN":"5鄰","STREET":" ","SECT":" ","MAREA":"大排竹","LANE":" ","ALLEY":" ","HOUSE_NO":"７８號","E_COORD97":189699.39000000001,"N_COORD97":2585314.0099999998,"ADDRESS":"大排竹７８號","OBJECTID":152913},"geometry":{"x":189699.38999999966,"y":2585314.0099999998}},{"attributes":{"ID":152915,"DIS_CODE":0,"TOWNNAME":"白河區","LI":"大竹里","LIN":"5鄰","STREET":" ","SECT":" ","MAREA":"大排竹","LANE":" ","ALLEY":" ","HOUSE_NO":"８０號","E_COORD97":189700.60999999999,"N_COORD97":2585353.29,"ADDRESS":"大排竹８０號","OBJECTID":152914},"geometry":{"x":189700.61000000034,"y":2585353.2899999972}},{"attributes":{"ID":152916,"DIS_CODE":0,"TOWNNAME":"白河區","LI":"大竹里","LIN":"5鄰","STREET":" ","SECT":" ","MAREA":"大排竹","LANE":" ","ALLEY":" ","HOUSE_NO":"８１號","E_COORD97":189709.29000000001,"N_COORD97":2585341.3999999999,"ADDRESS":"大排竹８１號","OBJECTID":152915},"geometry":{"x":189709.29000000004,"y":2585341.4000000022}},{"attributes":{"ID":152917,"DIS_CODE":0,"TOWNNAME":"白河區","LI":"大竹里","LIN":"5鄰","STREET":" ","SECT":" ","MAREA":"大排竹","LANE":" ","ALLEY":" ","HOUSE_NO":"８３號","E_COORD97":189719.95000000001,"N_COORD97":2585343.8999999999,"ADDRESS":"大排竹８３號","OBJECTID":152916},"geometry":{"x":189719.95000000019,"y":2585343.9000000041}},{"attributes":{"ID":152918,"DIS_CODE":0,"TOWNNAME":"白河區","LI":"大竹里","LIN":"5鄰","STREET":" ","SECT":" ","MAREA":"大排竹","LANE":" ","ALLEY":" ","HOUSE_NO":"８４之１號","E_COORD97":189728.89000000001,"N_COORD97":2585380.46,"ADDRESS":"大排竹８４之１號","OBJECTID":152917},"geometry":{"x":189728.88999999966,"y":2585380.4600000009}},{"attributes":{"ID":152919,"DIS_CODE":0,"TOWNNAME":"白河區","LI":"大竹里","LIN":"5鄰","STREET":" ","SECT":" ","MAREA":"大排竹","LANE":" ","ALLEY":" ","HOUSE_NO":"８４號","E_COORD97":189738.95000000001,"N_COORD97":2585361.3799999999,"ADDRESS":"大排竹８４號","OBJECTID":152918},"geometry":{"x":189738.95000000019,"y":2585361.379999999}},{"attributes":{"ID":152920,"DIS_CODE":0,"TOWNNAME":"後壁區","LI":"土溝里","LIN":"5鄰","STREET":" ","SECT":" ","MAREA":"土溝","LANE":" ","ALLEY":" ","HOUSE_NO":"４３號","E_COORD97":186900.98999999999,"N_COORD97":2585606.02,"ADDRESS":"土溝４３號","OBJECTID":152919},"geometry":{"x":186900.99000000022,"y":2585606.0199999996}},{"attributes":{"ID":152921,"DIS_CODE":0,"TOWNNAME":"後壁區","LI":"福安里","LIN":"5鄰","STREET":" ","SECT":" ","MAREA":"下寮","LANE":" ","ALLEY":" ","HOUSE_NO":"５２號","E_COORD97":184441.09,"N_COORD97":2580810.6499999999,"ADDRESS":"下寮５２號","OBJECTID":152920},"geometry":{"x":184441.09000000078,"y":2580810.6500000022}},{"attributes":{"ID":152922,"DIS_CODE":0,"TOWNNAME":"後壁區","LI":"福安里","LIN":"5鄰","STREET":" ","SECT":" ","MAREA":"下寮","LANE":" ","ALLEY":" ","HOUSE_NO":"５３號之１","E_COORD97":184439.42000000001,"N_COORD97":2580823.6800000002,"ADDRESS":"下寮５３號之１","OBJECTID":152921},"geometry":{"x":184439.41999999993,"y":2580823.6799999997}},{"attributes":{"ID":152923,"DIS_CODE":0,"TOWNNAME":"後壁區","LI":"福安里","LIN":"5鄰","STREET":" ","SECT":" ","MAREA":"下寮","LANE":" ","ALLEY":" ","HOUSE_NO":"５３號","E_COORD97":184427.85999999999,"N_COORD97":2580806.1699999999,"ADDRESS":"下寮５３號","OBJECTID":152922},"geometry":{"x":184427.86000000127,"y":2580806.1700000018}},{"attributes":{"ID":152924,"DIS_CODE":0,"TOWNNAME":"後壁區","LI":"嘉苳里","LIN":"5鄰","STREET":" ","SECT":" ","MAREA":"下茄苳","LANE":" ","ALLEY":" ","HOUSE_NO":"５６號之１２","E_COORD97":185071.57999999999,"N_COORD97":2583391.1299999999,"ADDRESS":"下茄苳５６號之１２","OBJECTID":152923},"geometry":{"x":185071.58000000194,"y":2583391.1299999971}},{"attributes":{"ID":152925,"DIS_CODE":0,"TOWNNAME":"後壁區","LI":"嘉苳里","LIN":"5鄰","STREET":" ","SECT":" ","MAREA":"下茄苳","LANE":" ","ALLEY":" ","HOUSE_NO":"５６號之１３","E_COORD97":185073.73000000001,"N_COORD97":2583394.3100000001,"ADDRESS":"下茄苳５６號之１３","OBJECTID":152924},"geometry":{"x":185073.73000000045,"y":2583394.3100000005}},{"attributes":{"ID":152926,"DIS_CODE":0,"TOWNNAME":"後壁區","LI":"嘉苳里","LIN":"5鄰","STREET":" ","SECT":" ","MAREA":"下茄苳","LANE":" ","ALLEY":" ","HOUSE_NO":"５６號之１６","E_COORD97":185080.42000000001,"N_COORD97":2583404.27,"ADDRESS":"下茄苳５６號之１６","OBJECTID":152925},"geometry":{"x":185080.41999999993,"y":2583404.2699999996}},{"attributes":{"ID":152927,"DIS_CODE":0,"TOWNNAME":"後壁區","LI":"嘉苳里","LIN":"5鄰","STREET":" ","SECT":" ","MAREA":"下茄苳","LANE":" ","ALLEY":" ","HOUSE_NO":"５６號之１７","E_COORD97":185082.75,"N_COORD97":2583407.5600000001,"ADDRESS":"下茄苳５６號之１７","OBJECTID":152926},"geometry":{"x":185082.75000000093,"y":2583407.5600000024}},{"attributes":{"ID":152928,"DIS_CODE":0,"TOWNNAME":"後壁區","LI":"嘉苳里","LIN":"5鄰","STREET":" ","SECT":" ","MAREA":"下茄苳","LANE":" ","ALLEY":" ","HOUSE_NO":"５６號之１８","E_COORD97":185085.41,"N_COORD97":2583411.0600000001,"ADDRESS":"下茄苳５６號之１８","OBJECTID":152927},"geometry":{"x":185085.41000000108,"y":2583411.0600000024}},{"attributes":{"ID":152929,"DIS_CODE":0,"TOWNNAME":"後壁區","LI":"嘉苳里","LIN":"5鄰","STREET":" ","SECT":" ","MAREA":"下茄苳","LANE":" ","ALLEY":" ","HOUSE_NO":"５６號之１９","E_COORD97":185087.60999999999,"N_COORD97":2583414.9100000001,"ADDRESS":"下茄苳５６號之１９","OBJECTID":152928},"geometry":{"x":185087.61000000127,"y":2583414.910000002}},{"attributes":{"ID":152930,"DIS_CODE":0,"TOWNNAME":"後壁區","LI":"嘉苳里","LIN":"5鄰","STREET":" ","SECT":" ","MAREA":"下茄苳","LANE":" ","ALLEY":" ","HOUSE_NO":"５６號之１","E_COORD97":185133.76999999999,"N_COORD97":2583307.9199999999,"ADDRESS":"下茄苳５６號之１","OBJECTID":152929},"geometry":{"x":185133.76999999955,"y":2583307.9199999999}},{"attributes":{"ID":152931,"DIS_CODE":0,"TOWNNAME":"後壁區","LI":"嘉苳里","LIN":"5鄰","STREET":" ","SECT":" ","MAREA":"下茄苳","LANE":" ","ALLEY":" ","HOUSE_NO":"５６號之２","E_COORD97":185113.73000000001,"N_COORD97":2583319.48,"ADDRESS":"下茄苳５６號之２","OBJECTID":152930},"geometry":{"x":185113.73000000138,"y":2583319.4800000042}},{"attributes":{"ID":152932,"DIS_CODE":0,"TOWNNAME":"後壁區","LI":"嘉苳里","LIN":"5鄰","STREET":" ","SECT":" ","MAREA":"下茄苳","LANE":" ","ALLEY":" ","HOUSE_NO":"５６號之３","E_COORD97":185104.23000000001,"N_COORD97":2583272.3399999999,"ADDRESS":"下茄苳５６號之３","OBJECTID":152931},"geometry":{"x":185104.23000000045,"y":2583272.3400000036}},{"attributes":{"ID":152933,"DIS_CODE":0,"TOWNNAME":"後壁區","LI":"嘉苳里","LIN":"5鄰","STREET":" ","SECT":" ","MAREA":"下茄苳","LANE":" ","ALLEY":" ","HOUSE_NO":"５６號","E_COORD97":185097.31,"N_COORD97":2583307.3799999999,"ADDRESS":"下茄苳５６號","OBJECTID":152932},"geometry":{"x":185097.31000000052,"y":2583307.379999999}},{"attributes":{"ID":152934,"DIS_CODE":0,"TOWNNAME":"後壁區","LI":"嘉苳里","LIN":"5鄰","STREET":" ","SECT":" ","MAREA":"下茄苳","LANE":" ","ALLEY":" ","HOUSE_NO":"５８號之１４","E_COORD97":184989.54000000001,"N_COORD97":2583156.6899999999,"ADDRESS":"下茄苳５８號之１４","OBJECTID":152933},"geometry":{"x":184989.54000000004,"y":2583156.6899999995}},{"attributes":{"ID":152935,"DIS_CODE":0,"TOWNNAME":"後壁區","LI":"嘉苳里","LIN":"5鄰","STREET":" ","SECT":" ","MAREA":"下茄苳","LANE":" ","ALLEY":" ","HOUSE_NO":"５８號之１５","E_COORD97":184985.07000000001,"N_COORD97":2583154.48,"ADDRESS":"下茄苳５８號之１５","OBJECTID":152934},"geometry":{"x":184985.0700000003,"y":2583154.4800000023}},{"attributes":{"ID":152936,"DIS_CODE":0,"TOWNNAME":"後壁區","LI":"嘉苳里","LIN":"5鄰","STREET":" ","SECT":" ","MAREA":"下茄苳","LANE":" ","ALLEY":" ","HOUSE_NO":"５８號之１６","E_COORD97":184980.59,"N_COORD97":2583152.2799999998,"ADDRESS":"下茄苳５８號之１６","OBJECTID":152935},"geometry":{"x":184980.58999999985,"y":2583152.2799999993}},{"attributes":{"ID":152937,"DIS_CODE":0,"TOWNNAME":"後壁區","LI":"嘉苳里","LIN":"5鄰","STREET":" ","SECT":" ","MAREA":"下茄苳","LANE":" ","ALLEY":" ","HOUSE_NO":"５８號之１８","E_COORD97":184971.70000000001,"N_COORD97":2583147.8100000001,"ADDRESS":"下茄苳５８號之１８","OBJECTID":152936},"geometry":{"x":184971.70000000019,"y":2583147.8100000042}},{"attributes":{"ID":152938,"DIS_CODE":0,"TOWNNAME":"後壁區","LI":"嘉苳里","LIN":"5鄰","STREET":" ","SECT":" ","MAREA":"下茄苳","LANE":" ","ALLEY":" ","HOUSE_NO":"５８號之１","E_COORD97":185065.82000000001,"N_COORD97":2583272.8100000001,"ADDRESS":"下茄苳５８號之１","OBJECTID":152937},"geometry":{"x":185065.82000000123,"y":2583272.8100000005}},{"attributes":{"ID":152939,"DIS_CODE":0,"TOWNNAME":"後壁區","LI":"嘉苳里","LIN":"5鄰","STREET":" ","SECT":" ","MAREA":"下茄苳","LANE":" ","ALLEY":" ","HOUSE_NO":"５８號之２０","E_COORD97":184962.20000000001,"N_COORD97":2583143.6800000002,"ADDRESS":"下茄苳５８號之２０","OBJECTID":152938},"geometry":{"x":184962.19999999925,"y":2583143.6799999997}},{"attributes":{"ID":152940,"DIS_CODE":0,"TOWNNAME":"後壁區","LI":"嘉苳里","LIN":"5鄰","STREET":" ","SECT":" ","MAREA":"下茄苳","LANE":" ","ALLEY":" ","HOUSE_NO":"５８號之２２","E_COORD97":184953.25,"N_COORD97":2583139.2599999998,"ADDRESS":"下茄苳５８號之２２","OBJECTID":152939},"geometry":{"x":184953.25000000186,"y":2583139.2599999998}},{"attributes":{"ID":152941,"DIS_CODE":0,"TOWNNAME":"後壁區","LI":"嘉苳里","LIN":"5鄰","STREET":" ","SECT":" ","MAREA":"下茄苳","LANE":" ","ALLEY":" ","HOUSE_NO":"５８號之２３","E_COORD97":185012.35999999999,"N_COORD97":2583145.8599999999,"ADDRESS":"下茄苳５８號之２３","OBJECTID":152940},"geometry":{"x":185012.3600000022,"y":2583145.8599999994}},{"attributes":{"ID":152942,"DIS_CODE":0,"TOWNNAME":"後壁區","LI":"嘉苳里","LIN":"5鄰","STREET":" ","SECT":" ","MAREA":"下茄苳","LANE":" ","ALLEY":" ","HOUSE_NO":"５８號之２４","E_COORD97":185007.79000000001,"N_COORD97":2583143.5699999998,"ADDRESS":"下茄苳５８號之２４","OBJECTID":152941},"geometry":{"x":185007.79000000097,"y":2583143.5700000022}},{"attributes":{"ID":152943,"DIS_CODE":0,"TOWNNAME":"後壁區","LI":"嘉苳里","LIN":"5鄰","STREET":" ","SECT":" ","MAREA":"下茄苳","LANE":" ","ALLEY":" ","HOUSE_NO":"５８號之２５","E_COORD97":185003.26999999999,"N_COORD97":2583141.2599999998,"ADDRESS":"下茄苳５８號之２５","OBJECTID":152942},"geometry":{"x":185003.26999999955,"y":2583141.2600000016}},{"attributes":{"ID":152944,"DIS_CODE":0,"TOWNNAME":"後壁區","LI":"嘉苳里","LIN":"5鄰","STREET":" ","SECT":" ","MAREA":"下茄苳","LANE":" ","ALLEY":" ","HOUSE_NO":"５８號之２６","E_COORD97":184998.48999999999,"N_COORD97":2583138.75,"ADDRESS":"下茄苳５８號之２６","OBJECTID":152943},"geometry":{"x":184998.49000000115,"y":2583138.7500000019}},{"attributes":{"ID":152945,"DIS_CODE":0,"TOWNNAME":"後壁區","LI":"嘉苳里","LIN":"5鄰","STREET":" ","SECT":" ","MAREA":"下茄苳","LANE":" ","ALLEY":" ","HOUSE_NO":"５８號之２７","E_COORD97":184993.91,"N_COORD97":2583136.6499999999,"ADDRESS":"下茄苳５８號之２７","OBJECTID":152944},"geometry":{"x":184993.91000000015,"y":2583136.6500000022}},{"attributes":{"ID":152946,"DIS_CODE":0,"TOWNNAME":"後壁區","LI":"嘉苳里","LIN":"5鄰","STREET":" ","SECT":" ","MAREA":"下茄苳","LANE":" ","ALLEY":" ","HOUSE_NO":"５８號之２８","E_COORD97":184989.45999999999,"N_COORD97":2583134.0699999998,"ADDRESS":"下茄苳５８號之２８","OBJECTID":152945},"geometry":{"x":184989.46000000089,"y":2583134.0700000003}},{"attributes":{"ID":152947,"DIS_CODE":0,"TOWNNAME":"後壁區","LI":"嘉苳里","LIN":"5鄰","STREET":" ","SECT":" ","MAREA":"下茄苳","LANE":" ","ALLEY":" ","HOUSE_NO":"５８號之２９","E_COORD97":184984.92999999999,"N_COORD97":2583131.6099999999,"ADDRESS":"下茄苳５８號之２９","OBJECTID":152946},"geometry":{"x":184984.9299999997,"y":2583131.6100000013}},{"attributes":{"ID":152948,"DIS_CODE":0,"TOWNNAME":"後壁區","LI":"嘉苳里","LIN":"5鄰","STREET":" ","SECT":" ","MAREA":"下茄苳","LANE":" ","ALLEY":" ","HOUSE_NO":"５８號之２","E_COORD97":185071.29000000001,"N_COORD97":2583247.7999999998,"ADDRESS":"下茄苳５８號之２","OBJECTID":152947},"geometry":{"x":185071.29000000004,"y":2583247.8000000026}},{"attributes":{"ID":152949,"DIS_CODE":0,"TOWNNAME":"後壁區","LI":"嘉苳里","LIN":"5鄰","STREET":" ","SECT":" ","MAREA":"下茄苳","LANE":" ","ALLEY":" ","HOUSE_NO":"５８號之３０","E_COORD97":184980.23999999999,"N_COORD97":2583129.1499999999,"ADDRESS":"下茄苳５８號之３０","OBJECTID":152948},"geometry":{"x":184980.24000000022,"y":2583129.1500000022}},{"attributes":{"ID":152950,"DIS_CODE":0,"TOWNNAME":"東區","LI":"自強里","LIN":"25鄰","STREET":"中華東路","SECT":"二段","MAREA":" ","LANE":"１３３巷","ALLEY":"７０弄","HOUSE_NO":"１號","E_COORD97":171545.60999999999,"N_COORD97":2542743.0299999998,"ADDRESS":"中華東路二段１３３巷７０弄１號","OBJECTID":152949},"geometry":{"x":171545.6100000022,"y":2542743.0300000012}},{"attributes":{"ID":152951,"DIS_CODE":0,"TOWNNAME":"東區","LI":"自強里","LIN":"25鄰","STREET":"中華東路","SECT":"二段","MAREA":" ","LANE":"１３３巷","ALLEY":"７０弄","HOUSE_NO":"２０號","E_COORD97":171510.78,"N_COORD97":2542753.4700000002,"ADDRESS":"中華東路二段１３３巷７０弄２０號","OBJECTID":152950},"geometry":{"x":171510.78000000119,"y":2542753.4700000007}},{"attributes":{"ID":152952,"DIS_CODE":0,"TOWNNAME":"東區","LI":"自強里","LIN":"25鄰","STREET":"中華東路","SECT":"二段","MAREA":" ","LANE":"１３３巷","ALLEY":"７０弄","HOUSE_NO":"２１號","E_COORD97":171499.54999999999,"N_COORD97":2542738.7799999998,"ADDRESS":"中華東路二段１３３巷７０弄２１號","OBJECTID":152951},"geometry":{"x":171499.54999999981,"y":2542738.7799999993}},{"attributes":{"ID":152953,"DIS_CODE":0,"TOWNNAME":"東區","LI":"自強里","LIN":"27鄰","STREET":"中華東路","SECT":"二段","MAREA":" ","LANE":"１３３巷","ALLEY":"４弄","HOUSE_NO":"５號","E_COORD97":171409.60000000001,"N_COORD97":2542823.48,"ADDRESS":"中華東路二段１３３巷４弄５號","OBJECTID":152952},"geometry":{"x":171409.60000000056,"y":2542823.4800000004}},{"attributes":{"ID":152954,"DIS_CODE":0,"TOWNNAME":"東區","LI":"自強里","LIN":"27鄰","STREET":"中華東路","SECT":"二段","MAREA":" ","LANE":"１３３巷","ALLEY":"４弄","HOUSE_NO":"６號","E_COORD97":171415.98000000001,"N_COORD97":2542819.6499999999,"ADDRESS":"中華東路二段１３３巷４弄６號","OBJECTID":152953},"geometry":{"x":171415.98000000045,"y":2542819.6500000004}},{"attributes":{"ID":152955,"DIS_CODE":0,"TOWNNAME":"東區","LI":"自強里","LIN":"25鄰","STREET":"中華東路","SECT":"二段","MAREA":" ","LANE":"１３３巷","ALLEY":"７０弄","HOUSE_NO":"２５號","E_COORD97":171491.42999999999,"N_COORD97":2542738.2000000002,"ADDRESS":"中華東路二段１３３巷７０弄２５號","OBJECTID":152954},"geometry":{"x":171491.4299999997,"y":2542738.2000000011}},{"attributes":{"ID":152956,"DIS_CODE":0,"TOWNNAME":"東區","LI":"自強里","LIN":"25鄰","STREET":"中華東路","SECT":"二段","MAREA":" ","LANE":"１３３巷","ALLEY":"７０弄","HOUSE_NO":"２７號","E_COORD97":171486.01000000001,"N_COORD97":2542737.4300000002,"ADDRESS":"中華東路二段１３３巷７０弄２７號","OBJECTID":152955},"geometry":{"x":171486.00999999978,"y":2542737.4300000016}},{"attributes":{"ID":152957,"DIS_CODE":0,"TOWNNAME":"北區","LI":"六甲里","LIN":"19鄰","STREET":"公園路","SECT":" ","MAREA":" ","LANE":" ","ALLEY":" ","HOUSE_NO":"５８７號之２９三樓之","E_COORD97":169101.92999999999,"N_COORD97":2545872.3799999999,"ADDRESS":"公園路５８７號之２９三樓之２","OBJECTID":152956},"geometry":{"x":169101.93000000063,"y":2545872.3800000008}},{"attributes":{"ID":152958,"DIS_CODE":0,"TOWNNAME":"後壁區","LI":"嘉苳里","LIN":"5鄰","STREET":" ","SECT":" ","MAREA":"下茄苳","LANE":" ","ALLEY":" ","HOUSE_NO":"５８號之３１","E_COORD97":184975.66,"N_COORD97":2583127.0699999998,"ADDRESS":"下茄苳５８號之３１","OBJECTID":152957},"geometry":{"x":184975.66000000015,"y":2583127.0700000003}},{"attributes":{"ID":152959,"DIS_CODE":0,"TOWNNAME":"後壁區","LI":"嘉苳里","LIN":"5鄰","STREET":" ","SECT":" ","MAREA":"下茄苳","LANE":" ","ALLEY":" ","HOUSE_NO":"５８號之３２","E_COORD97":184971.32999999999,"N_COORD97":2583124.6400000001,"ADDRESS":"下茄苳５８號之３２","OBJECTID":152958},"geometry":{"x":184971.33000000007,"y":2583124.6400000006}},{"attributes":{"ID":152960,"DIS_CODE":0,"TOWNNAME":"東區","LI":"自強里","LIN":"25鄰","STREET":"中華東路","SECT":"二段","MAREA":" ","LANE":"１３３巷","ALLEY":"７０弄","HOUSE_NO":"２９號","E_COORD97":171481.56,"N_COORD97":2542736.8500000001,"ADDRESS":"中華東路二段１３３巷７０弄２９號","OBJECTID":152959},"geometry":{"x":171481.56000000052,"y":2542736.8500000015}},{"attributes":{"ID":152961,"DIS_CODE":0,"TOWNNAME":"東區","LI":"自強里","LIN":"25鄰","STREET":"中華東路","SECT":"二段","MAREA":" ","LANE":"１３３巷","ALLEY":"７０弄","HOUSE_NO":"２號","E_COORD97":171552.19,"N_COORD97":2542758.1099999999,"ADDRESS":"中華東路二段１３３巷７０弄２號","OBJECTID":152960},"geometry":{"x":171552.19000000134,"y":2542758.1099999975}},{"attributes":{"ID":152962,"DIS_CODE":0,"TOWNNAME":"東區","LI":"自強里","LIN":"25鄰","STREET":"中華東路","SECT":"二段","MAREA":" ","LANE":"１３３巷","ALLEY":"７０弄","HOUSE_NO":"２號之２","E_COORD97":171537.29000000001,"N_COORD97":2542767.5800000001,"ADDRESS":"中華東路二段１３３巷７０弄２號之２","OBJECTID":152961},"geometry":{"x":171537.2900000019,"y":2542767.5800000019}},{"attributes":{"ID":152963,"DIS_CODE":0,"TOWNNAME":"東區","LI":"自強里","LIN":"25鄰","STREET":"中華東路","SECT":"二段","MAREA":" ","LANE":"１３３巷","ALLEY":"７０弄","HOUSE_NO":"３３號","E_COORD97":171473.42999999999,"N_COORD97":2542736.46,"ADDRESS":"中華東路二段１３３巷７０弄３３號","OBJECTID":152962},"geometry":{"x":171473.43000000156,"y":2542736.4600000009}},{"attributes":{"ID":152964,"DIS_CODE":0,"TOWNNAME":"東區","LI":"自強里","LIN":"25鄰","STREET":"中華東路","SECT":"二段","MAREA":" ","LANE":"１３３巷","ALLEY":"７０弄","HOUSE_NO":"３５號","E_COORD97":171468.78,"N_COORD97":2542735.6899999999,"ADDRESS":"中華東路二段１３３巷７０弄３５號","OBJECTID":152963},"geometry":{"x":171468.78000000119,"y":2542735.6900000013}},{"attributes":{"ID":152965,"DIS_CODE":0,"TOWNNAME":"東區","LI":"自強里","LIN":"25鄰","STREET":"中華東路","SECT":"二段","MAREA":" ","LANE":"１３３巷","ALLEY":"７０弄","HOUSE_NO":"３７號","E_COORD97":171464.32999999999,"N_COORD97":2542735.6899999999,"ADDRESS":"中華東路二段１３３巷７０弄３７號","OBJECTID":152964},"geometry":{"x":171464.33000000194,"y":2542735.6900000013}},{"attributes":{"ID":152966,"DIS_CODE":0,"TOWNNAME":"中西區","LI":"銀同里","LIN":"10鄰","STREET":"開山路","SECT":" ","MAREA":" ","LANE":"３５巷","ALLEY":"１弄","HOUSE_NO":"２８號","E_COORD97":168717.41,"N_COORD97":2543530.4900000002,"ADDRESS":"開山路３５巷１弄２８號","OBJECTID":152965},"geometry":{"x":168717.40999999922,"y":2543530.4900000021}},{"attributes":{"ID":152967,"DIS_CODE":0,"TOWNNAME":"東區","LI":"自強里","LIN":"25鄰","STREET":"中華東路","SECT":"二段","MAREA":" ","LANE":"１３３巷","ALLEY":"７０弄","HOUSE_NO":"３９號","E_COORD97":171459.69,"N_COORD97":2542734.9100000001,"ADDRESS":"中華東路二段１３３巷７０弄３９號","OBJECTID":152966},"geometry":{"x":171459.69000000041,"y":2542734.910000002}},{"attributes":{"ID":152968,"DIS_CODE":0,"TOWNNAME":"永康區","LI":"埔園里","LIN":"2鄰","STREET":"永埔街","SECT":" ","MAREA":" ","LANE":"１１６巷","ALLEY":"９弄","HOUSE_NO":"２６號五樓之３","E_COORD97":173997.73999999999,"N_COORD97":2547740.9700000002,"ADDRESS":"永埔街１１６巷９弄２６號五樓之３","OBJECTID":152967},"geometry":{"x":173997.74000000115,"y":2547740.9700000044}},{"attributes":{"ID":152969,"DIS_CODE":0,"TOWNNAME":"永康區","LI":"埔園里","LIN":"2鄰","STREET":"永埔街","SECT":" ","MAREA":" ","LANE":"１１６巷","ALLEY":"９弄","HOUSE_NO":"１６號六樓之４","E_COORD97":174005.62,"N_COORD97":2547723.8799999999,"ADDRESS":"永埔街１１６巷９弄１６號六樓之４","OBJECTID":152968},"geometry":{"x":174005.62000000104,"y":2547723.8800000008}},{"attributes":{"ID":152970,"DIS_CODE":0,"TOWNNAME":"永康區","LI":"埔園里","LIN":"2鄰","STREET":"永埔街","SECT":" ","MAREA":" ","LANE":"１１６巷","ALLEY":"９弄","HOUSE_NO":"１６號三樓之３","E_COORD97":174005.69,"N_COORD97":2547723.8799999999,"ADDRESS":"永埔街１１６巷９弄１６號三樓之３","OBJECTID":152969},"geometry":{"x":174005.69000000134,"y":2547723.8800000008}},{"attributes":{"ID":152971,"DIS_CODE":0,"TOWNNAME":"永康區","LI":"埔園里","LIN":"2鄰","STREET":"永埔街","SECT":" ","MAREA":" ","LANE":"１１６巷","ALLEY":"９弄","HOUSE_NO":"１６號二樓之３","E_COORD97":174005.69,"N_COORD97":2547723.8799999999,"ADDRESS":"永埔街１１６巷９弄１６號二樓之３","OBJECTID":152970},"geometry":{"x":174005.69000000134,"y":2547723.8800000008}},{"attributes":{"ID":152972,"DIS_CODE":0,"TOWNNAME":"永康區","LI":"五王里","LIN":"2鄰","STREET":"成功路","SECT":" ","MAREA":" ","LANE":"１７２巷","ALLEY":"８弄","HOUSE_NO":"１０號三樓之２","E_COORD97":171493.98000000001,"N_COORD97":2545595.2000000002,"ADDRESS":"成功路１７２巷８弄１０號三樓之２","OBJECTID":152971},"geometry":{"x":171493.97999999952,"y":2545595.200000003}},{"attributes":{"ID":152973,"DIS_CODE":0,"TOWNNAME":"永康區","LI":"五王里","LIN":"2鄰","STREET":"成功路","SECT":" ","MAREA":" ","LANE":"１７２巷","ALLEY":"８弄","HOUSE_NO":"１０號二樓之３","E_COORD97":171493.95000000001,"N_COORD97":2545595.2000000002,"ADDRESS":"成功路１７２巷８弄１０號二樓之３","OBJECTID":152972},"geometry":{"x":171493.94999999925,"y":2545595.200000003}},{"attributes":{"ID":152974,"DIS_CODE":0,"TOWNNAME":"永康區","LI":"五王里","LIN":"2鄰","STREET":"成功路","SECT":" ","MAREA":" ","LANE":"１７２巷","ALLEY":"８弄","HOUSE_NO":"１０號五樓之１","E_COORD97":171493.85000000001,"N_COORD97":2545595.2000000002,"ADDRESS":"成功路１７２巷８弄１０號五樓之１","OBJECTID":152973},"geometry":{"x":171493.84999999963,"y":2545595.200000003}},{"attributes":{"ID":152975,"DIS_CODE":0,"TOWNNAME":"永康區","LI":"五王里","LIN":"2鄰","STREET":"成功路","SECT":" ","MAREA":" ","LANE":"１７２巷","ALLEY":"８弄","HOUSE_NO":"１０號二樓之１","E_COORD97":171493.85000000001,"N_COORD97":2545595.2000000002,"ADDRESS":"成功路１７２巷８弄１０號二樓之１","OBJECTID":152974},"geometry":{"x":171493.84999999963,"y":2545595.200000003}},{"attributes":{"ID":152976,"DIS_CODE":0,"TOWNNAME":"永康區","LI":"五王里","LIN":"2鄰","STREET":"成功路","SECT":" ","MAREA":" ","LANE":"１７２巷","ALLEY":"８弄","HOUSE_NO":"１０號五樓之２","E_COORD97":171493.98000000001,"N_COORD97":2545595.2000000002,"ADDRESS":"成功路１７２巷８弄１０號五樓之２","OBJECTID":152975},"geometry":{"x":171493.97999999952,"y":2545595.200000003}},{"attributes":{"ID":152977,"DIS_CODE":0,"TOWNNAME":"永康區","LI":"五王里","LIN":"2鄰","STREET":"成功路","SECT":" ","MAREA":" ","LANE":"１７２巷","ALLEY":"８弄","HOUSE_NO":"１０號四樓之１","E_COORD97":171493.85000000001,"N_COORD97":2545595.2000000002,"ADDRESS":"成功路１７２巷８弄１０號四樓之１","OBJECTID":152976},"geometry":{"x":171493.84999999963,"y":2545595.200000003}},{"attributes":{"ID":152978,"DIS_CODE":0,"TOWNNAME":"永康區","LI":"埔園里","LIN":"2鄰","STREET":"永埔街","SECT":" ","MAREA":" ","LANE":"１１６巷","ALLEY":"９弄","HOUSE_NO":"２６號二樓之２","E_COORD97":173997.78,"N_COORD97":2547740.9700000002,"ADDRESS":"永埔街１１６巷９弄２６號二樓之２","OBJECTID":152977},"geometry":{"x":173997.78000000119,"y":2547740.9700000044}},{"attributes":{"ID":152979,"DIS_CODE":0,"TOWNNAME":"永康區","LI":"甲頂里","LIN":"2鄰","STREET":"南台街","SECT":" ","MAREA":" ","LANE":"１３５巷","ALLEY":"７弄","HOUSE_NO":"２號三樓","E_COORD97":170047.54999999999,"N_COORD97":2546816.9700000002,"ADDRESS":"南台街１３５巷７弄２號三樓","OBJECTID":152978},"geometry":{"x":170047.55000000075,"y":2546816.9700000025}},{"attributes":{"ID":152980,"DIS_CODE":0,"TOWNNAME":"永康區","LI":"網寮里","LIN":"20鄰","STREET":"大灣路","SECT":" ","MAREA":" ","LANE":"９４２巷","ALLEY":"３７１弄","HOUSE_NO":"１７８號","E_COORD97":173282.82999999999,"N_COORD97":2545405.2999999998,"ADDRESS":"大灣路９４２巷３７１弄１７８號","OBJECTID":152979},"geometry":{"x":173282.83000000007,"y":2545405.3000000007}},{"attributes":{"ID":152981,"DIS_CODE":0,"TOWNNAME":"永康區","LI":"甲頂里","LIN":"2鄰","STREET":"南台街","SECT":" ","MAREA":" ","LANE":"１３５巷","ALLEY":"７弄","HOUSE_NO":"３號三樓","E_COORD97":170055.54000000001,"N_COORD97":2546817.2200000002,"ADDRESS":"南台街１３５巷７弄３號三樓","OBJECTID":152980},"geometry":{"x":170055.54000000004,"y":2546817.2200000044}},{"attributes":{"ID":152982,"DIS_CODE":0,"TOWNNAME":"永康區","LI":"尚頂里","LIN":"4鄰","STREET":"正南一街","SECT":" ","MAREA":" ","LANE":"１９０巷","ALLEY":"２７弄","HOUSE_NO":"１０號","E_COORD97":170808.76999999999,"N_COORD97":2547491.5699999998,"ADDRESS":"正南一街１９０巷２７弄１０號","OBJECTID":152981},"geometry":{"x":170808.77000000048,"y":2547491.5700000003}},{"attributes":{"ID":152983,"DIS_CODE":0,"TOWNNAME":"永康區","LI":"甲頂里","LIN":"7鄰","STREET":"中正南路","SECT":" ","MAREA":" ","LANE":"１６８巷","ALLEY":"２弄","HOUSE_NO":"１７號","E_COORD97":169897.20000000001,"N_COORD97":2546914.7400000002,"ADDRESS":"中正南路１６８巷２弄１７號","OBJECTID":152982},"geometry":{"x":169897.20000000205,"y":2546914.7400000039}},{"attributes":{"ID":152984,"DIS_CODE":0,"TOWNNAME":"永康區","LI":"正強里","LIN":"27鄰","STREET":"中正路","SECT":" ","MAREA":" ","LANE":"１５５巷","ALLEY":"６弄","HOUSE_NO":"３０號","E_COORD97":173146.39000000001,"N_COORD97":2547826.7400000002,"ADDRESS":"中正路１５５巷６弄３０號","OBJECTID":152983},"geometry":{"x":173146.38999999966,"y":2547826.7400000039}},{"attributes":{"ID":152985,"DIS_CODE":0,"TOWNNAME":"東區","LI":"忠孝里","LIN":"2鄰","STREET":"中華東路","SECT":"三段","MAREA":" ","LANE":"３３６巷","ALLEY":"４３弄","HOUSE_NO":"１２號七樓","E_COORD97":170060.88,"N_COORD97":2541733.2799999998,"ADDRESS":"中華東路三段３３６巷４３弄１２號七樓","OBJECTID":152984},"geometry":{"x":170060.88000000082,"y":2541733.2800000031}},{"attributes":{"ID":152986,"DIS_CODE":0,"TOWNNAME":"東區","LI":"忠孝里","LIN":"2鄰","STREET":"中華東路","SECT":"三段","MAREA":" ","LANE":"３３６巷","ALLEY":"４３弄","HOUSE_NO":"１２號七樓之１","E_COORD97":170060.88,"N_COORD97":2541733.2799999998,"ADDRESS":"中華東路三段３３６巷４３弄１２號七樓之１","OBJECTID":152985},"geometry":{"x":170060.88000000082,"y":2541733.2800000031}},{"attributes":{"ID":152987,"DIS_CODE":0,"TOWNNAME":"東區","LI":"忠孝里","LIN":"2鄰","STREET":"中華東路","SECT":"三段","MAREA":" ","LANE":"３３６巷","ALLEY":"４３弄","HOUSE_NO":"１２號七樓之２","E_COORD97":170060.88,"N_COORD97":2541733.2799999998,"ADDRESS":"中華東路三段３３６巷４３弄１２號七樓之２","OBJECTID":152986},"geometry":{"x":170060.88000000082,"y":2541733.2800000031}},{"attributes":{"ID":152988,"DIS_CODE":0,"TOWNNAME":"東區","LI":"忠孝里","LIN":"2鄰","STREET":"中華東路","SECT":"三段","MAREA":" ","LANE":"３３６巷","ALLEY":"４３弄","HOUSE_NO":"１２號七樓之３","E_COORD97":170060.88,"N_COORD97":2541733.2799999998,"ADDRESS":"中華東路三段３３６巷４３弄１２號七樓之３","OBJECTID":152987},"geometry":{"x":170060.88000000082,"y":2541733.2800000031}},{"attributes":{"ID":152989,"DIS_CODE":0,"TOWNNAME":"永康區","LI":"成功里","LIN":"13鄰","STREET":"忠孝路","SECT":" ","MAREA":" ","LANE":"２０３巷","ALLEY":"２４弄","HOUSE_NO":"４號","E_COORD97":172037.14000000001,"N_COORD97":2544893.0899999999,"ADDRESS":"忠孝路２０３巷２４弄４號","OBJECTID":152988},"geometry":{"x":172037.1400000006,"y":2544893.0900000017}},{"attributes":{"ID":152990,"DIS_CODE":0,"TOWNNAME":"東區","LI":"忠孝里","LIN":"2鄰","STREET":"中華東路","SECT":"三段","MAREA":" ","LANE":"３３６巷","ALLEY":"４３弄","HOUSE_NO":"１２號七樓之５","E_COORD97":170060.88,"N_COORD97":2541733.2799999998,"ADDRESS":"中華東路三段３３６巷４３弄１２號七樓之５","OBJECTID":152989},"geometry":{"x":170060.88000000082,"y":2541733.2800000031}},{"attributes":{"ID":152991,"DIS_CODE":0,"TOWNNAME":"東區","LI":"忠孝里","LIN":"2鄰","STREET":"中華東路","SECT":"三段","MAREA":" ","LANE":"３３６巷","ALLEY":"４３弄","HOUSE_NO":"１２號七樓之６","E_COORD97":170060.88,"N_COORD97":2541733.2799999998,"ADDRESS":"中華東路三段３３６巷４３弄１２號七樓之６","OBJECTID":152990},"geometry":{"x":170060.88000000082,"y":2541733.2800000031}},{"attributes":{"ID":152992,"DIS_CODE":0,"TOWNNAME":"東區","LI":"忠孝里","LIN":"2鄰","STREET":"中華東路","SECT":"三段","MAREA":" ","LANE":"３３６巷","ALLEY":"４３弄","HOUSE_NO":"１２號九樓","E_COORD97":170060.88,"N_COORD97":2541733.2799999998,"ADDRESS":"中華東路三段３３６巷４３弄１２號九樓","OBJECTID":152991},"geometry":{"x":170060.88000000082,"y":2541733.2800000031}},{"attributes":{"ID":152993,"DIS_CODE":0,"TOWNNAME":"東區","LI":"忠孝里","LIN":"2鄰","STREET":"中華東路","SECT":"三段","MAREA":" ","LANE":"３３６巷","ALLEY":"４３弄","HOUSE_NO":"１２號九樓之１","E_COORD97":170060.88,"N_COORD97":2541733.2799999998,"ADDRESS":"中華東路三段３３６巷４３弄１２號九樓之１","OBJECTID":152992},"geometry":{"x":170060.88000000082,"y":2541733.2800000031}},{"attributes":{"ID":152994,"DIS_CODE":0,"TOWNNAME":"東區","LI":"忠孝里","LIN":"2鄰","STREET":"中華東路","SECT":"三段","MAREA":" ","LANE":"３３６巷","ALLEY":"４３弄","HOUSE_NO":"１２號九樓之２","E_COORD97":170060.88,"N_COORD97":2541733.2799999998,"ADDRESS":"中華東路三段３３６巷４３弄１２號九樓之２","OBJECTID":152993},"geometry":{"x":170060.88000000082,"y":2541733.2800000031}},{"attributes":{"ID":152995,"DIS_CODE":0,"TOWNNAME":"永康區","LI":"尚頂里","LIN":"16鄰","STREET":"中正南路","SECT":" ","MAREA":" ","LANE":"２２０巷","ALLEY":"７弄","HOUSE_NO":"３號","E_COORD97":170183.01000000001,"N_COORD97":2547342.3700000001,"ADDRESS":"中正南路２２０巷７弄３號","OBJECTID":152994},"geometry":{"x":170183.01000000071,"y":2547342.3700000029}},{"attributes":{"ID":152996,"DIS_CODE":0,"TOWNNAME":"東區","LI":"忠孝里","LIN":"2鄰","STREET":"中華東路","SECT":"三段","MAREA":" ","LANE":"３３６巷","ALLEY":"４３弄","HOUSE_NO":"１２號九樓之３","E_COORD97":170060.88,"N_COORD97":2541733.2799999998,"ADDRESS":"中華東路三段３３６巷４３弄１２號九樓之３","OBJECTID":152995},"geometry":{"x":170060.88000000082,"y":2541733.2800000031}},{"attributes":{"ID":152997,"DIS_CODE":0,"TOWNNAME":"東區","LI":"忠孝里","LIN":"2鄰","STREET":"中華東路","SECT":"三段","MAREA":" ","LANE":"３３６巷","ALLEY":"４３弄","HOUSE_NO":"１２號九樓之５","E_COORD97":170060.88,"N_COORD97":2541733.2799999998,"ADDRESS":"中華東路三段３３６巷４３弄１２號九樓之５","OBJECTID":152996},"geometry":{"x":170060.88000000082,"y":2541733.2800000031}},{"attributes":{"ID":152998,"DIS_CODE":0,"TOWNNAME":"東區","LI":"忠孝里","LIN":"2鄰","STREET":"中華東路","SECT":"三段","MAREA":" ","LANE":"３３６巷","ALLEY":"４３弄","HOUSE_NO":"１２號九樓之６","E_COORD97":170060.88,"N_COORD97":2541733.2799999998,"ADDRESS":"中華東路三段３３６巷４３弄１２號九樓之６","OBJECTID":152997},"geometry":{"x":170060.88000000082,"y":2541733.2800000031}},{"attributes":{"ID":152999,"DIS_CODE":0,"TOWNNAME":"東區","LI":"忠孝里","LIN":"2鄰","STREET":"中華東路","SECT":"三段","MAREA":" ","LANE":"３３６巷","ALLEY":"４３弄","HOUSE_NO":"１２號八樓","E_COORD97":170060.88,"N_COORD97":2541733.2799999998,"ADDRESS":"中華東路三段３３６巷４３弄１２號八樓","OBJECTID":152998},"geometry":{"x":170060.88000000082,"y":2541733.2800000031}},{"attributes":{"ID":153000,"DIS_CODE":0,"TOWNNAME":"東區","LI":"忠孝里","LIN":"2鄰","STREET":"中華東路","SECT":"三段","MAREA":" ","LANE":"３３６巷","ALLEY":"４３弄","HOUSE_NO":"１２號八樓之２","E_COORD97":170060.88,"N_COORD97":2541733.2799999998,"ADDRESS":"中華東路三段３３６巷４３弄１２號八樓之２","OBJECTID":152999},"geometry":{"x":170060.88000000082,"y":2541733.2800000031}},{"attributes":{"ID":153001,"DIS_CODE":0,"TOWNNAME":"東區","LI":"忠孝里","LIN":"2鄰","STREET":"中華東路","SECT":"三段","MAREA":" ","LANE":"３３６巷","ALLEY":"４３弄","HOUSE_NO":"１２號八樓之３","E_COORD97":170060.88,"N_COORD97":2541733.2799999998,"ADDRESS":"中華東路三段３３６巷４３弄１２號八樓之３","OBJECTID":153000},"geometry":{"x":170060.88000000082,"y":2541733.2800000031}}]}