{"displayFieldName":"TOWNNAME","fieldAliases":{"ID":"ID","DIS_CODE":"DIS_CODE","TOWNNAME":"TOWNNAME","LI":"LI","LIN":"LIN","STREET":"STREET","SECT":"SECT","MAREA":"MAREA","LANE":"LANE","ALLEY":"ALLEY","HOUSE_NO":"HOUSE_NO","E_COORD97":"E_COORD97","N_COORD97":"N_COORD97","ADDRESS":"ADDRESS","OBJECTID":"OBJECTID"},"geometryType":"esriGeometryPoint","spatialReference":{"wkid":102443,"latestWkid":3826},"fields":[{"name":"ID","type":"esriFieldTypeDouble","alias":"ID"},{"name":"DIS_CODE","type":"esriFieldTypeInteger","alias":"DIS_CODE"},{"name":"TOWNNAME","type":"esriFieldTypeString","alias":"TOWNNAME","length":8},{"name":"LI","type":"esriFieldTypeString","alias":"LI","length":8},{"name":"LIN","type":"esriFieldTypeString","alias":"LIN","length":12},{"name":"STREET","type":"esriFieldTypeString","alias":"STREET","length":20},{"name":"SECT","type":"esriFieldTypeString","alias":"SECT","length":8},{"name":"MAREA","type":"esriFieldTypeString","alias":"MAREA","length":12},{"name":"LANE","type":"esriFieldTypeString","alias":"LANE","length":10},{"name":"ALLEY","type":"esriFieldTypeString","alias":"ALLEY","length":10},{"name":"HOUSE_NO","type":"esriFieldTypeString","alias":"HOUSE_NO","length":20},{"name":"E_COORD97","type":"esriFieldTypeDouble","alias":"E_COORD97"},{"name":"N_COORD97","type":"esriFieldTypeDouble","alias":"N_COORD97"},{"name":"ADDRESS","type":"esriFieldTypeString","alias":"ADDRESS","length":50},{"name":"OBJECTID","type":"esriFieldTypeOID","alias":"OBJECTID"}],"features":[{"attributes":{"ID":146401,"DIS_CODE":0,"TOWNNAME":"北區","LI":"力行里","LIN":"3鄰","STREET":"開南街","SECT":" ","MAREA":" ","LANE":"２７５巷","ALLEY":"３弄","HOUSE_NO":"１１號","E_COORD97":170920.44,"N_COORD97":2544992.8500000001,"ADDRESS":"開南街２７５巷３弄１１號","OBJECTID":146401},"geometry":{"x":170920.44000000134,"y":2544992.8499999996}},{"attributes":{"ID":146402,"DIS_CODE":0,"TOWNNAME":"北區","LI":"力行里","LIN":"3鄰","STREET":"開南街","SECT":" ","MAREA":" ","LANE":"２７５巷","ALLEY":"３弄","HOUSE_NO":"１２號","E_COORD97":170921.56,"N_COORD97":2545005.7000000002,"ADDRESS":"開南街２７５巷３弄１２號","OBJECTID":146402},"geometry":{"x":170921.56000000052,"y":2545005.7000000011}},{"attributes":{"ID":146403,"DIS_CODE":0,"TOWNNAME":"北區","LI":"力行里","LIN":"3鄰","STREET":"開南街","SECT":" ","MAREA":" ","LANE":"２７５巷","ALLEY":"３弄","HOUSE_NO":"１３號","E_COORD97":170916.63,"N_COORD97":2544993.4900000002,"ADDRESS":"開南街２７５巷３弄１３號","OBJECTID":146403},"geometry":{"x":170916.63000000082,"y":2544993.4900000002}},{"attributes":{"ID":146404,"DIS_CODE":0,"TOWNNAME":"北區","LI":"力行里","LIN":"3鄰","STREET":"開南街","SECT":" ","MAREA":" ","LANE":"２７５巷","ALLEY":"３弄","HOUSE_NO":"１４號","E_COORD97":170917.73999999999,"N_COORD97":2545006.1899999999,"ADDRESS":"開南街２７５巷３弄１４號","OBJECTID":146404},"geometry":{"x":170917.74000000115,"y":2545006.1900000013}},{"attributes":{"ID":146405,"DIS_CODE":0,"TOWNNAME":"北區","LI":"力行里","LIN":"3鄰","STREET":"開南街","SECT":" ","MAREA":" ","LANE":"２７５巷","ALLEY":"３弄","HOUSE_NO":"１５號","E_COORD97":170911.54000000001,"N_COORD97":2544993.9700000002,"ADDRESS":"開南街２７５巷３弄１５號","OBJECTID":146405},"geometry":{"x":170911.54000000004,"y":2544993.9700000007}},{"attributes":{"ID":146406,"DIS_CODE":0,"TOWNNAME":"北區","LI":"力行里","LIN":"3鄰","STREET":"開南街","SECT":" ","MAREA":" ","LANE":"２７５巷","ALLEY":"３弄","HOUSE_NO":"１６號","E_COORD97":170912.97,"N_COORD97":2545006.3500000001,"ADDRESS":"開南街２７５巷３弄１６號","OBJECTID":146406},"geometry":{"x":170912.96999999974,"y":2545006.3500000015}},{"attributes":{"ID":146407,"DIS_CODE":0,"TOWNNAME":"北區","LI":"力行里","LIN":"3鄰","STREET":"開南街","SECT":" ","MAREA":" ","LANE":"２７５巷","ALLEY":"３弄","HOUSE_NO":"１７號","E_COORD97":170908.20000000001,"N_COORD97":2544993.9700000002,"ADDRESS":"開南街２７５巷３弄１７號","OBJECTID":146407},"geometry":{"x":170908.20000000112,"y":2544993.9700000007}},{"attributes":{"ID":146408,"DIS_CODE":0,"TOWNNAME":"六甲區","LI":"六甲里","LIN":"30鄰","STREET":"中華路","SECT":" ","MAREA":" ","LANE":"９３巷","ALLEY":" ","HOUSE_NO":"２５號","E_COORD97":183411.39999999999,"N_COORD97":2569276.8300000001,"ADDRESS":"中華路９３巷２５號","OBJECTID":146408},"geometry":{"x":183411.40000000037,"y":2569276.8299999982}},{"attributes":{"ID":146409,"DIS_CODE":0,"TOWNNAME":"西港區","LI":"西港里","LIN":"17鄰","STREET":"中山路","SECT":" ","MAREA":" ","LANE":" ","ALLEY":" ","HOUSE_NO":"２７８號","E_COORD97":168426.84,"N_COORD97":2557873.6800000002,"ADDRESS":"中山路２７８號","OBJECTID":146409},"geometry":{"x":168426.84000000078,"y":2557873.6800000016}},{"attributes":{"ID":146410,"DIS_CODE":0,"TOWNNAME":"西港區","LI":"慶安里","LIN":"21鄰","STREET":"中山路","SECT":" ","MAREA":" ","LANE":" ","ALLEY":" ","HOUSE_NO":"２７３號","E_COORD97":168387.38,"N_COORD97":2557943.0299999998,"ADDRESS":"中山路２７３號","OBJECTID":146410},"geometry":{"x":168387.38000000082,"y":2557943.0299999993}},{"attributes":{"ID":146411,"DIS_CODE":0,"TOWNNAME":"西港區","LI":"新復里","LIN":"4鄰","STREET":" ","SECT":" ","MAREA":"新港","LANE":" ","ALLEY":" ","HOUSE_NO":"３１之１１號","E_COORD97":166238.67999999999,"N_COORD97":2556472.4399999999,"ADDRESS":"新港３１之１１號","OBJECTID":146411},"geometry":{"x":166238.68000000156,"y":2556472.4399999995}},{"attributes":{"ID":146412,"DIS_CODE":0,"TOWNNAME":"北區","LI":"力行里","LIN":"3鄰","STREET":"開南街","SECT":" ","MAREA":" ","LANE":"２７５巷","ALLEY":"３弄","HOUSE_NO":"１８號","E_COORD97":170908.67999999999,"N_COORD97":2545006.1899999999,"ADDRESS":"開南街２７５巷３弄１８號","OBJECTID":146412},"geometry":{"x":170908.67999999877,"y":2545006.1900000013}},{"attributes":{"ID":146413,"DIS_CODE":0,"TOWNNAME":"北區","LI":"力行里","LIN":"3鄰","STREET":"開南街","SECT":" ","MAREA":" ","LANE":"２７５巷","ALLEY":"３弄","HOUSE_NO":"１９號","E_COORD97":170903.59,"N_COORD97":2544994.7599999998,"ADDRESS":"開南街２７５巷３弄１９號","OBJECTID":146413},"geometry":{"x":170903.59000000078,"y":2544994.7599999998}},{"attributes":{"ID":146414,"DIS_CODE":0,"TOWNNAME":"北區","LI":"力行里","LIN":"3鄰","STREET":"開南街","SECT":" ","MAREA":" ","LANE":"２７５巷","ALLEY":"３弄","HOUSE_NO":"１號","E_COORD97":170941.10999999999,"N_COORD97":2544991.5800000001,"ADDRESS":"開南街２７５巷３弄１號","OBJECTID":146414},"geometry":{"x":170941.11000000127,"y":2544991.5800000019}},{"attributes":{"ID":146415,"DIS_CODE":0,"TOWNNAME":"北區","LI":"力行里","LIN":"3鄰","STREET":"開南街","SECT":" ","MAREA":" ","LANE":"２７５巷","ALLEY":"３弄","HOUSE_NO":"２０號","E_COORD97":170904.54999999999,"N_COORD97":2545007.46,"ADDRESS":"開南街２７５巷３弄２０號","OBJECTID":146415},"geometry":{"x":170904.54999999981,"y":2545007.4600000009}},{"attributes":{"ID":146416,"DIS_CODE":0,"TOWNNAME":"北區","LI":"力行里","LIN":"3鄰","STREET":"開南街","SECT":" ","MAREA":" ","LANE":"２７５巷","ALLEY":"３弄","HOUSE_NO":"２１號","E_COORD97":170899.29999999999,"N_COORD97":2544995.0800000001,"ADDRESS":"開南街２７５巷３弄２１號","OBJECTID":146416},"geometry":{"x":170899.29999999981,"y":2544995.0800000019}},{"attributes":{"ID":146417,"DIS_CODE":0,"TOWNNAME":"北區","LI":"力行里","LIN":"3鄰","STREET":"開南街","SECT":" ","MAREA":" ","LANE":"２７５巷","ALLEY":"３弄","HOUSE_NO":"２２號","E_COORD97":170900.57000000001,"N_COORD97":2545007.6200000001,"ADDRESS":"開南街２７５巷３弄２２號","OBJECTID":146417},"geometry":{"x":170900.57000000123,"y":2545007.6200000048}},{"attributes":{"ID":146418,"DIS_CODE":0,"TOWNNAME":"北區","LI":"力行里","LIN":"3鄰","STREET":"開南街","SECT":" ","MAREA":" ","LANE":"２７５巷","ALLEY":"３弄","HOUSE_NO":"２３號","E_COORD97":170895.48000000001,"N_COORD97":2544995.5499999998,"ADDRESS":"開南街２７５巷３弄２３號","OBJECTID":146418},"geometry":{"x":170895.48000000045,"y":2544995.5500000026}},{"attributes":{"ID":146419,"DIS_CODE":0,"TOWNNAME":"北區","LI":"力行里","LIN":"3鄰","STREET":"開南街","SECT":" ","MAREA":" ","LANE":"２７５巷","ALLEY":"３弄","HOUSE_NO":"２４號","E_COORD97":170896.44,"N_COORD97":2545007.6200000001,"ADDRESS":"開南街２７５巷３弄２４號","OBJECTID":146419},"geometry":{"x":170896.44000000134,"y":2545007.6200000048}},{"attributes":{"ID":146420,"DIS_CODE":0,"TOWNNAME":"北區","LI":"力行里","LIN":"3鄰","STREET":"開南街","SECT":" ","MAREA":" ","LANE":"２７５巷","ALLEY":"３弄","HOUSE_NO":"２５號","E_COORD97":170891.19,"N_COORD97":2544996.1899999999,"ADDRESS":"開南街２７５巷３弄２５號","OBJECTID":146420},"geometry":{"x":170891.19000000134,"y":2544996.1900000013}},{"attributes":{"ID":146421,"DIS_CODE":0,"TOWNNAME":"北區","LI":"力行里","LIN":"3鄰","STREET":"開南街","SECT":" ","MAREA":" ","LANE":"２７５巷","ALLEY":"３弄","HOUSE_NO":"２６號","E_COORD97":170891.98999999999,"N_COORD97":2545008.25,"ADDRESS":"開南街２７５巷３弄２６號","OBJECTID":146421},"geometry":{"x":170891.99000000209,"y":2545008.25}},{"attributes":{"ID":146422,"DIS_CODE":0,"TOWNNAME":"北區","LI":"力行里","LIN":"3鄰","STREET":"開南街","SECT":" ","MAREA":" ","LANE":"２７５巷","ALLEY":"３弄","HOUSE_NO":"２７號","E_COORD97":170886.73999999999,"N_COORD97":2544996.6600000001,"ADDRESS":"開南街２７５巷３弄２７號","OBJECTID":146422},"geometry":{"x":170886.74000000022,"y":2544996.660000002}},{"attributes":{"ID":146423,"DIS_CODE":0,"TOWNNAME":"北區","LI":"力行里","LIN":"3鄰","STREET":"開南街","SECT":" ","MAREA":" ","LANE":"２７５巷","ALLEY":"３弄","HOUSE_NO":"２８號","E_COORD97":170887.85000000001,"N_COORD97":2545008.5699999998,"ADDRESS":"開南街２７５巷３弄２８號","OBJECTID":146423},"geometry":{"x":170887.85000000056,"y":2545008.5700000022}},{"attributes":{"ID":146424,"DIS_CODE":0,"TOWNNAME":"北區","LI":"力行里","LIN":"3鄰","STREET":"開南街","SECT":" ","MAREA":" ","LANE":"２７５巷","ALLEY":"３弄","HOUSE_NO":"２９號","E_COORD97":170883.23999999999,"N_COORD97":2544997.6200000001,"ADDRESS":"開南街２７５巷３弄２９號","OBJECTID":146424},"geometry":{"x":170883.24000000022,"y":2544997.6200000048}},{"attributes":{"ID":146425,"DIS_CODE":0,"TOWNNAME":"北區","LI":"力行里","LIN":"3鄰","STREET":"開南街","SECT":" ","MAREA":" ","LANE":"２７５巷","ALLEY":"３弄","HOUSE_NO":"２號","E_COORD97":170942.54000000001,"N_COORD97":2545004.1299999999,"ADDRESS":"開南街２７５巷３弄２號","OBJECTID":146425},"geometry":{"x":170942.54000000097,"y":2545004.129999999}},{"attributes":{"ID":146426,"DIS_CODE":0,"TOWNNAME":"西港區","LI":"新復里","LIN":"4鄰","STREET":" ","SECT":" ","MAREA":"新港","LANE":" ","ALLEY":" ","HOUSE_NO":"３１號之１２","E_COORD97":166222.85000000001,"N_COORD97":2556484.0899999999,"ADDRESS":"新港３１號之１２","OBJECTID":146426},"geometry":{"x":166222.85000000056,"y":2556484.0900000017}},{"attributes":{"ID":146427,"DIS_CODE":0,"TOWNNAME":"西港區","LI":"新復里","LIN":"4鄰","STREET":" ","SECT":" ","MAREA":"新港","LANE":" ","ALLEY":" ","HOUSE_NO":"３１之１５號","E_COORD97":166151.14999999999,"N_COORD97":2556490.0600000001,"ADDRESS":"新港３１之１５號","OBJECTID":146427},"geometry":{"x":166151.15000000037,"y":2556490.0600000005}},{"attributes":{"ID":146428,"DIS_CODE":0,"TOWNNAME":"西港區","LI":"新復里","LIN":"4鄰","STREET":" ","SECT":" ","MAREA":"新港","LANE":" ","ALLEY":" ","HOUSE_NO":"３１號之２","E_COORD97":166333.39000000001,"N_COORD97":2556446.1099999999,"ADDRESS":"新港３１號之２","OBJECTID":146428},"geometry":{"x":166333.38999999966,"y":2556446.1100000013}},{"attributes":{"ID":146429,"DIS_CODE":0,"TOWNNAME":"西港區","LI":"新復里","LIN":"4鄰","STREET":" ","SECT":" ","MAREA":"新港","LANE":" ","ALLEY":" ","HOUSE_NO":"３１號之３","E_COORD97":166319.45999999999,"N_COORD97":2556465.2000000002,"ADDRESS":"新港３１號之３","OBJECTID":146429},"geometry":{"x":166319.45999999996,"y":2556465.2000000011}},{"attributes":{"ID":146430,"DIS_CODE":0,"TOWNNAME":"西港區","LI":"新復里","LIN":"4鄰","STREET":" ","SECT":" ","MAREA":"新港","LANE":" ","ALLEY":" ","HOUSE_NO":"３１之５號","E_COORD97":166355.35999999999,"N_COORD97":2556435.1600000001,"ADDRESS":"新港３１之５號","OBJECTID":146430},"geometry":{"x":166355.36000000127,"y":2556435.1600000001}},{"attributes":{"ID":146431,"DIS_CODE":0,"TOWNNAME":"北區","LI":"力行里","LIN":"3鄰","STREET":"開南街","SECT":" ","MAREA":" ","LANE":"２７５巷","ALLEY":"３弄","HOUSE_NO":"３０號","E_COORD97":170883.56,"N_COORD97":2545008.8900000001,"ADDRESS":"開南街２７５巷３弄３０號","OBJECTID":146431},"geometry":{"x":170883.55999999959,"y":2545008.8900000043}},{"attributes":{"ID":146432,"DIS_CODE":0,"TOWNNAME":"西港區","LI":"新復里","LIN":"4鄰","STREET":" ","SECT":" ","MAREA":"新港","LANE":" ","ALLEY":" ","HOUSE_NO":"３１號之６","E_COORD97":166328.63,"N_COORD97":2556371.5299999998,"ADDRESS":"新港３１號之６","OBJECTID":146432},"geometry":{"x":166328.62999999989,"y":2556371.5300000012}},{"attributes":{"ID":146433,"DIS_CODE":0,"TOWNNAME":"西港區","LI":"新復里","LIN":"4鄰","STREET":" ","SECT":" ","MAREA":"新港","LANE":" ","ALLEY":" ","HOUSE_NO":"３１號","E_COORD97":166360.88,"N_COORD97":2556454.6299999999,"ADDRESS":"新港３１號","OBJECTID":146433},"geometry":{"x":166360.87999999989,"y":2556454.6299999971}},{"attributes":{"ID":146434,"DIS_CODE":0,"TOWNNAME":"西港區","LI":"新復里","LIN":"4鄰","STREET":" ","SECT":" ","MAREA":"新港","LANE":" ","ALLEY":" ","HOUSE_NO":"３２號之１２","E_COORD97":166171.81,"N_COORD97":2556546.6800000002,"ADDRESS":"新港３２號之１２","OBJECTID":146434},"geometry":{"x":166171.81000000052,"y":2556546.6800000034}},{"attributes":{"ID":146435,"DIS_CODE":0,"TOWNNAME":"西港區","LI":"新復里","LIN":"4鄰","STREET":" ","SECT":" ","MAREA":"新港","LANE":" ","ALLEY":" ","HOUSE_NO":"３２號之１","E_COORD97":166336.95000000001,"N_COORD97":2556563.96,"ADDRESS":"新港３２號之１","OBJECTID":146435},"geometry":{"x":166336.95000000019,"y":2556563.9600000028}},{"attributes":{"ID":146436,"DIS_CODE":0,"TOWNNAME":"北區","LI":"力行里","LIN":"3鄰","STREET":"開南街","SECT":" ","MAREA":" ","LANE":"２７５巷","ALLEY":"３弄","HOUSE_NO":"３１號","E_COORD97":170879.75,"N_COORD97":2544997.9300000002,"ADDRESS":"開南街２７５巷３弄３１號","OBJECTID":146436},"geometry":{"x":170879.74999999907,"y":2544997.9300000016}},{"attributes":{"ID":146437,"DIS_CODE":0,"TOWNNAME":"西港區","LI":"新復里","LIN":"4鄰","STREET":" ","SECT":" ","MAREA":"新港","LANE":" ","ALLEY":" ","HOUSE_NO":"３２號之８","E_COORD97":166216.04000000001,"N_COORD97":2556570.21,"ADDRESS":"新港３２號之８","OBJECTID":146437},"geometry":{"x":166216.03999999911,"y":2556570.2100000009}},{"attributes":{"ID":146438,"DIS_CODE":0,"TOWNNAME":"西港區","LI":"新復里","LIN":"4鄰","STREET":" ","SECT":" ","MAREA":"新港","LANE":" ","ALLEY":" ","HOUSE_NO":"３２號","E_COORD97":166309.79999999999,"N_COORD97":2556495.2400000002,"ADDRESS":"新港３２號","OBJECTID":146438},"geometry":{"x":166309.80000000075,"y":2556495.2400000002}},{"attributes":{"ID":146439,"DIS_CODE":0,"TOWNNAME":"西港區","LI":"新復里","LIN":"4鄰","STREET":" ","SECT":" ","MAREA":"新港","LANE":" ","ALLEY":" ","HOUSE_NO":"３３號","E_COORD97":166341.26000000001,"N_COORD97":2556481.8799999999,"ADDRESS":"新港３３號","OBJECTID":146439},"geometry":{"x":166341.25999999978,"y":2556481.8800000008}},{"attributes":{"ID":146440,"DIS_CODE":0,"TOWNNAME":"西港區","LI":"新復里","LIN":"4鄰","STREET":" ","SECT":" ","MAREA":"新港","LANE":" ","ALLEY":" ","HOUSE_NO":"３４號之１","E_COORD97":166327.56,"N_COORD97":2556520.6299999999,"ADDRESS":"新港３４號之１","OBJECTID":146440},"geometry":{"x":166327.56000000052,"y":2556520.6300000008}},{"attributes":{"ID":146441,"DIS_CODE":0,"TOWNNAME":"西港區","LI":"新復里","LIN":"4鄰","STREET":" ","SECT":" ","MAREA":"新港","LANE":" ","ALLEY":" ","HOUSE_NO":"３４號","E_COORD97":166362.95999999999,"N_COORD97":2556473.0499999998,"ADDRESS":"新港３４號","OBJECTID":146441},"geometry":{"x":166362.96000000089,"y":2556473.0500000007}},{"attributes":{"ID":146442,"DIS_CODE":0,"TOWNNAME":"西港區","LI":"新復里","LIN":"4鄰","STREET":" ","SECT":" ","MAREA":"新港","LANE":" ","ALLEY":" ","HOUSE_NO":"４４號","E_COORD97":166461.76000000001,"N_COORD97":2556491.5800000001,"ADDRESS":"新港４４號","OBJECTID":146442},"geometry":{"x":166461.75999999885,"y":2556491.5800000019}},{"attributes":{"ID":146443,"DIS_CODE":0,"TOWNNAME":"西港區","LI":"新復里","LIN":"1鄰","STREET":" ","SECT":" ","MAREA":"新港","LANE":" ","ALLEY":" ","HOUSE_NO":"２號之１","E_COORD97":166553.73999999999,"N_COORD97":2556542.8100000001,"ADDRESS":"新港２號之１","OBJECTID":146443},"geometry":{"x":166553.74000000022,"y":2556542.8100000005}},{"attributes":{"ID":146444,"DIS_CODE":0,"TOWNNAME":"西港區","LI":"新復里","LIN":"1鄰","STREET":" ","SECT":" ","MAREA":"新港","LANE":" ","ALLEY":" ","HOUSE_NO":"２號","E_COORD97":166563.78,"N_COORD97":2556554.1299999999,"ADDRESS":"新港２號","OBJECTID":146444},"geometry":{"x":166563.78000000026,"y":2556554.1300000008}},{"attributes":{"ID":146445,"DIS_CODE":0,"TOWNNAME":"西港區","LI":"新復里","LIN":"1鄰","STREET":" ","SECT":" ","MAREA":"新港","LANE":" ","ALLEY":" ","HOUSE_NO":"３號","E_COORD97":166555.45000000001,"N_COORD97":2556509.5499999998,"ADDRESS":"新港３號","OBJECTID":146445},"geometry":{"x":166555.45000000019,"y":2556509.5500000026}},{"attributes":{"ID":146446,"DIS_CODE":0,"TOWNNAME":"西港區","LI":"新復里","LIN":"6鄰","STREET":" ","SECT":" ","MAREA":"新港","LANE":" ","ALLEY":" ","HOUSE_NO":"４５號","E_COORD97":166438.04999999999,"N_COORD97":2556495.4100000001,"ADDRESS":"新港４５號","OBJECTID":146446},"geometry":{"x":166438.05000000075,"y":2556495.410000002}},{"attributes":{"ID":146447,"DIS_CODE":0,"TOWNNAME":"玉井區","LI":"玉田里","LIN":"30鄰","STREET":"中華路","SECT":" ","MAREA":" ","LANE":" ","ALLEY":" ","HOUSE_NO":"４１１之６號","E_COORD97":195568.06,"N_COORD97":2557512.2999999998,"ADDRESS":"中華路４１１之６號","OBJECTID":146447},"geometry":{"x":195568.06000000052,"y":2557512.3000000007}},{"attributes":{"ID":146448,"DIS_CODE":0,"TOWNNAME":"玉井區","LI":"玉田里","LIN":"30鄰","STREET":"中華路","SECT":" ","MAREA":" ","LANE":" ","ALLEY":" ","HOUSE_NO":"２９３號","E_COORD97":195392.95999999999,"N_COORD97":2557662.2400000002,"ADDRESS":"中華路２９３號","OBJECTID":146448},"geometry":{"x":195392.96000000089,"y":2557662.2400000039}},{"attributes":{"ID":146449,"DIS_CODE":0,"TOWNNAME":"玉井區","LI":"玉田里","LIN":"30鄰","STREET":"中華路","SECT":" ","MAREA":" ","LANE":" ","ALLEY":" ","HOUSE_NO":"４１１號","E_COORD97":195528.85000000001,"N_COORD97":2557533.25,"ADDRESS":"中華路４１１號","OBJECTID":146449},"geometry":{"x":195528.85000000056,"y":2557533.2500000037}},{"attributes":{"ID":146450,"DIS_CODE":0,"TOWNNAME":"西港區","LI":"新復里","LIN":"6鄰","STREET":" ","SECT":" ","MAREA":"新港","LANE":" ","ALLEY":" ","HOUSE_NO":"４８之５號","E_COORD97":166428.01000000001,"N_COORD97":2556589.48,"ADDRESS":"新港４８之５號","OBJECTID":146450},"geometry":{"x":166428.01000000164,"y":2556589.4800000042}},{"attributes":{"ID":146451,"DIS_CODE":0,"TOWNNAME":"西港區","LI":"劉厝里","LIN":"4鄰","STREET":" ","SECT":" ","MAREA":"劉厝","LANE":" ","ALLEY":" ","HOUSE_NO":"２６號","E_COORD97":165932.07999999999,"N_COORD97":2558651.3599999999,"ADDRESS":"劉厝２６號","OBJECTID":146451},"geometry":{"x":165932.08000000007,"y":2558651.3600000013}},{"attributes":{"ID":146452,"DIS_CODE":0,"TOWNNAME":"西港區","LI":"劉厝里","LIN":"4鄰","STREET":" ","SECT":" ","MAREA":"劉厝","LANE":" ","ALLEY":" ","HOUSE_NO":"２７號","E_COORD97":165915.06,"N_COORD97":2558675.3300000001,"ADDRESS":"劉厝２７號","OBJECTID":146452},"geometry":{"x":165915.05999999959,"y":2558675.3300000038}},{"attributes":{"ID":146453,"DIS_CODE":0,"TOWNNAME":"西港區","LI":"劉厝里","LIN":"4鄰","STREET":" ","SECT":" ","MAREA":"劉厝","LANE":" ","ALLEY":" ","HOUSE_NO":"２８號","E_COORD97":165902.23000000001,"N_COORD97":2558656.7799999998,"ADDRESS":"劉厝２８號","OBJECTID":146453},"geometry":{"x":165902.23000000138,"y":2558656.7799999993}},{"attributes":{"ID":146454,"DIS_CODE":0,"TOWNNAME":"西港區","LI":"劉厝里","LIN":"13鄰","STREET":" ","SECT":" ","MAREA":"劉厝","LANE":" ","ALLEY":" ","HOUSE_NO":"１３６號","E_COORD97":165621.76999999999,"N_COORD97":2558932.4700000002,"ADDRESS":"劉厝１３６號","OBJECTID":146454},"geometry":{"x":165621.76999999955,"y":2558932.4699999988}},{"attributes":{"ID":146455,"DIS_CODE":0,"TOWNNAME":"西港區","LI":"劉厝里","LIN":"14鄰","STREET":" ","SECT":" ","MAREA":"劉厝","LANE":" ","ALLEY":" ","HOUSE_NO":"１１５號","E_COORD97":165462.94,"N_COORD97":2558747.4399999999,"ADDRESS":"劉厝１１５號","OBJECTID":146455},"geometry":{"x":165462.94000000227,"y":2558747.4399999995}},{"attributes":{"ID":146456,"DIS_CODE":0,"TOWNNAME":"玉井區","LI":"玉田里","LIN":"30鄰","STREET":"仁愛街","SECT":" ","MAREA":" ","LANE":" ","ALLEY":" ","HOUSE_NO":"１１號","E_COORD97":195497.23000000001,"N_COORD97":2557619.2799999998,"ADDRESS":"仁愛街１１號","OBJECTID":146456},"geometry":{"x":195497.23000000045,"y":2557619.2799999993}},{"attributes":{"ID":146457,"DIS_CODE":0,"TOWNNAME":"西港區","LI":"劉厝里","LIN":"14鄰","STREET":" ","SECT":" ","MAREA":"劉厝","LANE":" ","ALLEY":" ","HOUSE_NO":"１１８號之１","E_COORD97":165573.53,"N_COORD97":2558734.5800000001,"ADDRESS":"劉厝１１８號之１","OBJECTID":146457},"geometry":{"x":165573.53000000026,"y":2558734.5800000038}},{"attributes":{"ID":146458,"DIS_CODE":0,"TOWNNAME":"西港區","LI":"劉厝里","LIN":"14鄰","STREET":" ","SECT":" ","MAREA":"劉厝","LANE":" ","ALLEY":" ","HOUSE_NO":"１１８號","E_COORD97":165562.17000000001,"N_COORD97":2558760.6099999999,"ADDRESS":"劉厝１１８號","OBJECTID":146458},"geometry":{"x":165562.16999999993,"y":2558760.6099999975}},{"attributes":{"ID":146459,"DIS_CODE":0,"TOWNNAME":"西港區","LI":"劉厝里","LIN":"8鄰","STREET":" ","SECT":" ","MAREA":"劉厝","LANE":" ","ALLEY":" ","HOUSE_NO":"５０號之１","E_COORD97":165850.20999999999,"N_COORD97":2558706.4199999999,"ADDRESS":"劉厝５０號之１","OBJECTID":146459},"geometry":{"x":165850.20999999996,"y":2558706.4200000018}},{"attributes":{"ID":146460,"DIS_CODE":0,"TOWNNAME":"西港區","LI":"劉厝里","LIN":"8鄰","STREET":" ","SECT":" ","MAREA":"劉厝","LANE":" ","ALLEY":" ","HOUSE_NO":"５０號之３","E_COORD97":165874.04000000001,"N_COORD97":2558710.6400000001,"ADDRESS":"劉厝５０號之３","OBJECTID":146460},"geometry":{"x":165874.04000000097,"y":2558710.6400000006}},{"attributes":{"ID":146461,"DIS_CODE":0,"TOWNNAME":"玉井區","LI":"玉田里","LIN":"30鄰","STREET":"仁愛街","SECT":" ","MAREA":" ","LANE":" ","ALLEY":" ","HOUSE_NO":"１３號","E_COORD97":195494.53,"N_COORD97":2557622.2799999998,"ADDRESS":"仁愛街１３號","OBJECTID":146461},"geometry":{"x":195494.53000000119,"y":2557622.2799999993}},{"attributes":{"ID":146462,"DIS_CODE":0,"TOWNNAME":"西港區","LI":"劉厝里","LIN":"8鄰","STREET":" ","SECT":" ","MAREA":"劉厝","LANE":" ","ALLEY":" ","HOUSE_NO":"５０號之４","E_COORD97":165881.10999999999,"N_COORD97":2558712.48,"ADDRESS":"劉厝５０號之４","OBJECTID":146462},"geometry":{"x":165881.11000000127,"y":2558712.4800000023}},{"attributes":{"ID":146463,"DIS_CODE":0,"TOWNNAME":"玉井區","LI":"玉田里","LIN":"30鄰","STREET":"仁愛街","SECT":" ","MAREA":" ","LANE":" ","ALLEY":" ","HOUSE_NO":"２８號","E_COORD97":195510.42999999999,"N_COORD97":2557628.2799999998,"ADDRESS":"仁愛街２８號","OBJECTID":146463},"geometry":{"x":195510.4299999997,"y":2557628.2800000012}},{"attributes":{"ID":146464,"DIS_CODE":0,"TOWNNAME":"玉井區","LI":"玉田里","LIN":"30鄰","STREET":"仁愛街","SECT":" ","MAREA":" ","LANE":" ","ALLEY":" ","HOUSE_NO":"２１號","E_COORD97":195482.64000000001,"N_COORD97":2557633.2799999998,"ADDRESS":"仁愛街２１號","OBJECTID":146464},"geometry":{"x":195482.64000000153,"y":2557633.2799999993}},{"attributes":{"ID":146465,"DIS_CODE":0,"TOWNNAME":"北區","LI":"力行里","LIN":"3鄰","STREET":"開南街","SECT":" ","MAREA":" ","LANE":"２７５巷","ALLEY":"３弄","HOUSE_NO":"３２號","E_COORD97":170879.26999999999,"N_COORD97":2545008.8900000001,"ADDRESS":"開南街２７５巷３弄３２號","OBJECTID":146465},"geometry":{"x":170879.27000000142,"y":2545008.8900000043}},{"attributes":{"ID":146466,"DIS_CODE":0,"TOWNNAME":"北區","LI":"力行里","LIN":"3鄰","STREET":"開南街","SECT":" ","MAREA":" ","LANE":"２７５巷","ALLEY":"３弄","HOUSE_NO":"３號","E_COORD97":170936.34,"N_COORD97":2544992.0600000001,"ADDRESS":"開南街２７５巷３弄３號","OBJECTID":146466},"geometry":{"x":170936.33999999985,"y":2544992.0600000024}},{"attributes":{"ID":146467,"DIS_CODE":0,"TOWNNAME":"北區","LI":"力行里","LIN":"3鄰","STREET":"開南街","SECT":" ","MAREA":" ","LANE":"２７５巷","ALLEY":"３弄","HOUSE_NO":"６號","E_COORD97":170934.26999999999,"N_COORD97":2545004.6000000001,"ADDRESS":"開南街２７５巷３弄６號","OBJECTID":146467},"geometry":{"x":170934.27000000048,"y":2545004.6000000015}},{"attributes":{"ID":146468,"DIS_CODE":0,"TOWNNAME":"北區","LI":"力行里","LIN":"3鄰","STREET":"開南街","SECT":" ","MAREA":" ","LANE":"２７５巷","ALLEY":"３弄","HOUSE_NO":"７號","E_COORD97":170928.87,"N_COORD97":2544993.0099999998,"ADDRESS":"開南街２７５巷３弄７號","OBJECTID":146468},"geometry":{"x":170928.87000000104,"y":2544993.0099999998}},{"attributes":{"ID":146469,"DIS_CODE":0,"TOWNNAME":"北區","LI":"力行里","LIN":"3鄰","STREET":"開南街","SECT":" ","MAREA":" ","LANE":"２７５巷","ALLEY":"３弄","HOUSE_NO":"８號","E_COORD97":170929.82000000001,"N_COORD97":2545005.0800000001,"ADDRESS":"開南街２７５巷３弄８號","OBJECTID":146469},"geometry":{"x":170929.8200000003,"y":2545005.0800000019}},{"attributes":{"ID":146470,"DIS_CODE":0,"TOWNNAME":"安平區","LI":"石門里","LIN":"3鄰","STREET":"安北路","SECT":" ","MAREA":" ","LANE":"１６巷","ALLEY":"２５弄","HOUSE_NO":"１０號","E_COORD97":164699.29999999999,"N_COORD97":2544590.5499999998,"ADDRESS":"安北路１６巷２５弄１０號","OBJECTID":146470},"geometry":{"x":164699.30000000075,"y":2544590.5500000007}},{"attributes":{"ID":146471,"DIS_CODE":0,"TOWNNAME":"安平區","LI":"石門里","LIN":"3鄰","STREET":"安北路","SECT":" ","MAREA":" ","LANE":"１６巷","ALLEY":"２５弄","HOUSE_NO":"１１號","E_COORD97":164695.94,"N_COORD97":2544593.3799999999,"ADDRESS":"安北路１６巷２５弄１１號","OBJECTID":146471},"geometry":{"x":164695.94000000041,"y":2544593.3799999971}},{"attributes":{"ID":146472,"DIS_CODE":0,"TOWNNAME":"安平區","LI":"石門里","LIN":"3鄰","STREET":"安北路","SECT":" ","MAREA":" ","LANE":"１６巷","ALLEY":"２５弄","HOUSE_NO":"１２號","E_COORD97":164694.14000000001,"N_COORD97":2544596.2200000002,"ADDRESS":"安北路１６巷２５弄１２號","OBJECTID":146472},"geometry":{"x":164694.13999999966,"y":2544596.2199999988}},{"attributes":{"ID":146473,"DIS_CODE":0,"TOWNNAME":"安平區","LI":"石門里","LIN":"3鄰","STREET":"安北路","SECT":" ","MAREA":" ","LANE":"１６巷","ALLEY":"２５弄","HOUSE_NO":"１３號","E_COORD97":164691.04000000001,"N_COORD97":2544598.79,"ADDRESS":"安北路１６巷２５弄１３號","OBJECTID":146473},"geometry":{"x":164691.04000000097,"y":2544598.790000001}},{"attributes":{"ID":146474,"DIS_CODE":0,"TOWNNAME":"安平區","LI":"石門里","LIN":"3鄰","STREET":"安北路","SECT":" ","MAREA":" ","LANE":"１６巷","ALLEY":"２５弄","HOUSE_NO":"１４號","E_COORD97":164688.72,"N_COORD97":2544601.6299999999,"ADDRESS":"安北路１６巷２５弄１４號","OBJECTID":146474},"geometry":{"x":164688.71999999974,"y":2544601.629999999}},{"attributes":{"ID":146475,"DIS_CODE":0,"TOWNNAME":"玉井區","LI":"玉田里","LIN":"30鄰","STREET":"仁愛街","SECT":" ","MAREA":" ","LANE":" ","ALLEY":" ","HOUSE_NO":"３號","E_COORD97":195516.59,"N_COORD97":2557599.2799999998,"ADDRESS":"仁愛街３號","OBJECTID":146475},"geometry":{"x":195516.58999999985,"y":2557599.2799999993}},{"attributes":{"ID":146476,"DIS_CODE":0,"TOWNNAME":"西港區","LI":"劉厝里","LIN":"8鄰","STREET":" ","SECT":" ","MAREA":"劉厝","LANE":" ","ALLEY":" ","HOUSE_NO":"５１號之１","E_COORD97":165889.51000000001,"N_COORD97":2558760.3999999999,"ADDRESS":"劉厝５１號之１","OBJECTID":146476},"geometry":{"x":165889.51000000071,"y":2558760.4000000022}},{"attributes":{"ID":146477,"DIS_CODE":0,"TOWNNAME":"西港區","LI":"劉厝里","LIN":"8鄰","STREET":" ","SECT":" ","MAREA":"劉厝","LANE":" ","ALLEY":" ","HOUSE_NO":"５１號之２","E_COORD97":165881.69,"N_COORD97":2558759.1800000002,"ADDRESS":"劉厝５１號之２","OBJECTID":146477},"geometry":{"x":165881.69000000227,"y":2558759.1799999997}},{"attributes":{"ID":146478,"DIS_CODE":0,"TOWNNAME":"西港區","LI":"劉厝里","LIN":"8鄰","STREET":" ","SECT":" ","MAREA":"劉厝","LANE":" ","ALLEY":" ","HOUSE_NO":"５１號之３","E_COORD97":165852.45999999999,"N_COORD97":2558757.4500000002,"ADDRESS":"劉厝５１號之３","OBJECTID":146478},"geometry":{"x":165852.46000000089,"y":2558757.4499999993}},{"attributes":{"ID":146479,"DIS_CODE":0,"TOWNNAME":"西港區","LI":"劉厝里","LIN":"8鄰","STREET":" ","SECT":" ","MAREA":"劉厝","LANE":" ","ALLEY":" ","HOUSE_NO":"５２號","E_COORD97":165892.07000000001,"N_COORD97":2558720.8199999998,"ADDRESS":"劉厝５２號","OBJECTID":146479},"geometry":{"x":165892.0700000003,"y":2558720.8200000022}},{"attributes":{"ID":146480,"DIS_CODE":0,"TOWNNAME":"西港區","LI":"劉厝里","LIN":"8鄰","STREET":" ","SECT":" ","MAREA":"劉厝","LANE":" ","ALLEY":" ","HOUSE_NO":"５４號","E_COORD97":165934.14999999999,"N_COORD97":2558734.8900000001,"ADDRESS":"劉厝５４號","OBJECTID":146480},"geometry":{"x":165934.15000000037,"y":2558734.8900000006}},{"attributes":{"ID":146481,"DIS_CODE":0,"TOWNNAME":"西港區","LI":"劉厝里","LIN":"8鄰","STREET":" ","SECT":" ","MAREA":"劉厝","LANE":" ","ALLEY":" ","HOUSE_NO":"５５號","E_COORD97":165902.53,"N_COORD97":2558764.6699999999,"ADDRESS":"劉厝５５號","OBJECTID":146481},"geometry":{"x":165902.53000000026,"y":2558764.6700000018}},{"attributes":{"ID":146482,"DIS_CODE":0,"TOWNNAME":"西港區","LI":"劉厝里","LIN":"8鄰","STREET":" ","SECT":" ","MAREA":"劉厝","LANE":" ","ALLEY":" ","HOUSE_NO":"５６號","E_COORD97":165945.64999999999,"N_COORD97":2558768.1099999999,"ADDRESS":"劉厝５６號","OBJECTID":146482},"geometry":{"x":165945.65000000037,"y":2558768.1100000013}},{"attributes":{"ID":146483,"DIS_CODE":0,"TOWNNAME":"西港區","LI":"劉厝里","LIN":"8鄰","STREET":" ","SECT":" ","MAREA":"劉厝","LANE":" ","ALLEY":" ","HOUSE_NO":"５７號","E_COORD97":165951.42000000001,"N_COORD97":2558748.1800000002,"ADDRESS":"劉厝５７號","OBJECTID":146483},"geometry":{"x":165951.42000000086,"y":2558748.1800000016}},{"attributes":{"ID":146484,"DIS_CODE":0,"TOWNNAME":"白河區","LI":"關嶺里","LIN":"6鄰","STREET":" ","SECT":" ","MAREA":"關子嶺","LANE":" ","ALLEY":" ","HOUSE_NO":"１１２之１號","E_COORD97":198175.01000000001,"N_COORD97":2580961.3300000001,"ADDRESS":"關子嶺１１２之１號","OBJECTID":146484},"geometry":{"x":198175.00999999978,"y":2580961.3300000019}},{"attributes":{"ID":146485,"DIS_CODE":0,"TOWNNAME":"白河區","LI":"關嶺里","LIN":"6鄰","STREET":" ","SECT":" ","MAREA":"關子嶺","LANE":" ","ALLEY":" ","HOUSE_NO":"１１２號","E_COORD97":198180.32000000001,"N_COORD97":2580980.8599999999,"ADDRESS":"關子嶺１１２號","OBJECTID":146485},"geometry":{"x":198180.3200000003,"y":2580980.8600000013}},{"attributes":{"ID":146486,"DIS_CODE":0,"TOWNNAME":"白河區","LI":"關嶺里","LIN":"6鄰","STREET":" ","SECT":" ","MAREA":"關子嶺","LANE":" ","ALLEY":" ","HOUSE_NO":"１１３號","E_COORD97":198155.32999999999,"N_COORD97":2581003.6499999999,"ADDRESS":"關子嶺１１３號","OBJECTID":146486},"geometry":{"x":198155.33000000101,"y":2581003.6500000022}},{"attributes":{"ID":146487,"DIS_CODE":0,"TOWNNAME":"安平區","LI":"石門里","LIN":"3鄰","STREET":"安北路","SECT":" ","MAREA":" ","LANE":"１６巷","ALLEY":"２５弄","HOUSE_NO":"１７號","E_COORD97":164680.72,"N_COORD97":2544609.1000000001,"ADDRESS":"安北路１６巷２５弄１７號","OBJECTID":146487},"geometry":{"x":164680.72000000067,"y":2544609.0999999996}},{"attributes":{"ID":146488,"DIS_CODE":0,"TOWNNAME":"安平區","LI":"石門里","LIN":"3鄰","STREET":"安北路","SECT":" ","MAREA":" ","LANE":"１６巷","ALLEY":"２５弄","HOUSE_NO":"１８號","E_COORD97":164677.89000000001,"N_COORD97":2544611.6699999999,"ADDRESS":"安北路１６巷２５弄１８號","OBJECTID":146488},"geometry":{"x":164677.8900000006,"y":2544611.6699999999}},{"attributes":{"ID":146489,"DIS_CODE":0,"TOWNNAME":"安平區","LI":"石門里","LIN":"3鄰","STREET":"安北路","SECT":" ","MAREA":" ","LANE":"１６巷","ALLEY":"２５弄","HOUSE_NO":"１號","E_COORD97":164728.67000000001,"N_COORD97":2544560.23,"ADDRESS":"安北路１６巷２５弄１號","OBJECTID":146489},"geometry":{"x":164728.67000000086,"y":2544560.2300000023}},{"attributes":{"ID":146490,"DIS_CODE":0,"TOWNNAME":"安平區","LI":"石門里","LIN":"3鄰","STREET":"安北路","SECT":" ","MAREA":" ","LANE":"１６巷","ALLEY":"２５弄","HOUSE_NO":"２０號","E_COORD97":164666.59,"N_COORD97":2544622.29,"ADDRESS":"安北路１６巷２５弄２０號","OBJECTID":146490},"geometry":{"x":164666.59000000078,"y":2544622.290000001}},{"attributes":{"ID":146491,"DIS_CODE":0,"TOWNNAME":"安平區","LI":"石門里","LIN":"3鄰","STREET":"安北路","SECT":" ","MAREA":" ","LANE":"１６巷","ALLEY":"２５弄","HOUSE_NO":"２１號","E_COORD97":164663.75,"N_COORD97":2544625.1299999999,"ADDRESS":"安北路１６巷２５弄２１號","OBJECTID":146491},"geometry":{"x":164663.75000000093,"y":2544625.129999999}},{"attributes":{"ID":146492,"DIS_CODE":0,"TOWNNAME":"安平區","LI":"石門里","LIN":"3鄰","STREET":"安北路","SECT":" ","MAREA":" ","LANE":"１６巷","ALLEY":"２５弄","HOUSE_NO":"２２號","E_COORD97":164660.66,"N_COORD97":2544627.7000000002,"ADDRESS":"安北路１６巷２５弄２２號","OBJECTID":146492},"geometry":{"x":164660.66000000015,"y":2544627.6999999993}},{"attributes":{"ID":146493,"DIS_CODE":0,"TOWNNAME":"安平區","LI":"石門里","LIN":"3鄰","STREET":"安北路","SECT":" ","MAREA":" ","LANE":"１６巷","ALLEY":"２５弄","HOUSE_NO":"２３號","E_COORD97":164658.32999999999,"N_COORD97":2544631.0499999998,"ADDRESS":"安北路１６巷２５弄２３號","OBJECTID":146493},"geometry":{"x":164658.33000000101,"y":2544631.0500000007}},{"attributes":{"ID":146494,"DIS_CODE":0,"TOWNNAME":"安平區","LI":"石門里","LIN":"3鄰","STREET":"安北路","SECT":" ","MAREA":" ","LANE":"１６巷","ALLEY":"２５弄","HOUSE_NO":"２４號","E_COORD97":164654.98000000001,"N_COORD97":2544633.6299999999,"ADDRESS":"安北路１６巷２５弄２４號","OBJECTID":146494},"geometry":{"x":164654.98000000045,"y":2544633.6300000008}},{"attributes":{"ID":146495,"DIS_CODE":0,"TOWNNAME":"安平區","LI":"石門里","LIN":"3鄰","STREET":"安北路","SECT":" ","MAREA":" ","LANE":"１６巷","ALLEY":"２５弄","HOUSE_NO":"２５號","E_COORD97":164653.42999999999,"N_COORD97":2544636.2000000002,"ADDRESS":"安北路１６巷２５弄２５號","OBJECTID":146495},"geometry":{"x":164653.42999999877,"y":2544636.2000000011}},{"attributes":{"ID":146496,"DIS_CODE":0,"TOWNNAME":"安平區","LI":"石門里","LIN":"3鄰","STREET":"安北路","SECT":" ","MAREA":" ","LANE":"１６巷","ALLEY":"２５弄","HOUSE_NO":"２７號","E_COORD97":164647.23999999999,"N_COORD97":2544642.1299999999,"ADDRESS":"安北路１６巷２５弄２７號","OBJECTID":146496},"geometry":{"x":164647.24000000115,"y":2544642.129999999}},{"attributes":{"ID":146497,"DIS_CODE":0,"TOWNNAME":"安平區","LI":"石門里","LIN":"3鄰","STREET":"安北路","SECT":" ","MAREA":" ","LANE":"１６巷","ALLEY":"２５弄","HOUSE_NO":"２號","E_COORD97":164726.35000000001,"N_COORD97":2544563.3199999998,"ADDRESS":"安北路１６巷２５弄２號","OBJECTID":146497},"geometry":{"x":164726.34999999963,"y":2544563.3200000003}},{"attributes":{"ID":146498,"DIS_CODE":0,"TOWNNAME":"安平區","LI":"石門里","LIN":"3鄰","STREET":"安北路","SECT":" ","MAREA":" ","LANE":"１６巷","ALLEY":"２５弄","HOUSE_NO":"３號","E_COORD97":164723,"N_COORD97":2544565.8999999999,"ADDRESS":"安北路１６巷２５弄３號","OBJECTID":146498},"geometry":{"x":164723.00000000186,"y":2544565.9000000022}},{"attributes":{"ID":146499,"DIS_CODE":0,"TOWNNAME":"白河區","LI":"關嶺里","LIN":"6鄰","STREET":" ","SECT":" ","MAREA":"關子嶺","LANE":" ","ALLEY":" ","HOUSE_NO":"１１４號","E_COORD97":198149.48999999999,"N_COORD97":2580973.9700000002,"ADDRESS":"關子嶺１１４號","OBJECTID":146499},"geometry":{"x":198149.49000000115,"y":2580973.9700000025}},{"attributes":{"ID":146500,"DIS_CODE":0,"TOWNNAME":"白河區","LI":"關嶺里","LIN":"6鄰","STREET":" ","SECT":" ","MAREA":"關子嶺","LANE":" ","ALLEY":" ","HOUSE_NO":"１１５號","E_COORD97":198150.14999999999,"N_COORD97":2580949.9399999999,"ADDRESS":"關子嶺１１５號","OBJECTID":146500},"geometry":{"x":198150.1500000013,"y":2580949.9400000013}},{"attributes":{"ID":146501,"DIS_CODE":0,"TOWNNAME":"白河區","LI":"關嶺里","LIN":"6鄰","STREET":" ","SECT":" ","MAREA":"關子嶺","LANE":" ","ALLEY":" ","HOUSE_NO":"１１６號","E_COORD97":198169.04000000001,"N_COORD97":2580942.6499999999,"ADDRESS":"關子嶺１１６號","OBJECTID":146501},"geometry":{"x":198169.04000000097,"y":2580942.6500000022}},{"attributes":{"ID":146502,"DIS_CODE":0,"TOWNNAME":"白河區","LI":"關嶺里","LIN":"6鄰","STREET":" ","SECT":" ","MAREA":"關子嶺","LANE":" ","ALLEY":" ","HOUSE_NO":"１１７號","E_COORD97":198158.92999999999,"N_COORD97":2580912.0899999999,"ADDRESS":"關子嶺１１７號","OBJECTID":146502},"geometry":{"x":198158.93000000156,"y":2580912.0900000017}},{"attributes":{"ID":146503,"DIS_CODE":0,"TOWNNAME":"白河區","LI":"關嶺里","LIN":"6鄰","STREET":" ","SECT":" ","MAREA":"關子嶺","LANE":" ","ALLEY":" ","HOUSE_NO":"１１８號","E_COORD97":198133.84,"N_COORD97":2580942.25,"ADDRESS":"關子嶺１１８號","OBJECTID":146503},"geometry":{"x":198133.83999999985,"y":2580942.25}},{"attributes":{"ID":146504,"DIS_CODE":0,"TOWNNAME":"白河區","LI":"關嶺里","LIN":"6鄰","STREET":" ","SECT":" ","MAREA":"關子嶺","LANE":" ","ALLEY":" ","HOUSE_NO":"１１９號","E_COORD97":198139.16,"N_COORD97":2580955.7599999998,"ADDRESS":"關子嶺１１９號","OBJECTID":146504},"geometry":{"x":198139.15999999922,"y":2580955.7599999998}},{"attributes":{"ID":146505,"DIS_CODE":0,"TOWNNAME":"西港區","LI":"西港里","LIN":"30鄰","STREET":" ","SECT":" ","MAREA":"堀子頭","LANE":" ","ALLEY":" ","HOUSE_NO":"１８２號","E_COORD97":168741.89000000001,"N_COORD97":2557436.73,"ADDRESS":"堀子頭１８２號","OBJECTID":146505},"geometry":{"x":168741.88999999966,"y":2557436.7300000023}},{"attributes":{"ID":146506,"DIS_CODE":0,"TOWNNAME":"西港區","LI":"西港里","LIN":"30鄰","STREET":" ","SECT":" ","MAREA":"堀子頭","LANE":" ","ALLEY":" ","HOUSE_NO":"１８３號","E_COORD97":168746.12,"N_COORD97":2557437.0600000001,"ADDRESS":"堀子頭１８３號","OBJECTID":146506},"geometry":{"x":168746.12000000011,"y":2557437.0600000024}},{"attributes":{"ID":146507,"DIS_CODE":0,"TOWNNAME":"西港區","LI":"西港里","LIN":"30鄰","STREET":" ","SECT":" ","MAREA":"堀子頭","LANE":" ","ALLEY":" ","HOUSE_NO":"１８４號","E_COORD97":168750.19,"N_COORD97":2557438.04,"ADDRESS":"堀子頭１８４號","OBJECTID":146507},"geometry":{"x":168750.19000000134,"y":2557438.0399999991}},{"attributes":{"ID":146508,"DIS_CODE":0,"TOWNNAME":"西港區","LI":"西港里","LIN":"30鄰","STREET":" ","SECT":" ","MAREA":"堀子頭","LANE":" ","ALLEY":" ","HOUSE_NO":"１８５號","E_COORD97":168753.98000000001,"N_COORD97":2557438.5499999998,"ADDRESS":"堀子頭１８５號","OBJECTID":146508},"geometry":{"x":168753.98000000045,"y":2557438.5500000026}},{"attributes":{"ID":146509,"DIS_CODE":0,"TOWNNAME":"西港區","LI":"西港里","LIN":"30鄰","STREET":" ","SECT":" ","MAREA":"堀子頭","LANE":" ","ALLEY":" ","HOUSE_NO":"１８６號","E_COORD97":168758.39000000001,"N_COORD97":2557438.6800000002,"ADDRESS":"堀子頭１８６號","OBJECTID":146509},"geometry":{"x":168758.3900000006,"y":2557438.6800000034}},{"attributes":{"ID":146510,"DIS_CODE":0,"TOWNNAME":"西港區","LI":"西港里","LIN":"30鄰","STREET":" ","SECT":" ","MAREA":"堀子頭","LANE":" ","ALLEY":" ","HOUSE_NO":"１８７號","E_COORD97":168762.88,"N_COORD97":2557439.1800000002,"ADDRESS":"堀子頭１８７號","OBJECTID":146510},"geometry":{"x":168762.87999999989,"y":2557439.1800000016}},{"attributes":{"ID":146511,"DIS_CODE":0,"TOWNNAME":"西港區","LI":"西港里","LIN":"30鄰","STREET":" ","SECT":" ","MAREA":"堀子頭","LANE":" ","ALLEY":" ","HOUSE_NO":"１８９號","E_COORD97":168720.64000000001,"N_COORD97":2557411.8199999998,"ADDRESS":"堀子頭１８９號","OBJECTID":146511},"geometry":{"x":168720.64000000153,"y":2557411.8200000022}},{"attributes":{"ID":146512,"DIS_CODE":0,"TOWNNAME":"西港區","LI":"西港里","LIN":"30鄰","STREET":" ","SECT":" ","MAREA":"堀子頭","LANE":" ","ALLEY":" ","HOUSE_NO":"１９０號","E_COORD97":168728.64000000001,"N_COORD97":2557412.6099999999,"ADDRESS":"堀子頭１９０號","OBJECTID":146512},"geometry":{"x":168728.63999999966,"y":2557412.6100000013}},{"attributes":{"ID":146513,"DIS_CODE":0,"TOWNNAME":"西港區","LI":"西港里","LIN":"30鄰","STREET":" ","SECT":" ","MAREA":"堀子頭","LANE":" ","ALLEY":" ","HOUSE_NO":"１９１號","E_COORD97":168734.88,"N_COORD97":2557413.3799999999,"ADDRESS":"堀子頭１９１號","OBJECTID":146513},"geometry":{"x":168734.88000000082,"y":2557413.3800000008}},{"attributes":{"ID":146514,"DIS_CODE":0,"TOWNNAME":"西港區","LI":"西港里","LIN":"30鄰","STREET":" ","SECT":" ","MAREA":"堀子頭","LANE":" ","ALLEY":" ","HOUSE_NO":"１９２號","E_COORD97":168742.89999999999,"N_COORD97":2557413.8999999999,"ADDRESS":"堀子頭１９２號","OBJECTID":146514},"geometry":{"x":168742.90000000037,"y":2557413.9000000041}},{"attributes":{"ID":146515,"DIS_CODE":0,"TOWNNAME":"西港區","LI":"西港里","LIN":"30鄰","STREET":" ","SECT":" ","MAREA":"堀子頭","LANE":" ","ALLEY":" ","HOUSE_NO":"１９３號","E_COORD97":168753.17999999999,"N_COORD97":2557414.75,"ADDRESS":"堀子頭１９３號","OBJECTID":146515},"geometry":{"x":168753.18000000063,"y":2557414.7500000037}},{"attributes":{"ID":146516,"DIS_CODE":0,"TOWNNAME":"白河區","LI":"河東里","LIN":"1鄰","STREET":" ","SECT":" ","MAREA":"糞箕湖","LANE":" ","ALLEY":" ","HOUSE_NO":"７號","E_COORD97":192241.53,"N_COORD97":2582260.9399999999,"ADDRESS":"糞箕湖７號","OBJECTID":146516},"geometry":{"x":192241.53000000119,"y":2582260.9400000032}},{"attributes":{"ID":146517,"DIS_CODE":0,"TOWNNAME":"新營區","LI":"新南里","LIN":"30鄰","STREET":"秦漢街","SECT":" ","MAREA":" ","LANE":" ","ALLEY":" ","HOUSE_NO":"１５３號","E_COORD97":178302.70999999999,"N_COORD97":2578905.3199999998,"ADDRESS":"秦漢街１５３號","OBJECTID":146517},"geometry":{"x":178302.70999999996,"y":2578905.3200000003}},{"attributes":{"ID":146518,"DIS_CODE":0,"TOWNNAME":"白河區","LI":"河東里","LIN":"6鄰","STREET":" ","SECT":" ","MAREA":"糞箕湖","LANE":" ","ALLEY":" ","HOUSE_NO":"８１之１號","E_COORD97":193002.38,"N_COORD97":2582566.5600000001,"ADDRESS":"糞箕湖８１之１號","OBJECTID":146518},"geometry":{"x":193002.37999999989,"y":2582566.5600000024}},{"attributes":{"ID":146519,"DIS_CODE":0,"TOWNNAME":"安平區","LI":"石門里","LIN":"3鄰","STREET":"安北路","SECT":" ","MAREA":" ","LANE":"１６巷","ALLEY":"２５弄","HOUSE_NO":"４號","E_COORD97":164720.92999999999,"N_COORD97":2544569.25,"ADDRESS":"安北路１６巷２５弄４號","OBJECTID":146519},"geometry":{"x":164720.9299999997,"y":2544569.2500000019}},{"attributes":{"ID":146520,"DIS_CODE":0,"TOWNNAME":"白河區","LI":"河東里","LIN":"6鄰","STREET":" ","SECT":" ","MAREA":"糞箕湖","LANE":" ","ALLEY":" ","HOUSE_NO":"８１之３號","E_COORD97":192849.60999999999,"N_COORD97":2582626.5800000001,"ADDRESS":"糞箕湖８１之３號","OBJECTID":146520},"geometry":{"x":192849.61000000127,"y":2582626.5800000038}},{"attributes":{"ID":146521,"DIS_CODE":0,"TOWNNAME":"白河區","LI":"河東里","LIN":"6鄰","STREET":" ","SECT":" ","MAREA":"糞箕湖","LANE":" ","ALLEY":" ","HOUSE_NO":"８１之６號","E_COORD97":192968.92999999999,"N_COORD97":2582588.7799999998,"ADDRESS":"糞箕湖８１之６號","OBJECTID":146521},"geometry":{"x":192968.93000000063,"y":2582588.7800000012}},{"attributes":{"ID":146522,"DIS_CODE":0,"TOWNNAME":"安平區","LI":"石門里","LIN":"3鄰","STREET":"安北路","SECT":" ","MAREA":" ","LANE":"１６巷","ALLEY":"２５弄","HOUSE_NO":"５號","E_COORD97":164717.84,"N_COORD97":2544571.5699999998,"ADDRESS":"安北路１６巷２５弄５號","OBJECTID":146522},"geometry":{"x":164717.84000000078,"y":2544571.5700000022}},{"attributes":{"ID":146523,"DIS_CODE":0,"TOWNNAME":"白河區","LI":"河東里","LIN":"6鄰","STREET":" ","SECT":" ","MAREA":"糞箕湖","LANE":" ","ALLEY":" ","HOUSE_NO":"８１之８號","E_COORD97":193196.16,"N_COORD97":2582807.5600000001,"ADDRESS":"糞箕湖８１之８號","OBJECTID":146523},"geometry":{"x":193196.16000000201,"y":2582807.5600000024}},{"attributes":{"ID":146524,"DIS_CODE":0,"TOWNNAME":"白河區","LI":"河東里","LIN":"6鄰","STREET":" ","SECT":" ","MAREA":"糞箕湖","LANE":" ","ALLEY":" ","HOUSE_NO":"８１之９號","E_COORD97":193215.39000000001,"N_COORD97":2582824.4199999999,"ADDRESS":"糞箕湖８１之９號","OBJECTID":146524},"geometry":{"x":193215.38999999966,"y":2582824.4200000037}},{"attributes":{"ID":146525,"DIS_CODE":0,"TOWNNAME":"安平區","LI":"石門里","LIN":"3鄰","STREET":"安北路","SECT":" ","MAREA":" ","LANE":"１６巷","ALLEY":"２５弄","HOUSE_NO":"６號","E_COORD97":164715.26000000001,"N_COORD97":2544574.3999999999,"ADDRESS":"安北路１６巷２５弄６號","OBJECTID":146525},"geometry":{"x":164715.25999999978,"y":2544574.3999999985}},{"attributes":{"ID":146526,"DIS_CODE":0,"TOWNNAME":"白河區","LI":"河東里","LIN":"6鄰","STREET":" ","SECT":" ","MAREA":"糞箕湖","LANE":" ","ALLEY":" ","HOUSE_NO":"８１號","E_COORD97":193007.82000000001,"N_COORD97":2582578.79,"ADDRESS":"糞箕湖８１號","OBJECTID":146526},"geometry":{"x":193007.82000000123,"y":2582578.7899999991}},{"attributes":{"ID":146527,"DIS_CODE":0,"TOWNNAME":"白河區","LI":"河東里","LIN":"6鄰","STREET":" ","SECT":" ","MAREA":"糞箕湖","LANE":" ","ALLEY":" ","HOUSE_NO":"８２之１號","E_COORD97":192778.84,"N_COORD97":2582642.3900000001,"ADDRESS":"糞箕湖８２之１號","OBJECTID":146527},"geometry":{"x":192778.83999999985,"y":2582642.3900000025}},{"attributes":{"ID":146528,"DIS_CODE":0,"TOWNNAME":"安平區","LI":"石門里","LIN":"3鄰","STREET":"安北路","SECT":" ","MAREA":" ","LANE":"１６巷","ALLEY":"２５弄","HOUSE_NO":"７號","E_COORD97":164712.42000000001,"N_COORD97":2544576.21,"ADDRESS":"安北路１６巷２５弄７號","OBJECTID":146528},"geometry":{"x":164712.41999999993,"y":2544576.209999999}},{"attributes":{"ID":146529,"DIS_CODE":0,"TOWNNAME":"白河區","LI":"河東里","LIN":"6鄰","STREET":" ","SECT":" ","MAREA":"糞箕湖","LANE":" ","ALLEY":" ","HOUSE_NO":"８２之４號","E_COORD97":192871.98999999999,"N_COORD97":2582754.6200000001,"ADDRESS":"糞箕湖８２之４號","OBJECTID":146529},"geometry":{"x":192871.99000000115,"y":2582754.620000001}},{"attributes":{"ID":146530,"DIS_CODE":0,"TOWNNAME":"安平區","LI":"石門里","LIN":"3鄰","STREET":"安北路","SECT":" ","MAREA":" ","LANE":"１６巷","ALLEY":"２５弄","HOUSE_NO":"８號","E_COORD97":164709.57999999999,"N_COORD97":2544579.04,"ADDRESS":"安北路１６巷２５弄８號","OBJECTID":146530},"geometry":{"x":164709.58000000101,"y":2544579.0400000028}},{"attributes":{"ID":146531,"DIS_CODE":0,"TOWNNAME":"白河區","LI":"河東里","LIN":"6鄰","STREET":" ","SECT":" ","MAREA":"糞箕湖","LANE":" ","ALLEY":" ","HOUSE_NO":"８２之６號","E_COORD97":192881.73999999999,"N_COORD97":2582903.3399999999,"ADDRESS":"糞箕湖８２之６號","OBJECTID":146531},"geometry":{"x":192881.74000000022,"y":2582903.3400000017}},{"attributes":{"ID":146532,"DIS_CODE":0,"TOWNNAME":"白河區","LI":"河東里","LIN":"6鄰","STREET":" ","SECT":" ","MAREA":"糞箕湖","LANE":" ","ALLEY":" ","HOUSE_NO":"８２號","E_COORD97":192564.45000000001,"N_COORD97":2582725.1400000001,"ADDRESS":"糞箕湖８２號","OBJECTID":146532},"geometry":{"x":192564.45000000019,"y":2582725.1400000043}},{"attributes":{"ID":146533,"DIS_CODE":0,"TOWNNAME":"安平區","LI":"石門里","LIN":"3鄰","STREET":"安北路","SECT":" ","MAREA":" ","LANE":"１６巷","ALLEY":"２５弄","HOUSE_NO":"９號","E_COORD97":164707.26000000001,"N_COORD97":2544581.6200000001,"ADDRESS":"安北路１６巷２５弄９號","OBJECTID":146533},"geometry":{"x":164707.25999999885,"y":2544581.6200000029}},{"attributes":{"ID":146534,"DIS_CODE":0,"TOWNNAME":"安平區","LI":"海頭里","LIN":"3鄰","STREET":"安北路","SECT":" ","MAREA":" ","LANE":"１２１巷","ALLEY":"１５弄","HOUSE_NO":"２之１號","E_COORD97":164234.48000000001,"N_COORD97":2544733.79,"ADDRESS":"安北路１２１巷１５弄２之１號","OBJECTID":146534},"geometry":{"x":164234.48000000045,"y":2544733.790000001}},{"attributes":{"ID":146535,"DIS_CODE":0,"TOWNNAME":"白河區","LI":"河東里","LIN":"6鄰","STREET":" ","SECT":" ","MAREA":"糞箕湖","LANE":" ","ALLEY":" ","HOUSE_NO":"８４之１號","E_COORD97":192506.92000000001,"N_COORD97":2582707.0099999998,"ADDRESS":"糞箕湖８４之１號","OBJECTID":146535},"geometry":{"x":192506.91999999993,"y":2582707.0099999998}},{"attributes":{"ID":146536,"DIS_CODE":0,"TOWNNAME":"白河區","LI":"河東里","LIN":"6鄰","STREET":" ","SECT":" ","MAREA":"糞箕湖","LANE":" ","ALLEY":" ","HOUSE_NO":"８４之２號","E_COORD97":192527.84,"N_COORD97":2582696.0099999998,"ADDRESS":"糞箕湖８４之２號","OBJECTID":146536},"geometry":{"x":192527.83999999985,"y":2582696.0100000016}},{"attributes":{"ID":146537,"DIS_CODE":0,"TOWNNAME":"白河區","LI":"河東里","LIN":"6鄰","STREET":" ","SECT":" ","MAREA":"糞箕湖","LANE":" ","ALLEY":" ","HOUSE_NO":"８４之３號","E_COORD97":192480.67999999999,"N_COORD97":2582723.0299999998,"ADDRESS":"糞箕湖８４之３號","OBJECTID":146537},"geometry":{"x":192480.68000000063,"y":2582723.0299999993}},{"attributes":{"ID":146538,"DIS_CODE":0,"TOWNNAME":"白河區","LI":"關嶺里","LIN":"4鄰","STREET":" ","SECT":" ","MAREA":"關子嶺","LANE":" ","ALLEY":" ","HOUSE_NO":"７１號","E_COORD97":199145.82999999999,"N_COORD97":2581272.4900000002,"ADDRESS":"關子嶺７１號","OBJECTID":146538},"geometry":{"x":199145.83000000007,"y":2581272.4900000021}},{"attributes":{"ID":146539,"DIS_CODE":0,"TOWNNAME":"白河區","LI":"關嶺里","LIN":"4鄰","STREET":" ","SECT":" ","MAREA":"關子嶺","LANE":" ","ALLEY":" ","HOUSE_NO":"７０之１號","E_COORD97":199115.03,"N_COORD97":2581322.77,"ADDRESS":"關子嶺７０之１號","OBJECTID":146539},"geometry":{"x":199115.03000000212,"y":2581322.7700000033}},{"attributes":{"ID":146540,"DIS_CODE":0,"TOWNNAME":"白河區","LI":"關嶺里","LIN":"4鄰","STREET":" ","SECT":" ","MAREA":"關子嶺","LANE":" ","ALLEY":" ","HOUSE_NO":"７０號","E_COORD97":199133.22,"N_COORD97":2581304.2999999998,"ADDRESS":"關子嶺７０號","OBJECTID":146540},"geometry":{"x":199133.21999999974,"y":2581304.3000000026}},{"attributes":{"ID":146541,"DIS_CODE":0,"TOWNNAME":"白河區","LI":"關嶺里","LIN":"4鄰","STREET":" ","SECT":" ","MAREA":"關子嶺","LANE":" ","ALLEY":" ","HOUSE_NO":"７１號之３","E_COORD97":199161.14999999999,"N_COORD97":2581280.8799999999,"ADDRESS":"關子嶺７１號之３","OBJECTID":146541},"geometry":{"x":199161.15000000037,"y":2581280.8800000027}},{"attributes":{"ID":146542,"DIS_CODE":0,"TOWNNAME":"安平區","LI":"海頭里","LIN":"3鄰","STREET":"安北路","SECT":" ","MAREA":" ","LANE":"１２１巷","ALLEY":"１５弄","HOUSE_NO":"２號","E_COORD97":164222.57999999999,"N_COORD97":2544734.4900000002,"ADDRESS":"安北路１２１巷１５弄２號","OBJECTID":146542},"geometry":{"x":164222.58000000101,"y":2544734.4900000021}},{"attributes":{"ID":146543,"DIS_CODE":0,"TOWNNAME":"白河區","LI":"關嶺里","LIN":"4鄰","STREET":" ","SECT":" ","MAREA":"關子嶺","LANE":" ","ALLEY":" ","HOUSE_NO":"７２之１號","E_COORD97":199103.13,"N_COORD97":2581315.52,"ADDRESS":"關子嶺７２之１號","OBJECTID":146543},"geometry":{"x":199103.12999999989,"y":2581315.5200000014}},{"attributes":{"ID":146544,"DIS_CODE":0,"TOWNNAME":"白河區","LI":"關嶺里","LIN":"4鄰","STREET":" ","SECT":" ","MAREA":"關子嶺","LANE":" ","ALLEY":" ","HOUSE_NO":"７２號","E_COORD97":199122.45000000001,"N_COORD97":2581296.9100000001,"ADDRESS":"關子嶺７２號","OBJECTID":146544},"geometry":{"x":199122.45000000112,"y":2581296.910000002}},{"attributes":{"ID":146545,"DIS_CODE":0,"TOWNNAME":"安平區","LI":"海頭里","LIN":"3鄰","STREET":"安北路","SECT":" ","MAREA":" ","LANE":"１２１巷","ALLEY":"１５弄","HOUSE_NO":"３號","E_COORD97":164229.57999999999,"N_COORD97":2544746.1699999999,"ADDRESS":"安北路１２１巷１５弄３號","OBJECTID":146545},"geometry":{"x":164229.58000000101,"y":2544746.1700000018}},{"attributes":{"ID":146546,"DIS_CODE":0,"TOWNNAME":"白河區","LI":"關嶺里","LIN":"4鄰","STREET":" ","SECT":" ","MAREA":"關子嶺","LANE":" ","ALLEY":" ","HOUSE_NO":"７３號","E_COORD97":199094.72,"N_COORD97":2581344.75,"ADDRESS":"關子嶺７３號","OBJECTID":146546},"geometry":{"x":199094.72000000067,"y":2581344.7500000019}},{"attributes":{"ID":146547,"DIS_CODE":0,"TOWNNAME":"白河區","LI":"關嶺里","LIN":"4鄰","STREET":" ","SECT":" ","MAREA":"關子嶺","LANE":" ","ALLEY":" ","HOUSE_NO":"７４號","E_COORD97":199088.70999999999,"N_COORD97":2581339.2400000002,"ADDRESS":"關子嶺７４號","OBJECTID":146547},"geometry":{"x":199088.71000000089,"y":2581339.2400000002}},{"attributes":{"ID":146548,"DIS_CODE":0,"TOWNNAME":"白河區","LI":"關嶺里","LIN":"4鄰","STREET":" ","SECT":" ","MAREA":"關子嶺","LANE":" ","ALLEY":" ","HOUSE_NO":"７５號","E_COORD97":199096.75,"N_COORD97":2581325.7400000002,"ADDRESS":"關子嶺７５號","OBJECTID":146548},"geometry":{"x":199096.75000000093,"y":2581325.7400000002}},{"attributes":{"ID":146549,"DIS_CODE":0,"TOWNNAME":"白河區","LI":"關嶺里","LIN":"4鄰","STREET":" ","SECT":" ","MAREA":"關子嶺","LANE":" ","ALLEY":" ","HOUSE_NO":"７７號","E_COORD97":199068.20999999999,"N_COORD97":2581339.79,"ADDRESS":"關子嶺７７號","OBJECTID":146549},"geometry":{"x":199068.21000000089,"y":2581339.790000001}},{"attributes":{"ID":146550,"DIS_CODE":0,"TOWNNAME":"白河區","LI":"關嶺里","LIN":"4鄰","STREET":" ","SECT":" ","MAREA":"關子嶺","LANE":" ","ALLEY":" ","HOUSE_NO":"７８之１號","E_COORD97":199095.14000000001,"N_COORD97":2581242.1899999999,"ADDRESS":"關子嶺７８之１號","OBJECTID":146550},"geometry":{"x":199095.1400000006,"y":2581242.1900000032}},{"attributes":{"ID":146551,"DIS_CODE":0,"TOWNNAME":"佳里區","LI":"六安里","LIN":" ","STREET":" ","SECT":" ","MAREA":"六安","LANE":" ","ALLEY":" ","HOUSE_NO":"９１號","E_COORD97":165970.82000000001,"N_COORD97":2563345.1000000001,"ADDRESS":"六安９１號","OBJECTID":146551},"geometry":{"x":165970.82000000123,"y":2563345.1000000034}},{"attributes":{"ID":146552,"DIS_CODE":0,"TOWNNAME":"安平區","LI":"海頭里","LIN":"3鄰","STREET":"安北路","SECT":" ","MAREA":" ","LANE":"１２１巷","ALLEY":"１５弄","HOUSE_NO":"５號","E_COORD97":164235.04000000001,"N_COORD97":2544751,"ADDRESS":"安北路１２１巷１５弄５號","OBJECTID":146552},"geometry":{"x":164235.04000000097,"y":2544751.0000000019}},{"attributes":{"ID":146553,"DIS_CODE":0,"TOWNNAME":"白河區","LI":"關嶺里","LIN":"4鄰","STREET":" ","SECT":" ","MAREA":"關子嶺","LANE":" ","ALLEY":" ","HOUSE_NO":"７８之３號","E_COORD97":199090.84,"N_COORD97":2581222.8500000001,"ADDRESS":"關子嶺７８之３號","OBJECTID":146553},"geometry":{"x":199090.84000000078,"y":2581222.8499999996}},{"attributes":{"ID":146554,"DIS_CODE":0,"TOWNNAME":"白河區","LI":"關嶺里","LIN":"4鄰","STREET":" ","SECT":" ","MAREA":"關子嶺","LANE":" ","ALLEY":" ","HOUSE_NO":"７８號","E_COORD97":199096.64999999999,"N_COORD97":2581276.0699999998,"ADDRESS":"關子嶺７８號","OBJECTID":146554},"geometry":{"x":199096.65000000037,"y":2581276.0700000003}},{"attributes":{"ID":146555,"DIS_CODE":0,"TOWNNAME":"白河區","LI":"關嶺里","LIN":"4鄰","STREET":" ","SECT":" ","MAREA":"關子嶺","LANE":" ","ALLEY":" ","HOUSE_NO":"７９號","E_COORD97":199069.70000000001,"N_COORD97":2581265.46,"ADDRESS":"關子嶺７９號","OBJECTID":146555},"geometry":{"x":199069.70000000205,"y":2581265.4600000046}},{"attributes":{"ID":146556,"DIS_CODE":0,"TOWNNAME":"白河區","LI":"關嶺里","LIN":"4鄰","STREET":" ","SECT":" ","MAREA":"關子嶺","LANE":" ","ALLEY":" ","HOUSE_NO":"８０之１號","E_COORD97":199053.76000000001,"N_COORD97":2581312.7599999998,"ADDRESS":"關子嶺８０之１號","OBJECTID":146556},"geometry":{"x":199053.76000000071,"y":2581312.7599999979}},{"attributes":{"ID":146557,"DIS_CODE":0,"TOWNNAME":"安平區","LI":"海頭里","LIN":"3鄰","STREET":"安北路","SECT":" ","MAREA":" ","LANE":"１２１巷","ALLEY":"１５弄","HOUSE_NO":"７號","E_COORD97":164240.70999999999,"N_COORD97":2544745.1200000001,"ADDRESS":"安北路１２１巷１５弄７號","OBJECTID":146557},"geometry":{"x":164240.71000000089,"y":2544745.120000001}},{"attributes":{"ID":146558,"DIS_CODE":0,"TOWNNAME":"白河區","LI":"關嶺里","LIN":"4鄰","STREET":" ","SECT":" ","MAREA":"關子嶺","LANE":" ","ALLEY":" ","HOUSE_NO":"８０之２號","E_COORD97":199078.26999999999,"N_COORD97":2581287.8300000001,"ADDRESS":"關子嶺８０之２號","OBJECTID":146558},"geometry":{"x":199078.26999999955,"y":2581287.8300000001}},{"attributes":{"ID":146559,"DIS_CODE":0,"TOWNNAME":"安平區","LI":"西門里","LIN":"3鄰","STREET":"安平路","SECT":" ","MAREA":" ","LANE":"８５０巷","ALLEY":"４弄","HOUSE_NO":"１０號","E_COORD97":163805.85999999999,"N_COORD97":2544619.23,"ADDRESS":"安平路８５０巷４弄１０號","OBJECTID":146559},"geometry":{"x":163805.86000000127,"y":2544619.2300000004}},{"attributes":{"ID":146560,"DIS_CODE":0,"TOWNNAME":"白河區","LI":"關嶺里","LIN":"4鄰","STREET":" ","SECT":" ","MAREA":"關子嶺","LANE":" ","ALLEY":" ","HOUSE_NO":"８０號","E_COORD97":199049.67999999999,"N_COORD97":2581290.8700000001,"ADDRESS":"關子嶺８０號","OBJECTID":146560},"geometry":{"x":199049.68000000063,"y":2581290.8700000029}},{"attributes":{"ID":146561,"DIS_CODE":0,"TOWNNAME":"安平區","LI":"西門里","LIN":"3鄰","STREET":"安平路","SECT":" ","MAREA":" ","LANE":"８５０巷","ALLEY":"４弄","HOUSE_NO":"４號","E_COORD97":163811.98999999999,"N_COORD97":2544580.1099999999,"ADDRESS":"安平路８５０巷４弄４號","OBJECTID":146561},"geometry":{"x":163811.99000000115,"y":2544580.1100000013}},{"attributes":{"ID":146562,"DIS_CODE":0,"TOWNNAME":"安平區","LI":"西門里","LIN":"3鄰","STREET":"安平路","SECT":" ","MAREA":" ","LANE":"８５０巷","ALLEY":"４弄","HOUSE_NO":"６號","E_COORD97":163810.89999999999,"N_COORD97":2544588.1000000001,"ADDRESS":"安平路８５０巷４弄６號","OBJECTID":146562},"geometry":{"x":163810.9000000013,"y":2544588.0999999996}},{"attributes":{"ID":146563,"DIS_CODE":0,"TOWNNAME":"安平區","LI":"西門里","LIN":"3鄰","STREET":"安平路","SECT":" ","MAREA":" ","LANE":"８５０巷","ALLEY":"４弄","HOUSE_NO":"８號","E_COORD97":163810.31,"N_COORD97":2544598.25,"ADDRESS":"安平路８５０巷４弄８號","OBJECTID":146563},"geometry":{"x":163810.31000000052,"y":2544598.25}},{"attributes":{"ID":146564,"DIS_CODE":0,"TOWNNAME":"白河區","LI":"關嶺里","LIN":"4鄰","STREET":" ","SECT":" ","MAREA":"關子嶺","LANE":" ","ALLEY":" ","HOUSE_NO":"８１之２號","E_COORD97":198989.57999999999,"N_COORD97":2581229.6000000001,"ADDRESS":"關子嶺８１之２號","OBJECTID":146564},"geometry":{"x":198989.58000000101,"y":2581229.6000000015}},{"attributes":{"ID":146565,"DIS_CODE":0,"TOWNNAME":"白河區","LI":"關嶺里","LIN":"4鄰","STREET":" ","SECT":" ","MAREA":"關子嶺","LANE":" ","ALLEY":" ","HOUSE_NO":"８１號","E_COORD97":199001.95999999999,"N_COORD97":2581284.4700000002,"ADDRESS":"關子嶺８１號","OBJECTID":146565},"geometry":{"x":199001.96000000089,"y":2581284.4700000007}},{"attributes":{"ID":146566,"DIS_CODE":0,"TOWNNAME":"白河區","LI":"關嶺里","LIN":"14鄰","STREET":" ","SECT":" ","MAREA":"關子嶺","LANE":" ","ALLEY":" ","HOUSE_NO":"６號","E_COORD97":200312.20999999999,"N_COORD97":2582237.98,"ADDRESS":"關子嶺６號","OBJECTID":146566},"geometry":{"x":200312.21000000089,"y":2582237.9800000042}},{"attributes":{"ID":146567,"DIS_CODE":0,"TOWNNAME":"安平區","LI":"西門里","LIN":"3鄰","STREET":"國勝路","SECT":" ","MAREA":" ","LANE":"３５巷","ALLEY":"９弄","HOUSE_NO":"１２號","E_COORD97":163831.04999999999,"N_COORD97":2544572.52,"ADDRESS":"國勝路３５巷９弄１２號","OBJECTID":146567},"geometry":{"x":163831.05000000075,"y":2544572.5199999996}},{"attributes":{"ID":146568,"DIS_CODE":0,"TOWNNAME":"安平區","LI":"西門里","LIN":"3鄰","STREET":"國勝路","SECT":" ","MAREA":" ","LANE":"３５巷","ALLEY":"９弄","HOUSE_NO":"４號","E_COORD97":163823.32999999999,"N_COORD97":2544613.5899999999,"ADDRESS":"國勝路３５巷９弄４號","OBJECTID":146568},"geometry":{"x":163823.33000000007,"y":2544613.5900000036}},{"attributes":{"ID":146569,"DIS_CODE":0,"TOWNNAME":"安平區","LI":"西門里","LIN":"3鄰","STREET":"國勝路","SECT":" ","MAREA":" ","LANE":"３５巷","ALLEY":"９弄","HOUSE_NO":"７號之１","E_COORD97":163840.51999999999,"N_COORD97":2544576.8799999999,"ADDRESS":"國勝路３５巷９弄７號之１","OBJECTID":146569},"geometry":{"x":163840.51999999955,"y":2544576.8800000008}},{"attributes":{"ID":146570,"DIS_CODE":0,"TOWNNAME":"歸仁區","LI":"媽廟里","LIN":"3鄰","STREET":"和順路","SECT":"一段","MAREA":" ","LANE":"６３巷","ALLEY":"１０弄","HOUSE_NO":"１３號","E_COORD97":177340.26999999999,"N_COORD97":2543631.7200000002,"ADDRESS":"和順路一段６３巷１０弄１３號","OBJECTID":146570},"geometry":{"x":177340.27000000048,"y":2543631.7200000025}},{"attributes":{"ID":146571,"DIS_CODE":0,"TOWNNAME":"歸仁區","LI":"媽廟里","LIN":"3鄰","STREET":"媽廟一街","SECT":" ","MAREA":" ","LANE":"３８巷","ALLEY":"１１弄","HOUSE_NO":"８號","E_COORD97":177391.98000000001,"N_COORD97":2543595.7200000002,"ADDRESS":"媽廟一街３８巷１１弄８號","OBJECTID":146571},"geometry":{"x":177391.98000000138,"y":2543595.7200000007}},{"attributes":{"ID":146572,"DIS_CODE":0,"TOWNNAME":"歸仁區","LI":"媽廟里","LIN":"3鄰","STREET":"和順路","SECT":"一段","MAREA":" ","LANE":"６３巷","ALLEY":"１０弄","HOUSE_NO":"５號","E_COORD97":177313.42000000001,"N_COORD97":2543635.7200000002,"ADDRESS":"和順路一段６３巷１０弄５號","OBJECTID":146572},"geometry":{"x":177313.41999999899,"y":2543635.7200000007}},{"attributes":{"ID":146573,"DIS_CODE":0,"TOWNNAME":"歸仁區","LI":"媽廟里","LIN":"3鄰","STREET":"和順路","SECT":"一段","MAREA":" ","LANE":"６３巷","ALLEY":"１０弄","HOUSE_NO":"９號","E_COORD97":177327.72,"N_COORD97":2543633.7200000002,"ADDRESS":"和順路一段６３巷１０弄９號","OBJECTID":146573},"geometry":{"x":177327.71999999974,"y":2543633.7200000044}},{"attributes":{"ID":146574,"DIS_CODE":0,"TOWNNAME":"歸仁區","LI":"媽廟里","LIN":"3鄰","STREET":"和順路","SECT":"一段","MAREA":" ","LANE":"６３巷","ALLEY":"１０弄","HOUSE_NO":"１５號","E_COORD97":177346.47,"N_COORD97":2543631.7200000002,"ADDRESS":"和順路一段６３巷１０弄１５號","OBJECTID":146574},"geometry":{"x":177346.46999999974,"y":2543631.7200000025}},{"attributes":{"ID":146575,"DIS_CODE":0,"TOWNNAME":"歸仁區","LI":"媽廟里","LIN":"3鄰","STREET":"媽廟一街","SECT":" ","MAREA":" ","LANE":"３８巷","ALLEY":"１１弄","HOUSE_NO":"１０號","E_COORD97":177386.03,"N_COORD97":2543595.7200000002,"ADDRESS":"媽廟一街３８巷１１弄１０號","OBJECTID":146575},"geometry":{"x":177386.03000000212,"y":2543595.7200000007}},{"attributes":{"ID":146576,"DIS_CODE":0,"TOWNNAME":"歸仁區","LI":"媽廟里","LIN":"3鄰","STREET":"和順路","SECT":"一段","MAREA":" ","LANE":"６３巷","ALLEY":"１０弄","HOUSE_NO":"１６號","E_COORD97":177339.26999999999,"N_COORD97":2543624.7200000002,"ADDRESS":"和順路一段６３巷１０弄１６號","OBJECTID":146576},"geometry":{"x":177339.26999999955,"y":2543624.7200000025}},{"attributes":{"ID":146577,"DIS_CODE":0,"TOWNNAME":"歸仁區","LI":"媽廟里","LIN":"3鄰","STREET":"媽廟一街","SECT":" ","MAREA":" ","LANE":"３８巷","ALLEY":"１１弄","HOUSE_NO":"６號","E_COORD97":177397.07999999999,"N_COORD97":2543595.7200000002,"ADDRESS":"媽廟一街３８巷１１弄６號","OBJECTID":146577},"geometry":{"x":177397.08000000007,"y":2543595.7200000007}},{"attributes":{"ID":146578,"DIS_CODE":0,"TOWNNAME":"歸仁區","LI":"媽廟里","LIN":"3鄰","STREET":"媽廟一街","SECT":" ","MAREA":" ","LANE":"３８巷","ALLEY":"１１弄","HOUSE_NO":"１９號","E_COORD97":177358.32999999999,"N_COORD97":2543585.7200000002,"ADDRESS":"媽廟一街３８巷１１弄１９號","OBJECTID":146578},"geometry":{"x":177358.33000000194,"y":2543585.7200000007}},{"attributes":{"ID":146579,"DIS_CODE":0,"TOWNNAME":"歸仁區","LI":"媽廟里","LIN":"3鄰","STREET":"和順路","SECT":"一段","MAREA":" ","LANE":"６３巷","ALLEY":"１０弄","HOUSE_NO":"１０號","E_COORD97":177319.76999999999,"N_COORD97":2543625.7200000002,"ADDRESS":"和順路一段６３巷１０弄１０號","OBJECTID":146579},"geometry":{"x":177319.77000000048,"y":2543625.7200000007}},{"attributes":{"ID":146580,"DIS_CODE":0,"TOWNNAME":"歸仁區","LI":"媽廟里","LIN":"3鄰","STREET":"媽廟一街","SECT":" ","MAREA":" ","LANE":"３８巷","ALLEY":"１１弄","HOUSE_NO":"２４號","E_COORD97":177356.32999999999,"N_COORD97":2543598.7200000002,"ADDRESS":"媽廟一街３８巷１１弄２４號","OBJECTID":146580},"geometry":{"x":177356.33000000007,"y":2543598.7200000007}},{"attributes":{"ID":146581,"DIS_CODE":0,"TOWNNAME":"歸仁區","LI":"媽廟里","LIN":"3鄰","STREET":"媽廟一街","SECT":" ","MAREA":" ","LANE":"３８巷","ALLEY":"１１弄","HOUSE_NO":"２２號","E_COORD97":177360.42999999999,"N_COORD97":2543598.7200000002,"ADDRESS":"媽廟一街３８巷１１弄２２號","OBJECTID":146581},"geometry":{"x":177360.4299999997,"y":2543598.7200000007}},{"attributes":{"ID":146582,"DIS_CODE":0,"TOWNNAME":"歸仁區","LI":"媽廟里","LIN":"3鄰","STREET":"和順路","SECT":"一段","MAREA":" ","LANE":"６３巷","ALLEY":"１０弄","HOUSE_NO":"１４號","E_COORD97":177333.07000000001,"N_COORD97":2543625.7200000002,"ADDRESS":"和順路一段６３巷１０弄１４號","OBJECTID":146582},"geometry":{"x":177333.0700000003,"y":2543625.7200000007}},{"attributes":{"ID":146583,"DIS_CODE":0,"TOWNNAME":"關廟區","LI":"香洋里","LIN":"30鄰","STREET":"大富街","SECT":" ","MAREA":" ","LANE":" ","ALLEY":" ","HOUSE_NO":"３１３號","E_COORD97":181026.87,"N_COORD97":2539755.25,"ADDRESS":"大富街３１３號","OBJECTID":146583},"geometry":{"x":181026.87000000104,"y":2539755.2500000019}},{"attributes":{"ID":146584,"DIS_CODE":0,"TOWNNAME":"關廟區","LI":"香洋里","LIN":"30鄰","STREET":"大仁街","SECT":" ","MAREA":" ","LANE":" ","ALLEY":" ","HOUSE_NO":"４１０號","E_COORD97":180965.07000000001,"N_COORD97":2539782.25,"ADDRESS":"大仁街４１０號","OBJECTID":146584},"geometry":{"x":180965.07000000123,"y":2539782.2500000019}},{"attributes":{"ID":146585,"DIS_CODE":0,"TOWNNAME":"北區","LI":"大豐里","LIN":"30鄰","STREET":"文賢路","SECT":" ","MAREA":" ","LANE":" ","ALLEY":" ","HOUSE_NO":"３７９號","E_COORD97":167347.09,"N_COORD97":2545477.7799999998,"ADDRESS":"文賢路３７９號","OBJECTID":146585},"geometry":{"x":167347.09000000078,"y":2545477.7800000012}},{"attributes":{"ID":146586,"DIS_CODE":0,"TOWNNAME":"西港區","LI":"慶安里","LIN":"21鄰","STREET":"中山路","SECT":" ","MAREA":" ","LANE":" ","ALLEY":" ","HOUSE_NO":"２７５號","E_COORD97":168385.79999999999,"N_COORD97":2557947.5499999998,"ADDRESS":"中山路２７５號","OBJECTID":146586},"geometry":{"x":168385.80000000168,"y":2557947.5500000007}},{"attributes":{"ID":146587,"DIS_CODE":0,"TOWNNAME":"歸仁區","LI":"媽廟里","LIN":"3鄰","STREET":"媽廟一街","SECT":" ","MAREA":" ","LANE":"３８巷","ALLEY":"１１弄","HOUSE_NO":"１８號","E_COORD97":177368.63,"N_COORD97":2543597.7200000002,"ADDRESS":"媽廟一街３８巷１１弄１８號","OBJECTID":146587},"geometry":{"x":177368.63000000082,"y":2543597.7200000025}},{"attributes":{"ID":146588,"DIS_CODE":0,"TOWNNAME":"歸仁區","LI":"媽廟里","LIN":"3鄰","STREET":"媽廟一街","SECT":" ","MAREA":" ","LANE":"３８巷","ALLEY":"１１弄","HOUSE_NO":"２６號","E_COORD97":177352.23000000001,"N_COORD97":2543600.7200000002,"ADDRESS":"媽廟一街３８巷１１弄２６號","OBJECTID":146588},"geometry":{"x":177352.23000000045,"y":2543600.7200000025}},{"attributes":{"ID":146589,"DIS_CODE":0,"TOWNNAME":"歸仁區","LI":"媽廟里","LIN":"3鄰","STREET":"媽廟一街","SECT":" ","MAREA":" ","LANE":"３８巷","ALLEY":"１１弄","HOUSE_NO":"１４號","E_COORD97":177375.73000000001,"N_COORD97":2543597.7200000002,"ADDRESS":"媽廟一街３８巷１１弄１４號","OBJECTID":146589},"geometry":{"x":177375.73000000045,"y":2543597.7200000025}},{"attributes":{"ID":146590,"DIS_CODE":0,"TOWNNAME":"歸仁區","LI":"媽廟里","LIN":"3鄰","STREET":"媽廟一街","SECT":" ","MAREA":" ","LANE":"３８巷","ALLEY":"１１弄","HOUSE_NO":"１２號","E_COORD97":177380.92999999999,"N_COORD97":2543596.7200000002,"ADDRESS":"媽廟一街３８巷１１弄１２號","OBJECTID":146590},"geometry":{"x":177380.92999999877,"y":2543596.7200000025}},{"attributes":{"ID":146591,"DIS_CODE":0,"TOWNNAME":"歸仁區","LI":"媽廟里","LIN":"3鄰","STREET":"和順路","SECT":"一段","MAREA":" ","LANE":"６３巷","ALLEY":"１０弄","HOUSE_NO":"３號","E_COORD97":177307.22,"N_COORD97":2543635.7200000002,"ADDRESS":"和順路一段６３巷１０弄３號","OBJECTID":146591},"geometry":{"x":177307.21999999974,"y":2543635.7200000007}},{"attributes":{"ID":146592,"DIS_CODE":0,"TOWNNAME":"歸仁區","LI":"媽廟里","LIN":"3鄰","STREET":"媽廟一街","SECT":" ","MAREA":" ","LANE":"３８巷","ALLEY":"１１弄","HOUSE_NO":"２８號","E_COORD97":177348.13,"N_COORD97":2543600.7200000002,"ADDRESS":"媽廟一街３８巷１１弄２８號","OBJECTID":146592},"geometry":{"x":177348.13000000082,"y":2543600.7200000025}},{"attributes":{"ID":146593,"DIS_CODE":0,"TOWNNAME":"歸仁區","LI":"大廟里","LIN":"3鄰","STREET":"大廟二街","SECT":" ","MAREA":" ","LANE":"９３巷","ALLEY":"６弄","HOUSE_NO":"１１號","E_COORD97":176066.56,"N_COORD97":2543867.1699999999,"ADDRESS":"大廟二街９３巷６弄１１號","OBJECTID":146593},"geometry":{"x":176066.56000000052,"y":2543867.1700000037}},{"attributes":{"ID":146594,"DIS_CODE":0,"TOWNNAME":"歸仁區","LI":"媽廟里","LIN":"3鄰","STREET":"和順路","SECT":"一段","MAREA":" ","LANE":"６３巷","ALLEY":"１０弄","HOUSE_NO":"１２號","E_COORD97":177325.97,"N_COORD97":2543626.7200000002,"ADDRESS":"和順路一段６３巷１０弄１２號","OBJECTID":146594},"geometry":{"x":177325.96999999974,"y":2543626.7200000044}},{"attributes":{"ID":146595,"DIS_CODE":0,"TOWNNAME":"歸仁區","LI":"媽廟里","LIN":"3鄰","STREET":"和順路","SECT":"一段","MAREA":" ","LANE":"６３巷","ALLEY":"１０弄","HOUSE_NO":"１８號","E_COORD97":177345.37,"N_COORD97":2543623.7200000002,"ADDRESS":"和順路一段６３巷１０弄１８號","OBJECTID":146595},"geometry":{"x":177345.37000000104,"y":2543623.7200000025}},{"attributes":{"ID":146596,"DIS_CODE":0,"TOWNNAME":"安南區","LI":"淵中里","LIN":"3鄰","STREET":"本淵路","SECT":" ","MAREA":" ","LANE":"５７巷","ALLEY":"４８弄","HOUSE_NO":"３６號","E_COORD97":165121.084111,"N_COORD97":2549905.0437699999,"ADDRESS":"本淵路５７巷４８弄３６號","OBJECTID":146596},"geometry":{"x":165121.08411100134,"y":2549905.0437710006}},{"attributes":{"ID":146597,"DIS_CODE":0,"TOWNNAME":"歸仁區","LI":"歸仁里","LIN":"3鄰","STREET":"文化街","SECT":"一段","MAREA":" ","LANE":"１７５巷","ALLEY":"１２弄","HOUSE_NO":"８號","E_COORD97":177735.44,"N_COORD97":2541054.0499999998,"ADDRESS":"文化街一段１７５巷１２弄８號","OBJECTID":146597},"geometry":{"x":177735.44000000041,"y":2541054.0500000007}},{"attributes":{"ID":146598,"DIS_CODE":0,"TOWNNAME":"歸仁區","LI":"後市里","LIN":"3鄰","STREET":"民族南街","SECT":" ","MAREA":" ","LANE":"１８巷","ALLEY":"７７弄","HOUSE_NO":"７號","E_COORD97":177246.54000000001,"N_COORD97":2540721.5499999998,"ADDRESS":"民族南街１８巷７７弄７號","OBJECTID":146598},"geometry":{"x":177246.54000000004,"y":2540721.5500000007}},{"attributes":{"ID":146599,"DIS_CODE":0,"TOWNNAME":"歸仁區","LI":"後市里","LIN":"3鄰","STREET":"民族南街","SECT":" ","MAREA":" ","LANE":"１８巷","ALLEY":"７７弄","HOUSE_NO":"１號","E_COORD97":177247.64000000001,"N_COORD97":2540734.5499999998,"ADDRESS":"民族南街１８巷７７弄１號","OBJECTID":146599},"geometry":{"x":177247.6400000006,"y":2540734.5500000007}},{"attributes":{"ID":146600,"DIS_CODE":0,"TOWNNAME":"歸仁區","LI":"後市里","LIN":"3鄰","STREET":"民族南街","SECT":" ","MAREA":" ","LANE":"１８巷","ALLEY":"７７弄","HOUSE_NO":"１１號","E_COORD97":177246.79000000001,"N_COORD97":2540713.5499999998,"ADDRESS":"民族南街１８巷７７弄１１號","OBJECTID":146600},"geometry":{"x":177246.7900000019,"y":2540713.5500000026}}]}