{"displayFieldName":"TOWNNAME","fieldAliases":{"ID":"ID","DIS_CODE":"DIS_CODE","TOWNNAME":"TOWNNAME","LI":"LI","LIN":"LIN","STREET":"STREET","SECT":"SECT","MAREA":"MAREA","LANE":"LANE","ALLEY":"ALLEY","HOUSE_NO":"HOUSE_NO","E_COORD97":"E_COORD97","N_COORD97":"N_COORD97","ADDRESS":"ADDRESS","OBJECTID":"OBJECTID"},"geometryType":"esriGeometryPoint","spatialReference":{"wkid":102443,"latestWkid":3826},"fields":[{"name":"ID","type":"esriFieldTypeDouble","alias":"ID"},{"name":"DIS_CODE","type":"esriFieldTypeInteger","alias":"DIS_CODE"},{"name":"TOWNNAME","type":"esriFieldTypeString","alias":"TOWNNAME","length":8},{"name":"LI","type":"esriFieldTypeString","alias":"LI","length":8},{"name":"LIN","type":"esriFieldTypeString","alias":"LIN","length":12},{"name":"STREET","type":"esriFieldTypeString","alias":"STREET","length":20},{"name":"SECT","type":"esriFieldTypeString","alias":"SECT","length":8},{"name":"MAREA","type":"esriFieldTypeString","alias":"MAREA","length":12},{"name":"LANE","type":"esriFieldTypeString","alias":"LANE","length":10},{"name":"ALLEY","type":"esriFieldTypeString","alias":"ALLEY","length":10},{"name":"HOUSE_NO","type":"esriFieldTypeString","alias":"HOUSE_NO","length":20},{"name":"E_COORD97","type":"esriFieldTypeDouble","alias":"E_COORD97"},{"name":"N_COORD97","type":"esriFieldTypeDouble","alias":"N_COORD97"},{"name":"ADDRESS","type":"esriFieldTypeString","alias":"ADDRESS","length":50},{"name":"OBJECTID","type":"esriFieldTypeOID","alias":"OBJECTID"}],"features":[{"attributes":{"ID":313009,"DIS_CODE":0,"TOWNNAME":"歸仁區","LI":"大廟里","LIN":"24鄰","STREET":"和順路","SECT":"二段","MAREA":" ","LANE":" ","ALLEY":" ","HOUSE_NO":"３５８號","E_COORD97":175567.34,"N_COORD97":2543586.2799999998,"ADDRESS":"和順路二段３５８號","OBJECTID":313001},"geometry":{"x":175567.33999999985,"y":2543586.2799999993}},{"attributes":{"ID":313010,"DIS_CODE":0,"TOWNNAME":"永康區","LI":"勝利里","LIN":"17鄰","STREET":"中華一路","SECT":" ","MAREA":" ","LANE":" ","ALLEY":" ","HOUSE_NO":"３０７號","E_COORD97":171197.45999999999,"N_COORD97":2544981.25,"ADDRESS":"中華一路３０７號","OBJECTID":313002},"geometry":{"x":171197.46000000089,"y":2544981.25}},{"attributes":{"ID":313011,"DIS_CODE":0,"TOWNNAME":"永康區","LI":"勝利里","LIN":"17鄰","STREET":"中華一路","SECT":" ","MAREA":" ","LANE":" ","ALLEY":" ","HOUSE_NO":"３０３號","E_COORD97":171205.32000000001,"N_COORD97":2544980.5,"ADDRESS":"中華一路３０３號","OBJECTID":313003},"geometry":{"x":171205.32000000123,"y":2544980.5000000037}},{"attributes":{"ID":313012,"DIS_CODE":0,"TOWNNAME":"歸仁區","LI":"文化里","LIN":"4鄰","STREET":"文化三街","SECT":" ","MAREA":" ","LANE":"５６巷","ALLEY":" ","HOUSE_NO":"５號","E_COORD97":177252.26000000001,"N_COORD97":2541340.3399999999,"ADDRESS":"文化三街５６巷５號","OBJECTID":313004},"geometry":{"x":177252.26000000071,"y":2541340.3400000017}},{"attributes":{"ID":313013,"DIS_CODE":0,"TOWNNAME":"新市區","LI":"永就里","LIN":"6鄰","STREET":" ","SECT":" ","MAREA":"永就","LANE":" ","ALLEY":" ","HOUSE_NO":"６８之１６號","E_COORD97":177740.13003999999,"N_COORD97":2550535.5712299999,"ADDRESS":"永就６８之１６號","OBJECTID":313005},"geometry":{"x":177740.13004000206,"y":2550535.5712300017}},{"attributes":{"ID":313014,"DIS_CODE":0,"TOWNNAME":"歸仁區","LI":"武東里","LIN":"13鄰","STREET":" ","SECT":" ","MAREA":"明德新村","LANE":" ","ALLEY":" ","HOUSE_NO":"１５２號","E_COORD97":175104.54000000001,"N_COORD97":2536128.27,"ADDRESS":"明德新村１５２號","OBJECTID":313006},"geometry":{"x":175104.54000000097,"y":2536128.2699999996}},{"attributes":{"ID":313015,"DIS_CODE":0,"TOWNNAME":"歸仁區","LI":"南興里","LIN":"4鄰","STREET":"文化十二街","SECT":" ","MAREA":" ","LANE":"３３巷","ALLEY":" ","HOUSE_NO":"１０號","E_COORD97":176434.23999999999,"N_COORD97":2541307.3300000001,"ADDRESS":"文化十二街３３巷１０號","OBJECTID":313007},"geometry":{"x":176434.24000000115,"y":2541307.3300000019}},{"attributes":{"ID":313016,"DIS_CODE":0,"TOWNNAME":"歸仁區","LI":"六甲里","LIN":"36鄰","STREET":"六甲八街","SECT":" ","MAREA":" ","LANE":"１２巷","ALLEY":" ","HOUSE_NO":"１號","E_COORD97":175419.77689400001,"N_COORD97":2539330.2167199999,"ADDRESS":"六甲八街１２巷１號","OBJECTID":313008},"geometry":{"x":175419.77689399943,"y":2539330.2167220004}},{"attributes":{"ID":313017,"DIS_CODE":0,"TOWNNAME":"歸仁區","LI":"南保里","LIN":"5鄰","STREET":"文化街","SECT":"三段","MAREA":" ","LANE":"１８巷","ALLEY":" ","HOUSE_NO":"１５號","E_COORD97":176922.23999999999,"N_COORD97":2541277.3300000001,"ADDRESS":"文化街三段１８巷１５號","OBJECTID":313009},"geometry":{"x":176922.24000000115,"y":2541277.3300000019}},{"attributes":{"ID":313018,"DIS_CODE":0,"TOWNNAME":"六甲區","LI":"甲南里","LIN":"7鄰","STREET":"忠孝街","SECT":" ","MAREA":" ","LANE":"５３巷","ALLEY":" ","HOUSE_NO":"２號","E_COORD97":183847.63,"N_COORD97":2569598.6600000001,"ADDRESS":"忠孝街５３巷２號","OBJECTID":313010},"geometry":{"x":183847.63000000082,"y":2569598.6600000001}},{"attributes":{"ID":313019,"DIS_CODE":0,"TOWNNAME":"六甲區","LI":"甲南里","LIN":"7鄰","STREET":"忠孝街","SECT":" ","MAREA":" ","LANE":"５３巷","ALLEY":" ","HOUSE_NO":"６號","E_COORD97":183816.14000000001,"N_COORD97":2569625.1899999999,"ADDRESS":"忠孝街５３巷６號","OBJECTID":313011},"geometry":{"x":183816.13999999873,"y":2569625.1899999995}},{"attributes":{"ID":313020,"DIS_CODE":0,"TOWNNAME":"六甲區","LI":"甲南里","LIN":"7鄰","STREET":"忠孝街","SECT":" ","MAREA":" ","LANE":"５３巷","ALLEY":" ","HOUSE_NO":"８號","E_COORD97":183788.70999999999,"N_COORD97":2569633.29,"ADDRESS":"忠孝街５３巷８號","OBJECTID":313012},"geometry":{"x":183788.70999999996,"y":2569633.290000001}},{"attributes":{"ID":313021,"DIS_CODE":0,"TOWNNAME":"新營區","LI":"興業里","LIN":"7鄰","STREET":"公誠街","SECT":" ","MAREA":" ","LANE":"９巷","ALLEY":" ","HOUSE_NO":"８號","E_COORD97":180328.41,"N_COORD97":2578003.04,"ADDRESS":"公誠街９巷８號","OBJECTID":313013},"geometry":{"x":180328.41000000108,"y":2578003.040000001}},{"attributes":{"ID":313022,"DIS_CODE":0,"TOWNNAME":"新營區","LI":"新東里","LIN":"7鄰","STREET":"東大街","SECT":" ","MAREA":" ","LANE":"６６巷","ALLEY":" ","HOUSE_NO":"５１號","E_COORD97":181152.60999999999,"N_COORD97":2579231.7799999998,"ADDRESS":"東大街６６巷５１號","OBJECTID":313014},"geometry":{"x":181152.61000000127,"y":2579231.7800000012}},{"attributes":{"ID":313023,"DIS_CODE":0,"TOWNNAME":"新營區","LI":"新北里","LIN":"7鄰","STREET":"三興街","SECT":" ","MAREA":" ","LANE":"２７５巷","ALLEY":" ","HOUSE_NO":"１８號","E_COORD97":179267.69,"N_COORD97":2579688.0800000001,"ADDRESS":"三興街２７５巷１８號","OBJECTID":313015},"geometry":{"x":179267.69000000041,"y":2579688.0800000019}},{"attributes":{"ID":313024,"DIS_CODE":0,"TOWNNAME":"歸仁區","LI":"大廟里","LIN":"7鄰","STREET":"大廟一街","SECT":" ","MAREA":" ","LANE":"１２３巷","ALLEY":" ","HOUSE_NO":"１１號","E_COORD97":175775.37,"N_COORD97":2543881.2400000002,"ADDRESS":"大廟一街１２３巷１１號","OBJECTID":313016},"geometry":{"x":175775.37000000104,"y":2543881.2400000021}},{"attributes":{"ID":313025,"DIS_CODE":0,"TOWNNAME":"歸仁區","LI":"八甲里","LIN":"7鄰","STREET":"中正北路","SECT":"一段","MAREA":" ","LANE":"２２０巷","ALLEY":" ","HOUSE_NO":"１６號","E_COORD97":177822.5,"N_COORD97":2541698.6099999999,"ADDRESS":"中正北路一段２２０巷１６號","OBJECTID":313017},"geometry":{"x":177822.5,"y":2541698.6100000013}},{"attributes":{"ID":313026,"DIS_CODE":0,"TOWNNAME":"歸仁區","LI":"大廟里","LIN":"7鄰","STREET":"大廟一街","SECT":" ","MAREA":" ","LANE":"１２３巷","ALLEY":" ","HOUSE_NO":"１６號","E_COORD97":175770.17000000001,"N_COORD97":2543861.25,"ADDRESS":"大廟一街１２３巷１６號","OBJECTID":313018},"geometry":{"x":175770.16999999993,"y":2543861.2500000019}},{"attributes":{"ID":313027,"DIS_CODE":0,"TOWNNAME":"永康區","LI":"勝利里","LIN":"17鄰","STREET":"中華一路","SECT":" ","MAREA":" ","LANE":" ","ALLEY":" ","HOUSE_NO":"２８４號","E_COORD97":171296.10999999999,"N_COORD97":2544993.5,"ADDRESS":"中華一路２８４號","OBJECTID":313019},"geometry":{"x":171296.11000000034,"y":2544993.5}},{"attributes":{"ID":313028,"DIS_CODE":0,"TOWNNAME":"永康區","LI":"勝利里","LIN":"17鄰","STREET":"中華一路","SECT":" ","MAREA":" ","LANE":" ","ALLEY":" ","HOUSE_NO":"２８７號","E_COORD97":171238.95000000001,"N_COORD97":2544976,"ADDRESS":"中華一路２８７號","OBJECTID":313020},"geometry":{"x":171238.95000000019,"y":2544976}},{"attributes":{"ID":313029,"DIS_CODE":0,"TOWNNAME":"永康區","LI":"勝利里","LIN":"17鄰","STREET":"中華一路","SECT":" ","MAREA":" ","LANE":" ","ALLEY":" ","HOUSE_NO":"３２８號","E_COORD97":171206.10000000001,"N_COORD97":2545000.5,"ADDRESS":"中華一路３２８號","OBJECTID":313021},"geometry":{"x":171206.10000000056,"y":2545000.4999999981}},{"attributes":{"ID":313030,"DIS_CODE":0,"TOWNNAME":"永康區","LI":"勝利里","LIN":"17鄰","STREET":"中華一路","SECT":" ","MAREA":" ","LANE":" ","ALLEY":" ","HOUSE_NO":"３３０號","E_COORD97":171202.39999999999,"N_COORD97":2545000.5,"ADDRESS":"中華一路３３０號","OBJECTID":313022},"geometry":{"x":171202.40000000037,"y":2545000.4999999981}},{"attributes":{"ID":313031,"DIS_CODE":0,"TOWNNAME":"歸仁區","LI":"大潭里","LIN":"20鄰","STREET":"長榮路","SECT":"二段","MAREA":" ","LANE":"９５巷","ALLEY":" ","HOUSE_NO":"８號","E_COORD97":176971.42000000001,"N_COORD97":2534547.2799999998,"ADDRESS":"長榮路二段９５巷８號","OBJECTID":313023},"geometry":{"x":176971.42000000086,"y":2534547.2799999993}},{"attributes":{"ID":313032,"DIS_CODE":0,"TOWNNAME":"歸仁區","LI":"武東里","LIN":"13鄰","STREET":" ","SECT":" ","MAREA":"明德新村","LANE":" ","ALLEY":" ","HOUSE_NO":"２００號","E_COORD97":175076.73999999999,"N_COORD97":2536116.27,"ADDRESS":"明德新村２００號","OBJECTID":313024},"geometry":{"x":175076.74000000022,"y":2536116.2700000014}},{"attributes":{"ID":313033,"DIS_CODE":0,"TOWNNAME":"歸仁區","LI":"武東里","LIN":"13鄰","STREET":" ","SECT":" ","MAREA":"明德新村","LANE":" ","ALLEY":" ","HOUSE_NO":"６２號","E_COORD97":175078.89000000001,"N_COORD97":2536171.27,"ADDRESS":"明德新村６２號","OBJECTID":313025},"geometry":{"x":175078.88999999966,"y":2536171.2700000014}},{"attributes":{"ID":313034,"DIS_CODE":0,"TOWNNAME":"歸仁區","LI":"大潭里","LIN":"7鄰","STREET":"長榮路","SECT":"一段","MAREA":" ","LANE":"２４５巷","ALLEY":" ","HOUSE_NO":"７號","E_COORD97":175175.57000000001,"N_COORD97":2534580.2799999998,"ADDRESS":"長榮路一段２４５巷７號","OBJECTID":313026},"geometry":{"x":175175.57000000123,"y":2534580.2800000012}},{"attributes":{"ID":313035,"DIS_CODE":0,"TOWNNAME":"歸仁區","LI":"八甲里","LIN":"7鄰","STREET":"中正北路","SECT":"一段","MAREA":" ","LANE":"２３１巷","ALLEY":" ","HOUSE_NO":"９２號","E_COORD97":177442.78,"N_COORD97":2541703.4900000002,"ADDRESS":"中正北路一段２３１巷９２號","OBJECTID":313027},"geometry":{"x":177442.78000000119,"y":2541703.4900000021}},{"attributes":{"ID":313036,"DIS_CODE":0,"TOWNNAME":"歸仁區","LI":"七甲里","LIN":"7鄰","STREET":"中正北路","SECT":"二段","MAREA":" ","LANE":"２９８巷","ALLEY":" ","HOUSE_NO":"２０號","E_COORD97":177564.17000000001,"N_COORD97":2542724.6600000001,"ADDRESS":"中正北路二段２９８巷２０號","OBJECTID":313028},"geometry":{"x":177564.16999999993,"y":2542724.6599999983}},{"attributes":{"ID":313037,"DIS_CODE":0,"TOWNNAME":"歸仁區","LI":"八甲里","LIN":"7鄰","STREET":"中正北路","SECT":"一段","MAREA":" ","LANE":"２２０巷","ALLEY":" ","HOUSE_NO":"１２號","E_COORD97":177825.5,"N_COORD97":2541688.6099999999,"ADDRESS":"中正北路一段２２０巷１２號","OBJECTID":313029},"geometry":{"x":177825.50000000093,"y":2541688.6099999994}},{"attributes":{"ID":313038,"DIS_CODE":0,"TOWNNAME":"歸仁區","LI":"大廟里","LIN":"7鄰","STREET":"大廟一街","SECT":" ","MAREA":" ","LANE":"１０３巷","ALLEY":" ","HOUSE_NO":"１８號","E_COORD97":175794.97,"N_COORD97":2543907.25,"ADDRESS":"大廟一街１０３巷１８號","OBJECTID":313030},"geometry":{"x":175794.96999999974,"y":2543907.2500000037}},{"attributes":{"ID":313039,"DIS_CODE":0,"TOWNNAME":"歸仁區","LI":"大廟里","LIN":"7鄰","STREET":"大廟一街","SECT":" ","MAREA":" ","LANE":"１２３巷","ALLEY":" ","HOUSE_NO":"２號","E_COORD97":175745.32000000001,"N_COORD97":2543873.25,"ADDRESS":"大廟一街１２３巷２號","OBJECTID":313031},"geometry":{"x":175745.32000000123,"y":2543873.2500000037}},{"attributes":{"ID":313040,"DIS_CODE":0,"TOWNNAME":"歸仁區","LI":"七甲里","LIN":"7鄰","STREET":"七甲一街","SECT":" ","MAREA":" ","LANE":"１４３巷","ALLEY":" ","HOUSE_NO":"２號","E_COORD97":177591.54000000001,"N_COORD97":2542819.6600000001,"ADDRESS":"七甲一街１４３巷２號","OBJECTID":313032},"geometry":{"x":177591.54000000097,"y":2542819.6600000039}},{"attributes":{"ID":313041,"DIS_CODE":0,"TOWNNAME":"歸仁區","LI":"大廟里","LIN":"7鄰","STREET":"大廟一街","SECT":" ","MAREA":" ","LANE":"１０３巷","ALLEY":" ","HOUSE_NO":"３１號","E_COORD97":175832.87,"N_COORD97":2543897.25,"ADDRESS":"大廟一街１０３巷３１號","OBJECTID":313033},"geometry":{"x":175832.87000000104,"y":2543897.2500000037}},{"attributes":{"ID":313042,"DIS_CODE":0,"TOWNNAME":"歸仁區","LI":"大廟里","LIN":"7鄰","STREET":"大廟一街","SECT":" ","MAREA":" ","LANE":"１２３巷","ALLEY":" ","HOUSE_NO":"９號","E_COORD97":175770.01999999999,"N_COORD97":2543882.25,"ADDRESS":"大廟一街１２３巷９號","OBJECTID":313034},"geometry":{"x":175770.02000000048,"y":2543882.25}},{"attributes":{"ID":313043,"DIS_CODE":0,"TOWNNAME":"歸仁區","LI":"大廟里","LIN":"7鄰","STREET":"大廟一街","SECT":" ","MAREA":" ","LANE":"１２３巷","ALLEY":" ","HOUSE_NO":"１號","E_COORD97":175754.72,"N_COORD97":2543890.25,"ADDRESS":"大廟一街１２３巷１號","OBJECTID":313035},"geometry":{"x":175754.71999999974,"y":2543890.2500000037}},{"attributes":{"ID":313044,"DIS_CODE":0,"TOWNNAME":"歸仁區","LI":"大廟里","LIN":"7鄰","STREET":"大廟一街","SECT":" ","MAREA":" ","LANE":"１０３巷","ALLEY":" ","HOUSE_NO":"３３號","E_COORD97":175836.97,"N_COORD97":2543895.25,"ADDRESS":"大廟一街１０３巷３３號","OBJECTID":313036},"geometry":{"x":175836.97000000067,"y":2543895.2500000019}},{"attributes":{"ID":313045,"DIS_CODE":0,"TOWNNAME":"歸仁區","LI":"大廟里","LIN":"7鄰","STREET":"大廟一街","SECT":" ","MAREA":" ","LANE":"１２３巷","ALLEY":" ","HOUSE_NO":"５號","E_COORD97":175762.82000000001,"N_COORD97":2543886.25,"ADDRESS":"大廟一街１２３巷５號","OBJECTID":313037},"geometry":{"x":175762.8200000003,"y":2543886.25}},{"attributes":{"ID":313046,"DIS_CODE":0,"TOWNNAME":"歸仁區","LI":"大廟里","LIN":"7鄰","STREET":"大廟一街","SECT":" ","MAREA":" ","LANE":"１０３巷","ALLEY":" ","HOUSE_NO":"３５號","E_COORD97":175844.07000000001,"N_COORD97":2543894.25,"ADDRESS":"大廟一街１０３巷３５號","OBJECTID":313038},"geometry":{"x":175844.0700000003,"y":2543894.2500000019}},{"attributes":{"ID":313047,"DIS_CODE":0,"TOWNNAME":"歸仁區","LI":"看西里","LIN":"18鄰","STREET":"成功五街","SECT":" ","MAREA":" ","LANE":"８８巷","ALLEY":" ","HOUSE_NO":"１２號","E_COORD97":178403.51000000001,"N_COORD97":2539878.3599999999,"ADDRESS":"成功五街８８巷１２號","OBJECTID":313039},"geometry":{"x":178403.51000000071,"y":2539878.3600000031}},{"attributes":{"ID":313048,"DIS_CODE":0,"TOWNNAME":"永康區","LI":"勝利里","LIN":"17鄰","STREET":"中華一路","SECT":" ","MAREA":" ","LANE":" ","ALLEY":" ","HOUSE_NO":"３３４號","E_COORD97":171194.62,"N_COORD97":2545001,"ADDRESS":"中華一路３３４號","OBJECTID":313040},"geometry":{"x":171194.62000000104,"y":2545001.0000000019}},{"attributes":{"ID":313049,"DIS_CODE":0,"TOWNNAME":"歸仁區","LI":"南興里","LIN":"4鄰","STREET":"文化十二街","SECT":" ","MAREA":" ","LANE":"３３巷","ALLEY":" ","HOUSE_NO":"１１號","E_COORD97":176425.14000000001,"N_COORD97":2541317.3300000001,"ADDRESS":"文化十二街３３巷１１號","OBJECTID":313041},"geometry":{"x":176425.14000000153,"y":2541317.3300000019}},{"attributes":{"ID":313050,"DIS_CODE":0,"TOWNNAME":"歸仁區","LI":"沙崙里","LIN":"4鄰","STREET":" ","SECT":" ","MAREA":"沙崙","LANE":" ","ALLEY":" ","HOUSE_NO":"３６４號","E_COORD97":179564.57999999999,"N_COORD97":2538144.25,"ADDRESS":"沙崙３６４號","OBJECTID":313042},"geometry":{"x":179564.58000000101,"y":2538144.2500000019}},{"attributes":{"ID":313051,"DIS_CODE":0,"TOWNNAME":"歸仁區","LI":"武東里","LIN":"13鄰","STREET":" ","SECT":" ","MAREA":"明德新村","LANE":" ","ALLEY":" ","HOUSE_NO":"２０號","E_COORD97":175026.69,"N_COORD97":2536204.27,"ADDRESS":"明德新村２０號","OBJECTID":313043},"geometry":{"x":175026.69000000041,"y":2536204.2700000014}},{"attributes":{"ID":313052,"DIS_CODE":0,"TOWNNAME":"歸仁區","LI":"武東里","LIN":"5鄰","STREET":"武東一街","SECT":" ","MAREA":" ","LANE":"１６巷","ALLEY":" ","HOUSE_NO":"５號","E_COORD97":175514.94,"N_COORD97":2535468.25,"ADDRESS":"武東一街１６巷５號","OBJECTID":313044},"geometry":{"x":175514.94000000041,"y":2535468.25}},{"attributes":{"ID":313053,"DIS_CODE":0,"TOWNNAME":"歸仁區","LI":"大廟里","LIN":"7鄰","STREET":"大廟一街","SECT":" ","MAREA":" ","LANE":"１０３巷","ALLEY":" ","HOUSE_NO":"２０號","E_COORD97":175797.97,"N_COORD97":2543902.25,"ADDRESS":"大廟一街１０３巷２０號","OBJECTID":313045},"geometry":{"x":175797.97000000067,"y":2543902.25}},{"attributes":{"ID":313054,"DIS_CODE":0,"TOWNNAME":"歸仁區","LI":"大廟里","LIN":"7鄰","STREET":"大廟一街","SECT":" ","MAREA":" ","LANE":"１０３巷","ALLEY":" ","HOUSE_NO":"２４號","E_COORD97":175827.67000000001,"N_COORD97":2543887.25,"ADDRESS":"大廟一街１０３巷２４號","OBJECTID":313046},"geometry":{"x":175827.67000000086,"y":2543887.2500000019}},{"attributes":{"ID":313055,"DIS_CODE":0,"TOWNNAME":"歸仁區","LI":"大廟里","LIN":"7鄰","STREET":"大廟一街","SECT":" ","MAREA":" ","LANE":"１０３巷","ALLEY":" ","HOUSE_NO":"２６號","E_COORD97":175838.97,"N_COORD97":2543883.25,"ADDRESS":"大廟一街１０３巷２６號","OBJECTID":313047},"geometry":{"x":175838.97000000067,"y":2543883.25}},{"attributes":{"ID":313056,"DIS_CODE":0,"TOWNNAME":"歸仁區","LI":"大廟里","LIN":"7鄰","STREET":"大廟一街","SECT":" ","MAREA":" ","LANE":"１２３巷","ALLEY":" ","HOUSE_NO":"１８號","E_COORD97":175773.17000000001,"N_COORD97":2543860.25,"ADDRESS":"大廟一街１２３巷１８號","OBJECTID":313048},"geometry":{"x":175773.17000000086,"y":2543860.2500000019}},{"attributes":{"ID":313057,"DIS_CODE":0,"TOWNNAME":"北區","LI":"大豐里","LIN":"7鄰","STREET":"文賢路","SECT":" ","MAREA":" ","LANE":"３１３巷","ALLEY":" ","HOUSE_NO":"５５號","E_COORD97":167153.07000000001,"N_COORD97":2545249.2599999998,"ADDRESS":"文賢路３１３巷５５號","OBJECTID":313049},"geometry":{"x":167153.0700000003,"y":2545249.2599999998}},{"attributes":{"ID":313058,"DIS_CODE":0,"TOWNNAME":"北區","LI":"裕民里","LIN":"7鄰","STREET":"成功路","SECT":" ","MAREA":" ","LANE":"５０４巷","ALLEY":" ","HOUSE_NO":"２７號","E_COORD97":167695.39000000001,"N_COORD97":2544729.0899999999,"ADDRESS":"成功路５０４巷２７號","OBJECTID":313050},"geometry":{"x":167695.3900000006,"y":2544729.0900000017}},{"attributes":{"ID":313059,"DIS_CODE":0,"TOWNNAME":"北區","LI":"安民里","LIN":"7鄰","STREET":"成功路","SECT":" ","MAREA":" ","LANE":"４１０巷","ALLEY":" ","HOUSE_NO":"１６號","E_COORD97":167830.47,"N_COORD97":2544635.7400000002,"ADDRESS":"成功路４１０巷１６號","OBJECTID":313051},"geometry":{"x":167830.47000000067,"y":2544635.7400000002}},{"attributes":{"ID":313060,"DIS_CODE":0,"TOWNNAME":"歸仁區","LI":"許厝里","LIN":"34鄰","STREET":"和平南街","SECT":" ","MAREA":" ","LANE":"５５巷","ALLEY":" ","HOUSE_NO":"２１號","E_COORD97":177882.07999999999,"N_COORD97":2540573.8199999998,"ADDRESS":"和平南街５５巷２１號","OBJECTID":313052},"geometry":{"x":177882.07999999914,"y":2540573.8200000003}},{"attributes":{"ID":313061,"DIS_CODE":0,"TOWNNAME":"柳營區","LI":"東昇里","LIN":"7鄰","STREET":"康樂街","SECT":" ","MAREA":" ","LANE":"１７９巷","ALLEY":" ","HOUSE_NO":"１０號","E_COORD97":180094.76999999999,"N_COORD97":2575251.48,"ADDRESS":"康樂街１７９巷１０號","OBJECTID":313053},"geometry":{"x":180094.77000000048,"y":2575251.4800000023}},{"attributes":{"ID":313062,"DIS_CODE":0,"TOWNNAME":"柳營區","LI":"東昇里","LIN":"7鄰","STREET":"康樂街","SECT":" ","MAREA":" ","LANE":"１７９巷","ALLEY":" ","HOUSE_NO":"２號","E_COORD97":180104.10999999999,"N_COORD97":2575257.9199999999,"ADDRESS":"康樂街１７９巷２號","OBJECTID":313054},"geometry":{"x":180104.11000000034,"y":2575257.9200000018}},{"attributes":{"ID":313063,"DIS_CODE":0,"TOWNNAME":"柳營區","LI":"東昇里","LIN":"7鄰","STREET":"康樂街","SECT":" ","MAREA":" ","LANE":"１７９巷","ALLEY":" ","HOUSE_NO":"６號","E_COORD97":180101,"N_COORD97":2575255.77,"ADDRESS":"康樂街１７９巷６號","OBJECTID":313055},"geometry":{"x":180101,"y":2575255.7700000014}},{"attributes":{"ID":313064,"DIS_CODE":0,"TOWNNAME":"柳營區","LI":"東昇里","LIN":"7鄰","STREET":"康樂街","SECT":" ","MAREA":" ","LANE":"１７９巷","ALLEY":" ","HOUSE_NO":"８號","E_COORD97":180097.89000000001,"N_COORD97":2575253.6200000001,"ADDRESS":"康樂街１７９巷８號","OBJECTID":313056},"geometry":{"x":180097.88999999966,"y":2575253.6200000029}},{"attributes":{"ID":313065,"DIS_CODE":0,"TOWNNAME":"柳營區","LI":"東昇里","LIN":"7鄰","STREET":"康樂街","SECT":" ","MAREA":" ","LANE":"１９１巷","ALLEY":" ","HOUSE_NO":"２號","E_COORD97":180083.95000000001,"N_COORD97":2575281.5899999999,"ADDRESS":"康樂街１９１巷２號","OBJECTID":313057},"geometry":{"x":180083.95000000112,"y":2575281.5899999999}},{"attributes":{"ID":313066,"DIS_CODE":0,"TOWNNAME":"柳營區","LI":"大農里","LIN":"7鄰","STREET":"義士路","SECT":"一段","MAREA":" ","LANE":"２４７巷","ALLEY":" ","HOUSE_NO":"４２號","E_COORD97":186348.29999999999,"N_COORD97":2575717.25,"ADDRESS":"義士路一段２４７巷４２號","OBJECTID":313058},"geometry":{"x":186348.30000000075,"y":2575717.2500000019}},{"attributes":{"ID":313067,"DIS_CODE":0,"TOWNNAME":"柳營區","LI":"大農里","LIN":"7鄰","STREET":"義士路","SECT":"一段","MAREA":" ","LANE":"２４７巷","ALLEY":" ","HOUSE_NO":"４８號","E_COORD97":186335.42999999999,"N_COORD97":2575719.7200000002,"ADDRESS":"義士路一段２４７巷４８號","OBJECTID":313059},"geometry":{"x":186335.43000000063,"y":2575719.7200000007}},{"attributes":{"ID":313068,"DIS_CODE":0,"TOWNNAME":"歸仁區","LI":"大潭里","LIN":"4鄰","STREET":"大潭一街","SECT":" ","MAREA":" ","LANE":" ","ALLEY":" ","HOUSE_NO":"９０號","E_COORD97":175289.47,"N_COORD97":2534570.25,"ADDRESS":"大潭一街９０號","OBJECTID":313060},"geometry":{"x":175289.47000000067,"y":2534570.2500000037}},{"attributes":{"ID":313069,"DIS_CODE":0,"TOWNNAME":"歸仁區","LI":"七甲里","LIN":"5鄰","STREET":"中正北路","SECT":"二段","MAREA":" ","LANE":" ","ALLEY":" ","HOUSE_NO":"４５４號","E_COORD97":177483.32000000001,"N_COORD97":2543118.2599999998,"ADDRESS":"中正北路二段４５４號","OBJECTID":313061},"geometry":{"x":177483.3200000003,"y":2543118.2600000016}},{"attributes":{"ID":313070,"DIS_CODE":0,"TOWNNAME":"歸仁區","LI":"沙崙里","LIN":"4鄰","STREET":" ","SECT":" ","MAREA":"沙崙","LANE":" ","ALLEY":" ","HOUSE_NO":"３４６號","E_COORD97":179516.28,"N_COORD97":2538121.25,"ADDRESS":"沙崙３４６號","OBJECTID":313062},"geometry":{"x":179516.28000000026,"y":2538121.2500000019}},{"attributes":{"ID":313071,"DIS_CODE":0,"TOWNNAME":"柳營區","LI":"大農里","LIN":"7鄰","STREET":"義士路","SECT":"一段","MAREA":" ","LANE":"２４７巷","ALLEY":" ","HOUSE_NO":"５８號","E_COORD97":186314.35999999999,"N_COORD97":2575720.5299999998,"ADDRESS":"義士路一段２４７巷５８號","OBJECTID":313063},"geometry":{"x":186314.36000000127,"y":2575720.5300000012}},{"attributes":{"ID":313072,"DIS_CODE":0,"TOWNNAME":"柳營區","LI":"大農里","LIN":"7鄰","STREET":"義士路","SECT":"一段","MAREA":" ","LANE":"２４７巷","ALLEY":" ","HOUSE_NO":"６０號","E_COORD97":186321.84,"N_COORD97":2575725.2400000002,"ADDRESS":"義士路一段２４７巷６０號","OBJECTID":313064},"geometry":{"x":186321.83999999985,"y":2575725.2400000002}},{"attributes":{"ID":313073,"DIS_CODE":0,"TOWNNAME":"柳營區","LI":"大農里","LIN":"7鄰","STREET":"義士路","SECT":"一段","MAREA":" ","LANE":"２４７巷","ALLEY":" ","HOUSE_NO":"６２號","E_COORD97":186309.42999999999,"N_COORD97":2575711.04,"ADDRESS":"義士路一段２４７巷６２號","OBJECTID":313065},"geometry":{"x":186309.4299999997,"y":2575711.040000001}},{"attributes":{"ID":313074,"DIS_CODE":0,"TOWNNAME":"柳營區","LI":"大農里","LIN":"7鄰","STREET":"義士路","SECT":"一段","MAREA":" ","LANE":"２４７巷","ALLEY":" ","HOUSE_NO":"６６號","E_COORD97":186304.07000000001,"N_COORD97":2575709.46,"ADDRESS":"義士路一段２４７巷６６號","OBJECTID":313066},"geometry":{"x":186304.06999999937,"y":2575709.4600000028}},{"attributes":{"ID":313075,"DIS_CODE":0,"TOWNNAME":"柳營區","LI":"大農里","LIN":"7鄰","STREET":"義士路","SECT":"一段","MAREA":" ","LANE":"２４７巷","ALLEY":" ","HOUSE_NO":"７０號","E_COORD97":186291.73999999999,"N_COORD97":2575706.04,"ADDRESS":"義士路一段２４７巷７０號","OBJECTID":313067},"geometry":{"x":186291.74000000115,"y":2575706.0400000028}},{"attributes":{"ID":313076,"DIS_CODE":0,"TOWNNAME":"柳營區","LI":"大農里","LIN":"7鄰","STREET":"義士路","SECT":"一段","MAREA":" ","LANE":"２４７巷","ALLEY":" ","HOUSE_NO":"９號","E_COORD97":186378.35999999999,"N_COORD97":2575759.8599999999,"ADDRESS":"義士路一段２４７巷９號","OBJECTID":313068},"geometry":{"x":186378.36000000034,"y":2575759.8600000013}},{"attributes":{"ID":313077,"DIS_CODE":0,"TOWNNAME":"柳營區","LI":"人和里","LIN":"7鄰","STREET":"雙和路","SECT":" ","MAREA":" ","LANE":"１１８巷","ALLEY":" ","HOUSE_NO":"６號","E_COORD97":179500.07999999999,"N_COORD97":2576938.3300000001,"ADDRESS":"雙和路１１８巷６號","OBJECTID":313069},"geometry":{"x":179500.08000000101,"y":2576938.3300000001}},{"attributes":{"ID":313078,"DIS_CODE":0,"TOWNNAME":"仁德區","LI":"太子里","LIN":"21鄰","STREET":"長興四街","SECT":" ","MAREA":" ","LANE":" ","ALLEY":" ","HOUSE_NO":"７０號","E_COORD97":173916.71436899999,"N_COORD97":2543572.3181699999,"ADDRESS":"長興四街７０號","OBJECTID":313070},"geometry":{"x":173916.71436899994,"y":2543572.3181650024}},{"attributes":{"ID":313079,"DIS_CODE":0,"TOWNNAME":"北區","LI":"玉皇里","LIN":"7鄰","STREET":"成功路","SECT":" ","MAREA":" ","LANE":"６８巷","ALLEY":" ","HOUSE_NO":"８３號","E_COORD97":168778.64999999999,"N_COORD97":2544571.6499999999,"ADDRESS":"成功路６８巷８３號","OBJECTID":313071},"geometry":{"x":168778.65000000037,"y":2544571.6500000004}},{"attributes":{"ID":313080,"DIS_CODE":0,"TOWNNAME":"北區","LI":"玉皇里","LIN":"7鄰","STREET":"崇安街","SECT":" ","MAREA":" ","LANE":"７０巷","ALLEY":" ","HOUSE_NO":"１號","E_COORD97":168737.97,"N_COORD97":2544566.5299999998,"ADDRESS":"崇安街７０巷１號","OBJECTID":313072},"geometry":{"x":168737.96999999974,"y":2544566.5300000012}},{"attributes":{"ID":313081,"DIS_CODE":0,"TOWNNAME":"北區","LI":"玉皇里","LIN":"7鄰","STREET":"崇安街","SECT":" ","MAREA":" ","LANE":"７０巷","ALLEY":" ","HOUSE_NO":"３號","E_COORD97":168744.79000000001,"N_COORD97":2544560.3999999999,"ADDRESS":"崇安街７０巷３號","OBJECTID":313073},"geometry":{"x":168744.79000000004,"y":2544560.4000000004}},{"attributes":{"ID":313082,"DIS_CODE":0,"TOWNNAME":"北區","LI":"興北里","LIN":"7鄰","STREET":"公園北路","SECT":" ","MAREA":" ","LANE":"８８巷","ALLEY":" ","HOUSE_NO":"３８號","E_COORD97":169113.20000000001,"N_COORD97":2545096.8500000001,"ADDRESS":"公園北路８８巷３８號","OBJECTID":313074},"geometry":{"x":169113.20000000019,"y":2545096.8500000015}},{"attributes":{"ID":313083,"DIS_CODE":0,"TOWNNAME":"北區","LI":"興北里","LIN":"7鄰","STREET":"公園北路","SECT":" ","MAREA":" ","LANE":"８８巷","ALLEY":" ","HOUSE_NO":"３９號","E_COORD97":169102.67999999999,"N_COORD97":2545102.7400000002,"ADDRESS":"公園北路８８巷３９號","OBJECTID":313075},"geometry":{"x":169102.6799999997,"y":2545102.7400000002}},{"attributes":{"ID":313084,"DIS_CODE":0,"TOWNNAME":"北區","LI":"興北里","LIN":"7鄰","STREET":"公園北路","SECT":" ","MAREA":" ","LANE":"８８巷","ALLEY":" ","HOUSE_NO":"４０號","E_COORD97":169110.73999999999,"N_COORD97":2545103.9300000002,"ADDRESS":"公園北路８８巷４０號","OBJECTID":313076},"geometry":{"x":169110.74000000115,"y":2545103.9300000016}},{"attributes":{"ID":313085,"DIS_CODE":0,"TOWNNAME":"歸仁區","LI":"沙崙里","LIN":"5鄰","STREET":" ","SECT":" ","MAREA":"沙崙","LANE":" ","ALLEY":" ","HOUSE_NO":"３７１號","E_COORD97":179674.38,"N_COORD97":2538150.25,"ADDRESS":"沙崙３７１號","OBJECTID":313077},"geometry":{"x":179674.37999999989,"y":2538150.2499999981}},{"attributes":{"ID":313086,"DIS_CODE":0,"TOWNNAME":"歸仁區","LI":"南保里","LIN":"20鄰","STREET":"文化街","SECT":"三段","MAREA":" ","LANE":"６１巷","ALLEY":" ","HOUSE_NO":"２４號","E_COORD97":176875.64000000001,"N_COORD97":2541178.3300000001,"ADDRESS":"文化街三段６１巷２４號","OBJECTID":313078},"geometry":{"x":176875.63999999966,"y":2541178.3300000019}},{"attributes":{"ID":313087,"DIS_CODE":0,"TOWNNAME":"歸仁區","LI":"辜厝里","LIN":"46鄰","STREET":"中正八街","SECT":" ","MAREA":" ","LANE":"１１巷","ALLEY":" ","HOUSE_NO":"１號","E_COORD97":177137.69,"N_COORD97":2540271.9500000002,"ADDRESS":"中正八街１１巷１號","OBJECTID":313079},"geometry":{"x":177137.69000000227,"y":2540271.9500000011}},{"attributes":{"ID":313088,"DIS_CODE":0,"TOWNNAME":"歸仁區","LI":"後市里","LIN":"43鄰","STREET":"中山八街","SECT":" ","MAREA":" ","LANE":"１５巷","ALLEY":" ","HOUSE_NO":"２４號","E_COORD97":177175.78,"N_COORD97":2540981.7400000002,"ADDRESS":"中山八街１５巷２４號","OBJECTID":313080},"geometry":{"x":177175.78000000212,"y":2540981.7400000039}},{"attributes":{"ID":313089,"DIS_CODE":0,"TOWNNAME":"南區","LI":"大林里","LIN":"19鄰","STREET":"大林路","SECT":" ","MAREA":" ","LANE":"１１１巷","ALLEY":" ","HOUSE_NO":"１號","E_COORD97":169151.75,"N_COORD97":2541751.0600000001,"ADDRESS":"大林路１１１巷１號","OBJECTID":313081},"geometry":{"x":169151.75,"y":2541751.0600000024}},{"attributes":{"ID":313090,"DIS_CODE":0,"TOWNNAME":"歸仁區","LI":"崙頂里","LIN":"6鄰","STREET":"崙頂一街","SECT":" ","MAREA":" ","LANE":"３７巷","ALLEY":" ","HOUSE_NO":"６號","E_COORD97":178003.17000000001,"N_COORD97":2540018.6800000002,"ADDRESS":"崙頂一街３７巷６號","OBJECTID":313082},"geometry":{"x":178003.16999999993,"y":2540018.6800000034}},{"attributes":{"ID":313091,"DIS_CODE":0,"TOWNNAME":"北區","LI":"興北里","LIN":"7鄰","STREET":"公園北路","SECT":" ","MAREA":" ","LANE":"８８巷","ALLEY":" ","HOUSE_NO":"４７號","E_COORD97":169097.16,"N_COORD97":2545121.5,"ADDRESS":"公園北路８８巷４７號","OBJECTID":313083},"geometry":{"x":169097.15999999922,"y":2545121.5}},{"attributes":{"ID":313092,"DIS_CODE":0,"TOWNNAME":"北區","LI":"興北里","LIN":"7鄰","STREET":"公園北路","SECT":" ","MAREA":" ","LANE":"８８巷","ALLEY":" ","HOUSE_NO":"４９號","E_COORD97":169096.34,"N_COORD97":2545124.0299999998,"ADDRESS":"公園北路８８巷４９號","OBJECTID":313084},"geometry":{"x":169096.34000000078,"y":2545124.0299999993}},{"attributes":{"ID":313093,"DIS_CODE":0,"TOWNNAME":"北區","LI":"興北里","LIN":"7鄰","STREET":"公園北路","SECT":" ","MAREA":" ","LANE":"８８巷","ALLEY":" ","HOUSE_NO":"５１號","E_COORD97":169095.75,"N_COORD97":2545127.0099999998,"ADDRESS":"公園北路８８巷５１號","OBJECTID":313085},"geometry":{"x":169095.75,"y":2545127.0100000016}},{"attributes":{"ID":313094,"DIS_CODE":0,"TOWNNAME":"北區","LI":"興北里","LIN":"7鄰","STREET":"公園北路","SECT":" ","MAREA":" ","LANE":"８８巷","ALLEY":" ","HOUSE_NO":"５２號","E_COORD97":169100.73999999999,"N_COORD97":2545143.8799999999,"ADDRESS":"公園北路８８巷５２號","OBJECTID":313086},"geometry":{"x":169100.74000000115,"y":2545143.8800000008}},{"attributes":{"ID":313095,"DIS_CODE":0,"TOWNNAME":"北區","LI":"興北里","LIN":"7鄰","STREET":"公園北路","SECT":" ","MAREA":" ","LANE":"８８巷","ALLEY":" ","HOUSE_NO":"５３號","E_COORD97":169093.44,"N_COORD97":2545132.3700000001,"ADDRESS":"公園北路８８巷５３號","OBJECTID":313087},"geometry":{"x":169093.44000000041,"y":2545132.3700000029}},{"attributes":{"ID":313096,"DIS_CODE":0,"TOWNNAME":"北區","LI":"興北里","LIN":"7鄰","STREET":"公園北路","SECT":" ","MAREA":" ","LANE":"８８巷","ALLEY":" ","HOUSE_NO":"５３號之２","E_COORD97":169092.69,"N_COORD97":2545141.1200000001,"ADDRESS":"公園北路８８巷５３號之２","OBJECTID":313088},"geometry":{"x":169092.69000000134,"y":2545141.1200000029}},{"attributes":{"ID":313097,"DIS_CODE":0,"TOWNNAME":"北區","LI":"興北里","LIN":"7鄰","STREET":"公園北路","SECT":" ","MAREA":" ","LANE":"８８巷","ALLEY":" ","HOUSE_NO":"５４號","E_COORD97":169098.66,"N_COORD97":2545148.3500000001,"ADDRESS":"公園北路８８巷５４號","OBJECTID":313089},"geometry":{"x":169098.66000000015,"y":2545148.3500000015}},{"attributes":{"ID":313098,"DIS_CODE":0,"TOWNNAME":"歸仁區","LI":"七甲里","LIN":"7鄰","STREET":"七甲三街","SECT":" ","MAREA":" ","LANE":"５２巷","ALLEY":" ","HOUSE_NO":"１９號","E_COORD97":177562.73999999999,"N_COORD97":2542799.6600000001,"ADDRESS":"七甲三街５２巷１９號","OBJECTID":313090},"geometry":{"x":177562.74000000115,"y":2542799.6600000039}},{"attributes":{"ID":313099,"DIS_CODE":0,"TOWNNAME":"歸仁區","LI":"武東里","LIN":"7鄰","STREET":"武東一街","SECT":" ","MAREA":" ","LANE":"４８巷","ALLEY":" ","HOUSE_NO":"２９號","E_COORD97":175578.19,"N_COORD97":2535361.25,"ADDRESS":"武東一街４８巷２９號","OBJECTID":313091},"geometry":{"x":175578.19000000134,"y":2535361.2500000019}},{"attributes":{"ID":313100,"DIS_CODE":0,"TOWNNAME":"歸仁區","LI":"文化里","LIN":"5鄰","STREET":"國光街","SECT":" ","MAREA":" ","LANE":" ","ALLEY":" ","HOUSE_NO":"１８５號","E_COORD97":177340.85999999999,"N_COORD97":2541313.3300000001,"ADDRESS":"國光街１８５號","OBJECTID":313092},"geometry":{"x":177340.86000000034,"y":2541313.3300000038}},{"attributes":{"ID":313101,"DIS_CODE":0,"TOWNNAME":"安南區","LI":"頂安里","LIN":"17鄰","STREET":"北安路","SECT":"二段","MAREA":" ","LANE":" ","ALLEY":" ","HOUSE_NO":"３９８號","E_COORD97":168455.01999999999,"N_COORD97":2548224.1499999999,"ADDRESS":"北安路二段３９８號","OBJECTID":313093},"geometry":{"x":168455.01999999862,"y":2548224.1499999985}},{"attributes":{"ID":313102,"DIS_CODE":0,"TOWNNAME":"南區","LI":"大林里","LIN":"9鄰","STREET":"大林路","SECT":" ","MAREA":" ","LANE":"１３５巷","ALLEY":" ","HOUSE_NO":"４８號","E_COORD97":169099.79999999999,"N_COORD97":2541577.4300000002,"ADDRESS":"大林路１３５巷４８號","OBJECTID":313094},"geometry":{"x":169099.80000000075,"y":2541577.4300000016}},{"attributes":{"ID":313103,"DIS_CODE":0,"TOWNNAME":"南區","LI":"大林里","LIN":"9鄰","STREET":"大林路","SECT":" ","MAREA":" ","LANE":"１３５巷","ALLEY":" ","HOUSE_NO":"５０號","E_COORD97":169101.41,"N_COORD97":2541570.6699999999,"ADDRESS":"大林路１３５巷５０號","OBJECTID":313095},"geometry":{"x":169101.41000000108,"y":2541570.6699999999}},{"attributes":{"ID":313104,"DIS_CODE":0,"TOWNNAME":"南區","LI":"田寮里","LIN":"25鄰","STREET":"大成路","SECT":"二段","MAREA":" ","LANE":"５６巷","ALLEY":" ","HOUSE_NO":"１號","E_COORD97":167554.64999999999,"N_COORD97":2541768.6299999999,"ADDRESS":"大成路二段５６巷１號","OBJECTID":313096},"geometry":{"x":167554.65000000037,"y":2541768.6300000008}},{"attributes":{"ID":313105,"DIS_CODE":0,"TOWNNAME":"南區","LI":"田寮里","LIN":"25鄰","STREET":"大成路","SECT":"二段","MAREA":" ","LANE":"５６巷","ALLEY":" ","HOUSE_NO":"２１號","E_COORD97":167553.14000000001,"N_COORD97":2541811.4199999999,"ADDRESS":"大成路二段５６巷２１號","OBJECTID":313097},"geometry":{"x":167553.1400000006,"y":2541811.4200000018}},{"attributes":{"ID":313106,"DIS_CODE":0,"TOWNNAME":"南區","LI":"田寮里","LIN":"25鄰","STREET":"大成路","SECT":"二段","MAREA":" ","LANE":"５６巷","ALLEY":" ","HOUSE_NO":"２３號","E_COORD97":167552.95999999999,"N_COORD97":2541815.3500000001,"ADDRESS":"大成路二段５６巷２３號","OBJECTID":313098},"geometry":{"x":167552.96000000089,"y":2541815.3500000015}},{"attributes":{"ID":313107,"DIS_CODE":0,"TOWNNAME":"東山區","LI":"南勢里","LIN":"4鄰","STREET":" ","SECT":" ","MAREA":"大洋","LANE":" ","ALLEY":" ","HOUSE_NO":"３５號","E_COORD97":197520.70000000001,"N_COORD97":2573517.8500000001,"ADDRESS":"大洋３５號","OBJECTID":313099},"geometry":{"x":197520.70000000112,"y":2573517.8500000034}},{"attributes":{"ID":313108,"DIS_CODE":0,"TOWNNAME":"南區","LI":"田寮里","LIN":"25鄰","STREET":"大成路","SECT":"二段","MAREA":" ","LANE":"５６巷","ALLEY":" ","HOUSE_NO":"２５號","E_COORD97":167552.78,"N_COORD97":2541819.4700000002,"ADDRESS":"大成路二段５６巷２５號","OBJECTID":313100},"geometry":{"x":167552.78000000119,"y":2541819.4700000025}},{"attributes":{"ID":313109,"DIS_CODE":0,"TOWNNAME":"歸仁區","LI":"八甲里","LIN":"7鄰","STREET":"中正北路","SECT":"一段","MAREA":" ","LANE":"２２０巷","ALLEY":" ","HOUSE_NO":"６號","E_COORD97":177831.25,"N_COORD97":2541673.6099999999,"ADDRESS":"中正北路一段２２０巷６號","OBJECTID":313101},"geometry":{"x":177831.25,"y":2541673.6100000031}},{"attributes":{"ID":313110,"DIS_CODE":0,"TOWNNAME":"歸仁區","LI":"西埔里","LIN":"7鄰","STREET":"保大路","SECT":"二段","MAREA":" ","LANE":"１２２巷","ALLEY":" ","HOUSE_NO":"２６號","E_COORD97":177039.78,"N_COORD97":2544252.25,"ADDRESS":"保大路二段１２２巷２６號","OBJECTID":313102},"geometry":{"x":177039.78000000026,"y":2544252.25}},{"attributes":{"ID":313111,"DIS_CODE":0,"TOWNNAME":"歸仁區","LI":"西埔里","LIN":"7鄰","STREET":"西埔一街","SECT":" ","MAREA":" ","LANE":"６５巷","ALLEY":" ","HOUSE_NO":"６號","E_COORD97":177074.42000000001,"N_COORD97":2544356.25,"ADDRESS":"西埔一街６５巷６號","OBJECTID":313103},"geometry":{"x":177074.41999999899,"y":2544356.2500000019}},{"attributes":{"ID":313112,"DIS_CODE":0,"TOWNNAME":"安南區","LI":"海東里","LIN":"17鄰","STREET":"同安路","SECT":" ","MAREA":" ","LANE":" ","ALLEY":" ","HOUSE_NO":"３９９號","E_COORD97":167314.70000000001,"N_COORD97":2549403.52,"ADDRESS":"同安路３９９號","OBJECTID":313104},"geometry":{"x":167314.70000000019,"y":2549403.5199999996}},{"attributes":{"ID":313113,"DIS_CODE":0,"TOWNNAME":"安南區","LI":"安西里","LIN":"17鄰","STREET":"安通路","SECT":"四段","MAREA":" ","LANE":" ","ALLEY":" ","HOUSE_NO":"１２２號","E_COORD97":168709.56,"N_COORD97":2547759.4399999999,"ADDRESS":"安通路四段１２２號","OBJECTID":313105},"geometry":{"x":168709.56000000052,"y":2547759.4399999995}},{"attributes":{"ID":313114,"DIS_CODE":0,"TOWNNAME":"安南區","LI":"海東里","LIN":"17鄰","STREET":"同安路","SECT":" ","MAREA":" ","LANE":" ","ALLEY":" ","HOUSE_NO":"３８９號","E_COORD97":167298.44,"N_COORD97":2549377.8700000001,"ADDRESS":"同安路３８９號","OBJECTID":313106},"geometry":{"x":167298.44000000041,"y":2549377.8700000029}},{"attributes":{"ID":313115,"DIS_CODE":0,"TOWNNAME":"安南區","LI":"海東里","LIN":"17鄰","STREET":"同安路","SECT":" ","MAREA":" ","LANE":" ","ALLEY":" ","HOUSE_NO":"３９１號","E_COORD97":167300.35000000001,"N_COORD97":2549382.6899999999,"ADDRESS":"同安路３９１號","OBJECTID":313107},"geometry":{"x":167300.35000000149,"y":2549382.6900000032}},{"attributes":{"ID":313116,"DIS_CODE":0,"TOWNNAME":"安南區","LI":"海東里","LIN":"17鄰","STREET":"同安路","SECT":" ","MAREA":" ","LANE":" ","ALLEY":" ","HOUSE_NO":"３９３號","E_COORD97":167301.35999999999,"N_COORD97":2549386.1200000001,"ADDRESS":"同安路３９３號","OBJECTID":313108},"geometry":{"x":167301.36000000127,"y":2549386.1200000029}},{"attributes":{"ID":313117,"DIS_CODE":0,"TOWNNAME":"安南區","LI":"海東里","LIN":"17鄰","STREET":"同安路","SECT":" ","MAREA":" ","LANE":" ","ALLEY":" ","HOUSE_NO":"３９５號","E_COORD97":167302.89000000001,"N_COORD97":2549388.79,"ADDRESS":"同安路３９５號","OBJECTID":313109},"geometry":{"x":167302.88999999966,"y":2549388.790000001}},{"attributes":{"ID":313118,"DIS_CODE":0,"TOWNNAME":"安南區","LI":"海東里","LIN":"17鄰","STREET":"同安路","SECT":" ","MAREA":" ","LANE":" ","ALLEY":" ","HOUSE_NO":"３９７號","E_COORD97":167308.73000000001,"N_COORD97":2549396.79,"ADDRESS":"同安路３９７號","OBJECTID":313110},"geometry":{"x":167308.73000000231,"y":2549396.7899999991}},{"attributes":{"ID":313119,"DIS_CODE":0,"TOWNNAME":"南區","LI":"田寮里","LIN":"25鄰","STREET":"大成路","SECT":"二段","MAREA":" ","LANE":"５６巷","ALLEY":" ","HOUSE_NO":"３９號","E_COORD97":167552.06,"N_COORD97":2541848.8199999998,"ADDRESS":"大成路二段５６巷３９號","OBJECTID":313111},"geometry":{"x":167552.06000000052,"y":2541848.8200000003}},{"attributes":{"ID":313120,"DIS_CODE":0,"TOWNNAME":"南區","LI":"田寮里","LIN":"25鄰","STREET":"大成路","SECT":"二段","MAREA":" ","LANE":"５６巷","ALLEY":" ","HOUSE_NO":"３號","E_COORD97":167554.64999999999,"N_COORD97":2541772.3799999999,"ADDRESS":"大成路二段５６巷３號","OBJECTID":313112},"geometry":{"x":167554.65000000037,"y":2541772.379999999}},{"attributes":{"ID":313121,"DIS_CODE":0,"TOWNNAME":"南區","LI":"田寮里","LIN":"19鄰","STREET":"西門路","SECT":"一段","MAREA":" ","LANE":"２２３巷","ALLEY":" ","HOUSE_NO":"７號","E_COORD97":167697.64999999999,"N_COORD97":2541771.1800000002,"ADDRESS":"西門路一段２２３巷７號","OBJECTID":313113},"geometry":{"x":167697.6500000013,"y":2541771.1799999997}},{"attributes":{"ID":313122,"DIS_CODE":0,"TOWNNAME":"南區","LI":"田寮里","LIN":"20鄰","STREET":"西門路","SECT":"一段","MAREA":" ","LANE":"２７９巷","ALLEY":" ","HOUSE_NO":"１０號","E_COORD97":167674,"N_COORD97":2541962.71,"ADDRESS":"西門路一段２７９巷１０號","OBJECTID":313114},"geometry":{"x":167674,"y":2541962.7100000028}},{"attributes":{"ID":313123,"DIS_CODE":0,"TOWNNAME":"南區","LI":"田寮里","LIN":"20鄰","STREET":"西門路","SECT":"一段","MAREA":" ","LANE":"２７９巷","ALLEY":" ","HOUSE_NO":"１２號","E_COORD97":167673.81,"N_COORD97":2541957.29,"ADDRESS":"西門路一段２７９巷１２號","OBJECTID":313115},"geometry":{"x":167673.81000000052,"y":2541957.290000001}},{"attributes":{"ID":313124,"DIS_CODE":0,"TOWNNAME":"南區","LI":"田寮里","LIN":"20鄰","STREET":"西門路","SECT":"一段","MAREA":" ","LANE":"２７９巷","ALLEY":" ","HOUSE_NO":"１４號","E_COORD97":167680.17999999999,"N_COORD97":2541944.96,"ADDRESS":"西門路一段２７９巷１４號","OBJECTID":313116},"geometry":{"x":167680.18000000063,"y":2541944.9600000028}},{"attributes":{"ID":313125,"DIS_CODE":0,"TOWNNAME":"玉井區","LI":"玉田里","LIN":"41鄰","STREET":"民族路","SECT":" ","MAREA":" ","LANE":"１７９巷","ALLEY":" ","HOUSE_NO":"２０號","E_COORD97":195458.82999999999,"N_COORD97":2558155.29,"ADDRESS":"民族路１７９巷２０號","OBJECTID":313117},"geometry":{"x":195458.83000000007,"y":2558155.2899999991}},{"attributes":{"ID":313126,"DIS_CODE":0,"TOWNNAME":"玉井區","LI":"玉田里","LIN":"41鄰","STREET":"民族路","SECT":" ","MAREA":" ","LANE":"１７９巷","ALLEY":" ","HOUSE_NO":"５號","E_COORD97":195439.38,"N_COORD97":2558130.29,"ADDRESS":"民族路１７９巷５號","OBJECTID":313118},"geometry":{"x":195439.38000000082,"y":2558130.290000001}},{"attributes":{"ID":313127,"DIS_CODE":0,"TOWNNAME":"南區","LI":"田寮里","LIN":"19鄰","STREET":"西門路","SECT":"一段","MAREA":" ","LANE":"２２３巷","ALLEY":" ","HOUSE_NO":"４號","E_COORD97":167692.32000000001,"N_COORD97":2541813.5600000001,"ADDRESS":"西門路一段２２３巷４號","OBJECTID":313119},"geometry":{"x":167692.3200000003,"y":2541813.5600000005}},{"attributes":{"ID":313128,"DIS_CODE":0,"TOWNNAME":"南區","LI":"田寮里","LIN":"19鄰","STREET":"西門路","SECT":"一段","MAREA":" ","LANE":"２２３巷","ALLEY":" ","HOUSE_NO":"５號","E_COORD97":167697.64999999999,"N_COORD97":2541777.6400000001,"ADDRESS":"西門路一段２２３巷５號","OBJECTID":313120},"geometry":{"x":167697.6500000013,"y":2541777.6400000025}},{"attributes":{"ID":313129,"DIS_CODE":0,"TOWNNAME":"南區","LI":"田寮里","LIN":"19鄰","STREET":"西門路","SECT":"一段","MAREA":" ","LANE":"２２３巷","ALLEY":" ","HOUSE_NO":"６號","E_COORD97":167685.26000000001,"N_COORD97":2541813.5600000001,"ADDRESS":"西門路一段２２３巷６號","OBJECTID":313121},"geometry":{"x":167685.25999999978,"y":2541813.5600000005}},{"attributes":{"ID":313130,"DIS_CODE":0,"TOWNNAME":"玉井區","LI":"玉田里","LIN":"40鄰","STREET":"和平街","SECT":" ","MAREA":" ","LANE":" ","ALLEY":" ","HOUSE_NO":"１８６號","E_COORD97":195274.04000000001,"N_COORD97":2557495.25,"ADDRESS":"和平街１８６號","OBJECTID":313122},"geometry":{"x":195274.04000000097,"y":2557495.25}},{"attributes":{"ID":313131,"DIS_CODE":0,"TOWNNAME":"玉井區","LI":"玉田里","LIN":"20鄰","STREET":"民族路","SECT":" ","MAREA":" ","LANE":" ","ALLEY":" ","HOUSE_NO":"１００號","E_COORD97":195234.59,"N_COORD97":2558004.2799999998,"ADDRESS":"民族路１００號","OBJECTID":313123},"geometry":{"x":195234.59000000078,"y":2558004.2800000012}},{"attributes":{"ID":313132,"DIS_CODE":0,"TOWNNAME":"玉井區","LI":"玉田里","LIN":"43鄰","STREET":"忠孝街","SECT":" ","MAREA":" ","LANE":" ","ALLEY":" ","HOUSE_NO":"１號","E_COORD97":195586.23000000001,"N_COORD97":2557749.2400000002,"ADDRESS":"忠孝街１號","OBJECTID":313124},"geometry":{"x":195586.23000000231,"y":2557749.2400000002}},{"attributes":{"ID":313133,"DIS_CODE":0,"TOWNNAME":"玉井區","LI":"玉田里","LIN":"18鄰","STREET":"中華路","SECT":" ","MAREA":" ","LANE":" ","ALLEY":" ","HOUSE_NO":"８７號","E_COORD97":194966.60000000001,"N_COORD97":2558047.25,"ADDRESS":"中華路８７號","OBJECTID":313125},"geometry":{"x":194966.59999999963,"y":2558047.25}},{"attributes":{"ID":313134,"DIS_CODE":0,"TOWNNAME":"玉井區","LI":"玉田里","LIN":"20鄰","STREET":"民族路","SECT":" ","MAREA":" ","LANE":" ","ALLEY":" ","HOUSE_NO":"１０８號","E_COORD97":195207.98999999999,"N_COORD97":2558092.2799999998,"ADDRESS":"民族路１０８號","OBJECTID":313126},"geometry":{"x":195207.99000000115,"y":2558092.2800000012}},{"attributes":{"ID":313135,"DIS_CODE":0,"TOWNNAME":"玉井區","LI":"玉田里","LIN":"43鄰","STREET":"大成路","SECT":" ","MAREA":" ","LANE":" ","ALLEY":" ","HOUSE_NO":"５９號","E_COORD97":195583.70999999999,"N_COORD97":2557667.2599999998,"ADDRESS":"大成路５９號","OBJECTID":313127},"geometry":{"x":195583.70999999996,"y":2557667.2599999998}},{"attributes":{"ID":313136,"DIS_CODE":0,"TOWNNAME":"玉井區","LI":"玉田里","LIN":"43鄰","STREET":"忠孝街","SECT":" ","MAREA":" ","LANE":" ","ALLEY":" ","HOUSE_NO":"７號","E_COORD97":195572.04000000001,"N_COORD97":2557752.2400000002,"ADDRESS":"忠孝街７號","OBJECTID":313128},"geometry":{"x":195572.04000000097,"y":2557752.2400000002}},{"attributes":{"ID":313137,"DIS_CODE":0,"TOWNNAME":"仁德區","LI":"仁義里","LIN":"25鄰","STREET":"中山路","SECT":" ","MAREA":" ","LANE":" ","ALLEY":" ","HOUSE_NO":"５１０號","E_COORD97":173473.17999999999,"N_COORD97":2541324.4900000002,"ADDRESS":"中山路５１０號","OBJECTID":313129},"geometry":{"x":173473.1799999997,"y":2541324.4900000002}},{"attributes":{"ID":313138,"DIS_CODE":0,"TOWNNAME":"仁德區","LI":"仁德里","LIN":"4鄰","STREET":"仁中三街","SECT":" ","MAREA":" ","LANE":" ","ALLEY":" ","HOUSE_NO":"３６號","E_COORD97":173358.62,"N_COORD97":2540429.25,"ADDRESS":"仁中三街３６號","OBJECTID":313130},"geometry":{"x":173358.62000000011,"y":2540429.2500000019}},{"attributes":{"ID":313139,"DIS_CODE":0,"TOWNNAME":"仁德區","LI":"仁義里","LIN":"50鄰","STREET":"中清路","SECT":" ","MAREA":" ","LANE":" ","ALLEY":" ","HOUSE_NO":"２５號","E_COORD97":173685.70999999999,"N_COORD97":2541053.0499999998,"ADDRESS":"中清路２５號","OBJECTID":313131},"geometry":{"x":173685.71000000183,"y":2541053.0500000007}},{"attributes":{"ID":313140,"DIS_CODE":0,"TOWNNAME":"仁德區","LI":"仁義里","LIN":"38鄰","STREET":"中正路","SECT":"二段","MAREA":" ","LANE":" ","ALLEY":" ","HOUSE_NO":"８２０號","E_COORD97":173470.57000000001,"N_COORD97":2540392.27,"ADDRESS":"中正路二段８２０號","OBJECTID":313132},"geometry":{"x":173470.57000000123,"y":2540392.2700000014}},{"attributes":{"ID":313141,"DIS_CODE":0,"TOWNNAME":"仁德區","LI":"仁德里","LIN":"39鄰","STREET":"文山路","SECT":" ","MAREA":" ","LANE":" ","ALLEY":" ","HOUSE_NO":"２２９號","E_COORD97":172640.26000000001,"N_COORD97":2541751.8300000001,"ADDRESS":"文山路２２９號","OBJECTID":313133},"geometry":{"x":172640.25999999978,"y":2541751.8300000019}},{"attributes":{"ID":313142,"DIS_CODE":0,"TOWNNAME":"玉井區","LI":"玉田里","LIN":"26鄰","STREET":"中山路","SECT":" ","MAREA":" ","LANE":"３巷","ALLEY":" ","HOUSE_NO":"１４號","E_COORD97":194898.70999999999,"N_COORD97":2557766.2400000002,"ADDRESS":"中山路３巷１４號","OBJECTID":313134},"geometry":{"x":194898.70999999996,"y":2557766.2400000002}},{"attributes":{"ID":313143,"DIS_CODE":0,"TOWNNAME":"仁德區","LI":"太子里","LIN":"32鄰","STREET":"太子三街","SECT":" ","MAREA":" ","LANE":" ","ALLEY":" ","HOUSE_NO":"２０號之１","E_COORD97":173996.98000000001,"N_COORD97":2543476.29,"ADDRESS":"太子三街２０號之１","OBJECTID":313135},"geometry":{"x":173996.98000000138,"y":2543476.290000001}},{"attributes":{"ID":313144,"DIS_CODE":0,"TOWNNAME":"仁德區","LI":"仁義里","LIN":"4鄰","STREET":"仁義三街","SECT":" ","MAREA":" ","LANE":" ","ALLEY":" ","HOUSE_NO":"１６０號","E_COORD97":173744.84,"N_COORD97":2541116.0099999998,"ADDRESS":"仁義三街１６０號","OBJECTID":313136},"geometry":{"x":173744.83999999985,"y":2541116.0100000016}},{"attributes":{"ID":313145,"DIS_CODE":0,"TOWNNAME":"玉井區","LI":"層林里","LIN":"1鄰","STREET":" ","SECT":" ","MAREA":"層林","LANE":" ","ALLEY":" ","HOUSE_NO":"８號","E_COORD97":194246.91,"N_COORD97":2554014.25,"ADDRESS":"層林８號","OBJECTID":313137},"geometry":{"x":194246.91000000015,"y":2554014.2500000037}},{"attributes":{"ID":313146,"DIS_CODE":0,"TOWNNAME":"玉井區","LI":"望明里","LIN":"8鄰","STREET":" ","SECT":" ","MAREA":"望明","LANE":" ","ALLEY":" ","HOUSE_NO":"８９號之３２","E_COORD97":193525.59,"N_COORD97":2556444.29,"ADDRESS":"望明８９之３２號","OBJECTID":313138},"geometry":{"x":193525.59000000078,"y":2556444.290000001}},{"attributes":{"ID":313147,"DIS_CODE":0,"TOWNNAME":"玉井區","LI":"層林里","LIN":"5鄰","STREET":" ","SECT":" ","MAREA":"層林","LANE":" ","ALLEY":" ","HOUSE_NO":"７０號","E_COORD97":191069.37,"N_COORD97":2552997.2400000002,"ADDRESS":"層林７０號","OBJECTID":313139},"geometry":{"x":191069.37000000104,"y":2552997.2400000039}},{"attributes":{"ID":313148,"DIS_CODE":0,"TOWNNAME":"玉井區","LI":"層林里","LIN":"4鄰","STREET":" ","SECT":" ","MAREA":"層林","LANE":" ","ALLEY":" ","HOUSE_NO":"５３號","E_COORD97":191236.67000000001,"N_COORD97":2551649.2400000002,"ADDRESS":"層林５３號","OBJECTID":313140},"geometry":{"x":191236.67000000086,"y":2551649.2400000021}},{"attributes":{"ID":313149,"DIS_CODE":0,"TOWNNAME":"玉井區","LI":"豐里里","LIN":"4鄰","STREET":" ","SECT":" ","MAREA":"豐里","LANE":" ","ALLEY":" ","HOUSE_NO":"３９號","E_COORD97":193173.87,"N_COORD97":2558163.2400000002,"ADDRESS":"豐里３９號","OBJECTID":313141},"geometry":{"x":193173.87000000011,"y":2558163.2400000002}},{"attributes":{"ID":313150,"DIS_CODE":0,"TOWNNAME":"玉井區","LI":"豐里里","LIN":"7鄰","STREET":" ","SECT":" ","MAREA":"豐里","LANE":" ","ALLEY":" ","HOUSE_NO":"７１號","E_COORD97":192985.37,"N_COORD97":2558022.25,"ADDRESS":"豐里７１號","OBJECTID":313142},"geometry":{"x":192985.37000000011,"y":2558022.2500000019}},{"attributes":{"ID":313151,"DIS_CODE":0,"TOWNNAME":"玉井區","LI":"豐里里","LIN":"4鄰","STREET":" ","SECT":" ","MAREA":"豐里","LANE":" ","ALLEY":" ","HOUSE_NO":"３６號","E_COORD97":193129.95999999999,"N_COORD97":2558143.25,"ADDRESS":"豐里３６號","OBJECTID":313143},"geometry":{"x":193129.96000000089,"y":2558143.2499999981}},{"attributes":{"ID":313152,"DIS_CODE":0,"TOWNNAME":"玉井區","LI":"玉田里","LIN":"4鄰","STREET":"民主街","SECT":" ","MAREA":" ","LANE":"１３９巷","ALLEY":" ","HOUSE_NO":"１號","E_COORD97":195071.67999999999,"N_COORD97":2558208.2799999998,"ADDRESS":"民主街１３９巷１號","OBJECTID":313144},"geometry":{"x":195071.6799999997,"y":2558208.2800000012}},{"attributes":{"ID":313153,"DIS_CODE":0,"TOWNNAME":"玉井區","LI":"層林里","LIN":"13鄰","STREET":" ","SECT":" ","MAREA":"層林","LANE":" ","ALLEY":" ","HOUSE_NO":"１６０號","E_COORD97":189754.51000000001,"N_COORD97":2554166.2400000002,"ADDRESS":"層林１６０號","OBJECTID":313145},"geometry":{"x":189754.51000000071,"y":2554166.2400000002}},{"attributes":{"ID":313154,"DIS_CODE":0,"TOWNNAME":"玉井區","LI":"層林里","LIN":"4鄰","STREET":" ","SECT":" ","MAREA":"層林","LANE":" ","ALLEY":" ","HOUSE_NO":"４６號","E_COORD97":191635.26000000001,"N_COORD97":2552197.2400000002,"ADDRESS":"層林４６號","OBJECTID":313146},"geometry":{"x":191635.25999999978,"y":2552197.2400000039}},{"attributes":{"ID":313155,"DIS_CODE":0,"TOWNNAME":"玉井區","LI":"豐里里","LIN":"4鄰","STREET":" ","SECT":" ","MAREA":"豐里","LANE":" ","ALLEY":" ","HOUSE_NO":"４１號","E_COORD97":193192.16,"N_COORD97":2558160.2400000002,"ADDRESS":"豐里４１號","OBJECTID":313147},"geometry":{"x":193192.16000000015,"y":2558160.2400000002}},{"attributes":{"ID":313156,"DIS_CODE":0,"TOWNNAME":"玉井區","LI":"層林里","LIN":"4鄰","STREET":" ","SECT":" ","MAREA":"層林","LANE":" ","ALLEY":" ","HOUSE_NO":"４６之１號","E_COORD97":191972.57000000001,"N_COORD97":2552245.2999999998,"ADDRESS":"層林４６之１號","OBJECTID":313148},"geometry":{"x":191972.5700000003,"y":2552245.3000000026}},{"attributes":{"ID":313157,"DIS_CODE":0,"TOWNNAME":"玉井區","LI":"豐里里","LIN":"4鄰","STREET":" ","SECT":" ","MAREA":"豐里","LANE":" ","ALLEY":" ","HOUSE_NO":"３５號","E_COORD97":193095.16,"N_COORD97":2558141.25,"ADDRESS":"豐里３５號","OBJECTID":313149},"geometry":{"x":193095.16000000108,"y":2558141.2500000019}},{"attributes":{"ID":313158,"DIS_CODE":0,"TOWNNAME":"玉井區","LI":"豐里里","LIN":"4鄰","STREET":" ","SECT":" ","MAREA":"豐里","LANE":" ","ALLEY":" ","HOUSE_NO":"３５號之２","E_COORD97":193104.53,"N_COORD97":2558114.2999999998,"ADDRESS":"豐里３５號之２","OBJECTID":313150},"geometry":{"x":193104.53000000119,"y":2558114.3000000026}},{"attributes":{"ID":313159,"DIS_CODE":0,"TOWNNAME":"玉井區","LI":"豐里里","LIN":"4鄰","STREET":" ","SECT":" ","MAREA":"豐里","LANE":" ","ALLEY":" ","HOUSE_NO":"４２號","E_COORD97":193215.57000000001,"N_COORD97":2558162.2400000002,"ADDRESS":"豐里４２號","OBJECTID":313151},"geometry":{"x":193215.57000000216,"y":2558162.2400000021}},{"attributes":{"ID":313160,"DIS_CODE":0,"TOWNNAME":"歸仁區","LI":"西埔里","LIN":"7鄰","STREET":"西埔一街","SECT":" ","MAREA":" ","LANE":"６５巷","ALLEY":" ","HOUSE_NO":"３號","E_COORD97":177093.82000000001,"N_COORD97":2544332.25,"ADDRESS":"西埔一街６５巷３號","OBJECTID":313152},"geometry":{"x":177093.8200000003,"y":2544332.2500000019}},{"attributes":{"ID":313161,"DIS_CODE":0,"TOWNNAME":"歸仁區","LI":"七甲里","LIN":"7鄰","STREET":"七甲三街","SECT":" ","MAREA":" ","LANE":"５２巷","ALLEY":" ","HOUSE_NO":"３號","E_COORD97":177552.48999999999,"N_COORD97":2542847.6600000001,"ADDRESS":"七甲三街５２巷３號","OBJECTID":313153},"geometry":{"x":177552.49000000209,"y":2542847.660000002}},{"attributes":{"ID":313162,"DIS_CODE":0,"TOWNNAME":"玉井區","LI":"沙田里","LIN":"4鄰","STREET":" ","SECT":" ","MAREA":"沙田","LANE":" ","ALLEY":" ","HOUSE_NO":"３１之１１號","E_COORD97":196492.42000000001,"N_COORD97":2556633.29,"ADDRESS":"沙田３１之１１號","OBJECTID":313154},"geometry":{"x":196492.41999999993,"y":2556633.2899999972}},{"attributes":{"ID":313163,"DIS_CODE":0,"TOWNNAME":"玉井區","LI":"望明里","LIN":"5鄰","STREET":" ","SECT":" ","MAREA":"望明","LANE":" ","ALLEY":" ","HOUSE_NO":"４８號","E_COORD97":194206.23000000001,"N_COORD97":2556004.2400000002,"ADDRESS":"望明４８號","OBJECTID":313155},"geometry":{"x":194206.23000000231,"y":2556004.2399999984}},{"attributes":{"ID":313164,"DIS_CODE":0,"TOWNNAME":"歸仁區","LI":"七甲里","LIN":"7鄰","STREET":"七甲一街","SECT":" ","MAREA":" ","LANE":"５５巷","ALLEY":" ","HOUSE_NO":"２０號","E_COORD97":177592.44,"N_COORD97":2542583.6600000001,"ADDRESS":"七甲一街５５巷２０號","OBJECTID":313156},"geometry":{"x":177592.44000000134,"y":2542583.660000002}},{"attributes":{"ID":313165,"DIS_CODE":0,"TOWNNAME":"歸仁區","LI":"武東里","LIN":"7鄰","STREET":"武東一街","SECT":" ","MAREA":" ","LANE":"４８巷","ALLEY":" ","HOUSE_NO":"３３號","E_COORD97":175568.89000000001,"N_COORD97":2535342.25,"ADDRESS":"武東一街４８巷３３號","OBJECTID":313157},"geometry":{"x":175568.88999999966,"y":2535342.25}},{"attributes":{"ID":313166,"DIS_CODE":0,"TOWNNAME":"歸仁區","LI":"七甲里","LIN":"7鄰","STREET":"七甲一街","SECT":" ","MAREA":" ","LANE":"５５巷","ALLEY":" ","HOUSE_NO":"８號","E_COORD97":177591.09,"N_COORD97":2542556.6600000001,"ADDRESS":"七甲一街５５巷８號","OBJECTID":313158},"geometry":{"x":177591.09000000078,"y":2542556.660000002}},{"attributes":{"ID":313167,"DIS_CODE":0,"TOWNNAME":"佳里區","LI":"建南里","LIN":"1鄰","STREET":"中山路","SECT":" ","MAREA":" ","LANE":" ","ALLEY":" ","HOUSE_NO":"３０３號","E_COORD97":165691.73999999999,"N_COORD97":2562403.2799999998,"ADDRESS":"中山路３０３號","OBJECTID":313159},"geometry":{"x":165691.74000000115,"y":2562403.2799999993}},{"attributes":{"ID":313168,"DIS_CODE":0,"TOWNNAME":"玉井區","LI":"望明里","LIN":"5鄰","STREET":" ","SECT":" ","MAREA":"望明","LANE":" ","ALLEY":" ","HOUSE_NO":"５０之２號","E_COORD97":194169.63,"N_COORD97":2556019.29,"ADDRESS":"望明５０之２號","OBJECTID":313160},"geometry":{"x":194169.63000000082,"y":2556019.2899999991}},{"attributes":{"ID":313169,"DIS_CODE":0,"TOWNNAME":"歸仁區","LI":"武東里","LIN":"7鄰","STREET":"武東二街","SECT":" ","MAREA":" ","LANE":"４２巷","ALLEY":" ","HOUSE_NO":"１８９號","E_COORD97":176144.34,"N_COORD97":2535282.25,"ADDRESS":"武東二街４２巷１８９號","OBJECTID":313161},"geometry":{"x":176144.34000000171,"y":2535282.2500000037}},{"attributes":{"ID":313170,"DIS_CODE":0,"TOWNNAME":"玉井區","LI":"望明里","LIN":"4鄰","STREET":" ","SECT":" ","MAREA":"望明","LANE":" ","ALLEY":" ","HOUSE_NO":"４６之１６號","E_COORD97":194280.17999999999,"N_COORD97":2555983.2999999998,"ADDRESS":"望明４６之１６號","OBJECTID":313162},"geometry":{"x":194280.1799999997,"y":2555983.3000000007}},{"attributes":{"ID":313171,"DIS_CODE":0,"TOWNNAME":"玉井區","LI":"望明里","LIN":"5鄰","STREET":" ","SECT":" ","MAREA":"望明","LANE":" ","ALLEY":" ","HOUSE_NO":"５４之２號","E_COORD97":194192.22,"N_COORD97":2556089.29,"ADDRESS":"望明５４之２號","OBJECTID":313163},"geometry":{"x":194192.22000000067,"y":2556089.290000001}},{"attributes":{"ID":313172,"DIS_CODE":0,"TOWNNAME":"玉井區","LI":"望明里","LIN":"5鄰","STREET":" ","SECT":" ","MAREA":"望明","LANE":" ","ALLEY":" ","HOUSE_NO":"５０之７號","E_COORD97":194147.84,"N_COORD97":2556019.29,"ADDRESS":"望明５０之７號","OBJECTID":313164},"geometry":{"x":194147.84000000078,"y":2556019.2899999991}},{"attributes":{"ID":313173,"DIS_CODE":0,"TOWNNAME":"歸仁區","LI":"七甲里","LIN":"7鄰","STREET":"七甲三街","SECT":" ","MAREA":" ","LANE":"５２巷","ALLEY":" ","HOUSE_NO":"１７號","E_COORD97":177561.84,"N_COORD97":2542811.6600000001,"ADDRESS":"七甲三街５２巷１７號","OBJECTID":313165},"geometry":{"x":177561.84000000078,"y":2542811.6600000001}},{"attributes":{"ID":313174,"DIS_CODE":0,"TOWNNAME":"玉井區","LI":"望明里","LIN":"13鄰","STREET":" ","SECT":" ","MAREA":"望明","LANE":" ","ALLEY":" ","HOUSE_NO":"１３６號之２","E_COORD97":192342.95000000001,"N_COORD97":2556579.2999999998,"ADDRESS":"望明１３６號之２","OBJECTID":313166},"geometry":{"x":192342.95000000019,"y":2556579.3000000007}},{"attributes":{"ID":313175,"DIS_CODE":0,"TOWNNAME":"玉井區","LI":"沙田里","LIN":"4鄰","STREET":" ","SECT":" ","MAREA":"沙田","LANE":" ","ALLEY":" ","HOUSE_NO":"３５號之１","E_COORD97":196471.87,"N_COORD97":2556525.29,"ADDRESS":"沙田３５號之１","OBJECTID":313167},"geometry":{"x":196471.87000000104,"y":2556525.2900000028}},{"attributes":{"ID":313176,"DIS_CODE":0,"TOWNNAME":"歸仁區","LI":"南保里","LIN":"7鄰","STREET":"文化街","SECT":"三段","MAREA":" ","LANE":"１８巷","ALLEY":" ","HOUSE_NO":"２２號","E_COORD97":176985.04000000001,"N_COORD97":2541328.3300000001,"ADDRESS":"文化街三段１８巷２２號","OBJECTID":313168},"geometry":{"x":176985.04000000004,"y":2541328.3300000019}},{"attributes":{"ID":313177,"DIS_CODE":0,"TOWNNAME":"玉井區","LI":"望明里","LIN":"4鄰","STREET":" ","SECT":" ","MAREA":"望明","LANE":" ","ALLEY":" ","HOUSE_NO":"４６之２０號","E_COORD97":194280.29000000001,"N_COORD97":2555966.2999999998,"ADDRESS":"望明４６之２０號","OBJECTID":313169},"geometry":{"x":194280.29000000097,"y":2555966.3000000007}},{"attributes":{"ID":313178,"DIS_CODE":0,"TOWNNAME":"歸仁區","LI":"武東里","LIN":"7鄰","STREET":"武東二街","SECT":" ","MAREA":" ","LANE":"４２巷","ALLEY":" ","HOUSE_NO":"１號","E_COORD97":175590.94,"N_COORD97":2535283.25,"ADDRESS":"武東二街４２巷１號","OBJECTID":313170},"geometry":{"x":175590.94000000041,"y":2535283.2500000019}},{"attributes":{"ID":313179,"DIS_CODE":0,"TOWNNAME":"南區","LI":"金華里","LIN":"7鄰","STREET":"金華路","SECT":"二段","MAREA":" ","LANE":"５１巷","ALLEY":" ","HOUSE_NO":"４０號","E_COORD97":166945.04999999999,"N_COORD97":2542094.8700000001,"ADDRESS":"金華路二段５１巷４０號","OBJECTID":313171},"geometry":{"x":166945.05000000075,"y":2542094.8700000029}},{"attributes":{"ID":313180,"DIS_CODE":0,"TOWNNAME":"南區","LI":"金華里","LIN":"7鄰","STREET":"金華路","SECT":"二段","MAREA":" ","LANE":"５１巷","ALLEY":" ","HOUSE_NO":"４１號","E_COORD97":166938.73999999999,"N_COORD97":2542074.8399999999,"ADDRESS":"金華路二段５１巷４１號","OBJECTID":313172},"geometry":{"x":166938.73999999929,"y":2542074.8399999999}},{"attributes":{"ID":313181,"DIS_CODE":0,"TOWNNAME":"南區","LI":"金華里","LIN":"7鄰","STREET":"金華路","SECT":"二段","MAREA":" ","LANE":"５１巷","ALLEY":" ","HOUSE_NO":"４２號","E_COORD97":166939.54999999999,"N_COORD97":2542095.48,"ADDRESS":"金華路二段５１巷４２號","OBJECTID":313173},"geometry":{"x":166939.54999999888,"y":2542095.4799999986}},{"attributes":{"ID":313182,"DIS_CODE":0,"TOWNNAME":"南區","LI":"金華里","LIN":"7鄰","STREET":"金華路","SECT":"二段","MAREA":" ","LANE":"５１巷","ALLEY":" ","HOUSE_NO":"４３號","E_COORD97":166933.29000000001,"N_COORD97":2542075.5800000001,"ADDRESS":"金華路二段５１巷４３號","OBJECTID":313174},"geometry":{"x":166933.2900000019,"y":2542075.5800000019}},{"attributes":{"ID":313183,"DIS_CODE":0,"TOWNNAME":"玉井區","LI":"望明里","LIN":"1鄰","STREET":" ","SECT":" ","MAREA":"望明","LANE":" ","ALLEY":" ","HOUSE_NO":"３號","E_COORD97":194358.29000000001,"N_COORD97":2556157.25,"ADDRESS":"望明３號","OBJECTID":313175},"geometry":{"x":194358.29000000097,"y":2556157.2500000019}},{"attributes":{"ID":313184,"DIS_CODE":0,"TOWNNAME":"南區","LI":"金華里","LIN":"7鄰","STREET":"金華路","SECT":"二段","MAREA":" ","LANE":"５１巷","ALLEY":" ","HOUSE_NO":"４４號","E_COORD97":166935.28,"N_COORD97":2542095.8300000001,"ADDRESS":"金華路二段５１巷４４號","OBJECTID":313176},"geometry":{"x":166935.28000000212,"y":2542095.8300000001}},{"attributes":{"ID":313185,"DIS_CODE":0,"TOWNNAME":"南區","LI":"金華里","LIN":"7鄰","STREET":"金華路","SECT":"二段","MAREA":" ","LANE":"５１巷","ALLEY":" ","HOUSE_NO":"４５號","E_COORD97":166928.32999999999,"N_COORD97":2542075.8300000001,"ADDRESS":"金華路二段５１巷４５號","OBJECTID":313177},"geometry":{"x":166928.33000000101,"y":2542075.8299999982}},{"attributes":{"ID":313186,"DIS_CODE":0,"TOWNNAME":"南區","LI":"金華里","LIN":"7鄰","STREET":"金華路","SECT":"二段","MAREA":" ","LANE":"５１巷","ALLEY":" ","HOUSE_NO":"４６號","E_COORD97":166930.14000000001,"N_COORD97":2542096.0899999999,"ADDRESS":"金華路二段５１巷４６號","OBJECTID":313178},"geometry":{"x":166930.13999999966,"y":2542096.0899999999}},{"attributes":{"ID":313187,"DIS_CODE":0,"TOWNNAME":"南區","LI":"金華里","LIN":"7鄰","STREET":"金華路","SECT":"二段","MAREA":" ","LANE":"５１巷","ALLEY":" ","HOUSE_NO":"４７號","E_COORD97":166924.10999999999,"N_COORD97":2542075.8300000001,"ADDRESS":"金華路二段５１巷４７號","OBJECTID":313179},"geometry":{"x":166924.11000000034,"y":2542075.8299999982}},{"attributes":{"ID":313188,"DIS_CODE":0,"TOWNNAME":"玉井區","LI":"望明里","LIN":"4鄰","STREET":" ","SECT":" ","MAREA":"望明","LANE":" ","ALLEY":" ","HOUSE_NO":"４６之１８號","E_COORD97":194280.39000000001,"N_COORD97":2555974.2999999998,"ADDRESS":"望明４６之１８號","OBJECTID":313180},"geometry":{"x":194280.38999999966,"y":2555974.3000000045}},{"attributes":{"ID":313189,"DIS_CODE":0,"TOWNNAME":"玉井區","LI":"望明里","LIN":"5鄰","STREET":" ","SECT":" ","MAREA":"望明","LANE":" ","ALLEY":" ","HOUSE_NO":"５２號","E_COORD97":194142.73000000001,"N_COORD97":2556089.2400000002,"ADDRESS":"望明５２號","OBJECTID":313181},"geometry":{"x":194142.73000000045,"y":2556089.2400000039}},{"attributes":{"ID":313190,"DIS_CODE":0,"TOWNNAME":"南區","LI":"金華里","LIN":"7鄰","STREET":"金華路","SECT":"二段","MAREA":" ","LANE":"５１巷","ALLEY":" ","HOUSE_NO":"４８號","E_COORD97":166925.70000000001,"N_COORD97":2542096.7000000002,"ADDRESS":"金華路二段５１巷４８號","OBJECTID":313182},"geometry":{"x":166925.70000000112,"y":2542096.7000000011}},{"attributes":{"ID":313191,"DIS_CODE":0,"TOWNNAME":"南區","LI":"金華里","LIN":"7鄰","STREET":"金華路","SECT":"二段","MAREA":" ","LANE":"５１巷","ALLEY":" ","HOUSE_NO":"４９號","E_COORD97":166918.91,"N_COORD97":2542076.5699999998,"ADDRESS":"金華路二段５１巷４９號","OBJECTID":313183},"geometry":{"x":166918.91000000201,"y":2542076.5700000003}},{"attributes":{"ID":313192,"DIS_CODE":0,"TOWNNAME":"新市區","LI":"永就里","LIN":"6鄰","STREET":" ","SECT":" ","MAREA":"永就","LANE":" ","ALLEY":" ","HOUSE_NO":"６８之１０號","E_COORD97":177837.897528,"N_COORD97":2550446.50618,"ADDRESS":"永就６８之１０號","OBJECTID":313184},"geometry":{"x":177837.89752800111,"y":2550446.506183004}},{"attributes":{"ID":313193,"DIS_CODE":0,"TOWNNAME":"南區","LI":"金華里","LIN":"7鄰","STREET":"金華路","SECT":"二段","MAREA":" ","LANE":"５１巷","ALLEY":" ","HOUSE_NO":"５１號","E_COORD97":166913.95000000001,"N_COORD97":2542076.5699999998,"ADDRESS":"金華路二段５１巷５１號","OBJECTID":313185},"geometry":{"x":166913.95000000112,"y":2542076.5700000003}},{"attributes":{"ID":313194,"DIS_CODE":0,"TOWNNAME":"南區","LI":"金華里","LIN":"7鄰","STREET":"金華路","SECT":"二段","MAREA":" ","LANE":"５１巷","ALLEY":" ","HOUSE_NO":"５２號","E_COORD97":166915.85000000001,"N_COORD97":2542098.8700000001,"ADDRESS":"金華路二段５１巷５２號","OBJECTID":313186},"geometry":{"x":166915.85000000056,"y":2542098.870000001}},{"attributes":{"ID":313195,"DIS_CODE":0,"TOWNNAME":"玉井區","LI":"層林里","LIN":"4鄰","STREET":" ","SECT":" ","MAREA":"層林","LANE":" ","ALLEY":" ","HOUSE_NO":"５１之３號","E_COORD97":191195.67000000001,"N_COORD97":2551574.29,"ADDRESS":"層林５１之３號","OBJECTID":313187},"geometry":{"x":191195.67000000086,"y":2551574.2899999991}},{"attributes":{"ID":313196,"DIS_CODE":0,"TOWNNAME":"南區","LI":"金華里","LIN":"7鄰","STREET":"金華路","SECT":"二段","MAREA":" ","LANE":"５１巷","ALLEY":" ","HOUSE_NO":"５３號","E_COORD97":166908.98999999999,"N_COORD97":2542077.8100000001,"ADDRESS":"金華路二段５１巷５３號","OBJECTID":313188},"geometry":{"x":166908.99000000115,"y":2542077.8100000024}},{"attributes":{"ID":313197,"DIS_CODE":0,"TOWNNAME":"玉井區","LI":"望明里","LIN":"9鄰","STREET":" ","SECT":" ","MAREA":"劉陳","LANE":" ","ALLEY":" ","HOUSE_NO":"６６號","E_COORD97":193462.51000000001,"N_COORD97":2556115.2400000002,"ADDRESS":"劉陳６６號","OBJECTID":313189},"geometry":{"x":193462.50999999978,"y":2556115.2400000002}},{"attributes":{"ID":313198,"DIS_CODE":0,"TOWNNAME":"南區","LI":"金華里","LIN":"7鄰","STREET":"金華路","SECT":"二段","MAREA":" ","LANE":"５１巷","ALLEY":" ","HOUSE_NO":"５４號","E_COORD97":166910.70000000001,"N_COORD97":2542098.7000000002,"ADDRESS":"金華路二段５１巷５４號","OBJECTID":313190},"geometry":{"x":166910.70000000112,"y":2542098.6999999993}},{"attributes":{"ID":313199,"DIS_CODE":0,"TOWNNAME":"玉井區","LI":"望明里","LIN":"4鄰","STREET":" ","SECT":" ","MAREA":"望明","LANE":" ","ALLEY":" ","HOUSE_NO":"４６之１７號","E_COORD97":194280.17999999999,"N_COORD97":2555978.2999999998,"ADDRESS":"望明４６之１７號","OBJECTID":313191},"geometry":{"x":194280.1799999997,"y":2555978.3000000026}},{"attributes":{"ID":313200,"DIS_CODE":0,"TOWNNAME":"玉井區","LI":"望明里","LIN":"5鄰","STREET":" ","SECT":" ","MAREA":"望明","LANE":" ","ALLEY":" ","HOUSE_NO":"５３之６號","E_COORD97":193961.54000000001,"N_COORD97":2556168.2999999998,"ADDRESS":"望明５３之６號","OBJECTID":313192},"geometry":{"x":193961.54000000097,"y":2556168.3000000026}},{"attributes":{"ID":313201,"DIS_CODE":0,"TOWNNAME":"玉井區","LI":"望明里","LIN":"5鄰","STREET":" ","SECT":" ","MAREA":"望明","LANE":" ","ALLEY":" ","HOUSE_NO":"５３之３號","E_COORD97":194000.42999999999,"N_COORD97":2556176.2999999998,"ADDRESS":"望明５３之３號","OBJECTID":313193},"geometry":{"x":194000.4299999997,"y":2556176.3000000007}},{"attributes":{"ID":313202,"DIS_CODE":0,"TOWNNAME":"玉井區","LI":"望明里","LIN":"5鄰","STREET":" ","SECT":" ","MAREA":"望明","LANE":" ","ALLEY":" ","HOUSE_NO":"５４號","E_COORD97":194187.64000000001,"N_COORD97":2556109.2400000002,"ADDRESS":"望明５４號","OBJECTID":313194},"geometry":{"x":194187.6400000006,"y":2556109.2400000002}},{"attributes":{"ID":313203,"DIS_CODE":0,"TOWNNAME":"南區","LI":"金華里","LIN":"7鄰","STREET":"金華路","SECT":"二段","MAREA":" ","LANE":"５１巷","ALLEY":" ","HOUSE_NO":"５５號","E_COORD97":166904.76999999999,"N_COORD97":2542077.8100000001,"ADDRESS":"金華路二段５１巷５５號","OBJECTID":313195},"geometry":{"x":166904.77000000048,"y":2542077.8100000024}},{"attributes":{"ID":313204,"DIS_CODE":0,"TOWNNAME":"南區","LI":"金華里","LIN":"7鄰","STREET":"金華路","SECT":"二段","MAREA":" ","LANE":"５１巷","ALLEY":" ","HOUSE_NO":"５６號","E_COORD97":166907.04000000001,"N_COORD97":2542098.79,"ADDRESS":"金華路二段５１巷５６號","OBJECTID":313196},"geometry":{"x":166907.04000000004,"y":2542098.7899999972}},{"attributes":{"ID":313205,"DIS_CODE":0,"TOWNNAME":"歸仁區","LI":"辜厝里","LIN":"28鄰","STREET":"大吉街","SECT":" ","MAREA":" ","LANE":"１１３巷","ALLEY":" ","HOUSE_NO":"９號","E_COORD97":177249.64000000001,"N_COORD97":2540568.6800000002,"ADDRESS":"大吉街１１３巷９號","OBJECTID":313197},"geometry":{"x":177249.6400000006,"y":2540568.6800000016}},{"attributes":{"ID":313206,"DIS_CODE":0,"TOWNNAME":"南區","LI":"金華里","LIN":"7鄰","STREET":"金華路","SECT":"二段","MAREA":" ","LANE":"５１巷","ALLEY":" ","HOUSE_NO":"５７號","E_COORD97":166899.07000000001,"N_COORD97":2542078.7999999998,"ADDRESS":"金華路二段５１巷５７號","OBJECTID":313198},"geometry":{"x":166899.0700000003,"y":2542078.8000000007}},{"attributes":{"ID":313207,"DIS_CODE":0,"TOWNNAME":"南區","LI":"金華里","LIN":"7鄰","STREET":"金華路","SECT":"二段","MAREA":" ","LANE":"５１巷","ALLEY":" ","HOUSE_NO":"５８號","E_COORD97":166901.98999999999,"N_COORD97":2542100.27,"ADDRESS":"金華路二段５１巷５８號","OBJECTID":313199},"geometry":{"x":166901.99000000115,"y":2542100.2700000014}},{"attributes":{"ID":313208,"DIS_CODE":0,"TOWNNAME":"南區","LI":"金華里","LIN":"7鄰","STREET":"金華路","SECT":"二段","MAREA":" ","LANE":"５１巷","ALLEY":" ","HOUSE_NO":"５９號","E_COORD97":166885.67999999999,"N_COORD97":2542078.5499999998,"ADDRESS":"金華路二段５１巷５９號","OBJECTID":313200},"geometry":{"x":166885.6799999997,"y":2542078.5500000045}}]}