{"displayFieldName":"TOWNNAME","fieldAliases":{"ID":"ID","DIS_CODE":"DIS_CODE","TOWNNAME":"TOWNNAME","LI":"LI","LIN":"LIN","STREET":"STREET","SECT":"SECT","MAREA":"MAREA","LANE":"LANE","ALLEY":"ALLEY","HOUSE_NO":"HOUSE_NO","E_COORD97":"E_COORD97","N_COORD97":"N_COORD97","ADDRESS":"ADDRESS","OBJECTID":"OBJECTID"},"geometryType":"esriGeometryPoint","spatialReference":{"wkid":102443,"latestWkid":3826},"fields":[{"name":"ID","type":"esriFieldTypeDouble","alias":"ID"},{"name":"DIS_CODE","type":"esriFieldTypeInteger","alias":"DIS_CODE"},{"name":"TOWNNAME","type":"esriFieldTypeString","alias":"TOWNNAME","length":8},{"name":"LI","type":"esriFieldTypeString","alias":"LI","length":8},{"name":"LIN","type":"esriFieldTypeString","alias":"LIN","length":12},{"name":"STREET","type":"esriFieldTypeString","alias":"STREET","length":20},{"name":"SECT","type":"esriFieldTypeString","alias":"SECT","length":8},{"name":"MAREA","type":"esriFieldTypeString","alias":"MAREA","length":12},{"name":"LANE","type":"esriFieldTypeString","alias":"LANE","length":10},{"name":"ALLEY","type":"esriFieldTypeString","alias":"ALLEY","length":10},{"name":"HOUSE_NO","type":"esriFieldTypeString","alias":"HOUSE_NO","length":20},{"name":"E_COORD97","type":"esriFieldTypeDouble","alias":"E_COORD97"},{"name":"N_COORD97","type":"esriFieldTypeDouble","alias":"N_COORD97"},{"name":"ADDRESS","type":"esriFieldTypeString","alias":"ADDRESS","length":50},{"name":"OBJECTID","type":"esriFieldTypeOID","alias":"OBJECTID"}],"features":[{"attributes":{"ID":631428,"DIS_CODE":0,"TOWNNAME":"佳里區","LI":"忠仁里","LIN":"14鄰","STREET":"博愛東街","SECT":" ","MAREA":" ","LANE":" ","ALLEY":" ","HOUSE_NO":"１０６號","E_COORD97":166205.87,"N_COORD97":2562055.54,"ADDRESS":"博愛東街１０６號","OBJECTID":631401},"geometry":{"x":166205.87000000104,"y":2562055.5399999991}},{"attributes":{"ID":631429,"DIS_CODE":0,"TOWNNAME":"佳里區","LI":"忠仁里","LIN":"14鄰","STREET":"博愛東街","SECT":" ","MAREA":" ","LANE":" ","ALLEY":" ","HOUSE_NO":"１０８號","E_COORD97":166201.09,"N_COORD97":2562055.9700000002,"ADDRESS":"博愛東街１０８號","OBJECTID":631402},"geometry":{"x":166201.09000000078,"y":2562055.9700000025}},{"attributes":{"ID":631430,"DIS_CODE":0,"TOWNNAME":"佳里區","LI":"忠仁里","LIN":"14鄰","STREET":"博愛東街","SECT":" ","MAREA":" ","LANE":" ","ALLEY":" ","HOUSE_NO":"１號","E_COORD97":166305.10999999999,"N_COORD97":2561982.7400000002,"ADDRESS":"博愛東街１號","OBJECTID":631403},"geometry":{"x":166305.11000000034,"y":2561982.7400000021}},{"attributes":{"ID":631431,"DIS_CODE":0,"TOWNNAME":"佳里區","LI":"忠仁里","LIN":"14鄰","STREET":"博愛東街","SECT":" ","MAREA":" ","LANE":" ","ALLEY":" ","HOUSE_NO":"２５號","E_COORD97":166292.35000000001,"N_COORD97":2562020.8399999999,"ADDRESS":"博愛東街２５號","OBJECTID":631404},"geometry":{"x":166292.35000000056,"y":2562020.8399999999}},{"attributes":{"ID":631432,"DIS_CODE":0,"TOWNNAME":"佳里區","LI":"忠仁里","LIN":"14鄰","STREET":"博愛東街","SECT":" ","MAREA":" ","LANE":" ","ALLEY":" ","HOUSE_NO":"２７號","E_COORD97":166289.87,"N_COORD97":2562007.54,"ADDRESS":"博愛東街２７號","OBJECTID":631405},"geometry":{"x":166289.87000000011,"y":2562007.5399999991}},{"attributes":{"ID":631433,"DIS_CODE":0,"TOWNNAME":"佳里區","LI":"忠仁里","LIN":"14鄰","STREET":"博愛東街","SECT":" ","MAREA":" ","LANE":" ","ALLEY":" ","HOUSE_NO":"３號","E_COORD97":166304.29999999999,"N_COORD97":2561987.6899999999,"ADDRESS":"博愛東街３號","OBJECTID":631406},"geometry":{"x":166304.30000000075,"y":2561987.6899999995}},{"attributes":{"ID":631434,"DIS_CODE":0,"TOWNNAME":"佳里區","LI":"忠仁里","LIN":"14鄰","STREET":"博愛東街","SECT":" ","MAREA":" ","LANE":" ","ALLEY":" ","HOUSE_NO":"４９號","E_COORD97":166273.85999999999,"N_COORD97":2562017.4100000001,"ADDRESS":"博愛東街４９號","OBJECTID":631407},"geometry":{"x":166273.86000000127,"y":2562017.4100000001}},{"attributes":{"ID":631435,"DIS_CODE":0,"TOWNNAME":"佳里區","LI":"建南里","LIN":"28鄰","STREET":"勝利路","SECT":" ","MAREA":" ","LANE":" ","ALLEY":" ","HOUSE_NO":"９８號","E_COORD97":165898.17999999999,"N_COORD97":2561285.3900000001,"ADDRESS":"勝利路９８號","OBJECTID":631408},"geometry":{"x":165898.18000000063,"y":2561285.3900000006}},{"attributes":{"ID":631436,"DIS_CODE":0,"TOWNNAME":"佳里區","LI":"忠仁里","LIN":"14鄰","STREET":"博愛東街","SECT":" ","MAREA":" ","LANE":" ","ALLEY":" ","HOUSE_NO":"６３號","E_COORD97":166228.53,"N_COORD97":2562030.0600000001,"ADDRESS":"博愛東街６３號","OBJECTID":631409},"geometry":{"x":166228.53000000119,"y":2562030.0600000005}},{"attributes":{"ID":631437,"DIS_CODE":0,"TOWNNAME":"佳里區","LI":"忠仁里","LIN":"14鄰","STREET":"博愛東街","SECT":" ","MAREA":" ","LANE":" ","ALLEY":" ","HOUSE_NO":"６５號","E_COORD97":166220.42000000001,"N_COORD97":2562028.7200000002,"ADDRESS":"博愛東街６５號","OBJECTID":631410},"geometry":{"x":166220.42000000086,"y":2562028.7200000007}},{"attributes":{"ID":631438,"DIS_CODE":0,"TOWNNAME":"佳里區","LI":"建南里","LIN":"18鄰","STREET":"博愛街","SECT":" ","MAREA":" ","LANE":" ","ALLEY":" ","HOUSE_NO":"１３５號","E_COORD97":165727.48000000001,"N_COORD97":2561967.5,"ADDRESS":"博愛街１３５號","OBJECTID":631411},"geometry":{"x":165727.48000000138,"y":2561967.5000000019}},{"attributes":{"ID":631439,"DIS_CODE":0,"TOWNNAME":"佳里區","LI":"建南里","LIN":"18鄰","STREET":"博愛街","SECT":" ","MAREA":" ","LANE":" ","ALLEY":" ","HOUSE_NO":"１３７號","E_COORD97":165723.29999999999,"N_COORD97":2561967.2599999998,"ADDRESS":"博愛街１３７號","OBJECTID":631412},"geometry":{"x":165723.30000000075,"y":2561967.2599999979}},{"attributes":{"ID":631440,"DIS_CODE":0,"TOWNNAME":"佳里區","LI":"建南里","LIN":"18鄰","STREET":"博愛街","SECT":" ","MAREA":" ","LANE":" ","ALLEY":" ","HOUSE_NO":"１３９號","E_COORD97":165718.28,"N_COORD97":2561967.0800000001,"ADDRESS":"博愛街１３９號","OBJECTID":631413},"geometry":{"x":165718.28000000119,"y":2561967.0800000019}},{"attributes":{"ID":631441,"DIS_CODE":0,"TOWNNAME":"佳里區","LI":"建南里","LIN":"18鄰","STREET":"博愛街","SECT":" ","MAREA":" ","LANE":" ","ALLEY":" ","HOUSE_NO":"１４１號","E_COORD97":165713.5,"N_COORD97":2561966.9199999999,"ADDRESS":"博愛街１４１號","OBJECTID":631414},"geometry":{"x":165713.50000000093,"y":2561966.9200000018}},{"attributes":{"ID":631442,"DIS_CODE":0,"TOWNNAME":"佳里區","LI":"忠仁里","LIN":"6鄰","STREET":"博愛街","SECT":" ","MAREA":" ","LANE":" ","ALLEY":" ","HOUSE_NO":"１２１號","E_COORD97":165799.73999999999,"N_COORD97":2561973.6499999999,"ADDRESS":"博愛街１２１號","OBJECTID":631415},"geometry":{"x":165799.74000000209,"y":2561973.6500000022}},{"attributes":{"ID":631443,"DIS_CODE":0,"TOWNNAME":"佳里區","LI":"忠仁里","LIN":"6鄰","STREET":"博愛街","SECT":" ","MAREA":" ","LANE":" ","ALLEY":" ","HOUSE_NO":"１２３號","E_COORD97":165795.64999999999,"N_COORD97":2561973.25,"ADDRESS":"博愛街１２３號","OBJECTID":631416},"geometry":{"x":165795.6500000013,"y":2561973.25}},{"attributes":{"ID":631444,"DIS_CODE":0,"TOWNNAME":"佳里區","LI":"忠仁里","LIN":"6鄰","STREET":"博愛街","SECT":" ","MAREA":" ","LANE":" ","ALLEY":" ","HOUSE_NO":"１２５號","E_COORD97":165791.37,"N_COORD97":2561973.3999999999,"ADDRESS":"博愛街１２５號","OBJECTID":631417},"geometry":{"x":165791.37000000011,"y":2561973.4000000004}},{"attributes":{"ID":631445,"DIS_CODE":0,"TOWNNAME":"佳里區","LI":"忠仁里","LIN":"6鄰","STREET":"博愛街","SECT":" ","MAREA":" ","LANE":" ","ALLEY":" ","HOUSE_NO":"１２７號","E_COORD97":165787.35999999999,"N_COORD97":2561972.9900000002,"ADDRESS":"博愛街１２７號","OBJECTID":631418},"geometry":{"x":165787.36000000127,"y":2561972.9899999984}},{"attributes":{"ID":631446,"DIS_CODE":0,"TOWNNAME":"佳里區","LI":"忠仁里","LIN":"19鄰","STREET":"博愛街","SECT":" ","MAREA":" ","LANE":" ","ALLEY":" ","HOUSE_NO":"１２號","E_COORD97":166141.67999999999,"N_COORD97":2562037.96,"ADDRESS":"博愛街１２號","OBJECTID":631419},"geometry":{"x":166141.6799999997,"y":2562037.9600000009}},{"attributes":{"ID":631447,"DIS_CODE":0,"TOWNNAME":"佳里區","LI":"忠仁里","LIN":"19鄰","STREET":"博愛街","SECT":" ","MAREA":" ","LANE":" ","ALLEY":" ","HOUSE_NO":"１４號","E_COORD97":166137.07000000001,"N_COORD97":2562037.6099999999,"ADDRESS":"博愛街１４號","OBJECTID":631420},"geometry":{"x":166137.07000000123,"y":2562037.6100000013}},{"attributes":{"ID":631448,"DIS_CODE":0,"TOWNNAME":"佳里區","LI":"忠仁里","LIN":"19鄰","STREET":"博愛街","SECT":" ","MAREA":" ","LANE":" ","ALLEY":" ","HOUSE_NO":"１６號","E_COORD97":166133.31,"N_COORD97":2562037.1499999999,"ADDRESS":"博愛街１６號","OBJECTID":631421},"geometry":{"x":166133.31000000052,"y":2562037.1500000022}},{"attributes":{"ID":631449,"DIS_CODE":0,"TOWNNAME":"佳里區","LI":"忠仁里","LIN":"19鄰","STREET":"博愛街","SECT":" ","MAREA":" ","LANE":" ","ALLEY":" ","HOUSE_NO":"１８號","E_COORD97":166121.07000000001,"N_COORD97":2562042.1699999999,"ADDRESS":"博愛街１８號","OBJECTID":631422},"geometry":{"x":166121.0700000003,"y":2562042.1699999999}},{"attributes":{"ID":631450,"DIS_CODE":0,"TOWNNAME":"佳里區","LI":"建南里","LIN":"14鄰","STREET":"復興路","SECT":" ","MAREA":" ","LANE":" ","ALLEY":" ","HOUSE_NO":"２０８號","E_COORD97":164981.59,"N_COORD97":2561717.5699999998,"ADDRESS":"復興路２０８號","OBJECTID":631423},"geometry":{"x":164981.59000000171,"y":2561717.5700000003}},{"attributes":{"ID":631451,"DIS_CODE":0,"TOWNNAME":"佳里區","LI":"建南里","LIN":"14鄰","STREET":"復興路","SECT":" ","MAREA":" ","LANE":" ","ALLEY":" ","HOUSE_NO":"２１０號","E_COORD97":164946.73000000001,"N_COORD97":2561678.6099999999,"ADDRESS":"復興路２１０號","OBJECTID":631424},"geometry":{"x":164946.73000000045,"y":2561678.6099999994}},{"attributes":{"ID":631452,"DIS_CODE":0,"TOWNNAME":"東區","LI":"路東里","LIN":"8鄰","STREET":"大同路","SECT":"二段","MAREA":" ","LANE":" ","ALLEY":" ","HOUSE_NO":"５３號","E_COORD97":169304.75,"N_COORD97":2542262.6099999999,"ADDRESS":"大同路二段５３號","OBJECTID":631425},"geometry":{"x":169304.75,"y":2542262.6099999994}},{"attributes":{"ID":631453,"DIS_CODE":0,"TOWNNAME":"東區","LI":"路東里","LIN":"8鄰","STREET":"大同路","SECT":"二段","MAREA":" ","LANE":" ","ALLEY":" ","HOUSE_NO":"２５號","E_COORD97":169275.26999999999,"N_COORD97":2542328.6099999999,"ADDRESS":"大同路二段２５號","OBJECTID":631426},"geometry":{"x":169275.26999999955,"y":2542328.6100000013}},{"attributes":{"ID":631454,"DIS_CODE":0,"TOWNNAME":"東區","LI":"路東里","LIN":"8鄰","STREET":"大同路","SECT":"二段","MAREA":" ","LANE":" ","ALLEY":" ","HOUSE_NO":"２７號","E_COORD97":169274.98999999999,"N_COORD97":2542325.0800000001,"ADDRESS":"大同路二段２７號","OBJECTID":631427},"geometry":{"x":169274.99000000115,"y":2542325.0800000038}},{"attributes":{"ID":631455,"DIS_CODE":0,"TOWNNAME":"東區","LI":"路東里","LIN":"8鄰","STREET":"大同路","SECT":"二段","MAREA":" ","LANE":" ","ALLEY":" ","HOUSE_NO":"７號","E_COORD97":169259.5,"N_COORD97":2542363.6699999999,"ADDRESS":"大同路二段７號","OBJECTID":631428},"geometry":{"x":169259.50000000093,"y":2542363.6699999999}},{"attributes":{"ID":631456,"DIS_CODE":0,"TOWNNAME":"東區","LI":"路東里","LIN":"8鄰","STREET":"大同路","SECT":"二段","MAREA":" ","LANE":" ","ALLEY":" ","HOUSE_NO":"９號","E_COORD97":169260.59,"N_COORD97":2542361.5,"ADDRESS":"大同路二段９號","OBJECTID":631429},"geometry":{"x":169260.59000000078,"y":2542361.5}},{"attributes":{"ID":631457,"DIS_CODE":0,"TOWNNAME":"學甲區","LI":"新達里","LIN":"4鄰","STREET":"中山路","SECT":" ","MAREA":" ","LANE":" ","ALLEY":" ","HOUSE_NO":"７８號之１","E_COORD97":166292.14000000001,"N_COORD97":2570479.4300000002,"ADDRESS":"中山路７８號之１","OBJECTID":631430},"geometry":{"x":166292.1400000006,"y":2570479.4300000034}},{"attributes":{"ID":631458,"DIS_CODE":0,"TOWNNAME":"學甲區","LI":"新達里","LIN":"4鄰","STREET":"中山路","SECT":" ","MAREA":" ","LANE":" ","ALLEY":" ","HOUSE_NO":"７８號","E_COORD97":166297.04000000001,"N_COORD97":2570478.4300000002,"ADDRESS":"中山路７８號","OBJECTID":631431},"geometry":{"x":166297.04000000004,"y":2570478.4299999997}},{"attributes":{"ID":631459,"DIS_CODE":0,"TOWNNAME":"學甲區","LI":"新達里","LIN":"4鄰","STREET":"中山路","SECT":" ","MAREA":" ","LANE":" ","ALLEY":" ","HOUSE_NO":"８０號","E_COORD97":166287.26999999999,"N_COORD97":2570480.2799999998,"ADDRESS":"中山路８０號","OBJECTID":631432},"geometry":{"x":166287.27000000048,"y":2570480.2800000031}},{"attributes":{"ID":631460,"DIS_CODE":0,"TOWNNAME":"學甲區","LI":"明宜里","LIN":"20鄰","STREET":"中山路","SECT":" ","MAREA":" ","LANE":" ","ALLEY":" ","HOUSE_NO":"１６８號","E_COORD97":165975.89000000001,"N_COORD97":2570549.0099999998,"ADDRESS":"中山路１６８號","OBJECTID":631433},"geometry":{"x":165975.88999999966,"y":2570549.0099999998}},{"attributes":{"ID":631461,"DIS_CODE":0,"TOWNNAME":"學甲區","LI":"明宜里","LIN":"8鄰","STREET":"中山路","SECT":" ","MAREA":" ","LANE":" ","ALLEY":" ","HOUSE_NO":"１７３號之１０","E_COORD97":165820.91,"N_COORD97":2570546.1099999999,"ADDRESS":"中山路１７３號之１０","OBJECTID":631434},"geometry":{"x":165820.91000000108,"y":2570546.1100000013}},{"attributes":{"ID":631462,"DIS_CODE":0,"TOWNNAME":"學甲區","LI":"明宜里","LIN":"8鄰","STREET":"中山路","SECT":" ","MAREA":" ","LANE":" ","ALLEY":" ","HOUSE_NO":"１７３號之４","E_COORD97":165845.73000000001,"N_COORD97":2570540.5,"ADDRESS":"中山路１７３號之４","OBJECTID":631435},"geometry":{"x":165845.73000000231,"y":2570540.5000000037}},{"attributes":{"ID":631463,"DIS_CODE":0,"TOWNNAME":"學甲區","LI":"明宜里","LIN":"8鄰","STREET":"中山路","SECT":" ","MAREA":" ","LANE":" ","ALLEY":" ","HOUSE_NO":"１７３號之５","E_COORD97":165841.64999999999,"N_COORD97":2570541.3900000001,"ADDRESS":"中山路１７３號之５","OBJECTID":631436},"geometry":{"x":165841.6500000013,"y":2570541.3900000006}},{"attributes":{"ID":631464,"DIS_CODE":0,"TOWNNAME":"學甲區","LI":"明宜里","LIN":"8鄰","STREET":"中山路","SECT":" ","MAREA":" ","LANE":" ","ALLEY":" ","HOUSE_NO":"１７３號之６","E_COORD97":165837.57000000001,"N_COORD97":2570542.2799999998,"ADDRESS":"中山路１７３號之６","OBJECTID":631437},"geometry":{"x":165837.5700000003,"y":2570542.2800000012}},{"attributes":{"ID":631465,"DIS_CODE":0,"TOWNNAME":"學甲區","LI":"明宜里","LIN":"8鄰","STREET":"中山路","SECT":" ","MAREA":" ","LANE":" ","ALLEY":" ","HOUSE_NO":"１７３號之７","E_COORD97":165833.48000000001,"N_COORD97":2570543.1699999999,"ADDRESS":"中山路１７３號之７","OBJECTID":631438},"geometry":{"x":165833.48000000045,"y":2570543.1700000018}},{"attributes":{"ID":631466,"DIS_CODE":0,"TOWNNAME":"學甲區","LI":"明宜里","LIN":"8鄰","STREET":"中山路","SECT":" ","MAREA":" ","LANE":" ","ALLEY":" ","HOUSE_NO":"１７３號之８","E_COORD97":165829.39999999999,"N_COORD97":2570544.0600000001,"ADDRESS":"中山路１７３號之８","OBJECTID":631439},"geometry":{"x":165829.4000000013,"y":2570544.0600000042}},{"attributes":{"ID":631467,"DIS_CODE":0,"TOWNNAME":"學甲區","LI":"明宜里","LIN":"8鄰","STREET":"中山路","SECT":" ","MAREA":" ","LANE":" ","ALLEY":" ","HOUSE_NO":"１７３號之９","E_COORD97":165825.32000000001,"N_COORD97":2570544.9500000002,"ADDRESS":"中山路１７３號之９","OBJECTID":631440},"geometry":{"x":165825.32000000123,"y":2570544.9500000011}},{"attributes":{"ID":631468,"DIS_CODE":0,"TOWNNAME":"學甲區","LI":"明宜里","LIN":"8鄰","STREET":"中山路","SECT":" ","MAREA":" ","LANE":" ","ALLEY":" ","HOUSE_NO":"１７９號之１","E_COORD97":165774.03,"N_COORD97":2570555.0299999998,"ADDRESS":"中山路１７９號之１","OBJECTID":631441},"geometry":{"x":165774.03000000212,"y":2570555.0299999993}},{"attributes":{"ID":631469,"DIS_CODE":0,"TOWNNAME":"學甲區","LI":"明宜里","LIN":"8鄰","STREET":"中山路","SECT":" ","MAREA":" ","LANE":" ","ALLEY":" ","HOUSE_NO":"１７９號之２","E_COORD97":165769.70000000001,"N_COORD97":2570556.2400000002,"ADDRESS":"中山路１７９號之２","OBJECTID":631442},"geometry":{"x":165769.70000000112,"y":2570556.2400000021}},{"attributes":{"ID":631470,"DIS_CODE":0,"TOWNNAME":"學甲區","LI":"明宜里","LIN":"19鄰","STREET":"中山路","SECT":" ","MAREA":" ","LANE":" ","ALLEY":" ","HOUSE_NO":"１６０號之１","E_COORD97":165996.89999999999,"N_COORD97":2570545.0600000001,"ADDRESS":"中山路１６０號之１","OBJECTID":631443},"geometry":{"x":165996.90000000037,"y":2570545.0600000024}},{"attributes":{"ID":631471,"DIS_CODE":0,"TOWNNAME":"學甲區","LI":"明宜里","LIN":"19鄰","STREET":"中山路","SECT":" ","MAREA":" ","LANE":" ","ALLEY":" ","HOUSE_NO":"１６０號","E_COORD97":166000.72,"N_COORD97":2570543.9199999999,"ADDRESS":"中山路１６０號","OBJECTID":631444},"geometry":{"x":166000.71999999974,"y":2570543.9199999999}},{"attributes":{"ID":631472,"DIS_CODE":0,"TOWNNAME":"學甲區","LI":"明宜里","LIN":"19鄰","STREET":"中山路","SECT":" ","MAREA":" ","LANE":" ","ALLEY":" ","HOUSE_NO":"１６２號","E_COORD97":165987.73000000001,"N_COORD97":2570546.5600000001,"ADDRESS":"中山路１６２號","OBJECTID":631445},"geometry":{"x":165987.73000000045,"y":2570546.5600000005}},{"attributes":{"ID":631473,"DIS_CODE":0,"TOWNNAME":"學甲區","LI":"明宜里","LIN":"19鄰","STREET":"中山路","SECT":" ","MAREA":" ","LANE":" ","ALLEY":" ","HOUSE_NO":"１６４號","E_COORD97":165984,"N_COORD97":2570547.4300000002,"ADDRESS":"中山路１６４號","OBJECTID":631446},"geometry":{"x":165983.99999999907,"y":2570547.4300000034}},{"attributes":{"ID":631474,"DIS_CODE":0,"TOWNNAME":"學甲區","LI":"明宜里","LIN":"8鄰","STREET":"中山路","SECT":" ","MAREA":" ","LANE":" ","ALLEY":" ","HOUSE_NO":"１７９號之３","E_COORD97":165765.16,"N_COORD97":2570557.0099999998,"ADDRESS":"中山路１７９號之３","OBJECTID":631447},"geometry":{"x":165765.16000000108,"y":2570557.0100000035}},{"attributes":{"ID":631475,"DIS_CODE":0,"TOWNNAME":"學甲區","LI":"新達里","LIN":"4鄰","STREET":"中山路","SECT":" ","MAREA":" ","LANE":" ","ALLEY":" ","HOUSE_NO":"８２號","E_COORD97":166276.95999999999,"N_COORD97":2570481.4900000002,"ADDRESS":"中山路８２號","OBJECTID":631448},"geometry":{"x":166276.95999999996,"y":2570481.4900000002}},{"attributes":{"ID":631476,"DIS_CODE":0,"TOWNNAME":"學甲區","LI":"新達里","LIN":"4鄰","STREET":"中山路","SECT":" ","MAREA":" ","LANE":" ","ALLEY":" ","HOUSE_NO":"８４號之１","E_COORD97":166267.23000000001,"N_COORD97":2570486.02,"ADDRESS":"中山路８４號之１","OBJECTID":631449},"geometry":{"x":166267.23000000045,"y":2570486.0200000014}},{"attributes":{"ID":631477,"DIS_CODE":0,"TOWNNAME":"學甲區","LI":"新達里","LIN":"4鄰","STREET":"中山路","SECT":" ","MAREA":" ","LANE":" ","ALLEY":" ","HOUSE_NO":"８４號","E_COORD97":166272.32000000001,"N_COORD97":2570484.8700000001,"ADDRESS":"中山路８４號","OBJECTID":631450},"geometry":{"x":166272.32000000123,"y":2570484.8700000048}},{"attributes":{"ID":631478,"DIS_CODE":0,"TOWNNAME":"學甲區","LI":"慈福里","LIN":"26鄰","STREET":"中山路","SECT":" ","MAREA":" ","LANE":" ","ALLEY":" ","HOUSE_NO":"７３號","E_COORD97":166329,"N_COORD97":2570445.9199999999,"ADDRESS":"中山路７３號","OBJECTID":631451},"geometry":{"x":166329.00000000093,"y":2570445.9200000037}},{"attributes":{"ID":631479,"DIS_CODE":0,"TOWNNAME":"學甲區","LI":"慈福里","LIN":"26鄰","STREET":"中山路","SECT":" ","MAREA":" ","LANE":" ","ALLEY":" ","HOUSE_NO":"８３號之１","E_COORD97":166267.79000000001,"N_COORD97":2570455.6200000001,"ADDRESS":"中山路８３號之１","OBJECTID":631452},"geometry":{"x":166267.79000000097,"y":2570455.620000001}},{"attributes":{"ID":631480,"DIS_CODE":0,"TOWNNAME":"學甲區","LI":"慈福里","LIN":"26鄰","STREET":"中山路","SECT":" ","MAREA":" ","LANE":" ","ALLEY":" ","HOUSE_NO":"８３號","E_COORD97":166272.13,"N_COORD97":2570456.6499999999,"ADDRESS":"中山路８３號","OBJECTID":631453},"geometry":{"x":166272.13000000082,"y":2570456.6500000022}},{"attributes":{"ID":631481,"DIS_CODE":0,"TOWNNAME":"學甲區","LI":"慈福里","LIN":"26鄰","STREET":"中山路","SECT":" ","MAREA":" ","LANE":" ","ALLEY":" ","HOUSE_NO":"８５號","E_COORD97":166264.01000000001,"N_COORD97":2570458.1899999999,"ADDRESS":"中山路８５號","OBJECTID":631454},"geometry":{"x":166264.01000000071,"y":2570458.1900000013}},{"attributes":{"ID":631482,"DIS_CODE":0,"TOWNNAME":"學甲區","LI":"慈福里","LIN":"26鄰","STREET":"中山路","SECT":" ","MAREA":" ","LANE":" ","ALLEY":" ","HOUSE_NO":"８７號之１","E_COORD97":166257.04999999999,"N_COORD97":2570453.71,"ADDRESS":"中山路８７號之１","OBJECTID":631455},"geometry":{"x":166257.05000000075,"y":2570453.7100000009}},{"attributes":{"ID":631483,"DIS_CODE":0,"TOWNNAME":"學甲區","LI":"慈福里","LIN":"26鄰","STREET":"中山路","SECT":" ","MAREA":" ","LANE":" ","ALLEY":" ","HOUSE_NO":"８７號","E_COORD97":166250.22,"N_COORD97":2570455.1600000001,"ADDRESS":"中山路８７號","OBJECTID":631456},"geometry":{"x":166250.2200000016,"y":2570455.160000002}},{"attributes":{"ID":631484,"DIS_CODE":0,"TOWNNAME":"學甲區","LI":"新達里","LIN":"4鄰","STREET":"中學路","SECT":" ","MAREA":" ","LANE":" ","ALLEY":" ","HOUSE_NO":"６６號","E_COORD97":166374.88,"N_COORD97":2570776.1299999999,"ADDRESS":"中學路６６號","OBJECTID":631457},"geometry":{"x":166374.88000000082,"y":2570776.1300000008}},{"attributes":{"ID":631485,"DIS_CODE":0,"TOWNNAME":"學甲區","LI":"慈福里","LIN":"17鄰","STREET":"中山路","SECT":" ","MAREA":" ","LANE":" ","ALLEY":" ","HOUSE_NO":"９９號","E_COORD97":166191.42000000001,"N_COORD97":2570469.5800000001,"ADDRESS":"中山路９９號","OBJECTID":631458},"geometry":{"x":166191.42000000179,"y":2570469.5800000019}},{"attributes":{"ID":631486,"DIS_CODE":0,"TOWNNAME":"學甲區","LI":"新榮里","LIN":"6鄰","STREET":"中正南路","SECT":" ","MAREA":" ","LANE":" ","ALLEY":" ","HOUSE_NO":"１０號","E_COORD97":165914.07999999999,"N_COORD97":2569275.6899999999,"ADDRESS":"中正南路１０號","OBJECTID":631459},"geometry":{"x":165914.07999999914,"y":2569275.6899999995}},{"attributes":{"ID":631487,"DIS_CODE":0,"TOWNNAME":"學甲區","LI":"新榮里","LIN":"6鄰","STREET":"中正南路","SECT":" ","MAREA":" ","LANE":" ","ALLEY":" ","HOUSE_NO":"１２號","E_COORD97":165915.12,"N_COORD97":2569280.4900000002,"ADDRESS":"中正南路１２號","OBJECTID":631460},"geometry":{"x":165915.12000000011,"y":2569280.4900000021}},{"attributes":{"ID":631488,"DIS_CODE":0,"TOWNNAME":"學甲區","LI":"新榮里","LIN":"6鄰","STREET":"中正南路","SECT":" ","MAREA":" ","LANE":" ","ALLEY":" ","HOUSE_NO":"２號","E_COORD97":165910.72,"N_COORD97":2569256.71,"ADDRESS":"中正南路２號","OBJECTID":631461},"geometry":{"x":165910.71999999974,"y":2569256.7100000009}},{"attributes":{"ID":631489,"DIS_CODE":0,"TOWNNAME":"學甲區","LI":"新榮里","LIN":"6鄰","STREET":"中正南路","SECT":" ","MAREA":" ","LANE":" ","ALLEY":" ","HOUSE_NO":"６號","E_COORD97":165912.62,"N_COORD97":2569264.5099999998,"ADDRESS":"中正南路６號","OBJECTID":631462},"geometry":{"x":165912.62000000104,"y":2569264.5099999998}},{"attributes":{"ID":631490,"DIS_CODE":0,"TOWNNAME":"學甲區","LI":"新榮里","LIN":"6鄰","STREET":"中正南路","SECT":" ","MAREA":" ","LANE":" ","ALLEY":" ","HOUSE_NO":"８號","E_COORD97":165912.41,"N_COORD97":2569271,"ADDRESS":"中正南路８號","OBJECTID":631463},"geometry":{"x":165912.41000000108,"y":2569271}},{"attributes":{"ID":631491,"DIS_CODE":0,"TOWNNAME":"學甲區","LI":"慈福里","LIN":"20鄰","STREET":"中正路","SECT":" ","MAREA":" ","LANE":" ","ALLEY":" ","HOUSE_NO":"２３２號","E_COORD97":166099.32000000001,"N_COORD97":2570336.6299999999,"ADDRESS":"中正路２３２號","OBJECTID":631464},"geometry":{"x":166099.32000000216,"y":2570336.6300000008}},{"attributes":{"ID":631492,"DIS_CODE":0,"TOWNNAME":"學甲區","LI":"慈福里","LIN":"20鄰","STREET":"中正路","SECT":" ","MAREA":" ","LANE":" ","ALLEY":" ","HOUSE_NO":"２３６號","E_COORD97":166106.17999999999,"N_COORD97":2570347.0699999998,"ADDRESS":"中正路２３６號","OBJECTID":631465},"geometry":{"x":166106.1799999997,"y":2570347.070000004}},{"attributes":{"ID":631493,"DIS_CODE":0,"TOWNNAME":"學甲區","LI":"慈福里","LIN":"20鄰","STREET":"中正路","SECT":" ","MAREA":" ","LANE":" ","ALLEY":" ","HOUSE_NO":"２４０號","E_COORD97":166106.98000000001,"N_COORD97":2570351.3300000001,"ADDRESS":"中正路２４０號","OBJECTID":631466},"geometry":{"x":166106.98000000138,"y":2570351.3300000001}},{"attributes":{"ID":631494,"DIS_CODE":0,"TOWNNAME":"學甲區","LI":"慈福里","LIN":"20鄰","STREET":"中正路","SECT":" ","MAREA":" ","LANE":" ","ALLEY":" ","HOUSE_NO":"２４２號","E_COORD97":166107.48000000001,"N_COORD97":2570355.1400000001,"ADDRESS":"中正路２４２號","OBJECTID":631467},"geometry":{"x":166107.48000000138,"y":2570355.1400000025}},{"attributes":{"ID":631495,"DIS_CODE":0,"TOWNNAME":"學甲區","LI":"慈福里","LIN":"20鄰","STREET":"中正路","SECT":" ","MAREA":" ","LANE":" ","ALLEY":" ","HOUSE_NO":"２４４號","E_COORD97":166108.70000000001,"N_COORD97":2570358.5099999998,"ADDRESS":"中正路２４４號","OBJECTID":631468},"geometry":{"x":166108.70000000112,"y":2570358.5100000016}},{"attributes":{"ID":631496,"DIS_CODE":0,"TOWNNAME":"學甲區","LI":"明宜里","LIN":"13鄰","STREET":"中正路","SECT":" ","MAREA":" ","LANE":" ","ALLEY":" ","HOUSE_NO":"２７１號","E_COORD97":166093.34,"N_COORD97":2570455.9100000001,"ADDRESS":"中正路２７１號","OBJECTID":631469},"geometry":{"x":166093.33999999985,"y":2570455.9100000001}},{"attributes":{"ID":631497,"DIS_CODE":0,"TOWNNAME":"學甲區","LI":"仁得里","LIN":"14鄰","STREET":"中正路","SECT":" ","MAREA":" ","LANE":" ","ALLEY":" ","HOUSE_NO":"２１９號","E_COORD97":166067.48999999999,"N_COORD97":2570300.4500000002,"ADDRESS":"中正路２１９號","OBJECTID":631470},"geometry":{"x":166067.49000000209,"y":2570300.4500000011}},{"attributes":{"ID":631498,"DIS_CODE":0,"TOWNNAME":"學甲區","LI":"仁得里","LIN":"14鄰","STREET":"中正路","SECT":" ","MAREA":" ","LANE":" ","ALLEY":" ","HOUSE_NO":"２２１號","E_COORD97":166068.37,"N_COORD97":2570304.7200000002,"ADDRESS":"中正路２２１號","OBJECTID":631471},"geometry":{"x":166068.37000000104,"y":2570304.7200000007}},{"attributes":{"ID":631499,"DIS_CODE":0,"TOWNNAME":"學甲區","LI":"仁得里","LIN":"8鄰","STREET":"中正路","SECT":" ","MAREA":" ","LANE":" ","ALLEY":" ","HOUSE_NO":"２２０號","E_COORD97":166088.81,"N_COORD97":2570266.1899999999,"ADDRESS":"中正路２２０號","OBJECTID":631472},"geometry":{"x":166088.81000000052,"y":2570266.1899999995}},{"attributes":{"ID":631500,"DIS_CODE":0,"TOWNNAME":"學甲區","LI":"仁得里","LIN":"8鄰","STREET":"中正路","SECT":" ","MAREA":" ","LANE":" ","ALLEY":" ","HOUSE_NO":"２２２號","E_COORD97":166089.10999999999,"N_COORD97":2570269.5499999998,"ADDRESS":"中正路２２２號","OBJECTID":631473},"geometry":{"x":166089.11000000127,"y":2570269.5500000045}},{"attributes":{"ID":631501,"DIS_CODE":0,"TOWNNAME":"學甲區","LI":"仁得里","LIN":"7鄰","STREET":"中正路","SECT":" ","MAREA":" ","LANE":" ","ALLEY":" ","HOUSE_NO":"２３０號","E_COORD97":166093.79000000001,"N_COORD97":2570291.29,"ADDRESS":"中正路２３０號","OBJECTID":631474},"geometry":{"x":166093.79000000004,"y":2570291.290000001}},{"attributes":{"ID":631502,"DIS_CODE":0,"TOWNNAME":"學甲區","LI":"明宜里","LIN":"1鄰","STREET":"中正路","SECT":" ","MAREA":" ","LANE":" ","ALLEY":" ","HOUSE_NO":"２２３號","E_COORD97":166071.25,"N_COORD97":2570335.6000000001,"ADDRESS":"中正路２２３號","OBJECTID":631475},"geometry":{"x":166071.25000000093,"y":2570335.5999999996}},{"attributes":{"ID":631503,"DIS_CODE":0,"TOWNNAME":"學甲區","LI":"明宜里","LIN":"13鄰","STREET":"中正路","SECT":" ","MAREA":" ","LANE":" ","ALLEY":" ","HOUSE_NO":"２７３號","E_COORD97":166094.85999999999,"N_COORD97":2570460.0899999999,"ADDRESS":"中正路２７３號","OBJECTID":631476},"geometry":{"x":166094.86000000034,"y":2570460.0899999999}},{"attributes":{"ID":631504,"DIS_CODE":0,"TOWNNAME":"學甲區","LI":"新達里","LIN":"4鄰","STREET":"中正路","SECT":" ","MAREA":" ","LANE":" ","ALLEY":" ","HOUSE_NO":"３９４號","E_COORD97":166311.01000000001,"N_COORD97":2570733.8100000001,"ADDRESS":"中正路３９４號","OBJECTID":631477},"geometry":{"x":166311.01000000164,"y":2570733.8100000005}},{"attributes":{"ID":631505,"DIS_CODE":0,"TOWNNAME":"學甲區","LI":"新達里","LIN":"4鄰","STREET":"中正路","SECT":" ","MAREA":" ","LANE":" ","ALLEY":" ","HOUSE_NO":"３９６號","E_COORD97":166315.17000000001,"N_COORD97":2570739.3399999999,"ADDRESS":"中正路３９６號","OBJECTID":631478},"geometry":{"x":166315.17000000179,"y":2570739.3400000017}},{"attributes":{"ID":631506,"DIS_CODE":0,"TOWNNAME":"學甲區","LI":"新達里","LIN":"4鄰","STREET":"中正路","SECT":" ","MAREA":" ","LANE":" ","ALLEY":" ","HOUSE_NO":"３９８號","E_COORD97":166322.59,"N_COORD97":2570746.75,"ADDRESS":"中正路３９８號","OBJECTID":631479},"geometry":{"x":166322.59000000078,"y":2570746.7500000019}},{"attributes":{"ID":631507,"DIS_CODE":0,"TOWNNAME":"學甲區","LI":"新達里","LIN":"4鄰","STREET":"中正路","SECT":" ","MAREA":" ","LANE":" ","ALLEY":" ","HOUSE_NO":"４０２號","E_COORD97":166322.98000000001,"N_COORD97":2570755.1699999999,"ADDRESS":"中正路４０２號","OBJECTID":631480},"geometry":{"x":166322.98000000045,"y":2570755.1699999999}},{"attributes":{"ID":631508,"DIS_CODE":0,"TOWNNAME":"學甲區","LI":"新達里","LIN":"4鄰","STREET":"中正路","SECT":" ","MAREA":" ","LANE":" ","ALLEY":" ","HOUSE_NO":"４１８號","E_COORD97":166350.69,"N_COORD97":2570779.8199999998,"ADDRESS":"中正路４１８號","OBJECTID":631481},"geometry":{"x":166350.69000000041,"y":2570779.8200000022}},{"attributes":{"ID":631509,"DIS_CODE":0,"TOWNNAME":"學甲區","LI":"新達里","LIN":"4鄰","STREET":"中正路","SECT":" ","MAREA":" ","LANE":" ","ALLEY":" ","HOUSE_NO":"４２０號","E_COORD97":166361.76999999999,"N_COORD97":2570790.75,"ADDRESS":"中正路４２０號","OBJECTID":631482},"geometry":{"x":166361.77000000048,"y":2570790.7500000019}},{"attributes":{"ID":631510,"DIS_CODE":0,"TOWNNAME":"學甲區","LI":"新達里","LIN":"4鄰","STREET":"中正路","SECT":" ","MAREA":" ","LANE":" ","ALLEY":" ","HOUSE_NO":"４２２號","E_COORD97":166365.73999999999,"N_COORD97":2570794.4300000002,"ADDRESS":"中正路４２２號","OBJECTID":631483},"geometry":{"x":166365.73999999929,"y":2570794.4299999997}},{"attributes":{"ID":631511,"DIS_CODE":0,"TOWNNAME":"學甲區","LI":"新達里","LIN":"4鄰","STREET":"中正路","SECT":" ","MAREA":" ","LANE":" ","ALLEY":" ","HOUSE_NO":"４２４號","E_COORD97":166368.35000000001,"N_COORD97":2570798.1200000001,"ADDRESS":"中正路４２４號","OBJECTID":631484},"geometry":{"x":166368.35000000056,"y":2570798.1199999992}},{"attributes":{"ID":631512,"DIS_CODE":0,"TOWNNAME":"學甲區","LI":"新達里","LIN":"7鄰","STREET":"中正路","SECT":" ","MAREA":" ","LANE":" ","ALLEY":" ","HOUSE_NO":"４５２號","E_COORD97":166613.09,"N_COORD97":2571033.6699999999,"ADDRESS":"中正路４５２號","OBJECTID":631485},"geometry":{"x":166613.09000000078,"y":2571033.6699999999}},{"attributes":{"ID":631513,"DIS_CODE":0,"TOWNNAME":"學甲區","LI":"慈福里","LIN":"4鄰","STREET":"仁愛路","SECT":" ","MAREA":" ","LANE":" ","ALLEY":" ","HOUSE_NO":"１２號","E_COORD97":166395.32000000001,"N_COORD97":2570198.8399999999,"ADDRESS":"仁愛路１２號","OBJECTID":631486},"geometry":{"x":166395.3200000003,"y":2570198.8400000036}},{"attributes":{"ID":631514,"DIS_CODE":0,"TOWNNAME":"學甲區","LI":"慈福里","LIN":"4鄰","STREET":"仁愛路","SECT":" ","MAREA":" ","LANE":" ","ALLEY":" ","HOUSE_NO":"１６號","E_COORD97":166397.07000000001,"N_COORD97":2570219.75,"ADDRESS":"仁愛路１６號","OBJECTID":631487},"geometry":{"x":166397.0700000003,"y":2570219.7499999981}},{"attributes":{"ID":631515,"DIS_CODE":0,"TOWNNAME":"學甲區","LI":"慈福里","LIN":"5鄰","STREET":"仁愛路","SECT":" ","MAREA":" ","LANE":" ","ALLEY":" ","HOUSE_NO":"１１號","E_COORD97":166435.32999999999,"N_COORD97":2570190.3199999998,"ADDRESS":"仁愛路１１號","OBJECTID":631488},"geometry":{"x":166435.33000000101,"y":2570190.3200000022}},{"attributes":{"ID":631516,"DIS_CODE":0,"TOWNNAME":"歸仁區","LI":"南興里","LIN":"13鄰","STREET":"文化十八街","SECT":" ","MAREA":" ","LANE":" ","ALLEY":" ","HOUSE_NO":"５０號","E_COORD97":175901.67000000001,"N_COORD97":2541298.2599999998,"ADDRESS":"文化十八街５０號","OBJECTID":631489},"geometry":{"x":175901.67000000086,"y":2541298.2599999998}},{"attributes":{"ID":631517,"DIS_CODE":0,"TOWNNAME":"歸仁區","LI":"南興里","LIN":"39鄰","STREET":"中山路","SECT":"三段","MAREA":" ","LANE":" ","ALLEY":" ","HOUSE_NO":"６２４號","E_COORD97":175494.70999999999,"N_COORD97":2541064.25,"ADDRESS":"中山路三段６２４號","OBJECTID":631490},"geometry":{"x":175494.71000000089,"y":2541064.2500000019}},{"attributes":{"ID":631518,"DIS_CODE":0,"TOWNNAME":"學甲區","LI":"明宜里","LIN":"17鄰","STREET":"天水路","SECT":" ","MAREA":" ","LANE":" ","ALLEY":" ","HOUSE_NO":"１０號","E_COORD97":166124.16,"N_COORD97":2570665.8599999999,"ADDRESS":"天水路１０號","OBJECTID":631491},"geometry":{"x":166124.16000000108,"y":2570665.8599999994}},{"attributes":{"ID":631519,"DIS_CODE":0,"TOWNNAME":"學甲區","LI":"明宜里","LIN":"20鄰","STREET":"天水路","SECT":" ","MAREA":" ","LANE":" ","ALLEY":" ","HOUSE_NO":"３１號之１","E_COORD97":165986.14000000001,"N_COORD97":2570655.04,"ADDRESS":"天水路３１號之１","OBJECTID":631492},"geometry":{"x":165986.13999999873,"y":2570655.040000001}},{"attributes":{"ID":631520,"DIS_CODE":0,"TOWNNAME":"學甲區","LI":"明宜里","LIN":"20鄰","STREET":"天水路","SECT":" ","MAREA":" ","LANE":" ","ALLEY":" ","HOUSE_NO":"３１號之２","E_COORD97":165982.20999999999,"N_COORD97":2570655.6499999999,"ADDRESS":"天水路３１號之２","OBJECTID":631493},"geometry":{"x":165982.20999999996,"y":2570655.6500000022}},{"attributes":{"ID":631521,"DIS_CODE":0,"TOWNNAME":"學甲區","LI":"明宜里","LIN":"20鄰","STREET":"天水路","SECT":" ","MAREA":" ","LANE":" ","ALLEY":" ","HOUSE_NO":"３１號之３","E_COORD97":165977.92999999999,"N_COORD97":2570656.2200000002,"ADDRESS":"天水路３１號之３","OBJECTID":631494},"geometry":{"x":165977.93000000063,"y":2570656.2200000025}},{"attributes":{"ID":631522,"DIS_CODE":0,"TOWNNAME":"學甲區","LI":"明宜里","LIN":"20鄰","STREET":"天水路","SECT":" ","MAREA":" ","LANE":" ","ALLEY":" ","HOUSE_NO":"３１號","E_COORD97":165989.79999999999,"N_COORD97":2570653.77,"ADDRESS":"天水路３１號","OBJECTID":631495},"geometry":{"x":165989.79999999981,"y":2570653.7700000014}},{"attributes":{"ID":631523,"DIS_CODE":0,"TOWNNAME":"學甲區","LI":"慈福里","LIN":"13鄰","STREET":"太平路","SECT":" ","MAREA":" ","LANE":" ","ALLEY":" ","HOUSE_NO":"１９號","E_COORD97":166543.57000000001,"N_COORD97":2570373.7200000002,"ADDRESS":"太平路１９號","OBJECTID":631496},"geometry":{"x":166543.57000000123,"y":2570373.7200000044}},{"attributes":{"ID":631524,"DIS_CODE":0,"TOWNNAME":"學甲區","LI":"慈福里","LIN":"13鄰","STREET":"太平路","SECT":" ","MAREA":" ","LANE":" ","ALLEY":" ","HOUSE_NO":"５號","E_COORD97":166594.17000000001,"N_COORD97":2570361.9300000002,"ADDRESS":"太平路５號","OBJECTID":631497},"geometry":{"x":166594.16999999993,"y":2570361.9300000016}},{"attributes":{"ID":631525,"DIS_CODE":0,"TOWNNAME":"學甲區","LI":"慈福里","LIN":"13鄰","STREET":"太平路","SECT":" ","MAREA":" ","LANE":" ","ALLEY":" ","HOUSE_NO":"８號","E_COORD97":166599.01999999999,"N_COORD97":2570389.2400000002,"ADDRESS":"太平路８號","OBJECTID":631498},"geometry":{"x":166599.02000000048,"y":2570389.2400000002}},{"attributes":{"ID":631526,"DIS_CODE":0,"TOWNNAME":"學甲區","LI":"慈福里","LIN":"14鄰","STREET":"太平路","SECT":" ","MAREA":" ","LANE":" ","ALLEY":" ","HOUSE_NO":"１３號","E_COORD97":166561.69,"N_COORD97":2570369.27,"ADDRESS":"太平路１３號","OBJECTID":631499},"geometry":{"x":166561.69000000134,"y":2570369.2700000014}},{"attributes":{"ID":631527,"DIS_CODE":0,"TOWNNAME":"學甲區","LI":"明宜里","LIN":"17鄰","STREET":"天水路","SECT":" ","MAREA":" ","LANE":" ","ALLEY":" ","HOUSE_NO":"３號之１","E_COORD97":166139.70000000001,"N_COORD97":2570628.0099999998,"ADDRESS":"天水路３號之１","OBJECTID":631500},"geometry":{"x":166139.70000000112,"y":2570628.0099999979}},{"attributes":{"ID":631528,"DIS_CODE":0,"TOWNNAME":"學甲區","LI":"明宜里","LIN":"17鄰","STREET":"天水路","SECT":" ","MAREA":" ","LANE":" ","ALLEY":" ","HOUSE_NO":"３號之３","E_COORD97":166131.06,"N_COORD97":2570629.6699999999,"ADDRESS":"天水路３號之３","OBJECTID":631501},"geometry":{"x":166131.06000000052,"y":2570629.6699999999}},{"attributes":{"ID":631529,"DIS_CODE":0,"TOWNNAME":"學甲區","LI":"明宜里","LIN":"17鄰","STREET":"天水路","SECT":" ","MAREA":" ","LANE":" ","ALLEY":" ","HOUSE_NO":"３號","E_COORD97":166143.45000000001,"N_COORD97":2570627.0299999998,"ADDRESS":"天水路３號","OBJECTID":631502},"geometry":{"x":166143.45000000019,"y":2570627.0299999993}},{"attributes":{"ID":631530,"DIS_CODE":0,"TOWNNAME":"學甲區","LI":"明宜里","LIN":"17鄰","STREET":"天水路","SECT":" ","MAREA":" ","LANE":" ","ALLEY":" ","HOUSE_NO":"５號","E_COORD97":166123.14000000001,"N_COORD97":2570624.75,"ADDRESS":"天水路５號","OBJECTID":631503},"geometry":{"x":166123.13999999966,"y":2570624.7500000019}},{"attributes":{"ID":631531,"DIS_CODE":0,"TOWNNAME":"學甲區","LI":"明宜里","LIN":"17鄰","STREET":"天水路","SECT":" ","MAREA":" ","LANE":" ","ALLEY":" ","HOUSE_NO":"７號","E_COORD97":166105.98000000001,"N_COORD97":2570634.98,"ADDRESS":"天水路７號","OBJECTID":631504},"geometry":{"x":166105.98000000045,"y":2570634.9800000004}},{"attributes":{"ID":631532,"DIS_CODE":0,"TOWNNAME":"學甲區","LI":"明宜里","LIN":"17鄰","STREET":"天水路","SECT":" ","MAREA":" ","LANE":" ","ALLEY":" ","HOUSE_NO":"８號","E_COORD97":166139.89999999999,"N_COORD97":2570658.0800000001,"ADDRESS":"天水路８號","OBJECTID":631505},"geometry":{"x":166139.9000000013,"y":2570658.0800000001}},{"attributes":{"ID":631533,"DIS_CODE":0,"TOWNNAME":"學甲區","LI":"明宜里","LIN":"17鄰","STREET":"天水路","SECT":" ","MAREA":" ","LANE":" ","ALLEY":" ","HOUSE_NO":"９號","E_COORD97":166082.98999999999,"N_COORD97":2570626.21,"ADDRESS":"天水路９號","OBJECTID":631506},"geometry":{"x":166082.99000000115,"y":2570626.2100000028}},{"attributes":{"ID":631534,"DIS_CODE":0,"TOWNNAME":"歸仁區","LI":"許厝里","LIN":"36鄰","STREET":"公園路","SECT":" ","MAREA":" ","LANE":" ","ALLEY":" ","HOUSE_NO":"１４６號","E_COORD97":177864.42999999999,"N_COORD97":2540474.8199999998,"ADDRESS":"公園路１４６號","OBJECTID":631507},"geometry":{"x":177864.43000000063,"y":2540474.8200000003}},{"attributes":{"ID":631535,"DIS_CODE":0,"TOWNNAME":"歸仁區","LI":"後市里","LIN":"18鄰","STREET":"中正北路","SECT":"一段","MAREA":" ","LANE":" ","ALLEY":" ","HOUSE_NO":"１號","E_COORD97":177643.01999999999,"N_COORD97":2540852.25,"ADDRESS":"中正北路一段１號","OBJECTID":631508},"geometry":{"x":177643.02000000142,"y":2540852.25}},{"attributes":{"ID":631536,"DIS_CODE":0,"TOWNNAME":"歸仁區","LI":"後市里","LIN":"26鄰","STREET":"中山路","SECT":"二段","MAREA":" ","LANE":" ","ALLEY":" ","HOUSE_NO":"１０４號","E_COORD97":177331.63,"N_COORD97":2540827.7400000002,"ADDRESS":"中山路二段１０４號","OBJECTID":631509},"geometry":{"x":177331.62999999989,"y":2540827.7400000002}},{"attributes":{"ID":631537,"DIS_CODE":0,"TOWNNAME":"歸仁區","LI":"南興里","LIN":"38鄰","STREET":"中山路","SECT":"三段","MAREA":" ","LANE":" ","ALLEY":" ","HOUSE_NO":"５５６號","E_COORD97":175691.10999999999,"N_COORD97":2541043.6499999999,"ADDRESS":"中山路三段５５６號","OBJECTID":631510},"geometry":{"x":175691.11000000127,"y":2541043.6500000041}},{"attributes":{"ID":631538,"DIS_CODE":0,"TOWNNAME":"歸仁區","LI":"崙頂里","LIN":"25鄰","STREET":"崙頂街","SECT":" ","MAREA":" ","LANE":" ","ALLEY":" ","HOUSE_NO":"１３８號","E_COORD97":177842.73000000001,"N_COORD97":2539834.25,"ADDRESS":"崙頂街１３８號","OBJECTID":631511},"geometry":{"x":177842.73000000138,"y":2539834.25}},{"attributes":{"ID":631539,"DIS_CODE":0,"TOWNNAME":"歸仁區","LI":"南保里","LIN":"4鄰","STREET":"文化街","SECT":"三段","MAREA":" ","LANE":" ","ALLEY":" ","HOUSE_NO":"５６號","E_COORD97":176857.17000000001,"N_COORD97":2541265.2599999998,"ADDRESS":"文化街三段５６號","OBJECTID":631512},"geometry":{"x":176857.16999999993,"y":2541265.2599999998}},{"attributes":{"ID":631540,"DIS_CODE":0,"TOWNNAME":"歸仁區","LI":"南興里","LIN":"38鄰","STREET":"文化街","SECT":"三段","MAREA":" ","LANE":" ","ALLEY":" ","HOUSE_NO":"４１１之１號","E_COORD97":175770.62,"N_COORD97":2541195.2599999998,"ADDRESS":"文化街三段４１１之１號","OBJECTID":631513},"geometry":{"x":175770.62000000011,"y":2541195.2600000016}},{"attributes":{"ID":631541,"DIS_CODE":0,"TOWNNAME":"歸仁區","LI":"南保里","LIN":"20鄰","STREET":"文化街","SECT":"三段","MAREA":" ","LANE":" ","ALLEY":" ","HOUSE_NO":"９１號","E_COORD97":176830.17000000001,"N_COORD97":2541192.2599999998,"ADDRESS":"文化街三段９１號","OBJECTID":631514},"geometry":{"x":176830.16999999993,"y":2541192.2600000016}},{"attributes":{"ID":631542,"DIS_CODE":0,"TOWNNAME":"歸仁區","LI":"南保里","LIN":"25鄰","STREET":"文化街","SECT":"三段","MAREA":" ","LANE":" ","ALLEY":" ","HOUSE_NO":"２０７號","E_COORD97":176514.51999999999,"N_COORD97":2541171.2599999998,"ADDRESS":"文化街三段２０７號","OBJECTID":631515},"geometry":{"x":176514.52000000048,"y":2541171.2600000016}},{"attributes":{"ID":631543,"DIS_CODE":0,"TOWNNAME":"歸仁區","LI":"南保里","LIN":"32鄰","STREET":"民權八街","SECT":" ","MAREA":" ","LANE":" ","ALLEY":" ","HOUSE_NO":"５６號","E_COORD97":176819.70999999999,"N_COORD97":2540993.25,"ADDRESS":"民權八街５６號","OBJECTID":631516},"geometry":{"x":176819.70999999996,"y":2540993.25}},{"attributes":{"ID":631544,"DIS_CODE":0,"TOWNNAME":"歸仁區","LI":"辜厝里","LIN":"25鄰","STREET":"大順街","SECT":" ","MAREA":" ","LANE":" ","ALLEY":" ","HOUSE_NO":"５５號","E_COORD97":177384.67999999999,"N_COORD97":2540597.1499999999,"ADDRESS":"大順街５５號","OBJECTID":631517},"geometry":{"x":177384.68000000063,"y":2540597.1500000022}},{"attributes":{"ID":631545,"DIS_CODE":0,"TOWNNAME":"新營區","LI":"王公里","LIN":"25鄰","STREET":"中正路","SECT":" ","MAREA":" ","LANE":" ","ALLEY":" ","HOUSE_NO":"１２６號","E_COORD97":180100.60999999999,"N_COORD97":2579504.7200000002,"ADDRESS":"中正路１２６號","OBJECTID":631518},"geometry":{"x":180100.61000000034,"y":2579504.7200000025}},{"attributes":{"ID":631546,"DIS_CODE":0,"TOWNNAME":"歸仁區","LI":"南保里","LIN":"25鄰","STREET":"文化街","SECT":"三段","MAREA":" ","LANE":" ","ALLEY":" ","HOUSE_NO":"１７７號","E_COORD97":176577.12,"N_COORD97":2541181.2599999998,"ADDRESS":"文化街三段１７７號","OBJECTID":631519},"geometry":{"x":176577.12000000104,"y":2541181.2600000035}},{"attributes":{"ID":631547,"DIS_CODE":0,"TOWNNAME":"歸仁區","LI":"後市里","LIN":"38鄰","STREET":"中山八街","SECT":" ","MAREA":" ","LANE":" ","ALLEY":" ","HOUSE_NO":"５０號","E_COORD97":177235.82999999999,"N_COORD97":2541037.7400000002,"ADDRESS":"中山八街５０號","OBJECTID":631520},"geometry":{"x":177235.83000000007,"y":2541037.7400000002}},{"attributes":{"ID":631548,"DIS_CODE":0,"TOWNNAME":"歸仁區","LI":"南興里","LIN":"18鄰","STREET":"大德一街","SECT":" ","MAREA":" ","LANE":" ","ALLEY":" ","HOUSE_NO":"４７號","E_COORD97":175650.73000000001,"N_COORD97":2541405.25,"ADDRESS":"大德一街４７號","OBJECTID":631521},"geometry":{"x":175650.73000000231,"y":2541405.2500000037}},{"attributes":{"ID":631549,"DIS_CODE":0,"TOWNNAME":"歸仁區","LI":"許厝里","LIN":"20鄰","STREET":"仁愛北街","SECT":" ","MAREA":" ","LANE":" ","ALLEY":" ","HOUSE_NO":"７０號","E_COORD97":178299.92999999999,"N_COORD97":2540875.25,"ADDRESS":"仁愛北街７０號","OBJECTID":631522},"geometry":{"x":178299.93000000156,"y":2540875.25}},{"attributes":{"ID":631550,"DIS_CODE":0,"TOWNNAME":"歸仁區","LI":"南興里","LIN":"13鄰","STREET":"文化十八街","SECT":" ","MAREA":" ","LANE":" ","ALLEY":" ","HOUSE_NO":"４２號","E_COORD97":175887.26999999999,"N_COORD97":2541298.2599999998,"ADDRESS":"文化十八街４２號","OBJECTID":631523},"geometry":{"x":175887.27000000048,"y":2541298.2599999998}},{"attributes":{"ID":631551,"DIS_CODE":0,"TOWNNAME":"歸仁區","LI":"辜厝里","LIN":"34鄰","STREET":"大吉街","SECT":" ","MAREA":" ","LANE":" ","ALLEY":" ","HOUSE_NO":"１４７號","E_COORD97":177207.64000000001,"N_COORD97":2540467.6800000002,"ADDRESS":"大吉街１４７號","OBJECTID":631524},"geometry":{"x":177207.63999999966,"y":2540467.6800000016}},{"attributes":{"ID":631552,"DIS_CODE":0,"TOWNNAME":"歸仁區","LI":"看西里","LIN":"4鄰","STREET":"仁愛十街","SECT":" ","MAREA":" ","LANE":" ","ALLEY":" ","HOUSE_NO":"１２號","E_COORD97":178236.95999999999,"N_COORD97":2540327.2799999998,"ADDRESS":"仁愛十街１２號","OBJECTID":631525},"geometry":{"x":178236.95999999996,"y":2540327.2800000012}},{"attributes":{"ID":631553,"DIS_CODE":0,"TOWNNAME":"歸仁區","LI":"歸仁里","LIN":"18鄰","STREET":"大仁一街","SECT":" ","MAREA":" ","LANE":" ","ALLEY":" ","HOUSE_NO":"１９號","E_COORD97":178118.37,"N_COORD97":2541051.1099999999,"ADDRESS":"大仁一街１９號","OBJECTID":631526},"geometry":{"x":178118.37000000104,"y":2541051.1100000013}},{"attributes":{"ID":631554,"DIS_CODE":0,"TOWNNAME":"歸仁區","LI":"歸仁里","LIN":"20鄰","STREET":"忠孝北路","SECT":" ","MAREA":" ","LANE":" ","ALLEY":" ","HOUSE_NO":"１８７號","E_COORD97":178118.07000000001,"N_COORD97":2541177.25,"ADDRESS":"忠孝北路１８７號","OBJECTID":631527},"geometry":{"x":178118.07000000216,"y":2541177.25}},{"attributes":{"ID":631555,"DIS_CODE":0,"TOWNNAME":"歸仁區","LI":"歸仁里","LIN":"26鄰","STREET":"文化一街","SECT":" ","MAREA":" ","LANE":" ","ALLEY":" ","HOUSE_NO":"１２號","E_COORD97":178235.67000000001,"N_COORD97":2541243.1299999999,"ADDRESS":"文化一街１２號","OBJECTID":631528},"geometry":{"x":178235.67000000179,"y":2541243.1300000008}},{"attributes":{"ID":631556,"DIS_CODE":0,"TOWNNAME":"歸仁區","LI":"歸仁里","LIN":"25鄰","STREET":"忠孝北路","SECT":" ","MAREA":" ","LANE":" ","ALLEY":" ","HOUSE_NO":"１８０號","E_COORD97":178159.72,"N_COORD97":2541166.1099999999,"ADDRESS":"忠孝北路１８０號","OBJECTID":631529},"geometry":{"x":178159.72000000067,"y":2541166.1100000013}},{"attributes":{"ID":631557,"DIS_CODE":0,"TOWNNAME":"歸仁區","LI":"崙頂里","LIN":"26鄰","STREET":"成功十街","SECT":" ","MAREA":" ","LANE":" ","ALLEY":" ","HOUSE_NO":"７７號","E_COORD97":177773.73000000001,"N_COORD97":2539791.25,"ADDRESS":"成功十街７７號","OBJECTID":631530},"geometry":{"x":177773.73000000138,"y":2539791.2500000037}},{"attributes":{"ID":631558,"DIS_CODE":0,"TOWNNAME":"歸仁區","LI":"歸仁里","LIN":"24鄰","STREET":"忠孝北路","SECT":" ","MAREA":" ","LANE":" ","ALLEY":" ","HOUSE_NO":"２２０號","E_COORD97":178094.51999999999,"N_COORD97":2541254.1099999999,"ADDRESS":"忠孝北路２２０號","OBJECTID":631531},"geometry":{"x":178094.52000000048,"y":2541254.1100000013}},{"attributes":{"ID":631559,"DIS_CODE":0,"TOWNNAME":"歸仁區","LI":"辜厝里","LIN":"34鄰","STREET":"大吉街","SECT":" ","MAREA":" ","LANE":" ","ALLEY":" ","HOUSE_NO":"１４５號","E_COORD97":177207.64000000001,"N_COORD97":2540476.6800000002,"ADDRESS":"大吉街１４５號","OBJECTID":631532},"geometry":{"x":177207.63999999966,"y":2540476.6800000016}},{"attributes":{"ID":631560,"DIS_CODE":0,"TOWNNAME":"歸仁區","LI":"看西里","LIN":"4鄰","STREET":"仁愛南街","SECT":" ","MAREA":" ","LANE":" ","ALLEY":" ","HOUSE_NO":"１１２號","E_COORD97":178271.64999999999,"N_COORD97":2540374.29,"ADDRESS":"仁愛南街１１２號","OBJECTID":631533},"geometry":{"x":178271.65000000037,"y":2540374.290000001}},{"attributes":{"ID":631561,"DIS_CODE":0,"TOWNNAME":"歸仁區","LI":"看西里","LIN":"4鄰","STREET":"仁愛十街","SECT":" ","MAREA":" ","LANE":" ","ALLEY":" ","HOUSE_NO":"１２之１號","E_COORD97":178232.35999999999,"N_COORD97":2540327.2799999998,"ADDRESS":"仁愛十街１２之１號","OBJECTID":631534},"geometry":{"x":178232.36000000034,"y":2540327.2800000012}},{"attributes":{"ID":631562,"DIS_CODE":0,"TOWNNAME":"歸仁區","LI":"看東里","LIN":"4鄰","STREET":"忠孝南路","SECT":" ","MAREA":" ","LANE":" ","ALLEY":" ","HOUSE_NO":"２００號","E_COORD97":178514.76999999999,"N_COORD97":2540215.8300000001,"ADDRESS":"忠孝南路２００號","OBJECTID":631535},"geometry":{"x":178514.77000000048,"y":2540215.8300000019}},{"attributes":{"ID":631563,"DIS_CODE":0,"TOWNNAME":"歸仁區","LI":"許厝里","LIN":"32鄰","STREET":"復興路","SECT":" ","MAREA":" ","LANE":" ","ALLEY":" ","HOUSE_NO":"７０號","E_COORD97":177850.85999999999,"N_COORD97":2540625.54,"ADDRESS":"復興路７０號","OBJECTID":631536},"geometry":{"x":177850.86000000127,"y":2540625.5399999991}},{"attributes":{"ID":631564,"DIS_CODE":0,"TOWNNAME":"歸仁區","LI":"辜厝里","LIN":"40鄰","STREET":"中正南路","SECT":"一段","MAREA":" ","LANE":" ","ALLEY":" ","HOUSE_NO":"２２０號","E_COORD97":177318.95000000001,"N_COORD97":2540340.4500000002,"ADDRESS":"中正南路一段２２０號","OBJECTID":631537},"geometry":{"x":177318.95000000112,"y":2540340.4499999993}},{"attributes":{"ID":631565,"DIS_CODE":0,"TOWNNAME":"歸仁區","LI":"看東里","LIN":"5鄰","STREET":"成功三街","SECT":" ","MAREA":" ","LANE":" ","ALLEY":" ","HOUSE_NO":"３０號","E_COORD97":178432.45000000001,"N_COORD97":2540019.4500000002,"ADDRESS":"成功三街３０號","OBJECTID":631538},"geometry":{"x":178432.45000000205,"y":2540019.4499999993}},{"attributes":{"ID":631566,"DIS_CODE":0,"TOWNNAME":"歸仁區","LI":"許厝里","LIN":"38鄰","STREET":"公園路","SECT":" ","MAREA":" ","LANE":" ","ALLEY":" ","HOUSE_NO":"５４號","E_COORD97":178059.23999999999,"N_COORD97":2540546.2799999998,"ADDRESS":"公園路５４號","OBJECTID":631539},"geometry":{"x":178059.24000000209,"y":2540546.2799999975}},{"attributes":{"ID":631567,"DIS_CODE":0,"TOWNNAME":"歸仁區","LI":"許厝里","LIN":"20鄰","STREET":"仁愛北街","SECT":" ","MAREA":" ","LANE":" ","ALLEY":" ","HOUSE_NO":"７８號","E_COORD97":178297.92999999999,"N_COORD97":2540902.25,"ADDRESS":"仁愛北街７８號","OBJECTID":631540},"geometry":{"x":178297.9299999997,"y":2540902.25}},{"attributes":{"ID":631568,"DIS_CODE":0,"TOWNNAME":"歸仁區","LI":"辜厝里","LIN":"41鄰","STREET":"大吉街","SECT":" ","MAREA":" ","LANE":" ","ALLEY":" ","HOUSE_NO":"１４２號","E_COORD97":177184.04000000001,"N_COORD97":2540477.6800000002,"ADDRESS":"大吉街１４２號","OBJECTID":631541},"geometry":{"x":177184.0400000019,"y":2540477.6800000016}},{"attributes":{"ID":631569,"DIS_CODE":0,"TOWNNAME":"歸仁區","LI":"辜厝里","LIN":"40鄰","STREET":"中正南路","SECT":"一段","MAREA":" ","LANE":" ","ALLEY":" ","HOUSE_NO":"２３２號","E_COORD97":177296.35000000001,"N_COORD97":2540325.4500000002,"ADDRESS":"中正南路一段２３２號","OBJECTID":631542},"geometry":{"x":177296.34999999963,"y":2540325.4500000011}},{"attributes":{"ID":631570,"DIS_CODE":0,"TOWNNAME":"歸仁區","LI":"崙頂里","LIN":"17鄰","STREET":"大成路","SECT":" ","MAREA":" ","LANE":" ","ALLEY":" ","HOUSE_NO":"２４５號","E_COORD97":177854.5,"N_COORD97":2540093.96,"ADDRESS":"大成路２４５號","OBJECTID":631543},"geometry":{"x":177854.50000000093,"y":2540093.9600000028}},{"attributes":{"ID":631571,"DIS_CODE":0,"TOWNNAME":"歸仁區","LI":"媽廟里","LIN":"4鄰","STREET":"和順路","SECT":"一段","MAREA":" ","LANE":" ","ALLEY":" ","HOUSE_NO":"１７號","E_COORD97":177489.76999999999,"N_COORD97":2543690.7200000002,"ADDRESS":"和順路一段１７號","OBJECTID":631544},"geometry":{"x":177489.76999999955,"y":2543690.7200000007}},{"attributes":{"ID":631572,"DIS_CODE":0,"TOWNNAME":"歸仁區","LI":"崙頂里","LIN":"18鄰","STREET":"大成一街","SECT":" ","MAREA":" ","LANE":" ","ALLEY":" ","HOUSE_NO":"９１號","E_COORD97":177899.88,"N_COORD97":2540217.9100000001,"ADDRESS":"大成一街９１號","OBJECTID":631545},"geometry":{"x":177899.87999999989,"y":2540217.910000002}},{"attributes":{"ID":631573,"DIS_CODE":0,"TOWNNAME":"歸仁區","LI":"歸仁里","LIN":"26鄰","STREET":"文化一街","SECT":" ","MAREA":" ","LANE":" ","ALLEY":" ","HOUSE_NO":"２６之５號","E_COORD97":178220.67000000001,"N_COORD97":2541209.1299999999,"ADDRESS":"文化一街２６之５號","OBJECTID":631546},"geometry":{"x":178220.67000000086,"y":2541209.1300000008}},{"attributes":{"ID":631574,"DIS_CODE":0,"TOWNNAME":"歸仁區","LI":"許厝里","LIN":"32鄰","STREET":"復興路","SECT":" ","MAREA":" ","LANE":" ","ALLEY":" ","HOUSE_NO":"４８號","E_COORD97":177896.95999999999,"N_COORD97":2540619.54,"ADDRESS":"復興路４８號","OBJECTID":631547},"geometry":{"x":177896.96000000089,"y":2540619.540000001}},{"attributes":{"ID":631575,"DIS_CODE":0,"TOWNNAME":"歸仁區","LI":"許厝里","LIN":"32鄰","STREET":"復興路","SECT":" ","MAREA":" ","LANE":" ","ALLEY":" ","HOUSE_NO":"４３號","E_COORD97":177903.10000000001,"N_COORD97":2540601.54,"ADDRESS":"復興路４３號","OBJECTID":631548},"geometry":{"x":177903.09999999963,"y":2540601.5399999991}},{"attributes":{"ID":631576,"DIS_CODE":0,"TOWNNAME":"歸仁區","LI":"歸仁里","LIN":"26鄰","STREET":"文化一街","SECT":" ","MAREA":" ","LANE":" ","ALLEY":" ","HOUSE_NO":"３號","E_COORD97":178198.32000000001,"N_COORD97":2541211.1299999999,"ADDRESS":"文化一街３號","OBJECTID":631549},"geometry":{"x":178198.32000000123,"y":2541211.129999999}},{"attributes":{"ID":631577,"DIS_CODE":0,"TOWNNAME":"歸仁區","LI":"看西里","LIN":"4鄰","STREET":"仁愛十街","SECT":" ","MAREA":" ","LANE":" ","ALLEY":" ","HOUSE_NO":"１６號","E_COORD97":178227.66,"N_COORD97":2540327.2799999998,"ADDRESS":"仁愛十街１６號","OBJECTID":631550},"geometry":{"x":178227.66000000201,"y":2540327.2800000012}},{"attributes":{"ID":631578,"DIS_CODE":0,"TOWNNAME":"歸仁區","LI":"新厝里","LIN":"5鄰","STREET":"中正南路","SECT":"一段","MAREA":" ","LANE":" ","ALLEY":" ","HOUSE_NO":"４９號","E_COORD97":177619.17999999999,"N_COORD97":2540599.9300000002,"ADDRESS":"中正南路一段４９號","OBJECTID":631551},"geometry":{"x":177619.18000000063,"y":2540599.9299999978}},{"attributes":{"ID":631579,"DIS_CODE":0,"TOWNNAME":"歸仁區","LI":"許厝里","LIN":"18鄰","STREET":"仁愛北街","SECT":" ","MAREA":" ","LANE":" ","ALLEY":" ","HOUSE_NO":"５６號","E_COORD97":178299.82999999999,"N_COORD97":2540855.25,"ADDRESS":"仁愛北街５６號","OBJECTID":631552},"geometry":{"x":178299.83000000101,"y":2540855.25}},{"attributes":{"ID":631580,"DIS_CODE":0,"TOWNNAME":"歸仁區","LI":"許厝里","LIN":"20鄰","STREET":"仁愛北街","SECT":" ","MAREA":" ","LANE":" ","ALLEY":" ","HOUSE_NO":"７６號","E_COORD97":178297.92999999999,"N_COORD97":2540898.25,"ADDRESS":"仁愛北街７６號","OBJECTID":631553},"geometry":{"x":178297.9299999997,"y":2540898.2500000019}},{"attributes":{"ID":631581,"DIS_CODE":0,"TOWNNAME":"歸仁區","LI":"許厝里","LIN":"32鄰","STREET":"復興路","SECT":" ","MAREA":" ","LANE":" ","ALLEY":" ","HOUSE_NO":"４７號","E_COORD97":177893.89999999999,"N_COORD97":2540603.54,"ADDRESS":"復興路４７號","OBJECTID":631554},"geometry":{"x":177893.90000000224,"y":2540603.540000001}},{"attributes":{"ID":631582,"DIS_CODE":0,"TOWNNAME":"歸仁區","LI":"崙頂里","LIN":"4鄰","STREET":"信義南路","SECT":" ","MAREA":" ","LANE":" ","ALLEY":" ","HOUSE_NO":"１７６號","E_COORD97":178095.78,"N_COORD97":2540164.25,"ADDRESS":"信義南路１７６號","OBJECTID":631555},"geometry":{"x":178095.78000000026,"y":2540164.2500000037}},{"attributes":{"ID":631583,"DIS_CODE":0,"TOWNNAME":"歸仁區","LI":"看西里","LIN":"4鄰","STREET":"仁愛南街","SECT":" ","MAREA":" ","LANE":" ","ALLEY":" ","HOUSE_NO":"１０８號","E_COORD97":178271.64999999999,"N_COORD97":2540381.29,"ADDRESS":"仁愛南街１０８號","OBJECTID":631556},"geometry":{"x":178271.65000000037,"y":2540381.290000001}},{"attributes":{"ID":631584,"DIS_CODE":0,"TOWNNAME":"歸仁區","LI":"看東里","LIN":"4鄰","STREET":"成功路","SECT":"一段","MAREA":" ","LANE":" ","ALLEY":" ","HOUSE_NO":"１９２號","E_COORD97":178478.10999999999,"N_COORD97":2540166.1200000001,"ADDRESS":"成功路一段１９２號","OBJECTID":631557},"geometry":{"x":178478.11000000127,"y":2540166.1199999992}},{"attributes":{"ID":631585,"DIS_CODE":0,"TOWNNAME":"歸仁區","LI":"許厝里","LIN":"32鄰","STREET":"復興路","SECT":" ","MAREA":" ","LANE":" ","ALLEY":" ","HOUSE_NO":"５４號","E_COORD97":177886.66,"N_COORD97":2540620.54,"ADDRESS":"復興路５４號","OBJECTID":631558},"geometry":{"x":177886.66000000015,"y":2540620.540000001}},{"attributes":{"ID":631586,"DIS_CODE":0,"TOWNNAME":"歸仁區","LI":"崙頂里","LIN":"4鄰","STREET":"大成路","SECT":" ","MAREA":" ","LANE":" ","ALLEY":" ","HOUSE_NO":"３４３號","E_COORD97":178056.42999999999,"N_COORD97":2540140.25,"ADDRESS":"大成路３４３號","OBJECTID":631559},"geometry":{"x":178056.43000000063,"y":2540140.25}},{"attributes":{"ID":631587,"DIS_CODE":0,"TOWNNAME":"歸仁區","LI":"看西里","LIN":"4鄰","STREET":"仁愛南街","SECT":" ","MAREA":" ","LANE":" ","ALLEY":" ","HOUSE_NO":"１２６號","E_COORD97":178272.45000000001,"N_COORD97":2540345.29,"ADDRESS":"仁愛南街１２６號","OBJECTID":631560},"geometry":{"x":178272.45000000019,"y":2540345.2899999991}},{"attributes":{"ID":631588,"DIS_CODE":0,"TOWNNAME":"歸仁區","LI":"看西里","LIN":"5鄰","STREET":"仁愛南街","SECT":" ","MAREA":" ","LANE":" ","ALLEY":" ","HOUSE_NO":"１７０號","E_COORD97":178266.57999999999,"N_COORD97":2540286.25,"ADDRESS":"仁愛南街１７０號","OBJECTID":631561},"geometry":{"x":178266.58000000007,"y":2540286.2500000037}},{"attributes":{"ID":631589,"DIS_CODE":0,"TOWNNAME":"歸仁區","LI":"辜厝里","LIN":"18鄰","STREET":"大順一街","SECT":" ","MAREA":" ","LANE":" ","ALLEY":" ","HOUSE_NO":"１號","E_COORD97":177457.17999999999,"N_COORD97":2540505.9500000002,"ADDRESS":"大順一街１號","OBJECTID":631562},"geometry":{"x":177457.1799999997,"y":2540505.9500000011}},{"attributes":{"ID":631590,"DIS_CODE":0,"TOWNNAME":"歸仁區","LI":"崙頂里","LIN":"18鄰","STREET":"大成一街","SECT":" ","MAREA":" ","LANE":" ","ALLEY":" ","HOUSE_NO":"８１號","E_COORD97":177903.07999999999,"N_COORD97":2540232.9100000001,"ADDRESS":"大成一街８１號","OBJECTID":631563},"geometry":{"x":177903.08000000101,"y":2540232.9100000001}},{"attributes":{"ID":631591,"DIS_CODE":0,"TOWNNAME":"歸仁區","LI":"文化里","LIN":"20鄰","STREET":"大德路","SECT":" ","MAREA":" ","LANE":" ","ALLEY":" ","HOUSE_NO":"２１７號","E_COORD97":177197.87,"N_COORD97":2541516.3300000001,"ADDRESS":"大德路２１７號","OBJECTID":631564},"geometry":{"x":177197.87000000104,"y":2541516.3299999982}},{"attributes":{"ID":631592,"DIS_CODE":0,"TOWNNAME":"歸仁區","LI":"辜厝里","LIN":"40鄰","STREET":"大吉街","SECT":" ","MAREA":" ","LANE":" ","ALLEY":" ","HOUSE_NO":"２３５號","E_COORD97":177211.10999999999,"N_COORD97":2540295.9500000002,"ADDRESS":"大吉街２３５號","OBJECTID":631565},"geometry":{"x":177211.1100000022,"y":2540295.9500000011}},{"attributes":{"ID":631593,"DIS_CODE":0,"TOWNNAME":"歸仁區","LI":"辜厝里","LIN":"40鄰","STREET":"中正南路","SECT":"一段","MAREA":" ","LANE":" ","ALLEY":" ","HOUSE_NO":"２２６號","E_COORD97":177306.64999999999,"N_COORD97":2540332.4500000002,"ADDRESS":"中正南路一段２２６號","OBJECTID":631566},"geometry":{"x":177306.65000000037,"y":2540332.4500000011}},{"attributes":{"ID":631594,"DIS_CODE":0,"TOWNNAME":"歸仁區","LI":"許厝里","LIN":"4鄰","STREET":"仁愛一街","SECT":" ","MAREA":" ","LANE":" ","ALLEY":" ","HOUSE_NO":"２２號","E_COORD97":178368.64000000001,"N_COORD97":2540604.54,"ADDRESS":"仁愛一街２２號","OBJECTID":631567},"geometry":{"x":178368.6400000006,"y":2540604.5399999991}},{"attributes":{"ID":631595,"DIS_CODE":0,"TOWNNAME":"歸仁區","LI":"看東里","LIN":"4鄰","STREET":"成功路","SECT":"一段","MAREA":" ","LANE":" ","ALLEY":" ","HOUSE_NO":"２１４號","E_COORD97":178449.20999999999,"N_COORD97":2540134.1200000001,"ADDRESS":"成功路一段２１４號","OBJECTID":631568},"geometry":{"x":178449.21000000183,"y":2540134.120000001}},{"attributes":{"ID":631596,"DIS_CODE":0,"TOWNNAME":"歸仁區","LI":"辜厝里","LIN":"50鄰","STREET":"中正南路","SECT":"一段","MAREA":" ","LANE":" ","ALLEY":" ","HOUSE_NO":"３８８號","E_COORD97":177059.26999999999,"N_COORD97":2540164.96,"ADDRESS":"中正南路一段３８８號","OBJECTID":631569},"geometry":{"x":177059.26999999955,"y":2540164.9600000028}},{"attributes":{"ID":631597,"DIS_CODE":0,"TOWNNAME":"歸仁區","LI":"許厝里","LIN":"32鄰","STREET":"復興路","SECT":" ","MAREA":" ","LANE":" ","ALLEY":" ","HOUSE_NO":"５０號","E_COORD97":177892.85999999999,"N_COORD97":2540620.54,"ADDRESS":"復興路５０號","OBJECTID":631570},"geometry":{"x":177892.86000000127,"y":2540620.540000001}},{"attributes":{"ID":631598,"DIS_CODE":0,"TOWNNAME":"歸仁區","LI":"新厝里","LIN":"5鄰","STREET":"中正南路","SECT":"一段","MAREA":" ","LANE":" ","ALLEY":" ","HOUSE_NO":"２９號","E_COORD97":177636.78,"N_COORD97":2540634.9300000002,"ADDRESS":"中正南路一段２９號","OBJECTID":631571},"geometry":{"x":177636.78000000026,"y":2540634.9300000016}},{"attributes":{"ID":631599,"DIS_CODE":0,"TOWNNAME":"歸仁區","LI":"許厝里","LIN":"32鄰","STREET":"復興路","SECT":" ","MAREA":" ","LANE":" ","ALLEY":" ","HOUSE_NO":"５２號","E_COORD97":177889.76000000001,"N_COORD97":2540620.54,"ADDRESS":"復興路５２號","OBJECTID":631572},"geometry":{"x":177889.76000000071,"y":2540620.540000001}},{"attributes":{"ID":631600,"DIS_CODE":0,"TOWNNAME":"歸仁區","LI":"後市里","LIN":"42鄰","STREET":"民權北路","SECT":" ","MAREA":" ","LANE":" ","ALLEY":" ","HOUSE_NO":"２８之１號","E_COORD97":176994.73000000001,"N_COORD97":2540919.75,"ADDRESS":"民權北路２８之１號","OBJECTID":631573},"geometry":{"x":176994.73000000045,"y":2540919.75}},{"attributes":{"ID":631601,"DIS_CODE":0,"TOWNNAME":"歸仁區","LI":"崙頂里","LIN":"4鄰","STREET":"大成路","SECT":" ","MAREA":" ","LANE":" ","ALLEY":" ","HOUSE_NO":"３４１號","E_COORD97":178052.32999999999,"N_COORD97":2540139.25,"ADDRESS":"大成路３４１號","OBJECTID":631574},"geometry":{"x":178052.33000000101,"y":2540139.25}},{"attributes":{"ID":631602,"DIS_CODE":0,"TOWNNAME":"歸仁區","LI":"歸南里","LIN":"5鄰","STREET":"中正南路","SECT":"一段","MAREA":" ","LANE":" ","ALLEY":" ","HOUSE_NO":"５３６號","E_COORD97":176805.54999999999,"N_COORD97":2539994.4500000002,"ADDRESS":"中正南路一段５３６號","OBJECTID":631575},"geometry":{"x":176805.54999999888,"y":2539994.4499999993}},{"attributes":{"ID":631603,"DIS_CODE":0,"TOWNNAME":"歸仁區","LI":"辜厝里","LIN":"20鄰","STREET":"中正南路","SECT":"一段","MAREA":" ","LANE":" ","ALLEY":" ","HOUSE_NO":"１３８號","E_COORD97":177459.45999999999,"N_COORD97":2540449.9500000002,"ADDRESS":"中正南路一段１３８號","OBJECTID":631576},"geometry":{"x":177459.46000000089,"y":2540449.9499999993}},{"attributes":{"ID":631604,"DIS_CODE":0,"TOWNNAME":"歸仁區","LI":"歸仁里","LIN":"26鄰","STREET":"文化一街","SECT":" ","MAREA":" ","LANE":" ","ALLEY":" ","HOUSE_NO":"１５號","E_COORD97":178260.07000000001,"N_COORD97":2541206.1299999999,"ADDRESS":"文化一街１５號","OBJECTID":631577},"geometry":{"x":178260.0700000003,"y":2541206.1300000008}},{"attributes":{"ID":631605,"DIS_CODE":0,"TOWNNAME":"歸仁區","LI":"辜厝里","LIN":"34鄰","STREET":"大吉街","SECT":" ","MAREA":" ","LANE":" ","ALLEY":" ","HOUSE_NO":"１３３之１號","E_COORD97":177209.23999999999,"N_COORD97":2540496.6899999999,"ADDRESS":"大吉街１３３之１號","OBJECTID":631578},"geometry":{"x":177209.24000000022,"y":2540496.6900000013}},{"attributes":{"ID":631606,"DIS_CODE":0,"TOWNNAME":"歸仁區","LI":"新厝里","LIN":"14鄰","STREET":"大成路","SECT":" ","MAREA":" ","LANE":" ","ALLEY":" ","HOUSE_NO":"５７號","E_COORD97":177630.67999999999,"N_COORD97":2540409,"ADDRESS":"大成路５７號","OBJECTID":631579},"geometry":{"x":177630.68000000063,"y":2540409}},{"attributes":{"ID":631607,"DIS_CODE":0,"TOWNNAME":"歸仁區","LI":"崙頂里","LIN":"5鄰","STREET":"大成路","SECT":" ","MAREA":" ","LANE":" ","ALLEY":" ","HOUSE_NO":"３８２號","E_COORD97":178025.67000000001,"N_COORD97":2540107.6800000002,"ADDRESS":"大成路３８２號","OBJECTID":631580},"geometry":{"x":178025.67000000086,"y":2540107.6800000016}},{"attributes":{"ID":631608,"DIS_CODE":0,"TOWNNAME":"歸仁區","LI":"許厝里","LIN":"32鄰","STREET":"復興路","SECT":" ","MAREA":" ","LANE":" ","ALLEY":" ","HOUSE_NO":"６０號","E_COORD97":177870.26000000001,"N_COORD97":2540623.54,"ADDRESS":"復興路６０號","OBJECTID":631581},"geometry":{"x":177870.25999999978,"y":2540623.540000001}},{"attributes":{"ID":631609,"DIS_CODE":0,"TOWNNAME":"歸仁區","LI":"歸仁里","LIN":"13鄰","STREET":"和平二街","SECT":" ","MAREA":" ","LANE":" ","ALLEY":" ","HOUSE_NO":"１９號","E_COORD97":177932.69,"N_COORD97":2541072.04,"ADDRESS":"和平二街１９號","OBJECTID":631582},"geometry":{"x":177932.69000000227,"y":2541072.0399999991}},{"attributes":{"ID":631610,"DIS_CODE":0,"TOWNNAME":"歸仁區","LI":"辜厝里","LIN":"13鄰","STREET":"大順街","SECT":" ","MAREA":" ","LANE":" ","ALLEY":" ","HOUSE_NO":"１２號","E_COORD97":177497.47,"N_COORD97":2540532.5899999999,"ADDRESS":"大順街１２號","OBJECTID":631583},"geometry":{"x":177497.46999999974,"y":2540532.5900000017}},{"attributes":{"ID":631611,"DIS_CODE":0,"TOWNNAME":"歸仁區","LI":"許厝里","LIN":"38鄰","STREET":"公園路","SECT":" ","MAREA":" ","LANE":" ","ALLEY":" ","HOUSE_NO":"５６號","E_COORD97":178056.14000000001,"N_COORD97":2540544.2799999998,"ADDRESS":"公園路５６號","OBJECTID":631584},"geometry":{"x":178056.1400000006,"y":2540544.2800000012}},{"attributes":{"ID":631612,"DIS_CODE":0,"TOWNNAME":"歸仁區","LI":"許厝里","LIN":"26鄰","STREET":"中山路","SECT":"一段","MAREA":" ","LANE":" ","ALLEY":" ","HOUSE_NO":"４５８號","E_COORD97":178029.28,"N_COORD97":2540737.9300000002,"ADDRESS":"中山路一段４５８號","OBJECTID":631585},"geometry":{"x":178029.28000000119,"y":2540737.9299999997}},{"attributes":{"ID":631613,"DIS_CODE":0,"TOWNNAME":"歸仁區","LI":"許厝里","LIN":"32鄰","STREET":"復興路","SECT":" ","MAREA":" ","LANE":" ","ALLEY":" ","HOUSE_NO":"５５號","E_COORD97":177878.5,"N_COORD97":2540605.54,"ADDRESS":"復興路５５號","OBJECTID":631586},"geometry":{"x":177878.5,"y":2540605.5400000028}},{"attributes":{"ID":631614,"DIS_CODE":0,"TOWNNAME":"歸仁區","LI":"看東里","LIN":"4鄰","STREET":"忠孝南路","SECT":" ","MAREA":" ","LANE":" ","ALLEY":" ","HOUSE_NO":"２０６號","E_COORD97":178531.07000000001,"N_COORD97":2540204.8300000001,"ADDRESS":"忠孝南路２０６號","OBJECTID":631587},"geometry":{"x":178531.0700000003,"y":2540204.8300000019}},{"attributes":{"ID":631615,"DIS_CODE":0,"TOWNNAME":"歸仁區","LI":"歸南里","LIN":"5鄰","STREET":"中正南路","SECT":"一段","MAREA":" ","LANE":" ","ALLEY":" ","HOUSE_NO":"５１０號","E_COORD97":176856.04000000001,"N_COORD97":2540027.25,"ADDRESS":"中正南路一段５１０號","OBJECTID":631588},"geometry":{"x":176856.04000000004,"y":2540027.25}},{"attributes":{"ID":631616,"DIS_CODE":0,"TOWNNAME":"歸仁區","LI":"看西里","LIN":"18鄰","STREET":"成功五街","SECT":" ","MAREA":" ","LANE":" ","ALLEY":" ","HOUSE_NO":"７９號","E_COORD97":178381.45999999999,"N_COORD97":2539915.3599999999,"ADDRESS":"成功五街７９號","OBJECTID":631589},"geometry":{"x":178381.46000000089,"y":2539915.3600000031}},{"attributes":{"ID":631617,"DIS_CODE":0,"TOWNNAME":"歸仁區","LI":"看西里","LIN":"18鄰","STREET":"成功五街","SECT":" ","MAREA":" ","LANE":" ","ALLEY":" ","HOUSE_NO":"７１號","E_COORD97":178362.95999999999,"N_COORD97":2539912.3599999999,"ADDRESS":"成功五街７１號","OBJECTID":631590},"geometry":{"x":178362.96000000089,"y":2539912.3600000013}},{"attributes":{"ID":631618,"DIS_CODE":0,"TOWNNAME":"歸仁區","LI":"許厝里","LIN":"20鄰","STREET":"仁愛北街","SECT":" ","MAREA":" ","LANE":" ","ALLEY":" ","HOUSE_NO":"７２號","E_COORD97":178297.92999999999,"N_COORD97":2540887.25,"ADDRESS":"仁愛北街７２號","OBJECTID":631591},"geometry":{"x":178297.9299999997,"y":2540887.2500000019}},{"attributes":{"ID":631619,"DIS_CODE":0,"TOWNNAME":"歸仁區","LI":"辜厝里","LIN":"32鄰","STREET":"中正南路","SECT":"一段","MAREA":" ","LANE":" ","ALLEY":" ","HOUSE_NO":"２１０號","E_COORD97":177346.75,"N_COORD97":2540359.4500000002,"ADDRESS":"中正南路一段２１０號","OBJECTID":631592},"geometry":{"x":177346.75,"y":2540359.4500000011}},{"attributes":{"ID":631620,"DIS_CODE":0,"TOWNNAME":"歸仁區","LI":"辜厝里","LIN":"32鄰","STREET":"中正南路","SECT":"一段","MAREA":" ","LANE":" ","ALLEY":" ","HOUSE_NO":"２１２號","E_COORD97":177343.64999999999,"N_COORD97":2540357.4500000002,"ADDRESS":"中正南路一段２１２號","OBJECTID":631593},"geometry":{"x":177343.6500000013,"y":2540357.4499999993}},{"attributes":{"ID":631621,"DIS_CODE":0,"TOWNNAME":"歸仁區","LI":"後市里","LIN":"41鄰","STREET":"國光街","SECT":" ","MAREA":" ","LANE":" ","ALLEY":" ","HOUSE_NO":"６４號","E_COORD97":177142.79000000001,"N_COORD97":2540937.7400000002,"ADDRESS":"國光街６４號","OBJECTID":631594},"geometry":{"x":177142.79000000004,"y":2540937.7400000039}},{"attributes":{"ID":631622,"DIS_CODE":0,"TOWNNAME":"歸仁區","LI":"辜厝里","LIN":"13鄰","STREET":"大順街","SECT":" ","MAREA":" ","LANE":" ","ALLEY":" ","HOUSE_NO":"２號","E_COORD97":177511.51999999999,"N_COORD97":2540521.5899999999,"ADDRESS":"大順街２號","OBJECTID":631595},"geometry":{"x":177511.52000000048,"y":2540521.5900000017}},{"attributes":{"ID":631623,"DIS_CODE":0,"TOWNNAME":"歸仁區","LI":"歸仁里","LIN":"26鄰","STREET":"文化一街","SECT":" ","MAREA":" ","LANE":" ","ALLEY":" ","HOUSE_NO":"２２號","E_COORD97":178217.07000000001,"N_COORD97":2541221.1299999999,"ADDRESS":"文化一街２２號","OBJECTID":631596},"geometry":{"x":178217.07000000123,"y":2541221.129999999}},{"attributes":{"ID":631624,"DIS_CODE":0,"TOWNNAME":"歸仁區","LI":"看西里","LIN":"4鄰","STREET":"仁愛南街","SECT":" ","MAREA":" ","LANE":" ","ALLEY":" ","HOUSE_NO":"１３２號","E_COORD97":178272.45000000001,"N_COORD97":2540333.29,"ADDRESS":"仁愛南街１３２號","OBJECTID":631597},"geometry":{"x":178272.45000000019,"y":2540333.290000001}},{"attributes":{"ID":631625,"DIS_CODE":0,"TOWNNAME":"歸仁區","LI":"看東里","LIN":"5鄰","STREET":"成功三街","SECT":" ","MAREA":" ","LANE":" ","ALLEY":" ","HOUSE_NO":"５６號","E_COORD97":178465.14999999999,"N_COORD97":2539994.4500000002,"ADDRESS":"成功三街５６號","OBJECTID":631598},"geometry":{"x":178465.15000000224,"y":2539994.4499999993}},{"attributes":{"ID":631626,"DIS_CODE":0,"TOWNNAME":"歸仁區","LI":"歸仁里","LIN":"20鄰","STREET":"忠孝北路","SECT":" ","MAREA":" ","LANE":" ","ALLEY":" ","HOUSE_NO":"１７１號","E_COORD97":178154.48999999999,"N_COORD97":2541136.1099999999,"ADDRESS":"忠孝北路１７１號","OBJECTID":631599},"geometry":{"x":178154.49000000115,"y":2541136.1099999994}},{"attributes":{"ID":631627,"DIS_CODE":0,"TOWNNAME":"北區","LI":"小康里","LIN":"16鄰","STREET":"大武街","SECT":" ","MAREA":" ","LANE":" ","ALLEY":" ","HOUSE_NO":"４０７號","E_COORD97":169779.20999999999,"N_COORD97":2546475.9900000002,"ADDRESS":"大武街４０７號","OBJECTID":631600},"geometry":{"x":169779.20999999996,"y":2546475.9900000039}}]}