{"displayFieldName":"TOWNNAME","fieldAliases":{"ID":"ID","DIS_CODE":"DIS_CODE","TOWNNAME":"TOWNNAME","LI":"LI","LIN":"LIN","STREET":"STREET","SECT":"SECT","MAREA":"MAREA","LANE":"LANE","ALLEY":"ALLEY","HOUSE_NO":"HOUSE_NO","E_COORD97":"E_COORD97","N_COORD97":"N_COORD97","ADDRESS":"ADDRESS","OBJECTID":"OBJECTID"},"geometryType":"esriGeometryPoint","spatialReference":{"wkid":102443,"latestWkid":3826},"fields":[{"name":"ID","type":"esriFieldTypeDouble","alias":"ID"},{"name":"DIS_CODE","type":"esriFieldTypeInteger","alias":"DIS_CODE"},{"name":"TOWNNAME","type":"esriFieldTypeString","alias":"TOWNNAME","length":8},{"name":"LI","type":"esriFieldTypeString","alias":"LI","length":8},{"name":"LIN","type":"esriFieldTypeString","alias":"LIN","length":12},{"name":"STREET","type":"esriFieldTypeString","alias":"STREET","length":20},{"name":"SECT","type":"esriFieldTypeString","alias":"SECT","length":8},{"name":"MAREA","type":"esriFieldTypeString","alias":"MAREA","length":12},{"name":"LANE","type":"esriFieldTypeString","alias":"LANE","length":10},{"name":"ALLEY","type":"esriFieldTypeString","alias":"ALLEY","length":10},{"name":"HOUSE_NO","type":"esriFieldTypeString","alias":"HOUSE_NO","length":20},{"name":"E_COORD97","type":"esriFieldTypeDouble","alias":"E_COORD97"},{"name":"N_COORD97","type":"esriFieldTypeDouble","alias":"N_COORD97"},{"name":"ADDRESS","type":"esriFieldTypeString","alias":"ADDRESS","length":50},{"name":"OBJECTID","type":"esriFieldTypeOID","alias":"OBJECTID"}],"features":[{"attributes":{"ID":14801,"DIS_CODE":0,"TOWNNAME":"歸仁區","LI":"許厝里","LIN":"24鄰","STREET":"大仁街","SECT":" ","MAREA":" ","LANE":"１２６巷","ALLEY":"１７弄","HOUSE_NO":"７號","E_COORD97":178246.07999999999,"N_COORD97":2540941.25,"ADDRESS":"大仁街１２６巷１７弄７號","OBJECTID":14801},"geometry":{"x":178246.08000000007,"y":2540941.2500000019}},{"attributes":{"ID":14802,"DIS_CODE":0,"TOWNNAME":"歸仁區","LI":"歸南里","LIN":"24鄰","STREET":"民生八街","SECT":" ","MAREA":" ","LANE":"２１巷","ALLEY":"２弄","HOUSE_NO":"２號","E_COORD97":176109.81,"N_COORD97":2540310.25,"ADDRESS":"民生八街２１巷２弄２號","OBJECTID":14802},"geometry":{"x":176109.80999999959,"y":2540310.2500000037}},{"attributes":{"ID":14803,"DIS_CODE":0,"TOWNNAME":"歸仁區","LI":"歸南里","LIN":"24鄰","STREET":"民生八街","SECT":" ","MAREA":" ","LANE":"２１巷","ALLEY":"２弄","HOUSE_NO":"１０號","E_COORD97":176097.76000000001,"N_COORD97":2540310.25,"ADDRESS":"民生八街２１巷２弄１０號","OBJECTID":14803},"geometry":{"x":176097.76000000071,"y":2540310.2500000037}},{"attributes":{"ID":14804,"DIS_CODE":0,"TOWNNAME":"歸仁區","LI":"歸南里","LIN":"24鄰","STREET":"民生八街","SECT":" ","MAREA":" ","LANE":"２１巷","ALLEY":"１弄","HOUSE_NO":"９號","E_COORD97":176138.51000000001,"N_COORD97":2540309.25,"ADDRESS":"民生八街２１巷１弄９號","OBJECTID":14804},"geometry":{"x":176138.51000000071,"y":2540309.25}},{"attributes":{"ID":14805,"DIS_CODE":0,"TOWNNAME":"歸仁區","LI":"許厝里","LIN":"24鄰","STREET":"大仁街","SECT":" ","MAREA":" ","LANE":"１２６巷","ALLEY":"１７弄","HOUSE_NO":"１號","E_COORD97":178231.78,"N_COORD97":2540945.25,"ADDRESS":"大仁街１２６巷１７弄１號","OBJECTID":14805},"geometry":{"x":178231.78000000026,"y":2540945.2500000019}},{"attributes":{"ID":14806,"DIS_CODE":0,"TOWNNAME":"關廟區","LI":"東勢里","LIN":"24鄰","STREET":"東安街","SECT":" ","MAREA":" ","LANE":"２４１巷","ALLEY":"１３弄","HOUSE_NO":"６號","E_COORD97":181623.12,"N_COORD97":2539395.3199999998,"ADDRESS":"東安街２４１巷１３弄６號","OBJECTID":14806},"geometry":{"x":181623.11999999918,"y":2539395.3200000022}},{"attributes":{"ID":14807,"DIS_CODE":0,"TOWNNAME":"鹽水區","LI":"橋南里","LIN":"24鄰","STREET":"行昌路","SECT":" ","MAREA":" ","LANE":"２９巷","ALLEY":"１弄","HOUSE_NO":"１１號","E_COORD97":175081.70000000001,"N_COORD97":2579319.98,"ADDRESS":"行昌路２９巷１弄１１號","OBJECTID":14807},"geometry":{"x":175081.70000000112,"y":2579319.9800000023}},{"attributes":{"ID":14808,"DIS_CODE":0,"TOWNNAME":"鹽水區","LI":"橋南里","LIN":"24鄰","STREET":"行昌路","SECT":" ","MAREA":" ","LANE":"２９巷","ALLEY":"１弄","HOUSE_NO":"１２號","E_COORD97":175084.5,"N_COORD97":2579299.8500000001,"ADDRESS":"行昌路２９巷１弄１２號","OBJECTID":14808},"geometry":{"x":175084.50000000093,"y":2579299.8500000015}},{"attributes":{"ID":14809,"DIS_CODE":0,"TOWNNAME":"鹽水區","LI":"橋南里","LIN":"24鄰","STREET":"行昌路","SECT":" ","MAREA":" ","LANE":"２９巷","ALLEY":"１弄","HOUSE_NO":"１５號","E_COORD97":175100.23000000001,"N_COORD97":2579317.6200000001,"ADDRESS":"行昌路２９巷１弄１５號","OBJECTID":14809},"geometry":{"x":175100.23000000138,"y":2579317.620000001}},{"attributes":{"ID":14810,"DIS_CODE":0,"TOWNNAME":"鹽水區","LI":"橋南里","LIN":"24鄰","STREET":"行昌路","SECT":" ","MAREA":" ","LANE":"２９巷","ALLEY":"１弄","HOUSE_NO":"１８號","E_COORD97":175102.57000000001,"N_COORD97":2579299.6299999999,"ADDRESS":"行昌路２９巷１弄１８號","OBJECTID":14810},"geometry":{"x":175102.57000000123,"y":2579299.6300000008}},{"attributes":{"ID":14811,"DIS_CODE":0,"TOWNNAME":"東區","LI":"東光里","LIN":"13鄰","STREET":"東平路","SECT":" ","MAREA":" ","LANE":" ","ALLEY":" ","HOUSE_NO":"４７號","E_COORD97":171304.98000000001,"N_COORD97":2543921.02,"ADDRESS":"東平路４７號","OBJECTID":14811},"geometry":{"x":171304.98000000138,"y":2543921.0199999996}},{"attributes":{"ID":14812,"DIS_CODE":0,"TOWNNAME":"東區","LI":"東光里","LIN":"13鄰","STREET":"東平路","SECT":" ","MAREA":" ","LANE":" ","ALLEY":" ","HOUSE_NO":"４９號","E_COORD97":171300.67000000001,"N_COORD97":2543918.5600000001,"ADDRESS":"東平路４９號","OBJECTID":14812},"geometry":{"x":171300.67000000179,"y":2543918.5600000005}},{"attributes":{"ID":14813,"DIS_CODE":0,"TOWNNAME":"東區","LI":"東光里","LIN":"13鄰","STREET":"東平路","SECT":" ","MAREA":" ","LANE":" ","ALLEY":" ","HOUSE_NO":"５１號","E_COORD97":171296.35999999999,"N_COORD97":2543921.27,"ADDRESS":"東平路５１號","OBJECTID":14813},"geometry":{"x":171296.3599999994,"y":2543921.2700000014}},{"attributes":{"ID":14814,"DIS_CODE":0,"TOWNNAME":"東區","LI":"崇誨里","LIN":"13鄰","STREET":"林森路","SECT":"二段","MAREA":" ","LANE":" ","ALLEY":" ","HOUSE_NO":"１９４號之１","E_COORD97":170462.88,"N_COORD97":2543349.2599999998,"ADDRESS":"林森路二段１９４號之１","OBJECTID":14814},"geometry":{"x":170462.87999999989,"y":2543349.2599999998}},{"attributes":{"ID":14815,"DIS_CODE":0,"TOWNNAME":"東區","LI":"富裕里","LIN":"13鄰","STREET":"裕豐街","SECT":" ","MAREA":" ","LANE":" ","ALLEY":" ","HOUSE_NO":"２１號","E_COORD97":170694.92000000001,"N_COORD97":2542742.4500000002,"ADDRESS":"裕豐街２１號","OBJECTID":14815},"geometry":{"x":170694.91999999993,"y":2542742.450000003}},{"attributes":{"ID":14816,"DIS_CODE":0,"TOWNNAME":"鹽水區","LI":"橋南里","LIN":"24鄰","STREET":"行昌路","SECT":" ","MAREA":" ","LANE":"２９巷","ALLEY":"１弄","HOUSE_NO":"２號","E_COORD97":175064.16,"N_COORD97":2579304.52,"ADDRESS":"行昌路２９巷１弄２號","OBJECTID":14816},"geometry":{"x":175064.16000000015,"y":2579304.5200000014}},{"attributes":{"ID":14817,"DIS_CODE":0,"TOWNNAME":"鹽水區","LI":"橋南里","LIN":"24鄰","STREET":"行昌路","SECT":" ","MAREA":" ","LANE":"２９巷","ALLEY":"１弄","HOUSE_NO":"３號","E_COORD97":175055.64999999999,"N_COORD97":2579322.7799999998,"ADDRESS":"行昌路２９巷１弄３號","OBJECTID":14817},"geometry":{"x":175055.65000000037,"y":2579322.7800000012}},{"attributes":{"ID":14818,"DIS_CODE":0,"TOWNNAME":"鹽水區","LI":"橋南里","LIN":"24鄰","STREET":"行昌路","SECT":" ","MAREA":" ","LANE":"２９巷","ALLEY":"１弄","HOUSE_NO":"６號","E_COORD97":175069.28,"N_COORD97":2579304.1499999999,"ADDRESS":"行昌路２９巷１弄６號","OBJECTID":14818},"geometry":{"x":175069.28000000119,"y":2579304.1500000041}},{"attributes":{"ID":14819,"DIS_CODE":0,"TOWNNAME":"鹽水區","LI":"橋南里","LIN":"24鄰","STREET":"行昌路","SECT":" ","MAREA":" ","LANE":"２９巷","ALLEY":"１弄","HOUSE_NO":"７號","E_COORD97":175066.48999999999,"N_COORD97":2579321.6200000001,"ADDRESS":"行昌路２９巷１弄７號","OBJECTID":14819},"geometry":{"x":175066.49000000022,"y":2579321.6199999992}},{"attributes":{"ID":14820,"DIS_CODE":0,"TOWNNAME":"鹽水區","LI":"橋南里","LIN":"24鄰","STREET":"行昌路","SECT":" ","MAREA":" ","LANE":"２９巷","ALLEY":"１弄","HOUSE_NO":"８號","E_COORD97":175073.66,"N_COORD97":2579303.9100000001,"ADDRESS":"行昌路２９巷１弄８號","OBJECTID":14820},"geometry":{"x":175073.66000000015,"y":2579303.9100000001}},{"attributes":{"ID":14821,"DIS_CODE":0,"TOWNNAME":"鹽水區","LI":"橋南里","LIN":"24鄰","STREET":"行昌路","SECT":" ","MAREA":" ","LANE":"２９巷","ALLEY":"１弄","HOUSE_NO":"９號","E_COORD97":175072.98000000001,"N_COORD97":2579320.8700000001,"ADDRESS":"行昌路２９巷１弄９號","OBJECTID":14821},"geometry":{"x":175072.98000000138,"y":2579320.8700000029}},{"attributes":{"ID":14822,"DIS_CODE":0,"TOWNNAME":"鹽水區","LI":"橋南里","LIN":"24鄰","STREET":"行昌路","SECT":" ","MAREA":" ","LANE":"２９巷","ALLEY":"３０弄","HOUSE_NO":"１０號","E_COORD97":175034.31,"N_COORD97":2579273.23,"ADDRESS":"行昌路２９巷３０弄１０號","OBJECTID":14822},"geometry":{"x":175034.31000000052,"y":2579273.2300000023}},{"attributes":{"ID":14823,"DIS_CODE":0,"TOWNNAME":"鹽水區","LI":"橋南里","LIN":"24鄰","STREET":"行昌路","SECT":" ","MAREA":" ","LANE":"２９巷","ALLEY":"３０弄","HOUSE_NO":"１１號","E_COORD97":175038.23999999999,"N_COORD97":2579250.6600000001,"ADDRESS":"行昌路２９巷３０弄１１號","OBJECTID":14823},"geometry":{"x":175038.24000000022,"y":2579250.660000002}},{"attributes":{"ID":14824,"DIS_CODE":0,"TOWNNAME":"鹽水區","LI":"橋南里","LIN":"24鄰","STREET":"行昌路","SECT":" ","MAREA":" ","LANE":"２９巷","ALLEY":"３０弄","HOUSE_NO":"１２號","E_COORD97":175026.87,"N_COORD97":2579273.8199999998,"ADDRESS":"行昌路２９巷３０弄１２號","OBJECTID":14824},"geometry":{"x":175026.87000000011,"y":2579273.8200000022}},{"attributes":{"ID":14825,"DIS_CODE":0,"TOWNNAME":"鹽水區","LI":"橋南里","LIN":"24鄰","STREET":"行昌路","SECT":" ","MAREA":" ","LANE":"２９巷","ALLEY":"３０弄","HOUSE_NO":"１３號","E_COORD97":175033.82000000001,"N_COORD97":2579250.9100000001,"ADDRESS":"行昌路２９巷３０弄１３號","OBJECTID":14825},"geometry":{"x":175033.8200000003,"y":2579250.9099999983}},{"attributes":{"ID":14826,"DIS_CODE":0,"TOWNNAME":"鹽水區","LI":"橋南里","LIN":"24鄰","STREET":"行昌路","SECT":" ","MAREA":" ","LANE":"２９巷","ALLEY":"３０弄","HOUSE_NO":"１５號","E_COORD97":175029.09,"N_COORD97":2579251.0699999998,"ADDRESS":"行昌路２９巷３０弄１５號","OBJECTID":14826},"geometry":{"x":175029.09000000078,"y":2579251.0700000022}},{"attributes":{"ID":14827,"DIS_CODE":0,"TOWNNAME":"鹽水區","LI":"橋南里","LIN":"24鄰","STREET":"行昌路","SECT":" ","MAREA":" ","LANE":"２９巷","ALLEY":"３０弄","HOUSE_NO":"１７號","E_COORD97":175024.95000000001,"N_COORD97":2579251.9199999999,"ADDRESS":"行昌路２９巷３０弄１７號","OBJECTID":14827},"geometry":{"x":175024.95000000019,"y":2579251.9200000018}},{"attributes":{"ID":14828,"DIS_CODE":0,"TOWNNAME":"鹽水區","LI":"橋南里","LIN":"24鄰","STREET":"行昌路","SECT":" ","MAREA":" ","LANE":"２９巷","ALLEY":"３０弄","HOUSE_NO":"１９號","E_COORD97":175020.19,"N_COORD97":2579251.98,"ADDRESS":"行昌路２９巷３０弄１９號","OBJECTID":14828},"geometry":{"x":175020.19000000041,"y":2579251.9800000023}},{"attributes":{"ID":14829,"DIS_CODE":0,"TOWNNAME":"鹽水區","LI":"橋南里","LIN":"24鄰","STREET":"行昌路","SECT":" ","MAREA":" ","LANE":"２９巷","ALLEY":"３０弄","HOUSE_NO":"２號","E_COORD97":175050.17999999999,"N_COORD97":2579272.5,"ADDRESS":"行昌路２９巷３０弄２號","OBJECTID":14829},"geometry":{"x":175050.18000000156,"y":2579272.5}},{"attributes":{"ID":14830,"DIS_CODE":0,"TOWNNAME":"鹽水區","LI":"橋南里","LIN":"24鄰","STREET":"行昌路","SECT":" ","MAREA":" ","LANE":"２９巷","ALLEY":"３０弄","HOUSE_NO":"３號","E_COORD97":175055.39999999999,"N_COORD97":2579248.96,"ADDRESS":"行昌路２９巷３０弄３號","OBJECTID":14830},"geometry":{"x":175055.40000000037,"y":2579248.9600000028}},{"attributes":{"ID":14831,"DIS_CODE":0,"TOWNNAME":"鹽水區","LI":"橋南里","LIN":"24鄰","STREET":"行昌路","SECT":" ","MAREA":" ","LANE":"２９巷","ALLEY":"３０弄","HOUSE_NO":"５號","E_COORD97":175051.42000000001,"N_COORD97":2579249.4399999999,"ADDRESS":"行昌路２９巷３０弄５號","OBJECTID":14831},"geometry":{"x":175051.41999999993,"y":2579249.4399999995}},{"attributes":{"ID":14832,"DIS_CODE":0,"TOWNNAME":"鹽水區","LI":"橋南里","LIN":"24鄰","STREET":"行昌路","SECT":" ","MAREA":" ","LANE":"２９巷","ALLEY":"３０弄","HOUSE_NO":"７號","E_COORD97":175046.98999999999,"N_COORD97":2579249.4399999999,"ADDRESS":"行昌路２９巷３０弄７號","OBJECTID":14832},"geometry":{"x":175046.99000000209,"y":2579249.4399999995}},{"attributes":{"ID":14833,"DIS_CODE":0,"TOWNNAME":"鹽水區","LI":"橋南里","LIN":"24鄰","STREET":"行昌路","SECT":" ","MAREA":" ","LANE":"２９巷","ALLEY":"３０弄","HOUSE_NO":"８號","E_COORD97":175040.39999999999,"N_COORD97":2579273.1800000002,"ADDRESS":"行昌路２９巷３０弄８號","OBJECTID":14833},"geometry":{"x":175040.40000000037,"y":2579273.1800000016}},{"attributes":{"ID":14834,"DIS_CODE":0,"TOWNNAME":"大內區","LI":"石城里","LIN":"13鄰","STREET":" ","SECT":" ","MAREA":"石子瀨","LANE":" ","ALLEY":" ","HOUSE_NO":"１２１號之８","E_COORD97":183840.54999999999,"N_COORD97":2558043.2999999998,"ADDRESS":"石子瀨１２１號之８","OBJECTID":14834},"geometry":{"x":183840.54999999981,"y":2558043.3000000026}},{"attributes":{"ID":14835,"DIS_CODE":0,"TOWNNAME":"大內區","LI":"石湖里","LIN":"13鄰","STREET":" ","SECT":" ","MAREA":"新厝子","LANE":" ","ALLEY":" ","HOUSE_NO":"１１號之１","E_COORD97":185013.35000000001,"N_COORD97":2561206.2999999998,"ADDRESS":"新厝子１１號之１","OBJECTID":14835},"geometry":{"x":185013.35000000149,"y":2561206.3000000026}},{"attributes":{"ID":14836,"DIS_CODE":0,"TOWNNAME":"大內區","LI":"石湖里","LIN":"13鄰","STREET":" ","SECT":" ","MAREA":"新厝子","LANE":" ","ALLEY":" ","HOUSE_NO":"１０之５號","E_COORD97":184600.12,"N_COORD97":2561074.2999999998,"ADDRESS":"新厝子１０之５號","OBJECTID":14836},"geometry":{"x":184600.12000000197,"y":2561074.3000000026}},{"attributes":{"ID":14837,"DIS_CODE":0,"TOWNNAME":"大內區","LI":"石城里","LIN":"13鄰","STREET":" ","SECT":" ","MAREA":"石子瀨","LANE":" ","ALLEY":" ","HOUSE_NO":"１２１號之９","E_COORD97":183879.29000000001,"N_COORD97":2558036.2999999998,"ADDRESS":"石子瀨１２１號之９","OBJECTID":14837},"geometry":{"x":183879.29000000004,"y":2558036.3000000026}},{"attributes":{"ID":14838,"DIS_CODE":0,"TOWNNAME":"大內區","LI":"石城里","LIN":"13鄰","STREET":" ","SECT":" ","MAREA":"石子瀨","LANE":" ","ALLEY":" ","HOUSE_NO":"１１７號之３","E_COORD97":183978.79999999999,"N_COORD97":2557998.2999999998,"ADDRESS":"石子瀨１１７號之３","OBJECTID":14838},"geometry":{"x":183978.80000000075,"y":2557998.3000000045}},{"attributes":{"ID":14839,"DIS_CODE":0,"TOWNNAME":"大內區","LI":"石城里","LIN":"13鄰","STREET":" ","SECT":" ","MAREA":"石子瀨","LANE":" ","ALLEY":" ","HOUSE_NO":"１１４號之２７","E_COORD97":183898.53,"N_COORD97":2557920.2999999998,"ADDRESS":"石子瀨１１４號之２７","OBJECTID":14839},"geometry":{"x":183898.53000000026,"y":2557920.3000000045}},{"attributes":{"ID":14840,"DIS_CODE":0,"TOWNNAME":"大內區","LI":"石城里","LIN":"13鄰","STREET":" ","SECT":" ","MAREA":"石子瀨","LANE":" ","ALLEY":" ","HOUSE_NO":"１１７號之１８","E_COORD97":183976.70000000001,"N_COORD97":2557967.29,"ADDRESS":"石子瀨１１７號之１８","OBJECTID":14840},"geometry":{"x":183976.70000000019,"y":2557967.290000001}},{"attributes":{"ID":14841,"DIS_CODE":0,"TOWNNAME":"新市區","LI":"潭頂里","LIN":"14鄰","STREET":" ","SECT":" ","MAREA":"潭頂","LANE":" ","ALLEY":" ","HOUSE_NO":"５３９號","E_COORD97":180195.70000000001,"N_COORD97":2552904.5,"ADDRESS":"潭頂５３９號","OBJECTID":14841},"geometry":{"x":180195.70000000112,"y":2552904.5000000019}},{"attributes":{"ID":14842,"DIS_CODE":0,"TOWNNAME":"新市區","LI":"潭頂里","LIN":"14鄰","STREET":" ","SECT":" ","MAREA":"潭頂","LANE":" ","ALLEY":" ","HOUSE_NO":"５３７之４號","E_COORD97":180184.73000000001,"N_COORD97":2552824.7999999998,"ADDRESS":"潭頂５３７之４號","OBJECTID":14842},"geometry":{"x":180184.73000000045,"y":2552824.8000000026}},{"attributes":{"ID":14843,"DIS_CODE":0,"TOWNNAME":"東區","LI":"裕聖里","LIN":"20鄰","STREET":"裕忠路","SECT":" ","MAREA":" ","LANE":" ","ALLEY":" ","HOUSE_NO":"２９５之９號","E_COORD97":172313.73999999999,"N_COORD97":2542375.4199999999,"ADDRESS":"裕忠路２９５之９號","OBJECTID":14843},"geometry":{"x":172313.74000000022,"y":2542375.4199999999}},{"attributes":{"ID":14844,"DIS_CODE":0,"TOWNNAME":"大內區","LI":"石城里","LIN":"13鄰","STREET":" ","SECT":" ","MAREA":"石子瀨","LANE":" ","ALLEY":" ","HOUSE_NO":"１２１號之１１","E_COORD97":183874.45000000001,"N_COORD97":2558032.2999999998,"ADDRESS":"石子瀨１２１號之１１","OBJECTID":14844},"geometry":{"x":183874.45000000112,"y":2558032.3000000045}},{"attributes":{"ID":14845,"DIS_CODE":0,"TOWNNAME":"大內區","LI":"石城里","LIN":"13鄰","STREET":" ","SECT":" ","MAREA":"石子瀨","LANE":" ","ALLEY":" ","HOUSE_NO":"１２１號之１２","E_COORD97":183872.19,"N_COORD97":2558030.2999999998,"ADDRESS":"石子瀨１２１號之１２","OBJECTID":14845},"geometry":{"x":183872.19000000041,"y":2558030.3000000026}},{"attributes":{"ID":14846,"DIS_CODE":0,"TOWNNAME":"大內區","LI":"石城里","LIN":"13鄰","STREET":" ","SECT":" ","MAREA":"石子瀨","LANE":" ","ALLEY":" ","HOUSE_NO":"１２１號","E_COORD97":183884.87,"N_COORD97":2558076.25,"ADDRESS":"石子瀨１２１號","OBJECTID":14846},"geometry":{"x":183884.87000000104,"y":2558076.2500000019}},{"attributes":{"ID":14847,"DIS_CODE":0,"TOWNNAME":"新市區","LI":"潭頂里","LIN":"14鄰","STREET":" ","SECT":" ","MAREA":"潭頂","LANE":" ","ALLEY":" ","HOUSE_NO":"５５０之２號","E_COORD97":180052.07999999999,"N_COORD97":2552974.0499999998,"ADDRESS":"潭頂５５０之２號","OBJECTID":14847},"geometry":{"x":180052.08000000194,"y":2552974.0500000007}},{"attributes":{"ID":14848,"DIS_CODE":0,"TOWNNAME":"鹽水區","LI":"橋南里","LIN":"24鄰","STREET":"行昌路","SECT":" ","MAREA":" ","LANE":"２９巷","ALLEY":"３０弄","HOUSE_NO":"９號","E_COORD97":175042.87,"N_COORD97":2579249.6200000001,"ADDRESS":"行昌路２９巷３０弄９號","OBJECTID":14848},"geometry":{"x":175042.87000000104,"y":2579249.620000001}},{"attributes":{"ID":14849,"DIS_CODE":0,"TOWNNAME":"鹽水區","LI":"橋南里","LIN":"24鄰","STREET":"南門路","SECT":" ","MAREA":" ","LANE":"８０巷","ALLEY":"２０弄","HOUSE_NO":"１０號","E_COORD97":175083.70000000001,"N_COORD97":2579226.8399999999,"ADDRESS":"南門路８０巷２０弄１０號","OBJECTID":14849},"geometry":{"x":175083.70000000019,"y":2579226.8399999999}},{"attributes":{"ID":14850,"DIS_CODE":0,"TOWNNAME":"鹽水區","LI":"橋南里","LIN":"24鄰","STREET":"南門路","SECT":" ","MAREA":" ","LANE":"８０巷","ALLEY":"２０弄","HOUSE_NO":"１１號","E_COORD97":175071.60999999999,"N_COORD97":2579211.0600000001,"ADDRESS":"南門路８０巷２０弄１１號","OBJECTID":14850},"geometry":{"x":175071.6100000022,"y":2579211.0600000024}},{"attributes":{"ID":14851,"DIS_CODE":0,"TOWNNAME":"鹽水區","LI":"橋南里","LIN":"24鄰","STREET":"南門路","SECT":" ","MAREA":" ","LANE":"８０巷","ALLEY":"２０弄","HOUSE_NO":"１２號","E_COORD97":175079.13,"N_COORD97":2579227.2799999998,"ADDRESS":"南門路８０巷２０弄１２號","OBJECTID":14851},"geometry":{"x":175079.12999999989,"y":2579227.2800000031}},{"attributes":{"ID":14852,"DIS_CODE":0,"TOWNNAME":"新市區","LI":"潭頂里","LIN":"14鄰","STREET":" ","SECT":" ","MAREA":"潭頂","LANE":" ","ALLEY":" ","HOUSE_NO":"５３７之３號","E_COORD97":180188.82999999999,"N_COORD97":2552824.5499999998,"ADDRESS":"潭頂５３７之３號","OBJECTID":14852},"geometry":{"x":180188.83000000007,"y":2552824.5500000007}},{"attributes":{"ID":14853,"DIS_CODE":0,"TOWNNAME":"新市區","LI":"潭頂里","LIN":"14鄰","STREET":" ","SECT":" ","MAREA":"潭頂","LANE":" ","ALLEY":" ","HOUSE_NO":"５３８之５號","E_COORD97":180173.98000000001,"N_COORD97":2552831.2999999998,"ADDRESS":"潭頂５３８之５號","OBJECTID":14853},"geometry":{"x":180173.98000000138,"y":2552831.3000000045}},{"attributes":{"ID":14854,"DIS_CODE":0,"TOWNNAME":"鹽水區","LI":"橋南里","LIN":"24鄰","STREET":"南門路","SECT":" ","MAREA":" ","LANE":"８０巷","ALLEY":"２０弄","HOUSE_NO":"１３號","E_COORD97":175066.67999999999,"N_COORD97":2579211.71,"ADDRESS":"南門路８０巷２０弄１３號","OBJECTID":14854},"geometry":{"x":175066.6799999997,"y":2579211.7100000009}},{"attributes":{"ID":14855,"DIS_CODE":0,"TOWNNAME":"新市區","LI":"潭頂里","LIN":"14鄰","STREET":" ","SECT":" ","MAREA":"潭頂","LANE":" ","ALLEY":" ","HOUSE_NO":"５４３之１０號","E_COORD97":180001.12,"N_COORD97":2552644.7999999998,"ADDRESS":"潭頂５４３之１０號","OBJECTID":14855},"geometry":{"x":180001.12000000104,"y":2552644.8000000045}},{"attributes":{"ID":14856,"DIS_CODE":0,"TOWNNAME":"鹽水區","LI":"橋南里","LIN":"24鄰","STREET":"南門路","SECT":" ","MAREA":" ","LANE":"８０巷","ALLEY":"２０弄","HOUSE_NO":"１４號","E_COORD97":175074.56,"N_COORD97":2579227.71,"ADDRESS":"南門路８０巷２０弄１４號","OBJECTID":14856},"geometry":{"x":175074.56000000145,"y":2579227.7100000028}},{"attributes":{"ID":14857,"DIS_CODE":0,"TOWNNAME":"鹽水區","LI":"橋南里","LIN":"24鄰","STREET":"南門路","SECT":" ","MAREA":" ","LANE":"８０巷","ALLEY":"２０弄","HOUSE_NO":"１５號","E_COORD97":175062.25,"N_COORD97":2579212.23,"ADDRESS":"南門路８０巷２０弄１５號","OBJECTID":14857},"geometry":{"x":175062.25000000093,"y":2579212.2300000023}},{"attributes":{"ID":14858,"DIS_CODE":0,"TOWNNAME":"鹽水區","LI":"橋南里","LIN":"24鄰","STREET":"南門路","SECT":" ","MAREA":" ","LANE":"８０巷","ALLEY":"２０弄","HOUSE_NO":"１６號","E_COORD97":175069.98999999999,"N_COORD97":2579228.1499999999,"ADDRESS":"南門路８０巷２０弄１６號","OBJECTID":14858},"geometry":{"x":175069.99000000022,"y":2579228.1500000004}},{"attributes":{"ID":14859,"DIS_CODE":0,"TOWNNAME":"鹽水區","LI":"橋南里","LIN":"24鄰","STREET":"南門路","SECT":" ","MAREA":" ","LANE":"８０巷","ALLEY":"２０弄","HOUSE_NO":"１７號","E_COORD97":175058.09,"N_COORD97":2579212.6000000001,"ADDRESS":"南門路８０巷２０弄１７號","OBJECTID":14859},"geometry":{"x":175058.09000000078,"y":2579212.6000000015}},{"attributes":{"ID":14860,"DIS_CODE":0,"TOWNNAME":"鹽水區","LI":"橋南里","LIN":"24鄰","STREET":"南門路","SECT":" ","MAREA":" ","LANE":"８０巷","ALLEY":"２０弄","HOUSE_NO":"１８號","E_COORD97":175065.42000000001,"N_COORD97":2579228.5800000001,"ADDRESS":"南門路８０巷２０弄１８號","OBJECTID":14860},"geometry":{"x":175065.41999999993,"y":2579228.5800000001}},{"attributes":{"ID":14861,"DIS_CODE":0,"TOWNNAME":"鹽水區","LI":"橋南里","LIN":"24鄰","STREET":"南門路","SECT":" ","MAREA":" ","LANE":"８０巷","ALLEY":"２０弄","HOUSE_NO":"１９號","E_COORD97":175053.35999999999,"N_COORD97":2579213.1000000001,"ADDRESS":"南門路８０巷２０弄１９號","OBJECTID":14861},"geometry":{"x":175053.36000000127,"y":2579213.1000000015}},{"attributes":{"ID":14862,"DIS_CODE":0,"TOWNNAME":"鹽水區","LI":"橋南里","LIN":"24鄰","STREET":"南門路","SECT":" ","MAREA":" ","LANE":"８０巷","ALLEY":"２０弄","HOUSE_NO":"１號","E_COORD97":175094.41,"N_COORD97":2579209.3300000001,"ADDRESS":"南門路８０巷２０弄１號","OBJECTID":14862},"geometry":{"x":175094.41000000015,"y":2579209.3300000001}},{"attributes":{"ID":14863,"DIS_CODE":0,"TOWNNAME":"鹽水區","LI":"橋南里","LIN":"24鄰","STREET":"南門路","SECT":" ","MAREA":" ","LANE":"８０巷","ALLEY":"２０弄","HOUSE_NO":"２０號","E_COORD97":175060.85000000001,"N_COORD97":2579229.0099999998,"ADDRESS":"南門路８０巷２０弄２０號","OBJECTID":14863},"geometry":{"x":175060.85000000149,"y":2579229.0099999998}},{"attributes":{"ID":14864,"DIS_CODE":0,"TOWNNAME":"永康區","LI":"西灣里","LIN":"13鄰","STREET":"民族路","SECT":" ","MAREA":" ","LANE":" ","ALLEY":" ","HOUSE_NO":"４８５號","E_COORD97":174568.44,"N_COORD97":2545433.2799999998,"ADDRESS":"民族路４８５號","OBJECTID":14864},"geometry":{"x":174568.44000000134,"y":2545433.2800000012}},{"attributes":{"ID":14865,"DIS_CODE":0,"TOWNNAME":"永康區","LI":"尚頂里","LIN":"13鄰","STREET":"正南一街","SECT":" ","MAREA":" ","LANE":" ","ALLEY":" ","HOUSE_NO":"１０６號","E_COORD97":170967.35000000001,"N_COORD97":2547263.8599999999,"ADDRESS":"正南一街１０６號","OBJECTID":14865},"geometry":{"x":170967.35000000056,"y":2547263.8600000013}},{"attributes":{"ID":14866,"DIS_CODE":0,"TOWNNAME":"永康區","LI":"西灣里","LIN":"13鄰","STREET":"民族路","SECT":" ","MAREA":" ","LANE":" ","ALLEY":" ","HOUSE_NO":"４９１號","E_COORD97":174556.29999999999,"N_COORD97":2545437.0299999998,"ADDRESS":"民族路４９１號","OBJECTID":14866},"geometry":{"x":174556.30000000168,"y":2545437.0300000031}},{"attributes":{"ID":14867,"DIS_CODE":0,"TOWNNAME":"永康區","LI":"西灣里","LIN":"13鄰","STREET":"民族路","SECT":" ","MAREA":" ","LANE":" ","ALLEY":" ","HOUSE_NO":"４７３號","E_COORD97":174605.89999999999,"N_COORD97":2545424.5299999998,"ADDRESS":"民族路４７３號","OBJECTID":14867},"geometry":{"x":174605.9000000013,"y":2545424.5300000012}},{"attributes":{"ID":14868,"DIS_CODE":0,"TOWNNAME":"永康區","LI":"西灣里","LIN":"13鄰","STREET":"民族路","SECT":" ","MAREA":" ","LANE":" ","ALLEY":" ","HOUSE_NO":"４８７號","E_COORD97":174564.01999999999,"N_COORD97":2545434.3199999998,"ADDRESS":"民族路４８７號","OBJECTID":14868},"geometry":{"x":174564.01999999955,"y":2545434.3200000022}},{"attributes":{"ID":14869,"DIS_CODE":0,"TOWNNAME":"北區","LI":"三德里","LIN":"5鄰","STREET":"裕民街","SECT":" ","MAREA":" ","LANE":" ","ALLEY":" ","HOUSE_NO":"７０號","E_COORD97":168494.92000000001,"N_COORD97":2544495.77,"ADDRESS":"裕民街７０號","OBJECTID":14869},"geometry":{"x":168494.91999999993,"y":2544495.7699999996}},{"attributes":{"ID":14870,"DIS_CODE":0,"TOWNNAME":"永康區","LI":"尚頂里","LIN":"13鄰","STREET":"正南一街","SECT":" ","MAREA":" ","LANE":" ","ALLEY":" ","HOUSE_NO":"１１０號","E_COORD97":170939.26999999999,"N_COORD97":2547256.27,"ADDRESS":"正南一街１１０號","OBJECTID":14870},"geometry":{"x":170939.27000000048,"y":2547256.2700000033}},{"attributes":{"ID":14871,"DIS_CODE":0,"TOWNNAME":"永康區","LI":"\u25A0行里","LIN":"13鄰","STREET":"中正南路","SECT":" ","MAREA":" ","LANE":" ","ALLEY":" ","HOUSE_NO":"７６０號","E_COORD97":171758,"N_COORD97":2548980.2400000002,"ADDRESS":"中正南路７６０號","OBJECTID":14871},"geometry":{"x":171758.00000000186,"y":2548980.2400000021}},{"attributes":{"ID":14872,"DIS_CODE":0,"TOWNNAME":"永康區","LI":"\u25A0行里","LIN":"13鄰","STREET":"中正南路","SECT":" ","MAREA":" ","LANE":" ","ALLEY":" ","HOUSE_NO":"７５６號","E_COORD97":171753.39999999999,"N_COORD97":2548973.4900000002,"ADDRESS":"中正南路７５６號","OBJECTID":14872},"geometry":{"x":171753.40000000037,"y":2548973.4900000002}},{"attributes":{"ID":14873,"DIS_CODE":0,"TOWNNAME":"大內區","LI":"石城里","LIN":"13鄰","STREET":" ","SECT":" ","MAREA":"石子瀨","LANE":" ","ALLEY":" ","HOUSE_NO":"１１７號之６","E_COORD97":183985.81,"N_COORD97":2557989.2999999998,"ADDRESS":"石子瀨１１７號之６","OBJECTID":14873},"geometry":{"x":183985.80999999959,"y":2557989.3000000026}},{"attributes":{"ID":14874,"DIS_CODE":0,"TOWNNAME":"大內區","LI":"石城里","LIN":"13鄰","STREET":" ","SECT":" ","MAREA":"石子瀨","LANE":" ","ALLEY":" ","HOUSE_NO":"１１７號之１０","E_COORD97":183997.10000000001,"N_COORD97":2557976.2999999998,"ADDRESS":"石子瀨１１７號之１０","OBJECTID":14874},"geometry":{"x":183997.09999999963,"y":2557976.3000000007}},{"attributes":{"ID":14875,"DIS_CODE":0,"TOWNNAME":"大內區","LI":"石湖里","LIN":"13鄰","STREET":" ","SECT":" ","MAREA":"新厝子","LANE":" ","ALLEY":" ","HOUSE_NO":"１０之１號","E_COORD97":184852.01999999999,"N_COORD97":2561210.2999999998,"ADDRESS":"新厝子１０之１號","OBJECTID":14875},"geometry":{"x":184852.01999999955,"y":2561210.3000000026}},{"attributes":{"ID":14876,"DIS_CODE":0,"TOWNNAME":"鹽水區","LI":"橋南里","LIN":"24鄰","STREET":"南門路","SECT":" ","MAREA":" ","LANE":"８０巷","ALLEY":"２０弄","HOUSE_NO":"２１號","E_COORD97":175049.35000000001,"N_COORD97":2579213.5499999998,"ADDRESS":"南門路８０巷２０弄２１號","OBJECTID":14876},"geometry":{"x":175049.35000000056,"y":2579213.5500000045}},{"attributes":{"ID":14877,"DIS_CODE":0,"TOWNNAME":"大內區","LI":"石城里","LIN":"13鄰","STREET":" ","SECT":" ","MAREA":"石子瀨","LANE":" ","ALLEY":" ","HOUSE_NO":"１２１號之７","E_COORD97":183843.78,"N_COORD97":2558045.2999999998,"ADDRESS":"石子瀨１２１號之７","OBJECTID":14877},"geometry":{"x":183843.78000000119,"y":2558045.3000000007}},{"attributes":{"ID":14878,"DIS_CODE":0,"TOWNNAME":"鹽水區","LI":"橋南里","LIN":"24鄰","STREET":"南門路","SECT":" ","MAREA":" ","LANE":"８０巷","ALLEY":"２０弄","HOUSE_NO":"２２號","E_COORD97":175056.28,"N_COORD97":2579229.4500000002,"ADDRESS":"南門路８０巷２０弄２２號","OBJECTID":14878},"geometry":{"x":175056.28000000026,"y":2579229.450000003}},{"attributes":{"ID":14879,"DIS_CODE":0,"TOWNNAME":"鹽水區","LI":"橋南里","LIN":"24鄰","STREET":"南門路","SECT":" ","MAREA":" ","LANE":"８０巷","ALLEY":"２０弄","HOUSE_NO":"２３號","E_COORD97":175044.92000000001,"N_COORD97":2579213.5899999999,"ADDRESS":"南門路８０巷２０弄２３號","OBJECTID":14879},"geometry":{"x":175044.91999999993,"y":2579213.5900000017}},{"attributes":{"ID":14880,"DIS_CODE":0,"TOWNNAME":"鹽水區","LI":"橋南里","LIN":"24鄰","STREET":"南門路","SECT":" ","MAREA":" ","LANE":"８０巷","ALLEY":"２０弄","HOUSE_NO":"２４號","E_COORD97":175051.70999999999,"N_COORD97":2579229.8799999999,"ADDRESS":"南門路８０巷２０弄２４號","OBJECTID":14880},"geometry":{"x":175051.70999999996,"y":2579229.8800000027}},{"attributes":{"ID":14881,"DIS_CODE":0,"TOWNNAME":"鹽水區","LI":"橋南里","LIN":"24鄰","STREET":"南門路","SECT":" ","MAREA":" ","LANE":"８０巷","ALLEY":"２０弄","HOUSE_NO":"２５號","E_COORD97":175040.48999999999,"N_COORD97":2579214.23,"ADDRESS":"南門路８０巷２０弄２５號","OBJECTID":14881},"geometry":{"x":175040.49000000115,"y":2579214.2300000004}},{"attributes":{"ID":14882,"DIS_CODE":0,"TOWNNAME":"鹽水區","LI":"橋南里","LIN":"24鄰","STREET":"南門路","SECT":" ","MAREA":" ","LANE":"８０巷","ALLEY":"２０弄","HOUSE_NO":"２６號","E_COORD97":175047.14000000001,"N_COORD97":2579230.3100000001,"ADDRESS":"南門路８０巷２０弄２６號","OBJECTID":14882},"geometry":{"x":175047.1400000006,"y":2579230.3100000005}},{"attributes":{"ID":14883,"DIS_CODE":0,"TOWNNAME":"鹽水區","LI":"橋南里","LIN":"24鄰","STREET":"南門路","SECT":" ","MAREA":" ","LANE":"８０巷","ALLEY":"２０弄","HOUSE_NO":"３０號","E_COORD97":175038,"N_COORD97":2579231.1800000002,"ADDRESS":"南門路８０巷２０弄３０號","OBJECTID":14883},"geometry":{"x":175037.99999999907,"y":2579231.1799999997}},{"attributes":{"ID":14884,"DIS_CODE":0,"TOWNNAME":"鹽水區","LI":"橋南里","LIN":"24鄰","STREET":"南門路","SECT":" ","MAREA":" ","LANE":"８０巷","ALLEY":"２０弄","HOUSE_NO":"３２號","E_COORD97":175033.42999999999,"N_COORD97":2579231.6099999999,"ADDRESS":"南門路８０巷２０弄３２號","OBJECTID":14884},"geometry":{"x":175033.43000000063,"y":2579231.6099999994}},{"attributes":{"ID":14885,"DIS_CODE":0,"TOWNNAME":"鹽水區","LI":"橋南里","LIN":"24鄰","STREET":"南門路","SECT":" ","MAREA":" ","LANE":"８０巷","ALLEY":"２０弄","HOUSE_NO":"３４號","E_COORD97":175028.85999999999,"N_COORD97":2579232.0499999998,"ADDRESS":"南門路８０巷２０弄３４號","OBJECTID":14885},"geometry":{"x":175028.86000000034,"y":2579232.0500000026}},{"attributes":{"ID":14886,"DIS_CODE":0,"TOWNNAME":"鹽水區","LI":"橋南里","LIN":"24鄰","STREET":"南門路","SECT":" ","MAREA":" ","LANE":"８０巷","ALLEY":"２０弄","HOUSE_NO":"３６號","E_COORD97":175024.29999999999,"N_COORD97":2579232.48,"ADDRESS":"南門路８０巷２０弄３６號","OBJECTID":14886},"geometry":{"x":175024.30000000075,"y":2579232.4800000004}},{"attributes":{"ID":14887,"DIS_CODE":0,"TOWNNAME":"鹽水區","LI":"橋南里","LIN":"24鄰","STREET":"南門路","SECT":" ","MAREA":" ","LANE":"８０巷","ALLEY":"２０弄","HOUSE_NO":"３８號","E_COORD97":175019.73000000001,"N_COORD97":2579232.9199999999,"ADDRESS":"南門路８０巷２０弄３８號","OBJECTID":14887},"geometry":{"x":175019.73000000045,"y":2579232.9199999999}},{"attributes":{"ID":14888,"DIS_CODE":0,"TOWNNAME":"仁德區","LI":"成功里","LIN":"1鄰","STREET":"保生東路","SECT":" ","MAREA":" ","LANE":"１３８巷","ALLEY":"６弄","HOUSE_NO":"１６號","E_COORD97":171203.16250499999,"N_COORD97":2539553.5287500001,"ADDRESS":"保生東路１３８巷６弄１６號","OBJECTID":14888},"geometry":{"x":171203.1625049999,"y":2539553.5287530031}},{"attributes":{"ID":14889,"DIS_CODE":0,"TOWNNAME":"鹽水區","LI":"橋南里","LIN":"24鄰","STREET":"南門路","SECT":" ","MAREA":" ","LANE":"８０巷","ALLEY":"２０弄","HOUSE_NO":"３號","E_COORD97":175089.10000000001,"N_COORD97":2579209.6400000001,"ADDRESS":"南門路８０巷２０弄３號","OBJECTID":14889},"geometry":{"x":175089.09999999963,"y":2579209.6400000025}},{"attributes":{"ID":14890,"DIS_CODE":0,"TOWNNAME":"鹽水區","LI":"橋南里","LIN":"24鄰","STREET":"南門路","SECT":" ","MAREA":" ","LANE":"８０巷","ALLEY":"２０弄","HOUSE_NO":"５號","E_COORD97":175084.91,"N_COORD97":2579209.9900000002,"ADDRESS":"南門路８０巷２０弄５號","OBJECTID":14890},"geometry":{"x":175084.91000000108,"y":2579209.9900000039}},{"attributes":{"ID":14891,"DIS_CODE":0,"TOWNNAME":"鹽水區","LI":"橋南里","LIN":"24鄰","STREET":"南門路","SECT":" ","MAREA":" ","LANE":"８０巷","ALLEY":"２０弄","HOUSE_NO":"６號","E_COORD97":175092.84,"N_COORD97":2579225.98,"ADDRESS":"南門路８０巷２０弄６號","OBJECTID":14891},"geometry":{"x":175092.83999999985,"y":2579225.9800000004}},{"attributes":{"ID":14892,"DIS_CODE":0,"TOWNNAME":"鹽水區","LI":"橋南里","LIN":"24鄰","STREET":"南門路","SECT":" ","MAREA":" ","LANE":"８０巷","ALLEY":"２０弄","HOUSE_NO":"７號","E_COORD97":175080.54000000001,"N_COORD97":2579210.4100000001,"ADDRESS":"南門路８０巷２０弄７號","OBJECTID":14892},"geometry":{"x":175080.54000000097,"y":2579210.4100000039}},{"attributes":{"ID":14893,"DIS_CODE":0,"TOWNNAME":"鹽水區","LI":"橋南里","LIN":"24鄰","STREET":"南門路","SECT":" ","MAREA":" ","LANE":"８０巷","ALLEY":"２０弄","HOUSE_NO":"８號","E_COORD97":175088.26999999999,"N_COORD97":2579226.4100000001,"ADDRESS":"南門路８０巷２０弄８號","OBJECTID":14893},"geometry":{"x":175088.26999999862,"y":2579226.4100000001}},{"attributes":{"ID":14894,"DIS_CODE":0,"TOWNNAME":"北區","LI":"大港里","LIN":"24鄰","STREET":"中華北路","SECT":"一段","MAREA":" ","LANE":"２０３巷","ALLEY":"３３弄","HOUSE_NO":"１號","E_COORD97":166367.20000000001,"N_COORD97":2545681.9100000001,"ADDRESS":"中華北路一段２０３巷３３弄１號","OBJECTID":14894},"geometry":{"x":166367.20000000019,"y":2545681.9100000001}},{"attributes":{"ID":14895,"DIS_CODE":0,"TOWNNAME":"北區","LI":"大港里","LIN":"24鄰","STREET":"中華北路","SECT":"一段","MAREA":" ","LANE":"２０３巷","ALLEY":"３３弄","HOUSE_NO":"２號","E_COORD97":166358.23000000001,"N_COORD97":2545679.2000000002,"ADDRESS":"中華北路一段２０３巷３３弄２號","OBJECTID":14895},"geometry":{"x":166358.23000000138,"y":2545679.1999999993}},{"attributes":{"ID":14896,"DIS_CODE":0,"TOWNNAME":"北區","LI":"大港里","LIN":"24鄰","STREET":"中華北路","SECT":"一段","MAREA":" ","LANE":"２０３巷","ALLEY":"３３弄","HOUSE_NO":"２號之１","E_COORD97":166359.48999999999,"N_COORD97":2545675.1899999999,"ADDRESS":"中華北路一段２０３巷３３弄２號之１","OBJECTID":14896},"geometry":{"x":166359.49000000115,"y":2545675.1900000013}},{"attributes":{"ID":14897,"DIS_CODE":0,"TOWNNAME":"北區","LI":"大港里","LIN":"24鄰","STREET":"中華北路","SECT":"一段","MAREA":" ","LANE":"２０３巷","ALLEY":"３３弄","HOUSE_NO":"３號","E_COORD97":166368.29999999999,"N_COORD97":2545677.9100000001,"ADDRESS":"中華北路一段２０３巷３３弄３號","OBJECTID":14897},"geometry":{"x":166368.29999999888,"y":2545677.9100000001}},{"attributes":{"ID":14898,"DIS_CODE":0,"TOWNNAME":"永康區","LI":"北灣里","LIN":"24鄰","STREET":"大灣路","SECT":" ","MAREA":" ","LANE":"３７巷","ALLEY":"２０弄","HOUSE_NO":"１９號","E_COORD97":175422.06,"N_COORD97":2545777.4900000002,"ADDRESS":"大灣路３７巷２０弄１９號","OBJECTID":14898},"geometry":{"x":175422.06000000145,"y":2545777.4900000039}},{"attributes":{"ID":14899,"DIS_CODE":0,"TOWNNAME":"新營區","LI":"新南里","LIN":"24鄰","STREET":"隋唐街","SECT":" ","MAREA":" ","LANE":"２９５巷","ALLEY":"４１弄","HOUSE_NO":"２７號","E_COORD97":178243.17999999999,"N_COORD97":2578472.5899999999,"ADDRESS":"隋唐街２９５巷４１弄２７號","OBJECTID":14899},"geometry":{"x":178243.1799999997,"y":2578472.5899999999}},{"attributes":{"ID":14900,"DIS_CODE":0,"TOWNNAME":"新營區","LI":"新南里","LIN":"24鄰","STREET":"隋唐街","SECT":" ","MAREA":" ","LANE":"２９５巷","ALLEY":"４１弄","HOUSE_NO":"３３號","E_COORD97":178254.5,"N_COORD97":2578483.6099999999,"ADDRESS":"隋唐街２９５巷４１弄３３號","OBJECTID":14900},"geometry":{"x":178254.50000000093,"y":2578483.6100000013}},{"attributes":{"ID":14901,"DIS_CODE":0,"TOWNNAME":"新營區","LI":"新南里","LIN":"24鄰","STREET":"隋唐街","SECT":" ","MAREA":" ","LANE":"２９５巷","ALLEY":"４１弄","HOUSE_NO":"２９號","E_COORD97":178247.29000000001,"N_COORD97":2578475.8900000001,"ADDRESS":"隋唐街２９５巷４１弄２９號","OBJECTID":14901},"geometry":{"x":178247.29000000097,"y":2578475.8900000025}},{"attributes":{"ID":14902,"DIS_CODE":0,"TOWNNAME":"新營區","LI":"新南里","LIN":"24鄰","STREET":"隋唐街","SECT":" ","MAREA":" ","LANE":"２９５巷","ALLEY":"１１弄","HOUSE_NO":"３８號","E_COORD97":178279.23999999999,"N_COORD97":2578521.1499999999,"ADDRESS":"隋唐街２９５巷１１弄３８號","OBJECTID":14902},"geometry":{"x":178279.24000000022,"y":2578521.1500000022}},{"attributes":{"ID":14903,"DIS_CODE":0,"TOWNNAME":"新營區","LI":"新南里","LIN":"24鄰","STREET":"隋唐街","SECT":" ","MAREA":" ","LANE":"２９５巷","ALLEY":"１１弄","HOUSE_NO":"３６號","E_COORD97":178248.63,"N_COORD97":2578536.7999999998,"ADDRESS":"隋唐街２９５巷１１弄３６號","OBJECTID":14903},"geometry":{"x":178248.63000000082,"y":2578536.7999999989}},{"attributes":{"ID":14904,"DIS_CODE":0,"TOWNNAME":"新營區","LI":"新南里","LIN":"24鄰","STREET":"隋唐街","SECT":" ","MAREA":" ","LANE":"２９５巷","ALLEY":"４１弄","HOUSE_NO":"５號","E_COORD97":178176.45000000001,"N_COORD97":2578480.6600000001,"ADDRESS":"隋唐街２９５巷４１弄５號","OBJECTID":14904},"geometry":{"x":178176.45000000205,"y":2578480.660000002}},{"attributes":{"ID":14905,"DIS_CODE":0,"TOWNNAME":"新營區","LI":"新南里","LIN":"24鄰","STREET":"隋唐街","SECT":" ","MAREA":" ","LANE":"２９５巷","ALLEY":"４１弄","HOUSE_NO":"３５號","E_COORD97":178258.60999999999,"N_COORD97":2578486.9100000001,"ADDRESS":"隋唐街２９５巷４１弄３５號","OBJECTID":14905},"geometry":{"x":178258.6100000022,"y":2578486.9100000001}},{"attributes":{"ID":14906,"DIS_CODE":0,"TOWNNAME":"安平區","LI":"建平里","LIN":"24鄰","STREET":"建平九街","SECT":" ","MAREA":" ","LANE":"６０巷","ALLEY":"３１弄","HOUSE_NO":"４５號","E_COORD97":165924.92999999999,"N_COORD97":2543635.8700000001,"ADDRESS":"建平九街６０巷３１弄４５號","OBJECTID":14906},"geometry":{"x":165924.93000000156,"y":2543635.870000001}},{"attributes":{"ID":14907,"DIS_CODE":0,"TOWNNAME":"安平區","LI":"建平里","LIN":"24鄰","STREET":"建平九街","SECT":" ","MAREA":" ","LANE":"６０巷","ALLEY":"３１弄","HOUSE_NO":"４９號","E_COORD97":165913.19,"N_COORD97":2543637.6800000002,"ADDRESS":"建平九街６０巷３１弄４９號","OBJECTID":14907},"geometry":{"x":165913.19000000041,"y":2543637.6800000016}},{"attributes":{"ID":14908,"DIS_CODE":0,"TOWNNAME":"南區","LI":"大恩里","LIN":"24鄰","STREET":"國民路","SECT":" ","MAREA":" ","LANE":"１６５巷","ALLEY":"５２弄","HOUSE_NO":"１０號","E_COORD97":169117.75,"N_COORD97":2540774.52,"ADDRESS":"國民路１６５巷５２弄１０號","OBJECTID":14908},"geometry":{"x":169117.75,"y":2540774.5199999996}},{"attributes":{"ID":14909,"DIS_CODE":0,"TOWNNAME":"南區","LI":"大恩里","LIN":"24鄰","STREET":"國民路","SECT":" ","MAREA":" ","LANE":"１６５巷","ALLEY":"５２弄","HOUSE_NO":"１１號","E_COORD97":169103.89999999999,"N_COORD97":2540758.7400000002,"ADDRESS":"國民路１６５巷５２弄１１號","OBJECTID":14909},"geometry":{"x":169103.90000000037,"y":2540758.7400000021}},{"attributes":{"ID":14910,"DIS_CODE":0,"TOWNNAME":"南區","LI":"大恩里","LIN":"24鄰","STREET":"國民路","SECT":" ","MAREA":" ","LANE":"１６５巷","ALLEY":"５２弄","HOUSE_NO":"１２號","E_COORD97":169113.57000000001,"N_COORD97":2540775.8100000001,"ADDRESS":"國民路１６５巷５２弄１２號","OBJECTID":14910},"geometry":{"x":169113.57000000123,"y":2540775.8100000024}},{"attributes":{"ID":14911,"DIS_CODE":0,"TOWNNAME":"麻豆區","LI":"油車里","LIN":"13鄰","STREET":" ","SECT":" ","MAREA":"油車","LANE":" ","ALLEY":" ","HOUSE_NO":"１００號之１","E_COORD97":172268.42000000001,"N_COORD97":2565740.3399999999,"ADDRESS":"油車１００號之１","OBJECTID":14911},"geometry":{"x":172268.41999999993,"y":2565740.339999998}},{"attributes":{"ID":14912,"DIS_CODE":0,"TOWNNAME":"南區","LI":"大恩里","LIN":"24鄰","STREET":"國民路","SECT":" ","MAREA":" ","LANE":"１６５巷","ALLEY":"５２弄","HOUSE_NO":"１３號","E_COORD97":169099.07000000001,"N_COORD97":2540760.1499999999,"ADDRESS":"國民路１６５巷５２弄１３號","OBJECTID":14912},"geometry":{"x":169099.0700000003,"y":2540760.1500000022}},{"attributes":{"ID":14913,"DIS_CODE":0,"TOWNNAME":"南區","LI":"大恩里","LIN":"24鄰","STREET":"國民路","SECT":" ","MAREA":" ","LANE":"１６５巷","ALLEY":"５２弄","HOUSE_NO":"１４號","E_COORD97":169108.73000000001,"N_COORD97":2540776.6699999999,"ADDRESS":"國民路１６５巷５２弄１４號","OBJECTID":14913},"geometry":{"x":169108.73000000045,"y":2540776.6700000018}},{"attributes":{"ID":14914,"DIS_CODE":0,"TOWNNAME":"麻豆區","LI":"南勢里","LIN":"13鄰","STREET":" ","SECT":" ","MAREA":"南勢","LANE":" ","ALLEY":" ","HOUSE_NO":"１７號之３","E_COORD97":174242.78,"N_COORD97":2565045.3500000001,"ADDRESS":"南勢１７號之３","OBJECTID":14914},"geometry":{"x":174242.78000000026,"y":2565045.3500000034}},{"attributes":{"ID":14915,"DIS_CODE":0,"TOWNNAME":"麻豆區","LI":"港尾里","LIN":"13鄰","STREET":" ","SECT":" ","MAREA":"客子寮","LANE":" ","ALLEY":" ","HOUSE_NO":"１３號","E_COORD97":169762.26999999999,"N_COORD97":2568288.1099999999,"ADDRESS":"客子寮１３號","OBJECTID":14915},"geometry":{"x":169762.27000000048,"y":2568288.1100000013}},{"attributes":{"ID":14916,"DIS_CODE":0,"TOWNNAME":"麻豆區","LI":"港尾里","LIN":"13鄰","STREET":" ","SECT":" ","MAREA":"客子寮","LANE":" ","ALLEY":" ","HOUSE_NO":"１５號","E_COORD97":169728.19,"N_COORD97":2568295.9199999999,"ADDRESS":"客子寮１５號","OBJECTID":14916},"geometry":{"x":169728.19000000134,"y":2568295.9199999999}},{"attributes":{"ID":14917,"DIS_CODE":0,"TOWNNAME":"麻豆區","LI":"港尾里","LIN":"13鄰","STREET":" ","SECT":" ","MAREA":"客子寮","LANE":" ","ALLEY":" ","HOUSE_NO":"１６號","E_COORD97":169707.07999999999,"N_COORD97":2568289.2000000002,"ADDRESS":"客子寮１６號","OBJECTID":14917},"geometry":{"x":169707.08000000101,"y":2568289.1999999993}},{"attributes":{"ID":14918,"DIS_CODE":0,"TOWNNAME":"麻豆區","LI":"港尾里","LIN":"13鄰","STREET":" ","SECT":" ","MAREA":"客子寮","LANE":" ","ALLEY":" ","HOUSE_NO":"１７號","E_COORD97":169797.78,"N_COORD97":2568341.9300000002,"ADDRESS":"客子寮１７號","OBJECTID":14918},"geometry":{"x":169797.78000000026,"y":2568341.9299999997}},{"attributes":{"ID":14919,"DIS_CODE":0,"TOWNNAME":"仁德區","LI":"中生里","LIN":"13鄰","STREET":" ","SECT":" ","MAREA":"中洲","LANE":" ","ALLEY":" ","HOUSE_NO":"２２６之１７號","E_COORD97":172949.59,"N_COORD97":2533967.54,"ADDRESS":"中洲２２６之１７號","OBJECTID":14919},"geometry":{"x":172949.59000000078,"y":2533967.540000001}},{"attributes":{"ID":14920,"DIS_CODE":0,"TOWNNAME":"新市區","LI":"潭頂里","LIN":"14鄰","STREET":" ","SECT":" ","MAREA":"潭頂","LANE":" ","ALLEY":" ","HOUSE_NO":"５３７之１０號","E_COORD97":180185.57999999999,"N_COORD97":2552863.5499999998,"ADDRESS":"潭頂５３７之１０號","OBJECTID":14920},"geometry":{"x":180185.58000000007,"y":2552863.5500000045}},{"attributes":{"ID":14921,"DIS_CODE":0,"TOWNNAME":"新市區","LI":"大營里","LIN":"14鄰","STREET":" ","SECT":" ","MAREA":"大營","LANE":" ","ALLEY":" ","HOUSE_NO":"２６５號","E_COORD97":179267.01000000001,"N_COORD97":2555570.9900000002,"ADDRESS":"大營２６５號","OBJECTID":14921},"geometry":{"x":179267.00999999978,"y":2555570.9900000002}},{"attributes":{"ID":14922,"DIS_CODE":0,"TOWNNAME":"南區","LI":"大恩里","LIN":"24鄰","STREET":"國民路","SECT":" ","MAREA":" ","LANE":"１６５巷","ALLEY":"５２弄","HOUSE_NO":"１５號","E_COORD97":169094.76999999999,"N_COORD97":2540761.54,"ADDRESS":"國民路１６５巷５２弄１５號","OBJECTID":14922},"geometry":{"x":169094.77000000048,"y":2540761.5400000028}},{"attributes":{"ID":14923,"DIS_CODE":0,"TOWNNAME":"南區","LI":"大恩里","LIN":"24鄰","STREET":"國民路","SECT":" ","MAREA":" ","LANE":"１６５巷","ALLEY":"５２弄","HOUSE_NO":"１６號","E_COORD97":169104.22,"N_COORD97":2540777.8500000001,"ADDRESS":"國民路１６５巷５２弄１６號","OBJECTID":14923},"geometry":{"x":169104.21999999974,"y":2540777.8500000015}},{"attributes":{"ID":14924,"DIS_CODE":0,"TOWNNAME":"南區","LI":"大恩里","LIN":"24鄰","STREET":"國民路","SECT":" ","MAREA":" ","LANE":"１６５巷","ALLEY":"５２弄","HOUSE_NO":"１７號","E_COORD97":169090.37,"N_COORD97":2540762.1800000002,"ADDRESS":"國民路１６５巷５２弄１７號","OBJECTID":14924},"geometry":{"x":169090.37000000011,"y":2540762.1800000016}},{"attributes":{"ID":14925,"DIS_CODE":0,"TOWNNAME":"南區","LI":"大恩里","LIN":"24鄰","STREET":"國民路","SECT":" ","MAREA":" ","LANE":"１６５巷","ALLEY":"５２弄","HOUSE_NO":"１８號","E_COORD97":169099.39000000001,"N_COORD97":2540779.2400000002,"ADDRESS":"國民路１６５巷５２弄１８號","OBJECTID":14925},"geometry":{"x":169099.3900000006,"y":2540779.2400000021}},{"attributes":{"ID":14926,"DIS_CODE":0,"TOWNNAME":"南區","LI":"大恩里","LIN":"24鄰","STREET":"國民路","SECT":" ","MAREA":" ","LANE":"１６５巷","ALLEY":"５２弄","HOUSE_NO":"１９號","E_COORD97":169086.29000000001,"N_COORD97":2540764.3300000001,"ADDRESS":"國民路１６５巷５２弄１９號","OBJECTID":14926},"geometry":{"x":169086.29000000097,"y":2540764.3300000019}},{"attributes":{"ID":14927,"DIS_CODE":0,"TOWNNAME":"南區","LI":"大恩里","LIN":"24鄰","STREET":"國民路","SECT":" ","MAREA":" ","LANE":"１６５巷","ALLEY":"５２弄","HOUSE_NO":"１號","E_COORD97":169125.89999999999,"N_COORD97":2540752.2200000002,"ADDRESS":"國民路１６５巷５２弄１號","OBJECTID":14927},"geometry":{"x":169125.90000000037,"y":2540752.2200000025}},{"attributes":{"ID":14928,"DIS_CODE":0,"TOWNNAME":"南區","LI":"大恩里","LIN":"24鄰","STREET":"國民路","SECT":" ","MAREA":" ","LANE":"１６５巷","ALLEY":"５２弄","HOUSE_NO":"２０號","E_COORD97":169095.20000000001,"N_COORD97":2540780.96,"ADDRESS":"國民路１６５巷５２弄２０號","OBJECTID":14928},"geometry":{"x":169095.20000000019,"y":2540780.9600000046}},{"attributes":{"ID":14929,"DIS_CODE":0,"TOWNNAME":"新市區","LI":"社內里","LIN":"14鄰","STREET":" ","SECT":" ","MAREA":"社內","LANE":" ","ALLEY":" ","HOUSE_NO":"１４９之５號","E_COORD97":176233.07999999999,"N_COORD97":2552997.0499999998,"ADDRESS":"社內１４９之５號","OBJECTID":14929},"geometry":{"x":176233.08000000101,"y":2552997.0500000026}},{"attributes":{"ID":14930,"DIS_CODE":0,"TOWNNAME":"南區","LI":"大恩里","LIN":"24鄰","STREET":"國民路","SECT":" ","MAREA":" ","LANE":"１６５巷","ALLEY":"５２弄","HOUSE_NO":"２１號","E_COORD97":169082,"N_COORD97":2540765.6200000001,"ADDRESS":"國民路１６５巷５２弄２１號","OBJECTID":14930},"geometry":{"x":169082.00000000093,"y":2540765.620000001}},{"attributes":{"ID":14931,"DIS_CODE":0,"TOWNNAME":"麻豆區","LI":"\u25A0江里","LIN":"13鄰","STREET":"建南街","SECT":" ","MAREA":" ","LANE":" ","ALLEY":" ","HOUSE_NO":"１５９號","E_COORD97":173462.48999999999,"N_COORD97":2564296.3700000001,"ADDRESS":"建南街１５９號","OBJECTID":14931},"geometry":{"x":173462.49000000115,"y":2564296.370000001}},{"attributes":{"ID":14932,"DIS_CODE":0,"TOWNNAME":"麻豆區","LI":"\u25A0江里","LIN":"13鄰","STREET":"建南街","SECT":" ","MAREA":" ","LANE":" ","ALLEY":" ","HOUSE_NO":"１６１號","E_COORD97":173465.89999999999,"N_COORD97":2564296.4300000002,"ADDRESS":"建南街１６１號","OBJECTID":14932},"geometry":{"x":173465.90000000037,"y":2564296.4300000016}},{"attributes":{"ID":14933,"DIS_CODE":0,"TOWNNAME":"麻豆區","LI":"\u25A0江里","LIN":"13鄰","STREET":"建南街","SECT":" ","MAREA":" ","LANE":" ","ALLEY":" ","HOUSE_NO":"１６３號","E_COORD97":173470.29000000001,"N_COORD97":2564295.98,"ADDRESS":"建南街１６３號","OBJECTID":14933},"geometry":{"x":173470.29000000097,"y":2564295.9800000042}},{"attributes":{"ID":14934,"DIS_CODE":0,"TOWNNAME":"新市區","LI":"社內里","LIN":"14鄰","STREET":" ","SECT":" ","MAREA":"社內","LANE":" ","ALLEY":" ","HOUSE_NO":"１４９之９號","E_COORD97":176229.48000000001,"N_COORD97":2553012.7999999998,"ADDRESS":"社內１４９之９號","OBJECTID":14934},"geometry":{"x":176229.48000000138,"y":2553012.8000000007}},{"attributes":{"ID":14935,"DIS_CODE":0,"TOWNNAME":"新市區","LI":"社內里","LIN":"14鄰","STREET":" ","SECT":" ","MAREA":"社內","LANE":" ","ALLEY":" ","HOUSE_NO":"１４９之１２號","E_COORD97":176243.82999999999,"N_COORD97":2553017.5499999998,"ADDRESS":"社內１４９之１２號","OBJECTID":14935},"geometry":{"x":176243.83000000007,"y":2553017.5500000026}},{"attributes":{"ID":14936,"DIS_CODE":0,"TOWNNAME":"佳里區","LI":"六安里","LIN":"14鄰","STREET":" ","SECT":" ","MAREA":"六安","LANE":" ","ALLEY":" ","HOUSE_NO":"１１４號","E_COORD97":166510.35000000001,"N_COORD97":2564274.8100000001,"ADDRESS":"六安１１４號","OBJECTID":14936},"geometry":{"x":166510.35000000149,"y":2564274.8100000024}},{"attributes":{"ID":14937,"DIS_CODE":0,"TOWNNAME":"仁德區","LI":"一甲里","LIN":"13鄰","STREET":"忠義路","SECT":" ","MAREA":" ","LANE":" ","ALLEY":" ","HOUSE_NO":"２８９號","E_COORD97":173718.67000000001,"N_COORD97":2541853.27,"ADDRESS":"忠義路２８９號","OBJECTID":14937},"geometry":{"x":173718.67000000086,"y":2541853.2700000014}},{"attributes":{"ID":14938,"DIS_CODE":0,"TOWNNAME":"仁德區","LI":"大甲里","LIN":"13鄰","STREET":"行大街","SECT":" ","MAREA":" ","LANE":" ","ALLEY":" ","HOUSE_NO":"３５９號","E_COORD97":169577.64000000001,"N_COORD97":2535201.2400000002,"ADDRESS":"行大街３５９號","OBJECTID":14938},"geometry":{"x":169577.63999999966,"y":2535201.2400000039}},{"attributes":{"ID":14939,"DIS_CODE":0,"TOWNNAME":"仁德區","LI":"大甲里","LIN":"13鄰","STREET":"行大一街","SECT":" ","MAREA":" ","LANE":" ","ALLEY":" ","HOUSE_NO":"３３０號","E_COORD97":169553.28,"N_COORD97":2535160,"ADDRESS":"行大一街３３０號","OBJECTID":14939},"geometry":{"x":169553.28000000119,"y":2535160.0000000019}},{"attributes":{"ID":14940,"DIS_CODE":0,"TOWNNAME":"仁德區","LI":"仁義里","LIN":"13鄰","STREET":"中山路","SECT":" ","MAREA":" ","LANE":" ","ALLEY":" ","HOUSE_NO":"６６號","E_COORD97":174816.17999999999,"N_COORD97":2541166.5,"ADDRESS":"中山路６６號","OBJECTID":14940},"geometry":{"x":174816.18000000156,"y":2541166.5000000019}},{"attributes":{"ID":14941,"DIS_CODE":0,"TOWNNAME":"東區","LI":"中西里","LIN":"13鄰","STREET":"東寧路","SECT":" ","MAREA":" ","LANE":" ","ALLEY":" ","HOUSE_NO":"４２號","E_COORD97":170072.76000000001,"N_COORD97":2543612.3900000001,"ADDRESS":"東寧路４２號","OBJECTID":14941},"geometry":{"x":170072.76000000071,"y":2543612.3900000025}},{"attributes":{"ID":14942,"DIS_CODE":0,"TOWNNAME":"安南區","LI":"安慶里","LIN":"13鄰","STREET":"培安路","SECT":" ","MAREA":" ","LANE":" ","ALLEY":" ","HOUSE_NO":"４９２號","E_COORD97":169365.06,"N_COORD97":2548576.8300000001,"ADDRESS":"培安路４９２號","OBJECTID":14942},"geometry":{"x":169365.05999999866,"y":2548576.8300000019}},{"attributes":{"ID":14943,"DIS_CODE":0,"TOWNNAME":"安南區","LI":"安慶里","LIN":"13鄰","STREET":"安和路","SECT":"二段","MAREA":" ","LANE":" ","ALLEY":" ","HOUSE_NO":"１７３號","E_COORD97":169535.76000000001,"N_COORD97":2548901.1800000002,"ADDRESS":"安和路二段１７３號","OBJECTID":14943},"geometry":{"x":169535.76000000071,"y":2548901.1799999997}},{"attributes":{"ID":14944,"DIS_CODE":0,"TOWNNAME":"仁德區","LI":"仁愛里","LIN":"13鄰","STREET":" ","SECT":" ","MAREA":"仁愛","LANE":" ","ALLEY":" ","HOUSE_NO":"２８２號","E_COORD97":170273.257583,"N_COORD97":2539936.4309999999,"ADDRESS":"仁愛２８２號","OBJECTID":14944},"geometry":{"x":170273.25758300163,"y":2539936.4310000017}},{"attributes":{"ID":14945,"DIS_CODE":0,"TOWNNAME":"仁德區","LI":"仁愛里","LIN":"13鄰","STREET":" ","SECT":" ","MAREA":"仁愛","LANE":" ","ALLEY":" ","HOUSE_NO":"２７２號","E_COORD97":170248.04686,"N_COORD97":2539959.7200000002,"ADDRESS":"仁愛２７２號","OBJECTID":14945},"geometry":{"x":170248.04686000198,"y":2539959.7200000025}},{"attributes":{"ID":14946,"DIS_CODE":0,"TOWNNAME":"佳里區","LI":"六安里","LIN":"14鄰","STREET":" ","SECT":" ","MAREA":"六安","LANE":" ","ALLEY":" ","HOUSE_NO":"１０５號","E_COORD97":166519.35000000001,"N_COORD97":2564177.77,"ADDRESS":"六安１０５號","OBJECTID":14946},"geometry":{"x":166519.35000000056,"y":2564177.7700000033}},{"attributes":{"ID":14947,"DIS_CODE":0,"TOWNNAME":"佳里區","LI":"六安里","LIN":"14鄰","STREET":" ","SECT":" ","MAREA":"六安","LANE":" ","ALLEY":" ","HOUSE_NO":"１０６號之１","E_COORD97":166557.82000000001,"N_COORD97":2564180.0600000001,"ADDRESS":"六安１０６號之１","OBJECTID":14947},"geometry":{"x":166557.8200000003,"y":2564180.0600000042}},{"attributes":{"ID":14948,"DIS_CODE":0,"TOWNNAME":"佳里區","LI":"六安里","LIN":"14鄰","STREET":" ","SECT":" ","MAREA":"六安","LANE":" ","ALLEY":" ","HOUSE_NO":"１０６號之２","E_COORD97":166550.38,"N_COORD97":2564186.8700000001,"ADDRESS":"六安１０６號之２","OBJECTID":14948},"geometry":{"x":166550.37999999989,"y":2564186.8700000029}},{"attributes":{"ID":14949,"DIS_CODE":0,"TOWNNAME":"佳里區","LI":"六安里","LIN":"14鄰","STREET":" ","SECT":" ","MAREA":"六安","LANE":" ","ALLEY":" ","HOUSE_NO":"１０６號","E_COORD97":166543.64000000001,"N_COORD97":2564156.6600000001,"ADDRESS":"六安１０６號","OBJECTID":14949},"geometry":{"x":166543.63999999966,"y":2564156.660000002}},{"attributes":{"ID":14950,"DIS_CODE":0,"TOWNNAME":"佳里區","LI":"六安里","LIN":"14鄰","STREET":" ","SECT":" ","MAREA":"六安","LANE":" ","ALLEY":" ","HOUSE_NO":"１０７號","E_COORD97":166539.63,"N_COORD97":2564218.3599999999,"ADDRESS":"六安１０７號","OBJECTID":14950},"geometry":{"x":166539.63000000082,"y":2564218.3600000013}},{"attributes":{"ID":14951,"DIS_CODE":0,"TOWNNAME":"佳里區","LI":"六安里","LIN":"14鄰","STREET":" ","SECT":" ","MAREA":"六安","LANE":" ","ALLEY":" ","HOUSE_NO":"１０８號","E_COORD97":166565.26000000001,"N_COORD97":2564220.79,"ADDRESS":"六安１０８號","OBJECTID":14951},"geometry":{"x":166565.26000000164,"y":2564220.7899999991}},{"attributes":{"ID":14952,"DIS_CODE":0,"TOWNNAME":"南區","LI":"大恩里","LIN":"24鄰","STREET":"國民路","SECT":" ","MAREA":" ","LANE":"１６５巷","ALLEY":"５２弄","HOUSE_NO":"２２號","E_COORD97":169091.12,"N_COORD97":2540782.0299999998,"ADDRESS":"國民路１６５巷５２弄２２號","OBJECTID":14952},"geometry":{"x":169091.12000000104,"y":2540782.0300000031}},{"attributes":{"ID":14953,"DIS_CODE":0,"TOWNNAME":"南區","LI":"大恩里","LIN":"24鄰","STREET":"國民路","SECT":" ","MAREA":" ","LANE":"１６５巷","ALLEY":"５２弄","HOUSE_NO":"２３號","E_COORD97":169076.95000000001,"N_COORD97":2540766.7999999998,"ADDRESS":"國民路１６５巷５２弄２３號","OBJECTID":14953},"geometry":{"x":169076.95000000112,"y":2540766.8000000007}},{"attributes":{"ID":14954,"DIS_CODE":0,"TOWNNAME":"南區","LI":"大恩里","LIN":"24鄰","STREET":"國民路","SECT":" ","MAREA":" ","LANE":"１６５巷","ALLEY":"５２弄","HOUSE_NO":"２４號","E_COORD97":169085.85999999999,"N_COORD97":2540783.4300000002,"ADDRESS":"國民路１６５巷５２弄２４號","OBJECTID":14954},"geometry":{"x":169085.8599999994,"y":2540783.4300000034}},{"attributes":{"ID":14955,"DIS_CODE":0,"TOWNNAME":"南區","LI":"大恩里","LIN":"24鄰","STREET":"國民路","SECT":" ","MAREA":" ","LANE":"１６５巷","ALLEY":"５２弄","HOUSE_NO":"２５號","E_COORD97":169072.22,"N_COORD97":2540767.8700000001,"ADDRESS":"國民路１６５巷５２弄２５號","OBJECTID":14955},"geometry":{"x":169072.21999999974,"y":2540767.8699999992}},{"attributes":{"ID":14956,"DIS_CODE":0,"TOWNNAME":"南區","LI":"大恩里","LIN":"24鄰","STREET":"國民路","SECT":" ","MAREA":" ","LANE":"１６５巷","ALLEY":"５２弄","HOUSE_NO":"２６號","E_COORD97":169081.67000000001,"N_COORD97":2540784.8199999998,"ADDRESS":"國民路１６５巷５２弄２６號","OBJECTID":14956},"geometry":{"x":169081.67000000179,"y":2540784.820000004}},{"attributes":{"ID":14957,"DIS_CODE":0,"TOWNNAME":"南區","LI":"大恩里","LIN":"24鄰","STREET":"國民路","SECT":" ","MAREA":" ","LANE":"１６５巷","ALLEY":"５２弄","HOUSE_NO":"２７號","E_COORD97":169068.04000000001,"N_COORD97":2540770.02,"ADDRESS":"國民路１６５巷５２弄２７號","OBJECTID":14957},"geometry":{"x":169068.04000000097,"y":2540770.0200000014}},{"attributes":{"ID":14958,"DIS_CODE":0,"TOWNNAME":"南區","LI":"大恩里","LIN":"24鄰","STREET":"國民路","SECT":" ","MAREA":" ","LANE":"１６５巷","ALLEY":"５２弄","HOUSE_NO":"２８號","E_COORD97":169077.59,"N_COORD97":2540786.1099999999,"ADDRESS":"國民路１６５巷５２弄２８號","OBJECTID":14958},"geometry":{"x":169077.59000000078,"y":2540786.1100000013}},{"attributes":{"ID":14959,"DIS_CODE":0,"TOWNNAME":"南區","LI":"大恩里","LIN":"24鄰","STREET":"國民路","SECT":" ","MAREA":" ","LANE":"１６５巷","ALLEY":"５２弄","HOUSE_NO":"２９號","E_COORD97":169062.78,"N_COORD97":2540771.0899999999,"ADDRESS":"國民路１６５巷５２弄２９號","OBJECTID":14959},"geometry":{"x":169062.78000000212,"y":2540771.0899999999}},{"attributes":{"ID":14960,"DIS_CODE":0,"TOWNNAME":"南區","LI":"大恩里","LIN":"24鄰","STREET":"國民路","SECT":" ","MAREA":" ","LANE":"１６５巷","ALLEY":"５２弄","HOUSE_NO":"２號","E_COORD97":169131.03,"N_COORD97":2540769.7999999998,"ADDRESS":"國民路１６５巷５２弄２號","OBJECTID":14960},"geometry":{"x":169131.03000000119,"y":2540769.8000000026}},{"attributes":{"ID":14961,"DIS_CODE":0,"TOWNNAME":"南區","LI":"大恩里","LIN":"24鄰","STREET":"國民路","SECT":" ","MAREA":" ","LANE":"１６５巷","ALLEY":"５２弄","HOUSE_NO":"３０號","E_COORD97":169072.32999999999,"N_COORD97":2540787.5,"ADDRESS":"國民路１６５巷５２弄３０號","OBJECTID":14961},"geometry":{"x":169072.33000000194,"y":2540787.5000000019}},{"attributes":{"ID":14962,"DIS_CODE":0,"TOWNNAME":"南區","LI":"大恩里","LIN":"24鄰","STREET":"國民路","SECT":" ","MAREA":" ","LANE":"１６５巷","ALLEY":"５２弄","HOUSE_NO":"３１號","E_COORD97":169058.16,"N_COORD97":2540771.2999999998,"ADDRESS":"國民路１６５巷５２弄３１號","OBJECTID":14962},"geometry":{"x":169058.15999999922,"y":2540771.3000000007}},{"attributes":{"ID":14963,"DIS_CODE":0,"TOWNNAME":"南區","LI":"大恩里","LIN":"24鄰","STREET":"國民路","SECT":" ","MAREA":" ","LANE":"１６５巷","ALLEY":"５２弄","HOUSE_NO":"３２號","E_COORD97":169068.04000000001,"N_COORD97":2540788.79,"ADDRESS":"國民路１６５巷５２弄３２號","OBJECTID":14963},"geometry":{"x":169068.04000000097,"y":2540788.7899999991}},{"attributes":{"ID":14964,"DIS_CODE":0,"TOWNNAME":"南區","LI":"大恩里","LIN":"24鄰","STREET":"國民路","SECT":" ","MAREA":" ","LANE":"１６５巷","ALLEY":"５２弄","HOUSE_NO":"３３號","E_COORD97":169053.22,"N_COORD97":2540773.3399999999,"ADDRESS":"國民路１６５巷５２弄３３號","OBJECTID":14964},"geometry":{"x":169053.21999999974,"y":2540773.3399999999}},{"attributes":{"ID":14965,"DIS_CODE":0,"TOWNNAME":"南區","LI":"大恩里","LIN":"24鄰","STREET":"國民路","SECT":" ","MAREA":" ","LANE":"１６５巷","ALLEY":"５２弄","HOUSE_NO":"３４號","E_COORD97":169063.31,"N_COORD97":2540790.3999999999,"ADDRESS":"國民路１６５巷５２弄３４號","OBJECTID":14965},"geometry":{"x":169063.30999999959,"y":2540790.4000000004}},{"attributes":{"ID":14966,"DIS_CODE":0,"TOWNNAME":"南區","LI":"大恩里","LIN":"24鄰","STREET":"國民路","SECT":" ","MAREA":" ","LANE":"１６５巷","ALLEY":"５２弄","HOUSE_NO":"３５號","E_COORD97":169048.70999999999,"N_COORD97":2540774.8399999999,"ADDRESS":"國民路１６５巷５２弄３５號","OBJECTID":14966},"geometry":{"x":169048.70999999996,"y":2540774.8400000017}},{"attributes":{"ID":14967,"DIS_CODE":0,"TOWNNAME":"南區","LI":"大恩里","LIN":"24鄰","STREET":"國民路","SECT":" ","MAREA":" ","LANE":"１６５巷","ALLEY":"５２弄","HOUSE_NO":"３６號","E_COORD97":169059.01999999999,"N_COORD97":2540791.7999999998,"ADDRESS":"國民路１６５巷５２弄３６號","OBJECTID":14967},"geometry":{"x":169059.02000000048,"y":2540791.7999999989}},{"attributes":{"ID":14968,"DIS_CODE":0,"TOWNNAME":"南區","LI":"大恩里","LIN":"24鄰","STREET":"國民路","SECT":" ","MAREA":" ","LANE":"１６５巷","ALLEY":"５２弄","HOUSE_NO":"３８號","E_COORD97":169054.29000000001,"N_COORD97":2540792.8700000001,"ADDRESS":"國民路１６５巷５２弄３８號","OBJECTID":14968},"geometry":{"x":169054.29000000097,"y":2540792.8700000029}},{"attributes":{"ID":14969,"DIS_CODE":0,"TOWNNAME":"南區","LI":"大恩里","LIN":"24鄰","STREET":"國民路","SECT":" ","MAREA":" ","LANE":"１６５巷","ALLEY":"５２弄","HOUSE_NO":"３號","E_COORD97":169121.60999999999,"N_COORD97":2540753.1899999999,"ADDRESS":"國民路１６５巷５２弄３號","OBJECTID":14969},"geometry":{"x":169121.6100000022,"y":2540753.1899999995}},{"attributes":{"ID":14970,"DIS_CODE":0,"TOWNNAME":"佳里區","LI":"六安里","LIN":"14鄰","STREET":" ","SECT":" ","MAREA":"六安","LANE":" ","ALLEY":" ","HOUSE_NO":"１０９號","E_COORD97":166561.10999999999,"N_COORD97":2564204.9700000002,"ADDRESS":"六安１０９號","OBJECTID":14970},"geometry":{"x":166561.11000000034,"y":2564204.9700000025}},{"attributes":{"ID":14971,"DIS_CODE":0,"TOWNNAME":"佳里區","LI":"六安里","LIN":"14鄰","STREET":" ","SECT":" ","MAREA":"六安","LANE":" ","ALLEY":" ","HOUSE_NO":"１１０號","E_COORD97":166576.14999999999,"N_COORD97":2564254.0899999999,"ADDRESS":"六安１１０號","OBJECTID":14971},"geometry":{"x":166576.15000000037,"y":2564254.0900000036}},{"attributes":{"ID":14972,"DIS_CODE":0,"TOWNNAME":"佳里區","LI":"六安里","LIN":"14鄰","STREET":" ","SECT":" ","MAREA":"六安","LANE":" ","ALLEY":" ","HOUSE_NO":"１１１號","E_COORD97":166557.35000000001,"N_COORD97":2564233.3599999999,"ADDRESS":"六安１１１號","OBJECTID":14972},"geometry":{"x":166557.34999999963,"y":2564233.3599999994}},{"attributes":{"ID":14973,"DIS_CODE":0,"TOWNNAME":"佳里區","LI":"六安里","LIN":"14鄰","STREET":" ","SECT":" ","MAREA":"六安","LANE":" ","ALLEY":" ","HOUSE_NO":"１１２號","E_COORD97":166549.34,"N_COORD97":2564258.6800000002,"ADDRESS":"六安１１２號","OBJECTID":14973},"geometry":{"x":166549.33999999985,"y":2564258.6799999997}},{"attributes":{"ID":14974,"DIS_CODE":0,"TOWNNAME":"佳里區","LI":"六安里","LIN":"14鄰","STREET":" ","SECT":" ","MAREA":"六安","LANE":" ","ALLEY":" ","HOUSE_NO":"１１３號","E_COORD97":166550.98999999999,"N_COORD97":2564287.8999999999,"ADDRESS":"六安１１３號","OBJECTID":14974},"geometry":{"x":166550.99000000115,"y":2564287.9000000022}},{"attributes":{"ID":14975,"DIS_CODE":0,"TOWNNAME":"佳里區","LI":"六安里","LIN":"14鄰","STREET":" ","SECT":" ","MAREA":"六安","LANE":" ","ALLEY":" ","HOUSE_NO":"１１５號之１","E_COORD97":166526.47,"N_COORD97":2564265.8799999999,"ADDRESS":"六安１１５號之１","OBJECTID":14975},"geometry":{"x":166526.4700000016,"y":2564265.8800000008}},{"attributes":{"ID":14976,"DIS_CODE":0,"TOWNNAME":"佳里區","LI":"六安里","LIN":"14鄰","STREET":" ","SECT":" ","MAREA":"六安","LANE":" ","ALLEY":" ","HOUSE_NO":"１１５號","E_COORD97":166516.07999999999,"N_COORD97":2564260.21,"ADDRESS":"六安１１５號","OBJECTID":14976},"geometry":{"x":166516.08000000194,"y":2564260.2100000009}},{"attributes":{"ID":14977,"DIS_CODE":0,"TOWNNAME":"佳里區","LI":"六安里","LIN":"14鄰","STREET":" ","SECT":" ","MAREA":"六安","LANE":" ","ALLEY":" ","HOUSE_NO":"１１６號之１０","E_COORD97":166518.12,"N_COORD97":2564448.2799999998,"ADDRESS":"六安１１６號之１０","OBJECTID":14977},"geometry":{"x":166518.12000000104,"y":2564448.2799999993}},{"attributes":{"ID":14978,"DIS_CODE":0,"TOWNNAME":"佳里區","LI":"六安里","LIN":"14鄰","STREET":" ","SECT":" ","MAREA":"六安","LANE":" ","ALLEY":" ","HOUSE_NO":"１１６號之１１","E_COORD97":166489.64999999999,"N_COORD97":2564204.3100000001,"ADDRESS":"六安１１６號之１１","OBJECTID":14978},"geometry":{"x":166489.65000000037,"y":2564204.3100000005}},{"attributes":{"ID":14979,"DIS_CODE":0,"TOWNNAME":"佳里區","LI":"六安里","LIN":"14鄰","STREET":" ","SECT":" ","MAREA":"六安","LANE":" ","ALLEY":" ","HOUSE_NO":"１１６號之１２","E_COORD97":166218.37,"N_COORD97":2564078.7599999998,"ADDRESS":"六安１１６號之１２","OBJECTID":14979},"geometry":{"x":166218.37000000011,"y":2564078.7599999998}},{"attributes":{"ID":14980,"DIS_CODE":0,"TOWNNAME":"佳里區","LI":"六安里","LIN":"14鄰","STREET":" ","SECT":" ","MAREA":"六安","LANE":" ","ALLEY":" ","HOUSE_NO":"１１６號之１３","E_COORD97":166219.98999999999,"N_COORD97":2564082.04,"ADDRESS":"六安１１６號之１３","OBJECTID":14980},"geometry":{"x":166219.98999999929,"y":2564082.040000001}},{"attributes":{"ID":14981,"DIS_CODE":0,"TOWNNAME":"南區","LI":"大恩里","LIN":"24鄰","STREET":"國民路","SECT":" ","MAREA":" ","LANE":"１６５巷","ALLEY":"５２弄","HOUSE_NO":"５號","E_COORD97":169117.53,"N_COORD97":2540754.5800000001,"ADDRESS":"國民路１６５巷５２弄５號","OBJECTID":14981},"geometry":{"x":169117.53000000119,"y":2540754.5800000001}},{"attributes":{"ID":14982,"DIS_CODE":0,"TOWNNAME":"南區","LI":"大恩里","LIN":"24鄰","STREET":"國民路","SECT":" ","MAREA":" ","LANE":"１６５巷","ALLEY":"５２弄","HOUSE_NO":"６號","E_COORD97":169127.04999999999,"N_COORD97":2540771.52,"ADDRESS":"國民路１６５巷５２弄６號","OBJECTID":14982},"geometry":{"x":169127.05000000075,"y":2540771.5199999996}},{"attributes":{"ID":14983,"DIS_CODE":0,"TOWNNAME":"南區","LI":"大恩里","LIN":"24鄰","STREET":"國民路","SECT":" ","MAREA":" ","LANE":"１６５巷","ALLEY":"５２弄","HOUSE_NO":"７號","E_COORD97":169112.26999999999,"N_COORD97":2540755.7599999998,"ADDRESS":"國民路１６５巷５２弄７號","OBJECTID":14983},"geometry":{"x":169112.26999999955,"y":2540755.7599999998}},{"attributes":{"ID":14984,"DIS_CODE":0,"TOWNNAME":"南區","LI":"大恩里","LIN":"24鄰","STREET":"國民路","SECT":" ","MAREA":" ","LANE":"１６５巷","ALLEY":"５２弄","HOUSE_NO":"８號","E_COORD97":169122.44,"N_COORD97":2540772.48,"ADDRESS":"國民路１６５巷５２弄８號","OBJECTID":14984},"geometry":{"x":169122.44000000041,"y":2540772.4800000004}},{"attributes":{"ID":14985,"DIS_CODE":0,"TOWNNAME":"南區","LI":"大恩里","LIN":"24鄰","STREET":"國民路","SECT":" ","MAREA":" ","LANE":"１６５巷","ALLEY":"５２弄","HOUSE_NO":"９號","E_COORD97":169108.41,"N_COORD97":2540757.46,"ADDRESS":"國民路１６５巷５２弄９號","OBJECTID":14985},"geometry":{"x":169108.41000000015,"y":2540757.4600000028}},{"attributes":{"ID":14986,"DIS_CODE":0,"TOWNNAME":"安平區","LI":"華平里","LIN":"24鄰","STREET":"建平八街","SECT":" ","MAREA":" ","LANE":"４３４巷","ALLEY":"６弄","HOUSE_NO":"１２號","E_COORD97":165171.51000000001,"N_COORD97":2543638.4300000002,"ADDRESS":"建平八街４３４巷６弄１２號","OBJECTID":14986},"geometry":{"x":165171.50999999978,"y":2543638.4300000016}},{"attributes":{"ID":14987,"DIS_CODE":0,"TOWNNAME":"安平區","LI":"華平里","LIN":"24鄰","STREET":"建平八街","SECT":" ","MAREA":" ","LANE":"４３４巷","ALLEY":"６弄","HOUSE_NO":"１１號","E_COORD97":165170.47,"N_COORD97":2543633.9399999999,"ADDRESS":"建平八街４３４巷６弄１１號","OBJECTID":14987},"geometry":{"x":165170.4700000016,"y":2543633.9399999976}},{"attributes":{"ID":14988,"DIS_CODE":0,"TOWNNAME":"歸仁區","LI":"南保里","LIN":"24鄰","STREET":"文化街","SECT":"三段","MAREA":" ","LANE":"１０５巷","ALLEY":"１９弄","HOUSE_NO":"７號","E_COORD97":176792.47,"N_COORD97":2541143.2599999998,"ADDRESS":"文化街三段１０５巷１９弄７號","OBJECTID":14988},"geometry":{"x":176792.46999999881,"y":2541143.2599999998}},{"attributes":{"ID":14989,"DIS_CODE":0,"TOWNNAME":"歸仁區","LI":"南保里","LIN":"24鄰","STREET":"文化街","SECT":"三段","MAREA":" ","LANE":"１０５巷","ALLEY":"１９弄","HOUSE_NO":"５號","E_COORD97":176789.37,"N_COORD97":2541144.2599999998,"ADDRESS":"文化街三段１０５巷１９弄５號","OBJECTID":14989},"geometry":{"x":176789.37000000104,"y":2541144.2600000016}},{"attributes":{"ID":14990,"DIS_CODE":0,"TOWNNAME":"佳里區","LI":"六安里","LIN":"14鄰","STREET":" ","SECT":" ","MAREA":"六安","LANE":" ","ALLEY":" ","HOUSE_NO":"１１６號之１４","E_COORD97":166222.35000000001,"N_COORD97":2564085.6899999999,"ADDRESS":"六安１１６號之１４","OBJECTID":14990},"geometry":{"x":166222.35000000056,"y":2564085.6899999995}},{"attributes":{"ID":14991,"DIS_CODE":0,"TOWNNAME":"佳里區","LI":"六安里","LIN":"14鄰","STREET":" ","SECT":" ","MAREA":"六安","LANE":" ","ALLEY":" ","HOUSE_NO":"１１６號之１６","E_COORD97":166226.67000000001,"N_COORD97":2564092.8700000001,"ADDRESS":"六安１１６號之１６","OBJECTID":14991},"geometry":{"x":166226.66999999993,"y":2564092.870000001}},{"attributes":{"ID":14992,"DIS_CODE":0,"TOWNNAME":"佳里區","LI":"六安里","LIN":"14鄰","STREET":" ","SECT":" ","MAREA":"六安","LANE":" ","ALLEY":" ","HOUSE_NO":"１１６號之１７","E_COORD97":166229.25,"N_COORD97":2564096.1699999999,"ADDRESS":"六安１１６號之１７","OBJECTID":14992},"geometry":{"x":166229.25,"y":2564096.1699999999}},{"attributes":{"ID":14993,"DIS_CODE":0,"TOWNNAME":"佳里區","LI":"六安里","LIN":"14鄰","STREET":" ","SECT":" ","MAREA":"六安","LANE":" ","ALLEY":" ","HOUSE_NO":"１１６號之１８","E_COORD97":166231.34,"N_COORD97":2564099.9399999999,"ADDRESS":"六安１１６號之１８","OBJECTID":14993},"geometry":{"x":166231.34000000078,"y":2564099.9400000013}},{"attributes":{"ID":14994,"DIS_CODE":0,"TOWNNAME":"佳里區","LI":"六安里","LIN":"14鄰","STREET":" ","SECT":" ","MAREA":"六安","LANE":" ","ALLEY":" ","HOUSE_NO":"１１６號之１９","E_COORD97":166232.88,"N_COORD97":2564103.8999999999,"ADDRESS":"六安１１６號之１９","OBJECTID":14994},"geometry":{"x":166232.88000000082,"y":2564103.9000000022}},{"attributes":{"ID":14995,"DIS_CODE":0,"TOWNNAME":"歸仁區","LI":"南保里","LIN":"24鄰","STREET":"文化街","SECT":"三段","MAREA":" ","LANE":"１０５巷","ALLEY":"１９弄","HOUSE_NO":"１７號","E_COORD97":176812.22,"N_COORD97":2541140.2599999998,"ADDRESS":"文化街三段１０５巷１９弄１７號","OBJECTID":14995},"geometry":{"x":176812.21999999974,"y":2541140.2599999979}},{"attributes":{"ID":14996,"DIS_CODE":0,"TOWNNAME":"歸仁區","LI":"南保里","LIN":"24鄰","STREET":"文化街","SECT":"三段","MAREA":" ","LANE":"１０５巷","ALLEY":"１９弄","HOUSE_NO":"１３號","E_COORD97":176804.01999999999,"N_COORD97":2541140.2599999998,"ADDRESS":"文化街三段１０５巷１９弄１３號","OBJECTID":14996},"geometry":{"x":176804.02000000142,"y":2541140.2599999979}},{"attributes":{"ID":14997,"DIS_CODE":0,"TOWNNAME":"歸仁區","LI":"南保里","LIN":"24鄰","STREET":"文化街","SECT":"三段","MAREA":" ","LANE":"１０５巷","ALLEY":"１９弄","HOUSE_NO":"１５號","E_COORD97":176808.12,"N_COORD97":2541140.2599999998,"ADDRESS":"文化街三段１０５巷１９弄１５號","OBJECTID":14997},"geometry":{"x":176808.12000000011,"y":2541140.2599999979}},{"attributes":{"ID":14998,"DIS_CODE":0,"TOWNNAME":"歸仁區","LI":"南保里","LIN":"24鄰","STREET":"文化街","SECT":"三段","MAREA":" ","LANE":"１０５巷","ALLEY":"１９弄","HOUSE_NO":"１號","E_COORD97":176781.17000000001,"N_COORD97":2541144.2599999998,"ADDRESS":"文化街三段１０５巷１９弄１號","OBJECTID":14998},"geometry":{"x":176781.16999999899,"y":2541144.2600000016}},{"attributes":{"ID":14999,"DIS_CODE":0,"TOWNNAME":"東區","LI":"崇明里","LIN":"13鄰","STREET":"大同路","SECT":"二段","MAREA":" ","LANE":" ","ALLEY":" ","HOUSE_NO":"７２１號","E_COORD97":169652.73000000001,"N_COORD97":2540783.3399999999,"ADDRESS":"大同路二段７２１號","OBJECTID":14999},"geometry":{"x":169652.73000000045,"y":2540783.3399999999}},{"attributes":{"ID":15000,"DIS_CODE":0,"TOWNNAME":"佳里區","LI":"六安里","LIN":"14鄰","STREET":" ","SECT":" ","MAREA":"六安","LANE":" ","ALLEY":" ","HOUSE_NO":"１１６號之１","E_COORD97":166374.04000000001,"N_COORD97":2564190.1800000002,"ADDRESS":"六安１１６號之１","OBJECTID":15000},"geometry":{"x":166374.04000000097,"y":2564190.1800000016}}]}