{"displayFieldName":"TOWNNAME","fieldAliases":{"ID":"ID","DIS_CODE":"DIS_CODE","TOWNNAME":"TOWNNAME","LI":"LI","LIN":"LIN","STREET":"STREET","SECT":"SECT","MAREA":"MAREA","LANE":"LANE","ALLEY":"ALLEY","HOUSE_NO":"HOUSE_NO","E_COORD97":"E_COORD97","N_COORD97":"N_COORD97","ADDRESS":"ADDRESS","OBJECTID":"OBJECTID"},"geometryType":"esriGeometryPoint","spatialReference":{"wkid":102443,"latestWkid":3826},"fields":[{"name":"ID","type":"esriFieldTypeDouble","alias":"ID"},{"name":"DIS_CODE","type":"esriFieldTypeInteger","alias":"DIS_CODE"},{"name":"TOWNNAME","type":"esriFieldTypeString","alias":"TOWNNAME","length":8},{"name":"LI","type":"esriFieldTypeString","alias":"LI","length":8},{"name":"LIN","type":"esriFieldTypeString","alias":"LIN","length":12},{"name":"STREET","type":"esriFieldTypeString","alias":"STREET","length":20},{"name":"SECT","type":"esriFieldTypeString","alias":"SECT","length":8},{"name":"MAREA","type":"esriFieldTypeString","alias":"MAREA","length":12},{"name":"LANE","type":"esriFieldTypeString","alias":"LANE","length":10},{"name":"ALLEY","type":"esriFieldTypeString","alias":"ALLEY","length":10},{"name":"HOUSE_NO","type":"esriFieldTypeString","alias":"HOUSE_NO","length":20},{"name":"E_COORD97","type":"esriFieldTypeDouble","alias":"E_COORD97"},{"name":"N_COORD97","type":"esriFieldTypeDouble","alias":"N_COORD97"},{"name":"ADDRESS","type":"esriFieldTypeString","alias":"ADDRESS","length":50},{"name":"OBJECTID","type":"esriFieldTypeOID","alias":"OBJECTID"}],"features":[{"attributes":{"ID":505828,"DIS_CODE":0,"TOWNNAME":"東區","LI":"崇德里","LIN":"15鄰","STREET":"崇明十三街","SECT":" ","MAREA":" ","LANE":" ","ALLEY":" ","HOUSE_NO":"１號六樓之１","E_COORD97":170450.95000000001,"N_COORD97":2541570.7000000002,"ADDRESS":"崇明十三街１號六樓之１","OBJECTID":505801},"geometry":{"x":170450.95000000019,"y":2541570.6999999974}},{"attributes":{"ID":505829,"DIS_CODE":0,"TOWNNAME":"安平區","LI":"怡平里","LIN":"15鄰","STREET":"文平路","SECT":" ","MAREA":" ","LANE":" ","ALLEY":" ","HOUSE_NO":"５０５號","E_COORD97":165816.14999999999,"N_COORD97":2543996.3799999999,"ADDRESS":"文平路５０５號","OBJECTID":505802},"geometry":{"x":165816.1500000013,"y":2543996.379999999}},{"attributes":{"ID":505830,"DIS_CODE":0,"TOWNNAME":"安平區","LI":"怡平里","LIN":"15鄰","STREET":"文平路","SECT":" ","MAREA":" ","LANE":" ","ALLEY":" ","HOUSE_NO":"５０７號","E_COORD97":165816.14999999999,"N_COORD97":2544000.3199999998,"ADDRESS":"文平路５０７號","OBJECTID":505803},"geometry":{"x":165816.1500000013,"y":2544000.3200000022}},{"attributes":{"ID":505831,"DIS_CODE":0,"TOWNNAME":"東區","LI":"崇德里","LIN":"15鄰","STREET":"崇明十三街","SECT":" ","MAREA":" ","LANE":" ","ALLEY":" ","HOUSE_NO":"１號六樓之４","E_COORD97":170450.95000000001,"N_COORD97":2541570.7000000002,"ADDRESS":"崇明十三街１號六樓之４","OBJECTID":505804},"geometry":{"x":170450.95000000019,"y":2541570.6999999974}},{"attributes":{"ID":505832,"DIS_CODE":0,"TOWNNAME":"東區","LI":"崇德里","LIN":"15鄰","STREET":"崇明十三街","SECT":" ","MAREA":" ","LANE":" ","ALLEY":" ","HOUSE_NO":"１號四樓之１","E_COORD97":170450.95000000001,"N_COORD97":2541570.7000000002,"ADDRESS":"崇明十三街１號四樓之１","OBJECTID":505805},"geometry":{"x":170450.95000000019,"y":2541570.6999999974}},{"attributes":{"ID":505833,"DIS_CODE":0,"TOWNNAME":"東區","LI":"崇德里","LIN":"15鄰","STREET":"崇明十三街","SECT":" ","MAREA":" ","LANE":" ","ALLEY":" ","HOUSE_NO":"１號四樓之２","E_COORD97":170450.95000000001,"N_COORD97":2541570.7000000002,"ADDRESS":"崇明十三街１號四樓之２","OBJECTID":505806},"geometry":{"x":170450.95000000019,"y":2541570.6999999974}},{"attributes":{"ID":505834,"DIS_CODE":0,"TOWNNAME":"東區","LI":"崇德里","LIN":"15鄰","STREET":"崇明十三街","SECT":" ","MAREA":" ","LANE":" ","ALLEY":" ","HOUSE_NO":"１號四樓之５","E_COORD97":170450.95000000001,"N_COORD97":2541570.7000000002,"ADDRESS":"崇明十三街１號四樓之５","OBJECTID":505807},"geometry":{"x":170450.95000000019,"y":2541570.6999999974}},{"attributes":{"ID":505835,"DIS_CODE":0,"TOWNNAME":"東區","LI":"崇德里","LIN":"15鄰","STREET":"崇明十三街","SECT":" ","MAREA":" ","LANE":" ","ALLEY":" ","HOUSE_NO":"３號五樓之１","E_COORD97":170454.97,"N_COORD97":2541574.7200000002,"ADDRESS":"崇明十三街３號五樓之１","OBJECTID":505808},"geometry":{"x":170454.97000000067,"y":2541574.7200000007}},{"attributes":{"ID":505836,"DIS_CODE":0,"TOWNNAME":"東區","LI":"崇德里","LIN":"15鄰","STREET":"崇明十三街","SECT":" ","MAREA":" ","LANE":" ","ALLEY":" ","HOUSE_NO":"３號六樓之２","E_COORD97":170454.97,"N_COORD97":2541574.7200000002,"ADDRESS":"崇明十三街３號六樓之２","OBJECTID":505809},"geometry":{"x":170454.97000000067,"y":2541574.7200000007}},{"attributes":{"ID":505837,"DIS_CODE":0,"TOWNNAME":"東區","LI":"崇德里","LIN":"15鄰","STREET":"崇明十三街","SECT":" ","MAREA":" ","LANE":" ","ALLEY":" ","HOUSE_NO":"３號四樓之１","E_COORD97":170454.97,"N_COORD97":2541574.7200000002,"ADDRESS":"崇明十三街３號四樓之１","OBJECTID":505810},"geometry":{"x":170454.97000000067,"y":2541574.7200000007}},{"attributes":{"ID":505838,"DIS_CODE":0,"TOWNNAME":"東區","LI":"崇德里","LIN":"15鄰","STREET":"崇明十三街","SECT":" ","MAREA":" ","LANE":" ","ALLEY":" ","HOUSE_NO":"３號四樓之４","E_COORD97":170454.97,"N_COORD97":2541574.7200000002,"ADDRESS":"崇明十三街３號四樓之４","OBJECTID":505811},"geometry":{"x":170454.97000000067,"y":2541574.7200000007}},{"attributes":{"ID":505839,"DIS_CODE":0,"TOWNNAME":"東區","LI":"崇德里","LIN":"15鄰","STREET":"崇明十三街","SECT":" ","MAREA":" ","LANE":" ","ALLEY":" ","HOUSE_NO":"１號五樓之１","E_COORD97":170450.95000000001,"N_COORD97":2541570.7000000002,"ADDRESS":"崇明十三街１號五樓之１","OBJECTID":505812},"geometry":{"x":170450.95000000019,"y":2541570.6999999974}},{"attributes":{"ID":505840,"DIS_CODE":0,"TOWNNAME":"東區","LI":"崇德里","LIN":"15鄰","STREET":"崇明十三街","SECT":" ","MAREA":" ","LANE":" ","ALLEY":" ","HOUSE_NO":"１號六樓之６","E_COORD97":170450.95000000001,"N_COORD97":2541570.7000000002,"ADDRESS":"崇明十三街１號六樓之６","OBJECTID":505813},"geometry":{"x":170450.95000000019,"y":2541570.6999999974}},{"attributes":{"ID":505841,"DIS_CODE":0,"TOWNNAME":"東區","LI":"崇德里","LIN":"15鄰","STREET":"崇明十三街","SECT":" ","MAREA":" ","LANE":" ","ALLEY":" ","HOUSE_NO":"１號三樓之１","E_COORD97":170450.95000000001,"N_COORD97":2541570.7000000002,"ADDRESS":"崇明十三街１號三樓之１","OBJECTID":505814},"geometry":{"x":170450.95000000019,"y":2541570.6999999974}},{"attributes":{"ID":505842,"DIS_CODE":0,"TOWNNAME":"東區","LI":"崇德里","LIN":"15鄰","STREET":"崇明十三街","SECT":" ","MAREA":" ","LANE":" ","ALLEY":" ","HOUSE_NO":"１號三樓之２","E_COORD97":170450.95000000001,"N_COORD97":2541570.7000000002,"ADDRESS":"崇明十三街１號三樓之２","OBJECTID":505815},"geometry":{"x":170450.95000000019,"y":2541570.6999999974}},{"attributes":{"ID":505843,"DIS_CODE":0,"TOWNNAME":"東區","LI":"崇德里","LIN":"15鄰","STREET":"崇明十三街","SECT":" ","MAREA":" ","LANE":" ","ALLEY":" ","HOUSE_NO":"１號六樓之２","E_COORD97":170450.95000000001,"N_COORD97":2541570.7000000002,"ADDRESS":"崇明十三街１號六樓之２","OBJECTID":505816},"geometry":{"x":170450.95000000019,"y":2541570.6999999974}},{"attributes":{"ID":505844,"DIS_CODE":0,"TOWNNAME":"東區","LI":"崇德里","LIN":"15鄰","STREET":"崇明十三街","SECT":" ","MAREA":" ","LANE":" ","ALLEY":" ","HOUSE_NO":"１號三樓之４","E_COORD97":170450.95000000001,"N_COORD97":2541570.7000000002,"ADDRESS":"崇明十三街１號三樓之４","OBJECTID":505817},"geometry":{"x":170450.95000000019,"y":2541570.6999999974}},{"attributes":{"ID":505845,"DIS_CODE":0,"TOWNNAME":"東區","LI":"崇德里","LIN":"15鄰","STREET":"崇明十三街","SECT":" ","MAREA":" ","LANE":" ","ALLEY":" ","HOUSE_NO":"１號三樓之５","E_COORD97":170450.95000000001,"N_COORD97":2541570.7000000002,"ADDRESS":"崇明十三街１號三樓之５","OBJECTID":505818},"geometry":{"x":170450.95000000019,"y":2541570.6999999974}},{"attributes":{"ID":505846,"DIS_CODE":0,"TOWNNAME":"東區","LI":"崇德里","LIN":"15鄰","STREET":"崇明十三街","SECT":" ","MAREA":" ","LANE":" ","ALLEY":" ","HOUSE_NO":"１號四樓之３","E_COORD97":170450.95000000001,"N_COORD97":2541570.7000000002,"ADDRESS":"崇明十三街１號四樓之３","OBJECTID":505819},"geometry":{"x":170450.95000000019,"y":2541570.6999999974}},{"attributes":{"ID":505847,"DIS_CODE":0,"TOWNNAME":"東區","LI":"崇德里","LIN":"15鄰","STREET":"崇明十三街","SECT":" ","MAREA":" ","LANE":" ","ALLEY":" ","HOUSE_NO":"１號四樓之６","E_COORD97":170450.95000000001,"N_COORD97":2541570.7000000002,"ADDRESS":"崇明十三街１號四樓之６","OBJECTID":505820},"geometry":{"x":170450.95000000019,"y":2541570.6999999974}},{"attributes":{"ID":505848,"DIS_CODE":0,"TOWNNAME":"東區","LI":"崇德里","LIN":"15鄰","STREET":"崇明十三街","SECT":" ","MAREA":" ","LANE":" ","ALLEY":" ","HOUSE_NO":"１號六樓之３","E_COORD97":170450.95000000001,"N_COORD97":2541570.7000000002,"ADDRESS":"崇明十三街１號六樓之３","OBJECTID":505821},"geometry":{"x":170450.95000000019,"y":2541570.6999999974}},{"attributes":{"ID":505849,"DIS_CODE":0,"TOWNNAME":"東區","LI":"崇德里","LIN":"15鄰","STREET":"崇明十三街","SECT":" ","MAREA":" ","LANE":" ","ALLEY":" ","HOUSE_NO":"１號七樓之１","E_COORD97":170450.95000000001,"N_COORD97":2541570.7000000002,"ADDRESS":"崇明十三街１號七樓之１","OBJECTID":505822},"geometry":{"x":170450.95000000019,"y":2541570.6999999974}},{"attributes":{"ID":505850,"DIS_CODE":0,"TOWNNAME":"東區","LI":"崇德里","LIN":"15鄰","STREET":"崇明十三街","SECT":" ","MAREA":" ","LANE":" ","ALLEY":" ","HOUSE_NO":"１號七樓之２","E_COORD97":170450.95000000001,"N_COORD97":2541570.7000000002,"ADDRESS":"崇明十三街１號七樓之２","OBJECTID":505823},"geometry":{"x":170450.95000000019,"y":2541570.6999999974}},{"attributes":{"ID":505851,"DIS_CODE":0,"TOWNNAME":"東區","LI":"崇德里","LIN":"15鄰","STREET":"崇明十三街","SECT":" ","MAREA":" ","LANE":" ","ALLEY":" ","HOUSE_NO":"１號七樓之３","E_COORD97":170450.95000000001,"N_COORD97":2541570.7000000002,"ADDRESS":"崇明十三街１號七樓之３","OBJECTID":505824},"geometry":{"x":170450.95000000019,"y":2541570.6999999974}},{"attributes":{"ID":505852,"DIS_CODE":0,"TOWNNAME":"東區","LI":"崇德里","LIN":"15鄰","STREET":"崇明十三街","SECT":" ","MAREA":" ","LANE":" ","ALLEY":" ","HOUSE_NO":"１號七樓之４","E_COORD97":170450.95000000001,"N_COORD97":2541570.7000000002,"ADDRESS":"崇明十三街１號七樓之４","OBJECTID":505825},"geometry":{"x":170450.95000000019,"y":2541570.6999999974}},{"attributes":{"ID":505853,"DIS_CODE":0,"TOWNNAME":"東區","LI":"崇德里","LIN":"15鄰","STREET":"崇明十三街","SECT":" ","MAREA":" ","LANE":" ","ALLEY":" ","HOUSE_NO":"１號七樓之５","E_COORD97":170450.95000000001,"N_COORD97":2541570.7000000002,"ADDRESS":"崇明十三街１號七樓之５","OBJECTID":505826},"geometry":{"x":170450.95000000019,"y":2541570.6999999974}},{"attributes":{"ID":505854,"DIS_CODE":0,"TOWNNAME":"東區","LI":"崇德里","LIN":"15鄰","STREET":"崇明十三街","SECT":" ","MAREA":" ","LANE":" ","ALLEY":" ","HOUSE_NO":"３號三樓之１","E_COORD97":170454.97,"N_COORD97":2541574.7200000002,"ADDRESS":"崇明十三街３號三樓之１","OBJECTID":505827},"geometry":{"x":170454.97000000067,"y":2541574.7200000007}},{"attributes":{"ID":505855,"DIS_CODE":0,"TOWNNAME":"東區","LI":"崇德里","LIN":"15鄰","STREET":"崇明十三街","SECT":" ","MAREA":" ","LANE":" ","ALLEY":" ","HOUSE_NO":"３號三樓之２","E_COORD97":170454.97,"N_COORD97":2541574.7200000002,"ADDRESS":"崇明十三街３號三樓之２","OBJECTID":505828},"geometry":{"x":170454.97000000067,"y":2541574.7200000007}},{"attributes":{"ID":505856,"DIS_CODE":0,"TOWNNAME":"東區","LI":"崇德里","LIN":"15鄰","STREET":"崇明十三街","SECT":" ","MAREA":" ","LANE":" ","ALLEY":" ","HOUSE_NO":"３號三樓之３","E_COORD97":170454.97,"N_COORD97":2541574.7200000002,"ADDRESS":"崇明十三街３號三樓之３","OBJECTID":505829},"geometry":{"x":170454.97000000067,"y":2541574.7200000007}},{"attributes":{"ID":505857,"DIS_CODE":0,"TOWNNAME":"東區","LI":"崇德里","LIN":"15鄰","STREET":"崇明十三街","SECT":" ","MAREA":" ","LANE":" ","ALLEY":" ","HOUSE_NO":"３號三樓之４","E_COORD97":170454.97,"N_COORD97":2541574.7200000002,"ADDRESS":"崇明十三街３號三樓之４","OBJECTID":505830},"geometry":{"x":170454.97000000067,"y":2541574.7200000007}},{"attributes":{"ID":505858,"DIS_CODE":0,"TOWNNAME":"東區","LI":"崇德里","LIN":"15鄰","STREET":"崇明十三街","SECT":" ","MAREA":" ","LANE":" ","ALLEY":" ","HOUSE_NO":"３號四樓之２","E_COORD97":170454.97,"N_COORD97":2541574.7200000002,"ADDRESS":"崇明十三街３號四樓之２","OBJECTID":505831},"geometry":{"x":170454.97000000067,"y":2541574.7200000007}},{"attributes":{"ID":505859,"DIS_CODE":0,"TOWNNAME":"東區","LI":"崇德里","LIN":"15鄰","STREET":"崇明十三街","SECT":" ","MAREA":" ","LANE":" ","ALLEY":" ","HOUSE_NO":"３號四樓之３","E_COORD97":170454.97,"N_COORD97":2541574.7200000002,"ADDRESS":"崇明十三街３號四樓之３","OBJECTID":505832},"geometry":{"x":170454.97000000067,"y":2541574.7200000007}},{"attributes":{"ID":505860,"DIS_CODE":0,"TOWNNAME":"東區","LI":"崇德里","LIN":"15鄰","STREET":"崇明十三街","SECT":" ","MAREA":" ","LANE":" ","ALLEY":" ","HOUSE_NO":"３號五樓之２","E_COORD97":170454.97,"N_COORD97":2541574.7200000002,"ADDRESS":"崇明十三街３號五樓之２","OBJECTID":505833},"geometry":{"x":170454.97000000067,"y":2541574.7200000007}},{"attributes":{"ID":505861,"DIS_CODE":0,"TOWNNAME":"東區","LI":"崇德里","LIN":"15鄰","STREET":"崇明十三街","SECT":" ","MAREA":" ","LANE":" ","ALLEY":" ","HOUSE_NO":"３號五樓之３","E_COORD97":170454.97,"N_COORD97":2541574.7200000002,"ADDRESS":"崇明十三街３號五樓之３","OBJECTID":505834},"geometry":{"x":170454.97000000067,"y":2541574.7200000007}},{"attributes":{"ID":505862,"DIS_CODE":0,"TOWNNAME":"東區","LI":"崇德里","LIN":"15鄰","STREET":"崇明十三街","SECT":" ","MAREA":" ","LANE":" ","ALLEY":" ","HOUSE_NO":"３號六樓之１","E_COORD97":170454.97,"N_COORD97":2541574.7200000002,"ADDRESS":"崇明十三街３號六樓之１","OBJECTID":505835},"geometry":{"x":170454.97000000067,"y":2541574.7200000007}},{"attributes":{"ID":505863,"DIS_CODE":0,"TOWNNAME":"東區","LI":"崇德里","LIN":"15鄰","STREET":"崇明十三街","SECT":" ","MAREA":" ","LANE":" ","ALLEY":" ","HOUSE_NO":"３號六樓之３","E_COORD97":170454.97,"N_COORD97":2541574.7200000002,"ADDRESS":"崇明十三街３號六樓之３","OBJECTID":505836},"geometry":{"x":170454.97000000067,"y":2541574.7200000007}},{"attributes":{"ID":505864,"DIS_CODE":0,"TOWNNAME":"東區","LI":"崇德里","LIN":"15鄰","STREET":"崇明十三街","SECT":" ","MAREA":" ","LANE":" ","ALLEY":" ","HOUSE_NO":"３號六樓之４","E_COORD97":170454.97,"N_COORD97":2541574.7200000002,"ADDRESS":"崇明十三街３號六樓之４","OBJECTID":505837},"geometry":{"x":170454.97000000067,"y":2541574.7200000007}},{"attributes":{"ID":505865,"DIS_CODE":0,"TOWNNAME":"中西區","LI":"郡王里","LIN":"15鄰","STREET":"南門路","SECT":" ","MAREA":" ","LANE":" ","ALLEY":" ","HOUSE_NO":"１０１號七樓之１","E_COORD97":168458.39000000001,"N_COORD97":2543182.3100000001,"ADDRESS":"南門路１０１號七樓之１","OBJECTID":505838},"geometry":{"x":168458.3900000006,"y":2543182.3100000024}},{"attributes":{"ID":505866,"DIS_CODE":0,"TOWNNAME":"中西區","LI":"郡王里","LIN":"15鄰","STREET":"南門路","SECT":" ","MAREA":" ","LANE":" ","ALLEY":" ","HOUSE_NO":"１０１號七樓之２","E_COORD97":168458.67999999999,"N_COORD97":2543167.46,"ADDRESS":"南門路１０１號七樓之２","OBJECTID":505839},"geometry":{"x":168458.6799999997,"y":2543167.459999999}},{"attributes":{"ID":505867,"DIS_CODE":0,"TOWNNAME":"中西區","LI":"郡王里","LIN":"15鄰","STREET":"南門路","SECT":" ","MAREA":" ","LANE":" ","ALLEY":" ","HOUSE_NO":"１０１號七樓之３","E_COORD97":168464.85999999999,"N_COORD97":2543167.5499999998,"ADDRESS":"南門路１０１號七樓之３","OBJECTID":505840},"geometry":{"x":168464.86000000034,"y":2543167.5500000026}},{"attributes":{"ID":505868,"DIS_CODE":0,"TOWNNAME":"中西區","LI":"郡王里","LIN":"15鄰","STREET":"南門路","SECT":" ","MAREA":" ","LANE":" ","ALLEY":" ","HOUSE_NO":"１０１號七樓之４","E_COORD97":168463.69,"N_COORD97":2543182.75,"ADDRESS":"南門路１０１號七樓之４","OBJECTID":505841},"geometry":{"x":168463.69000000134,"y":2543182.7500000019}},{"attributes":{"ID":505869,"DIS_CODE":0,"TOWNNAME":"中西區","LI":"郡王里","LIN":"15鄰","STREET":"南門路","SECT":" ","MAREA":" ","LANE":" ","ALLEY":" ","HOUSE_NO":"１０１號七樓之５","E_COORD97":168511.64000000001,"N_COORD97":2543180.3500000001,"ADDRESS":"南門路１０１號七樓之５","OBJECTID":505842},"geometry":{"x":168511.63999999966,"y":2543180.3499999996}},{"attributes":{"ID":505870,"DIS_CODE":0,"TOWNNAME":"中西區","LI":"郡王里","LIN":"15鄰","STREET":"南門路","SECT":" ","MAREA":" ","LANE":" ","ALLEY":" ","HOUSE_NO":"１０１號七樓之６","E_COORD97":168495.34,"N_COORD97":2543182.8599999999,"ADDRESS":"南門路１０１號七樓之６","OBJECTID":505843},"geometry":{"x":168495.33999999985,"y":2543182.8599999994}},{"attributes":{"ID":505871,"DIS_CODE":0,"TOWNNAME":"中西區","LI":"郡王里","LIN":"15鄰","STREET":"建業街","SECT":" ","MAREA":" ","LANE":" ","ALLEY":" ","HOUSE_NO":"３８號三樓","E_COORD97":168616.32999999999,"N_COORD97":2543165.8900000001,"ADDRESS":"建業街３８號三樓","OBJECTID":505844},"geometry":{"x":168616.33000000194,"y":2543165.8900000025}},{"attributes":{"ID":505872,"DIS_CODE":0,"TOWNNAME":"中西區","LI":"郡王里","LIN":"15鄰","STREET":"南門路","SECT":" ","MAREA":" ","LANE":" ","ALLEY":" ","HOUSE_NO":"１０１號七樓之７","E_COORD97":168501.10999999999,"N_COORD97":2543171.75,"ADDRESS":"南門路１０１號七樓之７","OBJECTID":505845},"geometry":{"x":168501.1100000022,"y":2543171.7500000037}},{"attributes":{"ID":505873,"DIS_CODE":0,"TOWNNAME":"中西區","LI":"郡王里","LIN":"15鄰","STREET":"南門路","SECT":" ","MAREA":" ","LANE":" ","ALLEY":" ","HOUSE_NO":"１０１號七樓之８","E_COORD97":168510.04999999999,"N_COORD97":2543167.1200000001,"ADDRESS":"南門路１０１號七樓之８","OBJECTID":505846},"geometry":{"x":168510.05000000075,"y":2543167.1200000029}},{"attributes":{"ID":505874,"DIS_CODE":0,"TOWNNAME":"中西區","LI":"郡王里","LIN":"15鄰","STREET":"南門路","SECT":" ","MAREA":" ","LANE":" ","ALLEY":" ","HOUSE_NO":"１０１號九樓之１","E_COORD97":168458.39000000001,"N_COORD97":2543182.3100000001,"ADDRESS":"南門路１０１號九樓之１","OBJECTID":505847},"geometry":{"x":168458.3900000006,"y":2543182.3100000024}},{"attributes":{"ID":505875,"DIS_CODE":0,"TOWNNAME":"中西區","LI":"郡王里","LIN":"15鄰","STREET":"南門路","SECT":" ","MAREA":" ","LANE":" ","ALLEY":" ","HOUSE_NO":"１０１號九樓之２","E_COORD97":168458.67999999999,"N_COORD97":2543167.46,"ADDRESS":"南門路１０１號九樓之２","OBJECTID":505848},"geometry":{"x":168458.6799999997,"y":2543167.459999999}},{"attributes":{"ID":505876,"DIS_CODE":0,"TOWNNAME":"中西區","LI":"郡王里","LIN":"15鄰","STREET":"南門路","SECT":" ","MAREA":" ","LANE":" ","ALLEY":" ","HOUSE_NO":"１０１號九樓之３","E_COORD97":168464.85999999999,"N_COORD97":2543167.5499999998,"ADDRESS":"南門路１０１號九樓之３","OBJECTID":505849},"geometry":{"x":168464.86000000034,"y":2543167.5500000026}},{"attributes":{"ID":505877,"DIS_CODE":0,"TOWNNAME":"中西區","LI":"郡王里","LIN":"15鄰","STREET":"南門路","SECT":" ","MAREA":" ","LANE":" ","ALLEY":" ","HOUSE_NO":"１０１號九樓之４","E_COORD97":168463.69,"N_COORD97":2543182.75,"ADDRESS":"南門路１０１號九樓之４","OBJECTID":505850},"geometry":{"x":168463.69000000134,"y":2543182.7500000019}},{"attributes":{"ID":505878,"DIS_CODE":0,"TOWNNAME":"中西區","LI":"郡王里","LIN":"15鄰","STREET":"南門路","SECT":" ","MAREA":" ","LANE":" ","ALLEY":" ","HOUSE_NO":"１０１號九樓之５","E_COORD97":168511.64000000001,"N_COORD97":2543180.3500000001,"ADDRESS":"南門路１０１號九樓之５","OBJECTID":505851},"geometry":{"x":168511.63999999966,"y":2543180.3499999996}},{"attributes":{"ID":505879,"DIS_CODE":0,"TOWNNAME":"中西區","LI":"郡王里","LIN":"15鄰","STREET":"南門路","SECT":" ","MAREA":" ","LANE":" ","ALLEY":" ","HOUSE_NO":"１０１號九樓之６","E_COORD97":168495.34,"N_COORD97":2543182.8599999999,"ADDRESS":"南門路１０１號九樓之６","OBJECTID":505852},"geometry":{"x":168495.33999999985,"y":2543182.8599999994}},{"attributes":{"ID":505880,"DIS_CODE":0,"TOWNNAME":"中西區","LI":"郡王里","LIN":"15鄰","STREET":"南門路","SECT":" ","MAREA":" ","LANE":" ","ALLEY":" ","HOUSE_NO":"１０１號九樓之７","E_COORD97":168501.10999999999,"N_COORD97":2543171.75,"ADDRESS":"南門路１０１號九樓之７","OBJECTID":505853},"geometry":{"x":168501.1100000022,"y":2543171.7500000037}},{"attributes":{"ID":505881,"DIS_CODE":0,"TOWNNAME":"中西區","LI":"郡王里","LIN":"15鄰","STREET":"南門路","SECT":" ","MAREA":" ","LANE":" ","ALLEY":" ","HOUSE_NO":"１０１號九樓之８","E_COORD97":168510.04999999999,"N_COORD97":2543167.1200000001,"ADDRESS":"南門路１０１號九樓之８","OBJECTID":505854},"geometry":{"x":168510.05000000075,"y":2543167.1200000029}},{"attributes":{"ID":505882,"DIS_CODE":0,"TOWNNAME":"中西區","LI":"郡王里","LIN":"15鄰","STREET":"南門路","SECT":" ","MAREA":" ","LANE":" ","ALLEY":" ","HOUSE_NO":"１０１號二樓","E_COORD97":168451.78,"N_COORD97":2543169.04,"ADDRESS":"南門路１０１號二樓","OBJECTID":505855},"geometry":{"x":168451.78000000026,"y":2543169.040000001}},{"attributes":{"ID":505883,"DIS_CODE":0,"TOWNNAME":"中西區","LI":"郡王里","LIN":"15鄰","STREET":"南門路","SECT":" ","MAREA":" ","LANE":" ","ALLEY":" ","HOUSE_NO":"１０１號八樓之１","E_COORD97":168458.39000000001,"N_COORD97":2543182.3100000001,"ADDRESS":"南門路１０１號八樓之１","OBJECTID":505856},"geometry":{"x":168458.3900000006,"y":2543182.3100000024}},{"attributes":{"ID":505884,"DIS_CODE":0,"TOWNNAME":"中西區","LI":"郡王里","LIN":"15鄰","STREET":"南門路","SECT":" ","MAREA":" ","LANE":" ","ALLEY":" ","HOUSE_NO":"１０１號八樓之２","E_COORD97":168458.67999999999,"N_COORD97":2543167.46,"ADDRESS":"南門路１０１號八樓之２","OBJECTID":505857},"geometry":{"x":168458.6799999997,"y":2543167.459999999}},{"attributes":{"ID":505885,"DIS_CODE":0,"TOWNNAME":"中西區","LI":"郡王里","LIN":"15鄰","STREET":"南門路","SECT":" ","MAREA":" ","LANE":" ","ALLEY":" ","HOUSE_NO":"１０１號八樓之３","E_COORD97":168464.85999999999,"N_COORD97":2543167.5499999998,"ADDRESS":"南門路１０１號八樓之３","OBJECTID":505858},"geometry":{"x":168464.86000000034,"y":2543167.5500000026}},{"attributes":{"ID":505886,"DIS_CODE":0,"TOWNNAME":"中西區","LI":"郡王里","LIN":"15鄰","STREET":"南門路","SECT":" ","MAREA":" ","LANE":" ","ALLEY":" ","HOUSE_NO":"１０１號八樓之４","E_COORD97":168463.69,"N_COORD97":2543182.75,"ADDRESS":"南門路１０１號八樓之４","OBJECTID":505859},"geometry":{"x":168463.69000000134,"y":2543182.7500000019}},{"attributes":{"ID":505887,"DIS_CODE":0,"TOWNNAME":"中西區","LI":"郡王里","LIN":"15鄰","STREET":"南門路","SECT":" ","MAREA":" ","LANE":" ","ALLEY":" ","HOUSE_NO":"１０１號八樓之５","E_COORD97":168511.64000000001,"N_COORD97":2543180.3500000001,"ADDRESS":"南門路１０１號八樓之５","OBJECTID":505860},"geometry":{"x":168511.63999999966,"y":2543180.3499999996}},{"attributes":{"ID":505888,"DIS_CODE":0,"TOWNNAME":"中西區","LI":"郡王里","LIN":"15鄰","STREET":"南門路","SECT":" ","MAREA":" ","LANE":" ","ALLEY":" ","HOUSE_NO":"１０１號八樓之６","E_COORD97":168495.34,"N_COORD97":2543182.8599999999,"ADDRESS":"南門路１０１號八樓之６","OBJECTID":505861},"geometry":{"x":168495.33999999985,"y":2543182.8599999994}},{"attributes":{"ID":505889,"DIS_CODE":0,"TOWNNAME":"安平區","LI":"億載里","LIN":"13鄰","STREET":"光州五街","SECT":" ","MAREA":" ","LANE":" ","ALLEY":" ","HOUSE_NO":"８２號","E_COORD97":164138.79000000001,"N_COORD97":2543299.7200000002,"ADDRESS":"光州五街８２號","OBJECTID":505862},"geometry":{"x":164138.79000000004,"y":2543299.7200000007}},{"attributes":{"ID":505890,"DIS_CODE":0,"TOWNNAME":"中西區","LI":"郡王里","LIN":"15鄰","STREET":"南門路","SECT":" ","MAREA":" ","LANE":" ","ALLEY":" ","HOUSE_NO":"１０１號八樓之７","E_COORD97":168501.10999999999,"N_COORD97":2543171.75,"ADDRESS":"南門路１０１號八樓之７","OBJECTID":505863},"geometry":{"x":168501.1100000022,"y":2543171.7500000037}},{"attributes":{"ID":505891,"DIS_CODE":0,"TOWNNAME":"中西區","LI":"郡王里","LIN":"15鄰","STREET":"南門路","SECT":" ","MAREA":" ","LANE":" ","ALLEY":" ","HOUSE_NO":"１０１號十一樓之１","E_COORD97":168458.39000000001,"N_COORD97":2543182.3100000001,"ADDRESS":"南門路１０１號十一樓之１","OBJECTID":505864},"geometry":{"x":168458.3900000006,"y":2543182.3100000024}},{"attributes":{"ID":505892,"DIS_CODE":0,"TOWNNAME":"中西區","LI":"郡王里","LIN":"15鄰","STREET":"南門路","SECT":" ","MAREA":" ","LANE":" ","ALLEY":" ","HOUSE_NO":"１０１號十一樓之２","E_COORD97":168458.67999999999,"N_COORD97":2543167.46,"ADDRESS":"南門路１０１號十一樓之２","OBJECTID":505865},"geometry":{"x":168458.6799999997,"y":2543167.459999999}},{"attributes":{"ID":505893,"DIS_CODE":0,"TOWNNAME":"中西區","LI":"郡王里","LIN":"15鄰","STREET":"南門路","SECT":" ","MAREA":" ","LANE":" ","ALLEY":" ","HOUSE_NO":"１０１號十一樓之３","E_COORD97":168464.85999999999,"N_COORD97":2543167.5499999998,"ADDRESS":"南門路１０１號十一樓之３","OBJECTID":505866},"geometry":{"x":168464.86000000034,"y":2543167.5500000026}},{"attributes":{"ID":505894,"DIS_CODE":0,"TOWNNAME":"中西區","LI":"郡王里","LIN":"15鄰","STREET":"南門路","SECT":" ","MAREA":" ","LANE":" ","ALLEY":" ","HOUSE_NO":"１０１號十一樓之４","E_COORD97":168463.69,"N_COORD97":2543182.75,"ADDRESS":"南門路１０１號十一樓之４","OBJECTID":505867},"geometry":{"x":168463.69000000134,"y":2543182.7500000019}},{"attributes":{"ID":505895,"DIS_CODE":0,"TOWNNAME":"中西區","LI":"郡王里","LIN":"15鄰","STREET":"南門路","SECT":" ","MAREA":" ","LANE":" ","ALLEY":" ","HOUSE_NO":"１０１號十一樓之５","E_COORD97":168511.64000000001,"N_COORD97":2543180.3500000001,"ADDRESS":"南門路１０１號十一樓之５","OBJECTID":505868},"geometry":{"x":168511.63999999966,"y":2543180.3499999996}},{"attributes":{"ID":505896,"DIS_CODE":0,"TOWNNAME":"中西區","LI":"郡王里","LIN":"15鄰","STREET":"南門路","SECT":" ","MAREA":" ","LANE":" ","ALLEY":" ","HOUSE_NO":"１０１號十一樓之６","E_COORD97":168495.34,"N_COORD97":2543182.8599999999,"ADDRESS":"南門路１０１號十一樓之６","OBJECTID":505869},"geometry":{"x":168495.33999999985,"y":2543182.8599999994}},{"attributes":{"ID":505897,"DIS_CODE":0,"TOWNNAME":"中西區","LI":"郡王里","LIN":"15鄰","STREET":"南門路","SECT":" ","MAREA":" ","LANE":" ","ALLEY":" ","HOUSE_NO":"１０１號十樓之１","E_COORD97":168458.39000000001,"N_COORD97":2543182.3100000001,"ADDRESS":"南門路１０１號十樓之１","OBJECTID":505870},"geometry":{"x":168458.3900000006,"y":2543182.3100000024}},{"attributes":{"ID":505898,"DIS_CODE":0,"TOWNNAME":"中西區","LI":"郡王里","LIN":"15鄰","STREET":"南門路","SECT":" ","MAREA":" ","LANE":" ","ALLEY":" ","HOUSE_NO":"１０１號十樓之２","E_COORD97":168458.67999999999,"N_COORD97":2543167.46,"ADDRESS":"南門路１０１號十樓之２","OBJECTID":505871},"geometry":{"x":168458.6799999997,"y":2543167.459999999}},{"attributes":{"ID":505899,"DIS_CODE":0,"TOWNNAME":"中西區","LI":"郡王里","LIN":"15鄰","STREET":"南門路","SECT":" ","MAREA":" ","LANE":" ","ALLEY":" ","HOUSE_NO":"１０１號十樓之３","E_COORD97":168464.85999999999,"N_COORD97":2543167.5499999998,"ADDRESS":"南門路１０１號十樓之３","OBJECTID":505872},"geometry":{"x":168464.86000000034,"y":2543167.5500000026}},{"attributes":{"ID":505900,"DIS_CODE":0,"TOWNNAME":"中西區","LI":"郡王里","LIN":"15鄰","STREET":"南門路","SECT":" ","MAREA":" ","LANE":" ","ALLEY":" ","HOUSE_NO":"１０１號十樓之４","E_COORD97":168463.69,"N_COORD97":2543182.75,"ADDRESS":"南門路１０１號十樓之４","OBJECTID":505873},"geometry":{"x":168463.69000000134,"y":2543182.7500000019}},{"attributes":{"ID":505901,"DIS_CODE":0,"TOWNNAME":"中西區","LI":"郡王里","LIN":"15鄰","STREET":"南門路","SECT":" ","MAREA":" ","LANE":" ","ALLEY":" ","HOUSE_NO":"１０１號十樓之５","E_COORD97":168511.64000000001,"N_COORD97":2543180.3500000001,"ADDRESS":"南門路１０１號十樓之５","OBJECTID":505874},"geometry":{"x":168511.63999999966,"y":2543180.3499999996}},{"attributes":{"ID":505902,"DIS_CODE":0,"TOWNNAME":"中西區","LI":"郡王里","LIN":"15鄰","STREET":"南門路","SECT":" ","MAREA":" ","LANE":" ","ALLEY":" ","HOUSE_NO":"１０１號十樓之６","E_COORD97":168495.34,"N_COORD97":2543182.8599999999,"ADDRESS":"南門路１０１號十樓之６","OBJECTID":505875},"geometry":{"x":168495.33999999985,"y":2543182.8599999994}},{"attributes":{"ID":505903,"DIS_CODE":0,"TOWNNAME":"中西區","LI":"郡王里","LIN":"15鄰","STREET":"南門路","SECT":" ","MAREA":" ","LANE":" ","ALLEY":" ","HOUSE_NO":"１０１號十樓之７","E_COORD97":168501.10999999999,"N_COORD97":2543171.75,"ADDRESS":"南門路１０１號十樓之７","OBJECTID":505876},"geometry":{"x":168501.1100000022,"y":2543171.7500000037}},{"attributes":{"ID":505904,"DIS_CODE":0,"TOWNNAME":"中西區","LI":"郡王里","LIN":"15鄰","STREET":"南門路","SECT":" ","MAREA":" ","LANE":" ","ALLEY":" ","HOUSE_NO":"１０１號十樓之８","E_COORD97":168510.04999999999,"N_COORD97":2543167.1200000001,"ADDRESS":"南門路１０１號十樓之８","OBJECTID":505877},"geometry":{"x":168510.05000000075,"y":2543167.1200000029}},{"attributes":{"ID":505905,"DIS_CODE":0,"TOWNNAME":"中西區","LI":"郡王里","LIN":"15鄰","STREET":"南門路","SECT":" ","MAREA":" ","LANE":" ","ALLEY":" ","HOUSE_NO":"１０１號三樓之１","E_COORD97":168458.39000000001,"N_COORD97":2543182.3100000001,"ADDRESS":"南門路１０１號三樓之１","OBJECTID":505878},"geometry":{"x":168458.3900000006,"y":2543182.3100000024}},{"attributes":{"ID":505906,"DIS_CODE":0,"TOWNNAME":"中西區","LI":"郡王里","LIN":"15鄰","STREET":"南門路","SECT":" ","MAREA":" ","LANE":" ","ALLEY":" ","HOUSE_NO":"１０１號三樓之２","E_COORD97":168458.67999999999,"N_COORD97":2543167.46,"ADDRESS":"南門路１０１號三樓之２","OBJECTID":505879},"geometry":{"x":168458.6799999997,"y":2543167.459999999}},{"attributes":{"ID":505907,"DIS_CODE":0,"TOWNNAME":"中西區","LI":"郡王里","LIN":"15鄰","STREET":"南門路","SECT":" ","MAREA":" ","LANE":" ","ALLEY":" ","HOUSE_NO":"１０１號三樓之３","E_COORD97":168464.85999999999,"N_COORD97":2543167.5499999998,"ADDRESS":"南門路１０１號三樓之３","OBJECTID":505880},"geometry":{"x":168464.86000000034,"y":2543167.5500000026}},{"attributes":{"ID":505908,"DIS_CODE":0,"TOWNNAME":"中西區","LI":"郡王里","LIN":"15鄰","STREET":"南門路","SECT":" ","MAREA":" ","LANE":" ","ALLEY":" ","HOUSE_NO":"１０１號三樓之４","E_COORD97":168463.69,"N_COORD97":2543182.75,"ADDRESS":"南門路１０１號三樓之４","OBJECTID":505881},"geometry":{"x":168463.69000000134,"y":2543182.7500000019}},{"attributes":{"ID":505909,"DIS_CODE":0,"TOWNNAME":"中西區","LI":"郡王里","LIN":"15鄰","STREET":"南門路","SECT":" ","MAREA":" ","LANE":" ","ALLEY":" ","HOUSE_NO":"１０１號三樓之５","E_COORD97":168511.64000000001,"N_COORD97":2543180.3500000001,"ADDRESS":"南門路１０１號三樓之５","OBJECTID":505882},"geometry":{"x":168511.63999999966,"y":2543180.3499999996}},{"attributes":{"ID":505910,"DIS_CODE":0,"TOWNNAME":"中西區","LI":"郡王里","LIN":"15鄰","STREET":"南門路","SECT":" ","MAREA":" ","LANE":" ","ALLEY":" ","HOUSE_NO":"１０１號三樓之６","E_COORD97":168495.34,"N_COORD97":2543182.8599999999,"ADDRESS":"南門路１０１號三樓之６","OBJECTID":505883},"geometry":{"x":168495.33999999985,"y":2543182.8599999994}},{"attributes":{"ID":505911,"DIS_CODE":0,"TOWNNAME":"中西區","LI":"郡王里","LIN":"15鄰","STREET":"南門路","SECT":" ","MAREA":" ","LANE":" ","ALLEY":" ","HOUSE_NO":"１０１號三樓之７","E_COORD97":168501.10999999999,"N_COORD97":2543171.75,"ADDRESS":"南門路１０１號三樓之７","OBJECTID":505884},"geometry":{"x":168501.1100000022,"y":2543171.7500000037}},{"attributes":{"ID":505912,"DIS_CODE":0,"TOWNNAME":"中西區","LI":"郡王里","LIN":"15鄰","STREET":"南門路","SECT":" ","MAREA":" ","LANE":" ","ALLEY":" ","HOUSE_NO":"１０１號三樓之８","E_COORD97":168510.04999999999,"N_COORD97":2543167.1200000001,"ADDRESS":"南門路１０１號三樓之８","OBJECTID":505885},"geometry":{"x":168510.05000000075,"y":2543167.1200000029}},{"attributes":{"ID":505913,"DIS_CODE":0,"TOWNNAME":"中西區","LI":"郡王里","LIN":"15鄰","STREET":"南門路","SECT":" ","MAREA":" ","LANE":" ","ALLEY":" ","HOUSE_NO":"１０１號五樓之１","E_COORD97":168458.39000000001,"N_COORD97":2543182.3100000001,"ADDRESS":"南門路１０１號五樓之１","OBJECTID":505886},"geometry":{"x":168458.3900000006,"y":2543182.3100000024}},{"attributes":{"ID":505914,"DIS_CODE":0,"TOWNNAME":"中西區","LI":"郡王里","LIN":"15鄰","STREET":"南門路","SECT":" ","MAREA":" ","LANE":" ","ALLEY":" ","HOUSE_NO":"１０１號五樓之２","E_COORD97":168458.67999999999,"N_COORD97":2543167.46,"ADDRESS":"南門路１０１號五樓之２","OBJECTID":505887},"geometry":{"x":168458.6799999997,"y":2543167.459999999}},{"attributes":{"ID":505915,"DIS_CODE":0,"TOWNNAME":"中西區","LI":"郡王里","LIN":"15鄰","STREET":"南門路","SECT":" ","MAREA":" ","LANE":" ","ALLEY":" ","HOUSE_NO":"１０１號五樓之３","E_COORD97":168464.85999999999,"N_COORD97":2543167.5499999998,"ADDRESS":"南門路１０１號五樓之３","OBJECTID":505888},"geometry":{"x":168464.86000000034,"y":2543167.5500000026}},{"attributes":{"ID":505916,"DIS_CODE":0,"TOWNNAME":"中西區","LI":"郡王里","LIN":"15鄰","STREET":"南門路","SECT":" ","MAREA":" ","LANE":" ","ALLEY":" ","HOUSE_NO":"１０１號五樓之４","E_COORD97":168463.69,"N_COORD97":2543182.75,"ADDRESS":"南門路１０１號五樓之４","OBJECTID":505889},"geometry":{"x":168463.69000000134,"y":2543182.7500000019}},{"attributes":{"ID":505917,"DIS_CODE":0,"TOWNNAME":"中西區","LI":"郡王里","LIN":"15鄰","STREET":"南門路","SECT":" ","MAREA":" ","LANE":" ","ALLEY":" ","HOUSE_NO":"１０１號五樓之５","E_COORD97":168511.64000000001,"N_COORD97":2543180.3500000001,"ADDRESS":"南門路１０１號五樓之５","OBJECTID":505890},"geometry":{"x":168511.63999999966,"y":2543180.3499999996}},{"attributes":{"ID":505918,"DIS_CODE":0,"TOWNNAME":"中西區","LI":"郡王里","LIN":"15鄰","STREET":"南門路","SECT":" ","MAREA":" ","LANE":" ","ALLEY":" ","HOUSE_NO":"１０１號五樓之６","E_COORD97":168495.34,"N_COORD97":2543182.8599999999,"ADDRESS":"南門路１０１號五樓之６","OBJECTID":505891},"geometry":{"x":168495.33999999985,"y":2543182.8599999994}},{"attributes":{"ID":505919,"DIS_CODE":0,"TOWNNAME":"中西區","LI":"郡王里","LIN":"15鄰","STREET":"南門路","SECT":" ","MAREA":" ","LANE":" ","ALLEY":" ","HOUSE_NO":"１０１號五樓之７","E_COORD97":168501.10999999999,"N_COORD97":2543171.75,"ADDRESS":"南門路１０１號五樓之７","OBJECTID":505892},"geometry":{"x":168501.1100000022,"y":2543171.7500000037}},{"attributes":{"ID":505920,"DIS_CODE":0,"TOWNNAME":"中西區","LI":"郡王里","LIN":"15鄰","STREET":"南門路","SECT":" ","MAREA":" ","LANE":" ","ALLEY":" ","HOUSE_NO":"１０１號六樓之１","E_COORD97":168458.39000000001,"N_COORD97":2543182.3100000001,"ADDRESS":"南門路１０１號六樓之１","OBJECTID":505893},"geometry":{"x":168458.3900000006,"y":2543182.3100000024}},{"attributes":{"ID":505921,"DIS_CODE":0,"TOWNNAME":"中西區","LI":"郡王里","LIN":"15鄰","STREET":"南門路","SECT":" ","MAREA":" ","LANE":" ","ALLEY":" ","HOUSE_NO":"１０１號六樓之２","E_COORD97":168458.67999999999,"N_COORD97":2543167.46,"ADDRESS":"南門路１０１號六樓之２","OBJECTID":505894},"geometry":{"x":168458.6799999997,"y":2543167.459999999}},{"attributes":{"ID":505922,"DIS_CODE":0,"TOWNNAME":"中西區","LI":"郡王里","LIN":"15鄰","STREET":"南門路","SECT":" ","MAREA":" ","LANE":" ","ALLEY":" ","HOUSE_NO":"１０１號六樓之３","E_COORD97":168464.85999999999,"N_COORD97":2543167.5499999998,"ADDRESS":"南門路１０１號六樓之３","OBJECTID":505895},"geometry":{"x":168464.86000000034,"y":2543167.5500000026}},{"attributes":{"ID":505923,"DIS_CODE":0,"TOWNNAME":"中西區","LI":"郡王里","LIN":"15鄰","STREET":"南門路","SECT":" ","MAREA":" ","LANE":" ","ALLEY":" ","HOUSE_NO":"１０１號六樓之４","E_COORD97":168463.69,"N_COORD97":2543182.75,"ADDRESS":"南門路１０１號六樓之４","OBJECTID":505896},"geometry":{"x":168463.69000000134,"y":2543182.7500000019}},{"attributes":{"ID":505924,"DIS_CODE":0,"TOWNNAME":"中西區","LI":"郡王里","LIN":"15鄰","STREET":"南門路","SECT":" ","MAREA":" ","LANE":" ","ALLEY":" ","HOUSE_NO":"１０１號四樓之１","E_COORD97":168458.39000000001,"N_COORD97":2543182.3100000001,"ADDRESS":"南門路１０１號四樓之１","OBJECTID":505897},"geometry":{"x":168458.3900000006,"y":2543182.3100000024}},{"attributes":{"ID":505925,"DIS_CODE":0,"TOWNNAME":"中西區","LI":"郡王里","LIN":"15鄰","STREET":"南門路","SECT":" ","MAREA":" ","LANE":" ","ALLEY":" ","HOUSE_NO":"１０１號四樓之２","E_COORD97":168458.67999999999,"N_COORD97":2543167.46,"ADDRESS":"南門路１０１號四樓之２","OBJECTID":505898},"geometry":{"x":168458.6799999997,"y":2543167.459999999}},{"attributes":{"ID":505926,"DIS_CODE":0,"TOWNNAME":"中西區","LI":"郡王里","LIN":"15鄰","STREET":"南門路","SECT":" ","MAREA":" ","LANE":" ","ALLEY":" ","HOUSE_NO":"１０１號四樓之３","E_COORD97":168464.85999999999,"N_COORD97":2543167.5499999998,"ADDRESS":"南門路１０１號四樓之３","OBJECTID":505899},"geometry":{"x":168464.86000000034,"y":2543167.5500000026}},{"attributes":{"ID":505927,"DIS_CODE":0,"TOWNNAME":"中西區","LI":"郡王里","LIN":"15鄰","STREET":"南門路","SECT":" ","MAREA":" ","LANE":" ","ALLEY":" ","HOUSE_NO":"１０１號四樓之４","E_COORD97":168463.69,"N_COORD97":2543182.75,"ADDRESS":"南門路１０１號四樓之４","OBJECTID":505900},"geometry":{"x":168463.69000000134,"y":2543182.7500000019}},{"attributes":{"ID":505928,"DIS_CODE":0,"TOWNNAME":"中西區","LI":"郡王里","LIN":"15鄰","STREET":"南門路","SECT":" ","MAREA":" ","LANE":" ","ALLEY":" ","HOUSE_NO":"１０１號四樓之５","E_COORD97":168511.64000000001,"N_COORD97":2543180.3500000001,"ADDRESS":"南門路１０１號四樓之５","OBJECTID":505901},"geometry":{"x":168511.63999999966,"y":2543180.3499999996}},{"attributes":{"ID":505929,"DIS_CODE":0,"TOWNNAME":"中西區","LI":"郡王里","LIN":"15鄰","STREET":"南門路","SECT":" ","MAREA":" ","LANE":" ","ALLEY":" ","HOUSE_NO":"１０１號四樓之６","E_COORD97":168495.34,"N_COORD97":2543182.8599999999,"ADDRESS":"南門路１０１號四樓之６","OBJECTID":505902},"geometry":{"x":168495.33999999985,"y":2543182.8599999994}},{"attributes":{"ID":505930,"DIS_CODE":0,"TOWNNAME":"中西區","LI":"郡王里","LIN":"15鄰","STREET":"南門路","SECT":" ","MAREA":" ","LANE":" ","ALLEY":" ","HOUSE_NO":"１０１號四樓之７","E_COORD97":168501.10999999999,"N_COORD97":2543171.75,"ADDRESS":"南門路１０１號四樓之７","OBJECTID":505903},"geometry":{"x":168501.1100000022,"y":2543171.7500000037}},{"attributes":{"ID":505931,"DIS_CODE":0,"TOWNNAME":"中西區","LI":"郡王里","LIN":"15鄰","STREET":"建業街","SECT":" ","MAREA":" ","LANE":" ","ALLEY":" ","HOUSE_NO":"３８號二樓","E_COORD97":168616.32999999999,"N_COORD97":2543165.8900000001,"ADDRESS":"建業街３８號二樓","OBJECTID":505904},"geometry":{"x":168616.33000000194,"y":2543165.8900000025}},{"attributes":{"ID":505932,"DIS_CODE":0,"TOWNNAME":"中西區","LI":"郡王里","LIN":"15鄰","STREET":"建業街","SECT":" ","MAREA":" ","LANE":" ","ALLEY":" ","HOUSE_NO":"３８號之１二樓","E_COORD97":168604.48000000001,"N_COORD97":2543165,"ADDRESS":"建業街３８號之１二樓","OBJECTID":505905},"geometry":{"x":168604.48000000138,"y":2543165}},{"attributes":{"ID":505933,"DIS_CODE":0,"TOWNNAME":"中西區","LI":"郡王里","LIN":"15鄰","STREET":"建業街","SECT":" ","MAREA":" ","LANE":" ","ALLEY":" ","HOUSE_NO":"３８號之１三樓","E_COORD97":168604.48000000001,"N_COORD97":2543165,"ADDRESS":"建業街３８號之１三樓","OBJECTID":505906},"geometry":{"x":168604.48000000138,"y":2543165}},{"attributes":{"ID":505934,"DIS_CODE":0,"TOWNNAME":"中西區","LI":"郡王里","LIN":"15鄰","STREET":"建業街","SECT":" ","MAREA":" ","LANE":" ","ALLEY":" ","HOUSE_NO":"３８號之１五樓","E_COORD97":168604.48000000001,"N_COORD97":2543165,"ADDRESS":"建業街３８號之１五樓","OBJECTID":505907},"geometry":{"x":168604.48000000138,"y":2543165}},{"attributes":{"ID":505935,"DIS_CODE":0,"TOWNNAME":"中西區","LI":"郡王里","LIN":"15鄰","STREET":"建業街","SECT":" ","MAREA":" ","LANE":" ","ALLEY":" ","HOUSE_NO":"３８號之１六樓","E_COORD97":168604.48000000001,"N_COORD97":2543165,"ADDRESS":"建業街３８號之１六樓","OBJECTID":505908},"geometry":{"x":168604.48000000138,"y":2543165}},{"attributes":{"ID":505936,"DIS_CODE":0,"TOWNNAME":"中西區","LI":"郡王里","LIN":"15鄰","STREET":"建業街","SECT":" ","MAREA":" ","LANE":" ","ALLEY":" ","HOUSE_NO":"３８號之１四樓","E_COORD97":168604.48000000001,"N_COORD97":2543165,"ADDRESS":"建業街３８號之１四樓","OBJECTID":505909},"geometry":{"x":168604.48000000138,"y":2543165}},{"attributes":{"ID":505937,"DIS_CODE":0,"TOWNNAME":"中西區","LI":"郡王里","LIN":"15鄰","STREET":"建業街","SECT":" ","MAREA":" ","LANE":" ","ALLEY":" ","HOUSE_NO":"３８號五樓","E_COORD97":168616.32999999999,"N_COORD97":2543165.8900000001,"ADDRESS":"建業街３８號五樓","OBJECTID":505910},"geometry":{"x":168616.33000000194,"y":2543165.8900000025}},{"attributes":{"ID":505938,"DIS_CODE":0,"TOWNNAME":"中西區","LI":"郡王里","LIN":"15鄰","STREET":"建業街","SECT":" ","MAREA":" ","LANE":" ","ALLEY":" ","HOUSE_NO":"３８號六樓","E_COORD97":168616.32999999999,"N_COORD97":2543165.8900000001,"ADDRESS":"建業街３８號六樓","OBJECTID":505911},"geometry":{"x":168616.33000000194,"y":2543165.8900000025}},{"attributes":{"ID":505939,"DIS_CODE":0,"TOWNNAME":"中西區","LI":"郡王里","LIN":"15鄰","STREET":"建業街","SECT":" ","MAREA":" ","LANE":" ","ALLEY":" ","HOUSE_NO":"３８號四樓","E_COORD97":168616.32999999999,"N_COORD97":2543165.8900000001,"ADDRESS":"建業街３８號四樓","OBJECTID":505912},"geometry":{"x":168616.33000000194,"y":2543165.8900000025}},{"attributes":{"ID":505940,"DIS_CODE":0,"TOWNNAME":"永康區","LI":"復華里","LIN":"15鄰","STREET":"復國一路","SECT":" ","MAREA":" ","LANE":" ","ALLEY":" ","HOUSE_NO":"３８２號","E_COORD97":172782.32000000001,"N_COORD97":2545873.8799999999,"ADDRESS":"復國一路３８２號","OBJECTID":505913},"geometry":{"x":172782.32000000123,"y":2545873.879999999}},{"attributes":{"ID":505941,"DIS_CODE":0,"TOWNNAME":"永康區","LI":"復國里","LIN":"15鄰","STREET":"復國二路","SECT":" ","MAREA":" ","LANE":" ","ALLEY":" ","HOUSE_NO":"１３５號","E_COORD97":172891.44,"N_COORD97":2545637.02,"ADDRESS":"復國二路１３５號","OBJECTID":505914},"geometry":{"x":172891.44000000134,"y":2545637.0199999996}},{"attributes":{"ID":505942,"DIS_CODE":0,"TOWNNAME":"永康區","LI":"龍潭里","LIN":"15鄰","STREET":"龍橋街","SECT":" ","MAREA":" ","LANE":" ","ALLEY":" ","HOUSE_NO":"１２號","E_COORD97":174884.29999999999,"N_COORD97":2548307.23,"ADDRESS":"龍橋街１２號","OBJECTID":505915},"geometry":{"x":174884.29999999981,"y":2548307.2300000004}},{"attributes":{"ID":505943,"DIS_CODE":0,"TOWNNAME":"永康區","LI":"復華里","LIN":"15鄰","STREET":"復國一路","SECT":" ","MAREA":" ","LANE":" ","ALLEY":" ","HOUSE_NO":"４３４號","E_COORD97":172725.42999999999,"N_COORD97":2546019.5299999998,"ADDRESS":"復國一路４３４號","OBJECTID":505916},"geometry":{"x":172725.4299999997,"y":2546019.5299999993}},{"attributes":{"ID":505944,"DIS_CODE":0,"TOWNNAME":"永康區","LI":"復華里","LIN":"15鄰","STREET":"復華六街","SECT":" ","MAREA":" ","LANE":" ","ALLEY":" ","HOUSE_NO":"４８號","E_COORD97":172807.60999999999,"N_COORD97":2545851.6899999999,"ADDRESS":"復華六街４８號","OBJECTID":505917},"geometry":{"x":172807.61000000127,"y":2545851.6899999995}},{"attributes":{"ID":505945,"DIS_CODE":0,"TOWNNAME":"東區","LI":"泉南里","LIN":"15鄰","STREET":"府連東路","SECT":" ","MAREA":" ","LANE":" ","ALLEY":" ","HOUSE_NO":"４１號","E_COORD97":169813.59,"N_COORD97":2542769.3900000001,"ADDRESS":"府連東路４１號","OBJECTID":505918},"geometry":{"x":169813.59000000078,"y":2542769.3900000025}},{"attributes":{"ID":505946,"DIS_CODE":0,"TOWNNAME":"永康區","LI":"大橋里","LIN":"15鄰","STREET":"大橋二街","SECT":" ","MAREA":" ","LANE":" ","ALLEY":" ","HOUSE_NO":"３８號","E_COORD97":170810.39999999999,"N_COORD97":2546573.8100000001,"ADDRESS":"大橋二街３８號","OBJECTID":505919},"geometry":{"x":170810.4000000013,"y":2546573.8100000024}},{"attributes":{"ID":505947,"DIS_CODE":0,"TOWNNAME":"安平區","LI":"億載里","LIN":"13鄰","STREET":"光州五街","SECT":" ","MAREA":" ","LANE":" ","ALLEY":" ","HOUSE_NO":"３１號","E_COORD97":163982.10999999999,"N_COORD97":2543309.1899999999,"ADDRESS":"光州五街３１號","OBJECTID":505920},"geometry":{"x":163982.11000000127,"y":2543309.1899999995}},{"attributes":{"ID":505948,"DIS_CODE":0,"TOWNNAME":"安平區","LI":"億載里","LIN":"13鄰","STREET":"光州五街","SECT":" ","MAREA":" ","LANE":" ","ALLEY":" ","HOUSE_NO":"３５號","E_COORD97":163991.85000000001,"N_COORD97":2543306.6699999999,"ADDRESS":"光州五街３５號","OBJECTID":505921},"geometry":{"x":163991.85000000056,"y":2543306.6699999999}},{"attributes":{"ID":505949,"DIS_CODE":0,"TOWNNAME":"安平區","LI":"億載里","LIN":"13鄰","STREET":"光州五街","SECT":" ","MAREA":" ","LANE":" ","ALLEY":" ","HOUSE_NO":"３號","E_COORD97":163916.85000000001,"N_COORD97":2543307.3900000001,"ADDRESS":"光州五街３號","OBJECTID":505922},"geometry":{"x":163916.85000000056,"y":2543307.3900000025}},{"attributes":{"ID":505950,"DIS_CODE":0,"TOWNNAME":"安平區","LI":"億載里","LIN":"13鄰","STREET":"光州五街","SECT":" ","MAREA":" ","LANE":" ","ALLEY":" ","HOUSE_NO":"７０號","E_COORD97":164118.87,"N_COORD97":2543298.5099999998,"ADDRESS":"光州五街７０號","OBJECTID":505923},"geometry":{"x":164118.87000000104,"y":2543298.5100000035}},{"attributes":{"ID":505951,"DIS_CODE":0,"TOWNNAME":"安平區","LI":"億載里","LIN":"13鄰","STREET":"光州五街","SECT":" ","MAREA":" ","LANE":" ","ALLEY":" ","HOUSE_NO":"８０號","E_COORD97":164133.35999999999,"N_COORD97":2543299.7200000002,"ADDRESS":"光州五街８０號","OBJECTID":505924},"geometry":{"x":164133.36000000127,"y":2543299.7200000007}},{"attributes":{"ID":505952,"DIS_CODE":0,"TOWNNAME":"安平區","LI":"億載里","LIN":"13鄰","STREET":"光州五街","SECT":" ","MAREA":" ","LANE":" ","ALLEY":" ","HOUSE_NO":"９５號","E_COORD97":164140.47,"N_COORD97":2543313.8599999999,"ADDRESS":"光州五街９５號","OBJECTID":505925},"geometry":{"x":164140.47000000067,"y":2543313.8600000013}},{"attributes":{"ID":505953,"DIS_CODE":0,"TOWNNAME":"安平區","LI":"億載里","LIN":"13鄰","STREET":"光州路","SECT":" ","MAREA":" ","LANE":" ","ALLEY":" ","HOUSE_NO":"８８號","E_COORD97":163921.54000000001,"N_COORD97":2543285.7799999998,"ADDRESS":"光州路８８號","OBJECTID":505926},"geometry":{"x":163921.54000000097,"y":2543285.7799999975}},{"attributes":{"ID":505954,"DIS_CODE":0,"TOWNNAME":"安平區","LI":"億載里","LIN":"13鄰","STREET":"健康四街","SECT":" ","MAREA":" ","LANE":" ","ALLEY":" ","HOUSE_NO":"１１７號","E_COORD97":164158.57999999999,"N_COORD97":2543315.6699999999,"ADDRESS":"健康四街１１７號","OBJECTID":505927},"geometry":{"x":164158.58000000101,"y":2543315.6700000018}},{"attributes":{"ID":505955,"DIS_CODE":0,"TOWNNAME":"安平區","LI":"億載里","LIN":"13鄰","STREET":"健康四街","SECT":" ","MAREA":" ","LANE":" ","ALLEY":" ","HOUSE_NO":"１１９號","E_COORD97":164160.09,"N_COORD97":2543323.21,"ADDRESS":"健康四街１１９號","OBJECTID":505928},"geometry":{"x":164160.09000000078,"y":2543323.2100000028}},{"attributes":{"ID":505956,"DIS_CODE":0,"TOWNNAME":"永康區","LI":"二王里","LIN":"15鄰","STREET":"忠孝路","SECT":" ","MAREA":" ","LANE":" ","ALLEY":" ","HOUSE_NO":"４６０號","E_COORD97":172491.84,"N_COORD97":2546644.02,"ADDRESS":"忠孝路４６０號","OBJECTID":505929},"geometry":{"x":172491.84000000078,"y":2546644.0199999996}},{"attributes":{"ID":505957,"DIS_CODE":0,"TOWNNAME":"永康區","LI":"三合里","LIN":"15鄰","STREET":"南工街","SECT":" ","MAREA":" ","LANE":" ","ALLEY":" ","HOUSE_NO":"２３３號","E_COORD97":172011.16,"N_COORD97":2545944.9900000002,"ADDRESS":"南工街２３３號","OBJECTID":505930},"geometry":{"x":172011.15999999922,"y":2545944.9900000021}},{"attributes":{"ID":505958,"DIS_CODE":0,"TOWNNAME":"永康區","LI":"大橋里","LIN":"15鄰","STREET":"大橋二街","SECT":" ","MAREA":" ","LANE":" ","ALLEY":" ","HOUSE_NO":"５４號","E_COORD97":170837.76000000001,"N_COORD97":2546604.8100000001,"ADDRESS":"大橋二街５４號","OBJECTID":505931},"geometry":{"x":170837.76000000071,"y":2546604.8100000005}},{"attributes":{"ID":505959,"DIS_CODE":0,"TOWNNAME":"永康區","LI":"大橋里","LIN":"15鄰","STREET":"大橋二街","SECT":" ","MAREA":" ","LANE":" ","ALLEY":" ","HOUSE_NO":"６０號","E_COORD97":170850.35999999999,"N_COORD97":2546614.5699999998,"ADDRESS":"大橋二街６０號","OBJECTID":505932},"geometry":{"x":170850.36000000034,"y":2546614.570000004}},{"attributes":{"ID":505960,"DIS_CODE":0,"TOWNNAME":"仁德區","LI":"太子里","LIN":"15鄰","STREET":"太子北路","SECT":" ","MAREA":" ","LANE":" ","ALLEY":" ","HOUSE_NO":"１１６號","E_COORD97":174085.63,"N_COORD97":2543676.25,"ADDRESS":"太子北路１１６號","OBJECTID":505933},"geometry":{"x":174085.62999999989,"y":2543676.25}},{"attributes":{"ID":505961,"DIS_CODE":0,"TOWNNAME":"仁德區","LI":"保安里","LIN":"15鄰","STREET":"文賢路","SECT":"二段","MAREA":" ","LANE":" ","ALLEY":" ","HOUSE_NO":"２６號","E_COORD97":171725.89999999999,"N_COORD97":2535809.3199999998,"ADDRESS":"文賢路二段２６號","OBJECTID":505934},"geometry":{"x":171725.9000000013,"y":2535809.3200000003}},{"attributes":{"ID":505962,"DIS_CODE":0,"TOWNNAME":"仁德區","LI":"保安里","LIN":"15鄰","STREET":"文賢路","SECT":"二段","MAREA":" ","LANE":" ","ALLEY":" ","HOUSE_NO":"８號","E_COORD97":171685.85000000001,"N_COORD97":2535838.5699999998,"ADDRESS":"文賢路二段８號","OBJECTID":505935},"geometry":{"x":171685.85000000056,"y":2535838.5700000003}},{"attributes":{"ID":505963,"DIS_CODE":0,"TOWNNAME":"仁德區","LI":"仁德里","LIN":"15鄰","STREET":"中山路","SECT":" ","MAREA":" ","LANE":" ","ALLEY":" ","HOUSE_NO":"６５５號","E_COORD97":173188.89999999999,"N_COORD97":2541334,"ADDRESS":"中山路６５５號","OBJECTID":505936},"geometry":{"x":173188.9000000013,"y":2541334}},{"attributes":{"ID":505964,"DIS_CODE":0,"TOWNNAME":"仁德區","LI":"保安里","LIN":"15鄰","STREET":"文賢路","SECT":"二段","MAREA":" ","LANE":" ","ALLEY":" ","HOUSE_NO":"３２號","E_COORD97":171735.60000000001,"N_COORD97":2535801.8199999998,"ADDRESS":"文賢路二段３２號","OBJECTID":505937},"geometry":{"x":171735.60000000056,"y":2535801.8200000022}},{"attributes":{"ID":505965,"DIS_CODE":0,"TOWNNAME":"仁德區","LI":"保安里","LIN":"15鄰","STREET":"文賢路","SECT":"二段","MAREA":" ","LANE":" ","ALLEY":" ","HOUSE_NO":"２０號","E_COORD97":171714.32000000001,"N_COORD97":2535819.0699999998,"ADDRESS":"文賢路二段２０號","OBJECTID":505938},"geometry":{"x":171714.32000000123,"y":2535819.0700000003}},{"attributes":{"ID":505966,"DIS_CODE":0,"TOWNNAME":"仁德區","LI":"仁德里","LIN":"15鄰","STREET":"中山路","SECT":" ","MAREA":" ","LANE":" ","ALLEY":" ","HOUSE_NO":"６４３號","E_COORD97":173213.95000000001,"N_COORD97":2541327.4900000002,"ADDRESS":"中山路６４３號","OBJECTID":505939},"geometry":{"x":173213.95000000019,"y":2541327.4900000021}},{"attributes":{"ID":505967,"DIS_CODE":0,"TOWNNAME":"仁德區","LI":"仁德里","LIN":"15鄰","STREET":"中山路","SECT":" ","MAREA":" ","LANE":" ","ALLEY":" ","HOUSE_NO":"６３３號","E_COORD97":173235.10000000001,"N_COORD97":2541324.2400000002,"ADDRESS":"中山路６３３號","OBJECTID":505940},"geometry":{"x":173235.10000000149,"y":2541324.2400000039}},{"attributes":{"ID":505968,"DIS_CODE":0,"TOWNNAME":"東區","LI":"崇善里","LIN":"15鄰","STREET":"崇善十一街","SECT":" ","MAREA":" ","LANE":" ","ALLEY":" ","HOUSE_NO":"６９號之３","E_COORD97":171294.73999999999,"N_COORD97":2541277.5299999998,"ADDRESS":"崇善十一街６９號之３","OBJECTID":505941},"geometry":{"x":171294.74000000022,"y":2541277.5300000012}},{"attributes":{"ID":505969,"DIS_CODE":0,"TOWNNAME":"東區","LI":"崇善里","LIN":"15鄰","STREET":"崇善十一街","SECT":" ","MAREA":" ","LANE":" ","ALLEY":" ","HOUSE_NO":"７１號","E_COORD97":171307.69,"N_COORD97":2541284.5,"ADDRESS":"崇善十一街７１號","OBJECTID":505942},"geometry":{"x":171307.69000000041,"y":2541284.5}},{"attributes":{"ID":505970,"DIS_CODE":0,"TOWNNAME":"東區","LI":"崇善里","LIN":"15鄰","STREET":"崇善十一街","SECT":" ","MAREA":" ","LANE":" ","ALLEY":" ","HOUSE_NO":"７３號","E_COORD97":171314.66,"N_COORD97":2541288.48,"ADDRESS":"崇善十一街７３號","OBJECTID":505943},"geometry":{"x":171314.66000000201,"y":2541288.4800000004}},{"attributes":{"ID":505971,"DIS_CODE":0,"TOWNNAME":"東區","LI":"崇善里","LIN":"15鄰","STREET":"崇善十一街","SECT":" ","MAREA":" ","LANE":" ","ALLEY":" ","HOUSE_NO":"７５號","E_COORD97":171319.97,"N_COORD97":2541290.7999999998,"ADDRESS":"崇善十一街７５號","OBJECTID":505944},"geometry":{"x":171319.96999999974,"y":2541290.8000000026}},{"attributes":{"ID":505972,"DIS_CODE":0,"TOWNNAME":"東區","LI":"崇善里","LIN":"15鄰","STREET":"崇善十一街","SECT":" ","MAREA":" ","LANE":" ","ALLEY":" ","HOUSE_NO":"７７號","E_COORD97":171323.62,"N_COORD97":2541292.46,"ADDRESS":"崇善十一街７７號","OBJECTID":505945},"geometry":{"x":171323.62000000104,"y":2541292.4600000009}},{"attributes":{"ID":505973,"DIS_CODE":0,"TOWNNAME":"東區","LI":"崇善里","LIN":"15鄰","STREET":"崇善十一街","SECT":" ","MAREA":" ","LANE":" ","ALLEY":" ","HOUSE_NO":"７９號","E_COORD97":171328.60000000001,"N_COORD97":2541295.1099999999,"ADDRESS":"崇善十一街７９號","OBJECTID":505946},"geometry":{"x":171328.60000000056,"y":2541295.1100000013}},{"attributes":{"ID":505974,"DIS_CODE":0,"TOWNNAME":"東區","LI":"崇善里","LIN":"15鄰","STREET":"崇善十一街","SECT":" ","MAREA":" ","LANE":" ","ALLEY":" ","HOUSE_NO":"７號","E_COORD97":171157.23999999999,"N_COORD97":2541193.2200000002,"ADDRESS":"崇善十一街７號","OBJECTID":505947},"geometry":{"x":171157.24000000115,"y":2541193.2200000025}},{"attributes":{"ID":505975,"DIS_CODE":0,"TOWNNAME":"東區","LI":"崇善里","LIN":"15鄰","STREET":"崇善十一街","SECT":" ","MAREA":" ","LANE":" ","ALLEY":" ","HOUSE_NO":"９號","E_COORD97":171162.12,"N_COORD97":2541195.6600000001,"ADDRESS":"崇善十一街９號","OBJECTID":505948},"geometry":{"x":171162.11999999918,"y":2541195.6600000039}},{"attributes":{"ID":505976,"DIS_CODE":0,"TOWNNAME":"東區","LI":"崇善里","LIN":"15鄰","STREET":"崇善路","SECT":" ","MAREA":" ","LANE":" ","ALLEY":" ","HOUSE_NO":"６８７號","E_COORD97":171135.39000000001,"N_COORD97":2541155.9700000002,"ADDRESS":"崇善路６８７號","OBJECTID":505949},"geometry":{"x":171135.38999999966,"y":2541155.9700000007}},{"attributes":{"ID":505977,"DIS_CODE":0,"TOWNNAME":"安平區","LI":"建平里","LIN":"3鄰","STREET":"慶平路","SECT":" ","MAREA":" ","LANE":" ","ALLEY":" ","HOUSE_NO":"４９號","E_COORD97":166281.25,"N_COORD97":2544157.6099999999,"ADDRESS":"慶平路４９號","OBJECTID":505950},"geometry":{"x":166281.25000000093,"y":2544157.6099999994}},{"attributes":{"ID":505978,"DIS_CODE":0,"TOWNNAME":"永康區","LI":"三合里","LIN":"15鄰","STREET":"南工街","SECT":" ","MAREA":" ","LANE":" ","ALLEY":" ","HOUSE_NO":"２２７號","E_COORD97":172023.89999999999,"N_COORD97":2545943.2400000002,"ADDRESS":"南工街２２７號","OBJECTID":505951},"geometry":{"x":172023.9000000013,"y":2545943.2400000021}},{"attributes":{"ID":505979,"DIS_CODE":0,"TOWNNAME":"永康區","LI":"王行里","LIN":"15鄰","STREET":"龍昌街","SECT":" ","MAREA":" ","LANE":" ","ALLEY":" ","HOUSE_NO":"９３號","E_COORD97":174962.06,"N_COORD97":2548143.3199999998,"ADDRESS":"龍昌街９３號","OBJECTID":505952},"geometry":{"x":174962.05999999959,"y":2548143.3200000022}},{"attributes":{"ID":505980,"DIS_CODE":0,"TOWNNAME":"永康區","LI":"復國里","LIN":"15鄰","STREET":"復華五街","SECT":" ","MAREA":" ","LANE":" ","ALLEY":" ","HOUSE_NO":"１號","E_COORD97":172895.98000000001,"N_COORD97":2545689.8100000001,"ADDRESS":"復華五街１號","OBJECTID":505953},"geometry":{"x":172895.98000000231,"y":2545689.8100000005}},{"attributes":{"ID":505981,"DIS_CODE":0,"TOWNNAME":"永康區","LI":"復國里","LIN":"15鄰","STREET":"復國二路","SECT":" ","MAREA":" ","LANE":" ","ALLEY":" ","HOUSE_NO":"１７１號","E_COORD97":172922.70000000001,"N_COORD97":2545781.02,"ADDRESS":"復國二路１７１號","OBJECTID":505954},"geometry":{"x":172922.70000000019,"y":2545781.0200000014}},{"attributes":{"ID":505982,"DIS_CODE":0,"TOWNNAME":"永康區","LI":"復華里","LIN":"15鄰","STREET":"復華六街","SECT":" ","MAREA":" ","LANE":" ","ALLEY":" ","HOUSE_NO":"３４號","E_COORD97":172833.59,"N_COORD97":2545850.6899999999,"ADDRESS":"復華六街３４號","OBJECTID":505955},"geometry":{"x":172833.59000000171,"y":2545850.6900000013}},{"attributes":{"ID":505983,"DIS_CODE":0,"TOWNNAME":"永康區","LI":"復華里","LIN":"15鄰","STREET":"復華六街","SECT":" ","MAREA":" ","LANE":" ","ALLEY":" ","HOUSE_NO":"３２號","E_COORD97":172837.54000000001,"N_COORD97":2545850.6899999999,"ADDRESS":"復華六街３２號","OBJECTID":505956},"geometry":{"x":172837.5400000019,"y":2545850.6900000013}},{"attributes":{"ID":505984,"DIS_CODE":0,"TOWNNAME":"永康區","LI":"復華里","LIN":"15鄰","STREET":"復華六街","SECT":" ","MAREA":" ","LANE":" ","ALLEY":" ","HOUSE_NO":"３８號","E_COORD97":172824.14000000001,"N_COORD97":2545850.9399999999,"ADDRESS":"復華六街３８號","OBJECTID":505957},"geometry":{"x":172824.13999999966,"y":2545850.9399999995}},{"attributes":{"ID":505985,"DIS_CODE":0,"TOWNNAME":"永康區","LI":"復華里","LIN":"15鄰","STREET":"復華六街","SECT":" ","MAREA":" ","LANE":" ","ALLEY":" ","HOUSE_NO":"５２號","E_COORD97":172798.42000000001,"N_COORD97":2545851.9399999999,"ADDRESS":"復華六街５２號","OBJECTID":505958},"geometry":{"x":172798.41999999993,"y":2545851.9400000013}},{"attributes":{"ID":505986,"DIS_CODE":0,"TOWNNAME":"永康區","LI":"勝利里","LIN":"15鄰","STREET":"勝利街","SECT":" ","MAREA":" ","LANE":" ","ALLEY":" ","HOUSE_NO":"１０５號","E_COORD97":171346.45999999999,"N_COORD97":2544885.7599999998,"ADDRESS":"勝利街１０５號","OBJECTID":505959},"geometry":{"x":171346.46000000089,"y":2544885.7599999998}},{"attributes":{"ID":505987,"DIS_CODE":0,"TOWNNAME":"永康區","LI":"埔園里","LIN":"15鄰","STREET":"龍埔街","SECT":" ","MAREA":" ","LANE":" ","ALLEY":" ","HOUSE_NO":"５３０號","E_COORD97":173576.20000000001,"N_COORD97":2548382.1000000001,"ADDRESS":"龍埔街５３０號","OBJECTID":505960},"geometry":{"x":173576.20000000112,"y":2548382.0999999996}},{"attributes":{"ID":505988,"DIS_CODE":0,"TOWNNAME":"永康區","LI":"埔園里","LIN":"15鄰","STREET":"中山路","SECT":" ","MAREA":" ","LANE":" ","ALLEY":" ","HOUSE_NO":"３４３號","E_COORD97":173586.34,"N_COORD97":2548433.9900000002,"ADDRESS":"中山路３４３號","OBJECTID":505961},"geometry":{"x":173586.34000000171,"y":2548433.9900000002}},{"attributes":{"ID":505989,"DIS_CODE":0,"TOWNNAME":"官田區","LI":"隆田里","LIN":"15鄰","STREET":"勝利路","SECT":" ","MAREA":" ","LANE":" ","ALLEY":" ","HOUSE_NO":"１６７號","E_COORD97":180224.20000000001,"N_COORD97":2566201.4500000002,"ADDRESS":"勝利路１６７號","OBJECTID":505962},"geometry":{"x":180224.20000000205,"y":2566201.4500000011}},{"attributes":{"ID":505990,"DIS_CODE":0,"TOWNNAME":"官田區","LI":"隆田里","LIN":"15鄰","STREET":"勝利路","SECT":" ","MAREA":" ","LANE":" ","ALLEY":" ","HOUSE_NO":"１６９號","E_COORD97":180244.04999999999,"N_COORD97":2566219.48,"ADDRESS":"勝利路１６９號","OBJECTID":505963},"geometry":{"x":180244.05000000075,"y":2566219.4800000023}},{"attributes":{"ID":505991,"DIS_CODE":0,"TOWNNAME":"官田區","LI":"隆田里","LIN":"15鄰","STREET":"勝利路","SECT":" ","MAREA":" ","LANE":" ","ALLEY":" ","HOUSE_NO":"１７３號","E_COORD97":180204.17000000001,"N_COORD97":2566258.4300000002,"ADDRESS":"勝利路１７３號","OBJECTID":505964},"geometry":{"x":180204.17000000086,"y":2566258.4300000034}},{"attributes":{"ID":505992,"DIS_CODE":0,"TOWNNAME":"白河區","LI":"永安里","LIN":"15鄰","STREET":"大德街","SECT":" ","MAREA":" ","LANE":" ","ALLEY":" ","HOUSE_NO":"１００號","E_COORD97":189941.73999999999,"N_COORD97":2583661.5800000001,"ADDRESS":"大德街１００號","OBJECTID":505965},"geometry":{"x":189941.74000000022,"y":2583661.5800000019}},{"attributes":{"ID":505993,"DIS_CODE":0,"TOWNNAME":"白河區","LI":"永安里","LIN":"15鄰","STREET":"大德街","SECT":" ","MAREA":" ","LANE":" ","ALLEY":" ","HOUSE_NO":"１０２號","E_COORD97":189941.92000000001,"N_COORD97":2583666.21,"ADDRESS":"大德街１０２號","OBJECTID":505966},"geometry":{"x":189941.91999999993,"y":2583666.2100000009}},{"attributes":{"ID":505994,"DIS_CODE":0,"TOWNNAME":"安平區","LI":"平通里","LIN":"7鄰","STREET":"慶平路","SECT":" ","MAREA":" ","LANE":" ","ALLEY":" ","HOUSE_NO":"５５７號","E_COORD97":164963.12,"N_COORD97":2544233.21,"ADDRESS":"慶平路５５７號","OBJECTID":505967},"geometry":{"x":164963.12000000104,"y":2544233.2100000009}},{"attributes":{"ID":505995,"DIS_CODE":0,"TOWNNAME":"安平區","LI":"平通里","LIN":"7鄰","STREET":"慶平路","SECT":" ","MAREA":" ","LANE":" ","ALLEY":" ","HOUSE_NO":"５５７號地下二層","E_COORD97":164963.12,"N_COORD97":2544233.21,"ADDRESS":"慶平路５５７號地下二層","OBJECTID":505968},"geometry":{"x":164963.12000000104,"y":2544233.2100000009}},{"attributes":{"ID":505996,"DIS_CODE":0,"TOWNNAME":"白河區","LI":"永安里","LIN":"15鄰","STREET":"大德街","SECT":" ","MAREA":" ","LANE":" ","ALLEY":" ","HOUSE_NO":"１５０號","E_COORD97":189958.91,"N_COORD97":2583810.4399999999,"ADDRESS":"大德街１５０號","OBJECTID":505969},"geometry":{"x":189958.91000000108,"y":2583810.4400000032}},{"attributes":{"ID":505997,"DIS_CODE":0,"TOWNNAME":"白河區","LI":"永安里","LIN":"15鄰","STREET":"大德街","SECT":" ","MAREA":" ","LANE":" ","ALLEY":" ","HOUSE_NO":"１號","E_COORD97":189907.42999999999,"N_COORD97":2583485.7200000002,"ADDRESS":"大德街１號","OBJECTID":505970},"geometry":{"x":189907.43000000063,"y":2583485.7200000025}},{"attributes":{"ID":505998,"DIS_CODE":0,"TOWNNAME":"白河區","LI":"永安里","LIN":"15鄰","STREET":"大德街","SECT":" ","MAREA":" ","LANE":" ","ALLEY":" ","HOUSE_NO":"２３號","E_COORD97":189881.29999999999,"N_COORD97":2583516.4500000002,"ADDRESS":"大德街２３號","OBJECTID":505971},"geometry":{"x":189881.30000000075,"y":2583516.4500000011}},{"attributes":{"ID":505999,"DIS_CODE":0,"TOWNNAME":"白河區","LI":"永安里","LIN":"15鄰","STREET":"大德街","SECT":" ","MAREA":" ","LANE":" ","ALLEY":" ","HOUSE_NO":"３３號","E_COORD97":189895.06,"N_COORD97":2583562.3799999999,"ADDRESS":"大德街３３號","OBJECTID":505972},"geometry":{"x":189895.05999999959,"y":2583562.3799999971}},{"attributes":{"ID":506000,"DIS_CODE":0,"TOWNNAME":"白河區","LI":"永安里","LIN":"15鄰","STREET":"大德街","SECT":" ","MAREA":" ","LANE":" ","ALLEY":" ","HOUSE_NO":"６號","E_COORD97":189946.03,"N_COORD97":2583515.2999999998,"ADDRESS":"大德街６號","OBJECTID":505973},"geometry":{"x":189946.03000000119,"y":2583515.3000000026}},{"attributes":{"ID":506001,"DIS_CODE":0,"TOWNNAME":"白河區","LI":"永安里","LIN":"15鄰","STREET":"大德街","SECT":" ","MAREA":" ","LANE":" ","ALLEY":" ","HOUSE_NO":"８８號","E_COORD97":189974.09,"N_COORD97":2583635.5899999999,"ADDRESS":"大德街８８號","OBJECTID":505974},"geometry":{"x":189974.09000000078,"y":2583635.5899999999}},{"attributes":{"ID":506002,"DIS_CODE":0,"TOWNNAME":"白河區","LI":"永安里","LIN":"15鄰","STREET":"大德街","SECT":" ","MAREA":" ","LANE":" ","ALLEY":" ","HOUSE_NO":"８號","E_COORD97":189946.03,"N_COORD97":2583525.0099999998,"ADDRESS":"大德街８號","OBJECTID":505975},"geometry":{"x":189946.03000000119,"y":2583525.0099999979}},{"attributes":{"ID":506003,"DIS_CODE":0,"TOWNNAME":"白河區","LI":"永安里","LIN":"15鄰","STREET":"大德街","SECT":" ","MAREA":" ","LANE":" ","ALLEY":" ","HOUSE_NO":"９２號","E_COORD97":189944.16,"N_COORD97":2583644.9700000002,"ADDRESS":"大德街９２號","OBJECTID":505976},"geometry":{"x":189944.16000000015,"y":2583644.9699999988}},{"attributes":{"ID":506004,"DIS_CODE":0,"TOWNNAME":"白河區","LI":"永安里","LIN":"15鄰","STREET":"大德街","SECT":" ","MAREA":" ","LANE":" ","ALLEY":" ","HOUSE_NO":"９４號","E_COORD97":189942.12,"N_COORD97":2583648.4100000001,"ADDRESS":"大德街９４號","OBJECTID":505977},"geometry":{"x":189942.12000000104,"y":2583648.4100000039}},{"attributes":{"ID":506005,"DIS_CODE":0,"TOWNNAME":"中西區","LI":"藥王里","LIN":"15鄰","STREET":"民權路","SECT":"三段","MAREA":" ","LANE":" ","ALLEY":" ","HOUSE_NO":"４４０號","E_COORD97":166758,"N_COORD97":2544417.0899999999,"ADDRESS":"民權路三段４４０號","OBJECTID":505978},"geometry":{"x":166758,"y":2544417.0900000017}},{"attributes":{"ID":506006,"DIS_CODE":0,"TOWNNAME":"中西區","LI":"藥王里","LIN":"15鄰","STREET":"民權路","SECT":"三段","MAREA":" ","LANE":" ","ALLEY":" ","HOUSE_NO":"４４６號","E_COORD97":166749.16,"N_COORD97":2544424.1600000001,"ADDRESS":"民權路三段４４６號","OBJECTID":505979},"geometry":{"x":166749.16000000015,"y":2544424.160000002}},{"attributes":{"ID":506007,"DIS_CODE":0,"TOWNNAME":"中西區","LI":"藥王里","LIN":"15鄰","STREET":"西和路","SECT":" ","MAREA":" ","LANE":" ","ALLEY":" ","HOUSE_NO":"２８號","E_COORD97":166752.26000000001,"N_COORD97":2544432.77,"ADDRESS":"西和路２８號","OBJECTID":505980},"geometry":{"x":166752.26000000071,"y":2544432.7700000014}},{"attributes":{"ID":506008,"DIS_CODE":0,"TOWNNAME":"中西區","LI":"藥王里","LIN":"15鄰","STREET":"西和路","SECT":" ","MAREA":" ","LANE":" ","ALLEY":" ","HOUSE_NO":"３０號","E_COORD97":166754.25,"N_COORD97":2544435.8599999999,"ADDRESS":"西和路３０號","OBJECTID":505981},"geometry":{"x":166754.25000000093,"y":2544435.8600000013}},{"attributes":{"ID":506009,"DIS_CODE":0,"TOWNNAME":"中西區","LI":"藥王里","LIN":"15鄰","STREET":"西和路","SECT":" ","MAREA":" ","LANE":" ","ALLEY":" ","HOUSE_NO":"３２號","E_COORD97":166757.56,"N_COORD97":2544440.5,"ADDRESS":"西和路３２號","OBJECTID":505982},"geometry":{"x":166757.55999999959,"y":2544440.5}},{"attributes":{"ID":506010,"DIS_CODE":0,"TOWNNAME":"安平區","LI":"平安里","LIN":" ","STREET":"安平路","SECT":" ","MAREA":" ","LANE":" ","ALLEY":" ","HOUSE_NO":"６６號","E_COORD97":166451.37,"N_COORD97":2544317.2599999998,"ADDRESS":"安平路６６號","OBJECTID":505983},"geometry":{"x":166451.37000000197,"y":2544317.2600000035}},{"attributes":{"ID":506011,"DIS_CODE":0,"TOWNNAME":"中西區","LI":"藥王里","LIN":"15鄰","STREET":"西和路","SECT":" ","MAREA":" ","LANE":" ","ALLEY":" ","HOUSE_NO":"３４號","E_COORD97":166761.54000000001,"N_COORD97":2544446.02,"ADDRESS":"西和路３４號","OBJECTID":505984},"geometry":{"x":166761.54000000004,"y":2544446.0199999996}},{"attributes":{"ID":506012,"DIS_CODE":0,"TOWNNAME":"中西區","LI":"藥王里","LIN":"15鄰","STREET":"西和路","SECT":" ","MAREA":" ","LANE":" ","ALLEY":" ","HOUSE_NO":"３６號","E_COORD97":166765.51000000001,"N_COORD97":2544450.6499999999,"ADDRESS":"西和路３６號","OBJECTID":505985},"geometry":{"x":166765.51000000071,"y":2544450.6499999985}},{"attributes":{"ID":506013,"DIS_CODE":0,"TOWNNAME":"中西區","LI":"藥王里","LIN":"15鄰","STREET":"西和路","SECT":" ","MAREA":" ","LANE":" ","ALLEY":" ","HOUSE_NO":"３８號","E_COORD97":166767.28,"N_COORD97":2544454.1899999999,"ADDRESS":"西和路３８號","OBJECTID":505986},"geometry":{"x":166767.27999999933,"y":2544454.1900000013}},{"attributes":{"ID":506014,"DIS_CODE":0,"TOWNNAME":"中西區","LI":"藥王里","LIN":"15鄰","STREET":"西和路","SECT":" ","MAREA":" ","LANE":" ","ALLEY":" ","HOUSE_NO":"４０號","E_COORD97":166769.92999999999,"N_COORD97":2544459.4900000002,"ADDRESS":"西和路４０號","OBJECTID":505987},"geometry":{"x":166769.93000000063,"y":2544459.4900000021}},{"attributes":{"ID":506015,"DIS_CODE":0,"TOWNNAME":"中西區","LI":"藥王里","LIN":"15鄰","STREET":"西和路","SECT":" ","MAREA":" ","LANE":" ","ALLEY":" ","HOUSE_NO":"４２號","E_COORD97":166772.59,"N_COORD97":2544463.02,"ADDRESS":"西和路４２號","OBJECTID":505988},"geometry":{"x":166772.58999999985,"y":2544463.0199999996}},{"attributes":{"ID":506016,"DIS_CODE":0,"TOWNNAME":"中西區","LI":"藥王里","LIN":"15鄰","STREET":"西和路","SECT":" ","MAREA":" ","LANE":" ","ALLEY":" ","HOUSE_NO":"４２號之１","E_COORD97":166778.54999999999,"N_COORD97":2544469.8599999999,"ADDRESS":"西和路４２號之１","OBJECTID":505989},"geometry":{"x":166778.54999999888,"y":2544469.8600000013}},{"attributes":{"ID":506017,"DIS_CODE":0,"TOWNNAME":"中西區","LI":"藥王里","LIN":"15鄰","STREET":"西和路","SECT":" ","MAREA":" ","LANE":" ","ALLEY":" ","HOUSE_NO":"４６號","E_COORD97":166781.87,"N_COORD97":2544474.2799999998,"ADDRESS":"西和路４６號","OBJECTID":505990},"geometry":{"x":166781.87000000197,"y":2544474.2799999993}},{"attributes":{"ID":506018,"DIS_CODE":0,"TOWNNAME":"中西區","LI":"藥王里","LIN":"15鄰","STREET":"西和路","SECT":" ","MAREA":" ","LANE":" ","ALLEY":" ","HOUSE_NO":"４８號","E_COORD97":166786.51000000001,"N_COORD97":2544478.7000000002,"ADDRESS":"西和路４８號","OBJECTID":505991},"geometry":{"x":166786.50999999978,"y":2544478.6999999993}},{"attributes":{"ID":506019,"DIS_CODE":0,"TOWNNAME":"中西區","LI":"藥王里","LIN":"15鄰","STREET":"西和路","SECT":" ","MAREA":" ","LANE":" ","ALLEY":" ","HOUSE_NO":"５０號","E_COORD97":166789.60000000001,"N_COORD97":2544483.7799999998,"ADDRESS":"西和路５０號","OBJECTID":505992},"geometry":{"x":166789.59999999963,"y":2544483.7800000012}},{"attributes":{"ID":506020,"DIS_CODE":0,"TOWNNAME":"中西區","LI":"藥王里","LIN":"15鄰","STREET":"西和路","SECT":" ","MAREA":" ","LANE":" ","ALLEY":" ","HOUSE_NO":"５２之１號","E_COORD97":166797.32999999999,"N_COORD97":2544494.3700000001,"ADDRESS":"西和路５２之１號","OBJECTID":505993},"geometry":{"x":166797.33000000194,"y":2544494.3700000048}},{"attributes":{"ID":506021,"DIS_CODE":0,"TOWNNAME":"中西區","LI":"藥王里","LIN":"15鄰","STREET":"西和路","SECT":" ","MAREA":" ","LANE":" ","ALLEY":" ","HOUSE_NO":"５２號","E_COORD97":166793.57999999999,"N_COORD97":2544489.0699999998,"ADDRESS":"西和路５２號","OBJECTID":505994},"geometry":{"x":166793.58000000007,"y":2544489.0700000022}},{"attributes":{"ID":506022,"DIS_CODE":0,"TOWNNAME":"中西區","LI":"藥王里","LIN":"15鄰","STREET":"西和路","SECT":" ","MAREA":" ","LANE":" ","ALLEY":" ","HOUSE_NO":"５６號","E_COORD97":166801.53,"N_COORD97":2544498.5699999998,"ADDRESS":"西和路５６號","OBJECTID":505995},"geometry":{"x":166801.53000000119,"y":2544498.5699999984}},{"attributes":{"ID":506023,"DIS_CODE":0,"TOWNNAME":"中西區","LI":"藥王里","LIN":"15鄰","STREET":"西和路","SECT":" ","MAREA":" ","LANE":" ","ALLEY":" ","HOUSE_NO":"５８號","E_COORD97":166806.39000000001,"N_COORD97":2544503.21,"ADDRESS":"西和路５８號","OBJECTID":505996},"geometry":{"x":166806.38999999966,"y":2544503.2100000028}},{"attributes":{"ID":506024,"DIS_CODE":0,"TOWNNAME":"中西區","LI":"藥王里","LIN":"15鄰","STREET":"西和路","SECT":" ","MAREA":" ","LANE":" ","ALLEY":" ","HOUSE_NO":"６２號","E_COORD97":166815.23000000001,"N_COORD97":2544511.8199999998,"ADDRESS":"西和路６２號","OBJECTID":505997},"geometry":{"x":166815.23000000045,"y":2544511.8200000022}},{"attributes":{"ID":506025,"DIS_CODE":0,"TOWNNAME":"中西區","LI":"藥王里","LIN":"15鄰","STREET":"西和路","SECT":" ","MAREA":" ","LANE":" ","ALLEY":" ","HOUSE_NO":"６４號","E_COORD97":166818.98999999999,"N_COORD97":2544516.6800000002,"ADDRESS":"西和路６４號","OBJECTID":505998},"geometry":{"x":166818.99000000115,"y":2544516.6799999997}},{"attributes":{"ID":506026,"DIS_CODE":0,"TOWNNAME":"中西區","LI":"藥王里","LIN":"15鄰","STREET":"西和路","SECT":" ","MAREA":" ","LANE":" ","ALLEY":" ","HOUSE_NO":"６６號","E_COORD97":166823.19,"N_COORD97":2544521.5299999998,"ADDRESS":"西和路６６號","OBJECTID":505999},"geometry":{"x":166823.19000000134,"y":2544521.5299999975}},{"attributes":{"ID":506027,"DIS_CODE":0,"TOWNNAME":"中西區","LI":"藥王里","LIN":"15鄰","STREET":"西和路","SECT":" ","MAREA":" ","LANE":" ","ALLEY":" ","HOUSE_NO":"８２號","E_COORD97":166827.16,"N_COORD97":2544527.27,"ADDRESS":"西和路８２號","OBJECTID":506000},"geometry":{"x":166827.16000000015,"y":2544527.2700000033}}]}