{"displayFieldName":"TOWNNAME","fieldAliases":{"ID":"ID","DIS_CODE":"DIS_CODE","TOWNNAME":"TOWNNAME","LI":"LI","LIN":"LIN","STREET":"STREET","SECT":"SECT","MAREA":"MAREA","LANE":"LANE","ALLEY":"ALLEY","HOUSE_NO":"HOUSE_NO","E_COORD97":"E_COORD97","N_COORD97":"N_COORD97","ADDRESS":"ADDRESS","OBJECTID":"OBJECTID"},"geometryType":"esriGeometryPoint","spatialReference":{"wkid":102443,"latestWkid":3826},"fields":[{"name":"ID","type":"esriFieldTypeDouble","alias":"ID"},{"name":"DIS_CODE","type":"esriFieldTypeInteger","alias":"DIS_CODE"},{"name":"TOWNNAME","type":"esriFieldTypeString","alias":"TOWNNAME","length":8},{"name":"LI","type":"esriFieldTypeString","alias":"LI","length":8},{"name":"LIN","type":"esriFieldTypeString","alias":"LIN","length":12},{"name":"STREET","type":"esriFieldTypeString","alias":"STREET","length":20},{"name":"SECT","type":"esriFieldTypeString","alias":"SECT","length":8},{"name":"MAREA","type":"esriFieldTypeString","alias":"MAREA","length":12},{"name":"LANE","type":"esriFieldTypeString","alias":"LANE","length":10},{"name":"ALLEY","type":"esriFieldTypeString","alias":"ALLEY","length":10},{"name":"HOUSE_NO","type":"esriFieldTypeString","alias":"HOUSE_NO","length":20},{"name":"E_COORD97","type":"esriFieldTypeDouble","alias":"E_COORD97"},{"name":"N_COORD97","type":"esriFieldTypeDouble","alias":"N_COORD97"},{"name":"ADDRESS","type":"esriFieldTypeString","alias":"ADDRESS","length":50},{"name":"OBJECTID","type":"esriFieldTypeOID","alias":"OBJECTID"}],"features":[{"attributes":{"ID":297809,"DIS_CODE":0,"TOWNNAME":"中西區","LI":"光賢里","LIN":"8鄰","STREET":"武聖路","SECT":" ","MAREA":" ","LANE":"６９巷","ALLEY":" ","HOUSE_NO":"１０７號","E_COORD97":167027.97,"N_COORD97":2544875.7599999998,"ADDRESS":"武聖路６９巷１０７號","OBJECTID":297801},"geometry":{"x":167027.96999999974,"y":2544875.7599999998}},{"attributes":{"ID":297810,"DIS_CODE":0,"TOWNNAME":"中西區","LI":"光賢里","LIN":"8鄰","STREET":"武聖路","SECT":" ","MAREA":" ","LANE":"６９巷","ALLEY":" ","HOUSE_NO":"１２１號","E_COORD97":167005.95999999999,"N_COORD97":2544848.8700000001,"ADDRESS":"武聖路６９巷１２１號","OBJECTID":297802},"geometry":{"x":167005.95999999996,"y":2544848.870000001}},{"attributes":{"ID":297811,"DIS_CODE":0,"TOWNNAME":"中西區","LI":"光賢里","LIN":"8鄰","STREET":"武聖路","SECT":" ","MAREA":" ","LANE":"６９巷","ALLEY":" ","HOUSE_NO":"１２３號","E_COORD97":167001.94,"N_COORD97":2544844.6400000001,"ADDRESS":"武聖路６９巷１２３號","OBJECTID":297803},"geometry":{"x":167001.94000000041,"y":2544844.6400000043}},{"attributes":{"ID":297812,"DIS_CODE":0,"TOWNNAME":"中西區","LI":"光賢里","LIN":"8鄰","STREET":"武聖路","SECT":" ","MAREA":" ","LANE":"６９巷","ALLEY":" ","HOUSE_NO":"１２５號","E_COORD97":166998.76000000001,"N_COORD97":2544841.8900000001,"ADDRESS":"武聖路６９巷１２５號","OBJECTID":297804},"geometry":{"x":166998.75999999978,"y":2544841.8900000006}},{"attributes":{"ID":297813,"DIS_CODE":0,"TOWNNAME":"中西區","LI":"光賢里","LIN":"8鄰","STREET":"武聖路","SECT":" ","MAREA":" ","LANE":"６９巷","ALLEY":" ","HOUSE_NO":"１２７號","E_COORD97":166994.32000000001,"N_COORD97":2544836.8100000001,"ADDRESS":"武聖路６９巷１２７號","OBJECTID":297805},"geometry":{"x":166994.32000000216,"y":2544836.8100000024}},{"attributes":{"ID":297814,"DIS_CODE":0,"TOWNNAME":"中西區","LI":"光賢里","LIN":"8鄰","STREET":"武聖路","SECT":" ","MAREA":" ","LANE":"６９巷","ALLEY":" ","HOUSE_NO":"１２９號","E_COORD97":166990.72,"N_COORD97":2544833.4199999999,"ADDRESS":"武聖路６９巷１２９號","OBJECTID":297806},"geometry":{"x":166990.71999999974,"y":2544833.4199999999}},{"attributes":{"ID":297815,"DIS_CODE":0,"TOWNNAME":"白河區","LI":"大林里","LIN":" ","STREET":" ","SECT":" ","MAREA":"杭內","LANE":" ","ALLEY":" ","HOUSE_NO":"９號","E_COORD97":195100.94,"N_COORD97":2580986.1200000001,"ADDRESS":"杭內９號","OBJECTID":297807},"geometry":{"x":195100.94000000041,"y":2580986.120000001}},{"attributes":{"ID":297816,"DIS_CODE":0,"TOWNNAME":"學甲區","LI":"中洲里","LIN":"25鄰","STREET":" ","SECT":" ","MAREA":"中洲","LANE":" ","ALLEY":" ","HOUSE_NO":"３２１號之１","E_COORD97":163809.885614,"N_COORD97":2571684.3767400002,"ADDRESS":"中洲３２１號之１","OBJECTID":297808},"geometry":{"x":163809.88561400026,"y":2571684.3767420035}},{"attributes":{"ID":297817,"DIS_CODE":0,"TOWNNAME":"麻豆區","LI":"大埕里","LIN":"9鄰","STREET":" ","SECT":" ","MAREA":"大埕","LANE":" ","ALLEY":" ","HOUSE_NO":"８３號之９三樓","E_COORD97":173114.07000000001,"N_COORD97":2565430.02,"ADDRESS":"大埕８３號之９三樓","OBJECTID":297809},"geometry":{"x":173114.07000000216,"y":2565430.0199999996}},{"attributes":{"ID":297818,"DIS_CODE":0,"TOWNNAME":"中西區","LI":"光賢里","LIN":"8鄰","STREET":"武聖路","SECT":" ","MAREA":" ","LANE":"６９巷","ALLEY":" ","HOUSE_NO":"１３３號","E_COORD97":166986.06,"N_COORD97":2544828.77,"ADDRESS":"武聖路６９巷１３３號","OBJECTID":297810},"geometry":{"x":166986.05999999959,"y":2544828.7700000033}},{"attributes":{"ID":297819,"DIS_CODE":0,"TOWNNAME":"永康區","LI":"大灣里","LIN":"8鄰","STREET":"民族路","SECT":" ","MAREA":" ","LANE":"３９６巷","ALLEY":" ","HOUSE_NO":"５２號","E_COORD97":174775.97,"N_COORD97":2545504.8599999999,"ADDRESS":"民族路３９６巷５２號","OBJECTID":297811},"geometry":{"x":174775.97000000067,"y":2545504.8599999994}},{"attributes":{"ID":297820,"DIS_CODE":0,"TOWNNAME":"永康區","LI":"大灣里","LIN":"8鄰","STREET":"民族路","SECT":" ","MAREA":" ","LANE":"３９６巷","ALLEY":" ","HOUSE_NO":"２２號","E_COORD97":174779.91,"N_COORD97":2545458.48,"ADDRESS":"民族路３９６巷２２號","OBJECTID":297812},"geometry":{"x":174779.91000000108,"y":2545458.4800000004}},{"attributes":{"ID":297821,"DIS_CODE":0,"TOWNNAME":"永康區","LI":"三合里","LIN":"8鄰","STREET":"南工街","SECT":" ","MAREA":" ","LANE":"１１９巷","ALLEY":" ","HOUSE_NO":"５號","E_COORD97":172070.14999999999,"N_COORD97":2545748.7400000002,"ADDRESS":"南工街１１９巷５號","OBJECTID":297813},"geometry":{"x":172070.15000000037,"y":2545748.7400000039}},{"attributes":{"ID":297822,"DIS_CODE":0,"TOWNNAME":"永康區","LI":"大灣里","LIN":"8鄰","STREET":"民族路","SECT":" ","MAREA":" ","LANE":"３９６巷","ALLEY":" ","HOUSE_NO":"２６號","E_COORD97":174788.29000000001,"N_COORD97":2545473.9199999999,"ADDRESS":"民族路３９６巷２６號","OBJECTID":297814},"geometry":{"x":174788.29000000004,"y":2545473.9200000018}},{"attributes":{"ID":297823,"DIS_CODE":0,"TOWNNAME":"永康區","LI":"大灣里","LIN":"8鄰","STREET":"民族路","SECT":" ","MAREA":" ","LANE":"３９６巷","ALLEY":" ","HOUSE_NO":"５０號","E_COORD97":174759.45999999999,"N_COORD97":2545507.0699999998,"ADDRESS":"民族路３９６巷５０號","OBJECTID":297815},"geometry":{"x":174759.46000000089,"y":2545507.0700000022}},{"attributes":{"ID":297824,"DIS_CODE":0,"TOWNNAME":"中西區","LI":"西湖里","LIN":"8鄰","STREET":"民權路","SECT":"四段","MAREA":" ","LANE":"１１２巷","ALLEY":" ","HOUSE_NO":"１１號","E_COORD97":166265.01999999999,"N_COORD97":2544478.6499999999,"ADDRESS":"民權路四段１１２巷１１號","OBJECTID":297816},"geometry":{"x":166265.02000000142,"y":2544478.6500000022}},{"attributes":{"ID":297825,"DIS_CODE":0,"TOWNNAME":"中西區","LI":"西湖里","LIN":"8鄰","STREET":"民權路","SECT":"四段","MAREA":" ","LANE":"１１２巷","ALLEY":" ","HOUSE_NO":"１３號","E_COORD97":166264.78,"N_COORD97":2544483.9900000002,"ADDRESS":"民權路四段１１２巷１３號","OBJECTID":297817},"geometry":{"x":166264.78000000026,"y":2544483.9900000002}},{"attributes":{"ID":297826,"DIS_CODE":0,"TOWNNAME":"中西區","LI":"西湖里","LIN":"8鄰","STREET":"民權路","SECT":"四段","MAREA":" ","LANE":"１１２巷","ALLEY":" ","HOUSE_NO":"１５號","E_COORD97":166263.32000000001,"N_COORD97":2544490.5600000001,"ADDRESS":"民權路四段１１２巷１５號","OBJECTID":297818},"geometry":{"x":166263.3200000003,"y":2544490.5600000024}},{"attributes":{"ID":297827,"DIS_CODE":0,"TOWNNAME":"中西區","LI":"西湖里","LIN":"8鄰","STREET":"民權路","SECT":"四段","MAREA":" ","LANE":"１１２巷","ALLEY":" ","HOUSE_NO":"１７號","E_COORD97":166264.29000000001,"N_COORD97":2544496.8700000001,"ADDRESS":"民權路四段１１２巷１７號","OBJECTID":297819},"geometry":{"x":166264.29000000097,"y":2544496.870000001}},{"attributes":{"ID":297828,"DIS_CODE":0,"TOWNNAME":"中西區","LI":"西湖里","LIN":"8鄰","STREET":"民權路","SECT":"四段","MAREA":" ","LANE":"１１２巷","ALLEY":" ","HOUSE_NO":"１９號","E_COORD97":166263.56,"N_COORD97":2544503.4399999999,"ADDRESS":"民權路四段１１２巷１９號","OBJECTID":297820},"geometry":{"x":166263.56000000052,"y":2544503.4400000013}},{"attributes":{"ID":297829,"DIS_CODE":0,"TOWNNAME":"中西區","LI":"西湖里","LIN":"8鄰","STREET":"民權路","SECT":"四段","MAREA":" ","LANE":"１１２巷","ALLEY":" ","HOUSE_NO":"１號","E_COORD97":166264.29000000001,"N_COORD97":2544446.0800000001,"ADDRESS":"民權路四段１１２巷１號","OBJECTID":297821},"geometry":{"x":166264.29000000097,"y":2544446.0800000001}},{"attributes":{"ID":297830,"DIS_CODE":0,"TOWNNAME":"麻豆區","LI":"大埕里","LIN":"9鄰","STREET":" ","SECT":" ","MAREA":"大埕","LANE":" ","ALLEY":" ","HOUSE_NO":"８３號之９五樓","E_COORD97":173114.07000000001,"N_COORD97":2565430.02,"ADDRESS":"大埕８３號之９五樓","OBJECTID":297822},"geometry":{"x":173114.07000000216,"y":2565430.0199999996}},{"attributes":{"ID":297831,"DIS_CODE":0,"TOWNNAME":"麻豆區","LI":"大埕里","LIN":"9鄰","STREET":" ","SECT":" ","MAREA":"大埕","LANE":" ","ALLEY":" ","HOUSE_NO":"８３號之９六樓","E_COORD97":173114.07000000001,"N_COORD97":2565430.02,"ADDRESS":"大埕８３號之９六樓","OBJECTID":297823},"geometry":{"x":173114.07000000216,"y":2565430.0199999996}},{"attributes":{"ID":297832,"DIS_CODE":0,"TOWNNAME":"麻豆區","LI":"大埕里","LIN":"9鄰","STREET":" ","SECT":" ","MAREA":"大埕","LANE":" ","ALLEY":" ","HOUSE_NO":"８３號之９四樓","E_COORD97":173114.07000000001,"N_COORD97":2565430.02,"ADDRESS":"大埕８３號之９四樓","OBJECTID":297824},"geometry":{"x":173114.07000000216,"y":2565430.0199999996}},{"attributes":{"ID":297833,"DIS_CODE":0,"TOWNNAME":"麻豆區","LI":"大埕里","LIN":"9鄰","STREET":" ","SECT":" ","MAREA":"大埕","LANE":" ","ALLEY":" ","HOUSE_NO":"８３號二樓","E_COORD97":173160.03,"N_COORD97":2565442.1200000001,"ADDRESS":"大埕８３號二樓","OBJECTID":297825},"geometry":{"x":173160.03000000212,"y":2565442.1200000029}},{"attributes":{"ID":297834,"DIS_CODE":0,"TOWNNAME":"中西區","LI":"西湖里","LIN":"8鄰","STREET":"民權路","SECT":"四段","MAREA":" ","LANE":"１１２巷","ALLEY":" ","HOUSE_NO":"２１號","E_COORD97":166263.32000000001,"N_COORD97":2544508.54,"ADDRESS":"民權路四段１１２巷２１號","OBJECTID":297826},"geometry":{"x":166263.3200000003,"y":2544508.540000001}},{"attributes":{"ID":297835,"DIS_CODE":0,"TOWNNAME":"中西區","LI":"西湖里","LIN":"8鄰","STREET":"民權路","SECT":"四段","MAREA":" ","LANE":"１１２巷","ALLEY":" ","HOUSE_NO":"２３號","E_COORD97":166263.07000000001,"N_COORD97":2544516.3199999998,"ADDRESS":"民權路四段１１２巷２３號","OBJECTID":297827},"geometry":{"x":166263.0700000003,"y":2544516.3200000003}},{"attributes":{"ID":297836,"DIS_CODE":0,"TOWNNAME":"中西區","LI":"西湖里","LIN":"8鄰","STREET":"民權路","SECT":"四段","MAREA":" ","LANE":"１１２巷","ALLEY":" ","HOUSE_NO":"２５號","E_COORD97":166261.37,"N_COORD97":2544521.4199999999,"ADDRESS":"民權路四段１１２巷２５號","OBJECTID":297828},"geometry":{"x":166261.36999999918,"y":2544521.4199999999}},{"attributes":{"ID":297837,"DIS_CODE":0,"TOWNNAME":"中西區","LI":"西湖里","LIN":"8鄰","STREET":"民權路","SECT":"四段","MAREA":" ","LANE":"１１２巷","ALLEY":" ","HOUSE_NO":"２７號","E_COORD97":166262.10000000001,"N_COORD97":2544527.4900000002,"ADDRESS":"民權路四段１１２巷２７號","OBJECTID":297829},"geometry":{"x":166262.09999999963,"y":2544527.4900000021}},{"attributes":{"ID":297838,"DIS_CODE":0,"TOWNNAME":"中西區","LI":"西湖里","LIN":"8鄰","STREET":"民權路","SECT":"四段","MAREA":" ","LANE":"１１２巷","ALLEY":" ","HOUSE_NO":"２９號","E_COORD97":166262.10000000001,"N_COORD97":2544532.8399999999,"ADDRESS":"民權路四段１１２巷２９號","OBJECTID":297830},"geometry":{"x":166262.09999999963,"y":2544532.8399999999}},{"attributes":{"ID":297839,"DIS_CODE":0,"TOWNNAME":"中西區","LI":"西湖里","LIN":"8鄰","STREET":"民權路","SECT":"四段","MAREA":" ","LANE":"１１２巷","ALLEY":" ","HOUSE_NO":"３１號","E_COORD97":166262.10000000001,"N_COORD97":2544538.1899999999,"ADDRESS":"民權路四段１１２巷３１號","OBJECTID":297831},"geometry":{"x":166262.09999999963,"y":2544538.1900000013}},{"attributes":{"ID":297840,"DIS_CODE":0,"TOWNNAME":"中西區","LI":"西湖里","LIN":"8鄰","STREET":"民權路","SECT":"四段","MAREA":" ","LANE":"１１２巷","ALLEY":" ","HOUSE_NO":"３３號","E_COORD97":166261.85999999999,"N_COORD97":2544543.5299999998,"ADDRESS":"民權路四段１１２巷３３號","OBJECTID":297832},"geometry":{"x":166261.8600000022,"y":2544543.5300000012}},{"attributes":{"ID":297841,"DIS_CODE":0,"TOWNNAME":"中西區","LI":"西湖里","LIN":"8鄰","STREET":"民權路","SECT":"四段","MAREA":" ","LANE":"１１２巷","ALLEY":" ","HOUSE_NO":"３５號","E_COORD97":166261.60999999999,"N_COORD97":2544549.3700000001,"ADDRESS":"民權路四段１１２巷３５號","OBJECTID":297833},"geometry":{"x":166261.61000000034,"y":2544549.3700000029}},{"attributes":{"ID":297842,"DIS_CODE":0,"TOWNNAME":"中西區","LI":"西湖里","LIN":"8鄰","STREET":"民權路","SECT":"四段","MAREA":" ","LANE":"１１２巷","ALLEY":" ","HOUSE_NO":"３７號","E_COORD97":166261.60999999999,"N_COORD97":2544554.5899999999,"ADDRESS":"民權路四段１１２巷３７號","OBJECTID":297834},"geometry":{"x":166261.61000000034,"y":2544554.5899999999}},{"attributes":{"ID":297843,"DIS_CODE":0,"TOWNNAME":"中西區","LI":"西湖里","LIN":"8鄰","STREET":"民權路","SECT":"四段","MAREA":" ","LANE":"１１２巷","ALLEY":" ","HOUSE_NO":"３９號","E_COORD97":166261.13,"N_COORD97":2544559.4500000002,"ADDRESS":"民權路四段１１２巷３９號","OBJECTID":297835},"geometry":{"x":166261.13000000175,"y":2544559.450000003}},{"attributes":{"ID":297844,"DIS_CODE":0,"TOWNNAME":"中西區","LI":"西湖里","LIN":"8鄰","STREET":"民權路","SECT":"四段","MAREA":" ","LANE":"１１２巷","ALLEY":" ","HOUSE_NO":"３號","E_COORD97":166264.53,"N_COORD97":2544453.3700000001,"ADDRESS":"民權路四段１１２巷３號","OBJECTID":297836},"geometry":{"x":166264.53000000119,"y":2544453.3700000048}},{"attributes":{"ID":297845,"DIS_CODE":0,"TOWNNAME":"中西區","LI":"西湖里","LIN":"8鄰","STREET":"民權路","SECT":"四段","MAREA":" ","LANE":"１１２巷","ALLEY":" ","HOUSE_NO":"４１號","E_COORD97":166261.85999999999,"N_COORD97":2544565.5299999998,"ADDRESS":"民權路四段１１２巷４１號","OBJECTID":297837},"geometry":{"x":166261.8600000022,"y":2544565.5299999975}},{"attributes":{"ID":297846,"DIS_CODE":0,"TOWNNAME":"中西區","LI":"西湖里","LIN":"8鄰","STREET":"民權路","SECT":"四段","MAREA":" ","LANE":"１１２巷","ALLEY":" ","HOUSE_NO":"４３號","E_COORD97":166260.39999999999,"N_COORD97":2544571.1200000001,"ADDRESS":"民權路四段１１２巷４３號","OBJECTID":297838},"geometry":{"x":166260.4000000013,"y":2544571.1200000029}},{"attributes":{"ID":297847,"DIS_CODE":0,"TOWNNAME":"中西區","LI":"西湖里","LIN":"8鄰","STREET":"民權路","SECT":"四段","MAREA":" ","LANE":"１１２巷","ALLEY":" ","HOUSE_NO":"４５號","E_COORD97":166261.13,"N_COORD97":2544577.1899999999,"ADDRESS":"民權路四段１１２巷４５號","OBJECTID":297839},"geometry":{"x":166261.13000000175,"y":2544577.1899999995}},{"attributes":{"ID":297848,"DIS_CODE":0,"TOWNNAME":"學甲區","LI":"大灣里","LIN":"15鄰","STREET":" ","SECT":" ","MAREA":"大灣","LANE":" ","ALLEY":" ","HOUSE_NO":"１５６號之１１","E_COORD97":166598.18663000001,"N_COORD97":2567731.34546,"ADDRESS":"大灣１５６號之１１","OBJECTID":297840},"geometry":{"x":166598.18663000036,"y":2567731.3454640023}},{"attributes":{"ID":297849,"DIS_CODE":0,"TOWNNAME":"中西區","LI":"西湖里","LIN":"8鄰","STREET":"民權路","SECT":"四段","MAREA":" ","LANE":"１１２巷","ALLEY":" ","HOUSE_NO":"４７號","E_COORD97":166260.64000000001,"N_COORD97":2544581.8100000001,"ADDRESS":"民權路四段１１２巷４７號","OBJECTID":297841},"geometry":{"x":166260.63999999966,"y":2544581.8100000005}},{"attributes":{"ID":297850,"DIS_CODE":0,"TOWNNAME":"中西區","LI":"西湖里","LIN":"8鄰","STREET":"民權路","SECT":"四段","MAREA":" ","LANE":"１１２巷","ALLEY":" ","HOUSE_NO":"４９號","E_COORD97":166260.14999999999,"N_COORD97":2544587.6400000001,"ADDRESS":"民權路四段１１２巷４９號","OBJECTID":297842},"geometry":{"x":166260.1500000013,"y":2544587.6400000025}},{"attributes":{"ID":297851,"DIS_CODE":0,"TOWNNAME":"東區","LI":"文聖里","LIN":"14鄰","STREET":"裕孝路","SECT":" ","MAREA":" ","LANE":" ","ALLEY":" ","HOUSE_NO":"１５６號","E_COORD97":172402.44,"N_COORD97":2542803.7599999998,"ADDRESS":"裕孝路１５６號","OBJECTID":297843},"geometry":{"x":172402.44000000041,"y":2542803.7599999998}},{"attributes":{"ID":297852,"DIS_CODE":0,"TOWNNAME":"中西區","LI":"西湖里","LIN":"8鄰","STREET":"民權路","SECT":"四段","MAREA":" ","LANE":"１１２巷","ALLEY":" ","HOUSE_NO":"５１號","E_COORD97":166260.39999999999,"N_COORD97":2544592.75,"ADDRESS":"民權路四段１１２巷５１號","OBJECTID":297844},"geometry":{"x":166260.4000000013,"y":2544592.7500000019}},{"attributes":{"ID":297853,"DIS_CODE":0,"TOWNNAME":"中西區","LI":"西湖里","LIN":"8鄰","STREET":"民權路","SECT":"四段","MAREA":" ","LANE":"１１２巷","ALLEY":" ","HOUSE_NO":"５３號","E_COORD97":166259.42000000001,"N_COORD97":2544598.5800000001,"ADDRESS":"民權路四段１１２巷５３號","OBJECTID":297845},"geometry":{"x":166259.42000000086,"y":2544598.5800000001}},{"attributes":{"ID":297854,"DIS_CODE":0,"TOWNNAME":"中西區","LI":"西湖里","LIN":"8鄰","STREET":"民權路","SECT":"四段","MAREA":" ","LANE":"１１２巷","ALLEY":" ","HOUSE_NO":"５５號","E_COORD97":166259.91,"N_COORD97":2544603.9199999999,"ADDRESS":"民權路四段１１２巷５５號","OBJECTID":297846},"geometry":{"x":166259.91000000108,"y":2544603.9199999999}},{"attributes":{"ID":297855,"DIS_CODE":0,"TOWNNAME":"中西區","LI":"西湖里","LIN":"8鄰","STREET":"民權路","SECT":"四段","MAREA":" ","LANE":"１１２巷","ALLEY":" ","HOUSE_NO":"９３號","E_COORD97":166257.72,"N_COORD97":2544703.0499999998,"ADDRESS":"民權路四段１１２巷９３號","OBJECTID":297847},"geometry":{"x":166257.72000000067,"y":2544703.0500000026}},{"attributes":{"ID":297856,"DIS_CODE":0,"TOWNNAME":"中西區","LI":"西湖里","LIN":"8鄰","STREET":"民權路","SECT":"四段","MAREA":" ","LANE":"１１２巷","ALLEY":" ","HOUSE_NO":"９５號","E_COORD97":166256.5,"N_COORD97":2544707.1800000002,"ADDRESS":"民權路四段１１２巷９５號","OBJECTID":297848},"geometry":{"x":166256.5,"y":2544707.1799999997}},{"attributes":{"ID":297857,"DIS_CODE":0,"TOWNNAME":"仁德區","LI":"仁德里","LIN":"8鄰","STREET":"仁德三街","SECT":" ","MAREA":" ","LANE":"６０巷","ALLEY":" ","HOUSE_NO":"２號","E_COORD97":173173.78,"N_COORD97":2541009.2599999998,"ADDRESS":"仁德三街６０巷２號","OBJECTID":297849},"geometry":{"x":173173.78000000119,"y":2541009.2600000016}},{"attributes":{"ID":297858,"DIS_CODE":0,"TOWNNAME":"仁德區","LI":"仁義里","LIN":"8鄰","STREET":"中山路","SECT":" ","MAREA":" ","LANE":"４７７巷","ALLEY":" ","HOUSE_NO":"２６號","E_COORD97":173640.23999999999,"N_COORD97":2541208.2400000002,"ADDRESS":"中山路４７７巷２６號","OBJECTID":297850},"geometry":{"x":173640.24000000115,"y":2541208.2400000002}},{"attributes":{"ID":297859,"DIS_CODE":0,"TOWNNAME":"仁德區","LI":"大甲里","LIN":"8鄰","STREET":"行大街","SECT":" ","MAREA":" ","LANE":"３０７巷","ALLEY":" ","HOUSE_NO":"１８號","E_COORD97":169684.87,"N_COORD97":2535097.4900000002,"ADDRESS":"行大街３０７巷１８號","OBJECTID":297851},"geometry":{"x":169684.87000000104,"y":2535097.4899999984}},{"attributes":{"ID":297860,"DIS_CODE":0,"TOWNNAME":"仁德區","LI":"仁德里","LIN":"8鄰","STREET":"仁德三街","SECT":" ","MAREA":" ","LANE":"５０巷","ALLEY":" ","HOUSE_NO":"６號","E_COORD97":173237.42000000001,"N_COORD97":2541016.7599999998,"ADDRESS":"仁德三街５０巷６號","OBJECTID":297852},"geometry":{"x":173237.42000000086,"y":2541016.7599999998}},{"attributes":{"ID":297861,"DIS_CODE":0,"TOWNNAME":"仁德區","LI":"仁德里","LIN":"8鄰","STREET":"仁德三街","SECT":" ","MAREA":" ","LANE":"５０巷","ALLEY":" ","HOUSE_NO":"１５號","E_COORD97":173194.51999999999,"N_COORD97":2541041.52,"ADDRESS":"仁德三街５０巷１５號","OBJECTID":297853},"geometry":{"x":173194.51999999955,"y":2541041.5200000014}},{"attributes":{"ID":297862,"DIS_CODE":0,"TOWNNAME":"仁德區","LI":"大甲里","LIN":"8鄰","STREET":"行大街","SECT":" ","MAREA":" ","LANE":"３０７巷","ALLEY":" ","HOUSE_NO":"３８號","E_COORD97":169676.60999999999,"N_COORD97":2535117,"ADDRESS":"行大街３０７巷３８號","OBJECTID":297854},"geometry":{"x":169676.61000000127,"y":2535117}},{"attributes":{"ID":297863,"DIS_CODE":0,"TOWNNAME":"仁德區","LI":"成功里","LIN":"8鄰","STREET":"保華路","SECT":" ","MAREA":" ","LANE":"１５９巷","ALLEY":" ","HOUSE_NO":"７號","E_COORD97":171045.70000000001,"N_COORD97":2540017.5,"ADDRESS":"保華路１５９巷７號","OBJECTID":297855},"geometry":{"x":171045.70000000019,"y":2540017.5000000019}},{"attributes":{"ID":297864,"DIS_CODE":0,"TOWNNAME":"安南區","LI":"國安里","LIN":"8鄰","STREET":"國安街","SECT":" ","MAREA":" ","LANE":"２１０巷","ALLEY":" ","HOUSE_NO":"２００號","E_COORD97":166519.56,"N_COORD97":2547478.71,"ADDRESS":"國安街２１０巷２００號","OBJECTID":297856},"geometry":{"x":166519.56000000052,"y":2547478.7100000046}},{"attributes":{"ID":297865,"DIS_CODE":0,"TOWNNAME":"安南區","LI":"國安里","LIN":"8鄰","STREET":"國安街","SECT":" ","MAREA":" ","LANE":"２１０巷","ALLEY":" ","HOUSE_NO":"１７６號","E_COORD97":166526.76000000001,"N_COORD97":2547430.6000000001,"ADDRESS":"國安街２１０巷１７６號","OBJECTID":297857},"geometry":{"x":166526.76000000071,"y":2547430.6000000034}},{"attributes":{"ID":297866,"DIS_CODE":0,"TOWNNAME":"安南區","LI":"國安里","LIN":"8鄰","STREET":"國安街","SECT":" ","MAREA":" ","LANE":"２１０巷","ALLEY":" ","HOUSE_NO":"２０６號","E_COORD97":166518.64999999999,"N_COORD97":2547490.96,"ADDRESS":"國安街２１０巷２０６號","OBJECTID":297858},"geometry":{"x":166518.65000000037,"y":2547490.9600000028}},{"attributes":{"ID":297867,"DIS_CODE":0,"TOWNNAME":"仁德區","LI":"太子里","LIN":"4鄰","STREET":"太子路","SECT":" ","MAREA":" ","LANE":"１９０巷","ALLEY":" ","HOUSE_NO":"３８號二樓","E_COORD97":174325.91,"N_COORD97":2543689.25,"ADDRESS":"太子路１９０巷３８號二樓","OBJECTID":297859},"geometry":{"x":174325.91000000108,"y":2543689.25}},{"attributes":{"ID":297868,"DIS_CODE":0,"TOWNNAME":"東區","LI":"崇明里","LIN":"8鄰","STREET":"大同路","SECT":"二段","MAREA":" ","LANE":"４４９巷","ALLEY":" ","HOUSE_NO":"３１號","E_COORD97":169675.51999999999,"N_COORD97":2541351.5099999998,"ADDRESS":"大同路二段４４９巷３１號","OBJECTID":297860},"geometry":{"x":169675.51999999862,"y":2541351.5099999998}},{"attributes":{"ID":297869,"DIS_CODE":0,"TOWNNAME":"東區","LI":"崇明里","LIN":"8鄰","STREET":"大同路","SECT":"二段","MAREA":" ","LANE":"４４９巷","ALLEY":" ","HOUSE_NO":"３３號","E_COORD97":169680.54000000001,"N_COORD97":2541355.52,"ADDRESS":"大同路二段４４９巷３３號","OBJECTID":297861},"geometry":{"x":169680.54000000004,"y":2541355.5200000033}},{"attributes":{"ID":297870,"DIS_CODE":0,"TOWNNAME":"東區","LI":"文聖里","LIN":"14鄰","STREET":"裕孝路","SECT":" ","MAREA":" ","LANE":" ","ALLEY":" ","HOUSE_NO":"１５８號","E_COORD97":172402.29000000001,"N_COORD97":2542794.96,"ADDRESS":"裕孝路１５８號","OBJECTID":297862},"geometry":{"x":172402.29000000097,"y":2542794.9600000046}},{"attributes":{"ID":297871,"DIS_CODE":0,"TOWNNAME":"仁德區","LI":"太子里","LIN":"4鄰","STREET":"太子路","SECT":" ","MAREA":" ","LANE":"１９０巷","ALLEY":" ","HOUSE_NO":"３７號一樓","E_COORD97":174308.04999999999,"N_COORD97":2543662.7200000002,"ADDRESS":"太子路１９０巷３７號一樓","OBJECTID":297863},"geometry":{"x":174308.04999999981,"y":2543662.7200000007}},{"attributes":{"ID":297872,"DIS_CODE":0,"TOWNNAME":"東區","LI":"崇德里","LIN":"8鄰","STREET":"崇德七街","SECT":" ","MAREA":" ","LANE":"８巷","ALLEY":" ","HOUSE_NO":"２８號","E_COORD97":170836.73000000001,"N_COORD97":2541643.0499999998,"ADDRESS":"崇德七街８巷２８號","OBJECTID":297864},"geometry":{"x":170836.73000000138,"y":2541643.0500000007}},{"attributes":{"ID":297873,"DIS_CODE":0,"TOWNNAME":"東區","LI":"崇德里","LIN":"8鄰","STREET":"崇德七街","SECT":" ","MAREA":" ","LANE":"８巷","ALLEY":" ","HOUSE_NO":"３２號","E_COORD97":170844.01999999999,"N_COORD97":2541645.2999999998,"ADDRESS":"崇德七街８巷３２號","OBJECTID":297865},"geometry":{"x":170844.02000000048,"y":2541645.3000000007}},{"attributes":{"ID":297874,"DIS_CODE":0,"TOWNNAME":"東區","LI":"崇德里","LIN":"8鄰","STREET":"崇德七街","SECT":" ","MAREA":" ","LANE":"８巷","ALLEY":" ","HOUSE_NO":"６１號","E_COORD97":170892.94,"N_COORD97":2541680.5699999998,"ADDRESS":"崇德七街８巷６１號","OBJECTID":297866},"geometry":{"x":170892.94000000134,"y":2541680.5700000003}},{"attributes":{"ID":297875,"DIS_CODE":0,"TOWNNAME":"東區","LI":"崇德里","LIN":"8鄰","STREET":"崇德七街","SECT":" ","MAREA":" ","LANE":"８巷","ALLEY":" ","HOUSE_NO":"１７號","E_COORD97":170803.67000000001,"N_COORD97":2541686.8599999999,"ADDRESS":"崇德七街８巷１７號","OBJECTID":297867},"geometry":{"x":170803.66999999993,"y":2541686.8600000013}},{"attributes":{"ID":297876,"DIS_CODE":0,"TOWNNAME":"東區","LI":"崇德里","LIN":"8鄰","STREET":"崇德七街","SECT":" ","MAREA":" ","LANE":"８巷","ALLEY":" ","HOUSE_NO":"１９號","E_COORD97":170807.48999999999,"N_COORD97":2541684.3799999999,"ADDRESS":"崇德七街８巷１９號","OBJECTID":297868},"geometry":{"x":170807.49000000115,"y":2541684.3799999971}},{"attributes":{"ID":297877,"DIS_CODE":0,"TOWNNAME":"東區","LI":"崇德里","LIN":"8鄰","STREET":"崇德七街","SECT":" ","MAREA":" ","LANE":"８巷","ALLEY":" ","HOUSE_NO":"２１號","E_COORD97":170811.98000000001,"N_COORD97":2541681.3199999998,"ADDRESS":"崇德七街８巷２１號","OBJECTID":297869},"geometry":{"x":170811.98000000045,"y":2541681.3200000022}},{"attributes":{"ID":297878,"DIS_CODE":0,"TOWNNAME":"東區","LI":"崇德里","LIN":"8鄰","STREET":"崇德七街","SECT":" ","MAREA":" ","LANE":"８巷","ALLEY":" ","HOUSE_NO":"２３號","E_COORD97":170816,"N_COORD97":2541678.46,"ADDRESS":"崇德七街８巷２３號","OBJECTID":297870},"geometry":{"x":170816.00000000093,"y":2541678.4600000009}},{"attributes":{"ID":297879,"DIS_CODE":0,"TOWNNAME":"東區","LI":"崇德里","LIN":"8鄰","STREET":"崇德七街","SECT":" ","MAREA":" ","LANE":"８巷","ALLEY":" ","HOUSE_NO":"２５號","E_COORD97":170820.29999999999,"N_COORD97":2541675.6000000001,"ADDRESS":"崇德七街８巷２５號","OBJECTID":297871},"geometry":{"x":170820.30000000075,"y":2541675.5999999996}},{"attributes":{"ID":297880,"DIS_CODE":0,"TOWNNAME":"東區","LI":"崇德里","LIN":"8鄰","STREET":"崇德七街","SECT":" ","MAREA":" ","LANE":"８巷","ALLEY":" ","HOUSE_NO":"２７號","E_COORD97":170824.39999999999,"N_COORD97":2541672.73,"ADDRESS":"崇德七街８巷２７號","OBJECTID":297872},"geometry":{"x":170824.40000000037,"y":2541672.7300000004}},{"attributes":{"ID":297881,"DIS_CODE":0,"TOWNNAME":"後壁區","LI":"頂安里","LIN":"4鄰","STREET":" ","SECT":" ","MAREA":"頂寮","LANE":" ","ALLEY":" ","HOUSE_NO":"４３號","E_COORD97":183922.70000000001,"N_COORD97":2581449.4399999999,"ADDRESS":"頂寮４３號","OBJECTID":297873},"geometry":{"x":183922.70000000019,"y":2581449.4399999995}},{"attributes":{"ID":297882,"DIS_CODE":0,"TOWNNAME":"東區","LI":"崇德里","LIN":"8鄰","STREET":"崇德七街","SECT":" ","MAREA":" ","LANE":"８巷","ALLEY":" ","HOUSE_NO":"２９號","E_COORD97":170828.42000000001,"N_COORD97":2541669.8700000001,"ADDRESS":"崇德七街８巷２９號","OBJECTID":297874},"geometry":{"x":170828.42000000086,"y":2541669.8700000048}},{"attributes":{"ID":297883,"DIS_CODE":0,"TOWNNAME":"東區","LI":"崇德里","LIN":"8鄰","STREET":"崇德七街","SECT":" ","MAREA":" ","LANE":"３０巷","ALLEY":" ","HOUSE_NO":"５３號","E_COORD97":170905.76000000001,"N_COORD97":2541703.0499999998,"ADDRESS":"崇德七街３０巷５３號","OBJECTID":297875},"geometry":{"x":170905.76000000071,"y":2541703.0500000026}},{"attributes":{"ID":297884,"DIS_CODE":0,"TOWNNAME":"安南區","LI":"國安里","LIN":"8鄰","STREET":"國安街","SECT":" ","MAREA":" ","LANE":"２１０巷","ALLEY":" ","HOUSE_NO":"１７８號","E_COORD97":166526,"N_COORD97":2547435.3599999999,"ADDRESS":"國安街２１０巷１７８號","OBJECTID":297876},"geometry":{"x":166526,"y":2547435.3600000031}},{"attributes":{"ID":297885,"DIS_CODE":0,"TOWNNAME":"安南區","LI":"國安里","LIN":"8鄰","STREET":"國安街","SECT":" ","MAREA":" ","LANE":"２１０巷","ALLEY":" ","HOUSE_NO":"１８０號","E_COORD97":166525.31,"N_COORD97":2547438.8500000001,"ADDRESS":"國安街２１０巷１８０號","OBJECTID":297877},"geometry":{"x":166525.30999999959,"y":2547438.8500000034}},{"attributes":{"ID":297886,"DIS_CODE":0,"TOWNNAME":"安南區","LI":"國安里","LIN":"8鄰","STREET":"國安街","SECT":" ","MAREA":" ","LANE":"２１０巷","ALLEY":" ","HOUSE_NO":"１８２號","E_COORD97":166524.76000000001,"N_COORD97":2547443.1899999999,"ADDRESS":"國安街２１０巷１８２號","OBJECTID":297878},"geometry":{"x":166524.76000000071,"y":2547443.1900000032}},{"attributes":{"ID":297887,"DIS_CODE":0,"TOWNNAME":"安南區","LI":"國安里","LIN":"8鄰","STREET":"國安街","SECT":" ","MAREA":" ","LANE":"２１０巷","ALLEY":" ","HOUSE_NO":"１８３號","E_COORD97":166508.91,"N_COORD97":2547427.8500000001,"ADDRESS":"國安街２１０巷１８３號","OBJECTID":297879},"geometry":{"x":166508.91000000108,"y":2547427.8499999996}},{"attributes":{"ID":297888,"DIS_CODE":0,"TOWNNAME":"中西區","LI":"進學里","LIN":"16鄰","STREET":"樹林街","SECT":"二段","MAREA":" ","LANE":" ","ALLEY":" ","HOUSE_NO":"２５８號","E_COORD97":168236.88051700001,"N_COORD97":2542987.3937499998,"ADDRESS":"樹林街二段２５８號","OBJECTID":297880},"geometry":{"x":168236.88051700126,"y":2542987.3937449995}},{"attributes":{"ID":297889,"DIS_CODE":0,"TOWNNAME":"安南區","LI":"國安里","LIN":"8鄰","STREET":"國安街","SECT":" ","MAREA":" ","LANE":"２１０巷","ALLEY":" ","HOUSE_NO":"１８４號","E_COORD97":166524.34,"N_COORD97":2547446.8399999999,"ADDRESS":"國安街２１０巷１８４號","OBJECTID":297881},"geometry":{"x":166524.34000000078,"y":2547446.8400000017}},{"attributes":{"ID":297890,"DIS_CODE":0,"TOWNNAME":"安南區","LI":"國安里","LIN":"8鄰","STREET":"國安街","SECT":" ","MAREA":" ","LANE":"２１０巷","ALLEY":" ","HOUSE_NO":"１８５號","E_COORD97":166507.92000000001,"N_COORD97":2547432.0800000001,"ADDRESS":"國安街２１０巷１８５號","OBJECTID":297882},"geometry":{"x":166507.91999999993,"y":2547432.0800000019}},{"attributes":{"ID":297891,"DIS_CODE":0,"TOWNNAME":"安南區","LI":"國安里","LIN":"8鄰","STREET":"國安街","SECT":" ","MAREA":" ","LANE":"２１０巷","ALLEY":" ","HOUSE_NO":"１８６號","E_COORD97":166523.75,"N_COORD97":2547451.04,"ADDRESS":"國安街２１０巷１８６號","OBJECTID":297883},"geometry":{"x":166523.75000000093,"y":2547451.040000001}},{"attributes":{"ID":297892,"DIS_CODE":0,"TOWNNAME":"安南區","LI":"國安里","LIN":"8鄰","STREET":"國安街","SECT":" ","MAREA":" ","LANE":"２１０巷","ALLEY":" ","HOUSE_NO":"１８７號","E_COORD97":166507.01000000001,"N_COORD97":2547435.75,"ADDRESS":"國安街２１０巷１８７號","OBJECTID":297884},"geometry":{"x":166507.00999999978,"y":2547435.75}},{"attributes":{"ID":297893,"DIS_CODE":0,"TOWNNAME":"安南區","LI":"國安里","LIN":"8鄰","STREET":"國安街","SECT":" ","MAREA":" ","LANE":"２１０巷","ALLEY":" ","HOUSE_NO":"１８８號","E_COORD97":166522.76000000001,"N_COORD97":2547455.1499999999,"ADDRESS":"國安街２１０巷１８８號","OBJECTID":297885},"geometry":{"x":166522.75999999885,"y":2547455.1500000022}},{"attributes":{"ID":297894,"DIS_CODE":0,"TOWNNAME":"東區","LI":"文聖里","LIN":"14鄰","STREET":"裕孝路","SECT":" ","MAREA":" ","LANE":" ","ALLEY":" ","HOUSE_NO":"１６０號","E_COORD97":172408.13,"N_COORD97":2542795.3100000001,"ADDRESS":"裕孝路１６０號","OBJECTID":297886},"geometry":{"x":172408.13000000082,"y":2542795.3100000042}},{"attributes":{"ID":297895,"DIS_CODE":0,"TOWNNAME":"安平區","LI":"億載里","LIN":"4鄰","STREET":"安億路","SECT":" ","MAREA":" ","LANE":" ","ALLEY":" ","HOUSE_NO":"１２１號","E_COORD97":163550.17999999999,"N_COORD97":2543414.25,"ADDRESS":"安億路１２１號","OBJECTID":297887},"geometry":{"x":163550.18000000063,"y":2543414.25}},{"attributes":{"ID":297896,"DIS_CODE":0,"TOWNNAME":"安南區","LI":"國安里","LIN":"8鄰","STREET":"國安街","SECT":" ","MAREA":" ","LANE":"２１０巷","ALLEY":" ","HOUSE_NO":"１８９號","E_COORD97":166506.17999999999,"N_COORD97":2547439.9100000001,"ADDRESS":"國安街２１０巷１８９號","OBJECTID":297888},"geometry":{"x":166506.1799999997,"y":2547439.910000002}},{"attributes":{"ID":297897,"DIS_CODE":0,"TOWNNAME":"安南區","LI":"國安里","LIN":"8鄰","STREET":"國安街","SECT":" ","MAREA":" ","LANE":"２１０巷","ALLEY":" ","HOUSE_NO":"１９０號","E_COORD97":166522.26999999999,"N_COORD97":2547458.52,"ADDRESS":"國安街２１０巷１９０號","OBJECTID":297889},"geometry":{"x":166522.26999999955,"y":2547458.5200000014}},{"attributes":{"ID":297898,"DIS_CODE":0,"TOWNNAME":"安南區","LI":"國安里","LIN":"8鄰","STREET":"國安街","SECT":" ","MAREA":" ","LANE":"２１０巷","ALLEY":" ","HOUSE_NO":"１９１號","E_COORD97":166505.26999999999,"N_COORD97":2547443.23,"ADDRESS":"國安街２１０巷１９１號","OBJECTID":297890},"geometry":{"x":166505.26999999955,"y":2547443.2300000004}},{"attributes":{"ID":297899,"DIS_CODE":0,"TOWNNAME":"安南區","LI":"國安里","LIN":"8鄰","STREET":"國安街","SECT":" ","MAREA":" ","LANE":"２１０巷","ALLEY":" ","HOUSE_NO":"１９２號","E_COORD97":166521.45000000001,"N_COORD97":2547462.6299999999,"ADDRESS":"國安街２１０巷１９２號","OBJECTID":297891},"geometry":{"x":166521.45000000019,"y":2547462.629999999}},{"attributes":{"ID":297900,"DIS_CODE":0,"TOWNNAME":"安南區","LI":"國安里","LIN":"8鄰","STREET":"國安街","SECT":" ","MAREA":" ","LANE":"２１０巷","ALLEY":" ","HOUSE_NO":"１９３號","E_COORD97":166504.82000000001,"N_COORD97":2547447.9100000001,"ADDRESS":"國安街２１０巷１９３號","OBJECTID":297892},"geometry":{"x":166504.82000000123,"y":2547447.9100000001}},{"attributes":{"ID":297901,"DIS_CODE":0,"TOWNNAME":"安南區","LI":"國安里","LIN":"8鄰","STREET":"國安街","SECT":" ","MAREA":" ","LANE":"２１０巷","ALLEY":" ","HOUSE_NO":"１９４號","E_COORD97":166520.98000000001,"N_COORD97":2547466.6499999999,"ADDRESS":"國安街２１０巷１９４號","OBJECTID":297893},"geometry":{"x":166520.98000000138,"y":2547466.6500000004}},{"attributes":{"ID":297902,"DIS_CODE":0,"TOWNNAME":"安南區","LI":"國安里","LIN":"8鄰","STREET":"國安街","SECT":" ","MAREA":" ","LANE":"２１０巷","ALLEY":" ","HOUSE_NO":"１９６號","E_COORD97":166520.38,"N_COORD97":2547470.77,"ADDRESS":"國安街２１０巷１９６號","OBJECTID":297894},"geometry":{"x":166520.37999999896,"y":2547470.7700000014}},{"attributes":{"ID":297903,"DIS_CODE":0,"TOWNNAME":"安南區","LI":"國安里","LIN":"8鄰","STREET":"國安街","SECT":" ","MAREA":" ","LANE":"２１０巷","ALLEY":" ","HOUSE_NO":"１９７號","E_COORD97":166503.60000000001,"N_COORD97":2547455.73,"ADDRESS":"國安街２１０巷１９７號","OBJECTID":297895},"geometry":{"x":166503.60000000149,"y":2547455.7300000023}},{"attributes":{"ID":297904,"DIS_CODE":0,"TOWNNAME":"安南區","LI":"國安里","LIN":"8鄰","STREET":"國安街","SECT":" ","MAREA":" ","LANE":"２１０巷","ALLEY":" ","HOUSE_NO":"１９８號","E_COORD97":166519.78,"N_COORD97":2547474.8900000001,"ADDRESS":"國安街２１０巷１９８號","OBJECTID":297896},"geometry":{"x":166519.77999999933,"y":2547474.8900000025}},{"attributes":{"ID":297905,"DIS_CODE":0,"TOWNNAME":"安南區","LI":"國安里","LIN":"8鄰","STREET":"國安街","SECT":" ","MAREA":" ","LANE":"２１０巷","ALLEY":" ","HOUSE_NO":"１９９號","E_COORD97":166503.07000000001,"N_COORD97":2547458.52,"ADDRESS":"國安街２１０巷１９９號","OBJECTID":297897},"geometry":{"x":166503.07000000123,"y":2547458.5200000014}},{"attributes":{"ID":297906,"DIS_CODE":0,"TOWNNAME":"安南區","LI":"國安里","LIN":"8鄰","STREET":"國安街","SECT":" ","MAREA":" ","LANE":"２１０巷","ALLEY":" ","HOUSE_NO":"２０１號","E_COORD97":166502.09,"N_COORD97":2547463.21,"ADDRESS":"國安街２１０巷２０１號","OBJECTID":297898},"geometry":{"x":166502.09000000171,"y":2547463.2100000028}},{"attributes":{"ID":297907,"DIS_CODE":0,"TOWNNAME":"安南區","LI":"國安里","LIN":"8鄰","STREET":"國安街","SECT":" ","MAREA":" ","LANE":"２１０巷","ALLEY":" ","HOUSE_NO":"２０４號","E_COORD97":166519.17000000001,"N_COORD97":2547486.8399999999,"ADDRESS":"國安街２１０巷２０４號","OBJECTID":297899},"geometry":{"x":166519.17000000086,"y":2547486.8400000036}},{"attributes":{"ID":297908,"DIS_CODE":0,"TOWNNAME":"安南區","LI":"國安里","LIN":"8鄰","STREET":"國安街","SECT":" ","MAREA":" ","LANE":"２１０巷","ALLEY":" ","HOUSE_NO":"２０７號","E_COORD97":166499.97,"N_COORD97":2547475.4900000002,"ADDRESS":"國安街２１０巷２０７號","OBJECTID":297900},"geometry":{"x":166499.97000000067,"y":2547475.4900000002}},{"attributes":{"ID":297909,"DIS_CODE":0,"TOWNNAME":"安南區","LI":"國安里","LIN":"8鄰","STREET":"國安街","SECT":" ","MAREA":" ","LANE":"２１０巷","ALLEY":" ","HOUSE_NO":"２０８號","E_COORD97":166518.25,"N_COORD97":2547494.48,"ADDRESS":"國安街２１０巷２０８號","OBJECTID":297901},"geometry":{"x":166518.25000000186,"y":2547494.4800000023}},{"attributes":{"ID":297910,"DIS_CODE":0,"TOWNNAME":"安南區","LI":"國安里","LIN":"8鄰","STREET":"國安街","SECT":" ","MAREA":" ","LANE":"２１０巷","ALLEY":" ","HOUSE_NO":"２１１號","E_COORD97":166498.60000000001,"N_COORD97":2547482.5499999998,"ADDRESS":"國安街２１０巷２１１號","OBJECTID":297902},"geometry":{"x":166498.60000000056,"y":2547482.5500000007}},{"attributes":{"ID":297911,"DIS_CODE":0,"TOWNNAME":"安南區","LI":"國安里","LIN":"8鄰","STREET":"國安街","SECT":" ","MAREA":" ","LANE":"２１０巷","ALLEY":" ","HOUSE_NO":"２１２號","E_COORD97":166517.67999999999,"N_COORD97":2547502.1499999999,"ADDRESS":"國安街２１０巷２１２號","OBJECTID":297903},"geometry":{"x":166517.6799999997,"y":2547502.1500000041}},{"attributes":{"ID":297912,"DIS_CODE":0,"TOWNNAME":"安南區","LI":"國安里","LIN":"8鄰","STREET":"國安街","SECT":" ","MAREA":" ","LANE":"２１０巷","ALLEY":" ","HOUSE_NO":"２１４號","E_COORD97":166517.64999999999,"N_COORD97":2547506.6099999999,"ADDRESS":"國安街２１０巷２１４號","OBJECTID":297904},"geometry":{"x":166517.6500000013,"y":2547506.6099999994}},{"attributes":{"ID":297913,"DIS_CODE":0,"TOWNNAME":"安平區","LI":"億載里","LIN":"4鄰","STREET":"安億路","SECT":" ","MAREA":" ","LANE":" ","ALLEY":" ","HOUSE_NO":"１４２號","E_COORD97":163593.20000000001,"N_COORD97":2543670.4700000002,"ADDRESS":"安億路１４２號","OBJECTID":297905},"geometry":{"x":163593.20000000112,"y":2543670.4700000025}},{"attributes":{"ID":297914,"DIS_CODE":0,"TOWNNAME":"中西區","LI":"進學里","LIN":"3鄰","STREET":"樹林街","SECT":"二段","MAREA":" ","LANE":" ","ALLEY":" ","HOUSE_NO":"１６５號","E_COORD97":168139.85175,"N_COORD97":2542981.89041,"ADDRESS":"樹林街二段１６５號","OBJECTID":297906},"geometry":{"x":168139.85175000038,"y":2542981.8904140014}},{"attributes":{"ID":297915,"DIS_CODE":0,"TOWNNAME":"中西區","LI":"進學里","LIN":"7鄰","STREET":"樹林街","SECT":"二段","MAREA":" ","LANE":" ","ALLEY":" ","HOUSE_NO":"２０１號","E_COORD97":168046.212635,"N_COORD97":2542981.67875,"ADDRESS":"樹林街二段２０１號","OBJECTID":297907},"geometry":{"x":168046.21263500117,"y":2542981.6787480004}},{"attributes":{"ID":297916,"DIS_CODE":0,"TOWNNAME":"中西區","LI":"進學里","LIN":"7鄰","STREET":"樹林街","SECT":"二段","MAREA":" ","LANE":" ","ALLEY":" ","HOUSE_NO":"２０７號","E_COORD97":168021.00210300001,"N_COORD97":2542955.6437599999,"ADDRESS":"樹林街二段２０７號","OBJECTID":297908},"geometry":{"x":168021.00210300088,"y":2542955.6437619999}},{"attributes":{"ID":297917,"DIS_CODE":0,"TOWNNAME":"中西區","LI":"進學里","LIN":"11鄰","STREET":"樹林街","SECT":"二段","MAREA":" ","LANE":" ","ALLEY":" ","HOUSE_NO":"３３６號","E_COORD97":168043.670396,"N_COORD97":2542996.70707,"ADDRESS":"樹林街二段３３６號","OBJECTID":297909},"geometry":{"x":168043.67039600015,"y":2542996.7070730012}},{"attributes":{"ID":297918,"DIS_CODE":0,"TOWNNAME":"中西區","LI":"進學里","LIN":"16鄰","STREET":"樹林街","SECT":"二段","MAREA":" ","LANE":" ","ALLEY":" ","HOUSE_NO":"２５４號","E_COORD97":168253.40506600001,"N_COORD97":2542984.0070799999,"ADDRESS":"樹林街二段２５４號","OBJECTID":297910},"geometry":{"x":168253.4050660003,"y":2542984.0070800036}},{"attributes":{"ID":297919,"DIS_CODE":0,"TOWNNAME":"中西區","LI":"進學里","LIN":"6鄰","STREET":"永福路","SECT":"一段","MAREA":" ","LANE":" ","ALLEY":" ","HOUSE_NO":"２２號","E_COORD97":168006.59608600001,"N_COORD97":2542923.15295,"ADDRESS":"永福路一段２２號","OBJECTID":297911},"geometry":{"x":168006.59608600009,"y":2542923.1529460009}},{"attributes":{"ID":297920,"DIS_CODE":0,"TOWNNAME":"安南區","LI":"國安里","LIN":"8鄰","STREET":"國安街","SECT":" ","MAREA":" ","LANE":"２１０巷","ALLEY":" ","HOUSE_NO":"２１５號","E_COORD97":166497.09,"N_COORD97":2547491.3100000001,"ADDRESS":"國安街２１０巷２１５號","OBJECTID":297912},"geometry":{"x":166497.09000000171,"y":2547491.3100000042}},{"attributes":{"ID":297921,"DIS_CODE":0,"TOWNNAME":"安南區","LI":"國安里","LIN":"8鄰","STREET":"國安街","SECT":" ","MAREA":" ","LANE":"２１０巷","ALLEY":" ","HOUSE_NO":"２１７號","E_COORD97":166496.41,"N_COORD97":2547494.9399999999,"ADDRESS":"國安街２１０巷２１７號","OBJECTID":297913},"geometry":{"x":166496.41000000015,"y":2547494.9399999995}},{"attributes":{"ID":297922,"DIS_CODE":0,"TOWNNAME":"善化區","LI":"南關里","LIN":"8鄰","STREET":"自由路","SECT":" ","MAREA":" ","LANE":"１７１巷","ALLEY":" ","HOUSE_NO":"５號","E_COORD97":176984.20999999999,"N_COORD97":2558851.5,"ADDRESS":"自由路１７１巷５號","OBJECTID":297914},"geometry":{"x":176984.20999999996,"y":2558851.5000000019}},{"attributes":{"ID":297923,"DIS_CODE":0,"TOWNNAME":"善化區","LI":"北關里","LIN":"8鄰","STREET":"進學路","SECT":" ","MAREA":" ","LANE":"５８巷","ALLEY":" ","HOUSE_NO":"１１號","E_COORD97":177293.98000000001,"N_COORD97":2559313.5,"ADDRESS":"進學路５８巷１１號","OBJECTID":297915},"geometry":{"x":177293.98000000138,"y":2559313.5}},{"attributes":{"ID":297924,"DIS_CODE":0,"TOWNNAME":"善化區","LI":"北關里","LIN":"8鄰","STREET":"進學路","SECT":" ","MAREA":" ","LANE":"５８巷","ALLEY":" ","HOUSE_NO":"４號","E_COORD97":177270.32000000001,"N_COORD97":2559320.25,"ADDRESS":"進學路５８巷４號","OBJECTID":297916},"geometry":{"x":177270.3200000003,"y":2559320.2500000019}},{"attributes":{"ID":297925,"DIS_CODE":0,"TOWNNAME":"善化區","LI":"坐駕里","LIN":"8鄰","STREET":"大成路","SECT":" ","MAREA":" ","LANE":"３７１巷","ALLEY":" ","HOUSE_NO":"１號","E_COORD97":177903.22,"N_COORD97":2558767.25,"ADDRESS":"大成路３７１巷１號","OBJECTID":297917},"geometry":{"x":177903.22000000067,"y":2558767.2500000037}},{"attributes":{"ID":297926,"DIS_CODE":0,"TOWNNAME":"永康區","LI":"三合里","LIN":"8鄰","STREET":"南工街","SECT":" ","MAREA":" ","LANE":"１４５巷","ALLEY":" ","HOUSE_NO":"６號","E_COORD97":172076.29000000001,"N_COORD97":2545802.4100000001,"ADDRESS":"南工街１４５巷６號","OBJECTID":297918},"geometry":{"x":172076.28999999911,"y":2545802.410000002}},{"attributes":{"ID":297927,"DIS_CODE":0,"TOWNNAME":"善化區","LI":"南關里","LIN":"8鄰","STREET":"光復路","SECT":" ","MAREA":" ","LANE":"５３６巷","ALLEY":" ","HOUSE_NO":"１６號","E_COORD97":176838.84,"N_COORD97":2558929.5099999998,"ADDRESS":"光復路５３６巷１６號","OBJECTID":297919},"geometry":{"x":176838.83999999985,"y":2558929.5100000016}},{"attributes":{"ID":297928,"DIS_CODE":0,"TOWNNAME":"善化區","LI":"南關里","LIN":"8鄰","STREET":"光復路","SECT":" ","MAREA":" ","LANE":"５１０巷","ALLEY":" ","HOUSE_NO":"６號","E_COORD97":176839.14000000001,"N_COORD97":2558849.0099999998,"ADDRESS":"光復路５１０巷６號","OBJECTID":297920},"geometry":{"x":176839.1400000006,"y":2558849.0099999998}},{"attributes":{"ID":297929,"DIS_CODE":0,"TOWNNAME":"善化區","LI":"南關里","LIN":"8鄰","STREET":"光復路","SECT":" ","MAREA":" ","LANE":"５１０巷","ALLEY":" ","HOUSE_NO":"８號","E_COORD97":176842.70000000001,"N_COORD97":2558850.0099999998,"ADDRESS":"光復路５１０巷８號","OBJECTID":297921},"geometry":{"x":176842.70000000112,"y":2558850.0100000035}},{"attributes":{"ID":297930,"DIS_CODE":0,"TOWNNAME":"善化區","LI":"南關里","LIN":"8鄰","STREET":"光復路","SECT":" ","MAREA":" ","LANE":"５３６巷","ALLEY":" ","HOUSE_NO":"９號","E_COORD97":176829.5,"N_COORD97":2558915.7599999998,"ADDRESS":"光復路５３６巷９號","OBJECTID":297922},"geometry":{"x":176829.5,"y":2558915.7599999998}},{"attributes":{"ID":297931,"DIS_CODE":0,"TOWNNAME":"善化區","LI":"南關里","LIN":"8鄰","STREET":"光復路","SECT":" ","MAREA":" ","LANE":"５６６巷","ALLEY":" ","HOUSE_NO":"２號","E_COORD97":176817.28,"N_COORD97":2558954.2599999998,"ADDRESS":"光復路５６６巷２號","OBJECTID":297923},"geometry":{"x":176817.28000000119,"y":2558954.2600000016}},{"attributes":{"ID":297932,"DIS_CODE":0,"TOWNNAME":"安南區","LI":"海佃里","LIN":"8鄰","STREET":"國安街","SECT":" ","MAREA":" ","LANE":"５６巷","ALLEY":" ","HOUSE_NO":"５７號","E_COORD97":166953.51999999999,"N_COORD97":2547185.8399999999,"ADDRESS":"國安街５６巷５７號","OBJECTID":297924},"geometry":{"x":166953.52000000048,"y":2547185.8400000017}},{"attributes":{"ID":297933,"DIS_CODE":0,"TOWNNAME":"東山區","LI":"大客里","LIN":"4鄰","STREET":" ","SECT":" ","MAREA":"大庄","LANE":" ","ALLEY":" ","HOUSE_NO":"２４號","E_COORD97":189694.69,"N_COORD97":2578893.3399999999,"ADDRESS":"大庄２４號","OBJECTID":297925},"geometry":{"x":189694.69000000134,"y":2578893.3400000017}},{"attributes":{"ID":297934,"DIS_CODE":0,"TOWNNAME":"東山區","LI":"大客里","LIN":"4鄰","STREET":" ","SECT":" ","MAREA":"大庄","LANE":" ","ALLEY":" ","HOUSE_NO":"２５號","E_COORD97":189680.73999999999,"N_COORD97":2578889.4700000002,"ADDRESS":"大庄２５號","OBJECTID":297926},"geometry":{"x":189680.74000000022,"y":2578889.4700000025}},{"attributes":{"ID":297935,"DIS_CODE":0,"TOWNNAME":"東山區","LI":"大客里","LIN":"4鄰","STREET":" ","SECT":" ","MAREA":"大庄","LANE":" ","ALLEY":" ","HOUSE_NO":"２６號","E_COORD97":189690.75,"N_COORD97":2578877.9100000001,"ADDRESS":"大庄２６號","OBJECTID":297927},"geometry":{"x":189690.75,"y":2578877.9099999983}},{"attributes":{"ID":297936,"DIS_CODE":0,"TOWNNAME":"東山區","LI":"大客里","LIN":"4鄰","STREET":" ","SECT":" ","MAREA":"大庄","LANE":" ","ALLEY":" ","HOUSE_NO":"２７號","E_COORD97":189687.20999999999,"N_COORD97":2578867.6200000001,"ADDRESS":"大庄２７號","OBJECTID":297928},"geometry":{"x":189687.21000000089,"y":2578867.6200000048}},{"attributes":{"ID":297937,"DIS_CODE":0,"TOWNNAME":"東山區","LI":"大客里","LIN":"4鄰","STREET":" ","SECT":" ","MAREA":"大庄","LANE":" ","ALLEY":" ","HOUSE_NO":"２９號","E_COORD97":189714.29000000001,"N_COORD97":2578901.8700000001,"ADDRESS":"大庄２９號","OBJECTID":297929},"geometry":{"x":189714.29000000004,"y":2578901.870000001}},{"attributes":{"ID":297938,"DIS_CODE":0,"TOWNNAME":"中西區","LI":"進學里","LIN":"6鄰","STREET":"永福路","SECT":"一段","MAREA":" ","LANE":"２４巷","ALLEY":" ","HOUSE_NO":"６號","E_COORD97":168056.169735,"N_COORD97":2542917.7554500001,"ADDRESS":"永福路一段２４巷６號","OBJECTID":297930},"geometry":{"x":168056.16973499954,"y":2542917.7554490045}},{"attributes":{"ID":297939,"DIS_CODE":0,"TOWNNAME":"中西區","LI":"進學里","LIN":"7鄰","STREET":"樹林街","SECT":"二段","MAREA":" ","LANE":" ","ALLEY":" ","HOUSE_NO":"２０９號","E_COORD97":168025.45102099999,"N_COORD97":2542956.06709,"ADDRESS":"樹林街二段２０９號","OBJECTID":297931},"geometry":{"x":168025.45102099981,"y":2542956.0670950022}},{"attributes":{"ID":297940,"DIS_CODE":0,"TOWNNAME":"中西區","LI":"進學里","LIN":"16鄰","STREET":"樹林街","SECT":"二段","MAREA":" ","LANE":" ","ALLEY":" ","HOUSE_NO":"２５６號","E_COORD97":168245.35464500001,"N_COORD97":2542983.3720800001,"ADDRESS":"樹林街二段２５６號","OBJECTID":297932},"geometry":{"x":168245.35464499984,"y":2542983.3720800038}},{"attributes":{"ID":297941,"DIS_CODE":0,"TOWNNAME":"安南區","LI":"海佃里","LIN":"8鄰","STREET":"國安街","SECT":" ","MAREA":" ","LANE":"５６巷","ALLEY":" ","HOUSE_NO":"５９號","E_COORD97":166954.17999999999,"N_COORD97":2547190.4900000002,"ADDRESS":"國安街５６巷５９號","OBJECTID":297933},"geometry":{"x":166954.18000000063,"y":2547190.4900000002}},{"attributes":{"ID":297942,"DIS_CODE":0,"TOWNNAME":"安南區","LI":"海佃里","LIN":"8鄰","STREET":"國安街","SECT":" ","MAREA":" ","LANE":"５６巷","ALLEY":" ","HOUSE_NO":"６１號","E_COORD97":166952.85000000001,"N_COORD97":2547195.1400000001,"ADDRESS":"國安街５６巷６１號","OBJECTID":297934},"geometry":{"x":166952.85000000056,"y":2547195.1400000025}},{"attributes":{"ID":297943,"DIS_CODE":0,"TOWNNAME":"安南區","LI":"海佃里","LIN":"8鄰","STREET":"國安街","SECT":" ","MAREA":" ","LANE":"５６巷","ALLEY":" ","HOUSE_NO":"６３號","E_COORD97":166952.85000000001,"N_COORD97":2547199.79,"ADDRESS":"國安街５６巷６３號","OBJECTID":297935},"geometry":{"x":166952.85000000056,"y":2547199.790000001}},{"attributes":{"ID":297944,"DIS_CODE":0,"TOWNNAME":"安南區","LI":"海佃里","LIN":"8鄰","STREET":"國安街","SECT":" ","MAREA":" ","LANE":"５６巷","ALLEY":" ","HOUSE_NO":"６５號","E_COORD97":166952.19,"N_COORD97":2547204.4399999999,"ADDRESS":"國安街５６巷６５號","OBJECTID":297936},"geometry":{"x":166952.19000000041,"y":2547204.4400000032}},{"attributes":{"ID":297945,"DIS_CODE":0,"TOWNNAME":"安南區","LI":"幸福里","LIN":"8鄰","STREET":"府安路","SECT":"六段","MAREA":" ","LANE":"１０３巷","ALLEY":" ","HOUSE_NO":"１２０號","E_COORD97":166674.98999999999,"N_COORD97":2546828.2999999998,"ADDRESS":"府安路六段１０３巷１２０號","OBJECTID":297937},"geometry":{"x":166674.99000000115,"y":2546828.3000000026}},{"attributes":{"ID":297946,"DIS_CODE":0,"TOWNNAME":"安南區","LI":"幸福里","LIN":"8鄰","STREET":"府安路","SECT":"六段","MAREA":" ","LANE":"１０３巷","ALLEY":" ","HOUSE_NO":"９２號","E_COORD97":166687.07999999999,"N_COORD97":2546746.6699999999,"ADDRESS":"府安路六段１０３巷９２號","OBJECTID":297938},"geometry":{"x":166687.07999999914,"y":2546746.6700000018}},{"attributes":{"ID":297947,"DIS_CODE":0,"TOWNNAME":"安南區","LI":"幸福里","LIN":"8鄰","STREET":"府安路","SECT":"六段","MAREA":" ","LANE":"１０３巷","ALLEY":" ","HOUSE_NO":"９６號","E_COORD97":166685.10999999999,"N_COORD97":2546756.3900000001,"ADDRESS":"府安路六段１０３巷９６號","OBJECTID":297939},"geometry":{"x":166685.11000000034,"y":2546756.3900000025}},{"attributes":{"ID":297948,"DIS_CODE":0,"TOWNNAME":"安南區","LI":"幸福里","LIN":"8鄰","STREET":"府安路","SECT":"六段","MAREA":" ","LANE":"１０３巷","ALLEY":" ","HOUSE_NO":"９８號","E_COORD97":166683.37,"N_COORD97":2546761.02,"ADDRESS":"府安路六段１０３巷９８號","OBJECTID":297940},"geometry":{"x":166683.37000000011,"y":2546761.0200000014}},{"attributes":{"ID":297949,"DIS_CODE":0,"TOWNNAME":"東區","LI":"文聖里","LIN":"14鄰","STREET":"裕孝路","SECT":" ","MAREA":" ","LANE":" ","ALLEY":" ","HOUSE_NO":"１６６號","E_COORD97":172421,"N_COORD97":2542794.7599999998,"ADDRESS":"裕孝路１６６號","OBJECTID":297941},"geometry":{"x":172421.00000000093,"y":2542794.7599999979}},{"attributes":{"ID":297950,"DIS_CODE":0,"TOWNNAME":"東區","LI":"文聖里","LIN":"14鄰","STREET":"裕孝路","SECT":" ","MAREA":" ","LANE":" ","ALLEY":" ","HOUSE_NO":"１６８號","E_COORD97":172427.23000000001,"N_COORD97":2542794.7599999998,"ADDRESS":"裕孝路１６８號","OBJECTID":297942},"geometry":{"x":172427.23000000138,"y":2542794.7599999979}},{"attributes":{"ID":297951,"DIS_CODE":0,"TOWNNAME":"北區","LI":"三德里","LIN":"4鄰","STREET":"裕民街","SECT":" ","MAREA":" ","LANE":"８４巷","ALLEY":" ","HOUSE_NO":"５號","E_COORD97":168535.60000000001,"N_COORD97":2544525.0699999998,"ADDRESS":"裕民街８４巷５號","OBJECTID":297943},"geometry":{"x":168535.59999999963,"y":2544525.0700000003}},{"attributes":{"ID":297952,"DIS_CODE":0,"TOWNNAME":"北區","LI":"三德里","LIN":"4鄰","STREET":"裕民街","SECT":" ","MAREA":" ","LANE":"８４巷","ALLEY":" ","HOUSE_NO":"７號","E_COORD97":168544.79000000001,"N_COORD97":2544533.8300000001,"ADDRESS":"裕民街８４巷７號","OBJECTID":297944},"geometry":{"x":168544.79000000004,"y":2544533.8299999982}},{"attributes":{"ID":297953,"DIS_CODE":0,"TOWNNAME":"北區","LI":"三德里","LIN":"4鄰","STREET":"裕民街","SECT":" ","MAREA":" ","LANE":"８４巷","ALLEY":" ","HOUSE_NO":"９號","E_COORD97":168550.35999999999,"N_COORD97":2544537.8599999999,"ADDRESS":"裕民街８４巷９號","OBJECTID":297945},"geometry":{"x":168550.3600000022,"y":2544537.8600000013}},{"attributes":{"ID":297954,"DIS_CODE":0,"TOWNNAME":"北區","LI":"大仁里","LIN":"4鄰","STREET":"北門路","SECT":"二段","MAREA":" ","LANE":"３６６巷","ALLEY":" ","HOUSE_NO":"１號","E_COORD97":169619.16,"N_COORD97":2545416.2400000002,"ADDRESS":"北門路二段３６６巷１號","OBJECTID":297946},"geometry":{"x":169619.16000000015,"y":2545416.2400000039}},{"attributes":{"ID":297955,"DIS_CODE":0,"TOWNNAME":"北區","LI":"大仁里","LIN":"4鄰","STREET":"北門路","SECT":"二段","MAREA":" ","LANE":"３６６巷","ALLEY":" ","HOUSE_NO":"２號","E_COORD97":169626.60000000001,"N_COORD97":2545414.4399999999,"ADDRESS":"北門路二段３６６巷２號","OBJECTID":297947},"geometry":{"x":169626.60000000056,"y":2545414.4400000013}},{"attributes":{"ID":297956,"DIS_CODE":0,"TOWNNAME":"永康區","LI":"三合里","LIN":"8鄰","STREET":"南工街","SECT":" ","MAREA":" ","LANE":"１０３巷","ALLEY":" ","HOUSE_NO":"４號","E_COORD97":172074.29999999999,"N_COORD97":2545727.5,"ADDRESS":"南工街１０３巷４號","OBJECTID":297948},"geometry":{"x":172074.29999999888,"y":2545727.5000000019}},{"attributes":{"ID":297957,"DIS_CODE":0,"TOWNNAME":"永康區","LI":"大灣里","LIN":"8鄰","STREET":"民族路","SECT":" ","MAREA":" ","LANE":"３９６巷","ALLEY":" ","HOUSE_NO":"５８號","E_COORD97":174760.53,"N_COORD97":2545515.5,"ADDRESS":"民族路３９６巷５８號","OBJECTID":297949},"geometry":{"x":174760.53000000119,"y":2545515.5}},{"attributes":{"ID":297958,"DIS_CODE":0,"TOWNNAME":"永康區","LI":"三合里","LIN":"8鄰","STREET":"南工街","SECT":" ","MAREA":" ","LANE":"１０３巷","ALLEY":" ","HOUSE_NO":"２號","E_COORD97":172078.60000000001,"N_COORD97":2545727,"ADDRESS":"南工街１０３巷２號","OBJECTID":297950},"geometry":{"x":172078.59999999963,"y":2545727.0000000019}},{"attributes":{"ID":297959,"DIS_CODE":0,"TOWNNAME":"永康區","LI":"三合里","LIN":"8鄰","STREET":"南工街","SECT":" ","MAREA":" ","LANE":"１１９巷","ALLEY":" ","HOUSE_NO":"３號","E_COORD97":172074.14999999999,"N_COORD97":2545748.7400000002,"ADDRESS":"南工街１１９巷３號","OBJECTID":297951},"geometry":{"x":172074.15000000037,"y":2545748.7400000039}},{"attributes":{"ID":297960,"DIS_CODE":0,"TOWNNAME":"永康區","LI":"三合里","LIN":"8鄰","STREET":"南工街","SECT":" ","MAREA":" ","LANE":"１４５巷","ALLEY":" ","HOUSE_NO":"３號","E_COORD97":172047.85000000001,"N_COORD97":2545800.52,"ADDRESS":"南工街１４５巷３號","OBJECTID":297952},"geometry":{"x":172047.84999999963,"y":2545800.5200000014}},{"attributes":{"ID":297961,"DIS_CODE":0,"TOWNNAME":"永康區","LI":"三合里","LIN":"8鄰","STREET":"南工街","SECT":" ","MAREA":" ","LANE":"１３５巷","ALLEY":" ","HOUSE_NO":"８號","E_COORD97":172036.75,"N_COORD97":2545779.5699999998,"ADDRESS":"南工街１３５巷８號","OBJECTID":297953},"geometry":{"x":172036.75000000093,"y":2545779.5700000003}},{"attributes":{"ID":297962,"DIS_CODE":0,"TOWNNAME":"永康區","LI":"三合里","LIN":"8鄰","STREET":"南工街","SECT":" ","MAREA":" ","LANE":"１１９巷","ALLEY":" ","HOUSE_NO":"９號","E_COORD97":172061.54999999999,"N_COORD97":2545748.7400000002,"ADDRESS":"南工街１１９巷９號","OBJECTID":297954},"geometry":{"x":172061.55000000075,"y":2545748.7400000039}},{"attributes":{"ID":297963,"DIS_CODE":0,"TOWNNAME":"永康區","LI":"三合里","LIN":"8鄰","STREET":"南工街","SECT":" ","MAREA":" ","LANE":"１１９巷","ALLEY":" ","HOUSE_NO":"７號","E_COORD97":172065.85000000001,"N_COORD97":2545748.7400000002,"ADDRESS":"南工街１１９巷７號","OBJECTID":297955},"geometry":{"x":172065.85000000056,"y":2545748.7400000039}},{"attributes":{"ID":297964,"DIS_CODE":0,"TOWNNAME":"永康區","LI":"三合里","LIN":"8鄰","STREET":"南工街","SECT":" ","MAREA":" ","LANE":"１４５巷","ALLEY":" ","HOUSE_NO":"４號","E_COORD97":172043.54999999999,"N_COORD97":2545801.02,"ADDRESS":"南工街１４５巷４號","OBJECTID":297956},"geometry":{"x":172043.54999999981,"y":2545801.0200000014}},{"attributes":{"ID":297965,"DIS_CODE":0,"TOWNNAME":"永康區","LI":"三合里","LIN":"8鄰","STREET":"南工街","SECT":" ","MAREA":" ","LANE":"１１９巷","ALLEY":" ","HOUSE_NO":"１２號","E_COORD97":172057.42000000001,"N_COORD97":2545759.2400000002,"ADDRESS":"南工街１１９巷１２號","OBJECTID":297957},"geometry":{"x":172057.42000000086,"y":2545759.2400000021}},{"attributes":{"ID":297966,"DIS_CODE":0,"TOWNNAME":"永康區","LI":"三合里","LIN":"8鄰","STREET":"南工街","SECT":" ","MAREA":" ","LANE":"１１９巷","ALLEY":" ","HOUSE_NO":"８號","E_COORD97":172065.51000000001,"N_COORD97":2545759.7400000002,"ADDRESS":"南工街１１９巷８號","OBJECTID":297958},"geometry":{"x":172065.50999999978,"y":2545759.7400000021}},{"attributes":{"ID":297967,"DIS_CODE":0,"TOWNNAME":"永康區","LI":"三合里","LIN":"8鄰","STREET":"南工街","SECT":" ","MAREA":" ","LANE":"１１９巷","ALLEY":" ","HOUSE_NO":"２號","E_COORD97":172078.16,"N_COORD97":2545759.9900000002,"ADDRESS":"南工街１１９巷２號","OBJECTID":297959},"geometry":{"x":172078.16000000108,"y":2545759.9900000002}},{"attributes":{"ID":297968,"DIS_CODE":0,"TOWNNAME":"永康區","LI":"三合里","LIN":"8鄰","STREET":"南工街","SECT":" ","MAREA":" ","LANE":"１３５巷","ALLEY":" ","HOUSE_NO":"１０號","E_COORD97":172030.12,"N_COORD97":2545779.3199999998,"ADDRESS":"南工街１３５巷１０號","OBJECTID":297960},"geometry":{"x":172030.12000000197,"y":2545779.3200000022}},{"attributes":{"ID":297969,"DIS_CODE":0,"TOWNNAME":"永康區","LI":"三合里","LIN":"8鄰","STREET":"南工街","SECT":" ","MAREA":" ","LANE":"１１９巷","ALLEY":" ","HOUSE_NO":"４號","E_COORD97":172073.92000000001,"N_COORD97":2545759.4900000002,"ADDRESS":"南工街１１９巷４號","OBJECTID":297961},"geometry":{"x":172073.92000000086,"y":2545759.4900000002}},{"attributes":{"ID":297970,"DIS_CODE":0,"TOWNNAME":"永康區","LI":"三合里","LIN":"8鄰","STREET":"南工街","SECT":" ","MAREA":" ","LANE":"１３５巷","ALLEY":" ","HOUSE_NO":"２之１號","E_COORD97":172045.94,"N_COORD97":2545780.0800000001,"ADDRESS":"南工街１３５巷２之１號","OBJECTID":297962},"geometry":{"x":172045.94000000134,"y":2545780.0800000038}},{"attributes":{"ID":297971,"DIS_CODE":0,"TOWNNAME":"東區","LI":"文聖里","LIN":"14鄰","STREET":"裕孝路","SECT":" ","MAREA":" ","LANE":" ","ALLEY":" ","HOUSE_NO":"１７０號","E_COORD97":172427.37,"N_COORD97":2542776.3500000001,"ADDRESS":"裕孝路１７０號","OBJECTID":297963},"geometry":{"x":172427.37000000104,"y":2542776.3499999996}},{"attributes":{"ID":297972,"DIS_CODE":0,"TOWNNAME":"東區","LI":"文聖里","LIN":"14鄰","STREET":"裕孝路","SECT":" ","MAREA":" ","LANE":" ","ALLEY":" ","HOUSE_NO":"１７２號","E_COORD97":172422.10999999999,"N_COORD97":2542776.21,"ADDRESS":"裕孝路１７２號","OBJECTID":297964},"geometry":{"x":172422.1100000022,"y":2542776.2100000046}},{"attributes":{"ID":297973,"DIS_CODE":0,"TOWNNAME":"東區","LI":"文聖里","LIN":"14鄰","STREET":"裕孝路","SECT":" ","MAREA":" ","LANE":" ","ALLEY":" ","HOUSE_NO":"１７６號","E_COORD97":172416.57000000001,"N_COORD97":2542776.0699999998,"ADDRESS":"裕孝路１７６號","OBJECTID":297965},"geometry":{"x":172416.5700000003,"y":2542776.0700000003}},{"attributes":{"ID":297974,"DIS_CODE":0,"TOWNNAME":"東區","LI":"文聖里","LIN":"14鄰","STREET":"裕孝路","SECT":" ","MAREA":" ","LANE":" ","ALLEY":" ","HOUSE_NO":"１７８號","E_COORD97":172409.92999999999,"N_COORD97":2542776.3500000001,"ADDRESS":"裕孝路１７８號","OBJECTID":297966},"geometry":{"x":172409.9299999997,"y":2542776.3499999996}},{"attributes":{"ID":297975,"DIS_CODE":0,"TOWNNAME":"東區","LI":"文聖里","LIN":"14鄰","STREET":"裕孝路","SECT":" ","MAREA":" ","LANE":" ","ALLEY":" ","HOUSE_NO":"１８０號","E_COORD97":172403.01000000001,"N_COORD97":2542776.21,"ADDRESS":"裕孝路１８０號","OBJECTID":297967},"geometry":{"x":172403.00999999978,"y":2542776.2100000046}},{"attributes":{"ID":297976,"DIS_CODE":0,"TOWNNAME":"歸仁區","LI":"媽廟里","LIN":"4鄰","STREET":"和順路","SECT":"一段","MAREA":" ","LANE":"１１巷","ALLEY":" ","HOUSE_NO":"８２號","E_COORD97":177490.12,"N_COORD97":2543604.7200000002,"ADDRESS":"和順路一段１１巷８２號","OBJECTID":297968},"geometry":{"x":177490.12000000011,"y":2543604.7200000025}},{"attributes":{"ID":297977,"DIS_CODE":0,"TOWNNAME":"歸仁區","LI":"許厝里","LIN":"4鄰","STREET":"仁愛一街","SECT":" ","MAREA":" ","LANE":"３８巷","ALLEY":" ","HOUSE_NO":"１４號","E_COORD97":178378.45999999999,"N_COORD97":2540563.1499999999,"ADDRESS":"仁愛一街３８巷１４號","OBJECTID":297969},"geometry":{"x":178378.46000000089,"y":2540563.1500000022}},{"attributes":{"ID":297978,"DIS_CODE":0,"TOWNNAME":"鹽水區","LI":"田寮里","LIN":"4鄰","STREET":" ","SECT":" ","MAREA":"田寮","LANE":" ","ALLEY":" ","HOUSE_NO":"４８號","E_COORD97":171077.76000000001,"N_COORD97":2575162.9300000002,"ADDRESS":"田寮４８號","OBJECTID":297970},"geometry":{"x":171077.75999999885,"y":2575162.9300000016}},{"attributes":{"ID":297979,"DIS_CODE":0,"TOWNNAME":"新營區","LI":"角帶里","LIN":"4鄰","STREET":" ","SECT":" ","MAREA":"角帶圍","LANE":" ","ALLEY":" ","HOUSE_NO":"５６號","E_COORD97":174853.85000000001,"N_COORD97":2575750.6499999999,"ADDRESS":"角帶圍５６號","OBJECTID":297971},"geometry":{"x":174853.8499999987,"y":2575750.6499999985}},{"attributes":{"ID":297980,"DIS_CODE":0,"TOWNNAME":"新化區","LI":"大坑里","LIN":"4鄰","STREET":" ","SECT":" ","MAREA":"大坑尾","LANE":" ","ALLEY":" ","HOUSE_NO":"７１號","E_COORD97":186969.98000000001,"N_COORD97":2545498.25,"ADDRESS":"大坑尾７１號","OBJECTID":297972},"geometry":{"x":186969.98000000138,"y":2545498.2500000019}},{"attributes":{"ID":297981,"DIS_CODE":0,"TOWNNAME":"北區","LI":"元寶里","LIN":"4鄰","STREET":"北園街","SECT":" ","MAREA":" ","LANE":"４６巷","ALLEY":" ","HOUSE_NO":"１０號","E_COORD97":170394.62,"N_COORD97":2545776.1800000002,"ADDRESS":"北園街４６巷１０號","OBJECTID":297973},"geometry":{"x":170394.62000000104,"y":2545776.1800000016}},{"attributes":{"ID":297982,"DIS_CODE":0,"TOWNNAME":"北區","LI":"元寶里","LIN":"4鄰","STREET":"北園街","SECT":" ","MAREA":" ","LANE":"４６巷","ALLEY":" ","HOUSE_NO":"２號","E_COORD97":170372.79000000001,"N_COORD97":2545776.6299999999,"ADDRESS":"北園街４６巷２號","OBJECTID":297974},"geometry":{"x":170372.7900000019,"y":2545776.6300000008}},{"attributes":{"ID":297983,"DIS_CODE":0,"TOWNNAME":"永康區","LI":"三合里","LIN":"8鄰","STREET":"南工街","SECT":" ","MAREA":" ","LANE":"１０３巷","ALLEY":" ","HOUSE_NO":"８號","E_COORD97":172065.85000000001,"N_COORD97":2545727.5,"ADDRESS":"南工街１０３巷８號","OBJECTID":297975},"geometry":{"x":172065.85000000056,"y":2545727.5000000019}},{"attributes":{"ID":297984,"DIS_CODE":0,"TOWNNAME":"永康區","LI":"勝利里","LIN":"8鄰","STREET":"勝利街","SECT":" ","MAREA":" ","LANE":"２２巷","ALLEY":" ","HOUSE_NO":"４８號","E_COORD97":171277.87,"N_COORD97":2544691.5099999998,"ADDRESS":"勝利街２２巷４８號","OBJECTID":297976},"geometry":{"x":171277.87000000104,"y":2544691.5099999998}},{"attributes":{"ID":297985,"DIS_CODE":0,"TOWNNAME":"永康區","LI":"南灣里","LIN":"8鄰","STREET":"南興路","SECT":" ","MAREA":" ","LANE":"４８巷","ALLEY":" ","HOUSE_NO":"６號","E_COORD97":174301.5,"N_COORD97":2544102.1000000001,"ADDRESS":"南興路４８巷６號","OBJECTID":297977},"geometry":{"x":174301.50000000093,"y":2544102.1000000015}},{"attributes":{"ID":297986,"DIS_CODE":0,"TOWNNAME":"永康區","LI":"東灣里","LIN":"8鄰","STREET":"大灣路","SECT":" ","MAREA":" ","LANE":"４５０巷","ALLEY":" ","HOUSE_NO":"１２號","E_COORD97":174718.20999999999,"N_COORD97":2544961.6899999999,"ADDRESS":"大灣路４５０巷１２號","OBJECTID":297978},"geometry":{"x":174718.21000000089,"y":2544961.6900000032}},{"attributes":{"ID":297987,"DIS_CODE":0,"TOWNNAME":"永康區","LI":"勝利里","LIN":"8鄰","STREET":"勝利街","SECT":" ","MAREA":" ","LANE":"２２巷","ALLEY":" ","HOUSE_NO":"２４號","E_COORD97":171274.67999999999,"N_COORD97":2544652.0099999998,"ADDRESS":"勝利街２２巷２４號","OBJECTID":297979},"geometry":{"x":171274.6799999997,"y":2544652.0100000016}},{"attributes":{"ID":297988,"DIS_CODE":0,"TOWNNAME":"安南區","LI":"南興里","LIN":"8鄰","STREET":"安興街","SECT":" ","MAREA":" ","LANE":"６２４巷","ALLEY":" ","HOUSE_NO":"１９號","E_COORD97":163532.79000000001,"N_COORD97":2552443.0299999998,"ADDRESS":"安興街６２４巷１９號","OBJECTID":297980},"geometry":{"x":163532.7900000019,"y":2552443.0300000012}},{"attributes":{"ID":297989,"DIS_CODE":0,"TOWNNAME":"安南區","LI":"新順里","LIN":"8鄰","STREET":"總安街","SECT":"一段","MAREA":" ","LANE":"３６２巷","ALLEY":" ","HOUSE_NO":"３０號","E_COORD97":169217.17999999999,"N_COORD97":2550480.8900000001,"ADDRESS":"總安街一段３６２巷３０號","OBJECTID":297981},"geometry":{"x":169217.18000000063,"y":2550480.8900000043}},{"attributes":{"ID":297990,"DIS_CODE":0,"TOWNNAME":"東區","LI":"文聖里","LIN":"14鄰","STREET":"裕孝路","SECT":" ","MAREA":" ","LANE":" ","ALLEY":" ","HOUSE_NO":"１８２號","E_COORD97":172402.73000000001,"N_COORD97":2542767.21,"ADDRESS":"裕孝路１８２號","OBJECTID":297982},"geometry":{"x":172402.73000000231,"y":2542767.2100000028}},{"attributes":{"ID":297991,"DIS_CODE":0,"TOWNNAME":"東區","LI":"文聖里","LIN":"14鄰","STREET":"裕孝路","SECT":" ","MAREA":" ","LANE":" ","ALLEY":" ","HOUSE_NO":"１８６號","E_COORD97":172409.23999999999,"N_COORD97":2542766.7999999998,"ADDRESS":"裕孝路１８６號","OBJECTID":297983},"geometry":{"x":172409.24000000209,"y":2542766.8000000026}},{"attributes":{"ID":297992,"DIS_CODE":0,"TOWNNAME":"東區","LI":"文聖里","LIN":"14鄰","STREET":"裕孝路","SECT":" ","MAREA":" ","LANE":" ","ALLEY":" ","HOUSE_NO":"１８８號","E_COORD97":172416.01999999999,"N_COORD97":2542766.7999999998,"ADDRESS":"裕孝路１８８號","OBJECTID":297984},"geometry":{"x":172416.01999999955,"y":2542766.8000000026}},{"attributes":{"ID":297993,"DIS_CODE":0,"TOWNNAME":"東區","LI":"文聖里","LIN":"14鄰","STREET":"裕孝路","SECT":" ","MAREA":" ","LANE":" ","ALLEY":" ","HOUSE_NO":"１９０號","E_COORD97":172422.10999999999,"N_COORD97":2542767.0699999998,"ADDRESS":"裕孝路１９０號","OBJECTID":297985},"geometry":{"x":172422.1100000022,"y":2542767.0700000022}},{"attributes":{"ID":297994,"DIS_CODE":0,"TOWNNAME":"東區","LI":"文聖里","LIN":"14鄰","STREET":"裕孝路","SECT":" ","MAREA":" ","LANE":" ","ALLEY":" ","HOUSE_NO":"１９２號","E_COORD97":172427.51000000001,"N_COORD97":2542767.0699999998,"ADDRESS":"裕孝路１９２號","OBJECTID":297986},"geometry":{"x":172427.51000000071,"y":2542767.0700000022}},{"attributes":{"ID":297995,"DIS_CODE":0,"TOWNNAME":"新化區","LI":"北勢里","LIN":"4鄰","STREET":" ","SECT":" ","MAREA":"北勢","LANE":" ","ALLEY":" ","HOUSE_NO":"４７號之１","E_COORD97":177289.16,"N_COORD97":2549592.2599999998,"ADDRESS":"北勢４７號之１","OBJECTID":297987},"geometry":{"x":177289.16000000108,"y":2549592.2599999998}},{"attributes":{"ID":297996,"DIS_CODE":0,"TOWNNAME":"安南區","LI":"新順里","LIN":"8鄰","STREET":"總安街","SECT":"一段","MAREA":" ","LANE":"３６２巷","ALLEY":" ","HOUSE_NO":"２號","E_COORD97":169216.72,"N_COORD97":2550392.25,"ADDRESS":"總安街一段３６２巷２號","OBJECTID":297988},"geometry":{"x":169216.7200000016,"y":2550392.25}},{"attributes":{"ID":297997,"DIS_CODE":0,"TOWNNAME":"安南區","LI":"新順里","LIN":"8鄰","STREET":"總安街","SECT":"一段","MAREA":" ","LANE":"３６２巷","ALLEY":" ","HOUSE_NO":"６號","E_COORD97":169215.26000000001,"N_COORD97":2550398.2200000002,"ADDRESS":"總安街一段３６２巷６號","OBJECTID":297989},"geometry":{"x":169215.26000000071,"y":2550398.2200000025}},{"attributes":{"ID":297998,"DIS_CODE":0,"TOWNNAME":"安南區","LI":"州北里","LIN":"8鄰","STREET":"安和路","SECT":"五段","MAREA":" ","LANE":"１７１巷","ALLEY":" ","HOUSE_NO":"１８０號","E_COORD97":169649.51999999999,"N_COORD97":2551572.5899999999,"ADDRESS":"安和路五段１７１巷１８０號","OBJECTID":297990},"geometry":{"x":169649.51999999955,"y":2551572.5899999999}},{"attributes":{"ID":297999,"DIS_CODE":0,"TOWNNAME":"東區","LI":"崇德里","LIN":"8鄰","STREET":"崇德七街","SECT":" ","MAREA":" ","LANE":"３０巷","ALLEY":" ","HOUSE_NO":"１１號","E_COORD97":170875.95000000001,"N_COORD97":2541796.52,"ADDRESS":"崇德七街３０巷１１號","OBJECTID":297991},"geometry":{"x":170875.95000000112,"y":2541796.5200000014}},{"attributes":{"ID":298000,"DIS_CODE":0,"TOWNNAME":"東區","LI":"崇德里","LIN":"8鄰","STREET":"崇德七街","SECT":" ","MAREA":" ","LANE":"３０巷","ALLEY":" ","HOUSE_NO":"１３號","E_COORD97":170877.32000000001,"N_COORD97":2541792.02,"ADDRESS":"崇德七街３０巷１３號","OBJECTID":297992},"geometry":{"x":170877.3200000003,"y":2541792.0199999996}},{"attributes":{"ID":298001,"DIS_CODE":0,"TOWNNAME":"東區","LI":"崇德里","LIN":"8鄰","STREET":"崇德七街","SECT":" ","MAREA":" ","LANE":"３０巷","ALLEY":" ","HOUSE_NO":"１５號","E_COORD97":170878.88,"N_COORD97":2541787.1299999999,"ADDRESS":"崇德七街３０巷１５號","OBJECTID":297993},"geometry":{"x":170878.88000000175,"y":2541787.129999999}},{"attributes":{"ID":298002,"DIS_CODE":0,"TOWNNAME":"東區","LI":"崇德里","LIN":"8鄰","STREET":"崇德七街","SECT":" ","MAREA":" ","LANE":"３０巷","ALLEY":" ","HOUSE_NO":"１７號","E_COORD97":170879.67000000001,"N_COORD97":2541782.2400000002,"ADDRESS":"崇德七街３０巷１７號","OBJECTID":297994},"geometry":{"x":170879.66999999993,"y":2541782.2400000021}},{"attributes":{"ID":298003,"DIS_CODE":0,"TOWNNAME":"東區","LI":"崇德里","LIN":"8鄰","STREET":"崇德七街","SECT":" ","MAREA":" ","LANE":"３０巷","ALLEY":" ","HOUSE_NO":"１９號","E_COORD97":170882.60000000001,"N_COORD97":2541777.3500000001,"ADDRESS":"崇德七街３０巷１９號","OBJECTID":297995},"geometry":{"x":170882.60000000056,"y":2541777.3500000015}},{"attributes":{"ID":298004,"DIS_CODE":0,"TOWNNAME":"東區","LI":"崇德里","LIN":"8鄰","STREET":"崇德七街","SECT":" ","MAREA":" ","LANE":"３０巷","ALLEY":" ","HOUSE_NO":"２１號","E_COORD97":170883.78,"N_COORD97":2541774.4199999999,"ADDRESS":"崇德七街３０巷２１號","OBJECTID":297996},"geometry":{"x":170883.78000000119,"y":2541774.4200000018}},{"attributes":{"ID":298005,"DIS_CODE":0,"TOWNNAME":"東區","LI":"崇德里","LIN":"8鄰","STREET":"崇德七街","SECT":" ","MAREA":" ","LANE":"３０巷","ALLEY":" ","HOUSE_NO":"５９號","E_COORD97":170909,"N_COORD97":2541685.77,"ADDRESS":"崇德七街３０巷５９號","OBJECTID":297997},"geometry":{"x":170909.00000000093,"y":2541685.7699999977}},{"attributes":{"ID":298006,"DIS_CODE":0,"TOWNNAME":"東區","LI":"崇德里","LIN":"8鄰","STREET":"崇德七街","SECT":" ","MAREA":" ","LANE":"３０巷","ALLEY":" ","HOUSE_NO":"５號","E_COORD97":170873.39999999999,"N_COORD97":2541809.04,"ADDRESS":"崇德七街３０巷５號","OBJECTID":297998},"geometry":{"x":170873.40000000037,"y":2541809.0400000028}},{"attributes":{"ID":298007,"DIS_CODE":0,"TOWNNAME":"東區","LI":"崇德里","LIN":"8鄰","STREET":"崇德七街","SECT":" ","MAREA":" ","LANE":"３０巷","ALLEY":" ","HOUSE_NO":"６１號","E_COORD97":170909.97,"N_COORD97":2541681.1200000001,"ADDRESS":"崇德七街３０巷６１號","OBJECTID":297999},"geometry":{"x":170909.96999999974,"y":2541681.120000001}},{"attributes":{"ID":298008,"DIS_CODE":0,"TOWNNAME":"東區","LI":"崇德里","LIN":"8鄰","STREET":"崇德七街","SECT":" ","MAREA":" ","LANE":"３０巷","ALLEY":" ","HOUSE_NO":"７７號","E_COORD97":170920.91,"N_COORD97":2541647.1400000001,"ADDRESS":"崇德七街３０巷７７號","OBJECTID":298000},"geometry":{"x":170920.91000000015,"y":2541647.1400000043}}]}