{"displayFieldName":"TOWNNAME","fieldAliases":{"ID":"ID","DIS_CODE":"DIS_CODE","TOWNNAME":"TOWNNAME","LI":"LI","LIN":"LIN","STREET":"STREET","SECT":"SECT","MAREA":"MAREA","LANE":"LANE","ALLEY":"ALLEY","HOUSE_NO":"HOUSE_NO","E_COORD97":"E_COORD97","N_COORD97":"N_COORD97","ADDRESS":"ADDRESS","OBJECTID":"OBJECTID"},"geometryType":"esriGeometryPoint","spatialReference":{"wkid":102443,"latestWkid":3826},"fields":[{"name":"ID","type":"esriFieldTypeDouble","alias":"ID"},{"name":"DIS_CODE","type":"esriFieldTypeInteger","alias":"DIS_CODE"},{"name":"TOWNNAME","type":"esriFieldTypeString","alias":"TOWNNAME","length":8},{"name":"LI","type":"esriFieldTypeString","alias":"LI","length":8},{"name":"LIN","type":"esriFieldTypeString","alias":"LIN","length":12},{"name":"STREET","type":"esriFieldTypeString","alias":"STREET","length":20},{"name":"SECT","type":"esriFieldTypeString","alias":"SECT","length":8},{"name":"MAREA","type":"esriFieldTypeString","alias":"MAREA","length":12},{"name":"LANE","type":"esriFieldTypeString","alias":"LANE","length":10},{"name":"ALLEY","type":"esriFieldTypeString","alias":"ALLEY","length":10},{"name":"HOUSE_NO","type":"esriFieldTypeString","alias":"HOUSE_NO","length":20},{"name":"E_COORD97","type":"esriFieldTypeDouble","alias":"E_COORD97"},{"name":"N_COORD97","type":"esriFieldTypeDouble","alias":"N_COORD97"},{"name":"ADDRESS","type":"esriFieldTypeString","alias":"ADDRESS","length":50},{"name":"OBJECTID","type":"esriFieldTypeOID","alias":"OBJECTID"}],"features":[{"attributes":{"ID":599828,"DIS_CODE":0,"TOWNNAME":"新營區","LI":"民權里","LIN":"22鄰","STREET":"仁愛街","SECT":" ","MAREA":" ","LANE":" ","ALLEY":" ","HOUSE_NO":"１０３號","E_COORD97":179751.09,"N_COORD97":2578484.1899999999,"ADDRESS":"仁愛街１０３號","OBJECTID":599801},"geometry":{"x":179751.08999999985,"y":2578484.1899999995}},{"attributes":{"ID":599829,"DIS_CODE":0,"TOWNNAME":"新營區","LI":"民權里","LIN":"22鄰","STREET":"三民路","SECT":" ","MAREA":" ","LANE":" ","ALLEY":" ","HOUSE_NO":"１３０號之２","E_COORD97":179726.75,"N_COORD97":2578479.9399999999,"ADDRESS":"三民路１３０號之２","OBJECTID":599802},"geometry":{"x":179726.75,"y":2578479.9399999995}},{"attributes":{"ID":599830,"DIS_CODE":0,"TOWNNAME":"新營區","LI":"王公里","LIN":"22鄰","STREET":"大勇街","SECT":" ","MAREA":" ","LANE":" ","ALLEY":" ","HOUSE_NO":"１００號","E_COORD97":180465.41,"N_COORD97":2579433.23,"ADDRESS":"大勇街１００號","OBJECTID":599803},"geometry":{"x":180465.41000000108,"y":2579433.2300000023}},{"attributes":{"ID":599831,"DIS_CODE":0,"TOWNNAME":"新營區","LI":"民生里","LIN":"22鄰","STREET":"進修街","SECT":" ","MAREA":" ","LANE":" ","ALLEY":" ","HOUSE_NO":"１７號","E_COORD97":179038.73000000001,"N_COORD97":2578438.8599999999,"ADDRESS":"進修街１７號","OBJECTID":599804},"geometry":{"x":179038.73000000045,"y":2578438.8599999994}},{"attributes":{"ID":599832,"DIS_CODE":0,"TOWNNAME":"新營區","LI":"民榮里","LIN":"22鄰","STREET":"裕民路","SECT":" ","MAREA":" ","LANE":" ","ALLEY":" ","HOUSE_NO":"５６號","E_COORD97":179132.98000000001,"N_COORD97":2577823.77,"ADDRESS":"裕民路５６號","OBJECTID":599805},"geometry":{"x":179132.98000000138,"y":2577823.7699999977}},{"attributes":{"ID":599833,"DIS_CODE":0,"TOWNNAME":"新營區","LI":"民權里","LIN":"22鄰","STREET":"三民路","SECT":" ","MAREA":" ","LANE":" ","ALLEY":" ","HOUSE_NO":"１３０之１號","E_COORD97":179731.07000000001,"N_COORD97":2578481.0299999998,"ADDRESS":"三民路１３０之１號","OBJECTID":599806},"geometry":{"x":179731.07000000123,"y":2578481.0300000012}},{"attributes":{"ID":599834,"DIS_CODE":0,"TOWNNAME":"新營區","LI":"三仙里","LIN":"22鄰","STREET":"民治路","SECT":" ","MAREA":" ","LANE":" ","ALLEY":" ","HOUSE_NO":"７０之９號","E_COORD97":179638.53,"N_COORD97":2578851.3599999999,"ADDRESS":"民治路７０之９號","OBJECTID":599807},"geometry":{"x":179638.53000000026,"y":2578851.3600000013}},{"attributes":{"ID":599835,"DIS_CODE":0,"TOWNNAME":"南區","LI":"新興里","LIN":"22鄰","STREET":"三官路","SECT":" ","MAREA":" ","LANE":" ","ALLEY":" ","HOUSE_NO":"２３３號","E_COORD97":167113.29000000001,"N_COORD97":2541953.0899999999,"ADDRESS":"三官路２３３號","OBJECTID":599808},"geometry":{"x":167113.29000000097,"y":2541953.0900000017}},{"attributes":{"ID":599836,"DIS_CODE":0,"TOWNNAME":"南區","LI":"新興里","LIN":"22鄰","STREET":"三官路","SECT":" ","MAREA":" ","LANE":" ","ALLEY":" ","HOUSE_NO":"２３５號","E_COORD97":167109.67999999999,"N_COORD97":2541952.71,"ADDRESS":"三官路２３５號","OBJECTID":599809},"geometry":{"x":167109.6799999997,"y":2541952.7100000028}},{"attributes":{"ID":599837,"DIS_CODE":0,"TOWNNAME":"南區","LI":"新興里","LIN":"22鄰","STREET":"三官路","SECT":" ","MAREA":" ","LANE":" ","ALLEY":" ","HOUSE_NO":"２３７號","E_COORD97":167106.63,"N_COORD97":2541948.1499999999,"ADDRESS":"三官路２３７號","OBJECTID":599810},"geometry":{"x":167106.62999999989,"y":2541948.1500000004}},{"attributes":{"ID":599838,"DIS_CODE":0,"TOWNNAME":"南區","LI":"新興里","LIN":"22鄰","STREET":"金華路","SECT":"二段","MAREA":" ","LANE":" ","ALLEY":" ","HOUSE_NO":"１０號","E_COORD97":167067.64999999999,"N_COORD97":2541826.3799999999,"ADDRESS":"金華路二段１０號","OBJECTID":599811},"geometry":{"x":167067.65000000037,"y":2541826.379999999}},{"attributes":{"ID":599839,"DIS_CODE":0,"TOWNNAME":"南區","LI":"新興里","LIN":"22鄰","STREET":"金華路","SECT":"二段","MAREA":" ","LANE":" ","ALLEY":" ","HOUSE_NO":"１２號","E_COORD97":167068.26000000001,"N_COORD97":2541830.98,"ADDRESS":"金華路二段１２號","OBJECTID":599812},"geometry":{"x":167068.25999999978,"y":2541830.9800000004}},{"attributes":{"ID":599840,"DIS_CODE":0,"TOWNNAME":"南區","LI":"新興里","LIN":"22鄰","STREET":"金華路","SECT":"二段","MAREA":" ","LANE":" ","ALLEY":" ","HOUSE_NO":"１４號","E_COORD97":167068.85999999999,"N_COORD97":2541839.6899999999,"ADDRESS":"金華路二段１４號","OBJECTID":599813},"geometry":{"x":167068.86000000127,"y":2541839.6900000013}},{"attributes":{"ID":599841,"DIS_CODE":0,"TOWNNAME":"南區","LI":"新興里","LIN":"22鄰","STREET":"金華路","SECT":"二段","MAREA":" ","LANE":" ","ALLEY":" ","HOUSE_NO":"１６號","E_COORD97":167069.66,"N_COORD97":2541842.8900000001,"ADDRESS":"金華路二段１６號","OBJECTID":599814},"geometry":{"x":167069.66000000015,"y":2541842.8900000025}},{"attributes":{"ID":599842,"DIS_CODE":0,"TOWNNAME":"南區","LI":"新興里","LIN":"22鄰","STREET":"金華路","SECT":"二段","MAREA":" ","LANE":" ","ALLEY":" ","HOUSE_NO":"６號","E_COORD97":167067.85000000001,"N_COORD97":2541818.5699999998,"ADDRESS":"金華路二段６號","OBJECTID":599815},"geometry":{"x":167067.8499999987,"y":2541818.5700000022}},{"attributes":{"ID":599843,"DIS_CODE":0,"TOWNNAME":"南區","LI":"新興里","LIN":"22鄰","STREET":"金華路","SECT":"二段","MAREA":" ","LANE":" ","ALLEY":" ","HOUSE_NO":"８號","E_COORD97":167067.25,"N_COORD97":2541822.9700000002,"ADDRESS":"金華路二段８號","OBJECTID":599816},"geometry":{"x":167067.24999999907,"y":2541822.9700000025}},{"attributes":{"ID":599844,"DIS_CODE":0,"TOWNNAME":"安平區","LI":"華平里","LIN":"22鄰","STREET":"建平八街","SECT":" ","MAREA":" ","LANE":" ","ALLEY":" ","HOUSE_NO":"４２３號","E_COORD97":165222.12,"N_COORD97":2543578.27,"ADDRESS":"建平八街４２３號","OBJECTID":599817},"geometry":{"x":165222.12000000011,"y":2543578.2700000014}},{"attributes":{"ID":599845,"DIS_CODE":0,"TOWNNAME":"安平區","LI":"華平里","LIN":"22鄰","STREET":"建平八街","SECT":" ","MAREA":" ","LANE":" ","ALLEY":" ","HOUSE_NO":"４２９號","E_COORD97":165205.88,"N_COORD97":2543580.3399999999,"ADDRESS":"建平八街４２９號","OBJECTID":599818},"geometry":{"x":165205.88000000082,"y":2543580.3399999999}},{"attributes":{"ID":599846,"DIS_CODE":0,"TOWNNAME":"安平區","LI":"華平里","LIN":"22鄰","STREET":"建平八街","SECT":" ","MAREA":" ","LANE":" ","ALLEY":" ","HOUSE_NO":"４３１號","E_COORD97":165199.82999999999,"N_COORD97":2543581.3799999999,"ADDRESS":"建平八街４３１號","OBJECTID":599819},"geometry":{"x":165199.83000000007,"y":2543581.3800000008}},{"attributes":{"ID":599847,"DIS_CODE":0,"TOWNNAME":"安平區","LI":"華平里","LIN":"22鄰","STREET":"建平八街","SECT":" ","MAREA":" ","LANE":" ","ALLEY":" ","HOUSE_NO":"４３５號","E_COORD97":165185.84,"N_COORD97":2543582.9300000002,"ADDRESS":"建平八街４３５號","OBJECTID":599820},"geometry":{"x":165185.83999999985,"y":2543582.9299999997}},{"attributes":{"ID":599848,"DIS_CODE":0,"TOWNNAME":"安平區","LI":"華平里","LIN":"22鄰","STREET":"建平八街","SECT":" ","MAREA":" ","LANE":" ","ALLEY":" ","HOUSE_NO":"４３７號","E_COORD97":165177.54999999999,"N_COORD97":2543583.96,"ADDRESS":"建平八街４３７號","OBJECTID":599821},"geometry":{"x":165177.54999999981,"y":2543583.9600000009}},{"attributes":{"ID":599849,"DIS_CODE":0,"TOWNNAME":"安平區","LI":"華平里","LIN":"22鄰","STREET":"建平八街","SECT":" ","MAREA":" ","LANE":" ","ALLEY":" ","HOUSE_NO":"４３９號","E_COORD97":165170.64000000001,"N_COORD97":2543585.3399999999,"ADDRESS":"建平八街４３９號","OBJECTID":599822},"geometry":{"x":165170.63999999966,"y":2543585.3400000017}},{"attributes":{"ID":599850,"DIS_CODE":0,"TOWNNAME":"安平區","LI":"華平里","LIN":"22鄰","STREET":"建平八街","SECT":" ","MAREA":" ","LANE":" ","ALLEY":" ","HOUSE_NO":"４４１號","E_COORD97":165164.76999999999,"N_COORD97":2543586.7200000002,"ADDRESS":"建平八街４４１號","OBJECTID":599823},"geometry":{"x":165164.77000000142,"y":2543586.7200000025}},{"attributes":{"ID":599851,"DIS_CODE":0,"TOWNNAME":"安平區","LI":"華平里","LIN":"22鄰","STREET":"永華八街","SECT":" ","MAREA":" ","LANE":" ","ALLEY":" ","HOUSE_NO":"１２６號","E_COORD97":165143.01000000001,"N_COORD97":2543564.4700000002,"ADDRESS":"永華八街１２６號","OBJECTID":599824},"geometry":{"x":165143.01000000164,"y":2543564.4700000025}},{"attributes":{"ID":599852,"DIS_CODE":0,"TOWNNAME":"安平區","LI":"華平里","LIN":"22鄰","STREET":"永華八街","SECT":" ","MAREA":" ","LANE":" ","ALLEY":" ","HOUSE_NO":"１２８號","E_COORD97":165143.87,"N_COORD97":2543569.6499999999,"ADDRESS":"永華八街１２８號","OBJECTID":599825},"geometry":{"x":165143.87000000011,"y":2543569.6500000022}},{"attributes":{"ID":599853,"DIS_CODE":0,"TOWNNAME":"安平區","LI":"華平里","LIN":"22鄰","STREET":"永華八街","SECT":" ","MAREA":" ","LANE":" ","ALLEY":" ","HOUSE_NO":"１３０號","E_COORD97":165144.73000000001,"N_COORD97":2543573.96,"ADDRESS":"永華八街１３０號","OBJECTID":599826},"geometry":{"x":165144.73000000138,"y":2543573.9600000009}},{"attributes":{"ID":599854,"DIS_CODE":0,"TOWNNAME":"安平區","LI":"華平里","LIN":"22鄰","STREET":"永華八街","SECT":" ","MAREA":" ","LANE":" ","ALLEY":" ","HOUSE_NO":"１３２號","E_COORD97":165145.25,"N_COORD97":2543578.6200000001,"ADDRESS":"永華八街１３２號","OBJECTID":599827},"geometry":{"x":165145.25000000093,"y":2543578.6200000029}},{"attributes":{"ID":599855,"DIS_CODE":0,"TOWNNAME":"安平區","LI":"華平里","LIN":"22鄰","STREET":"永華八街","SECT":" ","MAREA":" ","LANE":" ","ALLEY":" ","HOUSE_NO":"１３４號","E_COORD97":165145.42000000001,"N_COORD97":2543583.4500000002,"ADDRESS":"永華八街１３４號","OBJECTID":599828},"geometry":{"x":165145.42000000179,"y":2543583.4500000011}},{"attributes":{"ID":599856,"DIS_CODE":0,"TOWNNAME":"安平區","LI":"華平里","LIN":"22鄰","STREET":"永華八街","SECT":" ","MAREA":" ","LANE":" ","ALLEY":" ","HOUSE_NO":"１３６號","E_COORD97":165146.81,"N_COORD97":2543588.4500000002,"ADDRESS":"永華八街１３６號","OBJECTID":599829},"geometry":{"x":165146.80999999959,"y":2543588.4499999993}},{"attributes":{"ID":599857,"DIS_CODE":0,"TOWNNAME":"東區","LI":"大智里","LIN":"20鄰","STREET":"崇善十五街","SECT":" ","MAREA":" ","LANE":" ","ALLEY":" ","HOUSE_NO":"３５號","E_COORD97":171325.03,"N_COORD97":2540547.6699999999,"ADDRESS":"崇善十五街３５號","OBJECTID":599830},"geometry":{"x":171325.03000000026,"y":2540547.6699999981}},{"attributes":{"ID":599858,"DIS_CODE":0,"TOWNNAME":"安平區","LI":"怡平里","LIN":"22鄰","STREET":"平通路","SECT":" ","MAREA":" ","LANE":" ","ALLEY":" ","HOUSE_NO":"３７９號","E_COORD97":165641.01000000001,"N_COORD97":2543714.52,"ADDRESS":"平通路３７９號","OBJECTID":599831},"geometry":{"x":165641.00999999978,"y":2543714.5199999996}},{"attributes":{"ID":599859,"DIS_CODE":0,"TOWNNAME":"安平區","LI":"怡平里","LIN":"22鄰","STREET":"平通路","SECT":" ","MAREA":" ","LANE":" ","ALLEY":" ","HOUSE_NO":"３８１號","E_COORD97":165637.20000000001,"N_COORD97":2543715.29,"ADDRESS":"平通路３８１號","OBJECTID":599832},"geometry":{"x":165637.20000000205,"y":2543715.2899999991}},{"attributes":{"ID":599860,"DIS_CODE":0,"TOWNNAME":"安平區","LI":"怡平里","LIN":"22鄰","STREET":"平通路","SECT":" ","MAREA":" ","LANE":" ","ALLEY":" ","HOUSE_NO":"３８３號","E_COORD97":165632.62,"N_COORD97":2543715.5899999999,"ADDRESS":"平通路３８３號","OBJECTID":599833},"geometry":{"x":165632.62000000197,"y":2543715.5900000017}},{"attributes":{"ID":599861,"DIS_CODE":0,"TOWNNAME":"安平區","LI":"怡平里","LIN":"22鄰","STREET":"平通路","SECT":" ","MAREA":" ","LANE":" ","ALLEY":" ","HOUSE_NO":"３８５號","E_COORD97":165626.51999999999,"N_COORD97":2543708.6899999999,"ADDRESS":"平通路３８５號","OBJECTID":599834},"geometry":{"x":165626.52000000048,"y":2543708.6900000013}},{"attributes":{"ID":599862,"DIS_CODE":0,"TOWNNAME":"安平區","LI":"怡平里","LIN":"22鄰","STREET":"平通路","SECT":" ","MAREA":" ","LANE":" ","ALLEY":" ","HOUSE_NO":"３８７號","E_COORD97":165622.56,"N_COORD97":2543709.48,"ADDRESS":"平通路３８７號","OBJECTID":599835},"geometry":{"x":165622.56000000052,"y":2543709.4800000042}},{"attributes":{"ID":599863,"DIS_CODE":0,"TOWNNAME":"安平區","LI":"怡平里","LIN":"22鄰","STREET":"平通路","SECT":" ","MAREA":" ","LANE":" ","ALLEY":" ","HOUSE_NO":"３８９號","E_COORD97":165617.60999999999,"N_COORD97":2543709.8799999999,"ADDRESS":"平通路３８９號","OBJECTID":599836},"geometry":{"x":165617.6100000022,"y":2543709.8800000008}},{"attributes":{"ID":599864,"DIS_CODE":0,"TOWNNAME":"歸仁區","LI":"新厝里","LIN":"22鄰","STREET":"大成六街","SECT":" ","MAREA":" ","LANE":" ","ALLEY":" ","HOUSE_NO":"３９號","E_COORD97":177577.94,"N_COORD97":2540276.1800000002,"ADDRESS":"大成六街３９號","OBJECTID":599837},"geometry":{"x":177577.94000000041,"y":2540276.1799999978}},{"attributes":{"ID":599865,"DIS_CODE":0,"TOWNNAME":"歸仁區","LI":"許厝里","LIN":"22鄰","STREET":"大仁街","SECT":" ","MAREA":" ","LANE":" ","ALLEY":" ","HOUSE_NO":"１０６號","E_COORD97":178146.67000000001,"N_COORD97":2540973.1099999999,"ADDRESS":"大仁街１０６號","OBJECTID":599838},"geometry":{"x":178146.67000000086,"y":2540973.1100000013}},{"attributes":{"ID":599866,"DIS_CODE":0,"TOWNNAME":"歸仁區","LI":"歸仁里","LIN":"22鄰","STREET":"文化二街","SECT":" ","MAREA":" ","LANE":" ","ALLEY":" ","HOUSE_NO":"６號","E_COORD97":178015,"N_COORD97":2541164.2599999998,"ADDRESS":"文化二街６號","OBJECTID":599839},"geometry":{"x":178015.00000000186,"y":2541164.2600000035}},{"attributes":{"ID":599867,"DIS_CODE":0,"TOWNNAME":"歸仁區","LI":"歸仁里","LIN":"22鄰","STREET":"文化街","SECT":"一段","MAREA":" ","LANE":" ","ALLEY":" ","HOUSE_NO":"７８號","E_COORD97":178058.57000000001,"N_COORD97":2541173.25,"ADDRESS":"文化街一段７８號","OBJECTID":599840},"geometry":{"x":178058.5700000003,"y":2541173.25}},{"attributes":{"ID":599868,"DIS_CODE":0,"TOWNNAME":"歸仁區","LI":"後市里","LIN":"22鄰","STREET":"中正北路","SECT":"一段","MAREA":" ","LANE":" ","ALLEY":" ","HOUSE_NO":"４９號","E_COORD97":177669.47,"N_COORD97":2540976.25,"ADDRESS":"中正北路一段４９號","OBJECTID":599841},"geometry":{"x":177669.47000000067,"y":2540976.2500000019}},{"attributes":{"ID":599869,"DIS_CODE":0,"TOWNNAME":"歸仁區","LI":"許厝里","LIN":"22鄰","STREET":"大仁街","SECT":" ","MAREA":" ","LANE":" ","ALLEY":" ","HOUSE_NO":"６０號","E_COORD97":178050.07999999999,"N_COORD97":2540890.23,"ADDRESS":"大仁街６０號","OBJECTID":599842},"geometry":{"x":178050.08000000194,"y":2540890.2299999986}},{"attributes":{"ID":599870,"DIS_CODE":0,"TOWNNAME":"歸仁區","LI":"新厝里","LIN":"22鄰","STREET":"大成八街","SECT":" ","MAREA":" ","LANE":" ","ALLEY":" ","HOUSE_NO":"４０號","E_COORD97":177606.44,"N_COORD97":2540238.1800000002,"ADDRESS":"大成八街４０號","OBJECTID":599843},"geometry":{"x":177606.44000000041,"y":2540238.1799999997}},{"attributes":{"ID":599871,"DIS_CODE":0,"TOWNNAME":"歸仁區","LI":"南保里","LIN":"22鄰","STREET":"民權六街","SECT":" ","MAREA":" ","LANE":" ","ALLEY":" ","HOUSE_NO":"５０號","E_COORD97":176869.19,"N_COORD97":2541111.29,"ADDRESS":"民權六街５０號","OBJECTID":599844},"geometry":{"x":176869.19000000041,"y":2541111.2899999991}},{"attributes":{"ID":599872,"DIS_CODE":0,"TOWNNAME":"歸仁區","LI":"媽廟里","LIN":"22鄰","STREET":"中正北路","SECT":"三段","MAREA":" ","LANE":" ","ALLEY":" ","HOUSE_NO":"１９６號","E_COORD97":177631.16,"N_COORD97":2543980.71,"ADDRESS":"中正北路三段１９６號","OBJECTID":599845},"geometry":{"x":177631.16000000108,"y":2543980.7100000028}},{"attributes":{"ID":599873,"DIS_CODE":0,"TOWNNAME":"歸仁區","LI":"新厝里","LIN":"22鄰","STREET":"大成六街","SECT":" ","MAREA":" ","LANE":" ","ALLEY":" ","HOUSE_NO":"６３號","E_COORD97":177587.94,"N_COORD97":2540230.1800000002,"ADDRESS":"大成六街６３號","OBJECTID":599846},"geometry":{"x":177587.94000000041,"y":2540230.1800000016}},{"attributes":{"ID":599874,"DIS_CODE":0,"TOWNNAME":"歸仁區","LI":"新厝里","LIN":"22鄰","STREET":"大成六街","SECT":" ","MAREA":" ","LANE":" ","ALLEY":" ","HOUSE_NO":"５３號","E_COORD97":177575.73999999999,"N_COORD97":2540246.1800000002,"ADDRESS":"大成六街５３號","OBJECTID":599847},"geometry":{"x":177575.74000000022,"y":2540246.1800000016}},{"attributes":{"ID":599875,"DIS_CODE":0,"TOWNNAME":"歸仁區","LI":"新厝里","LIN":"22鄰","STREET":"大成六街","SECT":" ","MAREA":" ","LANE":" ","ALLEY":" ","HOUSE_NO":"５９號","E_COORD97":177581.84,"N_COORD97":2540236.1800000002,"ADDRESS":"大成六街５９號","OBJECTID":599848},"geometry":{"x":177581.84000000171,"y":2540236.1800000016}},{"attributes":{"ID":599876,"DIS_CODE":0,"TOWNNAME":"歸仁區","LI":"新厝里","LIN":"22鄰","STREET":"大成六街","SECT":" ","MAREA":" ","LANE":" ","ALLEY":" ","HOUSE_NO":"４７號","E_COORD97":177569.64000000001,"N_COORD97":2540257.1800000002,"ADDRESS":"大成六街４７號","OBJECTID":599849},"geometry":{"x":177569.6400000006,"y":2540257.1800000016}},{"attributes":{"ID":599877,"DIS_CODE":0,"TOWNNAME":"歸仁區","LI":"八甲里","LIN":"22鄰","STREET":"大德路","SECT":" ","MAREA":" ","LANE":" ","ALLEY":" ","HOUSE_NO":"７２號","E_COORD97":178188.14000000001,"N_COORD97":2541342.25,"ADDRESS":"大德路７２號","OBJECTID":599850},"geometry":{"x":178188.14000000153,"y":2541342.2500000019}},{"attributes":{"ID":599878,"DIS_CODE":0,"TOWNNAME":"歸仁區","LI":"歸仁里","LIN":"22鄰","STREET":"忠孝北路","SECT":" ","MAREA":" ","LANE":" ","ALLEY":" ","HOUSE_NO":"２０３號","E_COORD97":178091.22,"N_COORD97":2541224.1099999999,"ADDRESS":"忠孝北路２０３號","OBJECTID":599851},"geometry":{"x":178091.2200000016,"y":2541224.1100000013}},{"attributes":{"ID":599879,"DIS_CODE":0,"TOWNNAME":"歸仁區","LI":"大廟里","LIN":"22鄰","STREET":"大廟一街","SECT":" ","MAREA":" ","LANE":" ","ALLEY":" ","HOUSE_NO":"４２號","E_COORD97":175815.26999999999,"N_COORD97":2544042.25,"ADDRESS":"大廟一街４２號","OBJECTID":599852},"geometry":{"x":175815.26999999955,"y":2544042.25}},{"attributes":{"ID":599880,"DIS_CODE":0,"TOWNNAME":"北區","LI":"大港里","LIN":"22鄰","STREET":"大興街","SECT":" ","MAREA":" ","LANE":" ","ALLEY":" ","HOUSE_NO":"３５０號","E_COORD97":166355.67000000001,"N_COORD97":2545586.73,"ADDRESS":"大興街３５０號","OBJECTID":599853},"geometry":{"x":166355.66999999993,"y":2545586.7300000023}},{"attributes":{"ID":599881,"DIS_CODE":0,"TOWNNAME":"北區","LI":"大港里","LIN":"22鄰","STREET":"大興街","SECT":" ","MAREA":" ","LANE":" ","ALLEY":" ","HOUSE_NO":"３５２號","E_COORD97":166350.42999999999,"N_COORD97":2545585.7799999998,"ADDRESS":"大興街３５２號","OBJECTID":599854},"geometry":{"x":166350.43000000156,"y":2545585.7800000012}},{"attributes":{"ID":599882,"DIS_CODE":0,"TOWNNAME":"北區","LI":"大港里","LIN":"22鄰","STREET":"大興街","SECT":" ","MAREA":" ","LANE":" ","ALLEY":" ","HOUSE_NO":"３５６號","E_COORD97":166345.82000000001,"N_COORD97":2545583.8799999999,"ADDRESS":"大興街３５６號","OBJECTID":599855},"geometry":{"x":166345.82000000123,"y":2545583.8800000008}},{"attributes":{"ID":599883,"DIS_CODE":0,"TOWNNAME":"北區","LI":"大港里","LIN":"22鄰","STREET":"大興街","SECT":" ","MAREA":" ","LANE":" ","ALLEY":" ","HOUSE_NO":"３５８號","E_COORD97":166341.06,"N_COORD97":2545582.7599999998,"ADDRESS":"大興街３５８號","OBJECTID":599856},"geometry":{"x":166341.06000000145,"y":2545582.7600000016}},{"attributes":{"ID":599884,"DIS_CODE":0,"TOWNNAME":"玉井區","LI":"玉田里","LIN":"22鄰","STREET":"中華路","SECT":" ","MAREA":" ","LANE":" ","ALLEY":" ","HOUSE_NO":"８４號","E_COORD97":194977.01000000001,"N_COORD97":2558018.25,"ADDRESS":"中華路８４號","OBJECTID":599857},"geometry":{"x":194977.01000000071,"y":2558018.2500000037}},{"attributes":{"ID":599885,"DIS_CODE":0,"TOWNNAME":"玉井區","LI":"玉田里","LIN":"22鄰","STREET":"中華路","SECT":" ","MAREA":" ","LANE":" ","ALLEY":" ","HOUSE_NO":"１０８號之２","E_COORD97":195022.53,"N_COORD97":2557979.29,"ADDRESS":"中華路１０８號之２","OBJECTID":599858},"geometry":{"x":195022.53000000026,"y":2557979.2899999972}},{"attributes":{"ID":599886,"DIS_CODE":0,"TOWNNAME":"玉井區","LI":"玉田里","LIN":"22鄰","STREET":"民權路","SECT":" ","MAREA":" ","LANE":" ","ALLEY":" ","HOUSE_NO":"１４號","E_COORD97":194986.63,"N_COORD97":2557946.29,"ADDRESS":"民權路１４號","OBJECTID":599859},"geometry":{"x":194986.63000000082,"y":2557946.290000001}},{"attributes":{"ID":599887,"DIS_CODE":0,"TOWNNAME":"玉井區","LI":"玉田里","LIN":"22鄰","STREET":"中華路","SECT":" ","MAREA":" ","LANE":" ","ALLEY":" ","HOUSE_NO":"１０８號","E_COORD97":195013.85000000001,"N_COORD97":2557984.2400000002,"ADDRESS":"中華路１０８號","OBJECTID":599860},"geometry":{"x":195013.85000000056,"y":2557984.2399999984}},{"attributes":{"ID":599888,"DIS_CODE":0,"TOWNNAME":"玉井區","LI":"玉田里","LIN":"22鄰","STREET":"中華路","SECT":" ","MAREA":" ","LANE":" ","ALLEY":" ","HOUSE_NO":"９６號","E_COORD97":194998.20999999999,"N_COORD97":2557996.2400000002,"ADDRESS":"中華路９６號","OBJECTID":599861},"geometry":{"x":194998.21000000089,"y":2557996.2400000021}},{"attributes":{"ID":599889,"DIS_CODE":0,"TOWNNAME":"玉井區","LI":"玉田里","LIN":"22鄰","STREET":"民權路","SECT":" ","MAREA":" ","LANE":" ","ALLEY":" ","HOUSE_NO":"６號","E_COORD97":194999.48999999999,"N_COORD97":2557951.29,"ADDRESS":"民權路６號","OBJECTID":599862},"geometry":{"x":194999.49000000115,"y":2557951.2899999991}},{"attributes":{"ID":599890,"DIS_CODE":0,"TOWNNAME":"玉井區","LI":"玉田里","LIN":"22鄰","STREET":"民權路","SECT":" ","MAREA":" ","LANE":" ","ALLEY":" ","HOUSE_NO":"１８號","E_COORD97":194978.84,"N_COORD97":2557943.29,"ADDRESS":"民權路１８號","OBJECTID":599863},"geometry":{"x":194978.83999999985,"y":2557943.290000001}},{"attributes":{"ID":599891,"DIS_CODE":0,"TOWNNAME":"玉井區","LI":"玉田里","LIN":"22鄰","STREET":"中華路","SECT":" ","MAREA":" ","LANE":" ","ALLEY":" ","HOUSE_NO":"９０號","E_COORD97":194988,"N_COORD97":2558008.25,"ADDRESS":"中華路９０號","OBJECTID":599864},"geometry":{"x":194988,"y":2558008.2500000019}},{"attributes":{"ID":599892,"DIS_CODE":0,"TOWNNAME":"玉井區","LI":"玉田里","LIN":"22鄰","STREET":"中華路","SECT":" ","MAREA":" ","LANE":" ","ALLEY":" ","HOUSE_NO":"９２號","E_COORD97":194991.60000000001,"N_COORD97":2558004.2400000002,"ADDRESS":"中華路９２號","OBJECTID":599865},"geometry":{"x":194991.60000000056,"y":2558004.2400000002}},{"attributes":{"ID":599893,"DIS_CODE":0,"TOWNNAME":"玉井區","LI":"玉田里","LIN":"22鄰","STREET":"民權路","SECT":" ","MAREA":" ","LANE":" ","ALLEY":" ","HOUSE_NO":"８號","E_COORD97":194996.48999999999,"N_COORD97":2557950.29,"ADDRESS":"民權路８號","OBJECTID":599866},"geometry":{"x":194996.49000000115,"y":2557950.290000001}},{"attributes":{"ID":599894,"DIS_CODE":0,"TOWNNAME":"北區","LI":"大豐里","LIN":"22鄰","STREET":"大興街","SECT":" ","MAREA":" ","LANE":" ","ALLEY":" ","HOUSE_NO":"３５３號","E_COORD97":166544.04999999999,"N_COORD97":2545635.4199999999,"ADDRESS":"大興街３５３號","OBJECTID":599867},"geometry":{"x":166544.04999999981,"y":2545635.4200000018}},{"attributes":{"ID":599895,"DIS_CODE":0,"TOWNNAME":"學甲區","LI":"明宜里","LIN":"22鄰","STREET":"重信路","SECT":" ","MAREA":" ","LANE":" ","ALLEY":" ","HOUSE_NO":"４１號","E_COORD97":165840.17000000001,"N_COORD97":2570626.04,"ADDRESS":"重信路４１號","OBJECTID":599868},"geometry":{"x":165840.16999999993,"y":2570626.0399999991}},{"attributes":{"ID":599896,"DIS_CODE":0,"TOWNNAME":"北區","LI":"和順里","LIN":"22鄰","STREET":"臨安路","SECT":"二段","MAREA":" ","LANE":" ","ALLEY":" ","HOUSE_NO":"２９１號","E_COORD97":168174.69,"N_COORD97":2545029.2999999998,"ADDRESS":"臨安路二段２９１號","OBJECTID":599869},"geometry":{"x":168174.69000000041,"y":2545029.3000000007}},{"attributes":{"ID":599897,"DIS_CODE":0,"TOWNNAME":"歸仁區","LI":"八甲里","LIN":"22鄰","STREET":"大德路","SECT":" ","MAREA":" ","LANE":" ","ALLEY":" ","HOUSE_NO":"３６號","E_COORD97":178270.32000000001,"N_COORD97":2541255.1200000001,"ADDRESS":"大德路３６號","OBJECTID":599870},"geometry":{"x":178270.3200000003,"y":2541255.1200000029}},{"attributes":{"ID":599898,"DIS_CODE":0,"TOWNNAME":"北區","LI":"和順里","LIN":"22鄰","STREET":"臨安路","SECT":"二段","MAREA":" ","LANE":" ","ALLEY":" ","HOUSE_NO":"２５７號","E_COORD97":168108.04000000001,"N_COORD97":2545004.4300000002,"ADDRESS":"臨安路二段２５７號","OBJECTID":599871},"geometry":{"x":168108.0400000019,"y":2545004.4300000034}},{"attributes":{"ID":599899,"DIS_CODE":0,"TOWNNAME":"北區","LI":"和順里","LIN":"22鄰","STREET":"臨安路","SECT":"二段","MAREA":" ","LANE":" ","ALLEY":" ","HOUSE_NO":"２５９號","E_COORD97":168111.64000000001,"N_COORD97":2545005.8599999999,"ADDRESS":"臨安路二段２５９號","OBJECTID":599872},"geometry":{"x":168111.63999999966,"y":2545005.8600000013}},{"attributes":{"ID":599900,"DIS_CODE":0,"TOWNNAME":"北區","LI":"和順里","LIN":"22鄰","STREET":"臨安路","SECT":"二段","MAREA":" ","LANE":" ","ALLEY":" ","HOUSE_NO":"２６１號","E_COORD97":168115.53,"N_COORD97":2545007.1600000001,"ADDRESS":"臨安路二段２６１號","OBJECTID":599873},"geometry":{"x":168115.53000000119,"y":2545007.160000002}},{"attributes":{"ID":599901,"DIS_CODE":0,"TOWNNAME":"東區","LI":"德高里","LIN":"13鄰","STREET":"城東街","SECT":" ","MAREA":" ","LANE":" ","ALLEY":" ","HOUSE_NO":"３７號","E_COORD97":171512.12,"N_COORD97":2540710.9100000001,"ADDRESS":"城東街３７號","OBJECTID":599874},"geometry":{"x":171512.12000000104,"y":2540710.910000002}},{"attributes":{"ID":599902,"DIS_CODE":0,"TOWNNAME":"北區","LI":"和順里","LIN":"22鄰","STREET":"臨安路","SECT":"二段","MAREA":" ","LANE":" ","ALLEY":" ","HOUSE_NO":"２６３號","E_COORD97":168119.70000000001,"N_COORD97":2545008.7400000002,"ADDRESS":"臨安路二段２６３號","OBJECTID":599875},"geometry":{"x":168119.70000000112,"y":2545008.7400000002}},{"attributes":{"ID":599903,"DIS_CODE":0,"TOWNNAME":"北區","LI":"和順里","LIN":"22鄰","STREET":"臨安路","SECT":"二段","MAREA":" ","LANE":" ","ALLEY":" ","HOUSE_NO":"２６５號","E_COORD97":168123.59,"N_COORD97":2545010.4700000002,"ADDRESS":"臨安路二段２６５號","OBJECTID":599876},"geometry":{"x":168123.58999999985,"y":2545010.4700000007}},{"attributes":{"ID":599904,"DIS_CODE":0,"TOWNNAME":"北區","LI":"和順里","LIN":"22鄰","STREET":"臨安路","SECT":"二段","MAREA":" ","LANE":" ","ALLEY":" ","HOUSE_NO":"２６７號","E_COORD97":168127.62,"N_COORD97":2545012.0499999998,"ADDRESS":"臨安路二段２６７號","OBJECTID":599877},"geometry":{"x":168127.62000000011,"y":2545012.0500000026}},{"attributes":{"ID":599905,"DIS_CODE":0,"TOWNNAME":"北區","LI":"和順里","LIN":"22鄰","STREET":"臨安路","SECT":"二段","MAREA":" ","LANE":" ","ALLEY":" ","HOUSE_NO":"２６９號","E_COORD97":168131.64999999999,"N_COORD97":2545013.2000000002,"ADDRESS":"臨安路二段２６９號","OBJECTID":599878},"geometry":{"x":168131.6500000013,"y":2545013.2000000011}},{"attributes":{"ID":599906,"DIS_CODE":0,"TOWNNAME":"北區","LI":"和順里","LIN":"22鄰","STREET":"臨安路","SECT":"二段","MAREA":" ","LANE":" ","ALLEY":" ","HOUSE_NO":"２７１號","E_COORD97":168135.54000000001,"N_COORD97":2545014.6400000001,"ADDRESS":"臨安路二段２７１號","OBJECTID":599879},"geometry":{"x":168135.54000000097,"y":2545014.6400000025}},{"attributes":{"ID":599907,"DIS_CODE":0,"TOWNNAME":"北區","LI":"和順里","LIN":"22鄰","STREET":"臨安路","SECT":"二段","MAREA":" ","LANE":" ","ALLEY":" ","HOUSE_NO":"２７３號","E_COORD97":168139.14000000001,"N_COORD97":2545016.0800000001,"ADDRESS":"臨安路二段２７３號","OBJECTID":599880},"geometry":{"x":168139.14000000153,"y":2545016.0800000001}},{"attributes":{"ID":599908,"DIS_CODE":0,"TOWNNAME":"北區","LI":"和順里","LIN":"22鄰","STREET":"臨安路","SECT":"二段","MAREA":" ","LANE":" ","ALLEY":" ","HOUSE_NO":"２７５號","E_COORD97":168143.17000000001,"N_COORD97":2545017.6600000001,"ADDRESS":"臨安路二段２７５號","OBJECTID":599881},"geometry":{"x":168143.17000000086,"y":2545017.660000002}},{"attributes":{"ID":599909,"DIS_CODE":0,"TOWNNAME":"北區","LI":"和順里","LIN":"22鄰","STREET":"臨安路","SECT":"二段","MAREA":" ","LANE":" ","ALLEY":" ","HOUSE_NO":"２７７號","E_COORD97":168147.04999999999,"N_COORD97":2545018.9500000002,"ADDRESS":"臨安路二段２７７號","OBJECTID":599882},"geometry":{"x":168147.05000000075,"y":2545018.9499999993}},{"attributes":{"ID":599910,"DIS_CODE":0,"TOWNNAME":"北區","LI":"和順里","LIN":"22鄰","STREET":"臨安路","SECT":"二段","MAREA":" ","LANE":" ","ALLEY":" ","HOUSE_NO":"２７９號","E_COORD97":168150.94,"N_COORD97":2545020.3900000001,"ADDRESS":"臨安路二段２７９號","OBJECTID":599883},"geometry":{"x":168150.94000000041,"y":2545020.3900000025}},{"attributes":{"ID":599911,"DIS_CODE":0,"TOWNNAME":"北區","LI":"和順里","LIN":"22鄰","STREET":"臨安路","SECT":"二段","MAREA":" ","LANE":" ","ALLEY":" ","HOUSE_NO":"２８１號","E_COORD97":168155.39999999999,"N_COORD97":2545021.8300000001,"ADDRESS":"臨安路二段２８１號","OBJECTID":599884},"geometry":{"x":168155.4000000013,"y":2545021.8300000001}},{"attributes":{"ID":599912,"DIS_CODE":0,"TOWNNAME":"北區","LI":"和順里","LIN":"22鄰","STREET":"臨安路","SECT":"二段","MAREA":" ","LANE":" ","ALLEY":" ","HOUSE_NO":"２８３號","E_COORD97":168159.14000000001,"N_COORD97":2545023.27,"ADDRESS":"臨安路二段２８３號","OBJECTID":599885},"geometry":{"x":168159.13999999966,"y":2545023.2700000014}},{"attributes":{"ID":599913,"DIS_CODE":0,"TOWNNAME":"北區","LI":"和順里","LIN":"22鄰","STREET":"臨安路","SECT":"二段","MAREA":" ","LANE":" ","ALLEY":" ","HOUSE_NO":"２８５號","E_COORD97":168162.73999999999,"N_COORD97":2545024.7000000002,"ADDRESS":"臨安路二段２８５號","OBJECTID":599886},"geometry":{"x":168162.74000000209,"y":2545024.6999999993}},{"attributes":{"ID":599914,"DIS_CODE":0,"TOWNNAME":"北區","LI":"和順里","LIN":"22鄰","STREET":"臨安路","SECT":"二段","MAREA":" ","LANE":" ","ALLEY":" ","HOUSE_NO":"２８７號","E_COORD97":168167.06,"N_COORD97":2545026.29,"ADDRESS":"臨安路二段２８７號","OBJECTID":599887},"geometry":{"x":168167.06000000052,"y":2545026.290000001}},{"attributes":{"ID":599915,"DIS_CODE":0,"TOWNNAME":"北區","LI":"和順里","LIN":"22鄰","STREET":"臨安路","SECT":"二段","MAREA":" ","LANE":" ","ALLEY":" ","HOUSE_NO":"２８９號","E_COORD97":168170.95000000001,"N_COORD97":2545027.8700000001,"ADDRESS":"臨安路二段２８９號","OBJECTID":599888},"geometry":{"x":168170.95000000019,"y":2545027.8700000029}},{"attributes":{"ID":599916,"DIS_CODE":0,"TOWNNAME":"北區","LI":"和順里","LIN":"22鄰","STREET":"臨安路","SECT":"二段","MAREA":" ","LANE":" ","ALLEY":" ","HOUSE_NO":"２９３號","E_COORD97":168178.42999999999,"N_COORD97":2545030.46,"ADDRESS":"臨安路二段２９３號","OBJECTID":599889},"geometry":{"x":168178.43000000063,"y":2545030.4600000028}},{"attributes":{"ID":599917,"DIS_CODE":0,"TOWNNAME":"北區","LI":"和順里","LIN":"22鄰","STREET":"臨安路","SECT":"二段","MAREA":" ","LANE":" ","ALLEY":" ","HOUSE_NO":"２９５號","E_COORD97":168182.75,"N_COORD97":2545032.1800000002,"ADDRESS":"臨安路二段２９５號","OBJECTID":599890},"geometry":{"x":168182.75000000186,"y":2545032.1799999997}},{"attributes":{"ID":599918,"DIS_CODE":0,"TOWNNAME":"北區","LI":"和順里","LIN":"22鄰","STREET":"臨安路","SECT":"二段","MAREA":" ","LANE":" ","ALLEY":" ","HOUSE_NO":"２９７號","E_COORD97":168186.63,"N_COORD97":2545033.7599999998,"ADDRESS":"臨安路二段２９７號","OBJECTID":599891},"geometry":{"x":168186.62999999989,"y":2545033.7600000016}},{"attributes":{"ID":599919,"DIS_CODE":0,"TOWNNAME":"北區","LI":"和順里","LIN":"22鄰","STREET":"臨安路","SECT":"二段","MAREA":" ","LANE":" ","ALLEY":" ","HOUSE_NO":"２９９號","E_COORD97":168190.67000000001,"N_COORD97":2545035.4900000002,"ADDRESS":"臨安路二段２９９號","OBJECTID":599892},"geometry":{"x":168190.67000000086,"y":2545035.4900000021}},{"attributes":{"ID":599920,"DIS_CODE":0,"TOWNNAME":"北區","LI":"和順里","LIN":"22鄰","STREET":"臨安路","SECT":"二段","MAREA":" ","LANE":" ","ALLEY":" ","HOUSE_NO":"３０１號","E_COORD97":168194.12,"N_COORD97":2545036.9199999999,"ADDRESS":"臨安路二段３０１號","OBJECTID":599893},"geometry":{"x":168194.12000000104,"y":2545036.9199999999}},{"attributes":{"ID":599921,"DIS_CODE":0,"TOWNNAME":"北區","LI":"和順里","LIN":"22鄰","STREET":"臨安路","SECT":"二段","MAREA":" ","LANE":" ","ALLEY":" ","HOUSE_NO":"３０３號","E_COORD97":168198.44,"N_COORD97":2545037.9300000002,"ADDRESS":"臨安路二段３０３號","OBJECTID":599894},"geometry":{"x":168198.44000000041,"y":2545037.9299999978}},{"attributes":{"ID":599922,"DIS_CODE":0,"TOWNNAME":"北區","LI":"和順里","LIN":"22鄰","STREET":"臨安路","SECT":"二段","MAREA":" ","LANE":" ","ALLEY":" ","HOUSE_NO":"３０５號","E_COORD97":168202.60999999999,"N_COORD97":2545039.7999999998,"ADDRESS":"臨安路二段３０５號","OBJECTID":599895},"geometry":{"x":168202.6099999994,"y":2545039.8000000007}},{"attributes":{"ID":599923,"DIS_CODE":0,"TOWNNAME":"北區","LI":"和順里","LIN":"22鄰","STREET":"臨安路","SECT":"二段","MAREA":" ","LANE":" ","ALLEY":" ","HOUSE_NO":"３０７號","E_COORD97":168206.20999999999,"N_COORD97":2545041.6000000001,"ADDRESS":"臨安路二段３０７號","OBJECTID":599896},"geometry":{"x":168206.20999999996,"y":2545041.6000000015}},{"attributes":{"ID":599924,"DIS_CODE":0,"TOWNNAME":"北區","LI":"和順里","LIN":"22鄰","STREET":"臨安路","SECT":"二段","MAREA":" ","LANE":" ","ALLEY":" ","HOUSE_NO":"３０９號","E_COORD97":168210.10000000001,"N_COORD97":2545043.1800000002,"ADDRESS":"臨安路二段３０９號","OBJECTID":599897},"geometry":{"x":168210.09999999963,"y":2545043.1800000034}},{"attributes":{"ID":599925,"DIS_CODE":0,"TOWNNAME":"北區","LI":"和順里","LIN":"22鄰","STREET":"臨安路","SECT":"二段","MAREA":" ","LANE":" ","ALLEY":" ","HOUSE_NO":"３１１號","E_COORD97":168213.84,"N_COORD97":2545045.1899999999,"ADDRESS":"臨安路二段３１１號","OBJECTID":599898},"geometry":{"x":168213.83999999985,"y":2545045.1899999995}},{"attributes":{"ID":599926,"DIS_CODE":0,"TOWNNAME":"北區","LI":"和順里","LIN":"22鄰","STREET":"臨安路","SECT":"二段","MAREA":" ","LANE":" ","ALLEY":" ","HOUSE_NO":"３１３號","E_COORD97":168218.16,"N_COORD97":2545046.4900000002,"ADDRESS":"臨安路二段３１３號","OBJECTID":599899},"geometry":{"x":168218.16000000108,"y":2545046.4900000021}},{"attributes":{"ID":599927,"DIS_CODE":0,"TOWNNAME":"北區","LI":"和順里","LIN":"22鄰","STREET":"臨安路","SECT":"二段","MAREA":" ","LANE":" ","ALLEY":" ","HOUSE_NO":"３２５號","E_COORD97":168241.91,"N_COORD97":2545055.8300000001,"ADDRESS":"臨安路二段３２５號","OBJECTID":599900},"geometry":{"x":168241.91000000108,"y":2545055.8300000001}},{"attributes":{"ID":599928,"DIS_CODE":0,"TOWNNAME":"北區","LI":"和順里","LIN":"22鄰","STREET":"臨安路","SECT":"二段","MAREA":" ","LANE":" ","ALLEY":" ","HOUSE_NO":"３２７號","E_COORD97":168245.35999999999,"N_COORD97":2545057.1299999999,"ADDRESS":"臨安路二段３２７號","OBJECTID":599901},"geometry":{"x":168245.36000000127,"y":2545057.1300000008}},{"attributes":{"ID":599929,"DIS_CODE":0,"TOWNNAME":"北區","LI":"和順里","LIN":"22鄰","STREET":"臨安路","SECT":"二段","MAREA":" ","LANE":" ","ALLEY":" ","HOUSE_NO":"３２９號","E_COORD97":168248.82000000001,"N_COORD97":2545060.4300000002,"ADDRESS":"臨安路二段３２９號","OBJECTID":599902},"geometry":{"x":168248.82000000216,"y":2545060.4299999997}},{"attributes":{"ID":599930,"DIS_CODE":0,"TOWNNAME":"北區","LI":"和順里","LIN":"22鄰","STREET":"臨安路","SECT":"二段","MAREA":" ","LANE":" ","ALLEY":" ","HOUSE_NO":"３３１號","E_COORD97":168252.70000000001,"N_COORD97":2545062.0899999999,"ADDRESS":"臨安路二段３３１號","OBJECTID":599903},"geometry":{"x":168252.69999999925,"y":2545062.0900000017}},{"attributes":{"ID":599931,"DIS_CODE":0,"TOWNNAME":"北區","LI":"和順里","LIN":"22鄰","STREET":"臨安路","SECT":"二段","MAREA":" ","LANE":" ","ALLEY":" ","HOUSE_NO":"３３３號","E_COORD97":168257.01999999999,"N_COORD97":2545063.2400000002,"ADDRESS":"臨安路二段３３３號","OBJECTID":599904},"geometry":{"x":168257.02000000048,"y":2545063.2400000002}},{"attributes":{"ID":599932,"DIS_CODE":0,"TOWNNAME":"北區","LI":"和順里","LIN":"22鄰","STREET":"臨安路","SECT":"二段","MAREA":" ","LANE":" ","ALLEY":" ","HOUSE_NO":"３３５號","E_COORD97":168260.76000000001,"N_COORD97":2545064.6699999999,"ADDRESS":"臨安路二段３３５號","OBJECTID":599905},"geometry":{"x":168260.76000000071,"y":2545064.6700000018}},{"attributes":{"ID":599933,"DIS_CODE":0,"TOWNNAME":"北區","LI":"和順里","LIN":"22鄰","STREET":"臨安路","SECT":"二段","MAREA":" ","LANE":" ","ALLEY":" ","HOUSE_NO":"２５１號","E_COORD97":168091.06,"N_COORD97":2545000.4100000001,"ADDRESS":"臨安路二段２５１號","OBJECTID":599906},"geometry":{"x":168091.06000000052,"y":2545000.4100000001}},{"attributes":{"ID":599934,"DIS_CODE":0,"TOWNNAME":"北區","LI":"和順里","LIN":"22鄰","STREET":"臨安路","SECT":"二段","MAREA":" ","LANE":" ","ALLEY":" ","HOUSE_NO":"２５３號","E_COORD97":168096.10000000001,"N_COORD97":2545001.4100000001,"ADDRESS":"臨安路二段２５３號","OBJECTID":599907},"geometry":{"x":168096.10000000056,"y":2545001.4100000039}},{"attributes":{"ID":599935,"DIS_CODE":0,"TOWNNAME":"北區","LI":"和順里","LIN":"22鄰","STREET":"臨安路","SECT":"二段","MAREA":" ","LANE":" ","ALLEY":" ","HOUSE_NO":"２５５號","E_COORD97":168103.73000000001,"N_COORD97":2545003.5699999998,"ADDRESS":"臨安路二段２５５號","OBJECTID":599908},"geometry":{"x":168103.73000000231,"y":2545003.5700000003}},{"attributes":{"ID":599936,"DIS_CODE":0,"TOWNNAME":"北區","LI":"和順里","LIN":"22鄰","STREET":"臨安路","SECT":"二段","MAREA":" ","LANE":" ","ALLEY":" ","HOUSE_NO":"３４５號","E_COORD97":168280.76999999999,"N_COORD97":2545071.1400000001,"ADDRESS":"臨安路二段３４５號","OBJECTID":599909},"geometry":{"x":168280.77000000048,"y":2545071.1400000006}},{"attributes":{"ID":599937,"DIS_CODE":0,"TOWNNAME":"北區","LI":"和順里","LIN":"22鄰","STREET":"臨安路","SECT":"二段","MAREA":" ","LANE":" ","ALLEY":" ","HOUSE_NO":"３４７號","E_COORD97":168284.79999999999,"N_COORD97":2545072.4399999999,"ADDRESS":"臨安路二段３４７號","OBJECTID":599910},"geometry":{"x":168284.80000000075,"y":2545072.4400000013}},{"attributes":{"ID":599938,"DIS_CODE":0,"TOWNNAME":"北區","LI":"和順里","LIN":"22鄰","STREET":"臨安路","SECT":"二段","MAREA":" ","LANE":" ","ALLEY":" ","HOUSE_NO":"３５１號","E_COORD97":168294.01000000001,"N_COORD97":2545076.9100000001,"ADDRESS":"臨安路二段３５１號","OBJECTID":599911},"geometry":{"x":168294.00999999978,"y":2545076.910000002}},{"attributes":{"ID":599939,"DIS_CODE":0,"TOWNNAME":"歸仁區","LI":"八甲里","LIN":"22鄰","STREET":"大德路","SECT":" ","MAREA":" ","LANE":" ","ALLEY":" ","HOUSE_NO":"３２號","E_COORD97":178285.72,"N_COORD97":2541245.1200000001,"ADDRESS":"大德路３２號","OBJECTID":599912},"geometry":{"x":178285.71999999974,"y":2541245.1200000029}},{"attributes":{"ID":599940,"DIS_CODE":0,"TOWNNAME":"歸仁區","LI":"八甲里","LIN":"22鄰","STREET":"大德路","SECT":" ","MAREA":" ","LANE":" ","ALLEY":" ","HOUSE_NO":"６４號","E_COORD97":178199.72,"N_COORD97":2541284.1200000001,"ADDRESS":"大德路６４號","OBJECTID":599913},"geometry":{"x":178199.7200000016,"y":2541284.120000001}},{"attributes":{"ID":599941,"DIS_CODE":0,"TOWNNAME":"歸仁區","LI":"八甲里","LIN":"22鄰","STREET":"大德路","SECT":" ","MAREA":" ","LANE":" ","ALLEY":" ","HOUSE_NO":"３４號","E_COORD97":178278.51999999999,"N_COORD97":2541257.1200000001,"ADDRESS":"大德路３４號","OBJECTID":599914},"geometry":{"x":178278.51999999955,"y":2541257.120000001}},{"attributes":{"ID":599942,"DIS_CODE":0,"TOWNNAME":"歸仁區","LI":"八甲里","LIN":"22鄰","STREET":"大德路","SECT":" ","MAREA":" ","LANE":" ","ALLEY":" ","HOUSE_NO":"６２號","E_COORD97":178203.82000000001,"N_COORD97":2541277.1200000001,"ADDRESS":"大德路６２號","OBJECTID":599915},"geometry":{"x":178203.8200000003,"y":2541277.120000001}},{"attributes":{"ID":599943,"DIS_CODE":0,"TOWNNAME":"歸仁區","LI":"八甲里","LIN":"22鄰","STREET":"大仁街","SECT":" ","MAREA":" ","LANE":" ","ALLEY":" ","HOUSE_NO":"２７１號","E_COORD97":178214.09,"N_COORD97":2541352.25,"ADDRESS":"大仁街２７１號","OBJECTID":599916},"geometry":{"x":178214.09000000171,"y":2541352.2500000019}},{"attributes":{"ID":599944,"DIS_CODE":0,"TOWNNAME":"新營區","LI":"王公里","LIN":"22鄰","STREET":"大德街","SECT":" ","MAREA":" ","LANE":" ","ALLEY":" ","HOUSE_NO":"１１６號","E_COORD97":180456.07000000001,"N_COORD97":2579468.9399999999,"ADDRESS":"大德街１１６號","OBJECTID":599917},"geometry":{"x":180456.07000000123,"y":2579468.9399999995}},{"attributes":{"ID":599945,"DIS_CODE":0,"TOWNNAME":"楠西區","LI":"東勢里","LIN":"22鄰","STREET":"水庫路","SECT":" ","MAREA":" ","LANE":" ","ALLEY":" ","HOUSE_NO":"３０號","E_COORD97":197645.32000000001,"N_COORD97":2564714.25,"ADDRESS":"水庫路３０號","OBJECTID":599918},"geometry":{"x":197645.32000000123,"y":2564714.2500000037}},{"attributes":{"ID":599946,"DIS_CODE":0,"TOWNNAME":"楠西區","LI":"東勢里","LIN":"22鄰","STREET":"民生路","SECT":" ","MAREA":" ","LANE":" ","ALLEY":" ","HOUSE_NO":"１６９號","E_COORD97":197421.29000000001,"N_COORD97":2564384.29,"ADDRESS":"民生路１６９號","OBJECTID":599919},"geometry":{"x":197421.2900000019,"y":2564384.290000001}},{"attributes":{"ID":599947,"DIS_CODE":0,"TOWNNAME":"楠西區","LI":"東勢里","LIN":"22鄰","STREET":"水庫路","SECT":" ","MAREA":" ","LANE":" ","ALLEY":" ","HOUSE_NO":"１４號","E_COORD97":197644.62,"N_COORD97":2564744.25,"ADDRESS":"水庫路１４號","OBJECTID":599920},"geometry":{"x":197644.62000000197,"y":2564744.25}},{"attributes":{"ID":599948,"DIS_CODE":0,"TOWNNAME":"楠西區","LI":"東勢里","LIN":"22鄰","STREET":"中興路","SECT":" ","MAREA":" ","LANE":" ","ALLEY":" ","HOUSE_NO":"３２４號","E_COORD97":197466.35999999999,"N_COORD97":2564619.25,"ADDRESS":"中興路３２４號","OBJECTID":599921},"geometry":{"x":197466.36000000034,"y":2564619.2500000037}},{"attributes":{"ID":599949,"DIS_CODE":0,"TOWNNAME":"楠西區","LI":"東勢里","LIN":"22鄰","STREET":"水庫路","SECT":" ","MAREA":" ","LANE":" ","ALLEY":" ","HOUSE_NO":"２６號","E_COORD97":197643.51999999999,"N_COORD97":2564724.25,"ADDRESS":"水庫路２６號","OBJECTID":599922},"geometry":{"x":197643.52000000048,"y":2564724.2500000037}},{"attributes":{"ID":599950,"DIS_CODE":0,"TOWNNAME":"楠西區","LI":"東勢里","LIN":"22鄰","STREET":"水庫路","SECT":" ","MAREA":" ","LANE":" ","ALLEY":" ","HOUSE_NO":"１６號","E_COORD97":197644.62,"N_COORD97":2564740.25,"ADDRESS":"水庫路１６號","OBJECTID":599923},"geometry":{"x":197644.62000000197,"y":2564740.25}},{"attributes":{"ID":599951,"DIS_CODE":0,"TOWNNAME":"楠西區","LI":"楠西里","LIN":"22鄰","STREET":"四維路","SECT":" ","MAREA":" ","LANE":" ","ALLEY":" ","HOUSE_NO":"１２號","E_COORD97":197342.91,"N_COORD97":2563515.25,"ADDRESS":"四維路１２號","OBJECTID":599924},"geometry":{"x":197342.91000000108,"y":2563515.2500000019}},{"attributes":{"ID":599952,"DIS_CODE":0,"TOWNNAME":"楠西區","LI":"東勢里","LIN":"22鄰","STREET":"水庫路","SECT":" ","MAREA":" ","LANE":" ","ALLEY":" ","HOUSE_NO":"７６號","E_COORD97":197660.32000000001,"N_COORD97":2564559.25,"ADDRESS":"水庫路７６號","OBJECTID":599925},"geometry":{"x":197660.32000000216,"y":2564559.2500000019}},{"attributes":{"ID":599953,"DIS_CODE":0,"TOWNNAME":"楠西區","LI":"楠西里","LIN":"22鄰","STREET":"四維路","SECT":" ","MAREA":" ","LANE":" ","ALLEY":" ","HOUSE_NO":"１８號","E_COORD97":197344.10999999999,"N_COORD97":2563526.25,"ADDRESS":"四維路１８號","OBJECTID":599926},"geometry":{"x":197344.11000000034,"y":2563526.25}},{"attributes":{"ID":599954,"DIS_CODE":0,"TOWNNAME":"楠西區","LI":"楠西里","LIN":"22鄰","STREET":"中正路","SECT":" ","MAREA":" ","LANE":" ","ALLEY":" ","HOUSE_NO":"２００號","E_COORD97":197368.16,"N_COORD97":2563782.25,"ADDRESS":"中正路２００號","OBJECTID":599927},"geometry":{"x":197368.16000000108,"y":2563782.2500000019}},{"attributes":{"ID":599955,"DIS_CODE":0,"TOWNNAME":"楠西區","LI":"東勢里","LIN":"22鄰","STREET":"民生路","SECT":" ","MAREA":" ","LANE":" ","ALLEY":" ","HOUSE_NO":"１７３號","E_COORD97":197421.29000000001,"N_COORD97":2564394.29,"ADDRESS":"民生路１７３號","OBJECTID":599928},"geometry":{"x":197421.2900000019,"y":2564394.2900000028}},{"attributes":{"ID":599956,"DIS_CODE":0,"TOWNNAME":"楠西區","LI":"東勢里","LIN":"22鄰","STREET":"民生路","SECT":" ","MAREA":" ","LANE":" ","ALLEY":" ","HOUSE_NO":"１７９號","E_COORD97":197417.79000000001,"N_COORD97":2564407.29,"ADDRESS":"民生路１７９號","OBJECTID":599929},"geometry":{"x":197417.7900000019,"y":2564407.2899999991}},{"attributes":{"ID":599957,"DIS_CODE":0,"TOWNNAME":"楠西區","LI":"楠西里","LIN":"22鄰","STREET":"四維路","SECT":" ","MAREA":" ","LANE":" ","ALLEY":" ","HOUSE_NO":"１０號","E_COORD97":197342.10999999999,"N_COORD97":2563509.25,"ADDRESS":"四維路１０號","OBJECTID":599930},"geometry":{"x":197342.11000000127,"y":2563509.25}},{"attributes":{"ID":599958,"DIS_CODE":0,"TOWNNAME":"楠西區","LI":"東勢里","LIN":"22鄰","STREET":"民生路","SECT":" ","MAREA":" ","LANE":" ","ALLEY":" ","HOUSE_NO":"１５３號","E_COORD97":197422.59,"N_COORD97":2564348.29,"ADDRESS":"民生路１５３號","OBJECTID":599931},"geometry":{"x":197422.59000000078,"y":2564348.290000001}},{"attributes":{"ID":599959,"DIS_CODE":0,"TOWNNAME":"楠西區","LI":"東勢里","LIN":"22鄰","STREET":"民生路","SECT":" ","MAREA":" ","LANE":" ","ALLEY":" ","HOUSE_NO":"１５１號","E_COORD97":197422.89000000001,"N_COORD97":2564343.29,"ADDRESS":"民生路１５１號","OBJECTID":599932},"geometry":{"x":197422.88999999966,"y":2564343.2900000028}},{"attributes":{"ID":599960,"DIS_CODE":0,"TOWNNAME":"楠西區","LI":"東勢里","LIN":"22鄰","STREET":"民生路","SECT":" ","MAREA":" ","LANE":" ","ALLEY":" ","HOUSE_NO":"１５５號","E_COORD97":197422.39000000001,"N_COORD97":2564352.29,"ADDRESS":"民生路１５５號","OBJECTID":599933},"geometry":{"x":197422.3900000006,"y":2564352.2899999991}},{"attributes":{"ID":599961,"DIS_CODE":0,"TOWNNAME":"楠西區","LI":"楠西里","LIN":"22鄰","STREET":"中正路","SECT":" ","MAREA":" ","LANE":" ","ALLEY":" ","HOUSE_NO":"１９８號","E_COORD97":197374.45999999999,"N_COORD97":2563835.25,"ADDRESS":"中正路１９８號","OBJECTID":599934},"geometry":{"x":197374.46000000089,"y":2563835.25}},{"attributes":{"ID":599962,"DIS_CODE":0,"TOWNNAME":"楠西區","LI":"東勢里","LIN":"22鄰","STREET":"民生路","SECT":" ","MAREA":" ","LANE":" ","ALLEY":" ","HOUSE_NO":"１６１號","E_COORD97":197421.98999999999,"N_COORD97":2564365.29,"ADDRESS":"民生路１６１號","OBJECTID":599935},"geometry":{"x":197421.99000000115,"y":2564365.290000001}},{"attributes":{"ID":599963,"DIS_CODE":0,"TOWNNAME":"楠西區","LI":"東勢里","LIN":"22鄰","STREET":"民生路","SECT":" ","MAREA":" ","LANE":" ","ALLEY":" ","HOUSE_NO":"１６３號","E_COORD97":197421.59,"N_COORD97":2564370.29,"ADDRESS":"民生路１６３號","OBJECTID":599936},"geometry":{"x":197421.58999999985,"y":2564370.2900000028}},{"attributes":{"ID":599964,"DIS_CODE":0,"TOWNNAME":"楠西區","LI":"楠西里","LIN":"22鄰","STREET":"四維路","SECT":" ","MAREA":" ","LANE":" ","ALLEY":" ","HOUSE_NO":"６號","E_COORD97":197341.66,"N_COORD97":2563500.25,"ADDRESS":"四維路６號","OBJECTID":599937},"geometry":{"x":197341.66000000108,"y":2563500.2500000037}},{"attributes":{"ID":599965,"DIS_CODE":0,"TOWNNAME":"楠西區","LI":"東勢里","LIN":"22鄰","STREET":"民生路","SECT":" ","MAREA":" ","LANE":" ","ALLEY":" ","HOUSE_NO":"１６７號","E_COORD97":197421.39000000001,"N_COORD97":2564380.29,"ADDRESS":"民生路１６７號","OBJECTID":599938},"geometry":{"x":197421.38999999966,"y":2564380.2899999972}},{"attributes":{"ID":599966,"DIS_CODE":0,"TOWNNAME":"東區","LI":"德高里","LIN":"13鄰","STREET":"城東街","SECT":" ","MAREA":" ","LANE":" ","ALLEY":" ","HOUSE_NO":"２３號","E_COORD97":171476.54999999999,"N_COORD97":2540695.9500000002,"ADDRESS":"城東街２３號","OBJECTID":599939},"geometry":{"x":171476.55000000075,"y":2540695.9500000011}},{"attributes":{"ID":599967,"DIS_CODE":0,"TOWNNAME":"東區","LI":"德高里","LIN":"13鄰","STREET":"城東街","SECT":" ","MAREA":" ","LANE":" ","ALLEY":" ","HOUSE_NO":"２５號","E_COORD97":171516.13,"N_COORD97":2540676.6499999999,"ADDRESS":"城東街２５號","OBJECTID":599940},"geometry":{"x":171516.12999999896,"y":2540676.6500000004}},{"attributes":{"ID":599968,"DIS_CODE":0,"TOWNNAME":"東區","LI":"德高里","LIN":"13鄰","STREET":"城東街","SECT":" ","MAREA":" ","LANE":" ","ALLEY":" ","HOUSE_NO":"２６號","E_COORD97":171560.67999999999,"N_COORD97":2540679.3799999999,"ADDRESS":"城東街２６號","OBJECTID":599941},"geometry":{"x":171560.6799999997,"y":2540679.379999999}},{"attributes":{"ID":599969,"DIS_CODE":0,"TOWNNAME":"東區","LI":"德高里","LIN":"13鄰","STREET":"城東街","SECT":" ","MAREA":" ","LANE":" ","ALLEY":" ","HOUSE_NO":"２７號","E_COORD97":171523.23999999999,"N_COORD97":2540680.6600000001,"ADDRESS":"城東街２７號","OBJECTID":599942},"geometry":{"x":171523.24000000115,"y":2540680.6600000039}},{"attributes":{"ID":599970,"DIS_CODE":0,"TOWNNAME":"東區","LI":"德高里","LIN":"13鄰","STREET":"城東街","SECT":" ","MAREA":" ","LANE":" ","ALLEY":" ","HOUSE_NO":"２９號","E_COORD97":171528.16,"N_COORD97":2540686.4900000002,"ADDRESS":"城東街２９號","OBJECTID":599943},"geometry":{"x":171528.16000000201,"y":2540686.4900000021}},{"attributes":{"ID":599971,"DIS_CODE":0,"TOWNNAME":"東區","LI":"德高里","LIN":"13鄰","STREET":"城東街","SECT":" ","MAREA":" ","LANE":" ","ALLEY":" ","HOUSE_NO":"３３號","E_COORD97":171522.51000000001,"N_COORD97":2540701.6200000001,"ADDRESS":"城東街３３號","OBJECTID":599944},"geometry":{"x":171522.51000000071,"y":2540701.620000001}},{"attributes":{"ID":599972,"DIS_CODE":0,"TOWNNAME":"楠西區","LI":"楠西里","LIN":"22鄰","STREET":"中正路","SECT":" ","MAREA":" ","LANE":" ","ALLEY":" ","HOUSE_NO":"２１０號","E_COORD97":197372.95999999999,"N_COORD97":2563770.25,"ADDRESS":"中正路２１０號","OBJECTID":599945},"geometry":{"x":197372.96000000089,"y":2563770.25}},{"attributes":{"ID":599973,"DIS_CODE":0,"TOWNNAME":"楠西區","LI":"東勢里","LIN":"22鄰","STREET":"民權路","SECT":" ","MAREA":" ","LANE":" ","ALLEY":" ","HOUSE_NO":"１２３號","E_COORD97":197599.48999999999,"N_COORD97":2564282.29,"ADDRESS":"民權路１２３號","OBJECTID":599946},"geometry":{"x":197599.49000000022,"y":2564282.2900000028}},{"attributes":{"ID":599974,"DIS_CODE":0,"TOWNNAME":"楠西區","LI":"楠西里","LIN":"22鄰","STREET":"中正路","SECT":" ","MAREA":" ","LANE":" ","ALLEY":" ","HOUSE_NO":"２２０號","E_COORD97":197370.56,"N_COORD97":2563729.25,"ADDRESS":"中正路２２０號","OBJECTID":599947},"geometry":{"x":197370.56000000052,"y":2563729.25}},{"attributes":{"ID":599975,"DIS_CODE":0,"TOWNNAME":"楠西區","LI":"楠西里","LIN":"22鄰","STREET":"中正路","SECT":" ","MAREA":" ","LANE":" ","ALLEY":" ","HOUSE_NO":"２１８號","E_COORD97":197383.06,"N_COORD97":2563742.25,"ADDRESS":"中正路２１８號","OBJECTID":599948},"geometry":{"x":197383.05999999959,"y":2563742.2500000019}},{"attributes":{"ID":599976,"DIS_CODE":0,"TOWNNAME":"楠西區","LI":"東勢里","LIN":"22鄰","STREET":"民生路","SECT":" ","MAREA":" ","LANE":" ","ALLEY":" ","HOUSE_NO":"１５９號","E_COORD97":197421.98999999999,"N_COORD97":2564361.2799999998,"ADDRESS":"民生路１５９號","OBJECTID":599949},"geometry":{"x":197421.99000000115,"y":2564361.2800000012}},{"attributes":{"ID":599977,"DIS_CODE":0,"TOWNNAME":"楠西區","LI":"東勢里","LIN":"22鄰","STREET":"民權路","SECT":" ","MAREA":" ","LANE":" ","ALLEY":" ","HOUSE_NO":"１３５號","E_COORD97":197627.39000000001,"N_COORD97":2564283.29,"ADDRESS":"民權路１３５號","OBJECTID":599950},"geometry":{"x":197627.3900000006,"y":2564283.290000001}},{"attributes":{"ID":599978,"DIS_CODE":0,"TOWNNAME":"楠西區","LI":"東勢里","LIN":"22鄰","STREET":"忠孝路","SECT":" ","MAREA":" ","LANE":" ","ALLEY":" ","HOUSE_NO":"２７１號","E_COORD97":197544.73999999999,"N_COORD97":2564637.25,"ADDRESS":"忠孝路２７１號","OBJECTID":599951},"geometry":{"x":197544.74000000022,"y":2564637.2500000019}},{"attributes":{"ID":599979,"DIS_CODE":0,"TOWNNAME":"楠西區","LI":"楠西里","LIN":"22鄰","STREET":"博愛路","SECT":" ","MAREA":" ","LANE":" ","ALLEY":" ","HOUSE_NO":"６０號","E_COORD97":197362.32000000001,"N_COORD97":2563477.2799999998,"ADDRESS":"博愛路６０號","OBJECTID":599952},"geometry":{"x":197362.32000000123,"y":2563477.2800000012}},{"attributes":{"ID":599980,"DIS_CODE":0,"TOWNNAME":"楠西區","LI":"楠西里","LIN":"22鄰","STREET":"博愛路","SECT":" ","MAREA":" ","LANE":" ","ALLEY":" ","HOUSE_NO":"４６號","E_COORD97":197413.82000000001,"N_COORD97":2563483.2799999998,"ADDRESS":"博愛路４６號","OBJECTID":599953},"geometry":{"x":197413.8200000003,"y":2563483.2800000012}},{"attributes":{"ID":599981,"DIS_CODE":0,"TOWNNAME":"楠西區","LI":"東勢里","LIN":"22鄰","STREET":"水庫路","SECT":" ","MAREA":" ","LANE":" ","ALLEY":" ","HOUSE_NO":"１４８號","E_COORD97":197691.57000000001,"N_COORD97":2564383.25,"ADDRESS":"水庫路１４８號","OBJECTID":599954},"geometry":{"x":197691.57000000123,"y":2564383.2500000019}},{"attributes":{"ID":599982,"DIS_CODE":0,"TOWNNAME":"楠西區","LI":"東勢里","LIN":"22鄰","STREET":"中興路","SECT":" ","MAREA":" ","LANE":" ","ALLEY":" ","HOUSE_NO":"３２２號","E_COORD97":197461.76000000001,"N_COORD97":2564617.25,"ADDRESS":"中興路３２２號","OBJECTID":599955},"geometry":{"x":197461.76000000164,"y":2564617.2500000019}},{"attributes":{"ID":599983,"DIS_CODE":0,"TOWNNAME":"楠西區","LI":"楠西里","LIN":"22鄰","STREET":"博愛路","SECT":" ","MAREA":" ","LANE":" ","ALLEY":" ","HOUSE_NO":"７０號","E_COORD97":197342.22,"N_COORD97":2563479.2799999998,"ADDRESS":"博愛路７０號","OBJECTID":599956},"geometry":{"x":197342.22000000067,"y":2563479.2800000031}},{"attributes":{"ID":599984,"DIS_CODE":0,"TOWNNAME":"楠西區","LI":"楠西里","LIN":"22鄰","STREET":"茄拔路","SECT":" ","MAREA":" ","LANE":" ","ALLEY":" ","HOUSE_NO":"１５６號之１","E_COORD97":197338.88,"N_COORD97":2563783.2999999998,"ADDRESS":"茄拔路１５６號之１","OBJECTID":599957},"geometry":{"x":197338.87999999989,"y":2563783.3000000026}},{"attributes":{"ID":599985,"DIS_CODE":0,"TOWNNAME":"楠西區","LI":"東勢里","LIN":"22鄰","STREET":"水庫路","SECT":" ","MAREA":" ","LANE":" ","ALLEY":" ","HOUSE_NO":"２８號","E_COORD97":197644.92000000001,"N_COORD97":2564719.25,"ADDRESS":"水庫路２８號","OBJECTID":599958},"geometry":{"x":197644.91999999993,"y":2564719.25}},{"attributes":{"ID":599986,"DIS_CODE":0,"TOWNNAME":"楠西區","LI":"楠西里","LIN":"22鄰","STREET":"博愛路","SECT":" ","MAREA":" ","LANE":" ","ALLEY":" ","HOUSE_NO":"５２號","E_COORD97":197374.42000000001,"N_COORD97":2563477.2799999998,"ADDRESS":"博愛路５２號","OBJECTID":599959},"geometry":{"x":197374.42000000179,"y":2563477.2800000012}},{"attributes":{"ID":599987,"DIS_CODE":0,"TOWNNAME":"楠西區","LI":"楠西里","LIN":"22鄰","STREET":"博愛路","SECT":" ","MAREA":" ","LANE":" ","ALLEY":" ","HOUSE_NO":"６８號","E_COORD97":197350.42000000001,"N_COORD97":2563476.2799999998,"ADDRESS":"博愛路６８號","OBJECTID":599960},"geometry":{"x":197350.41999999993,"y":2563476.2800000012}},{"attributes":{"ID":599988,"DIS_CODE":0,"TOWNNAME":"楠西區","LI":"東勢里","LIN":"22鄰","STREET":"水庫路","SECT":" ","MAREA":" ","LANE":" ","ALLEY":" ","HOUSE_NO":"１００號","E_COORD97":197774.87,"N_COORD97":2564480.25,"ADDRESS":"水庫路１００號","OBJECTID":599961},"geometry":{"x":197774.87000000011,"y":2564480.2500000037}},{"attributes":{"ID":599989,"DIS_CODE":0,"TOWNNAME":"楠西區","LI":"東勢里","LIN":"22鄰","STREET":"民生路","SECT":" ","MAREA":" ","LANE":" ","ALLEY":" ","HOUSE_NO":"１７１號","E_COORD97":197421.29000000001,"N_COORD97":2564389.29,"ADDRESS":"民生路１７１號","OBJECTID":599962},"geometry":{"x":197421.2900000019,"y":2564389.2899999991}},{"attributes":{"ID":599990,"DIS_CODE":0,"TOWNNAME":"楠西區","LI":"楠西里","LIN":"22鄰","STREET":"茄拔路","SECT":" ","MAREA":" ","LANE":" ","ALLEY":" ","HOUSE_NO":"１５６號之２","E_COORD97":197363.20999999999,"N_COORD97":2563786.2999999998,"ADDRESS":"茄拔路１５６號之２","OBJECTID":599963},"geometry":{"x":197363.20999999996,"y":2563786.3000000026}},{"attributes":{"ID":599991,"DIS_CODE":0,"TOWNNAME":"楠西區","LI":"楠西里","LIN":"22鄰","STREET":"博愛路","SECT":" ","MAREA":" ","LANE":" ","ALLEY":" ","HOUSE_NO":"５６號","E_COORD97":197370.12,"N_COORD97":2563477.2799999998,"ADDRESS":"博愛路５６號","OBJECTID":599964},"geometry":{"x":197370.12000000104,"y":2563477.2800000012}},{"attributes":{"ID":599992,"DIS_CODE":0,"TOWNNAME":"楠西區","LI":"楠西里","LIN":"22鄰","STREET":"博愛路","SECT":" ","MAREA":" ","LANE":" ","ALLEY":" ","HOUSE_NO":"５８號","E_COORD97":197366.62,"N_COORD97":2563477.2799999998,"ADDRESS":"博愛路５８號","OBJECTID":599965},"geometry":{"x":197366.62000000104,"y":2563477.2800000012}},{"attributes":{"ID":599993,"DIS_CODE":0,"TOWNNAME":"楠西區","LI":"東勢里","LIN":"22鄰","STREET":"中興路","SECT":" ","MAREA":" ","LANE":" ","ALLEY":" ","HOUSE_NO":"３２０號","E_COORD97":197442.76000000001,"N_COORD97":2564577.25,"ADDRESS":"中興路３２０號","OBJECTID":599966},"geometry":{"x":197442.75999999978,"y":2564577.25}},{"attributes":{"ID":599994,"DIS_CODE":0,"TOWNNAME":"楠西區","LI":"楠西里","LIN":"22鄰","STREET":"博愛路","SECT":" ","MAREA":" ","LANE":" ","ALLEY":" ","HOUSE_NO":"４８號","E_COORD97":197396.62,"N_COORD97":2563472.2799999998,"ADDRESS":"博愛路４８號","OBJECTID":599967},"geometry":{"x":197396.62000000011,"y":2563472.2800000031}},{"attributes":{"ID":599995,"DIS_CODE":0,"TOWNNAME":"楠西區","LI":"楠西里","LIN":"22鄰","STREET":"中正路","SECT":" ","MAREA":" ","LANE":" ","ALLEY":" ","HOUSE_NO":"２３０號","E_COORD97":197390.26000000001,"N_COORD97":2563647.25,"ADDRESS":"中正路２３０號","OBJECTID":599968},"geometry":{"x":197390.25999999978,"y":2563647.2500000019}},{"attributes":{"ID":599996,"DIS_CODE":0,"TOWNNAME":"楠西區","LI":"東勢里","LIN":"22鄰","STREET":"民權路","SECT":" ","MAREA":" ","LANE":" ","ALLEY":" ","HOUSE_NO":"１３１號","E_COORD97":197617.09,"N_COORD97":2564283.29,"ADDRESS":"民權路１３１號","OBJECTID":599969},"geometry":{"x":197617.08999999985,"y":2564283.290000001}},{"attributes":{"ID":599997,"DIS_CODE":0,"TOWNNAME":"楠西區","LI":"楠西里","LIN":"22鄰","STREET":"中正路","SECT":" ","MAREA":" ","LANE":" ","ALLEY":" ","HOUSE_NO":"２０２號","E_COORD97":197368.16,"N_COORD97":2563778.25,"ADDRESS":"中正路２０２號","OBJECTID":599970},"geometry":{"x":197368.16000000108,"y":2563778.2500000037}},{"attributes":{"ID":599998,"DIS_CODE":0,"TOWNNAME":"楠西區","LI":"東勢里","LIN":"22鄰","STREET":"民權路","SECT":" ","MAREA":" ","LANE":" ","ALLEY":" ","HOUSE_NO":"１３７號","E_COORD97":197631.89000000001,"N_COORD97":2564284.29,"ADDRESS":"民權路１３７號","OBJECTID":599971},"geometry":{"x":197631.88999999873,"y":2564284.2899999991}},{"attributes":{"ID":599999,"DIS_CODE":0,"TOWNNAME":"楠西區","LI":"東勢里","LIN":"22鄰","STREET":"民權路","SECT":" ","MAREA":" ","LANE":" ","ALLEY":" ","HOUSE_NO":"１３９號","E_COORD97":197636.09,"N_COORD97":2564284.29,"ADDRESS":"民權路１３９號","OBJECTID":599972},"geometry":{"x":197636.09000000078,"y":2564284.2899999991}},{"attributes":{"ID":600000,"DIS_CODE":0,"TOWNNAME":"楠西區","LI":"東勢里","LIN":"22鄰","STREET":"民權路","SECT":" ","MAREA":" ","LANE":" ","ALLEY":" ","HOUSE_NO":"１２５號","E_COORD97":197603.39000000001,"N_COORD97":2564281.29,"ADDRESS":"民權路１２５號","OBJECTID":599973},"geometry":{"x":197603.3900000006,"y":2564281.2899999991}},{"attributes":{"ID":600001,"DIS_CODE":0,"TOWNNAME":"楠西區","LI":"東勢里","LIN":"22鄰","STREET":"水庫路","SECT":" ","MAREA":" ","LANE":" ","ALLEY":" ","HOUSE_NO":"１２號","E_COORD97":197643.92000000001,"N_COORD97":2564752.25,"ADDRESS":"水庫路１２號","OBJECTID":599974},"geometry":{"x":197643.92000000179,"y":2564752.2500000019}},{"attributes":{"ID":600002,"DIS_CODE":0,"TOWNNAME":"柳營區","LI":"光福里","LIN":"22鄰","STREET":"十美街","SECT":" ","MAREA":" ","LANE":" ","ALLEY":" ","HOUSE_NO":"４１７號","E_COORD97":179753.14000000001,"N_COORD97":2575476.3900000001,"ADDRESS":"十美街４１７號","OBJECTID":599975},"geometry":{"x":179753.1400000006,"y":2575476.3900000025}},{"attributes":{"ID":600003,"DIS_CODE":0,"TOWNNAME":"新營區","LI":"大宏里","LIN":"22鄰","STREET":"開元路","SECT":" ","MAREA":" ","LANE":" ","ALLEY":" ","HOUSE_NO":"７１號","E_COORD97":180918.20000000001,"N_COORD97":2578751.1400000001,"ADDRESS":"開元路７１號","OBJECTID":599976},"geometry":{"x":180918.20000000112,"y":2578751.1400000006}},{"attributes":{"ID":600004,"DIS_CODE":0,"TOWNNAME":"新營區","LI":"民權里","LIN":"22鄰","STREET":"三民路","SECT":" ","MAREA":" ","LANE":" ","ALLEY":" ","HOUSE_NO":"１２８號之３","E_COORD97":179739.88,"N_COORD97":2578454.4100000001,"ADDRESS":"三民路１２８號之３","OBJECTID":599977},"geometry":{"x":179739.88000000082,"y":2578454.4100000039}},{"attributes":{"ID":600005,"DIS_CODE":0,"TOWNNAME":"新營區","LI":"王公里","LIN":"22鄰","STREET":"大仁街","SECT":" ","MAREA":" ","LANE":" ","ALLEY":" ","HOUSE_NO":"７９號","E_COORD97":180465.01000000001,"N_COORD97":2579390.04,"ADDRESS":"大仁街７９號","OBJECTID":599978},"geometry":{"x":180465.00999999978,"y":2579390.0399999991}},{"attributes":{"ID":600006,"DIS_CODE":0,"TOWNNAME":"新營區","LI":"民榮里","LIN":"22鄰","STREET":"裕民路","SECT":" ","MAREA":" ","LANE":" ","ALLEY":" ","HOUSE_NO":"３８號","E_COORD97":179132.22,"N_COORD97":2577862.5299999998,"ADDRESS":"裕民路３８號","OBJECTID":599979},"geometry":{"x":179132.22000000067,"y":2577862.5299999975}},{"attributes":{"ID":600007,"DIS_CODE":0,"TOWNNAME":"新營區","LI":"大宏里","LIN":"22鄰","STREET":"開元路","SECT":" ","MAREA":" ","LANE":" ","ALLEY":" ","HOUSE_NO":"７３之６號","E_COORD97":180927.10999999999,"N_COORD97":2578809.8399999999,"ADDRESS":"開元路７３之６號","OBJECTID":599980},"geometry":{"x":180927.11000000127,"y":2578809.8399999999}},{"attributes":{"ID":600008,"DIS_CODE":0,"TOWNNAME":"新營區","LI":"南紙里","LIN":"22鄰","STREET":"建業路","SECT":" ","MAREA":" ","LANE":" ","ALLEY":" ","HOUSE_NO":"２１７號","E_COORD97":178146.64000000001,"N_COORD97":2577501.8300000001,"ADDRESS":"建業路２１７號","OBJECTID":599981},"geometry":{"x":178146.6400000006,"y":2577501.8299999982}},{"attributes":{"ID":600009,"DIS_CODE":0,"TOWNNAME":"新營區","LI":"王公里","LIN":"22鄰","STREET":"大德街","SECT":" ","MAREA":" ","LANE":" ","ALLEY":" ","HOUSE_NO":"１００號","E_COORD97":180436.17000000001,"N_COORD97":2579500.48,"ADDRESS":"大德街１００號","OBJECTID":599982},"geometry":{"x":180436.17000000179,"y":2579500.4800000004}},{"attributes":{"ID":600010,"DIS_CODE":0,"TOWNNAME":"新營區","LI":"永生里","LIN":"22鄰","STREET":"康樂街","SECT":" ","MAREA":" ","LANE":" ","ALLEY":" ","HOUSE_NO":"６９號","E_COORD97":179803.97,"N_COORD97":2577817.2599999998,"ADDRESS":"康樂街６９號","OBJECTID":599983},"geometry":{"x":179803.97000000067,"y":2577817.2599999998}},{"attributes":{"ID":600011,"DIS_CODE":0,"TOWNNAME":"新營區","LI":"大宏里","LIN":"22鄰","STREET":"開元路","SECT":" ","MAREA":" ","LANE":" ","ALLEY":" ","HOUSE_NO":"７３之４號","E_COORD97":180923.98999999999,"N_COORD97":2578799.8900000001,"ADDRESS":"開元路７３之４號","OBJECTID":599984},"geometry":{"x":180923.99000000022,"y":2578799.8900000006}},{"attributes":{"ID":600012,"DIS_CODE":0,"TOWNNAME":"新營區","LI":"民生里","LIN":"22鄰","STREET":"進修街","SECT":" ","MAREA":" ","LANE":" ","ALLEY":" ","HOUSE_NO":"１５號","E_COORD97":179022.37,"N_COORD97":2578438.9399999999,"ADDRESS":"進修街１５號","OBJECTID":599985},"geometry":{"x":179022.37000000011,"y":2578438.9399999995}},{"attributes":{"ID":600013,"DIS_CODE":0,"TOWNNAME":"新營區","LI":"民權里","LIN":"22鄰","STREET":"仁愛街","SECT":" ","MAREA":" ","LANE":" ","ALLEY":" ","HOUSE_NO":"１１１號","E_COORD97":179748.10000000001,"N_COORD97":2578500.8199999998,"ADDRESS":"仁愛街１１１號","OBJECTID":599986},"geometry":{"x":179748.10000000149,"y":2578500.8200000022}},{"attributes":{"ID":600014,"DIS_CODE":0,"TOWNNAME":"新營區","LI":"王公里","LIN":"22鄰","STREET":"民族路","SECT":" ","MAREA":" ","LANE":" ","ALLEY":" ","HOUSE_NO":"２２８號","E_COORD97":180381.76000000001,"N_COORD97":2579463.5299999998,"ADDRESS":"民族路２２８號","OBJECTID":599987},"geometry":{"x":180381.76000000071,"y":2579463.5300000012}},{"attributes":{"ID":600015,"DIS_CODE":0,"TOWNNAME":"新營區","LI":"民生里","LIN":"22鄰","STREET":"進修街","SECT":" ","MAREA":" ","LANE":" ","ALLEY":" ","HOUSE_NO":"１７之４號","E_COORD97":179074.04000000001,"N_COORD97":2578453.1499999999,"ADDRESS":"進修街１７之４號","OBJECTID":599988},"geometry":{"x":179074.03999999911,"y":2578453.1500000041}},{"attributes":{"ID":600016,"DIS_CODE":0,"TOWNNAME":"新營區","LI":"興業里","LIN":"22鄰","STREET":"中興路","SECT":" ","MAREA":" ","LANE":" ","ALLEY":" ","HOUSE_NO":"９號之７","E_COORD97":180143.45000000001,"N_COORD97":2578027.23,"ADDRESS":"中興路９號之７","OBJECTID":599989},"geometry":{"x":180143.45000000112,"y":2578027.2300000004}},{"attributes":{"ID":600017,"DIS_CODE":0,"TOWNNAME":"新營區","LI":"三仙里","LIN":"22鄰","STREET":"育德街","SECT":" ","MAREA":" ","LANE":" ","ALLEY":" ","HOUSE_NO":"４號","E_COORD97":179618.57000000001,"N_COORD97":2578872.4199999999,"ADDRESS":"育德街４號","OBJECTID":599990},"geometry":{"x":179618.57000000123,"y":2578872.4200000018}},{"attributes":{"ID":600018,"DIS_CODE":0,"TOWNNAME":"新營區","LI":"王公里","LIN":"22鄰","STREET":"大勇街","SECT":" ","MAREA":" ","LANE":" ","ALLEY":" ","HOUSE_NO":"８８號","E_COORD97":180436.60000000001,"N_COORD97":2579428.9300000002,"ADDRESS":"大勇街８８號","OBJECTID":599991},"geometry":{"x":180436.60000000056,"y":2579428.9299999997}},{"attributes":{"ID":600019,"DIS_CODE":0,"TOWNNAME":"新營區","LI":"民權里","LIN":"22鄰","STREET":"三民路","SECT":" ","MAREA":" ","LANE":" ","ALLEY":" ","HOUSE_NO":"１３０之４號","E_COORD97":179719.81,"N_COORD97":2578478.8700000001,"ADDRESS":"三民路１３０之４號","OBJECTID":599992},"geometry":{"x":179719.81000000052,"y":2578478.870000001}},{"attributes":{"ID":600020,"DIS_CODE":0,"TOWNNAME":"新營區","LI":"三仙里","LIN":"22鄰","STREET":"育德街","SECT":" ","MAREA":" ","LANE":" ","ALLEY":" ","HOUSE_NO":"１２號","E_COORD97":179617.78,"N_COORD97":2578891.2599999998,"ADDRESS":"育德街１２號","OBJECTID":599993},"geometry":{"x":179617.78000000026,"y":2578891.2599999998}},{"attributes":{"ID":600021,"DIS_CODE":0,"TOWNNAME":"新營區","LI":"三仙里","LIN":"22鄰","STREET":"民治路","SECT":" ","MAREA":" ","LANE":" ","ALLEY":" ","HOUSE_NO":"７０之１號","E_COORD97":179659,"N_COORD97":2578852.3700000001,"ADDRESS":"民治路７０之１號","OBJECTID":599994},"geometry":{"x":179659,"y":2578852.3700000048}},{"attributes":{"ID":600022,"DIS_CODE":0,"TOWNNAME":"新營區","LI":"王公里","LIN":"22鄰","STREET":"大勇街","SECT":" ","MAREA":" ","LANE":" ","ALLEY":" ","HOUSE_NO":"９４號","E_COORD97":180450.84,"N_COORD97":2579434.3999999999,"ADDRESS":"大勇街９４號","OBJECTID":599995},"geometry":{"x":180450.84000000078,"y":2579434.4000000041}},{"attributes":{"ID":600023,"DIS_CODE":0,"TOWNNAME":"新營區","LI":"新南里","LIN":"22鄰","STREET":"復興路","SECT":" ","MAREA":" ","LANE":" ","ALLEY":" ","HOUSE_NO":"６１２號","E_COORD97":178048.32000000001,"N_COORD97":2578332.8999999999,"ADDRESS":"復興路６１２號","OBJECTID":599996},"geometry":{"x":178048.3200000003,"y":2578332.9000000022}},{"attributes":{"ID":600024,"DIS_CODE":0,"TOWNNAME":"新營區","LI":"王公里","LIN":"22鄰","STREET":"大勇街","SECT":" ","MAREA":" ","LANE":" ","ALLEY":" ","HOUSE_NO":"８２號","E_COORD97":180427.39000000001,"N_COORD97":2579428.9700000002,"ADDRESS":"大勇街８２號","OBJECTID":599997},"geometry":{"x":180427.38999999966,"y":2579428.9700000025}},{"attributes":{"ID":600025,"DIS_CODE":0,"TOWNNAME":"安平區","LI":"建平里","LIN":"22鄰","STREET":"永華三街","SECT":" ","MAREA":" ","LANE":" ","ALLEY":" ","HOUSE_NO":"４２號","E_COORD97":166097.07999999999,"N_COORD97":2543541.6000000001,"ADDRESS":"永華三街４２號","OBJECTID":599998},"geometry":{"x":166097.08000000007,"y":2543541.5999999978}},{"attributes":{"ID":600026,"DIS_CODE":0,"TOWNNAME":"安平區","LI":"建平里","LIN":"22鄰","STREET":"永華三街","SECT":" ","MAREA":" ","LANE":" ","ALLEY":" ","HOUSE_NO":"４６號","E_COORD97":166097.59,"N_COORD97":2543560.8799999999,"ADDRESS":"永華三街４６號","OBJECTID":599999},"geometry":{"x":166097.59000000078,"y":2543560.8800000008}},{"attributes":{"ID":600027,"DIS_CODE":0,"TOWNNAME":"安平區","LI":"建平里","LIN":"22鄰","STREET":"永華三街","SECT":" ","MAREA":" ","LANE":" ","ALLEY":" ","HOUSE_NO":"５２號","E_COORD97":166101.23000000001,"N_COORD97":2543575.3100000001,"ADDRESS":"永華三街５２號","OBJECTID":600000},"geometry":{"x":166101.23000000045,"y":2543575.3100000042}}]}