{"displayFieldName":"TOWNNAME","fieldAliases":{"ID":"ID","DIS_CODE":"DIS_CODE","TOWNNAME":"TOWNNAME","LI":"LI","LIN":"LIN","STREET":"STREET","SECT":"SECT","MAREA":"MAREA","LANE":"LANE","ALLEY":"ALLEY","HOUSE_NO":"HOUSE_NO","E_COORD97":"E_COORD97","N_COORD97":"N_COORD97","ADDRESS":"ADDRESS","OBJECTID":"OBJECTID"},"geometryType":"esriGeometryPoint","spatialReference":{"wkid":102443,"latestWkid":3826},"fields":[{"name":"ID","type":"esriFieldTypeDouble","alias":"ID"},{"name":"DIS_CODE","type":"esriFieldTypeInteger","alias":"DIS_CODE"},{"name":"TOWNNAME","type":"esriFieldTypeString","alias":"TOWNNAME","length":8},{"name":"LI","type":"esriFieldTypeString","alias":"LI","length":8},{"name":"LIN","type":"esriFieldTypeString","alias":"LIN","length":12},{"name":"STREET","type":"esriFieldTypeString","alias":"STREET","length":20},{"name":"SECT","type":"esriFieldTypeString","alias":"SECT","length":8},{"name":"MAREA","type":"esriFieldTypeString","alias":"MAREA","length":12},{"name":"LANE","type":"esriFieldTypeString","alias":"LANE","length":10},{"name":"ALLEY","type":"esriFieldTypeString","alias":"ALLEY","length":10},{"name":"HOUSE_NO","type":"esriFieldTypeString","alias":"HOUSE_NO","length":20},{"name":"E_COORD97","type":"esriFieldTypeDouble","alias":"E_COORD97"},{"name":"N_COORD97","type":"esriFieldTypeDouble","alias":"N_COORD97"},{"name":"ADDRESS","type":"esriFieldTypeString","alias":"ADDRESS","length":50},{"name":"OBJECTID","type":"esriFieldTypeOID","alias":"OBJECTID"}],"features":[{"attributes":{"ID":192602,"DIS_CODE":0,"TOWNNAME":"鹽水區","LI":"岸內里","LIN":"15鄰","STREET":" ","SECT":" ","MAREA":"蔦松腳","LANE":" ","ALLEY":" ","HOUSE_NO":"１３號之５","E_COORD97":175659.45999999999,"N_COORD97":2580711.7200000002,"ADDRESS":"蔦松腳１３號之５","OBJECTID":192601},"geometry":{"x":175659.46000000089,"y":2580711.7200000025}},{"attributes":{"ID":192603,"DIS_CODE":0,"TOWNNAME":"鹽水區","LI":"岸內里","LIN":"15鄰","STREET":" ","SECT":" ","MAREA":"蔦松腳","LANE":" ","ALLEY":" ","HOUSE_NO":"１３號之６","E_COORD97":175615.06,"N_COORD97":2580820.98,"ADDRESS":"蔦松腳１３號之６","OBJECTID":192602},"geometry":{"x":175615.05999999959,"y":2580820.9800000023}},{"attributes":{"ID":192604,"DIS_CODE":0,"TOWNNAME":"鹽水區","LI":"岸內里","LIN":"15鄰","STREET":" ","SECT":" ","MAREA":"蔦松腳","LANE":" ","ALLEY":" ","HOUSE_NO":"１３號之７","E_COORD97":175560.79999999999,"N_COORD97":2580892.0699999998,"ADDRESS":"蔦松腳１３號之７","OBJECTID":192603},"geometry":{"x":175560.79999999981,"y":2580892.0700000022}},{"attributes":{"ID":192605,"DIS_CODE":0,"TOWNNAME":"鹽水區","LI":"岸內里","LIN":"15鄰","STREET":" ","SECT":" ","MAREA":"蔦松腳","LANE":" ","ALLEY":" ","HOUSE_NO":"１３號之８","E_COORD97":175518.54999999999,"N_COORD97":2580876.6499999999,"ADDRESS":"蔦松腳１３號之８","OBJECTID":192604},"geometry":{"x":175518.54999999981,"y":2580876.6500000004}},{"attributes":{"ID":192606,"DIS_CODE":0,"TOWNNAME":"鹽水區","LI":"岸內里","LIN":"15鄰","STREET":" ","SECT":" ","MAREA":"蔦松腳","LANE":" ","ALLEY":" ","HOUSE_NO":"１３號","E_COORD97":175578.57999999999,"N_COORD97":2580619.0499999998,"ADDRESS":"蔦松腳１３號","OBJECTID":192605},"geometry":{"x":175578.58000000101,"y":2580619.0500000007}},{"attributes":{"ID":192607,"DIS_CODE":0,"TOWNNAME":"鹽水區","LI":"岸內里","LIN":"15鄰","STREET":" ","SECT":" ","MAREA":"蔦松腳","LANE":" ","ALLEY":" ","HOUSE_NO":"１４號之１１","E_COORD97":175359.42999999999,"N_COORD97":2581034.0499999998,"ADDRESS":"蔦松腳１４號之１１","OBJECTID":192606},"geometry":{"x":175359.43000000063,"y":2581034.0500000045}},{"attributes":{"ID":192608,"DIS_CODE":0,"TOWNNAME":"鹽水區","LI":"岸內里","LIN":"15鄰","STREET":" ","SECT":" ","MAREA":"蔦松腳","LANE":" ","ALLEY":" ","HOUSE_NO":"１４之１２號","E_COORD97":175351.01000000001,"N_COORD97":2581034.27,"ADDRESS":"蔦松腳１４之１２號","OBJECTID":192607},"geometry":{"x":175351.00999999978,"y":2581034.2699999996}},{"attributes":{"ID":192609,"DIS_CODE":0,"TOWNNAME":"鹽水區","LI":"岸內里","LIN":"15鄰","STREET":" ","SECT":" ","MAREA":"蔦松腳","LANE":" ","ALLEY":" ","HOUSE_NO":"１４號之１２","E_COORD97":175351.01000000001,"N_COORD97":2581034.27,"ADDRESS":"蔦松腳１４號之１２","OBJECTID":192608},"geometry":{"x":175351.00999999978,"y":2581034.2699999996}},{"attributes":{"ID":192610,"DIS_CODE":0,"TOWNNAME":"鹽水區","LI":"岸內里","LIN":"15鄰","STREET":" ","SECT":" ","MAREA":"蔦松腳","LANE":" ","ALLEY":" ","HOUSE_NO":"１４號之１４","E_COORD97":175327.69,"N_COORD97":2581034.6699999999,"ADDRESS":"蔦松腳１４號之１４","OBJECTID":192609},"geometry":{"x":175327.69000000134,"y":2581034.6699999999}},{"attributes":{"ID":192611,"DIS_CODE":0,"TOWNNAME":"官田區","LI":"社子里","LIN":"6鄰","STREET":" ","SECT":" ","MAREA":"社子","LANE":" ","ALLEY":" ","HOUSE_NO":"４３號之１","E_COORD97":184779.89999999999,"N_COORD97":2564490.4199999999,"ADDRESS":"社子４３號之１","OBJECTID":192610},"geometry":{"x":184779.90000000224,"y":2564490.4200000018}},{"attributes":{"ID":192612,"DIS_CODE":0,"TOWNNAME":"鹽水區","LI":"岸內里","LIN":"15鄰","STREET":" ","SECT":" ","MAREA":"蔦松腳","LANE":" ","ALLEY":" ","HOUSE_NO":"１４之１５號","E_COORD97":175320.47,"N_COORD97":2581035.0699999998,"ADDRESS":"蔦松腳１４之１５號","OBJECTID":192611},"geometry":{"x":175320.46999999974,"y":2581035.0700000022}},{"attributes":{"ID":192613,"DIS_CODE":0,"TOWNNAME":"鹽水區","LI":"岸內里","LIN":"15鄰","STREET":" ","SECT":" ","MAREA":"蔦松腳","LANE":" ","ALLEY":" ","HOUSE_NO":"１４號之１６","E_COORD97":175313.48000000001,"N_COORD97":2581035.3999999999,"ADDRESS":"蔦松腳１４號之１６","OBJECTID":192612},"geometry":{"x":175313.48000000231,"y":2581035.4000000022}},{"attributes":{"ID":192614,"DIS_CODE":0,"TOWNNAME":"鹽水區","LI":"岸內里","LIN":"15鄰","STREET":" ","SECT":" ","MAREA":"蔦松腳","LANE":" ","ALLEY":" ","HOUSE_NO":"１４號之１７","E_COORD97":175306.38,"N_COORD97":2581035.77,"ADDRESS":"蔦松腳１４號之１７","OBJECTID":192613},"geometry":{"x":175306.37999999989,"y":2581035.7700000014}},{"attributes":{"ID":192615,"DIS_CODE":0,"TOWNNAME":"鹽水區","LI":"岸內里","LIN":"15鄰","STREET":" ","SECT":" ","MAREA":"蔦松腳","LANE":" ","ALLEY":" ","HOUSE_NO":"１４號之１８","E_COORD97":175299.26999999999,"N_COORD97":2581036.1299999999,"ADDRESS":"蔦松腳１４號之１８","OBJECTID":192614},"geometry":{"x":175299.27000000048,"y":2581036.1300000008}},{"attributes":{"ID":192616,"DIS_CODE":0,"TOWNNAME":"鹽水區","LI":"岸內里","LIN":"15鄰","STREET":" ","SECT":" ","MAREA":"蔦松腳","LANE":" ","ALLEY":" ","HOUSE_NO":"１４號之１９","E_COORD97":175292.17000000001,"N_COORD97":2581036.5,"ADDRESS":"蔦松腳１４號之１９","OBJECTID":192615},"geometry":{"x":175292.16999999993,"y":2581036.5}},{"attributes":{"ID":192617,"DIS_CODE":0,"TOWNNAME":"鹽水區","LI":"岸內里","LIN":"15鄰","STREET":" ","SECT":" ","MAREA":"蔦松腳","LANE":" ","ALLEY":" ","HOUSE_NO":"１４號之２０","E_COORD97":175285.07000000001,"N_COORD97":2581036.8599999999,"ADDRESS":"蔦松腳１４號之２０","OBJECTID":192616},"geometry":{"x":175285.0700000003,"y":2581036.8599999994}},{"attributes":{"ID":192618,"DIS_CODE":0,"TOWNNAME":"鹽水區","LI":"岸內里","LIN":"15鄰","STREET":" ","SECT":" ","MAREA":"蔦松腳","LANE":" ","ALLEY":" ","HOUSE_NO":"１４號之２１","E_COORD97":175277.95999999999,"N_COORD97":2581037.23,"ADDRESS":"蔦松腳１４號之２１","OBJECTID":192617},"geometry":{"x":175277.96000000089,"y":2581037.2300000023}},{"attributes":{"ID":192619,"DIS_CODE":0,"TOWNNAME":"鹽水區","LI":"岸內里","LIN":"15鄰","STREET":" ","SECT":" ","MAREA":"蔦松腳","LANE":" ","ALLEY":" ","HOUSE_NO":"１４之２２號","E_COORD97":175268.79000000001,"N_COORD97":2581043.7999999998,"ADDRESS":"蔦松腳１４之２２號","OBJECTID":192618},"geometry":{"x":175268.79000000097,"y":2581043.8000000026}},{"attributes":{"ID":192620,"DIS_CODE":0,"TOWNNAME":"鹽水區","LI":"岸內里","LIN":"15鄰","STREET":" ","SECT":" ","MAREA":"蔦松腳","LANE":" ","ALLEY":" ","HOUSE_NO":"１４號之２２","E_COORD97":175268.79000000001,"N_COORD97":2581043.7999999998,"ADDRESS":"蔦松腳１４號之２２","OBJECTID":192619},"geometry":{"x":175268.79000000097,"y":2581043.8000000026}},{"attributes":{"ID":192621,"DIS_CODE":0,"TOWNNAME":"鹽水區","LI":"岸內里","LIN":"15鄰","STREET":" ","SECT":" ","MAREA":"蔦松腳","LANE":" ","ALLEY":" ","HOUSE_NO":"１４號之２３","E_COORD97":175263.64000000001,"N_COORD97":2581043.8300000001,"ADDRESS":"蔦松腳１４號之２３","OBJECTID":192620},"geometry":{"x":175263.63999999966,"y":2581043.8300000001}},{"attributes":{"ID":192622,"DIS_CODE":0,"TOWNNAME":"東區","LI":"東安里","LIN":"5鄰","STREET":"長榮路","SECT":"二段","MAREA":" ","LANE":"３２巷","ALLEY":"４６弄","HOUSE_NO":"２２號之１","E_COORD97":170090.26000000001,"N_COORD97":2543072.8700000001,"ADDRESS":"長榮路二段３２巷４６弄２２號之１","OBJECTID":192621},"geometry":{"x":170090.26000000071,"y":2543072.870000001}},{"attributes":{"ID":192623,"DIS_CODE":0,"TOWNNAME":"鹽水區","LI":"岸內里","LIN":"15鄰","STREET":" ","SECT":" ","MAREA":"蔦松腳","LANE":" ","ALLEY":" ","HOUSE_NO":"１４號之２４","E_COORD97":175258.5,"N_COORD97":2581043.8700000001,"ADDRESS":"蔦松腳１４號之２４","OBJECTID":192622},"geometry":{"x":175258.50000000186,"y":2581043.8700000029}},{"attributes":{"ID":192624,"DIS_CODE":0,"TOWNNAME":"鹽水區","LI":"岸內里","LIN":"15鄰","STREET":" ","SECT":" ","MAREA":"蔦松腳","LANE":" ","ALLEY":" ","HOUSE_NO":"１４號之２５","E_COORD97":175253.35000000001,"N_COORD97":2581043.9100000001,"ADDRESS":"蔦松腳１４號之２５","OBJECTID":192623},"geometry":{"x":175253.34999999963,"y":2581043.9100000001}},{"attributes":{"ID":192625,"DIS_CODE":0,"TOWNNAME":"東區","LI":"裕農里","LIN":"5鄰","STREET":"裕農路","SECT":" ","MAREA":" ","LANE":"２９１巷","ALLEY":"６９弄","HOUSE_NO":"２號","E_COORD97":170896.89000000001,"N_COORD97":2543136.6400000001,"ADDRESS":"裕農路２９１巷６９弄２號","OBJECTID":192624},"geometry":{"x":170896.88999999966,"y":2543136.6400000025}},{"attributes":{"ID":192626,"DIS_CODE":0,"TOWNNAME":"東區","LI":"新東里","LIN":"5鄰","STREET":"衛國街","SECT":" ","MAREA":" ","LANE":"１０６巷","ALLEY":"５弄","HOUSE_NO":"４５號","E_COORD97":170529.85999999999,"N_COORD97":2543052.9900000002,"ADDRESS":"衛國街１０６巷５弄４５號","OBJECTID":192625},"geometry":{"x":170529.86000000034,"y":2543052.9900000021}},{"attributes":{"ID":192627,"DIS_CODE":0,"TOWNNAME":"鹽水區","LI":"岸內里","LIN":"15鄰","STREET":" ","SECT":" ","MAREA":"蔦松腳","LANE":" ","ALLEY":" ","HOUSE_NO":"１４號之２６","E_COORD97":175248.20000000001,"N_COORD97":2581043.9500000002,"ADDRESS":"蔦松腳１４號之２６","OBJECTID":192626},"geometry":{"x":175248.20000000019,"y":2581043.9500000011}},{"attributes":{"ID":192628,"DIS_CODE":0,"TOWNNAME":"鹽水區","LI":"岸內里","LIN":"15鄰","STREET":" ","SECT":" ","MAREA":"蔦松腳","LANE":" ","ALLEY":" ","HOUSE_NO":"１４號之２７","E_COORD97":175243.04999999999,"N_COORD97":2581043.9900000002,"ADDRESS":"蔦松腳１４號之２７","OBJECTID":192627},"geometry":{"x":175243.05000000075,"y":2581043.9900000039}},{"attributes":{"ID":192629,"DIS_CODE":0,"TOWNNAME":"東區","LI":"東安里","LIN":"5鄰","STREET":"長榮路","SECT":"二段","MAREA":" ","LANE":"３２巷","ALLEY":"４６弄","HOUSE_NO":"１４號","E_COORD97":170072.95000000001,"N_COORD97":2543098.5699999998,"ADDRESS":"長榮路二段３２巷４６弄１４號","OBJECTID":192628},"geometry":{"x":170072.95000000019,"y":2543098.570000004}},{"attributes":{"ID":192630,"DIS_CODE":0,"TOWNNAME":"東區","LI":"東安里","LIN":"5鄰","STREET":"長榮路","SECT":"二段","MAREA":" ","LANE":"３２巷","ALLEY":"４６弄","HOUSE_NO":"１６號","E_COORD97":170081.57999999999,"N_COORD97":2543088.8799999999,"ADDRESS":"長榮路二段３２巷４６弄１６號","OBJECTID":192629},"geometry":{"x":170081.58000000101,"y":2543088.8800000008}},{"attributes":{"ID":192631,"DIS_CODE":0,"TOWNNAME":"鹽水區","LI":"岸內里","LIN":"15鄰","STREET":" ","SECT":" ","MAREA":"蔦松腳","LANE":" ","ALLEY":" ","HOUSE_NO":"１４號之２９","E_COORD97":175232.76000000001,"N_COORD97":2581044.0699999998,"ADDRESS":"蔦松腳１４號之２９","OBJECTID":192630},"geometry":{"x":175232.76000000164,"y":2581044.0700000022}},{"attributes":{"ID":192632,"DIS_CODE":0,"TOWNNAME":"東區","LI":"東安里","LIN":"5鄰","STREET":"長榮路","SECT":"二段","MAREA":" ","LANE":"３２巷","ALLEY":"４６弄","HOUSE_NO":"２４號","E_COORD97":170082.07999999999,"N_COORD97":2543067.7400000002,"ADDRESS":"長榮路二段３２巷４６弄２４號","OBJECTID":192631},"geometry":{"x":170082.08000000007,"y":2543067.7400000021}},{"attributes":{"ID":192633,"DIS_CODE":0,"TOWNNAME":"鹽水區","LI":"岸內里","LIN":"15鄰","STREET":" ","SECT":" ","MAREA":"蔦松腳","LANE":" ","ALLEY":" ","HOUSE_NO":"１４號之３０","E_COORD97":175227.60999999999,"N_COORD97":2581044.1099999999,"ADDRESS":"蔦松腳１４號之３０","OBJECTID":192632},"geometry":{"x":175227.6100000022,"y":2581044.1100000013}},{"attributes":{"ID":192634,"DIS_CODE":0,"TOWNNAME":"永康區","LI":"甲頂里","LIN":"5鄰","STREET":"中正南路","SECT":" ","MAREA":" ","LANE":"１６８巷","ALLEY":"２弄","HOUSE_NO":"１１８號","E_COORD97":169869.10000000001,"N_COORD97":2546866.5,"ADDRESS":"中正南路１６８巷２弄１１８號","OBJECTID":192633},"geometry":{"x":169869.10000000056,"y":2546866.5000000019}},{"attributes":{"ID":192635,"DIS_CODE":0,"TOWNNAME":"鹽水區","LI":"岸內里","LIN":"15鄰","STREET":" ","SECT":" ","MAREA":"蔦松腳","LANE":" ","ALLEY":" ","HOUSE_NO":"１４號之３１","E_COORD97":175222.47,"N_COORD97":2581044.1499999999,"ADDRESS":"蔦松腳１４號之３１","OBJECTID":192634},"geometry":{"x":175222.46999999974,"y":2581044.1500000022}},{"attributes":{"ID":192636,"DIS_CODE":0,"TOWNNAME":"鹽水區","LI":"岸內里","LIN":"15鄰","STREET":" ","SECT":" ","MAREA":"蔦松腳","LANE":" ","ALLEY":" ","HOUSE_NO":"１４號之３２","E_COORD97":175217.32000000001,"N_COORD97":2581044.1899999999,"ADDRESS":"蔦松腳１４號之３２","OBJECTID":192635},"geometry":{"x":175217.3200000003,"y":2581044.1899999995}},{"attributes":{"ID":192637,"DIS_CODE":0,"TOWNNAME":"鹽水區","LI":"岸內里","LIN":"15鄰","STREET":" ","SECT":" ","MAREA":"蔦松腳","LANE":" ","ALLEY":" ","HOUSE_NO":"１４號之３３","E_COORD97":175212.17000000001,"N_COORD97":2581044.23,"ADDRESS":"蔦松腳１４號之３３","OBJECTID":192636},"geometry":{"x":175212.17000000086,"y":2581044.2300000023}},{"attributes":{"ID":192638,"DIS_CODE":0,"TOWNNAME":"鹽水區","LI":"岸內里","LIN":"15鄰","STREET":" ","SECT":" ","MAREA":"蔦松腳","LANE":" ","ALLEY":" ","HOUSE_NO":"１４號之３４","E_COORD97":175207.01999999999,"N_COORD97":2581044.27,"ADDRESS":"蔦松腳１４號之３４","OBJECTID":192637},"geometry":{"x":175207.02000000142,"y":2581044.2699999996}},{"attributes":{"ID":192639,"DIS_CODE":0,"TOWNNAME":"鹽水區","LI":"岸內里","LIN":"15鄰","STREET":" ","SECT":" ","MAREA":"蔦松腳","LANE":" ","ALLEY":" ","HOUSE_NO":"１４號之３６","E_COORD97":175196.73000000001,"N_COORD97":2581044.3500000001,"ADDRESS":"蔦松腳１４號之３６","OBJECTID":192638},"geometry":{"x":175196.73000000138,"y":2581044.3500000034}},{"attributes":{"ID":192640,"DIS_CODE":0,"TOWNNAME":"鹽水區","LI":"岸內里","LIN":"15鄰","STREET":" ","SECT":" ","MAREA":"蔦松腳","LANE":" ","ALLEY":" ","HOUSE_NO":"１４號之３７","E_COORD97":175191.57999999999,"N_COORD97":2581044.3900000001,"ADDRESS":"蔦松腳１４號之３７","OBJECTID":192639},"geometry":{"x":175191.58000000007,"y":2581044.3900000006}},{"attributes":{"ID":192641,"DIS_CODE":0,"TOWNNAME":"鹽水區","LI":"岸內里","LIN":"15鄰","STREET":" ","SECT":" ","MAREA":"蔦松腳","LANE":" ","ALLEY":" ","HOUSE_NO":"１４之３８號","E_COORD97":175186.42999999999,"N_COORD97":2581044.4300000002,"ADDRESS":"蔦松腳１４之３８號","OBJECTID":192640},"geometry":{"x":175186.43000000063,"y":2581044.4300000016}},{"attributes":{"ID":192642,"DIS_CODE":0,"TOWNNAME":"鹽水區","LI":"岸內里","LIN":"15鄰","STREET":" ","SECT":" ","MAREA":"蔦松腳","LANE":" ","ALLEY":" ","HOUSE_NO":"１４號之３９","E_COORD97":175181.29000000001,"N_COORD97":2581044.4700000002,"ADDRESS":"蔦松腳１４號之３９","OBJECTID":192641},"geometry":{"x":175181.29000000004,"y":2581044.4699999988}},{"attributes":{"ID":192643,"DIS_CODE":0,"TOWNNAME":"永康區","LI":"勝利里","LIN":"21鄰","STREET":"勝利街","SECT":" ","MAREA":" ","LANE":" ","ALLEY":" ","HOUSE_NO":"１５２號四樓之７","E_COORD97":171383.82000000001,"N_COORD97":2545055.8599999999,"ADDRESS":"勝利街１５２號四樓之７","OBJECTID":192642},"geometry":{"x":171383.82000000123,"y":2545055.8600000013}},{"attributes":{"ID":192644,"DIS_CODE":0,"TOWNNAME":"永康區","LI":"甲頂里","LIN":"5鄰","STREET":"中正南路","SECT":" ","MAREA":" ","LANE":"１６８巷","ALLEY":"２弄","HOUSE_NO":"１３２號","E_COORD97":169892.87,"N_COORD97":2546880.2400000002,"ADDRESS":"中正南路１６８巷２弄１３２號","OBJECTID":192643},"geometry":{"x":169892.87000000104,"y":2546880.2400000002}},{"attributes":{"ID":192645,"DIS_CODE":0,"TOWNNAME":"永康區","LI":"甲頂里","LIN":"5鄰","STREET":"中正南路","SECT":" ","MAREA":" ","LANE":"１６８巷","ALLEY":"２弄","HOUSE_NO":"１１０號","E_COORD97":169857.37,"N_COORD97":2546856,"ADDRESS":"中正南路１６８巷２弄１１０號","OBJECTID":192644},"geometry":{"x":169857.37000000104,"y":2546856.0000000019}},{"attributes":{"ID":192646,"DIS_CODE":0,"TOWNNAME":"永康區","LI":"烏竹里","LIN":"18鄰","STREET":"自強路","SECT":" ","MAREA":" ","LANE":"７７３巷","ALLEY":"５弄","HOUSE_NO":"３２號","E_COORD97":174408.95999999999,"N_COORD97":2548589.25,"ADDRESS":"自強路７７３巷５弄３２號","OBJECTID":192645},"geometry":{"x":174408.95999999996,"y":2548589.2499999981}},{"attributes":{"ID":192647,"DIS_CODE":0,"TOWNNAME":"中西區","LI":"萬昌里","LIN":"5鄰","STREET":"府前路","SECT":"一段","MAREA":" ","LANE":"９０巷","ALLEY":"３４弄","HOUSE_NO":"１９號","E_COORD97":168986.44,"N_COORD97":2543368.5,"ADDRESS":"府前路一段９０巷３４弄１９號","OBJECTID":192646},"geometry":{"x":168986.44000000041,"y":2543368.5}},{"attributes":{"ID":192648,"DIS_CODE":0,"TOWNNAME":"中西區","LI":"萬昌里","LIN":"5鄰","STREET":"府前路","SECT":"一段","MAREA":" ","LANE":"９０巷","ALLEY":"３４弄","HOUSE_NO":"２１號","E_COORD97":168988.32999999999,"N_COORD97":2543362.8399999999,"ADDRESS":"府前路一段９０巷３４弄２１號","OBJECTID":192647},"geometry":{"x":168988.33000000101,"y":2543362.8399999999}},{"attributes":{"ID":192649,"DIS_CODE":0,"TOWNNAME":"中西區","LI":"萬昌里","LIN":"5鄰","STREET":"府前路","SECT":"一段","MAREA":" ","LANE":"９０巷","ALLEY":"３４弄","HOUSE_NO":"２３號","E_COORD97":168978.62,"N_COORD97":2543363.3799999999,"ADDRESS":"府前路一段９０巷３４弄２３號","OBJECTID":192648},"geometry":{"x":168978.62000000011,"y":2543363.3800000008}},{"attributes":{"ID":192650,"DIS_CODE":0,"TOWNNAME":"中西區","LI":"萬昌里","LIN":"5鄰","STREET":"府前路","SECT":"一段","MAREA":" ","LANE":"９０巷","ALLEY":"３４弄","HOUSE_NO":"２５號","E_COORD97":168970.39000000001,"N_COORD97":2543370.25,"ADDRESS":"府前路一段９０巷３４弄２５號","OBJECTID":192649},"geometry":{"x":168970.3900000006,"y":2543370.25}},{"attributes":{"ID":192651,"DIS_CODE":0,"TOWNNAME":"中西區","LI":"萬昌里","LIN":"5鄰","STREET":"府前路","SECT":"一段","MAREA":" ","LANE":"９０巷","ALLEY":"３４弄","HOUSE_NO":"２６號","E_COORD97":168987.91,"N_COORD97":2543353.7200000002,"ADDRESS":"府前路一段９０巷３４弄２６號","OBJECTID":192650},"geometry":{"x":168987.91000000108,"y":2543353.7200000025}},{"attributes":{"ID":192652,"DIS_CODE":0,"TOWNNAME":"中西區","LI":"萬昌里","LIN":"5鄰","STREET":"府前路","SECT":"一段","MAREA":" ","LANE":"９０巷","ALLEY":"３４弄","HOUSE_NO":"２７號","E_COORD97":168978.37,"N_COORD97":2543356.3199999998,"ADDRESS":"府前路一段９０巷３４弄２７號","OBJECTID":192651},"geometry":{"x":168978.37000000011,"y":2543356.3200000003}},{"attributes":{"ID":192653,"DIS_CODE":0,"TOWNNAME":"中西區","LI":"萬昌里","LIN":"5鄰","STREET":"府前路","SECT":"一段","MAREA":" ","LANE":"９０巷","ALLEY":"３４弄","HOUSE_NO":"２８號","E_COORD97":168966.94,"N_COORD97":2543361.71,"ADDRESS":"府前路一段９０巷３４弄２８號","OBJECTID":192652},"geometry":{"x":168966.94000000227,"y":2543361.7100000009}},{"attributes":{"ID":192654,"DIS_CODE":0,"TOWNNAME":"中西區","LI":"萬昌里","LIN":"5鄰","STREET":"府前路","SECT":"一段","MAREA":" ","LANE":"９０巷","ALLEY":"３４弄","HOUSE_NO":"２９號","E_COORD97":168966.35999999999,"N_COORD97":2543357.8599999999,"ADDRESS":"府前路一段９０巷３４弄２９號","OBJECTID":192653},"geometry":{"x":168966.36000000127,"y":2543357.8600000013}},{"attributes":{"ID":192655,"DIS_CODE":0,"TOWNNAME":"永康區","LI":"五王里","LIN":" ","STREET":"成功路","SECT":" ","MAREA":" ","LANE":"１７２巷","ALLEY":"４３弄","HOUSE_NO":"１０號","E_COORD97":171528.39999999999,"N_COORD97":2545761.7599999998,"ADDRESS":"成功路１７２巷４３弄１０號","OBJECTID":192654},"geometry":{"x":171528.39999999944,"y":2545761.7600000035}},{"attributes":{"ID":192656,"DIS_CODE":0,"TOWNNAME":"中西區","LI":"萬昌里","LIN":"5鄰","STREET":"府前路","SECT":"一段","MAREA":" ","LANE":"９０巷","ALLEY":"３４弄","HOUSE_NO":"３０號","E_COORD97":168964.32000000001,"N_COORD97":2543371.8599999999,"ADDRESS":"府前路一段９０巷３４弄３０號","OBJECTID":192655},"geometry":{"x":168964.32000000123,"y":2543371.8600000013}},{"attributes":{"ID":192657,"DIS_CODE":0,"TOWNNAME":"中西區","LI":"萬昌里","LIN":"5鄰","STREET":"府前路","SECT":"一段","MAREA":" ","LANE":"９０巷","ALLEY":"３４弄","HOUSE_NO":"３１號","E_COORD97":168959.32999999999,"N_COORD97":2543374.29,"ADDRESS":"府前路一段９０巷３４弄３１號","OBJECTID":192656},"geometry":{"x":168959.33000000101,"y":2543374.290000001}},{"attributes":{"ID":192658,"DIS_CODE":0,"TOWNNAME":"中西區","LI":"萬昌里","LIN":"5鄰","STREET":"府前路","SECT":"一段","MAREA":" ","LANE":"９０巷","ALLEY":"３４弄","HOUSE_NO":"３２號","E_COORD97":168953.26000000001,"N_COORD97":2543377.25,"ADDRESS":"府前路一段９０巷３４弄３２號","OBJECTID":192657},"geometry":{"x":168953.25999999978,"y":2543377.25}},{"attributes":{"ID":192659,"DIS_CODE":0,"TOWNNAME":"安南區","LI":"安順里","LIN":"15鄰","STREET":"安豐二街","SECT":" ","MAREA":" ","LANE":" ","ALLEY":" ","HOUSE_NO":"７４號","E_COORD97":169505.89000000001,"N_COORD97":2549991.9399999999,"ADDRESS":"安豐二街７４號","OBJECTID":192658},"geometry":{"x":169505.8900000006,"y":2549991.9400000013}},{"attributes":{"ID":192660,"DIS_CODE":0,"TOWNNAME":"安南區","LI":"安順里","LIN":"15鄰","STREET":"安豐二街","SECT":" ","MAREA":" ","LANE":" ","ALLEY":" ","HOUSE_NO":"７６號","E_COORD97":169500.78,"N_COORD97":2549991.9399999999,"ADDRESS":"安豐二街７６號","OBJECTID":192659},"geometry":{"x":169500.78000000119,"y":2549991.9400000013}},{"attributes":{"ID":192661,"DIS_CODE":0,"TOWNNAME":"安南區","LI":"海西里","LIN":"15鄰","STREET":"海環街","SECT":" ","MAREA":" ","LANE":" ","ALLEY":" ","HOUSE_NO":"３２６號","E_COORD97":166113.73000000001,"N_COORD97":2548886.6400000001,"ADDRESS":"海環街３２６號","OBJECTID":192660},"geometry":{"x":166113.73000000138,"y":2548886.6400000025}},{"attributes":{"ID":192662,"DIS_CODE":0,"TOWNNAME":"安南區","LI":"海西里","LIN":"15鄰","STREET":"海環街","SECT":" ","MAREA":" ","LANE":" ","ALLEY":" ","HOUSE_NO":"３２７號","E_COORD97":166081.29999999999,"N_COORD97":2548822.46,"ADDRESS":"海環街３２７號","OBJECTID":192661},"geometry":{"x":166081.29999999981,"y":2548822.4600000009}},{"attributes":{"ID":192663,"DIS_CODE":0,"TOWNNAME":"安南區","LI":"海西里","LIN":"15鄰","STREET":"海環街","SECT":" ","MAREA":" ","LANE":" ","ALLEY":" ","HOUSE_NO":"３２９號","E_COORD97":166079.04999999999,"N_COORD97":2548826.9700000002,"ADDRESS":"海環街３２９號","OBJECTID":192662},"geometry":{"x":166079.05000000075,"y":2548826.9700000025}},{"attributes":{"ID":192664,"DIS_CODE":0,"TOWNNAME":"安南區","LI":"海西里","LIN":"15鄰","STREET":"海環街","SECT":" ","MAREA":" ","LANE":" ","ALLEY":" ","HOUSE_NO":"３３１號","E_COORD97":166078.20000000001,"N_COORD97":2548830.9100000001,"ADDRESS":"海環街３３１號","OBJECTID":192663},"geometry":{"x":166078.20000000112,"y":2548830.9100000001}},{"attributes":{"ID":192665,"DIS_CODE":0,"TOWNNAME":"安南區","LI":"海西里","LIN":"15鄰","STREET":"海環街","SECT":" ","MAREA":" ","LANE":" ","ALLEY":" ","HOUSE_NO":"３３３號","E_COORD97":166076.79000000001,"N_COORD97":2548835.9700000002,"ADDRESS":"海環街３３３號","OBJECTID":192664},"geometry":{"x":166076.79000000004,"y":2548835.9699999988}},{"attributes":{"ID":192666,"DIS_CODE":0,"TOWNNAME":"安南區","LI":"海西里","LIN":"15鄰","STREET":"海環街","SECT":" ","MAREA":" ","LANE":" ","ALLEY":" ","HOUSE_NO":"３３４號","E_COORD97":166106.19,"N_COORD97":2548915.9199999999,"ADDRESS":"海環街３３４號","OBJECTID":192665},"geometry":{"x":166106.19000000041,"y":2548915.9199999999}},{"attributes":{"ID":192667,"DIS_CODE":0,"TOWNNAME":"安南區","LI":"海西里","LIN":"15鄰","STREET":"海環街","SECT":" ","MAREA":" ","LANE":" ","ALLEY":" ","HOUSE_NO":"３３７號","E_COORD97":166069.19,"N_COORD97":2548846.9500000002,"ADDRESS":"海環街３３７號","OBJECTID":192666},"geometry":{"x":166069.19000000041,"y":2548846.9499999993}},{"attributes":{"ID":192668,"DIS_CODE":0,"TOWNNAME":"安南區","LI":"海西里","LIN":"15鄰","STREET":"海環街","SECT":" ","MAREA":" ","LANE":" ","ALLEY":" ","HOUSE_NO":"３３９號","E_COORD97":166068.34,"N_COORD97":2548851.4500000002,"ADDRESS":"海環街３３９號","OBJECTID":192667},"geometry":{"x":166068.34000000078,"y":2548851.4499999974}},{"attributes":{"ID":192669,"DIS_CODE":0,"TOWNNAME":"安南區","LI":"海西里","LIN":"15鄰","STREET":"海環街","SECT":" ","MAREA":" ","LANE":" ","ALLEY":" ","HOUSE_NO":"３４１號","E_COORD97":166066.92999999999,"N_COORD97":2548856.23,"ADDRESS":"海環街３４１號","OBJECTID":192668},"geometry":{"x":166066.9299999997,"y":2548856.2300000004}},{"attributes":{"ID":192670,"DIS_CODE":0,"TOWNNAME":"安南區","LI":"海西里","LIN":"15鄰","STREET":"海環街","SECT":" ","MAREA":" ","LANE":" ","ALLEY":" ","HOUSE_NO":"３４３號","E_COORD97":166065.23999999999,"N_COORD97":2548860.73,"ADDRESS":"海環街３４３號","OBJECTID":192669},"geometry":{"x":166065.24000000022,"y":2548860.7300000004}},{"attributes":{"ID":192671,"DIS_CODE":0,"TOWNNAME":"安南區","LI":"海西里","LIN":"15鄰","STREET":"海環街","SECT":" ","MAREA":" ","LANE":" ","ALLEY":" ","HOUSE_NO":"３５６號","E_COORD97":166117.5,"N_COORD97":2548928.46,"ADDRESS":"海環街３５６號","OBJECTID":192670},"geometry":{"x":166117.5,"y":2548928.4600000028}},{"attributes":{"ID":192672,"DIS_CODE":0,"TOWNNAME":"中西區","LI":"萬昌里","LIN":"5鄰","STREET":"府前路","SECT":"一段","MAREA":" ","LANE":"９０巷","ALLEY":"３４弄","HOUSE_NO":"３３號","E_COORD97":168982.32000000001,"N_COORD97":2543346.8500000001,"ADDRESS":"府前路一段９０巷３４弄３３號","OBJECTID":192671},"geometry":{"x":168982.3200000003,"y":2543346.8500000034}},{"attributes":{"ID":192673,"DIS_CODE":0,"TOWNNAME":"鹽水區","LI":"岸內里","LIN":"15鄰","STREET":" ","SECT":" ","MAREA":"蔦松腳","LANE":" ","ALLEY":" ","HOUSE_NO":"１４號之３","E_COORD97":175595.28,"N_COORD97":2581341.77,"ADDRESS":"蔦松腳１４號之３","OBJECTID":192672},"geometry":{"x":175595.28000000026,"y":2581341.7699999996}},{"attributes":{"ID":192674,"DIS_CODE":0,"TOWNNAME":"官田區","LI":"社子里","LIN":"6鄰","STREET":" ","SECT":" ","MAREA":"社子","LANE":" ","ALLEY":" ","HOUSE_NO":"４２號","E_COORD97":184730.26999999999,"N_COORD97":2564515.6699999999,"ADDRESS":"社子４２號","OBJECTID":192673},"geometry":{"x":184730.26999999955,"y":2564515.6700000018}},{"attributes":{"ID":192675,"DIS_CODE":0,"TOWNNAME":"中西區","LI":"萬昌里","LIN":"5鄰","STREET":"府前路","SECT":"一段","MAREA":" ","LANE":"９０巷","ALLEY":"３４弄","HOUSE_NO":"４３號","E_COORD97":168982.42999999999,"N_COORD97":2543332.8900000001,"ADDRESS":"府前路一段９０巷３４弄４３號","OBJECTID":192674},"geometry":{"x":168982.4299999997,"y":2543332.8900000006}},{"attributes":{"ID":192676,"DIS_CODE":0,"TOWNNAME":"楠西區","LI":"照興里","LIN":"3鄰","STREET":" ","SECT":" ","MAREA":"興北","LANE":" ","ALLEY":" ","HOUSE_NO":"３５號","E_COORD97":197126.47,"N_COORD97":2567674.25,"ADDRESS":"興北３５號","OBJECTID":192675},"geometry":{"x":197126.4700000016,"y":2567674.2500000019}},{"attributes":{"ID":192677,"DIS_CODE":0,"TOWNNAME":"中西區","LI":"萬昌里","LIN":"5鄰","STREET":"府前路","SECT":"一段","MAREA":" ","LANE":"９０巷","ALLEY":"３４弄","HOUSE_NO":"４５號","E_COORD97":168975.04000000001,"N_COORD97":2543337.0499999998,"ADDRESS":"府前路一段９０巷３４弄４５號","OBJECTID":192676},"geometry":{"x":168975.04000000097,"y":2543337.0500000026}},{"attributes":{"ID":192678,"DIS_CODE":0,"TOWNNAME":"中西區","LI":"萬昌里","LIN":"5鄰","STREET":"府前路","SECT":"一段","MAREA":" ","LANE":"９０巷","ALLEY":"３４弄","HOUSE_NO":"４６號","E_COORD97":168974.23000000001,"N_COORD97":2543333.8199999998,"ADDRESS":"府前路一段９０巷３４弄４６號","OBJECTID":192677},"geometry":{"x":168974.23000000045,"y":2543333.8200000003}},{"attributes":{"ID":192679,"DIS_CODE":0,"TOWNNAME":"中西區","LI":"萬昌里","LIN":"5鄰","STREET":"府前路","SECT":"一段","MAREA":" ","LANE":"９０巷","ALLEY":"３４弄","HOUSE_NO":"４７號","E_COORD97":168970.88,"N_COORD97":2543332.2000000002,"ADDRESS":"府前路一段９０巷３４弄４７號","OBJECTID":192678},"geometry":{"x":168970.88000000082,"y":2543332.1999999993}},{"attributes":{"ID":192680,"DIS_CODE":0,"TOWNNAME":"中西區","LI":"萬昌里","LIN":"5鄰","STREET":"府前路","SECT":"一段","MAREA":" ","LANE":"９０巷","ALLEY":"３４弄","HOUSE_NO":"４９號","E_COORD97":168970.42000000001,"N_COORD97":2543330.5899999999,"ADDRESS":"府前路一段９０巷３４弄４９號","OBJECTID":192679},"geometry":{"x":168970.42000000086,"y":2543330.5899999999}},{"attributes":{"ID":192681,"DIS_CODE":0,"TOWNNAME":"中西區","LI":"萬昌里","LIN":"5鄰","STREET":"府前路","SECT":"一段","MAREA":" ","LANE":"９０巷","ALLEY":"３４弄","HOUSE_NO":"５０號","E_COORD97":168969.84,"N_COORD97":2543327.2999999998,"ADDRESS":"府前路一段９０巷３４弄５０號","OBJECTID":192680},"geometry":{"x":168969.83999999985,"y":2543327.3000000007}},{"attributes":{"ID":192682,"DIS_CODE":0,"TOWNNAME":"中西區","LI":"萬昌里","LIN":"5鄰","STREET":"府前路","SECT":"一段","MAREA":" ","LANE":"９０巷","ALLEY":"３４弄","HOUSE_NO":"５１號","E_COORD97":168963.94,"N_COORD97":2543346.1600000001,"ADDRESS":"府前路一段９０巷３４弄５１號","OBJECTID":192681},"geometry":{"x":168963.94000000134,"y":2543346.160000002}},{"attributes":{"ID":192683,"DIS_CODE":0,"TOWNNAME":"中西區","LI":"萬昌里","LIN":"5鄰","STREET":"府前路","SECT":"一段","MAREA":" ","LANE":"９０巷","ALLEY":"３４弄","HOUSE_NO":"５２號","E_COORD97":168962.89000000001,"N_COORD97":2543340.3399999999,"ADDRESS":"府前路一段９０巷３４弄５２號","OBJECTID":192682},"geometry":{"x":168962.88999999873,"y":2543340.3400000036}},{"attributes":{"ID":192684,"DIS_CODE":0,"TOWNNAME":"中西區","LI":"萬昌里","LIN":"5鄰","STREET":"府前路","SECT":"一段","MAREA":" ","LANE":"９０巷","ALLEY":"３４弄","HOUSE_NO":"５３號","E_COORD97":168961.79999999999,"N_COORD97":2543334.5,"ADDRESS":"府前路一段９０巷３４弄５３號","OBJECTID":192683},"geometry":{"x":168961.79999999981,"y":2543334.5}},{"attributes":{"ID":192685,"DIS_CODE":0,"TOWNNAME":"中西區","LI":"萬昌里","LIN":"5鄰","STREET":"府前路","SECT":"一段","MAREA":" ","LANE":"９０巷","ALLEY":"３４弄","HOUSE_NO":"５４號","E_COORD97":168958.38,"N_COORD97":2543324.46,"ADDRESS":"府前路一段９０巷３４弄５４號","OBJECTID":192684},"geometry":{"x":168958.38000000082,"y":2543324.4600000028}},{"attributes":{"ID":192686,"DIS_CODE":0,"TOWNNAME":"永康區","LI":"北灣里","LIN":" ","STREET":"大灣路","SECT":" ","MAREA":" ","LANE":"４０巷","ALLEY":"２０９弄","HOUSE_NO":"１之７號","E_COORD97":174776.56,"N_COORD97":2546295.54,"ADDRESS":"大灣路４０巷２０９弄１之７號","OBJECTID":192685},"geometry":{"x":174776.56000000052,"y":2546295.540000001}},{"attributes":{"ID":192687,"DIS_CODE":0,"TOWNNAME":"永康區","LI":"復華里","LIN":"34鄰","STREET":"復國一路","SECT":" ","MAREA":" ","LANE":"４７５巷","ALLEY":"６０弄","HOUSE_NO":"１１號","E_COORD97":172511.16,"N_COORD97":2545980.5099999998,"ADDRESS":"復國一路４７５巷６０弄１１號","OBJECTID":192686},"geometry":{"x":172511.16000000015,"y":2545980.5100000016}},{"attributes":{"ID":192688,"DIS_CODE":0,"TOWNNAME":"安南區","LI":"城中里","LIN":"5鄰","STREET":"安中路","SECT":"六段","MAREA":" ","LANE":"５１９巷","ALLEY":"４６弄","HOUSE_NO":"８號","E_COORD97":160830.95000000001,"N_COORD97":2551280.8999999999,"ADDRESS":"安中路六段５１９巷４６弄８號","OBJECTID":192687},"geometry":{"x":160830.95000000019,"y":2551280.9000000041}},{"attributes":{"ID":192689,"DIS_CODE":0,"TOWNNAME":"安南區","LI":"城中里","LIN":"5鄰","STREET":"安中路","SECT":"六段","MAREA":" ","LANE":"５１９巷","ALLEY":"４６弄","HOUSE_NO":"１２號","E_COORD97":160868.55807599999,"N_COORD97":2551239.36032,"ADDRESS":"安中路六段５１９巷４６弄１２號","OBJECTID":192688},"geometry":{"x":160868.55807599984,"y":2551239.3603250012}},{"attributes":{"ID":192690,"DIS_CODE":0,"TOWNNAME":"安南區","LI":"城南里","LIN":"5鄰","STREET":"城西街","SECT":"一段","MAREA":" ","LANE":"１８１巷","ALLEY":"２４弄","HOUSE_NO":"６號","E_COORD97":160504.54000000001,"N_COORD97":2551217.8500000001,"ADDRESS":"城西街一段１８１巷２４弄６號","OBJECTID":192689},"geometry":{"x":160504.54000000004,"y":2551217.8499999996}},{"attributes":{"ID":192691,"DIS_CODE":0,"TOWNNAME":"永康區","LI":"西橋里","LIN":" ","STREET":"大橋二街","SECT":" ","MAREA":" ","LANE":"５１巷","ALLEY":"４５弄","HOUSE_NO":"３５之１號","E_COORD97":170498.45000000001,"N_COORD97":2546451.4199999999,"ADDRESS":"大橋二街５１巷４５弄３５之１號","OBJECTID":192690},"geometry":{"x":170498.45000000019,"y":2546451.4199999999}},{"attributes":{"ID":192692,"DIS_CODE":0,"TOWNNAME":"安南區","LI":"城西里","LIN":"5鄰","STREET":"城西街","SECT":"三段","MAREA":" ","LANE":"５１０巷","ALLEY":"１弄","HOUSE_NO":"２１號","E_COORD97":157087.42000000001,"N_COORD97":2550894.5699999998,"ADDRESS":"城西街三段５１０巷１弄２１號","OBJECTID":192691},"geometry":{"x":157087.41999999993,"y":2550894.5700000022}},{"attributes":{"ID":192693,"DIS_CODE":0,"TOWNNAME":"安南區","LI":"城西里","LIN":"5鄰","STREET":"城西街","SECT":"三段","MAREA":" ","LANE":"５１０巷","ALLEY":"１弄","HOUSE_NO":"２２號","E_COORD97":157108.5,"N_COORD97":2550892.23,"ADDRESS":"城西街三段５１０巷１弄２２號","OBJECTID":192692},"geometry":{"x":157108.50000000093,"y":2550892.2300000042}},{"attributes":{"ID":192694,"DIS_CODE":0,"TOWNNAME":"安南區","LI":"城西里","LIN":"5鄰","STREET":"城西街","SECT":"三段","MAREA":" ","LANE":"５１０巷","ALLEY":"１弄","HOUSE_NO":"２號","E_COORD97":157135.89999999999,"N_COORD97":2550874.6800000002,"ADDRESS":"城西街三段５１０巷１弄２號","OBJECTID":192693},"geometry":{"x":157135.90000000037,"y":2550874.6800000034}},{"attributes":{"ID":192695,"DIS_CODE":0,"TOWNNAME":"永康區","LI":"\u25A0行里","LIN":"41鄰","STREET":"永安路","SECT":" ","MAREA":" ","LANE":"１６５巷","ALLEY":"３０弄","HOUSE_NO":"６９號","E_COORD97":172362.81,"N_COORD97":2549445,"ADDRESS":"永安路１６５巷３０弄６９號","OBJECTID":192694},"geometry":{"x":172362.81000000052,"y":2549445}},{"attributes":{"ID":192696,"DIS_CODE":0,"TOWNNAME":"安南區","LI":"溪心里","LIN":"5鄰","STREET":"本原街","SECT":"二段","MAREA":" ","LANE":"１０６巷","ALLEY":"５９弄","HOUSE_NO":"４５號","E_COORD97":166909.35999999999,"N_COORD97":2551027.8300000001,"ADDRESS":"本原街二段１０６巷５９弄４５號","OBJECTID":192695},"geometry":{"x":166909.3600000022,"y":2551027.8300000019}},{"attributes":{"ID":192697,"DIS_CODE":0,"TOWNNAME":"安南區","LI":"海南里","LIN":"5鄰","STREET":"府安路","SECT":"六段","MAREA":" ","LANE":"１０３巷","ALLEY":"４１弄","HOUSE_NO":"１７號","E_COORD97":166653.56,"N_COORD97":2546558.1299999999,"ADDRESS":"府安路六段１０３巷４１弄１７號","OBJECTID":192696},"geometry":{"x":166653.56000000052,"y":2546558.1299999971}},{"attributes":{"ID":192698,"DIS_CODE":0,"TOWNNAME":"安南區","LI":"海佃里","LIN":"5鄰","STREET":"國安街","SECT":" ","MAREA":" ","LANE":"１５６巷","ALLEY":"５８弄","HOUSE_NO":"１１號","E_COORD97":166764.42000000001,"N_COORD97":2547150.9399999999,"ADDRESS":"國安街１５６巷５８弄１１號","OBJECTID":192697},"geometry":{"x":166764.42000000179,"y":2547150.9400000013}},{"attributes":{"ID":192699,"DIS_CODE":0,"TOWNNAME":"安南區","LI":"海南里","LIN":"5鄰","STREET":"府安路","SECT":"六段","MAREA":" ","LANE":"１０３巷","ALLEY":"４１弄","HOUSE_NO":"１８號","E_COORD97":166648.10999999999,"N_COORD97":2546574.75,"ADDRESS":"府安路六段１０３巷４１弄１８號","OBJECTID":192698},"geometry":{"x":166648.11000000034,"y":2546574.75}},{"attributes":{"ID":192700,"DIS_CODE":0,"TOWNNAME":"安南區","LI":"海南里","LIN":"5鄰","STREET":"府安路","SECT":"六段","MAREA":" ","LANE":"１０３巷","ALLEY":"４１弄","HOUSE_NO":"１９號","E_COORD97":166647.31,"N_COORD97":2546556.4100000001,"ADDRESS":"府安路六段１０３巷４１弄１９號","OBJECTID":192699},"geometry":{"x":166647.30999999959,"y":2546556.4100000001}},{"attributes":{"ID":192701,"DIS_CODE":0,"TOWNNAME":"鹽水區","LI":"岸內里","LIN":"15鄰","STREET":" ","SECT":" ","MAREA":"蔦松腳","LANE":" ","ALLEY":" ","HOUSE_NO":"１４號之４０","E_COORD97":175176.14000000001,"N_COORD97":2581044.5099999998,"ADDRESS":"蔦松腳１４號之４０","OBJECTID":192700},"geometry":{"x":175176.1400000006,"y":2581044.5100000016}},{"attributes":{"ID":192702,"DIS_CODE":0,"TOWNNAME":"安南區","LI":"海南里","LIN":"5鄰","STREET":"府安路","SECT":"六段","MAREA":" ","LANE":"１０３巷","ALLEY":"４１弄","HOUSE_NO":"２０號","E_COORD97":166642.59,"N_COORD97":2546572.5800000001,"ADDRESS":"府安路六段１０３巷４１弄２０號","OBJECTID":192701},"geometry":{"x":166642.58999999985,"y":2546572.5800000001}},{"attributes":{"ID":192703,"DIS_CODE":0,"TOWNNAME":"永康區","LI":"勝利里","LIN":"21鄰","STREET":"勝利街","SECT":" ","MAREA":" ","LANE":" ","ALLEY":" ","HOUSE_NO":"１５３號四樓之５","E_COORD97":171361.20999999999,"N_COORD97":2545015.29,"ADDRESS":"勝利街１５３號四樓之５","OBJECTID":192702},"geometry":{"x":171361.20999999996,"y":2545015.290000001}},{"attributes":{"ID":192704,"DIS_CODE":0,"TOWNNAME":"安南區","LI":"海南里","LIN":"5鄰","STREET":"府安路","SECT":"六段","MAREA":" ","LANE":"１０３巷","ALLEY":"４１弄","HOUSE_NO":"２１號","E_COORD97":166639.07999999999,"N_COORD97":2546554.3300000001,"ADDRESS":"府安路六段１０３巷４１弄２１號","OBJECTID":192703},"geometry":{"x":166639.08000000007,"y":2546554.3300000001}},{"attributes":{"ID":192705,"DIS_CODE":0,"TOWNNAME":"永康區","LI":"勝利里","LIN":"21鄰","STREET":"勝利街","SECT":" ","MAREA":" ","LANE":" ","ALLEY":" ","HOUSE_NO":"１５２號四樓之６","E_COORD97":171383.85000000001,"N_COORD97":2545055.8599999999,"ADDRESS":"勝利街１５２號四樓之６","OBJECTID":192704},"geometry":{"x":171383.8499999987,"y":2545055.8600000013}},{"attributes":{"ID":192706,"DIS_CODE":0,"TOWNNAME":"安南區","LI":"海南里","LIN":"5鄰","STREET":"府安路","SECT":"六段","MAREA":" ","LANE":"１０３巷","ALLEY":"４１弄","HOUSE_NO":"２３號","E_COORD97":166633.28,"N_COORD97":2546552.9700000002,"ADDRESS":"府安路六段１０３巷４１弄２３號","OBJECTID":192705},"geometry":{"x":166633.28000000026,"y":2546552.9700000007}},{"attributes":{"ID":192707,"DIS_CODE":0,"TOWNNAME":"安南區","LI":"海南里","LIN":"5鄰","STREET":"府安路","SECT":"六段","MAREA":" ","LANE":"１０３巷","ALLEY":"４１弄","HOUSE_NO":"２４號","E_COORD97":166630.01000000001,"N_COORD97":2546568.4199999999,"ADDRESS":"府安路六段１０３巷４１弄２４號","OBJECTID":192706},"geometry":{"x":166630.01000000071,"y":2546568.4200000018}},{"attributes":{"ID":192708,"DIS_CODE":0,"TOWNNAME":"安南區","LI":"海南里","LIN":"5鄰","STREET":"府安路","SECT":"六段","MAREA":" ","LANE":"１０３巷","ALLEY":"４１弄","HOUSE_NO":"２５號","E_COORD97":166625.39000000001,"N_COORD97":2546550.3399999999,"ADDRESS":"府安路六段１０３巷４１弄２５號","OBJECTID":192707},"geometry":{"x":166625.39000000153,"y":2546550.3399999999}},{"attributes":{"ID":192709,"DIS_CODE":0,"TOWNNAME":"安南區","LI":"海南里","LIN":"5鄰","STREET":"府安路","SECT":"六段","MAREA":" ","LANE":"１０３巷","ALLEY":"４１弄","HOUSE_NO":"２７號","E_COORD97":166620.67999999999,"N_COORD97":2546548.6200000001,"ADDRESS":"府安路六段１０３巷４１弄２７號","OBJECTID":192708},"geometry":{"x":166620.68000000063,"y":2546548.6200000029}},{"attributes":{"ID":192710,"DIS_CODE":0,"TOWNNAME":"安南區","LI":"海南里","LIN":"5鄰","STREET":"府安路","SECT":"六段","MAREA":" ","LANE":"１０３巷","ALLEY":"４１弄","HOUSE_NO":"２８號","E_COORD97":166615.98000000001,"N_COORD97":2546566.0699999998,"ADDRESS":"府安路六段１０３巷４１弄２８號","OBJECTID":192709},"geometry":{"x":166615.98000000138,"y":2546566.0700000003}},{"attributes":{"ID":192711,"DIS_CODE":0,"TOWNNAME":"安南區","LI":"海南里","LIN":"5鄰","STREET":"府安路","SECT":"六段","MAREA":" ","LANE":"１０３巷","ALLEY":"４１弄","HOUSE_NO":"２９號","E_COORD97":166612.98999999999,"N_COORD97":2546548.0699999998,"ADDRESS":"府安路六段１０３巷４１弄２９號","OBJECTID":192710},"geometry":{"x":166612.99000000022,"y":2546548.0700000022}},{"attributes":{"ID":192712,"DIS_CODE":0,"TOWNNAME":"鹽水區","LI":"岸內里","LIN":"15鄰","STREET":" ","SECT":" ","MAREA":"蔦松腳","LANE":" ","ALLEY":" ","HOUSE_NO":"１４號之４１","E_COORD97":175170.98999999999,"N_COORD97":2581044.5499999998,"ADDRESS":"蔦松腳１４號之４１","OBJECTID":192711},"geometry":{"x":175170.99000000115,"y":2581044.5500000026}},{"attributes":{"ID":192713,"DIS_CODE":0,"TOWNNAME":"鹽水區","LI":"岸內里","LIN":"15鄰","STREET":" ","SECT":" ","MAREA":"蔦松腳","LANE":" ","ALLEY":" ","HOUSE_NO":"１４號之４２","E_COORD97":175165.84,"N_COORD97":2581044.5899999999,"ADDRESS":"蔦松腳１４號之４２","OBJECTID":192712},"geometry":{"x":175165.83999999985,"y":2581044.5900000017}},{"attributes":{"ID":192714,"DIS_CODE":0,"TOWNNAME":"鹽水區","LI":"岸內里","LIN":"15鄰","STREET":" ","SECT":" ","MAREA":"蔦松腳","LANE":" ","ALLEY":" ","HOUSE_NO":"１４號之４３","E_COORD97":175160.70000000001,"N_COORD97":2581044.6299999999,"ADDRESS":"蔦松腳１４號之４３","OBJECTID":192713},"geometry":{"x":175160.70000000205,"y":2581044.629999999}},{"attributes":{"ID":192715,"DIS_CODE":0,"TOWNNAME":"安南區","LI":"海南里","LIN":"5鄰","STREET":"府安路","SECT":"六段","MAREA":" ","LANE":"１０３巷","ALLEY":"４１弄","HOUSE_NO":"３１號","E_COORD97":166607.10999999999,"N_COORD97":2546545.0899999999,"ADDRESS":"府安路六段１０３巷４１弄３１號","OBJECTID":192714},"geometry":{"x":166607.11000000034,"y":2546545.0899999999}},{"attributes":{"ID":192716,"DIS_CODE":0,"TOWNNAME":"鹽水區","LI":"岸內里","LIN":"15鄰","STREET":" ","SECT":" ","MAREA":"蔦松腳","LANE":" ","ALLEY":" ","HOUSE_NO":"１４號之４５","E_COORD97":175155.54999999999,"N_COORD97":2581044.6699999999,"ADDRESS":"蔦松腳１４號之４５","OBJECTID":192715},"geometry":{"x":175155.54999999981,"y":2581044.6699999999}},{"attributes":{"ID":192717,"DIS_CODE":0,"TOWNNAME":"鹽水區","LI":"岸內里","LIN":"15鄰","STREET":" ","SECT":" ","MAREA":"蔦松腳","LANE":" ","ALLEY":" ","HOUSE_NO":"１４之４６號","E_COORD97":175150.39999999999,"N_COORD97":2581044.71,"ADDRESS":"蔦松腳１４之４６號","OBJECTID":192716},"geometry":{"x":175150.40000000037,"y":2581044.7100000028}},{"attributes":{"ID":192718,"DIS_CODE":0,"TOWNNAME":"安南區","LI":"海南里","LIN":"5鄰","STREET":"府安路","SECT":"六段","MAREA":" ","LANE":"１０３巷","ALLEY":"４１弄","HOUSE_NO":"３３號","E_COORD97":166599.5,"N_COORD97":2546543.9100000001,"ADDRESS":"府安路六段１０３巷４１弄３３號","OBJECTID":192717},"geometry":{"x":166599.50000000186,"y":2546543.9099999983}},{"attributes":{"ID":192719,"DIS_CODE":0,"TOWNNAME":"安南區","LI":"海南里","LIN":"5鄰","STREET":"府安路","SECT":"六段","MAREA":" ","LANE":"１０３巷","ALLEY":"４１弄","HOUSE_NO":"３５號","E_COORD97":166593.17000000001,"N_COORD97":2546541.9300000002,"ADDRESS":"府安路六段１０３巷４１弄３５號","OBJECTID":192718},"geometry":{"x":166593.17000000179,"y":2546541.9299999997}},{"attributes":{"ID":192720,"DIS_CODE":0,"TOWNNAME":"鹽水區","LI":"岸內里","LIN":"15鄰","STREET":" ","SECT":" ","MAREA":"蔦松腳","LANE":" ","ALLEY":" ","HOUSE_NO":"１４號之４７","E_COORD97":175145.25,"N_COORD97":2581044.75,"ADDRESS":"蔦松腳１４號之４７","OBJECTID":192719},"geometry":{"x":175145.25000000093,"y":2581044.75}},{"attributes":{"ID":192721,"DIS_CODE":0,"TOWNNAME":"安南區","LI":"海南里","LIN":"5鄰","STREET":"府安路","SECT":"六段","MAREA":" ","LANE":"１０３巷","ALLEY":"５５弄","HOUSE_NO":"１４號","E_COORD97":166654.72,"N_COORD97":2546612.1400000001,"ADDRESS":"府安路六段１０３巷５５弄１４號","OBJECTID":192720},"geometry":{"x":166654.71999999974,"y":2546612.1400000025}},{"attributes":{"ID":192722,"DIS_CODE":0,"TOWNNAME":"鹽水區","LI":"岸內里","LIN":"15鄰","STREET":" ","SECT":" ","MAREA":"蔦松腳","LANE":" ","ALLEY":" ","HOUSE_NO":"１４號之４８","E_COORD97":175140.10999999999,"N_COORD97":2581044.79,"ADDRESS":"蔦松腳１４號之４８","OBJECTID":192721},"geometry":{"x":175140.11000000127,"y":2581044.790000001}},{"attributes":{"ID":192723,"DIS_CODE":0,"TOWNNAME":"鹽水區","LI":"岸內里","LIN":"15鄰","STREET":" ","SECT":" ","MAREA":"蔦松腳","LANE":" ","ALLEY":" ","HOUSE_NO":"１４號之４９","E_COORD97":175362.31,"N_COORD97":2581013.9199999999,"ADDRESS":"蔦松腳１４號之４９","OBJECTID":192722},"geometry":{"x":175362.30999999959,"y":2581013.9200000037}},{"attributes":{"ID":192724,"DIS_CODE":0,"TOWNNAME":"鹽水區","LI":"岸內里","LIN":"15鄰","STREET":" ","SECT":" ","MAREA":"蔦松腳","LANE":" ","ALLEY":" ","HOUSE_NO":"１４號之５０","E_COORD97":175357.31,"N_COORD97":2581014.0899999999,"ADDRESS":"蔦松腳１４號之５０","OBJECTID":192723},"geometry":{"x":175357.30999999959,"y":2581014.0900000017}},{"attributes":{"ID":192725,"DIS_CODE":0,"TOWNNAME":"鹽水區","LI":"岸內里","LIN":"15鄰","STREET":" ","SECT":" ","MAREA":"蔦松腳","LANE":" ","ALLEY":" ","HOUSE_NO":"１４號之５１","E_COORD97":175352.51999999999,"N_COORD97":2581014.1499999999,"ADDRESS":"蔦松腳１４號之５１","OBJECTID":192724},"geometry":{"x":175352.51999999955,"y":2581014.1500000022}},{"attributes":{"ID":192726,"DIS_CODE":0,"TOWNNAME":"鹽水區","LI":"岸內里","LIN":"15鄰","STREET":" ","SECT":" ","MAREA":"蔦松腳","LANE":" ","ALLEY":" ","HOUSE_NO":"１４號之５３","E_COORD97":175335.20000000001,"N_COORD97":2581017.3599999999,"ADDRESS":"蔦松腳１４號之５３","OBJECTID":192725},"geometry":{"x":175335.19999999925,"y":2581017.3600000013}},{"attributes":{"ID":192727,"DIS_CODE":0,"TOWNNAME":"鹽水區","LI":"岸內里","LIN":"15鄰","STREET":" ","SECT":" ","MAREA":"蔦松腳","LANE":" ","ALLEY":" ","HOUSE_NO":"１４號之５４","E_COORD97":175329.04999999999,"N_COORD97":2581017.7599999998,"ADDRESS":"蔦松腳１４號之５４","OBJECTID":192726},"geometry":{"x":175329.04999999888,"y":2581017.7599999998}},{"attributes":{"ID":192728,"DIS_CODE":0,"TOWNNAME":"鹽水區","LI":"岸內里","LIN":"15鄰","STREET":" ","SECT":" ","MAREA":"蔦松腳","LANE":" ","ALLEY":" ","HOUSE_NO":"１４號之５５","E_COORD97":175322.89999999999,"N_COORD97":2581018.1600000001,"ADDRESS":"蔦松腳１４號之５５","OBJECTID":192727},"geometry":{"x":175322.9000000013,"y":2581018.1600000001}},{"attributes":{"ID":192729,"DIS_CODE":0,"TOWNNAME":"鹽水區","LI":"岸內里","LIN":"15鄰","STREET":" ","SECT":" ","MAREA":"蔦松腳","LANE":" ","ALLEY":" ","HOUSE_NO":"１４號之５６","E_COORD97":175316.75,"N_COORD97":2581018.5499999998,"ADDRESS":"蔦松腳１４號之５６","OBJECTID":192728},"geometry":{"x":175316.75000000093,"y":2581018.5500000026}},{"attributes":{"ID":192730,"DIS_CODE":0,"TOWNNAME":"鹽水區","LI":"岸內里","LIN":"15鄰","STREET":" ","SECT":" ","MAREA":"蔦松腳","LANE":" ","ALLEY":" ","HOUSE_NO":"１４號之５７","E_COORD97":175310.60000000001,"N_COORD97":2581018.9500000002,"ADDRESS":"蔦松腳１４號之５７","OBJECTID":192729},"geometry":{"x":175310.60000000056,"y":2581018.9499999993}},{"attributes":{"ID":192731,"DIS_CODE":0,"TOWNNAME":"鹽水區","LI":"岸內里","LIN":"15鄰","STREET":" ","SECT":" ","MAREA":"蔦松腳","LANE":" ","ALLEY":" ","HOUSE_NO":"１４號之５８","E_COORD97":175304.45000000001,"N_COORD97":2581019.3500000001,"ADDRESS":"蔦松腳１４號之５８","OBJECTID":192730},"geometry":{"x":175304.45000000019,"y":2581019.3499999996}},{"attributes":{"ID":192732,"DIS_CODE":0,"TOWNNAME":"鹽水區","LI":"岸內里","LIN":"15鄰","STREET":" ","SECT":" ","MAREA":"蔦松腳","LANE":" ","ALLEY":" ","HOUSE_NO":"１４號之５９","E_COORD97":175298.31,"N_COORD97":2581019.75,"ADDRESS":"蔦松腳１４號之５９","OBJECTID":192731},"geometry":{"x":175298.31000000145,"y":2581019.7500000019}},{"attributes":{"ID":192733,"DIS_CODE":0,"TOWNNAME":"鹽水區","LI":"岸內里","LIN":"15鄰","STREET":" ","SECT":" ","MAREA":"蔦松腳","LANE":" ","ALLEY":" ","HOUSE_NO":"１４號之６０","E_COORD97":175292.16,"N_COORD97":2581020.1400000001,"ADDRESS":"蔦松腳１４號之６０","OBJECTID":192732},"geometry":{"x":175292.16000000108,"y":2581020.1400000025}},{"attributes":{"ID":192734,"DIS_CODE":0,"TOWNNAME":"下營區","LI":"新興里","LIN":"1鄰","STREET":"新北街","SECT":" ","MAREA":" ","LANE":" ","ALLEY":" ","HOUSE_NO":"１３３號","E_COORD97":175130.795916,"N_COORD97":2571082.7064399999,"ADDRESS":"新北街１３３號","OBJECTID":192733},"geometry":{"x":175130.79591600131,"y":2571082.7064390015}},{"attributes":{"ID":192735,"DIS_CODE":0,"TOWNNAME":"鹽水區","LI":"岸內里","LIN":"15鄰","STREET":" ","SECT":" ","MAREA":"蔦松腳","LANE":" ","ALLEY":" ","HOUSE_NO":"１４號之６１","E_COORD97":175286.01000000001,"N_COORD97":2581020.54,"ADDRESS":"蔦松腳１４號之６１","OBJECTID":192734},"geometry":{"x":175286.01000000071,"y":2581020.5399999991}},{"attributes":{"ID":192736,"DIS_CODE":0,"TOWNNAME":"鹽水區","LI":"岸內里","LIN":"15鄰","STREET":" ","SECT":" ","MAREA":"蔦松腳","LANE":" ","ALLEY":" ","HOUSE_NO":"１４號之６２","E_COORD97":175279.85999999999,"N_COORD97":2581020.9399999999,"ADDRESS":"蔦松腳１４號之６２","OBJECTID":192735},"geometry":{"x":175279.86000000034,"y":2581020.9400000013}},{"attributes":{"ID":192737,"DIS_CODE":0,"TOWNNAME":"鹽水區","LI":"岸內里","LIN":"15鄰","STREET":" ","SECT":" ","MAREA":"蔦松腳","LANE":" ","ALLEY":" ","HOUSE_NO":"１４號之６３","E_COORD97":175269.32999999999,"N_COORD97":2581024.1800000002,"ADDRESS":"蔦松腳１４號之６３","OBJECTID":192736},"geometry":{"x":175269.33000000007,"y":2581024.1799999997}},{"attributes":{"ID":192738,"DIS_CODE":0,"TOWNNAME":"鹽水區","LI":"岸內里","LIN":"15鄰","STREET":" ","SECT":" ","MAREA":"蔦松腳","LANE":" ","ALLEY":" ","HOUSE_NO":"１４號之６５","E_COORD97":175259.13,"N_COORD97":2581024.0899999999,"ADDRESS":"蔦松腳１４號之６５","OBJECTID":192737},"geometry":{"x":175259.12999999896,"y":2581024.0900000017}},{"attributes":{"ID":192739,"DIS_CODE":0,"TOWNNAME":"鹽水區","LI":"岸內里","LIN":"15鄰","STREET":" ","SECT":" ","MAREA":"蔦松腳","LANE":" ","ALLEY":" ","HOUSE_NO":"１４號之６７","E_COORD97":175248.94,"N_COORD97":2581023.9900000002,"ADDRESS":"蔦松腳１４號之６７","OBJECTID":192738},"geometry":{"x":175248.94000000041,"y":2581023.9900000039}},{"attributes":{"ID":192740,"DIS_CODE":0,"TOWNNAME":"鹽水區","LI":"岸內里","LIN":"15鄰","STREET":" ","SECT":" ","MAREA":"蔦松腳","LANE":" ","ALLEY":" ","HOUSE_NO":"１４號之６８","E_COORD97":175243.84,"N_COORD97":2581023.9399999999,"ADDRESS":"蔦松腳１４號之６８","OBJECTID":192739},"geometry":{"x":175243.83999999985,"y":2581023.9400000013}},{"attributes":{"ID":192741,"DIS_CODE":0,"TOWNNAME":"鹽水區","LI":"岸內里","LIN":"15鄰","STREET":" ","SECT":" ","MAREA":"蔦松腳","LANE":" ","ALLEY":" ","HOUSE_NO":"１４號之６９","E_COORD97":175238.73999999999,"N_COORD97":2581023.8900000001,"ADDRESS":"蔦松腳１４號之６９","OBJECTID":192740},"geometry":{"x":175238.74000000115,"y":2581023.8900000006}},{"attributes":{"ID":192742,"DIS_CODE":0,"TOWNNAME":"鹽水區","LI":"岸內里","LIN":"15鄰","STREET":" ","SECT":" ","MAREA":"蔦松腳","LANE":" ","ALLEY":" ","HOUSE_NO":"１４之７７號","E_COORD97":175197.95999999999,"N_COORD97":2581023.5099999998,"ADDRESS":"蔦松腳１４之７７號","OBJECTID":192741},"geometry":{"x":175197.96000000089,"y":2581023.5100000016}},{"attributes":{"ID":192743,"DIS_CODE":0,"TOWNNAME":"鹽水區","LI":"岸內里","LIN":"15鄰","STREET":" ","SECT":" ","MAREA":"蔦松腳","LANE":" ","ALLEY":" ","HOUSE_NO":"１４之７８號","E_COORD97":175192.87,"N_COORD97":2581023.46,"ADDRESS":"蔦松腳１４之７８號","OBJECTID":192742},"geometry":{"x":175192.87000000011,"y":2581023.4600000009}},{"attributes":{"ID":192744,"DIS_CODE":0,"TOWNNAME":"鹽水區","LI":"岸內里","LIN":"15鄰","STREET":" ","SECT":" ","MAREA":"蔦松腳","LANE":" ","ALLEY":" ","HOUSE_NO":"１４號之７９","E_COORD97":175187.76999999999,"N_COORD97":2581023.4100000001,"ADDRESS":"蔦松腳１４號之７９","OBJECTID":192743},"geometry":{"x":175187.76999999955,"y":2581023.4100000001}},{"attributes":{"ID":192745,"DIS_CODE":0,"TOWNNAME":"鹽水區","LI":"岸內里","LIN":"15鄰","STREET":" ","SECT":" ","MAREA":"蔦松腳","LANE":" ","ALLEY":" ","HOUSE_NO":"１４號之８０","E_COORD97":175182.67000000001,"N_COORD97":2581023.3599999999,"ADDRESS":"蔦松腳１４號之８０","OBJECTID":192744},"geometry":{"x":175182.67000000179,"y":2581023.3599999994}},{"attributes":{"ID":192746,"DIS_CODE":0,"TOWNNAME":"鹽水區","LI":"岸內里","LIN":"15鄰","STREET":" ","SECT":" ","MAREA":"蔦松腳","LANE":" ","ALLEY":" ","HOUSE_NO":"１４號之８１","E_COORD97":175177.57000000001,"N_COORD97":2581023.3100000001,"ADDRESS":"蔦松腳１４號之８１","OBJECTID":192745},"geometry":{"x":175177.57000000123,"y":2581023.3100000024}},{"attributes":{"ID":192747,"DIS_CODE":0,"TOWNNAME":"鹽水區","LI":"岸內里","LIN":"15鄰","STREET":" ","SECT":" ","MAREA":"蔦松腳","LANE":" ","ALLEY":" ","HOUSE_NO":"１４號之８２","E_COORD97":175172.48000000001,"N_COORD97":2581023.2599999998,"ADDRESS":"蔦松腳１４號之８２","OBJECTID":192746},"geometry":{"x":175172.48000000045,"y":2581023.2599999998}},{"attributes":{"ID":192748,"DIS_CODE":0,"TOWNNAME":"鹽水區","LI":"岸內里","LIN":"15鄰","STREET":" ","SECT":" ","MAREA":"蔦松腳","LANE":" ","ALLEY":" ","HOUSE_NO":"１４號之８３","E_COORD97":175167.38,"N_COORD97":2581023.2200000002,"ADDRESS":"蔦松腳１４號之８３","OBJECTID":192747},"geometry":{"x":175167.37999999989,"y":2581023.2200000025}},{"attributes":{"ID":192749,"DIS_CODE":0,"TOWNNAME":"鹽水區","LI":"岸內里","LIN":"15鄰","STREET":" ","SECT":" ","MAREA":"蔦松腳","LANE":" ","ALLEY":" ","HOUSE_NO":"１４號之８４","E_COORD97":175162.28,"N_COORD97":2581023.1699999999,"ADDRESS":"蔦松腳１４號之８４","OBJECTID":192748},"geometry":{"x":175162.28000000119,"y":2581023.1700000018}},{"attributes":{"ID":192750,"DIS_CODE":0,"TOWNNAME":"鹽水區","LI":"岸內里","LIN":"15鄰","STREET":" ","SECT":" ","MAREA":"蔦松腳","LANE":" ","ALLEY":" ","HOUSE_NO":"１４號之８５","E_COORD97":175157.17999999999,"N_COORD97":2581023.1200000001,"ADDRESS":"蔦松腳１４號之８５","OBJECTID":192749},"geometry":{"x":175157.18000000063,"y":2581023.120000001}},{"attributes":{"ID":192751,"DIS_CODE":0,"TOWNNAME":"鹽水區","LI":"岸內里","LIN":"15鄰","STREET":" ","SECT":" ","MAREA":"蔦松腳","LANE":" ","ALLEY":" ","HOUSE_NO":"１４號之８６","E_COORD97":175152.09,"N_COORD97":2581023.0699999998,"ADDRESS":"蔦松腳１４號之８６","OBJECTID":192750},"geometry":{"x":175152.08999999985,"y":2581023.0699999984}},{"attributes":{"ID":192752,"DIS_CODE":0,"TOWNNAME":"鹽水區","LI":"岸內里","LIN":"15鄰","STREET":" ","SECT":" ","MAREA":"蔦松腳","LANE":" ","ALLEY":" ","HOUSE_NO":"１４號之８７","E_COORD97":175146.98999999999,"N_COORD97":2581023.02,"ADDRESS":"蔦松腳１４號之８７","OBJECTID":192751},"geometry":{"x":175146.99000000209,"y":2581023.0200000033}},{"attributes":{"ID":192753,"DIS_CODE":0,"TOWNNAME":"鹽水區","LI":"岸內里","LIN":"15鄰","STREET":" ","SECT":" ","MAREA":"蔦松腳","LANE":" ","ALLEY":" ","HOUSE_NO":"１４號之８","E_COORD97":175701.5,"N_COORD97":2581374.8100000001,"ADDRESS":"蔦松腳１４號之８","OBJECTID":192752},"geometry":{"x":175701.50000000093,"y":2581374.8100000024}},{"attributes":{"ID":192754,"DIS_CODE":0,"TOWNNAME":"鹽水區","LI":"岸內里","LIN":"15鄰","STREET":" ","SECT":" ","MAREA":"蔦松腳","LANE":" ","ALLEY":" ","HOUSE_NO":"１４號之９０","E_COORD97":175141.98999999999,"N_COORD97":2580965.6200000001,"ADDRESS":"蔦松腳１４號之９０","OBJECTID":192753},"geometry":{"x":175141.99000000115,"y":2580965.620000001}},{"attributes":{"ID":192755,"DIS_CODE":0,"TOWNNAME":"鹽水區","LI":"岸內里","LIN":"15鄰","STREET":" ","SECT":" ","MAREA":"蔦松腳","LANE":" ","ALLEY":" ","HOUSE_NO":"１５號","E_COORD97":175595.53,"N_COORD97":2580623.7000000002,"ADDRESS":"蔦松腳１５號","OBJECTID":192754},"geometry":{"x":175595.53000000026,"y":2580623.6999999993}},{"attributes":{"ID":192756,"DIS_CODE":0,"TOWNNAME":"七股區","LI":"?埕里","LIN":"15鄰","STREET":" ","SECT":" ","MAREA":"?埕","LANE":" ","ALLEY":" ","HOUSE_NO":"２４４號","E_COORD97":157427.86884700001,"N_COORD97":2561356.0461800001,"ADDRESS":"?埕２４４號","OBJECTID":192755},"geometry":{"x":157427.86884700134,"y":2561356.046178}},{"attributes":{"ID":192757,"DIS_CODE":0,"TOWNNAME":"七股區","LI":"?埕里","LIN":"15鄰","STREET":" ","SECT":" ","MAREA":"?埕","LANE":" ","ALLEY":" ","HOUSE_NO":"２４７號","E_COORD97":157575.60000000001,"N_COORD97":2560481.4700000002,"ADDRESS":"?埕２４７號","OBJECTID":192756},"geometry":{"x":157575.60000000056,"y":2560481.4700000007}},{"attributes":{"ID":192758,"DIS_CODE":0,"TOWNNAME":"七股區","LI":"?埕里","LIN":"15鄰","STREET":" ","SECT":" ","MAREA":"?埕","LANE":" ","ALLEY":" ","HOUSE_NO":"２５１號","E_COORD97":158393.29999999999,"N_COORD97":2560163.5600000001,"ADDRESS":"?埕２５１號","OBJECTID":192757},"geometry":{"x":158393.30000000075,"y":2560163.5600000024}},{"attributes":{"ID":192759,"DIS_CODE":0,"TOWNNAME":"七股區","LI":"?埕里","LIN":"15鄰","STREET":" ","SECT":" ","MAREA":"?埕","LANE":" ","ALLEY":" ","HOUSE_NO":"２５２號","E_COORD97":158556.56,"N_COORD97":2560826.1000000001,"ADDRESS":"?埕２５２號","OBJECTID":192758},"geometry":{"x":158556.55999999866,"y":2560826.1000000034}},{"attributes":{"ID":192760,"DIS_CODE":0,"TOWNNAME":"七股區","LI":"?埕里","LIN":"15鄰","STREET":" ","SECT":" ","MAREA":"?埕","LANE":" ","ALLEY":" ","HOUSE_NO":"２５３號","E_COORD97":158714.35999999999,"N_COORD97":2560530.6000000001,"ADDRESS":"?埕２５３號","OBJECTID":192759},"geometry":{"x":158714.36000000034,"y":2560530.5999999996}},{"attributes":{"ID":192761,"DIS_CODE":0,"TOWNNAME":"西港區","LI":"永樂里","LIN":"15鄰","STREET":" ","SECT":" ","MAREA":"大塭寮","LANE":" ","ALLEY":" ","HOUSE_NO":"１６２號","E_COORD97":166108.98000000001,"N_COORD97":2554602.0899999999,"ADDRESS":"大塭寮１６２號","OBJECTID":192760},"geometry":{"x":166108.98000000138,"y":2554602.0900000017}},{"attributes":{"ID":192762,"DIS_CODE":0,"TOWNNAME":"西港區","LI":"永樂里","LIN":"15鄰","STREET":" ","SECT":" ","MAREA":"大塭寮","LANE":" ","ALLEY":" ","HOUSE_NO":"１６５號","E_COORD97":165860.07000000001,"N_COORD97":2553575.4100000001,"ADDRESS":"大塭寮１６５號","OBJECTID":192761},"geometry":{"x":165860.0700000003,"y":2553575.4100000001}},{"attributes":{"ID":192763,"DIS_CODE":0,"TOWNNAME":"西港區","LI":"竹林里","LIN":"15鄰","STREET":" ","SECT":" ","MAREA":"大竹林","LANE":" ","ALLEY":" ","HOUSE_NO":"１３１之１號","E_COORD97":166734.19,"N_COORD97":2558059.7200000002,"ADDRESS":"大竹林１３１之１號","OBJECTID":192762},"geometry":{"x":166734.19000000227,"y":2558059.7200000044}},{"attributes":{"ID":192764,"DIS_CODE":0,"TOWNNAME":"西港區","LI":"永樂里","LIN":"15鄰","STREET":" ","SECT":" ","MAREA":"大塭寮","LANE":" ","ALLEY":" ","HOUSE_NO":"１２９號","E_COORD97":165511.42999999999,"N_COORD97":2554251.0699999998,"ADDRESS":"大塭寮１２９號","OBJECTID":192763},"geometry":{"x":165511.43000000156,"y":2554251.0700000022}},{"attributes":{"ID":192765,"DIS_CODE":0,"TOWNNAME":"安南區","LI":"海南里","LIN":"5鄰","STREET":"府安路","SECT":"六段","MAREA":" ","LANE":"１０３巷","ALLEY":"５５弄","HOUSE_NO":"１５號","E_COORD97":166653,"N_COORD97":2546592.52,"ADDRESS":"府安路六段１０３巷５５弄１５號","OBJECTID":192764},"geometry":{"x":166653,"y":2546592.5199999996}},{"attributes":{"ID":192766,"DIS_CODE":0,"TOWNNAME":"西港區","LI":"永樂里","LIN":"15鄰","STREET":" ","SECT":" ","MAREA":"大塭寮","LANE":" ","ALLEY":" ","HOUSE_NO":"１３０號","E_COORD97":165497.07999999999,"N_COORD97":2554251.1899999999,"ADDRESS":"大塭寮１３０號","OBJECTID":192765},"geometry":{"x":165497.08000000194,"y":2554251.1900000032}},{"attributes":{"ID":192767,"DIS_CODE":0,"TOWNNAME":"西港區","LI":"永樂里","LIN":"15鄰","STREET":" ","SECT":" ","MAREA":"大塭寮","LANE":" ","ALLEY":" ","HOUSE_NO":"１３１號","E_COORD97":165465.10999999999,"N_COORD97":2554238.8300000001,"ADDRESS":"大塭寮１３１號","OBJECTID":192766},"geometry":{"x":165465.1100000022,"y":2554238.8300000019}},{"attributes":{"ID":192768,"DIS_CODE":0,"TOWNNAME":"官田區","LI":"社子里","LIN":"6鄰","STREET":" ","SECT":" ","MAREA":"社子","LANE":" ","ALLEY":" ","HOUSE_NO":"４２號之５","E_COORD97":184675.67999999999,"N_COORD97":2564542.9399999999,"ADDRESS":"社子４２號之５","OBJECTID":192767},"geometry":{"x":184675.68000000063,"y":2564542.9400000032}},{"attributes":{"ID":192769,"DIS_CODE":0,"TOWNNAME":"官田區","LI":"社子里","LIN":"6鄰","STREET":" ","SECT":" ","MAREA":"社子","LANE":" ","ALLEY":" ","HOUSE_NO":"４２號之８","E_COORD97":184645.54000000001,"N_COORD97":2564511.8799999999,"ADDRESS":"社子４２號之８","OBJECTID":192768},"geometry":{"x":184645.54000000004,"y":2564511.8799999971}},{"attributes":{"ID":192770,"DIS_CODE":0,"TOWNNAME":"安南區","LI":"海南里","LIN":"5鄰","STREET":"府安路","SECT":"六段","MAREA":" ","LANE":"１０３巷","ALLEY":"５５弄","HOUSE_NO":"１７號","E_COORD97":166645.04000000001,"N_COORD97":2546590.6200000001,"ADDRESS":"府安路六段１０３巷５５弄１７號","OBJECTID":192769},"geometry":{"x":166645.0400000019,"y":2546590.620000001}},{"attributes":{"ID":192771,"DIS_CODE":0,"TOWNNAME":"官田區","LI":"社子里","LIN":"6鄰","STREET":" ","SECT":" ","MAREA":"社子","LANE":" ","ALLEY":" ","HOUSE_NO":"４３號之２","E_COORD97":184745.69,"N_COORD97":2564498.1499999999,"ADDRESS":"社子４３號之２","OBJECTID":192770},"geometry":{"x":184745.69000000227,"y":2564498.1500000041}},{"attributes":{"ID":192772,"DIS_CODE":0,"TOWNNAME":"官田區","LI":"社子里","LIN":"6鄰","STREET":" ","SECT":" ","MAREA":"社子","LANE":" ","ALLEY":" ","HOUSE_NO":"４３號之６","E_COORD97":184756.63,"N_COORD97":2564517.48,"ADDRESS":"社子４３號之６","OBJECTID":192771},"geometry":{"x":184756.62999999989,"y":2564517.4800000023}},{"attributes":{"ID":192773,"DIS_CODE":0,"TOWNNAME":"官田區","LI":"社子里","LIN":"6鄰","STREET":" ","SECT":" ","MAREA":"社子","LANE":" ","ALLEY":" ","HOUSE_NO":"４３號之７","E_COORD97":184755.87,"N_COORD97":2564536.04,"ADDRESS":"社子４３號之７","OBJECTID":192772},"geometry":{"x":184755.86999999918,"y":2564536.040000001}},{"attributes":{"ID":192774,"DIS_CODE":0,"TOWNNAME":"西港區","LI":"永樂里","LIN":"15鄰","STREET":" ","SECT":" ","MAREA":"大塭寮","LANE":" ","ALLEY":" ","HOUSE_NO":"１３３號","E_COORD97":165510.57000000001,"N_COORD97":2554233.8500000001,"ADDRESS":"大塭寮１３３號","OBJECTID":192773},"geometry":{"x":165510.5700000003,"y":2554233.8500000015}},{"attributes":{"ID":192775,"DIS_CODE":0,"TOWNNAME":"西港區","LI":"永樂里","LIN":"15鄰","STREET":" ","SECT":" ","MAREA":"大塭寮","LANE":" ","ALLEY":" ","HOUSE_NO":"１３４號","E_COORD97":165499.70999999999,"N_COORD97":2554206.2200000002,"ADDRESS":"大塭寮１３４號","OBJECTID":192774},"geometry":{"x":165499.71000000089,"y":2554206.2200000025}},{"attributes":{"ID":192776,"DIS_CODE":0,"TOWNNAME":"西港區","LI":"永樂里","LIN":"15鄰","STREET":" ","SECT":" ","MAREA":"大塭寮","LANE":" ","ALLEY":" ","HOUSE_NO":"１４０號","E_COORD97":165420.85000000001,"N_COORD97":2553752.2200000002,"ADDRESS":"大塭寮１４０號","OBJECTID":192775},"geometry":{"x":165420.85000000056,"y":2553752.2200000007}},{"attributes":{"ID":192777,"DIS_CODE":0,"TOWNNAME":"西港區","LI":"永樂里","LIN":"15鄰","STREET":" ","SECT":" ","MAREA":"大塭寮","LANE":" ","ALLEY":" ","HOUSE_NO":"１４１號","E_COORD97":165303.79999999999,"N_COORD97":2553825.7400000002,"ADDRESS":"大塭寮１４１號","OBJECTID":192776},"geometry":{"x":165303.80000000168,"y":2553825.7400000021}},{"attributes":{"ID":192778,"DIS_CODE":0,"TOWNNAME":"西港區","LI":"永樂里","LIN":"15鄰","STREET":" ","SECT":" ","MAREA":"大塭寮","LANE":" ","ALLEY":" ","HOUSE_NO":"１４２號","E_COORD97":165324.17000000001,"N_COORD97":2553849.0800000001,"ADDRESS":"大塭寮１４２號","OBJECTID":192777},"geometry":{"x":165324.17000000086,"y":2553849.0800000038}},{"attributes":{"ID":192779,"DIS_CODE":0,"TOWNNAME":"西港區","LI":"永樂里","LIN":"15鄰","STREET":" ","SECT":" ","MAREA":"大塭寮","LANE":" ","ALLEY":" ","HOUSE_NO":"１４３號之１","E_COORD97":165434.06,"N_COORD97":2553951.2000000002,"ADDRESS":"大塭寮１４３號之１","OBJECTID":192778},"geometry":{"x":165434.06000000145,"y":2553951.1999999993}},{"attributes":{"ID":192780,"DIS_CODE":0,"TOWNNAME":"西港區","LI":"永樂里","LIN":"15鄰","STREET":" ","SECT":" ","MAREA":"大塭寮","LANE":" ","ALLEY":" ","HOUSE_NO":"１４４號","E_COORD97":165543.04000000001,"N_COORD97":2554255.8300000001,"ADDRESS":"大塭寮１４４號","OBJECTID":192779},"geometry":{"x":165543.03999999911,"y":2554255.8300000019}},{"attributes":{"ID":192781,"DIS_CODE":0,"TOWNNAME":"西港區","LI":"永樂里","LIN":"15鄰","STREET":" ","SECT":" ","MAREA":"大塭寮","LANE":" ","ALLEY":" ","HOUSE_NO":"１４５號","E_COORD97":165539.54999999999,"N_COORD97":2554272.6699999999,"ADDRESS":"大塭寮１４５號","OBJECTID":192780},"geometry":{"x":165539.55000000168,"y":2554272.6700000018}},{"attributes":{"ID":192782,"DIS_CODE":0,"TOWNNAME":"西港區","LI":"永樂里","LIN":"15鄰","STREET":" ","SECT":" ","MAREA":"大塭寮","LANE":" ","ALLEY":" ","HOUSE_NO":"１４６號","E_COORD97":165529.78,"N_COORD97":2554228.1499999999,"ADDRESS":"大塭寮１４６號","OBJECTID":192781},"geometry":{"x":165529.77999999933,"y":2554228.1500000004}},{"attributes":{"ID":192783,"DIS_CODE":0,"TOWNNAME":"西港區","LI":"永樂里","LIN":"15鄰","STREET":" ","SECT":" ","MAREA":"大塭寮","LANE":" ","ALLEY":" ","HOUSE_NO":"１４７號","E_COORD97":165516.95000000001,"N_COORD97":2554201.6099999999,"ADDRESS":"大塭寮１４７號","OBJECTID":192782},"geometry":{"x":165516.95000000112,"y":2554201.6100000013}},{"attributes":{"ID":192784,"DIS_CODE":0,"TOWNNAME":"柳營區","LI":"重溪里","LIN":"15鄰","STREET":" ","SECT":" ","MAREA":"小腳腿","LANE":" ","ALLEY":" ","HOUSE_NO":"１５２號","E_COORD97":185176.85999999999,"N_COORD97":2576829.1299999999,"ADDRESS":"小腳腿１５２號","OBJECTID":192783},"geometry":{"x":185176.86000000127,"y":2576829.1300000008}},{"attributes":{"ID":192785,"DIS_CODE":0,"TOWNNAME":"柳營區","LI":"重溪里","LIN":"15鄰","STREET":" ","SECT":" ","MAREA":"小腳腿","LANE":" ","ALLEY":" ","HOUSE_NO":"１５３號","E_COORD97":185167.26000000001,"N_COORD97":2576829.6499999999,"ADDRESS":"小腳腿１５３號","OBJECTID":192784},"geometry":{"x":185167.26000000071,"y":2576829.6500000022}},{"attributes":{"ID":192786,"DIS_CODE":0,"TOWNNAME":"柳營區","LI":"重溪里","LIN":"15鄰","STREET":" ","SECT":" ","MAREA":"小腳腿","LANE":" ","ALLEY":" ","HOUSE_NO":"１５４號","E_COORD97":185173.01999999999,"N_COORD97":2576859.1299999999,"ADDRESS":"小腳腿１５４號","OBJECTID":192785},"geometry":{"x":185173.02000000142,"y":2576859.1300000008}},{"attributes":{"ID":192787,"DIS_CODE":0,"TOWNNAME":"柳營區","LI":"重溪里","LIN":"15鄰","STREET":" ","SECT":" ","MAREA":"小腳腿","LANE":" ","ALLEY":" ","HOUSE_NO":"１５５號","E_COORD97":185175.03,"N_COORD97":2576877.4399999999,"ADDRESS":"小腳腿１５５號","OBJECTID":192786},"geometry":{"x":185175.03000000026,"y":2576877.4400000013}},{"attributes":{"ID":192788,"DIS_CODE":0,"TOWNNAME":"柳營區","LI":"重溪里","LIN":"15鄰","STREET":" ","SECT":" ","MAREA":"小腳腿","LANE":" ","ALLEY":" ","HOUSE_NO":"１５６號之１","E_COORD97":185128.85000000001,"N_COORD97":2576908.4900000002,"ADDRESS":"小腳腿１５６號之１","OBJECTID":192787},"geometry":{"x":185128.85000000056,"y":2576908.4900000021}},{"attributes":{"ID":192789,"DIS_CODE":0,"TOWNNAME":"柳營區","LI":"重溪里","LIN":"15鄰","STREET":" ","SECT":" ","MAREA":"小腳腿","LANE":" ","ALLEY":" ","HOUSE_NO":"１５８號之２","E_COORD97":185139.44,"N_COORD97":2576979.2400000002,"ADDRESS":"小腳腿１５８號之２","OBJECTID":192788},"geometry":{"x":185139.44000000134,"y":2576979.2400000002}},{"attributes":{"ID":192790,"DIS_CODE":0,"TOWNNAME":"柳營區","LI":"重溪里","LIN":"15鄰","STREET":" ","SECT":" ","MAREA":"小腳腿","LANE":" ","ALLEY":" ","HOUSE_NO":"１５８號之３","E_COORD97":185138.70999999999,"N_COORD97":2576947.3100000001,"ADDRESS":"小腳腿１５８號之３","OBJECTID":192789},"geometry":{"x":185138.71000000089,"y":2576947.3100000024}},{"attributes":{"ID":192791,"DIS_CODE":0,"TOWNNAME":"柳營區","LI":"重溪里","LIN":"15鄰","STREET":" ","SECT":" ","MAREA":"小腳腿","LANE":" ","ALLEY":" ","HOUSE_NO":"１５８號","E_COORD97":185127.79000000001,"N_COORD97":2576948.1299999999,"ADDRESS":"小腳腿１５８號","OBJECTID":192790},"geometry":{"x":185127.7900000019,"y":2576948.129999999}},{"attributes":{"ID":192792,"DIS_CODE":0,"TOWNNAME":"柳營區","LI":"篤農里","LIN":"15鄰","STREET":" ","SECT":" ","MAREA":"小腳腿","LANE":" ","ALLEY":" ","HOUSE_NO":"３１４號","E_COORD97":185647.92000000001,"N_COORD97":2576621.71,"ADDRESS":"小腳腿３１４號","OBJECTID":192791},"geometry":{"x":185647.92000000086,"y":2576621.7100000009}},{"attributes":{"ID":192793,"DIS_CODE":0,"TOWNNAME":"柳營區","LI":"篤農里","LIN":"15鄰","STREET":" ","SECT":" ","MAREA":"小腳腿","LANE":" ","ALLEY":" ","HOUSE_NO":"３１５號之１","E_COORD97":185603.54999999999,"N_COORD97":2576631.3999999999,"ADDRESS":"小腳腿３１５號之１","OBJECTID":192792},"geometry":{"x":185603.54999999981,"y":2576631.4000000022}},{"attributes":{"ID":192794,"DIS_CODE":0,"TOWNNAME":"柳營區","LI":"篤農里","LIN":"15鄰","STREET":" ","SECT":" ","MAREA":"小腳腿","LANE":" ","ALLEY":" ","HOUSE_NO":"３１５號之２","E_COORD97":185602.16,"N_COORD97":2576650.2599999998,"ADDRESS":"小腳腿３１５號之２","OBJECTID":192793},"geometry":{"x":185602.16000000108,"y":2576650.2599999998}},{"attributes":{"ID":192795,"DIS_CODE":0,"TOWNNAME":"柳營區","LI":"篤農里","LIN":"15鄰","STREET":" ","SECT":" ","MAREA":"小腳腿","LANE":" ","ALLEY":" ","HOUSE_NO":"３１５號之３","E_COORD97":185604.92000000001,"N_COORD97":2576643.3799999999,"ADDRESS":"小腳腿３１５號之３","OBJECTID":192794},"geometry":{"x":185604.92000000086,"y":2576643.3800000008}},{"attributes":{"ID":192796,"DIS_CODE":0,"TOWNNAME":"柳營區","LI":"篤農里","LIN":"15鄰","STREET":" ","SECT":" ","MAREA":"小腳腿","LANE":" ","ALLEY":" ","HOUSE_NO":"３１５號之４","E_COORD97":185603.94,"N_COORD97":2576639.2799999998,"ADDRESS":"小腳腿３１５號之４","OBJECTID":192795},"geometry":{"x":185603.94000000134,"y":2576639.2799999993}},{"attributes":{"ID":192797,"DIS_CODE":0,"TOWNNAME":"柳營區","LI":"篤農里","LIN":"15鄰","STREET":" ","SECT":" ","MAREA":"小腳腿","LANE":" ","ALLEY":" ","HOUSE_NO":"３１６號之１","E_COORD97":185578.23000000001,"N_COORD97":2576646.98,"ADDRESS":"小腳腿３１６號之１","OBJECTID":192796},"geometry":{"x":185578.23000000138,"y":2576646.9800000042}},{"attributes":{"ID":192798,"DIS_CODE":0,"TOWNNAME":"柳營區","LI":"篤農里","LIN":"15鄰","STREET":" ","SECT":" ","MAREA":"小腳腿","LANE":" ","ALLEY":" ","HOUSE_NO":"３１６號","E_COORD97":185582.92000000001,"N_COORD97":2576645.4700000002,"ADDRESS":"小腳腿３１６號","OBJECTID":192797},"geometry":{"x":185582.92000000086,"y":2576645.4700000025}},{"attributes":{"ID":192799,"DIS_CODE":0,"TOWNNAME":"白河區","LI":"汴頭里","LIN":"9鄰","STREET":" ","SECT":" ","MAREA":"內枋林","LANE":" ","ALLEY":" ","HOUSE_NO":"８５號","E_COORD97":193875.45999999999,"N_COORD97":2585349.5499999998,"ADDRESS":"內枋林８５號","OBJECTID":192798},"geometry":{"x":193875.46000000089,"y":2585349.5500000007}},{"attributes":{"ID":192800,"DIS_CODE":0,"TOWNNAME":"柳營區","LI":"篤農里","LIN":"15鄰","STREET":" ","SECT":" ","MAREA":"小腳腿","LANE":" ","ALLEY":" ","HOUSE_NO":"３１７號之１","E_COORD97":185553.60000000001,"N_COORD97":2576650.79,"ADDRESS":"小腳腿３１７號之１","OBJECTID":192799},"geometry":{"x":185553.59999999963,"y":2576650.790000001}},{"attributes":{"ID":192801,"DIS_CODE":0,"TOWNNAME":"柳營區","LI":"篤農里","LIN":"15鄰","STREET":" ","SECT":" ","MAREA":"小腳腿","LANE":" ","ALLEY":" ","HOUSE_NO":"３１７號","E_COORD97":185559.51000000001,"N_COORD97":2576651.27,"ADDRESS":"小腳腿３１７號","OBJECTID":192800},"geometry":{"x":185559.50999999978,"y":2576651.2700000014}}]}