{"displayFieldName":"TOWNNAME","fieldAliases":{"ID":"ID","DIS_CODE":"DIS_CODE","TOWNNAME":"TOWNNAME","LI":"LI","LIN":"LIN","STREET":"STREET","SECT":"SECT","MAREA":"MAREA","LANE":"LANE","ALLEY":"ALLEY","HOUSE_NO":"HOUSE_NO","E_COORD97":"E_COORD97","N_COORD97":"N_COORD97","ADDRESS":"ADDRESS","OBJECTID":"OBJECTID"},"geometryType":"esriGeometryPoint","spatialReference":{"wkid":102443,"latestWkid":3826},"fields":[{"name":"ID","type":"esriFieldTypeDouble","alias":"ID"},{"name":"DIS_CODE","type":"esriFieldTypeInteger","alias":"DIS_CODE"},{"name":"TOWNNAME","type":"esriFieldTypeString","alias":"TOWNNAME","length":8},{"name":"LI","type":"esriFieldTypeString","alias":"LI","length":8},{"name":"LIN","type":"esriFieldTypeString","alias":"LIN","length":12},{"name":"STREET","type":"esriFieldTypeString","alias":"STREET","length":20},{"name":"SECT","type":"esriFieldTypeString","alias":"SECT","length":8},{"name":"MAREA","type":"esriFieldTypeString","alias":"MAREA","length":12},{"name":"LANE","type":"esriFieldTypeString","alias":"LANE","length":10},{"name":"ALLEY","type":"esriFieldTypeString","alias":"ALLEY","length":10},{"name":"HOUSE_NO","type":"esriFieldTypeString","alias":"HOUSE_NO","length":20},{"name":"E_COORD97","type":"esriFieldTypeDouble","alias":"E_COORD97"},{"name":"N_COORD97","type":"esriFieldTypeDouble","alias":"N_COORD97"},{"name":"ADDRESS","type":"esriFieldTypeString","alias":"ADDRESS","length":50},{"name":"OBJECTID","type":"esriFieldTypeOID","alias":"OBJECTID"}],"features":[{"attributes":{"ID":70601,"DIS_CODE":0,"TOWNNAME":"白河區","LI":"秀祐里","LIN":"7鄰","STREET":" ","SECT":" ","MAREA":"下秀祐","LANE":" ","ALLEY":" ","HOUSE_NO":"３０之１號","E_COORD97":188397.79999999999,"N_COORD97":2582727.52,"ADDRESS":"下秀祐３０之１號","OBJECTID":70601},"geometry":{"x":188397.80000000075,"y":2582727.5199999996}},{"attributes":{"ID":70602,"DIS_CODE":0,"TOWNNAME":"永康區","LI":"\u25A0行里","LIN":"33鄰","STREET":"中正北路","SECT":" ","MAREA":" ","LANE":"１９巷","ALLEY":"２弄","HOUSE_NO":"７號","E_COORD97":171960.91,"N_COORD97":2549136.5499999998,"ADDRESS":"中正北路１９巷２弄７號","OBJECTID":70602},"geometry":{"x":171960.91000000108,"y":2549136.5500000007}},{"attributes":{"ID":70603,"DIS_CODE":0,"TOWNNAME":"永康區","LI":"\u25A0行里","LIN":"33鄰","STREET":"中正北路","SECT":" ","MAREA":" ","LANE":"１９巷","ALLEY":"２弄","HOUSE_NO":"９號","E_COORD97":171965.88,"N_COORD97":2549132.8199999998,"ADDRESS":"中正北路１９巷２弄９號","OBJECTID":70603},"geometry":{"x":171965.88000000082,"y":2549132.8200000022}},{"attributes":{"ID":70604,"DIS_CODE":0,"TOWNNAME":"白河區","LI":"秀祐里","LIN":"7鄰","STREET":" ","SECT":" ","MAREA":"下秀祐","LANE":" ","ALLEY":" ","HOUSE_NO":"３０之２７號","E_COORD97":188281.59,"N_COORD97":2582983.6099999999,"ADDRESS":"下秀祐３０之２７號","OBJECTID":70604},"geometry":{"x":188281.58999999985,"y":2582983.6099999994}},{"attributes":{"ID":70605,"DIS_CODE":0,"TOWNNAME":"白河區","LI":"秀祐里","LIN":"7鄰","STREET":" ","SECT":" ","MAREA":"下秀祐","LANE":" ","ALLEY":" ","HOUSE_NO":"３０之２號","E_COORD97":188385.89000000001,"N_COORD97":2582733.9199999999,"ADDRESS":"下秀祐３０之２號","OBJECTID":70605},"geometry":{"x":188385.88999999966,"y":2582733.9200000018}},{"attributes":{"ID":70606,"DIS_CODE":0,"TOWNNAME":"永康區","LI":"\u25A0行里","LIN":"33鄰","STREET":"中正北路","SECT":" ","MAREA":" ","LANE":"１９巷","ALLEY":"２弄","HOUSE_NO":"２號","E_COORD97":171930.45000000001,"N_COORD97":2549132.1400000001,"ADDRESS":"中正北路１９巷２弄２號","OBJECTID":70606},"geometry":{"x":171930.45000000112,"y":2549132.1400000006}},{"attributes":{"ID":70607,"DIS_CODE":0,"TOWNNAME":"永康區","LI":"復興里","LIN":"7鄰","STREET":"復興路","SECT":" ","MAREA":" ","LANE":" ","ALLEY":" ","HOUSE_NO":"３６５號","E_COORD97":172173.04000000001,"N_COORD97":2544313.3599999999,"ADDRESS":"復興路３６５號","OBJECTID":70607},"geometry":{"x":172173.0400000019,"y":2544313.3600000013}},{"attributes":{"ID":70608,"DIS_CODE":0,"TOWNNAME":"白河區","LI":"秀祐里","LIN":"7鄰","STREET":" ","SECT":" ","MAREA":"下秀祐","LANE":" ","ALLEY":" ","HOUSE_NO":"３０號","E_COORD97":188361.54999999999,"N_COORD97":2582743.04,"ADDRESS":"下秀祐３０號","OBJECTID":70608},"geometry":{"x":188361.54999999981,"y":2582743.0399999991}},{"attributes":{"ID":70609,"DIS_CODE":0,"TOWNNAME":"永康區","LI":"復國里","LIN":"7鄰","STREET":"復國一路","SECT":" ","MAREA":" ","LANE":" ","ALLEY":" ","HOUSE_NO":"２６０號","E_COORD97":172746,"N_COORD97":2545372.8799999999,"ADDRESS":"復國一路２６０號","OBJECTID":70609},"geometry":{"x":172746,"y":2545372.879999999}},{"attributes":{"ID":70610,"DIS_CODE":0,"TOWNNAME":"白河區","LI":"昇安里","LIN":"7鄰","STREET":" ","SECT":" ","MAREA":"三間厝","LANE":" ","ALLEY":" ","HOUSE_NO":"９２號","E_COORD97":192105.41,"N_COORD97":2584745.9300000002,"ADDRESS":"三間厝９２號","OBJECTID":70610},"geometry":{"x":192105.41000000015,"y":2584745.9299999997}},{"attributes":{"ID":70611,"DIS_CODE":0,"TOWNNAME":"白河區","LI":"昇安里","LIN":"7鄰","STREET":" ","SECT":" ","MAREA":"三間厝","LANE":" ","ALLEY":" ","HOUSE_NO":"９４之１０號","E_COORD97":192152.67999999999,"N_COORD97":2584877.79,"ADDRESS":"三間厝９４之１０號","OBJECTID":70611},"geometry":{"x":192152.6799999997,"y":2584877.7899999991}},{"attributes":{"ID":70612,"DIS_CODE":0,"TOWNNAME":"白河區","LI":"昇安里","LIN":"7鄰","STREET":" ","SECT":" ","MAREA":"三間厝","LANE":" ","ALLEY":" ","HOUSE_NO":"９４之２號","E_COORD97":192143.16,"N_COORD97":2584753.9100000001,"ADDRESS":"三間厝９４之２號","OBJECTID":70612},"geometry":{"x":192143.16000000015,"y":2584753.910000002}},{"attributes":{"ID":70613,"DIS_CODE":0,"TOWNNAME":"白河區","LI":"昇安里","LIN":"7鄰","STREET":" ","SECT":" ","MAREA":"三間厝","LANE":" ","ALLEY":" ","HOUSE_NO":"９４之３號","E_COORD97":192147.12,"N_COORD97":2584753.7400000002,"ADDRESS":"三間厝９４之３號","OBJECTID":70613},"geometry":{"x":192147.12000000197,"y":2584753.7400000002}},{"attributes":{"ID":70614,"DIS_CODE":0,"TOWNNAME":"白河區","LI":"昇安里","LIN":"7鄰","STREET":" ","SECT":" ","MAREA":"三間厝","LANE":" ","ALLEY":" ","HOUSE_NO":"９４之４號","E_COORD97":192151.07999999999,"N_COORD97":2584753.5800000001,"ADDRESS":"三間厝９４之４號","OBJECTID":70614},"geometry":{"x":192151.08000000101,"y":2584753.5800000019}},{"attributes":{"ID":70615,"DIS_CODE":0,"TOWNNAME":"白河區","LI":"昇安里","LIN":"6鄰","STREET":" ","SECT":" ","MAREA":"三間厝","LANE":" ","ALLEY":" ","HOUSE_NO":"６６號","E_COORD97":191939.82000000001,"N_COORD97":2584756.3799999999,"ADDRESS":"三間厝６６號","OBJECTID":70615},"geometry":{"x":191939.82000000123,"y":2584756.3800000008}},{"attributes":{"ID":70616,"DIS_CODE":0,"TOWNNAME":"白河區","LI":"昇安里","LIN":"6鄰","STREET":" ","SECT":" ","MAREA":"三間厝","LANE":" ","ALLEY":" ","HOUSE_NO":"６７號","E_COORD97":191919.23999999999,"N_COORD97":2584733.0600000001,"ADDRESS":"三間厝６７號","OBJECTID":70616},"geometry":{"x":191919.24000000209,"y":2584733.0600000024}},{"attributes":{"ID":70617,"DIS_CODE":0,"TOWNNAME":"白河區","LI":"昇安里","LIN":"6鄰","STREET":" ","SECT":" ","MAREA":"三間厝","LANE":" ","ALLEY":" ","HOUSE_NO":"６８號","E_COORD97":191933.01999999999,"N_COORD97":2584728.0800000001,"ADDRESS":"三間厝６８號","OBJECTID":70617},"geometry":{"x":191933.01999999955,"y":2584728.0800000001}},{"attributes":{"ID":70618,"DIS_CODE":0,"TOWNNAME":"白河區","LI":"昇安里","LIN":"6鄰","STREET":" ","SECT":" ","MAREA":"三間厝","LANE":" ","ALLEY":" ","HOUSE_NO":"６９號","E_COORD97":191924.23999999999,"N_COORD97":2584760.6000000001,"ADDRESS":"三間厝６９號","OBJECTID":70618},"geometry":{"x":191924.24000000209,"y":2584760.5999999996}},{"attributes":{"ID":70619,"DIS_CODE":0,"TOWNNAME":"白河區","LI":"昇安里","LIN":"6鄰","STREET":" ","SECT":" ","MAREA":"三間厝","LANE":" ","ALLEY":" ","HOUSE_NO":"７１號","E_COORD97":191945.57999999999,"N_COORD97":2584690.6400000001,"ADDRESS":"三間厝７１號","OBJECTID":70619},"geometry":{"x":191945.58000000194,"y":2584690.6400000006}},{"attributes":{"ID":70620,"DIS_CODE":0,"TOWNNAME":"白河區","LI":"昇安里","LIN":"6鄰","STREET":" ","SECT":" ","MAREA":"三間厝","LANE":" ","ALLEY":" ","HOUSE_NO":"７２號","E_COORD97":191961.85000000001,"N_COORD97":2584705.8799999999,"ADDRESS":"三間厝７２號","OBJECTID":70620},"geometry":{"x":191961.85000000149,"y":2584705.8800000008}},{"attributes":{"ID":70621,"DIS_CODE":0,"TOWNNAME":"白河區","LI":"昇安里","LIN":"6鄰","STREET":" ","SECT":" ","MAREA":"三間厝","LANE":" ","ALLEY":" ","HOUSE_NO":"７５號","E_COORD97":191995.25,"N_COORD97":2584742.98,"ADDRESS":"三間厝７５號","OBJECTID":70621},"geometry":{"x":191995.25000000186,"y":2584742.9800000004}},{"attributes":{"ID":70622,"DIS_CODE":0,"TOWNNAME":"白河區","LI":"昇安里","LIN":"6鄰","STREET":" ","SECT":" ","MAREA":"三間厝","LANE":" ","ALLEY":" ","HOUSE_NO":"７６號","E_COORD97":191992.48999999999,"N_COORD97":2584720.48,"ADDRESS":"三間厝７６號","OBJECTID":70622},"geometry":{"x":191992.49000000115,"y":2584720.4800000023}},{"attributes":{"ID":70623,"DIS_CODE":0,"TOWNNAME":"白河區","LI":"昇安里","LIN":"6鄰","STREET":" ","SECT":" ","MAREA":"三間厝","LANE":" ","ALLEY":" ","HOUSE_NO":"７８號","E_COORD97":191977.32999999999,"N_COORD97":2584691.9199999999,"ADDRESS":"三間厝７８號","OBJECTID":70623},"geometry":{"x":191977.33000000007,"y":2584691.9199999999}},{"attributes":{"ID":70624,"DIS_CODE":0,"TOWNNAME":"白河區","LI":"昇安里","LIN":"6鄰","STREET":" ","SECT":" ","MAREA":"三間厝","LANE":" ","ALLEY":" ","HOUSE_NO":"７９之１號","E_COORD97":191972.07999999999,"N_COORD97":2584673.7400000002,"ADDRESS":"三間厝７９之１號","OBJECTID":70624},"geometry":{"x":191972.08000000007,"y":2584673.7400000039}},{"attributes":{"ID":70625,"DIS_CODE":0,"TOWNNAME":"白河區","LI":"昇安里","LIN":"6鄰","STREET":" ","SECT":" ","MAREA":"三間厝","LANE":" ","ALLEY":" ","HOUSE_NO":"７９號","E_COORD97":191986.67999999999,"N_COORD97":2584684.6899999999,"ADDRESS":"三間厝７９號","OBJECTID":70625},"geometry":{"x":191986.67999999877,"y":2584684.6900000013}},{"attributes":{"ID":70626,"DIS_CODE":0,"TOWNNAME":"白河區","LI":"秀祐里","LIN":"6鄰","STREET":" ","SECT":" ","MAREA":"下秀祐","LANE":" ","ALLEY":" ","HOUSE_NO":"１１號","E_COORD97":188637.70999999999,"N_COORD97":2582939.25,"ADDRESS":"下秀祐１１號","OBJECTID":70626},"geometry":{"x":188637.71000000089,"y":2582939.25}},{"attributes":{"ID":70627,"DIS_CODE":0,"TOWNNAME":"白河區","LI":"秀祐里","LIN":"6鄰","STREET":" ","SECT":" ","MAREA":"下秀祐","LANE":" ","ALLEY":" ","HOUSE_NO":"１１之１號","E_COORD97":188641.17999999999,"N_COORD97":2582939.9700000002,"ADDRESS":"下秀祐１１之１號","OBJECTID":70627},"geometry":{"x":188641.18000000063,"y":2582939.9700000044}},{"attributes":{"ID":70628,"DIS_CODE":0,"TOWNNAME":"永康區","LI":"\u25A0行里","LIN":"33鄰","STREET":"中正北路","SECT":" ","MAREA":" ","LANE":"１９巷","ALLEY":"２弄","HOUSE_NO":"６號","E_COORD97":171938.10999999999,"N_COORD97":2549129.8500000001,"ADDRESS":"中正北路１９巷２弄６號","OBJECTID":70628},"geometry":{"x":171938.11000000034,"y":2549129.8499999996}},{"attributes":{"ID":70629,"DIS_CODE":0,"TOWNNAME":"永康區","LI":"\u25A0行里","LIN":"33鄰","STREET":"中正北路","SECT":" ","MAREA":" ","LANE":"１９巷","ALLEY":"２弄","HOUSE_NO":"８號","E_COORD97":171941.64999999999,"N_COORD97":2549127.0699999998,"ADDRESS":"中正北路１９巷２弄８號","OBJECTID":70629},"geometry":{"x":171941.65000000037,"y":2549127.0700000022}},{"attributes":{"ID":70630,"DIS_CODE":0,"TOWNNAME":"永康區","LI":"\u25A0行里","LIN":"33鄰","STREET":"中正北路","SECT":" ","MAREA":" ","LANE":"１９巷","ALLEY":"２弄","HOUSE_NO":"１０號","E_COORD97":171945.17999999999,"N_COORD97":2549124.29,"ADDRESS":"中正北路１９巷２弄１０號","OBJECTID":70630},"geometry":{"x":171945.18000000063,"y":2549124.290000001}},{"attributes":{"ID":70631,"DIS_CODE":0,"TOWNNAME":"永康區","LI":"\u25A0行里","LIN":"33鄰","STREET":"中正北路","SECT":" ","MAREA":" ","LANE":"１９巷","ALLEY":"２弄","HOUSE_NO":"１２號","E_COORD97":171948.72,"N_COORD97":2549121.5,"ADDRESS":"中正北路１９巷２弄１２號","OBJECTID":70631},"geometry":{"x":171948.71999999974,"y":2549121.5000000019}},{"attributes":{"ID":70632,"DIS_CODE":0,"TOWNNAME":"永康區","LI":"\u25A0行里","LIN":"33鄰","STREET":"中正北路","SECT":" ","MAREA":" ","LANE":"１９巷","ALLEY":"２弄","HOUSE_NO":"１６號","E_COORD97":171953.79999999999,"N_COORD97":2549117.5099999998,"ADDRESS":"中正北路１９巷２弄１６號","OBJECTID":70632},"geometry":{"x":171953.79999999981,"y":2549117.5100000016}},{"attributes":{"ID":70633,"DIS_CODE":0,"TOWNNAME":"東區","LI":"大同里","LIN":"33鄰","STREET":"大同路","SECT":"一段","MAREA":" ","LANE":"１７５巷","ALLEY":"９９弄","HOUSE_NO":"１０號","E_COORD97":169414.39999999999,"N_COORD97":2542635.71,"ADDRESS":"大同路一段１７５巷９９弄１０號","OBJECTID":70633},"geometry":{"x":169414.40000000037,"y":2542635.7100000009}},{"attributes":{"ID":70634,"DIS_CODE":0,"TOWNNAME":"東區","LI":"大同里","LIN":"33鄰","STREET":"大同路","SECT":"一段","MAREA":" ","LANE":"１７５巷","ALLEY":"９９弄","HOUSE_NO":"１１號","E_COORD97":169416.42999999999,"N_COORD97":2542632.23,"ADDRESS":"大同路一段１７５巷９９弄１１號","OBJECTID":70634},"geometry":{"x":169416.4299999997,"y":2542632.2300000004}},{"attributes":{"ID":70635,"DIS_CODE":0,"TOWNNAME":"東區","LI":"大同里","LIN":"33鄰","STREET":"大同路","SECT":"一段","MAREA":" ","LANE":"１７５巷","ALLEY":"９９弄","HOUSE_NO":"１２號","E_COORD97":169418.17000000001,"N_COORD97":2542627.5899999999,"ADDRESS":"大同路一段１７５巷９９弄１２號","OBJECTID":70635},"geometry":{"x":169418.17000000086,"y":2542627.5900000017}},{"attributes":{"ID":70636,"DIS_CODE":0,"TOWNNAME":"東區","LI":"大同里","LIN":"33鄰","STREET":"大同路","SECT":"一段","MAREA":" ","LANE":"１７５巷","ALLEY":"９９弄","HOUSE_NO":"１３號","E_COORD97":169400.76000000001,"N_COORD97":2542637.73,"ADDRESS":"大同路一段１７５巷９９弄１３號","OBJECTID":70636},"geometry":{"x":169400.75999999978,"y":2542637.7300000023}},{"attributes":{"ID":70637,"DIS_CODE":0,"TOWNNAME":"東區","LI":"大同里","LIN":"33鄰","STREET":"大同路","SECT":"一段","MAREA":" ","LANE":"１７５巷","ALLEY":"９９弄","HOUSE_NO":"１４號","E_COORD97":169394.67000000001,"N_COORD97":2542633.8199999998,"ADDRESS":"大同路一段１７５巷９９弄１４號","OBJECTID":70637},"geometry":{"x":169394.66999999993,"y":2542633.8200000022}},{"attributes":{"ID":70638,"DIS_CODE":0,"TOWNNAME":"東區","LI":"大同里","LIN":"33鄰","STREET":"大同路","SECT":"一段","MAREA":" ","LANE":"１７５巷","ALLEY":"９９弄","HOUSE_NO":"７號","E_COORD97":169408.59,"N_COORD97":2542645.1299999999,"ADDRESS":"大同路一段１７５巷９９弄７號","OBJECTID":70638},"geometry":{"x":169408.58999999985,"y":2542645.129999999}},{"attributes":{"ID":70639,"DIS_CODE":0,"TOWNNAME":"東區","LI":"大同里","LIN":"33鄰","STREET":"大同路","SECT":"一段","MAREA":" ","LANE":"１７５巷","ALLEY":"９９弄","HOUSE_NO":"８號","E_COORD97":169410.76999999999,"N_COORD97":2542641.5,"ADDRESS":"大同路一段１７５巷９９弄８號","OBJECTID":70639},"geometry":{"x":169410.76999999955,"y":2542641.5000000019}},{"attributes":{"ID":70640,"DIS_CODE":0,"TOWNNAME":"東區","LI":"大同里","LIN":"33鄰","STREET":"大同路","SECT":"一段","MAREA":" ","LANE":"１７５巷","ALLEY":"９９弄","HOUSE_NO":"９號","E_COORD97":169412.07999999999,"N_COORD97":2542638.6000000001,"ADDRESS":"大同路一段１７５巷９９弄９號","OBJECTID":70640},"geometry":{"x":169412.08000000101,"y":2542638.5999999996}},{"attributes":{"ID":70641,"DIS_CODE":0,"TOWNNAME":"東區","LI":"大同里","LIN":"33鄰","STREET":"大同路","SECT":"一段","MAREA":" ","LANE":"１７５巷","ALLEY":"８３弄","HOUSE_NO":"１０號","E_COORD97":169395.54000000001,"N_COORD97":2542683.1099999999,"ADDRESS":"大同路一段１７５巷８３弄１０號","OBJECTID":70641},"geometry":{"x":169395.54000000004,"y":2542683.1099999994}},{"attributes":{"ID":70642,"DIS_CODE":0,"TOWNNAME":"東區","LI":"大同里","LIN":"33鄰","STREET":"大同路","SECT":"一段","MAREA":" ","LANE":"１７５巷","ALLEY":"８３弄","HOUSE_NO":"１１號","E_COORD97":169399.01999999999,"N_COORD97":2542677.02,"ADDRESS":"大同路一段１７５巷８３弄１１號","OBJECTID":70642},"geometry":{"x":169399.01999999955,"y":2542677.0199999996}},{"attributes":{"ID":70643,"DIS_CODE":0,"TOWNNAME":"東區","LI":"大同里","LIN":"33鄰","STREET":"大同路","SECT":"一段","MAREA":" ","LANE":"１７５巷","ALLEY":"８３弄","HOUSE_NO":"１２號","E_COORD97":169401.34,"N_COORD97":2542672.6800000002,"ADDRESS":"大同路一段１７５巷８３弄１２號","OBJECTID":70643},"geometry":{"x":169401.34000000078,"y":2542672.6799999997}},{"attributes":{"ID":70644,"DIS_CODE":0,"TOWNNAME":"東區","LI":"大同里","LIN":"33鄰","STREET":"大同路","SECT":"一段","MAREA":" ","LANE":"１７５巷","ALLEY":"８３弄","HOUSE_NO":"１３號","E_COORD97":169402.94,"N_COORD97":2542669.3399999999,"ADDRESS":"大同路一段１７５巷８３弄１３號","OBJECTID":70644},"geometry":{"x":169402.94000000134,"y":2542669.3400000017}},{"attributes":{"ID":70645,"DIS_CODE":0,"TOWNNAME":"六甲區","LI":"甲東里","LIN":"8鄰","STREET":"曾文街","SECT":" ","MAREA":" ","LANE":" ","ALLEY":" ","HOUSE_NO":"５０號","E_COORD97":184039.10000000001,"N_COORD97":2570228.2599999998,"ADDRESS":"曾文街５０號","OBJECTID":70645},"geometry":{"x":184039.10000000056,"y":2570228.2599999998}},{"attributes":{"ID":70646,"DIS_CODE":0,"TOWNNAME":"東區","LI":"大同里","LIN":"33鄰","STREET":"大同路","SECT":"一段","MAREA":" ","LANE":"１７５巷","ALLEY":"８３弄","HOUSE_NO":"１４號","E_COORD97":169392.12,"N_COORD97":2542668.7200000002,"ADDRESS":"大同路一段１７５巷８３弄１４號","OBJECTID":70646},"geometry":{"x":169392.12000000011,"y":2542668.7200000025}},{"attributes":{"ID":70647,"DIS_CODE":0,"TOWNNAME":"東區","LI":"大同里","LIN":"33鄰","STREET":"大同路","SECT":"一段","MAREA":" ","LANE":"１７５巷","ALLEY":"８３弄","HOUSE_NO":"１５號","E_COORD97":169389.59,"N_COORD97":2542672.2400000002,"ADDRESS":"大同路一段１７５巷８３弄１５號","OBJECTID":70647},"geometry":{"x":169389.59000000078,"y":2542672.2400000002}},{"attributes":{"ID":70648,"DIS_CODE":0,"TOWNNAME":"東區","LI":"大同里","LIN":"33鄰","STREET":"大同路","SECT":"一段","MAREA":" ","LANE":"１７５巷","ALLEY":"８３弄","HOUSE_NO":"１６號","E_COORD97":169387.13,"N_COORD97":2542677.1699999999,"ADDRESS":"大同路一段１７５巷８３弄１６號","OBJECTID":70648},"geometry":{"x":169387.13000000175,"y":2542677.1700000037}},{"attributes":{"ID":70649,"DIS_CODE":0,"TOWNNAME":"東區","LI":"大同里","LIN":"33鄰","STREET":"大同路","SECT":"一段","MAREA":" ","LANE":"１７５巷","ALLEY":"９９弄","HOUSE_NO":"１號","E_COORD97":169392.78,"N_COORD97":2542648.6200000001,"ADDRESS":"大同路一段１７５巷９９弄１號","OBJECTID":70649},"geometry":{"x":169392.78000000026,"y":2542648.6200000029}},{"attributes":{"ID":70650,"DIS_CODE":0,"TOWNNAME":"東區","LI":"大同里","LIN":"33鄰","STREET":"大同路","SECT":"一段","MAREA":" ","LANE":"１７５巷","ALLEY":"９９弄","HOUSE_NO":"２號","E_COORD97":169396.70000000001,"N_COORD97":2542650.6499999999,"ADDRESS":"大同路一段１７５巷９９弄２號","OBJECTID":70650},"geometry":{"x":169396.70000000019,"y":2542650.6500000041}},{"attributes":{"ID":70651,"DIS_CODE":0,"TOWNNAME":"東區","LI":"大同里","LIN":"33鄰","STREET":"大同路","SECT":"一段","MAREA":" ","LANE":"１７５巷","ALLEY":"９９弄","HOUSE_NO":"３號","E_COORD97":169400.04000000001,"N_COORD97":2542652.9700000002,"ADDRESS":"大同路一段１７５巷９９弄３號","OBJECTID":70651},"geometry":{"x":169400.04000000097,"y":2542652.9700000025}},{"attributes":{"ID":70652,"DIS_CODE":0,"TOWNNAME":"東區","LI":"大同里","LIN":"33鄰","STREET":"大同路","SECT":"一段","MAREA":" ","LANE":"１７５巷","ALLEY":"９９弄","HOUSE_NO":"４號","E_COORD97":169402.79000000001,"N_COORD97":2542654.4199999999,"ADDRESS":"大同路一段１７５巷９９弄４號","OBJECTID":70652},"geometry":{"x":169402.79000000004,"y":2542654.4199999999}},{"attributes":{"ID":70653,"DIS_CODE":0,"TOWNNAME":"東區","LI":"大同里","LIN":"33鄰","STREET":"大同路","SECT":"一段","MAREA":" ","LANE":"１７５巷","ALLEY":"９９弄","HOUSE_NO":"５號","E_COORD97":169406.26999999999,"N_COORD97":2542655.8700000001,"ADDRESS":"大同路一段１７５巷９９弄５號","OBJECTID":70653},"geometry":{"x":169406.27000000048,"y":2542655.870000001}},{"attributes":{"ID":70654,"DIS_CODE":0,"TOWNNAME":"東區","LI":"大同里","LIN":"33鄰","STREET":"大同路","SECT":"一段","MAREA":" ","LANE":"１７５巷","ALLEY":"９９弄","HOUSE_NO":"６號","E_COORD97":169409.45999999999,"N_COORD97":2542658.04,"ADDRESS":"大同路一段１７５巷９９弄６號","OBJECTID":70654},"geometry":{"x":169409.46000000089,"y":2542658.040000001}},{"attributes":{"ID":70655,"DIS_CODE":0,"TOWNNAME":"永康區","LI":"成功里","LIN":"33鄰","STREET":"忠孝路","SECT":" ","MAREA":" ","LANE":"２０７巷","ALLEY":"３２弄","HOUSE_NO":"７號","E_COORD97":171918.48000000001,"N_COORD97":2544952.3300000001,"ADDRESS":"忠孝路２０７巷３２弄７號","OBJECTID":70655},"geometry":{"x":171918.48000000138,"y":2544952.3300000019}},{"attributes":{"ID":70656,"DIS_CODE":0,"TOWNNAME":"白河區","LI":"秀祐里","LIN":"6鄰","STREET":" ","SECT":" ","MAREA":"下秀祐","LANE":" ","ALLEY":" ","HOUSE_NO":"１１之２號","E_COORD97":188673.14000000001,"N_COORD97":2582982.3100000001,"ADDRESS":"下秀祐１１之２號","OBJECTID":70656},"geometry":{"x":188673.1400000006,"y":2582982.3100000024}},{"attributes":{"ID":70657,"DIS_CODE":0,"TOWNNAME":"白河區","LI":"秀祐里","LIN":"6鄰","STREET":" ","SECT":" ","MAREA":"下秀祐","LANE":" ","ALLEY":" ","HOUSE_NO":"１１之５號","E_COORD97":188643.85000000001,"N_COORD97":2582974.8799999999,"ADDRESS":"下秀祐１１之５號","OBJECTID":70657},"geometry":{"x":188643.84999999963,"y":2582974.879999999}},{"attributes":{"ID":70658,"DIS_CODE":0,"TOWNNAME":"白河區","LI":"秀祐里","LIN":"6鄰","STREET":" ","SECT":" ","MAREA":"下秀祐","LANE":" ","ALLEY":" ","HOUSE_NO":"１２之４號","E_COORD97":188605.20000000001,"N_COORD97":2582928.27,"ADDRESS":"下秀祐１２之４號","OBJECTID":70658},"geometry":{"x":188605.19999999925,"y":2582928.2699999996}},{"attributes":{"ID":70659,"DIS_CODE":0,"TOWNNAME":"白河區","LI":"秀祐里","LIN":"6鄰","STREET":" ","SECT":" ","MAREA":"下秀祐","LANE":" ","ALLEY":" ","HOUSE_NO":"１２之５號","E_COORD97":188609.48999999999,"N_COORD97":2582929.0600000001,"ADDRESS":"下秀祐１２之５號","OBJECTID":70659},"geometry":{"x":188609.49000000022,"y":2582929.0600000042}},{"attributes":{"ID":70660,"DIS_CODE":0,"TOWNNAME":"白河區","LI":"秀祐里","LIN":"6鄰","STREET":" ","SECT":" ","MAREA":"下秀祐","LANE":" ","ALLEY":" ","HOUSE_NO":"１３之２號","E_COORD97":188552.62,"N_COORD97":2582891.1200000001,"ADDRESS":"下秀祐１３之２號","OBJECTID":70660},"geometry":{"x":188552.62000000011,"y":2582891.120000001}},{"attributes":{"ID":70661,"DIS_CODE":0,"TOWNNAME":"白河區","LI":"秀祐里","LIN":"6鄰","STREET":" ","SECT":" ","MAREA":"下秀祐","LANE":" ","ALLEY":" ","HOUSE_NO":"１３之３號","E_COORD97":188555.75,"N_COORD97":2582916.9500000002,"ADDRESS":"下秀祐１３之３號","OBJECTID":70661},"geometry":{"x":188555.75000000093,"y":2582916.9499999993}},{"attributes":{"ID":70662,"DIS_CODE":0,"TOWNNAME":"白河區","LI":"秀祐里","LIN":"6鄰","STREET":" ","SECT":" ","MAREA":"下秀祐","LANE":" ","ALLEY":" ","HOUSE_NO":"１３之４號","E_COORD97":188540.75,"N_COORD97":2582940.4199999999,"ADDRESS":"下秀祐１３之４號","OBJECTID":70662},"geometry":{"x":188540.75000000093,"y":2582940.4200000018}},{"attributes":{"ID":70663,"DIS_CODE":0,"TOWNNAME":"白河區","LI":"秀祐里","LIN":"6鄰","STREET":" ","SECT":" ","MAREA":"下秀祐","LANE":" ","ALLEY":" ","HOUSE_NO":"１３號","E_COORD97":188564.48000000001,"N_COORD97":2582946.9700000002,"ADDRESS":"下秀祐１３號","OBJECTID":70663},"geometry":{"x":188564.48000000045,"y":2582946.9700000044}},{"attributes":{"ID":70664,"DIS_CODE":0,"TOWNNAME":"白河區","LI":"秀祐里","LIN":"6鄰","STREET":" ","SECT":" ","MAREA":"下秀祐","LANE":" ","ALLEY":" ","HOUSE_NO":"１４號","E_COORD97":188563.79999999999,"N_COORD97":2582876.21,"ADDRESS":"下秀祐１４號","OBJECTID":70664},"geometry":{"x":188563.80000000075,"y":2582876.2100000009}},{"attributes":{"ID":70665,"DIS_CODE":0,"TOWNNAME":"白河區","LI":"秀祐里","LIN":"6鄰","STREET":" ","SECT":" ","MAREA":"下秀祐","LANE":" ","ALLEY":" ","HOUSE_NO":"１５之１號","E_COORD97":188552.42999999999,"N_COORD97":2582826.52,"ADDRESS":"下秀祐１５之１號","OBJECTID":70665},"geometry":{"x":188552.43000000156,"y":2582826.5200000033}},{"attributes":{"ID":70666,"DIS_CODE":0,"TOWNNAME":"白河區","LI":"秀祐里","LIN":"6鄰","STREET":" ","SECT":" ","MAREA":"下秀祐","LANE":" ","ALLEY":" ","HOUSE_NO":"１５號","E_COORD97":188566.16,"N_COORD97":2582824.3799999999,"ADDRESS":"下秀祐１５號","OBJECTID":70666},"geometry":{"x":188566.16000000015,"y":2582824.3800000008}},{"attributes":{"ID":70667,"DIS_CODE":0,"TOWNNAME":"白河區","LI":"秀祐里","LIN":"6鄰","STREET":" ","SECT":" ","MAREA":"下秀祐","LANE":" ","ALLEY":" ","HOUSE_NO":"１６之１號","E_COORD97":188602.67000000001,"N_COORD97":2582817.48,"ADDRESS":"下秀祐１６之１號","OBJECTID":70667},"geometry":{"x":188602.66999999993,"y":2582817.4800000042}},{"attributes":{"ID":70668,"DIS_CODE":0,"TOWNNAME":"白河區","LI":"秀祐里","LIN":"6鄰","STREET":" ","SECT":" ","MAREA":"下秀祐","LANE":" ","ALLEY":" ","HOUSE_NO":"１６號","E_COORD97":188582.81,"N_COORD97":2582853.73,"ADDRESS":"下秀祐１６號","OBJECTID":70668},"geometry":{"x":188582.80999999959,"y":2582853.7300000023}},{"attributes":{"ID":70669,"DIS_CODE":0,"TOWNNAME":"白河區","LI":"秀祐里","LIN":"6鄰","STREET":" ","SECT":" ","MAREA":"下秀祐","LANE":" ","ALLEY":" ","HOUSE_NO":"１７之１號","E_COORD97":188584.69,"N_COORD97":2582804.52,"ADDRESS":"下秀祐１７之１號","OBJECTID":70669},"geometry":{"x":188584.69000000041,"y":2582804.5199999996}},{"attributes":{"ID":70670,"DIS_CODE":0,"TOWNNAME":"白河區","LI":"秀祐里","LIN":"6鄰","STREET":" ","SECT":" ","MAREA":"下秀祐","LANE":" ","ALLEY":" ","HOUSE_NO":"１７號","E_COORD97":188574.48000000001,"N_COORD97":2582815.3700000001,"ADDRESS":"下秀祐１７號","OBJECTID":70670},"geometry":{"x":188574.48000000045,"y":2582815.3699999992}},{"attributes":{"ID":70671,"DIS_CODE":0,"TOWNNAME":"白河區","LI":"秀祐里","LIN":"6鄰","STREET":" ","SECT":" ","MAREA":"下秀祐","LANE":" ","ALLEY":" ","HOUSE_NO":"１８之１號","E_COORD97":188586.78,"N_COORD97":2582786.5499999998,"ADDRESS":"下秀祐１８之１號","OBJECTID":70671},"geometry":{"x":188586.78000000119,"y":2582786.5500000007}},{"attributes":{"ID":70672,"DIS_CODE":0,"TOWNNAME":"白河區","LI":"秀祐里","LIN":"6鄰","STREET":" ","SECT":" ","MAREA":"下秀祐","LANE":" ","ALLEY":" ","HOUSE_NO":"１８之２號","E_COORD97":188579.48000000001,"N_COORD97":2582780.8300000001,"ADDRESS":"下秀祐１８之２號","OBJECTID":70672},"geometry":{"x":188579.48000000045,"y":2582780.8300000038}},{"attributes":{"ID":70673,"DIS_CODE":0,"TOWNNAME":"白河區","LI":"秀祐里","LIN":"6鄰","STREET":" ","SECT":" ","MAREA":"下秀祐","LANE":" ","ALLEY":" ","HOUSE_NO":"１８號","E_COORD97":188594.95999999999,"N_COORD97":2582792.23,"ADDRESS":"下秀祐１８號","OBJECTID":70673},"geometry":{"x":188594.96000000089,"y":2582792.2300000042}},{"attributes":{"ID":70674,"DIS_CODE":0,"TOWNNAME":"白河區","LI":"秀祐里","LIN":"6鄰","STREET":" ","SECT":" ","MAREA":"下秀祐","LANE":" ","ALLEY":" ","HOUSE_NO":"２０之１號","E_COORD97":188536.47,"N_COORD97":2582775.96,"ADDRESS":"下秀祐２０之１號","OBJECTID":70674},"geometry":{"x":188536.46999999974,"y":2582775.9600000009}},{"attributes":{"ID":70675,"DIS_CODE":0,"TOWNNAME":"白河區","LI":"庄內里","LIN":"7鄰","STREET":"中山路","SECT":" ","MAREA":" ","LANE":" ","ALLEY":" ","HOUSE_NO":"４６１號","E_COORD97":190800.07000000001,"N_COORD97":2584023.1000000001,"ADDRESS":"中山路４６１號","OBJECTID":70675},"geometry":{"x":190800.07000000123,"y":2584023.1000000034}},{"attributes":{"ID":70676,"DIS_CODE":0,"TOWNNAME":"白河區","LI":"庄內里","LIN":"7鄰","STREET":"中山路","SECT":" ","MAREA":" ","LANE":" ","ALLEY":" ","HOUSE_NO":"４７２號","E_COORD97":190882.19,"N_COORD97":2584072.6899999999,"ADDRESS":"中山路４７２號","OBJECTID":70676},"geometry":{"x":190882.19000000227,"y":2584072.6899999976}},{"attributes":{"ID":70677,"DIS_CODE":0,"TOWNNAME":"白河區","LI":"庄內里","LIN":"7鄰","STREET":"中山路","SECT":" ","MAREA":" ","LANE":" ","ALLEY":" ","HOUSE_NO":"４８６號","E_COORD97":190897.57999999999,"N_COORD97":2584099.9100000001,"ADDRESS":"中山路４８６號","OBJECTID":70677},"geometry":{"x":190897.58000000007,"y":2584099.910000002}},{"attributes":{"ID":70678,"DIS_CODE":0,"TOWNNAME":"白河區","LI":"庄內里","LIN":"7鄰","STREET":"中山路","SECT":" ","MAREA":" ","LANE":" ","ALLEY":" ","HOUSE_NO":"４９１號","E_COORD97":190796.73999999999,"N_COORD97":2584071.8599999999,"ADDRESS":"中山路４９１號","OBJECTID":70678},"geometry":{"x":190796.74000000022,"y":2584071.8600000031}},{"attributes":{"ID":70679,"DIS_CODE":0,"TOWNNAME":"永康區","LI":"西灣里","LIN":"33鄰","STREET":"公園路","SECT":" ","MAREA":" ","LANE":"１１７巷","ALLEY":"２弄","HOUSE_NO":"２號","E_COORD97":174168.67999999999,"N_COORD97":2545908.75,"ADDRESS":"公園路１１７巷２弄２號","OBJECTID":70679},"geometry":{"x":174168.68000000156,"y":2545908.7500000019}},{"attributes":{"ID":70680,"DIS_CODE":0,"TOWNNAME":"永康區","LI":"龍潭里","LIN":"33鄰","STREET":"龍國街","SECT":" ","MAREA":" ","LANE":"２４０巷","ALLEY":"１弄","HOUSE_NO":"３號","E_COORD97":174492.66,"N_COORD97":2548007.8900000001,"ADDRESS":"龍國街２４０巷１弄３號","OBJECTID":70680},"geometry":{"x":174492.66000000015,"y":2548007.8900000006}},{"attributes":{"ID":70681,"DIS_CODE":0,"TOWNNAME":"仁德區","LI":"後壁里","LIN":"33鄰","STREET":"德洋二街","SECT":" ","MAREA":" ","LANE":"３９巷","ALLEY":"７弄","HOUSE_NO":"１１號","E_COORD97":172363.54000000001,"N_COORD97":2539394.77,"ADDRESS":"德洋二街３９巷７弄１１號","OBJECTID":70681},"geometry":{"x":172363.54000000097,"y":2539394.7700000014}},{"attributes":{"ID":70682,"DIS_CODE":0,"TOWNNAME":"仁德區","LI":"後壁里","LIN":"33鄰","STREET":"德洋二街","SECT":" ","MAREA":" ","LANE":"３９巷","ALLEY":"６３弄","HOUSE_NO":"５號","E_COORD97":172227.32999999999,"N_COORD97":2539402.6699999999,"ADDRESS":"德洋二街３９巷６３弄５號","OBJECTID":70682},"geometry":{"x":172227.33000000101,"y":2539402.6700000018}},{"attributes":{"ID":70683,"DIS_CODE":0,"TOWNNAME":"仁德區","LI":"後壁里","LIN":"33鄰","STREET":"德洋二街","SECT":" ","MAREA":" ","LANE":"３９巷","ALLEY":"７弄","HOUSE_NO":"１３號","E_COORD97":172363.09,"N_COORD97":2539390.27,"ADDRESS":"德洋二街３９巷７弄１３號","OBJECTID":70683},"geometry":{"x":172363.09000000078,"y":2539390.2699999996}},{"attributes":{"ID":70684,"DIS_CODE":0,"TOWNNAME":"仁德區","LI":"後壁里","LIN":"33鄰","STREET":"德洋二街","SECT":" ","MAREA":" ","LANE":"３９巷","ALLEY":"７弄","HOUSE_NO":"１０號","E_COORD97":172354.01999999999,"N_COORD97":2539400.27,"ADDRESS":"德洋二街３９巷７弄１０號","OBJECTID":70684},"geometry":{"x":172354.02000000142,"y":2539400.2699999996}},{"attributes":{"ID":70685,"DIS_CODE":0,"TOWNNAME":"仁德區","LI":"後壁里","LIN":"33鄰","STREET":"德洋二街","SECT":" ","MAREA":" ","LANE":"３９巷","ALLEY":"７弄","HOUSE_NO":"２之１號","E_COORD97":172354.60000000001,"N_COORD97":2539412.73,"ADDRESS":"德洋二街３９巷７弄２之１號","OBJECTID":70685},"geometry":{"x":172354.59999999963,"y":2539412.7300000023}},{"attributes":{"ID":70686,"DIS_CODE":0,"TOWNNAME":"仁德區","LI":"後壁里","LIN":"33鄰","STREET":"德洋二街","SECT":" ","MAREA":" ","LANE":"３９巷","ALLEY":"７弄","HOUSE_NO":"９號","E_COORD97":172362.95999999999,"N_COORD97":2539398.77,"ADDRESS":"德洋二街３９巷７弄９號","OBJECTID":70686},"geometry":{"x":172362.95999999996,"y":2539398.7700000014}},{"attributes":{"ID":70687,"DIS_CODE":0,"TOWNNAME":"仁德區","LI":"後壁里","LIN":"33鄰","STREET":"德洋二街","SECT":" ","MAREA":" ","LANE":"３９巷","ALLEY":"７弄","HOUSE_NO":"７號","E_COORD97":172363.45999999999,"N_COORD97":2539402.77,"ADDRESS":"德洋二街３９巷７弄７號","OBJECTID":70687},"geometry":{"x":172363.46000000183,"y":2539402.7699999996}},{"attributes":{"ID":70688,"DIS_CODE":0,"TOWNNAME":"仁德區","LI":"後壁里","LIN":"33鄰","STREET":"德洋二街","SECT":" ","MAREA":" ","LANE":"３９巷","ALLEY":"７弄","HOUSE_NO":"３號","E_COORD97":172364.29999999999,"N_COORD97":2539411.77,"ADDRESS":"德洋二街３９巷７弄３號","OBJECTID":70688},"geometry":{"x":172364.30000000168,"y":2539411.7700000014}},{"attributes":{"ID":70689,"DIS_CODE":0,"TOWNNAME":"仁德區","LI":"後壁里","LIN":"33鄰","STREET":"德洋二街","SECT":" ","MAREA":" ","LANE":"３９巷","ALLEY":"７弄","HOUSE_NO":"１２之１號","E_COORD97":172349.04000000001,"N_COORD97":2539390.9900000002,"ADDRESS":"德洋二街３９巷７弄１２之１號","OBJECTID":70689},"geometry":{"x":172349.04000000004,"y":2539390.9900000021}},{"attributes":{"ID":70690,"DIS_CODE":0,"TOWNNAME":"仁德區","LI":"後壁里","LIN":"33鄰","STREET":"德洋二街","SECT":" ","MAREA":" ","LANE":"３９巷","ALLEY":"６３弄","HOUSE_NO":"７號","E_COORD97":172226.94,"N_COORD97":2539398.6699999999,"ADDRESS":"德洋二街３９巷６３弄７號","OBJECTID":70690},"geometry":{"x":172226.94000000134,"y":2539398.6700000037}},{"attributes":{"ID":70691,"DIS_CODE":0,"TOWNNAME":"仁德區","LI":"後壁里","LIN":"33鄰","STREET":"德洋二街","SECT":" ","MAREA":" ","LANE":"３９巷","ALLEY":"７弄","HOUSE_NO":"１５號","E_COORD97":172362.39000000001,"N_COORD97":2539385.77,"ADDRESS":"德洋二街３９巷７弄１５號","OBJECTID":70691},"geometry":{"x":172362.3900000006,"y":2539385.7699999996}},{"attributes":{"ID":70692,"DIS_CODE":0,"TOWNNAME":"仁德區","LI":"後壁里","LIN":"33鄰","STREET":"德洋二街","SECT":" ","MAREA":" ","LANE":"３９巷","ALLEY":"７弄","HOUSE_NO":"１７號","E_COORD97":172361.85000000001,"N_COORD97":2539381.52,"ADDRESS":"德洋二街３９巷７弄１７號","OBJECTID":70692},"geometry":{"x":172361.84999999963,"y":2539381.5199999996}},{"attributes":{"ID":70693,"DIS_CODE":0,"TOWNNAME":"永康區","LI":"成功里","LIN":"33鄰","STREET":"忠孝路","SECT":" ","MAREA":" ","LANE":"２０７巷","ALLEY":"３２弄","HOUSE_NO":"４號","E_COORD97":171922.20999999999,"N_COORD97":2544936.4500000002,"ADDRESS":"忠孝路２０７巷３２弄４號","OBJECTID":70693},"geometry":{"x":171922.20999999996,"y":2544936.4500000011}},{"attributes":{"ID":70694,"DIS_CODE":0,"TOWNNAME":"永康區","LI":"龍潭里","LIN":"33鄰","STREET":"龍國街","SECT":" ","MAREA":" ","LANE":"２４０巷","ALLEY":"１弄","HOUSE_NO":"１３號","E_COORD97":174516.39999999999,"N_COORD97":2548004.2000000002,"ADDRESS":"龍國街２４０巷１弄１３號","OBJECTID":70694},"geometry":{"x":174516.40000000037,"y":2548004.1999999993}},{"attributes":{"ID":70695,"DIS_CODE":0,"TOWNNAME":"永康區","LI":"南灣里","LIN":"33鄰","STREET":"南灣街","SECT":" ","MAREA":" ","LANE":"８７巷","ALLEY":"２弄","HOUSE_NO":"８號","E_COORD97":174353.87,"N_COORD97":2544914.0299999998,"ADDRESS":"南灣街８７巷２弄８號","OBJECTID":70695},"geometry":{"x":174353.87000000011,"y":2544914.0299999993}},{"attributes":{"ID":70696,"DIS_CODE":0,"TOWNNAME":"永康區","LI":"西灣里","LIN":"33鄰","STREET":"公園路","SECT":" ","MAREA":" ","LANE":"１１７巷","ALLEY":"２弄","HOUSE_NO":"２１號","E_COORD97":174132.03,"N_COORD97":2545883.79,"ADDRESS":"公園路１１７巷２弄２１號","OBJECTID":70696},"geometry":{"x":174132.03000000119,"y":2545883.790000001}},{"attributes":{"ID":70697,"DIS_CODE":0,"TOWNNAME":"永康區","LI":"南灣里","LIN":"33鄰","STREET":"南灣街","SECT":" ","MAREA":" ","LANE":"８７巷","ALLEY":"２弄","HOUSE_NO":"１３號","E_COORD97":174347.70999999999,"N_COORD97":2544892.4399999999,"ADDRESS":"南灣街８７巷２弄１３號","OBJECTID":70697},"geometry":{"x":174347.70999999996,"y":2544892.4400000013}},{"attributes":{"ID":70698,"DIS_CODE":0,"TOWNNAME":"永康區","LI":"南灣里","LIN":"33鄰","STREET":"南灣街","SECT":" ","MAREA":" ","LANE":"８７巷","ALLEY":"２弄","HOUSE_NO":"１１號","E_COORD97":174350.03,"N_COORD97":2544901.29,"ADDRESS":"南灣街８７巷２弄１１號","OBJECTID":70698},"geometry":{"x":174350.03000000212,"y":2544901.2899999991}},{"attributes":{"ID":70699,"DIS_CODE":0,"TOWNNAME":"永康區","LI":"南灣里","LIN":"33鄰","STREET":"南灣街","SECT":" ","MAREA":" ","LANE":"８７巷","ALLEY":"２弄","HOUSE_NO":"６號","E_COORD97":174356.26000000001,"N_COORD97":2544922.0299999998,"ADDRESS":"南灣街８７巷２弄６號","OBJECTID":70699},"geometry":{"x":174356.25999999885,"y":2544922.0300000031}},{"attributes":{"ID":70700,"DIS_CODE":0,"TOWNNAME":"永康區","LI":"西灣里","LIN":"33鄰","STREET":"公園路","SECT":" ","MAREA":" ","LANE":"１１７巷","ALLEY":"２弄","HOUSE_NO":"１１號","E_COORD97":174152.17999999999,"N_COORD97":2545888.7999999998,"ADDRESS":"公園路１１７巷２弄１１號","OBJECTID":70700},"geometry":{"x":174152.18000000063,"y":2545888.8000000026}},{"attributes":{"ID":70701,"DIS_CODE":0,"TOWNNAME":"永康區","LI":"西灣里","LIN":"33鄰","STREET":"公園路","SECT":" ","MAREA":" ","LANE":"１１７巷","ALLEY":"２弄","HOUSE_NO":"２５號","E_COORD97":174121.95999999999,"N_COORD97":2545882.4100000001,"ADDRESS":"公園路１１７巷２弄２５號","OBJECTID":70701},"geometry":{"x":174121.96000000089,"y":2545882.4100000001}},{"attributes":{"ID":70702,"DIS_CODE":0,"TOWNNAME":"永康區","LI":"北灣里","LIN":"33鄰","STREET":"大灣路","SECT":" ","MAREA":" ","LANE":"３７巷","ALLEY":"６弄","HOUSE_NO":"３號","E_COORD97":175344.87,"N_COORD97":2545853.6099999999,"ADDRESS":"大灣路３７巷６弄３號","OBJECTID":70702},"geometry":{"x":175344.87000000104,"y":2545853.6100000031}},{"attributes":{"ID":70703,"DIS_CODE":0,"TOWNNAME":"北區","LI":"玉皇里","LIN":"14鄰","STREET":"成功路","SECT":" ","MAREA":" ","LANE":" ","ALLEY":" ","HOUSE_NO":"１１４號","E_COORD97":168539.87,"N_COORD97":2544372.5,"ADDRESS":"成功路１１４號","OBJECTID":70703},"geometry":{"x":168539.87000000197,"y":2544372.5}},{"attributes":{"ID":70704,"DIS_CODE":0,"TOWNNAME":"仁德區","LI":"仁義里","LIN":"44鄰","STREET":"中正路","SECT":"二段","MAREA":" ","LANE":" ","ALLEY":" ","HOUSE_NO":"１０３８號","E_COORD97":173399.51999999999,"N_COORD97":2540897.52,"ADDRESS":"中正路二段１０３８號","OBJECTID":70704},"geometry":{"x":173399.51999999955,"y":2540897.5199999977}},{"attributes":{"ID":70705,"DIS_CODE":0,"TOWNNAME":"東區","LI":"崇德里","LIN":"10鄰","STREET":"崇德九街","SECT":" ","MAREA":" ","LANE":" ","ALLEY":" ","HOUSE_NO":"４１號","E_COORD97":170884.81,"N_COORD97":2541579.7599999998,"ADDRESS":"崇德九街４１號","OBJECTID":70705},"geometry":{"x":170884.81000000052,"y":2541579.7599999998}},{"attributes":{"ID":70706,"DIS_CODE":0,"TOWNNAME":"仁德區","LI":"仁義里","LIN":" ","STREET":"仁義一街","SECT":" ","MAREA":" ","LANE":" ","ALLEY":" ","HOUSE_NO":"１０８號","E_COORD97":173541.20000000001,"N_COORD97":2541164.52,"ADDRESS":"仁義一街１０８號","OBJECTID":70706},"geometry":{"x":173541.20000000019,"y":2541164.5199999996}},{"attributes":{"ID":70707,"DIS_CODE":0,"TOWNNAME":"仁德區","LI":"仁義里","LIN":" ","STREET":"正義二街","SECT":" ","MAREA":" ","LANE":" ","ALLEY":" ","HOUSE_NO":"９０之４號","E_COORD97":173679.56,"N_COORD97":2541570.0499999998,"ADDRESS":"正義二街９０之４號","OBJECTID":70707},"geometry":{"x":173679.56000000145,"y":2541570.0500000045}},{"attributes":{"ID":70708,"DIS_CODE":0,"TOWNNAME":"仁德區","LI":"後壁里","LIN":"1鄰","STREET":"民安路","SECT":"二段","MAREA":" ","LANE":" ","ALLEY":" ","HOUSE_NO":"１２之１號","E_COORD97":173345.92000000001,"N_COORD97":2539249.0600000001,"ADDRESS":"民安路二段１２之１號","OBJECTID":70708},"geometry":{"x":173345.92000000086,"y":2539249.0600000005}},{"attributes":{"ID":70709,"DIS_CODE":0,"TOWNNAME":"仁德區","LI":"仁愛里","LIN":" ","STREET":"大同路","SECT":"二段","MAREA":" ","LANE":" ","ALLEY":" ","HOUSE_NO":"８２０之２號","E_COORD97":169687.17000000001,"N_COORD97":2540152.79,"ADDRESS":"大同路二段８２０之２號","OBJECTID":70709},"geometry":{"x":169687.17000000086,"y":2540152.7900000028}},{"attributes":{"ID":70710,"DIS_CODE":0,"TOWNNAME":"白河區","LI":"秀祐里","LIN":"6鄰","STREET":" ","SECT":" ","MAREA":"下秀祐","LANE":" ","ALLEY":" ","HOUSE_NO":"２０號","E_COORD97":188535.23000000001,"N_COORD97":2582800.8100000001,"ADDRESS":"下秀祐２０號","OBJECTID":70710},"geometry":{"x":188535.23000000045,"y":2582800.8100000005}},{"attributes":{"ID":70711,"DIS_CODE":0,"TOWNNAME":"永康區","LI":"北灣里","LIN":"33鄰","STREET":"大灣路","SECT":" ","MAREA":" ","LANE":"３７巷","ALLEY":"６弄","HOUSE_NO":"２８號","E_COORD97":175345.67999999999,"N_COORD97":2545774.2400000002,"ADDRESS":"大灣路３７巷６弄２８號","OBJECTID":70711},"geometry":{"x":175345.68000000063,"y":2545774.2400000002}},{"attributes":{"ID":70712,"DIS_CODE":0,"TOWNNAME":"永康區","LI":"北灣里","LIN":"33鄰","STREET":"大灣路","SECT":" ","MAREA":" ","LANE":"３７巷","ALLEY":"６弄","HOUSE_NO":"６號","E_COORD97":175337.07999999999,"N_COORD97":2545842.7400000002,"ADDRESS":"大灣路３７巷６弄６號","OBJECTID":70712},"geometry":{"x":175337.08000000007,"y":2545842.7400000002}},{"attributes":{"ID":70713,"DIS_CODE":0,"TOWNNAME":"永康區","LI":"北灣里","LIN":"33鄰","STREET":"大灣路","SECT":" ","MAREA":" ","LANE":"３７巷","ALLEY":"６弄","HOUSE_NO":"７號","E_COORD97":175346.17000000001,"N_COORD97":2545840.6099999999,"ADDRESS":"大灣路３７巷６弄７號","OBJECTID":70713},"geometry":{"x":175346.17000000086,"y":2545840.6100000013}},{"attributes":{"ID":70714,"DIS_CODE":0,"TOWNNAME":"永康區","LI":"北灣里","LIN":"33鄰","STREET":"大灣路","SECT":" ","MAREA":" ","LANE":"３７巷","ALLEY":"６弄","HOUSE_NO":"１３號","E_COORD97":175349.45999999999,"N_COORD97":2545821.8700000001,"ADDRESS":"大灣路３７巷６弄１３號","OBJECTID":70714},"geometry":{"x":175349.45999999996,"y":2545821.870000001}},{"attributes":{"ID":70715,"DIS_CODE":0,"TOWNNAME":"永康區","LI":"北灣里","LIN":"33鄰","STREET":"大灣路","SECT":" ","MAREA":" ","LANE":"３７巷","ALLEY":"６弄","HOUSE_NO":"１４號","E_COORD97":175339.92999999999,"N_COORD97":2545819.25,"ADDRESS":"大灣路３７巷６弄１４號","OBJECTID":70715},"geometry":{"x":175339.92999999877,"y":2545819.2499999981}},{"attributes":{"ID":70716,"DIS_CODE":0,"TOWNNAME":"永康區","LI":"北灣里","LIN":"33鄰","STREET":"大灣路","SECT":" ","MAREA":" ","LANE":"３７巷","ALLEY":"６弄","HOUSE_NO":"２４號","E_COORD97":175344.82999999999,"N_COORD97":2545787.25,"ADDRESS":"大灣路３７巷６弄２４號","OBJECTID":70716},"geometry":{"x":175344.83000000101,"y":2545787.25}},{"attributes":{"ID":70717,"DIS_CODE":0,"TOWNNAME":"永康區","LI":"北灣里","LIN":"33鄰","STREET":"大灣路","SECT":" ","MAREA":" ","LANE":"３７巷","ALLEY":"６弄","HOUSE_NO":"２０號","E_COORD97":175341.42999999999,"N_COORD97":2545800,"ADDRESS":"大灣路３７巷６弄２０號","OBJECTID":70717},"geometry":{"x":175341.4299999997,"y":2545800}},{"attributes":{"ID":70718,"DIS_CODE":0,"TOWNNAME":"後壁區","LI":"福安里","LIN":"7鄰","STREET":" ","SECT":" ","MAREA":"下寮","LANE":" ","ALLEY":" ","HOUSE_NO":"６５號之１","E_COORD97":184290.62,"N_COORD97":2580926.5099999998,"ADDRESS":"下寮６５號之１","OBJECTID":70718},"geometry":{"x":184290.62000000104,"y":2580926.5100000016}},{"attributes":{"ID":70719,"DIS_CODE":0,"TOWNNAME":"後壁區","LI":"福安里","LIN":"7鄰","STREET":" ","SECT":" ","MAREA":"下寮","LANE":" ","ALLEY":" ","HOUSE_NO":"６５號","E_COORD97":184299.07999999999,"N_COORD97":2580918.6499999999,"ADDRESS":"下寮６５號","OBJECTID":70719},"geometry":{"x":184299.08000000101,"y":2580918.6500000022}},{"attributes":{"ID":70720,"DIS_CODE":0,"TOWNNAME":"佳里區","LI":"安西里","LIN":"33鄰","STREET":"光華街","SECT":" ","MAREA":" ","LANE":"１５７巷","ALLEY":"１７弄","HOUSE_NO":"１１號","E_COORD97":165039.63,"N_COORD97":2562753.2200000002,"ADDRESS":"光華街１５７巷１７弄１１號","OBJECTID":70720},"geometry":{"x":165039.63000000082,"y":2562753.2200000025}},{"attributes":{"ID":70721,"DIS_CODE":0,"TOWNNAME":"佳里區","LI":"安西里","LIN":"33鄰","STREET":"光華街","SECT":" ","MAREA":" ","LANE":"１５７巷","ALLEY":"１７弄","HOUSE_NO":"１３號","E_COORD97":165043.28,"N_COORD97":2562754.2400000002,"ADDRESS":"光華街１５７巷１７弄１３號","OBJECTID":70721},"geometry":{"x":165043.27999999933,"y":2562754.2400000002}},{"attributes":{"ID":70722,"DIS_CODE":0,"TOWNNAME":"佳里區","LI":"安西里","LIN":"33鄰","STREET":"光華街","SECT":" ","MAREA":" ","LANE":"１５７巷","ALLEY":"１７弄","HOUSE_NO":"１５號","E_COORD97":165047.32000000001,"N_COORD97":2562754.8700000001,"ADDRESS":"光華街１５７巷１７弄１５號","OBJECTID":70722},"geometry":{"x":165047.32000000123,"y":2562754.8700000048}},{"attributes":{"ID":70723,"DIS_CODE":0,"TOWNNAME":"佳里區","LI":"安西里","LIN":"33鄰","STREET":"光華街","SECT":" ","MAREA":" ","LANE":"１５７巷","ALLEY":"１７弄","HOUSE_NO":"１７號","E_COORD97":165050.98999999999,"N_COORD97":2562755.3399999999,"ADDRESS":"光華街１５７巷１７弄１７號","OBJECTID":70723},"geometry":{"x":165050.99000000115,"y":2562755.3399999999}},{"attributes":{"ID":70724,"DIS_CODE":0,"TOWNNAME":"佳里區","LI":"安西里","LIN":"33鄰","STREET":"光華街","SECT":" ","MAREA":" ","LANE":"１５７巷","ALLEY":"１７弄","HOUSE_NO":"１９號","E_COORD97":165054.60000000001,"N_COORD97":2562756.0800000001,"ADDRESS":"光華街１５７巷１７弄１９號","OBJECTID":70724},"geometry":{"x":165054.60000000056,"y":2562756.0800000019}},{"attributes":{"ID":70725,"DIS_CODE":0,"TOWNNAME":"佳里區","LI":"安西里","LIN":"33鄰","STREET":"光華街","SECT":" ","MAREA":" ","LANE":"１５７巷","ALLEY":"１７弄","HOUSE_NO":"１號","E_COORD97":165020.62,"N_COORD97":2562749.6200000001,"ADDRESS":"光華街１５７巷１７弄１號","OBJECTID":70725},"geometry":{"x":165020.62000000197,"y":2562749.6200000048}},{"attributes":{"ID":70726,"DIS_CODE":0,"TOWNNAME":"佳里區","LI":"安西里","LIN":"33鄰","STREET":"光華街","SECT":" ","MAREA":" ","LANE":"１５７巷","ALLEY":"１７弄","HOUSE_NO":"２１號","E_COORD97":165058.45000000001,"N_COORD97":2562756.77,"ADDRESS":"光華街１５７巷１７弄２１號","OBJECTID":70726},"geometry":{"x":165058.45000000019,"y":2562756.7699999996}},{"attributes":{"ID":70727,"DIS_CODE":0,"TOWNNAME":"佳里區","LI":"安西里","LIN":"33鄰","STREET":"光華街","SECT":" ","MAREA":" ","LANE":"１５７巷","ALLEY":"１７弄","HOUSE_NO":"２３號","E_COORD97":165062.29999999999,"N_COORD97":2562757.8700000001,"ADDRESS":"光華街１５７巷１７弄２３號","OBJECTID":70727},"geometry":{"x":165062.29999999981,"y":2562757.8699999992}},{"attributes":{"ID":70728,"DIS_CODE":0,"TOWNNAME":"佳里區","LI":"安西里","LIN":"33鄰","STREET":"光華街","SECT":" ","MAREA":" ","LANE":"１５７巷","ALLEY":"１７弄","HOUSE_NO":"２５號","E_COORD97":165066.23999999999,"N_COORD97":2562758.6400000001,"ADDRESS":"光華街１５７巷１７弄２５號","OBJECTID":70728},"geometry":{"x":165066.24000000115,"y":2562758.6400000006}},{"attributes":{"ID":70729,"DIS_CODE":0,"TOWNNAME":"佳里區","LI":"安西里","LIN":"33鄰","STREET":"光華街","SECT":" ","MAREA":" ","LANE":"１５７巷","ALLEY":"１７弄","HOUSE_NO":"３號","E_COORD97":165024.45000000001,"N_COORD97":2562750.5699999998,"ADDRESS":"光華街１５７巷１７弄３號","OBJECTID":70729},"geometry":{"x":165024.45000000019,"y":2562750.5700000022}},{"attributes":{"ID":70730,"DIS_CODE":0,"TOWNNAME":"佳里區","LI":"安西里","LIN":"33鄰","STREET":"光華街","SECT":" ","MAREA":" ","LANE":"１５７巷","ALLEY":"１７弄","HOUSE_NO":"５號","E_COORD97":165028.26999999999,"N_COORD97":2562751.2400000002,"ADDRESS":"光華街１５７巷１７弄５號","OBJECTID":70730},"geometry":{"x":165028.27000000048,"y":2562751.2400000039}},{"attributes":{"ID":70731,"DIS_CODE":0,"TOWNNAME":"佳里區","LI":"安西里","LIN":"33鄰","STREET":"光華街","SECT":" ","MAREA":" ","LANE":"１５７巷","ALLEY":"１７弄","HOUSE_NO":"７號","E_COORD97":165032.07999999999,"N_COORD97":2562752.0099999998,"ADDRESS":"光華街１５７巷１７弄７號","OBJECTID":70731},"geometry":{"x":165032.08000000007,"y":2562752.0099999998}},{"attributes":{"ID":70732,"DIS_CODE":0,"TOWNNAME":"佳里區","LI":"安西里","LIN":"33鄰","STREET":"光華街","SECT":" ","MAREA":" ","LANE":"１５７巷","ALLEY":"１７弄","HOUSE_NO":"９號","E_COORD97":165035.84,"N_COORD97":2562752.5499999998,"ADDRESS":"光華街１５７巷１７弄９號","OBJECTID":70732},"geometry":{"x":165035.84000000171,"y":2562752.5500000007}},{"attributes":{"ID":70733,"DIS_CODE":0,"TOWNNAME":"中西區","LI":"西湖里","LIN":"33鄰","STREET":"中華西路","SECT":"二段","MAREA":" ","LANE":"８５１巷","ALLEY":"１１７弄","HOUSE_NO":"３２號","E_COORD97":166322.64000000001,"N_COORD97":2544987.0600000001,"ADDRESS":"中華西路二段８５１巷１１７弄３２號","OBJECTID":70733},"geometry":{"x":166322.6400000006,"y":2544987.0599999987}},{"attributes":{"ID":70734,"DIS_CODE":0,"TOWNNAME":"六甲區","LI":"大丘里","LIN":"6鄰","STREET":" ","SECT":" ","MAREA":"匏子寮","LANE":" ","ALLEY":" ","HOUSE_NO":"６號","E_COORD97":191994.92000000001,"N_COORD97":2568630.9700000002,"ADDRESS":"匏子寮６號","OBJECTID":70734},"geometry":{"x":191994.91999999993,"y":2568630.9700000007}},{"attributes":{"ID":70735,"DIS_CODE":0,"TOWNNAME":"中西區","LI":"西湖里","LIN":"33鄰","STREET":"和緯路","SECT":"五段","MAREA":" ","LANE":"８９巷","ALLEY":"１１２弄","HOUSE_NO":"１６號","E_COORD97":166364.17999999999,"N_COORD97":2544990.8799999999,"ADDRESS":"和緯路五段８９巷１１２弄１６號","OBJECTID":70735},"geometry":{"x":166364.18000000063,"y":2544990.8800000008}},{"attributes":{"ID":70736,"DIS_CODE":0,"TOWNNAME":"中西區","LI":"西湖里","LIN":"33鄰","STREET":"和緯路","SECT":"五段","MAREA":" ","LANE":"８９巷","ALLEY":"１１２弄","HOUSE_NO":"１８號","E_COORD97":166345.94,"N_COORD97":2544992.1899999999,"ADDRESS":"和緯路五段８９巷１１２弄１８號","OBJECTID":70736},"geometry":{"x":166345.93999999948,"y":2544992.1900000032}},{"attributes":{"ID":70737,"DIS_CODE":0,"TOWNNAME":"中西區","LI":"西湖里","LIN":"33鄰","STREET":"中華西路","SECT":"二段","MAREA":" ","LANE":"８５１巷","ALLEY":"１５１弄","HOUSE_NO":"１號","E_COORD97":166290.62,"N_COORD97":2545041.3300000001,"ADDRESS":"中華西路二段８５１巷１５１弄１號","OBJECTID":70737},"geometry":{"x":166290.62000000104,"y":2545041.3300000001}},{"attributes":{"ID":70738,"DIS_CODE":0,"TOWNNAME":"後壁區","LI":"福安里","LIN":"7鄰","STREET":" ","SECT":" ","MAREA":"下寮","LANE":" ","ALLEY":" ","HOUSE_NO":"６６號","E_COORD97":184296.20999999999,"N_COORD97":2580908.5099999998,"ADDRESS":"下寮６６號","OBJECTID":70738},"geometry":{"x":184296.21000000089,"y":2580908.5100000016}},{"attributes":{"ID":70739,"DIS_CODE":0,"TOWNNAME":"白河區","LI":"秀祐里","LIN":"6鄰","STREET":" ","SECT":" ","MAREA":"下秀祐","LANE":" ","ALLEY":" ","HOUSE_NO":"２１之１號","E_COORD97":188553.64999999999,"N_COORD97":2582779.73,"ADDRESS":"下秀祐２１之１號","OBJECTID":70739},"geometry":{"x":188553.6500000013,"y":2582779.7300000023}},{"attributes":{"ID":70740,"DIS_CODE":0,"TOWNNAME":"白河區","LI":"秀祐里","LIN":"6鄰","STREET":" ","SECT":" ","MAREA":"下秀祐","LANE":" ","ALLEY":" ","HOUSE_NO":"２１號","E_COORD97":188554.57000000001,"N_COORD97":2582789.8199999998,"ADDRESS":"下秀祐２１號","OBJECTID":70740},"geometry":{"x":188554.5700000003,"y":2582789.8200000003}},{"attributes":{"ID":70741,"DIS_CODE":0,"TOWNNAME":"後壁區","LI":"嘉苳里","LIN":"7鄰","STREET":" ","SECT":" ","MAREA":"下茄苳","LANE":" ","ALLEY":" ","HOUSE_NO":"８４號之２","E_COORD97":184906.76999999999,"N_COORD97":2583296.46,"ADDRESS":"下茄苳８４號之２","OBJECTID":70741},"geometry":{"x":184906.76999999955,"y":2583296.4600000046}},{"attributes":{"ID":70742,"DIS_CODE":0,"TOWNNAME":"後壁區","LI":"嘉苳里","LIN":"7鄰","STREET":" ","SECT":" ","MAREA":"下茄苳","LANE":" ","ALLEY":" ","HOUSE_NO":"８４號","E_COORD97":184903.37,"N_COORD97":2583319,"ADDRESS":"下茄苳８４號","OBJECTID":70742},"geometry":{"x":184903.36999999918,"y":2583319.0000000037}},{"attributes":{"ID":70743,"DIS_CODE":0,"TOWNNAME":"中西區","LI":"西湖里","LIN":"33鄰","STREET":"中華西路","SECT":"二段","MAREA":" ","LANE":"８５１巷","ALLEY":"１１７弄","HOUSE_NO":"２２號","E_COORD97":166322.81,"N_COORD97":2545006.7000000002,"ADDRESS":"中華西路二段８５１巷１１７弄２２號","OBJECTID":70743},"geometry":{"x":166322.81000000052,"y":2545006.7000000011}},{"attributes":{"ID":70744,"DIS_CODE":0,"TOWNNAME":"後壁區","LI":"嘉苳里","LIN":"7鄰","STREET":" ","SECT":" ","MAREA":"下茄苳","LANE":" ","ALLEY":" ","HOUSE_NO":"８５號","E_COORD97":184892.45999999999,"N_COORD97":2583332.1699999999,"ADDRESS":"下茄苳８５號","OBJECTID":70744},"geometry":{"x":184892.46000000183,"y":2583332.1700000018}},{"attributes":{"ID":70745,"DIS_CODE":0,"TOWNNAME":"中西區","LI":"西湖里","LIN":"33鄰","STREET":"中華西路","SECT":"二段","MAREA":" ","LANE":"８５１巷","ALLEY":"１１７弄","HOUSE_NO":"２６號","E_COORD97":166318,"N_COORD97":2544998.3799999999,"ADDRESS":"中華西路二段８５１巷１１７弄２６號","OBJECTID":70745},"geometry":{"x":166317.99999999907,"y":2544998.3800000008}},{"attributes":{"ID":70746,"DIS_CODE":0,"TOWNNAME":"後壁區","LI":"嘉苳里","LIN":"7鄰","STREET":" ","SECT":" ","MAREA":"下茄苳","LANE":" ","ALLEY":" ","HOUSE_NO":"８７號之１","E_COORD97":184873.38,"N_COORD97":2583364.2200000002,"ADDRESS":"下茄苳８７號之１","OBJECTID":70746},"geometry":{"x":184873.38000000082,"y":2583364.2200000007}},{"attributes":{"ID":70747,"DIS_CODE":0,"TOWNNAME":"後壁區","LI":"嘉苳里","LIN":"7鄰","STREET":" ","SECT":" ","MAREA":"下茄苳","LANE":" ","ALLEY":" ","HOUSE_NO":"８７號之２","E_COORD97":184808.73999999999,"N_COORD97":2583367.3599999999,"ADDRESS":"下茄苳８７號之２","OBJECTID":70747},"geometry":{"x":184808.74000000022,"y":2583367.3600000013}},{"attributes":{"ID":70748,"DIS_CODE":0,"TOWNNAME":"後壁區","LI":"嘉苳里","LIN":"7鄰","STREET":" ","SECT":" ","MAREA":"下茄苳","LANE":" ","ALLEY":" ","HOUSE_NO":"８７號","E_COORD97":184883.48000000001,"N_COORD97":2583365.8199999998,"ADDRESS":"下茄苳８７號","OBJECTID":70748},"geometry":{"x":184883.48000000138,"y":2583365.8200000022}},{"attributes":{"ID":70749,"DIS_CODE":0,"TOWNNAME":"後壁區","LI":"嘉苳里","LIN":"7鄰","STREET":" ","SECT":" ","MAREA":"下茄苳","LANE":" ","ALLEY":" ","HOUSE_NO":"８８號","E_COORD97":184863.70999999999,"N_COORD97":2583379.6499999999,"ADDRESS":"下茄苳８８號","OBJECTID":70749},"geometry":{"x":184863.71000000183,"y":2583379.6500000022}},{"attributes":{"ID":70750,"DIS_CODE":0,"TOWNNAME":"後壁區","LI":"土溝里","LIN":"7鄰","STREET":" ","SECT":" ","MAREA":"土溝","LANE":" ","ALLEY":" ","HOUSE_NO":"５６號之１８","E_COORD97":187346.38,"N_COORD97":2585793.52,"ADDRESS":"土溝５６號之１８","OBJECTID":70750},"geometry":{"x":187346.38000000082,"y":2585793.5200000014}},{"attributes":{"ID":70751,"DIS_CODE":0,"TOWNNAME":"後壁區","LI":"土溝里","LIN":"7鄰","STREET":" ","SECT":" ","MAREA":"土溝","LANE":" ","ALLEY":" ","HOUSE_NO":"５６號之１","E_COORD97":187419.01000000001,"N_COORD97":2585860.5899999999,"ADDRESS":"土溝５６號之１","OBJECTID":70751},"geometry":{"x":187419.00999999978,"y":2585860.589999998}},{"attributes":{"ID":70752,"DIS_CODE":0,"TOWNNAME":"後壁區","LI":"土溝里","LIN":"7鄰","STREET":" ","SECT":" ","MAREA":"土溝","LANE":" ","ALLEY":" ","HOUSE_NO":"５６號之２０","E_COORD97":187310.75,"N_COORD97":2585768.1400000001,"ADDRESS":"土溝５６號之２０","OBJECTID":70752},"geometry":{"x":187310.75,"y":2585768.1400000006}},{"attributes":{"ID":70753,"DIS_CODE":0,"TOWNNAME":"後壁區","LI":"土溝里","LIN":"7鄰","STREET":" ","SECT":" ","MAREA":"土溝","LANE":" ","ALLEY":" ","HOUSE_NO":"５６號","E_COORD97":187412.41,"N_COORD97":2585839.04,"ADDRESS":"土溝５６號","OBJECTID":70753},"geometry":{"x":187412.41000000108,"y":2585839.0399999991}},{"attributes":{"ID":70754,"DIS_CODE":0,"TOWNNAME":"後壁區","LI":"土溝里","LIN":"7鄰","STREET":" ","SECT":" ","MAREA":"土溝","LANE":" ","ALLEY":" ","HOUSE_NO":"５７號之１","E_COORD97":187364.01999999999,"N_COORD97":2585855.0800000001,"ADDRESS":"土溝５７號之１","OBJECTID":70754},"geometry":{"x":187364.02000000048,"y":2585855.0800000019}},{"attributes":{"ID":70755,"DIS_CODE":0,"TOWNNAME":"後壁區","LI":"土溝里","LIN":"7鄰","STREET":" ","SECT":" ","MAREA":"土溝","LANE":" ","ALLEY":" ","HOUSE_NO":"５７號之２０","E_COORD97":187302.06,"N_COORD97":2585890.8799999999,"ADDRESS":"土溝５７號之２０","OBJECTID":70755},"geometry":{"x":187302.06000000145,"y":2585890.879999999}},{"attributes":{"ID":70756,"DIS_CODE":0,"TOWNNAME":"後壁區","LI":"土溝里","LIN":"7鄰","STREET":" ","SECT":" ","MAREA":"土溝","LANE":" ","ALLEY":" ","HOUSE_NO":"５７號之２","E_COORD97":187345.20000000001,"N_COORD97":2585835.2999999998,"ADDRESS":"土溝５７號之２","OBJECTID":70756},"geometry":{"x":187345.20000000019,"y":2585835.3000000007}},{"attributes":{"ID":70757,"DIS_CODE":0,"TOWNNAME":"後壁區","LI":"長安里","LIN":"7鄰","STREET":" ","SECT":" ","MAREA":"中寮","LANE":" ","ALLEY":" ","HOUSE_NO":"９３號","E_COORD97":184204.84,"N_COORD97":2581173.7599999998,"ADDRESS":"中寮９３號","OBJECTID":70757},"geometry":{"x":184204.83999999892,"y":2581173.7599999979}},{"attributes":{"ID":70758,"DIS_CODE":0,"TOWNNAME":"後壁區","LI":"長安里","LIN":"7鄰","STREET":" ","SECT":" ","MAREA":"中寮","LANE":" ","ALLEY":" ","HOUSE_NO":"９４號","E_COORD97":184201.92999999999,"N_COORD97":2581190.8599999999,"ADDRESS":"中寮９４號","OBJECTID":70758},"geometry":{"x":184201.9299999997,"y":2581190.8600000013}},{"attributes":{"ID":70759,"DIS_CODE":0,"TOWNNAME":"中西區","LI":"西湖里","LIN":"33鄰","STREET":"中華西路","SECT":"二段","MAREA":" ","LANE":"８５１巷","ALLEY":"１１７弄","HOUSE_NO":"２８號","E_COORD97":166319.16,"N_COORD97":2544991.5899999999,"ADDRESS":"中華西路二段８５１巷１１７弄２８號","OBJECTID":70759},"geometry":{"x":166319.16000000108,"y":2544991.5899999999}},{"attributes":{"ID":70760,"DIS_CODE":0,"TOWNNAME":"永康區","LI":"北灣里","LIN":"33鄰","STREET":"大灣路","SECT":" ","MAREA":" ","LANE":"３７巷","ALLEY":"６弄","HOUSE_NO":"２１號","E_COORD97":175352.62,"N_COORD97":2545795.8700000001,"ADDRESS":"大灣路３７巷６弄２１號","OBJECTID":70760},"geometry":{"x":175352.61999999918,"y":2545795.8699999992}},{"attributes":{"ID":70761,"DIS_CODE":0,"TOWNNAME":"永康區","LI":"北灣里","LIN":"33鄰","STREET":"大灣路","SECT":" ","MAREA":" ","LANE":"３７巷","ALLEY":"６弄","HOUSE_NO":"２７號","E_COORD97":175355.12,"N_COORD97":2545776.1099999999,"ADDRESS":"大灣路３７巷６弄２７號","OBJECTID":70761},"geometry":{"x":175355.12000000104,"y":2545776.1100000013}},{"attributes":{"ID":70762,"DIS_CODE":0,"TOWNNAME":"永康區","LI":"北灣里","LIN":"33鄰","STREET":"大灣路","SECT":" ","MAREA":" ","LANE":"３７巷","ALLEY":"６弄","HOUSE_NO":"９號","E_COORD97":175346.87,"N_COORD97":2545835.3700000001,"ADDRESS":"大灣路３７巷６弄９號","OBJECTID":70762},"geometry":{"x":175346.87000000011,"y":2545835.370000001}},{"attributes":{"ID":70763,"DIS_CODE":0,"TOWNNAME":"永康區","LI":"北灣里","LIN":"33鄰","STREET":"大灣路","SECT":" ","MAREA":" ","LANE":"３７巷","ALLEY":"６弄","HOUSE_NO":"１１號","E_COORD97":175348.70999999999,"N_COORD97":2545828.6200000001,"ADDRESS":"大灣路３７巷６弄１１號","OBJECTID":70763},"geometry":{"x":175348.71000000183,"y":2545828.6200000029}},{"attributes":{"ID":70764,"DIS_CODE":0,"TOWNNAME":"永康區","LI":"成功里","LIN":"33鄰","STREET":"忠孝路","SECT":" ","MAREA":" ","LANE":"２０７巷","ALLEY":"３２弄","HOUSE_NO":"８號四樓","E_COORD97":171903.19,"N_COORD97":2544948.9500000002,"ADDRESS":"忠孝路２０７巷３２弄８號四樓","OBJECTID":70764},"geometry":{"x":171903.19000000134,"y":2544948.9499999993}},{"attributes":{"ID":70765,"DIS_CODE":0,"TOWNNAME":"永康區","LI":"成功里","LIN":"33鄰","STREET":"忠孝路","SECT":" ","MAREA":" ","LANE":"２０７巷","ALLEY":"３２弄","HOUSE_NO":"４號四樓之３","E_COORD97":171933.35000000001,"N_COORD97":2544940.04,"ADDRESS":"忠孝路２０７巷３２弄４號四樓之３","OBJECTID":70765},"geometry":{"x":171933.35000000056,"y":2544940.040000001}},{"attributes":{"ID":70766,"DIS_CODE":0,"TOWNNAME":"永康區","LI":"成功里","LIN":"33鄰","STREET":"忠孝路","SECT":" ","MAREA":" ","LANE":"２０７巷","ALLEY":"３２弄","HOUSE_NO":"８號三樓","E_COORD97":171903.19,"N_COORD97":2544948.9500000002,"ADDRESS":"忠孝路２０７巷３２弄８號三樓","OBJECTID":70766},"geometry":{"x":171903.19000000134,"y":2544948.9499999993}},{"attributes":{"ID":70767,"DIS_CODE":0,"TOWNNAME":"永康區","LI":"成功里","LIN":"33鄰","STREET":"忠孝路","SECT":" ","MAREA":" ","LANE":"２０７巷","ALLEY":"３２弄","HOUSE_NO":"８號二樓","E_COORD97":171903.19,"N_COORD97":2544948.9500000002,"ADDRESS":"忠孝路２０７巷３２弄８號二樓","OBJECTID":70767},"geometry":{"x":171903.19000000134,"y":2544948.9499999993}},{"attributes":{"ID":70768,"DIS_CODE":0,"TOWNNAME":"中西區","LI":"藥王里","LIN":"7鄰","STREET":"大新街","SECT":" ","MAREA":" ","LANE":" ","ALLEY":" ","HOUSE_NO":"２８號","E_COORD97":167161.45999999999,"N_COORD97":2544366.46,"ADDRESS":"大新街２８號","OBJECTID":70768},"geometry":{"x":167161.46000000089,"y":2544366.4600000009}},{"attributes":{"ID":70769,"DIS_CODE":0,"TOWNNAME":"永康區","LI":"成功里","LIN":"33鄰","STREET":"忠孝路","SECT":" ","MAREA":" ","LANE":"２０７巷","ALLEY":"３２弄","HOUSE_NO":"８號三樓之４","E_COORD97":171905.35999999999,"N_COORD97":2544948.9900000002,"ADDRESS":"忠孝路２０７巷３２弄８號三樓之４","OBJECTID":70769},"geometry":{"x":171905.36000000127,"y":2544948.9900000002}},{"attributes":{"ID":70770,"DIS_CODE":0,"TOWNNAME":"佳里區","LI":"蚶寮里","LIN":"7鄰","STREET":" ","SECT":" ","MAREA":"蚶寮","LANE":" ","ALLEY":" ","HOUSE_NO":"６５號","E_COORD97":163408.67000000001,"N_COORD97":2558721.1499999999,"ADDRESS":"蚶寮６５號","OBJECTID":70770},"geometry":{"x":163408.67000000086,"y":2558721.1500000041}},{"attributes":{"ID":70771,"DIS_CODE":0,"TOWNNAME":"永康區","LI":"成功里","LIN":"33鄰","STREET":"忠孝路","SECT":" ","MAREA":" ","LANE":"２０７巷","ALLEY":"３２弄","HOUSE_NO":"８號三樓之３","E_COORD97":171905.42999999999,"N_COORD97":2544948.9900000002,"ADDRESS":"忠孝路２０７巷３２弄８號三樓之３","OBJECTID":70771},"geometry":{"x":171905.4299999997,"y":2544948.9900000002}},{"attributes":{"ID":70772,"DIS_CODE":0,"TOWNNAME":"永康區","LI":"成功里","LIN":"33鄰","STREET":"忠孝路","SECT":" ","MAREA":" ","LANE":"２０７巷","ALLEY":"３２弄","HOUSE_NO":"４號三樓之３","E_COORD97":171933.35000000001,"N_COORD97":2544940.04,"ADDRESS":"忠孝路２０７巷３２弄４號三樓之３","OBJECTID":70772},"geometry":{"x":171933.35000000056,"y":2544940.040000001}},{"attributes":{"ID":70773,"DIS_CODE":0,"TOWNNAME":"永康區","LI":"成功里","LIN":"33鄰","STREET":"忠孝路","SECT":" ","MAREA":" ","LANE":"２０７巷","ALLEY":"３２弄","HOUSE_NO":"８號四樓之１","E_COORD97":171905.32999999999,"N_COORD97":2544948.9900000002,"ADDRESS":"忠孝路２０７巷３２弄８號四樓之１","OBJECTID":70773},"geometry":{"x":171905.33000000101,"y":2544948.9900000002}},{"attributes":{"ID":70774,"DIS_CODE":0,"TOWNNAME":"後壁區","LI":"長安里","LIN":"7鄰","STREET":" ","SECT":" ","MAREA":"中寮","LANE":" ","ALLEY":" ","HOUSE_NO":"９５號","E_COORD97":184205.82000000001,"N_COORD97":2581211.3700000001,"ADDRESS":"中寮９５號","OBJECTID":70774},"geometry":{"x":184205.82000000123,"y":2581211.370000001}},{"attributes":{"ID":70775,"DIS_CODE":0,"TOWNNAME":"後壁區","LI":"長安里","LIN":"7鄰","STREET":" ","SECT":" ","MAREA":"中寮","LANE":" ","ALLEY":" ","HOUSE_NO":"９６號","E_COORD97":184216.69,"N_COORD97":2581224.7999999998,"ADDRESS":"中寮９６號","OBJECTID":70775},"geometry":{"x":184216.69000000227,"y":2581224.8000000007}},{"attributes":{"ID":70776,"DIS_CODE":0,"TOWNNAME":"永康區","LI":"成功里","LIN":"33鄰","STREET":"忠孝路","SECT":" ","MAREA":" ","LANE":"２０７巷","ALLEY":"３２弄","HOUSE_NO":"８號五樓","E_COORD97":171903.19,"N_COORD97":2544948.9500000002,"ADDRESS":"忠孝路２０７巷３２弄８號五樓","OBJECTID":70776},"geometry":{"x":171903.19000000134,"y":2544948.9499999993}},{"attributes":{"ID":70777,"DIS_CODE":0,"TOWNNAME":"永康區","LI":"成功里","LIN":"33鄰","STREET":"忠孝路","SECT":" ","MAREA":" ","LANE":"２０７巷","ALLEY":"３２弄","HOUSE_NO":"８號五樓之２","E_COORD97":171905.45999999999,"N_COORD97":2544948.9900000002,"ADDRESS":"忠孝路２０７巷３２弄８號五樓之２","OBJECTID":70777},"geometry":{"x":171905.45999999996,"y":2544948.9900000002}},{"attributes":{"ID":70778,"DIS_CODE":0,"TOWNNAME":"永康區","LI":"成功里","LIN":"33鄰","STREET":"忠孝路","SECT":" ","MAREA":" ","LANE":"２０７巷","ALLEY":"３２弄","HOUSE_NO":"８號四樓之３","E_COORD97":171905.42999999999,"N_COORD97":2544948.9900000002,"ADDRESS":"忠孝路２０７巷３２弄８號四樓之３","OBJECTID":70778},"geometry":{"x":171905.4299999997,"y":2544948.9900000002}},{"attributes":{"ID":70779,"DIS_CODE":0,"TOWNNAME":"永康區","LI":"成功里","LIN":"33鄰","STREET":"忠孝路","SECT":" ","MAREA":" ","LANE":"２０７巷","ALLEY":"３２弄","HOUSE_NO":"８號五樓之４","E_COORD97":171905.35999999999,"N_COORD97":2544948.9900000002,"ADDRESS":"忠孝路２０７巷３２弄８號五樓之４","OBJECTID":70779},"geometry":{"x":171905.36000000127,"y":2544948.9900000002}},{"attributes":{"ID":70780,"DIS_CODE":0,"TOWNNAME":"永康區","LI":"成功里","LIN":"33鄰","STREET":"忠孝路","SECT":" ","MAREA":" ","LANE":"２０７巷","ALLEY":"３２弄","HOUSE_NO":"４號三樓之４","E_COORD97":171933.28,"N_COORD97":2544940.04,"ADDRESS":"忠孝路２０７巷３２弄４號三樓之４","OBJECTID":70780},"geometry":{"x":171933.28000000119,"y":2544940.040000001}},{"attributes":{"ID":70781,"DIS_CODE":0,"TOWNNAME":"東區","LI":"崇善里","LIN":"7鄰","STREET":"崇善七街","SECT":" ","MAREA":" ","LANE":" ","ALLEY":" ","HOUSE_NO":"３號","E_COORD97":171058.72,"N_COORD97":2541463.75,"ADDRESS":"崇善七街３號","OBJECTID":70781},"geometry":{"x":171058.71999999974,"y":2541463.7500000019}},{"attributes":{"ID":70782,"DIS_CODE":0,"TOWNNAME":"東區","LI":"崇善里","LIN":"7鄰","STREET":"崇善七街","SECT":" ","MAREA":" ","LANE":" ","ALLEY":" ","HOUSE_NO":"７號","E_COORD97":171071.14999999999,"N_COORD97":2541466.2400000002,"ADDRESS":"崇善七街７號","OBJECTID":70782},"geometry":{"x":171071.1500000013,"y":2541466.2399999984}},{"attributes":{"ID":70783,"DIS_CODE":0,"TOWNNAME":"永康區","LI":"成功里","LIN":"33鄰","STREET":"忠孝路","SECT":" ","MAREA":" ","LANE":"２０７巷","ALLEY":"３２弄","HOUSE_NO":"８號四樓之２","E_COORD97":171905.45999999999,"N_COORD97":2544948.9900000002,"ADDRESS":"忠孝路２０７巷３２弄８號四樓之２","OBJECTID":70783},"geometry":{"x":171905.45999999996,"y":2544948.9900000002}},{"attributes":{"ID":70784,"DIS_CODE":0,"TOWNNAME":"後壁區","LI":"新嘉里","LIN":"7鄰","STREET":" ","SECT":" ","MAREA":"白沙屯","LANE":" ","ALLEY":" ","HOUSE_NO":"６９號之１","E_COORD97":179682.59,"N_COORD97":2585651.6800000002,"ADDRESS":"白沙屯６９號之１","OBJECTID":70784},"geometry":{"x":179682.59000000078,"y":2585651.6799999997}},{"attributes":{"ID":70785,"DIS_CODE":0,"TOWNNAME":"後壁區","LI":"新嘉里","LIN":"7鄰","STREET":" ","SECT":" ","MAREA":"白沙屯","LANE":" ","ALLEY":" ","HOUSE_NO":"６９號","E_COORD97":179681.45999999999,"N_COORD97":2585661.48,"ADDRESS":"白沙屯６９號","OBJECTID":70785},"geometry":{"x":179681.46000000183,"y":2585661.4800000004}},{"attributes":{"ID":70786,"DIS_CODE":0,"TOWNNAME":"後壁區","LI":"新嘉里","LIN":"7鄰","STREET":" ","SECT":" ","MAREA":"白沙屯","LANE":" ","ALLEY":" ","HOUSE_NO":"７０號","E_COORD97":179685.81,"N_COORD97":2585644.3399999999,"ADDRESS":"白沙屯７０號","OBJECTID":70786},"geometry":{"x":179685.81000000052,"y":2585644.3399999999}},{"attributes":{"ID":70787,"DIS_CODE":0,"TOWNNAME":"後壁區","LI":"新嘉里","LIN":"7鄰","STREET":" ","SECT":" ","MAREA":"白沙屯","LANE":" ","ALLEY":" ","HOUSE_NO":"７２號","E_COORD97":179660.60000000001,"N_COORD97":2585651.75,"ADDRESS":"白沙屯７２號","OBJECTID":70787},"geometry":{"x":179660.60000000056,"y":2585651.75}},{"attributes":{"ID":70788,"DIS_CODE":0,"TOWNNAME":"後壁區","LI":"新嘉里","LIN":"7鄰","STREET":" ","SECT":" ","MAREA":"白沙屯","LANE":" ","ALLEY":" ","HOUSE_NO":"７３號","E_COORD97":179637.28,"N_COORD97":2585647.6600000001,"ADDRESS":"白沙屯７３號","OBJECTID":70788},"geometry":{"x":179637.28000000212,"y":2585647.660000002}},{"attributes":{"ID":70789,"DIS_CODE":0,"TOWNNAME":"仁德區","LI":"後壁里","LIN":"33鄰","STREET":"德洋二街","SECT":" ","MAREA":" ","LANE":"３９巷","ALLEY":"６３弄","HOUSE_NO":"２號三樓之４","E_COORD97":172206.60999999999,"N_COORD97":2539404.9100000001,"ADDRESS":"德洋二街３９巷６３弄２號三樓之４","OBJECTID":70789},"geometry":{"x":172206.61000000034,"y":2539404.910000002}},{"attributes":{"ID":70790,"DIS_CODE":0,"TOWNNAME":"仁德區","LI":"後壁里","LIN":"33鄰","STREET":"德洋二街","SECT":" ","MAREA":" ","LANE":"３９巷","ALLEY":"６３弄","HOUSE_NO":"２號四樓之５","E_COORD97":172206.73999999999,"N_COORD97":2539404.9100000001,"ADDRESS":"德洋二街３９巷６３弄２號四樓之５","OBJECTID":70790},"geometry":{"x":172206.74000000022,"y":2539404.910000002}},{"attributes":{"ID":70791,"DIS_CODE":0,"TOWNNAME":"仁德區","LI":"後壁里","LIN":"33鄰","STREET":"德洋二街","SECT":" ","MAREA":" ","LANE":"３９巷","ALLEY":"６３弄","HOUSE_NO":"２號四樓之１","E_COORD97":172206.57999999999,"N_COORD97":2539404.9100000001,"ADDRESS":"德洋二街３９巷６３弄２號四樓之１","OBJECTID":70791},"geometry":{"x":172206.57999999914,"y":2539404.910000002}},{"attributes":{"ID":70792,"DIS_CODE":0,"TOWNNAME":"仁德區","LI":"後壁里","LIN":"33鄰","STREET":"德洋二街","SECT":" ","MAREA":" ","LANE":"３９巷","ALLEY":"６３弄","HOUSE_NO":"２號六樓之２","E_COORD97":172206.70999999999,"N_COORD97":2539404.9100000001,"ADDRESS":"德洋二街３９巷６３弄２號六樓之２","OBJECTID":70792},"geometry":{"x":172206.70999999996,"y":2539404.910000002}},{"attributes":{"ID":70793,"DIS_CODE":0,"TOWNNAME":"後壁區","LI":"新嘉里","LIN":"7鄰","STREET":" ","SECT":" ","MAREA":"白沙屯","LANE":" ","ALLEY":" ","HOUSE_NO":"７４號","E_COORD97":179637.01999999999,"N_COORD97":2585664.6800000002,"ADDRESS":"白沙屯７４號","OBJECTID":70793},"geometry":{"x":179637.02000000048,"y":2585664.6800000016}},{"attributes":{"ID":70794,"DIS_CODE":0,"TOWNNAME":"仁德區","LI":"後壁里","LIN":"33鄰","STREET":"德洋二街","SECT":" ","MAREA":" ","LANE":"３９巷","ALLEY":"６３弄","HOUSE_NO":"２號五樓之２","E_COORD97":172206.70999999999,"N_COORD97":2539404.9100000001,"ADDRESS":"德洋二街３９巷６３弄２號五樓之２","OBJECTID":70794},"geometry":{"x":172206.70999999996,"y":2539404.910000002}},{"attributes":{"ID":70795,"DIS_CODE":0,"TOWNNAME":"仁德區","LI":"後壁里","LIN":"33鄰","STREET":"德洋二街","SECT":" ","MAREA":" ","LANE":"３９巷","ALLEY":"６３弄","HOUSE_NO":"２號五樓之３","E_COORD97":172206.67999999999,"N_COORD97":2539404.9100000001,"ADDRESS":"德洋二街３９巷６３弄２號五樓之３","OBJECTID":70795},"geometry":{"x":172206.6799999997,"y":2539404.910000002}},{"attributes":{"ID":70796,"DIS_CODE":0,"TOWNNAME":"後壁區","LI":"新嘉里","LIN":"7鄰","STREET":" ","SECT":" ","MAREA":"白沙屯","LANE":" ","ALLEY":" ","HOUSE_NO":"７８號","E_COORD97":179646.56,"N_COORD97":2585697.29,"ADDRESS":"白沙屯７８號","OBJECTID":70796},"geometry":{"x":179646.56000000145,"y":2585697.290000001}},{"attributes":{"ID":70797,"DIS_CODE":0,"TOWNNAME":"白河區","LI":"大竹里","LIN":"6鄰","STREET":" ","SECT":" ","MAREA":"大排竹","LANE":" ","ALLEY":" ","HOUSE_NO":"１０１之３０號","E_COORD97":189588.60999999999,"N_COORD97":2585359.1499999999,"ADDRESS":"大排竹１０１之３０號","OBJECTID":70797},"geometry":{"x":189588.61000000034,"y":2585359.1500000041}},{"attributes":{"ID":70798,"DIS_CODE":0,"TOWNNAME":"永康區","LI":"勝利里","LIN":"33鄰","STREET":"中華路","SECT":" ","MAREA":" ","LANE":"７巷","ALLEY":"２０弄","HOUSE_NO":"３６號七樓之３","E_COORD97":171533.17999999999,"N_COORD97":2544457.7999999998,"ADDRESS":"中華路７巷２０弄３６號七樓之３","OBJECTID":70798},"geometry":{"x":171533.18000000063,"y":2544457.8000000026}},{"attributes":{"ID":70799,"DIS_CODE":0,"TOWNNAME":"白河區","LI":"大竹里","LIN":"6鄰","STREET":" ","SECT":" ","MAREA":"大排竹","LANE":" ","ALLEY":" ","HOUSE_NO":"１０１之３１號","E_COORD97":189589.39000000001,"N_COORD97":2585363.4500000002,"ADDRESS":"大排竹１０１之３１號","OBJECTID":70799},"geometry":{"x":189589.38999999966,"y":2585363.4500000011}},{"attributes":{"ID":70800,"DIS_CODE":0,"TOWNNAME":"後壁區","LI":"嘉苳里","LIN":"6鄰","STREET":" ","SECT":" ","MAREA":"下茄苳","LANE":" ","ALLEY":" ","HOUSE_NO":"６７號之３附１","E_COORD97":184959.64000000001,"N_COORD97":2583410.4700000002,"ADDRESS":"下茄苳６７號之３附１","OBJECTID":70800},"geometry":{"x":184959.63999999966,"y":2583410.4700000007}}]}