{"displayFieldName":"TOWNNAME","fieldAliases":{"ID":"ID","DIS_CODE":"DIS_CODE","TOWNNAME":"TOWNNAME","LI":"LI","LIN":"LIN","STREET":"STREET","SECT":"SECT","MAREA":"MAREA","LANE":"LANE","ALLEY":"ALLEY","HOUSE_NO":"HOUSE_NO","E_COORD97":"E_COORD97","N_COORD97":"N_COORD97","ADDRESS":"ADDRESS","OBJECTID":"OBJECTID"},"geometryType":"esriGeometryPoint","spatialReference":{"wkid":102443,"latestWkid":3826},"fields":[{"name":"ID","type":"esriFieldTypeDouble","alias":"ID"},{"name":"DIS_CODE","type":"esriFieldTypeInteger","alias":"DIS_CODE"},{"name":"TOWNNAME","type":"esriFieldTypeString","alias":"TOWNNAME","length":8},{"name":"LI","type":"esriFieldTypeString","alias":"LI","length":8},{"name":"LIN","type":"esriFieldTypeString","alias":"LIN","length":12},{"name":"STREET","type":"esriFieldTypeString","alias":"STREET","length":20},{"name":"SECT","type":"esriFieldTypeString","alias":"SECT","length":8},{"name":"MAREA","type":"esriFieldTypeString","alias":"MAREA","length":12},{"name":"LANE","type":"esriFieldTypeString","alias":"LANE","length":10},{"name":"ALLEY","type":"esriFieldTypeString","alias":"ALLEY","length":10},{"name":"HOUSE_NO","type":"esriFieldTypeString","alias":"HOUSE_NO","length":20},{"name":"E_COORD97","type":"esriFieldTypeDouble","alias":"E_COORD97"},{"name":"N_COORD97","type":"esriFieldTypeDouble","alias":"N_COORD97"},{"name":"ADDRESS","type":"esriFieldTypeString","alias":"ADDRESS","length":50},{"name":"OBJECTID","type":"esriFieldTypeOID","alias":"OBJECTID"}],"features":[{"attributes":{"ID":127801,"DIS_CODE":0,"TOWNNAME":"將軍區","LI":"嘉昌里","LIN":"18鄰","STREET":" ","SECT":" ","MAREA":"昌平","LANE":" ","ALLEY":" ","HOUSE_NO":"５４號","E_COORD97":163534.85000000001,"N_COORD97":2567411.96,"ADDRESS":"昌平５４號","OBJECTID":127801},"geometry":{"x":163534.84999999963,"y":2567411.9600000009}},{"attributes":{"ID":127802,"DIS_CODE":0,"TOWNNAME":"將軍區","LI":"忠興里","LIN":"1鄰","STREET":" ","SECT":" ","MAREA":"忠興","LANE":" ","ALLEY":" ","HOUSE_NO":"１之１０號","E_COORD97":163833.67999999999,"N_COORD97":2566543.6099999999,"ADDRESS":"忠興１之１０號","OBJECTID":127802},"geometry":{"x":163833.68000000063,"y":2566543.6099999994}},{"attributes":{"ID":127803,"DIS_CODE":0,"TOWNNAME":"將軍區","LI":"忠興里","LIN":"1鄰","STREET":" ","SECT":" ","MAREA":"忠興","LANE":" ","ALLEY":" ","HOUSE_NO":"１之１號","E_COORD97":163818.85000000001,"N_COORD97":2566536.79,"ADDRESS":"忠興１之１號","OBJECTID":127803},"geometry":{"x":163818.85000000056,"y":2566536.7900000028}},{"attributes":{"ID":127804,"DIS_CODE":0,"TOWNNAME":"六甲區","LI":"中社里","LIN":"1鄰","STREET":" ","SECT":" ","MAREA":"中社","LANE":" ","ALLEY":" ","HOUSE_NO":"１３號","E_COORD97":181295.26999999999,"N_COORD97":2570849.21,"ADDRESS":"中社１３號","OBJECTID":127804},"geometry":{"x":181295.27000000048,"y":2570849.2100000028}},{"attributes":{"ID":127805,"DIS_CODE":0,"TOWNNAME":"將軍區","LI":"忠興里","LIN":"1鄰","STREET":" ","SECT":" ","MAREA":"忠興","LANE":" ","ALLEY":" ","HOUSE_NO":"１之２號","E_COORD97":163821.39000000001,"N_COORD97":2566533.9199999999,"ADDRESS":"忠興１之２號","OBJECTID":127805},"geometry":{"x":163821.38999999873,"y":2566533.9200000018}},{"attributes":{"ID":127806,"DIS_CODE":0,"TOWNNAME":"將軍區","LI":"忠興里","LIN":"1鄰","STREET":" ","SECT":" ","MAREA":"忠興","LANE":" ","ALLEY":" ","HOUSE_NO":"１之３號","E_COORD97":163823.57000000001,"N_COORD97":2566530.75,"ADDRESS":"忠興１之３號","OBJECTID":127806},"geometry":{"x":163823.5700000003,"y":2566530.75}},{"attributes":{"ID":127807,"DIS_CODE":0,"TOWNNAME":"將軍區","LI":"忠興里","LIN":"1鄰","STREET":" ","SECT":" ","MAREA":"忠興","LANE":" ","ALLEY":" ","HOUSE_NO":"１之４號","E_COORD97":163825.92999999999,"N_COORD97":2566528.0800000001,"ADDRESS":"忠興１之４號","OBJECTID":127807},"geometry":{"x":163825.9299999997,"y":2566528.0800000001}},{"attributes":{"ID":127808,"DIS_CODE":0,"TOWNNAME":"將軍區","LI":"忠興里","LIN":"1鄰","STREET":" ","SECT":" ","MAREA":"忠興","LANE":" ","ALLEY":" ","HOUSE_NO":"１之６號","E_COORD97":163829.07000000001,"N_COORD97":2566523.5699999998,"ADDRESS":"忠興１之６號","OBJECTID":127808},"geometry":{"x":163829.0700000003,"y":2566523.5700000022}},{"attributes":{"ID":127809,"DIS_CODE":0,"TOWNNAME":"將軍區","LI":"忠興里","LIN":"1鄰","STREET":" ","SECT":" ","MAREA":"忠興","LANE":" ","ALLEY":" ","HOUSE_NO":"１之８號","E_COORD97":163836.26000000001,"N_COORD97":2566535.6499999999,"ADDRESS":"忠興１之８號","OBJECTID":127809},"geometry":{"x":163836.26000000071,"y":2566535.6500000041}},{"attributes":{"ID":127810,"DIS_CODE":0,"TOWNNAME":"將軍區","LI":"忠興里","LIN":"1鄰","STREET":" ","SECT":" ","MAREA":"忠興","LANE":" ","ALLEY":" ","HOUSE_NO":"１之９號","E_COORD97":163835.10000000001,"N_COORD97":2566540.2400000002,"ADDRESS":"忠興１之９號","OBJECTID":127810},"geometry":{"x":163835.09999999963,"y":2566540.2400000002}},{"attributes":{"ID":127811,"DIS_CODE":0,"TOWNNAME":"將軍區","LI":"忠興里","LIN":"1鄰","STREET":" ","SECT":" ","MAREA":"忠興","LANE":" ","ALLEY":" ","HOUSE_NO":"１號","E_COORD97":163815.85999999999,"N_COORD97":2566540.3599999999,"ADDRESS":"忠興１號","OBJECTID":127811},"geometry":{"x":163815.86000000127,"y":2566540.3600000013}},{"attributes":{"ID":127812,"DIS_CODE":0,"TOWNNAME":"將軍區","LI":"忠興里","LIN":"1鄰","STREET":" ","SECT":" ","MAREA":"忠興","LANE":" ","ALLEY":" ","HOUSE_NO":"２１號","E_COORD97":163829.06,"N_COORD97":2566619.4700000002,"ADDRESS":"忠興２１號","OBJECTID":127812},"geometry":{"x":163829.06000000052,"y":2566619.4700000025}},{"attributes":{"ID":127813,"DIS_CODE":0,"TOWNNAME":"將軍區","LI":"忠興里","LIN":"1鄰","STREET":" ","SECT":" ","MAREA":"忠興","LANE":" ","ALLEY":" ","HOUSE_NO":"２２號","E_COORD97":163827.76999999999,"N_COORD97":2566632.3300000001,"ADDRESS":"忠興２２號","OBJECTID":127813},"geometry":{"x":163827.77000000048,"y":2566632.3299999982}},{"attributes":{"ID":127814,"DIS_CODE":0,"TOWNNAME":"將軍區","LI":"忠興里","LIN":"1鄰","STREET":" ","SECT":" ","MAREA":"忠興","LANE":" ","ALLEY":" ","HOUSE_NO":"２３號","E_COORD97":163828.85999999999,"N_COORD97":2566654.3300000001,"ADDRESS":"忠興２３號","OBJECTID":127814},"geometry":{"x":163828.86000000034,"y":2566654.3300000019}},{"attributes":{"ID":127815,"DIS_CODE":0,"TOWNNAME":"將軍區","LI":"忠興里","LIN":"1鄰","STREET":" ","SECT":" ","MAREA":"忠興","LANE":" ","ALLEY":" ","HOUSE_NO":"２４號","E_COORD97":163828.72,"N_COORD97":2566658.1800000002,"ADDRESS":"忠興２４號","OBJECTID":127815},"geometry":{"x":163828.71999999974,"y":2566658.1800000016}},{"attributes":{"ID":127816,"DIS_CODE":0,"TOWNNAME":"將軍區","LI":"忠興里","LIN":"1鄰","STREET":" ","SECT":" ","MAREA":"忠興","LANE":" ","ALLEY":" ","HOUSE_NO":"２５之１號","E_COORD97":163829.57999999999,"N_COORD97":2566664.8900000001,"ADDRESS":"忠興２５之１號","OBJECTID":127816},"geometry":{"x":163829.58000000101,"y":2566664.8900000006}},{"attributes":{"ID":127817,"DIS_CODE":0,"TOWNNAME":"將軍區","LI":"忠興里","LIN":"1鄰","STREET":" ","SECT":" ","MAREA":"忠興","LANE":" ","ALLEY":" ","HOUSE_NO":"２５之２號","E_COORD97":163829.26999999999,"N_COORD97":2566668.4199999999,"ADDRESS":"忠興２５之２號","OBJECTID":127817},"geometry":{"x":163829.27000000048,"y":2566668.4199999999}},{"attributes":{"ID":127818,"DIS_CODE":0,"TOWNNAME":"將軍區","LI":"忠興里","LIN":"1鄰","STREET":" ","SECT":" ","MAREA":"忠興","LANE":" ","ALLEY":" ","HOUSE_NO":"２５號","E_COORD97":163828.89000000001,"N_COORD97":2566661.3100000001,"ADDRESS":"忠興２５號","OBJECTID":127818},"geometry":{"x":163828.8900000006,"y":2566661.3100000024}},{"attributes":{"ID":127819,"DIS_CODE":0,"TOWNNAME":"將軍區","LI":"忠興里","LIN":"19鄰","STREET":" ","SECT":" ","MAREA":"忠興","LANE":" ","ALLEY":" ","HOUSE_NO":"２０３號","E_COORD97":163922.60000000001,"N_COORD97":2566561.8300000001,"ADDRESS":"忠興２０３號","OBJECTID":127819},"geometry":{"x":163922.59999999963,"y":2566561.8300000019}},{"attributes":{"ID":127820,"DIS_CODE":0,"TOWNNAME":"將軍區","LI":"忠興里","LIN":"19鄰","STREET":" ","SECT":" ","MAREA":"忠興","LANE":" ","ALLEY":" ","HOUSE_NO":"２０４之１號","E_COORD97":163920.07000000001,"N_COORD97":2566601.0099999998,"ADDRESS":"忠興２０４之１號","OBJECTID":127820},"geometry":{"x":163920.07000000123,"y":2566601.0100000016}},{"attributes":{"ID":127821,"DIS_CODE":0,"TOWNNAME":"將軍區","LI":"忠興里","LIN":"19鄰","STREET":" ","SECT":" ","MAREA":"忠興","LANE":" ","ALLEY":" ","HOUSE_NO":"２０４之３號","E_COORD97":163938.44,"N_COORD97":2566600.21,"ADDRESS":"忠興２０４之３號","OBJECTID":127821},"geometry":{"x":163938.44000000041,"y":2566600.2100000046}},{"attributes":{"ID":127822,"DIS_CODE":0,"TOWNNAME":"將軍區","LI":"忠興里","LIN":"19鄰","STREET":" ","SECT":" ","MAREA":"忠興","LANE":" ","ALLEY":" ","HOUSE_NO":"２０４號","E_COORD97":163936.79999999999,"N_COORD97":2566619.21,"ADDRESS":"忠興２０４號","OBJECTID":127822},"geometry":{"x":163936.79999999981,"y":2566619.2100000009}},{"attributes":{"ID":127823,"DIS_CODE":0,"TOWNNAME":"將軍區","LI":"忠興里","LIN":"4鄰","STREET":" ","SECT":" ","MAREA":"忠興","LANE":" ","ALLEY":" ","HOUSE_NO":"５１之１號","E_COORD97":163729.78,"N_COORD97":2566872.5499999998,"ADDRESS":"忠興５１之１號","OBJECTID":127823},"geometry":{"x":163729.78000000119,"y":2566872.5500000045}},{"attributes":{"ID":127824,"DIS_CODE":0,"TOWNNAME":"將軍區","LI":"忠興里","LIN":"4鄰","STREET":" ","SECT":" ","MAREA":"忠興","LANE":" ","ALLEY":" ","HOUSE_NO":"５１之３號","E_COORD97":163720.41,"N_COORD97":2566868.5299999998,"ADDRESS":"忠興５１之３號","OBJECTID":127824},"geometry":{"x":163720.41000000108,"y":2566868.5300000012}},{"attributes":{"ID":127825,"DIS_CODE":0,"TOWNNAME":"將軍區","LI":"忠興里","LIN":"4鄰","STREET":" ","SECT":" ","MAREA":"忠興","LANE":" ","ALLEY":" ","HOUSE_NO":"５２號","E_COORD97":163744.35999999999,"N_COORD97":2566874.02,"ADDRESS":"忠興５２號","OBJECTID":127825},"geometry":{"x":163744.3600000022,"y":2566874.0199999996}},{"attributes":{"ID":127826,"DIS_CODE":0,"TOWNNAME":"將軍區","LI":"忠興里","LIN":"4鄰","STREET":" ","SECT":" ","MAREA":"忠興","LANE":" ","ALLEY":" ","HOUSE_NO":"５３之１號","E_COORD97":163764.55646600001,"N_COORD97":2566904.8510500002,"ADDRESS":"忠興５３之１號","OBJECTID":127826},"geometry":{"x":163764.55646600109,"y":2566904.8510529995}},{"attributes":{"ID":127827,"DIS_CODE":0,"TOWNNAME":"將軍區","LI":"忠興里","LIN":"4鄰","STREET":" ","SECT":" ","MAREA":"忠興","LANE":" ","ALLEY":" ","HOUSE_NO":"５５號","E_COORD97":163814.67999999999,"N_COORD97":2566901.04,"ADDRESS":"忠興５５號","OBJECTID":127827},"geometry":{"x":163814.68000000063,"y":2566901.0399999972}},{"attributes":{"ID":127828,"DIS_CODE":0,"TOWNNAME":"將軍區","LI":"忠興里","LIN":"4鄰","STREET":" ","SECT":" ","MAREA":"忠興","LANE":" ","ALLEY":" ","HOUSE_NO":"５７號","E_COORD97":163745.54000000001,"N_COORD97":2566898.9399999999,"ADDRESS":"忠興５７號","OBJECTID":127828},"geometry":{"x":163745.54000000004,"y":2566898.9400000032}},{"attributes":{"ID":127829,"DIS_CODE":0,"TOWNNAME":"將軍區","LI":"忠興里","LIN":"4鄰","STREET":" ","SECT":" ","MAREA":"忠興","LANE":" ","ALLEY":" ","HOUSE_NO":"５８號","E_COORD97":163727.19,"N_COORD97":2566894.8599999999,"ADDRESS":"忠興５８號","OBJECTID":127829},"geometry":{"x":163727.19000000134,"y":2566894.8599999994}},{"attributes":{"ID":127830,"DIS_CODE":0,"TOWNNAME":"將軍區","LI":"忠興里","LIN":"5鄰","STREET":" ","SECT":" ","MAREA":"忠興","LANE":" ","ALLEY":" ","HOUSE_NO":"６０之１號","E_COORD97":163700.35999999999,"N_COORD97":2566883.5800000001,"ADDRESS":"忠興６０之１號","OBJECTID":127830},"geometry":{"x":163700.3600000022,"y":2566883.5800000001}},{"attributes":{"ID":127831,"DIS_CODE":0,"TOWNNAME":"將軍區","LI":"忠興里","LIN":"1鄰","STREET":" ","SECT":" ","MAREA":"忠興","LANE":" ","ALLEY":" ","HOUSE_NO":"４之１號","E_COORD97":163835.51999999999,"N_COORD97":2566570.96,"ADDRESS":"忠興４之１號","OBJECTID":127831},"geometry":{"x":163835.51999999955,"y":2566570.9600000009}},{"attributes":{"ID":127832,"DIS_CODE":0,"TOWNNAME":"將軍區","LI":"忠興里","LIN":"1鄰","STREET":" ","SECT":" ","MAREA":"忠興","LANE":" ","ALLEY":" ","HOUSE_NO":"４號","E_COORD97":163835.26000000001,"N_COORD97":2566566.5099999998,"ADDRESS":"忠興４號","OBJECTID":127832},"geometry":{"x":163835.25999999978,"y":2566566.5100000035}},{"attributes":{"ID":127833,"DIS_CODE":0,"TOWNNAME":"將軍區","LI":"忠興里","LIN":"1鄰","STREET":" ","SECT":" ","MAREA":"忠興","LANE":" ","ALLEY":" ","HOUSE_NO":"５之１０號","E_COORD97":163810.20999999999,"N_COORD97":2566547.4500000002,"ADDRESS":"忠興５之１０號","OBJECTID":127833},"geometry":{"x":163810.21000000089,"y":2566547.4500000011}},{"attributes":{"ID":127834,"DIS_CODE":0,"TOWNNAME":"將軍區","LI":"忠興里","LIN":"1鄰","STREET":" ","SECT":" ","MAREA":"忠興","LANE":" ","ALLEY":" ","HOUSE_NO":"５之１１號","E_COORD97":163788.60999999999,"N_COORD97":2566584.4399999999,"ADDRESS":"忠興５之１１號","OBJECTID":127834},"geometry":{"x":163788.61000000127,"y":2566584.4400000013}},{"attributes":{"ID":127835,"DIS_CODE":0,"TOWNNAME":"將軍區","LI":"忠興里","LIN":"1鄰","STREET":" ","SECT":" ","MAREA":"忠興","LANE":" ","ALLEY":" ","HOUSE_NO":"５之１２號","E_COORD97":163793.92000000001,"N_COORD97":2566585.0600000001,"ADDRESS":"忠興５之１２號","OBJECTID":127835},"geometry":{"x":163793.91999999993,"y":2566585.0600000024}},{"attributes":{"ID":127836,"DIS_CODE":0,"TOWNNAME":"關廟區","LI":"關廟里","LIN":"11鄰","STREET":"大富街","SECT":" ","MAREA":" ","LANE":"３０１巷","ALLEY":"７弄","HOUSE_NO":"２５號","E_COORD97":181023.39000000001,"N_COORD97":2539661.1499999999,"ADDRESS":"大富街３０１巷７弄２５號","OBJECTID":127836},"geometry":{"x":181023.3900000006,"y":2539661.1500000022}},{"attributes":{"ID":127837,"DIS_CODE":0,"TOWNNAME":"關廟區","LI":"關廟里","LIN":"11鄰","STREET":"大富街","SECT":" ","MAREA":" ","LANE":"３０１巷","ALLEY":"７弄","HOUSE_NO":"１７號","E_COORD97":181019.98999999999,"N_COORD97":2539679.1499999999,"ADDRESS":"大富街３０１巷７弄１７號","OBJECTID":127837},"geometry":{"x":181019.99000000022,"y":2539679.1500000004}},{"attributes":{"ID":127838,"DIS_CODE":0,"TOWNNAME":"將軍區","LI":"忠興里","LIN":"1鄰","STREET":" ","SECT":" ","MAREA":"忠興","LANE":" ","ALLEY":" ","HOUSE_NO":"５之１３號","E_COORD97":163798.73000000001,"N_COORD97":2566585.8199999998,"ADDRESS":"忠興５之１３號","OBJECTID":127838},"geometry":{"x":163798.73000000138,"y":2566585.8200000022}},{"attributes":{"ID":127839,"DIS_CODE":0,"TOWNNAME":"將軍區","LI":"忠興里","LIN":"1鄰","STREET":" ","SECT":" ","MAREA":"忠興","LANE":" ","ALLEY":" ","HOUSE_NO":"５之１４號","E_COORD97":163803.07000000001,"N_COORD97":2566586.5299999998,"ADDRESS":"忠興５之１４號","OBJECTID":127839},"geometry":{"x":163803.07000000123,"y":2566586.5300000031}},{"attributes":{"ID":127840,"DIS_CODE":0,"TOWNNAME":"中西區","LI":"青年里","LIN":"6鄰","STREET":"衛民街","SECT":" ","MAREA":" ","LANE":" ","ALLEY":" ","HOUSE_NO":"８９號二樓","E_COORD97":168928.98000000001,"N_COORD97":2543699.25,"ADDRESS":"衛民街８９號二樓","OBJECTID":127840},"geometry":{"x":168928.98000000045,"y":2543699.25}},{"attributes":{"ID":127841,"DIS_CODE":0,"TOWNNAME":"關廟區","LI":"關廟里","LIN":"11鄰","STREET":"大富街","SECT":" ","MAREA":" ","LANE":"３０１巷","ALLEY":"７弄","HOUSE_NO":"３９號","E_COORD97":181030.29000000001,"N_COORD97":2539630.1499999999,"ADDRESS":"大富街３０１巷７弄３９號","OBJECTID":127841},"geometry":{"x":181030.28999999911,"y":2539630.1500000022}},{"attributes":{"ID":127842,"DIS_CODE":0,"TOWNNAME":"關廟區","LI":"關廟里","LIN":"11鄰","STREET":"大富街","SECT":" ","MAREA":" ","LANE":"３０１巷","ALLEY":"７弄","HOUSE_NO":"４７號","E_COORD97":181031.48999999999,"N_COORD97":2539614.1499999999,"ADDRESS":"大富街３０１巷７弄４７號","OBJECTID":127842},"geometry":{"x":181031.49000000115,"y":2539614.1500000022}},{"attributes":{"ID":127843,"DIS_CODE":0,"TOWNNAME":"關廟區","LI":"關廟里","LIN":"11鄰","STREET":"大富街","SECT":" ","MAREA":" ","LANE":"３０１巷","ALLEY":"７弄","HOUSE_NO":"５３號","E_COORD97":181032.19,"N_COORD97":2539602.1499999999,"ADDRESS":"大富街３０１巷７弄５３號","OBJECTID":127843},"geometry":{"x":181032.19000000134,"y":2539602.1500000004}},{"attributes":{"ID":127844,"DIS_CODE":0,"TOWNNAME":"關廟區","LI":"南花里","LIN":"11鄰","STREET":"明德街","SECT":" ","MAREA":" ","LANE":"１５巷","ALLEY":"９弄","HOUSE_NO":"５號","E_COORD97":181829.34,"N_COORD97":2540026.27,"ADDRESS":"明德街１５巷９弄５號","OBJECTID":127844},"geometry":{"x":181829.33999999985,"y":2540026.2700000014}},{"attributes":{"ID":127845,"DIS_CODE":0,"TOWNNAME":"關廟區","LI":"關廟里","LIN":"11鄰","STREET":"大富街","SECT":" ","MAREA":" ","LANE":"３０１巷","ALLEY":"７弄","HOUSE_NO":"４９號","E_COORD97":181032.19,"N_COORD97":2539610.1499999999,"ADDRESS":"大富街３０１巷７弄４９號","OBJECTID":127845},"geometry":{"x":181032.19000000134,"y":2539610.1500000022}},{"attributes":{"ID":127846,"DIS_CODE":0,"TOWNNAME":"關廟區","LI":"關廟里","LIN":"11鄰","STREET":"大富街","SECT":" ","MAREA":" ","LANE":"３０１巷","ALLEY":"７弄","HOUSE_NO":"２６號","E_COORD97":181015.69,"N_COORD97":2539650.1499999999,"ADDRESS":"大富街３０１巷７弄２６號","OBJECTID":127846},"geometry":{"x":181015.69000000041,"y":2539650.1500000041}},{"attributes":{"ID":127847,"DIS_CODE":0,"TOWNNAME":"關廟區","LI":"埤頭里","LIN":"11鄰","STREET":"關新路","SECT":"二段","MAREA":" ","LANE":"１０３巷","ALLEY":"６７弄","HOUSE_NO":"２２號","E_COORD97":178928.12,"N_COORD97":2544247.2999999998,"ADDRESS":"關新路二段１０３巷６７弄２２號","OBJECTID":127847},"geometry":{"x":178928.12000000104,"y":2544247.3000000026}},{"attributes":{"ID":127848,"DIS_CODE":0,"TOWNNAME":"關廟區","LI":"關廟里","LIN":"11鄰","STREET":"大富街","SECT":" ","MAREA":" ","LANE":"３０１巷","ALLEY":"７弄","HOUSE_NO":"４０號","E_COORD97":181018.39000000001,"N_COORD97":2539618.1499999999,"ADDRESS":"大富街３０１巷７弄４０號","OBJECTID":127848},"geometry":{"x":181018.38999999966,"y":2539618.1500000004}},{"attributes":{"ID":127849,"DIS_CODE":0,"TOWNNAME":"關廟區","LI":"埤頭里","LIN":"11鄰","STREET":"關新路","SECT":"二段","MAREA":" ","LANE":"１０３巷","ALLEY":"６７弄","HOUSE_NO":"１９號","E_COORD97":178954.32000000001,"N_COORD97":2544235.25,"ADDRESS":"關新路二段１０３巷６７弄１９號","OBJECTID":127849},"geometry":{"x":178954.32000000123,"y":2544235.25}},{"attributes":{"ID":127850,"DIS_CODE":0,"TOWNNAME":"關廟區","LI":"關廟里","LIN":"11鄰","STREET":"大富街","SECT":" ","MAREA":" ","LANE":"３０１巷","ALLEY":"７弄","HOUSE_NO":"４５號","E_COORD97":181031.09,"N_COORD97":2539618.1499999999,"ADDRESS":"大富街３０１巷７弄４５號","OBJECTID":127850},"geometry":{"x":181031.08999999985,"y":2539618.1500000004}},{"attributes":{"ID":127851,"DIS_CODE":0,"TOWNNAME":"關廟區","LI":"關廟里","LIN":"11鄰","STREET":"大富街","SECT":" ","MAREA":" ","LANE":"３０１巷","ALLEY":"７弄","HOUSE_NO":"５５號","E_COORD97":181032.59,"N_COORD97":2539598.1499999999,"ADDRESS":"大富街３０１巷７弄５５號","OBJECTID":127851},"geometry":{"x":181032.58999999985,"y":2539598.1500000004}},{"attributes":{"ID":127852,"DIS_CODE":0,"TOWNNAME":"關廟區","LI":"關廟里","LIN":"11鄰","STREET":"大富街","SECT":" ","MAREA":" ","LANE":"３０１巷","ALLEY":"７弄","HOUSE_NO":"４８號","E_COORD97":181019.59,"N_COORD97":2539607.1499999999,"ADDRESS":"大富街３０１巷７弄４８號","OBJECTID":127852},"geometry":{"x":181019.58999999892,"y":2539607.1500000022}},{"attributes":{"ID":127853,"DIS_CODE":0,"TOWNNAME":"關廟區","LI":"關廟里","LIN":"11鄰","STREET":"大富街","SECT":" ","MAREA":" ","LANE":"３０１巷","ALLEY":"７弄","HOUSE_NO":"４２號","E_COORD97":181018.79000000001,"N_COORD97":2539614.1499999999,"ADDRESS":"大富街３０１巷７弄４２號","OBJECTID":127853},"geometry":{"x":181018.79000000097,"y":2539614.1500000022}},{"attributes":{"ID":127854,"DIS_CODE":0,"TOWNNAME":"關廟區","LI":"關廟里","LIN":"11鄰","STREET":"大富街","SECT":" ","MAREA":" ","LANE":"３０１巷","ALLEY":"７弄","HOUSE_NO":"３３號","E_COORD97":181026.09,"N_COORD97":2539647.1499999999,"ADDRESS":"大富街３０１巷７弄３３號","OBJECTID":127854},"geometry":{"x":181026.08999999985,"y":2539647.1500000022}},{"attributes":{"ID":127855,"DIS_CODE":0,"TOWNNAME":"中西區","LI":"青年里","LIN":"6鄰","STREET":"衛民街","SECT":" ","MAREA":" ","LANE":" ","ALLEY":" ","HOUSE_NO":"８９號三樓","E_COORD97":168928.98000000001,"N_COORD97":2543699.25,"ADDRESS":"衛民街８９號三樓","OBJECTID":127855},"geometry":{"x":168928.98000000045,"y":2543699.25}},{"attributes":{"ID":127856,"DIS_CODE":0,"TOWNNAME":"中西區","LI":"青年里","LIN":"6鄰","STREET":"衛民街","SECT":" ","MAREA":" ","LANE":" ","ALLEY":" ","HOUSE_NO":"８９號五樓","E_COORD97":168928.98000000001,"N_COORD97":2543699.25,"ADDRESS":"衛民街８９號五樓","OBJECTID":127856},"geometry":{"x":168928.98000000045,"y":2543699.25}},{"attributes":{"ID":127857,"DIS_CODE":0,"TOWNNAME":"中西區","LI":"青年里","LIN":"6鄰","STREET":"衛民街","SECT":" ","MAREA":" ","LANE":" ","ALLEY":" ","HOUSE_NO":"８９號六樓","E_COORD97":168928.98000000001,"N_COORD97":2543699.25,"ADDRESS":"衛民街８９號六樓","OBJECTID":127857},"geometry":{"x":168928.98000000045,"y":2543699.25}},{"attributes":{"ID":127858,"DIS_CODE":0,"TOWNNAME":"中西區","LI":"青年里","LIN":"6鄰","STREET":"衛民街","SECT":" ","MAREA":" ","LANE":" ","ALLEY":" ","HOUSE_NO":"８９號四樓","E_COORD97":168928.98000000001,"N_COORD97":2543699.25,"ADDRESS":"衛民街８９號四樓","OBJECTID":127858},"geometry":{"x":168928.98000000045,"y":2543699.25}},{"attributes":{"ID":127859,"DIS_CODE":0,"TOWNNAME":"永康區","LI":"永康里","LIN":"14鄰","STREET":"永中街","SECT":" ","MAREA":" ","LANE":" ","ALLEY":" ","HOUSE_NO":"４６號","E_COORD97":173899.53,"N_COORD97":2547134.6200000001,"ADDRESS":"永中街４６號","OBJECTID":127859},"geometry":{"x":173899.53000000119,"y":2547134.6200000029}},{"attributes":{"ID":127860,"DIS_CODE":0,"TOWNNAME":"永康區","LI":"崑山里","LIN":"18鄰","STREET":"大灣路","SECT":" ","MAREA":" ","LANE":" ","ALLEY":" ","HOUSE_NO":"９１２號","E_COORD97":173693.34,"N_COORD97":2544441.6299999999,"ADDRESS":"大灣路９１２號","OBJECTID":127860},"geometry":{"x":173693.34000000078,"y":2544441.629999999}},{"attributes":{"ID":127861,"DIS_CODE":0,"TOWNNAME":"永康區","LI":"復華里","LIN":"39鄰","STREET":"復華七街","SECT":" ","MAREA":" ","LANE":" ","ALLEY":" ","HOUSE_NO":"３８號","E_COORD97":172676.41,"N_COORD97":2545987.77,"ADDRESS":"復華七街３８號","OBJECTID":127861},"geometry":{"x":172676.41000000108,"y":2545987.7699999996}},{"attributes":{"ID":127862,"DIS_CODE":0,"TOWNNAME":"永康區","LI":"網寮里","LIN":"18鄰","STREET":"永勝街","SECT":" ","MAREA":" ","LANE":" ","ALLEY":" ","HOUSE_NO":"４１號","E_COORD97":173573.04999999999,"N_COORD97":2546302.5099999998,"ADDRESS":"永勝街４１號","OBJECTID":127862},"geometry":{"x":173573.05000000168,"y":2546302.5100000035}},{"attributes":{"ID":127863,"DIS_CODE":0,"TOWNNAME":"永康區","LI":"東灣里","LIN":"26鄰","STREET":"大灣東路","SECT":" ","MAREA":" ","LANE":" ","ALLEY":" ","HOUSE_NO":"４１６號","E_COORD97":175256.45999999999,"N_COORD97":2544700.4900000002,"ADDRESS":"大灣東路４１６號","OBJECTID":127863},"geometry":{"x":175256.45999999996,"y":2544700.4900000021}},{"attributes":{"ID":127864,"DIS_CODE":0,"TOWNNAME":"永康區","LI":"西灣里","LIN":"18鄰","STREET":"民族路","SECT":" ","MAREA":" ","LANE":" ","ALLEY":" ","HOUSE_NO":"４７８號","E_COORD97":174600.56,"N_COORD97":2545447.5699999998,"ADDRESS":"民族路４７８號","OBJECTID":127864},"geometry":{"x":174600.56000000052,"y":2545447.5700000003}},{"attributes":{"ID":127865,"DIS_CODE":0,"TOWNNAME":"永康區","LI":"甲頂里","LIN":"26鄰","STREET":"小北路","SECT":" ","MAREA":" ","LANE":" ","ALLEY":" ","HOUSE_NO":"９１號","E_COORD97":169622.73000000001,"N_COORD97":2546934.6400000001,"ADDRESS":"小北路９１號","OBJECTID":127865},"geometry":{"x":169622.73000000231,"y":2546934.6400000006}},{"attributes":{"ID":127866,"DIS_CODE":0,"TOWNNAME":"永康區","LI":"網寮里","LIN":"26鄰","STREET":"永吉路","SECT":" ","MAREA":" ","LANE":" ","ALLEY":" ","HOUSE_NO":"１４４號","E_COORD97":173970.84,"N_COORD97":2546549.0600000001,"ADDRESS":"永吉路１４４號","OBJECTID":127866},"geometry":{"x":173970.83999999985,"y":2546549.0600000005}},{"attributes":{"ID":127867,"DIS_CODE":0,"TOWNNAME":"永康區","LI":"北灣里","LIN":"41鄰","STREET":"信義二街","SECT":" ","MAREA":" ","LANE":" ","ALLEY":" ","HOUSE_NO":"７８號","E_COORD97":175037.39000000001,"N_COORD97":2545744.0600000001,"ADDRESS":"信義二街７８號","OBJECTID":127867},"geometry":{"x":175037.3900000006,"y":2545744.0600000024}},{"attributes":{"ID":127868,"DIS_CODE":0,"TOWNNAME":"永康區","LI":"北灣里","LIN":"18鄰","STREET":"文賢街","SECT":" ","MAREA":" ","LANE":" ","ALLEY":" ","HOUSE_NO":"４１０號","E_COORD97":174744.48000000001,"N_COORD97":2545815.7000000002,"ADDRESS":"文賢街４１０號","OBJECTID":127868},"geometry":{"x":174744.48000000138,"y":2545815.700000003}},{"attributes":{"ID":127869,"DIS_CODE":0,"TOWNNAME":"將軍區","LI":"嘉昌里","LIN":"13鄰","STREET":" ","SECT":" ","MAREA":"昌平","LANE":" ","ALLEY":" ","HOUSE_NO":"１之６號","E_COORD97":162818.07999999999,"N_COORD97":2567231.9700000002,"ADDRESS":"昌平１之６號","OBJECTID":127869},"geometry":{"x":162818.08000000007,"y":2567231.9700000007}},{"attributes":{"ID":127870,"DIS_CODE":0,"TOWNNAME":"將軍區","LI":"嘉昌里","LIN":"13鄰","STREET":" ","SECT":" ","MAREA":"昌平","LANE":" ","ALLEY":" ","HOUSE_NO":"１號","E_COORD97":163162.44,"N_COORD97":2567331.1800000002,"ADDRESS":"昌平１號","OBJECTID":127870},"geometry":{"x":163162.44000000227,"y":2567331.1799999997}},{"attributes":{"ID":127871,"DIS_CODE":0,"TOWNNAME":"白河區","LI":"廣安里","LIN":"3鄰","STREET":" ","SECT":" ","MAREA":"枋子林","LANE":" ","ALLEY":" ","HOUSE_NO":"１１之５號","E_COORD97":189074.17999999999,"N_COORD97":2587406.52,"ADDRESS":"枋子林１１之５號","OBJECTID":127871},"geometry":{"x":189074.1799999997,"y":2587406.5199999996}},{"attributes":{"ID":127872,"DIS_CODE":0,"TOWNNAME":"將軍區","LI":"嘉昌里","LIN":"13鄰","STREET":" ","SECT":" ","MAREA":"昌平","LANE":" ","ALLEY":" ","HOUSE_NO":"５之８號","E_COORD97":163225.10000000001,"N_COORD97":2567306.52,"ADDRESS":"昌平５之８號","OBJECTID":127872},"geometry":{"x":163225.10000000149,"y":2567306.5200000014}},{"attributes":{"ID":127873,"DIS_CODE":0,"TOWNNAME":"將軍區","LI":"長沙里","LIN":"13鄰","STREET":" ","SECT":" ","MAREA":"長沙","LANE":" ","ALLEY":" ","HOUSE_NO":"１０７號","E_COORD97":157182.95000000001,"N_COORD97":2568628.96,"ADDRESS":"長沙１０７號","OBJECTID":127873},"geometry":{"x":157182.95000000019,"y":2568628.9600000009}},{"attributes":{"ID":127874,"DIS_CODE":0,"TOWNNAME":"仁德區","LI":"新田里","LIN":"6鄰","STREET":"勝利路","SECT":" ","MAREA":" ","LANE":" ","ALLEY":" ","HOUSE_NO":"２５５號","E_COORD97":174887.20999999999,"N_COORD97":2539422.5,"ADDRESS":"勝利路２５５號","OBJECTID":127874},"geometry":{"x":174887.20999999996,"y":2539422.5}},{"attributes":{"ID":127875,"DIS_CODE":0,"TOWNNAME":"仁德區","LI":"後壁里","LIN":"6鄰","STREET":"德善路","SECT":" ","MAREA":" ","LANE":" ","ALLEY":" ","HOUSE_NO":"１５９號","E_COORD97":173547.10000000001,"N_COORD97":2538831.5099999998,"ADDRESS":"德善路１５９號","OBJECTID":127875},"geometry":{"x":173547.10000000149,"y":2538831.5100000016}},{"attributes":{"ID":127876,"DIS_CODE":0,"TOWNNAME":"永康區","LI":"蔦松里","LIN":"6鄰","STREET":"蔦松一街","SECT":" ","MAREA":" ","LANE":" ","ALLEY":" ","HOUSE_NO":"２２６號","E_COORD97":173574.54000000001,"N_COORD97":2549783.4900000002,"ADDRESS":"蔦松一街２２６號","OBJECTID":127876},"geometry":{"x":173574.54000000004,"y":2549783.4900000002}},{"attributes":{"ID":127877,"DIS_CODE":0,"TOWNNAME":"永康區","LI":"復興里","LIN":"6鄰","STREET":"復興路","SECT":" ","MAREA":" ","LANE":" ","ALLEY":" ","HOUSE_NO":"３７７號","E_COORD97":172152.89000000001,"N_COORD97":2544312.4399999999,"ADDRESS":"復興路３７７號","OBJECTID":127877},"geometry":{"x":172152.88999999966,"y":2544312.4400000032}},{"attributes":{"ID":127878,"DIS_CODE":0,"TOWNNAME":"永康區","LI":"復國里","LIN":"6鄰","STREET":"復國一路","SECT":" ","MAREA":" ","LANE":" ","ALLEY":" ","HOUSE_NO":"１００號","E_COORD97":172720.29000000001,"N_COORD97":2544953.46,"ADDRESS":"復國一路１００號","OBJECTID":127878},"geometry":{"x":172720.29000000004,"y":2544953.4600000009}},{"attributes":{"ID":127879,"DIS_CODE":0,"TOWNNAME":"關廟區","LI":"關廟里","LIN":"11鄰","STREET":"大富街","SECT":" ","MAREA":" ","LANE":"３０１巷","ALLEY":"７弄","HOUSE_NO":"２３號","E_COORD97":181022.59,"N_COORD97":2539665.1499999999,"ADDRESS":"大富街３０１巷７弄２３號","OBJECTID":127879},"geometry":{"x":181022.58999999985,"y":2539665.1500000022}},{"attributes":{"ID":127880,"DIS_CODE":0,"TOWNNAME":"關廟區","LI":"關廟里","LIN":"11鄰","STREET":"大富街","SECT":" ","MAREA":" ","LANE":"３０１巷","ALLEY":"７弄","HOUSE_NO":"５２號","E_COORD97":181020.29000000001,"N_COORD97":2539599.1499999999,"ADDRESS":"大富街３０１巷７弄５２號","OBJECTID":127880},"geometry":{"x":181020.2900000019,"y":2539599.1500000041}},{"attributes":{"ID":127881,"DIS_CODE":0,"TOWNNAME":"關廟區","LI":"關廟里","LIN":"11鄰","STREET":"大富街","SECT":" ","MAREA":" ","LANE":"３０１巷","ALLEY":"７弄","HOUSE_NO":"２９號","E_COORD97":181024.89000000001,"N_COORD97":2539654.1499999999,"ADDRESS":"大富街３０１巷７弄２９號","OBJECTID":127881},"geometry":{"x":181024.8900000006,"y":2539654.1500000022}},{"attributes":{"ID":127882,"DIS_CODE":0,"TOWNNAME":"關廟區","LI":"埤頭里","LIN":"11鄰","STREET":"關新路","SECT":"二段","MAREA":" ","LANE":"５１巷","ALLEY":"６８弄","HOUSE_NO":"３７號","E_COORD97":178926.32000000001,"N_COORD97":2544269.25,"ADDRESS":"關新路二段５１巷６８弄３７號","OBJECTID":127882},"geometry":{"x":178926.3200000003,"y":2544269.25}},{"attributes":{"ID":127883,"DIS_CODE":0,"TOWNNAME":"關廟區","LI":"關廟里","LIN":"11鄰","STREET":"大富街","SECT":" ","MAREA":" ","LANE":"３０１巷","ALLEY":"７弄","HOUSE_NO":"３１號","E_COORD97":181025.29000000001,"N_COORD97":2539651.1499999999,"ADDRESS":"大富街３０１巷７弄３１號","OBJECTID":127883},"geometry":{"x":181025.2900000019,"y":2539651.1500000022}},{"attributes":{"ID":127884,"DIS_CODE":0,"TOWNNAME":"關廟區","LI":"松腳里","LIN":"11鄰","STREET":"和平路","SECT":" ","MAREA":" ","LANE":"１８６巷","ALLEY":"１１弄","HOUSE_NO":"８號","E_COORD97":181777.39000000001,"N_COORD97":2539679.25,"ADDRESS":"和平路１８６巷１１弄８號","OBJECTID":127884},"geometry":{"x":181777.3900000006,"y":2539679.2499999981}},{"attributes":{"ID":127885,"DIS_CODE":0,"TOWNNAME":"關廟區","LI":"關廟里","LIN":"11鄰","STREET":"大富街","SECT":" ","MAREA":" ","LANE":"３０１巷","ALLEY":"７弄","HOUSE_NO":"５８號","E_COORD97":181021.09,"N_COORD97":2539591.1499999999,"ADDRESS":"大富街３０１巷７弄５８號","OBJECTID":127885},"geometry":{"x":181021.08999999985,"y":2539591.1500000004}},{"attributes":{"ID":127886,"DIS_CODE":0,"TOWNNAME":"關廟區","LI":"關廟里","LIN":"11鄰","STREET":"大富街","SECT":" ","MAREA":" ","LANE":"３０１巷","ALLEY":"７弄","HOUSE_NO":"２８號","E_COORD97":181016.09,"N_COORD97":2539645.1499999999,"ADDRESS":"大富街３０１巷７弄２８號","OBJECTID":127886},"geometry":{"x":181016.08999999985,"y":2539645.1500000004}},{"attributes":{"ID":127887,"DIS_CODE":0,"TOWNNAME":"關廟區","LI":"關廟里","LIN":"11鄰","STREET":"大富街","SECT":" ","MAREA":" ","LANE":"３０１巷","ALLEY":"７弄","HOUSE_NO":"１５號","E_COORD97":181019.19,"N_COORD97":2539683.1499999999,"ADDRESS":"大富街３０１巷７弄１５號","OBJECTID":127887},"geometry":{"x":181019.19000000041,"y":2539683.1500000004}},{"attributes":{"ID":127888,"DIS_CODE":0,"TOWNNAME":"七股區","LI":"大寮里","LIN":"5鄰","STREET":" ","SECT":" ","MAREA":"大寮","LANE":" ","ALLEY":" ","HOUSE_NO":"４０號","E_COORD97":163174.5,"N_COORD97":2560972.8799999999,"ADDRESS":"大寮４０號","OBJECTID":127888},"geometry":{"x":163174.5,"y":2560972.8800000008}},{"attributes":{"ID":127889,"DIS_CODE":0,"TOWNNAME":"關廟區","LI":"關廟里","LIN":"11鄰","STREET":"大富街","SECT":" ","MAREA":" ","LANE":"３０１巷","ALLEY":"７弄","HOUSE_NO":"３０號","E_COORD97":181017.29000000001,"N_COORD97":2539642.1499999999,"ADDRESS":"大富街３０１巷７弄３０號","OBJECTID":127889},"geometry":{"x":181017.29000000097,"y":2539642.1500000004}},{"attributes":{"ID":127890,"DIS_CODE":0,"TOWNNAME":"關廟區","LI":"關廟里","LIN":"11鄰","STREET":"大富街","SECT":" ","MAREA":" ","LANE":"３０１巷","ALLEY":"７弄","HOUSE_NO":"３７號","E_COORD97":181027.29000000001,"N_COORD97":2539639.1499999999,"ADDRESS":"大富街３０１巷７弄３７號","OBJECTID":127890},"geometry":{"x":181027.29000000097,"y":2539639.1500000004}},{"attributes":{"ID":127891,"DIS_CODE":0,"TOWNNAME":"關廟區","LI":"關廟里","LIN":"11鄰","STREET":"大富街","SECT":" ","MAREA":" ","LANE":"３０１巷","ALLEY":"７弄","HOUSE_NO":"５９號","E_COORD97":181032.59,"N_COORD97":2539590.1499999999,"ADDRESS":"大富街３０１巷７弄５９號","OBJECTID":127891},"geometry":{"x":181032.58999999985,"y":2539590.1500000022}},{"attributes":{"ID":127892,"DIS_CODE":0,"TOWNNAME":"關廟區","LI":"關廟里","LIN":"11鄰","STREET":"大富街","SECT":" ","MAREA":" ","LANE":"３０１巷","ALLEY":"７弄","HOUSE_NO":"２１號","E_COORD97":181022.29000000001,"N_COORD97":2539669.1499999999,"ADDRESS":"大富街３０１巷７弄２１號","OBJECTID":127892},"geometry":{"x":181022.29000000097,"y":2539669.1500000004}},{"attributes":{"ID":127893,"DIS_CODE":0,"TOWNNAME":"關廟區","LI":"松腳里","LIN":"11鄰","STREET":"和平路","SECT":" ","MAREA":" ","LANE":"１８６巷","ALLEY":"９弄","HOUSE_NO":"３號","E_COORD97":181750.73999999999,"N_COORD97":2539684.25,"ADDRESS":"和平路１８６巷９弄３號","OBJECTID":127893},"geometry":{"x":181750.74000000022,"y":2539684.2500000019}},{"attributes":{"ID":127894,"DIS_CODE":0,"TOWNNAME":"關廟區","LI":"松腳里","LIN":"11鄰","STREET":"和平路","SECT":" ","MAREA":" ","LANE":"１８６巷","ALLEY":"９弄","HOUSE_NO":"６號","E_COORD97":181759.64000000001,"N_COORD97":2539675.25,"ADDRESS":"和平路１８６巷９弄６號","OBJECTID":127894},"geometry":{"x":181759.63999999966,"y":2539675.25}},{"attributes":{"ID":127895,"DIS_CODE":0,"TOWNNAME":"關廟區","LI":"關廟里","LIN":"11鄰","STREET":"大富街","SECT":" ","MAREA":" ","LANE":"３０１巷","ALLEY":"７弄","HOUSE_NO":"１８號","E_COORD97":181013.39000000001,"N_COORD97":2539661.1499999999,"ADDRESS":"大富街３０１巷７弄１８號","OBJECTID":127895},"geometry":{"x":181013.38999999966,"y":2539661.1500000022}},{"attributes":{"ID":127896,"DIS_CODE":0,"TOWNNAME":"關廟區","LI":"關廟里","LIN":"11鄰","STREET":"大富街","SECT":" ","MAREA":" ","LANE":"３０１巷","ALLEY":"７弄","HOUSE_NO":"４１號","E_COORD97":181030.29000000001,"N_COORD97":2539626.1499999999,"ADDRESS":"大富街３０１巷７弄４１號","OBJECTID":127896},"geometry":{"x":181030.28999999911,"y":2539626.1499999985}},{"attributes":{"ID":127897,"DIS_CODE":0,"TOWNNAME":"關廟區","LI":"關廟里","LIN":"11鄰","STREET":"大富街","SECT":" ","MAREA":" ","LANE":"３０１巷","ALLEY":"７弄","HOUSE_NO":"９號","E_COORD97":181016.04000000001,"N_COORD97":2539695.1499999999,"ADDRESS":"大富街３０１巷７弄９號","OBJECTID":127897},"geometry":{"x":181016.04000000004,"y":2539695.1500000022}},{"attributes":{"ID":127898,"DIS_CODE":0,"TOWNNAME":"永康區","LI":"復國里","LIN":"6鄰","STREET":"復國一路","SECT":" ","MAREA":" ","LANE":" ","ALLEY":" ","HOUSE_NO":"１０６號","E_COORD97":172720.98000000001,"N_COORD97":2544966.9700000002,"ADDRESS":"復國一路１０６號","OBJECTID":127898},"geometry":{"x":172720.98000000045,"y":2544966.9700000007}},{"attributes":{"ID":127899,"DIS_CODE":0,"TOWNNAME":"將軍區","LI":"長沙里","LIN":"13鄰","STREET":" ","SECT":" ","MAREA":"長沙","LANE":" ","ALLEY":" ","HOUSE_NO":"１０８之１號","E_COORD97":157174.82000000001,"N_COORD97":2568604.0600000001,"ADDRESS":"長沙１０８之１號","OBJECTID":127899},"geometry":{"x":157174.82000000123,"y":2568604.0600000005}},{"attributes":{"ID":127900,"DIS_CODE":0,"TOWNNAME":"將軍區","LI":"長沙里","LIN":"13鄰","STREET":" ","SECT":" ","MAREA":"長沙","LANE":" ","ALLEY":" ","HOUSE_NO":"１０８之２號","E_COORD97":157171.37,"N_COORD97":2568605.2400000002,"ADDRESS":"長沙１０８之２號","OBJECTID":127900},"geometry":{"x":157171.37000000011,"y":2568605.2400000002}},{"attributes":{"ID":127901,"DIS_CODE":0,"TOWNNAME":"將軍區","LI":"長沙里","LIN":"13鄰","STREET":" ","SECT":" ","MAREA":"長沙","LANE":" ","ALLEY":" ","HOUSE_NO":"１０８之３號","E_COORD97":157167.38,"N_COORD97":2568607.0699999998,"ADDRESS":"長沙１０８之３號","OBJECTID":127901},"geometry":{"x":157167.37999999989,"y":2568607.0700000003}},{"attributes":{"ID":127902,"DIS_CODE":0,"TOWNNAME":"將軍區","LI":"長沙里","LIN":"13鄰","STREET":" ","SECT":" ","MAREA":"長沙","LANE":" ","ALLEY":" ","HOUSE_NO":"１０８號","E_COORD97":157178.19,"N_COORD97":2568602.7799999998,"ADDRESS":"長沙１０８號","OBJECTID":127902},"geometry":{"x":157178.19000000041,"y":2568602.7800000012}},{"attributes":{"ID":127903,"DIS_CODE":0,"TOWNNAME":"將軍區","LI":"長沙里","LIN":"13鄰","STREET":" ","SECT":" ","MAREA":"長沙","LANE":" ","ALLEY":" ","HOUSE_NO":"１０９之２號","E_COORD97":157169.57000000001,"N_COORD97":2568570.0800000001,"ADDRESS":"長沙１０９之２號","OBJECTID":127903},"geometry":{"x":157169.57000000123,"y":2568570.0800000038}},{"attributes":{"ID":127904,"DIS_CODE":0,"TOWNNAME":"將軍區","LI":"長沙里","LIN":"13鄰","STREET":" ","SECT":" ","MAREA":"長沙","LANE":" ","ALLEY":" ","HOUSE_NO":"１０９號","E_COORD97":157166.31,"N_COORD97":2568592.9300000002,"ADDRESS":"長沙１０９號","OBJECTID":127904},"geometry":{"x":157166.30999999959,"y":2568592.9299999997}},{"attributes":{"ID":127905,"DIS_CODE":0,"TOWNNAME":"將軍區","LI":"長沙里","LIN":"12鄰","STREET":" ","SECT":" ","MAREA":"長沙","LANE":" ","ALLEY":" ","HOUSE_NO":"１００之１號","E_COORD97":157200.85000000001,"N_COORD97":2568742.3199999998,"ADDRESS":"長沙１００之１號","OBJECTID":127905},"geometry":{"x":157200.85000000056,"y":2568742.3200000022}},{"attributes":{"ID":127906,"DIS_CODE":0,"TOWNNAME":"白河區","LI":"仙草里","LIN":"8鄰","STREET":" ","SECT":" ","MAREA":"岩前","LANE":" ","ALLEY":" ","HOUSE_NO":"５之１號","E_COORD97":195895.64999999999,"N_COORD97":2581928.3300000001,"ADDRESS":"岩前５之１號","OBJECTID":127906},"geometry":{"x":195895.6500000013,"y":2581928.3300000001}},{"attributes":{"ID":127907,"DIS_CODE":0,"TOWNNAME":"白河區","LI":"仙草里","LIN":"8鄰","STREET":" ","SECT":" ","MAREA":"岩前","LANE":" ","ALLEY":" ","HOUSE_NO":"５號","E_COORD97":195930.60000000001,"N_COORD97":2581956.77,"ADDRESS":"岩前５號","OBJECTID":127907},"geometry":{"x":195930.60000000056,"y":2581956.7700000033}},{"attributes":{"ID":127908,"DIS_CODE":0,"TOWNNAME":"白河區","LI":"仙草里","LIN":"8鄰","STREET":" ","SECT":" ","MAREA":"岩前","LANE":" ","ALLEY":" ","HOUSE_NO":"６號","E_COORD97":196158.59,"N_COORD97":2582112.0899999999,"ADDRESS":"岩前６號","OBJECTID":127908},"geometry":{"x":196158.58999999985,"y":2582112.0900000017}},{"attributes":{"ID":127909,"DIS_CODE":0,"TOWNNAME":"白河區","LI":"仙草里","LIN":"8鄰","STREET":" ","SECT":" ","MAREA":"岩前","LANE":" ","ALLEY":" ","HOUSE_NO":"７之１０號","E_COORD97":196023.87,"N_COORD97":2582325.0699999998,"ADDRESS":"岩前７之１０號","OBJECTID":127909},"geometry":{"x":196023.87000000197,"y":2582325.070000004}},{"attributes":{"ID":127910,"DIS_CODE":0,"TOWNNAME":"白河區","LI":"仙草里","LIN":"8鄰","STREET":" ","SECT":" ","MAREA":"岩前","LANE":" ","ALLEY":" ","HOUSE_NO":"７之１號","E_COORD97":195987.53,"N_COORD97":2582223.6200000001,"ADDRESS":"岩前７之１號","OBJECTID":127910},"geometry":{"x":195987.53000000119,"y":2582223.620000001}},{"attributes":{"ID":127911,"DIS_CODE":0,"TOWNNAME":"白河區","LI":"仙草里","LIN":"8鄰","STREET":" ","SECT":" ","MAREA":"岩前","LANE":" ","ALLEY":" ","HOUSE_NO":"７號","E_COORD97":195971.35000000001,"N_COORD97":2582171.73,"ADDRESS":"岩前７號","OBJECTID":127911},"geometry":{"x":195971.35000000056,"y":2582171.7300000042}},{"attributes":{"ID":127912,"DIS_CODE":0,"TOWNNAME":"白河區","LI":"外角里","LIN":"8鄰","STREET":" ","SECT":" ","MAREA":"客庄內","LANE":" ","ALLEY":" ","HOUSE_NO":"１０號","E_COORD97":190800.79000000001,"N_COORD97":2583403.0800000001,"ADDRESS":"客庄內１０號","OBJECTID":127912},"geometry":{"x":190800.79000000004,"y":2583403.0800000038}},{"attributes":{"ID":127913,"DIS_CODE":0,"TOWNNAME":"白河區","LI":"大林里","LIN":"8鄰","STREET":" ","SECT":" ","MAREA":"杭內","LANE":" ","ALLEY":" ","HOUSE_NO":"１１號","E_COORD97":195177.29999999999,"N_COORD97":2581079.46,"ADDRESS":"杭內１１號","OBJECTID":127913},"geometry":{"x":195177.29999999981,"y":2581079.4600000028}},{"attributes":{"ID":127914,"DIS_CODE":0,"TOWNNAME":"白河區","LI":"大林里","LIN":"8鄰","STREET":" ","SECT":" ","MAREA":"杭內","LANE":" ","ALLEY":" ","HOUSE_NO":"１３號","E_COORD97":195135.12,"N_COORD97":2581106.6600000001,"ADDRESS":"杭內１３號","OBJECTID":127914},"geometry":{"x":195135.12000000011,"y":2581106.6600000001}},{"attributes":{"ID":127915,"DIS_CODE":0,"TOWNNAME":"白河區","LI":"大林里","LIN":"8鄰","STREET":" ","SECT":" ","MAREA":"杭內","LANE":" ","ALLEY":" ","HOUSE_NO":"１４號","E_COORD97":195154.47,"N_COORD97":2581112.7799999998,"ADDRESS":"杭內１４號","OBJECTID":127915},"geometry":{"x":195154.46999999974,"y":2581112.7800000012}},{"attributes":{"ID":127916,"DIS_CODE":0,"TOWNNAME":"白河區","LI":"大林里","LIN":"8鄰","STREET":" ","SECT":" ","MAREA":"杭內","LANE":" ","ALLEY":" ","HOUSE_NO":"１６之３號","E_COORD97":195237.32999999999,"N_COORD97":2581124.9199999999,"ADDRESS":"杭內１６之３號","OBJECTID":127916},"geometry":{"x":195237.33000000007,"y":2581124.9199999999}},{"attributes":{"ID":127917,"DIS_CODE":0,"TOWNNAME":"白河區","LI":"廣安里","LIN":"4鄰","STREET":" ","SECT":" ","MAREA":"枋子林","LANE":" ","ALLEY":" ","HOUSE_NO":"１３號","E_COORD97":189171.20999999999,"N_COORD97":2587523.7400000002,"ADDRESS":"枋子林１３號","OBJECTID":127917},"geometry":{"x":189171.21000000183,"y":2587523.7400000002}},{"attributes":{"ID":127918,"DIS_CODE":0,"TOWNNAME":"白河區","LI":"廣安里","LIN":"4鄰","STREET":" ","SECT":" ","MAREA":"枋子林","LANE":" ","ALLEY":" ","HOUSE_NO":"１４號","E_COORD97":189182.07999999999,"N_COORD97":2587511.5600000001,"ADDRESS":"枋子林１４號","OBJECTID":127918},"geometry":{"x":189182.08000000007,"y":2587511.5600000005}},{"attributes":{"ID":127919,"DIS_CODE":0,"TOWNNAME":"關廟區","LI":"關廟里","LIN":"11鄰","STREET":"大富街","SECT":" ","MAREA":" ","LANE":"３０１巷","ALLEY":"７弄","HOUSE_NO":"３２號","E_COORD97":181017.98999999999,"N_COORD97":2539638.1499999999,"ADDRESS":"大富街３０１巷７弄３２號","OBJECTID":127919},"geometry":{"x":181017.99000000115,"y":2539638.1500000022}},{"attributes":{"ID":127920,"DIS_CODE":0,"TOWNNAME":"關廟區","LI":"松腳里","LIN":"11鄰","STREET":"和平路","SECT":" ","MAREA":" ","LANE":"１８６巷","ALLEY":"９弄","HOUSE_NO":"８號","E_COORD97":181759.64000000001,"N_COORD97":2539679.25,"ADDRESS":"和平路１８６巷９弄８號","OBJECTID":127920},"geometry":{"x":181759.63999999966,"y":2539679.2499999981}},{"attributes":{"ID":127921,"DIS_CODE":0,"TOWNNAME":"關廟區","LI":"關廟里","LIN":"11鄰","STREET":"大富街","SECT":" ","MAREA":" ","LANE":"３０１巷","ALLEY":"７弄","HOUSE_NO":"２７號","E_COORD97":181024.19,"N_COORD97":2539658.1499999999,"ADDRESS":"大富街３０１巷７弄２７號","OBJECTID":127921},"geometry":{"x":181024.19000000041,"y":2539658.1500000022}},{"attributes":{"ID":127922,"DIS_CODE":0,"TOWNNAME":"關廟區","LI":"關廟里","LIN":"11鄰","STREET":"大富街","SECT":" ","MAREA":" ","LANE":"３０１巷","ALLEY":"７弄","HOUSE_NO":"６２號","E_COORD97":181021.89000000001,"N_COORD97":2539583.1499999999,"ADDRESS":"大富街３０１巷７弄６２號","OBJECTID":127922},"geometry":{"x":181021.88999999966,"y":2539583.1500000022}},{"attributes":{"ID":127923,"DIS_CODE":0,"TOWNNAME":"白河區","LI":"廣安里","LIN":"4鄰","STREET":" ","SECT":" ","MAREA":"枋子林","LANE":" ","ALLEY":" ","HOUSE_NO":"１５號","E_COORD97":189184.26999999999,"N_COORD97":2587525.2200000002,"ADDRESS":"枋子林１５號","OBJECTID":127923},"geometry":{"x":189184.27000000048,"y":2587525.2199999988}},{"attributes":{"ID":127924,"DIS_CODE":0,"TOWNNAME":"關廟區","LI":"關廟里","LIN":"11鄰","STREET":"大富街","SECT":" ","MAREA":" ","LANE":"３０１巷","ALLEY":"７弄","HOUSE_NO":"３６號","E_COORD97":181018.39000000001,"N_COORD97":2539627.1499999999,"ADDRESS":"大富街３０１巷７弄３６號","OBJECTID":127924},"geometry":{"x":181018.38999999966,"y":2539627.1500000022}},{"attributes":{"ID":127925,"DIS_CODE":0,"TOWNNAME":"白河區","LI":"廣安里","LIN":"4鄰","STREET":" ","SECT":" ","MAREA":"枋子林","LANE":" ","ALLEY":" ","HOUSE_NO":"１７之１號","E_COORD97":189180.89999999999,"N_COORD97":2587581.1699999999,"ADDRESS":"枋子林１７之１號","OBJECTID":127925},"geometry":{"x":189180.9000000013,"y":2587581.1699999999}},{"attributes":{"ID":127926,"DIS_CODE":0,"TOWNNAME":"關廟區","LI":"布袋里","LIN":"11鄰","STREET":"南雄南路","SECT":" ","MAREA":" ","LANE":"８５２巷","ALLEY":"１８８弄","HOUSE_NO":"１６號","E_COORD97":182075.79000000001,"N_COORD97":2533805.25,"ADDRESS":"南雄南路８５２巷１８８弄１６號","OBJECTID":127926},"geometry":{"x":182075.79000000004,"y":2533805.2500000019}},{"attributes":{"ID":127927,"DIS_CODE":0,"TOWNNAME":"北區","LI":"力行里","LIN":"11鄰","STREET":"開南街","SECT":" ","MAREA":" ","LANE":"２７５巷","ALLEY":"２２弄","HOUSE_NO":"１０號","E_COORD97":171015.78,"N_COORD97":2545249,"ADDRESS":"開南街２７５巷２２弄１０號","OBJECTID":127927},"geometry":{"x":171015.78000000119,"y":2545249.0000000019}},{"attributes":{"ID":127928,"DIS_CODE":0,"TOWNNAME":"北區","LI":"力行里","LIN":"11鄰","STREET":"開南街","SECT":" ","MAREA":" ","LANE":"２７５巷","ALLEY":"２２弄","HOUSE_NO":"１１號","E_COORD97":171019.64000000001,"N_COORD97":2545239.6699999999,"ADDRESS":"開南街２７５巷２２弄１１號","OBJECTID":127928},"geometry":{"x":171019.6400000006,"y":2545239.6699999999}},{"attributes":{"ID":127929,"DIS_CODE":0,"TOWNNAME":"白河區","LI":"廣安里","LIN":"4鄰","STREET":" ","SECT":" ","MAREA":"枋子林","LANE":" ","ALLEY":" ","HOUSE_NO":"１７號","E_COORD97":189230.57000000001,"N_COORD97":2587573.2200000002,"ADDRESS":"枋子林１７號","OBJECTID":127929},"geometry":{"x":189230.57000000123,"y":2587573.2200000025}},{"attributes":{"ID":127930,"DIS_CODE":0,"TOWNNAME":"北區","LI":"力行里","LIN":"11鄰","STREET":"開南街","SECT":" ","MAREA":" ","LANE":"２７５巷","ALLEY":"２２弄","HOUSE_NO":"１２號","E_COORD97":171020.67000000001,"N_COORD97":2545248.4100000001,"ADDRESS":"開南街２７５巷２２弄１２號","OBJECTID":127930},"geometry":{"x":171020.66999999993,"y":2545248.4100000001}},{"attributes":{"ID":127931,"DIS_CODE":0,"TOWNNAME":"北區","LI":"力行里","LIN":"11鄰","STREET":"開南街","SECT":" ","MAREA":" ","LANE":"２７５巷","ALLEY":"２２弄","HOUSE_NO":"１３號","E_COORD97":171024.38,"N_COORD97":2545239.2200000002,"ADDRESS":"開南街２７５巷２２弄１３號","OBJECTID":127931},"geometry":{"x":171024.37999999989,"y":2545239.2200000007}},{"attributes":{"ID":127932,"DIS_CODE":0,"TOWNNAME":"北區","LI":"力行里","LIN":"11鄰","STREET":"開南街","SECT":" ","MAREA":" ","LANE":"２７５巷","ALLEY":"２２弄","HOUSE_NO":"１４號","E_COORD97":171025.13,"N_COORD97":2545248.4100000001,"ADDRESS":"開南街２７５巷２２弄１４號","OBJECTID":127932},"geometry":{"x":171025.13000000082,"y":2545248.4100000001}},{"attributes":{"ID":127933,"DIS_CODE":0,"TOWNNAME":"北區","LI":"力行里","LIN":"11鄰","STREET":"開南街","SECT":" ","MAREA":" ","LANE":"２７５巷","ALLEY":"２２弄","HOUSE_NO":"１５號","E_COORD97":171028.69,"N_COORD97":2545238.9199999999,"ADDRESS":"開南街２７５巷２２弄１５號","OBJECTID":127933},"geometry":{"x":171028.69000000134,"y":2545238.9200000018}},{"attributes":{"ID":127934,"DIS_CODE":0,"TOWNNAME":"北區","LI":"力行里","LIN":"11鄰","STREET":"開南街","SECT":" ","MAREA":" ","LANE":"２７５巷","ALLEY":"２２弄","HOUSE_NO":"１６號","E_COORD97":171030.32000000001,"N_COORD97":2545248.2599999998,"ADDRESS":"開南街２７５巷２２弄１６號","OBJECTID":127934},"geometry":{"x":171030.3200000003,"y":2545248.2599999998}},{"attributes":{"ID":127935,"DIS_CODE":0,"TOWNNAME":"北區","LI":"力行里","LIN":"11鄰","STREET":"開南街","SECT":" ","MAREA":" ","LANE":"２７５巷","ALLEY":"２２弄","HOUSE_NO":"１７號","E_COORD97":171033.88,"N_COORD97":2545238.6299999999,"ADDRESS":"開南街２７５巷２２弄１７號","OBJECTID":127935},"geometry":{"x":171033.88000000082,"y":2545238.629999999}},{"attributes":{"ID":127936,"DIS_CODE":0,"TOWNNAME":"北區","LI":"力行里","LIN":"11鄰","STREET":"開南街","SECT":" ","MAREA":" ","LANE":"２７５巷","ALLEY":"２２弄","HOUSE_NO":"１８號","E_COORD97":171034.03,"N_COORD97":2545248.2599999998,"ADDRESS":"開南街２７５巷２２弄１８號","OBJECTID":127936},"geometry":{"x":171034.03000000026,"y":2545248.2599999998}},{"attributes":{"ID":127937,"DIS_CODE":0,"TOWNNAME":"北區","LI":"力行里","LIN":"11鄰","STREET":"開南街","SECT":" ","MAREA":" ","LANE":"２７５巷","ALLEY":"２２弄","HOUSE_NO":"１９號","E_COORD97":171037.73999999999,"N_COORD97":2545238.1800000002,"ADDRESS":"開南街２７５巷２２弄１９號","OBJECTID":127937},"geometry":{"x":171037.74000000209,"y":2545238.1799999997}},{"attributes":{"ID":127938,"DIS_CODE":0,"TOWNNAME":"關廟區","LI":"北花里","LIN":"15鄰","STREET":"中正路","SECT":" ","MAREA":" ","LANE":" ","ALLEY":" ","HOUSE_NO":"１５０號","E_COORD97":183410.45999999999,"N_COORD97":2540917.25,"ADDRESS":"中正路１５０號","OBJECTID":127938},"geometry":{"x":183410.45999999996,"y":2540917.2500000019}},{"attributes":{"ID":127939,"DIS_CODE":0,"TOWNNAME":"關廟區","LI":"北勢里","LIN":"15鄰","STREET":"北新街","SECT":" ","MAREA":" ","LANE":" ","ALLEY":" ","HOUSE_NO":"１１６號","E_COORD97":181348.19,"N_COORD97":2540529.25,"ADDRESS":"北新街１１６號","OBJECTID":127939},"geometry":{"x":181348.19000000041,"y":2540529.25}},{"attributes":{"ID":127940,"DIS_CODE":0,"TOWNNAME":"關廟區","LI":"北花里","LIN":"15鄰","STREET":"中正路","SECT":" ","MAREA":" ","LANE":" ","ALLEY":" ","HOUSE_NO":"１６３號","E_COORD97":183473.76000000001,"N_COORD97":2540897.25,"ADDRESS":"中正路１６３號","OBJECTID":127940},"geometry":{"x":183473.76000000071,"y":2540897.2500000019}},{"attributes":{"ID":127941,"DIS_CODE":0,"TOWNNAME":"白河區","LI":"廣安里","LIN":"4鄰","STREET":" ","SECT":" ","MAREA":"枋子林","LANE":" ","ALLEY":" ","HOUSE_NO":"１８之１號","E_COORD97":189176.60000000001,"N_COORD97":2587615.29,"ADDRESS":"枋子林１８之１號","OBJECTID":127941},"geometry":{"x":189176.60000000149,"y":2587615.290000001}},{"attributes":{"ID":127942,"DIS_CODE":0,"TOWNNAME":"白河區","LI":"廣安里","LIN":"4鄰","STREET":" ","SECT":" ","MAREA":"枋子林","LANE":" ","ALLEY":" ","HOUSE_NO":"１８號","E_COORD97":189172.10000000001,"N_COORD97":2587558.9900000002,"ADDRESS":"枋子林１８號","OBJECTID":127942},"geometry":{"x":189172.10000000056,"y":2587558.9900000002}},{"attributes":{"ID":127943,"DIS_CODE":0,"TOWNNAME":"白河區","LI":"廣安里","LIN":"4鄰","STREET":" ","SECT":" ","MAREA":"枋子林","LANE":" ","ALLEY":" ","HOUSE_NO":"１９號","E_COORD97":189150.98000000001,"N_COORD97":2587540.9900000002,"ADDRESS":"枋子林１９號","OBJECTID":127943},"geometry":{"x":189150.98000000045,"y":2587540.9900000021}},{"attributes":{"ID":127944,"DIS_CODE":0,"TOWNNAME":"白河區","LI":"廣安里","LIN":"4鄰","STREET":" ","SECT":" ","MAREA":"枋子林","LANE":" ","ALLEY":" ","HOUSE_NO":"２０號","E_COORD97":189146.16,"N_COORD97":2587586.8399999999,"ADDRESS":"枋子林２０號","OBJECTID":127944},"geometry":{"x":189146.15999999922,"y":2587586.8399999999}},{"attributes":{"ID":127945,"DIS_CODE":0,"TOWNNAME":"白河區","LI":"廣安里","LIN":"4鄰","STREET":" ","SECT":" ","MAREA":"枋子林","LANE":" ","ALLEY":" ","HOUSE_NO":"２２之１號","E_COORD97":189134.31,"N_COORD97":2587643.4300000002,"ADDRESS":"枋子林２２之１號","OBJECTID":127945},"geometry":{"x":189134.30999999959,"y":2587643.4299999997}},{"attributes":{"ID":127946,"DIS_CODE":0,"TOWNNAME":"白河區","LI":"廣安里","LIN":"4鄰","STREET":" ","SECT":" ","MAREA":"枋子林","LANE":" ","ALLEY":" ","HOUSE_NO":"２２號","E_COORD97":189106.04000000001,"N_COORD97":2587659.2599999998,"ADDRESS":"枋子林２２號","OBJECTID":127946},"geometry":{"x":189106.04000000004,"y":2587659.2599999998}},{"attributes":{"ID":127947,"DIS_CODE":0,"TOWNNAME":"白河區","LI":"廣安里","LIN":"4鄰","STREET":" ","SECT":" ","MAREA":"枋子林","LANE":" ","ALLEY":" ","HOUSE_NO":"２３號","E_COORD97":189078.84,"N_COORD97":2587657.6899999999,"ADDRESS":"枋子林２３號","OBJECTID":127947},"geometry":{"x":189078.84000000078,"y":2587657.6900000013}},{"attributes":{"ID":127948,"DIS_CODE":0,"TOWNNAME":"白河區","LI":"廣安里","LIN":"4鄰","STREET":" ","SECT":" ","MAREA":"枋子林","LANE":" ","ALLEY":" ","HOUSE_NO":"２４號","E_COORD97":189068.56,"N_COORD97":2587679.1400000001,"ADDRESS":"枋子林２４號","OBJECTID":127948},"geometry":{"x":189068.56000000052,"y":2587679.1400000025}},{"attributes":{"ID":127949,"DIS_CODE":0,"TOWNNAME":"白河區","LI":"廣安里","LIN":"4鄰","STREET":" ","SECT":" ","MAREA":"枋子林","LANE":" ","ALLEY":" ","HOUSE_NO":"２７之１號","E_COORD97":189040.53,"N_COORD97":2587682.8100000001,"ADDRESS":"枋子林２７之１號","OBJECTID":127949},"geometry":{"x":189040.53000000212,"y":2587682.8100000005}},{"attributes":{"ID":127950,"DIS_CODE":0,"TOWNNAME":"白河區","LI":"廣安里","LIN":"4鄰","STREET":" ","SECT":" ","MAREA":"枋子林","LANE":" ","ALLEY":" ","HOUSE_NO":"２７之５號","E_COORD97":189078.53,"N_COORD97":2587714.8100000001,"ADDRESS":"枋子林２７之５號","OBJECTID":127950},"geometry":{"x":189078.53000000119,"y":2587714.8100000024}},{"attributes":{"ID":127951,"DIS_CODE":0,"TOWNNAME":"白河區","LI":"廣安里","LIN":"3鄰","STREET":" ","SECT":" ","MAREA":"枋子林","LANE":" ","ALLEY":" ","HOUSE_NO":"１０之１號","E_COORD97":189117.32999999999,"N_COORD97":2587369.3999999999,"ADDRESS":"枋子林１０之１號","OBJECTID":127951},"geometry":{"x":189117.33000000007,"y":2587369.4000000022}},{"attributes":{"ID":127952,"DIS_CODE":0,"TOWNNAME":"白河區","LI":"廣安里","LIN":"3鄰","STREET":" ","SECT":" ","MAREA":"枋子林","LANE":" ","ALLEY":" ","HOUSE_NO":"１０號","E_COORD97":189093.53,"N_COORD97":2587358.6899999999,"ADDRESS":"枋子林１０號","OBJECTID":127952},"geometry":{"x":189093.53000000119,"y":2587358.6900000013}},{"attributes":{"ID":127953,"DIS_CODE":0,"TOWNNAME":"東區","LI":"虎尾里","LIN":"6鄰","STREET":"富農街","SECT":"一段","MAREA":" ","LANE":" ","ALLEY":" ","HOUSE_NO":"９２號之１","E_COORD97":171523.13,"N_COORD97":2542250.23,"ADDRESS":"富農街一段９２號之１","OBJECTID":127953},"geometry":{"x":171523.13000000175,"y":2542250.2300000042}},{"attributes":{"ID":127954,"DIS_CODE":0,"TOWNNAME":"北區","LI":"力行里","LIN":"11鄰","STREET":"開南街","SECT":" ","MAREA":" ","LANE":"２７５巷","ALLEY":"２２弄","HOUSE_NO":"１號","E_COORD97":170997.67000000001,"N_COORD97":2545241,"ADDRESS":"開南街２７５巷２２弄１號","OBJECTID":127954},"geometry":{"x":170997.67000000086,"y":2545241}},{"attributes":{"ID":127955,"DIS_CODE":0,"TOWNNAME":"北區","LI":"力行里","LIN":"11鄰","STREET":"開南街","SECT":" ","MAREA":" ","LANE":"２７５巷","ALLEY":"２２弄","HOUSE_NO":"２０號","E_COORD97":171038.92999999999,"N_COORD97":2545248.1099999999,"ADDRESS":"開南街２７５巷２２弄２０號","OBJECTID":127955},"geometry":{"x":171038.9299999997,"y":2545248.1100000013}},{"attributes":{"ID":127956,"DIS_CODE":0,"TOWNNAME":"白河區","LI":"廣安里","LIN":"3鄰","STREET":" ","SECT":" ","MAREA":"枋子林","LANE":" ","ALLEY":" ","HOUSE_NO":"１１之６號","E_COORD97":189075.19,"N_COORD97":2587410.9100000001,"ADDRESS":"枋子林１１之６號","OBJECTID":127956},"geometry":{"x":189075.19000000227,"y":2587410.9100000001}},{"attributes":{"ID":127957,"DIS_CODE":0,"TOWNNAME":"北區","LI":"力行里","LIN":"11鄰","STREET":"開南街","SECT":" ","MAREA":" ","LANE":"２７５巷","ALLEY":"２２弄","HOUSE_NO":"２１號","E_COORD97":171042.94,"N_COORD97":2545237.4399999999,"ADDRESS":"開南街２７５巷２２弄２１號","OBJECTID":127957},"geometry":{"x":171042.94000000041,"y":2545237.4399999995}},{"attributes":{"ID":127958,"DIS_CODE":0,"TOWNNAME":"白河區","LI":"廣安里","LIN":"3鄰","STREET":" ","SECT":" ","MAREA":"枋子林","LANE":" ","ALLEY":" ","HOUSE_NO":"１１號","E_COORD97":189075.23999999999,"N_COORD97":2587369.3799999999,"ADDRESS":"枋子林１１號","OBJECTID":127958},"geometry":{"x":189075.24000000115,"y":2587369.379999999}},{"attributes":{"ID":127959,"DIS_CODE":0,"TOWNNAME":"白河區","LI":"廣安里","LIN":"3鄰","STREET":" ","SECT":" ","MAREA":"枋子林","LANE":" ","ALLEY":" ","HOUSE_NO":"１２之１號","E_COORD97":189057.73999999999,"N_COORD97":2587334.1800000002,"ADDRESS":"枋子林１２之１號","OBJECTID":127959},"geometry":{"x":189057.74000000209,"y":2587334.1799999997}},{"attributes":{"ID":127960,"DIS_CODE":0,"TOWNNAME":"白河區","LI":"廣安里","LIN":"6鄰","STREET":" ","SECT":" ","MAREA":"枋子林","LANE":" ","ALLEY":" ","HOUSE_NO":"５１號","E_COORD97":189007.22,"N_COORD97":2587425.1699999999,"ADDRESS":"枋子林５１號","OBJECTID":127960},"geometry":{"x":189007.22000000067,"y":2587425.1699999999}},{"attributes":{"ID":127961,"DIS_CODE":0,"TOWNNAME":"東區","LI":"虎尾里","LIN":"6鄰","STREET":"富農街","SECT":"一段","MAREA":" ","LANE":" ","ALLEY":" ","HOUSE_NO":"９２號之１０","E_COORD97":171527.56,"N_COORD97":2542266.3599999999,"ADDRESS":"富農街一段９２號之１０","OBJECTID":127961},"geometry":{"x":171527.55999999959,"y":2542266.3600000013}},{"attributes":{"ID":127962,"DIS_CODE":0,"TOWNNAME":"白河區","LI":"廣安里","LIN":"6鄰","STREET":" ","SECT":" ","MAREA":"枋子林","LANE":" ","ALLEY":" ","HOUSE_NO":"５２之１號","E_COORD97":189036.64999999999,"N_COORD97":2587394.9100000001,"ADDRESS":"枋子林５２之１號","OBJECTID":127962},"geometry":{"x":189036.6500000013,"y":2587394.9100000039}},{"attributes":{"ID":127963,"DIS_CODE":0,"TOWNNAME":"東區","LI":"虎尾里","LIN":"6鄰","STREET":"富農街","SECT":"一段","MAREA":" ","LANE":" ","ALLEY":" ","HOUSE_NO":"９２號之１１","E_COORD97":171522.01999999999,"N_COORD97":2542265.2599999998,"ADDRESS":"富農街一段９２號之１１","OBJECTID":127963},"geometry":{"x":171522.02000000048,"y":2542265.2599999998}},{"attributes":{"ID":127964,"DIS_CODE":0,"TOWNNAME":"白河區","LI":"廣安里","LIN":"6鄰","STREET":" ","SECT":" ","MAREA":"枋子林","LANE":" ","ALLEY":" ","HOUSE_NO":"５２之２號","E_COORD97":189038.62,"N_COORD97":2587398.25,"ADDRESS":"枋子林５２之２號","OBJECTID":127964},"geometry":{"x":189038.62000000104,"y":2587398.25}},{"attributes":{"ID":127965,"DIS_CODE":0,"TOWNNAME":"白河區","LI":"廣安里","LIN":"6鄰","STREET":" ","SECT":" ","MAREA":"枋子林","LANE":" ","ALLEY":" ","HOUSE_NO":"５２號","E_COORD97":189008.63,"N_COORD97":2587396.5800000001,"ADDRESS":"枋子林５２號","OBJECTID":127965},"geometry":{"x":189008.62999999989,"y":2587396.5800000001}},{"attributes":{"ID":127966,"DIS_CODE":0,"TOWNNAME":"白河區","LI":"廣安里","LIN":"3鄰","STREET":" ","SECT":" ","MAREA":"枋子林","LANE":" ","ALLEY":" ","HOUSE_NO":"３號","E_COORD97":189050.87,"N_COORD97":2587248.9199999999,"ADDRESS":"枋子林３號","OBJECTID":127966},"geometry":{"x":189050.87000000011,"y":2587248.9200000037}},{"attributes":{"ID":127967,"DIS_CODE":0,"TOWNNAME":"白河區","LI":"廣安里","LIN":"3鄰","STREET":" ","SECT":" ","MAREA":"枋子林","LANE":" ","ALLEY":" ","HOUSE_NO":"５號","E_COORD97":189042.03,"N_COORD97":2587264.3100000001,"ADDRESS":"枋子林５號","OBJECTID":127967},"geometry":{"x":189042.02999999933,"y":2587264.3100000024}},{"attributes":{"ID":127968,"DIS_CODE":0,"TOWNNAME":"白河區","LI":"汴頭里","LIN":"4鄰","STREET":" ","SECT":" ","MAREA":"林子內","LANE":" ","ALLEY":" ","HOUSE_NO":"３０號","E_COORD97":195075.20999999999,"N_COORD97":2585052.6600000001,"ADDRESS":"林子內３０號","OBJECTID":127968},"geometry":{"x":195075.20999999996,"y":2585052.6600000001}},{"attributes":{"ID":127969,"DIS_CODE":0,"TOWNNAME":"白河區","LI":"汴頭里","LIN":"4鄰","STREET":" ","SECT":" ","MAREA":"林子內","LANE":" ","ALLEY":" ","HOUSE_NO":"３２號","E_COORD97":195034.19,"N_COORD97":2585001.6800000002,"ADDRESS":"林子內３２號","OBJECTID":127969},"geometry":{"x":195034.19000000134,"y":2585001.6799999997}},{"attributes":{"ID":127970,"DIS_CODE":0,"TOWNNAME":"白河區","LI":"汴頭里","LIN":"4鄰","STREET":" ","SECT":" ","MAREA":"林子內","LANE":" ","ALLEY":" ","HOUSE_NO":"３３號","E_COORD97":195034.54000000001,"N_COORD97":2585032.9900000002,"ADDRESS":"林子內３３號","OBJECTID":127970},"geometry":{"x":195034.54000000097,"y":2585032.9900000002}},{"attributes":{"ID":127971,"DIS_CODE":0,"TOWNNAME":"白河區","LI":"汴頭里","LIN":"4鄰","STREET":" ","SECT":" ","MAREA":"林子內","LANE":" ","ALLEY":" ","HOUSE_NO":"３４號","E_COORD97":195038.95999999999,"N_COORD97":2585055.52,"ADDRESS":"林子內３４號","OBJECTID":127971},"geometry":{"x":195038.96000000089,"y":2585055.5200000014}},{"attributes":{"ID":127972,"DIS_CODE":0,"TOWNNAME":"白河區","LI":"汴頭里","LIN":"4鄰","STREET":" ","SECT":" ","MAREA":"林子內","LANE":" ","ALLEY":" ","HOUSE_NO":"３５號","E_COORD97":194998.76999999999,"N_COORD97":2585081.8300000001,"ADDRESS":"林子內３５號","OBJECTID":127972},"geometry":{"x":194998.77000000048,"y":2585081.8300000001}},{"attributes":{"ID":127973,"DIS_CODE":0,"TOWNNAME":"白河區","LI":"汴頭里","LIN":"4鄰","STREET":" ","SECT":" ","MAREA":"林子內","LANE":" ","ALLEY":" ","HOUSE_NO":"３６號","E_COORD97":194974.66,"N_COORD97":2585106.3599999999,"ADDRESS":"林子內３６號","OBJECTID":127973},"geometry":{"x":194974.66000000108,"y":2585106.3600000013}},{"attributes":{"ID":127974,"DIS_CODE":0,"TOWNNAME":"白河區","LI":"汴頭里","LIN":"4鄰","STREET":" ","SECT":" ","MAREA":"林子內","LANE":" ","ALLEY":" ","HOUSE_NO":"３８號","E_COORD97":194960.57000000001,"N_COORD97":2585084.8700000001,"ADDRESS":"林子內３８號","OBJECTID":127974},"geometry":{"x":194960.57000000123,"y":2585084.8700000029}},{"attributes":{"ID":127975,"DIS_CODE":0,"TOWNNAME":"白河區","LI":"汴頭里","LIN":"4鄰","STREET":" ","SECT":" ","MAREA":"林子內","LANE":" ","ALLEY":" ","HOUSE_NO":"３９之１號","E_COORD97":194927.66,"N_COORD97":2585103.0899999999,"ADDRESS":"林子內３９之１號","OBJECTID":127975},"geometry":{"x":194927.66000000108,"y":2585103.0899999999}},{"attributes":{"ID":127976,"DIS_CODE":0,"TOWNNAME":"白河區","LI":"汴頭里","LIN":"4鄰","STREET":" ","SECT":" ","MAREA":"林子內","LANE":" ","ALLEY":" ","HOUSE_NO":"３９之２號","E_COORD97":194929.42000000001,"N_COORD97":2585081.96,"ADDRESS":"林子內３９之２號","OBJECTID":127976},"geometry":{"x":194929.41999999993,"y":2585081.9600000009}},{"attributes":{"ID":127977,"DIS_CODE":0,"TOWNNAME":"善化區","LI":"溪美里","LIN":"6鄰","STREET":" ","SECT":" ","MAREA":"溪尾","LANE":" ","ALLEY":" ","HOUSE_NO":"５６號之８","E_COORD97":176794.47,"N_COORD97":2561222.52,"ADDRESS":"溪尾５６號之８","OBJECTID":127977},"geometry":{"x":176794.47000000067,"y":2561222.5199999996}},{"attributes":{"ID":127978,"DIS_CODE":0,"TOWNNAME":"北區","LI":"力行里","LIN":"11鄰","STREET":"開南街","SECT":" ","MAREA":" ","LANE":"２７５巷","ALLEY":"２２弄","HOUSE_NO":"２２號","E_COORD97":171043.98000000001,"N_COORD97":2545247.3700000001,"ADDRESS":"開南街２７５巷２２弄２２號","OBJECTID":127978},"geometry":{"x":171043.98000000138,"y":2545247.3700000029}},{"attributes":{"ID":127979,"DIS_CODE":0,"TOWNNAME":"善化區","LI":"嘉南里","LIN":"6鄰","STREET":" ","SECT":" ","MAREA":"茄拔","LANE":" ","ALLEY":" ","HOUSE_NO":"１０４之１號","E_COORD97":181014.73000000001,"N_COORD97":2559491.77,"ADDRESS":"茄拔１０４之１號","OBJECTID":127979},"geometry":{"x":181014.73000000138,"y":2559491.7699999996}},{"attributes":{"ID":127980,"DIS_CODE":0,"TOWNNAME":"善化區","LI":"胡家里","LIN":"6鄰","STREET":" ","SECT":" ","MAREA":"胡厝寮","LANE":" ","ALLEY":" ","HOUSE_NO":"４８號之１","E_COORD97":175458.42999999999,"N_COORD97":2560570.3199999998,"ADDRESS":"胡厝寮４８號之１","OBJECTID":127980},"geometry":{"x":175458.4299999997,"y":2560570.3200000003}},{"attributes":{"ID":127981,"DIS_CODE":0,"TOWNNAME":"善化區","LI":"嘉南里","LIN":"6鄰","STREET":" ","SECT":" ","MAREA":"茄拔","LANE":" ","ALLEY":" ","HOUSE_NO":"１０４號之１","E_COORD97":181009.59,"N_COORD97":2559494.27,"ADDRESS":"茄拔１０４號之１","OBJECTID":127981},"geometry":{"x":181009.59000000171,"y":2559494.2699999996}},{"attributes":{"ID":127982,"DIS_CODE":0,"TOWNNAME":"後壁區","LI":"仕安里","LIN":"6鄰","STREET":" ","SECT":" ","MAREA":"下長","LANE":" ","ALLEY":" ","HOUSE_NO":"４１號","E_COORD97":180719.07000000001,"N_COORD97":2583705.3300000001,"ADDRESS":"下長４１號","OBJECTID":127982},"geometry":{"x":180719.07000000123,"y":2583705.3300000001}},{"attributes":{"ID":127983,"DIS_CODE":0,"TOWNNAME":"後壁區","LI":"仕安里","LIN":"6鄰","STREET":" ","SECT":" ","MAREA":"下長","LANE":" ","ALLEY":" ","HOUSE_NO":"４２號之１","E_COORD97":180606.47,"N_COORD97":2583721.0099999998,"ADDRESS":"下長４２號之１","OBJECTID":127983},"geometry":{"x":180606.46999999974,"y":2583721.0099999998}},{"attributes":{"ID":127984,"DIS_CODE":0,"TOWNNAME":"後壁區","LI":"仕安里","LIN":"6鄰","STREET":" ","SECT":" ","MAREA":"下長","LANE":" ","ALLEY":" ","HOUSE_NO":"４２號之２","E_COORD97":180650.10999999999,"N_COORD97":2583739.6800000002,"ADDRESS":"下長４２號之２","OBJECTID":127984},"geometry":{"x":180650.11000000034,"y":2583739.6799999997}},{"attributes":{"ID":127985,"DIS_CODE":0,"TOWNNAME":"後壁區","LI":"仕安里","LIN":"6鄰","STREET":" ","SECT":" ","MAREA":"下長","LANE":" ","ALLEY":" ","HOUSE_NO":"４２號之３","E_COORD97":180648.92000000001,"N_COORD97":2583734.4500000002,"ADDRESS":"下長４２號之３","OBJECTID":127985},"geometry":{"x":180648.91999999993,"y":2583734.4499999993}},{"attributes":{"ID":127986,"DIS_CODE":0,"TOWNNAME":"後壁區","LI":"仕安里","LIN":"6鄰","STREET":" ","SECT":" ","MAREA":"下長","LANE":" ","ALLEY":" ","HOUSE_NO":"４２號","E_COORD97":180648.04999999999,"N_COORD97":2583750.1499999999,"ADDRESS":"下長４２號","OBJECTID":127986},"geometry":{"x":180648.04999999981,"y":2583750.1500000022}},{"attributes":{"ID":127987,"DIS_CODE":0,"TOWNNAME":"後壁區","LI":"仕安里","LIN":"6鄰","STREET":" ","SECT":" ","MAREA":"下長","LANE":" ","ALLEY":" ","HOUSE_NO":"４３號之１０","E_COORD97":180589.85999999999,"N_COORD97":2583722.3199999998,"ADDRESS":"下長４３號之１０","OBJECTID":127987},"geometry":{"x":180589.86000000127,"y":2583722.3200000003}},{"attributes":{"ID":127988,"DIS_CODE":0,"TOWNNAME":"後壁區","LI":"仕安里","LIN":"6鄰","STREET":" ","SECT":" ","MAREA":"下長","LANE":" ","ALLEY":" ","HOUSE_NO":"４４號","E_COORD97":180587.42999999999,"N_COORD97":2583706.9300000002,"ADDRESS":"下長４４號","OBJECTID":127988},"geometry":{"x":180587.43000000063,"y":2583706.9300000016}},{"attributes":{"ID":127989,"DIS_CODE":0,"TOWNNAME":"北區","LI":"力行里","LIN":"11鄰","STREET":"開南街","SECT":" ","MAREA":" ","LANE":"２７５巷","ALLEY":"２２弄","HOUSE_NO":"２３號","E_COORD97":171047.54000000001,"N_COORD97":2545237.4399999999,"ADDRESS":"開南街２７５巷２２弄２３號","OBJECTID":127989},"geometry":{"x":171047.5400000019,"y":2545237.4399999995}},{"attributes":{"ID":127990,"DIS_CODE":0,"TOWNNAME":"北區","LI":"力行里","LIN":"11鄰","STREET":"開南街","SECT":" ","MAREA":" ","LANE":"２７５巷","ALLEY":"２２弄","HOUSE_NO":"２４號","E_COORD97":171048.28,"N_COORD97":2545247.6699999999,"ADDRESS":"開南街２７５巷２２弄２４號","OBJECTID":127990},"geometry":{"x":171048.28000000119,"y":2545247.6700000018}},{"attributes":{"ID":127991,"DIS_CODE":0,"TOWNNAME":"北門區","LI":"保吉里","LIN":"6鄰","STREET":" ","SECT":" ","MAREA":"蚵寮","LANE":" ","ALLEY":" ","HOUSE_NO":"１８５號","E_COORD97":161586.82000000001,"N_COORD97":2576076.4900000002,"ADDRESS":"蚵寮１８５號","OBJECTID":127991},"geometry":{"x":161586.82000000123,"y":2576076.4900000002}},{"attributes":{"ID":127992,"DIS_CODE":0,"TOWNNAME":"善化區","LI":"南關里","LIN":"6鄰","STREET":"文昌路","SECT":" ","MAREA":" ","LANE":"１０７巷","ALLEY":" ","HOUSE_NO":"９０號","E_COORD97":177113.75,"N_COORD97":2558403.6899999999,"ADDRESS":"文昌路１０７巷９０號","OBJECTID":127992},"geometry":{"x":177113.75000000093,"y":2558403.6899999995}},{"attributes":{"ID":127993,"DIS_CODE":0,"TOWNNAME":"東區","LI":"崇成里","LIN":"24鄰","STREET":"崇明二十三街","SECT":" ","MAREA":" ","LANE":" ","ALLEY":" ","HOUSE_NO":"５號二樓","E_COORD97":170648.47,"N_COORD97":2540883.9100000001,"ADDRESS":"崇明二十三街５號二樓","OBJECTID":127993},"geometry":{"x":170648.46999999974,"y":2540883.9100000001}},{"attributes":{"ID":127994,"DIS_CODE":0,"TOWNNAME":"後壁區","LI":"仕安里","LIN":"6鄰","STREET":" ","SECT":" ","MAREA":"下長","LANE":" ","ALLEY":" ","HOUSE_NO":"４５號之１","E_COORD97":180580.73999999999,"N_COORD97":2583699.1299999999,"ADDRESS":"下長４５號之１","OBJECTID":127994},"geometry":{"x":180580.74000000115,"y":2583699.129999999}},{"attributes":{"ID":127995,"DIS_CODE":0,"TOWNNAME":"後壁區","LI":"仕安里","LIN":"6鄰","STREET":" ","SECT":" ","MAREA":"下長","LANE":" ","ALLEY":" ","HOUSE_NO":"４５號之５","E_COORD97":180573.20999999999,"N_COORD97":2583675.8700000001,"ADDRESS":"下長４５號之５","OBJECTID":127995},"geometry":{"x":180573.21000000183,"y":2583675.870000001}},{"attributes":{"ID":127996,"DIS_CODE":0,"TOWNNAME":"後壁區","LI":"仕安里","LIN":"6鄰","STREET":" ","SECT":" ","MAREA":"下長","LANE":" ","ALLEY":" ","HOUSE_NO":"４５號","E_COORD97":180588.14000000001,"N_COORD97":2583679.8399999999,"ADDRESS":"下長４５號","OBJECTID":127996},"geometry":{"x":180588.13999999966,"y":2583679.8400000017}},{"attributes":{"ID":127997,"DIS_CODE":0,"TOWNNAME":"後壁區","LI":"仕安里","LIN":"6鄰","STREET":" ","SECT":" ","MAREA":"下長","LANE":" ","ALLEY":" ","HOUSE_NO":"４６號","E_COORD97":180601.57000000001,"N_COORD97":2583702.2599999998,"ADDRESS":"下長４６號","OBJECTID":127997},"geometry":{"x":180601.57000000216,"y":2583702.2599999998}},{"attributes":{"ID":127998,"DIS_CODE":0,"TOWNNAME":"後壁區","LI":"仕安里","LIN":"6鄰","STREET":" ","SECT":" ","MAREA":"下長","LANE":" ","ALLEY":" ","HOUSE_NO":"４７號","E_COORD97":180640.98999999999,"N_COORD97":2583707.52,"ADDRESS":"下長４７號","OBJECTID":127998},"geometry":{"x":180640.99000000209,"y":2583707.5199999996}},{"attributes":{"ID":127999,"DIS_CODE":0,"TOWNNAME":"白河區","LI":"汴頭里","LIN":"4鄰","STREET":" ","SECT":" ","MAREA":"林子內","LANE":" ","ALLEY":" ","HOUSE_NO":"３９號","E_COORD97":194940.85000000001,"N_COORD97":2585114.8300000001,"ADDRESS":"林子內３９號","OBJECTID":127999},"geometry":{"x":194940.85000000056,"y":2585114.8300000019}},{"attributes":{"ID":128000,"DIS_CODE":0,"TOWNNAME":"白河區","LI":"汴頭里","LIN":"4鄰","STREET":" ","SECT":" ","MAREA":"林子內","LANE":" ","ALLEY":" ","HOUSE_NO":"４０之１號","E_COORD97":194899.57000000001,"N_COORD97":2585117.8900000001,"ADDRESS":"林子內４０之１號","OBJECTID":128000},"geometry":{"x":194899.57000000123,"y":2585117.8900000025}}]}