{"displayFieldName":"TOWNNAME","fieldAliases":{"ID":"ID","DIS_CODE":"DIS_CODE","TOWNNAME":"TOWNNAME","LI":"LI","LIN":"LIN","STREET":"STREET","SECT":"SECT","MAREA":"MAREA","LANE":"LANE","ALLEY":"ALLEY","HOUSE_NO":"HOUSE_NO","E_COORD97":"E_COORD97","N_COORD97":"N_COORD97","ADDRESS":"ADDRESS","OBJECTID":"OBJECTID"},"geometryType":"esriGeometryPoint","spatialReference":{"wkid":102443,"latestWkid":3826},"fields":[{"name":"ID","type":"esriFieldTypeDouble","alias":"ID"},{"name":"DIS_CODE","type":"esriFieldTypeInteger","alias":"DIS_CODE"},{"name":"TOWNNAME","type":"esriFieldTypeString","alias":"TOWNNAME","length":8},{"name":"LI","type":"esriFieldTypeString","alias":"LI","length":8},{"name":"LIN","type":"esriFieldTypeString","alias":"LIN","length":12},{"name":"STREET","type":"esriFieldTypeString","alias":"STREET","length":20},{"name":"SECT","type":"esriFieldTypeString","alias":"SECT","length":8},{"name":"MAREA","type":"esriFieldTypeString","alias":"MAREA","length":12},{"name":"LANE","type":"esriFieldTypeString","alias":"LANE","length":10},{"name":"ALLEY","type":"esriFieldTypeString","alias":"ALLEY","length":10},{"name":"HOUSE_NO","type":"esriFieldTypeString","alias":"HOUSE_NO","length":20},{"name":"E_COORD97","type":"esriFieldTypeDouble","alias":"E_COORD97"},{"name":"N_COORD97","type":"esriFieldTypeDouble","alias":"N_COORD97"},{"name":"ADDRESS","type":"esriFieldTypeString","alias":"ADDRESS","length":50},{"name":"OBJECTID","type":"esriFieldTypeOID","alias":"OBJECTID"}],"features":[{"attributes":{"ID":421026,"DIS_CODE":0,"TOWNNAME":"永康區","LI":"大橋里","LIN":"2鄰","STREET":"大橋一街","SECT":" ","MAREA":" ","LANE":"７３巷","ALLEY":" ","HOUSE_NO":"８７號","E_COORD97":170744.57000000001,"N_COORD97":2546578.2400000002,"ADDRESS":"大橋一街７３巷８７號","OBJECTID":421001},"geometry":{"x":170744.57000000123,"y":2546578.2400000002}},{"attributes":{"ID":421027,"DIS_CODE":0,"TOWNNAME":"永康區","LI":"崑山里","LIN":"2鄰","STREET":"大灣路","SECT":" ","MAREA":" ","LANE":"８７９巷","ALLEY":" ","HOUSE_NO":"１０號","E_COORD97":173627.64999999999,"N_COORD97":2544372.4900000002,"ADDRESS":"大灣路８７９巷１０號","OBJECTID":421002},"geometry":{"x":173627.6500000013,"y":2544372.4900000002}},{"attributes":{"ID":421028,"DIS_CODE":0,"TOWNNAME":"仁德區","LI":"太子里","LIN":"2鄰","STREET":"太子路","SECT":" ","MAREA":" ","LANE":"１９０巷","ALLEY":" ","HOUSE_NO":"３號","E_COORD97":174316.92000000001,"N_COORD97":2543539.5099999998,"ADDRESS":"太子路１９０巷３號","OBJECTID":421003},"geometry":{"x":174316.92000000086,"y":2543539.5100000016}},{"attributes":{"ID":421029,"DIS_CODE":0,"TOWNNAME":"仁德區","LI":"保安里","LIN":"2鄰","STREET":"文賢路","SECT":"一段","MAREA":" ","LANE":"５５４巷","ALLEY":" ","HOUSE_NO":"６號","E_COORD97":171096.73000000001,"N_COORD97":2536901.3300000001,"ADDRESS":"文賢路一段５５４巷６號","OBJECTID":421004},"geometry":{"x":171096.73000000045,"y":2536901.3300000001}},{"attributes":{"ID":421030,"DIS_CODE":0,"TOWNNAME":"仁德區","LI":"太子里","LIN":"2鄰","STREET":"太子路","SECT":" ","MAREA":" ","LANE":"１９０巷","ALLEY":" ","HOUSE_NO":"７號","E_COORD97":174316.01000000001,"N_COORD97":2543552.5099999998,"ADDRESS":"太子路１９０巷７號","OBJECTID":421005},"geometry":{"x":174316.01000000071,"y":2543552.5099999979}},{"attributes":{"ID":421031,"DIS_CODE":0,"TOWNNAME":"仁德區","LI":"保安里","LIN":"2鄰","STREET":"文賢路","SECT":"一段","MAREA":" ","LANE":"５３０巷","ALLEY":" ","HOUSE_NO":"４號","E_COORD97":171077.92999999999,"N_COORD97":2536975.5699999998,"ADDRESS":"文賢路一段５３０巷４號","OBJECTID":421006},"geometry":{"x":171077.9299999997,"y":2536975.570000004}},{"attributes":{"ID":421032,"DIS_CODE":0,"TOWNNAME":"中西區","LI":"西湖里","LIN":"2鄰","STREET":"頂美二街","SECT":" ","MAREA":" ","LANE":"７２巷","ALLEY":" ","HOUSE_NO":"１６號","E_COORD97":166511.76000000001,"N_COORD97":2544626.9100000001,"ADDRESS":"頂美二街７２巷１６號","OBJECTID":421007},"geometry":{"x":166511.76000000071,"y":2544626.9100000001}},{"attributes":{"ID":421033,"DIS_CODE":0,"TOWNNAME":"中西區","LI":"西湖里","LIN":"2鄰","STREET":"頂美二街","SECT":" ","MAREA":" ","LANE":"７２巷","ALLEY":" ","HOUSE_NO":"１８號","E_COORD97":166521.59,"N_COORD97":2544626.1299999999,"ADDRESS":"頂美二街７２巷１８號","OBJECTID":421008},"geometry":{"x":166521.58999999985,"y":2544626.1300000008}},{"attributes":{"ID":421034,"DIS_CODE":0,"TOWNNAME":"中西區","LI":"西湖里","LIN":"2鄰","STREET":"頂美二街","SECT":" ","MAREA":" ","LANE":"７２巷","ALLEY":" ","HOUSE_NO":"２０號","E_COORD97":166516.67999999999,"N_COORD97":2544618.0699999998,"ADDRESS":"頂美二街７２巷２０號","OBJECTID":421009},"geometry":{"x":166516.68000000156,"y":2544618.0700000022}},{"attributes":{"ID":421035,"DIS_CODE":0,"TOWNNAME":"中西區","LI":"西湖里","LIN":"2鄰","STREET":"頂美二街","SECT":" ","MAREA":" ","LANE":"７２巷","ALLEY":" ","HOUSE_NO":"２２號","E_COORD97":166516.48000000001,"N_COORD97":2544614.54,"ADDRESS":"頂美二街７２巷２２號","OBJECTID":421010},"geometry":{"x":166516.48000000045,"y":2544614.540000001}},{"attributes":{"ID":421036,"DIS_CODE":0,"TOWNNAME":"中西區","LI":"西湖里","LIN":"2鄰","STREET":"頂美二街","SECT":" ","MAREA":" ","LANE":"７２巷","ALLEY":" ","HOUSE_NO":"２６號","E_COORD97":166516.87,"N_COORD97":2544610.02,"ADDRESS":"頂美二街７２巷２６號","OBJECTID":421011},"geometry":{"x":166516.87000000011,"y":2544610.0199999977}},{"attributes":{"ID":421037,"DIS_CODE":0,"TOWNNAME":"中西區","LI":"西湖里","LIN":"2鄰","STREET":"頂美二街","SECT":" ","MAREA":" ","LANE":"７２巷","ALLEY":" ","HOUSE_NO":"２８號","E_COORD97":166516.87,"N_COORD97":2544604.9100000001,"ADDRESS":"頂美二街７２巷２８號","OBJECTID":421012},"geometry":{"x":166516.87000000011,"y":2544604.9100000039}},{"attributes":{"ID":421038,"DIS_CODE":0,"TOWNNAME":"中西區","LI":"西湖里","LIN":"2鄰","STREET":"頂美二街","SECT":" ","MAREA":" ","LANE":"７２巷","ALLEY":" ","HOUSE_NO":"３０號","E_COORD97":166516.09,"N_COORD97":2544600.2000000002,"ADDRESS":"頂美二街７２巷３０號","OBJECTID":421013},"geometry":{"x":166516.09000000078,"y":2544600.1999999993}},{"attributes":{"ID":421039,"DIS_CODE":0,"TOWNNAME":"中西區","LI":"西湖里","LIN":"2鄰","STREET":"頂美二街","SECT":" ","MAREA":" ","LANE":"７２巷","ALLEY":" ","HOUSE_NO":"３２號","E_COORD97":166516.48000000001,"N_COORD97":2544596.4700000002,"ADDRESS":"頂美二街７２巷３２號","OBJECTID":421014},"geometry":{"x":166516.48000000045,"y":2544596.4700000007}},{"attributes":{"ID":421040,"DIS_CODE":0,"TOWNNAME":"中西區","LI":"西湖里","LIN":"2鄰","STREET":"頂美二街","SECT":" ","MAREA":" ","LANE":"７２巷","ALLEY":" ","HOUSE_NO":"３６號","E_COORD97":166538.51000000001,"N_COORD97":2544600.3999999999,"ADDRESS":"頂美二街７２巷３６號","OBJECTID":421015},"geometry":{"x":166538.51000000071,"y":2544600.4000000004}},{"attributes":{"ID":421041,"DIS_CODE":0,"TOWNNAME":"中西區","LI":"西湖里","LIN":"2鄰","STREET":"頂美二街","SECT":" ","MAREA":" ","LANE":"７２巷","ALLEY":" ","HOUSE_NO":"３８號","E_COORD97":166537.51999999999,"N_COORD97":2544605.1099999999,"ADDRESS":"頂美二街７２巷３８號","OBJECTID":421016},"geometry":{"x":166537.51999999955,"y":2544605.1099999994}},{"attributes":{"ID":421042,"DIS_CODE":0,"TOWNNAME":"中西區","LI":"西湖里","LIN":"2鄰","STREET":"頂美二街","SECT":" ","MAREA":" ","LANE":"７２巷","ALLEY":" ","HOUSE_NO":"４０號","E_COORD97":166537.32999999999,"N_COORD97":2544609.4300000002,"ADDRESS":"頂美二街７２巷４０號","OBJECTID":421017},"geometry":{"x":166537.33000000007,"y":2544609.4299999997}},{"attributes":{"ID":421043,"DIS_CODE":0,"TOWNNAME":"中西區","LI":"西湖里","LIN":"2鄰","STREET":"頂美二街","SECT":" ","MAREA":" ","LANE":"７２巷","ALLEY":" ","HOUSE_NO":"４２號","E_COORD97":166536.92999999999,"N_COORD97":2544613.75,"ADDRESS":"頂美二街７２巷４２號","OBJECTID":421018},"geometry":{"x":166536.93000000156,"y":2544613.7500000019}},{"attributes":{"ID":421044,"DIS_CODE":0,"TOWNNAME":"中西區","LI":"西湖里","LIN":"2鄰","STREET":"頂美二街","SECT":" ","MAREA":" ","LANE":"７２巷","ALLEY":" ","HOUSE_NO":"４６號","E_COORD97":166535.95000000001,"N_COORD97":2544617.29,"ADDRESS":"頂美二街７２巷４６號","OBJECTID":421019},"geometry":{"x":166535.95000000112,"y":2544617.2899999991}},{"attributes":{"ID":421045,"DIS_CODE":0,"TOWNNAME":"中西區","LI":"西湖里","LIN":"2鄰","STREET":"頂美二街","SECT":" ","MAREA":" ","LANE":"７２巷","ALLEY":" ","HOUSE_NO":"４８號","E_COORD97":166533.59,"N_COORD97":2544629.4700000002,"ADDRESS":"頂美二街７２巷４８號","OBJECTID":421020},"geometry":{"x":166533.58999999985,"y":2544629.4700000025}},{"attributes":{"ID":421046,"DIS_CODE":0,"TOWNNAME":"中西區","LI":"西湖里","LIN":"2鄰","STREET":"頂美二街","SECT":" ","MAREA":" ","LANE":"７２巷","ALLEY":" ","HOUSE_NO":"５０號","E_COORD97":166542.04999999999,"N_COORD97":2544629.4700000002,"ADDRESS":"頂美二街７２巷５０號","OBJECTID":421021},"geometry":{"x":166542.05000000075,"y":2544629.4700000025}},{"attributes":{"ID":421047,"DIS_CODE":0,"TOWNNAME":"中西區","LI":"西湖里","LIN":"2鄰","STREET":"頂美二街","SECT":" ","MAREA":" ","LANE":"７２巷","ALLEY":" ","HOUSE_NO":"５２號","E_COORD97":166554.44,"N_COORD97":2544631.8199999998,"ADDRESS":"頂美二街７２巷５２號","OBJECTID":421022},"geometry":{"x":166554.43999999948,"y":2544631.8200000003}},{"attributes":{"ID":421048,"DIS_CODE":0,"TOWNNAME":"中西區","LI":"西湖里","LIN":"2鄰","STREET":"頂美二街","SECT":" ","MAREA":" ","LANE":"７２巷","ALLEY":" ","HOUSE_NO":"５６號","E_COORD97":166555.82000000001,"N_COORD97":2544627.5,"ADDRESS":"頂美二街７２巷５６號","OBJECTID":421023},"geometry":{"x":166555.82000000123,"y":2544627.4999999981}},{"attributes":{"ID":421049,"DIS_CODE":0,"TOWNNAME":"中西區","LI":"西湖里","LIN":"2鄰","STREET":"頂美二街","SECT":" ","MAREA":" ","LANE":"７２巷","ALLEY":" ","HOUSE_NO":"５８號","E_COORD97":166555.62,"N_COORD97":2544623.3799999999,"ADDRESS":"頂美二街７２巷５８號","OBJECTID":421024},"geometry":{"x":166555.62000000011,"y":2544623.379999999}},{"attributes":{"ID":421050,"DIS_CODE":0,"TOWNNAME":"中西區","LI":"西湖里","LIN":"2鄰","STREET":"頂美二街","SECT":" ","MAREA":" ","LANE":"７２巷","ALLEY":" ","HOUSE_NO":"６０號","E_COORD97":166556.01000000001,"N_COORD97":2544619.6400000001,"ADDRESS":"頂美二街７２巷６０號","OBJECTID":421025},"geometry":{"x":166556.00999999978,"y":2544619.6400000006}},{"attributes":{"ID":421051,"DIS_CODE":0,"TOWNNAME":"中西區","LI":"西湖里","LIN":"2鄰","STREET":"頂美二街","SECT":" ","MAREA":" ","LANE":"７２巷","ALLEY":" ","HOUSE_NO":"６２號","E_COORD97":166556.41,"N_COORD97":2544615.52,"ADDRESS":"頂美二街７２巷６２號","OBJECTID":421026},"geometry":{"x":166556.41000000108,"y":2544615.5199999996}},{"attributes":{"ID":421052,"DIS_CODE":0,"TOWNNAME":"中西區","LI":"西湖里","LIN":"2鄰","STREET":"頂美二街","SECT":" ","MAREA":" ","LANE":"７２巷","ALLEY":" ","HOUSE_NO":"６６號","E_COORD97":166556.01000000001,"N_COORD97":2544611,"ADDRESS":"頂美二街７２巷６６號","OBJECTID":421027},"geometry":{"x":166556.00999999978,"y":2544611.0000000037}},{"attributes":{"ID":421053,"DIS_CODE":0,"TOWNNAME":"中西區","LI":"西湖里","LIN":"2鄰","STREET":"頂美二街","SECT":" ","MAREA":" ","LANE":"４８巷","ALLEY":" ","HOUSE_NO":"１９號","E_COORD97":166468.59,"N_COORD97":2544555.8399999999,"ADDRESS":"頂美二街４８巷１９號","OBJECTID":421028},"geometry":{"x":166468.59000000078,"y":2544555.8399999999}},{"attributes":{"ID":421054,"DIS_CODE":0,"TOWNNAME":"中西區","LI":"西湖里","LIN":"2鄰","STREET":"頂美二街","SECT":" ","MAREA":" ","LANE":"４８巷","ALLEY":" ","HOUSE_NO":"１６號","E_COORD97":166627.14999999999,"N_COORD97":2545221.04,"ADDRESS":"頂美二街４８巷１６號","OBJECTID":421029},"geometry":{"x":166627.15000000037,"y":2545221.040000001}},{"attributes":{"ID":421055,"DIS_CODE":0,"TOWNNAME":"善化區","LI":"南關里","LIN":"2鄰","STREET":"中華路","SECT":" ","MAREA":" ","LANE":"１３１巷","ALLEY":" ","HOUSE_NO":"２號","E_COORD97":177179.89000000001,"N_COORD97":2559001.25,"ADDRESS":"中華路１３１巷２號","OBJECTID":421030},"geometry":{"x":177179.8900000006,"y":2559001.2500000037}},{"attributes":{"ID":421056,"DIS_CODE":0,"TOWNNAME":"善化區","LI":"文正里","LIN":"2鄰","STREET":"文正路","SECT":" ","MAREA":" ","LANE":"７９巷","ALLEY":" ","HOUSE_NO":"２０號之８","E_COORD97":177131.88,"N_COORD97":2559393.2400000002,"ADDRESS":"文正路７９巷２０號之８","OBJECTID":421031},"geometry":{"x":177131.87999999989,"y":2559393.2400000002}},{"attributes":{"ID":421057,"DIS_CODE":0,"TOWNNAME":"善化區","LI":"小新里","LIN":"2鄰","STREET":"成功路","SECT":" ","MAREA":" ","LANE":"８５巷","ALLEY":" ","HOUSE_NO":"２１號","E_COORD97":179923.03,"N_COORD97":2558557.9700000002,"ADDRESS":"成功路８５巷２１號","OBJECTID":421032},"geometry":{"x":179923.03000000026,"y":2558557.9700000025}},{"attributes":{"ID":421058,"DIS_CODE":0,"TOWNNAME":"善化區","LI":"小新里","LIN":"2鄰","STREET":"成功路","SECT":" ","MAREA":" ","LANE":"８５巷","ALLEY":" ","HOUSE_NO":"２１號之１","E_COORD97":179938.62,"N_COORD97":2558554.3199999998,"ADDRESS":"成功路８５巷２１號之１","OBJECTID":421033},"geometry":{"x":179938.62000000104,"y":2558554.3200000022}},{"attributes":{"ID":421059,"DIS_CODE":0,"TOWNNAME":"善化區","LI":"小新里","LIN":"2鄰","STREET":"成功路","SECT":" ","MAREA":" ","LANE":"８５巷","ALLEY":" ","HOUSE_NO":"２１號之２","E_COORD97":179943.67999999999,"N_COORD97":2558552.96,"ADDRESS":"成功路８５巷２１號之２","OBJECTID":421034},"geometry":{"x":179943.6799999997,"y":2558552.9600000009}},{"attributes":{"ID":421060,"DIS_CODE":0,"TOWNNAME":"仁德區","LI":"中生里","LIN":"10鄰","STREET":" ","SECT":" ","MAREA":"中洲","LANE":" ","ALLEY":" ","HOUSE_NO":"１８４號之２","E_COORD97":173148.728076,"N_COORD97":2534165.9129699999,"ADDRESS":"中洲１８４號之２","OBJECTID":421035},"geometry":{"x":173148.72807599977,"y":2534165.912974}},{"attributes":{"ID":421061,"DIS_CODE":0,"TOWNNAME":"仁德區","LI":"中生里","LIN":"10鄰","STREET":" ","SECT":" ","MAREA":"中洲","LANE":" ","ALLEY":" ","HOUSE_NO":"１８４號之３","E_COORD97":173150.63485100001,"N_COORD97":2534157.8696499998,"ADDRESS":"中洲１８４號之３","OBJECTID":421036},"geometry":{"x":173150.6348510012,"y":2534157.8696449995}},{"attributes":{"ID":421062,"DIS_CODE":0,"TOWNNAME":"善化區","LI":"小新里","LIN":"2鄰","STREET":"成功路","SECT":" ","MAREA":" ","LANE":"８５巷","ALLEY":" ","HOUSE_NO":"２２號","E_COORD97":179902.48000000001,"N_COORD97":2558561.5699999998,"ADDRESS":"成功路８５巷２２號","OBJECTID":421037},"geometry":{"x":179902.48000000138,"y":2558561.5700000003}},{"attributes":{"ID":421063,"DIS_CODE":0,"TOWNNAME":"善化區","LI":"小新里","LIN":"2鄰","STREET":"成功路","SECT":" ","MAREA":" ","LANE":"８５巷","ALLEY":" ","HOUSE_NO":"２２號之１","E_COORD97":179889.51999999999,"N_COORD97":2558563.71,"ADDRESS":"成功路８５巷２２號之１","OBJECTID":421038},"geometry":{"x":179889.52000000048,"y":2558563.7100000009}},{"attributes":{"ID":421064,"DIS_CODE":0,"TOWNNAME":"善化區","LI":"小新里","LIN":"2鄰","STREET":"成功路","SECT":" ","MAREA":" ","LANE":"８５巷","ALLEY":" ","HOUSE_NO":"２２號之２","E_COORD97":179884.38,"N_COORD97":2558565.0600000001,"ADDRESS":"成功路８５巷２２號之２","OBJECTID":421039},"geometry":{"x":179884.38000000082,"y":2558565.0600000005}},{"attributes":{"ID":421065,"DIS_CODE":0,"TOWNNAME":"善化區","LI":"小新里","LIN":"2鄰","STREET":"成功路","SECT":" ","MAREA":" ","LANE":"８５巷","ALLEY":" ","HOUSE_NO":"２２號之３","E_COORD97":179879.64999999999,"N_COORD97":2558566.27,"ADDRESS":"成功路８５巷２２號之３","OBJECTID":421040},"geometry":{"x":179879.6500000013,"y":2558566.2699999996}},{"attributes":{"ID":421066,"DIS_CODE":0,"TOWNNAME":"善化區","LI":"小新里","LIN":"2鄰","STREET":"成功路","SECT":" ","MAREA":" ","LANE":"８５巷","ALLEY":" ","HOUSE_NO":"２３號","E_COORD97":179921.26000000001,"N_COORD97":2558553.3799999999,"ADDRESS":"成功路８５巷２３號","OBJECTID":421041},"geometry":{"x":179921.25999999978,"y":2558553.3800000008}},{"attributes":{"ID":421067,"DIS_CODE":0,"TOWNNAME":"善化區","LI":"小新里","LIN":"2鄰","STREET":"成功路","SECT":" ","MAREA":" ","LANE":"８５巷","ALLEY":" ","HOUSE_NO":"２５號","E_COORD97":179919.73000000001,"N_COORD97":2558547.8300000001,"ADDRESS":"成功路８５巷２５號","OBJECTID":421042},"geometry":{"x":179919.73000000138,"y":2558547.8300000019}},{"attributes":{"ID":421068,"DIS_CODE":0,"TOWNNAME":"善化區","LI":"小新里","LIN":"2鄰","STREET":"成功路","SECT":" ","MAREA":" ","LANE":"８５巷","ALLEY":" ","HOUSE_NO":"２６號","E_COORD97":179901.17999999999,"N_COORD97":2558555.98,"ADDRESS":"成功路８５巷２６號","OBJECTID":421043},"geometry":{"x":179901.1799999997,"y":2558555.9800000042}},{"attributes":{"ID":421069,"DIS_CODE":0,"TOWNNAME":"善化區","LI":"小新里","LIN":"2鄰","STREET":"成功路","SECT":" ","MAREA":" ","LANE":"８５巷","ALLEY":" ","HOUSE_NO":"２７號","E_COORD97":179918.67999999999,"N_COORD97":2558542.2000000002,"ADDRESS":"成功路８５巷２７號","OBJECTID":421044},"geometry":{"x":179918.68000000156,"y":2558542.1999999993}},{"attributes":{"ID":421070,"DIS_CODE":0,"TOWNNAME":"善化區","LI":"小新里","LIN":"2鄰","STREET":"成功路","SECT":" ","MAREA":" ","LANE":"８５巷","ALLEY":" ","HOUSE_NO":"２８號","E_COORD97":179899.72,"N_COORD97":2558550.73,"ADDRESS":"成功路８５巷２８號","OBJECTID":421045},"geometry":{"x":179899.71999999974,"y":2558550.7299999986}},{"attributes":{"ID":421071,"DIS_CODE":0,"TOWNNAME":"善化區","LI":"小新里","LIN":"2鄰","STREET":"成功路","SECT":" ","MAREA":" ","LANE":"８５巷","ALLEY":" ","HOUSE_NO":"２９號","E_COORD97":179917.39000000001,"N_COORD97":2558537.0499999998,"ADDRESS":"成功路８５巷２９號","OBJECTID":421046},"geometry":{"x":179917.39000000153,"y":2558537.0500000026}},{"attributes":{"ID":421072,"DIS_CODE":0,"TOWNNAME":"善化區","LI":"小新里","LIN":"2鄰","STREET":"成功路","SECT":" ","MAREA":" ","LANE":"８５巷","ALLEY":" ","HOUSE_NO":"３０號","E_COORD97":179898.34,"N_COORD97":2558546.0899999999,"ADDRESS":"成功路８５巷３０號","OBJECTID":421047},"geometry":{"x":179898.33999999985,"y":2558546.0900000017}},{"attributes":{"ID":421073,"DIS_CODE":0,"TOWNNAME":"善化區","LI":"小新里","LIN":"2鄰","STREET":"成功路","SECT":" ","MAREA":" ","LANE":"８５巷","ALLEY":" ","HOUSE_NO":"３１號","E_COORD97":179915.19,"N_COORD97":2558532.0699999998,"ADDRESS":"成功路８５巷３１號","OBJECTID":421048},"geometry":{"x":179915.19000000041,"y":2558532.0700000022}},{"attributes":{"ID":421074,"DIS_CODE":0,"TOWNNAME":"善化區","LI":"小新里","LIN":"2鄰","STREET":"成功路","SECT":" ","MAREA":" ","LANE":"８５巷","ALLEY":" ","HOUSE_NO":"３２號","E_COORD97":179897.04999999999,"N_COORD97":2558540.9199999999,"ADDRESS":"成功路８５巷３２號","OBJECTID":421049},"geometry":{"x":179897.04999999981,"y":2558540.9199999999}},{"attributes":{"ID":421075,"DIS_CODE":0,"TOWNNAME":"鹽水區","LI":"岸內里","LIN":"24鄰","STREET":"北門路","SECT":" ","MAREA":" ","LANE":"９巷","ALLEY":" ","HOUSE_NO":"５９號","E_COORD97":175417.09,"N_COORD97":2580468.6400000001,"ADDRESS":"北門路９巷５９號","OBJECTID":421050},"geometry":{"x":175417.09000000171,"y":2580468.6400000025}},{"attributes":{"ID":421076,"DIS_CODE":0,"TOWNNAME":"善化區","LI":"小新里","LIN":"2鄰","STREET":"成功路","SECT":" ","MAREA":" ","LANE":"８５巷","ALLEY":" ","HOUSE_NO":"３３號","E_COORD97":179913.84,"N_COORD97":2558526.71,"ADDRESS":"成功路８５巷３３號","OBJECTID":421051},"geometry":{"x":179913.83999999985,"y":2558526.7100000009}},{"attributes":{"ID":421077,"DIS_CODE":0,"TOWNNAME":"善化區","LI":"小新里","LIN":"2鄰","STREET":"成功路","SECT":" ","MAREA":" ","LANE":"８５巷","ALLEY":" ","HOUSE_NO":"３５號","E_COORD97":179912.03,"N_COORD97":2558521.2799999998,"ADDRESS":"成功路８５巷３５號","OBJECTID":421052},"geometry":{"x":179912.03000000119,"y":2558521.2799999993}},{"attributes":{"ID":421078,"DIS_CODE":0,"TOWNNAME":"善化區","LI":"小新里","LIN":"2鄰","STREET":"成功路","SECT":" ","MAREA":" ","LANE":"８５巷","ALLEY":" ","HOUSE_NO":"３５號之１","E_COORD97":179928.23999999999,"N_COORD97":2558518.9399999999,"ADDRESS":"成功路８５巷３５號之１","OBJECTID":421053},"geometry":{"x":179928.24000000022,"y":2558518.9400000013}},{"attributes":{"ID":421079,"DIS_CODE":0,"TOWNNAME":"善化區","LI":"小新里","LIN":"2鄰","STREET":"成功路","SECT":" ","MAREA":" ","LANE":"８５巷","ALLEY":" ","HOUSE_NO":"３５號之２","E_COORD97":179932.97,"N_COORD97":2558517.5899999999,"ADDRESS":"成功路８５巷３５號之２","OBJECTID":421054},"geometry":{"x":179932.96999999974,"y":2558517.5900000036}},{"attributes":{"ID":421080,"DIS_CODE":0,"TOWNNAME":"善化區","LI":"小新里","LIN":"2鄰","STREET":"成功路","SECT":" ","MAREA":" ","LANE":"８５巷","ALLEY":" ","HOUSE_NO":"３６號","E_COORD97":179895.57999999999,"N_COORD97":2558536.0099999998,"ADDRESS":"成功路８５巷３６號","OBJECTID":421055},"geometry":{"x":179895.58000000007,"y":2558536.0100000016}},{"attributes":{"ID":421081,"DIS_CODE":0,"TOWNNAME":"善化區","LI":"小新里","LIN":"2鄰","STREET":"成功路","SECT":" ","MAREA":" ","LANE":"８５巷","ALLEY":" ","HOUSE_NO":"３７號","E_COORD97":179908.26999999999,"N_COORD97":2558508.6699999999,"ADDRESS":"成功路８５巷３７號","OBJECTID":421056},"geometry":{"x":179908.27000000048,"y":2558508.6699999999}},{"attributes":{"ID":421082,"DIS_CODE":0,"TOWNNAME":"善化區","LI":"小新里","LIN":"2鄰","STREET":"成功路","SECT":" ","MAREA":" ","LANE":"８５巷","ALLEY":" ","HOUSE_NO":"３７號之１","E_COORD97":179923.01999999999,"N_COORD97":2558505.0800000001,"ADDRESS":"成功路８５巷３７號之１","OBJECTID":421057},"geometry":{"x":179923.02000000142,"y":2558505.0800000019}},{"attributes":{"ID":421083,"DIS_CODE":0,"TOWNNAME":"善化區","LI":"小新里","LIN":"2鄰","STREET":"成功路","SECT":" ","MAREA":" ","LANE":"８５巷","ALLEY":" ","HOUSE_NO":"３７號之２","E_COORD97":179928.82000000001,"N_COORD97":2558503.75,"ADDRESS":"成功路８５巷３７號之２","OBJECTID":421058},"geometry":{"x":179928.82000000123,"y":2558503.7500000019}},{"attributes":{"ID":421084,"DIS_CODE":0,"TOWNNAME":"善化區","LI":"小新里","LIN":"2鄰","STREET":"成功路","SECT":" ","MAREA":" ","LANE":"８５巷","ALLEY":" ","HOUSE_NO":"３８號","E_COORD97":179894.45999999999,"N_COORD97":2558530.9199999999,"ADDRESS":"成功路８５巷３８號","OBJECTID":421059},"geometry":{"x":179894.45999999996,"y":2558530.9199999999}},{"attributes":{"ID":421085,"DIS_CODE":0,"TOWNNAME":"善化區","LI":"小新里","LIN":"2鄰","STREET":"成功路","SECT":" ","MAREA":" ","LANE":"８５巷","ALLEY":" ","HOUSE_NO":"３９號","E_COORD97":179906.60000000001,"N_COORD97":2558503.6600000001,"ADDRESS":"成功路８５巷３９號","OBJECTID":421060},"geometry":{"x":179906.59999999963,"y":2558503.6600000039}},{"attributes":{"ID":421086,"DIS_CODE":0,"TOWNNAME":"善化區","LI":"小新里","LIN":"2鄰","STREET":"成功路","SECT":" ","MAREA":" ","LANE":"８５巷","ALLEY":" ","HOUSE_NO":"４０號","E_COORD97":179892.91,"N_COORD97":2558525.6800000002,"ADDRESS":"成功路８５巷４０號","OBJECTID":421061},"geometry":{"x":179892.91000000108,"y":2558525.6799999997}},{"attributes":{"ID":421087,"DIS_CODE":0,"TOWNNAME":"善化區","LI":"小新里","LIN":"2鄰","STREET":"成功路","SECT":" ","MAREA":" ","LANE":"８５巷","ALLEY":" ","HOUSE_NO":"４０號","E_COORD97":179880.04999999999,"N_COORD97":2558530.6800000002,"ADDRESS":"成功路８５巷４０號","OBJECTID":421062},"geometry":{"x":179880.04999999981,"y":2558530.6800000016}},{"attributes":{"ID":421088,"DIS_CODE":0,"TOWNNAME":"善化區","LI":"小新里","LIN":"2鄰","STREET":"成功路","SECT":" ","MAREA":" ","LANE":"８５巷","ALLEY":" ","HOUSE_NO":"４２號之２","E_COORD97":179875.29000000001,"N_COORD97":2558532.2599999998,"ADDRESS":"成功路８５巷４２號之２","OBJECTID":421063},"geometry":{"x":179875.29000000004,"y":2558532.2599999998}},{"attributes":{"ID":421089,"DIS_CODE":0,"TOWNNAME":"善化區","LI":"小新里","LIN":"2鄰","STREET":"成功路","SECT":" ","MAREA":" ","LANE":"８５巷","ALLEY":" ","HOUSE_NO":"４２號之３","E_COORD97":179870.35000000001,"N_COORD97":2558533.71,"ADDRESS":"成功路８５巷４２號之３","OBJECTID":421064},"geometry":{"x":179870.35000000056,"y":2558533.7100000009}},{"attributes":{"ID":421090,"DIS_CODE":0,"TOWNNAME":"善化區","LI":"小新里","LIN":"2鄰","STREET":"成功路","SECT":" ","MAREA":" ","LANE":"８５巷","ALLEY":" ","HOUSE_NO":"４１號","E_COORD97":179905.45000000001,"N_COORD97":2558499.1800000002,"ADDRESS":"成功路８５巷４１號","OBJECTID":421065},"geometry":{"x":179905.44999999925,"y":2558499.1799999997}},{"attributes":{"ID":421091,"DIS_CODE":0,"TOWNNAME":"善化區","LI":"小新里","LIN":"2鄰","STREET":"成功路","SECT":" ","MAREA":" ","LANE":"８５巷","ALLEY":" ","HOUSE_NO":"４２號","E_COORD97":179890.29999999999,"N_COORD97":2558515.1099999999,"ADDRESS":"成功路８５巷４２號","OBJECTID":421066},"geometry":{"x":179890.29999999981,"y":2558515.1099999994}},{"attributes":{"ID":421092,"DIS_CODE":0,"TOWNNAME":"善化區","LI":"小新里","LIN":"2鄰","STREET":"成功路","SECT":" ","MAREA":" ","LANE":"８５巷","ALLEY":" ","HOUSE_NO":"４２號之１","E_COORD97":179876.44,"N_COORD97":2558518.21,"ADDRESS":"成功路８５巷４２號之１","OBJECTID":421067},"geometry":{"x":179876.44000000041,"y":2558518.2100000028}},{"attributes":{"ID":421093,"DIS_CODE":0,"TOWNNAME":"善化區","LI":"小新里","LIN":"2鄰","STREET":"成功路","SECT":" ","MAREA":" ","LANE":"８５巷","ALLEY":" ","HOUSE_NO":"４２號之２","E_COORD97":179871.42999999999,"N_COORD97":2558519.6400000001,"ADDRESS":"成功路８５巷４２號之２","OBJECTID":421068},"geometry":{"x":179871.43000000063,"y":2558519.6400000006}},{"attributes":{"ID":421094,"DIS_CODE":0,"TOWNNAME":"善化區","LI":"小新里","LIN":"2鄰","STREET":"成功路","SECT":" ","MAREA":" ","LANE":"８５巷","ALLEY":" ","HOUSE_NO":"４２號之３","E_COORD97":179866.48000000001,"N_COORD97":2558520.7799999998,"ADDRESS":"成功路８５巷４２號之３","OBJECTID":421069},"geometry":{"x":179866.48000000045,"y":2558520.7799999993}},{"attributes":{"ID":421095,"DIS_CODE":0,"TOWNNAME":"仁德區","LI":"中生里","LIN":"11鄰","STREET":" ","SECT":" ","MAREA":"中洲","LANE":" ","ALLEY":" ","HOUSE_NO":"１９０號","E_COORD97":173148.092485,"N_COORD97":2534082.9396899999,"ADDRESS":"中洲１９０號","OBJECTID":421070},"geometry":{"x":173148.09248500131,"y":2534082.9396860022}},{"attributes":{"ID":421096,"DIS_CODE":0,"TOWNNAME":"善化區","LI":"小新里","LIN":"2鄰","STREET":"成功路","SECT":" ","MAREA":" ","LANE":"８５巷","ALLEY":" ","HOUSE_NO":"４３號","E_COORD97":179903.89000000001,"N_COORD97":2558494.1800000002,"ADDRESS":"成功路８５巷４３號","OBJECTID":421071},"geometry":{"x":179903.8900000006,"y":2558494.1800000016}},{"attributes":{"ID":421097,"DIS_CODE":0,"TOWNNAME":"善化區","LI":"小新里","LIN":"2鄰","STREET":"成功路","SECT":" ","MAREA":" ","LANE":"８５巷","ALLEY":" ","HOUSE_NO":"４５號","E_COORD97":179902.32999999999,"N_COORD97":2558489.0699999998,"ADDRESS":"成功路８５巷４５號","OBJECTID":421072},"geometry":{"x":179902.33000000007,"y":2558489.0700000022}},{"attributes":{"ID":421098,"DIS_CODE":0,"TOWNNAME":"善化區","LI":"小新里","LIN":"2鄰","STREET":"成功路","SECT":" ","MAREA":" ","LANE":"８５巷","ALLEY":" ","HOUSE_NO":"４６號","E_COORD97":179888.76999999999,"N_COORD97":2558510.2400000002,"ADDRESS":"成功路８５巷４６號","OBJECTID":421073},"geometry":{"x":179888.76999999955,"y":2558510.2400000021}},{"attributes":{"ID":421099,"DIS_CODE":0,"TOWNNAME":"善化區","LI":"小新里","LIN":"2鄰","STREET":"成功路","SECT":" ","MAREA":" ","LANE":"８５巷","ALLEY":" ","HOUSE_NO":"４７號","E_COORD97":179900.76000000001,"N_COORD97":2558484.1699999999,"ADDRESS":"成功路８５巷４７號","OBJECTID":421074},"geometry":{"x":179900.75999999978,"y":2558484.1700000018}},{"attributes":{"ID":421100,"DIS_CODE":0,"TOWNNAME":"善化區","LI":"小新里","LIN":"2鄰","STREET":"成功路","SECT":" ","MAREA":" ","LANE":"８５巷","ALLEY":" ","HOUSE_NO":"４８號","E_COORD97":179887.45999999999,"N_COORD97":2558505.5699999998,"ADDRESS":"成功路８５巷４８號","OBJECTID":421075},"geometry":{"x":179887.45999999996,"y":2558505.5700000022}},{"attributes":{"ID":421101,"DIS_CODE":0,"TOWNNAME":"善化區","LI":"小新里","LIN":"2鄰","STREET":"成功路","SECT":" ","MAREA":" ","LANE":"８５巷","ALLEY":" ","HOUSE_NO":"４９號","E_COORD97":179899.60999999999,"N_COORD97":2558480.0099999998,"ADDRESS":"成功路８５巷４９號","OBJECTID":421076},"geometry":{"x":179899.6100000022,"y":2558480.0099999998}},{"attributes":{"ID":421102,"DIS_CODE":0,"TOWNNAME":"善化區","LI":"小新里","LIN":"2鄰","STREET":"成功路","SECT":" ","MAREA":" ","LANE":"８５巷","ALLEY":" ","HOUSE_NO":"５０號","E_COORD97":179886.14999999999,"N_COORD97":2558500.77,"ADDRESS":"成功路８５巷５０號","OBJECTID":421077},"geometry":{"x":179886.1500000013,"y":2558500.7699999996}},{"attributes":{"ID":421103,"DIS_CODE":0,"TOWNNAME":"善化區","LI":"小新里","LIN":"2鄰","STREET":"成功路","SECT":" ","MAREA":" ","LANE":"８５巷","ALLEY":" ","HOUSE_NO":"５１號","E_COORD97":179898.26000000001,"N_COORD97":2558475.1099999999,"ADDRESS":"成功路８５巷５１號","OBJECTID":421078},"geometry":{"x":179898.26000000071,"y":2558475.1099999994}},{"attributes":{"ID":421104,"DIS_CODE":0,"TOWNNAME":"善化區","LI":"小新里","LIN":"2鄰","STREET":"成功路","SECT":" ","MAREA":" ","LANE":"８５巷","ALLEY":" ","HOUSE_NO":"５２號","E_COORD97":179884.76999999999,"N_COORD97":2558495.8900000001,"ADDRESS":"成功路８５巷５２號","OBJECTID":421079},"geometry":{"x":179884.77000000048,"y":2558495.8900000043}},{"attributes":{"ID":421105,"DIS_CODE":0,"TOWNNAME":"善化區","LI":"小新里","LIN":"2鄰","STREET":"成功路","SECT":" ","MAREA":" ","LANE":"８５巷","ALLEY":" ","HOUSE_NO":"５３號","E_COORD97":179896.79999999999,"N_COORD97":2558470.4199999999,"ADDRESS":"成功路８５巷５３號","OBJECTID":421080},"geometry":{"x":179896.80000000075,"y":2558470.4199999999}},{"attributes":{"ID":421106,"DIS_CODE":0,"TOWNNAME":"善化區","LI":"小新里","LIN":"2鄰","STREET":"成功路","SECT":" ","MAREA":" ","LANE":"８５巷","ALLEY":" ","HOUSE_NO":"５３號之１","E_COORD97":179915.89000000001,"N_COORD97":2558478.1699999999,"ADDRESS":"成功路８５巷５３號之１","OBJECTID":421081},"geometry":{"x":179915.8900000006,"y":2558478.1699999999}},{"attributes":{"ID":421107,"DIS_CODE":0,"TOWNNAME":"善化區","LI":"小新里","LIN":"2鄰","STREET":"成功路","SECT":" ","MAREA":" ","LANE":"８５巷","ALLEY":" ","HOUSE_NO":"５３號之２","E_COORD97":179921.32000000001,"N_COORD97":2558477.0499999998,"ADDRESS":"成功路８５巷５３號之２","OBJECTID":421082},"geometry":{"x":179921.3200000003,"y":2558477.0500000007}},{"attributes":{"ID":421108,"DIS_CODE":0,"TOWNNAME":"善化區","LI":"小新里","LIN":"2鄰","STREET":"成功路","SECT":" ","MAREA":" ","LANE":"８５巷","ALLEY":" ","HOUSE_NO":"５６號","E_COORD97":179883.17000000001,"N_COORD97":2558490.9199999999,"ADDRESS":"成功路８５巷５６號","OBJECTID":421083},"geometry":{"x":179883.16999999993,"y":2558490.9199999999}},{"attributes":{"ID":421109,"DIS_CODE":0,"TOWNNAME":"安平區","LI":"國平里","LIN":"13鄰","STREET":"建平一街","SECT":" ","MAREA":" ","LANE":" ","ALLEY":" ","HOUSE_NO":"２３１號","E_COORD97":165504.26000000001,"N_COORD97":2542787.1299999999,"ADDRESS":"建平一街２３１號","OBJECTID":421084},"geometry":{"x":165504.26000000071,"y":2542787.129999999}},{"attributes":{"ID":421110,"DIS_CODE":0,"TOWNNAME":"善化區","LI":"小新里","LIN":"2鄰","STREET":"成功路","SECT":" ","MAREA":" ","LANE":"８５巷","ALLEY":" ","HOUSE_NO":"５８號","E_COORD97":179881.70999999999,"N_COORD97":2558486.1200000001,"ADDRESS":"成功路８５巷５８號","OBJECTID":421085},"geometry":{"x":179881.71000000089,"y":2558486.1200000029}},{"attributes":{"ID":421111,"DIS_CODE":0,"TOWNNAME":"善化區","LI":"小新里","LIN":"2鄰","STREET":"成功路","SECT":" ","MAREA":" ","LANE":"８５巷","ALLEY":" ","HOUSE_NO":"６０號","E_COORD97":179880.04000000001,"N_COORD97":2558479.7200000002,"ADDRESS":"成功路８５巷６０號","OBJECTID":421086},"geometry":{"x":179880.04000000097,"y":2558479.7200000007}},{"attributes":{"ID":421112,"DIS_CODE":0,"TOWNNAME":"善化區","LI":"小新里","LIN":"2鄰","STREET":"成功路","SECT":" ","MAREA":" ","LANE":"８５巷","ALLEY":" ","HOUSE_NO":"６０號之１","E_COORD97":179865.5,"N_COORD97":2558480.5600000001,"ADDRESS":"成功路８５巷６０號之１","OBJECTID":421087},"geometry":{"x":179865.5,"y":2558480.5600000005}},{"attributes":{"ID":421113,"DIS_CODE":0,"TOWNNAME":"善化區","LI":"小新里","LIN":"2鄰","STREET":"成功路","SECT":" ","MAREA":" ","LANE":"８５巷","ALLEY":" ","HOUSE_NO":"６０號之２","E_COORD97":179860.04000000001,"N_COORD97":2558482.0600000001,"ADDRESS":"成功路８５巷６０號之２","OBJECTID":421088},"geometry":{"x":179860.04000000004,"y":2558482.0600000024}},{"attributes":{"ID":421114,"DIS_CODE":0,"TOWNNAME":"善化區","LI":"小新里","LIN":"2鄰","STREET":"成功路","SECT":" ","MAREA":" ","LANE":"８５巷","ALLEY":" ","HOUSE_NO":"６０號之３","E_COORD97":179854.98000000001,"N_COORD97":2558483.5499999998,"ADDRESS":"成功路８５巷６０號之３","OBJECTID":421089},"geometry":{"x":179854.98000000138,"y":2558483.5500000007}},{"attributes":{"ID":421115,"DIS_CODE":0,"TOWNNAME":"中西區","LI":"西湖里","LIN":"2鄰","STREET":"頂美二街","SECT":" ","MAREA":" ","LANE":"４８巷","ALLEY":" ","HOUSE_NO":"１６之１號","E_COORD97":166424.67000000001,"N_COORD97":2544537.54,"ADDRESS":"頂美二街４８巷１６之１號","OBJECTID":421090},"geometry":{"x":166424.66999999993,"y":2544537.5399999991}},{"attributes":{"ID":421116,"DIS_CODE":0,"TOWNNAME":"中西區","LI":"西湖里","LIN":"2鄰","STREET":"頂美二街","SECT":" ","MAREA":" ","LANE":"４８巷","ALLEY":" ","HOUSE_NO":"１６之２號","E_COORD97":166424.67000000001,"N_COORD97":2544535.5699999998,"ADDRESS":"頂美二街４８巷１６之２號","OBJECTID":421091},"geometry":{"x":166424.66999999993,"y":2544535.5700000003}},{"attributes":{"ID":421117,"DIS_CODE":0,"TOWNNAME":"中西區","LI":"文賢里","LIN":"2鄰","STREET":"文和街","SECT":" ","MAREA":" ","LANE":"１０巷","ALLEY":" ","HOUSE_NO":"１號","E_COORD97":167276.32999999999,"N_COORD97":2544995.0299999998,"ADDRESS":"文和街１０巷１號","OBJECTID":421092},"geometry":{"x":167276.33000000007,"y":2544995.0299999993}},{"attributes":{"ID":421118,"DIS_CODE":0,"TOWNNAME":"中西區","LI":"文賢里","LIN":"2鄰","STREET":"文和街","SECT":" ","MAREA":" ","LANE":"１０巷","ALLEY":" ","HOUSE_NO":"５號","E_COORD97":167277.16,"N_COORD97":2545000.48,"ADDRESS":"文和街１０巷５號","OBJECTID":421093},"geometry":{"x":167277.16000000108,"y":2545000.4800000004}},{"attributes":{"ID":421119,"DIS_CODE":0,"TOWNNAME":"中西區","LI":"文賢里","LIN":"2鄰","STREET":"文和街","SECT":" ","MAREA":" ","LANE":"１０巷","ALLEY":" ","HOUSE_NO":"７號","E_COORD97":167277.28,"N_COORD97":2545005.21,"ADDRESS":"文和街１０巷７號","OBJECTID":421094},"geometry":{"x":167277.28000000026,"y":2545005.2100000028}},{"attributes":{"ID":421120,"DIS_CODE":0,"TOWNNAME":"中西區","LI":"西賢里","LIN":"2鄰","STREET":"湖美街","SECT":" ","MAREA":" ","LANE":"４７巷","ALLEY":" ","HOUSE_NO":"１０號","E_COORD97":165909.29000000001,"N_COORD97":2544574.9300000002,"ADDRESS":"湖美街４７巷１０號","OBJECTID":421095},"geometry":{"x":165909.2900000019,"y":2544574.9300000016}},{"attributes":{"ID":421121,"DIS_CODE":0,"TOWNNAME":"中西區","LI":"西賢里","LIN":"2鄰","STREET":"湖美街","SECT":" ","MAREA":" ","LANE":"４７巷","ALLEY":" ","HOUSE_NO":"２號","E_COORD97":165934.39000000001,"N_COORD97":2544575.5600000001,"ADDRESS":"湖美街４７巷２號","OBJECTID":421096},"geometry":{"x":165934.3900000006,"y":2544575.5600000005}},{"attributes":{"ID":421122,"DIS_CODE":0,"TOWNNAME":"中西區","LI":"西賢里","LIN":"2鄰","STREET":"湖美街","SECT":" ","MAREA":" ","LANE":"４７巷","ALLEY":" ","HOUSE_NO":"６號","E_COORD97":165926.60000000001,"N_COORD97":2544576.04,"ADDRESS":"湖美街４７巷６號","OBJECTID":421097},"geometry":{"x":165926.59999999963,"y":2544576.040000001}},{"attributes":{"ID":421123,"DIS_CODE":0,"TOWNNAME":"中西區","LI":"西賢里","LIN":"2鄰","STREET":"湖美街","SECT":" ","MAREA":" ","LANE":"４７巷","ALLEY":" ","HOUSE_NO":"８號","E_COORD97":165917.87,"N_COORD97":2544575.8799999999,"ADDRESS":"湖美街４７巷８號","OBJECTID":421098},"geometry":{"x":165917.87000000104,"y":2544575.879999999}},{"attributes":{"ID":421124,"DIS_CODE":0,"TOWNNAME":"中西區","LI":"藥王里","LIN":"2鄰","STREET":"大福街","SECT":" ","MAREA":" ","LANE":"３６巷","ALLEY":" ","HOUSE_NO":"１１號","E_COORD97":167380.19,"N_COORD97":2544403.6899999999,"ADDRESS":"大福街３６巷１１號","OBJECTID":421099},"geometry":{"x":167380.19000000227,"y":2544403.6900000013}},{"attributes":{"ID":421125,"DIS_CODE":0,"TOWNNAME":"中西區","LI":"藥王里","LIN":"2鄰","STREET":"大福街","SECT":" ","MAREA":" ","LANE":"３６巷","ALLEY":" ","HOUSE_NO":"１３號","E_COORD97":167384.54999999999,"N_COORD97":2544402,"ADDRESS":"大福街３６巷１３號","OBJECTID":421100},"geometry":{"x":167384.55000000075,"y":2544402.0000000019}},{"attributes":{"ID":421126,"DIS_CODE":0,"TOWNNAME":"中西區","LI":"藥王里","LIN":"2鄰","STREET":"大福街","SECT":" ","MAREA":" ","LANE":"３６巷","ALLEY":" ","HOUSE_NO":"１５號","E_COORD97":167390.35999999999,"N_COORD97":2544400.3100000001,"ADDRESS":"大福街３６巷１５號","OBJECTID":421101},"geometry":{"x":167390.36000000034,"y":2544400.3100000024}},{"attributes":{"ID":421127,"DIS_CODE":0,"TOWNNAME":"中西區","LI":"藥王里","LIN":"2鄰","STREET":"大福街","SECT":" ","MAREA":" ","LANE":"３６巷","ALLEY":" ","HOUSE_NO":"１７號","E_COORD97":167393.75,"N_COORD97":2544398.8599999999,"ADDRESS":"大福街３６巷１７號","OBJECTID":421102},"geometry":{"x":167393.75,"y":2544398.8600000013}},{"attributes":{"ID":421128,"DIS_CODE":0,"TOWNNAME":"中西區","LI":"藥王里","LIN":"2鄰","STREET":"大福街","SECT":" ","MAREA":" ","LANE":"３６巷","ALLEY":" ","HOUSE_NO":"１９號","E_COORD97":167398.82999999999,"N_COORD97":2544397.6499999999,"ADDRESS":"大福街３６巷１９號","OBJECTID":421103},"geometry":{"x":167398.83000000007,"y":2544397.6500000022}},{"attributes":{"ID":421129,"DIS_CODE":0,"TOWNNAME":"中西區","LI":"藥王里","LIN":"2鄰","STREET":"大福街","SECT":" ","MAREA":" ","LANE":"３６巷","ALLEY":" ","HOUSE_NO":"１號","E_COORD97":167361.56,"N_COORD97":2544406.3599999999,"ADDRESS":"大福街３６巷１號","OBJECTID":421104},"geometry":{"x":167361.56000000145,"y":2544406.3599999994}},{"attributes":{"ID":421130,"DIS_CODE":0,"TOWNNAME":"中西區","LI":"藥王里","LIN":"2鄰","STREET":"大福街","SECT":" ","MAREA":" ","LANE":"３６巷","ALLEY":" ","HOUSE_NO":"２１號","E_COORD97":167403.42999999999,"N_COORD97":2544395.71,"ADDRESS":"大福街３６巷２１號","OBJECTID":421105},"geometry":{"x":167403.43000000063,"y":2544395.7100000009}},{"attributes":{"ID":421131,"DIS_CODE":0,"TOWNNAME":"中西區","LI":"藥王里","LIN":"2鄰","STREET":"大福街","SECT":" ","MAREA":" ","LANE":"３６巷","ALLEY":" ","HOUSE_NO":"２３號","E_COORD97":167407.78,"N_COORD97":2544394.75,"ADDRESS":"大福街３６巷２３號","OBJECTID":421106},"geometry":{"x":167407.78000000026,"y":2544394.75}},{"attributes":{"ID":421132,"DIS_CODE":0,"TOWNNAME":"中西區","LI":"藥王里","LIN":"2鄰","STREET":"大福街","SECT":" ","MAREA":" ","LANE":"３６巷","ALLEY":" ","HOUSE_NO":"２５號","E_COORD97":167413.35000000001,"N_COORD97":2544394.5,"ADDRESS":"大福街３６巷２５號","OBJECTID":421107},"geometry":{"x":167413.34999999963,"y":2544394.5000000019}},{"attributes":{"ID":421133,"DIS_CODE":0,"TOWNNAME":"中西區","LI":"藥王里","LIN":"2鄰","STREET":"大福街","SECT":" ","MAREA":" ","LANE":"３６巷","ALLEY":" ","HOUSE_NO":"２７號","E_COORD97":167416.73999999999,"N_COORD97":2544390.1499999999,"ADDRESS":"大福街３６巷２７號","OBJECTID":421108},"geometry":{"x":167416.73999999929,"y":2544390.1500000022}},{"attributes":{"ID":421134,"DIS_CODE":0,"TOWNNAME":"中西區","LI":"藥王里","LIN":"2鄰","STREET":"大福街","SECT":" ","MAREA":" ","LANE":"３６巷","ALLEY":" ","HOUSE_NO":"５號","E_COORD97":167364.95000000001,"N_COORD97":2544404.1800000002,"ADDRESS":"大福街３６巷５號","OBJECTID":421109},"geometry":{"x":167364.95000000112,"y":2544404.1799999997}},{"attributes":{"ID":421135,"DIS_CODE":0,"TOWNNAME":"中西區","LI":"藥王里","LIN":"2鄰","STREET":"大福街","SECT":" ","MAREA":" ","LANE":"３６巷","ALLEY":" ","HOUSE_NO":"７號","E_COORD97":167370.26999999999,"N_COORD97":2544406.1099999999,"ADDRESS":"大福街３６巷７號","OBJECTID":421110},"geometry":{"x":167370.27000000142,"y":2544406.1100000031}},{"attributes":{"ID":421136,"DIS_CODE":0,"TOWNNAME":"中西區","LI":"西賢里","LIN":"2鄰","STREET":"湖美街","SECT":" ","MAREA":" ","LANE":"１０１巷","ALLEY":" ","HOUSE_NO":"１１號","E_COORD97":165889.35000000001,"N_COORD97":2544689.6400000001,"ADDRESS":"湖美街１０１巷１１號","OBJECTID":421111},"geometry":{"x":165889.34999999963,"y":2544689.6400000025}},{"attributes":{"ID":421137,"DIS_CODE":0,"TOWNNAME":"中西區","LI":"西賢里","LIN":"2鄰","STREET":"湖美街","SECT":" ","MAREA":" ","LANE":"１０１巷","ALLEY":" ","HOUSE_NO":"１３號","E_COORD97":165883.89999999999,"N_COORD97":2544689.8300000001,"ADDRESS":"湖美街１０１巷１３號","OBJECTID":421112},"geometry":{"x":165883.9000000013,"y":2544689.8299999982}},{"attributes":{"ID":421138,"DIS_CODE":0,"TOWNNAME":"中西區","LI":"西賢里","LIN":"2鄰","STREET":"湖美街","SECT":" ","MAREA":" ","LANE":"１０１巷","ALLEY":" ","HOUSE_NO":"１５號","E_COORD97":165879.94,"N_COORD97":2544689.6400000001,"ADDRESS":"湖美街１０１巷１５號","OBJECTID":421113},"geometry":{"x":165879.94000000227,"y":2544689.6400000025}},{"attributes":{"ID":421139,"DIS_CODE":0,"TOWNNAME":"中西區","LI":"西賢里","LIN":"2鄰","STREET":"湖美街","SECT":" ","MAREA":" ","LANE":"１０１巷","ALLEY":" ","HOUSE_NO":"１７號","E_COORD97":165873.92000000001,"N_COORD97":2544689.6400000001,"ADDRESS":"湖美街１０１巷１７號","OBJECTID":421114},"geometry":{"x":165873.91999999993,"y":2544689.6400000025}},{"attributes":{"ID":421140,"DIS_CODE":0,"TOWNNAME":"中西區","LI":"西賢里","LIN":"2鄰","STREET":"湖美街","SECT":" ","MAREA":" ","LANE":"１０１巷","ALLEY":" ","HOUSE_NO":"１９號","E_COORD97":165868.64999999999,"N_COORD97":2544688.8900000001,"ADDRESS":"湖美街１０１巷１９號","OBJECTID":421115},"geometry":{"x":165868.6500000013,"y":2544688.8900000006}},{"attributes":{"ID":421141,"DIS_CODE":0,"TOWNNAME":"中西區","LI":"西賢里","LIN":"2鄰","STREET":"湖美街","SECT":" ","MAREA":" ","LANE":"１０１巷","ALLEY":" ","HOUSE_NO":"１號","E_COORD97":165915.89999999999,"N_COORD97":2544693.21,"ADDRESS":"湖美街１０１巷１號","OBJECTID":421116},"geometry":{"x":165915.9000000013,"y":2544693.2100000028}},{"attributes":{"ID":421142,"DIS_CODE":0,"TOWNNAME":"中西區","LI":"西賢里","LIN":"2鄰","STREET":"湖美街","SECT":" ","MAREA":" ","LANE":"１０１巷","ALLEY":" ","HOUSE_NO":"２１號","E_COORD97":165863,"N_COORD97":2544688.8900000001,"ADDRESS":"湖美街１０１巷２１號","OBJECTID":421117},"geometry":{"x":165863,"y":2544688.8900000006}},{"attributes":{"ID":421143,"DIS_CODE":0,"TOWNNAME":"中西區","LI":"西賢里","LIN":"2鄰","STREET":"湖美街","SECT":" ","MAREA":" ","LANE":"１０１巷","ALLEY":" ","HOUSE_NO":"２３號","E_COORD97":165855.47,"N_COORD97":2544690.5800000001,"ADDRESS":"湖美街１０１巷２３號","OBJECTID":421118},"geometry":{"x":165855.47000000067,"y":2544690.5800000001}},{"attributes":{"ID":421144,"DIS_CODE":0,"TOWNNAME":"中西區","LI":"西賢里","LIN":"2鄰","STREET":"湖美街","SECT":" ","MAREA":" ","LANE":"１０１巷","ALLEY":" ","HOUSE_NO":"３號","E_COORD97":165909.5,"N_COORD97":2544693.21,"ADDRESS":"湖美街１０１巷３號","OBJECTID":421119},"geometry":{"x":165909.50000000186,"y":2544693.2100000028}},{"attributes":{"ID":421145,"DIS_CODE":0,"TOWNNAME":"中西區","LI":"西賢里","LIN":"2鄰","STREET":"湖美街","SECT":" ","MAREA":" ","LANE":"１０１巷","ALLEY":" ","HOUSE_NO":"５號","E_COORD97":165904.60000000001,"N_COORD97":2544693.96,"ADDRESS":"湖美街１０１巷５號","OBJECTID":421120},"geometry":{"x":165904.59999999963,"y":2544693.9600000028}},{"attributes":{"ID":421146,"DIS_CODE":0,"TOWNNAME":"中西區","LI":"西賢里","LIN":"2鄰","STREET":"湖美街","SECT":" ","MAREA":" ","LANE":"１０１巷","ALLEY":" ","HOUSE_NO":"７號","E_COORD97":165899.70999999999,"N_COORD97":2544690.77,"ADDRESS":"湖美街１０１巷７號","OBJECTID":421121},"geometry":{"x":165899.71000000183,"y":2544690.7700000014}},{"attributes":{"ID":421147,"DIS_CODE":0,"TOWNNAME":"中西區","LI":"西賢里","LIN":"2鄰","STREET":"湖美街","SECT":" ","MAREA":" ","LANE":"８７巷","ALLEY":" ","HOUSE_NO":"２８號","E_COORD97":165868.35999999999,"N_COORD97":2544668.71,"ADDRESS":"湖美街８７巷２８號","OBJECTID":421122},"geometry":{"x":165868.3599999994,"y":2544668.7100000028}},{"attributes":{"ID":421148,"DIS_CODE":0,"TOWNNAME":"中西區","LI":"西賢里","LIN":"2鄰","STREET":"湖美街","SECT":" ","MAREA":" ","LANE":"８７巷","ALLEY":" ","HOUSE_NO":"３０號","E_COORD97":165862.76999999999,"N_COORD97":2544667.98,"ADDRESS":"湖美街８７巷３０號","OBJECTID":421123},"geometry":{"x":165862.76999999955,"y":2544667.9800000004}},{"attributes":{"ID":421149,"DIS_CODE":0,"TOWNNAME":"中西區","LI":"西賢里","LIN":"2鄰","STREET":"湖美街","SECT":" ","MAREA":" ","LANE":"８７巷","ALLEY":" ","HOUSE_NO":"３２號","E_COORD97":165856.92999999999,"N_COORD97":2544668.23,"ADDRESS":"湖美街８７巷３２號","OBJECTID":421124},"geometry":{"x":165856.9299999997,"y":2544668.2300000023}},{"attributes":{"ID":421150,"DIS_CODE":0,"TOWNNAME":"中西區","LI":"西賢里","LIN":"2鄰","STREET":"湖美街","SECT":" ","MAREA":" ","LANE":"８７巷","ALLEY":" ","HOUSE_NO":"５號","E_COORD97":165916.07000000001,"N_COORD97":2544643.5299999998,"ADDRESS":"湖美街８７巷５號","OBJECTID":421125},"geometry":{"x":165916.06999999937,"y":2544643.5299999975}},{"attributes":{"ID":421151,"DIS_CODE":0,"TOWNNAME":"中西區","LI":"西賢里","LIN":"2鄰","STREET":"湖美街","SECT":" ","MAREA":" ","LANE":"８７巷","ALLEY":" ","HOUSE_NO":"７號","E_COORD97":165912.10000000001,"N_COORD97":2544643.6899999999,"ADDRESS":"湖美街８７巷７號","OBJECTID":421126},"geometry":{"x":165912.10000000056,"y":2544643.6900000013}},{"attributes":{"ID":421152,"DIS_CODE":0,"TOWNNAME":"中西區","LI":"西賢里","LIN":"2鄰","STREET":"湖美街","SECT":" ","MAREA":" ","LANE":"８７巷","ALLEY":" ","HOUSE_NO":"９號","E_COORD97":165907.48999999999,"N_COORD97":2544643.21,"ADDRESS":"湖美街８７巷９號","OBJECTID":421127},"geometry":{"x":165907.49000000022,"y":2544643.2100000009}},{"attributes":{"ID":421153,"DIS_CODE":0,"TOWNNAME":"中西區","LI":"開山里","LIN":"2鄰","STREET":"開山路","SECT":" ","MAREA":" ","LANE":"１２７巷","ALLEY":" ","HOUSE_NO":"１９號","E_COORD97":168856,"N_COORD97":2543252.2200000002,"ADDRESS":"開山路１２７巷１９號","OBJECTID":421128},"geometry":{"x":168856.00000000093,"y":2543252.2200000007}},{"attributes":{"ID":421154,"DIS_CODE":0,"TOWNNAME":"中西區","LI":"開山里","LIN":"2鄰","STREET":"開山路","SECT":" ","MAREA":" ","LANE":"１２７巷","ALLEY":" ","HOUSE_NO":"１９號之１","E_COORD97":168859.73000000001,"N_COORD97":2543248.04,"ADDRESS":"開山路１２７巷１９號之１","OBJECTID":421129},"geometry":{"x":168859.73000000231,"y":2543248.040000001}},{"attributes":{"ID":421155,"DIS_CODE":0,"TOWNNAME":"中西區","LI":"開山里","LIN":"2鄰","STREET":"開山路","SECT":" ","MAREA":" ","LANE":"１２７巷","ALLEY":" ","HOUSE_NO":"１號","E_COORD97":168815.34,"N_COORD97":2543255.7999999998,"ADDRESS":"開山路１２７巷１號","OBJECTID":421130},"geometry":{"x":168815.33999999985,"y":2543255.8000000007}},{"attributes":{"ID":421156,"DIS_CODE":0,"TOWNNAME":"中西區","LI":"開山里","LIN":"2鄰","STREET":"開山路","SECT":" ","MAREA":" ","LANE":"１２７巷","ALLEY":" ","HOUSE_NO":"２１號","E_COORD97":168864.01999999999,"N_COORD97":2543247.1600000001,"ADDRESS":"開山路１２７巷２１號","OBJECTID":421131},"geometry":{"x":168864.02000000048,"y":2543247.1600000039}},{"attributes":{"ID":421157,"DIS_CODE":0,"TOWNNAME":"中西區","LI":"開山里","LIN":"2鄰","STREET":"開山路","SECT":" ","MAREA":" ","LANE":"１２７巷","ALLEY":" ","HOUSE_NO":"２號","E_COORD97":168825.73000000001,"N_COORD97":2543241.0899999999,"ADDRESS":"開山路１２７巷２號","OBJECTID":421132},"geometry":{"x":168825.73000000045,"y":2543241.0900000017}},{"attributes":{"ID":421158,"DIS_CODE":0,"TOWNNAME":"中西區","LI":"開山里","LIN":"2鄰","STREET":"開山路","SECT":" ","MAREA":" ","LANE":"１２７巷","ALLEY":" ","HOUSE_NO":"４號","E_COORD97":168838.32000000001,"N_COORD97":2543238.6600000001,"ADDRESS":"開山路１２７巷４號","OBJECTID":421133},"geometry":{"x":168838.3200000003,"y":2543238.6600000001}},{"attributes":{"ID":421159,"DIS_CODE":0,"TOWNNAME":"中西區","LI":"開山里","LIN":"2鄰","STREET":"開山路","SECT":" ","MAREA":" ","LANE":"１２７巷","ALLEY":" ","HOUSE_NO":"５號","E_COORD97":168822.85999999999,"N_COORD97":2543256.4700000002,"ADDRESS":"開山路１２７巷５號","OBJECTID":421134},"geometry":{"x":168822.86000000034,"y":2543256.4700000025}},{"attributes":{"ID":421160,"DIS_CODE":0,"TOWNNAME":"中西區","LI":"開山里","LIN":"2鄰","STREET":"開山路","SECT":" ","MAREA":" ","LANE":"１２７巷","ALLEY":" ","HOUSE_NO":"６號","E_COORD97":168846.35999999999,"N_COORD97":2543237.6299999999,"ADDRESS":"開山路１２７巷６號","OBJECTID":421135},"geometry":{"x":168846.36000000034,"y":2543237.629999999}},{"attributes":{"ID":421161,"DIS_CODE":0,"TOWNNAME":"中西區","LI":"開山里","LIN":"2鄰","STREET":"開山路","SECT":" ","MAREA":" ","LANE":"１２７巷","ALLEY":" ","HOUSE_NO":"７號","E_COORD97":168826.92999999999,"N_COORD97":2543258.3300000001,"ADDRESS":"開山路１２７巷７號","OBJECTID":421136},"geometry":{"x":168826.9299999997,"y":2543258.3300000001}},{"attributes":{"ID":421162,"DIS_CODE":0,"TOWNNAME":"中西區","LI":"開山里","LIN":"2鄰","STREET":"開山路","SECT":" ","MAREA":" ","LANE":"１２７巷","ALLEY":" ","HOUSE_NO":"８號","E_COORD97":168850.64999999999,"N_COORD97":2543235.3999999999,"ADDRESS":"開山路１２７巷８號","OBJECTID":421137},"geometry":{"x":168850.6500000013,"y":2543235.4000000041}},{"attributes":{"ID":421163,"DIS_CODE":0,"TOWNNAME":"中西區","LI":"開山里","LIN":"2鄰","STREET":"開山路","SECT":" ","MAREA":" ","LANE":"１２７巷","ALLEY":" ","HOUSE_NO":"９號","E_COORD97":168843.64999999999,"N_COORD97":2543249.8599999999,"ADDRESS":"開山路１２７巷９號","OBJECTID":421138},"geometry":{"x":168843.6500000013,"y":2543249.8600000013}},{"attributes":{"ID":421164,"DIS_CODE":0,"TOWNNAME":"中西區","LI":"開山里","LIN":"2鄰","STREET":"開山路","SECT":" ","MAREA":" ","LANE":"１５１巷","ALLEY":" ","HOUSE_NO":"７號","E_COORD97":168850.47,"N_COORD97":2543213.96,"ADDRESS":"開山路１５１巷７號","OBJECTID":421139},"geometry":{"x":168850.46999999974,"y":2543213.9600000009}},{"attributes":{"ID":421165,"DIS_CODE":0,"TOWNNAME":"中西區","LI":"開山里","LIN":"2鄰","STREET":"開山路","SECT":" ","MAREA":" ","LANE":"１５１巷","ALLEY":" ","HOUSE_NO":"７號之１","E_COORD97":168850.47,"N_COORD97":2543218.3900000001,"ADDRESS":"開山路１５１巷７號之１","OBJECTID":421140},"geometry":{"x":168850.46999999974,"y":2543218.3900000006}},{"attributes":{"ID":421166,"DIS_CODE":0,"TOWNNAME":"中西區","LI":"開山里","LIN":"2鄰","STREET":"開山路","SECT":" ","MAREA":" ","LANE":"１５１巷","ALLEY":" ","HOUSE_NO":"７號之２","E_COORD97":168851.73000000001,"N_COORD97":2543223.4399999999,"ADDRESS":"開山路１５１巷７號之２","OBJECTID":421141},"geometry":{"x":168851.73000000138,"y":2543223.4399999995}},{"attributes":{"ID":421167,"DIS_CODE":0,"TOWNNAME":"中西區","LI":"開山里","LIN":"2鄰","STREET":"開山路","SECT":" ","MAREA":" ","LANE":"１５１巷","ALLEY":" ","HOUSE_NO":"９號","E_COORD97":168868.79999999999,"N_COORD97":2543255.1099999999,"ADDRESS":"開山路１５１巷９號","OBJECTID":421142},"geometry":{"x":168868.80000000168,"y":2543255.1099999994}},{"attributes":{"ID":421168,"DIS_CODE":0,"TOWNNAME":"永康區","LI":"三民里","LIN":"2鄰","STREET":"三民街","SECT":" ","MAREA":" ","LANE":"７９巷","ALLEY":" ","HOUSE_NO":"８號","E_COORD97":172833.92000000001,"N_COORD97":2550282.8300000001,"ADDRESS":"三民街７９巷８號","OBJECTID":421143},"geometry":{"x":172833.92000000086,"y":2550282.8300000001}},{"attributes":{"ID":421169,"DIS_CODE":0,"TOWNNAME":"新市區","LI":"港墘里","LIN":"2鄰","STREET":"三民街","SECT":" ","MAREA":" ","LANE":"１０巷","ALLEY":" ","HOUSE_NO":"１３號","E_COORD97":178584.12,"N_COORD97":2553419.79,"ADDRESS":"三民街１０巷１３號","OBJECTID":421144},"geometry":{"x":178584.12000000104,"y":2553419.790000001}},{"attributes":{"ID":421170,"DIS_CODE":0,"TOWNNAME":"東區","LI":"關聖里","LIN":"2鄰","STREET":"裕農路","SECT":" ","MAREA":" ","LANE":"６６８巷","ALLEY":" ","HOUSE_NO":"４６號之９","E_COORD97":171710.70999999999,"N_COORD97":2542985.6000000001,"ADDRESS":"裕農路６６８巷４６號之９","OBJECTID":421145},"geometry":{"x":171710.71000000183,"y":2542985.6000000034}},{"attributes":{"ID":421171,"DIS_CODE":0,"TOWNNAME":"東區","LI":"關聖里","LIN":"2鄰","STREET":"裕農路","SECT":" ","MAREA":" ","LANE":"６６８巷","ALLEY":" ","HOUSE_NO":"４８號","E_COORD97":171720.48000000001,"N_COORD97":2542974.3900000001,"ADDRESS":"裕農路６６８巷４８號","OBJECTID":421146},"geometry":{"x":171720.48000000045,"y":2542974.3899999987}},{"attributes":{"ID":421172,"DIS_CODE":0,"TOWNNAME":"東區","LI":"關聖里","LIN":"2鄰","STREET":"裕農路","SECT":" ","MAREA":" ","LANE":"６６８巷","ALLEY":" ","HOUSE_NO":"５０號","E_COORD97":171739.45999999999,"N_COORD97":2542967.6299999999,"ADDRESS":"裕農路６６８巷５０號","OBJECTID":421147},"geometry":{"x":171739.45999999903,"y":2542967.6299999971}},{"attributes":{"ID":421173,"DIS_CODE":0,"TOWNNAME":"東區","LI":"關聖里","LIN":"2鄰","STREET":"裕農路","SECT":" ","MAREA":" ","LANE":"６６８巷","ALLEY":" ","HOUSE_NO":"５８號","E_COORD97":171723.01999999999,"N_COORD97":2542945.6400000001,"ADDRESS":"裕農路６６８巷５８號","OBJECTID":421148},"geometry":{"x":171723.01999999955,"y":2542945.6399999987}},{"attributes":{"ID":421174,"DIS_CODE":0,"TOWNNAME":"東區","LI":"關聖里","LIN":"2鄰","STREET":"裕農路","SECT":" ","MAREA":" ","LANE":"６６８巷","ALLEY":" ","HOUSE_NO":"６０號","E_COORD97":171742.14999999999,"N_COORD97":2542937.5800000001,"ADDRESS":"裕農路６６８巷６０號","OBJECTID":421149},"geometry":{"x":171742.15000000224,"y":2542937.5800000001}},{"attributes":{"ID":421175,"DIS_CODE":0,"TOWNNAME":"東區","LI":"關聖里","LIN":"2鄰","STREET":"裕農路","SECT":" ","MAREA":" ","LANE":"６６８巷","ALLEY":" ","HOUSE_NO":"６２號","E_COORD97":171740.92999999999,"N_COORD97":2542930.9900000002,"ADDRESS":"裕農路６６８巷６２號","OBJECTID":421150},"geometry":{"x":171740.9299999997,"y":2542930.9900000021}},{"attributes":{"ID":421176,"DIS_CODE":0,"TOWNNAME":"東區","LI":"崇善里","LIN":"2鄰","STREET":"中華東路","SECT":"三段","MAREA":" ","LANE":"１０７巷","ALLEY":" ","HOUSE_NO":"１５號","E_COORD97":170835.13,"N_COORD97":2542102.0499999998,"ADDRESS":"中華東路三段１０７巷１５號","OBJECTID":421151},"geometry":{"x":170835.13000000082,"y":2542102.0500000007}},{"attributes":{"ID":421177,"DIS_CODE":0,"TOWNNAME":"東區","LI":"崇善里","LIN":"2鄰","STREET":"中華東路","SECT":"三段","MAREA":" ","LANE":"１０７巷","ALLEY":" ","HOUSE_NO":"１９號","E_COORD97":170842.45000000001,"N_COORD97":2542086.77,"ADDRESS":"中華東路三段１０７巷１９號","OBJECTID":421152},"geometry":{"x":170842.45000000019,"y":2542086.7700000014}},{"attributes":{"ID":421178,"DIS_CODE":0,"TOWNNAME":"東區","LI":"崇善里","LIN":"2鄰","STREET":"中華東路","SECT":"三段","MAREA":" ","LANE":"１０７巷","ALLEY":" ","HOUSE_NO":"２３號","E_COORD97":170848.54999999999,"N_COORD97":2542073.2599999998,"ADDRESS":"中華東路三段１０７巷２３號","OBJECTID":421153},"geometry":{"x":170848.54999999981,"y":2542073.2600000016}},{"attributes":{"ID":421179,"DIS_CODE":0,"TOWNNAME":"東區","LI":"崇善里","LIN":"2鄰","STREET":"中華東路","SECT":"三段","MAREA":" ","LANE":"１０７巷","ALLEY":" ","HOUSE_NO":"２５號","E_COORD97":170852.82000000001,"N_COORD97":2542050.3500000001,"ADDRESS":"中華東路三段１０７巷２５號","OBJECTID":421154},"geometry":{"x":170852.82000000123,"y":2542050.3499999996}},{"attributes":{"ID":421180,"DIS_CODE":0,"TOWNNAME":"東區","LI":"崇善里","LIN":"2鄰","STREET":"中華東路","SECT":"三段","MAREA":" ","LANE":"１０７巷","ALLEY":" ","HOUSE_NO":"３４號","E_COORD97":170818.67999999999,"N_COORD97":2542074.0600000001,"ADDRESS":"中華東路三段１０７巷３４號","OBJECTID":421155},"geometry":{"x":170818.6799999997,"y":2542074.0600000005}},{"attributes":{"ID":421181,"DIS_CODE":0,"TOWNNAME":"東區","LI":"崇善里","LIN":"2鄰","STREET":"中華東路","SECT":"三段","MAREA":" ","LANE":"１０７巷","ALLEY":" ","HOUSE_NO":"３５號","E_COORD97":170860.01999999999,"N_COORD97":2542016.7799999998,"ADDRESS":"中華東路三段１０７巷３５號","OBJECTID":421156},"geometry":{"x":170860.01999999955,"y":2542016.7799999993}},{"attributes":{"ID":421182,"DIS_CODE":0,"TOWNNAME":"東區","LI":"東聖里","LIN":"2鄰","STREET":"富農街","SECT":"二段","MAREA":" ","LANE":"１０９巷","ALLEY":" ","HOUSE_NO":"１４號","E_COORD97":171586.01000000001,"N_COORD97":2543164.8500000001,"ADDRESS":"富農街二段１０９巷１４號","OBJECTID":421157},"geometry":{"x":171586.00999999978,"y":2543164.8500000015}},{"attributes":{"ID":421183,"DIS_CODE":0,"TOWNNAME":"東區","LI":"東聖里","LIN":"2鄰","STREET":"富農街","SECT":"二段","MAREA":" ","LANE":"１０９巷","ALLEY":" ","HOUSE_NO":"１６號","E_COORD97":171582.14000000001,"N_COORD97":2543166.23,"ADDRESS":"富農街二段１０９巷１６號","OBJECTID":421158},"geometry":{"x":171582.14000000153,"y":2543166.2300000023}},{"attributes":{"ID":421184,"DIS_CODE":0,"TOWNNAME":"東區","LI":"東聖里","LIN":"2鄰","STREET":"富農街","SECT":"二段","MAREA":" ","LANE":"１０９巷","ALLEY":" ","HOUSE_NO":"１８號","E_COORD97":171577.85999999999,"N_COORD97":2543164.29,"ADDRESS":"富農街二段１０９巷１８號","OBJECTID":421159},"geometry":{"x":171577.8600000022,"y":2543164.290000001}},{"attributes":{"ID":421185,"DIS_CODE":0,"TOWNNAME":"東區","LI":"東聖里","LIN":"2鄰","STREET":"富農街","SECT":"二段","MAREA":" ","LANE":"１０９巷","ALLEY":" ","HOUSE_NO":"２０號","E_COORD97":171574.26000000001,"N_COORD97":2543166.23,"ADDRESS":"富農街二段１０９巷２０號","OBJECTID":421160},"geometry":{"x":171574.25999999978,"y":2543166.2300000023}},{"attributes":{"ID":421186,"DIS_CODE":0,"TOWNNAME":"東區","LI":"東聖里","LIN":"2鄰","STREET":"富農街","SECT":"二段","MAREA":" ","LANE":"１０９巷","ALLEY":" ","HOUSE_NO":"２２號","E_COORD97":171570.53,"N_COORD97":2543164.4300000002,"ADDRESS":"富農街二段１０９巷２２號","OBJECTID":421161},"geometry":{"x":171570.53000000119,"y":2543164.4300000016}},{"attributes":{"ID":421187,"DIS_CODE":0,"TOWNNAME":"東區","LI":"東聖里","LIN":"2鄰","STREET":"富農街","SECT":"二段","MAREA":" ","LANE":"１０９巷","ALLEY":" ","HOUSE_NO":"２４號","E_COORD97":171566.14999999999,"N_COORD97":2543165.6499999999,"ADDRESS":"富農街二段１０９巷２４號","OBJECTID":421162},"geometry":{"x":171566.1500000013,"y":2543165.6499999985}},{"attributes":{"ID":421188,"DIS_CODE":0,"TOWNNAME":"東區","LI":"東聖里","LIN":"2鄰","STREET":"富農街","SECT":"二段","MAREA":" ","LANE":"１０９巷","ALLEY":" ","HOUSE_NO":"２６號","E_COORD97":171562.29000000001,"N_COORD97":2543163.6200000001,"ADDRESS":"富農街二段１０９巷２６號","OBJECTID":421163},"geometry":{"x":171562.29000000004,"y":2543163.6200000048}},{"attributes":{"ID":421189,"DIS_CODE":0,"TOWNNAME":"東區","LI":"東聖里","LIN":"2鄰","STREET":"富農街","SECT":"二段","MAREA":" ","LANE":"１０９巷","ALLEY":" ","HOUSE_NO":"２號","E_COORD97":171609.54000000001,"N_COORD97":2543165.6699999999,"ADDRESS":"富農街二段１０９巷２號","OBJECTID":421164},"geometry":{"x":171609.54000000004,"y":2543165.6700000018}},{"attributes":{"ID":421190,"DIS_CODE":0,"TOWNNAME":"東區","LI":"東聖里","LIN":"2鄰","STREET":"富農街","SECT":"二段","MAREA":" ","LANE":"１０９巷","ALLEY":" ","HOUSE_NO":"３０號","E_COORD97":171555.10999999999,"N_COORD97":2543163.6200000001,"ADDRESS":"富農街二段１０９巷３０號","OBJECTID":421165},"geometry":{"x":171555.11000000034,"y":2543163.6200000048}},{"attributes":{"ID":421191,"DIS_CODE":0,"TOWNNAME":"東區","LI":"東聖里","LIN":"2鄰","STREET":"富農街","SECT":"二段","MAREA":" ","LANE":"１０９巷","ALLEY":" ","HOUSE_NO":"３２號","E_COORD97":171550.85000000001,"N_COORD97":2543165.04,"ADDRESS":"富農街二段１０９巷３２號","OBJECTID":421166},"geometry":{"x":171550.85000000056,"y":2543165.0399999972}},{"attributes":{"ID":421192,"DIS_CODE":0,"TOWNNAME":"東區","LI":"東聖里","LIN":"2鄰","STREET":"富農街","SECT":"二段","MAREA":" ","LANE":"１０９巷","ALLEY":" ","HOUSE_NO":"３８號","E_COORD97":171535.01999999999,"N_COORD97":2543165.2400000002,"ADDRESS":"富農街二段１０９巷３８號","OBJECTID":421167},"geometry":{"x":171535.01999999955,"y":2543165.2400000039}},{"attributes":{"ID":421193,"DIS_CODE":0,"TOWNNAME":"東區","LI":"東聖里","LIN":"2鄰","STREET":"富農街","SECT":"二段","MAREA":" ","LANE":"１０９巷","ALLEY":" ","HOUSE_NO":"４０號","E_COORD97":171529.48999999999,"N_COORD97":2543165.5099999998,"ADDRESS":"富農街二段１０９巷４０號","OBJECTID":421168},"geometry":{"x":171529.49000000209,"y":2543165.5099999998}},{"attributes":{"ID":421194,"DIS_CODE":0,"TOWNNAME":"東區","LI":"東聖里","LIN":"2鄰","STREET":"富農街","SECT":"二段","MAREA":" ","LANE":"１０９巷","ALLEY":" ","HOUSE_NO":"４２號","E_COORD97":171519.91,"N_COORD97":2543165.3799999999,"ADDRESS":"富農街二段１０９巷４２號","OBJECTID":421169},"geometry":{"x":171519.91000000108,"y":2543165.379999999}},{"attributes":{"ID":421195,"DIS_CODE":0,"TOWNNAME":"東區","LI":"東聖里","LIN":"2鄰","STREET":"富農街","SECT":"二段","MAREA":" ","LANE":"１０９巷","ALLEY":" ","HOUSE_NO":"４號","E_COORD97":171605.53,"N_COORD97":2543167.3300000001,"ADDRESS":"富農街二段１０９巷４號","OBJECTID":421170},"geometry":{"x":171605.53000000212,"y":2543167.3300000001}},{"attributes":{"ID":421196,"DIS_CODE":0,"TOWNNAME":"東區","LI":"東聖里","LIN":"2鄰","STREET":"富農街","SECT":"二段","MAREA":" ","LANE":"１０９巷","ALLEY":" ","HOUSE_NO":"６號","E_COORD97":171601.94,"N_COORD97":2543165.1200000001,"ADDRESS":"富農街二段１０９巷６號","OBJECTID":421171},"geometry":{"x":171601.94000000134,"y":2543165.120000001}},{"attributes":{"ID":421197,"DIS_CODE":0,"TOWNNAME":"東區","LI":"東聖里","LIN":"2鄰","STREET":"富農街","SECT":"二段","MAREA":" ","LANE":"１０９巷","ALLEY":" ","HOUSE_NO":"８號","E_COORD97":171597.64999999999,"N_COORD97":2543166.9199999999,"ADDRESS":"富農街二段１０９巷８號","OBJECTID":421172},"geometry":{"x":171597.65000000037,"y":2543166.9200000037}},{"attributes":{"ID":421198,"DIS_CODE":0,"TOWNNAME":"永康區","LI":"三民里","LIN":"2鄰","STREET":"三民街","SECT":" ","MAREA":" ","LANE":"１１２巷","ALLEY":" ","HOUSE_NO":"２１號","E_COORD97":172887.07000000001,"N_COORD97":2550361.54,"ADDRESS":"三民街１１２巷２１號","OBJECTID":421173},"geometry":{"x":172887.07000000123,"y":2550361.5399999991}},{"attributes":{"ID":421199,"DIS_CODE":0,"TOWNNAME":"永康區","LI":"二王里","LIN":"2鄰","STREET":"永二街","SECT":" ","MAREA":" ","LANE":"２８８巷","ALLEY":" ","HOUSE_NO":"２９號","E_COORD97":173139.07999999999,"N_COORD97":2546555.6699999999,"ADDRESS":"永二街２８８巷２９號","OBJECTID":421174},"geometry":{"x":173139.08000000194,"y":2546555.6700000037}},{"attributes":{"ID":421200,"DIS_CODE":0,"TOWNNAME":"永康區","LI":"大灣里","LIN":"2鄰","STREET":"大安街","SECT":" ","MAREA":" ","LANE":"３１８巷","ALLEY":" ","HOUSE_NO":"２７號","E_COORD97":174757.88,"N_COORD97":2545571.0299999998,"ADDRESS":"大安街３１８巷２７號","OBJECTID":421175},"geometry":{"x":174757.88000000082,"y":2545571.0300000012}},{"attributes":{"ID":421201,"DIS_CODE":0,"TOWNNAME":"永康區","LI":"大灣里","LIN":"2鄰","STREET":"大安街","SECT":" ","MAREA":" ","LANE":"３６８巷","ALLEY":" ","HOUSE_NO":"８號","E_COORD97":174720.60000000001,"N_COORD97":2545697.8300000001,"ADDRESS":"大安街３６８巷８號","OBJECTID":421176},"geometry":{"x":174720.60000000056,"y":2545697.8300000019}},{"attributes":{"ID":421202,"DIS_CODE":0,"TOWNNAME":"永康區","LI":"大灣里","LIN":"2鄰","STREET":"大安街","SECT":" ","MAREA":" ","LANE":"３２６巷","ALLEY":" ","HOUSE_NO":"３號","E_COORD97":174739.12,"N_COORD97":2545574.8599999999,"ADDRESS":"大安街３２６巷３號","OBJECTID":421177},"geometry":{"x":174739.12000000197,"y":2545574.8600000013}},{"attributes":{"ID":421203,"DIS_CODE":0,"TOWNNAME":"永康區","LI":"三民里","LIN":"2鄰","STREET":"三民街","SECT":" ","MAREA":" ","LANE":"１１２巷","ALLEY":" ","HOUSE_NO":"１１號","E_COORD97":172876.87,"N_COORD97":2550343.04,"ADDRESS":"三民街１１２巷１１號","OBJECTID":421178},"geometry":{"x":172876.87000000104,"y":2550343.040000001}},{"attributes":{"ID":421204,"DIS_CODE":0,"TOWNNAME":"永康區","LI":"三民里","LIN":"2鄰","STREET":"三民街","SECT":" ","MAREA":" ","LANE":"１１２巷","ALLEY":" ","HOUSE_NO":"１３號","E_COORD97":172882.57000000001,"N_COORD97":2550347.04,"ADDRESS":"三民街１１２巷１３號","OBJECTID":421179},"geometry":{"x":172882.5700000003,"y":2550347.040000001}},{"attributes":{"ID":421205,"DIS_CODE":0,"TOWNNAME":"永康區","LI":"大灣里","LIN":"2鄰","STREET":"大安街","SECT":" ","MAREA":" ","LANE":"３６８巷","ALLEY":" ","HOUSE_NO":"１２號","E_COORD97":174738.82999999999,"N_COORD97":2545663.5099999998,"ADDRESS":"大安街３６８巷１２號","OBJECTID":421180},"geometry":{"x":174738.83000000007,"y":2545663.5099999998}},{"attributes":{"ID":421206,"DIS_CODE":0,"TOWNNAME":"永康區","LI":"王行里","LIN":"2鄰","STREET":"王行路","SECT":" ","MAREA":" ","LANE":"６８巷","ALLEY":" ","HOUSE_NO":"７號之２","E_COORD97":175737.19,"N_COORD97":2548071.6800000002,"ADDRESS":"王行路６８巷７號之２","OBJECTID":421181},"geometry":{"x":175737.19000000041,"y":2548071.6800000016}},{"attributes":{"ID":421207,"DIS_CODE":0,"TOWNNAME":"永康區","LI":"大灣里","LIN":"2鄰","STREET":"大同街","SECT":" ","MAREA":" ","LANE":"１５３巷","ALLEY":" ","HOUSE_NO":"２６號","E_COORD97":174802,"N_COORD97":2545565.5800000001,"ADDRESS":"大同街１５３巷２６號","OBJECTID":421182},"geometry":{"x":174802,"y":2545565.5800000001}},{"attributes":{"ID":421208,"DIS_CODE":0,"TOWNNAME":"永康區","LI":"勝利里","LIN":"2鄰","STREET":"勝利街","SECT":" ","MAREA":" ","LANE":"２巷","ALLEY":" ","HOUSE_NO":"７７號","E_COORD97":170987.01000000001,"N_COORD97":2544767.2599999998,"ADDRESS":"勝利街２巷７７號","OBJECTID":421183},"geometry":{"x":170987.01000000071,"y":2544767.2599999998}},{"attributes":{"ID":421209,"DIS_CODE":0,"TOWNNAME":"永康區","LI":"崑山里","LIN":"2鄰","STREET":"大灣路","SECT":" ","MAREA":" ","LANE":"８７９巷","ALLEY":" ","HOUSE_NO":"１３號","E_COORD97":173679.42000000001,"N_COORD97":2544380.3599999999,"ADDRESS":"大灣路８７９巷１３號","OBJECTID":421184},"geometry":{"x":173679.42000000086,"y":2544380.3599999975}},{"attributes":{"ID":421210,"DIS_CODE":0,"TOWNNAME":"永康區","LI":"復國里","LIN":"2鄰","STREET":"復國一路","SECT":" ","MAREA":" ","LANE":"６巷","ALLEY":" ","HOUSE_NO":"８號","E_COORD97":172760.63,"N_COORD97":2544737.02,"ADDRESS":"復國一路６巷８號","OBJECTID":421185},"geometry":{"x":172760.63000000175,"y":2544737.0200000014}},{"attributes":{"ID":421211,"DIS_CODE":0,"TOWNNAME":"永康區","LI":"復國里","LIN":"2鄰","STREET":"復國一路","SECT":" ","MAREA":" ","LANE":"６巷","ALLEY":" ","HOUSE_NO":"１３號之１","E_COORD97":172787.03,"N_COORD97":2544719.79,"ADDRESS":"復國一路６巷１３號之１","OBJECTID":421186},"geometry":{"x":172787.03000000212,"y":2544719.7900000028}},{"attributes":{"ID":421212,"DIS_CODE":0,"TOWNNAME":"永康區","LI":"復國里","LIN":"2鄰","STREET":"復國一路","SECT":" ","MAREA":" ","LANE":"２８巷","ALLEY":" ","HOUSE_NO":"４０號","E_COORD97":172818.29000000001,"N_COORD97":2544763.0600000001,"ADDRESS":"復國一路２８巷４０號","OBJECTID":421187},"geometry":{"x":172818.29000000004,"y":2544763.0600000005}},{"attributes":{"ID":421213,"DIS_CODE":0,"TOWNNAME":"永康區","LI":"復國里","LIN":"2鄰","STREET":"復國一路","SECT":" ","MAREA":" ","LANE":"２８巷","ALLEY":" ","HOUSE_NO":"２８號","E_COORD97":172793.85999999999,"N_COORD97":2544758.8300000001,"ADDRESS":"復國一路２８巷２８號","OBJECTID":421188},"geometry":{"x":172793.86000000127,"y":2544758.8300000019}},{"attributes":{"ID":421214,"DIS_CODE":0,"TOWNNAME":"永康區","LI":"復國里","LIN":"2鄰","STREET":"復國一路","SECT":" ","MAREA":" ","LANE":"２８巷","ALLEY":" ","HOUSE_NO":"１４號","E_COORD97":172766.98000000001,"N_COORD97":2544754.5899999999,"ADDRESS":"復國一路２８巷１４號","OBJECTID":421189},"geometry":{"x":172766.98000000045,"y":2544754.5899999999}},{"attributes":{"ID":421215,"DIS_CODE":0,"TOWNNAME":"永康區","LI":"復國里","LIN":"2鄰","STREET":"復國一路","SECT":" ","MAREA":" ","LANE":"６巷","ALLEY":" ","HOUSE_NO":"７號","E_COORD97":172749.32000000001,"N_COORD97":2544735.2799999998,"ADDRESS":"復國一路６巷７號","OBJECTID":421190},"geometry":{"x":172749.3200000003,"y":2544735.2800000012}},{"attributes":{"ID":421216,"DIS_CODE":0,"TOWNNAME":"永康區","LI":"復國里","LIN":"2鄰","STREET":"復國一路","SECT":" ","MAREA":" ","LANE":"２８巷","ALLEY":" ","HOUSE_NO":"１０號","E_COORD97":172758.64999999999,"N_COORD97":2544753.0899999999,"ADDRESS":"復國一路２８巷１０號","OBJECTID":421191},"geometry":{"x":172758.65000000037,"y":2544753.0900000017}},{"attributes":{"ID":421217,"DIS_CODE":0,"TOWNNAME":"永康區","LI":"復國里","LIN":"2鄰","STREET":"復國一路","SECT":" ","MAREA":" ","LANE":"２８巷","ALLEY":" ","HOUSE_NO":"１１號","E_COORD97":172763.69,"N_COORD97":2544770.8700000001,"ADDRESS":"復國一路２８巷１１號","OBJECTID":421192},"geometry":{"x":172763.69000000041,"y":2544770.870000001}},{"attributes":{"ID":421218,"DIS_CODE":0,"TOWNNAME":"永康區","LI":"復國里","LIN":"2鄰","STREET":"復國一路","SECT":" ","MAREA":" ","LANE":"６巷","ALLEY":" ","HOUSE_NO":"２號","E_COORD97":172752.53,"N_COORD97":2544718.0299999998,"ADDRESS":"復國一路６巷２號","OBJECTID":421193},"geometry":{"x":172752.53000000026,"y":2544718.0299999993}},{"attributes":{"ID":421219,"DIS_CODE":0,"TOWNNAME":"永康區","LI":"復國里","LIN":"2鄰","STREET":"復國一路","SECT":" ","MAREA":" ","LANE":"６巷","ALLEY":" ","HOUSE_NO":"１１號","E_COORD97":172764.62,"N_COORD97":2544724.27,"ADDRESS":"復國一路６巷１１號","OBJECTID":421194},"geometry":{"x":172764.62000000104,"y":2544724.2700000014}},{"attributes":{"ID":421220,"DIS_CODE":0,"TOWNNAME":"永康區","LI":"復國里","LIN":"2鄰","STREET":"復國一路","SECT":" ","MAREA":" ","LANE":"２８巷","ALLEY":" ","HOUSE_NO":"２７號","E_COORD97":172797.20000000001,"N_COORD97":2544776.73,"ADDRESS":"復國一路２８巷２７號","OBJECTID":421195},"geometry":{"x":172797.20000000019,"y":2544776.7300000023}},{"attributes":{"ID":421221,"DIS_CODE":0,"TOWNNAME":"永康區","LI":"勝利里","LIN":"2鄰","STREET":"勝利街","SECT":" ","MAREA":" ","LANE":"２巷","ALLEY":" ","HOUSE_NO":"５２號","E_COORD97":171001.06,"N_COORD97":2544721.75,"ADDRESS":"勝利街２巷５２號","OBJECTID":421196},"geometry":{"x":171001.06000000145,"y":2544721.7500000019}},{"attributes":{"ID":421222,"DIS_CODE":0,"TOWNNAME":"永康區","LI":"復國里","LIN":"2鄰","STREET":"復國一路","SECT":" ","MAREA":" ","LANE":"６巷","ALLEY":" ","HOUSE_NO":"５號","E_COORD97":172751.07000000001,"N_COORD97":2544726.7799999998,"ADDRESS":"復國一路６巷５號","OBJECTID":421197},"geometry":{"x":172751.06999999937,"y":2544726.7800000031}},{"attributes":{"ID":421223,"DIS_CODE":0,"TOWNNAME":"永康區","LI":"復國里","LIN":"2鄰","STREET":"復國一路","SECT":" ","MAREA":" ","LANE":"６巷","ALLEY":" ","HOUSE_NO":"１３號","E_COORD97":172766.12,"N_COORD97":2544715.52,"ADDRESS":"復國一路６巷１３號","OBJECTID":421198},"geometry":{"x":172766.12000000104,"y":2544715.5200000033}},{"attributes":{"ID":421224,"DIS_CODE":0,"TOWNNAME":"永康區","LI":"復國里","LIN":"2鄰","STREET":"復國一路","SECT":" ","MAREA":" ","LANE":"６巷","ALLEY":" ","HOUSE_NO":"２１號","E_COORD97":172793.07000000001,"N_COORD97":2544737.8900000001,"ADDRESS":"復國一路６巷２１號","OBJECTID":421199},"geometry":{"x":172793.0700000003,"y":2544737.8900000025}},{"attributes":{"ID":421225,"DIS_CODE":0,"TOWNNAME":"永康區","LI":"復國里","LIN":"2鄰","STREET":"復國一路","SECT":" ","MAREA":" ","LANE":"２８巷","ALLEY":" ","HOUSE_NO":"２９號","E_COORD97":172801.04000000001,"N_COORD97":2544777.73,"ADDRESS":"復國一路２８巷２９號","OBJECTID":421200},"geometry":{"x":172801.04000000097,"y":2544777.7300000004}}]}