{"displayFieldName":"TOWNNAME","fieldAliases":{"ID":"ID","DIS_CODE":"DIS_CODE","TOWNNAME":"TOWNNAME","LI":"LI","LIN":"LIN","STREET":"STREET","SECT":"SECT","MAREA":"MAREA","LANE":"LANE","ALLEY":"ALLEY","HOUSE_NO":"HOUSE_NO","E_COORD97":"E_COORD97","N_COORD97":"N_COORD97","ADDRESS":"ADDRESS","OBJECTID":"OBJECTID"},"geometryType":"esriGeometryPoint","spatialReference":{"wkid":102443,"latestWkid":3826},"fields":[{"name":"ID","type":"esriFieldTypeDouble","alias":"ID"},{"name":"DIS_CODE","type":"esriFieldTypeInteger","alias":"DIS_CODE"},{"name":"TOWNNAME","type":"esriFieldTypeString","alias":"TOWNNAME","length":8},{"name":"LI","type":"esriFieldTypeString","alias":"LI","length":8},{"name":"LIN","type":"esriFieldTypeString","alias":"LIN","length":12},{"name":"STREET","type":"esriFieldTypeString","alias":"STREET","length":20},{"name":"SECT","type":"esriFieldTypeString","alias":"SECT","length":8},{"name":"MAREA","type":"esriFieldTypeString","alias":"MAREA","length":12},{"name":"LANE","type":"esriFieldTypeString","alias":"LANE","length":10},{"name":"ALLEY","type":"esriFieldTypeString","alias":"ALLEY","length":10},{"name":"HOUSE_NO","type":"esriFieldTypeString","alias":"HOUSE_NO","length":20},{"name":"E_COORD97","type":"esriFieldTypeDouble","alias":"E_COORD97"},{"name":"N_COORD97","type":"esriFieldTypeDouble","alias":"N_COORD97"},{"name":"ADDRESS","type":"esriFieldTypeString","alias":"ADDRESS","length":50},{"name":"OBJECTID","type":"esriFieldTypeOID","alias":"OBJECTID"}],"features":[{"attributes":{"ID":187002,"DIS_CODE":0,"TOWNNAME":"將軍區","LI":"將富里","LIN":"11鄰","STREET":" ","SECT":" ","MAREA":"將榮","LANE":" ","ALLEY":" ","HOUSE_NO":"７０號","E_COORD97":161912.03,"N_COORD97":2568694.2200000002,"ADDRESS":"將榮７０號","OBJECTID":187001},"geometry":{"x":161912.03000000026,"y":2568694.2200000007}},{"attributes":{"ID":187003,"DIS_CODE":0,"TOWNNAME":"將軍區","LI":"保源里","LIN":"11鄰","STREET":" ","SECT":" ","MAREA":"源頭","LANE":" ","ALLEY":" ","HOUSE_NO":"１之１號","E_COORD97":164567.04000000001,"N_COORD97":2567747.1499999999,"ADDRESS":"源頭１之１號","OBJECTID":187002},"geometry":{"x":164567.04000000097,"y":2567747.1500000022}},{"attributes":{"ID":187004,"DIS_CODE":0,"TOWNNAME":"將軍區","LI":"保源里","LIN":"11鄰","STREET":" ","SECT":" ","MAREA":"源頭","LANE":" ","ALLEY":" ","HOUSE_NO":"１之２號","E_COORD97":164331.04000000001,"N_COORD97":2567742.8799999999,"ADDRESS":"源頭１之２號","OBJECTID":187003},"geometry":{"x":164331.0400000019,"y":2567742.8799999971}},{"attributes":{"ID":187005,"DIS_CODE":0,"TOWNNAME":"安南區","LI":"南興里","LIN":"5鄰","STREET":"公學路","SECT":"五段","MAREA":" ","LANE":"６９７巷","ALLEY":"１５０弄","HOUSE_NO":"１３號","E_COORD97":163778.97,"N_COORD97":2552381.1899999999,"ADDRESS":"公學路五段６９７巷１５０弄１３號","OBJECTID":187004},"geometry":{"x":163778.97000000067,"y":2552381.1900000013}},{"attributes":{"ID":187006,"DIS_CODE":0,"TOWNNAME":"將軍區","LI":"保源里","LIN":"11鄰","STREET":" ","SECT":" ","MAREA":"源頭","LANE":" ","ALLEY":" ","HOUSE_NO":"１之５號","E_COORD97":164411.07000000001,"N_COORD97":2567670.1099999999,"ADDRESS":"源頭１之５號","OBJECTID":187005},"geometry":{"x":164411.07000000123,"y":2567670.1099999994}},{"attributes":{"ID":187007,"DIS_CODE":0,"TOWNNAME":"將軍區","LI":"保源里","LIN":"11鄰","STREET":" ","SECT":" ","MAREA":"源頭","LANE":" ","ALLEY":" ","HOUSE_NO":"１號","E_COORD97":164423.03,"N_COORD97":2567736.5600000001,"ADDRESS":"源頭１號","OBJECTID":187006},"geometry":{"x":164423.03000000212,"y":2567736.5599999987}},{"attributes":{"ID":187008,"DIS_CODE":0,"TOWNNAME":"將軍區","LI":"保源里","LIN":"11鄰","STREET":" ","SECT":" ","MAREA":"源頭","LANE":" ","ALLEY":" ","HOUSE_NO":"２號","E_COORD97":164532.51000000001,"N_COORD97":2567763.3100000001,"ADDRESS":"源頭２號","OBJECTID":187007},"geometry":{"x":164532.50999999978,"y":2567763.3100000024}},{"attributes":{"ID":187009,"DIS_CODE":0,"TOWNNAME":"將軍區","LI":"保源里","LIN":"11鄰","STREET":" ","SECT":" ","MAREA":"源頭","LANE":" ","ALLEY":" ","HOUSE_NO":"３之１號","E_COORD97":164532.34,"N_COORD97":2567792.4399999999,"ADDRESS":"源頭３之１號","OBJECTID":187008},"geometry":{"x":164532.34000000171,"y":2567792.4399999995}},{"attributes":{"ID":187010,"DIS_CODE":0,"TOWNNAME":"將軍區","LI":"保源里","LIN":"11鄰","STREET":" ","SECT":" ","MAREA":"源頭","LANE":" ","ALLEY":" ","HOUSE_NO":"３之２號","E_COORD97":164504.48000000001,"N_COORD97":2567810.8500000001,"ADDRESS":"源頭３之２號","OBJECTID":187009},"geometry":{"x":164504.48000000045,"y":2567810.8499999996}},{"attributes":{"ID":187011,"DIS_CODE":0,"TOWNNAME":"將軍區","LI":"保源里","LIN":"11鄰","STREET":" ","SECT":" ","MAREA":"源頭","LANE":" ","ALLEY":" ","HOUSE_NO":"３之３號","E_COORD97":164496.95999999999,"N_COORD97":2567828.21,"ADDRESS":"源頭３之３號","OBJECTID":187010},"geometry":{"x":164496.95999999996,"y":2567828.2100000028}},{"attributes":{"ID":187012,"DIS_CODE":0,"TOWNNAME":"將軍區","LI":"保源里","LIN":"11鄰","STREET":" ","SECT":" ","MAREA":"源頭","LANE":" ","ALLEY":" ","HOUSE_NO":"３之５號","E_COORD97":164543.82999999999,"N_COORD97":2567818.4100000001,"ADDRESS":"源頭３之５號","OBJECTID":187011},"geometry":{"x":164543.83000000007,"y":2567818.4100000001}},{"attributes":{"ID":187013,"DIS_CODE":0,"TOWNNAME":"將軍區","LI":"保源里","LIN":"11鄰","STREET":" ","SECT":" ","MAREA":"源頭","LANE":" ","ALLEY":" ","HOUSE_NO":"３號","E_COORD97":164542.82999999999,"N_COORD97":2567776.52,"ADDRESS":"源頭３號","OBJECTID":187012},"geometry":{"x":164542.83000000194,"y":2567776.5200000033}},{"attributes":{"ID":187014,"DIS_CODE":0,"TOWNNAME":"將軍區","LI":"保源里","LIN":"11鄰","STREET":" ","SECT":" ","MAREA":"源頭","LANE":" ","ALLEY":" ","HOUSE_NO":"７號","E_COORD97":164579.01999999999,"N_COORD97":2567770.27,"ADDRESS":"源頭７號","OBJECTID":187013},"geometry":{"x":164579.02000000048,"y":2567770.2699999996}},{"attributes":{"ID":187015,"DIS_CODE":0,"TOWNNAME":"將軍區","LI":"保源里","LIN":"11鄰","STREET":" ","SECT":" ","MAREA":"源頭","LANE":" ","ALLEY":" ","HOUSE_NO":"８號","E_COORD97":164591.48999999999,"N_COORD97":2567776.5499999998,"ADDRESS":"源頭８號","OBJECTID":187014},"geometry":{"x":164591.49000000115,"y":2567776.5500000007}},{"attributes":{"ID":187016,"DIS_CODE":0,"TOWNNAME":"將軍區","LI":"廣山里","LIN":"11鄰","STREET":" ","SECT":" ","MAREA":"廣山","LANE":" ","ALLEY":" ","HOUSE_NO":"１０１號","E_COORD97":159505.64999999999,"N_COORD97":2569030.4500000002,"ADDRESS":"廣山１０１號","OBJECTID":187015},"geometry":{"x":159505.65000000037,"y":2569030.4499999993}},{"attributes":{"ID":187017,"DIS_CODE":0,"TOWNNAME":"安南區","LI":"南興里","LIN":"5鄰","STREET":"公學路","SECT":"五段","MAREA":" ","LANE":"６９７巷","ALLEY":"１５０弄","HOUSE_NO":"１５號","E_COORD97":163777.39000000001,"N_COORD97":2552385.3900000001,"ADDRESS":"公學路五段６９７巷１５０弄１５號","OBJECTID":187016},"geometry":{"x":163777.39000000153,"y":2552385.3900000006}},{"attributes":{"ID":187018,"DIS_CODE":0,"TOWNNAME":"安南區","LI":"南興里","LIN":"5鄰","STREET":"公學路","SECT":"五段","MAREA":" ","LANE":"６９７巷","ALLEY":"１５０弄","HOUSE_NO":"１７號","E_COORD97":163776.87,"N_COORD97":2552391.1800000002,"ADDRESS":"公學路五段６９７巷１５０弄１７號","OBJECTID":187017},"geometry":{"x":163776.87000000104,"y":2552391.1800000016}},{"attributes":{"ID":187019,"DIS_CODE":0,"TOWNNAME":"將軍區","LI":"鯤鯓里","LIN":"11鄰","STREET":" ","SECT":" ","MAREA":"鯤鯓","LANE":" ","ALLEY":" ","HOUSE_NO":"９９之２號","E_COORD97":156677.39999999999,"N_COORD97":2565561.8100000001,"ADDRESS":"鯤鯓９９之２號","OBJECTID":187018},"geometry":{"x":156677.4000000013,"y":2565561.8100000042}},{"attributes":{"ID":187020,"DIS_CODE":0,"TOWNNAME":"安南區","LI":"南興里","LIN":"5鄰","STREET":"公學路","SECT":"五段","MAREA":" ","LANE":"６９７巷","ALLEY":"１５０弄","HOUSE_NO":"１９號","E_COORD97":163772.66,"N_COORD97":2552395.9100000001,"ADDRESS":"公學路五段６９７巷１５０弄１９號","OBJECTID":187019},"geometry":{"x":163772.66000000201,"y":2552395.9100000039}},{"attributes":{"ID":187021,"DIS_CODE":0,"TOWNNAME":"安南區","LI":"南興里","LIN":"5鄰","STREET":"公學路","SECT":"五段","MAREA":" ","LANE":"６９７巷","ALLEY":"１５０弄","HOUSE_NO":"１號","E_COORD97":163788.44,"N_COORD97":2552352.2799999998,"ADDRESS":"公學路五段６９７巷１５０弄１號","OBJECTID":187020},"geometry":{"x":163788.44000000134,"y":2552352.2800000012}},{"attributes":{"ID":187022,"DIS_CODE":0,"TOWNNAME":"安南區","LI":"南興里","LIN":"5鄰","STREET":"公學路","SECT":"五段","MAREA":" ","LANE":"６９７巷","ALLEY":"１５０弄","HOUSE_NO":"３號","E_COORD97":163787.39000000001,"N_COORD97":2552356.4900000002,"ADDRESS":"公學路五段６９７巷１５０弄３號","OBJECTID":187021},"geometry":{"x":163787.38999999966,"y":2552356.4900000002}},{"attributes":{"ID":187023,"DIS_CODE":0,"TOWNNAME":"安南區","LI":"南興里","LIN":"5鄰","STREET":"公學路","SECT":"五段","MAREA":" ","LANE":"６９７巷","ALLEY":"１５０弄","HOUSE_NO":"５號","E_COORD97":163785.81,"N_COORD97":2552360.6899999999,"ADDRESS":"公學路五段６９７巷１５０弄５號","OBJECTID":187022},"geometry":{"x":163785.80999999959,"y":2552360.6900000013}},{"attributes":{"ID":187024,"DIS_CODE":0,"TOWNNAME":"安南區","LI":"南興里","LIN":"5鄰","STREET":"公學路","SECT":"五段","MAREA":" ","LANE":"６９７巷","ALLEY":"１５０弄","HOUSE_NO":"７號","E_COORD97":163784.76000000001,"N_COORD97":2552366.4700000002,"ADDRESS":"公學路五段６９７巷１５０弄７號","OBJECTID":187023},"geometry":{"x":163784.75999999978,"y":2552366.4700000025}},{"attributes":{"ID":187025,"DIS_CODE":0,"TOWNNAME":"安南區","LI":"南興里","LIN":"5鄰","STREET":"公學路","SECT":"五段","MAREA":" ","LANE":"６９７巷","ALLEY":"１５０弄","HOUSE_NO":"９號","E_COORD97":163783.17999999999,"N_COORD97":2552370.1499999999,"ADDRESS":"公學路五段６９７巷１５０弄９號","OBJECTID":187024},"geometry":{"x":163783.1799999997,"y":2552370.1500000004}},{"attributes":{"ID":187026,"DIS_CODE":0,"TOWNNAME":"安南區","LI":"州北里","LIN":"5鄰","STREET":"安和路","SECT":"五段","MAREA":" ","LANE":"１７１巷","ALLEY":"４７弄","HOUSE_NO":"２９號","E_COORD97":169739.5,"N_COORD97":2551754.1200000001,"ADDRESS":"安和路五段１７１巷４７弄２９號","OBJECTID":187025},"geometry":{"x":169739.50000000093,"y":2551754.120000001}},{"attributes":{"ID":187027,"DIS_CODE":0,"TOWNNAME":"安南區","LI":"州北里","LIN":"5鄰","STREET":"安和路","SECT":"五段","MAREA":" ","LANE":"１７１巷","ALLEY":"４７弄","HOUSE_NO":"２９號之１４","E_COORD97":169731.26000000001,"N_COORD97":2551703.9300000002,"ADDRESS":"安和路五段１７１巷４７弄２９號之１４","OBJECTID":187026},"geometry":{"x":169731.25999999978,"y":2551703.9300000016}},{"attributes":{"ID":187028,"DIS_CODE":0,"TOWNNAME":"將軍區","LI":"廣山里","LIN":"11鄰","STREET":" ","SECT":" ","MAREA":"廣山","LANE":" ","ALLEY":" ","HOUSE_NO":"１０２號","E_COORD97":159495.35999999999,"N_COORD97":2569042.77,"ADDRESS":"廣山１０２號","OBJECTID":187027},"geometry":{"x":159495.36000000127,"y":2569042.7699999977}},{"attributes":{"ID":187029,"DIS_CODE":0,"TOWNNAME":"仁德區","LI":"仁德里","LIN":"5鄰","STREET":"仁德四街","SECT":" ","MAREA":" ","LANE":"１２巷","ALLEY":"１４弄","HOUSE_NO":"５號","E_COORD97":173265.66,"N_COORD97":2540898.79,"ADDRESS":"仁德四街１２巷１４弄５號","OBJECTID":187028},"geometry":{"x":173265.65999999922,"y":2540898.7900000028}},{"attributes":{"ID":187030,"DIS_CODE":0,"TOWNNAME":"仁德區","LI":"仁德里","LIN":"5鄰","STREET":"仁德四街","SECT":" ","MAREA":" ","LANE":"１２巷","ALLEY":"１４弄","HOUSE_NO":"７號","E_COORD97":173270.14999999999,"N_COORD97":2540899.79,"ADDRESS":"仁德四街１２巷１４弄７號","OBJECTID":187029},"geometry":{"x":173270.1500000013,"y":2540899.790000001}},{"attributes":{"ID":187031,"DIS_CODE":0,"TOWNNAME":"仁德區","LI":"仁德里","LIN":"5鄰","STREET":"仁德四街","SECT":" ","MAREA":" ","LANE":"１２巷","ALLEY":"１５弄","HOUSE_NO":"１２號","E_COORD97":173223.91,"N_COORD97":2540891.29,"ADDRESS":"仁德四街１２巷１５弄１２號","OBJECTID":187030},"geometry":{"x":173223.91000000108,"y":2540891.2899999991}},{"attributes":{"ID":187032,"DIS_CODE":0,"TOWNNAME":"麻豆區","LI":"巷口里","LIN":"10鄰","STREET":" ","SECT":" ","MAREA":"柯厝","LANE":" ","ALLEY":" ","HOUSE_NO":"２號之３","E_COORD97":173396.82000000001,"N_COORD97":2564179.4700000002,"ADDRESS":"柯厝２號之３","OBJECTID":187031},"geometry":{"x":173396.8200000003,"y":2564179.4700000007}},{"attributes":{"ID":187033,"DIS_CODE":0,"TOWNNAME":"將軍區","LI":"鯤鯓里","LIN":"11鄰","STREET":" ","SECT":" ","MAREA":"鯤鯓","LANE":" ","ALLEY":" ","HOUSE_NO":"９３之１號","E_COORD97":156628.32000000001,"N_COORD97":2565564.8100000001,"ADDRESS":"鯤鯓９３之１號","OBJECTID":187032},"geometry":{"x":156628.32000000216,"y":2565564.8100000005}},{"attributes":{"ID":187034,"DIS_CODE":0,"TOWNNAME":"將軍區","LI":"鯤鯓里","LIN":"11鄰","STREET":" ","SECT":" ","MAREA":"鯤鯓","LANE":" ","ALLEY":" ","HOUSE_NO":"９３之２號","E_COORD97":156628.62,"N_COORD97":2565568.6000000001,"ADDRESS":"鯤鯓９３之２號","OBJECTID":187033},"geometry":{"x":156628.62000000011,"y":2565568.5999999996}},{"attributes":{"ID":187035,"DIS_CODE":0,"TOWNNAME":"仁德區","LI":"仁德里","LIN":"5鄰","STREET":"仁德四街","SECT":" ","MAREA":" ","LANE":"１２巷","ALLEY":"１５弄","HOUSE_NO":"１８號","E_COORD97":173210.79000000001,"N_COORD97":2540889.04,"ADDRESS":"仁德四街１２巷１５弄１８號","OBJECTID":187034},"geometry":{"x":173210.79000000097,"y":2540889.0399999991}},{"attributes":{"ID":187036,"DIS_CODE":0,"TOWNNAME":"仁德區","LI":"仁德里","LIN":"5鄰","STREET":"仁德四街","SECT":" ","MAREA":" ","LANE":"１２巷","ALLEY":"１５弄","HOUSE_NO":"３號","E_COORD97":173224.51000000001,"N_COORD97":2540879.54,"ADDRESS":"仁德四街１２巷１５弄３號","OBJECTID":187035},"geometry":{"x":173224.51000000071,"y":2540879.5399999991}},{"attributes":{"ID":187037,"DIS_CODE":0,"TOWNNAME":"仁德區","LI":"仁德里","LIN":"5鄰","STREET":"仁德四街","SECT":" ","MAREA":" ","LANE":"１２巷","ALLEY":"１５弄","HOUSE_NO":"１３號","E_COORD97":173202.66,"N_COORD97":2540875.54,"ADDRESS":"仁德四街１２巷１５弄１３號","OBJECTID":187036},"geometry":{"x":173202.66000000015,"y":2540875.5399999991}},{"attributes":{"ID":187038,"DIS_CODE":0,"TOWNNAME":"仁德區","LI":"仁德里","LIN":"5鄰","STREET":"仁德四街","SECT":" ","MAREA":" ","LANE":"１２巷","ALLEY":"１５弄","HOUSE_NO":"１號","E_COORD97":173229.63,"N_COORD97":2540880.29,"ADDRESS":"仁德四街１２巷１５弄１號","OBJECTID":187037},"geometry":{"x":173229.62999999989,"y":2540880.2899999991}},{"attributes":{"ID":187039,"DIS_CODE":0,"TOWNNAME":"仁德區","LI":"仁德里","LIN":"5鄰","STREET":"仁德四街","SECT":" ","MAREA":" ","LANE":"１２巷","ALLEY":"１５弄","HOUSE_NO":"１５號","E_COORD97":173197.69,"N_COORD97":2540874.54,"ADDRESS":"仁德四街１２巷１５弄１５號","OBJECTID":187038},"geometry":{"x":173197.69000000041,"y":2540874.540000001}},{"attributes":{"ID":187040,"DIS_CODE":0,"TOWNNAME":"仁德區","LI":"仁德里","LIN":"5鄰","STREET":"仁德四街","SECT":" ","MAREA":" ","LANE":"１２巷","ALLEY":"１５弄","HOUSE_NO":"５號","E_COORD97":173220.01999999999,"N_COORD97":2540878.54,"ADDRESS":"仁德四街１２巷１５弄５號","OBJECTID":187039},"geometry":{"x":173220.01999999955,"y":2540878.5399999991}},{"attributes":{"ID":187041,"DIS_CODE":0,"TOWNNAME":"仁德區","LI":"仁德里","LIN":"5鄰","STREET":"仁德四街","SECT":" ","MAREA":" ","LANE":"１２巷","ALLEY":"１５弄","HOUSE_NO":"１０號","E_COORD97":173227.98999999999,"N_COORD97":2540892.04,"ADDRESS":"仁德四街１２巷１５弄１０號","OBJECTID":187040},"geometry":{"x":173227.99000000209,"y":2540892.0399999991}},{"attributes":{"ID":187042,"DIS_CODE":0,"TOWNNAME":"將軍區","LI":"鯤鯓里","LIN":"11鄰","STREET":" ","SECT":" ","MAREA":"鯤鯓","LANE":" ","ALLEY":" ","HOUSE_NO":"９３之３號","E_COORD97":156629.04999999999,"N_COORD97":2565572.4199999999,"ADDRESS":"鯤鯓９３之３號","OBJECTID":187041},"geometry":{"x":156629.04999999981,"y":2565572.4199999999}},{"attributes":{"ID":187043,"DIS_CODE":0,"TOWNNAME":"將軍區","LI":"鯤鯓里","LIN":"11鄰","STREET":" ","SECT":" ","MAREA":"鯤鯓","LANE":" ","ALLEY":" ","HOUSE_NO":"９３之４號","E_COORD97":156629.20999999999,"N_COORD97":2565576,"ADDRESS":"鯤鯓９３之４號","OBJECTID":187042},"geometry":{"x":156629.21000000089,"y":2565576}},{"attributes":{"ID":187044,"DIS_CODE":0,"TOWNNAME":"將軍區","LI":"鯤鯓里","LIN":"11鄰","STREET":" ","SECT":" ","MAREA":"鯤鯓","LANE":" ","ALLEY":" ","HOUSE_NO":"９３號","E_COORD97":156628.67999999999,"N_COORD97":2565555.71,"ADDRESS":"鯤鯓９３號","OBJECTID":187043},"geometry":{"x":156628.68000000063,"y":2565555.7100000009}},{"attributes":{"ID":187045,"DIS_CODE":0,"TOWNNAME":"將軍區","LI":"鯤鯓里","LIN":"11鄰","STREET":" ","SECT":" ","MAREA":"鯤鯓","LANE":" ","ALLEY":" ","HOUSE_NO":"９４之１號","E_COORD97":156633.45000000001,"N_COORD97":2565580.2999999998,"ADDRESS":"鯤鯓９４之１號","OBJECTID":187044},"geometry":{"x":156633.45000000019,"y":2565580.3000000026}},{"attributes":{"ID":187046,"DIS_CODE":0,"TOWNNAME":"將軍區","LI":"鯤鯓里","LIN":"11鄰","STREET":" ","SECT":" ","MAREA":"鯤鯓","LANE":" ","ALLEY":" ","HOUSE_NO":"９４號","E_COORD97":156638.13,"N_COORD97":2565580.6800000002,"ADDRESS":"鯤鯓９４號","OBJECTID":187045},"geometry":{"x":156638.13000000082,"y":2565580.6799999997}},{"attributes":{"ID":187047,"DIS_CODE":0,"TOWNNAME":"將軍區","LI":"鯤鯓里","LIN":"11鄰","STREET":" ","SECT":" ","MAREA":"鯤鯓","LANE":" ","ALLEY":" ","HOUSE_NO":"９５號","E_COORD97":156663.89000000001,"N_COORD97":2565577.8500000001,"ADDRESS":"鯤鯓９５號","OBJECTID":187046},"geometry":{"x":156663.88999999966,"y":2565577.8500000015}},{"attributes":{"ID":187048,"DIS_CODE":0,"TOWNNAME":"將軍區","LI":"鯤鯓里","LIN":"11鄰","STREET":" ","SECT":" ","MAREA":"鯤鯓","LANE":" ","ALLEY":" ","HOUSE_NO":"９６號","E_COORD97":156644.69,"N_COORD97":2565564.8900000001,"ADDRESS":"鯤鯓９６號","OBJECTID":187047},"geometry":{"x":156644.69000000134,"y":2565564.8900000043}},{"attributes":{"ID":187049,"DIS_CODE":0,"TOWNNAME":"將軍區","LI":"鯤鯓里","LIN":"11鄰","STREET":" ","SECT":" ","MAREA":"鯤鯓","LANE":" ","ALLEY":" ","HOUSE_NO":"９７號","E_COORD97":156647.20999999999,"N_COORD97":2565554.1899999999,"ADDRESS":"鯤鯓９７號","OBJECTID":187048},"geometry":{"x":156647.21000000183,"y":2565554.1899999995}},{"attributes":{"ID":187050,"DIS_CODE":0,"TOWNNAME":"將軍區","LI":"鯤鯓里","LIN":"11鄰","STREET":" ","SECT":" ","MAREA":"鯤鯓","LANE":" ","ALLEY":" ","HOUSE_NO":"９８號","E_COORD97":156663.31,"N_COORD97":2565553.3599999999,"ADDRESS":"鯤鯓９８號","OBJECTID":187049},"geometry":{"x":156663.31000000052,"y":2565553.3600000031}},{"attributes":{"ID":187051,"DIS_CODE":0,"TOWNNAME":"將軍區","LI":"鯤鯓里","LIN":"11鄰","STREET":" ","SECT":" ","MAREA":"鯤鯓","LANE":" ","ALLEY":" ","HOUSE_NO":"９９之１號","E_COORD97":156677.32000000001,"N_COORD97":2565557.3300000001,"ADDRESS":"鯤鯓９９之１號","OBJECTID":187050},"geometry":{"x":156677.32000000216,"y":2565557.3300000001}},{"attributes":{"ID":187052,"DIS_CODE":0,"TOWNNAME":"將軍區","LI":"鯤鯓里","LIN":"11鄰","STREET":" ","SECT":" ","MAREA":"鯤鯓","LANE":" ","ALLEY":" ","HOUSE_NO":"９９之３號","E_COORD97":156677.32000000001,"N_COORD97":2565566.8199999998,"ADDRESS":"鯤鯓９９之３號","OBJECTID":187051},"geometry":{"x":156677.32000000216,"y":2565566.8200000003}},{"attributes":{"ID":187053,"DIS_CODE":0,"TOWNNAME":"將軍區","LI":"鯤鯓里","LIN":"11鄰","STREET":" ","SECT":" ","MAREA":"鯤鯓","LANE":" ","ALLEY":" ","HOUSE_NO":"９９號","E_COORD97":156677.63,"N_COORD97":2565552.7999999998,"ADDRESS":"鯤鯓９９號","OBJECTID":187052},"geometry":{"x":156677.62999999989,"y":2565552.8000000026}},{"attributes":{"ID":187054,"DIS_CODE":0,"TOWNNAME":"下營區","LI":"開化里","LIN":"11鄰","STREET":" ","SECT":" ","MAREA":"中營","LANE":" ","ALLEY":" ","HOUSE_NO":"５７０號","E_COORD97":176129.5,"N_COORD97":2568318.8900000001,"ADDRESS":"中營５７０號","OBJECTID":187053},"geometry":{"x":176129.5,"y":2568318.8900000025}},{"attributes":{"ID":187055,"DIS_CODE":0,"TOWNNAME":"永康區","LI":"王行里","LIN":"5鄰","STREET":"育樂街","SECT":" ","MAREA":" ","LANE":"１８３巷","ALLEY":"５弄","HOUSE_NO":"８號","E_COORD97":174967.04999999999,"N_COORD97":2548302.1400000001,"ADDRESS":"育樂街１８３巷５弄８號","OBJECTID":187054},"geometry":{"x":174967.05000000075,"y":2548302.1400000006}},{"attributes":{"ID":187056,"DIS_CODE":0,"TOWNNAME":"永康區","LI":"王行里","LIN":"5鄰","STREET":"育樂街","SECT":" ","MAREA":" ","LANE":"１８３巷","ALLEY":"５弄","HOUSE_NO":"４號","E_COORD97":174975.82000000001,"N_COORD97":2548317.3900000001,"ADDRESS":"育樂街１８３巷５弄４號","OBJECTID":187055},"geometry":{"x":174975.82000000123,"y":2548317.3900000006}},{"attributes":{"ID":187057,"DIS_CODE":0,"TOWNNAME":"永康區","LI":"王行里","LIN":"5鄰","STREET":"育樂街","SECT":" ","MAREA":" ","LANE":"１８３巷","ALLEY":"５弄","HOUSE_NO":"７號","E_COORD97":174967.85999999999,"N_COORD97":2548304.77,"ADDRESS":"育樂街１８３巷５弄７號","OBJECTID":187056},"geometry":{"x":174967.86000000034,"y":2548304.7700000014}},{"attributes":{"ID":187058,"DIS_CODE":0,"TOWNNAME":"永康區","LI":"王行里","LIN":"5鄰","STREET":"育樂街","SECT":" ","MAREA":" ","LANE":"１８３巷","ALLEY":"５弄","HOUSE_NO":"６號","E_COORD97":174971.91,"N_COORD97":2548309.8500000001,"ADDRESS":"育樂街１８３巷５弄６號","OBJECTID":187057},"geometry":{"x":174971.91000000108,"y":2548309.8499999996}},{"attributes":{"ID":187059,"DIS_CODE":0,"TOWNNAME":"安南區","LI":"學東里","LIN":"5鄰","STREET":"公學路","SECT":"六段","MAREA":" ","LANE":"４６９巷","ALLEY":"５２弄","HOUSE_NO":"３２號","E_COORD97":162518.81,"N_COORD97":2553118.6000000001,"ADDRESS":"公學路六段４６９巷５２弄３２號","OBJECTID":187058},"geometry":{"x":162518.81000000052,"y":2553118.5999999996}},{"attributes":{"ID":187060,"DIS_CODE":0,"TOWNNAME":"龍崎區","LI":"土崎里","LIN":"11鄰","STREET":" ","SECT":" ","MAREA":"烏樹林","LANE":" ","ALLEY":" ","HOUSE_NO":"１０號","E_COORD97":188201.04000000001,"N_COORD97":2544167.25,"ADDRESS":"烏樹林１０號","OBJECTID":187059},"geometry":{"x":188201.0400000019,"y":2544167.25}},{"attributes":{"ID":187061,"DIS_CODE":0,"TOWNNAME":"麻豆區","LI":"巷口里","LIN":"10鄰","STREET":" ","SECT":" ","MAREA":"柯厝","LANE":" ","ALLEY":" ","HOUSE_NO":"９號之４","E_COORD97":173368.78,"N_COORD97":2564156.3700000001,"ADDRESS":"柯厝９號之４","OBJECTID":187060},"geometry":{"x":173368.78000000119,"y":2564156.3700000029}},{"attributes":{"ID":187062,"DIS_CODE":0,"TOWNNAME":"麻豆區","LI":"巷口里","LIN":"10鄰","STREET":" ","SECT":" ","MAREA":"柯厝","LANE":" ","ALLEY":" ","HOUSE_NO":"９號","E_COORD97":173371.54999999999,"N_COORD97":2564139.6200000001,"ADDRESS":"柯厝９號","OBJECTID":187061},"geometry":{"x":173371.55000000075,"y":2564139.6200000048}},{"attributes":{"ID":187063,"DIS_CODE":0,"TOWNNAME":"麻豆區","LI":"東角里","LIN":"10鄰","STREET":"國中街","SECT":" ","MAREA":" ","LANE":" ","ALLEY":" ","HOUSE_NO":"１０號","E_COORD97":173970.59,"N_COORD97":2564761.6899999999,"ADDRESS":"國中街１０號","OBJECTID":187062},"geometry":{"x":173970.58999999985,"y":2564761.6900000013}},{"attributes":{"ID":187064,"DIS_CODE":0,"TOWNNAME":"麻豆區","LI":"東角里","LIN":"10鄰","STREET":"國中街","SECT":" ","MAREA":" ","LANE":" ","ALLEY":" ","HOUSE_NO":"１２號","E_COORD97":173971.04000000001,"N_COORD97":2564753.46,"ADDRESS":"國中街１２號","OBJECTID":187063},"geometry":{"x":173971.04000000004,"y":2564753.4600000009}},{"attributes":{"ID":187065,"DIS_CODE":0,"TOWNNAME":"安南區","LI":"溪心里","LIN":"5鄰","STREET":"本原街","SECT":"二段","MAREA":" ","LANE":"１０６巷","ALLEY":"５９弄","HOUSE_NO":"１９號","E_COORD97":166880.12,"N_COORD97":2550958.46,"ADDRESS":"本原街二段１０６巷５９弄１９號","OBJECTID":187064},"geometry":{"x":166880.11999999918,"y":2550958.4600000009}},{"attributes":{"ID":187066,"DIS_CODE":0,"TOWNNAME":"安南區","LI":"學東里","LIN":"5鄰","STREET":"公學路","SECT":"六段","MAREA":" ","LANE":"４６９巷","ALLEY":"５０弄","HOUSE_NO":"１３號","E_COORD97":162588.89000000001,"N_COORD97":2553134.0699999998,"ADDRESS":"公學路六段４６９巷５０弄１３號","OBJECTID":187065},"geometry":{"x":162588.88999999966,"y":2553134.070000004}},{"attributes":{"ID":187067,"DIS_CODE":0,"TOWNNAME":"麻豆區","LI":"海埔里","LIN":"10鄰","STREET":" ","SECT":" ","MAREA":"海埔","LANE":" ","ALLEY":" ","HOUSE_NO":"５１號之２","E_COORD97":169537.07999999999,"N_COORD97":2567013.1099999999,"ADDRESS":"海埔５１號之２","OBJECTID":187066},"geometry":{"x":169537.08000000101,"y":2567013.1100000031}},{"attributes":{"ID":187068,"DIS_CODE":0,"TOWNNAME":"麻豆區","LI":"海埔里","LIN":"10鄰","STREET":" ","SECT":" ","MAREA":"海埔","LANE":" ","ALLEY":" ","HOUSE_NO":"５１號","E_COORD97":169535.60999999999,"N_COORD97":2567026.2000000002,"ADDRESS":"海埔５１號","OBJECTID":187067},"geometry":{"x":169535.61000000127,"y":2567026.2000000011}},{"attributes":{"ID":187069,"DIS_CODE":0,"TOWNNAME":"麻豆區","LI":"海埔里","LIN":"10鄰","STREET":" ","SECT":" ","MAREA":"海埔","LANE":" ","ALLEY":" ","HOUSE_NO":"５２號","E_COORD97":169524.06,"N_COORD97":2567057.3500000001,"ADDRESS":"海埔５２號","OBJECTID":187068},"geometry":{"x":169524.05999999959,"y":2567057.3500000015}},{"attributes":{"ID":187070,"DIS_CODE":0,"TOWNNAME":"安南區","LI":"學東里","LIN":"5鄰","STREET":"公學路","SECT":"六段","MAREA":" ","LANE":"４６９巷","ALLEY":"５０弄","HOUSE_NO":"３號","E_COORD97":162611.19,"N_COORD97":2553135.1000000001,"ADDRESS":"公學路六段４６９巷５０弄３號","OBJECTID":187069},"geometry":{"x":162611.19000000041,"y":2553135.0999999996}},{"attributes":{"ID":187071,"DIS_CODE":0,"TOWNNAME":"麻豆區","LI":"東角里","LIN":"10鄰","STREET":"國中街","SECT":" ","MAREA":" ","LANE":" ","ALLEY":" ","HOUSE_NO":"１４號","E_COORD97":173970.64999999999,"N_COORD97":2564743.6400000001,"ADDRESS":"國中街１４號","OBJECTID":187070},"geometry":{"x":173970.65000000037,"y":2564743.6400000025}},{"attributes":{"ID":187072,"DIS_CODE":0,"TOWNNAME":"安南區","LI":"學東里","LIN":"5鄰","STREET":"公學路","SECT":"六段","MAREA":" ","LANE":"４６９巷","ALLEY":"５０弄","HOUSE_NO":"１４號","E_COORD97":162600.04000000001,"N_COORD97":2553160.2400000002,"ADDRESS":"公學路六段４６９巷５０弄１４號","OBJECTID":187071},"geometry":{"x":162600.04000000004,"y":2553160.2400000021}},{"attributes":{"ID":187073,"DIS_CODE":0,"TOWNNAME":"安南區","LI":"學東里","LIN":"5鄰","STREET":"公學路","SECT":"六段","MAREA":" ","LANE":"４６９巷","ALLEY":"５０弄","HOUSE_NO":"１５號","E_COORD97":162584.76000000001,"N_COORD97":2553133.6600000001,"ADDRESS":"公學路六段４６９巷５０弄１５號","OBJECTID":187072},"geometry":{"x":162584.75999999978,"y":2553133.660000002}},{"attributes":{"ID":187074,"DIS_CODE":0,"TOWNNAME":"安南區","LI":"學東里","LIN":"5鄰","STREET":"公學路","SECT":"六段","MAREA":" ","LANE":"４６９巷","ALLEY":"５０弄","HOUSE_NO":"１６號","E_COORD97":162599.51000000001,"N_COORD97":2553164.1400000001,"ADDRESS":"公學路六段４６９巷５０弄１６號","OBJECTID":187073},"geometry":{"x":162599.50999999978,"y":2553164.1399999987}},{"attributes":{"ID":187075,"DIS_CODE":0,"TOWNNAME":"安南區","LI":"學東里","LIN":"5鄰","STREET":"公學路","SECT":"六段","MAREA":" ","LANE":"４６９巷","ALLEY":"５０弄","HOUSE_NO":"１７號","E_COORD97":162580.22,"N_COORD97":2553133.6600000001,"ADDRESS":"公學路六段４６９巷５０弄１７號","OBJECTID":187074},"geometry":{"x":162580.2200000016,"y":2553133.660000002}},{"attributes":{"ID":187076,"DIS_CODE":0,"TOWNNAME":"麻豆區","LI":"海埔里","LIN":"10鄰","STREET":" ","SECT":" ","MAREA":"海埔","LANE":" ","ALLEY":" ","HOUSE_NO":"５３號","E_COORD97":169544.10000000001,"N_COORD97":2567070.54,"ADDRESS":"海埔５３號","OBJECTID":187075},"geometry":{"x":169544.09999999963,"y":2567070.5399999991}},{"attributes":{"ID":187077,"DIS_CODE":0,"TOWNNAME":"安南區","LI":"學東里","LIN":"5鄰","STREET":"公學路","SECT":"六段","MAREA":" ","LANE":"４６９巷","ALLEY":"５０弄","HOUSE_NO":"１９號","E_COORD97":162574.23000000001,"N_COORD97":2553133.8700000001,"ADDRESS":"公學路六段４６９巷５０弄１９號","OBJECTID":187076},"geometry":{"x":162574.23000000138,"y":2553133.8700000029}},{"attributes":{"ID":187078,"DIS_CODE":0,"TOWNNAME":"麻豆區","LI":"東角里","LIN":"10鄰","STREET":"國中街","SECT":" ","MAREA":" ","LANE":" ","ALLEY":" ","HOUSE_NO":"１６號","E_COORD97":173970.64999999999,"N_COORD97":2564734.7799999998,"ADDRESS":"國中街１６號","OBJECTID":187077},"geometry":{"x":173970.65000000037,"y":2564734.7800000012}},{"attributes":{"ID":187079,"DIS_CODE":0,"TOWNNAME":"永康區","LI":"\u25A0行里","LIN":"10鄰","STREET":"中正路","SECT":" ","MAREA":" ","LANE":" ","ALLEY":" ","HOUSE_NO":"４８５號","E_COORD97":172251.48000000001,"N_COORD97":2548623.6899999999,"ADDRESS":"中正路４８５號","OBJECTID":187078},"geometry":{"x":172251.48000000045,"y":2548623.6900000013}},{"attributes":{"ID":187080,"DIS_CODE":0,"TOWNNAME":"永康區","LI":"\u25A0行里","LIN":"10鄰","STREET":"中正路","SECT":" ","MAREA":" ","LANE":" ","ALLEY":" ","HOUSE_NO":"５０３號","E_COORD97":172222.89999999999,"N_COORD97":2548653.3300000001,"ADDRESS":"中正路５０３號","OBJECTID":187079},"geometry":{"x":172222.90000000037,"y":2548653.3300000038}},{"attributes":{"ID":187081,"DIS_CODE":0,"TOWNNAME":"永康區","LI":"\u25A0行里","LIN":"10鄰","STREET":"中正路","SECT":" ","MAREA":" ","LANE":" ","ALLEY":" ","HOUSE_NO":"４９１號","E_COORD97":172242.29000000001,"N_COORD97":2548632.4300000002,"ADDRESS":"中正路４９１號","OBJECTID":187080},"geometry":{"x":172242.29000000004,"y":2548632.4300000016}},{"attributes":{"ID":187082,"DIS_CODE":0,"TOWNNAME":"麻豆區","LI":"海埔里","LIN":"10鄰","STREET":" ","SECT":" ","MAREA":"海埔","LANE":" ","ALLEY":" ","HOUSE_NO":"５４號","E_COORD97":169511.88,"N_COORD97":2567025.1400000001,"ADDRESS":"海埔５４號","OBJECTID":187081},"geometry":{"x":169511.87999999989,"y":2567025.1400000025}},{"attributes":{"ID":187083,"DIS_CODE":0,"TOWNNAME":"龍崎區","LI":"土崎里","LIN":"11鄰","STREET":" ","SECT":" ","MAREA":"烏樹林","LANE":" ","ALLEY":" ","HOUSE_NO":"１３之３號","E_COORD97":188217.34,"N_COORD97":2544460.2999999998,"ADDRESS":"烏樹林１３之３號","OBJECTID":187082},"geometry":{"x":188217.33999999892,"y":2544460.3000000045}},{"attributes":{"ID":187084,"DIS_CODE":0,"TOWNNAME":"龍崎區","LI":"土崎里","LIN":"11鄰","STREET":" ","SECT":" ","MAREA":"烏樹林","LANE":" ","ALLEY":" ","HOUSE_NO":"１３之１號","E_COORD97":188176.73999999999,"N_COORD97":2544507.2999999998,"ADDRESS":"烏樹林１３之１號","OBJECTID":187083},"geometry":{"x":188176.74000000115,"y":2544507.3000000007}},{"attributes":{"ID":187085,"DIS_CODE":0,"TOWNNAME":"龍崎區","LI":"楠坑里","LIN":"11鄰","STREET":" ","SECT":" ","MAREA":"草埔坪","LANE":" ","ALLEY":" ","HOUSE_NO":"１７號","E_COORD97":184559.19,"N_COORD97":2534238.25,"ADDRESS":"草埔坪１７號","OBJECTID":187084},"geometry":{"x":184559.19000000227,"y":2534238.2500000019}},{"attributes":{"ID":187086,"DIS_CODE":0,"TOWNNAME":"龍崎區","LI":"崎頂里","LIN":"11鄰","STREET":" ","SECT":" ","MAREA":"新市子","LANE":" ","ALLEY":" ","HOUSE_NO":"３３２號","E_COORD97":184332.17000000001,"N_COORD97":2540725.25,"ADDRESS":"新市子３３２號","OBJECTID":187085},"geometry":{"x":184332.17000000086,"y":2540725.2500000019}},{"attributes":{"ID":187087,"DIS_CODE":0,"TOWNNAME":"龍崎區","LI":"崎頂里","LIN":"11鄰","STREET":" ","SECT":" ","MAREA":"新市子","LANE":" ","ALLEY":" ","HOUSE_NO":"３５０號","E_COORD97":184181.37,"N_COORD97":2540812.25,"ADDRESS":"新市子３５０號","OBJECTID":187086},"geometry":{"x":184181.37000000197,"y":2540812.2500000019}},{"attributes":{"ID":187088,"DIS_CODE":0,"TOWNNAME":"安南區","LI":"學東里","LIN":"5鄰","STREET":"公學路","SECT":"六段","MAREA":" ","LANE":"４６９巷","ALLEY":"５０弄","HOUSE_NO":"１號","E_COORD97":162615.51999999999,"N_COORD97":2553133.6600000001,"ADDRESS":"公學路六段４６９巷５０弄１號","OBJECTID":187087},"geometry":{"x":162615.52000000048,"y":2553133.660000002}},{"attributes":{"ID":187089,"DIS_CODE":0,"TOWNNAME":"安南區","LI":"學東里","LIN":"5鄰","STREET":"公學路","SECT":"六段","MAREA":" ","LANE":"４６９巷","ALLEY":"５０弄","HOUSE_NO":"２１號","E_COORD97":162570.72,"N_COORD97":2553134.6899999999,"ADDRESS":"公學路六段４６９巷５０弄２１號","OBJECTID":187088},"geometry":{"x":162570.72000000067,"y":2553134.6899999995}},{"attributes":{"ID":187090,"DIS_CODE":0,"TOWNNAME":"安南區","LI":"學東里","LIN":"5鄰","STREET":"公學路","SECT":"六段","MAREA":" ","LANE":"４６９巷","ALLEY":"５０弄","HOUSE_NO":"２３號","E_COORD97":162566.17999999999,"N_COORD97":2553133.4500000002,"ADDRESS":"公學路六段４６９巷５０弄２３號","OBJECTID":187089},"geometry":{"x":162566.1799999997,"y":2553133.4499999993}},{"attributes":{"ID":187091,"DIS_CODE":0,"TOWNNAME":"安南區","LI":"學東里","LIN":"5鄰","STREET":"公學路","SECT":"六段","MAREA":" ","LANE":"４６９巷","ALLEY":"５０弄","HOUSE_NO":"２５號","E_COORD97":162562.67000000001,"N_COORD97":2553133.4500000002,"ADDRESS":"公學路六段４６９巷５０弄２５號","OBJECTID":187090},"geometry":{"x":162562.67000000086,"y":2553133.4499999993}},{"attributes":{"ID":187092,"DIS_CODE":0,"TOWNNAME":"安南區","LI":"學東里","LIN":"5鄰","STREET":"公學路","SECT":"六段","MAREA":" ","LANE":"４６９巷","ALLEY":"５０弄","HOUSE_NO":"２７號","E_COORD97":162557.29999999999,"N_COORD97":2553133.04,"ADDRESS":"公學路六段４６９巷５０弄２７號","OBJECTID":187091},"geometry":{"x":162557.29999999981,"y":2553133.0400000028}},{"attributes":{"ID":187093,"DIS_CODE":0,"TOWNNAME":"永康區","LI":"\u25A0洲里","LIN":"10鄰","STREET":"\u25A0行路","SECT":" ","MAREA":" ","LANE":" ","ALLEY":" ","HOUSE_NO":"９９號","E_COORD97":171479.67999999999,"N_COORD97":2549230.25,"ADDRESS":"\u25A0行路９９號","OBJECTID":187092},"geometry":{"x":171479.6799999997,"y":2549230.2500000037}},{"attributes":{"ID":187094,"DIS_CODE":0,"TOWNNAME":"東區","LI":"自強里","LIN":"5鄰","STREET":"東門路","SECT":"三段","MAREA":" ","LANE":"３７巷","ALLEY":"１０弄","HOUSE_NO":"６號","E_COORD97":171251.35000000001,"N_COORD97":2542336.98,"ADDRESS":"東門路三段３７巷１０弄６號","OBJECTID":187093},"geometry":{"x":171251.34999999963,"y":2542336.9800000023}},{"attributes":{"ID":187095,"DIS_CODE":0,"TOWNNAME":"安南區","LI":"學東里","LIN":"5鄰","STREET":"公學路","SECT":"六段","MAREA":" ","LANE":"４６９巷","ALLEY":"５０弄","HOUSE_NO":"２９號","E_COORD97":162553.17000000001,"N_COORD97":2553132.2200000002,"ADDRESS":"公學路六段４６９巷５０弄２９號","OBJECTID":187094},"geometry":{"x":162553.16999999993,"y":2553132.2200000007}},{"attributes":{"ID":187096,"DIS_CODE":0,"TOWNNAME":"永康區","LI":"\u25A0洲里","LIN":"10鄰","STREET":"\u25A0行路","SECT":" ","MAREA":" ","LANE":" ","ALLEY":" ","HOUSE_NO":"１２２號","E_COORD97":171489.48999999999,"N_COORD97":2549253.2400000002,"ADDRESS":"\u25A0行路１２２號","OBJECTID":187095},"geometry":{"x":171489.49000000115,"y":2549253.2400000002}},{"attributes":{"ID":187097,"DIS_CODE":0,"TOWNNAME":"永康區","LI":"\u25A0洲里","LIN":"10鄰","STREET":"\u25A0行路","SECT":" ","MAREA":" ","LANE":" ","ALLEY":" ","HOUSE_NO":"１１８號","E_COORD97":171498.89999999999,"N_COORD97":2549257.4900000002,"ADDRESS":"\u25A0行路１１８號","OBJECTID":187096},"geometry":{"x":171498.90000000037,"y":2549257.4900000021}},{"attributes":{"ID":187098,"DIS_CODE":0,"TOWNNAME":"龍崎區","LI":"土崎里","LIN":"11鄰","STREET":" ","SECT":" ","MAREA":"烏樹林","LANE":" ","ALLEY":" ","HOUSE_NO":"１３之２號","E_COORD97":188172.44,"N_COORD97":2544507.2999999998,"ADDRESS":"烏樹林１３之２號","OBJECTID":187097},"geometry":{"x":188172.44000000134,"y":2544507.3000000007}},{"attributes":{"ID":187099,"DIS_CODE":0,"TOWNNAME":"安南區","LI":"學東里","LIN":"5鄰","STREET":"公學路","SECT":"六段","MAREA":" ","LANE":"４６９巷","ALLEY":"５０弄","HOUSE_NO":"２號","E_COORD97":162630.98000000001,"N_COORD97":2553113.9700000002,"ADDRESS":"公學路六段４６９巷５０弄２號","OBJECTID":187098},"geometry":{"x":162630.98000000045,"y":2553113.9700000007}},{"attributes":{"ID":187100,"DIS_CODE":0,"TOWNNAME":"善化區","LI":"光文里","LIN":"10鄰","STREET":"民族路","SECT":" ","MAREA":" ","LANE":" ","ALLEY":" ","HOUSE_NO":"１０４號","E_COORD97":178416.88,"N_COORD97":2559112.5099999998,"ADDRESS":"民族路１０４號","OBJECTID":187099},"geometry":{"x":178416.87999999989,"y":2559112.5100000016}},{"attributes":{"ID":187101,"DIS_CODE":0,"TOWNNAME":"安南區","LI":"學東里","LIN":"5鄰","STREET":"公學路","SECT":"六段","MAREA":" ","LANE":"４６９巷","ALLEY":"５０弄","HOUSE_NO":"３１號","E_COORD97":162548.54000000001,"N_COORD97":2553132.4199999999,"ADDRESS":"公學路六段４６９巷５０弄３１號","OBJECTID":187100},"geometry":{"x":162548.54000000097,"y":2553132.4200000018}},{"attributes":{"ID":187102,"DIS_CODE":0,"TOWNNAME":"永康區","LI":"\u25A0洲里","LIN":"10鄰","STREET":"\u25A0行路","SECT":" ","MAREA":" ","LANE":" ","ALLEY":" ","HOUSE_NO":"１２０號","E_COORD97":171495.39000000001,"N_COORD97":2549254.2400000002,"ADDRESS":"\u25A0行路１２０號","OBJECTID":187101},"geometry":{"x":171495.38999999966,"y":2549254.2400000039}},{"attributes":{"ID":187103,"DIS_CODE":0,"TOWNNAME":"安南區","LI":"學東里","LIN":"5鄰","STREET":"公學路","SECT":"六段","MAREA":" ","LANE":"４６９巷","ALLEY":"５０弄","HOUSE_NO":"３３號","E_COORD97":162544.82999999999,"N_COORD97":2553131.5899999999,"ADDRESS":"公學路六段４６９巷５０弄３３號","OBJECTID":187102},"geometry":{"x":162544.83000000101,"y":2553131.5900000017}},{"attributes":{"ID":187104,"DIS_CODE":0,"TOWNNAME":"安南區","LI":"學東里","LIN":"5鄰","STREET":"公學路","SECT":"六段","MAREA":" ","LANE":"４６９巷","ALLEY":"５０弄","HOUSE_NO":"３５號","E_COORD97":162539.25,"N_COORD97":2553132.4199999999,"ADDRESS":"公學路六段４６９巷５０弄３５號","OBJECTID":187103},"geometry":{"x":162539.25,"y":2553132.4200000018}},{"attributes":{"ID":187105,"DIS_CODE":0,"TOWNNAME":"安南區","LI":"學東里","LIN":"5鄰","STREET":"公學路","SECT":"六段","MAREA":" ","LANE":"４６９巷","ALLEY":"５０弄","HOUSE_NO":"４號","E_COORD97":162627.78,"N_COORD97":2553133.3300000001,"ADDRESS":"公學路六段４６９巷５０弄４號","OBJECTID":187104},"geometry":{"x":162627.78000000212,"y":2553133.3300000019}},{"attributes":{"ID":187106,"DIS_CODE":0,"TOWNNAME":"安南區","LI":"學東里","LIN":"5鄰","STREET":"公學路","SECT":"六段","MAREA":" ","LANE":"４６９巷","ALLEY":"５０弄","HOUSE_NO":"５號","E_COORD97":162606.85000000001,"N_COORD97":2553133.25,"ADDRESS":"公學路六段４６９巷５０弄５號","OBJECTID":187105},"geometry":{"x":162606.85000000056,"y":2553133.2500000019}},{"attributes":{"ID":187107,"DIS_CODE":0,"TOWNNAME":"安南區","LI":"學東里","LIN":"5鄰","STREET":"公學路","SECT":"六段","MAREA":" ","LANE":"４６９巷","ALLEY":"５０弄","HOUSE_NO":"７號","E_COORD97":162602.51999999999,"N_COORD97":2553134.6899999999,"ADDRESS":"公學路六段４６９巷５０弄７號","OBJECTID":187106},"geometry":{"x":162602.51999999955,"y":2553134.6899999995}},{"attributes":{"ID":187108,"DIS_CODE":0,"TOWNNAME":"安南區","LI":"學東里","LIN":"5鄰","STREET":"公學路","SECT":"六段","MAREA":" ","LANE":"４６９巷","ALLEY":"５０弄","HOUSE_NO":"９號","E_COORD97":162598.17999999999,"N_COORD97":2553134.2799999998,"ADDRESS":"公學路六段４６９巷５０弄９號","OBJECTID":187107},"geometry":{"x":162598.1799999997,"y":2553134.2799999993}},{"attributes":{"ID":187109,"DIS_CODE":0,"TOWNNAME":"安南區","LI":"學東里","LIN":"5鄰","STREET":"公學路","SECT":"六段","MAREA":" ","LANE":"４６９巷","ALLEY":"５２弄","HOUSE_NO":"１０號","E_COORD97":162596.04000000001,"N_COORD97":2553108.8300000001,"ADDRESS":"公學路六段４６９巷５２弄１０號","OBJECTID":187108},"geometry":{"x":162596.04000000097,"y":2553108.8300000019}},{"attributes":{"ID":187110,"DIS_CODE":0,"TOWNNAME":"安南區","LI":"學東里","LIN":"5鄰","STREET":"公學路","SECT":"六段","MAREA":" ","LANE":"４６９巷","ALLEY":"５２弄","HOUSE_NO":"１２號","E_COORD97":162591.09,"N_COORD97":2553108.6200000001,"ADDRESS":"公學路六段４６９巷５２弄１２號","OBJECTID":187109},"geometry":{"x":162591.08999999985,"y":2553108.6200000029}},{"attributes":{"ID":187111,"DIS_CODE":0,"TOWNNAME":"永康區","LI":"中華里","LIN":"10鄰","STREET":"小東路","SECT":" ","MAREA":" ","LANE":" ","ALLEY":" ","HOUSE_NO":"６２３號","E_COORD97":171875.17999999999,"N_COORD97":2544341.6400000001,"ADDRESS":"小東路６２３號","OBJECTID":187110},"geometry":{"x":171875.18000000156,"y":2544341.6400000006}},{"attributes":{"ID":187112,"DIS_CODE":0,"TOWNNAME":"永康區","LI":"中華里","LIN":"10鄰","STREET":"小東路","SECT":" ","MAREA":" ","LANE":" ","ALLEY":" ","HOUSE_NO":"６１９號","E_COORD97":171866.95000000001,"N_COORD97":2544341.4199999999,"ADDRESS":"小東路６１９號","OBJECTID":187111},"geometry":{"x":171866.95000000205,"y":2544341.4200000018}},{"attributes":{"ID":187113,"DIS_CODE":0,"TOWNNAME":"仁德區","LI":"二行里","LIN":"8鄰","STREET":"行大一街","SECT":" ","MAREA":" ","LANE":" ","ALLEY":" ","HOUSE_NO":"９３號","E_COORD97":170144.60000000001,"N_COORD97":2535071.7400000002,"ADDRESS":"行大一街９３號","OBJECTID":187112},"geometry":{"x":170144.59999999963,"y":2535071.7400000002}},{"attributes":{"ID":187114,"DIS_CODE":0,"TOWNNAME":"善化區","LI":"嘉北里","LIN":"10鄰","STREET":" ","SECT":" ","MAREA":"茄拔","LANE":" ","ALLEY":" ","HOUSE_NO":"２００號","E_COORD97":180891.62,"N_COORD97":2560070.2599999998,"ADDRESS":"茄拔２００號","OBJECTID":187113},"geometry":{"x":180891.62000000104,"y":2560070.2600000016}},{"attributes":{"ID":187115,"DIS_CODE":0,"TOWNNAME":"龍崎區","LI":"崎頂里","LIN":"11鄰","STREET":" ","SECT":" ","MAREA":"新市子","LANE":" ","ALLEY":" ","HOUSE_NO":"３３７之１號","E_COORD97":184298.76999999999,"N_COORD97":2540759.2999999998,"ADDRESS":"新市子３３７之１號","OBJECTID":187114},"geometry":{"x":184298.77000000048,"y":2540759.3000000026}},{"attributes":{"ID":187116,"DIS_CODE":0,"TOWNNAME":"龍崎區","LI":"崎頂里","LIN":"11鄰","STREET":" ","SECT":" ","MAREA":"新市子","LANE":" ","ALLEY":" ","HOUSE_NO":"３３３號","E_COORD97":184330.37,"N_COORD97":2540728.25,"ADDRESS":"新市子３３３號","OBJECTID":187115},"geometry":{"x":184330.36999999918,"y":2540728.2500000019}},{"attributes":{"ID":187117,"DIS_CODE":0,"TOWNNAME":"龍崎區","LI":"楠坑里","LIN":"11鄰","STREET":" ","SECT":" ","MAREA":"草埔坪","LANE":" ","ALLEY":" ","HOUSE_NO":"１５號之１","E_COORD97":184609.73000000001,"N_COORD97":2534416.2999999998,"ADDRESS":"草埔坪１５號之１","OBJECTID":187116},"geometry":{"x":184609.73000000231,"y":2534416.3000000026}},{"attributes":{"ID":187118,"DIS_CODE":0,"TOWNNAME":"龍崎區","LI":"楠坑里","LIN":"11鄰","STREET":" ","SECT":" ","MAREA":"草埔坪","LANE":" ","ALLEY":" ","HOUSE_NO":"１９號之１","E_COORD97":184696.82999999999,"N_COORD97":2534182.2999999998,"ADDRESS":"草埔坪１９號之１","OBJECTID":187117},"geometry":{"x":184696.83000000194,"y":2534182.3000000026}},{"attributes":{"ID":187119,"DIS_CODE":0,"TOWNNAME":"龍崎區","LI":"楠坑里","LIN":"11鄰","STREET":" ","SECT":" ","MAREA":"草埔坪","LANE":" ","ALLEY":" ","HOUSE_NO":"２１號","E_COORD97":184747.09,"N_COORD97":2534172.25,"ADDRESS":"草埔坪２１號","OBJECTID":187118},"geometry":{"x":184747.08999999985,"y":2534172.25}},{"attributes":{"ID":187120,"DIS_CODE":0,"TOWNNAME":"安南區","LI":"學東里","LIN":"5鄰","STREET":"公學路","SECT":"六段","MAREA":" ","LANE":"４６９巷","ALLEY":"５２弄","HOUSE_NO":"１４號","E_COORD97":162586.75,"N_COORD97":2553108.6299999999,"ADDRESS":"公學路六段４６９巷５２弄１４號","OBJECTID":187119},"geometry":{"x":162586.75,"y":2553108.6300000027}},{"attributes":{"ID":187121,"DIS_CODE":0,"TOWNNAME":"安南區","LI":"學東里","LIN":"5鄰","STREET":"公學路","SECT":"六段","MAREA":" ","LANE":"４６９巷","ALLEY":"５２弄","HOUSE_NO":"１６號","E_COORD97":162581.17999999999,"N_COORD97":2553108.21,"ADDRESS":"公學路六段４６９巷５２弄１６號","OBJECTID":187120},"geometry":{"x":162581.18000000063,"y":2553108.2100000028}},{"attributes":{"ID":187122,"DIS_CODE":0,"TOWNNAME":"龍崎區","LI":"崎頂里","LIN":"11鄰","STREET":" ","SECT":" ","MAREA":"新市子","LANE":" ","ALLEY":" ","HOUSE_NO":"３３８號","E_COORD97":184292.26999999999,"N_COORD97":2540760.25,"ADDRESS":"新市子３３８號","OBJECTID":187121},"geometry":{"x":184292.27000000048,"y":2540760.25}},{"attributes":{"ID":187123,"DIS_CODE":0,"TOWNNAME":"安南區","LI":"學東里","LIN":"5鄰","STREET":"公學路","SECT":"六段","MAREA":" ","LANE":"４６９巷","ALLEY":"５２弄","HOUSE_NO":"１８號","E_COORD97":162554.82000000001,"N_COORD97":2553122.98,"ADDRESS":"公學路六段４６９巷５２弄１８號","OBJECTID":187122},"geometry":{"x":162554.82000000123,"y":2553122.9800000004}},{"attributes":{"ID":187124,"DIS_CODE":0,"TOWNNAME":"安南區","LI":"學東里","LIN":"5鄰","STREET":"公學路","SECT":"六段","MAREA":" ","LANE":"４６９巷","ALLEY":"５２弄","HOUSE_NO":"２０號","E_COORD97":162555,"N_COORD97":2553118.0099999998,"ADDRESS":"公學路六段４６９巷５２弄２０號","OBJECTID":187123},"geometry":{"x":162555.00000000093,"y":2553118.0100000016}},{"attributes":{"ID":187125,"DIS_CODE":0,"TOWNNAME":"安南區","LI":"學東里","LIN":"5鄰","STREET":"公學路","SECT":"六段","MAREA":" ","LANE":"４６９巷","ALLEY":"５２弄","HOUSE_NO":"２２號","E_COORD97":162555.35000000001,"N_COORD97":2553114.1000000001,"ADDRESS":"公學路六段４６９巷５２弄２２號","OBJECTID":187124},"geometry":{"x":162555.35000000149,"y":2553114.1000000015}},{"attributes":{"ID":187126,"DIS_CODE":0,"TOWNNAME":"龍崎區","LI":"崎頂里","LIN":"11鄰","STREET":" ","SECT":" ","MAREA":"新市子","LANE":" ","ALLEY":" ","HOUSE_NO":"３３７號","E_COORD97":184301.26999999999,"N_COORD97":2540758.25,"ADDRESS":"新市子３３７號","OBJECTID":187125},"geometry":{"x":184301.26999999955,"y":2540758.2500000019}},{"attributes":{"ID":187127,"DIS_CODE":0,"TOWNNAME":"龍崎區","LI":"崎頂里","LIN":"11鄰","STREET":" ","SECT":" ","MAREA":"新市子","LANE":" ","ALLEY":" ","HOUSE_NO":"３３１號","E_COORD97":184333.97,"N_COORD97":2540721.25,"ADDRESS":"新市子３３１號","OBJECTID":187126},"geometry":{"x":184333.96999999974,"y":2540721.2500000019}},{"attributes":{"ID":187128,"DIS_CODE":0,"TOWNNAME":"南區","LI":"府南里","LIN":"10鄰","STREET":"永成路","SECT":"三段","MAREA":" ","LANE":" ","ALLEY":" ","HOUSE_NO":"２８３號","E_COORD97":167487.82633499999,"N_COORD97":2541075.2149800002,"ADDRESS":"永成路三段２８３號","OBJECTID":187127},"geometry":{"x":167487.82633499987,"y":2541075.2149780001}},{"attributes":{"ID":187129,"DIS_CODE":0,"TOWNNAME":"龍崎區","LI":"崎頂里","LIN":"11鄰","STREET":" ","SECT":" ","MAREA":"新市子","LANE":" ","ALLEY":" ","HOUSE_NO":"３３９號","E_COORD97":184287.67000000001,"N_COORD97":2540761.25,"ADDRESS":"新市子３３９號","OBJECTID":187128},"geometry":{"x":184287.67000000179,"y":2540761.2500000037}},{"attributes":{"ID":187130,"DIS_CODE":0,"TOWNNAME":"龍崎區","LI":"崎頂里","LIN":"11鄰","STREET":" ","SECT":" ","MAREA":"新市子","LANE":" ","ALLEY":" ","HOUSE_NO":"３３５之１號","E_COORD97":184313.07000000001,"N_COORD97":2540756.2999999998,"ADDRESS":"新市子３３５之１號","OBJECTID":187129},"geometry":{"x":184313.07000000123,"y":2540756.3000000026}},{"attributes":{"ID":187131,"DIS_CODE":0,"TOWNNAME":"龍崎區","LI":"土崎里","LIN":"11鄰","STREET":" ","SECT":" ","MAREA":"烏樹林","LANE":" ","ALLEY":" ","HOUSE_NO":"１５號","E_COORD97":188271.94,"N_COORD97":2544361.25,"ADDRESS":"烏樹林１５號","OBJECTID":187130},"geometry":{"x":188271.94000000134,"y":2544361.25}},{"attributes":{"ID":187132,"DIS_CODE":0,"TOWNNAME":"龍崎區","LI":"土崎里","LIN":"11鄰","STREET":" ","SECT":" ","MAREA":"烏樹林","LANE":" ","ALLEY":" ","HOUSE_NO":"１６號","E_COORD97":188043.64000000001,"N_COORD97":2544256.25,"ADDRESS":"烏樹林１６號","OBJECTID":187131},"geometry":{"x":188043.63999999966,"y":2544256.2499999981}},{"attributes":{"ID":187133,"DIS_CODE":0,"TOWNNAME":"龍崎區","LI":"土崎里","LIN":"11鄰","STREET":" ","SECT":" ","MAREA":"烏樹林","LANE":" ","ALLEY":" ","HOUSE_NO":"１２號","E_COORD97":188195.94,"N_COORD97":2544366.25,"ADDRESS":"烏樹林１２號","OBJECTID":187132},"geometry":{"x":188195.94000000134,"y":2544366.2500000019}},{"attributes":{"ID":187134,"DIS_CODE":0,"TOWNNAME":"龍崎區","LI":"楠坑里","LIN":"11鄰","STREET":" ","SECT":" ","MAREA":"草埔坪","LANE":" ","ALLEY":" ","HOUSE_NO":"１８號","E_COORD97":184605.89000000001,"N_COORD97":2534231.25,"ADDRESS":"草埔坪１８號","OBJECTID":187133},"geometry":{"x":184605.88999999966,"y":2534231.2500000037}},{"attributes":{"ID":187135,"DIS_CODE":0,"TOWNNAME":"龍崎區","LI":"楠坑里","LIN":"11鄰","STREET":" ","SECT":" ","MAREA":"草埔坪","LANE":" ","ALLEY":" ","HOUSE_NO":"２０號","E_COORD97":184730.79000000001,"N_COORD97":2534179.25,"ADDRESS":"草埔坪２０號","OBJECTID":187134},"geometry":{"x":184730.79000000004,"y":2534179.25}},{"attributes":{"ID":187136,"DIS_CODE":0,"TOWNNAME":"龍崎區","LI":"楠坑里","LIN":"11鄰","STREET":" ","SECT":" ","MAREA":"草埔坪","LANE":" ","ALLEY":" ","HOUSE_NO":"２３號","E_COORD97":184778.98999999999,"N_COORD97":2534172.25,"ADDRESS":"草埔坪２３號","OBJECTID":187135},"geometry":{"x":184778.99000000209,"y":2534172.25}},{"attributes":{"ID":187137,"DIS_CODE":0,"TOWNNAME":"龍崎區","LI":"楠坑里","LIN":"11鄰","STREET":" ","SECT":" ","MAREA":"草埔坪","LANE":" ","ALLEY":" ","HOUSE_NO":"１４號","E_COORD97":184659.69,"N_COORD97":2534382.25,"ADDRESS":"草埔坪１４號","OBJECTID":187136},"geometry":{"x":184659.69000000134,"y":2534382.25}},{"attributes":{"ID":187138,"DIS_CODE":0,"TOWNNAME":"龍崎區","LI":"楠坑里","LIN":"11鄰","STREET":" ","SECT":" ","MAREA":"草埔坪","LANE":" ","ALLEY":" ","HOUSE_NO":"１６號","E_COORD97":184583.98999999999,"N_COORD97":2534446.25,"ADDRESS":"草埔坪１６號","OBJECTID":187137},"geometry":{"x":184583.99000000209,"y":2534446.2500000019}},{"attributes":{"ID":187139,"DIS_CODE":0,"TOWNNAME":"龍崎區","LI":"楠坑里","LIN":"11鄰","STREET":" ","SECT":" ","MAREA":"草埔坪","LANE":" ","ALLEY":" ","HOUSE_NO":"１９號","E_COORD97":184683.39000000001,"N_COORD97":2534216.25,"ADDRESS":"草埔坪１９號","OBJECTID":187138},"geometry":{"x":184683.38999999966,"y":2534216.25}},{"attributes":{"ID":187140,"DIS_CODE":0,"TOWNNAME":"龍崎區","LI":"大坪里","LIN":"11鄰","STREET":" ","SECT":" ","MAREA":"興化店","LANE":" ","ALLEY":" ","HOUSE_NO":"１２之１號","E_COORD97":186278.01999999999,"N_COORD97":2535909.2999999998,"ADDRESS":"興化店１２之１號","OBJECTID":187139},"geometry":{"x":186278.01999999955,"y":2535909.3000000007}},{"attributes":{"ID":187141,"DIS_CODE":0,"TOWNNAME":"龍崎區","LI":"土崎里","LIN":"11鄰","STREET":" ","SECT":" ","MAREA":"烏樹林","LANE":" ","ALLEY":" ","HOUSE_NO":"１３號","E_COORD97":188129.54000000001,"N_COORD97":2544377.25,"ADDRESS":"烏樹林１３號","OBJECTID":187140},"geometry":{"x":188129.54000000004,"y":2544377.25}},{"attributes":{"ID":187142,"DIS_CODE":0,"TOWNNAME":"龍崎區","LI":"土崎里","LIN":"11鄰","STREET":" ","SECT":" ","MAREA":"烏樹林","LANE":" ","ALLEY":" ","HOUSE_NO":"１３之４號","E_COORD97":188112.60000000001,"N_COORD97":2544718.2400000002,"ADDRESS":"烏樹林１３之４號","OBJECTID":187141},"geometry":{"x":188112.60000000056,"y":2544718.2400000021}},{"attributes":{"ID":187143,"DIS_CODE":0,"TOWNNAME":"龍崎區","LI":"楠坑里","LIN":"11鄰","STREET":" ","SECT":" ","MAREA":"草埔坪","LANE":" ","ALLEY":" ","HOUSE_NO":"１４之１號","E_COORD97":184822.84,"N_COORD97":2534308.7599999998,"ADDRESS":"草埔坪１４之１號","OBJECTID":187142},"geometry":{"x":184822.84000000078,"y":2534308.7600000035}},{"attributes":{"ID":187144,"DIS_CODE":0,"TOWNNAME":"歸仁區","LI":"歸南里","LIN":"24鄰","STREET":"民生南街","SECT":"二段","MAREA":" ","LANE":" ","ALLEY":" ","HOUSE_NO":"１０８號","E_COORD97":176180.35999999999,"N_COORD97":2540324.25,"ADDRESS":"民生南街二段１０８號","OBJECTID":187143},"geometry":{"x":176180.3600000022,"y":2540324.2500000019}},{"attributes":{"ID":187145,"DIS_CODE":0,"TOWNNAME":"歸仁區","LI":"歸南里","LIN":"24鄰","STREET":"民生南街","SECT":"二段","MAREA":" ","LANE":" ","ALLEY":" ","HOUSE_NO":"１１８號","E_COORD97":176174.16,"N_COORD97":2540304.25,"ADDRESS":"民生南街二段１１８號","OBJECTID":187144},"geometry":{"x":176174.16000000015,"y":2540304.2500000019}},{"attributes":{"ID":187146,"DIS_CODE":0,"TOWNNAME":"歸仁區","LI":"歸南里","LIN":"24鄰","STREET":"民生南街","SECT":"二段","MAREA":" ","LANE":" ","ALLEY":" ","HOUSE_NO":"１２０號","E_COORD97":176172.06,"N_COORD97":2540300.25,"ADDRESS":"民生南街二段１２０號","OBJECTID":187145},"geometry":{"x":176172.06000000052,"y":2540300.2500000019}},{"attributes":{"ID":187147,"DIS_CODE":0,"TOWNNAME":"歸仁區","LI":"歸南里","LIN":"24鄰","STREET":"民生南街","SECT":"二段","MAREA":" ","LANE":" ","ALLEY":" ","HOUSE_NO":"１２２號","E_COORD97":176170.95999999999,"N_COORD97":2540296.25,"ADDRESS":"民生南街二段１２２號","OBJECTID":187146},"geometry":{"x":176170.96000000089,"y":2540296.25}},{"attributes":{"ID":187148,"DIS_CODE":0,"TOWNNAME":"歸仁區","LI":"新厝里","LIN":"24鄰","STREET":"大成十街","SECT":" ","MAREA":" ","LANE":" ","ALLEY":" ","HOUSE_NO":"４８號","E_COORD97":177639.14000000001,"N_COORD97":2540202.1800000002,"ADDRESS":"大成十街４８號","OBJECTID":187147},"geometry":{"x":177639.1400000006,"y":2540202.1800000016}},{"attributes":{"ID":187149,"DIS_CODE":0,"TOWNNAME":"六甲區","LI":"二甲里","LIN":"24鄰","STREET":"信義街","SECT":" ","MAREA":" ","LANE":" ","ALLEY":" ","HOUSE_NO":"２４８號","E_COORD97":183359.73000000001,"N_COORD97":2569821.8500000001,"ADDRESS":"信義街２４８號","OBJECTID":187148},"geometry":{"x":183359.73000000045,"y":2569821.8499999996}},{"attributes":{"ID":187150,"DIS_CODE":0,"TOWNNAME":"六甲區","LI":"二甲里","LIN":"24鄰","STREET":"信義街","SECT":" ","MAREA":" ","LANE":" ","ALLEY":" ","HOUSE_NO":"２５０號","E_COORD97":183360.73000000001,"N_COORD97":2569826.5800000001,"ADDRESS":"信義街２５０號","OBJECTID":187149},"geometry":{"x":183360.73000000138,"y":2569826.5800000001}},{"attributes":{"ID":187151,"DIS_CODE":0,"TOWNNAME":"六甲區","LI":"二甲里","LIN":"24鄰","STREET":"信義街","SECT":" ","MAREA":" ","LANE":" ","ALLEY":" ","HOUSE_NO":"２９２號","E_COORD97":183379.45999999999,"N_COORD97":2569911.5600000001,"ADDRESS":"信義街２９２號","OBJECTID":187150},"geometry":{"x":183379.46000000089,"y":2569911.5600000024}},{"attributes":{"ID":187152,"DIS_CODE":0,"TOWNNAME":"安南區","LI":"學東里","LIN":"5鄰","STREET":"公學路","SECT":"六段","MAREA":" ","LANE":"４６９巷","ALLEY":"５２弄","HOUSE_NO":"２４號","E_COORD97":162555.53,"N_COORD97":2553109.6600000001,"ADDRESS":"公學路六段４６９巷５２弄２４號","OBJECTID":187151},"geometry":{"x":162555.53000000119,"y":2553109.6600000039}},{"attributes":{"ID":187153,"DIS_CODE":0,"TOWNNAME":"安南區","LI":"安富里","LIN":"10鄰","STREET":"安富街","SECT":" ","MAREA":" ","LANE":" ","ALLEY":" ","HOUSE_NO":"２６３號","E_COORD97":167496.98000000001,"N_COORD97":2547423,"ADDRESS":"安富街２６３號","OBJECTID":187152},"geometry":{"x":167496.98000000231,"y":2547423.0000000019}},{"attributes":{"ID":187154,"DIS_CODE":0,"TOWNNAME":"安南區","LI":"安富里","LIN":"10鄰","STREET":"安富街","SECT":" ","MAREA":" ","LANE":" ","ALLEY":" ","HOUSE_NO":"２７１號","E_COORD97":167481.81,"N_COORD97":2547417.1600000001,"ADDRESS":"安富街２７１號","OBJECTID":187153},"geometry":{"x":167481.81000000145,"y":2547417.1600000039}},{"attributes":{"ID":187155,"DIS_CODE":0,"TOWNNAME":"善化區","LI":"東昌里","LIN":"10鄰","STREET":" ","SECT":" ","MAREA":"東勢寮","LANE":" ","ALLEY":" ","HOUSE_NO":"１１２號","E_COORD97":180228.32999999999,"N_COORD97":2561851.5099999998,"ADDRESS":"東勢寮１１２號","OBJECTID":187154},"geometry":{"x":180228.33000000194,"y":2561851.5100000016}},{"attributes":{"ID":187156,"DIS_CODE":0,"TOWNNAME":"善化區","LI":"牛庄里","LIN":"10鄰","STREET":" ","SECT":" ","MAREA":"牛庄","LANE":" ","ALLEY":" ","HOUSE_NO":"１０３號","E_COORD97":180020.47,"N_COORD97":2559980.5,"ADDRESS":"牛庄１０３號","OBJECTID":187155},"geometry":{"x":180020.47000000067,"y":2559980.5000000019}},{"attributes":{"ID":187157,"DIS_CODE":0,"TOWNNAME":"善化區","LI":"東昌里","LIN":"10鄰","STREET":" ","SECT":" ","MAREA":"東勢寮","LANE":" ","ALLEY":" ","HOUSE_NO":"１１４號","E_COORD97":180244.89000000001,"N_COORD97":2561855.5099999998,"ADDRESS":"東勢寮１１４號","OBJECTID":187156},"geometry":{"x":180244.8900000006,"y":2561855.5100000016}},{"attributes":{"ID":187158,"DIS_CODE":0,"TOWNNAME":"善化區","LI":"牛庄里","LIN":"10鄰","STREET":" ","SECT":" ","MAREA":"牛庄","LANE":" ","ALLEY":" ","HOUSE_NO":"１００之３號","E_COORD97":180033.57999999999,"N_COORD97":2560031.52,"ADDRESS":"牛庄１００之３號","OBJECTID":187157},"geometry":{"x":180033.58000000101,"y":2560031.5199999996}},{"attributes":{"ID":187159,"DIS_CODE":0,"TOWNNAME":"善化區","LI":"東昌里","LIN":"10鄰","STREET":" ","SECT":" ","MAREA":"東勢寮","LANE":" ","ALLEY":" ","HOUSE_NO":"１１１號之１","E_COORD97":180232.39999999999,"N_COORD97":2561833.52,"ADDRESS":"東勢寮１１１號之１","OBJECTID":187158},"geometry":{"x":180232.4000000013,"y":2561833.5200000033}},{"attributes":{"ID":187160,"DIS_CODE":0,"TOWNNAME":"善化區","LI":"胡厝里","LIN":"10鄰","STREET":" ","SECT":" ","MAREA":"百二甲","LANE":" ","ALLEY":" ","HOUSE_NO":"２之１１號","E_COORD97":175411.98000000001,"N_COORD97":2560049.27,"ADDRESS":"百二甲２之１１號","OBJECTID":187159},"geometry":{"x":175411.98000000138,"y":2560049.2700000014}},{"attributes":{"ID":187161,"DIS_CODE":0,"TOWNNAME":"善化區","LI":"牛庄里","LIN":"10鄰","STREET":" ","SECT":" ","MAREA":"牛庄","LANE":" ","ALLEY":" ","HOUSE_NO":"１１３號之４","E_COORD97":180047.29999999999,"N_COORD97":2559911.52,"ADDRESS":"牛庄１１３號之４","OBJECTID":187160},"geometry":{"x":180047.30000000075,"y":2559911.5200000014}},{"attributes":{"ID":187162,"DIS_CODE":0,"TOWNNAME":"善化區","LI":"東昌里","LIN":"10鄰","STREET":" ","SECT":" ","MAREA":"東勢寮","LANE":" ","ALLEY":" ","HOUSE_NO":"１１６之１號","E_COORD97":180260.20000000001,"N_COORD97":2561862.52,"ADDRESS":"東勢寮１１６之１號","OBJECTID":187161},"geometry":{"x":180260.20000000112,"y":2561862.5199999996}},{"attributes":{"ID":187163,"DIS_CODE":0,"TOWNNAME":"善化區","LI":"牛庄里","LIN":"10鄰","STREET":" ","SECT":" ","MAREA":"牛庄","LANE":" ","ALLEY":" ","HOUSE_NO":"１００號","E_COORD97":180031.88,"N_COORD97":2560019,"ADDRESS":"牛庄１００號","OBJECTID":187162},"geometry":{"x":180031.88000000082,"y":2560019}},{"attributes":{"ID":187164,"DIS_CODE":0,"TOWNNAME":"善化區","LI":"嘉北里","LIN":"10鄰","STREET":" ","SECT":" ","MAREA":"茄拔","LANE":" ","ALLEY":" ","HOUSE_NO":"２００號之１","E_COORD97":180899.67999999999,"N_COORD97":2560051.02,"ADDRESS":"茄拔２００號之１","OBJECTID":187163},"geometry":{"x":180899.6799999997,"y":2560051.0200000014}},{"attributes":{"ID":187165,"DIS_CODE":0,"TOWNNAME":"善化區","LI":"嘉北里","LIN":"10鄰","STREET":" ","SECT":" ","MAREA":"茄拔","LANE":" ","ALLEY":" ","HOUSE_NO":"１９７號之３","E_COORD97":180936.04000000001,"N_COORD97":2560045.52,"ADDRESS":"茄拔１９７號之３","OBJECTID":187164},"geometry":{"x":180936.04000000097,"y":2560045.5199999996}},{"attributes":{"ID":187166,"DIS_CODE":0,"TOWNNAME":"善化區","LI":"東昌里","LIN":"10鄰","STREET":" ","SECT":" ","MAREA":"東勢寮","LANE":" ","ALLEY":" ","HOUSE_NO":"１１５號之１","E_COORD97":180265.29999999999,"N_COORD97":2561831.27,"ADDRESS":"東勢寮１１５號之１","OBJECTID":187165},"geometry":{"x":180265.29999999981,"y":2561831.2699999996}},{"attributes":{"ID":187167,"DIS_CODE":0,"TOWNNAME":"善化區","LI":"胡厝里","LIN":"10鄰","STREET":" ","SECT":" ","MAREA":"百二甲","LANE":" ","ALLEY":" ","HOUSE_NO":"２號之７","E_COORD97":175636.92000000001,"N_COORD97":2560062.02,"ADDRESS":"百二甲２號之７","OBJECTID":187166},"geometry":{"x":175636.91999999899,"y":2560062.0199999996}},{"attributes":{"ID":187168,"DIS_CODE":0,"TOWNNAME":"西港區","LI":"竹林里","LIN":"11鄰","STREET":" ","SECT":" ","MAREA":"大竹林","LANE":" ","ALLEY":" ","HOUSE_NO":"８８號之１０","E_COORD97":166644.67000000001,"N_COORD97":2558030.5800000001,"ADDRESS":"大竹林８８號之１０","OBJECTID":187167},"geometry":{"x":166644.67000000086,"y":2558030.5800000019}},{"attributes":{"ID":187169,"DIS_CODE":0,"TOWNNAME":"西港區","LI":"竹林里","LIN":"11鄰","STREET":" ","SECT":" ","MAREA":"大竹林","LANE":" ","ALLEY":" ","HOUSE_NO":"８８號之６","E_COORD97":166632.64000000001,"N_COORD97":2558023.0800000001,"ADDRESS":"大竹林８８號之６","OBJECTID":187168},"geometry":{"x":166632.6400000006,"y":2558023.0800000019}},{"attributes":{"ID":187170,"DIS_CODE":0,"TOWNNAME":"西港區","LI":"竹林里","LIN":"11鄰","STREET":" ","SECT":" ","MAREA":"大竹林","LANE":" ","ALLEY":" ","HOUSE_NO":"８９號之３","E_COORD97":166656.76000000001,"N_COORD97":2557951.4199999999,"ADDRESS":"大竹林８９號之３","OBJECTID":187169},"geometry":{"x":166656.76000000164,"y":2557951.4199999999}},{"attributes":{"ID":187171,"DIS_CODE":0,"TOWNNAME":"西港區","LI":"竹林里","LIN":"11鄰","STREET":" ","SECT":" ","MAREA":"大竹林","LANE":" ","ALLEY":" ","HOUSE_NO":"８９號之４","E_COORD97":166660.85999999999,"N_COORD97":2557954.0499999998,"ADDRESS":"大竹林８９號之４","OBJECTID":187170},"geometry":{"x":166660.86000000127,"y":2557954.0500000026}},{"attributes":{"ID":187172,"DIS_CODE":0,"TOWNNAME":"西港區","LI":"竹林里","LIN":"11鄰","STREET":" ","SECT":" ","MAREA":"大竹林","LANE":" ","ALLEY":" ","HOUSE_NO":"８９號之５","E_COORD97":166664.48999999999,"N_COORD97":2557956.5800000001,"ADDRESS":"大竹林８９號之５","OBJECTID":187171},"geometry":{"x":166664.49000000115,"y":2557956.5800000001}},{"attributes":{"ID":187173,"DIS_CODE":0,"TOWNNAME":"西港區","LI":"竹林里","LIN":"11鄰","STREET":" ","SECT":" ","MAREA":"大竹林","LANE":" ","ALLEY":" ","HOUSE_NO":"８９號之６","E_COORD97":166667.47,"N_COORD97":2557958.8100000001,"ADDRESS":"大竹林８９號之６","OBJECTID":187172},"geometry":{"x":166667.47000000067,"y":2557958.8100000024}},{"attributes":{"ID":187174,"DIS_CODE":0,"TOWNNAME":"善化區","LI":"光文里","LIN":"10鄰","STREET":"中山路","SECT":" ","MAREA":" ","LANE":" ","ALLEY":" ","HOUSE_NO":"６７號","E_COORD97":178698.85999999999,"N_COORD97":2559187.5,"ADDRESS":"中山路６７號","OBJECTID":187173},"geometry":{"x":178698.86000000034,"y":2559187.5000000019}},{"attributes":{"ID":187175,"DIS_CODE":0,"TOWNNAME":"善化區","LI":"胡厝里","LIN":"10鄰","STREET":" ","SECT":" ","MAREA":"百二甲","LANE":" ","ALLEY":" ","HOUSE_NO":"２之１５號","E_COORD97":175535.48000000001,"N_COORD97":2560071.27,"ADDRESS":"百二甲２之１５號","OBJECTID":187174},"geometry":{"x":175535.48000000231,"y":2560071.2699999996}},{"attributes":{"ID":187176,"DIS_CODE":0,"TOWNNAME":"善化區","LI":"胡厝里","LIN":"10鄰","STREET":" ","SECT":" ","MAREA":"百二甲","LANE":" ","ALLEY":" ","HOUSE_NO":"２號之５","E_COORD97":175649.87,"N_COORD97":2560064.77,"ADDRESS":"百二甲２號之５","OBJECTID":187175},"geometry":{"x":175649.87000000104,"y":2560064.7699999996}},{"attributes":{"ID":187177,"DIS_CODE":0,"TOWNNAME":"善化區","LI":"牛庄里","LIN":"10鄰","STREET":" ","SECT":" ","MAREA":"牛庄","LANE":" ","ALLEY":" ","HOUSE_NO":"１０７號","E_COORD97":180040.16,"N_COORD97":2559971.75,"ADDRESS":"牛庄１０７號","OBJECTID":187176},"geometry":{"x":180040.16000000108,"y":2559971.7500000019}},{"attributes":{"ID":187178,"DIS_CODE":0,"TOWNNAME":"善化區","LI":"胡厝里","LIN":"10鄰","STREET":" ","SECT":" ","MAREA":"百二甲","LANE":" ","ALLEY":" ","HOUSE_NO":"４號","E_COORD97":175275.39999999999,"N_COORD97":2559962.5,"ADDRESS":"百二甲４號","OBJECTID":187177},"geometry":{"x":175275.4000000013,"y":2559962.5000000037}},{"attributes":{"ID":187179,"DIS_CODE":0,"TOWNNAME":"善化區","LI":"東昌里","LIN":"10鄰","STREET":" ","SECT":" ","MAREA":"東勢寮","LANE":" ","ALLEY":" ","HOUSE_NO":"１１１號","E_COORD97":180220.89999999999,"N_COORD97":2561837.0099999998,"ADDRESS":"東勢寮１１１號","OBJECTID":187178},"geometry":{"x":180220.90000000037,"y":2561837.0100000035}},{"attributes":{"ID":187180,"DIS_CODE":0,"TOWNNAME":"善化區","LI":"牛庄里","LIN":"10鄰","STREET":" ","SECT":" ","MAREA":"牛庄","LANE":" ","ALLEY":" ","HOUSE_NO":"１００之２號","E_COORD97":180033.38,"N_COORD97":2560027.27,"ADDRESS":"牛庄１００之２號","OBJECTID":187179},"geometry":{"x":180033.38000000082,"y":2560027.2699999996}},{"attributes":{"ID":187181,"DIS_CODE":0,"TOWNNAME":"善化區","LI":"嘉北里","LIN":"10鄰","STREET":" ","SECT":" ","MAREA":"茄拔","LANE":" ","ALLEY":" ","HOUSE_NO":"１９８號之２","E_COORD97":180913.5,"N_COORD97":2560076.52,"ADDRESS":"茄拔１９８號之２","OBJECTID":187180},"geometry":{"x":180913.5,"y":2560076.5199999996}},{"attributes":{"ID":187182,"DIS_CODE":0,"TOWNNAME":"善化區","LI":"嘉北里","LIN":"10鄰","STREET":" ","SECT":" ","MAREA":"茄拔","LANE":" ","ALLEY":" ","HOUSE_NO":"１９７號之２","E_COORD97":180918.54999999999,"N_COORD97":2560056.02,"ADDRESS":"茄拔１９７號之２","OBJECTID":187181},"geometry":{"x":180918.55000000075,"y":2560056.0199999996}},{"attributes":{"ID":187183,"DIS_CODE":0,"TOWNNAME":"善化區","LI":"嘉北里","LIN":"10鄰","STREET":" ","SECT":" ","MAREA":"茄拔","LANE":" ","ALLEY":" ","HOUSE_NO":"１９７號","E_COORD97":180946.25,"N_COORD97":2560056.5099999998,"ADDRESS":"茄拔１９７號","OBJECTID":187182},"geometry":{"x":180946.25000000093,"y":2560056.5099999998}},{"attributes":{"ID":187184,"DIS_CODE":0,"TOWNNAME":"善化區","LI":"東昌里","LIN":"10鄰","STREET":" ","SECT":" ","MAREA":"東勢寮","LANE":" ","ALLEY":" ","HOUSE_NO":"１１５號","E_COORD97":180270.76000000001,"N_COORD97":2561831.7599999998,"ADDRESS":"東勢寮１１５號","OBJECTID":187183},"geometry":{"x":180270.75999999885,"y":2561831.7599999979}},{"attributes":{"ID":187185,"DIS_CODE":0,"TOWNNAME":"善化區","LI":"東隆里","LIN":"10鄰","STREET":" ","SECT":" ","MAREA":"東勢寮","LANE":" ","ALLEY":" ","HOUSE_NO":"２７９號","E_COORD97":179963.06,"N_COORD97":2561275.0099999998,"ADDRESS":"東勢寮２７９號","OBJECTID":187184},"geometry":{"x":179963.05999999959,"y":2561275.0100000016}},{"attributes":{"ID":187186,"DIS_CODE":0,"TOWNNAME":"善化區","LI":"東昌里","LIN":"10鄰","STREET":" ","SECT":" ","MAREA":"東勢寮","LANE":" ","ALLEY":" ","HOUSE_NO":"１０９號","E_COORD97":180194.76999999999,"N_COORD97":2561856.7599999998,"ADDRESS":"東勢寮１０９號","OBJECTID":187185},"geometry":{"x":180194.77000000048,"y":2561856.7600000016}},{"attributes":{"ID":187187,"DIS_CODE":0,"TOWNNAME":"善化區","LI":"東昌里","LIN":"10鄰","STREET":" ","SECT":" ","MAREA":"東勢寮","LANE":" ","ALLEY":" ","HOUSE_NO":"１０８號","E_COORD97":180179.89999999999,"N_COORD97":2561855.2599999998,"ADDRESS":"東勢寮１０８號","OBJECTID":187186},"geometry":{"x":180179.90000000037,"y":2561855.2599999998}},{"attributes":{"ID":187188,"DIS_CODE":0,"TOWNNAME":"善化區","LI":"胡厝里","LIN":"10鄰","STREET":" ","SECT":" ","MAREA":"百二甲","LANE":" ","ALLEY":" ","HOUSE_NO":"２號之３","E_COORD97":175402.42000000001,"N_COORD97":2559980.27,"ADDRESS":"百二甲２號之３","OBJECTID":187187},"geometry":{"x":175402.41999999993,"y":2559980.2699999977}},{"attributes":{"ID":187189,"DIS_CODE":0,"TOWNNAME":"安南區","LI":"學東里","LIN":"5鄰","STREET":"公學路","SECT":"六段","MAREA":" ","LANE":"４６９巷","ALLEY":"５２弄","HOUSE_NO":"２號","E_COORD97":162614,"N_COORD97":2553109.8599999999,"ADDRESS":"公學路六段４６９巷５２弄２號","OBJECTID":187188},"geometry":{"x":162613.99999999907,"y":2553109.8599999994}},{"attributes":{"ID":187190,"DIS_CODE":0,"TOWNNAME":"安南區","LI":"學東里","LIN":"5鄰","STREET":"公學路","SECT":"六段","MAREA":" ","LANE":"４６９巷","ALLEY":"５２弄","HOUSE_NO":"４號","E_COORD97":162609.45999999999,"N_COORD97":2553108.4199999999,"ADDRESS":"公學路六段４６９巷５２弄４號","OBJECTID":187189},"geometry":{"x":162609.46000000089,"y":2553108.4200000018}},{"attributes":{"ID":187191,"DIS_CODE":0,"TOWNNAME":"善化區","LI":"嘉北里","LIN":"10鄰","STREET":" ","SECT":" ","MAREA":"茄拔","LANE":" ","ALLEY":" ","HOUSE_NO":"２０２號","E_COORD97":180869.34,"N_COORD97":2560072.0099999998,"ADDRESS":"茄拔２０２號","OBJECTID":187190},"geometry":{"x":180869.34000000078,"y":2560072.0100000016}},{"attributes":{"ID":187192,"DIS_CODE":0,"TOWNNAME":"善化區","LI":"光文里","LIN":"10鄰","STREET":"民權路","SECT":" ","MAREA":" ","LANE":" ","ALLEY":" ","HOUSE_NO":"５４號","E_COORD97":178662.8199,"N_COORD97":2559092.0260000001,"ADDRESS":"民權路５４號","OBJECTID":187191},"geometry":{"x":178662.8199000014,"y":2559092.0260000043}},{"attributes":{"ID":187193,"DIS_CODE":0,"TOWNNAME":"善化區","LI":"光文里","LIN":"10鄰","STREET":"中山路","SECT":" ","MAREA":" ","LANE":" ","ALLEY":" ","HOUSE_NO":"６３號","E_COORD97":178709.25,"N_COORD97":2559189.5,"ADDRESS":"中山路６３號","OBJECTID":187192},"geometry":{"x":178709.25,"y":2559189.5000000037}},{"attributes":{"ID":187194,"DIS_CODE":0,"TOWNNAME":"善化區","LI":"什乃里","LIN":"10鄰","STREET":" ","SECT":" ","MAREA":"什乃","LANE":" ","ALLEY":" ","HOUSE_NO":"９４號之１２","E_COORD97":176230.45999999999,"N_COORD97":2560222.52,"ADDRESS":"什乃９４號之１２","OBJECTID":187193},"geometry":{"x":176230.46000000089,"y":2560222.5199999996}},{"attributes":{"ID":187195,"DIS_CODE":0,"TOWNNAME":"善化區","LI":"北關里","LIN":"10鄰","STREET":"文正路","SECT":" ","MAREA":" ","LANE":" ","ALLEY":" ","HOUSE_NO":"１２之２號","E_COORD97":177100.31,"N_COORD97":2559260.5299999998,"ADDRESS":"文正路１２之２號","OBJECTID":187194},"geometry":{"x":177100.31000000145,"y":2559260.5300000012}},{"attributes":{"ID":187196,"DIS_CODE":0,"TOWNNAME":"善化區","LI":"坐駕里","LIN":"10鄰","STREET":"自立路","SECT":" ","MAREA":" ","LANE":" ","ALLEY":" ","HOUSE_NO":"１１９號","E_COORD97":177976.67000000001,"N_COORD97":2558614.25,"ADDRESS":"自立路１１９號","OBJECTID":187195},"geometry":{"x":177976.67000000086,"y":2558614.25}},{"attributes":{"ID":187197,"DIS_CODE":0,"TOWNNAME":"善化區","LI":"牛庄里","LIN":"10鄰","STREET":" ","SECT":" ","MAREA":"牛庄","LANE":" ","ALLEY":" ","HOUSE_NO":"１０９號","E_COORD97":180054.91,"N_COORD97":2559951,"ADDRESS":"牛庄１０９號","OBJECTID":187196},"geometry":{"x":180054.91000000201,"y":2559951}},{"attributes":{"ID":187198,"DIS_CODE":0,"TOWNNAME":"西港區","LI":"竹林里","LIN":"11鄰","STREET":" ","SECT":" ","MAREA":"大竹林","LANE":" ","ALLEY":" ","HOUSE_NO":"８９號之７","E_COORD97":166671.19,"N_COORD97":2557961.5800000001,"ADDRESS":"大竹林８９號之７","OBJECTID":187197},"geometry":{"x":166671.19000000041,"y":2557961.5800000038}},{"attributes":{"ID":187199,"DIS_CODE":0,"TOWNNAME":"西港區","LI":"竹林里","LIN":"11鄰","STREET":" ","SECT":" ","MAREA":"大竹林","LANE":" ","ALLEY":" ","HOUSE_NO":"８９號之８","E_COORD97":166674.76999999999,"N_COORD97":2557964.54,"ADDRESS":"大竹林８９號之８","OBJECTID":187198},"geometry":{"x":166674.76999999955,"y":2557964.5400000028}},{"attributes":{"ID":187200,"DIS_CODE":0,"TOWNNAME":"西港區","LI":"竹林里","LIN":"11鄰","STREET":" ","SECT":" ","MAREA":"大竹林","LANE":" ","ALLEY":" ","HOUSE_NO":"９０號","E_COORD97":166678.10999999999,"N_COORD97":2557911.8300000001,"ADDRESS":"大竹林９０號","OBJECTID":187199},"geometry":{"x":166678.11000000034,"y":2557911.8300000001}},{"attributes":{"ID":187201,"DIS_CODE":0,"TOWNNAME":"西港區","LI":"竹林里","LIN":"11鄰","STREET":" ","SECT":" ","MAREA":"大竹林","LANE":" ","ALLEY":" ","HOUSE_NO":"９１號","E_COORD97":166629.32000000001,"N_COORD97":2557899.1800000002,"ADDRESS":"大竹林９１號","OBJECTID":187200},"geometry":{"x":166629.3200000003,"y":2557899.1799999997}}]}