{"displayFieldName":"TOWNNAME","fieldAliases":{"ID":"ID","DIS_CODE":"DIS_CODE","TOWNNAME":"TOWNNAME","LI":"LI","LIN":"LIN","STREET":"STREET","SECT":"SECT","MAREA":"MAREA","LANE":"LANE","ALLEY":"ALLEY","HOUSE_NO":"HOUSE_NO","E_COORD97":"E_COORD97","N_COORD97":"N_COORD97","ADDRESS":"ADDRESS","OBJECTID":"OBJECTID"},"geometryType":"esriGeometryPoint","spatialReference":{"wkid":102443,"latestWkid":3826},"fields":[{"name":"ID","type":"esriFieldTypeDouble","alias":"ID"},{"name":"DIS_CODE","type":"esriFieldTypeInteger","alias":"DIS_CODE"},{"name":"TOWNNAME","type":"esriFieldTypeString","alias":"TOWNNAME","length":8},{"name":"LI","type":"esriFieldTypeString","alias":"LI","length":8},{"name":"LIN","type":"esriFieldTypeString","alias":"LIN","length":12},{"name":"STREET","type":"esriFieldTypeString","alias":"STREET","length":20},{"name":"SECT","type":"esriFieldTypeString","alias":"SECT","length":8},{"name":"MAREA","type":"esriFieldTypeString","alias":"MAREA","length":12},{"name":"LANE","type":"esriFieldTypeString","alias":"LANE","length":10},{"name":"ALLEY","type":"esriFieldTypeString","alias":"ALLEY","length":10},{"name":"HOUSE_NO","type":"esriFieldTypeString","alias":"HOUSE_NO","length":20},{"name":"E_COORD97","type":"esriFieldTypeDouble","alias":"E_COORD97"},{"name":"N_COORD97","type":"esriFieldTypeDouble","alias":"N_COORD97"},{"name":"ADDRESS","type":"esriFieldTypeString","alias":"ADDRESS","length":50},{"name":"OBJECTID","type":"esriFieldTypeOID","alias":"OBJECTID"}],"features":[{"attributes":{"ID":216002,"DIS_CODE":0,"TOWNNAME":"永康區","LI":"二王里","LIN":"45鄰","STREET":"南工街","SECT":" ","MAREA":" ","LANE":"２１２巷","ALLEY":"１３弄","HOUSE_NO":"１６號","E_COORD97":172152.14000000001,"N_COORD97":2545974.0600000001,"ADDRESS":"南工街２１２巷１３弄１６號","OBJECTID":216001},"geometry":{"x":172152.1400000006,"y":2545974.0600000042}},{"attributes":{"ID":216003,"DIS_CODE":0,"TOWNNAME":"永康區","LI":"二王里","LIN":"45鄰","STREET":"南工街","SECT":" ","MAREA":" ","LANE":"２１２巷","ALLEY":"１３弄","HOUSE_NO":"１５號","E_COORD97":172114.5,"N_COORD97":2545995.1299999999,"ADDRESS":"南工街２１２巷１３弄１５號","OBJECTID":216002},"geometry":{"x":172114.50000000093,"y":2545995.129999999}},{"attributes":{"ID":216004,"DIS_CODE":0,"TOWNNAME":"仁德區","LI":"仁義里","LIN":"45鄰","STREET":"仁義路","SECT":" ","MAREA":" ","LANE":"９８巷","ALLEY":"１４弄","HOUSE_NO":"８號","E_COORD97":173586.59,"N_COORD97":2540917.27,"ADDRESS":"仁義路９８巷１４弄８號","OBJECTID":216003},"geometry":{"x":173586.59000000078,"y":2540917.2700000014}},{"attributes":{"ID":216005,"DIS_CODE":0,"TOWNNAME":"仁德區","LI":"仁義里","LIN":"45鄰","STREET":"仁義路","SECT":" ","MAREA":" ","LANE":"９８巷","ALLEY":"１４弄","HOUSE_NO":"４號","E_COORD97":173596.31,"N_COORD97":2540922.27,"ADDRESS":"仁義路９８巷１４弄４號","OBJECTID":216004},"geometry":{"x":173596.30999999866,"y":2540922.2699999996}},{"attributes":{"ID":216006,"DIS_CODE":0,"TOWNNAME":"仁德區","LI":"後壁里","LIN":"37鄰","STREET":"民安路","SECT":"一段","MAREA":" ","LANE":" ","ALLEY":" ","HOUSE_NO":"３５８號","E_COORD97":173083.51000000001,"N_COORD97":2539403.8199999998,"ADDRESS":"民安路一段３５８號","OBJECTID":216005},"geometry":{"x":173083.51000000071,"y":2539403.8200000003}},{"attributes":{"ID":216007,"DIS_CODE":0,"TOWNNAME":"永康區","LI":"二王里","LIN":"45鄰","STREET":"南工街","SECT":" ","MAREA":" ","LANE":"２１２巷","ALLEY":"１３弄","HOUSE_NO":"５號","E_COORD97":172110.59,"N_COORD97":2545973.1200000001,"ADDRESS":"南工街２１２巷１３弄５號","OBJECTID":216006},"geometry":{"x":172110.59000000078,"y":2545973.120000001}},{"attributes":{"ID":216008,"DIS_CODE":0,"TOWNNAME":"仁德區","LI":"後壁里","LIN":"37鄰","STREET":"德洋一街","SECT":" ","MAREA":" ","LANE":" ","ALLEY":" ","HOUSE_NO":"８７之１號","E_COORD97":173198.63,"N_COORD97":2539277.0499999998,"ADDRESS":"德洋一街８７之１號","OBJECTID":216007},"geometry":{"x":173198.63000000082,"y":2539277.0500000007}},{"attributes":{"ID":216009,"DIS_CODE":0,"TOWNNAME":"永康區","LI":"中華里","LIN":"19鄰","STREET":"小東路","SECT":" ","MAREA":" ","LANE":"４７７巷","ALLEY":"４６弄","HOUSE_NO":"１號之５","E_COORD97":171657.26999999999,"N_COORD97":2544537.0499999998,"ADDRESS":"小東路４７７巷４６弄１號之５","OBJECTID":216008},"geometry":{"x":171657.27000000142,"y":2544537.0500000026}},{"attributes":{"ID":216010,"DIS_CODE":0,"TOWNNAME":"永康區","LI":"北灣里","LIN":"37鄰","STREET":"大同街","SECT":" ","MAREA":" ","LANE":" ","ALLEY":" ","HOUSE_NO":"６０２號","E_COORD97":174728.42999999999,"N_COORD97":2546186.3399999999,"ADDRESS":"大同街６０２號","OBJECTID":216009},"geometry":{"x":174728.43000000063,"y":2546186.3400000017}},{"attributes":{"ID":216011,"DIS_CODE":0,"TOWNNAME":"永康區","LI":"二王里","LIN":"45鄰","STREET":"南工街","SECT":" ","MAREA":" ","LANE":"２１２巷","ALLEY":"１３弄","HOUSE_NO":"７號","E_COORD97":172111.07999999999,"N_COORD97":2545977.6200000001,"ADDRESS":"南工街２１２巷１３弄７號","OBJECTID":216010},"geometry":{"x":172111.08000000007,"y":2545977.6200000048}},{"attributes":{"ID":216012,"DIS_CODE":0,"TOWNNAME":"佳里區","LI":"安西里","LIN":"37鄰","STREET":"光明街","SECT":" ","MAREA":" ","LANE":" ","ALLEY":" ","HOUSE_NO":"８６號","E_COORD97":165003.14000000001,"N_COORD97":2562956.4100000001,"ADDRESS":"光明街８６號","OBJECTID":216011},"geometry":{"x":165003.14000000153,"y":2562956.4100000001}},{"attributes":{"ID":216013,"DIS_CODE":0,"TOWNNAME":"東區","LI":"文聖里","LIN":"14鄰","STREET":"裕興街","SECT":" ","MAREA":" ","LANE":" ","ALLEY":" ","HOUSE_NO":"２３７號","E_COORD97":172428.26999999999,"N_COORD97":2542657.3799999999,"ADDRESS":"裕興街２３７號","OBJECTID":216012},"geometry":{"x":172428.26999999955,"y":2542657.3799999971}},{"attributes":{"ID":216014,"DIS_CODE":0,"TOWNNAME":"東區","LI":"文聖里","LIN":"8鄰","STREET":"裕興街","SECT":" ","MAREA":" ","LANE":" ","ALLEY":" ","HOUSE_NO":"３２號","E_COORD97":171991.14000000001,"N_COORD97":2542645.7999999998,"ADDRESS":"裕興街３２號","OBJECTID":216013},"geometry":{"x":171991.1400000006,"y":2542645.8000000007}},{"attributes":{"ID":216015,"DIS_CODE":0,"TOWNNAME":"永康區","LI":"二王里","LIN":"45鄰","STREET":"南工街","SECT":" ","MAREA":" ","LANE":"２１２巷","ALLEY":"１３弄","HOUSE_NO":"１４號","E_COORD97":172148.04999999999,"N_COORD97":2545974.5600000001,"ADDRESS":"南工街２１２巷１３弄１４號","OBJECTID":216014},"geometry":{"x":172148.05000000075,"y":2545974.5600000024}},{"attributes":{"ID":216016,"DIS_CODE":0,"TOWNNAME":"關廟區","LI":"新埔里","LIN":"9鄰","STREET":"新埔二街","SECT":" ","MAREA":" ","LANE":"７２巷","ALLEY":" ","HOUSE_NO":"９６號","E_COORD97":181809.88013999999,"N_COORD97":2541525.6933599999,"ADDRESS":"新埔二街７２巷９６號","OBJECTID":216015},"geometry":{"x":181809.88014000002,"y":2541525.6933570001}},{"attributes":{"ID":216017,"DIS_CODE":0,"TOWNNAME":"後壁區","LI":"嘉田里","LIN":"2鄰","STREET":" ","SECT":" ","MAREA":"上茄苳","LANE":" ","ALLEY":" ","HOUSE_NO":"１８號之１１","E_COORD97":186828.25,"N_COORD97":2587427.25,"ADDRESS":"上茄苳１８號之１１","OBJECTID":216016},"geometry":{"x":186828.25000000186,"y":2587427.2500000019}},{"attributes":{"ID":216018,"DIS_CODE":0,"TOWNNAME":"後壁區","LI":"嘉田里","LIN":"2鄰","STREET":" ","SECT":" ","MAREA":"上茄苳","LANE":" ","ALLEY":" ","HOUSE_NO":"１８號之１２","E_COORD97":186830.97,"N_COORD97":2587431.8399999999,"ADDRESS":"上茄苳１８號之１２","OBJECTID":216017},"geometry":{"x":186830.96999999974,"y":2587431.8399999999}},{"attributes":{"ID":216019,"DIS_CODE":0,"TOWNNAME":"後壁區","LI":"嘉田里","LIN":"2鄰","STREET":" ","SECT":" ","MAREA":"上茄苳","LANE":" ","ALLEY":" ","HOUSE_NO":"１８號之１３","E_COORD97":186833.39999999999,"N_COORD97":2587436.3399999999,"ADDRESS":"上茄苳１８號之１３","OBJECTID":216018},"geometry":{"x":186833.4000000013,"y":2587436.3400000017}},{"attributes":{"ID":216020,"DIS_CODE":0,"TOWNNAME":"後壁區","LI":"嘉田里","LIN":"2鄰","STREET":" ","SECT":" ","MAREA":"上茄苳","LANE":" ","ALLEY":" ","HOUSE_NO":"１８號之１","E_COORD97":186803.48000000001,"N_COORD97":2587394.3199999998,"ADDRESS":"上茄苳１８號之１","OBJECTID":216019},"geometry":{"x":186803.48000000231,"y":2587394.3200000003}},{"attributes":{"ID":216021,"DIS_CODE":0,"TOWNNAME":"後壁區","LI":"嘉田里","LIN":"2鄰","STREET":" ","SECT":" ","MAREA":"上茄苳","LANE":" ","ALLEY":" ","HOUSE_NO":"１８號之６","E_COORD97":186810.04999999999,"N_COORD97":2587411.5099999998,"ADDRESS":"上茄苳１８號之６","OBJECTID":216020},"geometry":{"x":186810.04999999981,"y":2587411.5100000016}},{"attributes":{"ID":216022,"DIS_CODE":0,"TOWNNAME":"後壁區","LI":"嘉田里","LIN":"2鄰","STREET":" ","SECT":" ","MAREA":"上茄苳","LANE":" ","ALLEY":" ","HOUSE_NO":"１８號之７","E_COORD97":186816.76000000001,"N_COORD97":2587413.9399999999,"ADDRESS":"上茄苳１８號之７","OBJECTID":216021},"geometry":{"x":186816.76000000071,"y":2587413.9399999976}},{"attributes":{"ID":216023,"DIS_CODE":0,"TOWNNAME":"後壁區","LI":"嘉田里","LIN":"2鄰","STREET":" ","SECT":" ","MAREA":"上茄苳","LANE":" ","ALLEY":" ","HOUSE_NO":"１８號之８","E_COORD97":186819.51999999999,"N_COORD97":2587417.5,"ADDRESS":"上茄苳１８號之８","OBJECTID":216022},"geometry":{"x":186819.52000000048,"y":2587417.4999999981}},{"attributes":{"ID":216024,"DIS_CODE":0,"TOWNNAME":"後壁區","LI":"嘉田里","LIN":"2鄰","STREET":" ","SECT":" ","MAREA":"上茄苳","LANE":" ","ALLEY":" ","HOUSE_NO":"１８號之９","E_COORD97":186822.38,"N_COORD97":2587420.5699999998,"ADDRESS":"上茄苳１８號之９","OBJECTID":216023},"geometry":{"x":186822.38000000082,"y":2587420.5700000003}},{"attributes":{"ID":216025,"DIS_CODE":0,"TOWNNAME":"永康區","LI":"永康里","LIN":"37鄰","STREET":"永平街","SECT":" ","MAREA":" ","LANE":" ","ALLEY":" ","HOUSE_NO":"１２６號","E_COORD97":174521.07999999999,"N_COORD97":2546892.9500000002,"ADDRESS":"永平街１２６號","OBJECTID":216024},"geometry":{"x":174521.08000000101,"y":2546892.9500000011}},{"attributes":{"ID":216026,"DIS_CODE":0,"TOWNNAME":"永康區","LI":"永康里","LIN":"37鄰","STREET":"大同街","SECT":" ","MAREA":" ","LANE":" ","ALLEY":" ","HOUSE_NO":"８３２號","E_COORD97":174481.94,"N_COORD97":2546873.3399999999,"ADDRESS":"大同街８３２號","OBJECTID":216025},"geometry":{"x":174481.94000000134,"y":2546873.3400000036}},{"attributes":{"ID":216027,"DIS_CODE":0,"TOWNNAME":"永康區","LI":"二王里","LIN":"45鄰","STREET":"南工街","SECT":" ","MAREA":" ","LANE":"２１２巷","ALLEY":"１３弄","HOUSE_NO":"１２號","E_COORD97":172144.06,"N_COORD97":2545975.0600000001,"ADDRESS":"南工街２１２巷１３弄１２號","OBJECTID":216026},"geometry":{"x":172144.06000000052,"y":2545975.0600000024}},{"attributes":{"ID":216028,"DIS_CODE":0,"TOWNNAME":"永康區","LI":"二王里","LIN":"45鄰","STREET":"南工街","SECT":" ","MAREA":" ","LANE":"２１２巷","ALLEY":"１３弄","HOUSE_NO":"１號","E_COORD97":172109.57999999999,"N_COORD97":2545964.3700000001,"ADDRESS":"南工街２１２巷１３弄１號","OBJECTID":216027},"geometry":{"x":172109.58000000007,"y":2545964.370000001}},{"attributes":{"ID":216029,"DIS_CODE":0,"TOWNNAME":"永康區","LI":"西灣里","LIN":"37鄰","STREET":"國光七街","SECT":" ","MAREA":" ","LANE":" ","ALLEY":" ","HOUSE_NO":"５２之１號","E_COORD97":174163.17000000001,"N_COORD97":2545536.54,"ADDRESS":"國光七街５２之１號","OBJECTID":216028},"geometry":{"x":174163.16999999993,"y":2545536.540000001}},{"attributes":{"ID":216030,"DIS_CODE":0,"TOWNNAME":"永康區","LI":"南灣里","LIN":"37鄰","STREET":"南灣街","SECT":" ","MAREA":" ","LANE":" ","ALLEY":" ","HOUSE_NO":"１１２號","E_COORD97":174365.39999999999,"N_COORD97":2544985.9900000002,"ADDRESS":"南灣街１１２號","OBJECTID":216029},"geometry":{"x":174365.40000000037,"y":2544985.9900000002}},{"attributes":{"ID":216031,"DIS_CODE":0,"TOWNNAME":"永康區","LI":"二王里","LIN":"45鄰","STREET":"南工街","SECT":" ","MAREA":" ","LANE":"２１２巷","ALLEY":"１３弄","HOUSE_NO":"１１號","E_COORD97":172113.39000000001,"N_COORD97":2545986.6200000001,"ADDRESS":"南工街２１２巷１３弄１１號","OBJECTID":216030},"geometry":{"x":172113.3900000006,"y":2545986.620000001}},{"attributes":{"ID":216032,"DIS_CODE":0,"TOWNNAME":"永康區","LI":"西灣里","LIN":"37鄰","STREET":"永華路","SECT":" ","MAREA":" ","LANE":" ","ALLEY":" ","HOUSE_NO":"３２２號","E_COORD97":174098.82000000001,"N_COORD97":2545686.1299999999,"ADDRESS":"永華路３２２號","OBJECTID":216031},"geometry":{"x":174098.82000000216,"y":2545686.129999999}},{"attributes":{"ID":216033,"DIS_CODE":0,"TOWNNAME":"仁德區","LI":"太子里","LIN":"45鄰","STREET":"太子一街","SECT":" ","MAREA":" ","LANE":"２７巷","ALLEY":"１６弄","HOUSE_NO":"３號","E_COORD97":174864.92999999999,"N_COORD97":2543315.5099999998,"ADDRESS":"太子一街２７巷１６弄３號","OBJECTID":216032},"geometry":{"x":174864.9299999997,"y":2543315.5100000035}},{"attributes":{"ID":216034,"DIS_CODE":0,"TOWNNAME":"仁德區","LI":"仁義里","LIN":"45鄰","STREET":"仁義路","SECT":" ","MAREA":" ","LANE":"９８巷","ALLEY":"１４弄","HOUSE_NO":"１３號","E_COORD97":173573.14000000001,"N_COORD97":2540901.7599999998,"ADDRESS":"仁義路９８巷１４弄１３號","OBJECTID":216033},"geometry":{"x":173573.13999999966,"y":2540901.7599999998}},{"attributes":{"ID":216035,"DIS_CODE":0,"TOWNNAME":"永康區","LI":"永康里","LIN":"37鄰","STREET":"大同街","SECT":" ","MAREA":" ","LANE":" ","ALLEY":" ","HOUSE_NO":"７８８號","E_COORD97":174505.79999999999,"N_COORD97":2546787.6699999999,"ADDRESS":"大同街７８８號","OBJECTID":216034},"geometry":{"x":174505.80000000075,"y":2546787.6700000018}},{"attributes":{"ID":216036,"DIS_CODE":0,"TOWNNAME":"仁德區","LI":"仁義里","LIN":"45鄰","STREET":"仁義路","SECT":" ","MAREA":" ","LANE":"９８巷","ALLEY":"１４弄","HOUSE_NO":"３號","E_COORD97":173594.22,"N_COORD97":2540904.5099999998,"ADDRESS":"仁義路９８巷１４弄３號","OBJECTID":216035},"geometry":{"x":173594.22000000067,"y":2540904.5099999998}},{"attributes":{"ID":216037,"DIS_CODE":0,"TOWNNAME":"永康區","LI":"北灣里","LIN":"37鄰","STREET":"大同街","SECT":" ","MAREA":" ","LANE":" ","ALLEY":" ","HOUSE_NO":"３５０號","E_COORD97":174775.66,"N_COORD97":2546057.23,"ADDRESS":"大同街３５０號","OBJECTID":216036},"geometry":{"x":174775.66000000015,"y":2546057.2299999986}},{"attributes":{"ID":216038,"DIS_CODE":0,"TOWNNAME":"仁德區","LI":"仁義里","LIN":"45鄰","STREET":"仁義路","SECT":" ","MAREA":" ","LANE":"９８巷","ALLEY":"１４弄","HOUSE_NO":"９號","E_COORD97":173580.92000000001,"N_COORD97":2540903.0099999998,"ADDRESS":"仁義路９８巷１４弄９號","OBJECTID":216037},"geometry":{"x":173580.92000000086,"y":2540903.0100000016}},{"attributes":{"ID":216039,"DIS_CODE":0,"TOWNNAME":"仁德區","LI":"仁義里","LIN":"45鄰","STREET":"仁義路","SECT":" ","MAREA":" ","LANE":"９８巷","ALLEY":"１４弄","HOUSE_NO":"１號","E_COORD97":173598.5,"N_COORD97":2540905.0099999998,"ADDRESS":"仁義路９８巷１４弄１號","OBJECTID":216038},"geometry":{"x":173598.5,"y":2540905.0100000035}},{"attributes":{"ID":216040,"DIS_CODE":0,"TOWNNAME":"仁德區","LI":"仁義里","LIN":"45鄰","STREET":"仁義路","SECT":" ","MAREA":" ","LANE":"９８巷","ALLEY":"１４弄","HOUSE_NO":"７號","E_COORD97":173585.14999999999,"N_COORD97":2540904.0099999998,"ADDRESS":"仁義路９８巷１４弄７號","OBJECTID":216039},"geometry":{"x":173585.1500000013,"y":2540904.0099999998}},{"attributes":{"ID":216041,"DIS_CODE":0,"TOWNNAME":"永康區","LI":"二王里","LIN":"45鄰","STREET":"南工街","SECT":" ","MAREA":" ","LANE":"２１２巷","ALLEY":"１３弄","HOUSE_NO":"３號","E_COORD97":172110.10000000001,"N_COORD97":2545969.1200000001,"ADDRESS":"南工街２１２巷１３弄３號","OBJECTID":216040},"geometry":{"x":172110.10000000056,"y":2545969.120000001}},{"attributes":{"ID":216042,"DIS_CODE":0,"TOWNNAME":"永康區","LI":"二王里","LIN":"45鄰","STREET":"南工街","SECT":" ","MAREA":" ","LANE":"２１２巷","ALLEY":"１３弄","HOUSE_NO":"８號","E_COORD97":172123.57999999999,"N_COORD97":2545973.46,"ADDRESS":"南工街２１２巷１３弄８號","OBJECTID":216041},"geometry":{"x":172123.58000000194,"y":2545973.4600000009}},{"attributes":{"ID":216043,"DIS_CODE":0,"TOWNNAME":"永康區","LI":"南灣里","LIN":" ","STREET":"大灣路","SECT":" ","MAREA":" ","LANE":"５３７巷","ALLEY":"１６弄","HOUSE_NO":"２４號","E_COORD97":174438.98000000001,"N_COORD97":2544421.1699999999,"ADDRESS":"大灣路５３７巷１６弄２４號","OBJECTID":216042},"geometry":{"x":174438.98000000138,"y":2544421.1700000018}},{"attributes":{"ID":216044,"DIS_CODE":0,"TOWNNAME":"永康區","LI":"二王里","LIN":"45鄰","STREET":"南工街","SECT":" ","MAREA":" ","LANE":"２１２巷","ALLEY":"１３弄","HOUSE_NO":"２６號","E_COORD97":172144.42000000001,"N_COORD97":2545985.3399999999,"ADDRESS":"南工街２１２巷１３弄２６號","OBJECTID":216043},"geometry":{"x":172144.41999999993,"y":2545985.3400000017}},{"attributes":{"ID":216045,"DIS_CODE":0,"TOWNNAME":"永康區","LI":"二王里","LIN":"45鄰","STREET":"南工街","SECT":" ","MAREA":" ","LANE":"２１２巷","ALLEY":"１３弄","HOUSE_NO":"２１號","E_COORD97":172116.14000000001,"N_COORD97":2546009.1299999999,"ADDRESS":"南工街２１２巷１３弄２１號","OBJECTID":216044},"geometry":{"x":172116.14000000153,"y":2546009.1300000027}},{"attributes":{"ID":216046,"DIS_CODE":0,"TOWNNAME":"永康區","LI":"二王里","LIN":"45鄰","STREET":"南工街","SECT":" ","MAREA":" ","LANE":"２１２巷","ALLEY":"１３弄","HOUSE_NO":"１３號","E_COORD97":172114.07999999999,"N_COORD97":2545991.3799999999,"ADDRESS":"南工街２１２巷１３弄１３號","OBJECTID":216045},"geometry":{"x":172114.08000000101,"y":2545991.3800000008}},{"attributes":{"ID":216047,"DIS_CODE":0,"TOWNNAME":"永康區","LI":"龍潭里","LIN":"45鄰","STREET":"中山北路","SECT":" ","MAREA":" ","LANE":"２６４巷","ALLEY":"２８６弄","HOUSE_NO":"１５號之１","E_COORD97":174615.42000000001,"N_COORD97":2546876.1099999999,"ADDRESS":"中山北路２６４巷２８６弄１５號之１","OBJECTID":216046},"geometry":{"x":174615.42000000086,"y":2546876.1099999994}},{"attributes":{"ID":216048,"DIS_CODE":0,"TOWNNAME":"永康區","LI":"龍潭里","LIN":"45鄰","STREET":"中山北路","SECT":" ","MAREA":" ","LANE":"２６４巷","ALLEY":"２５０弄","HOUSE_NO":"３號","E_COORD97":174709.37,"N_COORD97":2546987.0899999999,"ADDRESS":"中山北路２６４巷２５０弄３號","OBJECTID":216047},"geometry":{"x":174709.37000000104,"y":2546987.0900000017}},{"attributes":{"ID":216049,"DIS_CODE":0,"TOWNNAME":"永康區","LI":"\u25A0行里","LIN":"45鄰","STREET":"中正路","SECT":" ","MAREA":" ","LANE":"６３５巷","ALLEY":"１５弄","HOUSE_NO":"４號","E_COORD97":171746.19,"N_COORD97":2548876.48,"ADDRESS":"中正路６３５巷１５弄４號","OBJECTID":216048},"geometry":{"x":171746.19000000041,"y":2548876.4800000042}},{"attributes":{"ID":216050,"DIS_CODE":0,"TOWNNAME":"永康區","LI":"永康里","LIN":"37鄰","STREET":"大同街","SECT":" ","MAREA":" ","LANE":" ","ALLEY":" ","HOUSE_NO":"７８２號","E_COORD97":174507.69,"N_COORD97":2546779.9199999999,"ADDRESS":"大同街７８２號","OBJECTID":216049},"geometry":{"x":174507.69000000041,"y":2546779.9199999999}},{"attributes":{"ID":216051,"DIS_CODE":0,"TOWNNAME":"後壁區","LI":"嘉田里","LIN":"2鄰","STREET":" ","SECT":" ","MAREA":"上茄苳","LANE":" ","ALLEY":" ","HOUSE_NO":"１８號","E_COORD97":186787,"N_COORD97":2587366.6899999999,"ADDRESS":"上茄苳１８號","OBJECTID":216050},"geometry":{"x":186787,"y":2587366.6900000013}},{"attributes":{"ID":216052,"DIS_CODE":0,"TOWNNAME":"後壁區","LI":"嘉田里","LIN":"2鄰","STREET":" ","SECT":" ","MAREA":"上茄苳","LANE":" ","ALLEY":" ","HOUSE_NO":"１９號之１","E_COORD97":186816.39000000001,"N_COORD97":2587366.5299999998,"ADDRESS":"上茄苳１９號之１","OBJECTID":216051},"geometry":{"x":186816.38999999966,"y":2587366.5300000012}},{"attributes":{"ID":216053,"DIS_CODE":0,"TOWNNAME":"後壁區","LI":"嘉田里","LIN":"2鄰","STREET":" ","SECT":" ","MAREA":"上茄苳","LANE":" ","ALLEY":" ","HOUSE_NO":"１９號之２","E_COORD97":186822.41,"N_COORD97":2587340.2200000002,"ADDRESS":"上茄苳１９號之２","OBJECTID":216052},"geometry":{"x":186822.41000000108,"y":2587340.2200000025}},{"attributes":{"ID":216054,"DIS_CODE":0,"TOWNNAME":"後壁區","LI":"嘉田里","LIN":"2鄰","STREET":" ","SECT":" ","MAREA":"上茄苳","LANE":" ","ALLEY":" ","HOUSE_NO":"１９號之３","E_COORD97":186808.42000000001,"N_COORD97":2587337.6899999999,"ADDRESS":"上茄苳１９號之３","OBJECTID":216053},"geometry":{"x":186808.42000000179,"y":2587337.6899999976}},{"attributes":{"ID":216055,"DIS_CODE":0,"TOWNNAME":"後壁區","LI":"嘉田里","LIN":"2鄰","STREET":" ","SECT":" ","MAREA":"上茄苳","LANE":" ","ALLEY":" ","HOUSE_NO":"１９號","E_COORD97":186802.04000000001,"N_COORD97":2587360.96,"ADDRESS":"上茄苳１９號","OBJECTID":216054},"geometry":{"x":186802.04000000004,"y":2587360.9600000009}},{"attributes":{"ID":216056,"DIS_CODE":0,"TOWNNAME":"後壁區","LI":"嘉田里","LIN":"2鄰","STREET":" ","SECT":" ","MAREA":"上茄苳","LANE":" ","ALLEY":" ","HOUSE_NO":"２０號之１","E_COORD97":186776.82999999999,"N_COORD97":2587348.5899999999,"ADDRESS":"上茄苳２０號之１","OBJECTID":216055},"geometry":{"x":186776.83000000194,"y":2587348.5899999999}},{"attributes":{"ID":216057,"DIS_CODE":0,"TOWNNAME":"後壁區","LI":"嘉田里","LIN":"2鄰","STREET":" ","SECT":" ","MAREA":"上茄苳","LANE":" ","ALLEY":" ","HOUSE_NO":"２０號之３","E_COORD97":186761.07000000001,"N_COORD97":2587357.5099999998,"ADDRESS":"上茄苳２０號之３","OBJECTID":216056},"geometry":{"x":186761.0700000003,"y":2587357.5100000016}},{"attributes":{"ID":216058,"DIS_CODE":0,"TOWNNAME":"仁德區","LI":"成功里","LIN":"45鄰","STREET":"文賢路","SECT":"一段","MAREA":" ","LANE":"８１巷","ALLEY":"１３弄","HOUSE_NO":"１０號","E_COORD97":170291.85000000001,"N_COORD97":2538253.8300000001,"ADDRESS":"文賢路一段８１巷１３弄１０號","OBJECTID":216057},"geometry":{"x":170291.84999999963,"y":2538253.8300000001}},{"attributes":{"ID":216059,"DIS_CODE":0,"TOWNNAME":"永康區","LI":"永康里","LIN":"37鄰","STREET":"西勢路","SECT":" ","MAREA":" ","LANE":" ","ALLEY":" ","HOUSE_NO":"７４２號","E_COORD97":174542.39000000001,"N_COORD97":2546754.9199999999,"ADDRESS":"西勢路７４２號","OBJECTID":216058},"geometry":{"x":174542.3900000006,"y":2546754.9200000018}},{"attributes":{"ID":216060,"DIS_CODE":0,"TOWNNAME":"仁德區","LI":"後壁里","LIN":"37鄰","STREET":"民安路","SECT":"一段","MAREA":" ","LANE":" ","ALLEY":" ","HOUSE_NO":"４２２號","E_COORD97":173218.16,"N_COORD97":2539315.8100000001,"ADDRESS":"民安路一段４２２號","OBJECTID":216059},"geometry":{"x":173218.15999999922,"y":2539315.8100000005}},{"attributes":{"ID":216061,"DIS_CODE":0,"TOWNNAME":"永康區","LI":"龍潭里","LIN":"45鄰","STREET":"中山北路","SECT":" ","MAREA":" ","LANE":"２６４巷","ALLEY":"３１０弄","HOUSE_NO":"６號","E_COORD97":174680.31,"N_COORD97":2546839.2799999998,"ADDRESS":"中山北路２６４巷３１０弄６號","OBJECTID":216060},"geometry":{"x":174680.31000000052,"y":2546839.2800000031}},{"attributes":{"ID":216062,"DIS_CODE":0,"TOWNNAME":"仁德區","LI":"後壁里","LIN":"37鄰","STREET":"民安路","SECT":"一段","MAREA":" ","LANE":" ","ALLEY":" ","HOUSE_NO":"４０６號","E_COORD97":173183.13,"N_COORD97":2539334.8100000001,"ADDRESS":"民安路一段４０６號","OBJECTID":216061},"geometry":{"x":173183.13000000082,"y":2539334.8100000024}},{"attributes":{"ID":216063,"DIS_CODE":0,"TOWNNAME":"永康區","LI":"龍潭里","LIN":"45鄰","STREET":"中山北路","SECT":" ","MAREA":" ","LANE":"２６４巷","ALLEY":"３１０弄","HOUSE_NO":"８號","E_COORD97":174675.79999999999,"N_COORD97":2546843.8500000001,"ADDRESS":"中山北路２６４巷３１０弄８號","OBJECTID":216062},"geometry":{"x":174675.79999999981,"y":2546843.8500000015}},{"attributes":{"ID":216064,"DIS_CODE":0,"TOWNNAME":"永康區","LI":"龍潭里","LIN":"45鄰","STREET":"中山北路","SECT":" ","MAREA":" ","LANE":"２６４巷","ALLEY":"３１０弄","HOUSE_NO":"１０號","E_COORD97":174671.76000000001,"N_COORD97":2546843.75,"ADDRESS":"中山北路２６４巷３１０弄１０號","OBJECTID":216063},"geometry":{"x":174671.76000000164,"y":2546843.7500000019}},{"attributes":{"ID":216065,"DIS_CODE":0,"TOWNNAME":"後壁區","LI":"嘉田里","LIN":"2鄰","STREET":" ","SECT":" ","MAREA":"上茄苳","LANE":" ","ALLEY":" ","HOUSE_NO":"２０號之４","E_COORD97":186758.5,"N_COORD97":2587353.8999999999,"ADDRESS":"上茄苳２０號之４","OBJECTID":216064},"geometry":{"x":186758.5,"y":2587353.9000000004}},{"attributes":{"ID":216066,"DIS_CODE":0,"TOWNNAME":"永康區","LI":"龍潭里","LIN":"45鄰","STREET":"中山北路","SECT":" ","MAREA":" ","LANE":"２６４巷","ALLEY":"３１０弄","HOUSE_NO":"１２號","E_COORD97":174667.72,"N_COORD97":2546843.6499999999,"ADDRESS":"中山北路２６４巷３１０弄１２號","OBJECTID":216065},"geometry":{"x":174667.71999999974,"y":2546843.6500000004}},{"attributes":{"ID":216067,"DIS_CODE":0,"TOWNNAME":"後壁區","LI":"嘉田里","LIN":"2鄰","STREET":" ","SECT":" ","MAREA":"上茄苳","LANE":" ","ALLEY":" ","HOUSE_NO":"２０號","E_COORD97":186845.20000000001,"N_COORD97":2587414.5099999998,"ADDRESS":"上茄苳２０號","OBJECTID":216066},"geometry":{"x":186845.20000000019,"y":2587414.5100000016}},{"attributes":{"ID":216068,"DIS_CODE":0,"TOWNNAME":"後壁區","LI":"土溝里","LIN":"2鄰","STREET":" ","SECT":" ","MAREA":"土溝","LANE":" ","ALLEY":" ","HOUSE_NO":"１７號之２","E_COORD97":186793.47,"N_COORD97":2585717.2000000002,"ADDRESS":"土溝１７號之２","OBJECTID":216067},"geometry":{"x":186793.46999999974,"y":2585717.200000003}},{"attributes":{"ID":216069,"DIS_CODE":0,"TOWNNAME":"後壁區","LI":"土溝里","LIN":"2鄰","STREET":" ","SECT":" ","MAREA":"土溝","LANE":" ","ALLEY":" ","HOUSE_NO":"１７號","E_COORD97":186759.48000000001,"N_COORD97":2585723.6600000001,"ADDRESS":"土溝１７號","OBJECTID":216068},"geometry":{"x":186759.48000000138,"y":2585723.6600000001}},{"attributes":{"ID":216070,"DIS_CODE":0,"TOWNNAME":"永康區","LI":"龍潭里","LIN":"45鄰","STREET":"中山北路","SECT":" ","MAREA":" ","LANE":"２６４巷","ALLEY":"３１０弄","HOUSE_NO":"１６號","E_COORD97":174663.67999999999,"N_COORD97":2546843.5499999998,"ADDRESS":"中山北路２６４巷３１０弄１６號","OBJECTID":216069},"geometry":{"x":174663.68000000156,"y":2546843.5500000026}},{"attributes":{"ID":216071,"DIS_CODE":0,"TOWNNAME":"後壁區","LI":"土溝里","LIN":"2鄰","STREET":" ","SECT":" ","MAREA":"土溝","LANE":" ","ALLEY":" ","HOUSE_NO":"１８號之３","E_COORD97":186809.10000000001,"N_COORD97":2585730.29,"ADDRESS":"土溝１８號之３","OBJECTID":216070},"geometry":{"x":186809.10000000056,"y":2585730.290000001}},{"attributes":{"ID":216072,"DIS_CODE":0,"TOWNNAME":"後壁區","LI":"土溝里","LIN":"2鄰","STREET":" ","SECT":" ","MAREA":"土溝","LANE":" ","ALLEY":" ","HOUSE_NO":"１８號","E_COORD97":186799.91,"N_COORD97":2585740.5099999998,"ADDRESS":"土溝１８號","OBJECTID":216071},"geometry":{"x":186799.91000000015,"y":2585740.5100000016}},{"attributes":{"ID":216073,"DIS_CODE":0,"TOWNNAME":"後壁區","LI":"土溝里","LIN":"2鄰","STREET":" ","SECT":" ","MAREA":"土溝","LANE":" ","ALLEY":" ","HOUSE_NO":"１９號之５","E_COORD97":186827.04000000001,"N_COORD97":2585722.3900000001,"ADDRESS":"土溝１９號之５","OBJECTID":216072},"geometry":{"x":186827.04000000097,"y":2585722.3900000006}},{"attributes":{"ID":216074,"DIS_CODE":0,"TOWNNAME":"永康區","LI":"龍潭里","LIN":"45鄰","STREET":"中山北路","SECT":" ","MAREA":" ","LANE":"２６４巷","ALLEY":"３１０弄","HOUSE_NO":"１８號","E_COORD97":174658.98000000001,"N_COORD97":2546842.8399999999,"ADDRESS":"中山北路２６４巷３１０弄１８號","OBJECTID":216073},"geometry":{"x":174658.98000000231,"y":2546842.8400000036}},{"attributes":{"ID":216075,"DIS_CODE":0,"TOWNNAME":"後壁區","LI":"土溝里","LIN":"2鄰","STREET":" ","SECT":" ","MAREA":"土溝","LANE":" ","ALLEY":" ","HOUSE_NO":"１９號之６","E_COORD97":186834.07000000001,"N_COORD97":2585719.79,"ADDRESS":"土溝１９號之６","OBJECTID":216074},"geometry":{"x":186834.0700000003,"y":2585719.7900000028}},{"attributes":{"ID":216076,"DIS_CODE":0,"TOWNNAME":"永康區","LI":"中華里","LIN":"19鄰","STREET":"小東路","SECT":" ","MAREA":" ","LANE":"４７７巷","ALLEY":"４６弄","HOUSE_NO":"５號之１５","E_COORD97":171654.47,"N_COORD97":2544535.6600000001,"ADDRESS":"小東路４７７巷４６弄５號之１５","OBJECTID":216075},"geometry":{"x":171654.4700000016,"y":2544535.660000002}},{"attributes":{"ID":216077,"DIS_CODE":0,"TOWNNAME":"永康區","LI":"中華里","LIN":"19鄰","STREET":"小東路","SECT":" ","MAREA":" ","LANE":"４７７巷","ALLEY":"４６弄","HOUSE_NO":"５號之１４","E_COORD97":171654.34,"N_COORD97":2544535.6600000001,"ADDRESS":"小東路４７７巷４６弄５號之１４","OBJECTID":216076},"geometry":{"x":171654.34000000078,"y":2544535.660000002}},{"attributes":{"ID":216078,"DIS_CODE":0,"TOWNNAME":"永康區","LI":"龍潭里","LIN":"45鄰","STREET":"中山北路","SECT":" ","MAREA":" ","LANE":"２６４巷","ALLEY":"３１０弄","HOUSE_NO":"２０號","E_COORD97":174649.59,"N_COORD97":2546834.0299999998,"ADDRESS":"中山北路２６４巷３１０弄２０號","OBJECTID":216077},"geometry":{"x":174649.59000000078,"y":2546834.0300000031}},{"attributes":{"ID":216079,"DIS_CODE":0,"TOWNNAME":"永康區","LI":"龍潭里","LIN":"45鄰","STREET":"中山北路","SECT":" ","MAREA":" ","LANE":"２６４巷","ALLEY":"３１０弄","HOUSE_NO":"２２號","E_COORD97":174648.64000000001,"N_COORD97":2546841.1699999999,"ADDRESS":"中山北路２６４巷３１０弄２２號","OBJECTID":216078},"geometry":{"x":174648.64000000153,"y":2546841.1700000018}},{"attributes":{"ID":216080,"DIS_CODE":0,"TOWNNAME":"永康區","LI":"龍潭里","LIN":"45鄰","STREET":"中山北路","SECT":" ","MAREA":" ","LANE":"２６４巷","ALLEY":"３１０弄","HOUSE_NO":"２６號","E_COORD97":174647.01999999999,"N_COORD97":2546845.6699999999,"ADDRESS":"中山北路２６４巷３１０弄２６號","OBJECTID":216079},"geometry":{"x":174647.01999999955,"y":2546845.6699999999}},{"attributes":{"ID":216081,"DIS_CODE":0,"TOWNNAME":"永康區","LI":"龍潭里","LIN":"45鄰","STREET":"中山北路","SECT":" ","MAREA":" ","LANE":"２６４巷","ALLEY":"３１０弄","HOUSE_NO":"２８號","E_COORD97":174646.04999999999,"N_COORD97":2546848.9199999999,"ADDRESS":"中山北路２６４巷３１０弄２８號","OBJECTID":216080},"geometry":{"x":174646.05000000168,"y":2546848.9200000037}},{"attributes":{"ID":216082,"DIS_CODE":0,"TOWNNAME":"永康區","LI":"龍潭里","LIN":"45鄰","STREET":"中山北路","SECT":" ","MAREA":" ","LANE":"２６４巷","ALLEY":"３１０弄","HOUSE_NO":"１號","E_COORD97":174680.75,"N_COORD97":2546818.52,"ADDRESS":"中山北路２６４巷３１０弄１號","OBJECTID":216081},"geometry":{"x":174680.75000000093,"y":2546818.5200000014}},{"attributes":{"ID":216083,"DIS_CODE":0,"TOWNNAME":"永康區","LI":"龍潭里","LIN":"45鄰","STREET":"中山北路","SECT":" ","MAREA":" ","LANE":"２６４巷","ALLEY":"３１０弄","HOUSE_NO":"３號","E_COORD97":174672.29000000001,"N_COORD97":2546813.75,"ADDRESS":"中山北路２６４巷３１０弄３號","OBJECTID":216082},"geometry":{"x":174672.29000000097,"y":2546813.7500000019}},{"attributes":{"ID":216084,"DIS_CODE":0,"TOWNNAME":"永康區","LI":"龍潭里","LIN":"45鄰","STREET":"中山北路","SECT":" ","MAREA":" ","LANE":"２６４巷","ALLEY":"３１０弄","HOUSE_NO":"５號","E_COORD97":174659.51999999999,"N_COORD97":2546819.6400000001,"ADDRESS":"中山北路２６４巷３１０弄５號","OBJECTID":216083},"geometry":{"x":174659.52000000142,"y":2546819.6400000006}},{"attributes":{"ID":216085,"DIS_CODE":0,"TOWNNAME":"後壁區","LI":"土溝里","LIN":"2鄰","STREET":" ","SECT":" ","MAREA":"土溝","LANE":" ","ALLEY":" ","HOUSE_NO":"２０號之３","E_COORD97":186812.92000000001,"N_COORD97":2585698.2200000002,"ADDRESS":"土溝２０號之３","OBJECTID":216084},"geometry":{"x":186812.91999999993,"y":2585698.2200000044}},{"attributes":{"ID":216086,"DIS_CODE":0,"TOWNNAME":"後壁區","LI":"土溝里","LIN":"2鄰","STREET":" ","SECT":" ","MAREA":"土溝","LANE":" ","ALLEY":" ","HOUSE_NO":"２０號","E_COORD97":186790.66,"N_COORD97":2585693.2000000002,"ADDRESS":"土溝２０號","OBJECTID":216085},"geometry":{"x":186790.66000000108,"y":2585693.200000003}},{"attributes":{"ID":216087,"DIS_CODE":0,"TOWNNAME":"後壁區","LI":"土溝里","LIN":"2鄰","STREET":" ","SECT":" ","MAREA":"土溝","LANE":" ","ALLEY":" ","HOUSE_NO":"２１號之２","E_COORD97":186766.89999999999,"N_COORD97":2585686.6000000001,"ADDRESS":"土溝２１號之２","OBJECTID":216086},"geometry":{"x":186766.9000000013,"y":2585686.5999999996}},{"attributes":{"ID":216088,"DIS_CODE":0,"TOWNNAME":"後壁區","LI":"土溝里","LIN":"2鄰","STREET":" ","SECT":" ","MAREA":"土溝","LANE":" ","ALLEY":" ","HOUSE_NO":"２１號之３","E_COORD97":186761.07000000001,"N_COORD97":2585686.3500000001,"ADDRESS":"土溝２１號之３","OBJECTID":216087},"geometry":{"x":186761.0700000003,"y":2585686.3500000015}},{"attributes":{"ID":216089,"DIS_CODE":0,"TOWNNAME":"永康區","LI":"龍潭里","LIN":"45鄰","STREET":"中山北路","SECT":" ","MAREA":" ","LANE":"２６４巷","ALLEY":"３１０弄","HOUSE_NO":"７號","E_COORD97":174664.62,"N_COORD97":2546810.1899999999,"ADDRESS":"中山北路２６４巷３１０弄７號","OBJECTID":216088},"geometry":{"x":174664.62000000197,"y":2546810.1900000013}},{"attributes":{"ID":216090,"DIS_CODE":0,"TOWNNAME":"永康區","LI":"中華里","LIN":"19鄰","STREET":"小東路","SECT":" ","MAREA":" ","LANE":"４７７巷","ALLEY":"４６弄","HOUSE_NO":"５號之６","E_COORD97":171653.17000000001,"N_COORD97":2544535.6600000001,"ADDRESS":"小東路４７７巷４６弄５號之６","OBJECTID":216089},"geometry":{"x":171653.16999999899,"y":2544535.660000002}},{"attributes":{"ID":216091,"DIS_CODE":0,"TOWNNAME":"永康區","LI":"中華里","LIN":"19鄰","STREET":"小東路","SECT":" ","MAREA":" ","LANE":"４７７巷","ALLEY":"４６弄","HOUSE_NO":"５號之４３","E_COORD97":171654.41,"N_COORD97":2544535.6600000001,"ADDRESS":"小東路４７７巷４６弄５號之４３","OBJECTID":216090},"geometry":{"x":171654.41000000108,"y":2544535.660000002}},{"attributes":{"ID":216092,"DIS_CODE":0,"TOWNNAME":"永康區","LI":"埔園里","LIN":" ","STREET":"八德街","SECT":" ","MAREA":" ","LANE":"３２９巷","ALLEY":"２９弄","HOUSE_NO":"５號","E_COORD97":173632.41,"N_COORD97":2548707.8399999999,"ADDRESS":"八德街３２９巷２９弄５號","OBJECTID":216091},"geometry":{"x":173632.41000000108,"y":2548707.8400000017}},{"attributes":{"ID":216093,"DIS_CODE":0,"TOWNNAME":"永康區","LI":"中華里","LIN":"19鄰","STREET":"小東路","SECT":" ","MAREA":" ","LANE":"４７７巷","ALLEY":"４６弄","HOUSE_NO":"１號之１６","E_COORD97":171658.47,"N_COORD97":2544537.0499999998,"ADDRESS":"小東路４７７巷４６弄１號之１６","OBJECTID":216092},"geometry":{"x":171658.47000000067,"y":2544537.0500000026}},{"attributes":{"ID":216094,"DIS_CODE":0,"TOWNNAME":"永康區","LI":"成功里","LIN":"45鄰","STREET":"中華路","SECT":" ","MAREA":" ","LANE":"１５４巷","ALLEY":"１８弄","HOUSE_NO":"２號六樓之１","E_COORD97":171692.44,"N_COORD97":2544828.46,"ADDRESS":"中華路１５４巷１８弄２號六樓之１","OBJECTID":216093},"geometry":{"x":171692.44000000041,"y":2544828.4600000009}},{"attributes":{"ID":216095,"DIS_CODE":0,"TOWNNAME":"永康區","LI":"成功里","LIN":"45鄰","STREET":"中華路","SECT":" ","MAREA":" ","LANE":"１５４巷","ALLEY":"１８弄","HOUSE_NO":"２號三樓之５","E_COORD97":171692.59,"N_COORD97":2544828.46,"ADDRESS":"中華路１５４巷１８弄２號三樓之５","OBJECTID":216094},"geometry":{"x":171692.58999999985,"y":2544828.4600000009}},{"attributes":{"ID":216096,"DIS_CODE":0,"TOWNNAME":"永康區","LI":"成功里","LIN":"45鄰","STREET":"中華路","SECT":" ","MAREA":" ","LANE":"１５４巷","ALLEY":"１８弄","HOUSE_NO":"２號四樓之３","E_COORD97":171692.54000000001,"N_COORD97":2544828.46,"ADDRESS":"中華路１５４巷１８弄２號四樓之３","OBJECTID":216095},"geometry":{"x":171692.54000000004,"y":2544828.4600000009}},{"attributes":{"ID":216097,"DIS_CODE":0,"TOWNNAME":"永康區","LI":"成功里","LIN":"45鄰","STREET":"中華路","SECT":" ","MAREA":" ","LANE":"１５４巷","ALLEY":"１８弄","HOUSE_NO":"２號七樓之６","E_COORD97":171692.54000000001,"N_COORD97":2544828.46,"ADDRESS":"中華路１５４巷１８弄２號七樓之６","OBJECTID":216096},"geometry":{"x":171692.54000000004,"y":2544828.4600000009}},{"attributes":{"ID":216098,"DIS_CODE":0,"TOWNNAME":"永康區","LI":"成功里","LIN":"45鄰","STREET":"中華路","SECT":" ","MAREA":" ","LANE":"１５４巷","ALLEY":"１８弄","HOUSE_NO":"２號十樓之１","E_COORD97":171692.44,"N_COORD97":2544828.46,"ADDRESS":"中華路１５４巷１８弄２號十樓之１","OBJECTID":216097},"geometry":{"x":171692.44000000041,"y":2544828.4600000009}},{"attributes":{"ID":216099,"DIS_CODE":0,"TOWNNAME":"永康區","LI":"中華里","LIN":"19鄰","STREET":"小東路","SECT":" ","MAREA":" ","LANE":"４７７巷","ALLEY":"４６弄","HOUSE_NO":"１號之１２","E_COORD97":171658.5,"N_COORD97":2544537.0499999998,"ADDRESS":"小東路４７７巷４６弄１號之１２","OBJECTID":216098},"geometry":{"x":171658.50000000093,"y":2544537.0500000026}},{"attributes":{"ID":216100,"DIS_CODE":0,"TOWNNAME":"永康區","LI":"二王里","LIN":"24鄰","STREET":"中山南路","SECT":" ","MAREA":" ","LANE":"５４４巷","ALLEY":"６７弄","HOUSE_NO":"５號","E_COORD97":172354.45000000001,"N_COORD97":2546362.0699999998,"ADDRESS":"中山南路５４４巷６７弄５號","OBJECTID":216099},"geometry":{"x":172354.45000000019,"y":2546362.0700000003}},{"attributes":{"ID":216101,"DIS_CODE":0,"TOWNNAME":"永康區","LI":"二王里","LIN":"35鄰","STREET":"中山南路","SECT":" ","MAREA":" ","LANE":"４９０巷","ALLEY":"２弄","HOUSE_NO":"６７號","E_COORD97":172155.54999999999,"N_COORD97":2546309.73,"ADDRESS":"中山南路４９０巷２弄６７號","OBJECTID":216100},"geometry":{"x":172155.54999999981,"y":2546309.7300000023}},{"attributes":{"ID":216102,"DIS_CODE":0,"TOWNNAME":"永康區","LI":"三合里","LIN":"9鄰","STREET":"南工街","SECT":" ","MAREA":" ","LANE":"２４７巷","ALLEY":"３５弄","HOUSE_NO":"８５號","E_COORD97":172034.29999999999,"N_COORD97":2545653.2400000002,"ADDRESS":"南工街２４７巷３５弄８５號","OBJECTID":216101},"geometry":{"x":172034.30000000075,"y":2545653.2400000002}},{"attributes":{"ID":216103,"DIS_CODE":0,"TOWNNAME":"永康區","LI":"大灣里","LIN":"29鄰","STREET":"民族路","SECT":" ","MAREA":" ","LANE":"１２６巷","ALLEY":"９弄","HOUSE_NO":"１０號","E_COORD97":175319.37,"N_COORD97":2544937.6200000001,"ADDRESS":"民族路１２６巷９弄１０號","OBJECTID":216102},"geometry":{"x":175319.37000000104,"y":2544937.6200000029}},{"attributes":{"ID":216104,"DIS_CODE":0,"TOWNNAME":"永康區","LI":"二王里","LIN":"17鄰","STREET":"忠孝路","SECT":" ","MAREA":" ","LANE":"４１０巷","ALLEY":"７０弄","HOUSE_NO":"３６號","E_COORD97":172645.06,"N_COORD97":2546448.21,"ADDRESS":"忠孝路４１０巷７０弄３６號","OBJECTID":216103},"geometry":{"x":172645.05999999959,"y":2546448.2100000028}},{"attributes":{"ID":216105,"DIS_CODE":0,"TOWNNAME":"永康區","LI":"中興里","LIN":"7鄰","STREET":"中山東路","SECT":" ","MAREA":" ","LANE":"４７２巷","ALLEY":"２弄","HOUSE_NO":"３號","E_COORD97":171926.39999999999,"N_COORD97":2545068.4500000002,"ADDRESS":"中山東路４７２巷２弄３號","OBJECTID":216104},"geometry":{"x":171926.40000000037,"y":2545068.4500000011}},{"attributes":{"ID":216106,"DIS_CODE":0,"TOWNNAME":"永康區","LI":"成功里","LIN":"45鄰","STREET":"中華路","SECT":" ","MAREA":" ","LANE":"１５４巷","ALLEY":"１８弄","HOUSE_NO":"１０號三樓之４","E_COORD97":171701.20999999999,"N_COORD97":2544828.04,"ADDRESS":"中華路１５４巷１８弄１０號三樓之４","OBJECTID":216105},"geometry":{"x":171701.21000000089,"y":2544828.040000001}},{"attributes":{"ID":216107,"DIS_CODE":0,"TOWNNAME":"永康區","LI":"成功里","LIN":"45鄰","STREET":"中華路","SECT":" ","MAREA":" ","LANE":"１５４巷","ALLEY":"１８弄","HOUSE_NO":"１０號十樓之１","E_COORD97":171701.19,"N_COORD97":2544828.04,"ADDRESS":"中華路１５４巷１８弄１０號十樓之１","OBJECTID":216106},"geometry":{"x":171701.19000000227,"y":2544828.040000001}},{"attributes":{"ID":216108,"DIS_CODE":0,"TOWNNAME":"永康區","LI":"成功里","LIN":"45鄰","STREET":"中華路","SECT":" ","MAREA":" ","LANE":"１５４巷","ALLEY":"１８弄","HOUSE_NO":"１０號二樓之２","E_COORD97":171701.32000000001,"N_COORD97":2544828.04,"ADDRESS":"中華路１５４巷１８弄１０號二樓之２","OBJECTID":216107},"geometry":{"x":171701.3200000003,"y":2544828.040000001}},{"attributes":{"ID":216109,"DIS_CODE":0,"TOWNNAME":"永康區","LI":"成功里","LIN":"45鄰","STREET":"中華路","SECT":" ","MAREA":" ","LANE":"１５４巷","ALLEY":"１８弄","HOUSE_NO":"２號五樓之３","E_COORD97":171692.54000000001,"N_COORD97":2544828.46,"ADDRESS":"中華路１５４巷１８弄２號五樓之３","OBJECTID":216108},"geometry":{"x":171692.54000000004,"y":2544828.4600000009}},{"attributes":{"ID":216110,"DIS_CODE":0,"TOWNNAME":"永康區","LI":"成功里","LIN":"45鄰","STREET":"中華路","SECT":" ","MAREA":" ","LANE":"１５４巷","ALLEY":"１８弄","HOUSE_NO":"２號三樓之４","E_COORD97":171692.45999999999,"N_COORD97":2544828.46,"ADDRESS":"中華路１５４巷１８弄２號三樓之４","OBJECTID":216109},"geometry":{"x":171692.46000000089,"y":2544828.4600000009}},{"attributes":{"ID":216111,"DIS_CODE":0,"TOWNNAME":"永康區","LI":"成功里","LIN":"45鄰","STREET":"中華路","SECT":" ","MAREA":" ","LANE":"１５４巷","ALLEY":"１８弄","HOUSE_NO":"２號三樓之３","E_COORD97":171692.54000000001,"N_COORD97":2544828.46,"ADDRESS":"中華路１５４巷１８弄２號三樓之３","OBJECTID":216110},"geometry":{"x":171692.54000000004,"y":2544828.4600000009}},{"attributes":{"ID":216112,"DIS_CODE":0,"TOWNNAME":"永康區","LI":"成功里","LIN":"45鄰","STREET":"中華路","SECT":" ","MAREA":" ","LANE":"１５４巷","ALLEY":"１８弄","HOUSE_NO":"２號四樓之７","E_COORD97":171692.51999999999,"N_COORD97":2544828.46,"ADDRESS":"中華路１５４巷１８弄２號四樓之７","OBJECTID":216111},"geometry":{"x":171692.51999999955,"y":2544828.4600000009}},{"attributes":{"ID":216113,"DIS_CODE":0,"TOWNNAME":"永康區","LI":"成功里","LIN":"45鄰","STREET":"中華路","SECT":" ","MAREA":" ","LANE":"１５４巷","ALLEY":"１８弄","HOUSE_NO":"１０號四樓之２","E_COORD97":171701.32000000001,"N_COORD97":2544828.04,"ADDRESS":"中華路１５４巷１８弄１０號四樓之２","OBJECTID":216112},"geometry":{"x":171701.3200000003,"y":2544828.040000001}},{"attributes":{"ID":216114,"DIS_CODE":0,"TOWNNAME":"永康區","LI":"成功里","LIN":"45鄰","STREET":"中華路","SECT":" ","MAREA":" ","LANE":"１５４巷","ALLEY":"１８弄","HOUSE_NO":"２號八樓之６","E_COORD97":171692.54000000001,"N_COORD97":2544828.46,"ADDRESS":"中華路１５４巷１８弄２號八樓之６","OBJECTID":216113},"geometry":{"x":171692.54000000004,"y":2544828.4600000009}},{"attributes":{"ID":216115,"DIS_CODE":0,"TOWNNAME":"永康區","LI":"大灣里","LIN":"8鄰","STREET":"民族路","SECT":" ","MAREA":" ","LANE":"３９６巷","ALLEY":"１６弄","HOUSE_NO":"１０號","E_COORD97":174819.97,"N_COORD97":2545424.6899999999,"ADDRESS":"民族路３９６巷１６弄１０號","OBJECTID":216114},"geometry":{"x":174819.97000000067,"y":2545424.6899999995}},{"attributes":{"ID":216116,"DIS_CODE":0,"TOWNNAME":"永康區","LI":"三合里","LIN":"12鄰","STREET":"南工街","SECT":" ","MAREA":" ","LANE":"２４７巷","ALLEY":"３３弄","HOUSE_NO":"６號","E_COORD97":171976.38,"N_COORD97":2545804.3399999999,"ADDRESS":"南工街２４７巷３３弄６號","OBJECTID":216115},"geometry":{"x":171976.38000000082,"y":2545804.3399999999}},{"attributes":{"ID":216117,"DIS_CODE":0,"TOWNNAME":"永康區","LI":"二王里","LIN":"21鄰","STREET":"中山南路","SECT":" ","MAREA":" ","LANE":"６４４巷","ALLEY":"３９弄","HOUSE_NO":"３號","E_COORD97":172434.87,"N_COORD97":2546548.4900000002,"ADDRESS":"中山南路６４４巷３９弄３號","OBJECTID":216116},"geometry":{"x":172434.87000000011,"y":2546548.4900000021}},{"attributes":{"ID":216118,"DIS_CODE":0,"TOWNNAME":"永康區","LI":"大灣里","LIN":"28鄰","STREET":"民族路","SECT":" ","MAREA":" ","LANE":"１９０巷","ALLEY":"１４弄","HOUSE_NO":"１０號","E_COORD97":175255.78,"N_COORD97":2545024.7799999998,"ADDRESS":"民族路１９０巷１４弄１０號","OBJECTID":216117},"geometry":{"x":175255.78000000119,"y":2545024.7799999993}},{"attributes":{"ID":216119,"DIS_CODE":0,"TOWNNAME":"永康區","LI":"二王里","LIN":"20鄰","STREET":"中山南路","SECT":" ","MAREA":" ","LANE":"６４４巷","ALLEY":"３２弄","HOUSE_NO":"３號","E_COORD97":172372.59,"N_COORD97":2546571.7000000002,"ADDRESS":"中山南路６４４巷３２弄３號","OBJECTID":216118},"geometry":{"x":172372.59000000171,"y":2546571.700000003}},{"attributes":{"ID":216120,"DIS_CODE":0,"TOWNNAME":"永康區","LI":"二王里","LIN":"21鄰","STREET":"中山南路","SECT":" ","MAREA":" ","LANE":"６４４巷","ALLEY":"４２弄","HOUSE_NO":"１號之１","E_COORD97":172406.89999999999,"N_COORD97":2546526.1400000001,"ADDRESS":"中山南路６４４巷４２弄１號之１","OBJECTID":216119},"geometry":{"x":172406.9000000013,"y":2546526.1400000043}},{"attributes":{"ID":216121,"DIS_CODE":0,"TOWNNAME":"永康區","LI":"大灣里","LIN":"26鄰","STREET":"民族路","SECT":" ","MAREA":" ","LANE":"１９０巷","ALLEY":"１弄","HOUSE_NO":"１０號","E_COORD97":175158.45000000001,"N_COORD97":2545155.6800000002,"ADDRESS":"民族路１９０巷１弄１０號","OBJECTID":216120},"geometry":{"x":175158.45000000019,"y":2545155.6800000016}},{"attributes":{"ID":216122,"DIS_CODE":0,"TOWNNAME":"永康區","LI":"大灣里","LIN":"26鄰","STREET":"民族路","SECT":" ","MAREA":" ","LANE":"１９０巷","ALLEY":"１弄","HOUSE_NO":"８號","E_COORD97":175157.35000000001,"N_COORD97":2545148.71,"ADDRESS":"民族路１９０巷１弄８號","OBJECTID":216121},"geometry":{"x":175157.3499999987,"y":2545148.7100000009}},{"attributes":{"ID":216123,"DIS_CODE":0,"TOWNNAME":"永康區","LI":"二王里","LIN":"17鄰","STREET":"忠孝路","SECT":" ","MAREA":" ","LANE":"４１０巷","ALLEY":"７０弄","HOUSE_NO":"８號","E_COORD97":172642.48999999999,"N_COORD97":2546504.23,"ADDRESS":"忠孝路４１０巷７０弄８號","OBJECTID":216122},"geometry":{"x":172642.49000000022,"y":2546504.2300000004}},{"attributes":{"ID":216124,"DIS_CODE":0,"TOWNNAME":"永康區","LI":"三合里","LIN":"9鄰","STREET":"南工街","SECT":" ","MAREA":" ","LANE":"２４７巷","ALLEY":"３５弄","HOUSE_NO":"３５號","E_COORD97":172006.07000000001,"N_COORD97":2545656.4900000002,"ADDRESS":"南工街２４７巷３５弄３５號","OBJECTID":216123},"geometry":{"x":172006.07000000123,"y":2545656.4900000021}},{"attributes":{"ID":216125,"DIS_CODE":0,"TOWNNAME":"永康區","LI":"大灣里","LIN":"28鄰","STREET":"民族路","SECT":" ","MAREA":" ","LANE":"１９０巷","ALLEY":"１４弄","HOUSE_NO":"８號","E_COORD97":175254.62,"N_COORD97":2545032.5299999998,"ADDRESS":"民族路１９０巷１４弄８號","OBJECTID":216124},"geometry":{"x":175254.62000000104,"y":2545032.5299999993}},{"attributes":{"ID":216126,"DIS_CODE":0,"TOWNNAME":"永康區","LI":"成功里","LIN":"45鄰","STREET":"中華路","SECT":" ","MAREA":" ","LANE":"１５４巷","ALLEY":"１８弄","HOUSE_NO":"２號二樓之７","E_COORD97":171692.45999999999,"N_COORD97":2544828.46,"ADDRESS":"中華路１５４巷１８弄２號二樓之７","OBJECTID":216125},"geometry":{"x":171692.46000000089,"y":2544828.4600000009}},{"attributes":{"ID":216127,"DIS_CODE":0,"TOWNNAME":"中西區","LI":"西湖里","LIN":"5鄰","STREET":"頂美一街","SECT":" ","MAREA":" ","LANE":"４８巷","ALLEY":"３弄","HOUSE_NO":"８號","E_COORD97":166369.78,"N_COORD97":2544581.3999999999,"ADDRESS":"頂美一街４８巷３弄８號","OBJECTID":216126},"geometry":{"x":166369.78000000119,"y":2544581.4000000041}},{"attributes":{"ID":216128,"DIS_CODE":0,"TOWNNAME":"永康區","LI":"成功里","LIN":"45鄰","STREET":"中華路","SECT":" ","MAREA":" ","LANE":"１５４巷","ALLEY":"１８弄","HOUSE_NO":"６號","E_COORD97":171689.95000000001,"N_COORD97":2544843.7400000002,"ADDRESS":"中華路１５４巷１８弄６號","OBJECTID":216127},"geometry":{"x":171689.95000000019,"y":2544843.7400000021}},{"attributes":{"ID":216129,"DIS_CODE":0,"TOWNNAME":"仁德區","LI":"太子里","LIN":"45鄰","STREET":"太子一街","SECT":" ","MAREA":" ","LANE":"２７巷","ALLEY":"１６弄","HOUSE_NO":"５號","E_COORD97":174864.42999999999,"N_COORD97":2543310.0099999998,"ADDRESS":"太子一街２７巷１６弄５號","OBJECTID":216128},"geometry":{"x":174864.43000000063,"y":2543310.0100000016}},{"attributes":{"ID":216130,"DIS_CODE":0,"TOWNNAME":"仁德區","LI":"仁義里","LIN":"45鄰","STREET":"仁義路","SECT":" ","MAREA":" ","LANE":"９８巷","ALLEY":"１４弄","HOUSE_NO":"５號","E_COORD97":173589.53,"N_COORD97":2540904.2599999998,"ADDRESS":"仁義路９８巷１４弄５號","OBJECTID":216129},"geometry":{"x":173589.53000000119,"y":2540904.2600000016}},{"attributes":{"ID":216131,"DIS_CODE":0,"TOWNNAME":"永康區","LI":"二王里","LIN":"45鄰","STREET":"南工街","SECT":" ","MAREA":" ","LANE":"２１２巷","ALLEY":"１３弄","HOUSE_NO":"５４號","E_COORD97":172161.67000000001,"N_COORD97":2546010.29,"ADDRESS":"南工街２１２巷１３弄５４號","OBJECTID":216130},"geometry":{"x":172161.66999999993,"y":2546010.2899999991}},{"attributes":{"ID":216132,"DIS_CODE":0,"TOWNNAME":"永康區","LI":"二王里","LIN":"45鄰","STREET":"南工街","SECT":" ","MAREA":" ","LANE":"２１２巷","ALLEY":"１３弄","HOUSE_NO":"６號","E_COORD97":172123.28,"N_COORD97":2545968.71,"ADDRESS":"南工街２１２巷１３弄６號","OBJECTID":216131},"geometry":{"x":172123.28000000119,"y":2545968.7100000009}},{"attributes":{"ID":216133,"DIS_CODE":0,"TOWNNAME":"永康區","LI":"二王里","LIN":"45鄰","STREET":"南工街","SECT":" ","MAREA":" ","LANE":"２１２巷","ALLEY":"１３弄","HOUSE_NO":"２４號","E_COORD97":172148.57999999999,"N_COORD97":2545984.5899999999,"ADDRESS":"南工街２１２巷１３弄２４號","OBJECTID":216132},"geometry":{"x":172148.58000000007,"y":2545984.5900000017}},{"attributes":{"ID":216134,"DIS_CODE":0,"TOWNNAME":"永康區","LI":"二王里","LIN":"21鄰","STREET":"中山南路","SECT":" ","MAREA":" ","LANE":"６４４巷","ALLEY":"４２弄","HOUSE_NO":"２號之１","E_COORD97":172402.35999999999,"N_COORD97":2546547.6800000002,"ADDRESS":"中山南路６４４巷４２弄２號之１","OBJECTID":216133},"geometry":{"x":172402.36000000127,"y":2546547.6799999997}},{"attributes":{"ID":216135,"DIS_CODE":0,"TOWNNAME":"永康區","LI":"二王里","LIN":"44鄰","STREET":"南工街","SECT":" ","MAREA":" ","LANE":"２１４巷","ALLEY":"３２弄","HOUSE_NO":"３３號","E_COORD97":172131.62,"N_COORD97":2546082.3100000001,"ADDRESS":"南工街２１４巷３２弄３３號","OBJECTID":216134},"geometry":{"x":172131.62000000011,"y":2546082.3100000024}},{"attributes":{"ID":216136,"DIS_CODE":0,"TOWNNAME":"永康區","LI":"三民里","LIN":"6鄰","STREET":"三民街","SECT":" ","MAREA":" ","LANE":"１８巷","ALLEY":"８弄","HOUSE_NO":"３３號","E_COORD97":173385.04999999999,"N_COORD97":2550135.79,"ADDRESS":"三民街１８巷８弄３３號","OBJECTID":216135},"geometry":{"x":173385.05000000075,"y":2550135.790000001}},{"attributes":{"ID":216137,"DIS_CODE":0,"TOWNNAME":"永康區","LI":"三合里","LIN":"9鄰","STREET":"南工街","SECT":" ","MAREA":" ","LANE":"２４７巷","ALLEY":"３５弄","HOUSE_NO":"１００號","E_COORD97":172046.5,"N_COORD97":2545710.75,"ADDRESS":"南工街２４７巷３５弄１００號","OBJECTID":216136},"geometry":{"x":172046.50000000093,"y":2545710.7499999981}},{"attributes":{"ID":216138,"DIS_CODE":0,"TOWNNAME":"永康區","LI":"二王里","LIN":"20鄰","STREET":"中山南路","SECT":" ","MAREA":" ","LANE":"６４４巷","ALLEY":"３２弄","HOUSE_NO":"１２號","E_COORD97":172363.04000000001,"N_COORD97":2546583.54,"ADDRESS":"中山南路６４４巷３２弄１２號","OBJECTID":216137},"geometry":{"x":172363.04000000097,"y":2546583.540000001}},{"attributes":{"ID":216139,"DIS_CODE":0,"TOWNNAME":"永康區","LI":"二王里","LIN":"38鄰","STREET":"中山南路","SECT":" ","MAREA":" ","LANE":"４９０巷","ALLEY":"１２弄","HOUSE_NO":"８７號","E_COORD97":172233.32000000001,"N_COORD97":2546264.77,"ADDRESS":"中山南路４９０巷１２弄８７號","OBJECTID":216138},"geometry":{"x":172233.3200000003,"y":2546264.7699999996}},{"attributes":{"ID":216140,"DIS_CODE":0,"TOWNNAME":"永康區","LI":"二王里","LIN":"26鄰","STREET":"中山南路","SECT":" ","MAREA":" ","LANE":"５４４巷","ALLEY":"９２弄","HOUSE_NO":"１號","E_COORD97":172292.57999999999,"N_COORD97":2546227.2799999998,"ADDRESS":"中山南路５４４巷９２弄１號","OBJECTID":216139},"geometry":{"x":172292.58000000007,"y":2546227.2799999993}},{"attributes":{"ID":216141,"DIS_CODE":0,"TOWNNAME":"永康區","LI":"大灣里","LIN":"26鄰","STREET":"民族路","SECT":" ","MAREA":" ","LANE":"１９０巷","ALLEY":"１弄","HOUSE_NO":"１１號","E_COORD97":175158.85999999999,"N_COORD97":2545160.1800000002,"ADDRESS":"民族路１９０巷１弄１１號","OBJECTID":216140},"geometry":{"x":175158.86000000127,"y":2545160.1800000016}},{"attributes":{"ID":216142,"DIS_CODE":0,"TOWNNAME":"永康區","LI":"二王里","LIN":"35鄰","STREET":"中山南路","SECT":" ","MAREA":" ","LANE":"４９０巷","ALLEY":"２弄","HOUSE_NO":"６１號","E_COORD97":172144.79000000001,"N_COORD97":2546314.23,"ADDRESS":"中山南路４９０巷２弄６１號","OBJECTID":216141},"geometry":{"x":172144.79000000097,"y":2546314.2300000004}},{"attributes":{"ID":216143,"DIS_CODE":0,"TOWNNAME":"永康區","LI":"三合里","LIN":"10鄰","STREET":"南工街","SECT":" ","MAREA":" ","LANE":"２４７巷","ALLEY":"３５弄","HOUSE_NO":"１２號","E_COORD97":171985.25,"N_COORD97":2545723.9399999999,"ADDRESS":"南工街２４７巷３５弄１２號","OBJECTID":216142},"geometry":{"x":171985.25000000093,"y":2545723.9400000013}},{"attributes":{"ID":216144,"DIS_CODE":0,"TOWNNAME":"永康區","LI":"大灣里","LIN":"28鄰","STREET":"民族路","SECT":" ","MAREA":" ","LANE":"１９０巷","ALLEY":"１４弄","HOUSE_NO":"１４號","E_COORD97":175250.14999999999,"N_COORD97":2545004.2999999998,"ADDRESS":"民族路１９０巷１４弄１４號","OBJECTID":216143},"geometry":{"x":175250.1500000013,"y":2545004.3000000026}},{"attributes":{"ID":216145,"DIS_CODE":0,"TOWNNAME":"永康區","LI":"二王里","LIN":"24鄰","STREET":"中山南路","SECT":" ","MAREA":" ","LANE":"５４４巷","ALLEY":"６７弄","HOUSE_NO":"３號","E_COORD97":172348.53,"N_COORD97":2546362.5699999998,"ADDRESS":"中山南路５４４巷６７弄３號","OBJECTID":216144},"geometry":{"x":172348.53000000119,"y":2546362.5700000003}},{"attributes":{"ID":216146,"DIS_CODE":0,"TOWNNAME":"關廟區","LI":"新埔里","LIN":"9鄰","STREET":"新埔二街","SECT":" ","MAREA":" ","LANE":"７２巷","ALLEY":" ","HOUSE_NO":"１１２號","E_COORD97":181903.84548600001,"N_COORD97":2541535.8004399999,"ADDRESS":"新埔二街７２巷１１２號","OBJECTID":216145},"geometry":{"x":181903.84548600018,"y":2541535.8004349992}},{"attributes":{"ID":216147,"DIS_CODE":0,"TOWNNAME":"後壁區","LI":"土溝里","LIN":"2鄰","STREET":" ","SECT":" ","MAREA":"土溝","LANE":" ","ALLEY":" ","HOUSE_NO":"２１號之７","E_COORD97":186739.51000000001,"N_COORD97":2585696.25,"ADDRESS":"土溝２１號之７","OBJECTID":216146},"geometry":{"x":186739.50999999978,"y":2585696.25}},{"attributes":{"ID":216148,"DIS_CODE":0,"TOWNNAME":"後壁區","LI":"土溝里","LIN":"2鄰","STREET":" ","SECT":" ","MAREA":"土溝","LANE":" ","ALLEY":" ","HOUSE_NO":"２１號之８","E_COORD97":186734.62,"N_COORD97":2585695.8999999999,"ADDRESS":"土溝２１號之８","OBJECTID":216147},"geometry":{"x":186734.62000000104,"y":2585695.9000000004}},{"attributes":{"ID":216149,"DIS_CODE":0,"TOWNNAME":"後壁區","LI":"土溝里","LIN":"2鄰","STREET":" ","SECT":" ","MAREA":"土溝","LANE":" ","ALLEY":" ","HOUSE_NO":"２１號之９","E_COORD97":186728.20999999999,"N_COORD97":2585695.3599999999,"ADDRESS":"土溝２１號之９","OBJECTID":216148},"geometry":{"x":186728.20999999996,"y":2585695.3599999994}},{"attributes":{"ID":216150,"DIS_CODE":0,"TOWNNAME":"後壁區","LI":"土溝里","LIN":"2鄰","STREET":" ","SECT":" ","MAREA":"土溝","LANE":" ","ALLEY":" ","HOUSE_NO":"２１號","E_COORD97":186776.54000000001,"N_COORD97":2585676.1899999999,"ADDRESS":"土溝２１號","OBJECTID":216149},"geometry":{"x":186776.54000000004,"y":2585676.1899999995}},{"attributes":{"ID":216151,"DIS_CODE":0,"TOWNNAME":"永康區","LI":"二王里","LIN":"21鄰","STREET":"中山南路","SECT":" ","MAREA":" ","LANE":"６４４巷","ALLEY":"３９弄","HOUSE_NO":"１６號","E_COORD97":172445.79000000001,"N_COORD97":2546527.8399999999,"ADDRESS":"中山南路６４４巷３９弄１６號","OBJECTID":216150},"geometry":{"x":172445.79000000004,"y":2546527.8400000017}},{"attributes":{"ID":216152,"DIS_CODE":0,"TOWNNAME":"永康區","LI":"大橋里","LIN":"21鄰","STREET":"大橋一街","SECT":" ","MAREA":" ","LANE":"１３９巷","ALLEY":"４４弄","HOUSE_NO":"９８號","E_COORD97":171155.72,"N_COORD97":2546696.5499999998,"ADDRESS":"大橋一街１３９巷４４弄９８號","OBJECTID":216151},"geometry":{"x":171155.71999999974,"y":2546696.5500000045}},{"attributes":{"ID":216153,"DIS_CODE":0,"TOWNNAME":"北區","LI":"大和里","LIN":"14鄰","STREET":"文賢路","SECT":" ","MAREA":" ","LANE":"７９９巷","ALLEY":"８弄","HOUSE_NO":"１號","E_COORD97":167278.09,"N_COORD97":2546307.52,"ADDRESS":"文賢路７９９巷８弄１號","OBJECTID":216152},"geometry":{"x":167278.08999999985,"y":2546307.5199999996}},{"attributes":{"ID":216154,"DIS_CODE":0,"TOWNNAME":"北區","LI":"大和里","LIN":"14鄰","STREET":"文賢路","SECT":" ","MAREA":" ","LANE":"７９９巷","ALLEY":"８弄","HOUSE_NO":"３號","E_COORD97":167276.82000000001,"N_COORD97":2546313.5499999998,"ADDRESS":"文賢路７９９巷８弄３號","OBJECTID":216153},"geometry":{"x":167276.8200000003,"y":2546313.5500000026}},{"attributes":{"ID":216155,"DIS_CODE":0,"TOWNNAME":"北區","LI":"大和里","LIN":"14鄰","STREET":"文賢路","SECT":" ","MAREA":" ","LANE":"７９９巷","ALLEY":"８弄","HOUSE_NO":"５號","E_COORD97":167276.03,"N_COORD97":2546319.4199999999,"ADDRESS":"文賢路７９９巷８弄５號","OBJECTID":216154},"geometry":{"x":167276.03000000212,"y":2546319.4199999999}},{"attributes":{"ID":216156,"DIS_CODE":0,"TOWNNAME":"北區","LI":"大和里","LIN":"14鄰","STREET":"文賢路","SECT":" ","MAREA":" ","LANE":"７９９巷","ALLEY":"８弄","HOUSE_NO":"７號","E_COORD97":167275.07000000001,"N_COORD97":2546325.9300000002,"ADDRESS":"文賢路７９９巷８弄７號","OBJECTID":216155},"geometry":{"x":167275.0700000003,"y":2546325.9299999997}},{"attributes":{"ID":216157,"DIS_CODE":0,"TOWNNAME":"北區","LI":"大和里","LIN":"14鄰","STREET":"文賢路","SECT":" ","MAREA":" ","LANE":"７９９巷","ALLEY":"８弄","HOUSE_NO":"２號","E_COORD97":167283.17000000001,"N_COORD97":2546309.1000000001,"ADDRESS":"文賢路７９９巷８弄２號","OBJECTID":216156},"geometry":{"x":167283.17000000179,"y":2546309.1000000015}},{"attributes":{"ID":216158,"DIS_CODE":0,"TOWNNAME":"北區","LI":"大和里","LIN":"14鄰","STREET":"文賢路","SECT":" ","MAREA":" ","LANE":"７９９巷","ALLEY":"８弄","HOUSE_NO":"６號","E_COORD97":167281.73999999999,"N_COORD97":2546315.2999999998,"ADDRESS":"文賢路７９９巷８弄６號","OBJECTID":216157},"geometry":{"x":167281.74000000115,"y":2546315.3000000026}},{"attributes":{"ID":216159,"DIS_CODE":0,"TOWNNAME":"北區","LI":"大和里","LIN":"14鄰","STREET":"文賢路","SECT":" ","MAREA":" ","LANE":"７９９巷","ALLEY":"８弄","HOUSE_NO":"８號","E_COORD97":167280.79000000001,"N_COORD97":2546321.3300000001,"ADDRESS":"文賢路７９９巷８弄８號","OBJECTID":216158},"geometry":{"x":167280.7900000019,"y":2546321.3300000019}},{"attributes":{"ID":216160,"DIS_CODE":0,"TOWNNAME":"北區","LI":"大和里","LIN":"14鄰","STREET":"文賢路","SECT":" ","MAREA":" ","LANE":"７９９巷","ALLEY":"８弄","HOUSE_NO":"１０號","E_COORD97":167279.67999999999,"N_COORD97":2546328.1499999999,"ADDRESS":"文賢路７９９巷８弄１０號","OBJECTID":216159},"geometry":{"x":167279.68000000063,"y":2546328.1500000004}},{"attributes":{"ID":216161,"DIS_CODE":0,"TOWNNAME":"安平區","LI":"平安里","LIN":"14鄰","STREET":"安平路","SECT":" ","MAREA":" ","LANE":"５５０巷","ALLEY":"３５弄","HOUSE_NO":"４９號","E_COORD97":164891.97,"N_COORD97":2544511.4900000002,"ADDRESS":"安平路５５０巷３５弄４９號","OBJECTID":216160},"geometry":{"x":164891.96999999974,"y":2544511.4900000002}},{"attributes":{"ID":216162,"DIS_CODE":0,"TOWNNAME":"後壁區","LI":"長安里","LIN":"2鄰","STREET":" ","SECT":" ","MAREA":"中寮","LANE":" ","ALLEY":" ","HOUSE_NO":"１８號之１","E_COORD97":184507.39000000001,"N_COORD97":2581336.9900000002,"ADDRESS":"中寮１８號之１","OBJECTID":216161},"geometry":{"x":184507.38999999966,"y":2581336.9900000021}},{"attributes":{"ID":216163,"DIS_CODE":0,"TOWNNAME":"後壁區","LI":"長安里","LIN":"2鄰","STREET":" ","SECT":" ","MAREA":"中寮","LANE":" ","ALLEY":" ","HOUSE_NO":"１８號","E_COORD97":184502.17999999999,"N_COORD97":2581319.1899999999,"ADDRESS":"中寮１８號","OBJECTID":216162},"geometry":{"x":184502.1799999997,"y":2581319.1899999995}},{"attributes":{"ID":216164,"DIS_CODE":0,"TOWNNAME":"後壁區","LI":"長安里","LIN":"2鄰","STREET":" ","SECT":" ","MAREA":"中寮","LANE":" ","ALLEY":" ","HOUSE_NO":"２０號之１","E_COORD97":184477.98999999999,"N_COORD97":2581315.3500000001,"ADDRESS":"中寮２０號之１","OBJECTID":216163},"geometry":{"x":184477.99000000115,"y":2581315.3499999996}},{"attributes":{"ID":216165,"DIS_CODE":0,"TOWNNAME":"後壁區","LI":"長安里","LIN":"2鄰","STREET":" ","SECT":" ","MAREA":"中寮","LANE":" ","ALLEY":" ","HOUSE_NO":"２０號之２","E_COORD97":184491.70000000001,"N_COORD97":2581325.4100000001,"ADDRESS":"中寮２０號之２","OBJECTID":216164},"geometry":{"x":184491.70000000112,"y":2581325.4100000001}},{"attributes":{"ID":216166,"DIS_CODE":0,"TOWNNAME":"北區","LI":"成德里","LIN":"14鄰","STREET":"海安路","SECT":"三段","MAREA":" ","LANE":"５２０巷","ALLEY":"１５弄","HOUSE_NO":"５號","E_COORD97":168110.57999999999,"N_COORD97":2545762.8799999999,"ADDRESS":"海安路三段５２０巷１５弄５號","OBJECTID":216165},"geometry":{"x":168110.58000000007,"y":2545762.879999999}},{"attributes":{"ID":216167,"DIS_CODE":0,"TOWNNAME":"南區","LI":"光明里","LIN":"14鄰","STREET":"鹽埕路","SECT":" ","MAREA":" ","LANE":"２９１巷","ALLEY":"６０弄","HOUSE_NO":"９號","E_COORD97":166676.20999999999,"N_COORD97":2541289.1800000002,"ADDRESS":"鹽埕路２９１巷６０弄９號","OBJECTID":216166},"geometry":{"x":166676.21000000089,"y":2541289.1799999997}},{"attributes":{"ID":216168,"DIS_CODE":0,"TOWNNAME":"永康區","LI":"二王里","LIN":"26鄰","STREET":"中山南路","SECT":" ","MAREA":" ","LANE":"５４４巷","ALLEY":"９２弄","HOUSE_NO":"９號","E_COORD97":172274.53,"N_COORD97":2546227.2799999998,"ADDRESS":"中山南路５４４巷９２弄９號","OBJECTID":216167},"geometry":{"x":172274.53000000026,"y":2546227.2799999993}},{"attributes":{"ID":216169,"DIS_CODE":0,"TOWNNAME":"永康區","LI":"三合里","LIN":"9鄰","STREET":"南工街","SECT":" ","MAREA":" ","LANE":"２４７巷","ALLEY":"３５弄","HOUSE_NO":"３２號","E_COORD97":172006.76000000001,"N_COORD97":2545641.4900000002,"ADDRESS":"南工街２４７巷３５弄３２號","OBJECTID":216168},"geometry":{"x":172006.75999999885,"y":2545641.4899999984}},{"attributes":{"ID":216170,"DIS_CODE":0,"TOWNNAME":"南區","LI":"光明里","LIN":"14鄰","STREET":"鹽埕路","SECT":" ","MAREA":" ","LANE":"２９１巷","ALLEY":"６０弄","HOUSE_NO":"１０號","E_COORD97":166679.84,"N_COORD97":2541319.46,"ADDRESS":"鹽埕路２９１巷６０弄１０號","OBJECTID":216169},"geometry":{"x":166679.83999999985,"y":2541319.4600000009}},{"attributes":{"ID":216171,"DIS_CODE":0,"TOWNNAME":"南區","LI":"光明里","LIN":"14鄰","STREET":"鹽埕路","SECT":" ","MAREA":" ","LANE":"２９１巷","ALLEY":"６０弄","HOUSE_NO":"１１號","E_COORD97":166672.26000000001,"N_COORD97":2541289.3900000001,"ADDRESS":"鹽埕路２９１巷６０弄１１號","OBJECTID":216170},"geometry":{"x":166672.26000000071,"y":2541289.3899999987}},{"attributes":{"ID":216172,"DIS_CODE":0,"TOWNNAME":"南區","LI":"光明里","LIN":"14鄰","STREET":"鹽埕路","SECT":" ","MAREA":" ","LANE":"２９１巷","ALLEY":"６０弄","HOUSE_NO":"１２號","E_COORD97":166679.95999999999,"N_COORD97":2541314.6899999999,"ADDRESS":"鹽埕路２９１巷６０弄１２號","OBJECTID":216171},"geometry":{"x":166679.96000000089,"y":2541314.6900000013}},{"attributes":{"ID":216173,"DIS_CODE":0,"TOWNNAME":"關廟區","LI":"香洋里","LIN":"15鄰","STREET":"中央路","SECT":" ","MAREA":" ","LANE":" ","ALLEY":" ","HOUSE_NO":"１１８號","E_COORD97":181430.56,"N_COORD97":2540011.3199999998,"ADDRESS":"中央路１１８號","OBJECTID":216172},"geometry":{"x":181430.56000000052,"y":2540011.3199999984}},{"attributes":{"ID":216174,"DIS_CODE":0,"TOWNNAME":"後壁區","LI":"長安里","LIN":"2鄰","STREET":" ","SECT":" ","MAREA":"中寮","LANE":" ","ALLEY":" ","HOUSE_NO":"２０號","E_COORD97":184462.85999999999,"N_COORD97":2581328.8700000001,"ADDRESS":"中寮２０號","OBJECTID":216173},"geometry":{"x":184462.8599999994,"y":2581328.8700000029}},{"attributes":{"ID":216175,"DIS_CODE":0,"TOWNNAME":"關廟區","LI":"五甲里","LIN":"15鄰","STREET":"東興一街","SECT":" ","MAREA":" ","LANE":" ","ALLEY":" ","HOUSE_NO":"８０號","E_COORD97":181274.76999999999,"N_COORD97":2539451.25,"ADDRESS":"東興一街８０號","OBJECTID":216174},"geometry":{"x":181274.77000000048,"y":2539451.25}},{"attributes":{"ID":216176,"DIS_CODE":0,"TOWNNAME":"後壁區","LI":"長安里","LIN":"2鄰","STREET":" ","SECT":" ","MAREA":"中寮","LANE":" ","ALLEY":" ","HOUSE_NO":"２１號","E_COORD97":184451.87,"N_COORD97":2581330.54,"ADDRESS":"中寮２１號","OBJECTID":216175},"geometry":{"x":184451.87000000011,"y":2581330.5399999972}},{"attributes":{"ID":216177,"DIS_CODE":0,"TOWNNAME":"後壁區","LI":"長安里","LIN":"2鄰","STREET":" ","SECT":" ","MAREA":"中寮","LANE":" ","ALLEY":" ","HOUSE_NO":"２３號","E_COORD97":184489.17000000001,"N_COORD97":2581293.5499999998,"ADDRESS":"中寮２３號","OBJECTID":216176},"geometry":{"x":184489.16999999899,"y":2581293.5500000007}},{"attributes":{"ID":216178,"DIS_CODE":0,"TOWNNAME":"關廟區","LI":"香洋里","LIN":"15鄰","STREET":"中央路","SECT":" ","MAREA":" ","LANE":" ","ALLEY":" ","HOUSE_NO":"１２０號","E_COORD97":181426.76000000001,"N_COORD97":2540013.3199999998,"ADDRESS":"中央路１２０號","OBJECTID":216177},"geometry":{"x":181426.75999999978,"y":2540013.3200000003}},{"attributes":{"ID":216179,"DIS_CODE":0,"TOWNNAME":"關廟區","LI":"五甲里","LIN":"15鄰","STREET":"東興二街","SECT":" ","MAREA":" ","LANE":" ","ALLEY":" ","HOUSE_NO":"１０５號","E_COORD97":181310.62,"N_COORD97":2539417.25,"ADDRESS":"東興二街１０５號","OBJECTID":216178},"geometry":{"x":181310.62000000011,"y":2539417.25}},{"attributes":{"ID":216180,"DIS_CODE":0,"TOWNNAME":"關廟區","LI":"五甲里","LIN":"15鄰","STREET":"東興一街","SECT":" ","MAREA":" ","LANE":" ","ALLEY":" ","HOUSE_NO":"９２號","E_COORD97":181282.07000000001,"N_COORD97":2539431.25,"ADDRESS":"東興一街９２號","OBJECTID":216179},"geometry":{"x":181282.07000000123,"y":2539431.25}},{"attributes":{"ID":216181,"DIS_CODE":0,"TOWNNAME":"南區","LI":"光明里","LIN":"14鄰","STREET":"鹽埕路","SECT":" ","MAREA":" ","LANE":"２９１巷","ALLEY":"６０弄","HOUSE_NO":"１３號","E_COORD97":166668.85000000001,"N_COORD97":2541290.4900000002,"ADDRESS":"鹽埕路２９１巷６０弄１３號","OBJECTID":216180},"geometry":{"x":166668.84999999963,"y":2541290.4900000002}},{"attributes":{"ID":216182,"DIS_CODE":0,"TOWNNAME":"南區","LI":"光明里","LIN":"14鄰","STREET":"鹽埕路","SECT":" ","MAREA":" ","LANE":"２９１巷","ALLEY":"６０弄","HOUSE_NO":"１４號","E_COORD97":166679.07999999999,"N_COORD97":2541311.1800000002,"ADDRESS":"鹽埕路２９１巷６０弄１４號","OBJECTID":216181},"geometry":{"x":166679.08000000101,"y":2541311.1800000016}},{"attributes":{"ID":216183,"DIS_CODE":0,"TOWNNAME":"南區","LI":"光明里","LIN":"14鄰","STREET":"鹽埕路","SECT":" ","MAREA":" ","LANE":"２９１巷","ALLEY":"６０弄","HOUSE_NO":"１５號","E_COORD97":166665.56,"N_COORD97":2541291.2599999998,"ADDRESS":"鹽埕路２９１巷６０弄１５號","OBJECTID":216182},"geometry":{"x":166665.56000000052,"y":2541291.2600000016}},{"attributes":{"ID":216184,"DIS_CODE":0,"TOWNNAME":"南區","LI":"光明里","LIN":"14鄰","STREET":"鹽埕路","SECT":" ","MAREA":" ","LANE":"２９１巷","ALLEY":"６０弄","HOUSE_NO":"１６號","E_COORD97":166677.32999999999,"N_COORD97":2541306.6600000001,"ADDRESS":"鹽埕路２９１巷６０弄１６號","OBJECTID":216183},"geometry":{"x":166677.33000000101,"y":2541306.6600000001}},{"attributes":{"ID":216185,"DIS_CODE":0,"TOWNNAME":"後壁區","LI":"長安里","LIN":"2鄰","STREET":" ","SECT":" ","MAREA":"中寮","LANE":" ","ALLEY":" ","HOUSE_NO":"２４號","E_COORD97":184479.06,"N_COORD97":2581279.73,"ADDRESS":"中寮２４號","OBJECTID":216184},"geometry":{"x":184479.05999999959,"y":2581279.7300000004}},{"attributes":{"ID":216186,"DIS_CODE":0,"TOWNNAME":"南區","LI":"光明里","LIN":"14鄰","STREET":"鹽埕路","SECT":" ","MAREA":" ","LANE":"２９１巷","ALLEY":"６０弄","HOUSE_NO":"１７號","E_COORD97":166662.04000000001,"N_COORD97":2541292.4700000002,"ADDRESS":"鹽埕路２９１巷６０弄１７號","OBJECTID":216185},"geometry":{"x":166662.0400000019,"y":2541292.4700000044}},{"attributes":{"ID":216187,"DIS_CODE":0,"TOWNNAME":"後壁區","LI":"長安里","LIN":"2鄰","STREET":" ","SECT":" ","MAREA":"中寮","LANE":" ","ALLEY":" ","HOUSE_NO":"２６號","E_COORD97":184477.79999999999,"N_COORD97":2581266.3500000001,"ADDRESS":"中寮２６號","OBJECTID":216186},"geometry":{"x":184477.79999999981,"y":2581266.3500000015}},{"attributes":{"ID":216188,"DIS_CODE":0,"TOWNNAME":"南區","LI":"光明里","LIN":"14鄰","STREET":"鹽埕路","SECT":" ","MAREA":" ","LANE":"２９１巷","ALLEY":"６０弄","HOUSE_NO":"１８號","E_COORD97":166663.13,"N_COORD97":2541310.2999999998,"ADDRESS":"鹽埕路２９１巷６０弄１８號","OBJECTID":216187},"geometry":{"x":166663.13000000082,"y":2541310.3000000007}},{"attributes":{"ID":216189,"DIS_CODE":0,"TOWNNAME":"後壁區","LI":"長安里","LIN":"2鄰","STREET":" ","SECT":" ","MAREA":"中寮","LANE":" ","ALLEY":" ","HOUSE_NO":"２７號","E_COORD97":184486.26000000001,"N_COORD97":2581263.1200000001,"ADDRESS":"中寮２７號","OBJECTID":216188},"geometry":{"x":184486.25999999978,"y":2581263.120000001}},{"attributes":{"ID":216190,"DIS_CODE":0,"TOWNNAME":"後壁區","LI":"長安里","LIN":"2鄰","STREET":" ","SECT":" ","MAREA":"中寮","LANE":" ","ALLEY":" ","HOUSE_NO":"２８號之１","E_COORD97":184505.82000000001,"N_COORD97":2581263.7200000002,"ADDRESS":"中寮２８號之１","OBJECTID":216189},"geometry":{"x":184505.82000000123,"y":2581263.7200000025}},{"attributes":{"ID":216191,"DIS_CODE":0,"TOWNNAME":"南區","LI":"光明里","LIN":"14鄰","STREET":"鹽埕路","SECT":" ","MAREA":" ","LANE":"２９１巷","ALLEY":"６０弄","HOUSE_NO":"１９號","E_COORD97":166658.09,"N_COORD97":2541293.3399999999,"ADDRESS":"鹽埕路２９１巷６０弄１９號","OBJECTID":216190},"geometry":{"x":166658.09000000171,"y":2541293.3400000017}},{"attributes":{"ID":216192,"DIS_CODE":0,"TOWNNAME":"後壁區","LI":"長安里","LIN":"2鄰","STREET":" ","SECT":" ","MAREA":"中寮","LANE":" ","ALLEY":" ","HOUSE_NO":"２８號之２","E_COORD97":184506.67000000001,"N_COORD97":2581272.9300000002,"ADDRESS":"中寮２８號之２","OBJECTID":216191},"geometry":{"x":184506.67000000086,"y":2581272.9299999997}},{"attributes":{"ID":216193,"DIS_CODE":0,"TOWNNAME":"後壁區","LI":"長安里","LIN":"2鄰","STREET":" ","SECT":" ","MAREA":"中寮","LANE":" ","ALLEY":" ","HOUSE_NO":"４３號之６","E_COORD97":184398.60999999999,"N_COORD97":2581288.7999999998,"ADDRESS":"中寮４３號之６","OBJECTID":216192},"geometry":{"x":184398.6100000022,"y":2581288.8000000007}},{"attributes":{"ID":216194,"DIS_CODE":0,"TOWNNAME":"後壁區","LI":"長安里","LIN":"2鄰","STREET":" ","SECT":" ","MAREA":"中寮","LANE":" ","ALLEY":" ","HOUSE_NO":"４３號","E_COORD97":184427.85999999999,"N_COORD97":2581296.7799999998,"ADDRESS":"中寮４３號","OBJECTID":216193},"geometry":{"x":184427.86000000127,"y":2581296.7800000012}},{"attributes":{"ID":216195,"DIS_CODE":0,"TOWNNAME":"後壁區","LI":"長安里","LIN":"2鄰","STREET":" ","SECT":" ","MAREA":"中寮","LANE":" ","ALLEY":" ","HOUSE_NO":"４５號之１","E_COORD97":184388.29000000001,"N_COORD97":2581349.1699999999,"ADDRESS":"中寮４５號之１","OBJECTID":216194},"geometry":{"x":184388.29000000004,"y":2581349.1700000018}},{"attributes":{"ID":216196,"DIS_CODE":0,"TOWNNAME":"後壁區","LI":"長安里","LIN":"2鄰","STREET":" ","SECT":" ","MAREA":"中寮","LANE":" ","ALLEY":" ","HOUSE_NO":"４５號","E_COORD97":184416.54999999999,"N_COORD97":2581322.6499999999,"ADDRESS":"中寮４５號","OBJECTID":216195},"geometry":{"x":184416.54999999981,"y":2581322.6500000022}},{"attributes":{"ID":216197,"DIS_CODE":0,"TOWNNAME":"後壁區","LI":"新嘉里","LIN":"2鄰","STREET":" ","SECT":" ","MAREA":"白沙屯","LANE":" ","ALLEY":" ","HOUSE_NO":"１８號之１","E_COORD97":179776.03,"N_COORD97":2585729.1200000001,"ADDRESS":"白沙屯１８號之１","OBJECTID":216196},"geometry":{"x":179776.03000000026,"y":2585729.120000001}},{"attributes":{"ID":216198,"DIS_CODE":0,"TOWNNAME":"後壁區","LI":"新嘉里","LIN":"2鄰","STREET":" ","SECT":" ","MAREA":"白沙屯","LANE":" ","ALLEY":" ","HOUSE_NO":"１８號之２","E_COORD97":179763.94,"N_COORD97":2585694.7599999998,"ADDRESS":"白沙屯１８號之２","OBJECTID":216197},"geometry":{"x":179763.94000000134,"y":2585694.7600000016}},{"attributes":{"ID":216199,"DIS_CODE":0,"TOWNNAME":"後壁區","LI":"新嘉里","LIN":"2鄰","STREET":" ","SECT":" ","MAREA":"白沙屯","LANE":" ","ALLEY":" ","HOUSE_NO":"１９號之１","E_COORD97":179758.64000000001,"N_COORD97":2585762.0699999998,"ADDRESS":"白沙屯１９號之１","OBJECTID":216198},"geometry":{"x":179758.6400000006,"y":2585762.0700000003}},{"attributes":{"ID":216200,"DIS_CODE":0,"TOWNNAME":"後壁區","LI":"新嘉里","LIN":"2鄰","STREET":" ","SECT":" ","MAREA":"白沙屯","LANE":" ","ALLEY":" ","HOUSE_NO":"１９號","E_COORD97":179745.69,"N_COORD97":2585753.2799999998,"ADDRESS":"白沙屯１９號","OBJECTID":216199},"geometry":{"x":179745.69000000041,"y":2585753.2799999993}},{"attributes":{"ID":216201,"DIS_CODE":0,"TOWNNAME":"後壁區","LI":"新嘉里","LIN":"2鄰","STREET":" ","SECT":" ","MAREA":"白沙屯","LANE":" ","ALLEY":" ","HOUSE_NO":"２０號之１０","E_COORD97":179764.87,"N_COORD97":2585818.48,"ADDRESS":"白沙屯２０號之１０","OBJECTID":216200},"geometry":{"x":179764.87000000011,"y":2585818.4800000023}}]}