{"displayFieldName":"TOWNNAME","fieldAliases":{"ID":"ID","DIS_CODE":"DIS_CODE","TOWNNAME":"TOWNNAME","LI":"LI","LIN":"LIN","STREET":"STREET","SECT":"SECT","MAREA":"MAREA","LANE":"LANE","ALLEY":"ALLEY","HOUSE_NO":"HOUSE_NO","E_COORD97":"E_COORD97","N_COORD97":"N_COORD97","ADDRESS":"ADDRESS","OBJECTID":"OBJECTID"},"geometryType":"esriGeometryPoint","spatialReference":{"wkid":102443,"latestWkid":3826},"fields":[{"name":"ID","type":"esriFieldTypeDouble","alias":"ID"},{"name":"DIS_CODE","type":"esriFieldTypeInteger","alias":"DIS_CODE"},{"name":"TOWNNAME","type":"esriFieldTypeString","alias":"TOWNNAME","length":8},{"name":"LI","type":"esriFieldTypeString","alias":"LI","length":8},{"name":"LIN","type":"esriFieldTypeString","alias":"LIN","length":12},{"name":"STREET","type":"esriFieldTypeString","alias":"STREET","length":20},{"name":"SECT","type":"esriFieldTypeString","alias":"SECT","length":8},{"name":"MAREA","type":"esriFieldTypeString","alias":"MAREA","length":12},{"name":"LANE","type":"esriFieldTypeString","alias":"LANE","length":10},{"name":"ALLEY","type":"esriFieldTypeString","alias":"ALLEY","length":10},{"name":"HOUSE_NO","type":"esriFieldTypeString","alias":"HOUSE_NO","length":20},{"name":"E_COORD97","type":"esriFieldTypeDouble","alias":"E_COORD97"},{"name":"N_COORD97","type":"esriFieldTypeDouble","alias":"N_COORD97"},{"name":"ADDRESS","type":"esriFieldTypeString","alias":"ADDRESS","length":50},{"name":"OBJECTID","type":"esriFieldTypeOID","alias":"OBJECTID"}],"features":[{"attributes":{"ID":580428,"DIS_CODE":0,"TOWNNAME":"東區","LI":"崇明里","LIN":"16鄰","STREET":"崇明路","SECT":" ","MAREA":" ","LANE":" ","ALLEY":" ","HOUSE_NO":"９６６號","E_COORD97":170590.57000000001,"N_COORD97":2540948.29,"ADDRESS":"崇明路９６６號","OBJECTID":580401},"geometry":{"x":170590.57000000123,"y":2540948.2899999991}},{"attributes":{"ID":580429,"DIS_CODE":0,"TOWNNAME":"東區","LI":"崇明里","LIN":"16鄰","STREET":"崇明路","SECT":" ","MAREA":" ","LANE":" ","ALLEY":" ","HOUSE_NO":"９６８號","E_COORD97":170590.28,"N_COORD97":2540943.3399999999,"ADDRESS":"崇明路９６８號","OBJECTID":580402},"geometry":{"x":170590.28000000119,"y":2540943.3400000036}},{"attributes":{"ID":580430,"DIS_CODE":0,"TOWNNAME":"東區","LI":"崇明里","LIN":"16鄰","STREET":"崇明路","SECT":" ","MAREA":" ","LANE":" ","ALLEY":" ","HOUSE_NO":"９７０號","E_COORD97":170590,"N_COORD97":2540937.9700000002,"ADDRESS":"崇明路９７０號","OBJECTID":580403},"geometry":{"x":170590.00000000186,"y":2540937.9700000025}},{"attributes":{"ID":580431,"DIS_CODE":0,"TOWNNAME":"東區","LI":"崇明里","LIN":"16鄰","STREET":"崇明路","SECT":" ","MAREA":" ","LANE":" ","ALLEY":" ","HOUSE_NO":"９７２號","E_COORD97":170590.14000000001,"N_COORD97":2540931.8900000001,"ADDRESS":"崇明路９７２號","OBJECTID":580404},"geometry":{"x":170590.13999999966,"y":2540931.8900000025}},{"attributes":{"ID":580432,"DIS_CODE":0,"TOWNNAME":"東區","LI":"崇明里","LIN":"16鄰","STREET":"崇明路","SECT":" ","MAREA":" ","LANE":" ","ALLEY":" ","HOUSE_NO":"９７６號","E_COORD97":170589.57999999999,"N_COORD97":2540924.6699999999,"ADDRESS":"崇明路９７６號","OBJECTID":580405},"geometry":{"x":170589.58000000194,"y":2540924.6700000018}},{"attributes":{"ID":580433,"DIS_CODE":0,"TOWNNAME":"東區","LI":"崇明里","LIN":"16鄰","STREET":"崇明路","SECT":" ","MAREA":" ","LANE":" ","ALLEY":" ","HOUSE_NO":"９７８號","E_COORD97":170590,"N_COORD97":2540918.8799999999,"ADDRESS":"崇明路９７８號","OBJECTID":580406},"geometry":{"x":170590.00000000186,"y":2540918.8800000008}},{"attributes":{"ID":580434,"DIS_CODE":0,"TOWNNAME":"東區","LI":"崇明里","LIN":"16鄰","STREET":"崇明路","SECT":" ","MAREA":" ","LANE":" ","ALLEY":" ","HOUSE_NO":"９８０號","E_COORD97":170589.72,"N_COORD97":2540913.9300000002,"ADDRESS":"崇明路９８０號","OBJECTID":580407},"geometry":{"x":170589.71999999974,"y":2540913.9299999997}},{"attributes":{"ID":580435,"DIS_CODE":0,"TOWNNAME":"東區","LI":"崇明里","LIN":"16鄰","STREET":"崇明路","SECT":" ","MAREA":" ","LANE":" ","ALLEY":" ","HOUSE_NO":"９８２號","E_COORD97":170589.57999999999,"N_COORD97":2540907.8500000001,"ADDRESS":"崇明路９８２號","OBJECTID":580408},"geometry":{"x":170589.58000000194,"y":2540907.8499999996}},{"attributes":{"ID":580436,"DIS_CODE":0,"TOWNNAME":"東區","LI":"崇明里","LIN":"16鄰","STREET":"崇明路","SECT":" ","MAREA":" ","LANE":" ","ALLEY":" ","HOUSE_NO":"９８６號","E_COORD97":170589.29000000001,"N_COORD97":2540901.77,"ADDRESS":"崇明路９８６號","OBJECTID":580409},"geometry":{"x":170589.29000000004,"y":2540901.7699999996}},{"attributes":{"ID":580437,"DIS_CODE":0,"TOWNNAME":"東區","LI":"崇明里","LIN":"16鄰","STREET":"崇明路","SECT":" ","MAREA":" ","LANE":" ","ALLEY":" ","HOUSE_NO":"９８８號","E_COORD97":170589.44,"N_COORD97":2540894.8399999999,"ADDRESS":"崇明路９８８號","OBJECTID":580410},"geometry":{"x":170589.44000000134,"y":2540894.8399999999}},{"attributes":{"ID":580438,"DIS_CODE":0,"TOWNNAME":"東區","LI":"崇明里","LIN":"16鄰","STREET":"崇明路","SECT":" ","MAREA":" ","LANE":" ","ALLEY":" ","HOUSE_NO":"９９０號","E_COORD97":170589.57999999999,"N_COORD97":2540888.0499999998,"ADDRESS":"崇明路９９０號","OBJECTID":580411},"geometry":{"x":170589.58000000194,"y":2540888.0500000007}},{"attributes":{"ID":580439,"DIS_CODE":0,"TOWNNAME":"東區","LI":"崇明里","LIN":"16鄰","STREET":"崇明路","SECT":" ","MAREA":" ","LANE":" ","ALLEY":" ","HOUSE_NO":"９９２號","E_COORD97":170589.57999999999,"N_COORD97":2540878.7200000002,"ADDRESS":"崇明路９９２號","OBJECTID":580412},"geometry":{"x":170589.58000000194,"y":2540878.7200000025}},{"attributes":{"ID":580440,"DIS_CODE":0,"TOWNNAME":"東區","LI":"崇明里","LIN":"16鄰","STREET":"崇明路","SECT":" ","MAREA":" ","LANE":" ","ALLEY":" ","HOUSE_NO":"９９８號","E_COORD97":170576.28,"N_COORD97":2540835.2999999998,"ADDRESS":"崇明路９９８號","OBJECTID":580413},"geometry":{"x":170576.28000000026,"y":2540835.3000000007}},{"attributes":{"ID":580441,"DIS_CODE":0,"TOWNNAME":"東區","LI":"崇明里","LIN":"16鄰","STREET":"崇明路","SECT":" ","MAREA":" ","LANE":" ","ALLEY":" ","HOUSE_NO":"９９６號","E_COORD97":170590.42999999999,"N_COORD97":2540845.3399999999,"ADDRESS":"崇明路９９６號","OBJECTID":580414},"geometry":{"x":170590.43000000063,"y":2540845.3400000017}},{"attributes":{"ID":580442,"DIS_CODE":0,"TOWNNAME":"東區","LI":"南聖里","LIN":"16鄰","STREET":"裕信路","SECT":" ","MAREA":" ","LANE":" ","ALLEY":" ","HOUSE_NO":"３１號","E_COORD97":172619.60000000001,"N_COORD97":2543276.3799999999,"ADDRESS":"裕信路３１號","OBJECTID":580415},"geometry":{"x":172619.5999999987,"y":2543276.3800000008}},{"attributes":{"ID":580443,"DIS_CODE":0,"TOWNNAME":"東區","LI":"南聖里","LIN":"16鄰","STREET":"裕和五街","SECT":" ","MAREA":" ","LANE":" ","ALLEY":" ","HOUSE_NO":"３９號","E_COORD97":172825.22,"N_COORD97":2543242.2599999998,"ADDRESS":"裕和五街３９號","OBJECTID":580416},"geometry":{"x":172825.21999999974,"y":2543242.2599999979}},{"attributes":{"ID":580444,"DIS_CODE":0,"TOWNNAME":"東區","LI":"南聖里","LIN":"16鄰","STREET":"裕和五街","SECT":" ","MAREA":" ","LANE":" ","ALLEY":" ","HOUSE_NO":"３５號","E_COORD97":172824.03,"N_COORD97":2543252.1400000001,"ADDRESS":"裕和五街３５號","OBJECTID":580417},"geometry":{"x":172824.03000000026,"y":2543252.1400000025}},{"attributes":{"ID":580445,"DIS_CODE":0,"TOWNNAME":"東區","LI":"南聖里","LIN":"16鄰","STREET":"裕和五街","SECT":" ","MAREA":" ","LANE":" ","ALLEY":" ","HOUSE_NO":"３７號","E_COORD97":172824.03,"N_COORD97":2543247.6499999999,"ADDRESS":"裕和五街３７號","OBJECTID":580418},"geometry":{"x":172824.03000000026,"y":2543247.6500000022}},{"attributes":{"ID":580446,"DIS_CODE":0,"TOWNNAME":"東區","LI":"裕聖里","LIN":"16鄰","STREET":"裕孝路","SECT":" ","MAREA":" ","LANE":" ","ALLEY":" ","HOUSE_NO":"８００號","E_COORD97":172419.98000000001,"N_COORD97":2542083.0600000001,"ADDRESS":"裕孝路８００號","OBJECTID":580419},"geometry":{"x":172419.98000000138,"y":2542083.0600000024}},{"attributes":{"ID":580447,"DIS_CODE":0,"TOWNNAME":"東區","LI":"裕聖里","LIN":"16鄰","STREET":"裕孝路","SECT":" ","MAREA":" ","LANE":" ","ALLEY":" ","HOUSE_NO":"８０２號","E_COORD97":172414.79999999999,"N_COORD97":2542082.5,"ADDRESS":"裕孝路８０２號","OBJECTID":580420},"geometry":{"x":172414.79999999981,"y":2542082.5000000019}},{"attributes":{"ID":580448,"DIS_CODE":0,"TOWNNAME":"東區","LI":"裕聖里","LIN":"16鄰","STREET":"裕孝路","SECT":" ","MAREA":" ","LANE":" ","ALLEY":" ","HOUSE_NO":"８０６號","E_COORD97":172409.14000000001,"N_COORD97":2542083.6299999999,"ADDRESS":"裕孝路８０６號","OBJECTID":580421},"geometry":{"x":172409.13999999966,"y":2542083.6300000008}},{"attributes":{"ID":580449,"DIS_CODE":0,"TOWNNAME":"東區","LI":"裕聖里","LIN":"16鄰","STREET":"裕孝路","SECT":" ","MAREA":" ","LANE":" ","ALLEY":" ","HOUSE_NO":"８０８號","E_COORD97":172403.95999999999,"N_COORD97":2542082.8199999998,"ADDRESS":"裕孝路８０８號","OBJECTID":580422},"geometry":{"x":172403.95999999903,"y":2542082.8200000003}},{"attributes":{"ID":580450,"DIS_CODE":0,"TOWNNAME":"東區","LI":"裕聖里","LIN":"16鄰","STREET":"裕孝路","SECT":" ","MAREA":" ","LANE":" ","ALLEY":" ","HOUSE_NO":"８１０號","E_COORD97":172398.13,"N_COORD97":2542083.79,"ADDRESS":"裕孝路８１０號","OBJECTID":580423},"geometry":{"x":172398.13000000082,"y":2542083.7899999991}},{"attributes":{"ID":580451,"DIS_CODE":0,"TOWNNAME":"東區","LI":"裕聖里","LIN":"16鄰","STREET":"裕孝路","SECT":" ","MAREA":" ","LANE":" ","ALLEY":" ","HOUSE_NO":"８１２號","E_COORD97":172391.17000000001,"N_COORD97":2542082.98,"ADDRESS":"裕孝路８１２號","OBJECTID":580424},"geometry":{"x":172391.17000000086,"y":2542082.9800000023}},{"attributes":{"ID":580452,"DIS_CODE":0,"TOWNNAME":"東區","LI":"裕聖里","LIN":"16鄰","STREET":"裕孝路","SECT":" ","MAREA":" ","LANE":" ","ALLEY":" ","HOUSE_NO":"８１６號","E_COORD97":172383.73000000001,"N_COORD97":2542083.1499999999,"ADDRESS":"裕孝路８１６號","OBJECTID":580425},"geometry":{"x":172383.73000000045,"y":2542083.1500000004}},{"attributes":{"ID":580453,"DIS_CODE":0,"TOWNNAME":"東區","LI":"裕聖里","LIN":"16鄰","STREET":"裕孝路","SECT":" ","MAREA":" ","LANE":" ","ALLEY":" ","HOUSE_NO":"８１８號","E_COORD97":172376.44,"N_COORD97":2542083.4700000002,"ADDRESS":"裕孝路８１８號","OBJECTID":580426},"geometry":{"x":172376.44000000134,"y":2542083.4700000025}},{"attributes":{"ID":580454,"DIS_CODE":0,"TOWNNAME":"東區","LI":"裕聖里","LIN":"16鄰","STREET":"裕孝路","SECT":" ","MAREA":" ","LANE":" ","ALLEY":" ","HOUSE_NO":"８２０號","E_COORD97":172375.95999999999,"N_COORD97":2542074.0800000001,"ADDRESS":"裕孝路８２０號","OBJECTID":580427},"geometry":{"x":172375.96000000089,"y":2542074.0799999982}},{"attributes":{"ID":580455,"DIS_CODE":0,"TOWNNAME":"東區","LI":"裕聖里","LIN":"16鄰","STREET":"裕孝路","SECT":" ","MAREA":" ","LANE":" ","ALLEY":" ","HOUSE_NO":"８２２號","E_COORD97":172382.59,"N_COORD97":2542074.0800000001,"ADDRESS":"裕孝路８２２號","OBJECTID":580428},"geometry":{"x":172382.58999999892,"y":2542074.0799999982}},{"attributes":{"ID":580456,"DIS_CODE":0,"TOWNNAME":"東區","LI":"裕聖里","LIN":"16鄰","STREET":"裕孝路","SECT":" ","MAREA":" ","LANE":" ","ALLEY":" ","HOUSE_NO":"８２６號","E_COORD97":172388.42000000001,"N_COORD97":2542074.2400000002,"ADDRESS":"裕孝路８２６號","OBJECTID":580429},"geometry":{"x":172388.41999999993,"y":2542074.2400000021}},{"attributes":{"ID":580457,"DIS_CODE":0,"TOWNNAME":"東區","LI":"裕聖里","LIN":"16鄰","STREET":"裕孝路","SECT":" ","MAREA":" ","LANE":" ","ALLEY":" ","HOUSE_NO":"８２８號","E_COORD97":172395.38,"N_COORD97":2542074.8900000001,"ADDRESS":"裕孝路８２８號","OBJECTID":580430},"geometry":{"x":172395.37999999989,"y":2542074.8900000006}},{"attributes":{"ID":580458,"DIS_CODE":0,"TOWNNAME":"東區","LI":"裕聖里","LIN":"16鄰","STREET":"裕孝路","SECT":" ","MAREA":" ","LANE":" ","ALLEY":" ","HOUSE_NO":"８３０號","E_COORD97":172402.01999999999,"N_COORD97":2542073.9199999999,"ADDRESS":"裕孝路８３０號","OBJECTID":580431},"geometry":{"x":172402.02000000048,"y":2542073.9199999999}},{"attributes":{"ID":580459,"DIS_CODE":0,"TOWNNAME":"東區","LI":"裕聖里","LIN":"16鄰","STREET":"裕孝路","SECT":" ","MAREA":" ","LANE":" ","ALLEY":" ","HOUSE_NO":"８３２號","E_COORD97":172408,"N_COORD97":2542073.6000000001,"ADDRESS":"裕孝路８３２號","OBJECTID":580432},"geometry":{"x":172408.00000000093,"y":2542073.6000000034}},{"attributes":{"ID":580460,"DIS_CODE":0,"TOWNNAME":"東區","LI":"裕聖里","LIN":"16鄰","STREET":"裕孝路","SECT":" ","MAREA":" ","LANE":" ","ALLEY":" ","HOUSE_NO":"８３６號","E_COORD97":172413.82999999999,"N_COORD97":2542073.7599999998,"ADDRESS":"裕孝路８３６號","OBJECTID":580433},"geometry":{"x":172413.83000000101,"y":2542073.7600000016}},{"attributes":{"ID":580461,"DIS_CODE":0,"TOWNNAME":"東區","LI":"裕聖里","LIN":"16鄰","STREET":"裕孝路","SECT":" ","MAREA":" ","LANE":" ","ALLEY":" ","HOUSE_NO":"８３８號","E_COORD97":172420.63,"N_COORD97":2542073.6000000001,"ADDRESS":"裕孝路８３８號","OBJECTID":580434},"geometry":{"x":172420.62999999989,"y":2542073.6000000034}},{"attributes":{"ID":580462,"DIS_CODE":0,"TOWNNAME":"東區","LI":"南聖里","LIN":"16鄰","STREET":"裕義路","SECT":" ","MAREA":" ","LANE":" ","ALLEY":" ","HOUSE_NO":"１００號","E_COORD97":172862.64000000001,"N_COORD97":2543186.2999999998,"ADDRESS":"裕義路１００號","OBJECTID":580435},"geometry":{"x":172862.6400000006,"y":2543186.3000000026}},{"attributes":{"ID":580463,"DIS_CODE":0,"TOWNNAME":"東區","LI":"崇明里","LIN":"16鄰","STREET":"崇明路","SECT":" ","MAREA":" ","LANE":" ","ALLEY":" ","HOUSE_NO":"６０８號","E_COORD97":170538.03,"N_COORD97":2541438.1600000001,"ADDRESS":"崇明路６０８號","OBJECTID":580436},"geometry":{"x":170538.03000000119,"y":2541438.1600000001}},{"attributes":{"ID":580464,"DIS_CODE":0,"TOWNNAME":"東區","LI":"忠孝里","LIN":"16鄰","STREET":"榮譽街","SECT":" ","MAREA":" ","LANE":" ","ALLEY":" ","HOUSE_NO":"１０９之１號","E_COORD97":169844.53,"N_COORD97":2541761.6699999999,"ADDRESS":"榮譽街１０９之１號","OBJECTID":580437},"geometry":{"x":169844.53000000119,"y":2541761.6700000037}},{"attributes":{"ID":580465,"DIS_CODE":0,"TOWNNAME":"東區","LI":"忠孝里","LIN":"16鄰","STREET":"榮譽街","SECT":" ","MAREA":" ","LANE":" ","ALLEY":" ","HOUSE_NO":"１０９之２號","E_COORD97":169841.26000000001,"N_COORD97":2541768.4399999999,"ADDRESS":"榮譽街１０９之２號","OBJECTID":580438},"geometry":{"x":169841.25999999978,"y":2541768.4399999995}},{"attributes":{"ID":580466,"DIS_CODE":0,"TOWNNAME":"東區","LI":"裕聖里","LIN":"16鄰","STREET":"裕孝路","SECT":" ","MAREA":" ","LANE":" ","ALLEY":" ","HOUSE_NO":"９１８號","E_COORD97":172379.28,"N_COORD97":2542011.7400000002,"ADDRESS":"裕孝路９１８號","OBJECTID":580439},"geometry":{"x":172379.28000000119,"y":2542011.7400000002}},{"attributes":{"ID":580467,"DIS_CODE":0,"TOWNNAME":"東區","LI":"泉南里","LIN":"16鄰","STREET":"府連路","SECT":" ","MAREA":" ","LANE":" ","ALLEY":" ","HOUSE_NO":"３４５號","E_COORD97":169616.31,"N_COORD97":2542840.5299999998,"ADDRESS":"府連路３４５號","OBJECTID":580440},"geometry":{"x":169616.31000000052,"y":2542840.5300000012}},{"attributes":{"ID":580468,"DIS_CODE":0,"TOWNNAME":"東區","LI":"裕聖里","LIN":"16鄰","STREET":"裕孝路","SECT":" ","MAREA":" ","LANE":" ","ALLEY":" ","HOUSE_NO":"８９６號","E_COORD97":172422.62,"N_COORD97":2542023.5,"ADDRESS":"裕孝路８９６號","OBJECTID":580441},"geometry":{"x":172422.62000000011,"y":2542023.5}},{"attributes":{"ID":580469,"DIS_CODE":0,"TOWNNAME":"東區","LI":"裕聖里","LIN":"16鄰","STREET":"裕孝路","SECT":" ","MAREA":" ","LANE":" ","ALLEY":" ","HOUSE_NO":"８９８號","E_COORD97":172422.62,"N_COORD97":2542018.77,"ADDRESS":"裕孝路８９８號","OBJECTID":580442},"geometry":{"x":172422.62000000011,"y":2542018.7700000014}},{"attributes":{"ID":580470,"DIS_CODE":0,"TOWNNAME":"東區","LI":"裕聖里","LIN":"16鄰","STREET":"裕孝路","SECT":" ","MAREA":" ","LANE":" ","ALLEY":" ","HOUSE_NO":"９００號","E_COORD97":172417.14999999999,"N_COORD97":2542019.1099999999,"ADDRESS":"裕孝路９００號","OBJECTID":580443},"geometry":{"x":172417.1500000013,"y":2542019.1100000031}},{"attributes":{"ID":580471,"DIS_CODE":0,"TOWNNAME":"東區","LI":"裕聖里","LIN":"16鄰","STREET":"裕孝路","SECT":" ","MAREA":" ","LANE":" ","ALLEY":" ","HOUSE_NO":"９０２號","E_COORD97":172411.45000000001,"N_COORD97":2542018.8900000001,"ADDRESS":"裕孝路９０２號","OBJECTID":580444},"geometry":{"x":172411.45000000112,"y":2542018.8900000025}},{"attributes":{"ID":580472,"DIS_CODE":0,"TOWNNAME":"東區","LI":"裕聖里","LIN":"16鄰","STREET":"裕孝路","SECT":" ","MAREA":" ","LANE":" ","ALLEY":" ","HOUSE_NO":"９０６號","E_COORD97":172404.75,"N_COORD97":2542018.7799999998,"ADDRESS":"裕孝路９０６號","OBJECTID":580445},"geometry":{"x":172404.75,"y":2542018.7800000012}},{"attributes":{"ID":580473,"DIS_CODE":0,"TOWNNAME":"東區","LI":"裕聖里","LIN":"16鄰","STREET":"裕孝路","SECT":" ","MAREA":" ","LANE":" ","ALLEY":" ","HOUSE_NO":"９０８號","E_COORD97":172398.82999999999,"N_COORD97":2542018.8900000001,"ADDRESS":"裕孝路９０８號","OBJECTID":580446},"geometry":{"x":172398.83000000101,"y":2542018.8900000025}},{"attributes":{"ID":580474,"DIS_CODE":0,"TOWNNAME":"東區","LI":"裕聖里","LIN":"16鄰","STREET":"裕孝路","SECT":" ","MAREA":" ","LANE":" ","ALLEY":" ","HOUSE_NO":"９１０號","E_COORD97":172393.57999999999,"N_COORD97":2542019.1099999999,"ADDRESS":"裕孝路９１０號","OBJECTID":580447},"geometry":{"x":172393.58000000101,"y":2542019.1100000031}},{"attributes":{"ID":580475,"DIS_CODE":0,"TOWNNAME":"東區","LI":"裕聖里","LIN":"16鄰","STREET":"裕孝路","SECT":" ","MAREA":" ","LANE":" ","ALLEY":" ","HOUSE_NO":"９１２號","E_COORD97":172387.20999999999,"N_COORD97":2542019,"ADDRESS":"裕孝路９１２號","OBJECTID":580448},"geometry":{"x":172387.21000000183,"y":2542019}},{"attributes":{"ID":580476,"DIS_CODE":0,"TOWNNAME":"東區","LI":"裕聖里","LIN":"16鄰","STREET":"裕孝路","SECT":" ","MAREA":" ","LANE":" ","ALLEY":" ","HOUSE_NO":"９１６號","E_COORD97":172379.60999999999,"N_COORD97":2542019.5600000001,"ADDRESS":"裕孝路９１６號","OBJECTID":580449},"geometry":{"x":172379.6099999994,"y":2542019.5600000005}},{"attributes":{"ID":580477,"DIS_CODE":0,"TOWNNAME":"東區","LI":"裕聖里","LIN":"16鄰","STREET":"裕孝路","SECT":" ","MAREA":" ","LANE":" ","ALLEY":" ","HOUSE_NO":"９３６號","E_COORD97":172422.06,"N_COORD97":2542012.0699999998,"ADDRESS":"裕孝路９３６號","OBJECTID":580450},"geometry":{"x":172422.06000000052,"y":2542012.0700000003}},{"attributes":{"ID":580478,"DIS_CODE":0,"TOWNNAME":"東區","LI":"裕聖里","LIN":"16鄰","STREET":"裕孝路","SECT":" ","MAREA":" ","LANE":" ","ALLEY":" ","HOUSE_NO":"９３８號","E_COORD97":172422.06,"N_COORD97":2542007.27,"ADDRESS":"裕孝路９３８號","OBJECTID":580451},"geometry":{"x":172422.06000000052,"y":2542007.2699999996}},{"attributes":{"ID":580479,"DIS_CODE":0,"TOWNNAME":"東區","LI":"裕聖里","LIN":"16鄰","STREET":"裕孝路","SECT":" ","MAREA":" ","LANE":" ","ALLEY":" ","HOUSE_NO":"９５０號","E_COORD97":172422.06,"N_COORD97":2542001.5699999998,"ADDRESS":"裕孝路９５０號","OBJECTID":580452},"geometry":{"x":172422.06000000052,"y":2542001.5700000022}},{"attributes":{"ID":580480,"DIS_CODE":0,"TOWNNAME":"東區","LI":"裕聖里","LIN":"16鄰","STREET":"裕孝路","SECT":" ","MAREA":" ","LANE":" ","ALLEY":" ","HOUSE_NO":"９５２號","E_COORD97":172421.84,"N_COORD97":2541997.3300000001,"ADDRESS":"裕孝路９５２號","OBJECTID":580453},"geometry":{"x":172421.84000000078,"y":2541997.3300000001}},{"attributes":{"ID":580481,"DIS_CODE":0,"TOWNNAME":"東區","LI":"裕聖里","LIN":"16鄰","STREET":"裕孝路","SECT":" ","MAREA":" ","LANE":" ","ALLEY":" ","HOUSE_NO":"９５６號","E_COORD97":172416.35999999999,"N_COORD97":2541998.2200000002,"ADDRESS":"裕孝路９５６號","OBJECTID":580454},"geometry":{"x":172416.36000000034,"y":2541998.2200000007}},{"attributes":{"ID":580482,"DIS_CODE":0,"TOWNNAME":"東區","LI":"裕聖里","LIN":"16鄰","STREET":"裕孝路","SECT":" ","MAREA":" ","LANE":" ","ALLEY":" ","HOUSE_NO":"９５８號","E_COORD97":172410.54999999999,"N_COORD97":2541998.5600000001,"ADDRESS":"裕孝路９５８號","OBJECTID":580455},"geometry":{"x":172410.55000000075,"y":2541998.5600000024}},{"attributes":{"ID":580483,"DIS_CODE":0,"TOWNNAME":"東區","LI":"裕聖里","LIN":"16鄰","STREET":"裕孝路","SECT":" ","MAREA":" ","LANE":" ","ALLEY":" ","HOUSE_NO":"９６０號","E_COORD97":172404.75,"N_COORD97":2541998.7799999998,"ADDRESS":"裕孝路９６０號","OBJECTID":580456},"geometry":{"x":172404.75,"y":2541998.7800000012}},{"attributes":{"ID":580484,"DIS_CODE":0,"TOWNNAME":"東區","LI":"裕聖里","LIN":"16鄰","STREET":"裕孝路","SECT":" ","MAREA":" ","LANE":" ","ALLEY":" ","HOUSE_NO":"９６２號","E_COORD97":172397.92999999999,"N_COORD97":2541999.5600000001,"ADDRESS":"裕孝路９６２號","OBJECTID":580457},"geometry":{"x":172397.93000000063,"y":2541999.5600000005}},{"attributes":{"ID":580485,"DIS_CODE":0,"TOWNNAME":"東區","LI":"裕聖里","LIN":"16鄰","STREET":"裕孝路","SECT":" ","MAREA":" ","LANE":" ","ALLEY":" ","HOUSE_NO":"９６６號","E_COORD97":172392.23000000001,"N_COORD97":2541999.4500000002,"ADDRESS":"裕孝路９６６號","OBJECTID":580458},"geometry":{"x":172392.23000000045,"y":2541999.4499999993}},{"attributes":{"ID":580486,"DIS_CODE":0,"TOWNNAME":"東區","LI":"裕聖里","LIN":"16鄰","STREET":"裕孝路","SECT":" ","MAREA":" ","LANE":" ","ALLEY":" ","HOUSE_NO":"９６８號","E_COORD97":172385.76000000001,"N_COORD97":2541999.8999999999,"ADDRESS":"裕孝路９６８號","OBJECTID":580459},"geometry":{"x":172385.75999999978,"y":2541999.9000000004}},{"attributes":{"ID":580487,"DIS_CODE":0,"TOWNNAME":"東區","LI":"裕聖里","LIN":"16鄰","STREET":"裕孝路","SECT":" ","MAREA":" ","LANE":" ","ALLEY":" ","HOUSE_NO":"９７０號","E_COORD97":172378.94,"N_COORD97":2541999.79,"ADDRESS":"裕孝路９７０號","OBJECTID":580460},"geometry":{"x":172378.94000000041,"y":2541999.7899999991}},{"attributes":{"ID":580488,"DIS_CODE":0,"TOWNNAME":"東區","LI":"裕聖里","LIN":"16鄰","STREET":"裕孝路","SECT":" ","MAREA":" ","LANE":" ","ALLEY":" ","HOUSE_NO":"９７２號","E_COORD97":172370.23000000001,"N_COORD97":2542000.0099999998,"ADDRESS":"裕孝路９７２號","OBJECTID":580461},"geometry":{"x":172370.23000000045,"y":2542000.0100000035}},{"attributes":{"ID":580489,"DIS_CODE":0,"TOWNNAME":"東區","LI":"裕聖里","LIN":"16鄰","STREET":"裕孝路","SECT":" ","MAREA":" ","LANE":" ","ALLEY":" ","HOUSE_NO":"９７６號","E_COORD97":172362.97,"N_COORD97":2541989.3999999999,"ADDRESS":"裕孝路９７６號","OBJECTID":580462},"geometry":{"x":172362.96999999881,"y":2541989.4000000004}},{"attributes":{"ID":580490,"DIS_CODE":0,"TOWNNAME":"東區","LI":"裕聖里","LIN":"16鄰","STREET":"裕孝路","SECT":" ","MAREA":" ","LANE":" ","ALLEY":" ","HOUSE_NO":"９７８號","E_COORD97":172368.10999999999,"N_COORD97":2541989.3999999999,"ADDRESS":"裕孝路９７８號","OBJECTID":580463},"geometry":{"x":172368.11000000127,"y":2541989.4000000004}},{"attributes":{"ID":580491,"DIS_CODE":0,"TOWNNAME":"東區","LI":"裕聖里","LIN":"16鄰","STREET":"裕孝路","SECT":" ","MAREA":" ","LANE":" ","ALLEY":" ","HOUSE_NO":"９８０號","E_COORD97":172374.25,"N_COORD97":2541989.8399999999,"ADDRESS":"裕孝路９８０號","OBJECTID":580464},"geometry":{"x":172374.25,"y":2541989.8399999999}},{"attributes":{"ID":580492,"DIS_CODE":0,"TOWNNAME":"東區","LI":"裕聖里","LIN":"16鄰","STREET":"裕孝路","SECT":" ","MAREA":" ","LANE":" ","ALLEY":" ","HOUSE_NO":"９８２號","E_COORD97":172381.39999999999,"N_COORD97":2541989.73,"ADDRESS":"裕孝路９８２號","OBJECTID":580465},"geometry":{"x":172381.4000000013,"y":2541989.7300000023}},{"attributes":{"ID":580493,"DIS_CODE":0,"TOWNNAME":"東區","LI":"裕聖里","LIN":"16鄰","STREET":"裕孝路","SECT":" ","MAREA":" ","LANE":" ","ALLEY":" ","HOUSE_NO":"９８６號","E_COORD97":172390.34,"N_COORD97":2541989.5099999998,"ADDRESS":"裕孝路９８６號","OBJECTID":580466},"geometry":{"x":172390.33999999985,"y":2541989.5099999979}},{"attributes":{"ID":580494,"DIS_CODE":0,"TOWNNAME":"東區","LI":"裕聖里","LIN":"16鄰","STREET":"裕孝路","SECT":" ","MAREA":" ","LANE":" ","ALLEY":" ","HOUSE_NO":"９８８號","E_COORD97":172415.13,"N_COORD97":2541986.3799999999,"ADDRESS":"裕孝路９８８號","OBJECTID":580467},"geometry":{"x":172415.13000000082,"y":2541986.3800000027}},{"attributes":{"ID":580495,"DIS_CODE":0,"TOWNNAME":"東區","LI":"裕聖里","LIN":"16鄰","STREET":"裕孝路","SECT":" ","MAREA":" ","LANE":" ","ALLEY":" ","HOUSE_NO":"９９０號","E_COORD97":172421.72,"N_COORD97":2541986.27,"ADDRESS":"裕孝路９９０號","OBJECTID":580468},"geometry":{"x":172421.71999999974,"y":2541986.2699999996}},{"attributes":{"ID":580496,"DIS_CODE":0,"TOWNNAME":"東區","LI":"裕聖里","LIN":"16鄰","STREET":"裕孝路","SECT":" ","MAREA":" ","LANE":" ","ALLEY":" ","HOUSE_NO":"９９２號","E_COORD97":172422.17000000001,"N_COORD97":2541978.4500000002,"ADDRESS":"裕孝路９９２號","OBJECTID":580469},"geometry":{"x":172422.16999999993,"y":2541978.4499999993}},{"attributes":{"ID":580497,"DIS_CODE":0,"TOWNNAME":"東區","LI":"後甲里","LIN":"16鄰","STREET":"裕農路","SECT":" ","MAREA":" ","LANE":" ","ALLEY":" ","HOUSE_NO":"５９１號","E_COORD97":171508.19,"N_COORD97":2543239.1099999999,"ADDRESS":"裕農路５９１號","OBJECTID":580470},"geometry":{"x":171508.19000000134,"y":2543239.1099999994}},{"attributes":{"ID":580498,"DIS_CODE":0,"TOWNNAME":"東區","LI":"龍山里","LIN":"16鄰","STREET":"光華街","SECT":" ","MAREA":" ","LANE":" ","ALLEY":" ","HOUSE_NO":"１０８號之２","E_COORD97":169705.5,"N_COORD97":2542947.4500000002,"ADDRESS":"光華街１０８號之２","OBJECTID":580471},"geometry":{"x":169705.50000000093,"y":2542947.4499999993}},{"attributes":{"ID":580499,"DIS_CODE":0,"TOWNNAME":"東區","LI":"龍山里","LIN":"16鄰","STREET":"光華街","SECT":" ","MAREA":" ","LANE":" ","ALLEY":" ","HOUSE_NO":"１０８號之３","E_COORD97":169703.42999999999,"N_COORD97":2542951.0499999998,"ADDRESS":"光華街１０８號之３","OBJECTID":580472},"geometry":{"x":169703.42999999877,"y":2542951.0500000026}},{"attributes":{"ID":580500,"DIS_CODE":0,"TOWNNAME":"東區","LI":"龍山里","LIN":"16鄰","STREET":"光華街","SECT":" ","MAREA":" ","LANE":" ","ALLEY":" ","HOUSE_NO":"１０８號之４","E_COORD97":169700.17000000001,"N_COORD97":2542954.8300000001,"ADDRESS":"光華街１０８號之４","OBJECTID":580473},"geometry":{"x":169700.16999999993,"y":2542954.8300000019}},{"attributes":{"ID":580501,"DIS_CODE":0,"TOWNNAME":"東區","LI":"龍山里","LIN":"16鄰","STREET":"光華街","SECT":" ","MAREA":" ","LANE":" ","ALLEY":" ","HOUSE_NO":"１０８號之５","E_COORD97":169691.57000000001,"N_COORD97":2542961.8700000001,"ADDRESS":"光華街１０８號之５","OBJECTID":580474},"geometry":{"x":169691.57000000123,"y":2542961.8700000048}},{"attributes":{"ID":580502,"DIS_CODE":0,"TOWNNAME":"東區","LI":"大學里","LIN":"16鄰","STREET":"東寧路","SECT":" ","MAREA":" ","LANE":" ","ALLEY":" ","HOUSE_NO":"６７號","E_COORD97":170257.14999999999,"N_COORD97":2543603.6099999999,"ADDRESS":"東寧路６７號","OBJECTID":580475},"geometry":{"x":170257.15000000224,"y":2543603.6100000013}},{"attributes":{"ID":580503,"DIS_CODE":0,"TOWNNAME":"東區","LI":"大學里","LIN":"16鄰","STREET":"東寧路","SECT":" ","MAREA":" ","LANE":" ","ALLEY":" ","HOUSE_NO":"６９號","E_COORD97":170262.57000000001,"N_COORD97":2543601.46,"ADDRESS":"東寧路６９號","OBJECTID":580476},"geometry":{"x":170262.57000000216,"y":2543601.459999999}},{"attributes":{"ID":580504,"DIS_CODE":0,"TOWNNAME":"東區","LI":"大學里","LIN":"16鄰","STREET":"東寧路","SECT":" ","MAREA":" ","LANE":" ","ALLEY":" ","HOUSE_NO":"６５號","E_COORD97":170252.35000000001,"N_COORD97":2543606.04,"ADDRESS":"東寧路６５號","OBJECTID":580477},"geometry":{"x":170252.35000000056,"y":2543606.0400000028}},{"attributes":{"ID":580505,"DIS_CODE":0,"TOWNNAME":"東區","LI":"後甲里","LIN":"16鄰","STREET":"裕農路","SECT":" ","MAREA":" ","LANE":" ","ALLEY":" ","HOUSE_NO":"５９３號","E_COORD97":171512.29000000001,"N_COORD97":2543235.25,"ADDRESS":"裕農路５９３號","OBJECTID":580478},"geometry":{"x":171512.29000000097,"y":2543235.25}},{"attributes":{"ID":580506,"DIS_CODE":0,"TOWNNAME":"東區","LI":"後甲里","LIN":"16鄰","STREET":"裕農路","SECT":" ","MAREA":" ","LANE":" ","ALLEY":" ","HOUSE_NO":"５９５號","E_COORD97":171515.67000000001,"N_COORD97":2543237.8999999999,"ADDRESS":"裕農路５９５號","OBJECTID":580479},"geometry":{"x":171515.66999999993,"y":2543237.9000000004}},{"attributes":{"ID":580507,"DIS_CODE":0,"TOWNNAME":"東區","LI":"後甲里","LIN":"16鄰","STREET":"裕農路","SECT":" ","MAREA":" ","LANE":" ","ALLEY":" ","HOUSE_NO":"６０１號","E_COORD97":171555.35999999999,"N_COORD97":2543238.7599999998,"ADDRESS":"裕農路６０１號","OBJECTID":580480},"geometry":{"x":171555.36000000034,"y":2543238.7599999998}},{"attributes":{"ID":580508,"DIS_CODE":0,"TOWNNAME":"東區","LI":"大學里","LIN":"16鄰","STREET":"東寧路","SECT":" ","MAREA":" ","LANE":" ","ALLEY":" ","HOUSE_NO":"５９號","E_COORD97":170224.72,"N_COORD97":2543617.0299999998,"ADDRESS":"東寧路５９號","OBJECTID":580481},"geometry":{"x":170224.71999999974,"y":2543617.0300000012}},{"attributes":{"ID":580509,"DIS_CODE":0,"TOWNNAME":"東區","LI":"後甲里","LIN":"16鄰","STREET":"裕農路","SECT":" ","MAREA":" ","LANE":" ","ALLEY":" ","HOUSE_NO":"６０３號","E_COORD97":171559.95000000001,"N_COORD97":2543240.6899999999,"ADDRESS":"裕農路６０３號","OBJECTID":580482},"geometry":{"x":171559.95000000019,"y":2543240.6900000013}},{"attributes":{"ID":580510,"DIS_CODE":0,"TOWNNAME":"東區","LI":"後甲里","LIN":"16鄰","STREET":"裕農路","SECT":" ","MAREA":" ","LANE":" ","ALLEY":" ","HOUSE_NO":"５８３號","E_COORD97":171494.20000000001,"N_COORD97":2543236.7000000002,"ADDRESS":"裕農路５８３號","OBJECTID":580483},"geometry":{"x":171494.20000000112,"y":2543236.7000000011}},{"attributes":{"ID":580511,"DIS_CODE":0,"TOWNNAME":"東區","LI":"後甲里","LIN":"16鄰","STREET":"裕農路","SECT":" ","MAREA":" ","LANE":" ","ALLEY":" ","HOUSE_NO":"５８９號","E_COORD97":171505.29000000001,"N_COORD97":2543235.73,"ADDRESS":"裕農路５８９號","OBJECTID":580484},"geometry":{"x":171505.29000000097,"y":2543235.7300000004}},{"attributes":{"ID":580512,"DIS_CODE":0,"TOWNNAME":"東區","LI":"大學里","LIN":"16鄰","STREET":"東寧路","SECT":" ","MAREA":" ","LANE":" ","ALLEY":" ","HOUSE_NO":"６３號","E_COORD97":170246.14999999999,"N_COORD97":2543608.8300000001,"ADDRESS":"東寧路６３號","OBJECTID":580485},"geometry":{"x":170246.15000000037,"y":2543608.8300000019}},{"attributes":{"ID":580513,"DIS_CODE":0,"TOWNNAME":"南區","LI":"再興里","LIN":"3鄰","STREET":"三和街","SECT":" ","MAREA":" ","LANE":" ","ALLEY":" ","HOUSE_NO":"３號","E_COORD97":167304.28,"N_COORD97":2542400.2599999998,"ADDRESS":"三和街３號","OBJECTID":580486},"geometry":{"x":167304.28000000026,"y":2542400.2599999998}},{"attributes":{"ID":580514,"DIS_CODE":0,"TOWNNAME":"東區","LI":"東光里","LIN":"16鄰","STREET":"莊敬路","SECT":" ","MAREA":" ","LANE":" ","ALLEY":" ","HOUSE_NO":"６０號","E_COORD97":171358.34,"N_COORD97":2543821.8900000001,"ADDRESS":"莊敬路６０號","OBJECTID":580487},"geometry":{"x":171358.33999999985,"y":2543821.8900000006}},{"attributes":{"ID":580515,"DIS_CODE":0,"TOWNNAME":"東區","LI":"東光里","LIN":"16鄰","STREET":"莊敬路","SECT":" ","MAREA":" ","LANE":" ","ALLEY":" ","HOUSE_NO":"６２號","E_COORD97":171358.34,"N_COORD97":2543827.4100000001,"ADDRESS":"莊敬路６２號","OBJECTID":580488},"geometry":{"x":171358.33999999985,"y":2543827.4100000001}},{"attributes":{"ID":580516,"DIS_CODE":0,"TOWNNAME":"東區","LI":"東光里","LIN":"16鄰","STREET":"莊敬路","SECT":" ","MAREA":" ","LANE":" ","ALLEY":" ","HOUSE_NO":"６４號","E_COORD97":171358.54000000001,"N_COORD97":2543831.6200000001,"ADDRESS":"莊敬路６４號","OBJECTID":580489},"geometry":{"x":171358.54000000004,"y":2543831.6200000029}},{"attributes":{"ID":580517,"DIS_CODE":0,"TOWNNAME":"東區","LI":"東光里","LIN":"16鄰","STREET":"莊敬路","SECT":" ","MAREA":" ","LANE":" ","ALLEY":" ","HOUSE_NO":"６６號","E_COORD97":171359.23000000001,"N_COORD97":2543836.1000000001,"ADDRESS":"莊敬路６６號","OBJECTID":580490},"geometry":{"x":171359.23000000138,"y":2543836.0999999996}},{"attributes":{"ID":580518,"DIS_CODE":0,"TOWNNAME":"東區","LI":"東光里","LIN":"16鄰","STREET":"莊敬路","SECT":" ","MAREA":" ","LANE":" ","ALLEY":" ","HOUSE_NO":"６８號","E_COORD97":171359.23000000001,"N_COORD97":2543840.2400000002,"ADDRESS":"莊敬路６８號","OBJECTID":580491},"geometry":{"x":171359.23000000138,"y":2543840.2400000021}},{"attributes":{"ID":580519,"DIS_CODE":0,"TOWNNAME":"東區","LI":"東光里","LIN":"16鄰","STREET":"莊敬路","SECT":" ","MAREA":" ","LANE":" ","ALLEY":" ","HOUSE_NO":"７０號","E_COORD97":171359.63,"N_COORD97":2543844.4900000002,"ADDRESS":"莊敬路７０號","OBJECTID":580492},"geometry":{"x":171359.62999999989,"y":2543844.4900000002}},{"attributes":{"ID":580520,"DIS_CODE":0,"TOWNNAME":"東區","LI":"東光里","LIN":"16鄰","STREET":"莊敬路","SECT":" ","MAREA":" ","LANE":" ","ALLEY":" ","HOUSE_NO":"７２號","E_COORD97":171360.23999999999,"N_COORD97":2543848.54,"ADDRESS":"莊敬路７２號","OBJECTID":580493},"geometry":{"x":171360.24000000115,"y":2543848.5399999991}},{"attributes":{"ID":580521,"DIS_CODE":0,"TOWNNAME":"東區","LI":"東光里","LIN":"16鄰","STREET":"莊敬路","SECT":" ","MAREA":" ","LANE":" ","ALLEY":" ","HOUSE_NO":"７４號","E_COORD97":171360.23999999999,"N_COORD97":2543852.3900000001,"ADDRESS":"莊敬路７４號","OBJECTID":580494},"geometry":{"x":171360.24000000115,"y":2543852.3900000006}},{"attributes":{"ID":580522,"DIS_CODE":0,"TOWNNAME":"東區","LI":"東光里","LIN":"16鄰","STREET":"莊敬路","SECT":" ","MAREA":" ","LANE":" ","ALLEY":" ","HOUSE_NO":"７６號","E_COORD97":171360.64999999999,"N_COORD97":2543857.04,"ADDRESS":"莊敬路７６號","OBJECTID":580495},"geometry":{"x":171360.65000000224,"y":2543857.0400000028}},{"attributes":{"ID":580523,"DIS_CODE":0,"TOWNNAME":"東區","LI":"東光里","LIN":"16鄰","STREET":"莊敬路","SECT":" ","MAREA":" ","LANE":" ","ALLEY":" ","HOUSE_NO":"７８號","E_COORD97":171364.29000000001,"N_COORD97":2543861.0899999999,"ADDRESS":"莊敬路７８號","OBJECTID":580496},"geometry":{"x":171364.29000000004,"y":2543861.0900000017}},{"attributes":{"ID":580524,"DIS_CODE":0,"TOWNNAME":"東區","LI":"東安里","LIN":"16鄰","STREET":"衛國街","SECT":" ","MAREA":" ","LANE":" ","ALLEY":" ","HOUSE_NO":"３１號","E_COORD97":170251.44,"N_COORD97":2543050.48,"ADDRESS":"衛國街３１號","OBJECTID":580497},"geometry":{"x":170251.44000000041,"y":2543050.4800000004}},{"attributes":{"ID":580525,"DIS_CODE":0,"TOWNNAME":"東區","LI":"東安里","LIN":"16鄰","STREET":"衛國街","SECT":" ","MAREA":" ","LANE":" ","ALLEY":" ","HOUSE_NO":"２９號","E_COORD97":170249.17000000001,"N_COORD97":2543043.3199999998,"ADDRESS":"衛國街２９號","OBJECTID":580498},"geometry":{"x":170249.16999999993,"y":2543043.3200000022}},{"attributes":{"ID":580526,"DIS_CODE":0,"TOWNNAME":"東區","LI":"和平里","LIN":"16鄰","STREET":"仁和路","SECT":" ","MAREA":" ","LANE":" ","ALLEY":" ","HOUSE_NO":"７３號之４３","E_COORD97":171355.07999999999,"N_COORD97":2541637.02,"ADDRESS":"仁和路７３號之４３","OBJECTID":580499},"geometry":{"x":171355.08000000007,"y":2541637.0200000033}},{"attributes":{"ID":580527,"DIS_CODE":0,"TOWNNAME":"東區","LI":"和平里","LIN":"16鄰","STREET":"仁和路","SECT":" ","MAREA":" ","LANE":" ","ALLEY":" ","HOUSE_NO":"７３號之３４","E_COORD97":171319.64000000001,"N_COORD97":2541634.6000000001,"ADDRESS":"仁和路７３號之３４","OBJECTID":580500},"geometry":{"x":171319.6400000006,"y":2541634.6000000015}},{"attributes":{"ID":580528,"DIS_CODE":0,"TOWNNAME":"東區","LI":"和平里","LIN":"16鄰","STREET":"仁和路","SECT":" ","MAREA":" ","LANE":" ","ALLEY":" ","HOUSE_NO":"７３號之３５","E_COORD97":171323.53,"N_COORD97":2541634.0699999998,"ADDRESS":"仁和路７３號之３５","OBJECTID":580501},"geometry":{"x":171323.53000000026,"y":2541634.070000004}},{"attributes":{"ID":580529,"DIS_CODE":0,"TOWNNAME":"東區","LI":"和平里","LIN":"16鄰","STREET":"仁和路","SECT":" ","MAREA":" ","LANE":" ","ALLEY":" ","HOUSE_NO":"７３號之３６","E_COORD97":171327.12,"N_COORD97":2541634.6000000001,"ADDRESS":"仁和路７３號之３６","OBJECTID":580502},"geometry":{"x":171327.12000000104,"y":2541634.6000000015}},{"attributes":{"ID":580530,"DIS_CODE":0,"TOWNNAME":"東區","LI":"和平里","LIN":"16鄰","STREET":"仁和路","SECT":" ","MAREA":" ","LANE":" ","ALLEY":" ","HOUSE_NO":"７３號之３７","E_COORD97":171331.57999999999,"N_COORD97":2541635.02,"ADDRESS":"仁和路７３號之３７","OBJECTID":580503},"geometry":{"x":171331.58000000007,"y":2541635.0200000014}},{"attributes":{"ID":580531,"DIS_CODE":0,"TOWNNAME":"東區","LI":"和平里","LIN":"16鄰","STREET":"仁和路","SECT":" ","MAREA":" ","LANE":" ","ALLEY":" ","HOUSE_NO":"７３號之３８","E_COORD97":171334.95999999999,"N_COORD97":2541635.02,"ADDRESS":"仁和路７３號之３８","OBJECTID":580504},"geometry":{"x":171334.96000000089,"y":2541635.0200000014}},{"attributes":{"ID":580532,"DIS_CODE":0,"TOWNNAME":"東區","LI":"和平里","LIN":"16鄰","STREET":"仁和路","SECT":" ","MAREA":" ","LANE":" ","ALLEY":" ","HOUSE_NO":"７３號之３９","E_COORD97":171338.95999999999,"N_COORD97":2541635.5499999998,"ADDRESS":"仁和路７３號之３９","OBJECTID":580505},"geometry":{"x":171338.95999999996,"y":2541635.5500000026}},{"attributes":{"ID":580533,"DIS_CODE":0,"TOWNNAME":"東區","LI":"和平里","LIN":"16鄰","STREET":"仁和路","SECT":" ","MAREA":" ","LANE":" ","ALLEY":" ","HOUSE_NO":"７３號之４０","E_COORD97":171343.39000000001,"N_COORD97":2541635.7599999998,"ADDRESS":"仁和路７３號之４０","OBJECTID":580506},"geometry":{"x":171343.3900000006,"y":2541635.7600000016}},{"attributes":{"ID":580534,"DIS_CODE":0,"TOWNNAME":"東區","LI":"和平里","LIN":"16鄰","STREET":"仁和路","SECT":" ","MAREA":" ","LANE":" ","ALLEY":" ","HOUSE_NO":"７３號之４１","E_COORD97":171347.28,"N_COORD97":2541636.1800000002,"ADDRESS":"仁和路７３號之４１","OBJECTID":580507},"geometry":{"x":171347.28000000026,"y":2541636.1800000016}},{"attributes":{"ID":580535,"DIS_CODE":0,"TOWNNAME":"東區","LI":"和平里","LIN":"16鄰","STREET":"仁和路","SECT":" ","MAREA":" ","LANE":" ","ALLEY":" ","HOUSE_NO":"７３號之５５","E_COORD97":171340.76000000001,"N_COORD97":2541620.1800000002,"ADDRESS":"仁和路７３號之５５","OBJECTID":580508},"geometry":{"x":171340.76000000071,"y":2541620.1800000016}},{"attributes":{"ID":580536,"DIS_CODE":0,"TOWNNAME":"東區","LI":"和平里","LIN":"16鄰","STREET":"仁和路","SECT":" ","MAREA":" ","LANE":" ","ALLEY":" ","HOUSE_NO":"７３號之５６","E_COORD97":171344.45000000001,"N_COORD97":2541620.23,"ADDRESS":"仁和路７３號之５６","OBJECTID":580509},"geometry":{"x":171344.45000000019,"y":2541620.2300000023}},{"attributes":{"ID":580537,"DIS_CODE":0,"TOWNNAME":"東區","LI":"和平里","LIN":"16鄰","STREET":"仁和路","SECT":" ","MAREA":" ","LANE":" ","ALLEY":" ","HOUSE_NO":"７３號之５７","E_COORD97":171348.45000000001,"N_COORD97":2541620.3599999999,"ADDRESS":"仁和路７３號之５７","OBJECTID":580510},"geometry":{"x":171348.45000000112,"y":2541620.3599999994}},{"attributes":{"ID":580538,"DIS_CODE":0,"TOWNNAME":"東區","LI":"和平里","LIN":"16鄰","STREET":"仁和路","SECT":" ","MAREA":" ","LANE":" ","ALLEY":" ","HOUSE_NO":"７３號之５８","E_COORD97":171352.39999999999,"N_COORD97":2541621.1000000001,"ADDRESS":"仁和路７３號之５８","OBJECTID":580511},"geometry":{"x":171352.4000000013,"y":2541621.0999999996}},{"attributes":{"ID":580539,"DIS_CODE":0,"TOWNNAME":"東區","LI":"和平里","LIN":"16鄰","STREET":"仁和路","SECT":" ","MAREA":" ","LANE":" ","ALLEY":" ","HOUSE_NO":"７３號之６０","E_COORD97":171359.70000000001,"N_COORD97":2541622.1000000001,"ADDRESS":"仁和路７３號之６０","OBJECTID":580512},"geometry":{"x":171359.70000000019,"y":2541622.0999999996}},{"attributes":{"ID":580540,"DIS_CODE":0,"TOWNNAME":"東區","LI":"和平里","LIN":"16鄰","STREET":"仁和路","SECT":" ","MAREA":" ","LANE":" ","ALLEY":" ","HOUSE_NO":"７３號之６２","E_COORD97":171368.13,"N_COORD97":2541622.73,"ADDRESS":"仁和路７３號之６２","OBJECTID":580513},"geometry":{"x":171368.12999999989,"y":2541622.7300000042}},{"attributes":{"ID":580541,"DIS_CODE":0,"TOWNNAME":"東區","LI":"和平里","LIN":"16鄰","STREET":"仁和路","SECT":" ","MAREA":" ","LANE":" ","ALLEY":" ","HOUSE_NO":"７３號之６３","E_COORD97":171371.92000000001,"N_COORD97":2541623.04,"ADDRESS":"仁和路７３號之６３","OBJECTID":580514},"geometry":{"x":171371.92000000179,"y":2541623.040000001}},{"attributes":{"ID":580542,"DIS_CODE":0,"TOWNNAME":"東區","LI":"和平里","LIN":"16鄰","STREET":"仁和路","SECT":" ","MAREA":" ","LANE":" ","ALLEY":" ","HOUSE_NO":"７３號之６４","E_COORD97":171376.35000000001,"N_COORD97":2541623.1499999999,"ADDRESS":"仁和路７３號之６４","OBJECTID":580515},"geometry":{"x":171376.34999999963,"y":2541623.1500000041}},{"attributes":{"ID":580543,"DIS_CODE":0,"TOWNNAME":"東區","LI":"和平里","LIN":"16鄰","STREET":"仁和路","SECT":" ","MAREA":" ","LANE":" ","ALLEY":" ","HOUSE_NO":"７３號之６５","E_COORD97":171380.04000000001,"N_COORD97":2541623.5699999998,"ADDRESS":"仁和路７３號之６５","OBJECTID":580516},"geometry":{"x":171380.04000000097,"y":2541623.570000004}},{"attributes":{"ID":580544,"DIS_CODE":0,"TOWNNAME":"東區","LI":"和平里","LIN":"16鄰","STREET":"仁和路","SECT":" ","MAREA":" ","LANE":" ","ALLEY":" ","HOUSE_NO":"７３號之６７","E_COORD97":171329.67000000001,"N_COORD97":2541597.4500000002,"ADDRESS":"仁和路７３號之６７","OBJECTID":580517},"geometry":{"x":171329.67000000086,"y":2541597.4500000011}},{"attributes":{"ID":580545,"DIS_CODE":0,"TOWNNAME":"東區","LI":"和平里","LIN":"16鄰","STREET":"仁和路","SECT":" ","MAREA":" ","LANE":" ","ALLEY":" ","HOUSE_NO":"７３號之６８","E_COORD97":171333.25,"N_COORD97":2541597.98,"ADDRESS":"仁和路７３號之６８","OBJECTID":580518},"geometry":{"x":171333.25000000093,"y":2541597.9800000023}},{"attributes":{"ID":580546,"DIS_CODE":0,"TOWNNAME":"東區","LI":"和平里","LIN":"16鄰","STREET":"仁和路","SECT":" ","MAREA":" ","LANE":" ","ALLEY":" ","HOUSE_NO":"７３號之７０","E_COORD97":171342.04000000001,"N_COORD97":2541598.5600000001,"ADDRESS":"仁和路７３號之７０","OBJECTID":580519},"geometry":{"x":171342.04000000004,"y":2541598.5600000024}},{"attributes":{"ID":580547,"DIS_CODE":0,"TOWNNAME":"東區","LI":"和平里","LIN":"16鄰","STREET":"仁和路","SECT":" ","MAREA":" ","LANE":" ","ALLEY":" ","HOUSE_NO":"７３號之７１","E_COORD97":171346.35999999999,"N_COORD97":2541598.8500000001,"ADDRESS":"仁和路７３號之７１","OBJECTID":580520},"geometry":{"x":171346.36000000127,"y":2541598.8500000015}},{"attributes":{"ID":580548,"DIS_CODE":0,"TOWNNAME":"東區","LI":"和平里","LIN":"16鄰","STREET":"仁和路","SECT":" ","MAREA":" ","LANE":" ","ALLEY":" ","HOUSE_NO":"７３號之７２","E_COORD97":171350.31,"N_COORD97":2541599.21,"ADDRESS":"仁和路７３號之７２","OBJECTID":580521},"geometry":{"x":171350.31000000145,"y":2541599.2100000009}},{"attributes":{"ID":580549,"DIS_CODE":0,"TOWNNAME":"東區","LI":"中西里","LIN":"3鄰","STREET":"勝利路","SECT":" ","MAREA":" ","LANE":" ","ALLEY":" ","HOUSE_NO":"４號","E_COORD97":169780.20000000001,"N_COORD97":2543116.2999999998,"ADDRESS":"勝利路４號","OBJECTID":580522},"geometry":{"x":169780.20000000205,"y":2543116.3000000007}},{"attributes":{"ID":580550,"DIS_CODE":0,"TOWNNAME":"東區","LI":"和平里","LIN":"16鄰","STREET":"仁和路","SECT":" ","MAREA":" ","LANE":" ","ALLEY":" ","HOUSE_NO":"７３號之７３","E_COORD97":171353.73999999999,"N_COORD97":2541599.6400000001,"ADDRESS":"仁和路７３號之７３","OBJECTID":580523},"geometry":{"x":171353.74000000115,"y":2541599.6399999987}},{"attributes":{"ID":580551,"DIS_CODE":0,"TOWNNAME":"東區","LI":"和平里","LIN":"16鄰","STREET":"仁和路","SECT":" ","MAREA":" ","LANE":" ","ALLEY":" ","HOUSE_NO":"７３號之７４","E_COORD97":171357,"N_COORD97":2541600.29,"ADDRESS":"仁和路７３號之７４","OBJECTID":580524},"geometry":{"x":171357.00000000093,"y":2541600.2899999991}},{"attributes":{"ID":580552,"DIS_CODE":0,"TOWNNAME":"東區","LI":"和平里","LIN":"16鄰","STREET":"仁和路","SECT":" ","MAREA":" ","LANE":" ","ALLEY":" ","HOUSE_NO":"７３號之７５","E_COORD97":171361.22,"N_COORD97":2541600.3999999999,"ADDRESS":"仁和路７３號之７５","OBJECTID":580525},"geometry":{"x":171361.2200000016,"y":2541600.4000000004}},{"attributes":{"ID":580553,"DIS_CODE":0,"TOWNNAME":"東區","LI":"和平里","LIN":"16鄰","STREET":"仁和路","SECT":" ","MAREA":" ","LANE":" ","ALLEY":" ","HOUSE_NO":"７３號之７６","E_COORD97":171365.12,"N_COORD97":2541600.3999999999,"ADDRESS":"仁和路７３號之７６","OBJECTID":580526},"geometry":{"x":171365.12000000011,"y":2541600.4000000004}},{"attributes":{"ID":580554,"DIS_CODE":0,"TOWNNAME":"東區","LI":"和平里","LIN":"16鄰","STREET":"仁和路","SECT":" ","MAREA":" ","LANE":" ","ALLEY":" ","HOUSE_NO":"７３號之７７","E_COORD97":171369.44,"N_COORD97":2541600.9199999999,"ADDRESS":"仁和路７３號之７７","OBJECTID":580527},"geometry":{"x":171369.44000000134,"y":2541600.9200000018}},{"attributes":{"ID":580555,"DIS_CODE":0,"TOWNNAME":"東區","LI":"和平里","LIN":"16鄰","STREET":"仁和路","SECT":" ","MAREA":" ","LANE":" ","ALLEY":" ","HOUSE_NO":"７３號之７８","E_COORD97":171373.34,"N_COORD97":2541601.0299999998,"ADDRESS":"仁和路７３號之７８","OBJECTID":580528},"geometry":{"x":171373.33999999985,"y":2541601.0299999993}},{"attributes":{"ID":580556,"DIS_CODE":0,"TOWNNAME":"東區","LI":"和平里","LIN":"16鄰","STREET":"仁和路","SECT":" ","MAREA":" ","LANE":" ","ALLEY":" ","HOUSE_NO":"７３號之７９","E_COORD97":171377.01999999999,"N_COORD97":2541601.0299999998,"ADDRESS":"仁和路７３號之７９","OBJECTID":580529},"geometry":{"x":171377.01999999955,"y":2541601.0299999993}},{"attributes":{"ID":580557,"DIS_CODE":0,"TOWNNAME":"東區","LI":"和平里","LIN":"16鄰","STREET":"仁和路","SECT":" ","MAREA":" ","LANE":" ","ALLEY":" ","HOUSE_NO":"７３號之８０","E_COORD97":171381.34,"N_COORD97":2541601.4500000002,"ADDRESS":"仁和路７３號之８０","OBJECTID":580530},"geometry":{"x":171381.34000000078,"y":2541601.4499999993}},{"attributes":{"ID":580558,"DIS_CODE":0,"TOWNNAME":"永康區","LI":"西灣里","LIN":"16鄰","STREET":"大灣五街","SECT":" ","MAREA":" ","LANE":" ","ALLEY":" ","HOUSE_NO":"１１０號","E_COORD97":174667.51999999999,"N_COORD97":2545282.6200000001,"ADDRESS":"大灣五街１１０號","OBJECTID":580531},"geometry":{"x":174667.51999999955,"y":2545282.6200000048}},{"attributes":{"ID":580559,"DIS_CODE":0,"TOWNNAME":"永康區","LI":"西橋里","LIN":"16鄰","STREET":"大橋三街","SECT":" ","MAREA":" ","LANE":" ","ALLEY":" ","HOUSE_NO":"２０號之２","E_COORD97":170544.09,"N_COORD97":2546399.29,"ADDRESS":"大橋三街２０號之２","OBJECTID":580532},"geometry":{"x":170544.09000000078,"y":2546399.290000001}},{"attributes":{"ID":580560,"DIS_CODE":0,"TOWNNAME":"永康區","LI":"西橋里","LIN":"16鄰","STREET":"大橋三街","SECT":" ","MAREA":" ","LANE":" ","ALLEY":" ","HOUSE_NO":"１８號之２","E_COORD97":170534.29000000001,"N_COORD97":2546385.54,"ADDRESS":"大橋三街１８號之２","OBJECTID":580533},"geometry":{"x":170534.29000000097,"y":2546385.5399999991}},{"attributes":{"ID":580561,"DIS_CODE":0,"TOWNNAME":"永康區","LI":"西橋里","LIN":"16鄰","STREET":"大橋三街","SECT":" ","MAREA":" ","LANE":" ","ALLEY":" ","HOUSE_NO":"２２號","E_COORD97":170536.51999999999,"N_COORD97":2546414.25,"ADDRESS":"大橋三街２２號","OBJECTID":580534},"geometry":{"x":170536.51999999955,"y":2546414.2500000019}},{"attributes":{"ID":580562,"DIS_CODE":0,"TOWNNAME":"永康區","LI":"西灣里","LIN":"16鄰","STREET":"大灣五街","SECT":" ","MAREA":" ","LANE":" ","ALLEY":" ","HOUSE_NO":"１１２號","E_COORD97":174650.35000000001,"N_COORD97":2545298.3799999999,"ADDRESS":"大灣五街１１２號","OBJECTID":580535},"geometry":{"x":174650.34999999963,"y":2545298.379999999}},{"attributes":{"ID":580563,"DIS_CODE":0,"TOWNNAME":"永康區","LI":"西橋里","LIN":"16鄰","STREET":"大橋三街","SECT":" ","MAREA":" ","LANE":" ","ALLEY":" ","HOUSE_NO":"１６號之２","E_COORD97":170529.29000000001,"N_COORD97":2546378.04,"ADDRESS":"大橋三街１６號之２","OBJECTID":580536},"geometry":{"x":170529.29000000097,"y":2546378.0399999991}},{"attributes":{"ID":580564,"DIS_CODE":0,"TOWNNAME":"永康區","LI":"西勢里","LIN":"16鄰","STREET":"西勢路","SECT":" ","MAREA":" ","LANE":" ","ALLEY":" ","HOUSE_NO":"５８號","E_COORD97":176165.57999999999,"N_COORD97":2546771.6099999999,"ADDRESS":"西勢路５８號","OBJECTID":580537},"geometry":{"x":176165.58000000101,"y":2546771.6099999994}},{"attributes":{"ID":580565,"DIS_CODE":0,"TOWNNAME":"永康區","LI":"西橋里","LIN":"16鄰","STREET":"大橋三街","SECT":" ","MAREA":" ","LANE":" ","ALLEY":" ","HOUSE_NO":"１８號","E_COORD97":170521.22,"N_COORD97":2546393.2400000002,"ADDRESS":"大橋三街１８號","OBJECTID":580538},"geometry":{"x":170521.22000000067,"y":2546393.2400000021}},{"attributes":{"ID":580566,"DIS_CODE":0,"TOWNNAME":"永康區","LI":"西勢里","LIN":"16鄰","STREET":"西勢路","SECT":" ","MAREA":" ","LANE":" ","ALLEY":" ","HOUSE_NO":"６２號","E_COORD97":176151.95999999999,"N_COORD97":2546768.2000000002,"ADDRESS":"西勢路６２號","OBJECTID":580539},"geometry":{"x":176151.95999999996,"y":2546768.200000003}},{"attributes":{"ID":580567,"DIS_CODE":0,"TOWNNAME":"永康區","LI":"西灣里","LIN":"16鄰","STREET":"大灣五街","SECT":" ","MAREA":" ","LANE":" ","ALLEY":" ","HOUSE_NO":"１２６號","E_COORD97":174604.53,"N_COORD97":2545304.3700000001,"ADDRESS":"大灣五街１２６號","OBJECTID":580540},"geometry":{"x":174604.53000000119,"y":2545304.3700000048}},{"attributes":{"ID":580568,"DIS_CODE":0,"TOWNNAME":"永康區","LI":"\u25A0行里","LIN":"16鄰","STREET":"中正六街","SECT":" ","MAREA":" ","LANE":" ","ALLEY":" ","HOUSE_NO":"２４０號","E_COORD97":171899.57000000001,"N_COORD97":2548869.8199999998,"ADDRESS":"中正六街２４０號","OBJECTID":580541},"geometry":{"x":171899.5700000003,"y":2548869.8200000003}},{"attributes":{"ID":580569,"DIS_CODE":0,"TOWNNAME":"永康區","LI":"\u25A0行里","LIN":"16鄰","STREET":"中正六街","SECT":" ","MAREA":" ","LANE":" ","ALLEY":" ","HOUSE_NO":"２６２號","E_COORD97":171929.62,"N_COORD97":2548902.5800000001,"ADDRESS":"中正六街２６２號","OBJECTID":580542},"geometry":{"x":171929.62000000011,"y":2548902.5800000038}},{"attributes":{"ID":580570,"DIS_CODE":0,"TOWNNAME":"永康區","LI":"\u25A0行里","LIN":"16鄰","STREET":"中正六街","SECT":" ","MAREA":" ","LANE":" ","ALLEY":" ","HOUSE_NO":"２５２號","E_COORD97":171916.73000000001,"N_COORD97":2548888.5699999998,"ADDRESS":"中正六街２５２號","OBJECTID":580543},"geometry":{"x":171916.73000000138,"y":2548888.5700000003}},{"attributes":{"ID":580571,"DIS_CODE":0,"TOWNNAME":"永康區","LI":"\u25A0行里","LIN":"16鄰","STREET":"中正六街","SECT":" ","MAREA":" ","LANE":" ","ALLEY":" ","HOUSE_NO":"２３８號","E_COORD97":171897.26999999999,"N_COORD97":2548865.0699999998,"ADDRESS":"中正六街２３８號","OBJECTID":580544},"geometry":{"x":171897.26999999955,"y":2548865.0700000003}},{"attributes":{"ID":580572,"DIS_CODE":0,"TOWNNAME":"中西區","LI":"小西里","LIN":"16鄰","STREET":"西門路","SECT":"一段","MAREA":" ","LANE":" ","ALLEY":" ","HOUSE_NO":"５２４號","E_COORD97":167743.54000000001,"N_COORD97":2542874.0299999998,"ADDRESS":"西門路一段５２４號","OBJECTID":580545},"geometry":{"x":167743.5400000019,"y":2542874.0300000031}},{"attributes":{"ID":580573,"DIS_CODE":0,"TOWNNAME":"中西區","LI":"小西里","LIN":"16鄰","STREET":"西門路","SECT":"一段","MAREA":" ","LANE":" ","ALLEY":" ","HOUSE_NO":"５２６號","E_COORD97":167744.84,"N_COORD97":2542880.46,"ADDRESS":"西門路一段５２６號","OBJECTID":580546},"geometry":{"x":167744.84000000078,"y":2542880.4600000028}},{"attributes":{"ID":580574,"DIS_CODE":0,"TOWNNAME":"中西區","LI":"小西里","LIN":"16鄰","STREET":"西門路","SECT":"一段","MAREA":" ","LANE":" ","ALLEY":" ","HOUSE_NO":"５２８號","E_COORD97":167744.70999999999,"N_COORD97":2542885.8399999999,"ADDRESS":"西門路一段５２８號","OBJECTID":580547},"geometry":{"x":167744.71000000089,"y":2542885.839999998}},{"attributes":{"ID":580575,"DIS_CODE":0,"TOWNNAME":"中西區","LI":"小西里","LIN":"16鄰","STREET":"西門路","SECT":"一段","MAREA":" ","LANE":" ","ALLEY":" ","HOUSE_NO":"５３０號","E_COORD97":167743.12,"N_COORD97":2542891.02,"ADDRESS":"西門路一段５３０號","OBJECTID":580548},"geometry":{"x":167743.12000000197,"y":2542891.0199999977}},{"attributes":{"ID":580576,"DIS_CODE":0,"TOWNNAME":"中西區","LI":"小西里","LIN":"16鄰","STREET":"西門路","SECT":"一段","MAREA":" ","LANE":" ","ALLEY":" ","HOUSE_NO":"５３２號","E_COORD97":167756.39999999999,"N_COORD97":2542886.5,"ADDRESS":"西門路一段５３２號","OBJECTID":580549},"geometry":{"x":167756.40000000037,"y":2542886.5000000019}},{"attributes":{"ID":580577,"DIS_CODE":0,"TOWNNAME":"中西區","LI":"小西里","LIN":"16鄰","STREET":"西門路","SECT":"一段","MAREA":" ","LANE":" ","ALLEY":" ","HOUSE_NO":"５３４號","E_COORD97":167765.98000000001,"N_COORD97":2542886.1200000001,"ADDRESS":"西門路一段５３４號","OBJECTID":580550},"geometry":{"x":167765.98000000045,"y":2542886.1200000029}},{"attributes":{"ID":580578,"DIS_CODE":0,"TOWNNAME":"中西區","LI":"小西里","LIN":"16鄰","STREET":"西門路","SECT":"一段","MAREA":" ","LANE":" ","ALLEY":" ","HOUSE_NO":"５５０號","E_COORD97":167765.60000000001,"N_COORD97":2542910.75,"ADDRESS":"西門路一段５５０號","OBJECTID":580551},"geometry":{"x":167765.59999999963,"y":2542910.7500000037}},{"attributes":{"ID":580579,"DIS_CODE":0,"TOWNNAME":"中西區","LI":"小西里","LIN":"16鄰","STREET":"西門路","SECT":"一段","MAREA":" ","LANE":" ","ALLEY":" ","HOUSE_NO":"５５２號","E_COORD97":167748.09,"N_COORD97":2542909.2999999998,"ADDRESS":"西門路一段５５２號","OBJECTID":580552},"geometry":{"x":167748.09000000171,"y":2542909.3000000007}},{"attributes":{"ID":580580,"DIS_CODE":0,"TOWNNAME":"中西區","LI":"小西里","LIN":"16鄰","STREET":"西門路","SECT":"一段","MAREA":" ","LANE":" ","ALLEY":" ","HOUSE_NO":"５５４號","E_COORD97":167749.23999999999,"N_COORD97":2542914.6600000001,"ADDRESS":"西門路一段５５４號","OBJECTID":580553},"geometry":{"x":167749.24000000209,"y":2542914.6600000039}},{"attributes":{"ID":580581,"DIS_CODE":0,"TOWNNAME":"中西區","LI":"小西里","LIN":"16鄰","STREET":"西門路","SECT":"一段","MAREA":" ","LANE":" ","ALLEY":" ","HOUSE_NO":"５５６號","E_COORD97":167749.37,"N_COORD97":2542919.8900000001,"ADDRESS":"西門路一段５５６號","OBJECTID":580554},"geometry":{"x":167749.37000000011,"y":2542919.8900000006}},{"attributes":{"ID":580582,"DIS_CODE":0,"TOWNNAME":"中西區","LI":"小西里","LIN":"16鄰","STREET":"西門路","SECT":"一段","MAREA":" ","LANE":" ","ALLEY":" ","HOUSE_NO":"５５８號","E_COORD97":167749.5,"N_COORD97":2542925.1200000001,"ADDRESS":"西門路一段５５８號","OBJECTID":580555},"geometry":{"x":167749.50000000093,"y":2542925.120000001}},{"attributes":{"ID":580583,"DIS_CODE":0,"TOWNNAME":"中西區","LI":"小西里","LIN":"16鄰","STREET":"西門路","SECT":"一段","MAREA":" ","LANE":" ","ALLEY":" ","HOUSE_NO":"５６０號","E_COORD97":167748.85999999999,"N_COORD97":2542930.2400000002,"ADDRESS":"西門路一段５６０號","OBJECTID":580556},"geometry":{"x":167748.86000000127,"y":2542930.2400000002}},{"attributes":{"ID":580584,"DIS_CODE":0,"TOWNNAME":"中西區","LI":"小西里","LIN":"16鄰","STREET":"西門路","SECT":"一段","MAREA":" ","LANE":" ","ALLEY":" ","HOUSE_NO":"５６２號","E_COORD97":167748.60999999999,"N_COORD97":2542934.5800000001,"ADDRESS":"西門路一段５６２號","OBJECTID":580557},"geometry":{"x":167748.61000000127,"y":2542934.5800000001}},{"attributes":{"ID":580585,"DIS_CODE":0,"TOWNNAME":"中西區","LI":"小西里","LIN":"16鄰","STREET":"西門路","SECT":"一段","MAREA":" ","LANE":" ","ALLEY":" ","HOUSE_NO":"５６４號","E_COORD97":167748.60999999999,"N_COORD97":2542938.79,"ADDRESS":"西門路一段５６４號","OBJECTID":580558},"geometry":{"x":167748.61000000127,"y":2542938.7899999991}},{"attributes":{"ID":580586,"DIS_CODE":0,"TOWNNAME":"中西區","LI":"小西里","LIN":"16鄰","STREET":"西門路","SECT":"一段","MAREA":" ","LANE":" ","ALLEY":" ","HOUSE_NO":"５６６號","E_COORD97":167747.70999999999,"N_COORD97":2542943.77,"ADDRESS":"西門路一段５６６號","OBJECTID":580559},"geometry":{"x":167747.71000000089,"y":2542943.7700000033}},{"attributes":{"ID":580587,"DIS_CODE":0,"TOWNNAME":"中西區","LI":"小西里","LIN":"16鄰","STREET":"西門路","SECT":"一段","MAREA":" ","LANE":" ","ALLEY":" ","HOUSE_NO":"５６８號","E_COORD97":167746.94,"N_COORD97":2542947.6000000001,"ADDRESS":"西門路一段５６８號","OBJECTID":580560},"geometry":{"x":167746.94000000134,"y":2542947.5999999996}},{"attributes":{"ID":580588,"DIS_CODE":0,"TOWNNAME":"中西區","LI":"小西里","LIN":"16鄰","STREET":"西門路","SECT":"一段","MAREA":" ","LANE":" ","ALLEY":" ","HOUSE_NO":"５７０號","E_COORD97":167748.73000000001,"N_COORD97":2542952.3199999998,"ADDRESS":"西門路一段５７０號","OBJECTID":580561},"geometry":{"x":167748.73000000045,"y":2542952.3200000022}},{"attributes":{"ID":580589,"DIS_CODE":0,"TOWNNAME":"中西區","LI":"小西里","LIN":"16鄰","STREET":"西門路","SECT":"一段","MAREA":" ","LANE":" ","ALLEY":" ","HOUSE_NO":"５７４號","E_COORD97":167747.07000000001,"N_COORD97":2542961,"ADDRESS":"西門路一段５７４號","OBJECTID":580562},"geometry":{"x":167747.07000000216,"y":2542961.0000000019}},{"attributes":{"ID":580590,"DIS_CODE":0,"TOWNNAME":"中西區","LI":"小西里","LIN":"16鄰","STREET":"西門路","SECT":"一段","MAREA":" ","LANE":" ","ALLEY":" ","HOUSE_NO":"５７６號","E_COORD97":167747.10000000001,"N_COORD97":2542965.7200000002,"ADDRESS":"西門路一段５７６號","OBJECTID":580563},"geometry":{"x":167747.09999999963,"y":2542965.7200000044}},{"attributes":{"ID":580591,"DIS_CODE":0,"TOWNNAME":"中西區","LI":"小西里","LIN":"16鄰","STREET":"西門路","SECT":"一段","MAREA":" ","LANE":" ","ALLEY":" ","HOUSE_NO":"５７８號","E_COORD97":167747.10000000001,"N_COORD97":2542972.3300000001,"ADDRESS":"西門路一段５７８號","OBJECTID":580564},"geometry":{"x":167747.09999999963,"y":2542972.3300000019}},{"attributes":{"ID":580592,"DIS_CODE":0,"TOWNNAME":"中西區","LI":"小西里","LIN":"16鄰","STREET":"西門路","SECT":"一段","MAREA":" ","LANE":" ","ALLEY":" ","HOUSE_NO":"５８０號","E_COORD97":167746.10999999999,"N_COORD97":2542984.1899999999,"ADDRESS":"西門路一段５８０號","OBJECTID":580565},"geometry":{"x":167746.11000000034,"y":2542984.1899999995}},{"attributes":{"ID":580593,"DIS_CODE":0,"TOWNNAME":"中西區","LI":"仙草里","LIN":"16鄰","STREET":"五妃街","SECT":" ","MAREA":" ","LANE":" ","ALLEY":" ","HOUSE_NO":"２７７號","E_COORD97":167977.73000000001,"N_COORD97":2542571.6099999999,"ADDRESS":"五妃街２７７號","OBJECTID":580566},"geometry":{"x":167977.73000000045,"y":2542571.6099999975}},{"attributes":{"ID":580594,"DIS_CODE":0,"TOWNNAME":"中西區","LI":"仙草里","LIN":"16鄰","STREET":"五妃街","SECT":" ","MAREA":" ","LANE":" ","ALLEY":" ","HOUSE_NO":"２７９號","E_COORD97":167970.85999999999,"N_COORD97":2542572.2000000002,"ADDRESS":"五妃街２７９號","OBJECTID":580567},"geometry":{"x":167970.86000000127,"y":2542572.2000000011}},{"attributes":{"ID":580595,"DIS_CODE":0,"TOWNNAME":"中西區","LI":"仙草里","LIN":"16鄰","STREET":"五妃街","SECT":" ","MAREA":" ","LANE":" ","ALLEY":" ","HOUSE_NO":"２８１號","E_COORD97":167964.38,"N_COORD97":2542570.4300000002,"ADDRESS":"五妃街２８１號","OBJECTID":580568},"geometry":{"x":167964.37999999989,"y":2542570.4300000016}},{"attributes":{"ID":580596,"DIS_CODE":0,"TOWNNAME":"中西區","LI":"仙草里","LIN":"16鄰","STREET":"五妃街","SECT":" ","MAREA":" ","LANE":" ","ALLEY":" ","HOUSE_NO":"２８３號","E_COORD97":167959.85999999999,"N_COORD97":2542570.8300000001,"ADDRESS":"五妃街２８３號","OBJECTID":580569},"geometry":{"x":167959.86000000034,"y":2542570.8299999982}},{"attributes":{"ID":580597,"DIS_CODE":0,"TOWNNAME":"中西區","LI":"仙草里","LIN":"16鄰","STREET":"永福路","SECT":"一段","MAREA":" ","LANE":" ","ALLEY":" ","HOUSE_NO":"１１號","E_COORD97":167974.39000000001,"N_COORD97":2542501.02,"ADDRESS":"永福路一段１１號","OBJECTID":580570},"geometry":{"x":167974.38999999966,"y":2542501.0199999996}},{"attributes":{"ID":580598,"DIS_CODE":0,"TOWNNAME":"中西區","LI":"仙草里","LIN":"16鄰","STREET":"永福路","SECT":"一段","MAREA":" ","LANE":" ","ALLEY":" ","HOUSE_NO":"１３號","E_COORD97":167974,"N_COORD97":2542504.5499999998,"ADDRESS":"永福路一段１３號","OBJECTID":580571},"geometry":{"x":167974,"y":2542504.5500000007}},{"attributes":{"ID":580599,"DIS_CODE":0,"TOWNNAME":"中西區","LI":"仙草里","LIN":"16鄰","STREET":"永福路","SECT":"一段","MAREA":" ","LANE":" ","ALLEY":" ","HOUSE_NO":"１５號","E_COORD97":167973.22,"N_COORD97":2542509.0699999998,"ADDRESS":"永福路一段１５號","OBJECTID":580572},"geometry":{"x":167973.22000000067,"y":2542509.0700000022}},{"attributes":{"ID":580600,"DIS_CODE":0,"TOWNNAME":"中西區","LI":"仙草里","LIN":"16鄰","STREET":"永福路","SECT":"一段","MAREA":" ","LANE":" ","ALLEY":" ","HOUSE_NO":"１７號","E_COORD97":167973.01999999999,"N_COORD97":2542513.1899999999,"ADDRESS":"永福路一段１７號","OBJECTID":580573},"geometry":{"x":167973.01999999955,"y":2542513.1899999995}},{"attributes":{"ID":580601,"DIS_CODE":0,"TOWNNAME":"中西區","LI":"仙草里","LIN":"16鄰","STREET":"永福路","SECT":"一段","MAREA":" ","LANE":" ","ALLEY":" ","HOUSE_NO":"１９號","E_COORD97":167976.95000000001,"N_COORD97":2542520.9199999999,"ADDRESS":"永福路一段１９號","OBJECTID":580574},"geometry":{"x":167976.95000000112,"y":2542520.9200000018}},{"attributes":{"ID":580602,"DIS_CODE":0,"TOWNNAME":"中西區","LI":"仙草里","LIN":"16鄰","STREET":"永福路","SECT":"一段","MAREA":" ","LANE":" ","ALLEY":" ","HOUSE_NO":"２１號","E_COORD97":167977.14000000001,"N_COORD97":2542524.8399999999,"ADDRESS":"永福路一段２１號","OBJECTID":580575},"geometry":{"x":167977.1400000006,"y":2542524.8400000017}},{"attributes":{"ID":580603,"DIS_CODE":0,"TOWNNAME":"中西區","LI":"仙草里","LIN":"16鄰","STREET":"永福路","SECT":"一段","MAREA":" ","LANE":" ","ALLEY":" ","HOUSE_NO":"２３號","E_COORD97":167976.95000000001,"N_COORD97":2542529.9399999999,"ADDRESS":"永福路一段２３號","OBJECTID":580576},"geometry":{"x":167976.95000000112,"y":2542529.9400000013}},{"attributes":{"ID":580604,"DIS_CODE":0,"TOWNNAME":"中西區","LI":"仙草里","LIN":"16鄰","STREET":"永福路","SECT":"一段","MAREA":" ","LANE":" ","ALLEY":" ","HOUSE_NO":"２５號","E_COORD97":167976.75,"N_COORD97":2542534.0600000001,"ADDRESS":"永福路一段２５號","OBJECTID":580577},"geometry":{"x":167976.75000000093,"y":2542534.0600000024}},{"attributes":{"ID":580605,"DIS_CODE":0,"TOWNNAME":"中西區","LI":"仙草里","LIN":"16鄰","STREET":"永福路","SECT":"一段","MAREA":" ","LANE":" ","ALLEY":" ","HOUSE_NO":"２９號","E_COORD97":167962.41,"N_COORD97":2542520.1299999999,"ADDRESS":"永福路一段２９號","OBJECTID":580578},"geometry":{"x":167962.41000000015,"y":2542520.1299999971}},{"attributes":{"ID":580606,"DIS_CODE":0,"TOWNNAME":"中西區","LI":"仙草里","LIN":"16鄰","STREET":"健康路","SECT":"一段","MAREA":" ","LANE":" ","ALLEY":" ","HOUSE_NO":"３７６號","E_COORD97":167880.92000000001,"N_COORD97":2542469.23,"ADDRESS":"健康路一段３７６號","OBJECTID":580579},"geometry":{"x":167880.91999999993,"y":2542469.2300000004}},{"attributes":{"ID":580607,"DIS_CODE":0,"TOWNNAME":"中西區","LI":"仙草里","LIN":"16鄰","STREET":"健康路","SECT":"一段","MAREA":" ","LANE":" ","ALLEY":" ","HOUSE_NO":"３８０號","E_COORD97":167868.73999999999,"N_COORD97":2542475.8999999999,"ADDRESS":"健康路一段３８０號","OBJECTID":580580},"geometry":{"x":167868.74000000022,"y":2542475.9000000041}},{"attributes":{"ID":580608,"DIS_CODE":0,"TOWNNAME":"新化區","LI":"協興里","LIN":"16鄰","STREET":"大新路","SECT":" ","MAREA":" ","LANE":" ","ALLEY":" ","HOUSE_NO":"４３號之１","E_COORD97":178157.29999999999,"N_COORD97":2548626.6299999999,"ADDRESS":"大新路４３號之１","OBJECTID":580581},"geometry":{"x":178157.30000000075,"y":2548626.6300000027}},{"attributes":{"ID":580609,"DIS_CODE":0,"TOWNNAME":"新化區","LI":"協興里","LIN":"16鄰","STREET":"中山路","SECT":" ","MAREA":" ","LANE":" ","ALLEY":" ","HOUSE_NO":"６９６號","E_COORD97":178032.23999999999,"N_COORD97":2548497.9300000002,"ADDRESS":"中山路６９６號","OBJECTID":580582},"geometry":{"x":178032.24000000209,"y":2548497.9300000016}},{"attributes":{"ID":580610,"DIS_CODE":0,"TOWNNAME":"新化區","LI":"協興里","LIN":"16鄰","STREET":"中山路","SECT":" ","MAREA":" ","LANE":" ","ALLEY":" ","HOUSE_NO":"７６６號之２","E_COORD97":177921.45000000001,"N_COORD97":2548472.79,"ADDRESS":"中山路７６６號之２","OBJECTID":580583},"geometry":{"x":177921.45000000019,"y":2548472.7900000028}},{"attributes":{"ID":580611,"DIS_CODE":0,"TOWNNAME":"新化區","LI":"協興里","LIN":"16鄰","STREET":"中山路","SECT":" ","MAREA":" ","LANE":" ","ALLEY":" ","HOUSE_NO":"７６６號之３","E_COORD97":177915.32000000001,"N_COORD97":2548462.4300000002,"ADDRESS":"中山路７６６號之３","OBJECTID":580584},"geometry":{"x":177915.32000000123,"y":2548462.4300000034}},{"attributes":{"ID":580612,"DIS_CODE":0,"TOWNNAME":"新化區","LI":"協興里","LIN":"16鄰","STREET":"中山路","SECT":" ","MAREA":" ","LANE":" ","ALLEY":" ","HOUSE_NO":"７６８號","E_COORD97":177864.09,"N_COORD97":2548446.5899999999,"ADDRESS":"中山路７６８號","OBJECTID":580585},"geometry":{"x":177864.09000000078,"y":2548446.5899999999}},{"attributes":{"ID":580613,"DIS_CODE":0,"TOWNNAME":"新化區","LI":"協興里","LIN":"16鄰","STREET":"中山路","SECT":" ","MAREA":" ","LANE":" ","ALLEY":" ","HOUSE_NO":"８４２號之６","E_COORD97":177585.84,"N_COORD97":2548392.2000000002,"ADDRESS":"中山路８４２號之６","OBJECTID":580586},"geometry":{"x":177585.84000000078,"y":2548392.200000003}},{"attributes":{"ID":580614,"DIS_CODE":0,"TOWNNAME":"安南區","LI":"城南里","LIN":"16鄰","STREET":"青砂街","SECT":"一段","MAREA":" ","LANE":" ","ALLEY":" ","HOUSE_NO":"９號","E_COORD97":160687.17999999999,"N_COORD97":2551453.1800000002,"ADDRESS":"青砂街一段９號","OBJECTID":580587},"geometry":{"x":160687.18000000063,"y":2551453.1799999997}},{"attributes":{"ID":580615,"DIS_CODE":0,"TOWNNAME":"安南區","LI":"海南里","LIN":"16鄰","STREET":"府安路","SECT":"七段","MAREA":" ","LANE":" ","ALLEY":" ","HOUSE_NO":"９１號","E_COORD97":165838.39999999999,"N_COORD97":2545820.5699999998,"ADDRESS":"府安路七段９１號","OBJECTID":580588},"geometry":{"x":165838.4000000013,"y":2545820.5700000003}},{"attributes":{"ID":580616,"DIS_CODE":0,"TOWNNAME":"安南區","LI":"海南里","LIN":"16鄰","STREET":"府安路","SECT":"七段","MAREA":" ","LANE":" ","ALLEY":" ","HOUSE_NO":"１００號","E_COORD97":165807.63,"N_COORD97":2545795.27,"ADDRESS":"府安路七段１００號","OBJECTID":580589},"geometry":{"x":165807.63000000082,"y":2545795.2700000033}},{"attributes":{"ID":580617,"DIS_CODE":0,"TOWNNAME":"安南區","LI":"海南里","LIN":"16鄰","STREET":"府安路","SECT":"七段","MAREA":" ","LANE":" ","ALLEY":" ","HOUSE_NO":"１０１號","E_COORD97":165804.20000000001,"N_COORD97":2545793.2599999998,"ADDRESS":"府安路七段１０１號","OBJECTID":580590},"geometry":{"x":165804.20000000019,"y":2545793.2600000016}},{"attributes":{"ID":580618,"DIS_CODE":0,"TOWNNAME":"安南區","LI":"海南里","LIN":"16鄰","STREET":"府安路","SECT":"七段","MAREA":" ","LANE":" ","ALLEY":" ","HOUSE_NO":"９４號","E_COORD97":165827.64000000001,"N_COORD97":2545811.6600000001,"ADDRESS":"府安路七段９４號","OBJECTID":580591},"geometry":{"x":165827.6400000006,"y":2545811.660000002}},{"attributes":{"ID":580619,"DIS_CODE":0,"TOWNNAME":"安南區","LI":"海南里","LIN":"16鄰","STREET":"府安路","SECT":"七段","MAREA":" ","LANE":" ","ALLEY":" ","HOUSE_NO":"９５號","E_COORD97":165824.37,"N_COORD97":2545808.98,"ADDRESS":"府安路七段９５號","OBJECTID":580592},"geometry":{"x":165824.37000000104,"y":2545808.9800000023}},{"attributes":{"ID":580620,"DIS_CODE":0,"TOWNNAME":"安南區","LI":"海南里","LIN":"16鄰","STREET":"府安路","SECT":"七段","MAREA":" ","LANE":" ","ALLEY":" ","HOUSE_NO":"９６號","E_COORD97":165820.94,"N_COORD97":2545806.5600000001,"ADDRESS":"府安路七段９６號","OBJECTID":580593},"geometry":{"x":165820.94000000134,"y":2545806.5600000005}},{"attributes":{"ID":580621,"DIS_CODE":0,"TOWNNAME":"安南區","LI":"海南里","LIN":"16鄰","STREET":"府安路","SECT":"七段","MAREA":" ","LANE":" ","ALLEY":" ","HOUSE_NO":"９７號","E_COORD97":165817.26000000001,"N_COORD97":2545804.2200000002,"ADDRESS":"府安路七段９７號","OBJECTID":580594},"geometry":{"x":165817.25999999978,"y":2545804.2200000025}},{"attributes":{"ID":580622,"DIS_CODE":0,"TOWNNAME":"安南區","LI":"海南里","LIN":"16鄰","STREET":"府安路","SECT":"七段","MAREA":" ","LANE":" ","ALLEY":" ","HOUSE_NO":"９８號","E_COORD97":165813.57000000001,"N_COORD97":2545801.04,"ADDRESS":"府安路七段９８號","OBJECTID":580595},"geometry":{"x":165813.57000000123,"y":2545801.040000001}},{"attributes":{"ID":580623,"DIS_CODE":0,"TOWNNAME":"安南區","LI":"海南里","LIN":"16鄰","STREET":"府安路","SECT":"七段","MAREA":" ","LANE":" ","ALLEY":" ","HOUSE_NO":"９９號","E_COORD97":165810.98000000001,"N_COORD97":2545798.1099999999,"ADDRESS":"府安路七段９９號","OBJECTID":580596},"geometry":{"x":165810.98000000138,"y":2545798.1099999994}},{"attributes":{"ID":580624,"DIS_CODE":0,"TOWNNAME":"善化區","LI":"文昌里","LIN":"16鄰","STREET":"中正路","SECT":" ","MAREA":" ","LANE":" ","ALLEY":" ","HOUSE_NO":"４９９號","E_COORD97":177677.42999999999,"N_COORD97":2558996,"ADDRESS":"中正路４９９號","OBJECTID":580597},"geometry":{"x":177677.4299999997,"y":2558995.9999999981}},{"attributes":{"ID":580625,"DIS_CODE":0,"TOWNNAME":"善化區","LI":"光文里","LIN":"16鄰","STREET":"民族路","SECT":" ","MAREA":" ","LANE":" ","ALLEY":" ","HOUSE_NO":"１３９號","E_COORD97":178249.59,"N_COORD97":2559083.7599999998,"ADDRESS":"民族路１３９號","OBJECTID":580598},"geometry":{"x":178249.58999999985,"y":2559083.7600000016}},{"attributes":{"ID":580626,"DIS_CODE":0,"TOWNNAME":"善化區","LI":"光文里","LIN":"16鄰","STREET":"樹人路","SECT":" ","MAREA":" ","LANE":" ","ALLEY":" ","HOUSE_NO":"８３號","E_COORD97":178352.56,"N_COORD97":2559096,"ADDRESS":"樹人路８３號","OBJECTID":580599},"geometry":{"x":178352.55999999959,"y":2559096.0000000019}},{"attributes":{"ID":580627,"DIS_CODE":0,"TOWNNAME":"善化區","LI":"光文里","LIN":"16鄰","STREET":"和平路","SECT":" ","MAREA":" ","LANE":" ","ALLEY":" ","HOUSE_NO":"１８２號","E_COORD97":178111.41,"N_COORD97":2559057.25,"ADDRESS":"和平路１８２號","OBJECTID":580600},"geometry":{"x":178111.41000000108,"y":2559057.25}}]}