{"displayFieldName":"TOWNNAME","fieldAliases":{"ID":"ID","DIS_CODE":"DIS_CODE","TOWNNAME":"TOWNNAME","LI":"LI","LIN":"LIN","STREET":"STREET","SECT":"SECT","MAREA":"MAREA","LANE":"LANE","ALLEY":"ALLEY","HOUSE_NO":"HOUSE_NO","E_COORD97":"E_COORD97","N_COORD97":"N_COORD97","ADDRESS":"ADDRESS","OBJECTID":"OBJECTID"},"geometryType":"esriGeometryPoint","spatialReference":{"wkid":102443,"latestWkid":3826},"fields":[{"name":"ID","type":"esriFieldTypeDouble","alias":"ID"},{"name":"DIS_CODE","type":"esriFieldTypeInteger","alias":"DIS_CODE"},{"name":"TOWNNAME","type":"esriFieldTypeString","alias":"TOWNNAME","length":8},{"name":"LI","type":"esriFieldTypeString","alias":"LI","length":8},{"name":"LIN","type":"esriFieldTypeString","alias":"LIN","length":12},{"name":"STREET","type":"esriFieldTypeString","alias":"STREET","length":20},{"name":"SECT","type":"esriFieldTypeString","alias":"SECT","length":8},{"name":"MAREA","type":"esriFieldTypeString","alias":"MAREA","length":12},{"name":"LANE","type":"esriFieldTypeString","alias":"LANE","length":10},{"name":"ALLEY","type":"esriFieldTypeString","alias":"ALLEY","length":10},{"name":"HOUSE_NO","type":"esriFieldTypeString","alias":"HOUSE_NO","length":20},{"name":"E_COORD97","type":"esriFieldTypeDouble","alias":"E_COORD97"},{"name":"N_COORD97","type":"esriFieldTypeDouble","alias":"N_COORD97"},{"name":"ADDRESS","type":"esriFieldTypeString","alias":"ADDRESS","length":50},{"name":"OBJECTID","type":"esriFieldTypeOID","alias":"OBJECTID"}],"features":[{"attributes":{"ID":566628,"DIS_CODE":0,"TOWNNAME":"北區","LI":"成德里","LIN":"37鄰","STREET":"北成路","SECT":" ","MAREA":" ","LANE":" ","ALLEY":" ","HOUSE_NO":"４０１號六樓之６","E_COORD97":168054.41,"N_COORD97":2546565.4100000001,"ADDRESS":"北成路４０１號六樓之６","OBJECTID":566601},"geometry":{"x":168054.41000000015,"y":2546565.410000002}},{"attributes":{"ID":566629,"DIS_CODE":0,"TOWNNAME":"北區","LI":"成德里","LIN":"37鄰","STREET":"北成路","SECT":" ","MAREA":" ","LANE":" ","ALLEY":" ","HOUSE_NO":"４０１號六樓之７","E_COORD97":168054.41,"N_COORD97":2546565.4100000001,"ADDRESS":"北成路４０１號六樓之７","OBJECTID":566602},"geometry":{"x":168054.41000000015,"y":2546565.410000002}},{"attributes":{"ID":566630,"DIS_CODE":0,"TOWNNAME":"北區","LI":"成德里","LIN":"37鄰","STREET":"北成路","SECT":" ","MAREA":" ","LANE":" ","ALLEY":" ","HOUSE_NO":"４０１號六樓之８","E_COORD97":168054.41,"N_COORD97":2546565.4100000001,"ADDRESS":"北成路４０１號六樓之８","OBJECTID":566603},"geometry":{"x":168054.41000000015,"y":2546565.410000002}},{"attributes":{"ID":566631,"DIS_CODE":0,"TOWNNAME":"北區","LI":"成德里","LIN":"37鄰","STREET":"北成路","SECT":" ","MAREA":" ","LANE":" ","ALLEY":" ","HOUSE_NO":"４０１號六樓之９","E_COORD97":168054.41,"N_COORD97":2546565.4100000001,"ADDRESS":"北成路４０１號六樓之９","OBJECTID":566604},"geometry":{"x":168054.41000000015,"y":2546565.410000002}},{"attributes":{"ID":566632,"DIS_CODE":0,"TOWNNAME":"北區","LI":"成德里","LIN":"37鄰","STREET":"北成路","SECT":" ","MAREA":" ","LANE":" ","ALLEY":" ","HOUSE_NO":"４０１號六樓之１０","E_COORD97":168054.41,"N_COORD97":2546565.4100000001,"ADDRESS":"北成路４０１號六樓之１０","OBJECTID":566605},"geometry":{"x":168054.41000000015,"y":2546565.410000002}},{"attributes":{"ID":566633,"DIS_CODE":0,"TOWNNAME":"北區","LI":"成德里","LIN":"37鄰","STREET":"北成路","SECT":" ","MAREA":" ","LANE":" ","ALLEY":" ","HOUSE_NO":"４０１號六樓之１１","E_COORD97":168054.41,"N_COORD97":2546565.4100000001,"ADDRESS":"北成路４０１號六樓之１１","OBJECTID":566606},"geometry":{"x":168054.41000000015,"y":2546565.410000002}},{"attributes":{"ID":566634,"DIS_CODE":0,"TOWNNAME":"北區","LI":"成德里","LIN":"37鄰","STREET":"北成路","SECT":" ","MAREA":" ","LANE":" ","ALLEY":" ","HOUSE_NO":"４０１號六樓之１２","E_COORD97":168054.41,"N_COORD97":2546565.4100000001,"ADDRESS":"北成路４０１號六樓之１２","OBJECTID":566607},"geometry":{"x":168054.41000000015,"y":2546565.410000002}},{"attributes":{"ID":566635,"DIS_CODE":0,"TOWNNAME":"北區","LI":"成德里","LIN":"37鄰","STREET":"北成路","SECT":" ","MAREA":" ","LANE":" ","ALLEY":" ","HOUSE_NO":"４０１號六樓之１３","E_COORD97":168054.41,"N_COORD97":2546565.4100000001,"ADDRESS":"北成路４０１號六樓之１３","OBJECTID":566608},"geometry":{"x":168054.41000000015,"y":2546565.410000002}},{"attributes":{"ID":566636,"DIS_CODE":0,"TOWNNAME":"北區","LI":"成德里","LIN":"37鄰","STREET":"北成路","SECT":" ","MAREA":" ","LANE":" ","ALLEY":" ","HOUSE_NO":"４０１號七樓之１","E_COORD97":168054.41,"N_COORD97":2546565.4100000001,"ADDRESS":"北成路４０１號七樓之１","OBJECTID":566609},"geometry":{"x":168054.41000000015,"y":2546565.410000002}},{"attributes":{"ID":566637,"DIS_CODE":0,"TOWNNAME":"北區","LI":"成德里","LIN":"37鄰","STREET":"北成路","SECT":" ","MAREA":" ","LANE":" ","ALLEY":" ","HOUSE_NO":"４０１號七樓之２","E_COORD97":168054.41,"N_COORD97":2546565.4100000001,"ADDRESS":"北成路４０１號七樓之２","OBJECTID":566610},"geometry":{"x":168054.41000000015,"y":2546565.410000002}},{"attributes":{"ID":566638,"DIS_CODE":0,"TOWNNAME":"北區","LI":"成德里","LIN":"37鄰","STREET":"北成路","SECT":" ","MAREA":" ","LANE":" ","ALLEY":" ","HOUSE_NO":"４０１號七樓之３","E_COORD97":168054.41,"N_COORD97":2546565.4100000001,"ADDRESS":"北成路４０１號七樓之３","OBJECTID":566611},"geometry":{"x":168054.41000000015,"y":2546565.410000002}},{"attributes":{"ID":566639,"DIS_CODE":0,"TOWNNAME":"北區","LI":"成德里","LIN":"37鄰","STREET":"北成路","SECT":" ","MAREA":" ","LANE":" ","ALLEY":" ","HOUSE_NO":"４０１號七樓之５","E_COORD97":168054.41,"N_COORD97":2546565.4100000001,"ADDRESS":"北成路４０１號七樓之５","OBJECTID":566612},"geometry":{"x":168054.41000000015,"y":2546565.410000002}},{"attributes":{"ID":566640,"DIS_CODE":0,"TOWNNAME":"北區","LI":"成德里","LIN":"37鄰","STREET":"北成路","SECT":" ","MAREA":" ","LANE":" ","ALLEY":" ","HOUSE_NO":"４０１號七樓之６","E_COORD97":168054.41,"N_COORD97":2546565.4100000001,"ADDRESS":"北成路４０１號七樓之６","OBJECTID":566613},"geometry":{"x":168054.41000000015,"y":2546565.410000002}},{"attributes":{"ID":566641,"DIS_CODE":0,"TOWNNAME":"北區","LI":"成德里","LIN":"37鄰","STREET":"北成路","SECT":" ","MAREA":" ","LANE":" ","ALLEY":" ","HOUSE_NO":"４０１號七樓之７","E_COORD97":168054.41,"N_COORD97":2546565.4100000001,"ADDRESS":"北成路４０１號七樓之７","OBJECTID":566614},"geometry":{"x":168054.41000000015,"y":2546565.410000002}},{"attributes":{"ID":566642,"DIS_CODE":0,"TOWNNAME":"北區","LI":"成德里","LIN":"37鄰","STREET":"北成路","SECT":" ","MAREA":" ","LANE":" ","ALLEY":" ","HOUSE_NO":"４０１號七樓之８","E_COORD97":168054.41,"N_COORD97":2546565.4100000001,"ADDRESS":"北成路４０１號七樓之８","OBJECTID":566615},"geometry":{"x":168054.41000000015,"y":2546565.410000002}},{"attributes":{"ID":566643,"DIS_CODE":0,"TOWNNAME":"北區","LI":"成德里","LIN":"37鄰","STREET":"北成路","SECT":" ","MAREA":" ","LANE":" ","ALLEY":" ","HOUSE_NO":"４０１號七樓之９","E_COORD97":168054.41,"N_COORD97":2546565.4100000001,"ADDRESS":"北成路４０１號七樓之９","OBJECTID":566616},"geometry":{"x":168054.41000000015,"y":2546565.410000002}},{"attributes":{"ID":566644,"DIS_CODE":0,"TOWNNAME":"北區","LI":"成德里","LIN":"37鄰","STREET":"北成路","SECT":" ","MAREA":" ","LANE":" ","ALLEY":" ","HOUSE_NO":"４０１號七樓之１０","E_COORD97":168054.41,"N_COORD97":2546565.4100000001,"ADDRESS":"北成路４０１號七樓之１０","OBJECTID":566617},"geometry":{"x":168054.41000000015,"y":2546565.410000002}},{"attributes":{"ID":566645,"DIS_CODE":0,"TOWNNAME":"北區","LI":"成德里","LIN":"37鄰","STREET":"北成路","SECT":" ","MAREA":" ","LANE":" ","ALLEY":" ","HOUSE_NO":"４０１號七樓之１１","E_COORD97":168054.41,"N_COORD97":2546565.4100000001,"ADDRESS":"北成路４０１號七樓之１１","OBJECTID":566618},"geometry":{"x":168054.41000000015,"y":2546565.410000002}},{"attributes":{"ID":566646,"DIS_CODE":0,"TOWNNAME":"北區","LI":"成德里","LIN":"37鄰","STREET":"北成路","SECT":" ","MAREA":" ","LANE":" ","ALLEY":" ","HOUSE_NO":"４０１號七樓之１２","E_COORD97":168054.41,"N_COORD97":2546565.4100000001,"ADDRESS":"北成路４０１號七樓之１２","OBJECTID":566619},"geometry":{"x":168054.41000000015,"y":2546565.410000002}},{"attributes":{"ID":566647,"DIS_CODE":0,"TOWNNAME":"北區","LI":"成德里","LIN":"37鄰","STREET":"北成路","SECT":" ","MAREA":" ","LANE":" ","ALLEY":" ","HOUSE_NO":"４０１號七樓之１３","E_COORD97":168054.41,"N_COORD97":2546565.4100000001,"ADDRESS":"北成路４０１號七樓之１３","OBJECTID":566620},"geometry":{"x":168054.41000000015,"y":2546565.410000002}},{"attributes":{"ID":566648,"DIS_CODE":0,"TOWNNAME":"北區","LI":"成德里","LIN":"37鄰","STREET":"北成路","SECT":" ","MAREA":" ","LANE":" ","ALLEY":" ","HOUSE_NO":"４０１號八樓之１","E_COORD97":168054.41,"N_COORD97":2546565.4100000001,"ADDRESS":"北成路４０１號八樓之１","OBJECTID":566621},"geometry":{"x":168054.41000000015,"y":2546565.410000002}},{"attributes":{"ID":566649,"DIS_CODE":0,"TOWNNAME":"北區","LI":"成德里","LIN":"37鄰","STREET":"北成路","SECT":" ","MAREA":" ","LANE":" ","ALLEY":" ","HOUSE_NO":"４０１號八樓之２","E_COORD97":168054.41,"N_COORD97":2546565.4100000001,"ADDRESS":"北成路４０１號八樓之２","OBJECTID":566622},"geometry":{"x":168054.41000000015,"y":2546565.410000002}},{"attributes":{"ID":566650,"DIS_CODE":0,"TOWNNAME":"北區","LI":"成德里","LIN":"37鄰","STREET":"北成路","SECT":" ","MAREA":" ","LANE":" ","ALLEY":" ","HOUSE_NO":"４０１號八樓之３","E_COORD97":168054.41,"N_COORD97":2546565.4100000001,"ADDRESS":"北成路４０１號八樓之３","OBJECTID":566623},"geometry":{"x":168054.41000000015,"y":2546565.410000002}},{"attributes":{"ID":566651,"DIS_CODE":0,"TOWNNAME":"北區","LI":"成德里","LIN":"37鄰","STREET":"北成路","SECT":" ","MAREA":" ","LANE":" ","ALLEY":" ","HOUSE_NO":"４０１號八樓之５","E_COORD97":168054.41,"N_COORD97":2546565.4100000001,"ADDRESS":"北成路４０１號八樓之５","OBJECTID":566624},"geometry":{"x":168054.41000000015,"y":2546565.410000002}},{"attributes":{"ID":566652,"DIS_CODE":0,"TOWNNAME":"北區","LI":"成德里","LIN":"37鄰","STREET":"北成路","SECT":" ","MAREA":" ","LANE":" ","ALLEY":" ","HOUSE_NO":"４０１號八樓之６","E_COORD97":168054.41,"N_COORD97":2546565.4100000001,"ADDRESS":"北成路４０１號八樓之６","OBJECTID":566625},"geometry":{"x":168054.41000000015,"y":2546565.410000002}},{"attributes":{"ID":566653,"DIS_CODE":0,"TOWNNAME":"新營區","LI":"民榮里","LIN":"37鄰","STREET":"太子路","SECT":" ","MAREA":" ","LANE":" ","ALLEY":" ","HOUSE_NO":"３２之８號八樓","E_COORD97":178262.10000000001,"N_COORD97":2578174.6699999999,"ADDRESS":"太子路３２之８號八樓","OBJECTID":566626},"geometry":{"x":178262.10000000056,"y":2578174.6700000018}},{"attributes":{"ID":566654,"DIS_CODE":0,"TOWNNAME":"新營區","LI":"民榮里","LIN":"37鄰","STREET":"太子路","SECT":" ","MAREA":" ","LANE":" ","ALLEY":" ","HOUSE_NO":"３２之７號十一樓","E_COORD97":178263.35000000001,"N_COORD97":2578174.6699999999,"ADDRESS":"太子路３２之７號十一樓","OBJECTID":566627},"geometry":{"x":178263.35000000056,"y":2578174.6700000018}},{"attributes":{"ID":566655,"DIS_CODE":0,"TOWNNAME":"新營區","LI":"民榮里","LIN":"37鄰","STREET":"太子路","SECT":" ","MAREA":" ","LANE":" ","ALLEY":" ","HOUSE_NO":"３２之６號九樓","E_COORD97":178262.10000000001,"N_COORD97":2578174.6699999999,"ADDRESS":"太子路３２之６號九樓","OBJECTID":566628},"geometry":{"x":178262.10000000056,"y":2578174.6700000018}},{"attributes":{"ID":566656,"DIS_CODE":0,"TOWNNAME":"仁德區","LI":"仁義里","LIN":"37鄰","STREET":"仁義六街","SECT":" ","MAREA":" ","LANE":" ","ALLEY":" ","HOUSE_NO":"２５號二樓之２","E_COORD97":173575.35999999999,"N_COORD97":2540158.54,"ADDRESS":"仁義六街２５號二樓之２","OBJECTID":566629},"geometry":{"x":173575.36000000127,"y":2540158.540000001}},{"attributes":{"ID":566657,"DIS_CODE":0,"TOWNNAME":"仁德區","LI":"仁義里","LIN":"37鄰","STREET":"仁義六街","SECT":" ","MAREA":" ","LANE":" ","ALLEY":" ","HOUSE_NO":"２５號四樓之１","E_COORD97":173575.23000000001,"N_COORD97":2540158.54,"ADDRESS":"仁義六街２５號四樓之１","OBJECTID":566630},"geometry":{"x":173575.23000000045,"y":2540158.540000001}},{"attributes":{"ID":566658,"DIS_CODE":0,"TOWNNAME":"仁德區","LI":"仁義里","LIN":"37鄰","STREET":"仁義六街","SECT":" ","MAREA":" ","LANE":" ","ALLEY":" ","HOUSE_NO":"２５號三樓之４","E_COORD97":173575.25,"N_COORD97":2540158.54,"ADDRESS":"仁義六街２５號三樓之４","OBJECTID":566631},"geometry":{"x":173575.25000000186,"y":2540158.540000001}},{"attributes":{"ID":566659,"DIS_CODE":0,"TOWNNAME":"永康區","LI":"東灣里","LIN":"37鄰","STREET":"大灣三街","SECT":" ","MAREA":" ","LANE":" ","ALLEY":" ","HOUSE_NO":"５號二樓之２","E_COORD97":175081.20999999999,"N_COORD97":2544850.04,"ADDRESS":"大灣三街５號二樓之２","OBJECTID":566632},"geometry":{"x":175081.21000000089,"y":2544850.0399999972}},{"attributes":{"ID":566660,"DIS_CODE":0,"TOWNNAME":"永康區","LI":"埔園里","LIN":"37鄰","STREET":"龍中街","SECT":" ","MAREA":" ","LANE":" ","ALLEY":" ","HOUSE_NO":"４４３號四樓","E_COORD97":174396.85999999999,"N_COORD97":2548168.3799999999,"ADDRESS":"龍中街４４３號四樓","OBJECTID":566633},"geometry":{"x":174396.8599999994,"y":2548168.3800000008}},{"attributes":{"ID":566661,"DIS_CODE":0,"TOWNNAME":"永康區","LI":"東灣里","LIN":"37鄰","STREET":"大灣三街","SECT":" ","MAREA":" ","LANE":" ","ALLEY":" ","HOUSE_NO":"５號五樓之１","E_COORD97":175081.07000000001,"N_COORD97":2544850.04,"ADDRESS":"大灣三街５號五樓之１","OBJECTID":566634},"geometry":{"x":175081.07000000123,"y":2544850.0399999972}},{"attributes":{"ID":566662,"DIS_CODE":0,"TOWNNAME":"永康區","LI":"東灣里","LIN":"37鄰","STREET":"大灣三街","SECT":" ","MAREA":" ","LANE":" ","ALLEY":" ","HOUSE_NO":"５號五樓之２","E_COORD97":175081.20999999999,"N_COORD97":2544850.04,"ADDRESS":"大灣三街５號五樓之２","OBJECTID":566635},"geometry":{"x":175081.21000000089,"y":2544850.0399999972}},{"attributes":{"ID":566663,"DIS_CODE":0,"TOWNNAME":"永康區","LI":"東灣里","LIN":"37鄰","STREET":"大灣三街","SECT":" ","MAREA":" ","LANE":" ","ALLEY":" ","HOUSE_NO":"７號四樓之１","E_COORD97":175070.07999999999,"N_COORD97":2544843.54,"ADDRESS":"大灣三街７號四樓之１","OBJECTID":566636},"geometry":{"x":175070.08000000101,"y":2544843.5400000028}},{"attributes":{"ID":566664,"DIS_CODE":0,"TOWNNAME":"東區","LI":"虎尾里","LIN":"37鄰","STREET":"東門路","SECT":"三段","MAREA":" ","LANE":" ","ALLEY":" ","HOUSE_NO":"２５７號十樓之３","E_COORD97":171675.20000000001,"N_COORD97":2541921.25,"ADDRESS":"東門路三段２５７號十樓之３","OBJECTID":566637},"geometry":{"x":171675.20000000019,"y":2541921.2500000019}},{"attributes":{"ID":566665,"DIS_CODE":0,"TOWNNAME":"永康區","LI":"東灣里","LIN":"37鄰","STREET":"大灣三街","SECT":" ","MAREA":" ","LANE":" ","ALLEY":" ","HOUSE_NO":"７號五樓之１","E_COORD97":175070.07999999999,"N_COORD97":2544843.54,"ADDRESS":"大灣三街７號五樓之１","OBJECTID":566638},"geometry":{"x":175070.08000000101,"y":2544843.5400000028}},{"attributes":{"ID":566666,"DIS_CODE":0,"TOWNNAME":"永康區","LI":"東灣里","LIN":"37鄰","STREET":"大灣三街","SECT":" ","MAREA":" ","LANE":" ","ALLEY":" ","HOUSE_NO":"７號五樓之２","E_COORD97":175070.22,"N_COORD97":2544843.54,"ADDRESS":"大灣三街７號五樓之２","OBJECTID":566639},"geometry":{"x":175070.2200000016,"y":2544843.5400000028}},{"attributes":{"ID":566667,"DIS_CODE":0,"TOWNNAME":"永康區","LI":"東灣里","LIN":"37鄰","STREET":"大灣三街","SECT":" ","MAREA":" ","LANE":" ","ALLEY":" ","HOUSE_NO":"５號五樓之３","E_COORD97":175081.17000000001,"N_COORD97":2544850.04,"ADDRESS":"大灣三街５號五樓之３","OBJECTID":566640},"geometry":{"x":175081.17000000086,"y":2544850.0399999972}},{"attributes":{"ID":566668,"DIS_CODE":0,"TOWNNAME":"中西區","LI":"赤嵌里","LIN":"20鄰","STREET":"忠義路","SECT":"二段","MAREA":" ","LANE":" ","ALLEY":" ","HOUSE_NO":"１８５號底層","E_COORD97":168419.67000000001,"N_COORD97":2544165.48,"ADDRESS":"忠義路二段１８５號底層","OBJECTID":566641},"geometry":{"x":168419.67000000086,"y":2544165.4800000023}},{"attributes":{"ID":566669,"DIS_CODE":0,"TOWNNAME":"永康區","LI":"西灣里","LIN":"37鄰","STREET":"國光七街","SECT":" ","MAREA":" ","LANE":" ","ALLEY":" ","HOUSE_NO":"５６號八樓之２","E_COORD97":174160.67000000001,"N_COORD97":2545535.29,"ADDRESS":"國光七街５６號八樓之２","OBJECTID":566642},"geometry":{"x":174160.67000000086,"y":2545535.2899999991}},{"attributes":{"ID":566670,"DIS_CODE":0,"TOWNNAME":"永康區","LI":"西灣里","LIN":"37鄰","STREET":"國光七街","SECT":" ","MAREA":" ","LANE":" ","ALLEY":" ","HOUSE_NO":"５６號四樓之１","E_COORD97":174160.54000000001,"N_COORD97":2545535.29,"ADDRESS":"國光七街５６號四樓之１","OBJECTID":566643},"geometry":{"x":174160.54000000097,"y":2545535.2899999991}},{"attributes":{"ID":566671,"DIS_CODE":0,"TOWNNAME":"永康區","LI":"西灣里","LIN":"37鄰","STREET":"國光七街","SECT":" ","MAREA":" ","LANE":" ","ALLEY":" ","HOUSE_NO":"４８號四樓之２","E_COORD97":174180.47,"N_COORD97":2545536.29,"ADDRESS":"國光七街４８號四樓之２","OBJECTID":566644},"geometry":{"x":174180.47000000067,"y":2545536.2899999991}},{"attributes":{"ID":566672,"DIS_CODE":0,"TOWNNAME":"安南區","LI":"佃東里","LIN":"3鄰","STREET":"十二佃路","SECT":" ","MAREA":" ","LANE":" ","ALLEY":" ","HOUSE_NO":"９號","E_COORD97":165708.04000000001,"N_COORD97":2552035.1899999999,"ADDRESS":"十二佃路９號","OBJECTID":566645},"geometry":{"x":165708.04000000097,"y":2552035.1900000013}},{"attributes":{"ID":566673,"DIS_CODE":0,"TOWNNAME":"永康區","LI":"西灣里","LIN":"37鄰","STREET":"國光七街","SECT":" ","MAREA":" ","LANE":" ","ALLEY":" ","HOUSE_NO":"５８號四樓之１","E_COORD97":174154.29000000001,"N_COORD97":2545535.29,"ADDRESS":"國光七街５８號四樓之１","OBJECTID":566646},"geometry":{"x":174154.29000000004,"y":2545535.2899999991}},{"attributes":{"ID":566674,"DIS_CODE":0,"TOWNNAME":"永康區","LI":"西灣里","LIN":"37鄰","STREET":"國光七街","SECT":" ","MAREA":" ","LANE":" ","ALLEY":" ","HOUSE_NO":"５６號四樓之２","E_COORD97":174160.67000000001,"N_COORD97":2545535.29,"ADDRESS":"國光七街５６號四樓之２","OBJECTID":566647},"geometry":{"x":174160.67000000086,"y":2545535.2899999991}},{"attributes":{"ID":566675,"DIS_CODE":0,"TOWNNAME":"永康區","LI":"西灣里","LIN":"37鄰","STREET":"國光七街","SECT":" ","MAREA":" ","LANE":" ","ALLEY":" ","HOUSE_NO":"５６號八樓之１","E_COORD97":174160.54000000001,"N_COORD97":2545535.29,"ADDRESS":"國光七街５６號八樓之１","OBJECTID":566648},"geometry":{"x":174160.54000000097,"y":2545535.2899999991}},{"attributes":{"ID":566676,"DIS_CODE":0,"TOWNNAME":"永康區","LI":"西灣里","LIN":"37鄰","STREET":"國光七街","SECT":" ","MAREA":" ","LANE":" ","ALLEY":" ","HOUSE_NO":"５６號五樓之２","E_COORD97":174160.67000000001,"N_COORD97":2545535.29,"ADDRESS":"國光七街５６號五樓之２","OBJECTID":566649},"geometry":{"x":174160.67000000086,"y":2545535.2899999991}},{"attributes":{"ID":566677,"DIS_CODE":0,"TOWNNAME":"永康區","LI":"\u25A0行里","LIN":"37鄰","STREET":"仁愛街","SECT":" ","MAREA":" ","LANE":" ","ALLEY":" ","HOUSE_NO":"９０號四樓","E_COORD97":172053.09,"N_COORD97":2549427.4100000001,"ADDRESS":"仁愛街９０號四樓","OBJECTID":566650},"geometry":{"x":172053.08999999985,"y":2549427.410000002}},{"attributes":{"ID":566678,"DIS_CODE":0,"TOWNNAME":"永康區","LI":"\u25A0行里","LIN":"37鄰","STREET":"仁愛街","SECT":" ","MAREA":" ","LANE":" ","ALLEY":" ","HOUSE_NO":"７８號七樓","E_COORD97":172043.04000000001,"N_COORD97":2549404.1499999999,"ADDRESS":"仁愛街７８號七樓","OBJECTID":566651},"geometry":{"x":172043.04000000097,"y":2549404.1500000041}},{"attributes":{"ID":566679,"DIS_CODE":0,"TOWNNAME":"永康區","LI":"\u25A0行里","LIN":"37鄰","STREET":"仁愛街","SECT":" ","MAREA":" ","LANE":" ","ALLEY":" ","HOUSE_NO":"７８號五樓","E_COORD97":172043.04000000001,"N_COORD97":2549404.1499999999,"ADDRESS":"仁愛街７８號五樓","OBJECTID":566652},"geometry":{"x":172043.04000000097,"y":2549404.1500000041}},{"attributes":{"ID":566680,"DIS_CODE":0,"TOWNNAME":"永康區","LI":"\u25A0行里","LIN":"37鄰","STREET":"仁愛街","SECT":" ","MAREA":" ","LANE":" ","ALLEY":" ","HOUSE_NO":"７８號六樓","E_COORD97":172043.04000000001,"N_COORD97":2549404.1499999999,"ADDRESS":"仁愛街７８號六樓","OBJECTID":566653},"geometry":{"x":172043.04000000097,"y":2549404.1500000041}},{"attributes":{"ID":566681,"DIS_CODE":0,"TOWNNAME":"永康區","LI":"龍潭里","LIN":"24鄰","STREET":"中山北路","SECT":" ","MAREA":" ","LANE":" ","ALLEY":" ","HOUSE_NO":"３４０號","E_COORD97":175052.72,"N_COORD97":2547691.1299999999,"ADDRESS":"中山北路３４０號","OBJECTID":566654},"geometry":{"x":175052.71999999974,"y":2547691.1300000008}},{"attributes":{"ID":566682,"DIS_CODE":0,"TOWNNAME":"仁德區","LI":"仁義里","LIN":"37鄰","STREET":"仁義六街","SECT":" ","MAREA":" ","LANE":" ","ALLEY":" ","HOUSE_NO":"２５號六樓之２","E_COORD97":173575.35999999999,"N_COORD97":2540158.54,"ADDRESS":"仁義六街２５號六樓之２","OBJECTID":566655},"geometry":{"x":173575.36000000127,"y":2540158.540000001}},{"attributes":{"ID":566683,"DIS_CODE":0,"TOWNNAME":"仁德區","LI":"仁義里","LIN":"37鄰","STREET":"仁義六街","SECT":" ","MAREA":" ","LANE":" ","ALLEY":" ","HOUSE_NO":"２５號二樓之１","E_COORD97":173575.23000000001,"N_COORD97":2540158.54,"ADDRESS":"仁義六街２５號二樓之１","OBJECTID":566656},"geometry":{"x":173575.23000000045,"y":2540158.540000001}},{"attributes":{"ID":566684,"DIS_CODE":0,"TOWNNAME":"仁德區","LI":"仁義里","LIN":"37鄰","STREET":"仁義六街","SECT":" ","MAREA":" ","LANE":" ","ALLEY":" ","HOUSE_NO":"２５號三樓之３","E_COORD97":173575.32999999999,"N_COORD97":2540158.54,"ADDRESS":"仁義六街２５號三樓之３","OBJECTID":566657},"geometry":{"x":173575.33000000101,"y":2540158.540000001}},{"attributes":{"ID":566685,"DIS_CODE":0,"TOWNNAME":"仁德區","LI":"仁義里","LIN":"37鄰","STREET":"仁義六街","SECT":" ","MAREA":" ","LANE":" ","ALLEY":" ","HOUSE_NO":"２５號一樓之４","E_COORD97":173575.25,"N_COORD97":2540158.54,"ADDRESS":"仁義六街２５號一樓之４","OBJECTID":566658},"geometry":{"x":173575.25000000186,"y":2540158.540000001}},{"attributes":{"ID":566686,"DIS_CODE":0,"TOWNNAME":"仁德區","LI":"仁義里","LIN":"37鄰","STREET":"仁義六街","SECT":" ","MAREA":" ","LANE":" ","ALLEY":" ","HOUSE_NO":"２５號五樓之３","E_COORD97":173575.32999999999,"N_COORD97":2540158.54,"ADDRESS":"仁義六街２５號五樓之３","OBJECTID":566659},"geometry":{"x":173575.33000000101,"y":2540158.540000001}},{"attributes":{"ID":566687,"DIS_CODE":0,"TOWNNAME":"仁德區","LI":"仁義里","LIN":"37鄰","STREET":"仁義六街","SECT":" ","MAREA":" ","LANE":" ","ALLEY":" ","HOUSE_NO":"２５號五樓之４","E_COORD97":173575.25,"N_COORD97":2540158.54,"ADDRESS":"仁義六街２５號五樓之４","OBJECTID":566660},"geometry":{"x":173575.25000000186,"y":2540158.540000001}},{"attributes":{"ID":566688,"DIS_CODE":0,"TOWNNAME":"仁德區","LI":"仁義里","LIN":"37鄰","STREET":"仁義六街","SECT":" ","MAREA":" ","LANE":" ","ALLEY":" ","HOUSE_NO":"２５號六樓之１","E_COORD97":173575.23000000001,"N_COORD97":2540158.54,"ADDRESS":"仁義六街２５號六樓之１","OBJECTID":566661},"geometry":{"x":173575.23000000045,"y":2540158.540000001}},{"attributes":{"ID":566689,"DIS_CODE":0,"TOWNNAME":"仁德區","LI":"仁義里","LIN":"37鄰","STREET":"仁義六街","SECT":" ","MAREA":" ","LANE":" ","ALLEY":" ","HOUSE_NO":"２５號四樓之３","E_COORD97":173575.32999999999,"N_COORD97":2540158.54,"ADDRESS":"仁義六街２５號四樓之３","OBJECTID":566662},"geometry":{"x":173575.33000000101,"y":2540158.540000001}},{"attributes":{"ID":566690,"DIS_CODE":0,"TOWNNAME":"仁德區","LI":"仁義里","LIN":"37鄰","STREET":"仁義六街","SECT":" ","MAREA":" ","LANE":" ","ALLEY":" ","HOUSE_NO":"２５號二樓之３","E_COORD97":173575.32999999999,"N_COORD97":2540158.54,"ADDRESS":"仁義六街２５號二樓之３","OBJECTID":566663},"geometry":{"x":173575.33000000101,"y":2540158.540000001}},{"attributes":{"ID":566691,"DIS_CODE":0,"TOWNNAME":"仁德區","LI":"仁義里","LIN":"37鄰","STREET":"仁義六街","SECT":" ","MAREA":" ","LANE":" ","ALLEY":" ","HOUSE_NO":"２５號六樓之４","E_COORD97":173575.25,"N_COORD97":2540158.54,"ADDRESS":"仁義六街２５號六樓之４","OBJECTID":566664},"geometry":{"x":173575.25000000186,"y":2540158.540000001}},{"attributes":{"ID":566692,"DIS_CODE":0,"TOWNNAME":"永康區","LI":"\u25A0行里","LIN":"37鄰","STREET":"仁愛街","SECT":" ","MAREA":" ","LANE":" ","ALLEY":" ","HOUSE_NO":"９２號五樓","E_COORD97":172054.64000000001,"N_COORD97":2549430.9100000001,"ADDRESS":"仁愛街９２號五樓","OBJECTID":566665},"geometry":{"x":172054.63999999966,"y":2549430.910000002}},{"attributes":{"ID":566693,"DIS_CODE":0,"TOWNNAME":"永康區","LI":"\u25A0行里","LIN":"37鄰","STREET":"仁愛街","SECT":" ","MAREA":" ","LANE":" ","ALLEY":" ","HOUSE_NO":"７６號六樓","E_COORD97":172041.20000000001,"N_COORD97":2549399.8999999999,"ADDRESS":"仁愛街７６號六樓","OBJECTID":566666},"geometry":{"x":172041.20000000019,"y":2549399.9000000022}},{"attributes":{"ID":566694,"DIS_CODE":0,"TOWNNAME":"永康區","LI":"\u25A0行里","LIN":"37鄰","STREET":"仁愛街","SECT":" ","MAREA":" ","LANE":" ","ALLEY":" ","HOUSE_NO":"７８號三樓","E_COORD97":172043.04000000001,"N_COORD97":2549404.1499999999,"ADDRESS":"仁愛街７８號三樓","OBJECTID":566667},"geometry":{"x":172043.04000000097,"y":2549404.1500000041}},{"attributes":{"ID":566695,"DIS_CODE":0,"TOWNNAME":"永康區","LI":"\u25A0行里","LIN":"37鄰","STREET":"仁愛街","SECT":" ","MAREA":" ","LANE":" ","ALLEY":" ","HOUSE_NO":"９２號三樓","E_COORD97":172054.64000000001,"N_COORD97":2549430.9100000001,"ADDRESS":"仁愛街９２號三樓","OBJECTID":566668},"geometry":{"x":172054.63999999966,"y":2549430.910000002}},{"attributes":{"ID":566696,"DIS_CODE":0,"TOWNNAME":"永康區","LI":"\u25A0行里","LIN":"37鄰","STREET":"仁愛街","SECT":" ","MAREA":" ","LANE":" ","ALLEY":" ","HOUSE_NO":"９２號六樓","E_COORD97":172054.64000000001,"N_COORD97":2549430.9100000001,"ADDRESS":"仁愛街９２號六樓","OBJECTID":566669},"geometry":{"x":172054.63999999966,"y":2549430.910000002}},{"attributes":{"ID":566697,"DIS_CODE":0,"TOWNNAME":"永康區","LI":"\u25A0行里","LIN":"37鄰","STREET":"仁愛街","SECT":" ","MAREA":" ","LANE":" ","ALLEY":" ","HOUSE_NO":"７８號四樓","E_COORD97":172043.04000000001,"N_COORD97":2549404.1499999999,"ADDRESS":"仁愛街７８號四樓","OBJECTID":566670},"geometry":{"x":172043.04000000097,"y":2549404.1500000041}},{"attributes":{"ID":566698,"DIS_CODE":0,"TOWNNAME":"永康區","LI":"\u25A0行里","LIN":"37鄰","STREET":"仁愛街","SECT":" ","MAREA":" ","LANE":" ","ALLEY":" ","HOUSE_NO":"７６號三樓","E_COORD97":172041.20000000001,"N_COORD97":2549399.8999999999,"ADDRESS":"仁愛街７６號三樓","OBJECTID":566671},"geometry":{"x":172041.20000000019,"y":2549399.9000000022}},{"attributes":{"ID":566699,"DIS_CODE":0,"TOWNNAME":"永康區","LI":"\u25A0行里","LIN":"37鄰","STREET":"仁愛街","SECT":" ","MAREA":" ","LANE":" ","ALLEY":" ","HOUSE_NO":"９２號四樓","E_COORD97":172054.64000000001,"N_COORD97":2549430.9100000001,"ADDRESS":"仁愛街９２號四樓","OBJECTID":566672},"geometry":{"x":172054.63999999966,"y":2549430.910000002}},{"attributes":{"ID":566700,"DIS_CODE":0,"TOWNNAME":"永康區","LI":"龍潭里","LIN":"14鄰","STREET":"龍橋街","SECT":" ","MAREA":" ","LANE":" ","ALLEY":" ","HOUSE_NO":"１０１號之１","E_COORD97":174672.39999999999,"N_COORD97":2548498.04,"ADDRESS":"龍橋街１０１號之１","OBJECTID":566673},"geometry":{"x":174672.40000000037,"y":2548498.0399999991}},{"attributes":{"ID":566701,"DIS_CODE":0,"TOWNNAME":"永康區","LI":"網寮里","LIN":"19鄰","STREET":"文化路","SECT":" ","MAREA":" ","LANE":" ","ALLEY":" ","HOUSE_NO":"３０６號","E_COORD97":173438.81,"N_COORD97":2546163.4300000002,"ADDRESS":"文化路３０６號","OBJECTID":566674},"geometry":{"x":173438.81000000145,"y":2546163.4299999997}},{"attributes":{"ID":566702,"DIS_CODE":0,"TOWNNAME":"永康區","LI":"龍潭里","LIN":"32鄰","STREET":"龍中街","SECT":" ","MAREA":" ","LANE":" ","ALLEY":" ","HOUSE_NO":"６０號之２","E_COORD97":174451.79000000001,"N_COORD97":2547994.3500000001,"ADDRESS":"龍中街６０號之２","OBJECTID":566675},"geometry":{"x":174451.79000000097,"y":2547994.3499999996}},{"attributes":{"ID":566703,"DIS_CODE":0,"TOWNNAME":"仁德區","LI":"仁義里","LIN":"37鄰","STREET":"仁義六街","SECT":" ","MAREA":" ","LANE":" ","ALLEY":" ","HOUSE_NO":"２５號三樓之１","E_COORD97":173575.23000000001,"N_COORD97":2540158.54,"ADDRESS":"仁義六街２５號三樓之１","OBJECTID":566676},"geometry":{"x":173575.23000000045,"y":2540158.540000001}},{"attributes":{"ID":566704,"DIS_CODE":0,"TOWNNAME":"仁德區","LI":"仁義里","LIN":"37鄰","STREET":"仁義六街","SECT":" ","MAREA":" ","LANE":" ","ALLEY":" ","HOUSE_NO":"２５號三樓之２","E_COORD97":173575.35999999999,"N_COORD97":2540158.54,"ADDRESS":"仁義六街２５號三樓之２","OBJECTID":566677},"geometry":{"x":173575.36000000127,"y":2540158.540000001}},{"attributes":{"ID":566705,"DIS_CODE":0,"TOWNNAME":"仁德區","LI":"仁義里","LIN":"37鄰","STREET":"仁義六街","SECT":" ","MAREA":" ","LANE":" ","ALLEY":" ","HOUSE_NO":"２５號一樓之１","E_COORD97":173575.23000000001,"N_COORD97":2540158.54,"ADDRESS":"仁義六街２５號一樓之１","OBJECTID":566678},"geometry":{"x":173575.23000000045,"y":2540158.540000001}},{"attributes":{"ID":566706,"DIS_CODE":0,"TOWNNAME":"永康區","LI":"蔦松里","LIN":"9鄰","STREET":"正北三路","SECT":" ","MAREA":" ","LANE":" ","ALLEY":" ","HOUSE_NO":"１３６號","E_COORD97":174389.56,"N_COORD97":2550045.52,"ADDRESS":"正北三路１３６號","OBJECTID":566679},"geometry":{"x":174389.55999999959,"y":2550045.5200000014}},{"attributes":{"ID":566707,"DIS_CODE":0,"TOWNNAME":"仁德區","LI":"仁義里","LIN":"37鄰","STREET":"仁義六街","SECT":" ","MAREA":" ","LANE":" ","ALLEY":" ","HOUSE_NO":"２５號四樓之４","E_COORD97":173575.25,"N_COORD97":2540158.54,"ADDRESS":"仁義六街２５號四樓之４","OBJECTID":566680},"geometry":{"x":173575.25000000186,"y":2540158.540000001}},{"attributes":{"ID":566708,"DIS_CODE":0,"TOWNNAME":"仁德區","LI":"仁義里","LIN":"37鄰","STREET":"仁義六街","SECT":" ","MAREA":" ","LANE":" ","ALLEY":" ","HOUSE_NO":"２５號一樓之３","E_COORD97":173575.32999999999,"N_COORD97":2540158.54,"ADDRESS":"仁義六街２５號一樓之３","OBJECTID":566681},"geometry":{"x":173575.33000000101,"y":2540158.540000001}},{"attributes":{"ID":566709,"DIS_CODE":0,"TOWNNAME":"仁德區","LI":"仁義里","LIN":"37鄰","STREET":"仁義六街","SECT":" ","MAREA":" ","LANE":" ","ALLEY":" ","HOUSE_NO":"２５號二樓之４","E_COORD97":173575.25,"N_COORD97":2540158.54,"ADDRESS":"仁義六街２５號二樓之４","OBJECTID":566682},"geometry":{"x":173575.25000000186,"y":2540158.540000001}},{"attributes":{"ID":566710,"DIS_CODE":0,"TOWNNAME":"仁德區","LI":"仁義里","LIN":"37鄰","STREET":"仁義六街","SECT":" ","MAREA":" ","LANE":" ","ALLEY":" ","HOUSE_NO":"２５號一樓之２","E_COORD97":173575.35999999999,"N_COORD97":2540158.54,"ADDRESS":"仁義六街２５號一樓之２","OBJECTID":566683},"geometry":{"x":173575.36000000127,"y":2540158.540000001}},{"attributes":{"ID":566711,"DIS_CODE":0,"TOWNNAME":"仁德區","LI":"仁義里","LIN":"37鄰","STREET":"仁義六街","SECT":" ","MAREA":" ","LANE":" ","ALLEY":" ","HOUSE_NO":"２５號五樓之１","E_COORD97":173575.23000000001,"N_COORD97":2540158.54,"ADDRESS":"仁義六街２５號五樓之１","OBJECTID":566684},"geometry":{"x":173575.23000000045,"y":2540158.540000001}},{"attributes":{"ID":566712,"DIS_CODE":0,"TOWNNAME":"仁德區","LI":"仁義里","LIN":"37鄰","STREET":"仁義六街","SECT":" ","MAREA":" ","LANE":" ","ALLEY":" ","HOUSE_NO":"２５號五樓之２","E_COORD97":173575.35999999999,"N_COORD97":2540158.54,"ADDRESS":"仁義六街２５號五樓之２","OBJECTID":566685},"geometry":{"x":173575.36000000127,"y":2540158.540000001}},{"attributes":{"ID":566713,"DIS_CODE":0,"TOWNNAME":"永康區","LI":"網寮里","LIN":"23鄰","STREET":"永大一路","SECT":" ","MAREA":" ","LANE":" ","ALLEY":" ","HOUSE_NO":"１７５號","E_COORD97":173861.54000000001,"N_COORD97":2546359.1000000001,"ADDRESS":"永大一路１７５號","OBJECTID":566686},"geometry":{"x":173861.5400000019,"y":2546359.1000000034}},{"attributes":{"ID":566714,"DIS_CODE":0,"TOWNNAME":"永康區","LI":"網寮里","LIN":"24鄰","STREET":"永華路","SECT":" ","MAREA":" ","LANE":" ","ALLEY":" ","HOUSE_NO":"３８５號","E_COORD97":173889.84,"N_COORD97":2546412.6099999999,"ADDRESS":"永華路３８５號","OBJECTID":566687},"geometry":{"x":173889.84000000171,"y":2546412.6099999994}},{"attributes":{"ID":566715,"DIS_CODE":0,"TOWNNAME":"永康區","LI":"網寮里","LIN":"17鄰","STREET":"中山南路","SECT":" ","MAREA":" ","LANE":" ","ALLEY":" ","HOUSE_NO":"９４４號","E_COORD97":173168.10999999999,"N_COORD97":2546926.9199999999,"ADDRESS":"中山南路９４４號","OBJECTID":566688},"geometry":{"x":173168.11000000127,"y":2546926.9200000037}},{"attributes":{"ID":566716,"DIS_CODE":0,"TOWNNAME":"永康區","LI":"龍潭里","LIN":"32鄰","STREET":"龍中街","SECT":" ","MAREA":" ","LANE":" ","ALLEY":" ","HOUSE_NO":"７６號之１","E_COORD97":174447.16,"N_COORD97":2548037.5499999998,"ADDRESS":"龍中街７６號之１","OBJECTID":566689},"geometry":{"x":174447.15999999922,"y":2548037.5500000007}},{"attributes":{"ID":566717,"DIS_CODE":0,"TOWNNAME":"永康區","LI":"網寮里","LIN":"5鄰","STREET":"永二街","SECT":" ","MAREA":" ","LANE":" ","ALLEY":" ","HOUSE_NO":"１６５號","E_COORD97":173493.60999999999,"N_COORD97":2546397.4199999999,"ADDRESS":"永二街１６５號","OBJECTID":566690},"geometry":{"x":173493.61000000127,"y":2546397.4199999999}},{"attributes":{"ID":566718,"DIS_CODE":0,"TOWNNAME":"永康區","LI":"網寮里","LIN":"18鄰","STREET":"永勝街","SECT":" ","MAREA":" ","LANE":" ","ALLEY":" ","HOUSE_NO":"８９號","E_COORD97":173497.42999999999,"N_COORD97":2546355.46,"ADDRESS":"永勝街８９號","OBJECTID":566691},"geometry":{"x":173497.43000000156,"y":2546355.4600000028}},{"attributes":{"ID":566719,"DIS_CODE":0,"TOWNNAME":"永康區","LI":"蔦松里","LIN":"6鄰","STREET":"蔦松一街","SECT":" ","MAREA":" ","LANE":" ","ALLEY":" ","HOUSE_NO":"２０２號","E_COORD97":173629.23999999999,"N_COORD97":2549720.25,"ADDRESS":"蔦松一街２０２號","OBJECTID":566692},"geometry":{"x":173629.24000000022,"y":2549720.25}},{"attributes":{"ID":566720,"DIS_CODE":0,"TOWNNAME":"永康區","LI":"網寮里","LIN":"19鄰","STREET":"文化路","SECT":" ","MAREA":" ","LANE":" ","ALLEY":" ","HOUSE_NO":"３１２號","E_COORD97":173428.20999999999,"N_COORD97":2546170.1800000002,"ADDRESS":"文化路３１２號","OBJECTID":566693},"geometry":{"x":173428.21000000089,"y":2546170.1800000016}},{"attributes":{"ID":566721,"DIS_CODE":0,"TOWNNAME":"永康區","LI":"蔦松里","LIN":"9鄰","STREET":"正北三路","SECT":" ","MAREA":" ","LANE":" ","ALLEY":" ","HOUSE_NO":"９９號","E_COORD97":174427.16,"N_COORD97":2549971,"ADDRESS":"正北三路９９號","OBJECTID":566694},"geometry":{"x":174427.16000000108,"y":2549971.0000000037}},{"attributes":{"ID":566722,"DIS_CODE":0,"TOWNNAME":"東區","LI":"虎尾里","LIN":"37鄰","STREET":"東門路","SECT":"三段","MAREA":" ","LANE":" ","ALLEY":" ","HOUSE_NO":"２５３號二樓","E_COORD97":171663.81,"N_COORD97":2541880.9399999999,"ADDRESS":"東門路三段２５３號二樓","OBJECTID":566695},"geometry":{"x":171663.81000000145,"y":2541880.9399999995}},{"attributes":{"ID":566723,"DIS_CODE":0,"TOWNNAME":"東區","LI":"虎尾里","LIN":"37鄰","STREET":"東門路","SECT":"三段","MAREA":" ","LANE":" ","ALLEY":" ","HOUSE_NO":"２５３號二樓之１","E_COORD97":171663.81,"N_COORD97":2541880.9399999999,"ADDRESS":"東門路三段２５３號二樓之１","OBJECTID":566696},"geometry":{"x":171663.81000000145,"y":2541880.9399999995}},{"attributes":{"ID":566724,"DIS_CODE":0,"TOWNNAME":"東區","LI":"虎尾里","LIN":"37鄰","STREET":"東門路","SECT":"三段","MAREA":" ","LANE":" ","ALLEY":" ","HOUSE_NO":"２５３號二樓之２","E_COORD97":171663.81,"N_COORD97":2541880.9399999999,"ADDRESS":"東門路三段２５３號二樓之２","OBJECTID":566697},"geometry":{"x":171663.81000000145,"y":2541880.9399999995}},{"attributes":{"ID":566725,"DIS_CODE":0,"TOWNNAME":"東區","LI":"虎尾里","LIN":"37鄰","STREET":"東門路","SECT":"三段","MAREA":" ","LANE":" ","ALLEY":" ","HOUSE_NO":"２５３號三樓","E_COORD97":171663.81,"N_COORD97":2541880.9399999999,"ADDRESS":"東門路三段２５３號三樓","OBJECTID":566698},"geometry":{"x":171663.81000000145,"y":2541880.9399999995}},{"attributes":{"ID":566726,"DIS_CODE":0,"TOWNNAME":"東區","LI":"虎尾里","LIN":"37鄰","STREET":"東門路","SECT":"三段","MAREA":" ","LANE":" ","ALLEY":" ","HOUSE_NO":"２５３號三樓之１","E_COORD97":171663.81,"N_COORD97":2541880.9399999999,"ADDRESS":"東門路三段２５３號三樓之１","OBJECTID":566699},"geometry":{"x":171663.81000000145,"y":2541880.9399999995}},{"attributes":{"ID":566727,"DIS_CODE":0,"TOWNNAME":"東區","LI":"虎尾里","LIN":"37鄰","STREET":"東門路","SECT":"三段","MAREA":" ","LANE":" ","ALLEY":" ","HOUSE_NO":"２５３號四樓","E_COORD97":171663.81,"N_COORD97":2541880.9399999999,"ADDRESS":"東門路三段２５３號四樓","OBJECTID":566700},"geometry":{"x":171663.81000000145,"y":2541880.9399999995}},{"attributes":{"ID":566728,"DIS_CODE":0,"TOWNNAME":"東區","LI":"虎尾里","LIN":"37鄰","STREET":"東門路","SECT":"三段","MAREA":" ","LANE":" ","ALLEY":" ","HOUSE_NO":"２５３號四樓之１","E_COORD97":171663.81,"N_COORD97":2541880.9399999999,"ADDRESS":"東門路三段２５３號四樓之１","OBJECTID":566701},"geometry":{"x":171663.81000000145,"y":2541880.9399999995}},{"attributes":{"ID":566729,"DIS_CODE":0,"TOWNNAME":"東區","LI":"虎尾里","LIN":"37鄰","STREET":"東門路","SECT":"三段","MAREA":" ","LANE":" ","ALLEY":" ","HOUSE_NO":"２５３號五樓","E_COORD97":171663.81,"N_COORD97":2541880.9399999999,"ADDRESS":"東門路三段２５３號五樓","OBJECTID":566702},"geometry":{"x":171663.81000000145,"y":2541880.9399999995}},{"attributes":{"ID":566730,"DIS_CODE":0,"TOWNNAME":"東區","LI":"虎尾里","LIN":"37鄰","STREET":"東門路","SECT":"三段","MAREA":" ","LANE":" ","ALLEY":" ","HOUSE_NO":"２５３號五樓之１","E_COORD97":171663.81,"N_COORD97":2541880.9399999999,"ADDRESS":"東門路三段２５３號五樓之１","OBJECTID":566703},"geometry":{"x":171663.81000000145,"y":2541880.9399999995}},{"attributes":{"ID":566731,"DIS_CODE":0,"TOWNNAME":"東區","LI":"虎尾里","LIN":"37鄰","STREET":"東門路","SECT":"三段","MAREA":" ","LANE":" ","ALLEY":" ","HOUSE_NO":"２５３號五樓之２","E_COORD97":171663.81,"N_COORD97":2541880.9399999999,"ADDRESS":"東門路三段２５３號五樓之２","OBJECTID":566704},"geometry":{"x":171663.81000000145,"y":2541880.9399999995}},{"attributes":{"ID":566732,"DIS_CODE":0,"TOWNNAME":"東區","LI":"虎尾里","LIN":"37鄰","STREET":"東門路","SECT":"三段","MAREA":" ","LANE":" ","ALLEY":" ","HOUSE_NO":"２５３號五樓之３","E_COORD97":171663.81,"N_COORD97":2541880.9399999999,"ADDRESS":"東門路三段２５３號五樓之３","OBJECTID":566705},"geometry":{"x":171663.81000000145,"y":2541880.9399999995}},{"attributes":{"ID":566733,"DIS_CODE":0,"TOWNNAME":"東區","LI":"虎尾里","LIN":"37鄰","STREET":"東門路","SECT":"三段","MAREA":" ","LANE":" ","ALLEY":" ","HOUSE_NO":"２５３號五樓之４","E_COORD97":171663.81,"N_COORD97":2541880.9399999999,"ADDRESS":"東門路三段２５３號五樓之４","OBJECTID":566706},"geometry":{"x":171663.81000000145,"y":2541880.9399999995}},{"attributes":{"ID":566734,"DIS_CODE":0,"TOWNNAME":"東區","LI":"虎尾里","LIN":"37鄰","STREET":"東門路","SECT":"三段","MAREA":" ","LANE":" ","ALLEY":" ","HOUSE_NO":"２５３號六樓","E_COORD97":171663.81,"N_COORD97":2541880.9399999999,"ADDRESS":"東門路三段２５３號六樓","OBJECTID":566707},"geometry":{"x":171663.81000000145,"y":2541880.9399999995}},{"attributes":{"ID":566735,"DIS_CODE":0,"TOWNNAME":"東區","LI":"虎尾里","LIN":"37鄰","STREET":"東門路","SECT":"三段","MAREA":" ","LANE":" ","ALLEY":" ","HOUSE_NO":"２５３號六樓之１","E_COORD97":171663.81,"N_COORD97":2541880.9399999999,"ADDRESS":"東門路三段２５３號六樓之１","OBJECTID":566708},"geometry":{"x":171663.81000000145,"y":2541880.9399999995}},{"attributes":{"ID":566736,"DIS_CODE":0,"TOWNNAME":"永康區","LI":"龍潭里","LIN":"23鄰","STREET":"龍中街","SECT":" ","MAREA":" ","LANE":" ","ALLEY":" ","HOUSE_NO":"１４８號","E_COORD97":174413.56,"N_COORD97":2548308.0299999998,"ADDRESS":"龍中街１４８號","OBJECTID":566709},"geometry":{"x":174413.56000000145,"y":2548308.0299999993}},{"attributes":{"ID":566737,"DIS_CODE":0,"TOWNNAME":"永康區","LI":"蔦松里","LIN":"9鄰","STREET":"正北三路","SECT":" ","MAREA":" ","LANE":" ","ALLEY":" ","HOUSE_NO":"１１１號","E_COORD97":174392.35999999999,"N_COORD97":2550010.8300000001,"ADDRESS":"正北三路１１１號","OBJECTID":566710},"geometry":{"x":174392.36000000127,"y":2550010.8300000019}},{"attributes":{"ID":566738,"DIS_CODE":0,"TOWNNAME":"東區","LI":"虎尾里","LIN":"37鄰","STREET":"東門路","SECT":"三段","MAREA":" ","LANE":" ","ALLEY":" ","HOUSE_NO":"２５３號六樓之２","E_COORD97":171663.81,"N_COORD97":2541880.9399999999,"ADDRESS":"東門路三段２５３號六樓之２","OBJECTID":566711},"geometry":{"x":171663.81000000145,"y":2541880.9399999995}},{"attributes":{"ID":566739,"DIS_CODE":0,"TOWNNAME":"東區","LI":"虎尾里","LIN":"37鄰","STREET":"東門路","SECT":"三段","MAREA":" ","LANE":" ","ALLEY":" ","HOUSE_NO":"２５３號六樓之３","E_COORD97":171663.81,"N_COORD97":2541880.9399999999,"ADDRESS":"東門路三段２５３號六樓之３","OBJECTID":566712},"geometry":{"x":171663.81000000145,"y":2541880.9399999995}},{"attributes":{"ID":566740,"DIS_CODE":0,"TOWNNAME":"東區","LI":"虎尾里","LIN":"37鄰","STREET":"東門路","SECT":"三段","MAREA":" ","LANE":" ","ALLEY":" ","HOUSE_NO":"２５３號六樓之４","E_COORD97":171663.81,"N_COORD97":2541880.9399999999,"ADDRESS":"東門路三段２５３號六樓之４","OBJECTID":566713},"geometry":{"x":171663.81000000145,"y":2541880.9399999995}},{"attributes":{"ID":566741,"DIS_CODE":0,"TOWNNAME":"東區","LI":"虎尾里","LIN":"37鄰","STREET":"東門路","SECT":"三段","MAREA":" ","LANE":" ","ALLEY":" ","HOUSE_NO":"２５３號七樓","E_COORD97":171663.81,"N_COORD97":2541880.9399999999,"ADDRESS":"東門路三段２５３號七樓","OBJECTID":566714},"geometry":{"x":171663.81000000145,"y":2541880.9399999995}},{"attributes":{"ID":566742,"DIS_CODE":0,"TOWNNAME":"東區","LI":"虎尾里","LIN":"37鄰","STREET":"東門路","SECT":"三段","MAREA":" ","LANE":" ","ALLEY":" ","HOUSE_NO":"２５３號七樓之１","E_COORD97":171663.81,"N_COORD97":2541880.9399999999,"ADDRESS":"東門路三段２５３號七樓之１","OBJECTID":566715},"geometry":{"x":171663.81000000145,"y":2541880.9399999995}},{"attributes":{"ID":566743,"DIS_CODE":0,"TOWNNAME":"東區","LI":"虎尾里","LIN":"37鄰","STREET":"東門路","SECT":"三段","MAREA":" ","LANE":" ","ALLEY":" ","HOUSE_NO":"２５３號七樓之２","E_COORD97":171663.81,"N_COORD97":2541880.9399999999,"ADDRESS":"東門路三段２５３號七樓之２","OBJECTID":566716},"geometry":{"x":171663.81000000145,"y":2541880.9399999995}},{"attributes":{"ID":566744,"DIS_CODE":0,"TOWNNAME":"東區","LI":"虎尾里","LIN":"37鄰","STREET":"東門路","SECT":"三段","MAREA":" ","LANE":" ","ALLEY":" ","HOUSE_NO":"２５３號七樓之３","E_COORD97":171663.81,"N_COORD97":2541880.9399999999,"ADDRESS":"東門路三段２５３號七樓之３","OBJECTID":566717},"geometry":{"x":171663.81000000145,"y":2541880.9399999995}},{"attributes":{"ID":566745,"DIS_CODE":0,"TOWNNAME":"東區","LI":"虎尾里","LIN":"37鄰","STREET":"東門路","SECT":"三段","MAREA":" ","LANE":" ","ALLEY":" ","HOUSE_NO":"２５３號七樓之４","E_COORD97":171663.81,"N_COORD97":2541880.9399999999,"ADDRESS":"東門路三段２５３號七樓之４","OBJECTID":566718},"geometry":{"x":171663.81000000145,"y":2541880.9399999995}},{"attributes":{"ID":566746,"DIS_CODE":0,"TOWNNAME":"東區","LI":"虎尾里","LIN":"37鄰","STREET":"東門路","SECT":"三段","MAREA":" ","LANE":" ","ALLEY":" ","HOUSE_NO":"２５３號八樓","E_COORD97":171663.81,"N_COORD97":2541880.9399999999,"ADDRESS":"東門路三段２５３號八樓","OBJECTID":566719},"geometry":{"x":171663.81000000145,"y":2541880.9399999995}},{"attributes":{"ID":566747,"DIS_CODE":0,"TOWNNAME":"東區","LI":"虎尾里","LIN":"37鄰","STREET":"東門路","SECT":"三段","MAREA":" ","LANE":" ","ALLEY":" ","HOUSE_NO":"２５３號八樓之１","E_COORD97":171663.81,"N_COORD97":2541880.9399999999,"ADDRESS":"東門路三段２５３號八樓之１","OBJECTID":566720},"geometry":{"x":171663.81000000145,"y":2541880.9399999995}},{"attributes":{"ID":566748,"DIS_CODE":0,"TOWNNAME":"東區","LI":"虎尾里","LIN":"37鄰","STREET":"東門路","SECT":"三段","MAREA":" ","LANE":" ","ALLEY":" ","HOUSE_NO":"２５３號八樓之２","E_COORD97":171663.81,"N_COORD97":2541880.9399999999,"ADDRESS":"東門路三段２５３號八樓之２","OBJECTID":566721},"geometry":{"x":171663.81000000145,"y":2541880.9399999995}},{"attributes":{"ID":566749,"DIS_CODE":0,"TOWNNAME":"東區","LI":"虎尾里","LIN":"37鄰","STREET":"東門路","SECT":"三段","MAREA":" ","LANE":" ","ALLEY":" ","HOUSE_NO":"２５３號八樓之３","E_COORD97":171663.81,"N_COORD97":2541880.9399999999,"ADDRESS":"東門路三段２５３號八樓之３","OBJECTID":566722},"geometry":{"x":171663.81000000145,"y":2541880.9399999995}},{"attributes":{"ID":566750,"DIS_CODE":0,"TOWNNAME":"東區","LI":"虎尾里","LIN":"37鄰","STREET":"東門路","SECT":"三段","MAREA":" ","LANE":" ","ALLEY":" ","HOUSE_NO":"２５３號八樓之４","E_COORD97":171663.81,"N_COORD97":2541880.9399999999,"ADDRESS":"東門路三段２５３號八樓之４","OBJECTID":566723},"geometry":{"x":171663.81000000145,"y":2541880.9399999995}},{"attributes":{"ID":566751,"DIS_CODE":0,"TOWNNAME":"東區","LI":"虎尾里","LIN":"37鄰","STREET":"東門路","SECT":"三段","MAREA":" ","LANE":" ","ALLEY":" ","HOUSE_NO":"２５３號九樓","E_COORD97":171663.81,"N_COORD97":2541880.9399999999,"ADDRESS":"東門路三段２５３號九樓","OBJECTID":566724},"geometry":{"x":171663.81000000145,"y":2541880.9399999995}},{"attributes":{"ID":566752,"DIS_CODE":0,"TOWNNAME":"東區","LI":"虎尾里","LIN":"37鄰","STREET":"東門路","SECT":"三段","MAREA":" ","LANE":" ","ALLEY":" ","HOUSE_NO":"２５３號九樓之１","E_COORD97":171663.81,"N_COORD97":2541880.9399999999,"ADDRESS":"東門路三段２５３號九樓之１","OBJECTID":566725},"geometry":{"x":171663.81000000145,"y":2541880.9399999995}},{"attributes":{"ID":566753,"DIS_CODE":0,"TOWNNAME":"東區","LI":"虎尾里","LIN":"37鄰","STREET":"東門路","SECT":"三段","MAREA":" ","LANE":" ","ALLEY":" ","HOUSE_NO":"２５３號十樓","E_COORD97":171663.81,"N_COORD97":2541880.9399999999,"ADDRESS":"東門路三段２５３號十樓","OBJECTID":566726},"geometry":{"x":171663.81000000145,"y":2541880.9399999995}},{"attributes":{"ID":566754,"DIS_CODE":0,"TOWNNAME":"東區","LI":"虎尾里","LIN":"37鄰","STREET":"東門路","SECT":"三段","MAREA":" ","LANE":" ","ALLEY":" ","HOUSE_NO":"２５３號十樓之１","E_COORD97":171663.81,"N_COORD97":2541880.9399999999,"ADDRESS":"東門路三段２５３號十樓之１","OBJECTID":566727},"geometry":{"x":171663.81000000145,"y":2541880.9399999995}},{"attributes":{"ID":566755,"DIS_CODE":0,"TOWNNAME":"東區","LI":"虎尾里","LIN":"37鄰","STREET":"東門路","SECT":"三段","MAREA":" ","LANE":" ","ALLEY":" ","HOUSE_NO":"２５３號十樓之２","E_COORD97":171663.81,"N_COORD97":2541880.9399999999,"ADDRESS":"東門路三段２５３號十樓之２","OBJECTID":566728},"geometry":{"x":171663.81000000145,"y":2541880.9399999995}},{"attributes":{"ID":566756,"DIS_CODE":0,"TOWNNAME":"東區","LI":"虎尾里","LIN":"37鄰","STREET":"東門路","SECT":"三段","MAREA":" ","LANE":" ","ALLEY":" ","HOUSE_NO":"２５３號十樓之３","E_COORD97":171663.81,"N_COORD97":2541880.9399999999,"ADDRESS":"東門路三段２５３號十樓之３","OBJECTID":566729},"geometry":{"x":171663.81000000145,"y":2541880.9399999995}},{"attributes":{"ID":566757,"DIS_CODE":0,"TOWNNAME":"東區","LI":"虎尾里","LIN":"37鄰","STREET":"東門路","SECT":"三段","MAREA":" ","LANE":" ","ALLEY":" ","HOUSE_NO":"２５３號十樓之４","E_COORD97":171663.81,"N_COORD97":2541880.9399999999,"ADDRESS":"東門路三段２５３號十樓之４","OBJECTID":566730},"geometry":{"x":171663.81000000145,"y":2541880.9399999995}},{"attributes":{"ID":566758,"DIS_CODE":0,"TOWNNAME":"永康區","LI":"網寮里","LIN":"4鄰","STREET":"永二街","SECT":" ","MAREA":" ","LANE":" ","ALLEY":" ","HOUSE_NO":"１１２號","E_COORD97":173508.95000000001,"N_COORD97":2546471.5800000001,"ADDRESS":"永二街１１２號","OBJECTID":566731},"geometry":{"x":173508.95000000019,"y":2546471.5800000038}},{"attributes":{"ID":566759,"DIS_CODE":0,"TOWNNAME":"東區","LI":"東明里","LIN":"30鄰","STREET":"東安路","SECT":" ","MAREA":" ","LANE":" ","ALLEY":" ","HOUSE_NO":"６５號","E_COORD97":170672.78,"N_COORD97":2543650.0499999998,"ADDRESS":"東安路６５號","OBJECTID":566732},"geometry":{"x":170672.78000000026,"y":2543650.0500000026}},{"attributes":{"ID":566760,"DIS_CODE":0,"TOWNNAME":"永康區","LI":"龍潭里","LIN":"44鄰","STREET":"永平街","SECT":" ","MAREA":" ","LANE":" ","ALLEY":" ","HOUSE_NO":"２８８之２號","E_COORD97":174684.87,"N_COORD97":2547050.2999999998,"ADDRESS":"永平街２８８之２號","OBJECTID":566733},"geometry":{"x":174684.87000000197,"y":2547050.3000000007}},{"attributes":{"ID":566761,"DIS_CODE":0,"TOWNNAME":"東區","LI":"虎尾里","LIN":"37鄰","STREET":"東門路","SECT":"三段","MAREA":" ","LANE":" ","ALLEY":" ","HOUSE_NO":"２５３號十一樓","E_COORD97":171663.81,"N_COORD97":2541880.9399999999,"ADDRESS":"東門路三段２５３號十一樓","OBJECTID":566734},"geometry":{"x":171663.81000000145,"y":2541880.9399999995}},{"attributes":{"ID":566762,"DIS_CODE":0,"TOWNNAME":"東區","LI":"虎尾里","LIN":"37鄰","STREET":"東門路","SECT":"三段","MAREA":" ","LANE":" ","ALLEY":" ","HOUSE_NO":"２５３號十一樓之１","E_COORD97":171663.81,"N_COORD97":2541880.9399999999,"ADDRESS":"東門路三段２５３號十一樓之１","OBJECTID":566735},"geometry":{"x":171663.81000000145,"y":2541880.9399999995}},{"attributes":{"ID":566763,"DIS_CODE":0,"TOWNNAME":"東區","LI":"虎尾里","LIN":"37鄰","STREET":"東門路","SECT":"三段","MAREA":" ","LANE":" ","ALLEY":" ","HOUSE_NO":"２５３號十一樓之２","E_COORD97":171663.81,"N_COORD97":2541880.9399999999,"ADDRESS":"東門路三段２５３號十一樓之２","OBJECTID":566736},"geometry":{"x":171663.81000000145,"y":2541880.9399999995}},{"attributes":{"ID":566764,"DIS_CODE":0,"TOWNNAME":"東區","LI":"虎尾里","LIN":"37鄰","STREET":"東門路","SECT":"三段","MAREA":" ","LANE":" ","ALLEY":" ","HOUSE_NO":"２５３號十一樓之３","E_COORD97":171663.81,"N_COORD97":2541880.9399999999,"ADDRESS":"東門路三段２５３號十一樓之３","OBJECTID":566737},"geometry":{"x":171663.81000000145,"y":2541880.9399999995}},{"attributes":{"ID":566765,"DIS_CODE":0,"TOWNNAME":"東區","LI":"虎尾里","LIN":"37鄰","STREET":"東門路","SECT":"三段","MAREA":" ","LANE":" ","ALLEY":" ","HOUSE_NO":"２５３號十一樓之４","E_COORD97":171663.81,"N_COORD97":2541880.9399999999,"ADDRESS":"東門路三段２５３號十一樓之４","OBJECTID":566738},"geometry":{"x":171663.81000000145,"y":2541880.9399999995}},{"attributes":{"ID":566766,"DIS_CODE":0,"TOWNNAME":"東區","LI":"虎尾里","LIN":"37鄰","STREET":"東門路","SECT":"三段","MAREA":" ","LANE":" ","ALLEY":" ","HOUSE_NO":"２５３號十二樓","E_COORD97":171663.81,"N_COORD97":2541880.9399999999,"ADDRESS":"東門路三段２５３號十二樓","OBJECTID":566739},"geometry":{"x":171663.81000000145,"y":2541880.9399999995}},{"attributes":{"ID":566767,"DIS_CODE":0,"TOWNNAME":"東區","LI":"虎尾里","LIN":"37鄰","STREET":"東門路","SECT":"三段","MAREA":" ","LANE":" ","ALLEY":" ","HOUSE_NO":"２５３號十二樓之１","E_COORD97":171663.81,"N_COORD97":2541880.9399999999,"ADDRESS":"東門路三段２５３號十二樓之１","OBJECTID":566740},"geometry":{"x":171663.81000000145,"y":2541880.9399999995}},{"attributes":{"ID":566768,"DIS_CODE":0,"TOWNNAME":"東區","LI":"虎尾里","LIN":"37鄰","STREET":"東門路","SECT":"三段","MAREA":" ","LANE":" ","ALLEY":" ","HOUSE_NO":"２５３號十二樓之２","E_COORD97":171663.81,"N_COORD97":2541880.9399999999,"ADDRESS":"東門路三段２５３號十二樓之２","OBJECTID":566741},"geometry":{"x":171663.81000000145,"y":2541880.9399999995}},{"attributes":{"ID":566769,"DIS_CODE":0,"TOWNNAME":"東區","LI":"虎尾里","LIN":"37鄰","STREET":"東門路","SECT":"三段","MAREA":" ","LANE":" ","ALLEY":" ","HOUSE_NO":"２５３號十二樓之３","E_COORD97":171663.81,"N_COORD97":2541880.9399999999,"ADDRESS":"東門路三段２５３號十二樓之３","OBJECTID":566742},"geometry":{"x":171663.81000000145,"y":2541880.9399999995}},{"attributes":{"ID":566770,"DIS_CODE":0,"TOWNNAME":"東區","LI":"虎尾里","LIN":"37鄰","STREET":"東門路","SECT":"三段","MAREA":" ","LANE":" ","ALLEY":" ","HOUSE_NO":"２５３號十二樓之４","E_COORD97":171663.81,"N_COORD97":2541880.9399999999,"ADDRESS":"東門路三段２５３號十二樓之４","OBJECTID":566743},"geometry":{"x":171663.81000000145,"y":2541880.9399999995}},{"attributes":{"ID":566771,"DIS_CODE":0,"TOWNNAME":"東區","LI":"虎尾里","LIN":"37鄰","STREET":"東門路","SECT":"三段","MAREA":" ","LANE":" ","ALLEY":" ","HOUSE_NO":"２５７號二樓","E_COORD97":171675.20000000001,"N_COORD97":2541921.25,"ADDRESS":"東門路三段２５７號二樓","OBJECTID":566744},"geometry":{"x":171675.20000000019,"y":2541921.2500000019}},{"attributes":{"ID":566772,"DIS_CODE":0,"TOWNNAME":"東區","LI":"虎尾里","LIN":"37鄰","STREET":"東門路","SECT":"三段","MAREA":" ","LANE":" ","ALLEY":" ","HOUSE_NO":"２５７號二樓之１","E_COORD97":171675.20000000001,"N_COORD97":2541921.25,"ADDRESS":"東門路三段２５７號二樓之１","OBJECTID":566745},"geometry":{"x":171675.20000000019,"y":2541921.2500000019}},{"attributes":{"ID":566773,"DIS_CODE":0,"TOWNNAME":"東區","LI":"虎尾里","LIN":"37鄰","STREET":"東門路","SECT":"三段","MAREA":" ","LANE":" ","ALLEY":" ","HOUSE_NO":"２５７號二樓之２","E_COORD97":171675.20000000001,"N_COORD97":2541921.25,"ADDRESS":"東門路三段２５７號二樓之２","OBJECTID":566746},"geometry":{"x":171675.20000000019,"y":2541921.2500000019}},{"attributes":{"ID":566774,"DIS_CODE":0,"TOWNNAME":"東區","LI":"虎尾里","LIN":"37鄰","STREET":"東門路","SECT":"三段","MAREA":" ","LANE":" ","ALLEY":" ","HOUSE_NO":"２５７號二樓之３","E_COORD97":171675.20000000001,"N_COORD97":2541921.25,"ADDRESS":"東門路三段２５７號二樓之３","OBJECTID":566747},"geometry":{"x":171675.20000000019,"y":2541921.2500000019}},{"attributes":{"ID":566775,"DIS_CODE":0,"TOWNNAME":"東區","LI":"虎尾里","LIN":"37鄰","STREET":"東門路","SECT":"三段","MAREA":" ","LANE":" ","ALLEY":" ","HOUSE_NO":"２５７號三樓","E_COORD97":171675.20000000001,"N_COORD97":2541921.25,"ADDRESS":"東門路三段２５７號三樓","OBJECTID":566748},"geometry":{"x":171675.20000000019,"y":2541921.2500000019}},{"attributes":{"ID":566776,"DIS_CODE":0,"TOWNNAME":"東區","LI":"虎尾里","LIN":"37鄰","STREET":"東門路","SECT":"三段","MAREA":" ","LANE":" ","ALLEY":" ","HOUSE_NO":"２５７號三樓之１","E_COORD97":171675.20000000001,"N_COORD97":2541921.25,"ADDRESS":"東門路三段２５７號三樓之１","OBJECTID":566749},"geometry":{"x":171675.20000000019,"y":2541921.2500000019}},{"attributes":{"ID":566777,"DIS_CODE":0,"TOWNNAME":"永康區","LI":"龍潭里","LIN":"18鄰","STREET":"龍潭街","SECT":" ","MAREA":" ","LANE":" ","ALLEY":" ","HOUSE_NO":"２６９號","E_COORD97":174833.45000000001,"N_COORD97":2548448.2000000002,"ADDRESS":"龍潭街２６９號","OBJECTID":566750},"geometry":{"x":174833.44999999925,"y":2548448.2000000011}},{"attributes":{"ID":566778,"DIS_CODE":0,"TOWNNAME":"東區","LI":"虎尾里","LIN":"37鄰","STREET":"東門路","SECT":"三段","MAREA":" ","LANE":" ","ALLEY":" ","HOUSE_NO":"２５７號三樓之２","E_COORD97":171675.20000000001,"N_COORD97":2541921.25,"ADDRESS":"東門路三段２５７號三樓之２","OBJECTID":566751},"geometry":{"x":171675.20000000019,"y":2541921.2500000019}},{"attributes":{"ID":566779,"DIS_CODE":0,"TOWNNAME":"東區","LI":"虎尾里","LIN":"37鄰","STREET":"東門路","SECT":"三段","MAREA":" ","LANE":" ","ALLEY":" ","HOUSE_NO":"２５７號三樓之３","E_COORD97":171675.20000000001,"N_COORD97":2541921.25,"ADDRESS":"東門路三段２５７號三樓之３","OBJECTID":566752},"geometry":{"x":171675.20000000019,"y":2541921.2500000019}},{"attributes":{"ID":566780,"DIS_CODE":0,"TOWNNAME":"東區","LI":"虎尾里","LIN":"37鄰","STREET":"東門路","SECT":"三段","MAREA":" ","LANE":" ","ALLEY":" ","HOUSE_NO":"２５７號三樓之４","E_COORD97":171675.20000000001,"N_COORD97":2541921.25,"ADDRESS":"東門路三段２５７號三樓之４","OBJECTID":566753},"geometry":{"x":171675.20000000019,"y":2541921.2500000019}},{"attributes":{"ID":566781,"DIS_CODE":0,"TOWNNAME":"東區","LI":"虎尾里","LIN":"37鄰","STREET":"東門路","SECT":"三段","MAREA":" ","LANE":" ","ALLEY":" ","HOUSE_NO":"２５７號四樓","E_COORD97":171675.20000000001,"N_COORD97":2541921.25,"ADDRESS":"東門路三段２５７號四樓","OBJECTID":566754},"geometry":{"x":171675.20000000019,"y":2541921.2500000019}},{"attributes":{"ID":566782,"DIS_CODE":0,"TOWNNAME":"東區","LI":"虎尾里","LIN":"37鄰","STREET":"東門路","SECT":"三段","MAREA":" ","LANE":" ","ALLEY":" ","HOUSE_NO":"２５７號四樓之１","E_COORD97":171675.20000000001,"N_COORD97":2541921.25,"ADDRESS":"東門路三段２５７號四樓之１","OBJECTID":566755},"geometry":{"x":171675.20000000019,"y":2541921.2500000019}},{"attributes":{"ID":566783,"DIS_CODE":0,"TOWNNAME":"東區","LI":"虎尾里","LIN":"37鄰","STREET":"東門路","SECT":"三段","MAREA":" ","LANE":" ","ALLEY":" ","HOUSE_NO":"２５７號四樓之２","E_COORD97":171675.20000000001,"N_COORD97":2541921.25,"ADDRESS":"東門路三段２５７號四樓之２","OBJECTID":566756},"geometry":{"x":171675.20000000019,"y":2541921.2500000019}},{"attributes":{"ID":566784,"DIS_CODE":0,"TOWNNAME":"東區","LI":"虎尾里","LIN":"37鄰","STREET":"東門路","SECT":"三段","MAREA":" ","LANE":" ","ALLEY":" ","HOUSE_NO":"２５７號四樓之３","E_COORD97":171675.20000000001,"N_COORD97":2541921.25,"ADDRESS":"東門路三段２５７號四樓之３","OBJECTID":566757},"geometry":{"x":171675.20000000019,"y":2541921.2500000019}},{"attributes":{"ID":566785,"DIS_CODE":0,"TOWNNAME":"東區","LI":"虎尾里","LIN":"37鄰","STREET":"東門路","SECT":"三段","MAREA":" ","LANE":" ","ALLEY":" ","HOUSE_NO":"２５７號五樓","E_COORD97":171675.20000000001,"N_COORD97":2541921.25,"ADDRESS":"東門路三段２５７號五樓","OBJECTID":566758},"geometry":{"x":171675.20000000019,"y":2541921.2500000019}},{"attributes":{"ID":566786,"DIS_CODE":0,"TOWNNAME":"永康區","LI":"崑山里","LIN":"37鄰","STREET":"國光三街","SECT":" ","MAREA":" ","LANE":" ","ALLEY":" ","HOUSE_NO":"６８號","E_COORD97":173918.12,"N_COORD97":2544950.0299999998,"ADDRESS":"國光三街６８號","OBJECTID":566759},"geometry":{"x":173918.12000000011,"y":2544950.0300000012}},{"attributes":{"ID":566787,"DIS_CODE":0,"TOWNNAME":"東區","LI":"虎尾里","LIN":"37鄰","STREET":"東門路","SECT":"三段","MAREA":" ","LANE":" ","ALLEY":" ","HOUSE_NO":"２５７號五樓之１","E_COORD97":171675.20000000001,"N_COORD97":2541921.25,"ADDRESS":"東門路三段２５７號五樓之１","OBJECTID":566760},"geometry":{"x":171675.20000000019,"y":2541921.2500000019}},{"attributes":{"ID":566788,"DIS_CODE":0,"TOWNNAME":"東區","LI":"虎尾里","LIN":"37鄰","STREET":"東門路","SECT":"三段","MAREA":" ","LANE":" ","ALLEY":" ","HOUSE_NO":"２５７號五樓之２","E_COORD97":171675.20000000001,"N_COORD97":2541921.25,"ADDRESS":"東門路三段２５７號五樓之２","OBJECTID":566761},"geometry":{"x":171675.20000000019,"y":2541921.2500000019}},{"attributes":{"ID":566789,"DIS_CODE":0,"TOWNNAME":"東區","LI":"虎尾里","LIN":"37鄰","STREET":"東門路","SECT":"三段","MAREA":" ","LANE":" ","ALLEY":" ","HOUSE_NO":"２５７號六樓之５","E_COORD97":171675.20000000001,"N_COORD97":2541921.25,"ADDRESS":"東門路三段２５７號六樓之５","OBJECTID":566762},"geometry":{"x":171675.20000000019,"y":2541921.2500000019}},{"attributes":{"ID":566790,"DIS_CODE":0,"TOWNNAME":"東區","LI":"虎尾里","LIN":"37鄰","STREET":"東門路","SECT":"三段","MAREA":" ","LANE":" ","ALLEY":" ","HOUSE_NO":"２５７號六樓","E_COORD97":171675.20000000001,"N_COORD97":2541921.25,"ADDRESS":"東門路三段２５７號六樓","OBJECTID":566763},"geometry":{"x":171675.20000000019,"y":2541921.2500000019}},{"attributes":{"ID":566791,"DIS_CODE":0,"TOWNNAME":"東區","LI":"虎尾里","LIN":"37鄰","STREET":"東門路","SECT":"三段","MAREA":" ","LANE":" ","ALLEY":" ","HOUSE_NO":"２５７號六樓之１","E_COORD97":171675.20000000001,"N_COORD97":2541921.25,"ADDRESS":"東門路三段２５７號六樓之１","OBJECTID":566764},"geometry":{"x":171675.20000000019,"y":2541921.2500000019}},{"attributes":{"ID":566792,"DIS_CODE":0,"TOWNNAME":"東區","LI":"虎尾里","LIN":"37鄰","STREET":"東門路","SECT":"三段","MAREA":" ","LANE":" ","ALLEY":" ","HOUSE_NO":"２５７號六樓之２","E_COORD97":171675.20000000001,"N_COORD97":2541921.25,"ADDRESS":"東門路三段２５７號六樓之２","OBJECTID":566765},"geometry":{"x":171675.20000000019,"y":2541921.2500000019}},{"attributes":{"ID":566793,"DIS_CODE":0,"TOWNNAME":"東區","LI":"虎尾里","LIN":"37鄰","STREET":"東門路","SECT":"三段","MAREA":" ","LANE":" ","ALLEY":" ","HOUSE_NO":"２５７號六樓之３","E_COORD97":171675.20000000001,"N_COORD97":2541921.25,"ADDRESS":"東門路三段２５７號六樓之３","OBJECTID":566766},"geometry":{"x":171675.20000000019,"y":2541921.2500000019}},{"attributes":{"ID":566794,"DIS_CODE":0,"TOWNNAME":"永康區","LI":"北灣里","LIN":"37鄰","STREET":"大同街","SECT":" ","MAREA":" ","LANE":" ","ALLEY":" ","HOUSE_NO":"３３０號","E_COORD97":174777.34,"N_COORD97":2545974.6299999999,"ADDRESS":"大同街３３０號","OBJECTID":566767},"geometry":{"x":174777.33999999985,"y":2545974.629999999}},{"attributes":{"ID":566795,"DIS_CODE":0,"TOWNNAME":"東區","LI":"虎尾里","LIN":"37鄰","STREET":"東門路","SECT":"三段","MAREA":" ","LANE":" ","ALLEY":" ","HOUSE_NO":"２５７號六樓之４","E_COORD97":171675.20000000001,"N_COORD97":2541921.25,"ADDRESS":"東門路三段２５７號六樓之４","OBJECTID":566768},"geometry":{"x":171675.20000000019,"y":2541921.2500000019}},{"attributes":{"ID":566796,"DIS_CODE":0,"TOWNNAME":"東區","LI":"虎尾里","LIN":"37鄰","STREET":"東門路","SECT":"三段","MAREA":" ","LANE":" ","ALLEY":" ","HOUSE_NO":"２５７號七樓","E_COORD97":171675.20000000001,"N_COORD97":2541921.25,"ADDRESS":"東門路三段２５７號七樓","OBJECTID":566769},"geometry":{"x":171675.20000000019,"y":2541921.2500000019}},{"attributes":{"ID":566797,"DIS_CODE":0,"TOWNNAME":"佳里區","LI":"六安里","LIN":"4鄰","STREET":"青年街","SECT":" ","MAREA":" ","LANE":" ","ALLEY":" ","HOUSE_NO":"５號","E_COORD97":166226.79999999999,"N_COORD97":2562993.0899999999,"ADDRESS":"青年街５號","OBJECTID":566770},"geometry":{"x":166226.80000000075,"y":2562993.0900000017}},{"attributes":{"ID":566798,"DIS_CODE":0,"TOWNNAME":"東區","LI":"虎尾里","LIN":"37鄰","STREET":"東門路","SECT":"三段","MAREA":" ","LANE":" ","ALLEY":" ","HOUSE_NO":"２５７號七樓之１","E_COORD97":171675.20000000001,"N_COORD97":2541921.25,"ADDRESS":"東門路三段２５７號七樓之１","OBJECTID":566771},"geometry":{"x":171675.20000000019,"y":2541921.2500000019}},{"attributes":{"ID":566799,"DIS_CODE":0,"TOWNNAME":"東區","LI":"虎尾里","LIN":"37鄰","STREET":"東門路","SECT":"三段","MAREA":" ","LANE":" ","ALLEY":" ","HOUSE_NO":"２５７號七樓之２","E_COORD97":171675.20000000001,"N_COORD97":2541921.25,"ADDRESS":"東門路三段２５７號七樓之２","OBJECTID":566772},"geometry":{"x":171675.20000000019,"y":2541921.2500000019}},{"attributes":{"ID":566800,"DIS_CODE":0,"TOWNNAME":"東區","LI":"虎尾里","LIN":"37鄰","STREET":"東門路","SECT":"三段","MAREA":" ","LANE":" ","ALLEY":" ","HOUSE_NO":"２５７號七樓之３","E_COORD97":171675.20000000001,"N_COORD97":2541921.25,"ADDRESS":"東門路三段２５７號七樓之３","OBJECTID":566773},"geometry":{"x":171675.20000000019,"y":2541921.2500000019}},{"attributes":{"ID":566801,"DIS_CODE":0,"TOWNNAME":"東區","LI":"虎尾里","LIN":"37鄰","STREET":"東門路","SECT":"三段","MAREA":" ","LANE":" ","ALLEY":" ","HOUSE_NO":"２５７號七樓之４","E_COORD97":171675.20000000001,"N_COORD97":2541921.25,"ADDRESS":"東門路三段２５７號七樓之４","OBJECTID":566774},"geometry":{"x":171675.20000000019,"y":2541921.2500000019}},{"attributes":{"ID":566802,"DIS_CODE":0,"TOWNNAME":"東區","LI":"虎尾里","LIN":"37鄰","STREET":"東門路","SECT":"三段","MAREA":" ","LANE":" ","ALLEY":" ","HOUSE_NO":"２５７號八樓","E_COORD97":171675.20000000001,"N_COORD97":2541921.25,"ADDRESS":"東門路三段２５７號八樓","OBJECTID":566775},"geometry":{"x":171675.20000000019,"y":2541921.2500000019}},{"attributes":{"ID":566803,"DIS_CODE":0,"TOWNNAME":"東區","LI":"虎尾里","LIN":"37鄰","STREET":"東門路","SECT":"三段","MAREA":" ","LANE":" ","ALLEY":" ","HOUSE_NO":"２５７號八樓之１","E_COORD97":171675.20000000001,"N_COORD97":2541921.25,"ADDRESS":"東門路三段２５７號八樓之１","OBJECTID":566776},"geometry":{"x":171675.20000000019,"y":2541921.2500000019}},{"attributes":{"ID":566804,"DIS_CODE":0,"TOWNNAME":"東區","LI":"虎尾里","LIN":"37鄰","STREET":"東門路","SECT":"三段","MAREA":" ","LANE":" ","ALLEY":" ","HOUSE_NO":"２５７號八樓之２","E_COORD97":171675.20000000001,"N_COORD97":2541921.25,"ADDRESS":"東門路三段２５７號八樓之２","OBJECTID":566777},"geometry":{"x":171675.20000000019,"y":2541921.2500000019}},{"attributes":{"ID":566805,"DIS_CODE":0,"TOWNNAME":"東區","LI":"虎尾里","LIN":"37鄰","STREET":"東門路","SECT":"三段","MAREA":" ","LANE":" ","ALLEY":" ","HOUSE_NO":"２５７號八樓之３","E_COORD97":171675.20000000001,"N_COORD97":2541921.25,"ADDRESS":"東門路三段２５７號八樓之３","OBJECTID":566778},"geometry":{"x":171675.20000000019,"y":2541921.2500000019}},{"attributes":{"ID":566806,"DIS_CODE":0,"TOWNNAME":"東區","LI":"虎尾里","LIN":"37鄰","STREET":"東門路","SECT":"三段","MAREA":" ","LANE":" ","ALLEY":" ","HOUSE_NO":"２５７號九樓","E_COORD97":171675.20000000001,"N_COORD97":2541921.25,"ADDRESS":"東門路三段２５７號九樓","OBJECTID":566779},"geometry":{"x":171675.20000000019,"y":2541921.2500000019}},{"attributes":{"ID":566807,"DIS_CODE":0,"TOWNNAME":"東區","LI":"虎尾里","LIN":"37鄰","STREET":"東門路","SECT":"三段","MAREA":" ","LANE":" ","ALLEY":" ","HOUSE_NO":"２５７號九樓之１","E_COORD97":171675.20000000001,"N_COORD97":2541921.25,"ADDRESS":"東門路三段２５７號九樓之１","OBJECTID":566780},"geometry":{"x":171675.20000000019,"y":2541921.2500000019}},{"attributes":{"ID":566808,"DIS_CODE":0,"TOWNNAME":"東區","LI":"虎尾里","LIN":"37鄰","STREET":"東門路","SECT":"三段","MAREA":" ","LANE":" ","ALLEY":" ","HOUSE_NO":"２５７號九樓之２","E_COORD97":171675.20000000001,"N_COORD97":2541921.25,"ADDRESS":"東門路三段２５７號九樓之２","OBJECTID":566781},"geometry":{"x":171675.20000000019,"y":2541921.2500000019}},{"attributes":{"ID":566809,"DIS_CODE":0,"TOWNNAME":"東區","LI":"虎尾里","LIN":"37鄰","STREET":"東門路","SECT":"三段","MAREA":" ","LANE":" ","ALLEY":" ","HOUSE_NO":"２５７號九樓之３","E_COORD97":171675.20000000001,"N_COORD97":2541921.25,"ADDRESS":"東門路三段２５７號九樓之３","OBJECTID":566782},"geometry":{"x":171675.20000000019,"y":2541921.2500000019}},{"attributes":{"ID":566810,"DIS_CODE":0,"TOWNNAME":"東區","LI":"虎尾里","LIN":"37鄰","STREET":"東門路","SECT":"三段","MAREA":" ","LANE":" ","ALLEY":" ","HOUSE_NO":"２５７號十樓","E_COORD97":171675.20000000001,"N_COORD97":2541921.25,"ADDRESS":"東門路三段２５７號十樓","OBJECTID":566783},"geometry":{"x":171675.20000000019,"y":2541921.2500000019}},{"attributes":{"ID":566811,"DIS_CODE":0,"TOWNNAME":"東區","LI":"虎尾里","LIN":"37鄰","STREET":"東門路","SECT":"三段","MAREA":" ","LANE":" ","ALLEY":" ","HOUSE_NO":"２５７號十樓之１","E_COORD97":171675.20000000001,"N_COORD97":2541921.25,"ADDRESS":"東門路三段２５７號十樓之１","OBJECTID":566784},"geometry":{"x":171675.20000000019,"y":2541921.2500000019}},{"attributes":{"ID":566812,"DIS_CODE":0,"TOWNNAME":"東區","LI":"虎尾里","LIN":"37鄰","STREET":"東門路","SECT":"三段","MAREA":" ","LANE":" ","ALLEY":" ","HOUSE_NO":"２５７號十樓之２","E_COORD97":171675.20000000001,"N_COORD97":2541921.25,"ADDRESS":"東門路三段２５７號十樓之２","OBJECTID":566785},"geometry":{"x":171675.20000000019,"y":2541921.2500000019}},{"attributes":{"ID":566813,"DIS_CODE":0,"TOWNNAME":"東區","LI":"虎尾里","LIN":"37鄰","STREET":"東門路","SECT":"三段","MAREA":" ","LANE":" ","ALLEY":" ","HOUSE_NO":"２５７號十一樓","E_COORD97":171675.20000000001,"N_COORD97":2541921.25,"ADDRESS":"東門路三段２５７號十一樓","OBJECTID":566786},"geometry":{"x":171675.20000000019,"y":2541921.2500000019}},{"attributes":{"ID":566814,"DIS_CODE":0,"TOWNNAME":"東區","LI":"虎尾里","LIN":"37鄰","STREET":"東門路","SECT":"三段","MAREA":" ","LANE":" ","ALLEY":" ","HOUSE_NO":"２５７號十一樓之１","E_COORD97":171675.20000000001,"N_COORD97":2541921.25,"ADDRESS":"東門路三段２５７號十一樓之１","OBJECTID":566787},"geometry":{"x":171675.20000000019,"y":2541921.2500000019}},{"attributes":{"ID":566815,"DIS_CODE":0,"TOWNNAME":"東區","LI":"虎尾里","LIN":"37鄰","STREET":"東門路","SECT":"三段","MAREA":" ","LANE":" ","ALLEY":" ","HOUSE_NO":"２５７號十一樓之２","E_COORD97":171675.20000000001,"N_COORD97":2541921.25,"ADDRESS":"東門路三段２５７號十一樓之２","OBJECTID":566788},"geometry":{"x":171675.20000000019,"y":2541921.2500000019}},{"attributes":{"ID":566816,"DIS_CODE":0,"TOWNNAME":"東區","LI":"虎尾里","LIN":"37鄰","STREET":"東門路","SECT":"三段","MAREA":" ","LANE":" ","ALLEY":" ","HOUSE_NO":"２５７號十二樓","E_COORD97":171675.20000000001,"N_COORD97":2541921.25,"ADDRESS":"東門路三段２５７號十二樓","OBJECTID":566789},"geometry":{"x":171675.20000000019,"y":2541921.2500000019}},{"attributes":{"ID":566817,"DIS_CODE":0,"TOWNNAME":"東區","LI":"虎尾里","LIN":"37鄰","STREET":"東門路","SECT":"三段","MAREA":" ","LANE":" ","ALLEY":" ","HOUSE_NO":"２５７號十二樓之１","E_COORD97":171675.20000000001,"N_COORD97":2541921.25,"ADDRESS":"東門路三段２５７號十二樓之１","OBJECTID":566790},"geometry":{"x":171675.20000000019,"y":2541921.2500000019}},{"attributes":{"ID":566818,"DIS_CODE":0,"TOWNNAME":"東區","LI":"虎尾里","LIN":"37鄰","STREET":"東門路","SECT":"三段","MAREA":" ","LANE":" ","ALLEY":" ","HOUSE_NO":"２５７號十二樓之２","E_COORD97":171675.20000000001,"N_COORD97":2541921.25,"ADDRESS":"東門路三段２５７號十二樓之２","OBJECTID":566791},"geometry":{"x":171675.20000000019,"y":2541921.2500000019}},{"attributes":{"ID":566819,"DIS_CODE":0,"TOWNNAME":"東區","LI":"虎尾里","LIN":"37鄰","STREET":"東門路","SECT":"三段","MAREA":" ","LANE":" ","ALLEY":" ","HOUSE_NO":"２５７號十二樓之３","E_COORD97":171675.20000000001,"N_COORD97":2541921.25,"ADDRESS":"東門路三段２５７號十二樓之３","OBJECTID":566792},"geometry":{"x":171675.20000000019,"y":2541921.2500000019}},{"attributes":{"ID":566820,"DIS_CODE":0,"TOWNNAME":"東區","LI":"虎尾里","LIN":"37鄰","STREET":"東門路","SECT":"三段","MAREA":" ","LANE":" ","ALLEY":" ","HOUSE_NO":"２５７號十三樓","E_COORD97":171675.20000000001,"N_COORD97":2541921.25,"ADDRESS":"東門路三段２５７號十三樓","OBJECTID":566793},"geometry":{"x":171675.20000000019,"y":2541921.2500000019}},{"attributes":{"ID":566821,"DIS_CODE":0,"TOWNNAME":"東區","LI":"虎尾里","LIN":"37鄰","STREET":"東門路","SECT":"三段","MAREA":" ","LANE":" ","ALLEY":" ","HOUSE_NO":"２５７號十三樓之１","E_COORD97":171675.20000000001,"N_COORD97":2541921.25,"ADDRESS":"東門路三段２５７號十三樓之１","OBJECTID":566794},"geometry":{"x":171675.20000000019,"y":2541921.2500000019}},{"attributes":{"ID":566822,"DIS_CODE":0,"TOWNNAME":"東區","LI":"虎尾里","LIN":"37鄰","STREET":"東門路","SECT":"三段","MAREA":" ","LANE":" ","ALLEY":" ","HOUSE_NO":"２５７號十三樓之２","E_COORD97":171675.20000000001,"N_COORD97":2541921.25,"ADDRESS":"東門路三段２５７號十三樓之２","OBJECTID":566795},"geometry":{"x":171675.20000000019,"y":2541921.2500000019}},{"attributes":{"ID":566823,"DIS_CODE":0,"TOWNNAME":"東區","LI":"虎尾里","LIN":"37鄰","STREET":"東門路","SECT":"三段","MAREA":" ","LANE":" ","ALLEY":" ","HOUSE_NO":"２５７號十四樓","E_COORD97":171675.20000000001,"N_COORD97":2541921.25,"ADDRESS":"東門路三段２５７號十四樓","OBJECTID":566796},"geometry":{"x":171675.20000000019,"y":2541921.2500000019}},{"attributes":{"ID":566824,"DIS_CODE":0,"TOWNNAME":"東區","LI":"虎尾里","LIN":"37鄰","STREET":"東門路","SECT":"三段","MAREA":" ","LANE":" ","ALLEY":" ","HOUSE_NO":"２５７號十四樓之１","E_COORD97":171675.20000000001,"N_COORD97":2541921.25,"ADDRESS":"東門路三段２５７號十四樓之１","OBJECTID":566797},"geometry":{"x":171675.20000000019,"y":2541921.2500000019}},{"attributes":{"ID":566825,"DIS_CODE":0,"TOWNNAME":"東區","LI":"虎尾里","LIN":"37鄰","STREET":"東門路","SECT":"三段","MAREA":" ","LANE":" ","ALLEY":" ","HOUSE_NO":"２５７號十四樓之２","E_COORD97":171675.20000000001,"N_COORD97":2541921.25,"ADDRESS":"東門路三段２５７號十四樓之２","OBJECTID":566798},"geometry":{"x":171675.20000000019,"y":2541921.2500000019}},{"attributes":{"ID":566826,"DIS_CODE":0,"TOWNNAME":"永康區","LI":"蔦松里","LIN":"3鄰","STREET":"蔦松一街","SECT":" ","MAREA":" ","LANE":" ","ALLEY":" ","HOUSE_NO":"２９號","E_COORD97":174000.09,"N_COORD97":2549360.9100000001,"ADDRESS":"蔦松一街２９號","OBJECTID":566799},"geometry":{"x":174000.09000000078,"y":2549360.9100000001}},{"attributes":{"ID":566827,"DIS_CODE":0,"TOWNNAME":"永康區","LI":"崑山里","LIN":"37鄰","STREET":"大仁街","SECT":" ","MAREA":" ","LANE":" ","ALLEY":" ","HOUSE_NO":"２１０號","E_COORD97":173959.98000000001,"N_COORD97":2545102.3799999999,"ADDRESS":"大仁街２１０號","OBJECTID":566800},"geometry":{"x":173959.98000000045,"y":2545102.3800000008}}]}