{"displayFieldName":"TOWNNAME","fieldAliases":{"ID":"ID","DIS_CODE":"DIS_CODE","TOWNNAME":"TOWNNAME","LI":"LI","LIN":"LIN","STREET":"STREET","SECT":"SECT","MAREA":"MAREA","LANE":"LANE","ALLEY":"ALLEY","HOUSE_NO":"HOUSE_NO","E_COORD97":"E_COORD97","N_COORD97":"N_COORD97","ADDRESS":"ADDRESS","OBJECTID":"OBJECTID"},"geometryType":"esriGeometryPoint","spatialReference":{"wkid":102443,"latestWkid":3826},"fields":[{"name":"ID","type":"esriFieldTypeDouble","alias":"ID"},{"name":"DIS_CODE","type":"esriFieldTypeInteger","alias":"DIS_CODE"},{"name":"TOWNNAME","type":"esriFieldTypeString","alias":"TOWNNAME","length":8},{"name":"LI","type":"esriFieldTypeString","alias":"LI","length":8},{"name":"LIN","type":"esriFieldTypeString","alias":"LIN","length":12},{"name":"STREET","type":"esriFieldTypeString","alias":"STREET","length":20},{"name":"SECT","type":"esriFieldTypeString","alias":"SECT","length":8},{"name":"MAREA","type":"esriFieldTypeString","alias":"MAREA","length":12},{"name":"LANE","type":"esriFieldTypeString","alias":"LANE","length":10},{"name":"ALLEY","type":"esriFieldTypeString","alias":"ALLEY","length":10},{"name":"HOUSE_NO","type":"esriFieldTypeString","alias":"HOUSE_NO","length":20},{"name":"E_COORD97","type":"esriFieldTypeDouble","alias":"E_COORD97"},{"name":"N_COORD97","type":"esriFieldTypeDouble","alias":"N_COORD97"},{"name":"ADDRESS","type":"esriFieldTypeString","alias":"ADDRESS","length":50},{"name":"OBJECTID","type":"esriFieldTypeOID","alias":"OBJECTID"}],"features":[{"attributes":{"ID":451026,"DIS_CODE":0,"TOWNNAME":"南區","LI":"開南里","LIN":"24鄰","STREET":"\u25A0埕路","SECT":" ","MAREA":" ","LANE":"１３１巷","ALLEY":" ","HOUSE_NO":"１６３號十一樓","E_COORD97":166523.69,"N_COORD97":2540877.46,"ADDRESS":"\u25A0埕路１３１巷１６３號十一樓","OBJECTID":451001},"geometry":{"x":166523.69000000041,"y":2540877.4600000028}},{"attributes":{"ID":451027,"DIS_CODE":0,"TOWNNAME":"南區","LI":"開南里","LIN":"24鄰","STREET":"\u25A0埕路","SECT":" ","MAREA":" ","LANE":"１３１巷","ALLEY":" ","HOUSE_NO":"１６３號十一樓之１","E_COORD97":166523.69,"N_COORD97":2540877.46,"ADDRESS":"\u25A0埕路１３１巷１６３號十一樓之１","OBJECTID":451002},"geometry":{"x":166523.69000000041,"y":2540877.4600000028}},{"attributes":{"ID":451028,"DIS_CODE":0,"TOWNNAME":"南區","LI":"開南里","LIN":"24鄰","STREET":"\u25A0埕路","SECT":" ","MAREA":" ","LANE":"１３１巷","ALLEY":" ","HOUSE_NO":"１６３號十一樓之２","E_COORD97":166523.69,"N_COORD97":2540877.46,"ADDRESS":"\u25A0埕路１３１巷１６３號十一樓之２","OBJECTID":451003},"geometry":{"x":166523.69000000041,"y":2540877.4600000028}},{"attributes":{"ID":451029,"DIS_CODE":0,"TOWNNAME":"南區","LI":"開南里","LIN":"24鄰","STREET":"\u25A0埕路","SECT":" ","MAREA":" ","LANE":"１３１巷","ALLEY":" ","HOUSE_NO":"１６３號十一樓之３","E_COORD97":166523.69,"N_COORD97":2540877.46,"ADDRESS":"\u25A0埕路１３１巷１６３號十一樓之３","OBJECTID":451004},"geometry":{"x":166523.69000000041,"y":2540877.4600000028}},{"attributes":{"ID":451030,"DIS_CODE":0,"TOWNNAME":"南區","LI":"開南里","LIN":"24鄰","STREET":"\u25A0埕路","SECT":" ","MAREA":" ","LANE":"１３１巷","ALLEY":" ","HOUSE_NO":"１６３號十二樓","E_COORD97":166523.69,"N_COORD97":2540877.46,"ADDRESS":"\u25A0埕路１３１巷１６３號十二樓","OBJECTID":451005},"geometry":{"x":166523.69000000041,"y":2540877.4600000028}},{"attributes":{"ID":451031,"DIS_CODE":0,"TOWNNAME":"南區","LI":"開南里","LIN":"24鄰","STREET":"\u25A0埕路","SECT":" ","MAREA":" ","LANE":"１３１巷","ALLEY":" ","HOUSE_NO":"１６３號十二樓之１","E_COORD97":166523.69,"N_COORD97":2540877.46,"ADDRESS":"\u25A0埕路１３１巷１６３號十二樓之１","OBJECTID":451006},"geometry":{"x":166523.69000000041,"y":2540877.4600000028}},{"attributes":{"ID":451032,"DIS_CODE":0,"TOWNNAME":"南區","LI":"開南里","LIN":"24鄰","STREET":"\u25A0埕路","SECT":" ","MAREA":" ","LANE":"１３１巷","ALLEY":" ","HOUSE_NO":"１６３號十二樓之２","E_COORD97":166523.69,"N_COORD97":2540877.46,"ADDRESS":"\u25A0埕路１３１巷１６３號十二樓之２","OBJECTID":451007},"geometry":{"x":166523.69000000041,"y":2540877.4600000028}},{"attributes":{"ID":451033,"DIS_CODE":0,"TOWNNAME":"東山區","LI":"科里里","LIN":"1鄰","STREET":" ","SECT":" ","MAREA":"下庄子","LANE":" ","ALLEY":" ","HOUSE_NO":"８號","E_COORD97":189543.153693,"N_COORD97":2578473.8065999998,"ADDRESS":"下庄子８號","OBJECTID":451008},"geometry":{"x":189543.15369300079,"y":2578473.8066009991}},{"attributes":{"ID":451034,"DIS_CODE":0,"TOWNNAME":"南區","LI":"開南里","LIN":"24鄰","STREET":"\u25A0埕路","SECT":" ","MAREA":" ","LANE":"１３１巷","ALLEY":" ","HOUSE_NO":"１６３號十二樓之３","E_COORD97":166523.69,"N_COORD97":2540877.46,"ADDRESS":"\u25A0埕路１３１巷１６３號十二樓之３","OBJECTID":451009},"geometry":{"x":166523.69000000041,"y":2540877.4600000028}},{"attributes":{"ID":451035,"DIS_CODE":0,"TOWNNAME":"南區","LI":"開南里","LIN":"24鄰","STREET":"\u25A0埕路","SECT":" ","MAREA":" ","LANE":"１３１巷","ALLEY":" ","HOUSE_NO":"１６３號十樓","E_COORD97":166523.69,"N_COORD97":2540877.46,"ADDRESS":"\u25A0埕路１３１巷１６３號十樓","OBJECTID":451010},"geometry":{"x":166523.69000000041,"y":2540877.4600000028}},{"attributes":{"ID":451036,"DIS_CODE":0,"TOWNNAME":"南區","LI":"開南里","LIN":"24鄰","STREET":"\u25A0埕路","SECT":" ","MAREA":" ","LANE":"１３１巷","ALLEY":" ","HOUSE_NO":"１６３號十樓之１","E_COORD97":166523.69,"N_COORD97":2540877.46,"ADDRESS":"\u25A0埕路１３１巷１６３號十樓之１","OBJECTID":451011},"geometry":{"x":166523.69000000041,"y":2540877.4600000028}},{"attributes":{"ID":451037,"DIS_CODE":0,"TOWNNAME":"南區","LI":"開南里","LIN":"24鄰","STREET":"\u25A0埕路","SECT":" ","MAREA":" ","LANE":"１３１巷","ALLEY":" ","HOUSE_NO":"１６３號十樓之２","E_COORD97":166523.69,"N_COORD97":2540877.46,"ADDRESS":"\u25A0埕路１３１巷１６３號十樓之２","OBJECTID":451012},"geometry":{"x":166523.69000000041,"y":2540877.4600000028}},{"attributes":{"ID":451038,"DIS_CODE":0,"TOWNNAME":"南區","LI":"開南里","LIN":"24鄰","STREET":"\u25A0埕路","SECT":" ","MAREA":" ","LANE":"１３１巷","ALLEY":" ","HOUSE_NO":"１６３號十樓之３","E_COORD97":166523.69,"N_COORD97":2540877.46,"ADDRESS":"\u25A0埕路１３１巷１６３號十樓之３","OBJECTID":451013},"geometry":{"x":166523.69000000041,"y":2540877.4600000028}},{"attributes":{"ID":451039,"DIS_CODE":0,"TOWNNAME":"南區","LI":"開南里","LIN":"24鄰","STREET":"\u25A0埕路","SECT":" ","MAREA":" ","LANE":"１３１巷","ALLEY":" ","HOUSE_NO":"１６３號三樓","E_COORD97":166523.69,"N_COORD97":2540877.46,"ADDRESS":"\u25A0埕路１３１巷１６３號三樓","OBJECTID":451014},"geometry":{"x":166523.69000000041,"y":2540877.4600000028}},{"attributes":{"ID":451040,"DIS_CODE":0,"TOWNNAME":"南區","LI":"開南里","LIN":"24鄰","STREET":"\u25A0埕路","SECT":" ","MAREA":" ","LANE":"１３１巷","ALLEY":" ","HOUSE_NO":"１６３號三樓之１","E_COORD97":166523.69,"N_COORD97":2540877.46,"ADDRESS":"\u25A0埕路１３１巷１６３號三樓之１","OBJECTID":451015},"geometry":{"x":166523.69000000041,"y":2540877.4600000028}},{"attributes":{"ID":451041,"DIS_CODE":0,"TOWNNAME":"南區","LI":"開南里","LIN":"24鄰","STREET":"\u25A0埕路","SECT":" ","MAREA":" ","LANE":"１３１巷","ALLEY":" ","HOUSE_NO":"１６３號三樓之２","E_COORD97":166523.69,"N_COORD97":2540877.46,"ADDRESS":"\u25A0埕路１３１巷１６３號三樓之２","OBJECTID":451016},"geometry":{"x":166523.69000000041,"y":2540877.4600000028}},{"attributes":{"ID":451042,"DIS_CODE":0,"TOWNNAME":"南區","LI":"開南里","LIN":"24鄰","STREET":"\u25A0埕路","SECT":" ","MAREA":" ","LANE":"１３１巷","ALLEY":" ","HOUSE_NO":"１６３號三樓之３","E_COORD97":166523.69,"N_COORD97":2540877.46,"ADDRESS":"\u25A0埕路１３１巷１６３號三樓之３","OBJECTID":451017},"geometry":{"x":166523.69000000041,"y":2540877.4600000028}},{"attributes":{"ID":451043,"DIS_CODE":0,"TOWNNAME":"南區","LI":"開南里","LIN":"24鄰","STREET":"\u25A0埕路","SECT":" ","MAREA":" ","LANE":"１３１巷","ALLEY":" ","HOUSE_NO":"１６３號三樓之一","E_COORD97":166523.69,"N_COORD97":2540877.46,"ADDRESS":"\u25A0埕路１３１巷１６３號三樓之一","OBJECTID":451018},"geometry":{"x":166523.69000000041,"y":2540877.4600000028}},{"attributes":{"ID":451044,"DIS_CODE":0,"TOWNNAME":"南區","LI":"開南里","LIN":"24鄰","STREET":"\u25A0埕路","SECT":" ","MAREA":" ","LANE":"１３１巷","ALLEY":" ","HOUSE_NO":"１６３號五樓","E_COORD97":166523.69,"N_COORD97":2540877.46,"ADDRESS":"\u25A0埕路１３１巷１６３號五樓","OBJECTID":451019},"geometry":{"x":166523.69000000041,"y":2540877.4600000028}},{"attributes":{"ID":451045,"DIS_CODE":0,"TOWNNAME":"南區","LI":"開南里","LIN":"24鄰","STREET":"\u25A0埕路","SECT":" ","MAREA":" ","LANE":"１３１巷","ALLEY":" ","HOUSE_NO":"１６３號五樓之１","E_COORD97":166523.69,"N_COORD97":2540877.46,"ADDRESS":"\u25A0埕路１３１巷１６３號五樓之１","OBJECTID":451020},"geometry":{"x":166523.69000000041,"y":2540877.4600000028}},{"attributes":{"ID":451046,"DIS_CODE":0,"TOWNNAME":"南區","LI":"開南里","LIN":"24鄰","STREET":"\u25A0埕路","SECT":" ","MAREA":" ","LANE":"１３１巷","ALLEY":" ","HOUSE_NO":"１６３號五樓之２","E_COORD97":166523.69,"N_COORD97":2540877.46,"ADDRESS":"\u25A0埕路１３１巷１６３號五樓之２","OBJECTID":451021},"geometry":{"x":166523.69000000041,"y":2540877.4600000028}},{"attributes":{"ID":451047,"DIS_CODE":0,"TOWNNAME":"南區","LI":"開南里","LIN":"24鄰","STREET":"\u25A0埕路","SECT":" ","MAREA":" ","LANE":"１３１巷","ALLEY":" ","HOUSE_NO":"１６３號五樓之３","E_COORD97":166523.69,"N_COORD97":2540877.46,"ADDRESS":"\u25A0埕路１３１巷１６３號五樓之３","OBJECTID":451022},"geometry":{"x":166523.69000000041,"y":2540877.4600000028}},{"attributes":{"ID":451048,"DIS_CODE":0,"TOWNNAME":"南區","LI":"開南里","LIN":"24鄰","STREET":"\u25A0埕路","SECT":" ","MAREA":" ","LANE":"１３１巷","ALLEY":" ","HOUSE_NO":"１６３號四樓","E_COORD97":166523.69,"N_COORD97":2540877.46,"ADDRESS":"\u25A0埕路１３１巷１６３號四樓","OBJECTID":451023},"geometry":{"x":166523.69000000041,"y":2540877.4600000028}},{"attributes":{"ID":451049,"DIS_CODE":0,"TOWNNAME":"南區","LI":"開南里","LIN":"24鄰","STREET":"\u25A0埕路","SECT":" ","MAREA":" ","LANE":"１３１巷","ALLEY":" ","HOUSE_NO":"１６３號四樓之１","E_COORD97":166523.69,"N_COORD97":2540877.46,"ADDRESS":"\u25A0埕路１３１巷１６３號四樓之１","OBJECTID":451024},"geometry":{"x":166523.69000000041,"y":2540877.4600000028}},{"attributes":{"ID":451050,"DIS_CODE":0,"TOWNNAME":"南區","LI":"開南里","LIN":"24鄰","STREET":"\u25A0埕路","SECT":" ","MAREA":" ","LANE":"１３１巷","ALLEY":" ","HOUSE_NO":"１６３號四樓之２","E_COORD97":166523.69,"N_COORD97":2540877.46,"ADDRESS":"\u25A0埕路１３１巷１６３號四樓之２","OBJECTID":451025},"geometry":{"x":166523.69000000041,"y":2540877.4600000028}},{"attributes":{"ID":451051,"DIS_CODE":0,"TOWNNAME":"安南區","LI":"海東里","LIN":"24鄰","STREET":"同安路","SECT":" ","MAREA":" ","LANE":"１６７巷","ALLEY":" ","HOUSE_NO":"１２２號","E_COORD97":166877.81,"N_COORD97":2549273.2599999998,"ADDRESS":"同安路１６７巷１２２號","OBJECTID":451026},"geometry":{"x":166877.80999999959,"y":2549273.2599999998}},{"attributes":{"ID":451052,"DIS_CODE":0,"TOWNNAME":"安南區","LI":"海東里","LIN":"24鄰","STREET":"同安路","SECT":" ","MAREA":" ","LANE":"１６７巷","ALLEY":" ","HOUSE_NO":"１２６號","E_COORD97":166874,"N_COORD97":2549275.6400000001,"ADDRESS":"同安路１６７巷１２６號","OBJECTID":451027},"geometry":{"x":166873.99999999907,"y":2549275.6400000043}},{"attributes":{"ID":451053,"DIS_CODE":0,"TOWNNAME":"安南區","LI":"海東里","LIN":"24鄰","STREET":"同安路","SECT":" ","MAREA":" ","LANE":"１６７巷","ALLEY":" ","HOUSE_NO":"１２８號","E_COORD97":166869.54999999999,"N_COORD97":2549278.8100000001,"ADDRESS":"同安路１６７巷１２８號","OBJECTID":451028},"geometry":{"x":166869.54999999981,"y":2549278.8100000024}},{"attributes":{"ID":451054,"DIS_CODE":0,"TOWNNAME":"安南區","LI":"海東里","LIN":"24鄰","STREET":"同安路","SECT":" ","MAREA":" ","LANE":"１６７巷","ALLEY":" ","HOUSE_NO":"１３０號","E_COORD97":166866.69,"N_COORD97":2549281.5099999998,"ADDRESS":"同安路１６７巷１３０號","OBJECTID":451029},"geometry":{"x":166866.69000000134,"y":2549281.5099999998}},{"attributes":{"ID":451055,"DIS_CODE":0,"TOWNNAME":"安南區","LI":"海東里","LIN":"24鄰","STREET":"同安路","SECT":" ","MAREA":" ","LANE":"１６７巷","ALLEY":" ","HOUSE_NO":"１３２號","E_COORD97":166863.67999999999,"N_COORD97":2549284.0499999998,"ADDRESS":"同安路１６７巷１３２號","OBJECTID":451030},"geometry":{"x":166863.6799999997,"y":2549284.0500000026}},{"attributes":{"ID":451056,"DIS_CODE":0,"TOWNNAME":"安南區","LI":"海東里","LIN":"24鄰","STREET":"同安路","SECT":" ","MAREA":" ","LANE":"１６７巷","ALLEY":" ","HOUSE_NO":"１３６號","E_COORD97":166859.07000000001,"N_COORD97":2549287.7000000002,"ADDRESS":"同安路１６７巷１３６號","OBJECTID":451031},"geometry":{"x":166859.07000000123,"y":2549287.7000000011}},{"attributes":{"ID":451057,"DIS_CODE":0,"TOWNNAME":"安南區","LI":"海東里","LIN":"24鄰","STREET":"同安路","SECT":" ","MAREA":" ","LANE":"１６７巷","ALLEY":" ","HOUSE_NO":"１３８號","E_COORD97":166856.06,"N_COORD97":2549290.5600000001,"ADDRESS":"同安路１６７巷１３８號","OBJECTID":451032},"geometry":{"x":166856.05999999959,"y":2549290.5600000024}},{"attributes":{"ID":451058,"DIS_CODE":0,"TOWNNAME":"安南區","LI":"海東里","LIN":"24鄰","STREET":"同安路","SECT":" ","MAREA":" ","LANE":"１６７巷","ALLEY":" ","HOUSE_NO":"１４０號","E_COORD97":166852.25,"N_COORD97":2549293.8900000001,"ADDRESS":"同安路１６７巷１４０號","OBJECTID":451033},"geometry":{"x":166852.25000000093,"y":2549293.8900000006}},{"attributes":{"ID":451059,"DIS_CODE":0,"TOWNNAME":"北區","LI":"成德里","LIN":"12鄰","STREET":"育德路","SECT":" ","MAREA":" ","LANE":"１７７巷","ALLEY":" ","HOUSE_NO":"１３３號","E_COORD97":168252.09,"N_COORD97":2545552.1400000001,"ADDRESS":"育德路１７７巷１３３號","OBJECTID":451034},"geometry":{"x":168252.09000000078,"y":2545552.1400000006}},{"attributes":{"ID":451060,"DIS_CODE":0,"TOWNNAME":"安平區","LI":"平安里","LIN":"12鄰","STREET":"安平路","SECT":" ","MAREA":" ","LANE":"５００巷","ALLEY":" ","HOUSE_NO":"４７號","E_COORD97":165159.01000000001,"N_COORD97":2544481.9199999999,"ADDRESS":"安平路５００巷４７號","OBJECTID":451035},"geometry":{"x":165159.01000000071,"y":2544481.9199999999}},{"attributes":{"ID":451061,"DIS_CODE":0,"TOWNNAME":"安平區","LI":"平安里","LIN":"12鄰","STREET":"安平路","SECT":" ","MAREA":" ","LANE":"５００巷","ALLEY":" ","HOUSE_NO":"５１號","E_COORD97":165160.23000000001,"N_COORD97":2544487.7200000002,"ADDRESS":"安平路５００巷５１號","OBJECTID":451036},"geometry":{"x":165160.23000000045,"y":2544487.7199999988}},{"attributes":{"ID":451062,"DIS_CODE":0,"TOWNNAME":"安平區","LI":"平安里","LIN":"12鄰","STREET":"安平路","SECT":" ","MAREA":" ","LANE":"５００巷","ALLEY":" ","HOUSE_NO":"５３號","E_COORD97":165160.84,"N_COORD97":2544490.4900000002,"ADDRESS":"安平路５００巷５３號","OBJECTID":451037},"geometry":{"x":165160.83999999985,"y":2544490.4900000021}},{"attributes":{"ID":451063,"DIS_CODE":0,"TOWNNAME":"安平區","LI":"平安里","LIN":"12鄰","STREET":"安平路","SECT":" ","MAREA":" ","LANE":"５００巷","ALLEY":" ","HOUSE_NO":"５５號","E_COORD97":165161.29999999999,"N_COORD97":2544493.7000000002,"ADDRESS":"安平路５００巷５５號","OBJECTID":451038},"geometry":{"x":165161.29999999888,"y":2544493.7000000011}},{"attributes":{"ID":451064,"DIS_CODE":0,"TOWNNAME":"中西區","LI":"法華里","LIN":"20鄰","STREET":"健康路","SECT":"一段","MAREA":" ","LANE":"１６０巷","ALLEY":" ","HOUSE_NO":"２１號","E_COORD97":168736.35000000001,"N_COORD97":2542535.2599999998,"ADDRESS":"健康路一段１６０巷２１號","OBJECTID":451039},"geometry":{"x":168736.35000000056,"y":2542535.2600000016}},{"attributes":{"ID":451065,"DIS_CODE":0,"TOWNNAME":"中西區","LI":"法華里","LIN":"20鄰","STREET":"健康路","SECT":"一段","MAREA":" ","LANE":"１６０巷","ALLEY":" ","HOUSE_NO":"２２號","E_COORD97":168754.35000000001,"N_COORD97":2542518.8500000001,"ADDRESS":"健康路一段１６０巷２２號","OBJECTID":451040},"geometry":{"x":168754.34999999963,"y":2542518.8499999996}},{"attributes":{"ID":451066,"DIS_CODE":0,"TOWNNAME":"中西區","LI":"法華里","LIN":"20鄰","STREET":"健康路","SECT":"一段","MAREA":" ","LANE":"１６０巷","ALLEY":" ","HOUSE_NO":"２３號","E_COORD97":168736.07000000001,"N_COORD97":2542540.6000000001,"ADDRESS":"健康路一段１６０巷２３號","OBJECTID":451041},"geometry":{"x":168736.07000000123,"y":2542540.5999999996}},{"attributes":{"ID":451067,"DIS_CODE":0,"TOWNNAME":"中西區","LI":"法華里","LIN":"20鄰","STREET":"健康路","SECT":"一段","MAREA":" ","LANE":"１６０巷","ALLEY":" ","HOUSE_NO":"２４號","E_COORD97":168754.35000000001,"N_COORD97":2542524.1899999999,"ADDRESS":"健康路一段１６０巷２４號","OBJECTID":451042},"geometry":{"x":168754.34999999963,"y":2542524.1900000013}},{"attributes":{"ID":451068,"DIS_CODE":0,"TOWNNAME":"中西區","LI":"法華里","LIN":"20鄰","STREET":"健康路","SECT":"一段","MAREA":" ","LANE":"１６０巷","ALLEY":" ","HOUSE_NO":"２５號","E_COORD97":168736.07000000001,"N_COORD97":2542543.9700000002,"ADDRESS":"健康路一段１６０巷２５號","OBJECTID":451043},"geometry":{"x":168736.07000000123,"y":2542543.9700000025}},{"attributes":{"ID":451069,"DIS_CODE":0,"TOWNNAME":"中西區","LI":"法華里","LIN":"20鄰","STREET":"健康路","SECT":"一段","MAREA":" ","LANE":"１６０巷","ALLEY":" ","HOUSE_NO":"２６號","E_COORD97":168753.51000000001,"N_COORD97":2542529.52,"ADDRESS":"健康路一段１６０巷２６號","OBJECTID":451044},"geometry":{"x":168753.50999999978,"y":2542529.5200000014}},{"attributes":{"ID":451070,"DIS_CODE":0,"TOWNNAME":"中西區","LI":"法華里","LIN":"20鄰","STREET":"健康路","SECT":"一段","MAREA":" ","LANE":"１６０巷","ALLEY":" ","HOUSE_NO":"２７號","E_COORD97":168737.19,"N_COORD97":2542548.1800000002,"ADDRESS":"健康路一段１６０巷２７號","OBJECTID":451045},"geometry":{"x":168737.19000000041,"y":2542548.1800000016}},{"attributes":{"ID":451071,"DIS_CODE":0,"TOWNNAME":"中西區","LI":"法華里","LIN":"20鄰","STREET":"健康路","SECT":"一段","MAREA":" ","LANE":"１６０巷","ALLEY":" ","HOUSE_NO":"２８號","E_COORD97":168754.63,"N_COORD97":2542535.4199999999,"ADDRESS":"健康路一段１６０巷２８號","OBJECTID":451046},"geometry":{"x":168754.62999999896,"y":2542535.4199999999}},{"attributes":{"ID":451072,"DIS_CODE":0,"TOWNNAME":"中西區","LI":"法華里","LIN":"20鄰","STREET":"健康路","SECT":"一段","MAREA":" ","LANE":"１６０巷","ALLEY":" ","HOUSE_NO":"２９號","E_COORD97":168737.47,"N_COORD97":2542551.8300000001,"ADDRESS":"健康路一段１６０巷２９號","OBJECTID":451047},"geometry":{"x":168737.47000000067,"y":2542551.8300000019}},{"attributes":{"ID":451073,"DIS_CODE":0,"TOWNNAME":"中西區","LI":"法華里","LIN":"20鄰","STREET":"健康路","SECT":"一段","MAREA":" ","LANE":"１６０巷","ALLEY":" ","HOUSE_NO":"２之１號","E_COORD97":168752.94,"N_COORD97":2542461.5299999998,"ADDRESS":"健康路一段１６０巷２之１號","OBJECTID":451048},"geometry":{"x":168752.94000000041,"y":2542461.5300000012}},{"attributes":{"ID":451074,"DIS_CODE":0,"TOWNNAME":"中西區","LI":"法華里","LIN":"20鄰","STREET":"健康路","SECT":"一段","MAREA":" ","LANE":"１６０巷","ALLEY":" ","HOUSE_NO":"３０號","E_COORD97":168754.63,"N_COORD97":2542539.9199999999,"ADDRESS":"健康路一段１６０巷３０號","OBJECTID":451049},"geometry":{"x":168754.62999999896,"y":2542539.9200000037}},{"attributes":{"ID":451075,"DIS_CODE":0,"TOWNNAME":"中西區","LI":"法華里","LIN":"20鄰","STREET":"健康路","SECT":"一段","MAREA":" ","LANE":"１６０巷","ALLEY":" ","HOUSE_NO":"３１號","E_COORD97":168739.44,"N_COORD97":2542555.2000000002,"ADDRESS":"健康路一段１６０巷３１號","OBJECTID":451050},"geometry":{"x":168739.44000000041,"y":2542555.2000000011}},{"attributes":{"ID":451076,"DIS_CODE":0,"TOWNNAME":"中西區","LI":"法華里","LIN":"20鄰","STREET":"健康路","SECT":"一段","MAREA":" ","LANE":"１６０巷","ALLEY":" ","HOUSE_NO":"３２號","E_COORD97":168754.35000000001,"N_COORD97":2542544.4100000001,"ADDRESS":"健康路一段１６０巷３２號","OBJECTID":451051},"geometry":{"x":168754.34999999963,"y":2542544.410000002}},{"attributes":{"ID":451077,"DIS_CODE":0,"TOWNNAME":"中西區","LI":"法華里","LIN":"20鄰","STREET":"健康路","SECT":"一段","MAREA":" ","LANE":"１６０巷","ALLEY":" ","HOUSE_NO":"３４號","E_COORD97":168754.63,"N_COORD97":2542551.1499999999,"ADDRESS":"健康路一段１６０巷３４號","OBJECTID":451052},"geometry":{"x":168754.62999999896,"y":2542551.1500000004}},{"attributes":{"ID":451078,"DIS_CODE":0,"TOWNNAME":"中西區","LI":"法華里","LIN":"20鄰","STREET":"健康路","SECT":"一段","MAREA":" ","LANE":"１６０巷","ALLEY":" ","HOUSE_NO":"３６號","E_COORD97":168762.23000000001,"N_COORD97":2542551.1499999999,"ADDRESS":"健康路一段１６０巷３６號","OBJECTID":451053},"geometry":{"x":168762.23000000138,"y":2542551.1500000004}},{"attributes":{"ID":451079,"DIS_CODE":0,"TOWNNAME":"中西區","LI":"法華里","LIN":"20鄰","STREET":"健康路","SECT":"一段","MAREA":" ","LANE":"１６０巷","ALLEY":" ","HOUSE_NO":"５號","E_COORD97":168732.97,"N_COORD97":2542496.6299999999,"ADDRESS":"健康路一段１６０巷５號","OBJECTID":451054},"geometry":{"x":168732.96999999974,"y":2542496.6300000027}},{"attributes":{"ID":451080,"DIS_CODE":0,"TOWNNAME":"中西區","LI":"法華里","LIN":"20鄰","STREET":"健康路","SECT":"一段","MAREA":" ","LANE":"１６０巷","ALLEY":" ","HOUSE_NO":"６號","E_COORD97":168752.66,"N_COORD97":2542465.46,"ADDRESS":"健康路一段１６０巷６號","OBJECTID":451055},"geometry":{"x":168752.66000000015,"y":2542465.4600000009}},{"attributes":{"ID":451081,"DIS_CODE":0,"TOWNNAME":"中西區","LI":"法華里","LIN":"20鄰","STREET":"健康路","SECT":"一段","MAREA":" ","LANE":"１６０巷","ALLEY":" ","HOUSE_NO":"７號","E_COORD97":168718.63,"N_COORD97":2542509.71,"ADDRESS":"健康路一段１６０巷７號","OBJECTID":451056},"geometry":{"x":168718.62999999989,"y":2542509.7100000028}},{"attributes":{"ID":451082,"DIS_CODE":0,"TOWNNAME":"中西區","LI":"法華里","LIN":"20鄰","STREET":"健康路","SECT":"一段","MAREA":" ","LANE":"１６０巷","ALLEY":" ","HOUSE_NO":"８號","E_COORD97":168752.66,"N_COORD97":2542468.8300000001,"ADDRESS":"健康路一段１６０巷８號","OBJECTID":451057},"geometry":{"x":168752.66000000015,"y":2542468.8300000001}},{"attributes":{"ID":451083,"DIS_CODE":0,"TOWNNAME":"安南區","LI":"幸福里","LIN":"20鄰","STREET":"海佃路","SECT":"一段","MAREA":" ","LANE":"９５巷","ALLEY":" ","HOUSE_NO":"２１號","E_COORD97":167090.16,"N_COORD97":2546924.48,"ADDRESS":"海佃路一段９５巷２１號","OBJECTID":451058},"geometry":{"x":167090.16000000201,"y":2546924.4800000023}},{"attributes":{"ID":451084,"DIS_CODE":0,"TOWNNAME":"安南區","LI":"幸福里","LIN":"20鄰","STREET":"海佃路","SECT":"一段","MAREA":" ","LANE":"９５巷","ALLEY":" ","HOUSE_NO":"４６號","E_COORD97":167001.82000000001,"N_COORD97":2546925.8199999998,"ADDRESS":"海佃路一段９５巷４６號","OBJECTID":451059},"geometry":{"x":167001.82000000123,"y":2546925.8200000022}},{"attributes":{"ID":451085,"DIS_CODE":0,"TOWNNAME":"安南區","LI":"幸福里","LIN":"20鄰","STREET":"海佃路","SECT":"一段","MAREA":" ","LANE":"９５巷","ALLEY":" ","HOUSE_NO":"６號","E_COORD97":167139.66,"N_COORD97":2546958.3799999999,"ADDRESS":"海佃路一段９５巷６號","OBJECTID":451060},"geometry":{"x":167139.66000000108,"y":2546958.379999999}},{"attributes":{"ID":451086,"DIS_CODE":0,"TOWNNAME":"安南區","LI":"幸福里","LIN":"20鄰","STREET":"海佃路","SECT":"一段","MAREA":" ","LANE":"９５巷","ALLEY":" ","HOUSE_NO":"８號","E_COORD97":167132.35000000001,"N_COORD97":2546959.04,"ADDRESS":"海佃路一段９５巷８號","OBJECTID":451061},"geometry":{"x":167132.35000000149,"y":2546959.0400000028}},{"attributes":{"ID":451087,"DIS_CODE":0,"TOWNNAME":"安南區","LI":"幸福里","LIN":"20鄰","STREET":"海佃路","SECT":"一段","MAREA":" ","LANE":"９５巷","ALLEY":" ","HOUSE_NO":"９號","E_COORD97":167133.42999999999,"N_COORD97":2546932.6600000001,"ADDRESS":"海佃路一段９５巷９號","OBJECTID":451062},"geometry":{"x":167133.4299999997,"y":2546932.660000002}},{"attributes":{"ID":451088,"DIS_CODE":0,"TOWNNAME":"安南區","LI":"幸福里","LIN":"20鄰","STREET":"海佃路","SECT":"一段","MAREA":" ","LANE":"９５巷","ALLEY":" ","HOUSE_NO":"１２號","E_COORD97":167115.38,"N_COORD97":2546946.98,"ADDRESS":"海佃路一段９５巷１２號","OBJECTID":451063},"geometry":{"x":167115.37999999896,"y":2546946.9800000004}},{"attributes":{"ID":451089,"DIS_CODE":0,"TOWNNAME":"安南區","LI":"梅花里","LIN":"20鄰","STREET":"安中路","SECT":"一段","MAREA":" ","LANE":"７５７巷","ALLEY":" ","HOUSE_NO":"２８號","E_COORD97":167375.42999999999,"N_COORD97":2549268.8700000001,"ADDRESS":"安中路一段７５７巷２８號","OBJECTID":451064},"geometry":{"x":167375.4299999997,"y":2549268.8700000029}},{"attributes":{"ID":451090,"DIS_CODE":0,"TOWNNAME":"安南區","LI":"梅花里","LIN":"20鄰","STREET":"安中路","SECT":"一段","MAREA":" ","LANE":"７５７巷","ALLEY":" ","HOUSE_NO":"３０號","E_COORD97":167372.88,"N_COORD97":2549265.2599999998,"ADDRESS":"安中路一段７５７巷３０號","OBJECTID":451065},"geometry":{"x":167372.87999999989,"y":2549265.2600000016}},{"attributes":{"ID":451091,"DIS_CODE":0,"TOWNNAME":"安南區","LI":"梅花里","LIN":"20鄰","STREET":"安中路","SECT":"一段","MAREA":" ","LANE":"７５７巷","ALLEY":" ","HOUSE_NO":"３２號","E_COORD97":167370.75,"N_COORD97":2549261.2200000002,"ADDRESS":"安中路一段７５７巷３２號","OBJECTID":451066},"geometry":{"x":167370.75000000186,"y":2549261.2200000007}},{"attributes":{"ID":451092,"DIS_CODE":0,"TOWNNAME":"安南區","LI":"梅花里","LIN":"20鄰","STREET":"安中路","SECT":"一段","MAREA":" ","LANE":"７５７巷","ALLEY":" ","HOUSE_NO":"２２之１號","E_COORD97":167380.54000000001,"N_COORD97":2549276.1000000001,"ADDRESS":"安中路一段７５７巷２２之１號","OBJECTID":451067},"geometry":{"x":167380.54000000004,"y":2549276.1000000015}},{"attributes":{"ID":451093,"DIS_CODE":0,"TOWNNAME":"安南區","LI":"梅花里","LIN":"20鄰","STREET":"安中路","SECT":"一段","MAREA":" ","LANE":"７５７巷","ALLEY":" ","HOUSE_NO":"３２之１號","E_COORD97":167369.48000000001,"N_COORD97":2549256.9700000002,"ADDRESS":"安中路一段７５７巷３２之１號","OBJECTID":451068},"geometry":{"x":167369.48000000045,"y":2549256.9700000025}},{"attributes":{"ID":451094,"DIS_CODE":0,"TOWNNAME":"安南區","LI":"安富里","LIN":"20鄰","STREET":"郡安路","SECT":"五段","MAREA":" ","LANE":"１７８巷","ALLEY":" ","HOUSE_NO":"１０８號","E_COORD97":167557.85999999999,"N_COORD97":2547474.9100000001,"ADDRESS":"郡安路五段１７８巷１０８號","OBJECTID":451069},"geometry":{"x":167557.86000000034,"y":2547474.9100000001}},{"attributes":{"ID":451095,"DIS_CODE":0,"TOWNNAME":"中西區","LI":"西湖里","LIN":"20鄰","STREET":"湖美街","SECT":" ","MAREA":" ","LANE":"１２巷","ALLEY":" ","HOUSE_NO":"１１號","E_COORD97":165990.45999999999,"N_COORD97":2544484.7000000002,"ADDRESS":"湖美街１２巷１１號","OBJECTID":451070},"geometry":{"x":165990.45999999996,"y":2544484.7000000011}},{"attributes":{"ID":451096,"DIS_CODE":0,"TOWNNAME":"中西區","LI":"西湖里","LIN":"20鄰","STREET":"湖美街","SECT":" ","MAREA":" ","LANE":"１２巷","ALLEY":" ","HOUSE_NO":"１２號","E_COORD97":165991.53,"N_COORD97":2544457.1899999999,"ADDRESS":"湖美街１２巷１２號","OBJECTID":451071},"geometry":{"x":165991.53000000119,"y":2544457.1900000013}},{"attributes":{"ID":451097,"DIS_CODE":0,"TOWNNAME":"中西區","LI":"西湖里","LIN":"20鄰","STREET":"湖美街","SECT":" ","MAREA":" ","LANE":"１２巷","ALLEY":" ","HOUSE_NO":"１３號","E_COORD97":165994.73999999999,"N_COORD97":2544484.96,"ADDRESS":"湖美街１２巷１３號","OBJECTID":451072},"geometry":{"x":165994.74000000209,"y":2544484.9600000009}},{"attributes":{"ID":451098,"DIS_CODE":0,"TOWNNAME":"中西區","LI":"西湖里","LIN":"20鄰","STREET":"湖美街","SECT":" ","MAREA":" ","LANE":"１２巷","ALLEY":" ","HOUSE_NO":"１４號","E_COORD97":165995.54000000001,"N_COORD97":2544455.8500000001,"ADDRESS":"湖美街１２巷１４號","OBJECTID":451073},"geometry":{"x":165995.54000000004,"y":2544455.8500000015}},{"attributes":{"ID":451099,"DIS_CODE":0,"TOWNNAME":"中西區","LI":"西湖里","LIN":"20鄰","STREET":"湖美街","SECT":" ","MAREA":" ","LANE":"１２巷","ALLEY":" ","HOUSE_NO":"１５號","E_COORD97":165999.01999999999,"N_COORD97":2544484.96,"ADDRESS":"湖美街１２巷１５號","OBJECTID":451074},"geometry":{"x":165999.02000000048,"y":2544484.9600000009}},{"attributes":{"ID":451100,"DIS_CODE":0,"TOWNNAME":"中西區","LI":"西湖里","LIN":"20鄰","STREET":"湖美街","SECT":" ","MAREA":" ","LANE":"１２巷","ALLEY":" ","HOUSE_NO":"１６號","E_COORD97":165999.82000000001,"N_COORD97":2544456.6499999999,"ADDRESS":"湖美街１２巷１６號","OBJECTID":451075},"geometry":{"x":165999.82000000123,"y":2544456.6500000004}},{"attributes":{"ID":451101,"DIS_CODE":0,"TOWNNAME":"中西區","LI":"西湖里","LIN":"20鄰","STREET":"湖美街","SECT":" ","MAREA":" ","LANE":"１２巷","ALLEY":" ","HOUSE_NO":"１７號","E_COORD97":166003.57000000001,"N_COORD97":2544484.7000000002,"ADDRESS":"湖美街１２巷１７號","OBJECTID":451076},"geometry":{"x":166003.5700000003,"y":2544484.7000000011}},{"attributes":{"ID":451102,"DIS_CODE":0,"TOWNNAME":"中西區","LI":"西湖里","LIN":"20鄰","STREET":"湖美街","SECT":" ","MAREA":" ","LANE":"１２巷","ALLEY":" ","HOUSE_NO":"１８號","E_COORD97":166004.10000000001,"N_COORD97":2544455.8500000001,"ADDRESS":"湖美街１２巷１８號","OBJECTID":451077},"geometry":{"x":166004.10000000056,"y":2544455.8500000015}},{"attributes":{"ID":451103,"DIS_CODE":0,"TOWNNAME":"中西區","LI":"西湖里","LIN":"20鄰","STREET":"湖美街","SECT":" ","MAREA":" ","LANE":"１２巷","ALLEY":" ","HOUSE_NO":"１９號","E_COORD97":166007.85000000001,"N_COORD97":2544484.96,"ADDRESS":"湖美街１２巷１９號","OBJECTID":451078},"geometry":{"x":166007.84999999963,"y":2544484.9600000009}},{"attributes":{"ID":451104,"DIS_CODE":0,"TOWNNAME":"中西區","LI":"西湖里","LIN":"20鄰","STREET":"湖美街","SECT":" ","MAREA":" ","LANE":"１２巷","ALLEY":" ","HOUSE_NO":"１號","E_COORD97":165969.07000000001,"N_COORD97":2544483.8999999999,"ADDRESS":"湖美街１２巷１號","OBJECTID":451079},"geometry":{"x":165969.07000000123,"y":2544483.9000000022}},{"attributes":{"ID":451105,"DIS_CODE":0,"TOWNNAME":"中西區","LI":"西湖里","LIN":"20鄰","STREET":"湖美街","SECT":" ","MAREA":" ","LANE":"１２巷","ALLEY":" ","HOUSE_NO":"２０號","E_COORD97":166008.10999999999,"N_COORD97":2544457.46,"ADDRESS":"湖美街１２巷２０號","OBJECTID":451080},"geometry":{"x":166008.11000000127,"y":2544457.4600000028}},{"attributes":{"ID":451106,"DIS_CODE":0,"TOWNNAME":"中西區","LI":"西湖里","LIN":"20鄰","STREET":"湖美街","SECT":" ","MAREA":" ","LANE":"１２巷","ALLEY":" ","HOUSE_NO":"２１號","E_COORD97":166011.85999999999,"N_COORD97":2544485.5,"ADDRESS":"湖美街１２巷２１號","OBJECTID":451081},"geometry":{"x":166011.86000000034,"y":2544485.5000000037}},{"attributes":{"ID":451107,"DIS_CODE":0,"TOWNNAME":"中西區","LI":"西湖里","LIN":"20鄰","STREET":"湖美街","SECT":" ","MAREA":" ","LANE":"１２巷","ALLEY":" ","HOUSE_NO":"２２號","E_COORD97":166012.92999999999,"N_COORD97":2544456.3900000001,"ADDRESS":"湖美街１２巷２２號","OBJECTID":451082},"geometry":{"x":166012.9299999997,"y":2544456.3900000043}},{"attributes":{"ID":451108,"DIS_CODE":0,"TOWNNAME":"中西區","LI":"西湖里","LIN":"20鄰","STREET":"湖美街","SECT":" ","MAREA":" ","LANE":"１２巷","ALLEY":" ","HOUSE_NO":"２３號","E_COORD97":166016.39999999999,"N_COORD97":2544486.0299999998,"ADDRESS":"湖美街１２巷２３號","OBJECTID":451083},"geometry":{"x":166016.4000000013,"y":2544486.0300000012}},{"attributes":{"ID":451109,"DIS_CODE":0,"TOWNNAME":"中西區","LI":"西湖里","LIN":"20鄰","STREET":"湖美街","SECT":" ","MAREA":" ","LANE":"１２巷","ALLEY":" ","HOUSE_NO":"２４號","E_COORD97":166016.39999999999,"N_COORD97":2544457.46,"ADDRESS":"湖美街１２巷２４號","OBJECTID":451084},"geometry":{"x":166016.4000000013,"y":2544457.4600000028}},{"attributes":{"ID":451110,"DIS_CODE":0,"TOWNNAME":"中西區","LI":"西湖里","LIN":"20鄰","STREET":"湖美街","SECT":" ","MAREA":" ","LANE":"１２巷","ALLEY":" ","HOUSE_NO":"２５號","E_COORD97":166019.88,"N_COORD97":2544485.23,"ADDRESS":"湖美街１２巷２５號","OBJECTID":451085},"geometry":{"x":166019.87999999989,"y":2544485.2300000023}},{"attributes":{"ID":451111,"DIS_CODE":0,"TOWNNAME":"中西區","LI":"西湖里","LIN":"20鄰","STREET":"湖美街","SECT":" ","MAREA":" ","LANE":"１２巷","ALLEY":" ","HOUSE_NO":"２８號","E_COORD97":166025.5,"N_COORD97":2544457.1899999999,"ADDRESS":"湖美街１２巷２８號","OBJECTID":451086},"geometry":{"x":166025.50000000093,"y":2544457.1900000013}},{"attributes":{"ID":451112,"DIS_CODE":0,"TOWNNAME":"中西區","LI":"西湖里","LIN":"20鄰","STREET":"湖美街","SECT":" ","MAREA":" ","LANE":"１２巷","ALLEY":" ","HOUSE_NO":"２號","E_COORD97":165970.41,"N_COORD97":2544455.5899999999,"ADDRESS":"湖美街１２巷２號","OBJECTID":451087},"geometry":{"x":165970.41000000108,"y":2544455.5900000017}},{"attributes":{"ID":451113,"DIS_CODE":0,"TOWNNAME":"中西區","LI":"西湖里","LIN":"20鄰","STREET":"湖美街","SECT":" ","MAREA":" ","LANE":"１２巷","ALLEY":" ","HOUSE_NO":"３０號","E_COORD97":166030.04000000001,"N_COORD97":2544457.1899999999,"ADDRESS":"湖美街１２巷３０號","OBJECTID":451088},"geometry":{"x":166030.04000000097,"y":2544457.1900000013}},{"attributes":{"ID":451114,"DIS_CODE":0,"TOWNNAME":"中西區","LI":"西湖里","LIN":"20鄰","STREET":"湖美街","SECT":" ","MAREA":" ","LANE":"１２巷","ALLEY":" ","HOUSE_NO":"３號","E_COORD97":165973.35000000001,"N_COORD97":2544484.7000000002,"ADDRESS":"湖美街１２巷３號","OBJECTID":451089},"geometry":{"x":165973.35000000056,"y":2544484.7000000011}},{"attributes":{"ID":451115,"DIS_CODE":0,"TOWNNAME":"中西區","LI":"西湖里","LIN":"20鄰","STREET":"湖美街","SECT":" ","MAREA":" ","LANE":"１２巷","ALLEY":" ","HOUSE_NO":"４號","E_COORD97":165974.95000000001,"N_COORD97":2544455.5899999999,"ADDRESS":"湖美街１２巷４號","OBJECTID":451090},"geometry":{"x":165974.95000000112,"y":2544455.5900000017}},{"attributes":{"ID":451116,"DIS_CODE":0,"TOWNNAME":"中西區","LI":"西湖里","LIN":"20鄰","STREET":"湖美街","SECT":" ","MAREA":" ","LANE":"１２巷","ALLEY":" ","HOUSE_NO":"５號","E_COORD97":165977.63,"N_COORD97":2544483.6299999999,"ADDRESS":"湖美街１２巷５號","OBJECTID":451091},"geometry":{"x":165977.62999999989,"y":2544483.6300000008}},{"attributes":{"ID":451117,"DIS_CODE":0,"TOWNNAME":"仁德區","LI":"仁義里","LIN":"20鄰","STREET":"中山路","SECT":" ","MAREA":" ","LANE":"３２８巷","ALLEY":" ","HOUSE_NO":"５號","E_COORD97":173945.76999999999,"N_COORD97":2541305.4900000002,"ADDRESS":"中山路３２８巷５號","OBJECTID":451092},"geometry":{"x":173945.77000000142,"y":2541305.4900000039}},{"attributes":{"ID":451118,"DIS_CODE":0,"TOWNNAME":"安南區","LI":"海東里","LIN":"20鄰","STREET":"海佃路","SECT":"二段","MAREA":" ","LANE":"２２５巷","ALLEY":" ","HOUSE_NO":"７號之１","E_COORD97":166868.35999999999,"N_COORD97":2548429.6099999999,"ADDRESS":"海佃路二段２２５巷７號之１","OBJECTID":451093},"geometry":{"x":166868.36000000034,"y":2548429.6099999994}},{"attributes":{"ID":451119,"DIS_CODE":0,"TOWNNAME":"東區","LI":"崇德里","LIN":"20鄰","STREET":"崇明十四街","SECT":" ","MAREA":" ","LANE":"６０巷","ALLEY":" ","HOUSE_NO":"１１號","E_COORD97":170702.10999999999,"N_COORD97":2541632.9399999999,"ADDRESS":"崇明十四街６０巷１１號","OBJECTID":451094},"geometry":{"x":170702.11000000127,"y":2541632.9399999995}},{"attributes":{"ID":451120,"DIS_CODE":0,"TOWNNAME":"東區","LI":"崇德里","LIN":"20鄰","STREET":"崇明十四街","SECT":" ","MAREA":" ","LANE":"６０巷","ALLEY":" ","HOUSE_NO":"１３號","E_COORD97":170706.29000000001,"N_COORD97":2541629.46,"ADDRESS":"崇明十四街６０巷１３號","OBJECTID":451095},"geometry":{"x":170706.29000000004,"y":2541629.4600000028}},{"attributes":{"ID":451121,"DIS_CODE":0,"TOWNNAME":"東區","LI":"崇德里","LIN":"20鄰","STREET":"崇明十四街","SECT":" ","MAREA":" ","LANE":"６０巷","ALLEY":" ","HOUSE_NO":"１５號","E_COORD97":170710.94,"N_COORD97":2541632.9399999999,"ADDRESS":"崇明十四街６０巷１５號","OBJECTID":451096},"geometry":{"x":170710.94000000041,"y":2541632.9399999995}},{"attributes":{"ID":451122,"DIS_CODE":0,"TOWNNAME":"東區","LI":"崇德里","LIN":"20鄰","STREET":"崇明十四街","SECT":" ","MAREA":" ","LANE":"６０巷","ALLEY":" ","HOUSE_NO":"１８號","E_COORD97":170690.29000000001,"N_COORD97":2541603.4500000002,"ADDRESS":"崇明十四街６０巷１８號","OBJECTID":451097},"geometry":{"x":170690.29000000097,"y":2541603.4500000011}},{"attributes":{"ID":451123,"DIS_CODE":0,"TOWNNAME":"東區","LI":"崇德里","LIN":"20鄰","STREET":"崇明十四街","SECT":" ","MAREA":" ","LANE":"６０巷","ALLEY":" ","HOUSE_NO":"２０號","E_COORD97":170694.60000000001,"N_COORD97":2541601.4700000002,"ADDRESS":"崇明十四街６０巷２０號","OBJECTID":451098},"geometry":{"x":170694.60000000056,"y":2541601.4700000025}},{"attributes":{"ID":451124,"DIS_CODE":0,"TOWNNAME":"東區","LI":"崇德里","LIN":"20鄰","STREET":"崇明十四街","SECT":" ","MAREA":" ","LANE":"６０巷","ALLEY":" ","HOUSE_NO":"２２號","E_COORD97":170698.70999999999,"N_COORD97":2541603.4500000002,"ADDRESS":"崇明十四街６０巷２２號","OBJECTID":451099},"geometry":{"x":170698.71000000183,"y":2541603.4500000011}},{"attributes":{"ID":451125,"DIS_CODE":0,"TOWNNAME":"東區","LI":"崇德里","LIN":"20鄰","STREET":"崇明十四街","SECT":" ","MAREA":" ","LANE":"６０巷","ALLEY":" ","HOUSE_NO":"２４號","E_COORD97":170702.56,"N_COORD97":2541601.1400000001,"ADDRESS":"崇明十四街６０巷２４號","OBJECTID":451100},"geometry":{"x":170702.55999999866,"y":2541601.1400000025}},{"attributes":{"ID":451126,"DIS_CODE":0,"TOWNNAME":"東區","LI":"崇德里","LIN":"20鄰","STREET":"崇明十四街","SECT":" ","MAREA":" ","LANE":"６０巷","ALLEY":" ","HOUSE_NO":"２６號","E_COORD97":170706.82999999999,"N_COORD97":2541602.96,"ADDRESS":"崇明十四街６０巷２６號","OBJECTID":451101},"geometry":{"x":170706.83000000101,"y":2541602.9600000028}},{"attributes":{"ID":451127,"DIS_CODE":0,"TOWNNAME":"東區","LI":"崇德里","LIN":"20鄰","STREET":"崇明十四街","SECT":" ","MAREA":" ","LANE":"６０巷","ALLEY":" ","HOUSE_NO":"２８號","E_COORD97":170710.95000000001,"N_COORD97":2541601.4900000002,"ADDRESS":"崇明十四街６０巷２８號","OBJECTID":451102},"geometry":{"x":170710.95000000205,"y":2541601.4900000021}},{"attributes":{"ID":451128,"DIS_CODE":0,"TOWNNAME":"東區","LI":"崇德里","LIN":"20鄰","STREET":"崇明十四街","SECT":" ","MAREA":" ","LANE":"６０巷","ALLEY":" ","HOUSE_NO":"２號","E_COORD97":170652.37,"N_COORD97":2541623.9300000002,"ADDRESS":"崇明十四街６０巷２號","OBJECTID":451103},"geometry":{"x":170652.37000000104,"y":2541623.9300000034}},{"attributes":{"ID":451129,"DIS_CODE":0,"TOWNNAME":"東區","LI":"崇德里","LIN":"20鄰","STREET":"崇明十四街","SECT":" ","MAREA":" ","LANE":"６０巷","ALLEY":" ","HOUSE_NO":"３０號","E_COORD97":170714.92000000001,"N_COORD97":2541603.98,"ADDRESS":"崇明十四街６０巷３０號","OBJECTID":451104},"geometry":{"x":170714.92000000086,"y":2541603.9799999986}},{"attributes":{"ID":451130,"DIS_CODE":0,"TOWNNAME":"東區","LI":"崇德里","LIN":"20鄰","STREET":"崇明十四街","SECT":" ","MAREA":" ","LANE":"６０巷","ALLEY":" ","HOUSE_NO":"３９號","E_COORD97":170733.12,"N_COORD97":2541624.9900000002,"ADDRESS":"崇明十四街６０巷３９號","OBJECTID":451105},"geometry":{"x":170733.12000000011,"y":2541624.9900000021}},{"attributes":{"ID":451131,"DIS_CODE":0,"TOWNNAME":"東區","LI":"崇德里","LIN":"20鄰","STREET":"崇明十四街","SECT":" ","MAREA":" ","LANE":"６０巷","ALLEY":" ","HOUSE_NO":"３號","E_COORD97":170679.57999999999,"N_COORD97":2541630.1499999999,"ADDRESS":"崇明十四街６０巷３號","OBJECTID":451106},"geometry":{"x":170679.58000000101,"y":2541630.1500000041}},{"attributes":{"ID":451132,"DIS_CODE":0,"TOWNNAME":"東區","LI":"崇德里","LIN":"20鄰","STREET":"崇明十四街","SECT":" ","MAREA":" ","LANE":"６０巷","ALLEY":" ","HOUSE_NO":"４１號","E_COORD97":170736.98000000001,"N_COORD97":2541626.8300000001,"ADDRESS":"崇明十四街６０巷４１號","OBJECTID":451107},"geometry":{"x":170736.98000000138,"y":2541626.8300000001}},{"attributes":{"ID":451133,"DIS_CODE":0,"TOWNNAME":"東區","LI":"崇德里","LIN":"20鄰","STREET":"崇明十四街","SECT":" ","MAREA":" ","LANE":"６０巷","ALLEY":" ","HOUSE_NO":"４３號","E_COORD97":170740.66,"N_COORD97":2541624.9900000002,"ADDRESS":"崇明十四街６０巷４３號","OBJECTID":451108},"geometry":{"x":170740.66000000108,"y":2541624.9900000021}},{"attributes":{"ID":451134,"DIS_CODE":0,"TOWNNAME":"東區","LI":"崇德里","LIN":"20鄰","STREET":"崇明十四街","SECT":" ","MAREA":" ","LANE":"６０巷","ALLEY":" ","HOUSE_NO":"４號","E_COORD97":170656.5,"N_COORD97":2541621.04,"ADDRESS":"崇明十四街６０巷４號","OBJECTID":451109},"geometry":{"x":170656.50000000093,"y":2541621.0399999991}},{"attributes":{"ID":451135,"DIS_CODE":0,"TOWNNAME":"東區","LI":"崇德里","LIN":"20鄰","STREET":"崇明十四街","SECT":" ","MAREA":" ","LANE":"６０巷","ALLEY":" ","HOUSE_NO":"５號","E_COORD97":170688.87,"N_COORD97":2541629.9199999999,"ADDRESS":"崇明十四街６０巷５號","OBJECTID":451110},"geometry":{"x":170688.87000000011,"y":2541629.9199999999}},{"attributes":{"ID":451136,"DIS_CODE":0,"TOWNNAME":"東區","LI":"崇德里","LIN":"20鄰","STREET":"崇明十四街","SECT":" ","MAREA":" ","LANE":"６０巷","ALLEY":" ","HOUSE_NO":"６號","E_COORD97":170659.59,"N_COORD97":2541618.3599999999,"ADDRESS":"崇明十四街６０巷６號","OBJECTID":451111},"geometry":{"x":170659.58999999985,"y":2541618.3600000013}},{"attributes":{"ID":451137,"DIS_CODE":0,"TOWNNAME":"東區","LI":"崇德里","LIN":"20鄰","STREET":"崇明十四街","SECT":" ","MAREA":" ","LANE":"６０巷","ALLEY":" ","HOUSE_NO":"７號","E_COORD97":170693.98000000001,"N_COORD97":2541632.2400000002,"ADDRESS":"崇明十四街６０巷７號","OBJECTID":451112},"geometry":{"x":170693.98000000231,"y":2541632.2400000002}},{"attributes":{"ID":451138,"DIS_CODE":0,"TOWNNAME":"東區","LI":"崇德里","LIN":"20鄰","STREET":"崇明十四街","SECT":" ","MAREA":" ","LANE":"６０巷","ALLEY":" ","HOUSE_NO":"９號","E_COORD97":170697.45999999999,"N_COORD97":2541629.46,"ADDRESS":"崇明十四街６０巷９號","OBJECTID":451113},"geometry":{"x":170697.46000000089,"y":2541629.4600000028}},{"attributes":{"ID":451139,"DIS_CODE":0,"TOWNNAME":"仁德區","LI":"保安里","LIN":"20鄰","STREET":"保安路","SECT":"一段","MAREA":" ","LANE":"１０５巷","ALLEY":" ","HOUSE_NO":"１７號","E_COORD97":171060.04000000001,"N_COORD97":2536874.8100000001,"ADDRESS":"保安路一段１０５巷１７號","OBJECTID":451114},"geometry":{"x":171060.04000000097,"y":2536874.8100000005}},{"attributes":{"ID":451140,"DIS_CODE":0,"TOWNNAME":"永康區","LI":"勝利里","LIN":"20鄰","STREET":"勝學路","SECT":" ","MAREA":" ","LANE":"２７９巷","ALLEY":" ","HOUSE_NO":"３號","E_COORD97":171150.45000000001,"N_COORD97":2545333.3399999999,"ADDRESS":"勝學路２７９巷３號","OBJECTID":451115},"geometry":{"x":171150.45000000112,"y":2545333.3399999999}},{"attributes":{"ID":451141,"DIS_CODE":0,"TOWNNAME":"永康區","LI":"勝利里","LIN":"20鄰","STREET":"勝學路","SECT":" ","MAREA":" ","LANE":"２７９巷","ALLEY":" ","HOUSE_NO":"５號","E_COORD97":171144.10000000001,"N_COORD97":2545332.9300000002,"ADDRESS":"勝學路２７９巷５號","OBJECTID":451116},"geometry":{"x":171144.09999999963,"y":2545332.9299999978}},{"attributes":{"ID":451142,"DIS_CODE":0,"TOWNNAME":"永康區","LI":"勝利里","LIN":"20鄰","STREET":"勝學路","SECT":" ","MAREA":" ","LANE":"２７９巷","ALLEY":" ","HOUSE_NO":"７號","E_COORD97":171138.64000000001,"N_COORD97":2545333.9700000002,"ADDRESS":"勝學路２７９巷７號","OBJECTID":451117},"geometry":{"x":171138.6400000006,"y":2545333.9700000044}},{"attributes":{"ID":451143,"DIS_CODE":0,"TOWNNAME":"永康區","LI":"勝利里","LIN":"20鄰","STREET":"勝學路","SECT":" ","MAREA":" ","LANE":"２７９巷","ALLEY":" ","HOUSE_NO":"９號","E_COORD97":171130.97,"N_COORD97":2545334.02,"ADDRESS":"勝學路２７９巷９號","OBJECTID":451118},"geometry":{"x":171130.97000000067,"y":2545334.0200000014}},{"attributes":{"ID":451144,"DIS_CODE":0,"TOWNNAME":"永康區","LI":"勝利里","LIN":"20鄰","STREET":"勝學路","SECT":" ","MAREA":" ","LANE":"２７９巷","ALLEY":" ","HOUSE_NO":"２號","E_COORD97":171156.23000000001,"N_COORD97":2545345.6400000001,"ADDRESS":"勝學路２７９巷２號","OBJECTID":451119},"geometry":{"x":171156.23000000045,"y":2545345.6400000006}},{"attributes":{"ID":451145,"DIS_CODE":0,"TOWNNAME":"永康區","LI":"勝利里","LIN":"20鄰","STREET":"勝學路","SECT":" ","MAREA":" ","LANE":"２７９巷","ALLEY":" ","HOUSE_NO":"６號","E_COORD97":171148.98999999999,"N_COORD97":2545346.04,"ADDRESS":"勝學路２７９巷６號","OBJECTID":451120},"geometry":{"x":171148.99000000022,"y":2545346.040000001}},{"attributes":{"ID":451146,"DIS_CODE":0,"TOWNNAME":"永康區","LI":"勝利里","LIN":"20鄰","STREET":"勝學路","SECT":" ","MAREA":" ","LANE":"２７９巷","ALLEY":" ","HOUSE_NO":"８號","E_COORD97":171143.48999999999,"N_COORD97":2545345.8799999999,"ADDRESS":"勝學路２７９巷８號","OBJECTID":451121},"geometry":{"x":171143.49000000115,"y":2545345.879999999}},{"attributes":{"ID":451147,"DIS_CODE":0,"TOWNNAME":"永康區","LI":"勝利里","LIN":"20鄰","STREET":"勝學路","SECT":" ","MAREA":" ","LANE":"２７９巷","ALLEY":" ","HOUSE_NO":"１０號","E_COORD97":171139.45999999999,"N_COORD97":2545344.5,"ADDRESS":"勝學路２７９巷１０號","OBJECTID":451122},"geometry":{"x":171139.46000000183,"y":2545344.5000000019}},{"attributes":{"ID":451148,"DIS_CODE":0,"TOWNNAME":"永康區","LI":"勝利里","LIN":"20鄰","STREET":"勝學路","SECT":" ","MAREA":" ","LANE":"２７９巷","ALLEY":" ","HOUSE_NO":"１２號","E_COORD97":171133.92999999999,"N_COORD97":2545344.3399999999,"ADDRESS":"勝學路２７９巷１２號","OBJECTID":451123},"geometry":{"x":171133.9299999997,"y":2545344.3400000017}},{"attributes":{"ID":451149,"DIS_CODE":0,"TOWNNAME":"永康區","LI":"勝利里","LIN":"20鄰","STREET":"勝學路","SECT":" ","MAREA":" ","LANE":"２７９巷","ALLEY":" ","HOUSE_NO":"１６號","E_COORD97":171127.70999999999,"N_COORD97":2545344.1699999999,"ADDRESS":"勝學路２７９巷１６號","OBJECTID":451124},"geometry":{"x":171127.71000000089,"y":2545344.1699999999}},{"attributes":{"ID":451150,"DIS_CODE":0,"TOWNNAME":"永康區","LI":"東橋里","LIN":"20鄰","STREET":"自強路","SECT":" ","MAREA":" ","LANE":"２２巷","ALLEY":" ","HOUSE_NO":"２之１號","E_COORD97":172730.03,"N_COORD97":2547116.5899999999,"ADDRESS":"自強路２２巷２之１號","OBJECTID":451125},"geometry":{"x":172730.03000000119,"y":2547116.5900000017}},{"attributes":{"ID":451151,"DIS_CODE":0,"TOWNNAME":"永康區","LI":"網寮里","LIN":"20鄰","STREET":"文化路","SECT":" ","MAREA":" ","LANE":"３２３巷","ALLEY":" ","HOUSE_NO":"２８號","E_COORD97":173381.10999999999,"N_COORD97":2546110.4700000002,"ADDRESS":"文化路３２３巷２８號","OBJECTID":451126},"geometry":{"x":173381.11000000034,"y":2546110.4700000044}},{"attributes":{"ID":451152,"DIS_CODE":0,"TOWNNAME":"佳里區","LI":"建南里","LIN":"20鄰","STREET":"中山路","SECT":" ","MAREA":" ","LANE":"３１巷","ALLEY":" ","HOUSE_NO":"１０號","E_COORD97":165760.04000000001,"N_COORD97":2561680.8900000001,"ADDRESS":"中山路３１巷１０號","OBJECTID":451127},"geometry":{"x":165760.03999999911,"y":2561680.8900000025}},{"attributes":{"ID":451153,"DIS_CODE":0,"TOWNNAME":"佳里區","LI":"建南里","LIN":"20鄰","STREET":"中山路","SECT":" ","MAREA":" ","LANE":"３１巷","ALLEY":" ","HOUSE_NO":"１２號","E_COORD97":165756.63,"N_COORD97":2561678.3700000001,"ADDRESS":"中山路３１巷１２號","OBJECTID":451128},"geometry":{"x":165756.63000000082,"y":2561678.370000001}},{"attributes":{"ID":451154,"DIS_CODE":0,"TOWNNAME":"佳里區","LI":"建南里","LIN":"20鄰","STREET":"中山路","SECT":" ","MAREA":" ","LANE":"３１巷","ALLEY":" ","HOUSE_NO":"１４號","E_COORD97":165753.23000000001,"N_COORD97":2561675.8599999999,"ADDRESS":"中山路３１巷１４號","OBJECTID":451129},"geometry":{"x":165753.23000000138,"y":2561675.8600000013}},{"attributes":{"ID":451155,"DIS_CODE":0,"TOWNNAME":"佳里區","LI":"建南里","LIN":"20鄰","STREET":"中山路","SECT":" ","MAREA":" ","LANE":"３１巷","ALLEY":" ","HOUSE_NO":"１５號","E_COORD97":165771.81,"N_COORD97":2561663.02,"ADDRESS":"中山路３１巷１５號","OBJECTID":451130},"geometry":{"x":165771.81000000052,"y":2561663.0199999996}},{"attributes":{"ID":451156,"DIS_CODE":0,"TOWNNAME":"佳里區","LI":"建南里","LIN":"20鄰","STREET":"中山路","SECT":" ","MAREA":" ","LANE":"３１巷","ALLEY":" ","HOUSE_NO":"１６號","E_COORD97":165749.82000000001,"N_COORD97":2561673.3500000001,"ADDRESS":"中山路３１巷１６號","OBJECTID":451131},"geometry":{"x":165749.8200000003,"y":2561673.3500000015}},{"attributes":{"ID":451157,"DIS_CODE":0,"TOWNNAME":"佳里區","LI":"建南里","LIN":"20鄰","STREET":"中山路","SECT":" ","MAREA":" ","LANE":"３１巷","ALLEY":" ","HOUSE_NO":"１８號","E_COORD97":165746.42000000001,"N_COORD97":2561670.8300000001,"ADDRESS":"中山路３１巷１８號","OBJECTID":451132},"geometry":{"x":165746.41999999993,"y":2561670.8300000001}},{"attributes":{"ID":451158,"DIS_CODE":0,"TOWNNAME":"佳里區","LI":"建南里","LIN":"20鄰","STREET":"中山路","SECT":" ","MAREA":" ","LANE":"３１巷","ALLEY":" ","HOUSE_NO":"１號","E_COORD97":165794.92999999999,"N_COORD97":2561657.5800000001,"ADDRESS":"中山路３１巷１號","OBJECTID":451133},"geometry":{"x":165794.93000000063,"y":2561657.5800000019}},{"attributes":{"ID":451159,"DIS_CODE":0,"TOWNNAME":"佳里區","LI":"建南里","LIN":"20鄰","STREET":"中山路","SECT":" ","MAREA":" ","LANE":"３１巷","ALLEY":" ","HOUSE_NO":"２０號","E_COORD97":165743.01999999999,"N_COORD97":2561668.3199999998,"ADDRESS":"中山路３１巷２０號","OBJECTID":451134},"geometry":{"x":165743.02000000048,"y":2561668.3200000003}},{"attributes":{"ID":451160,"DIS_CODE":0,"TOWNNAME":"佳里區","LI":"建南里","LIN":"20鄰","STREET":"中山路","SECT":" ","MAREA":" ","LANE":"３１巷","ALLEY":" ","HOUSE_NO":"２２號","E_COORD97":165739.60999999999,"N_COORD97":2561665.7999999998,"ADDRESS":"中山路３１巷２２號","OBJECTID":451135},"geometry":{"x":165739.6100000022,"y":2561665.8000000007}},{"attributes":{"ID":451161,"DIS_CODE":0,"TOWNNAME":"佳里區","LI":"建南里","LIN":"20鄰","STREET":"中山路","SECT":" ","MAREA":" ","LANE":"３１巷","ALLEY":" ","HOUSE_NO":"２４號","E_COORD97":165736.17999999999,"N_COORD97":2561662.96,"ADDRESS":"中山路３１巷２４號","OBJECTID":451136},"geometry":{"x":165736.1799999997,"y":2561662.9600000028}},{"attributes":{"ID":451162,"DIS_CODE":0,"TOWNNAME":"佳里區","LI":"建南里","LIN":"20鄰","STREET":"中山路","SECT":" ","MAREA":" ","LANE":"３１巷","ALLEY":" ","HOUSE_NO":"２號","E_COORD97":165788.28,"N_COORD97":2561685.6499999999,"ADDRESS":"中山路３１巷２號","OBJECTID":451137},"geometry":{"x":165788.28000000119,"y":2561685.6500000022}},{"attributes":{"ID":451163,"DIS_CODE":0,"TOWNNAME":"佳里區","LI":"建南里","LIN":"20鄰","STREET":"中山路","SECT":" ","MAREA":" ","LANE":"３１巷","ALLEY":" ","HOUSE_NO":"６號","E_COORD97":165778.98000000001,"N_COORD97":2561684.46,"ADDRESS":"中山路３１巷６號","OBJECTID":451138},"geometry":{"x":165778.98000000045,"y":2561684.4600000009}},{"attributes":{"ID":451164,"DIS_CODE":0,"TOWNNAME":"佳里區","LI":"建南里","LIN":"20鄰","STREET":"中山路","SECT":" ","MAREA":" ","LANE":"３１巷","ALLEY":" ","HOUSE_NO":"８號","E_COORD97":165773.29000000001,"N_COORD97":2561684.1499999999,"ADDRESS":"中山路３１巷８號","OBJECTID":451139},"geometry":{"x":165773.29000000004,"y":2561684.1500000041}},{"attributes":{"ID":451165,"DIS_CODE":0,"TOWNNAME":"安南區","LI":"\u25A0南里","LIN":"20鄰","STREET":"環福街","SECT":" ","MAREA":" ","LANE":"１５２巷","ALLEY":" ","HOUSE_NO":"１７號","E_COORD97":170416.45999999999,"N_COORD97":2552577.0099999998,"ADDRESS":"環福街１５２巷１７號","OBJECTID":451140},"geometry":{"x":170416.45999999996,"y":2552577.0099999998}},{"attributes":{"ID":451166,"DIS_CODE":0,"TOWNNAME":"安南區","LI":"\u25A0南里","LIN":"20鄰","STREET":"環福街","SECT":" ","MAREA":" ","LANE":"１５２巷","ALLEY":" ","HOUSE_NO":"１９號","E_COORD97":170421.34,"N_COORD97":2552577.0099999998,"ADDRESS":"環福街１５２巷１９號","OBJECTID":451141},"geometry":{"x":170421.34000000171,"y":2552577.0099999998}},{"attributes":{"ID":451167,"DIS_CODE":0,"TOWNNAME":"安南區","LI":"\u25A0南里","LIN":"20鄰","STREET":"環福街","SECT":" ","MAREA":" ","LANE":"１５２巷","ALLEY":" ","HOUSE_NO":"２１號","E_COORD97":170425.37,"N_COORD97":2552577.2200000002,"ADDRESS":"環福街１５２巷２１號","OBJECTID":451142},"geometry":{"x":170425.37000000104,"y":2552577.2199999988}},{"attributes":{"ID":451168,"DIS_CODE":0,"TOWNNAME":"中西區","LI":"天后里","LIN":"20鄰","STREET":"成功路","SECT":" ","MAREA":" ","LANE":"２８５巷","ALLEY":" ","HOUSE_NO":"１１號","E_COORD97":168119.60000000001,"N_COORD97":2544403.3100000001,"ADDRESS":"成功路２８５巷１１號","OBJECTID":451143},"geometry":{"x":168119.60000000056,"y":2544403.3100000024}},{"attributes":{"ID":451169,"DIS_CODE":0,"TOWNNAME":"中西區","LI":"天后里","LIN":"20鄰","STREET":"成功路","SECT":" ","MAREA":" ","LANE":"２８５巷","ALLEY":" ","HOUSE_NO":"３號","E_COORD97":168149.51000000001,"N_COORD97":2544429.4900000002,"ADDRESS":"成功路２８５巷３號","OBJECTID":451144},"geometry":{"x":168149.50999999978,"y":2544429.4900000021}},{"attributes":{"ID":451170,"DIS_CODE":0,"TOWNNAME":"中西區","LI":"天后里","LIN":"20鄰","STREET":"成功路","SECT":" ","MAREA":" ","LANE":"２８５巷","ALLEY":" ","HOUSE_NO":"５號","E_COORD97":168131.98999999999,"N_COORD97":2544422.9100000001,"ADDRESS":"成功路２８５巷５號","OBJECTID":451145},"geometry":{"x":168131.99000000022,"y":2544422.910000002}},{"attributes":{"ID":451171,"DIS_CODE":0,"TOWNNAME":"中西區","LI":"天后里","LIN":"20鄰","STREET":"成功路","SECT":" ","MAREA":" ","LANE":"２８５巷","ALLEY":" ","HOUSE_NO":"５號之１","E_COORD97":168133.95999999999,"N_COORD97":2544414.1499999999,"ADDRESS":"成功路２８５巷５號之１","OBJECTID":451146},"geometry":{"x":168133.96000000183,"y":2544414.1500000022}},{"attributes":{"ID":451172,"DIS_CODE":0,"TOWNNAME":"中西區","LI":"天后里","LIN":"20鄰","STREET":"成功路","SECT":" ","MAREA":" ","LANE":"２８５巷","ALLEY":" ","HOUSE_NO":"５號之２","E_COORD97":168140.5,"N_COORD97":2544411.48,"ADDRESS":"成功路２８５巷５號之２","OBJECTID":451147},"geometry":{"x":168140.50000000186,"y":2544411.4800000042}},{"attributes":{"ID":451173,"DIS_CODE":0,"TOWNNAME":"中西區","LI":"天后里","LIN":"20鄰","STREET":"成功路","SECT":" ","MAREA":" ","LANE":"２８５巷","ALLEY":" ","HOUSE_NO":"５號之３","E_COORD97":168146.67999999999,"N_COORD97":2544408.1400000001,"ADDRESS":"成功路２８５巷５號之３","OBJECTID":451148},"geometry":{"x":168146.6799999997,"y":2544408.1400000025}},{"attributes":{"ID":451174,"DIS_CODE":0,"TOWNNAME":"中西區","LI":"天后里","LIN":"20鄰","STREET":"成功路","SECT":" ","MAREA":" ","LANE":"２８５巷","ALLEY":" ","HOUSE_NO":"５號之４","E_COORD97":168149.56,"N_COORD97":2544406.5800000001,"ADDRESS":"成功路２８５巷５號之４","OBJECTID":451149},"geometry":{"x":168149.55999999959,"y":2544406.5800000001}},{"attributes":{"ID":451175,"DIS_CODE":0,"TOWNNAME":"中西區","LI":"天后里","LIN":"20鄰","STREET":"成功路","SECT":" ","MAREA":" ","LANE":"２８５巷","ALLEY":" ","HOUSE_NO":"７號","E_COORD97":168127.25,"N_COORD97":2544411.04,"ADDRESS":"成功路２８５巷７號","OBJECTID":451150},"geometry":{"x":168127.25000000093,"y":2544411.040000001}},{"attributes":{"ID":451176,"DIS_CODE":0,"TOWNNAME":"中西區","LI":"天后里","LIN":"20鄰","STREET":"成功路","SECT":" ","MAREA":" ","LANE":"２８５巷","ALLEY":" ","HOUSE_NO":"９號","E_COORD97":168123.47,"N_COORD97":2544406.3100000001,"ADDRESS":"成功路２８５巷９號","OBJECTID":451151},"geometry":{"x":168123.4700000016,"y":2544406.3100000024}},{"attributes":{"ID":451177,"DIS_CODE":0,"TOWNNAME":"中西區","LI":"天后里","LIN":"20鄰","STREET":"西門路","SECT":"二段","MAREA":" ","LANE":"４０２巷","ALLEY":" ","HOUSE_NO":"１號","E_COORD97":168108.17000000001,"N_COORD97":2544398.8399999999,"ADDRESS":"西門路二段４０２巷１號","OBJECTID":451152},"geometry":{"x":168108.16999999993,"y":2544398.8400000017}},{"attributes":{"ID":451178,"DIS_CODE":0,"TOWNNAME":"中西區","LI":"天后里","LIN":"20鄰","STREET":"西門路","SECT":"二段","MAREA":" ","LANE":"４０２巷","ALLEY":" ","HOUSE_NO":"３號","E_COORD97":168112.89999999999,"N_COORD97":2544395.0600000001,"ADDRESS":"西門路二段４０２巷３號","OBJECTID":451153},"geometry":{"x":168112.9000000013,"y":2544395.0600000024}},{"attributes":{"ID":451179,"DIS_CODE":0,"TOWNNAME":"仁德區","LI":"仁德里","LIN":"20鄰","STREET":"中山路","SECT":" ","MAREA":" ","LANE":"８７５巷","ALLEY":" ","HOUSE_NO":"２７號","E_COORD97":172411.09,"N_COORD97":2541466.4700000002,"ADDRESS":"中山路８７５巷２７號","OBJECTID":451154},"geometry":{"x":172411.08999999985,"y":2541466.4700000025}},{"attributes":{"ID":451180,"DIS_CODE":0,"TOWNNAME":"歸仁區","LI":"看西里","LIN":"4鄰","STREET":"仁愛南街","SECT":" ","MAREA":" ","LANE":"１０２巷","ALLEY":" ","HOUSE_NO":"１１號","E_COORD97":178232.39999999999,"N_COORD97":2540373.29,"ADDRESS":"仁愛南街１０２巷１１號","OBJECTID":451155},"geometry":{"x":178232.40000000037,"y":2540373.2900000028}},{"attributes":{"ID":451181,"DIS_CODE":0,"TOWNNAME":"中西區","LI":"光賢里","LIN":"20鄰","STREET":"和緯路","SECT":"四段","MAREA":" ","LANE":"２７７巷","ALLEY":" ","HOUSE_NO":"１８之１９號","E_COORD97":166685.57999999999,"N_COORD97":2545146.7999999998,"ADDRESS":"和緯路四段２７７巷１８之１９號","OBJECTID":451156},"geometry":{"x":166685.58000000194,"y":2545146.8000000026}},{"attributes":{"ID":451182,"DIS_CODE":0,"TOWNNAME":"中西區","LI":"光賢里","LIN":"20鄰","STREET":"和緯路","SECT":"四段","MAREA":" ","LANE":"２７７巷","ALLEY":" ","HOUSE_NO":"１８之１８號","E_COORD97":166680.76000000001,"N_COORD97":2545146.04,"ADDRESS":"和緯路四段２７７巷１８之１８號","OBJECTID":451157},"geometry":{"x":166680.76000000071,"y":2545146.040000001}},{"attributes":{"ID":451183,"DIS_CODE":0,"TOWNNAME":"中西區","LI":"光賢里","LIN":"20鄰","STREET":"和緯路","SECT":"四段","MAREA":" ","LANE":"２７７巷","ALLEY":" ","HOUSE_NO":"１８之１７號","E_COORD97":166675.42000000001,"N_COORD97":2545145.79,"ADDRESS":"和緯路四段２７７巷１８之１７號","OBJECTID":451158},"geometry":{"x":166675.41999999993,"y":2545145.7899999991}},{"attributes":{"ID":451184,"DIS_CODE":0,"TOWNNAME":"中西區","LI":"光賢里","LIN":"20鄰","STREET":"和緯路","SECT":"四段","MAREA":" ","LANE":"２７７巷","ALLEY":" ","HOUSE_NO":"１８之１６號","E_COORD97":166670.67000000001,"N_COORD97":2545144.9300000002,"ADDRESS":"和緯路四段２７７巷１８之１６號","OBJECTID":451159},"geometry":{"x":166670.66999999993,"y":2545144.9299999997}},{"attributes":{"ID":451185,"DIS_CODE":0,"TOWNNAME":"中西區","LI":"光賢里","LIN":"20鄰","STREET":"和緯路","SECT":"四段","MAREA":" ","LANE":"２７７巷","ALLEY":" ","HOUSE_NO":"１８之１５號","E_COORD97":166665.85000000001,"N_COORD97":2545144.5499999998,"ADDRESS":"和緯路四段２７７巷１８之１５號","OBJECTID":451160},"geometry":{"x":166665.84999999963,"y":2545144.5500000026}},{"attributes":{"ID":451186,"DIS_CODE":0,"TOWNNAME":"中西區","LI":"光賢里","LIN":"20鄰","STREET":"和緯路","SECT":"四段","MAREA":" ","LANE":"２７７巷","ALLEY":" ","HOUSE_NO":"１８之１３號","E_COORD97":166661.66,"N_COORD97":2545143.9100000001,"ADDRESS":"和緯路四段２７７巷１８之１３號","OBJECTID":451161},"geometry":{"x":166661.66000000108,"y":2545143.9100000039}},{"attributes":{"ID":451187,"DIS_CODE":0,"TOWNNAME":"中西區","LI":"光賢里","LIN":"20鄰","STREET":"和緯路","SECT":"四段","MAREA":" ","LANE":"２７７巷","ALLEY":" ","HOUSE_NO":"１８之１２號","E_COORD97":166657.20999999999,"N_COORD97":2545143.6600000001,"ADDRESS":"和緯路四段２７７巷１８之１２號","OBJECTID":451162},"geometry":{"x":166657.20999999996,"y":2545143.660000002}},{"attributes":{"ID":451188,"DIS_CODE":0,"TOWNNAME":"中西區","LI":"光賢里","LIN":"20鄰","STREET":"和緯路","SECT":"四段","MAREA":" ","LANE":"２７７巷","ALLEY":" ","HOUSE_NO":"１８之７號","E_COORD97":166654.59,"N_COORD97":2545158.4900000002,"ADDRESS":"和緯路四段２７７巷１８之７號","OBJECTID":451163},"geometry":{"x":166654.59000000171,"y":2545158.4900000021}},{"attributes":{"ID":451189,"DIS_CODE":0,"TOWNNAME":"中西區","LI":"光賢里","LIN":"20鄰","STREET":"和緯路","SECT":"四段","MAREA":" ","LANE":"２７７巷","ALLEY":" ","HOUSE_NO":"１８之１１號","E_COORD97":166652.76999999999,"N_COORD97":2545143.2799999998,"ADDRESS":"和緯路四段２７７巷１８之１１號","OBJECTID":451164},"geometry":{"x":166652.76999999955,"y":2545143.2799999993}},{"attributes":{"ID":451190,"DIS_CODE":0,"TOWNNAME":"中西區","LI":"光賢里","LIN":"20鄰","STREET":"和緯路","SECT":"四段","MAREA":" ","LANE":"２７７巷","ALLEY":" ","HOUSE_NO":"１８之１０號","E_COORD97":166648.5,"N_COORD97":2545142.4900000002,"ADDRESS":"和緯路四段２７７巷１８之１０號","OBJECTID":451165},"geometry":{"x":166648.5,"y":2545142.4900000002}},{"attributes":{"ID":451191,"DIS_CODE":0,"TOWNNAME":"中西區","LI":"光賢里","LIN":"20鄰","STREET":"和緯路","SECT":"四段","MAREA":" ","LANE":"２７７巷","ALLEY":" ","HOUSE_NO":"１８之９號","E_COORD97":166645.78,"N_COORD97":2545157.5,"ADDRESS":"和緯路四段２７７巷１８之９號","OBJECTID":451166},"geometry":{"x":166645.78000000119,"y":2545157.5000000019}},{"attributes":{"ID":451192,"DIS_CODE":0,"TOWNNAME":"中西區","LI":"光賢里","LIN":"20鄰","STREET":"和緯路","SECT":"四段","MAREA":" ","LANE":"２７７巷","ALLEY":" ","HOUSE_NO":"１８之８號","E_COORD97":166650.28,"N_COORD97":2545158.23,"ADDRESS":"和緯路四段２７７巷１８之８號","OBJECTID":451167},"geometry":{"x":166650.27999999933,"y":2545158.2300000004}},{"attributes":{"ID":451193,"DIS_CODE":0,"TOWNNAME":"中西區","LI":"光賢里","LIN":"20鄰","STREET":"和緯路","SECT":"四段","MAREA":" ","LANE":"２７７巷","ALLEY":" ","HOUSE_NO":"１８之６號","E_COORD97":166658.39999999999,"N_COORD97":2545158.7400000002,"ADDRESS":"和緯路四段２７７巷１８之６號","OBJECTID":451168},"geometry":{"x":166658.4000000013,"y":2545158.7400000039}},{"attributes":{"ID":451194,"DIS_CODE":0,"TOWNNAME":"中西區","LI":"光賢里","LIN":"20鄰","STREET":"和緯路","SECT":"四段","MAREA":" ","LANE":"２７７巷","ALLEY":" ","HOUSE_NO":"１８之５號","E_COORD97":166662.20999999999,"N_COORD97":2545159.25,"ADDRESS":"和緯路四段２７７巷１８之５號","OBJECTID":451169},"geometry":{"x":166662.20999999996,"y":2545159.2500000019}},{"attributes":{"ID":451195,"DIS_CODE":0,"TOWNNAME":"中西區","LI":"光賢里","LIN":"20鄰","STREET":"和緯路","SECT":"四段","MAREA":" ","LANE":"２７７巷","ALLEY":" ","HOUSE_NO":"１８之３號","E_COORD97":166667.29000000001,"N_COORD97":2545159.7599999998,"ADDRESS":"和緯路四段２７７巷１８之３號","OBJECTID":451170},"geometry":{"x":166667.29000000097,"y":2545159.7599999998}},{"attributes":{"ID":451196,"DIS_CODE":0,"TOWNNAME":"安南區","LI":"新順里","LIN":"20鄰","STREET":"慶安路","SECT":" ","MAREA":" ","LANE":"１７５巷","ALLEY":" ","HOUSE_NO":"１１０號","E_COORD97":169230.98000000001,"N_COORD97":2549333.8999999999,"ADDRESS":"慶安路１７５巷１１０號","OBJECTID":451171},"geometry":{"x":169230.98000000231,"y":2549333.9000000004}},{"attributes":{"ID":451197,"DIS_CODE":0,"TOWNNAME":"安南區","LI":"新順里","LIN":"20鄰","STREET":"慶安路","SECT":" ","MAREA":" ","LANE":"１７５巷","ALLEY":" ","HOUSE_NO":"１１２號","E_COORD97":169226.39000000001,"N_COORD97":2549333.8599999999,"ADDRESS":"慶安路１７５巷１１２號","OBJECTID":451172},"geometry":{"x":169226.3900000006,"y":2549333.8600000031}},{"attributes":{"ID":451198,"DIS_CODE":0,"TOWNNAME":"安南區","LI":"新順里","LIN":"20鄰","STREET":"慶安路","SECT":" ","MAREA":" ","LANE":"１７５巷","ALLEY":" ","HOUSE_NO":"１１６號","E_COORD97":169222.54999999999,"N_COORD97":2549333.9199999999,"ADDRESS":"慶安路１７５巷１１６號","OBJECTID":451173},"geometry":{"x":169222.54999999981,"y":2549333.9200000037}},{"attributes":{"ID":451199,"DIS_CODE":0,"TOWNNAME":"安南區","LI":"新順里","LIN":"20鄰","STREET":"慶安路","SECT":" ","MAREA":" ","LANE":"１７５巷","ALLEY":" ","HOUSE_NO":"２號","E_COORD97":169408.01000000001,"N_COORD97":2549329.6899999999,"ADDRESS":"慶安路１７５巷２號","OBJECTID":451174},"geometry":{"x":169408.00999999885,"y":2549329.6900000013}},{"attributes":{"ID":451200,"DIS_CODE":0,"TOWNNAME":"安南區","LI":"新順里","LIN":"20鄰","STREET":"慶安路","SECT":" ","MAREA":" ","LANE":"１７５巷","ALLEY":" ","HOUSE_NO":"５１號","E_COORD97":169292.70000000001,"N_COORD97":2549314.7599999998,"ADDRESS":"慶安路１７５巷５１號","OBJECTID":451175},"geometry":{"x":169292.70000000112,"y":2549314.7600000035}},{"attributes":{"ID":451201,"DIS_CODE":0,"TOWNNAME":"安南區","LI":"新順里","LIN":"20鄰","STREET":"慶安路","SECT":" ","MAREA":" ","LANE":"１７５巷","ALLEY":" ","HOUSE_NO":"５３號","E_COORD97":169287.73000000001,"N_COORD97":2549315.23,"ADDRESS":"慶安路１７５巷５３號","OBJECTID":451176},"geometry":{"x":169287.73000000138,"y":2549315.2300000004}},{"attributes":{"ID":451202,"DIS_CODE":0,"TOWNNAME":"安南區","LI":"新順里","LIN":"20鄰","STREET":"慶安路","SECT":" ","MAREA":" ","LANE":"１７５巷","ALLEY":" ","HOUSE_NO":"５５號","E_COORD97":169283.01000000001,"N_COORD97":2549315.4700000002,"ADDRESS":"慶安路１７５巷５５號","OBJECTID":451177},"geometry":{"x":169283.01000000071,"y":2549315.4700000025}},{"attributes":{"ID":451203,"DIS_CODE":0,"TOWNNAME":"安南區","LI":"新順里","LIN":"20鄰","STREET":"慶安路","SECT":" ","MAREA":" ","LANE":"１７５巷","ALLEY":" ","HOUSE_NO":"５６號","E_COORD97":169337.63,"N_COORD97":2549329.3100000001,"ADDRESS":"慶安路１７５巷５６號","OBJECTID":451178},"geometry":{"x":169337.62999999989,"y":2549329.3100000024}},{"attributes":{"ID":451204,"DIS_CODE":0,"TOWNNAME":"安南區","LI":"新順里","LIN":"20鄰","STREET":"慶安路","SECT":" ","MAREA":" ","LANE":"１７５巷","ALLEY":" ","HOUSE_NO":"５７號","E_COORD97":169278.98999999999,"N_COORD97":2549315.4700000002,"ADDRESS":"慶安路１７５巷５７號","OBJECTID":451179},"geometry":{"x":169278.99000000115,"y":2549315.4700000025}},{"attributes":{"ID":451205,"DIS_CODE":0,"TOWNNAME":"安南區","LI":"新順里","LIN":"20鄰","STREET":"慶安路","SECT":" ","MAREA":" ","LANE":"１７５巷","ALLEY":" ","HOUSE_NO":"５９號","E_COORD97":169275.20000000001,"N_COORD97":2549315.23,"ADDRESS":"慶安路１７５巷５９號","OBJECTID":451180},"geometry":{"x":169275.20000000112,"y":2549315.2300000004}},{"attributes":{"ID":451206,"DIS_CODE":0,"TOWNNAME":"安南區","LI":"新順里","LIN":"20鄰","STREET":"慶安路","SECT":" ","MAREA":" ","LANE":"１７５巷","ALLEY":" ","HOUSE_NO":"６１號","E_COORD97":169271.64999999999,"N_COORD97":2549315.71,"ADDRESS":"慶安路１７５巷６１號","OBJECTID":451181},"geometry":{"x":169271.65000000037,"y":2549315.7100000009}},{"attributes":{"ID":451207,"DIS_CODE":0,"TOWNNAME":"安南區","LI":"新順里","LIN":"20鄰","STREET":"慶安路","SECT":" ","MAREA":" ","LANE":"１７５巷","ALLEY":" ","HOUSE_NO":"６３號","E_COORD97":169267.39999999999,"N_COORD97":2549315.9399999999,"ADDRESS":"慶安路１７５巷６３號","OBJECTID":451182},"geometry":{"x":169267.4000000013,"y":2549315.9399999995}},{"attributes":{"ID":451208,"DIS_CODE":0,"TOWNNAME":"安南區","LI":"新順里","LIN":"20鄰","STREET":"慶安路","SECT":" ","MAREA":" ","LANE":"１７５巷","ALLEY":" ","HOUSE_NO":"６７號","E_COORD97":169259.35999999999,"N_COORD97":2549315.9399999999,"ADDRESS":"慶安路１７５巷６７號","OBJECTID":451183},"geometry":{"x":169259.36000000127,"y":2549315.9399999995}},{"attributes":{"ID":451209,"DIS_CODE":0,"TOWNNAME":"安南區","LI":"新順里","LIN":"20鄰","STREET":"慶安路","SECT":" ","MAREA":" ","LANE":"１７５巷","ALLEY":" ","HOUSE_NO":"６９號","E_COORD97":169254.87,"N_COORD97":2549316.4199999999,"ADDRESS":"慶安路１７５巷６９號","OBJECTID":451184},"geometry":{"x":169254.87000000011,"y":2549316.4199999999}},{"attributes":{"ID":451210,"DIS_CODE":0,"TOWNNAME":"安南區","LI":"新順里","LIN":"20鄰","STREET":"慶安路","SECT":" ","MAREA":" ","LANE":"１７５巷","ALLEY":" ","HOUSE_NO":"６號","E_COORD97":169402.70000000001,"N_COORD97":2549329.48,"ADDRESS":"慶安路１７５巷６號","OBJECTID":451185},"geometry":{"x":169402.70000000112,"y":2549329.4800000004}},{"attributes":{"ID":451211,"DIS_CODE":0,"TOWNNAME":"安南區","LI":"新順里","LIN":"20鄰","STREET":"慶安路","SECT":" ","MAREA":" ","LANE":"１７５巷","ALLEY":" ","HOUSE_NO":"７１號","E_COORD97":169251.07999999999,"N_COORD97":2549316.1800000002,"ADDRESS":"慶安路１７５巷７１號","OBJECTID":451186},"geometry":{"x":169251.08000000101,"y":2549316.1800000016}},{"attributes":{"ID":451212,"DIS_CODE":0,"TOWNNAME":"安南區","LI":"新順里","LIN":"20鄰","STREET":"慶安路","SECT":" ","MAREA":" ","LANE":"１７５巷","ALLEY":" ","HOUSE_NO":"７３號","E_COORD97":169246.35000000001,"N_COORD97":2549315.9399999999,"ADDRESS":"慶安路１７５巷７３號","OBJECTID":451187},"geometry":{"x":169246.35000000149,"y":2549315.9399999995}},{"attributes":{"ID":451213,"DIS_CODE":0,"TOWNNAME":"安南區","LI":"新順里","LIN":"20鄰","STREET":"慶安路","SECT":" ","MAREA":" ","LANE":"１７５巷","ALLEY":" ","HOUSE_NO":"７６號","E_COORD97":169287.5,"N_COORD97":2549332.7200000002,"ADDRESS":"慶安路１７５巷７６號","OBJECTID":451188},"geometry":{"x":169287.5,"y":2549332.7200000044}},{"attributes":{"ID":451214,"DIS_CODE":0,"TOWNNAME":"安南區","LI":"新順里","LIN":"20鄰","STREET":"慶安路","SECT":" ","MAREA":" ","LANE":"１７５巷","ALLEY":" ","HOUSE_NO":"７８號","E_COORD97":169282.76999999999,"N_COORD97":2549333.1899999999,"ADDRESS":"慶安路１７５巷７８號","OBJECTID":451189},"geometry":{"x":169282.77000000048,"y":2549333.1900000013}},{"attributes":{"ID":451215,"DIS_CODE":0,"TOWNNAME":"安南區","LI":"新順里","LIN":"20鄰","STREET":"慶安路","SECT":" ","MAREA":" ","LANE":"１７５巷","ALLEY":" ","HOUSE_NO":"８０號","E_COORD97":169278.98999999999,"N_COORD97":2549333.1899999999,"ADDRESS":"慶安路１７５巷８０號","OBJECTID":451190},"geometry":{"x":169278.99000000115,"y":2549333.1900000013}},{"attributes":{"ID":451216,"DIS_CODE":0,"TOWNNAME":"安南區","LI":"新順里","LIN":"20鄰","STREET":"慶安路","SECT":" ","MAREA":" ","LANE":"１７５巷","ALLEY":" ","HOUSE_NO":"８２號","E_COORD97":169275.20000000001,"N_COORD97":2549333.1899999999,"ADDRESS":"慶安路１７５巷８２號","OBJECTID":451191},"geometry":{"x":169275.20000000112,"y":2549333.1900000013}},{"attributes":{"ID":451217,"DIS_CODE":0,"TOWNNAME":"安南區","LI":"新順里","LIN":"20鄰","STREET":"慶安路","SECT":" ","MAREA":" ","LANE":"１７５巷","ALLEY":" ","HOUSE_NO":"８６號","E_COORD97":169270.95000000001,"N_COORD97":2549333.1899999999,"ADDRESS":"慶安路１７５巷８６號","OBJECTID":451192},"geometry":{"x":169270.95000000019,"y":2549333.1900000013}},{"attributes":{"ID":451218,"DIS_CODE":0,"TOWNNAME":"安南區","LI":"新順里","LIN":"20鄰","STREET":"慶安路","SECT":" ","MAREA":" ","LANE":"１７５巷","ALLEY":" ","HOUSE_NO":"８８號","E_COORD97":169266.69,"N_COORD97":2549333.4300000002,"ADDRESS":"慶安路１７５巷８８號","OBJECTID":451193},"geometry":{"x":169266.69000000041,"y":2549333.4299999997}},{"attributes":{"ID":451219,"DIS_CODE":0,"TOWNNAME":"安南區","LI":"新順里","LIN":"20鄰","STREET":"慶安路","SECT":" ","MAREA":" ","LANE":"１７５巷","ALLEY":" ","HOUSE_NO":"９０號","E_COORD97":169262.42999999999,"N_COORD97":2549333.1899999999,"ADDRESS":"慶安路１７５巷９０號","OBJECTID":451194},"geometry":{"x":169262.4299999997,"y":2549333.1900000013}},{"attributes":{"ID":451220,"DIS_CODE":0,"TOWNNAME":"安南區","LI":"新順里","LIN":"20鄰","STREET":"慶安路","SECT":" ","MAREA":" ","LANE":"１７５巷","ALLEY":" ","HOUSE_NO":"９２號","E_COORD97":169258.89000000001,"N_COORD97":2549333.4300000002,"ADDRESS":"慶安路１７５巷９２號","OBJECTID":451195},"geometry":{"x":169258.88999999966,"y":2549333.4299999997}},{"attributes":{"ID":451221,"DIS_CODE":0,"TOWNNAME":"安南區","LI":"新順里","LIN":"20鄰","STREET":"慶安路","SECT":" ","MAREA":" ","LANE":"１７５巷","ALLEY":" ","HOUSE_NO":"９６號","E_COORD97":169254.87,"N_COORD97":2549333.4300000002,"ADDRESS":"慶安路１７５巷９６號","OBJECTID":451196},"geometry":{"x":169254.87000000011,"y":2549333.4299999997}},{"attributes":{"ID":451222,"DIS_CODE":0,"TOWNNAME":"安南區","LI":"新順里","LIN":"20鄰","STREET":"慶安路","SECT":" ","MAREA":" ","LANE":"１７５巷","ALLEY":" ","HOUSE_NO":"９８號","E_COORD97":169250.85000000001,"N_COORD97":2549333.4300000002,"ADDRESS":"慶安路１７５巷９８號","OBJECTID":451197},"geometry":{"x":169250.84999999963,"y":2549333.4299999997}},{"attributes":{"ID":451223,"DIS_CODE":0,"TOWNNAME":"安南區","LI":"新順里","LIN":"20鄰","STREET":"興安路","SECT":" ","MAREA":" ","LANE":"１５２巷","ALLEY":" ","HOUSE_NO":"９２號","E_COORD97":169319.09,"N_COORD97":2549280.2799999998,"ADDRESS":"興安路１５２巷９２號","OBJECTID":451198},"geometry":{"x":169319.08999999985,"y":2549280.2800000031}},{"attributes":{"ID":451224,"DIS_CODE":0,"TOWNNAME":"安南區","LI":"新順里","LIN":"20鄰","STREET":"興安路","SECT":" ","MAREA":" ","LANE":"１５２巷","ALLEY":" ","HOUSE_NO":"９６號","E_COORD97":169319.62,"N_COORD97":2549284.7400000002,"ADDRESS":"興安路１５２巷９６號","OBJECTID":451199},"geometry":{"x":169319.62000000197,"y":2549284.7400000039}},{"attributes":{"ID":451225,"DIS_CODE":0,"TOWNNAME":"安南區","LI":"新順里","LIN":"20鄰","STREET":"興安路","SECT":" ","MAREA":" ","LANE":"１５２巷","ALLEY":" ","HOUSE_NO":"９８號","E_COORD97":169319.88,"N_COORD97":2549289.98,"ADDRESS":"興安路１５２巷９８號","OBJECTID":451200},"geometry":{"x":169319.88000000082,"y":2549289.9800000042}}]}