{"displayFieldName":"TOWNNAME","fieldAliases":{"ID":"ID","DIS_CODE":"DIS_CODE","TOWNNAME":"TOWNNAME","LI":"LI","LIN":"LIN","STREET":"STREET","SECT":"SECT","MAREA":"MAREA","LANE":"LANE","ALLEY":"ALLEY","HOUSE_NO":"HOUSE_NO","E_COORD97":"E_COORD97","N_COORD97":"N_COORD97","ADDRESS":"ADDRESS","OBJECTID":"OBJECTID"},"geometryType":"esriGeometryPoint","spatialReference":{"wkid":102443,"latestWkid":3826},"fields":[{"name":"ID","type":"esriFieldTypeDouble","alias":"ID"},{"name":"DIS_CODE","type":"esriFieldTypeInteger","alias":"DIS_CODE"},{"name":"TOWNNAME","type":"esriFieldTypeString","alias":"TOWNNAME","length":8},{"name":"LI","type":"esriFieldTypeString","alias":"LI","length":8},{"name":"LIN","type":"esriFieldTypeString","alias":"LIN","length":12},{"name":"STREET","type":"esriFieldTypeString","alias":"STREET","length":20},{"name":"SECT","type":"esriFieldTypeString","alias":"SECT","length":8},{"name":"MAREA","type":"esriFieldTypeString","alias":"MAREA","length":12},{"name":"LANE","type":"esriFieldTypeString","alias":"LANE","length":10},{"name":"ALLEY","type":"esriFieldTypeString","alias":"ALLEY","length":10},{"name":"HOUSE_NO","type":"esriFieldTypeString","alias":"HOUSE_NO","length":20},{"name":"E_COORD97","type":"esriFieldTypeDouble","alias":"E_COORD97"},{"name":"N_COORD97","type":"esriFieldTypeDouble","alias":"N_COORD97"},{"name":"ADDRESS","type":"esriFieldTypeString","alias":"ADDRESS","length":50},{"name":"OBJECTID","type":"esriFieldTypeOID","alias":"OBJECTID"}],"features":[{"attributes":{"ID":655628,"DIS_CODE":0,"TOWNNAME":"麻豆區","LI":"\u25A0江里","LIN":"4鄰","STREET":"民權路","SECT":" ","MAREA":" ","LANE":"１８巷","ALLEY":" ","HOUSE_NO":"１４號","E_COORD97":173201.71585199999,"N_COORD97":2564594.59198,"ADDRESS":"民權路１８巷１４號","OBJECTID":655601},"geometry":{"x":173201.71585200075,"y":2564594.5919780005}},{"attributes":{"ID":655629,"DIS_CODE":0,"TOWNNAME":"麻豆區","LI":"\u25A0江里","LIN":"6鄰","STREET":"民權路","SECT":" ","MAREA":" ","LANE":"３０巷","ALLEY":" ","HOUSE_NO":"７號","E_COORD97":173291.526877,"N_COORD97":2564456.9558000001,"ADDRESS":"民權路３０巷７號","OBJECTID":655602},"geometry":{"x":173291.52687700186,"y":2564456.9558020011}},{"attributes":{"ID":655630,"DIS_CODE":0,"TOWNNAME":"麻豆區","LI":"\u25A0江里","LIN":"7鄰","STREET":"民權路","SECT":" ","MAREA":" ","LANE":"３０巷","ALLEY":" ","HOUSE_NO":"３號","E_COORD97":173318.43465400001,"N_COORD97":2564451.8758,"ADDRESS":"民權路３０巷３號","OBJECTID":655603},"geometry":{"x":173318.43465400115,"y":2564451.8758050017}},{"attributes":{"ID":655631,"DIS_CODE":0,"TOWNNAME":"麻豆區","LI":"\u25A0江里","LIN":"13鄰","STREET":"民權路","SECT":" ","MAREA":" ","LANE":" ","ALLEY":" ","HOUSE_NO":"７３號","E_COORD97":173466.95710699999,"N_COORD97":2564427.63998,"ADDRESS":"民權路７３號","OBJECTID":655604},"geometry":{"x":173466.95710700192,"y":2564427.6399850007}},{"attributes":{"ID":655632,"DIS_CODE":0,"TOWNNAME":"麻豆區","LI":"\u25A0江里","LIN":"13鄰","STREET":"民權路","SECT":" ","MAREA":" ","LANE":" ","ALLEY":" ","HOUSE_NO":"７７號","E_COORD97":173487.720588,"N_COORD97":2564414.09332,"ADDRESS":"民權路７７號","OBJECTID":655605},"geometry":{"x":173487.72058799956,"y":2564414.0933250021}},{"attributes":{"ID":655633,"DIS_CODE":0,"TOWNNAME":"麻豆區","LI":"\u25A0江里","LIN":"13鄰","STREET":"民權路","SECT":" ","MAREA":" ","LANE":" ","ALLEY":" ","HOUSE_NO":"８１號","E_COORD97":173538.56993,"N_COORD97":2564433.4608100001,"ADDRESS":"民權路８１號","OBJECTID":655606},"geometry":{"x":173538.56993000023,"y":2564433.4608149994}},{"attributes":{"ID":655634,"DIS_CODE":0,"TOWNNAME":"麻豆區","LI":"\u25A0江里","LIN":"13鄰","STREET":"民權路","SECT":" ","MAREA":" ","LANE":" ","ALLEY":" ","HOUSE_NO":"９３號之１","E_COORD97":173418.22648700001,"N_COORD97":2564345.0900300001,"ADDRESS":"民權路９３號之１","OBJECTID":655607},"geometry":{"x":173418.22648700047,"y":2564345.0900290012}},{"attributes":{"ID":655635,"DIS_CODE":0,"TOWNNAME":"麻豆區","LI":"\u25A0江里","LIN":"13鄰","STREET":"民權路","SECT":" ","MAREA":" ","LANE":" ","ALLEY":" ","HOUSE_NO":"９３號","E_COORD97":173426.27763299999,"N_COORD97":2564341.28003,"ADDRESS":"民權路９３號","OBJECTID":655608},"geometry":{"x":173426.2776330011,"y":2564341.2800310012}},{"attributes":{"ID":655636,"DIS_CODE":0,"TOWNNAME":"官田區","LI":"官田里","LIN":"2鄰","STREET":" ","SECT":" ","MAREA":"官田","LANE":" ","ALLEY":" ","HOUSE_NO":"１３號之４６","E_COORD97":182835.34599999999,"N_COORD97":2565284.7000000002,"ADDRESS":"官田１３號之４６","OBJECTID":655609},"geometry":{"x":182835.3459999999,"y":2565284.7000000011}},{"attributes":{"ID":655637,"DIS_CODE":0,"TOWNNAME":"官田區","LI":"渡頭里","LIN":"1鄰","STREET":" ","SECT":" ","MAREA":"渡子頭","LANE":" ","ALLEY":" ","HOUSE_NO":"５號之１２","E_COORD97":181514.25920599999,"N_COORD97":2563077.01957,"ADDRESS":"渡子頭５號之１２","OBJECTID":655610},"geometry":{"x":181514.25920600165,"y":2563077.0195710007}},{"attributes":{"ID":655638,"DIS_CODE":0,"TOWNNAME":"官田區","LI":"渡頭里","LIN":"9鄰","STREET":" ","SECT":" ","MAREA":"渡子頭","LANE":" ","ALLEY":" ","HOUSE_NO":"６６號之２","E_COORD97":181078.65484,"N_COORD97":2563005.3704400002,"ADDRESS":"渡子頭６６號之２","OBJECTID":655611},"geometry":{"x":181078.65484000184,"y":2563005.3704430014}},{"attributes":{"ID":655639,"DIS_CODE":0,"TOWNNAME":"官田區","LI":"渡頭里","LIN":"10鄰","STREET":" ","SECT":" ","MAREA":"渡子頭","LANE":" ","ALLEY":" ","HOUSE_NO":"６９號之１","E_COORD97":181047.509976,"N_COORD97":2563074.2679099999,"ADDRESS":"渡子頭６９號之１","OBJECTID":655612},"geometry":{"x":181047.50997599959,"y":2563074.2679060008}},{"attributes":{"ID":655640,"DIS_CODE":0,"TOWNNAME":"官田區","LI":"渡頭里","LIN":"10鄰","STREET":" ","SECT":" ","MAREA":"渡子頭","LANE":" ","ALLEY":" ","HOUSE_NO":"７０號","E_COORD97":181061.76001699999,"N_COORD97":2563078.81874,"ADDRESS":"渡子頭７０號","OBJECTID":655613},"geometry":{"x":181061.760017002,"y":2563078.8187370002}},{"attributes":{"ID":655641,"DIS_CODE":0,"TOWNNAME":"安南區","LI":"安順里","LIN":"12鄰","STREET":"安和路","SECT":"四段","MAREA":" ","LANE":"３６巷","ALLEY":"２００弄","HOUSE_NO":"５６之１號","E_COORD97":170342.45024000001,"N_COORD97":2549997.9747500001,"ADDRESS":"安和路四段３６巷２００弄５６之１號","OBJECTID":655614},"geometry":{"x":170342.45024000108,"y":2549997.9747500047}},{"attributes":{"ID":655642,"DIS_CODE":0,"TOWNNAME":"東山區","LI":"科里里","LIN":"4鄰","STREET":" ","SECT":" ","MAREA":"下庄子","LANE":" ","ALLEY":" ","HOUSE_NO":"１２之１號","E_COORD97":189653.76511199999,"N_COORD97":2578429.4624600001,"ADDRESS":"下庄子１２之１號","OBJECTID":655615},"geometry":{"x":189653.76511199959,"y":2578429.4624579996}},{"attributes":{"ID":655643,"DIS_CODE":0,"TOWNNAME":"中西區","LI":"保安里","LIN":"4鄰","STREET":"保安路","SECT":" ","MAREA":" ","LANE":"５７巷","ALLEY":" ","HOUSE_NO":"６號","E_COORD97":167596.239061,"N_COORD97":2543415.9229799998,"ADDRESS":"保安路５７巷６號","OBJECTID":655616},"geometry":{"x":167596.23906100076,"y":2543415.9229810033}},{"attributes":{"ID":655644,"DIS_CODE":0,"TOWNNAME":"中西區","LI":"保安里","LIN":"4鄰","STREET":"保安路","SECT":" ","MAREA":" ","LANE":" ","ALLEY":" ","HOUSE_NO":"８５號","E_COORD97":167540.72788600001,"N_COORD97":2543435.6079699998,"ADDRESS":"保安路８５號","OBJECTID":655617},"geometry":{"x":167540.72788600065,"y":2543435.6079709996}},{"attributes":{"ID":655645,"DIS_CODE":0,"TOWNNAME":"中西區","LI":"保安里","LIN":"4鄰","STREET":"保安路","SECT":" ","MAREA":" ","LANE":" ","ALLEY":" ","HOUSE_NO":"３７號","E_COORD97":167637.55463,"N_COORD97":2543418.88631,"ADDRESS":"保安路３７號","OBJECTID":655618},"geometry":{"x":167637.55463000108,"y":2543418.8863130007}},{"attributes":{"ID":655646,"DIS_CODE":0,"TOWNNAME":"中西區","LI":"保安里","LIN":"4鄰","STREET":"保安路","SECT":" ","MAREA":" ","LANE":" ","ALLEY":" ","HOUSE_NO":"５１號","E_COORD97":167613.612788,"N_COORD97":2543427.7763100001,"ADDRESS":"保安路５１號","OBJECTID":655619},"geometry":{"x":167613.61278800014,"y":2543427.7763079982}},{"attributes":{"ID":655647,"DIS_CODE":0,"TOWNNAME":"中西區","LI":"保安里","LIN":"4鄰","STREET":"保安路","SECT":" ","MAREA":" ","LANE":" ","ALLEY":" ","HOUSE_NO":"１５號","E_COORD97":167688.61643600001,"N_COORD97":2543405.86882,"ADDRESS":"保安路１５號","OBJECTID":655620},"geometry":{"x":167688.61643600091,"y":2543405.8688200004}},{"attributes":{"ID":655648,"DIS_CODE":0,"TOWNNAME":"中西區","LI":"保安里","LIN":"4鄰","STREET":"保安路","SECT":" ","MAREA":" ","LANE":" ","ALLEY":" ","HOUSE_NO":"１７號","E_COORD97":167683.74331799999,"N_COORD97":2543406.5038200002,"ADDRESS":"保安路１７號","OBJECTID":655621},"geometry":{"x":167683.74331800081,"y":2543406.5038200002}},{"attributes":{"ID":655649,"DIS_CODE":0,"TOWNNAME":"中西區","LI":"保安里","LIN":"4鄰","STREET":"西門路","SECT":"一段","MAREA":" ","LANE":"７７１巷","ALLEY":" ","HOUSE_NO":"５號","E_COORD97":167700.05767099999,"N_COORD97":2543402.4821500001,"ADDRESS":"西門路一段７７１巷５號","OBJECTID":655622},"geometry":{"x":167700.05767100211,"y":2543402.4821549989}},{"attributes":{"ID":655650,"DIS_CODE":0,"TOWNNAME":"中西區","LI":"三合里","LIN":"5鄰","STREET":"成功路","SECT":" ","MAREA":" ","LANE":" ","ALLEY":" ","HOUSE_NO":"３８９號","E_COORD97":167787.561927,"N_COORD97":2544572.4690200002,"ADDRESS":"成功路３８９號","OBJECTID":655623},"geometry":{"x":167787.56192700006,"y":2544572.4690230004}},{"attributes":{"ID":655651,"DIS_CODE":0,"TOWNNAME":"中西區","LI":"三合里","LIN":"2鄰","STREET":"康樂街","SECT":" ","MAREA":" ","LANE":"２８２巷","ALLEY":" ","HOUSE_NO":"５號","E_COORD97":167687.34518800001,"N_COORD97":2544417.8466099999,"ADDRESS":"康樂街２８２巷５號","OBJECTID":655624},"geometry":{"x":167687.34518800024,"y":2544417.8466070015}},{"attributes":{"ID":655652,"DIS_CODE":0,"TOWNNAME":"中西區","LI":"三合里","LIN":"2鄰","STREET":"康樂街","SECT":" ","MAREA":" ","LANE":"２８２巷","ALLEY":" ","HOUSE_NO":"１號","E_COORD97":167685.014566,"N_COORD97":2544418.0582699999,"ADDRESS":"康樂街２８２巷１號","OBJECTID":655625},"geometry":{"x":167685.01456599962,"y":2544418.0582730025}},{"attributes":{"ID":655653,"DIS_CODE":0,"TOWNNAME":"中西區","LI":"三合里","LIN":"2鄰","STREET":"康樂街","SECT":" ","MAREA":" ","LANE":"２８２巷","ALLEY":" ","HOUSE_NO":"３號","E_COORD97":167686.49768900001,"N_COORD97":2544419.53994,"ADDRESS":"康樂街２８２巷３號","OBJECTID":655626},"geometry":{"x":167686.49768900219,"y":2544419.5399389993}},{"attributes":{"ID":655654,"DIS_CODE":0,"TOWNNAME":"中西區","LI":"三合里","LIN":"2鄰","STREET":"康樂街","SECT":" ","MAREA":" ","LANE":"２８２巷","ALLEY":" ","HOUSE_NO":"７號","E_COORD97":167689.04018499999,"N_COORD97":2544419.9632700002,"ADDRESS":"康樂街２８２巷７號","OBJECTID":655627},"geometry":{"x":167689.04018500075,"y":2544419.9632719979}},{"attributes":{"ID":655655,"DIS_CODE":0,"TOWNNAME":"中西區","LI":"三合里","LIN":"2鄰","STREET":"康樂街","SECT":" ","MAREA":" ","LANE":"２８２巷","ALLEY":" ","HOUSE_NO":"２５號","E_COORD97":167702.38829199999,"N_COORD97":2544418.3757699998,"ADDRESS":"康樂街２８２巷２５號","OBJECTID":655628},"geometry":{"x":167702.38829200063,"y":2544418.3757730015}},{"attributes":{"ID":655656,"DIS_CODE":0,"TOWNNAME":"中西區","LI":"三合里","LIN":"1鄰","STREET":"康樂街","SECT":" ","MAREA":" ","LANE":"２８２巷","ALLEY":" ","HOUSE_NO":"６號","E_COORD97":167667.640839,"N_COORD97":2544417.1057699998,"ADDRESS":"康樂街２８２巷６號","OBJECTID":655629},"geometry":{"x":167667.64083900023,"y":2544417.1057740003}},{"attributes":{"ID":655657,"DIS_CODE":0,"TOWNNAME":"中西區","LI":"三合里","LIN":"1鄰","STREET":"康樂街","SECT":" ","MAREA":" ","LANE":"２８２巷","ALLEY":" ","HOUSE_NO":"１４號","E_COORD97":167673.14958200001,"N_COORD97":2544413.2957799998,"ADDRESS":"康樂街２８２巷１４號","OBJECTID":655630},"geometry":{"x":167673.14958200231,"y":2544413.2957760021}},{"attributes":{"ID":655658,"DIS_CODE":0,"TOWNNAME":"中西區","LI":"三合里","LIN":"1鄰","STREET":"康樂街","SECT":" ","MAREA":" ","LANE":" ","ALLEY":" ","HOUSE_NO":"１６號","E_COORD97":167674.84458,"N_COORD97":2544412.0257799998,"ADDRESS":"康樂街１６號","OBJECTID":655631},"geometry":{"x":167674.84458000027,"y":2544412.0257770009}},{"attributes":{"ID":655659,"DIS_CODE":0,"TOWNNAME":"中西區","LI":"三合里","LIN":"1鄰","STREET":"康樂街","SECT":" ","MAREA":" ","LANE":"２８２巷","ALLEY":" ","HOUSE_NO":"１８號","E_COORD97":167676.53957699999,"N_COORD97":2544410.9674399998,"ADDRESS":"康樂街２８２巷１８號","OBJECTID":655632},"geometry":{"x":167676.53957700077,"y":2544410.9674439989}},{"attributes":{"ID":655660,"DIS_CODE":0,"TOWNNAME":"中西區","LI":"三合里","LIN":"1鄰","STREET":"康樂街","SECT":" ","MAREA":" ","LANE":"２８２巷","ALLEY":" ","HOUSE_NO":"２０號","E_COORD97":167678.44644999999,"N_COORD97":2544409.9091099999,"ADDRESS":"康樂街２８２巷２０號","OBJECTID":655633},"geometry":{"x":167678.44644999877,"y":2544409.9091110006}},{"attributes":{"ID":655661,"DIS_CODE":0,"TOWNNAME":"中西區","LI":"永華里","LIN":"18鄰","STREET":"中正路","SECT":" ","MAREA":" ","LANE":" ","ALLEY":" ","HOUSE_NO":"２３號","E_COORD97":168298.43828900001,"N_COORD97":2543605.9190600002,"ADDRESS":"中正路２３號","OBJECTID":655634},"geometry":{"x":168298.43828900065,"y":2543605.9190570023}},{"attributes":{"ID":655662,"DIS_CODE":0,"TOWNNAME":"中西區","LI":"三合里","LIN":"1鄰","STREET":"康樂街","SECT":" ","MAREA":" ","LANE":"２８２巷","ALLEY":" ","HOUSE_NO":"２２號","E_COORD97":167680.141447,"N_COORD97":2544409.06244,"ADDRESS":"康樂街２８２巷２２號","OBJECTID":655635},"geometry":{"x":167680.14144700021,"y":2544409.0624449998}},{"attributes":{"ID":655663,"DIS_CODE":0,"TOWNNAME":"中西區","LI":"三合里","LIN":"1鄰","STREET":"康樂街","SECT":" ","MAREA":" ","LANE":"２８２巷","ALLEY":" ","HOUSE_NO":"２４號","E_COORD97":167681.41269600001,"N_COORD97":2544407.1574499998,"ADDRESS":"康樂街２８２巷２４號","OBJECTID":655636},"geometry":{"x":167681.41269600019,"y":2544407.1574459989}},{"attributes":{"ID":655664,"DIS_CODE":0,"TOWNNAME":"中西區","LI":"保安里","LIN":"1鄰","STREET":"康樂街","SECT":" ","MAREA":" ","LANE":"２８２巷","ALLEY":" ","HOUSE_NO":"２６號","E_COORD97":167682.895819,"N_COORD97":2544404.8291099998,"ADDRESS":"康樂街２８２巷２６號","OBJECTID":655637},"geometry":{"x":167682.8958190009,"y":2544404.8291140012}},{"attributes":{"ID":655665,"DIS_CODE":0,"TOWNNAME":"中西區","LI":"三合里","LIN":"1鄰","STREET":"康樂街","SECT":" ","MAREA":" ","LANE":"２８２巷","ALLEY":" ","HOUSE_NO":"２８號","E_COORD97":167684.80269099999,"N_COORD97":2544403.5591199999,"ADDRESS":"康樂街２８２巷２８號","OBJECTID":655638},"geometry":{"x":167684.80269099958,"y":2544403.5591150019}},{"attributes":{"ID":655666,"DIS_CODE":0,"TOWNNAME":"中西區","LI":"三合里","LIN":"1鄰","STREET":"康樂街","SECT":" ","MAREA":" ","LANE":"２８２巷","ALLEY":" ","HOUSE_NO":"３０號","E_COORD97":167686.70956399999,"N_COORD97":2544402.5007799999,"ADDRESS":"康樂街２８２巷３０號","OBJECTID":655639},"geometry":{"x":167686.70956400223,"y":2544402.500781998}},{"attributes":{"ID":655667,"DIS_CODE":0,"TOWNNAME":"中西區","LI":"三合里","LIN":"3鄰","STREET":"忠孝街","SECT":" ","MAREA":" ","LANE":"７８巷","ALLEY":" ","HOUSE_NO":"３９號","E_COORD97":167754.297597,"N_COORD97":2544458.2749200002,"ADDRESS":"忠孝街７８巷３９號","OBJECTID":655640},"geometry":{"x":167754.29759700038,"y":2544458.274918003}},{"attributes":{"ID":655668,"DIS_CODE":0,"TOWNNAME":"中西區","LI":"福安里","LIN":"4鄰","STREET":"府前路","SECT":"一段","MAREA":" ","LANE":"３０４巷","ALLEY":" ","HOUSE_NO":"３０號之１","E_COORD97":167909.60176200001,"N_COORD97":2543496.56794,"ADDRESS":"府前路一段３０４巷３０號之１","OBJECTID":655641},"geometry":{"x":167909.60176200047,"y":2543496.5679380018}},{"attributes":{"ID":655669,"DIS_CODE":0,"TOWNNAME":"中西區","LI":"福安里","LIN":"4鄰","STREET":"府前路","SECT":"一段","MAREA":" ","LANE":"３０４巷","ALLEY":" ","HOUSE_NO":"３０號之２","E_COORD97":167911.29675899999,"N_COORD97":2543495.5096,"ADDRESS":"府前路一段３０４巷３０號之２","OBJECTID":655642},"geometry":{"x":167911.29675900098,"y":2543495.5096049998}},{"attributes":{"ID":655670,"DIS_CODE":0,"TOWNNAME":"中西區","LI":"福安里","LIN":"8鄰","STREET":"西門路","SECT":"二段","MAREA":" ","LANE":" ","ALLEY":" ","HOUSE_NO":"２４號","E_COORD97":167793.494419,"N_COORD97":2543518.26376,"ADDRESS":"西門路二段２４號","OBJECTID":655643},"geometry":{"x":167793.49441900011,"y":2543518.2637590002}},{"attributes":{"ID":655671,"DIS_CODE":0,"TOWNNAME":"仁德區","LI":"太子里","LIN":"22鄰","STREET":"長興四街","SECT":" ","MAREA":" ","LANE":"８２巷","ALLEY":" ","HOUSE_NO":"７號","E_COORD97":173867.225871,"N_COORD97":2543597.2286999999,"ADDRESS":"長興四街８２巷７號","OBJECTID":655644},"geometry":{"x":173867.22587100137,"y":2543597.2287029997}},{"attributes":{"ID":655672,"DIS_CODE":0,"TOWNNAME":"仁德區","LI":"太子里","LIN":"39鄰","STREET":"長興一街","SECT":" ","MAREA":" ","LANE":"６巷","ALLEY":"４弄","HOUSE_NO":"３號","E_COORD97":174733.373334,"N_COORD97":2543699.4636499998,"ADDRESS":"長興一街６巷４弄３號","OBJECTID":655645},"geometry":{"x":174733.37333400082,"y":2543699.4636470005}},{"attributes":{"ID":655673,"DIS_CODE":0,"TOWNNAME":"大內區","LI":"二溪里","LIN":"16鄰","STREET":" ","SECT":" ","MAREA":"其子瓦","LANE":" ","ALLEY":" ","HOUSE_NO":"６０之５號","E_COORD97":191183.79073499999,"N_COORD97":2559503.4173900001,"ADDRESS":"其子瓦６０之５號","OBJECTID":655646},"geometry":{"x":191183.79073499981,"y":2559503.4173880033}},{"attributes":{"ID":655674,"DIS_CODE":0,"TOWNNAME":"仁德區","LI":"太子里","LIN":"42鄰","STREET":"太子路","SECT":" ","MAREA":" ","LANE":"２８巷","ALLEY":" ","HOUSE_NO":"５號","E_COORD97":175318.32756400001,"N_COORD97":2543600.0200899998,"ADDRESS":"太子路２８巷５號","OBJECTID":655647},"geometry":{"x":175318.32756400108,"y":2543600.0200850014}},{"attributes":{"ID":655675,"DIS_CODE":0,"TOWNNAME":"仁德區","LI":"太子里","LIN":"39鄰","STREET":"太子路","SECT":" ","MAREA":" ","LANE":" ","ALLEY":" ","HOUSE_NO":"８０號","E_COORD97":175102.26730499999,"N_COORD97":2543588.6164899999,"ADDRESS":"太子路８０號","OBJECTID":655648},"geometry":{"x":175102.26730499975,"y":2543588.6164900009}},{"attributes":{"ID":655676,"DIS_CODE":0,"TOWNNAME":"仁德區","LI":"太子里","LIN":"39鄰","STREET":"太子路","SECT":" ","MAREA":" ","LANE":" ","ALLEY":" ","HOUSE_NO":"８２號","E_COORD97":175094.008198,"N_COORD97":2543589.0398200001,"ADDRESS":"太子路８２號","OBJECTID":655649},"geometry":{"x":175094.00819799956,"y":2543589.0398229994}},{"attributes":{"ID":655677,"DIS_CODE":0,"TOWNNAME":"大內區","LI":"二溪里","LIN":"16鄰","STREET":" ","SECT":" ","MAREA":"其子瓦","LANE":" ","ALLEY":" ","HOUSE_NO":"６０號之１","E_COORD97":191569.45540499999,"N_COORD97":2559590.5802799999,"ADDRESS":"其子瓦６０號之１","OBJECTID":655650},"geometry":{"x":191569.4554050006,"y":2559590.5802749973}},{"attributes":{"ID":655678,"DIS_CODE":0,"TOWNNAME":"大內區","LI":"二溪里","LIN":"16鄰","STREET":" ","SECT":" ","MAREA":"其子瓦","LANE":" ","ALLEY":" ","HOUSE_NO":"７０號","E_COORD97":191554.83798000001,"N_COORD97":2559405.5837099999,"ADDRESS":"其子瓦７０號","OBJECTID":655651},"geometry":{"x":191554.8379800003,"y":2559405.5837080013}},{"attributes":{"ID":655679,"DIS_CODE":0,"TOWNNAME":"鹽水區","LI":"下林里","LIN":"2鄰","STREET":" ","SECT":" ","MAREA":"下林","LANE":" ","ALLEY":" ","HOUSE_NO":"５６之１號","E_COORD97":173011.10903600001,"N_COORD97":2573443.10445,"ADDRESS":"下林５６之１號","OBJECTID":655652},"geometry":{"x":173011.10903600138,"y":2573443.1044479981}},{"attributes":{"ID":655680,"DIS_CODE":0,"TOWNNAME":"中西區","LI":"福安里","LIN":"12鄰","STREET":"府前路","SECT":"一段","MAREA":" ","LANE":"２７２巷","ALLEY":" ","HOUSE_NO":"５號","E_COORD97":167973.00481400001,"N_COORD97":2543433.56421,"ADDRESS":"府前路一段２７２巷５號","OBJECTID":655653},"geometry":{"x":167973.00481399987,"y":2543433.5642130002}},{"attributes":{"ID":655681,"DIS_CODE":0,"TOWNNAME":"中西區","LI":"福安里","LIN":"12鄰","STREET":"府前路","SECT":"一段","MAREA":" ","LANE":"２７２巷","ALLEY":" ","HOUSE_NO":"９號","E_COORD97":167968.55695599999,"N_COORD97":2543436.3158800001,"ADDRESS":"府前路一段２７２巷９號","OBJECTID":655654},"geometry":{"x":167968.55695600063,"y":2543436.315878002}},{"attributes":{"ID":655682,"DIS_CODE":0,"TOWNNAME":"中西區","LI":"福安里","LIN":"14鄰","STREET":"友愛街","SECT":" ","MAREA":" ","LANE":"１１５巷","ALLEY":" ","HOUSE_NO":"１９號","E_COORD97":167921.32493800001,"N_COORD97":2543459.1758699999,"ADDRESS":"友愛街１１５巷１９號","OBJECTID":655655},"geometry":{"x":167921.32493800018,"y":2543459.1758660022}},{"attributes":{"ID":655683,"DIS_CODE":0,"TOWNNAME":"仁德區","LI":"後壁里","LIN":"33鄰","STREET":"文華路","SECT":"二段","MAREA":" ","LANE":"１２６６巷","ALLEY":" ","HOUSE_NO":"７８號","E_COORD97":172070.495979,"N_COORD97":2539636.5152699999,"ADDRESS":"文華路二段１２６６巷７８號","OBJECTID":655656},"geometry":{"x":172070.49597900081,"y":2539636.5152679998}},{"attributes":{"ID":655684,"DIS_CODE":0,"TOWNNAME":"仁德區","LI":"後壁里","LIN":"33鄰","STREET":"文華路","SECT":"二段","MAREA":" ","LANE":"１２６６巷","ALLEY":" ","HOUSE_NO":"８０號","E_COORD97":172070.70793500001,"N_COORD97":2539627.8369399998,"ADDRESS":"文華路二段１２６６巷８０號","OBJECTID":655657},"geometry":{"x":172070.70793500077,"y":2539627.8369400036}},{"attributes":{"ID":655685,"DIS_CODE":0,"TOWNNAME":"中西區","LI":"保安里","LIN":"3鄰","STREET":"府前路","SECT":"二段","MAREA":" ","LANE":" ","ALLEY":" ","HOUSE_NO":"４７號之１","E_COORD97":167608.915851,"N_COORD97":2543476.3208599999,"ADDRESS":"府前路二段４７號之１","OBJECTID":655658},"geometry":{"x":167608.9158510007,"y":2543476.3208569996}},{"attributes":{"ID":655686,"DIS_CODE":0,"TOWNNAME":"仁德區","LI":"後壁里","LIN":"33鄰","STREET":"德洋二街","SECT":" ","MAREA":" ","LANE":" ","ALLEY":" ","HOUSE_NO":"６５之１號","E_COORD97":172370.706458,"N_COORD97":2539745.9468800002,"ADDRESS":"德洋二街６５之１號","OBJECTID":655659},"geometry":{"x":172370.70645800233,"y":2539745.9468760006}},{"attributes":{"ID":655687,"DIS_CODE":0,"TOWNNAME":"仁德區","LI":"後壁里","LIN":"33鄰","STREET":"文華路","SECT":"二段","MAREA":" ","LANE":"１１７０巷","ALLEY":" ","HOUSE_NO":"２０１號","E_COORD97":171859.25607999999,"N_COORD97":2539147.1422000001,"ADDRESS":"文華路二段１１７０巷２０１號","OBJECTID":655660},"geometry":{"x":171859.25608000159,"y":2539147.1421990003}},{"attributes":{"ID":655688,"DIS_CODE":0,"TOWNNAME":"仁德區","LI":"後壁里","LIN":"33鄰","STREET":"文華路","SECT":"二段","MAREA":" ","LANE":"１１７０巷","ALLEY":" ","HOUSE_NO":"５號","E_COORD97":171903.76688800001,"N_COORD97":2539414.4770599999,"ADDRESS":"文華路二段１１７０巷５號","OBJECTID":655661},"geometry":{"x":171903.76688800007,"y":2539414.4770550039}},{"attributes":{"ID":655689,"DIS_CODE":0,"TOWNNAME":"中西區","LI":"民主里","LIN":"1鄰","STREET":"保安路","SECT":" ","MAREA":" ","LANE":"１００巷","ALLEY":" ","HOUSE_NO":"１０號","E_COORD97":167487.07400600001,"N_COORD97":2543502.2367400001,"ADDRESS":"保安路１００巷１０號","OBJECTID":655662},"geometry":{"x":167487.07400599867,"y":2543502.2367410008}},{"attributes":{"ID":655690,"DIS_CODE":0,"TOWNNAME":"中西區","LI":"民主里","LIN":"2鄰","STREET":"康樂街","SECT":" ","MAREA":" ","LANE":" ","ALLEY":" ","HOUSE_NO":"５６號","E_COORD97":167388.10467299999,"N_COORD97":2543524.9131299998,"ADDRESS":"康樂街５６號","OBJECTID":655663},"geometry":{"x":167388.10467300005,"y":2543524.9131290019}},{"attributes":{"ID":655691,"DIS_CODE":0,"TOWNNAME":"中西區","LI":"民主里","LIN":"3鄰","STREET":"郡西路","SECT":" ","MAREA":" ","LANE":" ","ALLEY":" ","HOUSE_NO":"１３０號","E_COORD97":167470.33662300001,"N_COORD97":2543550.10145,"ADDRESS":"郡西路１３０號","OBJECTID":655664},"geometry":{"x":167470.33662299998,"y":2543550.1014490016}},{"attributes":{"ID":655692,"DIS_CODE":0,"TOWNNAME":"中西區","LI":"民主里","LIN":"6鄰","STREET":"康樂街","SECT":" ","MAREA":" ","LANE":" ","ALLEY":" ","HOUSE_NO":"３３號","E_COORD97":167366.31060900001,"N_COORD97":2543521.1031300002,"ADDRESS":"康樂街３３號","OBJECTID":655665},"geometry":{"x":167366.31060900167,"y":2543521.1031310037}},{"attributes":{"ID":655693,"DIS_CODE":0,"TOWNNAME":"中西區","LI":"民主里","LIN":"6鄰","STREET":"康樂街","SECT":" ","MAREA":" ","LANE":" ","ALLEY":" ","HOUSE_NO":"３５號","E_COORD97":167366.84027300001,"N_COORD97":2543524.4898000001,"ADDRESS":"康樂街３５號","OBJECTID":655666},"geometry":{"x":167366.84027300216,"y":2543524.4897959996}},{"attributes":{"ID":655694,"DIS_CODE":0,"TOWNNAME":"中西區","LI":"民主里","LIN":"7鄰","STREET":"大智街","SECT":" ","MAREA":" ","LANE":" ","ALLEY":" ","HOUSE_NO":"６４號","E_COORD97":167274.890598,"N_COORD97":2543542.4814499998,"ADDRESS":"大智街６４號","OBJECTID":655667},"geometry":{"x":167274.89059800189,"y":2543542.4814530034}},{"attributes":{"ID":655695,"DIS_CODE":0,"TOWNNAME":"中西區","LI":"民主里","LIN":"7鄰","STREET":"府前路","SECT":"二段","MAREA":" ","LANE":" ","ALLEY":" ","HOUSE_NO":"１６５號","E_COORD97":167300.844136,"N_COORD97":2543547.1381199998,"ADDRESS":"府前路二段１６５號","OBJECTID":655668},"geometry":{"x":167300.84413600154,"y":2543547.1381170042}},{"attributes":{"ID":655696,"DIS_CODE":0,"TOWNNAME":"中西區","LI":"民主里","LIN":"7鄰","STREET":"保安路","SECT":" ","MAREA":" ","LANE":" ","ALLEY":" ","HOUSE_NO":"２１６號","E_COORD97":167115.14392900001,"N_COORD97":2543557.9331100001,"ADDRESS":"保安路２１６號","OBJECTID":655669},"geometry":{"x":167115.14392900001,"y":2543557.9331110008}},{"attributes":{"ID":655697,"DIS_CODE":0,"TOWNNAME":"中西區","LI":"民主里","LIN":"10鄰","STREET":"康樂街","SECT":" ","MAREA":" ","LANE":" ","ALLEY":" ","HOUSE_NO":"８５號","E_COORD97":167390.88701899999,"N_COORD97":2543654.2133300002,"ADDRESS":"康樂街８５號","OBJECTID":655670},"geometry":{"x":167390.88701900095,"y":2543654.2133260034}},{"attributes":{"ID":655698,"DIS_CODE":0,"TOWNNAME":"中西區","LI":"民主里","LIN":"10鄰","STREET":"康樂街","SECT":" ","MAREA":" ","LANE":" ","ALLEY":" ","HOUSE_NO":"８７號","E_COORD97":167388.45056500001,"N_COORD97":2543654.2133300002,"ADDRESS":"康樂街８７號","OBJECTID":655671},"geometry":{"x":167388.450565001,"y":2543654.2133260034}},{"attributes":{"ID":655699,"DIS_CODE":0,"TOWNNAME":"中西區","LI":"民主里","LIN":"10鄰","STREET":"康樂街","SECT":" ","MAREA":" ","LANE":" ","ALLEY":" ","HOUSE_NO":"８９號","E_COORD97":167385.590379,"N_COORD97":2543655.2716600001,"ADDRESS":"康樂街８９號","OBJECTID":655672},"geometry":{"x":167385.59037899971,"y":2543655.2716590017}},{"attributes":{"ID":655700,"DIS_CODE":0,"TOWNNAME":"中西區","LI":"民主里","LIN":"10鄰","STREET":"康樂街","SECT":" ","MAREA":" ","LANE":" ","ALLEY":" ","HOUSE_NO":"９１號","E_COORD97":167383.04799200001,"N_COORD97":2543656.9649899998,"ADDRESS":"康樂街９１號","OBJECTID":655673},"geometry":{"x":167383.04799200129,"y":2543656.9649909995}},{"attributes":{"ID":655701,"DIS_CODE":0,"TOWNNAME":"中西區","LI":"民主里","LIN":"10鄰","STREET":"康樂街","SECT":" ","MAREA":" ","LANE":" ","ALLEY":" ","HOUSE_NO":"９３號","E_COORD97":167380.399672,"N_COORD97":2543657.3883199999,"ADDRESS":"康樂街９３號","OBJECTID":655674},"geometry":{"x":167380.39967199881,"y":2543657.3883240018}},{"attributes":{"ID":655702,"DIS_CODE":0,"TOWNNAME":"鹽水區","LI":"汫水里","LIN":"5鄰","STREET":" ","SECT":" ","MAREA":"汫水港","LANE":" ","ALLEY":" ","HOUSE_NO":"７３號","E_COORD97":175570.64728100001,"N_COORD97":2583015.3017199999,"ADDRESS":"汫水港７３號","OBJECTID":655675},"geometry":{"x":175570.64728100132,"y":2583015.3017240018}},{"attributes":{"ID":655703,"DIS_CODE":0,"TOWNNAME":"鹽水區","LI":"汫水里","LIN":"1鄰","STREET":" ","SECT":" ","MAREA":"汫水港","LANE":" ","ALLEY":" ","HOUSE_NO":"５９號之１","E_COORD97":175651.75550100001,"N_COORD97":2582977.6250800001,"ADDRESS":"汫水港５９號之１","OBJECTID":655676},"geometry":{"x":175651.75550100021,"y":2582977.625078002}},{"attributes":{"ID":655704,"DIS_CODE":0,"TOWNNAME":"鹽水區","LI":"汫水里","LIN":"6鄰","STREET":" ","SECT":" ","MAREA":"汫水港","LANE":" ","ALLEY":" ","HOUSE_NO":"５８號之１","E_COORD97":175595.00092399999,"N_COORD97":2582950.6375899999,"ADDRESS":"汫水港５８號之１","OBJECTID":655677},"geometry":{"x":175595.00092400052,"y":2582950.6375920009}},{"attributes":{"ID":655705,"DIS_CODE":0,"TOWNNAME":"鹽水區","LI":"汫水里","LIN":"7鄰","STREET":" ","SECT":" ","MAREA":"汫水港","LANE":" ","ALLEY":" ","HOUSE_NO":"３號","E_COORD97":175541.42290999999,"N_COORD97":2582829.4584900001,"ADDRESS":"汫水港３號","OBJECTID":655678},"geometry":{"x":175541.42291000113,"y":2582829.4584909994}},{"attributes":{"ID":655706,"DIS_CODE":0,"TOWNNAME":"鹽水區","LI":"汫水里","LIN":"7鄰","STREET":" ","SECT":" ","MAREA":"汫水港","LANE":" ","ALLEY":" ","HOUSE_NO":"１號之１","E_COORD97":175616.17800499999,"N_COORD97":2582876.5543,"ADDRESS":"汫水港１號之１","OBJECTID":655679},"geometry":{"x":175616.17800499965,"y":2582876.5542990007}},{"attributes":{"ID":655707,"DIS_CODE":0,"TOWNNAME":"鹽水區","LI":"汫水里","LIN":"7鄰","STREET":" ","SECT":" ","MAREA":"汫水港","LANE":" ","ALLEY":" ","HOUSE_NO":"１號之２","E_COORD97":175625.707692,"N_COORD97":2582886.2909599999,"ADDRESS":"汫水港１號之２","OBJECTID":655680},"geometry":{"x":175625.70769200195,"y":2582886.2909610011}},{"attributes":{"ID":655708,"DIS_CODE":0,"TOWNNAME":"東山區","LI":"東原里","LIN":"14鄰","STREET":" ","SECT":" ","MAREA":"班芝花坑","LANE":" ","ALLEY":" ","HOUSE_NO":"３１號之２","E_COORD97":192808.25662100001,"N_COORD97":2575701.20444,"ADDRESS":"班芝花坑３１號之２","OBJECTID":655681},"geometry":{"x":192808.25662100129,"y":2575701.2044420019}},{"attributes":{"ID":655709,"DIS_CODE":0,"TOWNNAME":"東山區","LI":"東原里","LIN":"15鄰","STREET":" ","SECT":" ","MAREA":"瓦厝子","LANE":" ","ALLEY":" ","HOUSE_NO":"６號之１７","E_COORD97":194061.61042300001,"N_COORD97":2574630.9125199998,"ADDRESS":"瓦厝子６號之１７","OBJECTID":655682},"geometry":{"x":194061.61042300053,"y":2574630.9125190023}},{"attributes":{"ID":655710,"DIS_CODE":0,"TOWNNAME":"東山區","LI":"東原里","LIN":"15鄰","STREET":" ","SECT":" ","MAREA":"瓦厝子","LANE":" ","ALLEY":" ","HOUSE_NO":"１號之２","E_COORD97":193597.652416,"N_COORD97":2574211.9185799998,"ADDRESS":"瓦厝子１號之２","OBJECTID":655683},"geometry":{"x":193597.65241600014,"y":2574211.9185790028}},{"attributes":{"ID":655711,"DIS_CODE":0,"TOWNNAME":"仁德區","LI":"仁義里","LIN":"21鄰","STREET":"中山路","SECT":" ","MAREA":" ","LANE":"３９６巷","ALLEY":" ","HOUSE_NO":"１０號","E_COORD97":173806.63935400001,"N_COORD97":2541339.6197500001,"ADDRESS":"中山路３９６巷１０號","OBJECTID":655684},"geometry":{"x":173806.63935399987,"y":2541339.6197469998}},{"attributes":{"ID":655712,"DIS_CODE":0,"TOWNNAME":"仁德區","LI":"仁義里","LIN":"21鄰","STREET":"中山路","SECT":" ","MAREA":" ","LANE":"３９６巷","ALLEY":" ","HOUSE_NO":"２０號","E_COORD97":173791.23215699999,"N_COORD97":2541392.6422199998,"ADDRESS":"中山路３９６巷２０號","OBJECTID":655685},"geometry":{"x":173791.23215700034,"y":2541392.6422179993}},{"attributes":{"ID":655713,"DIS_CODE":0,"TOWNNAME":"關廟區","LI":"深坑里","LIN":"10鄰","STREET":"深坑二街","SECT":" ","MAREA":" ","LANE":" ","ALLEY":" ","HOUSE_NO":"１１５號","E_COORD97":181784.63914499999,"N_COORD97":2537315.0123100001,"ADDRESS":"深坑二街１１５號","OBJECTID":655686},"geometry":{"x":181784.63914500084,"y":2537315.0123089999}},{"attributes":{"ID":655714,"DIS_CODE":0,"TOWNNAME":"關廟區","LI":"深坑里","LIN":"10鄰","STREET":"深坑二街","SECT":" ","MAREA":" ","LANE":" ","ALLEY":" ","HOUSE_NO":"１２５號","E_COORD97":181789.29892,"N_COORD97":2537298.2906499999,"ADDRESS":"深坑二街１２５號","OBJECTID":655687},"geometry":{"x":181789.29891999997,"y":2537298.290651001}},{"attributes":{"ID":655715,"DIS_CODE":0,"TOWNNAME":"關廟區","LI":"深坑里","LIN":"10鄰","STREET":"深坑二街","SECT":" ","MAREA":" ","LANE":" ","ALLEY":" ","HOUSE_NO":"８２號","E_COORD97":181606.985231,"N_COORD97":2537496.1459599999,"ADDRESS":"深坑二街８２號","OBJECTID":655688},"geometry":{"x":181606.98523100093,"y":2537496.1459609997}},{"attributes":{"ID":655716,"DIS_CODE":0,"TOWNNAME":"新營區","LI":"延平里","LIN":"8鄰","STREET":"忠義街","SECT":" ","MAREA":" ","LANE":" ","ALLEY":" ","HOUSE_NO":"３號","E_COORD97":179644.31964,"N_COORD97":2577990.70731,"ADDRESS":"忠義街３號","OBJECTID":655689},"geometry":{"x":179644.31964000035,"y":2577990.7073090002}},{"attributes":{"ID":655717,"DIS_CODE":0,"TOWNNAME":"新營區","LI":"延平里","LIN":"9鄰","STREET":"忠義街","SECT":" ","MAREA":" ","LANE":" ","ALLEY":" ","HOUSE_NO":"５號之１","E_COORD97":179637.75000999999,"N_COORD97":2577985.6273099999,"ADDRESS":"忠義街５號之１","OBJECTID":655690},"geometry":{"x":179637.75001000054,"y":2577985.6273100022}},{"attributes":{"ID":655718,"DIS_CODE":0,"TOWNNAME":"新營區","LI":"延平里","LIN":"9鄰","STREET":"忠義街","SECT":" ","MAREA":" ","LANE":" ","ALLEY":" ","HOUSE_NO":"５號之２","E_COORD97":179635.41886000001,"N_COORD97":2577983.0873099999,"ADDRESS":"忠義街５號之２","OBJECTID":655691},"geometry":{"x":179635.41885999963,"y":2577983.0873099994}},{"attributes":{"ID":655719,"DIS_CODE":0,"TOWNNAME":"新營區","LI":"延平里","LIN":"9鄰","STREET":"忠義街","SECT":" ","MAREA":" ","LANE":" ","ALLEY":" ","HOUSE_NO":"５號之４","E_COORD97":179630.3327,"N_COORD97":2577977.4781399998,"ADDRESS":"忠義街５號之４","OBJECTID":655692},"geometry":{"x":179630.33270000108,"y":2577977.4781400003}},{"attributes":{"ID":655720,"DIS_CODE":0,"TOWNNAME":"新營區","LI":"延平里","LIN":"9鄰","STREET":"忠義街","SECT":" ","MAREA":" ","LANE":" ","ALLEY":" ","HOUSE_NO":"５號之６","E_COORD97":179624.82269,"N_COORD97":2577972.9273100002,"ADDRESS":"忠義街５號之６","OBJECTID":655693},"geometry":{"x":179624.82268999983,"y":2577972.9273100048}},{"attributes":{"ID":655721,"DIS_CODE":0,"TOWNNAME":"新營區","LI":"延平里","LIN":"9鄰","STREET":"忠義街","SECT":" ","MAREA":" ","LANE":" ","ALLEY":" ","HOUSE_NO":"５號之５","E_COORD97":179627.78962,"N_COORD97":2577975.5731500001,"ADDRESS":"忠義街５號之５","OBJECTID":655694},"geometry":{"x":179627.78961999994,"y":2577975.5731499996}},{"attributes":{"ID":655722,"DIS_CODE":0,"TOWNNAME":"關廟區","LI":"深坑里","LIN":"11鄰","STREET":"深坑二街","SECT":" ","MAREA":" ","LANE":"１０６巷","ALLEY":" ","HOUSE_NO":"３１號","E_COORD97":181585.301393,"N_COORD97":2537380.7612299998,"ADDRESS":"深坑二街１０６巷３１號","OBJECTID":655695},"geometry":{"x":181585.30139300134,"y":2537380.7612320017}},{"attributes":{"ID":655723,"DIS_CODE":0,"TOWNNAME":"關廟區","LI":"深坑里","LIN":"11鄰","STREET":"深坑二街","SECT":" ","MAREA":" ","LANE":" ","ALLEY":" ","HOUSE_NO":"１００號","E_COORD97":181654.24487900001,"N_COORD97":2537451.7753599999,"ADDRESS":"深坑二街１００號","OBJECTID":655696},"geometry":{"x":181654.24487900082,"y":2537451.7753600031}},{"attributes":{"ID":655724,"DIS_CODE":0,"TOWNNAME":"仁德區","LI":"新田里","LIN":"4鄰","STREET":"勝利路","SECT":" ","MAREA":" ","LANE":"１３２巷","ALLEY":" ","HOUSE_NO":"２２號","E_COORD97":174233.96215000001,"N_COORD97":2539384.0948899998,"ADDRESS":"勝利路１３２巷２２號","OBJECTID":655697},"geometry":{"x":174233.9621499991,"y":2539384.0948890019}},{"attributes":{"ID":655725,"DIS_CODE":0,"TOWNNAME":"新市區","LI":"大社里","LIN":"21鄰","STREET":" ","SECT":" ","MAREA":"大社","LANE":" ","ALLEY":" ","HOUSE_NO":"８１１之１號","E_COORD97":179836.4118,"N_COORD97":2554131.5966599998,"ADDRESS":"大社８１１之１號","OBJECTID":655698},"geometry":{"x":179836.41179999989,"y":2554131.5966570005}},{"attributes":{"ID":655726,"DIS_CODE":0,"TOWNNAME":"安南區","LI":"城北里","LIN":"9鄰","STREET":"尊安一街","SECT":" ","MAREA":" ","LANE":" ","ALLEY":" ","HOUSE_NO":"１２號","E_COORD97":160905.59659999999,"N_COORD97":2551640.9107599999,"ADDRESS":"尊安一街１２號","OBJECTID":655699},"geometry":{"x":160905.59660000075,"y":2551640.9107579999}},{"attributes":{"ID":655727,"DIS_CODE":0,"TOWNNAME":"安南區","LI":"安富里","LIN":"31鄰","STREET":"海佃路","SECT":"一段","MAREA":" ","LANE":"１５８巷","ALLEY":"１０２弄","HOUSE_NO":"９號","E_COORD97":167464.87458500001,"N_COORD97":2547217.2914800001,"ADDRESS":"海佃路一段１５８巷１０２弄９號","OBJECTID":655700},"geometry":{"x":167464.8745850008,"y":2547217.2914800011}},{"attributes":{"ID":655728,"DIS_CODE":0,"TOWNNAME":"官田區","LI":"隆本里","LIN":"1鄰","STREET":"中華路","SECT":"一段","MAREA":" ","LANE":" ","ALLEY":" ","HOUSE_NO":"２３５號","E_COORD97":180906.722668,"N_COORD97":2565825.6756099998,"ADDRESS":"中華路一段２３５號","OBJECTID":655701},"geometry":{"x":180906.7226680005,"y":2565825.6756049991}},{"attributes":{"ID":655729,"DIS_CODE":0,"TOWNNAME":"新營區","LI":"民生里","LIN":"11鄰","STREET":"三民路","SECT":" ","MAREA":" ","LANE":"１８６巷","ALLEY":" ","HOUSE_NO":"１之３號","E_COORD97":179194.34674000001,"N_COORD97":2578211.31538,"ADDRESS":"三民路１８６巷１之３號","OBJECTID":655702},"geometry":{"x":179194.34673999995,"y":2578211.3153850008}},{"attributes":{"ID":655730,"DIS_CODE":0,"TOWNNAME":"關廟區","LI":"深坑里","LIN":"12鄰","STREET":"南雄路","SECT":"一段","MAREA":" ","LANE":"４９５巷","ALLEY":" ","HOUSE_NO":"３２號","E_COORD97":181537.72274,"N_COORD97":2537826.0863399999,"ADDRESS":"南雄路一段４９５巷３２號","OBJECTID":655703},"geometry":{"x":181537.72273999918,"y":2537826.086339999}},{"attributes":{"ID":655731,"DIS_CODE":0,"TOWNNAME":"山上區","LI":"平陽里","LIN":"5鄰","STREET":" ","SECT":" ","MAREA":"卓猴","LANE":" ","ALLEY":" ","HOUSE_NO":"４之１０號","E_COORD97":187259.88019299999,"N_COORD97":2553455.22914,"ADDRESS":"卓猴４之１０號","OBJECTID":655704},"geometry":{"x":187259.88019300066,"y":2553455.2291359995}},{"attributes":{"ID":655732,"DIS_CODE":0,"TOWNNAME":"關廟區","LI":"深坑里","LIN":"12鄰","STREET":"深坑二街","SECT":" ","MAREA":" ","LANE":" ","ALLEY":" ","HOUSE_NO":"５６號","E_COORD97":181522.71085900001,"N_COORD97":2537546.34253,"ADDRESS":"深坑二街５６號","OBJECTID":655705},"geometry":{"x":181522.71085899975,"y":2537546.3425340019}},{"attributes":{"ID":655733,"DIS_CODE":0,"TOWNNAME":"關廟區","LI":"深坑里","LIN":"9鄰","STREET":"深坑三街","SECT":" ","MAREA":" ","LANE":" ","ALLEY":" ","HOUSE_NO":"１３號","E_COORD97":181767.878555,"N_COORD97":2537842.7815399999,"ADDRESS":"深坑三街１３號","OBJECTID":655706},"geometry":{"x":181767.87855499983,"y":2537842.7815410029}},{"attributes":{"ID":655734,"DIS_CODE":0,"TOWNNAME":"歸仁區","LI":"新厝里","LIN":"3鄰","STREET":"中正一街","SECT":" ","MAREA":" ","LANE":" ","ALLEY":" ","HOUSE_NO":"５９號","E_COORD97":177763.15098499999,"N_COORD97":2540703.8948300001,"ADDRESS":"中正一街５９號","OBJECTID":655707},"geometry":{"x":177763.15098500066,"y":2540703.8948330022}},{"attributes":{"ID":655735,"DIS_CODE":0,"TOWNNAME":"歸仁區","LI":"新厝里","LIN":"3鄰","STREET":"中正一街","SECT":" ","MAREA":" ","LANE":" ","ALLEY":" ","HOUSE_NO":"６１號","E_COORD97":177766.75275099999,"N_COORD97":2540703.6831700001,"ADDRESS":"中正一街６１號","OBJECTID":655708},"geometry":{"x":177766.75275100023,"y":2540703.6831669994}},{"attributes":{"ID":655736,"DIS_CODE":0,"TOWNNAME":"歸仁區","LI":"新厝里","LIN":"3鄰","STREET":"中正一街","SECT":" ","MAREA":" ","LANE":" ","ALLEY":" ","HOUSE_NO":"６３號","E_COORD97":177769.08330599999,"N_COORD97":2540701.9898299999,"ADDRESS":"中正一街６３號","OBJECTID":655709},"geometry":{"x":177769.08330600057,"y":2540701.9898340032}},{"attributes":{"ID":655737,"DIS_CODE":0,"TOWNNAME":"歸仁區","LI":"新厝里","LIN":"3鄰","STREET":"中正一街","SECT":" ","MAREA":" ","LANE":" ","ALLEY":" ","HOUSE_NO":"６５號","E_COORD97":177771.41386100001,"N_COORD97":2540701.1431700001,"ADDRESS":"中正一街６５號","OBJECTID":655710},"geometry":{"x":177771.41386100091,"y":2540701.1431680005}},{"attributes":{"ID":655738,"DIS_CODE":0,"TOWNNAME":"仁德區","LI":"上崙里","LIN":"29鄰","STREET":"中正路","SECT":"一段","MAREA":" ","LANE":" ","ALLEY":" ","HOUSE_NO":"５２８號","E_COORD97":172720.88644500001,"N_COORD97":2537056.1091700001,"ADDRESS":"中正路一段５２８號","OBJECTID":655711},"geometry":{"x":172720.88644500077,"y":2537056.109167004}},{"attributes":{"ID":655739,"DIS_CODE":0,"TOWNNAME":"善化區","LI":"南關里","LIN":"7鄰","STREET":"南科九路","SECT":" ","MAREA":" ","LANE":" ","ALLEY":" ","HOUSE_NO":"１７號","E_COORD97":174955.155719,"N_COORD97":2557134.6968,"ADDRESS":"南科九路１７號","OBJECTID":655712},"geometry":{"x":174955.15571899991,"y":2557134.6967989989}},{"attributes":{"ID":655740,"DIS_CODE":0,"TOWNNAME":"仁德區","LI":"上崙里","LIN":"29鄰","STREET":"中正路","SECT":"一段","MAREA":" ","LANE":" ","ALLEY":" ","HOUSE_NO":"５４０號","E_COORD97":172769.617065,"N_COORD97":2537181.09827,"ADDRESS":"中正路一段５４０號","OBJECTID":655713},"geometry":{"x":172769.61706500128,"y":2537181.0982659999}},{"attributes":{"ID":655741,"DIS_CODE":0,"TOWNNAME":"仁德區","LI":"上崙里","LIN":"29鄰","STREET":"中正路","SECT":"一段","MAREA":" ","LANE":" ","ALLEY":" ","HOUSE_NO":"６２２號","E_COORD97":172846.52669500001,"N_COORD97":2537444.19979,"ADDRESS":"中正路一段６２２號","OBJECTID":655714},"geometry":{"x":172846.52669500187,"y":2537444.1997910012}},{"attributes":{"ID":655742,"DIS_CODE":0,"TOWNNAME":"仁德區","LI":"上崙里","LIN":"29鄰","STREET":"中正路","SECT":"一段","MAREA":" ","LANE":"６５６巷","ALLEY":" ","HOUSE_NO":"５０號","E_COORD97":172976.82813400001,"N_COORD97":2537332.7573500001,"ADDRESS":"中正路一段６５６巷５０號","OBJECTID":655715},"geometry":{"x":172976.82813400123,"y":2537332.7573509999}},{"attributes":{"ID":655743,"DIS_CODE":0,"TOWNNAME":"仁德區","LI":"上崙里","LIN":"29鄰","STREET":"中正路","SECT":"一段","MAREA":" ","LANE":"６５６巷","ALLEY":" ","HOUSE_NO":"６７號","E_COORD97":173006.112131,"N_COORD97":2537385.74236,"ADDRESS":"中正路一段６５６巷６７號","OBJECTID":655716},"geometry":{"x":173006.11213099957,"y":2537385.7423609998}},{"attributes":{"ID":655744,"DIS_CODE":0,"TOWNNAME":"善化區","LI":"南關里","LIN":"7鄰","STREET":"三民路","SECT":" ","MAREA":" ","LANE":" ","ALLEY":" ","HOUSE_NO":"１之４３號","E_COORD97":176907.193879,"N_COORD97":2558524.71105,"ADDRESS":"三民路１之４３號","OBJECTID":655717},"geometry":{"x":176907.19387900177,"y":2558524.7110480014}},{"attributes":{"ID":655745,"DIS_CODE":0,"TOWNNAME":"中西區","LI":"永華里","LIN":"19鄰","STREET":"中正路","SECT":" ","MAREA":" ","LANE":" ","ALLEY":" ","HOUSE_NO":"１號之１","E_COORD97":168460.56650700001,"N_COORD97":2543566.5820399998,"ADDRESS":"中正路１號之１","OBJECTID":655718},"geometry":{"x":168460.56650700048,"y":2543566.5820349995}},{"attributes":{"ID":655746,"DIS_CODE":0,"TOWNNAME":"善化區","LI":"南關里","LIN":"13鄰","STREET":"自由路","SECT":" ","MAREA":" ","LANE":"１８９巷","ALLEY":" ","HOUSE_NO":"２９號","E_COORD97":176854.87224200001,"N_COORD97":2558835.6631399998,"ADDRESS":"自由路１８９巷２９號","OBJECTID":655719},"geometry":{"x":176854.87224200182,"y":2558835.6631420013}},{"attributes":{"ID":655747,"DIS_CODE":0,"TOWNNAME":"善化區","LI":"南關里","LIN":"7鄰","STREET":"環東路","SECT":"二段","MAREA":" ","LANE":" ","ALLEY":" ","HOUSE_NO":"２１號","E_COORD97":176474.064277,"N_COORD97":2556536.9643799998,"ADDRESS":"環東路二段２１號","OBJECTID":655720},"geometry":{"x":176474.06427700073,"y":2556536.9643830005}},{"attributes":{"ID":655748,"DIS_CODE":0,"TOWNNAME":"安南區","LI":"砂崙里","LIN":"1鄰","STREET":"城北路","SECT":" ","MAREA":" ","LANE":" ","ALLEY":" ","HOUSE_NO":"９６１號２００","E_COORD97":160912.139994,"N_COORD97":2553520.5800000001,"ADDRESS":"城北路９６１號２００","OBJECTID":655721},"geometry":{"x":160912.13999400102,"y":2553520.5799970012}},{"attributes":{"ID":655749,"DIS_CODE":0,"TOWNNAME":"仁德區","LI":"上崙里","LIN":"29鄰","STREET":"崑崙路","SECT":" ","MAREA":" ","LANE":" ","ALLEY":" ","HOUSE_NO":"１６２號","E_COORD97":173044.34039,"N_COORD97":2536937.4325999999,"ADDRESS":"崑崙路１６２號","OBJECTID":655722},"geometry":{"x":173044.34039000049,"y":2536937.432604}},{"attributes":{"ID":655750,"DIS_CODE":0,"TOWNNAME":"仁德區","LI":"上崙里","LIN":"29鄰","STREET":"崑崙路","SECT":" ","MAREA":" ","LANE":" ","ALLEY":" ","HOUSE_NO":"２０１號","E_COORD97":173102.60526099999,"N_COORD97":2537011.0925599998,"ADDRESS":"崑崙路２０１號","OBJECTID":655723},"geometry":{"x":173102.6052610008,"y":2537011.0925639998}},{"attributes":{"ID":655751,"DIS_CODE":0,"TOWNNAME":"仁德區","LI":"上崙里","LIN":"29鄰","STREET":"崑崙路","SECT":" ","MAREA":" ","LANE":"２７０巷","ALLEY":" ","HOUSE_NO":"２１１號","E_COORD97":173649.23568799999,"N_COORD97":2536691.2644000002,"ADDRESS":"崑崙路２７０巷２１１號","OBJECTID":655724},"geometry":{"x":173649.23568799999,"y":2536691.2644030023}},{"attributes":{"ID":655752,"DIS_CODE":0,"TOWNNAME":"仁德區","LI":"成功里","LIN":"45鄰","STREET":"文賢路","SECT":"一段","MAREA":" ","LANE":" ","ALLEY":" ","HOUSE_NO":"４１號","E_COORD97":170177.64233900001,"N_COORD97":2538242.4003699999,"ADDRESS":"文賢路一段４１號","OBJECTID":655725},"geometry":{"x":170177.64233900234,"y":2538242.4003680013}},{"attributes":{"ID":655753,"DIS_CODE":0,"TOWNNAME":"仁德區","LI":"成功里","LIN":"45鄰","STREET":"文賢路","SECT":"一段","MAREA":" ","LANE":" ","ALLEY":" ","HOUSE_NO":"４３號","E_COORD97":170180.92797399999,"N_COORD97":2538244.9906100002,"ADDRESS":"文賢路一段４３號","OBJECTID":655726},"geometry":{"x":170180.92797399964,"y":2538244.9906120021}},{"attributes":{"ID":655754,"DIS_CODE":0,"TOWNNAME":"鹽水區","LI":"汫水里","LIN":"9鄰","STREET":" ","SECT":" ","MAREA":"汫水港","LANE":" ","ALLEY":" ","HOUSE_NO":"１５號","E_COORD97":175403.44937700001,"N_COORD97":2582898.54055,"ADDRESS":"汫水港１５號","OBJECTID":655727},"geometry":{"x":175403.44937700033,"y":2582898.5405530017}},{"attributes":{"ID":655755,"DIS_CODE":0,"TOWNNAME":"鹽水區","LI":"汫水里","LIN":"8鄰","STREET":" ","SECT":" ","MAREA":"汫水港","LANE":" ","ALLEY":" ","HOUSE_NO":"１８號","E_COORD97":175381.84547500001,"N_COORD97":2582877.3739,"ADDRESS":"汫水港１８號","OBJECTID":655728},"geometry":{"x":175381.84547500219,"y":2582877.373897003}},{"attributes":{"ID":655756,"DIS_CODE":0,"TOWNNAME":"鹽水區","LI":"汫水里","LIN":"8鄰","STREET":" ","SECT":" ","MAREA":"汫水港","LANE":" ","ALLEY":" ","HOUSE_NO":"１４號","E_COORD97":175420.81722,"N_COORD97":2582913.35721,"ADDRESS":"汫水港１４號","OBJECTID":655729},"geometry":{"x":175420.81721999962,"y":2582913.3572110012}},{"attributes":{"ID":655757,"DIS_CODE":0,"TOWNNAME":"鹽水區","LI":"汫水里","LIN":"1鄰","STREET":" ","SECT":" ","MAREA":"汫水港","LANE":" ","ALLEY":" ","HOUSE_NO":"１３０號","E_COORD97":175647.44639200001,"N_COORD97":2582719.6823200001,"ADDRESS":"汫水港１３０號","OBJECTID":655730},"geometry":{"x":175647.44639199972,"y":2582719.6823160015}},{"attributes":{"ID":655758,"DIS_CODE":0,"TOWNNAME":"鹽水區","LI":"汫水里","LIN":"4鄰","STREET":" ","SECT":" ","MAREA":"汫水港","LANE":" ","ALLEY":" ","HOUSE_NO":"１２６號","E_COORD97":175702.938769,"N_COORD97":2582764.3439600002,"ADDRESS":"汫水港１２６號","OBJECTID":655731},"geometry":{"x":175702.93876900058,"y":2582764.3439579997}},{"attributes":{"ID":655759,"DIS_CODE":0,"TOWNNAME":"鹽水區","LI":"汫水里","LIN":"4鄰","STREET":" ","SECT":" ","MAREA":"汫水港","LANE":" ","ALLEY":" ","HOUSE_NO":"１２３號","E_COORD97":175710.56367599999,"N_COORD97":2582831.65392,"ADDRESS":"汫水港１２３號","OBJECTID":655732},"geometry":{"x":175710.56367600057,"y":2582831.6539220028}},{"attributes":{"ID":655760,"DIS_CODE":0,"TOWNNAME":"鹽水區","LI":"汫水里","LIN":"3鄰","STREET":" ","SECT":" ","MAREA":"汫水港","LANE":" ","ALLEY":" ","HOUSE_NO":"１２１之１１號","E_COORD97":175870.686717,"N_COORD97":2582894.3072199998,"ADDRESS":"汫水港１２１之１１號","OBJECTID":655733},"geometry":{"x":175870.68671700079,"y":2582894.3072209992}},{"attributes":{"ID":655761,"DIS_CODE":0,"TOWNNAME":"鹽水區","LI":"汫水里","LIN":"3鄰","STREET":" ","SECT":" ","MAREA":"汫水港","LANE":" ","ALLEY":" ","HOUSE_NO":"１１８號","E_COORD97":175725.81348899999,"N_COORD97":2582921.6122099999,"ADDRESS":"汫水港１１８號","OBJECTID":655734},"geometry":{"x":175725.81348900031,"y":2582921.6122069992}},{"attributes":{"ID":655762,"DIS_CODE":0,"TOWNNAME":"鹽水區","LI":"汫水里","LIN":"3鄰","STREET":" ","SECT":" ","MAREA":"汫水港","LANE":" ","ALLEY":" ","HOUSE_NO":"１１４號","E_COORD97":175729.62594299999,"N_COORD97":2582947.4355299999,"ADDRESS":"汫水港１１４號","OBJECTID":655735},"geometry":{"x":175729.62594300136,"y":2582947.4355260022}},{"attributes":{"ID":655763,"DIS_CODE":0,"TOWNNAME":"鹽水區","LI":"汫水里","LIN":"3鄰","STREET":" ","SECT":" ","MAREA":"汫水港","LANE":" ","ALLEY":" ","HOUSE_NO":"１１３號之２","E_COORD97":175785.541925,"N_COORD97":2582960.9821899999,"ADDRESS":"汫水港１１３號之２","OBJECTID":655736},"geometry":{"x":175785.54192500003,"y":2582960.9821850024}},{"attributes":{"ID":655764,"DIS_CODE":0,"TOWNNAME":"鹽水區","LI":"汫水里","LIN":"2鄰","STREET":" ","SECT":" ","MAREA":"汫水港","LANE":" ","ALLEY":" ","HOUSE_NO":"１１２號之１","E_COORD97":175693.66378800001,"N_COORD97":2582962.2792500001,"ADDRESS":"汫水港１１２號之１","OBJECTID":655737},"geometry":{"x":175693.66378800105,"y":2582962.2792529985}},{"attributes":{"ID":655765,"DIS_CODE":0,"TOWNNAME":"鹽水區","LI":"汫水里","LIN":"2鄰","STREET":" ","SECT":" ","MAREA":"汫水港","LANE":" ","ALLEY":" ","HOUSE_NO":"１１２號之３","E_COORD97":175702.769933,"N_COORD97":2582965.0309199998,"ADDRESS":"汫水港１１２號之３","OBJECTID":655738},"geometry":{"x":175702.76993299928,"y":2582965.0309180003}},{"attributes":{"ID":655766,"DIS_CODE":0,"TOWNNAME":"鹽水區","LI":"汫水里","LIN":"2鄰","STREET":" ","SECT":" ","MAREA":"汫水港","LANE":" ","ALLEY":" ","HOUSE_NO":"１１１號","E_COORD97":175707.00534900001,"N_COORD97":2583001.2259,"ADDRESS":"汫水港１１１號","OBJECTID":655739},"geometry":{"x":175707.00534900185,"y":2583001.2258979995}},{"attributes":{"ID":655767,"DIS_CODE":0,"TOWNNAME":"鹽水區","LI":"汫水里","LIN":"2鄰","STREET":" ","SECT":" ","MAREA":"汫水港","LANE":" ","ALLEY":" ","HOUSE_NO":"１０６號","E_COORD97":175731.35899199999,"N_COORD97":2582986.1975699998,"ADDRESS":"汫水港１０６號","OBJECTID":655740},"geometry":{"x":175731.35899200104,"y":2582986.1975730024}},{"attributes":{"ID":655768,"DIS_CODE":0,"TOWNNAME":"鹽水區","LI":"汫水里","LIN":"4鄰","STREET":" ","SECT":" ","MAREA":"汫水港","LANE":" ","ALLEY":" ","HOUSE_NO":"８７號","E_COORD97":175621.87348400001,"N_COORD97":2583554.5222700001,"ADDRESS":"汫水港８７號","OBJECTID":655741},"geometry":{"x":175621.87348400149,"y":2583554.5222660005}},{"attributes":{"ID":655769,"DIS_CODE":0,"TOWNNAME":"鹽水區","LI":"汫水里","LIN":"4鄰","STREET":" ","SECT":" ","MAREA":"汫水港","LANE":" ","ALLEY":" ","HOUSE_NO":"８８號","E_COORD97":175623.99119199999,"N_COORD97":2583569.33892,"ADDRESS":"汫水港８８號","OBJECTID":655742},"geometry":{"x":175623.99119200092,"y":2583569.3389250003}},{"attributes":{"ID":655770,"DIS_CODE":0,"TOWNNAME":"鹽水區","LI":"汫水里","LIN":"4鄰","STREET":" ","SECT":" ","MAREA":"汫水港","LANE":" ","ALLEY":" ","HOUSE_NO":"８９號","E_COORD97":175636.48566999999,"N_COORD97":2583597.9139100001,"ADDRESS":"汫水港８９號","OBJECTID":655743},"geometry":{"x":175636.48567000031,"y":2583597.9139099997}},{"attributes":{"ID":655771,"DIS_CODE":0,"TOWNNAME":"鹽水區","LI":"汫水里","LIN":"4鄰","STREET":" ","SECT":" ","MAREA":"汫水港","LANE":" ","ALLEY":" ","HOUSE_NO":"８６號","E_COORD97":175608.743694,"N_COORD97":2583557.2739300001,"ADDRESS":"汫水港８６號","OBJECTID":655744},"geometry":{"x":175608.74369400181,"y":2583557.2739320006}},{"attributes":{"ID":655772,"DIS_CODE":0,"TOWNNAME":"鹽水區","LI":"汫水里","LIN":"4鄰","STREET":" ","SECT":" ","MAREA":"汫水港","LANE":" ","ALLEY":" ","HOUSE_NO":"８５號","E_COORD97":175597.096299,"N_COORD97":2583561.9306000001,"ADDRESS":"汫水港８５號","OBJECTID":655745},"geometry":{"x":175597.09629900008,"y":2583561.9305960014}},{"attributes":{"ID":655773,"DIS_CODE":0,"TOWNNAME":"鹽水區","LI":"汫水里","LIN":"4鄰","STREET":" ","SECT":" ","MAREA":"汫水港","LANE":" ","ALLEY":" ","HOUSE_NO":"８４號","E_COORD97":175586.507759,"N_COORD97":2583566.79893,"ADDRESS":"汫水港８４號","OBJECTID":655746},"geometry":{"x":175586.50775900111,"y":2583566.7989259996}},{"attributes":{"ID":655774,"DIS_CODE":0,"TOWNNAME":"鹽水區","LI":"汫水里","LIN":"4鄰","STREET":" ","SECT":" ","MAREA":"汫水港","LANE":" ","ALLEY":" ","HOUSE_NO":"８３號","E_COORD97":175575.919219,"N_COORD97":2583571.66726,"ADDRESS":"汫水港８３號","OBJECTID":655747},"geometry":{"x":175575.91921900027,"y":2583571.6672570016}},{"attributes":{"ID":655775,"DIS_CODE":0,"TOWNNAME":"鹽水區","LI":"汫水里","LIN":"4鄰","STREET":" ","SECT":" ","MAREA":"汫水港","LANE":" ","ALLEY":" ","HOUSE_NO":"８２號","E_COORD97":175565.75422,"N_COORD97":2583576.1122599998,"ADDRESS":"汫水港８２號","OBJECTID":655748},"geometry":{"x":175565.7542200014,"y":2583576.1122550014}},{"attributes":{"ID":655776,"DIS_CODE":0,"TOWNNAME":"鹽水區","LI":"汫水里","LIN":"3鄰","STREET":" ","SECT":" ","MAREA":"汫水港","LANE":" ","ALLEY":" ","HOUSE_NO":"９８號","E_COORD97":175685.19295600001,"N_COORD97":2583556.2156000002,"ADDRESS":"汫水港９８號","OBJECTID":655749},"geometry":{"x":175685.19295600057,"y":2583556.2155990023}},{"attributes":{"ID":655777,"DIS_CODE":0,"TOWNNAME":"鹽水區","LI":"汫水里","LIN":"3鄰","STREET":" ","SECT":" ","MAREA":"汫水港","LANE":" ","ALLEY":" ","HOUSE_NO":"９７號","E_COORD97":175701.92285,"N_COORD97":2583574.6305900002,"ADDRESS":"汫水港９７號","OBJECTID":655750},"geometry":{"x":175701.92284999881,"y":2583574.6305890009}},{"attributes":{"ID":655778,"DIS_CODE":0,"TOWNNAME":"鹽水區","LI":"汫水里","LIN":"4鄰","STREET":" ","SECT":" ","MAREA":"汫水港","LANE":" ","ALLEY":" ","HOUSE_NO":"９１號","E_COORD97":175690.275455,"N_COORD97":2583627.7588900002,"ADDRESS":"汫水港９１號","OBJECTID":655751},"geometry":{"x":175690.27545499988,"y":2583627.7588940021}},{"attributes":{"ID":655779,"DIS_CODE":0,"TOWNNAME":"鹽水區","LI":"汫水里","LIN":"4鄰","STREET":" ","SECT":" ","MAREA":"汫水港","LANE":" ","ALLEY":" ","HOUSE_NO":"９２號","E_COORD97":175728.81774299999,"N_COORD97":2583627.5472300001,"ADDRESS":"汫水港９２號","OBJECTID":655752},"geometry":{"x":175728.81774299964,"y":2583627.5472270008}},{"attributes":{"ID":655780,"DIS_CODE":0,"TOWNNAME":"鹽水區","LI":"汫水里","LIN":"4鄰","STREET":" ","SECT":" ","MAREA":"汫水港","LANE":" ","ALLEY":" ","HOUSE_NO":"９３號","E_COORD97":175760.37159299999,"N_COORD97":2583645.1155500002,"ADDRESS":"汫水港９３號","OBJECTID":655753},"geometry":{"x":175760.3715930013,"y":2583645.1155510005}},{"attributes":{"ID":655781,"DIS_CODE":0,"TOWNNAME":"鹽水區","LI":"汫水里","LIN":"3鄰","STREET":" ","SECT":" ","MAREA":"汫水港","LANE":" ","ALLEY":" ","HOUSE_NO":"９６號","E_COORD97":175745.12409500001,"N_COORD97":2583574.4189200001,"ADDRESS":"汫水港９６號","OBJECTID":655754},"geometry":{"x":175745.12409500033,"y":2583574.4189219996}},{"attributes":{"ID":655782,"DIS_CODE":0,"TOWNNAME":"鹽水區","LI":"汫水里","LIN":"3鄰","STREET":" ","SECT":" ","MAREA":"汫水港","LANE":" ","ALLEY":" ","HOUSE_NO":"１００號","E_COORD97":175720.55868099999,"N_COORD97":2583527.4289500001,"ADDRESS":"汫水港１００號","OBJECTID":655755},"geometry":{"x":175720.55868100002,"y":2583527.4289480019}},{"attributes":{"ID":655783,"DIS_CODE":0,"TOWNNAME":"鹽水區","LI":"汫水里","LIN":"3鄰","STREET":" ","SECT":" ","MAREA":"汫水港","LANE":" ","ALLEY":" ","HOUSE_NO":"９４號","E_COORD97":175800.81981799999,"N_COORD97":2583616.9638999999,"ADDRESS":"汫水港９４號","OBJECTID":655756},"geometry":{"x":175800.81981800031,"y":2583616.9638990015}},{"attributes":{"ID":655784,"DIS_CODE":0,"TOWNNAME":"鹽水區","LI":"汫水里","LIN":"3鄰","STREET":" ","SECT":" ","MAREA":"汫水港","LANE":" ","ALLEY":" ","HOUSE_NO":"９５號","E_COORD97":175784.089924,"N_COORD97":2583585.8489199998,"ADDRESS":"汫水港９５號","OBJECTID":655757},"geometry":{"x":175784.08992400207,"y":2583585.8489160016}},{"attributes":{"ID":655785,"DIS_CODE":0,"TOWNNAME":"鹽水區","LI":"汫水里","LIN":"3鄰","STREET":" ","SECT":" ","MAREA":"汫水港","LANE":" ","ALLEY":" ","HOUSE_NO":"１０１號","E_COORD97":175774.983779,"N_COORD97":2583566.79893,"ADDRESS":"汫水港１０１號","OBJECTID":655758},"geometry":{"x":175774.98377900105,"y":2583566.7989259996}},{"attributes":{"ID":655786,"DIS_CODE":0,"TOWNNAME":"鹽水區","LI":"汫水里","LIN":"3鄰","STREET":" ","SECT":" ","MAREA":"汫水港","LANE":" ","ALLEY":" ","HOUSE_NO":"１０２號","E_COORD97":175766.51294700001,"N_COORD97":2583526.3706100001,"ADDRESS":"汫水港１０２號","OBJECTID":655759},"geometry":{"x":175766.51294699963,"y":2583526.3706149999}},{"attributes":{"ID":655787,"DIS_CODE":0,"TOWNNAME":"鹽水區","LI":"汫水里","LIN":"3鄰","STREET":" ","SECT":" ","MAREA":"汫水港","LANE":" ","ALLEY":" ","HOUSE_NO":"１０３號","E_COORD97":175770.74836299999,"N_COORD97":2583510.2839600001,"ADDRESS":"汫水港１０３號","OBJECTID":655760},"geometry":{"x":175770.74836300127,"y":2583510.2839570008}},{"attributes":{"ID":655788,"DIS_CODE":0,"TOWNNAME":"鹽水區","LI":"汫水里","LIN":"3鄰","STREET":" ","SECT":" ","MAREA":"汫水港","LANE":" ","ALLEY":" ","HOUSE_NO":"１０４號","E_COORD97":175791.29013099999,"N_COORD97":2583523.1956199999,"ADDRESS":"汫水港１０４號","OBJECTID":655761},"geometry":{"x":175791.29013100173,"y":2583523.1956169996}},{"attributes":{"ID":655789,"DIS_CODE":0,"TOWNNAME":"鹽水區","LI":"汫水里","LIN":"12鄰","STREET":" ","SECT":" ","MAREA":"溪州寮","LANE":" ","ALLEY":" ","HOUSE_NO":"５號","E_COORD97":176306.818054,"N_COORD97":2582456.0621500001,"ADDRESS":"溪州寮５號","OBJECTID":655762},"geometry":{"x":176306.81805400085,"y":2582456.0621480048}},{"attributes":{"ID":655790,"DIS_CODE":0,"TOWNNAME":"鹽水區","LI":"汫水里","LIN":"12鄰","STREET":" ","SECT":" ","MAREA":"溪州寮","LANE":" ","ALLEY":" ","HOUSE_NO":"３號之１６","E_COORD97":177553.08926499999,"N_COORD97":2581812.4900000002,"ADDRESS":"溪州寮３號之１６","OBJECTID":655763},"geometry":{"x":177553.08926500194,"y":2581812.489994999}},{"attributes":{"ID":655791,"DIS_CODE":0,"TOWNNAME":"鹽水區","LI":"汫水里","LIN":"12鄰","STREET":" ","SECT":" ","MAREA":"溪州寮","LANE":" ","ALLEY":" ","HOUSE_NO":"３之６號","E_COORD97":177632.50331900001,"N_COORD97":2581809.4208300002,"ADDRESS":"溪州寮３之６號","OBJECTID":655764},"geometry":{"x":177632.50331899989,"y":2581809.4208300002}},{"attributes":{"ID":655792,"DIS_CODE":0,"TOWNNAME":"鹽水區","LI":"汫水里","LIN":"12鄰","STREET":" ","SECT":" ","MAREA":"溪州寮","LANE":" ","ALLEY":" ","HOUSE_NO":"３之１１號","E_COORD97":177551.18332800001,"N_COORD97":2581968.8057400002,"ADDRESS":"溪州寮３之１１號","OBJECTID":655765},"geometry":{"x":177551.1833279999,"y":2581968.8057439998}},{"attributes":{"ID":655793,"DIS_CODE":0,"TOWNNAME":"善化區","LI":"文昌里","LIN":"13鄰","STREET":"文昌路","SECT":" ","MAREA":" ","LANE":" ","ALLEY":" ","HOUSE_NO":"１４號","E_COORD97":177532.971246,"N_COORD97":2558841.4921300001,"ADDRESS":"文昌路１４號","OBJECTID":655766},"geometry":{"x":177532.97124600038,"y":2558841.4921310022}},{"attributes":{"ID":655794,"DIS_CODE":0,"TOWNNAME":"中西區","LI":"民主里","LIN":"1鄰","STREET":"海安路","SECT":"一段","MAREA":" ","LANE":"１５５巷","ALLEY":" ","HOUSE_NO":"１號","E_COORD97":167503.57143000001,"N_COORD97":2543553.5161799998,"ADDRESS":"海安路一段１５５巷１號","OBJECTID":655767},"geometry":{"x":167503.57143000141,"y":2543553.5161800012}},{"attributes":{"ID":655795,"DIS_CODE":0,"TOWNNAME":"中西區","LI":"民主里","LIN":"1鄰","STREET":"海安路","SECT":"一段","MAREA":" ","LANE":"１５５巷","ALLEY":" ","HOUSE_NO":"３號","E_COORD97":167500.18158100001,"N_COORD97":2543553.91145,"ADDRESS":"海安路一段１５５巷３號","OBJECTID":655768},"geometry":{"x":167500.1815810008,"y":2543553.9114469998}},{"attributes":{"ID":655796,"DIS_CODE":0,"TOWNNAME":"中西區","LI":"民主里","LIN":"1鄰","STREET":"海安路","SECT":"一段","MAREA":" ","LANE":"１５５巷","ALLEY":" ","HOUSE_NO":"２０號","E_COORD97":167492.55441899999,"N_COORD97":2543559.6264399998,"ADDRESS":"海安路一段１５５巷２０號","OBJECTID":655769},"geometry":{"x":167492.5544189997,"y":2543559.6264440045}},{"attributes":{"ID":655797,"DIS_CODE":0,"TOWNNAME":"中西區","LI":"民主里","LIN":"3鄰","STREET":"海安路","SECT":"一段","MAREA":" ","LANE":"１５５巷","ALLEY":" ","HOUSE_NO":"２５號","E_COORD97":167427.299811,"N_COORD97":2543572.7497700001,"ADDRESS":"海安路一段１５５巷２５號","OBJECTID":655770},"geometry":{"x":167427.29981100187,"y":2543572.7497700006}},{"attributes":{"ID":655798,"DIS_CODE":0,"TOWNNAME":"中西區","LI":"民主里","LIN":"1鄰","STREET":"海安路","SECT":"一段","MAREA":" ","LANE":"１５５巷","ALLEY":" ","HOUSE_NO":"２號","E_COORD97":167504.84262400001,"N_COORD97":2543558.77978,"ADDRESS":"海安路一段１５５巷２號","OBJECTID":655771},"geometry":{"x":167504.8426240012,"y":2543558.7797769979}},{"attributes":{"ID":655799,"DIS_CODE":0,"TOWNNAME":"中西區","LI":"民主里","LIN":"1鄰","STREET":"海安路","SECT":"一段","MAREA":" ","LANE":"１５５巷","ALLEY":" ","HOUSE_NO":"６號","E_COORD97":167501.24090899999,"N_COORD97":2543558.77978,"ADDRESS":"海安路一段１５５巷６號","OBJECTID":655772},"geometry":{"x":167501.24090899993,"y":2543558.7797769979}},{"attributes":{"ID":655800,"DIS_CODE":0,"TOWNNAME":"中西區","LI":"民主里","LIN":"3鄰","STREET":"海安路","SECT":"一段","MAREA":" ","LANE":"１５５巷","ALLEY":" ","HOUSE_NO":"２７號","E_COORD97":167422.24312999999,"N_COORD97":2543573.8081,"ADDRESS":"海安路一段１５５巷２７號","OBJECTID":655773},"geometry":{"x":167422.24313000031,"y":2543573.8081029989}},{"attributes":{"ID":655801,"DIS_CODE":0,"TOWNNAME":"中西區","LI":"民主里","LIN":"3鄰","STREET":"海安路","SECT":"一段","MAREA":" ","LANE":"１５５巷","ALLEY":" ","HOUSE_NO":"２９號","E_COORD97":167419.065145,"N_COORD97":2543574.6547699999,"ADDRESS":"海安路一段１５５巷２９號","OBJECTID":655774},"geometry":{"x":167419.06514500082,"y":2543574.6547689997}},{"attributes":{"ID":655802,"DIS_CODE":0,"TOWNNAME":"中西區","LI":"光賢里","LIN":"8鄰","STREET":"武聖路","SECT":" ","MAREA":" ","LANE":"６９巷","ALLEY":"９９弄","HOUSE_NO":"２號之１","E_COORD97":167048.46244,"N_COORD97":2544880.5964600001,"ADDRESS":"武聖路６９巷９９弄２號之１","OBJECTID":655775},"geometry":{"x":167048.46244000085,"y":2544880.5964600015}},{"attributes":{"ID":655803,"DIS_CODE":0,"TOWNNAME":"中西區","LI":"光賢里","LIN":"21鄰","STREET":"光賢街","SECT":" ","MAREA":" ","LANE":" ","ALLEY":" ","HOUSE_NO":"２３號之１","E_COORD97":166723.82101000001,"N_COORD97":2545005.2284300001,"ADDRESS":"光賢街２３號之１","OBJECTID":655776},"geometry":{"x":166723.82101000007,"y":2545005.2284299992}},{"attributes":{"ID":655804,"DIS_CODE":0,"TOWNNAME":"中西區","LI":"光賢里","LIN":"22鄰","STREET":"中華西路","SECT":"二段","MAREA":" ","LANE":" ","ALLEY":" ","HOUSE_NO":"６９０號","E_COORD97":166618.94753599999,"N_COORD97":2545184.2983400002,"ADDRESS":"中華西路二段６９０號","OBJECTID":655777},"geometry":{"x":166618.94753600098,"y":2545184.2983430028}},{"attributes":{"ID":655805,"DIS_CODE":0,"TOWNNAME":"新營區","LI":"民榮里","LIN":"17鄰","STREET":"新榮四街","SECT":" ","MAREA":" ","LANE":" ","ALLEY":" ","HOUSE_NO":"２６號","E_COORD97":178397.99887000001,"N_COORD97":2577722.47523,"ADDRESS":"新榮四街２６號","OBJECTID":655778},"geometry":{"x":178397.99887000117,"y":2577722.4752309993}},{"attributes":{"ID":655806,"DIS_CODE":0,"TOWNNAME":"中西區","LI":"三合里","LIN":"2鄰","STREET":"海安路","SECT":"二段","MAREA":" ","LANE":" ","ALLEY":" ","HOUSE_NO":"２９７號","E_COORD97":167740.59614400001,"N_COORD97":2544333.3548300001,"ADDRESS":"海安路二段２９７號","OBJECTID":655779},"geometry":{"x":167740.59614400193,"y":2544333.3548270017}},{"attributes":{"ID":655807,"DIS_CODE":0,"TOWNNAME":"中西區","LI":"三合里","LIN":"2鄰","STREET":"海安路","SECT":"二段","MAREA":" ","LANE":"３０１巷","ALLEY":" ","HOUSE_NO":"３號","E_COORD97":167742.07926699999,"N_COORD97":2544335.2598299999,"ADDRESS":"海安路二段３０１巷３號","OBJECTID":655780},"geometry":{"x":167742.07926699985,"y":2544335.2598260008}},{"attributes":{"ID":655808,"DIS_CODE":0,"TOWNNAME":"中西區","LI":"三合里","LIN":"2鄰","STREET":"海安路","SECT":"二段","MAREA":" ","LANE":"３０１巷","ALLEY":" ","HOUSE_NO":"７號","E_COORD97":167739.53677100001,"N_COORD97":2544336.3181599998,"ADDRESS":"海安路二段３０１巷７號","OBJECTID":655781},"geometry":{"x":167739.53677100129,"y":2544336.3181589991}},{"attributes":{"ID":655809,"DIS_CODE":0,"TOWNNAME":"中西區","LI":"三合里","LIN":"2鄰","STREET":"海安路","SECT":"二段","MAREA":" ","LANE":"３０１巷","ALLEY":" ","HOUSE_NO":"９號","E_COORD97":167736.994274,"N_COORD97":2544336.1064900002,"ADDRESS":"海安路二段３０１巷９號","OBJECTID":655782},"geometry":{"x":167736.99427400064,"y":2544336.1064920034}},{"attributes":{"ID":655810,"DIS_CODE":0,"TOWNNAME":"中西區","LI":"三合里","LIN":"2鄰","STREET":"海安路","SECT":"二段","MAREA":" ","LANE":"３０１巷","ALLEY":" ","HOUSE_NO":"１１號","E_COORD97":167734.875527,"N_COORD97":2544338.0114899999,"ADDRESS":"海安路二段３０１巷１１號","OBJECTID":655783},"geometry":{"x":167734.87552700005,"y":2544338.0114910025}},{"attributes":{"ID":655811,"DIS_CODE":0,"TOWNNAME":"中西區","LI":"三合里","LIN":"3鄰","STREET":"海安路","SECT":"二段","MAREA":" ","LANE":"３０１巷","ALLEY":" ","HOUSE_NO":"１８號","E_COORD97":167734.23990300001,"N_COORD97":2544342.0331600001,"ADDRESS":"海安路二段３０１巷１８號","OBJECTID":655784},"geometry":{"x":167734.23990300111,"y":2544342.0331560038}},{"attributes":{"ID":655812,"DIS_CODE":0,"TOWNNAME":"中西區","LI":"三合里","LIN":"2鄰","STREET":"海安路","SECT":"二段","MAREA":" ","LANE":" ","ALLEY":" ","HOUSE_NO":"３０３號","E_COORD97":167742.291142,"N_COORD97":2544337.7998299999,"ADDRESS":"海安路二段３０３號","OBJECTID":655785},"geometry":{"x":167742.29114199989,"y":2544337.7998250015}},{"attributes":{"ID":655813,"DIS_CODE":0,"TOWNNAME":"中西區","LI":"三合里","LIN":"3鄰","STREET":"海安路","SECT":"二段","MAREA":" ","LANE":"３０５巷","ALLEY":" ","HOUSE_NO":"１號","E_COORD97":167743.77426499999,"N_COORD97":2544339.4931600001,"ADDRESS":"海安路二段３０５巷１號","OBJECTID":655786},"geometry":{"x":167743.7742650006,"y":2544339.4931569993}},{"attributes":{"ID":655814,"DIS_CODE":0,"TOWNNAME":"中西區","LI":"三合里","LIN":"3鄰","STREET":"海安路","SECT":"二段","MAREA":" ","LANE":"３０５巷","ALLEY":" ","HOUSE_NO":"５號","E_COORD97":167741.44364300001,"N_COORD97":2544340.3398199999,"ADDRESS":"海安路二段３０５巷５號","OBJECTID":655787},"geometry":{"x":167741.44364299998,"y":2544340.3398230001}},{"attributes":{"ID":655815,"DIS_CODE":0,"TOWNNAME":"中西區","LI":"三合里","LIN":"3鄰","STREET":"海安路","SECT":"二段","MAREA":" ","LANE":"３０５巷","ALLEY":" ","HOUSE_NO":"７號","E_COORD97":167738.901147,"N_COORD97":2544340.55149,"ADDRESS":"海安路二段３０５巷７號","OBJECTID":655788},"geometry":{"x":167738.90114700049,"y":2544340.5514900014}},{"attributes":{"ID":655816,"DIS_CODE":0,"TOWNNAME":"中西區","LI":"三合里","LIN":"3鄰","STREET":"海安路","SECT":"二段","MAREA":" ","LANE":"３０５巷","ALLEY":" ","HOUSE_NO":"９號","E_COORD97":167736.78239899999,"N_COORD97":2544341.3981599999,"ADDRESS":"海安路二段３０５巷９號","OBJECTID":655789},"geometry":{"x":167736.7823990006,"y":2544341.398156004}},{"attributes":{"ID":655817,"DIS_CODE":0,"TOWNNAME":"中西區","LI":"三合里","LIN":"3鄰","STREET":"海安路","SECT":"二段","MAREA":" ","LANE":"３０５巷","ALLEY":" ","HOUSE_NO":"１１號","E_COORD97":167732.54490499999,"N_COORD97":2544344.7848200002,"ADDRESS":"海安路二段３０５巷１１號","OBJECTID":655790},"geometry":{"x":167732.5449050013,"y":2544344.784821}},{"attributes":{"ID":655818,"DIS_CODE":0,"TOWNNAME":"中西區","LI":"三合里","LIN":"3鄰","STREET":"海安路","SECT":"二段","MAREA":" ","LANE":" ","ALLEY":" ","HOUSE_NO":"３１３號","E_COORD97":167745.46926300001,"N_COORD97":2544342.0331600001,"ADDRESS":"海安路二段３１３號","OBJECTID":655791},"geometry":{"x":167745.46926300041,"y":2544342.0331560038}},{"attributes":{"ID":655819,"DIS_CODE":0,"TOWNNAME":"中西區","LI":"三合里","LIN":"3鄰","STREET":"海安路","SECT":"二段","MAREA":" ","LANE":" ","ALLEY":" ","HOUSE_NO":"３２９號","E_COORD97":167746.74051100001,"N_COORD97":2544343.9381599999,"ADDRESS":"海安路二段３２９號","OBJECTID":655792},"geometry":{"x":167746.74051100109,"y":2544343.9381549992}},{"attributes":{"ID":655820,"DIS_CODE":0,"TOWNNAME":"中西區","LI":"三合里","LIN":"3鄰","STREET":"海安路","SECT":"二段","MAREA":" ","LANE":"３３１巷","ALLEY":" ","HOUSE_NO":"１號","E_COORD97":167747.58801000001,"N_COORD97":2544345.6314900001,"ADDRESS":"海安路二段３３１巷１號","OBJECTID":655793},"geometry":{"x":167747.58801000193,"y":2544345.6314870007}},{"attributes":{"ID":655821,"DIS_CODE":0,"TOWNNAME":"中西區","LI":"三合里","LIN":"5鄰","STREET":"海安路","SECT":"二段","MAREA":" ","LANE":"３３１巷","ALLEY":" ","HOUSE_NO":"７號","E_COORD97":167744.409889,"N_COORD97":2544347.5364899999,"ADDRESS":"海安路二段３３１巷７號","OBJECTID":655794},"geometry":{"x":167744.40988900047,"y":2544347.5364860017}},{"attributes":{"ID":655822,"DIS_CODE":0,"TOWNNAME":"中西區","LI":"三合里","LIN":"5鄰","STREET":"海安路","SECT":"二段","MAREA":" ","LANE":"３３１巷","ALLEY":" ","HOUSE_NO":"９號","E_COORD97":167741.86739299999,"N_COORD97":2544349.0181499999,"ADDRESS":"海安路二段３３１巷９號","OBJECTID":655795},"geometry":{"x":167741.86739300191,"y":2544349.0181520022}},{"attributes":{"ID":655823,"DIS_CODE":0,"TOWNNAME":"中西區","LI":"三合里","LIN":"3鄰","STREET":"海安路","SECT":"二段","MAREA":" ","LANE":"３３１巷","ALLEY":" ","HOUSE_NO":"１１號","E_COORD97":167740.38427000001,"N_COORD97":2544352.4048199998,"ADDRESS":"海安路二段３３１巷１１號","OBJECTID":655796},"geometry":{"x":167740.3842700012,"y":2544352.4048170038}},{"attributes":{"ID":655824,"DIS_CODE":0,"TOWNNAME":"中西區","LI":"三合里","LIN":"3鄰","STREET":"海安路","SECT":"二段","MAREA":" ","LANE":"３３１巷","ALLEY":" ","HOUSE_NO":"１０號","E_COORD97":167741.86739299999,"N_COORD97":2544354.7331500002,"ADDRESS":"海安路二段３３１巷１０號","OBJECTID":655797},"geometry":{"x":167741.86739300191,"y":2544354.7331490014}},{"attributes":{"ID":655825,"DIS_CODE":0,"TOWNNAME":"中西區","LI":"三合里","LIN":"3鄰","STREET":"海安路","SECT":"二段","MAREA":" ","LANE":" ","ALLEY":" ","HOUSE_NO":"３３３號","E_COORD97":167748.22363399999,"N_COORD97":2544347.5364899999,"ADDRESS":"海安路二段３３３號","OBJECTID":655798},"geometry":{"x":167748.22363399994,"y":2544347.5364860017}},{"attributes":{"ID":655826,"DIS_CODE":0,"TOWNNAME":"中西區","LI":"三合里","LIN":"3鄰","STREET":"海安路","SECT":"二段","MAREA":" ","LANE":" ","ALLEY":" ","HOUSE_NO":"３３５號","E_COORD97":167748.85925800001,"N_COORD97":2544349.0181499999,"ADDRESS":"海安路二段３３５號","OBJECTID":655799},"geometry":{"x":167748.85925799981,"y":2544349.0181520022}},{"attributes":{"ID":655827,"DIS_CODE":0,"TOWNNAME":"中西區","LI":"三合里","LIN":"3鄰","STREET":"海安路","SECT":"二段","MAREA":" ","LANE":" ","ALLEY":" ","HOUSE_NO":"３３９號","E_COORD97":167749.494882,"N_COORD97":2544350.2881499999,"ADDRESS":"海安路二段３３９號","OBJECTID":655800},"geometry":{"x":167749.49488200061,"y":2544350.2881510016}}]}