{"displayFieldName":"TOWNNAME","fieldAliases":{"ID":"ID","DIS_CODE":"DIS_CODE","TOWNNAME":"TOWNNAME","LI":"LI","LIN":"LIN","STREET":"STREET","SECT":"SECT","MAREA":"MAREA","LANE":"LANE","ALLEY":"ALLEY","HOUSE_NO":"HOUSE_NO","E_COORD97":"E_COORD97","N_COORD97":"N_COORD97","ADDRESS":"ADDRESS","OBJECTID":"OBJECTID"},"geometryType":"esriGeometryPoint","spatialReference":{"wkid":102443,"latestWkid":3826},"fields":[{"name":"ID","type":"esriFieldTypeDouble","alias":"ID"},{"name":"DIS_CODE","type":"esriFieldTypeInteger","alias":"DIS_CODE"},{"name":"TOWNNAME","type":"esriFieldTypeString","alias":"TOWNNAME","length":8},{"name":"LI","type":"esriFieldTypeString","alias":"LI","length":8},{"name":"LIN","type":"esriFieldTypeString","alias":"LIN","length":12},{"name":"STREET","type":"esriFieldTypeString","alias":"STREET","length":20},{"name":"SECT","type":"esriFieldTypeString","alias":"SECT","length":8},{"name":"MAREA","type":"esriFieldTypeString","alias":"MAREA","length":12},{"name":"LANE","type":"esriFieldTypeString","alias":"LANE","length":10},{"name":"ALLEY","type":"esriFieldTypeString","alias":"ALLEY","length":10},{"name":"HOUSE_NO","type":"esriFieldTypeString","alias":"HOUSE_NO","length":20},{"name":"E_COORD97","type":"esriFieldTypeDouble","alias":"E_COORD97"},{"name":"N_COORD97","type":"esriFieldTypeDouble","alias":"N_COORD97"},{"name":"ADDRESS","type":"esriFieldTypeString","alias":"ADDRESS","length":50},{"name":"OBJECTID","type":"esriFieldTypeOID","alias":"OBJECTID"}],"features":[{"attributes":{"ID":586228,"DIS_CODE":0,"TOWNNAME":"歸仁區","LI":"八甲里","LIN":"11鄰","STREET":"大明二街","SECT":" ","MAREA":" ","LANE":" ","ALLEY":" ","HOUSE_NO":"８１號","E_COORD97":177802.82000000001,"N_COORD97":2541969.6099999999,"ADDRESS":"大明二街８１號","OBJECTID":586201},"geometry":{"x":177802.82000000216,"y":2541969.6100000013}},{"attributes":{"ID":586229,"DIS_CODE":0,"TOWNNAME":"歸仁區","LI":"大廟里","LIN":"11鄰","STREET":"大廟五街","SECT":" ","MAREA":" ","LANE":" ","ALLEY":" ","HOUSE_NO":"１８號","E_COORD97":175934.87,"N_COORD97":2544184.25,"ADDRESS":"大廟五街１８號","OBJECTID":586202},"geometry":{"x":175934.87000000104,"y":2544184.25}},{"attributes":{"ID":586230,"DIS_CODE":0,"TOWNNAME":"麻豆區","LI":"中興里","LIN":"11鄰","STREET":"和平路","SECT":" ","MAREA":" ","LANE":" ","ALLEY":" ","HOUSE_NO":"５號之１２","E_COORD97":172915.47,"N_COORD97":2564317.29,"ADDRESS":"和平路５號之１２","OBJECTID":586203},"geometry":{"x":172915.46999999974,"y":2564317.290000001}},{"attributes":{"ID":586231,"DIS_CODE":0,"TOWNNAME":"麻豆區","LI":"中興里","LIN":"11鄰","STREET":"和平路","SECT":" ","MAREA":" ","LANE":" ","ALLEY":" ","HOUSE_NO":"５號之１３","E_COORD97":172923.63,"N_COORD97":2564305.7599999998,"ADDRESS":"和平路５號之１３","OBJECTID":586204},"geometry":{"x":172923.63000000082,"y":2564305.7599999998}},{"attributes":{"ID":586232,"DIS_CODE":0,"TOWNNAME":"麻豆區","LI":"中興里","LIN":"11鄰","STREET":"和平路","SECT":" ","MAREA":" ","LANE":" ","ALLEY":" ","HOUSE_NO":"５號之１９","E_COORD97":172941.98999999999,"N_COORD97":2564352.3199999998,"ADDRESS":"和平路５號之１９","OBJECTID":586205},"geometry":{"x":172941.99000000115,"y":2564352.3200000022}},{"attributes":{"ID":586233,"DIS_CODE":0,"TOWNNAME":"麻豆區","LI":"中興里","LIN":"11鄰","STREET":"和平路","SECT":" ","MAREA":" ","LANE":" ","ALLEY":" ","HOUSE_NO":"５號之１","E_COORD97":172891.20000000001,"N_COORD97":2564314.6099999999,"ADDRESS":"和平路５號之１","OBJECTID":586206},"geometry":{"x":172891.20000000112,"y":2564314.6100000013}},{"attributes":{"ID":586234,"DIS_CODE":0,"TOWNNAME":"麻豆區","LI":"中興里","LIN":"11鄰","STREET":"和平路","SECT":" ","MAREA":" ","LANE":" ","ALLEY":" ","HOUSE_NO":"５號之２０","E_COORD97":172948.01999999999,"N_COORD97":2564353.4100000001,"ADDRESS":"和平路５號之２０","OBJECTID":586207},"geometry":{"x":172948.02000000048,"y":2564353.4100000001}},{"attributes":{"ID":586235,"DIS_CODE":0,"TOWNNAME":"麻豆區","LI":"中興里","LIN":"11鄰","STREET":"和平路","SECT":" ","MAREA":" ","LANE":" ","ALLEY":" ","HOUSE_NO":"５號之２１","E_COORD97":172955.04000000001,"N_COORD97":2564358.5800000001,"ADDRESS":"和平路５號之２１","OBJECTID":586208},"geometry":{"x":172955.04000000097,"y":2564358.5800000001}},{"attributes":{"ID":586236,"DIS_CODE":0,"TOWNNAME":"麻豆區","LI":"中興里","LIN":"11鄰","STREET":"和平路","SECT":" ","MAREA":" ","LANE":" ","ALLEY":" ","HOUSE_NO":"５號之２２","E_COORD97":172959.85999999999,"N_COORD97":2564359.4700000002,"ADDRESS":"和平路５號之２２","OBJECTID":586209},"geometry":{"x":172959.86000000127,"y":2564359.4700000007}},{"attributes":{"ID":586237,"DIS_CODE":0,"TOWNNAME":"麻豆區","LI":"中興里","LIN":"11鄰","STREET":"和平路","SECT":" ","MAREA":" ","LANE":" ","ALLEY":" ","HOUSE_NO":"５號之２３","E_COORD97":172964.26999999999,"N_COORD97":2564360.3700000001,"ADDRESS":"和平路５號之２３","OBJECTID":586210},"geometry":{"x":172964.27000000142,"y":2564360.370000001}},{"attributes":{"ID":586238,"DIS_CODE":0,"TOWNNAME":"麻豆區","LI":"中興里","LIN":"11鄰","STREET":"和平路","SECT":" ","MAREA":" ","LANE":" ","ALLEY":" ","HOUSE_NO":"５號之２４","E_COORD97":172968.89999999999,"N_COORD97":2564361.4399999999,"ADDRESS":"和平路５號之２４","OBJECTID":586211},"geometry":{"x":172968.90000000037,"y":2564361.4399999995}},{"attributes":{"ID":586239,"DIS_CODE":0,"TOWNNAME":"麻豆區","LI":"中興里","LIN":"11鄰","STREET":"和平路","SECT":" ","MAREA":" ","LANE":" ","ALLEY":" ","HOUSE_NO":"５號之２５","E_COORD97":172973.28,"N_COORD97":2564362.1299999999,"ADDRESS":"和平路５號之２５","OBJECTID":586212},"geometry":{"x":172973.28000000026,"y":2564362.1300000008}},{"attributes":{"ID":586240,"DIS_CODE":0,"TOWNNAME":"麻豆區","LI":"中興里","LIN":"11鄰","STREET":"和平路","SECT":" ","MAREA":" ","LANE":" ","ALLEY":" ","HOUSE_NO":"５號之２６","E_COORD97":172965.10999999999,"N_COORD97":2564342.46,"ADDRESS":"和平路５號之２６","OBJECTID":586213},"geometry":{"x":172965.11000000127,"y":2564342.4600000009}},{"attributes":{"ID":586241,"DIS_CODE":0,"TOWNNAME":"麻豆區","LI":"中興里","LIN":"11鄰","STREET":"和平路","SECT":" ","MAREA":" ","LANE":" ","ALLEY":" ","HOUSE_NO":"５號之２７","E_COORD97":172964.85000000001,"N_COORD97":2564338.7400000002,"ADDRESS":"和平路５號之２７","OBJECTID":586214},"geometry":{"x":172964.84999999963,"y":2564338.7400000021}},{"attributes":{"ID":586242,"DIS_CODE":0,"TOWNNAME":"麻豆區","LI":"中興里","LIN":"11鄰","STREET":"和平路","SECT":" ","MAREA":" ","LANE":" ","ALLEY":" ","HOUSE_NO":"５號之２８","E_COORD97":172964.69,"N_COORD97":2564334.8399999999,"ADDRESS":"和平路５號之２８","OBJECTID":586215},"geometry":{"x":172964.69000000134,"y":2564334.8400000017}},{"attributes":{"ID":586243,"DIS_CODE":0,"TOWNNAME":"麻豆區","LI":"中興里","LIN":"11鄰","STREET":"和平路","SECT":" ","MAREA":" ","LANE":" ","ALLEY":" ","HOUSE_NO":"５號之２９","E_COORD97":172964.95000000001,"N_COORD97":2564329.7599999998,"ADDRESS":"和平路５號之２９","OBJECTID":586216},"geometry":{"x":172964.95000000019,"y":2564329.7599999998}},{"attributes":{"ID":586244,"DIS_CODE":0,"TOWNNAME":"麻豆區","LI":"中興里","LIN":"11鄰","STREET":"和平路","SECT":" ","MAREA":" ","LANE":" ","ALLEY":" ","HOUSE_NO":"５號之２","E_COORD97":172890.26000000001,"N_COORD97":2564318.7200000002,"ADDRESS":"和平路５號之２","OBJECTID":586217},"geometry":{"x":172890.26000000071,"y":2564318.7200000025}},{"attributes":{"ID":586245,"DIS_CODE":0,"TOWNNAME":"麻豆區","LI":"中興里","LIN":"11鄰","STREET":"和平路","SECT":" ","MAREA":" ","LANE":" ","ALLEY":" ","HOUSE_NO":"５號之３０","E_COORD97":172964.73000000001,"N_COORD97":2564325.8999999999,"ADDRESS":"和平路５號之３０","OBJECTID":586218},"geometry":{"x":172964.73000000045,"y":2564325.9000000004}},{"attributes":{"ID":586246,"DIS_CODE":0,"TOWNNAME":"麻豆區","LI":"中興里","LIN":"11鄰","STREET":"和平路","SECT":" ","MAREA":" ","LANE":" ","ALLEY":" ","HOUSE_NO":"５號之３１","E_COORD97":172965.23000000001,"N_COORD97":2564321.3999999999,"ADDRESS":"和平路５號之３１","OBJECTID":586219},"geometry":{"x":172965.23000000045,"y":2564321.4000000022}},{"attributes":{"ID":586247,"DIS_CODE":0,"TOWNNAME":"麻豆區","LI":"中興里","LIN":"11鄰","STREET":"和平路","SECT":" ","MAREA":" ","LANE":" ","ALLEY":" ","HOUSE_NO":"５號之３２","E_COORD97":172964.78,"N_COORD97":2564316.8599999999,"ADDRESS":"和平路５號之３２","OBJECTID":586220},"geometry":{"x":172964.78000000026,"y":2564316.8600000013}},{"attributes":{"ID":586248,"DIS_CODE":0,"TOWNNAME":"麻豆區","LI":"中興里","LIN":"11鄰","STREET":"和平路","SECT":" ","MAREA":" ","LANE":" ","ALLEY":" ","HOUSE_NO":"５號之３３","E_COORD97":172964.87,"N_COORD97":2564313.52,"ADDRESS":"和平路５號之３３","OBJECTID":586221},"geometry":{"x":172964.87000000104,"y":2564313.5199999996}},{"attributes":{"ID":586249,"DIS_CODE":0,"TOWNNAME":"麻豆區","LI":"中興里","LIN":"11鄰","STREET":"和平路","SECT":" ","MAREA":" ","LANE":" ","ALLEY":" ","HOUSE_NO":"５號之３４","E_COORD97":172965.10999999999,"N_COORD97":2564309.1600000001,"ADDRESS":"和平路５號之３４","OBJECTID":586222},"geometry":{"x":172965.11000000127,"y":2564309.160000002}},{"attributes":{"ID":586250,"DIS_CODE":0,"TOWNNAME":"麻豆區","LI":"中興里","LIN":"11鄰","STREET":"和平路","SECT":" ","MAREA":" ","LANE":" ","ALLEY":" ","HOUSE_NO":"５號之３５","E_COORD97":172965.03,"N_COORD97":2564304.5899999999,"ADDRESS":"和平路５號之３５","OBJECTID":586223},"geometry":{"x":172965.03000000212,"y":2564304.5900000036}},{"attributes":{"ID":586251,"DIS_CODE":0,"TOWNNAME":"麻豆區","LI":"中興里","LIN":"11鄰","STREET":"和平路","SECT":" ","MAREA":" ","LANE":" ","ALLEY":" ","HOUSE_NO":"５號之３６","E_COORD97":172965.23000000001,"N_COORD97":2564300.5699999998,"ADDRESS":"和平路５號之３６","OBJECTID":586224},"geometry":{"x":172965.23000000045,"y":2564300.5700000003}},{"attributes":{"ID":586252,"DIS_CODE":0,"TOWNNAME":"麻豆區","LI":"中興里","LIN":"11鄰","STREET":"和平路","SECT":" ","MAREA":" ","LANE":" ","ALLEY":" ","HOUSE_NO":"５號之３７","E_COORD97":172965.17999999999,"N_COORD97":2564295.6299999999,"ADDRESS":"和平路５號之３７","OBJECTID":586225},"geometry":{"x":172965.18000000156,"y":2564295.629999999}},{"attributes":{"ID":586253,"DIS_CODE":0,"TOWNNAME":"麻豆區","LI":"中興里","LIN":"11鄰","STREET":"和平路","SECT":" ","MAREA":" ","LANE":" ","ALLEY":" ","HOUSE_NO":"５號之３８","E_COORD97":172965.32999999999,"N_COORD97":2564290.27,"ADDRESS":"和平路５號之３８","OBJECTID":586226},"geometry":{"x":172965.33000000007,"y":2564290.2700000014}},{"attributes":{"ID":586254,"DIS_CODE":0,"TOWNNAME":"麻豆區","LI":"中興里","LIN":"11鄰","STREET":"和平路","SECT":" ","MAREA":" ","LANE":" ","ALLEY":" ","HOUSE_NO":"５號之３","E_COORD97":172889.22,"N_COORD97":2564323.29,"ADDRESS":"和平路５號之３","OBJECTID":586227},"geometry":{"x":172889.22000000067,"y":2564323.290000001}},{"attributes":{"ID":586255,"DIS_CODE":0,"TOWNNAME":"麻豆區","LI":"中興里","LIN":"11鄰","STREET":"和平路","SECT":" ","MAREA":" ","LANE":" ","ALLEY":" ","HOUSE_NO":"５號之４","E_COORD97":172888.31,"N_COORD97":2564327.48,"ADDRESS":"和平路５號之４","OBJECTID":586228},"geometry":{"x":172888.31000000052,"y":2564327.4800000023}},{"attributes":{"ID":586256,"DIS_CODE":0,"TOWNNAME":"麻豆區","LI":"中興里","LIN":"11鄰","STREET":"和平路","SECT":" ","MAREA":" ","LANE":" ","ALLEY":" ","HOUSE_NO":"５號之５","E_COORD97":172882.01999999999,"N_COORD97":2564342.98,"ADDRESS":"和平路５號之５","OBJECTID":586229},"geometry":{"x":172882.02000000048,"y":2564342.9800000004}},{"attributes":{"ID":586257,"DIS_CODE":0,"TOWNNAME":"麻豆區","LI":"中興里","LIN":"11鄰","STREET":"和平路","SECT":" ","MAREA":" ","LANE":" ","ALLEY":" ","HOUSE_NO":"５號之６","E_COORD97":172886.07000000001,"N_COORD97":2564343.7400000002,"ADDRESS":"和平路５號之６","OBJECTID":586230},"geometry":{"x":172886.0700000003,"y":2564343.7400000002}},{"attributes":{"ID":586258,"DIS_CODE":0,"TOWNNAME":"麻豆區","LI":"中興里","LIN":"11鄰","STREET":"和平路","SECT":" ","MAREA":" ","LANE":" ","ALLEY":" ","HOUSE_NO":"５號之７","E_COORD97":172889.98000000001,"N_COORD97":2564344.5800000001,"ADDRESS":"和平路５號之７","OBJECTID":586231},"geometry":{"x":172889.98000000138,"y":2564344.5800000001}},{"attributes":{"ID":586259,"DIS_CODE":0,"TOWNNAME":"麻豆區","LI":"中興里","LIN":"11鄰","STREET":"和平路","SECT":" ","MAREA":" ","LANE":" ","ALLEY":" ","HOUSE_NO":"５號","E_COORD97":172928.66,"N_COORD97":2564297.8300000001,"ADDRESS":"和平路５號","OBJECTID":586232},"geometry":{"x":172928.66000000108,"y":2564297.8300000019}},{"attributes":{"ID":586260,"DIS_CODE":0,"TOWNNAME":"麻豆區","LI":"中興里","LIN":"11鄰","STREET":"和平路","SECT":" ","MAREA":" ","LANE":" ","ALLEY":" ","HOUSE_NO":"７號之１０","E_COORD97":172907.67999999999,"N_COORD97":2564287.1499999999,"ADDRESS":"和平路７號之１０","OBJECTID":586233},"geometry":{"x":172907.68000000063,"y":2564287.1500000004}},{"attributes":{"ID":586261,"DIS_CODE":0,"TOWNNAME":"麻豆區","LI":"中興里","LIN":"11鄰","STREET":"和平路","SECT":" ","MAREA":" ","LANE":" ","ALLEY":" ","HOUSE_NO":"７號之１１","E_COORD97":172911.95000000001,"N_COORD97":2564288.0499999998,"ADDRESS":"和平路７號之１１","OBJECTID":586234},"geometry":{"x":172911.95000000112,"y":2564288.0500000007}},{"attributes":{"ID":586262,"DIS_CODE":0,"TOWNNAME":"麻豆區","LI":"中興里","LIN":"11鄰","STREET":"和平路","SECT":" ","MAREA":" ","LANE":" ","ALLEY":" ","HOUSE_NO":"７號之１２","E_COORD97":172915.45000000001,"N_COORD97":2564289.1099999999,"ADDRESS":"和平路７號之１２","OBJECTID":586235},"geometry":{"x":172915.45000000019,"y":2564289.1099999994}},{"attributes":{"ID":586263,"DIS_CODE":0,"TOWNNAME":"麻豆區","LI":"中興里","LIN":"11鄰","STREET":"和平路","SECT":" ","MAREA":" ","LANE":" ","ALLEY":" ","HOUSE_NO":"７號之１３","E_COORD97":172919.19,"N_COORD97":2564289.9399999999,"ADDRESS":"和平路７號之１３","OBJECTID":586236},"geometry":{"x":172919.19000000041,"y":2564289.9400000013}},{"attributes":{"ID":586264,"DIS_CODE":0,"TOWNNAME":"麻豆區","LI":"中興里","LIN":"11鄰","STREET":"和平路","SECT":" ","MAREA":" ","LANE":" ","ALLEY":" ","HOUSE_NO":"７號之２","E_COORD97":172908.07000000001,"N_COORD97":2564308.2999999998,"ADDRESS":"和平路７號之２","OBJECTID":586237},"geometry":{"x":172908.0700000003,"y":2564308.3000000026}},{"attributes":{"ID":586265,"DIS_CODE":0,"TOWNNAME":"麻豆區","LI":"中興里","LIN":"11鄰","STREET":"和平路","SECT":" ","MAREA":" ","LANE":" ","ALLEY":" ","HOUSE_NO":"７號之３","E_COORD97":172903.59,"N_COORD97":2564307.6000000001,"ADDRESS":"和平路７號之３","OBJECTID":586238},"geometry":{"x":172903.59000000078,"y":2564307.5999999978}},{"attributes":{"ID":586266,"DIS_CODE":0,"TOWNNAME":"麻豆區","LI":"中興里","LIN":"11鄰","STREET":"和平路","SECT":" ","MAREA":" ","LANE":" ","ALLEY":" ","HOUSE_NO":"７號之４","E_COORD97":172898.60999999999,"N_COORD97":2564306.8599999999,"ADDRESS":"和平路７號之４","OBJECTID":586239},"geometry":{"x":172898.61000000127,"y":2564306.8600000013}},{"attributes":{"ID":586267,"DIS_CODE":0,"TOWNNAME":"麻豆區","LI":"中興里","LIN":"11鄰","STREET":"和平路","SECT":" ","MAREA":" ","LANE":" ","ALLEY":" ","HOUSE_NO":"７號之５","E_COORD97":172894.82000000001,"N_COORD97":2564306.1099999999,"ADDRESS":"和平路７號之５","OBJECTID":586240},"geometry":{"x":172894.8200000003,"y":2564306.1099999994}},{"attributes":{"ID":586268,"DIS_CODE":0,"TOWNNAME":"麻豆區","LI":"中興里","LIN":"11鄰","STREET":"和平路","SECT":" ","MAREA":" ","LANE":" ","ALLEY":" ","HOUSE_NO":"７號之６","E_COORD97":172890.84,"N_COORD97":2564305.3100000001,"ADDRESS":"和平路７號之６","OBJECTID":586241},"geometry":{"x":172890.83999999985,"y":2564305.3100000024}},{"attributes":{"ID":586269,"DIS_CODE":0,"TOWNNAME":"麻豆區","LI":"中興里","LIN":"11鄰","STREET":"和平路","SECT":" ","MAREA":" ","LANE":" ","ALLEY":" ","HOUSE_NO":"７號之７","E_COORD97":172895.88,"N_COORD97":2564283.5,"ADDRESS":"和平路７號之７","OBJECTID":586242},"geometry":{"x":172895.87999999989,"y":2564283.5}},{"attributes":{"ID":586270,"DIS_CODE":0,"TOWNNAME":"麻豆區","LI":"中興里","LIN":"11鄰","STREET":"和平路","SECT":" ","MAREA":" ","LANE":" ","ALLEY":" ","HOUSE_NO":"７號之８","E_COORD97":172899.69,"N_COORD97":2564284.75,"ADDRESS":"和平路７號之８","OBJECTID":586243},"geometry":{"x":172899.69000000227,"y":2564284.7500000019}},{"attributes":{"ID":586271,"DIS_CODE":0,"TOWNNAME":"麻豆區","LI":"中興里","LIN":"11鄰","STREET":"和平路","SECT":" ","MAREA":" ","LANE":" ","ALLEY":" ","HOUSE_NO":"７號之９","E_COORD97":172903.63,"N_COORD97":2564285.9199999999,"ADDRESS":"和平路７號之９","OBJECTID":586244},"geometry":{"x":172903.63000000082,"y":2564285.9200000018}},{"attributes":{"ID":586272,"DIS_CODE":0,"TOWNNAME":"麻豆區","LI":"中興里","LIN":"11鄰","STREET":"和平路","SECT":" ","MAREA":" ","LANE":" ","ALLEY":" ","HOUSE_NO":"７號","E_COORD97":172939.98000000001,"N_COORD97":2564276.2000000002,"ADDRESS":"和平路７號","OBJECTID":586245},"geometry":{"x":172939.97999999952,"y":2564276.200000003}},{"attributes":{"ID":586273,"DIS_CODE":0,"TOWNNAME":"北區","LI":"勝安里","LIN":"11鄰","STREET":"開元路","SECT":" ","MAREA":" ","LANE":" ","ALLEY":" ","HOUSE_NO":"１８５號","E_COORD97":169989.23000000001,"N_COORD97":2545297.0699999998,"ADDRESS":"開元路１８５號","OBJECTID":586246},"geometry":{"x":169989.23000000138,"y":2545297.0700000022}},{"attributes":{"ID":586274,"DIS_CODE":0,"TOWNNAME":"北區","LI":"勝安里","LIN":"11鄰","STREET":"開元路","SECT":" ","MAREA":" ","LANE":" ","ALLEY":" ","HOUSE_NO":"１８７號","E_COORD97":169992.54000000001,"N_COORD97":2545298.4900000002,"ADDRESS":"開元路１８７號","OBJECTID":586247},"geometry":{"x":169992.54000000004,"y":2545298.4900000002}},{"attributes":{"ID":586275,"DIS_CODE":0,"TOWNNAME":"北區","LI":"勝安里","LIN":"11鄰","STREET":"開元路","SECT":" ","MAREA":" ","LANE":" ","ALLEY":" ","HOUSE_NO":"１８９號","E_COORD97":169996.17000000001,"N_COORD97":2545299.75,"ADDRESS":"開元路１８９號","OBJECTID":586248},"geometry":{"x":169996.17000000086,"y":2545299.75}},{"attributes":{"ID":586276,"DIS_CODE":0,"TOWNNAME":"北區","LI":"勝安里","LIN":"11鄰","STREET":"開元路","SECT":" ","MAREA":" ","LANE":" ","ALLEY":" ","HOUSE_NO":"１９１號","E_COORD97":169999.17000000001,"N_COORD97":2545301.1699999999,"ADDRESS":"開元路１９１號","OBJECTID":586249},"geometry":{"x":169999.17000000086,"y":2545301.1700000037}},{"attributes":{"ID":586277,"DIS_CODE":0,"TOWNNAME":"北區","LI":"勝安里","LIN":"11鄰","STREET":"開元路","SECT":" ","MAREA":" ","LANE":" ","ALLEY":" ","HOUSE_NO":"１９３號","E_COORD97":170002.64000000001,"N_COORD97":2545302.1099999999,"ADDRESS":"開元路１９３號","OBJECTID":586250},"geometry":{"x":170002.6400000006,"y":2545302.1100000013}},{"attributes":{"ID":586278,"DIS_CODE":0,"TOWNNAME":"北區","LI":"勝安里","LIN":"11鄰","STREET":"開元路","SECT":" ","MAREA":" ","LANE":" ","ALLEY":" ","HOUSE_NO":"１９５號","E_COORD97":170005.64000000001,"N_COORD97":2545303.0600000001,"ADDRESS":"開元路１９５號","OBJECTID":586251},"geometry":{"x":170005.64000000153,"y":2545303.0600000024}},{"attributes":{"ID":586279,"DIS_CODE":0,"TOWNNAME":"北區","LI":"勝安里","LIN":"11鄰","STREET":"開元路","SECT":" ","MAREA":" ","LANE":" ","ALLEY":" ","HOUSE_NO":"１９７號","E_COORD97":170008.79999999999,"N_COORD97":2545304.1600000001,"ADDRESS":"開元路１９７號","OBJECTID":586252},"geometry":{"x":170008.80000000075,"y":2545304.1600000001}},{"attributes":{"ID":586280,"DIS_CODE":0,"TOWNNAME":"北區","LI":"勝安里","LIN":"11鄰","STREET":"開元路","SECT":" ","MAREA":" ","LANE":" ","ALLEY":" ","HOUSE_NO":"１９９號","E_COORD97":170011.48000000001,"N_COORD97":2545305.5800000001,"ADDRESS":"開元路１９９號","OBJECTID":586253},"geometry":{"x":170011.48000000138,"y":2545305.5800000038}},{"attributes":{"ID":586281,"DIS_CODE":0,"TOWNNAME":"北區","LI":"勝安里","LIN":"11鄰","STREET":"開元路","SECT":" ","MAREA":" ","LANE":" ","ALLEY":" ","HOUSE_NO":"２０１號","E_COORD97":170014.79000000001,"N_COORD97":2545306.5299999998,"ADDRESS":"開元路２０１號","OBJECTID":586254},"geometry":{"x":170014.79000000004,"y":2545306.5300000012}},{"attributes":{"ID":586282,"DIS_CODE":0,"TOWNNAME":"北區","LI":"勝安里","LIN":"11鄰","STREET":"開元路","SECT":" ","MAREA":" ","LANE":" ","ALLEY":" ","HOUSE_NO":"２０３號","E_COORD97":170018.10000000001,"N_COORD97":2545307.4700000002,"ADDRESS":"開元路２０３號","OBJECTID":586255},"geometry":{"x":170018.10000000056,"y":2545307.4700000025}},{"attributes":{"ID":586283,"DIS_CODE":0,"TOWNNAME":"北區","LI":"勝安里","LIN":"11鄰","STREET":"開元路","SECT":" ","MAREA":" ","LANE":" ","ALLEY":" ","HOUSE_NO":"２０５號","E_COORD97":170021.57999999999,"N_COORD97":2545308.4199999999,"ADDRESS":"開元路２０５號","OBJECTID":586256},"geometry":{"x":170021.58000000194,"y":2545308.4199999999}},{"attributes":{"ID":586284,"DIS_CODE":0,"TOWNNAME":"北區","LI":"勝安里","LIN":"11鄰","STREET":"開元路","SECT":" ","MAREA":" ","LANE":" ","ALLEY":" ","HOUSE_NO":"２０７號","E_COORD97":170025.35999999999,"N_COORD97":2545309.3599999999,"ADDRESS":"開元路２０７號","OBJECTID":586257},"geometry":{"x":170025.36000000127,"y":2545309.3599999975}},{"attributes":{"ID":586285,"DIS_CODE":0,"TOWNNAME":"北區","LI":"勝安里","LIN":"11鄰","STREET":"開元路","SECT":" ","MAREA":" ","LANE":" ","ALLEY":" ","HOUSE_NO":"２０９號","E_COORD97":170028.20000000001,"N_COORD97":2545310.21,"ADDRESS":"開元路２０９號","OBJECTID":586258},"geometry":{"x":170028.20000000112,"y":2545310.2100000028}},{"attributes":{"ID":586286,"DIS_CODE":0,"TOWNNAME":"北區","LI":"勝安里","LIN":"11鄰","STREET":"開元路","SECT":" ","MAREA":" ","LANE":" ","ALLEY":" ","HOUSE_NO":"２１１號","E_COORD97":170032.10000000001,"N_COORD97":2545309.7400000002,"ADDRESS":"開元路２１１號","OBJECTID":586259},"geometry":{"x":170032.09999999963,"y":2545309.7400000002}},{"attributes":{"ID":586287,"DIS_CODE":0,"TOWNNAME":"北區","LI":"勝安里","LIN":"11鄰","STREET":"開元路","SECT":" ","MAREA":" ","LANE":" ","ALLEY":" ","HOUSE_NO":"２１５號","E_COORD97":170036.56,"N_COORD97":2545313.0699999998,"ADDRESS":"開元路２１５號","OBJECTID":586260},"geometry":{"x":170036.56000000145,"y":2545313.0700000022}},{"attributes":{"ID":586288,"DIS_CODE":0,"TOWNNAME":"北區","LI":"勝安里","LIN":"11鄰","STREET":"開元路","SECT":" ","MAREA":" ","LANE":" ","ALLEY":" ","HOUSE_NO":"２１７號","E_COORD97":170040.03,"N_COORD97":2545314.6400000001,"ADDRESS":"開元路２１７號","OBJECTID":586261},"geometry":{"x":170040.03000000026,"y":2545314.6400000006}},{"attributes":{"ID":586289,"DIS_CODE":0,"TOWNNAME":"北區","LI":"勝安里","LIN":"11鄰","STREET":"開元路","SECT":" ","MAREA":" ","LANE":" ","ALLEY":" ","HOUSE_NO":"２２９號","E_COORD97":170068.28,"N_COORD97":2545327.9399999999,"ADDRESS":"開元路２２９號","OBJECTID":586262},"geometry":{"x":170068.28000000119,"y":2545327.9399999995}},{"attributes":{"ID":586290,"DIS_CODE":0,"TOWNNAME":"北區","LI":"勝安里","LIN":"11鄰","STREET":"開元路","SECT":" ","MAREA":" ","LANE":" ","ALLEY":" ","HOUSE_NO":"２３１號","E_COORD97":170072.26999999999,"N_COORD97":2545329.5099999998,"ADDRESS":"開元路２３１號","OBJECTID":586263},"geometry":{"x":170072.27000000142,"y":2545329.5100000035}},{"attributes":{"ID":586291,"DIS_CODE":0,"TOWNNAME":"北區","LI":"勝安里","LIN":"11鄰","STREET":"開元路","SECT":" ","MAREA":" ","LANE":" ","ALLEY":" ","HOUSE_NO":"２３３號","E_COORD97":170074.10999999999,"N_COORD97":2545331.4100000001,"ADDRESS":"開元路２３３號","OBJECTID":586264},"geometry":{"x":170074.1099999994,"y":2545331.410000002}},{"attributes":{"ID":586292,"DIS_CODE":0,"TOWNNAME":"北區","LI":"勝安里","LIN":"11鄰","STREET":"開元路","SECT":" ","MAREA":" ","LANE":" ","ALLEY":" ","HOUSE_NO":"２３５號","E_COORD97":170078.37,"N_COORD97":2545333.6200000001,"ADDRESS":"開元路２３５號","OBJECTID":586265},"geometry":{"x":170078.37000000011,"y":2545333.6200000029}},{"attributes":{"ID":586293,"DIS_CODE":0,"TOWNNAME":"北區","LI":"勝安里","LIN":"11鄰","STREET":"開元路","SECT":" ","MAREA":" ","LANE":" ","ALLEY":" ","HOUSE_NO":"２３７號","E_COORD97":170082,"N_COORD97":2545335.3500000001,"ADDRESS":"開元路２３７號","OBJECTID":586266},"geometry":{"x":170082.00000000093,"y":2545335.3499999996}},{"attributes":{"ID":586294,"DIS_CODE":0,"TOWNNAME":"北區","LI":"勝安里","LIN":"11鄰","STREET":"開元路","SECT":" ","MAREA":" ","LANE":" ","ALLEY":" ","HOUSE_NO":"２３９號","E_COORD97":170085.63,"N_COORD97":2545336.9300000002,"ADDRESS":"開元路２３９號","OBJECTID":586267},"geometry":{"x":170085.63000000082,"y":2545336.9300000016}},{"attributes":{"ID":586295,"DIS_CODE":0,"TOWNNAME":"北區","LI":"勝安里","LIN":"11鄰","STREET":"開元路","SECT":" ","MAREA":" ","LANE":" ","ALLEY":" ","HOUSE_NO":"２４５號","E_COORD97":170089.26000000001,"N_COORD97":2545339.4500000002,"ADDRESS":"開元路２４５號","OBJECTID":586268},"geometry":{"x":170089.25999999978,"y":2545339.450000003}},{"attributes":{"ID":586296,"DIS_CODE":0,"TOWNNAME":"中西區","LI":"西賢里","LIN":"7鄰","STREET":"湖美街","SECT":" ","MAREA":" ","LANE":" ","ALLEY":" ","HOUSE_NO":"２６５號","E_COORD97":165917.87,"N_COORD97":2545027.02,"ADDRESS":"湖美街２６５號","OBJECTID":586269},"geometry":{"x":165917.87000000104,"y":2545027.0199999977}},{"attributes":{"ID":586297,"DIS_CODE":0,"TOWNNAME":"中西區","LI":"西賢里","LIN":"7鄰","STREET":"湖美街","SECT":" ","MAREA":" ","LANE":" ","ALLEY":" ","HOUSE_NO":"２６７號","E_COORD97":165919.51999999999,"N_COORD97":2545031.96,"ADDRESS":"湖美街２６７號","OBJECTID":586270},"geometry":{"x":165919.52000000048,"y":2545031.9600000009}},{"attributes":{"ID":586298,"DIS_CODE":0,"TOWNNAME":"中西區","LI":"西賢里","LIN":"7鄰","STREET":"湖美街","SECT":" ","MAREA":" ","LANE":" ","ALLEY":" ","HOUSE_NO":"２６９號","E_COORD97":165919.79000000001,"N_COORD97":2545036.9100000001,"ADDRESS":"湖美街２６９號","OBJECTID":586271},"geometry":{"x":165919.79000000097,"y":2545036.910000002}},{"attributes":{"ID":586299,"DIS_CODE":0,"TOWNNAME":"中西區","LI":"西賢里","LIN":"7鄰","STREET":"湖美街","SECT":" ","MAREA":" ","LANE":" ","ALLEY":" ","HOUSE_NO":"２７１號","E_COORD97":165919.23999999999,"N_COORD97":2545041.5699999998,"ADDRESS":"湖美街２７１號","OBJECTID":586272},"geometry":{"x":165919.24000000022,"y":2545041.5700000022}},{"attributes":{"ID":586300,"DIS_CODE":0,"TOWNNAME":"中西區","LI":"西賢里","LIN":"1鄰","STREET":"湖美街","SECT":" ","MAREA":" ","LANE":" ","ALLEY":" ","HOUSE_NO":"１９號","E_COORD97":165933.42999999999,"N_COORD97":2544474.8300000001,"ADDRESS":"湖美街１９號","OBJECTID":586273},"geometry":{"x":165933.43000000156,"y":2544474.8300000001}},{"attributes":{"ID":586301,"DIS_CODE":0,"TOWNNAME":"中西區","LI":"大涼里","LIN":"12鄰","STREET":"金城街","SECT":" ","MAREA":" ","LANE":" ","ALLEY":" ","HOUSE_NO":"２５號","E_COORD97":166934.63,"N_COORD97":2543688.5800000001,"ADDRESS":"金城街２５號","OBJECTID":586274},"geometry":{"x":166934.63000000082,"y":2543688.5800000019}},{"attributes":{"ID":586302,"DIS_CODE":0,"TOWNNAME":"中西區","LI":"安海里","LIN":"18鄰","STREET":"民生路","SECT":"二段","MAREA":" ","LANE":" ","ALLEY":" ","HOUSE_NO":"３０７號","E_COORD97":167043.10999999999,"N_COORD97":2544166.9300000002,"ADDRESS":"民生路二段３０７號","OBJECTID":586275},"geometry":{"x":167043.1099999994,"y":2544166.9300000034}},{"attributes":{"ID":586303,"DIS_CODE":0,"TOWNNAME":"中西區","LI":"西湖里","LIN":"7鄰","STREET":"頂美一街","SECT":" ","MAREA":" ","LANE":" ","ALLEY":" ","HOUSE_NO":"３號","E_COORD97":166287.95000000001,"N_COORD97":2544440.25,"ADDRESS":"頂美一街３號","OBJECTID":586276},"geometry":{"x":166287.95000000019,"y":2544440.2500000019}},{"attributes":{"ID":586304,"DIS_CODE":0,"TOWNNAME":"中西區","LI":"文賢里","LIN":"1鄰","STREET":"文和街","SECT":" ","MAREA":" ","LANE":" ","ALLEY":" ","HOUSE_NO":"７號","E_COORD97":167293.42000000001,"N_COORD97":2544973.1000000001,"ADDRESS":"文和街７號","OBJECTID":586277},"geometry":{"x":167293.42000000086,"y":2544973.1000000015}},{"attributes":{"ID":586305,"DIS_CODE":0,"TOWNNAME":"中西區","LI":"光賢里","LIN":"9鄰","STREET":"和善街","SECT":" ","MAREA":" ","LANE":" ","ALLEY":" ","HOUSE_NO":"１４８號","E_COORD97":166852.29000000001,"N_COORD97":2544871.3100000001,"ADDRESS":"和善街１４８號","OBJECTID":586278},"geometry":{"x":166852.29000000097,"y":2544871.3100000024}},{"attributes":{"ID":586306,"DIS_CODE":0,"TOWNNAME":"中西區","LI":"光賢里","LIN":"16鄰","STREET":"武聖路","SECT":" ","MAREA":" ","LANE":" ","ALLEY":" ","HOUSE_NO":"１５５號","E_COORD97":167015.29999999999,"N_COORD97":2545189.5600000001,"ADDRESS":"武聖路１５５號","OBJECTID":586279},"geometry":{"x":167015.29999999981,"y":2545189.5600000005}},{"attributes":{"ID":586307,"DIS_CODE":0,"TOWNNAME":"關廟區","LI":"南花里","LIN":"11鄰","STREET":"中山路","SECT":"一段","MAREA":" ","LANE":" ","ALLEY":" ","HOUSE_NO":"２３６號","E_COORD97":181851.45999999999,"N_COORD97":2539956.2799999998,"ADDRESS":"中山路一段２３６號","OBJECTID":586280},"geometry":{"x":181851.46000000183,"y":2539956.2799999993}},{"attributes":{"ID":586308,"DIS_CODE":0,"TOWNNAME":"關廟區","LI":"新光里","LIN":"11鄰","STREET":"新光街","SECT":" ","MAREA":" ","LANE":" ","ALLEY":" ","HOUSE_NO":"２１９號","E_COORD97":184250.17000000001,"N_COORD97":2541857.25,"ADDRESS":"新光街２１９號","OBJECTID":586281},"geometry":{"x":184250.16999999899,"y":2541857.2500000019}},{"attributes":{"ID":586309,"DIS_CODE":0,"TOWNNAME":"關廟區","LI":"深坑里","LIN":"11鄰","STREET":"深坑二街","SECT":" ","MAREA":" ","LANE":" ","ALLEY":" ","HOUSE_NO":"９６號","E_COORD97":181600.42000000001,"N_COORD97":2537456.2999999998,"ADDRESS":"深坑二街９６號","OBJECTID":586282},"geometry":{"x":181600.41999999993,"y":2537456.3000000026}},{"attributes":{"ID":586310,"DIS_CODE":0,"TOWNNAME":"關廟區","LI":"深坑里","LIN":"11鄰","STREET":"深坑二街","SECT":" ","MAREA":" ","LANE":" ","ALLEY":" ","HOUSE_NO":"８０號","E_COORD97":181603.92000000001,"N_COORD97":2537500.2999999998,"ADDRESS":"深坑二街８０號","OBJECTID":586283},"geometry":{"x":181603.91999999993,"y":2537500.3000000026}},{"attributes":{"ID":586311,"DIS_CODE":0,"TOWNNAME":"關廟區","LI":"北花里","LIN":"11鄰","STREET":"園中街","SECT":" ","MAREA":" ","LANE":" ","ALLEY":" ","HOUSE_NO":"４５號","E_COORD97":181776.35999999999,"N_COORD97":2540320.25,"ADDRESS":"園中街４５號","OBJECTID":586284},"geometry":{"x":181776.36000000127,"y":2540320.2500000037}},{"attributes":{"ID":586312,"DIS_CODE":0,"TOWNNAME":"關廟區","LI":"埤頭里","LIN":"11鄰","STREET":"關新路","SECT":"二段","MAREA":" ","LANE":" ","ALLEY":" ","HOUSE_NO":"２２７號","E_COORD97":179031.47,"N_COORD97":2544636.2999999998,"ADDRESS":"關新路二段２２７號","OBJECTID":586285},"geometry":{"x":179031.46999999974,"y":2544636.3000000007}},{"attributes":{"ID":586313,"DIS_CODE":0,"TOWNNAME":"關廟區","LI":"香洋里","LIN":"11鄰","STREET":"南雄路","SECT":"二段","MAREA":" ","LANE":" ","ALLEY":" ","HOUSE_NO":"４６號","E_COORD97":181116.64000000001,"N_COORD97":2540122.2799999998,"ADDRESS":"南雄路二段４６號","OBJECTID":586286},"geometry":{"x":181116.63999999966,"y":2540122.2799999993}},{"attributes":{"ID":586314,"DIS_CODE":0,"TOWNNAME":"關廟區","LI":"北花里","LIN":"11鄰","STREET":"園中街","SECT":" ","MAREA":" ","LANE":" ","ALLEY":" ","HOUSE_NO":"２５號","E_COORD97":181767.56,"N_COORD97":2540275.25,"ADDRESS":"園中街２５號","OBJECTID":586287},"geometry":{"x":181767.56000000052,"y":2540275.25}},{"attributes":{"ID":586315,"DIS_CODE":0,"TOWNNAME":"關廟區","LI":"香洋里","LIN":"11鄰","STREET":"南雄路","SECT":"二段","MAREA":" ","LANE":" ","ALLEY":" ","HOUSE_NO":"５８號","E_COORD97":181120.54000000001,"N_COORD97":2540140.2799999998,"ADDRESS":"南雄路二段５８號","OBJECTID":586288},"geometry":{"x":181120.54000000097,"y":2540140.2800000012}},{"attributes":{"ID":586316,"DIS_CODE":0,"TOWNNAME":"關廟區","LI":"香洋里","LIN":"11鄰","STREET":"南雄路","SECT":"二段","MAREA":" ","LANE":" ","ALLEY":" ","HOUSE_NO":"５２號","E_COORD97":181114.69,"N_COORD97":2540133.02,"ADDRESS":"南雄路二段５２號","OBJECTID":586289},"geometry":{"x":181114.69000000134,"y":2540133.0200000014}},{"attributes":{"ID":586317,"DIS_CODE":0,"TOWNNAME":"關廟區","LI":"南花里","LIN":"11鄰","STREET":"四維街","SECT":" ","MAREA":" ","LANE":" ","ALLEY":" ","HOUSE_NO":"１９７號","E_COORD97":181848.16,"N_COORD97":2540083.25,"ADDRESS":"四維街１９７號","OBJECTID":586290},"geometry":{"x":181848.16000000015,"y":2540083.2500000019}},{"attributes":{"ID":586318,"DIS_CODE":0,"TOWNNAME":"關廟區","LI":"北花里","LIN":"11鄰","STREET":"中正路","SECT":" ","MAREA":" ","LANE":" ","ALLEY":" ","HOUSE_NO":"６８６號","E_COORD97":181718.45999999999,"N_COORD97":2540352.25,"ADDRESS":"中正路６８６號","OBJECTID":586291},"geometry":{"x":181718.45999999996,"y":2540352.2500000019}},{"attributes":{"ID":586319,"DIS_CODE":0,"TOWNNAME":"關廟區","LI":"南花里","LIN":"11鄰","STREET":"四維街","SECT":" ","MAREA":" ","LANE":" ","ALLEY":" ","HOUSE_NO":"１７１號","E_COORD97":181852.35999999999,"N_COORD97":2539998.25,"ADDRESS":"四維街１７１號","OBJECTID":586292},"geometry":{"x":181852.3600000022,"y":2539998.2500000037}},{"attributes":{"ID":586320,"DIS_CODE":0,"TOWNNAME":"關廟區","LI":"北花里","LIN":"11鄰","STREET":"中正路","SECT":" ","MAREA":" ","LANE":" ","ALLEY":" ","HOUSE_NO":"６６２號","E_COORD97":181764.85999999999,"N_COORD97":2540379.25,"ADDRESS":"中正路６６２號","OBJECTID":586293},"geometry":{"x":181764.86000000127,"y":2540379.2500000019}},{"attributes":{"ID":586321,"DIS_CODE":0,"TOWNNAME":"關廟區","LI":"五甲里","LIN":"11鄰","STREET":"五甲路","SECT":" ","MAREA":" ","LANE":" ","ALLEY":" ","HOUSE_NO":"２１８號","E_COORD97":181003.07000000001,"N_COORD97":2538919.25,"ADDRESS":"五甲路２１８號","OBJECTID":586294},"geometry":{"x":181003.0700000003,"y":2538919.25}},{"attributes":{"ID":586322,"DIS_CODE":0,"TOWNNAME":"關廟區","LI":"山西里","LIN":"11鄰","STREET":"崇明街","SECT":" ","MAREA":" ","LANE":" ","ALLEY":" ","HOUSE_NO":"１６號","E_COORD97":181062.82000000001,"N_COORD97":2540651.25,"ADDRESS":"崇明街１６號","OBJECTID":586295},"geometry":{"x":181062.82000000123,"y":2540651.25}},{"attributes":{"ID":586323,"DIS_CODE":0,"TOWNNAME":"關廟區","LI":"香洋里","LIN":"11鄰","STREET":"南雄路","SECT":"二段","MAREA":" ","LANE":" ","ALLEY":" ","HOUSE_NO":"７６號","E_COORD97":181127.04000000001,"N_COORD97":2540172.2799999998,"ADDRESS":"南雄路二段７６號","OBJECTID":586296},"geometry":{"x":181127.0400000019,"y":2540172.2799999993}},{"attributes":{"ID":586324,"DIS_CODE":0,"TOWNNAME":"關廟區","LI":"香洋里","LIN":"11鄰","STREET":"南雄路","SECT":"二段","MAREA":" ","LANE":" ","ALLEY":" ","HOUSE_NO":"６８之１號","E_COORD97":181129.14000000001,"N_COORD97":2540165.2999999998,"ADDRESS":"南雄路二段６８之１號","OBJECTID":586297},"geometry":{"x":181129.13999999966,"y":2540165.3000000026}},{"attributes":{"ID":586325,"DIS_CODE":0,"TOWNNAME":"關廟區","LI":"五甲里","LIN":"11鄰","STREET":"大富街","SECT":" ","MAREA":" ","LANE":" ","ALLEY":" ","HOUSE_NO":"３０號","E_COORD97":180982.62,"N_COORD97":2539040.25,"ADDRESS":"大富街３０號","OBJECTID":586298},"geometry":{"x":180982.62000000104,"y":2539040.2500000019}},{"attributes":{"ID":586326,"DIS_CODE":0,"TOWNNAME":"關廟區","LI":"北花里","LIN":"11鄰","STREET":"中正路","SECT":" ","MAREA":" ","LANE":" ","ALLEY":" ","HOUSE_NO":"６７６號","E_COORD97":181733.76000000001,"N_COORD97":2540363.25,"ADDRESS":"中正路６７６號","OBJECTID":586299},"geometry":{"x":181733.75999999885,"y":2540363.25}},{"attributes":{"ID":586327,"DIS_CODE":0,"TOWNNAME":"關廟區","LI":"五甲里","LIN":"11鄰","STREET":"大順路","SECT":" ","MAREA":" ","LANE":" ","ALLEY":" ","HOUSE_NO":"１０號","E_COORD97":180999.51999999999,"N_COORD97":2539028.25,"ADDRESS":"大順路１０號","OBJECTID":586300},"geometry":{"x":180999.52000000142,"y":2539028.25}},{"attributes":{"ID":586328,"DIS_CODE":0,"TOWNNAME":"關廟區","LI":"五甲里","LIN":"11鄰","STREET":"五甲路","SECT":" ","MAREA":" ","LANE":" ","ALLEY":" ","HOUSE_NO":"２２６號","E_COORD97":180993.47,"N_COORD97":2538910.25,"ADDRESS":"五甲路２２６號","OBJECTID":586301},"geometry":{"x":180993.47000000067,"y":2538910.2500000019}},{"attributes":{"ID":586329,"DIS_CODE":0,"TOWNNAME":"關廟區","LI":"關廟里","LIN":"11鄰","STREET":"大富街","SECT":" ","MAREA":" ","LANE":" ","ALLEY":" ","HOUSE_NO":"２９１號","E_COORD97":181039.84,"N_COORD97":2539688.1499999999,"ADDRESS":"大富街２９１號","OBJECTID":586302},"geometry":{"x":181039.83999999985,"y":2539688.1500000022}},{"attributes":{"ID":586330,"DIS_CODE":0,"TOWNNAME":"關廟區","LI":"山西里","LIN":"11鄰","STREET":"崇明街","SECT":" ","MAREA":" ","LANE":" ","ALLEY":" ","HOUSE_NO":"８號","E_COORD97":181066.17000000001,"N_COORD97":2540604.25,"ADDRESS":"崇明街８號","OBJECTID":586303},"geometry":{"x":181066.16999999993,"y":2540604.25}},{"attributes":{"ID":586331,"DIS_CODE":0,"TOWNNAME":"關廟區","LI":"南花里","LIN":"11鄰","STREET":"四維街","SECT":" ","MAREA":" ","LANE":" ","ALLEY":" ","HOUSE_NO":"１８９號","E_COORD97":181850.45999999999,"N_COORD97":2540046.25,"ADDRESS":"四維街１８９號","OBJECTID":586304},"geometry":{"x":181850.46000000089,"y":2540046.2500000019}},{"attributes":{"ID":586332,"DIS_CODE":0,"TOWNNAME":"關廟區","LI":"北花里","LIN":"11鄰","STREET":"園中街","SECT":" ","MAREA":" ","LANE":" ","ALLEY":" ","HOUSE_NO":"４７號","E_COORD97":181777.45999999999,"N_COORD97":2540325.25,"ADDRESS":"園中街４７號","OBJECTID":586305},"geometry":{"x":181777.46000000089,"y":2540325.2500000019}},{"attributes":{"ID":586333,"DIS_CODE":0,"TOWNNAME":"關廟區","LI":"北勢里","LIN":"11鄰","STREET":"成功路","SECT":" ","MAREA":" ","LANE":" ","ALLEY":" ","HOUSE_NO":"２４６號","E_COORD97":181512.76999999999,"N_COORD97":2540495.27,"ADDRESS":"成功路２４６號","OBJECTID":586306},"geometry":{"x":181512.76999999955,"y":2540495.2699999996}},{"attributes":{"ID":586334,"DIS_CODE":0,"TOWNNAME":"關廟區","LI":"南花里","LIN":"11鄰","STREET":"明德街","SECT":" ","MAREA":" ","LANE":" ","ALLEY":" ","HOUSE_NO":"１２號","E_COORD97":181813.14000000001,"N_COORD97":2540086.27,"ADDRESS":"明德街１２號","OBJECTID":586307},"geometry":{"x":181813.1400000006,"y":2540086.2700000014}},{"attributes":{"ID":586335,"DIS_CODE":0,"TOWNNAME":"關廟區","LI":"北花里","LIN":"11鄰","STREET":"中正路","SECT":" ","MAREA":" ","LANE":" ","ALLEY":" ","HOUSE_NO":"６５８號","E_COORD97":181771.35999999999,"N_COORD97":2540375.25,"ADDRESS":"中正路６５８號","OBJECTID":586308},"geometry":{"x":181771.36000000127,"y":2540375.2500000019}},{"attributes":{"ID":586336,"DIS_CODE":0,"TOWNNAME":"關廟區","LI":"東勢里","LIN":"11鄰","STREET":"東榮街","SECT":" ","MAREA":" ","LANE":" ","ALLEY":" ","HOUSE_NO":"４７號","E_COORD97":182028.62,"N_COORD97":2539350.25,"ADDRESS":"東榮街４７號","OBJECTID":586309},"geometry":{"x":182028.62000000104,"y":2539350.25}},{"attributes":{"ID":586337,"DIS_CODE":0,"TOWNNAME":"關廟區","LI":"五甲里","LIN":"11鄰","STREET":"五甲路","SECT":" ","MAREA":" ","LANE":" ","ALLEY":" ","HOUSE_NO":"２１６號","E_COORD97":181006.87,"N_COORD97":2538921.25,"ADDRESS":"五甲路２１６號","OBJECTID":586310},"geometry":{"x":181006.87000000104,"y":2538921.2500000019}},{"attributes":{"ID":586338,"DIS_CODE":0,"TOWNNAME":"關廟區","LI":"南花里","LIN":"11鄰","STREET":"中山路","SECT":"一段","MAREA":" ","LANE":" ","ALLEY":" ","HOUSE_NO":"２６６號","E_COORD97":181802.66,"N_COORD97":2539945.2799999998,"ADDRESS":"中山路一段２６６號","OBJECTID":586311},"geometry":{"x":181802.66000000201,"y":2539945.2799999993}},{"attributes":{"ID":586339,"DIS_CODE":0,"TOWNNAME":"關廟區","LI":"五甲里","LIN":"11鄰","STREET":"五甲路","SECT":" ","MAREA":" ","LANE":" ","ALLEY":" ","HOUSE_NO":"１８２號","E_COORD97":181057.97,"N_COORD97":2538954.25,"ADDRESS":"五甲路１８２號","OBJECTID":586312},"geometry":{"x":181057.97000000067,"y":2538954.2500000019}},{"attributes":{"ID":586340,"DIS_CODE":0,"TOWNNAME":"關廟區","LI":"五甲里","LIN":"11鄰","STREET":"大富街","SECT":" ","MAREA":" ","LANE":" ","ALLEY":" ","HOUSE_NO":"２６號","E_COORD97":180974.51999999999,"N_COORD97":2539037.25,"ADDRESS":"大富街２６號","OBJECTID":586313},"geometry":{"x":180974.52000000048,"y":2539037.25}},{"attributes":{"ID":586341,"DIS_CODE":0,"TOWNNAME":"關廟區","LI":"五甲里","LIN":"11鄰","STREET":"大順路","SECT":" ","MAREA":" ","LANE":" ","ALLEY":" ","HOUSE_NO":"１２號","E_COORD97":181014.42000000001,"N_COORD97":2539001.25,"ADDRESS":"大順路１２號","OBJECTID":586314},"geometry":{"x":181014.42000000086,"y":2539001.2499999981}},{"attributes":{"ID":586342,"DIS_CODE":0,"TOWNNAME":"關廟區","LI":"山西里","LIN":"11鄰","STREET":"南雄路","SECT":"二段","MAREA":" ","LANE":" ","ALLEY":" ","HOUSE_NO":"４０３號","E_COORD97":181132.48999999999,"N_COORD97":2540607.2799999998,"ADDRESS":"南雄路二段４０３號","OBJECTID":586315},"geometry":{"x":181132.49000000022,"y":2540607.2799999975}},{"attributes":{"ID":586343,"DIS_CODE":0,"TOWNNAME":"關廟區","LI":"五甲里","LIN":"11鄰","STREET":"大順路","SECT":" ","MAREA":" ","LANE":" ","ALLEY":" ","HOUSE_NO":"２號","E_COORD97":180992.87,"N_COORD97":2539044.25,"ADDRESS":"大順路２號","OBJECTID":586316},"geometry":{"x":180992.87000000104,"y":2539044.25}},{"attributes":{"ID":586344,"DIS_CODE":0,"TOWNNAME":"關廟區","LI":"五甲里","LIN":"11鄰","STREET":"五甲路","SECT":" ","MAREA":" ","LANE":" ","ALLEY":" ","HOUSE_NO":"１８０號","E_COORD97":181061.37,"N_COORD97":2538999.25,"ADDRESS":"五甲路１８０號","OBJECTID":586317},"geometry":{"x":181061.37000000011,"y":2538999.2500000019}},{"attributes":{"ID":586345,"DIS_CODE":0,"TOWNNAME":"關廟區","LI":"五甲里","LIN":"11鄰","STREET":"大順路","SECT":" ","MAREA":" ","LANE":" ","ALLEY":" ","HOUSE_NO":"８號","E_COORD97":180995.57000000001,"N_COORD97":2539032.25,"ADDRESS":"大順路８號","OBJECTID":586318},"geometry":{"x":180995.57000000123,"y":2539032.2500000019}},{"attributes":{"ID":586346,"DIS_CODE":0,"TOWNNAME":"關廟區","LI":"五甲里","LIN":"11鄰","STREET":"五甲路","SECT":" ","MAREA":" ","LANE":" ","ALLEY":" ","HOUSE_NO":"２３０號","E_COORD97":180986.57000000001,"N_COORD97":2538904.25,"ADDRESS":"五甲路２３０號","OBJECTID":586319},"geometry":{"x":180986.57000000123,"y":2538904.2500000019}},{"attributes":{"ID":586347,"DIS_CODE":0,"TOWNNAME":"關廟區","LI":"山西里","LIN":"11鄰","STREET":"南雄路","SECT":"二段","MAREA":" ","LANE":" ","ALLEY":" ","HOUSE_NO":"５２７號","E_COORD97":180963.98999999999,"N_COORD97":2540897.2799999998,"ADDRESS":"南雄路二段５２７號","OBJECTID":586320},"geometry":{"x":180963.99000000022,"y":2540897.2800000012}},{"attributes":{"ID":586348,"DIS_CODE":0,"TOWNNAME":"關廟區","LI":"山西里","LIN":"11鄰","STREET":"忠孝街","SECT":" ","MAREA":" ","LANE":" ","ALLEY":" ","HOUSE_NO":"２０５號","E_COORD97":181129.64000000001,"N_COORD97":2540587.25,"ADDRESS":"忠孝街２０５號","OBJECTID":586321},"geometry":{"x":181129.6400000006,"y":2540587.25}},{"attributes":{"ID":586349,"DIS_CODE":0,"TOWNNAME":"關廟區","LI":"東勢里","LIN":"11鄰","STREET":"東榮街","SECT":" ","MAREA":" ","LANE":" ","ALLEY":" ","HOUSE_NO":"５９號","E_COORD97":182068.51999999999,"N_COORD97":2539339.25,"ADDRESS":"東榮街５９號","OBJECTID":586322},"geometry":{"x":182068.51999999955,"y":2539339.25}},{"attributes":{"ID":586350,"DIS_CODE":0,"TOWNNAME":"關廟區","LI":"山西里","LIN":"11鄰","STREET":"忠孝街","SECT":" ","MAREA":" ","LANE":" ","ALLEY":" ","HOUSE_NO":"２０３號","E_COORD97":181127.73999999999,"N_COORD97":2540582.25,"ADDRESS":"忠孝街２０３號","OBJECTID":586323},"geometry":{"x":181127.74000000115,"y":2540582.2500000019}},{"attributes":{"ID":586351,"DIS_CODE":0,"TOWNNAME":"關廟區","LI":"山西里","LIN":"11鄰","STREET":"南雄路","SECT":"二段","MAREA":" ","LANE":" ","ALLEY":" ","HOUSE_NO":"４８３號","E_COORD97":181047.69,"N_COORD97":2540757.2799999998,"ADDRESS":"南雄路二段４８３號","OBJECTID":586324},"geometry":{"x":181047.69000000041,"y":2540757.2800000012}},{"attributes":{"ID":586352,"DIS_CODE":0,"TOWNNAME":"關廟區","LI":"五甲里","LIN":"11鄰","STREET":"大順路","SECT":" ","MAREA":" ","LANE":" ","ALLEY":" ","HOUSE_NO":"６號","E_COORD97":180993.67000000001,"N_COORD97":2539037.25,"ADDRESS":"大順路６號","OBJECTID":586325},"geometry":{"x":180993.66999999899,"y":2539037.25}},{"attributes":{"ID":586353,"DIS_CODE":0,"TOWNNAME":"關廟區","LI":"山西里","LIN":"11鄰","STREET":"南雄路","SECT":"二段","MAREA":" ","LANE":" ","ALLEY":" ","HOUSE_NO":"４１３號","E_COORD97":181117.89000000001,"N_COORD97":2540640.2799999998,"ADDRESS":"南雄路二段４１３號","OBJECTID":586326},"geometry":{"x":181117.8900000006,"y":2540640.2799999993}},{"attributes":{"ID":586354,"DIS_CODE":0,"TOWNNAME":"關廟區","LI":"松腳里","LIN":"11鄰","STREET":"和平路","SECT":" ","MAREA":" ","LANE":" ","ALLEY":" ","HOUSE_NO":"１９８號","E_COORD97":181697.44,"N_COORD97":2539681.25,"ADDRESS":"和平路１９８號","OBJECTID":586327},"geometry":{"x":181697.44000000041,"y":2539681.25}},{"attributes":{"ID":586355,"DIS_CODE":0,"TOWNNAME":"中西區","LI":"郡西里","LIN":"6鄰","STREET":"大智街","SECT":" ","MAREA":" ","LANE":" ","ALLEY":" ","HOUSE_NO":"１０５號","E_COORD97":167276.85000000001,"N_COORD97":2543357.1699999999,"ADDRESS":"大智街１０５號","OBJECTID":586328},"geometry":{"x":167276.85000000056,"y":2543357.1699999999}},{"attributes":{"ID":586356,"DIS_CODE":0,"TOWNNAME":"中西區","LI":"郡西里","LIN":"6鄰","STREET":"大智街","SECT":" ","MAREA":" ","LANE":" ","ALLEY":" ","HOUSE_NO":"１０７號","E_COORD97":167276.04999999999,"N_COORD97":2543353.7799999998,"ADDRESS":"大智街１０７號","OBJECTID":586329},"geometry":{"x":167276.05000000075,"y":2543353.7800000031}},{"attributes":{"ID":586357,"DIS_CODE":0,"TOWNNAME":"中西區","LI":"郡西里","LIN":"6鄰","STREET":"大智街","SECT":" ","MAREA":" ","LANE":" ","ALLEY":" ","HOUSE_NO":"１０９號","E_COORD97":167275.42999999999,"N_COORD97":2543349.7799999998,"ADDRESS":"大智街１０９號","OBJECTID":586330},"geometry":{"x":167275.4299999997,"y":2543349.7799999993}},{"attributes":{"ID":586358,"DIS_CODE":0,"TOWNNAME":"北區","LI":"勝安里","LIN":"11鄰","STREET":"開元路","SECT":" ","MAREA":" ","LANE":" ","ALLEY":" ","HOUSE_NO":"２１９號","E_COORD97":170051.94,"N_COORD97":2545320.4399999999,"ADDRESS":"開元路２１９號","OBJECTID":586331},"geometry":{"x":170051.94000000134,"y":2545320.4400000013}},{"attributes":{"ID":586359,"DIS_CODE":0,"TOWNNAME":"北區","LI":"長榮里","LIN":"11鄰","STREET":"長榮路","SECT":"五段","MAREA":" ","LANE":" ","ALLEY":" ","HOUSE_NO":"２１號","E_COORD97":170100.97,"N_COORD97":2545411.77,"ADDRESS":"長榮路五段２１號","OBJECTID":586332},"geometry":{"x":170100.96999999974,"y":2545411.7699999977}},{"attributes":{"ID":586360,"DIS_CODE":0,"TOWNNAME":"北區","LI":"長榮里","LIN":"11鄰","STREET":"長榮路","SECT":"五段","MAREA":" ","LANE":" ","ALLEY":" ","HOUSE_NO":"２３號","E_COORD97":170100.01999999999,"N_COORD97":2545417.6400000001,"ADDRESS":"長榮路五段２３號","OBJECTID":586333},"geometry":{"x":170100.02000000048,"y":2545417.6400000043}},{"attributes":{"ID":586361,"DIS_CODE":0,"TOWNNAME":"北區","LI":"長榮里","LIN":"11鄰","STREET":"長榮路","SECT":"五段","MAREA":" ","LANE":" ","ALLEY":" ","HOUSE_NO":"２５號","E_COORD97":170098.89999999999,"N_COORD97":2545423.3599999999,"ADDRESS":"長榮路五段２５號","OBJECTID":586334},"geometry":{"x":170098.90000000037,"y":2545423.3599999994}},{"attributes":{"ID":586362,"DIS_CODE":0,"TOWNNAME":"北區","LI":"長榮里","LIN":"11鄰","STREET":"長榮路","SECT":"五段","MAREA":" ","LANE":" ","ALLEY":" ","HOUSE_NO":"２７號","E_COORD97":170097.63,"N_COORD97":2545430.1899999999,"ADDRESS":"長榮路五段２７號","OBJECTID":586335},"geometry":{"x":170097.63000000082,"y":2545430.1900000013}},{"attributes":{"ID":586363,"DIS_CODE":0,"TOWNNAME":"北區","LI":"長榮里","LIN":"11鄰","STREET":"長榮路","SECT":"五段","MAREA":" ","LANE":" ","ALLEY":" ","HOUSE_NO":"２９號","E_COORD97":170097.32000000001,"N_COORD97":2545436.54,"ADDRESS":"長榮路五段２９號","OBJECTID":586336},"geometry":{"x":170097.32000000123,"y":2545436.5399999991}},{"attributes":{"ID":586364,"DIS_CODE":0,"TOWNNAME":"南區","LI":"松安里","LIN":"11鄰","STREET":"灣裡路","SECT":" ","MAREA":" ","LANE":" ","ALLEY":" ","HOUSE_NO":"４２０號","E_COORD97":166202.92999999999,"N_COORD97":2536125.3100000001,"ADDRESS":"灣裡路４２０號","OBJECTID":586337},"geometry":{"x":166202.93000000156,"y":2536125.3100000005}},{"attributes":{"ID":586365,"DIS_CODE":0,"TOWNNAME":"南區","LI":"松安里","LIN":"11鄰","STREET":"灣裡路","SECT":" ","MAREA":" ","LANE":" ","ALLEY":" ","HOUSE_NO":"４２０號之１","E_COORD97":166204.76000000001,"N_COORD97":2536120.29,"ADDRESS":"灣裡路４２０號之１","OBJECTID":586338},"geometry":{"x":166204.76000000071,"y":2536120.2899999991}},{"attributes":{"ID":586366,"DIS_CODE":0,"TOWNNAME":"南區","LI":"松安里","LIN":"11鄰","STREET":"灣裡路","SECT":" ","MAREA":" ","LANE":" ","ALLEY":" ","HOUSE_NO":"４２２號","E_COORD97":166205.82000000001,"N_COORD97":2536115.4300000002,"ADDRESS":"灣裡路４２２號","OBJECTID":586339},"geometry":{"x":166205.8200000003,"y":2536115.4300000016}},{"attributes":{"ID":586367,"DIS_CODE":0,"TOWNNAME":"南區","LI":"松安里","LIN":"11鄰","STREET":"灣裡路","SECT":" ","MAREA":" ","LANE":" ","ALLEY":" ","HOUSE_NO":"４２６之１號","E_COORD97":166207.79999999999,"N_COORD97":2536106,"ADDRESS":"灣裡路４２６之１號","OBJECTID":586340},"geometry":{"x":166207.80000000075,"y":2536106.0000000019}},{"attributes":{"ID":586368,"DIS_CODE":0,"TOWNNAME":"南區","LI":"松安里","LIN":"11鄰","STREET":"灣裡路","SECT":" ","MAREA":" ","LANE":" ","ALLEY":" ","HOUSE_NO":"４２６號","E_COORD97":166206.57999999999,"N_COORD97":2536110.8700000001,"ADDRESS":"灣裡路４２６號","OBJECTID":586341},"geometry":{"x":166206.58000000101,"y":2536110.8700000029}},{"attributes":{"ID":586369,"DIS_CODE":0,"TOWNNAME":"南區","LI":"松安里","LIN":"11鄰","STREET":"灣裡路","SECT":" ","MAREA":" ","LANE":" ","ALLEY":" ","HOUSE_NO":"４２８號","E_COORD97":166208.56,"N_COORD97":2536100.98,"ADDRESS":"灣裡路４２８號","OBJECTID":586342},"geometry":{"x":166208.55999999959,"y":2536100.9800000004}},{"attributes":{"ID":586370,"DIS_CODE":0,"TOWNNAME":"南區","LI":"松安里","LIN":"11鄰","STREET":"灣裡路","SECT":" ","MAREA":" ","LANE":" ","ALLEY":" ","HOUSE_NO":"４３０號","E_COORD97":166209.78,"N_COORD97":2536095.6600000001,"ADDRESS":"灣裡路４３０號","OBJECTID":586343},"geometry":{"x":166209.78000000212,"y":2536095.6600000001}},{"attributes":{"ID":586371,"DIS_CODE":0,"TOWNNAME":"南區","LI":"松安里","LIN":"11鄰","STREET":"灣裡路","SECT":" ","MAREA":" ","LANE":" ","ALLEY":" ","HOUSE_NO":"４３２號","E_COORD97":166210.84,"N_COORD97":2536089.8799999999,"ADDRESS":"灣裡路４３２號","OBJECTID":586344},"geometry":{"x":166210.84000000078,"y":2536089.879999999}},{"attributes":{"ID":586372,"DIS_CODE":0,"TOWNNAME":"東山區","LI":"東山里","LIN":"11鄰","STREET":"中興路","SECT":" ","MAREA":" ","LANE":" ","ALLEY":" ","HOUSE_NO":"１７１號","E_COORD97":188956.85999999999,"N_COORD97":2580464.8100000001,"ADDRESS":"中興路１７１號","OBJECTID":586345},"geometry":{"x":188956.8599999994,"y":2580464.8100000005}},{"attributes":{"ID":586373,"DIS_CODE":0,"TOWNNAME":"東山區","LI":"東山里","LIN":"11鄰","STREET":"中興路","SECT":" ","MAREA":" ","LANE":" ","ALLEY":" ","HOUSE_NO":"１７３號","E_COORD97":188956.78,"N_COORD97":2580469.8799999999,"ADDRESS":"中興路１７３號","OBJECTID":586346},"geometry":{"x":188956.78000000026,"y":2580469.879999999}},{"attributes":{"ID":586374,"DIS_CODE":0,"TOWNNAME":"東山區","LI":"東山里","LIN":"11鄰","STREET":"中興路","SECT":" ","MAREA":" ","LANE":" ","ALLEY":" ","HOUSE_NO":"１７５號","E_COORD97":188958.29999999999,"N_COORD97":2580475.6499999999,"ADDRESS":"中興路１７５號","OBJECTID":586347},"geometry":{"x":188958.29999999981,"y":2580475.6500000004}},{"attributes":{"ID":586375,"DIS_CODE":0,"TOWNNAME":"新營區","LI":"新東里","LIN":"11鄰","STREET":"東泰八街","SECT":" ","MAREA":" ","LANE":" ","ALLEY":" ","HOUSE_NO":"２２號","E_COORD97":181206.14000000001,"N_COORD97":2579735.4199999999,"ADDRESS":"東泰八街２２號","OBJECTID":586348},"geometry":{"x":181206.1400000006,"y":2579735.4199999981}},{"attributes":{"ID":586376,"DIS_CODE":0,"TOWNNAME":"新營區","LI":"新東里","LIN":"11鄰","STREET":"東泰八街","SECT":" ","MAREA":" ","LANE":" ","ALLEY":" ","HOUSE_NO":"２９號","E_COORD97":181201.13,"N_COORD97":2579756.48,"ADDRESS":"東泰八街２９號","OBJECTID":586349},"geometry":{"x":181201.13000000082,"y":2579756.4800000023}},{"attributes":{"ID":586377,"DIS_CODE":0,"TOWNNAME":"新營區","LI":"民榮里","LIN":"11鄰","STREET":"復興路","SECT":" ","MAREA":" ","LANE":" ","ALLEY":" ","HOUSE_NO":"１５１之２號","E_COORD97":179227.62,"N_COORD97":2578009.4399999999,"ADDRESS":"復興路１５１之２號","OBJECTID":586350},"geometry":{"x":179227.62000000011,"y":2578009.4400000032}},{"attributes":{"ID":586378,"DIS_CODE":0,"TOWNNAME":"新營區","LI":"永生里","LIN":"11鄰","STREET":"新進路","SECT":" ","MAREA":" ","LANE":" ","ALLEY":" ","HOUSE_NO":"３０２號","E_COORD97":180026.42000000001,"N_COORD97":2577852.75,"ADDRESS":"新進路３０２號","OBJECTID":586351},"geometry":{"x":180026.42000000086,"y":2577852.7500000019}},{"attributes":{"ID":586379,"DIS_CODE":0,"TOWNNAME":"新營區","LI":"新東里","LIN":"11鄰","STREET":"東仁街","SECT":" ","MAREA":" ","LANE":" ","ALLEY":" ","HOUSE_NO":"７１號","E_COORD97":181291.87,"N_COORD97":2579704.02,"ADDRESS":"東仁街７１號","OBJECTID":586352},"geometry":{"x":181291.87000000011,"y":2579704.0200000033}},{"attributes":{"ID":586380,"DIS_CODE":0,"TOWNNAME":"新營區","LI":"新東里","LIN":"11鄰","STREET":"東泰八街","SECT":" ","MAREA":" ","LANE":" ","ALLEY":" ","HOUSE_NO":"２０號","E_COORD97":181201.03,"N_COORD97":2579735.4399999999,"ADDRESS":"東泰八街２０號","OBJECTID":586353},"geometry":{"x":181201.03000000119,"y":2579735.4400000013}},{"attributes":{"ID":586381,"DIS_CODE":0,"TOWNNAME":"新營區","LI":"新東里","LIN":"11鄰","STREET":"東仁街","SECT":" ","MAREA":" ","LANE":" ","ALLEY":" ","HOUSE_NO":"７３號","E_COORD97":181292.91,"N_COORD97":2579708.4399999999,"ADDRESS":"東仁街７３號","OBJECTID":586354},"geometry":{"x":181292.91000000108,"y":2579708.4400000013}},{"attributes":{"ID":586382,"DIS_CODE":0,"TOWNNAME":"新營區","LI":"嘉芳里","LIN":"11鄰","STREET":"復興路","SECT":" ","MAREA":" ","LANE":" ","ALLEY":" ","HOUSE_NO":"８１９號","E_COORD97":177073.85000000001,"N_COORD97":2578594.5899999999,"ADDRESS":"復興路８１９號","OBJECTID":586355},"geometry":{"x":177073.84999999963,"y":2578594.5899999999}},{"attributes":{"ID":586383,"DIS_CODE":0,"TOWNNAME":"新營區","LI":"新東里","LIN":"11鄰","STREET":"東泰八街","SECT":" ","MAREA":" ","LANE":" ","ALLEY":" ","HOUSE_NO":"１７號","E_COORD97":181176.51000000001,"N_COORD97":2579756.6000000001,"ADDRESS":"東泰八街１７號","OBJECTID":586356},"geometry":{"x":181176.51000000071,"y":2579756.5999999996}},{"attributes":{"ID":586384,"DIS_CODE":0,"TOWNNAME":"新營區","LI":"新東里","LIN":"11鄰","STREET":"東泰八街","SECT":" ","MAREA":" ","LANE":" ","ALLEY":" ","HOUSE_NO":"１４號","E_COORD97":181188.69,"N_COORD97":2579736.6099999999,"ADDRESS":"東泰八街１４號","OBJECTID":586357},"geometry":{"x":181188.69000000041,"y":2579736.6099999994}},{"attributes":{"ID":586385,"DIS_CODE":0,"TOWNNAME":"新營區","LI":"新東里","LIN":"11鄰","STREET":"東泰八街","SECT":" ","MAREA":" ","LANE":" ","ALLEY":" ","HOUSE_NO":"１５號","E_COORD97":181171.39999999999,"N_COORD97":2579756.6200000001,"ADDRESS":"東泰八街１５號","OBJECTID":586358},"geometry":{"x":181171.4000000013,"y":2579756.6200000029}},{"attributes":{"ID":586386,"DIS_CODE":0,"TOWNNAME":"新營區","LI":"興安里","LIN":"11鄰","STREET":"新進路","SECT":" ","MAREA":" ","LANE":" ","ALLEY":" ","HOUSE_NO":"３２５號","E_COORD97":179898.17000000001,"N_COORD97":2577772.5099999998,"ADDRESS":"新進路３２５號","OBJECTID":586359},"geometry":{"x":179898.16999999993,"y":2577772.5100000016}},{"attributes":{"ID":586387,"DIS_CODE":0,"TOWNNAME":"新營區","LI":"永生里","LIN":"11鄰","STREET":"新進路","SECT":" ","MAREA":" ","LANE":" ","ALLEY":" ","HOUSE_NO":"２８８號","E_COORD97":180058.17000000001,"N_COORD97":2577865.8900000001,"ADDRESS":"新進路２８８號","OBJECTID":586360},"geometry":{"x":180058.17000000179,"y":2577865.8900000025}},{"attributes":{"ID":586388,"DIS_CODE":0,"TOWNNAME":"新營區","LI":"新東里","LIN":"11鄰","STREET":"東泰八街","SECT":" ","MAREA":" ","LANE":" ","ALLEY":" ","HOUSE_NO":"２３號","E_COORD97":181188.85000000001,"N_COORD97":2579756.54,"ADDRESS":"東泰八街２３號","OBJECTID":586361},"geometry":{"x":181188.85000000149,"y":2579756.5399999991}},{"attributes":{"ID":586389,"DIS_CODE":0,"TOWNNAME":"新營區","LI":"新東里","LIN":"11鄰","STREET":"東泰八街","SECT":" ","MAREA":" ","LANE":" ","ALLEY":" ","HOUSE_NO":"１９號","E_COORD97":181180.60000000001,"N_COORD97":2579756.5800000001,"ADDRESS":"東泰八街１９號","OBJECTID":586362},"geometry":{"x":181180.60000000056,"y":2579756.5800000019}},{"attributes":{"ID":586390,"DIS_CODE":0,"TOWNNAME":"新營區","LI":"新東里","LIN":"11鄰","STREET":"東泰八街","SECT":" ","MAREA":" ","LANE":" ","ALLEY":" ","HOUSE_NO":"２１號","E_COORD97":181184.76000000001,"N_COORD97":2579756.5600000001,"ADDRESS":"東泰八街２１號","OBJECTID":586363},"geometry":{"x":181184.76000000071,"y":2579756.5600000024}},{"attributes":{"ID":586391,"DIS_CODE":0,"TOWNNAME":"新營區","LI":"新南里","LIN":"11鄰","STREET":"新北七街","SECT":" ","MAREA":" ","LANE":" ","ALLEY":" ","HOUSE_NO":"３５號","E_COORD97":178516.62,"N_COORD97":2579173.3999999999,"ADDRESS":"新北七街３５號","OBJECTID":586364},"geometry":{"x":178516.62000000104,"y":2579173.4000000041}},{"attributes":{"ID":586392,"DIS_CODE":0,"TOWNNAME":"新營區","LI":"新南里","LIN":"11鄰","STREET":"新北七街","SECT":" ","MAREA":" ","LANE":" ","ALLEY":" ","HOUSE_NO":"２９號","E_COORD97":178524.82000000001,"N_COORD97":2579182.2200000002,"ADDRESS":"新北七街２９號","OBJECTID":586365},"geometry":{"x":178524.8200000003,"y":2579182.2200000025}},{"attributes":{"ID":586393,"DIS_CODE":0,"TOWNNAME":"新營區","LI":"新南里","LIN":"11鄰","STREET":"新北七街","SECT":" ","MAREA":" ","LANE":" ","ALLEY":" ","HOUSE_NO":"３１號","E_COORD97":178522.79000000001,"N_COORD97":2579178.9100000001,"ADDRESS":"新北七街３１號","OBJECTID":586366},"geometry":{"x":178522.79000000004,"y":2579178.9100000001}},{"attributes":{"ID":586394,"DIS_CODE":0,"TOWNNAME":"新營區","LI":"新南里","LIN":"11鄰","STREET":"新北七街","SECT":" ","MAREA":" ","LANE":" ","ALLEY":" ","HOUSE_NO":"５１號","E_COORD97":178491.89999999999,"N_COORD97":2579152.48,"ADDRESS":"新北七街５１號","OBJECTID":586367},"geometry":{"x":178491.90000000037,"y":2579152.4800000042}},{"attributes":{"ID":586395,"DIS_CODE":0,"TOWNNAME":"新營區","LI":"忠政里","LIN":"11鄰","STREET":"中正路","SECT":" ","MAREA":" ","LANE":" ","ALLEY":" ","HOUSE_NO":"４５之１號","E_COORD97":180082.22,"N_COORD97":2579443.9500000002,"ADDRESS":"中正路４５之１號","OBJECTID":586368},"geometry":{"x":180082.21999999974,"y":2579443.9500000011}},{"attributes":{"ID":586396,"DIS_CODE":0,"TOWNNAME":"新營區","LI":"三仙里","LIN":"11鄰","STREET":"中華路","SECT":" ","MAREA":" ","LANE":" ","ALLEY":" ","HOUSE_NO":"４６號","E_COORD97":179652.64000000001,"N_COORD97":2578245.4500000002,"ADDRESS":"中華路４６號","OBJECTID":586369},"geometry":{"x":179652.63999999966,"y":2578245.4499999993}},{"attributes":{"ID":586397,"DIS_CODE":0,"TOWNNAME":"新營區","LI":"新南里","LIN":"11鄰","STREET":"新北七街","SECT":" ","MAREA":" ","LANE":" ","ALLEY":" ","HOUSE_NO":"４１號","E_COORD97":178507.37,"N_COORD97":2579165.6899999999,"ADDRESS":"新北七街４１號","OBJECTID":586370},"geometry":{"x":178507.36999999918,"y":2579165.6899999995}},{"attributes":{"ID":586398,"DIS_CODE":0,"TOWNNAME":"新營區","LI":"新南里","LIN":"11鄰","STREET":"新北七街","SECT":" ","MAREA":" ","LANE":" ","ALLEY":" ","HOUSE_NO":"４３號","E_COORD97":178504.28,"N_COORD97":2579162.3799999999,"ADDRESS":"新北七街４３號","OBJECTID":586371},"geometry":{"x":178504.28000000026,"y":2579162.3800000008}},{"attributes":{"ID":586399,"DIS_CODE":0,"TOWNNAME":"新營區","LI":"南紙里","LIN":"11鄰","STREET":"太子路","SECT":" ","MAREA":" ","LANE":" ","ALLEY":" ","HOUSE_NO":"２０２之１號","E_COORD97":177900.34,"N_COORD97":2577875.1899999999,"ADDRESS":"太子路２０２之１號","OBJECTID":586372},"geometry":{"x":177900.33999999985,"y":2577875.1899999976}},{"attributes":{"ID":586400,"DIS_CODE":0,"TOWNNAME":"新營區","LI":"新東里","LIN":"11鄰","STREET":"東泰路","SECT":" ","MAREA":" ","LANE":" ","ALLEY":" ","HOUSE_NO":"３０號","E_COORD97":181132.20000000001,"N_COORD97":2579667.1099999999,"ADDRESS":"東泰路３０號","OBJECTID":586373},"geometry":{"x":181132.20000000019,"y":2579667.1100000013}},{"attributes":{"ID":586401,"DIS_CODE":0,"TOWNNAME":"新營區","LI":"南紙里","LIN":"11鄰","STREET":"太子路","SECT":" ","MAREA":" ","LANE":" ","ALLEY":" ","HOUSE_NO":"２１４號","E_COORD97":177849.62,"N_COORD97":2577845.48,"ADDRESS":"太子路２１４號","OBJECTID":586374},"geometry":{"x":177849.62000000011,"y":2577845.4800000023}},{"attributes":{"ID":586402,"DIS_CODE":0,"TOWNNAME":"新營區","LI":"南紙里","LIN":"11鄰","STREET":"太子路","SECT":" ","MAREA":" ","LANE":" ","ALLEY":" ","HOUSE_NO":"２０６號","E_COORD97":177883.47,"N_COORD97":2577865.2400000002,"ADDRESS":"太子路２０６號","OBJECTID":586375},"geometry":{"x":177883.46999999974,"y":2577865.2400000002}},{"attributes":{"ID":586403,"DIS_CODE":0,"TOWNNAME":"東山區","LI":"東中里","LIN":"11鄰","STREET":"永和街","SECT":" ","MAREA":" ","LANE":" ","ALLEY":" ","HOUSE_NO":"５號之１","E_COORD97":188755.32000000001,"N_COORD97":2579676.3100000001,"ADDRESS":"永和街５號之１","OBJECTID":586376},"geometry":{"x":188755.31999999937,"y":2579676.3100000024}},{"attributes":{"ID":586404,"DIS_CODE":0,"TOWNNAME":"東山區","LI":"東中里","LIN":"11鄰","STREET":"永和街","SECT":" ","MAREA":" ","LANE":" ","ALLEY":" ","HOUSE_NO":"５號","E_COORD97":188749.47,"N_COORD97":2579663.9199999999,"ADDRESS":"永和街５號","OBJECTID":586377},"geometry":{"x":188749.47000000067,"y":2579663.9199999999}},{"attributes":{"ID":586405,"DIS_CODE":0,"TOWNNAME":"鹽水區","LI":"中境里","LIN":"11鄰","STREET":"三福路","SECT":" ","MAREA":" ","LANE":" ","ALLEY":" ","HOUSE_NO":"６３之１號","E_COORD97":174672.73999999999,"N_COORD97":2580133.1800000002,"ADDRESS":"三福路６３之１號","OBJECTID":586378},"geometry":{"x":174672.74000000115,"y":2580133.1799999997}},{"attributes":{"ID":586406,"DIS_CODE":0,"TOWNNAME":"鹽水區","LI":"中境里","LIN":"11鄰","STREET":"三福路","SECT":" ","MAREA":" ","LANE":" ","ALLEY":" ","HOUSE_NO":"６３號","E_COORD97":174637.39000000001,"N_COORD97":2580083.5,"ADDRESS":"三福路６３號","OBJECTID":586379},"geometry":{"x":174637.3900000006,"y":2580083.5}},{"attributes":{"ID":586407,"DIS_CODE":0,"TOWNNAME":"鹽水區","LI":"中境里","LIN":"11鄰","STREET":"三福路","SECT":" ","MAREA":" ","LANE":" ","ALLEY":" ","HOUSE_NO":"６５號之１","E_COORD97":174636.32000000001,"N_COORD97":2580142.1899999999,"ADDRESS":"三福路６５號之１","OBJECTID":586380},"geometry":{"x":174636.32000000216,"y":2580142.1899999995}},{"attributes":{"ID":586408,"DIS_CODE":0,"TOWNNAME":"鹽水區","LI":"中境里","LIN":"11鄰","STREET":"三福路","SECT":" ","MAREA":" ","LANE":" ","ALLEY":" ","HOUSE_NO":"６５之３號","E_COORD97":174638.44,"N_COORD97":2580172.77,"ADDRESS":"三福路６５之３號","OBJECTID":586381},"geometry":{"x":174638.44000000041,"y":2580172.7699999996}},{"attributes":{"ID":586409,"DIS_CODE":0,"TOWNNAME":"鹽水區","LI":"中境里","LIN":"11鄰","STREET":"三福路","SECT":" ","MAREA":" ","LANE":" ","ALLEY":" ","HOUSE_NO":"６５號之５","E_COORD97":174637.12,"N_COORD97":2580161.7799999998,"ADDRESS":"三福路６５號之５","OBJECTID":586382},"geometry":{"x":174637.12000000011,"y":2580161.7799999993}},{"attributes":{"ID":586410,"DIS_CODE":0,"TOWNNAME":"鹽水區","LI":"中境里","LIN":"11鄰","STREET":"三福路","SECT":" ","MAREA":" ","LANE":" ","ALLEY":" ","HOUSE_NO":"６５號","E_COORD97":174639.51000000001,"N_COORD97":2580180.3799999999,"ADDRESS":"三福路６５號","OBJECTID":586383},"geometry":{"x":174639.51000000164,"y":2580180.3800000008}},{"attributes":{"ID":586411,"DIS_CODE":0,"TOWNNAME":"鹽水區","LI":"中境里","LIN":"11鄰","STREET":"三福路","SECT":" ","MAREA":" ","LANE":" ","ALLEY":" ","HOUSE_NO":"６７號","E_COORD97":174644.85000000001,"N_COORD97":2580189.29,"ADDRESS":"三福路６７號","OBJECTID":586384},"geometry":{"x":174644.84999999963,"y":2580189.2899999991}},{"attributes":{"ID":586412,"DIS_CODE":0,"TOWNNAME":"鹽水區","LI":"中境里","LIN":"11鄰","STREET":"三福路","SECT":" ","MAREA":" ","LANE":" ","ALLEY":" ","HOUSE_NO":"６９之１號","E_COORD97":174614.20000000001,"N_COORD97":2580225.6600000001,"ADDRESS":"三福路６９之１號","OBJECTID":586385},"geometry":{"x":174614.20000000019,"y":2580225.6600000039}},{"attributes":{"ID":586413,"DIS_CODE":0,"TOWNNAME":"鹽水區","LI":"中境里","LIN":"11鄰","STREET":"三福路","SECT":" ","MAREA":" ","LANE":" ","ALLEY":" ","HOUSE_NO":"６９號","E_COORD97":174630.56,"N_COORD97":2580238.4399999999,"ADDRESS":"三福路６９號","OBJECTID":586386},"geometry":{"x":174630.56000000145,"y":2580238.4399999995}},{"attributes":{"ID":586414,"DIS_CODE":0,"TOWNNAME":"鹽水區","LI":"中境里","LIN":"11鄰","STREET":"三福路","SECT":" ","MAREA":" ","LANE":" ","ALLEY":" ","HOUSE_NO":"７１之１號","E_COORD97":174618.66,"N_COORD97":2580289.4100000001,"ADDRESS":"三福路７１之１號","OBJECTID":586387},"geometry":{"x":174618.66000000108,"y":2580289.410000002}},{"attributes":{"ID":586415,"DIS_CODE":0,"TOWNNAME":"鹽水區","LI":"中境里","LIN":"11鄰","STREET":"三福路","SECT":" ","MAREA":" ","LANE":" ","ALLEY":" ","HOUSE_NO":"７３之１０號","E_COORD97":174553.37,"N_COORD97":2580120.2999999998,"ADDRESS":"三福路７３之１０號","OBJECTID":586388},"geometry":{"x":174553.37000000104,"y":2580120.3000000045}},{"attributes":{"ID":586416,"DIS_CODE":0,"TOWNNAME":"鹽水區","LI":"中境里","LIN":"11鄰","STREET":"三福路","SECT":" ","MAREA":" ","LANE":" ","ALLEY":" ","HOUSE_NO":"７３之１１號","E_COORD97":174553.17999999999,"N_COORD97":2580124.9700000002,"ADDRESS":"三福路７３之１１號","OBJECTID":586389},"geometry":{"x":174553.1799999997,"y":2580124.9700000007}},{"attributes":{"ID":586417,"DIS_CODE":0,"TOWNNAME":"鹽水區","LI":"中境里","LIN":"11鄰","STREET":"三福路","SECT":" ","MAREA":" ","LANE":" ","ALLEY":" ","HOUSE_NO":"７３號之１２","E_COORD97":174552.98000000001,"N_COORD97":2580129.6400000001,"ADDRESS":"三福路７３號之１２","OBJECTID":586390},"geometry":{"x":174552.98000000138,"y":2580129.6400000025}},{"attributes":{"ID":586418,"DIS_CODE":0,"TOWNNAME":"永康區","LI":"王行里","LIN":"14鄰","STREET":"興工路","SECT":" ","MAREA":" ","LANE":" ","ALLEY":" ","HOUSE_NO":"２號","E_COORD97":175580.64000000001,"N_COORD97":2549454.98,"ADDRESS":"興工路２號","OBJECTID":586391},"geometry":{"x":175580.63999999966,"y":2549454.9800000004}},{"attributes":{"ID":586419,"DIS_CODE":0,"TOWNNAME":"鹽水區","LI":"中境里","LIN":"11鄰","STREET":"三福路","SECT":" ","MAREA":" ","LANE":" ","ALLEY":" ","HOUSE_NO":"７３之１３號","E_COORD97":174552.79000000001,"N_COORD97":2580134.3199999998,"ADDRESS":"三福路７３之１３號","OBJECTID":586392},"geometry":{"x":174552.79000000004,"y":2580134.3200000022}},{"attributes":{"ID":586420,"DIS_CODE":0,"TOWNNAME":"鹽水區","LI":"中境里","LIN":"11鄰","STREET":"三福路","SECT":" ","MAREA":" ","LANE":" ","ALLEY":" ","HOUSE_NO":"７３號之１４","E_COORD97":174552.60000000001,"N_COORD97":2580138.9900000002,"ADDRESS":"三福路７３號之１４","OBJECTID":586393},"geometry":{"x":174552.60000000056,"y":2580138.9900000039}},{"attributes":{"ID":586421,"DIS_CODE":0,"TOWNNAME":"鹽水區","LI":"中境里","LIN":"11鄰","STREET":"三福路","SECT":" ","MAREA":" ","LANE":" ","ALLEY":" ","HOUSE_NO":"７３之１５號","E_COORD97":174563.66,"N_COORD97":2580161.25,"ADDRESS":"三福路７３之１５號","OBJECTID":586394},"geometry":{"x":174563.66000000015,"y":2580161.2500000019}},{"attributes":{"ID":586422,"DIS_CODE":0,"TOWNNAME":"鹽水區","LI":"中境里","LIN":"11鄰","STREET":"三福路","SECT":" ","MAREA":" ","LANE":" ","ALLEY":" ","HOUSE_NO":"７３號之１５","E_COORD97":174563.66,"N_COORD97":2580161.25,"ADDRESS":"三福路７３號之１５","OBJECTID":586395},"geometry":{"x":174563.66000000015,"y":2580161.2500000019}},{"attributes":{"ID":586423,"DIS_CODE":0,"TOWNNAME":"鹽水區","LI":"中境里","LIN":"11鄰","STREET":"三福路","SECT":" ","MAREA":" ","LANE":" ","ALLEY":" ","HOUSE_NO":"７３之１６號","E_COORD97":174559.44,"N_COORD97":2580162.2200000002,"ADDRESS":"三福路７３之１６號","OBJECTID":586396},"geometry":{"x":174559.44000000134,"y":2580162.2200000025}},{"attributes":{"ID":586424,"DIS_CODE":0,"TOWNNAME":"鹽水區","LI":"中境里","LIN":"11鄰","STREET":"三福路","SECT":" ","MAREA":" ","LANE":" ","ALLEY":" ","HOUSE_NO":"７３之１７號","E_COORD97":174555.22,"N_COORD97":2580163.2000000002,"ADDRESS":"三福路７３之１７號","OBJECTID":586397},"geometry":{"x":174555.22000000067,"y":2580163.1999999993}},{"attributes":{"ID":586425,"DIS_CODE":0,"TOWNNAME":"中西區","LI":"保安里","LIN":"13鄰","STREET":"中正路","SECT":" ","MAREA":" ","LANE":" ","ALLEY":" ","HOUSE_NO":"２７３號","E_COORD97":167617.75,"N_COORD97":2543738.3599999999,"ADDRESS":"中正路２７３號","OBJECTID":586398},"geometry":{"x":167617.75,"y":2543738.3599999994}},{"attributes":{"ID":586426,"DIS_CODE":0,"TOWNNAME":"鹽水區","LI":"中境里","LIN":"11鄰","STREET":"三福路","SECT":" ","MAREA":" ","LANE":" ","ALLEY":" ","HOUSE_NO":"７３之１８號","E_COORD97":174551,"N_COORD97":2580164.1800000002,"ADDRESS":"三福路７３之１８號","OBJECTID":586399},"geometry":{"x":174551,"y":2580164.1800000034}},{"attributes":{"ID":586427,"DIS_CODE":0,"TOWNNAME":"鹽水區","LI":"中境里","LIN":"11鄰","STREET":"三福路","SECT":" ","MAREA":" ","LANE":" ","ALLEY":" ","HOUSE_NO":"７３之１９號","E_COORD97":174546.78,"N_COORD97":2580165.1600000001,"ADDRESS":"三福路７３之１９號","OBJECTID":586400},"geometry":{"x":174546.78000000119,"y":2580165.160000002}}]}