{"displayFieldName":"TOWNNAME","fieldAliases":{"ID":"ID","DIS_CODE":"DIS_CODE","TOWNNAME":"TOWNNAME","LI":"LI","LIN":"LIN","STREET":"STREET","SECT":"SECT","MAREA":"MAREA","LANE":"LANE","ALLEY":"ALLEY","HOUSE_NO":"HOUSE_NO","E_COORD97":"E_COORD97","N_COORD97":"N_COORD97","ADDRESS":"ADDRESS","OBJECTID":"OBJECTID"},"geometryType":"esriGeometryPoint","spatialReference":{"wkid":102443,"latestWkid":3826},"fields":[{"name":"ID","type":"esriFieldTypeDouble","alias":"ID"},{"name":"DIS_CODE","type":"esriFieldTypeInteger","alias":"DIS_CODE"},{"name":"TOWNNAME","type":"esriFieldTypeString","alias":"TOWNNAME","length":8},{"name":"LI","type":"esriFieldTypeString","alias":"LI","length":8},{"name":"LIN","type":"esriFieldTypeString","alias":"LIN","length":12},{"name":"STREET","type":"esriFieldTypeString","alias":"STREET","length":20},{"name":"SECT","type":"esriFieldTypeString","alias":"SECT","length":8},{"name":"MAREA","type":"esriFieldTypeString","alias":"MAREA","length":12},{"name":"LANE","type":"esriFieldTypeString","alias":"LANE","length":10},{"name":"ALLEY","type":"esriFieldTypeString","alias":"ALLEY","length":10},{"name":"HOUSE_NO","type":"esriFieldTypeString","alias":"HOUSE_NO","length":20},{"name":"E_COORD97","type":"esriFieldTypeDouble","alias":"E_COORD97"},{"name":"N_COORD97","type":"esriFieldTypeDouble","alias":"N_COORD97"},{"name":"ADDRESS","type":"esriFieldTypeString","alias":"ADDRESS","length":50},{"name":"OBJECTID","type":"esriFieldTypeOID","alias":"OBJECTID"}],"features":[{"attributes":{"ID":330010,"DIS_CODE":0,"TOWNNAME":"白河區","LI":"昇安里","LIN":"4鄰","STREET":" ","SECT":" ","MAREA":"三間厝","LANE":" ","ALLEY":" ","HOUSE_NO":"４０之１５號","E_COORD97":191738.66,"N_COORD97":2584826.6299999999,"ADDRESS":"三間厝４０之１５號","OBJECTID":330001},"geometry":{"x":191738.66000000108,"y":2584826.6300000008}},{"attributes":{"ID":330011,"DIS_CODE":0,"TOWNNAME":"安南區","LI":"淵東里","LIN":"17鄰","STREET":"功安一街","SECT":" ","MAREA":" ","LANE":" ","ALLEY":" ","HOUSE_NO":"３１０號","E_COORD97":165667.48000000001,"N_COORD97":2550091.6200000001,"ADDRESS":"功安一街３１０號","OBJECTID":330002},"geometry":{"x":165667.48000000045,"y":2550091.620000001}},{"attributes":{"ID":330012,"DIS_CODE":0,"TOWNNAME":"白河區","LI":"昇安里","LIN":"4鄰","STREET":" ","SECT":" ","MAREA":"三間厝","LANE":" ","ALLEY":" ","HOUSE_NO":"４０之１６號","E_COORD97":191742.64000000001,"N_COORD97":2584827.4500000002,"ADDRESS":"三間厝４０之１６號","OBJECTID":330003},"geometry":{"x":191742.63999999966,"y":2584827.4500000011}},{"attributes":{"ID":330013,"DIS_CODE":0,"TOWNNAME":"白河區","LI":"昇安里","LIN":"4鄰","STREET":" ","SECT":" ","MAREA":"三間厝","LANE":" ","ALLEY":" ","HOUSE_NO":"４０之１７號","E_COORD97":191746.63,"N_COORD97":2584828.2599999998,"ADDRESS":"三間厝４０之１７號","OBJECTID":330004},"geometry":{"x":191746.63000000175,"y":2584828.2599999998}},{"attributes":{"ID":330014,"DIS_CODE":0,"TOWNNAME":"麻豆區","LI":"海埔里","LIN":"6鄰","STREET":" ","SECT":" ","MAREA":"海埔","LANE":" ","ALLEY":" ","HOUSE_NO":"１１號","E_COORD97":169444.20999999999,"N_COORD97":2566674.3300000001,"ADDRESS":"海埔１１號","OBJECTID":330005},"geometry":{"x":169444.21000000183,"y":2566674.3300000019}},{"attributes":{"ID":330015,"DIS_CODE":0,"TOWNNAME":"麻豆區","LI":"海埔里","LIN":"6鄰","STREET":" ","SECT":" ","MAREA":"海埔","LANE":" ","ALLEY":" ","HOUSE_NO":"１２號之１","E_COORD97":169472.63,"N_COORD97":2566701.8799999999,"ADDRESS":"海埔１２號之１","OBJECTID":330006},"geometry":{"x":169472.63000000082,"y":2566701.879999999}},{"attributes":{"ID":330016,"DIS_CODE":0,"TOWNNAME":"麻豆區","LI":"海埔里","LIN":"6鄰","STREET":" ","SECT":" ","MAREA":"海埔","LANE":" ","ALLEY":" ","HOUSE_NO":"１２號","E_COORD97":169447.95000000001,"N_COORD97":2566712.6000000001,"ADDRESS":"海埔１２號","OBJECTID":330007},"geometry":{"x":169447.95000000205,"y":2566712.6000000015}},{"attributes":{"ID":330017,"DIS_CODE":0,"TOWNNAME":"麻豆區","LI":"海埔里","LIN":"6鄰","STREET":" ","SECT":" ","MAREA":"海埔","LANE":" ","ALLEY":" ","HOUSE_NO":"１３號","E_COORD97":169452.66,"N_COORD97":2566744.1299999999,"ADDRESS":"海埔１３號","OBJECTID":330008},"geometry":{"x":169452.66000000015,"y":2566744.129999999}},{"attributes":{"ID":330018,"DIS_CODE":0,"TOWNNAME":"麻豆區","LI":"海埔里","LIN":"6鄰","STREET":" ","SECT":" ","MAREA":"海埔","LANE":" ","ALLEY":" ","HOUSE_NO":"１４號","E_COORD97":169422.22,"N_COORD97":2566713.2000000002,"ADDRESS":"海埔１４號","OBJECTID":330009},"geometry":{"x":169422.22000000067,"y":2566713.1999999993}},{"attributes":{"ID":330019,"DIS_CODE":0,"TOWNNAME":"麻豆區","LI":"海埔里","LIN":"6鄰","STREET":" ","SECT":" ","MAREA":"海埔","LANE":" ","ALLEY":" ","HOUSE_NO":"１５號","E_COORD97":169423.37,"N_COORD97":2566683.23,"ADDRESS":"海埔１５號","OBJECTID":330010},"geometry":{"x":169423.37000000104,"y":2566683.2300000004}},{"attributes":{"ID":330020,"DIS_CODE":0,"TOWNNAME":"麻豆區","LI":"海埔里","LIN":"6鄰","STREET":" ","SECT":" ","MAREA":"海埔","LANE":" ","ALLEY":" ","HOUSE_NO":"１６號之１１","E_COORD97":169379.64000000001,"N_COORD97":2566523.6099999999,"ADDRESS":"海埔１６號之１１","OBJECTID":330011},"geometry":{"x":169379.63999999966,"y":2566523.6099999994}},{"attributes":{"ID":330021,"DIS_CODE":0,"TOWNNAME":"麻豆區","LI":"海埔里","LIN":"6鄰","STREET":" ","SECT":" ","MAREA":"海埔","LANE":" ","ALLEY":" ","HOUSE_NO":"１６號之１２","E_COORD97":169378.76000000001,"N_COORD97":2566519.0899999999,"ADDRESS":"海埔１６號之１２","OBJECTID":330012},"geometry":{"x":169378.75999999978,"y":2566519.0900000017}},{"attributes":{"ID":330022,"DIS_CODE":0,"TOWNNAME":"麻豆區","LI":"海埔里","LIN":"6鄰","STREET":" ","SECT":" ","MAREA":"海埔","LANE":" ","ALLEY":" ","HOUSE_NO":"１６號之１３","E_COORD97":169377.88,"N_COORD97":2566514.5699999998,"ADDRESS":"海埔１６號之１３","OBJECTID":330013},"geometry":{"x":169377.87999999989,"y":2566514.5700000003}},{"attributes":{"ID":330023,"DIS_CODE":0,"TOWNNAME":"麻豆區","LI":"海埔里","LIN":"6鄰","STREET":" ","SECT":" ","MAREA":"海埔","LANE":" ","ALLEY":" ","HOUSE_NO":"１６號之１５","E_COORD97":169377,"N_COORD97":2566510.0600000001,"ADDRESS":"海埔１６號之１５","OBJECTID":330014},"geometry":{"x":169377.00000000093,"y":2566510.0600000024}},{"attributes":{"ID":330024,"DIS_CODE":0,"TOWNNAME":"麻豆區","LI":"海埔里","LIN":"7鄰","STREET":" ","SECT":" ","MAREA":"海埔","LANE":" ","ALLEY":" ","HOUSE_NO":"２２號","E_COORD97":169502.91,"N_COORD97":2566817.73,"ADDRESS":"海埔２２號","OBJECTID":330015},"geometry":{"x":169502.91000000108,"y":2566817.7300000023}},{"attributes":{"ID":330025,"DIS_CODE":0,"TOWNNAME":"麻豆區","LI":"海埔里","LIN":"12鄰","STREET":" ","SECT":" ","MAREA":"海埔","LANE":" ","ALLEY":" ","HOUSE_NO":"７７號","E_COORD97":169426.85000000001,"N_COORD97":2567409.25,"ADDRESS":"海埔７７號","OBJECTID":330016},"geometry":{"x":169426.84999999963,"y":2567409.2500000037}},{"attributes":{"ID":330026,"DIS_CODE":0,"TOWNNAME":"永康區","LI":"崑山里","LIN":" ","STREET":"大灣路","SECT":" ","MAREA":" ","LANE":"８９１巷","ALLEY":" ","HOUSE_NO":"３１號","E_COORD97":173615.45999999999,"N_COORD97":2544300.3399999999,"ADDRESS":"大灣路８９１巷３１號","OBJECTID":330017},"geometry":{"x":173615.45999999996,"y":2544300.3400000017}},{"attributes":{"ID":330027,"DIS_CODE":0,"TOWNNAME":"永康區","LI":"二王里","LIN":" ","STREET":"永二街","SECT":" ","MAREA":" ","LANE":"４４７巷","ALLEY":" ","HOUSE_NO":"７４號","E_COORD97":172833.45000000001,"N_COORD97":2546533.6699999999,"ADDRESS":"永二街４４７巷７４號","OBJECTID":330018},"geometry":{"x":172833.45000000112,"y":2546533.6699999999}},{"attributes":{"ID":330028,"DIS_CODE":0,"TOWNNAME":"永康區","LI":"復國里","LIN":" ","STREET":"復國一路","SECT":" ","MAREA":" ","LANE":"１２０巷","ALLEY":" ","HOUSE_NO":"４號","E_COORD97":172742.07999999999,"N_COORD97":2544992.5299999998,"ADDRESS":"復國一路１２０巷４號","OBJECTID":330019},"geometry":{"x":172742.08000000007,"y":2544992.5299999993}},{"attributes":{"ID":330029,"DIS_CODE":0,"TOWNNAME":"麻豆區","LI":"海埔里","LIN":"12鄰","STREET":" ","SECT":" ","MAREA":"海埔","LANE":" ","ALLEY":" ","HOUSE_NO":"７８號","E_COORD97":169396,"N_COORD97":2567212.9900000002,"ADDRESS":"海埔７８號","OBJECTID":330020},"geometry":{"x":169396,"y":2567212.9900000021}},{"attributes":{"ID":330030,"DIS_CODE":0,"TOWNNAME":"麻豆區","LI":"海埔里","LIN":"12鄰","STREET":" ","SECT":" ","MAREA":"海埔","LANE":" ","ALLEY":" ","HOUSE_NO":"７９號之１","E_COORD97":169366.04999999999,"N_COORD97":2567196.8399999999,"ADDRESS":"海埔７９號之１","OBJECTID":330021},"geometry":{"x":169366.05000000075,"y":2567196.8399999999}},{"attributes":{"ID":330031,"DIS_CODE":0,"TOWNNAME":"永康區","LI":"\u25A0行里","LIN":"25鄰","STREET":"\u25A0和街","SECT":" ","MAREA":" ","LANE":"２７４巷","ALLEY":" ","HOUSE_NO":"４號","E_COORD97":171586.59,"N_COORD97":2548440.9399999999,"ADDRESS":"\u25A0和街２７４巷４號","OBJECTID":330022},"geometry":{"x":171586.59000000078,"y":2548440.9399999995}},{"attributes":{"ID":330032,"DIS_CODE":0,"TOWNNAME":"麻豆區","LI":"海埔里","LIN":"1鄰","STREET":" ","SECT":" ","MAREA":"埤子尾","LANE":" ","ALLEY":" ","HOUSE_NO":"１２號之１０","E_COORD97":169736.25,"N_COORD97":2566410.5,"ADDRESS":"埤子尾１２號之１０","OBJECTID":330023},"geometry":{"x":169736.25000000093,"y":2566410.5}},{"attributes":{"ID":330033,"DIS_CODE":0,"TOWNNAME":"麻豆區","LI":"海埔里","LIN":"1鄰","STREET":" ","SECT":" ","MAREA":"埤子尾","LANE":" ","ALLEY":" ","HOUSE_NO":"１２號之１１","E_COORD97":169731.84,"N_COORD97":2566410.5,"ADDRESS":"埤子尾１２號之１１","OBJECTID":330024},"geometry":{"x":169731.84000000078,"y":2566410.5}},{"attributes":{"ID":330034,"DIS_CODE":0,"TOWNNAME":"麻豆區","LI":"海埔里","LIN":"1鄰","STREET":" ","SECT":" ","MAREA":"埤子尾","LANE":" ","ALLEY":" ","HOUSE_NO":"１２號之１２","E_COORD97":169723.73999999999,"N_COORD97":2566411.29,"ADDRESS":"埤子尾１２號之１２","OBJECTID":330025},"geometry":{"x":169723.74000000022,"y":2566411.2900000028}},{"attributes":{"ID":330035,"DIS_CODE":0,"TOWNNAME":"永康區","LI":"\u25A0洲里","LIN":"32鄰","STREET":"\u25A0行路","SECT":" ","MAREA":" ","LANE":"３３０巷","ALLEY":" ","HOUSE_NO":"５號","E_COORD97":170986.20000000001,"N_COORD97":2548965.3900000001,"ADDRESS":"\u25A0行路３３０巷５號","OBJECTID":330026},"geometry":{"x":170986.20000000112,"y":2548965.3900000043}},{"attributes":{"ID":330036,"DIS_CODE":0,"TOWNNAME":"永康區","LI":"二王里","LIN":" ","STREET":"中山南路","SECT":" ","MAREA":" ","LANE":"８７２巷","ALLEY":" ","HOUSE_NO":"８７０號","E_COORD97":172980.84,"N_COORD97":2546860.6800000002,"ADDRESS":"中山南路８７２巷８７０號","OBJECTID":330027},"geometry":{"x":172980.83999999985,"y":2546860.6800000034}},{"attributes":{"ID":330037,"DIS_CODE":0,"TOWNNAME":"麻豆區","LI":"海埔里","LIN":"1鄰","STREET":" ","SECT":" ","MAREA":"埤子尾","LANE":" ","ALLEY":" ","HOUSE_NO":"１２號之１","E_COORD97":169769.19,"N_COORD97":2566441.9700000002,"ADDRESS":"埤子尾１２號之１","OBJECTID":330028},"geometry":{"x":169769.19000000134,"y":2566441.9700000007}},{"attributes":{"ID":330038,"DIS_CODE":0,"TOWNNAME":"永康區","LI":"大橋里","LIN":" ","STREET":"大橋一街","SECT":" ","MAREA":" ","LANE":"１３７巷","ALLEY":" ","HOUSE_NO":"４號","E_COORD97":171038.31,"N_COORD97":2546528.75,"ADDRESS":"大橋一街１３７巷４號","OBJECTID":330029},"geometry":{"x":171038.31000000145,"y":2546528.7500000019}},{"attributes":{"ID":330039,"DIS_CODE":0,"TOWNNAME":"關廟區","LI":"北花里","LIN":"15鄰","STREET":"中正路","SECT":" ","MAREA":" ","LANE":"１２７巷","ALLEY":" ","HOUSE_NO":"２８號","E_COORD97":183556.48999999999,"N_COORD97":2540853.8799999999,"ADDRESS":"中正路１２７巷２８號","OBJECTID":330030},"geometry":{"x":183556.49000000022,"y":2540853.8800000027}},{"attributes":{"ID":330040,"DIS_CODE":0,"TOWNNAME":"關廟區","LI":"香洋里","LIN":"15鄰","STREET":"花園一街","SECT":" ","MAREA":" ","LANE":"２７９巷","ALLEY":" ","HOUSE_NO":"３６號","E_COORD97":181426.14000000001,"N_COORD97":2540073.46,"ADDRESS":"花園一街２７９巷３６號","OBJECTID":330031},"geometry":{"x":181426.1400000006,"y":2540073.4600000028}},{"attributes":{"ID":330041,"DIS_CODE":0,"TOWNNAME":"關廟區","LI":"田中里","LIN":"4鄰","STREET":"田大路","SECT":" ","MAREA":" ","LANE":" ","ALLEY":" ","HOUSE_NO":"２號","E_COORD97":184025.248991,"N_COORD97":2533953.6344400002,"ADDRESS":"田大路２號","OBJECTID":330032},"geometry":{"x":184025.24899100047,"y":2533953.6344430037}},{"attributes":{"ID":330042,"DIS_CODE":0,"TOWNNAME":"安南區","LI":"淵東里","LIN":"17鄰","STREET":"功安一街","SECT":" ","MAREA":" ","LANE":" ","ALLEY":" ","HOUSE_NO":"３１２號","E_COORD97":165662.79999999999,"N_COORD97":2550090.52,"ADDRESS":"功安一街３１２號","OBJECTID":330033},"geometry":{"x":165662.79999999981,"y":2550090.5200000014}},{"attributes":{"ID":330043,"DIS_CODE":0,"TOWNNAME":"麻豆區","LI":"海埔里","LIN":"1鄰","STREET":" ","SECT":" ","MAREA":"埤子尾","LANE":" ","ALLEY":" ","HOUSE_NO":"１２號之７","E_COORD97":169749.5,"N_COORD97":2566410.3100000001,"ADDRESS":"埤子尾１２號之７","OBJECTID":330034},"geometry":{"x":169749.50000000093,"y":2566410.3100000024}},{"attributes":{"ID":330044,"DIS_CODE":0,"TOWNNAME":"安南區","LI":"淵東里","LIN":"17鄰","STREET":"功安一街","SECT":" ","MAREA":" ","LANE":" ","ALLEY":" ","HOUSE_NO":"３１６號","E_COORD97":165657.29999999999,"N_COORD97":2550089.4199999999,"ADDRESS":"功安一街３１６號","OBJECTID":330035},"geometry":{"x":165657.29999999981,"y":2550089.4199999999}},{"attributes":{"ID":330045,"DIS_CODE":0,"TOWNNAME":"安南區","LI":"淵東里","LIN":"17鄰","STREET":"智安二街","SECT":" ","MAREA":" ","LANE":" ","ALLEY":" ","HOUSE_NO":"１６號","E_COORD97":165760.66,"N_COORD97":2550136.1899999999,"ADDRESS":"智安二街１６號","OBJECTID":330036},"geometry":{"x":165760.66000000015,"y":2550136.1900000013}},{"attributes":{"ID":330046,"DIS_CODE":0,"TOWNNAME":"安南區","LI":"淵東里","LIN":"17鄰","STREET":"智安二街","SECT":" ","MAREA":" ","LANE":" ","ALLEY":" ","HOUSE_NO":"１８號","E_COORD97":165762.29000000001,"N_COORD97":2550131.0899999999,"ADDRESS":"智安二街１８號","OBJECTID":330037},"geometry":{"x":165762.29000000097,"y":2550131.0900000017}},{"attributes":{"ID":330047,"DIS_CODE":0,"TOWNNAME":"安南區","LI":"淵東里","LIN":"17鄰","STREET":"智安三街","SECT":" ","MAREA":" ","LANE":" ","ALLEY":" ","HOUSE_NO":"３５號","E_COORD97":165879.17999999999,"N_COORD97":2550123.1600000001,"ADDRESS":"智安三街３５號","OBJECTID":330038},"geometry":{"x":165879.18000000156,"y":2550123.160000002}},{"attributes":{"ID":330048,"DIS_CODE":0,"TOWNNAME":"安南區","LI":"淵東里","LIN":"17鄰","STREET":"智安三街","SECT":" ","MAREA":" ","LANE":" ","ALLEY":" ","HOUSE_NO":"３７號","E_COORD97":165877.76000000001,"N_COORD97":2550127.2400000002,"ADDRESS":"智安三街３７號","OBJECTID":330039},"geometry":{"x":165877.76000000071,"y":2550127.2400000002}},{"attributes":{"ID":330049,"DIS_CODE":0,"TOWNNAME":"安南區","LI":"淵東里","LIN":"17鄰","STREET":"智安三街","SECT":" ","MAREA":" ","LANE":" ","ALLEY":" ","HOUSE_NO":"３９號","E_COORD97":165876.82000000001,"N_COORD97":2550131.6200000001,"ADDRESS":"智安三街３９號","OBJECTID":330040},"geometry":{"x":165876.8200000003,"y":2550131.6200000029}},{"attributes":{"ID":330050,"DIS_CODE":0,"TOWNNAME":"安南區","LI":"淵東里","LIN":"17鄰","STREET":"智安三街","SECT":" ","MAREA":" ","LANE":" ","ALLEY":" ","HOUSE_NO":"４１號","E_COORD97":165875.57000000001,"N_COORD97":2550135.8500000001,"ADDRESS":"智安三街４１號","OBJECTID":330041},"geometry":{"x":165875.57000000216,"y":2550135.8500000015}},{"attributes":{"ID":330051,"DIS_CODE":0,"TOWNNAME":"永康區","LI":"復國里","LIN":"6鄰","STREET":"復華三街","SECT":" ","MAREA":" ","LANE":"７６巷","ALLEY":" ","HOUSE_NO":"１５號","E_COORD97":172668.42999999999,"N_COORD97":2545604.2799999998,"ADDRESS":"復華三街７６巷１５號","OBJECTID":330042},"geometry":{"x":172668.43000000156,"y":2545604.2799999993}},{"attributes":{"ID":330052,"DIS_CODE":0,"TOWNNAME":"永康區","LI":"復國里","LIN":"6鄰","STREET":"復華三街","SECT":" ","MAREA":" ","LANE":"７６巷","ALLEY":" ","HOUSE_NO":"２５號","E_COORD97":172651.62,"N_COORD97":2545625.2799999998,"ADDRESS":"復華三街７６巷２５號","OBJECTID":330043},"geometry":{"x":172651.62000000011,"y":2545625.2800000031}},{"attributes":{"ID":330053,"DIS_CODE":0,"TOWNNAME":"永康區","LI":"五王里","LIN":" ","STREET":"成功路","SECT":" ","MAREA":" ","LANE":"１８８巷","ALLEY":" ","HOUSE_NO":"３５號","E_COORD97":171501.01000000001,"N_COORD97":2545724.8799999999,"ADDRESS":"成功路１８８巷３５號","OBJECTID":330044},"geometry":{"x":171501.00999999978,"y":2545724.879999999}},{"attributes":{"ID":330054,"DIS_CODE":0,"TOWNNAME":"永康區","LI":"崑山里","LIN":" ","STREET":"大灣路","SECT":" ","MAREA":" ","LANE":"８９１巷","ALLEY":" ","HOUSE_NO":"３３之１５號","E_COORD97":173648.45999999999,"N_COORD97":2544267.6499999999,"ADDRESS":"大灣路８９１巷３３之１５號","OBJECTID":330045},"geometry":{"x":173648.46000000089,"y":2544267.6500000041}},{"attributes":{"ID":330055,"DIS_CODE":0,"TOWNNAME":"永康區","LI":"崑山里","LIN":" ","STREET":"大灣路","SECT":" ","MAREA":" ","LANE":"８９１巷","ALLEY":" ","HOUSE_NO":"３３之１２號","E_COORD97":173632.67999999999,"N_COORD97":2544249.1800000002,"ADDRESS":"大灣路８９１巷３３之１２號","OBJECTID":330046},"geometry":{"x":173632.6799999997,"y":2544249.1799999997}},{"attributes":{"ID":330056,"DIS_CODE":0,"TOWNNAME":"永康區","LI":"復興里","LIN":" ","STREET":"復興路","SECT":" ","MAREA":" ","LANE":"４２９巷","ALLEY":" ","HOUSE_NO":"４２７之２４號","E_COORD97":172187.10999999999,"N_COORD97":2543915.71,"ADDRESS":"復興路４２９巷４２７之２４號","OBJECTID":330047},"geometry":{"x":172187.11000000127,"y":2543915.7100000028}},{"attributes":{"ID":330057,"DIS_CODE":0,"TOWNNAME":"新化區","LI":"知義里","LIN":"15鄰","STREET":"中興路","SECT":" ","MAREA":" ","LANE":"４１５巷","ALLEY":" ","HOUSE_NO":"３０號","E_COORD97":180627.56,"N_COORD97":2547396.25,"ADDRESS":"中興路４１５巷３０號","OBJECTID":330048},"geometry":{"x":180627.55999999959,"y":2547396.2500000037}},{"attributes":{"ID":330058,"DIS_CODE":0,"TOWNNAME":"新化區","LI":"知義里","LIN":"15鄰","STREET":"中興路","SECT":" ","MAREA":" ","LANE":"４１５巷","ALLEY":" ","HOUSE_NO":"３１號","E_COORD97":180640.56,"N_COORD97":2547378.25,"ADDRESS":"中興路４１５巷３１號","OBJECTID":330049},"geometry":{"x":180640.56000000052,"y":2547378.25}},{"attributes":{"ID":330059,"DIS_CODE":0,"TOWNNAME":"新化區","LI":"知義里","LIN":"15鄰","STREET":"中興路","SECT":" ","MAREA":" ","LANE":"４１５巷","ALLEY":" ","HOUSE_NO":"１６號","E_COORD97":180621.56,"N_COORD97":2547441.25,"ADDRESS":"中興路４１５巷１６號","OBJECTID":330050},"geometry":{"x":180621.56000000052,"y":2547441.2500000019}},{"attributes":{"ID":330060,"DIS_CODE":0,"TOWNNAME":"新化區","LI":"知義里","LIN":"15鄰","STREET":"中興路","SECT":" ","MAREA":" ","LANE":"４１５巷","ALLEY":" ","HOUSE_NO":"２７號","E_COORD97":180638.76000000001,"N_COORD97":2547392.25,"ADDRESS":"中興路４１５巷２７號","OBJECTID":330051},"geometry":{"x":180638.76000000164,"y":2547392.25}},{"attributes":{"ID":330061,"DIS_CODE":0,"TOWNNAME":"新化區","LI":"知義里","LIN":"15鄰","STREET":"中興路","SECT":" ","MAREA":" ","LANE":"４１５巷","ALLEY":" ","HOUSE_NO":"２９號","E_COORD97":180639.66,"N_COORD97":2547385.25,"ADDRESS":"中興路４１５巷２９號","OBJECTID":330052},"geometry":{"x":180639.66000000015,"y":2547385.25}},{"attributes":{"ID":330062,"DIS_CODE":0,"TOWNNAME":"新化區","LI":"協興里","LIN":"15鄰","STREET":"大新路","SECT":" ","MAREA":" ","LANE":"１３１巷","ALLEY":" ","HOUSE_NO":"１號","E_COORD97":177985.23000000001,"N_COORD97":2548779.25,"ADDRESS":"大新路１３１巷１號","OBJECTID":330053},"geometry":{"x":177985.23000000138,"y":2548779.2500000037}},{"attributes":{"ID":330063,"DIS_CODE":0,"TOWNNAME":"新化區","LI":"協興里","LIN":"15鄰","STREET":"中山路","SECT":" ","MAREA":" ","LANE":"６６０巷","ALLEY":" ","HOUSE_NO":"５０號","E_COORD97":178057.06,"N_COORD97":2548668.25,"ADDRESS":"中山路６６０巷５０號","OBJECTID":330054},"geometry":{"x":178057.06000000052,"y":2548668.2500000019}},{"attributes":{"ID":330064,"DIS_CODE":0,"TOWNNAME":"北區","LI":"元寶里","LIN":"15鄰","STREET":"開元路","SECT":" ","MAREA":" ","LANE":"４８５巷","ALLEY":" ","HOUSE_NO":"２１號","E_COORD97":170484.06,"N_COORD97":2545694.1499999999,"ADDRESS":"開元路４８５巷２１號","OBJECTID":330055},"geometry":{"x":170484.06000000145,"y":2545694.1500000004}},{"attributes":{"ID":330065,"DIS_CODE":0,"TOWNNAME":"鹽水區","LI":"橋南里","LIN":"15鄰","STREET":"南門路","SECT":" ","MAREA":" ","LANE":"１２巷","ALLEY":" ","HOUSE_NO":"６號","E_COORD97":175020.29999999999,"N_COORD97":2579408.7799999998,"ADDRESS":"南門路１２巷６號","OBJECTID":330056},"geometry":{"x":175020.29999999981,"y":2579408.7799999993}},{"attributes":{"ID":330066,"DIS_CODE":0,"TOWNNAME":"鹽水區","LI":"橋南里","LIN":"15鄰","STREET":"南門路","SECT":" ","MAREA":" ","LANE":"１２巷","ALLEY":" ","HOUSE_NO":"７號","E_COORD97":175020.54000000001,"N_COORD97":2579403.02,"ADDRESS":"南門路１２巷７號","OBJECTID":330057},"geometry":{"x":175020.54000000004,"y":2579403.0200000014}},{"attributes":{"ID":330067,"DIS_CODE":0,"TOWNNAME":"北區","LI":"成德里","LIN":"15鄰","STREET":"育賢街","SECT":" ","MAREA":" ","LANE":"２７巷","ALLEY":" ","HOUSE_NO":"１號","E_COORD97":168754.13,"N_COORD97":2545931.6600000001,"ADDRESS":"育賢街２７巷１號","OBJECTID":330058},"geometry":{"x":168754.12999999989,"y":2545931.6600000001}},{"attributes":{"ID":330068,"DIS_CODE":0,"TOWNNAME":"北區","LI":"成德里","LIN":"15鄰","STREET":"育賢街","SECT":" ","MAREA":" ","LANE":"２７巷","ALLEY":" ","HOUSE_NO":"３號","E_COORD97":168749.69,"N_COORD97":2545934.52,"ADDRESS":"育賢街２７巷３號","OBJECTID":330059},"geometry":{"x":168749.68999999948,"y":2545934.5199999996}},{"attributes":{"ID":330069,"DIS_CODE":0,"TOWNNAME":"安南區","LI":"淵東里","LIN":"17鄰","STREET":"智安三街","SECT":" ","MAREA":" ","LANE":" ","ALLEY":" ","HOUSE_NO":"４３號","E_COORD97":165874,"N_COORD97":2550140.3999999999,"ADDRESS":"智安三街４３號","OBJECTID":330060},"geometry":{"x":165874.00000000186,"y":2550140.4000000004}},{"attributes":{"ID":330070,"DIS_CODE":0,"TOWNNAME":"安南區","LI":"淵東里","LIN":"17鄰","STREET":"智安三街","SECT":" ","MAREA":" ","LANE":" ","ALLEY":" ","HOUSE_NO":"４５號","E_COORD97":165873.06,"N_COORD97":2550144.4700000002,"ADDRESS":"智安三街４５號","OBJECTID":330061},"geometry":{"x":165873.06000000145,"y":2550144.4700000007}},{"attributes":{"ID":330071,"DIS_CODE":0,"TOWNNAME":"安南區","LI":"淵東里","LIN":"17鄰","STREET":"智安三街","SECT":" ","MAREA":" ","LANE":" ","ALLEY":" ","HOUSE_NO":"４７號","E_COORD97":165871.79999999999,"N_COORD97":2550149.1699999999,"ADDRESS":"智安三街４７號","OBJECTID":330062},"geometry":{"x":165871.80000000168,"y":2550149.1699999981}},{"attributes":{"ID":330072,"DIS_CODE":0,"TOWNNAME":"南區","LI":"彰南里","LIN":"17鄰","STREET":"新和路","SECT":" ","MAREA":" ","LANE":" ","ALLEY":" ","HOUSE_NO":"４２號","E_COORD97":165521.48999999999,"N_COORD97":2540944.9300000002,"ADDRESS":"新和路４２號","OBJECTID":330063},"geometry":{"x":165521.49000000022,"y":2540944.9299999997}},{"attributes":{"ID":330073,"DIS_CODE":0,"TOWNNAME":"南區","LI":"新昌里","LIN":"17鄰","STREET":"南寧街","SECT":" ","MAREA":" ","LANE":" ","ALLEY":" ","HOUSE_NO":"１３７號","E_COORD97":167597.48999999999,"N_COORD97":2542857.2799999998,"ADDRESS":"南寧街１３７號","OBJECTID":330064},"geometry":{"x":167597.49000000022,"y":2542857.2799999993}},{"attributes":{"ID":330074,"DIS_CODE":0,"TOWNNAME":"南區","LI":"新昌里","LIN":"17鄰","STREET":"南寧街","SECT":" ","MAREA":" ","LANE":" ","ALLEY":" ","HOUSE_NO":"１３９號","E_COORD97":167590.51000000001,"N_COORD97":2542857.9199999999,"ADDRESS":"南寧街１３９號","OBJECTID":330065},"geometry":{"x":167590.50999999978,"y":2542857.9199999999}},{"attributes":{"ID":330075,"DIS_CODE":0,"TOWNNAME":"南區","LI":"新昌里","LIN":"17鄰","STREET":"南寧街","SECT":" ","MAREA":" ","LANE":" ","ALLEY":" ","HOUSE_NO":"１４１號","E_COORD97":167583.53,"N_COORD97":2542849.0099999998,"ADDRESS":"南寧街１４１號","OBJECTID":330066},"geometry":{"x":167583.53000000119,"y":2542849.0100000016}},{"attributes":{"ID":330076,"DIS_CODE":0,"TOWNNAME":"永康區","LI":"南灣里","LIN":" ","STREET":"立興街","SECT":" ","MAREA":" ","LANE":"１７８巷","ALLEY":" ","HOUSE_NO":"１４號","E_COORD97":174243.76999999999,"N_COORD97":2544621.6000000001,"ADDRESS":"立興街１７８巷１４號","OBJECTID":330067},"geometry":{"x":174243.76999999955,"y":2544621.5999999996}},{"attributes":{"ID":330077,"DIS_CODE":0,"TOWNNAME":"永康區","LI":"六合里","LIN":"2鄰","STREET":"新興街","SECT":" ","MAREA":" ","LANE":" ","ALLEY":" ","HOUSE_NO":"３３號","E_COORD97":170907.31624399999,"N_COORD97":2545787.2141200001,"ADDRESS":"新興街３３號","OBJECTID":330068},"geometry":{"x":170907.3162440015,"y":2545787.2141250018}},{"attributes":{"ID":330078,"DIS_CODE":0,"TOWNNAME":"永康區","LI":"尚頂里","LIN":" ","STREET":"正南一街","SECT":" ","MAREA":" ","LANE":"１９０巷","ALLEY":" ","HOUSE_NO":"１３號","E_COORD97":170658.89999999999,"N_COORD97":2547510.7799999998,"ADDRESS":"正南一街１９０巷１３號","OBJECTID":330069},"geometry":{"x":170658.90000000224,"y":2547510.7800000012}},{"attributes":{"ID":330079,"DIS_CODE":0,"TOWNNAME":"永康區","LI":"西橋里","LIN":" ","STREET":"大橋三街","SECT":" ","MAREA":" ","LANE":"１０巷","ALLEY":" ","HOUSE_NO":"１６之２號","E_COORD97":170528.62,"N_COORD97":2546319.0499999998,"ADDRESS":"大橋三街１０巷１６之２號","OBJECTID":330070},"geometry":{"x":170528.62000000104,"y":2546319.0500000007}},{"attributes":{"ID":330080,"DIS_CODE":0,"TOWNNAME":"永康區","LI":"三民里","LIN":" ","STREET":"三民街","SECT":" ","MAREA":" ","LANE":"９０巷","ALLEY":" ","HOUSE_NO":"９２號","E_COORD97":172914.48999999999,"N_COORD97":2550305.5299999998,"ADDRESS":"三民街９０巷９２號","OBJECTID":330071},"geometry":{"x":172914.49000000209,"y":2550305.5299999975}},{"attributes":{"ID":330081,"DIS_CODE":0,"TOWNNAME":"北區","LI":"成德里","LIN":"15鄰","STREET":"育賢街","SECT":" ","MAREA":" ","LANE":"２７巷","ALLEY":" ","HOUSE_NO":"５號","E_COORD97":168745.56,"N_COORD97":2545935.4700000002,"ADDRESS":"育賢街２７巷５號","OBJECTID":330072},"geometry":{"x":168745.56000000052,"y":2545935.4700000025}},{"attributes":{"ID":330082,"DIS_CODE":0,"TOWNNAME":"北區","LI":"成德里","LIN":"15鄰","STREET":"育賢街","SECT":" ","MAREA":" ","LANE":"２７巷","ALLEY":" ","HOUSE_NO":"７號","E_COORD97":168740.95999999999,"N_COORD97":2545938,"ADDRESS":"育賢街２７巷７號","OBJECTID":330073},"geometry":{"x":168740.96000000089,"y":2545938.0000000019}},{"attributes":{"ID":330083,"DIS_CODE":0,"TOWNNAME":"北區","LI":"成德里","LIN":"15鄰","STREET":"育賢街","SECT":" ","MAREA":" ","LANE":"２７巷","ALLEY":" ","HOUSE_NO":"９號","E_COORD97":168735.39999999999,"N_COORD97":2545939.4399999999,"ADDRESS":"育賢街２７巷９號","OBJECTID":330074},"geometry":{"x":168735.4000000013,"y":2545939.4399999976}},{"attributes":{"ID":330084,"DIS_CODE":0,"TOWNNAME":"北區","LI":"成德里","LIN":"15鄰","STREET":"育賢街","SECT":" ","MAREA":" ","LANE":"２７巷","ALLEY":" ","HOUSE_NO":"１１號","E_COORD97":168730.79999999999,"N_COORD97":2545941.6600000001,"ADDRESS":"育賢街２７巷１１號","OBJECTID":330075},"geometry":{"x":168730.79999999981,"y":2545941.6600000001}},{"attributes":{"ID":330085,"DIS_CODE":0,"TOWNNAME":"北區","LI":"成德里","LIN":"15鄰","STREET":"育賢街","SECT":" ","MAREA":" ","LANE":"２７巷","ALLEY":" ","HOUSE_NO":"１３號","E_COORD97":168725.07999999999,"N_COORD97":2545942.46,"ADDRESS":"育賢街２７巷１３號","OBJECTID":330076},"geometry":{"x":168725.08000000101,"y":2545942.4600000028}},{"attributes":{"ID":330086,"DIS_CODE":0,"TOWNNAME":"北區","LI":"成德里","LIN":"15鄰","STREET":"育賢街","SECT":" ","MAREA":" ","LANE":"２７巷","ALLEY":" ","HOUSE_NO":"１５號","E_COORD97":168720.16,"N_COORD97":2545944.52,"ADDRESS":"育賢街２７巷１５號","OBJECTID":330077},"geometry":{"x":168720.16000000015,"y":2545944.5199999996}},{"attributes":{"ID":330087,"DIS_CODE":0,"TOWNNAME":"北區","LI":"成德里","LIN":"15鄰","STREET":"育賢街","SECT":" ","MAREA":" ","LANE":"２７巷","ALLEY":" ","HOUSE_NO":"２號","E_COORD97":168759.37,"N_COORD97":2545946.7400000002,"ADDRESS":"育賢街２７巷２號","OBJECTID":330078},"geometry":{"x":168759.37000000011,"y":2545946.7400000021}},{"attributes":{"ID":330088,"DIS_CODE":0,"TOWNNAME":"北區","LI":"成德里","LIN":"15鄰","STREET":"育賢街","SECT":" ","MAREA":" ","LANE":"２７巷","ALLEY":" ","HOUSE_NO":"６號","E_COORD97":168754.45000000001,"N_COORD97":2545948.6499999999,"ADDRESS":"育賢街２７巷６號","OBJECTID":330079},"geometry":{"x":168754.45000000019,"y":2545948.6500000004}},{"attributes":{"ID":330089,"DIS_CODE":0,"TOWNNAME":"北區","LI":"成德里","LIN":"15鄰","STREET":"育賢街","SECT":" ","MAREA":" ","LANE":"２７巷","ALLEY":" ","HOUSE_NO":"８號","E_COORD97":168749.69,"N_COORD97":2545950.0800000001,"ADDRESS":"育賢街２７巷８號","OBJECTID":330080},"geometry":{"x":168749.68999999948,"y":2545950.0800000019}},{"attributes":{"ID":330090,"DIS_CODE":0,"TOWNNAME":"北區","LI":"成德里","LIN":"15鄰","STREET":"育賢街","SECT":" ","MAREA":" ","LANE":"２７巷","ALLEY":" ","HOUSE_NO":"１０號","E_COORD97":168744.92000000001,"N_COORD97":2545951.98,"ADDRESS":"育賢街２７巷１０號","OBJECTID":330081},"geometry":{"x":168744.92000000086,"y":2545951.9800000023}},{"attributes":{"ID":330091,"DIS_CODE":0,"TOWNNAME":"北區","LI":"成德里","LIN":"15鄰","STREET":"育賢街","SECT":" ","MAREA":" ","LANE":"２７巷","ALLEY":" ","HOUSE_NO":"１２號","E_COORD97":168739.84,"N_COORD97":2545953.8900000001,"ADDRESS":"育賢街２７巷１２號","OBJECTID":330082},"geometry":{"x":168739.84000000171,"y":2545953.8900000006}},{"attributes":{"ID":330092,"DIS_CODE":0,"TOWNNAME":"北區","LI":"成德里","LIN":"15鄰","STREET":"育賢街","SECT":" ","MAREA":" ","LANE":"２７巷","ALLEY":" ","HOUSE_NO":"１６號","E_COORD97":168734.29000000001,"N_COORD97":2545955.4700000002,"ADDRESS":"育賢街２７巷１６號","OBJECTID":330083},"geometry":{"x":168734.29000000097,"y":2545955.4700000025}},{"attributes":{"ID":330093,"DIS_CODE":0,"TOWNNAME":"北區","LI":"成德里","LIN":"15鄰","STREET":"育賢街","SECT":" ","MAREA":" ","LANE":"２７巷","ALLEY":" ","HOUSE_NO":"１８號","E_COORD97":168728.41,"N_COORD97":2545958.1699999999,"ADDRESS":"育賢街２７巷１８號","OBJECTID":330084},"geometry":{"x":168728.41000000108,"y":2545958.1699999999}},{"attributes":{"ID":330094,"DIS_CODE":0,"TOWNNAME":"北區","LI":"成德里","LIN":"15鄰","STREET":"育賢街","SECT":" ","MAREA":" ","LANE":"２７巷","ALLEY":" ","HOUSE_NO":"２０號","E_COORD97":168722.38,"N_COORD97":2545959.6000000001,"ADDRESS":"育賢街２７巷２０號","OBJECTID":330085},"geometry":{"x":168722.37999999989,"y":2545959.6000000015}},{"attributes":{"ID":330095,"DIS_CODE":0,"TOWNNAME":"南區","LI":"新昌里","LIN":"17鄰","STREET":"南寧街","SECT":" ","MAREA":" ","LANE":" ","ALLEY":" ","HOUSE_NO":"１４５號","E_COORD97":167583.69,"N_COORD97":2542859.2200000002,"ADDRESS":"南寧街１４５號","OBJECTID":330086},"geometry":{"x":167583.69000000134,"y":2542859.2200000007}},{"attributes":{"ID":330096,"DIS_CODE":0,"TOWNNAME":"南區","LI":"新昌里","LIN":"17鄰","STREET":"南寧街","SECT":" ","MAREA":" ","LANE":" ","ALLEY":" ","HOUSE_NO":"１４７號","E_COORD97":167579.64000000001,"N_COORD97":2542859.2200000002,"ADDRESS":"南寧街１４７號","OBJECTID":330087},"geometry":{"x":167579.64000000153,"y":2542859.2200000007}},{"attributes":{"ID":330097,"DIS_CODE":0,"TOWNNAME":"南區","LI":"新昌里","LIN":"17鄰","STREET":"南寧街","SECT":" ","MAREA":" ","LANE":" ","ALLEY":" ","HOUSE_NO":"１４９號","E_COORD97":167576.88,"N_COORD97":2542860.6800000002,"ADDRESS":"南寧街１４９號","OBJECTID":330088},"geometry":{"x":167576.88000000082,"y":2542860.6800000016}},{"attributes":{"ID":330098,"DIS_CODE":0,"TOWNNAME":"南區","LI":"新昌里","LIN":"17鄰","STREET":"南寧街","SECT":" ","MAREA":" ","LANE":" ","ALLEY":" ","HOUSE_NO":"１５１號","E_COORD97":167573.14000000001,"N_COORD97":2542861.8100000001,"ADDRESS":"南寧街１５１號","OBJECTID":330089},"geometry":{"x":167573.1400000006,"y":2542861.8100000005}},{"attributes":{"ID":330099,"DIS_CODE":0,"TOWNNAME":"南區","LI":"新昌里","LIN":"17鄰","STREET":"南寧街","SECT":" ","MAREA":" ","LANE":" ","ALLEY":" ","HOUSE_NO":"１５３號","E_COORD97":167569.89999999999,"N_COORD97":2542863.7599999998,"ADDRESS":"南寧街１５３號","OBJECTID":330090},"geometry":{"x":167569.90000000037,"y":2542863.7600000016}},{"attributes":{"ID":330100,"DIS_CODE":0,"TOWNNAME":"南區","LI":"彰南里","LIN":"17鄰","STREET":"新義南路","SECT":" ","MAREA":" ","LANE":" ","ALLEY":" ","HOUSE_NO":"４５號","E_COORD97":165609.13,"N_COORD97":2541017.48,"ADDRESS":"新義南路４５號","OBJECTID":330091},"geometry":{"x":165609.13000000082,"y":2541017.4800000042}},{"attributes":{"ID":330101,"DIS_CODE":0,"TOWNNAME":"永康區","LI":"西橋里","LIN":" ","STREET":"大橋三街","SECT":" ","MAREA":" ","LANE":"１０巷","ALLEY":" ","HOUSE_NO":"１６之１１號","E_COORD97":170542.51000000001,"N_COORD97":2546310.5499999998,"ADDRESS":"大橋三街１０巷１６之１１號","OBJECTID":330092},"geometry":{"x":170542.51000000071,"y":2546310.5500000026}},{"attributes":{"ID":330102,"DIS_CODE":0,"TOWNNAME":"永康區","LI":"二王里","LIN":" ","STREET":"中山南路","SECT":" ","MAREA":" ","LANE":"８７２巷","ALLEY":" ","HOUSE_NO":"８６２號","E_COORD97":172962.64000000001,"N_COORD97":2546853.6800000002,"ADDRESS":"中山南路８７２巷８６２號","OBJECTID":330093},"geometry":{"x":172962.6400000006,"y":2546853.6800000034}},{"attributes":{"ID":330103,"DIS_CODE":0,"TOWNNAME":"永康區","LI":"\u25A0洲里","LIN":"5鄰","STREET":"仁愛街","SECT":" ","MAREA":" ","LANE":"１０３巷","ALLEY":" ","HOUSE_NO":"４１號","E_COORD97":171888.5,"N_COORD97":2549542.5299999998,"ADDRESS":"仁愛街１０３巷４１號","OBJECTID":330094},"geometry":{"x":171888.50000000186,"y":2549542.5299999993}},{"attributes":{"ID":330104,"DIS_CODE":0,"TOWNNAME":"永康區","LI":"西橋里","LIN":" ","STREET":"大橋三街","SECT":" ","MAREA":" ","LANE":"１０巷","ALLEY":" ","HOUSE_NO":"１６之３號","E_COORD97":170526.16,"N_COORD97":2546315.5499999998,"ADDRESS":"大橋三街１０巷１６之３號","OBJECTID":330095},"geometry":{"x":170526.16000000015,"y":2546315.5500000007}},{"attributes":{"ID":330105,"DIS_CODE":0,"TOWNNAME":"永康區","LI":"崑山里","LIN":" ","STREET":"大灣路","SECT":" ","MAREA":" ","LANE":"１１０２巷","ALLEY":" ","HOUSE_NO":"４之７號","E_COORD97":173191.95000000001,"N_COORD97":2544504.2599999998,"ADDRESS":"大灣路１１０２巷４之７號","OBJECTID":330096},"geometry":{"x":173191.95000000019,"y":2544504.2600000016}},{"attributes":{"ID":330106,"DIS_CODE":0,"TOWNNAME":"永康區","LI":"尚頂里","LIN":" ","STREET":"中正二街","SECT":" ","MAREA":" ","LANE":"１０５巷","ALLEY":" ","HOUSE_NO":"１０７號","E_COORD97":171052.92000000001,"N_COORD97":2547523.77,"ADDRESS":"中正二街１０５巷１０７號","OBJECTID":330097},"geometry":{"x":171052.91999999993,"y":2547523.7699999996}},{"attributes":{"ID":330107,"DIS_CODE":0,"TOWNNAME":"永康區","LI":"\u25A0洲里","LIN":"5鄰","STREET":"仁愛街","SECT":" ","MAREA":" ","LANE":"１０３巷","ALLEY":" ","HOUSE_NO":"３號","E_COORD97":172023.45000000001,"N_COORD97":2549470.9500000002,"ADDRESS":"仁愛街１０３巷３號","OBJECTID":330098},"geometry":{"x":172023.45000000112,"y":2549470.9499999993}},{"attributes":{"ID":330108,"DIS_CODE":0,"TOWNNAME":"永康區","LI":"\u25A0行里","LIN":"40鄰","STREET":"永安路","SECT":" ","MAREA":" ","LANE":"１０５巷","ALLEY":" ","HOUSE_NO":"２４號","E_COORD97":172671.51000000001,"N_COORD97":2549299.2000000002,"ADDRESS":"永安路１０５巷２４號","OBJECTID":330099},"geometry":{"x":172671.51000000071,"y":2549299.2000000011}},{"attributes":{"ID":330109,"DIS_CODE":0,"TOWNNAME":"北區","LI":"成德里","LIN":"15鄰","STREET":"育賢街","SECT":" ","MAREA":" ","LANE":"７２巷","ALLEY":" ","HOUSE_NO":"２號","E_COORD97":168771.59,"N_COORD97":2546010.5600000001,"ADDRESS":"育賢街７２巷２號","OBJECTID":330100},"geometry":{"x":168771.58999999985,"y":2546010.5600000005}},{"attributes":{"ID":330110,"DIS_CODE":0,"TOWNNAME":"南區","LI":"彰南里","LIN":"17鄰","STREET":"中華西路","SECT":"一段","MAREA":" ","LANE":" ","ALLEY":" ","HOUSE_NO":"３９號","E_COORD97":166220.20000000001,"N_COORD97":2540992.3900000001,"ADDRESS":"中華西路一段３９號","OBJECTID":330101},"geometry":{"x":166220.19999999925,"y":2540992.3900000025}},{"attributes":{"ID":330111,"DIS_CODE":0,"TOWNNAME":"南區","LI":"彰南里","LIN":"17鄰","STREET":"中華西路","SECT":"一段","MAREA":" ","LANE":" ","ALLEY":" ","HOUSE_NO":"４３號","E_COORD97":166233,"N_COORD97":2541057.25,"ADDRESS":"中華西路一段４３號","OBJECTID":330102},"geometry":{"x":166233,"y":2541057.2500000019}},{"attributes":{"ID":330112,"DIS_CODE":0,"TOWNNAME":"南區","LI":"彰南里","LIN":"17鄰","STREET":"中華西路","SECT":"一段","MAREA":" ","LANE":" ","ALLEY":" ","HOUSE_NO":"４７號","E_COORD97":166246.75,"N_COORD97":2541099.4100000001,"ADDRESS":"中華西路一段４７號","OBJECTID":330103},"geometry":{"x":166246.74999999907,"y":2541099.410000002}},{"attributes":{"ID":330113,"DIS_CODE":0,"TOWNNAME":"南區","LI":"彰南里","LIN":"17鄰","STREET":"中華西路","SECT":"一段","MAREA":" ","LANE":" ","ALLEY":" ","HOUSE_NO":"４９號","E_COORD97":166253.39000000001,"N_COORD97":2541142.6800000002,"ADDRESS":"中華西路一段４９號","OBJECTID":330104},"geometry":{"x":166253.38999999966,"y":2541142.6799999997}},{"attributes":{"ID":330114,"DIS_CODE":0,"TOWNNAME":"南區","LI":"彰南里","LIN":"17鄰","STREET":"新和路","SECT":" ","MAREA":" ","LANE":" ","ALLEY":" ","HOUSE_NO":"３０號","E_COORD97":165701.14000000001,"N_COORD97":2540953.1699999999,"ADDRESS":"新和路３０號","OBJECTID":330105},"geometry":{"x":165701.13999999966,"y":2540953.1699999999}},{"attributes":{"ID":330115,"DIS_CODE":0,"TOWNNAME":"南區","LI":"彰南里","LIN":"17鄰","STREET":"新和路","SECT":" ","MAREA":" ","LANE":" ","ALLEY":" ","HOUSE_NO":"３２號","E_COORD97":165678.34,"N_COORD97":2540968.6200000001,"ADDRESS":"新和路３２號","OBJECTID":330106},"geometry":{"x":165678.34000000171,"y":2540968.620000001}},{"attributes":{"ID":330116,"DIS_CODE":0,"TOWNNAME":"南區","LI":"彰南里","LIN":"17鄰","STREET":"新和路","SECT":" ","MAREA":" ","LANE":" ","ALLEY":" ","HOUSE_NO":"３６號","E_COORD97":165607.47,"N_COORD97":2540968.2799999998,"ADDRESS":"新和路３６號","OBJECTID":330107},"geometry":{"x":165607.46999999974,"y":2540968.2800000012}},{"attributes":{"ID":330117,"DIS_CODE":0,"TOWNNAME":"南區","LI":"彰南里","LIN":"17鄰","STREET":"新義南路","SECT":" ","MAREA":" ","LANE":" ","ALLEY":" ","HOUSE_NO":"１１號","E_COORD97":166051.67000000001,"N_COORD97":2541039.2799999998,"ADDRESS":"新義南路１１號","OBJECTID":330108},"geometry":{"x":166051.66999999993,"y":2541039.2800000012}},{"attributes":{"ID":330118,"DIS_CODE":0,"TOWNNAME":"南區","LI":"彰南里","LIN":"17鄰","STREET":"新義南路","SECT":" ","MAREA":" ","LANE":" ","ALLEY":" ","HOUSE_NO":"２３號","E_COORD97":165890.06,"N_COORD97":2541024.3500000001,"ADDRESS":"新義南路２３號","OBJECTID":330109},"geometry":{"x":165890.06000000145,"y":2541024.3500000034}},{"attributes":{"ID":330119,"DIS_CODE":0,"TOWNNAME":"永康區","LI":"三合里","LIN":" ","STREET":"中華二路","SECT":" ","MAREA":" ","LANE":" ","ALLEY":" ","HOUSE_NO":"６號","E_COORD97":172133.94,"N_COORD97":2545459.2400000002,"ADDRESS":"中華二路６號","OBJECTID":330110},"geometry":{"x":172133.94000000134,"y":2545459.2400000002}},{"attributes":{"ID":330120,"DIS_CODE":0,"TOWNNAME":"永康區","LI":"南灣里","LIN":" ","STREET":"南灣街","SECT":" ","MAREA":" ","LANE":"１００巷","ALLEY":" ","HOUSE_NO":"２７號","E_COORD97":174420.14999999999,"N_COORD97":2545032.9900000002,"ADDRESS":"南灣街１００巷２７號","OBJECTID":330111},"geometry":{"x":174420.15000000037,"y":2545032.9900000021}},{"attributes":{"ID":330121,"DIS_CODE":0,"TOWNNAME":"永康區","LI":"勝利里","LIN":" ","STREET":"中華路","SECT":" ","MAREA":" ","LANE":"１２１巷","ALLEY":" ","HOUSE_NO":"１５號","E_COORD97":171500.14999999999,"N_COORD97":2544731.9900000002,"ADDRESS":"中華路１２１巷１５號","OBJECTID":330112},"geometry":{"x":171500.1500000013,"y":2544731.9900000002}},{"attributes":{"ID":330122,"DIS_CODE":0,"TOWNNAME":"永康區","LI":"南灣里","LIN":" ","STREET":"南興路","SECT":" ","MAREA":" ","LANE":"１１２巷","ALLEY":" ","HOUSE_NO":"６號之２","E_COORD97":174377.66,"N_COORD97":2544425.3900000001,"ADDRESS":"南興路１１２巷６號之２","OBJECTID":330113},"geometry":{"x":174377.65999999922,"y":2544425.3900000006}},{"attributes":{"ID":330123,"DIS_CODE":0,"TOWNNAME":"永康區","LI":"\u25A0洲里","LIN":"24鄰","STREET":"正南二街","SECT":" ","MAREA":" ","LANE":"４６巷","ALLEY":" ","HOUSE_NO":"１２號","E_COORD97":170848.67999999999,"N_COORD97":2548327.1099999999,"ADDRESS":"正南二街４６巷１２號","OBJECTID":330114},"geometry":{"x":170848.6799999997,"y":2548327.1099999994}},{"attributes":{"ID":330124,"DIS_CODE":0,"TOWNNAME":"永康區","LI":"尚頂里","LIN":" ","STREET":"尚頂路","SECT":" ","MAREA":" ","LANE":"５２０巷","ALLEY":" ","HOUSE_NO":"５號","E_COORD97":171227.12,"N_COORD97":2547534.48,"ADDRESS":"尚頂路５２０巷５號","OBJECTID":330115},"geometry":{"x":171227.12000000104,"y":2547534.4800000023}},{"attributes":{"ID":330125,"DIS_CODE":0,"TOWNNAME":"北區","LI":"成德里","LIN":"15鄰","STREET":"育賢街","SECT":" ","MAREA":" ","LANE":"７２巷","ALLEY":" ","HOUSE_NO":"６號","E_COORD97":168764.13,"N_COORD97":2546011.6699999999,"ADDRESS":"育賢街７２巷６號","OBJECTID":330116},"geometry":{"x":168764.12999999989,"y":2546011.6699999999}},{"attributes":{"ID":330126,"DIS_CODE":0,"TOWNNAME":"北區","LI":"成德里","LIN":"15鄰","STREET":"育賢街","SECT":" ","MAREA":" ","LANE":"７２巷","ALLEY":" ","HOUSE_NO":"８號","E_COORD97":168754.92999999999,"N_COORD97":2546012.7799999998,"ADDRESS":"育賢街７２巷８號","OBJECTID":330117},"geometry":{"x":168754.93000000063,"y":2546012.7800000012}},{"attributes":{"ID":330127,"DIS_CODE":0,"TOWNNAME":"北區","LI":"成德里","LIN":"15鄰","STREET":"育賢街","SECT":" ","MAREA":" ","LANE":"７２巷","ALLEY":" ","HOUSE_NO":"１０號","E_COORD97":168746.67000000001,"N_COORD97":2546013.8900000001,"ADDRESS":"育賢街７２巷１０號","OBJECTID":330118},"geometry":{"x":168746.67000000086,"y":2546013.8900000025}},{"attributes":{"ID":330128,"DIS_CODE":0,"TOWNNAME":"北區","LI":"成德里","LIN":"15鄰","STREET":"育賢街","SECT":" ","MAREA":" ","LANE":"７２巷","ALLEY":" ","HOUSE_NO":"１２號","E_COORD97":168738.10000000001,"N_COORD97":2546015.1600000001,"ADDRESS":"育賢街７２巷１２號","OBJECTID":330119},"geometry":{"x":168738.10000000056,"y":2546015.160000002}},{"attributes":{"ID":330129,"DIS_CODE":0,"TOWNNAME":"北區","LI":"成德里","LIN":"15鄰","STREET":"育賢街","SECT":" ","MAREA":" ","LANE":"７２巷","ALLEY":" ","HOUSE_NO":"１６號","E_COORD97":168728.89000000001,"N_COORD97":2546016.75,"ADDRESS":"育賢街７２巷１６號","OBJECTID":330120},"geometry":{"x":168728.88999999966,"y":2546016.7500000019}},{"attributes":{"ID":330130,"DIS_CODE":0,"TOWNNAME":"北區","LI":"成德里","LIN":"15鄰","STREET":"育賢街","SECT":" ","MAREA":" ","LANE":"７２巷","ALLEY":" ","HOUSE_NO":"１８號","E_COORD97":168719.37,"N_COORD97":2546018.3399999999,"ADDRESS":"育賢街７２巷１８號","OBJECTID":330121},"geometry":{"x":168719.36999999918,"y":2546018.3399999999}},{"attributes":{"ID":330131,"DIS_CODE":0,"TOWNNAME":"北區","LI":"成德里","LIN":"15鄰","STREET":"育賢街","SECT":" ","MAREA":" ","LANE":"７２巷","ALLEY":" ","HOUSE_NO":"２０號","E_COORD97":168711.10999999999,"N_COORD97":2546019.9300000002,"ADDRESS":"育賢街７２巷２０號","OBJECTID":330122},"geometry":{"x":168711.11000000034,"y":2546019.9299999997}},{"attributes":{"ID":330132,"DIS_CODE":0,"TOWNNAME":"北區","LI":"成德里","LIN":"15鄰","STREET":"育賢街","SECT":" ","MAREA":" ","LANE":"７２巷","ALLEY":" ","HOUSE_NO":"２２號","E_COORD97":168702.70000000001,"N_COORD97":2546020.5600000001,"ADDRESS":"育賢街７２巷２２號","OBJECTID":330123},"geometry":{"x":168702.70000000112,"y":2546020.5600000005}},{"attributes":{"ID":330133,"DIS_CODE":0,"TOWNNAME":"北區","LI":"成德里","LIN":"15鄰","STREET":"育賢街","SECT":" ","MAREA":" ","LANE":"７２巷","ALLEY":" ","HOUSE_NO":"２６號","E_COORD97":168693.48999999999,"N_COORD97":2546021.6699999999,"ADDRESS":"育賢街７２巷２６號","OBJECTID":330124},"geometry":{"x":168693.49000000115,"y":2546021.6699999999}},{"attributes":{"ID":330134,"DIS_CODE":0,"TOWNNAME":"南區","LI":"彰南里","LIN":"17鄰","STREET":"新義南路","SECT":" ","MAREA":" ","LANE":" ","ALLEY":" ","HOUSE_NO":"２７號","E_COORD97":165838.76000000001,"N_COORD97":2541027.2000000002,"ADDRESS":"新義南路２７號","OBJECTID":330125},"geometry":{"x":165838.76000000071,"y":2541027.1999999993}},{"attributes":{"ID":330135,"DIS_CODE":0,"TOWNNAME":"南區","LI":"彰南里","LIN":"17鄰","STREET":"新義南路","SECT":" ","MAREA":" ","LANE":" ","ALLEY":" ","HOUSE_NO":"５號之２","E_COORD97":166165.66,"N_COORD97":2541074.3100000001,"ADDRESS":"新義南路５號之２","OBJECTID":330126},"geometry":{"x":166165.66000000015,"y":2541074.3100000024}},{"attributes":{"ID":330136,"DIS_CODE":0,"TOWNNAME":"南區","LI":"彰南里","LIN":"17鄰","STREET":"新義南路","SECT":" ","MAREA":" ","LANE":" ","ALLEY":" ","HOUSE_NO":"７號之１","E_COORD97":166103.54000000001,"N_COORD97":2541026.6099999999,"ADDRESS":"新義南路７號之１","OBJECTID":330127},"geometry":{"x":166103.54000000004,"y":2541026.6100000013}},{"attributes":{"ID":330137,"DIS_CODE":0,"TOWNNAME":"南區","LI":"廣州里","LIN":"17鄰","STREET":"福吉三街","SECT":" ","MAREA":" ","LANE":" ","ALLEY":" ","HOUSE_NO":"５２號","E_COORD97":167261.45999999999,"N_COORD97":2542731.0800000001,"ADDRESS":"福吉三街５２號","OBJECTID":330128},"geometry":{"x":167261.46000000089,"y":2542731.0800000001}},{"attributes":{"ID":330138,"DIS_CODE":0,"TOWNNAME":"永康區","LI":"勝利里","LIN":" ","STREET":"中華路","SECT":" ","MAREA":" ","LANE":"１２１巷","ALLEY":" ","HOUSE_NO":"１７號","E_COORD97":171486.69,"N_COORD97":2544732.9900000002,"ADDRESS":"中華路１２１巷１７號","OBJECTID":330129},"geometry":{"x":171486.69000000134,"y":2544732.9899999984}},{"attributes":{"ID":330139,"DIS_CODE":0,"TOWNNAME":"永康區","LI":"三民里","LIN":" ","STREET":"三民街","SECT":" ","MAREA":" ","LANE":"１１２巷","ALLEY":" ","HOUSE_NO":"９８號","E_COORD97":172898.64999999999,"N_COORD97":2550319.2799999998,"ADDRESS":"三民街１１２巷９８號","OBJECTID":330130},"geometry":{"x":172898.6500000013,"y":2550319.2799999993}},{"attributes":{"ID":330140,"DIS_CODE":0,"TOWNNAME":"永康區","LI":"尚頂里","LIN":" ","STREET":"國聖街","SECT":" ","MAREA":" ","LANE":"４３巷","ALLEY":" ","HOUSE_NO":"６２號","E_COORD97":170238.22,"N_COORD97":2547637.23,"ADDRESS":"國聖街４３巷６２號","OBJECTID":330131},"geometry":{"x":170238.21999999974,"y":2547637.2300000042}},{"attributes":{"ID":330141,"DIS_CODE":0,"TOWNNAME":"永康區","LI":"南灣里","LIN":" ","STREET":"立興街","SECT":" ","MAREA":" ","LANE":"２８巷","ALLEY":" ","HOUSE_NO":"３２號","E_COORD97":174689.95999999999,"N_COORD97":2544932.0800000001,"ADDRESS":"立興街２８巷３２號","OBJECTID":330132},"geometry":{"x":174689.96000000089,"y":2544932.0800000001}},{"attributes":{"ID":330142,"DIS_CODE":0,"TOWNNAME":"北區","LI":"成德里","LIN":"15鄰","STREET":"育賢街","SECT":" ","MAREA":" ","LANE":"６６巷","ALLEY":" ","HOUSE_NO":"１號","E_COORD97":168758.73999999999,"N_COORD97":2545970.3999999999,"ADDRESS":"育賢街６６巷１號","OBJECTID":330133},"geometry":{"x":168758.74000000022,"y":2545970.4000000004}},{"attributes":{"ID":330143,"DIS_CODE":0,"TOWNNAME":"北區","LI":"成德里","LIN":"15鄰","STREET":"育賢街","SECT":" ","MAREA":" ","LANE":"６６巷","ALLEY":" ","HOUSE_NO":"３號","E_COORD97":168751.75,"N_COORD97":2545971.0299999998,"ADDRESS":"育賢街６６巷３號","OBJECTID":330134},"geometry":{"x":168751.75,"y":2545971.0300000012}},{"attributes":{"ID":330144,"DIS_CODE":0,"TOWNNAME":"北區","LI":"成德里","LIN":"15鄰","STREET":"育賢街","SECT":" ","MAREA":" ","LANE":"６６巷","ALLEY":" ","HOUSE_NO":"５號","E_COORD97":168743.97,"N_COORD97":2545971.6699999999,"ADDRESS":"育賢街６６巷５號","OBJECTID":330135},"geometry":{"x":168743.97000000067,"y":2545971.6699999999}},{"attributes":{"ID":330145,"DIS_CODE":0,"TOWNNAME":"北區","LI":"成德里","LIN":"15鄰","STREET":"育賢街","SECT":" ","MAREA":" ","LANE":"６６巷","ALLEY":" ","HOUSE_NO":"７號","E_COORD97":168736.82999999999,"N_COORD97":2545972.9399999999,"ADDRESS":"育賢街６６巷７號","OBJECTID":330136},"geometry":{"x":168736.83000000101,"y":2545972.9399999995}},{"attributes":{"ID":330146,"DIS_CODE":0,"TOWNNAME":"北區","LI":"成德里","LIN":"15鄰","STREET":"育賢街","SECT":" ","MAREA":" ","LANE":"６６巷","ALLEY":" ","HOUSE_NO":"９號","E_COORD97":168730.16,"N_COORD97":2545974.52,"ADDRESS":"育賢街６６巷９號","OBJECTID":330137},"geometry":{"x":168730.16000000108,"y":2545974.5200000014}},{"attributes":{"ID":330147,"DIS_CODE":0,"TOWNNAME":"北區","LI":"成德里","LIN":"15鄰","STREET":"育賢街","SECT":" ","MAREA":" ","LANE":"６６巷","ALLEY":" ","HOUSE_NO":"２號","E_COORD97":168761.28,"N_COORD97":2545987.3799999999,"ADDRESS":"育賢街６６巷２號","OBJECTID":330138},"geometry":{"x":168761.28000000119,"y":2545987.3800000008}},{"attributes":{"ID":330148,"DIS_CODE":0,"TOWNNAME":"北區","LI":"成德里","LIN":"15鄰","STREET":"育賢街","SECT":" ","MAREA":" ","LANE":"６６巷","ALLEY":" ","HOUSE_NO":"６號","E_COORD97":168754.13,"N_COORD97":2545988.02,"ADDRESS":"育賢街６６巷６號","OBJECTID":330139},"geometry":{"x":168754.12999999989,"y":2545988.0200000014}},{"attributes":{"ID":330149,"DIS_CODE":0,"TOWNNAME":"北區","LI":"成德里","LIN":"15鄰","STREET":"育賢街","SECT":" ","MAREA":" ","LANE":"６６巷","ALLEY":" ","HOUSE_NO":"８號","E_COORD97":168746.51000000001,"N_COORD97":2545988.3300000001,"ADDRESS":"育賢街６６巷８號","OBJECTID":330140},"geometry":{"x":168746.50999999978,"y":2545988.3299999982}},{"attributes":{"ID":330150,"DIS_CODE":0,"TOWNNAME":"北區","LI":"成德里","LIN":"15鄰","STREET":"育賢街","SECT":" ","MAREA":" ","LANE":"６６巷","ALLEY":" ","HOUSE_NO":"１１號","E_COORD97":168723.32999999999,"N_COORD97":2545974.8399999999,"ADDRESS":"育賢街６６巷１１號","OBJECTID":330141},"geometry":{"x":168723.33000000101,"y":2545974.8400000036}},{"attributes":{"ID":330151,"DIS_CODE":0,"TOWNNAME":"北區","LI":"成德里","LIN":"15鄰","STREET":"育賢街","SECT":" ","MAREA":" ","LANE":"６６巷","ALLEY":" ","HOUSE_NO":"１３號","E_COORD97":168715.70999999999,"N_COORD97":2545975.1600000001,"ADDRESS":"育賢街６６巷１３號","OBJECTID":330142},"geometry":{"x":168715.71000000089,"y":2545975.1600000001}},{"attributes":{"ID":330152,"DIS_CODE":0,"TOWNNAME":"北區","LI":"成德里","LIN":"15鄰","STREET":"育賢街","SECT":" ","MAREA":" ","LANE":"６６巷","ALLEY":" ","HOUSE_NO":"１５號","E_COORD97":168708.73000000001,"N_COORD97":2545975.9500000002,"ADDRESS":"育賢街６６巷１５號","OBJECTID":330143},"geometry":{"x":168708.73000000045,"y":2545975.9499999993}},{"attributes":{"ID":330153,"DIS_CODE":0,"TOWNNAME":"北區","LI":"成德里","LIN":"15鄰","STREET":"育賢街","SECT":" ","MAREA":" ","LANE":"６６巷","ALLEY":" ","HOUSE_NO":"１７號","E_COORD97":168700.79000000001,"N_COORD97":2545976.27,"ADDRESS":"育賢街６６巷１７號","OBJECTID":330144},"geometry":{"x":168700.79000000004,"y":2545976.2700000014}},{"attributes":{"ID":330154,"DIS_CODE":0,"TOWNNAME":"北區","LI":"成德里","LIN":"15鄰","STREET":"育賢街","SECT":" ","MAREA":" ","LANE":"６６巷","ALLEY":" ","HOUSE_NO":"１９號","E_COORD97":168690.95000000001,"N_COORD97":2545977.0600000001,"ADDRESS":"育賢街６６巷１９號","OBJECTID":330145},"geometry":{"x":168690.95000000112,"y":2545977.0599999987}},{"attributes":{"ID":330155,"DIS_CODE":0,"TOWNNAME":"北區","LI":"成德里","LIN":"15鄰","STREET":"育賢街","SECT":" ","MAREA":" ","LANE":"６６巷","ALLEY":" ","HOUSE_NO":"１０號","E_COORD97":168739.53,"N_COORD97":2545989.29,"ADDRESS":"育賢街６６巷１０號","OBJECTID":330146},"geometry":{"x":168739.53000000119,"y":2545989.290000001}},{"attributes":{"ID":330156,"DIS_CODE":0,"TOWNNAME":"北區","LI":"成德里","LIN":"15鄰","STREET":"育賢街","SECT":" ","MAREA":" ","LANE":"６６巷","ALLEY":" ","HOUSE_NO":"１２號","E_COORD97":168732.54000000001,"N_COORD97":2545989.9199999999,"ADDRESS":"育賢街６６巷１２號","OBJECTID":330147},"geometry":{"x":168732.54000000097,"y":2545989.9199999999}},{"attributes":{"ID":330157,"DIS_CODE":0,"TOWNNAME":"南區","LI":"廣州里","LIN":"17鄰","STREET":"福吉三街","SECT":" ","MAREA":" ","LANE":" ","ALLEY":" ","HOUSE_NO":"５６號","E_COORD97":167254.28,"N_COORD97":2542736.98,"ADDRESS":"福吉三街５６號","OBJECTID":330148},"geometry":{"x":167254.28000000119,"y":2542736.9800000023}},{"attributes":{"ID":330158,"DIS_CODE":0,"TOWNNAME":"南區","LI":"廣州里","LIN":"17鄰","STREET":"福吉三街","SECT":" ","MAREA":" ","LANE":" ","ALLEY":" ","HOUSE_NO":"５８號","E_COORD97":167251.32999999999,"N_COORD97":2542739.5099999998,"ADDRESS":"福吉三街５８號","OBJECTID":330149},"geometry":{"x":167251.33000000007,"y":2542739.5100000016}},{"attributes":{"ID":330159,"DIS_CODE":0,"TOWNNAME":"南區","LI":"廣州里","LIN":"17鄰","STREET":"福吉三街","SECT":" ","MAREA":" ","LANE":" ","ALLEY":" ","HOUSE_NO":"６０號","E_COORD97":167247.95000000001,"N_COORD97":2542741.6200000001,"ADDRESS":"福吉三街６０號","OBJECTID":330150},"geometry":{"x":167247.95000000112,"y":2542741.620000001}},{"attributes":{"ID":330160,"DIS_CODE":0,"TOWNNAME":"南區","LI":"廣州里","LIN":"17鄰","STREET":"福吉三街","SECT":" ","MAREA":" ","LANE":" ","ALLEY":" ","HOUSE_NO":"６４號","E_COORD97":167242.04000000001,"N_COORD97":2542747.52,"ADDRESS":"福吉三街６４號","OBJECTID":330151},"geometry":{"x":167242.04000000097,"y":2542747.5199999996}},{"attributes":{"ID":330161,"DIS_CODE":0,"TOWNNAME":"南區","LI":"廣州里","LIN":"17鄰","STREET":"福吉三街","SECT":" ","MAREA":" ","LANE":" ","ALLEY":" ","HOUSE_NO":"６６號","E_COORD97":167244.14999999999,"N_COORD97":2542755.5299999998,"ADDRESS":"福吉三街６６號","OBJECTID":330152},"geometry":{"x":167244.15000000037,"y":2542755.5300000031}},{"attributes":{"ID":330162,"DIS_CODE":0,"TOWNNAME":"永康區","LI":"安康里","LIN":" ","STREET":"中華西街","SECT":" ","MAREA":" ","LANE":"８巷","ALLEY":" ","HOUSE_NO":"５號","E_COORD97":170857.67000000001,"N_COORD97":2545938.2400000002,"ADDRESS":"中華西街８巷５號","OBJECTID":330153},"geometry":{"x":170857.66999999993,"y":2545938.2399999984}},{"attributes":{"ID":330163,"DIS_CODE":0,"TOWNNAME":"永康區","LI":"二王里","LIN":" ","STREET":"永二街","SECT":" ","MAREA":" ","LANE":"３９３巷","ALLEY":" ","HOUSE_NO":"３９５號","E_COORD97":172873.62,"N_COORD97":2546628.2200000002,"ADDRESS":"永二街３９３巷３９５號","OBJECTID":330154},"geometry":{"x":172873.62000000011,"y":2546628.2200000025}},{"attributes":{"ID":330164,"DIS_CODE":0,"TOWNNAME":"永康區","LI":"\u25A0洲里","LIN":"36鄰","STREET":"\u25A0洲二街","SECT":" ","MAREA":" ","LANE":"１７５巷","ALLEY":" ","HOUSE_NO":"１號","E_COORD97":171699.98000000001,"N_COORD97":2549415.75,"ADDRESS":"\u25A0洲二街１７５巷１號","OBJECTID":330155},"geometry":{"x":171699.98000000138,"y":2549415.75}},{"attributes":{"ID":330165,"DIS_CODE":0,"TOWNNAME":"永康區","LI":"\u25A0洲里","LIN":"5鄰","STREET":"仁愛街","SECT":" ","MAREA":" ","LANE":"１０３巷","ALLEY":" ","HOUSE_NO":"８６號","E_COORD97":171881.54999999999,"N_COORD97":2549569.77,"ADDRESS":"仁愛街１０３巷８６號","OBJECTID":330156},"geometry":{"x":171881.55000000075,"y":2549569.7700000014}},{"attributes":{"ID":330166,"DIS_CODE":0,"TOWNNAME":"永康區","LI":"\u25A0洲里","LIN":"5鄰","STREET":"仁愛街","SECT":" ","MAREA":" ","LANE":"１０３巷","ALLEY":" ","HOUSE_NO":"２８號","E_COORD97":171975.25,"N_COORD97":2549516.0299999998,"ADDRESS":"仁愛街１０３巷２８號","OBJECTID":330157},"geometry":{"x":171975.25000000093,"y":2549516.0300000012}},{"attributes":{"ID":330167,"DIS_CODE":0,"TOWNNAME":"永康區","LI":"\u25A0洲里","LIN":"5鄰","STREET":"仁愛街","SECT":" ","MAREA":" ","LANE":"１０３巷","ALLEY":" ","HOUSE_NO":"７８號","E_COORD97":171892.81,"N_COORD97":2549561.5299999998,"ADDRESS":"仁愛街１０３巷７８號","OBJECTID":330158},"geometry":{"x":171892.81000000145,"y":2549561.5299999993}},{"attributes":{"ID":330168,"DIS_CODE":0,"TOWNNAME":"北區","LI":"成德里","LIN":"15鄰","STREET":"育賢街","SECT":" ","MAREA":" ","LANE":"６６巷","ALLEY":" ","HOUSE_NO":"１６號","E_COORD97":168725.56,"N_COORD97":2545991.0299999998,"ADDRESS":"育賢街６６巷１６號","OBJECTID":330159},"geometry":{"x":168725.55999999959,"y":2545991.0300000012}},{"attributes":{"ID":330169,"DIS_CODE":0,"TOWNNAME":"北區","LI":"成德里","LIN":"15鄰","STREET":"育賢街","SECT":" ","MAREA":" ","LANE":"６６巷","ALLEY":" ","HOUSE_NO":"１８號","E_COORD97":168718.57000000001,"N_COORD97":2545991.6699999999,"ADDRESS":"育賢街６６巷１８號","OBJECTID":330160},"geometry":{"x":168718.57000000123,"y":2545991.6699999999}},{"attributes":{"ID":330170,"DIS_CODE":0,"TOWNNAME":"北區","LI":"成德里","LIN":"15鄰","STREET":"育賢街","SECT":" ","MAREA":" ","LANE":"６６巷","ALLEY":" ","HOUSE_NO":"２０號","E_COORD97":168711.26999999999,"N_COORD97":2545992.9399999999,"ADDRESS":"育賢街６６巷２０號","OBJECTID":330161},"geometry":{"x":168711.27000000048,"y":2545992.9399999995}},{"attributes":{"ID":330171,"DIS_CODE":0,"TOWNNAME":"北區","LI":"成德里","LIN":"15鄰","STREET":"育賢街","SECT":" ","MAREA":" ","LANE":"６６巷","ALLEY":" ","HOUSE_NO":"２２號","E_COORD97":168702.38,"N_COORD97":2545993.73,"ADDRESS":"育賢街６６巷２２號","OBJECTID":330162},"geometry":{"x":168702.38000000082,"y":2545993.7300000023}},{"attributes":{"ID":330172,"DIS_CODE":0,"TOWNNAME":"北區","LI":"成德里","LIN":"15鄰","STREET":"育賢街","SECT":" ","MAREA":" ","LANE":"６６巷","ALLEY":" ","HOUSE_NO":"２６號","E_COORD97":168693.81,"N_COORD97":2545994.8399999999,"ADDRESS":"育賢街６６巷２６號","OBJECTID":330163},"geometry":{"x":168693.80999999866,"y":2545994.839999998}},{"attributes":{"ID":330173,"DIS_CODE":0,"TOWNNAME":"北區","LI":"成德里","LIN":"15鄰","STREET":"育賢街","SECT":" ","MAREA":" ","LANE":"３６巷","ALLEY":" ","HOUSE_NO":"１號","E_COORD97":168788.26000000001,"N_COORD97":2545940.8700000001,"ADDRESS":"育賢街３６巷１號","OBJECTID":330164},"geometry":{"x":168788.26000000071,"y":2545940.870000001}},{"attributes":{"ID":330174,"DIS_CODE":0,"TOWNNAME":"北區","LI":"成德里","LIN":"15鄰","STREET":"育賢街","SECT":" ","MAREA":" ","LANE":"３６巷","ALLEY":" ","HOUSE_NO":"３號","E_COORD97":168793.82000000001,"N_COORD97":2545940.3900000001,"ADDRESS":"育賢街３６巷３號","OBJECTID":330165},"geometry":{"x":168793.8200000003,"y":2545940.3900000006}},{"attributes":{"ID":330175,"DIS_CODE":0,"TOWNNAME":"北區","LI":"成德里","LIN":"15鄰","STREET":"育賢街","SECT":" ","MAREA":" ","LANE":"３６巷","ALLEY":" ","HOUSE_NO":"５號","E_COORD97":168798.89999999999,"N_COORD97":2545938.96,"ADDRESS":"育賢街３６巷５號","OBJECTID":330166},"geometry":{"x":168798.90000000037,"y":2545938.9600000028}},{"attributes":{"ID":330176,"DIS_CODE":0,"TOWNNAME":"南區","LI":"廣州里","LIN":"17鄰","STREET":"福吉三街","SECT":" ","MAREA":" ","LANE":" ","ALLEY":" ","HOUSE_NO":"６８號","E_COORD97":167241.19,"N_COORD97":2542758.0600000001,"ADDRESS":"福吉三街６８號","OBJECTID":330167},"geometry":{"x":167241.19000000227,"y":2542758.0600000024}},{"attributes":{"ID":330177,"DIS_CODE":0,"TOWNNAME":"南區","LI":"廣州里","LIN":"17鄰","STREET":"福吉三街","SECT":" ","MAREA":" ","LANE":" ","ALLEY":" ","HOUSE_NO":"７０號","E_COORD97":167234.01000000001,"N_COORD97":2542758.0600000001,"ADDRESS":"福吉三街７０號","OBJECTID":330168},"geometry":{"x":167234.01000000071,"y":2542758.0600000024}},{"attributes":{"ID":330178,"DIS_CODE":0,"TOWNNAME":"南區","LI":"廣州里","LIN":"17鄰","STREET":"福吉三街","SECT":" ","MAREA":" ","LANE":" ","ALLEY":" ","HOUSE_NO":"７２號","E_COORD97":167230.20999999999,"N_COORD97":2542761.8599999999,"ADDRESS":"福吉三街７２號","OBJECTID":330169},"geometry":{"x":167230.20999999903,"y":2542761.8599999994}},{"attributes":{"ID":330179,"DIS_CODE":0,"TOWNNAME":"南區","LI":"廣州里","LIN":"17鄰","STREET":"福吉三街","SECT":" ","MAREA":" ","LANE":" ","ALLEY":" ","HOUSE_NO":"７４號","E_COORD97":167226.39000000001,"N_COORD97":2542765.4500000002,"ADDRESS":"福吉三街７４號","OBJECTID":330170},"geometry":{"x":167226.38999999966,"y":2542765.4499999993}},{"attributes":{"ID":330180,"DIS_CODE":0,"TOWNNAME":"南區","LI":"廣州里","LIN":"17鄰","STREET":"福吉三街","SECT":" ","MAREA":" ","LANE":" ","ALLEY":" ","HOUSE_NO":"７６號","E_COORD97":167221.98999999999,"N_COORD97":2542767.77,"ADDRESS":"福吉三街７６號","OBJECTID":330171},"geometry":{"x":167221.99000000209,"y":2542767.7700000033}},{"attributes":{"ID":330181,"DIS_CODE":0,"TOWNNAME":"東山區","LI":"科里里","LIN":"1鄰","STREET":" ","SECT":" ","MAREA":"下庄子","LANE":" ","ALLEY":" ","HOUSE_NO":"１號之９","E_COORD97":189689.70123999999,"N_COORD97":2578555.86576,"ADDRESS":"下庄子１號之９","OBJECTID":330172},"geometry":{"x":189689.70124000032,"y":2578555.8657600023}},{"attributes":{"ID":330182,"DIS_CODE":0,"TOWNNAME":"南區","LI":"廣州里","LIN":"17鄰","STREET":"福吉三街","SECT":" ","MAREA":" ","LANE":" ","ALLEY":" ","HOUSE_NO":"７８號","E_COORD97":167218.82000000001,"N_COORD97":2542770.29,"ADDRESS":"福吉三街７８號","OBJECTID":330173},"geometry":{"x":167218.82000000123,"y":2542770.2900000028}},{"attributes":{"ID":330183,"DIS_CODE":0,"TOWNNAME":"安南區","LI":"大安里","LIN":"17鄰","STREET":"義安街","SECT":" ","MAREA":" ","LANE":" ","ALLEY":" ","HOUSE_NO":"１４４號","E_COORD97":167538.14999999999,"N_COORD97":2548195.2799999998,"ADDRESS":"義安街１４４號","OBJECTID":330174},"geometry":{"x":167538.1500000013,"y":2548195.2800000031}},{"attributes":{"ID":330184,"DIS_CODE":0,"TOWNNAME":"永康區","LI":"南灣里","LIN":" ","STREET":"南興路","SECT":" ","MAREA":" ","LANE":"４８巷","ALLEY":" ","HOUSE_NO":"１１之６號","E_COORD97":174548.92000000001,"N_COORD97":2544301.21,"ADDRESS":"南興路４８巷１１之６號","OBJECTID":330175},"geometry":{"x":174548.92000000086,"y":2544301.2100000009}},{"attributes":{"ID":330185,"DIS_CODE":0,"TOWNNAME":"永康區","LI":"南灣里","LIN":" ","STREET":"南興路","SECT":" ","MAREA":" ","LANE":"３巷","ALLEY":" ","HOUSE_NO":"７之３號","E_COORD97":173865.89999999999,"N_COORD97":2543843,"ADDRESS":"南興路３巷７之３號","OBJECTID":330176},"geometry":{"x":173865.90000000037,"y":2543843}},{"attributes":{"ID":330186,"DIS_CODE":0,"TOWNNAME":"永康區","LI":"正強里","LIN":" ","STREET":"中山南路","SECT":" ","MAREA":" ","LANE":"４７１巷","ALLEY":" ","HOUSE_NO":"２８號","E_COORD97":173144.06,"N_COORD97":2547149.5499999998,"ADDRESS":"中山南路４７１巷２８號","OBJECTID":330177},"geometry":{"x":173144.06000000052,"y":2547149.5500000007}},{"attributes":{"ID":330187,"DIS_CODE":0,"TOWNNAME":"永康區","LI":"安康里","LIN":" ","STREET":"中華西街","SECT":" ","MAREA":" ","LANE":"１９６巷","ALLEY":" ","HOUSE_NO":"４１號","E_COORD97":170713.92999999999,"N_COORD97":2546389.8199999998,"ADDRESS":"中華西街１９６巷４１號","OBJECTID":330178},"geometry":{"x":170713.93000000156,"y":2546389.8200000022}},{"attributes":{"ID":330188,"DIS_CODE":0,"TOWNNAME":"永康區","LI":"南灣里","LIN":" ","STREET":"南興路","SECT":" ","MAREA":" ","LANE":"２巷","ALLEY":" ","HOUSE_NO":"２１之６號","E_COORD97":174533.45000000001,"N_COORD97":2544005.52,"ADDRESS":"南興路２巷２１之６號","OBJECTID":330179},"geometry":{"x":174533.45000000205,"y":2544005.5199999996}},{"attributes":{"ID":330189,"DIS_CODE":0,"TOWNNAME":"永康區","LI":"二王里","LIN":" ","STREET":"南工街","SECT":" ","MAREA":" ","LANE":"２１２巷","ALLEY":" ","HOUSE_NO":"２號","E_COORD97":172129.92999999999,"N_COORD97":2545942.8999999999,"ADDRESS":"南工街２１２巷２號","OBJECTID":330180},"geometry":{"x":172129.93000000063,"y":2545942.9000000004}},{"attributes":{"ID":330190,"DIS_CODE":0,"TOWNNAME":"永康區","LI":"\u25A0洲里","LIN":"36鄰","STREET":"\u25A0洲二街","SECT":" ","MAREA":" ","LANE":"１７５巷","ALLEY":" ","HOUSE_NO":"４３號","E_COORD97":171631.59,"N_COORD97":2549483.5,"ADDRESS":"\u25A0洲二街１７５巷４３號","OBJECTID":330181},"geometry":{"x":171631.58999999985,"y":2549483.5000000019}},{"attributes":{"ID":330191,"DIS_CODE":0,"TOWNNAME":"永康區","LI":"\u25A0行里","LIN":"20鄰","STREET":"正南五街","SECT":" ","MAREA":" ","LANE":"２８９巷","ALLEY":" ","HOUSE_NO":"６６號","E_COORD97":171784.39999999999,"N_COORD97":2548328.6000000001,"ADDRESS":"正南五街２８９巷６６號","OBJECTID":330182},"geometry":{"x":171784.40000000224,"y":2548328.5999999996}},{"attributes":{"ID":330192,"DIS_CODE":0,"TOWNNAME":"永康區","LI":"\u25A0行里","LIN":"39鄰","STREET":"永安路","SECT":" ","MAREA":" ","LANE":"１０５巷","ALLEY":" ","HOUSE_NO":"２５號","E_COORD97":172725.38,"N_COORD97":2549207.3799999999,"ADDRESS":"永安路１０５巷２５號","OBJECTID":330183},"geometry":{"x":172725.38000000082,"y":2549207.379999999}},{"attributes":{"ID":330193,"DIS_CODE":0,"TOWNNAME":"北區","LI":"成德里","LIN":"15鄰","STREET":"育賢街","SECT":" ","MAREA":" ","LANE":"３６巷","ALLEY":" ","HOUSE_NO":"７號","E_COORD97":168804.60999999999,"N_COORD97":2545936.8999999999,"ADDRESS":"育賢街３６巷７號","OBJECTID":330184},"geometry":{"x":168804.6100000022,"y":2545936.9000000004}},{"attributes":{"ID":330194,"DIS_CODE":0,"TOWNNAME":"北區","LI":"成德里","LIN":"15鄰","STREET":"育賢街","SECT":" ","MAREA":" ","LANE":"３６巷","ALLEY":" ","HOUSE_NO":"９號","E_COORD97":168810.32999999999,"N_COORD97":2545934.9900000002,"ADDRESS":"育賢街３６巷９號","OBJECTID":330185},"geometry":{"x":168810.33000000101,"y":2545934.9900000021}},{"attributes":{"ID":330195,"DIS_CODE":0,"TOWNNAME":"北區","LI":"成德里","LIN":"15鄰","STREET":"育賢街","SECT":" ","MAREA":" ","LANE":"３６巷","ALLEY":" ","HOUSE_NO":"１１號","E_COORD97":168816.51999999999,"N_COORD97":2545933.0899999999,"ADDRESS":"育賢街３６巷１１號","OBJECTID":330186},"geometry":{"x":168816.52000000048,"y":2545933.0900000017}},{"attributes":{"ID":330196,"DIS_CODE":0,"TOWNNAME":"北區","LI":"成德里","LIN":"15鄰","STREET":"育賢街","SECT":" ","MAREA":" ","LANE":"３６巷","ALLEY":" ","HOUSE_NO":"１３號","E_COORD97":168822.54999999999,"N_COORD97":2545930.8700000001,"ADDRESS":"育賢街３６巷１３號","OBJECTID":330187},"geometry":{"x":168822.54999999981,"y":2545930.870000001}},{"attributes":{"ID":330197,"DIS_CODE":0,"TOWNNAME":"北區","LI":"成德里","LIN":"15鄰","STREET":"育賢街","SECT":" ","MAREA":" ","LANE":"３６巷","ALLEY":" ","HOUSE_NO":"１５號","E_COORD97":168828.26999999999,"N_COORD97":2545928.96,"ADDRESS":"育賢街３６巷１５號","OBJECTID":330188},"geometry":{"x":168828.27000000048,"y":2545928.9600000028}},{"attributes":{"ID":330198,"DIS_CODE":0,"TOWNNAME":"北區","LI":"成德里","LIN":"15鄰","STREET":"育賢街","SECT":" ","MAREA":" ","LANE":"３６巷","ALLEY":" ","HOUSE_NO":"１７號","E_COORD97":168833.82000000001,"N_COORD97":2545927.2200000002,"ADDRESS":"育賢街３６巷１７號","OBJECTID":330189},"geometry":{"x":168833.82000000123,"y":2545927.2200000007}},{"attributes":{"ID":330199,"DIS_CODE":0,"TOWNNAME":"北區","LI":"成德里","LIN":"15鄰","STREET":"育賢街","SECT":" ","MAREA":" ","LANE":"３６巷","ALLEY":" ","HOUSE_NO":"１９號","E_COORD97":168839.38,"N_COORD97":2545925.1499999999,"ADDRESS":"育賢街３６巷１９號","OBJECTID":330190},"geometry":{"x":168839.37999999989,"y":2545925.1500000004}},{"attributes":{"ID":330200,"DIS_CODE":0,"TOWNNAME":"北區","LI":"成德里","LIN":"15鄰","STREET":"育賢街","SECT":" ","MAREA":" ","LANE":"３６巷","ALLEY":" ","HOUSE_NO":"２號","E_COORD97":168780.95999999999,"N_COORD97":2545922.9300000002,"ADDRESS":"育賢街３６巷２號","OBJECTID":330191},"geometry":{"x":168780.95999999996,"y":2545922.9300000034}},{"attributes":{"ID":330201,"DIS_CODE":0,"TOWNNAME":"安南區","LI":"大安里","LIN":"17鄰","STREET":"義安街","SECT":" ","MAREA":" ","LANE":" ","ALLEY":" ","HOUSE_NO":"１４６號","E_COORD97":167540.87,"N_COORD97":2548199.04,"ADDRESS":"義安街１４６號","OBJECTID":330192},"geometry":{"x":167540.87000000011,"y":2548199.0399999991}},{"attributes":{"ID":330202,"DIS_CODE":0,"TOWNNAME":"安南區","LI":"大安里","LIN":"17鄰","STREET":"義安街","SECT":" ","MAREA":" ","LANE":" ","ALLEY":" ","HOUSE_NO":"１４８號","E_COORD97":167543.28,"N_COORD97":2548203.1200000001,"ADDRESS":"義安街１４８號","OBJECTID":330193},"geometry":{"x":167543.28000000026,"y":2548203.1200000029}},{"attributes":{"ID":330203,"DIS_CODE":0,"TOWNNAME":"安南區","LI":"大安里","LIN":"17鄰","STREET":"義安街","SECT":" ","MAREA":" ","LANE":" ","ALLEY":" ","HOUSE_NO":"１５０號","E_COORD97":167546.32000000001,"N_COORD97":2548206.6600000001,"ADDRESS":"義安街１５０號","OBJECTID":330194},"geometry":{"x":167546.3200000003,"y":2548206.6600000001}},{"attributes":{"ID":330204,"DIS_CODE":0,"TOWNNAME":"安南區","LI":"大安里","LIN":"17鄰","STREET":"義安街","SECT":" ","MAREA":" ","LANE":" ","ALLEY":" ","HOUSE_NO":"１５２號","E_COORD97":167548.56,"N_COORD97":2548210.6600000001,"ADDRESS":"義安街１５２號","OBJECTID":330195},"geometry":{"x":167548.56000000052,"y":2548210.6600000039}},{"attributes":{"ID":330205,"DIS_CODE":0,"TOWNNAME":"安南區","LI":"溪心里","LIN":"17鄰","STREET":"仁安四街","SECT":" ","MAREA":" ","LANE":" ","ALLEY":" ","HOUSE_NO":"７０號","E_COORD97":166179.88,"N_COORD97":2550145.2999999998,"ADDRESS":"仁安四街７０號","OBJECTID":330196},"geometry":{"x":166179.88000000175,"y":2550145.3000000007}},{"attributes":{"ID":330206,"DIS_CODE":0,"TOWNNAME":"安南區","LI":"溪心里","LIN":"17鄰","STREET":"仁安四街","SECT":" ","MAREA":" ","LANE":" ","ALLEY":" ","HOUSE_NO":"７５號","E_COORD97":166170.22,"N_COORD97":2550166.52,"ADDRESS":"仁安四街７５號","OBJECTID":330197},"geometry":{"x":166170.21999999974,"y":2550166.5199999996}},{"attributes":{"ID":330207,"DIS_CODE":0,"TOWNNAME":"安南區","LI":"溪心里","LIN":"17鄰","STREET":"仁安二街","SECT":" ","MAREA":" ","LANE":" ","ALLEY":" ","HOUSE_NO":"１１２號","E_COORD97":166104.37,"N_COORD97":2550199.2400000002,"ADDRESS":"仁安二街１１２號","OBJECTID":330198},"geometry":{"x":166104.37000000104,"y":2550199.2400000002}},{"attributes":{"ID":330208,"DIS_CODE":0,"TOWNNAME":"安南區","LI":"溪心里","LIN":"17鄰","STREET":"仁安二街","SECT":" ","MAREA":" ","LANE":" ","ALLEY":" ","HOUSE_NO":"１１４號","E_COORD97":166108.20000000001,"N_COORD97":2550202.9100000001,"ADDRESS":"仁安二街１１４號","OBJECTID":330199},"geometry":{"x":166108.20000000019,"y":2550202.910000002}},{"attributes":{"ID":330209,"DIS_CODE":0,"TOWNNAME":"安南區","LI":"溪心里","LIN":"17鄰","STREET":"仁安二街","SECT":" ","MAREA":" ","LANE":" ","ALLEY":" ","HOUSE_NO":"１１６號","E_COORD97":166112.25,"N_COORD97":2550205.1200000001,"ADDRESS":"仁安二街１１６號","OBJECTID":330200},"geometry":{"x":166112.25,"y":2550205.1200000048}}]}