{"displayFieldName":"TOWNNAME","fieldAliases":{"ID":"ID","DIS_CODE":"DIS_CODE","TOWNNAME":"TOWNNAME","LI":"LI","LIN":"LIN","STREET":"STREET","SECT":"SECT","MAREA":"MAREA","LANE":"LANE","ALLEY":"ALLEY","HOUSE_NO":"HOUSE_NO","E_COORD97":"E_COORD97","N_COORD97":"N_COORD97","ADDRESS":"ADDRESS","OBJECTID":"OBJECTID"},"geometryType":"esriGeometryPoint","spatialReference":{"wkid":102443,"latestWkid":3826},"fields":[{"name":"ID","type":"esriFieldTypeDouble","alias":"ID"},{"name":"DIS_CODE","type":"esriFieldTypeInteger","alias":"DIS_CODE"},{"name":"TOWNNAME","type":"esriFieldTypeString","alias":"TOWNNAME","length":8},{"name":"LI","type":"esriFieldTypeString","alias":"LI","length":8},{"name":"LIN","type":"esriFieldTypeString","alias":"LIN","length":12},{"name":"STREET","type":"esriFieldTypeString","alias":"STREET","length":20},{"name":"SECT","type":"esriFieldTypeString","alias":"SECT","length":8},{"name":"MAREA","type":"esriFieldTypeString","alias":"MAREA","length":12},{"name":"LANE","type":"esriFieldTypeString","alias":"LANE","length":10},{"name":"ALLEY","type":"esriFieldTypeString","alias":"ALLEY","length":10},{"name":"HOUSE_NO","type":"esriFieldTypeString","alias":"HOUSE_NO","length":20},{"name":"E_COORD97","type":"esriFieldTypeDouble","alias":"E_COORD97"},{"name":"N_COORD97","type":"esriFieldTypeDouble","alias":"N_COORD97"},{"name":"ADDRESS","type":"esriFieldTypeString","alias":"ADDRESS","length":50},{"name":"OBJECTID","type":"esriFieldTypeOID","alias":"OBJECTID"}],"features":[{"attributes":{"ID":295009,"DIS_CODE":0,"TOWNNAME":"北區","LI":"長榮里","LIN":"17鄰","STREET":"長榮路","SECT":"五段","MAREA":" ","LANE":"４１巷","ALLEY":" ","HOUSE_NO":"５８號六樓之５","E_COORD97":169922.38,"N_COORD97":2545563.6200000001,"ADDRESS":"長榮路五段４１巷５８號六樓之５","OBJECTID":295001},"geometry":{"x":169922.37999999989,"y":2545563.6199999992}},{"attributes":{"ID":295010,"DIS_CODE":0,"TOWNNAME":"北區","LI":"長榮里","LIN":"17鄰","STREET":"長榮路","SECT":"五段","MAREA":" ","LANE":"４１巷","ALLEY":" ","HOUSE_NO":"５８號七樓之１","E_COORD97":169922.38,"N_COORD97":2545563.6200000001,"ADDRESS":"長榮路五段４１巷５８號七樓之１","OBJECTID":295002},"geometry":{"x":169922.37999999989,"y":2545563.6199999992}},{"attributes":{"ID":295011,"DIS_CODE":0,"TOWNNAME":"北區","LI":"長榮里","LIN":"17鄰","STREET":"長榮路","SECT":"五段","MAREA":" ","LANE":"４１巷","ALLEY":" ","HOUSE_NO":"５８號八樓之３","E_COORD97":169922.38,"N_COORD97":2545563.6200000001,"ADDRESS":"長榮路五段４１巷５８號八樓之３","OBJECTID":295003},"geometry":{"x":169922.37999999989,"y":2545563.6199999992}},{"attributes":{"ID":295012,"DIS_CODE":0,"TOWNNAME":"北區","LI":"長榮里","LIN":"17鄰","STREET":"長榮路","SECT":"五段","MAREA":" ","LANE":"４１巷","ALLEY":" ","HOUSE_NO":"５８號八樓之５","E_COORD97":169922.38,"N_COORD97":2545563.6200000001,"ADDRESS":"長榮路五段４１巷５８號八樓之５","OBJECTID":295004},"geometry":{"x":169922.37999999989,"y":2545563.6199999992}},{"attributes":{"ID":295013,"DIS_CODE":0,"TOWNNAME":"北區","LI":"長榮里","LIN":"17鄰","STREET":"長榮路","SECT":"五段","MAREA":" ","LANE":"４１巷","ALLEY":" ","HOUSE_NO":"５８號九樓之１","E_COORD97":169922.38,"N_COORD97":2545563.6200000001,"ADDRESS":"長榮路五段４１巷５８號九樓之１","OBJECTID":295005},"geometry":{"x":169922.37999999989,"y":2545563.6199999992}},{"attributes":{"ID":295014,"DIS_CODE":0,"TOWNNAME":"北區","LI":"長榮里","LIN":"17鄰","STREET":"長榮路","SECT":"五段","MAREA":" ","LANE":"４１巷","ALLEY":" ","HOUSE_NO":"５８號九樓之２","E_COORD97":169922.38,"N_COORD97":2545563.6200000001,"ADDRESS":"長榮路五段４１巷５８號九樓之２","OBJECTID":295006},"geometry":{"x":169922.37999999989,"y":2545563.6199999992}},{"attributes":{"ID":295015,"DIS_CODE":0,"TOWNNAME":"北區","LI":"長榮里","LIN":"17鄰","STREET":"長榮路","SECT":"五段","MAREA":" ","LANE":"４１巷","ALLEY":" ","HOUSE_NO":"５８號九樓之３","E_COORD97":169922.38,"N_COORD97":2545563.6200000001,"ADDRESS":"長榮路五段４１巷５８號九樓之３","OBJECTID":295007},"geometry":{"x":169922.37999999989,"y":2545563.6199999992}},{"attributes":{"ID":295016,"DIS_CODE":0,"TOWNNAME":"安平區","LI":"金城里","LIN":"14鄰","STREET":"世平四街","SECT":" ","MAREA":" ","LANE":" ","ALLEY":" ","HOUSE_NO":"１９號之１","E_COORD97":162909.14999999999,"N_COORD97":2544143.71,"ADDRESS":"世平四街１９號之１","OBJECTID":295008},"geometry":{"x":162909.1500000013,"y":2544143.7100000028}},{"attributes":{"ID":295017,"DIS_CODE":0,"TOWNNAME":"安平區","LI":"金城里","LIN":"14鄰","STREET":"世平四街","SECT":" ","MAREA":" ","LANE":" ","ALLEY":" ","HOUSE_NO":"２１號","E_COORD97":162941.63,"N_COORD97":2544153.1899999999,"ADDRESS":"世平四街２１號","OBJECTID":295009},"geometry":{"x":162941.62999999989,"y":2544153.1899999995}},{"attributes":{"ID":295018,"DIS_CODE":0,"TOWNNAME":"安平區","LI":"金城里","LIN":"14鄰","STREET":"世平四街","SECT":" ","MAREA":" ","LANE":" ","ALLEY":" ","HOUSE_NO":"２３號","E_COORD97":162944.19,"N_COORD97":2544148.8100000001,"ADDRESS":"世平四街２３號","OBJECTID":295010},"geometry":{"x":162944.19000000134,"y":2544148.8100000024}},{"attributes":{"ID":295019,"DIS_CODE":0,"TOWNNAME":"安平區","LI":"金城里","LIN":"14鄰","STREET":"世平四街","SECT":" ","MAREA":" ","LANE":" ","ALLEY":" ","HOUSE_NO":"２３號之１","E_COORD97":162914.07999999999,"N_COORD97":2544135.1400000001,"ADDRESS":"世平四街２３號之１","OBJECTID":295011},"geometry":{"x":162914.08000000101,"y":2544135.1400000006}},{"attributes":{"ID":295020,"DIS_CODE":0,"TOWNNAME":"七股區","LI":"玉成里","LIN":"1鄰","STREET":" ","SECT":" ","MAREA":"玉成","LANE":" ","ALLEY":" ","HOUSE_NO":"５號之１５","E_COORD97":161549.82999999999,"N_COORD97":2559954.3999999999,"ADDRESS":"玉成５號之１５","OBJECTID":295012},"geometry":{"x":161549.83000000101,"y":2559954.4000000022}},{"attributes":{"ID":295021,"DIS_CODE":0,"TOWNNAME":"北區","LI":"長榮里","LIN":"17鄰","STREET":"長榮路","SECT":"五段","MAREA":" ","LANE":"４１巷","ALLEY":" ","HOUSE_NO":"５８號九樓之５","E_COORD97":169922.38,"N_COORD97":2545563.6200000001,"ADDRESS":"長榮路五段４１巷５８號九樓之５","OBJECTID":295013},"geometry":{"x":169922.37999999989,"y":2545563.6199999992}},{"attributes":{"ID":295022,"DIS_CODE":0,"TOWNNAME":"七股區","LI":"玉成里","LIN":"1鄰","STREET":" ","SECT":" ","MAREA":"玉成","LANE":" ","ALLEY":" ","HOUSE_NO":"５號之１６","E_COORD97":161550.98999999999,"N_COORD97":2559958.5800000001,"ADDRESS":"玉成５號之１６","OBJECTID":295014},"geometry":{"x":161550.99000000022,"y":2559958.5800000038}},{"attributes":{"ID":295023,"DIS_CODE":0,"TOWNNAME":"七股區","LI":"竹港里","LIN":"4鄰","STREET":" ","SECT":" ","MAREA":"竹港","LANE":" ","ALLEY":" ","HOUSE_NO":"３３號","E_COORD97":165070.01000000001,"N_COORD97":2556897.2799999998,"ADDRESS":"竹港３３號","OBJECTID":295015},"geometry":{"x":165070.00999999885,"y":2556897.2799999993}},{"attributes":{"ID":295024,"DIS_CODE":0,"TOWNNAME":"北區","LI":"長榮里","LIN":"17鄰","STREET":"長榮路","SECT":"五段","MAREA":" ","LANE":"４１巷","ALLEY":" ","HOUSE_NO":"５８號十樓之１","E_COORD97":169922.38,"N_COORD97":2545563.6200000001,"ADDRESS":"長榮路五段４１巷５８號十樓之１","OBJECTID":295016},"geometry":{"x":169922.37999999989,"y":2545563.6199999992}},{"attributes":{"ID":295025,"DIS_CODE":0,"TOWNNAME":"七股區","LI":"竹港里","LIN":"4鄰","STREET":" ","SECT":" ","MAREA":"竹港","LANE":" ","ALLEY":" ","HOUSE_NO":"３４號","E_COORD97":165039.23000000001,"N_COORD97":2556913.75,"ADDRESS":"竹港３４號","OBJECTID":295017},"geometry":{"x":165039.23000000138,"y":2556913.7500000019}},{"attributes":{"ID":295026,"DIS_CODE":0,"TOWNNAME":"七股區","LI":"竹港里","LIN":"4鄰","STREET":" ","SECT":" ","MAREA":"竹港","LANE":" ","ALLEY":" ","HOUSE_NO":"３５號之１","E_COORD97":165031.19,"N_COORD97":2556874.6400000001,"ADDRESS":"竹港３５號之１","OBJECTID":295018},"geometry":{"x":165031.19000000134,"y":2556874.6400000025}},{"attributes":{"ID":295027,"DIS_CODE":0,"TOWNNAME":"北區","LI":"長榮里","LIN":"17鄰","STREET":"長榮路","SECT":"五段","MAREA":" ","LANE":"４１巷","ALLEY":" ","HOUSE_NO":"５８號十樓之２","E_COORD97":169922.38,"N_COORD97":2545563.6200000001,"ADDRESS":"長榮路五段４１巷５８號十樓之２","OBJECTID":295019},"geometry":{"x":169922.37999999989,"y":2545563.6199999992}},{"attributes":{"ID":295028,"DIS_CODE":0,"TOWNNAME":"七股區","LI":"竹港里","LIN":"4鄰","STREET":" ","SECT":" ","MAREA":"竹港","LANE":" ","ALLEY":" ","HOUSE_NO":"３５號","E_COORD97":165049.51999999999,"N_COORD97":2556892.5699999998,"ADDRESS":"竹港３５號","OBJECTID":295020},"geometry":{"x":165049.52000000142,"y":2556892.5700000003}},{"attributes":{"ID":295029,"DIS_CODE":0,"TOWNNAME":"七股區","LI":"竹港里","LIN":"4鄰","STREET":" ","SECT":" ","MAREA":"竹港","LANE":" ","ALLEY":" ","HOUSE_NO":"３７號之１","E_COORD97":165057.66,"N_COORD97":2556839.6000000001,"ADDRESS":"竹港３７號之１","OBJECTID":295021},"geometry":{"x":165057.66000000201,"y":2556839.6000000015}},{"attributes":{"ID":295030,"DIS_CODE":0,"TOWNNAME":"七股區","LI":"竹港里","LIN":"4鄰","STREET":" ","SECT":" ","MAREA":"竹港","LANE":" ","ALLEY":" ","HOUSE_NO":"３７號之２","E_COORD97":165056.63,"N_COORD97":2556843.7400000002,"ADDRESS":"竹港３７號之２","OBJECTID":295022},"geometry":{"x":165056.63000000082,"y":2556843.7400000002}},{"attributes":{"ID":295031,"DIS_CODE":0,"TOWNNAME":"七股區","LI":"竹港里","LIN":"4鄰","STREET":" ","SECT":" ","MAREA":"竹港","LANE":" ","ALLEY":" ","HOUSE_NO":"３７號之３","E_COORD97":165055.59,"N_COORD97":2556847.8799999999,"ADDRESS":"竹港３７號之３","OBJECTID":295023},"geometry":{"x":165055.58999999985,"y":2556847.8800000008}},{"attributes":{"ID":295032,"DIS_CODE":0,"TOWNNAME":"七股區","LI":"竹港里","LIN":"4鄰","STREET":" ","SECT":" ","MAREA":"竹港","LANE":" ","ALLEY":" ","HOUSE_NO":"３７號之４","E_COORD97":165054.54999999999,"N_COORD97":2556852.02,"ADDRESS":"竹港３７號之４","OBJECTID":295024},"geometry":{"x":165054.54999999888,"y":2556852.0199999996}},{"attributes":{"ID":295033,"DIS_CODE":0,"TOWNNAME":"新營區","LI":"大宏里","LIN":"19鄰","STREET":"三民路","SECT":" ","MAREA":" ","LANE":" ","ALLEY":" ","HOUSE_NO":"３６之２１號","E_COORD97":180396.648782,"N_COORD97":2578511.3890200001,"ADDRESS":"三民路３６之２１號","OBJECTID":295025},"geometry":{"x":180396.64878200088,"y":2578511.3890250027}},{"attributes":{"ID":295034,"DIS_CODE":0,"TOWNNAME":"安南區","LI":"海西里","LIN":"4鄰","STREET":"海中街","SECT":" ","MAREA":" ","LANE":"１２１巷","ALLEY":" ","HOUSE_NO":"６４號","E_COORD97":166267.34,"N_COORD97":2549003.54,"ADDRESS":"海中街１２１巷６４號","OBJECTID":295026},"geometry":{"x":166267.33999999985,"y":2549003.5400000028}},{"attributes":{"ID":295035,"DIS_CODE":0,"TOWNNAME":"永康區","LI":"復國里","LIN":"25鄰","STREET":"復華三街","SECT":" ","MAREA":" ","LANE":"９０巷","ALLEY":" ","HOUSE_NO":"１６號五樓之３","E_COORD97":172656.19,"N_COORD97":2545612.7999999998,"ADDRESS":"復華三街９０巷１６號五樓之３","OBJECTID":295027},"geometry":{"x":172656.19000000134,"y":2545612.8000000007}},{"attributes":{"ID":295036,"DIS_CODE":0,"TOWNNAME":"安南區","LI":"理想里","LIN":"8鄰","STREET":"海佃路","SECT":"二段","MAREA":" ","LANE":"１５０巷","ALLEY":" ","HOUSE_NO":"１２２之１９號","E_COORD97":167311.83044600001,"N_COORD97":2548606.5805199998,"ADDRESS":"海佃路二段１５０巷１２２之１９號","OBJECTID":295028},"geometry":{"x":167311.83044600207,"y":2548606.5805210005}},{"attributes":{"ID":295037,"DIS_CODE":0,"TOWNNAME":"安南區","LI":"安慶里","LIN":"3鄰","STREET":"長溪路","SECT":"一段","MAREA":" ","LANE":"１６８巷","ALLEY":" ","HOUSE_NO":"１０７之１號","E_COORD97":169041.92999999999,"N_COORD97":2548807.48,"ADDRESS":"長溪路一段１６８巷１０７之１號","OBJECTID":295029},"geometry":{"x":169041.9299999997,"y":2548807.4800000004}},{"attributes":{"ID":295038,"DIS_CODE":0,"TOWNNAME":"安南區","LI":"海東里","LIN":"2鄰","STREET":"海中街","SECT":" ","MAREA":" ","LANE":"１３０巷","ALLEY":" ","HOUSE_NO":"７１之１號","E_COORD97":166571.60999999999,"N_COORD97":2549215.3700000001,"ADDRESS":"海中街１３０巷７１之１號","OBJECTID":295030},"geometry":{"x":166571.61000000034,"y":2549215.370000001}},{"attributes":{"ID":295039,"DIS_CODE":0,"TOWNNAME":"安南區","LI":"安順里","LIN":"4鄰","STREET":"總安街","SECT":"一段","MAREA":" ","LANE":"１１０巷","ALLEY":" ","HOUSE_NO":"２號","E_COORD97":169687.85000000001,"N_COORD97":2550174.7799999998,"ADDRESS":"總安街一段１１０巷２號","OBJECTID":295031},"geometry":{"x":169687.85000000056,"y":2550174.7799999993}},{"attributes":{"ID":295040,"DIS_CODE":0,"TOWNNAME":"安南區","LI":"安順里","LIN":"18鄰","STREET":"育安二街","SECT":" ","MAREA":" ","LANE":"１３５巷","ALLEY":" ","HOUSE_NO":"９號","E_COORD97":169643.60999999999,"N_COORD97":2550011.2200000002,"ADDRESS":"育安二街１３５巷９號","OBJECTID":295032},"geometry":{"x":169643.6100000022,"y":2550011.2200000025}},{"attributes":{"ID":295041,"DIS_CODE":0,"TOWNNAME":"安南區","LI":"布袋里","LIN":"1鄰","STREET":"工明南一路","SECT":" ","MAREA":" ","LANE":" ","ALLEY":" ","HOUSE_NO":"５１號","E_COORD97":168888.70000000001,"N_COORD97":2551070.7799999998,"ADDRESS":"工明南一路５１號","OBJECTID":295033},"geometry":{"x":168888.70000000112,"y":2551070.7800000012}},{"attributes":{"ID":295042,"DIS_CODE":0,"TOWNNAME":"安南區","LI":"布袋里","LIN":"1鄰","STREET":"工明路","SECT":" ","MAREA":" ","LANE":" ","ALLEY":" ","HOUSE_NO":"２０１號","E_COORD97":168644.03,"N_COORD97":2551295.8700000001,"ADDRESS":"工明路２０１號","OBJECTID":295034},"geometry":{"x":168644.03000000212,"y":2551295.8700000029}},{"attributes":{"ID":295043,"DIS_CODE":0,"TOWNNAME":"安南區","LI":"布袋里","LIN":"1鄰","STREET":"工明南二路","SECT":" ","MAREA":" ","LANE":" ","ALLEY":" ","HOUSE_NO":"１０６號","E_COORD97":168448.79000000001,"N_COORD97":2551122.0899999999,"ADDRESS":"工明南二路１０６號","OBJECTID":295035},"geometry":{"x":168448.7900000019,"y":2551122.0899999999}},{"attributes":{"ID":295044,"DIS_CODE":0,"TOWNNAME":"安南區","LI":"州北里","LIN":"32鄰","STREET":"北安路","SECT":"四段","MAREA":" ","LANE":" ","ALLEY":" ","HOUSE_NO":"５４２之１號","E_COORD97":169555.97,"N_COORD97":2551874.0099999998,"ADDRESS":"北安路四段５４２之１號","OBJECTID":295036},"geometry":{"x":169555.97000000067,"y":2551874.0100000016}},{"attributes":{"ID":295045,"DIS_CODE":0,"TOWNNAME":"安南區","LI":"新順里","LIN":"25鄰","STREET":"興安路","SECT":" ","MAREA":" ","LANE":" ","ALLEY":" ","HOUSE_NO":"１５６號","E_COORD97":169299.23999999999,"N_COORD97":2549149.9700000002,"ADDRESS":"興安路１５６號","OBJECTID":295037},"geometry":{"x":169299.24000000115,"y":2549149.9700000007}},{"attributes":{"ID":295046,"DIS_CODE":0,"TOWNNAME":"安南區","LI":"新順里","LIN":"25鄰","STREET":"興安路","SECT":" ","MAREA":" ","LANE":" ","ALLEY":" ","HOUSE_NO":"１５８號","E_COORD97":169292.85999999999,"N_COORD97":2549152.9700000002,"ADDRESS":"興安路１５８號","OBJECTID":295038},"geometry":{"x":169292.8600000022,"y":2549152.9700000025}},{"attributes":{"ID":295047,"DIS_CODE":0,"TOWNNAME":"安南區","LI":"城東里","LIN":"13鄰","STREET":"城安一街","SECT":" ","MAREA":" ","LANE":" ","ALLEY":" ","HOUSE_NO":"２１號","E_COORD97":160712.57000000001,"N_COORD97":2551836.0299999998,"ADDRESS":"城安一街２１號","OBJECTID":295039},"geometry":{"x":160712.57000000123,"y":2551836.0300000012}},{"attributes":{"ID":295048,"DIS_CODE":0,"TOWNNAME":"安南區","LI":"州北里","LIN":"17鄰","STREET":"北安路","SECT":"四段","MAREA":" ","LANE":" ","ALLEY":" ","HOUSE_NO":"７１１之３號","E_COORD97":169543.64999999999,"N_COORD97":2552343.3599999999,"ADDRESS":"北安路四段７１１之３號","OBJECTID":295040},"geometry":{"x":169543.6500000013,"y":2552343.3599999994}},{"attributes":{"ID":295049,"DIS_CODE":0,"TOWNNAME":"安南區","LI":"布袋里","LIN":"1鄰","STREET":"工明二路","SECT":" ","MAREA":" ","LANE":" ","ALLEY":" ","HOUSE_NO":"１１號","E_COORD97":168706.39999999999,"N_COORD97":2550996.9900000002,"ADDRESS":"工明二路１１號","OBJECTID":295041},"geometry":{"x":168706.4000000013,"y":2550996.9900000002}},{"attributes":{"ID":295050,"DIS_CODE":0,"TOWNNAME":"新市區","LI":"永就里","LIN":"5鄰","STREET":" ","SECT":" ","MAREA":"永就","LANE":" ","ALLEY":" ","HOUSE_NO":"４９號","E_COORD97":178328.31,"N_COORD97":2551433.25,"ADDRESS":"永就４９號","OBJECTID":295042},"geometry":{"x":178328.31000000052,"y":2551433.25}},{"attributes":{"ID":295051,"DIS_CODE":0,"TOWNNAME":"安南區","LI":"淵東里","LIN":"14鄰","STREET":"智安二街","SECT":" ","MAREA":" ","LANE":"５３巷","ALLEY":" ","HOUSE_NO":"３號","E_COORD97":165708.94,"N_COORD97":2550208.0299999998,"ADDRESS":"智安二街５３巷３號","OBJECTID":295043},"geometry":{"x":165708.94000000134,"y":2550208.0300000012}},{"attributes":{"ID":295052,"DIS_CODE":0,"TOWNNAME":"新市區","LI":"社內里","LIN":"4鄰","STREET":" ","SECT":" ","MAREA":"社內","LANE":" ","ALLEY":" ","HOUSE_NO":"５０之１６號","E_COORD97":176687.70000000001,"N_COORD97":2552115.7999999998,"ADDRESS":"社內５０之１６號","OBJECTID":295044},"geometry":{"x":176687.70000000019,"y":2552115.8000000045}},{"attributes":{"ID":295053,"DIS_CODE":0,"TOWNNAME":"安南區","LI":"佃東里","LIN":"18鄰","STREET":"公學路","SECT":"三段","MAREA":" ","LANE":"１６０巷","ALLEY":" ","HOUSE_NO":"１８８號","E_COORD97":166317.25,"N_COORD97":2552306.4900000002,"ADDRESS":"公學路三段１６０巷１８８號","OBJECTID":295045},"geometry":{"x":166317.25,"y":2552306.4900000002}},{"attributes":{"ID":295054,"DIS_CODE":0,"TOWNNAME":"新市區","LI":"大營里","LIN":"20鄰","STREET":" ","SECT":" ","MAREA":"豐榮","LANE":" ","ALLEY":" ","HOUSE_NO":"５３之１號","E_COORD97":178773.01999999999,"N_COORD97":2554200.2999999998,"ADDRESS":"豐榮５３之１號","OBJECTID":295046},"geometry":{"x":178773.01999999955,"y":2554200.3000000007}},{"attributes":{"ID":295055,"DIS_CODE":0,"TOWNNAME":"新市區","LI":"大營里","LIN":"4鄰","STREET":" ","SECT":" ","MAREA":"大營","LANE":" ","ALLEY":" ","HOUSE_NO":"５５之１號","E_COORD97":179613.48999999999,"N_COORD97":2555523.2999999998,"ADDRESS":"大營５５之１號","OBJECTID":295047},"geometry":{"x":179613.49000000022,"y":2555523.3000000045}},{"attributes":{"ID":295056,"DIS_CODE":0,"TOWNNAME":"新市區","LI":"三舍里","LIN":"5鄰","STREET":" ","SECT":" ","MAREA":"三舍","LANE":" ","ALLEY":" ","HOUSE_NO":"１２８號","E_COORD97":177859.37,"N_COORD97":2554549.5,"ADDRESS":"三舍１２８號","OBJECTID":295048},"geometry":{"x":177859.37000000011,"y":2554549.5000000019}},{"attributes":{"ID":295057,"DIS_CODE":0,"TOWNNAME":"北區","LI":"長榮里","LIN":"17鄰","STREET":"長榮路","SECT":"五段","MAREA":" ","LANE":"４１巷","ALLEY":" ","HOUSE_NO":"５８號十樓之３","E_COORD97":169922.38,"N_COORD97":2545563.6200000001,"ADDRESS":"長榮路五段４１巷５８號十樓之３","OBJECTID":295049},"geometry":{"x":169922.37999999989,"y":2545563.6199999992}},{"attributes":{"ID":295058,"DIS_CODE":0,"TOWNNAME":"北區","LI":"長榮里","LIN":"17鄰","STREET":"長榮路","SECT":"五段","MAREA":" ","LANE":"４１巷","ALLEY":" ","HOUSE_NO":"５８號十樓之５","E_COORD97":169922.38,"N_COORD97":2545563.6200000001,"ADDRESS":"長榮路五段４１巷５８號十樓之５","OBJECTID":295050},"geometry":{"x":169922.37999999989,"y":2545563.6199999992}},{"attributes":{"ID":295059,"DIS_CODE":0,"TOWNNAME":"北區","LI":"長榮里","LIN":"17鄰","STREET":"長榮路","SECT":"五段","MAREA":" ","LANE":"４１巷","ALLEY":" ","HOUSE_NO":"５８號十一樓之１","E_COORD97":169922.38,"N_COORD97":2545563.6200000001,"ADDRESS":"長榮路五段４１巷５８號十一樓之１","OBJECTID":295051},"geometry":{"x":169922.37999999989,"y":2545563.6199999992}},{"attributes":{"ID":295060,"DIS_CODE":0,"TOWNNAME":"北區","LI":"長榮里","LIN":"17鄰","STREET":"長榮路","SECT":"五段","MAREA":" ","LANE":"４１巷","ALLEY":" ","HOUSE_NO":"５８號十一樓之２","E_COORD97":169922.38,"N_COORD97":2545563.6200000001,"ADDRESS":"長榮路五段４１巷５８號十一樓之２","OBJECTID":295052},"geometry":{"x":169922.37999999989,"y":2545563.6199999992}},{"attributes":{"ID":295061,"DIS_CODE":0,"TOWNNAME":"北區","LI":"長榮里","LIN":"17鄰","STREET":"長榮路","SECT":"五段","MAREA":" ","LANE":"４１巷","ALLEY":" ","HOUSE_NO":"５８號十一樓之３","E_COORD97":169922.38,"N_COORD97":2545563.6200000001,"ADDRESS":"長榮路五段４１巷５８號十一樓之３","OBJECTID":295053},"geometry":{"x":169922.37999999989,"y":2545563.6199999992}},{"attributes":{"ID":295062,"DIS_CODE":0,"TOWNNAME":"北區","LI":"長榮里","LIN":"17鄰","STREET":"長榮路","SECT":"五段","MAREA":" ","LANE":"４１巷","ALLEY":" ","HOUSE_NO":"５８號十一樓之５","E_COORD97":169922.38,"N_COORD97":2545563.6200000001,"ADDRESS":"長榮路五段４１巷５８號十一樓之５","OBJECTID":295054},"geometry":{"x":169922.37999999989,"y":2545563.6199999992}},{"attributes":{"ID":295063,"DIS_CODE":0,"TOWNNAME":"北區","LI":"長榮里","LIN":"17鄰","STREET":"長榮路","SECT":"五段","MAREA":" ","LANE":"４１巷","ALLEY":" ","HOUSE_NO":"５８號十二樓之１","E_COORD97":169922.38,"N_COORD97":2545563.6200000001,"ADDRESS":"長榮路五段４１巷５８號十二樓之１","OBJECTID":295055},"geometry":{"x":169922.37999999989,"y":2545563.6199999992}},{"attributes":{"ID":295064,"DIS_CODE":0,"TOWNNAME":"安平區","LI":"金城里","LIN":"14鄰","STREET":"世平四街","SECT":" ","MAREA":" ","LANE":" ","ALLEY":" ","HOUSE_NO":"２５號","E_COORD97":162946.01000000001,"N_COORD97":2544144.6200000001,"ADDRESS":"世平四街２５號","OBJECTID":295056},"geometry":{"x":162946.01000000164,"y":2544144.6200000029}},{"attributes":{"ID":295065,"DIS_CODE":0,"TOWNNAME":"安平區","LI":"金城里","LIN":"14鄰","STREET":"世平四街","SECT":" ","MAREA":" ","LANE":" ","ALLEY":" ","HOUSE_NO":"２５號之１","E_COORD97":162916.26999999999,"N_COORD97":2544131.1299999999,"ADDRESS":"世平四街２５號之１","OBJECTID":295057},"geometry":{"x":162916.26999999955,"y":2544131.1300000008}},{"attributes":{"ID":295066,"DIS_CODE":0,"TOWNNAME":"新市區","LI":"大社里","LIN":"5鄰","STREET":" ","SECT":" ","MAREA":"大社","LANE":" ","ALLEY":" ","HOUSE_NO":"１５２號","E_COORD97":180187.35000000001,"N_COORD97":2554288.75,"ADDRESS":"大社１５２號","OBJECTID":295058},"geometry":{"x":180187.35000000056,"y":2554288.7500000037}},{"attributes":{"ID":295067,"DIS_CODE":0,"TOWNNAME":"新市區","LI":"大社里","LIN":"26鄰","STREET":" ","SECT":" ","MAREA":"大社","LANE":" ","ALLEY":" ","HOUSE_NO":"６４９號","E_COORD97":180016.01999999999,"N_COORD97":2554366.5,"ADDRESS":"大社６４９號","OBJECTID":295059},"geometry":{"x":180016.01999999955,"y":2554366.5000000019}},{"attributes":{"ID":295068,"DIS_CODE":0,"TOWNNAME":"新市區","LI":"大社里","LIN":"26鄰","STREET":" ","SECT":" ","MAREA":"大社","LANE":" ","ALLEY":" ","HOUSE_NO":"６７５之５號","E_COORD97":179957.17999999999,"N_COORD97":2554270.7999999998,"ADDRESS":"大社６７５之５號","OBJECTID":295060},"geometry":{"x":179957.1799999997,"y":2554270.8000000007}},{"attributes":{"ID":295069,"DIS_CODE":0,"TOWNNAME":"新市區","LI":"港墘里","LIN":"4鄰","STREET":"三民街","SECT":" ","MAREA":" ","LANE":"１１２巷","ALLEY":" ","HOUSE_NO":"６號","E_COORD97":178345.39000000001,"N_COORD97":2553516.79,"ADDRESS":"三民街１１２巷６號","OBJECTID":295061},"geometry":{"x":178345.38999999966,"y":2553516.7899999991}},{"attributes":{"ID":295070,"DIS_CODE":0,"TOWNNAME":"新市區","LI":"港墘里","LIN":"24鄰","STREET":"光華街","SECT":" ","MAREA":" ","LANE":"１５４巷","ALLEY":" ","HOUSE_NO":"４４號","E_COORD97":177935.37,"N_COORD97":2552928.25,"ADDRESS":"光華街１５４巷４４號","OBJECTID":295062},"geometry":{"x":177935.37000000011,"y":2552928.25}},{"attributes":{"ID":295071,"DIS_CODE":0,"TOWNNAME":"新市區","LI":"大社里","LIN":"32鄰","STREET":" ","SECT":" ","MAREA":"大社","LANE":" ","ALLEY":" ","HOUSE_NO":"２８４之２６號","E_COORD97":180643.60000000001,"N_COORD97":2554671.7999999998,"ADDRESS":"大社２８４之２６號","OBJECTID":295063},"geometry":{"x":180643.60000000056,"y":2554671.8000000007}},{"attributes":{"ID":295072,"DIS_CODE":0,"TOWNNAME":"新市區","LI":"大社里","LIN":"32鄰","STREET":" ","SECT":" ","MAREA":"大社","LANE":" ","ALLEY":" ","HOUSE_NO":"２８５之１號","E_COORD97":180706.14999999999,"N_COORD97":2554558.5499999998,"ADDRESS":"大社２８５之１號","OBJECTID":295064},"geometry":{"x":180706.14999999944,"y":2554558.5500000045}},{"attributes":{"ID":295073,"DIS_CODE":0,"TOWNNAME":"新市區","LI":"社內里","LIN":"13鄰","STREET":" ","SECT":" ","MAREA":"社內","LANE":" ","ALLEY":" ","HOUSE_NO":"１３６之６號","E_COORD97":176276.20000000001,"N_COORD97":2552788.5499999998,"ADDRESS":"社內１３６之６號","OBJECTID":295065},"geometry":{"x":176276.20000000205,"y":2552788.5500000007}},{"attributes":{"ID":295074,"DIS_CODE":0,"TOWNNAME":"北區","LI":"長榮里","LIN":"17鄰","STREET":"長榮路","SECT":"五段","MAREA":" ","LANE":"４１巷","ALLEY":" ","HOUSE_NO":"５８號十二樓之２","E_COORD97":169922.38,"N_COORD97":2545563.6200000001,"ADDRESS":"長榮路五段４１巷５８號十二樓之２","OBJECTID":295066},"geometry":{"x":169922.37999999989,"y":2545563.6199999992}},{"attributes":{"ID":295075,"DIS_CODE":0,"TOWNNAME":"北區","LI":"長榮里","LIN":"17鄰","STREET":"長榮路","SECT":"五段","MAREA":" ","LANE":"４１巷","ALLEY":" ","HOUSE_NO":"５８號十二樓之３","E_COORD97":169922.38,"N_COORD97":2545563.6200000001,"ADDRESS":"長榮路五段４１巷５８號十二樓之３","OBJECTID":295067},"geometry":{"x":169922.37999999989,"y":2545563.6199999992}},{"attributes":{"ID":295076,"DIS_CODE":0,"TOWNNAME":"北區","LI":"長榮里","LIN":"17鄰","STREET":"長榮路","SECT":"五段","MAREA":" ","LANE":"４１巷","ALLEY":" ","HOUSE_NO":"５８號十二樓之５","E_COORD97":169922.38,"N_COORD97":2545563.6200000001,"ADDRESS":"長榮路五段４１巷５８號十二樓之５","OBJECTID":295068},"geometry":{"x":169922.37999999989,"y":2545563.6199999992}},{"attributes":{"ID":295077,"DIS_CODE":0,"TOWNNAME":"北區","LI":"長榮里","LIN":"17鄰","STREET":"長榮路","SECT":"五段","MAREA":" ","LANE":"４１巷","ALLEY":" ","HOUSE_NO":"５８號十三樓之１","E_COORD97":169922.38,"N_COORD97":2545563.6200000001,"ADDRESS":"長榮路五段４１巷５８號十三樓之１","OBJECTID":295069},"geometry":{"x":169922.37999999989,"y":2545563.6199999992}},{"attributes":{"ID":295078,"DIS_CODE":0,"TOWNNAME":"北區","LI":"長榮里","LIN":"17鄰","STREET":"長榮路","SECT":"五段","MAREA":" ","LANE":"４１巷","ALLEY":" ","HOUSE_NO":"５８號十三樓之２","E_COORD97":169922.38,"N_COORD97":2545563.6200000001,"ADDRESS":"長榮路五段４１巷５８號十三樓之２","OBJECTID":295070},"geometry":{"x":169922.37999999989,"y":2545563.6199999992}},{"attributes":{"ID":295079,"DIS_CODE":0,"TOWNNAME":"安平區","LI":"金城里","LIN":"14鄰","STREET":"世平四街","SECT":" ","MAREA":" ","LANE":" ","ALLEY":" ","HOUSE_NO":"２７號","E_COORD97":162948.56,"N_COORD97":2544139.7000000002,"ADDRESS":"世平四街２７號","OBJECTID":295071},"geometry":{"x":162948.55999999959,"y":2544139.6999999993}},{"attributes":{"ID":295080,"DIS_CODE":0,"TOWNNAME":"安平區","LI":"金城里","LIN":"14鄰","STREET":"世平二街","SECT":" ","MAREA":" ","LANE":" ","ALLEY":" ","HOUSE_NO":"２號","E_COORD97":162965.89999999999,"N_COORD97":2544096.79,"ADDRESS":"世平二街２號","OBJECTID":295072},"geometry":{"x":162965.90000000037,"y":2544096.790000001}},{"attributes":{"ID":295081,"DIS_CODE":0,"TOWNNAME":"安平區","LI":"金城里","LIN":"14鄰","STREET":"世平二街","SECT":" ","MAREA":" ","LANE":" ","ALLEY":" ","HOUSE_NO":"６號","E_COORD97":162958.23999999999,"N_COORD97":2544092.6000000001,"ADDRESS":"世平二街６號","OBJECTID":295073},"geometry":{"x":162958.24000000022,"y":2544092.6000000015}},{"attributes":{"ID":295082,"DIS_CODE":0,"TOWNNAME":"新市區","LI":"永就里","LIN":"4鄰","STREET":" ","SECT":" ","MAREA":"永就","LANE":" ","ALLEY":" ","HOUSE_NO":"４２之１９號","E_COORD97":178416.06,"N_COORD97":2551537.7999999998,"ADDRESS":"永就４２之１９號","OBJECTID":295074},"geometry":{"x":178416.06000000052,"y":2551537.8000000007}},{"attributes":{"ID":295083,"DIS_CODE":0,"TOWNNAME":"新市區","LI":"社內里","LIN":"4鄰","STREET":" ","SECT":" ","MAREA":"社內","LANE":" ","ALLEY":" ","HOUSE_NO":"４５之５號","E_COORD97":176594.07999999999,"N_COORD97":2552358.0499999998,"ADDRESS":"社內４５之５號","OBJECTID":295075},"geometry":{"x":176594.08000000101,"y":2552358.0499999989}},{"attributes":{"ID":295084,"DIS_CODE":0,"TOWNNAME":"新市區","LI":"三舍里","LIN":"4鄰","STREET":" ","SECT":" ","MAREA":"三舍","LANE":" ","ALLEY":" ","HOUSE_NO":"１０１號","E_COORD97":178076.59,"N_COORD97":2554645.5,"ADDRESS":"三舍１０１號","OBJECTID":295076},"geometry":{"x":178076.58999999985,"y":2554645.5}},{"attributes":{"ID":295085,"DIS_CODE":0,"TOWNNAME":"新市區","LI":"大社里","LIN":"26鄰","STREET":" ","SECT":" ","MAREA":"大社","LANE":" ","ALLEY":" ","HOUSE_NO":"６６１之２號","E_COORD97":179968.13,"N_COORD97":2554344.0499999998,"ADDRESS":"大社６６１之２號","OBJECTID":295077},"geometry":{"x":179968.12999999989,"y":2554344.0500000007}},{"attributes":{"ID":295086,"DIS_CODE":0,"TOWNNAME":"新營區","LI":"大宏里","LIN":"19鄰","STREET":"三民路","SECT":" ","MAREA":" ","LANE":" ","ALLEY":" ","HOUSE_NO":"３６之２３號","E_COORD97":180400.041134,"N_COORD97":2578511.3890200001,"ADDRESS":"三民路３６之２３號","OBJECTID":295078},"geometry":{"x":180400.04113400169,"y":2578511.3890250027}},{"attributes":{"ID":295087,"DIS_CODE":0,"TOWNNAME":"新市區","LI":"大社里","LIN":"26鄰","STREET":" ","SECT":" ","MAREA":"大社","LANE":" ","ALLEY":" ","HOUSE_NO":"６６１之３號","E_COORD97":179963.54000000001,"N_COORD97":2554344.2999999998,"ADDRESS":"大社６６１之３號","OBJECTID":295079},"geometry":{"x":179963.54000000004,"y":2554344.3000000026}},{"attributes":{"ID":295088,"DIS_CODE":0,"TOWNNAME":"新市區","LI":"新市里","LIN":"14鄰","STREET":"中正路","SECT":" ","MAREA":" ","LANE":"３２３巷","ALLEY":" ","HOUSE_NO":"１５號","E_COORD97":177659.51999999999,"N_COORD97":2553335,"ADDRESS":"中正路３２３巷１５號","OBJECTID":295080},"geometry":{"x":177659.51999999955,"y":2553335.0000000019}},{"attributes":{"ID":295089,"DIS_CODE":0,"TOWNNAME":"新市區","LI":"三舍里","LIN":"4鄰","STREET":" ","SECT":" ","MAREA":"三舍","LANE":" ","ALLEY":" ","HOUSE_NO":"１０２之７號","E_COORD97":178041.76000000001,"N_COORD97":2554680.5499999998,"ADDRESS":"三舍１０２之７號","OBJECTID":295081},"geometry":{"x":178041.76000000164,"y":2554680.5500000045}},{"attributes":{"ID":295090,"DIS_CODE":0,"TOWNNAME":"新市區","LI":"三舍里","LIN":"4鄰","STREET":" ","SECT":" ","MAREA":"三舍","LANE":" ","ALLEY":" ","HOUSE_NO":"９５號","E_COORD97":178044.06,"N_COORD97":2554472.75,"ADDRESS":"三舍９５號","OBJECTID":295082},"geometry":{"x":178044.05999999959,"y":2554472.7500000019}},{"attributes":{"ID":295091,"DIS_CODE":0,"TOWNNAME":"新市區","LI":"大營里","LIN":"5鄰","STREET":" ","SECT":" ","MAREA":"大營","LANE":" ","ALLEY":" ","HOUSE_NO":"７８之３７號","E_COORD97":179659.79000000001,"N_COORD97":2555454.7999999998,"ADDRESS":"大營７８之３７號","OBJECTID":295083},"geometry":{"x":179659.79000000097,"y":2555454.8000000007}},{"attributes":{"ID":295092,"DIS_CODE":0,"TOWNNAME":"新市區","LI":"港墘里","LIN":"25鄰","STREET":"華美街","SECT":" ","MAREA":" ","LANE":"２９巷","ALLEY":" ","HOUSE_NO":"２之１號","E_COORD97":178130.42000000001,"N_COORD97":2552885.7999999998,"ADDRESS":"華美街２９巷２之１號","OBJECTID":295084},"geometry":{"x":178130.41999999993,"y":2552885.8000000026}},{"attributes":{"ID":295093,"DIS_CODE":0,"TOWNNAME":"北區","LI":"長榮里","LIN":"17鄰","STREET":"長榮路","SECT":"五段","MAREA":" ","LANE":"４１巷","ALLEY":" ","HOUSE_NO":"５８號十三樓之３","E_COORD97":169922.38,"N_COORD97":2545563.6200000001,"ADDRESS":"長榮路五段４１巷５８號十三樓之３","OBJECTID":295085},"geometry":{"x":169922.37999999989,"y":2545563.6199999992}},{"attributes":{"ID":295094,"DIS_CODE":0,"TOWNNAME":"北區","LI":"長榮里","LIN":"17鄰","STREET":"長榮路","SECT":"五段","MAREA":" ","LANE":"４１巷","ALLEY":" ","HOUSE_NO":"５８號十三樓之５","E_COORD97":169922.38,"N_COORD97":2545563.6200000001,"ADDRESS":"長榮路五段４１巷５８號十三樓之５","OBJECTID":295086},"geometry":{"x":169922.37999999989,"y":2545563.6199999992}},{"attributes":{"ID":295095,"DIS_CODE":0,"TOWNNAME":"新市區","LI":"港墘里","LIN":"8鄰","STREET":" ","SECT":" ","MAREA":"崙頂","LANE":" ","ALLEY":" ","HOUSE_NO":"９號","E_COORD97":178993.56,"N_COORD97":2552762,"ADDRESS":"崙頂９號","OBJECTID":295087},"geometry":{"x":178993.55999999959,"y":2552762.0000000019}},{"attributes":{"ID":295096,"DIS_CODE":0,"TOWNNAME":"北區","LI":"長榮里","LIN":"17鄰","STREET":"長榮路","SECT":"五段","MAREA":" ","LANE":"４１巷","ALLEY":" ","HOUSE_NO":"５８號十四樓之１","E_COORD97":169922.38,"N_COORD97":2545563.6200000001,"ADDRESS":"長榮路五段４１巷５８號十四樓之１","OBJECTID":295088},"geometry":{"x":169922.37999999989,"y":2545563.6199999992}},{"attributes":{"ID":295097,"DIS_CODE":0,"TOWNNAME":"北區","LI":"長榮里","LIN":"17鄰","STREET":"長榮路","SECT":"五段","MAREA":" ","LANE":"４１巷","ALLEY":" ","HOUSE_NO":"５８號十四樓之２","E_COORD97":169922.38,"N_COORD97":2545563.6200000001,"ADDRESS":"長榮路五段４１巷５８號十四樓之２","OBJECTID":295089},"geometry":{"x":169922.37999999989,"y":2545563.6199999992}},{"attributes":{"ID":295098,"DIS_CODE":0,"TOWNNAME":"北區","LI":"長榮里","LIN":"17鄰","STREET":"長榮路","SECT":"五段","MAREA":" ","LANE":"４１巷","ALLEY":" ","HOUSE_NO":"５８號十四樓之３","E_COORD97":169922.38,"N_COORD97":2545563.6200000001,"ADDRESS":"長榮路五段４１巷５８號十四樓之３","OBJECTID":295090},"geometry":{"x":169922.37999999989,"y":2545563.6199999992}},{"attributes":{"ID":295099,"DIS_CODE":0,"TOWNNAME":"安平區","LI":"金城里","LIN":"14鄰","STREET":"世平二街","SECT":" ","MAREA":" ","LANE":" ","ALLEY":" ","HOUSE_NO":"８號","E_COORD97":162954.95000000001,"N_COORD97":2544090.96,"ADDRESS":"世平二街８號","OBJECTID":295091},"geometry":{"x":162954.95000000019,"y":2544090.9600000028}},{"attributes":{"ID":295100,"DIS_CODE":0,"TOWNNAME":"安平區","LI":"金城里","LIN":"14鄰","STREET":"世平二街","SECT":" ","MAREA":" ","LANE":" ","ALLEY":" ","HOUSE_NO":"１０號","E_COORD97":162951.48000000001,"N_COORD97":2544088.77,"ADDRESS":"世平二街１０號","OBJECTID":295092},"geometry":{"x":162951.48000000045,"y":2544088.7699999996}},{"attributes":{"ID":295101,"DIS_CODE":0,"TOWNNAME":"安平區","LI":"金城里","LIN":"14鄰","STREET":"世平二街","SECT":" ","MAREA":" ","LANE":" ","ALLEY":" ","HOUSE_NO":"１２號","E_COORD97":162947.82999999999,"N_COORD97":2544087.3100000001,"ADDRESS":"世平二街１２號","OBJECTID":295093},"geometry":{"x":162947.83000000101,"y":2544087.3100000042}},{"attributes":{"ID":295102,"DIS_CODE":0,"TOWNNAME":"新市區","LI":"豐華里","LIN":"4鄰","STREET":" ","SECT":" ","MAREA":"豐華","LANE":" ","ALLEY":" ","HOUSE_NO":"３１之１號","E_COORD97":173723.17999999999,"N_COORD97":2554077.7999999998,"ADDRESS":"豐華３１之１號","OBJECTID":295094},"geometry":{"x":173723.18000000063,"y":2554077.8000000007}},{"attributes":{"ID":295103,"DIS_CODE":0,"TOWNNAME":"新市區","LI":"潭頂里","LIN":"4鄰","STREET":" ","SECT":" ","MAREA":"潭頂","LANE":" ","ALLEY":" ","HOUSE_NO":"１９８號","E_COORD97":180883.92000000001,"N_COORD97":2553030.25,"ADDRESS":"潭頂１９８號","OBJECTID":295095},"geometry":{"x":180883.92000000086,"y":2553030.25}},{"attributes":{"ID":295104,"DIS_CODE":0,"TOWNNAME":"新市區","LI":"新和里","LIN":"46鄰","STREET":"和平街","SECT":" ","MAREA":" ","LANE":"２１２巷","ALLEY":" ","HOUSE_NO":"５號","E_COORD97":177339.98000000001,"N_COORD97":2553231.25,"ADDRESS":"和平街２１２巷５號","OBJECTID":295096},"geometry":{"x":177339.98000000045,"y":2553231.2500000019}},{"attributes":{"ID":295105,"DIS_CODE":0,"TOWNNAME":"北區","LI":"長榮里","LIN":"17鄰","STREET":"長榮路","SECT":"五段","MAREA":" ","LANE":"４１巷","ALLEY":" ","HOUSE_NO":"５８號十四樓之５","E_COORD97":169922.38,"N_COORD97":2545563.6200000001,"ADDRESS":"長榮路五段４１巷５８號十四樓之５","OBJECTID":295097},"geometry":{"x":169922.37999999989,"y":2545563.6199999992}},{"attributes":{"ID":295106,"DIS_CODE":0,"TOWNNAME":"新市區","LI":"潭頂里","LIN":"4鄰","STREET":" ","SECT":" ","MAREA":"潭頂","LANE":" ","ALLEY":" ","HOUSE_NO":"２０４之５號","E_COORD97":180975.95000000001,"N_COORD97":2553105.2999999998,"ADDRESS":"潭頂２０４之５號","OBJECTID":295098},"geometry":{"x":180975.95000000112,"y":2553105.3000000007}},{"attributes":{"ID":295107,"DIS_CODE":0,"TOWNNAME":"新市區","LI":"豐華里","LIN":"4鄰","STREET":" ","SECT":" ","MAREA":"豐華","LANE":" ","ALLEY":" ","HOUSE_NO":"２６之３號","E_COORD97":173776.20999999999,"N_COORD97":2554143.0499999998,"ADDRESS":"豐華２６之３號","OBJECTID":295099},"geometry":{"x":173776.21000000089,"y":2554143.0500000026}},{"attributes":{"ID":295108,"DIS_CODE":0,"TOWNNAME":"永康區","LI":"北灣里","LIN":"17鄰","STREET":"信義二街","SECT":" ","MAREA":" ","LANE":"１６０巷","ALLEY":" ","HOUSE_NO":"９號","E_COORD97":174821.92000000001,"N_COORD97":2545756.48,"ADDRESS":"信義二街１６０巷９號","OBJECTID":295100},"geometry":{"x":174821.92000000086,"y":2545756.4800000004}},{"attributes":{"ID":295109,"DIS_CODE":0,"TOWNNAME":"安南區","LI":"佃東里","LIN":"17鄰","STREET":"公學路","SECT":"四段","MAREA":" ","LANE":"５４巷","ALLEY":" ","HOUSE_NO":"４８號","E_COORD97":165826.85000000001,"N_COORD97":2552189.1600000001,"ADDRESS":"公學路四段５４巷４８號","OBJECTID":295101},"geometry":{"x":165826.84999999963,"y":2552189.1600000001}},{"attributes":{"ID":295110,"DIS_CODE":0,"TOWNNAME":"新市區","LI":"潭頂里","LIN":"5鄰","STREET":" ","SECT":" ","MAREA":"潭頂","LANE":" ","ALLEY":" ","HOUSE_NO":"２１８之１號","E_COORD97":180772.45000000001,"N_COORD97":2553003.2999999998,"ADDRESS":"潭頂２１８之１號","OBJECTID":295102},"geometry":{"x":180772.45000000112,"y":2553003.3000000007}},{"attributes":{"ID":295111,"DIS_CODE":0,"TOWNNAME":"新市區","LI":"潭頂里","LIN":"2鄰","STREET":" ","SECT":" ","MAREA":"潭頂","LANE":" ","ALLEY":" ","HOUSE_NO":"９９號","E_COORD97":182659.84,"N_COORD97":2553747.25,"ADDRESS":"潭頂９９號","OBJECTID":295103},"geometry":{"x":182659.83999999985,"y":2553747.2500000019}},{"attributes":{"ID":295112,"DIS_CODE":0,"TOWNNAME":"新市區","LI":"潭頂里","LIN":"5鄰","STREET":" ","SECT":" ","MAREA":"潭頂","LANE":" ","ALLEY":" ","HOUSE_NO":"２３２之１號","E_COORD97":180721.34,"N_COORD97":2553075.5499999998,"ADDRESS":"潭頂２３２之１號","OBJECTID":295104},"geometry":{"x":180721.34000000171,"y":2553075.5500000007}},{"attributes":{"ID":295113,"DIS_CODE":0,"TOWNNAME":"安南區","LI":"州北里","LIN":"17鄰","STREET":"安和路","SECT":"六段","MAREA":" ","LANE":"２０巷","ALLEY":" ","HOUSE_NO":"６５號之１１","E_COORD97":169740.26999999999,"N_COORD97":2552486,"ADDRESS":"安和路六段２０巷６５號之１１","OBJECTID":295105},"geometry":{"x":169740.27000000048,"y":2552486}},{"attributes":{"ID":295114,"DIS_CODE":0,"TOWNNAME":"新市區","LI":"潭頂里","LIN":"13鄰","STREET":" ","SECT":" ","MAREA":"潭頂","LANE":" ","ALLEY":" ","HOUSE_NO":"４７５號","E_COORD97":180377.92000000001,"N_COORD97":2552821.5,"ADDRESS":"潭頂４７５號","OBJECTID":295106},"geometry":{"x":180377.91999999993,"y":2552821.5}},{"attributes":{"ID":295115,"DIS_CODE":0,"TOWNNAME":"新市區","LI":"潭頂里","LIN":"13鄰","STREET":" ","SECT":" ","MAREA":"潭頂","LANE":" ","ALLEY":" ","HOUSE_NO":"４６６之１號","E_COORD97":180507.12,"N_COORD97":2552849.5499999998,"ADDRESS":"潭頂４６６之１號","OBJECTID":295107},"geometry":{"x":180507.12000000011,"y":2552849.5500000007}},{"attributes":{"ID":295116,"DIS_CODE":0,"TOWNNAME":"安南區","LI":"新順里","LIN":"17鄰","STREET":"頂安街","SECT":" ","MAREA":" ","LANE":"６９巷","ALLEY":" ","HOUSE_NO":"１６號","E_COORD97":169481.01000000001,"N_COORD97":2549304.6000000001,"ADDRESS":"頂安街６９巷１６號","OBJECTID":295108},"geometry":{"x":169481.01000000164,"y":2549304.5999999996}},{"attributes":{"ID":295117,"DIS_CODE":0,"TOWNNAME":"安平區","LI":"金城里","LIN":"14鄰","STREET":"世平二街","SECT":" ","MAREA":" ","LANE":" ","ALLEY":" ","HOUSE_NO":"１４號","E_COORD97":162944,"N_COORD97":2544085.6699999999,"ADDRESS":"世平二街１４號","OBJECTID":295109},"geometry":{"x":162944,"y":2544085.6700000018}},{"attributes":{"ID":295118,"DIS_CODE":0,"TOWNNAME":"麻豆區","LI":"寮\u25A0里","LIN":"8鄰","STREET":" ","SECT":" ","MAREA":"寮子\u25A0","LANE":" ","ALLEY":" ","HOUSE_NO":"６１號之１","E_COORD97":176984.28,"N_COORD97":2565286.21,"ADDRESS":"寮子\u25A0６１號之１","OBJECTID":295110},"geometry":{"x":176984.28000000212,"y":2565286.2100000028}},{"attributes":{"ID":295119,"DIS_CODE":0,"TOWNNAME":"麻豆區","LI":"寮\u25A0里","LIN":"7鄰","STREET":" ","SECT":" ","MAREA":"寮子\u25A0","LANE":" ","ALLEY":" ","HOUSE_NO":"５６號","E_COORD97":176898.00846099999,"N_COORD97":2565265.0840799999,"ADDRESS":"寮子\u25A0５６號","OBJECTID":295111},"geometry":{"x":176898.0084610004,"y":2565265.084077999}},{"attributes":{"ID":295120,"DIS_CODE":0,"TOWNNAME":"安南區","LI":"新順里","LIN":"17鄰","STREET":"頂安街","SECT":" ","MAREA":" ","LANE":"６９巷","ALLEY":" ","HOUSE_NO":"１８號","E_COORD97":169492.41,"N_COORD97":2549312.77,"ADDRESS":"頂安街６９巷１８號","OBJECTID":295112},"geometry":{"x":169492.41000000108,"y":2549312.7699999996}},{"attributes":{"ID":295121,"DIS_CODE":0,"TOWNNAME":"安南區","LI":"新順里","LIN":"17鄰","STREET":"頂安街","SECT":" ","MAREA":" ","LANE":"６９巷","ALLEY":" ","HOUSE_NO":"１０號","E_COORD97":169474.98000000001,"N_COORD97":2549322.8799999999,"ADDRESS":"頂安街６９巷１０號","OBJECTID":295113},"geometry":{"x":169474.98000000045,"y":2549322.8799999971}},{"attributes":{"ID":295122,"DIS_CODE":0,"TOWNNAME":"安南區","LI":"新順里","LIN":"17鄰","STREET":"頂安街","SECT":" ","MAREA":" ","LANE":"６９巷","ALLEY":" ","HOUSE_NO":"２０號","E_COORD97":169493.28,"N_COORD97":2549308.04,"ADDRESS":"頂安街６９巷２０號","OBJECTID":295114},"geometry":{"x":169493.28000000212,"y":2549308.0399999991}},{"attributes":{"ID":295123,"DIS_CODE":0,"TOWNNAME":"安南區","LI":"新順里","LIN":"17鄰","STREET":"頂安街","SECT":" ","MAREA":" ","LANE":"６９巷","ALLEY":" ","HOUSE_NO":"２２號","E_COORD97":169494.57000000001,"N_COORD97":2549303.5299999998,"ADDRESS":"頂安街６９巷２２號","OBJECTID":295115},"geometry":{"x":169494.56999999937,"y":2549303.5300000012}},{"attributes":{"ID":295124,"DIS_CODE":0,"TOWNNAME":"安南區","LI":"新順里","LIN":"17鄰","STREET":"頂安街","SECT":" ","MAREA":" ","LANE":"６９巷","ALLEY":" ","HOUSE_NO":"２４號","E_COORD97":169494.78,"N_COORD97":2549298.3700000001,"ADDRESS":"頂安街６９巷２４號","OBJECTID":295116},"geometry":{"x":169494.78000000026,"y":2549298.3700000048}},{"attributes":{"ID":295125,"DIS_CODE":0,"TOWNNAME":"安南區","LI":"新順里","LIN":"17鄰","STREET":"頂安街","SECT":" ","MAREA":" ","LANE":"６９巷","ALLEY":" ","HOUSE_NO":"２號","E_COORD97":169486.39000000001,"N_COORD97":2549334.27,"ADDRESS":"頂安街６９巷２號","OBJECTID":295117},"geometry":{"x":169486.38999999966,"y":2549334.2699999996}},{"attributes":{"ID":295126,"DIS_CODE":0,"TOWNNAME":"安南區","LI":"新順里","LIN":"17鄰","STREET":"頂安街","SECT":" ","MAREA":" ","LANE":"６９巷","ALLEY":" ","HOUSE_NO":"３１號","E_COORD97":169532.48000000001,"N_COORD97":2549299.9900000002,"ADDRESS":"頂安街６９巷３１號","OBJECTID":295118},"geometry":{"x":169532.48000000045,"y":2549299.9900000039}},{"attributes":{"ID":295127,"DIS_CODE":0,"TOWNNAME":"安南區","LI":"新順里","LIN":"17鄰","STREET":"頂安街","SECT":" ","MAREA":" ","LANE":"６９巷","ALLEY":" ","HOUSE_NO":"３３號","E_COORD97":169537.13,"N_COORD97":2549298.75,"ADDRESS":"頂安街６９巷３３號","OBJECTID":295119},"geometry":{"x":169537.12999999989,"y":2549298.7500000019}},{"attributes":{"ID":295128,"DIS_CODE":0,"TOWNNAME":"安南區","LI":"新順里","LIN":"17鄰","STREET":"頂安街","SECT":" ","MAREA":" ","LANE":"６９巷","ALLEY":" ","HOUSE_NO":"３５號","E_COORD97":169541.62,"N_COORD97":2549297.3500000001,"ADDRESS":"頂安街６９巷３５號","OBJECTID":295120},"geometry":{"x":169541.62000000197,"y":2549297.3500000015}},{"attributes":{"ID":295129,"DIS_CODE":0,"TOWNNAME":"安南區","LI":"新順里","LIN":"17鄰","STREET":"頂安街","SECT":" ","MAREA":" ","LANE":"６９巷","ALLEY":" ","HOUSE_NO":"３７號","E_COORD97":169545.95999999999,"N_COORD97":2549297.0499999998,"ADDRESS":"頂安街６９巷３７號","OBJECTID":295121},"geometry":{"x":169545.96000000183,"y":2549297.0500000026}},{"attributes":{"ID":295130,"DIS_CODE":0,"TOWNNAME":"安南區","LI":"新順里","LIN":"17鄰","STREET":"頂安街","SECT":" ","MAREA":" ","LANE":"６９巷","ALLEY":" ","HOUSE_NO":"３９號","E_COORD97":169546.42000000001,"N_COORD97":2549311.2799999998,"ADDRESS":"頂安街６９巷３９號","OBJECTID":295122},"geometry":{"x":169546.42000000086,"y":2549311.2800000012}},{"attributes":{"ID":295131,"DIS_CODE":0,"TOWNNAME":"安南區","LI":"新順里","LIN":"17鄰","STREET":"頂安街","SECT":" ","MAREA":" ","LANE":"６９巷","ALLEY":" ","HOUSE_NO":"４１號","E_COORD97":169546.26999999999,"N_COORD97":2549316.3900000001,"ADDRESS":"頂安街６９巷４１號","OBJECTID":295123},"geometry":{"x":169546.26999999955,"y":2549316.3900000006}},{"attributes":{"ID":295132,"DIS_CODE":0,"TOWNNAME":"安南區","LI":"新順里","LIN":"17鄰","STREET":"頂安街","SECT":" ","MAREA":" ","LANE":"６９巷","ALLEY":" ","HOUSE_NO":"４３號","E_COORD97":169563.60999999999,"N_COORD97":2549312.98,"ADDRESS":"頂安街６９巷４３號","OBJECTID":295124},"geometry":{"x":169563.61000000034,"y":2549312.9800000004}},{"attributes":{"ID":295133,"DIS_CODE":0,"TOWNNAME":"安南區","LI":"新順里","LIN":"17鄰","STREET":"頂安街","SECT":" ","MAREA":" ","LANE":"６９巷","ALLEY":" ","HOUSE_NO":"４５號","E_COORD97":169563.29999999999,"N_COORD97":2549308.7999999998,"ADDRESS":"頂安街６９巷４５號","OBJECTID":295125},"geometry":{"x":169563.29999999981,"y":2549308.8000000045}},{"attributes":{"ID":295134,"DIS_CODE":0,"TOWNNAME":"安南區","LI":"新順里","LIN":"17鄰","STREET":"頂安街","SECT":" ","MAREA":" ","LANE":"６９巷","ALLEY":" ","HOUSE_NO":"４７號","E_COORD97":169555.25,"N_COORD97":2549295.1899999999,"ADDRESS":"頂安街６９巷４７號","OBJECTID":295126},"geometry":{"x":169555.25,"y":2549295.1900000013}},{"attributes":{"ID":295135,"DIS_CODE":0,"TOWNNAME":"安南區","LI":"新順里","LIN":"17鄰","STREET":"頂安街","SECT":" ","MAREA":" ","LANE":"６９巷","ALLEY":" ","HOUSE_NO":"４９號","E_COORD97":169558.66,"N_COORD97":2549294.1099999999,"ADDRESS":"頂安街６９巷４９號","OBJECTID":295127},"geometry":{"x":169558.66000000108,"y":2549294.1099999994}},{"attributes":{"ID":295136,"DIS_CODE":0,"TOWNNAME":"安南區","LI":"新順里","LIN":"17鄰","STREET":"頂安街","SECT":" ","MAREA":" ","LANE":"６９巷","ALLEY":" ","HOUSE_NO":"４號","E_COORD97":169487.67999999999,"N_COORD97":2549329.9700000002,"ADDRESS":"頂安街６９巷４號","OBJECTID":295128},"geometry":{"x":169487.6799999997,"y":2549329.9700000007}},{"attributes":{"ID":295137,"DIS_CODE":0,"TOWNNAME":"安南區","LI":"新順里","LIN":"17鄰","STREET":"頂安街","SECT":" ","MAREA":" ","LANE":"６９巷","ALLEY":" ","HOUSE_NO":"５１號","E_COORD97":169563.29999999999,"N_COORD97":2549293.4900000002,"ADDRESS":"頂安街６９巷５１號","OBJECTID":295129},"geometry":{"x":169563.29999999981,"y":2549293.4900000021}},{"attributes":{"ID":295138,"DIS_CODE":0,"TOWNNAME":"安南區","LI":"新順里","LIN":"17鄰","STREET":"頂安街","SECT":" ","MAREA":" ","LANE":"６９巷","ALLEY":" ","HOUSE_NO":"５３號","E_COORD97":169567.64000000001,"N_COORD97":2549291.7799999998,"ADDRESS":"頂安街６９巷５３號","OBJECTID":295130},"geometry":{"x":169567.63999999966,"y":2549291.7800000012}},{"attributes":{"ID":295139,"DIS_CODE":0,"TOWNNAME":"安南區","LI":"海東里","LIN":"17鄰","STREET":"同安路","SECT":" ","MAREA":" ","LANE":"３８７巷","ALLEY":" ","HOUSE_NO":"２１號","E_COORD97":167248.39999999999,"N_COORD97":2549349.0800000001,"ADDRESS":"同安路３８７巷２１號","OBJECTID":295131},"geometry":{"x":167248.4000000013,"y":2549349.0800000001}},{"attributes":{"ID":295140,"DIS_CODE":0,"TOWNNAME":"安南區","LI":"海東里","LIN":"17鄰","STREET":"同安路","SECT":" ","MAREA":" ","LANE":"３８７巷","ALLEY":" ","HOUSE_NO":"２３號","E_COORD97":167245.89999999999,"N_COORD97":2549345.2999999998,"ADDRESS":"同安路３８７巷２３號","OBJECTID":295132},"geometry":{"x":167245.90000000037,"y":2549345.3000000007}},{"attributes":{"ID":295141,"DIS_CODE":0,"TOWNNAME":"安南區","LI":"海東里","LIN":"17鄰","STREET":"同安路","SECT":" ","MAREA":" ","LANE":"３８７巷","ALLEY":" ","HOUSE_NO":"２５號","E_COORD97":167243.76000000001,"N_COORD97":2549341.3999999999,"ADDRESS":"同安路３８７巷２５號","OBJECTID":295133},"geometry":{"x":167243.76000000071,"y":2549341.4000000041}},{"attributes":{"ID":295142,"DIS_CODE":0,"TOWNNAME":"安南區","LI":"海東里","LIN":"17鄰","STREET":"同安路","SECT":" ","MAREA":" ","LANE":"３８７巷","ALLEY":" ","HOUSE_NO":"２７號","E_COORD97":167241.87,"N_COORD97":2549337.6299999999,"ADDRESS":"同安路３８７巷２７號","OBJECTID":295134},"geometry":{"x":167241.87000000104,"y":2549337.629999999}},{"attributes":{"ID":295143,"DIS_CODE":0,"TOWNNAME":"麻豆區","LI":"磚井里","LIN":"4鄰","STREET":" ","SECT":" ","MAREA":"磚子井","LANE":" ","ALLEY":" ","HOUSE_NO":"２５號","E_COORD97":173132.67000000001,"N_COORD97":2562998.6499999999,"ADDRESS":"磚子井２５號","OBJECTID":295135},"geometry":{"x":173132.66999999993,"y":2562998.6500000004}},{"attributes":{"ID":295144,"DIS_CODE":0,"TOWNNAME":"麻豆區","LI":"磚井里","LIN":"13鄰","STREET":" ","SECT":" ","MAREA":"磚子井","LANE":" ","ALLEY":" ","HOUSE_NO":"１２６號","E_COORD97":172884.76000000001,"N_COORD97":2563215.5899999999,"ADDRESS":"磚子井１２６號","OBJECTID":295136},"geometry":{"x":172884.75999999978,"y":2563215.5899999999}},{"attributes":{"ID":295145,"DIS_CODE":0,"TOWNNAME":"麻豆區","LI":"磚井里","LIN":"2鄰","STREET":" ","SECT":" ","MAREA":"磚子井","LANE":" ","ALLEY":" ","HOUSE_NO":"１２號","E_COORD97":173197.51999999999,"N_COORD97":2563449.6299999999,"ADDRESS":"磚子井１２號","OBJECTID":295137},"geometry":{"x":173197.51999999955,"y":2563449.6300000008}},{"attributes":{"ID":295146,"DIS_CODE":0,"TOWNNAME":"麻豆區","LI":"磚井里","LIN":"4鄰","STREET":" ","SECT":" ","MAREA":"磚子井","LANE":" ","ALLEY":" ","HOUSE_NO":"２６號","E_COORD97":173361.70000000001,"N_COORD97":2563476.7000000002,"ADDRESS":"磚子井２６號","OBJECTID":295138},"geometry":{"x":173361.70000000019,"y":2563476.7000000011}},{"attributes":{"ID":295147,"DIS_CODE":0,"TOWNNAME":"麻豆區","LI":"磚井里","LIN":"4鄰","STREET":" ","SECT":" ","MAREA":"磚子井","LANE":" ","ALLEY":" ","HOUSE_NO":"２７號之１","E_COORD97":173398.98999999999,"N_COORD97":2563479.0099999998,"ADDRESS":"磚子井２７號之１","OBJECTID":295139},"geometry":{"x":173398.99000000022,"y":2563479.0100000016}},{"attributes":{"ID":295148,"DIS_CODE":0,"TOWNNAME":"麻豆區","LI":"磚井里","LIN":"4鄰","STREET":" ","SECT":" ","MAREA":"磚子井","LANE":" ","ALLEY":" ","HOUSE_NO":"２７號之２","E_COORD97":173393.95999999999,"N_COORD97":2563478.4199999999,"ADDRESS":"磚子井２７號之２","OBJECTID":295140},"geometry":{"x":173393.95999999903,"y":2563478.4199999999}},{"attributes":{"ID":295149,"DIS_CODE":0,"TOWNNAME":"安南區","LI":"海東里","LIN":"17鄰","STREET":"同安路","SECT":" ","MAREA":" ","LANE":"３８７巷","ALLEY":" ","HOUSE_NO":"２９號","E_COORD97":167239.35999999999,"N_COORD97":2549333.75,"ADDRESS":"同安路３８７巷２９號","OBJECTID":295141},"geometry":{"x":167239.36000000034,"y":2549333.75}},{"attributes":{"ID":295150,"DIS_CODE":0,"TOWNNAME":"安南區","LI":"海東里","LIN":"17鄰","STREET":"同安路","SECT":" ","MAREA":" ","LANE":"３８７巷","ALLEY":" ","HOUSE_NO":"３１號","E_COORD97":167237.10999999999,"N_COORD97":2549329.8500000001,"ADDRESS":"同安路３８７巷３１號","OBJECTID":295142},"geometry":{"x":167237.11000000127,"y":2549329.8499999996}},{"attributes":{"ID":295151,"DIS_CODE":0,"TOWNNAME":"安南區","LI":"淵中里","LIN":"17鄰","STREET":"安中路","SECT":"三段","MAREA":" ","LANE":"２６１巷","ALLEY":" ","HOUSE_NO":"２５號","E_COORD97":165742.89000000001,"N_COORD97":2549804.8799999999,"ADDRESS":"安中路三段２６１巷２５號","OBJECTID":295143},"geometry":{"x":165742.8900000006,"y":2549804.8800000008}},{"attributes":{"ID":295152,"DIS_CODE":0,"TOWNNAME":"安南區","LI":"淵中里","LIN":"17鄰","STREET":"安中路","SECT":"三段","MAREA":" ","LANE":"２６１巷","ALLEY":" ","HOUSE_NO":"２７號","E_COORD97":165742.23000000001,"N_COORD97":2549801.3199999998,"ADDRESS":"安中路三段２６１巷２７號","OBJECTID":295144},"geometry":{"x":165742.22999999952,"y":2549801.3200000003}},{"attributes":{"ID":295153,"DIS_CODE":0,"TOWNNAME":"安南區","LI":"淵中里","LIN":"17鄰","STREET":"安中路","SECT":"三段","MAREA":" ","LANE":"２６１巷","ALLEY":" ","HOUSE_NO":"２９號","E_COORD97":165741.63,"N_COORD97":2549797.1000000001,"ADDRESS":"安中路三段２６１巷２９號","OBJECTID":295145},"geometry":{"x":165741.62999999989,"y":2549797.1000000034}},{"attributes":{"ID":295154,"DIS_CODE":0,"TOWNNAME":"安南區","LI":"淵中里","LIN":"17鄰","STREET":"安中路","SECT":"三段","MAREA":" ","LANE":"２６１巷","ALLEY":" ","HOUSE_NO":"３１號","E_COORD97":165740.04999999999,"N_COORD97":2549793.8100000001,"ADDRESS":"安中路三段２６１巷３１號","OBJECTID":295146},"geometry":{"x":165740.05000000075,"y":2549793.8100000024}},{"attributes":{"ID":295155,"DIS_CODE":0,"TOWNNAME":"安南區","LI":"淵中里","LIN":"17鄰","STREET":"安中路","SECT":"三段","MAREA":" ","LANE":"２６１巷","ALLEY":" ","HOUSE_NO":"３３號","E_COORD97":165738.54000000001,"N_COORD97":2549788.6600000001,"ADDRESS":"安中路三段２６１巷３３號","OBJECTID":295147},"geometry":{"x":165738.54000000097,"y":2549788.6600000001}},{"attributes":{"ID":295156,"DIS_CODE":0,"TOWNNAME":"安南區","LI":"淵中里","LIN":"17鄰","STREET":"安中路","SECT":"三段","MAREA":" ","LANE":"２６１巷","ALLEY":" ","HOUSE_NO":"３５號","E_COORD97":165737.95999999999,"N_COORD97":2549783.46,"ADDRESS":"安中路三段２６１巷３５號","OBJECTID":295148},"geometry":{"x":165737.95999999996,"y":2549783.4600000028}},{"attributes":{"ID":295157,"DIS_CODE":0,"TOWNNAME":"安南區","LI":"淵中里","LIN":"17鄰","STREET":"安中路","SECT":"三段","MAREA":" ","LANE":"２６１巷","ALLEY":" ","HOUSE_NO":"３７號","E_COORD97":165737.95999999999,"N_COORD97":2549779.7000000002,"ADDRESS":"安中路三段２６１巷３７號","OBJECTID":295149},"geometry":{"x":165737.95999999996,"y":2549779.7000000011}},{"attributes":{"ID":295158,"DIS_CODE":0,"TOWNNAME":"中西區","LI":"永華里","LIN":"15鄰","STREET":"友愛街","SECT":" ","MAREA":" ","LANE":" ","ALLEY":" ","HOUSE_NO":"１號","E_COORD97":168605.94,"N_COORD97":2543503.8399999999,"ADDRESS":"友愛街１號","OBJECTID":295150},"geometry":{"x":168605.94000000134,"y":2543503.8400000017}},{"attributes":{"ID":295159,"DIS_CODE":0,"TOWNNAME":"東區","LI":"復興里","LIN":"20鄰","STREET":"東成街","SECT":" ","MAREA":" ","LANE":"２０１巷","ALLEY":" ","HOUSE_NO":"１０號","E_COORD97":171867.19,"N_COORD97":2542345.1200000001,"ADDRESS":"東成街２０１巷１０號","OBJECTID":295151},"geometry":{"x":171867.18999999948,"y":2542345.120000001}},{"attributes":{"ID":295160,"DIS_CODE":0,"TOWNNAME":"東區","LI":"復興里","LIN":"20鄰","STREET":"東成街","SECT":" ","MAREA":" ","LANE":"２０１巷","ALLEY":" ","HOUSE_NO":"１２號","E_COORD97":171866.79999999999,"N_COORD97":2542349.8900000001,"ADDRESS":"東成街２０１巷１２號","OBJECTID":295152},"geometry":{"x":171866.79999999981,"y":2542349.8900000006}},{"attributes":{"ID":295161,"DIS_CODE":0,"TOWNNAME":"東區","LI":"復興里","LIN":"20鄰","STREET":"自由路","SECT":"三段","MAREA":" ","LANE":" ","ALLEY":" ","HOUSE_NO":"２６６號","E_COORD97":171845.29000000001,"N_COORD97":2542350.29,"ADDRESS":"自由路三段２６６號","OBJECTID":295153},"geometry":{"x":171845.29000000004,"y":2542350.290000001}},{"attributes":{"ID":295162,"DIS_CODE":0,"TOWNNAME":"東區","LI":"復興里","LIN":"20鄰","STREET":"東成街","SECT":" ","MAREA":" ","LANE":"２０１巷","ALLEY":" ","HOUSE_NO":"１４號","E_COORD97":171864.81,"N_COORD97":2542354.27,"ADDRESS":"東成街２０１巷１４號","OBJECTID":295154},"geometry":{"x":171864.80999999959,"y":2542354.2700000014}},{"attributes":{"ID":295163,"DIS_CODE":0,"TOWNNAME":"新營區","LI":"太北里","LIN":"13鄰","STREET":" ","SECT":" ","MAREA":"太子宮","LANE":" ","ALLEY":" ","HOUSE_NO":"１１０號之４","E_COORD97":175990.23476299999,"N_COORD97":2577072.8851700001,"ADDRESS":"太子宮１１０號之４","OBJECTID":295155},"geometry":{"x":175990.23476300016,"y":2577072.8851720002}},{"attributes":{"ID":295164,"DIS_CODE":0,"TOWNNAME":"安南區","LI":"淵中里","LIN":"17鄰","STREET":"安中路","SECT":"三段","MAREA":" ","LANE":"２６１巷","ALLEY":" ","HOUSE_NO":"３９號","E_COORD97":165736.51999999999,"N_COORD97":2549775.0800000001,"ADDRESS":"安中路三段２６１巷３９號","OBJECTID":295156},"geometry":{"x":165736.52000000048,"y":2549775.0800000019}},{"attributes":{"ID":295165,"DIS_CODE":0,"TOWNNAME":"安南區","LI":"淵中里","LIN":"17鄰","STREET":"安中路","SECT":"三段","MAREA":" ","LANE":"２６１巷","ALLEY":" ","HOUSE_NO":"４１號","E_COORD97":165736.23000000001,"N_COORD97":2549771.6099999999,"ADDRESS":"安中路三段２６１巷４１號","OBJECTID":295157},"geometry":{"x":165736.23000000138,"y":2549771.6099999994}},{"attributes":{"ID":295166,"DIS_CODE":0,"TOWNNAME":"安南區","LI":"淵中里","LIN":"17鄰","STREET":"安中路","SECT":"三段","MAREA":" ","LANE":"２６１巷","ALLEY":" ","HOUSE_NO":"４３號","E_COORD97":165734.48999999999,"N_COORD97":2549766.9900000002,"ADDRESS":"安中路三段２６１巷４３號","OBJECTID":295158},"geometry":{"x":165734.49000000022,"y":2549766.9900000002}},{"attributes":{"ID":295167,"DIS_CODE":0,"TOWNNAME":"佳里區","LI":"東寧里","LIN":"17鄰","STREET":"和平街","SECT":" ","MAREA":" ","LANE":"１９巷","ALLEY":" ","HOUSE_NO":"１號","E_COORD97":166025.04000000001,"N_COORD97":2562487.6699999999,"ADDRESS":"和平街１９巷１號","OBJECTID":295159},"geometry":{"x":166025.04000000097,"y":2562487.6700000018}},{"attributes":{"ID":295168,"DIS_CODE":0,"TOWNNAME":"佳里區","LI":"東寧里","LIN":"17鄰","STREET":"和平街","SECT":" ","MAREA":" ","LANE":"１９巷","ALLEY":" ","HOUSE_NO":"２號","E_COORD97":166024.89999999999,"N_COORD97":2562478.8199999998,"ADDRESS":"和平街１９巷２號","OBJECTID":295160},"geometry":{"x":166024.9000000013,"y":2562478.8200000003}},{"attributes":{"ID":295169,"DIS_CODE":0,"TOWNNAME":"佳里區","LI":"東寧里","LIN":"17鄰","STREET":"和平街","SECT":" ","MAREA":" ","LANE":"１９巷","ALLEY":" ","HOUSE_NO":"３號","E_COORD97":166027.57999999999,"N_COORD97":2562465.3799999999,"ADDRESS":"和平街１９巷３號","OBJECTID":295161},"geometry":{"x":166027.58000000007,"y":2562465.3800000008}},{"attributes":{"ID":295170,"DIS_CODE":0,"TOWNNAME":"佳里區","LI":"東寧里","LIN":"17鄰","STREET":"和平街","SECT":" ","MAREA":" ","LANE":"３９巷","ALLEY":" ","HOUSE_NO":"１０號之１","E_COORD97":165971.91,"N_COORD97":2562456.54,"ADDRESS":"和平街３９巷１０號之１","OBJECTID":295162},"geometry":{"x":165971.91000000108,"y":2562456.5400000028}},{"attributes":{"ID":295171,"DIS_CODE":0,"TOWNNAME":"佳里區","LI":"東寧里","LIN":"17鄰","STREET":"和平街","SECT":" ","MAREA":" ","LANE":"３９巷","ALLEY":" ","HOUSE_NO":"１０號","E_COORD97":165984.66,"N_COORD97":2562468.8799999999,"ADDRESS":"和平街３９巷１０號","OBJECTID":295163},"geometry":{"x":165984.66000000015,"y":2562468.8800000008}},{"attributes":{"ID":295172,"DIS_CODE":0,"TOWNNAME":"佳里區","LI":"東寧里","LIN":"17鄰","STREET":"和平街","SECT":" ","MAREA":" ","LANE":"３９巷","ALLEY":" ","HOUSE_NO":"１１號","E_COORD97":166003.63,"N_COORD97":2562472.1400000001,"ADDRESS":"和平街３９巷１１號","OBJECTID":295164},"geometry":{"x":166003.63000000082,"y":2562472.1400000025}},{"attributes":{"ID":295173,"DIS_CODE":0,"TOWNNAME":"安平區","LI":"金城里","LIN":"14鄰","STREET":"世平二街","SECT":" ","MAREA":" ","LANE":" ","ALLEY":" ","HOUSE_NO":"１６號","E_COORD97":162940.54000000001,"N_COORD97":2544084.21,"ADDRESS":"世平二街１６號","OBJECTID":295165},"geometry":{"x":162940.54000000004,"y":2544084.2100000009}},{"attributes":{"ID":295174,"DIS_CODE":0,"TOWNNAME":"安平區","LI":"金城里","LIN":"14鄰","STREET":"世平二街","SECT":" ","MAREA":" ","LANE":" ","ALLEY":" ","HOUSE_NO":"１８號","E_COORD97":162936.89000000001,"N_COORD97":2544081.6600000001,"ADDRESS":"世平二街１８號","OBJECTID":295166},"geometry":{"x":162936.8900000006,"y":2544081.660000002}},{"attributes":{"ID":295175,"DIS_CODE":0,"TOWNNAME":"安平區","LI":"金城里","LIN":"14鄰","STREET":"世平二街","SECT":" ","MAREA":" ","LANE":" ","ALLEY":" ","HOUSE_NO":"２０號","E_COORD97":162932.69,"N_COORD97":2544079.6499999999,"ADDRESS":"世平二街２０號","OBJECTID":295167},"geometry":{"x":162932.69000000134,"y":2544079.6500000004}},{"attributes":{"ID":295176,"DIS_CODE":0,"TOWNNAME":"安平區","LI":"建平里","LIN":"14鄰","STREET":"建平十三街","SECT":" ","MAREA":" ","LANE":" ","ALLEY":" ","HOUSE_NO":"１７號","E_COORD97":166286.07999999999,"N_COORD97":2543989.0699999998,"ADDRESS":"建平十三街１７號","OBJECTID":295168},"geometry":{"x":166286.08000000101,"y":2543989.0700000003}},{"attributes":{"ID":295177,"DIS_CODE":0,"TOWNNAME":"東區","LI":"復興里","LIN":"17鄰","STREET":"東成街","SECT":" ","MAREA":" ","LANE":"１３１巷","ALLEY":" ","HOUSE_NO":"２號","E_COORD97":171703.13,"N_COORD97":2542333.3199999998,"ADDRESS":"東成街１３１巷２號","OBJECTID":295169},"geometry":{"x":171703.13000000082,"y":2542333.3200000003}},{"attributes":{"ID":295178,"DIS_CODE":0,"TOWNNAME":"東區","LI":"復興里","LIN":"17鄰","STREET":"東成街","SECT":" ","MAREA":" ","LANE":"１３１巷","ALLEY":" ","HOUSE_NO":"４號","E_COORD97":171702.73000000001,"N_COORD97":2542338.4900000002,"ADDRESS":"東成街１３１巷４號","OBJECTID":295170},"geometry":{"x":171702.73000000231,"y":2542338.4900000002}},{"attributes":{"ID":295179,"DIS_CODE":0,"TOWNNAME":"東區","LI":"復興里","LIN":"17鄰","STREET":"東成街","SECT":" ","MAREA":" ","LANE":"１３１巷","ALLEY":" ","HOUSE_NO":"６號","E_COORD97":171703.13,"N_COORD97":2542345.25,"ADDRESS":"東成街１３１巷６號","OBJECTID":295171},"geometry":{"x":171703.13000000082,"y":2542345.2500000019}},{"attributes":{"ID":295180,"DIS_CODE":0,"TOWNNAME":"東區","LI":"復興里","LIN":"17鄰","STREET":"東成街","SECT":" ","MAREA":" ","LANE":"１３１巷","ALLEY":" ","HOUSE_NO":"８號","E_COORD97":171703.13,"N_COORD97":2542350.02,"ADDRESS":"東成街１３１巷８號","OBJECTID":295172},"geometry":{"x":171703.13000000082,"y":2542350.0200000014}},{"attributes":{"ID":295181,"DIS_CODE":0,"TOWNNAME":"東區","LI":"虎尾里","LIN":"19鄰","STREET":"東成街","SECT":" ","MAREA":" ","LANE":"２８巷","ALLEY":" ","HOUSE_NO":"１０號","E_COORD97":171325.72,"N_COORD97":2542219.9399999999,"ADDRESS":"東成街２８巷１０號","OBJECTID":295173},"geometry":{"x":171325.7200000016,"y":2542219.9399999995}},{"attributes":{"ID":295182,"DIS_CODE":0,"TOWNNAME":"東區","LI":"虎尾里","LIN":"19鄰","STREET":"東成街","SECT":" ","MAREA":" ","LANE":"２８巷","ALLEY":" ","HOUSE_NO":"１２號","E_COORD97":171329.51999999999,"N_COORD97":2542217,"ADDRESS":"東成街２８巷１２號","OBJECTID":295174},"geometry":{"x":171329.51999999955,"y":2542216.9999999981}},{"attributes":{"ID":295183,"DIS_CODE":0,"TOWNNAME":"佳里區","LI":"東寧里","LIN":"17鄰","STREET":"和平街","SECT":" ","MAREA":" ","LANE":"３９巷","ALLEY":" ","HOUSE_NO":"１號","E_COORD97":166002.39000000001,"N_COORD97":2562492.3900000001,"ADDRESS":"和平街３９巷１號","OBJECTID":295175},"geometry":{"x":166002.38999999966,"y":2562492.3900000006}},{"attributes":{"ID":295184,"DIS_CODE":0,"TOWNNAME":"佳里區","LI":"東寧里","LIN":"17鄰","STREET":"和平街","SECT":" ","MAREA":" ","LANE":"３９巷","ALLEY":" ","HOUSE_NO":"２８號之１","E_COORD97":165988.88,"N_COORD97":2562446.8999999999,"ADDRESS":"和平街３９巷２８號之１","OBJECTID":295176},"geometry":{"x":165988.88000000082,"y":2562446.9000000022}},{"attributes":{"ID":295185,"DIS_CODE":0,"TOWNNAME":"佳里區","LI":"東寧里","LIN":"17鄰","STREET":"和平街","SECT":" ","MAREA":" ","LANE":"３９巷","ALLEY":" ","HOUSE_NO":"２８號之２","E_COORD97":165989.07000000001,"N_COORD97":2562452.1200000001,"ADDRESS":"和平街３９巷２８號之２","OBJECTID":295177},"geometry":{"x":165989.07000000216,"y":2562452.1200000029}},{"attributes":{"ID":295186,"DIS_CODE":0,"TOWNNAME":"佳里區","LI":"東寧里","LIN":"17鄰","STREET":"和平街","SECT":" ","MAREA":" ","LANE":"３９巷","ALLEY":" ","HOUSE_NO":"２號","E_COORD97":165980.76000000001,"N_COORD97":2562504.5299999998,"ADDRESS":"和平街３９巷２號","OBJECTID":295178},"geometry":{"x":165980.76000000071,"y":2562504.5300000031}},{"attributes":{"ID":295187,"DIS_CODE":0,"TOWNNAME":"安平區","LI":"建平里","LIN":"14鄰","STREET":"建平十三街","SECT":" ","MAREA":" ","LANE":" ","ALLEY":" ","HOUSE_NO":"１９號","E_COORD97":166281.29999999999,"N_COORD97":2543988.5899999999,"ADDRESS":"建平十三街１９號","OBJECTID":295179},"geometry":{"x":166281.29999999981,"y":2543988.5899999999}},{"attributes":{"ID":295188,"DIS_CODE":0,"TOWNNAME":"安平區","LI":"建平里","LIN":"14鄰","STREET":"建平十三街","SECT":" ","MAREA":" ","LANE":" ","ALLEY":" ","HOUSE_NO":"２１號","E_COORD97":166275.92000000001,"N_COORD97":2543988.1200000001,"ADDRESS":"建平十三街２１號","OBJECTID":295180},"geometry":{"x":166275.91999999993,"y":2543988.1200000029}},{"attributes":{"ID":295189,"DIS_CODE":0,"TOWNNAME":"安平區","LI":"建平里","LIN":"14鄰","STREET":"建平十三街","SECT":" ","MAREA":" ","LANE":" ","ALLEY":" ","HOUSE_NO":"２３號","E_COORD97":166271.01999999999,"N_COORD97":2543988.4700000002,"ADDRESS":"建平十三街２３號","OBJECTID":295181},"geometry":{"x":166271.01999999955,"y":2543988.4700000025}},{"attributes":{"ID":295190,"DIS_CODE":0,"TOWNNAME":"安平區","LI":"建平里","LIN":"14鄰","STREET":"建平十三街","SECT":" ","MAREA":" ","LANE":" ","ALLEY":" ","HOUSE_NO":"２５號","E_COORD97":166265.17000000001,"N_COORD97":2543988.1200000001,"ADDRESS":"建平十三街２５號","OBJECTID":295182},"geometry":{"x":166265.16999999993,"y":2543988.1200000029}},{"attributes":{"ID":295191,"DIS_CODE":0,"TOWNNAME":"安平區","LI":"建平里","LIN":"14鄰","STREET":"建平十三街","SECT":" ","MAREA":" ","LANE":" ","ALLEY":" ","HOUSE_NO":"３７號","E_COORD97":166234.41,"N_COORD97":2543992.6499999999,"ADDRESS":"建平十三街３７號","OBJECTID":295183},"geometry":{"x":166234.41000000108,"y":2543992.6500000004}},{"attributes":{"ID":295192,"DIS_CODE":0,"TOWNNAME":"安平區","LI":"建平里","LIN":"14鄰","STREET":"建平十三街","SECT":" ","MAREA":" ","LANE":" ","ALLEY":" ","HOUSE_NO":"３９號","E_COORD97":166230.47,"N_COORD97":2543992.4100000001,"ADDRESS":"建平十三街３９號","OBJECTID":295184},"geometry":{"x":166230.47000000067,"y":2543992.410000002}},{"attributes":{"ID":295193,"DIS_CODE":0,"TOWNNAME":"北門區","LI":"錦湖里","LIN":"1鄰","STREET":" ","SECT":" ","MAREA":"渡子頭","LANE":" ","ALLEY":" ","HOUSE_NO":"８號之１","E_COORD97":165185.07999999999,"N_COORD97":2576211.1499999999,"ADDRESS":"渡子頭８號之１","OBJECTID":295185},"geometry":{"x":165185.08000000007,"y":2576211.1500000004}},{"attributes":{"ID":295194,"DIS_CODE":0,"TOWNNAME":"北門區","LI":"中樞里","LIN":"4鄰","STREET":" ","SECT":" ","MAREA":"溪底寮","LANE":" ","ALLEY":" ","HOUSE_NO":"２４號之１","E_COORD97":161182.63,"N_COORD97":2571181.3799999999,"ADDRESS":"溪底寮２４號之１","OBJECTID":295186},"geometry":{"x":161182.63000000082,"y":2571181.3800000008}},{"attributes":{"ID":295195,"DIS_CODE":0,"TOWNNAME":"北門區","LI":"中樞里","LIN":"4鄰","STREET":" ","SECT":" ","MAREA":"溪底寮","LANE":" ","ALLEY":" ","HOUSE_NO":"２４號之２","E_COORD97":161124.23999999999,"N_COORD97":2571155.1600000001,"ADDRESS":"溪底寮２４號之２","OBJECTID":295187},"geometry":{"x":161124.23999999929,"y":2571155.1600000001}},{"attributes":{"ID":295196,"DIS_CODE":0,"TOWNNAME":"北門區","LI":"中樞里","LIN":"4鄰","STREET":" ","SECT":" ","MAREA":"溪底寮","LANE":" ","ALLEY":" ","HOUSE_NO":"２４號之３","E_COORD97":161115.59,"N_COORD97":2571206.9900000002,"ADDRESS":"溪底寮２４號之３","OBJECTID":295188},"geometry":{"x":161115.59000000078,"y":2571206.9900000002}},{"attributes":{"ID":295197,"DIS_CODE":0,"TOWNNAME":"北門區","LI":"中樞里","LIN":"4鄰","STREET":" ","SECT":" ","MAREA":"溪底寮","LANE":" ","ALLEY":" ","HOUSE_NO":"２４號","E_COORD97":161149.20000000001,"N_COORD97":2571173.9900000002,"ADDRESS":"溪底寮２４號","OBJECTID":295189},"geometry":{"x":161149.20000000019,"y":2571173.9900000002}},{"attributes":{"ID":295198,"DIS_CODE":0,"TOWNNAME":"北門區","LI":"中樞里","LIN":"4鄰","STREET":" ","SECT":" ","MAREA":"溪底寮","LANE":" ","ALLEY":" ","HOUSE_NO":"２５號","E_COORD97":161102.57000000001,"N_COORD97":2571223.21,"ADDRESS":"溪底寮２５號","OBJECTID":295190},"geometry":{"x":161102.57000000123,"y":2571223.2100000009}},{"attributes":{"ID":295199,"DIS_CODE":0,"TOWNNAME":"北門區","LI":"中樞里","LIN":"4鄰","STREET":" ","SECT":" ","MAREA":"溪底寮","LANE":" ","ALLEY":" ","HOUSE_NO":"２８號","E_COORD97":161051.89000000001,"N_COORD97":2571210.0600000001,"ADDRESS":"溪底寮２８號","OBJECTID":295191},"geometry":{"x":161051.8900000006,"y":2571210.0600000024}},{"attributes":{"ID":295200,"DIS_CODE":0,"TOWNNAME":"北門區","LI":"中樞里","LIN":"4鄰","STREET":" ","SECT":" ","MAREA":"溪底寮","LANE":" ","ALLEY":" ","HOUSE_NO":"３０號之１","E_COORD97":161041.70999999999,"N_COORD97":2571184.8799999999,"ADDRESS":"溪底寮３０號之１","OBJECTID":295192},"geometry":{"x":161041.71000000089,"y":2571184.8800000008}},{"attributes":{"ID":295201,"DIS_CODE":0,"TOWNNAME":"北門區","LI":"中樞里","LIN":"4鄰","STREET":" ","SECT":" ","MAREA":"溪底寮","LANE":" ","ALLEY":" ","HOUSE_NO":"３０之２號","E_COORD97":161049.22,"N_COORD97":2571184.77,"ADDRESS":"溪底寮３０之２號","OBJECTID":295193},"geometry":{"x":161049.21999999974,"y":2571184.7699999996}},{"attributes":{"ID":295202,"DIS_CODE":0,"TOWNNAME":"北門區","LI":"中樞里","LIN":"4鄰","STREET":" ","SECT":" ","MAREA":"溪底寮","LANE":" ","ALLEY":" ","HOUSE_NO":"３０號之３","E_COORD97":161056.12,"N_COORD97":2571183.7400000002,"ADDRESS":"溪底寮３０號之３","OBJECTID":295194},"geometry":{"x":161056.12000000104,"y":2571183.7400000021}},{"attributes":{"ID":295203,"DIS_CODE":0,"TOWNNAME":"北門區","LI":"中樞里","LIN":"4鄰","STREET":" ","SECT":" ","MAREA":"溪底寮","LANE":" ","ALLEY":" ","HOUSE_NO":"３０號之５","E_COORD97":161070.57999999999,"N_COORD97":2571184.73,"ADDRESS":"溪底寮３０號之５","OBJECTID":295195},"geometry":{"x":161070.58000000007,"y":2571184.7300000023}},{"attributes":{"ID":295204,"DIS_CODE":0,"TOWNNAME":"北門區","LI":"中樞里","LIN":"4鄰","STREET":" ","SECT":" ","MAREA":"溪底寮","LANE":" ","ALLEY":" ","HOUSE_NO":"３０號","E_COORD97":161015.47,"N_COORD97":2571180.1899999999,"ADDRESS":"溪底寮３０號","OBJECTID":295196},"geometry":{"x":161015.4700000016,"y":2571180.1900000013}},{"attributes":{"ID":295205,"DIS_CODE":0,"TOWNNAME":"北門區","LI":"中樞里","LIN":"4鄰","STREET":" ","SECT":" ","MAREA":"溪底寮","LANE":" ","ALLEY":" ","HOUSE_NO":"３１號","E_COORD97":161069.54000000001,"N_COORD97":2571139.2599999998,"ADDRESS":"溪底寮３１號","OBJECTID":295197},"geometry":{"x":161069.5400000019,"y":2571139.2600000016}},{"attributes":{"ID":295206,"DIS_CODE":0,"TOWNNAME":"北門區","LI":"中樞里","LIN":"1鄰","STREET":" ","SECT":" ","MAREA":"溪底寮","LANE":" ","ALLEY":" ","HOUSE_NO":"２號","E_COORD97":161229.51000000001,"N_COORD97":2571278.21,"ADDRESS":"溪底寮２號","OBJECTID":295198},"geometry":{"x":161229.51000000071,"y":2571278.2100000009}},{"attributes":{"ID":295207,"DIS_CODE":0,"TOWNNAME":"北門區","LI":"中樞里","LIN":"1鄰","STREET":" ","SECT":" ","MAREA":"溪底寮","LANE":" ","ALLEY":" ","HOUSE_NO":"３號","E_COORD97":161215.39999999999,"N_COORD97":2571267.8900000001,"ADDRESS":"溪底寮３號","OBJECTID":295199},"geometry":{"x":161215.4000000013,"y":2571267.8900000025}},{"attributes":{"ID":295208,"DIS_CODE":0,"TOWNNAME":"北門區","LI":"中樞里","LIN":"6鄰","STREET":" ","SECT":" ","MAREA":"溪底寮","LANE":" ","ALLEY":" ","HOUSE_NO":"４２之１０號","E_COORD97":160915.17999999999,"N_COORD97":2571135.9399999999,"ADDRESS":"溪底寮４２之１０號","OBJECTID":295200},"geometry":{"x":160915.1799999997,"y":2571135.9399999995}}]}