{"displayFieldName":"TOWNNAME","fieldAliases":{"ID":"ID","DIS_CODE":"DIS_CODE","TOWNNAME":"TOWNNAME","LI":"LI","LIN":"LIN","STREET":"STREET","SECT":"SECT","MAREA":"MAREA","LANE":"LANE","ALLEY":"ALLEY","HOUSE_NO":"HOUSE_NO","E_COORD97":"E_COORD97","N_COORD97":"N_COORD97","ADDRESS":"ADDRESS","OBJECTID":"OBJECTID"},"geometryType":"esriGeometryPoint","spatialReference":{"wkid":102443,"latestWkid":3826},"fields":[{"name":"ID","type":"esriFieldTypeDouble","alias":"ID"},{"name":"DIS_CODE","type":"esriFieldTypeInteger","alias":"DIS_CODE"},{"name":"TOWNNAME","type":"esriFieldTypeString","alias":"TOWNNAME","length":8},{"name":"LI","type":"esriFieldTypeString","alias":"LI","length":8},{"name":"LIN","type":"esriFieldTypeString","alias":"LIN","length":12},{"name":"STREET","type":"esriFieldTypeString","alias":"STREET","length":20},{"name":"SECT","type":"esriFieldTypeString","alias":"SECT","length":8},{"name":"MAREA","type":"esriFieldTypeString","alias":"MAREA","length":12},{"name":"LANE","type":"esriFieldTypeString","alias":"LANE","length":10},{"name":"ALLEY","type":"esriFieldTypeString","alias":"ALLEY","length":10},{"name":"HOUSE_NO","type":"esriFieldTypeString","alias":"HOUSE_NO","length":20},{"name":"E_COORD97","type":"esriFieldTypeDouble","alias":"E_COORD97"},{"name":"N_COORD97","type":"esriFieldTypeDouble","alias":"N_COORD97"},{"name":"ADDRESS","type":"esriFieldTypeString","alias":"ADDRESS","length":50},{"name":"OBJECTID","type":"esriFieldTypeOID","alias":"OBJECTID"}],"features":[{"attributes":{"ID":615028,"DIS_CODE":0,"TOWNNAME":"東山區","LI":"東中里","LIN":"2鄰","STREET":"中興路","SECT":" ","MAREA":" ","LANE":" ","ALLEY":" ","HOUSE_NO":"２３號","E_COORD97":188965.54000000001,"N_COORD97":2580129.3999999999,"ADDRESS":"中興路２３號","OBJECTID":615001},"geometry":{"x":188965.5400000019,"y":2580129.4000000041}},{"attributes":{"ID":615029,"DIS_CODE":0,"TOWNNAME":"東山區","LI":"東中里","LIN":"2鄰","STREET":"中興路","SECT":" ","MAREA":" ","LANE":" ","ALLEY":" ","HOUSE_NO":"２５號","E_COORD97":188965.92000000001,"N_COORD97":2580133.7400000002,"ADDRESS":"中興路２５號","OBJECTID":615002},"geometry":{"x":188965.91999999993,"y":2580133.7400000039}},{"attributes":{"ID":615030,"DIS_CODE":0,"TOWNNAME":"東山區","LI":"東中里","LIN":"2鄰","STREET":"中興路","SECT":" ","MAREA":" ","LANE":" ","ALLEY":" ","HOUSE_NO":"５號","E_COORD97":188962.13,"N_COORD97":2580090.3500000001,"ADDRESS":"中興路５號","OBJECTID":615003},"geometry":{"x":188962.13000000082,"y":2580090.3499999996}},{"attributes":{"ID":615031,"DIS_CODE":0,"TOWNNAME":"東山區","LI":"東中里","LIN":"2鄰","STREET":"中興路","SECT":" ","MAREA":" ","LANE":" ","ALLEY":" ","HOUSE_NO":"７號","E_COORD97":188962.51000000001,"N_COORD97":2580094.6800000002,"ADDRESS":"中興路７號","OBJECTID":615004},"geometry":{"x":188962.51000000071,"y":2580094.6799999997}},{"attributes":{"ID":615032,"DIS_CODE":0,"TOWNNAME":"東山區","LI":"東中里","LIN":"2鄰","STREET":"中興路","SECT":" ","MAREA":" ","LANE":" ","ALLEY":" ","HOUSE_NO":"９號","E_COORD97":188962.89000000001,"N_COORD97":2580098.4399999999,"ADDRESS":"中興路９號","OBJECTID":615005},"geometry":{"x":188962.89000000153,"y":2580098.4400000013}},{"attributes":{"ID":615033,"DIS_CODE":0,"TOWNNAME":"新營區","LI":"興業里","LIN":"2鄰","STREET":"新進路","SECT":" ","MAREA":" ","LANE":" ","ALLEY":" ","HOUSE_NO":"２３８號","E_COORD97":180216.79999999999,"N_COORD97":2577882.8599999999,"ADDRESS":"新進路２３８號","OBJECTID":615006},"geometry":{"x":180216.80000000075,"y":2577882.8599999994}},{"attributes":{"ID":615034,"DIS_CODE":0,"TOWNNAME":"新營區","LI":"民生里","LIN":"2鄰","STREET":"中華路","SECT":" ","MAREA":" ","LANE":" ","ALLEY":" ","HOUSE_NO":"６９號","E_COORD97":179440.26000000001,"N_COORD97":2578125.75,"ADDRESS":"中華路６９號","OBJECTID":615007},"geometry":{"x":179440.26000000164,"y":2578125.75}},{"attributes":{"ID":615035,"DIS_CODE":0,"TOWNNAME":"新營區","LI":"興業里","LIN":"2鄰","STREET":"新進路","SECT":" ","MAREA":" ","LANE":" ","ALLEY":" ","HOUSE_NO":"２５４號","E_COORD97":180172.81,"N_COORD97":2577881.96,"ADDRESS":"新進路２５４號","OBJECTID":615008},"geometry":{"x":180172.81000000052,"y":2577881.9600000046}},{"attributes":{"ID":615036,"DIS_CODE":0,"TOWNNAME":"新營區","LI":"民榮里","LIN":"2鄰","STREET":"復興路","SECT":" ","MAREA":" ","LANE":" ","ALLEY":" ","HOUSE_NO":"１３９號","E_COORD97":179310.09,"N_COORD97":2578024.4900000002,"ADDRESS":"復興路１３９號","OBJECTID":615009},"geometry":{"x":179310.09000000078,"y":2578024.4900000021}},{"attributes":{"ID":615037,"DIS_CODE":0,"TOWNNAME":"新營區","LI":"興業里","LIN":"2鄰","STREET":"新進路","SECT":" ","MAREA":" ","LANE":" ","ALLEY":" ","HOUSE_NO":"２５０號","E_COORD97":180182.01999999999,"N_COORD97":2577881.9199999999,"ADDRESS":"新進路２５０號","OBJECTID":615010},"geometry":{"x":180182.01999999955,"y":2577881.9200000018}},{"attributes":{"ID":615038,"DIS_CODE":0,"TOWNNAME":"新營區","LI":"忠政里","LIN":"2鄰","STREET":"中正路","SECT":" ","MAREA":" ","LANE":" ","ALLEY":" ","HOUSE_NO":"３３之７號","E_COORD97":180104.89999999999,"N_COORD97":2579046.2799999998,"ADDRESS":"中正路３３之７號","OBJECTID":615011},"geometry":{"x":180104.9000000013,"y":2579046.2799999993}},{"attributes":{"ID":615039,"DIS_CODE":0,"TOWNNAME":"新營區","LI":"新東里","LIN":"2鄰","STREET":"開元路","SECT":" ","MAREA":" ","LANE":" ","ALLEY":" ","HOUSE_NO":"１２９號","E_COORD97":181064.57999999999,"N_COORD97":2578953.1200000001,"ADDRESS":"開元路１２９號","OBJECTID":615012},"geometry":{"x":181064.58000000101,"y":2578953.1200000029}},{"attributes":{"ID":615040,"DIS_CODE":0,"TOWNNAME":"新營區","LI":"好平里","LIN":"2鄰","STREET":"新進路","SECT":"二段","MAREA":" ","LANE":" ","ALLEY":" ","HOUSE_NO":"４１號","E_COORD97":179655.31,"N_COORD97":2577731.5800000001,"ADDRESS":"新進路二段４１號","OBJECTID":615013},"geometry":{"x":179655.31000000052,"y":2577731.5800000019}},{"attributes":{"ID":615041,"DIS_CODE":0,"TOWNNAME":"新營區","LI":"新東里","LIN":"2鄰","STREET":"開元路","SECT":" ","MAREA":" ","LANE":" ","ALLEY":" ","HOUSE_NO":"１２７號","E_COORD97":181042.03,"N_COORD97":2578941.0499999998,"ADDRESS":"開元路１２７號","OBJECTID":615014},"geometry":{"x":181042.03000000026,"y":2578941.0500000007}},{"attributes":{"ID":615042,"DIS_CODE":0,"TOWNNAME":"新營區","LI":"民榮里","LIN":"2鄰","STREET":"復興路","SECT":" ","MAREA":" ","LANE":" ","ALLEY":" ","HOUSE_NO":"１４１號","E_COORD97":179290.64000000001,"N_COORD97":2578021.2599999998,"ADDRESS":"復興路１４１號","OBJECTID":615015},"geometry":{"x":179290.6400000006,"y":2578021.2600000016}},{"attributes":{"ID":615043,"DIS_CODE":0,"TOWNNAME":"新營區","LI":"忠政里","LIN":"2鄰","STREET":"中正路","SECT":" ","MAREA":" ","LANE":" ","ALLEY":" ","HOUSE_NO":"３３之６號","E_COORD97":180104.88,"N_COORD97":2579041.8500000001,"ADDRESS":"中正路３３之６號","OBJECTID":615016},"geometry":{"x":180104.88000000082,"y":2579041.8500000015}},{"attributes":{"ID":615044,"DIS_CODE":0,"TOWNNAME":"新營區","LI":"民榮里","LIN":"2鄰","STREET":"復興路","SECT":" ","MAREA":" ","LANE":" ","ALLEY":" ","HOUSE_NO":"１４３之１號","E_COORD97":179282.89999999999,"N_COORD97":2578019.1400000001,"ADDRESS":"復興路１４３之１號","OBJECTID":615017},"geometry":{"x":179282.9000000013,"y":2578019.1400000043}},{"attributes":{"ID":615045,"DIS_CODE":0,"TOWNNAME":"新營區","LI":"忠政里","LIN":"2鄰","STREET":"中正路","SECT":" ","MAREA":" ","LANE":" ","ALLEY":" ","HOUSE_NO":"３３之１５號","E_COORD97":180101.20999999999,"N_COORD97":2579083.9500000002,"ADDRESS":"中正路３３之１５號","OBJECTID":615018},"geometry":{"x":180101.20999999996,"y":2579083.950000003}},{"attributes":{"ID":615046,"DIS_CODE":0,"TOWNNAME":"新營區","LI":"忠政里","LIN":"2鄰","STREET":"中正路","SECT":" ","MAREA":" ","LANE":" ","ALLEY":" ","HOUSE_NO":"３３之１號","E_COORD97":180105.81,"N_COORD97":2579021.8999999999,"ADDRESS":"中正路３３之１號","OBJECTID":615019},"geometry":{"x":180105.80999999866,"y":2579021.9000000022}},{"attributes":{"ID":615047,"DIS_CODE":0,"TOWNNAME":"中西區","LI":"赤嵌里","LIN":"14鄰","STREET":"中成路","SECT":" ","MAREA":" ","LANE":" ","ALLEY":" ","HOUSE_NO":"６號","E_COORD97":168510.04999999999,"N_COORD97":2544107.02,"ADDRESS":"中成路６號","OBJECTID":615020},"geometry":{"x":168510.05000000075,"y":2544107.0199999996}},{"attributes":{"ID":615048,"DIS_CODE":0,"TOWNNAME":"中西區","LI":"赤嵌里","LIN":"14鄰","STREET":"民族路","SECT":"二段","MAREA":" ","LANE":" ","ALLEY":" ","HOUSE_NO":"１３０號","E_COORD97":168505.09,"N_COORD97":2544082.9199999999,"ADDRESS":"民族路二段１３０號","OBJECTID":615021},"geometry":{"x":168505.08999999985,"y":2544082.9200000018}},{"attributes":{"ID":615049,"DIS_CODE":0,"TOWNNAME":"中西區","LI":"赤嵌里","LIN":"14鄰","STREET":"觀亭街","SECT":" ","MAREA":" ","LANE":" ","ALLEY":" ","HOUSE_NO":"１１號","E_COORD97":168533.51000000001,"N_COORD97":2544089.8500000001,"ADDRESS":"觀亭街１１號","OBJECTID":615022},"geometry":{"x":168533.51000000164,"y":2544089.8500000015}},{"attributes":{"ID":615050,"DIS_CODE":0,"TOWNNAME":"中西區","LI":"赤嵌里","LIN":"14鄰","STREET":"觀亭街","SECT":" ","MAREA":" ","LANE":" ","ALLEY":" ","HOUSE_NO":"１５號","E_COORD97":168533.51000000001,"N_COORD97":2544093.8100000001,"ADDRESS":"觀亭街１５號","OBJECTID":615023},"geometry":{"x":168533.51000000164,"y":2544093.8100000042}},{"attributes":{"ID":615051,"DIS_CODE":0,"TOWNNAME":"中西區","LI":"赤嵌里","LIN":"14鄰","STREET":"觀亭街","SECT":" ","MAREA":" ","LANE":" ","ALLEY":" ","HOUSE_NO":"１７號","E_COORD97":168534.5,"N_COORD97":2544097.1099999999,"ADDRESS":"觀亭街１７號","OBJECTID":615024},"geometry":{"x":168534.50000000093,"y":2544097.1099999994}},{"attributes":{"ID":615052,"DIS_CODE":0,"TOWNNAME":"中西區","LI":"赤嵌里","LIN":"14鄰","STREET":"觀亭街","SECT":" ","MAREA":" ","LANE":" ","ALLEY":" ","HOUSE_NO":"１９號","E_COORD97":168535.82000000001,"N_COORD97":2544103.3900000001,"ADDRESS":"觀亭街１９號","OBJECTID":615025},"geometry":{"x":168535.82000000123,"y":2544103.3899999987}},{"attributes":{"ID":615053,"DIS_CODE":0,"TOWNNAME":"中西區","LI":"赤嵌里","LIN":"14鄰","STREET":"觀亭街","SECT":" ","MAREA":" ","LANE":" ","ALLEY":" ","HOUSE_NO":"２１號","E_COORD97":168535.82000000001,"N_COORD97":2544108.0099999998,"ADDRESS":"觀亭街２１號","OBJECTID":615026},"geometry":{"x":168535.82000000123,"y":2544108.0099999998}},{"attributes":{"ID":615054,"DIS_CODE":0,"TOWNNAME":"中西區","LI":"赤嵌里","LIN":"14鄰","STREET":"觀亭街","SECT":" ","MAREA":" ","LANE":" ","ALLEY":" ","HOUSE_NO":"２３號","E_COORD97":168535.82000000001,"N_COORD97":2544112.6299999999,"ADDRESS":"觀亭街２３號","OBJECTID":615027},"geometry":{"x":168535.82000000123,"y":2544112.629999999}},{"attributes":{"ID":615055,"DIS_CODE":0,"TOWNNAME":"中西區","LI":"赤嵌里","LIN":"14鄰","STREET":"觀亭街","SECT":" ","MAREA":" ","LANE":" ","ALLEY":" ","HOUSE_NO":"５號","E_COORD97":168530.87,"N_COORD97":2544079.29,"ADDRESS":"觀亭街５號","OBJECTID":615028},"geometry":{"x":168530.87000000011,"y":2544079.290000001}},{"attributes":{"ID":615056,"DIS_CODE":0,"TOWNNAME":"中西區","LI":"赤嵌里","LIN":"14鄰","STREET":"觀亭街","SECT":" ","MAREA":" ","LANE":" ","ALLEY":" ","HOUSE_NO":"９號","E_COORD97":168533.84,"N_COORD97":2544086.2200000002,"ADDRESS":"觀亭街９號","OBJECTID":615029},"geometry":{"x":168533.83999999985,"y":2544086.2200000007}},{"attributes":{"ID":615057,"DIS_CODE":0,"TOWNNAME":"新營區","LI":"忠政里","LIN":"2鄰","STREET":"中正路","SECT":" ","MAREA":" ","LANE":" ","ALLEY":" ","HOUSE_NO":"３３號之９","E_COORD97":180103.63,"N_COORD97":2579054.0299999998,"ADDRESS":"中正路３３號之９","OBJECTID":615030},"geometry":{"x":180103.62999999989,"y":2579054.0300000012}},{"attributes":{"ID":615058,"DIS_CODE":0,"TOWNNAME":"中西區","LI":"赤嵌里","LIN":"15鄰","STREET":"忠義路","SECT":"二段","MAREA":" ","LANE":" ","ALLEY":" ","HOUSE_NO":"１９４號","E_COORD97":168440.41,"N_COORD97":2544160.8399999999,"ADDRESS":"忠義路二段１９４號","OBJECTID":615031},"geometry":{"x":168440.41000000015,"y":2544160.8400000036}},{"attributes":{"ID":615059,"DIS_CODE":0,"TOWNNAME":"中西區","LI":"赤嵌里","LIN":"15鄰","STREET":"忠義路","SECT":"二段","MAREA":" ","LANE":" ","ALLEY":" ","HOUSE_NO":"１９６號","E_COORD97":168442,"N_COORD97":2544164.9300000002,"ADDRESS":"忠義路二段１９６號","OBJECTID":615032},"geometry":{"x":168442,"y":2544164.9300000016}},{"attributes":{"ID":615060,"DIS_CODE":0,"TOWNNAME":"中西區","LI":"赤嵌里","LIN":"15鄰","STREET":"忠義路","SECT":"二段","MAREA":" ","LANE":" ","ALLEY":" ","HOUSE_NO":"１９８號","E_COORD97":168444.73000000001,"N_COORD97":2544170.6099999999,"ADDRESS":"忠義路二段１９８號","OBJECTID":615033},"geometry":{"x":168444.73000000138,"y":2544170.6099999994}},{"attributes":{"ID":615061,"DIS_CODE":0,"TOWNNAME":"中西區","LI":"赤嵌里","LIN":"15鄰","STREET":"忠義路","SECT":"二段","MAREA":" ","LANE":" ","ALLEY":" ","HOUSE_NO":"２００號","E_COORD97":168445.19,"N_COORD97":2544175.6099999999,"ADDRESS":"忠義路二段２００號","OBJECTID":615034},"geometry":{"x":168445.19000000134,"y":2544175.6100000031}},{"attributes":{"ID":615062,"DIS_CODE":0,"TOWNNAME":"中西區","LI":"赤嵌里","LIN":"15鄰","STREET":"中成路","SECT":" ","MAREA":" ","LANE":" ","ALLEY":" ","HOUSE_NO":"１９號","E_COORD97":168489.32000000001,"N_COORD97":2544171.75,"ADDRESS":"中成路１９號","OBJECTID":615035},"geometry":{"x":168489.3200000003,"y":2544171.7500000037}},{"attributes":{"ID":615063,"DIS_CODE":0,"TOWNNAME":"中西區","LI":"赤嵌里","LIN":"16鄰","STREET":"中成路","SECT":" ","MAREA":" ","LANE":" ","ALLEY":" ","HOUSE_NO":"２１號","E_COORD97":168488.64000000001,"N_COORD97":2544187.6499999999,"ADDRESS":"中成路２１號","OBJECTID":615036},"geometry":{"x":168488.6400000006,"y":2544187.6500000022}},{"attributes":{"ID":615064,"DIS_CODE":0,"TOWNNAME":"中西區","LI":"赤嵌里","LIN":"16鄰","STREET":"中成路","SECT":" ","MAREA":" ","LANE":" ","ALLEY":" ","HOUSE_NO":"２３號","E_COORD97":168490.01000000001,"N_COORD97":2544191.29,"ADDRESS":"中成路２３號","OBJECTID":615037},"geometry":{"x":168490.01000000071,"y":2544191.290000001}},{"attributes":{"ID":615065,"DIS_CODE":0,"TOWNNAME":"中西區","LI":"赤嵌里","LIN":"16鄰","STREET":"中成路","SECT":" ","MAREA":" ","LANE":" ","ALLEY":" ","HOUSE_NO":"２５號","E_COORD97":168490.92000000001,"N_COORD97":2544194.9199999999,"ADDRESS":"中成路２５號","OBJECTID":615038},"geometry":{"x":168490.92000000086,"y":2544194.9200000018}},{"attributes":{"ID":615066,"DIS_CODE":0,"TOWNNAME":"中西區","LI":"赤嵌里","LIN":"16鄰","STREET":"中成路","SECT":" ","MAREA":" ","LANE":" ","ALLEY":" ","HOUSE_NO":"２７號","E_COORD97":168491.82999999999,"N_COORD97":2544197.6499999999,"ADDRESS":"中成路２７號","OBJECTID":615039},"geometry":{"x":168491.83000000007,"y":2544197.6500000022}},{"attributes":{"ID":615067,"DIS_CODE":0,"TOWNNAME":"新營區","LI":"民生里","LIN":"2鄰","STREET":"民生路","SECT":" ","MAREA":" ","LANE":" ","ALLEY":" ","HOUSE_NO":"８號","E_COORD97":179401.16,"N_COORD97":2578111.5299999998,"ADDRESS":"民生路８號","OBJECTID":615040},"geometry":{"x":179401.16000000108,"y":2578111.5300000012}},{"attributes":{"ID":615068,"DIS_CODE":0,"TOWNNAME":"中西區","LI":"赤嵌里","LIN":"15鄰","STREET":"忠義路","SECT":"二段","MAREA":" ","LANE":" ","ALLEY":" ","HOUSE_NO":"２０４號","E_COORD97":168447.45999999999,"N_COORD97":2544181.0699999998,"ADDRESS":"忠義路二段２０４號","OBJECTID":615041},"geometry":{"x":168447.46000000183,"y":2544181.0700000022}},{"attributes":{"ID":615069,"DIS_CODE":0,"TOWNNAME":"中西區","LI":"赤嵌里","LIN":"15鄰","STREET":"忠義路","SECT":"二段","MAREA":" ","LANE":" ","ALLEY":" ","HOUSE_NO":"２０６號","E_COORD97":168449.97,"N_COORD97":2544184.7000000002,"ADDRESS":"忠義路二段２０６號","OBJECTID":615042},"geometry":{"x":168449.96999999974,"y":2544184.6999999974}},{"attributes":{"ID":615070,"DIS_CODE":0,"TOWNNAME":"中西區","LI":"赤嵌里","LIN":"15鄰","STREET":"忠義路","SECT":"二段","MAREA":" ","LANE":" ","ALLEY":" ","HOUSE_NO":"２０８號","E_COORD97":168450.88,"N_COORD97":2544189.02,"ADDRESS":"忠義路二段２０８號","OBJECTID":615043},"geometry":{"x":168450.87999999989,"y":2544189.0199999996}},{"attributes":{"ID":615071,"DIS_CODE":0,"TOWNNAME":"中西區","LI":"赤嵌里","LIN":"16鄰","STREET":"中成路","SECT":" ","MAREA":" ","LANE":" ","ALLEY":" ","HOUSE_NO":"３１號","E_COORD97":168491.82999999999,"N_COORD97":2544205.8300000001,"ADDRESS":"中成路３１號","OBJECTID":615044},"geometry":{"x":168491.83000000007,"y":2544205.8300000019}},{"attributes":{"ID":615072,"DIS_CODE":0,"TOWNNAME":"東山區","LI":"東中里","LIN":"2鄰","STREET":"永福街","SECT":" ","MAREA":" ","LANE":" ","ALLEY":" ","HOUSE_NO":"１１號","E_COORD97":188853.29000000001,"N_COORD97":2580031.8900000001,"ADDRESS":"永福街１１號","OBJECTID":615045},"geometry":{"x":188853.29000000004,"y":2580031.8900000025}},{"attributes":{"ID":615073,"DIS_CODE":0,"TOWNNAME":"東山區","LI":"東中里","LIN":"2鄰","STREET":"永福街","SECT":" ","MAREA":" ","LANE":" ","ALLEY":" ","HOUSE_NO":"１３號","E_COORD97":188848.98000000001,"N_COORD97":2580032.4500000002,"ADDRESS":"永福街１３號","OBJECTID":615046},"geometry":{"x":188848.98000000045,"y":2580032.4499999993}},{"attributes":{"ID":615074,"DIS_CODE":0,"TOWNNAME":"東山區","LI":"東中里","LIN":"2鄰","STREET":"永福街","SECT":" ","MAREA":" ","LANE":" ","ALLEY":" ","HOUSE_NO":"１５號","E_COORD97":188844.67000000001,"N_COORD97":2580033,"ADDRESS":"永福街１５號","OBJECTID":615047},"geometry":{"x":188844.67000000086,"y":2580033}},{"attributes":{"ID":615075,"DIS_CODE":0,"TOWNNAME":"東山區","LI":"東中里","LIN":"2鄰","STREET":"永福街","SECT":" ","MAREA":" ","LANE":" ","ALLEY":" ","HOUSE_NO":"１７號","E_COORD97":188839.10000000001,"N_COORD97":2580033.9100000001,"ADDRESS":"永福街１７號","OBJECTID":615048},"geometry":{"x":188839.09999999963,"y":2580033.9100000001}},{"attributes":{"ID":615076,"DIS_CODE":0,"TOWNNAME":"東山區","LI":"東中里","LIN":"2鄰","STREET":"永福街","SECT":" ","MAREA":" ","LANE":" ","ALLEY":" ","HOUSE_NO":"１號","E_COORD97":188875.39999999999,"N_COORD97":2580029.7599999998,"ADDRESS":"永福街１號","OBJECTID":615049},"geometry":{"x":188875.40000000224,"y":2580029.7600000016}},{"attributes":{"ID":615077,"DIS_CODE":0,"TOWNNAME":"東山區","LI":"東中里","LIN":"2鄰","STREET":"永福街","SECT":" ","MAREA":" ","LANE":" ","ALLEY":" ","HOUSE_NO":"２號","E_COORD97":188845.67000000001,"N_COORD97":2580052.48,"ADDRESS":"永福街２號","OBJECTID":615050},"geometry":{"x":188845.66999999993,"y":2580052.4800000023}},{"attributes":{"ID":615078,"DIS_CODE":0,"TOWNNAME":"東山區","LI":"東中里","LIN":"2鄰","STREET":"永福街","SECT":" ","MAREA":" ","LANE":" ","ALLEY":" ","HOUSE_NO":"３號","E_COORD97":188870.51999999999,"N_COORD97":2580029.6600000001,"ADDRESS":"永福街３號","OBJECTID":615051},"geometry":{"x":188870.52000000048,"y":2580029.660000002}},{"attributes":{"ID":615079,"DIS_CODE":0,"TOWNNAME":"東山區","LI":"東中里","LIN":"2鄰","STREET":"永福街","SECT":" ","MAREA":" ","LANE":" ","ALLEY":" ","HOUSE_NO":"５號","E_COORD97":188866.22,"N_COORD97":2580030.2200000002,"ADDRESS":"永福街５號","OBJECTID":615052},"geometry":{"x":188866.22000000067,"y":2580030.2200000025}},{"attributes":{"ID":615080,"DIS_CODE":0,"TOWNNAME":"東山區","LI":"東中里","LIN":"2鄰","STREET":"永福街","SECT":" ","MAREA":" ","LANE":" ","ALLEY":" ","HOUSE_NO":"７號","E_COORD97":188861.91,"N_COORD97":2580030.77,"ADDRESS":"永福街７號","OBJECTID":615053},"geometry":{"x":188861.91000000108,"y":2580030.7699999996}},{"attributes":{"ID":615081,"DIS_CODE":0,"TOWNNAME":"東山區","LI":"東中里","LIN":"2鄰","STREET":"永福街","SECT":" ","MAREA":" ","LANE":" ","ALLEY":" ","HOUSE_NO":"９號","E_COORD97":188857.60000000001,"N_COORD97":2580031.3300000001,"ADDRESS":"永福街９號","OBJECTID":615054},"geometry":{"x":188857.59999999963,"y":2580031.3300000038}},{"attributes":{"ID":615082,"DIS_CODE":0,"TOWNNAME":"鹽水區","LI":"中境里","LIN":"2鄰","STREET":"三福路","SECT":" ","MAREA":" ","LANE":" ","ALLEY":" ","HOUSE_NO":"２９號","E_COORD97":174997.48000000001,"N_COORD97":2579994.77,"ADDRESS":"三福路２９號","OBJECTID":615055},"geometry":{"x":174997.48000000045,"y":2579994.7700000014}},{"attributes":{"ID":615083,"DIS_CODE":0,"TOWNNAME":"中西區","LI":"赤嵌里","LIN":"16鄰","STREET":"成功路","SECT":" ","MAREA":" ","LANE":" ","ALLEY":" ","HOUSE_NO":"２０５號之２","E_COORD97":168509.44,"N_COORD97":2544314.3199999998,"ADDRESS":"成功路２０５號之２","OBJECTID":615056},"geometry":{"x":168509.44000000134,"y":2544314.3200000022}},{"attributes":{"ID":615084,"DIS_CODE":0,"TOWNNAME":"中西區","LI":"赤嵌里","LIN":"16鄰","STREET":"成功路","SECT":" ","MAREA":" ","LANE":" ","ALLEY":" ","HOUSE_NO":"２０７號","E_COORD97":168501.75,"N_COORD97":2544316.0499999998,"ADDRESS":"成功路２０７號","OBJECTID":615057},"geometry":{"x":168501.75000000093,"y":2544316.0499999989}},{"attributes":{"ID":615085,"DIS_CODE":0,"TOWNNAME":"東山區","LI":"東中里","LIN":"2鄰","STREET":"民生街","SECT":" ","MAREA":" ","LANE":" ","ALLEY":" ","HOUSE_NO":"１２號","E_COORD97":188870.32999999999,"N_COORD97":2580071.1000000001,"ADDRESS":"民生街１２號","OBJECTID":615058},"geometry":{"x":188870.32999999914,"y":2580071.1000000015}},{"attributes":{"ID":615086,"DIS_CODE":0,"TOWNNAME":"東山區","LI":"東中里","LIN":"2鄰","STREET":"民生街","SECT":" ","MAREA":" ","LANE":" ","ALLEY":" ","HOUSE_NO":"１３號","E_COORD97":188896.45999999999,"N_COORD97":2580069.2599999998,"ADDRESS":"民生街１３號","OBJECTID":615059},"geometry":{"x":188896.45999999903,"y":2580069.2600000016}},{"attributes":{"ID":615087,"DIS_CODE":0,"TOWNNAME":"東山區","LI":"東中里","LIN":"2鄰","STREET":"民生街","SECT":" ","MAREA":" ","LANE":" ","ALLEY":" ","HOUSE_NO":"１５號","E_COORD97":188896.47,"N_COORD97":2580064.8999999999,"ADDRESS":"民生街１５號","OBJECTID":615060},"geometry":{"x":188896.47000000067,"y":2580064.8999999985}},{"attributes":{"ID":615088,"DIS_CODE":0,"TOWNNAME":"東山區","LI":"東中里","LIN":"2鄰","STREET":"民生街","SECT":" ","MAREA":" ","LANE":" ","ALLEY":" ","HOUSE_NO":"１６號","E_COORD97":188869.82999999999,"N_COORD97":2580067.3300000001,"ADDRESS":"民生街１６號","OBJECTID":615061},"geometry":{"x":188869.83000000007,"y":2580067.3300000001}},{"attributes":{"ID":615089,"DIS_CODE":0,"TOWNNAME":"東山區","LI":"東中里","LIN":"2鄰","STREET":"民生街","SECT":" ","MAREA":" ","LANE":" ","ALLEY":" ","HOUSE_NO":"１８號","E_COORD97":188869.70999999999,"N_COORD97":2580063.02,"ADDRESS":"民生街１８號","OBJECTID":615062},"geometry":{"x":188869.71000000089,"y":2580063.0199999996}},{"attributes":{"ID":615090,"DIS_CODE":0,"TOWNNAME":"東山區","LI":"東中里","LIN":"2鄰","STREET":"民生街","SECT":" ","MAREA":" ","LANE":" ","ALLEY":" ","HOUSE_NO":"１號","E_COORD97":188893.31,"N_COORD97":2580101.0299999998,"ADDRESS":"民生街１號","OBJECTID":615063},"geometry":{"x":188893.30999999959,"y":2580101.0300000012}},{"attributes":{"ID":615091,"DIS_CODE":0,"TOWNNAME":"東山區","LI":"東中里","LIN":"2鄰","STREET":"民生街","SECT":" ","MAREA":" ","LANE":" ","ALLEY":" ","HOUSE_NO":"２０號","E_COORD97":188869.56,"N_COORD97":2580058.5499999998,"ADDRESS":"民生街２０號","OBJECTID":615064},"geometry":{"x":188869.55999999959,"y":2580058.5500000026}},{"attributes":{"ID":615092,"DIS_CODE":0,"TOWNNAME":"東山區","LI":"東中里","LIN":"2鄰","STREET":"民生街","SECT":" ","MAREA":" ","LANE":" ","ALLEY":" ","HOUSE_NO":"２１號","E_COORD97":188893.97,"N_COORD97":2580052.0600000001,"ADDRESS":"民生街２１號","OBJECTID":615065},"geometry":{"x":188893.96999999974,"y":2580052.0600000024}},{"attributes":{"ID":615093,"DIS_CODE":0,"TOWNNAME":"東山區","LI":"東中里","LIN":"2鄰","STREET":"民生街","SECT":" ","MAREA":" ","LANE":" ","ALLEY":" ","HOUSE_NO":"２２號","E_COORD97":188869.20999999999,"N_COORD97":2580054.46,"ADDRESS":"民生街２２號","OBJECTID":615066},"geometry":{"x":188869.20999999996,"y":2580054.4600000009}},{"attributes":{"ID":615094,"DIS_CODE":0,"TOWNNAME":"東山區","LI":"東中里","LIN":"2鄰","STREET":"民生街","SECT":" ","MAREA":" ","LANE":" ","ALLEY":" ","HOUSE_NO":"２７號","E_COORD97":188891.38,"N_COORD97":2580039.9100000001,"ADDRESS":"民生街２７號","OBJECTID":615067},"geometry":{"x":188891.37999999989,"y":2580039.9100000001}},{"attributes":{"ID":615095,"DIS_CODE":0,"TOWNNAME":"中西區","LI":"仙草里","LIN":"15鄰","STREET":"永福路","SECT":"一段","MAREA":" ","LANE":" ","ALLEY":" ","HOUSE_NO":"１４９號","E_COORD97":167971.57999999999,"N_COORD97":2542944.4900000002,"ADDRESS":"永福路一段１４９號","OBJECTID":615068},"geometry":{"x":167971.58000000007,"y":2542944.4900000021}},{"attributes":{"ID":615096,"DIS_CODE":0,"TOWNNAME":"東山區","LI":"東中里","LIN":"2鄰","STREET":"民生街","SECT":" ","MAREA":" ","LANE":" ","ALLEY":" ","HOUSE_NO":"３５號","E_COORD97":188894.66,"N_COORD97":2580019.7999999998,"ADDRESS":"民生街３５號","OBJECTID":615069},"geometry":{"x":188894.66000000015,"y":2580019.8000000026}},{"attributes":{"ID":615097,"DIS_CODE":0,"TOWNNAME":"東山區","LI":"東中里","LIN":"2鄰","STREET":"民生街","SECT":" ","MAREA":" ","LANE":" ","ALLEY":" ","HOUSE_NO":"３９號","E_COORD97":188892.45999999999,"N_COORD97":2580006.1400000001,"ADDRESS":"民生街３９號","OBJECTID":615070},"geometry":{"x":188892.45999999996,"y":2580006.1400000043}},{"attributes":{"ID":615098,"DIS_CODE":0,"TOWNNAME":"東山區","LI":"東中里","LIN":"2鄰","STREET":"民生街","SECT":" ","MAREA":" ","LANE":" ","ALLEY":" ","HOUSE_NO":"５號","E_COORD97":188897.76999999999,"N_COORD97":2580086.0899999999,"ADDRESS":"民生街５號","OBJECTID":615071},"geometry":{"x":188897.77000000048,"y":2580086.0899999999}},{"attributes":{"ID":615099,"DIS_CODE":0,"TOWNNAME":"東山區","LI":"東中里","LIN":"2鄰","STREET":"民生街","SECT":" ","MAREA":" ","LANE":" ","ALLEY":" ","HOUSE_NO":"７號","E_COORD97":188897.64000000001,"N_COORD97":2580081.7999999998,"ADDRESS":"民生街７號","OBJECTID":615072},"geometry":{"x":188897.63999999966,"y":2580081.8000000007}},{"attributes":{"ID":615100,"DIS_CODE":0,"TOWNNAME":"東山區","LI":"東中里","LIN":"2鄰","STREET":"民生街","SECT":" ","MAREA":" ","LANE":" ","ALLEY":" ","HOUSE_NO":"８號","E_COORD97":188872.04000000001,"N_COORD97":2580077.6299999999,"ADDRESS":"民生街８號","OBJECTID":615073},"geometry":{"x":188872.04000000004,"y":2580077.629999999}},{"attributes":{"ID":615101,"DIS_CODE":0,"TOWNNAME":"中西區","LI":"五妃里","LIN":" ","STREET":"五妃街","SECT":" ","MAREA":" ","LANE":" ","ALLEY":" ","HOUSE_NO":"２０１號","E_COORD97":168500.60000000001,"N_COORD97":2542552.5099999998,"ADDRESS":"五妃街２０１號","OBJECTID":615074},"geometry":{"x":168500.60000000056,"y":2542552.5100000035}},{"attributes":{"ID":615102,"DIS_CODE":0,"TOWNNAME":"中西區","LI":"公正里","LIN":" ","STREET":"衛民街","SECT":" ","MAREA":" ","LANE":" ","ALLEY":" ","HOUSE_NO":"１０６號之３","E_COORD97":168922.73999999999,"N_COORD97":2543756.02,"ADDRESS":"衛民街１０６號之３","OBJECTID":615075},"geometry":{"x":168922.74000000115,"y":2543756.0200000033}},{"attributes":{"ID":615103,"DIS_CODE":0,"TOWNNAME":"中西區","LI":"青年里","LIN":"14鄰","STREET":"民權路","SECT":"一段","MAREA":" ","LANE":" ","ALLEY":" ","HOUSE_NO":"２４７號","E_COORD97":168702.39000000001,"N_COORD97":2543703,"ADDRESS":"民權路一段２４７號","OBJECTID":615076},"geometry":{"x":168702.3900000006,"y":2543703.0000000019}},{"attributes":{"ID":615104,"DIS_CODE":0,"TOWNNAME":"中西區","LI":"青年里","LIN":"8鄰","STREET":"民權路","SECT":"一段","MAREA":" ","LANE":" ","ALLEY":" ","HOUSE_NO":"２０６號","E_COORD97":168780.07999999999,"N_COORD97":2543641.5299999998,"ADDRESS":"民權路一段２０６號","OBJECTID":615077},"geometry":{"x":168780.08000000007,"y":2543641.5300000012}},{"attributes":{"ID":615105,"DIS_CODE":0,"TOWNNAME":"中西區","LI":"法華里","LIN":"15鄰","STREET":"法華街","SECT":" ","MAREA":" ","LANE":" ","ALLEY":" ","HOUSE_NO":"１０３號","E_COORD97":168994.45000000001,"N_COORD97":2542693.0699999998,"ADDRESS":"法華街１０３號","OBJECTID":615078},"geometry":{"x":168994.45000000112,"y":2542693.0700000022}},{"attributes":{"ID":615106,"DIS_CODE":0,"TOWNNAME":"中西區","LI":"法華里","LIN":" ","STREET":"府連路","SECT":" ","MAREA":" ","LANE":" ","ALLEY":" ","HOUSE_NO":"１０１號","E_COORD97":169019.03,"N_COORD97":2542677.6499999999,"ADDRESS":"府連路１０１號","OBJECTID":615079},"geometry":{"x":169019.03000000119,"y":2542677.6500000041}},{"attributes":{"ID":615107,"DIS_CODE":0,"TOWNNAME":"中西區","LI":"青年里","LIN":" ","STREET":"民權路","SECT":"一段","MAREA":" ","LANE":" ","ALLEY":" ","HOUSE_NO":"２４３號","E_COORD97":168707.76999999999,"N_COORD97":2543696.2200000002,"ADDRESS":"民權路一段２４３號","OBJECTID":615080},"geometry":{"x":168707.77000000142,"y":2543696.2200000025}},{"attributes":{"ID":615108,"DIS_CODE":0,"TOWNNAME":"中西區","LI":"青年里","LIN":" ","STREET":"民權路","SECT":"一段","MAREA":" ","LANE":" ","ALLEY":" ","HOUSE_NO":"２４９號","E_COORD97":168700.39999999999,"N_COORD97":2543706.2200000002,"ADDRESS":"民權路一段２４９號","OBJECTID":615081},"geometry":{"x":168700.40000000037,"y":2543706.2200000025}},{"attributes":{"ID":615109,"DIS_CODE":0,"TOWNNAME":"中西區","LI":"建國里","LIN":" ","STREET":"新美街","SECT":" ","MAREA":" ","LANE":" ","ALLEY":" ","HOUSE_NO":"２７號","E_COORD97":167996.76999999999,"N_COORD97":2543937.9900000002,"ADDRESS":"新美街２７號","OBJECTID":615082},"geometry":{"x":167996.76999999955,"y":2543937.9900000021}},{"attributes":{"ID":615110,"DIS_CODE":0,"TOWNNAME":"中西區","LI":"青年里","LIN":"1鄰","STREET":"興華街","SECT":" ","MAREA":" ","LANE":" ","ALLEY":" ","HOUSE_NO":"１２號","E_COORD97":169073.79999999999,"N_COORD97":2543619.5899999999,"ADDRESS":"興華街１２號","OBJECTID":615083},"geometry":{"x":169073.79999999888,"y":2543619.5899999999}},{"attributes":{"ID":615111,"DIS_CODE":0,"TOWNNAME":"中西區","LI":"青年里","LIN":"1鄰","STREET":"興華街","SECT":" ","MAREA":" ","LANE":" ","ALLEY":" ","HOUSE_NO":"１２之１號","E_COORD97":169081.42000000001,"N_COORD97":2543625.0499999998,"ADDRESS":"興華街１２之１號","OBJECTID":615084},"geometry":{"x":169081.41999999993,"y":2543625.0500000026}},{"attributes":{"ID":615112,"DIS_CODE":0,"TOWNNAME":"中西區","LI":"仙草里","LIN":"6鄰","STREET":"五妃街","SECT":" ","MAREA":" ","LANE":" ","ALLEY":" ","HOUSE_NO":"２５８號","E_COORD97":167932.23999999999,"N_COORD97":2542590.5499999998,"ADDRESS":"五妃街２５８號","OBJECTID":615085},"geometry":{"x":167932.24000000209,"y":2542590.5500000045}},{"attributes":{"ID":615113,"DIS_CODE":0,"TOWNNAME":"中西區","LI":"三合里","LIN":"10鄰","STREET":"金華路","SECT":"四段","MAREA":" ","LANE":" ","ALLEY":" ","HOUSE_NO":"１９８號","E_COORD97":167560.14999999999,"N_COORD97":2544572.5699999998,"ADDRESS":"金華路四段１９８號","OBJECTID":615086},"geometry":{"x":167560.15000000224,"y":2544572.5700000003}},{"attributes":{"ID":615114,"DIS_CODE":0,"TOWNNAME":"中西區","LI":"公正里","LIN":"9鄰","STREET":"萬昌街","SECT":" ","MAREA":" ","LANE":" ","ALLEY":" ","HOUSE_NO":"１３３號","E_COORD97":169067.31,"N_COORD97":2543780.4100000001,"ADDRESS":"萬昌街１３３號","OBJECTID":615087},"geometry":{"x":169067.31000000052,"y":2543780.4100000001}},{"attributes":{"ID":615115,"DIS_CODE":0,"TOWNNAME":"安南區","LI":"公\u25A0里","LIN":"3鄰","STREET":"安興街","SECT":" ","MAREA":" ","LANE":" ","ALLEY":" ","HOUSE_NO":"６９號","E_COORD97":164287.26999999999,"N_COORD97":2552219.1899999999,"ADDRESS":"安興街６９號","OBJECTID":615088},"geometry":{"x":164287.27000000048,"y":2552219.1899999995}},{"attributes":{"ID":615116,"DIS_CODE":0,"TOWNNAME":"北區","LI":"成德里","LIN":"2鄰","STREET":"西門路","SECT":"四段","MAREA":" ","LANE":" ","ALLEY":" ","HOUSE_NO":"１５號地下層之１","E_COORD97":168594.82000000001,"N_COORD97":2545252.8799999999,"ADDRESS":"西門路四段１５號地下層之１","OBJECTID":615089},"geometry":{"x":168594.82000000123,"y":2545252.8800000008}},{"attributes":{"ID":615117,"DIS_CODE":0,"TOWNNAME":"鹽水區","LI":"中境里","LIN":"2鄰","STREET":"三福路","SECT":" ","MAREA":" ","LANE":" ","ALLEY":" ","HOUSE_NO":"２３號","E_COORD97":175011.34,"N_COORD97":2579993.0600000001,"ADDRESS":"三福路２３號","OBJECTID":615090},"geometry":{"x":175011.33999999985,"y":2579993.0600000042}},{"attributes":{"ID":615118,"DIS_CODE":0,"TOWNNAME":"鹽水區","LI":"中境里","LIN":"2鄰","STREET":"三福路","SECT":" ","MAREA":" ","LANE":" ","ALLEY":" ","HOUSE_NO":"２５號","E_COORD97":175006.70999999999,"N_COORD97":2579993.8100000001,"ADDRESS":"三福路２５號","OBJECTID":615091},"geometry":{"x":175006.71000000089,"y":2579993.8100000005}},{"attributes":{"ID":615119,"DIS_CODE":0,"TOWNNAME":"鹽水區","LI":"中境里","LIN":"2鄰","STREET":"三福路","SECT":" ","MAREA":" ","LANE":" ","ALLEY":" ","HOUSE_NO":"２７號","E_COORD97":175002.20000000001,"N_COORD97":2579994.2999999998,"ADDRESS":"三福路２７號","OBJECTID":615092},"geometry":{"x":175002.20000000112,"y":2579994.3000000007}},{"attributes":{"ID":615120,"DIS_CODE":0,"TOWNNAME":"鹽水區","LI":"中境里","LIN":"2鄰","STREET":"三福路","SECT":" ","MAREA":" ","LANE":" ","ALLEY":" ","HOUSE_NO":"３１號","E_COORD97":174992.76000000001,"N_COORD97":2579995.23,"ADDRESS":"三福路３１號","OBJECTID":615093},"geometry":{"x":174992.76000000071,"y":2579995.2300000042}},{"attributes":{"ID":615121,"DIS_CODE":0,"TOWNNAME":"鹽水區","LI":"中境里","LIN":"2鄰","STREET":"三福路","SECT":" ","MAREA":" ","LANE":" ","ALLEY":" ","HOUSE_NO":"３３號","E_COORD97":174988.04000000001,"N_COORD97":2579995.7000000002,"ADDRESS":"三福路３３號","OBJECTID":615094},"geometry":{"x":174988.04000000004,"y":2579995.7000000011}},{"attributes":{"ID":615122,"DIS_CODE":0,"TOWNNAME":"鹽水區","LI":"中境里","LIN":"2鄰","STREET":"三福路","SECT":" ","MAREA":" ","LANE":" ","ALLEY":" ","HOUSE_NO":"３５號","E_COORD97":174983.32000000001,"N_COORD97":2579996.1600000001,"ADDRESS":"三福路３５號","OBJECTID":615095},"geometry":{"x":174983.3200000003,"y":2579996.160000002}},{"attributes":{"ID":615123,"DIS_CODE":0,"TOWNNAME":"鹽水區","LI":"中境里","LIN":"2鄰","STREET":"三福路","SECT":" ","MAREA":" ","LANE":" ","ALLEY":" ","HOUSE_NO":"３７號","E_COORD97":174978.60000000001,"N_COORD97":2579996.6299999999,"ADDRESS":"三福路３７號","OBJECTID":615096},"geometry":{"x":174978.59999999963,"y":2579996.629999999}},{"attributes":{"ID":615124,"DIS_CODE":0,"TOWNNAME":"鹽水區","LI":"中境里","LIN":"2鄰","STREET":"三福路","SECT":" ","MAREA":" ","LANE":" ","ALLEY":" ","HOUSE_NO":"３９號","E_COORD97":174973.88,"N_COORD97":2579997.0899999999,"ADDRESS":"三福路３９號","OBJECTID":615097},"geometry":{"x":174973.87999999989,"y":2579997.0900000017}},{"attributes":{"ID":615125,"DIS_CODE":0,"TOWNNAME":"鹽水區","LI":"中境里","LIN":"2鄰","STREET":"三福路","SECT":" ","MAREA":" ","LANE":" ","ALLEY":" ","HOUSE_NO":"４１號","E_COORD97":174969.16,"N_COORD97":2579997.5600000001,"ADDRESS":"三福路４１號","OBJECTID":615098},"geometry":{"x":174969.16000000015,"y":2579997.5600000024}},{"attributes":{"ID":615126,"DIS_CODE":0,"TOWNNAME":"鹽水區","LI":"中境里","LIN":"2鄰","STREET":"三福路","SECT":" ","MAREA":" ","LANE":" ","ALLEY":" ","HOUSE_NO":"４３號","E_COORD97":174964.44,"N_COORD97":2579998.02,"ADDRESS":"三福路４３號","OBJECTID":615099},"geometry":{"x":174964.44000000227,"y":2579998.0199999996}},{"attributes":{"ID":615127,"DIS_CODE":0,"TOWNNAME":"鹽水區","LI":"中境里","LIN":"2鄰","STREET":"三福路","SECT":" ","MAREA":" ","LANE":" ","ALLEY":" ","HOUSE_NO":"４５號","E_COORD97":174959.72,"N_COORD97":2579998.4900000002,"ADDRESS":"三福路４５號","OBJECTID":615100},"geometry":{"x":174959.71999999974,"y":2579998.4900000002}},{"attributes":{"ID":615128,"DIS_CODE":0,"TOWNNAME":"鹽水區","LI":"武廟里","LIN":"2鄰","STREET":"三福路","SECT":" ","MAREA":" ","LANE":" ","ALLEY":" ","HOUSE_NO":"４６號","E_COORD97":175009.95000000001,"N_COORD97":2580023.23,"ADDRESS":"三福路４６號","OBJECTID":615101},"geometry":{"x":175009.95000000205,"y":2580023.2300000023}},{"attributes":{"ID":615129,"DIS_CODE":0,"TOWNNAME":"鹽水區","LI":"武廟里","LIN":"2鄰","STREET":"三福路","SECT":" ","MAREA":" ","LANE":" ","ALLEY":" ","HOUSE_NO":"４８號","E_COORD97":175005.16,"N_COORD97":2580023.71,"ADDRESS":"三福路４８號","OBJECTID":615102},"geometry":{"x":175005.16000000108,"y":2580023.7100000028}},{"attributes":{"ID":615130,"DIS_CODE":0,"TOWNNAME":"鹽水區","LI":"武廟里","LIN":"2鄰","STREET":"三福路","SECT":" ","MAREA":" ","LANE":" ","ALLEY":" ","HOUSE_NO":"５０號","E_COORD97":175000.37,"N_COORD97":2580024.1899999999,"ADDRESS":"三福路５０號","OBJECTID":615103},"geometry":{"x":175000.37000000104,"y":2580024.1899999995}},{"attributes":{"ID":615131,"DIS_CODE":0,"TOWNNAME":"鹽水區","LI":"武廟里","LIN":"2鄰","STREET":"三福路","SECT":" ","MAREA":" ","LANE":" ","ALLEY":" ","HOUSE_NO":"５２號","E_COORD97":174995.57999999999,"N_COORD97":2580024.6800000002,"ADDRESS":"三福路５２號","OBJECTID":615104},"geometry":{"x":174995.58000000101,"y":2580024.6799999997}},{"attributes":{"ID":615132,"DIS_CODE":0,"TOWNNAME":"鹽水區","LI":"武廟里","LIN":"2鄰","STREET":"三福路","SECT":" ","MAREA":" ","LANE":" ","ALLEY":" ","HOUSE_NO":"５４號","E_COORD97":174986.14000000001,"N_COORD97":2580042.77,"ADDRESS":"三福路５４號","OBJECTID":615105},"geometry":{"x":174986.1400000006,"y":2580042.7700000014}},{"attributes":{"ID":615133,"DIS_CODE":0,"TOWNNAME":"中西區","LI":"仙草里","LIN":"6鄰","STREET":"五妃街","SECT":" ","MAREA":" ","LANE":" ","ALLEY":" ","HOUSE_NO":"２５８號之１","E_COORD97":167929.06,"N_COORD97":2542590.5499999998,"ADDRESS":"五妃街２５８號之１","OBJECTID":615106},"geometry":{"x":167929.05999999959,"y":2542590.5500000045}},{"attributes":{"ID":615134,"DIS_CODE":0,"TOWNNAME":"中西區","LI":"仙草里","LIN":"6鄰","STREET":"五妃街","SECT":" ","MAREA":" ","LANE":" ","ALLEY":" ","HOUSE_NO":"２５８號之２","E_COORD97":167923.98000000001,"N_COORD97":2542590.4300000002,"ADDRESS":"五妃街２５８號之２","OBJECTID":615107},"geometry":{"x":167923.98000000231,"y":2542590.4300000034}},{"attributes":{"ID":615135,"DIS_CODE":0,"TOWNNAME":"中西區","LI":"仙草里","LIN":"6鄰","STREET":"五妃街","SECT":" ","MAREA":" ","LANE":" ","ALLEY":" ","HOUSE_NO":"２６０號","E_COORD97":167918.01000000001,"N_COORD97":2542590.9399999999,"ADDRESS":"五妃街２６０號","OBJECTID":615108},"geometry":{"x":167918.01000000164,"y":2542590.9400000013}},{"attributes":{"ID":615136,"DIS_CODE":0,"TOWNNAME":"中西區","LI":"仙草里","LIN":"6鄰","STREET":"五妃街","SECT":" ","MAREA":" ","LANE":" ","ALLEY":" ","HOUSE_NO":"２６２號","E_COORD97":167912.29999999999,"N_COORD97":2542590.9399999999,"ADDRESS":"五妃街２６２號","OBJECTID":615109},"geometry":{"x":167912.29999999981,"y":2542590.9400000013}},{"attributes":{"ID":615137,"DIS_CODE":0,"TOWNNAME":"中西區","LI":"仙草里","LIN":"6鄰","STREET":"五妃街","SECT":" ","MAREA":" ","LANE":" ","ALLEY":" ","HOUSE_NO":"２６６號","E_COORD97":167907.73999999999,"N_COORD97":2542591.1800000002,"ADDRESS":"五妃街２６６號","OBJECTID":615110},"geometry":{"x":167907.74000000022,"y":2542591.1799999997}},{"attributes":{"ID":615138,"DIS_CODE":0,"TOWNNAME":"中西區","LI":"仙草里","LIN":"6鄰","STREET":"五妃街","SECT":" ","MAREA":" ","LANE":" ","ALLEY":" ","HOUSE_NO":"２６８號","E_COORD97":167903.54000000001,"N_COORD97":2542591.5699999998,"ADDRESS":"五妃街２６８號","OBJECTID":615111},"geometry":{"x":167903.54000000097,"y":2542591.5700000022}},{"attributes":{"ID":615139,"DIS_CODE":0,"TOWNNAME":"中西區","LI":"仙草里","LIN":"6鄰","STREET":"五妃街","SECT":" ","MAREA":" ","LANE":" ","ALLEY":" ","HOUSE_NO":"２７０號","E_COORD97":167899.73000000001,"N_COORD97":2542591.6899999999,"ADDRESS":"五妃街２７０號","OBJECTID":615112},"geometry":{"x":167899.73000000045,"y":2542591.6900000032}},{"attributes":{"ID":615140,"DIS_CODE":0,"TOWNNAME":"中西區","LI":"中正里","LIN":"3鄰","STREET":"正興街","SECT":" ","MAREA":" ","LANE":" ","ALLEY":" ","HOUSE_NO":"３號","E_COORD97":167852.35999999999,"N_COORD97":2543844.5899999999,"ADDRESS":"正興街３號","OBJECTID":615113},"geometry":{"x":167852.36000000127,"y":2543844.5900000017}},{"attributes":{"ID":615141,"DIS_CODE":0,"TOWNNAME":"鹽水區","LI":"水仙里","LIN":"2鄰","STREET":"中正路","SECT":" ","MAREA":" ","LANE":" ","ALLEY":" ","HOUSE_NO":"１０２號","E_COORD97":175081.28,"N_COORD97":2579800.1699999999,"ADDRESS":"中正路１０２號","OBJECTID":615114},"geometry":{"x":175081.28000000119,"y":2579800.1699999999}},{"attributes":{"ID":615142,"DIS_CODE":0,"TOWNNAME":"鹽水區","LI":"水仙里","LIN":"2鄰","STREET":"中正路","SECT":" ","MAREA":" ","LANE":" ","ALLEY":" ","HOUSE_NO":"１０４號","E_COORD97":175080.88,"N_COORD97":2579795.6400000001,"ADDRESS":"中正路１０４號","OBJECTID":615115},"geometry":{"x":175080.87999999989,"y":2579795.6399999987}},{"attributes":{"ID":615143,"DIS_CODE":0,"TOWNNAME":"鹽水區","LI":"水仙里","LIN":"2鄰","STREET":"中正路","SECT":" ","MAREA":" ","LANE":" ","ALLEY":" ","HOUSE_NO":"１０６號","E_COORD97":175080.48000000001,"N_COORD97":2579791.1099999999,"ADDRESS":"中正路１０６號","OBJECTID":615116},"geometry":{"x":175080.48000000045,"y":2579791.1099999975}},{"attributes":{"ID":615144,"DIS_CODE":0,"TOWNNAME":"鹽水區","LI":"水仙里","LIN":"2鄰","STREET":"中正路","SECT":" ","MAREA":" ","LANE":" ","ALLEY":" ","HOUSE_NO":"１０８號","E_COORD97":175080.07000000001,"N_COORD97":2579786.5699999998,"ADDRESS":"中正路１０８號","OBJECTID":615117},"geometry":{"x":175080.0700000003,"y":2579786.5700000022}},{"attributes":{"ID":615145,"DIS_CODE":0,"TOWNNAME":"鹽水區","LI":"水仙里","LIN":"2鄰","STREET":"中正路","SECT":" ","MAREA":" ","LANE":" ","ALLEY":" ","HOUSE_NO":"１１０號","E_COORD97":175079.67000000001,"N_COORD97":2579782.04,"ADDRESS":"中正路１１０號","OBJECTID":615118},"geometry":{"x":175079.67000000086,"y":2579782.040000001}},{"attributes":{"ID":615146,"DIS_CODE":0,"TOWNNAME":"鹽水區","LI":"水仙里","LIN":"2鄰","STREET":"中正路","SECT":" ","MAREA":" ","LANE":" ","ALLEY":" ","HOUSE_NO":"１１２號","E_COORD97":175079.26999999999,"N_COORD97":2579777.5099999998,"ADDRESS":"中正路１１２號","OBJECTID":615119},"geometry":{"x":175079.26999999955,"y":2579777.5099999998}},{"attributes":{"ID":615147,"DIS_CODE":0,"TOWNNAME":"鹽水區","LI":"水仙里","LIN":"2鄰","STREET":"中正路","SECT":" ","MAREA":" ","LANE":" ","ALLEY":" ","HOUSE_NO":"１１４號","E_COORD97":175078.85999999999,"N_COORD97":2579772.98,"ADDRESS":"中正路１１４號","OBJECTID":615120},"geometry":{"x":175078.86000000127,"y":2579772.9800000042}},{"attributes":{"ID":615148,"DIS_CODE":0,"TOWNNAME":"鹽水區","LI":"水仙里","LIN":"2鄰","STREET":"中正路","SECT":" ","MAREA":" ","LANE":" ","ALLEY":" ","HOUSE_NO":"１００號","E_COORD97":175081.69,"N_COORD97":2579804.7000000002,"ADDRESS":"中正路１００號","OBJECTID":615121},"geometry":{"x":175081.69000000134,"y":2579804.7000000011}},{"attributes":{"ID":615149,"DIS_CODE":0,"TOWNNAME":"鹽水區","LI":"水仙里","LIN":"2鄰","STREET":"中正路","SECT":" ","MAREA":" ","LANE":" ","ALLEY":" ","HOUSE_NO":"１１６號","E_COORD97":175078.45999999999,"N_COORD97":2579768.4500000002,"ADDRESS":"中正路１１６號","OBJECTID":615122},"geometry":{"x":175078.45999999996,"y":2579768.450000003}},{"attributes":{"ID":615150,"DIS_CODE":0,"TOWNNAME":"鹽水區","LI":"水仙里","LIN":"2鄰","STREET":"中正路","SECT":" ","MAREA":" ","LANE":" ","ALLEY":" ","HOUSE_NO":"８８號","E_COORD97":175084.57999999999,"N_COORD97":2579831.9300000002,"ADDRESS":"中正路８８號","OBJECTID":615123},"geometry":{"x":175084.58000000007,"y":2579831.9299999997}},{"attributes":{"ID":615151,"DIS_CODE":0,"TOWNNAME":"鹽水區","LI":"水仙里","LIN":"2鄰","STREET":"中正路","SECT":" ","MAREA":" ","LANE":" ","ALLEY":" ","HOUSE_NO":"９０號","E_COORD97":175083.70000000001,"N_COORD97":2579827.3500000001,"ADDRESS":"中正路９０號","OBJECTID":615124},"geometry":{"x":175083.70000000019,"y":2579827.3500000034}},{"attributes":{"ID":615152,"DIS_CODE":0,"TOWNNAME":"鹽水區","LI":"水仙里","LIN":"2鄰","STREET":"中正路","SECT":" ","MAREA":" ","LANE":" ","ALLEY":" ","HOUSE_NO":"９２號","E_COORD97":175083.29999999999,"N_COORD97":2579822.8199999998,"ADDRESS":"中正路９２號","OBJECTID":615125},"geometry":{"x":175083.29999999888,"y":2579822.8200000022}},{"attributes":{"ID":615153,"DIS_CODE":0,"TOWNNAME":"鹽水區","LI":"水仙里","LIN":"2鄰","STREET":"中正路","SECT":" ","MAREA":" ","LANE":" ","ALLEY":" ","HOUSE_NO":"９４號","E_COORD97":175082.89999999999,"N_COORD97":2579818.29,"ADDRESS":"中正路９４號","OBJECTID":615126},"geometry":{"x":175082.90000000037,"y":2579818.290000001}},{"attributes":{"ID":615154,"DIS_CODE":0,"TOWNNAME":"鹽水區","LI":"水仙里","LIN":"2鄰","STREET":"中正路","SECT":" ","MAREA":" ","LANE":" ","ALLEY":" ","HOUSE_NO":"９６號","E_COORD97":175082.48999999999,"N_COORD97":2579813.7599999998,"ADDRESS":"中正路９６號","OBJECTID":615127},"geometry":{"x":175082.49000000209,"y":2579813.7599999998}},{"attributes":{"ID":615155,"DIS_CODE":0,"TOWNNAME":"鹽水區","LI":"水仙里","LIN":"2鄰","STREET":"中正路","SECT":" ","MAREA":" ","LANE":" ","ALLEY":" ","HOUSE_NO":"９８號","E_COORD97":175082.09,"N_COORD97":2579809.23,"ADDRESS":"中正路９８號","OBJECTID":615128},"geometry":{"x":175082.09000000078,"y":2579809.2300000023}},{"attributes":{"ID":615156,"DIS_CODE":0,"TOWNNAME":"關廟區","LI":"北花里","LIN":"2鄰","STREET":"四維街","SECT":" ","MAREA":" ","LANE":" ","ALLEY":" ","HOUSE_NO":"３２３號","E_COORD97":181881.16,"N_COORD97":2540434.25,"ADDRESS":"四維街３２３號","OBJECTID":615129},"geometry":{"x":181881.16000000108,"y":2540434.25}},{"attributes":{"ID":615157,"DIS_CODE":0,"TOWNNAME":"關廟區","LI":"下湖里","LIN":"2鄰","STREET":"關新路","SECT":"一段","MAREA":" ","LANE":" ","ALLEY":" ","HOUSE_NO":"４０６號","E_COORD97":179333.39000000001,"N_COORD97":2542897.25,"ADDRESS":"關新路一段４０６號","OBJECTID":615130},"geometry":{"x":179333.38999999966,"y":2542897.2500000019}},{"attributes":{"ID":615158,"DIS_CODE":0,"TOWNNAME":"關廟區","LI":"北花里","LIN":"2鄰","STREET":"四維街","SECT":" ","MAREA":" ","LANE":" ","ALLEY":" ","HOUSE_NO":"３２５號","E_COORD97":181881.56,"N_COORD97":2540439.25,"ADDRESS":"四維街３２５號","OBJECTID":615131},"geometry":{"x":181881.56000000052,"y":2540439.2500000019}},{"attributes":{"ID":615159,"DIS_CODE":0,"TOWNNAME":"關廟區","LI":"北勢里","LIN":"2鄰","STREET":"北新街","SECT":" ","MAREA":" ","LANE":" ","ALLEY":" ","HOUSE_NO":"２０號","E_COORD97":181280.54000000001,"N_COORD97":2540302.25,"ADDRESS":"北新街２０號","OBJECTID":615132},"geometry":{"x":181280.54000000004,"y":2540302.25}},{"attributes":{"ID":615160,"DIS_CODE":0,"TOWNNAME":"關廟區","LI":"下湖里","LIN":"2鄰","STREET":"關新路","SECT":"一段","MAREA":" ","LANE":" ","ALLEY":" ","HOUSE_NO":"４０７號","E_COORD97":179283.69,"N_COORD97":2542907.2999999998,"ADDRESS":"關新路一段４０７號","OBJECTID":615133},"geometry":{"x":179283.69000000227,"y":2542907.2999999989}},{"attributes":{"ID":615161,"DIS_CODE":0,"TOWNNAME":"關廟區","LI":"田中里","LIN":"2鄰","STREET":"田大路","SECT":" ","MAREA":" ","LANE":" ","ALLEY":" ","HOUSE_NO":"１２０號","E_COORD97":184307.79000000001,"N_COORD97":2533742.25,"ADDRESS":"田大路１２０號","OBJECTID":615134},"geometry":{"x":184307.79000000097,"y":2533742.25}},{"attributes":{"ID":615162,"DIS_CODE":0,"TOWNNAME":"關廟區","LI":"山西里","LIN":"2鄰","STREET":"武聖路","SECT":" ","MAREA":" ","LANE":" ","ALLEY":" ","HOUSE_NO":"１０號","E_COORD97":180972.98999999999,"N_COORD97":2540197.25,"ADDRESS":"武聖路１０號","OBJECTID":615135},"geometry":{"x":180972.99000000022,"y":2540197.25}},{"attributes":{"ID":615163,"DIS_CODE":0,"TOWNNAME":"關廟區","LI":"下湖里","LIN":"2鄰","STREET":"下湖二街","SECT":" ","MAREA":" ","LANE":" ","ALLEY":" ","HOUSE_NO":"２５號","E_COORD97":179379.34,"N_COORD97":2542934.29,"ADDRESS":"下湖二街２５號","OBJECTID":615136},"geometry":{"x":179379.34000000078,"y":2542934.290000001}},{"attributes":{"ID":615164,"DIS_CODE":0,"TOWNNAME":"關廟區","LI":"田中里","LIN":"2鄰","STREET":"田大路","SECT":" ","MAREA":" ","LANE":" ","ALLEY":" ","HOUSE_NO":"１１２號","E_COORD97":184295.89000000001,"N_COORD97":2533747.25,"ADDRESS":"田大路１１２號","OBJECTID":615137},"geometry":{"x":184295.89000000153,"y":2533747.2500000019}},{"attributes":{"ID":615165,"DIS_CODE":0,"TOWNNAME":"關廟區","LI":"田中里","LIN":"2鄰","STREET":"田大路","SECT":" ","MAREA":" ","LANE":" ","ALLEY":" ","HOUSE_NO":"１１６號","E_COORD97":184300.09,"N_COORD97":2533745.25,"ADDRESS":"田大路１１６號","OBJECTID":615138},"geometry":{"x":184300.09000000078,"y":2533745.25}},{"attributes":{"ID":615166,"DIS_CODE":0,"TOWNNAME":"關廟區","LI":"山西里","LIN":"2鄰","STREET":"武聖路","SECT":" ","MAREA":" ","LANE":" ","ALLEY":" ","HOUSE_NO":"２８號","E_COORD97":180945.39000000001,"N_COORD97":2540200.25,"ADDRESS":"武聖路２８號","OBJECTID":615139},"geometry":{"x":180945.3900000006,"y":2540200.25}},{"attributes":{"ID":615167,"DIS_CODE":0,"TOWNNAME":"關廟區","LI":"山西里","LIN":"2鄰","STREET":"武聖路","SECT":" ","MAREA":" ","LANE":" ","ALLEY":" ","HOUSE_NO":"２６號","E_COORD97":180949.98999999999,"N_COORD97":2540199.25,"ADDRESS":"武聖路２６號","OBJECTID":615140},"geometry":{"x":180949.99000000115,"y":2540199.2500000019}},{"attributes":{"ID":615168,"DIS_CODE":0,"TOWNNAME":"關廟區","LI":"下湖里","LIN":"2鄰","STREET":"下湖二街","SECT":" ","MAREA":" ","LANE":" ","ALLEY":" ","HOUSE_NO":"６０號","E_COORD97":179389.73999999999,"N_COORD97":2542994.2999999998,"ADDRESS":"下湖二街６０號","OBJECTID":615141},"geometry":{"x":179389.74000000022,"y":2542994.3000000007}},{"attributes":{"ID":615169,"DIS_CODE":0,"TOWNNAME":"關廟區","LI":"北花里","LIN":"2鄰","STREET":"花園三街","SECT":" ","MAREA":" ","LANE":" ","ALLEY":" ","HOUSE_NO":"８０號","E_COORD97":181876.23999999999,"N_COORD97":2540468.25,"ADDRESS":"花園三街８０號","OBJECTID":615142},"geometry":{"x":181876.24000000022,"y":2540468.25}},{"attributes":{"ID":615170,"DIS_CODE":0,"TOWNNAME":"關廟區","LI":"北花里","LIN":"2鄰","STREET":"花園三街","SECT":" ","MAREA":" ","LANE":" ","ALLEY":" ","HOUSE_NO":"４９號","E_COORD97":181925.44,"N_COORD97":2540454.25,"ADDRESS":"花園三街４９號","OBJECTID":615143},"geometry":{"x":181925.44000000134,"y":2540454.25}},{"attributes":{"ID":615171,"DIS_CODE":0,"TOWNNAME":"關廟區","LI":"北花里","LIN":"2鄰","STREET":"花園三街","SECT":" ","MAREA":" ","LANE":" ","ALLEY":" ","HOUSE_NO":"６３號","E_COORD97":181875.54000000001,"N_COORD97":2540458.25,"ADDRESS":"花園三街６３號","OBJECTID":615144},"geometry":{"x":181875.54000000004,"y":2540458.25}},{"attributes":{"ID":615172,"DIS_CODE":0,"TOWNNAME":"關廟區","LI":"東勢里","LIN":"2鄰","STREET":"東興路","SECT":" ","MAREA":" ","LANE":" ","ALLEY":" ","HOUSE_NO":"１５３號","E_COORD97":181569.26999999999,"N_COORD97":2539571.25,"ADDRESS":"東興路１５３號","OBJECTID":615145},"geometry":{"x":181569.27000000048,"y":2539571.2500000037}},{"attributes":{"ID":615173,"DIS_CODE":0,"TOWNNAME":"關廟區","LI":"北花里","LIN":"2鄰","STREET":"花園三街","SECT":" ","MAREA":" ","LANE":" ","ALLEY":" ","HOUSE_NO":"５９號","E_COORD97":181903.94,"N_COORD97":2540459.25,"ADDRESS":"花園三街５９號","OBJECTID":615146},"geometry":{"x":181903.94000000041,"y":2540459.2500000037}},{"attributes":{"ID":615174,"DIS_CODE":0,"TOWNNAME":"關廟區","LI":"北花里","LIN":"2鄰","STREET":"中正路","SECT":" ","MAREA":" ","LANE":" ","ALLEY":" ","HOUSE_NO":"６４２號","E_COORD97":181842.06,"N_COORD97":2540403.25,"ADDRESS":"中正路６４２號","OBJECTID":615147},"geometry":{"x":181842.06000000052,"y":2540403.2500000019}},{"attributes":{"ID":615175,"DIS_CODE":0,"TOWNNAME":"關廟區","LI":"北勢里","LIN":"2鄰","STREET":"北新街","SECT":" ","MAREA":" ","LANE":" ","ALLEY":" ","HOUSE_NO":"１２號","E_COORD97":181276.64000000001,"N_COORD97":2540290.25,"ADDRESS":"北新街１２號","OBJECTID":615148},"geometry":{"x":181276.63999999966,"y":2540290.2500000019}},{"attributes":{"ID":615176,"DIS_CODE":0,"TOWNNAME":"關廟區","LI":"五甲里","LIN":"2鄰","STREET":"東安街","SECT":" ","MAREA":" ","LANE":" ","ALLEY":" ","HOUSE_NO":"２８２號","E_COORD97":181662.47,"N_COORD97":2539336.3199999998,"ADDRESS":"東安街２８２號","OBJECTID":615149},"geometry":{"x":181662.46999999974,"y":2539336.3200000003}},{"attributes":{"ID":615177,"DIS_CODE":0,"TOWNNAME":"關廟區","LI":"五甲里","LIN":"2鄰","STREET":"東安街","SECT":" ","MAREA":" ","LANE":" ","ALLEY":" ","HOUSE_NO":"２７２號","E_COORD97":181644.47,"N_COORD97":2539328.3199999998,"ADDRESS":"東安街２７２號","OBJECTID":615150},"geometry":{"x":181644.47000000067,"y":2539328.3200000022}},{"attributes":{"ID":615178,"DIS_CODE":0,"TOWNNAME":"關廟區","LI":"北花里","LIN":"2鄰","STREET":"中正路","SECT":" ","MAREA":" ","LANE":" ","ALLEY":" ","HOUSE_NO":"５９８號","E_COORD97":181951.45999999999,"N_COORD97":2540407.25,"ADDRESS":"中正路５９８號","OBJECTID":615151},"geometry":{"x":181951.46000000183,"y":2540407.25}},{"attributes":{"ID":615179,"DIS_CODE":0,"TOWNNAME":"關廟區","LI":"北勢里","LIN":"2鄰","STREET":"中正路","SECT":" ","MAREA":" ","LANE":" ","ALLEY":" ","HOUSE_NO":"８７２號","E_COORD97":181309.66,"N_COORD97":2540246.25,"ADDRESS":"中正路８７２號","OBJECTID":615152},"geometry":{"x":181309.66000000108,"y":2540246.2500000019}},{"attributes":{"ID":615180,"DIS_CODE":0,"TOWNNAME":"關廟區","LI":"北勢里","LIN":"2鄰","STREET":"仁愛路","SECT":" ","MAREA":" ","LANE":" ","ALLEY":" ","HOUSE_NO":"１１７號","E_COORD97":181343.59,"N_COORD97":2540320.2799999998,"ADDRESS":"仁愛路１１７號","OBJECTID":615153},"geometry":{"x":181343.59000000171,"y":2540320.2800000012}},{"attributes":{"ID":615181,"DIS_CODE":0,"TOWNNAME":"關廟區","LI":"北勢里","LIN":"2鄰","STREET":"仁愛路","SECT":" ","MAREA":" ","LANE":" ","ALLEY":" ","HOUSE_NO":"９３號","E_COORD97":181328.14000000001,"N_COORD97":2540274.2799999998,"ADDRESS":"仁愛路９３號","OBJECTID":615154},"geometry":{"x":181328.1400000006,"y":2540274.2799999993}},{"attributes":{"ID":615182,"DIS_CODE":0,"TOWNNAME":"關廟區","LI":"北勢里","LIN":"2鄰","STREET":"仁愛路","SECT":" ","MAREA":" ","LANE":" ","ALLEY":" ","HOUSE_NO":"１２９號","E_COORD97":181352.79000000001,"N_COORD97":2540341.2799999998,"ADDRESS":"仁愛路１２９號","OBJECTID":615155},"geometry":{"x":181352.79000000097,"y":2540341.2800000012}},{"attributes":{"ID":615183,"DIS_CODE":0,"TOWNNAME":"關廟區","LI":"北勢里","LIN":"2鄰","STREET":"仁愛路","SECT":" ","MAREA":" ","LANE":" ","ALLEY":" ","HOUSE_NO":"１２５號","E_COORD97":181350.09,"N_COORD97":2540332.2799999998,"ADDRESS":"仁愛路１２５號","OBJECTID":615156},"geometry":{"x":181350.08999999985,"y":2540332.2799999993}},{"attributes":{"ID":615184,"DIS_CODE":0,"TOWNNAME":"關廟區","LI":"北勢里","LIN":"2鄰","STREET":"仁愛路","SECT":" ","MAREA":" ","LANE":" ","ALLEY":" ","HOUSE_NO":"１２７號","E_COORD97":181350.89000000001,"N_COORD97":2540336.2799999998,"ADDRESS":"仁愛路１２７號","OBJECTID":615157},"geometry":{"x":181350.88999999966,"y":2540336.2800000031}},{"attributes":{"ID":615185,"DIS_CODE":0,"TOWNNAME":"關廟區","LI":"五甲里","LIN":"2鄰","STREET":"光復街","SECT":" ","MAREA":" ","LANE":" ","ALLEY":" ","HOUSE_NO":"９０號","E_COORD97":181519.59,"N_COORD97":2539328.2799999998,"ADDRESS":"光復街９０號","OBJECTID":615158},"geometry":{"x":181519.58999999985,"y":2539328.2799999993}},{"attributes":{"ID":615186,"DIS_CODE":0,"TOWNNAME":"關廟區","LI":"北勢里","LIN":"2鄰","STREET":"仁愛路","SECT":" ","MAREA":" ","LANE":" ","ALLEY":" ","HOUSE_NO":"８７號","E_COORD97":181323.14000000001,"N_COORD97":2540261.2799999998,"ADDRESS":"仁愛路８７號","OBJECTID":615159},"geometry":{"x":181323.1400000006,"y":2540261.2799999993}},{"attributes":{"ID":615187,"DIS_CODE":0,"TOWNNAME":"關廟區","LI":"北勢里","LIN":"2鄰","STREET":"仁愛路","SECT":" ","MAREA":" ","LANE":" ","ALLEY":" ","HOUSE_NO":"９７號","E_COORD97":181330.73999999999,"N_COORD97":2540282.2799999998,"ADDRESS":"仁愛路９７號","OBJECTID":615160},"geometry":{"x":181330.74000000022,"y":2540282.2800000031}},{"attributes":{"ID":615188,"DIS_CODE":0,"TOWNNAME":"關廟區","LI":"北勢里","LIN":"2鄰","STREET":"北新街","SECT":" ","MAREA":" ","LANE":" ","ALLEY":" ","HOUSE_NO":"１０號","E_COORD97":181275.54000000001,"N_COORD97":2540286.25,"ADDRESS":"北新街１０號","OBJECTID":615161},"geometry":{"x":181275.54000000004,"y":2540286.2500000037}},{"attributes":{"ID":615189,"DIS_CODE":0,"TOWNNAME":"關廟區","LI":"北勢里","LIN":"2鄰","STREET":"仁愛路","SECT":" ","MAREA":" ","LANE":" ","ALLEY":" ","HOUSE_NO":"８９號","E_COORD97":181324.64000000001,"N_COORD97":2540266.2799999998,"ADDRESS":"仁愛路８９號","OBJECTID":615162},"geometry":{"x":181324.6400000006,"y":2540266.2800000012}},{"attributes":{"ID":615190,"DIS_CODE":0,"TOWNNAME":"關廟區","LI":"北勢里","LIN":"2鄰","STREET":"北新街","SECT":" ","MAREA":" ","LANE":" ","ALLEY":" ","HOUSE_NO":"２６號","E_COORD97":181282.04000000001,"N_COORD97":2540310.25,"ADDRESS":"北新街２６號","OBJECTID":615163},"geometry":{"x":181282.04000000097,"y":2540310.2500000037}},{"attributes":{"ID":615191,"DIS_CODE":0,"TOWNNAME":"關廟區","LI":"北勢里","LIN":"2鄰","STREET":"仁愛路","SECT":" ","MAREA":" ","LANE":" ","ALLEY":" ","HOUSE_NO":"１１５號","E_COORD97":181341.59,"N_COORD97":2540315.2799999998,"ADDRESS":"仁愛路１１５號","OBJECTID":615164},"geometry":{"x":181341.58999999985,"y":2540315.2799999993}},{"attributes":{"ID":615192,"DIS_CODE":0,"TOWNNAME":"關廟區","LI":"北勢里","LIN":"2鄰","STREET":"中正路","SECT":" ","MAREA":" ","LANE":" ","ALLEY":" ","HOUSE_NO":"８７８號","E_COORD97":181300.85999999999,"N_COORD97":2540249.25,"ADDRESS":"中正路８７８號","OBJECTID":615165},"geometry":{"x":181300.86000000034,"y":2540249.2500000037}},{"attributes":{"ID":615193,"DIS_CODE":0,"TOWNNAME":"關廟區","LI":"新埔里","LIN":"2鄰","STREET":"新埔一街","SECT":" ","MAREA":" ","LANE":" ","ALLEY":" ","HOUSE_NO":"９１號","E_COORD97":181323.57000000001,"N_COORD97":2540935.25,"ADDRESS":"新埔一街９１號","OBJECTID":615166},"geometry":{"x":181323.5700000003,"y":2540935.2500000019}},{"attributes":{"ID":615194,"DIS_CODE":0,"TOWNNAME":"關廟區","LI":"南花里","LIN":"2鄰","STREET":"中山路","SECT":"一段","MAREA":" ","LANE":" ","ALLEY":" ","HOUSE_NO":"２１０號","E_COORD97":181919.03636200001,"N_COORD97":2539972.7685799999,"ADDRESS":"中山路一段２１０號","OBJECTID":615167},"geometry":{"x":181919.03636199981,"y":2539972.7685759999}},{"attributes":{"ID":615195,"DIS_CODE":0,"TOWNNAME":"關廟區","LI":"北勢里","LIN":"2鄰","STREET":"北新街","SECT":" ","MAREA":" ","LANE":" ","ALLEY":" ","HOUSE_NO":"８號","E_COORD97":181273.09,"N_COORD97":2540281.25,"ADDRESS":"北新街８號","OBJECTID":615168},"geometry":{"x":181273.09000000078,"y":2540281.2500000019}},{"attributes":{"ID":615196,"DIS_CODE":0,"TOWNNAME":"關廟區","LI":"東勢里","LIN":"2鄰","STREET":"光復街","SECT":" ","MAREA":" ","LANE":" ","ALLEY":" ","HOUSE_NO":"２０２號","E_COORD97":181502.84,"N_COORD97":2539680.2799999998,"ADDRESS":"光復街２０２號","OBJECTID":615169},"geometry":{"x":181502.84000000171,"y":2539680.2799999993}},{"attributes":{"ID":615197,"DIS_CODE":0,"TOWNNAME":"關廟區","LI":"松腳里","LIN":"2鄰","STREET":"松柏街","SECT":" ","MAREA":" ","LANE":" ","ALLEY":" ","HOUSE_NO":"４０號","E_COORD97":181931.82000000001,"N_COORD97":2539695.25,"ADDRESS":"松柏街４０號","OBJECTID":615170},"geometry":{"x":181931.8200000003,"y":2539695.25}},{"attributes":{"ID":615198,"DIS_CODE":0,"TOWNNAME":"關廟區","LI":"東勢里","LIN":"2鄰","STREET":"光復街","SECT":" ","MAREA":" ","LANE":" ","ALLEY":" ","HOUSE_NO":"１８８號","E_COORD97":181497.44,"N_COORD97":2539646.2799999998,"ADDRESS":"光復街１８８號","OBJECTID":615171},"geometry":{"x":181497.44000000041,"y":2539646.2800000012}},{"attributes":{"ID":615199,"DIS_CODE":0,"TOWNNAME":"中西區","LI":"西賢里","LIN":"7鄰","STREET":"西賢街","SECT":" ","MAREA":" ","LANE":" ","ALLEY":" ","HOUSE_NO":"２９８號","E_COORD97":165826.16,"N_COORD97":2545033.4900000002,"ADDRESS":"西賢街２９８號","OBJECTID":615172},"geometry":{"x":165826.16000000108,"y":2545033.4900000002}},{"attributes":{"ID":615200,"DIS_CODE":0,"TOWNNAME":"中西區","LI":"西賢里","LIN":"7鄰","STREET":"西賢街","SECT":" ","MAREA":" ","LANE":" ","ALLEY":" ","HOUSE_NO":"３００號","E_COORD97":165825.78,"N_COORD97":2545038.1800000002,"ADDRESS":"西賢街３００號","OBJECTID":615173},"geometry":{"x":165825.78000000026,"y":2545038.1799999997}},{"attributes":{"ID":615201,"DIS_CODE":0,"TOWNNAME":"中西區","LI":"西賢里","LIN":"7鄰","STREET":"西賢街","SECT":" ","MAREA":" ","LANE":" ","ALLEY":" ","HOUSE_NO":"３０２號","E_COORD97":165826.29000000001,"N_COORD97":2545043.77,"ADDRESS":"西賢街３０２號","OBJECTID":615174},"geometry":{"x":165826.2900000019,"y":2545043.7700000014}},{"attributes":{"ID":615202,"DIS_CODE":0,"TOWNNAME":"中西區","LI":"西賢里","LIN":"23鄰","STREET":"華平路","SECT":" ","MAREA":" ","LANE":" ","ALLEY":" ","HOUSE_NO":"７８８號","E_COORD97":165524.53,"N_COORD97":2544523.6400000001,"ADDRESS":"華平路７８８號","OBJECTID":615175},"geometry":{"x":165524.53000000026,"y":2544523.6400000025}},{"attributes":{"ID":615203,"DIS_CODE":0,"TOWNNAME":"中西區","LI":"西賢里","LIN":"23鄰","STREET":"華平路","SECT":" ","MAREA":" ","LANE":" ","ALLEY":" ","HOUSE_NO":"７８６號","E_COORD97":165524.03,"N_COORD97":2544518.1200000001,"ADDRESS":"華平路７８６號","OBJECTID":615176},"geometry":{"x":165524.03000000026,"y":2544518.120000001}},{"attributes":{"ID":615204,"DIS_CODE":0,"TOWNNAME":"中西區","LI":"西賢里","LIN":"23鄰","STREET":"華平路","SECT":" ","MAREA":" ","LANE":" ","ALLEY":" ","HOUSE_NO":"７８２號","E_COORD97":165524.28,"N_COORD97":2544514.6899999999,"ADDRESS":"華平路７８２號","OBJECTID":615177},"geometry":{"x":165524.28000000026,"y":2544514.6900000013}},{"attributes":{"ID":615205,"DIS_CODE":0,"TOWNNAME":"中西區","LI":"西賢里","LIN":"23鄰","STREET":"華平路","SECT":" ","MAREA":" ","LANE":" ","ALLEY":" ","HOUSE_NO":"７８０號","E_COORD97":165524.79000000001,"N_COORD97":2544509.6099999999,"ADDRESS":"華平路７８０號","OBJECTID":615178},"geometry":{"x":165524.79000000097,"y":2544509.6099999994}},{"attributes":{"ID":615206,"DIS_CODE":0,"TOWNNAME":"中西區","LI":"西賢里","LIN":"23鄰","STREET":"華平路","SECT":" ","MAREA":" ","LANE":" ","ALLEY":" ","HOUSE_NO":"７７８號","E_COORD97":165525.04000000001,"N_COORD97":2544505.6699999999,"ADDRESS":"華平路７７８號","OBJECTID":615179},"geometry":{"x":165525.04000000097,"y":2544505.6700000018}},{"attributes":{"ID":615207,"DIS_CODE":0,"TOWNNAME":"關廟區","LI":"松腳里","LIN":"2鄰","STREET":"松柏街","SECT":" ","MAREA":" ","LANE":" ","ALLEY":" ","HOUSE_NO":"３６號","E_COORD97":181939.12,"N_COORD97":2539696.25,"ADDRESS":"松柏街３６號","OBJECTID":615180},"geometry":{"x":181939.12000000104,"y":2539696.2499999981}},{"attributes":{"ID":615208,"DIS_CODE":0,"TOWNNAME":"關廟區","LI":"南花里","LIN":"2鄰","STREET":"中山路","SECT":"一段","MAREA":" ","LANE":" ","ALLEY":" ","HOUSE_NO":"２０８號","E_COORD97":181923.48712000001,"N_COORD97":2539973.5094099999,"ADDRESS":"中山路一段２０８號","OBJECTID":615181},"geometry":{"x":181923.48712000065,"y":2539973.5094090011}},{"attributes":{"ID":615209,"DIS_CODE":0,"TOWNNAME":"關廟區","LI":"松腳里","LIN":"2鄰","STREET":"松柏街","SECT":" ","MAREA":" ","LANE":" ","ALLEY":" ","HOUSE_NO":"３２號","E_COORD97":181947.22,"N_COORD97":2539693.25,"ADDRESS":"松柏街３２號","OBJECTID":615182},"geometry":{"x":181947.21999999974,"y":2539693.2500000037}},{"attributes":{"ID":615210,"DIS_CODE":0,"TOWNNAME":"關廟區","LI":"龜洞里","LIN":"2鄰","STREET":"長榮街","SECT":" ","MAREA":" ","LANE":" ","ALLEY":" ","HOUSE_NO":"２７號","E_COORD97":183330.44,"N_COORD97":2533763.25,"ADDRESS":"長榮街２７號","OBJECTID":615183},"geometry":{"x":183330.44000000134,"y":2533763.2500000037}},{"attributes":{"ID":615211,"DIS_CODE":0,"TOWNNAME":"關廟區","LI":"東勢里","LIN":"2鄰","STREET":"光復街","SECT":" ","MAREA":" ","LANE":" ","ALLEY":" ","HOUSE_NO":"１８６號","E_COORD97":181497.44,"N_COORD97":2539639.2799999998,"ADDRESS":"光復街１８６號","OBJECTID":615184},"geometry":{"x":181497.44000000041,"y":2539639.2800000012}},{"attributes":{"ID":615212,"DIS_CODE":0,"TOWNNAME":"關廟區","LI":"南花里","LIN":"2鄰","STREET":"中山路","SECT":"一段","MAREA":" ","LANE":" ","ALLEY":" ","HOUSE_NO":"２１２號","E_COORD97":181915.009487,"N_COORD97":2539971.18108,"ADDRESS":"中山路一段２１２號","OBJECTID":615185},"geometry":{"x":181915.00948700029,"y":2539971.1810770016}},{"attributes":{"ID":615213,"DIS_CODE":0,"TOWNNAME":"關廟區","LI":"田中里","LIN":"2鄰","STREET":"田大路","SECT":" ","MAREA":" ","LANE":" ","ALLEY":" ","HOUSE_NO":"５７號","E_COORD97":184201.09,"N_COORD97":2533848.2999999998,"ADDRESS":"田大路５７號","OBJECTID":615186},"geometry":{"x":184201.08999999985,"y":2533848.2999999989}},{"attributes":{"ID":615214,"DIS_CODE":0,"TOWNNAME":"關廟區","LI":"關廟里","LIN":"2鄰","STREET":"中山路","SECT":"二段","MAREA":" ","LANE":" ","ALLEY":" ","HOUSE_NO":"１３０號","E_COORD97":180920.26000000001,"N_COORD97":2540042.2799999998,"ADDRESS":"中山路二段１３０號","OBJECTID":615187},"geometry":{"x":180920.26000000164,"y":2540042.2800000012}},{"attributes":{"ID":615215,"DIS_CODE":0,"TOWNNAME":"關廟區","LI":"東勢里","LIN":"2鄰","STREET":"光復街","SECT":" ","MAREA":" ","LANE":" ","ALLEY":" ","HOUSE_NO":"１９６號","E_COORD97":181498.94,"N_COORD97":2539660.2799999998,"ADDRESS":"光復街１９６號","OBJECTID":615188},"geometry":{"x":181498.94000000041,"y":2539660.2799999993}},{"attributes":{"ID":615216,"DIS_CODE":0,"TOWNNAME":"關廟區","LI":"北勢里","LIN":"2鄰","STREET":"北新街","SECT":" ","MAREA":" ","LANE":" ","ALLEY":" ","HOUSE_NO":"２２號","E_COORD97":181281.64000000001,"N_COORD97":2540306.25,"ADDRESS":"北新街２２號","OBJECTID":615189},"geometry":{"x":181281.63999999966,"y":2540306.25}},{"attributes":{"ID":615217,"DIS_CODE":0,"TOWNNAME":"關廟區","LI":"北勢里","LIN":"2鄰","STREET":"仁愛路","SECT":" ","MAREA":" ","LANE":" ","ALLEY":" ","HOUSE_NO":"１０５號","E_COORD97":181338.19,"N_COORD97":2540298.2799999998,"ADDRESS":"仁愛路１０５號","OBJECTID":615190},"geometry":{"x":181338.18999999948,"y":2540298.2799999993}},{"attributes":{"ID":615218,"DIS_CODE":0,"TOWNNAME":"關廟區","LI":"東勢里","LIN":"2鄰","STREET":"光復街","SECT":" ","MAREA":" ","LANE":" ","ALLEY":" ","HOUSE_NO":"１７６號","E_COORD97":181505.84,"N_COORD97":2539591.2799999998,"ADDRESS":"光復街１７６號","OBJECTID":615191},"geometry":{"x":181505.83999999985,"y":2539591.2800000012}},{"attributes":{"ID":615219,"DIS_CODE":0,"TOWNNAME":"關廟區","LI":"龜洞里","LIN":"2鄰","STREET":"長榮街","SECT":" ","MAREA":" ","LANE":" ","ALLEY":" ","HOUSE_NO":"１５號","E_COORD97":183362.14000000001,"N_COORD97":2533757.2999999998,"ADDRESS":"長榮街１５號","OBJECTID":615192},"geometry":{"x":183362.1400000006,"y":2533757.3000000026}},{"attributes":{"ID":615220,"DIS_CODE":0,"TOWNNAME":"關廟區","LI":"北勢里","LIN":"2鄰","STREET":"仁愛路","SECT":" ","MAREA":" ","LANE":" ","ALLEY":" ","HOUSE_NO":"９５號","E_COORD97":181329.23999999999,"N_COORD97":2540279.2799999998,"ADDRESS":"仁愛路９５號","OBJECTID":615193},"geometry":{"x":181329.24000000209,"y":2540279.2800000012}},{"attributes":{"ID":615221,"DIS_CODE":0,"TOWNNAME":"關廟區","LI":"新埔里","LIN":"2鄰","STREET":"新埔一街","SECT":" ","MAREA":" ","LANE":" ","ALLEY":" ","HOUSE_NO":"９３號","E_COORD97":181327.76999999999,"N_COORD97":2540937.25,"ADDRESS":"新埔一街９３號","OBJECTID":615194},"geometry":{"x":181327.76999999955,"y":2540937.2500000037}},{"attributes":{"ID":615222,"DIS_CODE":0,"TOWNNAME":"關廟區","LI":"東勢里","LIN":"2鄰","STREET":"民權街","SECT":" ","MAREA":" ","LANE":" ","ALLEY":" ","HOUSE_NO":"７６號","E_COORD97":181512.64000000001,"N_COORD97":2539749.29,"ADDRESS":"民權街７６號","OBJECTID":615195},"geometry":{"x":181512.6400000006,"y":2539749.2899999972}},{"attributes":{"ID":615223,"DIS_CODE":0,"TOWNNAME":"關廟區","LI":"北勢里","LIN":"2鄰","STREET":"仁愛路","SECT":" ","MAREA":" ","LANE":" ","ALLEY":" ","HOUSE_NO":"１０３號","E_COORD97":181335.89000000001,"N_COORD97":2540292.2799999998,"ADDRESS":"仁愛路１０３號","OBJECTID":615196},"geometry":{"x":181335.88999999966,"y":2540292.2800000031}},{"attributes":{"ID":615224,"DIS_CODE":0,"TOWNNAME":"中西區","LI":"西賢里","LIN":"3鄰","STREET":"湖美街","SECT":" ","MAREA":" ","LANE":" ","ALLEY":" ","HOUSE_NO":"１０３之１號","E_COORD97":165922.70999999999,"N_COORD97":2544716.3999999999,"ADDRESS":"湖美街１０３之１號","OBJECTID":615197},"geometry":{"x":165922.70999999996,"y":2544716.4000000004}},{"attributes":{"ID":615225,"DIS_CODE":0,"TOWNNAME":"關廟區","LI":"香洋里","LIN":"2鄰","STREET":"中正路","SECT":" ","MAREA":" ","LANE":" ","ALLEY":" ","HOUSE_NO":"９５８號","E_COORD97":181130.35999999999,"N_COORD97":2540306.25,"ADDRESS":"中正路９５８號","OBJECTID":615198},"geometry":{"x":181130.3600000022,"y":2540306.25}},{"attributes":{"ID":615226,"DIS_CODE":0,"TOWNNAME":"關廟區","LI":"龜洞里","LIN":"2鄰","STREET":"長榮街","SECT":" ","MAREA":" ","LANE":" ","ALLEY":" ","HOUSE_NO":"６２號","E_COORD97":183262.14000000001,"N_COORD97":2533810.25,"ADDRESS":"長榮街６２號","OBJECTID":615199},"geometry":{"x":183262.1400000006,"y":2533810.25}},{"attributes":{"ID":615227,"DIS_CODE":0,"TOWNNAME":"關廟區","LI":"布袋里","LIN":"2鄰","STREET":"長裕街","SECT":" ","MAREA":" ","LANE":" ","ALLEY":" ","HOUSE_NO":"１３０號","E_COORD97":182323.23999999999,"N_COORD97":2535871.25,"ADDRESS":"長裕街１３０號","OBJECTID":615200},"geometry":{"x":182323.24000000115,"y":2535871.25}}]}