{"displayFieldName":"TOWNNAME","fieldAliases":{"ID":"ID","DIS_CODE":"DIS_CODE","TOWNNAME":"TOWNNAME","LI":"LI","LIN":"LIN","STREET":"STREET","SECT":"SECT","MAREA":"MAREA","LANE":"LANE","ALLEY":"ALLEY","HOUSE_NO":"HOUSE_NO","E_COORD97":"E_COORD97","N_COORD97":"N_COORD97","ADDRESS":"ADDRESS","OBJECTID":"OBJECTID"},"geometryType":"esriGeometryPoint","spatialReference":{"wkid":102443,"latestWkid":3826},"fields":[{"name":"ID","type":"esriFieldTypeDouble","alias":"ID"},{"name":"DIS_CODE","type":"esriFieldTypeInteger","alias":"DIS_CODE"},{"name":"TOWNNAME","type":"esriFieldTypeString","alias":"TOWNNAME","length":8},{"name":"LI","type":"esriFieldTypeString","alias":"LI","length":8},{"name":"LIN","type":"esriFieldTypeString","alias":"LIN","length":12},{"name":"STREET","type":"esriFieldTypeString","alias":"STREET","length":20},{"name":"SECT","type":"esriFieldTypeString","alias":"SECT","length":8},{"name":"MAREA","type":"esriFieldTypeString","alias":"MAREA","length":12},{"name":"LANE","type":"esriFieldTypeString","alias":"LANE","length":10},{"name":"ALLEY","type":"esriFieldTypeString","alias":"ALLEY","length":10},{"name":"HOUSE_NO","type":"esriFieldTypeString","alias":"HOUSE_NO","length":20},{"name":"E_COORD97","type":"esriFieldTypeDouble","alias":"E_COORD97"},{"name":"N_COORD97","type":"esriFieldTypeDouble","alias":"N_COORD97"},{"name":"ADDRESS","type":"esriFieldTypeString","alias":"ADDRESS","length":50},{"name":"OBJECTID","type":"esriFieldTypeOID","alias":"OBJECTID"}],"features":[{"attributes":{"ID":385625,"DIS_CODE":0,"TOWNNAME":"東區","LI":"崇善里","LIN":"9鄰","STREET":"仁和路","SECT":" ","MAREA":" ","LANE":"８０巷","ALLEY":" ","HOUSE_NO":"３號","E_COORD97":171137.91,"N_COORD97":2541694.2400000002,"ADDRESS":"仁和路８０巷３號","OBJECTID":385601},"geometry":{"x":171137.91000000015,"y":2541694.2400000021}},{"attributes":{"ID":385626,"DIS_CODE":0,"TOWNNAME":"東區","LI":"崇善里","LIN":"9鄰","STREET":"仁和路","SECT":" ","MAREA":" ","LANE":"８０巷","ALLEY":" ","HOUSE_NO":"５號","E_COORD97":171133.82000000001,"N_COORD97":2541692.2799999998,"ADDRESS":"仁和路８０巷５號","OBJECTID":385602},"geometry":{"x":171133.81999999937,"y":2541692.2799999975}},{"attributes":{"ID":385627,"DIS_CODE":0,"TOWNNAME":"東區","LI":"崇善里","LIN":"9鄰","STREET":"仁和路","SECT":" ","MAREA":" ","LANE":"８０巷","ALLEY":" ","HOUSE_NO":"６號","E_COORD97":171131.04000000001,"N_COORD97":2541709.1400000001,"ADDRESS":"仁和路８０巷６號","OBJECTID":385603},"geometry":{"x":171131.04000000097,"y":2541709.1400000025}},{"attributes":{"ID":385628,"DIS_CODE":0,"TOWNNAME":"東區","LI":"崇善里","LIN":"9鄰","STREET":"仁和路","SECT":" ","MAREA":" ","LANE":"８０巷","ALLEY":" ","HOUSE_NO":"７號","E_COORD97":171130.04999999999,"N_COORD97":2541689.6600000001,"ADDRESS":"仁和路８０巷７號","OBJECTID":385604},"geometry":{"x":171130.04999999981,"y":2541689.6600000001}},{"attributes":{"ID":385629,"DIS_CODE":0,"TOWNNAME":"東區","LI":"崇善里","LIN":"9鄰","STREET":"仁和路","SECT":" ","MAREA":" ","LANE":"８０巷","ALLEY":" ","HOUSE_NO":"８號","E_COORD97":171126.94,"N_COORD97":2541706.8500000001,"ADDRESS":"仁和路８０巷８號","OBJECTID":385605},"geometry":{"x":171126.94000000134,"y":2541706.8500000015}},{"attributes":{"ID":385630,"DIS_CODE":0,"TOWNNAME":"東區","LI":"崇善里","LIN":"9鄰","STREET":"仁和路","SECT":" ","MAREA":" ","LANE":"８２巷","ALLEY":" ","HOUSE_NO":"１０號","E_COORD97":171132.67000000001,"N_COORD97":2541671.1600000001,"ADDRESS":"仁和路８２巷１０號","OBJECTID":385606},"geometry":{"x":171132.66999999993,"y":2541671.160000002}},{"attributes":{"ID":385631,"DIS_CODE":0,"TOWNNAME":"東區","LI":"崇善里","LIN":"9鄰","STREET":"仁和路","SECT":" ","MAREA":" ","LANE":"８２巷","ALLEY":" ","HOUSE_NO":"１２號","E_COORD97":171127.76000000001,"N_COORD97":2541668.8599999999,"ADDRESS":"仁和路８２巷１２號","OBJECTID":385607},"geometry":{"x":171127.76000000071,"y":2541668.8600000013}},{"attributes":{"ID":385632,"DIS_CODE":0,"TOWNNAME":"東區","LI":"崇善里","LIN":"9鄰","STREET":"仁和路","SECT":" ","MAREA":" ","LANE":"８２巷","ALLEY":" ","HOUSE_NO":"１３號","E_COORD97":171132.35000000001,"N_COORD97":2541652.1600000001,"ADDRESS":"仁和路８２巷１３號","OBJECTID":385608},"geometry":{"x":171132.34999999963,"y":2541652.1600000001}},{"attributes":{"ID":385633,"DIS_CODE":0,"TOWNNAME":"東區","LI":"崇善里","LIN":"9鄰","STREET":"仁和路","SECT":" ","MAREA":" ","LANE":"８２巷","ALLEY":" ","HOUSE_NO":"１６號","E_COORD97":171124.16,"N_COORD97":2541666.4100000001,"ADDRESS":"仁和路８２巷１６號","OBJECTID":385609},"geometry":{"x":171124.16000000015,"y":2541666.410000002}},{"attributes":{"ID":385634,"DIS_CODE":0,"TOWNNAME":"東區","LI":"崇善里","LIN":"9鄰","STREET":"仁和路","SECT":" ","MAREA":" ","LANE":"８２巷","ALLEY":" ","HOUSE_NO":"１７號","E_COORD97":171123.82999999999,"N_COORD97":2541648.0699999998,"ADDRESS":"仁和路８２巷１７號","OBJECTID":385610},"geometry":{"x":171123.83000000101,"y":2541648.0700000022}},{"attributes":{"ID":385635,"DIS_CODE":0,"TOWNNAME":"東區","LI":"崇善里","LIN":"9鄰","STREET":"仁和路","SECT":" ","MAREA":" ","LANE":"８２巷","ALLEY":" ","HOUSE_NO":"１８號","E_COORD97":171119.89999999999,"N_COORD97":2541664.77,"ADDRESS":"仁和路８２巷１８號","OBJECTID":385611},"geometry":{"x":171119.90000000224,"y":2541664.7699999996}},{"attributes":{"ID":385636,"DIS_CODE":0,"TOWNNAME":"仁德區","LI":"太子里","LIN":"29鄰","STREET":"太子四街","SECT":" ","MAREA":" ","LANE":"３１巷","ALLEY":" ","HOUSE_NO":"１１號","E_COORD97":173135.65927100001,"N_COORD97":2543045.03015,"ADDRESS":"太子四街３１巷１１號","OBJECTID":385612},"geometry":{"x":173135.65927099995,"y":2543045.0301450025}},{"attributes":{"ID":385637,"DIS_CODE":0,"TOWNNAME":"東區","LI":"崇善里","LIN":"9鄰","STREET":"仁和路","SECT":" ","MAREA":" ","LANE":"８２巷","ALLEY":" ","HOUSE_NO":"１號","E_COORD97":171156.32000000001,"N_COORD97":2541665.8100000001,"ADDRESS":"仁和路８２巷１號","OBJECTID":385613},"geometry":{"x":171156.32000000123,"y":2541665.8100000005}},{"attributes":{"ID":385638,"DIS_CODE":0,"TOWNNAME":"東區","LI":"崇善里","LIN":"9鄰","STREET":"仁和路","SECT":" ","MAREA":" ","LANE":"８２巷","ALLEY":" ","HOUSE_NO":"２號","E_COORD97":171149.70000000001,"N_COORD97":2541678.3599999999,"ADDRESS":"仁和路８２巷２號","OBJECTID":385614},"geometry":{"x":171149.70000000019,"y":2541678.3600000031}},{"attributes":{"ID":385639,"DIS_CODE":0,"TOWNNAME":"東區","LI":"崇善里","LIN":"9鄰","STREET":"仁和路","SECT":" ","MAREA":" ","LANE":"８２巷","ALLEY":" ","HOUSE_NO":"３號","E_COORD97":171152.32000000001,"N_COORD97":2541663.46,"ADDRESS":"仁和路８２巷３號","OBJECTID":385615},"geometry":{"x":171152.3200000003,"y":2541663.4600000028}},{"attributes":{"ID":385640,"DIS_CODE":0,"TOWNNAME":"東區","LI":"崇善里","LIN":"9鄰","STREET":"仁和路","SECT":" ","MAREA":" ","LANE":"８２巷","ALLEY":" ","HOUSE_NO":"５號","E_COORD97":171148.88,"N_COORD97":2541660.6800000002,"ADDRESS":"仁和路８２巷５號","OBJECTID":385616},"geometry":{"x":171148.88000000082,"y":2541660.6800000016}},{"attributes":{"ID":385641,"DIS_CODE":0,"TOWNNAME":"東區","LI":"崇善里","LIN":"9鄰","STREET":"仁和路","SECT":" ","MAREA":" ","LANE":"８２巷","ALLEY":" ","HOUSE_NO":"６號","E_COORD97":171140.70000000001,"N_COORD97":2541674.7599999998,"ADDRESS":"仁和路８２巷６號","OBJECTID":385617},"geometry":{"x":171140.70000000019,"y":2541674.7599999998}},{"attributes":{"ID":385642,"DIS_CODE":0,"TOWNNAME":"東區","LI":"崇善里","LIN":"9鄰","STREET":"仁和路","SECT":" ","MAREA":" ","LANE":"８２巷","ALLEY":" ","HOUSE_NO":"７號","E_COORD97":171144.13,"N_COORD97":2541658.0600000001,"ADDRESS":"仁和路８２巷７號","OBJECTID":385618},"geometry":{"x":171144.13000000082,"y":2541658.0600000042}},{"attributes":{"ID":385643,"DIS_CODE":0,"TOWNNAME":"東區","LI":"崇善里","LIN":"9鄰","STREET":"仁和路","SECT":" ","MAREA":" ","LANE":"８２巷","ALLEY":" ","HOUSE_NO":"８號","E_COORD97":171137.09,"N_COORD97":2541673.9399999999,"ADDRESS":"仁和路８２巷８號","OBJECTID":385619},"geometry":{"x":171137.09000000078,"y":2541673.9399999995}},{"attributes":{"ID":385644,"DIS_CODE":0,"TOWNNAME":"東區","LI":"崇善里","LIN":"9鄰","STREET":"仁和路","SECT":" ","MAREA":" ","LANE":"８２巷","ALLEY":" ","HOUSE_NO":"９號","E_COORD97":171140.04000000001,"N_COORD97":2541656.0899999999,"ADDRESS":"仁和路８２巷９號","OBJECTID":385620},"geometry":{"x":171140.04000000004,"y":2541656.0899999999}},{"attributes":{"ID":385645,"DIS_CODE":0,"TOWNNAME":"東區","LI":"崇善里","LIN":"9鄰","STREET":"崇善五街","SECT":" ","MAREA":" ","LANE":"７巷","ALLEY":" ","HOUSE_NO":"１６號","E_COORD97":171088.91,"N_COORD97":2541641.54,"ADDRESS":"崇善五街７巷１６號","OBJECTID":385621},"geometry":{"x":171088.91000000015,"y":2541641.5399999991}},{"attributes":{"ID":385646,"DIS_CODE":0,"TOWNNAME":"東區","LI":"崇善里","LIN":"9鄰","STREET":"崇善五街","SECT":" ","MAREA":" ","LANE":"７巷","ALLEY":" ","HOUSE_NO":"１０號","E_COORD97":171070.81,"N_COORD97":2541631.3900000001,"ADDRESS":"崇善五街７巷１０號","OBJECTID":385622},"geometry":{"x":171070.81000000052,"y":2541631.3900000006}},{"attributes":{"ID":385647,"DIS_CODE":0,"TOWNNAME":"南區","LI":"日新里","LIN":"9鄰","STREET":"利南街","SECT":" ","MAREA":" ","LANE":"１４８巷","ALLEY":" ","HOUSE_NO":"２０號","E_COORD97":166938.97,"N_COORD97":2541594.1400000001,"ADDRESS":"利南街１４８巷２０號","OBJECTID":385623},"geometry":{"x":166938.97000000067,"y":2541594.1400000025}},{"attributes":{"ID":385648,"DIS_CODE":0,"TOWNNAME":"南區","LI":"明興里","LIN":"9鄰","STREET":"金華路","SECT":"一段","MAREA":" ","LANE":"１１６巷","ALLEY":" ","HOUSE_NO":"１號","E_COORD97":166941.39999999999,"N_COORD97":2540548.6499999999,"ADDRESS":"金華路一段１１６巷１號","OBJECTID":385624},"geometry":{"x":166941.40000000224,"y":2540548.6500000041}},{"attributes":{"ID":385649,"DIS_CODE":0,"TOWNNAME":"南區","LI":"府南里","LIN":"9鄰","STREET":"金華路","SECT":"一段","MAREA":" ","LANE":"４８４巷","ALLEY":" ","HOUSE_NO":"１９９號","E_COORD97":167382.20999999999,"N_COORD97":2541188.1299999999,"ADDRESS":"金華路一段４８４巷１９９號","OBJECTID":385625},"geometry":{"x":167382.20999999996,"y":2541188.1300000027}},{"attributes":{"ID":385650,"DIS_CODE":0,"TOWNNAME":"南區","LI":"府南里","LIN":"9鄰","STREET":"金華路","SECT":"一段","MAREA":" ","LANE":"４８４巷","ALLEY":" ","HOUSE_NO":"２０１號","E_COORD97":167384.26999999999,"N_COORD97":2541183.21,"ADDRESS":"金華路一段４８４巷２０１號","OBJECTID":385626},"geometry":{"x":167384.27000000048,"y":2541183.2100000028}},{"attributes":{"ID":385651,"DIS_CODE":0,"TOWNNAME":"南區","LI":"府南里","LIN":"9鄰","STREET":"金華路","SECT":"一段","MAREA":" ","LANE":"４８４巷","ALLEY":" ","HOUSE_NO":"２０３號","E_COORD97":167386.64999999999,"N_COORD97":2541177.8100000001,"ADDRESS":"金華路一段４８４巷２０３號","OBJECTID":385627},"geometry":{"x":167386.65000000037,"y":2541177.8100000005}},{"attributes":{"ID":385652,"DIS_CODE":0,"TOWNNAME":"南區","LI":"府南里","LIN":"9鄰","STREET":"金華路","SECT":"一段","MAREA":" ","LANE":"４８４巷","ALLEY":" ","HOUSE_NO":"２０５號","E_COORD97":167391.89000000001,"N_COORD97":2541173.52,"ADDRESS":"金華路一段４８４巷２０５號","OBJECTID":385628},"geometry":{"x":167391.8900000006,"y":2541173.5200000014}},{"attributes":{"ID":385653,"DIS_CODE":0,"TOWNNAME":"南區","LI":"府南里","LIN":"9鄰","STREET":"金華路","SECT":"一段","MAREA":" ","LANE":"４８４巷","ALLEY":" ","HOUSE_NO":"２０７號","E_COORD97":167395.23000000001,"N_COORD97":2541168.1299999999,"ADDRESS":"金華路一段４８４巷２０７號","OBJECTID":385629},"geometry":{"x":167395.23000000231,"y":2541168.1300000008}},{"attributes":{"ID":385654,"DIS_CODE":0,"TOWNNAME":"南區","LI":"府南里","LIN":"9鄰","STREET":"金華路","SECT":"一段","MAREA":" ","LANE":"４８４巷","ALLEY":" ","HOUSE_NO":"２０９號","E_COORD97":167398.56,"N_COORD97":2541163.0499999998,"ADDRESS":"金華路一段４８４巷２０９號","OBJECTID":385630},"geometry":{"x":167398.55999999959,"y":2541163.0499999989}},{"attributes":{"ID":385655,"DIS_CODE":0,"TOWNNAME":"南區","LI":"府南里","LIN":"9鄰","STREET":"金華路","SECT":"一段","MAREA":" ","LANE":"４８４巷","ALLEY":" ","HOUSE_NO":"２１１號","E_COORD97":167401.42000000001,"N_COORD97":2541158.1200000001,"ADDRESS":"金華路一段４８４巷２１１號","OBJECTID":385631},"geometry":{"x":167401.41999999993,"y":2541158.120000001}},{"attributes":{"ID":385656,"DIS_CODE":0,"TOWNNAME":"永康區","LI":"勝利里","LIN":"9鄰","STREET":"勝利街","SECT":" ","MAREA":" ","LANE":"５１巷","ALLEY":" ","HOUSE_NO":"１號","E_COORD97":171313.38,"N_COORD97":2544660.0099999998,"ADDRESS":"勝利街５１巷１號","OBJECTID":385632},"geometry":{"x":171313.38000000082,"y":2544660.0099999998}},{"attributes":{"ID":385657,"DIS_CODE":0,"TOWNNAME":"南區","LI":"府南里","LIN":"9鄰","STREET":"金華路","SECT":"一段","MAREA":" ","LANE":"４８４巷","ALLEY":" ","HOUSE_NO":"２１３號","E_COORD97":167404.42999999999,"N_COORD97":2541154.4700000002,"ADDRESS":"金華路一段４８４巷２１３號","OBJECTID":385633},"geometry":{"x":167404.4299999997,"y":2541154.4700000025}},{"attributes":{"ID":385658,"DIS_CODE":0,"TOWNNAME":"南區","LI":"府南里","LIN":"9鄰","STREET":"金華路","SECT":"一段","MAREA":" ","LANE":"４８４巷","ALLEY":" ","HOUSE_NO":"２１５號","E_COORD97":167406.66,"N_COORD97":2541152.0899999999,"ADDRESS":"金華路一段４８４巷２１５號","OBJECTID":385634},"geometry":{"x":167406.66000000015,"y":2541152.0900000036}},{"attributes":{"ID":385659,"DIS_CODE":0,"TOWNNAME":"安南區","LI":"淵西里","LIN":"9鄰","STREET":"安中路","SECT":"四段","MAREA":" ","LANE":"２９０巷","ALLEY":" ","HOUSE_NO":"６１號","E_COORD97":164663.01000000001,"N_COORD97":2550255.6699999999,"ADDRESS":"安中路四段２９０巷６１號","OBJECTID":385635},"geometry":{"x":164663.00999999978,"y":2550255.6700000018}},{"attributes":{"ID":385660,"DIS_CODE":0,"TOWNNAME":"安南區","LI":"淵西里","LIN":"9鄰","STREET":"安中路","SECT":"四段","MAREA":" ","LANE":"２９０巷","ALLEY":" ","HOUSE_NO":"６１號之２","E_COORD97":164661.20000000001,"N_COORD97":2550275.6499999999,"ADDRESS":"安中路四段２９０巷６１號之２","OBJECTID":385636},"geometry":{"x":164661.20000000112,"y":2550275.6500000041}},{"attributes":{"ID":385661,"DIS_CODE":0,"TOWNNAME":"安南區","LI":"淵西里","LIN":"9鄰","STREET":"安中路","SECT":"四段","MAREA":" ","LANE":"２９０巷","ALLEY":" ","HOUSE_NO":"６１號之３","E_COORD97":164659.38,"N_COORD97":2550280.1899999999,"ADDRESS":"安中路四段２９０巷６１號之３","OBJECTID":385637},"geometry":{"x":164659.38000000082,"y":2550280.1899999995}},{"attributes":{"ID":385662,"DIS_CODE":0,"TOWNNAME":"安南區","LI":"淵西里","LIN":"9鄰","STREET":"安中路","SECT":"四段","MAREA":" ","LANE":"３０６巷","ALLEY":" ","HOUSE_NO":"６６號","E_COORD97":164648.47,"N_COORD97":2550291.54,"ADDRESS":"安中路四段３０６巷６６號","OBJECTID":385638},"geometry":{"x":164648.47000000067,"y":2550291.5399999991}},{"attributes":{"ID":385663,"DIS_CODE":0,"TOWNNAME":"安南區","LI":"淵西里","LIN":"9鄰","STREET":"安中路","SECT":"四段","MAREA":" ","LANE":"３０６巷","ALLEY":" ","HOUSE_NO":"６８號","E_COORD97":164653.47,"N_COORD97":2550293.5800000001,"ADDRESS":"安中路四段３０６巷６８號","OBJECTID":385639},"geometry":{"x":164653.47000000067,"y":2550293.5800000019}},{"attributes":{"ID":385664,"DIS_CODE":0,"TOWNNAME":"安南區","LI":"淵西里","LIN":"9鄰","STREET":"安中路","SECT":"四段","MAREA":" ","LANE":"３０６巷","ALLEY":" ","HOUSE_NO":"７２號","E_COORD97":164661.88,"N_COORD97":2550295.6299999999,"ADDRESS":"安中路四段３０６巷７２號","OBJECTID":385640},"geometry":{"x":164661.87999999989,"y":2550295.6300000008}},{"attributes":{"ID":385665,"DIS_CODE":0,"TOWNNAME":"善化區","LI":"光文里","LIN":"9鄰","STREET":"成功路","SECT":" ","MAREA":" ","LANE":"２６６巷","ALLEY":" ","HOUSE_NO":"１４號","E_COORD97":179177.64999999999,"N_COORD97":2558901.25,"ADDRESS":"成功路２６６巷１４號","OBJECTID":385641},"geometry":{"x":179177.6500000013,"y":2558901.25}},{"attributes":{"ID":385666,"DIS_CODE":0,"TOWNNAME":"善化區","LI":"南關里","LIN":"9鄰","STREET":"三民路","SECT":" ","MAREA":" ","LANE":"４５巷","ALLEY":" ","HOUSE_NO":"１號","E_COORD97":177068.45999999999,"N_COORD97":2558974.7599999998,"ADDRESS":"三民路４５巷１號","OBJECTID":385642},"geometry":{"x":177068.45999999996,"y":2558974.7600000016}},{"attributes":{"ID":385667,"DIS_CODE":0,"TOWNNAME":"善化區","LI":"文正里","LIN":"9鄰","STREET":"文正路","SECT":" ","MAREA":" ","LANE":"２５巷","ALLEY":" ","HOUSE_NO":"１１號","E_COORD97":176959.75,"N_COORD97":2559366.77,"ADDRESS":"文正路２５巷１１號","OBJECTID":385643},"geometry":{"x":176959.75,"y":2559366.7700000033}},{"attributes":{"ID":385668,"DIS_CODE":0,"TOWNNAME":"善化區","LI":"文正里","LIN":"9鄰","STREET":"文正路","SECT":" ","MAREA":" ","LANE":"２５巷","ALLEY":" ","HOUSE_NO":"１３號之１","E_COORD97":176962.95000000001,"N_COORD97":2559339.0299999998,"ADDRESS":"文正路２５巷１３號之１","OBJECTID":385644},"geometry":{"x":176962.95000000112,"y":2559339.0300000012}},{"attributes":{"ID":385669,"DIS_CODE":0,"TOWNNAME":"永康區","LI":"\u25A0行里","LIN":"13鄰","STREET":"中正南路","SECT":" ","MAREA":" ","LANE":" ","ALLEY":" ","HOUSE_NO":"７７２號","E_COORD97":171780.48000000001,"N_COORD97":2548997.5,"ADDRESS":"中正南路７７２號","OBJECTID":385645},"geometry":{"x":171780.47999999952,"y":2548997.5}},{"attributes":{"ID":385670,"DIS_CODE":0,"TOWNNAME":"安平區","LI":"平安里","LIN":"9鄰","STREET":"安平路","SECT":" ","MAREA":" ","LANE":"４２６巷","ALLEY":" ","HOUSE_NO":"３６號之１","E_COORD97":165370.53607199999,"N_COORD97":2544410.77336,"ADDRESS":"安平路４２６巷３６號之１","OBJECTID":385646},"geometry":{"x":165370.53607199993,"y":2544410.7733610012}},{"attributes":{"ID":385671,"DIS_CODE":0,"TOWNNAME":"善化區","LI":"文正里","LIN":"9鄰","STREET":"文正路","SECT":" ","MAREA":" ","LANE":"２５巷","ALLEY":" ","HOUSE_NO":"１３號","E_COORD97":176961.64999999999,"N_COORD97":2559343.2799999998,"ADDRESS":"文正路２５巷１３號","OBJECTID":385647},"geometry":{"x":176961.65000000224,"y":2559343.2800000012}},{"attributes":{"ID":385672,"DIS_CODE":0,"TOWNNAME":"善化區","LI":"文正里","LIN":"9鄰","STREET":"文正路","SECT":" ","MAREA":" ","LANE":"２５巷","ALLEY":" ","HOUSE_NO":"１２號","E_COORD97":176987.14999999999,"N_COORD97":2559352.0299999998,"ADDRESS":"文正路２５巷１２號","OBJECTID":385648},"geometry":{"x":176987.1500000013,"y":2559352.0300000012}},{"attributes":{"ID":385673,"DIS_CODE":0,"TOWNNAME":"善化區","LI":"文正里","LIN":"9鄰","STREET":"文正路","SECT":" ","MAREA":" ","LANE":"２５巷","ALLEY":" ","HOUSE_NO":"１３號之９","E_COORD97":176964.95000000001,"N_COORD97":2559302.0299999998,"ADDRESS":"文正路２５巷１３號之９","OBJECTID":385649},"geometry":{"x":176964.95000000112,"y":2559302.0300000012}},{"attributes":{"ID":385674,"DIS_CODE":0,"TOWNNAME":"善化區","LI":"文正里","LIN":"9鄰","STREET":"文正路","SECT":" ","MAREA":" ","LANE":"２５巷","ALLEY":" ","HOUSE_NO":"１３號之５","E_COORD97":176963.29000000001,"N_COORD97":2559322.2799999998,"ADDRESS":"文正路２５巷１３號之５","OBJECTID":385650},"geometry":{"x":176963.29000000004,"y":2559322.2799999975}},{"attributes":{"ID":385675,"DIS_CODE":0,"TOWNNAME":"善化區","LI":"文正里","LIN":"9鄰","STREET":"文正路","SECT":" ","MAREA":" ","LANE":"２５巷","ALLEY":" ","HOUSE_NO":"１３號之１１","E_COORD97":176965,"N_COORD97":2559293.0299999998,"ADDRESS":"文正路２５巷１３號之１１","OBJECTID":385651},"geometry":{"x":176965,"y":2559293.0299999993}},{"attributes":{"ID":385676,"DIS_CODE":0,"TOWNNAME":"善化區","LI":"文正里","LIN":"9鄰","STREET":"文正路","SECT":" ","MAREA":" ","LANE":"２５巷","ALLEY":" ","HOUSE_NO":"１３之４號","E_COORD97":176963.39999999999,"N_COORD97":2559326.2799999998,"ADDRESS":"文正路２５巷１３之４號","OBJECTID":385652},"geometry":{"x":176963.4000000013,"y":2559326.2800000012}},{"attributes":{"ID":385677,"DIS_CODE":0,"TOWNNAME":"善化區","LI":"文正里","LIN":"9鄰","STREET":"文正路","SECT":" ","MAREA":" ","LANE":"７９巷","ALLEY":" ","HOUSE_NO":"１９號","E_COORD97":177000.81,"N_COORD97":2559362.0299999998,"ADDRESS":"文正路７９巷１９號","OBJECTID":385653},"geometry":{"x":177000.81000000052,"y":2559362.0300000012}},{"attributes":{"ID":385678,"DIS_CODE":0,"TOWNNAME":"善化區","LI":"文正里","LIN":"9鄰","STREET":"文正路","SECT":" ","MAREA":" ","LANE":"２５巷","ALLEY":" ","HOUSE_NO":"１３號之１０","E_COORD97":176965.10999999999,"N_COORD97":2559297.2799999998,"ADDRESS":"文正路２５巷１３號之１０","OBJECTID":385654},"geometry":{"x":176965.1100000022,"y":2559297.2799999993}},{"attributes":{"ID":385679,"DIS_CODE":0,"TOWNNAME":"善化區","LI":"文正里","LIN":"9鄰","STREET":"文正路","SECT":" ","MAREA":" ","LANE":"２５巷","ALLEY":" ","HOUSE_NO":"１３號之８","E_COORD97":176964.31,"N_COORD97":2559306.5299999998,"ADDRESS":"文正路２５巷１３號之８","OBJECTID":385655},"geometry":{"x":176964.30999999959,"y":2559306.5299999993}},{"attributes":{"ID":385680,"DIS_CODE":0,"TOWNNAME":"善化區","LI":"文正里","LIN":"9鄰","STREET":"文正路","SECT":" ","MAREA":" ","LANE":"２５巷","ALLEY":" ","HOUSE_NO":"１３號之２","E_COORD97":176963.10000000001,"N_COORD97":2559334.7799999998,"ADDRESS":"文正路２５巷１３號之２","OBJECTID":385656},"geometry":{"x":176963.10000000056,"y":2559334.7799999993}},{"attributes":{"ID":385681,"DIS_CODE":0,"TOWNNAME":"善化區","LI":"文正里","LIN":"9鄰","STREET":"文正路","SECT":" ","MAREA":" ","LANE":"２５巷","ALLEY":" ","HOUSE_NO":"１９號","E_COORD97":176960.85999999999,"N_COORD97":2559360.0299999998,"ADDRESS":"文正路２５巷１９號","OBJECTID":385657},"geometry":{"x":176960.86000000127,"y":2559360.0299999993}},{"attributes":{"ID":385682,"DIS_CODE":0,"TOWNNAME":"善化區","LI":"北關里","LIN":"9鄰","STREET":"博愛路","SECT":" ","MAREA":" ","LANE":"３５巷","ALLEY":" ","HOUSE_NO":"３號","E_COORD97":177177.70000000001,"N_COORD97":2559185.5099999998,"ADDRESS":"博愛路３５巷３號","OBJECTID":385658},"geometry":{"x":177177.70000000019,"y":2559185.5099999979}},{"attributes":{"ID":385683,"DIS_CODE":0,"TOWNNAME":"安南區","LI":"安順里","LIN":"9鄰","STREET":"安和路","SECT":"四段","MAREA":" ","LANE":"１０１巷","ALLEY":" ","HOUSE_NO":"３號之１","E_COORD97":169896.54999999999,"N_COORD97":2550341.9700000002,"ADDRESS":"安和路四段１０１巷３號之１","OBJECTID":385659},"geometry":{"x":169896.55000000075,"y":2550341.9700000025}},{"attributes":{"ID":385684,"DIS_CODE":0,"TOWNNAME":"安南區","LI":"淵西里","LIN":"9鄰","STREET":"安中路","SECT":"四段","MAREA":" ","LANE":"３０６巷","ALLEY":" ","HOUSE_NO":"４７號","E_COORD97":164582.10000000001,"N_COORD97":2550302.21,"ADDRESS":"安中路四段３０６巷４７號","OBJECTID":385660},"geometry":{"x":164582.09999999963,"y":2550302.2100000009}},{"attributes":{"ID":385685,"DIS_CODE":0,"TOWNNAME":"安南區","LI":"淵西里","LIN":"9鄰","STREET":"安中路","SECT":"四段","MAREA":" ","LANE":"３０６巷","ALLEY":" ","HOUSE_NO":"４９號","E_COORD97":164586.42000000001,"N_COORD97":2550303.7999999998,"ADDRESS":"安中路四段３０６巷４９號","OBJECTID":385661},"geometry":{"x":164586.42000000086,"y":2550303.8000000007}},{"attributes":{"ID":385686,"DIS_CODE":0,"TOWNNAME":"安南區","LI":"淵西里","LIN":"9鄰","STREET":"安中路","SECT":"四段","MAREA":" ","LANE":"３０６巷","ALLEY":" ","HOUSE_NO":"５１號","E_COORD97":164590.95999999999,"N_COORD97":2550305.8399999999,"ADDRESS":"安中路四段３０６巷５１號","OBJECTID":385662},"geometry":{"x":164590.96000000183,"y":2550305.8400000017}},{"attributes":{"ID":385687,"DIS_CODE":0,"TOWNNAME":"安南區","LI":"淵西里","LIN":"9鄰","STREET":"安中路","SECT":"四段","MAREA":" ","LANE":"３０６巷","ALLEY":" ","HOUSE_NO":"５３號","E_COORD97":164596.42000000001,"N_COORD97":2550306.98,"ADDRESS":"安中路四段３０６巷５３號","OBJECTID":385663},"geometry":{"x":164596.42000000086,"y":2550306.9799999986}},{"attributes":{"ID":385688,"DIS_CODE":0,"TOWNNAME":"中西區","LI":"開山里","LIN":"9鄰","STREET":"府前路","SECT":"一段","MAREA":" ","LANE":"４９巷","ALLEY":" ","HOUSE_NO":"１１號","E_COORD97":169024.41,"N_COORD97":2543210.3399999999,"ADDRESS":"府前路一段４９巷１１號","OBJECTID":385664},"geometry":{"x":169024.41000000201,"y":2543210.3399999999}},{"attributes":{"ID":385689,"DIS_CODE":0,"TOWNNAME":"中西區","LI":"開山里","LIN":"9鄰","STREET":"府前路","SECT":"一段","MAREA":" ","LANE":"４９巷","ALLEY":" ","HOUSE_NO":"１６號","E_COORD97":169012.22,"N_COORD97":2543213.1899999999,"ADDRESS":"府前路一段４９巷１６號","OBJECTID":385665},"geometry":{"x":169012.22000000067,"y":2543213.1900000013}},{"attributes":{"ID":385690,"DIS_CODE":0,"TOWNNAME":"中西區","LI":"開山里","LIN":"9鄰","STREET":"府前路","SECT":"一段","MAREA":" ","LANE":"４９巷","ALLEY":" ","HOUSE_NO":"１８號","E_COORD97":169008.20999999999,"N_COORD97":2543215.9399999999,"ADDRESS":"府前路一段４９巷１８號","OBJECTID":385666},"geometry":{"x":169008.20999999996,"y":2543215.9399999995}},{"attributes":{"ID":385691,"DIS_CODE":0,"TOWNNAME":"中西區","LI":"開山里","LIN":"9鄰","STREET":"府前路","SECT":"一段","MAREA":" ","LANE":"４９巷","ALLEY":" ","HOUSE_NO":"７號","E_COORD97":169030.78,"N_COORD97":2543224.0600000001,"ADDRESS":"府前路一段４９巷７號","OBJECTID":385667},"geometry":{"x":169030.78000000119,"y":2543224.0599999987}},{"attributes":{"ID":385692,"DIS_CODE":0,"TOWNNAME":"中西區","LI":"開山里","LIN":"9鄰","STREET":"府前路","SECT":"一段","MAREA":" ","LANE":"４９巷","ALLEY":" ","HOUSE_NO":"９號","E_COORD97":169027.29000000001,"N_COORD97":2543216.9500000002,"ADDRESS":"府前路一段４９巷９號","OBJECTID":385668},"geometry":{"x":169027.29000000097,"y":2543216.950000003}},{"attributes":{"ID":385693,"DIS_CODE":0,"TOWNNAME":"中西區","LI":"開山里","LIN":"9鄰","STREET":"府前路","SECT":"一段","MAREA":" ","LANE":"６１巷","ALLEY":" ","HOUSE_NO":"１５號","E_COORD97":169003.07000000001,"N_COORD97":2543223.3199999998,"ADDRESS":"府前路一段６１巷１５號","OBJECTID":385669},"geometry":{"x":169003.07000000216,"y":2543223.3200000022}},{"attributes":{"ID":385694,"DIS_CODE":0,"TOWNNAME":"中西區","LI":"開山里","LIN":"9鄰","STREET":"府前路","SECT":"一段","MAREA":" ","LANE":"６１巷","ALLEY":" ","HOUSE_NO":"１７號","E_COORD97":168999.69,"N_COORD97":2543218.9399999999,"ADDRESS":"府前路一段６１巷１７號","OBJECTID":385670},"geometry":{"x":168999.69000000134,"y":2543218.9399999995}},{"attributes":{"ID":385695,"DIS_CODE":0,"TOWNNAME":"中西區","LI":"開山里","LIN":"9鄰","STREET":"府前路","SECT":"一段","MAREA":" ","LANE":"８５巷","ALLEY":" ","HOUSE_NO":"２１號","E_COORD97":168941.44,"N_COORD97":2543194.9300000002,"ADDRESS":"府前路一段８５巷２１號","OBJECTID":385671},"geometry":{"x":168941.44000000227,"y":2543194.9300000016}},{"attributes":{"ID":385696,"DIS_CODE":0,"TOWNNAME":"中西區","LI":"開山里","LIN":"9鄰","STREET":"府前路","SECT":"一段","MAREA":" ","LANE":"８５巷","ALLEY":" ","HOUSE_NO":"２３號","E_COORD97":168945.47,"N_COORD97":2543190.0600000001,"ADDRESS":"府前路一段８５巷２３號","OBJECTID":385672},"geometry":{"x":168945.46999999881,"y":2543190.0600000005}},{"attributes":{"ID":385697,"DIS_CODE":0,"TOWNNAME":"中西區","LI":"開山里","LIN":"9鄰","STREET":"府前路","SECT":"一段","MAREA":" ","LANE":"８５巷","ALLEY":" ","HOUSE_NO":"２５號","E_COORD97":168953.01999999999,"N_COORD97":2543188.0699999998,"ADDRESS":"府前路一段８５巷２５號","OBJECTID":385673},"geometry":{"x":168953.01999999955,"y":2543188.0700000022}},{"attributes":{"ID":385698,"DIS_CODE":0,"TOWNNAME":"中西區","LI":"開山里","LIN":"9鄰","STREET":"府前路","SECT":"一段","MAREA":" ","LANE":"８５巷","ALLEY":" ","HOUSE_NO":"２７號","E_COORD97":168960.82000000001,"N_COORD97":2543186.25,"ADDRESS":"府前路一段８５巷２７號","OBJECTID":385674},"geometry":{"x":168960.82000000216,"y":2543186.2500000019}},{"attributes":{"ID":385699,"DIS_CODE":0,"TOWNNAME":"中西區","LI":"開山里","LIN":"9鄰","STREET":"府前路","SECT":"一段","MAREA":" ","LANE":"８５巷","ALLEY":" ","HOUSE_NO":"２９號","E_COORD97":168968.63,"N_COORD97":2543183.5600000001,"ADDRESS":"府前路一段８５巷２９號","OBJECTID":385675},"geometry":{"x":168968.63000000082,"y":2543183.5600000042}},{"attributes":{"ID":385700,"DIS_CODE":0,"TOWNNAME":"中西區","LI":"開山里","LIN":"9鄰","STREET":"府前路","SECT":"一段","MAREA":" ","LANE":"８５巷","ALLEY":" ","HOUSE_NO":"３１號","E_COORD97":168974.70000000001,"N_COORD97":2543181.3100000001,"ADDRESS":"府前路一段８５巷３１號","OBJECTID":385676},"geometry":{"x":168974.70000000019,"y":2543181.3100000005}},{"attributes":{"ID":385701,"DIS_CODE":0,"TOWNNAME":"永康區","LI":"\u25A0行里","LIN":"13鄰","STREET":"中正南路","SECT":" ","MAREA":" ","LANE":" ","ALLEY":" ","HOUSE_NO":"７９０號","E_COORD97":171817.98999999999,"N_COORD97":2549021.25,"ADDRESS":"中正南路７９０號","OBJECTID":385677},"geometry":{"x":171817.99000000115,"y":2549021.2500000019}},{"attributes":{"ID":385702,"DIS_CODE":0,"TOWNNAME":"中西區","LI":"開山里","LIN":"9鄰","STREET":"府前路","SECT":"一段","MAREA":" ","LANE":"８５巷","ALLEY":" ","HOUSE_NO":"３３號","E_COORD97":168968.79999999999,"N_COORD97":2543162.1699999999,"ADDRESS":"府前路一段８５巷３３號","OBJECTID":385678},"geometry":{"x":168968.80000000168,"y":2543162.1700000018}},{"attributes":{"ID":385703,"DIS_CODE":0,"TOWNNAME":"中西區","LI":"開山里","LIN":"9鄰","STREET":"府前路","SECT":"一段","MAREA":" ","LANE":"８５巷","ALLEY":" ","HOUSE_NO":"３５號","E_COORD97":168965.67999999999,"N_COORD97":2543162.6899999999,"ADDRESS":"府前路一段８５巷３５號","OBJECTID":385679},"geometry":{"x":168965.6799999997,"y":2543162.6900000013}},{"attributes":{"ID":385704,"DIS_CODE":0,"TOWNNAME":"中西區","LI":"開山里","LIN":"9鄰","STREET":"府前路","SECT":"一段","MAREA":" ","LANE":"８５巷","ALLEY":" ","HOUSE_NO":"３７號","E_COORD97":168962.56,"N_COORD97":2543164.3300000001,"ADDRESS":"府前路一段８５巷３７號","OBJECTID":385680},"geometry":{"x":168962.56000000052,"y":2543164.3300000038}},{"attributes":{"ID":385705,"DIS_CODE":0,"TOWNNAME":"中西區","LI":"開山里","LIN":"9鄰","STREET":"府前路","SECT":"一段","MAREA":" ","LANE":"８５巷","ALLEY":" ","HOUSE_NO":"３９號","E_COORD97":168958.82999999999,"N_COORD97":2543166.0699999998,"ADDRESS":"府前路一段８５巷３９號","OBJECTID":385681},"geometry":{"x":168958.83000000194,"y":2543166.0699999984}},{"attributes":{"ID":385706,"DIS_CODE":0,"TOWNNAME":"中西區","LI":"開山里","LIN":"9鄰","STREET":"府前路","SECT":"一段","MAREA":" ","LANE":"８５巷","ALLEY":" ","HOUSE_NO":"４１號","E_COORD97":168956.23000000001,"N_COORD97":2543166.9300000002,"ADDRESS":"府前路一段８５巷４１號","OBJECTID":385682},"geometry":{"x":168956.23000000045,"y":2543166.9300000016}},{"attributes":{"ID":385707,"DIS_CODE":0,"TOWNNAME":"中西區","LI":"開山里","LIN":"9鄰","STREET":"府前路","SECT":"一段","MAREA":" ","LANE":"８５巷","ALLEY":" ","HOUSE_NO":"４３號","E_COORD97":168952.23999999999,"N_COORD97":2543168.3199999998,"ADDRESS":"府前路一段８５巷４３號","OBJECTID":385683},"geometry":{"x":168952.24000000022,"y":2543168.3200000022}},{"attributes":{"ID":385708,"DIS_CODE":0,"TOWNNAME":"中西區","LI":"開山里","LIN":"9鄰","STREET":"府前路","SECT":"一段","MAREA":" ","LANE":"８５巷","ALLEY":" ","HOUSE_NO":"４５號","E_COORD97":168949.03,"N_COORD97":2543169.1899999999,"ADDRESS":"府前路一段８５巷４５號","OBJECTID":385684},"geometry":{"x":168949.03000000212,"y":2543169.1900000013}},{"attributes":{"ID":385709,"DIS_CODE":0,"TOWNNAME":"中西區","LI":"開山里","LIN":"9鄰","STREET":"府前路","SECT":"一段","MAREA":" ","LANE":"８５巷","ALLEY":" ","HOUSE_NO":"４７號","E_COORD97":168945.04000000001,"N_COORD97":2543169.5299999998,"ADDRESS":"府前路一段８５巷４７號","OBJECTID":385685},"geometry":{"x":168945.04000000004,"y":2543169.5300000012}},{"attributes":{"ID":385710,"DIS_CODE":0,"TOWNNAME":"中西區","LI":"開山里","LIN":"9鄰","STREET":"府前路","SECT":"一段","MAREA":" ","LANE":"８５巷","ALLEY":" ","HOUSE_NO":"４９號","E_COORD97":168942.70000000001,"N_COORD97":2543171.79,"ADDRESS":"府前路一段８５巷４９號","OBJECTID":385686},"geometry":{"x":168942.69999999925,"y":2543171.790000001}},{"attributes":{"ID":385711,"DIS_CODE":0,"TOWNNAME":"中西區","LI":"開山里","LIN":"9鄰","STREET":"府前路","SECT":"一段","MAREA":" ","LANE":"８５巷","ALLEY":" ","HOUSE_NO":"５１號","E_COORD97":168938.97,"N_COORD97":2543172.5699999998,"ADDRESS":"府前路一段８５巷５１號","OBJECTID":385687},"geometry":{"x":168938.97000000067,"y":2543172.5700000003}},{"attributes":{"ID":385712,"DIS_CODE":0,"TOWNNAME":"中西區","LI":"開山里","LIN":"9鄰","STREET":"府前路","SECT":"一段","MAREA":" ","LANE":"４９巷","ALLEY":" ","HOUSE_NO":"１０號","E_COORD97":169022.35999999999,"N_COORD97":2543229.6699999999,"ADDRESS":"府前路一段４９巷１０號","OBJECTID":385688},"geometry":{"x":169022.36000000127,"y":2543229.6700000037}},{"attributes":{"ID":385713,"DIS_CODE":0,"TOWNNAME":"中西區","LI":"開山里","LIN":"9鄰","STREET":"府前路","SECT":"一段","MAREA":" ","LANE":"４９巷","ALLEY":" ","HOUSE_NO":"１２號","E_COORD97":169019.23000000001,"N_COORD97":2543224.04,"ADDRESS":"府前路一段４９巷１２號","OBJECTID":385689},"geometry":{"x":169019.23000000231,"y":2543224.040000001}},{"attributes":{"ID":385714,"DIS_CODE":0,"TOWNNAME":"中西區","LI":"開山里","LIN":"9鄰","STREET":"府前路","SECT":"一段","MAREA":" ","LANE":"４９巷","ALLEY":" ","HOUSE_NO":"２號","E_COORD97":169030,"N_COORD97":2543248.1899999999,"ADDRESS":"府前路一段４９巷２號","OBJECTID":385690},"geometry":{"x":169030,"y":2543248.1899999995}},{"attributes":{"ID":385715,"DIS_CODE":0,"TOWNNAME":"中西區","LI":"開山里","LIN":"9鄰","STREET":"府前路","SECT":"一段","MAREA":" ","LANE":"４９巷","ALLEY":" ","HOUSE_NO":"４號","E_COORD97":169026.98999999999,"N_COORD97":2543244.1899999999,"ADDRESS":"府前路一段４９巷４號","OBJECTID":385691},"geometry":{"x":169026.99000000022,"y":2543244.1900000013}},{"attributes":{"ID":385716,"DIS_CODE":0,"TOWNNAME":"中西區","LI":"開山里","LIN":"9鄰","STREET":"府前路","SECT":"一段","MAREA":" ","LANE":"４９巷","ALLEY":" ","HOUSE_NO":"６號","E_COORD97":169024.85999999999,"N_COORD97":2543234.4300000002,"ADDRESS":"府前路一段４９巷６號","OBJECTID":385692},"geometry":{"x":169024.8600000022,"y":2543234.4300000034}},{"attributes":{"ID":385717,"DIS_CODE":0,"TOWNNAME":"中西區","LI":"開山里","LIN":"9鄰","STREET":"府前路","SECT":"一段","MAREA":" ","LANE":"６１巷","ALLEY":" ","HOUSE_NO":"１號","E_COORD97":169015.48999999999,"N_COORD97":2543256.5499999998,"ADDRESS":"府前路一段６１巷１號","OBJECTID":385693},"geometry":{"x":169015.49000000209,"y":2543256.5500000026}},{"attributes":{"ID":385718,"DIS_CODE":0,"TOWNNAME":"中西區","LI":"開山里","LIN":"9鄰","STREET":"府前路","SECT":"一段","MAREA":" ","LANE":"６１巷","ALLEY":" ","HOUSE_NO":"５號","E_COORD97":169011.34,"N_COORD97":2543241.3100000001,"ADDRESS":"府前路一段６１巷５號","OBJECTID":385694},"geometry":{"x":169011.34000000078,"y":2543241.3100000005}},{"attributes":{"ID":385719,"DIS_CODE":0,"TOWNNAME":"中西區","LI":"三民里","LIN":"9鄰","STREET":"中山路","SECT":" ","MAREA":" ","LANE":"７９巷","ALLEY":" ","HOUSE_NO":"５號","E_COORD97":168669.82999999999,"N_COORD97":2543868.5499999998,"ADDRESS":"中山路７９巷５號","OBJECTID":385695},"geometry":{"x":168669.83000000007,"y":2543868.5499999989}},{"attributes":{"ID":385720,"DIS_CODE":0,"TOWNNAME":"中西區","LI":"三民里","LIN":"9鄰","STREET":"中山路","SECT":" ","MAREA":" ","LANE":"７９巷","ALLEY":" ","HOUSE_NO":"７號","E_COORD97":168664.13,"N_COORD97":2543868.9100000001,"ADDRESS":"中山路７９巷７號","OBJECTID":385696},"geometry":{"x":168664.12999999989,"y":2543868.9099999983}},{"attributes":{"ID":385721,"DIS_CODE":0,"TOWNNAME":"中西區","LI":"三民里","LIN":"9鄰","STREET":"中山路","SECT":" ","MAREA":" ","LANE":"７９巷","ALLEY":" ","HOUSE_NO":"９號","E_COORD97":168637.39000000001,"N_COORD97":2543877.1099999999,"ADDRESS":"中山路７９巷９號","OBJECTID":385697},"geometry":{"x":168637.38999999873,"y":2543877.1100000031}},{"attributes":{"ID":385722,"DIS_CODE":0,"TOWNNAME":"中西區","LI":"三民里","LIN":"9鄰","STREET":"民族路","SECT":"二段","MAREA":" ","LANE":"１７３巷","ALLEY":" ","HOUSE_NO":"１１號","E_COORD97":168631.69,"N_COORD97":2543876.9300000002,"ADDRESS":"民族路二段１７３巷１１號","OBJECTID":385698},"geometry":{"x":168631.69000000134,"y":2543876.9299999997}},{"attributes":{"ID":385723,"DIS_CODE":0,"TOWNNAME":"中西區","LI":"三民里","LIN":"9鄰","STREET":"民權路","SECT":"二段","MAREA":" ","LANE":"４巷","ALLEY":" ","HOUSE_NO":"１１號","E_COORD97":168684.42999999999,"N_COORD97":2543853.0899999999,"ADDRESS":"民權路二段４巷１１號","OBJECTID":385699},"geometry":{"x":168684.4299999997,"y":2543853.0899999999}},{"attributes":{"ID":385724,"DIS_CODE":0,"TOWNNAME":"中西區","LI":"三民里","LIN":"9鄰","STREET":"民權路","SECT":"二段","MAREA":" ","LANE":"４巷","ALLEY":" ","HOUSE_NO":"１３號","E_COORD97":168687.45999999999,"N_COORD97":2543859.3100000001,"ADDRESS":"民權路二段４巷１３號","OBJECTID":385700},"geometry":{"x":168687.45999999996,"y":2543859.3100000005}},{"attributes":{"ID":385725,"DIS_CODE":0,"TOWNNAME":"中西區","LI":"三民里","LIN":"9鄰","STREET":"民權路","SECT":"二段","MAREA":" ","LANE":"４巷","ALLEY":" ","HOUSE_NO":"２號","E_COORD97":168668.04999999999,"N_COORD97":2543824.7799999998,"ADDRESS":"民權路二段４巷２號","OBJECTID":385701},"geometry":{"x":168668.04999999981,"y":2543824.7799999975}},{"attributes":{"ID":385726,"DIS_CODE":0,"TOWNNAME":"中西區","LI":"三民里","LIN":"9鄰","STREET":"民權路","SECT":"二段","MAREA":" ","LANE":"４巷","ALLEY":" ","HOUSE_NO":"３號","E_COORD97":168669.12,"N_COORD97":2543835.3100000001,"ADDRESS":"民權路二段４巷３號","OBJECTID":385702},"geometry":{"x":168669.12000000104,"y":2543835.3100000005}},{"attributes":{"ID":385727,"DIS_CODE":0,"TOWNNAME":"中西區","LI":"三民里","LIN":"9鄰","STREET":"民權路","SECT":"二段","MAREA":" ","LANE":"４巷","ALLEY":" ","HOUSE_NO":"３號之１","E_COORD97":168671.79000000001,"N_COORD97":2543837.4399999999,"ADDRESS":"民權路二段４巷３號之１","OBJECTID":385703},"geometry":{"x":168671.79000000004,"y":2543837.4399999976}},{"attributes":{"ID":385728,"DIS_CODE":0,"TOWNNAME":"中西區","LI":"三民里","LIN":"9鄰","STREET":"民權路","SECT":"二段","MAREA":" ","LANE":"４巷","ALLEY":" ","HOUSE_NO":"３號之２","E_COORD97":168674.82000000001,"N_COORD97":2543841.3500000001,"ADDRESS":"民權路二段４巷３號之２","OBJECTID":385704},"geometry":{"x":168674.82000000123,"y":2543841.3499999996}},{"attributes":{"ID":385729,"DIS_CODE":0,"TOWNNAME":"中西區","LI":"三民里","LIN":"9鄰","STREET":"民權路","SECT":"二段","MAREA":" ","LANE":"４巷","ALLEY":" ","HOUSE_NO":"５號","E_COORD97":168677.48999999999,"N_COORD97":2543843.8399999999,"ADDRESS":"民權路二段４巷５號","OBJECTID":385705},"geometry":{"x":168677.49000000022,"y":2543843.8399999999}},{"attributes":{"ID":385730,"DIS_CODE":0,"TOWNNAME":"中西區","LI":"三民里","LIN":"9鄰","STREET":"民權路","SECT":"二段","MAREA":" ","LANE":"４巷","ALLEY":" ","HOUSE_NO":"７號","E_COORD97":168679.79999999999,"N_COORD97":2543846.6899999999,"ADDRESS":"民權路二段４巷７號","OBJECTID":385706},"geometry":{"x":168679.79999999981,"y":2543846.6900000013}},{"attributes":{"ID":385731,"DIS_CODE":0,"TOWNNAME":"中西區","LI":"三民里","LIN":"9鄰","STREET":"民權路","SECT":"二段","MAREA":" ","LANE":"４巷","ALLEY":" ","HOUSE_NO":"９號","E_COORD97":168683.35999999999,"N_COORD97":2543849.3500000001,"ADDRESS":"民權路二段４巷９號","OBJECTID":385707},"geometry":{"x":168683.36000000034,"y":2543849.3500000015}},{"attributes":{"ID":385732,"DIS_CODE":0,"TOWNNAME":"東區","LI":"崇善里","LIN":"9鄰","STREET":"仁和路","SECT":" ","MAREA":" ","LANE":"７０巷","ALLEY":" ","HOUSE_NO":"１號","E_COORD97":171091.25,"N_COORD97":2541782.98,"ADDRESS":"仁和路７０巷１號","OBJECTID":385708},"geometry":{"x":171091.25,"y":2541782.9800000004}},{"attributes":{"ID":385733,"DIS_CODE":0,"TOWNNAME":"東區","LI":"崇善里","LIN":"9鄰","STREET":"仁和路","SECT":" ","MAREA":" ","LANE":"７０巷","ALLEY":" ","HOUSE_NO":"３號","E_COORD97":171085.35999999999,"N_COORD97":2541781.5099999998,"ADDRESS":"仁和路７０巷３號","OBJECTID":385709},"geometry":{"x":171085.36000000127,"y":2541781.5099999998}},{"attributes":{"ID":385734,"DIS_CODE":0,"TOWNNAME":"東區","LI":"崇善里","LIN":"9鄰","STREET":"仁和路","SECT":" ","MAREA":" ","LANE":"７０巷","ALLEY":" ","HOUSE_NO":"１１之３號","E_COORD97":171043.89999999999,"N_COORD97":2541751.9199999999,"ADDRESS":"仁和路７０巷１１之３號","OBJECTID":385710},"geometry":{"x":171043.9000000013,"y":2541751.9199999999}},{"attributes":{"ID":385735,"DIS_CODE":0,"TOWNNAME":"東區","LI":"崇善里","LIN":"9鄰","STREET":"仁和路","SECT":" ","MAREA":" ","LANE":"７０巷","ALLEY":" ","HOUSE_NO":"１１之６號","E_COORD97":171049.82000000001,"N_COORD97":2541742.8399999999,"ADDRESS":"仁和路７０巷１１之６號","OBJECTID":385711},"geometry":{"x":171049.82000000123,"y":2541742.8399999999}},{"attributes":{"ID":385736,"DIS_CODE":0,"TOWNNAME":"東區","LI":"崇善里","LIN":"9鄰","STREET":"仁和路","SECT":" ","MAREA":" ","LANE":"７０巷","ALLEY":" ","HOUSE_NO":"１３之１號","E_COORD97":171026.67000000001,"N_COORD97":2541756.6600000001,"ADDRESS":"仁和路７０巷１３之１號","OBJECTID":385712},"geometry":{"x":171026.67000000086,"y":2541756.660000002}},{"attributes":{"ID":385737,"DIS_CODE":0,"TOWNNAME":"東區","LI":"崇善里","LIN":"9鄰","STREET":"仁和路","SECT":" ","MAREA":" ","LANE":"７０巷","ALLEY":" ","HOUSE_NO":"１３之３號","E_COORD97":171030.45999999999,"N_COORD97":2541746.7599999998,"ADDRESS":"仁和路７０巷１３之３號","OBJECTID":385713},"geometry":{"x":171030.45999999996,"y":2541746.7599999998}},{"attributes":{"ID":385738,"DIS_CODE":0,"TOWNNAME":"東區","LI":"大德里","LIN":"9鄰","STREET":"立德十一路","SECT":" ","MAREA":" ","LANE":"８１巷","ALLEY":" ","HOUSE_NO":"３９號","E_COORD97":169528.03,"N_COORD97":2542191.7400000002,"ADDRESS":"立德十一路８１巷３９號","OBJECTID":385714},"geometry":{"x":169528.03000000026,"y":2542191.7400000002}},{"attributes":{"ID":385739,"DIS_CODE":0,"TOWNNAME":"東區","LI":"仁和里","LIN":"9鄰","STREET":"仁和路","SECT":" ","MAREA":" ","LANE":"１１１巷","ALLEY":" ","HOUSE_NO":"８６號","E_COORD97":171613.92999999999,"N_COORD97":2541291.4300000002,"ADDRESS":"仁和路１１１巷８６號","OBJECTID":385715},"geometry":{"x":171613.92999999877,"y":2541291.4299999997}},{"attributes":{"ID":385740,"DIS_CODE":0,"TOWNNAME":"東區","LI":"仁和里","LIN":"9鄰","STREET":"仁和路","SECT":" ","MAREA":" ","LANE":"１１１巷","ALLEY":" ","HOUSE_NO":"８９號","E_COORD97":171609.41,"N_COORD97":2541305.5499999998,"ADDRESS":"仁和路１１１巷８９號","OBJECTID":385716},"geometry":{"x":171609.40999999922,"y":2541305.5500000045}},{"attributes":{"ID":385741,"DIS_CODE":0,"TOWNNAME":"東區","LI":"仁和里","LIN":"9鄰","STREET":"仁和路","SECT":" ","MAREA":" ","LANE":"１１１巷","ALLEY":" ","HOUSE_NO":"９０號","E_COORD97":171617.37,"N_COORD97":2541293.8799999999,"ADDRESS":"仁和路１１１巷９０號","OBJECTID":385717},"geometry":{"x":171617.37000000104,"y":2541293.879999999}},{"attributes":{"ID":385742,"DIS_CODE":0,"TOWNNAME":"東區","LI":"仁和里","LIN":"9鄰","STREET":"仁和路","SECT":" ","MAREA":" ","LANE":"１１１巷","ALLEY":" ","HOUSE_NO":"９２號","E_COORD97":171619.94,"N_COORD97":2541291.9900000002,"ADDRESS":"仁和路１１１巷９２號","OBJECTID":385718},"geometry":{"x":171619.94000000134,"y":2541291.9900000039}},{"attributes":{"ID":385743,"DIS_CODE":0,"TOWNNAME":"東區","LI":"仁和里","LIN":"9鄰","STREET":"仁和路","SECT":" ","MAREA":" ","LANE":"１１１巷","ALLEY":" ","HOUSE_NO":"９４號","E_COORD97":171622.26000000001,"N_COORD97":2541290.71,"ADDRESS":"仁和路１１１巷９４號","OBJECTID":385719},"geometry":{"x":171622.26000000071,"y":2541290.7100000009}},{"attributes":{"ID":385744,"DIS_CODE":0,"TOWNNAME":"東區","LI":"仁和里","LIN":"9鄰","STREET":"仁和路","SECT":" ","MAREA":" ","LANE":"１１１巷","ALLEY":" ","HOUSE_NO":"９５號","E_COORD97":171627.25,"N_COORD97":2541305.0299999998,"ADDRESS":"仁和路１１１巷９５號","OBJECTID":385720},"geometry":{"x":171627.25,"y":2541305.0300000012}},{"attributes":{"ID":385745,"DIS_CODE":0,"TOWNNAME":"東區","LI":"仁和里","LIN":"9鄰","STREET":"仁和路","SECT":" ","MAREA":" ","LANE":"１１１巷","ALLEY":" ","HOUSE_NO":"１０６號","E_COORD97":171655.26999999999,"N_COORD97":2541290.2999999998,"ADDRESS":"仁和路１１１巷１０６號","OBJECTID":385721},"geometry":{"x":171655.26999999955,"y":2541290.3000000045}},{"attributes":{"ID":385746,"DIS_CODE":0,"TOWNNAME":"東區","LI":"衛國里","LIN":"9鄰","STREET":"衛國街","SECT":" ","MAREA":" ","LANE":"１１２巷","ALLEY":" ","HOUSE_NO":"１９號","E_COORD97":170493.73000000001,"N_COORD97":2543124.1600000001,"ADDRESS":"衛國街１１２巷１９號","OBJECTID":385722},"geometry":{"x":170493.73000000045,"y":2543124.1600000001}},{"attributes":{"ID":385747,"DIS_CODE":0,"TOWNNAME":"東區","LI":"衛國里","LIN":"9鄰","STREET":"衛國街","SECT":" ","MAREA":" ","LANE":"１１２巷","ALLEY":" ","HOUSE_NO":"２１號","E_COORD97":170501.39999999999,"N_COORD97":2543125.6899999999,"ADDRESS":"衛國街１１２巷２１號","OBJECTID":385723},"geometry":{"x":170501.4000000013,"y":2543125.6899999995}},{"attributes":{"ID":385748,"DIS_CODE":0,"TOWNNAME":"善化區","LI":"南關里","LIN":"1鄰","STREET":"三民路","SECT":" ","MAREA":" ","LANE":"５０巷","ALLEY":" ","HOUSE_NO":"６號","E_COORD97":177124.81,"N_COORD97":2558997.0099999998,"ADDRESS":"三民路５０巷６號","OBJECTID":385724},"geometry":{"x":177124.81000000052,"y":2558997.0100000016}},{"attributes":{"ID":385749,"DIS_CODE":0,"TOWNNAME":"東區","LI":"衛國里","LIN":"9鄰","STREET":"衛國街","SECT":" ","MAREA":" ","LANE":"１１２巷","ALLEY":" ","HOUSE_NO":"２３號","E_COORD97":170507.92000000001,"N_COORD97":2543115.54,"ADDRESS":"衛國街１１２巷２３號","OBJECTID":385725},"geometry":{"x":170507.92000000086,"y":2543115.540000001}},{"attributes":{"ID":385750,"DIS_CODE":0,"TOWNNAME":"東區","LI":"仁和里","LIN":"9鄰","STREET":"仁和路","SECT":" ","MAREA":" ","LANE":"１１１巷","ALLEY":" ","HOUSE_NO":"１２７號","E_COORD97":171706.88,"N_COORD97":2541305.2400000002,"ADDRESS":"仁和路１１１巷１２７號","OBJECTID":385726},"geometry":{"x":171706.88000000082,"y":2541305.2400000021}},{"attributes":{"ID":385751,"DIS_CODE":0,"TOWNNAME":"東區","LI":"仁和里","LIN":"9鄰","STREET":"仁和路","SECT":" ","MAREA":" ","LANE":"１１１巷","ALLEY":" ","HOUSE_NO":"９６號","E_COORD97":171627.88,"N_COORD97":2541288.8300000001,"ADDRESS":"仁和路１１１巷９６號","OBJECTID":385727},"geometry":{"x":171627.87999999989,"y":2541288.8300000001}},{"attributes":{"ID":385752,"DIS_CODE":0,"TOWNNAME":"永康區","LI":"甲頂里","LIN":"9鄰","STREET":"中華路","SECT":" ","MAREA":" ","LANE":"８９９巷","ALLEY":" ","HOUSE_NO":"６號","E_COORD97":170372.69,"N_COORD97":2546726.75,"ADDRESS":"中華路８９９巷６號","OBJECTID":385728},"geometry":{"x":170372.69000000134,"y":2546726.75}},{"attributes":{"ID":385753,"DIS_CODE":0,"TOWNNAME":"永康區","LI":"甲頂里","LIN":"9鄰","STREET":"中華路","SECT":" ","MAREA":" ","LANE":"８９７巷","ALLEY":" ","HOUSE_NO":"８號","E_COORD97":170396.73000000001,"N_COORD97":2546684.9900000002,"ADDRESS":"中華路８９７巷８號","OBJECTID":385729},"geometry":{"x":170396.73000000045,"y":2546684.9900000002}},{"attributes":{"ID":385754,"DIS_CODE":0,"TOWNNAME":"永康區","LI":"甲頂里","LIN":"9鄰","STREET":"中華路","SECT":" ","MAREA":" ","LANE":"８９９巷","ALLEY":" ","HOUSE_NO":"１３號","E_COORD97":170378.66,"N_COORD97":2546703.4900000002,"ADDRESS":"中華路８９９巷１３號","OBJECTID":385730},"geometry":{"x":170378.66000000015,"y":2546703.4900000021}},{"attributes":{"ID":385755,"DIS_CODE":0,"TOWNNAME":"永康區","LI":"安康里","LIN":"9鄰","STREET":"中華路","SECT":" ","MAREA":" ","LANE":"６１９巷","ALLEY":" ","HOUSE_NO":"７１號","E_COORD97":170846.82000000001,"N_COORD97":2545976.8599999999,"ADDRESS":"中華路６１９巷７１號","OBJECTID":385731},"geometry":{"x":170846.8200000003,"y":2545976.8599999994}},{"attributes":{"ID":385756,"DIS_CODE":0,"TOWNNAME":"永康區","LI":"西橋里","LIN":"9鄰","STREET":"中華西街","SECT":" ","MAREA":" ","LANE":"１２７巷","ALLEY":" ","HOUSE_NO":"１７號","E_COORD97":170610.88,"N_COORD97":2546149.9900000002,"ADDRESS":"中華西街１２７巷１７號","OBJECTID":385732},"geometry":{"x":170610.87999999896,"y":2546149.9900000002}},{"attributes":{"ID":385757,"DIS_CODE":0,"TOWNNAME":"永康區","LI":"西灣里","LIN":"9鄰","STREET":"大灣五街","SECT":" ","MAREA":" ","LANE":"１４１巷","ALLEY":" ","HOUSE_NO":"２２號","E_COORD97":174410.42000000001,"N_COORD97":2545269.5699999998,"ADDRESS":"大灣五街１４１巷２２號","OBJECTID":385733},"geometry":{"x":174410.42000000086,"y":2545269.5700000022}},{"attributes":{"ID":385758,"DIS_CODE":0,"TOWNNAME":"永康區","LI":"甲頂里","LIN":"9鄰","STREET":"中華路","SECT":" ","MAREA":" ","LANE":"８９９巷","ALLEY":" ","HOUSE_NO":"９號","E_COORD97":170381.69,"N_COORD97":2546710.4900000002,"ADDRESS":"中華路８９９巷９號","OBJECTID":385734},"geometry":{"x":170381.69000000041,"y":2546710.4900000021}},{"attributes":{"ID":385759,"DIS_CODE":0,"TOWNNAME":"永康區","LI":"甲頂里","LIN":"9鄰","STREET":"中華路","SECT":" ","MAREA":" ","LANE":"８９９巷","ALLEY":" ","HOUSE_NO":"８號","E_COORD97":170370.45999999999,"N_COORD97":2546723.5,"ADDRESS":"中華路８９９巷８號","OBJECTID":385735},"geometry":{"x":170370.46000000089,"y":2546723.5000000019}},{"attributes":{"ID":385760,"DIS_CODE":0,"TOWNNAME":"永康區","LI":"西灣里","LIN":"9鄰","STREET":"大灣五街","SECT":" ","MAREA":" ","LANE":"１４１巷","ALLEY":" ","HOUSE_NO":"６號","E_COORD97":174440.39000000001,"N_COORD97":2545304.7000000002,"ADDRESS":"大灣五街１４１巷６號","OBJECTID":385736},"geometry":{"x":174440.3900000006,"y":2545304.7000000011}},{"attributes":{"ID":385761,"DIS_CODE":0,"TOWNNAME":"永康區","LI":"甲頂里","LIN":"9鄰","STREET":"中華路","SECT":" ","MAREA":" ","LANE":"８９７巷","ALLEY":" ","HOUSE_NO":"７號","E_COORD97":170399.07000000001,"N_COORD97":2546688.2400000002,"ADDRESS":"中華路８９７巷７號","OBJECTID":385737},"geometry":{"x":170399.07000000123,"y":2546688.2400000021}},{"attributes":{"ID":385762,"DIS_CODE":0,"TOWNNAME":"永康區","LI":"甲頂里","LIN":"9鄰","STREET":"中華路","SECT":" ","MAREA":" ","LANE":"８９７巷","ALLEY":" ","HOUSE_NO":"５號","E_COORD97":170403.82000000001,"N_COORD97":2546695.2400000002,"ADDRESS":"中華路８９７巷５號","OBJECTID":385738},"geometry":{"x":170403.82000000123,"y":2546695.2400000021}},{"attributes":{"ID":385763,"DIS_CODE":0,"TOWNNAME":"永康區","LI":"甲頂里","LIN":"9鄰","STREET":"中華路","SECT":" ","MAREA":" ","LANE":"８９９巷","ALLEY":" ","HOUSE_NO":"７號","E_COORD97":170384.35000000001,"N_COORD97":2546713.9900000002,"ADDRESS":"中華路８９９巷７號","OBJECTID":385739},"geometry":{"x":170384.35000000056,"y":2546713.9900000021}},{"attributes":{"ID":385764,"DIS_CODE":0,"TOWNNAME":"永康區","LI":"西橋里","LIN":"9鄰","STREET":"中華西街","SECT":" ","MAREA":" ","LANE":"８５巷","ALLEY":" ","HOUSE_NO":"２２號","E_COORD97":170639.70999999999,"N_COORD97":2546060.4900000002,"ADDRESS":"中華西街８５巷２２號","OBJECTID":385740},"geometry":{"x":170639.71000000089,"y":2546060.4900000002}},{"attributes":{"ID":385765,"DIS_CODE":0,"TOWNNAME":"中西區","LI":"萬昌里","LIN":"9鄰","STREET":"府前路","SECT":"一段","MAREA":" ","LANE":"１２２巷","ALLEY":" ","HOUSE_NO":"７４號","E_COORD97":168810.98999999999,"N_COORD97":2543454.3900000001,"ADDRESS":"府前路一段１２２巷７４號","OBJECTID":385741},"geometry":{"x":168810.99000000115,"y":2543454.3900000006}},{"attributes":{"ID":385766,"DIS_CODE":0,"TOWNNAME":"中西區","LI":"萬昌里","LIN":"9鄰","STREET":"府前路","SECT":"一段","MAREA":" ","LANE":"１２２巷","ALLEY":" ","HOUSE_NO":"７６號","E_COORD97":168814.47,"N_COORD97":2543453.6600000001,"ADDRESS":"府前路一段１２２巷７６號","OBJECTID":385742},"geometry":{"x":168814.46999999974,"y":2543453.6600000039}},{"attributes":{"ID":385767,"DIS_CODE":0,"TOWNNAME":"中西區","LI":"萬昌里","LIN":"9鄰","STREET":"府前路","SECT":"一段","MAREA":" ","LANE":"１２２巷","ALLEY":" ","HOUSE_NO":"７８號","E_COORD97":168819.23999999999,"N_COORD97":2543452.7400000002,"ADDRESS":"府前路一段１２２巷７８號","OBJECTID":385743},"geometry":{"x":168819.24000000115,"y":2543452.7400000002}},{"attributes":{"ID":385768,"DIS_CODE":0,"TOWNNAME":"中西區","LI":"萬昌里","LIN":"9鄰","STREET":"府前路","SECT":"一段","MAREA":" ","LANE":"１２２巷","ALLEY":" ","HOUSE_NO":"８０號","E_COORD97":168822.5,"N_COORD97":2543451.3900000001,"ADDRESS":"府前路一段１２２巷８０號","OBJECTID":385744},"geometry":{"x":168822.50000000093,"y":2543451.3900000006}},{"attributes":{"ID":385769,"DIS_CODE":0,"TOWNNAME":"中西區","LI":"仙草里","LIN":"9鄰","STREET":"南寧街","SECT":" ","MAREA":" ","LANE":"７１巷","ALLEY":" ","HOUSE_NO":"２１號","E_COORD97":167850.98000000001,"N_COORD97":2542763.6200000001,"ADDRESS":"南寧街７１巷２１號","OBJECTID":385745},"geometry":{"x":167850.98000000045,"y":2542763.6200000029}},{"attributes":{"ID":385770,"DIS_CODE":0,"TOWNNAME":"中西區","LI":"仙草里","LIN":"9鄰","STREET":"南寧街","SECT":" ","MAREA":" ","LANE":"７１巷","ALLEY":" ","HOUSE_NO":"２１號底層","E_COORD97":167850.98000000001,"N_COORD97":2542763.6200000001,"ADDRESS":"南寧街７１巷２１號底層","OBJECTID":385746},"geometry":{"x":167850.98000000045,"y":2542763.6200000029}},{"attributes":{"ID":385771,"DIS_CODE":0,"TOWNNAME":"中西區","LI":"仙草里","LIN":"9鄰","STREET":"南寧街","SECT":" ","MAREA":" ","LANE":"７１巷","ALLEY":" ","HOUSE_NO":"２３號","E_COORD97":167850.10999999999,"N_COORD97":2542751.6499999999,"ADDRESS":"南寧街７１巷２３號","OBJECTID":385747},"geometry":{"x":167850.1100000022,"y":2542751.6500000004}},{"attributes":{"ID":385772,"DIS_CODE":0,"TOWNNAME":"中西區","LI":"仙草里","LIN":"9鄰","STREET":"南寧街","SECT":" ","MAREA":" ","LANE":"７１巷","ALLEY":" ","HOUSE_NO":"１１號","E_COORD97":167851.14999999999,"N_COORD97":2542796.9900000002,"ADDRESS":"南寧街７１巷１１號","OBJECTID":385748},"geometry":{"x":167851.15000000037,"y":2542796.9899999984}},{"attributes":{"ID":385773,"DIS_CODE":0,"TOWNNAME":"中西區","LI":"仙草里","LIN":"9鄰","STREET":"南寧街","SECT":" ","MAREA":" ","LANE":"７１巷","ALLEY":" ","HOUSE_NO":"１３號","E_COORD97":167851.67000000001,"N_COORD97":2542791.96,"ADDRESS":"南寧街７１巷１３號","OBJECTID":385749},"geometry":{"x":167851.67000000086,"y":2542791.9600000028}},{"attributes":{"ID":385774,"DIS_CODE":0,"TOWNNAME":"中西區","LI":"仙草里","LIN":"9鄰","STREET":"南寧街","SECT":" ","MAREA":" ","LANE":"７１巷","ALLEY":" ","HOUSE_NO":"１５號","E_COORD97":167851.5,"N_COORD97":2542786.4100000001,"ADDRESS":"南寧街７１巷１５號","OBJECTID":385750},"geometry":{"x":167851.5,"y":2542786.4100000001}},{"attributes":{"ID":385775,"DIS_CODE":0,"TOWNNAME":"中西區","LI":"仙草里","LIN":"9鄰","STREET":"南寧街","SECT":" ","MAREA":" ","LANE":"７１巷","ALLEY":" ","HOUSE_NO":"１７號","E_COORD97":167850.63,"N_COORD97":2542781.5499999998,"ADDRESS":"南寧街７１巷１７號","OBJECTID":385751},"geometry":{"x":167850.62999999989,"y":2542781.5500000026}},{"attributes":{"ID":385776,"DIS_CODE":0,"TOWNNAME":"中西區","LI":"仙草里","LIN":"9鄰","STREET":"南寧街","SECT":" ","MAREA":" ","LANE":"７１巷","ALLEY":" ","HOUSE_NO":"１９號","E_COORD97":167850.63,"N_COORD97":2542776.8700000001,"ADDRESS":"南寧街７１巷１９號","OBJECTID":385752},"geometry":{"x":167850.62999999989,"y":2542776.8700000029}},{"attributes":{"ID":385777,"DIS_CODE":0,"TOWNNAME":"中西區","LI":"仙草里","LIN":"9鄰","STREET":"南寧街","SECT":" ","MAREA":" ","LANE":"７１巷","ALLEY":" ","HOUSE_NO":"１號","E_COORD97":167851.67000000001,"N_COORD97":2542835.4900000002,"ADDRESS":"南寧街７１巷１號","OBJECTID":385753},"geometry":{"x":167851.67000000086,"y":2542835.4900000021}},{"attributes":{"ID":385778,"DIS_CODE":0,"TOWNNAME":"中西區","LI":"仙草里","LIN":"9鄰","STREET":"南寧街","SECT":" ","MAREA":" ","LANE":"７１巷","ALLEY":" ","HOUSE_NO":"３號","E_COORD97":167850.98000000001,"N_COORD97":2542827.3399999999,"ADDRESS":"南寧街７１巷３號","OBJECTID":385754},"geometry":{"x":167850.98000000045,"y":2542827.3399999999}},{"attributes":{"ID":385779,"DIS_CODE":0,"TOWNNAME":"中西區","LI":"仙草里","LIN":"9鄰","STREET":"南寧街","SECT":" ","MAREA":" ","LANE":"７１巷","ALLEY":" ","HOUSE_NO":"５號","E_COORD97":167852.35999999999,"N_COORD97":2542819.5299999998,"ADDRESS":"南寧街７１巷５號","OBJECTID":385755},"geometry":{"x":167852.36000000127,"y":2542819.5299999975}},{"attributes":{"ID":385780,"DIS_CODE":0,"TOWNNAME":"中西區","LI":"仙草里","LIN":"9鄰","STREET":"南寧街","SECT":" ","MAREA":" ","LANE":"７１巷","ALLEY":" ","HOUSE_NO":"７號","E_COORD97":167852.01999999999,"N_COORD97":2542811.3799999999,"ADDRESS":"南寧街７１巷７號","OBJECTID":385756},"geometry":{"x":167852.02000000048,"y":2542811.3800000008}},{"attributes":{"ID":385781,"DIS_CODE":0,"TOWNNAME":"中西區","LI":"仙草里","LIN":"9鄰","STREET":"南寧街","SECT":" ","MAREA":" ","LANE":"７１巷","ALLEY":" ","HOUSE_NO":"９號","E_COORD97":167852.35999999999,"N_COORD97":2542803.23,"ADDRESS":"南寧街７１巷９號","OBJECTID":385757},"geometry":{"x":167852.36000000127,"y":2542803.2300000023}},{"attributes":{"ID":385782,"DIS_CODE":0,"TOWNNAME":"安南區","LI":"城南里","LIN":"9鄰","STREET":"城西街","SECT":"一段","MAREA":" ","LANE":"２４９巷","ALLEY":" ","HOUSE_NO":"２５號","E_COORD97":160417.95000000001,"N_COORD97":2551131.4100000001,"ADDRESS":"城西街一段２４９巷２５號","OBJECTID":385758},"geometry":{"x":160417.95000000112,"y":2551131.4100000039}},{"attributes":{"ID":385783,"DIS_CODE":0,"TOWNNAME":"安南區","LI":"城南里","LIN":"9鄰","STREET":"城西街","SECT":"一段","MAREA":" ","LANE":"２４９巷","ALLEY":" ","HOUSE_NO":"３４號","E_COORD97":160416.69,"N_COORD97":2551111.2599999998,"ADDRESS":"城西街一段２４９巷３４號","OBJECTID":385759},"geometry":{"x":160416.69000000134,"y":2551111.2599999979}},{"attributes":{"ID":385784,"DIS_CODE":0,"TOWNNAME":"安南區","LI":"城南里","LIN":"9鄰","STREET":"城西街","SECT":"一段","MAREA":" ","LANE":"２４９巷","ALLEY":" ","HOUSE_NO":"３９號","E_COORD97":160437.57999999999,"N_COORD97":2551099.5899999999,"ADDRESS":"城西街一段２４９巷３９號","OBJECTID":385760},"geometry":{"x":160437.58000000101,"y":2551099.5900000017}},{"attributes":{"ID":385785,"DIS_CODE":0,"TOWNNAME":"安南區","LI":"城南里","LIN":"9鄰","STREET":"城西街","SECT":"一段","MAREA":" ","LANE":"２４９巷","ALLEY":" ","HOUSE_NO":"４１號","E_COORD97":160444.04000000001,"N_COORD97":2551092.8900000001,"ADDRESS":"城西街一段２４９巷４１號","OBJECTID":385761},"geometry":{"x":160444.0400000019,"y":2551092.8900000006}},{"attributes":{"ID":385786,"DIS_CODE":0,"TOWNNAME":"安南區","LI":"城南里","LIN":"9鄰","STREET":"城西街","SECT":"一段","MAREA":" ","LANE":"２４９巷","ALLEY":" ","HOUSE_NO":"５６號","E_COORD97":160401.28,"N_COORD97":2551074.1099999999,"ADDRESS":"城西街一段２４９巷５６號","OBJECTID":385762},"geometry":{"x":160401.28000000026,"y":2551074.1099999994}},{"attributes":{"ID":385787,"DIS_CODE":0,"TOWNNAME":"安南區","LI":"城南里","LIN":"9鄰","STREET":"城西街","SECT":"一段","MAREA":" ","LANE":"２４９巷","ALLEY":" ","HOUSE_NO":"６２號","E_COORD97":160406.5,"N_COORD97":2551099.8399999999,"ADDRESS":"城西街一段２４９巷６２號","OBJECTID":385763},"geometry":{"x":160406.5,"y":2551099.8399999999}},{"attributes":{"ID":385788,"DIS_CODE":0,"TOWNNAME":"安南區","LI":"城南里","LIN":"9鄰","STREET":"城西街","SECT":"一段","MAREA":" ","LANE":"２４９巷","ALLEY":" ","HOUSE_NO":"６６號","E_COORD97":160388.35000000001,"N_COORD97":2551096.7000000002,"ADDRESS":"城西街一段２４９巷６６號","OBJECTID":385764},"geometry":{"x":160388.34999999963,"y":2551096.6999999993}},{"attributes":{"ID":385789,"DIS_CODE":0,"TOWNNAME":"安南區","LI":"青草里","LIN":"9鄰","STREET":"青砂街","SECT":"二段","MAREA":" ","LANE":"３５１巷","ALLEY":" ","HOUSE_NO":"１１號","E_COORD97":159082.89000000001,"N_COORD97":2553011.8900000001,"ADDRESS":"青砂街二段３５１巷１１號","OBJECTID":385765},"geometry":{"x":159082.88999999966,"y":2553011.8900000006}},{"attributes":{"ID":385790,"DIS_CODE":0,"TOWNNAME":"安南區","LI":"青草里","LIN":"9鄰","STREET":"青砂街","SECT":"二段","MAREA":" ","LANE":"３５１巷","ALLEY":" ","HOUSE_NO":"１２號","E_COORD97":159072.67999999999,"N_COORD97":2553009.54,"ADDRESS":"青砂街二段３５１巷１２號","OBJECTID":385766},"geometry":{"x":159072.6799999997,"y":2553009.5399999991}},{"attributes":{"ID":385791,"DIS_CODE":0,"TOWNNAME":"安南區","LI":"青草里","LIN":"9鄰","STREET":"青砂街","SECT":"二段","MAREA":" ","LANE":"３５１巷","ALLEY":" ","HOUSE_NO":"６號","E_COORD97":159065.07999999999,"N_COORD97":2552994.6600000001,"ADDRESS":"青砂街二段３５１巷６號","OBJECTID":385767},"geometry":{"x":159065.08000000007,"y":2552994.660000002}},{"attributes":{"ID":385792,"DIS_CODE":0,"TOWNNAME":"安南區","LI":"青草里","LIN":"9鄰","STREET":"青砂街","SECT":"二段","MAREA":" ","LANE":"３７１巷","ALLEY":" ","HOUSE_NO":"３８號","E_COORD97":158990.29999999999,"N_COORD97":2552981.4100000001,"ADDRESS":"青砂街二段３７１巷３８號","OBJECTID":385768},"geometry":{"x":158990.29999999981,"y":2552981.4100000001}},{"attributes":{"ID":385793,"DIS_CODE":0,"TOWNNAME":"安南區","LI":"青草里","LIN":"9鄰","STREET":"青砂街","SECT":"二段","MAREA":" ","LANE":"３７１巷","ALLEY":" ","HOUSE_NO":"９號","E_COORD97":159031.82999999999,"N_COORD97":2553010.3500000001,"ADDRESS":"青砂街二段３７１巷９號","OBJECTID":385769},"geometry":{"x":159031.83000000194,"y":2553010.3500000015}},{"attributes":{"ID":385794,"DIS_CODE":0,"TOWNNAME":"安南區","LI":"淵中里","LIN":"9鄰","STREET":"本原街","SECT":"三段","MAREA":" ","LANE":"２５８巷","ALLEY":" ","HOUSE_NO":"４２號","E_COORD97":165259.66,"N_COORD97":2550197.0600000001,"ADDRESS":"本原街三段２５８巷４２號","OBJECTID":385770},"geometry":{"x":165259.66000000108,"y":2550197.0600000005}},{"attributes":{"ID":385795,"DIS_CODE":0,"TOWNNAME":"安南區","LI":"淵中里","LIN":"9鄰","STREET":"本原街","SECT":"三段","MAREA":" ","LANE":"２５８巷","ALLEY":" ","HOUSE_NO":"４８號","E_COORD97":165264.73000000001,"N_COORD97":2550177.6099999999,"ADDRESS":"本原街三段２５８巷４８號","OBJECTID":385771},"geometry":{"x":165264.73000000138,"y":2550177.6100000013}},{"attributes":{"ID":385796,"DIS_CODE":0,"TOWNNAME":"安南區","LI":"淵中里","LIN":"9鄰","STREET":"本原街","SECT":"三段","MAREA":" ","LANE":"２５８巷","ALLEY":" ","HOUSE_NO":"５０號","E_COORD97":165261.82999999999,"N_COORD97":2550174.6299999999,"ADDRESS":"本原街三段２５８巷５０號","OBJECTID":385772},"geometry":{"x":165261.83000000101,"y":2550174.629999999}},{"attributes":{"ID":385797,"DIS_CODE":0,"TOWNNAME":"安南區","LI":"淵中里","LIN":"9鄰","STREET":"本原街","SECT":"三段","MAREA":" ","LANE":"２５８巷","ALLEY":" ","HOUSE_NO":"５２號","E_COORD97":165258.85000000001,"N_COORD97":2550171.4700000002,"ADDRESS":"本原街三段２５８巷５２號","OBJECTID":385773},"geometry":{"x":165258.84999999963,"y":2550171.4700000007}},{"attributes":{"ID":385798,"DIS_CODE":0,"TOWNNAME":"安南區","LI":"淵東里","LIN":"9鄰","STREET":"本原街","SECT":"三段","MAREA":" ","LANE":"３２１巷","ALLEY":" ","HOUSE_NO":"９號","E_COORD97":165357,"N_COORD97":2550164.4300000002,"ADDRESS":"本原街三段３２１巷９號","OBJECTID":385774},"geometry":{"x":165357.00000000186,"y":2550164.4300000034}},{"attributes":{"ID":385799,"DIS_CODE":0,"TOWNNAME":"安南區","LI":"淵東里","LIN":"9鄰","STREET":"本原街","SECT":"三段","MAREA":" ","LANE":"３２１巷","ALLEY":" ","HOUSE_NO":"１３號","E_COORD97":165363.95999999999,"N_COORD97":2550168.5800000001,"ADDRESS":"本原街三段３２１巷１３號","OBJECTID":385775},"geometry":{"x":165363.96000000183,"y":2550168.5800000019}},{"attributes":{"ID":385800,"DIS_CODE":0,"TOWNNAME":"安南區","LI":"安順里","LIN":"9鄰","STREET":"安和路","SECT":"四段","MAREA":" ","LANE":"１０１巷","ALLEY":" ","HOUSE_NO":"１４號","E_COORD97":169865.10999999999,"N_COORD97":2550374.1299999999,"ADDRESS":"安和路四段１０１巷１４號","OBJECTID":385776},"geometry":{"x":169865.11000000034,"y":2550374.1300000008}},{"attributes":{"ID":385801,"DIS_CODE":0,"TOWNNAME":"安南區","LI":"安順里","LIN":"9鄰","STREET":"安和路","SECT":"四段","MAREA":" ","LANE":"１０１巷","ALLEY":" ","HOUSE_NO":"１６號","E_COORD97":169861.92000000001,"N_COORD97":2550375.1899999999,"ADDRESS":"安和路四段１０１巷１６號","OBJECTID":385777},"geometry":{"x":169861.92000000086,"y":2550375.1899999995}},{"attributes":{"ID":385802,"DIS_CODE":0,"TOWNNAME":"安南區","LI":"安順里","LIN":"9鄰","STREET":"安和路","SECT":"四段","MAREA":" ","LANE":"１０１巷","ALLEY":" ","HOUSE_NO":"１８號","E_COORD97":169858.12,"N_COORD97":2550376.1000000001,"ADDRESS":"安和路四段１０１巷１８號","OBJECTID":385778},"geometry":{"x":169858.12000000011,"y":2550376.0999999996}},{"attributes":{"ID":385803,"DIS_CODE":0,"TOWNNAME":"安南區","LI":"安順里","LIN":"9鄰","STREET":"安和路","SECT":"四段","MAREA":" ","LANE":"１３１巷","ALLEY":" ","HOUSE_NO":"１７號","E_COORD97":169877.54000000001,"N_COORD97":2550408.4399999999,"ADDRESS":"安和路四段１３１巷１７號","OBJECTID":385779},"geometry":{"x":169877.54000000004,"y":2550408.4400000032}},{"attributes":{"ID":385804,"DIS_CODE":0,"TOWNNAME":"安南區","LI":"安順里","LIN":"9鄰","STREET":"安和路","SECT":"四段","MAREA":" ","LANE":"１３１巷","ALLEY":" ","HOUSE_NO":"１９號","E_COORD97":169873.20000000001,"N_COORD97":2550408.73,"ADDRESS":"安和路四段１３１巷１９號","OBJECTID":385780},"geometry":{"x":169873.20000000019,"y":2550408.7300000023}},{"attributes":{"ID":385805,"DIS_CODE":0,"TOWNNAME":"安南區","LI":"溪北里","LIN":"9鄰","STREET":"府安路","SECT":"四段","MAREA":" ","LANE":"２４巷","ALLEY":" ","HOUSE_NO":"３號","E_COORD97":169410.20999999999,"N_COORD97":2547337.9399999999,"ADDRESS":"府安路四段２４巷３號","OBJECTID":385781},"geometry":{"x":169410.20999999903,"y":2547337.9400000013}},{"attributes":{"ID":385806,"DIS_CODE":0,"TOWNNAME":"安南區","LI":"海南里","LIN":"9鄰","STREET":"府安路","SECT":"六段","MAREA":" ","LANE":"１５４巷","ALLEY":" ","HOUSE_NO":"８０號","E_COORD97":166338.10999999999,"N_COORD97":2546431.6800000002,"ADDRESS":"府安路六段１５４巷８０號","OBJECTID":385782},"geometry":{"x":166338.1100000022,"y":2546431.6799999997}},{"attributes":{"ID":385807,"DIS_CODE":0,"TOWNNAME":"安南區","LI":"溪北里","LIN":"9鄰","STREET":"府安路","SECT":"四段","MAREA":" ","LANE":"２４巷","ALLEY":" ","HOUSE_NO":"１１號","E_COORD97":169402.01000000001,"N_COORD97":2547353.6400000001,"ADDRESS":"府安路四段２４巷１１號","OBJECTID":385783},"geometry":{"x":169402.01000000071,"y":2547353.6400000025}},{"attributes":{"ID":385808,"DIS_CODE":0,"TOWNNAME":"麻豆區","LI":"巷口里","LIN":"9鄰","STREET":"建南街","SECT":" ","MAREA":" ","LANE":"１２２巷","ALLEY":" ","HOUSE_NO":"１號","E_COORD97":173292.22,"N_COORD97":2564235.0499999998,"ADDRESS":"建南街１２２巷１號","OBJECTID":385784},"geometry":{"x":173292.22000000067,"y":2564235.0500000026}},{"attributes":{"ID":385809,"DIS_CODE":0,"TOWNNAME":"安南區","LI":"溪北里","LIN":"9鄰","STREET":"府安路","SECT":"四段","MAREA":" ","LANE":"２４巷","ALLEY":" ","HOUSE_NO":"１５號","E_COORD97":169398.57000000001,"N_COORD97":2547361.6200000001,"ADDRESS":"府安路四段２４巷１５號","OBJECTID":385785},"geometry":{"x":169398.57000000123,"y":2547361.6200000029}},{"attributes":{"ID":385810,"DIS_CODE":0,"TOWNNAME":"安南區","LI":"溪北里","LIN":"9鄰","STREET":"府安路","SECT":"四段","MAREA":" ","LANE":"２４巷","ALLEY":" ","HOUSE_NO":"１７號","E_COORD97":169396.84,"N_COORD97":2547366.3199999998,"ADDRESS":"府安路四段２４巷１７號","OBJECTID":385786},"geometry":{"x":169396.83999999985,"y":2547366.3200000022}},{"attributes":{"ID":385811,"DIS_CODE":0,"TOWNNAME":"安南區","LI":"溪北里","LIN":"9鄰","STREET":"府安路","SECT":"四段","MAREA":" ","LANE":"２４巷","ALLEY":" ","HOUSE_NO":"１號","E_COORD97":169412.34,"N_COORD97":2547332.6299999999,"ADDRESS":"府安路四段２４巷１號","OBJECTID":385787},"geometry":{"x":169412.33999999985,"y":2547332.6300000008}},{"attributes":{"ID":385812,"DIS_CODE":0,"TOWNNAME":"安南區","LI":"溪北里","LIN":"9鄰","STREET":"府安路","SECT":"四段","MAREA":" ","LANE":"２４巷","ALLEY":" ","HOUSE_NO":"２５號","E_COORD97":169389.85999999999,"N_COORD97":2547382.0800000001,"ADDRESS":"府安路四段２４巷２５號","OBJECTID":385788},"geometry":{"x":169389.86000000127,"y":2547382.0800000001}},{"attributes":{"ID":385813,"DIS_CODE":0,"TOWNNAME":"安南區","LI":"溪北里","LIN":"9鄰","STREET":"府安路","SECT":"四段","MAREA":" ","LANE":"２４巷","ALLEY":" ","HOUSE_NO":"２７號","E_COORD97":169386.32000000001,"N_COORD97":2547385.21,"ADDRESS":"府安路四段２４巷２７號","OBJECTID":385789},"geometry":{"x":169386.32000000216,"y":2547385.2100000028}},{"attributes":{"ID":385814,"DIS_CODE":0,"TOWNNAME":"安南區","LI":"溪北里","LIN":"9鄰","STREET":"府安路","SECT":"四段","MAREA":" ","LANE":"２４巷","ALLEY":" ","HOUSE_NO":"２９號","E_COORD97":169386.48000000001,"N_COORD97":2547390.6800000002,"ADDRESS":"府安路四段２４巷２９號","OBJECTID":385790},"geometry":{"x":169386.48000000045,"y":2547390.6800000016}},{"attributes":{"ID":385815,"DIS_CODE":0,"TOWNNAME":"安南區","LI":"溪北里","LIN":"9鄰","STREET":"府安路","SECT":"四段","MAREA":" ","LANE":"２４巷","ALLEY":" ","HOUSE_NO":"３１號","E_COORD97":169384.82999999999,"N_COORD97":2547394.4399999999,"ADDRESS":"府安路四段２４巷３１號","OBJECTID":385791},"geometry":{"x":169384.83000000101,"y":2547394.4400000013}},{"attributes":{"ID":385816,"DIS_CODE":0,"TOWNNAME":"仁德區","LI":"太子里","LIN":"29鄰","STREET":"太子四街","SECT":" ","MAREA":" ","LANE":"３１巷","ALLEY":" ","HOUSE_NO":"１號","E_COORD97":173068.10400399999,"N_COORD97":2543065.1384700001,"ADDRESS":"太子四街３１巷１號","OBJECTID":385792},"geometry":{"x":173068.10400400031,"y":2543065.1384669989}},{"attributes":{"ID":385817,"DIS_CODE":0,"TOWNNAME":"安南區","LI":"溪北里","LIN":"9鄰","STREET":"府安路","SECT":"四段","MAREA":" ","LANE":"２４巷","ALLEY":" ","HOUSE_NO":"３３號","E_COORD97":169383.73000000001,"N_COORD97":2547398.9500000002,"ADDRESS":"府安路四段２４巷３３號","OBJECTID":385793},"geometry":{"x":169383.73000000138,"y":2547398.9499999993}},{"attributes":{"ID":385818,"DIS_CODE":0,"TOWNNAME":"安南區","LI":"溪北里","LIN":"9鄰","STREET":"府安路","SECT":"四段","MAREA":" ","LANE":"２４巷","ALLEY":" ","HOUSE_NO":"３５號","E_COORD97":169383.17999999999,"N_COORD97":2547403.5600000001,"ADDRESS":"府安路四段２４巷３５號","OBJECTID":385794},"geometry":{"x":169383.18000000156,"y":2547403.5600000005}},{"attributes":{"ID":385819,"DIS_CODE":0,"TOWNNAME":"安南區","LI":"溪北里","LIN":"9鄰","STREET":"府安路","SECT":"四段","MAREA":" ","LANE":"２４巷","ALLEY":" ","HOUSE_NO":"３７號","E_COORD97":169380.78,"N_COORD97":2547408.1099999999,"ADDRESS":"府安路四段２４巷３７號","OBJECTID":385795},"geometry":{"x":169380.78000000026,"y":2547408.1100000013}},{"attributes":{"ID":385820,"DIS_CODE":0,"TOWNNAME":"安南區","LI":"溪北里","LIN":"9鄰","STREET":"府安路","SECT":"四段","MAREA":" ","LANE":"２４巷","ALLEY":" ","HOUSE_NO":"４３號","E_COORD97":169375.64000000001,"N_COORD97":2547420.1299999999,"ADDRESS":"府安路四段２４巷４３號","OBJECTID":385796},"geometry":{"x":169375.6400000006,"y":2547420.1300000008}},{"attributes":{"ID":385821,"DIS_CODE":0,"TOWNNAME":"安南區","LI":"溪北里","LIN":"9鄰","STREET":"府安路","SECT":"四段","MAREA":" ","LANE":"２４巷","ALLEY":" ","HOUSE_NO":"４５號","E_COORD97":169374.22,"N_COORD97":2547423.5099999998,"ADDRESS":"府安路四段２４巷４５號","OBJECTID":385797},"geometry":{"x":169374.21999999974,"y":2547423.5099999998}},{"attributes":{"ID":385822,"DIS_CODE":0,"TOWNNAME":"安南區","LI":"溪北里","LIN":"9鄰","STREET":"府安路","SECT":"四段","MAREA":" ","LANE":"２４巷","ALLEY":" ","HOUSE_NO":"５號","E_COORD97":169407.59,"N_COORD97":2547340.6499999999,"ADDRESS":"府安路四段２４巷５號","OBJECTID":385798},"geometry":{"x":169407.59000000171,"y":2547340.6500000022}},{"attributes":{"ID":385823,"DIS_CODE":0,"TOWNNAME":"安南區","LI":"溪北里","LIN":"9鄰","STREET":"府安路","SECT":"四段","MAREA":" ","LANE":"２４巷","ALLEY":" ","HOUSE_NO":"７號","E_COORD97":169406.17000000001,"N_COORD97":2547345.2000000002,"ADDRESS":"府安路四段２４巷７號","OBJECTID":385799},"geometry":{"x":169406.17000000086,"y":2547345.2000000011}},{"attributes":{"ID":385824,"DIS_CODE":0,"TOWNNAME":"安南區","LI":"溪北里","LIN":"9鄰","STREET":"府安路","SECT":"四段","MAREA":" ","LANE":"２４巷","ALLEY":" ","HOUSE_NO":"９號","E_COORD97":169404.73999999999,"N_COORD97":2547349.0899999999,"ADDRESS":"府安路四段２４巷９號","OBJECTID":385800},"geometry":{"x":169404.74000000022,"y":2547349.0899999999}}]}