{"displayFieldName":"TOWNNAME","fieldAliases":{"ID":"ID","DIS_CODE":"DIS_CODE","TOWNNAME":"TOWNNAME","LI":"LI","LIN":"LIN","STREET":"STREET","SECT":"SECT","MAREA":"MAREA","LANE":"LANE","ALLEY":"ALLEY","HOUSE_NO":"HOUSE_NO","E_COORD97":"E_COORD97","N_COORD97":"N_COORD97","ADDRESS":"ADDRESS","OBJECTID":"OBJECTID"},"geometryType":"esriGeometryPoint","spatialReference":{"wkid":102443,"latestWkid":3826},"fields":[{"name":"ID","type":"esriFieldTypeDouble","alias":"ID"},{"name":"DIS_CODE","type":"esriFieldTypeInteger","alias":"DIS_CODE"},{"name":"TOWNNAME","type":"esriFieldTypeString","alias":"TOWNNAME","length":8},{"name":"LI","type":"esriFieldTypeString","alias":"LI","length":8},{"name":"LIN","type":"esriFieldTypeString","alias":"LIN","length":12},{"name":"STREET","type":"esriFieldTypeString","alias":"STREET","length":20},{"name":"SECT","type":"esriFieldTypeString","alias":"SECT","length":8},{"name":"MAREA","type":"esriFieldTypeString","alias":"MAREA","length":12},{"name":"LANE","type":"esriFieldTypeString","alias":"LANE","length":10},{"name":"ALLEY","type":"esriFieldTypeString","alias":"ALLEY","length":10},{"name":"HOUSE_NO","type":"esriFieldTypeString","alias":"HOUSE_NO","length":20},{"name":"E_COORD97","type":"esriFieldTypeDouble","alias":"E_COORD97"},{"name":"N_COORD97","type":"esriFieldTypeDouble","alias":"N_COORD97"},{"name":"ADDRESS","type":"esriFieldTypeString","alias":"ADDRESS","length":50},{"name":"OBJECTID","type":"esriFieldTypeOID","alias":"OBJECTID"}],"features":[{"attributes":{"ID":660828,"DIS_CODE":0,"TOWNNAME":"善化區","LI":"文正里","LIN":"5鄰","STREET":"文正路","SECT":" ","MAREA":" ","LANE":" ","ALLEY":" ","HOUSE_NO":"７７號","E_COORD97":177160.27677699999,"N_COORD97":2559316.20395,"ADDRESS":"文正路７７號","OBJECTID":660801},"geometry":{"x":177160.2767770011,"y":2559316.2039500009}},{"attributes":{"ID":660829,"DIS_CODE":0,"TOWNNAME":"善化區","LI":"文正里","LIN":"6鄰","STREET":"文正路","SECT":" ","MAREA":" ","LANE":"６９巷","ALLEY":" ","HOUSE_NO":"４號","E_COORD97":177064.394126,"N_COORD97":2559333.9839400002,"ADDRESS":"文正路６９巷４號","OBJECTID":660802},"geometry":{"x":177064.39412600175,"y":2559333.9839410037}},{"attributes":{"ID":660830,"DIS_CODE":0,"TOWNNAME":"善化區","LI":"文正里","LIN":"8鄰","STREET":"文正路","SECT":" ","MAREA":" ","LANE":" ","ALLEY":" ","HOUSE_NO":"２９號","E_COORD97":176967.028207,"N_COORD97":2559249.1056499998,"ADDRESS":"文正路２９號","OBJECTID":660803},"geometry":{"x":176967.02820700128,"y":2559249.105653001}},{"attributes":{"ID":660831,"DIS_CODE":0,"TOWNNAME":"善化區","LI":"文正里","LIN":"9鄰","STREET":"文正路","SECT":" ","MAREA":" ","LANE":"２５巷","ALLEY":" ","HOUSE_NO":"１４號","E_COORD97":176968.29957900001,"N_COORD97":2559291.0156299998,"ADDRESS":"文正路２５巷１４號","OBJECTID":660804},"geometry":{"x":176968.29957900103,"y":2559291.0156299993}},{"attributes":{"ID":660832,"DIS_CODE":0,"TOWNNAME":"善化區","LI":"文正里","LIN":"10鄰","STREET":"文正路","SECT":" ","MAREA":" ","LANE":"７９巷","ALLEY":" ","HOUSE_NO":"３６號之１","E_COORD97":177030.91464999999,"N_COORD97":2559433.8905500001,"ADDRESS":"文正路７９巷３６號之１","OBJECTID":660805},"geometry":{"x":177030.91465000063,"y":2559433.8905500043}},{"attributes":{"ID":660833,"DIS_CODE":0,"TOWNNAME":"善化區","LI":"文正里","LIN":"10鄰","STREET":"文正路","SECT":" ","MAREA":" ","LANE":" ","ALLEY":" ","HOUSE_NO":"７號","E_COORD97":176906.28555500001,"N_COORD97":2559272.5740999999,"ADDRESS":"文正路７號","OBJECTID":660806},"geometry":{"x":176906.28555500135,"y":2559272.5741040017}},{"attributes":{"ID":660834,"DIS_CODE":0,"TOWNNAME":"善化區","LI":"文正里","LIN":"13鄰","STREET":"中山路","SECT":" ","MAREA":" ","LANE":" ","ALLEY":" ","HOUSE_NO":"５６０號之５","E_COORD97":176788.93015,"N_COORD97":2559288.05229,"ADDRESS":"中山路５６０號之５","OBJECTID":660807},"geometry":{"x":176788.93015000038,"y":2559288.0522900019}},{"attributes":{"ID":660835,"DIS_CODE":0,"TOWNNAME":"善化區","LI":"文正里","LIN":"13鄰","STREET":"中山路","SECT":" ","MAREA":" ","LANE":" ","ALLEY":" ","HOUSE_NO":"５６０號之４","E_COORD97":176755.66258,"N_COORD97":2559289.9572899998,"ADDRESS":"中山路５６０號之４","OBJECTID":660808},"geometry":{"x":176755.66258000024,"y":2559289.9572900012}},{"attributes":{"ID":660836,"DIS_CODE":0,"TOWNNAME":"永康區","LI":"龍潭里","LIN":"26鄰","STREET":"中山北路","SECT":" ","MAREA":" ","LANE":"４６１巷","ALLEY":"７弄","HOUSE_NO":"１號","E_COORD97":175109.85666200001,"N_COORD97":2547772.2945699999,"ADDRESS":"中山北路４６１巷７弄１號","OBJECTID":660809},"geometry":{"x":175109.85666200146,"y":2547772.2945730016}},{"attributes":{"ID":660837,"DIS_CODE":0,"TOWNNAME":"善化區","LI":"什乃里","LIN":"1鄰","STREET":" ","SECT":" ","MAREA":"什乃","LANE":" ","ALLEY":" ","HOUSE_NO":"１號之２","E_COORD97":176212.90731000001,"N_COORD97":2560326.5244300002,"ADDRESS":"什乃１號之２","OBJECTID":660810},"geometry":{"x":176212.90731000062,"y":2560326.5244300012}},{"attributes":{"ID":660838,"DIS_CODE":0,"TOWNNAME":"善化區","LI":"什乃里","LIN":"5鄰","STREET":" ","SECT":" ","MAREA":"什乃","LANE":" ","ALLEY":" ","HOUSE_NO":"４４號","E_COORD97":176159.50520000001,"N_COORD97":2560481.25269,"ADDRESS":"什乃４４號","OBJECTID":660811},"geometry":{"x":176159.50519999955,"y":2560481.252688}},{"attributes":{"ID":660839,"DIS_CODE":0,"TOWNNAME":"善化區","LI":"什乃里","LIN":"7鄰","STREET":" ","SECT":" ","MAREA":"什乃","LANE":" ","ALLEY":" ","HOUSE_NO":"６２號之１","E_COORD97":176113.94386,"N_COORD97":2560420.92772,"ADDRESS":"什乃６２號之１","OBJECTID":660812},"geometry":{"x":176113.94386000093,"y":2560420.927720001}},{"attributes":{"ID":660840,"DIS_CODE":0,"TOWNNAME":"善化區","LI":"什乃里","LIN":"10鄰","STREET":" ","SECT":" ","MAREA":"什乃","LANE":" ","ALLEY":" ","HOUSE_NO":"１３１號","E_COORD97":176549.42543100001,"N_COORD97":2560107.23789,"ADDRESS":"什乃１３１號","OBJECTID":660813},"geometry":{"x":176549.425431001,"y":2560107.2378900014}},{"attributes":{"ID":660841,"DIS_CODE":0,"TOWNNAME":"永康區","LI":"王行里","LIN":"16鄰","STREET":"永科三路","SECT":" ","MAREA":" ","LANE":" ","ALLEY":" ","HOUSE_NO":"１９號","E_COORD97":176101.66494300001,"N_COORD97":2549253.1814700002,"ADDRESS":"永科三路１９號","OBJECTID":660814},"geometry":{"x":176101.66494300123,"y":2549253.1814699993}},{"attributes":{"ID":660842,"DIS_CODE":0,"TOWNNAME":"善化區","LI":"六分里","LIN":"8鄰","STREET":" ","SECT":" ","MAREA":"溪底寮","LANE":" ","ALLEY":" ","HOUSE_NO":"１７號","E_COORD97":177814.60793599999,"N_COORD97":2561933.3460499998,"ADDRESS":"溪底寮１７號","OBJECTID":660815},"geometry":{"x":177814.60793600138,"y":2561933.3460489996}},{"attributes":{"ID":660843,"DIS_CODE":0,"TOWNNAME":"新營區","LI":"新南里","LIN":"17鄰","STREET":"隋唐街","SECT":" ","MAREA":" ","LANE":"３１巷","ALLEY":"６弄","HOUSE_NO":"１５號","E_COORD97":178660.87362100001,"N_COORD97":2578445.44838,"ADDRESS":"隋唐街３１巷６弄１５號","OBJECTID":660816},"geometry":{"x":178660.87362100091,"y":2578445.4483749997}},{"attributes":{"ID":660844,"DIS_CODE":0,"TOWNNAME":"新營區","LI":"新南里","LIN":"1鄰","STREET":"民治路","SECT":" ","MAREA":" ","LANE":" ","ALLEY":" ","HOUSE_NO":"２０２之５號","E_COORD97":178891.82524199999,"N_COORD97":2578601.9757900001,"ADDRESS":"民治路２０２之５號","OBJECTID":660817},"geometry":{"x":178891.82524200063,"y":2578601.9757899977}},{"attributes":{"ID":660845,"DIS_CODE":0,"TOWNNAME":"新營區","LI":"新南里","LIN":"23鄰","STREET":"復興路","SECT":" ","MAREA":" ","LANE":"６２０巷","ALLEY":"１５弄","HOUSE_NO":"３６號","E_COORD97":177966.959347,"N_COORD97":2578415.8150599999,"ADDRESS":"復興路６２０巷１５弄３６號","OBJECTID":660818},"geometry":{"x":177966.95934700221,"y":2578415.8150580022}},{"attributes":{"ID":660846,"DIS_CODE":0,"TOWNNAME":"永康區","LI":"王行里","LIN":"16鄰","STREET":"永科七路","SECT":" ","MAREA":" ","LANE":" ","ALLEY":" ","HOUSE_NO":"１８號","E_COORD97":176484.23702900001,"N_COORD97":2548615.7476499998,"ADDRESS":"永科七路１８號","OBJECTID":660819},"geometry":{"x":176484.23702900019,"y":2548615.7476470005}},{"attributes":{"ID":660847,"DIS_CODE":0,"TOWNNAME":"永康區","LI":"\u25A0行里","LIN":"7鄰","STREET":"新中街","SECT":" ","MAREA":" ","LANE":" ","ALLEY":" ","HOUSE_NO":"２０２號","E_COORD97":172452.07560700001,"N_COORD97":2548784.5517199999,"ADDRESS":"新中街２０２號","OBJECTID":660820},"geometry":{"x":172452.07560700178,"y":2548784.5517230015}},{"attributes":{"ID":660848,"DIS_CODE":0,"TOWNNAME":"善化區","LI":"什乃里","LIN":"9鄰","STREET":" ","SECT":" ","MAREA":"什乃","LANE":" ","ALLEY":" ","HOUSE_NO":"７９號","E_COORD97":176186.206259,"N_COORD97":2560362.93108,"ADDRESS":"什乃７９號","OBJECTID":660821},"geometry":{"x":176186.20625900012,"y":2560362.9310849998}},{"attributes":{"ID":660849,"DIS_CODE":0,"TOWNNAME":"安南區","LI":"布袋里","LIN":"5鄰","STREET":"長和路","SECT":"四段","MAREA":" ","LANE":"２５３巷","ALLEY":" ","HOUSE_NO":"１３６號","E_COORD97":168429.14534799999,"N_COORD97":2551503.0684099998,"ADDRESS":"長和路四段２５３巷１３６號","OBJECTID":660822},"geometry":{"x":168429.14534800034,"y":2551503.0684050024}},{"attributes":{"ID":660850,"DIS_CODE":0,"TOWNNAME":"永康區","LI":"\u25A0行里","LIN":"9鄰","STREET":"正南五街","SECT":" ","MAREA":" ","LANE":" ","ALLEY":" ","HOUSE_NO":"３５號","E_COORD97":172116.34475700001,"N_COORD97":2547901.3730299999,"ADDRESS":"正南五街３５號","OBJECTID":660823},"geometry":{"x":172116.34475699998,"y":2547901.3730330002}},{"attributes":{"ID":660851,"DIS_CODE":0,"TOWNNAME":"新營區","LI":"新南里","LIN":"17鄰","STREET":"隋唐街","SECT":" ","MAREA":" ","LANE":"６９巷","ALLEY":" ","HOUSE_NO":"１號","E_COORD97":178620.615999,"N_COORD97":2578503.5508400002,"ADDRESS":"隋唐街６９巷１號","OBJECTID":660824},"geometry":{"x":178620.61599900015,"y":2578503.5508440007}},{"attributes":{"ID":660852,"DIS_CODE":0,"TOWNNAME":"新營區","LI":"新南里","LIN":"17鄰","STREET":"隋唐街","SECT":" ","MAREA":" ","LANE":"６９巷","ALLEY":" ","HOUSE_NO":"３號","E_COORD97":178618.92094099999,"N_COORD97":2578499.9525100002,"ADDRESS":"隋唐街６９巷３號","OBJECTID":660825},"geometry":{"x":178618.9209410008,"y":2578499.9525119998}},{"attributes":{"ID":660853,"DIS_CODE":0,"TOWNNAME":"新營區","LI":"新南里","LIN":"17鄰","STREET":"隋唐街","SECT":" ","MAREA":" ","LANE":"６９巷","ALLEY":" ","HOUSE_NO":"５號","E_COORD97":178618.28529500001,"N_COORD97":2578496.5658499999,"ADDRESS":"隋唐街６９巷５號","OBJECTID":660826},"geometry":{"x":178618.2852950003,"y":2578496.565847002}},{"attributes":{"ID":660854,"DIS_CODE":0,"TOWNNAME":"新營區","LI":"新南里","LIN":"17鄰","STREET":"隋唐街","SECT":" ","MAREA":" ","LANE":"６９巷","ALLEY":" ","HOUSE_NO":"７號","E_COORD97":178617.014001,"N_COORD97":2578492.9675199999,"ADDRESS":"隋唐街６９巷７號","OBJECTID":660827},"geometry":{"x":178617.01400100067,"y":2578492.9675159995}},{"attributes":{"ID":660855,"DIS_CODE":0,"TOWNNAME":"新營區","LI":"新南里","LIN":"17鄰","STREET":"隋唐街","SECT":" ","MAREA":" ","LANE":"６９巷","ALLEY":" ","HOUSE_NO":"１７號","E_COORD97":178609.386241,"N_COORD97":2578459.73587,"ADDRESS":"隋唐街６９巷１７號","OBJECTID":660828},"geometry":{"x":178609.38624100015,"y":2578459.7358669993}},{"attributes":{"ID":660856,"DIS_CODE":0,"TOWNNAME":"新營區","LI":"新南里","LIN":"17鄰","STREET":"隋唐街","SECT":" ","MAREA":" ","LANE":"１１５巷","ALLEY":"９弄","HOUSE_NO":"１１號","E_COORD97":178529.93040899999,"N_COORD97":2578474.76419,"ADDRESS":"隋唐街１１５巷９弄１１號","OBJECTID":660829},"geometry":{"x":178529.93040899932,"y":2578474.764192}},{"attributes":{"ID":660857,"DIS_CODE":0,"TOWNNAME":"新營區","LI":"新南里","LIN":"17鄰","STREET":"隋唐街","SECT":" ","MAREA":" ","LANE":"１１５巷","ALLEY":"９弄","HOUSE_NO":"２６號","E_COORD97":178544.33840000001,"N_COORD97":2578451.5867099999,"ADDRESS":"隋唐街１１５巷９弄２６號","OBJECTID":660830},"geometry":{"x":178544.33840000164,"y":2578451.5867050029}},{"attributes":{"ID":660858,"DIS_CODE":0,"TOWNNAME":"善化區","LI":"田寮里","LIN":"8鄰","STREET":" ","SECT":" ","MAREA":"六分寮","LANE":" ","ALLEY":" ","HOUSE_NO":"８８號之２","E_COORD97":178555.32438999999,"N_COORD97":2561449.9985099998,"ADDRESS":"六分寮８８號之２","OBJECTID":660831},"geometry":{"x":178555.32439000066,"y":2561449.9985100012}},{"attributes":{"ID":660859,"DIS_CODE":0,"TOWNNAME":"仁德區","LI":"成功里","LIN":"24鄰","STREET":"保華路","SECT":" ","MAREA":" ","LANE":"２６５巷","ALLEY":" ","HOUSE_NO":"１８號","E_COORD97":170615.74819899999,"N_COORD97":2539932.5016899998,"ADDRESS":"保華路２６５巷１８號","OBJECTID":660832},"geometry":{"x":170615.74819900095,"y":2539932.5016859993}},{"attributes":{"ID":660860,"DIS_CODE":0,"TOWNNAME":"善化區","LI":"田寮里","LIN":"7鄰","STREET":" ","SECT":" ","MAREA":"六分寮","LANE":" ","ALLEY":" ","HOUSE_NO":"８６號","E_COORD97":178505.73671500001,"N_COORD97":2561437.7218499999,"ADDRESS":"六分寮８６號","OBJECTID":660833},"geometry":{"x":178505.73671500012,"y":2561437.7218529992}},{"attributes":{"ID":660861,"DIS_CODE":0,"TOWNNAME":"東山區","LI":"東原里","LIN":"17鄰","STREET":" ","SECT":" ","MAREA":"瓦厝子","LANE":" ","ALLEY":" ","HOUSE_NO":"１９號之１","E_COORD97":193719.96115700001,"N_COORD97":2574386.76883,"ADDRESS":"瓦厝子１９號之１","OBJECTID":660834},"geometry":{"x":193719.96115700062,"y":2574386.7688320037}},{"attributes":{"ID":660862,"DIS_CODE":0,"TOWNNAME":"善化區","LI":"小新里","LIN":"21鄰","STREET":" ","SECT":" ","MAREA":"小新營","LANE":" ","ALLEY":" ","HOUSE_NO":"１號之２","E_COORD97":180104.35258999999,"N_COORD97":2558295.0853400002,"ADDRESS":"小新營１號之２","OBJECTID":660835},"geometry":{"x":180104.35259000026,"y":2558295.0853400026}},{"attributes":{"ID":660863,"DIS_CODE":0,"TOWNNAME":"東山區","LI":"東原里","LIN":"22鄰","STREET":" ","SECT":" ","MAREA":"瓦厝子","LANE":" ","ALLEY":" ","HOUSE_NO":"５７號之２","E_COORD97":193725.468077,"N_COORD97":2577198.7589799999,"ADDRESS":"瓦厝子５７號之２","OBJECTID":660836},"geometry":{"x":193725.46807700209,"y":2577198.7589800023}},{"attributes":{"ID":660864,"DIS_CODE":0,"TOWNNAME":"東山區","LI":"青山里","LIN":"4鄰","STREET":" ","SECT":" ","MAREA":"青山","LANE":" ","ALLEY":" ","HOUSE_NO":"２０號之１５","E_COORD97":195693.23884100001,"N_COORD97":2575362.65747,"ADDRESS":"青山２０號之１５","OBJECTID":660837},"geometry":{"x":195693.23884100094,"y":2575362.657471003}},{"attributes":{"ID":660865,"DIS_CODE":0,"TOWNNAME":"東山區","LI":"青山里","LIN":"2鄰","STREET":" ","SECT":" ","MAREA":"青山","LANE":" ","ALLEY":" ","HOUSE_NO":"１４號","E_COORD97":195451.67567900001,"N_COORD97":2575213.1150500001,"ADDRESS":"青山１４號","OBJECTID":660838},"geometry":{"x":195451.67567900009,"y":2575213.1150519997}},{"attributes":{"ID":660866,"DIS_CODE":0,"TOWNNAME":"東山區","LI":"青山里","LIN":"1鄰","STREET":" ","SECT":" ","MAREA":"青山","LANE":" ","ALLEY":" ","HOUSE_NO":"６號","E_COORD97":195390.99365700001,"N_COORD97":2575127.0726000001,"ADDRESS":"青山６號","OBJECTID":660839},"geometry":{"x":195390.99365700129,"y":2575127.0725979991}},{"attributes":{"ID":660867,"DIS_CODE":0,"TOWNNAME":"永康區","LI":"\u25A0行里","LIN":"47鄰","STREET":"新中街","SECT":" ","MAREA":" ","LANE":"２８１巷","ALLEY":" ","HOUSE_NO":"１０號","E_COORD97":172465.882044,"N_COORD97":2548893.7715699999,"ADDRESS":"新中街２８１巷１０號","OBJECTID":660840},"geometry":{"x":172465.88204399962,"y":2548893.7715709992}},{"attributes":{"ID":660868,"DIS_CODE":0,"TOWNNAME":"歸仁區","LI":"看東里","LIN":"6鄰","STREET":"成功路","SECT":"一段","MAREA":" ","LANE":"１８７巷","ALLEY":"１３弄","HOUSE_NO":"１７之１號","E_COORD97":178526.97122199999,"N_COORD97":2540108.5828499999,"ADDRESS":"成功路一段１８７巷１３弄１７之１號","OBJECTID":660841},"geometry":{"x":178526.9712220002,"y":2540108.5828510001}},{"attributes":{"ID":660869,"DIS_CODE":0,"TOWNNAME":"永康區","LI":"\u25A0行里","LIN":"47鄰","STREET":"新中街","SECT":" ","MAREA":" ","LANE":"２８１巷","ALLEY":" ","HOUSE_NO":"１２號","E_COORD97":172462.91472599999,"N_COORD97":2548895.0415699999,"ADDRESS":"新中街２８１巷１２號","OBJECTID":660842},"geometry":{"x":172462.91472600028,"y":2548895.0415710025}},{"attributes":{"ID":660870,"DIS_CODE":0,"TOWNNAME":"永康區","LI":"\u25A0行里","LIN":"47鄰","STREET":"新中街","SECT":" ","MAREA":" ","LANE":"２８１巷","ALLEY":" ","HOUSE_NO":"１６號","E_COORD97":172460.15935999999,"N_COORD97":2548895.8882399998,"ADDRESS":"新中街２８１巷１６號","OBJECTID":660843},"geometry":{"x":172460.15936000179,"y":2548895.8882369995}},{"attributes":{"ID":660871,"DIS_CODE":0,"TOWNNAME":"永康區","LI":"\u25A0行里","LIN":"47鄰","STREET":"新中街","SECT":" ","MAREA":" ","LANE":"２８１巷","ALLEY":" ","HOUSE_NO":"１８號","E_COORD97":172457.40399300001,"N_COORD97":2548896.9465700001,"ADDRESS":"新中街２８１巷１８號","OBJECTID":660844},"geometry":{"x":172457.40399300121,"y":2548896.9465700034}},{"attributes":{"ID":660872,"DIS_CODE":0,"TOWNNAME":"永康區","LI":"\u25A0行里","LIN":"47鄰","STREET":"新中街","SECT":" ","MAREA":" ","LANE":"２８１巷","ALLEY":" ","HOUSE_NO":"２０號","E_COORD97":172455.49643100001,"N_COORD97":2548898.0049000001,"ADDRESS":"新中街２８１巷２０號","OBJECTID":660845},"geometry":{"x":172455.49643100053,"y":2548898.0049020015}},{"attributes":{"ID":660873,"DIS_CODE":0,"TOWNNAME":"永康區","LI":"\u25A0行里","LIN":"47鄰","STREET":"新中街","SECT":" ","MAREA":" ","LANE":"２８１巷","ALLEY":" ","HOUSE_NO":"２２號","E_COORD97":172453.16496699999,"N_COORD97":2548898.6398999998,"ADDRESS":"新中街２８１巷２２號","OBJECTID":660846},"geometry":{"x":172453.16496700048,"y":2548898.6399020012}},{"attributes":{"ID":660874,"DIS_CODE":0,"TOWNNAME":"永康區","LI":"\u25A0行里","LIN":"47鄰","STREET":"新中街","SECT":" ","MAREA":" ","LANE":"２８１巷","ALLEY":" ","HOUSE_NO":"２６號","E_COORD97":172449.77374599999,"N_COORD97":2548898.9574000002,"ADDRESS":"新中街２８１巷２６號","OBJECTID":660847},"geometry":{"x":172449.7737460006,"y":2548898.9574020039}},{"attributes":{"ID":660875,"DIS_CODE":0,"TOWNNAME":"永康區","LI":"\u25A0行里","LIN":"48鄰","STREET":"新民街","SECT":" ","MAREA":" ","LANE":" ","ALLEY":" ","HOUSE_NO":"３９之３號","E_COORD97":172391.911043,"N_COORD97":2548940.44405,"ADDRESS":"新民街３９之３號","OBJECTID":660848},"geometry":{"x":172391.91104300134,"y":2548940.4440460019}},{"attributes":{"ID":660876,"DIS_CODE":0,"TOWNNAME":"永康區","LI":"\u25A0行里","LIN":"48鄰","STREET":"新民街","SECT":" ","MAREA":" ","LANE":" ","ALLEY":" ","HOUSE_NO":"３９之２號","E_COORD97":172395.93811700001,"N_COORD97":2548939.8090499998,"ADDRESS":"新民街３９之２號","OBJECTID":660849},"geometry":{"x":172395.93811700121,"y":2548939.8090470023}},{"attributes":{"ID":660877,"DIS_CODE":0,"TOWNNAME":"永康區","LI":"\u25A0行里","LIN":"48鄰","STREET":"新民街","SECT":" ","MAREA":" ","LANE":" ","ALLEY":" ","HOUSE_NO":"３９之１號","E_COORD97":172400.38909499999,"N_COORD97":2548939.17405,"ADDRESS":"新民街３９之１號","OBJECTID":660850},"geometry":{"x":172400.38909500185,"y":2548939.1740470026}},{"attributes":{"ID":660878,"DIS_CODE":0,"TOWNNAME":"永康區","LI":"\u25A0行里","LIN":"48鄰","STREET":"新民街","SECT":" ","MAREA":" ","LANE":" ","ALLEY":" ","HOUSE_NO":"３９號","E_COORD97":172405.47592600001,"N_COORD97":2548938.5390499998,"ADDRESS":"新民街３９號","OBJECTID":660851},"geometry":{"x":172405.47592599969,"y":2548938.5390469991}},{"attributes":{"ID":660879,"DIS_CODE":0,"TOWNNAME":"永康區","LI":"\u25A0行里","LIN":"48鄰","STREET":"新民街","SECT":" ","MAREA":" ","LANE":" ","ALLEY":" ","HOUSE_NO":"３７號","E_COORD97":172410.13885399999,"N_COORD97":2548937.6923799999,"ADDRESS":"新民街３７號","OBJECTID":660852},"geometry":{"x":172410.13885399979,"y":2548937.692381002}},{"attributes":{"ID":660880,"DIS_CODE":0,"TOWNNAME":"永康區","LI":"\u25A0行里","LIN":"48鄰","STREET":"新民街","SECT":" ","MAREA":" ","LANE":" ","ALLEY":" ","HOUSE_NO":"３５號","E_COORD97":172414.37787999999,"N_COORD97":2548936.63405,"ADDRESS":"新民街３５號","OBJECTID":660853},"geometry":{"x":172414.37787999958,"y":2548936.6340480037}},{"attributes":{"ID":660881,"DIS_CODE":0,"TOWNNAME":"永康區","LI":"\u25A0行里","LIN":"48鄰","STREET":"新民街","SECT":" ","MAREA":" ","LANE":" ","ALLEY":" ","HOUSE_NO":"３３號","E_COORD97":172417.557149,"N_COORD97":2548935.7873800001,"ADDRESS":"新民街３３號","OBJECTID":660854},"geometry":{"x":172417.55714900233,"y":2548935.7873820011}},{"attributes":{"ID":660882,"DIS_CODE":0,"TOWNNAME":"永康區","LI":"\u25A0行里","LIN":"48鄰","STREET":"新民街","SECT":" ","MAREA":" ","LANE":" ","ALLEY":" ","HOUSE_NO":"３１號","E_COORD97":172422.43202899999,"N_COORD97":2548934.9407199998,"ADDRESS":"新民街３１號","OBJECTID":660855},"geometry":{"x":172422.43202899955,"y":2548934.9407160003}},{"attributes":{"ID":660883,"DIS_CODE":0,"TOWNNAME":"永康區","LI":"\u25A0行里","LIN":"48鄰","STREET":"新民街","SECT":" ","MAREA":" ","LANE":" ","ALLEY":" ","HOUSE_NO":"２９號","E_COORD97":172426.88300599999,"N_COORD97":2548934.09405,"ADDRESS":"新民街２９號","OBJECTID":660856},"geometry":{"x":172426.88300600089,"y":2548934.0940499976}},{"attributes":{"ID":660884,"DIS_CODE":0,"TOWNNAME":"山上區","LI":"新莊里","LIN":"5鄰","STREET":" ","SECT":" ","MAREA":"新庄","LANE":" ","ALLEY":" ","HOUSE_NO":"６０之１號","E_COORD97":184534.84739800001,"N_COORD97":2554885.7495200001,"ADDRESS":"新庄６０之１號","OBJECTID":660857},"geometry":{"x":184534.84739800077,"y":2554885.7495240029}},{"attributes":{"ID":660885,"DIS_CODE":0,"TOWNNAME":"永康區","LI":"\u25A0行里","LIN":"48鄰","STREET":"新民街","SECT":" ","MAREA":" ","LANE":" ","ALLEY":" ","HOUSE_NO":"２７號","E_COORD97":172431.12203200001,"N_COORD97":2548932.8240499999,"ADDRESS":"新民街２７號","OBJECTID":660858},"geometry":{"x":172431.12203200068,"y":2548932.8240499999}},{"attributes":{"ID":660886,"DIS_CODE":0,"TOWNNAME":"永康區","LI":"\u25A0行里","LIN":"48鄰","STREET":"新民街","SECT":" ","MAREA":" ","LANE":" ","ALLEY":" ","HOUSE_NO":"２５號","E_COORD97":172434.51325300001,"N_COORD97":2548932.1890500002,"ADDRESS":"新民街２５號","OBJECTID":660859},"geometry":{"x":172434.5132530015,"y":2548932.1890510041}},{"attributes":{"ID":660887,"DIS_CODE":0,"TOWNNAME":"永康區","LI":"\u25A0行里","LIN":"48鄰","STREET":"新民街","SECT":" ","MAREA":" ","LANE":" ","ALLEY":" ","HOUSE_NO":"２３號","E_COORD97":172437.90447400001,"N_COORD97":2548930.9190500001,"ADDRESS":"新民街２３號","OBJECTID":660860},"geometry":{"x":172437.90447400138,"y":2548930.919050999}},{"attributes":{"ID":660888,"DIS_CODE":0,"TOWNNAME":"永康區","LI":"\u25A0行里","LIN":"48鄰","STREET":"新民街","SECT":" ","MAREA":" ","LANE":" ","ALLEY":" ","HOUSE_NO":"２１號","E_COORD97":172441.93154799999,"N_COORD97":2548930.2840499999,"ADDRESS":"新民街２１號","OBJECTID":660861},"geometry":{"x":172441.93154800124,"y":2548930.2840519994}},{"attributes":{"ID":660889,"DIS_CODE":0,"TOWNNAME":"永康區","LI":"\u25A0行里","LIN":"48鄰","STREET":"新民街","SECT":" ","MAREA":" ","LANE":" ","ALLEY":" ","HOUSE_NO":"１９號","E_COORD97":172445.53472,"N_COORD97":2548929.43738,"ADDRESS":"新民街１９號","OBJECTID":660862},"geometry":{"x":172445.53471999988,"y":2548929.4373850022}},{"attributes":{"ID":660890,"DIS_CODE":0,"TOWNNAME":"仁德區","LI":"成功里","LIN":"19鄰","STREET":"成功一街","SECT":" ","MAREA":" ","LANE":" ","ALLEY":" ","HOUSE_NO":"２００號","E_COORD97":170536.324376,"N_COORD97":2539737.19172,"ADDRESS":"成功一街２００號","OBJECTID":660863},"geometry":{"x":170536.32437600009,"y":2539737.1917180046}},{"attributes":{"ID":660891,"DIS_CODE":0,"TOWNNAME":"永康區","LI":"\u25A0行里","LIN":"48鄰","STREET":"新民街","SECT":" ","MAREA":" ","LANE":" ","ALLEY":" ","HOUSE_NO":"１７號","E_COORD97":172448.92594099999,"N_COORD97":2548928.1673900001,"ADDRESS":"新民街１７號","OBJECTID":660864},"geometry":{"x":172448.92594099976,"y":2548928.1673859991}},{"attributes":{"ID":660892,"DIS_CODE":0,"TOWNNAME":"永康區","LI":"\u25A0行里","LIN":"48鄰","STREET":"新民街","SECT":" ","MAREA":" ","LANE":" ","ALLEY":" ","HOUSE_NO":"１５號","E_COORD97":172452.10521000001,"N_COORD97":2548927.3207200002,"ADDRESS":"新民街１５號","OBJECTID":660865},"geometry":{"x":172452.10521000065,"y":2548927.3207200021}},{"attributes":{"ID":660893,"DIS_CODE":0,"TOWNNAME":"永康區","LI":"\u25A0行里","LIN":"48鄰","STREET":"新民街","SECT":" ","MAREA":" ","LANE":" ","ALLEY":" ","HOUSE_NO":"１３號","E_COORD97":172455.28448,"N_COORD97":2548926.2623899998,"ADDRESS":"新民街１３號","OBJECTID":660866},"geometry":{"x":172455.28447999991,"y":2548926.2623870037}},{"attributes":{"ID":660894,"DIS_CODE":0,"TOWNNAME":"永康區","LI":"\u25A0行里","LIN":"48鄰","STREET":"新民街","SECT":" ","MAREA":" ","LANE":" ","ALLEY":" ","HOUSE_NO":"１１號","E_COORD97":172458.67569999999,"N_COORD97":2548926.2623899998,"ADDRESS":"新民街１１號","OBJECTID":660867},"geometry":{"x":172458.67570000049,"y":2548926.2623870037}},{"attributes":{"ID":660895,"DIS_CODE":0,"TOWNNAME":"永康區","LI":"\u25A0行里","LIN":"47鄰","STREET":"新中街","SECT":" ","MAREA":" ","LANE":"２８１巷","ALLEY":" ","HOUSE_NO":"２８號","E_COORD97":172446.17057399999,"N_COORD97":2548900.4390699998,"ADDRESS":"新中街２８１巷２８號","OBJECTID":660868},"geometry":{"x":172446.17057400197,"y":2548900.4390680008}},{"attributes":{"ID":660896,"DIS_CODE":0,"TOWNNAME":"永康區","LI":"\u25A0行里","LIN":"47鄰","STREET":"新中街","SECT":" ","MAREA":" ","LANE":"２８１巷","ALLEY":" ","HOUSE_NO":"３０號","E_COORD97":172443.627159,"N_COORD97":2548902.1324,"ADDRESS":"新中街２８１巷３０號","OBJECTID":660869},"geometry":{"x":172443.62715900131,"y":2548902.1324000023}},{"attributes":{"ID":660897,"DIS_CODE":0,"TOWNNAME":"山上區","LI":"玉\u25A0里","LIN":"1鄰","STREET":" ","SECT":" ","MAREA":"蚵\u25A0潭","LANE":" ","ALLEY":" ","HOUSE_NO":"１之９號","E_COORD97":187128.83197599999,"N_COORD97":2555438.92539,"ADDRESS":"蚵\u25A0潭１之９號","OBJECTID":660870},"geometry":{"x":187128.83197600115,"y":2555438.9253889974}},{"attributes":{"ID":660898,"DIS_CODE":0,"TOWNNAME":"永康區","LI":"\u25A0行里","LIN":"47鄰","STREET":"新中街","SECT":" ","MAREA":" ","LANE":"２８１巷","ALLEY":" ","HOUSE_NO":"２號","E_COORD97":172479.658879,"N_COORD97":2548890.2790700002,"ADDRESS":"新中街２８１巷２號","OBJECTID":660871},"geometry":{"x":172479.65887900069,"y":2548890.2790730018}},{"attributes":{"ID":660899,"DIS_CODE":0,"TOWNNAME":"永康區","LI":"\u25A0行里","LIN":"47鄰","STREET":"新中街","SECT":" ","MAREA":" ","LANE":"２８１巷","ALLEY":" ","HOUSE_NO":"６號","E_COORD97":172474.78399900001,"N_COORD97":2548891.5490700002,"ADDRESS":"新中街２８１巷６號","OBJECTID":660872},"geometry":{"x":172474.78399900161,"y":2548891.5490730014}},{"attributes":{"ID":660900,"DIS_CODE":0,"TOWNNAME":"永康區","LI":"\u25A0行里","LIN":"47鄰","STREET":"新中街","SECT":" ","MAREA":" ","LANE":"２８１巷","ALLEY":" ","HOUSE_NO":"８號","E_COORD97":172469.273265,"N_COORD97":2548892.8190700002,"ADDRESS":"新中街２８１巷８號","OBJECTID":660873},"geometry":{"x":172469.27326500043,"y":2548892.8190720007}},{"attributes":{"ID":660901,"DIS_CODE":0,"TOWNNAME":"山上區","LI":"玉\u25A0里","LIN":"2鄰","STREET":" ","SECT":" ","MAREA":"蚵\u25A0潭","LANE":" ","ALLEY":" ","HOUSE_NO":"２１之３１號","E_COORD97":186776.276537,"N_COORD97":2555484.2220299998,"ADDRESS":"蚵\u25A0潭２１之３１號","OBJECTID":660874},"geometry":{"x":186776.27653700113,"y":2555484.222031001}},{"attributes":{"ID":660902,"DIS_CODE":0,"TOWNNAME":"官田區","LI":"二鎮里","LIN":"1鄰","STREET":"建業路","SECT":" ","MAREA":" ","LANE":" ","ALLEY":" ","HOUSE_NO":"３４號","E_COORD97":180645.54285699999,"N_COORD97":2567627.3516199999,"ADDRESS":"建業路３４號","OBJECTID":660875},"geometry":{"x":180645.54285699967,"y":2567627.3516189996}},{"attributes":{"ID":660903,"DIS_CODE":0,"TOWNNAME":"山上區","LI":"玉\u25A0里","LIN":"3鄰","STREET":" ","SECT":" ","MAREA":"蚵\u25A0潭","LANE":" ","ALLEY":" ","HOUSE_NO":"２６之２號","E_COORD97":188365.23195799999,"N_COORD97":2555931.9423699998,"ADDRESS":"蚵\u25A0潭２６之２號","OBJECTID":660876},"geometry":{"x":188365.23195800185,"y":2555931.9423710015}},{"attributes":{"ID":660904,"DIS_CODE":0,"TOWNNAME":"官田區","LI":"二鎮里","LIN":"1鄰","STREET":"建業路","SECT":" ","MAREA":" ","LANE":" ","ALLEY":" ","HOUSE_NO":"３８號","E_COORD97":180545.1177,"N_COORD97":2567630.9499499998,"ADDRESS":"建業路３８號","OBJECTID":660877},"geometry":{"x":180545.11770000122,"y":2567630.9499500021}},{"attributes":{"ID":660905,"DIS_CODE":0,"TOWNNAME":"東山區","LI":"青山里","LIN":"4鄰","STREET":" ","SECT":" ","MAREA":"青山","LANE":" ","ALLEY":" ","HOUSE_NO":"２０號之２２","E_COORD97":195662.50927099999,"N_COORD97":2575383.8146600001,"ADDRESS":"青山２０號之２２","OBJECTID":660878},"geometry":{"x":195662.50927100051,"y":2575383.8146560006}},{"attributes":{"ID":660906,"DIS_CODE":0,"TOWNNAME":"永康區","LI":"\u25A0行里","LIN":"48鄰","STREET":"新民街","SECT":" ","MAREA":" ","LANE":" ","ALLEY":" ","HOUSE_NO":"９號","E_COORD97":172462.278872,"N_COORD97":2548924.9923899998,"ADDRESS":"新民街９號","OBJECTID":660879},"geometry":{"x":172462.27887200098,"y":2548924.9923879988}},{"attributes":{"ID":660907,"DIS_CODE":0,"TOWNNAME":"永康區","LI":"\u25A0行里","LIN":"48鄰","STREET":"新民街","SECT":" ","MAREA":" ","LANE":" ","ALLEY":" ","HOUSE_NO":"７號","E_COORD97":172465.67009299999,"N_COORD97":2548923.9340599999,"ADDRESS":"新民街７號","OBJECTID":660880},"geometry":{"x":172465.67009300087,"y":2548923.9340550005}},{"attributes":{"ID":660908,"DIS_CODE":0,"TOWNNAME":"永康區","LI":"\u25A0行里","LIN":"48鄰","STREET":"新民街","SECT":" ","MAREA":" ","LANE":" ","ALLEY":" ","HOUSE_NO":"５號","E_COORD97":172470.12106999999,"N_COORD97":2548922.6640599999,"ADDRESS":"新民街５號","OBJECTID":660881},"geometry":{"x":172470.12107000034,"y":2548922.6640560012}},{"attributes":{"ID":660909,"DIS_CODE":0,"TOWNNAME":"永康區","LI":"\u25A0行里","LIN":"48鄰","STREET":"新民街","SECT":" ","MAREA":" ","LANE":" ","ALLEY":" ","HOUSE_NO":"３號","E_COORD97":172475.419853,"N_COORD97":2548921.1823900002,"ADDRESS":"新民街３號","OBJECTID":660882},"geometry":{"x":172475.4198530009,"y":2548921.1823900044}},{"attributes":{"ID":660910,"DIS_CODE":0,"TOWNNAME":"永康區","LI":"\u25A0行里","LIN":"48鄰","STREET":"新民街","SECT":" ","MAREA":" ","LANE":" ","ALLEY":" ","HOUSE_NO":"１號","E_COORD97":172484.95766099999,"N_COORD97":2548918.4307200001,"ADDRESS":"新民街１號","OBJECTID":660883},"geometry":{"x":172484.95766100008,"y":2548918.4307250027}},{"attributes":{"ID":660911,"DIS_CODE":0,"TOWNNAME":"永康區","LI":"\u25A0洲里","LIN":"40鄰","STREET":"洲工街","SECT":" ","MAREA":" ","LANE":" ","ALLEY":" ","HOUSE_NO":"１３９號","E_COORD97":170637.802131,"N_COORD97":2548525.4717700002,"ADDRESS":"洲工街１３９號","OBJECTID":660884},"geometry":{"x":170637.80213100091,"y":2548525.4717699997}},{"attributes":{"ID":660912,"DIS_CODE":0,"TOWNNAME":"永康區","LI":"\u25A0洲里","LIN":"40鄰","STREET":"洲工街","SECT":" ","MAREA":" ","LANE":" ","ALLEY":" ","HOUSE_NO":"１４１號","E_COORD97":170640.345547,"N_COORD97":2548530.5517699998,"ADDRESS":"洲工街１４１號","OBJECTID":660885},"geometry":{"x":170640.34554700088,"y":2548530.5517680012}},{"attributes":{"ID":660913,"DIS_CODE":0,"TOWNNAME":"永康區","LI":"\u25A0洲里","LIN":"40鄰","STREET":"洲工街","SECT":" ","MAREA":" ","LANE":" ","ALLEY":" ","HOUSE_NO":"１４３號","E_COORD97":170642.888962,"N_COORD97":2548534.99676,"ADDRESS":"洲工街１４３號","OBJECTID":660886},"geometry":{"x":170642.88896199968,"y":2548534.9967650007}},{"attributes":{"ID":660914,"DIS_CODE":0,"TOWNNAME":"山上區","LI":"玉\u25A0里","LIN":"5鄰","STREET":" ","SECT":" ","MAREA":"中坑","LANE":" ","ALLEY":" ","HOUSE_NO":"１２之１號","E_COORD97":187590.472259,"N_COORD97":2554666.5166799999,"ADDRESS":"中坑１２之１號","OBJECTID":660887},"geometry":{"x":187590.47225900181,"y":2554666.5166779999}},{"attributes":{"ID":660915,"DIS_CODE":0,"TOWNNAME":"永康區","LI":"\u25A0洲里","LIN":"17鄰","STREET":"中正南路","SECT":" ","MAREA":" ","LANE":"７４３巷","ALLEY":" ","HOUSE_NO":"８之１１號","E_COORD97":171592.430761,"N_COORD97":2548922.4523900002,"ADDRESS":"中正南路７４３巷８之１１號","OBJECTID":660888},"geometry":{"x":171592.43076100014,"y":2548922.452389}},{"attributes":{"ID":660916,"DIS_CODE":0,"TOWNNAME":"山上區","LI":"新莊里","LIN":"7鄰","STREET":" ","SECT":" ","MAREA":"大庄","LANE":" ","ALLEY":" ","HOUSE_NO":"１４號之４","E_COORD97":184072.284632,"N_COORD97":2554692.9815500001,"ADDRESS":"大庄１４號之４","OBJECTID":660889},"geometry":{"x":184072.28463200107,"y":2554692.9815460015}},{"attributes":{"ID":660917,"DIS_CODE":0,"TOWNNAME":"善化區","LI":"田寮里","LIN":"14鄰","STREET":" ","SECT":" ","MAREA":"六分寮","LANE":" ","ALLEY":" ","HOUSE_NO":"１４６號","E_COORD97":178691.339657,"N_COORD97":2561425.2335299999,"ADDRESS":"六分寮１４６號","OBJECTID":660890},"geometry":{"x":178691.3396570012,"y":2561425.2335270029}},{"attributes":{"ID":660918,"DIS_CODE":0,"TOWNNAME":"善化區","LI":"田寮里","LIN":"3鄰","STREET":" ","SECT":" ","MAREA":"六分寮","LANE":" ","ALLEY":" ","HOUSE_NO":"４０號之５","E_COORD97":178369.65546000001,"N_COORD97":2561025.1837399998,"ADDRESS":"六分寮４０號之５","OBJECTID":660891},"geometry":{"x":178369.65546000097,"y":2561025.1837400012}},{"attributes":{"ID":660919,"DIS_CODE":0,"TOWNNAME":"東山區","LI":"青山里","LIN":"9鄰","STREET":" ","SECT":" ","MAREA":"青山","LANE":" ","ALLEY":" ","HOUSE_NO":"７５之５號","E_COORD97":197907.82681500001,"N_COORD97":2574888.0957999998,"ADDRESS":"青山７５之５號","OBJECTID":660892},"geometry":{"x":197907.82681500074,"y":2574888.0957989991}},{"attributes":{"ID":660920,"DIS_CODE":0,"TOWNNAME":"山上區","LI":"新莊里","LIN":"7鄰","STREET":" ","SECT":" ","MAREA":"大庄","LANE":" ","ALLEY":" ","HOUSE_NO":"１８號","E_COORD97":184471.873815,"N_COORD97":2554031.0178,"ADDRESS":"大庄１８號","OBJECTID":660893},"geometry":{"x":184471.87381500006,"y":2554031.0178000014}},{"attributes":{"ID":660921,"DIS_CODE":0,"TOWNNAME":"東山區","LI":"青山里","LIN":"9鄰","STREET":" ","SECT":" ","MAREA":"青山","LANE":" ","ALLEY":" ","HOUSE_NO":"７５之３號","E_COORD97":198110.73563499999,"N_COORD97":2574804.2758399998,"ADDRESS":"青山７５之３號","OBJECTID":660894},"geometry":{"x":198110.73563500121,"y":2574804.2758440003}},{"attributes":{"ID":660922,"DIS_CODE":0,"TOWNNAME":"麻豆區","LI":"安西里","LIN":"6鄰","STREET":" ","SECT":" ","MAREA":"安業","LANE":" ","ALLEY":" ","HOUSE_NO":"２４３號","E_COORD97":172403.645235,"N_COORD97":2561862.9725100002,"ADDRESS":"安業２４３號","OBJECTID":660895},"geometry":{"x":172403.64523500204,"y":2561862.9725090005}},{"attributes":{"ID":660923,"DIS_CODE":0,"TOWNNAME":"麻豆區","LI":"安西里","LIN":"1鄰","STREET":" ","SECT":" ","MAREA":"東溪洲","LANE":" ","ALLEY":" ","HOUSE_NO":"１１號","E_COORD97":172400.04340699999,"N_COORD97":2561390.21526,"ADDRESS":"東溪洲１１號","OBJECTID":660896},"geometry":{"x":172400.0434070006,"y":2561390.2152650021}},{"attributes":{"ID":660924,"DIS_CODE":0,"TOWNNAME":"麻豆區","LI":"安西里","LIN":"1鄰","STREET":" ","SECT":" ","MAREA":"東溪洲","LANE":" ","ALLEY":" ","HOUSE_NO":"１２號","E_COORD97":172433.731096,"N_COORD97":2561385.4527699999,"ADDRESS":"東溪洲１２號","OBJECTID":660897},"geometry":{"x":172433.73109600041,"y":2561385.4527670015}},{"attributes":{"ID":660925,"DIS_CODE":0,"TOWNNAME":"麻豆區","LI":"安西里","LIN":"1鄰","STREET":" ","SECT":" ","MAREA":"東溪洲","LANE":" ","ALLEY":" ","HOUSE_NO":"１２號之１","E_COORD97":172421.654377,"N_COORD97":2561387.5694300001,"ADDRESS":"東溪洲１２號之１","OBJECTID":660898},"geometry":{"x":172421.65437700041,"y":2561387.5694330018}},{"attributes":{"ID":660926,"DIS_CODE":0,"TOWNNAME":"麻豆區","LI":"安西里","LIN":"2鄰","STREET":" ","SECT":" ","MAREA":"安業","LANE":" ","ALLEY":" ","HOUSE_NO":"２０５號","E_COORD97":172505.13204699999,"N_COORD97":2562025.3582199998,"ADDRESS":"安業２０５號","OBJECTID":660899},"geometry":{"x":172505.1320470022,"y":2562025.3582160007}},{"attributes":{"ID":660927,"DIS_CODE":0,"TOWNNAME":"麻豆區","LI":"安西里","LIN":"4鄰","STREET":" ","SECT":" ","MAREA":"安業","LANE":" ","ALLEY":" ","HOUSE_NO":"２２４號之２","E_COORD97":172451.10462100001,"N_COORD97":2562209.0847800002,"ADDRESS":"安業２２４號之２","OBJECTID":660900},"geometry":{"x":172451.10462100152,"y":2562209.0847829971}},{"attributes":{"ID":660928,"DIS_CODE":0,"TOWNNAME":"麻豆區","LI":"安西里","LIN":"4鄰","STREET":" ","SECT":" ","MAREA":"安業","LANE":" ","ALLEY":" ","HOUSE_NO":"２２６號之１","E_COORD97":172492.63158399999,"N_COORD97":2562185.4839599999,"ADDRESS":"安業２２６號之１","OBJECTID":660901},"geometry":{"x":172492.63158399984,"y":2562185.4839630015}},{"attributes":{"ID":660929,"DIS_CODE":0,"TOWNNAME":"麻豆區","LI":"安西里","LIN":"5鄰","STREET":" ","SECT":" ","MAREA":"安業","LANE":" ","ALLEY":" ","HOUSE_NO":"２３３號","E_COORD97":172463.816957,"N_COORD97":2562044.6198700001,"ADDRESS":"安業２３３號","OBJECTID":660902},"geometry":{"x":172463.81695699971,"y":2562044.6198720038}},{"attributes":{"ID":660930,"DIS_CODE":0,"TOWNNAME":"麻豆區","LI":"安西里","LIN":"5鄰","STREET":" ","SECT":" ","MAREA":"安業","LANE":" ","ALLEY":" ","HOUSE_NO":"２３８號之２","E_COORD97":172498.77587899999,"N_COORD97":2561937.62243,"ADDRESS":"安業２３８號之２","OBJECTID":660903},"geometry":{"x":172498.77587900031,"y":2561937.6224300005}},{"attributes":{"ID":660931,"DIS_CODE":0,"TOWNNAME":"東區","LI":"忠孝里","LIN":"25鄰","STREET":"崇明三街","SECT":" ","MAREA":" ","LANE":" ","ALLEY":" ","HOUSE_NO":"３４號","E_COORD97":169618.834757,"N_COORD97":2542338.6132700001,"ADDRESS":"崇明三街３４號","OBJECTID":660904},"geometry":{"x":169618.83475700114,"y":2542338.6132660024}},{"attributes":{"ID":660932,"DIS_CODE":0,"TOWNNAME":"麻豆區","LI":"安西里","LIN":"6鄰","STREET":" ","SECT":" ","MAREA":"安業","LANE":" ","ALLEY":" ","HOUSE_NO":"２４５號","E_COORD97":172414.45071999999,"N_COORD97":2561965.9857399999,"ADDRESS":"安業２４５號","OBJECTID":660905},"geometry":{"x":172414.45072000101,"y":2561965.9857400004}},{"attributes":{"ID":660933,"DIS_CODE":0,"TOWNNAME":"東區","LI":"忠孝里","LIN":"25鄰","STREET":"崇明四街","SECT":" ","MAREA":" ","LANE":" ","ALLEY":" ","HOUSE_NO":"１號","E_COORD97":169558.450752,"N_COORD97":2542284.8499599998,"ADDRESS":"崇明四街１號","OBJECTID":660906},"geometry":{"x":169558.45075200032,"y":2542284.8499619998}},{"attributes":{"ID":660934,"DIS_CODE":0,"TOWNNAME":"東區","LI":"忠孝里","LIN":"25鄰","STREET":"崇明四街","SECT":" ","MAREA":" ","LANE":" ","ALLEY":" ","HOUSE_NO":"１１號","E_COORD97":169587.901197,"N_COORD97":2542292.89329,"ADDRESS":"崇明四街１１號","OBJECTID":660907},"geometry":{"x":169587.90119700041,"y":2542292.8932910003}},{"attributes":{"ID":660935,"DIS_CODE":0,"TOWNNAME":"麻豆區","LI":"安西里","LIN":"7鄰","STREET":" ","SECT":" ","MAREA":"安業","LANE":" ","ALLEY":" ","HOUSE_NO":"２５５號","E_COORD97":172406.39957499999,"N_COORD97":2562095.1023499998,"ADDRESS":"安業２５５號","OBJECTID":660908},"geometry":{"x":172406.3995749997,"y":2562095.102345001}},{"attributes":{"ID":660936,"DIS_CODE":0,"TOWNNAME":"東區","LI":"忠孝里","LIN":"25鄰","STREET":"崇明四街","SECT":" ","MAREA":" ","LANE":" ","ALLEY":" ","HOUSE_NO":"２３號","E_COORD97":169614.38540999999,"N_COORD97":2542301.7832900002,"ADDRESS":"崇明四街２３號","OBJECTID":660909},"geometry":{"x":169614.38541000057,"y":2542301.7832859997}},{"attributes":{"ID":660937,"DIS_CODE":0,"TOWNNAME":"麻豆區","LI":"安西里","LIN":"8鄰","STREET":" ","SECT":" ","MAREA":"安業","LANE":" ","ALLEY":" ","HOUSE_NO":"２６３號之１","E_COORD97":172359.152061,"N_COORD97":2562343.7047100002,"ADDRESS":"安業２６３號之１","OBJECTID":660910},"geometry":{"x":172359.15206100047,"y":2562343.7047110014}},{"attributes":{"ID":660938,"DIS_CODE":0,"TOWNNAME":"麻豆區","LI":"安西里","LIN":"6鄰","STREET":" ","SECT":" ","MAREA":"安業","LANE":" ","ALLEY":" ","HOUSE_NO":"２５２號之１９","E_COORD97":172241.77483000001,"N_COORD97":2562095.8431799999,"ADDRESS":"安業２５２號之１９","OBJECTID":660911},"geometry":{"x":172241.77483000048,"y":2562095.8431780022}},{"attributes":{"ID":660939,"DIS_CODE":0,"TOWNNAME":"麻豆區","LI":"安西里","LIN":"6鄰","STREET":" ","SECT":" ","MAREA":"安業","LANE":" ","ALLEY":" ","HOUSE_NO":"２５２號之１７","E_COORD97":172276.94562499999,"N_COORD97":2562103.67484,"ADDRESS":"安業２５２號之１７","OBJECTID":660912},"geometry":{"x":172276.9456249997,"y":2562103.6748400033}},{"attributes":{"ID":660940,"DIS_CODE":0,"TOWNNAME":"麻豆區","LI":"安西里","LIN":"3鄰","STREET":" ","SECT":" ","MAREA":"安業","LANE":" ","ALLEY":" ","HOUSE_NO":"２１０號之２","E_COORD97":172486.487288,"N_COORD97":2562057.8490300002,"ADDRESS":"安業２１０號之２","OBJECTID":660913},"geometry":{"x":172486.48728800006,"y":2562057.8490319997}},{"attributes":{"ID":660941,"DIS_CODE":0,"TOWNNAME":"新營區","LI":"興業里","LIN":"12鄰","STREET":"中興路","SECT":" ","MAREA":" ","LANE":"１３巷","ALLEY":" ","HOUSE_NO":"１２號","E_COORD97":180192.17798099999,"N_COORD97":2577958.0265700002,"ADDRESS":"中興路１３巷１２號","OBJECTID":660914},"geometry":{"x":180192.17798100039,"y":2577958.0265720021}},{"attributes":{"ID":660942,"DIS_CODE":0,"TOWNNAME":"善化區","LI":"嘉北里","LIN":"1鄰","STREET":" ","SECT":" ","MAREA":"茄拔","LANE":" ","ALLEY":" ","HOUSE_NO":"１號之４１","E_COORD97":181169.77291,"N_COORD97":2560241.98141,"ADDRESS":"茄拔１號之４１","OBJECTID":660915},"geometry":{"x":181169.77290999983,"y":2560241.9814100023}},{"attributes":{"ID":660943,"DIS_CODE":0,"TOWNNAME":"善化區","LI":"嘉北里","LIN":"1鄰","STREET":" ","SECT":" ","MAREA":"茄拔","LANE":" ","ALLEY":" ","HOUSE_NO":"１號之４２","E_COORD97":181171.46685999999,"N_COORD97":2560237.9597399998,"ADDRESS":"茄拔１號之４２","OBJECTID":660916},"geometry":{"x":181171.46686000004,"y":2560237.9597400017}},{"attributes":{"ID":660944,"DIS_CODE":0,"TOWNNAME":"麻豆區","LI":"安西里","LIN":"6鄰","STREET":" ","SECT":" ","MAREA":"安業","LANE":" ","ALLEY":" ","HOUSE_NO":"２４２號之２２","E_COORD97":172296.226,"N_COORD97":2561739.60837,"ADDRESS":"安業２４２號之２２","OBJECTID":660917},"geometry":{"x":172296.22600000072,"y":2561739.6083700005}},{"attributes":{"ID":660945,"DIS_CODE":0,"TOWNNAME":"麻豆區","LI":"安西里","LIN":"6鄰","STREET":" ","SECT":" ","MAREA":"安業","LANE":" ","ALLEY":" ","HOUSE_NO":"２４２號之２９","E_COORD97":172294.31915,"N_COORD97":2561753.5783600002,"ADDRESS":"安業２４２號之２９","OBJECTID":660918},"geometry":{"x":172294.31915000081,"y":2561753.5783630013}},{"attributes":{"ID":660946,"DIS_CODE":0,"TOWNNAME":"麻豆區","LI":"安西里","LIN":"8鄰","STREET":" ","SECT":" ","MAREA":"安業","LANE":" ","ALLEY":" ","HOUSE_NO":"２６２號之１","E_COORD97":172421.01876100001,"N_COORD97":2562262.9539200002,"ADDRESS":"安業２６２號之１","OBJECTID":660919},"geometry":{"x":172421.01876099873,"y":2562262.9539210014}},{"attributes":{"ID":660947,"DIS_CODE":0,"TOWNNAME":"東區","LI":"忠孝里","LIN":"33鄰","STREET":"崇明二街","SECT":" ","MAREA":" ","LANE":"２巷","ALLEY":" ","HOUSE_NO":"５號","E_COORD97":169565.654458,"N_COORD97":2542363.16659,"ADDRESS":"崇明二街２巷５號","OBJECTID":660920},"geometry":{"x":169565.65445800219,"y":2542363.1665860005}},{"attributes":{"ID":660948,"DIS_CODE":0,"TOWNNAME":"東區","LI":"忠孝里","LIN":"33鄰","STREET":"崇明二街","SECT":" ","MAREA":" ","LANE":"２巷","ALLEY":" ","HOUSE_NO":"６號","E_COORD97":169565.86633200001,"N_COORD97":2542358.5099200001,"ADDRESS":"崇明二街２巷６號","OBJECTID":660921},"geometry":{"x":169565.86633200012,"y":2542358.5099219996}},{"attributes":{"ID":660949,"DIS_CODE":0,"TOWNNAME":"東區","LI":"忠孝里","LIN":"33鄰","STREET":"崇明三街","SECT":" ","MAREA":" ","LANE":" ","ALLEY":" ","HOUSE_NO":"１３號","E_COORD97":169573.493785,"N_COORD97":2542347.82076,"ADDRESS":"崇明三街１３號","OBJECTID":660922},"geometry":{"x":169573.49378500134,"y":2542347.8207609989}},{"attributes":{"ID":660950,"DIS_CODE":0,"TOWNNAME":"東區","LI":"忠孝里","LIN":"33鄰","STREET":"崇明三街","SECT":" ","MAREA":" ","LANE":" ","ALLEY":" ","HOUSE_NO":"１５號","E_COORD97":169578.79062799999,"N_COORD97":2542348.8790899999,"ADDRESS":"崇明三街１５號","OBJECTID":660923},"geometry":{"x":169578.79062800016,"y":2542348.8790940009}},{"attributes":{"ID":660951,"DIS_CODE":0,"TOWNNAME":"東區","LI":"忠孝里","LIN":"33鄰","STREET":"崇明三街","SECT":" ","MAREA":" ","LANE":" ","ALLEY":" ","HOUSE_NO":"１７號","E_COORD97":169583.66372300001,"N_COORD97":2542352.2657599999,"ADDRESS":"崇明三街１７號","OBJECTID":660924},"geometry":{"x":169583.66372300033,"y":2542352.2657590024}},{"attributes":{"ID":660952,"DIS_CODE":0,"TOWNNAME":"麻豆區","LI":"安西里","LIN":"5鄰","STREET":" ","SECT":" ","MAREA":"安業","LANE":" ","ALLEY":" ","HOUSE_NO":"２２７號之５","E_COORD97":172433.33016499999,"N_COORD97":2562117.65295,"ADDRESS":"安業２２７號之５","OBJECTID":660925},"geometry":{"x":172433.3301649997,"y":2562117.652954001}},{"attributes":{"ID":660953,"DIS_CODE":0,"TOWNNAME":"麻豆區","LI":"安西里","LIN":"5鄰","STREET":" ","SECT":" ","MAREA":"安業","LANE":" ","ALLEY":" ","HOUSE_NO":"２２７號之１０","E_COORD97":172421.25344599999,"N_COORD97":2562200.8379099998,"ADDRESS":"安業２２７號之１０","OBJECTID":660926},"geometry":{"x":172421.2534459997,"y":2562200.8379090019}},{"attributes":{"ID":660954,"DIS_CODE":0,"TOWNNAME":"東區","LI":"忠孝里","LIN":"34鄰","STREET":"崇明三街","SECT":" ","MAREA":" ","LANE":" ","ALLEY":" ","HOUSE_NO":"２７號","E_COORD97":169604.21547200001,"N_COORD97":2542360.7324199998,"ADDRESS":"崇明三街２７號","OBJECTID":660927},"geometry":{"x":169604.21547199879,"y":2542360.7324210014}},{"attributes":{"ID":660955,"DIS_CODE":0,"TOWNNAME":"東區","LI":"忠孝里","LIN":"16鄰","STREET":"榮譽街","SECT":" ","MAREA":" ","LANE":"１２３巷","ALLEY":" ","HOUSE_NO":"３號","E_COORD97":169852.10770200001,"N_COORD97":2541826.69771,"ADDRESS":"榮譽街１２３巷３號","OBJECTID":660928},"geometry":{"x":169852.107702001,"y":2541826.6977090035}},{"attributes":{"ID":660956,"DIS_CODE":0,"TOWNNAME":"東區","LI":"忠孝里","LIN":"16鄰","STREET":"榮譽街","SECT":" ","MAREA":" ","LANE":"１２３巷","ALLEY":" ","HOUSE_NO":"５號","E_COORD97":169842.361512,"N_COORD97":2541821.6177099999,"ADDRESS":"榮譽街１２３巷５號","OBJECTID":660929},"geometry":{"x":169842.36151200067,"y":2541821.6177120041}},{"attributes":{"ID":660957,"DIS_CODE":0,"TOWNNAME":"東區","LI":"忠孝里","LIN":"16鄰","STREET":"榮譽街","SECT":" ","MAREA":" ","LANE":"１２３巷","ALLEY":" ","HOUSE_NO":"７號","E_COORD97":169837.27654300001,"N_COORD97":2541827.7560399999,"ADDRESS":"榮譽街１２３巷７號","OBJECTID":660930},"geometry":{"x":169837.27654299978,"y":2541827.7560420018}},{"attributes":{"ID":660958,"DIS_CODE":0,"TOWNNAME":"東區","LI":"忠孝里","LIN":"16鄰","STREET":"榮譽街","SECT":" ","MAREA":" ","LANE":"１２３巷","ALLEY":" ","HOUSE_NO":"７號之１","E_COORD97":169834.31031100001,"N_COORD97":2541832.2010400002,"ADDRESS":"榮譽街１２３巷７號之１","OBJECTID":660931},"geometry":{"x":169834.31031100079,"y":2541832.2010399997}},{"attributes":{"ID":660959,"DIS_CODE":0,"TOWNNAME":"新營區","LI":"興業里","LIN":"13鄰","STREET":"中興路","SECT":" ","MAREA":" ","LANE":"１３巷","ALLEY":" ","HOUSE_NO":"２６號","E_COORD97":180252.988178,"N_COORD97":2577960.7137500001,"ADDRESS":"中興路１３巷２６號","OBJECTID":660932},"geometry":{"x":180252.98817800079,"y":2577960.713754002}},{"attributes":{"ID":660960,"DIS_CODE":0,"TOWNNAME":"官田區","LI":"大崎里","LIN":"1鄰","STREET":" ","SECT":" ","MAREA":"大崎","LANE":" ","ALLEY":" ","HOUSE_NO":"１０號之２","E_COORD97":185618.89750299999,"N_COORD97":2565648.0543499999,"ADDRESS":"大崎１０號之２","OBJECTID":660933},"geometry":{"x":185618.89750299975,"y":2565648.054347001}},{"attributes":{"ID":660961,"DIS_CODE":0,"TOWNNAME":"官田區","LI":"官田里","LIN":"15鄰","STREET":" ","SECT":" ","MAREA":"官田","LANE":" ","ALLEY":" ","HOUSE_NO":"１７０號","E_COORD97":182363.27848099999,"N_COORD97":2564964.71594,"ADDRESS":"官田１７０號","OBJECTID":660934},"geometry":{"x":182363.27848100103,"y":2564964.7159439996}},{"attributes":{"ID":660962,"DIS_CODE":0,"TOWNNAME":"官田區","LI":"官田里","LIN":"15鄰","STREET":" ","SECT":" ","MAREA":"官田","LANE":" ","ALLEY":" ","HOUSE_NO":"１７１號","E_COORD97":182363.80816700001,"N_COORD97":2564961.5409499998,"ADDRESS":"官田１７１號","OBJECTID":660935},"geometry":{"x":182363.80816700123,"y":2564961.5409459993}},{"attributes":{"ID":660963,"DIS_CODE":0,"TOWNNAME":"官田區","LI":"官田里","LIN":"15鄰","STREET":" ","SECT":" ","MAREA":"官田","LANE":" ","ALLEY":" ","HOUSE_NO":"１７２號","E_COORD97":182363.384418,"N_COORD97":2564956.6726199999,"ADDRESS":"官田１７２號","OBJECTID":660936},"geometry":{"x":182363.38441800047,"y":2564956.672615001}},{"attributes":{"ID":660964,"DIS_CODE":0,"TOWNNAME":"新營區","LI":"興業里","LIN":"14鄰","STREET":"中興路","SECT":" ","MAREA":" ","LANE":"１５巷","ALLEY":" ","HOUSE_NO":"３號","E_COORD97":180153.827299,"N_COORD97":2577939.3999200002,"ADDRESS":"中興路１５巷３號","OBJECTID":660937},"geometry":{"x":180153.8272990007,"y":2577939.3999150004}},{"attributes":{"ID":660965,"DIS_CODE":0,"TOWNNAME":"新營區","LI":"興業里","LIN":"14鄰","STREET":"中興路","SECT":" ","MAREA":" ","LANE":"１５巷","ALLEY":" ","HOUSE_NO":"５號","E_COORD97":180164.84517399999,"N_COORD97":2577938.5532499999,"ADDRESS":"中興路１５巷５號","OBJECTID":660938},"geometry":{"x":180164.84517399967,"y":2577938.5532490034}},{"attributes":{"ID":660966,"DIS_CODE":0,"TOWNNAME":"新營區","LI":"興業里","LIN":"14鄰","STREET":"中興路","SECT":" ","MAREA":" ","LANE":"１５巷","ALLEY":" ","HOUSE_NO":"７號","E_COORD97":180174.167992,"N_COORD97":2577938.1299200002,"ADDRESS":"中興路１５巷７號","OBJECTID":660939},"geometry":{"x":180174.1679920014,"y":2577938.1299160048}},{"attributes":{"ID":660967,"DIS_CODE":0,"TOWNNAME":"新營區","LI":"興業里","LIN":"16鄰","STREET":"中興路","SECT":" ","MAREA":" ","LANE":"１５巷","ALLEY":" ","HOUSE_NO":"１２號","E_COORD97":180195.356214,"N_COORD97":2577918.6565899998,"ADDRESS":"中興路１５巷１２號","OBJECTID":660940},"geometry":{"x":180195.35621400177,"y":2577918.6565930005}},{"attributes":{"ID":660968,"DIS_CODE":0,"TOWNNAME":"新營區","LI":"興業里","LIN":"15鄰","STREET":"中興路","SECT":" ","MAREA":" ","LANE":"１５巷","ALLEY":" ","HOUSE_NO":"２１號","E_COORD97":180247.691123,"N_COORD97":2577934.7432499998,"ADDRESS":"中興路１５巷２１號","OBJECTID":660941},"geometry":{"x":180247.69112300128,"y":2577934.7432509996}},{"attributes":{"ID":660969,"DIS_CODE":0,"TOWNNAME":"新營區","LI":"興業里","LIN":"16鄰","STREET":"中興路","SECT":" ","MAREA":" ","LANE":"１５巷","ALLEY":" ","HOUSE_NO":"８號","E_COORD97":180173.10858100001,"N_COORD97":2577920.5615900001,"ADDRESS":"中興路１５巷８號","OBJECTID":660942},"geometry":{"x":180173.10858100001,"y":2577920.5615919996}},{"attributes":{"ID":660970,"DIS_CODE":0,"TOWNNAME":"新營區","LI":"興業里","LIN":"17鄰","STREET":"中興路","SECT":" ","MAREA":" ","LANE":"１５巷","ALLEY":" ","HOUSE_NO":"１４號","E_COORD97":180206.37408899999,"N_COORD97":2577919.29159,"ADDRESS":"中興路１５巷１４號","OBJECTID":660943},"geometry":{"x":180206.37408900075,"y":2577919.2915930003}},{"attributes":{"ID":660971,"DIS_CODE":0,"TOWNNAME":"善化區","LI":"嘉北里","LIN":"1鄰","STREET":" ","SECT":" ","MAREA":"茄拔","LANE":" ","ALLEY":" ","HOUSE_NO":"２號之１３","E_COORD97":181317.37280000001,"N_COORD97":2560169.1823200001,"ADDRESS":"茄拔２號之１３","OBJECTID":660944},"geometry":{"x":181317.37280000001,"y":2560169.1823200006}},{"attributes":{"ID":660972,"DIS_CODE":0,"TOWNNAME":"善化區","LI":"嘉北里","LIN":"1鄰","STREET":" ","SECT":" ","MAREA":"茄拔","LANE":" ","ALLEY":" ","HOUSE_NO":"２之１３號","E_COORD97":181317.37280099999,"N_COORD97":2560169.1823200001,"ADDRESS":"茄拔２之１３號","OBJECTID":660945},"geometry":{"x":181317.37280100118,"y":2560169.1823229976}},{"attributes":{"ID":660973,"DIS_CODE":0,"TOWNNAME":"善化區","LI":"嘉北里","LIN":"1鄰","STREET":" ","SECT":" ","MAREA":"茄拔","LANE":" ","ALLEY":" ","HOUSE_NO":"２號之１４","E_COORD97":181518.52974999999,"N_COORD97":2560474.6171499998,"ADDRESS":"茄拔２號之１４","OBJECTID":660946},"geometry":{"x":181518.52974999882,"y":2560474.6171500012}},{"attributes":{"ID":660974,"DIS_CODE":0,"TOWNNAME":"善化區","LI":"嘉北里","LIN":"1鄰","STREET":" ","SECT":" ","MAREA":"茄拔","LANE":" ","ALLEY":" ","HOUSE_NO":"２號之４６","E_COORD97":181996.49316000001,"N_COORD97":2560667.7912900001,"ADDRESS":"茄拔２號之４６","OBJECTID":660947},"geometry":{"x":181996.493160001,"y":2560667.7912900019}},{"attributes":{"ID":660975,"DIS_CODE":0,"TOWNNAME":"善化區","LI":"嘉北里","LIN":"1鄰","STREET":" ","SECT":" ","MAREA":"茄拔","LANE":" ","ALLEY":" ","HOUSE_NO":"６號之２２","E_COORD97":181772.2561,"N_COORD97":2560308.9106600001,"ADDRESS":"茄拔６號之２２","OBJECTID":660948},"geometry":{"x":181772.25610000174,"y":2560308.9106600024}},{"attributes":{"ID":660976,"DIS_CODE":0,"TOWNNAME":"安南區","LI":"安西里","LIN":"5鄰","STREET":"安西一街","SECT":" ","MAREA":" ","LANE":" ","ALLEY":" ","HOUSE_NO":"２１９號","E_COORD97":168676.419525,"N_COORD97":2547905.7804299998,"ADDRESS":"安西一街２１９號","OBJECTID":660949},"geometry":{"x":168676.41952500027,"y":2547905.7804300003}},{"attributes":{"ID":660977,"DIS_CODE":0,"TOWNNAME":"新營區","LI":"民生里","LIN":"10鄰","STREET":"三民路","SECT":" ","MAREA":" ","LANE":" ","ALLEY":" ","HOUSE_NO":"１４５之１號","E_COORD97":179206.635908,"N_COORD97":2578102.0011800001,"ADDRESS":"三民路１４５之１號","OBJECTID":660950},"geometry":{"x":179206.63590800017,"y":2578102.0011770036}},{"attributes":{"ID":660978,"DIS_CODE":0,"TOWNNAME":"新營區","LI":"民生里","LIN":"10鄰","STREET":"三民路","SECT":" ","MAREA":" ","LANE":" ","ALLEY":" ","HOUSE_NO":"１４９號","E_COORD97":179202.02747,"N_COORD97":2578081.9193099998,"ADDRESS":"三民路１４９號","OBJECTID":660951},"geometry":{"x":179202.02747000009,"y":2578081.9193130005}},{"attributes":{"ID":660979,"DIS_CODE":0,"TOWNNAME":"新營區","LI":"民生里","LIN":"10鄰","STREET":"三民路","SECT":" ","MAREA":" ","LANE":" ","ALLEY":" ","HOUSE_NO":"１４７號之１","E_COORD97":179202.66311699999,"N_COORD97":2578091.4443100002,"ADDRESS":"三民路１４７號之１","OBJECTID":660952},"geometry":{"x":179202.6631169999,"y":2578091.4443079978}},{"attributes":{"ID":660980,"DIS_CODE":0,"TOWNNAME":"新營區","LI":"民生里","LIN":"10鄰","STREET":"三民路","SECT":" ","MAREA":" ","LANE":" ","ALLEY":" ","HOUSE_NO":"１５５號","E_COORD97":179183.32886400001,"N_COORD97":2578042.7345400001,"ADDRESS":"三民路１５５號","OBJECTID":660953},"geometry":{"x":179183.32886399981,"y":2578042.7345430031}},{"attributes":{"ID":660981,"DIS_CODE":0,"TOWNNAME":"新營區","LI":"民生里","LIN":"10鄰","STREET":"三民路","SECT":" ","MAREA":" ","LANE":" ","ALLEY":" ","HOUSE_NO":"１５９號","E_COORD97":179171.251578,"N_COORD97":2578030.03455,"ADDRESS":"三民路１５９號","OBJECTID":660954},"geometry":{"x":179171.25157800131,"y":2578030.0345489997}},{"attributes":{"ID":660982,"DIS_CODE":0,"TOWNNAME":"麻豆區","LI":"海埔里","LIN":"12鄰","STREET":" ","SECT":" ","MAREA":"海埔","LANE":" ","ALLEY":" ","HOUSE_NO":"７６號之３","E_COORD97":169397.12255,"N_COORD97":2567384.1022399999,"ADDRESS":"海埔７６號之３","OBJECTID":660955},"geometry":{"x":169397.12255000137,"y":2567384.1022400018}},{"attributes":{"ID":660983,"DIS_CODE":0,"TOWNNAME":"新營區","LI":"民生里","LIN":"11鄰","STREET":"三民路","SECT":" ","MAREA":" ","LANE":" ","ALLEY":" ","HOUSE_NO":"１９２號","E_COORD97":179207.05967300001,"N_COORD97":2578163.3613399998,"ADDRESS":"三民路１９２號","OBJECTID":660956},"geometry":{"x":179207.05967300106,"y":2578163.3613440022}},{"attributes":{"ID":660984,"DIS_CODE":0,"TOWNNAME":"麻豆區","LI":"海埔里","LIN":"12鄰","STREET":" ","SECT":" ","MAREA":"海埔","LANE":" ","ALLEY":" ","HOUSE_NO":"７６號之５","E_COORD97":169452.63308999999,"N_COORD97":2567257.9489799999,"ADDRESS":"海埔７６號之５","OBJECTID":660957},"geometry":{"x":169452.63308999967,"y":2567257.9489799999}},{"attributes":{"ID":660985,"DIS_CODE":0,"TOWNNAME":"新營區","LI":"民生里","LIN":"11鄰","STREET":"三民路","SECT":" ","MAREA":" ","LANE":" ","ALLEY":" ","HOUSE_NO":"１９０之２號","E_COORD97":179212.780493,"N_COORD97":2578172.8863400002,"ADDRESS":"三民路１９０之２號","OBJECTID":660958},"geometry":{"x":179212.78049300052,"y":2578172.8863390014}},{"attributes":{"ID":660986,"DIS_CODE":0,"TOWNNAME":"新營區","LI":"民生里","LIN":"11鄰","STREET":"三民路","SECT":" ","MAREA":" ","LANE":" ","ALLEY":" ","HOUSE_NO":"１９０號之１","E_COORD97":179213.83990399999,"N_COORD97":2578179.0246700002,"ADDRESS":"三民路１９０號之１","OBJECTID":660959},"geometry":{"x":179213.83990400191,"y":2578179.024668999}},{"attributes":{"ID":660987,"DIS_CODE":0,"TOWNNAME":"麻豆區","LI":"海埔里","LIN":"7鄰","STREET":" ","SECT":" ","MAREA":"海埔","LANE":" ","ALLEY":" ","HOUSE_NO":"２２號之１８","E_COORD97":169017.44747099999,"N_COORD97":2567068.6132499999,"ADDRESS":"海埔２２號之１８","OBJECTID":660960},"geometry":{"x":169017.44747100212,"y":2567068.6132520027}},{"attributes":{"ID":660988,"DIS_CODE":0,"TOWNNAME":"麻豆區","LI":"海埔里","LIN":"12鄰","STREET":" ","SECT":" ","MAREA":"海埔","LANE":" ","ALLEY":" ","HOUSE_NO":"８７號","E_COORD97":169066.38996199999,"N_COORD97":2567100.3632399999,"ADDRESS":"海埔８７號","OBJECTID":660961},"geometry":{"x":169066.38996200077,"y":2567100.3632350005}},{"attributes":{"ID":660989,"DIS_CODE":0,"TOWNNAME":"麻豆區","LI":"海埔里","LIN":"11鄰","STREET":" ","SECT":" ","MAREA":"海埔","LANE":" ","ALLEY":" ","HOUSE_NO":"６０號之４","E_COORD97":169649.88616200001,"N_COORD97":2567573.12048,"ADDRESS":"海埔６０號之４","OBJECTID":660962},"geometry":{"x":169649.88616199978,"y":2567573.1204800028}},{"attributes":{"ID":660990,"DIS_CODE":0,"TOWNNAME":"新營區","LI":"民生里","LIN":"11鄰","STREET":"三民路","SECT":" ","MAREA":" ","LANE":"１８６巷","ALLEY":" ","HOUSE_NO":"８號","E_COORD97":179179.72686600001,"N_COORD97":2578244.4825499998,"ADDRESS":"三民路１８６巷８號","OBJECTID":660963},"geometry":{"x":179179.72686600033,"y":2578244.4825499989}},{"attributes":{"ID":660991,"DIS_CODE":0,"TOWNNAME":"麻豆區","LI":"海埔里","LIN":"6鄰","STREET":" ","SECT":" ","MAREA":"海埔","LANE":" ","ALLEY":" ","HOUSE_NO":"１３號之１","E_COORD97":169444.58194400001,"N_COORD97":2566753.4417599998,"ADDRESS":"海埔１３號之１","OBJECTID":660964},"geometry":{"x":169444.58194400184,"y":2566753.4417560007}},{"attributes":{"ID":660992,"DIS_CODE":0,"TOWNNAME":"新營區","LI":"延平里","LIN":"15鄰","STREET":"中原街","SECT":" ","MAREA":" ","LANE":" ","ALLEY":" ","HOUSE_NO":"３號","E_COORD97":179519.879319,"N_COORD97":2578001.2906399998,"ADDRESS":"中原街３號","OBJECTID":660965},"geometry":{"x":179519.87931900192,"y":2578001.2906360012}},{"attributes":{"ID":660993,"DIS_CODE":0,"TOWNNAME":"新營區","LI":"延平里","LIN":"15鄰","STREET":"中原街","SECT":" ","MAREA":" ","LANE":" ","ALLEY":" ","HOUSE_NO":"３號之１","E_COORD97":179519.03161999999,"N_COORD97":2577997.4806300001,"ADDRESS":"中原街３號之１","OBJECTID":660966},"geometry":{"x":179519.03161999956,"y":2577997.4806299992}},{"attributes":{"ID":660994,"DIS_CODE":0,"TOWNNAME":"麻豆區","LI":"海埔里","LIN":"6鄰","STREET":" ","SECT":" ","MAREA":"海埔","LANE":" ","ALLEY":" ","HOUSE_NO":"１７號之２","E_COORD97":169365.36453200001,"N_COORD97":2566659.2875999999,"ADDRESS":"海埔１７號之２","OBJECTID":660967},"geometry":{"x":169365.36453200039,"y":2566659.2875999995}},{"attributes":{"ID":660995,"DIS_CODE":0,"TOWNNAME":"新營區","LI":"延平里","LIN":"15鄰","STREET":"中原街","SECT":" ","MAREA":" ","LANE":" ","ALLEY":" ","HOUSE_NO":"５號之１","E_COORD97":179517.12431000001,"N_COORD97":2577977.1606399999,"ADDRESS":"中原街５號之１","OBJECTID":660968},"geometry":{"x":179517.1243100008,"y":2577977.1606399976}},{"attributes":{"ID":660996,"DIS_CODE":0,"TOWNNAME":"新營區","LI":"延平里","LIN":"15鄰","STREET":"中原街","SECT":" ","MAREA":" ","LANE":" ","ALLEY":" ","HOUSE_NO":"５號之２","E_COORD97":179525.813173,"N_COORD97":2577973.03315,"ADDRESS":"中原街５號之２","OBJECTID":660969},"geometry":{"x":179525.81317299977,"y":2577973.0331519991}},{"attributes":{"ID":660997,"DIS_CODE":0,"TOWNNAME":"麻豆區","LI":"南勢里","LIN":"27鄰","STREET":" ","SECT":" ","MAREA":"總爺","LANE":" ","ALLEY":" ","HOUSE_NO":"１０４號之１","E_COORD97":175338.514689,"N_COORD97":2565207.64549,"ADDRESS":"總爺１０４號之１","OBJECTID":660970},"geometry":{"x":175338.51468900125,"y":2565207.6454949994}},{"attributes":{"ID":660998,"DIS_CODE":0,"TOWNNAME":"麻豆區","LI":"海埔里","LIN":"2鄰","STREET":" ","SECT":" ","MAREA":"埤子尾","LANE":" ","ALLEY":" ","HOUSE_NO":"２６號之２","E_COORD97":169726.39486100001,"N_COORD97":2566665.9550999999,"ADDRESS":"埤子尾２６號之２","OBJECTID":660971},"geometry":{"x":169726.39486100059,"y":2566665.955097001}},{"attributes":{"ID":660999,"DIS_CODE":0,"TOWNNAME":"麻豆區","LI":"海埔里","LIN":"2鄰","STREET":" ","SECT":" ","MAREA":"埤子尾","LANE":" ","ALLEY":" ","HOUSE_NO":"２６號之３","E_COORD97":169723.42864900001,"N_COORD97":2566653.0434400002,"ADDRESS":"埤子尾２６號之３","OBJECTID":660972},"geometry":{"x":169723.42864900082,"y":2566653.0434370004}},{"attributes":{"ID":661000,"DIS_CODE":0,"TOWNNAME":"麻豆區","LI":"海埔里","LIN":"3鄰","STREET":" ","SECT":" ","MAREA":"埤子尾","LANE":" ","ALLEY":" ","HOUSE_NO":"３５號","E_COORD97":169734.86975099999,"N_COORD97":2566690.5084199999,"ADDRESS":"埤子尾３５號","OBJECTID":660973},"geometry":{"x":169734.86975099985,"y":2566690.5084169991}},{"attributes":{"ID":661001,"DIS_CODE":0,"TOWNNAME":"麻豆區","LI":"海埔里","LIN":"3鄰","STREET":" ","SECT":" ","MAREA":"埤子尾","LANE":" ","ALLEY":" ","HOUSE_NO":"３１號之７","E_COORD97":169674.48615700001,"N_COORD97":2566798.1408600002,"ADDRESS":"埤子尾３１號之７","OBJECTID":660974},"geometry":{"x":169674.48615700006,"y":2566798.1408590004}},{"attributes":{"ID":661002,"DIS_CODE":0,"TOWNNAME":"新營區","LI":"民生里","LIN":"11鄰","STREET":"中華路","SECT":" ","MAREA":" ","LANE":" ","ALLEY":" ","HOUSE_NO":"１１６號之２","E_COORD97":179147.520769,"N_COORD97":2578176.4433200001,"ADDRESS":"中華路１１６號之２","OBJECTID":660975},"geometry":{"x":179147.52076900098,"y":2578176.4433200005}},{"attributes":{"ID":661003,"DIS_CODE":0,"TOWNNAME":"麻豆區","LI":"海埔里","LIN":"9鄰","STREET":" ","SECT":" ","MAREA":"海埔","LANE":" ","ALLEY":" ","HOUSE_NO":"４５號之６","E_COORD97":169743.344641,"N_COORD97":2567279.3647699999,"ADDRESS":"海埔４５號之６","OBJECTID":660976},"geometry":{"x":169743.34464100003,"y":2567279.3647659998}},{"attributes":{"ID":661004,"DIS_CODE":0,"TOWNNAME":"麻豆區","LI":"南勢里","LIN":"25鄰","STREET":" ","SECT":" ","MAREA":"南勢","LANE":" ","ALLEY":" ","HOUSE_NO":"８７號之１８","E_COORD97":175374.258306,"N_COORD97":2565910.6347400001,"ADDRESS":"南勢８７號之１８","OBJECTID":660977},"geometry":{"x":175374.25830600038,"y":2565910.6347370017}},{"attributes":{"ID":661005,"DIS_CODE":0,"TOWNNAME":"麻豆區","LI":"南勢里","LIN":"14鄰","STREET":" ","SECT":" ","MAREA":"南勢","LANE":" ","ALLEY":" ","HOUSE_NO":"２７號之５","E_COORD97":174407.98639899999,"N_COORD97":2565081.43102,"ADDRESS":"南勢２７號之５","OBJECTID":660978},"geometry":{"x":174407.98639899865,"y":2565081.4310180042}},{"attributes":{"ID":661006,"DIS_CODE":0,"TOWNNAME":"麻豆區","LI":"安業里","LIN":"1鄰","STREET":" ","SECT":" ","MAREA":"安業","LANE":" ","ALLEY":" ","HOUSE_NO":"７７號之６","E_COORD97":173099.12405300001,"N_COORD97":2562059.6335300002,"ADDRESS":"安業７７號之６","OBJECTID":660979},"geometry":{"x":173099.12405300047,"y":2562059.6335269995}},{"attributes":{"ID":661007,"DIS_CODE":0,"TOWNNAME":"麻豆區","LI":"安業里","LIN":"1鄰","STREET":" ","SECT":" ","MAREA":"安業","LANE":" ","ALLEY":" ","HOUSE_NO":"８０號之８","E_COORD97":172992.76417899999,"N_COORD97":2561585.6062799999,"ADDRESS":"安業８０號之８","OBJECTID":660980},"geometry":{"x":172992.7641789997,"y":2561585.6062830016}},{"attributes":{"ID":661008,"DIS_CODE":0,"TOWNNAME":"麻豆區","LI":"南勢里","LIN":"25鄰","STREET":" ","SECT":" ","MAREA":"南勢","LANE":" ","ALLEY":" ","HOUSE_NO":"８５號之３８","E_COORD97":174736.29213700001,"N_COORD97":2565425.6008299999,"ADDRESS":"南勢８５號之３８","OBJECTID":660981},"geometry":{"x":174736.29213700071,"y":2565425.6008330025}},{"attributes":{"ID":661009,"DIS_CODE":0,"TOWNNAME":"新營區","LI":"民生里","LIN":"11鄰","STREET":"三民路","SECT":" ","MAREA":" ","LANE":" ","ALLEY":" ","HOUSE_NO":"１８０號之２","E_COORD97":179255.58070200001,"N_COORD97":2578256.3887900002,"ADDRESS":"三民路１８０號之２","OBJECTID":660982},"geometry":{"x":179255.58070200123,"y":2578256.3887940031}},{"attributes":{"ID":661010,"DIS_CODE":0,"TOWNNAME":"麻豆區","LI":"南勢里","LIN":"25鄰","STREET":" ","SECT":" ","MAREA":"南勢","LANE":" ","ALLEY":" ","HOUSE_NO":"８７號之５０","E_COORD97":175682.753405,"N_COORD97":2565469.6274799998,"ADDRESS":"南勢８７號之５０","OBJECTID":660983},"geometry":{"x":175682.75340500101,"y":2565469.6274760012}},{"attributes":{"ID":661011,"DIS_CODE":0,"TOWNNAME":"麻豆區","LI":"南勢里","LIN":"25鄰","STREET":" ","SECT":" ","MAREA":"南勢","LANE":" ","ALLEY":" ","HOUSE_NO":"８６號之２０","E_COORD97":175480.833193,"N_COORD97":2565250.7642600001,"ADDRESS":"南勢８６號之２０","OBJECTID":660984},"geometry":{"x":175480.83319300041,"y":2565250.7642599996}},{"attributes":{"ID":661012,"DIS_CODE":0,"TOWNNAME":"善化區","LI":"嘉南里","LIN":"8鄰","STREET":" ","SECT":" ","MAREA":"茄拔","LANE":" ","ALLEY":" ","HOUSE_NO":"１１８號","E_COORD97":180971.03043700001,"N_COORD97":2559565.5362999998,"ADDRESS":"茄拔１１８號","OBJECTID":660985},"geometry":{"x":180971.03043700103,"y":2559565.5362979993}},{"attributes":{"ID":661013,"DIS_CODE":0,"TOWNNAME":"善化區","LI":"嘉南里","LIN":"2鄰","STREET":" ","SECT":" ","MAREA":"茄拔","LANE":" ","ALLEY":" ","HOUSE_NO":"３８０號","E_COORD97":181048.80257,"N_COORD97":2557522.5307399998,"ADDRESS":"茄拔３８０號","OBJECTID":660986},"geometry":{"x":181048.80257000215,"y":2557522.5307350047}},{"attributes":{"ID":661014,"DIS_CODE":0,"TOWNNAME":"善化區","LI":"嘉南里","LIN":"2鄰","STREET":" ","SECT":" ","MAREA":"茄拔","LANE":" ","ALLEY":" ","HOUSE_NO":"３８０號之１","E_COORD97":181045.41195000001,"N_COORD97":2557583.4907,"ADDRESS":"茄拔３８０號之１","OBJECTID":660987},"geometry":{"x":181045.41195000056,"y":2557583.490699999}},{"attributes":{"ID":661015,"DIS_CODE":0,"TOWNNAME":"善化區","LI":"嘉南里","LIN":"2鄰","STREET":" ","SECT":" ","MAREA":"茄拔","LANE":" ","ALLEY":" ","HOUSE_NO":"６３號","E_COORD97":181009.174807,"N_COORD97":2559106.4315499999,"ADDRESS":"茄拔６３號","OBJECTID":660988},"geometry":{"x":181009.17480700091,"y":2559106.4315460008}},{"attributes":{"ID":661016,"DIS_CODE":0,"TOWNNAME":"善化區","LI":"嘉南里","LIN":"2鄰","STREET":" ","SECT":" ","MAREA":"茄拔","LANE":" ","ALLEY":" ","HOUSE_NO":"６２號之５","E_COORD97":181107.29060000001,"N_COORD97":2559318.3097600001,"ADDRESS":"茄拔６２號之５","OBJECTID":660989},"geometry":{"x":181107.29059999995,"y":2559318.3097600024}},{"attributes":{"ID":661017,"DIS_CODE":0,"TOWNNAME":"善化區","LI":"嘉南里","LIN":"1鄰","STREET":" ","SECT":" ","MAREA":"茄拔","LANE":" ","ALLEY":" ","HOUSE_NO":"５７號之１","E_COORD97":181097.96642000001,"N_COORD97":2559513.04299,"ADDRESS":"茄拔５７號之１","OBJECTID":660990},"geometry":{"x":181097.96642000042,"y":2559513.0429899991}},{"attributes":{"ID":661018,"DIS_CODE":0,"TOWNNAME":"新營區","LI":"延平里","LIN":"16鄰","STREET":"忠義街","SECT":" ","MAREA":" ","LANE":" ","ALLEY":" ","HOUSE_NO":"２９號","E_COORD97":179551.455896,"N_COORD97":2577925.9373400002,"ADDRESS":"忠義街２９號","OBJECTID":660991},"geometry":{"x":179551.45589600131,"y":2577925.9373440016}},{"attributes":{"ID":661019,"DIS_CODE":0,"TOWNNAME":"新營區","LI":"延平里","LIN":"16鄰","STREET":"忠義街","SECT":" ","MAREA":" ","LANE":" ","ALLEY":" ","HOUSE_NO":"２７號","E_COORD97":179575.19130999999,"N_COORD97":2577906.6756899999,"ADDRESS":"忠義街２７號","OBJECTID":660992},"geometry":{"x":179575.19131000061,"y":2577906.6756870002}},{"attributes":{"ID":661020,"DIS_CODE":0,"TOWNNAME":"新營區","LI":"延平里","LIN":"16鄰","STREET":"忠義街","SECT":" ","MAREA":" ","LANE":" ","ALLEY":" ","HOUSE_NO":"３１號","E_COORD97":179545.31012000001,"N_COORD97":2577926.57234,"ADDRESS":"忠義街３１號","OBJECTID":660993},"geometry":{"x":179545.31011999957,"y":2577926.572343003}},{"attributes":{"ID":661021,"DIS_CODE":0,"TOWNNAME":"新營區","LI":"新東里","LIN":"21鄰","STREET":"東明街","SECT":" ","MAREA":" ","LANE":"４２巷","ALLEY":" ","HOUSE_NO":"１５號","E_COORD97":180852.33351,"N_COORD97":2579654.3951900001,"ADDRESS":"東明街４２巷１５號","OBJECTID":660994},"geometry":{"x":180852.33351000026,"y":2579654.3951880001}},{"attributes":{"ID":661022,"DIS_CODE":0,"TOWNNAME":"新營區","LI":"延平里","LIN":"16鄰","STREET":"忠義街","SECT":" ","MAREA":" ","LANE":" ","ALLEY":" ","HOUSE_NO":"３５號","E_COORD97":179537.04511000001,"N_COORD97":2577923.8206799999,"ADDRESS":"忠義街３５號","OBJECTID":660995},"geometry":{"x":179537.04511000123,"y":2577923.8206780013}},{"attributes":{"ID":661023,"DIS_CODE":0,"TOWNNAME":"新營區","LI":"延平里","LIN":"16鄰","STREET":"忠義街","SECT":" ","MAREA":" ","LANE":" ","ALLEY":" ","HOUSE_NO":"３７號","E_COORD97":179534.07818300001,"N_COORD97":2577920.8573500002,"ADDRESS":"忠義街３７號","OBJECTID":660996},"geometry":{"x":179534.07818300091,"y":2577920.8573460039}},{"attributes":{"ID":661024,"DIS_CODE":0,"TOWNNAME":"新營區","LI":"延平里","LIN":"16鄰","STREET":"忠義街","SECT":" ","MAREA":" ","LANE":" ","ALLEY":" ","HOUSE_NO":"３９號","E_COORD97":179531.535103,"N_COORD97":2577918.3173500001,"ADDRESS":"忠義街３９號","OBJECTID":660997},"geometry":{"x":179531.53510299977,"y":2577918.3173479997}},{"attributes":{"ID":661025,"DIS_CODE":0,"TOWNNAME":"善化區","LI":"嘉南里","LIN":"1鄰","STREET":" ","SECT":" ","MAREA":"茄拔","LANE":" ","ALLEY":" ","HOUSE_NO":"５９號之７","E_COORD97":181229.98832999999,"N_COORD97":2559502.4596600002,"ADDRESS":"茄拔５９號之７","OBJECTID":660998},"geometry":{"x":181229.98832999915,"y":2559502.459660003}},{"attributes":{"ID":661026,"DIS_CODE":0,"TOWNNAME":"善化區","LI":"嘉南里","LIN":"5鄰","STREET":" ","SECT":" ","MAREA":"茄拔","LANE":" ","ALLEY":" ","HOUSE_NO":"９１號之２","E_COORD97":180929.07162,"N_COORD97":2559440.8646900002,"ADDRESS":"茄拔９１號之２","OBJECTID":660999},"geometry":{"x":180929.07161999959,"y":2559440.8646900021}},{"attributes":{"ID":661027,"DIS_CODE":0,"TOWNNAME":"新營區","LI":"延平里","LIN":"16鄰","STREET":"長春街","SECT":" ","MAREA":" ","LANE":"９０巷","ALLEY":" ","HOUSE_NO":"２號","E_COORD97":179623.297907,"N_COORD97":2577863.8132099998,"ADDRESS":"長春街９０巷２號","OBJECTID":661000},"geometry":{"x":179623.29790700041,"y":2577863.8132109996}}]}