{"displayFieldName":"TOWNNAME","fieldAliases":{"ID":"ID","DIS_CODE":"DIS_CODE","TOWNNAME":"TOWNNAME","LI":"LI","LIN":"LIN","STREET":"STREET","SECT":"SECT","MAREA":"MAREA","LANE":"LANE","ALLEY":"ALLEY","HOUSE_NO":"HOUSE_NO","E_COORD97":"E_COORD97","N_COORD97":"N_COORD97","ADDRESS":"ADDRESS","OBJECTID":"OBJECTID"},"geometryType":"esriGeometryPoint","spatialReference":{"wkid":102443,"latestWkid":3826},"fields":[{"name":"ID","type":"esriFieldTypeDouble","alias":"ID"},{"name":"DIS_CODE","type":"esriFieldTypeInteger","alias":"DIS_CODE"},{"name":"TOWNNAME","type":"esriFieldTypeString","alias":"TOWNNAME","length":8},{"name":"LI","type":"esriFieldTypeString","alias":"LI","length":8},{"name":"LIN","type":"esriFieldTypeString","alias":"LIN","length":12},{"name":"STREET","type":"esriFieldTypeString","alias":"STREET","length":20},{"name":"SECT","type":"esriFieldTypeString","alias":"SECT","length":8},{"name":"MAREA","type":"esriFieldTypeString","alias":"MAREA","length":12},{"name":"LANE","type":"esriFieldTypeString","alias":"LANE","length":10},{"name":"ALLEY","type":"esriFieldTypeString","alias":"ALLEY","length":10},{"name":"HOUSE_NO","type":"esriFieldTypeString","alias":"HOUSE_NO","length":20},{"name":"E_COORD97","type":"esriFieldTypeDouble","alias":"E_COORD97"},{"name":"N_COORD97","type":"esriFieldTypeDouble","alias":"N_COORD97"},{"name":"ADDRESS","type":"esriFieldTypeString","alias":"ADDRESS","length":50},{"name":"OBJECTID","type":"esriFieldTypeOID","alias":"OBJECTID"}],"features":[{"attributes":{"ID":565228,"DIS_CODE":0,"TOWNNAME":"新化區","LI":"太平里","LIN":"9鄰","STREET":"中正路","SECT":" ","MAREA":" ","LANE":" ","ALLEY":" ","HOUSE_NO":"６９０號之１１","E_COORD97":178821.98999999999,"N_COORD97":2549687.2599999998,"ADDRESS":"中正路６９０號之１１","OBJECTID":565201},"geometry":{"x":178821.98999999929,"y":2549687.2599999998}},{"attributes":{"ID":565229,"DIS_CODE":0,"TOWNNAME":"新化區","LI":"太平里","LIN":"9鄰","STREET":"中正路","SECT":" ","MAREA":" ","LANE":" ","ALLEY":" ","HOUSE_NO":"６６６號之２","E_COORD97":178624.35999999999,"N_COORD97":2549544.2599999998,"ADDRESS":"中正路６６６號之２","OBJECTID":565202},"geometry":{"x":178624.36000000034,"y":2549544.2599999998}},{"attributes":{"ID":565230,"DIS_CODE":0,"TOWNNAME":"新化區","LI":"太平里","LIN":"9鄰","STREET":"中正路","SECT":" ","MAREA":" ","LANE":" ","ALLEY":" ","HOUSE_NO":"６９０號之５","E_COORD97":178586.26999999999,"N_COORD97":2549623.2599999998,"ADDRESS":"中正路６９０號之５","OBJECTID":565203},"geometry":{"x":178586.27000000048,"y":2549623.2600000035}},{"attributes":{"ID":565231,"DIS_CODE":0,"TOWNNAME":"新化區","LI":"太平里","LIN":"9鄰","STREET":"中正路","SECT":" ","MAREA":" ","LANE":" ","ALLEY":" ","HOUSE_NO":"６９０號之３","E_COORD97":178589.66,"N_COORD97":2549615.2599999998,"ADDRESS":"中正路６９０號之３","OBJECTID":565204},"geometry":{"x":178589.66000000015,"y":2549615.2599999998}},{"attributes":{"ID":565232,"DIS_CODE":0,"TOWNNAME":"新化區","LI":"太平里","LIN":"9鄰","STREET":"中正路","SECT":" ","MAREA":" ","LANE":" ","ALLEY":" ","HOUSE_NO":"６７０號之１０","E_COORD97":178666.39999999999,"N_COORD97":2549546.2599999998,"ADDRESS":"中正路６７０號之１０","OBJECTID":565205},"geometry":{"x":178666.40000000037,"y":2549546.2600000016}},{"attributes":{"ID":565233,"DIS_CODE":0,"TOWNNAME":"新化區","LI":"太平里","LIN":"9鄰","STREET":"中正路","SECT":" ","MAREA":" ","LANE":" ","ALLEY":" ","HOUSE_NO":"６７０號之２","E_COORD97":178644.76000000001,"N_COORD97":2549557.2599999998,"ADDRESS":"中正路６７０號之２","OBJECTID":565206},"geometry":{"x":178644.75999999978,"y":2549557.2599999998}},{"attributes":{"ID":565234,"DIS_CODE":0,"TOWNNAME":"新化區","LI":"太平里","LIN":"9鄰","STREET":"中正路","SECT":" ","MAREA":" ","LANE":" ","ALLEY":" ","HOUSE_NO":"６７４號","E_COORD97":178615.91,"N_COORD97":2549562.25,"ADDRESS":"中正路６７４號","OBJECTID":565207},"geometry":{"x":178615.91000000108,"y":2549562.2499999981}},{"attributes":{"ID":565235,"DIS_CODE":0,"TOWNNAME":"新化區","LI":"太平里","LIN":"9鄰","STREET":"中正路","SECT":" ","MAREA":" ","LANE":" ","ALLEY":" ","HOUSE_NO":"６７０號之１７","E_COORD97":178674.5,"N_COORD97":2549558.2599999998,"ADDRESS":"中正路６７０號之１７","OBJECTID":565208},"geometry":{"x":178674.50000000093,"y":2549558.2599999998}},{"attributes":{"ID":565236,"DIS_CODE":0,"TOWNNAME":"新化區","LI":"太平里","LIN":"9鄰","STREET":"中正路","SECT":" ","MAREA":" ","LANE":" ","ALLEY":" ","HOUSE_NO":"６９２號之３","E_COORD97":178579.76000000001,"N_COORD97":2549639.2599999998,"ADDRESS":"中正路６９２號之３","OBJECTID":565209},"geometry":{"x":178579.76000000071,"y":2549639.2599999998}},{"attributes":{"ID":565237,"DIS_CODE":0,"TOWNNAME":"新化區","LI":"太平里","LIN":"9鄰","STREET":"中正路","SECT":" ","MAREA":" ","LANE":" ","ALLEY":" ","HOUSE_NO":"６７０號之９","E_COORD97":178658.95000000001,"N_COORD97":2549553.2599999998,"ADDRESS":"中正路６７０號之９","OBJECTID":565210},"geometry":{"x":178658.95000000019,"y":2549553.2600000016}},{"attributes":{"ID":565238,"DIS_CODE":0,"TOWNNAME":"新化區","LI":"太平里","LIN":"9鄰","STREET":"中正路","SECT":" ","MAREA":" ","LANE":" ","ALLEY":" ","HOUSE_NO":"６９８號之１","E_COORD97":178564.34,"N_COORD97":2549675.2599999998,"ADDRESS":"中正路６９８號之１","OBJECTID":565211},"geometry":{"x":178564.33999999985,"y":2549675.2600000016}},{"attributes":{"ID":565239,"DIS_CODE":0,"TOWNNAME":"新化區","LI":"太平里","LIN":"9鄰","STREET":"中正路","SECT":" ","MAREA":" ","LANE":" ","ALLEY":" ","HOUSE_NO":"６６８號","E_COORD97":178622.20999999999,"N_COORD97":2549548.25,"ADDRESS":"中正路６６８號","OBJECTID":565212},"geometry":{"x":178622.21000000089,"y":2549548.25}},{"attributes":{"ID":565240,"DIS_CODE":0,"TOWNNAME":"新化區","LI":"太平里","LIN":"9鄰","STREET":"中正路","SECT":" ","MAREA":" ","LANE":" ","ALLEY":" ","HOUSE_NO":"９９０號","E_COORD97":178388.20999999999,"N_COORD97":2550134.25,"ADDRESS":"中正路９９０號","OBJECTID":565213},"geometry":{"x":178388.21000000089,"y":2550134.25}},{"attributes":{"ID":565241,"DIS_CODE":0,"TOWNNAME":"南區","LI":"同安里","LIN":"9鄰","STREET":"灣裡路","SECT":" ","MAREA":" ","LANE":" ","ALLEY":" ","HOUSE_NO":"３３１號","E_COORD97":166164.16,"N_COORD97":2536234.3199999998,"ADDRESS":"灣裡路３３１號","OBJECTID":565214},"geometry":{"x":166164.16000000015,"y":2536234.3200000003}},{"attributes":{"ID":565242,"DIS_CODE":0,"TOWNNAME":"東區","LI":"文聖里","LIN":"9鄰","STREET":"裕平路","SECT":" ","MAREA":" ","LANE":" ","ALLEY":" ","HOUSE_NO":"９２號","E_COORD97":172111.48000000001,"N_COORD97":2542785.75,"ADDRESS":"裕平路９２號","OBJECTID":565215},"geometry":{"x":172111.48000000138,"y":2542785.7500000019}},{"attributes":{"ID":565243,"DIS_CODE":0,"TOWNNAME":"南區","LI":"同安里","LIN":"9鄰","STREET":"灣裡路","SECT":" ","MAREA":" ","LANE":" ","ALLEY":" ","HOUSE_NO":"３３５號","E_COORD97":166165.22,"N_COORD97":2536228.2000000002,"ADDRESS":"灣裡路３３５號","OBJECTID":565216},"geometry":{"x":166165.21999999974,"y":2536228.2000000011}},{"attributes":{"ID":565244,"DIS_CODE":0,"TOWNNAME":"南區","LI":"同安里","LIN":"9鄰","STREET":"灣裡路","SECT":" ","MAREA":" ","LANE":" ","ALLEY":" ","HOUSE_NO":"３３７號","E_COORD97":166169.45000000001,"N_COORD97":2536223.77,"ADDRESS":"灣裡路３３７號","OBJECTID":565217},"geometry":{"x":166169.45000000205,"y":2536223.7699999996}},{"attributes":{"ID":565245,"DIS_CODE":0,"TOWNNAME":"南區","LI":"同安里","LIN":"9鄰","STREET":"灣裡路","SECT":" ","MAREA":" ","LANE":" ","ALLEY":" ","HOUSE_NO":"３３９號","E_COORD97":166176.85000000001,"N_COORD97":2536215.7400000002,"ADDRESS":"灣裡路３３９號","OBJECTID":565218},"geometry":{"x":166176.85000000056,"y":2536215.7400000021}},{"attributes":{"ID":565246,"DIS_CODE":0,"TOWNNAME":"東區","LI":"德光里","LIN":"9鄰","STREET":"崇學路","SECT":" ","MAREA":" ","LANE":" ","ALLEY":" ","HOUSE_NO":"６３號","E_COORD97":170117.41,"N_COORD97":2542064.0499999998,"ADDRESS":"崇學路６３號","OBJECTID":565219},"geometry":{"x":170117.41000000015,"y":2542064.0500000007}},{"attributes":{"ID":565247,"DIS_CODE":0,"TOWNNAME":"南區","LI":"竹溪里","LIN":"9鄰","STREET":"南門路","SECT":" ","MAREA":" ","LANE":" ","ALLEY":" ","HOUSE_NO":"２７３號","E_COORD97":168367.70999999999,"N_COORD97":2542184.6499999999,"ADDRESS":"南門路２７３號","OBJECTID":565220},"geometry":{"x":168367.70999999903,"y":2542184.6500000004}},{"attributes":{"ID":565248,"DIS_CODE":0,"TOWNNAME":"南區","LI":"竹溪里","LIN":"9鄰","STREET":"南門路","SECT":" ","MAREA":" ","LANE":" ","ALLEY":" ","HOUSE_NO":"３２７號","E_COORD97":168368.48000000001,"N_COORD97":2541950.2599999998,"ADDRESS":"南門路３２７號","OBJECTID":565221},"geometry":{"x":168368.48000000138,"y":2541950.2599999998}},{"attributes":{"ID":565249,"DIS_CODE":0,"TOWNNAME":"東區","LI":"文聖里","LIN":"9鄰","STREET":"裕平路","SECT":" ","MAREA":" ","LANE":" ","ALLEY":" ","HOUSE_NO":"６６號","E_COORD97":172097.28,"N_COORD97":2542795.2000000002,"ADDRESS":"裕平路６６號","OBJECTID":565222},"geometry":{"x":172097.28000000119,"y":2542795.2000000011}},{"attributes":{"ID":565250,"DIS_CODE":0,"TOWNNAME":"東區","LI":"文聖里","LIN":"9鄰","STREET":"裕平路","SECT":" ","MAREA":" ","LANE":" ","ALLEY":" ","HOUSE_NO":"１０２號","E_COORD97":172117.26000000001,"N_COORD97":2542811.6099999999,"ADDRESS":"裕平路１０２號","OBJECTID":565223},"geometry":{"x":172117.26000000071,"y":2542811.6099999994}},{"attributes":{"ID":565251,"DIS_CODE":0,"TOWNNAME":"東區","LI":"文聖里","LIN":"9鄰","STREET":"裕平路","SECT":" ","MAREA":" ","LANE":" ","ALLEY":" ","HOUSE_NO":"６０號","E_COORD97":172093.73999999999,"N_COORD97":2542807.4100000001,"ADDRESS":"裕平路６０號","OBJECTID":565224},"geometry":{"x":172093.74000000022,"y":2542807.4100000001}},{"attributes":{"ID":565252,"DIS_CODE":0,"TOWNNAME":"東區","LI":"文聖里","LIN":"9鄰","STREET":"裕平路","SECT":" ","MAREA":" ","LANE":" ","ALLEY":" ","HOUSE_NO":"６２號","E_COORD97":172099.26000000001,"N_COORD97":2542811.3500000001,"ADDRESS":"裕平路６２號","OBJECTID":565225},"geometry":{"x":172099.25999999978,"y":2542811.3500000034}},{"attributes":{"ID":565253,"DIS_CODE":0,"TOWNNAME":"東區","LI":"文聖里","LIN":"9鄰","STREET":"裕平路","SECT":" ","MAREA":" ","LANE":" ","ALLEY":" ","HOUSE_NO":"６４號","E_COORD97":172097.01999999999,"N_COORD97":2542799.7999999998,"ADDRESS":"裕平路６４號","OBJECTID":565226},"geometry":{"x":172097.02000000048,"y":2542799.8000000026}},{"attributes":{"ID":565254,"DIS_CODE":0,"TOWNNAME":"東區","LI":"文聖里","LIN":"9鄰","STREET":"裕平路","SECT":" ","MAREA":" ","LANE":" ","ALLEY":" ","HOUSE_NO":"７０號","E_COORD97":172097.01999999999,"N_COORD97":2542785.75,"ADDRESS":"裕平路７０號","OBJECTID":565227},"geometry":{"x":172097.02000000048,"y":2542785.7500000019}},{"attributes":{"ID":565255,"DIS_CODE":0,"TOWNNAME":"東區","LI":"文聖里","LIN":"9鄰","STREET":"裕平路","SECT":" ","MAREA":" ","LANE":" ","ALLEY":" ","HOUSE_NO":"７２號","E_COORD97":172097.54999999999,"N_COORD97":2542780.7599999998,"ADDRESS":"裕平路７２號","OBJECTID":565228},"geometry":{"x":172097.54999999981,"y":2542780.7599999998}},{"attributes":{"ID":565256,"DIS_CODE":0,"TOWNNAME":"東區","LI":"文聖里","LIN":"9鄰","STREET":"裕平路","SECT":" ","MAREA":" ","LANE":" ","ALLEY":" ","HOUSE_NO":"７４號","E_COORD97":172097.28,"N_COORD97":2542776.1600000001,"ADDRESS":"裕平路７４號","OBJECTID":565229},"geometry":{"x":172097.28000000119,"y":2542776.160000002}},{"attributes":{"ID":565257,"DIS_CODE":0,"TOWNNAME":"東區","LI":"文聖里","LIN":"9鄰","STREET":"裕平路","SECT":" ","MAREA":" ","LANE":" ","ALLEY":" ","HOUSE_NO":"７６號","E_COORD97":172097.28,"N_COORD97":2542770.9100000001,"ADDRESS":"裕平路７６號","OBJECTID":565230},"geometry":{"x":172097.28000000119,"y":2542770.910000002}},{"attributes":{"ID":565258,"DIS_CODE":0,"TOWNNAME":"東區","LI":"文聖里","LIN":"9鄰","STREET":"裕平路","SECT":" ","MAREA":" ","LANE":" ","ALLEY":" ","HOUSE_NO":"７８號","E_COORD97":172096.63,"N_COORD97":2542766.4399999999,"ADDRESS":"裕平路７８號","OBJECTID":565231},"geometry":{"x":172096.63000000082,"y":2542766.4400000032}},{"attributes":{"ID":565259,"DIS_CODE":0,"TOWNNAME":"東區","LI":"文聖里","LIN":"9鄰","STREET":"裕平路","SECT":" ","MAREA":" ","LANE":" ","ALLEY":" ","HOUSE_NO":"８０號","E_COORD97":172096.35999999999,"N_COORD97":2542760.1400000001,"ADDRESS":"裕平路８０號","OBJECTID":565232},"geometry":{"x":172096.36000000034,"y":2542760.1400000025}},{"attributes":{"ID":565260,"DIS_CODE":0,"TOWNNAME":"東區","LI":"文聖里","LIN":"9鄰","STREET":"裕平路","SECT":" ","MAREA":" ","LANE":" ","ALLEY":" ","HOUSE_NO":"８２號","E_COORD97":172110.42999999999,"N_COORD97":2542760.7999999998,"ADDRESS":"裕平路８２號","OBJECTID":565233},"geometry":{"x":172110.4299999997,"y":2542760.8000000007}},{"attributes":{"ID":565261,"DIS_CODE":0,"TOWNNAME":"東區","LI":"文聖里","LIN":"9鄰","STREET":"裕平路","SECT":" ","MAREA":" ","LANE":" ","ALLEY":" ","HOUSE_NO":"８４號","E_COORD97":172110.69,"N_COORD97":2542766.9700000002,"ADDRESS":"裕平路８４號","OBJECTID":565234},"geometry":{"x":172110.69000000041,"y":2542766.9700000007}},{"attributes":{"ID":565262,"DIS_CODE":0,"TOWNNAME":"東區","LI":"文聖里","LIN":"9鄰","STREET":"裕平路","SECT":" ","MAREA":" ","LANE":" ","ALLEY":" ","HOUSE_NO":"８６號","E_COORD97":172111.48000000001,"N_COORD97":2542770.9100000001,"ADDRESS":"裕平路８６號","OBJECTID":565235},"geometry":{"x":172111.48000000138,"y":2542770.910000002}},{"attributes":{"ID":565263,"DIS_CODE":0,"TOWNNAME":"東區","LI":"文聖里","LIN":"9鄰","STREET":"裕平路","SECT":" ","MAREA":" ","LANE":" ","ALLEY":" ","HOUSE_NO":"８８號","E_COORD97":172111.07999999999,"N_COORD97":2542776.1600000001,"ADDRESS":"裕平路８８號","OBJECTID":565236},"geometry":{"x":172111.08000000007,"y":2542776.160000002}},{"attributes":{"ID":565264,"DIS_CODE":0,"TOWNNAME":"東區","LI":"文聖里","LIN":"9鄰","STREET":"裕平路","SECT":" ","MAREA":" ","LANE":" ","ALLEY":" ","HOUSE_NO":"９０號","E_COORD97":172111.73999999999,"N_COORD97":2542781.4100000001,"ADDRESS":"裕平路９０號","OBJECTID":565237},"geometry":{"x":172111.74000000022,"y":2542781.410000002}},{"attributes":{"ID":565265,"DIS_CODE":0,"TOWNNAME":"東區","LI":"文聖里","LIN":"9鄰","STREET":"裕平路","SECT":" ","MAREA":" ","LANE":" ","ALLEY":" ","HOUSE_NO":"９６號","E_COORD97":172111.35000000001,"N_COORD97":2542794.9399999999,"ADDRESS":"裕平路９６號","OBJECTID":565238},"geometry":{"x":172111.35000000056,"y":2542794.9400000013}},{"attributes":{"ID":565266,"DIS_CODE":0,"TOWNNAME":"東區","LI":"文聖里","LIN":"9鄰","STREET":"裕平路","SECT":" ","MAREA":" ","LANE":" ","ALLEY":" ","HOUSE_NO":"９８號","E_COORD97":172112.13,"N_COORD97":2542799.7999999998,"ADDRESS":"裕平路９８號","OBJECTID":565239},"geometry":{"x":172112.12999999989,"y":2542799.8000000026}},{"attributes":{"ID":565267,"DIS_CODE":0,"TOWNNAME":"東區","LI":"南聖里","LIN":"9鄰","STREET":"裕忠路","SECT":" ","MAREA":" ","LANE":" ","ALLEY":" ","HOUSE_NO":"５０號","E_COORD97":172177.38,"N_COORD97":2543202.2999999998,"ADDRESS":"裕忠路５０號","OBJECTID":565240},"geometry":{"x":172177.38000000175,"y":2543202.2999999989}},{"attributes":{"ID":565268,"DIS_CODE":0,"TOWNNAME":"東區","LI":"南聖里","LIN":"9鄰","STREET":"裕忠路","SECT":" ","MAREA":" ","LANE":" ","ALLEY":" ","HOUSE_NO":"２６號","E_COORD97":172221.39999999999,"N_COORD97":2543213.2200000002,"ADDRESS":"裕忠路２６號","OBJECTID":565241},"geometry":{"x":172221.40000000037,"y":2543213.2200000044}},{"attributes":{"ID":565269,"DIS_CODE":0,"TOWNNAME":"東區","LI":"南聖里","LIN":"9鄰","STREET":"裕忠路","SECT":" ","MAREA":" ","LANE":" ","ALLEY":" ","HOUSE_NO":"２８號","E_COORD97":172217.89000000001,"N_COORD97":2543209.3199999998,"ADDRESS":"裕忠路２８號","OBJECTID":565242},"geometry":{"x":172217.8900000006,"y":2543209.3200000022}},{"attributes":{"ID":565270,"DIS_CODE":0,"TOWNNAME":"東區","LI":"南聖里","LIN":"9鄰","STREET":"裕忠路","SECT":" ","MAREA":" ","LANE":" ","ALLEY":" ","HOUSE_NO":"３０號","E_COORD97":172213.29999999999,"N_COORD97":2543212.7400000002,"ADDRESS":"裕忠路３０號","OBJECTID":565243},"geometry":{"x":172213.29999999888,"y":2543212.7400000039}},{"attributes":{"ID":565271,"DIS_CODE":0,"TOWNNAME":"東區","LI":"南聖里","LIN":"9鄰","STREET":"裕忠路","SECT":" ","MAREA":" ","LANE":" ","ALLEY":" ","HOUSE_NO":"３２號","E_COORD97":172210.07999999999,"N_COORD97":2543208.6400000001,"ADDRESS":"裕忠路３２號","OBJECTID":565244},"geometry":{"x":172210.08000000194,"y":2543208.6400000006}},{"attributes":{"ID":565272,"DIS_CODE":0,"TOWNNAME":"東區","LI":"南聖里","LIN":"9鄰","STREET":"裕忠路","SECT":" ","MAREA":" ","LANE":" ","ALLEY":" ","HOUSE_NO":"３４號","E_COORD97":172205.20000000001,"N_COORD97":2543211.7599999998,"ADDRESS":"裕忠路３４號","OBJECTID":565245},"geometry":{"x":172205.20000000019,"y":2543211.7599999979}},{"attributes":{"ID":565273,"DIS_CODE":0,"TOWNNAME":"東區","LI":"南聖里","LIN":"9鄰","STREET":"裕忠路","SECT":" ","MAREA":" ","LANE":" ","ALLEY":" ","HOUSE_NO":"３６號","E_COORD97":172201.78,"N_COORD97":2543207.3700000001,"ADDRESS":"裕忠路３６號","OBJECTID":565246},"geometry":{"x":172201.78000000026,"y":2543207.3700000029}},{"attributes":{"ID":565274,"DIS_CODE":0,"TOWNNAME":"東區","LI":"南聖里","LIN":"9鄰","STREET":"裕忠路","SECT":" ","MAREA":" ","LANE":" ","ALLEY":" ","HOUSE_NO":"３８號","E_COORD97":172197.19,"N_COORD97":2543210.2999999998,"ADDRESS":"裕忠路３８號","OBJECTID":565247},"geometry":{"x":172197.19000000041,"y":2543210.3000000026}},{"attributes":{"ID":565275,"DIS_CODE":0,"TOWNNAME":"東區","LI":"南聖里","LIN":"9鄰","STREET":"裕忠路","SECT":" ","MAREA":" ","LANE":" ","ALLEY":" ","HOUSE_NO":"４０號","E_COORD97":172193.29000000001,"N_COORD97":2543206.2000000002,"ADDRESS":"裕忠路４０號","OBJECTID":565248},"geometry":{"x":172193.28999999911,"y":2543206.2000000011}},{"attributes":{"ID":565276,"DIS_CODE":0,"TOWNNAME":"東區","LI":"南聖里","LIN":"9鄰","STREET":"裕忠路","SECT":" ","MAREA":" ","LANE":" ","ALLEY":" ","HOUSE_NO":"４２號","E_COORD97":172188.89000000001,"N_COORD97":2543208.3500000001,"ADDRESS":"裕忠路４２號","OBJECTID":565249},"geometry":{"x":172188.89000000153,"y":2543208.3500000015}},{"attributes":{"ID":565277,"DIS_CODE":0,"TOWNNAME":"東區","LI":"南聖里","LIN":"9鄰","STREET":"裕忠路","SECT":" ","MAREA":" ","LANE":" ","ALLEY":" ","HOUSE_NO":"４６號","E_COORD97":172185.19,"N_COORD97":2543204.25,"ADDRESS":"裕忠路４６號","OBJECTID":565250},"geometry":{"x":172185.19000000041,"y":2543204.25}},{"attributes":{"ID":565278,"DIS_CODE":0,"TOWNNAME":"東區","LI":"南聖里","LIN":"9鄰","STREET":"裕忠路","SECT":" ","MAREA":" ","LANE":" ","ALLEY":" ","HOUSE_NO":"４８號","E_COORD97":172181.09,"N_COORD97":2543207.3700000001,"ADDRESS":"裕忠路４８號","OBJECTID":565251},"geometry":{"x":172181.09000000171,"y":2543207.3700000029}},{"attributes":{"ID":565279,"DIS_CODE":0,"TOWNNAME":"東區","LI":"南聖里","LIN":"9鄰","STREET":"裕忠路","SECT":" ","MAREA":" ","LANE":" ","ALLEY":" ","HOUSE_NO":"５２號","E_COORD97":172172.98000000001,"N_COORD97":2543205.9100000001,"ADDRESS":"裕忠路５２號","OBJECTID":565252},"geometry":{"x":172172.98000000138,"y":2543205.910000002}},{"attributes":{"ID":565280,"DIS_CODE":0,"TOWNNAME":"東區","LI":"南聖里","LIN":"9鄰","STREET":"裕忠路","SECT":" ","MAREA":" ","LANE":" ","ALLEY":" ","HOUSE_NO":"５６號","E_COORD97":172173.76000000001,"N_COORD97":2543180.8399999999,"ADDRESS":"裕忠路５６號","OBJECTID":565253},"geometry":{"x":172173.76000000071,"y":2543180.8400000036}},{"attributes":{"ID":565281,"DIS_CODE":0,"TOWNNAME":"東區","LI":"南聖里","LIN":"9鄰","STREET":"裕忠路","SECT":" ","MAREA":" ","LANE":" ","ALLEY":" ","HOUSE_NO":"５８號","E_COORD97":172176.69,"N_COORD97":2543184.9399999999,"ADDRESS":"裕忠路５８號","OBJECTID":565254},"geometry":{"x":172176.69000000041,"y":2543184.9400000013}},{"attributes":{"ID":565282,"DIS_CODE":0,"TOWNNAME":"東區","LI":"南聖里","LIN":"9鄰","STREET":"裕忠路","SECT":" ","MAREA":" ","LANE":" ","ALLEY":" ","HOUSE_NO":"６６號","E_COORD97":172193.78,"N_COORD97":2543188.8399999999,"ADDRESS":"裕忠路６６號","OBJECTID":565255},"geometry":{"x":172193.78000000212,"y":2543188.8400000017}},{"attributes":{"ID":565283,"DIS_CODE":0,"TOWNNAME":"東區","LI":"南聖里","LIN":"9鄰","STREET":"裕忠路","SECT":" ","MAREA":" ","LANE":" ","ALLEY":" ","HOUSE_NO":"６８號","E_COORD97":172197.88,"N_COORD97":2543185.4199999999,"ADDRESS":"裕忠路６８號","OBJECTID":565256},"geometry":{"x":172197.88000000082,"y":2543185.4200000018}},{"attributes":{"ID":565284,"DIS_CODE":0,"TOWNNAME":"東區","LI":"南聖里","LIN":"9鄰","STREET":"裕忠路","SECT":" ","MAREA":" ","LANE":" ","ALLEY":" ","HOUSE_NO":"７０號","E_COORD97":172201.39000000001,"N_COORD97":2543189.8100000001,"ADDRESS":"裕忠路７０號","OBJECTID":565257},"geometry":{"x":172201.3900000006,"y":2543189.8100000024}},{"attributes":{"ID":565285,"DIS_CODE":0,"TOWNNAME":"東區","LI":"南聖里","LIN":"9鄰","STREET":"裕忠路","SECT":" ","MAREA":" ","LANE":" ","ALLEY":" ","HOUSE_NO":"７２號","E_COORD97":172206.26999999999,"N_COORD97":2543186.3999999999,"ADDRESS":"裕忠路７２號","OBJECTID":565258},"geometry":{"x":172206.26999999955,"y":2543186.4000000004}},{"attributes":{"ID":565286,"DIS_CODE":0,"TOWNNAME":"東區","LI":"南聖里","LIN":"9鄰","STREET":"裕忠路","SECT":" ","MAREA":" ","LANE":" ","ALLEY":" ","HOUSE_NO":"７４號","E_COORD97":172209.10000000001,"N_COORD97":2543190.79,"ADDRESS":"裕忠路７４號","OBJECTID":565259},"geometry":{"x":172209.09999999963,"y":2543190.7900000028}},{"attributes":{"ID":565287,"DIS_CODE":0,"TOWNNAME":"東區","LI":"南聖里","LIN":"9鄰","STREET":"裕忠路","SECT":" ","MAREA":" ","LANE":" ","ALLEY":" ","HOUSE_NO":"７６號","E_COORD97":172214.26999999999,"N_COORD97":2543187.3799999999,"ADDRESS":"裕忠路７６號","OBJECTID":565260},"geometry":{"x":172214.26999999955,"y":2543187.3800000008}},{"attributes":{"ID":565288,"DIS_CODE":0,"TOWNNAME":"東區","LI":"南聖里","LIN":"9鄰","STREET":"裕忠路","SECT":" ","MAREA":" ","LANE":" ","ALLEY":" ","HOUSE_NO":"７８號","E_COORD97":172217.69,"N_COORD97":2543192.7400000002,"ADDRESS":"裕忠路７８號","OBJECTID":565261},"geometry":{"x":172217.69000000041,"y":2543192.7400000021}},{"attributes":{"ID":565289,"DIS_CODE":0,"TOWNNAME":"東區","LI":"南聖里","LIN":"9鄰","STREET":"裕忠路","SECT":" ","MAREA":" ","LANE":" ","ALLEY":" ","HOUSE_NO":"８０號","E_COORD97":172222.07999999999,"N_COORD97":2543189.6200000001,"ADDRESS":"裕忠路８０號","OBJECTID":565262},"geometry":{"x":172222.08000000194,"y":2543189.620000001}},{"attributes":{"ID":565290,"DIS_CODE":0,"TOWNNAME":"東區","LI":"南聖里","LIN":"9鄰","STREET":"裕忠路","SECT":" ","MAREA":" ","LANE":" ","ALLEY":" ","HOUSE_NO":"８２號","E_COORD97":172225.20999999999,"N_COORD97":2543194.8900000001,"ADDRESS":"裕忠路８２號","OBJECTID":565263},"geometry":{"x":172225.20999999996,"y":2543194.8900000043}},{"attributes":{"ID":565291,"DIS_CODE":0,"TOWNNAME":"東區","LI":"南聖里","LIN":"9鄰","STREET":"裕誠街","SECT":" ","MAREA":" ","LANE":" ","ALLEY":" ","HOUSE_NO":"２２號","E_COORD97":172092.91,"N_COORD97":2543218.8900000001,"ADDRESS":"裕誠街２２號","OBJECTID":565264},"geometry":{"x":172092.91000000108,"y":2543218.8900000043}},{"attributes":{"ID":565292,"DIS_CODE":0,"TOWNNAME":"東區","LI":"南聖里","LIN":"9鄰","STREET":"裕誠街","SECT":" ","MAREA":" ","LANE":" ","ALLEY":" ","HOUSE_NO":"２４號","E_COORD97":172097.5,"N_COORD97":2543220.75,"ADDRESS":"裕誠街２４號","OBJECTID":565265},"geometry":{"x":172097.50000000093,"y":2543220.75}},{"attributes":{"ID":565293,"DIS_CODE":0,"TOWNNAME":"東區","LI":"南聖里","LIN":"9鄰","STREET":"裕誠街","SECT":" ","MAREA":" ","LANE":" ","ALLEY":" ","HOUSE_NO":"２６號","E_COORD97":172101.51000000001,"N_COORD97":2543222.1899999999,"ADDRESS":"裕誠街２６號","OBJECTID":565266},"geometry":{"x":172101.50999999978,"y":2543222.1900000032}},{"attributes":{"ID":565294,"DIS_CODE":0,"TOWNNAME":"東區","LI":"南聖里","LIN":"9鄰","STREET":"裕誠街","SECT":" ","MAREA":" ","LANE":" ","ALLEY":" ","HOUSE_NO":"２８號","E_COORD97":172106.82000000001,"N_COORD97":2543221.4700000002,"ADDRESS":"裕誠街２８號","OBJECTID":565267},"geometry":{"x":172106.8200000003,"y":2543221.4699999988}},{"attributes":{"ID":565295,"DIS_CODE":0,"TOWNNAME":"東區","LI":"南聖里","LIN":"9鄰","STREET":"裕誠街","SECT":" ","MAREA":" ","LANE":" ","ALLEY":" ","HOUSE_NO":"３０號","E_COORD97":172110.82999999999,"N_COORD97":2543223.6200000001,"ADDRESS":"裕誠街３０號","OBJECTID":565268},"geometry":{"x":172110.83000000101,"y":2543223.620000001}},{"attributes":{"ID":565296,"DIS_CODE":0,"TOWNNAME":"東區","LI":"南聖里","LIN":"9鄰","STREET":"裕誠街","SECT":" ","MAREA":" ","LANE":" ","ALLEY":" ","HOUSE_NO":"３２號","E_COORD97":172115.85000000001,"N_COORD97":2543222.4700000002,"ADDRESS":"裕誠街３２號","OBJECTID":565269},"geometry":{"x":172115.84999999963,"y":2543222.4700000025}},{"attributes":{"ID":565297,"DIS_CODE":0,"TOWNNAME":"東區","LI":"南聖里","LIN":"9鄰","STREET":"裕誠街","SECT":" ","MAREA":" ","LANE":" ","ALLEY":" ","HOUSE_NO":"３４號","E_COORD97":172119.87,"N_COORD97":2543225.77,"ADDRESS":"裕誠街３４號","OBJECTID":565270},"geometry":{"x":172119.87000000011,"y":2543225.7700000014}},{"attributes":{"ID":565298,"DIS_CODE":0,"TOWNNAME":"東區","LI":"南聖里","LIN":"9鄰","STREET":"裕誠街","SECT":" ","MAREA":" ","LANE":" ","ALLEY":" ","HOUSE_NO":"３６號","E_COORD97":172125.89000000001,"N_COORD97":2543204.71,"ADDRESS":"裕誠街３６號","OBJECTID":565271},"geometry":{"x":172125.88999999966,"y":2543204.7100000028}},{"attributes":{"ID":565299,"DIS_CODE":0,"TOWNNAME":"東區","LI":"南聖里","LIN":"9鄰","STREET":"裕誠街","SECT":" ","MAREA":" ","LANE":" ","ALLEY":" ","HOUSE_NO":"３８號","E_COORD97":172118.29000000001,"N_COORD97":2543205.71,"ADDRESS":"裕誠街３８號","OBJECTID":565272},"geometry":{"x":172118.29000000004,"y":2543205.7100000009}},{"attributes":{"ID":565300,"DIS_CODE":0,"TOWNNAME":"東區","LI":"南聖里","LIN":"9鄰","STREET":"裕誠街","SECT":" ","MAREA":" ","LANE":" ","ALLEY":" ","HOUSE_NO":"４０號","E_COORD97":172111.12,"N_COORD97":2543203.8500000001,"ADDRESS":"裕誠街４０號","OBJECTID":565273},"geometry":{"x":172111.12000000011,"y":2543203.8499999996}},{"attributes":{"ID":565301,"DIS_CODE":0,"TOWNNAME":"東區","LI":"南聖里","LIN":"9鄰","STREET":"裕誠街","SECT":" ","MAREA":" ","LANE":" ","ALLEY":" ","HOUSE_NO":"４２號","E_COORD97":172103.66,"N_COORD97":2543202.4100000001,"ADDRESS":"裕誠街４２號","OBJECTID":565274},"geometry":{"x":172103.66000000108,"y":2543202.410000002}},{"attributes":{"ID":565302,"DIS_CODE":0,"TOWNNAME":"東區","LI":"南聖里","LIN":"9鄰","STREET":"裕誠街","SECT":" ","MAREA":" ","LANE":" ","ALLEY":" ","HOUSE_NO":"４６號","E_COORD97":172096.48999999999,"N_COORD97":2543200.2599999998,"ADDRESS":"裕誠街４６號","OBJECTID":565275},"geometry":{"x":172096.49000000022,"y":2543200.2599999998}},{"attributes":{"ID":565303,"DIS_CODE":0,"TOWNNAME":"東區","LI":"南聖里","LIN":"9鄰","STREET":"裕誠街","SECT":" ","MAREA":" ","LANE":" ","ALLEY":" ","HOUSE_NO":"４８號","E_COORD97":172098.64999999999,"N_COORD97":2543184.6499999999,"ADDRESS":"裕誠街４８號","OBJECTID":565276},"geometry":{"x":172098.6500000013,"y":2543184.6500000004}},{"attributes":{"ID":565304,"DIS_CODE":0,"TOWNNAME":"東區","LI":"南聖里","LIN":"9鄰","STREET":"裕誠街","SECT":" ","MAREA":" ","LANE":" ","ALLEY":" ","HOUSE_NO":"５０號","E_COORD97":172106.53,"N_COORD97":2543185.6499999999,"ADDRESS":"裕誠街５０號","OBJECTID":565277},"geometry":{"x":172106.53000000026,"y":2543185.6500000004}},{"attributes":{"ID":565305,"DIS_CODE":0,"TOWNNAME":"東區","LI":"南聖里","LIN":"9鄰","STREET":"裕誠街","SECT":" ","MAREA":" ","LANE":" ","ALLEY":" ","HOUSE_NO":"５２號","E_COORD97":172115.14000000001,"N_COORD97":2543187.0800000001,"ADDRESS":"裕誠街５２號","OBJECTID":565278},"geometry":{"x":172115.1400000006,"y":2543187.0800000019}},{"attributes":{"ID":565306,"DIS_CODE":0,"TOWNNAME":"東區","LI":"南聖里","LIN":"9鄰","STREET":"裕誠街","SECT":" ","MAREA":" ","LANE":" ","ALLEY":" ","HOUSE_NO":"５４號","E_COORD97":172122.31,"N_COORD97":2543187.7999999998,"ADDRESS":"裕誠街５４號","OBJECTID":565279},"geometry":{"x":172122.31000000052,"y":2543187.8000000007}},{"attributes":{"ID":565307,"DIS_CODE":0,"TOWNNAME":"東區","LI":"南聖里","LIN":"9鄰","STREET":"裕誠街","SECT":" ","MAREA":" ","LANE":" ","ALLEY":" ","HOUSE_NO":"５６號","E_COORD97":172129.48000000001,"N_COORD97":2543188.7999999998,"ADDRESS":"裕誠街５６號","OBJECTID":565280},"geometry":{"x":172129.48000000045,"y":2543188.7999999989}},{"attributes":{"ID":565308,"DIS_CODE":0,"TOWNNAME":"東區","LI":"南聖里","LIN":"9鄰","STREET":"裕誠街","SECT":" ","MAREA":" ","LANE":" ","ALLEY":" ","HOUSE_NO":"５８號","E_COORD97":172136.64999999999,"N_COORD97":2543189.23,"ADDRESS":"裕誠街５８號","OBJECTID":565281},"geometry":{"x":172136.65000000037,"y":2543189.2300000042}},{"attributes":{"ID":565309,"DIS_CODE":0,"TOWNNAME":"東區","LI":"南聖里","LIN":"9鄰","STREET":"裕誠街","SECT":" ","MAREA":" ","LANE":" ","ALLEY":" ","HOUSE_NO":"６０號","E_COORD97":172142.09,"N_COORD97":2543190.6600000001,"ADDRESS":"裕誠街６０號","OBJECTID":565282},"geometry":{"x":172142.09000000171,"y":2543190.660000002}},{"attributes":{"ID":565310,"DIS_CODE":0,"TOWNNAME":"東區","LI":"南聖里","LIN":"9鄰","STREET":"裕誠街","SECT":" ","MAREA":" ","LANE":" ","ALLEY":" ","HOUSE_NO":"６２號","E_COORD97":172148.12,"N_COORD97":2543190.9500000002,"ADDRESS":"裕誠街６２號","OBJECTID":565283},"geometry":{"x":172148.12000000011,"y":2543190.9500000011}},{"attributes":{"ID":565311,"DIS_CODE":0,"TOWNNAME":"東區","LI":"南聖里","LIN":"9鄰","STREET":"裕誠街","SECT":" ","MAREA":" ","LANE":" ","ALLEY":" ","HOUSE_NO":"６４號","E_COORD97":172154.14000000001,"N_COORD97":2543192.1000000001,"ADDRESS":"裕誠街６４號","OBJECTID":565284},"geometry":{"x":172154.1400000006,"y":2543192.0999999996}},{"attributes":{"ID":565312,"DIS_CODE":0,"TOWNNAME":"東區","LI":"南聖里","LIN":"9鄰","STREET":"裕誠街","SECT":" ","MAREA":" ","LANE":" ","ALLEY":" ","HOUSE_NO":"６６號","E_COORD97":172161.01999999999,"N_COORD97":2543192.8100000001,"ADDRESS":"裕誠街６６號","OBJECTID":565285},"geometry":{"x":172161.02000000048,"y":2543192.8100000024}},{"attributes":{"ID":565313,"DIS_CODE":0,"TOWNNAME":"東區","LI":"南聖里","LIN":"9鄰","STREET":"裕誠街","SECT":" ","MAREA":" ","LANE":" ","ALLEY":" ","HOUSE_NO":"６８號","E_COORD97":172167.48000000001,"N_COORD97":2543193.5299999998,"ADDRESS":"裕誠街６８號","OBJECTID":565286},"geometry":{"x":172167.48000000138,"y":2543193.5300000012}},{"attributes":{"ID":565314,"DIS_CODE":0,"TOWNNAME":"東區","LI":"南聖里","LIN":"9鄰","STREET":"裕誠街","SECT":" ","MAREA":" ","LANE":" ","ALLEY":" ","HOUSE_NO":"７０號","E_COORD97":172159.59,"N_COORD97":2543210.7200000002,"ADDRESS":"裕誠街７０號","OBJECTID":565287},"geometry":{"x":172159.59000000078,"y":2543210.7200000025}},{"attributes":{"ID":565315,"DIS_CODE":0,"TOWNNAME":"東區","LI":"南聖里","LIN":"9鄰","STREET":"裕誠街","SECT":" ","MAREA":" ","LANE":" ","ALLEY":" ","HOUSE_NO":"７２號","E_COORD97":172152.85000000001,"N_COORD97":2543209.5800000001,"ADDRESS":"裕誠街７２號","OBJECTID":565288},"geometry":{"x":172152.84999999963,"y":2543209.5800000001}},{"attributes":{"ID":565316,"DIS_CODE":0,"TOWNNAME":"東區","LI":"南聖里","LIN":"9鄰","STREET":"裕誠街","SECT":" ","MAREA":" ","LANE":" ","ALLEY":" ","HOUSE_NO":"７４號","E_COORD97":172146.39999999999,"N_COORD97":2543208.5699999998,"ADDRESS":"裕誠街７４號","OBJECTID":565289},"geometry":{"x":172146.40000000037,"y":2543208.5700000022}},{"attributes":{"ID":565317,"DIS_CODE":0,"TOWNNAME":"東區","LI":"南聖里","LIN":"9鄰","STREET":"裕誠街","SECT":" ","MAREA":" ","LANE":" ","ALLEY":" ","HOUSE_NO":"７６號","E_COORD97":172139.51000000001,"N_COORD97":2543208.1400000001,"ADDRESS":"裕誠街７６號","OBJECTID":565290},"geometry":{"x":172139.51000000071,"y":2543208.1400000025}},{"attributes":{"ID":565318,"DIS_CODE":0,"TOWNNAME":"東區","LI":"南聖里","LIN":"9鄰","STREET":"裕誠街","SECT":" ","MAREA":" ","LANE":" ","ALLEY":" ","HOUSE_NO":"７８號","E_COORD97":172133.78,"N_COORD97":2543227.2000000002,"ADDRESS":"裕誠街７８號","OBJECTID":565291},"geometry":{"x":172133.78000000026,"y":2543227.1999999993}},{"attributes":{"ID":565319,"DIS_CODE":0,"TOWNNAME":"東區","LI":"南聖里","LIN":"9鄰","STREET":"裕誠街","SECT":" ","MAREA":" ","LANE":" ","ALLEY":" ","HOUSE_NO":"８０號","E_COORD97":172139.79999999999,"N_COORD97":2543228.6299999999,"ADDRESS":"裕誠街８０號","OBJECTID":565292},"geometry":{"x":172139.79999999981,"y":2543228.629999999}},{"attributes":{"ID":565320,"DIS_CODE":0,"TOWNNAME":"東區","LI":"南聖里","LIN":"9鄰","STREET":"裕誠街","SECT":" ","MAREA":" ","LANE":" ","ALLEY":" ","HOUSE_NO":"８２號","E_COORD97":172145.17000000001,"N_COORD97":2543230.3100000001,"ADDRESS":"裕誠街８２號","OBJECTID":565293},"geometry":{"x":172145.17000000086,"y":2543230.3100000024}},{"attributes":{"ID":565321,"DIS_CODE":0,"TOWNNAME":"東區","LI":"南聖里","LIN":"9鄰","STREET":"裕誠街","SECT":" ","MAREA":" ","LANE":" ","ALLEY":" ","HOUSE_NO":"８４號","E_COORD97":172149.89999999999,"N_COORD97":2543229.6400000001,"ADDRESS":"裕誠街８４號","OBJECTID":565294},"geometry":{"x":172149.90000000037,"y":2543229.6400000006}},{"attributes":{"ID":565322,"DIS_CODE":0,"TOWNNAME":"東區","LI":"南聖里","LIN":"9鄰","STREET":"裕誠街","SECT":" ","MAREA":" ","LANE":" ","ALLEY":" ","HOUSE_NO":"８６號","E_COORD97":172153.95999999999,"N_COORD97":2543231.75,"ADDRESS":"裕誠街８６號","OBJECTID":565295},"geometry":{"x":172153.96000000089,"y":2543231.75}},{"attributes":{"ID":565323,"DIS_CODE":0,"TOWNNAME":"東區","LI":"南聖里","LIN":"9鄰","STREET":"裕誠街","SECT":" ","MAREA":" ","LANE":" ","ALLEY":" ","HOUSE_NO":"８８號","E_COORD97":172158.25,"N_COORD97":2543231.0299999998,"ADDRESS":"裕誠街８８號","OBJECTID":565296},"geometry":{"x":172158.25000000093,"y":2543231.0300000012}},{"attributes":{"ID":565324,"DIS_CODE":0,"TOWNNAME":"東區","LI":"南聖里","LIN":"9鄰","STREET":"裕誠街","SECT":" ","MAREA":" ","LANE":" ","ALLEY":" ","HOUSE_NO":"６號","E_COORD97":172053.14999999999,"N_COORD97":2543212.6600000001,"ADDRESS":"裕誠街６號","OBJECTID":565297},"geometry":{"x":172053.15000000037,"y":2543212.6600000001}},{"attributes":{"ID":565325,"DIS_CODE":0,"TOWNNAME":"東區","LI":"南聖里","LIN":"9鄰","STREET":"裕誠街","SECT":" ","MAREA":" ","LANE":" ","ALLEY":" ","HOUSE_NO":"８號","E_COORD97":172058.95999999999,"N_COORD97":2543209.27,"ADDRESS":"裕誠街８號","OBJECTID":565298},"geometry":{"x":172058.96000000089,"y":2543209.2700000014}},{"attributes":{"ID":565326,"DIS_CODE":0,"TOWNNAME":"東區","LI":"南聖里","LIN":"9鄰","STREET":"裕誠街","SECT":" ","MAREA":" ","LANE":" ","ALLEY":" ","HOUSE_NO":"１０號","E_COORD97":172062.84,"N_COORD97":2543212.8500000001,"ADDRESS":"裕誠街１０號","OBJECTID":565299},"geometry":{"x":172062.84000000078,"y":2543212.8500000015}},{"attributes":{"ID":565327,"DIS_CODE":0,"TOWNNAME":"東區","LI":"南聖里","LIN":"9鄰","STREET":"裕誠街","SECT":" ","MAREA":" ","LANE":" ","ALLEY":" ","HOUSE_NO":"１２號","E_COORD97":172069.42000000001,"N_COORD97":2543210.7200000002,"ADDRESS":"裕誠街１２號","OBJECTID":565300},"geometry":{"x":172069.42000000086,"y":2543210.7200000025}},{"attributes":{"ID":565328,"DIS_CODE":0,"TOWNNAME":"東區","LI":"南聖里","LIN":"9鄰","STREET":"裕誠街","SECT":" ","MAREA":" ","LANE":" ","ALLEY":" ","HOUSE_NO":"１６號","E_COORD97":172073.10000000001,"N_COORD97":2543213.8199999998,"ADDRESS":"裕誠街１６號","OBJECTID":565301},"geometry":{"x":172073.09999999963,"y":2543213.8200000003}},{"attributes":{"ID":565329,"DIS_CODE":0,"TOWNNAME":"東區","LI":"南聖里","LIN":"9鄰","STREET":"裕誠街","SECT":" ","MAREA":" ","LANE":" ","ALLEY":" ","HOUSE_NO":"１８號","E_COORD97":172079.10999999999,"N_COORD97":2543216.2400000002,"ADDRESS":"裕誠街１８號","OBJECTID":565302},"geometry":{"x":172079.11000000034,"y":2543216.2400000021}},{"attributes":{"ID":565330,"DIS_CODE":0,"TOWNNAME":"東區","LI":"南聖里","LIN":"9鄰","STREET":"裕誠街","SECT":" ","MAREA":" ","LANE":" ","ALLEY":" ","HOUSE_NO":"２０號","E_COORD97":172086.07999999999,"N_COORD97":2543215.27,"ADDRESS":"裕誠街２０號","OBJECTID":565303},"geometry":{"x":172086.08000000007,"y":2543215.2700000033}},{"attributes":{"ID":565331,"DIS_CODE":0,"TOWNNAME":"東區","LI":"南聖里","LIN":"9鄰","STREET":"裕農三街","SECT":" ","MAREA":" ","LANE":" ","ALLEY":" ","HOUSE_NO":"９之１號","E_COORD97":172045.85999999999,"N_COORD97":2543190.6299999999,"ADDRESS":"裕農三街９之１號","OBJECTID":565304},"geometry":{"x":172045.8600000022,"y":2543190.629999999}},{"attributes":{"ID":565332,"DIS_CODE":0,"TOWNNAME":"東區","LI":"南聖里","LIN":"9鄰","STREET":"裕農三街","SECT":" ","MAREA":" ","LANE":" ","ALLEY":" ","HOUSE_NO":"９之２號","E_COORD97":172050.87,"N_COORD97":2543194.4500000002,"ADDRESS":"裕農三街９之２號","OBJECTID":565305},"geometry":{"x":172050.87000000104,"y":2543194.4500000011}},{"attributes":{"ID":565333,"DIS_CODE":0,"TOWNNAME":"東區","LI":"南聖里","LIN":"9鄰","STREET":"裕農三街","SECT":" ","MAREA":" ","LANE":" ","ALLEY":" ","HOUSE_NO":"９之３號","E_COORD97":172055.89000000001,"N_COORD97":2543190.9900000002,"ADDRESS":"裕農三街９之３號","OBJECTID":565306},"geometry":{"x":172055.88999999966,"y":2543190.9900000021}},{"attributes":{"ID":565334,"DIS_CODE":0,"TOWNNAME":"東區","LI":"南聖里","LIN":"9鄰","STREET":"裕農三街","SECT":" ","MAREA":" ","LANE":" ","ALLEY":" ","HOUSE_NO":"９號","E_COORD97":172040.37,"N_COORD97":2543190.9900000002,"ADDRESS":"裕農三街９號","OBJECTID":565307},"geometry":{"x":172040.37000000197,"y":2543190.9900000021}},{"attributes":{"ID":565335,"DIS_CODE":0,"TOWNNAME":"東區","LI":"南聖里","LIN":"9鄰","STREET":"裕農三街","SECT":" ","MAREA":" ","LANE":" ","ALLEY":" ","HOUSE_NO":"９之５號","E_COORD97":172060.07000000001,"N_COORD97":2543195.3999999999,"ADDRESS":"裕農三街９之５號","OBJECTID":565308},"geometry":{"x":172060.07000000123,"y":2543195.4000000022}},{"attributes":{"ID":565336,"DIS_CODE":0,"TOWNNAME":"東區","LI":"南聖里","LIN":"9鄰","STREET":"裕農三街","SECT":" ","MAREA":" ","LANE":" ","ALLEY":" ","HOUSE_NO":"９之６號","E_COORD97":172066.03,"N_COORD97":2543193.25,"ADDRESS":"裕農三街９之６號","OBJECTID":565309},"geometry":{"x":172066.03000000026,"y":2543193.2500000019}},{"attributes":{"ID":565337,"DIS_CODE":0,"TOWNNAME":"東區","LI":"南聖里","LIN":"9鄰","STREET":"裕農三街","SECT":" ","MAREA":" ","LANE":" ","ALLEY":" ","HOUSE_NO":"９之７號","E_COORD97":172070.20999999999,"N_COORD97":2543196.5899999999,"ADDRESS":"裕農三街９之７號","OBJECTID":565310},"geometry":{"x":172070.21000000183,"y":2543196.5900000017}},{"attributes":{"ID":565338,"DIS_CODE":0,"TOWNNAME":"東區","LI":"南聖里","LIN":"9鄰","STREET":"裕農三街","SECT":" ","MAREA":" ","LANE":" ","ALLEY":" ","HOUSE_NO":"９之８號","E_COORD97":172076.17999999999,"N_COORD97":2543194.5699999998,"ADDRESS":"裕農三街９之８號","OBJECTID":565311},"geometry":{"x":172076.1799999997,"y":2543194.5700000022}},{"attributes":{"ID":565339,"DIS_CODE":0,"TOWNNAME":"東區","LI":"南聖里","LIN":"9鄰","STREET":"裕農三街","SECT":" ","MAREA":" ","LANE":" ","ALLEY":" ","HOUSE_NO":"９之９號","E_COORD97":172080.72,"N_COORD97":2543198.0299999998,"ADDRESS":"裕農三街９之９號","OBJECTID":565312},"geometry":{"x":172080.72000000067,"y":2543198.0299999993}},{"attributes":{"ID":565340,"DIS_CODE":0,"TOWNNAME":"東區","LI":"南聖里","LIN":"9鄰","STREET":"裕農三街","SECT":" ","MAREA":" ","LANE":" ","ALLEY":" ","HOUSE_NO":"９之１０號","E_COORD97":172085.14000000001,"N_COORD97":2543195.7599999998,"ADDRESS":"裕農三街９之１０號","OBJECTID":565313},"geometry":{"x":172085.13999999966,"y":2543195.7600000016}},{"attributes":{"ID":565341,"DIS_CODE":0,"TOWNNAME":"東區","LI":"南聖里","LIN":"9鄰","STREET":"裕農三街","SECT":" ","MAREA":" ","LANE":" ","ALLEY":" ","HOUSE_NO":"９之１１號","E_COORD97":172089.67000000001,"N_COORD97":2543199.5800000001,"ADDRESS":"裕農三街９之１１號","OBJECTID":565314},"geometry":{"x":172089.67000000086,"y":2543199.5800000001}},{"attributes":{"ID":565342,"DIS_CODE":0,"TOWNNAME":"東區","LI":"南聖里","LIN":"9鄰","STREET":"裕農三街","SECT":" ","MAREA":" ","LANE":" ","ALLEY":" ","HOUSE_NO":"１１之１號","E_COORD97":172047.53,"N_COORD97":2543178.3399999999,"ADDRESS":"裕農三街１１之１號","OBJECTID":565315},"geometry":{"x":172047.53000000026,"y":2543178.3400000017}},{"attributes":{"ID":565343,"DIS_CODE":0,"TOWNNAME":"東區","LI":"南聖里","LIN":"9鄰","STREET":"裕農三街","SECT":" ","MAREA":" ","LANE":" ","ALLEY":" ","HOUSE_NO":"１１之２號","E_COORD97":172053.26000000001,"N_COORD97":2543176.9100000001,"ADDRESS":"裕農三街１１之２號","OBJECTID":565316},"geometry":{"x":172053.26000000071,"y":2543176.9100000001}},{"attributes":{"ID":565344,"DIS_CODE":0,"TOWNNAME":"東區","LI":"南聖里","LIN":"9鄰","STREET":"裕農三街","SECT":" ","MAREA":" ","LANE":" ","ALLEY":" ","HOUSE_NO":"１１之３號","E_COORD97":172058.04000000001,"N_COORD97":2543179.54,"ADDRESS":"裕農三街１１之３號","OBJECTID":565317},"geometry":{"x":172058.04000000097,"y":2543179.540000001}},{"attributes":{"ID":565345,"DIS_CODE":0,"TOWNNAME":"東區","LI":"南聖里","LIN":"9鄰","STREET":"裕農三街","SECT":" ","MAREA":" ","LANE":" ","ALLEY":" ","HOUSE_NO":"１１號","E_COORD97":172042.16,"N_COORD97":2543175.7200000002,"ADDRESS":"裕農三街１１號","OBJECTID":565318},"geometry":{"x":172042.16000000108,"y":2543175.7199999988}},{"attributes":{"ID":565346,"DIS_CODE":0,"TOWNNAME":"東區","LI":"南聖里","LIN":"9鄰","STREET":"裕農三街","SECT":" ","MAREA":" ","LANE":" ","ALLEY":" ","HOUSE_NO":"１１之５號","E_COORD97":172063.41,"N_COORD97":2543176.9100000001,"ADDRESS":"裕農三街１１之５號","OBJECTID":565319},"geometry":{"x":172063.41000000015,"y":2543176.9100000001}},{"attributes":{"ID":565347,"DIS_CODE":0,"TOWNNAME":"東區","LI":"南聖里","LIN":"9鄰","STREET":"裕農三街","SECT":" ","MAREA":" ","LANE":" ","ALLEY":" ","HOUSE_NO":"１１之６號","E_COORD97":172067.59,"N_COORD97":2543180.73,"ADDRESS":"裕農三街１１之６號","OBJECTID":565320},"geometry":{"x":172067.59000000078,"y":2543180.7300000004}},{"attributes":{"ID":565348,"DIS_CODE":0,"TOWNNAME":"東區","LI":"南聖里","LIN":"9鄰","STREET":"裕農三街","SECT":" ","MAREA":" ","LANE":" ","ALLEY":" ","HOUSE_NO":"１１之７號","E_COORD97":172073.20000000001,"N_COORD97":2543178.9399999999,"ADDRESS":"裕農三街１１之７號","OBJECTID":565321},"geometry":{"x":172073.20000000019,"y":2543178.9399999995}},{"attributes":{"ID":565349,"DIS_CODE":0,"TOWNNAME":"東區","LI":"南聖里","LIN":"9鄰","STREET":"裕農三街","SECT":" ","MAREA":" ","LANE":" ","ALLEY":" ","HOUSE_NO":"１１之８號","E_COORD97":172077.38,"N_COORD97":2543181.9199999999,"ADDRESS":"裕農三街１１之８號","OBJECTID":565322},"geometry":{"x":172077.38000000175,"y":2543181.9200000018}},{"attributes":{"ID":565350,"DIS_CODE":0,"TOWNNAME":"東區","LI":"南聖里","LIN":"9鄰","STREET":"裕農三街","SECT":" ","MAREA":" ","LANE":" ","ALLEY":" ","HOUSE_NO":"１１之９號","E_COORD97":172082.51000000001,"N_COORD97":2543180.25,"ADDRESS":"裕農三街１１之９號","OBJECTID":565323},"geometry":{"x":172082.50999999978,"y":2543180.25}},{"attributes":{"ID":565351,"DIS_CODE":0,"TOWNNAME":"東區","LI":"南聖里","LIN":"9鄰","STREET":"裕農三街","SECT":" ","MAREA":" ","LANE":" ","ALLEY":" ","HOUSE_NO":"１１之１０號","E_COORD97":172087.04999999999,"N_COORD97":2543183.4700000002,"ADDRESS":"裕農三街１１之１０號","OBJECTID":565324},"geometry":{"x":172087.05000000075,"y":2543183.4700000007}},{"attributes":{"ID":565352,"DIS_CODE":0,"TOWNNAME":"東區","LI":"南聖里","LIN":"9鄰","STREET":"裕農三街","SECT":" ","MAREA":" ","LANE":" ","ALLEY":" ","HOUSE_NO":"１１之１１號","E_COORD97":172092.89000000001,"N_COORD97":2543181.9199999999,"ADDRESS":"裕農三街１１之１１號","OBJECTID":565325},"geometry":{"x":172092.8900000006,"y":2543181.9200000018}},{"attributes":{"ID":565353,"DIS_CODE":0,"TOWNNAME":"東區","LI":"南聖里","LIN":"9鄰","STREET":"裕農三街","SECT":" ","MAREA":" ","LANE":" ","ALLEY":" ","HOUSE_NO":"５號","E_COORD97":172038.04999999999,"N_COORD97":2543211.1000000001,"ADDRESS":"裕農三街５號","OBJECTID":565326},"geometry":{"x":172038.04999999981,"y":2543211.1000000015}},{"attributes":{"ID":565354,"DIS_CODE":0,"TOWNNAME":"東區","LI":"南聖里","LIN":"9鄰","STREET":"裕和路","SECT":" ","MAREA":" ","LANE":" ","ALLEY":" ","HOUSE_NO":"１０１號","E_COORD97":172152.22,"N_COORD97":2543139.4500000002,"ADDRESS":"裕和路１０１號","OBJECTID":565327},"geometry":{"x":172152.21999999974,"y":2543139.4500000011}},{"attributes":{"ID":565355,"DIS_CODE":0,"TOWNNAME":"東區","LI":"南聖里","LIN":"9鄰","STREET":"裕和路","SECT":" ","MAREA":" ","LANE":" ","ALLEY":" ","HOUSE_NO":"１０３號","E_COORD97":172151.32999999999,"N_COORD97":2543144.5499999998,"ADDRESS":"裕和路１０３號","OBJECTID":565328},"geometry":{"x":172151.33000000101,"y":2543144.5500000026}},{"attributes":{"ID":565356,"DIS_CODE":0,"TOWNNAME":"東區","LI":"南聖里","LIN":"9鄰","STREET":"裕和路","SECT":" ","MAREA":" ","LANE":" ","ALLEY":" ","HOUSE_NO":"１０５號","E_COORD97":172150.39999999999,"N_COORD97":2543149.6400000001,"ADDRESS":"裕和路１０５號","OBJECTID":565329},"geometry":{"x":172150.40000000037,"y":2543149.6400000025}},{"attributes":{"ID":565357,"DIS_CODE":0,"TOWNNAME":"東區","LI":"南聖里","LIN":"9鄰","STREET":"裕和路","SECT":" ","MAREA":" ","LANE":" ","ALLEY":" ","HOUSE_NO":"１０７號","E_COORD97":172149.66,"N_COORD97":2543154.8300000001,"ADDRESS":"裕和路１０７號","OBJECTID":565330},"geometry":{"x":172149.66000000015,"y":2543154.8300000019}},{"attributes":{"ID":565358,"DIS_CODE":0,"TOWNNAME":"東區","LI":"南聖里","LIN":"9鄰","STREET":"裕和路","SECT":" ","MAREA":" ","LANE":" ","ALLEY":" ","HOUSE_NO":"１０９號","E_COORD97":172148.54999999999,"N_COORD97":2543160.1099999999,"ADDRESS":"裕和路１０９號","OBJECTID":565331},"geometry":{"x":172148.54999999981,"y":2543160.1099999994}},{"attributes":{"ID":565359,"DIS_CODE":0,"TOWNNAME":"東區","LI":"南聖里","LIN":"9鄰","STREET":"裕和路","SECT":" ","MAREA":" ","LANE":" ","ALLEY":" ","HOUSE_NO":"１１１號","E_COORD97":172147.16,"N_COORD97":2543165.4900000002,"ADDRESS":"裕和路１１１號","OBJECTID":565332},"geometry":{"x":172147.16000000108,"y":2543165.4900000002}},{"attributes":{"ID":565360,"DIS_CODE":0,"TOWNNAME":"東區","LI":"南聖里","LIN":"9鄰","STREET":"裕和路","SECT":" ","MAREA":" ","LANE":" ","ALLEY":" ","HOUSE_NO":"１１３號","E_COORD97":172146.23000000001,"N_COORD97":2543170.3100000001,"ADDRESS":"裕和路１１３號","OBJECTID":565333},"geometry":{"x":172146.23000000045,"y":2543170.3100000005}},{"attributes":{"ID":565361,"DIS_CODE":0,"TOWNNAME":"東區","LI":"南聖里","LIN":"9鄰","STREET":"裕和路","SECT":" ","MAREA":" ","LANE":" ","ALLEY":" ","HOUSE_NO":"１１５號","E_COORD97":172145.20000000001,"N_COORD97":2543176.2799999998,"ADDRESS":"裕和路１１５號","OBJECTID":565334},"geometry":{"x":172145.20000000112,"y":2543176.2799999993}},{"attributes":{"ID":565362,"DIS_CODE":0,"TOWNNAME":"東區","LI":"南聖里","LIN":"9鄰","STREET":"裕和路","SECT":" ","MAREA":" ","LANE":" ","ALLEY":" ","HOUSE_NO":"１１７號","E_COORD97":172163.42000000001,"N_COORD97":2543179.8500000001,"ADDRESS":"裕和路１１７號","OBJECTID":565335},"geometry":{"x":172163.41999999993,"y":2543179.8499999996}},{"attributes":{"ID":565363,"DIS_CODE":0,"TOWNNAME":"東區","LI":"南聖里","LIN":"9鄰","STREET":"裕和路","SECT":" ","MAREA":" ","LANE":" ","ALLEY":" ","HOUSE_NO":"１１９號","E_COORD97":172164.41,"N_COORD97":2543173.6400000001,"ADDRESS":"裕和路１１９號","OBJECTID":565336},"geometry":{"x":172164.41000000108,"y":2543173.6400000025}},{"attributes":{"ID":565364,"DIS_CODE":0,"TOWNNAME":"東區","LI":"南聖里","LIN":"9鄰","STREET":"裕和路","SECT":" ","MAREA":" ","LANE":" ","ALLEY":" ","HOUSE_NO":"１２９號","E_COORD97":172169.64000000001,"N_COORD97":2543147.7799999998,"ADDRESS":"裕和路１２９號","OBJECTID":565337},"geometry":{"x":172169.63999999966,"y":2543147.7800000012}},{"attributes":{"ID":565365,"DIS_CODE":0,"TOWNNAME":"東區","LI":"南聖里","LIN":"9鄰","STREET":"裕和路","SECT":" ","MAREA":" ","LANE":" ","ALLEY":" ","HOUSE_NO":"１３１號","E_COORD97":172170.88,"N_COORD97":2543142.5600000001,"ADDRESS":"裕和路１３１號","OBJECTID":565338},"geometry":{"x":172170.88000000082,"y":2543142.5600000005}},{"attributes":{"ID":565366,"DIS_CODE":0,"TOWNNAME":"東區","LI":"大福里","LIN":"9鄰","STREET":"立德三路","SECT":" ","MAREA":" ","LANE":" ","ALLEY":" ","HOUSE_NO":"２６號","E_COORD97":169586.92999999999,"N_COORD97":2541770.3199999998,"ADDRESS":"立德三路２６號","OBJECTID":565339},"geometry":{"x":169586.93000000063,"y":2541770.3200000003}},{"attributes":{"ID":565367,"DIS_CODE":0,"TOWNNAME":"東區","LI":"大福里","LIN":"9鄰","STREET":"立德三路","SECT":" ","MAREA":" ","LANE":" ","ALLEY":" ","HOUSE_NO":"２８號","E_COORD97":169591.82000000001,"N_COORD97":2541771.3700000001,"ADDRESS":"立德三路２８號","OBJECTID":565340},"geometry":{"x":169591.82000000123,"y":2541771.3699999992}},{"attributes":{"ID":565368,"DIS_CODE":0,"TOWNNAME":"東區","LI":"大福里","LIN":"9鄰","STREET":"立德三路","SECT":" ","MAREA":" ","LANE":" ","ALLEY":" ","HOUSE_NO":"３０號","E_COORD97":169597.04999999999,"N_COORD97":2541772.4100000001,"ADDRESS":"立德三路３０號","OBJECTID":565341},"geometry":{"x":169597.04999999981,"y":2541772.4100000001}},{"attributes":{"ID":565369,"DIS_CODE":0,"TOWNNAME":"東區","LI":"大福里","LIN":"9鄰","STREET":"立德三路","SECT":" ","MAREA":" ","LANE":" ","ALLEY":" ","HOUSE_NO":"３２號","E_COORD97":169602.98000000001,"N_COORD97":2541770.3199999998,"ADDRESS":"立德三路３２號","OBJECTID":565342},"geometry":{"x":169602.98000000138,"y":2541770.3200000003}},{"attributes":{"ID":565370,"DIS_CODE":0,"TOWNNAME":"東區","LI":"大福里","LIN":"9鄰","STREET":"立德三路","SECT":" ","MAREA":" ","LANE":" ","ALLEY":" ","HOUSE_NO":"３４號","E_COORD97":169608.56,"N_COORD97":2541771.71,"ADDRESS":"立德三路３４號","OBJECTID":565343},"geometry":{"x":169608.55999999959,"y":2541771.7100000009}},{"attributes":{"ID":565371,"DIS_CODE":0,"TOWNNAME":"東區","LI":"大福里","LIN":"9鄰","STREET":"立德三路","SECT":" ","MAREA":" ","LANE":" ","ALLEY":" ","HOUSE_NO":"３６號","E_COORD97":169613.09,"N_COORD97":2541774.1499999999,"ADDRESS":"立德三路３６號","OBJECTID":565344},"geometry":{"x":169613.09000000078,"y":2541774.1500000004}},{"attributes":{"ID":565372,"DIS_CODE":0,"TOWNNAME":"東區","LI":"大福里","LIN":"9鄰","STREET":"立德三路","SECT":" ","MAREA":" ","LANE":" ","ALLEY":" ","HOUSE_NO":"３８號","E_COORD97":169619.01999999999,"N_COORD97":2541774.1499999999,"ADDRESS":"立德三路３８號","OBJECTID":565345},"geometry":{"x":169619.01999999955,"y":2541774.1500000004}},{"attributes":{"ID":565373,"DIS_CODE":0,"TOWNNAME":"東區","LI":"大福里","LIN":"9鄰","STREET":"立德三路","SECT":" ","MAREA":" ","LANE":" ","ALLEY":" ","HOUSE_NO":"４０號","E_COORD97":169624.95000000001,"N_COORD97":2541776.9399999999,"ADDRESS":"立德三路４０號","OBJECTID":565346},"geometry":{"x":169624.95000000112,"y":2541776.9400000013}},{"attributes":{"ID":565374,"DIS_CODE":0,"TOWNNAME":"東區","LI":"大福里","LIN":"9鄰","STREET":"立德三路","SECT":" ","MAREA":" ","LANE":" ","ALLEY":" ","HOUSE_NO":"４２號","E_COORD97":169630.34,"N_COORD97":2541777.8100000001,"ADDRESS":"立德三路４２號","OBJECTID":565347},"geometry":{"x":169630.34000000078,"y":2541777.8100000005}},{"attributes":{"ID":565375,"DIS_CODE":0,"TOWNNAME":"東區","LI":"大福里","LIN":"9鄰","STREET":"立德三路","SECT":" ","MAREA":" ","LANE":" ","ALLEY":" ","HOUSE_NO":"４４號","E_COORD97":169635.37,"N_COORD97":2541778.3399999999,"ADDRESS":"立德三路４４號","OBJECTID":565348},"geometry":{"x":169635.37000000104,"y":2541778.3400000017}},{"attributes":{"ID":565376,"DIS_CODE":0,"TOWNNAME":"東區","LI":"大福里","LIN":"9鄰","STREET":"立德三路","SECT":" ","MAREA":" ","LANE":" ","ALLEY":" ","HOUSE_NO":"４６號","E_COORD97":169641.19,"N_COORD97":2541779.9300000002,"ADDRESS":"立德三路４６號","OBJECTID":565349},"geometry":{"x":169641.19000000041,"y":2541779.9300000034}},{"attributes":{"ID":565377,"DIS_CODE":0,"TOWNNAME":"東區","LI":"大福里","LIN":"9鄰","STREET":"立德三路","SECT":" ","MAREA":" ","LANE":" ","ALLEY":" ","HOUSE_NO":"４８號","E_COORD97":169647.26999999999,"N_COORD97":2541780.1899999999,"ADDRESS":"立德三路４８號","OBJECTID":565350},"geometry":{"x":169647.27000000048,"y":2541780.1899999995}},{"attributes":{"ID":565378,"DIS_CODE":0,"TOWNNAME":"東區","LI":"大福里","LIN":"9鄰","STREET":"立德三路","SECT":" ","MAREA":" ","LANE":" ","ALLEY":" ","HOUSE_NO":"５０號","E_COORD97":169653.09,"N_COORD97":2541782.04,"ADDRESS":"立德三路５０號","OBJECTID":565351},"geometry":{"x":169653.08999999985,"y":2541782.0400000028}},{"attributes":{"ID":565379,"DIS_CODE":0,"TOWNNAME":"東區","LI":"大福里","LIN":"9鄰","STREET":"立德三路","SECT":" ","MAREA":" ","LANE":" ","ALLEY":" ","HOUSE_NO":"５２號","E_COORD97":169657.32000000001,"N_COORD97":2541783.1000000001,"ADDRESS":"立德三路５２號","OBJECTID":565352},"geometry":{"x":169657.31999999937,"y":2541783.1000000015}},{"attributes":{"ID":565380,"DIS_CODE":0,"TOWNNAME":"北區","LI":"大豐里","LIN":"22鄰","STREET":"大興街","SECT":" ","MAREA":" ","LANE":" ","ALLEY":" ","HOUSE_NO":"３５１號","E_COORD97":166548.34,"N_COORD97":2545637.6099999999,"ADDRESS":"大興街３５１號","OBJECTID":565353},"geometry":{"x":166548.34000000078,"y":2545637.6100000013}},{"attributes":{"ID":565381,"DIS_CODE":0,"TOWNNAME":"安南區","LI":"顯宮里","LIN":"9鄰","STREET":"媽祖宮路","SECT":" ","MAREA":" ","LANE":" ","ALLEY":" ","HOUSE_NO":"２３６之１號","E_COORD97":160388.75,"N_COORD97":2548711.46,"ADDRESS":"媽祖宮路２３６之１號","OBJECTID":565354},"geometry":{"x":160388.75000000093,"y":2548711.4600000028}},{"attributes":{"ID":565382,"DIS_CODE":0,"TOWNNAME":"安南區","LI":"顯宮里","LIN":"9鄰","STREET":"媽祖宮五街","SECT":" ","MAREA":" ","LANE":" ","ALLEY":" ","HOUSE_NO":"１０號","E_COORD97":160298.54999999999,"N_COORD97":2548743.52,"ADDRESS":"媽祖宮五街１０號","OBJECTID":565355},"geometry":{"x":160298.55000000075,"y":2548743.5200000014}},{"attributes":{"ID":565383,"DIS_CODE":0,"TOWNNAME":"安南區","LI":"城北里","LIN":"9鄰","STREET":"尊安街","SECT":" ","MAREA":" ","LANE":" ","ALLEY":" ","HOUSE_NO":"４７號","E_COORD97":160898.20000000001,"N_COORD97":2551611.3199999998,"ADDRESS":"尊安街４７號","OBJECTID":565356},"geometry":{"x":160898.20000000112,"y":2551611.3200000022}},{"attributes":{"ID":565384,"DIS_CODE":0,"TOWNNAME":"仁德區","LI":"大甲里","LIN":"9鄰","STREET":"行大一街","SECT":" ","MAREA":" ","LANE":" ","ALLEY":" ","HOUSE_NO":"３０７之２號","E_COORD97":169606.60000000001,"N_COORD97":2535039.0499999998,"ADDRESS":"行大一街３０７之２號","OBJECTID":565357},"geometry":{"x":169606.59999999963,"y":2535039.0500000007}},{"attributes":{"ID":565385,"DIS_CODE":0,"TOWNNAME":"仁德區","LI":"二行里","LIN":"9鄰","STREET":"行大街","SECT":" ","MAREA":" ","LANE":" ","ALLEY":" ","HOUSE_NO":"９０號","E_COORD97":170138.14999999999,"N_COORD97":2535185.2400000002,"ADDRESS":"行大街９０號","OBJECTID":565358},"geometry":{"x":170138.15000000037,"y":2535185.2400000021}},{"attributes":{"ID":565386,"DIS_CODE":0,"TOWNNAME":"仁德區","LI":"太子里","LIN":"9鄰","STREET":"太子路","SECT":" ","MAREA":" ","LANE":" ","ALLEY":" ","HOUSE_NO":"１５６號","E_COORD97":174410.64000000001,"N_COORD97":2543525.0099999998,"ADDRESS":"太子路１５６號","OBJECTID":565359},"geometry":{"x":174410.63999999966,"y":2543525.0099999998}},{"attributes":{"ID":565387,"DIS_CODE":0,"TOWNNAME":"仁德區","LI":"仁德里","LIN":"9鄰","STREET":"中正路","SECT":"二段","MAREA":" ","LANE":" ","ALLEY":" ","HOUSE_NO":"１１５５號","E_COORD97":173335.11640299999,"N_COORD97":2541039.6368800001,"ADDRESS":"中正路二段１１５５號","OBJECTID":565360},"geometry":{"x":173335.11640300136,"y":2541039.6368780024}},{"attributes":{"ID":565388,"DIS_CODE":0,"TOWNNAME":"仁德區","LI":"仁義里","LIN":"9鄰","STREET":"仁義三街","SECT":" ","MAREA":" ","LANE":" ","ALLEY":" ","HOUSE_NO":"１０３號","E_COORD97":173609.37,"N_COORD97":2541134.02,"ADDRESS":"仁義三街１０３號","OBJECTID":565361},"geometry":{"x":173609.37000000011,"y":2541134.0199999996}},{"attributes":{"ID":565389,"DIS_CODE":0,"TOWNNAME":"仁德區","LI":"仁義里","LIN":"9鄰","STREET":"仁義三街","SECT":" ","MAREA":" ","LANE":" ","ALLEY":" ","HOUSE_NO":"１２３號","E_COORD97":173657.42000000001,"N_COORD97":2541137.27,"ADDRESS":"仁義三街１２３號","OBJECTID":565362},"geometry":{"x":173657.42000000086,"y":2541137.2700000014}},{"attributes":{"ID":565390,"DIS_CODE":0,"TOWNNAME":"仁德區","LI":"仁德里","LIN":"9鄰","STREET":"仁德二街","SECT":" ","MAREA":" ","LANE":" ","ALLEY":" ","HOUSE_NO":"２２號","E_COORD97":173248.10999999999,"N_COORD97":2541079.2599999998,"ADDRESS":"仁德二街２２號","OBJECTID":565363},"geometry":{"x":173248.11000000127,"y":2541079.2599999979}},{"attributes":{"ID":565391,"DIS_CODE":0,"TOWNNAME":"仁德區","LI":"一甲里","LIN":"9鄰","STREET":"中正路","SECT":"三段","MAREA":" ","LANE":" ","ALLEY":" ","HOUSE_NO":"３３８號","E_COORD97":173898.13,"N_COORD97":2542405.7799999998,"ADDRESS":"中正路三段３３８號","OBJECTID":565364},"geometry":{"x":173898.13000000082,"y":2542405.7800000012}},{"attributes":{"ID":565392,"DIS_CODE":0,"TOWNNAME":"仁德區","LI":"仁德里","LIN":"9鄰","STREET":"仁德二街","SECT":" ","MAREA":" ","LANE":" ","ALLEY":" ","HOUSE_NO":"１０號","E_COORD97":173277.82999999999,"N_COORD97":2541088.0099999998,"ADDRESS":"仁德二街１０號","OBJECTID":565365},"geometry":{"x":173277.83000000007,"y":2541088.0100000035}},{"attributes":{"ID":565393,"DIS_CODE":0,"TOWNNAME":"仁德區","LI":"上崙里","LIN":"9鄰","STREET":"德善路","SECT":" ","MAREA":" ","LANE":" ","ALLEY":" ","HOUSE_NO":"２９１之１０號","E_COORD97":173985.63,"N_COORD97":2538588.54,"ADDRESS":"德善路２９１之１０號","OBJECTID":565366},"geometry":{"x":173985.62999999989,"y":2538588.540000001}},{"attributes":{"ID":565394,"DIS_CODE":0,"TOWNNAME":"仁德區","LI":"上崙里","LIN":"9鄰","STREET":"德善路","SECT":" ","MAREA":" ","LANE":" ","ALLEY":" ","HOUSE_NO":"３４３號","E_COORD97":173986.20000000001,"N_COORD97":2538447.27,"ADDRESS":"德善路３４３號","OBJECTID":565367},"geometry":{"x":173986.20000000112,"y":2538447.2699999996}},{"attributes":{"ID":565395,"DIS_CODE":0,"TOWNNAME":"仁德區","LI":"後壁里","LIN":"9鄰","STREET":"民安路","SECT":"二段","MAREA":" ","LANE":" ","ALLEY":" ","HOUSE_NO":"１８０號","E_COORD97":173776.73000000001,"N_COORD97":2538938.8100000001,"ADDRESS":"民安路二段１８０號","OBJECTID":565368},"geometry":{"x":173776.73000000045,"y":2538938.8100000024}},{"attributes":{"ID":565396,"DIS_CODE":0,"TOWNNAME":"仁德區","LI":"大甲里","LIN":"9鄰","STREET":"行大一街","SECT":" ","MAREA":" ","LANE":" ","ALLEY":" ","HOUSE_NO":"３０３號","E_COORD97":169624.04000000001,"N_COORD97":2535031.25,"ADDRESS":"行大一街３０３號","OBJECTID":565369},"geometry":{"x":169624.04000000097,"y":2535031.2500000037}},{"attributes":{"ID":565397,"DIS_CODE":0,"TOWNNAME":"佳里區","LI":"建南里","LIN":"9鄰","STREET":"新生路","SECT":" ","MAREA":" ","LANE":" ","ALLEY":" ","HOUSE_NO":"２９７號","E_COORD97":165587.35999999999,"N_COORD97":2562239,"ADDRESS":"新生路２９７號","OBJECTID":565370},"geometry":{"x":165587.36000000127,"y":2562239.0000000019}},{"attributes":{"ID":565398,"DIS_CODE":0,"TOWNNAME":"佳里區","LI":"建南里","LIN":"9鄰","STREET":"新生路","SECT":" ","MAREA":" ","LANE":" ","ALLEY":" ","HOUSE_NO":"３０３號","E_COORD97":165577.25,"N_COORD97":2562236.9300000002,"ADDRESS":"新生路３０３號","OBJECTID":565371},"geometry":{"x":165577.25000000186,"y":2562236.9299999997}},{"attributes":{"ID":565399,"DIS_CODE":0,"TOWNNAME":"佳里區","LI":"建南里","LIN":"9鄰","STREET":"新生路","SECT":" ","MAREA":" ","LANE":" ","ALLEY":" ","HOUSE_NO":"３０７號","E_COORD97":165569.78,"N_COORD97":2562232.4399999999,"ADDRESS":"新生路３０７號","OBJECTID":565372},"geometry":{"x":165569.78000000026,"y":2562232.4399999995}},{"attributes":{"ID":565400,"DIS_CODE":0,"TOWNNAME":"佳里區","LI":"建南里","LIN":"9鄰","STREET":"新生路","SECT":" ","MAREA":" ","LANE":" ","ALLEY":" ","HOUSE_NO":"３０９號","E_COORD97":165565.5,"N_COORD97":2562231.96,"ADDRESS":"新生路３０９號","OBJECTID":565373},"geometry":{"x":165565.50000000186,"y":2562231.9600000046}},{"attributes":{"ID":565401,"DIS_CODE":0,"TOWNNAME":"佳里區","LI":"建南里","LIN":"9鄰","STREET":"新生路","SECT":" ","MAREA":" ","LANE":" ","ALLEY":" ","HOUSE_NO":"３１１號","E_COORD97":165560.98999999999,"N_COORD97":2562231.27,"ADDRESS":"新生路３１１號","OBJECTID":565374},"geometry":{"x":165560.99000000115,"y":2562231.2699999996}},{"attributes":{"ID":565402,"DIS_CODE":0,"TOWNNAME":"佳里區","LI":"建南里","LIN":"9鄰","STREET":"新生路","SECT":" ","MAREA":" ","LANE":" ","ALLEY":" ","HOUSE_NO":"３１３號","E_COORD97":165556.31,"N_COORD97":2562230.52,"ADDRESS":"新生路３１３號","OBJECTID":565375},"geometry":{"x":165556.31000000052,"y":2562230.5200000014}},{"attributes":{"ID":565403,"DIS_CODE":0,"TOWNNAME":"佳里區","LI":"建南里","LIN":"9鄰","STREET":"新生路","SECT":" ","MAREA":" ","LANE":" ","ALLEY":" ","HOUSE_NO":"３１７號","E_COORD97":165550.31,"N_COORD97":2562228.8399999999,"ADDRESS":"新生路３１７號","OBJECTID":565376},"geometry":{"x":165550.30999999959,"y":2562228.8400000017}},{"attributes":{"ID":565404,"DIS_CODE":0,"TOWNNAME":"佳里區","LI":"建南里","LIN":"9鄰","STREET":"新生路","SECT":" ","MAREA":" ","LANE":" ","ALLEY":" ","HOUSE_NO":"３２９號","E_COORD97":165530.38,"N_COORD97":2562224.0699999998,"ADDRESS":"新生路３２９號","OBJECTID":565377},"geometry":{"x":165530.37999999896,"y":2562224.0700000022}},{"attributes":{"ID":565405,"DIS_CODE":0,"TOWNNAME":"佳里區","LI":"建南里","LIN":"9鄰","STREET":"新生路","SECT":" ","MAREA":" ","LANE":" ","ALLEY":" ","HOUSE_NO":"３３１號","E_COORD97":165522.60000000001,"N_COORD97":2562226.1299999999,"ADDRESS":"新生路３３１號","OBJECTID":565378},"geometry":{"x":165522.60000000056,"y":2562226.1300000008}},{"attributes":{"ID":565406,"DIS_CODE":0,"TOWNNAME":"佳里區","LI":"忠仁里","LIN":"9鄰","STREET":"興中街","SECT":" ","MAREA":" ","LANE":" ","ALLEY":" ","HOUSE_NO":"３３號","E_COORD97":165954.23999999999,"N_COORD97":2562186.2200000002,"ADDRESS":"興中街３３號","OBJECTID":565379},"geometry":{"x":165954.24000000115,"y":2562186.2200000025}},{"attributes":{"ID":565407,"DIS_CODE":0,"TOWNNAME":"佳里區","LI":"忠仁里","LIN":"9鄰","STREET":"興中街","SECT":" ","MAREA":" ","LANE":" ","ALLEY":" ","HOUSE_NO":"３５號","E_COORD97":165950.35999999999,"N_COORD97":2562185.77,"ADDRESS":"興中街３５號","OBJECTID":565380},"geometry":{"x":165950.36000000127,"y":2562185.7700000014}},{"attributes":{"ID":565408,"DIS_CODE":0,"TOWNNAME":"佳里區","LI":"忠仁里","LIN":"9鄰","STREET":"興中街","SECT":" ","MAREA":" ","LANE":" ","ALLEY":" ","HOUSE_NO":"３７號","E_COORD97":165945.39999999999,"N_COORD97":2562185.3199999998,"ADDRESS":"興中街３７號","OBJECTID":565381},"geometry":{"x":165945.40000000037,"y":2562185.3200000022}},{"attributes":{"ID":565409,"DIS_CODE":0,"TOWNNAME":"佳里區","LI":"忠仁里","LIN":"9鄰","STREET":"興中街","SECT":" ","MAREA":" ","LANE":" ","ALLEY":" ","HOUSE_NO":"３９號","E_COORD97":165940.79999999999,"N_COORD97":2562184.7799999998,"ADDRESS":"興中街３９號","OBJECTID":565382},"geometry":{"x":165940.79999999981,"y":2562184.7800000012}},{"attributes":{"ID":565410,"DIS_CODE":0,"TOWNNAME":"佳里區","LI":"忠仁里","LIN":"9鄰","STREET":"興中街","SECT":" ","MAREA":" ","LANE":" ","ALLEY":" ","HOUSE_NO":"３號","E_COORD97":166018.94,"N_COORD97":2562193.8399999999,"ADDRESS":"興中街３號","OBJECTID":565383},"geometry":{"x":166018.94000000227,"y":2562193.8399999999}},{"attributes":{"ID":565411,"DIS_CODE":0,"TOWNNAME":"佳里區","LI":"忠仁里","LIN":"9鄰","STREET":"興中街","SECT":" ","MAREA":" ","LANE":" ","ALLEY":" ","HOUSE_NO":"４１號","E_COORD97":165936.09,"N_COORD97":2562184.21,"ADDRESS":"興中街４１號","OBJECTID":565384},"geometry":{"x":165936.09000000078,"y":2562184.2100000028}},{"attributes":{"ID":565412,"DIS_CODE":0,"TOWNNAME":"佳里區","LI":"忠仁里","LIN":"9鄰","STREET":"興中街","SECT":" ","MAREA":" ","LANE":" ","ALLEY":" ","HOUSE_NO":"４３號","E_COORD97":165931.57000000001,"N_COORD97":2562183.6000000001,"ADDRESS":"興中街４３號","OBJECTID":565385},"geometry":{"x":165931.57000000123,"y":2562183.6000000015}},{"attributes":{"ID":565413,"DIS_CODE":0,"TOWNNAME":"佳里區","LI":"忠仁里","LIN":"9鄰","STREET":"興中街","SECT":" ","MAREA":" ","LANE":" ","ALLEY":" ","HOUSE_NO":"５號","E_COORD97":166015.03,"N_COORD97":2562193.3599999999,"ADDRESS":"興中街５號","OBJECTID":565386},"geometry":{"x":166015.03000000119,"y":2562193.3599999975}},{"attributes":{"ID":565414,"DIS_CODE":0,"TOWNNAME":"佳里區","LI":"忠仁里","LIN":"9鄰","STREET":"興中街","SECT":" ","MAREA":" ","LANE":" ","ALLEY":" ","HOUSE_NO":"７號","E_COORD97":166010.67999999999,"N_COORD97":2562193.0299999998,"ADDRESS":"興中街７號","OBJECTID":565387},"geometry":{"x":166010.6799999997,"y":2562193.0300000012}},{"attributes":{"ID":565415,"DIS_CODE":0,"TOWNNAME":"佳里區","LI":"忠仁里","LIN":"9鄰","STREET":"興中街","SECT":" ","MAREA":" ","LANE":" ","ALLEY":" ","HOUSE_NO":"９號","E_COORD97":166006.5,"N_COORD97":2562192.48,"ADDRESS":"興中街９號","OBJECTID":565388},"geometry":{"x":166006.50000000093,"y":2562192.4800000004}},{"attributes":{"ID":565416,"DIS_CODE":0,"TOWNNAME":"永康區","LI":"王行里","LIN":"9鄰","STREET":"王行路","SECT":" ","MAREA":" ","LANE":" ","ALLEY":" ","HOUSE_NO":"３６４號","E_COORD97":175449.17999999999,"N_COORD97":2548547.2200000002,"ADDRESS":"王行路３６４號","OBJECTID":565389},"geometry":{"x":175449.18000000063,"y":2548547.2200000025}},{"attributes":{"ID":565417,"DIS_CODE":0,"TOWNNAME":"永康區","LI":"正強里","LIN":"9鄰","STREET":"自強路","SECT":" ","MAREA":" ","LANE":" ","ALLEY":" ","HOUSE_NO":"３０２號","E_COORD97":173359.25,"N_COORD97":2547647.8100000001,"ADDRESS":"自強路３０２號","OBJECTID":565390},"geometry":{"x":173359.25,"y":2547647.8100000024}},{"attributes":{"ID":565418,"DIS_CODE":0,"TOWNNAME":"永康區","LI":"蔦松里","LIN":"9鄰","STREET":"正北一路","SECT":" ","MAREA":" ","LANE":" ","ALLEY":" ","HOUSE_NO":"１４１號","E_COORD97":174087.37,"N_COORD97":2549995.9900000002,"ADDRESS":"正北一路１４１號","OBJECTID":565391},"geometry":{"x":174087.37000000011,"y":2549995.9900000021}},{"attributes":{"ID":565419,"DIS_CODE":0,"TOWNNAME":"永康區","LI":"正強里","LIN":"9鄰","STREET":"自強路","SECT":" ","MAREA":" ","LANE":" ","ALLEY":" ","HOUSE_NO":"３２０號","E_COORD97":173388.06,"N_COORD97":2547669.8100000001,"ADDRESS":"自強路３２０號","OBJECTID":565392},"geometry":{"x":173388.06000000052,"y":2547669.8100000005}},{"attributes":{"ID":565420,"DIS_CODE":0,"TOWNNAME":"永康區","LI":"埔園里","LIN":"9鄰","STREET":"中山路","SECT":" ","MAREA":" ","LANE":" ","ALLEY":" ","HOUSE_NO":"１０７號","E_COORD97":173741.04000000001,"N_COORD97":2547833.2400000002,"ADDRESS":"中山路１０７號","OBJECTID":565393},"geometry":{"x":173741.0400000019,"y":2547833.2400000002}},{"attributes":{"ID":565421,"DIS_CODE":0,"TOWNNAME":"永康區","LI":"南灣里","LIN":"9鄰","STREET":"永大路","SECT":"一段","MAREA":" ","LANE":" ","ALLEY":" ","HOUSE_NO":"２８６號","E_COORD97":174013.39000000001,"N_COORD97":2544316.02,"ADDRESS":"永大路一段２８６號","OBJECTID":565394},"geometry":{"x":174013.3900000006,"y":2544316.0200000014}},{"attributes":{"ID":565422,"DIS_CODE":0,"TOWNNAME":"永康區","LI":"南灣里","LIN":"9鄰","STREET":"大灣路","SECT":" ","MAREA":" ","LANE":" ","ALLEY":" ","HOUSE_NO":"６０５號之１","E_COORD97":174249.07999999999,"N_COORD97":2544522.9700000002,"ADDRESS":"大灣路６０５號之１","OBJECTID":565395},"geometry":{"x":174249.08000000007,"y":2544522.9700000007}},{"attributes":{"ID":565423,"DIS_CODE":0,"TOWNNAME":"永康區","LI":"烏竹里","LIN":"9鄰","STREET":"龍橋街","SECT":" ","MAREA":" ","LANE":" ","ALLEY":" ","HOUSE_NO":"３７８號","E_COORD97":174488.60999999999,"N_COORD97":2549123.1000000001,"ADDRESS":"龍橋街３７８號","OBJECTID":565396},"geometry":{"x":174488.6100000022,"y":2549123.1000000015}},{"attributes":{"ID":565424,"DIS_CODE":0,"TOWNNAME":"永康區","LI":"烏竹里","LIN":"9鄰","STREET":"龍橋街","SECT":" ","MAREA":" ","LANE":" ","ALLEY":" ","HOUSE_NO":"３６６號","E_COORD97":174498,"N_COORD97":2549096.6800000002,"ADDRESS":"龍橋街３６６號","OBJECTID":565397},"geometry":{"x":174498.00000000093,"y":2549096.6799999997}},{"attributes":{"ID":565425,"DIS_CODE":0,"TOWNNAME":"永康區","LI":"烏竹里","LIN":"9鄰","STREET":"龍橋街","SECT":" ","MAREA":" ","LANE":" ","ALLEY":" ","HOUSE_NO":"３７６號","E_COORD97":174490.06,"N_COORD97":2549118.6000000001,"ADDRESS":"龍橋街３７６號","OBJECTID":565398},"geometry":{"x":174490.06000000052,"y":2549118.5999999996}},{"attributes":{"ID":565426,"DIS_CODE":0,"TOWNNAME":"安南區","LI":"城北里","LIN":"9鄰","STREET":"城北路","SECT":" ","MAREA":" ","LANE":" ","ALLEY":" ","HOUSE_NO":"３之１號","E_COORD97":160829.57999999999,"N_COORD97":2551490.1400000001,"ADDRESS":"城北路３之１號","OBJECTID":565399},"geometry":{"x":160829.58000000007,"y":2551490.1400000025}},{"attributes":{"ID":565427,"DIS_CODE":0,"TOWNNAME":"安南區","LI":"淵西里","LIN":"9鄰","STREET":"安中路","SECT":"四段","MAREA":" ","LANE":" ","ALLEY":" ","HOUSE_NO":"２９４之１３號","E_COORD97":164464.63,"N_COORD97":2550260.2200000002,"ADDRESS":"安中路四段２９４之１３號","OBJECTID":565400},"geometry":{"x":164464.63000000082,"y":2550260.2200000007}}]}