{"displayFieldName":"TOWNNAME","fieldAliases":{"ID":"ID","DIS_CODE":"DIS_CODE","TOWNNAME":"TOWNNAME","LI":"LI","LIN":"LIN","STREET":"STREET","SECT":"SECT","MAREA":"MAREA","LANE":"LANE","ALLEY":"ALLEY","HOUSE_NO":"HOUSE_NO","E_COORD97":"E_COORD97","N_COORD97":"N_COORD97","ADDRESS":"ADDRESS","OBJECTID":"OBJECTID"},"geometryType":"esriGeometryPoint","spatialReference":{"wkid":102443,"latestWkid":3826},"fields":[{"name":"ID","type":"esriFieldTypeDouble","alias":"ID"},{"name":"DIS_CODE","type":"esriFieldTypeInteger","alias":"DIS_CODE"},{"name":"TOWNNAME","type":"esriFieldTypeString","alias":"TOWNNAME","length":8},{"name":"LI","type":"esriFieldTypeString","alias":"LI","length":8},{"name":"LIN","type":"esriFieldTypeString","alias":"LIN","length":12},{"name":"STREET","type":"esriFieldTypeString","alias":"STREET","length":20},{"name":"SECT","type":"esriFieldTypeString","alias":"SECT","length":8},{"name":"MAREA","type":"esriFieldTypeString","alias":"MAREA","length":12},{"name":"LANE","type":"esriFieldTypeString","alias":"LANE","length":10},{"name":"ALLEY","type":"esriFieldTypeString","alias":"ALLEY","length":10},{"name":"HOUSE_NO","type":"esriFieldTypeString","alias":"HOUSE_NO","length":20},{"name":"E_COORD97","type":"esriFieldTypeDouble","alias":"E_COORD97"},{"name":"N_COORD97","type":"esriFieldTypeDouble","alias":"N_COORD97"},{"name":"ADDRESS","type":"esriFieldTypeString","alias":"ADDRESS","length":50},{"name":"OBJECTID","type":"esriFieldTypeOID","alias":"OBJECTID"}],"features":[{"attributes":{"ID":14201,"DIS_CODE":0,"TOWNNAME":"東區","LI":"崇明里","LIN":"24鄰","STREET":"中華東路","SECT":"三段","MAREA":" ","LANE":"３９９巷","ALLEY":"２４弄","HOUSE_NO":"７８號","E_COORD97":169838.95000000001,"N_COORD97":2541371.3100000001,"ADDRESS":"中華東路三段３９９巷２４弄７８號","OBJECTID":14201},"geometry":{"x":169838.95000000019,"y":2541371.3100000042}},{"attributes":{"ID":14202,"DIS_CODE":0,"TOWNNAME":"東區","LI":"崇明里","LIN":"24鄰","STREET":"中華東路","SECT":"三段","MAREA":" ","LANE":"３９９巷","ALLEY":"２４弄","HOUSE_NO":"８０號","E_COORD97":169834.59,"N_COORD97":2541372.3100000001,"ADDRESS":"中華東路三段３９９巷２４弄８０號","OBJECTID":14202},"geometry":{"x":169834.58999999985,"y":2541372.3100000024}},{"attributes":{"ID":14203,"DIS_CODE":0,"TOWNNAME":"東區","LI":"崇明里","LIN":"24鄰","STREET":"中華東路","SECT":"三段","MAREA":" ","LANE":"３９９巷","ALLEY":"２４弄","HOUSE_NO":"８２號","E_COORD97":169829.07000000001,"N_COORD97":2541371.3100000001,"ADDRESS":"中華東路三段３９９巷２４弄８２號","OBJECTID":14203},"geometry":{"x":169829.07000000123,"y":2541371.3100000042}},{"attributes":{"ID":14204,"DIS_CODE":0,"TOWNNAME":"東區","LI":"崇明里","LIN":"24鄰","STREET":"中華東路","SECT":"三段","MAREA":" ","LANE":"３９９巷","ALLEY":"２４弄","HOUSE_NO":"８４號","E_COORD97":169824.38,"N_COORD97":2541370.1299999999,"ADDRESS":"中華東路三段３９９巷２４弄８４號","OBJECTID":14204},"geometry":{"x":169824.38000000175,"y":2541370.129999999}},{"attributes":{"ID":14205,"DIS_CODE":0,"TOWNNAME":"東區","LI":"崇明里","LIN":"24鄰","STREET":"中華東路","SECT":"三段","MAREA":" ","LANE":"３９９巷","ALLEY":"２４弄","HOUSE_NO":"８６號","E_COORD97":169820.20000000001,"N_COORD97":2541368.7999999998,"ADDRESS":"中華東路三段３９９巷２４弄８６號","OBJECTID":14205},"geometry":{"x":169820.20000000019,"y":2541368.8000000026}},{"attributes":{"ID":14206,"DIS_CODE":0,"TOWNNAME":"東區","LI":"崇明里","LIN":"24鄰","STREET":"中華東路","SECT":"三段","MAREA":" ","LANE":"３９９巷","ALLEY":"２４弄","HOUSE_NO":"８８號","E_COORD97":169814.17000000001,"N_COORD97":2541368.1299999999,"ADDRESS":"中華東路三段３９９巷２４弄８８號","OBJECTID":14206},"geometry":{"x":169814.17000000086,"y":2541368.1300000008}},{"attributes":{"ID":14207,"DIS_CODE":0,"TOWNNAME":"東區","LI":"崇明里","LIN":"24鄰","STREET":"中華東路","SECT":"三段","MAREA":" ","LANE":"３９９巷","ALLEY":"２４弄","HOUSE_NO":"８號","E_COORD97":170059.20000000001,"N_COORD97":2541416.3999999999,"ADDRESS":"中華東路三段３９９巷２４弄８號","OBJECTID":14207},"geometry":{"x":170059.20000000019,"y":2541416.4000000022}},{"attributes":{"ID":14208,"DIS_CODE":0,"TOWNNAME":"安南區","LI":"海東里","LIN":"24鄰","STREET":"同安路","SECT":" ","MAREA":" ","LANE":"１９５巷","ALLEY":"９弄","HOUSE_NO":"１號","E_COORD97":167090.57999999999,"N_COORD97":2549170.0600000001,"ADDRESS":"同安路１９５巷９弄１號","OBJECTID":14208},"geometry":{"x":167090.58000000194,"y":2549170.0600000005}},{"attributes":{"ID":14209,"DIS_CODE":0,"TOWNNAME":"安南區","LI":"海東里","LIN":"24鄰","STREET":"同安路","SECT":" ","MAREA":" ","LANE":"１９５巷","ALLEY":"９弄","HOUSE_NO":"２號","E_COORD97":167087.76999999999,"N_COORD97":2549167.1299999999,"ADDRESS":"同安路１９５巷９弄２號","OBJECTID":14209},"geometry":{"x":167087.77000000048,"y":2549167.1300000008}},{"attributes":{"ID":14210,"DIS_CODE":0,"TOWNNAME":"安南區","LI":"海東里","LIN":"24鄰","STREET":"同安路","SECT":" ","MAREA":" ","LANE":"１９５巷","ALLEY":"９弄","HOUSE_NO":"３號","E_COORD97":167085.16,"N_COORD97":2549163.73,"ADDRESS":"同安路１９５巷９弄３號","OBJECTID":14210},"geometry":{"x":167085.16000000201,"y":2549163.7300000023}},{"attributes":{"ID":14211,"DIS_CODE":0,"TOWNNAME":"安南區","LI":"海東里","LIN":"24鄰","STREET":"同安路","SECT":" ","MAREA":" ","LANE":"１９５巷","ALLEY":"９弄","HOUSE_NO":"５號","E_COORD97":167081.94,"N_COORD97":2549160.9300000002,"ADDRESS":"同安路１９５巷９弄５號","OBJECTID":14211},"geometry":{"x":167081.94000000134,"y":2549160.9300000034}},{"attributes":{"ID":14212,"DIS_CODE":0,"TOWNNAME":"安南區","LI":"海東里","LIN":"24鄰","STREET":"同安路","SECT":" ","MAREA":" ","LANE":"１９５巷","ALLEY":"９弄","HOUSE_NO":"６號","E_COORD97":167079.85999999999,"N_COORD97":2549157.4399999999,"ADDRESS":"同安路１９５巷９弄６號","OBJECTID":14212},"geometry":{"x":167079.86000000034,"y":2549157.4400000013}},{"attributes":{"ID":14213,"DIS_CODE":0,"TOWNNAME":"安南區","LI":"海東里","LIN":"24鄰","STREET":"同安路","SECT":" ","MAREA":" ","LANE":"１９５巷","ALLEY":"９弄","HOUSE_NO":"７號","E_COORD97":167074.14000000001,"N_COORD97":2549156.3100000001,"ADDRESS":"同安路１９５巷９弄７號","OBJECTID":14213},"geometry":{"x":167074.13999999966,"y":2549156.3100000024}},{"attributes":{"ID":14214,"DIS_CODE":0,"TOWNNAME":"安南區","LI":"海東里","LIN":"24鄰","STREET":"同安路","SECT":" ","MAREA":" ","LANE":"１９５巷","ALLEY":"９弄","HOUSE_NO":"８號","E_COORD97":167071.26999999999,"N_COORD97":2549153.8900000001,"ADDRESS":"同安路１９５巷９弄８號","OBJECTID":14214},"geometry":{"x":167071.26999999955,"y":2549153.8900000006}},{"attributes":{"ID":14215,"DIS_CODE":0,"TOWNNAME":"安南區","LI":"海東里","LIN":"24鄰","STREET":"同安路","SECT":" ","MAREA":" ","LANE":"１９５巷","ALLEY":"９弄","HOUSE_NO":"９號","E_COORD97":167068.85000000001,"N_COORD97":2549150.3599999999,"ADDRESS":"同安路１９５巷９弄９號","OBJECTID":14215},"geometry":{"x":167068.84999999963,"y":2549150.3599999994}},{"attributes":{"ID":14216,"DIS_CODE":0,"TOWNNAME":"安南區","LI":"海東里","LIN":"24鄰","STREET":"同安路","SECT":" ","MAREA":" ","LANE":"１６７巷","ALLEY":"２６弄","HOUSE_NO":"２號","E_COORD97":167050.39000000001,"N_COORD97":2549166.2799999998,"ADDRESS":"同安路１６７巷２６弄２號","OBJECTID":14216},"geometry":{"x":167050.38999999966,"y":2549166.2800000012}},{"attributes":{"ID":14217,"DIS_CODE":0,"TOWNNAME":"南區","LI":"喜北里","LIN":"13鄰","STREET":"喜樹路","SECT":" ","MAREA":" ","LANE":" ","ALLEY":" ","HOUSE_NO":"２１６號","E_COORD97":165763.01999999999,"N_COORD97":2538045.02,"ADDRESS":"喜樹路２１６號","OBJECTID":14217},"geometry":{"x":165763.01999999862,"y":2538045.0199999996}},{"attributes":{"ID":14218,"DIS_CODE":0,"TOWNNAME":"南區","LI":"文南里","LIN":"13鄰","STREET":"文南路","SECT":" ","MAREA":" ","LANE":" ","ALLEY":" ","HOUSE_NO":"２７號","E_COORD97":166904.53,"N_COORD97":2542590.3100000001,"ADDRESS":"文南路２７號","OBJECTID":14218},"geometry":{"x":166904.53000000026,"y":2542590.3100000005}},{"attributes":{"ID":14219,"DIS_CODE":0,"TOWNNAME":"安南區","LI":"海東里","LIN":"24鄰","STREET":"同安路","SECT":" ","MAREA":" ","LANE":"１６７巷","ALLEY":"２６弄","HOUSE_NO":"６號","E_COORD97":167053.51000000001,"N_COORD97":2549169.7000000002,"ADDRESS":"同安路１６７巷２６弄６號","OBJECTID":14219},"geometry":{"x":167053.51000000164,"y":2549169.7000000011}},{"attributes":{"ID":14220,"DIS_CODE":0,"TOWNNAME":"佳里區","LI":"六安里","LIN":"24鄰","STREET":"林園街","SECT":" ","MAREA":" ","LANE":"１２２巷","ALLEY":"１２弄","HOUSE_NO":"１１號","E_COORD97":165808.32999999999,"N_COORD97":2562924.5899999999,"ADDRESS":"林園街１２２巷１２弄１１號","OBJECTID":14220},"geometry":{"x":165808.33000000007,"y":2562924.589999998}},{"attributes":{"ID":14221,"DIS_CODE":0,"TOWNNAME":"佳里區","LI":"六安里","LIN":"24鄰","STREET":"林園街","SECT":" ","MAREA":" ","LANE":"１２２巷","ALLEY":"１２弄","HOUSE_NO":"１３號","E_COORD97":165812.13,"N_COORD97":2562924.3700000001,"ADDRESS":"林園街１２２巷１２弄１３號","OBJECTID":14221},"geometry":{"x":165812.13000000082,"y":2562924.3700000048}},{"attributes":{"ID":14222,"DIS_CODE":0,"TOWNNAME":"佳里區","LI":"六安里","LIN":"24鄰","STREET":"林園街","SECT":" ","MAREA":" ","LANE":"１２２巷","ALLEY":"１２弄","HOUSE_NO":"１號","E_COORD97":165789.26000000001,"N_COORD97":2562926.1099999999,"ADDRESS":"林園街１２２巷１２弄１號","OBJECTID":14222},"geometry":{"x":165789.26000000071,"y":2562926.1099999994}},{"attributes":{"ID":14223,"DIS_CODE":0,"TOWNNAME":"佳里區","LI":"六安里","LIN":"24鄰","STREET":"林園街","SECT":" ","MAREA":" ","LANE":"１２２巷","ALLEY":"１２弄","HOUSE_NO":"３號","E_COORD97":165793.12,"N_COORD97":2562925.5800000001,"ADDRESS":"林園街１２２巷１２弄３號","OBJECTID":14223},"geometry":{"x":165793.12000000011,"y":2562925.5800000019}},{"attributes":{"ID":14224,"DIS_CODE":0,"TOWNNAME":"佳里區","LI":"六安里","LIN":"24鄰","STREET":"林園街","SECT":" ","MAREA":" ","LANE":"１２２巷","ALLEY":"１２弄","HOUSE_NO":"５號","E_COORD97":165796.73999999999,"N_COORD97":2562925.6699999999,"ADDRESS":"林園街１２２巷１２弄５號","OBJECTID":14224},"geometry":{"x":165796.74000000115,"y":2562925.6700000018}},{"attributes":{"ID":14225,"DIS_CODE":0,"TOWNNAME":"後壁區","LI":"新東里","LIN":"14鄰","STREET":" ","SECT":" ","MAREA":"新港東","LANE":" ","ALLEY":" ","HOUSE_NO":"１４７號之２２５","E_COORD97":181383.94,"N_COORD97":2582219.5600000001,"ADDRESS":"新港東１４７號之２２５","OBJECTID":14225},"geometry":{"x":181383.93999999948,"y":2582219.5600000005}},{"attributes":{"ID":14226,"DIS_CODE":0,"TOWNNAME":"佳里區","LI":"六安里","LIN":"24鄰","STREET":"林園街","SECT":" ","MAREA":" ","LANE":"１２２巷","ALLEY":"１２弄","HOUSE_NO":"７號","E_COORD97":165800.63,"N_COORD97":2562925.2400000002,"ADDRESS":"林園街１２２巷１２弄７號","OBJECTID":14226},"geometry":{"x":165800.63000000082,"y":2562925.2400000021}},{"attributes":{"ID":14227,"DIS_CODE":0,"TOWNNAME":"佳里區","LI":"六安里","LIN":"24鄰","STREET":"林園街","SECT":" ","MAREA":" ","LANE":"１２２巷","ALLEY":"１２弄","HOUSE_NO":"９號","E_COORD97":165804.35999999999,"N_COORD97":2562925.1400000001,"ADDRESS":"林園街１２２巷１２弄９號","OBJECTID":14227},"geometry":{"x":165804.36000000127,"y":2562925.1399999987}},{"attributes":{"ID":14228,"DIS_CODE":0,"TOWNNAME":"安南區","LI":"安東里","LIN":"24鄰","STREET":"安和路","SECT":"二段","MAREA":" ","LANE":"３６巷","ALLEY":"２０弄","HOUSE_NO":"１０號","E_COORD97":169519.95999999999,"N_COORD97":2548567.21,"ADDRESS":"安和路二段３６巷２０弄１０號","OBJECTID":14228},"geometry":{"x":169519.95999999996,"y":2548567.2100000028}},{"attributes":{"ID":14229,"DIS_CODE":0,"TOWNNAME":"安南區","LI":"安東里","LIN":"24鄰","STREET":"安和路","SECT":"二段","MAREA":" ","LANE":"３６巷","ALLEY":"２０弄","HOUSE_NO":"１１號","E_COORD97":169539.37,"N_COORD97":2548564.4100000001,"ADDRESS":"安和路二段３６巷２０弄１１號","OBJECTID":14229},"geometry":{"x":169539.37000000011,"y":2548564.4100000001}},{"attributes":{"ID":14230,"DIS_CODE":0,"TOWNNAME":"安南區","LI":"安東里","LIN":"24鄰","STREET":"安和路","SECT":"二段","MAREA":" ","LANE":"３６巷","ALLEY":"２０弄","HOUSE_NO":"１２號","E_COORD97":169520.23999999999,"N_COORD97":2548562.7400000002,"ADDRESS":"安和路二段３６巷２０弄１２號","OBJECTID":14230},"geometry":{"x":169520.24000000022,"y":2548562.7400000039}},{"attributes":{"ID":14231,"DIS_CODE":0,"TOWNNAME":"後壁區","LI":"新東里","LIN":"14鄰","STREET":" ","SECT":" ","MAREA":"新港東","LANE":" ","ALLEY":" ","HOUSE_NO":"１４７號之２４１","E_COORD97":181405.89000000001,"N_COORD97":2582219.3100000001,"ADDRESS":"新港東１４７號之２４１","OBJECTID":14231},"geometry":{"x":181405.8900000006,"y":2582219.3100000024}},{"attributes":{"ID":14232,"DIS_CODE":0,"TOWNNAME":"安南區","LI":"安東里","LIN":"24鄰","STREET":"安和路","SECT":"二段","MAREA":" ","LANE":"３６巷","ALLEY":"２０弄","HOUSE_NO":"１３號","E_COORD97":169539.37,"N_COORD97":2548559.1000000001,"ADDRESS":"安和路二段３６巷２０弄１３號","OBJECTID":14232},"geometry":{"x":169539.37000000011,"y":2548559.0999999996}},{"attributes":{"ID":14233,"DIS_CODE":0,"TOWNNAME":"安南區","LI":"安東里","LIN":"24鄰","STREET":"安和路","SECT":"二段","MAREA":" ","LANE":"３６巷","ALLEY":"２０弄","HOUSE_NO":"１４號","E_COORD97":169520.10000000001,"N_COORD97":2548558.1299999999,"ADDRESS":"安和路二段３６巷２０弄１４號","OBJECTID":14233},"geometry":{"x":169520.09999999963,"y":2548558.129999999}},{"attributes":{"ID":14234,"DIS_CODE":0,"TOWNNAME":"安南區","LI":"安東里","LIN":"24鄰","STREET":"安和路","SECT":"二段","MAREA":" ","LANE":"３６巷","ALLEY":"２０弄","HOUSE_NO":"１５號","E_COORD97":169539.92999999999,"N_COORD97":2548554.9100000001,"ADDRESS":"安和路二段３６巷２０弄１５號","OBJECTID":14234},"geometry":{"x":169539.93000000063,"y":2548554.910000002}},{"attributes":{"ID":14235,"DIS_CODE":0,"TOWNNAME":"安南區","LI":"安東里","LIN":"24鄰","STREET":"安和路","SECT":"二段","MAREA":" ","LANE":"３６巷","ALLEY":"２０弄","HOUSE_NO":"１６號","E_COORD97":169520.66,"N_COORD97":2548553.9399999999,"ADDRESS":"安和路二段３６巷２０弄１６號","OBJECTID":14235},"geometry":{"x":169520.66000000015,"y":2548553.9400000013}},{"attributes":{"ID":14236,"DIS_CODE":0,"TOWNNAME":"安南區","LI":"安東里","LIN":"24鄰","STREET":"安和路","SECT":"二段","MAREA":" ","LANE":"３６巷","ALLEY":"２０弄","HOUSE_NO":"１７號","E_COORD97":169540.35000000001,"N_COORD97":2548550.8599999999,"ADDRESS":"安和路二段３６巷２０弄１７號","OBJECTID":14236},"geometry":{"x":169540.35000000056,"y":2548550.8600000031}},{"attributes":{"ID":14237,"DIS_CODE":0,"TOWNNAME":"安南區","LI":"安東里","LIN":"24鄰","STREET":"安和路","SECT":"二段","MAREA":" ","LANE":"３６巷","ALLEY":"２０弄","HOUSE_NO":"１８號","E_COORD97":169521.5,"N_COORD97":2548548.9100000001,"ADDRESS":"安和路二段３６巷２０弄１８號","OBJECTID":14237},"geometry":{"x":169521.5,"y":2548548.910000002}},{"attributes":{"ID":14238,"DIS_CODE":0,"TOWNNAME":"安南區","LI":"安東里","LIN":"24鄰","STREET":"安和路","SECT":"二段","MAREA":" ","LANE":"３６巷","ALLEY":"２０弄","HOUSE_NO":"１９號","E_COORD97":169540.35000000001,"N_COORD97":2548546.5299999998,"ADDRESS":"安和路二段３６巷２０弄１９號","OBJECTID":14238},"geometry":{"x":169540.35000000056,"y":2548546.5300000012}},{"attributes":{"ID":14239,"DIS_CODE":0,"TOWNNAME":"安南區","LI":"安東里","LIN":"24鄰","STREET":"安和路","SECT":"二段","MAREA":" ","LANE":"３６巷","ALLEY":"２０弄","HOUSE_NO":"１號","E_COORD97":169535.60000000001,"N_COORD97":2548587.4500000002,"ADDRESS":"安和路二段３６巷２０弄１號","OBJECTID":14239},"geometry":{"x":169535.59999999963,"y":2548587.450000003}},{"attributes":{"ID":14240,"DIS_CODE":0,"TOWNNAME":"安南區","LI":"安東里","LIN":"24鄰","STREET":"安和路","SECT":"二段","MAREA":" ","LANE":"３６巷","ALLEY":"２０弄","HOUSE_NO":"２０號","E_COORD97":169521.35999999999,"N_COORD97":2548545.3500000001,"ADDRESS":"安和路二段３６巷２０弄２０號","OBJECTID":14240},"geometry":{"x":169521.36000000034,"y":2548545.3500000015}},{"attributes":{"ID":14241,"DIS_CODE":0,"TOWNNAME":"安南區","LI":"安東里","LIN":"24鄰","STREET":"安和路","SECT":"二段","MAREA":" ","LANE":"３６巷","ALLEY":"２０弄","HOUSE_NO":"２１號","E_COORD97":169540.63,"N_COORD97":2548542.21,"ADDRESS":"安和路二段３６巷２０弄２１號","OBJECTID":14241},"geometry":{"x":169540.62999999989,"y":2548542.2100000009}},{"attributes":{"ID":14242,"DIS_CODE":0,"TOWNNAME":"安南區","LI":"安東里","LIN":"24鄰","STREET":"安和路","SECT":"二段","MAREA":" ","LANE":"３６巷","ALLEY":"２０弄","HOUSE_NO":"２２號","E_COORD97":169521.64000000001,"N_COORD97":2548540.1899999999,"ADDRESS":"安和路二段３６巷２０弄２２號","OBJECTID":14242},"geometry":{"x":169521.63999999966,"y":2548540.1899999995}},{"attributes":{"ID":14243,"DIS_CODE":0,"TOWNNAME":"安南區","LI":"安東里","LIN":"24鄰","STREET":"安和路","SECT":"二段","MAREA":" ","LANE":"３６巷","ALLEY":"２０弄","HOUSE_NO":"２３號","E_COORD97":169541.73999999999,"N_COORD97":2548537.7400000002,"ADDRESS":"安和路二段３６巷２０弄２３號","OBJECTID":14243},"geometry":{"x":169541.74000000115,"y":2548537.7400000002}},{"attributes":{"ID":14244,"DIS_CODE":0,"TOWNNAME":"後壁區","LI":"新東里","LIN":"14鄰","STREET":" ","SECT":" ","MAREA":"新港東","LANE":" ","ALLEY":" ","HOUSE_NO":"１４７號之２２６","E_COORD97":181387.14000000001,"N_COORD97":2582217.1000000001,"ADDRESS":"新港東１４７號之２２６","OBJECTID":14244},"geometry":{"x":181387.14000000153,"y":2582217.1000000015}},{"attributes":{"ID":14245,"DIS_CODE":0,"TOWNNAME":"後壁區","LI":"新東里","LIN":"14鄰","STREET":" ","SECT":" ","MAREA":"新港東","LANE":" ","ALLEY":" ","HOUSE_NO":"１４７號之２２７","E_COORD97":181390.42000000001,"N_COORD97":2582214.8300000001,"ADDRESS":"新港東１４７號之２２７","OBJECTID":14245},"geometry":{"x":181390.42000000179,"y":2582214.8300000038}},{"attributes":{"ID":14246,"DIS_CODE":0,"TOWNNAME":"後壁區","LI":"新東里","LIN":"14鄰","STREET":" ","SECT":" ","MAREA":"新港東","LANE":" ","ALLEY":" ","HOUSE_NO":"１４７號之２２８","E_COORD97":181393.98000000001,"N_COORD97":2582233.1600000001,"ADDRESS":"新港東１４７號之２２８","OBJECTID":14246},"geometry":{"x":181393.98000000231,"y":2582233.1600000039}},{"attributes":{"ID":14247,"DIS_CODE":0,"TOWNNAME":"後壁區","LI":"新東里","LIN":"14鄰","STREET":" ","SECT":" ","MAREA":"新港東","LANE":" ","ALLEY":" ","HOUSE_NO":"１４７號之２２９","E_COORD97":181396.89999999999,"N_COORD97":2582237.02,"ADDRESS":"新港東１４７號之２２９","OBJECTID":14247},"geometry":{"x":181396.9000000013,"y":2582237.0200000014}},{"attributes":{"ID":14248,"DIS_CODE":0,"TOWNNAME":"後壁區","LI":"新東里","LIN":"14鄰","STREET":" ","SECT":" ","MAREA":"新港東","LANE":" ","ALLEY":" ","HOUSE_NO":"１４７號之２２","E_COORD97":181303.06,"N_COORD97":2582124.3100000001,"ADDRESS":"新港東１４７號之２２","OBJECTID":14248},"geometry":{"x":181303.06000000052,"y":2582124.3100000024}},{"attributes":{"ID":14249,"DIS_CODE":0,"TOWNNAME":"後壁區","LI":"新東里","LIN":"14鄰","STREET":" ","SECT":" ","MAREA":"新港東","LANE":" ","ALLEY":" ","HOUSE_NO":"１４７號之２３０","E_COORD97":181399.51000000001,"N_COORD97":2582240.5099999998,"ADDRESS":"新港東１４７號之２３０","OBJECTID":14249},"geometry":{"x":181399.50999999978,"y":2582240.5100000035}},{"attributes":{"ID":14250,"DIS_CODE":0,"TOWNNAME":"後壁區","LI":"新東里","LIN":"14鄰","STREET":" ","SECT":" ","MAREA":"新港東","LANE":" ","ALLEY":" ","HOUSE_NO":"１４７號之２３１","E_COORD97":181402.64999999999,"N_COORD97":2582244.5299999998,"ADDRESS":"新港東１４７號之２３１","OBJECTID":14250},"geometry":{"x":181402.65000000037,"y":2582244.5300000012}},{"attributes":{"ID":14251,"DIS_CODE":0,"TOWNNAME":"後壁區","LI":"新東里","LIN":"14鄰","STREET":" ","SECT":" ","MAREA":"新港東","LANE":" ","ALLEY":" ","HOUSE_NO":"１４７號之２３２","E_COORD97":181406.07000000001,"N_COORD97":2582248.3700000001,"ADDRESS":"新港東１４７號之２３２","OBJECTID":14251},"geometry":{"x":181406.0700000003,"y":2582248.370000001}},{"attributes":{"ID":14252,"DIS_CODE":0,"TOWNNAME":"後壁區","LI":"新東里","LIN":"14鄰","STREET":" ","SECT":" ","MAREA":"新港東","LANE":" ","ALLEY":" ","HOUSE_NO":"１４７號之２３３","E_COORD97":181408.67999999999,"N_COORD97":2582252.3999999999,"ADDRESS":"新港東１４７號之２３３","OBJECTID":14252},"geometry":{"x":181408.67999999877,"y":2582252.4000000022}},{"attributes":{"ID":14253,"DIS_CODE":0,"TOWNNAME":"後壁區","LI":"新東里","LIN":"14鄰","STREET":" ","SECT":" ","MAREA":"新港東","LANE":" ","ALLEY":" ","HOUSE_NO":"１４７號之２３４","E_COORD97":181411.94,"N_COORD97":2582255.8300000001,"ADDRESS":"新港東１４７號之２３４","OBJECTID":14253},"geometry":{"x":181411.94000000134,"y":2582255.8300000019}},{"attributes":{"ID":14254,"DIS_CODE":0,"TOWNNAME":"後壁區","LI":"新東里","LIN":"14鄰","STREET":" ","SECT":" ","MAREA":"新港東","LANE":" ","ALLEY":" ","HOUSE_NO":"１４７號之２３５","E_COORD97":181414.75,"N_COORD97":2582259.52,"ADDRESS":"新港東１４７號之２３５","OBJECTID":14254},"geometry":{"x":181414.75,"y":2582259.5199999996}},{"attributes":{"ID":14255,"DIS_CODE":0,"TOWNNAME":"後壁區","LI":"新東里","LIN":"14鄰","STREET":" ","SECT":" ","MAREA":"新港東","LANE":" ","ALLEY":" ","HOUSE_NO":"１４７號之２３６","E_COORD97":181417,"N_COORD97":2582263.54,"ADDRESS":"新港東１４７號之２３６","OBJECTID":14255},"geometry":{"x":181416.99999999907,"y":2582263.540000001}},{"attributes":{"ID":14256,"DIS_CODE":0,"TOWNNAME":"安南區","LI":"安東里","LIN":"24鄰","STREET":"安和路","SECT":"二段","MAREA":" ","LANE":"３６巷","ALLEY":"２０弄","HOUSE_NO":"２４號","E_COORD97":169521.5,"N_COORD97":2548535.8599999999,"ADDRESS":"安和路二段３６巷２０弄２４號","OBJECTID":14256},"geometry":{"x":169521.5,"y":2548535.8599999994}},{"attributes":{"ID":14257,"DIS_CODE":0,"TOWNNAME":"後壁區","LI":"新東里","LIN":"14鄰","STREET":" ","SECT":" ","MAREA":"新港東","LANE":" ","ALLEY":" ","HOUSE_NO":"１４７號之２３７","E_COORD97":181419.70000000001,"N_COORD97":2582267.2799999998,"ADDRESS":"新港東１４７號之２３７","OBJECTID":14257},"geometry":{"x":181419.70000000112,"y":2582267.2799999993}},{"attributes":{"ID":14258,"DIS_CODE":0,"TOWNNAME":"後壁區","LI":"新東里","LIN":"14鄰","STREET":" ","SECT":" ","MAREA":"新港東","LANE":" ","ALLEY":" ","HOUSE_NO":"１４７號之２３８","E_COORD97":181397.95000000001,"N_COORD97":2582208.5,"ADDRESS":"新港東１４７號之２３８","OBJECTID":14258},"geometry":{"x":181397.95000000112,"y":2582208.5}},{"attributes":{"ID":14259,"DIS_CODE":0,"TOWNNAME":"後壁區","LI":"新東里","LIN":"14鄰","STREET":" ","SECT":" ","MAREA":"新港東","LANE":" ","ALLEY":" ","HOUSE_NO":"１４７號之２３９","E_COORD97":181400.73000000001,"N_COORD97":2582212.0899999999,"ADDRESS":"新港東１４７號之２３９","OBJECTID":14259},"geometry":{"x":181400.73000000231,"y":2582212.0899999999}},{"attributes":{"ID":14260,"DIS_CODE":0,"TOWNNAME":"後壁區","LI":"新東里","LIN":"14鄰","STREET":" ","SECT":" ","MAREA":"新港東","LANE":" ","ALLEY":" ","HOUSE_NO":"１４７號之２３","E_COORD97":181307.45000000001,"N_COORD97":2582128.8799999999,"ADDRESS":"新港東１４７號之２３","OBJECTID":14260},"geometry":{"x":181307.45000000205,"y":2582128.8800000008}},{"attributes":{"ID":14261,"DIS_CODE":0,"TOWNNAME":"後壁區","LI":"新東里","LIN":"14鄰","STREET":" ","SECT":" ","MAREA":"新港東","LANE":" ","ALLEY":" ","HOUSE_NO":"１４７號之２４０","E_COORD97":181403.09,"N_COORD97":2582216,"ADDRESS":"新港東１４７號之２４０","OBJECTID":14261},"geometry":{"x":181403.09000000078,"y":2582216}},{"attributes":{"ID":14262,"DIS_CODE":0,"TOWNNAME":"後壁區","LI":"新東里","LIN":"14鄰","STREET":" ","SECT":" ","MAREA":"新港東","LANE":" ","ALLEY":" ","HOUSE_NO":"１４７號之２４２","E_COORD97":181408.17999999999,"N_COORD97":2582223.1899999999,"ADDRESS":"新港東１４７號之２４２","OBJECTID":14262},"geometry":{"x":181408.1799999997,"y":2582223.1900000013}},{"attributes":{"ID":14263,"DIS_CODE":0,"TOWNNAME":"後壁區","LI":"新東里","LIN":"14鄰","STREET":" ","SECT":" ","MAREA":"新港東","LANE":" ","ALLEY":" ","HOUSE_NO":"１４７號之２４３","E_COORD97":181411.10000000001,"N_COORD97":2582226.3799999999,"ADDRESS":"新港東１４７號之２４３","OBJECTID":14263},"geometry":{"x":181411.10000000149,"y":2582226.379999999}},{"attributes":{"ID":14264,"DIS_CODE":0,"TOWNNAME":"後壁區","LI":"新東里","LIN":"14鄰","STREET":" ","SECT":" ","MAREA":"新港東","LANE":" ","ALLEY":" ","HOUSE_NO":"１４７號之２４４","E_COORD97":181414.06,"N_COORD97":2582229.6200000001,"ADDRESS":"新港東１４７號之２４４","OBJECTID":14264},"geometry":{"x":181414.05999999959,"y":2582229.620000001}},{"attributes":{"ID":14265,"DIS_CODE":0,"TOWNNAME":"後壁區","LI":"新東里","LIN":"14鄰","STREET":" ","SECT":" ","MAREA":"新港東","LANE":" ","ALLEY":" ","HOUSE_NO":"１４７號之２４５","E_COORD97":181416.87,"N_COORD97":2582233.3999999999,"ADDRESS":"新港東１４７號之２４５","OBJECTID":14265},"geometry":{"x":181416.87000000104,"y":2582233.4000000004}},{"attributes":{"ID":14266,"DIS_CODE":0,"TOWNNAME":"後壁區","LI":"新東里","LIN":"14鄰","STREET":" ","SECT":" ","MAREA":"新港東","LANE":" ","ALLEY":" ","HOUSE_NO":"１４７號之２４６","E_COORD97":181419.62,"N_COORD97":2582236.75,"ADDRESS":"新港東１４７號之２４６","OBJECTID":14266},"geometry":{"x":181419.62000000011,"y":2582236.7500000019}},{"attributes":{"ID":14267,"DIS_CODE":0,"TOWNNAME":"後壁區","LI":"新東里","LIN":"14鄰","STREET":" ","SECT":" ","MAREA":"新港東","LANE":" ","ALLEY":" ","HOUSE_NO":"１４７號之２４７","E_COORD97":181421.98999999999,"N_COORD97":2582240.3999999999,"ADDRESS":"新港東１４７號之２４７","OBJECTID":14267},"geometry":{"x":181421.99000000022,"y":2582240.4000000004}},{"attributes":{"ID":14268,"DIS_CODE":0,"TOWNNAME":"後壁區","LI":"新東里","LIN":"14鄰","STREET":" ","SECT":" ","MAREA":"新港東","LANE":" ","ALLEY":" ","HOUSE_NO":"１４７號之２４８","E_COORD97":181424.60999999999,"N_COORD97":2582243.4300000002,"ADDRESS":"新港東１４７號之２４８","OBJECTID":14268},"geometry":{"x":181424.61000000034,"y":2582243.4299999997}},{"attributes":{"ID":14269,"DIS_CODE":0,"TOWNNAME":"後壁區","LI":"新東里","LIN":"14鄰","STREET":" ","SECT":" ","MAREA":"新港東","LANE":" ","ALLEY":" ","HOUSE_NO":"１４７號之２４９","E_COORD97":181427.35000000001,"N_COORD97":2582246.8700000001,"ADDRESS":"新港東１４７號之２４９","OBJECTID":14269},"geometry":{"x":181427.34999999963,"y":2582246.8700000029}},{"attributes":{"ID":14270,"DIS_CODE":0,"TOWNNAME":"後壁區","LI":"新東里","LIN":"14鄰","STREET":" ","SECT":" ","MAREA":"新港東","LANE":" ","ALLEY":" ","HOUSE_NO":"１４７號之２４","E_COORD97":181310.09,"N_COORD97":2582134.5,"ADDRESS":"新港東１４７號之２４","OBJECTID":14270},"geometry":{"x":181310.09000000078,"y":2582134.5}},{"attributes":{"ID":14271,"DIS_CODE":0,"TOWNNAME":"後壁區","LI":"新東里","LIN":"14鄰","STREET":" ","SECT":" ","MAREA":"新港東","LANE":" ","ALLEY":" ","HOUSE_NO":"１４７號之２５０","E_COORD97":181429.66,"N_COORD97":2582250.0699999998,"ADDRESS":"新港東１４７號之２５０","OBJECTID":14271},"geometry":{"x":181429.65999999922,"y":2582250.0700000003}},{"attributes":{"ID":14272,"DIS_CODE":0,"TOWNNAME":"後壁區","LI":"新東里","LIN":"14鄰","STREET":" ","SECT":" ","MAREA":"新港東","LANE":" ","ALLEY":" ","HOUSE_NO":"１４７號之２５１","E_COORD97":181432.51000000001,"N_COORD97":2582253.7799999998,"ADDRESS":"新港東１４７號之２５１","OBJECTID":14272},"geometry":{"x":181432.51000000071,"y":2582253.7799999993}},{"attributes":{"ID":14273,"DIS_CODE":0,"TOWNNAME":"後壁區","LI":"新東里","LIN":"14鄰","STREET":" ","SECT":" ","MAREA":"新港東","LANE":" ","ALLEY":" ","HOUSE_NO":"１４７號之２５","E_COORD97":181318.48999999999,"N_COORD97":2582137.6499999999,"ADDRESS":"新港東１４７號之２５","OBJECTID":14273},"geometry":{"x":181318.49000000022,"y":2582137.6500000004}},{"attributes":{"ID":14274,"DIS_CODE":0,"TOWNNAME":"後壁區","LI":"新東里","LIN":"14鄰","STREET":" ","SECT":" ","MAREA":"新港東","LANE":" ","ALLEY":" ","HOUSE_NO":"１４７號之２６","E_COORD97":181313.85999999999,"N_COORD97":2582141.4100000001,"ADDRESS":"新港東１４７號之２６","OBJECTID":14274},"geometry":{"x":181313.86000000127,"y":2582141.4100000001}},{"attributes":{"ID":14275,"DIS_CODE":0,"TOWNNAME":"後壁區","LI":"新東里","LIN":"14鄰","STREET":" ","SECT":" ","MAREA":"新港東","LANE":" ","ALLEY":" ","HOUSE_NO":"１４７號之２７","E_COORD97":181309.23000000001,"N_COORD97":2582144.4900000002,"ADDRESS":"新港東１４７號之２７","OBJECTID":14275},"geometry":{"x":181309.23000000231,"y":2582144.4900000002}},{"attributes":{"ID":14276,"DIS_CODE":0,"TOWNNAME":"後壁區","LI":"新東里","LIN":"14鄰","STREET":" ","SECT":" ","MAREA":"新港東","LANE":" ","ALLEY":" ","HOUSE_NO":"１４７號之２８","E_COORD97":181305.01000000001,"N_COORD97":2582147.9199999999,"ADDRESS":"新港東１４７號之２８","OBJECTID":14276},"geometry":{"x":181305.01000000164,"y":2582147.9199999999}},{"attributes":{"ID":14277,"DIS_CODE":0,"TOWNNAME":"安南區","LI":"安東里","LIN":"24鄰","STREET":"安和路","SECT":"二段","MAREA":" ","LANE":"３６巷","ALLEY":"２０弄","HOUSE_NO":"２５號","E_COORD97":169542.01999999999,"N_COORD97":2548533.1299999999,"ADDRESS":"安和路二段３６巷２０弄２５號","OBJECTID":14277},"geometry":{"x":169542.02000000048,"y":2548533.1300000008}},{"attributes":{"ID":14278,"DIS_CODE":0,"TOWNNAME":"安南區","LI":"安東里","LIN":"24鄰","STREET":"安和路","SECT":"二段","MAREA":" ","LANE":"３６巷","ALLEY":"２０弄","HOUSE_NO":"２６號","E_COORD97":169522.60999999999,"N_COORD97":2548531.8100000001,"ADDRESS":"安和路二段３６巷２０弄２６號","OBJECTID":14278},"geometry":{"x":169522.61000000034,"y":2548531.8100000042}},{"attributes":{"ID":14279,"DIS_CODE":0,"TOWNNAME":"安南區","LI":"安東里","LIN":"24鄰","STREET":"安和路","SECT":"二段","MAREA":" ","LANE":"３６巷","ALLEY":"２０弄","HOUSE_NO":"２７號","E_COORD97":169543.56,"N_COORD97":2548527.75,"ADDRESS":"安和路二段３６巷２０弄２７號","OBJECTID":14279},"geometry":{"x":169543.56000000052,"y":2548527.75}},{"attributes":{"ID":14280,"DIS_CODE":0,"TOWNNAME":"善化區","LI":"牛庄里","LIN":"13鄰","STREET":" ","SECT":" ","MAREA":"牛庄","LANE":" ","ALLEY":" ","HOUSE_NO":"１之８號","E_COORD97":180075.01000000001,"N_COORD97":2559744.27,"ADDRESS":"牛庄１之８號","OBJECTID":14280},"geometry":{"x":180075.01000000071,"y":2559744.2700000014}},{"attributes":{"ID":14281,"DIS_CODE":0,"TOWNNAME":"後壁區","LI":"新東里","LIN":"14鄰","STREET":" ","SECT":" ","MAREA":"新港東","LANE":" ","ALLEY":" ","HOUSE_NO":"１４７號之２９","E_COORD97":181300.16,"N_COORD97":2582151.0099999998,"ADDRESS":"新港東１４７號之２９","OBJECTID":14281},"geometry":{"x":181300.16000000015,"y":2582151.0099999998}},{"attributes":{"ID":14282,"DIS_CODE":0,"TOWNNAME":"安南區","LI":"安東里","LIN":"24鄰","STREET":"安和路","SECT":"二段","MAREA":" ","LANE":"３６巷","ALLEY":"２０弄","HOUSE_NO":"２８號","E_COORD97":169522.04999999999,"N_COORD97":2548527.8999999999,"ADDRESS":"安和路二段３６巷２０弄２８號","OBJECTID":14282},"geometry":{"x":169522.05000000075,"y":2548527.9000000041}},{"attributes":{"ID":14283,"DIS_CODE":0,"TOWNNAME":"安南區","LI":"安東里","LIN":"24鄰","STREET":"安和路","SECT":"二段","MAREA":" ","LANE":"３６巷","ALLEY":"２０弄","HOUSE_NO":"２９號","E_COORD97":169543.56,"N_COORD97":2548522.0299999998,"ADDRESS":"安和路二段３６巷２０弄２９號","OBJECTID":14283},"geometry":{"x":169543.56000000052,"y":2548522.0299999993}},{"attributes":{"ID":14284,"DIS_CODE":0,"TOWNNAME":"安南區","LI":"安東里","LIN":"24鄰","STREET":"安和路","SECT":"二段","MAREA":" ","LANE":"３６巷","ALLEY":"２０弄","HOUSE_NO":"２號","E_COORD97":169518.70000000001,"N_COORD97":2548586.0600000001,"ADDRESS":"安和路二段３６巷２０弄２號","OBJECTID":14284},"geometry":{"x":169518.70000000019,"y":2548586.0600000024}},{"attributes":{"ID":14285,"DIS_CODE":0,"TOWNNAME":"安南區","LI":"安東里","LIN":"24鄰","STREET":"安和路","SECT":"二段","MAREA":" ","LANE":"３６巷","ALLEY":"２０弄","HOUSE_NO":"３０號","E_COORD97":169522.75,"N_COORD97":2548523.29,"ADDRESS":"安和路二段３６巷２０弄３０號","OBJECTID":14285},"geometry":{"x":169522.75000000093,"y":2548523.2899999991}},{"attributes":{"ID":14286,"DIS_CODE":0,"TOWNNAME":"安南區","LI":"安東里","LIN":"24鄰","STREET":"安和路","SECT":"二段","MAREA":" ","LANE":"３６巷","ALLEY":"２０弄","HOUSE_NO":"３１號","E_COORD97":169543.14000000001,"N_COORD97":2548517.98,"ADDRESS":"安和路二段３６巷２０弄３１號","OBJECTID":14286},"geometry":{"x":169543.1400000006,"y":2548517.9800000023}},{"attributes":{"ID":14287,"DIS_CODE":0,"TOWNNAME":"安南區","LI":"安東里","LIN":"24鄰","STREET":"安和路","SECT":"二段","MAREA":" ","LANE":"３６巷","ALLEY":"２０弄","HOUSE_NO":"３２號","E_COORD97":169522.32999999999,"N_COORD97":2548519.7999999998,"ADDRESS":"安和路二段３６巷２０弄３２號","OBJECTID":14287},"geometry":{"x":169522.33000000101,"y":2548519.8000000026}},{"attributes":{"ID":14288,"DIS_CODE":0,"TOWNNAME":"後壁區","LI":"新東里","LIN":"14鄰","STREET":" ","SECT":" ","MAREA":"新港東","LANE":" ","ALLEY":" ","HOUSE_NO":"１４７號之４６","E_COORD97":181265.42000000001,"N_COORD97":2582161,"ADDRESS":"新港東１４７號之４６","OBJECTID":14288},"geometry":{"x":181265.42000000086,"y":2582161}},{"attributes":{"ID":14289,"DIS_CODE":0,"TOWNNAME":"安南區","LI":"安東里","LIN":"24鄰","STREET":"安和路","SECT":"二段","MAREA":" ","LANE":"３６巷","ALLEY":"２０弄","HOUSE_NO":"３３號","E_COORD97":169543.98000000001,"N_COORD97":2548512.9500000002,"ADDRESS":"安和路二段３６巷２０弄３３號","OBJECTID":14289},"geometry":{"x":169543.98000000045,"y":2548512.9500000011}},{"attributes":{"ID":14290,"DIS_CODE":0,"TOWNNAME":"安南區","LI":"安東里","LIN":"24鄰","STREET":"安和路","SECT":"二段","MAREA":" ","LANE":"３６巷","ALLEY":"２０弄","HOUSE_NO":"３４號","E_COORD97":169523.03,"N_COORD97":2548515.8900000001,"ADDRESS":"安和路二段３６巷２０弄３４號","OBJECTID":14290},"geometry":{"x":169523.03000000026,"y":2548515.8900000025}},{"attributes":{"ID":14291,"DIS_CODE":0,"TOWNNAME":"安南區","LI":"安東里","LIN":"24鄰","STREET":"安和路","SECT":"二段","MAREA":" ","LANE":"３６巷","ALLEY":"２０弄","HOUSE_NO":"３６號","E_COORD97":169522.89000000001,"N_COORD97":2548510.0299999998,"ADDRESS":"安和路二段３６巷２０弄３６號","OBJECTID":14291},"geometry":{"x":169522.8900000006,"y":2548510.0300000012}},{"attributes":{"ID":14292,"DIS_CODE":0,"TOWNNAME":"安南區","LI":"安東里","LIN":"24鄰","STREET":"安和路","SECT":"二段","MAREA":" ","LANE":"３６巷","ALLEY":"２０弄","HOUSE_NO":"３號","E_COORD97":169536.16,"N_COORD97":2548582.8399999999,"ADDRESS":"安和路二段３６巷２０弄３號","OBJECTID":14292},"geometry":{"x":169536.16000000015,"y":2548582.8400000017}},{"attributes":{"ID":14293,"DIS_CODE":0,"TOWNNAME":"安南區","LI":"安東里","LIN":"24鄰","STREET":"安和路","SECT":"二段","MAREA":" ","LANE":"３６巷","ALLEY":"２０弄","HOUSE_NO":"４號","E_COORD97":169519.12,"N_COORD97":2548581.5899999999,"ADDRESS":"安和路二段３６巷２０弄４號","OBJECTID":14293},"geometry":{"x":169519.12000000011,"y":2548581.5900000017}},{"attributes":{"ID":14294,"DIS_CODE":0,"TOWNNAME":"安南區","LI":"安東里","LIN":"24鄰","STREET":"安和路","SECT":"二段","MAREA":" ","LANE":"３６巷","ALLEY":"２０弄","HOUSE_NO":"５號","E_COORD97":169536.85000000001,"N_COORD97":2548578.3700000001,"ADDRESS":"安和路二段３６巷２０弄５號","OBJECTID":14294},"geometry":{"x":169536.85000000056,"y":2548578.370000001}},{"attributes":{"ID":14295,"DIS_CODE":0,"TOWNNAME":"安南區","LI":"安東里","LIN":"24鄰","STREET":"安和路","SECT":"二段","MAREA":" ","LANE":"３６巷","ALLEY":"２０弄","HOUSE_NO":"６號","E_COORD97":169519.12,"N_COORD97":2548576.1400000001,"ADDRESS":"安和路二段３６巷２０弄６號","OBJECTID":14295},"geometry":{"x":169519.12000000011,"y":2548576.1400000006}},{"attributes":{"ID":14296,"DIS_CODE":0,"TOWNNAME":"安南區","LI":"安東里","LIN":"24鄰","STREET":"安和路","SECT":"二段","MAREA":" ","LANE":"３６巷","ALLEY":"２０弄","HOUSE_NO":"７號","E_COORD97":169537.82999999999,"N_COORD97":2548573.6200000001,"ADDRESS":"安和路二段３６巷２０弄７號","OBJECTID":14296},"geometry":{"x":169537.83000000007,"y":2548573.620000001}},{"attributes":{"ID":14297,"DIS_CODE":0,"TOWNNAME":"安南區","LI":"溪心里","LIN":"13鄰","STREET":"樂安二街","SECT":" ","MAREA":" ","LANE":" ","ALLEY":" ","HOUSE_NO":"７８號","E_COORD97":165902.73000000001,"N_COORD97":2549734.98,"ADDRESS":"樂安二街７８號","OBJECTID":14297},"geometry":{"x":165902.73000000045,"y":2549734.9800000023}},{"attributes":{"ID":14298,"DIS_CODE":0,"TOWNNAME":"安南區","LI":"溪心里","LIN":"13鄰","STREET":"樂安二街","SECT":" ","MAREA":" ","LANE":" ","ALLEY":" ","HOUSE_NO":"８０號","E_COORD97":165897.95000000001,"N_COORD97":2549734.9199999999,"ADDRESS":"樂安二街８０號","OBJECTID":14298},"geometry":{"x":165897.95000000019,"y":2549734.9200000018}},{"attributes":{"ID":14299,"DIS_CODE":0,"TOWNNAME":"後壁區","LI":"新東里","LIN":"14鄰","STREET":" ","SECT":" ","MAREA":"新港東","LANE":" ","ALLEY":" ","HOUSE_NO":"１４７號之３０","E_COORD97":181295.54999999999,"N_COORD97":2582154.4700000002,"ADDRESS":"新港東１４７號之３０","OBJECTID":14299},"geometry":{"x":181295.54999999981,"y":2582154.4700000025}},{"attributes":{"ID":14300,"DIS_CODE":0,"TOWNNAME":"後壁區","LI":"新東里","LIN":"14鄰","STREET":" ","SECT":" ","MAREA":"新港東","LANE":" ","ALLEY":" ","HOUSE_NO":"１４７號之３１","E_COORD97":181292.38,"N_COORD97":2582147.0499999998,"ADDRESS":"新港東１４７號之３１","OBJECTID":14300},"geometry":{"x":181292.38000000175,"y":2582147.0500000026}},{"attributes":{"ID":14301,"DIS_CODE":0,"TOWNNAME":"後壁區","LI":"新東里","LIN":"14鄰","STREET":" ","SECT":" ","MAREA":"新港東","LANE":" ","ALLEY":" ","HOUSE_NO":"１４７號之３２","E_COORD97":181290.10000000001,"N_COORD97":2582143.54,"ADDRESS":"新港東１４７號之３２","OBJECTID":14301},"geometry":{"x":181290.09999999963,"y":2582143.5399999991}},{"attributes":{"ID":14302,"DIS_CODE":0,"TOWNNAME":"後壁區","LI":"新東里","LIN":"14鄰","STREET":" ","SECT":" ","MAREA":"新港東","LANE":" ","ALLEY":" ","HOUSE_NO":"１４７號之３３","E_COORD97":181287.04000000001,"N_COORD97":2582140.8500000001,"ADDRESS":"新港東１４７號之３３","OBJECTID":14302},"geometry":{"x":181287.04000000097,"y":2582140.8500000015}},{"attributes":{"ID":14303,"DIS_CODE":0,"TOWNNAME":"後壁區","LI":"新東里","LIN":"14鄰","STREET":" ","SECT":" ","MAREA":"新港東","LANE":" ","ALLEY":" ","HOUSE_NO":"１４７號之３４","E_COORD97":181284.29000000001,"N_COORD97":2582137.54,"ADDRESS":"新港東１４７號之３４","OBJECTID":14303},"geometry":{"x":181284.29000000004,"y":2582137.5400000028}},{"attributes":{"ID":14304,"DIS_CODE":0,"TOWNNAME":"後壁區","LI":"新東里","LIN":"14鄰","STREET":" ","SECT":" ","MAREA":"新港東","LANE":" ","ALLEY":" ","HOUSE_NO":"１４７號之３５","E_COORD97":181280.29000000001,"N_COORD97":2582133.9100000001,"ADDRESS":"新港東１４７號之３５","OBJECTID":14304},"geometry":{"x":181280.29000000097,"y":2582133.910000002}},{"attributes":{"ID":14305,"DIS_CODE":0,"TOWNNAME":"後壁區","LI":"新東里","LIN":"14鄰","STREET":" ","SECT":" ","MAREA":"新港東","LANE":" ","ALLEY":" ","HOUSE_NO":"１４７號之３６","E_COORD97":181267.32000000001,"N_COORD97":2582143.73,"ADDRESS":"新港東１４７號之３６","OBJECTID":14305},"geometry":{"x":181267.3200000003,"y":2582143.7300000004}},{"attributes":{"ID":14306,"DIS_CODE":0,"TOWNNAME":"後壁區","LI":"新東里","LIN":"14鄰","STREET":" ","SECT":" ","MAREA":"新港東","LANE":" ","ALLEY":" ","HOUSE_NO":"１４７號之３７","E_COORD97":181270.29999999999,"N_COORD97":2582147.9700000002,"ADDRESS":"新港東１４７號之３７","OBJECTID":14306},"geometry":{"x":181270.29999999981,"y":2582147.9700000025}},{"attributes":{"ID":14307,"DIS_CODE":0,"TOWNNAME":"後壁區","LI":"新東里","LIN":"14鄰","STREET":" ","SECT":" ","MAREA":"新港東","LANE":" ","ALLEY":" ","HOUSE_NO":"１４７號之３８","E_COORD97":181272.84,"N_COORD97":2582151.3300000001,"ADDRESS":"新港東１４７號之３８","OBJECTID":14307},"geometry":{"x":181272.84000000078,"y":2582151.3300000019}},{"attributes":{"ID":14308,"DIS_CODE":0,"TOWNNAME":"後壁區","LI":"新東里","LIN":"14鄰","STREET":" ","SECT":" ","MAREA":"新港東","LANE":" ","ALLEY":" ","HOUSE_NO":"１４７號之３９","E_COORD97":181275.69,"N_COORD97":2582154.4199999999,"ADDRESS":"新港東１４７號之３９","OBJECTID":14308},"geometry":{"x":181275.69000000227,"y":2582154.4200000018}},{"attributes":{"ID":14309,"DIS_CODE":0,"TOWNNAME":"後壁區","LI":"新東里","LIN":"14鄰","STREET":" ","SECT":" ","MAREA":"新港東","LANE":" ","ALLEY":" ","HOUSE_NO":"１４７號之４０","E_COORD97":181277.82999999999,"N_COORD97":2582157.5699999998,"ADDRESS":"新港東１４７號之４０","OBJECTID":14309},"geometry":{"x":181277.83000000101,"y":2582157.5700000003}},{"attributes":{"ID":14310,"DIS_CODE":0,"TOWNNAME":"後壁區","LI":"新東里","LIN":"14鄰","STREET":" ","SECT":" ","MAREA":"新港東","LANE":" ","ALLEY":" ","HOUSE_NO":"１４７號之４１","E_COORD97":181286.76000000001,"N_COORD97":2582161,"ADDRESS":"新港東１４７號之４１","OBJECTID":14310},"geometry":{"x":181286.76000000071,"y":2582161}},{"attributes":{"ID":14311,"DIS_CODE":0,"TOWNNAME":"安南區","LI":"安東里","LIN":"24鄰","STREET":"安和路","SECT":"二段","MAREA":" ","LANE":"３６巷","ALLEY":"２０弄","HOUSE_NO":"８號","E_COORD97":169519.67999999999,"N_COORD97":2548571.9500000002,"ADDRESS":"安和路二段３６巷２０弄８號","OBJECTID":14311},"geometry":{"x":169519.6799999997,"y":2548571.9500000011}},{"attributes":{"ID":14312,"DIS_CODE":0,"TOWNNAME":"安南區","LI":"安東里","LIN":"24鄰","STREET":"安和路","SECT":"二段","MAREA":" ","LANE":"３６巷","ALLEY":"２０弄","HOUSE_NO":"９號","E_COORD97":169538.53,"N_COORD97":2548568.6000000001,"ADDRESS":"安和路二段３６巷２０弄９號","OBJECTID":14312},"geometry":{"x":169538.53000000026,"y":2548568.5999999996}},{"attributes":{"ID":14313,"DIS_CODE":0,"TOWNNAME":"永康區","LI":"西橋里","LIN":"24鄰","STREET":"大橋三街","SECT":" ","MAREA":" ","LANE":"５７巷","ALLEY":"６０弄","HOUSE_NO":"６號","E_COORD97":170517.37,"N_COORD97":2546614,"ADDRESS":"大橋三街５７巷６０弄６號","OBJECTID":14313},"geometry":{"x":170517.37000000011,"y":2546614}},{"attributes":{"ID":14314,"DIS_CODE":0,"TOWNNAME":"安南區","LI":"安慶里","LIN":"24鄰","STREET":"安中路","SECT":"一段","MAREA":" ","LANE":"２０３巷","ALLEY":"１８弄","HOUSE_NO":"１０號","E_COORD97":168694.54000000001,"N_COORD97":2548446.4399999999,"ADDRESS":"安中路一段２０３巷１８弄１０號","OBJECTID":14314},"geometry":{"x":168694.5400000019,"y":2548446.4400000013}},{"attributes":{"ID":14315,"DIS_CODE":0,"TOWNNAME":"善化區","LI":"小新里","LIN":"13鄰","STREET":" ","SECT":" ","MAREA":"小新營","LANE":" ","ALLEY":" ","HOUSE_NO":"１０４號","E_COORD97":179737.70999999999,"N_COORD97":2558163.25,"ADDRESS":"小新營１０４號","OBJECTID":14315},"geometry":{"x":179737.71000000089,"y":2558163.25}},{"attributes":{"ID":14316,"DIS_CODE":0,"TOWNNAME":"後壁區","LI":"新東里","LIN":"14鄰","STREET":" ","SECT":" ","MAREA":"新港東","LANE":" ","ALLEY":" ","HOUSE_NO":"１４７號之４２","E_COORD97":181282.51000000001,"N_COORD97":2582164.5299999998,"ADDRESS":"新港東１４７號之４２","OBJECTID":14316},"geometry":{"x":181282.50999999978,"y":2582164.5299999993}},{"attributes":{"ID":14317,"DIS_CODE":0,"TOWNNAME":"後壁區","LI":"新東里","LIN":"14鄰","STREET":" ","SECT":" ","MAREA":"新港東","LANE":" ","ALLEY":" ","HOUSE_NO":"１４７號之４３","E_COORD97":181278.23999999999,"N_COORD97":2582167.8599999999,"ADDRESS":"新港東１４７號之４３","OBJECTID":14317},"geometry":{"x":181278.24000000022,"y":2582167.8600000013}},{"attributes":{"ID":14318,"DIS_CODE":0,"TOWNNAME":"後壁區","LI":"新東里","LIN":"14鄰","STREET":" ","SECT":" ","MAREA":"新港東","LANE":" ","ALLEY":" ","HOUSE_NO":"１４７號之４４","E_COORD97":181273.35000000001,"N_COORD97":2582171.4700000002,"ADDRESS":"新港東１４７號之４４","OBJECTID":14318},"geometry":{"x":181273.34999999963,"y":2582171.4700000025}},{"attributes":{"ID":14319,"DIS_CODE":0,"TOWNNAME":"後壁區","LI":"新東里","LIN":"14鄰","STREET":" ","SECT":" ","MAREA":"新港東","LANE":" ","ALLEY":" ","HOUSE_NO":"１４７號之４５","E_COORD97":181268.26000000001,"N_COORD97":2582164.4100000001,"ADDRESS":"新港東１４７號之４５","OBJECTID":14319},"geometry":{"x":181268.26000000071,"y":2582164.410000002}},{"attributes":{"ID":14320,"DIS_CODE":0,"TOWNNAME":"七股區","LI":"看坪里","LIN":"8鄰","STREET":" ","SECT":" ","MAREA":"看坪","LANE":" ","ALLEY":" ","HOUSE_NO":"５４號","E_COORD97":162720.57999999999,"N_COORD97":2558120.8999999999,"ADDRESS":"看坪５４號","OBJECTID":14320},"geometry":{"x":162720.58000000101,"y":2558120.9000000004}},{"attributes":{"ID":14321,"DIS_CODE":0,"TOWNNAME":"後壁區","LI":"新東里","LIN":"14鄰","STREET":" ","SECT":" ","MAREA":"新港東","LANE":" ","ALLEY":" ","HOUSE_NO":"１４７號之４７","E_COORD97":181262.64999999999,"N_COORD97":2582157.3599999999,"ADDRESS":"新港東１４７號之４７","OBJECTID":14321},"geometry":{"x":181262.6500000013,"y":2582157.3600000013}},{"attributes":{"ID":14322,"DIS_CODE":0,"TOWNNAME":"後壁區","LI":"新東里","LIN":"14鄰","STREET":" ","SECT":" ","MAREA":"新港東","LANE":" ","ALLEY":" ","HOUSE_NO":"１４７號之４８","E_COORD97":181259.48999999999,"N_COORD97":2582153.1899999999,"ADDRESS":"新港東１４７號之４８","OBJECTID":14322},"geometry":{"x":181259.49000000022,"y":2582153.1899999995}},{"attributes":{"ID":14323,"DIS_CODE":0,"TOWNNAME":"後壁區","LI":"新東里","LIN":"14鄰","STREET":" ","SECT":" ","MAREA":"新港東","LANE":" ","ALLEY":" ","HOUSE_NO":"１４７號之４９","E_COORD97":181255.54999999999,"N_COORD97":2582150.5299999998,"ADDRESS":"新港東１４７號之４９","OBJECTID":14323},"geometry":{"x":181255.55000000168,"y":2582150.5299999993}},{"attributes":{"ID":14324,"DIS_CODE":0,"TOWNNAME":"後壁區","LI":"新東里","LIN":"14鄰","STREET":" ","SECT":" ","MAREA":"新港東","LANE":" ","ALLEY":" ","HOUSE_NO":"１４７號之５０","E_COORD97":181250.39000000001,"N_COORD97":2582147.46,"ADDRESS":"新港東１４７號之５０","OBJECTID":14324},"geometry":{"x":181250.3900000006,"y":2582147.4600000028}},{"attributes":{"ID":14325,"DIS_CODE":0,"TOWNNAME":"後壁區","LI":"新東里","LIN":"14鄰","STREET":" ","SECT":" ","MAREA":"新港東","LANE":" ","ALLEY":" ","HOUSE_NO":"１４７號之５１","E_COORD97":181248.79999999999,"N_COORD97":2582166.1099999999,"ADDRESS":"新港東１４７號之５１","OBJECTID":14325},"geometry":{"x":181248.80000000168,"y":2582166.1100000013}},{"attributes":{"ID":14326,"DIS_CODE":0,"TOWNNAME":"後壁區","LI":"新東里","LIN":"14鄰","STREET":" ","SECT":" ","MAREA":"新港東","LANE":" ","ALLEY":" ","HOUSE_NO":"１４７號之５２","E_COORD97":181251.26000000001,"N_COORD97":2582171.4399999999,"ADDRESS":"新港東１４７號之５２","OBJECTID":14326},"geometry":{"x":181251.26000000071,"y":2582171.4399999995}},{"attributes":{"ID":14327,"DIS_CODE":0,"TOWNNAME":"後壁區","LI":"新東里","LIN":"14鄰","STREET":" ","SECT":" ","MAREA":"新港東","LANE":" ","ALLEY":" ","HOUSE_NO":"１４７號之５３","E_COORD97":181254.48999999999,"N_COORD97":2582175.3100000001,"ADDRESS":"新港東１４７號之５３","OBJECTID":14327},"geometry":{"x":181254.49000000022,"y":2582175.3100000024}},{"attributes":{"ID":14328,"DIS_CODE":0,"TOWNNAME":"後壁區","LI":"新東里","LIN":"14鄰","STREET":" ","SECT":" ","MAREA":"新港東","LANE":" ","ALLEY":" ","HOUSE_NO":"１４７號之５４","E_COORD97":181264.51000000001,"N_COORD97":2582179.02,"ADDRESS":"新港東１４７號之５４","OBJECTID":14328},"geometry":{"x":181264.51000000071,"y":2582179.0200000033}},{"attributes":{"ID":14329,"DIS_CODE":0,"TOWNNAME":"安南區","LI":"安慶里","LIN":"24鄰","STREET":"安中路","SECT":"一段","MAREA":" ","LANE":"２０３巷","ALLEY":"１８弄","HOUSE_NO":"１１號","E_COORD97":168678.42000000001,"N_COORD97":2548424.6400000001,"ADDRESS":"安中路一段２０３巷１８弄１１號","OBJECTID":14329},"geometry":{"x":168678.42000000086,"y":2548424.6400000043}},{"attributes":{"ID":14330,"DIS_CODE":0,"TOWNNAME":"安南區","LI":"安慶里","LIN":"24鄰","STREET":"安中路","SECT":"一段","MAREA":" ","LANE":"２０３巷","ALLEY":"１８弄","HOUSE_NO":"１２號","E_COORD97":168690.38,"N_COORD97":2548447.2000000002,"ADDRESS":"安中路一段２０３巷１８弄１２號","OBJECTID":14330},"geometry":{"x":168690.38000000175,"y":2548447.2000000011}},{"attributes":{"ID":14331,"DIS_CODE":0,"TOWNNAME":"安南區","LI":"安慶里","LIN":"24鄰","STREET":"安中路","SECT":"一段","MAREA":" ","LANE":"２０３巷","ALLEY":"１８弄","HOUSE_NO":"１４號","E_COORD97":168685.85000000001,"N_COORD97":2548446.9500000002,"ADDRESS":"安中路一段２０３巷１８弄１４號","OBJECTID":14331},"geometry":{"x":168685.85000000056,"y":2548446.9499999993}},{"attributes":{"ID":14332,"DIS_CODE":0,"TOWNNAME":"安南區","LI":"安慶里","LIN":"24鄰","STREET":"安中路","SECT":"一段","MAREA":" ","LANE":"２０３巷","ALLEY":"１８弄","HOUSE_NO":"１６號","E_COORD97":168679.97,"N_COORD97":2548447.5899999999,"ADDRESS":"安中路一段２０３巷１８弄１６號","OBJECTID":14332},"geometry":{"x":168679.97000000067,"y":2548447.5899999999}},{"attributes":{"ID":14333,"DIS_CODE":0,"TOWNNAME":"安南區","LI":"安慶里","LIN":"24鄰","STREET":"安中路","SECT":"一段","MAREA":" ","LANE":"２０３巷","ALLEY":"１８弄","HOUSE_NO":"１號","E_COORD97":168708.54000000001,"N_COORD97":2548421.4900000002,"ADDRESS":"安中路一段２０３巷１８弄１號","OBJECTID":14333},"geometry":{"x":168708.54000000097,"y":2548421.4900000002}},{"attributes":{"ID":14334,"DIS_CODE":0,"TOWNNAME":"安南區","LI":"安慶里","LIN":"24鄰","STREET":"安中路","SECT":"一段","MAREA":" ","LANE":"２０３巷","ALLEY":"１８弄","HOUSE_NO":"２號","E_COORD97":168711.66,"N_COORD97":2548445.4399999999,"ADDRESS":"安中路一段２０３巷１８弄２號","OBJECTID":14334},"geometry":{"x":168711.66000000015,"y":2548445.4400000013}},{"attributes":{"ID":14335,"DIS_CODE":0,"TOWNNAME":"安南區","LI":"安慶里","LIN":"24鄰","STREET":"安中路","SECT":"一段","MAREA":" ","LANE":"２０３巷","ALLEY":"１８弄","HOUSE_NO":"３號","E_COORD97":168701.89999999999,"N_COORD97":2548421.6000000001,"ADDRESS":"安中路一段２０３巷１８弄３號","OBJECTID":14335},"geometry":{"x":168701.90000000037,"y":2548421.6000000015}},{"attributes":{"ID":14336,"DIS_CODE":0,"TOWNNAME":"安南區","LI":"安慶里","LIN":"24鄰","STREET":"安中路","SECT":"一段","MAREA":" ","LANE":"２０３巷","ALLEY":"１８弄","HOUSE_NO":"５號","E_COORD97":168696.67999999999,"N_COORD97":2548422.25,"ADDRESS":"安中路一段２０３巷１８弄５號","OBJECTID":14336},"geometry":{"x":168696.68000000156,"y":2548422.25}},{"attributes":{"ID":14337,"DIS_CODE":0,"TOWNNAME":"安南區","LI":"安慶里","LIN":"24鄰","STREET":"安中路","SECT":"一段","MAREA":" ","LANE":"２０３巷","ALLEY":"１８弄","HOUSE_NO":"６號","E_COORD97":168703.10000000001,"N_COORD97":2548445.9399999999,"ADDRESS":"安中路一段２０３巷１８弄６號","OBJECTID":14337},"geometry":{"x":168703.09999999963,"y":2548445.9400000013}},{"attributes":{"ID":14338,"DIS_CODE":0,"TOWNNAME":"安南區","LI":"淵東里","LIN":"13鄰","STREET":"本原街","SECT":"三段","MAREA":" ","LANE":" ","ALLEY":" ","HOUSE_NO":"２６號","E_COORD97":165711.19,"N_COORD97":2550434.29,"ADDRESS":"本原街三段２６號","OBJECTID":14338},"geometry":{"x":165711.19000000134,"y":2550434.2899999991}},{"attributes":{"ID":14339,"DIS_CODE":0,"TOWNNAME":"安南區","LI":"淵東里","LIN":"13鄰","STREET":"本原街","SECT":"三段","MAREA":" ","LANE":" ","ALLEY":" ","HOUSE_NO":"２８號","E_COORD97":165707.26999999999,"N_COORD97":2550433.1400000001,"ADDRESS":"本原街三段２８號","OBJECTID":14339},"geometry":{"x":165707.27000000142,"y":2550433.1400000025}},{"attributes":{"ID":14340,"DIS_CODE":0,"TOWNNAME":"安南區","LI":"淵東里","LIN":"13鄰","STREET":"本原街","SECT":"三段","MAREA":" ","LANE":" ","ALLEY":" ","HOUSE_NO":"３０號","E_COORD97":165704.26999999999,"N_COORD97":2550431.9900000002,"ADDRESS":"本原街三段３０號","OBJECTID":14340},"geometry":{"x":165704.27000000048,"y":2550431.9900000002}},{"attributes":{"ID":14341,"DIS_CODE":0,"TOWNNAME":"善化區","LI":"小新里","LIN":"13鄰","STREET":" ","SECT":" ","MAREA":"小新營","LANE":" ","ALLEY":" ","HOUSE_NO":"１０６之１９號","E_COORD97":179675.12,"N_COORD97":2558115.27,"ADDRESS":"小新營１０６之１９號","OBJECTID":14341},"geometry":{"x":179675.12000000011,"y":2558115.2699999996}},{"attributes":{"ID":14342,"DIS_CODE":0,"TOWNNAME":"善化區","LI":"六德里","LIN":"13鄰","STREET":" ","SECT":" ","MAREA":"六分寮","LANE":" ","ALLEY":" ","HOUSE_NO":"３０６號之２","E_COORD97":178585.29999999999,"N_COORD97":2561522.02,"ADDRESS":"六分寮３０６號之２","OBJECTID":14342},"geometry":{"x":178585.29999999981,"y":2561522.0200000014}},{"attributes":{"ID":14343,"DIS_CODE":0,"TOWNNAME":"安南區","LI":"安慶里","LIN":"24鄰","STREET":"安中路","SECT":"一段","MAREA":" ","LANE":"２０３巷","ALLEY":"１８弄","HOUSE_NO":"７號","E_COORD97":168690.26999999999,"N_COORD97":2548423.4500000002,"ADDRESS":"安中路一段２０３巷１８弄７號","OBJECTID":14343},"geometry":{"x":168690.26999999955,"y":2548423.4499999993}},{"attributes":{"ID":14344,"DIS_CODE":0,"TOWNNAME":"安南區","LI":"安慶里","LIN":"24鄰","STREET":"安中路","SECT":"一段","MAREA":" ","LANE":"２０３巷","ALLEY":"１８弄","HOUSE_NO":"８號","E_COORD97":168698.94,"N_COORD97":2548446.4399999999,"ADDRESS":"安中路一段２０３巷１８弄８號","OBJECTID":14344},"geometry":{"x":168698.94000000227,"y":2548446.4400000013}},{"attributes":{"ID":14345,"DIS_CODE":0,"TOWNNAME":"安南區","LI":"安慶里","LIN":"24鄰","STREET":"安中路","SECT":"一段","MAREA":" ","LANE":"２０３巷","ALLEY":"１８弄","HOUSE_NO":"９號","E_COORD97":168684.60999999999,"N_COORD97":2548423.23,"ADDRESS":"安中路一段２０３巷１８弄９號","OBJECTID":14345},"geometry":{"x":168684.61000000127,"y":2548423.2300000004}},{"attributes":{"ID":14346,"DIS_CODE":0,"TOWNNAME":"安南區","LI":"州南里","LIN":"24鄰","STREET":"安和路","SECT":"四段","MAREA":" ","LANE":"５３７巷","ALLEY":"３７弄","HOUSE_NO":"１０號","E_COORD97":169828.69,"N_COORD97":2551382.6200000001,"ADDRESS":"安和路四段５３７巷３７弄１０號","OBJECTID":14346},"geometry":{"x":169828.69000000134,"y":2551382.6200000029}},{"attributes":{"ID":14347,"DIS_CODE":0,"TOWNNAME":"善化區","LI":"牛庄里","LIN":"13鄰","STREET":" ","SECT":" ","MAREA":"牛庄","LANE":" ","ALLEY":" ","HOUSE_NO":"１之２５號","E_COORD97":180048.29999999999,"N_COORD97":2559306.02,"ADDRESS":"牛庄１之２５號","OBJECTID":14347},"geometry":{"x":180048.29999999981,"y":2559306.0199999996}},{"attributes":{"ID":14348,"DIS_CODE":0,"TOWNNAME":"安南區","LI":"州南里","LIN":"24鄰","STREET":"安和路","SECT":"四段","MAREA":" ","LANE":"５３７巷","ALLEY":"３７弄","HOUSE_NO":"１４號","E_COORD97":169820.54999999999,"N_COORD97":2551377.5099999998,"ADDRESS":"安和路四段５３７巷３７弄１４號","OBJECTID":14348},"geometry":{"x":169820.55000000075,"y":2551377.5099999979}},{"attributes":{"ID":14349,"DIS_CODE":0,"TOWNNAME":"安南區","LI":"州南里","LIN":"24鄰","STREET":"安和路","SECT":"四段","MAREA":" ","LANE":"５３７巷","ALLEY":"３７弄","HOUSE_NO":"１６號","E_COORD97":169815.82999999999,"N_COORD97":2551375.1600000001,"ADDRESS":"安和路四段５３７巷３７弄１６號","OBJECTID":14349},"geometry":{"x":169815.83000000007,"y":2551375.160000002}},{"attributes":{"ID":14350,"DIS_CODE":0,"TOWNNAME":"安南區","LI":"州南里","LIN":"24鄰","STREET":"安和路","SECT":"四段","MAREA":" ","LANE":"５３７巷","ALLEY":"３７弄","HOUSE_NO":"１８號","E_COORD97":169811.26000000001,"N_COORD97":2551374.25,"ADDRESS":"安和路四段５３７巷３７弄１８號","OBJECTID":14350},"geometry":{"x":169811.25999999978,"y":2551374.2500000019}},{"attributes":{"ID":14351,"DIS_CODE":0,"TOWNNAME":"安南區","LI":"州南里","LIN":"24鄰","STREET":"安和路","SECT":"四段","MAREA":" ","LANE":"５３７巷","ALLEY":"３７弄","HOUSE_NO":"２０號","E_COORD97":169807.14000000001,"N_COORD97":2551372.8799999999,"ADDRESS":"安和路四段５３７巷３７弄２０號","OBJECTID":14351},"geometry":{"x":169807.14000000153,"y":2551372.879999999}},{"attributes":{"ID":14352,"DIS_CODE":0,"TOWNNAME":"善化區","LI":"嘉北里","LIN":"13鄰","STREET":" ","SECT":" ","MAREA":"茄拔","LANE":" ","ALLEY":" ","HOUSE_NO":"３０１號之３","E_COORD97":180938.10000000001,"N_COORD97":2559640.02,"ADDRESS":"茄拔３０１號之３","OBJECTID":14352},"geometry":{"x":180938.10000000149,"y":2559640.0200000014}},{"attributes":{"ID":14353,"DIS_CODE":0,"TOWNNAME":"安南區","LI":"州南里","LIN":"24鄰","STREET":"安和路","SECT":"四段","MAREA":" ","LANE":"５３７巷","ALLEY":"３７弄","HOUSE_NO":"２６號","E_COORD97":169791.81,"N_COORD97":2551366.2799999998,"ADDRESS":"安和路四段５３７巷３７弄２６號","OBJECTID":14353},"geometry":{"x":169791.80999999959,"y":2551366.2800000012}},{"attributes":{"ID":14354,"DIS_CODE":0,"TOWNNAME":"善化區","LI":"嘉南里","LIN":"13鄰","STREET":" ","SECT":" ","MAREA":"茄拔","LANE":" ","ALLEY":" ","HOUSE_NO":"３１８號","E_COORD97":180810.78,"N_COORD97":2559563.0099999998,"ADDRESS":"茄拔３１８號","OBJECTID":14354},"geometry":{"x":180810.78000000119,"y":2559563.0100000016}},{"attributes":{"ID":14355,"DIS_CODE":0,"TOWNNAME":"善化區","LI":"溪美里","LIN":"13鄰","STREET":" ","SECT":" ","MAREA":"溪尾","LANE":" ","ALLEY":" ","HOUSE_NO":"１１６之２０號","E_COORD97":176869.95999999999,"N_COORD97":2561493.52,"ADDRESS":"溪尾１１６之２０號","OBJECTID":14355},"geometry":{"x":176869.96000000089,"y":2561493.5199999996}},{"attributes":{"ID":14356,"DIS_CODE":0,"TOWNNAME":"安南區","LI":"州南里","LIN":"24鄰","STREET":"安和路","SECT":"四段","MAREA":" ","LANE":"５３７巷","ALLEY":"３７弄","HOUSE_NO":"２８號","E_COORD97":169787.01000000001,"N_COORD97":2551364.9100000001,"ADDRESS":"安和路四段５３７巷３７弄２８號","OBJECTID":14356},"geometry":{"x":169787.00999999978,"y":2551364.9100000001}},{"attributes":{"ID":14357,"DIS_CODE":0,"TOWNNAME":"善化區","LI":"嘉南里","LIN":"13鄰","STREET":" ","SECT":" ","MAREA":"茄拔","LANE":" ","ALLEY":" ","HOUSE_NO":"３２４號之９","E_COORD97":180900.67000000001,"N_COORD97":2559488.02,"ADDRESS":"茄拔３２４號之９","OBJECTID":14357},"geometry":{"x":180900.67000000179,"y":2559488.0200000014}},{"attributes":{"ID":14358,"DIS_CODE":0,"TOWNNAME":"安南區","LI":"州南里","LIN":"24鄰","STREET":"安和路","SECT":"四段","MAREA":" ","LANE":"５３７巷","ALLEY":"３７弄","HOUSE_NO":"３０號","E_COORD97":169783.81,"N_COORD97":2551363.0800000001,"ADDRESS":"安和路四段５３７巷３７弄３０號","OBJECTID":14358},"geometry":{"x":169783.80999999866,"y":2551363.0800000001}},{"attributes":{"ID":14359,"DIS_CODE":0,"TOWNNAME":"善化區","LI":"小新里","LIN":"13鄰","STREET":" ","SECT":" ","MAREA":"小新營","LANE":" ","ALLEY":" ","HOUSE_NO":"１０７號之１１","E_COORD97":179748.84,"N_COORD97":2558022.02,"ADDRESS":"小新營１０７號之１１","OBJECTID":14359},"geometry":{"x":179748.84000000078,"y":2558022.0199999996}},{"attributes":{"ID":14360,"DIS_CODE":0,"TOWNNAME":"安南區","LI":"淵東里","LIN":"13鄰","STREET":"本原街","SECT":"三段","MAREA":" ","LANE":" ","ALLEY":" ","HOUSE_NO":"６２號","E_COORD97":165632.07999999999,"N_COORD97":2550405.04,"ADDRESS":"本原街三段６２號","OBJECTID":14360},"geometry":{"x":165632.08000000007,"y":2550405.040000001}},{"attributes":{"ID":14361,"DIS_CODE":0,"TOWNNAME":"善化區","LI":"田寮里","LIN":"13鄰","STREET":" ","SECT":" ","MAREA":"六分寮","LANE":" ","ALLEY":" ","HOUSE_NO":"１３７號","E_COORD97":178649.20999999999,"N_COORD97":2561266.25,"ADDRESS":"六分寮１３７號","OBJECTID":14361},"geometry":{"x":178649.21000000183,"y":2561266.2500000037}},{"attributes":{"ID":14362,"DIS_CODE":0,"TOWNNAME":"安南區","LI":"州南里","LIN":"24鄰","STREET":"安和路","SECT":"四段","MAREA":" ","LANE":"５３７巷","ALLEY":"３７弄","HOUSE_NO":"８號","E_COORD97":169832.81,"N_COORD97":2551385.6099999999,"ADDRESS":"安和路四段５３７巷３７弄８號","OBJECTID":14362},"geometry":{"x":169832.80999999959,"y":2551385.6099999994}},{"attributes":{"ID":14363,"DIS_CODE":0,"TOWNNAME":"安南區","LI":"州南里","LIN":"24鄰","STREET":"安和路","SECT":"四段","MAREA":" ","LANE":"５３７巷","ALLEY":"５１弄","HOUSE_NO":"１０號","E_COORD97":169789.10000000001,"N_COORD97":2551405.8799999999,"ADDRESS":"安和路四段５３７巷５１弄１０號","OBJECTID":14363},"geometry":{"x":169789.10000000056,"y":2551405.8800000008}},{"attributes":{"ID":14364,"DIS_CODE":0,"TOWNNAME":"善化區","LI":"田寮里","LIN":"13鄰","STREET":" ","SECT":" ","MAREA":"六分寮","LANE":" ","ALLEY":" ","HOUSE_NO":"１３９之６號","E_COORD97":178679.59,"N_COORD97":2561300.27,"ADDRESS":"六分寮１３９之６號","OBJECTID":14364},"geometry":{"x":178679.58999999985,"y":2561300.2700000014}},{"attributes":{"ID":14365,"DIS_CODE":0,"TOWNNAME":"善化區","LI":"溪美里","LIN":"13鄰","STREET":" ","SECT":" ","MAREA":"溪尾","LANE":" ","ALLEY":" ","HOUSE_NO":"１１６之１５號","E_COORD97":176853.70999999999,"N_COORD97":2561493.52,"ADDRESS":"溪尾１１６之１５號","OBJECTID":14365},"geometry":{"x":176853.70999999996,"y":2561493.5199999996}},{"attributes":{"ID":14366,"DIS_CODE":0,"TOWNNAME":"善化區","LI":"田寮里","LIN":"13鄰","STREET":" ","SECT":" ","MAREA":"六分寮","LANE":" ","ALLEY":" ","HOUSE_NO":"１４２號之４","E_COORD97":178714.10000000001,"N_COORD97":2561233.02,"ADDRESS":"六分寮１４２號之４","OBJECTID":14366},"geometry":{"x":178714.10000000056,"y":2561233.0199999977}},{"attributes":{"ID":14367,"DIS_CODE":0,"TOWNNAME":"安南區","LI":"州南里","LIN":"24鄰","STREET":"安和路","SECT":"四段","MAREA":" ","LANE":"５３７巷","ALLEY":"５１弄","HOUSE_NO":"１１號","E_COORD97":169796.63,"N_COORD97":2551388.46,"ADDRESS":"安和路四段５３７巷５１弄１１號","OBJECTID":14367},"geometry":{"x":169796.62999999989,"y":2551388.4600000009}},{"attributes":{"ID":14368,"DIS_CODE":0,"TOWNNAME":"善化區","LI":"田寮里","LIN":"13鄰","STREET":" ","SECT":" ","MAREA":"六分寮","LANE":" ","ALLEY":" ","HOUSE_NO":"１４１號之１８","E_COORD97":178670.23999999999,"N_COORD97":2561252.52,"ADDRESS":"六分寮１４１號之１８","OBJECTID":14368},"geometry":{"x":178670.24000000115,"y":2561252.5199999996}},{"attributes":{"ID":14369,"DIS_CODE":0,"TOWNNAME":"善化區","LI":"小新里","LIN":"13鄰","STREET":" ","SECT":" ","MAREA":"小新營","LANE":" ","ALLEY":" ","HOUSE_NO":"１０６號之６","E_COORD97":179668.48000000001,"N_COORD97":2558015.27,"ADDRESS":"小新營１０６號之６","OBJECTID":14369},"geometry":{"x":179668.48000000138,"y":2558015.2700000014}},{"attributes":{"ID":14370,"DIS_CODE":0,"TOWNNAME":"善化區","LI":"小新里","LIN":"13鄰","STREET":" ","SECT":" ","MAREA":"小新營","LANE":" ","ALLEY":" ","HOUSE_NO":"１０６之１５號","E_COORD97":179651.10000000001,"N_COORD97":2558111.77,"ADDRESS":"小新營１０６之１５號","OBJECTID":14370},"geometry":{"x":179651.09999999963,"y":2558111.7699999996}},{"attributes":{"ID":14371,"DIS_CODE":0,"TOWNNAME":"善化區","LI":"小新里","LIN":"13鄰","STREET":" ","SECT":" ","MAREA":"小新營","LANE":" ","ALLEY":" ","HOUSE_NO":"１０６之３０號","E_COORD97":179675.60000000001,"N_COORD97":2558128.02,"ADDRESS":"小新營１０６之３０號","OBJECTID":14371},"geometry":{"x":179675.60000000056,"y":2558128.0200000014}},{"attributes":{"ID":14372,"DIS_CODE":0,"TOWNNAME":"善化區","LI":"田寮里","LIN":"13鄰","STREET":" ","SECT":" ","MAREA":"六分寮","LANE":" ","ALLEY":" ","HOUSE_NO":"１４１之２３號","E_COORD97":178668.79000000001,"N_COORD97":2561276.77,"ADDRESS":"六分寮１４１之２３號","OBJECTID":14372},"geometry":{"x":178668.79000000004,"y":2561276.7700000014}},{"attributes":{"ID":14373,"DIS_CODE":0,"TOWNNAME":"安南區","LI":"州南里","LIN":"24鄰","STREET":"安和路","SECT":"四段","MAREA":" ","LANE":"５３７巷","ALLEY":"５１弄","HOUSE_NO":"１２號","E_COORD97":169785.20999999999,"N_COORD97":2551404.96,"ADDRESS":"安和路四段５３７巷５１弄１２號","OBJECTID":14373},"geometry":{"x":169785.21000000089,"y":2551404.9600000009}},{"attributes":{"ID":14374,"DIS_CODE":0,"TOWNNAME":"善化區","LI":"小新里","LIN":"13鄰","STREET":" ","SECT":" ","MAREA":"小新營","LANE":" ","ALLEY":" ","HOUSE_NO":"１０６之１０號","E_COORD97":179679.03,"N_COORD97":2558090.52,"ADDRESS":"小新營１０６之１０號","OBJECTID":14374},"geometry":{"x":179679.03000000026,"y":2558090.5200000033}},{"attributes":{"ID":14375,"DIS_CODE":0,"TOWNNAME":"安南區","LI":"州南里","LIN":"24鄰","STREET":"安和路","SECT":"四段","MAREA":" ","LANE":"５３７巷","ALLEY":"５１弄","HOUSE_NO":"１３號","E_COORD97":169792.81,"N_COORD97":2551386.2200000002,"ADDRESS":"安和路四段５３７巷５１弄１３號","OBJECTID":14375},"geometry":{"x":169792.81000000052,"y":2551386.2200000007}},{"attributes":{"ID":14376,"DIS_CODE":0,"TOWNNAME":"善化區","LI":"小新里","LIN":"13鄰","STREET":" ","SECT":" ","MAREA":"小新營","LANE":" ","ALLEY":" ","HOUSE_NO":"１０６號","E_COORD97":179716.85000000001,"N_COORD97":2558126,"ADDRESS":"小新營１０６號","OBJECTID":14376},"geometry":{"x":179716.84999999963,"y":2558126.0000000019}},{"attributes":{"ID":14377,"DIS_CODE":0,"TOWNNAME":"安南區","LI":"州南里","LIN":"24鄰","STREET":"安和路","SECT":"四段","MAREA":" ","LANE":"５３７巷","ALLEY":"５１弄","HOUSE_NO":"１４號","E_COORD97":169781.10000000001,"N_COORD97":2551403.8199999998,"ADDRESS":"安和路四段５３７巷５１弄１４號","OBJECTID":14377},"geometry":{"x":169781.10000000056,"y":2551403.8200000022}},{"attributes":{"ID":14378,"DIS_CODE":0,"TOWNNAME":"後壁區","LI":"新東里","LIN":"14鄰","STREET":" ","SECT":" ","MAREA":"新港東","LANE":" ","ALLEY":" ","HOUSE_NO":"１４７號之５５","E_COORD97":181259.17999999999,"N_COORD97":2582181.3900000001,"ADDRESS":"新港東１４７號之５５","OBJECTID":14378},"geometry":{"x":181259.1799999997,"y":2582181.3900000025}},{"attributes":{"ID":14379,"DIS_CODE":0,"TOWNNAME":"後壁區","LI":"新東里","LIN":"14鄰","STREET":" ","SECT":" ","MAREA":"新港東","LANE":" ","ALLEY":" ","HOUSE_NO":"１４７號之５６","E_COORD97":181254.51999999999,"N_COORD97":2582184.8500000001,"ADDRESS":"新港東１４７號之５６","OBJECTID":14379},"geometry":{"x":181254.52000000048,"y":2582184.8500000015}},{"attributes":{"ID":14380,"DIS_CODE":0,"TOWNNAME":"後壁區","LI":"新東里","LIN":"14鄰","STREET":" ","SECT":" ","MAREA":"新港東","LANE":" ","ALLEY":" ","HOUSE_NO":"１４７號之５７","E_COORD97":181270.42000000001,"N_COORD97":2582201.8599999999,"ADDRESS":"新港東１４７號之５７","OBJECTID":14380},"geometry":{"x":181270.42000000086,"y":2582201.8600000013}},{"attributes":{"ID":14381,"DIS_CODE":0,"TOWNNAME":"安南區","LI":"州南里","LIN":"24鄰","STREET":"安和路","SECT":"四段","MAREA":" ","LANE":"５３７巷","ALLEY":"５１弄","HOUSE_NO":"１５號","E_COORD97":169788.87,"N_COORD97":2551384.9900000002,"ADDRESS":"安和路四段５３７巷５１弄１５號","OBJECTID":14381},"geometry":{"x":169788.87000000011,"y":2551384.9900000039}},{"attributes":{"ID":14382,"DIS_CODE":0,"TOWNNAME":"安南區","LI":"州南里","LIN":"24鄰","STREET":"安和路","SECT":"四段","MAREA":" ","LANE":"５３７巷","ALLEY":"５１弄","HOUSE_NO":"１７號","E_COORD97":169785.47,"N_COORD97":2551383.1299999999,"ADDRESS":"安和路四段５３７巷５１弄１７號","OBJECTID":14382},"geometry":{"x":169785.47000000067,"y":2551383.1300000008}},{"attributes":{"ID":14383,"DIS_CODE":0,"TOWNNAME":"北區","LI":"大港里","LIN":"25鄰","STREET":"中華北路","SECT":"一段","MAREA":" ","LANE":"２０３巷","ALLEY":"１６弄","HOUSE_NO":"２７號","E_COORD97":166349.38,"N_COORD97":2545759.8300000001,"ADDRESS":"中華北路一段２０３巷１６弄２７號","OBJECTID":14383},"geometry":{"x":166349.38000000175,"y":2545759.8300000001}},{"attributes":{"ID":14384,"DIS_CODE":0,"TOWNNAME":"北區","LI":"大港里","LIN":"25鄰","STREET":"中華北路","SECT":"一段","MAREA":" ","LANE":"２０３巷","ALLEY":"１６弄","HOUSE_NO":"２９號","E_COORD97":166347.44,"N_COORD97":2545762.29,"ADDRESS":"中華北路一段２０３巷１６弄２９號","OBJECTID":14384},"geometry":{"x":166347.44000000041,"y":2545762.290000001}},{"attributes":{"ID":14385,"DIS_CODE":0,"TOWNNAME":"安南區","LI":"州南里","LIN":"24鄰","STREET":"安和路","SECT":"四段","MAREA":" ","LANE":"５３７巷","ALLEY":"５１弄","HOUSE_NO":"１８號","E_COORD97":169775.14999999999,"N_COORD97":2551400.3999999999,"ADDRESS":"安和路四段５３７巷５１弄１８號","OBJECTID":14385},"geometry":{"x":169775.15000000037,"y":2551400.4000000022}},{"attributes":{"ID":14386,"DIS_CODE":0,"TOWNNAME":"安南區","LI":"州南里","LIN":"24鄰","STREET":"安和路","SECT":"四段","MAREA":" ","LANE":"５３７巷","ALLEY":"５１弄","HOUSE_NO":"１９號","E_COORD97":169781.84,"N_COORD97":2551382.4700000002,"ADDRESS":"安和路四段５３７巷５１弄１９號","OBJECTID":14386},"geometry":{"x":169781.83999999985,"y":2551382.4700000044}},{"attributes":{"ID":14387,"DIS_CODE":0,"TOWNNAME":"安南區","LI":"州南里","LIN":"24鄰","STREET":"安和路","SECT":"四段","MAREA":" ","LANE":"５３７巷","ALLEY":"５１弄","HOUSE_NO":"１號","E_COORD97":169817.79000000001,"N_COORD97":2551393.4700000002,"ADDRESS":"安和路四段５３７巷５１弄１號","OBJECTID":14387},"geometry":{"x":169817.79000000004,"y":2551393.4700000025}},{"attributes":{"ID":14388,"DIS_CODE":0,"TOWNNAME":"安南區","LI":"州南里","LIN":"24鄰","STREET":"安和路","SECT":"四段","MAREA":" ","LANE":"５３７巷","ALLEY":"５１弄","HOUSE_NO":"２０號","E_COORD97":169770.57999999999,"N_COORD97":2551398.3399999999,"ADDRESS":"安和路四段５３７巷５１弄２０號","OBJECTID":14388},"geometry":{"x":169770.58000000007,"y":2551398.3399999999}},{"attributes":{"ID":14389,"DIS_CODE":0,"TOWNNAME":"安南區","LI":"州南里","LIN":"24鄰","STREET":"安和路","SECT":"四段","MAREA":" ","LANE":"５３７巷","ALLEY":"５１弄","HOUSE_NO":"２１號","E_COORD97":169777.45000000001,"N_COORD97":2551378.52,"ADDRESS":"安和路四段５３７巷５１弄２１號","OBJECTID":14389},"geometry":{"x":169777.45000000112,"y":2551378.5200000014}},{"attributes":{"ID":14390,"DIS_CODE":0,"TOWNNAME":"安南區","LI":"州南里","LIN":"24鄰","STREET":"安和路","SECT":"四段","MAREA":" ","LANE":"５３７巷","ALLEY":"５１弄","HOUSE_NO":"２號","E_COORD97":169804.87,"N_COORD97":2551411.8100000001,"ADDRESS":"安和路四段５３７巷５１弄２號","OBJECTID":14390},"geometry":{"x":169804.87000000104,"y":2551411.8100000024}},{"attributes":{"ID":14391,"DIS_CODE":0,"TOWNNAME":"安南區","LI":"州南里","LIN":"24鄰","STREET":"安和路","SECT":"四段","MAREA":" ","LANE":"５３７巷","ALLEY":"５１弄","HOUSE_NO":"３號","E_COORD97":169813.34,"N_COORD97":2551394.1400000001,"ADDRESS":"安和路四段５３７巷５１弄３號","OBJECTID":14391},"geometry":{"x":169813.34000000078,"y":2551394.1400000006}},{"attributes":{"ID":14392,"DIS_CODE":0,"TOWNNAME":"善化區","LI":"六德里","LIN":"13鄰","STREET":" ","SECT":" ","MAREA":"六分寮","LANE":" ","ALLEY":" ","HOUSE_NO":"３０９之１號","E_COORD97":178547.91,"N_COORD97":2561477.52,"ADDRESS":"六分寮３０９之１號","OBJECTID":14392},"geometry":{"x":178547.91000000201,"y":2561477.5200000033}},{"attributes":{"ID":14393,"DIS_CODE":0,"TOWNNAME":"安南區","LI":"州南里","LIN":"24鄰","STREET":"安和路","SECT":"四段","MAREA":" ","LANE":"５３７巷","ALLEY":"５１弄","HOUSE_NO":"４號","E_COORD97":169801.20999999999,"N_COORD97":2551411.1299999999,"ADDRESS":"安和路四段５３７巷５１弄４號","OBJECTID":14393},"geometry":{"x":169801.20999999996,"y":2551411.1300000008}},{"attributes":{"ID":14394,"DIS_CODE":0,"TOWNNAME":"善化區","LI":"小新里","LIN":"13鄰","STREET":" ","SECT":" ","MAREA":"小新營","LANE":" ","ALLEY":" ","HOUSE_NO":"１０６之３６號","E_COORD97":179615.03,"N_COORD97":2558153.27,"ADDRESS":"小新營１０６之３６號","OBJECTID":14394},"geometry":{"x":179615.03000000026,"y":2558153.2700000033}},{"attributes":{"ID":14395,"DIS_CODE":0,"TOWNNAME":"安南區","LI":"州南里","LIN":"24鄰","STREET":"安和路","SECT":"四段","MAREA":" ","LANE":"５３７巷","ALLEY":"５１弄","HOUSE_NO":"５號","E_COORD97":169809.10999999999,"N_COORD97":2551391.02,"ADDRESS":"安和路四段５３７巷５１弄５號","OBJECTID":14395},"geometry":{"x":169809.11000000034,"y":2551391.0200000033}},{"attributes":{"ID":14396,"DIS_CODE":0,"TOWNNAME":"安南區","LI":"州南里","LIN":"24鄰","STREET":"安和路","SECT":"四段","MAREA":" ","LANE":"５３７巷","ALLEY":"５１弄","HOUSE_NO":"６號","E_COORD97":169797.78,"N_COORD97":2551410.2200000002,"ADDRESS":"安和路四段５３７巷５１弄６號","OBJECTID":14396},"geometry":{"x":169797.78000000026,"y":2551410.2200000007}},{"attributes":{"ID":14397,"DIS_CODE":0,"TOWNNAME":"善化區","LI":"小新里","LIN":"13鄰","STREET":" ","SECT":" ","MAREA":"小新營","LANE":" ","ALLEY":" ","HOUSE_NO":"１０２號之１","E_COORD97":179734.23999999999,"N_COORD97":2558226.52,"ADDRESS":"小新營１０２號之１","OBJECTID":14397},"geometry":{"x":179734.24000000209,"y":2558226.5200000014}},{"attributes":{"ID":14398,"DIS_CODE":0,"TOWNNAME":"安南區","LI":"州南里","LIN":"24鄰","STREET":"安和路","SECT":"四段","MAREA":" ","LANE":"５３７巷","ALLEY":"５１弄","HOUSE_NO":"７號","E_COORD97":169805.76999999999,"N_COORD97":2551389.6899999999,"ADDRESS":"安和路四段５３７巷５１弄７號","OBJECTID":14398},"geometry":{"x":169805.76999999955,"y":2551389.6900000032}},{"attributes":{"ID":14399,"DIS_CODE":0,"TOWNNAME":"安南區","LI":"州南里","LIN":"24鄰","STREET":"安和路","SECT":"四段","MAREA":" ","LANE":"５３７巷","ALLEY":"５１弄","HOUSE_NO":"８號","E_COORD97":169792.98000000001,"N_COORD97":2551409.0699999998,"ADDRESS":"安和路四段５３７巷５１弄８號","OBJECTID":14399},"geometry":{"x":169792.98000000045,"y":2551409.0700000022}},{"attributes":{"ID":14400,"DIS_CODE":0,"TOWNNAME":"安平區","LI":"華平里","LIN":"24鄰","STREET":"建平八街","SECT":" ","MAREA":" ","LANE":"４３４巷","ALLEY":"６弄","HOUSE_NO":"８號","E_COORD97":165181.17999999999,"N_COORD97":2543639.46,"ADDRESS":"建平八街４３４巷６弄８號","OBJECTID":14400},"geometry":{"x":165181.18000000063,"y":2543639.4600000028}}]}