{"displayFieldName":"TOWNNAME","fieldAliases":{"ID":"ID","DIS_CODE":"DIS_CODE","TOWNNAME":"TOWNNAME","LI":"LI","LIN":"LIN","STREET":"STREET","SECT":"SECT","MAREA":"MAREA","LANE":"LANE","ALLEY":"ALLEY","HOUSE_NO":"HOUSE_NO","E_COORD97":"E_COORD97","N_COORD97":"N_COORD97","ADDRESS":"ADDRESS","OBJECTID":"OBJECTID"},"geometryType":"esriGeometryPoint","spatialReference":{"wkid":102443,"latestWkid":3826},"fields":[{"name":"ID","type":"esriFieldTypeDouble","alias":"ID"},{"name":"DIS_CODE","type":"esriFieldTypeInteger","alias":"DIS_CODE"},{"name":"TOWNNAME","type":"esriFieldTypeString","alias":"TOWNNAME","length":8},{"name":"LI","type":"esriFieldTypeString","alias":"LI","length":8},{"name":"LIN","type":"esriFieldTypeString","alias":"LIN","length":12},{"name":"STREET","type":"esriFieldTypeString","alias":"STREET","length":20},{"name":"SECT","type":"esriFieldTypeString","alias":"SECT","length":8},{"name":"MAREA","type":"esriFieldTypeString","alias":"MAREA","length":12},{"name":"LANE","type":"esriFieldTypeString","alias":"LANE","length":10},{"name":"ALLEY","type":"esriFieldTypeString","alias":"ALLEY","length":10},{"name":"HOUSE_NO","type":"esriFieldTypeString","alias":"HOUSE_NO","length":20},{"name":"E_COORD97","type":"esriFieldTypeDouble","alias":"E_COORD97"},{"name":"N_COORD97","type":"esriFieldTypeDouble","alias":"N_COORD97"},{"name":"ADDRESS","type":"esriFieldTypeString","alias":"ADDRESS","length":50},{"name":"OBJECTID","type":"esriFieldTypeOID","alias":"OBJECTID"}],"features":[{"attributes":{"ID":363411,"DIS_CODE":0,"TOWNNAME":"東區","LI":"小東里","LIN":"19鄰","STREET":"東興路","SECT":" ","MAREA":" ","LANE":"３４４巷","ALLEY":" ","HOUSE_NO":"３號","E_COORD97":171067.98999999999,"N_COORD97":2544177.5800000001,"ADDRESS":"東興路３４４巷３號","OBJECTID":363401},"geometry":{"x":171067.99000000022,"y":2544177.5800000019}},{"attributes":{"ID":363412,"DIS_CODE":0,"TOWNNAME":"東區","LI":"小東里","LIN":"19鄰","STREET":"東興路","SECT":" ","MAREA":" ","LANE":"３４４巷","ALLEY":" ","HOUSE_NO":"５號","E_COORD97":171071.44,"N_COORD97":2544177.7400000002,"ADDRESS":"東興路３４４巷５號","OBJECTID":363402},"geometry":{"x":171071.44000000041,"y":2544177.7400000002}},{"attributes":{"ID":363413,"DIS_CODE":0,"TOWNNAME":"東區","LI":"小東里","LIN":"19鄰","STREET":"東興路","SECT":" ","MAREA":" ","LANE":"３４４巷","ALLEY":" ","HOUSE_NO":"７號","E_COORD97":171075.51999999999,"N_COORD97":2544177.8999999999,"ADDRESS":"東興路３４４巷７號","OBJECTID":363403},"geometry":{"x":171075.51999999955,"y":2544177.9000000041}},{"attributes":{"ID":363414,"DIS_CODE":0,"TOWNNAME":"東區","LI":"小東里","LIN":"19鄰","STREET":"東興路","SECT":" ","MAREA":" ","LANE":"３４４巷","ALLEY":" ","HOUSE_NO":"９號","E_COORD97":171079.91,"N_COORD97":2544177.7400000002,"ADDRESS":"東興路３４４巷９號","OBJECTID":363404},"geometry":{"x":171079.91000000015,"y":2544177.7400000002}},{"attributes":{"ID":363415,"DIS_CODE":0,"TOWNNAME":"中西區","LI":"仙草里","LIN":"5鄰","STREET":"永福路","SECT":"一段","MAREA":" ","LANE":"６１巷","ALLEY":" ","HOUSE_NO":"５２號","E_COORD97":167916.76000000001,"N_COORD97":2542650.75,"ADDRESS":"永福路一段６１巷５２號","OBJECTID":363405},"geometry":{"x":167916.76000000071,"y":2542650.7500000019}},{"attributes":{"ID":363416,"DIS_CODE":0,"TOWNNAME":"中西區","LI":"仙草里","LIN":"5鄰","STREET":"永福路","SECT":"一段","MAREA":" ","LANE":"６１巷","ALLEY":" ","HOUSE_NO":"５４號","E_COORD97":167914.57000000001,"N_COORD97":2542655.1899999999,"ADDRESS":"永福路一段６１巷５４號","OBJECTID":363406},"geometry":{"x":167914.5700000003,"y":2542655.1899999995}},{"attributes":{"ID":363417,"DIS_CODE":0,"TOWNNAME":"南區","LI":"文南里","LIN":"13鄰","STREET":"育南街","SECT":" ","MAREA":" ","LANE":" ","ALLEY":" ","HOUSE_NO":"３３號","E_COORD97":166858.26999999999,"N_COORD97":2542643.2400000002,"ADDRESS":"育南街３３號","OBJECTID":363407},"geometry":{"x":166858.27000000142,"y":2542643.2400000039}},{"attributes":{"ID":363418,"DIS_CODE":0,"TOWNNAME":"南區","LI":"文南里","LIN":"13鄰","STREET":"育南街","SECT":" ","MAREA":" ","LANE":" ","ALLEY":" ","HOUSE_NO":"３５號","E_COORD97":166858.26999999999,"N_COORD97":2542646.8500000001,"ADDRESS":"育南街３５號","OBJECTID":363408},"geometry":{"x":166858.27000000142,"y":2542646.8499999996}},{"attributes":{"ID":363419,"DIS_CODE":0,"TOWNNAME":"中西區","LI":"仙草里","LIN":"5鄰","STREET":"永福路","SECT":"一段","MAREA":" ","LANE":"６１巷","ALLEY":" ","HOUSE_NO":"５６號","E_COORD97":167912.70999999999,"N_COORD97":2542659.2999999998,"ADDRESS":"永福路一段６１巷５６號","OBJECTID":363409},"geometry":{"x":167912.70999999996,"y":2542659.3000000007}},{"attributes":{"ID":363420,"DIS_CODE":0,"TOWNNAME":"東區","LI":"圍下里","LIN":"19鄰","STREET":"慶東街","SECT":" ","MAREA":" ","LANE":"１２７巷","ALLEY":" ","HOUSE_NO":"３號","E_COORD97":169633.63,"N_COORD97":2543384.2200000002,"ADDRESS":"慶東街１２７巷３號","OBJECTID":363410},"geometry":{"x":169633.63000000082,"y":2543384.2200000025}},{"attributes":{"ID":363421,"DIS_CODE":0,"TOWNNAME":"東區","LI":"圍下里","LIN":"19鄰","STREET":"慶東街","SECT":" ","MAREA":" ","LANE":"１２７巷","ALLEY":" ","HOUSE_NO":"７號","E_COORD97":169622.14999999999,"N_COORD97":2543385.2200000002,"ADDRESS":"慶東街１２７巷７號","OBJECTID":363411},"geometry":{"x":169622.1500000013,"y":2543385.2200000007}},{"attributes":{"ID":363422,"DIS_CODE":0,"TOWNNAME":"東區","LI":"圍下里","LIN":"19鄰","STREET":"慶東街","SECT":" ","MAREA":" ","LANE":"１２７巷","ALLEY":" ","HOUSE_NO":"８號","E_COORD97":169619.76999999999,"N_COORD97":2543403.7200000002,"ADDRESS":"慶東街１２７巷８號","OBJECTID":363412},"geometry":{"x":169619.77000000142,"y":2543403.7200000025}},{"attributes":{"ID":363423,"DIS_CODE":0,"TOWNNAME":"東區","LI":"圍下里","LIN":"19鄰","STREET":"慶東街","SECT":" ","MAREA":" ","LANE":"１２７巷","ALLEY":" ","HOUSE_NO":"１２號","E_COORD97":169605.48999999999,"N_COORD97":2543398.8100000001,"ADDRESS":"慶東街１２７巷１２號","OBJECTID":363413},"geometry":{"x":169605.49000000209,"y":2543398.8100000042}},{"attributes":{"ID":363424,"DIS_CODE":0,"TOWNNAME":"安南區","LI":"長安里","LIN":"19鄰","STREET":"公學路","SECT":"二段","MAREA":" ","LANE":"２８２巷","ALLEY":" ","HOUSE_NO":"２８號","E_COORD97":167370.39000000001,"N_COORD97":2552148.2999999998,"ADDRESS":"公學路二段２８２巷２８號","OBJECTID":363414},"geometry":{"x":167370.38999999966,"y":2552148.3000000007}},{"attributes":{"ID":363425,"DIS_CODE":0,"TOWNNAME":"安南區","LI":"長安里","LIN":"19鄰","STREET":"公學路","SECT":"二段","MAREA":" ","LANE":"２８２巷","ALLEY":" ","HOUSE_NO":"３０號","E_COORD97":167372.29999999999,"N_COORD97":2552153.0299999998,"ADDRESS":"公學路二段２８２巷３０號","OBJECTID":363415},"geometry":{"x":167372.30000000075,"y":2552153.0299999993}},{"attributes":{"ID":363426,"DIS_CODE":0,"TOWNNAME":"安南區","LI":"長安里","LIN":"19鄰","STREET":"公學路","SECT":"二段","MAREA":" ","LANE":"２８２巷","ALLEY":" ","HOUSE_NO":"３２號","E_COORD97":167374.20000000001,"N_COORD97":2552157.7599999998,"ADDRESS":"公學路二段２８２巷３２號","OBJECTID":363416},"geometry":{"x":167374.20000000019,"y":2552157.7599999998}},{"attributes":{"ID":363427,"DIS_CODE":0,"TOWNNAME":"安南區","LI":"長安里","LIN":"19鄰","STREET":"公學路","SECT":"二段","MAREA":" ","LANE":"２８２巷","ALLEY":" ","HOUSE_NO":"３６號","E_COORD97":167376.10999999999,"N_COORD97":2552162.4900000002,"ADDRESS":"公學路二段２８２巷３６號","OBJECTID":363417},"geometry":{"x":167376.11000000127,"y":2552162.4900000021}},{"attributes":{"ID":363428,"DIS_CODE":0,"TOWNNAME":"安南區","LI":"長安里","LIN":"19鄰","STREET":"公學路","SECT":"二段","MAREA":" ","LANE":"２８２巷","ALLEY":" ","HOUSE_NO":"３８號","E_COORD97":167378.01000000001,"N_COORD97":2552167.2200000002,"ADDRESS":"公學路二段２８２巷３８號","OBJECTID":363418},"geometry":{"x":167378.01000000071,"y":2552167.2200000044}},{"attributes":{"ID":363429,"DIS_CODE":0,"TOWNNAME":"安南區","LI":"長安里","LIN":"19鄰","STREET":"公學路","SECT":"二段","MAREA":" ","LANE":"２８２巷","ALLEY":" ","HOUSE_NO":"４０號","E_COORD97":167379.94,"N_COORD97":2552172.0099999998,"ADDRESS":"公學路二段２８２巷４０號","OBJECTID":363419},"geometry":{"x":167379.94000000041,"y":2552172.0100000016}},{"attributes":{"ID":363430,"DIS_CODE":0,"TOWNNAME":"南區","LI":"文南里","LIN":"13鄰","STREET":"永南街","SECT":" ","MAREA":" ","LANE":" ","ALLEY":" ","HOUSE_NO":"１４號","E_COORD97":166820.87,"N_COORD97":2542556.9100000001,"ADDRESS":"永南街１４號","OBJECTID":363420},"geometry":{"x":166820.87000000197,"y":2542556.9100000039}},{"attributes":{"ID":363431,"DIS_CODE":0,"TOWNNAME":"南區","LI":"文南里","LIN":"13鄰","STREET":"永南街","SECT":" ","MAREA":" ","LANE":" ","ALLEY":" ","HOUSE_NO":"１６號","E_COORD97":166823.89999999999,"N_COORD97":2542574.54,"ADDRESS":"永南街１６號","OBJECTID":363421},"geometry":{"x":166823.90000000037,"y":2542574.5399999991}},{"attributes":{"ID":363432,"DIS_CODE":0,"TOWNNAME":"南區","LI":"文南里","LIN":"13鄰","STREET":"永南街","SECT":" ","MAREA":" ","LANE":" ","ALLEY":" ","HOUSE_NO":"２０號","E_COORD97":166823.63,"N_COORD97":2542585.8300000001,"ADDRESS":"永南街２０號","OBJECTID":363422},"geometry":{"x":166823.62999999989,"y":2542585.8300000019}},{"attributes":{"ID":363433,"DIS_CODE":0,"TOWNNAME":"南區","LI":"文南里","LIN":"13鄰","STREET":"永南街","SECT":" ","MAREA":" ","LANE":" ","ALLEY":" ","HOUSE_NO":"５２號","E_COORD97":166833.16,"N_COORD97":2542692.5,"ADDRESS":"永南街５２號","OBJECTID":363423},"geometry":{"x":166833.16000000108,"y":2542692.5000000019}},{"attributes":{"ID":363434,"DIS_CODE":0,"TOWNNAME":"南區","LI":"文南里","LIN":"13鄰","STREET":"永南街","SECT":" ","MAREA":" ","LANE":" ","ALLEY":" ","HOUSE_NO":"６２號","E_COORD97":166834.29999999999,"N_COORD97":2542712.2599999998,"ADDRESS":"永南街６２號","OBJECTID":363424},"geometry":{"x":166834.29999999981,"y":2542712.2599999998}},{"attributes":{"ID":363435,"DIS_CODE":0,"TOWNNAME":"安南區","LI":"長安里","LIN":"19鄰","STREET":"公學路","SECT":"二段","MAREA":" ","LANE":"２８２巷","ALLEY":" ","HOUSE_NO":"４２號","E_COORD97":167385.76999999999,"N_COORD97":2552177.23,"ADDRESS":"公學路二段２８２巷４２號","OBJECTID":363425},"geometry":{"x":167385.77000000048,"y":2552177.2300000042}},{"attributes":{"ID":363436,"DIS_CODE":0,"TOWNNAME":"永康區","LI":"\u25A0行里","LIN":"19鄰","STREET":"正南五街","SECT":" ","MAREA":" ","LANE":"５２０巷","ALLEY":" ","HOUSE_NO":"３５號","E_COORD97":171674.35000000001,"N_COORD97":2548791.5,"ADDRESS":"正南五街５２０巷３５號","OBJECTID":363426},"geometry":{"x":171674.35000000056,"y":2548791.5000000019}},{"attributes":{"ID":363437,"DIS_CODE":0,"TOWNNAME":"永康區","LI":"\u25A0行里","LIN":"19鄰","STREET":"正南五街","SECT":" ","MAREA":" ","LANE":"５２０巷","ALLEY":" ","HOUSE_NO":"４５號","E_COORD97":171684.35999999999,"N_COORD97":2548796.0800000001,"ADDRESS":"正南五街５２０巷４５號","OBJECTID":363427},"geometry":{"x":171684.36000000034,"y":2548796.0800000001}},{"attributes":{"ID":363438,"DIS_CODE":0,"TOWNNAME":"中西區","LI":"小西里","LIN":"4鄰","STREET":"永福路","SECT":"一段","MAREA":" ","LANE":"２３３巷","ALLEY":" ","HOUSE_NO":"５３號","E_COORD97":167822.04999999999,"N_COORD97":2543263.73,"ADDRESS":"永福路一段２３３巷５３號","OBJECTID":363428},"geometry":{"x":167822.04999999981,"y":2543263.7300000042}},{"attributes":{"ID":363439,"DIS_CODE":0,"TOWNNAME":"中西區","LI":"永華里","LIN":"19鄰","STREET":"中正路","SECT":" ","MAREA":" ","LANE":"５巷","ALLEY":" ","HOUSE_NO":"６號","E_COORD97":168338.19,"N_COORD97":2543539.7400000002,"ADDRESS":"中正路５巷６號","OBJECTID":363429},"geometry":{"x":168338.19000000134,"y":2543539.7400000002}},{"attributes":{"ID":363440,"DIS_CODE":0,"TOWNNAME":"中西區","LI":"小西里","LIN":"4鄰","STREET":"永福路","SECT":"一段","MAREA":" ","LANE":"２３３巷","ALLEY":" ","HOUSE_NO":"５５號","E_COORD97":167821.32999999999,"N_COORD97":2543259.29,"ADDRESS":"永福路一段２３３巷５５號","OBJECTID":363430},"geometry":{"x":167821.33000000194,"y":2543259.290000001}},{"attributes":{"ID":363441,"DIS_CODE":0,"TOWNNAME":"安南區","LI":"大安里","LIN":"19鄰","STREET":"義安街","SECT":" ","MAREA":" ","LANE":"２２６巷","ALLEY":" ","HOUSE_NO":"２５號","E_COORD97":167735.82000000001,"N_COORD97":2548329.3799999999,"ADDRESS":"義安街２２６巷２５號","OBJECTID":363431},"geometry":{"x":167735.82000000123,"y":2548329.379999999}},{"attributes":{"ID":363442,"DIS_CODE":0,"TOWNNAME":"安南區","LI":"大安里","LIN":"19鄰","STREET":"義安街","SECT":" ","MAREA":" ","LANE":"２４２巷","ALLEY":" ","HOUSE_NO":"２２號","E_COORD97":167728.01999999999,"N_COORD97":2548351.1899999999,"ADDRESS":"義安街２４２巷２２號","OBJECTID":363432},"geometry":{"x":167728.02000000048,"y":2548351.1899999995}},{"attributes":{"ID":363443,"DIS_CODE":0,"TOWNNAME":"安南區","LI":"安東里","LIN":"19鄰","STREET":"安和路","SECT":"一段","MAREA":" ","LANE":"４９６巷","ALLEY":" ","HOUSE_NO":"１１號","E_COORD97":169499.32000000001,"N_COORD97":2548453.02,"ADDRESS":"安和路一段４９６巷１１號","OBJECTID":363433},"geometry":{"x":169499.3200000003,"y":2548453.0200000014}},{"attributes":{"ID":363444,"DIS_CODE":0,"TOWNNAME":"安南區","LI":"安富里","LIN":"19鄰","STREET":"安富街","SECT":" ","MAREA":" ","LANE":"２４５巷","ALLEY":" ","HOUSE_NO":"７號","E_COORD97":167589.73000000001,"N_COORD97":2547429.6499999999,"ADDRESS":"安富街２４５巷７號","OBJECTID":363434},"geometry":{"x":167589.73000000045,"y":2547429.6500000004}},{"attributes":{"ID":363445,"DIS_CODE":0,"TOWNNAME":"安南區","LI":"安富里","LIN":"19鄰","STREET":"安富街","SECT":" ","MAREA":" ","LANE":"２４５巷","ALLEY":" ","HOUSE_NO":"９號","E_COORD97":167590.91,"N_COORD97":2547424.71,"ADDRESS":"安富街２４５巷９號","OBJECTID":363435},"geometry":{"x":167590.91000000108,"y":2547424.7100000028}},{"attributes":{"ID":363446,"DIS_CODE":0,"TOWNNAME":"安南區","LI":"安富里","LIN":"19鄰","STREET":"安富街","SECT":" ","MAREA":" ","LANE":"２４５巷","ALLEY":" ","HOUSE_NO":"１７號","E_COORD97":167596.04999999999,"N_COORD97":2547404.23,"ADDRESS":"安富街２４５巷１７號","OBJECTID":363436},"geometry":{"x":167596.05000000075,"y":2547404.2300000023}},{"attributes":{"ID":363447,"DIS_CODE":0,"TOWNNAME":"中西區","LI":"法華里","LIN":"6鄰","STREET":"大同路","SECT":"一段","MAREA":" ","LANE":"２５０巷","ALLEY":" ","HOUSE_NO":"１１號","E_COORD97":169109.62,"N_COORD97":2542459.46,"ADDRESS":"大同路一段２５０巷１１號","OBJECTID":363437},"geometry":{"x":169109.62000000104,"y":2542459.4600000028}},{"attributes":{"ID":363448,"DIS_CODE":0,"TOWNNAME":"中西區","LI":"法華里","LIN":"6鄰","STREET":"大同路","SECT":"一段","MAREA":" ","LANE":"２５０巷","ALLEY":" ","HOUSE_NO":"１５號","E_COORD97":169088.28,"N_COORD97":2542465.48,"ADDRESS":"大同路一段２５０巷１５號","OBJECTID":363438},"geometry":{"x":169088.28000000119,"y":2542465.4800000042}},{"attributes":{"ID":363449,"DIS_CODE":0,"TOWNNAME":"中西區","LI":"法華里","LIN":"6鄰","STREET":"大同路","SECT":"一段","MAREA":" ","LANE":"２５０巷","ALLEY":" ","HOUSE_NO":"１號","E_COORD97":169168.54999999999,"N_COORD97":2542461.3100000001,"ADDRESS":"大同路一段２５０巷１號","OBJECTID":363439},"geometry":{"x":169168.54999999981,"y":2542461.3100000024}},{"attributes":{"ID":363450,"DIS_CODE":0,"TOWNNAME":"中西區","LI":"法華里","LIN":"6鄰","STREET":"大同路","SECT":"一段","MAREA":" ","LANE":"２５０巷","ALLEY":" ","HOUSE_NO":"３號","E_COORD97":169163.45000000001,"N_COORD97":2542463.6299999999,"ADDRESS":"大同路一段２５０巷３號","OBJECTID":363440},"geometry":{"x":169163.45000000112,"y":2542463.6300000008}},{"attributes":{"ID":363451,"DIS_CODE":0,"TOWNNAME":"中西區","LI":"法華里","LIN":"6鄰","STREET":"大同路","SECT":"一段","MAREA":" ","LANE":"２５０巷","ALLEY":" ","HOUSE_NO":"５號","E_COORD97":169157.42000000001,"N_COORD97":2542463.1699999999,"ADDRESS":"大同路一段２５０巷５號","OBJECTID":363441},"geometry":{"x":169157.41999999993,"y":2542463.1699999981}},{"attributes":{"ID":363452,"DIS_CODE":0,"TOWNNAME":"中西區","LI":"法華里","LIN":"6鄰","STREET":"大同路","SECT":"一段","MAREA":" ","LANE":"２５０巷","ALLEY":" ","HOUSE_NO":"７號","E_COORD97":169118.89999999999,"N_COORD97":2542460.8500000001,"ADDRESS":"大同路一段２５０巷７號","OBJECTID":363442},"geometry":{"x":169118.90000000037,"y":2542460.8499999996}},{"attributes":{"ID":363453,"DIS_CODE":0,"TOWNNAME":"中西區","LI":"大南里","LIN":"6鄰","STREET":"忠義路","SECT":"一段","MAREA":" ","LANE":"２４巷","ALLEY":" ","HOUSE_NO":"１０號","E_COORD97":168221.20000000001,"N_COORD97":2542873.1699999999,"ADDRESS":"忠義路一段２４巷１０號","OBJECTID":363443},"geometry":{"x":168221.20000000112,"y":2542873.1699999999}},{"attributes":{"ID":363454,"DIS_CODE":0,"TOWNNAME":"中西區","LI":"大南里","LIN":"6鄰","STREET":"忠義路","SECT":"一段","MAREA":" ","LANE":"２４巷","ALLEY":" ","HOUSE_NO":"１６號","E_COORD97":168239.85999999999,"N_COORD97":2542867.7200000002,"ADDRESS":"忠義路一段２４巷１６號","OBJECTID":363444},"geometry":{"x":168239.86000000034,"y":2542867.7200000025}},{"attributes":{"ID":363455,"DIS_CODE":0,"TOWNNAME":"官田區","LI":"官田里","LIN":"29鄰","STREET":" ","SECT":" ","MAREA":"中\u25A0","LANE":" ","ALLEY":" ","HOUSE_NO":"４６號之７","E_COORD97":183458.23000000001,"N_COORD97":2566525.0600000001,"ADDRESS":"中\u25A0４６號之７","OBJECTID":363445},"geometry":{"x":183458.23000000045,"y":2566525.0600000005}},{"attributes":{"ID":363456,"DIS_CODE":0,"TOWNNAME":"永康區","LI":"西灣里","LIN":"46鄰","STREET":"永華路","SECT":" ","MAREA":" ","LANE":"２７３巷","ALLEY":" ","HOUSE_NO":"３７號","E_COORD97":173934.57999999999,"N_COORD97":2545779.4300000002,"ADDRESS":"永華路２７３巷３７號","OBJECTID":363446},"geometry":{"x":173934.58000000101,"y":2545779.4299999997}},{"attributes":{"ID":363457,"DIS_CODE":0,"TOWNNAME":"永康區","LI":"西灣里","LIN":"46鄰","STREET":"永華路","SECT":" ","MAREA":" ","LANE":"２７３巷","ALLEY":" ","HOUSE_NO":"４１號","E_COORD97":173925.87,"N_COORD97":2545776.9399999999,"ADDRESS":"永華路２７３巷４１號","OBJECTID":363447},"geometry":{"x":173925.87000000104,"y":2545776.9400000032}},{"attributes":{"ID":363458,"DIS_CODE":0,"TOWNNAME":"永康區","LI":"西灣里","LIN":"46鄰","STREET":"永華路","SECT":" ","MAREA":" ","LANE":"２３３巷","ALLEY":" ","HOUSE_NO":"１５號","E_COORD97":174009.91,"N_COORD97":2545718.5099999998,"ADDRESS":"永華路２３３巷１５號","OBJECTID":363448},"geometry":{"x":174009.91000000201,"y":2545718.5099999998}},{"attributes":{"ID":363459,"DIS_CODE":0,"TOWNNAME":"中西區","LI":"大南里","LIN":"6鄰","STREET":"忠義路","SECT":"一段","MAREA":" ","LANE":"２４巷","ALLEY":" ","HOUSE_NO":"１８號","E_COORD97":168247.95999999999,"N_COORD97":2542867.02,"ADDRESS":"忠義路一段２４巷１８號","OBJECTID":363449},"geometry":{"x":168247.96000000089,"y":2542867.0199999996}},{"attributes":{"ID":363460,"DIS_CODE":0,"TOWNNAME":"中西區","LI":"大南里","LIN":"6鄰","STREET":"忠義路","SECT":"一段","MAREA":" ","LANE":"２４巷","ALLEY":" ","HOUSE_NO":"６號","E_COORD97":168213.10000000001,"N_COORD97":2542875.2799999998,"ADDRESS":"忠義路一段２４巷６號","OBJECTID":363450},"geometry":{"x":168213.09999999963,"y":2542875.2799999993}},{"attributes":{"ID":363461,"DIS_CODE":0,"TOWNNAME":"中西區","LI":"大南里","LIN":"6鄰","STREET":"忠義路","SECT":"一段","MAREA":" ","LANE":"２４巷","ALLEY":" ","HOUSE_NO":"８號","E_COORD97":168216.26999999999,"N_COORD97":2542874.5800000001,"ADDRESS":"忠義路一段２４巷８號","OBJECTID":363451},"geometry":{"x":168216.27000000048,"y":2542874.5800000038}},{"attributes":{"ID":363462,"DIS_CODE":0,"TOWNNAME":"中西區","LI":"永華里","LIN":"19鄰","STREET":"中正路","SECT":" ","MAREA":" ","LANE":"５巷","ALLEY":" ","HOUSE_NO":"２號","E_COORD97":168355.78,"N_COORD97":2543570.73,"ADDRESS":"中正路５巷２號","OBJECTID":363452},"geometry":{"x":168355.78000000212,"y":2543570.7300000004}},{"attributes":{"ID":363463,"DIS_CODE":0,"TOWNNAME":"中西區","LI":"永華里","LIN":"19鄰","STREET":"中正路","SECT":" ","MAREA":" ","LANE":"５巷","ALLEY":" ","HOUSE_NO":"４號","E_COORD97":168327.98999999999,"N_COORD97":2543552.9399999999,"ADDRESS":"中正路５巷４號","OBJECTID":363453},"geometry":{"x":168327.99000000115,"y":2543552.9400000032}},{"attributes":{"ID":363464,"DIS_CODE":0,"TOWNNAME":"中西區","LI":"永華里","LIN":"19鄰","STREET":"中正路","SECT":" ","MAREA":" ","LANE":"５巷","ALLEY":" ","HOUSE_NO":"５號","E_COORD97":168346.98999999999,"N_COORD97":2543542.75,"ADDRESS":"中正路５巷５號","OBJECTID":363454},"geometry":{"x":168346.99000000022,"y":2543542.7500000019}},{"attributes":{"ID":363465,"DIS_CODE":0,"TOWNNAME":"中西區","LI":"小西里","LIN":"5鄰","STREET":"府前路","SECT":"一段","MAREA":" ","LANE":"３５９巷","ALLEY":" ","HOUSE_NO":"６８號","E_COORD97":167921.23999999999,"N_COORD97":2543299.2999999998,"ADDRESS":"府前路一段３５９巷６８號","OBJECTID":363455},"geometry":{"x":167921.24000000022,"y":2543299.3000000007}},{"attributes":{"ID":363466,"DIS_CODE":0,"TOWNNAME":"中西區","LI":"小西里","LIN":"5鄰","STREET":"府前路","SECT":"一段","MAREA":" ","LANE":"３５９巷","ALLEY":" ","HOUSE_NO":"７０號","E_COORD97":167912.37,"N_COORD97":2543299.5299999998,"ADDRESS":"府前路一段３５９巷７０號","OBJECTID":363456},"geometry":{"x":167912.37000000011,"y":2543299.5299999993}},{"attributes":{"ID":363467,"DIS_CODE":0,"TOWNNAME":"中西區","LI":"小西里","LIN":"5鄰","STREET":"府前路","SECT":"一段","MAREA":" ","LANE":"３５９巷","ALLEY":" ","HOUSE_NO":"７２號","E_COORD97":167904.79000000001,"N_COORD97":2543300.23,"ADDRESS":"府前路一段３５９巷７２號","OBJECTID":363457},"geometry":{"x":167904.79000000097,"y":2543300.2300000004}},{"attributes":{"ID":363468,"DIS_CODE":0,"TOWNNAME":"南區","LI":"文南里","LIN":"13鄰","STREET":"永南街","SECT":" ","MAREA":" ","LANE":" ","ALLEY":" ","HOUSE_NO":"６４號","E_COORD97":166834.67999999999,"N_COORD97":2542717.3900000001,"ADDRESS":"永南街６４號","OBJECTID":363458},"geometry":{"x":166834.6799999997,"y":2542717.3900000025}},{"attributes":{"ID":363469,"DIS_CODE":0,"TOWNNAME":"南區","LI":"文南里","LIN":"13鄰","STREET":"永南街","SECT":" ","MAREA":" ","LANE":" ","ALLEY":" ","HOUSE_NO":"６８號","E_COORD97":166835.82999999999,"N_COORD97":2542725.9399999999,"ADDRESS":"永南街６８號","OBJECTID":363459},"geometry":{"x":166835.83000000007,"y":2542725.9400000013}},{"attributes":{"ID":363470,"DIS_CODE":0,"TOWNNAME":"南區","LI":"文南里","LIN":"13鄰","STREET":"育南街","SECT":" ","MAREA":" ","LANE":" ","ALLEY":" ","HOUSE_NO":"９號","E_COORD97":166852.39000000001,"N_COORD97":2542585.5800000001,"ADDRESS":"育南街９號","OBJECTID":363460},"geometry":{"x":166852.39000000153,"y":2542585.5800000001}},{"attributes":{"ID":363471,"DIS_CODE":0,"TOWNNAME":"南區","LI":"文南里","LIN":"13鄰","STREET":"育南街","SECT":" ","MAREA":" ","LANE":" ","ALLEY":" ","HOUSE_NO":"１１號","E_COORD97":166852.47,"N_COORD97":2542592.25,"ADDRESS":"育南街１１號","OBJECTID":363461},"geometry":{"x":166852.47000000067,"y":2542592.2500000019}},{"attributes":{"ID":363472,"DIS_CODE":0,"TOWNNAME":"永康區","LI":"西灣里","LIN":"46鄰","STREET":"永華路","SECT":" ","MAREA":" ","LANE":"２３３巷","ALLEY":" ","HOUSE_NO":"２７號","E_COORD97":173983.34,"N_COORD97":2545732.7400000002,"ADDRESS":"永華路２３３巷２７號","OBJECTID":363462},"geometry":{"x":173983.34000000078,"y":2545732.7400000021}},{"attributes":{"ID":363473,"DIS_CODE":0,"TOWNNAME":"永康區","LI":"西灣里","LIN":"46鄰","STREET":"永華路","SECT":" ","MAREA":" ","LANE":"２７３巷","ALLEY":" ","HOUSE_NO":"４５號","E_COORD97":173917.32000000001,"N_COORD97":2545774.6899999999,"ADDRESS":"永華路２７３巷４５號","OBJECTID":363463},"geometry":{"x":173917.31999999937,"y":2545774.6899999995}},{"attributes":{"ID":363474,"DIS_CODE":0,"TOWNNAME":"永康區","LI":"正強里","LIN":"46鄰","STREET":"中正路","SECT":" ","MAREA":" ","LANE":"２５６巷","ALLEY":" ","HOUSE_NO":"９號之２０","E_COORD97":173207.10999999999,"N_COORD97":2547991.8799999999,"ADDRESS":"中正路２５６巷９號之２０","OBJECTID":363464},"geometry":{"x":173207.11000000127,"y":2547991.8800000008}},{"attributes":{"ID":363475,"DIS_CODE":0,"TOWNNAME":"永康區","LI":"正強里","LIN":"46鄰","STREET":"中正路","SECT":" ","MAREA":" ","LANE":"２５６巷","ALLEY":" ","HOUSE_NO":"９號之２３","E_COORD97":173207.16,"N_COORD97":2547991.8799999999,"ADDRESS":"中正路２５６巷９號之２３","OBJECTID":363465},"geometry":{"x":173207.16000000108,"y":2547991.8800000008}},{"attributes":{"ID":363476,"DIS_CODE":0,"TOWNNAME":"永康區","LI":"正強里","LIN":"46鄰","STREET":"中正路","SECT":" ","MAREA":" ","LANE":"２５６巷","ALLEY":" ","HOUSE_NO":"９號之１６","E_COORD97":173207.16,"N_COORD97":2547991.8799999999,"ADDRESS":"中正路２５６巷９號之１６","OBJECTID":363466},"geometry":{"x":173207.16000000108,"y":2547991.8800000008}},{"attributes":{"ID":363477,"DIS_CODE":0,"TOWNNAME":"中西區","LI":"小西里","LIN":"5鄰","STREET":"府前路","SECT":"一段","MAREA":" ","LANE":"３５９巷","ALLEY":" ","HOUSE_NO":"７４號","E_COORD97":167916.45999999999,"N_COORD97":2543291.6099999999,"ADDRESS":"府前路一段３５９巷７４號","OBJECTID":363467},"geometry":{"x":167916.45999999996,"y":2543291.6100000013}},{"attributes":{"ID":363478,"DIS_CODE":0,"TOWNNAME":"中西區","LI":"小西里","LIN":"5鄰","STREET":"府前路","SECT":"一段","MAREA":" ","LANE":"３５９巷","ALLEY":" ","HOUSE_NO":"７６號","E_COORD97":167908.64000000001,"N_COORD97":2543291.7200000002,"ADDRESS":"府前路一段３５９巷７６號","OBJECTID":363468},"geometry":{"x":167908.64000000153,"y":2543291.7200000025}},{"attributes":{"ID":363479,"DIS_CODE":0,"TOWNNAME":"中西區","LI":"小西里","LIN":"5鄰","STREET":"府前路","SECT":"一段","MAREA":" ","LANE":"３５９巷","ALLEY":" ","HOUSE_NO":"７８號","E_COORD97":167895.45999999999,"N_COORD97":2543293.1200000001,"ADDRESS":"府前路一段３５９巷７８號","OBJECTID":363469},"geometry":{"x":167895.46000000089,"y":2543293.1200000029}},{"attributes":{"ID":363480,"DIS_CODE":0,"TOWNNAME":"中西區","LI":"小西里","LIN":"5鄰","STREET":"府前路","SECT":"一段","MAREA":" ","LANE":"３７１巷","ALLEY":" ","HOUSE_NO":"１７號","E_COORD97":167872.35999999999,"N_COORD97":2543326.6699999999,"ADDRESS":"府前路一段３７１巷１７號","OBJECTID":363470},"geometry":{"x":167872.36000000127,"y":2543326.6699999999}},{"attributes":{"ID":363481,"DIS_CODE":0,"TOWNNAME":"中西區","LI":"永華里","LIN":"19鄰","STREET":"中正路","SECT":" ","MAREA":" ","LANE":"５巷","ALLEY":" ","HOUSE_NO":"７號","E_COORD97":168331.91,"N_COORD97":2543519.8399999999,"ADDRESS":"中正路５巷７號","OBJECTID":363471},"geometry":{"x":168331.91000000015,"y":2543519.839999998}},{"attributes":{"ID":363482,"DIS_CODE":0,"TOWNNAME":"中西區","LI":"永華里","LIN":"19鄰","STREET":"中正路","SECT":" ","MAREA":" ","LANE":"２１巷","ALLEY":" ","HOUSE_NO":"１３號","E_COORD97":168311.64999999999,"N_COORD97":2543559.8799999999,"ADDRESS":"中正路２１巷１３號","OBJECTID":363472},"geometry":{"x":168311.6500000013,"y":2543559.8800000008}},{"attributes":{"ID":363483,"DIS_CODE":0,"TOWNNAME":"南區","LI":"文南里","LIN":"13鄰","STREET":"育南街","SECT":" ","MAREA":" ","LANE":" ","ALLEY":" ","HOUSE_NO":"２７號","E_COORD97":166856.56,"N_COORD97":2542631.0800000001,"ADDRESS":"育南街２７號","OBJECTID":363473},"geometry":{"x":166856.56000000052,"y":2542631.0800000019}},{"attributes":{"ID":363484,"DIS_CODE":0,"TOWNNAME":"南區","LI":"文南里","LIN":"13鄰","STREET":"育南街","SECT":" ","MAREA":" ","LANE":" ","ALLEY":" ","HOUSE_NO":"２９號","E_COORD97":166856.76000000001,"N_COORD97":2542635.6400000001,"ADDRESS":"育南街２９號","OBJECTID":363474},"geometry":{"x":166856.75999999885,"y":2542635.6400000006}},{"attributes":{"ID":363485,"DIS_CODE":0,"TOWNNAME":"南區","LI":"文南里","LIN":"13鄰","STREET":"育南街","SECT":" ","MAREA":" ","LANE":" ","ALLEY":" ","HOUSE_NO":"３１號","E_COORD97":166857.70000000001,"N_COORD97":2542639.8199999998,"ADDRESS":"育南街３１號","OBJECTID":363475},"geometry":{"x":166857.70000000205,"y":2542639.8200000022}},{"attributes":{"ID":363486,"DIS_CODE":0,"TOWNNAME":"南區","LI":"文南里","LIN":"13鄰","STREET":"育南街","SECT":" ","MAREA":" ","LANE":" ","ALLEY":" ","HOUSE_NO":"３７號","E_COORD97":166858.85000000001,"N_COORD97":2542650.6499999999,"ADDRESS":"育南街３７號","OBJECTID":363476},"geometry":{"x":166858.84999999963,"y":2542650.6500000041}},{"attributes":{"ID":363487,"DIS_CODE":0,"TOWNNAME":"永康區","LI":"崑山里","LIN":"46鄰","STREET":"永華路","SECT":" ","MAREA":" ","LANE":"３２巷","ALLEY":" ","HOUSE_NO":"４０號","E_COORD97":174187.35000000001,"N_COORD97":2545174.1699999999,"ADDRESS":"永華路３２巷４０號","OBJECTID":363477},"geometry":{"x":174187.34999999963,"y":2545174.1699999999}},{"attributes":{"ID":363488,"DIS_CODE":0,"TOWNNAME":"永康區","LI":"崑山里","LIN":"46鄰","STREET":"永華路","SECT":" ","MAREA":" ","LANE":"３２巷","ALLEY":" ","HOUSE_NO":"３４號","E_COORD97":174175.70000000001,"N_COORD97":2545178.1699999999,"ADDRESS":"永華路３２巷３４號","OBJECTID":363478},"geometry":{"x":174175.69999999925,"y":2545178.1699999999}},{"attributes":{"ID":363489,"DIS_CODE":0,"TOWNNAME":"永康區","LI":"二王里","LIN":"46鄰","STREET":"南工街","SECT":" ","MAREA":" ","LANE":"２１２巷","ALLEY":" ","HOUSE_NO":"９號","E_COORD97":172087.51999999999,"N_COORD97":2545962.23,"ADDRESS":"南工街２１２巷９號","OBJECTID":363479},"geometry":{"x":172087.51999999955,"y":2545962.2299999986}},{"attributes":{"ID":363490,"DIS_CODE":0,"TOWNNAME":"永康區","LI":"崑山里","LIN":"46鄰","STREET":"永華路","SECT":" ","MAREA":" ","LANE":"３２巷","ALLEY":" ","HOUSE_NO":"５４號","E_COORD97":174215.84,"N_COORD97":2545159.52,"ADDRESS":"永華路３２巷５４號","OBJECTID":363480},"geometry":{"x":174215.84000000078,"y":2545159.5200000033}},{"attributes":{"ID":363491,"DIS_CODE":0,"TOWNNAME":"仁德區","LI":"太子里","LIN":"46鄰","STREET":"太子一街","SECT":" ","MAREA":" ","LANE":"４３巷","ALLEY":" ","HOUSE_NO":"３６號","E_COORD97":174842.54000000001,"N_COORD97":2543286.25,"ADDRESS":"太子一街４３巷３６號","OBJECTID":363481},"geometry":{"x":174842.54000000004,"y":2543286.25}},{"attributes":{"ID":363492,"DIS_CODE":0,"TOWNNAME":"仁德區","LI":"太子里","LIN":"46鄰","STREET":"太子一街","SECT":" ","MAREA":" ","LANE":"４３巷","ALLEY":" ","HOUSE_NO":"５號","E_COORD97":174814.47,"N_COORD97":2543322.5099999998,"ADDRESS":"太子一街４３巷５號","OBJECTID":363482},"geometry":{"x":174814.47000000067,"y":2543322.5100000016}},{"attributes":{"ID":363493,"DIS_CODE":0,"TOWNNAME":"仁德區","LI":"太子里","LIN":"46鄰","STREET":"太子一街","SECT":" ","MAREA":" ","LANE":"４３巷","ALLEY":" ","HOUSE_NO":"８號","E_COORD97":174781.17000000001,"N_COORD97":2543331.0099999998,"ADDRESS":"太子一街４３巷８號","OBJECTID":363483},"geometry":{"x":174781.17000000086,"y":2543331.0099999998}},{"attributes":{"ID":363494,"DIS_CODE":0,"TOWNNAME":"仁德區","LI":"太子里","LIN":"46鄰","STREET":"太子一街","SECT":" ","MAREA":" ","LANE":"４３巷","ALLEY":" ","HOUSE_NO":"３號","E_COORD97":174809.04999999999,"N_COORD97":2543326.0099999998,"ADDRESS":"太子一街４３巷３號","OBJECTID":363484},"geometry":{"x":174809.05000000075,"y":2543326.0100000016}},{"attributes":{"ID":363495,"DIS_CODE":0,"TOWNNAME":"中西區","LI":"永華里","LIN":"19鄰","STREET":"中正路","SECT":" ","MAREA":" ","LANE":"２１巷","ALLEY":" ","HOUSE_NO":"２３號","E_COORD97":168316.34,"N_COORD97":2543533.4399999999,"ADDRESS":"中正路２１巷２３號","OBJECTID":363485},"geometry":{"x":168316.34000000078,"y":2543533.4400000013}},{"attributes":{"ID":363496,"DIS_CODE":0,"TOWNNAME":"中西區","LI":"永華里","LIN":"19鄰","STREET":"中正路","SECT":" ","MAREA":" ","LANE":"２１巷","ALLEY":" ","HOUSE_NO":"２５號","E_COORD97":168320.28,"N_COORD97":2543532.1899999999,"ADDRESS":"中正路２１巷２５號","OBJECTID":363486},"geometry":{"x":168320.28000000212,"y":2543532.1900000013}},{"attributes":{"ID":363497,"DIS_CODE":0,"TOWNNAME":"中西區","LI":"永華里","LIN":"19鄰","STREET":"中正路","SECT":" ","MAREA":" ","LANE":"２１巷","ALLEY":" ","HOUSE_NO":"２７號","E_COORD97":168322.20999999999,"N_COORD97":2543529.0099999998,"ADDRESS":"中正路２１巷２７號","OBJECTID":363487},"geometry":{"x":168322.21000000089,"y":2543529.0100000035}},{"attributes":{"ID":363498,"DIS_CODE":0,"TOWNNAME":"中西區","LI":"永華里","LIN":"19鄰","STREET":"中正路","SECT":" ","MAREA":" ","LANE":"２１巷","ALLEY":" ","HOUSE_NO":"２９號","E_COORD97":168306.20999999999,"N_COORD97":2543527.0699999998,"ADDRESS":"中正路２１巷２９號","OBJECTID":363488},"geometry":{"x":168306.20999999996,"y":2543527.0700000022}},{"attributes":{"ID":363499,"DIS_CODE":0,"TOWNNAME":"南區","LI":"文南里","LIN":"13鄰","STREET":"育南街","SECT":" ","MAREA":" ","LANE":" ","ALLEY":" ","HOUSE_NO":"５１號","E_COORD97":166860.73999999999,"N_COORD97":2542687.6499999999,"ADDRESS":"育南街５１號","OBJECTID":363489},"geometry":{"x":166860.73999999929,"y":2542687.6499999985}},{"attributes":{"ID":363500,"DIS_CODE":0,"TOWNNAME":"南區","LI":"文南里","LIN":"13鄰","STREET":"育南街","SECT":" ","MAREA":" ","LANE":" ","ALLEY":" ","HOUSE_NO":"５３號","E_COORD97":166861.13,"N_COORD97":2542692.5899999999,"ADDRESS":"育南街５３號","OBJECTID":363490},"geometry":{"x":166861.12999999896,"y":2542692.5900000017}},{"attributes":{"ID":363501,"DIS_CODE":0,"TOWNNAME":"南區","LI":"文南里","LIN":"13鄰","STREET":"育南街","SECT":" ","MAREA":" ","LANE":" ","ALLEY":" ","HOUSE_NO":"５５號","E_COORD97":166862.26999999999,"N_COORD97":2542696.5800000001,"ADDRESS":"育南街５５號","OBJECTID":363491},"geometry":{"x":166862.27000000048,"y":2542696.5800000001}},{"attributes":{"ID":363502,"DIS_CODE":0,"TOWNNAME":"南區","LI":"文南里","LIN":"13鄰","STREET":"育南街","SECT":" ","MAREA":" ","LANE":" ","ALLEY":" ","HOUSE_NO":"５７號","E_COORD97":166862.26999999999,"N_COORD97":2542701.1400000001,"ADDRESS":"育南街５７號","OBJECTID":363492},"geometry":{"x":166862.27000000048,"y":2542701.1400000006}},{"attributes":{"ID":363503,"DIS_CODE":0,"TOWNNAME":"南區","LI":"文南里","LIN":"13鄰","STREET":"育南街","SECT":" ","MAREA":" ","LANE":" ","ALLEY":" ","HOUSE_NO":"５９號","E_COORD97":166862.84,"N_COORD97":2542705.7000000002,"ADDRESS":"育南街５９號","OBJECTID":363493},"geometry":{"x":166862.83999999985,"y":2542705.6999999993}},{"attributes":{"ID":363504,"DIS_CODE":0,"TOWNNAME":"南區","LI":"文南里","LIN":"13鄰","STREET":"育南街","SECT":" ","MAREA":" ","LANE":" ","ALLEY":" ","HOUSE_NO":"６０號","E_COORD97":166882.42999999999,"N_COORD97":2542704.9399999999,"ADDRESS":"育南街６０號","OBJECTID":363494},"geometry":{"x":166882.4299999997,"y":2542704.9399999995}},{"attributes":{"ID":363505,"DIS_CODE":0,"TOWNNAME":"南區","LI":"文南里","LIN":"13鄰","STREET":"育南街","SECT":" ","MAREA":" ","LANE":" ","ALLEY":" ","HOUSE_NO":"６１號","E_COORD97":166862.64999999999,"N_COORD97":2542709.8799999999,"ADDRESS":"育南街６１號","OBJECTID":363495},"geometry":{"x":166862.65000000037,"y":2542709.8800000008}},{"attributes":{"ID":363506,"DIS_CODE":0,"TOWNNAME":"南區","LI":"文南里","LIN":"13鄰","STREET":"育南街","SECT":" ","MAREA":" ","LANE":" ","ALLEY":" ","HOUSE_NO":"６２號","E_COORD97":166882.82000000001,"N_COORD97":2542710.2599999998,"ADDRESS":"育南街６２號","OBJECTID":363496},"geometry":{"x":166882.82000000123,"y":2542710.2600000035}},{"attributes":{"ID":363507,"DIS_CODE":0,"TOWNNAME":"南區","LI":"文南里","LIN":"13鄰","STREET":"育南街","SECT":" ","MAREA":" ","LANE":" ","ALLEY":" ","HOUSE_NO":"６３號","E_COORD97":166862.64999999999,"N_COORD97":2542715.0099999998,"ADDRESS":"育南街６３號","OBJECTID":363497},"geometry":{"x":166862.65000000037,"y":2542715.0099999979}},{"attributes":{"ID":363508,"DIS_CODE":0,"TOWNNAME":"仁德區","LI":"太子里","LIN":"46鄰","STREET":"太子一街","SECT":" ","MAREA":" ","LANE":"４３巷","ALLEY":" ","HOUSE_NO":"２２號","E_COORD97":174812.95999999999,"N_COORD97":2543305.2599999998,"ADDRESS":"太子一街４３巷２２號","OBJECTID":363498},"geometry":{"x":174812.96000000183,"y":2543305.2599999998}},{"attributes":{"ID":363509,"DIS_CODE":0,"TOWNNAME":"仁德區","LI":"太子里","LIN":"46鄰","STREET":"太子一街","SECT":" ","MAREA":" ","LANE":"４３巷","ALLEY":" ","HOUSE_NO":"７號","E_COORD97":174820.31,"N_COORD97":2543319.2599999998,"ADDRESS":"太子一街４３巷７號","OBJECTID":363499},"geometry":{"x":174820.31000000145,"y":2543319.2599999998}},{"attributes":{"ID":363510,"DIS_CODE":0,"TOWNNAME":"仁德區","LI":"太子里","LIN":"46鄰","STREET":"太子一街","SECT":" ","MAREA":" ","LANE":"４３巷","ALLEY":" ","HOUSE_NO":"４２號","E_COORD97":174856.98000000001,"N_COORD97":2543277.5,"ADDRESS":"太子一街４３巷４２號","OBJECTID":363500},"geometry":{"x":174856.98000000045,"y":2543277.5}},{"attributes":{"ID":363511,"DIS_CODE":0,"TOWNNAME":"永康區","LI":"二王里","LIN":"46鄰","STREET":"南工街","SECT":" ","MAREA":" ","LANE":"２１４巷","ALLEY":" ","HOUSE_NO":"２６號","E_COORD97":172050.48000000001,"N_COORD97":2546024.5,"ADDRESS":"南工街２１４巷２６號","OBJECTID":363501},"geometry":{"x":172050.48000000138,"y":2546024.5000000037}},{"attributes":{"ID":363512,"DIS_CODE":0,"TOWNNAME":"中西區","LI":"永華里","LIN":"19鄰","STREET":"中正路","SECT":" ","MAREA":" ","LANE":"２１巷","ALLEY":" ","HOUSE_NO":"３號","E_COORD97":168317.26999999999,"N_COORD97":2543588.9900000002,"ADDRESS":"中正路２１巷３號","OBJECTID":363502},"geometry":{"x":168317.26999999955,"y":2543588.9900000002}},{"attributes":{"ID":363513,"DIS_CODE":0,"TOWNNAME":"中西區","LI":"永華里","LIN":"19鄰","STREET":"中正路","SECT":" ","MAREA":" ","LANE":"２１巷","ALLEY":" ","HOUSE_NO":"５號","E_COORD97":168311.73999999999,"N_COORD97":2543584.0600000001,"ADDRESS":"中正路２１巷５號","OBJECTID":363503},"geometry":{"x":168311.74000000022,"y":2543584.0600000024}},{"attributes":{"ID":363514,"DIS_CODE":0,"TOWNNAME":"中西區","LI":"永華里","LIN":"19鄰","STREET":"中正路","SECT":" ","MAREA":" ","LANE":"２１巷","ALLEY":" ","HOUSE_NO":"７號","E_COORD97":168311.39999999999,"N_COORD97":2543580.46,"ADDRESS":"中正路２１巷７號","OBJECTID":363504},"geometry":{"x":168311.4000000013,"y":2543580.4600000009}},{"attributes":{"ID":363515,"DIS_CODE":0,"TOWNNAME":"中西區","LI":"赤嵌里","LIN":"19鄰","STREET":"忠義路","SECT":"二段","MAREA":" ","LANE":"２３３巷","ALLEY":" ","HOUSE_NO":"４０號","E_COORD97":168361.47,"N_COORD97":2544199.1699999999,"ADDRESS":"忠義路二段２３３巷４０號","OBJECTID":363505},"geometry":{"x":168361.47000000067,"y":2544199.1699999981}},{"attributes":{"ID":363516,"DIS_CODE":0,"TOWNNAME":"中西區","LI":"赤嵌里","LIN":"19鄰","STREET":"忠義路","SECT":"二段","MAREA":" ","LANE":"２３３巷","ALLEY":" ","HOUSE_NO":"４２號","E_COORD97":168360.88,"N_COORD97":2544191.23,"ADDRESS":"忠義路二段２３３巷４２號","OBJECTID":363506},"geometry":{"x":168360.87999999989,"y":2544191.2300000004}},{"attributes":{"ID":363517,"DIS_CODE":0,"TOWNNAME":"中西區","LI":"赤嵌里","LIN":"19鄰","STREET":"忠義路","SECT":"二段","MAREA":" ","LANE":"２３３巷","ALLEY":" ","HOUSE_NO":"４２號之１","E_COORD97":168359.41,"N_COORD97":2544187.3999999999,"ADDRESS":"忠義路二段２３３巷４２號之１","OBJECTID":363507},"geometry":{"x":168359.41000000015,"y":2544187.4000000004}},{"attributes":{"ID":363518,"DIS_CODE":0,"TOWNNAME":"中西區","LI":"赤嵌里","LIN":"19鄰","STREET":"忠義路","SECT":"二段","MAREA":" ","LANE":"２３３巷","ALLEY":" ","HOUSE_NO":"４６號","E_COORD97":168358.23000000001,"N_COORD97":2544184.46,"ADDRESS":"忠義路二段２３３巷４６號","OBJECTID":363508},"geometry":{"x":168358.23000000138,"y":2544184.4600000009}},{"attributes":{"ID":363519,"DIS_CODE":0,"TOWNNAME":"中西區","LI":"赤嵌里","LIN":"19鄰","STREET":"忠義路","SECT":"二段","MAREA":" ","LANE":"２３３巷","ALLEY":" ","HOUSE_NO":"４８號","E_COORD97":168355.88,"N_COORD97":2544182.1099999999,"ADDRESS":"忠義路二段２３３巷４８號","OBJECTID":363509},"geometry":{"x":168355.87999999989,"y":2544182.1100000031}},{"attributes":{"ID":363520,"DIS_CODE":0,"TOWNNAME":"南區","LI":"文華里","LIN":"13鄰","STREET":"美南街","SECT":" ","MAREA":" ","LANE":" ","ALLEY":" ","HOUSE_NO":"５０號","E_COORD97":166997.81,"N_COORD97":2543108.1200000001,"ADDRESS":"美南街５０號","OBJECTID":363510},"geometry":{"x":166997.81000000052,"y":2543108.120000001}},{"attributes":{"ID":363521,"DIS_CODE":0,"TOWNNAME":"中西區","LI":"赤嵌里","LIN":"19鄰","STREET":"忠義路","SECT":"二段","MAREA":" ","LANE":"２３３巷","ALLEY":" ","HOUSE_NO":"３０號","E_COORD97":168370.31,"N_COORD97":2544248.6299999999,"ADDRESS":"忠義路二段２３３巷３０號","OBJECTID":363511},"geometry":{"x":168370.31000000052,"y":2544248.629999999}},{"attributes":{"ID":363522,"DIS_CODE":0,"TOWNNAME":"中西區","LI":"赤嵌里","LIN":"19鄰","STREET":"忠義路","SECT":"二段","MAREA":" ","LANE":"２３３巷","ALLEY":" ","HOUSE_NO":"３２號","E_COORD97":168368.25,"N_COORD97":2544245.1000000001,"ADDRESS":"忠義路二段２３３巷３２號","OBJECTID":363512},"geometry":{"x":168368.25000000093,"y":2544245.1000000015}},{"attributes":{"ID":363523,"DIS_CODE":0,"TOWNNAME":"中西區","LI":"赤嵌里","LIN":"19鄰","STREET":"忠義路","SECT":"二段","MAREA":" ","LANE":"２３３巷","ALLEY":" ","HOUSE_NO":"３４號","E_COORD97":168367.95999999999,"N_COORD97":2544241.8700000001,"ADDRESS":"忠義路二段２３３巷３４號","OBJECTID":363513},"geometry":{"x":168367.96000000089,"y":2544241.870000001}},{"attributes":{"ID":363524,"DIS_CODE":0,"TOWNNAME":"永康區","LI":"復興里","LIN":"19鄰","STREET":"復興路","SECT":" ","MAREA":" ","LANE":"３５６巷","ALLEY":" ","HOUSE_NO":"３０號","E_COORD97":172284.79000000001,"N_COORD97":2544419.77,"ADDRESS":"復興路３５６巷３０號","OBJECTID":363514},"geometry":{"x":172284.78999999911,"y":2544419.7700000014}},{"attributes":{"ID":363525,"DIS_CODE":0,"TOWNNAME":"永康區","LI":"網寮里","LIN":"19鄰","STREET":"永二街","SECT":" ","MAREA":" ","LANE":"２２９巷","ALLEY":" ","HOUSE_NO":"９號","E_COORD97":173443.29000000001,"N_COORD97":2546242.1200000001,"ADDRESS":"永二街２２９巷９號","OBJECTID":363515},"geometry":{"x":173443.29000000097,"y":2546242.1200000029}},{"attributes":{"ID":363526,"DIS_CODE":0,"TOWNNAME":"永康區","LI":"\u25A0行里","LIN":"19鄰","STREET":"中正路","SECT":" ","MAREA":" ","LANE":"６３５巷","ALLEY":" ","HOUSE_NO":"３３號","E_COORD97":171671.39000000001,"N_COORD97":2548817.8300000001,"ADDRESS":"中正路６３５巷３３號","OBJECTID":363516},"geometry":{"x":171671.38999999966,"y":2548817.8300000001}},{"attributes":{"ID":363527,"DIS_CODE":0,"TOWNNAME":"永康區","LI":"\u25A0行里","LIN":"19鄰","STREET":"中正南路","SECT":" ","MAREA":" ","LANE":"６９２巷","ALLEY":" ","HOUSE_NO":"７號","E_COORD97":171709.5,"N_COORD97":2548840.2400000002,"ADDRESS":"中正南路６９２巷７號","OBJECTID":363517},"geometry":{"x":171709.50000000093,"y":2548840.2400000002}},{"attributes":{"ID":363528,"DIS_CODE":0,"TOWNNAME":"永康區","LI":"網寮里","LIN":"19鄰","STREET":"永二街","SECT":" ","MAREA":" ","LANE":"２２９巷","ALLEY":" ","HOUSE_NO":"１４號","E_COORD97":173457.35999999999,"N_COORD97":2546260.3599999999,"ADDRESS":"永二街２２９巷１４號","OBJECTID":363518},"geometry":{"x":173457.36000000034,"y":2546260.3600000013}},{"attributes":{"ID":363529,"DIS_CODE":0,"TOWNNAME":"永康區","LI":"網寮里","LIN":"19鄰","STREET":"永二街","SECT":" ","MAREA":" ","LANE":"２２９巷","ALLEY":" ","HOUSE_NO":"６號","E_COORD97":173425.20999999999,"N_COORD97":2546236.25,"ADDRESS":"永二街２２９巷６號","OBJECTID":363519},"geometry":{"x":173425.21000000089,"y":2546236.2499999981}},{"attributes":{"ID":363530,"DIS_CODE":0,"TOWNNAME":"永康區","LI":"\u25A0行里","LIN":"19鄰","STREET":"中正南路","SECT":" ","MAREA":" ","LANE":"６９２巷","ALLEY":" ","HOUSE_NO":"１３號","E_COORD97":171762.38,"N_COORD97":2548812.5,"ADDRESS":"中正南路６９２巷１３號","OBJECTID":363520},"geometry":{"x":171762.38000000082,"y":2548812.5000000019}},{"attributes":{"ID":363531,"DIS_CODE":0,"TOWNNAME":"永康區","LI":"埔園里","LIN":"19鄰","STREET":"四維街","SECT":" ","MAREA":" ","LANE":"１４０巷","ALLEY":" ","HOUSE_NO":"３３號","E_COORD97":173403.79000000001,"N_COORD97":2548307,"ADDRESS":"四維街１４０巷３３號","OBJECTID":363521},"geometry":{"x":173403.7900000019,"y":2548307.0000000019}},{"attributes":{"ID":363532,"DIS_CODE":0,"TOWNNAME":"中西區","LI":"小西里","LIN":"6鄰","STREET":"府前路","SECT":"一段","MAREA":" ","LANE":"３７１巷","ALLEY":" ","HOUSE_NO":"５８號","E_COORD97":167849.26999999999,"N_COORD97":2543295.25,"ADDRESS":"府前路一段３７１巷５８號","OBJECTID":363522},"geometry":{"x":167849.26999999955,"y":2543295.2500000019}},{"attributes":{"ID":363533,"DIS_CODE":0,"TOWNNAME":"南區","LI":"文南里","LIN":"13鄰","STREET":"育南街","SECT":" ","MAREA":" ","LANE":" ","ALLEY":" ","HOUSE_NO":"６４號","E_COORD97":166883.38,"N_COORD97":2542714.0600000001,"ADDRESS":"育南街６４號","OBJECTID":363523},"geometry":{"x":166883.38000000175,"y":2542714.0600000005}},{"attributes":{"ID":363534,"DIS_CODE":0,"TOWNNAME":"南區","LI":"文南里","LIN":"13鄰","STREET":"育南街","SECT":" ","MAREA":" ","LANE":" ","ALLEY":" ","HOUSE_NO":"６９號","E_COORD97":166863.79000000001,"N_COORD97":2542728.1200000001,"ADDRESS":"育南街６９號","OBJECTID":363524},"geometry":{"x":166863.7900000019,"y":2542728.120000001}},{"attributes":{"ID":363535,"DIS_CODE":0,"TOWNNAME":"南區","LI":"文南里","LIN":"13鄰","STREET":"育南街","SECT":" ","MAREA":" ","LANE":" ","ALLEY":" ","HOUSE_NO":"７１號","E_COORD97":166862.64999999999,"N_COORD97":2542734.8700000001,"ADDRESS":"育南街７１號","OBJECTID":363525},"geometry":{"x":166862.65000000037,"y":2542734.8700000029}},{"attributes":{"ID":363536,"DIS_CODE":0,"TOWNNAME":"南區","LI":"文南里","LIN":"13鄰","STREET":"健康路","SECT":"二段","MAREA":" ","LANE":" ","ALLEY":" ","HOUSE_NO":"２７８號","E_COORD97":166895.54000000001,"N_COORD97":2542509.3300000001,"ADDRESS":"健康路二段２７８號","OBJECTID":363526},"geometry":{"x":166895.54000000004,"y":2542509.3300000001}},{"attributes":{"ID":363537,"DIS_CODE":0,"TOWNNAME":"北區","LI":"三德里","LIN":"5鄰","STREET":"裕民街","SECT":" ","MAREA":" ","LANE":" ","ALLEY":" ","HOUSE_NO":"５８號","E_COORD97":168484.54999999999,"N_COORD97":2544476.52,"ADDRESS":"裕民街５８號","OBJECTID":363527},"geometry":{"x":168484.55000000075,"y":2544476.5199999996}},{"attributes":{"ID":363538,"DIS_CODE":0,"TOWNNAME":"官田區","LI":"官田里","LIN":"29鄰","STREET":" ","SECT":" ","MAREA":"中\u25A0","LANE":" ","ALLEY":" ","HOUSE_NO":"３６號","E_COORD97":183437.10999999999,"N_COORD97":2566542.02,"ADDRESS":"中\u25A0３６號","OBJECTID":363528},"geometry":{"x":183437.11000000034,"y":2566542.0199999996}},{"attributes":{"ID":363539,"DIS_CODE":0,"TOWNNAME":"歸仁區","LI":"辜厝里","LIN":"46鄰","STREET":"中正八街","SECT":" ","MAREA":" ","LANE":"１１巷","ALLEY":" ","HOUSE_NO":"５號","E_COORD97":177131.48999999999,"N_COORD97":2540266.9500000002,"ADDRESS":"中正八街１１巷５號","OBJECTID":363529},"geometry":{"x":177131.49000000022,"y":2540266.9499999993}},{"attributes":{"ID":363540,"DIS_CODE":0,"TOWNNAME":"官田區","LI":"官田里","LIN":"29鄰","STREET":" ","SECT":" ","MAREA":"中\u25A0","LANE":" ","ALLEY":" ","HOUSE_NO":"３７號","E_COORD97":183440.72,"N_COORD97":2566568.98,"ADDRESS":"中\u25A0３７號","OBJECTID":363530},"geometry":{"x":183440.71999999974,"y":2566568.9800000023}},{"attributes":{"ID":363541,"DIS_CODE":0,"TOWNNAME":"官田區","LI":"官田里","LIN":"29鄰","STREET":" ","SECT":" ","MAREA":"中\u25A0","LANE":" ","ALLEY":" ","HOUSE_NO":"３８號","E_COORD97":183443.85000000001,"N_COORD97":2566592.25,"ADDRESS":"中\u25A0３８號","OBJECTID":363531},"geometry":{"x":183443.85000000056,"y":2566592.2500000037}},{"attributes":{"ID":363542,"DIS_CODE":0,"TOWNNAME":"官田區","LI":"官田里","LIN":"29鄰","STREET":" ","SECT":" ","MAREA":"中\u25A0","LANE":" ","ALLEY":" ","HOUSE_NO":"３９號","E_COORD97":183474.63,"N_COORD97":2566674.6200000001,"ADDRESS":"中\u25A0３９號","OBJECTID":363532},"geometry":{"x":183474.63000000082,"y":2566674.620000001}},{"attributes":{"ID":363543,"DIS_CODE":0,"TOWNNAME":"官田區","LI":"官田里","LIN":"29鄰","STREET":" ","SECT":" ","MAREA":"中\u25A0","LANE":" ","ALLEY":" ","HOUSE_NO":"４１號","E_COORD97":183492.48000000001,"N_COORD97":2566593.0600000001,"ADDRESS":"中\u25A0４１號","OBJECTID":363533},"geometry":{"x":183492.48000000045,"y":2566593.0600000005}},{"attributes":{"ID":363544,"DIS_CODE":0,"TOWNNAME":"官田區","LI":"官田里","LIN":"29鄰","STREET":" ","SECT":" ","MAREA":"中\u25A0","LANE":" ","ALLEY":" ","HOUSE_NO":"４３號","E_COORD97":183478.48000000001,"N_COORD97":2566554.5,"ADDRESS":"中\u25A0４３號","OBJECTID":363534},"geometry":{"x":183478.48000000045,"y":2566554.5000000019}},{"attributes":{"ID":363545,"DIS_CODE":0,"TOWNNAME":"官田區","LI":"官田里","LIN":"29鄰","STREET":" ","SECT":" ","MAREA":"中\u25A0","LANE":" ","ALLEY":" ","HOUSE_NO":"４４號","E_COORD97":183493.92000000001,"N_COORD97":2566576.3599999999,"ADDRESS":"中\u25A0４４號","OBJECTID":363535},"geometry":{"x":183493.91999999993,"y":2566576.3599999994}},{"attributes":{"ID":363546,"DIS_CODE":0,"TOWNNAME":"永康區","LI":"正強里","LIN":"46鄰","STREET":"中正路","SECT":" ","MAREA":" ","LANE":"２５６巷","ALLEY":" ","HOUSE_NO":"９號之５７","E_COORD97":173207.14000000001,"N_COORD97":2547991.8799999999,"ADDRESS":"中正路２５６巷９號之５７","OBJECTID":363536},"geometry":{"x":173207.13999999966,"y":2547991.8800000008}},{"attributes":{"ID":363547,"DIS_CODE":0,"TOWNNAME":"永康區","LI":"正強里","LIN":"46鄰","STREET":"中正路","SECT":" ","MAREA":" ","LANE":"２５６巷","ALLEY":" ","HOUSE_NO":"９號之４２","E_COORD97":173207.19,"N_COORD97":2547991.8799999999,"ADDRESS":"中正路２５６巷９號之４２","OBJECTID":363537},"geometry":{"x":173207.19000000134,"y":2547991.8800000008}},{"attributes":{"ID":363548,"DIS_CODE":0,"TOWNNAME":"中西區","LI":"小西里","LIN":"6鄰","STREET":"府前路","SECT":"一段","MAREA":" ","LANE":"３７１巷","ALLEY":" ","HOUSE_NO":"６０號","E_COORD97":167845.07000000001,"N_COORD97":2543296.6499999999,"ADDRESS":"府前路一段３７１巷６０號","OBJECTID":363538},"geometry":{"x":167845.0700000003,"y":2543296.6500000004}},{"attributes":{"ID":363549,"DIS_CODE":0,"TOWNNAME":"安南區","LI":"大安里","LIN":"19鄰","STREET":"安通路","SECT":"五段","MAREA":" ","LANE":"２３０巷","ALLEY":" ","HOUSE_NO":"１６０號之３","E_COORD97":167787.61745300001,"N_COORD97":2548040.4219200001,"ADDRESS":"安通路五段２３０巷１６０號之３","OBJECTID":363539},"geometry":{"x":167787.61745300051,"y":2548040.4219200015}},{"attributes":{"ID":363550,"DIS_CODE":0,"TOWNNAME":"中西區","LI":"大涼里","LIN":"19鄰","STREET":"中華西路","SECT":"二段","MAREA":" ","LANE":"２００巷","ALLEY":" ","HOUSE_NO":"２５號","E_COORD97":166655.23000000001,"N_COORD97":2544080.46,"ADDRESS":"中華西路二段２００巷２５號","OBJECTID":363540},"geometry":{"x":166655.23000000045,"y":2544080.4600000028}},{"attributes":{"ID":363551,"DIS_CODE":0,"TOWNNAME":"中西區","LI":"大涼里","LIN":"19鄰","STREET":"中華西路","SECT":"二段","MAREA":" ","LANE":"２００巷","ALLEY":" ","HOUSE_NO":"２７號","E_COORD97":166659.78,"N_COORD97":2544082.3700000001,"ADDRESS":"中華西路二段２００巷２７號","OBJECTID":363541},"geometry":{"x":166659.78000000026,"y":2544082.370000001}},{"attributes":{"ID":363552,"DIS_CODE":0,"TOWNNAME":"中西區","LI":"大涼里","LIN":"19鄰","STREET":"中華西路","SECT":"二段","MAREA":" ","LANE":"２００巷","ALLEY":" ","HOUSE_NO":"２９號","E_COORD97":166666.72,"N_COORD97":2544084.04,"ADDRESS":"中華西路二段２００巷２９號","OBJECTID":363542},"geometry":{"x":166666.71999999974,"y":2544084.0400000028}},{"attributes":{"ID":363553,"DIS_CODE":0,"TOWNNAME":"中西區","LI":"大涼里","LIN":"19鄰","STREET":"中華西路","SECT":"二段","MAREA":" ","LANE":"２００巷","ALLEY":" ","HOUSE_NO":"３１號","E_COORD97":166672.31,"N_COORD97":2544124.2999999998,"ADDRESS":"中華西路二段２００巷３１號","OBJECTID":363543},"geometry":{"x":166672.31000000052,"y":2544124.3000000007}},{"attributes":{"ID":363554,"DIS_CODE":0,"TOWNNAME":"南區","LI":"文南里","LIN":"13鄰","STREET":"健康路","SECT":"二段","MAREA":" ","LANE":" ","ALLEY":" ","HOUSE_NO":"２８０號","E_COORD97":166890.82999999999,"N_COORD97":2542509.8599999999,"ADDRESS":"健康路二段２８０號","OBJECTID":363544},"geometry":{"x":166890.83000000101,"y":2542509.8600000013}},{"attributes":{"ID":363555,"DIS_CODE":0,"TOWNNAME":"南區","LI":"文南里","LIN":"13鄰","STREET":"健康路","SECT":"二段","MAREA":" ","LANE":" ","ALLEY":" ","HOUSE_NO":"３１８號","E_COORD97":166818.12,"N_COORD97":2542519.48,"ADDRESS":"健康路二段３１８號","OBJECTID":363545},"geometry":{"x":166818.12000000104,"y":2542519.4800000042}},{"attributes":{"ID":363556,"DIS_CODE":0,"TOWNNAME":"南區","LI":"文華里","LIN":"13鄰","STREET":"美南街","SECT":" ","MAREA":" ","LANE":" ","ALLEY":" ","HOUSE_NO":"４６號","E_COORD97":167005.63,"N_COORD97":2543107.5,"ADDRESS":"美南街４６號","OBJECTID":363546},"geometry":{"x":167005.63000000082,"y":2543107.5}},{"attributes":{"ID":363557,"DIS_CODE":0,"TOWNNAME":"官田區","LI":"官田里","LIN":"29鄰","STREET":" ","SECT":" ","MAREA":"中\u25A0","LANE":" ","ALLEY":" ","HOUSE_NO":"４５號之２","E_COORD97":183491.79000000001,"N_COORD97":2566532.9500000002,"ADDRESS":"中\u25A0４５號之２","OBJECTID":363547},"geometry":{"x":183491.7900000019,"y":2566532.9500000011}},{"attributes":{"ID":363558,"DIS_CODE":0,"TOWNNAME":"南區","LI":"文華里","LIN":"13鄰","STREET":"文南路","SECT":" ","MAREA":" ","LANE":" ","ALLEY":" ","HOUSE_NO":"３２０號","E_COORD97":166980.75,"N_COORD97":2543112.79,"ADDRESS":"文南路３２０號","OBJECTID":363548},"geometry":{"x":166980.75,"y":2543112.7900000028}},{"attributes":{"ID":363559,"DIS_CODE":0,"TOWNNAME":"官田區","LI":"官田里","LIN":"29鄰","STREET":" ","SECT":" ","MAREA":"中\u25A0","LANE":" ","ALLEY":" ","HOUSE_NO":"４５號","E_COORD97":183492.91,"N_COORD97":2566547.23,"ADDRESS":"中\u25A0４５號","OBJECTID":363549},"geometry":{"x":183492.91000000201,"y":2566547.2300000004}},{"attributes":{"ID":363560,"DIS_CODE":0,"TOWNNAME":"柳營區","LI":"重溪里","LIN":"11鄰","STREET":" ","SECT":" ","MAREA":"小腳腿","LANE":" ","ALLEY":" ","HOUSE_NO":"１１４號之１","E_COORD97":185203.85000000001,"N_COORD97":2576801.9399999999,"ADDRESS":"小腳腿１１４號之１","OBJECTID":363550},"geometry":{"x":185203.85000000056,"y":2576801.9399999995}},{"attributes":{"ID":363561,"DIS_CODE":0,"TOWNNAME":"西港區","LI":"永樂里","LIN":"11鄰","STREET":" ","SECT":" ","MAREA":"大塭寮","LANE":" ","ALLEY":" ","HOUSE_NO":"９７號","E_COORD97":165734.84,"N_COORD97":2556229.02,"ADDRESS":"大塭寮９７號","OBJECTID":363551},"geometry":{"x":165734.84000000078,"y":2556229.0200000033}},{"attributes":{"ID":363562,"DIS_CODE":0,"TOWNNAME":"中西區","LI":"大涼里","LIN":"19鄰","STREET":"中華西路","SECT":"二段","MAREA":" ","LANE":"２００巷","ALLEY":" ","HOUSE_NO":"３３號","E_COORD97":166674.85000000001,"N_COORD97":2544087.3900000001,"ADDRESS":"中華西路二段２００巷３３號","OBJECTID":363552},"geometry":{"x":166674.85000000056,"y":2544087.3900000025}},{"attributes":{"ID":363563,"DIS_CODE":0,"TOWNNAME":"中西區","LI":"小西里","LIN":"8鄰","STREET":"西門路","SECT":"一段","MAREA":" ","LANE":"６７６巷","ALLEY":" ","HOUSE_NO":"５號","E_COORD97":167771.04999999999,"N_COORD97":2543309.6600000001,"ADDRESS":"西門路一段６７６巷５號","OBJECTID":363553},"geometry":{"x":167771.05000000075,"y":2543309.6600000001}},{"attributes":{"ID":363564,"DIS_CODE":0,"TOWNNAME":"安南區","LI":"\u25A0田里","LIN":"2鄰","STREET":"\u25A0田路","SECT":" ","MAREA":" ","LANE":" ","ALLEY":" ","HOUSE_NO":"１１５號","E_COORD97":162514.67999999999,"N_COORD97":2548250.7200000002,"ADDRESS":"\u25A0田路１１５號","OBJECTID":363554},"geometry":{"x":162514.68000000063,"y":2548250.7200000007}},{"attributes":{"ID":363565,"DIS_CODE":0,"TOWNNAME":"安南區","LI":"\u25A0田里","LIN":"2鄰","STREET":"\u25A0田路","SECT":" ","MAREA":" ","LANE":" ","ALLEY":" ","HOUSE_NO":"１１７之１號","E_COORD97":162505.47,"N_COORD97":2548245,"ADDRESS":"\u25A0田路１１７之１號","OBJECTID":363555},"geometry":{"x":162505.4700000016,"y":2548244.9999999981}},{"attributes":{"ID":363566,"DIS_CODE":0,"TOWNNAME":"安南區","LI":"\u25A0田里","LIN":"2鄰","STREET":"\u25A0田路","SECT":" ","MAREA":" ","LANE":" ","ALLEY":" ","HOUSE_NO":"１１７號","E_COORD97":162510.07000000001,"N_COORD97":2548247.54,"ADDRESS":"\u25A0田路１１７號","OBJECTID":363556},"geometry":{"x":162510.0700000003,"y":2548247.5400000028}},{"attributes":{"ID":363567,"DIS_CODE":0,"TOWNNAME":"安南區","LI":"\u25A0田里","LIN":"2鄰","STREET":"\u25A0田路","SECT":" ","MAREA":" ","LANE":" ","ALLEY":" ","HOUSE_NO":"１２７號","E_COORD97":162494.35000000001,"N_COORD97":2548239.1299999999,"ADDRESS":"\u25A0田路１２７號","OBJECTID":363557},"geometry":{"x":162494.35000000149,"y":2548239.129999999}},{"attributes":{"ID":363568,"DIS_CODE":0,"TOWNNAME":"安南區","LI":"\u25A0田里","LIN":"2鄰","STREET":"\u25A0田路","SECT":" ","MAREA":" ","LANE":" ","ALLEY":" ","HOUSE_NO":"１２９號","E_COORD97":162488.79999999999,"N_COORD97":2548236.9100000001,"ADDRESS":"\u25A0田路１２９號","OBJECTID":363558},"geometry":{"x":162488.80000000075,"y":2548236.910000002}},{"attributes":{"ID":363569,"DIS_CODE":0,"TOWNNAME":"安南區","LI":"\u25A0田里","LIN":"2鄰","STREET":"\u25A0田路","SECT":" ","MAREA":" ","LANE":" ","ALLEY":" ","HOUSE_NO":"１３３號","E_COORD97":162468,"N_COORD97":2548225.3199999998,"ADDRESS":"\u25A0田路１３３號","OBJECTID":363559},"geometry":{"x":162468,"y":2548225.3200000003}},{"attributes":{"ID":363570,"DIS_CODE":0,"TOWNNAME":"安南區","LI":"\u25A0田里","LIN":"2鄰","STREET":"\u25A0田路","SECT":" ","MAREA":" ","LANE":" ","ALLEY":" ","HOUSE_NO":"１３５號","E_COORD97":162462.13,"N_COORD97":2548223.5699999998,"ADDRESS":"\u25A0田路１３５號","OBJECTID":363560},"geometry":{"x":162462.12999999896,"y":2548223.5700000003}},{"attributes":{"ID":363571,"DIS_CODE":0,"TOWNNAME":"安南區","LI":"\u25A0田里","LIN":"2鄰","STREET":"\u25A0田路","SECT":" ","MAREA":" ","LANE":" ","ALLEY":" ","HOUSE_NO":"１３７號","E_COORD97":162456.89000000001,"N_COORD97":2548221.0299999998,"ADDRESS":"\u25A0田路１３７號","OBJECTID":363561},"geometry":{"x":162456.89000000153,"y":2548221.0300000012}},{"attributes":{"ID":363572,"DIS_CODE":0,"TOWNNAME":"安南區","LI":"\u25A0田里","LIN":"2鄰","STREET":"\u25A0田路","SECT":" ","MAREA":" ","LANE":" ","ALLEY":" ","HOUSE_NO":"１３９號","E_COORD97":162449.10999999999,"N_COORD97":2548217.8599999999,"ADDRESS":"\u25A0田路１３９號","OBJECTID":363562},"geometry":{"x":162449.11000000034,"y":2548217.8599999994}},{"attributes":{"ID":363573,"DIS_CODE":0,"TOWNNAME":"永康區","LI":"\u25A0行里","LIN":"19鄰","STREET":"正南五街","SECT":" ","MAREA":" ","LANE":"５２０巷","ALLEY":" ","HOUSE_NO":"２１號","E_COORD97":171642.56,"N_COORD97":2548790.5,"ADDRESS":"正南五街５２０巷２１號","OBJECTID":363563},"geometry":{"x":171642.56000000052,"y":2548790.5}},{"attributes":{"ID":363574,"DIS_CODE":0,"TOWNNAME":"永康區","LI":"網寮里","LIN":"19鄰","STREET":"永二街","SECT":" ","MAREA":" ","LANE":"２２９巷","ALLEY":" ","HOUSE_NO":"８號","E_COORD97":173432.91,"N_COORD97":2546231.5,"ADDRESS":"永二街２２９巷８號","OBJECTID":363564},"geometry":{"x":173432.91000000015,"y":2546231.5000000037}},{"attributes":{"ID":363575,"DIS_CODE":0,"TOWNNAME":"永康區","LI":"埔園里","LIN":"19鄰","STREET":"四維街","SECT":" ","MAREA":" ","LANE":"１４０巷","ALLEY":" ","HOUSE_NO":"３９號","E_COORD97":173407.87,"N_COORD97":2548295,"ADDRESS":"四維街１４０巷３９號","OBJECTID":363565},"geometry":{"x":173407.87000000011,"y":2548295}},{"attributes":{"ID":363576,"DIS_CODE":0,"TOWNNAME":"永康區","LI":"勝利里","LIN":"19鄰","STREET":"勝利街","SECT":" ","MAREA":" ","LANE":"１９７巷","ALLEY":" ","HOUSE_NO":"１４號","E_COORD97":171295.01999999999,"N_COORD97":2545138.25,"ADDRESS":"勝利街１９７巷１４號","OBJECTID":363566},"geometry":{"x":171295.02000000048,"y":2545138.2500000037}},{"attributes":{"ID":363577,"DIS_CODE":0,"TOWNNAME":"永康區","LI":"網寮里","LIN":"19鄰","STREET":"永二街","SECT":" ","MAREA":" ","LANE":"２１５巷","ALLEY":" ","HOUSE_NO":"６號","E_COORD97":173434.67999999999,"N_COORD97":2546258.4199999999,"ADDRESS":"永二街２１５巷６號","OBJECTID":363567},"geometry":{"x":173434.68000000156,"y":2546258.4199999999}},{"attributes":{"ID":363578,"DIS_CODE":0,"TOWNNAME":"永康區","LI":"崑山里","LIN":"19鄰","STREET":"崑山街","SECT":" ","MAREA":" ","LANE":"５巷","ALLEY":" ","HOUSE_NO":"９號","E_COORD97":173859.67999999999,"N_COORD97":2544513.2999999998,"ADDRESS":"崑山街５巷９號","OBJECTID":363568},"geometry":{"x":173859.6799999997,"y":2544513.3000000007}},{"attributes":{"ID":363579,"DIS_CODE":0,"TOWNNAME":"永康區","LI":"\u25A0行里","LIN":"19鄰","STREET":"正南五街","SECT":" ","MAREA":" ","LANE":"５２０巷","ALLEY":" ","HOUSE_NO":"５１號","E_COORD97":171700.66,"N_COORD97":2548796.5800000001,"ADDRESS":"正南五街５２０巷５１號","OBJECTID":363569},"geometry":{"x":171700.66000000015,"y":2548796.5800000001}},{"attributes":{"ID":363580,"DIS_CODE":0,"TOWNNAME":"中西區","LI":"小西里","LIN":"13鄰","STREET":"府前路","SECT":"一段","MAREA":" ","LANE":"３５９巷","ALLEY":" ","HOUSE_NO":"４號","E_COORD97":167879.01000000001,"N_COORD97":2543355.6400000001,"ADDRESS":"府前路一段３５９巷４號","OBJECTID":363570},"geometry":{"x":167879.01000000164,"y":2543355.6400000006}},{"attributes":{"ID":363581,"DIS_CODE":0,"TOWNNAME":"中西區","LI":"小西里","LIN":"13鄰","STREET":"府前路","SECT":"一段","MAREA":" ","LANE":"３５９巷","ALLEY":" ","HOUSE_NO":"６號","E_COORD97":167885.89000000001,"N_COORD97":2543351.6699999999,"ADDRESS":"府前路一段３５９巷６號","OBJECTID":363571},"geometry":{"x":167885.88999999966,"y":2543351.6700000037}},{"attributes":{"ID":363582,"DIS_CODE":0,"TOWNNAME":"歸仁區","LI":"後市里","LIN":"43鄰","STREET":"中山八街","SECT":" ","MAREA":" ","LANE":"１５巷","ALLEY":" ","HOUSE_NO":"２８號","E_COORD97":177167.57999999999,"N_COORD97":2540981.7400000002,"ADDRESS":"中山八街１５巷２８號","OBJECTID":363572},"geometry":{"x":177167.58000000101,"y":2540981.7400000039}},{"attributes":{"ID":363583,"DIS_CODE":0,"TOWNNAME":"歸仁區","LI":"後市里","LIN":"43鄰","STREET":"中山八街","SECT":" ","MAREA":" ","LANE":"１５巷","ALLEY":" ","HOUSE_NO":"１０號","E_COORD97":177204.48000000001,"N_COORD97":2540978.7400000002,"ADDRESS":"中山八街１５巷１０號","OBJECTID":363573},"geometry":{"x":177204.48000000045,"y":2540978.7400000021}},{"attributes":{"ID":363584,"DIS_CODE":0,"TOWNNAME":"歸仁區","LI":"後市里","LIN":"43鄰","STREET":"中山八街","SECT":" ","MAREA":" ","LANE":"１５巷","ALLEY":" ","HOUSE_NO":"１６號","E_COORD97":177193.17999999999,"N_COORD97":2540979.7400000002,"ADDRESS":"中山八街１５巷１６號","OBJECTID":363574},"geometry":{"x":177193.18000000063,"y":2540979.7400000021}},{"attributes":{"ID":363585,"DIS_CODE":0,"TOWNNAME":"歸仁區","LI":"後市里","LIN":"43鄰","STREET":"中山八街","SECT":" ","MAREA":" ","LANE":"１５巷","ALLEY":" ","HOUSE_NO":"２號","E_COORD97":177216.53,"N_COORD97":2540977.7400000002,"ADDRESS":"中山八街１５巷２號","OBJECTID":363575},"geometry":{"x":177216.53000000212,"y":2540977.7400000002}},{"attributes":{"ID":363586,"DIS_CODE":0,"TOWNNAME":"仁德區","LI":"太子里","LIN":"43鄰","STREET":"太子路","SECT":" ","MAREA":" ","LANE":"３１巷","ALLEY":" ","HOUSE_NO":"３７號","E_COORD97":175311.48000000001,"N_COORD97":2543266,"ADDRESS":"太子路３１巷３７號","OBJECTID":363576},"geometry":{"x":175311.48000000045,"y":2543266.0000000019}},{"attributes":{"ID":363587,"DIS_CODE":0,"TOWNNAME":"仁德區","LI":"太子里","LIN":"43鄰","STREET":"太子路","SECT":" ","MAREA":" ","LANE":"３１巷","ALLEY":" ","HOUSE_NO":"２０號","E_COORD97":175291.35000000001,"N_COORD97":2543388.25,"ADDRESS":"太子路３１巷２０號","OBJECTID":363577},"geometry":{"x":175291.35000000149,"y":2543388.25}},{"attributes":{"ID":363588,"DIS_CODE":0,"TOWNNAME":"仁德區","LI":"太子里","LIN":"43鄰","STREET":"太子路","SECT":" ","MAREA":" ","LANE":"３１巷","ALLEY":" ","HOUSE_NO":"５３號","E_COORD97":175271.64999999999,"N_COORD97":2543150,"ADDRESS":"太子路３１巷５３號","OBJECTID":363578},"geometry":{"x":175271.6500000013,"y":2543150.0000000019}},{"attributes":{"ID":363589,"DIS_CODE":0,"TOWNNAME":"仁德區","LI":"仁義里","LIN":"43鄰","STREET":"中正路","SECT":"二段","MAREA":" ","LANE":"９９４巷","ALLEY":" ","HOUSE_NO":"３７號","E_COORD97":173518.82000000001,"N_COORD97":2540820.2799999998,"ADDRESS":"中正路二段９９４巷３７號","OBJECTID":363579},"geometry":{"x":173518.8200000003,"y":2540820.2799999993}},{"attributes":{"ID":363590,"DIS_CODE":0,"TOWNNAME":"仁德區","LI":"太子里","LIN":"43鄰","STREET":"太子路","SECT":" ","MAREA":" ","LANE":"１０１巷","ALLEY":" ","HOUSE_NO":"５５之１號","E_COORD97":174931.13,"N_COORD97":2543425.5899999999,"ADDRESS":"太子路１０１巷５５之１號","OBJECTID":363580},"geometry":{"x":174931.13000000082,"y":2543425.5899999999}},{"attributes":{"ID":363591,"DIS_CODE":0,"TOWNNAME":"仁德區","LI":"太子里","LIN":"43鄰","STREET":"太子路","SECT":" ","MAREA":" ","LANE":"１０１巷","ALLEY":" ","HOUSE_NO":"４７號","E_COORD97":174932.54000000001,"N_COORD97":2543468.25,"ADDRESS":"太子路１０１巷４７號","OBJECTID":363581},"geometry":{"x":174932.54000000004,"y":2543468.25}},{"attributes":{"ID":363592,"DIS_CODE":0,"TOWNNAME":"仁德區","LI":"太子里","LIN":"43鄰","STREET":"太子路","SECT":" ","MAREA":" ","LANE":"１０１巷","ALLEY":" ","HOUSE_NO":"５３之１號","E_COORD97":174932.91,"N_COORD97":2543440.5899999999,"ADDRESS":"太子路１０１巷５３之１號","OBJECTID":363582},"geometry":{"x":174932.91000000108,"y":2543440.5900000036}},{"attributes":{"ID":363593,"DIS_CODE":0,"TOWNNAME":"仁德區","LI":"太子里","LIN":"43鄰","STREET":"太子路","SECT":" ","MAREA":" ","LANE":"１０１巷","ALLEY":" ","HOUSE_NO":"３７號","E_COORD97":174950.17999999999,"N_COORD97":2543466.75,"ADDRESS":"太子路１０１巷３７號","OBJECTID":363583},"geometry":{"x":174950.18000000156,"y":2543466.7500000037}},{"attributes":{"ID":363594,"DIS_CODE":0,"TOWNNAME":"仁德區","LI":"仁德里","LIN":"43鄰","STREET":"中山路","SECT":" ","MAREA":" ","LANE":"９１０巷","ALLEY":" ","HOUSE_NO":"２７號","E_COORD97":171995.01000000001,"N_COORD97":2541814.2400000002,"ADDRESS":"中山路９１０巷２７號","OBJECTID":363584},"geometry":{"x":171995.01000000164,"y":2541814.2400000002}},{"attributes":{"ID":363595,"DIS_CODE":0,"TOWNNAME":"南區","LI":"新興里","LIN":"19鄰","STREET":"新興路","SECT":" ","MAREA":" ","LANE":"１９２巷","ALLEY":" ","HOUSE_NO":"１號","E_COORD97":167304.89000000001,"N_COORD97":2541999.7999999998,"ADDRESS":"新興路１９２巷１號","OBJECTID":363585},"geometry":{"x":167304.88999999966,"y":2541999.8000000026}},{"attributes":{"ID":363596,"DIS_CODE":0,"TOWNNAME":"南區","LI":"新興里","LIN":"19鄰","STREET":"新興路","SECT":" ","MAREA":" ","LANE":"１９２巷","ALLEY":" ","HOUSE_NO":"３號","E_COORD97":167302.45999999999,"N_COORD97":2542001.7599999998,"ADDRESS":"新興路１９２巷３號","OBJECTID":363586},"geometry":{"x":167302.45999999996,"y":2542001.7600000035}},{"attributes":{"ID":363597,"DIS_CODE":0,"TOWNNAME":"南區","LI":"文華里","LIN":"13鄰","STREET":"文南路","SECT":" ","MAREA":" ","LANE":" ","ALLEY":" ","HOUSE_NO":"３２２號","E_COORD97":166981.01000000001,"N_COORD97":2543117.5499999998,"ADDRESS":"文南路３２２號","OBJECTID":363587},"geometry":{"x":166981.01000000071,"y":2543117.5500000026}},{"attributes":{"ID":363598,"DIS_CODE":0,"TOWNNAME":"南區","LI":"文華里","LIN":"13鄰","STREET":"文南路","SECT":" ","MAREA":" ","LANE":" ","ALLEY":" ","HOUSE_NO":"３２４號","E_COORD97":166981.29999999999,"N_COORD97":2543122.6499999999,"ADDRESS":"文南路３２４號","OBJECTID":363588},"geometry":{"x":166981.29999999981,"y":2543122.6500000022}},{"attributes":{"ID":363599,"DIS_CODE":0,"TOWNNAME":"南區","LI":"文華里","LIN":"13鄰","STREET":"文南路","SECT":" ","MAREA":" ","LANE":" ","ALLEY":" ","HOUSE_NO":"３２６號","E_COORD97":166981.64999999999,"N_COORD97":2543126.6000000001,"ADDRESS":"文南路３２６號","OBJECTID":363589},"geometry":{"x":166981.65000000037,"y":2543126.5999999996}},{"attributes":{"ID":363600,"DIS_CODE":0,"TOWNNAME":"南區","LI":"文華里","LIN":"13鄰","STREET":"文南路","SECT":" ","MAREA":" ","LANE":" ","ALLEY":" ","HOUSE_NO":"３２８號","E_COORD97":166982.19,"N_COORD97":2543131.1699999999,"ADDRESS":"文南路３２８號","OBJECTID":363590},"geometry":{"x":166982.19000000134,"y":2543131.1699999981}},{"attributes":{"ID":363601,"DIS_CODE":0,"TOWNNAME":"南區","LI":"文華里","LIN":"13鄰","STREET":"文南路","SECT":" ","MAREA":" ","LANE":" ","ALLEY":" ","HOUSE_NO":"３３０號","E_COORD97":166982.19,"N_COORD97":2543135.21,"ADDRESS":"文南路３３０號","OBJECTID":363591},"geometry":{"x":166982.19000000134,"y":2543135.2100000009}},{"attributes":{"ID":363602,"DIS_CODE":0,"TOWNNAME":"南區","LI":"文華里","LIN":"13鄰","STREET":"文南路","SECT":" ","MAREA":" ","LANE":" ","ALLEY":" ","HOUSE_NO":"３３２號","E_COORD97":166982.37,"N_COORD97":2543139.79,"ADDRESS":"文南路３３２號","OBJECTID":363592},"geometry":{"x":166982.37000000104,"y":2543139.7900000028}},{"attributes":{"ID":363603,"DIS_CODE":0,"TOWNNAME":"南區","LI":"文華里","LIN":"13鄰","STREET":"文南路","SECT":" ","MAREA":" ","LANE":" ","ALLEY":" ","HOUSE_NO":"３３４號","E_COORD97":166982.82000000001,"N_COORD97":2543144.8100000001,"ADDRESS":"文南路３３４號","OBJECTID":363593},"geometry":{"x":166982.82000000123,"y":2543144.8100000042}},{"attributes":{"ID":363604,"DIS_CODE":0,"TOWNNAME":"南區","LI":"文華里","LIN":"13鄰","STREET":"文南路","SECT":" ","MAREA":" ","LANE":" ","ALLEY":" ","HOUSE_NO":"３３６號","E_COORD97":166982.91,"N_COORD97":2543148.8500000001,"ADDRESS":"文南路３３６號","OBJECTID":363594},"geometry":{"x":166982.91000000015,"y":2543148.8499999996}},{"attributes":{"ID":363605,"DIS_CODE":0,"TOWNNAME":"南區","LI":"文華里","LIN":"13鄰","STREET":"文南路","SECT":" ","MAREA":" ","LANE":" ","ALLEY":" ","HOUSE_NO":"３３８號","E_COORD97":166983.17999999999,"N_COORD97":2543153.0699999998,"ADDRESS":"文南路３３８號","OBJECTID":363595},"geometry":{"x":166983.18000000063,"y":2543153.0700000022}},{"attributes":{"ID":363606,"DIS_CODE":0,"TOWNNAME":"南區","LI":"文華里","LIN":"13鄰","STREET":"文南路","SECT":" ","MAREA":" ","LANE":" ","ALLEY":" ","HOUSE_NO":"３４０號","E_COORD97":166983.09,"N_COORD97":2543156.75,"ADDRESS":"文南路３４０號","OBJECTID":363596},"geometry":{"x":166983.08999999985,"y":2543156.75}},{"attributes":{"ID":363607,"DIS_CODE":0,"TOWNNAME":"南區","LI":"文華里","LIN":"13鄰","STREET":"美南街","SECT":" ","MAREA":" ","LANE":" ","ALLEY":" ","HOUSE_NO":"６號","E_COORD97":167091.82999999999,"N_COORD97":2543100.6800000002,"ADDRESS":"美南街６號","OBJECTID":363597},"geometry":{"x":167091.83000000007,"y":2543100.6800000034}},{"attributes":{"ID":363608,"DIS_CODE":0,"TOWNNAME":"南區","LI":"文華里","LIN":"13鄰","STREET":"美南街","SECT":" ","MAREA":" ","LANE":" ","ALLEY":" ","HOUSE_NO":"８號","E_COORD97":167087.70000000001,"N_COORD97":2543100.9500000002,"ADDRESS":"美南街８號","OBJECTID":363598},"geometry":{"x":167087.70000000019,"y":2543100.9499999993}},{"attributes":{"ID":363609,"DIS_CODE":0,"TOWNNAME":"南區","LI":"文華里","LIN":"13鄰","STREET":"美南街","SECT":" ","MAREA":" ","LANE":" ","ALLEY":" ","HOUSE_NO":"１０號","E_COORD97":167083.57000000001,"N_COORD97":2543101.48,"ADDRESS":"美南街１０號","OBJECTID":363599},"geometry":{"x":167083.5700000003,"y":2543101.4800000004}},{"attributes":{"ID":363610,"DIS_CODE":0,"TOWNNAME":"南區","LI":"文華里","LIN":"13鄰","STREET":"美南街","SECT":" ","MAREA":" ","LANE":" ","ALLEY":" ","HOUSE_NO":"１２號","E_COORD97":167078.89999999999,"N_COORD97":2543101.75,"ADDRESS":"美南街１２號","OBJECTID":363600},"geometry":{"x":167078.9000000013,"y":2543101.7500000019}}]}