{"displayFieldName":"TOWNNAME","fieldAliases":{"ID":"ID","DIS_CODE":"DIS_CODE","TOWNNAME":"TOWNNAME","LI":"LI","LIN":"LIN","STREET":"STREET","SECT":"SECT","MAREA":"MAREA","LANE":"LANE","ALLEY":"ALLEY","HOUSE_NO":"HOUSE_NO","E_COORD97":"E_COORD97","N_COORD97":"N_COORD97","ADDRESS":"ADDRESS","OBJECTID":"OBJECTID"},"geometryType":"esriGeometryPoint","spatialReference":{"wkid":102443,"latestWkid":3826},"fields":[{"name":"ID","type":"esriFieldTypeDouble","alias":"ID"},{"name":"DIS_CODE","type":"esriFieldTypeInteger","alias":"DIS_CODE"},{"name":"TOWNNAME","type":"esriFieldTypeString","alias":"TOWNNAME","length":8},{"name":"LI","type":"esriFieldTypeString","alias":"LI","length":8},{"name":"LIN","type":"esriFieldTypeString","alias":"LIN","length":12},{"name":"STREET","type":"esriFieldTypeString","alias":"STREET","length":20},{"name":"SECT","type":"esriFieldTypeString","alias":"SECT","length":8},{"name":"MAREA","type":"esriFieldTypeString","alias":"MAREA","length":12},{"name":"LANE","type":"esriFieldTypeString","alias":"LANE","length":10},{"name":"ALLEY","type":"esriFieldTypeString","alias":"ALLEY","length":10},{"name":"HOUSE_NO","type":"esriFieldTypeString","alias":"HOUSE_NO","length":20},{"name":"E_COORD97","type":"esriFieldTypeDouble","alias":"E_COORD97"},{"name":"N_COORD97","type":"esriFieldTypeDouble","alias":"N_COORD97"},{"name":"ADDRESS","type":"esriFieldTypeString","alias":"ADDRESS","length":50},{"name":"OBJECTID","type":"esriFieldTypeOID","alias":"OBJECTID"}],"features":[{"attributes":{"ID":391625,"DIS_CODE":0,"TOWNNAME":"北區","LI":"大港里","LIN":"23鄰","STREET":"中華北路","SECT":"一段","MAREA":" ","LANE":"１８１巷","ALLEY":" ","HOUSE_NO":"６６號","E_COORD97":166303.97,"N_COORD97":2545631.2799999998,"ADDRESS":"中華北路一段１８１巷６６號","OBJECTID":391601},"geometry":{"x":166303.96999999974,"y":2545631.2799999993}},{"attributes":{"ID":391626,"DIS_CODE":0,"TOWNNAME":"北區","LI":"大港里","LIN":"23鄰","STREET":"中華北路","SECT":"一段","MAREA":" ","LANE":"１８１巷","ALLEY":" ","HOUSE_NO":"６７號","E_COORD97":166304.39000000001,"N_COORD97":2545619.3999999999,"ADDRESS":"中華北路一段１８１巷６７號","OBJECTID":391602},"geometry":{"x":166304.38999999966,"y":2545619.4000000022}},{"attributes":{"ID":391627,"DIS_CODE":0,"TOWNNAME":"北區","LI":"大港里","LIN":"23鄰","STREET":"中華北路","SECT":"一段","MAREA":" ","LANE":"１８１巷","ALLEY":" ","HOUSE_NO":"６８號","E_COORD97":166299.73000000001,"N_COORD97":2545630.3300000001,"ADDRESS":"中華北路一段１８１巷６８號","OBJECTID":391603},"geometry":{"x":166299.73000000045,"y":2545630.3300000019}},{"attributes":{"ID":391628,"DIS_CODE":0,"TOWNNAME":"北區","LI":"大港里","LIN":"23鄰","STREET":"中華北路","SECT":"一段","MAREA":" ","LANE":"１８１巷","ALLEY":" ","HOUSE_NO":"７０號","E_COORD97":166296.14000000001,"N_COORD97":2545629.3700000001,"ADDRESS":"中華北路一段１８１巷７０號","OBJECTID":391604},"geometry":{"x":166296.13999999966,"y":2545629.370000001}},{"attributes":{"ID":391629,"DIS_CODE":0,"TOWNNAME":"北區","LI":"大港里","LIN":"23鄰","STREET":"中華北路","SECT":"一段","MAREA":" ","LANE":"１８１巷","ALLEY":" ","HOUSE_NO":"７２號","E_COORD97":166292.06,"N_COORD97":2545628.0899999999,"ADDRESS":"中華北路一段１８１巷７２號","OBJECTID":391605},"geometry":{"x":166292.06000000052,"y":2545628.0900000017}},{"attributes":{"ID":391630,"DIS_CODE":0,"TOWNNAME":"北區","LI":"大港里","LIN":"23鄰","STREET":"中華北路","SECT":"一段","MAREA":" ","LANE":"１８１巷","ALLEY":" ","HOUSE_NO":"７６號","E_COORD97":166288.14999999999,"N_COORD97":2545626.8100000001,"ADDRESS":"中華北路一段１８１巷７６號","OBJECTID":391606},"geometry":{"x":166288.15000000037,"y":2545626.8100000024}},{"attributes":{"ID":391631,"DIS_CODE":0,"TOWNNAME":"北區","LI":"大港里","LIN":"23鄰","STREET":"中華北路","SECT":"一段","MAREA":" ","LANE":"１８１巷","ALLEY":" ","HOUSE_NO":"７號","E_COORD97":166419.48999999999,"N_COORD97":2545654.52,"ADDRESS":"中華北路一段１８１巷７號","OBJECTID":391607},"geometry":{"x":166419.49000000022,"y":2545654.5200000033}},{"attributes":{"ID":391632,"DIS_CODE":0,"TOWNNAME":"北區","LI":"大港里","LIN":"23鄰","STREET":"中華北路","SECT":"一段","MAREA":" ","LANE":"１８１巷","ALLEY":" ","HOUSE_NO":"８１號","E_COORD97":166274.23000000001,"N_COORD97":2545609.1699999999,"ADDRESS":"中華北路一段１８１巷８１號","OBJECTID":391608},"geometry":{"x":166274.23000000045,"y":2545609.1699999999}},{"attributes":{"ID":391633,"DIS_CODE":0,"TOWNNAME":"北區","LI":"大港里","LIN":"23鄰","STREET":"中華北路","SECT":"一段","MAREA":" ","LANE":"１８１巷","ALLEY":" ","HOUSE_NO":"９號","E_COORD97":166415.04999999999,"N_COORD97":2545652.8100000001,"ADDRESS":"中華北路一段１８１巷９號","OBJECTID":391609},"geometry":{"x":166415.04999999981,"y":2545652.8100000005}},{"attributes":{"ID":391634,"DIS_CODE":0,"TOWNNAME":"關廟區","LI":"東勢里","LIN":"23鄰","STREET":"東安街","SECT":" ","MAREA":" ","LANE":"２２１巷","ALLEY":" ","HOUSE_NO":"２１號","E_COORD97":181585.22,"N_COORD97":2539427.3199999998,"ADDRESS":"東安街２２１巷２１號","OBJECTID":391610},"geometry":{"x":181585.22000000067,"y":2539427.3200000003}},{"attributes":{"ID":391635,"DIS_CODE":0,"TOWNNAME":"關廟區","LI":"東勢里","LIN":"23鄰","STREET":"東安街","SECT":" ","MAREA":" ","LANE":"２２１巷","ALLEY":" ","HOUSE_NO":"２０號","E_COORD97":181602.12,"N_COORD97":2539425.3199999998,"ADDRESS":"東安街２２１巷２０號","OBJECTID":391611},"geometry":{"x":181602.12000000011,"y":2539425.3200000022}},{"attributes":{"ID":391636,"DIS_CODE":0,"TOWNNAME":"關廟區","LI":"東勢里","LIN":"23鄰","STREET":"東安街","SECT":" ","MAREA":" ","LANE":"２２１巷","ALLEY":" ","HOUSE_NO":"２２號","E_COORD97":181601.72,"N_COORD97":2539429.3199999998,"ADDRESS":"東安街２２１巷２２號","OBJECTID":391612},"geometry":{"x":181601.71999999881,"y":2539429.3200000022}},{"attributes":{"ID":391637,"DIS_CODE":0,"TOWNNAME":"關廟區","LI":"東勢里","LIN":"23鄰","STREET":"東安街","SECT":" ","MAREA":" ","LANE":"２２１巷","ALLEY":" ","HOUSE_NO":"６號","E_COORD97":181591.26999999999,"N_COORD97":2539391.3199999998,"ADDRESS":"東安街２２１巷６號","OBJECTID":391613},"geometry":{"x":181591.27000000048,"y":2539391.320000004}},{"attributes":{"ID":391638,"DIS_CODE":0,"TOWNNAME":"關廟區","LI":"東勢里","LIN":"23鄰","STREET":"東安街","SECT":" ","MAREA":" ","LANE":"２２１巷","ALLEY":" ","HOUSE_NO":"２８號","E_COORD97":181602.51999999999,"N_COORD97":2539441.3199999998,"ADDRESS":"東安街２２１巷２８號","OBJECTID":391614},"geometry":{"x":181602.51999999955,"y":2539441.3200000003}},{"attributes":{"ID":391639,"DIS_CODE":0,"TOWNNAME":"新營區","LI":"忠政里","LIN":"23鄰","STREET":"府西路","SECT":" ","MAREA":" ","LANE":"１８７巷","ALLEY":" ","HOUSE_NO":"２號","E_COORD97":179769.72,"N_COORD97":2579473.0499999998,"ADDRESS":"府西路１８７巷２號","OBJECTID":391615},"geometry":{"x":179769.72000000067,"y":2579473.0500000007}},{"attributes":{"ID":391640,"DIS_CODE":0,"TOWNNAME":"新營區","LI":"忠政里","LIN":"23鄰","STREET":"府西路","SECT":" ","MAREA":" ","LANE":"２０１巷","ALLEY":" ","HOUSE_NO":"２５之１號","E_COORD97":179720.51000000001,"N_COORD97":2579520.9700000002,"ADDRESS":"府西路２０１巷２５之１號","OBJECTID":391616},"geometry":{"x":179720.51000000071,"y":2579520.9700000007}},{"attributes":{"ID":391641,"DIS_CODE":0,"TOWNNAME":"新營區","LI":"忠政里","LIN":"23鄰","STREET":"府西路","SECT":" ","MAREA":" ","LANE":"２０１巷","ALLEY":" ","HOUSE_NO":"２５之３號","E_COORD97":179720.47,"N_COORD97":2579512.1099999999,"ADDRESS":"府西路２０１巷２５之３號","OBJECTID":391617},"geometry":{"x":179720.47000000067,"y":2579512.1099999994}},{"attributes":{"ID":391642,"DIS_CODE":0,"TOWNNAME":"新營區","LI":"民榮里","LIN":"23鄰","STREET":"裕民路","SECT":" ","MAREA":" ","LANE":"１６巷","ALLEY":" ","HOUSE_NO":"１號","E_COORD97":179114.75,"N_COORD97":2577911.3399999999,"ADDRESS":"裕民路１６巷１號","OBJECTID":391618},"geometry":{"x":179114.75,"y":2577911.3399999999}},{"attributes":{"ID":391643,"DIS_CODE":0,"TOWNNAME":"新營區","LI":"民榮里","LIN":"23鄰","STREET":"裕民路","SECT":" ","MAREA":" ","LANE":"１６巷","ALLEY":" ","HOUSE_NO":"１５號","E_COORD97":179084.28,"N_COORD97":2577910.3900000001,"ADDRESS":"裕民路１６巷１５號","OBJECTID":391619},"geometry":{"x":179084.28000000026,"y":2577910.3900000025}},{"attributes":{"ID":391644,"DIS_CODE":0,"TOWNNAME":"新營區","LI":"忠政里","LIN":"23鄰","STREET":"府西路","SECT":" ","MAREA":" ","LANE":"２０１巷","ALLEY":" ","HOUSE_NO":"２５之５號","E_COORD97":179720.42000000001,"N_COORD97":2579503.25,"ADDRESS":"府西路２０１巷２５之５號","OBJECTID":391620},"geometry":{"x":179720.41999999993,"y":2579503.2500000019}},{"attributes":{"ID":391645,"DIS_CODE":0,"TOWNNAME":"新營區","LI":"忠政里","LIN":"23鄰","STREET":"府西路","SECT":" ","MAREA":" ","LANE":"２０１巷","ALLEY":" ","HOUSE_NO":"２１之５號","E_COORD97":179731.67000000001,"N_COORD97":2579502.0899999999,"ADDRESS":"府西路２０１巷２１之５號","OBJECTID":391621},"geometry":{"x":179731.67000000086,"y":2579502.0900000017}},{"attributes":{"ID":391646,"DIS_CODE":0,"TOWNNAME":"新營區","LI":"忠政里","LIN":"23鄰","STREET":"府西路","SECT":" ","MAREA":" ","LANE":"１８１巷","ALLEY":" ","HOUSE_NO":"１９號","E_COORD97":179728.73999999999,"N_COORD97":2579426.7400000002,"ADDRESS":"府西路１８１巷１９號","OBJECTID":391622},"geometry":{"x":179728.74000000022,"y":2579426.7400000021}},{"attributes":{"ID":391647,"DIS_CODE":0,"TOWNNAME":"新營區","LI":"民權里","LIN":"24鄰","STREET":"民治路","SECT":" ","MAREA":" ","LANE":"５３巷","ALLEY":" ","HOUSE_NO":"９號","E_COORD97":179666.76000000001,"N_COORD97":2578706.0699999998,"ADDRESS":"民治路５３巷９號","OBJECTID":391623},"geometry":{"x":179666.75999999978,"y":2578706.0700000003}},{"attributes":{"ID":391648,"DIS_CODE":0,"TOWNNAME":"新營區","LI":"王公里","LIN":"23鄰","STREET":"樂仁街","SECT":" ","MAREA":" ","LANE":"８巷","ALLEY":" ","HOUSE_NO":"７號","E_COORD97":180563.64000000001,"N_COORD97":2579096.0899999999,"ADDRESS":"樂仁街８巷７號","OBJECTID":391624},"geometry":{"x":180563.6400000006,"y":2579096.0899999999}},{"attributes":{"ID":391649,"DIS_CODE":0,"TOWNNAME":"新營區","LI":"南紙里","LIN":"23鄰","STREET":"南紙街","SECT":" ","MAREA":" ","LANE":"１１９巷","ALLEY":" ","HOUSE_NO":"９號","E_COORD97":177866.47,"N_COORD97":2577427.8700000001,"ADDRESS":"南紙街１１９巷９號","OBJECTID":391625},"geometry":{"x":177866.47000000067,"y":2577427.870000001}},{"attributes":{"ID":391650,"DIS_CODE":0,"TOWNNAME":"新營區","LI":"王公里","LIN":"23鄰","STREET":"樂仁街","SECT":" ","MAREA":" ","LANE":"８巷","ALLEY":" ","HOUSE_NO":"５號","E_COORD97":180557.47,"N_COORD97":2579090.5899999999,"ADDRESS":"樂仁街８巷５號","OBJECTID":391626},"geometry":{"x":180557.46999999881,"y":2579090.5900000017}},{"attributes":{"ID":391651,"DIS_CODE":0,"TOWNNAME":"新營區","LI":"忠政里","LIN":"23鄰","STREET":"府西路","SECT":" ","MAREA":" ","LANE":"１８１巷","ALLEY":" ","HOUSE_NO":"１１號","E_COORD97":179747.14999999999,"N_COORD97":2579426.6499999999,"ADDRESS":"府西路１８１巷１１號","OBJECTID":391627},"geometry":{"x":179747.1500000013,"y":2579426.6500000022}},{"attributes":{"ID":391652,"DIS_CODE":0,"TOWNNAME":"新營區","LI":"王公里","LIN":"23鄰","STREET":"樂仁街","SECT":" ","MAREA":" ","LANE":"１６巷","ALLEY":" ","HOUSE_NO":"１號","E_COORD97":180537.09,"N_COORD97":2579110.6099999999,"ADDRESS":"樂仁街１６巷１號","OBJECTID":391628},"geometry":{"x":180537.09000000078,"y":2579110.6100000013}},{"attributes":{"ID":391653,"DIS_CODE":0,"TOWNNAME":"新營區","LI":"忠政里","LIN":"23鄰","STREET":"府西路","SECT":" ","MAREA":" ","LANE":"１８１巷","ALLEY":" ","HOUSE_NO":"１５號","E_COORD97":179738.97,"N_COORD97":2579426.6899999999,"ADDRESS":"府西路１８１巷１５號","OBJECTID":391629},"geometry":{"x":179738.97000000067,"y":2579426.6899999995}},{"attributes":{"ID":391654,"DIS_CODE":0,"TOWNNAME":"南區","LI":"大忠里","LIN":"23鄰","STREET":"中華南路","SECT":"一段","MAREA":" ","LANE":"１７５巷","ALLEY":" ","HOUSE_NO":"１１號","E_COORD97":169144.28,"N_COORD97":2541129.6200000001,"ADDRESS":"中華南路一段１７５巷１１號","OBJECTID":391630},"geometry":{"x":169144.28000000119,"y":2541129.6200000029}},{"attributes":{"ID":391655,"DIS_CODE":0,"TOWNNAME":"南區","LI":"府南里","LIN":"23鄰","STREET":"大成路","SECT":"二段","MAREA":" ","LANE":"１４３巷","ALLEY":" ","HOUSE_NO":"１９號","E_COORD97":167309.20000000001,"N_COORD97":2541637.25,"ADDRESS":"大成路二段１４３巷１９號","OBJECTID":391631},"geometry":{"x":167309.20000000112,"y":2541637.2500000019}},{"attributes":{"ID":391656,"DIS_CODE":0,"TOWNNAME":"南區","LI":"永寧里","LIN":"23鄰","STREET":"灣裡路","SECT":" ","MAREA":" ","LANE":"３０１巷","ALLEY":" ","HOUSE_NO":"４號","E_COORD97":166159.73999999999,"N_COORD97":2536303.9199999999,"ADDRESS":"灣裡路３０１巷４號","OBJECTID":391632},"geometry":{"x":166159.74000000115,"y":2536303.9199999999}},{"attributes":{"ID":391657,"DIS_CODE":0,"TOWNNAME":"南區","LI":"永寧里","LIN":"23鄰","STREET":"灣裡路","SECT":" ","MAREA":" ","LANE":"３０１巷","ALLEY":" ","HOUSE_NO":"６號","E_COORD97":166171.78,"N_COORD97":2536306.1400000001,"ADDRESS":"灣裡路３０１巷６號","OBJECTID":391633},"geometry":{"x":166171.78000000026,"y":2536306.1400000006}},{"attributes":{"ID":391658,"DIS_CODE":0,"TOWNNAME":"南區","LI":"永寧里","LIN":"23鄰","STREET":"灣裡路","SECT":" ","MAREA":" ","LANE":"３３３巷","ALLEY":" ","HOUSE_NO":"１１號","E_COORD97":166173.06,"N_COORD97":2536278.8900000001,"ADDRESS":"灣裡路３３３巷１１號","OBJECTID":391634},"geometry":{"x":166173.05999999866,"y":2536278.8900000025}},{"attributes":{"ID":391659,"DIS_CODE":0,"TOWNNAME":"南區","LI":"永寧里","LIN":"23鄰","STREET":"灣裡路","SECT":" ","MAREA":" ","LANE":"３３３巷","ALLEY":" ","HOUSE_NO":"１３號","E_COORD97":166170.14000000001,"N_COORD97":2536283.73,"ADDRESS":"灣裡路３３３巷１３號","OBJECTID":391635},"geometry":{"x":166170.1400000006,"y":2536283.7300000023}},{"attributes":{"ID":391660,"DIS_CODE":0,"TOWNNAME":"南區","LI":"永寧里","LIN":"23鄰","STREET":"灣裡路","SECT":" ","MAREA":" ","LANE":"３３３巷","ALLEY":" ","HOUSE_NO":"１５號","E_COORD97":166162.42999999999,"N_COORD97":2536277.8900000001,"ADDRESS":"灣裡路３３３巷１５號","OBJECTID":391636},"geometry":{"x":166162.43000000063,"y":2536277.8900000006}},{"attributes":{"ID":391661,"DIS_CODE":0,"TOWNNAME":"南區","LI":"永寧里","LIN":"23鄰","STREET":"灣裡路","SECT":" ","MAREA":" ","LANE":"３３３巷","ALLEY":" ","HOUSE_NO":"１７號","E_COORD97":166158.45999999999,"N_COORD97":2536276.96,"ADDRESS":"灣裡路３３３巷１７號","OBJECTID":391637},"geometry":{"x":166158.45999999996,"y":2536276.9600000009}},{"attributes":{"ID":391662,"DIS_CODE":0,"TOWNNAME":"南區","LI":"永寧里","LIN":"23鄰","STREET":"灣裡路","SECT":" ","MAREA":" ","LANE":"３３３巷","ALLEY":" ","HOUSE_NO":"１９號","E_COORD97":166153.67000000001,"N_COORD97":2536278.1299999999,"ADDRESS":"灣裡路３３３巷１９號","OBJECTID":391638},"geometry":{"x":166153.66999999993,"y":2536278.129999999}},{"attributes":{"ID":391663,"DIS_CODE":0,"TOWNNAME":"南區","LI":"永寧里","LIN":"23鄰","STREET":"灣裡路","SECT":" ","MAREA":" ","LANE":"３３３巷","ALLEY":" ","HOUSE_NO":"７號","E_COORD97":166190.82000000001,"N_COORD97":2536274.98,"ADDRESS":"灣裡路３３３巷７號","OBJECTID":391639},"geometry":{"x":166190.82000000216,"y":2536274.9800000023}},{"attributes":{"ID":391664,"DIS_CODE":0,"TOWNNAME":"南區","LI":"永寧里","LIN":"23鄰","STREET":"灣裡路","SECT":" ","MAREA":" ","LANE":"３３３巷","ALLEY":" ","HOUSE_NO":"９號","E_COORD97":166188.25,"N_COORD97":2536282.3300000001,"ADDRESS":"灣裡路３３３巷９號","OBJECTID":391640},"geometry":{"x":166188.25000000093,"y":2536282.3300000019}},{"attributes":{"ID":391665,"DIS_CODE":0,"TOWNNAME":"鹽水區","LI":"橋南里","LIN":"23鄰","STREET":"新中路","SECT":" ","MAREA":" ","LANE":"８２巷","ALLEY":" ","HOUSE_NO":"１０１號","E_COORD97":175785.57999999999,"N_COORD97":2578661.7400000002,"ADDRESS":"新中路８２巷１０１號","OBJECTID":391641},"geometry":{"x":175785.58000000101,"y":2578661.7400000002}},{"attributes":{"ID":391666,"DIS_CODE":0,"TOWNNAME":"鹽水區","LI":"橋南里","LIN":"23鄰","STREET":"新中路","SECT":" ","MAREA":" ","LANE":"８２巷","ALLEY":" ","HOUSE_NO":"１０３號","E_COORD97":175781.42000000001,"N_COORD97":2578662.77,"ADDRESS":"新中路８２巷１０３號","OBJECTID":391642},"geometry":{"x":175781.42000000086,"y":2578662.7700000014}},{"attributes":{"ID":391667,"DIS_CODE":0,"TOWNNAME":"鹽水區","LI":"橋南里","LIN":"23鄰","STREET":"新中路","SECT":" ","MAREA":" ","LANE":"８２巷","ALLEY":" ","HOUSE_NO":"１０５號","E_COORD97":175777.26999999999,"N_COORD97":2578663.79,"ADDRESS":"新中路８２巷１０５號","OBJECTID":391643},"geometry":{"x":175777.27000000048,"y":2578663.7899999991}},{"attributes":{"ID":391668,"DIS_CODE":0,"TOWNNAME":"鹽水區","LI":"橋南里","LIN":"23鄰","STREET":"新中路","SECT":" ","MAREA":" ","LANE":"８２巷","ALLEY":" ","HOUSE_NO":"１０７號","E_COORD97":175773.12,"N_COORD97":2578664.8199999998,"ADDRESS":"新中路８２巷１０７號","OBJECTID":391644},"geometry":{"x":175773.12000000197,"y":2578664.8200000003}},{"attributes":{"ID":391669,"DIS_CODE":0,"TOWNNAME":"鹽水區","LI":"橋南里","LIN":"23鄰","STREET":"新中路","SECT":" ","MAREA":" ","LANE":"８２巷","ALLEY":" ","HOUSE_NO":"１０９號","E_COORD97":175768.97,"N_COORD97":2578665.8399999999,"ADDRESS":"新中路８２巷１０９號","OBJECTID":391645},"geometry":{"x":175768.97000000067,"y":2578665.8400000017}},{"attributes":{"ID":391670,"DIS_CODE":0,"TOWNNAME":"鹽水區","LI":"橋南里","LIN":"23鄰","STREET":"新中路","SECT":" ","MAREA":" ","LANE":"８２巷","ALLEY":" ","HOUSE_NO":"１１１號","E_COORD97":175764.82000000001,"N_COORD97":2578666.8700000001,"ADDRESS":"新中路８２巷１１１號","OBJECTID":391646},"geometry":{"x":175764.8200000003,"y":2578666.8700000029}},{"attributes":{"ID":391671,"DIS_CODE":0,"TOWNNAME":"鹽水區","LI":"橋南里","LIN":"23鄰","STREET":"新中路","SECT":" ","MAREA":" ","LANE":"８２巷","ALLEY":" ","HOUSE_NO":"１１３號","E_COORD97":175760.67000000001,"N_COORD97":2578667.8999999999,"ADDRESS":"新中路８２巷１１３號","OBJECTID":391647},"geometry":{"x":175760.66999999899,"y":2578667.9000000004}},{"attributes":{"ID":391672,"DIS_CODE":0,"TOWNNAME":"鹽水區","LI":"橋南里","LIN":"23鄰","STREET":"新中路","SECT":" ","MAREA":" ","LANE":"８２巷","ALLEY":" ","HOUSE_NO":"１１５號","E_COORD97":175756.51999999999,"N_COORD97":2578668.9100000001,"ADDRESS":"新中路８２巷１１５號","OBJECTID":391648},"geometry":{"x":175756.52000000048,"y":2578668.910000002}},{"attributes":{"ID":391673,"DIS_CODE":0,"TOWNNAME":"鹽水區","LI":"橋南里","LIN":"23鄰","STREET":"新中路","SECT":" ","MAREA":" ","LANE":"８２巷","ALLEY":" ","HOUSE_NO":"１１７號","E_COORD97":175752.37,"N_COORD97":2578669.9500000002,"ADDRESS":"新中路８２巷１１７號","OBJECTID":391649},"geometry":{"x":175752.37000000011,"y":2578669.950000003}},{"attributes":{"ID":391674,"DIS_CODE":0,"TOWNNAME":"鹽水區","LI":"橋南里","LIN":"23鄰","STREET":"新中路","SECT":" ","MAREA":" ","LANE":"８２巷","ALLEY":" ","HOUSE_NO":"１１９號","E_COORD97":175748.20999999999,"N_COORD97":2578670.9700000002,"ADDRESS":"新中路８２巷１１９號","OBJECTID":391650},"geometry":{"x":175748.20999999996,"y":2578670.9700000007}},{"attributes":{"ID":391675,"DIS_CODE":0,"TOWNNAME":"鹽水區","LI":"橋南里","LIN":"23鄰","STREET":"新中路","SECT":" ","MAREA":" ","LANE":"８２巷","ALLEY":" ","HOUSE_NO":"１２１號","E_COORD97":175744.06,"N_COORD97":2578672,"ADDRESS":"新中路８２巷１２１號","OBJECTID":391651},"geometry":{"x":175744.05999999866,"y":2578672.0000000019}},{"attributes":{"ID":391676,"DIS_CODE":0,"TOWNNAME":"鹽水區","LI":"橋南里","LIN":"23鄰","STREET":"新中路","SECT":" ","MAREA":" ","LANE":"８２巷","ALLEY":" ","HOUSE_NO":"１２３號","E_COORD97":175739.91,"N_COORD97":2578673.0299999998,"ADDRESS":"新中路８２巷１２３號","OBJECTID":391652},"geometry":{"x":175739.91000000015,"y":2578673.0300000031}},{"attributes":{"ID":391677,"DIS_CODE":0,"TOWNNAME":"鹽水區","LI":"橋南里","LIN":"23鄰","STREET":"新中路","SECT":" ","MAREA":" ","LANE":"８２巷","ALLEY":" ","HOUSE_NO":"１２５號","E_COORD97":175735.76000000001,"N_COORD97":2578674.0499999998,"ADDRESS":"新中路８２巷１２５號","OBJECTID":391653},"geometry":{"x":175735.75999999978,"y":2578674.0500000007}},{"attributes":{"ID":391678,"DIS_CODE":0,"TOWNNAME":"鹽水區","LI":"橋南里","LIN":"23鄰","STREET":"新中路","SECT":" ","MAREA":" ","LANE":"８２巷","ALLEY":" ","HOUSE_NO":"１２７號","E_COORD97":175731.60999999999,"N_COORD97":2578675.0800000001,"ADDRESS":"新中路８２巷１２７號","OBJECTID":391654},"geometry":{"x":175731.61000000127,"y":2578675.0800000019}},{"attributes":{"ID":391679,"DIS_CODE":0,"TOWNNAME":"善化區","LI":"坐駕里","LIN":"13鄰","STREET":"自強路","SECT":" ","MAREA":" ","LANE":" ","ALLEY":" ","HOUSE_NO":"４８號","E_COORD97":178173.92999999999,"N_COORD97":2558748.75,"ADDRESS":"自強路４８號","OBJECTID":391655},"geometry":{"x":178173.9299999997,"y":2558748.75}},{"attributes":{"ID":391680,"DIS_CODE":0,"TOWNNAME":"歸仁區","LI":"八甲里","LIN":"17鄰","STREET":"大仁八街","SECT":" ","MAREA":" ","LANE":"５巷","ALLEY":" ","HOUSE_NO":"３號","E_COORD97":178039.04000000001,"N_COORD97":2541584.25,"ADDRESS":"大仁八街５巷３號","OBJECTID":391656},"geometry":{"x":178039.04000000097,"y":2541584.25}},{"attributes":{"ID":391681,"DIS_CODE":0,"TOWNNAME":"鹽水區","LI":"橋南里","LIN":"23鄰","STREET":"新中路","SECT":" ","MAREA":" ","LANE":"８２巷","ALLEY":" ","HOUSE_NO":"１２９號","E_COORD97":175727.45999999999,"N_COORD97":2578676.1000000001,"ADDRESS":"新中路８２巷１２９號","OBJECTID":391657},"geometry":{"x":175727.46000000089,"y":2578676.1000000034}},{"attributes":{"ID":391682,"DIS_CODE":0,"TOWNNAME":"鹽水區","LI":"橋南里","LIN":"23鄰","STREET":"新中路","SECT":" ","MAREA":" ","LANE":"８２巷","ALLEY":" ","HOUSE_NO":"１３１號","E_COORD97":175723.31,"N_COORD97":2578677.1299999999,"ADDRESS":"新中路８２巷１３１號","OBJECTID":391658},"geometry":{"x":175723.30999999959,"y":2578677.129999999}},{"attributes":{"ID":391683,"DIS_CODE":0,"TOWNNAME":"鹽水區","LI":"橋南里","LIN":"23鄰","STREET":"新中路","SECT":" ","MAREA":" ","LANE":"８２巷","ALLEY":" ","HOUSE_NO":"１５７號","E_COORD97":175669.98999999999,"N_COORD97":2578690.1299999999,"ADDRESS":"新中路８２巷１５７號","OBJECTID":391659},"geometry":{"x":175669.99000000022,"y":2578690.1300000008}},{"attributes":{"ID":391684,"DIS_CODE":0,"TOWNNAME":"鹽水區","LI":"橋南里","LIN":"23鄰","STREET":"新中路","SECT":" ","MAREA":" ","LANE":"８２巷","ALLEY":" ","HOUSE_NO":"１５９號","E_COORD97":175665.51999999999,"N_COORD97":2578691.5899999999,"ADDRESS":"新中路８２巷１５９號","OBJECTID":391660},"geometry":{"x":175665.52000000048,"y":2578691.5900000017}},{"attributes":{"ID":391685,"DIS_CODE":0,"TOWNNAME":"鹽水區","LI":"橋南里","LIN":"23鄰","STREET":"新中路","SECT":" ","MAREA":" ","LANE":"８２巷","ALLEY":" ","HOUSE_NO":"１６１號","E_COORD97":175661.04000000001,"N_COORD97":2578692.52,"ADDRESS":"新中路８２巷１６１號","OBJECTID":391661},"geometry":{"x":175661.04000000004,"y":2578692.5199999996}},{"attributes":{"ID":391686,"DIS_CODE":0,"TOWNNAME":"鹽水區","LI":"橋南里","LIN":"23鄰","STREET":"新中路","SECT":" ","MAREA":" ","LANE":"８２巷","ALLEY":" ","HOUSE_NO":"９９號","E_COORD97":175789.73000000001,"N_COORD97":2578660.71,"ADDRESS":"新中路８２巷９９號","OBJECTID":391662},"geometry":{"x":175789.73000000231,"y":2578660.7100000028}},{"attributes":{"ID":391687,"DIS_CODE":0,"TOWNNAME":"鹽水區","LI":"岸內里","LIN":"23鄰","STREET":"北門路","SECT":" ","MAREA":" ","LANE":"７巷","ALLEY":" ","HOUSE_NO":"８３號","E_COORD97":175328.60000000001,"N_COORD97":2580512.0499999998,"ADDRESS":"北門路７巷８３號","OBJECTID":391663},"geometry":{"x":175328.60000000149,"y":2580512.0500000045}},{"attributes":{"ID":391688,"DIS_CODE":0,"TOWNNAME":"南區","LI":"大忠里","LIN":"23鄰","STREET":"中華南路","SECT":"一段","MAREA":" ","LANE":"１７５巷","ALLEY":" ","HOUSE_NO":"２號","E_COORD97":169110.01000000001,"N_COORD97":2541141.02,"ADDRESS":"中華南路一段１７５巷２號","OBJECTID":391664},"geometry":{"x":169110.01000000071,"y":2541141.0199999996}},{"attributes":{"ID":391689,"DIS_CODE":0,"TOWNNAME":"南區","LI":"大忠里","LIN":"23鄰","STREET":"中華南路","SECT":"一段","MAREA":" ","LANE":"１７５巷","ALLEY":" ","HOUSE_NO":"４號","E_COORD97":169113.06,"N_COORD97":2541135.2400000002,"ADDRESS":"中華南路一段１７５巷４號","OBJECTID":391665},"geometry":{"x":169113.06000000052,"y":2541135.2400000021}},{"attributes":{"ID":391690,"DIS_CODE":0,"TOWNNAME":"南區","LI":"大忠里","LIN":"23鄰","STREET":"中華南路","SECT":"一段","MAREA":" ","LANE":"１７５巷","ALLEY":" ","HOUSE_NO":"６號","E_COORD97":169114.89000000001,"N_COORD97":2541129.7599999998,"ADDRESS":"中華南路一段１７５巷６號","OBJECTID":391666},"geometry":{"x":169114.88999999966,"y":2541129.7599999998}},{"attributes":{"ID":391691,"DIS_CODE":0,"TOWNNAME":"南區","LI":"大忠里","LIN":"23鄰","STREET":"中華南路","SECT":"一段","MAREA":" ","LANE":"１７５巷","ALLEY":" ","HOUSE_NO":"８號","E_COORD97":169117.94,"N_COORD97":2541124.8900000001,"ADDRESS":"中華南路一段１７５巷８號","OBJECTID":391667},"geometry":{"x":169117.94000000134,"y":2541124.8900000025}},{"attributes":{"ID":391692,"DIS_CODE":0,"TOWNNAME":"南區","LI":"大忠里","LIN":"23鄰","STREET":"中華南路","SECT":"一段","MAREA":" ","LANE":"１９３巷","ALLEY":" ","HOUSE_NO":"１號","E_COORD97":169095.04999999999,"N_COORD97":2541131.2799999998,"ADDRESS":"中華南路一段１９３巷１號","OBJECTID":391668},"geometry":{"x":169095.05000000075,"y":2541131.2800000012}},{"attributes":{"ID":391693,"DIS_CODE":0,"TOWNNAME":"南區","LI":"大忠里","LIN":"23鄰","STREET":"中華南路","SECT":"一段","MAREA":" ","LANE":"１９３巷","ALLEY":" ","HOUSE_NO":"２號","E_COORD97":169081.63,"N_COORD97":2541118.8100000001,"ADDRESS":"中華南路一段１９３巷２號","OBJECTID":391669},"geometry":{"x":169081.62999999989,"y":2541118.8100000024}},{"attributes":{"ID":391694,"DIS_CODE":0,"TOWNNAME":"南區","LI":"大忠里","LIN":"23鄰","STREET":"中華南路","SECT":"一段","MAREA":" ","LANE":"１９３巷","ALLEY":" ","HOUSE_NO":"３號","E_COORD97":169098.72,"N_COORD97":2541128.2400000002,"ADDRESS":"中華南路一段１９３巷３號","OBJECTID":391670},"geometry":{"x":169098.72000000067,"y":2541128.2400000021}},{"attributes":{"ID":391695,"DIS_CODE":0,"TOWNNAME":"南區","LI":"大忠里","LIN":"23鄰","STREET":"中華南路","SECT":"一段","MAREA":" ","LANE":"１９３巷","ALLEY":" ","HOUSE_NO":"４號","E_COORD97":169084.67999999999,"N_COORD97":2541115.1600000001,"ADDRESS":"中華南路一段１９３巷４號","OBJECTID":391671},"geometry":{"x":169084.67999999877,"y":2541115.160000002}},{"attributes":{"ID":391696,"DIS_CODE":0,"TOWNNAME":"南區","LI":"大忠里","LIN":"23鄰","STREET":"中華南路","SECT":"一段","MAREA":" ","LANE":"１９３巷","ALLEY":" ","HOUSE_NO":"５號","E_COORD97":169101.16,"N_COORD97":2541124.2799999998,"ADDRESS":"中華南路一段１９３巷５號","OBJECTID":391672},"geometry":{"x":169101.16000000108,"y":2541124.2800000012}},{"attributes":{"ID":391697,"DIS_CODE":0,"TOWNNAME":"南區","LI":"大忠里","LIN":"23鄰","STREET":"中華南路","SECT":"一段","MAREA":" ","LANE":"１９３巷","ALLEY":" ","HOUSE_NO":"７號","E_COORD97":169104.20999999999,"N_COORD97":2541118.8100000001,"ADDRESS":"中華南路一段１９３巷７號","OBJECTID":391673},"geometry":{"x":169104.21000000089,"y":2541118.8100000024}},{"attributes":{"ID":391698,"DIS_CODE":0,"TOWNNAME":"南區","LI":"開南里","LIN":"23鄰","STREET":"新建路","SECT":" ","MAREA":" ","LANE":"４３巷","ALLEY":" ","HOUSE_NO":"１１號","E_COORD97":166581.79000000001,"N_COORD97":2540966.5600000001,"ADDRESS":"新建路４３巷１１號","OBJECTID":391674},"geometry":{"x":166581.79000000004,"y":2540966.5600000024}},{"attributes":{"ID":391699,"DIS_CODE":0,"TOWNNAME":"南區","LI":"開南里","LIN":"23鄰","STREET":"新建路","SECT":" ","MAREA":" ","LANE":"４３巷","ALLEY":" ","HOUSE_NO":"１３號","E_COORD97":166602.73000000001,"N_COORD97":2540966.23,"ADDRESS":"新建路４３巷１３號","OBJECTID":391675},"geometry":{"x":166602.73000000045,"y":2540966.2300000023}},{"attributes":{"ID":391700,"DIS_CODE":0,"TOWNNAME":"南區","LI":"開南里","LIN":"23鄰","STREET":"新建路","SECT":" ","MAREA":" ","LANE":"４３巷","ALLEY":" ","HOUSE_NO":"１５號","E_COORD97":166613.35999999999,"N_COORD97":2540966.3999999999,"ADDRESS":"新建路４３巷１５號","OBJECTID":391676},"geometry":{"x":166613.36000000127,"y":2540966.4000000004}},{"attributes":{"ID":391701,"DIS_CODE":0,"TOWNNAME":"南區","LI":"開南里","LIN":"23鄰","STREET":"新建路","SECT":" ","MAREA":" ","LANE":"４３巷","ALLEY":" ","HOUSE_NO":"１號","E_COORD97":166477.75,"N_COORD97":2540967.0499999998,"ADDRESS":"新建路４３巷１號","OBJECTID":391677},"geometry":{"x":166477.75000000093,"y":2540967.0500000026}},{"attributes":{"ID":391702,"DIS_CODE":0,"TOWNNAME":"南區","LI":"開南里","LIN":"23鄰","STREET":"新建路","SECT":" ","MAREA":" ","LANE":"４３巷","ALLEY":" ","HOUSE_NO":"３號","E_COORD97":166489.03,"N_COORD97":2540967.0499999998,"ADDRESS":"新建路４３巷３號","OBJECTID":391678},"geometry":{"x":166489.03000000026,"y":2540967.0500000026}},{"attributes":{"ID":391703,"DIS_CODE":0,"TOWNNAME":"南區","LI":"開南里","LIN":"23鄰","STREET":"新建路","SECT":" ","MAREA":" ","LANE":"４３巷","ALLEY":" ","HOUSE_NO":"５號","E_COORD97":166509.81,"N_COORD97":2540966.5699999998,"ADDRESS":"新建路４３巷５號","OBJECTID":391679},"geometry":{"x":166509.80999999959,"y":2540966.5700000022}},{"attributes":{"ID":391704,"DIS_CODE":0,"TOWNNAME":"南區","LI":"開南里","LIN":"23鄰","STREET":"新建路","SECT":" ","MAREA":" ","LANE":"４３巷","ALLEY":" ","HOUSE_NO":"７號","E_COORD97":166520.76999999999,"N_COORD97":2540966.5699999998,"ADDRESS":"新建路４３巷７號","OBJECTID":391680},"geometry":{"x":166520.76999999862,"y":2540966.5700000022}},{"attributes":{"ID":391705,"DIS_CODE":0,"TOWNNAME":"南區","LI":"開南里","LIN":"23鄰","STREET":"新建路","SECT":" ","MAREA":" ","LANE":"４３巷","ALLEY":" ","HOUSE_NO":"９號","E_COORD97":166570.82999999999,"N_COORD97":2540966.5600000001,"ADDRESS":"新建路４３巷９號","OBJECTID":391681},"geometry":{"x":166570.83000000101,"y":2540966.5600000024}},{"attributes":{"ID":391706,"DIS_CODE":0,"TOWNNAME":"歸仁區","LI":"崙頂里","LIN":"23鄰","STREET":"崙頂二街","SECT":" ","MAREA":" ","LANE":"５０巷","ALLEY":" ","HOUSE_NO":"３７號","E_COORD97":177729.84,"N_COORD97":2540018.48,"ADDRESS":"崙頂二街５０巷３７號","OBJECTID":391682},"geometry":{"x":177729.84000000078,"y":2540018.4800000023}},{"attributes":{"ID":391707,"DIS_CODE":0,"TOWNNAME":"歸仁區","LI":"看西里","LIN":"23鄰","STREET":"凱旋路","SECT":"一段","MAREA":" ","LANE":"２１０巷","ALLEY":" ","HOUSE_NO":"３２號","E_COORD97":178413.91,"N_COORD97":2539792.3700000001,"ADDRESS":"凱旋路一段２１０巷３２號","OBJECTID":391683},"geometry":{"x":178413.90999999922,"y":2539792.3700000029}},{"attributes":{"ID":391708,"DIS_CODE":0,"TOWNNAME":"北區","LI":"大豐里","LIN":"23鄰","STREET":"大興街","SECT":" ","MAREA":" ","LANE":"３５５巷","ALLEY":" ","HOUSE_NO":"２９號","E_COORD97":166572.67999999999,"N_COORD97":2545593.9900000002,"ADDRESS":"大興街３５５巷２９號","OBJECTID":391684},"geometry":{"x":166572.68000000063,"y":2545593.9900000002}},{"attributes":{"ID":391709,"DIS_CODE":0,"TOWNNAME":"北區","LI":"大豐里","LIN":"23鄰","STREET":"大興街","SECT":" ","MAREA":" ","LANE":"３５５巷","ALLEY":" ","HOUSE_NO":"３０號","E_COORD97":166552.47,"N_COORD97":2545557.2599999998,"ADDRESS":"大興街３５５巷３０號","OBJECTID":391685},"geometry":{"x":166552.47000000067,"y":2545557.2599999998}},{"attributes":{"ID":391710,"DIS_CODE":0,"TOWNNAME":"北區","LI":"大豐里","LIN":"23鄰","STREET":"大興街","SECT":" ","MAREA":" ","LANE":"３５５巷","ALLEY":" ","HOUSE_NO":"３１號","E_COORD97":166572.98999999999,"N_COORD97":2545588.1299999999,"ADDRESS":"大興街３５５巷３１號","OBJECTID":391686},"geometry":{"x":166572.99000000115,"y":2545588.129999999}},{"attributes":{"ID":391711,"DIS_CODE":0,"TOWNNAME":"北區","LI":"大豐里","LIN":"23鄰","STREET":"大興街","SECT":" ","MAREA":" ","LANE":"３５５巷","ALLEY":" ","HOUSE_NO":"３２號","E_COORD97":166562.60000000001,"N_COORD97":2545558.1699999999,"ADDRESS":"大興街３５５巷３２號","OBJECTID":391687},"geometry":{"x":166562.59999999963,"y":2545558.1699999999}},{"attributes":{"ID":391712,"DIS_CODE":0,"TOWNNAME":"北區","LI":"大豐里","LIN":"23鄰","STREET":"大興街","SECT":" ","MAREA":" ","LANE":"３５５巷","ALLEY":" ","HOUSE_NO":"３３號","E_COORD97":166573.64000000001,"N_COORD97":2545582.8399999999,"ADDRESS":"大興街３５５巷３３號","OBJECTID":391688},"geometry":{"x":166573.63999999966,"y":2545582.8400000017}},{"attributes":{"ID":391713,"DIS_CODE":0,"TOWNNAME":"南區","LI":"郡南里","LIN":"23鄰","STREET":"德興路","SECT":" ","MAREA":" ","LANE":"１３９巷","ALLEY":" ","HOUSE_NO":"７號","E_COORD97":167248.13,"N_COORD97":2540462.9500000002,"ADDRESS":"德興路１３９巷７號","OBJECTID":391689},"geometry":{"x":167248.13000000082,"y":2540462.9499999993}},{"attributes":{"ID":391714,"DIS_CODE":0,"TOWNNAME":"北區","LI":"大豐里","LIN":"23鄰","STREET":"大興街","SECT":" ","MAREA":" ","LANE":"３５５巷","ALLEY":" ","HOUSE_NO":"３４號","E_COORD97":166563.04999999999,"N_COORD97":2545552.9399999999,"ADDRESS":"大興街３５５巷３４號","OBJECTID":391690},"geometry":{"x":166563.04999999981,"y":2545552.9399999976}},{"attributes":{"ID":391715,"DIS_CODE":0,"TOWNNAME":"北區","LI":"大豐里","LIN":"23鄰","STREET":"大興街","SECT":" ","MAREA":" ","LANE":"３５５巷","ALLEY":" ","HOUSE_NO":"３５號","E_COORD97":166574.28,"N_COORD97":2545578.4199999999,"ADDRESS":"大興街３５５巷３５號","OBJECTID":391691},"geometry":{"x":166574.28000000119,"y":2545578.4200000018}},{"attributes":{"ID":391716,"DIS_CODE":0,"TOWNNAME":"北區","LI":"大豐里","LIN":"23鄰","STREET":"大興街","SECT":" ","MAREA":" ","LANE":"３５５巷","ALLEY":" ","HOUSE_NO":"３６號","E_COORD97":166563.70000000001,"N_COORD97":2545548.1699999999,"ADDRESS":"大興街３５５巷３６號","OBJECTID":391692},"geometry":{"x":166563.70000000019,"y":2545548.1699999999}},{"attributes":{"ID":391717,"DIS_CODE":0,"TOWNNAME":"新營區","LI":"新北里","LIN":"23鄰","STREET":"民生路","SECT":" ","MAREA":" ","LANE":"３８６巷","ALLEY":" ","HOUSE_NO":"８號","E_COORD97":178852.54999999999,"N_COORD97":2579317.9500000002,"ADDRESS":"民生路３８６巷８號","OBJECTID":391693},"geometry":{"x":178852.55000000075,"y":2579317.9500000011}},{"attributes":{"ID":391718,"DIS_CODE":0,"TOWNNAME":"北區","LI":"大豐里","LIN":"23鄰","STREET":"大興街","SECT":" ","MAREA":" ","LANE":"３５５巷","ALLEY":" ","HOUSE_NO":"３７號","E_COORD97":166574.28,"N_COORD97":2545573.4500000002,"ADDRESS":"大興街３５５巷３７號","OBJECTID":391694},"geometry":{"x":166574.28000000119,"y":2545573.450000003}},{"attributes":{"ID":391719,"DIS_CODE":0,"TOWNNAME":"北區","LI":"大豐里","LIN":"23鄰","STREET":"大興街","SECT":" ","MAREA":" ","LANE":"３５５巷","ALLEY":" ","HOUSE_NO":"３８號","E_COORD97":166564.14999999999,"N_COORD97":2545543.5899999999,"ADDRESS":"大興街３５５巷３８號","OBJECTID":391695},"geometry":{"x":166564.15000000037,"y":2545543.5900000017}},{"attributes":{"ID":391720,"DIS_CODE":0,"TOWNNAME":"北區","LI":"大豐里","LIN":"23鄰","STREET":"大興街","SECT":" ","MAREA":" ","LANE":"３５５巷","ALLEY":" ","HOUSE_NO":"３９號","E_COORD97":166574.98999999999,"N_COORD97":2545568.4900000002,"ADDRESS":"大興街３５５巷３９號","OBJECTID":391696},"geometry":{"x":166574.99000000115,"y":2545568.4900000021}},{"attributes":{"ID":391721,"DIS_CODE":0,"TOWNNAME":"北區","LI":"大豐里","LIN":"23鄰","STREET":"大興街","SECT":" ","MAREA":" ","LANE":"３５５巷","ALLEY":" ","HOUSE_NO":"４０號","E_COORD97":166564.85999999999,"N_COORD97":2545538.4300000002,"ADDRESS":"大興街３５５巷４０號","OBJECTID":391697},"geometry":{"x":166564.86000000034,"y":2545538.4299999997}},{"attributes":{"ID":391722,"DIS_CODE":0,"TOWNNAME":"北區","LI":"大豐里","LIN":"23鄰","STREET":"大興街","SECT":" ","MAREA":" ","LANE":"３５５巷","ALLEY":" ","HOUSE_NO":"４１號","E_COORD97":166575.64000000001,"N_COORD97":2545563.46,"ADDRESS":"大興街３５５巷４１號","OBJECTID":391698},"geometry":{"x":166575.63999999966,"y":2545563.4600000009}},{"attributes":{"ID":391723,"DIS_CODE":0,"TOWNNAME":"北區","LI":"大豐里","LIN":"23鄰","STREET":"大興街","SECT":" ","MAREA":" ","LANE":"３５５巷","ALLEY":" ","HOUSE_NO":"４２號","E_COORD97":166565.5,"N_COORD97":2545532.96,"ADDRESS":"大興街３５５巷４２號","OBJECTID":391699},"geometry":{"x":166565.49999999907,"y":2545532.9600000009}},{"attributes":{"ID":391724,"DIS_CODE":0,"TOWNNAME":"北區","LI":"大豐里","LIN":"23鄰","STREET":"大興街","SECT":" ","MAREA":" ","LANE":"３５５巷","ALLEY":" ","HOUSE_NO":"４３號","E_COORD97":166576.35000000001,"N_COORD97":2545558.9399999999,"ADDRESS":"大興街３５５巷４３號","OBJECTID":391700},"geometry":{"x":166576.35000000149,"y":2545558.9399999995}},{"attributes":{"ID":391725,"DIS_CODE":0,"TOWNNAME":"北區","LI":"大豐里","LIN":"23鄰","STREET":"大興街","SECT":" ","MAREA":" ","LANE":"３５５巷","ALLEY":" ","HOUSE_NO":"４４號","E_COORD97":166565.76000000001,"N_COORD97":2545528.3799999999,"ADDRESS":"大興街３５５巷４４號","OBJECTID":391701},"geometry":{"x":166565.76000000071,"y":2545528.379999999}},{"attributes":{"ID":391726,"DIS_CODE":0,"TOWNNAME":"北區","LI":"大豐里","LIN":"23鄰","STREET":"大興街","SECT":" ","MAREA":" ","LANE":"３５５巷","ALLEY":" ","HOUSE_NO":"４５號","E_COORD97":166576.54000000001,"N_COORD97":2545553.5899999999,"ADDRESS":"大興街３５５巷４５號","OBJECTID":391702},"geometry":{"x":166576.54000000004,"y":2545553.5900000017}},{"attributes":{"ID":391727,"DIS_CODE":0,"TOWNNAME":"北區","LI":"大豐里","LIN":"23鄰","STREET":"大興街","SECT":" ","MAREA":" ","LANE":"３５５巷","ALLEY":" ","HOUSE_NO":"４６號","E_COORD97":166565.82999999999,"N_COORD97":2545523.0299999998,"ADDRESS":"大興街３５５巷４６號","OBJECTID":391703},"geometry":{"x":166565.83000000101,"y":2545523.0300000012}},{"attributes":{"ID":391728,"DIS_CODE":0,"TOWNNAME":"北區","LI":"大豐里","LIN":"23鄰","STREET":"大興街","SECT":" ","MAREA":" ","LANE":"３５５巷","ALLEY":" ","HOUSE_NO":"４７號","E_COORD97":166576.98999999999,"N_COORD97":2545548.75,"ADDRESS":"大興街３５５巷４７號","OBJECTID":391704},"geometry":{"x":166576.99000000022,"y":2545548.7500000019}},{"attributes":{"ID":391729,"DIS_CODE":0,"TOWNNAME":"北區","LI":"大豐里","LIN":"23鄰","STREET":"大興街","SECT":" ","MAREA":" ","LANE":"３５５巷","ALLEY":" ","HOUSE_NO":"４８號","E_COORD97":166566.47,"N_COORD97":2545518.1299999999,"ADDRESS":"大興街３５５巷４８號","OBJECTID":391705},"geometry":{"x":166566.46999999974,"y":2545518.1300000008}},{"attributes":{"ID":391730,"DIS_CODE":0,"TOWNNAME":"北區","LI":"大豐里","LIN":"23鄰","STREET":"大興街","SECT":" ","MAREA":" ","LANE":"３５５巷","ALLEY":" ","HOUSE_NO":"４９號","E_COORD97":166577.57999999999,"N_COORD97":2545543.98,"ADDRESS":"大興街３５５巷４９號","OBJECTID":391706},"geometry":{"x":166577.58000000101,"y":2545543.9800000042}},{"attributes":{"ID":391731,"DIS_CODE":0,"TOWNNAME":"北區","LI":"大豐里","LIN":"23鄰","STREET":"大興街","SECT":" ","MAREA":" ","LANE":"３５５巷","ALLEY":" ","HOUSE_NO":"５０號","E_COORD97":166566.60000000001,"N_COORD97":2545512.7799999998,"ADDRESS":"大興街３５５巷５０號","OBJECTID":391707},"geometry":{"x":166566.60000000056,"y":2545512.7799999993}},{"attributes":{"ID":391732,"DIS_CODE":0,"TOWNNAME":"北區","LI":"大豐里","LIN":"23鄰","STREET":"大興街","SECT":" ","MAREA":" ","LANE":"３５５巷","ALLEY":" ","HOUSE_NO":"５１號","E_COORD97":166578.16,"N_COORD97":2545539.3399999999,"ADDRESS":"大興街３５５巷５１號","OBJECTID":391708},"geometry":{"x":166578.16000000201,"y":2545539.3399999999}},{"attributes":{"ID":391733,"DIS_CODE":0,"TOWNNAME":"北區","LI":"大豐里","LIN":"23鄰","STREET":"大興街","SECT":" ","MAREA":" ","LANE":"３５５巷","ALLEY":" ","HOUSE_NO":"５２號","E_COORD97":166567.12,"N_COORD97":2545508.2400000002,"ADDRESS":"大興街３５５巷５２號","OBJECTID":391709},"geometry":{"x":166567.12000000104,"y":2545508.2400000021}},{"attributes":{"ID":391734,"DIS_CODE":0,"TOWNNAME":"北區","LI":"大豐里","LIN":"23鄰","STREET":"大興街","SECT":" ","MAREA":" ","LANE":"３５５巷","ALLEY":" ","HOUSE_NO":"５４號","E_COORD97":166568.09,"N_COORD97":2545503.21,"ADDRESS":"大興街３５５巷５４號","OBJECTID":391710},"geometry":{"x":166568.08999999892,"y":2545503.2100000028}},{"attributes":{"ID":391735,"DIS_CODE":0,"TOWNNAME":"北區","LI":"大豐里","LIN":"23鄰","STREET":"大興街","SECT":" ","MAREA":" ","LANE":"３５５巷","ALLEY":" ","HOUSE_NO":"５５號","E_COORD97":166578.85999999999,"N_COORD97":2545528.8999999999,"ADDRESS":"大興街３５５巷５５號","OBJECTID":391711},"geometry":{"x":166578.8600000022,"y":2545528.9000000022}},{"attributes":{"ID":391736,"DIS_CODE":0,"TOWNNAME":"北區","LI":"大豐里","LIN":"23鄰","STREET":"大興街","SECT":" ","MAREA":" ","LANE":"３５５巷","ALLEY":" ","HOUSE_NO":"５６號","E_COORD97":166568.67000000001,"N_COORD97":2545497.8599999999,"ADDRESS":"大興街３５５巷５６號","OBJECTID":391712},"geometry":{"x":166568.66999999993,"y":2545497.8599999994}},{"attributes":{"ID":391737,"DIS_CODE":0,"TOWNNAME":"北區","LI":"大豐里","LIN":"23鄰","STREET":"大興街","SECT":" ","MAREA":" ","LANE":"３５５巷","ALLEY":" ","HOUSE_NO":"５７號","E_COORD97":166579.32999999999,"N_COORD97":2545524.3700000001,"ADDRESS":"大興街３５５巷５７號","OBJECTID":391713},"geometry":{"x":166579.33000000101,"y":2545524.370000001}},{"attributes":{"ID":391738,"DIS_CODE":0,"TOWNNAME":"北區","LI":"大豐里","LIN":"23鄰","STREET":"大興街","SECT":" ","MAREA":" ","LANE":"３５５巷","ALLEY":" ","HOUSE_NO":"５８號","E_COORD97":166569.25,"N_COORD97":2545492.1200000001,"ADDRESS":"大興街３５５巷５８號","OBJECTID":391714},"geometry":{"x":166569.25000000093,"y":2545492.120000001}},{"attributes":{"ID":391739,"DIS_CODE":0,"TOWNNAME":"北區","LI":"大豐里","LIN":"23鄰","STREET":"大興街","SECT":" ","MAREA":" ","LANE":"３５５巷","ALLEY":" ","HOUSE_NO":"５９號","E_COORD97":166579.57999999999,"N_COORD97":2545518.8999999999,"ADDRESS":"大興街３５５巷５９號","OBJECTID":391715},"geometry":{"x":166579.58000000007,"y":2545518.9000000004}},{"attributes":{"ID":391740,"DIS_CODE":0,"TOWNNAME":"北區","LI":"大豐里","LIN":"23鄰","STREET":"大興街","SECT":" ","MAREA":" ","LANE":"３５５巷","ALLEY":" ","HOUSE_NO":"６１號","E_COORD97":166579.82999999999,"N_COORD97":2545513.9399999999,"ADDRESS":"大興街３５５巷６１號","OBJECTID":391716},"geometry":{"x":166579.83000000007,"y":2545513.9400000013}},{"attributes":{"ID":391741,"DIS_CODE":0,"TOWNNAME":"北區","LI":"大豐里","LIN":"23鄰","STREET":"大興街","SECT":" ","MAREA":" ","LANE":"３５５巷","ALLEY":" ","HOUSE_NO":"６３號","E_COORD97":166580.79999999999,"N_COORD97":2545509.0699999998,"ADDRESS":"大興街３５５巷６３號","OBJECTID":391717},"geometry":{"x":166580.80000000075,"y":2545509.070000004}},{"attributes":{"ID":391742,"DIS_CODE":0,"TOWNNAME":"北區","LI":"大豐里","LIN":"23鄰","STREET":"大興街","SECT":" ","MAREA":" ","LANE":"３５５巷","ALLEY":" ","HOUSE_NO":"６５號","E_COORD97":166581,"N_COORD97":2545503.9100000001,"ADDRESS":"大興街３５５巷６５號","OBJECTID":391718},"geometry":{"x":166581.00000000093,"y":2545503.910000002}},{"attributes":{"ID":391743,"DIS_CODE":0,"TOWNNAME":"北區","LI":"大豐里","LIN":"23鄰","STREET":"大興街","SECT":" ","MAREA":" ","LANE":"３５５巷","ALLEY":" ","HOUSE_NO":"６７號","E_COORD97":166581.89999999999,"N_COORD97":2545498.4900000002,"ADDRESS":"大興街３５５巷６７號","OBJECTID":391719},"geometry":{"x":166581.90000000224,"y":2545498.4900000002}},{"attributes":{"ID":391744,"DIS_CODE":0,"TOWNNAME":"北區","LI":"大豐里","LIN":"23鄰","STREET":"大興街","SECT":" ","MAREA":" ","LANE":"３５５巷","ALLEY":" ","HOUSE_NO":"６９號","E_COORD97":166582.09,"N_COORD97":2545494.1099999999,"ADDRESS":"大興街３５５巷６９號","OBJECTID":391720},"geometry":{"x":166582.09000000078,"y":2545494.1099999975}},{"attributes":{"ID":391745,"DIS_CODE":0,"TOWNNAME":"北區","LI":"大港里","LIN":"23鄰","STREET":"中華北路","SECT":"一段","MAREA":" ","LANE":"１８１巷","ALLEY":" ","HOUSE_NO":"１３之１號","E_COORD97":166404.17999999999,"N_COORD97":2545649.2200000002,"ADDRESS":"中華北路一段１８１巷１３之１號","OBJECTID":391721},"geometry":{"x":166404.1799999997,"y":2545649.2200000007}},{"attributes":{"ID":391746,"DIS_CODE":0,"TOWNNAME":"北區","LI":"大港里","LIN":"23鄰","STREET":"中華北路","SECT":"一段","MAREA":" ","LANE":"１８１巷","ALLEY":" ","HOUSE_NO":"６號","E_COORD97":166431.39000000001,"N_COORD97":2545671.4900000002,"ADDRESS":"中華北路一段１８１巷６號","OBJECTID":391722},"geometry":{"x":166431.38999999966,"y":2545671.4900000002}},{"attributes":{"ID":391747,"DIS_CODE":0,"TOWNNAME":"北區","LI":"大港里","LIN":"23鄰","STREET":"中華北路","SECT":"一段","MAREA":" ","LANE":"１８１巷","ALLEY":" ","HOUSE_NO":"５７號","E_COORD97":166328.41,"N_COORD97":2545626.6099999999,"ADDRESS":"中華北路一段１８１巷５７號","OBJECTID":391723},"geometry":{"x":166328.41000000015,"y":2545626.6100000031}},{"attributes":{"ID":391748,"DIS_CODE":0,"TOWNNAME":"北區","LI":"大港里","LIN":"23鄰","STREET":"中華北路","SECT":"一段","MAREA":" ","LANE":"１８１巷","ALLEY":" ","HOUSE_NO":"５９號","E_COORD97":166324.22,"N_COORD97":2545625.7200000002,"ADDRESS":"中華北路一段１８１巷５９號","OBJECTID":391724},"geometry":{"x":166324.21999999974,"y":2545625.7200000007}},{"attributes":{"ID":391749,"DIS_CODE":0,"TOWNNAME":"北區","LI":"大港里","LIN":"23鄰","STREET":"中華北路","SECT":"一段","MAREA":" ","LANE":"１８１巷","ALLEY":" ","HOUSE_NO":"６１號","E_COORD97":166320.28,"N_COORD97":2545624.5800000001,"ADDRESS":"中華北路一段１８１巷６１號","OBJECTID":391725},"geometry":{"x":166320.28000000119,"y":2545624.5800000019}},{"attributes":{"ID":391750,"DIS_CODE":0,"TOWNNAME":"新營區","LI":"新北里","LIN":"23鄰","STREET":"民生路","SECT":" ","MAREA":" ","LANE":"３８６巷","ALLEY":" ","HOUSE_NO":"４８號","E_COORD97":178975.54999999999,"N_COORD97":2579324.0099999998,"ADDRESS":"民生路３８６巷４８號","OBJECTID":391726},"geometry":{"x":178975.55000000168,"y":2579324.0099999998}},{"attributes":{"ID":391751,"DIS_CODE":0,"TOWNNAME":"新營區","LI":"新北里","LIN":"23鄰","STREET":"民生路","SECT":" ","MAREA":" ","LANE":"３８６巷","ALLEY":" ","HOUSE_NO":"６４號","E_COORD97":179015.39000000001,"N_COORD97":2579327.1499999999,"ADDRESS":"民生路３８６巷６４號","OBJECTID":391727},"geometry":{"x":179015.39000000153,"y":2579327.1500000004}},{"attributes":{"ID":391752,"DIS_CODE":0,"TOWNNAME":"新營區","LI":"新北里","LIN":"23鄰","STREET":"民生路","SECT":" ","MAREA":" ","LANE":"３８６巷","ALLEY":" ","HOUSE_NO":"４５號","E_COORD97":178943.94,"N_COORD97":2579344.1099999999,"ADDRESS":"民生路３８６巷４５號","OBJECTID":391728},"geometry":{"x":178943.94000000041,"y":2579344.1100000013}},{"attributes":{"ID":391753,"DIS_CODE":0,"TOWNNAME":"新營區","LI":"新北里","LIN":"23鄰","STREET":"民生路","SECT":" ","MAREA":" ","LANE":"３８６巷","ALLEY":" ","HOUSE_NO":"５６號","E_COORD97":178994.92999999999,"N_COORD97":2579325.0299999998,"ADDRESS":"民生路３８６巷５６號","OBJECTID":391729},"geometry":{"x":178994.93000000156,"y":2579325.0300000012}},{"attributes":{"ID":391754,"DIS_CODE":0,"TOWNNAME":"新營區","LI":"忠政里","LIN":"23鄰","STREET":"府西路","SECT":" ","MAREA":" ","LANE":"１８１巷","ALLEY":" ","HOUSE_NO":"５號","E_COORD97":179760.23999999999,"N_COORD97":2579426.5800000001,"ADDRESS":"府西路１８１巷５號","OBJECTID":391730},"geometry":{"x":179760.24000000115,"y":2579426.5800000019}},{"attributes":{"ID":391755,"DIS_CODE":0,"TOWNNAME":"新營區","LI":"新北里","LIN":"23鄰","STREET":"民生路","SECT":" ","MAREA":" ","LANE":"３８６巷","ALLEY":" ","HOUSE_NO":"４２之１號","E_COORD97":178966.79999999999,"N_COORD97":2579323.0099999998,"ADDRESS":"民生路３８６巷４２之１號","OBJECTID":391731},"geometry":{"x":178966.79999999981,"y":2579323.0099999998}},{"attributes":{"ID":391756,"DIS_CODE":0,"TOWNNAME":"新營區","LI":"王公里","LIN":"23鄰","STREET":"樂仁街","SECT":" ","MAREA":" ","LANE":"１６巷","ALLEY":" ","HOUSE_NO":"９號","E_COORD97":180556.5,"N_COORD97":2579111.6299999999,"ADDRESS":"樂仁街１６巷９號","OBJECTID":391732},"geometry":{"x":180556.50000000093,"y":2579111.629999999}},{"attributes":{"ID":391757,"DIS_CODE":0,"TOWNNAME":"新營區","LI":"新北里","LIN":"23鄰","STREET":"民生路","SECT":" ","MAREA":" ","LANE":"３８６巷","ALLEY":" ","HOUSE_NO":"４６號","E_COORD97":178969.41,"N_COORD97":2579322.9399999999,"ADDRESS":"民生路３８６巷４６號","OBJECTID":391733},"geometry":{"x":178969.41000000015,"y":2579322.9400000013}},{"attributes":{"ID":391758,"DIS_CODE":0,"TOWNNAME":"新營區","LI":"新北里","LIN":"23鄰","STREET":"民生路","SECT":" ","MAREA":" ","LANE":"３８６巷","ALLEY":" ","HOUSE_NO":"４２號","E_COORD97":178959.17999999999,"N_COORD97":2579321.8799999999,"ADDRESS":"民生路３８６巷４２號","OBJECTID":391734},"geometry":{"x":178959.17999999877,"y":2579321.8800000008}},{"attributes":{"ID":391759,"DIS_CODE":0,"TOWNNAME":"新營區","LI":"新北里","LIN":"23鄰","STREET":"民生路","SECT":" ","MAREA":" ","LANE":"３８６巷","ALLEY":" ","HOUSE_NO":"４９號","E_COORD97":178952.13,"N_COORD97":2579345.1800000002,"ADDRESS":"民生路３８６巷４９號","OBJECTID":391735},"geometry":{"x":178952.13000000082,"y":2579345.1800000016}},{"attributes":{"ID":391760,"DIS_CODE":0,"TOWNNAME":"新營區","LI":"忠政里","LIN":"23鄰","STREET":"府西路","SECT":" ","MAREA":" ","LANE":"１８１巷","ALLEY":" ","HOUSE_NO":"６號","E_COORD97":179762.35000000001,"N_COORD97":2579440.9700000002,"ADDRESS":"府西路１８１巷６號","OBJECTID":391736},"geometry":{"x":179762.35000000056,"y":2579440.9700000044}},{"attributes":{"ID":391761,"DIS_CODE":0,"TOWNNAME":"新營區","LI":"南紙里","LIN":"23鄰","STREET":"南紙街","SECT":" ","MAREA":" ","LANE":"１１９巷","ALLEY":" ","HOUSE_NO":"１號","E_COORD97":177833.76999999999,"N_COORD97":2577429.1400000001,"ADDRESS":"南紙街１１９巷１號","OBJECTID":391737},"geometry":{"x":177833.76999999955,"y":2577429.1399999987}},{"attributes":{"ID":391762,"DIS_CODE":0,"TOWNNAME":"新營區","LI":"新北里","LIN":"23鄰","STREET":"民生路","SECT":" ","MAREA":" ","LANE":"３８６巷","ALLEY":" ","HOUSE_NO":"４７號","E_COORD97":178948.03,"N_COORD97":2579345.2000000002,"ADDRESS":"民生路３８６巷４７號","OBJECTID":391738},"geometry":{"x":178948.03000000119,"y":2579345.1999999993}},{"attributes":{"ID":391763,"DIS_CODE":0,"TOWNNAME":"新營區","LI":"新北里","LIN":"23鄰","STREET":"民生路","SECT":" ","MAREA":" ","LANE":"３８６巷","ALLEY":" ","HOUSE_NO":"５８號","E_COORD97":179000.04999999999,"N_COORD97":2579326.1099999999,"ADDRESS":"民生路３８６巷５８號","OBJECTID":391739},"geometry":{"x":179000.05000000075,"y":2579326.1099999994}},{"attributes":{"ID":391764,"DIS_CODE":0,"TOWNNAME":"新營區","LI":"新北里","LIN":"23鄰","STREET":"民生路","SECT":" ","MAREA":" ","LANE":"３８６巷","ALLEY":" ","HOUSE_NO":"５０號","E_COORD97":178980.60000000001,"N_COORD97":2579323.9900000002,"ADDRESS":"民生路３８６巷５０號","OBJECTID":391740},"geometry":{"x":178980.60000000056,"y":2579323.9900000002}},{"attributes":{"ID":391765,"DIS_CODE":0,"TOWNNAME":"新營區","LI":"新北里","LIN":"23鄰","STREET":"民生路","SECT":" ","MAREA":" ","LANE":"３８６巷","ALLEY":" ","HOUSE_NO":"４０號","E_COORD97":178954.06,"N_COORD97":2579320.7999999998,"ADDRESS":"民生路３８６巷４０號","OBJECTID":391741},"geometry":{"x":178954.05999999959,"y":2579320.8000000026}},{"attributes":{"ID":391766,"DIS_CODE":0,"TOWNNAME":"新營區","LI":"新南里","LIN":"23鄰","STREET":"復興路","SECT":" ","MAREA":" ","LANE":"６８２巷","ALLEY":" ","HOUSE_NO":"８號","E_COORD97":177874.41,"N_COORD97":2578409.0299999998,"ADDRESS":"復興路６８２巷８號","OBJECTID":391742},"geometry":{"x":177874.41000000015,"y":2578409.0300000012}},{"attributes":{"ID":391767,"DIS_CODE":0,"TOWNNAME":"新營區","LI":"新南里","LIN":"23鄰","STREET":"復興路","SECT":" ","MAREA":" ","LANE":"６８２巷","ALLEY":" ","HOUSE_NO":"１６之１號","E_COORD97":177891.5,"N_COORD97":2578432.2799999998,"ADDRESS":"復興路６８２巷１６之１號","OBJECTID":391743},"geometry":{"x":177891.50000000093,"y":2578432.2800000012}},{"attributes":{"ID":391768,"DIS_CODE":0,"TOWNNAME":"新營區","LI":"新南里","LIN":"23鄰","STREET":"復興路","SECT":" ","MAREA":" ","LANE":"６８２巷","ALLEY":" ","HOUSE_NO":"６號","E_COORD97":177873.29999999999,"N_COORD97":2578404.6099999999,"ADDRESS":"復興路６８２巷６號","OBJECTID":391744},"geometry":{"x":177873.29999999981,"y":2578404.6100000031}},{"attributes":{"ID":391769,"DIS_CODE":0,"TOWNNAME":"新營區","LI":"新南里","LIN":"23鄰","STREET":"復興路","SECT":" ","MAREA":" ","LANE":"６８２巷","ALLEY":" ","HOUSE_NO":"１６號","E_COORD97":177880.82000000001,"N_COORD97":2578433.3799999999,"ADDRESS":"復興路６８２巷１６號","OBJECTID":391745},"geometry":{"x":177880.82000000216,"y":2578433.3800000008}},{"attributes":{"ID":391770,"DIS_CODE":0,"TOWNNAME":"新營區","LI":"民榮里","LIN":"23鄰","STREET":"裕民路","SECT":" ","MAREA":" ","LANE":"１６巷","ALLEY":" ","HOUSE_NO":"１９號","E_COORD97":179075.07999999999,"N_COORD97":2577910.4300000002,"ADDRESS":"裕民路１６巷１９號","OBJECTID":391746},"geometry":{"x":179075.08000000007,"y":2577910.4299999997}},{"attributes":{"ID":391771,"DIS_CODE":0,"TOWNNAME":"新營區","LI":"新北里","LIN":"23鄰","STREET":"民生路","SECT":" ","MAREA":" ","LANE":"３８６巷","ALLEY":" ","HOUSE_NO":"５２號","E_COORD97":178984.70000000001,"N_COORD97":2579323.9700000002,"ADDRESS":"民生路３８６巷５２號","OBJECTID":391747},"geometry":{"x":178984.70000000019,"y":2579323.9700000025}},{"attributes":{"ID":391772,"DIS_CODE":0,"TOWNNAME":"新營區","LI":"新南里","LIN":"23鄰","STREET":"復興路","SECT":" ","MAREA":" ","LANE":"６８２巷","ALLEY":" ","HOUSE_NO":"１０號","E_COORD97":177876.64000000001,"N_COORD97":2578414.5699999998,"ADDRESS":"復興路６８２巷１０號","OBJECTID":391748},"geometry":{"x":177876.6400000006,"y":2578414.5700000003}},{"attributes":{"ID":391773,"DIS_CODE":0,"TOWNNAME":"新營區","LI":"新北里","LIN":"23鄰","STREET":"民生路","SECT":" ","MAREA":" ","LANE":"３８６巷","ALLEY":" ","HOUSE_NO":"２４號","E_COORD97":178901.87,"N_COORD97":2579316.6200000001,"ADDRESS":"民生路３８６巷２４號","OBJECTID":391749},"geometry":{"x":178901.87000000011,"y":2579316.6200000029}},{"attributes":{"ID":391774,"DIS_CODE":0,"TOWNNAME":"新營區","LI":"新北里","LIN":"23鄰","STREET":"民生路","SECT":" ","MAREA":" ","LANE":"３８６巷","ALLEY":" ","HOUSE_NO":"６０號","E_COORD97":179005.14999999999,"N_COORD97":2579326.0899999999,"ADDRESS":"民生路３８６巷６０號","OBJECTID":391750},"geometry":{"x":179005.15000000037,"y":2579326.0899999999}},{"attributes":{"ID":391775,"DIS_CODE":0,"TOWNNAME":"新營區","LI":"忠政里","LIN":"23鄰","STREET":"府西路","SECT":" ","MAREA":" ","LANE":"１８７巷","ALLEY":" ","HOUSE_NO":"１０號","E_COORD97":179754.53,"N_COORD97":2579473.1299999999,"ADDRESS":"府西路１８７巷１０號","OBJECTID":391751},"geometry":{"x":179754.53000000119,"y":2579473.1300000008}},{"attributes":{"ID":391776,"DIS_CODE":0,"TOWNNAME":"新營區","LI":"新北里","LIN":"23鄰","STREET":"民生路","SECT":" ","MAREA":" ","LANE":"３８６巷","ALLEY":" ","HOUSE_NO":"４１號","E_COORD97":178935.75,"N_COORD97":2579343.04,"ADDRESS":"民生路３８６巷４１號","OBJECTID":391752},"geometry":{"x":178935.75000000093,"y":2579343.0399999991}},{"attributes":{"ID":391777,"DIS_CODE":0,"TOWNNAME":"新營區","LI":"忠政里","LIN":"23鄰","STREET":"府西路","SECT":" ","MAREA":" ","LANE":"１８７巷","ALLEY":" ","HOUSE_NO":"１６號","E_COORD97":179742.26000000001,"N_COORD97":2579472.0800000001,"ADDRESS":"府西路１８７巷１６號","OBJECTID":391753},"geometry":{"x":179742.26000000071,"y":2579472.0800000001}},{"attributes":{"ID":391778,"DIS_CODE":0,"TOWNNAME":"新營區","LI":"忠政里","LIN":"23鄰","STREET":"府西路","SECT":" ","MAREA":" ","LANE":"１８７巷","ALLEY":" ","HOUSE_NO":"１９號","E_COORD97":179730.32000000001,"N_COORD97":2579453.71,"ADDRESS":"府西路１８７巷１９號","OBJECTID":391754},"geometry":{"x":179730.32000000216,"y":2579453.7100000028}},{"attributes":{"ID":391779,"DIS_CODE":0,"TOWNNAME":"永康區","LI":"西勢里","LIN":"23鄰","STREET":"富強路","SECT":"一段","MAREA":" ","LANE":"１９４巷","ALLEY":" ","HOUSE_NO":"３４號","E_COORD97":175674.66,"N_COORD97":2546275.8199999998,"ADDRESS":"富強路一段１９４巷３４號","OBJECTID":391755},"geometry":{"x":175674.66000000201,"y":2546275.8200000003}},{"attributes":{"ID":391780,"DIS_CODE":0,"TOWNNAME":"中西區","LI":"西賢里","LIN":"23鄰","STREET":"西賢二街","SECT":" ","MAREA":" ","LANE":"１０９巷","ALLEY":" ","HOUSE_NO":"１０號","E_COORD97":165537.51000000001,"N_COORD97":2544608.1099999999,"ADDRESS":"西賢二街１０９巷１０號","OBJECTID":391756},"geometry":{"x":165537.50999999978,"y":2544608.1099999994}},{"attributes":{"ID":391781,"DIS_CODE":0,"TOWNNAME":"新化區","LI":"東榮里","LIN":"23鄰","STREET":"復興路","SECT":" ","MAREA":" ","LANE":"２０３巷","ALLEY":" ","HOUSE_NO":"２６號","E_COORD97":179341.47,"N_COORD97":2548026.25,"ADDRESS":"復興路２０３巷２６號","OBJECTID":391757},"geometry":{"x":179341.46999999974,"y":2548026.25}},{"attributes":{"ID":391782,"DIS_CODE":0,"TOWNNAME":"新化區","LI":"東榮里","LIN":"23鄰","STREET":"復興路","SECT":" ","MAREA":" ","LANE":"２０３巷","ALLEY":" ","HOUSE_NO":"１８號","E_COORD97":179363.17000000001,"N_COORD97":2548037.25,"ADDRESS":"復興路２０３巷１８號","OBJECTID":391758},"geometry":{"x":179363.17000000086,"y":2548037.2500000019}},{"attributes":{"ID":391783,"DIS_CODE":0,"TOWNNAME":"安南區","LI":"幸福里","LIN":"23鄰","STREET":"府安路","SECT":"六段","MAREA":" ","LANE":"７巷","ALLEY":" ","HOUSE_NO":"４１號","E_COORD97":167104.63,"N_COORD97":2546838.3900000001,"ADDRESS":"府安路六段７巷４１號","OBJECTID":391759},"geometry":{"x":167104.62999999989,"y":2546838.3900000006}},{"attributes":{"ID":391784,"DIS_CODE":0,"TOWNNAME":"安南區","LI":"海東里","LIN":"23鄰","STREET":"同安路","SECT":" ","MAREA":" ","LANE":"１６７巷","ALLEY":" ","HOUSE_NO":"３３號","E_COORD97":166991.76000000001,"N_COORD97":2549161.0099999998,"ADDRESS":"同安路１６７巷３３號","OBJECTID":391760},"geometry":{"x":166991.75999999978,"y":2549161.0100000016}},{"attributes":{"ID":391785,"DIS_CODE":0,"TOWNNAME":"新化區","LI":"東榮里","LIN":"23鄰","STREET":"復興路","SECT":" ","MAREA":" ","LANE":"２０３巷","ALLEY":" ","HOUSE_NO":"１６號","E_COORD97":179379.07000000001,"N_COORD97":2548029.25,"ADDRESS":"復興路２０３巷１６號","OBJECTID":391761},"geometry":{"x":179379.0700000003,"y":2548029.25}},{"attributes":{"ID":391786,"DIS_CODE":0,"TOWNNAME":"新化區","LI":"東榮里","LIN":"23鄰","STREET":"復興路","SECT":" ","MAREA":" ","LANE":"２０３巷","ALLEY":" ","HOUSE_NO":"２４號","E_COORD97":179345.47,"N_COORD97":2548027.25,"ADDRESS":"復興路２０３巷２４號","OBJECTID":391762},"geometry":{"x":179345.46999999881,"y":2548027.2500000019}},{"attributes":{"ID":391787,"DIS_CODE":0,"TOWNNAME":"南區","LI":"光明里","LIN":"23鄰","STREET":"新建路","SECT":" ","MAREA":" ","LANE":"２３巷","ALLEY":" ","HOUSE_NO":"７號","E_COORD97":166560.35000000001,"N_COORD97":2541383.02,"ADDRESS":"新建路２３巷７號","OBJECTID":391763},"geometry":{"x":166560.34999999963,"y":2541383.0200000014}},{"attributes":{"ID":391788,"DIS_CODE":0,"TOWNNAME":"南區","LI":"光明里","LIN":"23鄰","STREET":"新建路","SECT":" ","MAREA":" ","LANE":"２３巷","ALLEY":" ","HOUSE_NO":"１４號","E_COORD97":166536.75,"N_COORD97":2541359.0299999998,"ADDRESS":"新建路２３巷１４號","OBJECTID":391764},"geometry":{"x":166536.75000000186,"y":2541359.0300000012}},{"attributes":{"ID":391789,"DIS_CODE":0,"TOWNNAME":"南區","LI":"光明里","LIN":"23鄰","STREET":"新建路","SECT":" ","MAREA":" ","LANE":"２３巷","ALLEY":" ","HOUSE_NO":"１６號","E_COORD97":166543.17000000001,"N_COORD97":2541358.8900000001,"ADDRESS":"新建路２３巷１６號","OBJECTID":391765},"geometry":{"x":166543.16999999993,"y":2541358.8900000025}},{"attributes":{"ID":391790,"DIS_CODE":0,"TOWNNAME":"南區","LI":"光明里","LIN":"23鄰","STREET":"新建路","SECT":" ","MAREA":" ","LANE":"２３巷","ALLEY":" ","HOUSE_NO":"１８號","E_COORD97":166550.73999999999,"N_COORD97":2541359.0299999998,"ADDRESS":"新建路２３巷１８號","OBJECTID":391766},"geometry":{"x":166550.74000000209,"y":2541359.0300000012}},{"attributes":{"ID":391791,"DIS_CODE":0,"TOWNNAME":"南區","LI":"光明里","LIN":"23鄰","STREET":"新建路","SECT":" ","MAREA":" ","LANE":"２３巷","ALLEY":" ","HOUSE_NO":"２０號","E_COORD97":166557.88,"N_COORD97":2541358.6099999999,"ADDRESS":"新建路２３巷２０號","OBJECTID":391767},"geometry":{"x":166557.88000000175,"y":2541358.6100000013}},{"attributes":{"ID":391792,"DIS_CODE":0,"TOWNNAME":"南區","LI":"光明里","LIN":"23鄰","STREET":"新建路","SECT":" ","MAREA":" ","LANE":"２３巷","ALLEY":" ","HOUSE_NO":"２２號","E_COORD97":166565.29999999999,"N_COORD97":2541359.0299999998,"ADDRESS":"新建路２３巷２２號","OBJECTID":391768},"geometry":{"x":166565.30000000075,"y":2541359.0300000012}},{"attributes":{"ID":391793,"DIS_CODE":0,"TOWNNAME":"南區","LI":"光明里","LIN":"23鄰","STREET":"新建路","SECT":" ","MAREA":" ","LANE":"２３巷","ALLEY":" ","HOUSE_NO":"２４號","E_COORD97":166572.01000000001,"N_COORD97":2541358.75,"ADDRESS":"新建路２３巷２４號","OBJECTID":391769},"geometry":{"x":166572.01000000164,"y":2541358.7500000019}},{"attributes":{"ID":391794,"DIS_CODE":0,"TOWNNAME":"南區","LI":"光明里","LIN":"23鄰","STREET":"新建路","SECT":" ","MAREA":" ","LANE":"２３巷","ALLEY":" ","HOUSE_NO":"２６號","E_COORD97":166579.42999999999,"N_COORD97":2541358.8900000001,"ADDRESS":"新建路２３巷２６號","OBJECTID":391770},"geometry":{"x":166579.43000000156,"y":2541358.8900000025}},{"attributes":{"ID":391795,"DIS_CODE":0,"TOWNNAME":"南區","LI":"光明里","LIN":"23鄰","STREET":"新建路","SECT":" ","MAREA":" ","LANE":"２３巷","ALLEY":" ","HOUSE_NO":"２８號","E_COORD97":166586.42999999999,"N_COORD97":2541359.1800000002,"ADDRESS":"新建路２３巷２８號","OBJECTID":391771},"geometry":{"x":166586.43000000063,"y":2541359.1800000016}},{"attributes":{"ID":391796,"DIS_CODE":0,"TOWNNAME":"南區","LI":"府南里","LIN":"23鄰","STREET":"大成路","SECT":"二段","MAREA":" ","LANE":"１４３巷","ALLEY":" ","HOUSE_NO":"１９號之１","E_COORD97":167331.98000000001,"N_COORD97":2541629.3399999999,"ADDRESS":"大成路二段１４３巷１９號之１","OBJECTID":391772},"geometry":{"x":167331.98000000045,"y":2541629.3400000017}},{"attributes":{"ID":391797,"DIS_CODE":0,"TOWNNAME":"南區","LI":"府南里","LIN":"23鄰","STREET":"大成路","SECT":"二段","MAREA":" ","LANE":"１４３巷","ALLEY":" ","HOUSE_NO":"２１號","E_COORD97":167306.57999999999,"N_COORD97":2541630.0800000001,"ADDRESS":"大成路二段１４３巷２１號","OBJECTID":391773},"geometry":{"x":167306.58000000101,"y":2541630.0800000038}},{"attributes":{"ID":391798,"DIS_CODE":0,"TOWNNAME":"南區","LI":"府南里","LIN":"23鄰","STREET":"大成路","SECT":"二段","MAREA":" ","LANE":"１４３巷","ALLEY":" ","HOUSE_NO":"２１號之１","E_COORD97":167328.98999999999,"N_COORD97":2541622.3700000001,"ADDRESS":"大成路二段１４３巷２１號之１","OBJECTID":391774},"geometry":{"x":167328.99000000115,"y":2541622.3700000048}},{"attributes":{"ID":391799,"DIS_CODE":0,"TOWNNAME":"安南區","LI":"安慶里","LIN":"23鄰","STREET":"安通二街","SECT":" ","MAREA":" ","LANE":"１３６巷","ALLEY":" ","HOUSE_NO":"３２號","E_COORD97":168707.14999999999,"N_COORD97":2548203.3999999999,"ADDRESS":"安通二街１３６巷３２號","OBJECTID":391775},"geometry":{"x":168707.15000000037,"y":2548203.4000000022}},{"attributes":{"ID":391800,"DIS_CODE":0,"TOWNNAME":"安南區","LI":"安慶里","LIN":"23鄰","STREET":"安通二街","SECT":" ","MAREA":" ","LANE":"１３６巷","ALLEY":" ","HOUSE_NO":"３６號","E_COORD97":168712.23000000001,"N_COORD97":2548206.4199999999,"ADDRESS":"安通二街１３６巷３６號","OBJECTID":391776},"geometry":{"x":168712.23000000231,"y":2548206.4200000018}},{"attributes":{"ID":391801,"DIS_CODE":0,"TOWNNAME":"安南區","LI":"海佃里","LIN":"23鄰","STREET":"郡安路","SECT":"六段","MAREA":" ","LANE":"５５巷","ALLEY":" ","HOUSE_NO":"１９６號","E_COORD97":166766.60999999999,"N_COORD97":2547334.8599999999,"ADDRESS":"郡安路六段５５巷１９６號","OBJECTID":391777},"geometry":{"x":166766.61000000034,"y":2547334.8600000013}},{"attributes":{"ID":391802,"DIS_CODE":0,"TOWNNAME":"安南區","LI":"海佃里","LIN":"23鄰","STREET":"郡安路","SECT":"六段","MAREA":" ","LANE":"５５巷","ALLEY":" ","HOUSE_NO":"１９８號","E_COORD97":166767.56,"N_COORD97":2547331.21,"ADDRESS":"郡安路六段５５巷１９８號","OBJECTID":391778},"geometry":{"x":166767.55999999959,"y":2547331.2100000009}},{"attributes":{"ID":391803,"DIS_CODE":0,"TOWNNAME":"安南區","LI":"海佃里","LIN":"23鄰","STREET":"郡安路","SECT":"六段","MAREA":" ","LANE":"５５巷","ALLEY":" ","HOUSE_NO":"２００號","E_COORD97":166768.98999999999,"N_COORD97":2547327.5600000001,"ADDRESS":"郡安路六段５５巷２００號","OBJECTID":391779},"geometry":{"x":166768.99000000022,"y":2547327.5600000024}},{"attributes":{"ID":391804,"DIS_CODE":0,"TOWNNAME":"安南區","LI":"海佃里","LIN":"23鄰","STREET":"郡安路","SECT":"六段","MAREA":" ","LANE":"５５巷","ALLEY":" ","HOUSE_NO":"２０２號","E_COORD97":166769.95000000001,"N_COORD97":2547324.54,"ADDRESS":"郡安路六段５５巷２０２號","OBJECTID":391780},"geometry":{"x":166769.95000000112,"y":2547324.5399999991}},{"attributes":{"ID":391805,"DIS_CODE":0,"TOWNNAME":"安南區","LI":"海佃里","LIN":"23鄰","STREET":"郡安路","SECT":"六段","MAREA":" ","LANE":"５５巷","ALLEY":" ","HOUSE_NO":"２０６號","E_COORD97":166771.53,"N_COORD97":2547319.7799999998,"ADDRESS":"郡安路六段５５巷２０６號","OBJECTID":391781},"geometry":{"x":166771.53000000119,"y":2547319.7799999993}},{"attributes":{"ID":391806,"DIS_CODE":0,"TOWNNAME":"仁德區","LI":"仁德里","LIN":"23鄰","STREET":"文心路","SECT":" ","MAREA":" ","LANE":"５８巷","ALLEY":" ","HOUSE_NO":"１１號","E_COORD97":172214.78,"N_COORD97":2541387.0699999998,"ADDRESS":"文心路５８巷１１號","OBJECTID":391782},"geometry":{"x":172214.78000000119,"y":2541387.0700000022}},{"attributes":{"ID":391807,"DIS_CODE":0,"TOWNNAME":"仁德區","LI":"後壁里","LIN":"23鄰","STREET":"中正路","SECT":"二段","MAREA":" ","LANE":"９７巷","ALLEY":" ","HOUSE_NO":"８６號之１","E_COORD97":172897.07000000001,"N_COORD97":2538678.7999999998,"ADDRESS":"中正路二段９７巷８６號之１","OBJECTID":391783},"geometry":{"x":172897.07000000216,"y":2538678.8000000007}},{"attributes":{"ID":391808,"DIS_CODE":0,"TOWNNAME":"仁德區","LI":"土庫里","LIN":"23鄰","STREET":"太子路","SECT":" ","MAREA":" ","LANE":"１７９巷","ALLEY":" ","HOUSE_NO":"５號","E_COORD97":174462.31688599999,"N_COORD97":2543468.4883599998,"ADDRESS":"太子路１７９巷５號","OBJECTID":391784},"geometry":{"x":174462.31688600034,"y":2543468.4883629996}},{"attributes":{"ID":391809,"DIS_CODE":0,"TOWNNAME":"仁德區","LI":"後壁里","LIN":"23鄰","STREET":"中正路","SECT":"二段","MAREA":" ","LANE":"９７巷","ALLEY":" ","HOUSE_NO":"６８號","E_COORD97":173079.44,"N_COORD97":2538620.52,"ADDRESS":"中正路二段９７巷６８號","OBJECTID":391785},"geometry":{"x":173079.44000000227,"y":2538620.5200000014}},{"attributes":{"ID":391810,"DIS_CODE":0,"TOWNNAME":"仁德區","LI":"大甲里","LIN":"23鄰","STREET":"二仁路","SECT":"一段","MAREA":" ","LANE":"３１５巷","ALLEY":" ","HOUSE_NO":"５８１號","E_COORD97":169064.76000000001,"N_COORD97":2535883.7799999998,"ADDRESS":"二仁路一段３１５巷５８１號","OBJECTID":391786},"geometry":{"x":169064.76000000071,"y":2535883.7799999993}},{"attributes":{"ID":391811,"DIS_CODE":0,"TOWNNAME":"仁德區","LI":"仁義里","LIN":"23鄰","STREET":"中清路","SECT":" ","MAREA":" ","LANE":"１７２巷","ALLEY":" ","HOUSE_NO":"１９號","E_COORD97":173801.57000000001,"N_COORD97":2541520.29,"ADDRESS":"中清路１７２巷１９號","OBJECTID":391787},"geometry":{"x":173801.5700000003,"y":2541520.290000001}},{"attributes":{"ID":391812,"DIS_CODE":0,"TOWNNAME":"仁德區","LI":"仁德里","LIN":"23鄰","STREET":"文心路","SECT":" ","MAREA":" ","LANE":"５８巷","ALLEY":" ","HOUSE_NO":"３２號","E_COORD97":172226.26999999999,"N_COORD97":2541354.0800000001,"ADDRESS":"文心路５８巷３２號","OBJECTID":391788},"geometry":{"x":172226.26999999955,"y":2541354.0800000001}},{"attributes":{"ID":391813,"DIS_CODE":0,"TOWNNAME":"仁德區","LI":"成功里","LIN":"23鄰","STREET":"成功一街","SECT":" ","MAREA":" ","LANE":"１３１巷","ALLEY":" ","HOUSE_NO":"４０號","E_COORD97":170657.09,"N_COORD97":2539868.6600000001,"ADDRESS":"成功一街１３１巷４０號","OBJECTID":391789},"geometry":{"x":170657.09000000171,"y":2539868.6600000001}},{"attributes":{"ID":391814,"DIS_CODE":0,"TOWNNAME":"仁德區","LI":"土庫里","LIN":"23鄰","STREET":"太子路","SECT":" ","MAREA":" ","LANE":"１７９巷","ALLEY":" ","HOUSE_NO":"１號","E_COORD97":174450.76000000001,"N_COORD97":2543488.25,"ADDRESS":"太子路１７９巷１號","OBJECTID":391790},"geometry":{"x":174450.75999999978,"y":2543488.2500000019}},{"attributes":{"ID":391815,"DIS_CODE":0,"TOWNNAME":"永康區","LI":"三合里","LIN":"23鄰","STREET":"南工街","SECT":" ","MAREA":" ","LANE":"３２３巷","ALLEY":" ","HOUSE_NO":"８號","E_COORD97":171779.13,"N_COORD97":2546008.5,"ADDRESS":"南工街３２３巷８號","OBJECTID":391791},"geometry":{"x":171779.13000000082,"y":2546008.5000000019}},{"attributes":{"ID":391816,"DIS_CODE":0,"TOWNNAME":"永康區","LI":"五王里","LIN":"23鄰","STREET":"成功路","SECT":" ","MAREA":" ","LANE":"２４４巷","ALLEY":" ","HOUSE_NO":"５９號","E_COORD97":171446.92999999999,"N_COORD97":2545910.27,"ADDRESS":"成功路２４４巷５９號","OBJECTID":391792},"geometry":{"x":171446.93000000063,"y":2545910.2700000033}},{"attributes":{"ID":391817,"DIS_CODE":0,"TOWNNAME":"永康區","LI":"埔園里","LIN":"23鄰","STREET":"中正路","SECT":" ","MAREA":" ","LANE":"１４８巷","ALLEY":" ","HOUSE_NO":"４１號","E_COORD97":173568.17999999999,"N_COORD97":2547952.4300000002,"ADDRESS":"中正路１４８巷４１號","OBJECTID":391793},"geometry":{"x":173568.1799999997,"y":2547952.4299999997}},{"attributes":{"ID":391818,"DIS_CODE":0,"TOWNNAME":"永康區","LI":"北灣里","LIN":"23鄰","STREET":"大灣路","SECT":" ","MAREA":" ","LANE":"１２巷","ALLEY":" ","HOUSE_NO":"３號","E_COORD97":175293.07999999999,"N_COORD97":2545993.29,"ADDRESS":"大灣路１２巷３號","OBJECTID":391794},"geometry":{"x":175293.08000000007,"y":2545993.2899999991}},{"attributes":{"ID":391819,"DIS_CODE":0,"TOWNNAME":"永康區","LI":"網寮里","LIN":"23鄰","STREET":"永春街","SECT":" ","MAREA":" ","LANE":"１２巷","ALLEY":" ","HOUSE_NO":"１４號","E_COORD97":173823.69,"N_COORD97":2546247.9300000002,"ADDRESS":"永春街１２巷１４號","OBJECTID":391795},"geometry":{"x":173823.69000000134,"y":2546247.9299999997}},{"attributes":{"ID":391820,"DIS_CODE":0,"TOWNNAME":"永康區","LI":"勝利里","LIN":"23鄰","STREET":"中華一路","SECT":" ","MAREA":" ","LANE":"２０３巷","ALLEY":" ","HOUSE_NO":"１０號之３","E_COORD97":171426.51000000001,"N_COORD97":2544905.54,"ADDRESS":"中華一路２０３巷１０號之３","OBJECTID":391796},"geometry":{"x":171426.50999999978,"y":2544905.540000001}},{"attributes":{"ID":391821,"DIS_CODE":0,"TOWNNAME":"永康區","LI":"東灣里","LIN":"23鄰","STREET":"大灣二街","SECT":" ","MAREA":" ","LANE":"３８巷","ALLEY":" ","HOUSE_NO":"１２號","E_COORD97":174938.04999999999,"N_COORD97":2544757.0099999998,"ADDRESS":"大灣二街３８巷１２號","OBJECTID":391797},"geometry":{"x":174938.05000000075,"y":2544757.0100000016}},{"attributes":{"ID":391822,"DIS_CODE":0,"TOWNNAME":"永康區","LI":"埔園里","LIN":"23鄰","STREET":"自強路","SECT":" ","MAREA":" ","LANE":"３７９巷","ALLEY":" ","HOUSE_NO":"４５號","E_COORD97":173589.01000000001,"N_COORD97":2547995.5,"ADDRESS":"自強路３７９巷４５號","OBJECTID":391798},"geometry":{"x":173589.01000000071,"y":2547995.5000000019}},{"attributes":{"ID":391823,"DIS_CODE":0,"TOWNNAME":"永康區","LI":"埔園里","LIN":"23鄰","STREET":"自強路","SECT":" ","MAREA":" ","LANE":"３７９巷","ALLEY":" ","HOUSE_NO":"３３號","E_COORD97":173595.60999999999,"N_COORD97":2547971.6000000001,"ADDRESS":"自強路３７９巷３３號","OBJECTID":391799},"geometry":{"x":173595.61000000127,"y":2547971.5999999996}},{"attributes":{"ID":391824,"DIS_CODE":0,"TOWNNAME":"永康區","LI":"埔園里","LIN":"23鄰","STREET":"自強路","SECT":" ","MAREA":" ","LANE":"３７９巷","ALLEY":" ","HOUSE_NO":"４３號","E_COORD97":173589.88,"N_COORD97":2547991.75,"ADDRESS":"自強路３７９巷４３號","OBJECTID":391800},"geometry":{"x":173589.88000000082,"y":2547991.75}}]}