{"displayFieldName":"TOWNNAME","fieldAliases":{"ID":"ID","DIS_CODE":"DIS_CODE","TOWNNAME":"TOWNNAME","LI":"LI","LIN":"LIN","STREET":"STREET","SECT":"SECT","MAREA":"MAREA","LANE":"LANE","ALLEY":"ALLEY","HOUSE_NO":"HOUSE_NO","E_COORD97":"E_COORD97","N_COORD97":"N_COORD97","ADDRESS":"ADDRESS","OBJECTID":"OBJECTID"},"geometryType":"esriGeometryPoint","spatialReference":{"wkid":102443,"latestWkid":3826},"fields":[{"name":"ID","type":"esriFieldTypeDouble","alias":"ID"},{"name":"DIS_CODE","type":"esriFieldTypeInteger","alias":"DIS_CODE"},{"name":"TOWNNAME","type":"esriFieldTypeString","alias":"TOWNNAME","length":8},{"name":"LI","type":"esriFieldTypeString","alias":"LI","length":8},{"name":"LIN","type":"esriFieldTypeString","alias":"LIN","length":12},{"name":"STREET","type":"esriFieldTypeString","alias":"STREET","length":20},{"name":"SECT","type":"esriFieldTypeString","alias":"SECT","length":8},{"name":"MAREA","type":"esriFieldTypeString","alias":"MAREA","length":12},{"name":"LANE","type":"esriFieldTypeString","alias":"LANE","length":10},{"name":"ALLEY","type":"esriFieldTypeString","alias":"ALLEY","length":10},{"name":"HOUSE_NO","type":"esriFieldTypeString","alias":"HOUSE_NO","length":20},{"name":"E_COORD97","type":"esriFieldTypeDouble","alias":"E_COORD97"},{"name":"N_COORD97","type":"esriFieldTypeDouble","alias":"N_COORD97"},{"name":"ADDRESS","type":"esriFieldTypeString","alias":"ADDRESS","length":50},{"name":"OBJECTID","type":"esriFieldTypeOID","alias":"OBJECTID"}],"features":[{"attributes":{"ID":124601,"DIS_CODE":0,"TOWNNAME":"北區","LI":"興南里","LIN":"6鄰","STREET":"公園北路","SECT":" ","MAREA":" ","LANE":" ","ALLEY":" ","HOUSE_NO":"１６３號","E_COORD97":168957.48999999999,"N_COORD97":2545019.9700000002,"ADDRESS":"公園北路１６３號","OBJECTID":124601},"geometry":{"x":168957.49000000022,"y":2545019.9700000025}},{"attributes":{"ID":124602,"DIS_CODE":0,"TOWNNAME":"北區","LI":"興南里","LIN":"6鄰","STREET":"公園北路","SECT":" ","MAREA":" ","LANE":" ","ALLEY":" ","HOUSE_NO":"１６５號","E_COORD97":168953.10000000001,"N_COORD97":2545020.75,"ADDRESS":"公園北路１６５號","OBJECTID":124602},"geometry":{"x":168953.10000000149,"y":2545020.7500000019}},{"attributes":{"ID":124603,"DIS_CODE":0,"TOWNNAME":"北區","LI":"興南里","LIN":"6鄰","STREET":"公園北路","SECT":" ","MAREA":" ","LANE":" ","ALLEY":" ","HOUSE_NO":"１６７號","E_COORD97":168949.01000000001,"N_COORD97":2545021.6899999999,"ADDRESS":"公園北路１６７號","OBJECTID":124603},"geometry":{"x":168949.01000000071,"y":2545021.6899999995}},{"attributes":{"ID":124604,"DIS_CODE":0,"TOWNNAME":"北區","LI":"東興里","LIN":"16鄰","STREET":"小東路","SECT":" ","MAREA":" ","LANE":"２９９巷","ALLEY":"２７弄","HOUSE_NO":"３號","E_COORD97":171091.31502099999,"N_COORD97":2544496.95028,"ADDRESS":"小東路２９９巷２７弄３號","OBJECTID":124604},"geometry":{"x":171091.31502100173,"y":2544496.950275002}},{"attributes":{"ID":124605,"DIS_CODE":0,"TOWNNAME":"北區","LI":"東興里","LIN":"16鄰","STREET":"小東路","SECT":" ","MAREA":" ","LANE":"２９９巷","ALLEY":"２７弄","HOUSE_NO":"５號","E_COORD97":171085.806342,"N_COORD97":2544498.5377699998,"ADDRESS":"小東路２９９巷２７弄５號","OBJECTID":124605},"geometry":{"x":171085.80634200014,"y":2544498.537774004}},{"attributes":{"ID":124606,"DIS_CODE":0,"TOWNNAME":"北區","LI":"東興里","LIN":"16鄰","STREET":"小東路","SECT":" ","MAREA":" ","LANE":"２９９巷","ALLEY":"２７弄","HOUSE_NO":"７號","E_COORD97":171079.66204699999,"N_COORD97":2544500.5486099999,"ADDRESS":"小東路２９９巷２７弄７號","OBJECTID":124606},"geometry":{"x":171079.66204699967,"y":2544500.5486060046}},{"attributes":{"ID":124607,"DIS_CODE":0,"TOWNNAME":"東區","LI":"泉南里","LIN":"26鄰","STREET":"府連路","SECT":" ","MAREA":" ","LANE":"２６０巷","ALLEY":"３弄","HOUSE_NO":"１４號之３","E_COORD97":169425.66,"N_COORD97":2542761.8999999999,"ADDRESS":"府連路２６０巷３弄１４號之３","OBJECTID":124607},"geometry":{"x":169425.66000000015,"y":2542761.9000000022}},{"attributes":{"ID":124608,"DIS_CODE":0,"TOWNNAME":"東區","LI":"泉南里","LIN":"26鄰","STREET":"府連路","SECT":" ","MAREA":" ","LANE":"２６０巷","ALLEY":"３弄","HOUSE_NO":"１５號","E_COORD97":169489.19,"N_COORD97":2542830.0800000001,"ADDRESS":"府連路２６０巷３弄１５號","OBJECTID":124608},"geometry":{"x":169489.19000000134,"y":2542830.0800000001}},{"attributes":{"ID":124609,"DIS_CODE":0,"TOWNNAME":"將軍區","LI":"長榮里","LIN":"6鄰","STREET":" ","SECT":" ","MAREA":"長榮","LANE":" ","ALLEY":" ","HOUSE_NO":"６５之１５號","E_COORD97":164482.45000000001,"N_COORD97":2566130.8900000001,"ADDRESS":"長榮６５之１５號","OBJECTID":124609},"geometry":{"x":164482.45000000019,"y":2566130.8900000043}},{"attributes":{"ID":124610,"DIS_CODE":0,"TOWNNAME":"北區","LI":"東興里","LIN":"16鄰","STREET":"小東路","SECT":" ","MAREA":" ","LANE":"２９９巷","ALLEY":"２７弄","HOUSE_NO":"９號","E_COORD97":171070.33966699999,"N_COORD97":2544503.1944400002,"ADDRESS":"小東路２９９巷２７弄９號","OBJECTID":124610},"geometry":{"x":171070.33966700081,"y":2544503.1944379993}},{"attributes":{"ID":124611,"DIS_CODE":0,"TOWNNAME":"東區","LI":"崇德里","LIN":"6鄰","STREET":"崇德五街","SECT":" ","MAREA":" ","LANE":"２巷","ALLEY":"１１弄","HOUSE_NO":"１９號之１","E_COORD97":170707.39999999999,"N_COORD97":2541813.5800000001,"ADDRESS":"崇德五街２巷１１弄１９號之１","OBJECTID":124611},"geometry":{"x":170707.40000000037,"y":2541813.5800000019}},{"attributes":{"ID":124612,"DIS_CODE":0,"TOWNNAME":"歸仁區","LI":"看東里","LIN":"16鄰","STREET":"中山路","SECT":"一段","MAREA":" ","LANE":"１巷","ALLEY":"３８弄","HOUSE_NO":"１０號","E_COORD97":179540.28,"N_COORD97":2540238.5699999998,"ADDRESS":"中山路一段１巷３８弄１０號","OBJECTID":124612},"geometry":{"x":179540.28000000026,"y":2540238.5700000022}},{"attributes":{"ID":124613,"DIS_CODE":0,"TOWNNAME":"歸仁區","LI":"七甲里","LIN":"16鄰","STREET":"南潭二街","SECT":" ","MAREA":" ","LANE":"１３０巷","ALLEY":"１１弄","HOUSE_NO":"１９號","E_COORD97":176491.29000000001,"N_COORD97":2542914.7000000002,"ADDRESS":"南潭二街１３０巷１１弄１９號","OBJECTID":124613},"geometry":{"x":176491.29000000097,"y":2542914.7000000011}},{"attributes":{"ID":124614,"DIS_CODE":0,"TOWNNAME":"歸仁區","LI":"七甲里","LIN":"16鄰","STREET":"南潭二街","SECT":" ","MAREA":" ","LANE":"１３０巷","ALLEY":"３弄","HOUSE_NO":"１４號","E_COORD97":176471.32000000001,"N_COORD97":2542971,"ADDRESS":"南潭二街１３０巷３弄１４號","OBJECTID":124614},"geometry":{"x":176471.3200000003,"y":2542971.0000000019}},{"attributes":{"ID":124615,"DIS_CODE":0,"TOWNNAME":"玉井區","LI":"竹圍里","LIN":"16鄰","STREET":"忠孝街","SECT":" ","MAREA":" ","LANE":"４１８巷","ALLEY":"１８弄","HOUSE_NO":"１１號","E_COORD97":195595.78,"N_COORD97":2558338.4700000002,"ADDRESS":"忠孝街４１８巷１８弄１１號","OBJECTID":124615},"geometry":{"x":195595.78000000212,"y":2558338.4700000007}},{"attributes":{"ID":124616,"DIS_CODE":0,"TOWNNAME":"玉井區","LI":"竹圍里","LIN":"16鄰","STREET":"忠孝街","SECT":" ","MAREA":" ","LANE":"４１８巷","ALLEY":"１８弄","HOUSE_NO":"３號","E_COORD97":195588.56,"N_COORD97":2558357.21,"ADDRESS":"忠孝街４１８巷１８弄３號","OBJECTID":124616},"geometry":{"x":195588.56000000052,"y":2558357.2100000009}},{"attributes":{"ID":124617,"DIS_CODE":0,"TOWNNAME":"玉井區","LI":"竹圍里","LIN":"16鄰","STREET":"忠孝街","SECT":" ","MAREA":" ","LANE":"４１８巷","ALLEY":"１８弄","HOUSE_NO":"１號","E_COORD97":195587.85000000001,"N_COORD97":2558362.0800000001,"ADDRESS":"忠孝街４１８巷１８弄１號","OBJECTID":124617},"geometry":{"x":195587.85000000149,"y":2558362.0800000019}},{"attributes":{"ID":124618,"DIS_CODE":0,"TOWNNAME":"將軍區","LI":"長榮里","LIN":"8鄰","STREET":" ","SECT":" ","MAREA":"長榮","LANE":" ","ALLEY":" ","HOUSE_NO":"７８號","E_COORD97":163967.01999999999,"N_COORD97":2566312.8300000001,"ADDRESS":"長榮７８號","OBJECTID":124618},"geometry":{"x":163967.02000000048,"y":2566312.8300000001}},{"attributes":{"ID":124619,"DIS_CODE":0,"TOWNNAME":"將軍區","LI":"苓和里","LIN":"1鄰","STREET":" ","SECT":" ","MAREA":"苓和","LANE":" ","ALLEY":" ","HOUSE_NO":"１號","E_COORD97":164771.45999999999,"N_COORD97":2569007.3199999998,"ADDRESS":"苓和１號","OBJECTID":124619},"geometry":{"x":164771.45999999996,"y":2569007.3200000022}},{"attributes":{"ID":124620,"DIS_CODE":0,"TOWNNAME":"玉井區","LI":"竹圍里","LIN":"16鄰","STREET":"忠孝街","SECT":" ","MAREA":" ","LANE":"４１８巷","ALLEY":"１８弄","HOUSE_NO":"１５號","E_COORD97":195597.29000000001,"N_COORD97":2558330.71,"ADDRESS":"忠孝街４１８巷１８弄１５號","OBJECTID":124620},"geometry":{"x":195597.2900000019,"y":2558330.7100000009}},{"attributes":{"ID":124621,"DIS_CODE":0,"TOWNNAME":"東區","LI":"富強里","LIN":"19鄰","STREET":"裕農路","SECT":" ","MAREA":" ","LANE":"２８８巷","ALLEY":"１１０弄","HOUSE_NO":"３號","E_COORD97":171013.60000000001,"N_COORD97":2542924.71,"ADDRESS":"裕農路２８８巷１１０弄３號","OBJECTID":124621},"geometry":{"x":171013.59999999963,"y":2542924.7100000009}},{"attributes":{"ID":124622,"DIS_CODE":0,"TOWNNAME":"東區","LI":"富強里","LIN":"19鄰","STREET":"裕農路","SECT":" ","MAREA":" ","LANE":"２８８巷","ALLEY":"１１０弄","HOUSE_NO":"４號","E_COORD97":170991.19,"N_COORD97":2542918.9399999999,"ADDRESS":"裕農路２８８巷１１０弄４號","OBJECTID":124622},"geometry":{"x":170991.19000000134,"y":2542918.9400000032}},{"attributes":{"ID":124623,"DIS_CODE":0,"TOWNNAME":"東區","LI":"富強里","LIN":"19鄰","STREET":"裕農路","SECT":" ","MAREA":" ","LANE":"２８８巷","ALLEY":"１１０弄","HOUSE_NO":"１號","E_COORD97":171013.39999999999,"N_COORD97":2542928.4100000001,"ADDRESS":"裕農路２８８巷１１０弄１號","OBJECTID":124623},"geometry":{"x":171013.4000000013,"y":2542928.4100000001}},{"attributes":{"ID":124624,"DIS_CODE":0,"TOWNNAME":"東區","LI":"富強里","LIN":"19鄰","STREET":"裕農路","SECT":" ","MAREA":" ","LANE":"２８８巷","ALLEY":"１１０弄","HOUSE_NO":"５號","E_COORD97":171012.39999999999,"N_COORD97":2542920.3100000001,"ADDRESS":"裕農路２８８巷１１０弄５號","OBJECTID":124624},"geometry":{"x":171012.40000000037,"y":2542920.3100000005}},{"attributes":{"ID":124625,"DIS_CODE":0,"TOWNNAME":"東區","LI":"富強里","LIN":"19鄰","STREET":"裕農路","SECT":" ","MAREA":" ","LANE":"２８８巷","ALLEY":"１１０弄","HOUSE_NO":"２號","E_COORD97":170990.81,"N_COORD97":2542924.73,"ADDRESS":"裕農路２８８巷１１０弄２號","OBJECTID":124625},"geometry":{"x":170990.80999999866,"y":2542924.7300000042}},{"attributes":{"ID":124626,"DIS_CODE":0,"TOWNNAME":"關廟區","LI":"北勢里","LIN":"6鄰","STREET":"成功路","SECT":" ","MAREA":" ","LANE":" ","ALLEY":" ","HOUSE_NO":"５５號","E_COORD97":181679.32000000001,"N_COORD97":2540410.27,"ADDRESS":"成功路５５號","OBJECTID":124626},"geometry":{"x":181679.3200000003,"y":2540410.2699999996}},{"attributes":{"ID":124627,"DIS_CODE":0,"TOWNNAME":"南區","LI":"金華里","LIN":"6鄰","STREET":"聖南街","SECT":" ","MAREA":" ","LANE":" ","ALLEY":" ","HOUSE_NO":"３６號","E_COORD97":167020.91,"N_COORD97":2542315.4900000002,"ADDRESS":"聖南街３６號","OBJECTID":124627},"geometry":{"x":167020.91000000108,"y":2542315.4900000002}},{"attributes":{"ID":124628,"DIS_CODE":0,"TOWNNAME":"安平區","LI":"港仔里","LIN":"6鄰","STREET":"安平路","SECT":" ","MAREA":" ","LANE":" ","ALLEY":" ","HOUSE_NO":"７９號","E_COORD97":164448.12,"N_COORD97":2544451.5499999998,"ADDRESS":"安平路７９號","OBJECTID":124628},"geometry":{"x":164448.12000000104,"y":2544451.5500000007}},{"attributes":{"ID":124629,"DIS_CODE":0,"TOWNNAME":"安平區","LI":"港仔里","LIN":"6鄰","STREET":"安平路","SECT":" ","MAREA":" ","LANE":" ","ALLEY":" ","HOUSE_NO":"７７之１號","E_COORD97":164462.78,"N_COORD97":2544456.6800000002,"ADDRESS":"安平路７７之１號","OBJECTID":124629},"geometry":{"x":164462.78000000026,"y":2544456.6800000034}},{"attributes":{"ID":124630,"DIS_CODE":0,"TOWNNAME":"北區","LI":"長榮里","LIN":"6鄰","STREET":"長勝路","SECT":" ","MAREA":" ","LANE":" ","ALLEY":" ","HOUSE_NO":"２９號","E_COORD97":169997.94,"N_COORD97":2545579.4900000002,"ADDRESS":"長勝路２９號","OBJECTID":124630},"geometry":{"x":169997.94000000134,"y":2545579.4900000002}},{"attributes":{"ID":124631,"DIS_CODE":0,"TOWNNAME":"北區","LI":"長榮里","LIN":"6鄰","STREET":"長勝路","SECT":" ","MAREA":" ","LANE":" ","ALLEY":" ","HOUSE_NO":"３３號","E_COORD97":169990.32000000001,"N_COORD97":2545586.6299999999,"ADDRESS":"長勝路３３號","OBJECTID":124631},"geometry":{"x":169990.32000000123,"y":2545586.6300000008}},{"attributes":{"ID":124632,"DIS_CODE":0,"TOWNNAME":"玉井區","LI":"竹圍里","LIN":"16鄰","STREET":"忠孝街","SECT":" ","MAREA":" ","LANE":"４１８巷","ALLEY":"１８弄","HOUSE_NO":"９號","E_COORD97":195594.03,"N_COORD97":2558342.79,"ADDRESS":"忠孝街４１８巷１８弄９號","OBJECTID":124632},"geometry":{"x":195594.03000000212,"y":2558342.790000001}},{"attributes":{"ID":124633,"DIS_CODE":0,"TOWNNAME":"玉井區","LI":"竹圍里","LIN":"16鄰","STREET":"忠孝街","SECT":" ","MAREA":" ","LANE":"４１８巷","ALLEY":"１８弄","HOUSE_NO":"１３號","E_COORD97":195596.38,"N_COORD97":2558334.9300000002,"ADDRESS":"忠孝街４１８巷１８弄１３號","OBJECTID":124633},"geometry":{"x":195596.38000000175,"y":2558334.9299999978}},{"attributes":{"ID":124634,"DIS_CODE":0,"TOWNNAME":"玉井區","LI":"竹圍里","LIN":"16鄰","STREET":"忠孝街","SECT":" ","MAREA":" ","LANE":"４１８巷","ALLEY":"１８弄","HOUSE_NO":"７號","E_COORD97":195593.54000000001,"N_COORD97":2558347.1099999999,"ADDRESS":"忠孝街４１８巷１８弄７號","OBJECTID":124634},"geometry":{"x":195593.54000000004,"y":2558347.1100000031}},{"attributes":{"ID":124635,"DIS_CODE":0,"TOWNNAME":"玉井區","LI":"竹圍里","LIN":"16鄰","STREET":"忠孝街","SECT":" ","MAREA":" ","LANE":"４１８巷","ALLEY":"１８弄","HOUSE_NO":"５號","E_COORD97":195592.94,"N_COORD97":2558351.6499999999,"ADDRESS":"忠孝街４１８巷１８弄５號","OBJECTID":124635},"geometry":{"x":195592.94000000041,"y":2558351.6500000022}},{"attributes":{"ID":124636,"DIS_CODE":0,"TOWNNAME":"東區","LI":"泉南里","LIN":"21鄰","STREET":"府連路","SECT":" ","MAREA":" ","LANE":"３４４巷","ALLEY":"１弄","HOUSE_NO":"７６號","E_COORD97":169667.59,"N_COORD97":2542750.1600000001,"ADDRESS":"府連路３４４巷１弄７６號","OBJECTID":124636},"geometry":{"x":169667.59000000078,"y":2542750.160000002}},{"attributes":{"ID":124637,"DIS_CODE":0,"TOWNNAME":"南區","LI":"金華里","LIN":"6鄰","STREET":"聖南街","SECT":" ","MAREA":" ","LANE":" ","ALLEY":" ","HOUSE_NO":"２號","E_COORD97":167035.72,"N_COORD97":2542440.3599999999,"ADDRESS":"聖南街２號","OBJECTID":124637},"geometry":{"x":167035.72000000067,"y":2542440.3599999994}},{"attributes":{"ID":124638,"DIS_CODE":0,"TOWNNAME":"南區","LI":"金華里","LIN":"6鄰","STREET":"聖南街","SECT":" ","MAREA":" ","LANE":" ","ALLEY":" ","HOUSE_NO":"３０號","E_COORD97":167022.35000000001,"N_COORD97":2542332.0800000001,"ADDRESS":"聖南街３０號","OBJECTID":124638},"geometry":{"x":167022.35000000056,"y":2542332.0800000038}},{"attributes":{"ID":124639,"DIS_CODE":0,"TOWNNAME":"北區","LI":"長榮里","LIN":"6鄰","STREET":"長勝路","SECT":" ","MAREA":" ","LANE":" ","ALLEY":" ","HOUSE_NO":"２７號","E_COORD97":170002.54000000001,"N_COORD97":2545575.2000000002,"ADDRESS":"長勝路２７號","OBJECTID":124639},"geometry":{"x":170002.54000000004,"y":2545575.2000000011}},{"attributes":{"ID":124640,"DIS_CODE":0,"TOWNNAME":"東山區","LI":"大客里","LIN":"6鄰","STREET":" ","SECT":" ","MAREA":"大庄","LANE":" ","ALLEY":" ","HOUSE_NO":"３８號之４","E_COORD97":189682.35000000001,"N_COORD97":2578960.0099999998,"ADDRESS":"大庄３８號之４","OBJECTID":124640},"geometry":{"x":189682.35000000056,"y":2578960.0100000016}},{"attributes":{"ID":124641,"DIS_CODE":0,"TOWNNAME":"東山區","LI":"大客里","LIN":"6鄰","STREET":" ","SECT":" ","MAREA":"大庄","LANE":" ","ALLEY":" ","HOUSE_NO":"３８號之２","E_COORD97":189680.85999999999,"N_COORD97":2578956.6699999999,"ADDRESS":"大庄３８號之２","OBJECTID":124641},"geometry":{"x":189680.8600000022,"y":2578956.6699999999}},{"attributes":{"ID":124642,"DIS_CODE":0,"TOWNNAME":"東山區","LI":"大客里","LIN":"6鄰","STREET":" ","SECT":" ","MAREA":"大庄","LANE":" ","ALLEY":" ","HOUSE_NO":"３８號之５","E_COORD97":189683.67999999999,"N_COORD97":2578963.6200000001,"ADDRESS":"大庄３８號之５","OBJECTID":124642},"geometry":{"x":189683.68000000063,"y":2578963.6200000029}},{"attributes":{"ID":124643,"DIS_CODE":0,"TOWNNAME":"東山區","LI":"大客里","LIN":"6鄰","STREET":" ","SECT":" ","MAREA":"大庄","LANE":" ","ALLEY":" ","HOUSE_NO":"３８號之６","E_COORD97":189684.92999999999,"N_COORD97":2578967.21,"ADDRESS":"大庄３８號之６","OBJECTID":124643},"geometry":{"x":189684.93000000063,"y":2578967.2100000009}},{"attributes":{"ID":124644,"DIS_CODE":0,"TOWNNAME":"東山區","LI":"大客里","LIN":"6鄰","STREET":" ","SECT":" ","MAREA":"大庄","LANE":" ","ALLEY":" ","HOUSE_NO":"３８號之７","E_COORD97":189686.23000000001,"N_COORD97":2578970.8100000001,"ADDRESS":"大庄３８號之７","OBJECTID":124644},"geometry":{"x":189686.23000000045,"y":2578970.8100000042}},{"attributes":{"ID":124645,"DIS_CODE":0,"TOWNNAME":"東山區","LI":"大客里","LIN":"6鄰","STREET":" ","SECT":" ","MAREA":"大庄","LANE":" ","ALLEY":" ","HOUSE_NO":"３９號之１","E_COORD97":189706.62,"N_COORD97":2578975.7200000002,"ADDRESS":"大庄３９號之１","OBJECTID":124645},"geometry":{"x":189706.62000000104,"y":2578975.7200000025}},{"attributes":{"ID":124646,"DIS_CODE":0,"TOWNNAME":"將軍區","LI":"苓和里","LIN":"4鄰","STREET":" ","SECT":" ","MAREA":"苓和","LANE":" ","ALLEY":" ","HOUSE_NO":"３１之１號","E_COORD97":164614.53,"N_COORD97":2568971.1099999999,"ADDRESS":"苓和３１之１號","OBJECTID":124646},"geometry":{"x":164614.53000000212,"y":2568971.1099999994}},{"attributes":{"ID":124647,"DIS_CODE":0,"TOWNNAME":"北區","LI":"成德里","LIN":"6鄰","STREET":"育德二路","SECT":" ","MAREA":" ","LANE":" ","ALLEY":" ","HOUSE_NO":"１００號","E_COORD97":168333.70000000001,"N_COORD97":2545474.9700000002,"ADDRESS":"育德二路１００號","OBJECTID":124647},"geometry":{"x":168333.70000000019,"y":2545474.9700000007}},{"attributes":{"ID":124648,"DIS_CODE":0,"TOWNNAME":"安平區","LI":"平安里","LIN":"6鄰","STREET":"安平路","SECT":" ","MAREA":" ","LANE":" ","ALLEY":" ","HOUSE_NO":"３５２號","E_COORD97":165581.22,"N_COORD97":2544339.5,"ADDRESS":"安平路３５２號","OBJECTID":124648},"geometry":{"x":165581.22000000067,"y":2544339.5000000037}},{"attributes":{"ID":124649,"DIS_CODE":0,"TOWNNAME":"佳里區","LI":"安西里","LIN":"12鄰","STREET":"新生路","SECT":" ","MAREA":" ","LANE":" ","ALLEY":" ","HOUSE_NO":"３３８號","E_COORD97":165466.22,"N_COORD97":2562246.7599999998,"ADDRESS":"新生路３３８號","OBJECTID":124649},"geometry":{"x":165466.21999999974,"y":2562246.7600000016}},{"attributes":{"ID":124650,"DIS_CODE":0,"TOWNNAME":"佳里區","LI":"建南里","LIN":"12鄰","STREET":"新生路","SECT":" ","MAREA":" ","LANE":" ","ALLEY":" ","HOUSE_NO":"３３９號","E_COORD97":165463.73999999999,"N_COORD97":2562212.0899999999,"ADDRESS":"新生路３３９號","OBJECTID":124650},"geometry":{"x":165463.74000000022,"y":2562212.0899999999}},{"attributes":{"ID":124651,"DIS_CODE":0,"TOWNNAME":"佳里區","LI":"安西里","LIN":"12鄰","STREET":"新生路","SECT":" ","MAREA":" ","LANE":" ","ALLEY":" ","HOUSE_NO":"３４０號","E_COORD97":165462.54999999999,"N_COORD97":2562246,"ADDRESS":"新生路３４０號","OBJECTID":124651},"geometry":{"x":165462.54999999981,"y":2562246}},{"attributes":{"ID":124652,"DIS_CODE":0,"TOWNNAME":"佳里區","LI":"建南里","LIN":"12鄰","STREET":"新生路","SECT":" ","MAREA":" ","LANE":" ","ALLEY":" ","HOUSE_NO":"３４１號","E_COORD97":165459.28,"N_COORD97":2562210.9500000002,"ADDRESS":"新生路３４１號","OBJECTID":124652},"geometry":{"x":165459.28000000119,"y":2562210.9500000011}},{"attributes":{"ID":124653,"DIS_CODE":0,"TOWNNAME":"北區","LI":"文元里","LIN":"16鄰","STREET":"文賢路","SECT":" ","MAREA":" ","LANE":"１０８０巷","ALLEY":"３０弄","HOUSE_NO":"６號","E_COORD97":167470.64000000001,"N_COORD97":2546192.8300000001,"ADDRESS":"文賢路１０８０巷３０弄６號","OBJECTID":124653},"geometry":{"x":167470.63999999966,"y":2546192.8300000019}},{"attributes":{"ID":124654,"DIS_CODE":0,"TOWNNAME":"佳里區","LI":"建南里","LIN":"12鄰","STREET":"新生路","SECT":" ","MAREA":" ","LANE":" ","ALLEY":" ","HOUSE_NO":"３５７號之６","E_COORD97":165384.23999999999,"N_COORD97":2562159.3799999999,"ADDRESS":"新生路３５７號之６","OBJECTID":124654},"geometry":{"x":165384.23999999929,"y":2562159.3800000008}},{"attributes":{"ID":124655,"DIS_CODE":0,"TOWNNAME":"北區","LI":"文元里","LIN":"16鄰","STREET":"文賢路","SECT":" ","MAREA":" ","LANE":"１０８０巷","ALLEY":"３０弄","HOUSE_NO":"６號之１","E_COORD97":167471.79000000001,"N_COORD97":2546181.1400000001,"ADDRESS":"文賢路１０８０巷３０弄６號之１","OBJECTID":124655},"geometry":{"x":167471.79000000004,"y":2546181.1400000025}},{"attributes":{"ID":124656,"DIS_CODE":0,"TOWNNAME":"北區","LI":"文元里","LIN":"16鄰","STREET":"文賢路","SECT":" ","MAREA":" ","LANE":"１０３０巷","ALLEY":"１１弄","HOUSE_NO":"１０號","E_COORD97":167456.79999999999,"N_COORD97":2546121.77,"ADDRESS":"文賢路１０３０巷１１弄１０號","OBJECTID":124656},"geometry":{"x":167456.80000000168,"y":2546121.7700000014}},{"attributes":{"ID":124657,"DIS_CODE":0,"TOWNNAME":"北區","LI":"文元里","LIN":"16鄰","STREET":"文賢路","SECT":" ","MAREA":" ","LANE":"１０３０巷","ALLEY":"１１弄","HOUSE_NO":"１１號","E_COORD97":167437.23999999999,"N_COORD97":2546121.96,"ADDRESS":"文賢路１０３０巷１１弄１１號","OBJECTID":124657},"geometry":{"x":167437.24000000209,"y":2546121.9600000028}},{"attributes":{"ID":124658,"DIS_CODE":0,"TOWNNAME":"北區","LI":"文元里","LIN":"16鄰","STREET":"文賢路","SECT":" ","MAREA":" ","LANE":"１０３０巷","ALLEY":"１１弄","HOUSE_NO":"１２號","E_COORD97":167456.04000000001,"N_COORD97":2546127.6099999999,"ADDRESS":"文賢路１０３０巷１１弄１２號","OBJECTID":124658},"geometry":{"x":167456.04000000097,"y":2546127.6099999994}},{"attributes":{"ID":124659,"DIS_CODE":0,"TOWNNAME":"北區","LI":"文元里","LIN":"16鄰","STREET":"文賢路","SECT":" ","MAREA":" ","LANE":"１０３０巷","ALLEY":"１１弄","HOUSE_NO":"１３號","E_COORD97":167436.48000000001,"N_COORD97":2546128.8199999998,"ADDRESS":"文賢路１０３０巷１１弄１３號","OBJECTID":124659},"geometry":{"x":167436.48000000138,"y":2546128.8200000022}},{"attributes":{"ID":124660,"DIS_CODE":0,"TOWNNAME":"北區","LI":"文元里","LIN":"16鄰","STREET":"文賢路","SECT":" ","MAREA":" ","LANE":"１０３０巷","ALLEY":"１１弄","HOUSE_NO":"１４號","E_COORD97":167455.53,"N_COORD97":2546134.7200000002,"ADDRESS":"文賢路１０３０巷１１弄１４號","OBJECTID":124660},"geometry":{"x":167455.52999999933,"y":2546134.7200000007}},{"attributes":{"ID":124661,"DIS_CODE":0,"TOWNNAME":"北區","LI":"文元里","LIN":"16鄰","STREET":"文賢路","SECT":" ","MAREA":" ","LANE":"１０３０巷","ALLEY":"１１弄","HOUSE_NO":"１５號","E_COORD97":167435.72,"N_COORD97":2546135.9300000002,"ADDRESS":"文賢路１０３０巷１１弄１５號","OBJECTID":124661},"geometry":{"x":167435.72000000067,"y":2546135.9299999997}},{"attributes":{"ID":124662,"DIS_CODE":0,"TOWNNAME":"北區","LI":"文元里","LIN":"16鄰","STREET":"文賢路","SECT":" ","MAREA":" ","LANE":"１０３０巷","ALLEY":"１１弄","HOUSE_NO":"１６號","E_COORD97":167455.01999999999,"N_COORD97":2546141.5800000001,"ADDRESS":"文賢路１０３０巷１１弄１６號","OBJECTID":124662},"geometry":{"x":167455.02000000142,"y":2546141.5800000001}},{"attributes":{"ID":124663,"DIS_CODE":0,"TOWNNAME":"北區","LI":"文元里","LIN":"16鄰","STREET":"文賢路","SECT":" ","MAREA":" ","LANE":"１０３０巷","ALLEY":"１１弄","HOUSE_NO":"１７號","E_COORD97":167434.70000000001,"N_COORD97":2546142.79,"ADDRESS":"文賢路１０３０巷１１弄１７號","OBJECTID":124663},"geometry":{"x":167434.70000000112,"y":2546142.7899999991}},{"attributes":{"ID":124664,"DIS_CODE":0,"TOWNNAME":"北區","LI":"文元里","LIN":"16鄰","STREET":"文賢路","SECT":" ","MAREA":" ","LANE":"１０３０巷","ALLEY":"１１弄","HOUSE_NO":"１８號","E_COORD97":167454.76999999999,"N_COORD97":2546148.1800000002,"ADDRESS":"文賢路１０３０巷１１弄１８號","OBJECTID":124664},"geometry":{"x":167454.76999999955,"y":2546148.1799999997}},{"attributes":{"ID":124665,"DIS_CODE":0,"TOWNNAME":"北區","LI":"文元里","LIN":"16鄰","STREET":"文賢路","SECT":" ","MAREA":" ","LANE":"１０３０巷","ALLEY":"１１弄","HOUSE_NO":"１９號","E_COORD97":167434.45000000001,"N_COORD97":2546150.4100000001,"ADDRESS":"文賢路１０３０巷１１弄１９號","OBJECTID":124665},"geometry":{"x":167434.45000000112,"y":2546150.4100000001}},{"attributes":{"ID":124666,"DIS_CODE":0,"TOWNNAME":"北區","LI":"文元里","LIN":"16鄰","STREET":"文賢路","SECT":" ","MAREA":" ","LANE":"１０３０巷","ALLEY":"１１弄","HOUSE_NO":"１號","E_COORD97":167438.92000000001,"N_COORD97":2546093.4100000001,"ADDRESS":"文賢路１０３０巷１１弄１號","OBJECTID":124666},"geometry":{"x":167438.91999999993,"y":2546093.4100000039}},{"attributes":{"ID":124667,"DIS_CODE":0,"TOWNNAME":"北區","LI":"文元里","LIN":"16鄰","STREET":"文賢路","SECT":" ","MAREA":" ","LANE":"１０３０巷","ALLEY":"１１弄","HOUSE_NO":"２０號","E_COORD97":167454.26000000001,"N_COORD97":2546154.5299999998,"ADDRESS":"文賢路１０３０巷１１弄２０號","OBJECTID":124667},"geometry":{"x":167454.26000000071,"y":2546154.5299999993}},{"attributes":{"ID":124668,"DIS_CODE":0,"TOWNNAME":"北區","LI":"文元里","LIN":"16鄰","STREET":"文賢路","SECT":" ","MAREA":" ","LANE":"１０３０巷","ALLEY":"１１弄","HOUSE_NO":"２１號","E_COORD97":167433.69,"N_COORD97":2546158.0299999998,"ADDRESS":"文賢路１０３０巷１１弄２１號","OBJECTID":124668},"geometry":{"x":167433.69000000041,"y":2546158.0299999993}},{"attributes":{"ID":124669,"DIS_CODE":0,"TOWNNAME":"北區","LI":"文元里","LIN":"16鄰","STREET":"文賢路","SECT":" ","MAREA":" ","LANE":"１０３０巷","ALLEY":"１１弄","HOUSE_NO":"２２號","E_COORD97":167453.75,"N_COORD97":2546161.6499999999,"ADDRESS":"文賢路１０３０巷１１弄２２號","OBJECTID":124669},"geometry":{"x":167453.74999999907,"y":2546161.6500000004}},{"attributes":{"ID":124670,"DIS_CODE":0,"TOWNNAME":"麻豆區","LI":"海埔里","LIN":"6鄰","STREET":" ","SECT":" ","MAREA":"莊禮寮","LANE":" ","ALLEY":" ","HOUSE_NO":"２號之９","E_COORD97":169392.88,"N_COORD97":2566424.4199999999,"ADDRESS":"莊禮寮２號之９","OBJECTID":124670},"geometry":{"x":169392.88000000082,"y":2566424.4199999999}},{"attributes":{"ID":124671,"DIS_CODE":0,"TOWNNAME":"鹽水區","LI":"水秀里","LIN":"6鄰","STREET":" ","SECT":" ","MAREA":"土庫","LANE":" ","ALLEY":" ","HOUSE_NO":"７４之２２號","E_COORD97":175687.20000000001,"N_COORD97":2580185.7000000002,"ADDRESS":"土庫７４之２２號","OBJECTID":124671},"geometry":{"x":175687.20000000019,"y":2580185.6999999993}},{"attributes":{"ID":124672,"DIS_CODE":0,"TOWNNAME":"將軍區","LI":"苓和里","LIN":"4鄰","STREET":" ","SECT":" ","MAREA":"苓和","LANE":" ","ALLEY":" ","HOUSE_NO":"３１號","E_COORD97":164627.01999999999,"N_COORD97":2568971.52,"ADDRESS":"苓和３１號","OBJECTID":124672},"geometry":{"x":164627.01999999955,"y":2568971.5200000014}},{"attributes":{"ID":124673,"DIS_CODE":0,"TOWNNAME":"將軍區","LI":"苓和里","LIN":"4鄰","STREET":" ","SECT":" ","MAREA":"苓和","LANE":" ","ALLEY":" ","HOUSE_NO":"３２之１號","E_COORD97":164640.16,"N_COORD97":2568972.6299999999,"ADDRESS":"苓和３２之１號","OBJECTID":124673},"geometry":{"x":164640.16000000015,"y":2568972.6300000008}},{"attributes":{"ID":124674,"DIS_CODE":0,"TOWNNAME":"將軍區","LI":"苓和里","LIN":"4鄰","STREET":" ","SECT":" ","MAREA":"苓和","LANE":" ","ALLEY":" ","HOUSE_NO":"３３號","E_COORD97":164647.20000000001,"N_COORD97":2569000.6000000001,"ADDRESS":"苓和３３號","OBJECTID":124674},"geometry":{"x":164647.20000000205,"y":2569000.6000000015}},{"attributes":{"ID":124675,"DIS_CODE":0,"TOWNNAME":"將軍區","LI":"苓和里","LIN":"4鄰","STREET":" ","SECT":" ","MAREA":"苓和","LANE":" ","ALLEY":" ","HOUSE_NO":"３４號","E_COORD97":164631.64999999999,"N_COORD97":2568998.5299999998,"ADDRESS":"苓和３４號","OBJECTID":124675},"geometry":{"x":164631.65000000037,"y":2568998.5300000012}},{"attributes":{"ID":124676,"DIS_CODE":0,"TOWNNAME":"北區","LI":"文元里","LIN":"16鄰","STREET":"文賢路","SECT":" ","MAREA":" ","LANE":"１０３０巷","ALLEY":"１１弄","HOUSE_NO":"２３號","E_COORD97":167432.67000000001,"N_COORD97":2546164.8900000001,"ADDRESS":"文賢路１０３０巷１１弄２３號","OBJECTID":124676},"geometry":{"x":167432.67000000086,"y":2546164.8900000043}},{"attributes":{"ID":124677,"DIS_CODE":0,"TOWNNAME":"北區","LI":"文元里","LIN":"16鄰","STREET":"文賢路","SECT":" ","MAREA":" ","LANE":"１０３０巷","ALLEY":"１１弄","HOUSE_NO":"２４號","E_COORD97":167452.73999999999,"N_COORD97":2546169.52,"ADDRESS":"文賢路１０３０巷１１弄２４號","OBJECTID":124677},"geometry":{"x":167452.74000000115,"y":2546169.5199999977}},{"attributes":{"ID":124678,"DIS_CODE":0,"TOWNNAME":"北區","LI":"文元里","LIN":"16鄰","STREET":"文賢路","SECT":" ","MAREA":" ","LANE":"１０３０巷","ALLEY":"１１弄","HOUSE_NO":"２５號","E_COORD97":167432.16,"N_COORD97":2546172,"ADDRESS":"文賢路１０３０巷１１弄２５號","OBJECTID":124678},"geometry":{"x":167432.16000000015,"y":2546172.0000000019}},{"attributes":{"ID":124679,"DIS_CODE":0,"TOWNNAME":"北區","LI":"文元里","LIN":"16鄰","STREET":"文賢路","SECT":" ","MAREA":" ","LANE":"１０３０巷","ALLEY":"１１弄","HOUSE_NO":"２６號","E_COORD97":167451.72,"N_COORD97":2546176.8900000001,"ADDRESS":"文賢路１０３０巷１１弄２６號","OBJECTID":124679},"geometry":{"x":167451.71999999974,"y":2546176.8900000006}},{"attributes":{"ID":124680,"DIS_CODE":0,"TOWNNAME":"北區","LI":"文元里","LIN":"16鄰","STREET":"文賢路","SECT":" ","MAREA":" ","LANE":"１０３０巷","ALLEY":"１１弄","HOUSE_NO":"２７號","E_COORD97":167431.26999999999,"N_COORD97":2546178.3500000001,"ADDRESS":"文賢路１０３０巷１１弄２７號","OBJECTID":124680},"geometry":{"x":167431.27000000142,"y":2546178.3500000015}},{"attributes":{"ID":124681,"DIS_CODE":0,"TOWNNAME":"北區","LI":"文元里","LIN":"16鄰","STREET":"文賢路","SECT":" ","MAREA":" ","LANE":"１０３０巷","ALLEY":"１１弄","HOUSE_NO":"２８號","E_COORD97":167450.95999999999,"N_COORD97":2546183.75,"ADDRESS":"文賢路１０３０巷１１弄２８號","OBJECTID":124681},"geometry":{"x":167450.96000000089,"y":2546183.7500000019}},{"attributes":{"ID":124682,"DIS_CODE":0,"TOWNNAME":"將軍區","LI":"苓和里","LIN":"4鄰","STREET":" ","SECT":" ","MAREA":"苓和","LANE":" ","ALLEY":" ","HOUSE_NO":"３５號","E_COORD97":164610.69,"N_COORD97":2568998.6899999999,"ADDRESS":"苓和３５號","OBJECTID":124682},"geometry":{"x":164610.69000000134,"y":2568998.6899999995}},{"attributes":{"ID":124683,"DIS_CODE":0,"TOWNNAME":"將軍區","LI":"苓和里","LIN":"4鄰","STREET":" ","SECT":" ","MAREA":"苓和","LANE":" ","ALLEY":" ","HOUSE_NO":"３７號","E_COORD97":164608.48999999999,"N_COORD97":2569022.3700000001,"ADDRESS":"苓和３７號","OBJECTID":124683},"geometry":{"x":164608.49000000115,"y":2569022.370000001}},{"attributes":{"ID":124684,"DIS_CODE":0,"TOWNNAME":"將軍區","LI":"苓和里","LIN":"4鄰","STREET":" ","SECT":" ","MAREA":"苓和","LANE":" ","ALLEY":" ","HOUSE_NO":"３９號","E_COORD97":164628.22,"N_COORD97":2569014.4300000002,"ADDRESS":"苓和３９號","OBJECTID":124684},"geometry":{"x":164628.22000000067,"y":2569014.4299999997}},{"attributes":{"ID":124685,"DIS_CODE":0,"TOWNNAME":"將軍區","LI":"苓和里","LIN":"4鄰","STREET":" ","SECT":" ","MAREA":"苓和","LANE":" ","ALLEY":" ","HOUSE_NO":"４０號","E_COORD97":164644.41,"N_COORD97":2569015.0099999998,"ADDRESS":"苓和４０號","OBJECTID":124685},"geometry":{"x":164644.41000000108,"y":2569015.0100000016}},{"attributes":{"ID":124686,"DIS_CODE":0,"TOWNNAME":"將軍區","LI":"苓和里","LIN":"4鄰","STREET":" ","SECT":" ","MAREA":"苓和","LANE":" ","ALLEY":" ","HOUSE_NO":"４１號","E_COORD97":164641.45000000001,"N_COORD97":2569028.3399999999,"ADDRESS":"苓和４１號","OBJECTID":124686},"geometry":{"x":164641.45000000019,"y":2569028.3399999999}},{"attributes":{"ID":124687,"DIS_CODE":0,"TOWNNAME":"將軍區","LI":"保源里","LIN":"4鄰","STREET":" ","SECT":" ","MAREA":"苓保","LANE":" ","ALLEY":" ","HOUSE_NO":"３５號","E_COORD97":164609.53,"N_COORD97":2568738.6000000001,"ADDRESS":"苓保３５號","OBJECTID":124687},"geometry":{"x":164609.53000000212,"y":2568738.5999999996}},{"attributes":{"ID":124688,"DIS_CODE":0,"TOWNNAME":"將軍區","LI":"苓和里","LIN":"7鄰","STREET":" ","SECT":" ","MAREA":"苓和","LANE":" ","ALLEY":" ","HOUSE_NO":"７２號","E_COORD97":164546.85000000001,"N_COORD97":2568893.6499999999,"ADDRESS":"苓和７２號","OBJECTID":124688},"geometry":{"x":164546.84999999963,"y":2568893.6500000022}},{"attributes":{"ID":124689,"DIS_CODE":0,"TOWNNAME":"將軍區","LI":"苓和里","LIN":"1鄰","STREET":" ","SECT":" ","MAREA":"苓和","LANE":" ","ALLEY":" ","HOUSE_NO":"２號","E_COORD97":164763.85999999999,"N_COORD97":2569024.8999999999,"ADDRESS":"苓和２號","OBJECTID":124689},"geometry":{"x":164763.86000000127,"y":2569024.9000000004}},{"attributes":{"ID":124690,"DIS_CODE":0,"TOWNNAME":"將軍區","LI":"苓和里","LIN":"1鄰","STREET":" ","SECT":" ","MAREA":"苓和","LANE":" ","ALLEY":" ","HOUSE_NO":"４之１號","E_COORD97":164788.14999999999,"N_COORD97":2569048.8399999999,"ADDRESS":"苓和４之１號","OBJECTID":124690},"geometry":{"x":164788.15000000037,"y":2569048.8399999999}},{"attributes":{"ID":124691,"DIS_CODE":0,"TOWNNAME":"北區","LI":"文元里","LIN":"16鄰","STREET":"文賢路","SECT":" ","MAREA":" ","LANE":"１０３０巷","ALLEY":"１１弄","HOUSE_NO":"２９號","E_COORD97":167430.64000000001,"N_COORD97":2546184.4399999999,"ADDRESS":"文賢路１０３０巷１１弄２９號","OBJECTID":124691},"geometry":{"x":167430.64000000153,"y":2546184.4400000013}},{"attributes":{"ID":124692,"DIS_CODE":0,"TOWNNAME":"北區","LI":"文元里","LIN":"16鄰","STREET":"文賢路","SECT":" ","MAREA":" ","LANE":"１０３０巷","ALLEY":"１１弄","HOUSE_NO":"２號","E_COORD97":167457.73000000001,"N_COORD97":2546095.5800000001,"ADDRESS":"文賢路１０３０巷１１弄２號","OBJECTID":124692},"geometry":{"x":167457.72999999952,"y":2546095.5800000019}},{"attributes":{"ID":124693,"DIS_CODE":0,"TOWNNAME":"北區","LI":"文元里","LIN":"16鄰","STREET":"文賢路","SECT":" ","MAREA":" ","LANE":"１０３０巷","ALLEY":"１１弄","HOUSE_NO":"３０號","E_COORD97":167449.94,"N_COORD97":2546191.1099999999,"ADDRESS":"文賢路１０３０巷１１弄３０號","OBJECTID":124693},"geometry":{"x":167449.94000000134,"y":2546191.1099999994}},{"attributes":{"ID":124694,"DIS_CODE":0,"TOWNNAME":"北區","LI":"文元里","LIN":"16鄰","STREET":"文賢路","SECT":" ","MAREA":" ","LANE":"１０３０巷","ALLEY":"１１弄","HOUSE_NO":"３號","E_COORD97":167438.51000000001,"N_COORD97":2546100.3700000001,"ADDRESS":"文賢路１０３０巷１１弄３號","OBJECTID":124694},"geometry":{"x":167438.51000000071,"y":2546100.370000001}},{"attributes":{"ID":124695,"DIS_CODE":0,"TOWNNAME":"北區","LI":"文元里","LIN":"16鄰","STREET":"文賢路","SECT":" ","MAREA":" ","LANE":"１０３０巷","ALLEY":"１１弄","HOUSE_NO":"４號","E_COORD97":167457.82000000001,"N_COORD97":2546101.7000000002,"ADDRESS":"文賢路１０３０巷１１弄４號","OBJECTID":124695},"geometry":{"x":167457.82000000123,"y":2546101.7000000011}},{"attributes":{"ID":124696,"DIS_CODE":0,"TOWNNAME":"北區","LI":"文元里","LIN":"16鄰","STREET":"文賢路","SECT":" ","MAREA":" ","LANE":"１０３０巷","ALLEY":"１１弄","HOUSE_NO":"５號","E_COORD97":167438.26000000001,"N_COORD97":2546106.46,"ADDRESS":"文賢路１０３０巷１１弄５號","OBJECTID":124696},"geometry":{"x":167438.26000000164,"y":2546106.4600000009}},{"attributes":{"ID":124697,"DIS_CODE":0,"TOWNNAME":"北區","LI":"文元里","LIN":"16鄰","STREET":"文賢路","SECT":" ","MAREA":" ","LANE":"１０３０巷","ALLEY":"１１弄","HOUSE_NO":"６號","E_COORD97":167457.56,"N_COORD97":2546108.5600000001,"ADDRESS":"文賢路１０３０巷１１弄６號","OBJECTID":124697},"geometry":{"x":167457.55999999959,"y":2546108.5600000005}},{"attributes":{"ID":124698,"DIS_CODE":0,"TOWNNAME":"北區","LI":"文元里","LIN":"16鄰","STREET":"文賢路","SECT":" ","MAREA":" ","LANE":"１０３０巷","ALLEY":"１１弄","HOUSE_NO":"７號","E_COORD97":167438,"N_COORD97":2546111.29,"ADDRESS":"文賢路１０３０巷１１弄７號","OBJECTID":124698},"geometry":{"x":167438,"y":2546111.290000001}},{"attributes":{"ID":124699,"DIS_CODE":0,"TOWNNAME":"北區","LI":"文元里","LIN":"16鄰","STREET":"文賢路","SECT":" ","MAREA":" ","LANE":"１０３０巷","ALLEY":"１１弄","HOUSE_NO":"８號","E_COORD97":167457.31,"N_COORD97":2546114.6600000001,"ADDRESS":"文賢路１０３０巷１１弄８號","OBJECTID":124699},"geometry":{"x":167457.30999999959,"y":2546114.6600000001}},{"attributes":{"ID":124700,"DIS_CODE":0,"TOWNNAME":"北區","LI":"文元里","LIN":"16鄰","STREET":"文賢路","SECT":" ","MAREA":" ","LANE":"１０３０巷","ALLEY":"１１弄","HOUSE_NO":"９號","E_COORD97":167437.5,"N_COORD97":2546116.6200000001,"ADDRESS":"文賢路１０３０巷１１弄９號","OBJECTID":124700},"geometry":{"x":167437.50000000093,"y":2546116.6200000048}},{"attributes":{"ID":124701,"DIS_CODE":0,"TOWNNAME":"北區","LI":"文元里","LIN":"16鄰","STREET":"文賢路","SECT":" ","MAREA":" ","LANE":"１０８０巷","ALLEY":"３０弄","HOUSE_NO":"３號","E_COORD97":167486.01000000001,"N_COORD97":2546194.1000000001,"ADDRESS":"文賢路１０８０巷３０弄３號","OBJECTID":124701},"geometry":{"x":167486.01000000071,"y":2546194.1000000015}},{"attributes":{"ID":124702,"DIS_CODE":0,"TOWNNAME":"北區","LI":"文元里","LIN":"16鄰","STREET":"文賢路","SECT":" ","MAREA":" ","LANE":"１０８０巷","ALLEY":"３０弄","HOUSE_NO":"７號","E_COORD97":167486.51999999999,"N_COORD97":2546178.2200000002,"ADDRESS":"文賢路１０８０巷３０弄７號","OBJECTID":124702},"geometry":{"x":167486.51999999955,"y":2546178.2200000007}},{"attributes":{"ID":124703,"DIS_CODE":0,"TOWNNAME":"北區","LI":"文元里","LIN":"16鄰","STREET":"文賢路","SECT":" ","MAREA":" ","LANE":"１０８０巷","ALLEY":"３０弄","HOUSE_NO":"８號","E_COORD97":167472.67999999999,"N_COORD97":2546166.79,"ADDRESS":"文賢路１０８０巷３０弄８號","OBJECTID":124703},"geometry":{"x":167472.68000000156,"y":2546166.7899999991}},{"attributes":{"ID":124704,"DIS_CODE":0,"TOWNNAME":"東區","LI":"泉南里","LIN":"20鄰","STREET":"府連路","SECT":" ","MAREA":" ","LANE":"３４４巷","ALLEY":"１弄","HOUSE_NO":"９號","E_COORD97":169637.31,"N_COORD97":2542776.7400000002,"ADDRESS":"府連路３４４巷１弄９號","OBJECTID":124704},"geometry":{"x":169637.30999999959,"y":2542776.7400000021}},{"attributes":{"ID":124705,"DIS_CODE":0,"TOWNNAME":"北區","LI":"六甲里","LIN":"16鄰","STREET":"西門路","SECT":"四段","MAREA":" ","LANE":"３１６巷","ALLEY":"６弄","HOUSE_NO":"１０號","E_COORD97":169005.48999999999,"N_COORD97":2545931.6499999999,"ADDRESS":"西門路四段３１６巷６弄１０號","OBJECTID":124705},"geometry":{"x":169005.49000000115,"y":2545931.6500000004}},{"attributes":{"ID":124706,"DIS_CODE":0,"TOWNNAME":"北區","LI":"六甲里","LIN":"16鄰","STREET":"西門路","SECT":"四段","MAREA":" ","LANE":"３１６巷","ALLEY":"６弄","HOUSE_NO":"１２號","E_COORD97":169004.48999999999,"N_COORD97":2545925.6600000001,"ADDRESS":"西門路四段３１６巷６弄１２號","OBJECTID":124706},"geometry":{"x":169004.49000000022,"y":2545925.660000002}},{"attributes":{"ID":124707,"DIS_CODE":0,"TOWNNAME":"北區","LI":"六甲里","LIN":"16鄰","STREET":"西門路","SECT":"四段","MAREA":" ","LANE":"３１６巷","ALLEY":"６弄","HOUSE_NO":"１３號","E_COORD97":169014.17000000001,"N_COORD97":2545918.2999999998,"ADDRESS":"西門路四段３１６巷６弄１３號","OBJECTID":124707},"geometry":{"x":169014.17000000086,"y":2545918.3000000045}},{"attributes":{"ID":124708,"DIS_CODE":0,"TOWNNAME":"北區","LI":"六甲里","LIN":"16鄰","STREET":"西門路","SECT":"四段","MAREA":" ","LANE":"３１６巷","ALLEY":"６弄","HOUSE_NO":"１４號","E_COORD97":169002.64999999999,"N_COORD97":2545920.4100000001,"ADDRESS":"西門路四段３１６巷６弄１４號","OBJECTID":124708},"geometry":{"x":169002.65000000224,"y":2545920.4100000039}},{"attributes":{"ID":124709,"DIS_CODE":0,"TOWNNAME":"北區","LI":"六甲里","LIN":"16鄰","STREET":"西門路","SECT":"四段","MAREA":" ","LANE":"３１６巷","ALLEY":"６弄","HOUSE_NO":"１５號","E_COORD97":169013.32000000001,"N_COORD97":2545913.3399999999,"ADDRESS":"西門路四段３１６巷６弄１５號","OBJECTID":124709},"geometry":{"x":169013.32000000216,"y":2545913.3399999999}},{"attributes":{"ID":124710,"DIS_CODE":0,"TOWNNAME":"北區","LI":"六甲里","LIN":"16鄰","STREET":"西門路","SECT":"四段","MAREA":" ","LANE":"３１６巷","ALLEY":"６弄","HOUSE_NO":"１６號","E_COORD97":169001.79000000001,"N_COORD97":2545915.3100000001,"ADDRESS":"西門路四段３１６巷６弄１６號","OBJECTID":124710},"geometry":{"x":169001.79000000097,"y":2545915.3100000024}},{"attributes":{"ID":124711,"DIS_CODE":0,"TOWNNAME":"北區","LI":"六甲里","LIN":"16鄰","STREET":"西門路","SECT":"四段","MAREA":" ","LANE":"３１６巷","ALLEY":"６弄","HOUSE_NO":"１７號","E_COORD97":169012.45999999999,"N_COORD97":2545908.52,"ADDRESS":"西門路四段３１６巷６弄１７號","OBJECTID":124711},"geometry":{"x":169012.46000000089,"y":2545908.5199999977}},{"attributes":{"ID":124712,"DIS_CODE":0,"TOWNNAME":"北區","LI":"六甲里","LIN":"16鄰","STREET":"西門路","SECT":"四段","MAREA":" ","LANE":"３１６巷","ALLEY":"６弄","HOUSE_NO":"１８號","E_COORD97":169001.23000000001,"N_COORD97":2545909.0699999998,"ADDRESS":"西門路四段３１６巷６弄１８號","OBJECTID":124712},"geometry":{"x":169001.23000000138,"y":2545909.070000004}},{"attributes":{"ID":124713,"DIS_CODE":0,"TOWNNAME":"北區","LI":"六甲里","LIN":"16鄰","STREET":"西門路","SECT":"四段","MAREA":" ","LANE":"３１６巷","ALLEY":"６弄","HOUSE_NO":"１號","E_COORD97":169018.42999999999,"N_COORD97":2545951.6699999999,"ADDRESS":"西門路四段３１６巷６弄１號","OBJECTID":124713},"geometry":{"x":169018.4299999997,"y":2545951.6699999999}},{"attributes":{"ID":124714,"DIS_CODE":0,"TOWNNAME":"北區","LI":"六甲里","LIN":"16鄰","STREET":"西門路","SECT":"四段","MAREA":" ","LANE":"３１６巷","ALLEY":"６弄","HOUSE_NO":"２號","E_COORD97":169007.19,"N_COORD97":2545953.7799999998,"ADDRESS":"西門路四段３１６巷６弄２號","OBJECTID":124714},"geometry":{"x":169007.19000000041,"y":2545953.7799999993}},{"attributes":{"ID":124715,"DIS_CODE":0,"TOWNNAME":"北區","LI":"六甲里","LIN":"16鄰","STREET":"西門路","SECT":"四段","MAREA":" ","LANE":"３１６巷","ALLEY":"６弄","HOUSE_NO":"３號","E_COORD97":169018.01000000001,"N_COORD97":2545946.71,"ADDRESS":"西門路四段３１６巷６弄３號","OBJECTID":124715},"geometry":{"x":169018.00999999978,"y":2545946.7100000028}},{"attributes":{"ID":124716,"DIS_CODE":0,"TOWNNAME":"安平區","LI":"海頭里","LIN":"6鄰","STREET":"平生路","SECT":" ","MAREA":" ","LANE":" ","ALLEY":" ","HOUSE_NO":"８３號","E_COORD97":164344.41,"N_COORD97":2544706.21,"ADDRESS":"平生路８３號","OBJECTID":124716},"geometry":{"x":164344.41000000108,"y":2544706.2100000028}},{"attributes":{"ID":124717,"DIS_CODE":0,"TOWNNAME":"歸仁區","LI":"後市里","LIN":"6鄰","STREET":"大吉一街","SECT":" ","MAREA":" ","LANE":" ","ALLEY":" ","HOUSE_NO":"４９號","E_COORD97":177157.81,"N_COORD97":2540653.25,"ADDRESS":"大吉一街４９號","OBJECTID":124717},"geometry":{"x":177157.80999999959,"y":2540653.2500000019}},{"attributes":{"ID":124718,"DIS_CODE":0,"TOWNNAME":"歸仁區","LI":"南興里","LIN":"6鄰","STREET":"民生二街","SECT":" ","MAREA":" ","LANE":" ","ALLEY":" ","HOUSE_NO":"１２２號","E_COORD97":176099.64000000001,"N_COORD97":2541381.29,"ADDRESS":"民生二街１２２號","OBJECTID":124718},"geometry":{"x":176099.63999999873,"y":2541381.290000001}},{"attributes":{"ID":124719,"DIS_CODE":0,"TOWNNAME":"歸仁區","LI":"後市里","LIN":"6鄰","STREET":"大吉一街","SECT":" ","MAREA":" ","LANE":" ","ALLEY":" ","HOUSE_NO":"５５號","E_COORD97":177157.70999999999,"N_COORD97":2540639.25,"ADDRESS":"大吉一街５５號","OBJECTID":124719},"geometry":{"x":177157.71000000089,"y":2540639.2500000019}},{"attributes":{"ID":124720,"DIS_CODE":0,"TOWNNAME":"歸仁區","LI":"後市里","LIN":"6鄰","STREET":"大吉一街","SECT":" ","MAREA":" ","LANE":" ","ALLEY":" ","HOUSE_NO":"４７號","E_COORD97":177157.81,"N_COORD97":2540656.25,"ADDRESS":"大吉一街４７號","OBJECTID":124720},"geometry":{"x":177157.80999999959,"y":2540656.2500000019}},{"attributes":{"ID":124721,"DIS_CODE":0,"TOWNNAME":"歸仁區","LI":"媽廟里","LIN":"6鄰","STREET":"中正北路","SECT":"三段","MAREA":" ","LANE":" ","ALLEY":" ","HOUSE_NO":"１８９號","E_COORD97":177591.35999999999,"N_COORD97":2543823.7200000002,"ADDRESS":"中正北路三段１８９號","OBJECTID":124721},"geometry":{"x":177591.36000000127,"y":2543823.7200000025}},{"attributes":{"ID":124722,"DIS_CODE":0,"TOWNNAME":"歸仁區","LI":"歸南里","LIN":"6鄰","STREET":"中正南路","SECT":"一段","MAREA":" ","LANE":" ","ALLEY":" ","HOUSE_NO":"５６０號","E_COORD97":176756.14999999999,"N_COORD97":2539958.4500000002,"ADDRESS":"中正南路一段５６０號","OBJECTID":124722},"geometry":{"x":176756.15000000037,"y":2539958.4499999993}},{"attributes":{"ID":124723,"DIS_CODE":0,"TOWNNAME":"歸仁區","LI":"南興里","LIN":"6鄰","STREET":"民生二街","SECT":" ","MAREA":" ","LANE":" ","ALLEY":" ","HOUSE_NO":"１３２號","E_COORD97":176078.14000000001,"N_COORD97":2541381.29,"ADDRESS":"民生二街１３２號","OBJECTID":124723},"geometry":{"x":176078.1400000006,"y":2541381.290000001}},{"attributes":{"ID":124724,"DIS_CODE":0,"TOWNNAME":"佳里區","LI":"建南里","LIN":"12鄰","STREET":"新生路","SECT":" ","MAREA":" ","LANE":" ","ALLEY":" ","HOUSE_NO":"３９１號","E_COORD97":165332,"N_COORD97":2562187.4700000002,"ADDRESS":"新生路３９１號","OBJECTID":124724},"geometry":{"x":165332.00000000093,"y":2562187.4700000044}},{"attributes":{"ID":124725,"DIS_CODE":0,"TOWNNAME":"佳里區","LI":"東寧里","LIN":"18鄰","STREET":"義民街","SECT":" ","MAREA":" ","LANE":" ","ALLEY":" ","HOUSE_NO":"２９號","E_COORD97":166082.07999999999,"N_COORD97":2562442.3700000001,"ADDRESS":"義民街２９號","OBJECTID":124725},"geometry":{"x":166082.08000000194,"y":2562442.370000001}},{"attributes":{"ID":124726,"DIS_CODE":0,"TOWNNAME":"佳里區","LI":"東寧里","LIN":"14鄰","STREET":"義民街","SECT":" ","MAREA":" ","LANE":" ","ALLEY":" ","HOUSE_NO":"１０２號","E_COORD97":165898.84,"N_COORD97":2562434.9900000002,"ADDRESS":"義民街１０２號","OBJECTID":124726},"geometry":{"x":165898.84000000078,"y":2562434.9900000021}},{"attributes":{"ID":124727,"DIS_CODE":0,"TOWNNAME":"佳里區","LI":"東寧里","LIN":"4鄰","STREET":"義民街","SECT":" ","MAREA":" ","LANE":" ","ALLEY":" ","HOUSE_NO":"１２９號","E_COORD97":165795.5,"N_COORD97":2562411.3500000001,"ADDRESS":"義民街１２９號","OBJECTID":124727},"geometry":{"x":165795.5,"y":2562411.3500000015}},{"attributes":{"ID":124728,"DIS_CODE":0,"TOWNNAME":"佳里區","LI":"東寧里","LIN":"4鄰","STREET":"義民街","SECT":" ","MAREA":" ","LANE":" ","ALLEY":" ","HOUSE_NO":"１３１號","E_COORD97":165790.37,"N_COORD97":2562411.6699999999,"ADDRESS":"義民街１３１號","OBJECTID":124728},"geometry":{"x":165790.37000000104,"y":2562411.6699999999}},{"attributes":{"ID":124729,"DIS_CODE":0,"TOWNNAME":"佳里區","LI":"東寧里","LIN":"4鄰","STREET":"義民街","SECT":" ","MAREA":" ","LANE":" ","ALLEY":" ","HOUSE_NO":"１３３號","E_COORD97":165787.16,"N_COORD97":2562411.2000000002,"ADDRESS":"義民街１３３號","OBJECTID":124729},"geometry":{"x":165787.16000000108,"y":2562411.1999999993}},{"attributes":{"ID":124730,"DIS_CODE":0,"TOWNNAME":"麻豆區","LI":"龍泉里","LIN":"6鄰","STREET":" ","SECT":" ","MAREA":"溝子墘","LANE":" ","ALLEY":" ","HOUSE_NO":"６１號之２","E_COORD97":174202.73000000001,"N_COORD97":2564148.0899999999,"ADDRESS":"溝子墘６１號之２","OBJECTID":124730},"geometry":{"x":174202.73000000045,"y":2564148.0899999999}},{"attributes":{"ID":124731,"DIS_CODE":0,"TOWNNAME":"將軍區","LI":"苓和里","LIN":"1鄰","STREET":" ","SECT":" ","MAREA":"苓和","LANE":" ","ALLEY":" ","HOUSE_NO":"４之２號","E_COORD97":164868.17999999999,"N_COORD97":2569068.79,"ADDRESS":"苓和４之２號","OBJECTID":124731},"geometry":{"x":164868.1799999997,"y":2569068.7899999991}},{"attributes":{"ID":124732,"DIS_CODE":0,"TOWNNAME":"將軍區","LI":"苓和里","LIN":"1鄰","STREET":" ","SECT":" ","MAREA":"苓和","LANE":" ","ALLEY":" ","HOUSE_NO":"４之３號","E_COORD97":164880.66,"N_COORD97":2569108.3399999999,"ADDRESS":"苓和４之３號","OBJECTID":124732},"geometry":{"x":164880.66000000015,"y":2569108.3400000017}},{"attributes":{"ID":124733,"DIS_CODE":0,"TOWNNAME":"將軍區","LI":"苓和里","LIN":"1鄰","STREET":" ","SECT":" ","MAREA":"苓和","LANE":" ","ALLEY":" ","HOUSE_NO":"４之５號","E_COORD97":164878.19,"N_COORD97":2569093.0099999998,"ADDRESS":"苓和４之５號","OBJECTID":124733},"geometry":{"x":164878.19000000134,"y":2569093.0100000016}},{"attributes":{"ID":124734,"DIS_CODE":0,"TOWNNAME":"將軍區","LI":"苓和里","LIN":"1鄰","STREET":" ","SECT":" ","MAREA":"苓和","LANE":" ","ALLEY":" ","HOUSE_NO":"４號","E_COORD97":164800.98999999999,"N_COORD97":2569054.5600000001,"ADDRESS":"苓和４號","OBJECTID":124734},"geometry":{"x":164800.99000000022,"y":2569054.5600000005}},{"attributes":{"ID":124735,"DIS_CODE":0,"TOWNNAME":"將軍區","LI":"苓和里","LIN":"6鄰","STREET":" ","SECT":" ","MAREA":"苓和","LANE":" ","ALLEY":" ","HOUSE_NO":"５４之１號","E_COORD97":164588.72,"N_COORD97":2568942.5600000001,"ADDRESS":"苓和５４之１號","OBJECTID":124735},"geometry":{"x":164588.71999999974,"y":2568942.5600000005}},{"attributes":{"ID":124736,"DIS_CODE":0,"TOWNNAME":"將軍區","LI":"苓和里","LIN":"6鄰","STREET":" ","SECT":" ","MAREA":"苓和","LANE":" ","ALLEY":" ","HOUSE_NO":"５４號","E_COORD97":164597.20999999999,"N_COORD97":2568960.8599999999,"ADDRESS":"苓和５４號","OBJECTID":124736},"geometry":{"x":164597.20999999996,"y":2568960.8600000031}},{"attributes":{"ID":124737,"DIS_CODE":0,"TOWNNAME":"將軍區","LI":"苓和里","LIN":"6鄰","STREET":" ","SECT":" ","MAREA":"苓和","LANE":" ","ALLEY":" ","HOUSE_NO":"５５號","E_COORD97":164572.53,"N_COORD97":2568966.6800000002,"ADDRESS":"苓和５５號","OBJECTID":124737},"geometry":{"x":164572.53000000119,"y":2568966.6800000016}},{"attributes":{"ID":124738,"DIS_CODE":0,"TOWNNAME":"北區","LI":"六甲里","LIN":"16鄰","STREET":"西門路","SECT":"四段","MAREA":" ","LANE":"３１６巷","ALLEY":"６弄","HOUSE_NO":"４號","E_COORD97":169007.04999999999,"N_COORD97":2545947.8199999998,"ADDRESS":"西門路四段３１６巷６弄４號","OBJECTID":124738},"geometry":{"x":169007.04999999981,"y":2545947.8200000003}},{"attributes":{"ID":124739,"DIS_CODE":0,"TOWNNAME":"新營區","LI":"太南里","LIN":"6鄰","STREET":" ","SECT":" ","MAREA":"太子宮","LANE":" ","ALLEY":" ","HOUSE_NO":"２１５之２號","E_COORD97":176157.39999999999,"N_COORD97":2576869.3500000001,"ADDRESS":"太子宮２１５之２號","OBJECTID":124739},"geometry":{"x":176157.40000000037,"y":2576869.3499999996}},{"attributes":{"ID":124740,"DIS_CODE":0,"TOWNNAME":"新營區","LI":"南紙里","LIN":"6鄰","STREET":"南紙街","SECT":" ","MAREA":" ","LANE":" ","ALLEY":" ","HOUSE_NO":"１４１號","E_COORD97":177808.39000000001,"N_COORD97":2577375.0099999998,"ADDRESS":"南紙街１４１號","OBJECTID":124740},"geometry":{"x":177808.38999999873,"y":2577375.0100000035}},{"attributes":{"ID":124741,"DIS_CODE":0,"TOWNNAME":"新營區","LI":"南紙里","LIN":"6鄰","STREET":"南紙街","SECT":" ","MAREA":" ","LANE":" ","ALLEY":" ","HOUSE_NO":"１３７號","E_COORD97":177809.45000000001,"N_COORD97":2577384.9700000002,"ADDRESS":"南紙街１３７號","OBJECTID":124741},"geometry":{"x":177809.45000000112,"y":2577384.9700000007}},{"attributes":{"ID":124742,"DIS_CODE":0,"TOWNNAME":"北區","LI":"六甲里","LIN":"16鄰","STREET":"西門路","SECT":"四段","MAREA":" ","LANE":"３１６巷","ALLEY":"６弄","HOUSE_NO":"５號","E_COORD97":169017.44,"N_COORD97":2545940.6099999999,"ADDRESS":"西門路四段３１６巷６弄５號","OBJECTID":124742},"geometry":{"x":169017.44000000041,"y":2545940.6099999994}},{"attributes":{"ID":124743,"DIS_CODE":0,"TOWNNAME":"北區","LI":"六甲里","LIN":"16鄰","STREET":"西門路","SECT":"四段","MAREA":" ","LANE":"３１６巷","ALLEY":"６弄","HOUSE_NO":"６號","E_COORD97":169006.62,"N_COORD97":2545942.0099999998,"ADDRESS":"西門路四段３１６巷６弄６號","OBJECTID":124743},"geometry":{"x":169006.62000000104,"y":2545942.0099999998}},{"attributes":{"ID":124744,"DIS_CODE":0,"TOWNNAME":"永康區","LI":"中華里","LIN":"6鄰","STREET":"華興街","SECT":" ","MAREA":" ","LANE":" ","ALLEY":" ","HOUSE_NO":"２５號","E_COORD97":172015.89999999999,"N_COORD97":2544563.4700000002,"ADDRESS":"華興街２５號","OBJECTID":124744},"geometry":{"x":172015.90000000037,"y":2544563.4700000007}},{"attributes":{"ID":124745,"DIS_CODE":0,"TOWNNAME":"北區","LI":"六甲里","LIN":"16鄰","STREET":"西門路","SECT":"四段","MAREA":" ","LANE":"３１６巷","ALLEY":"６弄","HOUSE_NO":"７號","E_COORD97":169016.44,"N_COORD97":2545935.3199999998,"ADDRESS":"西門路四段３１６巷６弄７號","OBJECTID":124745},"geometry":{"x":169016.44000000134,"y":2545935.3200000022}},{"attributes":{"ID":124746,"DIS_CODE":0,"TOWNNAME":"新營區","LI":"太北里","LIN":"6鄰","STREET":" ","SECT":" ","MAREA":"太子宮","LANE":" ","ALLEY":" ","HOUSE_NO":"４５之８號","E_COORD97":175725.91,"N_COORD97":2577158.3199999998,"ADDRESS":"太子宮４５之８號","OBJECTID":124746},"geometry":{"x":175725.91000000108,"y":2577158.3200000003}},{"attributes":{"ID":124747,"DIS_CODE":0,"TOWNNAME":"新營區","LI":"姑爺里","LIN":"6鄰","STREET":" ","SECT":" ","MAREA":"姑爺","LANE":" ","ALLEY":" ","HOUSE_NO":"４９號","E_COORD97":174234.57999999999,"N_COORD97":2574874.4700000002,"ADDRESS":"姑爺４９號","OBJECTID":124747},"geometry":{"x":174234.58000000101,"y":2574874.4700000044}},{"attributes":{"ID":124748,"DIS_CODE":0,"TOWNNAME":"鹽水區","LI":"岸內里","LIN":"6鄰","STREET":" ","SECT":" ","MAREA":"岸內","LANE":" ","ALLEY":" ","HOUSE_NO":"１號之７","E_COORD97":174845.10999999999,"N_COORD97":2580772.3599999999,"ADDRESS":"岸內１號之７","OBJECTID":124748},"geometry":{"x":174845.11000000127,"y":2580772.3599999994}},{"attributes":{"ID":124749,"DIS_CODE":0,"TOWNNAME":"北區","LI":"六甲里","LIN":"16鄰","STREET":"西門路","SECT":"四段","MAREA":" ","LANE":"３１６巷","ALLEY":"６弄","HOUSE_NO":"８號","E_COORD97":169005.91,"N_COORD97":2545937.04,"ADDRESS":"西門路四段３１６巷６弄８號","OBJECTID":124749},"geometry":{"x":169005.91000000108,"y":2545937.0399999991}},{"attributes":{"ID":124750,"DIS_CODE":0,"TOWNNAME":"鹽水區","LI":"岸內里","LIN":"6鄰","STREET":" ","SECT":" ","MAREA":"岸內","LANE":" ","ALLEY":" ","HOUSE_NO":"３號","E_COORD97":174813.76999999999,"N_COORD97":2580906.1800000002,"ADDRESS":"岸內３號","OBJECTID":124750},"geometry":{"x":174813.77000000142,"y":2580906.1799999997}},{"attributes":{"ID":124751,"DIS_CODE":0,"TOWNNAME":"將軍區","LI":"苓和里","LIN":"6鄰","STREET":" ","SECT":" ","MAREA":"苓和","LANE":" ","ALLEY":" ","HOUSE_NO":"５６號","E_COORD97":164618.95999999999,"N_COORD97":2568947.1000000001,"ADDRESS":"苓和５６號","OBJECTID":124751},"geometry":{"x":164618.95999999996,"y":2568947.1000000015}},{"attributes":{"ID":124752,"DIS_CODE":0,"TOWNNAME":"將軍區","LI":"苓和里","LIN":"6鄰","STREET":" ","SECT":" ","MAREA":"苓和","LANE":" ","ALLEY":" ","HOUSE_NO":"５７號","E_COORD97":164603.84,"N_COORD97":2568938.3300000001,"ADDRESS":"苓和５７號","OBJECTID":124752},"geometry":{"x":164603.84000000078,"y":2568938.3300000019}},{"attributes":{"ID":124753,"DIS_CODE":0,"TOWNNAME":"將軍區","LI":"苓和里","LIN":"3鄰","STREET":" ","SECT":" ","MAREA":"苓和","LANE":" ","ALLEY":" ","HOUSE_NO":"２７之３號","E_COORD97":164688.81,"N_COORD97":2568934.04,"ADDRESS":"苓和２７之３號","OBJECTID":124753},"geometry":{"x":164688.81000000052,"y":2568934.0399999991}},{"attributes":{"ID":124754,"DIS_CODE":0,"TOWNNAME":"將軍區","LI":"苓和里","LIN":"3鄰","STREET":" ","SECT":" ","MAREA":"苓和","LANE":" ","ALLEY":" ","HOUSE_NO":"２７號","E_COORD97":164669.95000000001,"N_COORD97":2568935.3999999999,"ADDRESS":"苓和２７號","OBJECTID":124754},"geometry":{"x":164669.95000000112,"y":2568935.4000000022}},{"attributes":{"ID":124755,"DIS_CODE":0,"TOWNNAME":"將軍區","LI":"保源里","LIN":"4鄰","STREET":" ","SECT":" ","MAREA":"苓保","LANE":" ","ALLEY":" ","HOUSE_NO":"３６號","E_COORD97":164624.14000000001,"N_COORD97":2568746.4199999999,"ADDRESS":"苓保３６號","OBJECTID":124755},"geometry":{"x":164624.13999999966,"y":2568746.4199999999}},{"attributes":{"ID":124756,"DIS_CODE":0,"TOWNNAME":"將軍區","LI":"保源里","LIN":"4鄰","STREET":" ","SECT":" ","MAREA":"苓保","LANE":" ","ALLEY":" ","HOUSE_NO":"３７之１號","E_COORD97":164642.63,"N_COORD97":2568744.2400000002,"ADDRESS":"苓保３７之１號","OBJECTID":124756},"geometry":{"x":164642.63000000082,"y":2568744.2400000002}},{"attributes":{"ID":124757,"DIS_CODE":0,"TOWNNAME":"將軍區","LI":"保源里","LIN":"4鄰","STREET":" ","SECT":" ","MAREA":"苓保","LANE":" ","ALLEY":" ","HOUSE_NO":"３７號","E_COORD97":164636.82000000001,"N_COORD97":2568752.5,"ADDRESS":"苓保３７號","OBJECTID":124757},"geometry":{"x":164636.82000000123,"y":2568752.5}},{"attributes":{"ID":124758,"DIS_CODE":0,"TOWNNAME":"將軍區","LI":"保源里","LIN":"4鄰","STREET":" ","SECT":" ","MAREA":"苓保","LANE":" ","ALLEY":" ","HOUSE_NO":"３９號","E_COORD97":164660.92999999999,"N_COORD97":2568746.1499999999,"ADDRESS":"苓保３９號","OBJECTID":124758},"geometry":{"x":164660.93000000063,"y":2568746.1500000041}},{"attributes":{"ID":124759,"DIS_CODE":0,"TOWNNAME":"將軍區","LI":"保源里","LIN":"4鄰","STREET":" ","SECT":" ","MAREA":"苓保","LANE":" ","ALLEY":" ","HOUSE_NO":"４０之１號","E_COORD97":164680.87,"N_COORD97":2568758.21,"ADDRESS":"苓保４０之１號","OBJECTID":124759},"geometry":{"x":164680.87000000011,"y":2568758.2100000028}},{"attributes":{"ID":124760,"DIS_CODE":0,"TOWNNAME":"將軍區","LI":"保源里","LIN":"4鄰","STREET":" ","SECT":" ","MAREA":"苓保","LANE":" ","ALLEY":" ","HOUSE_NO":"４０之３號","E_COORD97":164697.54000000001,"N_COORD97":2568769.6499999999,"ADDRESS":"苓保４０之３號","OBJECTID":124760},"geometry":{"x":164697.54000000097,"y":2568769.6500000004}},{"attributes":{"ID":124761,"DIS_CODE":0,"TOWNNAME":"將軍區","LI":"保源里","LIN":"4鄰","STREET":" ","SECT":" ","MAREA":"苓保","LANE":" ","ALLEY":" ","HOUSE_NO":"４０號","E_COORD97":164696.07000000001,"N_COORD97":2568744.7599999998,"ADDRESS":"苓保４０號","OBJECTID":124761},"geometry":{"x":164696.07000000123,"y":2568744.7600000035}},{"attributes":{"ID":124762,"DIS_CODE":0,"TOWNNAME":"將軍區","LI":"保源里","LIN":"4鄰","STREET":" ","SECT":" ","MAREA":"苓保","LANE":" ","ALLEY":" ","HOUSE_NO":"４１之１２號","E_COORD97":164843.04000000001,"N_COORD97":2568826.5,"ADDRESS":"苓保４１之１２號","OBJECTID":124762},"geometry":{"x":164843.0400000019,"y":2568826.5000000019}},{"attributes":{"ID":124763,"DIS_CODE":0,"TOWNNAME":"將軍區","LI":"保源里","LIN":"1鄰","STREET":" ","SECT":" ","MAREA":"苓保","LANE":" ","ALLEY":" ","HOUSE_NO":"３之１號","E_COORD97":164724.51000000001,"N_COORD97":2568873.0800000001,"ADDRESS":"苓保３之１號","OBJECTID":124763},"geometry":{"x":164724.51000000071,"y":2568873.0800000019}},{"attributes":{"ID":124764,"DIS_CODE":0,"TOWNNAME":"將軍區","LI":"保源里","LIN":"1鄰","STREET":" ","SECT":" ","MAREA":"苓保","LANE":" ","ALLEY":" ","HOUSE_NO":"３之３號","E_COORD97":164715.95000000001,"N_COORD97":2568872.1000000001,"ADDRESS":"苓保３之３號","OBJECTID":124764},"geometry":{"x":164715.95000000019,"y":2568872.1000000015}},{"attributes":{"ID":124765,"DIS_CODE":0,"TOWNNAME":"將軍區","LI":"保源里","LIN":"1鄰","STREET":" ","SECT":" ","MAREA":"苓保","LANE":" ","ALLEY":" ","HOUSE_NO":"３號","E_COORD97":164730.23000000001,"N_COORD97":2568873.1899999999,"ADDRESS":"苓保３號","OBJECTID":124765},"geometry":{"x":164730.23000000231,"y":2568873.1899999995}},{"attributes":{"ID":124766,"DIS_CODE":0,"TOWNNAME":"將軍區","LI":"保源里","LIN":"6鄰","STREET":" ","SECT":" ","MAREA":"苓保","LANE":" ","ALLEY":" ","HOUSE_NO":"５２之１０號","E_COORD97":164600.54999999999,"N_COORD97":2568649.8199999998,"ADDRESS":"苓保５２之１０號","OBJECTID":124766},"geometry":{"x":164600.55000000075,"y":2568649.8200000003}},{"attributes":{"ID":124767,"DIS_CODE":0,"TOWNNAME":"將軍區","LI":"保源里","LIN":"6鄰","STREET":" ","SECT":" ","MAREA":"苓保","LANE":" ","ALLEY":" ","HOUSE_NO":"５２之２號","E_COORD97":164587.73000000001,"N_COORD97":2568645.4500000002,"ADDRESS":"苓保５２之２號","OBJECTID":124767},"geometry":{"x":164587.73000000045,"y":2568645.4500000011}},{"attributes":{"ID":124768,"DIS_CODE":0,"TOWNNAME":"將軍區","LI":"保源里","LIN":"3鄰","STREET":" ","SECT":" ","MAREA":"苓保","LANE":" ","ALLEY":" ","HOUSE_NO":"３０號","E_COORD97":164569.73000000001,"N_COORD97":2568783.3300000001,"ADDRESS":"苓保３０號","OBJECTID":124768},"geometry":{"x":164569.73000000138,"y":2568783.3300000019}},{"attributes":{"ID":124769,"DIS_CODE":0,"TOWNNAME":"將軍區","LI":"保源里","LIN":"3鄰","STREET":" ","SECT":" ","MAREA":"苓保","LANE":" ","ALLEY":" ","HOUSE_NO":"３１號","E_COORD97":164564.20000000001,"N_COORD97":2568749.8500000001,"ADDRESS":"苓保３１號","OBJECTID":124769},"geometry":{"x":164564.20000000205,"y":2568749.8499999996}},{"attributes":{"ID":124770,"DIS_CODE":0,"TOWNNAME":"將軍區","LI":"將富里","LIN":"4鄰","STREET":" ","SECT":" ","MAREA":"將富","LANE":" ","ALLEY":" ","HOUSE_NO":"３４之１號","E_COORD97":161516.29999999999,"N_COORD97":2568490.9900000002,"ADDRESS":"將富３４之１號","OBJECTID":124770},"geometry":{"x":161516.29999999981,"y":2568490.9900000021}},{"attributes":{"ID":124771,"DIS_CODE":0,"TOWNNAME":"新營區","LI":"姑爺里","LIN":"6鄰","STREET":" ","SECT":" ","MAREA":"姑爺","LANE":" ","ALLEY":" ","HOUSE_NO":"５３號","E_COORD97":174196.64999999999,"N_COORD97":2574872.4500000002,"ADDRESS":"姑爺５３號","OBJECTID":124771},"geometry":{"x":174196.65000000224,"y":2574872.4499999993}},{"attributes":{"ID":124772,"DIS_CODE":0,"TOWNNAME":"將軍區","LI":"將富里","LIN":"4鄰","STREET":" ","SECT":" ","MAREA":"將富","LANE":" ","ALLEY":" ","HOUSE_NO":"３４之５號","E_COORD97":161510.37,"N_COORD97":2568512.9300000002,"ADDRESS":"將富３４之５號","OBJECTID":124772},"geometry":{"x":161510.37000000104,"y":2568512.9299999978}},{"attributes":{"ID":124773,"DIS_CODE":0,"TOWNNAME":"將軍區","LI":"將富里","LIN":"4鄰","STREET":" ","SECT":" ","MAREA":"將富","LANE":" ","ALLEY":" ","HOUSE_NO":"３６號","E_COORD97":161561.73000000001,"N_COORD97":2568502.9500000002,"ADDRESS":"將富３６號","OBJECTID":124773},"geometry":{"x":161561.73000000045,"y":2568502.9500000011}},{"attributes":{"ID":124774,"DIS_CODE":0,"TOWNNAME":"將軍區","LI":"將富里","LIN":"4鄰","STREET":" ","SECT":" ","MAREA":"將富","LANE":" ","ALLEY":" ","HOUSE_NO":"３７之７號","E_COORD97":161596.29000000001,"N_COORD97":2568488.7200000002,"ADDRESS":"將富３７之７號","OBJECTID":124774},"geometry":{"x":161596.29000000004,"y":2568488.7200000025}},{"attributes":{"ID":124775,"DIS_CODE":0,"TOWNNAME":"將軍區","LI":"將富里","LIN":"4鄰","STREET":" ","SECT":" ","MAREA":"將富","LANE":" ","ALLEY":" ","HOUSE_NO":"３８號","E_COORD97":161621.60000000001,"N_COORD97":2568480.23,"ADDRESS":"將富３８號","OBJECTID":124775},"geometry":{"x":161621.60000000056,"y":2568480.2300000004}},{"attributes":{"ID":124776,"DIS_CODE":0,"TOWNNAME":"將軍區","LI":"將富里","LIN":"4鄰","STREET":" ","SECT":" ","MAREA":"將富","LANE":" ","ALLEY":" ","HOUSE_NO":"３９之１號","E_COORD97":161665.53,"N_COORD97":2568470.9399999999,"ADDRESS":"將富３９之１號","OBJECTID":124776},"geometry":{"x":161665.53000000119,"y":2568470.9399999995}},{"attributes":{"ID":124777,"DIS_CODE":0,"TOWNNAME":"將軍區","LI":"將富里","LIN":"4鄰","STREET":" ","SECT":" ","MAREA":"將富","LANE":" ","ALLEY":" ","HOUSE_NO":"３９號","E_COORD97":161687.85000000001,"N_COORD97":2568468.3700000001,"ADDRESS":"將富３９號","OBJECTID":124777},"geometry":{"x":161687.85000000056,"y":2568468.3700000029}},{"attributes":{"ID":124778,"DIS_CODE":0,"TOWNNAME":"鹽水區","LI":"武廟里","LIN":"6鄰","STREET":"武廟路","SECT":" ","MAREA":" ","LANE":" ","ALLEY":" ","HOUSE_NO":"７２號","E_COORD97":174924.73000000001,"N_COORD97":2580197.8300000001,"ADDRESS":"武廟路７２號","OBJECTID":124778},"geometry":{"x":174924.73000000045,"y":2580197.8300000019}},{"attributes":{"ID":124779,"DIS_CODE":0,"TOWNNAME":"鹽水區","LI":"武廟里","LIN":"6鄰","STREET":"武廟路","SECT":" ","MAREA":" ","LANE":" ","ALLEY":" ","HOUSE_NO":"７４號之１","E_COORD97":174924.04999999999,"N_COORD97":2580216.71,"ADDRESS":"武廟路７４號之１","OBJECTID":124779},"geometry":{"x":174924.05000000168,"y":2580216.7100000028}},{"attributes":{"ID":124780,"DIS_CODE":0,"TOWNNAME":"鹽水區","LI":"武廟里","LIN":"6鄰","STREET":"武廟路","SECT":" ","MAREA":" ","LANE":" ","ALLEY":" ","HOUSE_NO":"７４號","E_COORD97":174924.59,"N_COORD97":2580209.52,"ADDRESS":"武廟路７４號","OBJECTID":124780},"geometry":{"x":174924.59000000078,"y":2580209.5200000014}},{"attributes":{"ID":124781,"DIS_CODE":0,"TOWNNAME":"鹽水區","LI":"武廟里","LIN":"6鄰","STREET":"武廟路","SECT":" ","MAREA":" ","LANE":" ","ALLEY":" ","HOUSE_NO":"７８號之３","E_COORD97":174962.81,"N_COORD97":2580198.3300000001,"ADDRESS":"武廟路７８號之３","OBJECTID":124781},"geometry":{"x":174962.81000000145,"y":2580198.3300000019}},{"attributes":{"ID":124782,"DIS_CODE":0,"TOWNNAME":"將軍區","LI":"鯤溟里","LIN":"4鄰","STREET":" ","SECT":" ","MAREA":"鯤溟","LANE":" ","ALLEY":" ","HOUSE_NO":"２１號","E_COORD97":156613.54999999999,"N_COORD97":2565541.1600000001,"ADDRESS":"鯤溟２１號","OBJECTID":124782},"geometry":{"x":156613.54999999981,"y":2565541.1600000001}},{"attributes":{"ID":124783,"DIS_CODE":0,"TOWNNAME":"北區","LI":"六甲里","LIN":"16鄰","STREET":"西門路","SECT":"四段","MAREA":" ","LANE":"３１６巷","ALLEY":"６弄","HOUSE_NO":"９號","E_COORD97":169015.73000000001,"N_COORD97":2545929.9300000002,"ADDRESS":"西門路四段３１６巷６弄９號","OBJECTID":124783},"geometry":{"x":169015.73000000231,"y":2545929.9300000034}},{"attributes":{"ID":124784,"DIS_CODE":0,"TOWNNAME":"歸仁區","LI":"七甲里","LIN":"16鄰","STREET":"南潭二街","SECT":" ","MAREA":" ","LANE":"１３０巷","ALLEY":"１１弄","HOUSE_NO":"５號","E_COORD97":176459.23999999999,"N_COORD97":2542914.7000000002,"ADDRESS":"南潭二街１３０巷１１弄５號","OBJECTID":124784},"geometry":{"x":176459.24000000115,"y":2542914.7000000011}},{"attributes":{"ID":124785,"DIS_CODE":0,"TOWNNAME":"歸仁區","LI":"南興里","LIN":"16鄰","STREET":"南興一街","SECT":" ","MAREA":" ","LANE":"４８巷","ALLEY":"１弄","HOUSE_NO":"１３號","E_COORD97":175797.64000000001,"N_COORD97":2541308.25,"ADDRESS":"南興一街４８巷１弄１３號","OBJECTID":124785},"geometry":{"x":175797.63999999966,"y":2541308.2500000019}},{"attributes":{"ID":124786,"DIS_CODE":0,"TOWNNAME":"歸仁區","LI":"七甲里","LIN":"16鄰","STREET":"南潭二街","SECT":" ","MAREA":" ","LANE":"１３０巷","ALLEY":"７弄","HOUSE_NO":"２４號","E_COORD97":176495.73000000001,"N_COORD97":2542934.02,"ADDRESS":"南潭二街１３０巷７弄２４號","OBJECTID":124786},"geometry":{"x":176495.73000000138,"y":2542934.0199999996}},{"attributes":{"ID":124787,"DIS_CODE":0,"TOWNNAME":"歸仁區","LI":"七甲里","LIN":"16鄰","STREET":"南潭二街","SECT":" ","MAREA":" ","LANE":"１３０巷","ALLEY":"７弄","HOUSE_NO":"３０號","E_COORD97":176509.03,"N_COORD97":2542935.0299999998,"ADDRESS":"南潭二街１３０巷７弄３０號","OBJECTID":124787},"geometry":{"x":176509.03000000026,"y":2542935.0300000031}},{"attributes":{"ID":124788,"DIS_CODE":0,"TOWNNAME":"歸仁區","LI":"七甲里","LIN":"16鄰","STREET":"南潭二街","SECT":" ","MAREA":" ","LANE":"１３０巷","ALLEY":"７弄","HOUSE_NO":"１９號","E_COORD97":176490.73000000001,"N_COORD97":2542948.0299999998,"ADDRESS":"南潭二街１３０巷７弄１９號","OBJECTID":124788},"geometry":{"x":176490.73000000045,"y":2542948.0299999993}},{"attributes":{"ID":124789,"DIS_CODE":0,"TOWNNAME":"歸仁區","LI":"文化里","LIN":"16鄰","STREET":"大德路","SECT":" ","MAREA":" ","LANE":"１９３巷","ALLEY":"１６弄","HOUSE_NO":"１０號","E_COORD97":177245.67000000001,"N_COORD97":2541473.3300000001,"ADDRESS":"大德路１９３巷１６弄１０號","OBJECTID":124789},"geometry":{"x":177245.67000000179,"y":2541473.3300000019}},{"attributes":{"ID":124790,"DIS_CODE":0,"TOWNNAME":"歸仁區","LI":"七甲里","LIN":"16鄰","STREET":"南潭二街","SECT":" ","MAREA":" ","LANE":"１３０巷","ALLEY":"７弄","HOUSE_NO":"１４號","E_COORD97":176472.13,"N_COORD97":2542934.02,"ADDRESS":"南潭二街１３０巷７弄１４號","OBJECTID":124790},"geometry":{"x":176472.12999999989,"y":2542934.0199999996}},{"attributes":{"ID":124791,"DIS_CODE":0,"TOWNNAME":"歸仁區","LI":"七甲里","LIN":"16鄰","STREET":"南潭二街","SECT":" ","MAREA":" ","LANE":"１３０巷","ALLEY":"７弄","HOUSE_NO":"１３號","E_COORD97":176476.32999999999,"N_COORD97":2542947.0299999998,"ADDRESS":"南潭二街１３０巷７弄１３號","OBJECTID":124791},"geometry":{"x":176476.33000000007,"y":2542947.0299999993}},{"attributes":{"ID":124792,"DIS_CODE":0,"TOWNNAME":"歸仁區","LI":"七甲里","LIN":"16鄰","STREET":"南潭二街","SECT":" ","MAREA":" ","LANE":"１３０巷","ALLEY":"７弄","HOUSE_NO":"２５號","E_COORD97":176504.03,"N_COORD97":2542948.0299999998,"ADDRESS":"南潭二街１３０巷７弄２５號","OBJECTID":124792},"geometry":{"x":176504.03000000026,"y":2542948.0299999993}},{"attributes":{"ID":124793,"DIS_CODE":0,"TOWNNAME":"將軍區","LI":"將富里","LIN":"4鄰","STREET":" ","SECT":" ","MAREA":"將富","LANE":" ","ALLEY":" ","HOUSE_NO":"４１號","E_COORD97":161696.92000000001,"N_COORD97":2568466.4199999999,"ADDRESS":"將富４１號","OBJECTID":124793},"geometry":{"x":161696.91999999993,"y":2568466.4200000018}},{"attributes":{"ID":124794,"DIS_CODE":0,"TOWNNAME":"歸仁區","LI":"七甲里","LIN":"16鄰","STREET":"南潭二街","SECT":" ","MAREA":" ","LANE":"１３０巷","ALLEY":"３弄","HOUSE_NO":"７號","E_COORD97":176460.87,"N_COORD97":2542984,"ADDRESS":"南潭二街１３０巷３弄７號","OBJECTID":124794},"geometry":{"x":176460.87000000011,"y":2542984.0000000019}},{"attributes":{"ID":124795,"DIS_CODE":0,"TOWNNAME":"將軍區","LI":"將富里","LIN":"4鄰","STREET":" ","SECT":" ","MAREA":"將富","LANE":" ","ALLEY":" ","HOUSE_NO":"４２號","E_COORD97":161678.59,"N_COORD97":2568454.46,"ADDRESS":"將富４２號","OBJECTID":124795},"geometry":{"x":161678.58999999985,"y":2568454.4600000028}},{"attributes":{"ID":124796,"DIS_CODE":0,"TOWNNAME":"歸仁區","LI":"七甲里","LIN":"16鄰","STREET":"南潭二街","SECT":" ","MAREA":" ","LANE":"１３０巷","ALLEY":"１１弄","HOUSE_NO":"７號","E_COORD97":176464.44,"N_COORD97":2542914.7000000002,"ADDRESS":"南潭二街１３０巷１１弄７號","OBJECTID":124796},"geometry":{"x":176464.44000000041,"y":2542914.7000000011}},{"attributes":{"ID":124797,"DIS_CODE":0,"TOWNNAME":"將軍區","LI":"將富里","LIN":"4鄰","STREET":" ","SECT":" ","MAREA":"將富","LANE":" ","ALLEY":" ","HOUSE_NO":"４４號","E_COORD97":161637.63,"N_COORD97":2568462.5899999999,"ADDRESS":"將富４４號","OBJECTID":124797},"geometry":{"x":161637.62999999989,"y":2568462.5900000017}},{"attributes":{"ID":124798,"DIS_CODE":0,"TOWNNAME":"鹽水區","LI":"武廟里","LIN":"6鄰","STREET":"武廟路","SECT":" ","MAREA":" ","LANE":" ","ALLEY":" ","HOUSE_NO":"８０號之１","E_COORD97":174938.56,"N_COORD97":2580228.3900000001,"ADDRESS":"武廟路８０號之１","OBJECTID":124798},"geometry":{"x":174938.55999999959,"y":2580228.3900000025}},{"attributes":{"ID":124799,"DIS_CODE":0,"TOWNNAME":"將軍區","LI":"將富里","LIN":"4鄰","STREET":" ","SECT":" ","MAREA":"將富","LANE":" ","ALLEY":" ","HOUSE_NO":"４６號","E_COORD97":161603.5,"N_COORD97":2568471.1800000002,"ADDRESS":"將富４６號","OBJECTID":124799},"geometry":{"x":161603.5,"y":2568471.1800000016}},{"attributes":{"ID":124800,"DIS_CODE":0,"TOWNNAME":"將軍區","LI":"將富里","LIN":"4鄰","STREET":" ","SECT":" ","MAREA":"將富","LANE":" ","ALLEY":" ","HOUSE_NO":"４７之１號","E_COORD97":161571.66,"N_COORD97":2568478.6400000001,"ADDRESS":"將富４７之１號","OBJECTID":124800},"geometry":{"x":161571.66000000015,"y":2568478.6400000043}}]}