{"displayFieldName":"TOWNNAME","fieldAliases":{"ID":"ID","DIS_CODE":"DIS_CODE","TOWNNAME":"TOWNNAME","LI":"LI","LIN":"LIN","STREET":"STREET","SECT":"SECT","MAREA":"MAREA","LANE":"LANE","ALLEY":"ALLEY","HOUSE_NO":"HOUSE_NO","E_COORD97":"E_COORD97","N_COORD97":"N_COORD97","ADDRESS":"ADDRESS","OBJECTID":"OBJECTID"},"geometryType":"esriGeometryPoint","spatialReference":{"wkid":102443,"latestWkid":3826},"fields":[{"name":"ID","type":"esriFieldTypeDouble","alias":"ID"},{"name":"DIS_CODE","type":"esriFieldTypeInteger","alias":"DIS_CODE"},{"name":"TOWNNAME","type":"esriFieldTypeString","alias":"TOWNNAME","length":8},{"name":"LI","type":"esriFieldTypeString","alias":"LI","length":8},{"name":"LIN","type":"esriFieldTypeString","alias":"LIN","length":12},{"name":"STREET","type":"esriFieldTypeString","alias":"STREET","length":20},{"name":"SECT","type":"esriFieldTypeString","alias":"SECT","length":8},{"name":"MAREA","type":"esriFieldTypeString","alias":"MAREA","length":12},{"name":"LANE","type":"esriFieldTypeString","alias":"LANE","length":10},{"name":"ALLEY","type":"esriFieldTypeString","alias":"ALLEY","length":10},{"name":"HOUSE_NO","type":"esriFieldTypeString","alias":"HOUSE_NO","length":20},{"name":"E_COORD97","type":"esriFieldTypeDouble","alias":"E_COORD97"},{"name":"N_COORD97","type":"esriFieldTypeDouble","alias":"N_COORD97"},{"name":"ADDRESS","type":"esriFieldTypeString","alias":"ADDRESS","length":50},{"name":"OBJECTID","type":"esriFieldTypeOID","alias":"OBJECTID"}],"features":[{"attributes":{"ID":548628,"DIS_CODE":0,"TOWNNAME":"東區","LI":"龍山里","LIN":"10鄰","STREET":"東門路","SECT":"二段","MAREA":" ","LANE":" ","ALLEY":" ","HOUSE_NO":"４０號","E_COORD97":169996.51999999999,"N_COORD97":2542948.8999999999,"ADDRESS":"東門路二段４０號","OBJECTID":548601},"geometry":{"x":169996.52000000048,"y":2542948.9000000004}},{"attributes":{"ID":548629,"DIS_CODE":0,"TOWNNAME":"南區","LI":"文南里","LIN":"10鄰","STREET":"文南路","SECT":" ","MAREA":" ","LANE":" ","ALLEY":" ","HOUSE_NO":"１１３號","E_COORD97":166933.98000000001,"N_COORD97":2542826.5,"ADDRESS":"文南路１１３號","OBJECTID":548602},"geometry":{"x":166933.98000000231,"y":2542826.5}},{"attributes":{"ID":548630,"DIS_CODE":0,"TOWNNAME":"南區","LI":"再興里","LIN":"10鄰","STREET":"新城街","SECT":" ","MAREA":" ","LANE":" ","ALLEY":" ","HOUSE_NO":"２５號","E_COORD97":167145.04000000001,"N_COORD97":2542222.7599999998,"ADDRESS":"新城街２５號","OBJECTID":548603},"geometry":{"x":167145.0400000019,"y":2542222.7600000016}},{"attributes":{"ID":548631,"DIS_CODE":0,"TOWNNAME":"南區","LI":"再興里","LIN":"10鄰","STREET":"新城街","SECT":" ","MAREA":" ","LANE":" ","ALLEY":" ","HOUSE_NO":"２７號","E_COORD97":167144.92999999999,"N_COORD97":2542227.4700000002,"ADDRESS":"新城街２７號","OBJECTID":548604},"geometry":{"x":167144.9299999997,"y":2542227.4700000007}},{"attributes":{"ID":548632,"DIS_CODE":0,"TOWNNAME":"北區","LI":"安民里","LIN":"10鄰","STREET":"成功路","SECT":" ","MAREA":" ","LANE":" ","ALLEY":" ","HOUSE_NO":"４５０號","E_COORD97":167751.42000000001,"N_COORD97":2544633.6299999999,"ADDRESS":"成功路４５０號","OBJECTID":548605},"geometry":{"x":167751.42000000086,"y":2544633.6300000008}},{"attributes":{"ID":548633,"DIS_CODE":0,"TOWNNAME":"北區","LI":"安民里","LIN":"10鄰","STREET":"成功路","SECT":" ","MAREA":" ","LANE":" ","ALLEY":" ","HOUSE_NO":"４１６號","E_COORD97":167828.42000000001,"N_COORD97":2544599.25,"ADDRESS":"成功路４１６號","OBJECTID":548606},"geometry":{"x":167828.41999999993,"y":2544599.2500000019}},{"attributes":{"ID":548634,"DIS_CODE":0,"TOWNNAME":"北區","LI":"安民里","LIN":"10鄰","STREET":"成功路","SECT":" ","MAREA":" ","LANE":" ","ALLEY":" ","HOUSE_NO":"４５２號","E_COORD97":167747.84625500001,"N_COORD97":2544634.5042500002,"ADDRESS":"成功路４５２號","OBJECTID":548607},"geometry":{"x":167747.84625499975,"y":2544634.5042470023}},{"attributes":{"ID":548635,"DIS_CODE":0,"TOWNNAME":"北區","LI":"重興里","LIN":"10鄰","STREET":"東豐路","SECT":" ","MAREA":" ","LANE":" ","ALLEY":" ","HOUSE_NO":"４９１號","E_COORD97":170843.85999999999,"N_COORD97":2544703.2000000002,"ADDRESS":"東豐路４９１號","OBJECTID":548608},"geometry":{"x":170843.8600000022,"y":2544703.1999999993}},{"attributes":{"ID":548636,"DIS_CODE":0,"TOWNNAME":"北區","LI":"重興里","LIN":"10鄰","STREET":"東豐路","SECT":" ","MAREA":" ","LANE":" ","ALLEY":" ","HOUSE_NO":"５０１號","E_COORD97":170866.16,"N_COORD97":2544686.8199999998,"ADDRESS":"東豐路５０１號","OBJECTID":548609},"geometry":{"x":170866.16000000108,"y":2544686.820000004}},{"attributes":{"ID":548637,"DIS_CODE":0,"TOWNNAME":"北區","LI":"重興里","LIN":"10鄰","STREET":"東豐路","SECT":" ","MAREA":" ","LANE":" ","ALLEY":" ","HOUSE_NO":"４８３號","E_COORD97":170830.47,"N_COORD97":2544714.6400000001,"ADDRESS":"東豐路４８３號","OBJECTID":548610},"geometry":{"x":170830.46999999881,"y":2544714.6400000006}},{"attributes":{"ID":548638,"DIS_CODE":0,"TOWNNAME":"北區","LI":"重興里","LIN":"10鄰","STREET":"東豐路","SECT":" ","MAREA":" ","LANE":" ","ALLEY":" ","HOUSE_NO":"４８５號","E_COORD97":170832.14000000001,"N_COORD97":2544711.2000000002,"ADDRESS":"東豐路４８５號","OBJECTID":548611},"geometry":{"x":170832.13999999966,"y":2544711.2000000011}},{"attributes":{"ID":548639,"DIS_CODE":0,"TOWNNAME":"北區","LI":"重興里","LIN":"10鄰","STREET":"東豐路","SECT":" ","MAREA":" ","LANE":" ","ALLEY":" ","HOUSE_NO":"４８７號","E_COORD97":170834.47,"N_COORD97":2544707.6699999999,"ADDRESS":"東豐路４８７號","OBJECTID":548612},"geometry":{"x":170834.47000000067,"y":2544707.6699999981}},{"attributes":{"ID":548640,"DIS_CODE":0,"TOWNNAME":"北區","LI":"重興里","LIN":"10鄰","STREET":"東豐路","SECT":" ","MAREA":" ","LANE":" ","ALLEY":" ","HOUSE_NO":"４８９號","E_COORD97":170836.70000000001,"N_COORD97":2544704.4199999999,"ADDRESS":"東豐路４８９號","OBJECTID":548613},"geometry":{"x":170836.70000000112,"y":2544704.4200000018}},{"attributes":{"ID":548641,"DIS_CODE":0,"TOWNNAME":"北區","LI":"重興里","LIN":"10鄰","STREET":"東豐路","SECT":" ","MAREA":" ","LANE":" ","ALLEY":" ","HOUSE_NO":"４９７號","E_COORD97":170844.60999999999,"N_COORD97":2544689.2599999998,"ADDRESS":"東豐路４９７號","OBJECTID":548614},"geometry":{"x":170844.61000000127,"y":2544689.2599999998}},{"attributes":{"ID":548642,"DIS_CODE":0,"TOWNNAME":"東區","LI":"莊敬里","LIN":"10鄰","STREET":"東光路","SECT":"二段","MAREA":" ","LANE":" ","ALLEY":" ","HOUSE_NO":"１０４號四樓","E_COORD97":171264.89000000001,"N_COORD97":2544222.3999999999,"ADDRESS":"東光路二段１０４號四樓","OBJECTID":548615},"geometry":{"x":171264.88999999966,"y":2544222.4000000022}},{"attributes":{"ID":548643,"DIS_CODE":0,"TOWNNAME":"東區","LI":"莊敬里","LIN":"10鄰","STREET":"東光路","SECT":"二段","MAREA":" ","LANE":" ","ALLEY":" ","HOUSE_NO":"１０４號三樓","E_COORD97":171264.89000000001,"N_COORD97":2544222.3999999999,"ADDRESS":"東光路二段１０４號三樓","OBJECTID":548616},"geometry":{"x":171264.88999999966,"y":2544222.4000000022}},{"attributes":{"ID":548644,"DIS_CODE":0,"TOWNNAME":"東區","LI":"莊敬里","LIN":"10鄰","STREET":"東光路","SECT":"二段","MAREA":" ","LANE":" ","ALLEY":" ","HOUSE_NO":"１０４號五樓","E_COORD97":171264.89000000001,"N_COORD97":2544222.3999999999,"ADDRESS":"東光路二段１０４號五樓","OBJECTID":548617},"geometry":{"x":171264.88999999966,"y":2544222.4000000022}},{"attributes":{"ID":548645,"DIS_CODE":0,"TOWNNAME":"東區","LI":"龍山里","LIN":"10鄰","STREET":"府東街","SECT":" ","MAREA":" ","LANE":" ","ALLEY":" ","HOUSE_NO":"７８號七樓","E_COORD97":169931.39472099999,"N_COORD97":2542951.24223,"ADDRESS":"府東街７８號七樓","OBJECTID":548618},"geometry":{"x":169931.39472099952,"y":2542951.2422300037}},{"attributes":{"ID":548646,"DIS_CODE":0,"TOWNNAME":"東區","LI":"東明里","LIN":"1鄰","STREET":"東興路","SECT":" ","MAREA":" ","LANE":" ","ALLEY":" ","HOUSE_NO":"２７號","E_COORD97":170904.73999999999,"N_COORD97":2543463.9300000002,"ADDRESS":"東興路２７號","OBJECTID":548619},"geometry":{"x":170904.74000000022,"y":2543463.9299999997}},{"attributes":{"ID":548647,"DIS_CODE":0,"TOWNNAME":"東區","LI":"東明里","LIN":"1鄰","STREET":"東興路","SECT":" ","MAREA":" ","LANE":" ","ALLEY":" ","HOUSE_NO":"２９號","E_COORD97":170905.66,"N_COORD97":2543466.5800000001,"ADDRESS":"東興路２９號","OBJECTID":548620},"geometry":{"x":170905.66000000015,"y":2543466.5800000001}},{"attributes":{"ID":548648,"DIS_CODE":0,"TOWNNAME":"東區","LI":"東安里","LIN":"1鄰","STREET":"東門路","SECT":"二段","MAREA":" ","LANE":" ","ALLEY":" ","HOUSE_NO":"８９號地下層","E_COORD97":170153.51000000001,"N_COORD97":2542946.6699999999,"ADDRESS":"東門路二段８９號地下層","OBJECTID":548621},"geometry":{"x":170153.50999999978,"y":2542946.6699999999}},{"attributes":{"ID":548649,"DIS_CODE":0,"TOWNNAME":"東區","LI":"關聖里","LIN":"6鄰","STREET":"富農街","SECT":"二段","MAREA":" ","LANE":" ","ALLEY":" ","HOUSE_NO":"４４號","E_COORD97":171702.23000000001,"N_COORD97":2542958.8700000001,"ADDRESS":"富農街二段４４號","OBJECTID":548622},"geometry":{"x":171702.23000000045,"y":2542958.8700000029}},{"attributes":{"ID":548650,"DIS_CODE":0,"TOWNNAME":"東區","LI":"龍山里","LIN":"10鄰","STREET":"府東街","SECT":" ","MAREA":" ","LANE":" ","ALLEY":" ","HOUSE_NO":"６８號二樓","E_COORD97":169940.50529,"N_COORD97":2542951.0570200002,"ADDRESS":"府東街６８號二樓","OBJECTID":548623},"geometry":{"x":169940.50528999884,"y":2542951.0570220035}},{"attributes":{"ID":548651,"DIS_CODE":0,"TOWNNAME":"東區","LI":"圍下里","LIN":"3鄰","STREET":"東榮街","SECT":" ","MAREA":" ","LANE":" ","ALLEY":" ","HOUSE_NO":"４５號","E_COORD97":169577.10000000001,"N_COORD97":2543394.8300000001,"ADDRESS":"東榮街４５號","OBJECTID":548624},"geometry":{"x":169577.10000000056,"y":2543394.8300000038}},{"attributes":{"ID":548652,"DIS_CODE":0,"TOWNNAME":"善化區","LI":"光文里","LIN":"10鄰","STREET":"中山路","SECT":" ","MAREA":" ","LANE":" ","ALLEY":" ","HOUSE_NO":"９９號三樓","E_COORD97":178610.29999999999,"N_COORD97":2559165.75,"ADDRESS":"中山路９９號三樓","OBJECTID":548625},"geometry":{"x":178610.29999999981,"y":2559165.75}},{"attributes":{"ID":548653,"DIS_CODE":0,"TOWNNAME":"東區","LI":"龍山里","LIN":"10鄰","STREET":"府東街","SECT":" ","MAREA":" ","LANE":" ","ALLEY":" ","HOUSE_NO":"６８號三樓","E_COORD97":169940.50529,"N_COORD97":2542951.0570200002,"ADDRESS":"府東街６８號三樓","OBJECTID":548626},"geometry":{"x":169940.50528999884,"y":2542951.0570220035}},{"attributes":{"ID":548654,"DIS_CODE":0,"TOWNNAME":"東區","LI":"龍山里","LIN":"10鄰","STREET":"府東街","SECT":" ","MAREA":" ","LANE":" ","ALLEY":" ","HOUSE_NO":"８０號二樓","E_COORD97":169923.343521,"N_COORD97":2542935.3672400001,"ADDRESS":"府東街８０號二樓","OBJECTID":548627},"geometry":{"x":169923.34352100082,"y":2542935.3672390003}},{"attributes":{"ID":548655,"DIS_CODE":0,"TOWNNAME":"東區","LI":"龍山里","LIN":"10鄰","STREET":"東門路","SECT":"二段","MAREA":" ","LANE":" ","ALLEY":" ","HOUSE_NO":"９６號二樓","E_COORD97":170037.01000000001,"N_COORD97":2542955.6000000001,"ADDRESS":"東門路二段９６號二樓","OBJECTID":548628},"geometry":{"x":170037.01000000164,"y":2542955.6000000015}},{"attributes":{"ID":548656,"DIS_CODE":0,"TOWNNAME":"東區","LI":"龍山里","LIN":"10鄰","STREET":"東門路","SECT":"二段","MAREA":" ","LANE":" ","ALLEY":" ","HOUSE_NO":"９６號三樓","E_COORD97":170037.01000000001,"N_COORD97":2542955.6000000001,"ADDRESS":"東門路二段９６號三樓","OBJECTID":548629},"geometry":{"x":170037.01000000164,"y":2542955.6000000015}},{"attributes":{"ID":548657,"DIS_CODE":0,"TOWNNAME":"東區","LI":"龍山里","LIN":"10鄰","STREET":"東門路","SECT":"二段","MAREA":" ","LANE":" ","ALLEY":" ","HOUSE_NO":"９６號三樓之１","E_COORD97":170037.01000000001,"N_COORD97":2542955.6000000001,"ADDRESS":"東門路二段９６號三樓之１","OBJECTID":548630},"geometry":{"x":170037.01000000164,"y":2542955.6000000015}},{"attributes":{"ID":548658,"DIS_CODE":0,"TOWNNAME":"東區","LI":"龍山里","LIN":"10鄰","STREET":"東門路","SECT":"二段","MAREA":" ","LANE":" ","ALLEY":" ","HOUSE_NO":"９６號四樓","E_COORD97":170037.01000000001,"N_COORD97":2542955.6000000001,"ADDRESS":"東門路二段９６號四樓","OBJECTID":548631},"geometry":{"x":170037.01000000164,"y":2542955.6000000015}},{"attributes":{"ID":548659,"DIS_CODE":0,"TOWNNAME":"東區","LI":"龍山里","LIN":"10鄰","STREET":"東門路","SECT":"二段","MAREA":" ","LANE":" ","ALLEY":" ","HOUSE_NO":"９６號四樓之１","E_COORD97":170037.01000000001,"N_COORD97":2542955.6000000001,"ADDRESS":"東門路二段９６號四樓之１","OBJECTID":548632},"geometry":{"x":170037.01000000164,"y":2542955.6000000015}},{"attributes":{"ID":548660,"DIS_CODE":0,"TOWNNAME":"東區","LI":"龍山里","LIN":"10鄰","STREET":"東門路","SECT":"二段","MAREA":" ","LANE":" ","ALLEY":" ","HOUSE_NO":"９６號五樓","E_COORD97":170037.01000000001,"N_COORD97":2542955.6000000001,"ADDRESS":"東門路二段９６號五樓","OBJECTID":548633},"geometry":{"x":170037.01000000164,"y":2542955.6000000015}},{"attributes":{"ID":548661,"DIS_CODE":0,"TOWNNAME":"東區","LI":"龍山里","LIN":"10鄰","STREET":"東門路","SECT":"二段","MAREA":" ","LANE":" ","ALLEY":" ","HOUSE_NO":"９６號五樓之１","E_COORD97":170037.01000000001,"N_COORD97":2542955.6000000001,"ADDRESS":"東門路二段９６號五樓之１","OBJECTID":548634},"geometry":{"x":170037.01000000164,"y":2542955.6000000015}},{"attributes":{"ID":548662,"DIS_CODE":0,"TOWNNAME":"東區","LI":"龍山里","LIN":"10鄰","STREET":"東門路","SECT":"二段","MAREA":" ","LANE":" ","ALLEY":" ","HOUSE_NO":"９６號六樓","E_COORD97":170037.01000000001,"N_COORD97":2542955.6000000001,"ADDRESS":"東門路二段９６號六樓","OBJECTID":548635},"geometry":{"x":170037.01000000164,"y":2542955.6000000015}},{"attributes":{"ID":548663,"DIS_CODE":0,"TOWNNAME":"東區","LI":"龍山里","LIN":"10鄰","STREET":"東門路","SECT":"二段","MAREA":" ","LANE":" ","ALLEY":" ","HOUSE_NO":"９６號六樓之１","E_COORD97":170037.01000000001,"N_COORD97":2542955.6000000001,"ADDRESS":"東門路二段９６號六樓之１","OBJECTID":548636},"geometry":{"x":170037.01000000164,"y":2542955.6000000015}},{"attributes":{"ID":548664,"DIS_CODE":0,"TOWNNAME":"東區","LI":"龍山里","LIN":"10鄰","STREET":"東門路","SECT":"二段","MAREA":" ","LANE":" ","ALLEY":" ","HOUSE_NO":"９６號七樓","E_COORD97":170037.01000000001,"N_COORD97":2542955.6000000001,"ADDRESS":"東門路二段９６號七樓","OBJECTID":548637},"geometry":{"x":170037.01000000164,"y":2542955.6000000015}},{"attributes":{"ID":548665,"DIS_CODE":0,"TOWNNAME":"東區","LI":"龍山里","LIN":"10鄰","STREET":"東門路","SECT":"二段","MAREA":" ","LANE":" ","ALLEY":" ","HOUSE_NO":"９６號八樓","E_COORD97":170037.01000000001,"N_COORD97":2542955.6000000001,"ADDRESS":"東門路二段９６號八樓","OBJECTID":548638},"geometry":{"x":170037.01000000164,"y":2542955.6000000015}},{"attributes":{"ID":548666,"DIS_CODE":0,"TOWNNAME":"東區","LI":"龍山里","LIN":"10鄰","STREET":"東門路","SECT":"二段","MAREA":" ","LANE":" ","ALLEY":" ","HOUSE_NO":"９６號八樓之１","E_COORD97":170037.01000000001,"N_COORD97":2542955.6000000001,"ADDRESS":"東門路二段９６號八樓之１","OBJECTID":548639},"geometry":{"x":170037.01000000164,"y":2542955.6000000015}},{"attributes":{"ID":548667,"DIS_CODE":0,"TOWNNAME":"東區","LI":"龍山里","LIN":"10鄰","STREET":"東門路","SECT":"二段","MAREA":" ","LANE":" ","ALLEY":" ","HOUSE_NO":"９６號九樓","E_COORD97":170037.01000000001,"N_COORD97":2542955.6000000001,"ADDRESS":"東門路二段９６號九樓","OBJECTID":548640},"geometry":{"x":170037.01000000164,"y":2542955.6000000015}},{"attributes":{"ID":548668,"DIS_CODE":0,"TOWNNAME":"東區","LI":"龍山里","LIN":"10鄰","STREET":"東門路","SECT":"二段","MAREA":" ","LANE":" ","ALLEY":" ","HOUSE_NO":"９６號九樓之１","E_COORD97":170037.01000000001,"N_COORD97":2542955.6000000001,"ADDRESS":"東門路二段９６號九樓之１","OBJECTID":548641},"geometry":{"x":170037.01000000164,"y":2542955.6000000015}},{"attributes":{"ID":548669,"DIS_CODE":0,"TOWNNAME":"東區","LI":"龍山里","LIN":"10鄰","STREET":"東門路","SECT":"二段","MAREA":" ","LANE":" ","ALLEY":" ","HOUSE_NO":"９６號十樓","E_COORD97":170037.01000000001,"N_COORD97":2542955.6000000001,"ADDRESS":"東門路二段９６號十樓","OBJECTID":548642},"geometry":{"x":170037.01000000164,"y":2542955.6000000015}},{"attributes":{"ID":548670,"DIS_CODE":0,"TOWNNAME":"東區","LI":"龍山里","LIN":"10鄰","STREET":"東門路","SECT":"二段","MAREA":" ","LANE":" ","ALLEY":" ","HOUSE_NO":"９６號十樓之１","E_COORD97":170037.01000000001,"N_COORD97":2542955.6000000001,"ADDRESS":"東門路二段９６號十樓之１","OBJECTID":548643},"geometry":{"x":170037.01000000164,"y":2542955.6000000015}},{"attributes":{"ID":548671,"DIS_CODE":0,"TOWNNAME":"東區","LI":"龍山里","LIN":"10鄰","STREET":"東門路","SECT":"二段","MAREA":" ","LANE":" ","ALLEY":" ","HOUSE_NO":"９６號十一樓","E_COORD97":170037.01000000001,"N_COORD97":2542955.6000000001,"ADDRESS":"東門路二段９６號十一樓","OBJECTID":548644},"geometry":{"x":170037.01000000164,"y":2542955.6000000015}},{"attributes":{"ID":548672,"DIS_CODE":0,"TOWNNAME":"東區","LI":"龍山里","LIN":"10鄰","STREET":"東門路","SECT":"二段","MAREA":" ","LANE":" ","ALLEY":" ","HOUSE_NO":"９６號十一樓之１","E_COORD97":170037.01000000001,"N_COORD97":2542955.6000000001,"ADDRESS":"東門路二段９６號十一樓之１","OBJECTID":548645},"geometry":{"x":170037.01000000164,"y":2542955.6000000015}},{"attributes":{"ID":548673,"DIS_CODE":0,"TOWNNAME":"東區","LI":"龍山里","LIN":"10鄰","STREET":"東門路","SECT":"二段","MAREA":" ","LANE":" ","ALLEY":" ","HOUSE_NO":"９６號十二樓","E_COORD97":170037.01000000001,"N_COORD97":2542955.6000000001,"ADDRESS":"東門路二段９６號十二樓","OBJECTID":548646},"geometry":{"x":170037.01000000164,"y":2542955.6000000015}},{"attributes":{"ID":548674,"DIS_CODE":0,"TOWNNAME":"仁德區","LI":"保安里","LIN":"10鄰","STREET":"中正路","SECT":"一段","MAREA":" ","LANE":" ","ALLEY":" ","HOUSE_NO":"２６９號二樓","E_COORD97":171858.79000000001,"N_COORD97":2536016.77,"ADDRESS":"中正路一段２６９號二樓","OBJECTID":548647},"geometry":{"x":171858.79000000004,"y":2536016.7699999996}},{"attributes":{"ID":548675,"DIS_CODE":0,"TOWNNAME":"仁德區","LI":"保安里","LIN":"10鄰","STREET":"中正路","SECT":"一段","MAREA":" ","LANE":" ","ALLEY":" ","HOUSE_NO":"２６９號五樓","E_COORD97":171858.79000000001,"N_COORD97":2536016.77,"ADDRESS":"中正路一段２６９號五樓","OBJECTID":548648},"geometry":{"x":171858.79000000004,"y":2536016.7699999996}},{"attributes":{"ID":548676,"DIS_CODE":0,"TOWNNAME":"永康區","LI":"西橋里","LIN":"10鄰","STREET":"中華西街","SECT":" ","MAREA":" ","LANE":" ","ALLEY":" ","HOUSE_NO":"１０９號四樓之１","E_COORD97":170698.39999999999,"N_COORD97":2546143.0499999998,"ADDRESS":"中華西街１０９號四樓之１","OBJECTID":548649},"geometry":{"x":170698.4000000013,"y":2546143.0500000007}},{"attributes":{"ID":548677,"DIS_CODE":0,"TOWNNAME":"東區","LI":"東明里","LIN":"10鄰","STREET":"東興路","SECT":" ","MAREA":" ","LANE":" ","ALLEY":" ","HOUSE_NO":"１３１號四樓之７","E_COORD97":170961.54000000001,"N_COORD97":2543693.52,"ADDRESS":"東興路１３１號四樓之７","OBJECTID":548650},"geometry":{"x":170961.54000000097,"y":2543693.5199999996}},{"attributes":{"ID":548678,"DIS_CODE":0,"TOWNNAME":"安南區","LI":"新順里","LIN":"10鄰","STREET":"安和路","SECT":"二段","MAREA":" ","LANE":" ","ALLEY":" ","HOUSE_NO":"２４１號二樓","E_COORD97":169630.20000000001,"N_COORD97":2549117.0899999999,"ADDRESS":"安和路二段２４１號二樓","OBJECTID":548651},"geometry":{"x":169630.20000000019,"y":2549117.0900000017}},{"attributes":{"ID":548679,"DIS_CODE":0,"TOWNNAME":"安南區","LI":"新順里","LIN":"10鄰","STREET":"安和路","SECT":"二段","MAREA":" ","LANE":" ","ALLEY":" ","HOUSE_NO":"２４１號三樓","E_COORD97":169630.20000000001,"N_COORD97":2549117.0899999999,"ADDRESS":"安和路二段２４１號三樓","OBJECTID":548652},"geometry":{"x":169630.20000000019,"y":2549117.0900000017}},{"attributes":{"ID":548680,"DIS_CODE":0,"TOWNNAME":"安南區","LI":"新順里","LIN":"10鄰","STREET":"安和路","SECT":"二段","MAREA":" ","LANE":" ","ALLEY":" ","HOUSE_NO":"２４１號四樓","E_COORD97":169630.20000000001,"N_COORD97":2549117.0899999999,"ADDRESS":"安和路二段２４１號四樓","OBJECTID":548653},"geometry":{"x":169630.20000000019,"y":2549117.0900000017}},{"attributes":{"ID":548681,"DIS_CODE":0,"TOWNNAME":"安南區","LI":"新順里","LIN":"10鄰","STREET":"安和路","SECT":"二段","MAREA":" ","LANE":" ","ALLEY":" ","HOUSE_NO":"２４１號五樓","E_COORD97":169630.20000000001,"N_COORD97":2549117.0899999999,"ADDRESS":"安和路二段２４１號五樓","OBJECTID":548654},"geometry":{"x":169630.20000000019,"y":2549117.0900000017}},{"attributes":{"ID":548682,"DIS_CODE":0,"TOWNNAME":"東區","LI":"小東里","LIN":"10鄰","STREET":"東安路","SECT":" ","MAREA":" ","LANE":" ","ALLEY":" ","HOUSE_NO":"２３８號七樓","E_COORD97":170814.37,"N_COORD97":2544119.8900000001,"ADDRESS":"東安路２３８號七樓","OBJECTID":548655},"geometry":{"x":170814.37000000011,"y":2544119.8900000006}},{"attributes":{"ID":548683,"DIS_CODE":0,"TOWNNAME":"東區","LI":"小東里","LIN":"10鄰","STREET":"東安路","SECT":" ","MAREA":" ","LANE":" ","ALLEY":" ","HOUSE_NO":"２３８號九樓","E_COORD97":170814.37,"N_COORD97":2544119.8900000001,"ADDRESS":"東安路２３８號九樓","OBJECTID":548656},"geometry":{"x":170814.37000000011,"y":2544119.8900000006}},{"attributes":{"ID":548684,"DIS_CODE":0,"TOWNNAME":"東區","LI":"小東里","LIN":"10鄰","STREET":"東安路","SECT":" ","MAREA":" ","LANE":" ","ALLEY":" ","HOUSE_NO":"２３８號二樓","E_COORD97":170814.37,"N_COORD97":2544119.8900000001,"ADDRESS":"東安路２３８號二樓","OBJECTID":548657},"geometry":{"x":170814.37000000011,"y":2544119.8900000006}},{"attributes":{"ID":548685,"DIS_CODE":0,"TOWNNAME":"東區","LI":"小東里","LIN":"10鄰","STREET":"東安路","SECT":" ","MAREA":" ","LANE":" ","ALLEY":" ","HOUSE_NO":"２３８號八樓","E_COORD97":170814.37,"N_COORD97":2544119.8900000001,"ADDRESS":"東安路２３８號八樓","OBJECTID":548658},"geometry":{"x":170814.37000000011,"y":2544119.8900000006}},{"attributes":{"ID":548686,"DIS_CODE":0,"TOWNNAME":"東區","LI":"小東里","LIN":"10鄰","STREET":"東安路","SECT":" ","MAREA":" ","LANE":" ","ALLEY":" ","HOUSE_NO":"２３８號十樓","E_COORD97":170814.37,"N_COORD97":2544119.8900000001,"ADDRESS":"東安路２３８號十樓","OBJECTID":548659},"geometry":{"x":170814.37000000011,"y":2544119.8900000006}},{"attributes":{"ID":548687,"DIS_CODE":0,"TOWNNAME":"東區","LI":"小東里","LIN":"10鄰","STREET":"東安路","SECT":" ","MAREA":" ","LANE":" ","ALLEY":" ","HOUSE_NO":"２３８號三樓","E_COORD97":170814.37,"N_COORD97":2544119.8900000001,"ADDRESS":"東安路２３８號三樓","OBJECTID":548660},"geometry":{"x":170814.37000000011,"y":2544119.8900000006}},{"attributes":{"ID":548688,"DIS_CODE":0,"TOWNNAME":"東區","LI":"小東里","LIN":"10鄰","STREET":"東安路","SECT":" ","MAREA":" ","LANE":" ","ALLEY":" ","HOUSE_NO":"２３８號五樓","E_COORD97":170814.37,"N_COORD97":2544119.8900000001,"ADDRESS":"東安路２３８號五樓","OBJECTID":548661},"geometry":{"x":170814.37000000011,"y":2544119.8900000006}},{"attributes":{"ID":548689,"DIS_CODE":0,"TOWNNAME":"東區","LI":"小東里","LIN":"10鄰","STREET":"東安路","SECT":" ","MAREA":" ","LANE":" ","ALLEY":" ","HOUSE_NO":"２３８號六樓","E_COORD97":170814.37,"N_COORD97":2544119.8900000001,"ADDRESS":"東安路２３８號六樓","OBJECTID":548662},"geometry":{"x":170814.37000000011,"y":2544119.8900000006}},{"attributes":{"ID":548690,"DIS_CODE":0,"TOWNNAME":"東區","LI":"小東里","LIN":"10鄰","STREET":"東安路","SECT":" ","MAREA":" ","LANE":" ","ALLEY":" ","HOUSE_NO":"２３８號四樓","E_COORD97":170814.37,"N_COORD97":2544119.8900000001,"ADDRESS":"東安路２３８號四樓","OBJECTID":548663},"geometry":{"x":170814.37000000011,"y":2544119.8900000006}},{"attributes":{"ID":548691,"DIS_CODE":0,"TOWNNAME":"東區","LI":"小東里","LIN":"10鄰","STREET":"東安路","SECT":" ","MAREA":" ","LANE":" ","ALLEY":" ","HOUSE_NO":"２４０號七樓","E_COORD97":170834,"N_COORD97":2544107.6099999999,"ADDRESS":"東安路２４０號七樓","OBJECTID":548664},"geometry":{"x":170834.00000000186,"y":2544107.6100000031}},{"attributes":{"ID":548692,"DIS_CODE":0,"TOWNNAME":"東區","LI":"小東里","LIN":"10鄰","STREET":"東安路","SECT":" ","MAREA":" ","LANE":" ","ALLEY":" ","HOUSE_NO":"２４０號九樓","E_COORD97":170834,"N_COORD97":2544107.6099999999,"ADDRESS":"東安路２４０號九樓","OBJECTID":548665},"geometry":{"x":170834.00000000186,"y":2544107.6100000031}},{"attributes":{"ID":548693,"DIS_CODE":0,"TOWNNAME":"東區","LI":"小東里","LIN":"10鄰","STREET":"東安路","SECT":" ","MAREA":" ","LANE":" ","ALLEY":" ","HOUSE_NO":"２４０號二樓","E_COORD97":170834,"N_COORD97":2544107.6099999999,"ADDRESS":"東安路２４０號二樓","OBJECTID":548666},"geometry":{"x":170834.00000000186,"y":2544107.6100000031}},{"attributes":{"ID":548694,"DIS_CODE":0,"TOWNNAME":"東區","LI":"小東里","LIN":"10鄰","STREET":"東安路","SECT":" ","MAREA":" ","LANE":" ","ALLEY":" ","HOUSE_NO":"２４０號八樓","E_COORD97":170834,"N_COORD97":2544107.6099999999,"ADDRESS":"東安路２４０號八樓","OBJECTID":548667},"geometry":{"x":170834.00000000186,"y":2544107.6100000031}},{"attributes":{"ID":548695,"DIS_CODE":0,"TOWNNAME":"東區","LI":"龍山里","LIN":"10鄰","STREET":"府東街","SECT":" ","MAREA":" ","LANE":" ","ALLEY":" ","HOUSE_NO":"７２號五樓","E_COORD97":169948.556491,"N_COORD97":2542964.8153499998,"ADDRESS":"府東街７２號五樓","OBJECTID":548668},"geometry":{"x":169948.55649099965,"y":2542964.8153479993}},{"attributes":{"ID":548696,"DIS_CODE":0,"TOWNNAME":"東區","LI":"小東里","LIN":"10鄰","STREET":"東安路","SECT":" ","MAREA":" ","LANE":" ","ALLEY":" ","HOUSE_NO":"２４０號十樓","E_COORD97":170834,"N_COORD97":2544107.6099999999,"ADDRESS":"東安路２４０號十樓","OBJECTID":548669},"geometry":{"x":170834.00000000186,"y":2544107.6100000031}},{"attributes":{"ID":548697,"DIS_CODE":0,"TOWNNAME":"東區","LI":"小東里","LIN":"10鄰","STREET":"東安路","SECT":" ","MAREA":" ","LANE":" ","ALLEY":" ","HOUSE_NO":"２４０號三樓","E_COORD97":170834,"N_COORD97":2544107.6099999999,"ADDRESS":"東安路２４０號三樓","OBJECTID":548670},"geometry":{"x":170834.00000000186,"y":2544107.6100000031}},{"attributes":{"ID":548698,"DIS_CODE":0,"TOWNNAME":"東區","LI":"小東里","LIN":"10鄰","STREET":"東安路","SECT":" ","MAREA":" ","LANE":" ","ALLEY":" ","HOUSE_NO":"２４０號五樓","E_COORD97":170834,"N_COORD97":2544107.6099999999,"ADDRESS":"東安路２４０號五樓","OBJECTID":548671},"geometry":{"x":170834.00000000186,"y":2544107.6100000031}},{"attributes":{"ID":548699,"DIS_CODE":0,"TOWNNAME":"東區","LI":"小東里","LIN":"10鄰","STREET":"東安路","SECT":" ","MAREA":" ","LANE":" ","ALLEY":" ","HOUSE_NO":"２４０號六樓","E_COORD97":170834,"N_COORD97":2544107.6099999999,"ADDRESS":"東安路２４０號六樓","OBJECTID":548672},"geometry":{"x":170834.00000000186,"y":2544107.6100000031}},{"attributes":{"ID":548700,"DIS_CODE":0,"TOWNNAME":"東區","LI":"小東里","LIN":"10鄰","STREET":"東安路","SECT":" ","MAREA":" ","LANE":" ","ALLEY":" ","HOUSE_NO":"２４０號四樓","E_COORD97":170834,"N_COORD97":2544107.6099999999,"ADDRESS":"東安路２４０號四樓","OBJECTID":548673},"geometry":{"x":170834.00000000186,"y":2544107.6100000031}},{"attributes":{"ID":548701,"DIS_CODE":0,"TOWNNAME":"東區","LI":"小東里","LIN":"10鄰","STREET":"東安路","SECT":" ","MAREA":" ","LANE":" ","ALLEY":" ","HOUSE_NO":"２４２號二樓","E_COORD97":170835.25,"N_COORD97":2544116.5299999998,"ADDRESS":"東安路２４２號二樓","OBJECTID":548674},"geometry":{"x":170835.25,"y":2544116.5300000012}},{"attributes":{"ID":548702,"DIS_CODE":0,"TOWNNAME":"東區","LI":"小東里","LIN":"10鄰","STREET":"東安路","SECT":" ","MAREA":" ","LANE":" ","ALLEY":" ","HOUSE_NO":"２４２號七樓","E_COORD97":170835.25,"N_COORD97":2544116.5299999998,"ADDRESS":"東安路２４２號七樓","OBJECTID":548675},"geometry":{"x":170835.25,"y":2544116.5300000012}},{"attributes":{"ID":548703,"DIS_CODE":0,"TOWNNAME":"東區","LI":"小東里","LIN":"10鄰","STREET":"東安路","SECT":" ","MAREA":" ","LANE":" ","ALLEY":" ","HOUSE_NO":"２４２號九樓","E_COORD97":170835.25,"N_COORD97":2544116.5299999998,"ADDRESS":"東安路２４２號九樓","OBJECTID":548676},"geometry":{"x":170835.25,"y":2544116.5300000012}},{"attributes":{"ID":548704,"DIS_CODE":0,"TOWNNAME":"東區","LI":"小東里","LIN":"10鄰","STREET":"東安路","SECT":" ","MAREA":" ","LANE":" ","ALLEY":" ","HOUSE_NO":"２４２號八樓","E_COORD97":170835.25,"N_COORD97":2544116.5299999998,"ADDRESS":"東安路２４２號八樓","OBJECTID":548677},"geometry":{"x":170835.25,"y":2544116.5300000012}},{"attributes":{"ID":548705,"DIS_CODE":0,"TOWNNAME":"東區","LI":"小東里","LIN":"10鄰","STREET":"東安路","SECT":" ","MAREA":" ","LANE":" ","ALLEY":" ","HOUSE_NO":"２４２號十樓","E_COORD97":170835.25,"N_COORD97":2544116.5299999998,"ADDRESS":"東安路２４２號十樓","OBJECTID":548678},"geometry":{"x":170835.25,"y":2544116.5300000012}},{"attributes":{"ID":548706,"DIS_CODE":0,"TOWNNAME":"東區","LI":"小東里","LIN":"10鄰","STREET":"東安路","SECT":" ","MAREA":" ","LANE":" ","ALLEY":" ","HOUSE_NO":"２４２號三樓","E_COORD97":170835.25,"N_COORD97":2544116.5299999998,"ADDRESS":"東安路２４２號三樓","OBJECTID":548679},"geometry":{"x":170835.25,"y":2544116.5300000012}},{"attributes":{"ID":548707,"DIS_CODE":0,"TOWNNAME":"東區","LI":"小東里","LIN":"10鄰","STREET":"東安路","SECT":" ","MAREA":" ","LANE":" ","ALLEY":" ","HOUSE_NO":"２４２號五樓","E_COORD97":170835.25,"N_COORD97":2544116.5299999998,"ADDRESS":"東安路２４２號五樓","OBJECTID":548680},"geometry":{"x":170835.25,"y":2544116.5300000012}},{"attributes":{"ID":548708,"DIS_CODE":0,"TOWNNAME":"東區","LI":"小東里","LIN":"10鄰","STREET":"東安路","SECT":" ","MAREA":" ","LANE":" ","ALLEY":" ","HOUSE_NO":"２４２號六樓","E_COORD97":170835.25,"N_COORD97":2544116.5299999998,"ADDRESS":"東安路２４２號六樓","OBJECTID":548681},"geometry":{"x":170835.25,"y":2544116.5300000012}},{"attributes":{"ID":548709,"DIS_CODE":0,"TOWNNAME":"東區","LI":"小東里","LIN":"10鄰","STREET":"東安路","SECT":" ","MAREA":" ","LANE":" ","ALLEY":" ","HOUSE_NO":"２４２號四樓","E_COORD97":170835.25,"N_COORD97":2544116.5299999998,"ADDRESS":"東安路２４２號四樓","OBJECTID":548682},"geometry":{"x":170835.25,"y":2544116.5300000012}},{"attributes":{"ID":548710,"DIS_CODE":0,"TOWNNAME":"東區","LI":"小東里","LIN":"10鄰","STREET":"東安路","SECT":" ","MAREA":" ","LANE":" ","ALLEY":" ","HOUSE_NO":"２４６號七樓","E_COORD97":170835.88,"N_COORD97":2544127.4900000002,"ADDRESS":"東安路２４６號七樓","OBJECTID":548683},"geometry":{"x":170835.87999999989,"y":2544127.4900000021}},{"attributes":{"ID":548711,"DIS_CODE":0,"TOWNNAME":"東區","LI":"小東里","LIN":"10鄰","STREET":"東安路","SECT":" ","MAREA":" ","LANE":" ","ALLEY":" ","HOUSE_NO":"２４６號九樓","E_COORD97":170835.88,"N_COORD97":2544127.4900000002,"ADDRESS":"東安路２４６號九樓","OBJECTID":548684},"geometry":{"x":170835.87999999989,"y":2544127.4900000021}},{"attributes":{"ID":548712,"DIS_CODE":0,"TOWNNAME":"東區","LI":"小東里","LIN":"10鄰","STREET":"東安路","SECT":" ","MAREA":" ","LANE":" ","ALLEY":" ","HOUSE_NO":"２４６號八樓","E_COORD97":170835.88,"N_COORD97":2544127.4900000002,"ADDRESS":"東安路２４６號八樓","OBJECTID":548685},"geometry":{"x":170835.87999999989,"y":2544127.4900000021}},{"attributes":{"ID":548713,"DIS_CODE":0,"TOWNNAME":"東區","LI":"小東里","LIN":"10鄰","STREET":"東安路","SECT":" ","MAREA":" ","LANE":" ","ALLEY":" ","HOUSE_NO":"２４６號十樓","E_COORD97":170835.88,"N_COORD97":2544127.4900000002,"ADDRESS":"東安路２４６號十樓","OBJECTID":548686},"geometry":{"x":170835.87999999989,"y":2544127.4900000021}},{"attributes":{"ID":548714,"DIS_CODE":0,"TOWNNAME":"東區","LI":"小東里","LIN":"10鄰","STREET":"東安路","SECT":" ","MAREA":" ","LANE":" ","ALLEY":" ","HOUSE_NO":"２４６號三樓","E_COORD97":170835.88,"N_COORD97":2544127.4900000002,"ADDRESS":"東安路２４６號三樓","OBJECTID":548687},"geometry":{"x":170835.87999999989,"y":2544127.4900000021}},{"attributes":{"ID":548715,"DIS_CODE":0,"TOWNNAME":"東區","LI":"小東里","LIN":"10鄰","STREET":"東安路","SECT":" ","MAREA":" ","LANE":" ","ALLEY":" ","HOUSE_NO":"２４６號五樓","E_COORD97":170835.88,"N_COORD97":2544127.4900000002,"ADDRESS":"東安路２４６號五樓","OBJECTID":548688},"geometry":{"x":170835.87999999989,"y":2544127.4900000021}},{"attributes":{"ID":548716,"DIS_CODE":0,"TOWNNAME":"東區","LI":"小東里","LIN":"10鄰","STREET":"東安路","SECT":" ","MAREA":" ","LANE":" ","ALLEY":" ","HOUSE_NO":"２４６號六樓","E_COORD97":170835.88,"N_COORD97":2544127.4900000002,"ADDRESS":"東安路２４６號六樓","OBJECTID":548689},"geometry":{"x":170835.87999999989,"y":2544127.4900000021}},{"attributes":{"ID":548717,"DIS_CODE":0,"TOWNNAME":"東區","LI":"小東里","LIN":"10鄰","STREET":"東安路","SECT":" ","MAREA":" ","LANE":" ","ALLEY":" ","HOUSE_NO":"２４６號四樓","E_COORD97":170835.88,"N_COORD97":2544127.4900000002,"ADDRESS":"東安路２４６號四樓","OBJECTID":548690},"geometry":{"x":170835.87999999989,"y":2544127.4900000021}},{"attributes":{"ID":548718,"DIS_CODE":0,"TOWNNAME":"東區","LI":"小東里","LIN":"10鄰","STREET":"東安路","SECT":" ","MAREA":" ","LANE":" ","ALLEY":" ","HOUSE_NO":"２４８號七樓","E_COORD97":170834.94,"N_COORD97":2544139.71,"ADDRESS":"東安路２４８號七樓","OBJECTID":548691},"geometry":{"x":170834.94000000227,"y":2544139.7100000028}},{"attributes":{"ID":548719,"DIS_CODE":0,"TOWNNAME":"東區","LI":"小東里","LIN":"10鄰","STREET":"東安路","SECT":" ","MAREA":" ","LANE":" ","ALLEY":" ","HOUSE_NO":"２４８號九樓","E_COORD97":170834.94,"N_COORD97":2544139.71,"ADDRESS":"東安路２４８號九樓","OBJECTID":548692},"geometry":{"x":170834.94000000227,"y":2544139.7100000028}},{"attributes":{"ID":548720,"DIS_CODE":0,"TOWNNAME":"東區","LI":"小東里","LIN":"10鄰","STREET":"東安路","SECT":" ","MAREA":" ","LANE":" ","ALLEY":" ","HOUSE_NO":"２４８號八樓","E_COORD97":170834.94,"N_COORD97":2544139.71,"ADDRESS":"東安路２４８號八樓","OBJECTID":548693},"geometry":{"x":170834.94000000227,"y":2544139.7100000028}},{"attributes":{"ID":548721,"DIS_CODE":0,"TOWNNAME":"東區","LI":"小東里","LIN":"10鄰","STREET":"東安路","SECT":" ","MAREA":" ","LANE":" ","ALLEY":" ","HOUSE_NO":"２４８號十樓","E_COORD97":170834.94,"N_COORD97":2544139.71,"ADDRESS":"東安路２４８號十樓","OBJECTID":548694},"geometry":{"x":170834.94000000227,"y":2544139.7100000028}},{"attributes":{"ID":548722,"DIS_CODE":0,"TOWNNAME":"東區","LI":"小東里","LIN":"10鄰","STREET":"東安路","SECT":" ","MAREA":" ","LANE":" ","ALLEY":" ","HOUSE_NO":"２４８號三樓","E_COORD97":170834.94,"N_COORD97":2544139.71,"ADDRESS":"東安路２４８號三樓","OBJECTID":548695},"geometry":{"x":170834.94000000227,"y":2544139.7100000028}},{"attributes":{"ID":548723,"DIS_CODE":0,"TOWNNAME":"東區","LI":"小東里","LIN":"10鄰","STREET":"東安路","SECT":" ","MAREA":" ","LANE":" ","ALLEY":" ","HOUSE_NO":"２４８號五樓","E_COORD97":170834.94,"N_COORD97":2544139.71,"ADDRESS":"東安路２４８號五樓","OBJECTID":548696},"geometry":{"x":170834.94000000227,"y":2544139.7100000028}},{"attributes":{"ID":548724,"DIS_CODE":0,"TOWNNAME":"東區","LI":"小東里","LIN":"10鄰","STREET":"東安路","SECT":" ","MAREA":" ","LANE":" ","ALLEY":" ","HOUSE_NO":"２４８號六樓","E_COORD97":170834.94,"N_COORD97":2544139.71,"ADDRESS":"東安路２４８號六樓","OBJECTID":548697},"geometry":{"x":170834.94000000227,"y":2544139.7100000028}},{"attributes":{"ID":548725,"DIS_CODE":0,"TOWNNAME":"東區","LI":"小東里","LIN":"10鄰","STREET":"東安路","SECT":" ","MAREA":" ","LANE":" ","ALLEY":" ","HOUSE_NO":"２４８號四樓","E_COORD97":170834.94,"N_COORD97":2544139.71,"ADDRESS":"東安路２４８號四樓","OBJECTID":548698},"geometry":{"x":170834.94000000227,"y":2544139.7100000028}},{"attributes":{"ID":548726,"DIS_CODE":0,"TOWNNAME":"東區","LI":"龍山里","LIN":"10鄰","STREET":"府東街","SECT":" ","MAREA":" ","LANE":" ","ALLEY":" ","HOUSE_NO":"６８號四樓","E_COORD97":169940.50529,"N_COORD97":2542951.0570200002,"ADDRESS":"府東街６８號四樓","OBJECTID":548699},"geometry":{"x":169940.50528999884,"y":2542951.0570220035}},{"attributes":{"ID":548727,"DIS_CODE":0,"TOWNNAME":"東區","LI":"龍山里","LIN":"10鄰","STREET":"府東街","SECT":" ","MAREA":" ","LANE":" ","ALLEY":" ","HOUSE_NO":"７２號六樓","E_COORD97":169948.556491,"N_COORD97":2542964.8153499998,"ADDRESS":"府東街７２號六樓","OBJECTID":548700},"geometry":{"x":169948.55649099965,"y":2542964.8153479993}},{"attributes":{"ID":548728,"DIS_CODE":0,"TOWNNAME":"東區","LI":"龍山里","LIN":"10鄰","STREET":"府東街","SECT":" ","MAREA":" ","LANE":" ","ALLEY":" ","HOUSE_NO":"７０號二樓","E_COORD97":169945.378386,"N_COORD97":2542957.6186899999,"ADDRESS":"府東街７０號二樓","OBJECTID":548701},"geometry":{"x":169945.3783860011,"y":2542957.6186849996}},{"attributes":{"ID":548729,"DIS_CODE":0,"TOWNNAME":"仁德區","LI":"保安里","LIN":"10鄰","STREET":"中正路","SECT":"一段","MAREA":" ","LANE":" ","ALLEY":" ","HOUSE_NO":"２７１號一樓","E_COORD97":171865.54999999999,"N_COORD97":2536022.27,"ADDRESS":"中正路一段２７１號一樓","OBJECTID":548702},"geometry":{"x":171865.54999999981,"y":2536022.2700000014}},{"attributes":{"ID":548730,"DIS_CODE":0,"TOWNNAME":"仁德區","LI":"保安里","LIN":"10鄰","STREET":"中正路","SECT":"一段","MAREA":" ","LANE":" ","ALLEY":" ","HOUSE_NO":"２６９號四樓","E_COORD97":171858.79000000001,"N_COORD97":2536016.77,"ADDRESS":"中正路一段２６９號四樓","OBJECTID":548703},"geometry":{"x":171858.79000000004,"y":2536016.7699999996}},{"attributes":{"ID":548731,"DIS_CODE":0,"TOWNNAME":"仁德區","LI":"保安里","LIN":"10鄰","STREET":"中正路","SECT":"一段","MAREA":" ","LANE":" ","ALLEY":" ","HOUSE_NO":"２６９號一樓","E_COORD97":171858.79000000001,"N_COORD97":2536016.77,"ADDRESS":"中正路一段２６９號一樓","OBJECTID":548704},"geometry":{"x":171858.79000000004,"y":2536016.7699999996}},{"attributes":{"ID":548732,"DIS_CODE":0,"TOWNNAME":"仁德區","LI":"保安里","LIN":"10鄰","STREET":"中正路","SECT":"一段","MAREA":" ","LANE":" ","ALLEY":" ","HOUSE_NO":"２７１號五樓","E_COORD97":171865.54999999999,"N_COORD97":2536022.27,"ADDRESS":"中正路一段２７１號五樓","OBJECTID":548705},"geometry":{"x":171865.54999999981,"y":2536022.2700000014}},{"attributes":{"ID":548733,"DIS_CODE":0,"TOWNNAME":"仁德區","LI":"保安里","LIN":"10鄰","STREET":"中正路","SECT":"一段","MAREA":" ","LANE":" ","ALLEY":" ","HOUSE_NO":"２７１號四樓","E_COORD97":171865.54999999999,"N_COORD97":2536022.27,"ADDRESS":"中正路一段２７１號四樓","OBJECTID":548706},"geometry":{"x":171865.54999999981,"y":2536022.2700000014}},{"attributes":{"ID":548734,"DIS_CODE":0,"TOWNNAME":"仁德區","LI":"保安里","LIN":"10鄰","STREET":"中正路","SECT":"一段","MAREA":" ","LANE":" ","ALLEY":" ","HOUSE_NO":"２７１號三樓","E_COORD97":171865.54999999999,"N_COORD97":2536022.27,"ADDRESS":"中正路一段２７１號三樓","OBJECTID":548707},"geometry":{"x":171865.54999999981,"y":2536022.2700000014}},{"attributes":{"ID":548735,"DIS_CODE":0,"TOWNNAME":"仁德區","LI":"保安里","LIN":"10鄰","STREET":"中正路","SECT":"一段","MAREA":" ","LANE":" ","ALLEY":" ","HOUSE_NO":"２７１號二樓","E_COORD97":171865.54999999999,"N_COORD97":2536022.27,"ADDRESS":"中正路一段２７１號二樓","OBJECTID":548708},"geometry":{"x":171865.54999999981,"y":2536022.2700000014}},{"attributes":{"ID":548736,"DIS_CODE":0,"TOWNNAME":"永康區","LI":"建國里","LIN":"10鄰","STREET":"復國路","SECT":" ","MAREA":" ","LANE":" ","ALLEY":" ","HOUSE_NO":"６８號二樓之５","E_COORD97":172762.79999999999,"N_COORD97":2544601.9700000002,"ADDRESS":"復國路６８號二樓之５","OBJECTID":548709},"geometry":{"x":172762.80000000075,"y":2544601.9700000025}},{"attributes":{"ID":548737,"DIS_CODE":0,"TOWNNAME":"永康區","LI":"建國里","LIN":"10鄰","STREET":"復國路","SECT":" ","MAREA":" ","LANE":" ","ALLEY":" ","HOUSE_NO":"６８號三樓之１","E_COORD97":172762.79999999999,"N_COORD97":2544601.9700000002,"ADDRESS":"復國路６８號三樓之１","OBJECTID":548710},"geometry":{"x":172762.80000000075,"y":2544601.9700000025}},{"attributes":{"ID":548738,"DIS_CODE":0,"TOWNNAME":"永康區","LI":"建國里","LIN":"10鄰","STREET":"復國路","SECT":" ","MAREA":" ","LANE":" ","ALLEY":" ","HOUSE_NO":"６８號三樓之２","E_COORD97":172762.79999999999,"N_COORD97":2544601.9700000002,"ADDRESS":"復國路６８號三樓之２","OBJECTID":548711},"geometry":{"x":172762.80000000075,"y":2544601.9700000025}},{"attributes":{"ID":548739,"DIS_CODE":0,"TOWNNAME":"永康區","LI":"建國里","LIN":"10鄰","STREET":"復國路","SECT":" ","MAREA":" ","LANE":" ","ALLEY":" ","HOUSE_NO":"６８號三樓之３","E_COORD97":172762.79999999999,"N_COORD97":2544601.9700000002,"ADDRESS":"復國路６８號三樓之３","OBJECTID":548712},"geometry":{"x":172762.80000000075,"y":2544601.9700000025}},{"attributes":{"ID":548740,"DIS_CODE":0,"TOWNNAME":"永康區","LI":"建國里","LIN":"10鄰","STREET":"復國路","SECT":" ","MAREA":" ","LANE":" ","ALLEY":" ","HOUSE_NO":"６８號三樓之５","E_COORD97":172762.79999999999,"N_COORD97":2544601.9700000002,"ADDRESS":"復國路６８號三樓之５","OBJECTID":548713},"geometry":{"x":172762.80000000075,"y":2544601.9700000025}},{"attributes":{"ID":548741,"DIS_CODE":0,"TOWNNAME":"永康區","LI":"建國里","LIN":"10鄰","STREET":"復國路","SECT":" ","MAREA":" ","LANE":" ","ALLEY":" ","HOUSE_NO":"６８號四樓之１","E_COORD97":172762.79999999999,"N_COORD97":2544601.9700000002,"ADDRESS":"復國路６８號四樓之１","OBJECTID":548714},"geometry":{"x":172762.80000000075,"y":2544601.9700000025}},{"attributes":{"ID":548742,"DIS_CODE":0,"TOWNNAME":"永康區","LI":"建國里","LIN":"10鄰","STREET":"復國路","SECT":" ","MAREA":" ","LANE":" ","ALLEY":" ","HOUSE_NO":"６８號四樓之２","E_COORD97":172762.79999999999,"N_COORD97":2544601.9700000002,"ADDRESS":"復國路６８號四樓之２","OBJECTID":548715},"geometry":{"x":172762.80000000075,"y":2544601.9700000025}},{"attributes":{"ID":548743,"DIS_CODE":0,"TOWNNAME":"永康區","LI":"建國里","LIN":"10鄰","STREET":"復國路","SECT":" ","MAREA":" ","LANE":" ","ALLEY":" ","HOUSE_NO":"６８號四樓之３","E_COORD97":172762.79999999999,"N_COORD97":2544601.9700000002,"ADDRESS":"復國路６８號四樓之３","OBJECTID":548716},"geometry":{"x":172762.80000000075,"y":2544601.9700000025}},{"attributes":{"ID":548744,"DIS_CODE":0,"TOWNNAME":"永康區","LI":"建國里","LIN":"10鄰","STREET":"復國路","SECT":" ","MAREA":" ","LANE":" ","ALLEY":" ","HOUSE_NO":"６８號四樓之５","E_COORD97":172762.79999999999,"N_COORD97":2544601.9700000002,"ADDRESS":"復國路６８號四樓之５","OBJECTID":548717},"geometry":{"x":172762.80000000075,"y":2544601.9700000025}},{"attributes":{"ID":548745,"DIS_CODE":0,"TOWNNAME":"永康區","LI":"建國里","LIN":"10鄰","STREET":"復國路","SECT":" ","MAREA":" ","LANE":" ","ALLEY":" ","HOUSE_NO":"６８號五樓之１","E_COORD97":172762.79999999999,"N_COORD97":2544601.9700000002,"ADDRESS":"復國路６８號五樓之１","OBJECTID":548718},"geometry":{"x":172762.80000000075,"y":2544601.9700000025}},{"attributes":{"ID":548746,"DIS_CODE":0,"TOWNNAME":"永康區","LI":"建國里","LIN":"10鄰","STREET":"復國路","SECT":" ","MAREA":" ","LANE":" ","ALLEY":" ","HOUSE_NO":"６８號五樓之２","E_COORD97":172762.79999999999,"N_COORD97":2544601.9700000002,"ADDRESS":"復國路６８號五樓之２","OBJECTID":548719},"geometry":{"x":172762.80000000075,"y":2544601.9700000025}},{"attributes":{"ID":548747,"DIS_CODE":0,"TOWNNAME":"永康區","LI":"建國里","LIN":"10鄰","STREET":"復國路","SECT":" ","MAREA":" ","LANE":" ","ALLEY":" ","HOUSE_NO":"６８號五樓之３","E_COORD97":172762.79999999999,"N_COORD97":2544601.9700000002,"ADDRESS":"復國路６８號五樓之３","OBJECTID":548720},"geometry":{"x":172762.80000000075,"y":2544601.9700000025}},{"attributes":{"ID":548748,"DIS_CODE":0,"TOWNNAME":"永康區","LI":"建國里","LIN":"10鄰","STREET":"復國路","SECT":" ","MAREA":" ","LANE":" ","ALLEY":" ","HOUSE_NO":"６８號五樓之５","E_COORD97":172762.79999999999,"N_COORD97":2544601.9700000002,"ADDRESS":"復國路６８號五樓之５","OBJECTID":548721},"geometry":{"x":172762.80000000075,"y":2544601.9700000025}},{"attributes":{"ID":548749,"DIS_CODE":0,"TOWNNAME":"永康區","LI":"建國里","LIN":"10鄰","STREET":"復國路","SECT":" ","MAREA":" ","LANE":" ","ALLEY":" ","HOUSE_NO":"６８號六樓之１","E_COORD97":172762.79999999999,"N_COORD97":2544601.9700000002,"ADDRESS":"復國路６８號六樓之１","OBJECTID":548722},"geometry":{"x":172762.80000000075,"y":2544601.9700000025}},{"attributes":{"ID":548750,"DIS_CODE":0,"TOWNNAME":"永康區","LI":"建國里","LIN":"10鄰","STREET":"復國路","SECT":" ","MAREA":" ","LANE":" ","ALLEY":" ","HOUSE_NO":"６８號六樓之２","E_COORD97":172762.79999999999,"N_COORD97":2544601.9700000002,"ADDRESS":"復國路６８號六樓之２","OBJECTID":548723},"geometry":{"x":172762.80000000075,"y":2544601.9700000025}},{"attributes":{"ID":548751,"DIS_CODE":0,"TOWNNAME":"永康區","LI":"建國里","LIN":"10鄰","STREET":"復國路","SECT":" ","MAREA":" ","LANE":" ","ALLEY":" ","HOUSE_NO":"６８號二樓之１","E_COORD97":172762.79999999999,"N_COORD97":2544601.9700000002,"ADDRESS":"復國路６８號二樓之１","OBJECTID":548724},"geometry":{"x":172762.80000000075,"y":2544601.9700000025}},{"attributes":{"ID":548752,"DIS_CODE":0,"TOWNNAME":"永康區","LI":"建國里","LIN":"10鄰","STREET":"復國路","SECT":" ","MAREA":" ","LANE":" ","ALLEY":" ","HOUSE_NO":"６８號二樓之２","E_COORD97":172762.79999999999,"N_COORD97":2544601.9700000002,"ADDRESS":"復國路６８號二樓之２","OBJECTID":548725},"geometry":{"x":172762.80000000075,"y":2544601.9700000025}},{"attributes":{"ID":548753,"DIS_CODE":0,"TOWNNAME":"永康區","LI":"建國里","LIN":"10鄰","STREET":"復國路","SECT":" ","MAREA":" ","LANE":" ","ALLEY":" ","HOUSE_NO":"６８號二樓之３","E_COORD97":172762.79999999999,"N_COORD97":2544601.9700000002,"ADDRESS":"復國路６８號二樓之３","OBJECTID":548726},"geometry":{"x":172762.80000000075,"y":2544601.9700000025}},{"attributes":{"ID":548754,"DIS_CODE":0,"TOWNNAME":"永康區","LI":"建國里","LIN":"10鄰","STREET":"復國路","SECT":" ","MAREA":" ","LANE":" ","ALLEY":" ","HOUSE_NO":"６８號六樓之３","E_COORD97":172762.79999999999,"N_COORD97":2544601.9700000002,"ADDRESS":"復國路６８號六樓之３","OBJECTID":548727},"geometry":{"x":172762.80000000075,"y":2544601.9700000025}},{"attributes":{"ID":548755,"DIS_CODE":0,"TOWNNAME":"永康區","LI":"建國里","LIN":"10鄰","STREET":"復國路","SECT":" ","MAREA":" ","LANE":" ","ALLEY":" ","HOUSE_NO":"６８號六樓之５","E_COORD97":172762.79999999999,"N_COORD97":2544601.9700000002,"ADDRESS":"復國路６８號六樓之５","OBJECTID":548728},"geometry":{"x":172762.80000000075,"y":2544601.9700000025}},{"attributes":{"ID":548756,"DIS_CODE":0,"TOWNNAME":"永康區","LI":"建國里","LIN":"10鄰","STREET":"復國路","SECT":" ","MAREA":" ","LANE":" ","ALLEY":" ","HOUSE_NO":"６８號七樓之１","E_COORD97":172762.79999999999,"N_COORD97":2544601.9700000002,"ADDRESS":"復國路６８號七樓之１","OBJECTID":548729},"geometry":{"x":172762.80000000075,"y":2544601.9700000025}},{"attributes":{"ID":548757,"DIS_CODE":0,"TOWNNAME":"永康區","LI":"建國里","LIN":"10鄰","STREET":"復國路","SECT":" ","MAREA":" ","LANE":" ","ALLEY":" ","HOUSE_NO":"６８號七樓之２","E_COORD97":172762.79999999999,"N_COORD97":2544601.9700000002,"ADDRESS":"復國路６８號七樓之２","OBJECTID":548730},"geometry":{"x":172762.80000000075,"y":2544601.9700000025}},{"attributes":{"ID":548758,"DIS_CODE":0,"TOWNNAME":"永康區","LI":"建國里","LIN":"10鄰","STREET":"復國路","SECT":" ","MAREA":" ","LANE":" ","ALLEY":" ","HOUSE_NO":"６８號七樓之３","E_COORD97":172762.79999999999,"N_COORD97":2544601.9700000002,"ADDRESS":"復國路６８號七樓之３","OBJECTID":548731},"geometry":{"x":172762.80000000075,"y":2544601.9700000025}},{"attributes":{"ID":548759,"DIS_CODE":0,"TOWNNAME":"永康區","LI":"建國里","LIN":"10鄰","STREET":"復國路","SECT":" ","MAREA":" ","LANE":" ","ALLEY":" ","HOUSE_NO":"６８號七樓之５","E_COORD97":172762.79999999999,"N_COORD97":2544601.9700000002,"ADDRESS":"復國路６８號七樓之５","OBJECTID":548732},"geometry":{"x":172762.80000000075,"y":2544601.9700000025}},{"attributes":{"ID":548760,"DIS_CODE":0,"TOWNNAME":"永康區","LI":"建國里","LIN":"10鄰","STREET":"復國路","SECT":" ","MAREA":" ","LANE":" ","ALLEY":" ","HOUSE_NO":"６８號八樓之１","E_COORD97":172762.79999999999,"N_COORD97":2544601.9700000002,"ADDRESS":"復國路６８號八樓之１","OBJECTID":548733},"geometry":{"x":172762.80000000075,"y":2544601.9700000025}},{"attributes":{"ID":548761,"DIS_CODE":0,"TOWNNAME":"永康區","LI":"建國里","LIN":"10鄰","STREET":"復國路","SECT":" ","MAREA":" ","LANE":" ","ALLEY":" ","HOUSE_NO":"６８號八樓之２","E_COORD97":172762.79999999999,"N_COORD97":2544601.9700000002,"ADDRESS":"復國路６８號八樓之２","OBJECTID":548734},"geometry":{"x":172762.80000000075,"y":2544601.9700000025}},{"attributes":{"ID":548762,"DIS_CODE":0,"TOWNNAME":"永康區","LI":"建國里","LIN":"10鄰","STREET":"復國路","SECT":" ","MAREA":" ","LANE":" ","ALLEY":" ","HOUSE_NO":"６８號八樓之３","E_COORD97":172762.79999999999,"N_COORD97":2544601.9700000002,"ADDRESS":"復國路６８號八樓之３","OBJECTID":548735},"geometry":{"x":172762.80000000075,"y":2544601.9700000025}},{"attributes":{"ID":548763,"DIS_CODE":0,"TOWNNAME":"永康區","LI":"建國里","LIN":"10鄰","STREET":"復國路","SECT":" ","MAREA":" ","LANE":" ","ALLEY":" ","HOUSE_NO":"６８號八樓之５","E_COORD97":172762.79999999999,"N_COORD97":2544601.9700000002,"ADDRESS":"復國路６８號八樓之５","OBJECTID":548736},"geometry":{"x":172762.80000000075,"y":2544601.9700000025}},{"attributes":{"ID":548764,"DIS_CODE":0,"TOWNNAME":"永康區","LI":"建國里","LIN":"10鄰","STREET":"復國路","SECT":" ","MAREA":" ","LANE":" ","ALLEY":" ","HOUSE_NO":"６８號九樓之１","E_COORD97":172762.79999999999,"N_COORD97":2544601.9700000002,"ADDRESS":"復國路６８號九樓之１","OBJECTID":548737},"geometry":{"x":172762.80000000075,"y":2544601.9700000025}},{"attributes":{"ID":548765,"DIS_CODE":0,"TOWNNAME":"永康區","LI":"建國里","LIN":"10鄰","STREET":"復國路","SECT":" ","MAREA":" ","LANE":" ","ALLEY":" ","HOUSE_NO":"６８號九樓之２","E_COORD97":172762.79999999999,"N_COORD97":2544601.9700000002,"ADDRESS":"復國路６８號九樓之２","OBJECTID":548738},"geometry":{"x":172762.80000000075,"y":2544601.9700000025}},{"attributes":{"ID":548766,"DIS_CODE":0,"TOWNNAME":"永康區","LI":"建國里","LIN":"10鄰","STREET":"復國路","SECT":" ","MAREA":" ","LANE":" ","ALLEY":" ","HOUSE_NO":"６８號九樓之３","E_COORD97":172762.79999999999,"N_COORD97":2544601.9700000002,"ADDRESS":"復國路６８號九樓之３","OBJECTID":548739},"geometry":{"x":172762.80000000075,"y":2544601.9700000025}},{"attributes":{"ID":548767,"DIS_CODE":0,"TOWNNAME":"永康區","LI":"建國里","LIN":"10鄰","STREET":"復國路","SECT":" ","MAREA":" ","LANE":" ","ALLEY":" ","HOUSE_NO":"６８號九樓之５","E_COORD97":172762.79999999999,"N_COORD97":2544601.9700000002,"ADDRESS":"復國路６８號九樓之５","OBJECTID":548740},"geometry":{"x":172762.80000000075,"y":2544601.9700000025}},{"attributes":{"ID":548768,"DIS_CODE":0,"TOWNNAME":"永康區","LI":"建國里","LIN":"10鄰","STREET":"復國路","SECT":" ","MAREA":" ","LANE":" ","ALLEY":" ","HOUSE_NO":"６８號十樓之１","E_COORD97":172762.79999999999,"N_COORD97":2544601.9700000002,"ADDRESS":"復國路６８號十樓之１","OBJECTID":548741},"geometry":{"x":172762.80000000075,"y":2544601.9700000025}},{"attributes":{"ID":548769,"DIS_CODE":0,"TOWNNAME":"永康區","LI":"建國里","LIN":"10鄰","STREET":"復國路","SECT":" ","MAREA":" ","LANE":" ","ALLEY":" ","HOUSE_NO":"６８號十樓之２","E_COORD97":172762.79999999999,"N_COORD97":2544601.9700000002,"ADDRESS":"復國路６８號十樓之２","OBJECTID":548742},"geometry":{"x":172762.80000000075,"y":2544601.9700000025}},{"attributes":{"ID":548770,"DIS_CODE":0,"TOWNNAME":"永康區","LI":"建國里","LIN":"10鄰","STREET":"復國路","SECT":" ","MAREA":" ","LANE":" ","ALLEY":" ","HOUSE_NO":"６８號十樓之３","E_COORD97":172762.79999999999,"N_COORD97":2544601.9700000002,"ADDRESS":"復國路６８號十樓之３","OBJECTID":548743},"geometry":{"x":172762.80000000075,"y":2544601.9700000025}},{"attributes":{"ID":548771,"DIS_CODE":0,"TOWNNAME":"永康區","LI":"建國里","LIN":"10鄰","STREET":"復國路","SECT":" ","MAREA":" ","LANE":" ","ALLEY":" ","HOUSE_NO":"６８號十樓之５","E_COORD97":172762.79999999999,"N_COORD97":2544601.9700000002,"ADDRESS":"復國路６８號十樓之５","OBJECTID":548744},"geometry":{"x":172762.80000000075,"y":2544601.9700000025}},{"attributes":{"ID":548772,"DIS_CODE":0,"TOWNNAME":"永康區","LI":"建國里","LIN":"10鄰","STREET":"復國路","SECT":" ","MAREA":" ","LANE":" ","ALLEY":" ","HOUSE_NO":"６８號十一樓之１","E_COORD97":172762.79999999999,"N_COORD97":2544601.9700000002,"ADDRESS":"復國路６８號十一樓之１","OBJECTID":548745},"geometry":{"x":172762.80000000075,"y":2544601.9700000025}},{"attributes":{"ID":548773,"DIS_CODE":0,"TOWNNAME":"永康區","LI":"建國里","LIN":"10鄰","STREET":"復國路","SECT":" ","MAREA":" ","LANE":" ","ALLEY":" ","HOUSE_NO":"６８號十一樓之２","E_COORD97":172762.79999999999,"N_COORD97":2544601.9700000002,"ADDRESS":"復國路６８號十一樓之２","OBJECTID":548746},"geometry":{"x":172762.80000000075,"y":2544601.9700000025}},{"attributes":{"ID":548774,"DIS_CODE":0,"TOWNNAME":"永康區","LI":"建國里","LIN":"10鄰","STREET":"復國路","SECT":" ","MAREA":" ","LANE":" ","ALLEY":" ","HOUSE_NO":"６８號十一樓之３","E_COORD97":172762.79999999999,"N_COORD97":2544601.9700000002,"ADDRESS":"復國路６８號十一樓之３","OBJECTID":548747},"geometry":{"x":172762.80000000075,"y":2544601.9700000025}},{"attributes":{"ID":548775,"DIS_CODE":0,"TOWNNAME":"永康區","LI":"建國里","LIN":"10鄰","STREET":"復國路","SECT":" ","MAREA":" ","LANE":" ","ALLEY":" ","HOUSE_NO":"６８號十一樓之５","E_COORD97":172762.79999999999,"N_COORD97":2544601.9700000002,"ADDRESS":"復國路６８號十一樓之５","OBJECTID":548748},"geometry":{"x":172762.80000000075,"y":2544601.9700000025}},{"attributes":{"ID":548776,"DIS_CODE":0,"TOWNNAME":"仁德區","LI":"保安里","LIN":"10鄰","STREET":"中正路","SECT":"一段","MAREA":" ","LANE":" ","ALLEY":" ","HOUSE_NO":"２６９號三樓","E_COORD97":171858.79000000001,"N_COORD97":2536016.77,"ADDRESS":"中正路一段２６９號三樓","OBJECTID":548749},"geometry":{"x":171858.79000000004,"y":2536016.7699999996}},{"attributes":{"ID":548777,"DIS_CODE":0,"TOWNNAME":"新市區","LI":"新市里","LIN":"10鄰","STREET":"中興街","SECT":" ","MAREA":" ","LANE":" ","ALLEY":" ","HOUSE_NO":"２號四樓之２","E_COORD97":177779.54000000001,"N_COORD97":2553233.5800000001,"ADDRESS":"中興街２號四樓之２","OBJECTID":548750},"geometry":{"x":177779.54000000097,"y":2553233.5800000019}},{"attributes":{"ID":548778,"DIS_CODE":0,"TOWNNAME":"新市區","LI":"新市里","LIN":"10鄰","STREET":"中興街","SECT":" ","MAREA":" ","LANE":" ","ALLEY":" ","HOUSE_NO":"２號二樓之１","E_COORD97":177796.06,"N_COORD97":2553222.5899999999,"ADDRESS":"中興街２號二樓之１","OBJECTID":548751},"geometry":{"x":177796.06000000052,"y":2553222.5900000017}},{"attributes":{"ID":548779,"DIS_CODE":0,"TOWNNAME":"新市區","LI":"新市里","LIN":"10鄰","STREET":"中興街","SECT":" ","MAREA":" ","LANE":" ","ALLEY":" ","HOUSE_NO":"２號二樓之２","E_COORD97":177779.54000000001,"N_COORD97":2553233.5800000001,"ADDRESS":"中興街２號二樓之２","OBJECTID":548752},"geometry":{"x":177779.54000000097,"y":2553233.5800000019}},{"attributes":{"ID":548780,"DIS_CODE":0,"TOWNNAME":"新市區","LI":"新市里","LIN":"10鄰","STREET":"中興街","SECT":" ","MAREA":" ","LANE":" ","ALLEY":" ","HOUSE_NO":"２號三樓之１","E_COORD97":177796.06,"N_COORD97":2553222.5899999999,"ADDRESS":"中興街２號三樓之１","OBJECTID":548753},"geometry":{"x":177796.06000000052,"y":2553222.5900000017}},{"attributes":{"ID":548781,"DIS_CODE":0,"TOWNNAME":"新市區","LI":"新市里","LIN":"10鄰","STREET":"中興街","SECT":" ","MAREA":" ","LANE":" ","ALLEY":" ","HOUSE_NO":"２號三樓之２","E_COORD97":177779.54000000001,"N_COORD97":2553233.5800000001,"ADDRESS":"中興街２號三樓之２","OBJECTID":548754},"geometry":{"x":177779.54000000097,"y":2553233.5800000019}},{"attributes":{"ID":548782,"DIS_CODE":0,"TOWNNAME":"新市區","LI":"新市里","LIN":"10鄰","STREET":"中興街","SECT":" ","MAREA":" ","LANE":" ","ALLEY":" ","HOUSE_NO":"２號四樓之１","E_COORD97":177796.06,"N_COORD97":2553222.5899999999,"ADDRESS":"中興街２號四樓之１","OBJECTID":548755},"geometry":{"x":177796.06000000052,"y":2553222.5900000017}},{"attributes":{"ID":548783,"DIS_CODE":0,"TOWNNAME":"新市區","LI":"新市里","LIN":"10鄰","STREET":"中興街","SECT":" ","MAREA":" ","LANE":" ","ALLEY":" ","HOUSE_NO":"２號五樓之１","E_COORD97":177796.06,"N_COORD97":2553222.5899999999,"ADDRESS":"中興街２號五樓之１","OBJECTID":548756},"geometry":{"x":177796.06000000052,"y":2553222.5900000017}},{"attributes":{"ID":548784,"DIS_CODE":0,"TOWNNAME":"新市區","LI":"新市里","LIN":"10鄰","STREET":"中興街","SECT":" ","MAREA":" ","LANE":" ","ALLEY":" ","HOUSE_NO":"２號五樓之２","E_COORD97":177779.54000000001,"N_COORD97":2553233.5800000001,"ADDRESS":"中興街２號五樓之２","OBJECTID":548757},"geometry":{"x":177779.54000000097,"y":2553233.5800000019}},{"attributes":{"ID":548785,"DIS_CODE":0,"TOWNNAME":"東區","LI":"龍山里","LIN":"10鄰","STREET":"府東街","SECT":" ","MAREA":" ","LANE":" ","ALLEY":" ","HOUSE_NO":"６６號七樓","E_COORD97":169936.05594300001,"N_COORD97":2542942.3786900002,"ADDRESS":"府東街６６號七樓","OBJECTID":548758},"geometry":{"x":169936.05594300013,"y":2542942.3786940016}},{"attributes":{"ID":548786,"DIS_CODE":0,"TOWNNAME":"東區","LI":"龍山里","LIN":"10鄰","STREET":"府東街","SECT":" ","MAREA":" ","LANE":" ","ALLEY":" ","HOUSE_NO":"６８號五樓","E_COORD97":169940.50529,"N_COORD97":2542951.0570200002,"ADDRESS":"府東街６８號五樓","OBJECTID":548759},"geometry":{"x":169940.50528999884,"y":2542951.0570220035}},{"attributes":{"ID":548787,"DIS_CODE":0,"TOWNNAME":"東區","LI":"龍山里","LIN":"10鄰","STREET":"府東街","SECT":" ","MAREA":" ","LANE":" ","ALLEY":" ","HOUSE_NO":"６８號六樓","E_COORD97":169940.50529,"N_COORD97":2542951.0570200002,"ADDRESS":"府東街６８號六樓","OBJECTID":548760},"geometry":{"x":169940.50528999884,"y":2542951.0570220035}},{"attributes":{"ID":548788,"DIS_CODE":0,"TOWNNAME":"東區","LI":"龍山里","LIN":"10鄰","STREET":"府東街","SECT":" ","MAREA":" ","LANE":" ","ALLEY":" ","HOUSE_NO":"６８號七樓","E_COORD97":169940.50529,"N_COORD97":2542951.0570200002,"ADDRESS":"府東街６８號七樓","OBJECTID":548761},"geometry":{"x":169940.50528999884,"y":2542951.0570220035}},{"attributes":{"ID":548789,"DIS_CODE":0,"TOWNNAME":"東區","LI":"龍山里","LIN":"10鄰","STREET":"府東街","SECT":" ","MAREA":" ","LANE":" ","ALLEY":" ","HOUSE_NO":"７０號四樓","E_COORD97":169945.378386,"N_COORD97":2542957.6186899999,"ADDRESS":"府東街７０號四樓","OBJECTID":548762},"geometry":{"x":169945.3783860011,"y":2542957.6186849996}},{"attributes":{"ID":548790,"DIS_CODE":0,"TOWNNAME":"東區","LI":"龍山里","LIN":"10鄰","STREET":"府東街","SECT":" ","MAREA":" ","LANE":" ","ALLEY":" ","HOUSE_NO":"７０號五樓","E_COORD97":169945.378386,"N_COORD97":2542957.6186899999,"ADDRESS":"府東街７０號五樓","OBJECTID":548763},"geometry":{"x":169945.3783860011,"y":2542957.6186849996}},{"attributes":{"ID":548791,"DIS_CODE":0,"TOWNNAME":"東區","LI":"龍山里","LIN":"10鄰","STREET":"府東街","SECT":" ","MAREA":" ","LANE":" ","ALLEY":" ","HOUSE_NO":"７０號六樓","E_COORD97":169945.378386,"N_COORD97":2542957.6186899999,"ADDRESS":"府東街７０號六樓","OBJECTID":548764},"geometry":{"x":169945.3783860011,"y":2542957.6186849996}},{"attributes":{"ID":548792,"DIS_CODE":0,"TOWNNAME":"東區","LI":"龍山里","LIN":"10鄰","STREET":"府東街","SECT":" ","MAREA":" ","LANE":" ","ALLEY":" ","HOUSE_NO":"７０號七樓","E_COORD97":169945.378386,"N_COORD97":2542957.6186899999,"ADDRESS":"府東街７０號七樓","OBJECTID":548765},"geometry":{"x":169945.3783860011,"y":2542957.6186849996}},{"attributes":{"ID":548793,"DIS_CODE":0,"TOWNNAME":"東區","LI":"龍山里","LIN":"10鄰","STREET":"府東街","SECT":" ","MAREA":" ","LANE":" ","ALLEY":" ","HOUSE_NO":"７２號二樓","E_COORD97":169948.556491,"N_COORD97":2542964.8153499998,"ADDRESS":"府東街７２號二樓","OBJECTID":548766},"geometry":{"x":169948.55649099965,"y":2542964.8153479993}},{"attributes":{"ID":548794,"DIS_CODE":0,"TOWNNAME":"東區","LI":"龍山里","LIN":"10鄰","STREET":"府東街","SECT":" ","MAREA":" ","LANE":" ","ALLEY":" ","HOUSE_NO":"７２號三樓","E_COORD97":169948.556491,"N_COORD97":2542964.8153499998,"ADDRESS":"府東街７２號三樓","OBJECTID":548767},"geometry":{"x":169948.55649099965,"y":2542964.8153479993}},{"attributes":{"ID":548795,"DIS_CODE":0,"TOWNNAME":"東區","LI":"龍山里","LIN":"10鄰","STREET":"府東街","SECT":" ","MAREA":" ","LANE":" ","ALLEY":" ","HOUSE_NO":"７２號四樓","E_COORD97":169948.556491,"N_COORD97":2542964.8153499998,"ADDRESS":"府東街７２號四樓","OBJECTID":548768},"geometry":{"x":169948.55649099965,"y":2542964.8153479993}},{"attributes":{"ID":548796,"DIS_CODE":0,"TOWNNAME":"東區","LI":"龍山里","LIN":"10鄰","STREET":"府東街","SECT":" ","MAREA":" ","LANE":" ","ALLEY":" ","HOUSE_NO":"７２號七樓","E_COORD97":169948.556491,"N_COORD97":2542964.8153499998,"ADDRESS":"府東街７２號七樓","OBJECTID":548769},"geometry":{"x":169948.55649099965,"y":2542964.8153479993}},{"attributes":{"ID":548797,"DIS_CODE":0,"TOWNNAME":"東區","LI":"龍山里","LIN":"10鄰","STREET":"府東街","SECT":" ","MAREA":" ","LANE":" ","ALLEY":" ","HOUSE_NO":"７６號二樓","E_COORD97":169937.962806,"N_COORD97":2542970.1070099999,"ADDRESS":"府東街７６號二樓","OBJECTID":548770},"geometry":{"x":169937.96280600131,"y":2542970.1070119999}},{"attributes":{"ID":548798,"DIS_CODE":0,"TOWNNAME":"東區","LI":"龍山里","LIN":"10鄰","STREET":"府東街","SECT":" ","MAREA":" ","LANE":" ","ALLEY":" ","HOUSE_NO":"７６號三樓","E_COORD97":169937.962806,"N_COORD97":2542970.1070099999,"ADDRESS":"府東街７６號三樓","OBJECTID":548771},"geometry":{"x":169937.96280600131,"y":2542970.1070119999}},{"attributes":{"ID":548799,"DIS_CODE":0,"TOWNNAME":"東區","LI":"龍山里","LIN":"10鄰","STREET":"府東街","SECT":" ","MAREA":" ","LANE":" ","ALLEY":" ","HOUSE_NO":"７６號四樓","E_COORD97":169937.962806,"N_COORD97":2542970.1070099999,"ADDRESS":"府東街７６號四樓","OBJECTID":548772},"geometry":{"x":169937.96280600131,"y":2542970.1070119999}},{"attributes":{"ID":548800,"DIS_CODE":0,"TOWNNAME":"東區","LI":"龍山里","LIN":"10鄰","STREET":"府東街","SECT":" ","MAREA":" ","LANE":" ","ALLEY":" ","HOUSE_NO":"７６號五樓","E_COORD97":169937.962806,"N_COORD97":2542970.1070099999,"ADDRESS":"府東街７６號五樓","OBJECTID":548773},"geometry":{"x":169937.96280600131,"y":2542970.1070119999}},{"attributes":{"ID":548801,"DIS_CODE":0,"TOWNNAME":"東區","LI":"龍山里","LIN":"10鄰","STREET":"府東街","SECT":" ","MAREA":" ","LANE":" ","ALLEY":" ","HOUSE_NO":"７６號六樓","E_COORD97":169937.962806,"N_COORD97":2542970.1070099999,"ADDRESS":"府東街７６號六樓","OBJECTID":548774},"geometry":{"x":169937.96280600131,"y":2542970.1070119999}},{"attributes":{"ID":548802,"DIS_CODE":0,"TOWNNAME":"東區","LI":"龍山里","LIN":"10鄰","STREET":"府東街","SECT":" ","MAREA":" ","LANE":" ","ALLEY":" ","HOUSE_NO":"７６號七樓","E_COORD97":169937.962806,"N_COORD97":2542970.1070099999,"ADDRESS":"府東街７６號七樓","OBJECTID":548775},"geometry":{"x":169937.96280600131,"y":2542970.1070119999}},{"attributes":{"ID":548803,"DIS_CODE":0,"TOWNNAME":"東區","LI":"龍山里","LIN":"10鄰","STREET":"府東街","SECT":" ","MAREA":" ","LANE":" ","ALLEY":" ","HOUSE_NO":"７８號二樓","E_COORD97":169931.39472099999,"N_COORD97":2542951.24223,"ADDRESS":"府東街７８號二樓","OBJECTID":548776},"geometry":{"x":169931.39472099952,"y":2542951.2422300037}},{"attributes":{"ID":548804,"DIS_CODE":0,"TOWNNAME":"東區","LI":"龍山里","LIN":"10鄰","STREET":"府東街","SECT":" ","MAREA":" ","LANE":" ","ALLEY":" ","HOUSE_NO":"７８號三樓","E_COORD97":169931.39472099999,"N_COORD97":2542951.24223,"ADDRESS":"府東街７８號三樓","OBJECTID":548777},"geometry":{"x":169931.39472099952,"y":2542951.2422300037}},{"attributes":{"ID":548805,"DIS_CODE":0,"TOWNNAME":"東區","LI":"龍山里","LIN":"10鄰","STREET":"府東街","SECT":" ","MAREA":" ","LANE":" ","ALLEY":" ","HOUSE_NO":"７８號四樓","E_COORD97":169931.39472099999,"N_COORD97":2542951.24223,"ADDRESS":"府東街７８號四樓","OBJECTID":548778},"geometry":{"x":169931.39472099952,"y":2542951.2422300037}},{"attributes":{"ID":548806,"DIS_CODE":0,"TOWNNAME":"東區","LI":"龍山里","LIN":"10鄰","STREET":"府東街","SECT":" ","MAREA":" ","LANE":" ","ALLEY":" ","HOUSE_NO":"７８號五樓","E_COORD97":169931.39472099999,"N_COORD97":2542951.24223,"ADDRESS":"府東街７８號五樓","OBJECTID":548779},"geometry":{"x":169931.39472099952,"y":2542951.2422300037}},{"attributes":{"ID":548807,"DIS_CODE":0,"TOWNNAME":"東區","LI":"龍山里","LIN":"10鄰","STREET":"府東街","SECT":" ","MAREA":" ","LANE":" ","ALLEY":" ","HOUSE_NO":"７８號六樓","E_COORD97":169931.39472099999,"N_COORD97":2542951.24223,"ADDRESS":"府東街７８號六樓","OBJECTID":548780},"geometry":{"x":169931.39472099952,"y":2542951.2422300037}},{"attributes":{"ID":548808,"DIS_CODE":0,"TOWNNAME":"東區","LI":"龍山里","LIN":"10鄰","STREET":"府東街","SECT":" ","MAREA":" ","LANE":" ","ALLEY":" ","HOUSE_NO":"８０號六樓","E_COORD97":169923.343521,"N_COORD97":2542935.3672400001,"ADDRESS":"府東街８０號六樓","OBJECTID":548781},"geometry":{"x":169923.34352100082,"y":2542935.3672390003}},{"attributes":{"ID":548809,"DIS_CODE":0,"TOWNNAME":"東區","LI":"龍山里","LIN":"10鄰","STREET":"府東街","SECT":" ","MAREA":" ","LANE":" ","ALLEY":" ","HOUSE_NO":"８２號二樓","E_COORD97":169918.25855200001,"N_COORD97":2542937.0870300001,"ADDRESS":"府東街８２號二樓","OBJECTID":548782},"geometry":{"x":169918.25855199993,"y":2542937.087030001}},{"attributes":{"ID":548810,"DIS_CODE":0,"TOWNNAME":"東區","LI":"龍山里","LIN":"10鄰","STREET":"府東街","SECT":" ","MAREA":" ","LANE":" ","ALLEY":" ","HOUSE_NO":"８２號三樓","E_COORD97":169918.25855200001,"N_COORD97":2542937.0870300001,"ADDRESS":"府東街８２號三樓","OBJECTID":548783},"geometry":{"x":169918.25855199993,"y":2542937.087030001}},{"attributes":{"ID":548811,"DIS_CODE":0,"TOWNNAME":"東區","LI":"龍山里","LIN":"10鄰","STREET":"府東街","SECT":" ","MAREA":" ","LANE":" ","ALLEY":" ","HOUSE_NO":"８２號四樓","E_COORD97":169918.25855200001,"N_COORD97":2542937.0870300001,"ADDRESS":"府東街８２號四樓","OBJECTID":548784},"geometry":{"x":169918.25855199993,"y":2542937.087030001}},{"attributes":{"ID":548812,"DIS_CODE":0,"TOWNNAME":"東區","LI":"龍山里","LIN":"10鄰","STREET":"府東街","SECT":" ","MAREA":" ","LANE":" ","ALLEY":" ","HOUSE_NO":"８２號五樓","E_COORD97":169918.25855200001,"N_COORD97":2542937.0870300001,"ADDRESS":"府東街８２號五樓","OBJECTID":548785},"geometry":{"x":169918.25855199993,"y":2542937.087030001}},{"attributes":{"ID":548813,"DIS_CODE":0,"TOWNNAME":"東區","LI":"龍山里","LIN":"10鄰","STREET":"府東街","SECT":" ","MAREA":" ","LANE":" ","ALLEY":" ","HOUSE_NO":"８２號六樓","E_COORD97":169918.25855200001,"N_COORD97":2542937.0870300001,"ADDRESS":"府東街８２號六樓","OBJECTID":548786},"geometry":{"x":169918.25855199993,"y":2542937.087030001}},{"attributes":{"ID":548814,"DIS_CODE":0,"TOWNNAME":"東區","LI":"龍山里","LIN":"10鄰","STREET":"府東街","SECT":" ","MAREA":" ","LANE":" ","ALLEY":" ","HOUSE_NO":"８２號七樓","E_COORD97":169918.25855200001,"N_COORD97":2542937.0870300001,"ADDRESS":"府東街８２號七樓","OBJECTID":548787},"geometry":{"x":169918.25855199993,"y":2542937.087030001}},{"attributes":{"ID":548815,"DIS_CODE":0,"TOWNNAME":"東區","LI":"東門里","LIN":"10鄰","STREET":"新樓街","SECT":" ","MAREA":" ","LANE":" ","ALLEY":" ","HOUSE_NO":"３１號二樓","E_COORD97":169376.32999999999,"N_COORD97":2543363.2000000002,"ADDRESS":"新樓街３１號二樓","OBJECTID":548788},"geometry":{"x":169376.33000000101,"y":2543363.1999999993}},{"attributes":{"ID":548816,"DIS_CODE":0,"TOWNNAME":"東區","LI":"東門里","LIN":"10鄰","STREET":"新樓街","SECT":" ","MAREA":" ","LANE":" ","ALLEY":" ","HOUSE_NO":"３１號三樓","E_COORD97":169376.32999999999,"N_COORD97":2543363.2000000002,"ADDRESS":"新樓街３１號三樓","OBJECTID":548789},"geometry":{"x":169376.33000000101,"y":2543363.1999999993}},{"attributes":{"ID":548817,"DIS_CODE":0,"TOWNNAME":"東區","LI":"東門里","LIN":"10鄰","STREET":"新樓街","SECT":" ","MAREA":" ","LANE":" ","ALLEY":" ","HOUSE_NO":"３１號五樓","E_COORD97":169376.32999999999,"N_COORD97":2543363.2000000002,"ADDRESS":"新樓街３１號五樓","OBJECTID":548790},"geometry":{"x":169376.33000000101,"y":2543363.1999999993}},{"attributes":{"ID":548818,"DIS_CODE":0,"TOWNNAME":"東區","LI":"東門里","LIN":"10鄰","STREET":"新樓街","SECT":" ","MAREA":" ","LANE":" ","ALLEY":" ","HOUSE_NO":"３１號四樓","E_COORD97":169376.32999999999,"N_COORD97":2543363.2000000002,"ADDRESS":"新樓街３１號四樓","OBJECTID":548791},"geometry":{"x":169376.33000000101,"y":2543363.1999999993}},{"attributes":{"ID":548819,"DIS_CODE":0,"TOWNNAME":"東區","LI":"東門里","LIN":"10鄰","STREET":"新樓街","SECT":" ","MAREA":" ","LANE":" ","ALLEY":" ","HOUSE_NO":"３３號二樓","E_COORD97":169377.53,"N_COORD97":2543375.5800000001,"ADDRESS":"新樓街３３號二樓","OBJECTID":548792},"geometry":{"x":169377.53000000026,"y":2543375.5800000001}},{"attributes":{"ID":548820,"DIS_CODE":0,"TOWNNAME":"東區","LI":"東門里","LIN":"10鄰","STREET":"新樓街","SECT":" ","MAREA":" ","LANE":" ","ALLEY":" ","HOUSE_NO":"３３號三樓","E_COORD97":169377.53,"N_COORD97":2543375.5800000001,"ADDRESS":"新樓街３３號三樓","OBJECTID":548793},"geometry":{"x":169377.53000000026,"y":2543375.5800000001}},{"attributes":{"ID":548821,"DIS_CODE":0,"TOWNNAME":"東區","LI":"東門里","LIN":"10鄰","STREET":"新樓街","SECT":" ","MAREA":" ","LANE":" ","ALLEY":" ","HOUSE_NO":"３３號五樓","E_COORD97":169377.53,"N_COORD97":2543375.5800000001,"ADDRESS":"新樓街３３號五樓","OBJECTID":548794},"geometry":{"x":169377.53000000026,"y":2543375.5800000001}},{"attributes":{"ID":548822,"DIS_CODE":0,"TOWNNAME":"東區","LI":"東門里","LIN":"10鄰","STREET":"新樓街","SECT":" ","MAREA":" ","LANE":" ","ALLEY":" ","HOUSE_NO":"３３號四樓","E_COORD97":169377.53,"N_COORD97":2543375.5800000001,"ADDRESS":"新樓街３３號四樓","OBJECTID":548795},"geometry":{"x":169377.53000000026,"y":2543375.5800000001}},{"attributes":{"ID":548823,"DIS_CODE":0,"TOWNNAME":"東區","LI":"東門里","LIN":"10鄰","STREET":"新樓街","SECT":" ","MAREA":" ","LANE":" ","ALLEY":" ","HOUSE_NO":"３５號二樓","E_COORD97":169388.10999999999,"N_COORD97":2543374.9199999999,"ADDRESS":"新樓街３５號二樓","OBJECTID":548796},"geometry":{"x":169388.11000000127,"y":2543374.9200000018}},{"attributes":{"ID":548824,"DIS_CODE":0,"TOWNNAME":"東區","LI":"東門里","LIN":"10鄰","STREET":"新樓街","SECT":" ","MAREA":" ","LANE":" ","ALLEY":" ","HOUSE_NO":"３５號三樓","E_COORD97":169388.10999999999,"N_COORD97":2543374.9199999999,"ADDRESS":"新樓街３５號三樓","OBJECTID":548797},"geometry":{"x":169388.11000000127,"y":2543374.9200000018}},{"attributes":{"ID":548825,"DIS_CODE":0,"TOWNNAME":"東區","LI":"東門里","LIN":"10鄰","STREET":"新樓街","SECT":" ","MAREA":" ","LANE":" ","ALLEY":" ","HOUSE_NO":"３５號五樓","E_COORD97":169388.10999999999,"N_COORD97":2543374.9199999999,"ADDRESS":"新樓街３５號五樓","OBJECTID":548798},"geometry":{"x":169388.11000000127,"y":2543374.9200000018}},{"attributes":{"ID":548826,"DIS_CODE":0,"TOWNNAME":"東區","LI":"東門里","LIN":"10鄰","STREET":"新樓街","SECT":" ","MAREA":" ","LANE":" ","ALLEY":" ","HOUSE_NO":"３５號四樓","E_COORD97":169388.10999999999,"N_COORD97":2543374.9199999999,"ADDRESS":"新樓街３５號四樓","OBJECTID":548799},"geometry":{"x":169388.11000000127,"y":2543374.9200000018}},{"attributes":{"ID":548827,"DIS_CODE":0,"TOWNNAME":"東區","LI":"東門里","LIN":"10鄰","STREET":"新樓街","SECT":" ","MAREA":" ","LANE":" ","ALLEY":" ","HOUSE_NO":"５號二樓","E_COORD97":169312.78,"N_COORD97":2543388.6800000002,"ADDRESS":"新樓街５號二樓","OBJECTID":548800},"geometry":{"x":169312.78000000026,"y":2543388.6800000034}}]}