{"displayFieldName":"TOWNNAME","fieldAliases":{"ID":"ID","DIS_CODE":"DIS_CODE","TOWNNAME":"TOWNNAME","LI":"LI","LIN":"LIN","STREET":"STREET","SECT":"SECT","MAREA":"MAREA","LANE":"LANE","ALLEY":"ALLEY","HOUSE_NO":"HOUSE_NO","E_COORD97":"E_COORD97","N_COORD97":"N_COORD97","ADDRESS":"ADDRESS","OBJECTID":"OBJECTID"},"geometryType":"esriGeometryPoint","spatialReference":{"wkid":102443,"latestWkid":3826},"fields":[{"name":"ID","type":"esriFieldTypeDouble","alias":"ID"},{"name":"DIS_CODE","type":"esriFieldTypeInteger","alias":"DIS_CODE"},{"name":"TOWNNAME","type":"esriFieldTypeString","alias":"TOWNNAME","length":8},{"name":"LI","type":"esriFieldTypeString","alias":"LI","length":8},{"name":"LIN","type":"esriFieldTypeString","alias":"LIN","length":12},{"name":"STREET","type":"esriFieldTypeString","alias":"STREET","length":20},{"name":"SECT","type":"esriFieldTypeString","alias":"SECT","length":8},{"name":"MAREA","type":"esriFieldTypeString","alias":"MAREA","length":12},{"name":"LANE","type":"esriFieldTypeString","alias":"LANE","length":10},{"name":"ALLEY","type":"esriFieldTypeString","alias":"ALLEY","length":10},{"name":"HOUSE_NO","type":"esriFieldTypeString","alias":"HOUSE_NO","length":20},{"name":"E_COORD97","type":"esriFieldTypeDouble","alias":"E_COORD97"},{"name":"N_COORD97","type":"esriFieldTypeDouble","alias":"N_COORD97"},{"name":"ADDRESS","type":"esriFieldTypeString","alias":"ADDRESS","length":50},{"name":"OBJECTID","type":"esriFieldTypeOID","alias":"OBJECTID"}],"features":[{"attributes":{"ID":272206,"DIS_CODE":0,"TOWNNAME":"北區","LI":"永祥里","LIN":"7鄰","STREET":"實踐街","SECT":" ","MAREA":" ","LANE":"３９巷","ALLEY":" ","HOUSE_NO":"５０號","E_COORD97":169916.56,"N_COORD97":2546186.3799999999,"ADDRESS":"實踐街３９巷５０號","OBJECTID":272201},"geometry":{"x":169916.56000000052,"y":2546186.379999999}},{"attributes":{"ID":272207,"DIS_CODE":0,"TOWNNAME":"北區","LI":"永祥里","LIN":"7鄰","STREET":"實踐街","SECT":" ","MAREA":" ","LANE":"３９巷","ALLEY":" ","HOUSE_NO":"５２號","E_COORD97":169917.44,"N_COORD97":2546191.2599999998,"ADDRESS":"實踐街３９巷５２號","OBJECTID":272202},"geometry":{"x":169917.44000000041,"y":2546191.2599999998}},{"attributes":{"ID":272208,"DIS_CODE":0,"TOWNNAME":"北區","LI":"永祥里","LIN":"7鄰","STREET":"實踐街","SECT":" ","MAREA":" ","LANE":"３９巷","ALLEY":" ","HOUSE_NO":"５４號","E_COORD97":169918.39000000001,"N_COORD97":2546195.54,"ADDRESS":"實踐街３９巷５４號","OBJECTID":272203},"geometry":{"x":169918.38999999966,"y":2546195.5399999991}},{"attributes":{"ID":272209,"DIS_CODE":0,"TOWNNAME":"北區","LI":"永祥里","LIN":"7鄰","STREET":"實踐街","SECT":" ","MAREA":" ","LANE":"３９巷","ALLEY":" ","HOUSE_NO":"５６號","E_COORD97":169919.53,"N_COORD97":2546200.75,"ADDRESS":"實踐街３９巷５６號","OBJECTID":272204},"geometry":{"x":169919.53000000119,"y":2546200.7500000019}},{"attributes":{"ID":272210,"DIS_CODE":0,"TOWNNAME":"東區","LI":"崇德里","LIN":"7鄰","STREET":"崇德六街","SECT":" ","MAREA":" ","LANE":" ","ALLEY":" ","HOUSE_NO":"８０號","E_COORD97":170837.78,"N_COORD97":2541855.3199999998,"ADDRESS":"崇德六街８０號","OBJECTID":272205},"geometry":{"x":170837.78000000119,"y":2541855.3200000003}},{"attributes":{"ID":272211,"DIS_CODE":0,"TOWNNAME":"北區","LI":"永祥里","LIN":"7鄰","STREET":"實踐街","SECT":" ","MAREA":" ","LANE":"３９巷","ALLEY":" ","HOUSE_NO":"１２號","E_COORD97":169927.73999999999,"N_COORD97":2546081.5099999998,"ADDRESS":"實踐街３９巷１２號","OBJECTID":272206},"geometry":{"x":169927.74000000115,"y":2546081.5099999998}},{"attributes":{"ID":272212,"DIS_CODE":0,"TOWNNAME":"北區","LI":"永祥里","LIN":"7鄰","STREET":"實踐街","SECT":" ","MAREA":" ","LANE":"３９巷","ALLEY":" ","HOUSE_NO":"１４號","E_COORD97":169905.67999999999,"N_COORD97":2546094.2599999998,"ADDRESS":"實踐街３９巷１４號","OBJECTID":272207},"geometry":{"x":169905.68000000063,"y":2546094.2600000016}},{"attributes":{"ID":272213,"DIS_CODE":0,"TOWNNAME":"北區","LI":"永祥里","LIN":"7鄰","STREET":"實踐街","SECT":" ","MAREA":" ","LANE":"３９巷","ALLEY":" ","HOUSE_NO":"１６號","E_COORD97":169905.32999999999,"N_COORD97":2546100.3100000001,"ADDRESS":"實踐街３９巷１６號","OBJECTID":272208},"geometry":{"x":169905.33000000101,"y":2546100.3100000005}},{"attributes":{"ID":272214,"DIS_CODE":0,"TOWNNAME":"東區","LI":"崇德里","LIN":"7鄰","STREET":"崇德六街","SECT":" ","MAREA":" ","LANE":" ","ALLEY":" ","HOUSE_NO":"８２號","E_COORD97":170840.72,"N_COORD97":2541858.6499999999,"ADDRESS":"崇德六街８２號","OBJECTID":272209},"geometry":{"x":170840.7200000016,"y":2541858.6500000022}},{"attributes":{"ID":272215,"DIS_CODE":0,"TOWNNAME":"善化區","LI":"光文里","LIN":"18鄰","STREET":"信義路","SECT":" ","MAREA":" ","LANE":" ","ALLEY":" ","HOUSE_NO":"１３３號","E_COORD97":178241.95000000001,"N_COORD97":2558963.75,"ADDRESS":"信義路１３３號","OBJECTID":272210},"geometry":{"x":178241.95000000019,"y":2558963.7499999981}},{"attributes":{"ID":272216,"DIS_CODE":0,"TOWNNAME":"官田區","LI":"東庄里","LIN":"3鄰","STREET":" ","SECT":" ","MAREA":"西庄","LANE":" ","ALLEY":" ","HOUSE_NO":"１２５號之４","E_COORD97":177952.07999999999,"N_COORD97":2565336.2400000002,"ADDRESS":"西庄１２５號之４","OBJECTID":272211},"geometry":{"x":177952.08000000101,"y":2565336.2400000021}},{"attributes":{"ID":272217,"DIS_CODE":0,"TOWNNAME":"官田區","LI":"東庄里","LIN":"3鄰","STREET":" ","SECT":" ","MAREA":"西庄","LANE":" ","ALLEY":" ","HOUSE_NO":"１２５號之５","E_COORD97":177945.35999999999,"N_COORD97":2565334.5499999998,"ADDRESS":"西庄１２５號之５","OBJECTID":272212},"geometry":{"x":177945.36000000127,"y":2565334.5500000026}},{"attributes":{"ID":272218,"DIS_CODE":0,"TOWNNAME":"北區","LI":"永祥里","LIN":"7鄰","STREET":"實踐街","SECT":" ","MAREA":" ","LANE":"３９巷","ALLEY":" ","HOUSE_NO":"１８號","E_COORD97":169905.76000000001,"N_COORD97":2546105.04,"ADDRESS":"實踐街３９巷１８號","OBJECTID":272213},"geometry":{"x":169905.75999999978,"y":2546105.040000001}},{"attributes":{"ID":272219,"DIS_CODE":0,"TOWNNAME":"北區","LI":"永祥里","LIN":"7鄰","STREET":"實踐街","SECT":" ","MAREA":" ","LANE":"３９巷","ALLEY":" ","HOUSE_NO":"２０號","E_COORD97":169906.20000000001,"N_COORD97":2546109.6899999999,"ADDRESS":"實踐街３９巷２０號","OBJECTID":272214},"geometry":{"x":169906.20000000112,"y":2546109.6899999995}},{"attributes":{"ID":272220,"DIS_CODE":0,"TOWNNAME":"北區","LI":"永祥里","LIN":"7鄰","STREET":"實踐街","SECT":" ","MAREA":" ","LANE":"３９巷","ALLEY":" ","HOUSE_NO":"２２號","E_COORD97":169906.42000000001,"N_COORD97":2546114.6400000001,"ADDRESS":"實踐街３９巷２２號","OBJECTID":272215},"geometry":{"x":169906.41999999993,"y":2546114.6400000006}},{"attributes":{"ID":272221,"DIS_CODE":0,"TOWNNAME":"北區","LI":"永祥里","LIN":"7鄰","STREET":"實踐街","SECT":" ","MAREA":" ","LANE":"３９巷","ALLEY":" ","HOUSE_NO":"２４號","E_COORD97":169906.42000000001,"N_COORD97":2546119.25,"ADDRESS":"實踐街３９巷２４號","OBJECTID":272216},"geometry":{"x":169906.41999999993,"y":2546119.2500000019}},{"attributes":{"ID":272222,"DIS_CODE":0,"TOWNNAME":"仁德區","LI":"土庫里","LIN":"3鄰","STREET":"土庫三街","SECT":" ","MAREA":" ","LANE":" ","ALLEY":" ","HOUSE_NO":"８６號","E_COORD97":174320.67999999999,"N_COORD97":2543063.7400000002,"ADDRESS":"土庫三街８６號","OBJECTID":272217},"geometry":{"x":174320.6799999997,"y":2543063.7400000021}},{"attributes":{"ID":272223,"DIS_CODE":0,"TOWNNAME":"仁德區","LI":"大甲里","LIN":"3鄰","STREET":"行大一街","SECT":" ","MAREA":" ","LANE":" ","ALLEY":" ","HOUSE_NO":"２０６號","E_COORD97":169792.01999999999,"N_COORD97":2535033.5,"ADDRESS":"行大一街２０６號","OBJECTID":272218},"geometry":{"x":169792.01999999955,"y":2535033.5000000019}},{"attributes":{"ID":272224,"DIS_CODE":0,"TOWNNAME":"仁德區","LI":"大甲里","LIN":"3鄰","STREET":"行大一街","SECT":" ","MAREA":" ","LANE":" ","ALLEY":" ","HOUSE_NO":"１８８之１號","E_COORD97":169828.23999999999,"N_COORD97":2535022.0499999998,"ADDRESS":"行大一街１８８之１號","OBJECTID":272219},"geometry":{"x":169828.24000000115,"y":2535022.0500000007}},{"attributes":{"ID":272225,"DIS_CODE":0,"TOWNNAME":"仁德區","LI":"土庫里","LIN":"3鄰","STREET":"土庫路","SECT":" ","MAREA":" ","LANE":" ","ALLEY":" ","HOUSE_NO":"１１６號","E_COORD97":174344.98999999999,"N_COORD97":2543040.9900000002,"ADDRESS":"土庫路１１６號","OBJECTID":272220},"geometry":{"x":174344.98999999929,"y":2543040.9900000002}},{"attributes":{"ID":272226,"DIS_CODE":0,"TOWNNAME":"善化區","LI":"文昌里","LIN":"13鄰","STREET":"大信路","SECT":" ","MAREA":" ","LANE":" ","ALLEY":" ","HOUSE_NO":"２８號","E_COORD97":177537.26999999999,"N_COORD97":2558861.75,"ADDRESS":"大信路２８號","OBJECTID":272221},"geometry":{"x":177537.26999999955,"y":2558861.75}},{"attributes":{"ID":272227,"DIS_CODE":0,"TOWNNAME":"將軍區","LI":"仁和里","LIN":"3鄰","STREET":" ","SECT":" ","MAREA":"仁巷","LANE":" ","ALLEY":" ","HOUSE_NO":"２４號","E_COORD97":164069.38,"N_COORD97":2569317.5099999998,"ADDRESS":"仁巷２４號","OBJECTID":272222},"geometry":{"x":164069.38000000175,"y":2569317.5100000016}},{"attributes":{"ID":272228,"DIS_CODE":0,"TOWNNAME":"官田區","LI":"東庄里","LIN":"3鄰","STREET":" ","SECT":" ","MAREA":"西庄","LANE":" ","ALLEY":" ","HOUSE_NO":"１２１號之６","E_COORD97":177927.66,"N_COORD97":2565274.27,"ADDRESS":"西庄１２１號之６","OBJECTID":272223},"geometry":{"x":177927.66000000108,"y":2565274.2700000014}},{"attributes":{"ID":272229,"DIS_CODE":0,"TOWNNAME":"官田區","LI":"東庄里","LIN":"3鄰","STREET":" ","SECT":" ","MAREA":"西庄","LANE":" ","ALLEY":" ","HOUSE_NO":"１２１號之７","E_COORD97":177935.31,"N_COORD97":2565269.6400000001,"ADDRESS":"西庄１２１號之７","OBJECTID":272224},"geometry":{"x":177935.30999999959,"y":2565269.6400000025}},{"attributes":{"ID":272230,"DIS_CODE":0,"TOWNNAME":"官田區","LI":"東庄里","LIN":"3鄰","STREET":" ","SECT":" ","MAREA":"西庄","LANE":" ","ALLEY":" ","HOUSE_NO":"１２１號之８","E_COORD97":177945.01999999999,"N_COORD97":2565267.3799999999,"ADDRESS":"西庄１２１號之８","OBJECTID":272225},"geometry":{"x":177945.02000000048,"y":2565267.379999999}},{"attributes":{"ID":272231,"DIS_CODE":0,"TOWNNAME":"仁德區","LI":"土庫里","LIN":"3鄰","STREET":"土庫路","SECT":" ","MAREA":" ","LANE":" ","ALLEY":" ","HOUSE_NO":"１８４號","E_COORD97":174254.89999999999,"N_COORD97":2542886.75,"ADDRESS":"土庫路１８４號","OBJECTID":272226},"geometry":{"x":174254.9000000013,"y":2542886.7500000037}},{"attributes":{"ID":272232,"DIS_CODE":0,"TOWNNAME":"仁德區","LI":"土庫里","LIN":"3鄰","STREET":"土庫路","SECT":" ","MAREA":" ","LANE":" ","ALLEY":" ","HOUSE_NO":"１８２號","E_COORD97":174261.59,"N_COORD97":2542892.25,"ADDRESS":"土庫路１８２號","OBJECTID":272227},"geometry":{"x":174261.59000000078,"y":2542892.25}},{"attributes":{"ID":272233,"DIS_CODE":0,"TOWNNAME":"北區","LI":"永祥里","LIN":"7鄰","STREET":"實踐街","SECT":" ","MAREA":" ","LANE":"３９巷","ALLEY":" ","HOUSE_NO":"２６號","E_COORD97":169906.85000000001,"N_COORD97":2546124.1899999999,"ADDRESS":"實踐街３９巷２６號","OBJECTID":272228},"geometry":{"x":169906.84999999963,"y":2546124.1899999976}},{"attributes":{"ID":272234,"DIS_CODE":0,"TOWNNAME":"北區","LI":"永祥里","LIN":"7鄰","STREET":"實踐街","SECT":" ","MAREA":" ","LANE":"３９巷","ALLEY":" ","HOUSE_NO":"２８號","E_COORD97":169906.92999999999,"N_COORD97":2546129.3599999999,"ADDRESS":"實踐街３９巷２８號","OBJECTID":272229},"geometry":{"x":169906.93000000156,"y":2546129.3599999994}},{"attributes":{"ID":272235,"DIS_CODE":0,"TOWNNAME":"北區","LI":"永祥里","LIN":"7鄰","STREET":"實踐街","SECT":" ","MAREA":" ","LANE":"３９巷","ALLEY":" ","HOUSE_NO":"３０號","E_COORD97":169907.23000000001,"N_COORD97":2546134.1200000001,"ADDRESS":"實踐街３９巷３０號","OBJECTID":272230},"geometry":{"x":169907.23000000045,"y":2546134.1200000029}},{"attributes":{"ID":272236,"DIS_CODE":0,"TOWNNAME":"北區","LI":"永祥里","LIN":"7鄰","STREET":"實踐街","SECT":" ","MAREA":" ","LANE":"３９巷","ALLEY":" ","HOUSE_NO":"３２號","E_COORD97":169907.67000000001,"N_COORD97":2546139.6499999999,"ADDRESS":"實踐街３９巷３２號","OBJECTID":272231},"geometry":{"x":169907.67000000086,"y":2546139.6500000022}},{"attributes":{"ID":272237,"DIS_CODE":0,"TOWNNAME":"仁德區","LI":"仁義里","LIN":"3鄰","STREET":"仁義四街","SECT":" ","MAREA":" ","LANE":" ","ALLEY":" ","HOUSE_NO":"８３號","E_COORD97":173897.78,"N_COORD97":2541069.02,"ADDRESS":"仁義四街８３號","OBJECTID":272232},"geometry":{"x":173897.78000000119,"y":2541069.0199999996}},{"attributes":{"ID":272238,"DIS_CODE":0,"TOWNNAME":"仁德區","LI":"土庫里","LIN":"3鄰","STREET":"土庫路","SECT":" ","MAREA":" ","LANE":" ","ALLEY":" ","HOUSE_NO":"１８４之１號","E_COORD97":174249.07000000001,"N_COORD97":2542876.79,"ADDRESS":"土庫路１８４之１號","OBJECTID":272233},"geometry":{"x":174249.0700000003,"y":2542876.790000001}},{"attributes":{"ID":272239,"DIS_CODE":0,"TOWNNAME":"北區","LI":"永祥里","LIN":"7鄰","STREET":"實踐街","SECT":" ","MAREA":" ","LANE":"３９巷","ALLEY":" ","HOUSE_NO":"３４號","E_COORD97":169907.67000000001,"N_COORD97":2546144.5899999999,"ADDRESS":"實踐街３９巷３４號","OBJECTID":272234},"geometry":{"x":169907.67000000086,"y":2546144.5899999999}},{"attributes":{"ID":272240,"DIS_CODE":0,"TOWNNAME":"北區","LI":"小康里","LIN":"7鄰","STREET":"實踐街","SECT":" ","MAREA":" ","LANE":"３１巷","ALLEY":" ","HOUSE_NO":"１０號","E_COORD97":169869.82000000001,"N_COORD97":2546109.4399999999,"ADDRESS":"實踐街３１巷１０號","OBJECTID":272235},"geometry":{"x":169869.82000000123,"y":2546109.4400000032}},{"attributes":{"ID":272241,"DIS_CODE":0,"TOWNNAME":"北區","LI":"小康里","LIN":"7鄰","STREET":"實踐街","SECT":" ","MAREA":" ","LANE":"３１巷","ALLEY":" ","HOUSE_NO":"１２號","E_COORD97":169873.60999999999,"N_COORD97":2546116.8199999998,"ADDRESS":"實踐街３１巷１２號","OBJECTID":272236},"geometry":{"x":169873.61000000034,"y":2546116.8200000003}},{"attributes":{"ID":272242,"DIS_CODE":0,"TOWNNAME":"北區","LI":"小康里","LIN":"7鄰","STREET":"實踐街","SECT":" ","MAREA":" ","LANE":"３１巷","ALLEY":" ","HOUSE_NO":"１４號","E_COORD97":169875.69,"N_COORD97":2546123.0699999998,"ADDRESS":"實踐街３１巷１４號","OBJECTID":272237},"geometry":{"x":169875.69000000134,"y":2546123.0700000022}},{"attributes":{"ID":272243,"DIS_CODE":0,"TOWNNAME":"北區","LI":"小康里","LIN":"7鄰","STREET":"實踐街","SECT":" ","MAREA":" ","LANE":"３１巷","ALLEY":" ","HOUSE_NO":"１６號","E_COORD97":169883.64000000001,"N_COORD97":2546161.3199999998,"ADDRESS":"實踐街３１巷１６號","OBJECTID":272238},"geometry":{"x":169883.6400000006,"y":2546161.3200000003}},{"attributes":{"ID":272244,"DIS_CODE":0,"TOWNNAME":"仁德區","LI":"仁義里","LIN":"3鄰","STREET":"仁義四街","SECT":" ","MAREA":" ","LANE":" ","ALLEY":" ","HOUSE_NO":"８５號","E_COORD97":173899.92000000001,"N_COORD97":2541086.5099999998,"ADDRESS":"仁義四街８５號","OBJECTID":272239},"geometry":{"x":173899.92000000086,"y":2541086.5099999998}},{"attributes":{"ID":272245,"DIS_CODE":0,"TOWNNAME":"仁德區","LI":"仁愛里","LIN":"3鄰","STREET":" ","SECT":" ","MAREA":"仁愛","LANE":" ","ALLEY":" ","HOUSE_NO":"４７號","E_COORD97":170320.92490799999,"N_COORD97":2540059.0011900002,"ADDRESS":"仁愛４７號","OBJECTID":272240},"geometry":{"x":170320.92490800004,"y":2540059.0011880044}},{"attributes":{"ID":272246,"DIS_CODE":0,"TOWNNAME":"仁德區","LI":"仁愛里","LIN":"3鄰","STREET":" ","SECT":" ","MAREA":"仁愛","LANE":" ","ALLEY":" ","HOUSE_NO":"４８號","E_COORD97":170316.79373999999,"N_COORD97":2540058.8953499999,"ADDRESS":"仁愛４８號","OBJECTID":272241},"geometry":{"x":170316.79373999964,"y":2540058.895353999}},{"attributes":{"ID":272247,"DIS_CODE":0,"TOWNNAME":"仁德區","LI":"中生里","LIN":"3鄰","STREET":" ","SECT":" ","MAREA":"中洲","LANE":" ","ALLEY":" ","HOUSE_NO":"９４號之２","E_COORD97":173075.54000000001,"N_COORD97":2534334.5499999998,"ADDRESS":"中洲９４號之２","OBJECTID":272242},"geometry":{"x":173075.54000000097,"y":2534334.5500000007}},{"attributes":{"ID":272248,"DIS_CODE":0,"TOWNNAME":"仁德區","LI":"中生里","LIN":"3鄰","STREET":" ","SECT":" ","MAREA":"中洲","LANE":" ","ALLEY":" ","HOUSE_NO":"９４號之１０","E_COORD97":173062.75,"N_COORD97":2534332.5499999998,"ADDRESS":"中洲９４號之１０","OBJECTID":272243},"geometry":{"x":173062.75,"y":2534332.5500000026}},{"attributes":{"ID":272249,"DIS_CODE":0,"TOWNNAME":"仁德區","LI":"中生里","LIN":"3鄰","STREET":" ","SECT":" ","MAREA":"中洲","LANE":" ","ALLEY":" ","HOUSE_NO":"９３號之３７","E_COORD97":173016.98000000001,"N_COORD97":2534461.04,"ADDRESS":"中洲９３號之３７","OBJECTID":272244},"geometry":{"x":173016.98000000138,"y":2534461.0399999991}},{"attributes":{"ID":272250,"DIS_CODE":0,"TOWNNAME":"仁德區","LI":"中生里","LIN":"3鄰","STREET":" ","SECT":" ","MAREA":"中洲","LANE":" ","ALLEY":" ","HOUSE_NO":"１０１號","E_COORD97":173025.91,"N_COORD97":2534242.7400000002,"ADDRESS":"中洲１０１號","OBJECTID":272245},"geometry":{"x":173025.91000000015,"y":2534242.7400000021}},{"attributes":{"ID":272251,"DIS_CODE":0,"TOWNNAME":"仁德區","LI":"中生里","LIN":"3鄰","STREET":" ","SECT":" ","MAREA":"中洲","LANE":" ","ALLEY":" ","HOUSE_NO":"９７號","E_COORD97":173006.04000000001,"N_COORD97":2534314.5,"ADDRESS":"中洲９７號","OBJECTID":272246},"geometry":{"x":173006.04000000097,"y":2534314.5000000019}},{"attributes":{"ID":272252,"DIS_CODE":0,"TOWNNAME":"仁德區","LI":"中生里","LIN":"3鄰","STREET":" ","SECT":" ","MAREA":"中洲","LANE":" ","ALLEY":" ","HOUSE_NO":"１０３號","E_COORD97":173031.57000000001,"N_COORD97":2534244.2400000002,"ADDRESS":"中洲１０３號","OBJECTID":272247},"geometry":{"x":173031.57000000123,"y":2534244.2400000002}},{"attributes":{"ID":272253,"DIS_CODE":0,"TOWNNAME":"學甲區","LI":"新榮里","LIN":"2鄰","STREET":" ","SECT":" ","MAREA":"東寮","LANE":" ","ALLEY":" ","HOUSE_NO":"１９號","E_COORD97":166826.47,"N_COORD97":2569588.5899999999,"ADDRESS":"東寮１９號","OBJECTID":272248},"geometry":{"x":166826.46999999881,"y":2569588.5900000017}},{"attributes":{"ID":272254,"DIS_CODE":0,"TOWNNAME":"仁德區","LI":"中洲里","LIN":"3鄰","STREET":" ","SECT":" ","MAREA":"中洲","LANE":" ","ALLEY":" ","HOUSE_NO":"２８之１２號","E_COORD97":173217.23000000001,"N_COORD97":2534399.7999999998,"ADDRESS":"中洲２８之１２號","OBJECTID":272249},"geometry":{"x":173217.23000000138,"y":2534399.8000000007}},{"attributes":{"ID":272255,"DIS_CODE":0,"TOWNNAME":"北區","LI":"小康里","LIN":"7鄰","STREET":"實踐街","SECT":" ","MAREA":" ","LANE":"３１巷","ALLEY":" ","HOUSE_NO":"２號","E_COORD97":169862.42999999999,"N_COORD97":2546077.8399999999,"ADDRESS":"實踐街３１巷２號","OBJECTID":272250},"geometry":{"x":169862.4299999997,"y":2546077.8400000017}},{"attributes":{"ID":272256,"DIS_CODE":0,"TOWNNAME":"北區","LI":"小康里","LIN":"7鄰","STREET":"實踐街","SECT":" ","MAREA":" ","LANE":"３１巷","ALLEY":" ","HOUSE_NO":"４號","E_COORD97":169865.45999999999,"N_COORD97":2546087.6800000002,"ADDRESS":"實踐街３１巷４號","OBJECTID":272251},"geometry":{"x":169865.46000000089,"y":2546087.6800000034}},{"attributes":{"ID":272257,"DIS_CODE":0,"TOWNNAME":"北區","LI":"小康里","LIN":"7鄰","STREET":"實踐街","SECT":" ","MAREA":" ","LANE":"３１巷","ALLEY":" ","HOUSE_NO":"６號","E_COORD97":169867.17999999999,"N_COORD97":2546092.73,"ADDRESS":"實踐街３１巷６號","OBJECTID":272252},"geometry":{"x":169867.1799999997,"y":2546092.7300000023}},{"attributes":{"ID":272258,"DIS_CODE":0,"TOWNNAME":"北區","LI":"小康里","LIN":"7鄰","STREET":"實踐街","SECT":" ","MAREA":" ","LANE":"３１巷","ALLEY":" ","HOUSE_NO":"８號","E_COORD97":169867.35999999999,"N_COORD97":2546095.25,"ADDRESS":"實踐街３１巷８號","OBJECTID":272253},"geometry":{"x":169867.3600000022,"y":2546095.2500000019}},{"attributes":{"ID":272259,"DIS_CODE":0,"TOWNNAME":"北區","LI":"小康里","LIN":"7鄰","STREET":"實踐街","SECT":" ","MAREA":" ","LANE":"３９巷","ALLEY":" ","HOUSE_NO":"１１號","E_COORD97":169887.04999999999,"N_COORD97":2546083.8999999999,"ADDRESS":"實踐街３９巷１１號","OBJECTID":272254},"geometry":{"x":169887.04999999981,"y":2546083.9000000022}},{"attributes":{"ID":272260,"DIS_CODE":0,"TOWNNAME":"北區","LI":"小康里","LIN":"7鄰","STREET":"實踐街","SECT":" ","MAREA":" ","LANE":"３９巷","ALLEY":" ","HOUSE_NO":"１３號","E_COORD97":169893.10999999999,"N_COORD97":2546099.04,"ADDRESS":"實踐街３９巷１３號","OBJECTID":272255},"geometry":{"x":169893.11000000127,"y":2546099.040000001}},{"attributes":{"ID":272261,"DIS_CODE":0,"TOWNNAME":"北區","LI":"小康里","LIN":"7鄰","STREET":"實踐街","SECT":" ","MAREA":" ","LANE":"３９巷","ALLEY":" ","HOUSE_NO":"１３號之１","E_COORD97":169893.10999999999,"N_COORD97":2546103.77,"ADDRESS":"實踐街３９巷１３號之１","OBJECTID":272256},"geometry":{"x":169893.11000000127,"y":2546103.7700000033}},{"attributes":{"ID":272262,"DIS_CODE":0,"TOWNNAME":"北區","LI":"小康里","LIN":"7鄰","STREET":"實踐街","SECT":" ","MAREA":" ","LANE":"３９巷","ALLEY":" ","HOUSE_NO":"１３號之２","E_COORD97":169894.06,"N_COORD97":2546111.1499999999,"ADDRESS":"實踐街３９巷１３號之２","OBJECTID":272257},"geometry":{"x":169894.06000000145,"y":2546111.1500000004}},{"attributes":{"ID":272263,"DIS_CODE":0,"TOWNNAME":"北區","LI":"小康里","LIN":"7鄰","STREET":"實踐街","SECT":" ","MAREA":" ","LANE":"３９巷","ALLEY":" ","HOUSE_NO":"１５號","E_COORD97":169893.29999999999,"N_COORD97":2546131.3999999999,"ADDRESS":"實踐街３９巷１５號","OBJECTID":272258},"geometry":{"x":169893.30000000075,"y":2546131.4000000022}},{"attributes":{"ID":272264,"DIS_CODE":0,"TOWNNAME":"新營區","LI":"忠政里","LIN":"7鄰","STREET":"中正路","SECT":" ","MAREA":" ","LANE":"３５巷","ALLEY":" ","HOUSE_NO":"２１號之３","E_COORD97":179992.32000000001,"N_COORD97":2579093.3100000001,"ADDRESS":"中正路３５巷２１號之３","OBJECTID":272259},"geometry":{"x":179992.3200000003,"y":2579093.3100000024}},{"attributes":{"ID":272265,"DIS_CODE":0,"TOWNNAME":"南區","LI":"新興里","LIN":"7鄰","STREET":"健康路","SECT":"二段","MAREA":" ","LANE":"５３巷","ALLEY":" ","HOUSE_NO":"４５號","E_COORD97":167579.17000000001,"N_COORD97":2542342.7799999998,"ADDRESS":"健康路二段５３巷４５號","OBJECTID":272260},"geometry":{"x":167579.16999999993,"y":2542342.7799999993}},{"attributes":{"ID":272266,"DIS_CODE":0,"TOWNNAME":"南區","LI":"新興里","LIN":"7鄰","STREET":"健康路","SECT":"二段","MAREA":" ","LANE":"５３巷","ALLEY":" ","HOUSE_NO":"４７號","E_COORD97":167573.62,"N_COORD97":2542339.5699999998,"ADDRESS":"健康路二段５３巷４７號","OBJECTID":272261},"geometry":{"x":167573.62000000197,"y":2542339.5700000022}},{"attributes":{"ID":272267,"DIS_CODE":0,"TOWNNAME":"南區","LI":"新興里","LIN":"7鄰","STREET":"健康路","SECT":"二段","MAREA":" ","LANE":"５３巷","ALLEY":" ","HOUSE_NO":"４號","E_COORD97":167572.20999999999,"N_COORD97":2542418.2599999998,"ADDRESS":"健康路二段５３巷４號","OBJECTID":272262},"geometry":{"x":167572.20999999996,"y":2542418.2599999998}},{"attributes":{"ID":272268,"DIS_CODE":0,"TOWNNAME":"北區","LI":"延平里","LIN":"7鄰","STREET":"公園路","SECT":" ","MAREA":" ","LANE":"７７２巷","ALLEY":" ","HOUSE_NO":"１７號","E_COORD97":169204.44,"N_COORD97":2545726.3700000001,"ADDRESS":"公園路７７２巷１７號","OBJECTID":272263},"geometry":{"x":169204.44000000134,"y":2545726.3700000029}},{"attributes":{"ID":272269,"DIS_CODE":0,"TOWNNAME":"北區","LI":"延平里","LIN":"7鄰","STREET":"公園路","SECT":" ","MAREA":" ","LANE":"７７２巷","ALLEY":" ","HOUSE_NO":"１９號","E_COORD97":169209.20999999999,"N_COORD97":2545725.1099999999,"ADDRESS":"公園路７７２巷１９號","OBJECTID":272264},"geometry":{"x":169209.21000000089,"y":2545725.1100000031}},{"attributes":{"ID":272270,"DIS_CODE":0,"TOWNNAME":"安平區","LI":"國平里","LIN":"7鄰","STREET":"建平三街","SECT":" ","MAREA":" ","LANE":"２１６巷","ALLEY":" ","HOUSE_NO":"９號","E_COORD97":165409.23999999999,"N_COORD97":2543004.96,"ADDRESS":"建平三街２１６巷９號","OBJECTID":272265},"geometry":{"x":165409.24000000022,"y":2543004.9600000046}},{"attributes":{"ID":272271,"DIS_CODE":0,"TOWNNAME":"安平區","LI":"金城里","LIN":"7鄰","STREET":"同平路","SECT":" ","MAREA":" ","LANE":"９６巷","ALLEY":" ","HOUSE_NO":"２４號","E_COORD97":163091.26000000001,"N_COORD97":2544220.4199999999,"ADDRESS":"同平路９６巷２４號","OBJECTID":272266},"geometry":{"x":163091.25999999978,"y":2544220.4199999999}},{"attributes":{"ID":272272,"DIS_CODE":0,"TOWNNAME":"安平區","LI":"金城里","LIN":"7鄰","STREET":"同平路","SECT":" ","MAREA":" ","LANE":"９６巷","ALLEY":" ","HOUSE_NO":"２９號","E_COORD97":163082.37,"N_COORD97":2544205.7400000002,"ADDRESS":"同平路９６巷２９號","OBJECTID":272267},"geometry":{"x":163082.37000000011,"y":2544205.7399999984}},{"attributes":{"ID":272273,"DIS_CODE":0,"TOWNNAME":"北區","LI":"東興里","LIN":"7鄰","STREET":"小東路","SECT":" ","MAREA":" ","LANE":"３０７巷","ALLEY":" ","HOUSE_NO":"３１號","E_COORD97":171171.97,"N_COORD97":2544465.8900000001,"ADDRESS":"小東路３０７巷３１號","OBJECTID":272268},"geometry":{"x":171171.97000000067,"y":2544465.8900000006}},{"attributes":{"ID":272274,"DIS_CODE":0,"TOWNNAME":"北區","LI":"東興里","LIN":"7鄰","STREET":"小東路","SECT":" ","MAREA":" ","LANE":"３０７巷","ALLEY":" ","HOUSE_NO":"３３號","E_COORD97":171171.48999999999,"N_COORD97":2544469.5899999999,"ADDRESS":"小東路３０７巷３３號","OBJECTID":272269},"geometry":{"x":171171.49000000022,"y":2544469.5899999999}},{"attributes":{"ID":272275,"DIS_CODE":0,"TOWNNAME":"北區","LI":"東興里","LIN":"7鄰","STREET":"小東路","SECT":" ","MAREA":" ","LANE":"３０７巷","ALLEY":" ","HOUSE_NO":"３５號","E_COORD97":171170.51000000001,"N_COORD97":2544473.6699999999,"ADDRESS":"小東路３０７巷３５號","OBJECTID":272270},"geometry":{"x":171170.50999999978,"y":2544473.6699999981}},{"attributes":{"ID":272276,"DIS_CODE":0,"TOWNNAME":"北區","LI":"東興里","LIN":"7鄰","STREET":"小東路","SECT":" ","MAREA":" ","LANE":"３０７巷","ALLEY":" ","HOUSE_NO":"３７號","E_COORD97":171169.14999999999,"N_COORD97":2544477.27,"ADDRESS":"小東路３０７巷３７號","OBJECTID":272271},"geometry":{"x":171169.15000000224,"y":2544477.2700000014}},{"attributes":{"ID":272277,"DIS_CODE":0,"TOWNNAME":"北區","LI":"東興里","LIN":"7鄰","STREET":"小東路","SECT":" ","MAREA":" ","LANE":"３０７巷","ALLEY":" ","HOUSE_NO":"３９號","E_COORD97":171166.62,"N_COORD97":2544485.4300000002,"ADDRESS":"小東路３０７巷３９號","OBJECTID":272272},"geometry":{"x":171166.62000000011,"y":2544485.4300000034}},{"attributes":{"ID":272278,"DIS_CODE":0,"TOWNNAME":"北區","LI":"東興里","LIN":"7鄰","STREET":"小東路","SECT":" ","MAREA":" ","LANE":"３０７巷","ALLEY":" ","HOUSE_NO":"３號","E_COORD97":171127.54999999999,"N_COORD97":2544427.25,"ADDRESS":"小東路３０７巷３號","OBJECTID":272273},"geometry":{"x":171127.55000000075,"y":2544427.2500000019}},{"attributes":{"ID":272279,"DIS_CODE":0,"TOWNNAME":"北區","LI":"東興里","LIN":"7鄰","STREET":"小東路","SECT":" ","MAREA":" ","LANE":"３０７巷","ALLEY":" ","HOUSE_NO":"４１號","E_COORD97":171165.94,"N_COORD97":2544488.9300000002,"ADDRESS":"小東路３０７巷４１號","OBJECTID":272274},"geometry":{"x":171165.94000000134,"y":2544488.9300000034}},{"attributes":{"ID":272280,"DIS_CODE":0,"TOWNNAME":"北區","LI":"東興里","LIN":"7鄰","STREET":"小東路","SECT":" ","MAREA":" ","LANE":"３０７巷","ALLEY":" ","HOUSE_NO":"４３號","E_COORD97":171165.45000000001,"N_COORD97":2544493.1099999999,"ADDRESS":"小東路３０７巷４３號","OBJECTID":272275},"geometry":{"x":171165.45000000112,"y":2544493.1099999994}},{"attributes":{"ID":272281,"DIS_CODE":0,"TOWNNAME":"玉井區","LI":"竹圍里","LIN":"7鄰","STREET":"忠孝街","SECT":" ","MAREA":" ","LANE":"４６９巷","ALLEY":" ","HOUSE_NO":"６號","E_COORD97":195734.09,"N_COORD97":2558626.8700000001,"ADDRESS":"忠孝街４６９巷６號","OBJECTID":272276},"geometry":{"x":195734.09000000078,"y":2558626.8700000029}},{"attributes":{"ID":272282,"DIS_CODE":0,"TOWNNAME":"玉井區","LI":"竹圍里","LIN":"7鄰","STREET":"忠孝街","SECT":" ","MAREA":" ","LANE":"４６９巷","ALLEY":" ","HOUSE_NO":"２０號","E_COORD97":195730.81,"N_COORD97":2558649.9199999999,"ADDRESS":"忠孝街４６９巷２０號","OBJECTID":272277},"geometry":{"x":195730.81000000052,"y":2558649.9199999999}},{"attributes":{"ID":272283,"DIS_CODE":0,"TOWNNAME":"學甲區","LI":"明宜里","LIN":"7鄰","STREET":"宮西路","SECT":" ","MAREA":" ","LANE":"６６巷","ALLEY":" ","HOUSE_NO":"２１號之１","E_COORD97":165732.48000000001,"N_COORD97":2570521.7799999998,"ADDRESS":"宮西路６６巷２１號之１","OBJECTID":272278},"geometry":{"x":165732.48000000138,"y":2570521.7800000012}},{"attributes":{"ID":272284,"DIS_CODE":0,"TOWNNAME":"學甲區","LI":"明宜里","LIN":"7鄰","STREET":"宮西路","SECT":" ","MAREA":" ","LANE":"６６巷","ALLEY":" ","HOUSE_NO":"２１號","E_COORD97":165750.16,"N_COORD97":2570500.7599999998,"ADDRESS":"宮西路６６巷２１號","OBJECTID":272279},"geometry":{"x":165750.16000000015,"y":2570500.7599999998}},{"attributes":{"ID":272285,"DIS_CODE":0,"TOWNNAME":"東區","LI":"崇善里","LIN":"15鄰","STREET":"崇善路","SECT":" ","MAREA":" ","LANE":" ","ALLEY":" ","HOUSE_NO":"５７５號","E_COORD97":171047.37,"N_COORD97":2541426.1000000001,"ADDRESS":"崇善路５７５號","OBJECTID":272280},"geometry":{"x":171047.37000000104,"y":2541426.1000000034}},{"attributes":{"ID":272286,"DIS_CODE":0,"TOWNNAME":"仁德區","LI":"土庫里","LIN":"3鄰","STREET":"土庫路","SECT":" ","MAREA":" ","LANE":" ","ALLEY":" ","HOUSE_NO":"１１８號","E_COORD97":174343.98999999999,"N_COORD97":2543037.25,"ADDRESS":"土庫路１１８號","OBJECTID":272281},"geometry":{"x":174343.99000000115,"y":2543037.2500000019}},{"attributes":{"ID":272287,"DIS_CODE":0,"TOWNNAME":"仁德區","LI":"中生里","LIN":"3鄰","STREET":" ","SECT":" ","MAREA":"中洲","LANE":" ","ALLEY":" ","HOUSE_NO":"９３號之３３","E_COORD97":173034.78,"N_COORD97":2534445.29,"ADDRESS":"中洲９３號之３３","OBJECTID":272282},"geometry":{"x":173034.78000000119,"y":2534445.2899999991}},{"attributes":{"ID":272288,"DIS_CODE":0,"TOWNNAME":"學甲區","LI":"明宜里","LIN":"7鄰","STREET":"宮西路","SECT":" ","MAREA":" ","LANE":"６６巷","ALLEY":" ","HOUSE_NO":"２３號","E_COORD97":165751.73999999999,"N_COORD97":2570505.6699999999,"ADDRESS":"宮西路６６巷２３號","OBJECTID":272283},"geometry":{"x":165751.74000000022,"y":2570505.6700000018}},{"attributes":{"ID":272289,"DIS_CODE":0,"TOWNNAME":"學甲區","LI":"明宜里","LIN":"7鄰","STREET":"宮西路","SECT":" ","MAREA":" ","LANE":"６６巷","ALLEY":" ","HOUSE_NO":"２５號","E_COORD97":165752.84,"N_COORD97":2570510,"ADDRESS":"宮西路６６巷２５號","OBJECTID":272284},"geometry":{"x":165752.84000000171,"y":2570510.0000000037}},{"attributes":{"ID":272290,"DIS_CODE":0,"TOWNNAME":"學甲區","LI":"明宜里","LIN":"7鄰","STREET":"宮西路","SECT":" ","MAREA":" ","LANE":"６６巷","ALLEY":" ","HOUSE_NO":"２７號","E_COORD97":165753.75,"N_COORD97":2570515,"ADDRESS":"宮西路６６巷２７號","OBJECTID":272285},"geometry":{"x":165753.75000000093,"y":2570515}},{"attributes":{"ID":272291,"DIS_CODE":0,"TOWNNAME":"學甲區","LI":"明宜里","LIN":"7鄰","STREET":"宮西路","SECT":" ","MAREA":" ","LANE":"６６巷","ALLEY":" ","HOUSE_NO":"２９號","E_COORD97":165755.20999999999,"N_COORD97":2570519.4900000002,"ADDRESS":"宮西路６６巷２９號","OBJECTID":272286},"geometry":{"x":165755.20999999996,"y":2570519.4900000002}},{"attributes":{"ID":272292,"DIS_CODE":0,"TOWNNAME":"學甲區","LI":"明宜里","LIN":"7鄰","STREET":"宮西路","SECT":" ","MAREA":" ","LANE":"６６巷","ALLEY":" ","HOUSE_NO":"３號之１","E_COORD97":165725.35999999999,"N_COORD97":2570448.0499999998,"ADDRESS":"宮西路６６巷３號之１","OBJECTID":272287},"geometry":{"x":165725.36000000034,"y":2570448.0500000007}},{"attributes":{"ID":272293,"DIS_CODE":0,"TOWNNAME":"學甲區","LI":"明宜里","LIN":"7鄰","STREET":"宮西路","SECT":" ","MAREA":" ","LANE":"６６巷","ALLEY":" ","HOUSE_NO":"３號","E_COORD97":165747.76999999999,"N_COORD97":2570453.2000000002,"ADDRESS":"宮西路６６巷３號","OBJECTID":272288},"geometry":{"x":165747.76999999862,"y":2570453.1999999993}},{"attributes":{"ID":272294,"DIS_CODE":0,"TOWNNAME":"學甲區","LI":"明宜里","LIN":"7鄰","STREET":"宮西路","SECT":" ","MAREA":" ","LANE":"６６巷","ALLEY":" ","HOUSE_NO":"５號之１","E_COORD97":165726.89999999999,"N_COORD97":2570454.4700000002,"ADDRESS":"宮西路６６巷５號之１","OBJECTID":272289},"geometry":{"x":165726.90000000037,"y":2570454.4700000025}},{"attributes":{"ID":272295,"DIS_CODE":0,"TOWNNAME":"學甲區","LI":"明宜里","LIN":"7鄰","STREET":"宮西路","SECT":" ","MAREA":" ","LANE":"６６巷","ALLEY":" ","HOUSE_NO":"５號","E_COORD97":165746.76999999999,"N_COORD97":2570457.9500000002,"ADDRESS":"宮西路６６巷５號","OBJECTID":272290},"geometry":{"x":165746.77000000048,"y":2570457.9499999993}},{"attributes":{"ID":272296,"DIS_CODE":0,"TOWNNAME":"學甲區","LI":"明宜里","LIN":"7鄰","STREET":"宮西路","SECT":" ","MAREA":" ","LANE":"６６巷","ALLEY":" ","HOUSE_NO":"７號之１","E_COORD97":165726,"N_COORD97":2570463.6899999999,"ADDRESS":"宮西路６６巷７號之１","OBJECTID":272291},"geometry":{"x":165726,"y":2570463.6899999995}},{"attributes":{"ID":272297,"DIS_CODE":0,"TOWNNAME":"學甲區","LI":"明宜里","LIN":"7鄰","STREET":"宮西路","SECT":" ","MAREA":" ","LANE":"６６巷","ALLEY":" ","HOUSE_NO":"７號","E_COORD97":165745.64999999999,"N_COORD97":2570463.0699999998,"ADDRESS":"宮西路６６巷７號","OBJECTID":272292},"geometry":{"x":165745.65000000037,"y":2570463.0700000022}},{"attributes":{"ID":272298,"DIS_CODE":0,"TOWNNAME":"學甲區","LI":"明宜里","LIN":"7鄰","STREET":"宮西路","SECT":" ","MAREA":" ","LANE":"６６巷","ALLEY":" ","HOUSE_NO":"９號之１","E_COORD97":165726.41,"N_COORD97":2570473.8199999998,"ADDRESS":"宮西路６６巷９號之１","OBJECTID":272293},"geometry":{"x":165726.41000000015,"y":2570473.8200000003}},{"attributes":{"ID":272299,"DIS_CODE":0,"TOWNNAME":"學甲區","LI":"明宜里","LIN":"7鄰","STREET":"宮西路","SECT":" ","MAREA":" ","LANE":"６６巷","ALLEY":" ","HOUSE_NO":"９號","E_COORD97":165745.76999999999,"N_COORD97":2570468.1400000001,"ADDRESS":"宮西路６６巷９號","OBJECTID":272294},"geometry":{"x":165745.76999999955,"y":2570468.1400000006}},{"attributes":{"ID":272300,"DIS_CODE":0,"TOWNNAME":"北區","LI":"裕民里","LIN":"7鄰","STREET":"臨安路","SECT":"二段","MAREA":" ","LANE":"５０巷","ALLEY":" ","HOUSE_NO":"１４號","E_COORD97":167694.42999999999,"N_COORD97":2544747.4300000002,"ADDRESS":"臨安路二段５０巷１４號","OBJECTID":272295},"geometry":{"x":167694.4299999997,"y":2544747.4300000016}},{"attributes":{"ID":272301,"DIS_CODE":0,"TOWNNAME":"北區","LI":"裕民里","LIN":"7鄰","STREET":"臨安路","SECT":"二段","MAREA":" ","LANE":"５０巷","ALLEY":" ","HOUSE_NO":"１６號","E_COORD97":167697.67999999999,"N_COORD97":2544746.29,"ADDRESS":"臨安路二段５０巷１６號","OBJECTID":272296},"geometry":{"x":167697.6799999997,"y":2544746.2899999991}},{"attributes":{"ID":272302,"DIS_CODE":0,"TOWNNAME":"北區","LI":"裕民里","LIN":"7鄰","STREET":"臨安路","SECT":"二段","MAREA":" ","LANE":"５０巷","ALLEY":" ","HOUSE_NO":"１８號","E_COORD97":167701.70000000001,"N_COORD97":2544744.9500000002,"ADDRESS":"臨安路二段５０巷１８號","OBJECTID":272297},"geometry":{"x":167701.70000000019,"y":2544744.9499999993}},{"attributes":{"ID":272303,"DIS_CODE":0,"TOWNNAME":"北區","LI":"裕民里","LIN":"7鄰","STREET":"臨安路","SECT":"二段","MAREA":" ","LANE":"５０巷","ALLEY":" ","HOUSE_NO":"２０號","E_COORD97":167706.10000000001,"N_COORD97":2544743.23,"ADDRESS":"臨安路二段５０巷２０號","OBJECTID":272298},"geometry":{"x":167706.10000000056,"y":2544743.2300000023}},{"attributes":{"ID":272304,"DIS_CODE":0,"TOWNNAME":"北區","LI":"裕民里","LIN":"7鄰","STREET":"臨安路","SECT":"二段","MAREA":" ","LANE":"５０巷","ALLEY":" ","HOUSE_NO":"２號","E_COORD97":167650.62,"N_COORD97":2544761.8100000001,"ADDRESS":"臨安路二段５０巷２號","OBJECTID":272299},"geometry":{"x":167650.62000000104,"y":2544761.8100000042}},{"attributes":{"ID":272305,"DIS_CODE":0,"TOWNNAME":"北區","LI":"裕民里","LIN":"7鄰","STREET":"臨安路","SECT":"二段","MAREA":" ","LANE":"５０巷","ALLEY":" ","HOUSE_NO":"４號","E_COORD97":167664.39999999999,"N_COORD97":2544758.1800000002,"ADDRESS":"臨安路二段５０巷４號","OBJECTID":272300},"geometry":{"x":167664.40000000037,"y":2544758.1799999978}},{"attributes":{"ID":272306,"DIS_CODE":0,"TOWNNAME":"北區","LI":"裕民里","LIN":"7鄰","STREET":"臨安路","SECT":"二段","MAREA":" ","LANE":"５０巷","ALLEY":" ","HOUSE_NO":"６號","E_COORD97":167676.64000000001,"N_COORD97":2544752.3999999999,"ADDRESS":"臨安路二段５０巷６號","OBJECTID":272301},"geometry":{"x":167676.6400000006,"y":2544752.4000000022}},{"attributes":{"ID":272307,"DIS_CODE":0,"TOWNNAME":"北區","LI":"裕民里","LIN":"7鄰","STREET":"臨安路","SECT":"二段","MAREA":" ","LANE":"５０巷","ALLEY":" ","HOUSE_NO":"８號","E_COORD97":167681.60999999999,"N_COORD97":2544749.7200000002,"ADDRESS":"臨安路二段５０巷８號","OBJECTID":272302},"geometry":{"x":167681.61000000034,"y":2544749.7200000025}},{"attributes":{"ID":272308,"DIS_CODE":0,"TOWNNAME":"北區","LI":"裕民里","LIN":"7鄰","STREET":"臨安路","SECT":"二段","MAREA":" ","LANE":"６８巷","ALLEY":" ","HOUSE_NO":"１０號","E_COORD97":167657.13,"N_COORD97":2544739.2599999998,"ADDRESS":"臨安路二段６８巷１０號","OBJECTID":272303},"geometry":{"x":167657.12999999989,"y":2544739.2600000016}},{"attributes":{"ID":272309,"DIS_CODE":0,"TOWNNAME":"北區","LI":"裕民里","LIN":"7鄰","STREET":"臨安路","SECT":"二段","MAREA":" ","LANE":"６８巷","ALLEY":" ","HOUSE_NO":"２１號","E_COORD97":167674.73000000001,"N_COORD97":2544745.52,"ADDRESS":"臨安路二段６８巷２１號","OBJECTID":272304},"geometry":{"x":167674.72999999952,"y":2544745.5199999977}},{"attributes":{"ID":272310,"DIS_CODE":0,"TOWNNAME":"北區","LI":"裕民里","LIN":"7鄰","STREET":"臨安路","SECT":"二段","MAREA":" ","LANE":"６８巷","ALLEY":" ","HOUSE_NO":"２３號","E_COORD97":167678.94,"N_COORD97":2544744.1800000002,"ADDRESS":"臨安路二段６８巷２３號","OBJECTID":272305},"geometry":{"x":167678.94000000134,"y":2544744.1799999997}},{"attributes":{"ID":272311,"DIS_CODE":0,"TOWNNAME":"北區","LI":"裕民里","LIN":"7鄰","STREET":"臨安路","SECT":"二段","MAREA":" ","LANE":"６８巷","ALLEY":" ","HOUSE_NO":"２５號","E_COORD97":167684.48000000001,"N_COORD97":2544740.75,"ADDRESS":"臨安路二段６８巷２５號","OBJECTID":272306},"geometry":{"x":167684.48000000045,"y":2544740.75}},{"attributes":{"ID":272312,"DIS_CODE":0,"TOWNNAME":"善化區","LI":"文昌里","LIN":"13鄰","STREET":"永福路","SECT":" ","MAREA":" ","LANE":" ","ALLEY":" ","HOUSE_NO":"５１號","E_COORD97":177512.60000000001,"N_COORD97":2558861.75,"ADDRESS":"永福路５１號","OBJECTID":272307},"geometry":{"x":177512.60000000056,"y":2558861.75}},{"attributes":{"ID":272313,"DIS_CODE":0,"TOWNNAME":"善化區","LI":"文正里","LIN":" ","STREET":"興農路","SECT":" ","MAREA":" ","LANE":" ","ALLEY":" ","HOUSE_NO":"２３８號","E_COORD97":175818.57999999999,"N_COORD97":2559078.0099999998,"ADDRESS":"興農路２３８號","OBJECTID":272308},"geometry":{"x":175818.58000000007,"y":2559078.0100000016}},{"attributes":{"ID":272314,"DIS_CODE":0,"TOWNNAME":"善化區","LI":"光文里","LIN":"13鄰","STREET":"仁愛路","SECT":" ","MAREA":" ","LANE":" ","ALLEY":" ","HOUSE_NO":"９０號","E_COORD97":178484.47,"N_COORD97":2559107.2599999998,"ADDRESS":"仁愛路９０號","OBJECTID":272309},"geometry":{"x":178484.4700000016,"y":2559107.2600000016}},{"attributes":{"ID":272315,"DIS_CODE":0,"TOWNNAME":"善化區","LI":"文昌里","LIN":"15鄰","STREET":"文昌路","SECT":" ","MAREA":" ","LANE":" ","ALLEY":" ","HOUSE_NO":"５號","E_COORD97":177585.64000000001,"N_COORD97":2558801.7799999998,"ADDRESS":"文昌路５號","OBJECTID":272310},"geometry":{"x":177585.63999999966,"y":2558801.7800000012}},{"attributes":{"ID":272316,"DIS_CODE":0,"TOWNNAME":"善化區","LI":"文正里","LIN":"5鄰","STREET":"文正路","SECT":" ","MAREA":" ","LANE":" ","ALLEY":" ","HOUSE_NO":"７５號","E_COORD97":177165.25,"N_COORD97":2559319.5299999998,"ADDRESS":"文正路７５號","OBJECTID":272311},"geometry":{"x":177165.25,"y":2559319.5299999993}},{"attributes":{"ID":272317,"DIS_CODE":0,"TOWNNAME":"善化區","LI":"文昌里","LIN":"13鄰","STREET":"大信路","SECT":" ","MAREA":" ","LANE":" ","ALLEY":" ","HOUSE_NO":"３２號","E_COORD97":177539.63,"N_COORD97":2558853.5,"ADDRESS":"大信路３２號","OBJECTID":272312},"geometry":{"x":177539.63000000082,"y":2558853.4999999981}},{"attributes":{"ID":272318,"DIS_CODE":0,"TOWNNAME":"善化區","LI":"文昌里","LIN":"18鄰","STREET":"興華路","SECT":" ","MAREA":" ","LANE":" ","ALLEY":" ","HOUSE_NO":"３１５號","E_COORD97":177751.88,"N_COORD97":2558489.5,"ADDRESS":"興華路３１５號","OBJECTID":272313},"geometry":{"x":177751.88000000082,"y":2558489.5}},{"attributes":{"ID":272319,"DIS_CODE":0,"TOWNNAME":"善化區","LI":"文昌里","LIN":"18鄰","STREET":"興華路","SECT":" ","MAREA":" ","LANE":" ","ALLEY":" ","HOUSE_NO":"３２１號","E_COORD97":177740.14000000001,"N_COORD97":2558488.75,"ADDRESS":"興華路３２１號","OBJECTID":272314},"geometry":{"x":177740.13999999966,"y":2558488.75}},{"attributes":{"ID":272320,"DIS_CODE":0,"TOWNNAME":"善化區","LI":"文正里","LIN":" ","STREET":"興農路","SECT":" ","MAREA":" ","LANE":" ","ALLEY":" ","HOUSE_NO":"２０２號","E_COORD97":175988.91,"N_COORD97":2559103.0099999998,"ADDRESS":"興農路２０２號","OBJECTID":272315},"geometry":{"x":175988.91000000108,"y":2559103.0099999998}},{"attributes":{"ID":272321,"DIS_CODE":0,"TOWNNAME":"善化區","LI":"文昌里","LIN":"14鄰","STREET":"永福路","SECT":" ","MAREA":" ","LANE":" ","ALLEY":" ","HOUSE_NO":"６號","E_COORD97":177621.07999999999,"N_COORD97":2558920.5,"ADDRESS":"永福路６號","OBJECTID":272316},"geometry":{"x":177621.08000000194,"y":2558920.5}},{"attributes":{"ID":272322,"DIS_CODE":0,"TOWNNAME":"北區","LI":"裕民里","LIN":"7鄰","STREET":"臨安路","SECT":"二段","MAREA":" ","LANE":"６８巷","ALLEY":" ","HOUSE_NO":"２７號","E_COORD97":167681.23000000001,"N_COORD97":2544730.6200000001,"ADDRESS":"臨安路二段６８巷２７號","OBJECTID":272317},"geometry":{"x":167681.23000000045,"y":2544730.6200000029}},{"attributes":{"ID":272323,"DIS_CODE":0,"TOWNNAME":"北區","LI":"裕民里","LIN":"7鄰","STREET":"臨安路","SECT":"二段","MAREA":" ","LANE":"６８巷","ALLEY":" ","HOUSE_NO":"２９號","E_COORD97":167676.26000000001,"N_COORD97":2544733.8700000001,"ADDRESS":"臨安路二段６８巷２９號","OBJECTID":272318},"geometry":{"x":167676.26000000071,"y":2544733.870000001}},{"attributes":{"ID":272324,"DIS_CODE":0,"TOWNNAME":"北區","LI":"裕民里","LIN":"7鄰","STREET":"臨安路","SECT":"二段","MAREA":" ","LANE":"５０巷","ALLEY":" ","HOUSE_NO":"１２號","E_COORD97":167688.69,"N_COORD97":2544747.6200000001,"ADDRESS":"臨安路二段５０巷１２號","OBJECTID":272319},"geometry":{"x":167688.69000000227,"y":2544747.6200000029}},{"attributes":{"ID":272325,"DIS_CODE":0,"TOWNNAME":"北區","LI":"正覺里","LIN":"7鄰","STREET":"西門路","SECT":"四段","MAREA":" ","LANE":"４３０巷","ALLEY":" ","HOUSE_NO":"１７號","E_COORD97":169134.73000000001,"N_COORD97":2546196.6200000001,"ADDRESS":"西門路四段４３０巷１７號","OBJECTID":272320},"geometry":{"x":169134.73000000138,"y":2546196.620000001}},{"attributes":{"ID":272326,"DIS_CODE":0,"TOWNNAME":"北區","LI":"正覺里","LIN":"7鄰","STREET":"西門路","SECT":"四段","MAREA":" ","LANE":"４３０巷","ALLEY":" ","HOUSE_NO":"１９號","E_COORD97":169141.84,"N_COORD97":2546192.3799999999,"ADDRESS":"西門路四段４３０巷１９號","OBJECTID":272321},"geometry":{"x":169141.84000000078,"y":2546192.379999999}},{"attributes":{"ID":272327,"DIS_CODE":0,"TOWNNAME":"北區","LI":"正覺里","LIN":"7鄰","STREET":"西門路","SECT":"四段","MAREA":" ","LANE":"４３０巷","ALLEY":" ","HOUSE_NO":"２１號","E_COORD97":169148.67999999999,"N_COORD97":2546188.2200000002,"ADDRESS":"西門路四段４３０巷２１號","OBJECTID":272322},"geometry":{"x":169148.6799999997,"y":2546188.2200000025}},{"attributes":{"ID":272328,"DIS_CODE":0,"TOWNNAME":"北區","LI":"正覺里","LIN":"7鄰","STREET":"西門路","SECT":"四段","MAREA":" ","LANE":"４３０巷","ALLEY":" ","HOUSE_NO":"２３號","E_COORD97":169153.76000000001,"N_COORD97":2546185.0800000001,"ADDRESS":"西門路四段４３０巷２３號","OBJECTID":272323},"geometry":{"x":169153.75999999885,"y":2546185.0800000019}},{"attributes":{"ID":272329,"DIS_CODE":0,"TOWNNAME":"北區","LI":"正覺里","LIN":"7鄰","STREET":"西門路","SECT":"四段","MAREA":" ","LANE":"４３０巷","ALLEY":" ","HOUSE_NO":"２５號","E_COORD97":169158.94,"N_COORD97":2546180.8399999999,"ADDRESS":"西門路四段４３０巷２５號","OBJECTID":272324},"geometry":{"x":169158.94000000134,"y":2546180.8399999999}},{"attributes":{"ID":272330,"DIS_CODE":0,"TOWNNAME":"北區","LI":"正覺里","LIN":"7鄰","STREET":"西門路","SECT":"四段","MAREA":" ","LANE":"４３０巷","ALLEY":" ","HOUSE_NO":"２７號","E_COORD97":169163.82999999999,"N_COORD97":2546178.1600000001,"ADDRESS":"西門路四段４３０巷２７號","OBJECTID":272325},"geometry":{"x":169163.83000000194,"y":2546178.1600000001}},{"attributes":{"ID":272331,"DIS_CODE":0,"TOWNNAME":"歸仁區","LI":"七甲里","LIN":"7鄰","STREET":"七甲二街","SECT":" ","MAREA":" ","LANE":"９巷","ALLEY":" ","HOUSE_NO":"１０號","E_COORD97":177559.98999999999,"N_COORD97":2542704.6600000001,"ADDRESS":"七甲二街９巷１０號","OBJECTID":272326},"geometry":{"x":177559.99000000115,"y":2542704.6600000039}},{"attributes":{"ID":272332,"DIS_CODE":0,"TOWNNAME":"歸仁區","LI":"八甲里","LIN":"7鄰","STREET":"大德路","SECT":" ","MAREA":" ","LANE":"７００巷","ALLEY":" ","HOUSE_NO":"５１號","E_COORD97":176811.12,"N_COORD97":2541672.27,"ADDRESS":"大德路７００巷５１號","OBJECTID":272327},"geometry":{"x":176811.12000000104,"y":2541672.2699999977}},{"attributes":{"ID":272333,"DIS_CODE":0,"TOWNNAME":"歸仁區","LI":"大廟里","LIN":"7鄰","STREET":"大廟一街","SECT":" ","MAREA":" ","LANE":"１２３巷","ALLEY":" ","HOUSE_NO":"１４號","E_COORD97":175767.07000000001,"N_COORD97":2543863.25,"ADDRESS":"大廟一街１２３巷１４號","OBJECTID":272328},"geometry":{"x":175767.07000000123,"y":2543863.2500000037}},{"attributes":{"ID":272334,"DIS_CODE":0,"TOWNNAME":"善化區","LI":"文昌里","LIN":"4鄰","STREET":"中華路","SECT":" ","MAREA":" ","LANE":" ","ALLEY":" ","HOUSE_NO":"１１４號","E_COORD97":177230.13,"N_COORD97":2558946.5,"ADDRESS":"中華路１１４號","OBJECTID":272329},"geometry":{"x":177230.12999999989,"y":2558946.5000000019}},{"attributes":{"ID":272335,"DIS_CODE":0,"TOWNNAME":"南區","LI":"永寧里","LIN":"7鄰","STREET":"灣裡路","SECT":" ","MAREA":" ","LANE":"８８巷","ALLEY":" ","HOUSE_NO":"１００號","E_COORD97":165855.57000000001,"N_COORD97":2536653.8300000001,"ADDRESS":"灣裡路８８巷１００號","OBJECTID":272330},"geometry":{"x":165855.57000000123,"y":2536653.8300000001}},{"attributes":{"ID":272336,"DIS_CODE":0,"TOWNNAME":"南區","LI":"永寧里","LIN":"7鄰","STREET":"灣裡路","SECT":" ","MAREA":" ","LANE":"８８巷","ALLEY":" ","HOUSE_NO":"１０４號","E_COORD97":165855.64999999999,"N_COORD97":2536642.7400000002,"ADDRESS":"灣裡路８８巷１０４號","OBJECTID":272331},"geometry":{"x":165855.65000000037,"y":2536642.7400000021}},{"attributes":{"ID":272337,"DIS_CODE":0,"TOWNNAME":"南區","LI":"永寧里","LIN":"7鄰","STREET":"灣裡路","SECT":" ","MAREA":" ","LANE":"８８巷","ALLEY":" ","HOUSE_NO":"１０４號之１","E_COORD97":165857.53,"N_COORD97":2536638.0899999999,"ADDRESS":"灣裡路８８巷１０４號之１","OBJECTID":272332},"geometry":{"x":165857.53000000119,"y":2536638.0899999999}},{"attributes":{"ID":272338,"DIS_CODE":0,"TOWNNAME":"南區","LI":"永寧里","LIN":"7鄰","STREET":"灣裡路","SECT":" ","MAREA":" ","LANE":"８８巷","ALLEY":" ","HOUSE_NO":"１０６號","E_COORD97":165859.16,"N_COORD97":2536634.5,"ADDRESS":"灣裡路８８巷１０６號","OBJECTID":272333},"geometry":{"x":165859.16000000015,"y":2536634.5000000019}},{"attributes":{"ID":272339,"DIS_CODE":0,"TOWNNAME":"南區","LI":"大林里","LIN":"7鄰","STREET":"大同路","SECT":"二段","MAREA":" ","LANE":"４８２巷","ALLEY":" ","HOUSE_NO":"７６號","E_COORD97":169257.07999999999,"N_COORD97":2541503.77,"ADDRESS":"大同路二段４８２巷７６號","OBJECTID":272334},"geometry":{"x":169257.08000000194,"y":2541503.7700000014}},{"attributes":{"ID":272340,"DIS_CODE":0,"TOWNNAME":"南區","LI":"大林里","LIN":"7鄰","STREET":"大同路","SECT":"二段","MAREA":" ","LANE":"４８２巷","ALLEY":" ","HOUSE_NO":"８２號","E_COORD97":169247.79000000001,"N_COORD97":2541506.1400000001,"ADDRESS":"大同路二段４８２巷８２號","OBJECTID":272335},"geometry":{"x":169247.79000000097,"y":2541506.1400000025}},{"attributes":{"ID":272341,"DIS_CODE":0,"TOWNNAME":"南區","LI":"大林里","LIN":"7鄰","STREET":"大同路","SECT":"二段","MAREA":" ","LANE":"４８２巷","ALLEY":" ","HOUSE_NO":"８４號","E_COORD97":169252.73000000001,"N_COORD97":2541517.8599999999,"ADDRESS":"大同路二段４８２巷８４號","OBJECTID":272336},"geometry":{"x":169252.73000000045,"y":2541517.8599999994}},{"attributes":{"ID":272342,"DIS_CODE":0,"TOWNNAME":"南區","LI":"大林里","LIN":"7鄰","STREET":"大同路","SECT":"二段","MAREA":" ","LANE":"４８２巷","ALLEY":" ","HOUSE_NO":"８６號","E_COORD97":169247.20000000001,"N_COORD97":2541521.77,"ADDRESS":"大同路二段４８２巷８６號","OBJECTID":272337},"geometry":{"x":169247.20000000019,"y":2541521.7699999996}},{"attributes":{"ID":272343,"DIS_CODE":0,"TOWNNAME":"善化區","LI":"文昌里","LIN":"4鄰","STREET":"中華路","SECT":" ","MAREA":" ","LANE":" ","ALLEY":" ","HOUSE_NO":"１０２號","E_COORD97":177226.53,"N_COORD97":2558908.5,"ADDRESS":"中華路１０２號","OBJECTID":272338},"geometry":{"x":177226.53000000026,"y":2558908.5000000019}},{"attributes":{"ID":272344,"DIS_CODE":0,"TOWNNAME":"善化區","LI":"文昌里","LIN":"4鄰","STREET":"中華路","SECT":" ","MAREA":" ","LANE":" ","ALLEY":" ","HOUSE_NO":"１１２號","E_COORD97":177225.04999999999,"N_COORD97":2558940.25,"ADDRESS":"中華路１１２號","OBJECTID":272339},"geometry":{"x":177225.05000000075,"y":2558940.2500000037}},{"attributes":{"ID":272345,"DIS_CODE":0,"TOWNNAME":"楠西區","LI":"楠西里","LIN":"7鄰","STREET":"民族路","SECT":" ","MAREA":" ","LANE":"２５５巷","ALLEY":" ","HOUSE_NO":"１１號","E_COORD97":197306.64000000001,"N_COORD97":2564363.29,"ADDRESS":"民族路２５５巷１１號","OBJECTID":272340},"geometry":{"x":197306.64000000153,"y":2564363.2899999991}},{"attributes":{"ID":272346,"DIS_CODE":0,"TOWNNAME":"楠西區","LI":"楠西里","LIN":"7鄰","STREET":"民族路","SECT":" ","MAREA":" ","LANE":"２５２巷","ALLEY":" ","HOUSE_NO":"２號","E_COORD97":197287.39000000001,"N_COORD97":2564433.29,"ADDRESS":"民族路２５２巷２號","OBJECTID":272341},"geometry":{"x":197287.38999999966,"y":2564433.2899999991}},{"attributes":{"ID":272347,"DIS_CODE":0,"TOWNNAME":"楠西區","LI":"楠西里","LIN":"7鄰","STREET":"民族路","SECT":" ","MAREA":" ","LANE":"２５５巷","ALLEY":" ","HOUSE_NO":"７號","E_COORD97":197306.39000000001,"N_COORD97":2564372.29,"ADDRESS":"民族路２５５巷７號","OBJECTID":272342},"geometry":{"x":197306.38999999966,"y":2564372.2899999991}},{"attributes":{"ID":272348,"DIS_CODE":0,"TOWNNAME":"楠西區","LI":"東勢里","LIN":"7鄰","STREET":"信義路","SECT":" ","MAREA":" ","LANE":"２０７巷","ALLEY":" ","HOUSE_NO":"６２號","E_COORD97":197545.62,"N_COORD97":2563945.27,"ADDRESS":"信義路２０７巷６２號","OBJECTID":272343},"geometry":{"x":197545.62000000011,"y":2563945.2700000014}},{"attributes":{"ID":272349,"DIS_CODE":0,"TOWNNAME":"楠西區","LI":"東勢里","LIN":"7鄰","STREET":"東勢路","SECT":" ","MAREA":" ","LANE":"３９巷","ALLEY":" ","HOUSE_NO":"１６號","E_COORD97":197612.37,"N_COORD97":2564012.29,"ADDRESS":"東勢路３９巷１６號","OBJECTID":272344},"geometry":{"x":197612.37000000197,"y":2564012.290000001}},{"attributes":{"ID":272350,"DIS_CODE":0,"TOWNNAME":"楠西區","LI":"楠西里","LIN":"7鄰","STREET":"民族路","SECT":" ","MAREA":" ","LANE":"２５５巷","ALLEY":" ","HOUSE_NO":"１５號","E_COORD97":197305.73999999999,"N_COORD97":2564354.29,"ADDRESS":"民族路２５５巷１５號","OBJECTID":272345},"geometry":{"x":197305.74000000022,"y":2564354.290000001}},{"attributes":{"ID":272351,"DIS_CODE":0,"TOWNNAME":"安平區","LI":"育平里","LIN":"34鄰","STREET":"郡平路","SECT":" ","MAREA":" ","LANE":"２７４巷","ALLEY":" ","HOUSE_NO":"２２號","E_COORD97":164436.63,"N_COORD97":2543431.3300000001,"ADDRESS":"郡平路２７４巷２２號","OBJECTID":272346},"geometry":{"x":164436.62999999989,"y":2543431.3300000001}},{"attributes":{"ID":272352,"DIS_CODE":0,"TOWNNAME":"安平區","LI":"育平里","LIN":"34鄰","STREET":"郡平路","SECT":" ","MAREA":" ","LANE":"２７４巷","ALLEY":" ","HOUSE_NO":"２４號","E_COORD97":164436.84,"N_COORD97":2543436.3900000001,"ADDRESS":"郡平路２７４巷２４號","OBJECTID":272347},"geometry":{"x":164436.83999999985,"y":2543436.3900000025}},{"attributes":{"ID":272353,"DIS_CODE":0,"TOWNNAME":"安平區","LI":"育平里","LIN":"34鄰","STREET":"郡平路","SECT":" ","MAREA":" ","LANE":"２７４巷","ALLEY":" ","HOUSE_NO":"２６號","E_COORD97":164438.35000000001,"N_COORD97":2543442.6400000001,"ADDRESS":"郡平路２７４巷２６號","OBJECTID":272348},"geometry":{"x":164438.34999999963,"y":2543442.6400000006}},{"attributes":{"ID":272354,"DIS_CODE":0,"TOWNNAME":"安平區","LI":"育平里","LIN":"34鄰","STREET":"郡平路","SECT":" ","MAREA":" ","LANE":"２７４巷","ALLEY":" ","HOUSE_NO":"２８號","E_COORD97":164438.35000000001,"N_COORD97":2543447.1600000001,"ADDRESS":"郡平路２７４巷２８號","OBJECTID":272349},"geometry":{"x":164438.34999999963,"y":2543447.1600000039}},{"attributes":{"ID":272355,"DIS_CODE":0,"TOWNNAME":"中西區","LI":"民權里","LIN":"6鄰","STREET":"和平街","SECT":" ","MAREA":" ","LANE":" ","ALLEY":" ","HOUSE_NO":"６６號","E_COORD97":167641.35000000001,"N_COORD97":2544147.1200000001,"ADDRESS":"和平街６６號","OBJECTID":272350},"geometry":{"x":167641.35000000056,"y":2544147.1200000029}},{"attributes":{"ID":272356,"DIS_CODE":0,"TOWNNAME":"北區","LI":"玉皇里","LIN":"14鄰","STREET":"佑民街","SECT":" ","MAREA":" ","LANE":"５３巷","ALLEY":" ","HOUSE_NO":"１１號","E_COORD97":168563.82000000001,"N_COORD97":2544462.27,"ADDRESS":"佑民街５３巷１１號","OBJECTID":272351},"geometry":{"x":168563.8200000003,"y":2544462.2699999996}},{"attributes":{"ID":272357,"DIS_CODE":0,"TOWNNAME":"北區","LI":"玉皇里","LIN":"14鄰","STREET":"佑民街","SECT":" ","MAREA":" ","LANE":"５３巷","ALLEY":" ","HOUSE_NO":"１號","E_COORD97":168598.98999999999,"N_COORD97":2544430.0699999998,"ADDRESS":"佑民街５３巷１號","OBJECTID":272352},"geometry":{"x":168598.99000000115,"y":2544430.0700000003}},{"attributes":{"ID":272358,"DIS_CODE":0,"TOWNNAME":"新營區","LI":"南紙里","LIN":"7鄰","STREET":"南紙街","SECT":" ","MAREA":" ","LANE":"１１９巷","ALLEY":" ","HOUSE_NO":"６號","E_COORD97":177832.70000000001,"N_COORD97":2577416.96,"ADDRESS":"南紙街１１９巷６號","OBJECTID":272353},"geometry":{"x":177832.70000000112,"y":2577416.9600000009}},{"attributes":{"ID":272359,"DIS_CODE":0,"TOWNNAME":"新營區","LI":"延平里","LIN":"7鄰","STREET":"復興路","SECT":" ","MAREA":" ","LANE":"２９巷","ALLEY":" ","HOUSE_NO":"２３號","E_COORD97":179691.14999999999,"N_COORD97":2577956.2200000002,"ADDRESS":"復興路２９巷２３號","OBJECTID":272354},"geometry":{"x":179691.1500000013,"y":2577956.2200000007}},{"attributes":{"ID":272360,"DIS_CODE":0,"TOWNNAME":"新營區","LI":"永生里","LIN":"7鄰","STREET":"中興路","SECT":" ","MAREA":" ","LANE":"３０巷","ALLEY":" ","HOUSE_NO":"３號","E_COORD97":180081.70999999999,"N_COORD97":2577962.1200000001,"ADDRESS":"中興路３０巷３號","OBJECTID":272355},"geometry":{"x":180081.71000000089,"y":2577962.1200000048}},{"attributes":{"ID":272361,"DIS_CODE":0,"TOWNNAME":"新營區","LI":"興業里","LIN":"7鄰","STREET":"公誠街","SECT":" ","MAREA":" ","LANE":"９巷","ALLEY":" ","HOUSE_NO":"１６號","E_COORD97":180364.35999999999,"N_COORD97":2578001.77,"ADDRESS":"公誠街９巷１６號","OBJECTID":272356},"geometry":{"x":180364.36000000127,"y":2578001.7700000014}},{"attributes":{"ID":272362,"DIS_CODE":0,"TOWNNAME":"新營區","LI":"興業里","LIN":"7鄰","STREET":"公誠街","SECT":" ","MAREA":" ","LANE":"９巷","ALLEY":" ","HOUSE_NO":"１４號","E_COORD97":180356.17000000001,"N_COORD97":2578001.8100000001,"ADDRESS":"公誠街９巷１４號","OBJECTID":272357},"geometry":{"x":180356.16999999993,"y":2578001.8100000024}},{"attributes":{"ID":272363,"DIS_CODE":0,"TOWNNAME":"安平區","LI":"億載里","LIN":"7鄰","STREET":"永華十一街","SECT":" ","MAREA":" ","LANE":"１７巷","ALLEY":" ","HOUSE_NO":"２７號","E_COORD97":164024.29999999999,"N_COORD97":2543421.3300000001,"ADDRESS":"永華十一街１７巷２７號","OBJECTID":272358},"geometry":{"x":164024.30000000075,"y":2543421.3300000001}},{"attributes":{"ID":272364,"DIS_CODE":0,"TOWNNAME":"安平區","LI":"億載里","LIN":"7鄰","STREET":"永華十一街","SECT":" ","MAREA":" ","LANE":"１７巷","ALLEY":" ","HOUSE_NO":"２９號","E_COORD97":164016.37,"N_COORD97":2543420.6099999999,"ADDRESS":"永華十一街１７巷２９號","OBJECTID":272359},"geometry":{"x":164016.37000000011,"y":2543420.6100000013}},{"attributes":{"ID":272365,"DIS_CODE":0,"TOWNNAME":"安平區","LI":"億載里","LIN":"7鄰","STREET":"永華十一街","SECT":" ","MAREA":" ","LANE":"１７巷","ALLEY":" ","HOUSE_NO":"３１號","E_COORD97":164006.26999999999,"N_COORD97":2543419.8799999999,"ADDRESS":"永華十一街１７巷３１號","OBJECTID":272360},"geometry":{"x":164006.26999999955,"y":2543419.879999999}},{"attributes":{"ID":272366,"DIS_CODE":0,"TOWNNAME":"安平區","LI":"金城里","LIN":"7鄰","STREET":"同平路","SECT":" ","MAREA":" ","LANE":"９６巷","ALLEY":" ","HOUSE_NO":"３３號","E_COORD97":163070.69,"N_COORD97":2544204.1800000002,"ADDRESS":"同平路９６巷３３號","OBJECTID":272361},"geometry":{"x":163070.69000000041,"y":2544204.1799999997}},{"attributes":{"ID":272367,"DIS_CODE":0,"TOWNNAME":"安平區","LI":"金城里","LIN":"7鄰","STREET":"同平路","SECT":" ","MAREA":" ","LANE":"９６巷","ALLEY":" ","HOUSE_NO":"３４號","E_COORD97":163042.09,"N_COORD97":2544227.8900000001,"ADDRESS":"同平路９６巷３４號","OBJECTID":272362},"geometry":{"x":163042.08999999892,"y":2544227.8900000006}},{"attributes":{"ID":272368,"DIS_CODE":0,"TOWNNAME":"安平區","LI":"國平里","LIN":"7鄰","STREET":"文平路","SECT":" ","MAREA":" ","LANE":"１８７巷","ALLEY":" ","HOUSE_NO":"１０３號","E_COORD97":165429.04999999999,"N_COORD97":2543082.4100000001,"ADDRESS":"文平路１８７巷１０３號","OBJECTID":272363},"geometry":{"x":165429.04999999981,"y":2543082.4100000039}},{"attributes":{"ID":272369,"DIS_CODE":0,"TOWNNAME":"安平區","LI":"國平里","LIN":"7鄰","STREET":"文平路","SECT":" ","MAREA":" ","LANE":"１８７巷","ALLEY":" ","HOUSE_NO":"１０５號","E_COORD97":165423.97,"N_COORD97":2543082.9900000002,"ADDRESS":"文平路１８７巷１０５號","OBJECTID":272364},"geometry":{"x":165423.96999999974,"y":2543082.9900000021}},{"attributes":{"ID":272370,"DIS_CODE":0,"TOWNNAME":"安平區","LI":"國平里","LIN":"7鄰","STREET":"文平路","SECT":" ","MAREA":" ","LANE":"１８７巷","ALLEY":" ","HOUSE_NO":"１０７號","E_COORD97":165420.06,"N_COORD97":2543083.7799999998,"ADDRESS":"文平路１８７巷１０７號","OBJECTID":272365},"geometry":{"x":165420.05999999959,"y":2543083.7800000012}},{"attributes":{"ID":272371,"DIS_CODE":0,"TOWNNAME":"安平區","LI":"國平里","LIN":"7鄰","STREET":"文平路","SECT":" ","MAREA":" ","LANE":"１８７巷","ALLEY":" ","HOUSE_NO":"１０９號","E_COORD97":165414.98000000001,"N_COORD97":2543084.5600000001,"ADDRESS":"文平路１８７巷１０９號","OBJECTID":272366},"geometry":{"x":165414.98000000045,"y":2543084.5600000005}},{"attributes":{"ID":272372,"DIS_CODE":0,"TOWNNAME":"安平區","LI":"國平里","LIN":"7鄰","STREET":"文平路","SECT":" ","MAREA":" ","LANE":"１８７巷","ALLEY":" ","HOUSE_NO":"１１１號","E_COORD97":165411.85000000001,"N_COORD97":2543085.1400000001,"ADDRESS":"文平路１８７巷１１１號","OBJECTID":272367},"geometry":{"x":165411.85000000149,"y":2543085.1400000025}},{"attributes":{"ID":272373,"DIS_CODE":0,"TOWNNAME":"東區","LI":"裕農里","LIN":"3鄰","STREET":"裕農路","SECT":" ","MAREA":" ","LANE":"２９１巷","ALLEY":" ","HOUSE_NO":"２號","E_COORD97":170896.10999999999,"N_COORD97":2543029.52,"ADDRESS":"裕農路２９１巷２號","OBJECTID":272368},"geometry":{"x":170896.11000000034,"y":2543029.5199999996}},{"attributes":{"ID":272374,"DIS_CODE":0,"TOWNNAME":"白河區","LI":"永安里","LIN":"15鄰","STREET":"三民路","SECT":" ","MAREA":" ","LANE":" ","ALLEY":" ","HOUSE_NO":"４３８號","E_COORD97":190187.28,"N_COORD97":2583368.0499999998,"ADDRESS":"三民路４３８號","OBJECTID":272369},"geometry":{"x":190187.28000000026,"y":2583368.0500000026}},{"attributes":{"ID":272375,"DIS_CODE":0,"TOWNNAME":"白河區","LI":"永安里","LIN":"15鄰","STREET":"三民路","SECT":" ","MAREA":" ","LANE":" ","ALLEY":" ","HOUSE_NO":"４３９號","E_COORD97":190011.60999999999,"N_COORD97":2583401.5699999998,"ADDRESS":"三民路４３９號","OBJECTID":272370},"geometry":{"x":190011.61000000127,"y":2583401.5700000022}},{"attributes":{"ID":272376,"DIS_CODE":0,"TOWNNAME":"永康區","LI":"六合里","LIN":"3鄰","STREET":"中華路","SECT":" ","MAREA":" ","LANE":" ","ALLEY":" ","HOUSE_NO":"５９５號","E_COORD97":171149.95000000001,"N_COORD97":2545943.2400000002,"ADDRESS":"中華路５９５號","OBJECTID":272371},"geometry":{"x":171149.95000000205,"y":2545943.2400000021}},{"attributes":{"ID":272377,"DIS_CODE":0,"TOWNNAME":"東區","LI":"大福里","LIN":"14鄰","STREET":"榮譽街","SECT":" ","MAREA":" ","LANE":" ","ALLEY":" ","HOUSE_NO":"４９號","E_COORD97":169662.19,"N_COORD97":2541669.4100000001,"ADDRESS":"榮譽街４９號","OBJECTID":272372},"geometry":{"x":169662.19000000134,"y":2541669.410000002}},{"attributes":{"ID":272378,"DIS_CODE":0,"TOWNNAME":"安平區","LI":"國平里","LIN":"7鄰","STREET":"文平路","SECT":" ","MAREA":" ","LANE":"１８７巷","ALLEY":" ","HOUSE_NO":"１１３號","E_COORD97":165406.19,"N_COORD97":2543086.1200000001,"ADDRESS":"文平路１８７巷１１３號","OBJECTID":272373},"geometry":{"x":165406.19000000041,"y":2543086.1200000029}},{"attributes":{"ID":272379,"DIS_CODE":0,"TOWNNAME":"東區","LI":"大福里","LIN":"14鄰","STREET":"榮譽街","SECT":" ","MAREA":" ","LANE":" ","ALLEY":" ","HOUSE_NO":"５１號","E_COORD97":169667.53,"N_COORD97":2541668.8999999999,"ADDRESS":"榮譽街５１號","OBJECTID":272374},"geometry":{"x":169667.53000000026,"y":2541668.9000000041}},{"attributes":{"ID":272380,"DIS_CODE":0,"TOWNNAME":"東區","LI":"大福里","LIN":"14鄰","STREET":"榮譽街","SECT":" ","MAREA":" ","LANE":" ","ALLEY":" ","HOUSE_NO":"５３號","E_COORD97":169671.59,"N_COORD97":2541670.1699999999,"ADDRESS":"榮譽街５３號","OBJECTID":272375},"geometry":{"x":169671.58999999985,"y":2541670.1700000037}},{"attributes":{"ID":272381,"DIS_CODE":0,"TOWNNAME":"安平區","LI":"國平里","LIN":"7鄰","STREET":"文平路","SECT":" ","MAREA":" ","LANE":"１８７巷","ALLEY":" ","HOUSE_NO":"１１５號","E_COORD97":165402.28,"N_COORD97":2543086.1200000001,"ADDRESS":"文平路１８７巷１１５號","OBJECTID":272376},"geometry":{"x":165402.28000000026,"y":2543086.1200000029}},{"attributes":{"ID":272382,"DIS_CODE":0,"TOWNNAME":"東區","LI":"大福里","LIN":"14鄰","STREET":"榮譽街","SECT":" ","MAREA":" ","LANE":" ","ALLEY":" ","HOUSE_NO":"５５號","E_COORD97":169676.16,"N_COORD97":2541673.9700000002,"ADDRESS":"榮譽街５５號","OBJECTID":272377},"geometry":{"x":169676.16000000108,"y":2541673.9700000007}},{"attributes":{"ID":272383,"DIS_CODE":0,"TOWNNAME":"安平區","LI":"億載里","LIN":"7鄰","STREET":"郡平路","SECT":" ","MAREA":" ","LANE":"４６０巷","ALLEY":" ","HOUSE_NO":"３１號","E_COORD97":163933.44,"N_COORD97":2543455.9100000001,"ADDRESS":"郡平路４６０巷３１號","OBJECTID":272378},"geometry":{"x":163933.44000000041,"y":2543455.910000002}},{"attributes":{"ID":272384,"DIS_CODE":0,"TOWNNAME":"東區","LI":"大福里","LIN":"14鄰","STREET":"榮譽街","SECT":" ","MAREA":" ","LANE":" ","ALLEY":" ","HOUSE_NO":"５７號","E_COORD97":169679.97,"N_COORD97":2541674.9900000002,"ADDRESS":"榮譽街５７號","OBJECTID":272379},"geometry":{"x":169679.97000000067,"y":2541674.9900000039}},{"attributes":{"ID":272385,"DIS_CODE":0,"TOWNNAME":"安平區","LI":"億載里","LIN":"7鄰","STREET":"郡平路","SECT":" ","MAREA":" ","LANE":"４６０巷","ALLEY":" ","HOUSE_NO":"３５號","E_COORD97":163933.07999999999,"N_COORD97":2543464.9199999999,"ADDRESS":"郡平路４６０巷３５號","OBJECTID":272380},"geometry":{"x":163933.08000000101,"y":2543464.9199999999}},{"attributes":{"ID":272386,"DIS_CODE":0,"TOWNNAME":"南區","LI":"南都里","LIN":"7鄰","STREET":"中華南路","SECT":"二段","MAREA":" ","LANE":"３１５巷","ALLEY":" ","HOUSE_NO":"１４號","E_COORD97":166498.67999999999,"N_COORD97":2540087.9399999999,"ADDRESS":"中華南路二段３１５巷１４號","OBJECTID":272381},"geometry":{"x":166498.68000000063,"y":2540087.9400000032}},{"attributes":{"ID":272387,"DIS_CODE":0,"TOWNNAME":"南區","LI":"南都里","LIN":"7鄰","STREET":"中華南路","SECT":"二段","MAREA":" ","LANE":"３１５巷","ALLEY":" ","HOUSE_NO":"１６號","E_COORD97":166501.45999999999,"N_COORD97":2540084.46,"ADDRESS":"中華南路二段３１５巷１６號","OBJECTID":272382},"geometry":{"x":166501.46000000183,"y":2540084.4600000009}},{"attributes":{"ID":272388,"DIS_CODE":0,"TOWNNAME":"南區","LI":"南都里","LIN":"7鄰","STREET":"中華南路","SECT":"二段","MAREA":" ","LANE":"３１５巷","ALLEY":" ","HOUSE_NO":"１８號","E_COORD97":166503.89999999999,"N_COORD97":2540079.9300000002,"ADDRESS":"中華南路二段３１５巷１８號","OBJECTID":272383},"geometry":{"x":166503.90000000224,"y":2540079.9299999997}},{"attributes":{"ID":272389,"DIS_CODE":0,"TOWNNAME":"白河區","LI":"秀祐里","LIN":"3鄰","STREET":" ","SECT":" ","MAREA":"頂秀祐","LANE":" ","ALLEY":" ","HOUSE_NO":"３９之１號","E_COORD97":188881.41578700001,"N_COORD97":2583434.0350500001,"ADDRESS":"頂秀祐３９之１號","OBJECTID":272384},"geometry":{"x":188881.41578700114,"y":2583434.0350489989}},{"attributes":{"ID":272390,"DIS_CODE":0,"TOWNNAME":"南區","LI":"南都里","LIN":"7鄰","STREET":"中華南路","SECT":"二段","MAREA":" ","LANE":"３１５巷","ALLEY":" ","HOUSE_NO":"２０號","E_COORD97":166506.34,"N_COORD97":2540076.4500000002,"ADDRESS":"中華南路二段３１５巷２０號","OBJECTID":272385},"geometry":{"x":166506.33999999985,"y":2540076.4499999993}},{"attributes":{"ID":272391,"DIS_CODE":0,"TOWNNAME":"南區","LI":"南都里","LIN":"7鄰","STREET":"中華南路","SECT":"二段","MAREA":" ","LANE":"３１５巷","ALLEY":" ","HOUSE_NO":"２２號","E_COORD97":166509.13,"N_COORD97":2540072.9700000002,"ADDRESS":"中華南路二段３１５巷２２號","OBJECTID":272386},"geometry":{"x":166509.13000000082,"y":2540072.9700000025}},{"attributes":{"ID":272392,"DIS_CODE":0,"TOWNNAME":"南區","LI":"南都里","LIN":"7鄰","STREET":"中華南路","SECT":"二段","MAREA":" ","LANE":"３１５巷","ALLEY":" ","HOUSE_NO":"２４號","E_COORD97":166510.87,"N_COORD97":2540068.1000000001,"ADDRESS":"中華南路二段３１５巷２４號","OBJECTID":272387},"geometry":{"x":166510.87000000104,"y":2540068.1000000015}},{"attributes":{"ID":272393,"DIS_CODE":0,"TOWNNAME":"南區","LI":"南都里","LIN":"7鄰","STREET":"中華南路","SECT":"二段","MAREA":" ","LANE":"３１５巷","ALLEY":" ","HOUSE_NO":"３０號","E_COORD97":166531.45000000001,"N_COORD97":2540042.73,"ADDRESS":"中華南路二段３１５巷３０號","OBJECTID":272388},"geometry":{"x":166531.45000000019,"y":2540042.7300000042}},{"attributes":{"ID":272394,"DIS_CODE":0,"TOWNNAME":"南區","LI":"南都里","LIN":"7鄰","STREET":"中華南路","SECT":"二段","MAREA":" ","LANE":"３１５巷","ALLEY":" ","HOUSE_NO":"３２號","E_COORD97":166535.97,"N_COORD97":2540036.29,"ADDRESS":"中華南路二段３１５巷３２號","OBJECTID":272389},"geometry":{"x":166535.96999999974,"y":2540036.2899999991}},{"attributes":{"ID":272395,"DIS_CODE":0,"TOWNNAME":"六甲區","LI":"七甲里","LIN":"7鄰","STREET":"七甲街","SECT":" ","MAREA":" ","LANE":"１０８巷","ALLEY":" ","HOUSE_NO":"１號","E_COORD97":183067.45999999999,"N_COORD97":2569037.7400000002,"ADDRESS":"七甲街１０８巷１號","OBJECTID":272390},"geometry":{"x":183067.46000000089,"y":2569037.7400000021}},{"attributes":{"ID":272396,"DIS_CODE":0,"TOWNNAME":"北區","LI":"仁愛里","LIN":"7鄰","STREET":"開元路","SECT":" ","MAREA":" ","LANE":"１４８巷","ALLEY":" ","HOUSE_NO":"１７６號","E_COORD97":170082.43604500001,"N_COORD97":2544999.6288700001,"ADDRESS":"開元路１４８巷１７６號","OBJECTID":272391},"geometry":{"x":170082.43604500126,"y":2544999.6288660001}},{"attributes":{"ID":272397,"DIS_CODE":0,"TOWNNAME":"北區","LI":"仁愛里","LIN":"7鄰","STREET":"勝利路","SECT":" ","MAREA":" ","LANE":"１９０巷","ALLEY":" ","HOUSE_NO":"６９號","E_COORD97":170047.14000000001,"N_COORD97":2544978.0499999998,"ADDRESS":"勝利路１９０巷６９號","OBJECTID":272392},"geometry":{"x":170047.13999999966,"y":2544978.0500000026}},{"attributes":{"ID":272398,"DIS_CODE":0,"TOWNNAME":"北區","LI":"仁愛里","LIN":"7鄰","STREET":"勝利路","SECT":" ","MAREA":" ","LANE":"１９０巷","ALLEY":" ","HOUSE_NO":"７１號","E_COORD97":170056.44,"N_COORD97":2544987.3500000001,"ADDRESS":"勝利路１９０巷７１號","OBJECTID":272393},"geometry":{"x":170056.44000000041,"y":2544987.3499999996}},{"attributes":{"ID":272399,"DIS_CODE":0,"TOWNNAME":"北區","LI":"仁愛里","LIN":"7鄰","STREET":"勝利路","SECT":" ","MAREA":" ","LANE":"１９０巷","ALLEY":" ","HOUSE_NO":"７３號","E_COORD97":170065.26000000001,"N_COORD97":2544985.5499999998,"ADDRESS":"勝利路１９０巷７３號","OBJECTID":272394},"geometry":{"x":170065.25999999978,"y":2544985.5500000026}},{"attributes":{"ID":272400,"DIS_CODE":0,"TOWNNAME":"北區","LI":"仁愛里","LIN":"7鄰","STREET":"勝利路","SECT":" ","MAREA":" ","LANE":"１９０巷","ALLEY":" ","HOUSE_NO":"７５號","E_COORD97":170069.5,"N_COORD97":2544987.1800000002,"ADDRESS":"勝利路１９０巷７５號","OBJECTID":272395},"geometry":{"x":170069.50000000186,"y":2544987.1800000016}},{"attributes":{"ID":272401,"DIS_CODE":0,"TOWNNAME":"北區","LI":"仁愛里","LIN":"7鄰","STREET":"勝利路","SECT":" ","MAREA":" ","LANE":"１９０巷","ALLEY":" ","HOUSE_NO":"７５之１號","E_COORD97":170067.87,"N_COORD97":2545005.1499999999,"ADDRESS":"勝利路１９０巷７５之１號","OBJECTID":272396},"geometry":{"x":170067.87000000104,"y":2545005.1500000004}},{"attributes":{"ID":272402,"DIS_CODE":0,"TOWNNAME":"北區","LI":"仁愛里","LIN":"7鄰","STREET":"勝利路","SECT":" ","MAREA":" ","LANE":"１９０巷","ALLEY":" ","HOUSE_NO":"７７號","E_COORD97":170073.09,"N_COORD97":2544989.2999999998,"ADDRESS":"勝利路１９０巷７７號","OBJECTID":272397},"geometry":{"x":170073.08999999985,"y":2544989.3000000045}},{"attributes":{"ID":272403,"DIS_CODE":0,"TOWNNAME":"北區","LI":"仁愛里","LIN":"7鄰","STREET":"勝利路","SECT":" ","MAREA":" ","LANE":"１９０巷","ALLEY":" ","HOUSE_NO":"７９號","E_COORD97":170077.82000000001,"N_COORD97":2544990.4399999999,"ADDRESS":"勝利路１９０巷７９號","OBJECTID":272398},"geometry":{"x":170077.82000000216,"y":2544990.4400000032}},{"attributes":{"ID":272404,"DIS_CODE":0,"TOWNNAME":"北區","LI":"仁愛里","LIN":"7鄰","STREET":"勝利路","SECT":" ","MAREA":" ","LANE":"１９０巷","ALLEY":" ","HOUSE_NO":"８１號","E_COORD97":170080.92999999999,"N_COORD97":2544992.0699999998,"ADDRESS":"勝利路１９０巷８１號","OBJECTID":272399},"geometry":{"x":170080.9299999997,"y":2544992.0700000003}},{"attributes":{"ID":272405,"DIS_CODE":0,"TOWNNAME":"北區","LI":"仁愛里","LIN":"7鄰","STREET":"勝利路","SECT":" ","MAREA":" ","LANE":"１９０巷","ALLEY":" ","HOUSE_NO":"８３號","E_COORD97":170085.01000000001,"N_COORD97":2544995.6600000001,"ADDRESS":"勝利路１９０巷８３號","OBJECTID":272400},"geometry":{"x":170085.01000000071,"y":2544995.6600000001}}]}