{"displayFieldName":"TOWNNAME","fieldAliases":{"ID":"ID","DIS_CODE":"DIS_CODE","TOWNNAME":"TOWNNAME","LI":"LI","LIN":"LIN","STREET":"STREET","SECT":"SECT","MAREA":"MAREA","LANE":"LANE","ALLEY":"ALLEY","HOUSE_NO":"HOUSE_NO","E_COORD97":"E_COORD97","N_COORD97":"N_COORD97","ADDRESS":"ADDRESS","OBJECTID":"OBJECTID"},"geometryType":"esriGeometryPoint","spatialReference":{"wkid":102443,"latestWkid":3826},"fields":[{"name":"ID","type":"esriFieldTypeDouble","alias":"ID"},{"name":"DIS_CODE","type":"esriFieldTypeInteger","alias":"DIS_CODE"},{"name":"TOWNNAME","type":"esriFieldTypeString","alias":"TOWNNAME","length":8},{"name":"LI","type":"esriFieldTypeString","alias":"LI","length":8},{"name":"LIN","type":"esriFieldTypeString","alias":"LIN","length":12},{"name":"STREET","type":"esriFieldTypeString","alias":"STREET","length":20},{"name":"SECT","type":"esriFieldTypeString","alias":"SECT","length":8},{"name":"MAREA","type":"esriFieldTypeString","alias":"MAREA","length":12},{"name":"LANE","type":"esriFieldTypeString","alias":"LANE","length":10},{"name":"ALLEY","type":"esriFieldTypeString","alias":"ALLEY","length":10},{"name":"HOUSE_NO","type":"esriFieldTypeString","alias":"HOUSE_NO","length":20},{"name":"E_COORD97","type":"esriFieldTypeDouble","alias":"E_COORD97"},{"name":"N_COORD97","type":"esriFieldTypeDouble","alias":"N_COORD97"},{"name":"ADDRESS","type":"esriFieldTypeString","alias":"ADDRESS","length":50},{"name":"OBJECTID","type":"esriFieldTypeOID","alias":"OBJECTID"}],"features":[{"attributes":{"ID":496828,"DIS_CODE":0,"TOWNNAME":"佳里區","LI":"鎮山里","LIN":"7鄰","STREET":"崇德街","SECT":" ","MAREA":" ","LANE":" ","ALLEY":" ","HOUSE_NO":"５２號","E_COORD97":166125.22,"N_COORD97":2561664.2000000002,"ADDRESS":"崇德街５２號","OBJECTID":496801},"geometry":{"x":166125.22000000067,"y":2561664.1999999993}},{"attributes":{"ID":496829,"DIS_CODE":0,"TOWNNAME":"佳里區","LI":"鎮山里","LIN":"7鄰","STREET":"崇德街","SECT":" ","MAREA":" ","LANE":" ","ALLEY":" ","HOUSE_NO":"５４號","E_COORD97":166120.56,"N_COORD97":2561663.2999999998,"ADDRESS":"崇德街５４號","OBJECTID":496802},"geometry":{"x":166120.56000000145,"y":2561663.3000000045}},{"attributes":{"ID":496830,"DIS_CODE":0,"TOWNNAME":"佳里區","LI":"鎮山里","LIN":"7鄰","STREET":"崇德街","SECT":" ","MAREA":" ","LANE":" ","ALLEY":" ","HOUSE_NO":"５６號","E_COORD97":166116.26000000001,"N_COORD97":2561662.5299999998,"ADDRESS":"崇德街５６號","OBJECTID":496803},"geometry":{"x":166116.26000000071,"y":2561662.5299999993}},{"attributes":{"ID":496831,"DIS_CODE":0,"TOWNNAME":"佳里區","LI":"鎮山里","LIN":"7鄰","STREET":"崇德街","SECT":" ","MAREA":" ","LANE":" ","ALLEY":" ","HOUSE_NO":"５號","E_COORD97":166292.95000000001,"N_COORD97":2561673.8100000001,"ADDRESS":"崇德街５號","OBJECTID":496804},"geometry":{"x":166292.95000000019,"y":2561673.8100000024}},{"attributes":{"ID":496832,"DIS_CODE":0,"TOWNNAME":"佳里區","LI":"鎮山里","LIN":"7鄰","STREET":"崇德街","SECT":" ","MAREA":" ","LANE":" ","ALLEY":" ","HOUSE_NO":"６０號","E_COORD97":166103.20000000001,"N_COORD97":2561660.77,"ADDRESS":"崇德街６０號","OBJECTID":496805},"geometry":{"x":166103.19999999925,"y":2561660.7699999996}},{"attributes":{"ID":496833,"DIS_CODE":0,"TOWNNAME":"佳里區","LI":"鎮山里","LIN":"7鄰","STREET":"崇德街","SECT":" ","MAREA":" ","LANE":" ","ALLEY":" ","HOUSE_NO":"６２號","E_COORD97":166099.01999999999,"N_COORD97":2561660.0800000001,"ADDRESS":"崇德街６２號","OBJECTID":496806},"geometry":{"x":166099.02000000048,"y":2561660.0800000001}},{"attributes":{"ID":496834,"DIS_CODE":0,"TOWNNAME":"佳里區","LI":"鎮山里","LIN":"7鄰","STREET":"崇德街","SECT":" ","MAREA":" ","LANE":" ","ALLEY":" ","HOUSE_NO":"６４號","E_COORD97":166094.85000000001,"N_COORD97":2561659.3900000001,"ADDRESS":"崇德街６４號","OBJECTID":496807},"geometry":{"x":166094.8499999987,"y":2561659.3900000025}},{"attributes":{"ID":496835,"DIS_CODE":0,"TOWNNAME":"佳里區","LI":"鎮山里","LIN":"7鄰","STREET":"崇德街","SECT":" ","MAREA":" ","LANE":" ","ALLEY":" ","HOUSE_NO":"６６號","E_COORD97":166090.67000000001,"N_COORD97":2561658.6899999999,"ADDRESS":"崇德街６６號","OBJECTID":496808},"geometry":{"x":166090.66999999993,"y":2561658.6899999995}},{"attributes":{"ID":496836,"DIS_CODE":0,"TOWNNAME":"佳里區","LI":"鎮山里","LIN":"7鄰","STREET":"崇德街","SECT":" ","MAREA":" ","LANE":" ","ALLEY":" ","HOUSE_NO":"６８號","E_COORD97":166086.5,"N_COORD97":2561658,"ADDRESS":"崇德街６８號","OBJECTID":496809},"geometry":{"x":166086.50000000093,"y":2561658.0000000019}},{"attributes":{"ID":496837,"DIS_CODE":0,"TOWNNAME":"佳里區","LI":"鎮山里","LIN":"7鄰","STREET":"崇德街","SECT":" ","MAREA":" ","LANE":" ","ALLEY":" ","HOUSE_NO":"６號","E_COORD97":166276.10999999999,"N_COORD97":2561687.8100000001,"ADDRESS":"崇德街６號","OBJECTID":496810},"geometry":{"x":166276.11000000127,"y":2561687.8100000024}},{"attributes":{"ID":496838,"DIS_CODE":0,"TOWNNAME":"佳里區","LI":"鎮山里","LIN":"7鄰","STREET":"崇德街","SECT":" ","MAREA":" ","LANE":" ","ALLEY":" ","HOUSE_NO":"７０號","E_COORD97":166082.32000000001,"N_COORD97":2561657.3100000001,"ADDRESS":"崇德街７０號","OBJECTID":496811},"geometry":{"x":166082.32000000216,"y":2561657.3100000024}},{"attributes":{"ID":496839,"DIS_CODE":0,"TOWNNAME":"佳里區","LI":"鎮山里","LIN":"7鄰","STREET":"崇德街","SECT":" ","MAREA":" ","LANE":" ","ALLEY":" ","HOUSE_NO":"７２號","E_COORD97":166078.14000000001,"N_COORD97":2561656.6099999999,"ADDRESS":"崇德街７２號","OBJECTID":496812},"geometry":{"x":166078.1400000006,"y":2561656.6100000013}},{"attributes":{"ID":496840,"DIS_CODE":0,"TOWNNAME":"佳里區","LI":"鎮山里","LIN":"7鄰","STREET":"崇德街","SECT":" ","MAREA":" ","LANE":" ","ALLEY":" ","HOUSE_NO":"７４號","E_COORD97":166073.97,"N_COORD97":2561655.9199999999,"ADDRESS":"崇德街７４號","OBJECTID":496813},"geometry":{"x":166073.9700000016,"y":2561655.9200000018}},{"attributes":{"ID":496841,"DIS_CODE":0,"TOWNNAME":"佳里區","LI":"鎮山里","LIN":"7鄰","STREET":"崇德街","SECT":" ","MAREA":" ","LANE":" ","ALLEY":" ","HOUSE_NO":"７號","E_COORD97":166285.01999999999,"N_COORD97":2561672.71,"ADDRESS":"崇德街７號","OBJECTID":496814},"geometry":{"x":166285.01999999955,"y":2561672.7100000009}},{"attributes":{"ID":496842,"DIS_CODE":0,"TOWNNAME":"佳里區","LI":"鎮山里","LIN":"7鄰","STREET":"崇德街","SECT":" ","MAREA":" ","LANE":" ","ALLEY":" ","HOUSE_NO":"８號","E_COORD97":166271.26000000001,"N_COORD97":2561686.75,"ADDRESS":"崇德街８號","OBJECTID":496815},"geometry":{"x":166271.25999999978,"y":2561686.7500000019}},{"attributes":{"ID":496843,"DIS_CODE":0,"TOWNNAME":"佳里區","LI":"忠仁里","LIN":"7鄰","STREET":"博愛街","SECT":" ","MAREA":" ","LANE":" ","ALLEY":" ","HOUSE_NO":"５８號","E_COORD97":166022.81,"N_COORD97":2562023.4300000002,"ADDRESS":"博愛街５８號","OBJECTID":496816},"geometry":{"x":166022.81000000052,"y":2562023.4299999997}},{"attributes":{"ID":496844,"DIS_CODE":0,"TOWNNAME":"佳里區","LI":"忠仁里","LIN":"7鄰","STREET":"博愛街","SECT":" ","MAREA":" ","LANE":" ","ALLEY":" ","HOUSE_NO":"６４號","E_COORD97":166009.01000000001,"N_COORD97":2562024.1499999999,"ADDRESS":"博愛街６４號","OBJECTID":496817},"geometry":{"x":166009.00999999978,"y":2562024.1500000022}},{"attributes":{"ID":496845,"DIS_CODE":0,"TOWNNAME":"佳里區","LI":"忠仁里","LIN":"7鄰","STREET":"博愛街","SECT":" ","MAREA":" ","LANE":" ","ALLEY":" ","HOUSE_NO":"６６號","E_COORD97":166004.38,"N_COORD97":2562023.7599999998,"ADDRESS":"博愛街６６號","OBJECTID":496818},"geometry":{"x":166004.37999999989,"y":2562023.7599999998}},{"attributes":{"ID":496846,"DIS_CODE":0,"TOWNNAME":"佳里區","LI":"忠仁里","LIN":"7鄰","STREET":"博愛街","SECT":" ","MAREA":" ","LANE":" ","ALLEY":" ","HOUSE_NO":"６８號","E_COORD97":165997.70000000001,"N_COORD97":2562022.9900000002,"ADDRESS":"博愛街６８號","OBJECTID":496819},"geometry":{"x":165997.70000000019,"y":2562022.9900000002}},{"attributes":{"ID":496847,"DIS_CODE":0,"TOWNNAME":"佳里區","LI":"忠仁里","LIN":"7鄰","STREET":"博愛街","SECT":" ","MAREA":" ","LANE":" ","ALLEY":" ","HOUSE_NO":"７１號","E_COORD97":165987.28,"N_COORD97":2561999.0600000001,"ADDRESS":"博愛街７１號","OBJECTID":496820},"geometry":{"x":165987.28000000026,"y":2561999.0600000005}},{"attributes":{"ID":496848,"DIS_CODE":0,"TOWNNAME":"佳里區","LI":"忠仁里","LIN":"7鄰","STREET":"博愛街","SECT":" ","MAREA":" ","LANE":" ","ALLEY":" ","HOUSE_NO":"７５號","E_COORD97":165975.57999999999,"N_COORD97":2561998.9700000002,"ADDRESS":"博愛街７５號","OBJECTID":496821},"geometry":{"x":165975.58000000101,"y":2561998.9700000025}},{"attributes":{"ID":496849,"DIS_CODE":0,"TOWNNAME":"佳里區","LI":"忠仁里","LIN":"7鄰","STREET":"博愛街","SECT":" ","MAREA":" ","LANE":" ","ALLEY":" ","HOUSE_NO":"７７號","E_COORD97":165971.44,"N_COORD97":2561998.5299999998,"ADDRESS":"博愛街７７號","OBJECTID":496822},"geometry":{"x":165971.44000000227,"y":2561998.5299999993}},{"attributes":{"ID":496850,"DIS_CODE":0,"TOWNNAME":"佳里區","LI":"忠仁里","LIN":"7鄰","STREET":"博愛街","SECT":" ","MAREA":" ","LANE":" ","ALLEY":" ","HOUSE_NO":"７９號","E_COORD97":165967.20000000001,"N_COORD97":2561997.6299999999,"ADDRESS":"博愛街７９號","OBJECTID":496823},"geometry":{"x":165967.20000000019,"y":2561997.629999999}},{"attributes":{"ID":496851,"DIS_CODE":0,"TOWNNAME":"佳里區","LI":"忠仁里","LIN":"7鄰","STREET":"博愛街","SECT":" ","MAREA":" ","LANE":" ","ALLEY":" ","HOUSE_NO":"８２號","E_COORD97":165960.60999999999,"N_COORD97":2562016.8599999999,"ADDRESS":"博愛街８２號","OBJECTID":496824},"geometry":{"x":165960.61000000127,"y":2562016.8599999994}},{"attributes":{"ID":496852,"DIS_CODE":0,"TOWNNAME":"學甲區","LI":"新達里","LIN":"7鄰","STREET":"中正路","SECT":" ","MAREA":" ","LANE":" ","ALLEY":" ","HOUSE_NO":"４８６號","E_COORD97":166942.94,"N_COORD97":2571280.8799999999,"ADDRESS":"中正路４８６號","OBJECTID":496825},"geometry":{"x":166942.94000000134,"y":2571280.8800000008}},{"attributes":{"ID":496853,"DIS_CODE":0,"TOWNNAME":"歸仁區","LI":"南保里","LIN":"7鄰","STREET":"民權北路","SECT":" ","MAREA":" ","LANE":" ","ALLEY":" ","HOUSE_NO":"１６５號","E_COORD97":177007.64000000001,"N_COORD97":2541276.29,"ADDRESS":"民權北路１６５號","OBJECTID":496826},"geometry":{"x":177007.63999999966,"y":2541276.290000001}},{"attributes":{"ID":496854,"DIS_CODE":0,"TOWNNAME":"歸仁區","LI":"南保里","LIN":"7鄰","STREET":"民權北路","SECT":" ","MAREA":" ","LANE":" ","ALLEY":" ","HOUSE_NO":"１９１號","E_COORD97":177007.94,"N_COORD97":2541335.29,"ADDRESS":"民權北路１９１號","OBJECTID":496827},"geometry":{"x":177007.94000000041,"y":2541335.2899999991}},{"attributes":{"ID":496855,"DIS_CODE":0,"TOWNNAME":"歸仁區","LI":"南保里","LIN":"7鄰","STREET":"民權北路","SECT":" ","MAREA":" ","LANE":" ","ALLEY":" ","HOUSE_NO":"１８９號","E_COORD97":177007.94,"N_COORD97":2541331.29,"ADDRESS":"民權北路１８９號","OBJECTID":496828},"geometry":{"x":177007.94000000041,"y":2541331.2899999991}},{"attributes":{"ID":496856,"DIS_CODE":0,"TOWNNAME":"歸仁區","LI":"歸南里","LIN":"7鄰","STREET":"中正南路","SECT":"一段","MAREA":" ","LANE":" ","ALLEY":" ","HOUSE_NO":"６６４號","E_COORD97":176592.19,"N_COORD97":2539838.9500000002,"ADDRESS":"中正南路一段６６４號","OBJECTID":496829},"geometry":{"x":176592.19000000134,"y":2539838.9499999993}},{"attributes":{"ID":496857,"DIS_CODE":0,"TOWNNAME":"歸仁區","LI":"歸南里","LIN":"7鄰","STREET":"中正南路","SECT":"一段","MAREA":" ","LANE":" ","ALLEY":" ","HOUSE_NO":"６６６號","E_COORD97":176589.09,"N_COORD97":2539836.9500000002,"ADDRESS":"中正南路一段６６６號","OBJECTID":496830},"geometry":{"x":176589.09000000078,"y":2539836.950000003}},{"attributes":{"ID":496858,"DIS_CODE":0,"TOWNNAME":"歸仁區","LI":"崙頂里","LIN":"7鄰","STREET":"崙頂三街","SECT":" ","MAREA":" ","LANE":" ","ALLEY":" ","HOUSE_NO":"１０７號","E_COORD97":178078.42000000001,"N_COORD97":2539933.6800000002,"ADDRESS":"崙頂三街１０７號","OBJECTID":496831},"geometry":{"x":178078.42000000086,"y":2539933.6799999978}},{"attributes":{"ID":496859,"DIS_CODE":0,"TOWNNAME":"歸仁區","LI":"看西里","LIN":"7鄰","STREET":"信義南路","SECT":" ","MAREA":" ","LANE":" ","ALLEY":" ","HOUSE_NO":"１６７號","E_COORD97":178134.95999999999,"N_COORD97":2540279.4900000002,"ADDRESS":"信義南路１６７號","OBJECTID":496832},"geometry":{"x":178134.95999999996,"y":2540279.4900000021}},{"attributes":{"ID":496860,"DIS_CODE":0,"TOWNNAME":"歸仁區","LI":"看東里","LIN":"7鄰","STREET":"成功一街","SECT":" ","MAREA":" ","LANE":" ","ALLEY":" ","HOUSE_NO":"５６號","E_COORD97":178589.75,"N_COORD97":2540090.4500000002,"ADDRESS":"成功一街５６號","OBJECTID":496833},"geometry":{"x":178589.75000000093,"y":2540090.4499999993}},{"attributes":{"ID":496861,"DIS_CODE":0,"TOWNNAME":"歸仁區","LI":"崙頂里","LIN":"7鄰","STREET":"崙頂三街","SECT":" ","MAREA":" ","LANE":" ","ALLEY":" ","HOUSE_NO":"８５號","E_COORD97":178015.42999999999,"N_COORD97":2539935.25,"ADDRESS":"崙頂三街８５號","OBJECTID":496834},"geometry":{"x":178015.43000000063,"y":2539935.2500000019}},{"attributes":{"ID":496862,"DIS_CODE":0,"TOWNNAME":"北區","LI":"中樓里","LIN":"7鄰","STREET":"東豐路","SECT":" ","MAREA":" ","LANE":" ","ALLEY":" ","HOUSE_NO":"１２５號","E_COORD97":169762.14999999999,"N_COORD97":2544932.2599999998,"ADDRESS":"東豐路１２５號","OBJECTID":496835},"geometry":{"x":169762.15000000224,"y":2544932.2600000016}},{"attributes":{"ID":496863,"DIS_CODE":0,"TOWNNAME":"北區","LI":"中樓里","LIN":"7鄰","STREET":"東豐路","SECT":" ","MAREA":" ","LANE":" ","ALLEY":" ","HOUSE_NO":"１２９號","E_COORD97":169773.12,"N_COORD97":2544920.2599999998,"ADDRESS":"東豐路１２９號","OBJECTID":496836},"geometry":{"x":169773.12000000011,"y":2544920.2599999998}},{"attributes":{"ID":496864,"DIS_CODE":0,"TOWNNAME":"北區","LI":"中樓里","LIN":"7鄰","STREET":"東豐路","SECT":" ","MAREA":" ","LANE":" ","ALLEY":" ","HOUSE_NO":"１３１號","E_COORD97":169771.10999999999,"N_COORD97":2544927.9399999999,"ADDRESS":"東豐路１３１號","OBJECTID":496837},"geometry":{"x":169771.11000000127,"y":2544927.9399999995}},{"attributes":{"ID":496865,"DIS_CODE":0,"TOWNNAME":"北區","LI":"五福里","LIN":"7鄰","STREET":"長北街","SECT":" ","MAREA":" ","LANE":" ","ALLEY":" ","HOUSE_NO":"３９號","E_COORD97":168376.89999999999,"N_COORD97":2544537.2200000002,"ADDRESS":"長北街３９號","OBJECTID":496838},"geometry":{"x":168376.90000000037,"y":2544537.2200000007}},{"attributes":{"ID":496866,"DIS_CODE":0,"TOWNNAME":"北區","LI":"五福里","LIN":"7鄰","STREET":"長北街","SECT":" ","MAREA":" ","LANE":" ","ALLEY":" ","HOUSE_NO":"４１號","E_COORD97":168378.20000000001,"N_COORD97":2544553.2400000002,"ADDRESS":"長北街４１號","OBJECTID":496839},"geometry":{"x":168378.19999999925,"y":2544553.2400000021}},{"attributes":{"ID":496867,"DIS_CODE":0,"TOWNNAME":"歸仁區","LI":"南保里","LIN":"7鄰","STREET":"文化街","SECT":"三段","MAREA":" ","LANE":" ","ALLEY":" ","HOUSE_NO":"１６號","E_COORD97":176961.39000000001,"N_COORD97":2541251.3300000001,"ADDRESS":"文化街三段１６號","OBJECTID":496840},"geometry":{"x":176961.3900000006,"y":2541251.3300000001}},{"attributes":{"ID":496868,"DIS_CODE":0,"TOWNNAME":"歸仁區","LI":"南興里","LIN":"7鄰","STREET":"民生二街","SECT":" ","MAREA":" ","LANE":" ","ALLEY":" ","HOUSE_NO":"５７號","E_COORD97":176108.39000000001,"N_COORD97":2541330.29,"ADDRESS":"民生二街５７號","OBJECTID":496841},"geometry":{"x":176108.3900000006,"y":2541330.290000001}},{"attributes":{"ID":496869,"DIS_CODE":0,"TOWNNAME":"歸仁區","LI":"歸仁里","LIN":"7鄰","STREET":"中山路","SECT":"一段","MAREA":" ","LANE":" ","ALLEY":" ","HOUSE_NO":"５２８號","E_COORD97":177792.41,"N_COORD97":2540769.1800000002,"ADDRESS":"中山路一段５２８號","OBJECTID":496842},"geometry":{"x":177792.41000000108,"y":2540769.1800000016}},{"attributes":{"ID":496870,"DIS_CODE":0,"TOWNNAME":"歸仁區","LI":"歸南里","LIN":"7鄰","STREET":"中正南路","SECT":"一段","MAREA":" ","LANE":" ","ALLEY":" ","HOUSE_NO":"６９２號","E_COORD97":176531.23999999999,"N_COORD97":2539783.8500000001,"ADDRESS":"中正南路一段６９２號","OBJECTID":496843},"geometry":{"x":176531.24000000022,"y":2539783.8500000015}},{"attributes":{"ID":496871,"DIS_CODE":0,"TOWNNAME":"歸仁區","LI":"南保里","LIN":"7鄰","STREET":"文化街","SECT":"三段","MAREA":" ","LANE":" ","ALLEY":" ","HOUSE_NO":"１０號","E_COORD97":176974.69,"N_COORD97":2541246.3300000001,"ADDRESS":"文化街三段１０號","OBJECTID":496844},"geometry":{"x":176974.69000000041,"y":2541246.3300000019}},{"attributes":{"ID":496872,"DIS_CODE":0,"TOWNNAME":"歸仁區","LI":"八甲里","LIN":"7鄰","STREET":"大光街","SECT":" ","MAREA":" ","LANE":" ","ALLEY":" ","HOUSE_NO":"１３號","E_COORD97":177858.37,"N_COORD97":2541637.6099999999,"ADDRESS":"大光街１３號","OBJECTID":496845},"geometry":{"x":177858.37000000197,"y":2541637.6100000013}},{"attributes":{"ID":496873,"DIS_CODE":0,"TOWNNAME":"歸仁區","LI":"後市里","LIN":"7鄰","STREET":"大吉一街","SECT":" ","MAREA":" ","LANE":" ","ALLEY":" ","HOUSE_NO":"５０號","E_COORD97":177145.60999999999,"N_COORD97":2540676.25,"ADDRESS":"大吉一街５０號","OBJECTID":496846},"geometry":{"x":177145.61000000127,"y":2540676.2500000037}},{"attributes":{"ID":496874,"DIS_CODE":0,"TOWNNAME":"歸仁區","LI":"歸南里","LIN":"7鄰","STREET":"中正南路","SECT":"一段","MAREA":" ","LANE":" ","ALLEY":" ","HOUSE_NO":"６８２號","E_COORD97":176547.20999999999,"N_COORD97":2539802.25,"ADDRESS":"中正南路一段６８２號","OBJECTID":496847},"geometry":{"x":176547.21000000183,"y":2539802.2500000019}},{"attributes":{"ID":496875,"DIS_CODE":0,"TOWNNAME":"歸仁區","LI":"崙頂里","LIN":"7鄰","STREET":"崙頂一街","SECT":" ","MAREA":" ","LANE":" ","ALLEY":" ","HOUSE_NO":"７０號","E_COORD97":178003.47,"N_COORD97":2539977.6800000002,"ADDRESS":"崙頂一街７０號","OBJECTID":496848},"geometry":{"x":178003.47000000067,"y":2539977.6799999997}},{"attributes":{"ID":496876,"DIS_CODE":0,"TOWNNAME":"歸仁區","LI":"後市里","LIN":"7鄰","STREET":"大吉一街","SECT":" ","MAREA":" ","LANE":" ","ALLEY":" ","HOUSE_NO":"３４號","E_COORD97":177146.81,"N_COORD97":2540712.25,"ADDRESS":"大吉一街３４號","OBJECTID":496849},"geometry":{"x":177146.81000000052,"y":2540712.25}},{"attributes":{"ID":496877,"DIS_CODE":0,"TOWNNAME":"歸仁區","LI":"大廟里","LIN":"7鄰","STREET":"大廟一街","SECT":" ","MAREA":" ","LANE":" ","ALLEY":" ","HOUSE_NO":"１１５號","E_COORD97":175744.01999999999,"N_COORD97":2543907.25,"ADDRESS":"大廟一街１１５號","OBJECTID":496850},"geometry":{"x":175744.01999999955,"y":2543907.2500000037}},{"attributes":{"ID":496878,"DIS_CODE":0,"TOWNNAME":"歸仁區","LI":"崙頂里","LIN":"7鄰","STREET":"崙頂三街","SECT":" ","MAREA":" ","LANE":" ","ALLEY":" ","HOUSE_NO":"５３號","E_COORD97":177948.31,"N_COORD97":2539921.1099999999,"ADDRESS":"崙頂三街５３號","OBJECTID":496851},"geometry":{"x":177948.31000000052,"y":2539921.1100000013}},{"attributes":{"ID":496879,"DIS_CODE":0,"TOWNNAME":"歸仁區","LI":"歸南里","LIN":"7鄰","STREET":"中正南路","SECT":"一段","MAREA":" ","LANE":" ","ALLEY":" ","HOUSE_NO":"６６２號","E_COORD97":176597.14000000001,"N_COORD97":2539843.46,"ADDRESS":"中正南路一段６６２號","OBJECTID":496852},"geometry":{"x":176597.1400000006,"y":2539843.4600000009}},{"attributes":{"ID":496880,"DIS_CODE":0,"TOWNNAME":"歸仁區","LI":"南興里","LIN":"7鄰","STREET":"民生二街","SECT":" ","MAREA":" ","LANE":" ","ALLEY":" ","HOUSE_NO":"５５號","E_COORD97":176116.59,"N_COORD97":2541331.29,"ADDRESS":"民生二街５５號","OBJECTID":496853},"geometry":{"x":176116.58999999985,"y":2541331.2899999991}},{"attributes":{"ID":496881,"DIS_CODE":0,"TOWNNAME":"歸仁區","LI":"西埔里","LIN":"7鄰","STREET":"西埔一街","SECT":" ","MAREA":" ","LANE":" ","ALLEY":" ","HOUSE_NO":"５３號","E_COORD97":177128.01999999999,"N_COORD97":2544297.25,"ADDRESS":"西埔一街５３號","OBJECTID":496854},"geometry":{"x":177128.02000000048,"y":2544297.2500000037}},{"attributes":{"ID":496882,"DIS_CODE":0,"TOWNNAME":"歸仁區","LI":"六甲里","LIN":"7鄰","STREET":"中正十五街","SECT":" ","MAREA":" ","LANE":" ","ALLEY":" ","HOUSE_NO":"１４７號","E_COORD97":176475.26000000001,"N_COORD97":2539521.25,"ADDRESS":"中正十五街１４７號","OBJECTID":496855},"geometry":{"x":176475.25999999885,"y":2539521.2500000019}},{"attributes":{"ID":496883,"DIS_CODE":0,"TOWNNAME":"歸仁區","LI":"辜厝里","LIN":"7鄰","STREET":"大順二街","SECT":" ","MAREA":" ","LANE":" ","ALLEY":" ","HOUSE_NO":"１３號","E_COORD97":177490.82000000001,"N_COORD97":2540583.5800000001,"ADDRESS":"大順二街１３號","OBJECTID":496856},"geometry":{"x":177490.81999999937,"y":2540583.5800000019}},{"attributes":{"ID":496884,"DIS_CODE":0,"TOWNNAME":"歸仁區","LI":"崙頂里","LIN":"7鄰","STREET":"崙頂三街","SECT":" ","MAREA":" ","LANE":" ","ALLEY":" ","HOUSE_NO":"６９號","E_COORD97":177987.31,"N_COORD97":2539928.1099999999,"ADDRESS":"崙頂三街６９號","OBJECTID":496857},"geometry":{"x":177987.31000000052,"y":2539928.1100000013}},{"attributes":{"ID":496885,"DIS_CODE":0,"TOWNNAME":"歸仁區","LI":"八甲里","LIN":"7鄰","STREET":"大光二街","SECT":" ","MAREA":" ","LANE":" ","ALLEY":" ","HOUSE_NO":"５７號","E_COORD97":177801.62,"N_COORD97":2541729.6099999999,"ADDRESS":"大光二街５７號","OBJECTID":496858},"geometry":{"x":177801.62000000011,"y":2541729.6099999994}},{"attributes":{"ID":496886,"DIS_CODE":0,"TOWNNAME":"歸仁區","LI":"八甲里","LIN":"7鄰","STREET":"中正北路","SECT":"一段","MAREA":" ","LANE":" ","ALLEY":" ","HOUSE_NO":"２０８號","E_COORD97":177818.35000000001,"N_COORD97":2541637.6099999999,"ADDRESS":"中正北路一段２０８號","OBJECTID":496859},"geometry":{"x":177818.34999999963,"y":2541637.6100000013}},{"attributes":{"ID":496887,"DIS_CODE":0,"TOWNNAME":"玉井區","LI":"玉田里","LIN":"7鄰","STREET":"中華路","SECT":" ","MAREA":" ","LANE":" ","ALLEY":" ","HOUSE_NO":"４５號","E_COORD97":194929.89000000001,"N_COORD97":2558106.2400000002,"ADDRESS":"中華路４５號","OBJECTID":496860},"geometry":{"x":194929.89000000153,"y":2558106.2399999984}},{"attributes":{"ID":496888,"DIS_CODE":0,"TOWNNAME":"歸仁區","LI":"歸仁里","LIN":"7鄰","STREET":"中山路","SECT":"一段","MAREA":" ","LANE":" ","ALLEY":" ","HOUSE_NO":"５４２號","E_COORD97":177762.70999999999,"N_COORD97":2540772.1800000002,"ADDRESS":"中山路一段５４２號","OBJECTID":496861},"geometry":{"x":177762.71000000089,"y":2540772.1800000016}},{"attributes":{"ID":496889,"DIS_CODE":0,"TOWNNAME":"歸仁區","LI":"大廟里","LIN":"7鄰","STREET":"大廟一街","SECT":" ","MAREA":" ","LANE":" ","ALLEY":" ","HOUSE_NO":"１１３號","E_COORD97":175750.22,"N_COORD97":2543912.25,"ADDRESS":"大廟一街１１３號","OBJECTID":496862},"geometry":{"x":175750.22000000067,"y":2543912.2500000019}},{"attributes":{"ID":496890,"DIS_CODE":0,"TOWNNAME":"歸仁區","LI":"七甲里","LIN":"7鄰","STREET":"七甲二街","SECT":" ","MAREA":" ","LANE":" ","ALLEY":" ","HOUSE_NO":"２０號","E_COORD97":177602.29000000001,"N_COORD97":2542654.6600000001,"ADDRESS":"七甲二街２０號","OBJECTID":496863},"geometry":{"x":177602.29000000004,"y":2542654.660000002}},{"attributes":{"ID":496891,"DIS_CODE":0,"TOWNNAME":"歸仁區","LI":"崙頂里","LIN":"7鄰","STREET":"崙頂一街","SECT":" ","MAREA":" ","LANE":" ","ALLEY":" ","HOUSE_NO":"６８號","E_COORD97":178000.47,"N_COORD97":2539977.6800000002,"ADDRESS":"崙頂一街６８號","OBJECTID":496864},"geometry":{"x":178000.46999999974,"y":2539977.6799999997}},{"attributes":{"ID":496892,"DIS_CODE":0,"TOWNNAME":"歸仁區","LI":"文化里","LIN":"7鄰","STREET":"文化三街","SECT":" ","MAREA":" ","LANE":" ","ALLEY":" ","HOUSE_NO":"１８號","E_COORD97":177221.56,"N_COORD97":2541251.3399999999,"ADDRESS":"文化三街１８號","OBJECTID":496865},"geometry":{"x":177221.55999999959,"y":2541251.3399999999}},{"attributes":{"ID":496893,"DIS_CODE":0,"TOWNNAME":"歸仁區","LI":"崙頂里","LIN":"7鄰","STREET":"崙頂一街","SECT":" ","MAREA":" ","LANE":" ","ALLEY":" ","HOUSE_NO":"９０號","E_COORD97":178057.87,"N_COORD97":2539986.6800000002,"ADDRESS":"崙頂一街９０號","OBJECTID":496866},"geometry":{"x":178057.87000000011,"y":2539986.6799999997}},{"attributes":{"ID":496894,"DIS_CODE":0,"TOWNNAME":"歸仁區","LI":"大潭里","LIN":"7鄰","STREET":"長榮路","SECT":"一段","MAREA":" ","LANE":" ","ALLEY":" ","HOUSE_NO":"２１５號","E_COORD97":175111.47,"N_COORD97":2534567.2799999998,"ADDRESS":"長榮路一段２１５號","OBJECTID":496867},"geometry":{"x":175111.47000000067,"y":2534567.2800000012}},{"attributes":{"ID":496895,"DIS_CODE":0,"TOWNNAME":"歸仁區","LI":"後市里","LIN":"7鄰","STREET":"大吉一街","SECT":" ","MAREA":" ","LANE":" ","ALLEY":" ","HOUSE_NO":"６０號","E_COORD97":177141.41,"N_COORD97":2540640.25,"ADDRESS":"大吉一街６０號","OBJECTID":496868},"geometry":{"x":177141.41000000108,"y":2540640.2500000019}},{"attributes":{"ID":496896,"DIS_CODE":0,"TOWNNAME":"玉井區","LI":"竹圍里","LIN":"7鄰","STREET":"忠孝街","SECT":" ","MAREA":" ","LANE":" ","ALLEY":" ","HOUSE_NO":"４４９號","E_COORD97":195684.09,"N_COORD97":2558605.1200000001,"ADDRESS":"忠孝街４４９號","OBJECTID":496869},"geometry":{"x":195684.08999999985,"y":2558605.120000001}},{"attributes":{"ID":496897,"DIS_CODE":0,"TOWNNAME":"玉井區","LI":"竹圍里","LIN":"7鄰","STREET":"中正路","SECT":" ","MAREA":" ","LANE":" ","ALLEY":" ","HOUSE_NO":"４６０號","E_COORD97":195562.26000000001,"N_COORD97":2558660.3999999999,"ADDRESS":"中正路４６０號","OBJECTID":496870},"geometry":{"x":195562.26000000071,"y":2558660.4000000004}},{"attributes":{"ID":496898,"DIS_CODE":0,"TOWNNAME":"玉井區","LI":"玉田里","LIN":"7鄰","STREET":"民族路","SECT":" ","MAREA":" ","LANE":" ","ALLEY":" ","HOUSE_NO":"３０號","E_COORD97":195000.73999999999,"N_COORD97":2558095.2799999998,"ADDRESS":"民族路３０號","OBJECTID":496871},"geometry":{"x":195000.74000000022,"y":2558095.2800000031}},{"attributes":{"ID":496899,"DIS_CODE":0,"TOWNNAME":"玉井區","LI":"玉田里","LIN":"7鄰","STREET":"民族路","SECT":" ","MAREA":" ","LANE":" ","ALLEY":" ","HOUSE_NO":"１６號","E_COORD97":194974.84,"N_COORD97":2558098.2799999998,"ADDRESS":"民族路１６號","OBJECTID":496872},"geometry":{"x":194974.84000000078,"y":2558098.2799999975}},{"attributes":{"ID":496900,"DIS_CODE":0,"TOWNNAME":"玉井區","LI":"玉田里","LIN":"7鄰","STREET":"民族路","SECT":" ","MAREA":" ","LANE":" ","ALLEY":" ","HOUSE_NO":"２４號","E_COORD97":194990.73999999999,"N_COORD97":2558095.2799999998,"ADDRESS":"民族路２４號","OBJECTID":496873},"geometry":{"x":194990.73999999929,"y":2558095.2800000031}},{"attributes":{"ID":496901,"DIS_CODE":0,"TOWNNAME":"玉井區","LI":"竹圍里","LIN":"7鄰","STREET":"忠孝街","SECT":" ","MAREA":" ","LANE":" ","ALLEY":" ","HOUSE_NO":"４４５號","E_COORD97":195676.81,"N_COORD97":2558602.1499999999,"ADDRESS":"忠孝街４４５號","OBJECTID":496874},"geometry":{"x":195676.81000000052,"y":2558602.1500000041}},{"attributes":{"ID":496902,"DIS_CODE":0,"TOWNNAME":"玉井區","LI":"竹圍里","LIN":"7鄰","STREET":"中正路","SECT":" ","MAREA":" ","LANE":" ","ALLEY":" ","HOUSE_NO":"５９６號","E_COORD97":195722.54999999999,"N_COORD97":2558838.8599999999,"ADDRESS":"中正路５９６號","OBJECTID":496875},"geometry":{"x":195722.55000000075,"y":2558838.8599999994}},{"attributes":{"ID":496903,"DIS_CODE":0,"TOWNNAME":"玉井區","LI":"玉田里","LIN":"7鄰","STREET":"中華路","SECT":" ","MAREA":" ","LANE":" ","ALLEY":" ","HOUSE_NO":"５５號","E_COORD97":194932.51000000001,"N_COORD97":2558087.2400000002,"ADDRESS":"中華路５５號","OBJECTID":496876},"geometry":{"x":194932.51000000164,"y":2558087.2400000021}},{"attributes":{"ID":496904,"DIS_CODE":0,"TOWNNAME":"玉井區","LI":"竹圍里","LIN":"7鄰","STREET":"中正路","SECT":" ","MAREA":" ","LANE":" ","ALLEY":" ","HOUSE_NO":"４４６號","E_COORD97":195537.98999999999,"N_COORD97":2558641.8599999999,"ADDRESS":"中正路４４６號","OBJECTID":496877},"geometry":{"x":195537.99000000022,"y":2558641.8600000013}},{"attributes":{"ID":496905,"DIS_CODE":0,"TOWNNAME":"玉井區","LI":"竹圍里","LIN":"7鄰","STREET":"忠孝街","SECT":" ","MAREA":" ","LANE":" ","ALLEY":" ","HOUSE_NO":"４４７號","E_COORD97":195680.60000000001,"N_COORD97":2558603.5800000001,"ADDRESS":"忠孝街４４７號","OBJECTID":496878},"geometry":{"x":195680.59999999963,"y":2558603.5800000019}},{"attributes":{"ID":496906,"DIS_CODE":0,"TOWNNAME":"玉井區","LI":"竹圍里","LIN":"7鄰","STREET":"工業街","SECT":" ","MAREA":" ","LANE":" ","ALLEY":" ","HOUSE_NO":"４１號","E_COORD97":195963.07999999999,"N_COORD97":2558784.8900000001,"ADDRESS":"工業街４１號","OBJECTID":496879},"geometry":{"x":195963.08000000194,"y":2558784.8900000025}},{"attributes":{"ID":496907,"DIS_CODE":0,"TOWNNAME":"玉井區","LI":"竹圍里","LIN":"7鄰","STREET":"工業街","SECT":" ","MAREA":" ","LANE":" ","ALLEY":" ","HOUSE_NO":"６５號","E_COORD97":196011.38,"N_COORD97":2558763.2400000002,"ADDRESS":"工業街６５號","OBJECTID":496880},"geometry":{"x":196011.37999999989,"y":2558763.2400000002}},{"attributes":{"ID":496908,"DIS_CODE":0,"TOWNNAME":"玉井區","LI":"竹圍里","LIN":"7鄰","STREET":"工業街","SECT":" ","MAREA":" ","LANE":" ","ALLEY":" ","HOUSE_NO":"２６６號","E_COORD97":196119.20999999999,"N_COORD97":2558840.6899999999,"ADDRESS":"工業街２６６號","OBJECTID":496881},"geometry":{"x":196119.20999999996,"y":2558840.6899999995}},{"attributes":{"ID":496909,"DIS_CODE":0,"TOWNNAME":"玉井區","LI":"竹圍里","LIN":"7鄰","STREET":"中正路","SECT":" ","MAREA":" ","LANE":" ","ALLEY":" ","HOUSE_NO":"４３２號","E_COORD97":195520.63,"N_COORD97":2558625.8700000001,"ADDRESS":"中正路４３２號","OBJECTID":496882},"geometry":{"x":195520.63000000082,"y":2558625.8700000029}},{"attributes":{"ID":496910,"DIS_CODE":0,"TOWNNAME":"玉井區","LI":"竹圍里","LIN":"7鄰","STREET":"忠孝街","SECT":" ","MAREA":" ","LANE":" ","ALLEY":" ","HOUSE_NO":"４５１號","E_COORD97":195687.37,"N_COORD97":2558606.6600000001,"ADDRESS":"忠孝街４５１號","OBJECTID":496883},"geometry":{"x":195687.37000000104,"y":2558606.660000002}},{"attributes":{"ID":496911,"DIS_CODE":0,"TOWNNAME":"玉井區","LI":"竹圍里","LIN":"7鄰","STREET":"中正路","SECT":" ","MAREA":" ","LANE":" ","ALLEY":" ","HOUSE_NO":"４４０號","E_COORD97":195531.60999999999,"N_COORD97":2558634.5699999998,"ADDRESS":"中正路４４０號","OBJECTID":496884},"geometry":{"x":195531.61000000127,"y":2558634.5700000022}},{"attributes":{"ID":496912,"DIS_CODE":0,"TOWNNAME":"玉井區","LI":"竹圍里","LIN":"7鄰","STREET":"中正路","SECT":" ","MAREA":" ","LANE":" ","ALLEY":" ","HOUSE_NO":"５１０號","E_COORD97":195619.87,"N_COORD97":2558710.7799999998,"ADDRESS":"中正路５１０號","OBJECTID":496885},"geometry":{"x":195619.87000000011,"y":2558710.7799999993}},{"attributes":{"ID":496913,"DIS_CODE":0,"TOWNNAME":"玉井區","LI":"竹圍里","LIN":"7鄰","STREET":"中正路","SECT":" ","MAREA":" ","LANE":" ","ALLEY":" ","HOUSE_NO":"４５２號","E_COORD97":195556.76000000001,"N_COORD97":2558650.3199999998,"ADDRESS":"中正路４５２號","OBJECTID":496886},"geometry":{"x":195556.76000000071,"y":2558650.3200000003}},{"attributes":{"ID":496914,"DIS_CODE":0,"TOWNNAME":"玉井區","LI":"竹圍里","LIN":"7鄰","STREET":"工業街","SECT":" ","MAREA":" ","LANE":" ","ALLEY":" ","HOUSE_NO":"５２號","E_COORD97":195970.57999999999,"N_COORD97":2558754.9199999999,"ADDRESS":"工業街５２號","OBJECTID":496887},"geometry":{"x":195970.58000000101,"y":2558754.9199999999}},{"attributes":{"ID":496915,"DIS_CODE":0,"TOWNNAME":"玉井區","LI":"竹圍里","LIN":"7鄰","STREET":"大成路","SECT":" ","MAREA":" ","LANE":" ","ALLEY":" ","HOUSE_NO":"４３０號","E_COORD97":195509.95000000001,"N_COORD97":2558616.3999999999,"ADDRESS":"大成路４３０號","OBJECTID":496888},"geometry":{"x":195509.95000000112,"y":2558616.4000000004}},{"attributes":{"ID":496916,"DIS_CODE":0,"TOWNNAME":"玉井區","LI":"玉田里","LIN":"7鄰","STREET":"中華路","SECT":" ","MAREA":" ","LANE":" ","ALLEY":" ","HOUSE_NO":"６７號","E_COORD97":194945.89999999999,"N_COORD97":2558069.2400000002,"ADDRESS":"中華路６７號","OBJECTID":496889},"geometry":{"x":194945.90000000224,"y":2558069.2400000039}},{"attributes":{"ID":496917,"DIS_CODE":0,"TOWNNAME":"玉井區","LI":"玉田里","LIN":"7鄰","STREET":"中華路","SECT":" ","MAREA":" ","LANE":" ","ALLEY":" ","HOUSE_NO":"６３號","E_COORD97":194939.22,"N_COORD97":2558075.2400000002,"ADDRESS":"中華路６３號","OBJECTID":496890},"geometry":{"x":194939.21999999974,"y":2558075.2400000002}},{"attributes":{"ID":496918,"DIS_CODE":0,"TOWNNAME":"玉井區","LI":"竹圍里","LIN":"7鄰","STREET":"大成路","SECT":" ","MAREA":" ","LANE":" ","ALLEY":" ","HOUSE_NO":"４２２號","E_COORD97":195518.31,"N_COORD97":2558607.1800000002,"ADDRESS":"大成路４２２號","OBJECTID":496891},"geometry":{"x":195518.30999999959,"y":2558607.1799999997}},{"attributes":{"ID":496919,"DIS_CODE":0,"TOWNNAME":"玉井區","LI":"玉田里","LIN":"7鄰","STREET":"中華路","SECT":" ","MAREA":" ","LANE":" ","ALLEY":" ","HOUSE_NO":"７３號","E_COORD97":194956.39999999999,"N_COORD97":2558066.2400000002,"ADDRESS":"中華路７３號","OBJECTID":496892},"geometry":{"x":194956.4000000013,"y":2558066.2400000021}},{"attributes":{"ID":496920,"DIS_CODE":0,"TOWNNAME":"玉井區","LI":"玉田里","LIN":"7鄰","STREET":"中華路","SECT":" ","MAREA":" ","LANE":" ","ALLEY":" ","HOUSE_NO":"４７號","E_COORD97":194931.31,"N_COORD97":2558103.2400000002,"ADDRESS":"中華路４７號","OBJECTID":496893},"geometry":{"x":194931.30999999959,"y":2558103.2400000039}},{"attributes":{"ID":496921,"DIS_CODE":0,"TOWNNAME":"玉井區","LI":"玉田里","LIN":"7鄰","STREET":"民族路","SECT":" ","MAREA":" ","LANE":" ","ALLEY":" ","HOUSE_NO":"１４號","E_COORD97":194971.73999999999,"N_COORD97":2558098.2799999998,"ADDRESS":"民族路１４號","OBJECTID":496894},"geometry":{"x":194971.74000000022,"y":2558098.2799999975}},{"attributes":{"ID":496922,"DIS_CODE":0,"TOWNNAME":"玉井區","LI":"玉田里","LIN":"7鄰","STREET":"民主街","SECT":" ","MAREA":" ","LANE":" ","ALLEY":" ","HOUSE_NO":"７５號","E_COORD97":194992.23999999999,"N_COORD97":2558058.2799999998,"ADDRESS":"民主街７５號","OBJECTID":496895},"geometry":{"x":194992.24000000022,"y":2558058.2800000012}},{"attributes":{"ID":496923,"DIS_CODE":0,"TOWNNAME":"玉井區","LI":"玉田里","LIN":"7鄰","STREET":"民族路","SECT":" ","MAREA":" ","LANE":" ","ALLEY":" ","HOUSE_NO":"１８號","E_COORD97":194977.54000000001,"N_COORD97":2558097.2799999998,"ADDRESS":"民族路１８號","OBJECTID":496896},"geometry":{"x":194977.54000000097,"y":2558097.2799999993}},{"attributes":{"ID":496924,"DIS_CODE":0,"TOWNNAME":"玉井區","LI":"玉田里","LIN":"7鄰","STREET":"民主街","SECT":" ","MAREA":" ","LANE":" ","ALLEY":" ","HOUSE_NO":"８５號","E_COORD97":195013.32999999999,"N_COORD97":2558056.29,"ADDRESS":"民主街８５號","OBJECTID":496897},"geometry":{"x":195013.33000000007,"y":2558056.2899999991}},{"attributes":{"ID":496925,"DIS_CODE":0,"TOWNNAME":"玉井區","LI":"玉田里","LIN":"7鄰","STREET":"民主街","SECT":" ","MAREA":" ","LANE":" ","ALLEY":" ","HOUSE_NO":"７１號","E_COORD97":194977.63,"N_COORD97":2558061.2799999998,"ADDRESS":"民主街７１號","OBJECTID":496898},"geometry":{"x":194977.63000000175,"y":2558061.2800000031}},{"attributes":{"ID":496926,"DIS_CODE":0,"TOWNNAME":"玉井區","LI":"玉田里","LIN":"7鄰","STREET":"民主街","SECT":" ","MAREA":" ","LANE":" ","ALLEY":" ","HOUSE_NO":"６９號","E_COORD97":194971.32999999999,"N_COORD97":2558063.2799999998,"ADDRESS":"民主街６９號","OBJECTID":496899},"geometry":{"x":194971.32999999914,"y":2558063.2799999993}},{"attributes":{"ID":496927,"DIS_CODE":0,"TOWNNAME":"玉井區","LI":"玉田里","LIN":"7鄰","STREET":"民主街","SECT":" ","MAREA":" ","LANE":" ","ALLEY":" ","HOUSE_NO":"７３號","E_COORD97":194987.73999999999,"N_COORD97":2558059.2799999998,"ADDRESS":"民主街７３號","OBJECTID":496900},"geometry":{"x":194987.74000000115,"y":2558059.2800000012}},{"attributes":{"ID":496928,"DIS_CODE":0,"TOWNNAME":"玉井區","LI":"玉田里","LIN":"7鄰","STREET":"民族路","SECT":" ","MAREA":" ","LANE":" ","ALLEY":" ","HOUSE_NO":"３４號","E_COORD97":195008.63,"N_COORD97":2558094.2799999998,"ADDRESS":"民族路３４號","OBJECTID":496901},"geometry":{"x":195008.63000000082,"y":2558094.2799999993}},{"attributes":{"ID":496929,"DIS_CODE":0,"TOWNNAME":"北區","LI":"中樓里","LIN":"7鄰","STREET":"東豐路","SECT":" ","MAREA":" ","LANE":" ","ALLEY":" ","HOUSE_NO":"９７號","E_COORD97":169692.73000000001,"N_COORD97":2544932.2000000002,"ADDRESS":"東豐路９７號","OBJECTID":496902},"geometry":{"x":169692.73000000138,"y":2544932.2000000011}},{"attributes":{"ID":496930,"DIS_CODE":0,"TOWNNAME":"學甲區","LI":"慈福里","LIN":"7鄰","STREET":"民生路","SECT":" ","MAREA":" ","LANE":" ","ALLEY":" ","HOUSE_NO":"１８號","E_COORD97":166476.67000000001,"N_COORD97":2570162.4900000002,"ADDRESS":"民生路１８號","OBJECTID":496903},"geometry":{"x":166476.67000000086,"y":2570162.4900000021}},{"attributes":{"ID":496931,"DIS_CODE":0,"TOWNNAME":"學甲區","LI":"慈福里","LIN":"7鄰","STREET":"民權路","SECT":" ","MAREA":" ","LANE":" ","ALLEY":" ","HOUSE_NO":"１６號","E_COORD97":166476.17000000001,"N_COORD97":2570144.6499999999,"ADDRESS":"民權路１６號","OBJECTID":496904},"geometry":{"x":166476.17000000179,"y":2570144.6500000022}},{"attributes":{"ID":496932,"DIS_CODE":0,"TOWNNAME":"學甲區","LI":"新達里","LIN":"7鄰","STREET":"民生路","SECT":" ","MAREA":" ","LANE":" ","ALLEY":" ","HOUSE_NO":"４９號","E_COORD97":166536.64999999999,"N_COORD97":2570583.2400000002,"ADDRESS":"民生路４９號","OBJECTID":496905},"geometry":{"x":166536.6500000013,"y":2570583.2400000039}},{"attributes":{"ID":496933,"DIS_CODE":0,"TOWNNAME":"學甲區","LI":"新達里","LIN":"7鄰","STREET":"民生路","SECT":" ","MAREA":" ","LANE":" ","ALLEY":" ","HOUSE_NO":"５１號之３","E_COORD97":166526.19,"N_COORD97":2570595.3500000001,"ADDRESS":"民生路５１號之３","OBJECTID":496906},"geometry":{"x":166526.19000000134,"y":2570595.3500000034}},{"attributes":{"ID":496934,"DIS_CODE":0,"TOWNNAME":"學甲區","LI":"新達里","LIN":"7鄰","STREET":"民生路","SECT":" ","MAREA":" ","LANE":" ","ALLEY":" ","HOUSE_NO":"５１號","E_COORD97":166529.85000000001,"N_COORD97":2570608.8799999999,"ADDRESS":"民生路５１號","OBJECTID":496907},"geometry":{"x":166529.84999999963,"y":2570608.8800000008}},{"attributes":{"ID":496935,"DIS_CODE":0,"TOWNNAME":"學甲區","LI":"新達里","LIN":"7鄰","STREET":"民生路","SECT":" ","MAREA":" ","LANE":" ","ALLEY":" ","HOUSE_NO":"５５號","E_COORD97":166551.20000000001,"N_COORD97":2570620.1099999999,"ADDRESS":"民生路５５號","OBJECTID":496908},"geometry":{"x":166551.20000000112,"y":2570620.1099999994}},{"attributes":{"ID":496936,"DIS_CODE":0,"TOWNNAME":"學甲區","LI":"新達里","LIN":"7鄰","STREET":"民生路","SECT":" ","MAREA":" ","LANE":" ","ALLEY":" ","HOUSE_NO":"５７號","E_COORD97":166557.44,"N_COORD97":2570641.2000000002,"ADDRESS":"民生路５７號","OBJECTID":496909},"geometry":{"x":166557.44000000041,"y":2570641.2000000011}},{"attributes":{"ID":496937,"DIS_CODE":0,"TOWNNAME":"學甲區","LI":"新達里","LIN":"7鄰","STREET":"民生路","SECT":" ","MAREA":" ","LANE":" ","ALLEY":" ","HOUSE_NO":"６５號","E_COORD97":166558.23000000001,"N_COORD97":2570663.0499999998,"ADDRESS":"民生路６５號","OBJECTID":496910},"geometry":{"x":166558.23000000138,"y":2570663.0500000045}},{"attributes":{"ID":496938,"DIS_CODE":0,"TOWNNAME":"安平區","LI":"石門里","LIN":"18鄰","STREET":"平生路","SECT":" ","MAREA":" ","LANE":" ","ALLEY":" ","HOUSE_NO":"４０號之１","E_COORD97":164356.60999999999,"N_COORD97":2544576.5,"ADDRESS":"平生路４０號之１","OBJECTID":496911},"geometry":{"x":164356.61000000127,"y":2544576.5}},{"attributes":{"ID":496939,"DIS_CODE":0,"TOWNNAME":"安平區","LI":"石門里","LIN":"17鄰","STREET":"平生路","SECT":" ","MAREA":" ","LANE":" ","ALLEY":" ","HOUSE_NO":"４２號","E_COORD97":164343.94719100001,"N_COORD97":2544610.9805000001,"ADDRESS":"平生路４２號","OBJECTID":496912},"geometry":{"x":164343.94719100185,"y":2544610.9805040024}},{"attributes":{"ID":496940,"DIS_CODE":0,"TOWNNAME":"安平區","LI":"石門里","LIN":"17鄰","STREET":"平生路","SECT":" ","MAREA":" ","LANE":" ","ALLEY":" ","HOUSE_NO":"４４號","E_COORD97":164347.79999999999,"N_COORD97":2544617.73,"ADDRESS":"平生路４４號","OBJECTID":496913},"geometry":{"x":164347.80000000168,"y":2544617.7300000023}},{"attributes":{"ID":496941,"DIS_CODE":0,"TOWNNAME":"安平區","LI":"石門里","LIN":"17鄰","STREET":"平生路","SECT":" ","MAREA":" ","LANE":" ","ALLEY":" ","HOUSE_NO":"４６號","E_COORD97":164348.67999999999,"N_COORD97":2544621.5299999998,"ADDRESS":"平生路４６號","OBJECTID":496914},"geometry":{"x":164348.68000000063,"y":2544621.5300000012}},{"attributes":{"ID":496942,"DIS_CODE":0,"TOWNNAME":"安平區","LI":"石門里","LIN":"17鄰","STREET":"平生路","SECT":" ","MAREA":" ","LANE":" ","ALLEY":" ","HOUSE_NO":"４８號","E_COORD97":164350.44,"N_COORD97":2544624.75,"ADDRESS":"平生路４８號","OBJECTID":496915},"geometry":{"x":164350.44000000041,"y":2544624.75}},{"attributes":{"ID":496943,"DIS_CODE":0,"TOWNNAME":"安平區","LI":"石門里","LIN":"17鄰","STREET":"平生路","SECT":" ","MAREA":" ","LANE":" ","ALLEY":" ","HOUSE_NO":"５０號","E_COORD97":164351.31,"N_COORD97":2544628.8399999999,"ADDRESS":"平生路５０號","OBJECTID":496916},"geometry":{"x":164351.31000000052,"y":2544628.8400000036}},{"attributes":{"ID":496944,"DIS_CODE":0,"TOWNNAME":"安平區","LI":"石門里","LIN":"17鄰","STREET":"平生路","SECT":" ","MAREA":" ","LANE":" ","ALLEY":" ","HOUSE_NO":"５２號","E_COORD97":164351.60999999999,"N_COORD97":2544632.0600000001,"ADDRESS":"平生路５２號","OBJECTID":496917},"geometry":{"x":164351.61000000127,"y":2544632.0600000024}},{"attributes":{"ID":496945,"DIS_CODE":0,"TOWNNAME":"安平區","LI":"石門里","LIN":"17鄰","STREET":"平生路","SECT":" ","MAREA":" ","LANE":" ","ALLEY":" ","HOUSE_NO":"５４號","E_COORD97":164351.89999999999,"N_COORD97":2544634.98,"ADDRESS":"平生路５４號","OBJECTID":496918},"geometry":{"x":164351.90000000037,"y":2544634.9799999986}},{"attributes":{"ID":496946,"DIS_CODE":0,"TOWNNAME":"安平區","LI":"石門里","LIN":"17鄰","STREET":"平生路","SECT":" ","MAREA":" ","LANE":" ","ALLEY":" ","HOUSE_NO":"５６號","E_COORD97":164353.66,"N_COORD97":2544639.96,"ADDRESS":"平生路５６號","OBJECTID":496919},"geometry":{"x":164353.66000000015,"y":2544639.9600000028}},{"attributes":{"ID":496947,"DIS_CODE":0,"TOWNNAME":"安平區","LI":"石門里","LIN":"17鄰","STREET":"平生路","SECT":" ","MAREA":" ","LANE":" ","ALLEY":" ","HOUSE_NO":"５８號","E_COORD97":164352.48999999999,"N_COORD97":2544645.2200000002,"ADDRESS":"平生路５８號","OBJECTID":496920},"geometry":{"x":164352.49000000115,"y":2544645.2200000025}},{"attributes":{"ID":496948,"DIS_CODE":0,"TOWNNAME":"學甲區","LI":"新達里","LIN":"7鄰","STREET":"民生路","SECT":" ","MAREA":" ","LANE":" ","ALLEY":" ","HOUSE_NO":"６７號","E_COORD97":166564.17999999999,"N_COORD97":2570681.6299999999,"ADDRESS":"民生路６７號","OBJECTID":496921},"geometry":{"x":166564.18000000156,"y":2570681.6300000008}},{"attributes":{"ID":496949,"DIS_CODE":0,"TOWNNAME":"學甲區","LI":"慈福里","LIN":"7鄰","STREET":"民族路","SECT":" ","MAREA":" ","LANE":" ","ALLEY":" ","HOUSE_NO":"２３號之３","E_COORD97":166562.70999999999,"N_COORD97":2570092.5,"ADDRESS":"民族路２３號之３","OBJECTID":496922},"geometry":{"x":166562.71000000089,"y":2570092.5}},{"attributes":{"ID":496950,"DIS_CODE":0,"TOWNNAME":"學甲區","LI":"慈福里","LIN":"7鄰","STREET":"民族路","SECT":" ","MAREA":" ","LANE":" ","ALLEY":" ","HOUSE_NO":"２３號之４","E_COORD97":166563.79999999999,"N_COORD97":2570098.6899999999,"ADDRESS":"民族路２３號之４","OBJECTID":496923},"geometry":{"x":166563.80000000075,"y":2570098.6900000013}},{"attributes":{"ID":496951,"DIS_CODE":0,"TOWNNAME":"學甲區","LI":"慈福里","LIN":"7鄰","STREET":"民族路","SECT":" ","MAREA":" ","LANE":" ","ALLEY":" ","HOUSE_NO":"２３號","E_COORD97":166556.79999999999,"N_COORD97":2570085.3500000001,"ADDRESS":"民族路２３號","OBJECTID":496924},"geometry":{"x":166556.80000000075,"y":2570085.3499999996}},{"attributes":{"ID":496952,"DIS_CODE":0,"TOWNNAME":"學甲區","LI":"慈福里","LIN":"7鄰","STREET":"民族路","SECT":" ","MAREA":" ","LANE":" ","ALLEY":" ","HOUSE_NO":"２７號之１","E_COORD97":166569.23000000001,"N_COORD97":2570143.9199999999,"ADDRESS":"民族路２７號之１","OBJECTID":496925},"geometry":{"x":166569.23000000045,"y":2570143.9199999981}},{"attributes":{"ID":496953,"DIS_CODE":0,"TOWNNAME":"學甲區","LI":"慈福里","LIN":"7鄰","STREET":"民族路","SECT":" ","MAREA":" ","LANE":" ","ALLEY":" ","HOUSE_NO":"２７號","E_COORD97":166568.54000000001,"N_COORD97":2570139.9300000002,"ADDRESS":"民族路２７號","OBJECTID":496926},"geometry":{"x":166568.54000000004,"y":2570139.9299999997}},{"attributes":{"ID":496954,"DIS_CODE":0,"TOWNNAME":"學甲區","LI":"慈福里","LIN":"7鄰","STREET":"民權路","SECT":" ","MAREA":" ","LANE":" ","ALLEY":" ","HOUSE_NO":"１０號之１","E_COORD97":166510.48999999999,"N_COORD97":2570150.6699999999,"ADDRESS":"民權路１０號之１","OBJECTID":496927},"geometry":{"x":166510.49000000115,"y":2570150.6700000018}},{"attributes":{"ID":496955,"DIS_CODE":0,"TOWNNAME":"學甲區","LI":"慈福里","LIN":"7鄰","STREET":"民權路","SECT":" ","MAREA":" ","LANE":" ","ALLEY":" ","HOUSE_NO":"１０號","E_COORD97":166506.19,"N_COORD97":2570132.7200000002,"ADDRESS":"民權路１０號","OBJECTID":496928},"geometry":{"x":166506.19000000134,"y":2570132.7200000044}},{"attributes":{"ID":496956,"DIS_CODE":0,"TOWNNAME":"學甲區","LI":"慈福里","LIN":"7鄰","STREET":"民權路","SECT":" ","MAREA":" ","LANE":" ","ALLEY":" ","HOUSE_NO":"１１號","E_COORD97":166485.10999999999,"N_COORD97":2570113.1499999999,"ADDRESS":"民權路１１號","OBJECTID":496929},"geometry":{"x":166485.11000000034,"y":2570113.1500000022}},{"attributes":{"ID":496957,"DIS_CODE":0,"TOWNNAME":"學甲區","LI":"慈福里","LIN":"7鄰","STREET":"民權路","SECT":" ","MAREA":" ","LANE":" ","ALLEY":" ","HOUSE_NO":"１３號","E_COORD97":166481.17000000001,"N_COORD97":2570114.0800000001,"ADDRESS":"民權路１３號","OBJECTID":496930},"geometry":{"x":166481.16999999899,"y":2570114.0800000019}},{"attributes":{"ID":496958,"DIS_CODE":0,"TOWNNAME":"學甲區","LI":"慈福里","LIN":"7鄰","STREET":"民權路","SECT":" ","MAREA":" ","LANE":" ","ALLEY":" ","HOUSE_NO":"１４號","E_COORD97":166494.95999999999,"N_COORD97":2570140.75,"ADDRESS":"民權路１４號","OBJECTID":496931},"geometry":{"x":166494.96000000089,"y":2570140.75}},{"attributes":{"ID":496959,"DIS_CODE":0,"TOWNNAME":"學甲區","LI":"慈福里","LIN":"7鄰","STREET":"民權路","SECT":" ","MAREA":" ","LANE":" ","ALLEY":" ","HOUSE_NO":"１號之１","E_COORD97":166551.73999999999,"N_COORD97":2570099.7200000002,"ADDRESS":"民權路１號之１","OBJECTID":496932},"geometry":{"x":166551.74000000022,"y":2570099.7200000025}},{"attributes":{"ID":496960,"DIS_CODE":0,"TOWNNAME":"學甲區","LI":"慈福里","LIN":"7鄰","STREET":"民權路","SECT":" ","MAREA":" ","LANE":" ","ALLEY":" ","HOUSE_NO":"１號","E_COORD97":166555.94,"N_COORD97":2570098.5600000001,"ADDRESS":"民權路１號","OBJECTID":496933},"geometry":{"x":166555.94000000041,"y":2570098.5600000005}},{"attributes":{"ID":496961,"DIS_CODE":0,"TOWNNAME":"學甲區","LI":"明宜里","LIN":"7鄰","STREET":"民權路","SECT":" ","MAREA":" ","LANE":" ","ALLEY":" ","HOUSE_NO":"２１４號","E_COORD97":165702.31,"N_COORD97":2570420.6899999999,"ADDRESS":"民權路２１４號","OBJECTID":496934},"geometry":{"x":165702.31000000052,"y":2570420.6900000013}},{"attributes":{"ID":496962,"DIS_CODE":0,"TOWNNAME":"學甲區","LI":"明宜里","LIN":"7鄰","STREET":"民權路","SECT":" ","MAREA":" ","LANE":" ","ALLEY":" ","HOUSE_NO":"２１６號","E_COORD97":165704.87,"N_COORD97":2570427.8599999999,"ADDRESS":"民權路２１６號","OBJECTID":496935},"geometry":{"x":165704.87000000011,"y":2570427.8599999994}},{"attributes":{"ID":496963,"DIS_CODE":0,"TOWNNAME":"學甲區","LI":"明宜里","LIN":"7鄰","STREET":"民權路","SECT":" ","MAREA":" ","LANE":" ","ALLEY":" ","HOUSE_NO":"２２６號","E_COORD97":165693.04000000001,"N_COORD97":2570479.3599999999,"ADDRESS":"民權路２２６號","OBJECTID":496936},"geometry":{"x":165693.04000000097,"y":2570479.3599999994}},{"attributes":{"ID":496964,"DIS_CODE":0,"TOWNNAME":"學甲區","LI":"明宜里","LIN":"7鄰","STREET":"民權路","SECT":" ","MAREA":" ","LANE":" ","ALLEY":" ","HOUSE_NO":"２３０號","E_COORD97":165697.14999999999,"N_COORD97":2570483.2599999998,"ADDRESS":"民權路２３０號","OBJECTID":496937},"geometry":{"x":165697.15000000224,"y":2570483.2599999998}},{"attributes":{"ID":496965,"DIS_CODE":0,"TOWNNAME":"學甲區","LI":"慈福里","LIN":"7鄰","STREET":"民權路","SECT":" ","MAREA":" ","LANE":" ","ALLEY":" ","HOUSE_NO":"２號之２","E_COORD97":166561.32000000001,"N_COORD97":2570125.8399999999,"ADDRESS":"民權路２號之２","OBJECTID":496938},"geometry":{"x":166561.3200000003,"y":2570125.8400000017}},{"attributes":{"ID":496966,"DIS_CODE":0,"TOWNNAME":"學甲區","LI":"慈福里","LIN":"7鄰","STREET":"民權路","SECT":" ","MAREA":" ","LANE":" ","ALLEY":" ","HOUSE_NO":"２號","E_COORD97":166555.79000000001,"N_COORD97":2570127.8100000001,"ADDRESS":"民權路２號","OBJECTID":496939},"geometry":{"x":166555.79000000097,"y":2570127.8100000005}},{"attributes":{"ID":496967,"DIS_CODE":0,"TOWNNAME":"學甲區","LI":"慈福里","LIN":"7鄰","STREET":"民權路","SECT":" ","MAREA":" ","LANE":" ","ALLEY":" ","HOUSE_NO":"３號之１","E_COORD97":166541.82999999999,"N_COORD97":2570102.1400000001,"ADDRESS":"民權路３號之１","OBJECTID":496940},"geometry":{"x":166541.83000000101,"y":2570102.1400000006}},{"attributes":{"ID":496968,"DIS_CODE":0,"TOWNNAME":"學甲區","LI":"慈福里","LIN":"7鄰","STREET":"民權路","SECT":" ","MAREA":" ","LANE":" ","ALLEY":" ","HOUSE_NO":"３號","E_COORD97":166546.32999999999,"N_COORD97":2570100.98,"ADDRESS":"民權路３號","OBJECTID":496941},"geometry":{"x":166546.33000000007,"y":2570100.9800000023}},{"attributes":{"ID":496969,"DIS_CODE":0,"TOWNNAME":"學甲區","LI":"慈福里","LIN":"7鄰","STREET":"民權路","SECT":" ","MAREA":" ","LANE":" ","ALLEY":" ","HOUSE_NO":"４號之１","E_COORD97":166541.87,"N_COORD97":2570121.6000000001,"ADDRESS":"民權路４號之１","OBJECTID":496942},"geometry":{"x":166541.87000000104,"y":2570121.5999999996}},{"attributes":{"ID":496970,"DIS_CODE":0,"TOWNNAME":"學甲區","LI":"慈福里","LIN":"7鄰","STREET":"民權路","SECT":" ","MAREA":" ","LANE":" ","ALLEY":" ","HOUSE_NO":"４號之２","E_COORD97":166536.82999999999,"N_COORD97":2570122.7400000002,"ADDRESS":"民權路４號之２","OBJECTID":496943},"geometry":{"x":166536.83000000101,"y":2570122.7400000021}},{"attributes":{"ID":496971,"DIS_CODE":0,"TOWNNAME":"學甲區","LI":"慈福里","LIN":"7鄰","STREET":"民權路","SECT":" ","MAREA":" ","LANE":" ","ALLEY":" ","HOUSE_NO":"４號之３","E_COORD97":166532.88,"N_COORD97":2570124.48,"ADDRESS":"民權路４號之３","OBJECTID":496944},"geometry":{"x":166532.88000000082,"y":2570124.4800000023}},{"attributes":{"ID":496972,"DIS_CODE":0,"TOWNNAME":"學甲區","LI":"慈福里","LIN":"7鄰","STREET":"民權路","SECT":" ","MAREA":" ","LANE":" ","ALLEY":" ","HOUSE_NO":"４號","E_COORD97":166545.89999999999,"N_COORD97":2570120.6099999999,"ADDRESS":"民權路４號","OBJECTID":496945},"geometry":{"x":166545.90000000037,"y":2570120.6099999994}},{"attributes":{"ID":496973,"DIS_CODE":0,"TOWNNAME":"學甲區","LI":"慈福里","LIN":"7鄰","STREET":"民權路","SECT":" ","MAREA":" ","LANE":" ","ALLEY":" ","HOUSE_NO":"５號之５","E_COORD97":166517.70000000001,"N_COORD97":2570105.6400000001,"ADDRESS":"民權路５號之５","OBJECTID":496946},"geometry":{"x":166517.70000000112,"y":2570105.6400000006}},{"attributes":{"ID":496974,"DIS_CODE":0,"TOWNNAME":"學甲區","LI":"慈福里","LIN":"7鄰","STREET":"民權路","SECT":" ","MAREA":" ","LANE":" ","ALLEY":" ","HOUSE_NO":"６號","E_COORD97":166528.20999999999,"N_COORD97":2570128.3599999999,"ADDRESS":"民權路６號","OBJECTID":496947},"geometry":{"x":166528.20999999996,"y":2570128.3600000013}},{"attributes":{"ID":496975,"DIS_CODE":0,"TOWNNAME":"學甲區","LI":"慈福里","LIN":"7鄰","STREET":"民權路","SECT":" ","MAREA":" ","LANE":" ","ALLEY":" ","HOUSE_NO":"７號","E_COORD97":166501.57999999999,"N_COORD97":2570110.1000000001,"ADDRESS":"民權路７號","OBJECTID":496948},"geometry":{"x":166501.58000000007,"y":2570110.1000000015}},{"attributes":{"ID":496976,"DIS_CODE":0,"TOWNNAME":"學甲區","LI":"慈福里","LIN":"7鄰","STREET":"民權路","SECT":" ","MAREA":" ","LANE":" ","ALLEY":" ","HOUSE_NO":"８號之２","E_COORD97":166514.72,"N_COORD97":2570130.9700000002,"ADDRESS":"民權路８號之２","OBJECTID":496949},"geometry":{"x":166514.7200000016,"y":2570130.9700000044}},{"attributes":{"ID":496977,"DIS_CODE":0,"TOWNNAME":"學甲區","LI":"慈福里","LIN":"7鄰","STREET":"民權路","SECT":" ","MAREA":" ","LANE":" ","ALLEY":" ","HOUSE_NO":"８號之３","E_COORD97":166511,"N_COORD97":2570131.6800000002,"ADDRESS":"民權路８號之３","OBJECTID":496950},"geometry":{"x":166511,"y":2570131.6799999997}},{"attributes":{"ID":496978,"DIS_CODE":0,"TOWNNAME":"學甲區","LI":"慈福里","LIN":"7鄰","STREET":"民權路","SECT":" ","MAREA":" ","LANE":" ","ALLEY":" ","HOUSE_NO":"８號","E_COORD97":166523,"N_COORD97":2570129.1899999999,"ADDRESS":"民權路８號","OBJECTID":496951},"geometry":{"x":166523,"y":2570129.1900000013}},{"attributes":{"ID":496979,"DIS_CODE":0,"TOWNNAME":"學甲區","LI":"仁得里","LIN":"7鄰","STREET":"成功路","SECT":" ","MAREA":" ","LANE":" ","ALLEY":" ","HOUSE_NO":"２７號","E_COORD97":166158.23000000001,"N_COORD97":2570273.5,"ADDRESS":"成功路２７號","OBJECTID":496952},"geometry":{"x":166158.23000000138,"y":2570273.5000000019}},{"attributes":{"ID":496980,"DIS_CODE":0,"TOWNNAME":"學甲區","LI":"仁得里","LIN":"7鄰","STREET":"成功路","SECT":" ","MAREA":" ","LANE":" ","ALLEY":" ","HOUSE_NO":"３１號","E_COORD97":166158.32000000001,"N_COORD97":2570283.9900000002,"ADDRESS":"成功路３１號","OBJECTID":496953},"geometry":{"x":166158.3200000003,"y":2570283.9900000021}},{"attributes":{"ID":496981,"DIS_CODE":0,"TOWNNAME":"學甲區","LI":"新達里","LIN":"7鄰","STREET":"法源路","SECT":" ","MAREA":" ","LANE":" ","ALLEY":" ","HOUSE_NO":"１０號","E_COORD97":166500.35999999999,"N_COORD97":2570616.29,"ADDRESS":"法源路１０號","OBJECTID":496954},"geometry":{"x":166500.36000000034,"y":2570616.290000001}},{"attributes":{"ID":496982,"DIS_CODE":0,"TOWNNAME":"學甲區","LI":"新達里","LIN":"7鄰","STREET":"法源路","SECT":" ","MAREA":" ","LANE":" ","ALLEY":" ","HOUSE_NO":"１２號","E_COORD97":166516.79999999999,"N_COORD97":2570612.9500000002,"ADDRESS":"法源路１２號","OBJECTID":496955},"geometry":{"x":166516.79999999981,"y":2570612.9499999993}},{"attributes":{"ID":496983,"DIS_CODE":0,"TOWNNAME":"學甲區","LI":"新達里","LIN":"7鄰","STREET":"法源路","SECT":" ","MAREA":" ","LANE":" ","ALLEY":" ","HOUSE_NO":"２０號","E_COORD97":166521.53,"N_COORD97":2570657.6899999999,"ADDRESS":"法源路２０號","OBJECTID":496956},"geometry":{"x":166521.53000000212,"y":2570657.6900000013}},{"attributes":{"ID":496984,"DIS_CODE":0,"TOWNNAME":"學甲區","LI":"新榮里","LIN":"7鄰","STREET":"建國東路","SECT":" ","MAREA":" ","LANE":" ","ALLEY":" ","HOUSE_NO":"２０號","E_COORD97":166895.03,"N_COORD97":2569925.0800000001,"ADDRESS":"建國東路２０號","OBJECTID":496957},"geometry":{"x":166895.03000000119,"y":2569925.0800000001}},{"attributes":{"ID":496985,"DIS_CODE":0,"TOWNNAME":"學甲區","LI":"新榮里","LIN":"7鄰","STREET":"建國東路","SECT":" ","MAREA":" ","LANE":" ","ALLEY":" ","HOUSE_NO":"２２號","E_COORD97":166890.89999999999,"N_COORD97":2569925.3599999999,"ADDRESS":"建國東路２２號","OBJECTID":496958},"geometry":{"x":166890.9000000013,"y":2569925.3600000013}},{"attributes":{"ID":496986,"DIS_CODE":0,"TOWNNAME":"學甲區","LI":"新榮里","LIN":"7鄰","STREET":"建國東路","SECT":" ","MAREA":" ","LANE":" ","ALLEY":" ","HOUSE_NO":"２６號","E_COORD97":166886.76999999999,"N_COORD97":2569925.6499999999,"ADDRESS":"建國東路２６號","OBJECTID":496959},"geometry":{"x":166886.76999999955,"y":2569925.6500000004}},{"attributes":{"ID":496987,"DIS_CODE":0,"TOWNNAME":"學甲區","LI":"新榮里","LIN":"7鄰","STREET":"建國東路","SECT":" ","MAREA":" ","LANE":" ","ALLEY":" ","HOUSE_NO":"２８號","E_COORD97":166882.64000000001,"N_COORD97":2569925.9300000002,"ADDRESS":"建國東路２８號","OBJECTID":496960},"geometry":{"x":166882.63999999966,"y":2569925.9299999997}},{"attributes":{"ID":496988,"DIS_CODE":0,"TOWNNAME":"學甲區","LI":"新榮里","LIN":"7鄰","STREET":"建國東路","SECT":" ","MAREA":" ","LANE":" ","ALLEY":" ","HOUSE_NO":"３０號","E_COORD97":166878.51000000001,"N_COORD97":2569926.2200000002,"ADDRESS":"建國東路３０號","OBJECTID":496961},"geometry":{"x":166878.50999999978,"y":2569926.2200000044}},{"attributes":{"ID":496989,"DIS_CODE":0,"TOWNNAME":"學甲區","LI":"新榮里","LIN":"7鄰","STREET":"建國東路","SECT":" ","MAREA":" ","LANE":" ","ALLEY":" ","HOUSE_NO":"３２號","E_COORD97":166874.38,"N_COORD97":2569926.5,"ADDRESS":"建國東路３２號","OBJECTID":496962},"geometry":{"x":166874.37999999989,"y":2569926.4999999981}},{"attributes":{"ID":496990,"DIS_CODE":0,"TOWNNAME":"學甲區","LI":"新榮里","LIN":"7鄰","STREET":"建國東路","SECT":" ","MAREA":" ","LANE":" ","ALLEY":" ","HOUSE_NO":"３６號","E_COORD97":166870.25,"N_COORD97":2569926.79,"ADDRESS":"建國東路３６號","OBJECTID":496963},"geometry":{"x":166870.25,"y":2569926.7899999991}},{"attributes":{"ID":496991,"DIS_CODE":0,"TOWNNAME":"學甲區","LI":"新榮里","LIN":"7鄰","STREET":"建國東路","SECT":" ","MAREA":" ","LANE":" ","ALLEY":" ","HOUSE_NO":"３８號","E_COORD97":166866.12,"N_COORD97":2569927.0699999998,"ADDRESS":"建國東路３８號","OBJECTID":496964},"geometry":{"x":166866.12000000011,"y":2569927.0700000022}},{"attributes":{"ID":496992,"DIS_CODE":0,"TOWNNAME":"學甲區","LI":"新榮里","LIN":"7鄰","STREET":"建國東路","SECT":" ","MAREA":" ","LANE":" ","ALLEY":" ","HOUSE_NO":"４０號","E_COORD97":166861.98999999999,"N_COORD97":2569927.3500000001,"ADDRESS":"建國東路４０號","OBJECTID":496965},"geometry":{"x":166861.99000000022,"y":2569927.3500000034}},{"attributes":{"ID":496993,"DIS_CODE":0,"TOWNNAME":"學甲區","LI":"新榮里","LIN":"7鄰","STREET":"建國東路","SECT":" ","MAREA":" ","LANE":" ","ALLEY":" ","HOUSE_NO":"４２號","E_COORD97":166857.85999999999,"N_COORD97":2569927.6400000001,"ADDRESS":"建國東路４２號","OBJECTID":496966},"geometry":{"x":166857.86000000034,"y":2569927.6400000025}},{"attributes":{"ID":496994,"DIS_CODE":0,"TOWNNAME":"學甲區","LI":"新榮里","LIN":"7鄰","STREET":"建國東路","SECT":" ","MAREA":" ","LANE":" ","ALLEY":" ","HOUSE_NO":"４６號","E_COORD97":166853.73000000001,"N_COORD97":2569927.9199999999,"ADDRESS":"建國東路４６號","OBJECTID":496967},"geometry":{"x":166853.73000000045,"y":2569927.9200000018}},{"attributes":{"ID":496995,"DIS_CODE":0,"TOWNNAME":"學甲區","LI":"新榮里","LIN":"7鄰","STREET":"建國東路","SECT":" ","MAREA":" ","LANE":" ","ALLEY":" ","HOUSE_NO":"４８號","E_COORD97":166849.59,"N_COORD97":2569928.21,"ADDRESS":"建國東路４８號","OBJECTID":496968},"geometry":{"x":166849.59000000171,"y":2569928.2100000009}},{"attributes":{"ID":496996,"DIS_CODE":0,"TOWNNAME":"學甲區","LI":"新榮里","LIN":"7鄰","STREET":"建國東路","SECT":" ","MAREA":" ","LANE":" ","ALLEY":" ","HOUSE_NO":"５２號","E_COORD97":166835.89999999999,"N_COORD97":2569927.9700000002,"ADDRESS":"建國東路５２號","OBJECTID":496969},"geometry":{"x":166835.90000000037,"y":2569927.9700000025}},{"attributes":{"ID":496997,"DIS_CODE":0,"TOWNNAME":"學甲區","LI":"新榮里","LIN":"7鄰","STREET":"建國東路","SECT":" ","MAREA":" ","LANE":" ","ALLEY":" ","HOUSE_NO":"５６號","E_COORD97":166831.91,"N_COORD97":2569928.7400000002,"ADDRESS":"建國東路５６號","OBJECTID":496970},"geometry":{"x":166831.91000000015,"y":2569928.7400000039}},{"attributes":{"ID":496998,"DIS_CODE":0,"TOWNNAME":"學甲區","LI":"新榮里","LIN":"7鄰","STREET":"建國東路","SECT":" ","MAREA":" ","LANE":" ","ALLEY":" ","HOUSE_NO":"５８號","E_COORD97":166828.09,"N_COORD97":2569929.3599999999,"ADDRESS":"建國東路５８號","OBJECTID":496971},"geometry":{"x":166828.09000000078,"y":2569929.3599999994}},{"attributes":{"ID":496999,"DIS_CODE":0,"TOWNNAME":"學甲區","LI":"新榮里","LIN":"7鄰","STREET":"建國東路","SECT":" ","MAREA":" ","LANE":" ","ALLEY":" ","HOUSE_NO":"６０號","E_COORD97":166824.06,"N_COORD97":2569929.6899999999,"ADDRESS":"建國東路６０號","OBJECTID":496972},"geometry":{"x":166824.06000000145,"y":2569929.6900000013}},{"attributes":{"ID":497000,"DIS_CODE":0,"TOWNNAME":"學甲區","LI":"新榮里","LIN":"7鄰","STREET":"建國東路","SECT":" ","MAREA":" ","LANE":" ","ALLEY":" ","HOUSE_NO":"６６號","E_COORD97":166815.38,"N_COORD97":2569934.5499999998,"ADDRESS":"建國東路６６號","OBJECTID":496973},"geometry":{"x":166815.37999999896,"y":2569934.5500000026}},{"attributes":{"ID":497001,"DIS_CODE":0,"TOWNNAME":"學甲區","LI":"新榮里","LIN":"7鄰","STREET":"建國東路","SECT":" ","MAREA":" ","LANE":" ","ALLEY":" ","HOUSE_NO":"６８號","E_COORD97":166811.72,"N_COORD97":2569934.8500000001,"ADDRESS":"建國東路６８號","OBJECTID":496974},"geometry":{"x":166811.72000000067,"y":2569934.8500000015}},{"attributes":{"ID":497002,"DIS_CODE":0,"TOWNNAME":"學甲區","LI":"新榮里","LIN":"7鄰","STREET":"建國東路","SECT":" ","MAREA":" ","LANE":" ","ALLEY":" ","HOUSE_NO":"７０號","E_COORD97":166807.45999999999,"N_COORD97":2569935.3500000001,"ADDRESS":"建國東路７０號","OBJECTID":496975},"geometry":{"x":166807.45999999996,"y":2569935.3500000015}},{"attributes":{"ID":497003,"DIS_CODE":0,"TOWNNAME":"學甲區","LI":"新榮里","LIN":"7鄰","STREET":"建國東路","SECT":" ","MAREA":" ","LANE":" ","ALLEY":" ","HOUSE_NO":"７２號","E_COORD97":166802.95999999999,"N_COORD97":2569935.1499999999,"ADDRESS":"建國東路７２號","OBJECTID":496976},"geometry":{"x":166802.95999999996,"y":2569935.1500000004}},{"attributes":{"ID":497004,"DIS_CODE":0,"TOWNNAME":"學甲區","LI":"新榮里","LIN":"7鄰","STREET":"建國東路","SECT":" ","MAREA":" ","LANE":" ","ALLEY":" ","HOUSE_NO":"７６號","E_COORD97":166798.60999999999,"N_COORD97":2569935.8799999999,"ADDRESS":"建國東路７６號","OBJECTID":496977},"geometry":{"x":166798.61000000034,"y":2569935.879999999}},{"attributes":{"ID":497005,"DIS_CODE":0,"TOWNNAME":"學甲區","LI":"新榮里","LIN":"7鄰","STREET":"建國東路","SECT":" ","MAREA":" ","LANE":" ","ALLEY":" ","HOUSE_NO":"７８號","E_COORD97":166795.16,"N_COORD97":2569936.2000000002,"ADDRESS":"建國東路７８號","OBJECTID":496978},"geometry":{"x":166795.16000000201,"y":2569936.2000000011}},{"attributes":{"ID":497006,"DIS_CODE":0,"TOWNNAME":"學甲區","LI":"新榮里","LIN":"7鄰","STREET":"建國東路","SECT":" ","MAREA":" ","LANE":" ","ALLEY":" ","HOUSE_NO":"８０號","E_COORD97":166790.51000000001,"N_COORD97":2569936.48,"ADDRESS":"建國東路８０號","OBJECTID":496979},"geometry":{"x":166790.50999999978,"y":2569936.4800000004}},{"attributes":{"ID":497007,"DIS_CODE":0,"TOWNNAME":"學甲區","LI":"新榮里","LIN":"7鄰","STREET":"建國東路","SECT":" ","MAREA":" ","LANE":" ","ALLEY":" ","HOUSE_NO":"８２號","E_COORD97":166786.76000000001,"N_COORD97":2569936.7799999998,"ADDRESS":"建國東路８２號","OBJECTID":496980},"geometry":{"x":166786.75999999978,"y":2569936.7799999993}},{"attributes":{"ID":497008,"DIS_CODE":0,"TOWNNAME":"學甲區","LI":"新榮里","LIN":"7鄰","STREET":"建國東路","SECT":" ","MAREA":" ","LANE":" ","ALLEY":" ","HOUSE_NO":"９０號","E_COORD97":166771.54000000001,"N_COORD97":2569937.9199999999,"ADDRESS":"建國東路９０號","OBJECTID":496981},"geometry":{"x":166771.54000000004,"y":2569937.9200000018}},{"attributes":{"ID":497009,"DIS_CODE":0,"TOWNNAME":"學甲區","LI":"新榮里","LIN":"7鄰","STREET":"建國東路","SECT":" ","MAREA":" ","LANE":" ","ALLEY":" ","HOUSE_NO":"９２號","E_COORD97":166766.06,"N_COORD97":2569938.2200000002,"ADDRESS":"建國東路９２號","OBJECTID":496982},"geometry":{"x":166766.05999999959,"y":2569938.2200000007}},{"attributes":{"ID":497010,"DIS_CODE":0,"TOWNNAME":"學甲區","LI":"明宜里","LIN":"7鄰","STREET":"宮西路","SECT":" ","MAREA":" ","LANE":" ","ALLEY":" ","HOUSE_NO":"５０號之１","E_COORD97":165838.32999999999,"N_COORD97":2570455.3900000001,"ADDRESS":"宮西路５０號之１","OBJECTID":496983},"geometry":{"x":165838.33000000101,"y":2570455.3900000006}},{"attributes":{"ID":497011,"DIS_CODE":0,"TOWNNAME":"學甲區","LI":"明宜里","LIN":"7鄰","STREET":"宮西路","SECT":" ","MAREA":" ","LANE":" ","ALLEY":" ","HOUSE_NO":"５２號","E_COORD97":165828.34,"N_COORD97":2570472.9100000001,"ADDRESS":"宮西路５２號","OBJECTID":496984},"geometry":{"x":165828.33999999985,"y":2570472.9100000001}},{"attributes":{"ID":497012,"DIS_CODE":0,"TOWNNAME":"學甲區","LI":"明宜里","LIN":"7鄰","STREET":"宮西路","SECT":" ","MAREA":" ","LANE":" ","ALLEY":" ","HOUSE_NO":"５８號","E_COORD97":165758.66,"N_COORD97":2570437.29,"ADDRESS":"宮西路５８號","OBJECTID":496985},"geometry":{"x":165758.66000000015,"y":2570437.290000001}},{"attributes":{"ID":497013,"DIS_CODE":0,"TOWNNAME":"學甲區","LI":"明宜里","LIN":"7鄰","STREET":"宮西路","SECT":" ","MAREA":" ","LANE":" ","ALLEY":" ","HOUSE_NO":"６０號","E_COORD97":165754.25,"N_COORD97":2570436.1499999999,"ADDRESS":"宮西路６０號","OBJECTID":496986},"geometry":{"x":165754.25000000093,"y":2570436.1500000022}},{"attributes":{"ID":497014,"DIS_CODE":0,"TOWNNAME":"學甲區","LI":"明宜里","LIN":"7鄰","STREET":"宮西路","SECT":" ","MAREA":" ","LANE":" ","ALLEY":" ","HOUSE_NO":"６２號","E_COORD97":165750.28,"N_COORD97":2570435.2000000002,"ADDRESS":"宮西路６２號","OBJECTID":496987},"geometry":{"x":165750.28000000212,"y":2570435.1999999993}},{"attributes":{"ID":497015,"DIS_CODE":0,"TOWNNAME":"學甲區","LI":"明宜里","LIN":"7鄰","STREET":"宮西路","SECT":" ","MAREA":" ","LANE":" ","ALLEY":" ","HOUSE_NO":"６４號","E_COORD97":165745.72,"N_COORD97":2570433.7799999998,"ADDRESS":"宮西路６４號","OBJECTID":496988},"geometry":{"x":165745.72000000067,"y":2570433.7800000012}},{"attributes":{"ID":497016,"DIS_CODE":0,"TOWNNAME":"歸仁區","LI":"大廟里","LIN":"7鄰","STREET":"大廟一街","SECT":" ","MAREA":" ","LANE":" ","ALLEY":" ","HOUSE_NO":"１０５號","E_COORD97":175756.42000000001,"N_COORD97":2543922.25,"ADDRESS":"大廟一街１０５號","OBJECTID":496989},"geometry":{"x":175756.42000000086,"y":2543922.2500000019}},{"attributes":{"ID":497017,"DIS_CODE":0,"TOWNNAME":"歸仁區","LI":"八甲里","LIN":"7鄰","STREET":"大光二街","SECT":" ","MAREA":" ","LANE":" ","ALLEY":" ","HOUSE_NO":"５５號","E_COORD97":177806.72,"N_COORD97":2541728.6099999999,"ADDRESS":"大光二街５５號","OBJECTID":496990},"geometry":{"x":177806.72000000067,"y":2541728.6100000013}},{"attributes":{"ID":497018,"DIS_CODE":0,"TOWNNAME":"歸仁區","LI":"八甲里","LIN":"7鄰","STREET":"大光二街","SECT":" ","MAREA":" ","LANE":" ","ALLEY":" ","HOUSE_NO":"５１號","E_COORD97":177814.92000000001,"N_COORD97":2541727.6099999999,"ADDRESS":"大光二街５１號","OBJECTID":496991},"geometry":{"x":177814.91999999993,"y":2541727.6100000031}},{"attributes":{"ID":497019,"DIS_CODE":0,"TOWNNAME":"歸仁區","LI":"大廟里","LIN":"7鄰","STREET":"大廟一街","SECT":" ","MAREA":" ","LANE":" ","ALLEY":" ","HOUSE_NO":"１２１號","E_COORD97":175734.72,"N_COORD97":2543896.25,"ADDRESS":"大廟一街１２１號","OBJECTID":496992},"geometry":{"x":175734.7200000016,"y":2543896.25}},{"attributes":{"ID":497020,"DIS_CODE":0,"TOWNNAME":"歸仁區","LI":"大廟里","LIN":"7鄰","STREET":"大廟一街","SECT":" ","MAREA":" ","LANE":" ","ALLEY":" ","HOUSE_NO":"１１１號","E_COORD97":175763.51999999999,"N_COORD97":2543907.25,"ADDRESS":"大廟一街１１１號","OBJECTID":496993},"geometry":{"x":175763.52000000048,"y":2543907.2500000037}},{"attributes":{"ID":497021,"DIS_CODE":0,"TOWNNAME":"歸仁區","LI":"八甲里","LIN":"7鄰","STREET":"大光街","SECT":" ","MAREA":" ","LANE":" ","ALLEY":" ","HOUSE_NO":"１７號","E_COORD97":177864.57000000001,"N_COORD97":2541643.6099999999,"ADDRESS":"大光街１７號","OBJECTID":496994},"geometry":{"x":177864.57000000123,"y":2541643.6100000013}},{"attributes":{"ID":497022,"DIS_CODE":0,"TOWNNAME":"歸仁區","LI":"七甲里","LIN":"7鄰","STREET":"中正北路","SECT":"二段","MAREA":" ","LANE":" ","ALLEY":" ","HOUSE_NO":"２５２號","E_COORD97":177529.32000000001,"N_COORD97":2542680.6600000001,"ADDRESS":"中正北路二段２５２號","OBJECTID":496995},"geometry":{"x":177529.3200000003,"y":2542680.6600000039}},{"attributes":{"ID":497023,"DIS_CODE":0,"TOWNNAME":"歸仁區","LI":"七甲里","LIN":"7鄰","STREET":"中正北路","SECT":"二段","MAREA":" ","LANE":" ","ALLEY":" ","HOUSE_NO":"３２２之１號","E_COORD97":177514.01999999999,"N_COORD97":2542807.6699999999,"ADDRESS":"中正北路二段３２２之１號","OBJECTID":496996},"geometry":{"x":177514.01999999955,"y":2542807.6699999999}},{"attributes":{"ID":497024,"DIS_CODE":0,"TOWNNAME":"歸仁區","LI":"七甲里","LIN":"7鄰","STREET":"七甲一街","SECT":" ","MAREA":" ","LANE":" ","ALLEY":" ","HOUSE_NO":"１１１號","E_COORD97":177614.14000000001,"N_COORD97":2542721.6600000001,"ADDRESS":"七甲一街１１１號","OBJECTID":496997},"geometry":{"x":177614.1400000006,"y":2542721.6600000039}},{"attributes":{"ID":497025,"DIS_CODE":0,"TOWNNAME":"歸仁區","LI":"文化里","LIN":"7鄰","STREET":"文化三街","SECT":" ","MAREA":" ","LANE":" ","ALLEY":" ","HOUSE_NO":"１０號","E_COORD97":177221.45999999999,"N_COORD97":2541234.3399999999,"ADDRESS":"文化三街１０號","OBJECTID":496998},"geometry":{"x":177221.45999999996,"y":2541234.3399999999}},{"attributes":{"ID":497026,"DIS_CODE":0,"TOWNNAME":"歸仁區","LI":"七甲里","LIN":"7鄰","STREET":"七甲一街","SECT":" ","MAREA":" ","LANE":" ","ALLEY":" ","HOUSE_NO":"１０１號","E_COORD97":177619.04000000001,"N_COORD97":2542655.6600000001,"ADDRESS":"七甲一街１０１號","OBJECTID":496999},"geometry":{"x":177619.04000000004,"y":2542655.6600000001}},{"attributes":{"ID":497027,"DIS_CODE":0,"TOWNNAME":"歸仁區","LI":"文化里","LIN":"7鄰","STREET":"文化三街","SECT":" ","MAREA":" ","LANE":" ","ALLEY":" ","HOUSE_NO":"１６號","E_COORD97":177221.56,"N_COORD97":2541247.3399999999,"ADDRESS":"文化三街１６號","OBJECTID":497000},"geometry":{"x":177221.55999999959,"y":2541247.3399999999}}]}