{"displayFieldName":"TOWNNAME","fieldAliases":{"ID":"ID","DIS_CODE":"DIS_CODE","TOWNNAME":"TOWNNAME","LI":"LI","LIN":"LIN","STREET":"STREET","SECT":"SECT","MAREA":"MAREA","LANE":"LANE","ALLEY":"ALLEY","HOUSE_NO":"HOUSE_NO","E_COORD97":"E_COORD97","N_COORD97":"N_COORD97","ADDRESS":"ADDRESS","OBJECTID":"OBJECTID"},"geometryType":"esriGeometryPoint","spatialReference":{"wkid":102443,"latestWkid":3826},"fields":[{"name":"ID","type":"esriFieldTypeDouble","alias":"ID"},{"name":"DIS_CODE","type":"esriFieldTypeInteger","alias":"DIS_CODE"},{"name":"TOWNNAME","type":"esriFieldTypeString","alias":"TOWNNAME","length":8},{"name":"LI","type":"esriFieldTypeString","alias":"LI","length":8},{"name":"LIN","type":"esriFieldTypeString","alias":"LIN","length":12},{"name":"STREET","type":"esriFieldTypeString","alias":"STREET","length":20},{"name":"SECT","type":"esriFieldTypeString","alias":"SECT","length":8},{"name":"MAREA","type":"esriFieldTypeString","alias":"MAREA","length":12},{"name":"LANE","type":"esriFieldTypeString","alias":"LANE","length":10},{"name":"ALLEY","type":"esriFieldTypeString","alias":"ALLEY","length":10},{"name":"HOUSE_NO","type":"esriFieldTypeString","alias":"HOUSE_NO","length":20},{"name":"E_COORD97","type":"esriFieldTypeDouble","alias":"E_COORD97"},{"name":"N_COORD97","type":"esriFieldTypeDouble","alias":"N_COORD97"},{"name":"ADDRESS","type":"esriFieldTypeString","alias":"ADDRESS","length":50},{"name":"OBJECTID","type":"esriFieldTypeOID","alias":"OBJECTID"}],"features":[{"attributes":{"ID":123801,"DIS_CODE":0,"TOWNNAME":"仁德區","LI":"後壁里","LIN":"16鄰","STREET":"德善路","SECT":" ","MAREA":" ","LANE":"３２巷","ALLEY":"１７弄","HOUSE_NO":"２２號","E_COORD97":173354.57000000001,"N_COORD97":2538808.7599999998,"ADDRESS":"德善路３２巷１７弄２２號","OBJECTID":123801},"geometry":{"x":173354.56999999937,"y":2538808.7600000016}},{"attributes":{"ID":123802,"DIS_CODE":0,"TOWNNAME":"仁德區","LI":"後壁里","LIN":"16鄰","STREET":"德善路","SECT":" ","MAREA":" ","LANE":"３２巷","ALLEY":"１７弄","HOUSE_NO":"７號","E_COORD97":173328.88,"N_COORD97":2538853.27,"ADDRESS":"德善路３２巷１７弄７號","OBJECTID":123802},"geometry":{"x":173328.88000000082,"y":2538853.2700000014}},{"attributes":{"ID":123803,"DIS_CODE":0,"TOWNNAME":"西港區","LI":"西港里","LIN":"31鄰","STREET":" ","SECT":" ","MAREA":"堀子頭","LANE":" ","ALLEY":" ","HOUSE_NO":"９０號之１２","E_COORD97":168567.47,"N_COORD97":2557451.4300000002,"ADDRESS":"堀子頭９０號之１２","OBJECTID":123803},"geometry":{"x":168567.4700000016,"y":2557451.4300000016}},{"attributes":{"ID":123804,"DIS_CODE":0,"TOWNNAME":"後壁區","LI":"竹新里","LIN":"4鄰","STREET":" ","SECT":" ","MAREA":"竹圍後","LANE":" ","ALLEY":" ","HOUSE_NO":"６９號","E_COORD97":178531.73000000001,"N_COORD97":2582347.75,"ADDRESS":"竹圍後６９號","OBJECTID":123804},"geometry":{"x":178531.73000000045,"y":2582347.7500000019}},{"attributes":{"ID":123805,"DIS_CODE":0,"TOWNNAME":"後壁區","LI":"竹新里","LIN":"4鄰","STREET":" ","SECT":" ","MAREA":"竹圍後","LANE":" ","ALLEY":" ","HOUSE_NO":"７０號之１０","E_COORD97":178580.5,"N_COORD97":2582335.4900000002,"ADDRESS":"竹圍後７０號之１０","OBJECTID":123805},"geometry":{"x":178580.5,"y":2582335.4900000002}},{"attributes":{"ID":123806,"DIS_CODE":0,"TOWNNAME":"後壁區","LI":"竹新里","LIN":"4鄰","STREET":" ","SECT":" ","MAREA":"竹圍後","LANE":" ","ALLEY":" ","HOUSE_NO":"７０號之１１","E_COORD97":178578.29999999999,"N_COORD97":2582330.4300000002,"ADDRESS":"竹圍後７０號之１１","OBJECTID":123806},"geometry":{"x":178578.29999999981,"y":2582330.4300000016}},{"attributes":{"ID":123807,"DIS_CODE":0,"TOWNNAME":"後壁區","LI":"竹新里","LIN":"4鄰","STREET":" ","SECT":" ","MAREA":"竹圍後","LANE":" ","ALLEY":" ","HOUSE_NO":"７０號之１２","E_COORD97":178581.20999999999,"N_COORD97":2582339.8999999999,"ADDRESS":"竹圍後７０號之１２","OBJECTID":123807},"geometry":{"x":178581.20999999903,"y":2582339.9000000041}},{"attributes":{"ID":123808,"DIS_CODE":0,"TOWNNAME":"後壁區","LI":"竹新里","LIN":"1鄰","STREET":" ","SECT":" ","MAREA":"竹圍後","LANE":" ","ALLEY":" ","HOUSE_NO":"５號之３","E_COORD97":178633.70000000001,"N_COORD97":2582631.8100000001,"ADDRESS":"竹圍後５號之３","OBJECTID":123808},"geometry":{"x":178633.70000000019,"y":2582631.8100000005}},{"attributes":{"ID":123809,"DIS_CODE":0,"TOWNNAME":"永康區","LI":"中興里","LIN":"10鄰","STREET":"忠孝路","SECT":" ","MAREA":" ","LANE":"２３９巷","ALLEY":"２０弄","HOUSE_NO":"１２號","E_COORD97":172034.60999999999,"N_COORD97":2545091,"ADDRESS":"忠孝路２３９巷２０弄１２號","OBJECTID":123809},"geometry":{"x":172034.61000000127,"y":2545091}},{"attributes":{"ID":123810,"DIS_CODE":0,"TOWNNAME":"後壁區","LI":"竹新里","LIN":"4鄰","STREET":" ","SECT":" ","MAREA":"竹圍後","LANE":" ","ALLEY":" ","HOUSE_NO":"７０號之１","E_COORD97":178584.23999999999,"N_COORD97":2582364.2400000002,"ADDRESS":"竹圍後７０號之１","OBJECTID":123810},"geometry":{"x":178584.24000000022,"y":2582364.2400000002}},{"attributes":{"ID":123811,"DIS_CODE":0,"TOWNNAME":"後壁區","LI":"竹新里","LIN":"4鄰","STREET":" ","SECT":" ","MAREA":"竹圍後","LANE":" ","ALLEY":" ","HOUSE_NO":"７０號","E_COORD97":178554.16,"N_COORD97":2582355.8500000001,"ADDRESS":"竹圍後７０號","OBJECTID":123811},"geometry":{"x":178554.16000000015,"y":2582355.8499999996}},{"attributes":{"ID":123812,"DIS_CODE":0,"TOWNNAME":"後壁區","LI":"竹新里","LIN":"4鄰","STREET":" ","SECT":" ","MAREA":"竹圍後","LANE":" ","ALLEY":" ","HOUSE_NO":"７１號","E_COORD97":178605.63,"N_COORD97":2582337.8799999999,"ADDRESS":"竹圍後７１號","OBJECTID":123812},"geometry":{"x":178605.63000000175,"y":2582337.879999999}},{"attributes":{"ID":123813,"DIS_CODE":0,"TOWNNAME":"後壁區","LI":"頂長里","LIN":"4鄰","STREET":" ","SECT":" ","MAREA":"長短樹","LANE":" ","ALLEY":" ","HOUSE_NO":"２４號之１０","E_COORD97":181314.01999999999,"N_COORD97":2584939.46,"ADDRESS":"長短樹２４號之１０","OBJECTID":123813},"geometry":{"x":181314.01999999955,"y":2584939.4600000009}},{"attributes":{"ID":123814,"DIS_CODE":0,"TOWNNAME":"後壁區","LI":"頂長里","LIN":"4鄰","STREET":" ","SECT":" ","MAREA":"長短樹","LANE":" ","ALLEY":" ","HOUSE_NO":"２４號之２","E_COORD97":181460.41,"N_COORD97":2584969.8900000001,"ADDRESS":"長短樹２４號之２","OBJECTID":123814},"geometry":{"x":181460.41000000201,"y":2584969.8900000006}},{"attributes":{"ID":123815,"DIS_CODE":0,"TOWNNAME":"後壁區","LI":"頂長里","LIN":"4鄰","STREET":" ","SECT":" ","MAREA":"長短樹","LANE":" ","ALLEY":" ","HOUSE_NO":"２４號之３","E_COORD97":181464.26999999999,"N_COORD97":2584918.48,"ADDRESS":"長短樹２４號之３","OBJECTID":123815},"geometry":{"x":181464.27000000048,"y":2584918.4800000004}},{"attributes":{"ID":123816,"DIS_CODE":0,"TOWNNAME":"後壁區","LI":"頂長里","LIN":"4鄰","STREET":" ","SECT":" ","MAREA":"長短樹","LANE":" ","ALLEY":" ","HOUSE_NO":"２５號","E_COORD97":181415.89000000001,"N_COORD97":2585037.2599999998,"ADDRESS":"長短樹２５號","OBJECTID":123816},"geometry":{"x":181415.89000000153,"y":2585037.2600000016}},{"attributes":{"ID":123817,"DIS_CODE":0,"TOWNNAME":"後壁區","LI":"頂長里","LIN":"4鄰","STREET":" ","SECT":" ","MAREA":"長短樹","LANE":" ","ALLEY":" ","HOUSE_NO":"２６號之２","E_COORD97":181388.98999999999,"N_COORD97":2585041.5,"ADDRESS":"長短樹２６號之２","OBJECTID":123817},"geometry":{"x":181388.99000000115,"y":2585041.5000000019}},{"attributes":{"ID":123818,"DIS_CODE":0,"TOWNNAME":"後壁區","LI":"頂長里","LIN":"4鄰","STREET":" ","SECT":" ","MAREA":"長短樹","LANE":" ","ALLEY":" ","HOUSE_NO":"２６號之３","E_COORD97":181387.01999999999,"N_COORD97":2585058.98,"ADDRESS":"長短樹２６號之３","OBJECTID":123818},"geometry":{"x":181387.01999999955,"y":2585058.9800000023}},{"attributes":{"ID":123819,"DIS_CODE":0,"TOWNNAME":"後壁區","LI":"頂長里","LIN":"4鄰","STREET":" ","SECT":" ","MAREA":"長短樹","LANE":" ","ALLEY":" ","HOUSE_NO":"２６號之４","E_COORD97":181403.20000000001,"N_COORD97":2585038.2999999998,"ADDRESS":"長短樹２６號之４","OBJECTID":123819},"geometry":{"x":181403.20000000112,"y":2585038.3000000007}},{"attributes":{"ID":123820,"DIS_CODE":0,"TOWNNAME":"後壁區","LI":"頂長里","LIN":"4鄰","STREET":" ","SECT":" ","MAREA":"長短樹","LANE":" ","ALLEY":" ","HOUSE_NO":"２７號","E_COORD97":181406.42000000001,"N_COORD97":2584993.8700000001,"ADDRESS":"長短樹２７號","OBJECTID":123820},"geometry":{"x":181406.42000000086,"y":2584993.8700000029}},{"attributes":{"ID":123821,"DIS_CODE":0,"TOWNNAME":"將軍區","LI":"保源里","LIN":"1鄰","STREET":" ","SECT":" ","MAREA":"苓保","LANE":" ","ALLEY":" ","HOUSE_NO":"２號","E_COORD97":164758.10000000001,"N_COORD97":2568858.48,"ADDRESS":"苓保２號","OBJECTID":123821},"geometry":{"x":164758.10000000056,"y":2568858.4800000004}},{"attributes":{"ID":123822,"DIS_CODE":0,"TOWNNAME":"永康區","LI":"中興里","LIN":"21鄰","STREET":"中華路","SECT":" ","MAREA":" ","LANE":"２１６巷","ALLEY":"４０弄","HOUSE_NO":"１５號","E_COORD97":171863.84,"N_COORD97":2545098.75,"ADDRESS":"中華路２１６巷４０弄１５號","OBJECTID":123822},"geometry":{"x":171863.83999999892,"y":2545098.7500000019}},{"attributes":{"ID":123823,"DIS_CODE":0,"TOWNNAME":"永康區","LI":"大橋里","LIN":"9鄰","STREET":"大橋三街","SECT":" ","MAREA":" ","LANE":"２６１巷","ALLEY":"１６弄","HOUSE_NO":"３號","E_COORD97":171049.95999999999,"N_COORD97":2546953.1600000001,"ADDRESS":"大橋三街２６１巷１６弄３號","OBJECTID":123823},"geometry":{"x":171049.96000000089,"y":2546953.160000002}},{"attributes":{"ID":123824,"DIS_CODE":0,"TOWNNAME":"永康區","LI":"五王里","LIN":"29鄰","STREET":"中山東路","SECT":" ","MAREA":" ","LANE":"６８巷","ALLEY":"３弄","HOUSE_NO":"１９號","E_COORD97":171666.23000000001,"N_COORD97":2545935.5,"ADDRESS":"中山東路６８巷３弄１９號","OBJECTID":123824},"geometry":{"x":171666.23000000045,"y":2545935.5}},{"attributes":{"ID":123825,"DIS_CODE":0,"TOWNNAME":"永康區","LI":"中興里","LIN":"16鄰","STREET":"中華二路","SECT":" ","MAREA":" ","LANE":"１２７巷","ALLEY":"２弄","HOUSE_NO":"１７號","E_COORD97":171970.51000000001,"N_COORD97":2545389.75,"ADDRESS":"中華二路１２７巷２弄１７號","OBJECTID":123825},"geometry":{"x":171970.50999999978,"y":2545389.7500000019}},{"attributes":{"ID":123826,"DIS_CODE":0,"TOWNNAME":"永康區","LI":"中興里","LIN":"20鄰","STREET":"中華路","SECT":" ","MAREA":" ","LANE":"２１６巷","ALLEY":"３５弄","HOUSE_NO":"２１號","E_COORD97":171888.94,"N_COORD97":2545211.75,"ADDRESS":"中華路２１６巷３５弄２１號","OBJECTID":123826},"geometry":{"x":171888.94000000041,"y":2545211.75}},{"attributes":{"ID":123827,"DIS_CODE":0,"TOWNNAME":"永康區","LI":"中興里","LIN":"20鄰","STREET":"中華路","SECT":" ","MAREA":" ","LANE":"２１６巷","ALLEY":"３５弄","HOUSE_NO":"２８號","E_COORD97":171902.10000000001,"N_COORD97":2545201.25,"ADDRESS":"中華路２１６巷３５弄２８號","OBJECTID":123827},"geometry":{"x":171902.09999999963,"y":2545201.25}},{"attributes":{"ID":123828,"DIS_CODE":0,"TOWNNAME":"後壁區","LI":"菁豊里","LIN":"4鄰","STREET":" ","SECT":" ","MAREA":"前菁寮","LANE":" ","ALLEY":" ","HOUSE_NO":"３９號之２１","E_COORD97":182969.39999999999,"N_COORD97":2586458.6099999999,"ADDRESS":"前菁寮３９號之２１","OBJECTID":123828},"geometry":{"x":182969.40000000224,"y":2586458.6099999994}},{"attributes":{"ID":123829,"DIS_CODE":0,"TOWNNAME":"永康區","LI":"五王里","LIN":"15鄰","STREET":"中華二路","SECT":" ","MAREA":" ","LANE":"２０６巷","ALLEY":"６８弄","HOUSE_NO":"２１號","E_COORD97":171614.82000000001,"N_COORD97":2545705.6000000001,"ADDRESS":"中華二路２０６巷６８弄２１號","OBJECTID":123829},"geometry":{"x":171614.8200000003,"y":2545705.6000000015}},{"attributes":{"ID":123830,"DIS_CODE":0,"TOWNNAME":"永康區","LI":"中興里","LIN":"16鄰","STREET":"中華二路","SECT":" ","MAREA":" ","LANE":"１２７巷","ALLEY":"２弄","HOUSE_NO":"１９號","E_COORD97":171966.89999999999,"N_COORD97":2545389.75,"ADDRESS":"中華二路１２７巷２弄１９號","OBJECTID":123830},"geometry":{"x":171966.90000000037,"y":2545389.7500000019}},{"attributes":{"ID":123831,"DIS_CODE":0,"TOWNNAME":"永康區","LI":"大灣里","LIN":"16鄰","STREET":"大灣路","SECT":" ","MAREA":" ","LANE":"２８８巷","ALLEY":"１３弄","HOUSE_NO":"３號","E_COORD97":174871.48999999999,"N_COORD97":2545226.8700000001,"ADDRESS":"大灣路２８８巷１３弄３號","OBJECTID":123831},"geometry":{"x":174871.49000000022,"y":2545226.8700000029}},{"attributes":{"ID":123832,"DIS_CODE":0,"TOWNNAME":"永康區","LI":"三合里","LIN":"16鄰","STREET":"南工街","SECT":" ","MAREA":" ","LANE":"２４７巷","ALLEY":"４弄","HOUSE_NO":"１４號","E_COORD97":171942.07000000001,"N_COORD97":2545880.9900000002,"ADDRESS":"南工街２４７巷４弄１４號","OBJECTID":123832},"geometry":{"x":171942.0700000003,"y":2545880.9900000002}},{"attributes":{"ID":123833,"DIS_CODE":0,"TOWNNAME":"永康區","LI":"三合里","LIN":"16鄰","STREET":"南工街","SECT":" ","MAREA":" ","LANE":"２４７巷","ALLEY":"４弄","HOUSE_NO":"４號","E_COORD97":171960.95999999999,"N_COORD97":2545877.7400000002,"ADDRESS":"南工街２４７巷４弄４號","OBJECTID":123833},"geometry":{"x":171960.95999999996,"y":2545877.7400000021}},{"attributes":{"ID":123834,"DIS_CODE":0,"TOWNNAME":"永康區","LI":"五王里","LIN":"16鄰","STREET":"成功路","SECT":" ","MAREA":" ","LANE":"１７２巷","ALLEY":"６２弄","HOUSE_NO":"３９號","E_COORD97":171675.62,"N_COORD97":2545767.9500000002,"ADDRESS":"成功路１７２巷６２弄３９號","OBJECTID":123834},"geometry":{"x":171675.62000000011,"y":2545767.9500000011}},{"attributes":{"ID":123835,"DIS_CODE":0,"TOWNNAME":"永康區","LI":"三合里","LIN":"16鄰","STREET":"南工街","SECT":" ","MAREA":" ","LANE":"２４７巷","ALLEY":"４弄","HOUSE_NO":"９號","E_COORD97":171946.82999999999,"N_COORD97":2545868.6099999999,"ADDRESS":"南工街２４７巷４弄９號","OBJECTID":123835},"geometry":{"x":171946.83000000007,"y":2545868.6100000013}},{"attributes":{"ID":123836,"DIS_CODE":0,"TOWNNAME":"永康區","LI":"崑山里","LIN":"16鄰","STREET":"大灣路","SECT":" ","MAREA":" ","LANE":"９４２巷","ALLEY":"７１弄","HOUSE_NO":"６１號","E_COORD97":173577.22,"N_COORD97":2544508.2400000002,"ADDRESS":"大灣路９４２巷７１弄６１號","OBJECTID":123836},"geometry":{"x":173577.22000000067,"y":2544508.2400000021}},{"attributes":{"ID":123837,"DIS_CODE":0,"TOWNNAME":"永康區","LI":"烏竹里","LIN":"16鄰","STREET":"自強路","SECT":" ","MAREA":" ","LANE":"９２５巷","ALLEY":"１１弄","HOUSE_NO":"５號","E_COORD97":174746.14000000001,"N_COORD97":2548861.7400000002,"ADDRESS":"自強路９２５巷１１弄５號","OBJECTID":123837},"geometry":{"x":174746.13999999966,"y":2548861.7400000021}},{"attributes":{"ID":123838,"DIS_CODE":0,"TOWNNAME":"後壁區","LI":"頂長里","LIN":"4鄰","STREET":" ","SECT":" ","MAREA":"長短樹","LANE":" ","ALLEY":" ","HOUSE_NO":"３１號","E_COORD97":181356.38,"N_COORD97":2585104.9399999999,"ADDRESS":"長短樹３１號","OBJECTID":123838},"geometry":{"x":181356.37999999989,"y":2585104.9399999995}},{"attributes":{"ID":123839,"DIS_CODE":0,"TOWNNAME":"後壁區","LI":"頂長里","LIN":"7鄰","STREET":" ","SECT":" ","MAREA":"長短樹","LANE":" ","ALLEY":" ","HOUSE_NO":"１６０號","E_COORD97":181983.63,"N_COORD97":2584160.27,"ADDRESS":"長短樹１６０號","OBJECTID":123839},"geometry":{"x":181983.62999999989,"y":2584160.2699999996}},{"attributes":{"ID":123840,"DIS_CODE":0,"TOWNNAME":"後壁區","LI":"頂長里","LIN":"7鄰","STREET":" ","SECT":" ","MAREA":"長短樹","LANE":" ","ALLEY":" ","HOUSE_NO":"１６１號","E_COORD97":181936.38,"N_COORD97":2584134.3900000001,"ADDRESS":"長短樹１６１號","OBJECTID":123840},"geometry":{"x":181936.37999999989,"y":2584134.3900000025}},{"attributes":{"ID":123841,"DIS_CODE":0,"TOWNNAME":"後壁區","LI":"菁豊里","LIN":"4鄰","STREET":" ","SECT":" ","MAREA":"前菁寮","LANE":" ","ALLEY":" ","HOUSE_NO":"３９號之１１","E_COORD97":183033.37,"N_COORD97":2586412.7200000002,"ADDRESS":"前菁寮３９號之１１","OBJECTID":123841},"geometry":{"x":183033.37000000011,"y":2586412.7200000007}},{"attributes":{"ID":123842,"DIS_CODE":0,"TOWNNAME":"後壁區","LI":"菁豊里","LIN":"4鄰","STREET":" ","SECT":" ","MAREA":"前菁寮","LANE":" ","ALLEY":" ","HOUSE_NO":"３９號之１３","E_COORD97":183044.76999999999,"N_COORD97":2586436.0099999998,"ADDRESS":"前菁寮３９號之１３","OBJECTID":123842},"geometry":{"x":183044.76999999955,"y":2586436.0099999998}},{"attributes":{"ID":123843,"DIS_CODE":0,"TOWNNAME":"永康區","LI":"龍潭里","LIN":"31鄰","STREET":"龍中街","SECT":" ","MAREA":" ","LANE":" ","ALLEY":" ","HOUSE_NO":"１８號之１","E_COORD97":174360.51999999999,"N_COORD97":2547665.29,"ADDRESS":"龍中街１８號之１","OBJECTID":123843},"geometry":{"x":174360.51999999955,"y":2547665.2899999991}},{"attributes":{"ID":123844,"DIS_CODE":0,"TOWNNAME":"安南區","LI":"安富里","LIN":"16鄰","STREET":"安富街","SECT":" ","MAREA":" ","LANE":"１９９巷","ALLEY":"８弄","HOUSE_NO":"１０號","E_COORD97":167690.92999999999,"N_COORD97":2547340.71,"ADDRESS":"安富街１９９巷８弄１０號","OBJECTID":123844},"geometry":{"x":167690.9299999997,"y":2547340.7100000028}},{"attributes":{"ID":123845,"DIS_CODE":0,"TOWNNAME":"永康區","LI":"\u25A0行里","LIN":"31鄰","STREET":"中正北路","SECT":" ","MAREA":" ","LANE":" ","ALLEY":" ","HOUSE_NO":"１５號","E_COORD97":171874.94,"N_COORD97":2549082.25,"ADDRESS":"中正北路１５號","OBJECTID":123845},"geometry":{"x":171874.94000000041,"y":2549082.2500000019}},{"attributes":{"ID":123846,"DIS_CODE":0,"TOWNNAME":"安南區","LI":"安富里","LIN":"16鄰","STREET":"安富街","SECT":" ","MAREA":" ","LANE":"１９９巷","ALLEY":"８弄","HOUSE_NO":"１１號","E_COORD97":167684.01999999999,"N_COORD97":2547319.0899999999,"ADDRESS":"安富街１９９巷８弄１１號","OBJECTID":123846},"geometry":{"x":167684.02000000048,"y":2547319.0900000036}},{"attributes":{"ID":123847,"DIS_CODE":0,"TOWNNAME":"安南區","LI":"安富里","LIN":"16鄰","STREET":"安富街","SECT":" ","MAREA":" ","LANE":"１９９巷","ALLEY":"８弄","HOUSE_NO":"１２號","E_COORD97":167685.22,"N_COORD97":2547338.2999999998,"ADDRESS":"安富街１９９巷８弄１２號","OBJECTID":123847},"geometry":{"x":167685.21999999974,"y":2547338.3000000007}},{"attributes":{"ID":123848,"DIS_CODE":0,"TOWNNAME":"安南區","LI":"安富里","LIN":"16鄰","STREET":"安富街","SECT":" ","MAREA":" ","LANE":"１９９巷","ALLEY":"８弄","HOUSE_NO":"１３號","E_COORD97":167677.10000000001,"N_COORD97":2547316.6800000002,"ADDRESS":"安富街１９９巷８弄１３號","OBJECTID":123848},"geometry":{"x":167677.10000000056,"y":2547316.6799999997}},{"attributes":{"ID":123849,"DIS_CODE":0,"TOWNNAME":"安南區","LI":"安富里","LIN":"16鄰","STREET":"安富街","SECT":" ","MAREA":" ","LANE":"１９９巷","ALLEY":"８弄","HOUSE_NO":"１４號","E_COORD97":167680.70999999999,"N_COORD97":2547337.1000000001,"ADDRESS":"安富街１９９巷８弄１４號","OBJECTID":123849},"geometry":{"x":167680.70999999996,"y":2547337.1000000015}},{"attributes":{"ID":123850,"DIS_CODE":0,"TOWNNAME":"安南區","LI":"安富里","LIN":"16鄰","STREET":"安富街","SECT":" ","MAREA":" ","LANE":"１９９巷","ALLEY":"８弄","HOUSE_NO":"１５號","E_COORD97":167668.98000000001,"N_COORD97":2547313.98,"ADDRESS":"安富街１９９巷８弄１５號","OBJECTID":123850},"geometry":{"x":167668.98000000045,"y":2547313.9800000023}},{"attributes":{"ID":123851,"DIS_CODE":0,"TOWNNAME":"安南區","LI":"安富里","LIN":"16鄰","STREET":"安富街","SECT":" ","MAREA":" ","LANE":"１９９巷","ALLEY":"８弄","HOUSE_NO":"１６號","E_COORD97":167673.19,"N_COORD97":2547336.2000000002,"ADDRESS":"安富街１９９巷８弄１６號","OBJECTID":123851},"geometry":{"x":167673.19000000041,"y":2547336.1999999993}},{"attributes":{"ID":123852,"DIS_CODE":0,"TOWNNAME":"安南區","LI":"安富里","LIN":"16鄰","STREET":"安富街","SECT":" ","MAREA":" ","LANE":"１９９巷","ALLEY":"８弄","HOUSE_NO":"１７號","E_COORD97":167662.95999999999,"N_COORD97":2547313.98,"ADDRESS":"安富街１９９巷８弄１７號","OBJECTID":123852},"geometry":{"x":167662.96000000089,"y":2547313.9800000023}},{"attributes":{"ID":123853,"DIS_CODE":0,"TOWNNAME":"後壁區","LI":"菁豊里","LIN":"4鄰","STREET":" ","SECT":" ","MAREA":"前菁寮","LANE":" ","ALLEY":" ","HOUSE_NO":"３９號之１５","E_COORD97":183025.28,"N_COORD97":2586455.5499999998,"ADDRESS":"前菁寮３９號之１５","OBJECTID":123853},"geometry":{"x":183025.28000000026,"y":2586455.5500000045}},{"attributes":{"ID":123854,"DIS_CODE":0,"TOWNNAME":"安南區","LI":"安富里","LIN":"16鄰","STREET":"安富街","SECT":" ","MAREA":" ","LANE":"１９９巷","ALLEY":"８弄","HOUSE_NO":"１８號","E_COORD97":167665.67000000001,"N_COORD97":2547334.3999999999,"ADDRESS":"安富街１９９巷８弄１８號","OBJECTID":123854},"geometry":{"x":167665.66999999993,"y":2547334.4000000041}},{"attributes":{"ID":123855,"DIS_CODE":0,"TOWNNAME":"安南區","LI":"安富里","LIN":"16鄰","STREET":"安富街","SECT":" ","MAREA":" ","LANE":"１９９巷","ALLEY":"８弄","HOUSE_NO":"１號","E_COORD97":167709.57999999999,"N_COORD97":2547323.8900000001,"ADDRESS":"安富街１９９巷８弄１號","OBJECTID":123855},"geometry":{"x":167709.58000000101,"y":2547323.8900000006}},{"attributes":{"ID":123856,"DIS_CODE":0,"TOWNNAME":"安南區","LI":"安富里","LIN":"16鄰","STREET":"安富街","SECT":" ","MAREA":" ","LANE":"１９９巷","ALLEY":"８弄","HOUSE_NO":"２０號","E_COORD97":167658.75,"N_COORD97":2547333.2000000002,"ADDRESS":"安富街１９９巷８弄２０號","OBJECTID":123856},"geometry":{"x":167658.75,"y":2547333.1999999993}},{"attributes":{"ID":123857,"DIS_CODE":0,"TOWNNAME":"後壁區","LI":"菁豊里","LIN":"4鄰","STREET":" ","SECT":" ","MAREA":"前菁寮","LANE":" ","ALLEY":" ","HOUSE_NO":"３９號之１６","E_COORD97":183025.60000000001,"N_COORD97":2586460.7599999998,"ADDRESS":"前菁寮３９號之１６","OBJECTID":123857},"geometry":{"x":183025.60000000056,"y":2586460.7600000016}},{"attributes":{"ID":123858,"DIS_CODE":0,"TOWNNAME":"後壁區","LI":"菁豊里","LIN":"4鄰","STREET":" ","SECT":" ","MAREA":"前菁寮","LANE":" ","ALLEY":" ","HOUSE_NO":"３９號之１７","E_COORD97":183009.47,"N_COORD97":2586447.3199999998,"ADDRESS":"前菁寮３９號之１７","OBJECTID":123858},"geometry":{"x":183009.47000000067,"y":2586447.3200000022}},{"attributes":{"ID":123859,"DIS_CODE":0,"TOWNNAME":"後壁區","LI":"菁豊里","LIN":"4鄰","STREET":" ","SECT":" ","MAREA":"前菁寮","LANE":" ","ALLEY":" ","HOUSE_NO":"３９號之１","E_COORD97":183069.09,"N_COORD97":2586409.27,"ADDRESS":"前菁寮３９號之１","OBJECTID":123859},"geometry":{"x":183069.08999999892,"y":2586409.2700000014}},{"attributes":{"ID":123860,"DIS_CODE":0,"TOWNNAME":"後壁區","LI":"菁豊里","LIN":"4鄰","STREET":" ","SECT":" ","MAREA":"前菁寮","LANE":" ","ALLEY":" ","HOUSE_NO":"３９號之２０","E_COORD97":182974.20000000001,"N_COORD97":2586457.9100000001,"ADDRESS":"前菁寮３９號之２０","OBJECTID":123860},"geometry":{"x":182974.20000000112,"y":2586457.9100000001}},{"attributes":{"ID":123861,"DIS_CODE":0,"TOWNNAME":"後壁區","LI":"菁豊里","LIN":"4鄰","STREET":" ","SECT":" ","MAREA":"前菁寮","LANE":" ","ALLEY":" ","HOUSE_NO":"３９號之２２","E_COORD97":182949.92000000001,"N_COORD97":2586462.52,"ADDRESS":"前菁寮３９號之２２","OBJECTID":123861},"geometry":{"x":182949.91999999899,"y":2586462.5200000014}},{"attributes":{"ID":123862,"DIS_CODE":0,"TOWNNAME":"後壁區","LI":"菁豊里","LIN":"4鄰","STREET":" ","SECT":" ","MAREA":"前菁寮","LANE":" ","ALLEY":" ","HOUSE_NO":"３９號之５","E_COORD97":183042.42999999999,"N_COORD97":2586383.3599999999,"ADDRESS":"前菁寮３９號之５","OBJECTID":123862},"geometry":{"x":183042.4299999997,"y":2586383.3599999994}},{"attributes":{"ID":123863,"DIS_CODE":0,"TOWNNAME":"後壁區","LI":"菁豊里","LIN":"4鄰","STREET":" ","SECT":" ","MAREA":"前菁寮","LANE":" ","ALLEY":" ","HOUSE_NO":"３９號之６","E_COORD97":183021.54999999999,"N_COORD97":2586388.23,"ADDRESS":"前菁寮３９號之６","OBJECTID":123863},"geometry":{"x":183021.54999999981,"y":2586388.2300000004}},{"attributes":{"ID":123864,"DIS_CODE":0,"TOWNNAME":"後壁區","LI":"菁豊里","LIN":"4鄰","STREET":" ","SECT":" ","MAREA":"前菁寮","LANE":" ","ALLEY":" ","HOUSE_NO":"３９號之８","E_COORD97":183031.26000000001,"N_COORD97":2586398.6000000001,"ADDRESS":"前菁寮３９號之８","OBJECTID":123864},"geometry":{"x":183031.26000000071,"y":2586398.5999999996}},{"attributes":{"ID":123865,"DIS_CODE":0,"TOWNNAME":"後壁區","LI":"菁豊里","LIN":"4鄰","STREET":" ","SECT":" ","MAREA":"前菁寮","LANE":" ","ALLEY":" ","HOUSE_NO":"４１號之１","E_COORD97":183108.01999999999,"N_COORD97":2586491.79,"ADDRESS":"前菁寮４１號之１","OBJECTID":123865},"geometry":{"x":183108.01999999955,"y":2586491.7899999991}},{"attributes":{"ID":123866,"DIS_CODE":0,"TOWNNAME":"後壁區","LI":"菁豊里","LIN":"4鄰","STREET":" ","SECT":" ","MAREA":"前菁寮","LANE":" ","ALLEY":" ","HOUSE_NO":"４１號","E_COORD97":183100.97,"N_COORD97":2586480.1899999999,"ADDRESS":"前菁寮４１號","OBJECTID":123866},"geometry":{"x":183100.97000000067,"y":2586480.1900000032}},{"attributes":{"ID":123867,"DIS_CODE":0,"TOWNNAME":"後壁區","LI":"菁豊里","LIN":"4鄰","STREET":" ","SECT":" ","MAREA":"前菁寮","LANE":" ","ALLEY":" ","HOUSE_NO":"４２號","E_COORD97":183137.82000000001,"N_COORD97":2586487.3199999998,"ADDRESS":"前菁寮４２號","OBJECTID":123867},"geometry":{"x":183137.82000000123,"y":2586487.3200000022}},{"attributes":{"ID":123868,"DIS_CODE":0,"TOWNNAME":"後壁區","LI":"菁豊里","LIN":"4鄰","STREET":" ","SECT":" ","MAREA":"前菁寮","LANE":" ","ALLEY":" ","HOUSE_NO":"４３號之１","E_COORD97":183108.95999999999,"N_COORD97":2586534.9100000001,"ADDRESS":"前菁寮４３號之１","OBJECTID":123868},"geometry":{"x":183108.95999999996,"y":2586534.910000002}},{"attributes":{"ID":123869,"DIS_CODE":0,"TOWNNAME":"後壁區","LI":"菁豊里","LIN":"4鄰","STREET":" ","SECT":" ","MAREA":"前菁寮","LANE":" ","ALLEY":" ","HOUSE_NO":"４３號之２","E_COORD97":183103.34,"N_COORD97":2586552.8500000001,"ADDRESS":"前菁寮４３號之２","OBJECTID":123869},"geometry":{"x":183103.34000000078,"y":2586552.8499999996}},{"attributes":{"ID":123870,"DIS_CODE":0,"TOWNNAME":"後壁區","LI":"菁豊里","LIN":"4鄰","STREET":" ","SECT":" ","MAREA":"前菁寮","LANE":" ","ALLEY":" ","HOUSE_NO":"４３號之３","E_COORD97":183106.09,"N_COORD97":2586542.3700000001,"ADDRESS":"前菁寮４３號之３","OBJECTID":123870},"geometry":{"x":183106.08999999985,"y":2586542.3700000029}},{"attributes":{"ID":123871,"DIS_CODE":0,"TOWNNAME":"後壁區","LI":"菁豊里","LIN":"4鄰","STREET":" ","SECT":" ","MAREA":"前菁寮","LANE":" ","ALLEY":" ","HOUSE_NO":"４３號","E_COORD97":183113.91,"N_COORD97":2586526.4500000002,"ADDRESS":"前菁寮４３號","OBJECTID":123871},"geometry":{"x":183113.91000000108,"y":2586526.4500000011}},{"attributes":{"ID":123872,"DIS_CODE":0,"TOWNNAME":"後壁區","LI":"菁豊里","LIN":"1鄰","STREET":" ","SECT":" ","MAREA":"前菁寮","LANE":" ","ALLEY":" ","HOUSE_NO":"３號之１３","E_COORD97":183124.69,"N_COORD97":2586172.5499999998,"ADDRESS":"前菁寮３號之１３","OBJECTID":123872},"geometry":{"x":183124.69000000041,"y":2586172.5500000007}},{"attributes":{"ID":123873,"DIS_CODE":0,"TOWNNAME":"後壁區","LI":"菁豊里","LIN":"1鄰","STREET":" ","SECT":" ","MAREA":"前菁寮","LANE":" ","ALLEY":" ","HOUSE_NO":"３號之１４","E_COORD97":183127.51999999999,"N_COORD97":2586175.8100000001,"ADDRESS":"前菁寮３號之１４","OBJECTID":123873},"geometry":{"x":183127.52000000048,"y":2586175.8100000024}},{"attributes":{"ID":123874,"DIS_CODE":0,"TOWNNAME":"後壁區","LI":"菁豊里","LIN":"1鄰","STREET":" ","SECT":" ","MAREA":"前菁寮","LANE":" ","ALLEY":" ","HOUSE_NO":"３號之１５","E_COORD97":183099.82999999999,"N_COORD97":2586155.9500000002,"ADDRESS":"前菁寮３號之１５","OBJECTID":123874},"geometry":{"x":183099.83000000007,"y":2586155.950000003}},{"attributes":{"ID":123875,"DIS_CODE":0,"TOWNNAME":"後壁區","LI":"菁豊里","LIN":"1鄰","STREET":" ","SECT":" ","MAREA":"前菁寮","LANE":" ","ALLEY":" ","HOUSE_NO":"３號之１６","E_COORD97":183096.62,"N_COORD97":2586158.3799999999,"ADDRESS":"前菁寮３號之１６","OBJECTID":123875},"geometry":{"x":183096.62000000104,"y":2586158.379999999}},{"attributes":{"ID":123876,"DIS_CODE":0,"TOWNNAME":"安南區","LI":"安富里","LIN":"16鄰","STREET":"安富街","SECT":" ","MAREA":" ","LANE":"１９９巷","ALLEY":"８弄","HOUSE_NO":"２１號","E_COORD97":167652.44,"N_COORD97":2547310.6800000002,"ADDRESS":"安富街１９９巷８弄２１號","OBJECTID":123876},"geometry":{"x":167652.44000000041,"y":2547310.6799999997}},{"attributes":{"ID":123877,"DIS_CODE":0,"TOWNNAME":"後壁區","LI":"菁豊里","LIN":"1鄰","STREET":" ","SECT":" ","MAREA":"前菁寮","LANE":" ","ALLEY":" ","HOUSE_NO":"３號之１７","E_COORD97":183092.92999999999,"N_COORD97":2586161,"ADDRESS":"前菁寮３號之１７","OBJECTID":123877},"geometry":{"x":183092.93000000063,"y":2586161.0000000019}},{"attributes":{"ID":123878,"DIS_CODE":0,"TOWNNAME":"後壁區","LI":"菁豊里","LIN":"1鄰","STREET":" ","SECT":" ","MAREA":"前菁寮","LANE":" ","ALLEY":" ","HOUSE_NO":"３號之１８","E_COORD97":183089.13,"N_COORD97":2586163.2599999998,"ADDRESS":"前菁寮３號之１８","OBJECTID":123878},"geometry":{"x":183089.12999999989,"y":2586163.2599999998}},{"attributes":{"ID":123879,"DIS_CODE":0,"TOWNNAME":"永康區","LI":"中興里","LIN":"20鄰","STREET":"中華路","SECT":" ","MAREA":" ","LANE":"２１６巷","ALLEY":"３５弄","HOUSE_NO":"１８號","E_COORD97":171882.16,"N_COORD97":2545199.25,"ADDRESS":"中華路２１６巷３５弄１８號","OBJECTID":123879},"geometry":{"x":171882.16000000015,"y":2545199.2500000037}},{"attributes":{"ID":123880,"DIS_CODE":0,"TOWNNAME":"後壁區","LI":"菁豊里","LIN":"1鄰","STREET":" ","SECT":" ","MAREA":"前菁寮","LANE":" ","ALLEY":" ","HOUSE_NO":"３號之１９","E_COORD97":183085.79000000001,"N_COORD97":2586165.9900000002,"ADDRESS":"前菁寮３號之１９","OBJECTID":123880},"geometry":{"x":183085.79000000097,"y":2586165.9900000002}},{"attributes":{"ID":123881,"DIS_CODE":0,"TOWNNAME":"後壁區","LI":"菁豊里","LIN":"1鄰","STREET":" ","SECT":" ","MAREA":"前菁寮","LANE":" ","ALLEY":" ","HOUSE_NO":"３號之２０","E_COORD97":183082.42000000001,"N_COORD97":2586168.5800000001,"ADDRESS":"前菁寮３號之２０","OBJECTID":123881},"geometry":{"x":183082.42000000086,"y":2586168.5800000001}},{"attributes":{"ID":123882,"DIS_CODE":0,"TOWNNAME":"後壁區","LI":"菁豊里","LIN":"1鄰","STREET":" ","SECT":" ","MAREA":"前菁寮","LANE":" ","ALLEY":" ","HOUSE_NO":"３號之２１","E_COORD97":183078.95999999999,"N_COORD97":2586170.8799999999,"ADDRESS":"前菁寮３號之２１","OBJECTID":123882},"geometry":{"x":183078.96000000089,"y":2586170.8800000008}},{"attributes":{"ID":123883,"DIS_CODE":0,"TOWNNAME":"後壁區","LI":"菁豊里","LIN":"1鄰","STREET":" ","SECT":" ","MAREA":"前菁寮","LANE":" ","ALLEY":" ","HOUSE_NO":"３號之２２","E_COORD97":183075.20999999999,"N_COORD97":2586173.5099999998,"ADDRESS":"前菁寮３號之２２","OBJECTID":123883},"geometry":{"x":183075.21000000183,"y":2586173.5100000016}},{"attributes":{"ID":123884,"DIS_CODE":0,"TOWNNAME":"後壁區","LI":"菁豊里","LIN":"1鄰","STREET":" ","SECT":" ","MAREA":"前菁寮","LANE":" ","ALLEY":" ","HOUSE_NO":"３號之２３","E_COORD97":183071.70999999999,"N_COORD97":2586175.8599999999,"ADDRESS":"前菁寮３號之２３","OBJECTID":123884},"geometry":{"x":183071.70999999996,"y":2586175.8599999994}},{"attributes":{"ID":123885,"DIS_CODE":0,"TOWNNAME":"後壁區","LI":"菁豊里","LIN":"1鄰","STREET":" ","SECT":" ","MAREA":"前菁寮","LANE":" ","ALLEY":" ","HOUSE_NO":"３號之２４","E_COORD97":183109.94,"N_COORD97":2586184.3900000001,"ADDRESS":"前菁寮３號之２４","OBJECTID":123885},"geometry":{"x":183109.94000000134,"y":2586184.3900000006}},{"attributes":{"ID":123886,"DIS_CODE":0,"TOWNNAME":"後壁區","LI":"菁豊里","LIN":"1鄰","STREET":" ","SECT":" ","MAREA":"前菁寮","LANE":" ","ALLEY":" ","HOUSE_NO":"３號之２５","E_COORD97":183106.89999999999,"N_COORD97":2586180.1000000001,"ADDRESS":"前菁寮３號之２５","OBJECTID":123886},"geometry":{"x":183106.9000000013,"y":2586180.1000000015}},{"attributes":{"ID":123887,"DIS_CODE":0,"TOWNNAME":"東區","LI":"富強里","LIN":"31鄰","STREET":"裕農路","SECT":" ","MAREA":" ","LANE":" ","ALLEY":" ","HOUSE_NO":"３７２號地下壹層之１","E_COORD97":171084.92000000001,"N_COORD97":2543069.5099999998,"ADDRESS":"裕農路３７２號地下壹層之１３","OBJECTID":123887},"geometry":{"x":171084.91999999993,"y":2543069.5100000016}},{"attributes":{"ID":123888,"DIS_CODE":0,"TOWNNAME":"後壁區","LI":"菁豊里","LIN":"1鄰","STREET":" ","SECT":" ","MAREA":"前菁寮","LANE":" ","ALLEY":" ","HOUSE_NO":"３之２６號","E_COORD97":183104.26000000001,"N_COORD97":2586176.2400000002,"ADDRESS":"前菁寮３之２６號","OBJECTID":123888},"geometry":{"x":183104.26000000071,"y":2586176.2400000021}},{"attributes":{"ID":123889,"DIS_CODE":0,"TOWNNAME":"後壁區","LI":"菁豊里","LIN":"1鄰","STREET":" ","SECT":" ","MAREA":"前菁寮","LANE":" ","ALLEY":" ","HOUSE_NO":"３號之３","E_COORD97":183126.84,"N_COORD97":2586131.71,"ADDRESS":"前菁寮３號之３","OBJECTID":123889},"geometry":{"x":183126.84000000171,"y":2586131.7100000009}},{"attributes":{"ID":123890,"DIS_CODE":0,"TOWNNAME":"永康區","LI":"中興里","LIN":"10鄰","STREET":"忠孝路","SECT":" ","MAREA":" ","LANE":"２３９巷","ALLEY":"２０弄","HOUSE_NO":"１１號","E_COORD97":172021.87,"N_COORD97":2545088.25,"ADDRESS":"忠孝路２３９巷２０弄１１號","OBJECTID":123890},"geometry":{"x":172021.87000000104,"y":2545088.2500000019}},{"attributes":{"ID":123891,"DIS_CODE":0,"TOWNNAME":"永康區","LI":"中興里","LIN":"16鄰","STREET":"中華二路","SECT":" ","MAREA":" ","LANE":"１２７巷","ALLEY":"２弄","HOUSE_NO":"１８號","E_COORD97":171979.29000000001,"N_COORD97":2545400,"ADDRESS":"中華二路１２７巷２弄１８號","OBJECTID":123891},"geometry":{"x":171979.29000000004,"y":2545400}},{"attributes":{"ID":123892,"DIS_CODE":0,"TOWNNAME":"東區","LI":"富強里","LIN":"31鄰","STREET":"裕農路","SECT":" ","MAREA":" ","LANE":" ","ALLEY":" ","HOUSE_NO":"３７２號地下壹層之１","E_COORD97":171084.92000000001,"N_COORD97":2543069.5099999998,"ADDRESS":"裕農路３７２號地下壹層之１４","OBJECTID":123892},"geometry":{"x":171084.91999999993,"y":2543069.5100000016}},{"attributes":{"ID":123893,"DIS_CODE":0,"TOWNNAME":"東區","LI":"富強里","LIN":"31鄰","STREET":"裕農路","SECT":" ","MAREA":" ","LANE":" ","ALLEY":" ","HOUSE_NO":"３７２號地下壹層之１","E_COORD97":171084.92000000001,"N_COORD97":2543069.5099999998,"ADDRESS":"裕農路３７２號地下壹層之１５","OBJECTID":123893},"geometry":{"x":171084.91999999993,"y":2543069.5100000016}},{"attributes":{"ID":123894,"DIS_CODE":0,"TOWNNAME":"永康區","LI":"\u25A0行里","LIN":"31鄰","STREET":"仁愛街","SECT":" ","MAREA":" ","LANE":" ","ALLEY":" ","HOUSE_NO":"４０號","E_COORD97":171931.76999999999,"N_COORD97":2549174.96,"ADDRESS":"仁愛街４０號","OBJECTID":123894},"geometry":{"x":171931.76999999955,"y":2549174.9600000009}},{"attributes":{"ID":123895,"DIS_CODE":0,"TOWNNAME":"安南區","LI":"安富里","LIN":"16鄰","STREET":"安富街","SECT":" ","MAREA":" ","LANE":"１９９巷","ALLEY":"８弄","HOUSE_NO":"２２號","E_COORD97":167653.64000000001,"N_COORD97":2547331.7000000002,"ADDRESS":"安富街１９９巷８弄２２號","OBJECTID":123895},"geometry":{"x":167653.63999999966,"y":2547331.7000000011}},{"attributes":{"ID":123896,"DIS_CODE":0,"TOWNNAME":"安南區","LI":"安富里","LIN":"16鄰","STREET":"安富街","SECT":" ","MAREA":" ","LANE":"１９９巷","ALLEY":"８弄","HOUSE_NO":"２３號","E_COORD97":167647.63,"N_COORD97":2547309.1800000002,"ADDRESS":"安富街１９９巷８弄２３號","OBJECTID":123896},"geometry":{"x":167647.62999999989,"y":2547309.1800000016}},{"attributes":{"ID":123897,"DIS_CODE":0,"TOWNNAME":"安南區","LI":"安富里","LIN":"16鄰","STREET":"安富街","SECT":" ","MAREA":" ","LANE":"１９９巷","ALLEY":"８弄","HOUSE_NO":"２４號","E_COORD97":167648.82999999999,"N_COORD97":2547330.7999999998,"ADDRESS":"安富街１９９巷８弄２４號","OBJECTID":123897},"geometry":{"x":167648.83000000101,"y":2547330.8000000007}},{"attributes":{"ID":123898,"DIS_CODE":0,"TOWNNAME":"安南區","LI":"安富里","LIN":"16鄰","STREET":"安富街","SECT":" ","MAREA":" ","LANE":"１９９巷","ALLEY":"８弄","HOUSE_NO":"２５號","E_COORD97":167642.20999999999,"N_COORD97":2547310.0800000001,"ADDRESS":"安富街１９９巷８弄２５號","OBJECTID":123898},"geometry":{"x":167642.21000000183,"y":2547310.0800000019}},{"attributes":{"ID":123899,"DIS_CODE":0,"TOWNNAME":"後壁區","LI":"菁豊里","LIN":"8鄰","STREET":" ","SECT":" ","MAREA":"前菁寮","LANE":" ","ALLEY":" ","HOUSE_NO":"８０號","E_COORD97":183295.62,"N_COORD97":2586250.9199999999,"ADDRESS":"前菁寮８０號","OBJECTID":123899},"geometry":{"x":183295.62000000011,"y":2586250.9199999999}},{"attributes":{"ID":123900,"DIS_CODE":0,"TOWNNAME":"後壁區","LI":"菁豊里","LIN":"8鄰","STREET":" ","SECT":" ","MAREA":"前菁寮","LANE":" ","ALLEY":" ","HOUSE_NO":"８１號之１","E_COORD97":183249.64000000001,"N_COORD97":2586239.6499999999,"ADDRESS":"前菁寮８１號之１","OBJECTID":123900},"geometry":{"x":183249.63999999966,"y":2586239.6500000004}},{"attributes":{"ID":123901,"DIS_CODE":0,"TOWNNAME":"後壁區","LI":"菁豊里","LIN":"8鄰","STREET":" ","SECT":" ","MAREA":"前菁寮","LANE":" ","ALLEY":" ","HOUSE_NO":"８３號之１","E_COORD97":183191.29999999999,"N_COORD97":2586219.6000000001,"ADDRESS":"前菁寮８３號之１","OBJECTID":123901},"geometry":{"x":183191.29999999981,"y":2586219.5999999978}},{"attributes":{"ID":123902,"DIS_CODE":0,"TOWNNAME":"後壁區","LI":"菁豊里","LIN":"8鄰","STREET":" ","SECT":" ","MAREA":"前菁寮","LANE":" ","ALLEY":" ","HOUSE_NO":"８３號","E_COORD97":183214.26999999999,"N_COORD97":2586223.4500000002,"ADDRESS":"前菁寮８３號","OBJECTID":123902},"geometry":{"x":183214.27000000048,"y":2586223.4499999993}},{"attributes":{"ID":123903,"DIS_CODE":0,"TOWNNAME":"後壁區","LI":"菁豊里","LIN":"8鄰","STREET":" ","SECT":" ","MAREA":"前菁寮","LANE":" ","ALLEY":" ","HOUSE_NO":"８５號","E_COORD97":183249.12,"N_COORD97":2586219.3900000001,"ADDRESS":"前菁寮８５號","OBJECTID":123903},"geometry":{"x":183249.12000000104,"y":2586219.3900000025}},{"attributes":{"ID":123904,"DIS_CODE":0,"TOWNNAME":"後壁區","LI":"菁豊里","LIN":"7鄰","STREET":" ","SECT":" ","MAREA":"前菁寮","LANE":" ","ALLEY":" ","HOUSE_NO":"６４號之１","E_COORD97":183216.35999999999,"N_COORD97":2586434.29,"ADDRESS":"前菁寮６４號之１","OBJECTID":123904},"geometry":{"x":183216.36000000034,"y":2586434.2899999991}},{"attributes":{"ID":123905,"DIS_CODE":0,"TOWNNAME":"後壁區","LI":"菁豊里","LIN":"7鄰","STREET":" ","SECT":" ","MAREA":"前菁寮","LANE":" ","ALLEY":" ","HOUSE_NO":"６４號之２","E_COORD97":183203.48000000001,"N_COORD97":2586438.9300000002,"ADDRESS":"前菁寮６４號之２","OBJECTID":123905},"geometry":{"x":183203.48000000138,"y":2586438.9300000016}},{"attributes":{"ID":123906,"DIS_CODE":0,"TOWNNAME":"後壁區","LI":"菁豊里","LIN":"8鄰","STREET":" ","SECT":" ","MAREA":"前菁寮","LANE":" ","ALLEY":" ","HOUSE_NO":"８６號","E_COORD97":183285.70000000001,"N_COORD97":2586206,"ADDRESS":"前菁寮８６號","OBJECTID":123906},"geometry":{"x":183285.70000000205,"y":2586206}},{"attributes":{"ID":123907,"DIS_CODE":0,"TOWNNAME":"後壁區","LI":"菁豊里","LIN":"8鄰","STREET":" ","SECT":" ","MAREA":"前菁寮","LANE":" ","ALLEY":" ","HOUSE_NO":"８７號之２","E_COORD97":183296.35000000001,"N_COORD97":2586190.79,"ADDRESS":"前菁寮８７號之２","OBJECTID":123907},"geometry":{"x":183296.35000000056,"y":2586190.7900000028}},{"attributes":{"ID":123908,"DIS_CODE":0,"TOWNNAME":"後壁區","LI":"菁豊里","LIN":"1鄰","STREET":" ","SECT":" ","MAREA":"前菁寮","LANE":" ","ALLEY":" ","HOUSE_NO":"９號","E_COORD97":183144.79000000001,"N_COORD97":2586264.1299999999,"ADDRESS":"前菁寮９號","OBJECTID":123908},"geometry":{"x":183144.79000000097,"y":2586264.1300000008}},{"attributes":{"ID":123909,"DIS_CODE":0,"TOWNNAME":"後壁區","LI":"後壁里","LIN":"6鄰","STREET":" ","SECT":" ","MAREA":"後壁","LANE":" ","ALLEY":" ","HOUSE_NO":"１１３號之１","E_COORD97":184729.12,"N_COORD97":2584986.3599999999,"ADDRESS":"後壁１１３號之１","OBJECTID":123909},"geometry":{"x":184729.12000000104,"y":2584986.3599999994}},{"attributes":{"ID":123910,"DIS_CODE":0,"TOWNNAME":"後壁區","LI":"後壁里","LIN":"6鄰","STREET":" ","SECT":" ","MAREA":"後壁","LANE":" ","ALLEY":" ","HOUSE_NO":"１１３號之２","E_COORD97":184733.10999999999,"N_COORD97":2584986.6899999999,"ADDRESS":"後壁１１３號之２","OBJECTID":123910},"geometry":{"x":184733.11000000127,"y":2584986.6899999995}},{"attributes":{"ID":123911,"DIS_CODE":0,"TOWNNAME":"後壁區","LI":"後壁里","LIN":"6鄰","STREET":" ","SECT":" ","MAREA":"後壁","LANE":" ","ALLEY":" ","HOUSE_NO":"１１３號之３","E_COORD97":184721.04999999999,"N_COORD97":2584977.02,"ADDRESS":"後壁１１３號之３","OBJECTID":123911},"geometry":{"x":184721.05000000075,"y":2584977.0200000014}},{"attributes":{"ID":123912,"DIS_CODE":0,"TOWNNAME":"後壁區","LI":"後壁里","LIN":"6鄰","STREET":" ","SECT":" ","MAREA":"後壁","LANE":" ","ALLEY":" ","HOUSE_NO":"１１３號之５","E_COORD97":184711.79000000001,"N_COORD97":2584983.1899999999,"ADDRESS":"後壁１１３號之５","OBJECTID":123912},"geometry":{"x":184711.79000000004,"y":2584983.1900000013}},{"attributes":{"ID":123913,"DIS_CODE":0,"TOWNNAME":"後壁區","LI":"後壁里","LIN":"6鄰","STREET":" ","SECT":" ","MAREA":"後壁","LANE":" ","ALLEY":" ","HOUSE_NO":"１１４號","E_COORD97":184709.70999999999,"N_COORD97":2584976.5,"ADDRESS":"後壁１１４號","OBJECTID":123913},"geometry":{"x":184709.71000000089,"y":2584976.5000000037}},{"attributes":{"ID":123914,"DIS_CODE":0,"TOWNNAME":"後壁區","LI":"後壁里","LIN":"6鄰","STREET":" ","SECT":" ","MAREA":"後壁","LANE":" ","ALLEY":" ","HOUSE_NO":"１１５號","E_COORD97":184708.75,"N_COORD97":2584972.7200000002,"ADDRESS":"後壁１１５號","OBJECTID":123914},"geometry":{"x":184708.75,"y":2584972.7200000044}},{"attributes":{"ID":123915,"DIS_CODE":0,"TOWNNAME":"後壁區","LI":"後壁里","LIN":"6鄰","STREET":" ","SECT":" ","MAREA":"後壁","LANE":" ","ALLEY":" ","HOUSE_NO":"１１６號","E_COORD97":184707.70999999999,"N_COORD97":2584968.96,"ADDRESS":"後壁１１６號","OBJECTID":123915},"geometry":{"x":184707.71000000183,"y":2584968.9600000028}},{"attributes":{"ID":123916,"DIS_CODE":0,"TOWNNAME":"後壁區","LI":"後壁里","LIN":"6鄰","STREET":" ","SECT":" ","MAREA":"後壁","LANE":" ","ALLEY":" ","HOUSE_NO":"１１７號","E_COORD97":184705.97,"N_COORD97":2584964,"ADDRESS":"後壁１１７號","OBJECTID":123916},"geometry":{"x":184705.97000000067,"y":2584964.0000000019}},{"attributes":{"ID":123917,"DIS_CODE":0,"TOWNNAME":"後壁區","LI":"後壁里","LIN":"6鄰","STREET":" ","SECT":" ","MAREA":"後壁","LANE":" ","ALLEY":" ","HOUSE_NO":"１１９號","E_COORD97":184718.29000000001,"N_COORD97":2584964.6699999999,"ADDRESS":"後壁１１９號","OBJECTID":123917},"geometry":{"x":184718.29000000004,"y":2584964.6699999999}},{"attributes":{"ID":123918,"DIS_CODE":0,"TOWNNAME":"後壁區","LI":"後壁里","LIN":"6鄰","STREET":" ","SECT":" ","MAREA":"後壁","LANE":" ","ALLEY":" ","HOUSE_NO":"１２０號","E_COORD97":184722.01999999999,"N_COORD97":2584963.5099999998,"ADDRESS":"後壁１２０號","OBJECTID":123918},"geometry":{"x":184722.01999999862,"y":2584963.5100000016}},{"attributes":{"ID":123919,"DIS_CODE":0,"TOWNNAME":"後壁區","LI":"後壁里","LIN":"6鄰","STREET":" ","SECT":" ","MAREA":"後壁","LANE":" ","ALLEY":" ","HOUSE_NO":"１２２號","E_COORD97":184729.57000000001,"N_COORD97":2584961.5499999998,"ADDRESS":"後壁１２２號","OBJECTID":123919},"geometry":{"x":184729.57000000123,"y":2584961.5500000026}},{"attributes":{"ID":123920,"DIS_CODE":0,"TOWNNAME":"後壁區","LI":"菁豊里","LIN":"9鄰","STREET":" ","SECT":" ","MAREA":"前菁寮","LANE":" ","ALLEY":" ","HOUSE_NO":"９０號","E_COORD97":183190.76999999999,"N_COORD97":2586188.3900000001,"ADDRESS":"前菁寮９０號","OBJECTID":123920},"geometry":{"x":183190.76999999955,"y":2586188.3900000043}},{"attributes":{"ID":123921,"DIS_CODE":0,"TOWNNAME":"後壁區","LI":"菁豊里","LIN":"9鄰","STREET":" ","SECT":" ","MAREA":"前菁寮","LANE":" ","ALLEY":" ","HOUSE_NO":"９１號","E_COORD97":183235.62,"N_COORD97":2586172.6600000001,"ADDRESS":"前菁寮９１號","OBJECTID":123921},"geometry":{"x":183235.62000000104,"y":2586172.6600000039}},{"attributes":{"ID":123922,"DIS_CODE":0,"TOWNNAME":"後壁區","LI":"後壁里","LIN":"7鄰","STREET":" ","SECT":" ","MAREA":"後壁","LANE":" ","ALLEY":" ","HOUSE_NO":"１３４號","E_COORD97":184865.25,"N_COORD97":2584924.1899999999,"ADDRESS":"後壁１３４號","OBJECTID":123922},"geometry":{"x":184865.25000000186,"y":2584924.1900000032}},{"attributes":{"ID":123923,"DIS_CODE":0,"TOWNNAME":"後壁區","LI":"後壁里","LIN":"1鄰","STREET":" ","SECT":" ","MAREA":"後壁","LANE":" ","ALLEY":" ","HOUSE_NO":"４號","E_COORD97":184778.48999999999,"N_COORD97":2584913.5899999999,"ADDRESS":"後壁４號","OBJECTID":123923},"geometry":{"x":184778.49000000022,"y":2584913.5899999999}},{"attributes":{"ID":123924,"DIS_CODE":0,"TOWNNAME":"後壁區","LI":"後壁里","LIN":"4鄰","STREET":" ","SECT":" ","MAREA":"後壁","LANE":" ","ALLEY":" ","HOUSE_NO":"７７號","E_COORD97":184625.04999999999,"N_COORD97":2584986.71,"ADDRESS":"後壁７７號","OBJECTID":123924},"geometry":{"x":184625.04999999981,"y":2584986.7100000028}},{"attributes":{"ID":123925,"DIS_CODE":0,"TOWNNAME":"後壁區","LI":"後壁里","LIN":"4鄰","STREET":" ","SECT":" ","MAREA":"後壁","LANE":" ","ALLEY":" ","HOUSE_NO":"８０號之１５","E_COORD97":184501.34,"N_COORD97":2585008.6400000001,"ADDRESS":"後壁８０號之１５","OBJECTID":123925},"geometry":{"x":184501.33999999985,"y":2585008.6400000006}},{"attributes":{"ID":123926,"DIS_CODE":0,"TOWNNAME":"後壁區","LI":"後壁里","LIN":"4鄰","STREET":" ","SECT":" ","MAREA":"後壁","LANE":" ","ALLEY":" ","HOUSE_NO":"８０號之１６","E_COORD97":184389.98999999999,"N_COORD97":2585083.3700000001,"ADDRESS":"後壁８０號之１６","OBJECTID":123926},"geometry":{"x":184389.99000000022,"y":2585083.370000001}},{"attributes":{"ID":123927,"DIS_CODE":0,"TOWNNAME":"後壁區","LI":"後壁里","LIN":"4鄰","STREET":" ","SECT":" ","MAREA":"後壁","LANE":" ","ALLEY":" ","HOUSE_NO":"８１號","E_COORD97":184670.19796799999,"N_COORD97":2585035.9151599999,"ADDRESS":"後壁８０號之１","OBJECTID":123927},"geometry":{"x":184670.19796799961,"y":2585035.9151639994}},{"attributes":{"ID":123928,"DIS_CODE":0,"TOWNNAME":"後壁區","LI":"後壁里","LIN":"4鄰","STREET":" ","SECT":" ","MAREA":"後壁","LANE":" ","ALLEY":" ","HOUSE_NO":"９１號","E_COORD97":184676.62,"N_COORD97":2584992.02,"ADDRESS":"後壁９１號","OBJECTID":123928},"geometry":{"x":184676.62000000104,"y":2584992.0199999996}},{"attributes":{"ID":123929,"DIS_CODE":0,"TOWNNAME":"後壁區","LI":"後壁里","LIN":"4鄰","STREET":" ","SECT":" ","MAREA":"後壁","LANE":" ","ALLEY":" ","HOUSE_NO":"９３號","E_COORD97":184680.47,"N_COORD97":2585002.0899999999,"ADDRESS":"後壁９３號","OBJECTID":123929},"geometry":{"x":184680.47000000067,"y":2585002.0899999999}},{"attributes":{"ID":123930,"DIS_CODE":0,"TOWNNAME":"後壁區","LI":"後壁里","LIN":"4鄰","STREET":" ","SECT":" ","MAREA":"後壁","LANE":" ","ALLEY":" ","HOUSE_NO":"９５號之１","E_COORD97":184683.79999999999,"N_COORD97":2585012.75,"ADDRESS":"後壁９５號之１","OBJECTID":123930},"geometry":{"x":184683.80000000075,"y":2585012.7500000019}},{"attributes":{"ID":123931,"DIS_CODE":0,"TOWNNAME":"後壁區","LI":"後壁里","LIN":"4鄰","STREET":" ","SECT":" ","MAREA":"後壁","LANE":" ","ALLEY":" ","HOUSE_NO":"９５號之２","E_COORD97":184684,"N_COORD97":2585018.4700000002,"ADDRESS":"後壁９５號之２","OBJECTID":123931},"geometry":{"x":184684.00000000093,"y":2585018.4700000044}},{"attributes":{"ID":123932,"DIS_CODE":0,"TOWNNAME":"後壁區","LI":"崁頂里","LIN":"6鄰","STREET":" ","SECT":" ","MAREA":"崁頂","LANE":" ","ALLEY":" ","HOUSE_NO":"６３號","E_COORD97":183084.47,"N_COORD97":2586720.5899999999,"ADDRESS":"崁頂６３號","OBJECTID":123932},"geometry":{"x":183084.46999999974,"y":2586720.5899999999}},{"attributes":{"ID":123933,"DIS_CODE":0,"TOWNNAME":"安南區","LI":"安富里","LIN":"16鄰","STREET":"安富街","SECT":" ","MAREA":" ","LANE":"１９９巷","ALLEY":"８弄","HOUSE_NO":"２６號","E_COORD97":167644.01999999999,"N_COORD97":2547329.6000000001,"ADDRESS":"安富街１９９巷８弄２６號","OBJECTID":123933},"geometry":{"x":167644.01999999955,"y":2547329.6000000015}},{"attributes":{"ID":123934,"DIS_CODE":0,"TOWNNAME":"安南區","LI":"安富里","LIN":"16鄰","STREET":"安富街","SECT":" ","MAREA":" ","LANE":"１９９巷","ALLEY":"８弄","HOUSE_NO":"２７號","E_COORD97":167637.70000000001,"N_COORD97":2547307.3799999999,"ADDRESS":"安富街１９９巷８弄２７號","OBJECTID":123934},"geometry":{"x":167637.70000000112,"y":2547307.3800000008}},{"attributes":{"ID":123935,"DIS_CODE":0,"TOWNNAME":"安南區","LI":"安富里","LIN":"16鄰","STREET":"安富街","SECT":" ","MAREA":" ","LANE":"１９９巷","ALLEY":"８弄","HOUSE_NO":"２８號","E_COORD97":167638.60000000001,"N_COORD97":2547328.7000000002,"ADDRESS":"安富街１９９巷８弄２８號","OBJECTID":123935},"geometry":{"x":167638.59999999963,"y":2547328.7000000011}},{"attributes":{"ID":123936,"DIS_CODE":0,"TOWNNAME":"安平區","LI":"石門里","LIN":"17鄰","STREET":"\u25A0忠街","SECT":" ","MAREA":" ","LANE":" ","ALLEY":" ","HOUSE_NO":"１６號","E_COORD97":164363.60999999999,"N_COORD97":2544616.27,"ADDRESS":"\u25A0忠街１６號","OBJECTID":123936},"geometry":{"x":164363.61000000127,"y":2544616.2700000014}},{"attributes":{"ID":123937,"DIS_CODE":0,"TOWNNAME":"後壁區","LI":"後壁里","LIN":"4鄰","STREET":" ","SECT":" ","MAREA":"後壁","LANE":" ","ALLEY":" ","HOUSE_NO":"９５號之３","E_COORD97":184685.20000000001,"N_COORD97":2585021.5600000001,"ADDRESS":"後壁９５號之３","OBJECTID":123937},"geometry":{"x":184685.20000000019,"y":2585021.5600000024}},{"attributes":{"ID":123938,"DIS_CODE":0,"TOWNNAME":"後壁區","LI":"後壁里","LIN":"4鄰","STREET":" ","SECT":" ","MAREA":"後壁","LANE":" ","ALLEY":" ","HOUSE_NO":"９５號之４","E_COORD97":184688.07000000001,"N_COORD97":2585024.2000000002,"ADDRESS":"後壁９５號之４","OBJECTID":123938},"geometry":{"x":184688.0700000003,"y":2585024.1999999993}},{"attributes":{"ID":123939,"DIS_CODE":0,"TOWNNAME":"後壁區","LI":"後壁里","LIN":"4鄰","STREET":" ","SECT":" ","MAREA":"後壁","LANE":" ","ALLEY":" ","HOUSE_NO":"９５號之５","E_COORD97":184690.06,"N_COORD97":2585027.8199999998,"ADDRESS":"後壁９５號之５","OBJECTID":123939},"geometry":{"x":184690.06000000052,"y":2585027.8200000003}},{"attributes":{"ID":123940,"DIS_CODE":0,"TOWNNAME":"後壁區","LI":"後壁里","LIN":"4鄰","STREET":" ","SECT":" ","MAREA":"後壁","LANE":" ","ALLEY":" ","HOUSE_NO":"９６號之７","E_COORD97":184692.25,"N_COORD97":2585031.6899999999,"ADDRESS":"後壁９６號之７","OBJECTID":123940},"geometry":{"x":184692.25000000186,"y":2585031.6899999995}},{"attributes":{"ID":123941,"DIS_CODE":0,"TOWNNAME":"後壁區","LI":"後壁里","LIN":"1鄰","STREET":" ","SECT":" ","MAREA":"後壁","LANE":" ","ALLEY":" ","HOUSE_NO":"５號之１","E_COORD97":184749.16,"N_COORD97":2584895.4399999999,"ADDRESS":"後壁５號之１","OBJECTID":123941},"geometry":{"x":184749.16000000108,"y":2584895.4400000013}},{"attributes":{"ID":123942,"DIS_CODE":0,"TOWNNAME":"後壁區","LI":"後壁里","LIN":"1鄰","STREET":" ","SECT":" ","MAREA":"後壁","LANE":" ","ALLEY":" ","HOUSE_NO":"７號","E_COORD97":184745.51999999999,"N_COORD97":2584925.1200000001,"ADDRESS":"後壁７號","OBJECTID":123942},"geometry":{"x":184745.51999999955,"y":2584925.120000001}},{"attributes":{"ID":123943,"DIS_CODE":0,"TOWNNAME":"後壁區","LI":"後壁里","LIN":"3鄰","STREET":" ","SECT":" ","MAREA":"後壁","LANE":" ","ALLEY":" ","HOUSE_NO":"５０號之１","E_COORD97":184586.29999999999,"N_COORD97":2584814.3999999999,"ADDRESS":"後壁５０號之１","OBJECTID":123943},"geometry":{"x":184586.29999999981,"y":2584814.4000000004}},{"attributes":{"ID":123944,"DIS_CODE":0,"TOWNNAME":"後壁區","LI":"後壁里","LIN":"3鄰","STREET":" ","SECT":" ","MAREA":"後壁","LANE":" ","ALLEY":" ","HOUSE_NO":"５０號","E_COORD97":184606.62,"N_COORD97":2584802.3599999999,"ADDRESS":"後壁５０號","OBJECTID":123944},"geometry":{"x":184606.62000000011,"y":2584802.3599999994}},{"attributes":{"ID":123945,"DIS_CODE":0,"TOWNNAME":"佳里區","LI":"東寧里","LIN":"20鄰","STREET":"進學路","SECT":" ","MAREA":" ","LANE":" ","ALLEY":" ","HOUSE_NO":"５３號","E_COORD97":166240.47,"N_COORD97":2562656.4199999999,"ADDRESS":"進學路５３號","OBJECTID":123945},"geometry":{"x":166240.47000000067,"y":2562656.4200000018}},{"attributes":{"ID":123946,"DIS_CODE":0,"TOWNNAME":"仁德區","LI":"仁義里","LIN":"34鄰","STREET":"正義三街","SECT":" ","MAREA":" ","LANE":" ","ALLEY":" ","HOUSE_NO":"４６號","E_COORD97":173510.42999999999,"N_COORD97":2541595.5099999998,"ADDRESS":"正義三街４６號","OBJECTID":123946},"geometry":{"x":173510.4299999997,"y":2541595.5099999998}},{"attributes":{"ID":123947,"DIS_CODE":0,"TOWNNAME":"安南區","LI":"安富里","LIN":"16鄰","STREET":"安富街","SECT":" ","MAREA":" ","LANE":"１９９巷","ALLEY":"８弄","HOUSE_NO":"２號","E_COORD97":167710.78,"N_COORD97":2547343.4100000001,"ADDRESS":"安富街１９９巷８弄２號","OBJECTID":123947},"geometry":{"x":167710.78000000026,"y":2547343.4100000001}},{"attributes":{"ID":123948,"DIS_CODE":0,"TOWNNAME":"安南區","LI":"安富里","LIN":"16鄰","STREET":"安富街","SECT":" ","MAREA":" ","LANE":"１９９巷","ALLEY":"８弄","HOUSE_NO":"３０號","E_COORD97":167633.48999999999,"N_COORD97":2547328.7000000002,"ADDRESS":"安富街１９９巷８弄３０號","OBJECTID":123948},"geometry":{"x":167633.49000000022,"y":2547328.7000000011}},{"attributes":{"ID":123949,"DIS_CODE":0,"TOWNNAME":"安南區","LI":"安富里","LIN":"16鄰","STREET":"安富街","SECT":" ","MAREA":" ","LANE":"１９９巷","ALLEY":"８弄","HOUSE_NO":"３２號","E_COORD97":167628.07999999999,"N_COORD97":2547330.7999999998,"ADDRESS":"安富街１９９巷８弄３２號","OBJECTID":123949},"geometry":{"x":167628.08000000194,"y":2547330.8000000007}},{"attributes":{"ID":123950,"DIS_CODE":0,"TOWNNAME":"安南區","LI":"安富里","LIN":"16鄰","STREET":"安富街","SECT":" ","MAREA":" ","LANE":"１９９巷","ALLEY":"８弄","HOUSE_NO":"３號","E_COORD97":167705.07000000001,"N_COORD97":2547322.3900000001,"ADDRESS":"安富街１９９巷８弄３號","OBJECTID":123950},"geometry":{"x":167705.07000000123,"y":2547322.3900000025}},{"attributes":{"ID":123951,"DIS_CODE":0,"TOWNNAME":"安南區","LI":"安富里","LIN":"16鄰","STREET":"安富街","SECT":" ","MAREA":" ","LANE":"１９９巷","ALLEY":"８弄","HOUSE_NO":"５號","E_COORD97":167699.66,"N_COORD97":2547320.8900000001,"ADDRESS":"安富街１９９巷８弄５號","OBJECTID":123951},"geometry":{"x":167699.66000000015,"y":2547320.8899999987}},{"attributes":{"ID":123952,"DIS_CODE":0,"TOWNNAME":"安南區","LI":"安富里","LIN":"16鄰","STREET":"安富街","SECT":" ","MAREA":" ","LANE":"１９９巷","ALLEY":"８弄","HOUSE_NO":"６號","E_COORD97":167700.26000000001,"N_COORD97":2547343.1099999999,"ADDRESS":"安富街１９９巷８弄６號","OBJECTID":123952},"geometry":{"x":167700.25999999978,"y":2547343.1100000013}},{"attributes":{"ID":123953,"DIS_CODE":0,"TOWNNAME":"安南區","LI":"安富里","LIN":"16鄰","STREET":"安富街","SECT":" ","MAREA":" ","LANE":"１９９巷","ALLEY":"８弄","HOUSE_NO":"７號","E_COORD97":167694.54000000001,"N_COORD97":2547318.1899999999,"ADDRESS":"安富街１９９巷８弄７號","OBJECTID":123953},"geometry":{"x":167694.54000000097,"y":2547318.1900000013}},{"attributes":{"ID":123954,"DIS_CODE":0,"TOWNNAME":"安南區","LI":"安富里","LIN":"16鄰","STREET":"安富街","SECT":" ","MAREA":" ","LANE":"１９９巷","ALLEY":"８弄","HOUSE_NO":"８號","E_COORD97":167695.75,"N_COORD97":2547340.71,"ADDRESS":"安富街１９９巷８弄８號","OBJECTID":123954},"geometry":{"x":167695.75,"y":2547340.7100000028}},{"attributes":{"ID":123955,"DIS_CODE":0,"TOWNNAME":"安南區","LI":"安富里","LIN":"16鄰","STREET":"安富街","SECT":" ","MAREA":" ","LANE":"１９９巷","ALLEY":"８弄","HOUSE_NO":"９號","E_COORD97":167689.42999999999,"N_COORD97":2547319.3900000001,"ADDRESS":"安富街１９９巷８弄９號","OBJECTID":123955},"geometry":{"x":167689.4299999997,"y":2547319.3900000006}},{"attributes":{"ID":123956,"DIS_CODE":0,"TOWNNAME":"永康區","LI":"大灣里","LIN":"30鄰","STREET":"民族路","SECT":" ","MAREA":" ","LANE":"１２６巷","ALLEY":"１０弄","HOUSE_NO":"５號","E_COORD97":175349.76000000001,"N_COORD97":2544895.79,"ADDRESS":"民族路１２６巷１０弄５號","OBJECTID":123956},"geometry":{"x":175349.76000000164,"y":2544895.7899999972}},{"attributes":{"ID":123957,"DIS_CODE":0,"TOWNNAME":"永康區","LI":"五王里","LIN":"9鄰","STREET":"中山東路","SECT":" ","MAREA":" ","LANE":"２１８巷","ALLEY":"２３弄","HOUSE_NO":"７號","E_COORD97":171718.63,"N_COORD97":2545707,"ADDRESS":"中山東路２１８巷２３弄７號","OBJECTID":123957},"geometry":{"x":171718.63000000082,"y":2545707.0000000019}},{"attributes":{"ID":123958,"DIS_CODE":0,"TOWNNAME":"永康區","LI":"中興里","LIN":"20鄰","STREET":"中華路","SECT":" ","MAREA":" ","LANE":"２１６巷","ALLEY":"３５弄","HOUSE_NO":"１３號","E_COORD97":171868.76000000001,"N_COORD97":2545209.5,"ADDRESS":"中華路２１６巷３５弄１３號","OBJECTID":123958},"geometry":{"x":171868.75999999978,"y":2545209.5}},{"attributes":{"ID":123959,"DIS_CODE":0,"TOWNNAME":"永康區","LI":"大灣里","LIN":"30鄰","STREET":"民族路","SECT":" ","MAREA":" ","LANE":"１２６巷","ALLEY":"１０弄","HOUSE_NO":"９號","E_COORD97":175356.70999999999,"N_COORD97":2544884.54,"ADDRESS":"民族路１２６巷１０弄９號","OBJECTID":123959},"geometry":{"x":175356.70999999996,"y":2544884.540000001}},{"attributes":{"ID":123960,"DIS_CODE":0,"TOWNNAME":"永康區","LI":"五王里","LIN":"12鄰","STREET":"中山東路","SECT":" ","MAREA":" ","LANE":"２１８巷","ALLEY":"１２弄","HOUSE_NO":"７號","E_COORD97":171723.51999999999,"N_COORD97":2545772.02,"ADDRESS":"中山東路２１８巷１２弄７號","OBJECTID":123960},"geometry":{"x":171723.52000000142,"y":2545772.0199999996}},{"attributes":{"ID":123961,"DIS_CODE":0,"TOWNNAME":"永康區","LI":"三合里","LIN":"9鄰","STREET":"南工街","SECT":" ","MAREA":" ","LANE":"２４７巷","ALLEY":"３５弄","HOUSE_NO":"７０號","E_COORD97":172028.06,"N_COORD97":2545723,"ADDRESS":"南工街２４７巷３５弄７０號","OBJECTID":123961},"geometry":{"x":172028.05999999959,"y":2545723.0000000037}},{"attributes":{"ID":123962,"DIS_CODE":0,"TOWNNAME":"永康區","LI":"中興里","LIN":"10鄰","STREET":"忠孝路","SECT":" ","MAREA":" ","LANE":"２３９巷","ALLEY":"２０弄","HOUSE_NO":"１號","E_COORD97":172025.51000000001,"N_COORD97":2545065.25,"ADDRESS":"忠孝路２３９巷２０弄１號","OBJECTID":123962},"geometry":{"x":172025.51000000164,"y":2545065.25}},{"attributes":{"ID":123963,"DIS_CODE":0,"TOWNNAME":"安南區","LI":"溪東里","LIN":"16鄰","STREET":"北安路","SECT":"二段","MAREA":" ","LANE":"１２３巷","ALLEY":"５８弄","HOUSE_NO":"１號","E_COORD97":168252.51000000001,"N_COORD97":2547522.3399999999,"ADDRESS":"北安路二段１２３巷５８弄１號","OBJECTID":123963},"geometry":{"x":168252.51000000071,"y":2547522.3400000017}},{"attributes":{"ID":123964,"DIS_CODE":0,"TOWNNAME":"安南區","LI":"溪東里","LIN":"16鄰","STREET":"北安路","SECT":"二段","MAREA":" ","LANE":"１２３巷","ALLEY":"５８弄","HOUSE_NO":"３號","E_COORD97":168252.06,"N_COORD97":2547526.1099999999,"ADDRESS":"北安路二段１２３巷５８弄３號","OBJECTID":123964},"geometry":{"x":168252.06000000052,"y":2547526.1100000013}},{"attributes":{"ID":123965,"DIS_CODE":0,"TOWNNAME":"安南區","LI":"溪東里","LIN":"16鄰","STREET":"北安路","SECT":"二段","MAREA":" ","LANE":"１２３巷","ALLEY":"５８弄","HOUSE_NO":"５號","E_COORD97":168250.85000000001,"N_COORD97":2547531.3799999999,"ADDRESS":"北安路二段１２３巷５８弄５號","OBJECTID":123965},"geometry":{"x":168250.84999999963,"y":2547531.379999999}},{"attributes":{"ID":123966,"DIS_CODE":0,"TOWNNAME":"安南區","LI":"溪東里","LIN":"16鄰","STREET":"北安路","SECT":"二段","MAREA":" ","LANE":"１２３巷","ALLEY":"５８弄","HOUSE_NO":"７號","E_COORD97":168250.25,"N_COORD97":2547536.3500000001,"ADDRESS":"北安路二段１２３巷５８弄７號","OBJECTID":123966},"geometry":{"x":168250.25,"y":2547536.3499999996}},{"attributes":{"ID":123967,"DIS_CODE":0,"TOWNNAME":"安南區","LI":"溪東里","LIN":"16鄰","STREET":"北安路","SECT":"二段","MAREA":" ","LANE":"１２３巷","ALLEY":"５８弄","HOUSE_NO":"９號","E_COORD97":168249.94,"N_COORD97":2547543.8799999999,"ADDRESS":"北安路二段１２３巷５８弄９號","OBJECTID":123967},"geometry":{"x":168249.94000000134,"y":2547543.8800000008}},{"attributes":{"ID":123968,"DIS_CODE":0,"TOWNNAME":"永康區","LI":"五王里","LIN":"14鄰","STREET":"中華二路","SECT":" ","MAREA":" ","LANE":"２０６巷","ALLEY":"６８弄","HOUSE_NO":"４５號","E_COORD97":171629.32000000001,"N_COORD97":2545729.29,"ADDRESS":"中華二路２０６巷６８弄４５號","OBJECTID":123968},"geometry":{"x":171629.32000000123,"y":2545729.2899999991}},{"attributes":{"ID":123969,"DIS_CODE":0,"TOWNNAME":"永康區","LI":"中興里","LIN":"21鄰","STREET":"中華路","SECT":" ","MAREA":" ","LANE":"２１６巷","ALLEY":"５８弄","HOUSE_NO":"６號","E_COORD97":171887.34,"N_COORD97":2545123.5,"ADDRESS":"中華路２１６巷５８弄６號","OBJECTID":123969},"geometry":{"x":171887.33999999985,"y":2545123.5000000019}},{"attributes":{"ID":123970,"DIS_CODE":0,"TOWNNAME":"永康區","LI":"中興里","LIN":"21鄰","STREET":"中華路","SECT":" ","MAREA":" ","LANE":"２１６巷","ALLEY":"４０弄","HOUSE_NO":"２１號","E_COORD97":171863.51999999999,"N_COORD97":2545083,"ADDRESS":"中華路２１６巷４０弄２１號","OBJECTID":123970},"geometry":{"x":171863.51999999955,"y":2545083.0000000019}},{"attributes":{"ID":123971,"DIS_CODE":0,"TOWNNAME":"永康區","LI":"五王里","LIN":"29鄰","STREET":"中山東路","SECT":" ","MAREA":" ","LANE":"６８巷","ALLEY":"３弄","HOUSE_NO":"１８號","E_COORD97":171649.20999999999,"N_COORD97":2545930.0600000001,"ADDRESS":"中山東路６８巷３弄１８號","OBJECTID":123971},"geometry":{"x":171649.20999999996,"y":2545930.0600000024}},{"attributes":{"ID":123972,"DIS_CODE":0,"TOWNNAME":"永康區","LI":"中興里","LIN":"16鄰","STREET":"中華二路","SECT":" ","MAREA":" ","LANE":"１２７巷","ALLEY":"２弄","HOUSE_NO":"２１號","E_COORD97":171962.72,"N_COORD97":2545389.75,"ADDRESS":"中華二路１２７巷２弄２１號","OBJECTID":123972},"geometry":{"x":171962.71999999974,"y":2545389.7500000019}},{"attributes":{"ID":123973,"DIS_CODE":0,"TOWNNAME":"安南區","LI":"溪東里","LIN":"16鄰","STREET":"北安路","SECT":"二段","MAREA":" ","LANE":"１２３巷","ALLEY":"７２弄","HOUSE_NO":"１０號","E_COORD97":168236.5,"N_COORD97":2547538.8999999999,"ADDRESS":"北安路二段１２３巷７２弄１０號","OBJECTID":123973},"geometry":{"x":168236.5,"y":2547538.9000000022}},{"attributes":{"ID":123974,"DIS_CODE":0,"TOWNNAME":"永康區","LI":"網寮里","LIN":"16鄰","STREET":"永二街","SECT":" ","MAREA":" ","LANE":"２４４巷","ALLEY":"６２弄","HOUSE_NO":"１１號","E_COORD97":173289.70999999999,"N_COORD97":2546719.6000000001,"ADDRESS":"永二街２４４巷６２弄１１號","OBJECTID":123974},"geometry":{"x":173289.71000000089,"y":2546719.6000000015}},{"attributes":{"ID":123975,"DIS_CODE":0,"TOWNNAME":"安南區","LI":"溪東里","LIN":"16鄰","STREET":"北安路","SECT":"二段","MAREA":" ","LANE":"１２３巷","ALLEY":"７２弄","HOUSE_NO":"１１號","E_COORD97":168212.62,"N_COORD97":2547541.98,"ADDRESS":"北安路二段１２３巷７２弄１１號","OBJECTID":123975},"geometry":{"x":168212.62000000197,"y":2547541.9800000023}},{"attributes":{"ID":123976,"DIS_CODE":0,"TOWNNAME":"安南區","LI":"溪東里","LIN":"16鄰","STREET":"北安路","SECT":"二段","MAREA":" ","LANE":"１２３巷","ALLEY":"７２弄","HOUSE_NO":"１２號","E_COORD97":168234.98999999999,"N_COORD97":2547544.9199999999,"ADDRESS":"北安路二段１２３巷７２弄１２號","OBJECTID":123976},"geometry":{"x":168234.99000000022,"y":2547544.9200000018}},{"attributes":{"ID":123977,"DIS_CODE":0,"TOWNNAME":"永康區","LI":"二王里","LIN":"42鄰","STREET":"中山南路","SECT":" ","MAREA":" ","LANE":"３１６巷","ALLEY":"２６弄","HOUSE_NO":"７號","E_COORD97":172025.12,"N_COORD97":2546120.71,"ADDRESS":"中山南路３１６巷２６弄７號","OBJECTID":123977},"geometry":{"x":172025.12000000197,"y":2546120.7100000028}},{"attributes":{"ID":123978,"DIS_CODE":0,"TOWNNAME":"安南區","LI":"溪東里","LIN":"16鄰","STREET":"北安路","SECT":"二段","MAREA":" ","LANE":"１２３巷","ALLEY":"７２弄","HOUSE_NO":"１號","E_COORD97":168218.09,"N_COORD97":2547517.98,"ADDRESS":"北安路二段１２３巷７２弄１號","OBJECTID":123978},"geometry":{"x":168218.09000000078,"y":2547517.9800000023}},{"attributes":{"ID":123979,"DIS_CODE":0,"TOWNNAME":"安南區","LI":"溪東里","LIN":"16鄰","STREET":"北安路","SECT":"二段","MAREA":" ","LANE":"１２３巷","ALLEY":"７２弄","HOUSE_NO":"２號","E_COORD97":168240.57000000001,"N_COORD97":2547520.52,"ADDRESS":"北安路二段１２３巷７２弄２號","OBJECTID":123979},"geometry":{"x":168240.57000000123,"y":2547520.5200000014}},{"attributes":{"ID":123980,"DIS_CODE":0,"TOWNNAME":"安南區","LI":"溪東里","LIN":"16鄰","STREET":"北安路","SECT":"二段","MAREA":" ","LANE":"１２３巷","ALLEY":"７２弄","HOUSE_NO":"３號","E_COORD97":168217.09,"N_COORD97":2547522.1200000001,"ADDRESS":"北安路二段１２３巷７２弄３號","OBJECTID":123980},"geometry":{"x":168217.08999999985,"y":2547522.120000001}},{"attributes":{"ID":123981,"DIS_CODE":0,"TOWNNAME":"安南區","LI":"溪東里","LIN":"16鄰","STREET":"北安路","SECT":"二段","MAREA":" ","LANE":"１２３巷","ALLEY":"７２弄","HOUSE_NO":"４號","E_COORD97":168238.91,"N_COORD97":2547525.04,"ADDRESS":"北安路二段１２３巷７２弄４號","OBJECTID":123981},"geometry":{"x":168238.91000000015,"y":2547525.0399999972}},{"attributes":{"ID":123982,"DIS_CODE":0,"TOWNNAME":"安南區","LI":"溪東里","LIN":"16鄰","STREET":"北安路","SECT":"二段","MAREA":" ","LANE":"１２３巷","ALLEY":"７２弄","HOUSE_NO":"５號","E_COORD97":168216.59,"N_COORD97":2547526.2599999998,"ADDRESS":"北安路二段１２３巷７２弄５號","OBJECTID":123982},"geometry":{"x":168216.59000000078,"y":2547526.2599999998}},{"attributes":{"ID":123983,"DIS_CODE":0,"TOWNNAME":"安南區","LI":"溪東里","LIN":"16鄰","STREET":"北安路","SECT":"二段","MAREA":" ","LANE":"１２３巷","ALLEY":"７２弄","HOUSE_NO":"６號","E_COORD97":168237.56,"N_COORD97":2547530.0099999998,"ADDRESS":"北安路二段１２３巷７２弄６號","OBJECTID":123983},"geometry":{"x":168237.55999999959,"y":2547530.0100000016}},{"attributes":{"ID":123984,"DIS_CODE":0,"TOWNNAME":"安南區","LI":"溪東里","LIN":"16鄰","STREET":"北安路","SECT":"二段","MAREA":" ","LANE":"１２３巷","ALLEY":"７２弄","HOUSE_NO":"７號","E_COORD97":168216.42999999999,"N_COORD97":2547531.3900000001,"ADDRESS":"北安路二段１２３巷７２弄７號","OBJECTID":123984},"geometry":{"x":168216.4299999997,"y":2547531.3900000043}},{"attributes":{"ID":123985,"DIS_CODE":0,"TOWNNAME":"安南區","LI":"溪東里","LIN":"16鄰","STREET":"北安路","SECT":"二段","MAREA":" ","LANE":"１２３巷","ALLEY":"７２弄","HOUSE_NO":"８號","E_COORD97":168237.56,"N_COORD97":2547534.8300000001,"ADDRESS":"北安路二段１２３巷７２弄８號","OBJECTID":123985},"geometry":{"x":168237.55999999959,"y":2547534.8300000019}},{"attributes":{"ID":123986,"DIS_CODE":0,"TOWNNAME":"安南區","LI":"學東里","LIN":"17鄰","STREET":"安明路","SECT":"四段","MAREA":" ","LANE":" ","ALLEY":" ","HOUSE_NO":"８２６之８１號","E_COORD97":164843.28,"N_COORD97":2550020.9700000002,"ADDRESS":"安明路四段８２６之８１號","OBJECTID":123986},"geometry":{"x":164843.28000000212,"y":2550020.9700000025}},{"attributes":{"ID":123987,"DIS_CODE":0,"TOWNNAME":"安南區","LI":"溪心里","LIN":"17鄰","STREET":"功安四街","SECT":" ","MAREA":" ","LANE":" ","ALLEY":" ","HOUSE_NO":"７６之１號","E_COORD97":166146.23999999999,"N_COORD97":2550236.0899999999,"ADDRESS":"功安四街７６之１號","OBJECTID":123987},"geometry":{"x":166146.24000000115,"y":2550236.0900000017}},{"attributes":{"ID":123988,"DIS_CODE":0,"TOWNNAME":"安南區","LI":"頂安里","LIN":"17鄰","STREET":"安中二街","SECT":" ","MAREA":" ","LANE":" ","ALLEY":" ","HOUSE_NO":"１１７號","E_COORD97":168412.5,"N_COORD97":2548590.3599999999,"ADDRESS":"安中二街１１７號","OBJECTID":123988},"geometry":{"x":168412.5,"y":2548590.3599999994}},{"attributes":{"ID":123989,"DIS_CODE":0,"TOWNNAME":"安南區","LI":"頂安里","LIN":"17鄰","STREET":"北安路","SECT":"二段","MAREA":" ","LANE":" ","ALLEY":" ","HOUSE_NO":"４８８號","E_COORD97":168371.81,"N_COORD97":2548462.7200000002,"ADDRESS":"北安路二段４８８號","OBJECTID":123989},"geometry":{"x":168371.81000000145,"y":2548462.7200000025}},{"attributes":{"ID":123990,"DIS_CODE":0,"TOWNNAME":"安南區","LI":"頂安里","LIN":"17鄰","STREET":"北安路","SECT":"二段","MAREA":" ","LANE":" ","ALLEY":" ","HOUSE_NO":"６３８號","E_COORD97":168285.99898199999,"N_COORD97":2548748.68402,"ADDRESS":"北安路二段６３８號","OBJECTID":123990},"geometry":{"x":168285.99898199923,"y":2548748.6840189993}},{"attributes":{"ID":123991,"DIS_CODE":0,"TOWNNAME":"安南區","LI":"頂安里","LIN":"17鄰","STREET":"北安路","SECT":"二段","MAREA":" ","LANE":" ","ALLEY":" ","HOUSE_NO":"６１２號","E_COORD97":168294.19615900001,"N_COORD97":2548700.1417700001,"ADDRESS":"北安路二段６１２號","OBJECTID":123991},"geometry":{"x":168294.19615899958,"y":2548700.1417730022}},{"attributes":{"ID":123992,"DIS_CODE":0,"TOWNNAME":"安南區","LI":"頂安里","LIN":"17鄰","STREET":"安中二街","SECT":" ","MAREA":" ","LANE":" ","ALLEY":" ","HOUSE_NO":"１２１號","E_COORD97":168407.37990100001,"N_COORD97":2548601.946,"ADDRESS":"安中二街１２１號","OBJECTID":123992},"geometry":{"x":168407.3799010003,"y":2548601.9460040014}},{"attributes":{"ID":123993,"DIS_CODE":0,"TOWNNAME":"安南區","LI":"頂安里","LIN":"17鄰","STREET":"安中二街","SECT":" ","MAREA":" ","LANE":" ","ALLEY":" ","HOUSE_NO":"１２３號","E_COORD97":168405.04840100001,"N_COORD97":2548608.5076700002,"ADDRESS":"安中二街１２３號","OBJECTID":123993},"geometry":{"x":168405.04840100091,"y":2548608.5076670032}},{"attributes":{"ID":123994,"DIS_CODE":0,"TOWNNAME":"安南區","LI":"頂安里","LIN":"17鄰","STREET":"安中二街","SECT":" ","MAREA":" ","LANE":" ","ALLEY":" ","HOUSE_NO":"１１５號","E_COORD97":168414.16244799999,"N_COORD97":2548583.7426800001,"ADDRESS":"安中二街１１５號","OBJECTID":123994},"geometry":{"x":168414.16244800203,"y":2548583.742680002}},{"attributes":{"ID":123995,"DIS_CODE":0,"TOWNNAME":"仁德區","LI":"仁德里","LIN":"15鄰","STREET":"仁德一街","SECT":" ","MAREA":" ","LANE":" ","ALLEY":" ","HOUSE_NO":"３６號","E_COORD97":173175.42999999999,"N_COORD97":2541240.02,"ADDRESS":"仁德一街３６號","OBJECTID":123995},"geometry":{"x":173175.43000000063,"y":2541240.0200000033}},{"attributes":{"ID":123996,"DIS_CODE":0,"TOWNNAME":"仁德區","LI":"後壁里","LIN":"35鄰","STREET":"德洋二街","SECT":" ","MAREA":" ","LANE":" ","ALLEY":" ","HOUSE_NO":"１２號","E_COORD97":172399.16,"N_COORD97":2539411.52,"ADDRESS":"德洋二街１２號","OBJECTID":123996},"geometry":{"x":172399.16000000015,"y":2539411.5199999996}},{"attributes":{"ID":123997,"DIS_CODE":0,"TOWNNAME":"安南區","LI":"溪東里","LIN":"16鄰","STREET":"北安路","SECT":"二段","MAREA":" ","LANE":"１２３巷","ALLEY":"７２弄","HOUSE_NO":"９號","E_COORD97":168214.76999999999,"N_COORD97":2547536.1899999999,"ADDRESS":"北安路二段１２３巷７２弄９號","OBJECTID":123997},"geometry":{"x":168214.77000000048,"y":2547536.1900000013}},{"attributes":{"ID":123998,"DIS_CODE":0,"TOWNNAME":"後壁區","LI":"後壁里","LIN":"3鄰","STREET":" ","SECT":" ","MAREA":"後壁","LANE":" ","ALLEY":" ","HOUSE_NO":"５１號","E_COORD97":184619.09,"N_COORD97":2584815.8700000001,"ADDRESS":"後壁５１號","OBJECTID":123998},"geometry":{"x":184619.09000000078,"y":2584815.8700000048}},{"attributes":{"ID":123999,"DIS_CODE":0,"TOWNNAME":"後壁區","LI":"後壁里","LIN":"3鄰","STREET":" ","SECT":" ","MAREA":"後壁","LANE":" ","ALLEY":" ","HOUSE_NO":"５４號","E_COORD97":184610.19,"N_COORD97":2584874.7799999998,"ADDRESS":"後壁５４號","OBJECTID":123999},"geometry":{"x":184610.19000000134,"y":2584874.7799999993}},{"attributes":{"ID":124000,"DIS_CODE":0,"TOWNNAME":"後壁區","LI":"後壁里","LIN":"3鄰","STREET":" ","SECT":" ","MAREA":"後壁","LANE":" ","ALLEY":" ","HOUSE_NO":"５７號","E_COORD97":184622.34,"N_COORD97":2584875.6400000001,"ADDRESS":"後壁５７號","OBJECTID":124000},"geometry":{"x":184622.34000000078,"y":2584875.6400000025}}]}