{"displayFieldName":"TOWNNAME","fieldAliases":{"ID":"ID","DIS_CODE":"DIS_CODE","TOWNNAME":"TOWNNAME","LI":"LI","LIN":"LIN","STREET":"STREET","SECT":"SECT","MAREA":"MAREA","LANE":"LANE","ALLEY":"ALLEY","HOUSE_NO":"HOUSE_NO","E_COORD97":"E_COORD97","N_COORD97":"N_COORD97","ADDRESS":"ADDRESS","OBJECTID":"OBJECTID"},"geometryType":"esriGeometryPoint","spatialReference":{"wkid":102443,"latestWkid":3826},"fields":[{"name":"ID","type":"esriFieldTypeDouble","alias":"ID"},{"name":"DIS_CODE","type":"esriFieldTypeInteger","alias":"DIS_CODE"},{"name":"TOWNNAME","type":"esriFieldTypeString","alias":"TOWNNAME","length":8},{"name":"LI","type":"esriFieldTypeString","alias":"LI","length":8},{"name":"LIN","type":"esriFieldTypeString","alias":"LIN","length":12},{"name":"STREET","type":"esriFieldTypeString","alias":"STREET","length":20},{"name":"SECT","type":"esriFieldTypeString","alias":"SECT","length":8},{"name":"MAREA","type":"esriFieldTypeString","alias":"MAREA","length":12},{"name":"LANE","type":"esriFieldTypeString","alias":"LANE","length":10},{"name":"ALLEY","type":"esriFieldTypeString","alias":"ALLEY","length":10},{"name":"HOUSE_NO","type":"esriFieldTypeString","alias":"HOUSE_NO","length":20},{"name":"E_COORD97","type":"esriFieldTypeDouble","alias":"E_COORD97"},{"name":"N_COORD97","type":"esriFieldTypeDouble","alias":"N_COORD97"},{"name":"ADDRESS","type":"esriFieldTypeString","alias":"ADDRESS","length":50},{"name":"OBJECTID","type":"esriFieldTypeOID","alias":"OBJECTID"}],"features":[{"attributes":{"ID":151402,"DIS_CODE":0,"TOWNNAME":"永康區","LI":"大橋里","LIN":"3鄰","STREET":"大橋三街","SECT":" ","MAREA":" ","LANE":"１２４巷","ALLEY":"１８弄","HOUSE_NO":"９號","E_COORD97":170776.48000000001,"N_COORD97":2546620.75,"ADDRESS":"大橋三街１２４巷１８弄９號","OBJECTID":151401},"geometry":{"x":170776.48000000045,"y":2546620.7500000019}},{"attributes":{"ID":151403,"DIS_CODE":0,"TOWNNAME":"永康區","LI":"中興里","LIN":"3鄰","STREET":"中華一路","SECT":" ","MAREA":" ","LANE":"５８巷","ALLEY":"２弄","HOUSE_NO":"２１號","E_COORD97":171935.47,"N_COORD97":2545006.9900000002,"ADDRESS":"中華一路５８巷２弄２１號","OBJECTID":151402},"geometry":{"x":171935.46999999974,"y":2545006.9900000002}},{"attributes":{"ID":151404,"DIS_CODE":0,"TOWNNAME":"永康區","LI":"五王里","LIN":"3鄰","STREET":"成功路","SECT":" ","MAREA":" ","LANE":"１７２巷","ALLEY":"１８弄","HOUSE_NO":"１２號","E_COORD97":171523.47,"N_COORD97":2545607.54,"ADDRESS":"成功路１７２巷１８弄１２號","OBJECTID":151403},"geometry":{"x":171523.46999999974,"y":2545607.540000001}},{"attributes":{"ID":151405,"DIS_CODE":0,"TOWNNAME":"永康區","LI":"五王里","LIN":"3鄰","STREET":"成功路","SECT":" ","MAREA":" ","LANE":"１７２巷","ALLEY":"８弄","HOUSE_NO":"１７號","E_COORD97":171514.39999999999,"N_COORD97":2545592.3599999999,"ADDRESS":"成功路１７２巷８弄１７號","OBJECTID":151404},"geometry":{"x":171514.40000000037,"y":2545592.3600000013}},{"attributes":{"ID":151406,"DIS_CODE":0,"TOWNNAME":"永康區","LI":"正強里","LIN":"3鄰","STREET":"中正路","SECT":" ","MAREA":" ","LANE":"１巷","ALLEY":"２０弄","HOUSE_NO":"６之１號","E_COORD97":173626.42999999999,"N_COORD97":2547649.0499999998,"ADDRESS":"中正路１巷２０弄６之１號","OBJECTID":151405},"geometry":{"x":173626.43000000063,"y":2547649.0500000045}},{"attributes":{"ID":151407,"DIS_CODE":0,"TOWNNAME":"永康區","LI":"五王里","LIN":"19鄰","STREET":"成功路","SECT":" ","MAREA":" ","LANE":" ","ALLEY":" ","HOUSE_NO":"１７６號四樓之１６","E_COORD97":171438.28,"N_COORD97":2545636.9100000001,"ADDRESS":"成功路１７６號四樓之１６","OBJECTID":151406},"geometry":{"x":171438.28000000119,"y":2545636.910000002}},{"attributes":{"ID":151408,"DIS_CODE":0,"TOWNNAME":"永康區","LI":"中興里","LIN":"3鄰","STREET":"中華一路","SECT":" ","MAREA":" ","LANE":"５８巷","ALLEY":"２弄","HOUSE_NO":"１８號","E_COORD97":171896.98000000001,"N_COORD97":2544990.5,"ADDRESS":"中華一路５８巷２弄１８號","OBJECTID":151407},"geometry":{"x":171896.98000000045,"y":2544990.5000000037}},{"attributes":{"ID":151409,"DIS_CODE":0,"TOWNNAME":"東區","LI":"虎尾里","LIN":"3鄰","STREET":"東門路","SECT":"三段","MAREA":" ","LANE":"１７９巷","ALLEY":"１４７弄","HOUSE_NO":"５１號之９","E_COORD97":171705.10000000001,"N_COORD97":2542183.46,"ADDRESS":"東門路三段１７９巷１４７弄５１號之９","OBJECTID":151408},"geometry":{"x":171705.10000000056,"y":2542183.4600000009}},{"attributes":{"ID":151410,"DIS_CODE":0,"TOWNNAME":"永康區","LI":"五王里","LIN":"19鄰","STREET":"成功路","SECT":" ","MAREA":" ","LANE":" ","ALLEY":" ","HOUSE_NO":"１７６號二樓之１","E_COORD97":171436.92999999999,"N_COORD97":2545636.9100000001,"ADDRESS":"成功路１７６號二樓之１","OBJECTID":151409},"geometry":{"x":171436.9299999997,"y":2545636.910000002}},{"attributes":{"ID":151411,"DIS_CODE":0,"TOWNNAME":"永康區","LI":"五王里","LIN":"19鄰","STREET":"成功路","SECT":" ","MAREA":" ","LANE":" ","ALLEY":" ","HOUSE_NO":"１７６號七樓之９","E_COORD97":171437.01000000001,"N_COORD97":2545636.9100000001,"ADDRESS":"成功路１７６號七樓之９","OBJECTID":151410},"geometry":{"x":171437.00999999978,"y":2545636.910000002}},{"attributes":{"ID":151412,"DIS_CODE":0,"TOWNNAME":"東區","LI":"崇德里","LIN":" ","STREET":"中華東路","SECT":"三段","MAREA":" ","LANE":" ","ALLEY":" ","HOUSE_NO":"２０１號","E_COORD97":170593.73000000001,"N_COORD97":2541870.6800000002,"ADDRESS":"中華東路三段２０１號","OBJECTID":151411},"geometry":{"x":170593.73000000045,"y":2541870.6800000016}},{"attributes":{"ID":151413,"DIS_CODE":0,"TOWNNAME":"東區","LI":"崇德里","LIN":" ","STREET":"中華東路","SECT":"三段","MAREA":" ","LANE":" ","ALLEY":" ","HOUSE_NO":"２３５號","E_COORD97":170518.41,"N_COORD97":2541781.3999999999,"ADDRESS":"中華東路三段２３５號","OBJECTID":151412},"geometry":{"x":170518.41000000108,"y":2541781.4000000022}},{"attributes":{"ID":151414,"DIS_CODE":0,"TOWNNAME":"東區","LI":"崇德里","LIN":" ","STREET":"中華東路","SECT":"三段","MAREA":" ","LANE":" ","ALLEY":" ","HOUSE_NO":"２３７號","E_COORD97":170510.54999999999,"N_COORD97":2541773.54,"ADDRESS":"中華東路三段２３７號","OBJECTID":151413},"geometry":{"x":170510.55000000075,"y":2541773.5399999991}},{"attributes":{"ID":151415,"DIS_CODE":0,"TOWNNAME":"東區","LI":"崇德里","LIN":" ","STREET":"崇德路","SECT":" ","MAREA":" ","LANE":" ","ALLEY":" ","HOUSE_NO":"４２１號","E_COORD97":170593.66,"N_COORD97":2541785.6499999999,"ADDRESS":"崇德路４２１號","OBJECTID":151414},"geometry":{"x":170593.66000000015,"y":2541785.6500000004}},{"attributes":{"ID":151416,"DIS_CODE":0,"TOWNNAME":"東區","LI":"虎尾里","LIN":"3鄰","STREET":"東門路","SECT":"三段","MAREA":" ","LANE":"１７９巷","ALLEY":"１４７弄","HOUSE_NO":"５１號之５","E_COORD97":171726.89999999999,"N_COORD97":2542183.8300000001,"ADDRESS":"東門路三段１７９巷１４７弄５１號之５","OBJECTID":151415},"geometry":{"x":171726.90000000224,"y":2542183.8300000001}},{"attributes":{"ID":151417,"DIS_CODE":0,"TOWNNAME":"東區","LI":"虎尾里","LIN":"3鄰","STREET":"東門路","SECT":"三段","MAREA":" ","LANE":"１７９巷","ALLEY":"１４７弄","HOUSE_NO":"５１號之１０","E_COORD97":171698.39000000001,"N_COORD97":2542182.7200000002,"ADDRESS":"東門路三段１７９巷１４７弄５１號之１０","OBJECTID":151416},"geometry":{"x":171698.38999999966,"y":2542182.7200000044}},{"attributes":{"ID":151418,"DIS_CODE":0,"TOWNNAME":"東區","LI":"虎尾里","LIN":"3鄰","STREET":"東門路","SECT":"三段","MAREA":" ","LANE":"１７９巷","ALLEY":"１４７弄","HOUSE_NO":"４９號","E_COORD97":171762.20999999999,"N_COORD97":2542170.46,"ADDRESS":"東門路三段１７９巷１４７弄４９號","OBJECTID":151417},"geometry":{"x":171762.21000000089,"y":2542170.4600000009}},{"attributes":{"ID":151419,"DIS_CODE":0,"TOWNNAME":"東區","LI":"虎尾里","LIN":"3鄰","STREET":"東門路","SECT":"三段","MAREA":" ","LANE":"１７９巷","ALLEY":"１４７弄","HOUSE_NO":"４９號之１","E_COORD97":171762.95000000001,"N_COORD97":2542165.25,"ADDRESS":"東門路三段１７９巷１４７弄４９號之１","OBJECTID":151418},"geometry":{"x":171762.95000000019,"y":2542165.2500000019}},{"attributes":{"ID":151420,"DIS_CODE":0,"TOWNNAME":"東區","LI":"虎尾里","LIN":"3鄰","STREET":"東門路","SECT":"三段","MAREA":" ","LANE":"１７９巷","ALLEY":"１４７弄","HOUSE_NO":"４９號之１０","E_COORD97":171727.92000000001,"N_COORD97":2542158.3599999999,"ADDRESS":"東門路三段１７９巷１４７弄４９號之１０","OBJECTID":151419},"geometry":{"x":171727.92000000179,"y":2542158.3599999994}},{"attributes":{"ID":151421,"DIS_CODE":0,"TOWNNAME":"東區","LI":"虎尾里","LIN":"3鄰","STREET":"東門路","SECT":"三段","MAREA":" ","LANE":"１７９巷","ALLEY":"１４７弄","HOUSE_NO":"４９號之１１","E_COORD97":171728.67000000001,"N_COORD97":2542153.1499999999,"ADDRESS":"東門路三段１７９巷１４７弄４９號之１１","OBJECTID":151420},"geometry":{"x":171728.67000000086,"y":2542153.1500000022}},{"attributes":{"ID":151422,"DIS_CODE":0,"TOWNNAME":"東區","LI":"虎尾里","LIN":"3鄰","STREET":"自由路","SECT":"三段","MAREA":" ","LANE":" ","ALLEY":" ","HOUSE_NO":"１４８號","E_COORD97":171849.92000000001,"N_COORD97":2542128.3399999999,"ADDRESS":"自由路三段１４８號","OBJECTID":151421},"geometry":{"x":171849.92000000179,"y":2542128.3399999999}},{"attributes":{"ID":151423,"DIS_CODE":0,"TOWNNAME":"東區","LI":"虎尾里","LIN":"3鄰","STREET":"自由路","SECT":"三段","MAREA":" ","LANE":" ","ALLEY":" ","HOUSE_NO":"６１號","E_COORD97":171820.76000000001,"N_COORD97":2542079.8599999999,"ADDRESS":"自由路三段６１號","OBJECTID":151422},"geometry":{"x":171820.76000000071,"y":2542079.8600000013}},{"attributes":{"ID":151424,"DIS_CODE":0,"TOWNNAME":"東區","LI":"虎尾里","LIN":"3鄰","STREET":"自由路","SECT":"三段","MAREA":" ","LANE":" ","ALLEY":" ","HOUSE_NO":"６３號","E_COORD97":171820.37,"N_COORD97":2542086.29,"ADDRESS":"自由路三段６３號","OBJECTID":151423},"geometry":{"x":171820.37000000104,"y":2542086.290000001}},{"attributes":{"ID":151425,"DIS_CODE":0,"TOWNNAME":"東區","LI":"虎尾里","LIN":"3鄰","STREET":"自由路","SECT":"三段","MAREA":" ","LANE":" ","ALLEY":" ","HOUSE_NO":"５９號","E_COORD97":171820.63,"N_COORD97":2542072.9100000001,"ADDRESS":"自由路三段５９號","OBJECTID":151424},"geometry":{"x":171820.62999999989,"y":2542072.910000002}},{"attributes":{"ID":151426,"DIS_CODE":0,"TOWNNAME":"東區","LI":"崇學里","LIN":" ","STREET":"崇德路","SECT":" ","MAREA":" ","LANE":" ","ALLEY":" ","HOUSE_NO":"３２９號","E_COORD97":170379.01000000001,"N_COORD97":2541977.5499999998,"ADDRESS":"崇德路３２９號","OBJECTID":151425},"geometry":{"x":170379.00999999978,"y":2541977.5500000026}},{"attributes":{"ID":151427,"DIS_CODE":0,"TOWNNAME":"安定區","LI":"港尾里","LIN":"5鄰","STREET":" ","SECT":" ","MAREA":"港子尾","LANE":" ","ALLEY":" ","HOUSE_NO":"２１號","E_COORD97":171518.69,"N_COORD97":2556104.2599999998,"ADDRESS":"港子尾２１號","OBJECTID":151426},"geometry":{"x":171518.69000000134,"y":2556104.2599999998}},{"attributes":{"ID":151428,"DIS_CODE":0,"TOWNNAME":"安定區","LI":"海寮里","LIN":"5鄰","STREET":" ","SECT":" ","MAREA":"海寮","LANE":" ","ALLEY":" ","HOUSE_NO":"５１號","E_COORD97":169483.09,"N_COORD97":2555398.25,"ADDRESS":"海寮５１號","OBJECTID":151427},"geometry":{"x":169483.08999999985,"y":2555398.2500000019}},{"attributes":{"ID":151429,"DIS_CODE":0,"TOWNNAME":"安定區","LI":"中沙里","LIN":"5鄰","STREET":" ","SECT":" ","MAREA":"沙崙","LANE":" ","ALLEY":" ","HOUSE_NO":"７號","E_COORD97":168583.12,"N_COORD97":2552284.29,"ADDRESS":"沙崙７號","OBJECTID":151428},"geometry":{"x":168583.12000000011,"y":2552284.290000001}},{"attributes":{"ID":151430,"DIS_CODE":0,"TOWNNAME":"東區","LI":"虎尾里","LIN":"3鄰","STREET":"東門路","SECT":"三段","MAREA":" ","LANE":"１７９巷","ALLEY":"１４７弄","HOUSE_NO":"１５號","E_COORD97":171739.85000000001,"N_COORD97":2542108.6299999999,"ADDRESS":"東門路三段１７９巷１４７弄１５號","OBJECTID":151429},"geometry":{"x":171739.8499999987,"y":2542108.629999999}},{"attributes":{"ID":151431,"DIS_CODE":0,"TOWNNAME":"東區","LI":"虎尾里","LIN":"3鄰","STREET":"東門路","SECT":"三段","MAREA":" ","LANE":"１７９巷","ALLEY":"１４７弄","HOUSE_NO":"１９號","E_COORD97":171751.39999999999,"N_COORD97":2542109.9300000002,"ADDRESS":"東門路三段１７９巷１４７弄１９號","OBJECTID":151430},"geometry":{"x":171751.40000000037,"y":2542109.9300000016}},{"attributes":{"ID":151432,"DIS_CODE":0,"TOWNNAME":"東區","LI":"虎尾里","LIN":"3鄰","STREET":"東門路","SECT":"三段","MAREA":" ","LANE":"１７９巷","ALLEY":"１４７弄","HOUSE_NO":"２１號","E_COORD97":171756.98999999999,"N_COORD97":2542109.5600000001,"ADDRESS":"東門路三段１７９巷１４７弄２１號","OBJECTID":151431},"geometry":{"x":171756.99000000115,"y":2542109.5600000024}},{"attributes":{"ID":151433,"DIS_CODE":0,"TOWNNAME":"東區","LI":"虎尾里","LIN":"3鄰","STREET":"東門路","SECT":"三段","MAREA":" ","LANE":"１７９巷","ALLEY":"１４７弄","HOUSE_NO":"２３號","E_COORD97":171762.39000000001,"N_COORD97":2542109.4100000001,"ADDRESS":"東門路三段１７９巷１４７弄２３號","OBJECTID":151432},"geometry":{"x":171762.3900000006,"y":2542109.4100000039}},{"attributes":{"ID":151434,"DIS_CODE":0,"TOWNNAME":"東區","LI":"虎尾里","LIN":"3鄰","STREET":"東門路","SECT":"三段","MAREA":" ","LANE":"１７９巷","ALLEY":"１４７弄","HOUSE_NO":"２５號","E_COORD97":171768.07999999999,"N_COORD97":2542109.3300000001,"ADDRESS":"東門路三段１７９巷１４７弄２５號","OBJECTID":151433},"geometry":{"x":171768.08000000101,"y":2542109.3300000001}},{"attributes":{"ID":151435,"DIS_CODE":0,"TOWNNAME":"東區","LI":"虎尾里","LIN":"3鄰","STREET":"東門路","SECT":"三段","MAREA":" ","LANE":"１７９巷","ALLEY":"１４７弄","HOUSE_NO":"２７號","E_COORD97":171762.20999999999,"N_COORD97":2542123.27,"ADDRESS":"東門路三段１７９巷１４７弄２７號","OBJECTID":151434},"geometry":{"x":171762.21000000089,"y":2542123.2700000033}},{"attributes":{"ID":151436,"DIS_CODE":0,"TOWNNAME":"東區","LI":"虎尾里","LIN":"3鄰","STREET":"東門路","SECT":"三段","MAREA":" ","LANE":"１７９巷","ALLEY":"１４７弄","HOUSE_NO":"３０號","E_COORD97":171782.51999999999,"N_COORD97":2542141.23,"ADDRESS":"東門路三段１７９巷１４７弄３０號","OBJECTID":151435},"geometry":{"x":171782.51999999955,"y":2542141.2299999986}},{"attributes":{"ID":151437,"DIS_CODE":0,"TOWNNAME":"東區","LI":"虎尾里","LIN":"3鄰","STREET":"東門路","SECT":"三段","MAREA":" ","LANE":"１７９巷","ALLEY":"１４７弄","HOUSE_NO":"４１號","E_COORD97":171753.54000000001,"N_COORD97":2542144.5800000001,"ADDRESS":"東門路三段１７９巷１４７弄４１號","OBJECTID":151436},"geometry":{"x":171753.54000000004,"y":2542144.5800000001}},{"attributes":{"ID":151438,"DIS_CODE":0,"TOWNNAME":"東區","LI":"虎尾里","LIN":"3鄰","STREET":"東門路","SECT":"三段","MAREA":" ","LANE":"１７９巷","ALLEY":"１４７弄","HOUSE_NO":"４３號","E_COORD97":171764.72,"N_COORD97":2542143.8399999999,"ADDRESS":"東門路三段１７９巷１４７弄４３號","OBJECTID":151437},"geometry":{"x":171764.7200000016,"y":2542143.8400000017}},{"attributes":{"ID":151439,"DIS_CODE":0,"TOWNNAME":"東區","LI":"虎尾里","LIN":"3鄰","STREET":"東門路","SECT":"三段","MAREA":" ","LANE":"１７９巷","ALLEY":"１４７弄","HOUSE_NO":"５號","E_COORD97":171760.53,"N_COORD97":2542089.6400000001,"ADDRESS":"東門路三段１７９巷１４７弄５號","OBJECTID":151438},"geometry":{"x":171760.53000000119,"y":2542089.6400000025}},{"attributes":{"ID":151440,"DIS_CODE":0,"TOWNNAME":"東區","LI":"虎尾里","LIN":"3鄰","STREET":"東門路","SECT":"三段","MAREA":" ","LANE":"１７９巷","ALLEY":"１４７弄","HOUSE_NO":"１號","E_COORD97":171766.85999999999,"N_COORD97":2542071.6699999999,"ADDRESS":"東門路三段１７９巷１４７弄１號","OBJECTID":151439},"geometry":{"x":171766.86000000127,"y":2542071.6700000018}},{"attributes":{"ID":151441,"DIS_CODE":0,"TOWNNAME":"東區","LI":"虎尾里","LIN":"3鄰","STREET":"東門路","SECT":"三段","MAREA":" ","LANE":"１７９巷","ALLEY":"１４７弄","HOUSE_NO":"３號","E_COORD97":171766.29999999999,"N_COORD97":2542079.6800000002,"ADDRESS":"東門路三段１７９巷１４７弄３號","OBJECTID":151440},"geometry":{"x":171766.30000000075,"y":2542079.6799999997}},{"attributes":{"ID":151442,"DIS_CODE":0,"TOWNNAME":"安定區","LI":"港尾里","LIN":"5鄰","STREET":" ","SECT":" ","MAREA":"港子尾","LANE":" ","ALLEY":" ","HOUSE_NO":"２２號之２","E_COORD97":171502.09,"N_COORD97":2556086.2999999998,"ADDRESS":"港子尾２２之２號","OBJECTID":151441},"geometry":{"x":171502.08999999985,"y":2556086.3000000026}},{"attributes":{"ID":151443,"DIS_CODE":0,"TOWNNAME":"安南區","LI":"溪心里","LIN":"3鄰","STREET":"海佃路","SECT":"三段","MAREA":" ","LANE":"４８巷","ALLEY":"６０弄","HOUSE_NO":"６６號","E_COORD97":166439.07000000001,"N_COORD97":2549879.2400000002,"ADDRESS":"海佃路三段４８巷６０弄６６號","OBJECTID":151442},"geometry":{"x":166439.07000000123,"y":2549879.2400000021}},{"attributes":{"ID":151444,"DIS_CODE":0,"TOWNNAME":"安南區","LI":"溪心里","LIN":"3鄰","STREET":"海佃路","SECT":"三段","MAREA":" ","LANE":"４８巷","ALLEY":"６０弄","HOUSE_NO":"６８號","E_COORD97":166442.84,"N_COORD97":2549881.98,"ADDRESS":"海佃路三段４８巷６０弄６８號","OBJECTID":151443},"geometry":{"x":166442.84000000171,"y":2549881.9800000004}},{"attributes":{"ID":151445,"DIS_CODE":0,"TOWNNAME":"安南區","LI":"溪心里","LIN":"3鄰","STREET":"海佃路","SECT":"三段","MAREA":" ","LANE":"４８巷","ALLEY":"６０弄","HOUSE_NO":"７０號","E_COORD97":166447.29000000001,"N_COORD97":2549885.0600000001,"ADDRESS":"海佃路三段４８巷６０弄７０號","OBJECTID":151444},"geometry":{"x":166447.29000000097,"y":2549885.0600000005}},{"attributes":{"ID":151446,"DIS_CODE":0,"TOWNNAME":"安南區","LI":"溪心里","LIN":"3鄰","STREET":"海佃路","SECT":"三段","MAREA":" ","LANE":"４８巷","ALLEY":"６０弄","HOUSE_NO":"７２號","E_COORD97":166451.39999999999,"N_COORD97":2549888.48,"ADDRESS":"海佃路三段４８巷６０弄７２號","OBJECTID":151445},"geometry":{"x":166451.40000000224,"y":2549888.4800000023}},{"attributes":{"ID":151447,"DIS_CODE":0,"TOWNNAME":"安南區","LI":"海南里","LIN":"3鄰","STREET":"府安路","SECT":"六段","MAREA":" ","LANE":"１０３巷","ALLEY":"８７弄","HOUSE_NO":"２號","E_COORD97":166674.41,"N_COORD97":2546712.1400000001,"ADDRESS":"府安路六段１０３巷８７弄２號","OBJECTID":151446},"geometry":{"x":166674.41000000015,"y":2546712.1400000006}},{"attributes":{"ID":151448,"DIS_CODE":0,"TOWNNAME":"安南區","LI":"海南里","LIN":"3鄰","STREET":"府安路","SECT":"六段","MAREA":" ","LANE":"１０３巷","ALLEY":"８７弄","HOUSE_NO":"３號","E_COORD97":166670.82000000001,"N_COORD97":2546696.0800000001,"ADDRESS":"府安路六段１０３巷８７弄３號","OBJECTID":151447},"geometry":{"x":166670.82000000123,"y":2546696.0800000019}},{"attributes":{"ID":151449,"DIS_CODE":0,"TOWNNAME":"安南區","LI":"淵中里","LIN":"3鄰","STREET":"本淵路","SECT":" ","MAREA":" ","LANE":"９１巷","ALLEY":"６弄","HOUSE_NO":"１號","E_COORD97":165147.81,"N_COORD97":2549928.5299999998,"ADDRESS":"本淵路９１巷６弄１號","OBJECTID":151448},"geometry":{"x":165147.81000000052,"y":2549928.5299999993}},{"attributes":{"ID":151450,"DIS_CODE":0,"TOWNNAME":"安南區","LI":"淵中里","LIN":"3鄰","STREET":"本淵路","SECT":" ","MAREA":" ","LANE":"９１巷","ALLEY":"６弄","HOUSE_NO":"２號","E_COORD97":165139.16,"N_COORD97":2549939.6699999999,"ADDRESS":"本淵路９１巷６弄２號","OBJECTID":151449},"geometry":{"x":165139.16000000108,"y":2549939.6700000018}},{"attributes":{"ID":151451,"DIS_CODE":0,"TOWNNAME":"安南區","LI":"淵中里","LIN":"3鄰","STREET":"本淵路","SECT":" ","MAREA":" ","LANE":"９１巷","ALLEY":"６弄","HOUSE_NO":"３號","E_COORD97":165144.39999999999,"N_COORD97":2549923.1400000001,"ADDRESS":"本淵路９１巷６弄３號","OBJECTID":151450},"geometry":{"x":165144.40000000224,"y":2549923.1400000043}},{"attributes":{"ID":151452,"DIS_CODE":0,"TOWNNAME":"安南區","LI":"淵中里","LIN":"3鄰","STREET":"本淵路","SECT":" ","MAREA":" ","LANE":"９１巷","ALLEY":"６弄","HOUSE_NO":"５號","E_COORD97":165142.23999999999,"N_COORD97":2549918.48,"ADDRESS":"本淵路９１巷６弄５號","OBJECTID":151451},"geometry":{"x":165142.24000000115,"y":2549918.4800000023}},{"attributes":{"ID":151453,"DIS_CODE":0,"TOWNNAME":"安南區","LI":"淵西里","LIN":"3鄰","STREET":"安中路","SECT":"四段","MAREA":" ","LANE":"２９０巷","ALLEY":"２２５弄","HOUSE_NO":"２０號","E_COORD97":164964.35999999999,"N_COORD97":2550308.9100000001,"ADDRESS":"安中路四段２９０巷２２５弄２０號","OBJECTID":151452},"geometry":{"x":164964.36000000034,"y":2550308.910000002}},{"attributes":{"ID":151454,"DIS_CODE":0,"TOWNNAME":"安南區","LI":"淵西里","LIN":"3鄰","STREET":"安中路","SECT":"四段","MAREA":" ","LANE":"２９０巷","ALLEY":"２４３弄","HOUSE_NO":"１０號","E_COORD97":165008.17999999999,"N_COORD97":2550294.8100000001,"ADDRESS":"安中路四段２９０巷２４３弄１０號","OBJECTID":151453},"geometry":{"x":165008.18000000063,"y":2550294.8100000042}},{"attributes":{"ID":151455,"DIS_CODE":0,"TOWNNAME":"安南區","LI":"淵西里","LIN":"3鄰","STREET":"安中路","SECT":"四段","MAREA":" ","LANE":"２９０巷","ALLEY":"２４３弄","HOUSE_NO":"１２號","E_COORD97":165005.98000000001,"N_COORD97":2550297.79,"ADDRESS":"安中路四段２９０巷２４３弄１２號","OBJECTID":151454},"geometry":{"x":165005.98000000045,"y":2550297.790000001}},{"attributes":{"ID":151456,"DIS_CODE":0,"TOWNNAME":"安南區","LI":"淵西里","LIN":"3鄰","STREET":"安中路","SECT":"四段","MAREA":" ","LANE":"２９０巷","ALLEY":"２４３弄","HOUSE_NO":"１４號","E_COORD97":165003.62,"N_COORD97":2550300.9300000002,"ADDRESS":"安中路四段２９０巷２４３弄１４號","OBJECTID":151455},"geometry":{"x":165003.62000000197,"y":2550300.9300000016}},{"attributes":{"ID":151457,"DIS_CODE":0,"TOWNNAME":"安南區","LI":"淵西里","LIN":"3鄰","STREET":"安中路","SECT":"四段","MAREA":" ","LANE":"２９０巷","ALLEY":"２４３弄","HOUSE_NO":"１６號","E_COORD97":165001.57999999999,"N_COORD97":2550304.23,"ADDRESS":"安中路四段２９０巷２４３弄１６號","OBJECTID":151456},"geometry":{"x":165001.58000000007,"y":2550304.2300000004}},{"attributes":{"ID":151458,"DIS_CODE":0,"TOWNNAME":"安南區","LI":"淵西里","LIN":"3鄰","STREET":"安中路","SECT":"四段","MAREA":" ","LANE":"２９０巷","ALLEY":"２４３弄","HOUSE_NO":"１８號","E_COORD97":164999.53,"N_COORD97":2550307.8399999999,"ADDRESS":"安中路四段２９０巷２４３弄１８號","OBJECTID":151457},"geometry":{"x":164999.53000000119,"y":2550307.8400000017}},{"attributes":{"ID":151459,"DIS_CODE":0,"TOWNNAME":"安南區","LI":"顯宮里","LIN":"1鄰","STREET":"顯宮二街","SECT":" ","MAREA":" ","LANE":"５８巷","ALLEY":" ","HOUSE_NO":"１７號","E_COORD97":160535.95000000001,"N_COORD97":2548720.1600000001,"ADDRESS":"顯宮二街５８巷１７號","OBJECTID":151458},"geometry":{"x":160535.95000000019,"y":2548720.160000002}},{"attributes":{"ID":151460,"DIS_CODE":0,"TOWNNAME":"安南區","LI":"淵西里","LIN":"3鄰","STREET":"安中路","SECT":"四段","MAREA":" ","LANE":"２９０巷","ALLEY":"２６３弄","HOUSE_NO":"１號","E_COORD97":165039.47,"N_COORD97":2550289.3100000001,"ADDRESS":"安中路四段２９０巷２６３弄１號","OBJECTID":151459},"geometry":{"x":165039.46999999974,"y":2550289.3100000024}},{"attributes":{"ID":151461,"DIS_CODE":0,"TOWNNAME":"安南區","LI":"淵西里","LIN":"3鄰","STREET":"安中路","SECT":"四段","MAREA":" ","LANE":"２９０巷","ALLEY":"２６３弄","HOUSE_NO":"３號","E_COORD97":165037.89000000001,"N_COORD97":2550294.1800000002,"ADDRESS":"安中路四段２９０巷２６３弄３號","OBJECTID":151460},"geometry":{"x":165037.88999999966,"y":2550294.1799999997}},{"attributes":{"ID":151462,"DIS_CODE":0,"TOWNNAME":"安南區","LI":"淵西里","LIN":"3鄰","STREET":"安中路","SECT":"四段","MAREA":" ","LANE":"２９０巷","ALLEY":"２６３弄","HOUSE_NO":"５號","E_COORD97":165036.32000000001,"N_COORD97":2550297.0099999998,"ADDRESS":"安中路四段２９０巷２６３弄５號","OBJECTID":151461},"geometry":{"x":165036.32000000216,"y":2550297.0100000016}},{"attributes":{"ID":151463,"DIS_CODE":0,"TOWNNAME":"安南區","LI":"淵西里","LIN":"3鄰","STREET":"安中路","SECT":"四段","MAREA":" ","LANE":"２９０巷","ALLEY":"２６３弄","HOUSE_NO":"７號","E_COORD97":165032.07999999999,"N_COORD97":2550301.0899999999,"ADDRESS":"安中路四段２９０巷２６３弄７號","OBJECTID":151462},"geometry":{"x":165032.08000000007,"y":2550301.0899999999}},{"attributes":{"ID":151464,"DIS_CODE":0,"TOWNNAME":"安南區","LI":"淵西里","LIN":"3鄰","STREET":"安中路","SECT":"四段","MAREA":" ","LANE":"２９０巷","ALLEY":"２６３弄","HOUSE_NO":"９號","E_COORD97":165030.19,"N_COORD97":2550304.8599999999,"ADDRESS":"安中路四段２９０巷２６３弄９號","OBJECTID":151463},"geometry":{"x":165030.19000000041,"y":2550304.8600000013}},{"attributes":{"ID":151465,"DIS_CODE":0,"TOWNNAME":"安南區","LI":"淵西里","LIN":"3鄰","STREET":"安中路","SECT":"四段","MAREA":" ","LANE":"２９０巷","ALLEY":"２６３弄","HOUSE_NO":"１１號","E_COORD97":165028.45999999999,"N_COORD97":2550308.9399999999,"ADDRESS":"安中路四段２９０巷２６３弄１１號","OBJECTID":151464},"geometry":{"x":165028.46000000089,"y":2550308.9399999995}},{"attributes":{"ID":151466,"DIS_CODE":0,"TOWNNAME":"安南區","LI":"淵西里","LIN":"3鄰","STREET":"安中路","SECT":"四段","MAREA":" ","LANE":"２９０巷","ALLEY":"２６３弄","HOUSE_NO":"１５號","E_COORD97":165010.38,"N_COORD97":2550312.8599999999,"ADDRESS":"安中路四段２９０巷２６３弄１５號","OBJECTID":151465},"geometry":{"x":165010.38000000082,"y":2550312.8599999994}},{"attributes":{"ID":151467,"DIS_CODE":0,"TOWNNAME":"安南區","LI":"淵西里","LIN":"3鄰","STREET":"安中路","SECT":"四段","MAREA":" ","LANE":"２９０巷","ALLEY":"２６３弄","HOUSE_NO":"１７號","E_COORD97":165013.84,"N_COORD97":2550315.2200000002,"ADDRESS":"安中路四段２９０巷２６３弄１７號","OBJECTID":151466},"geometry":{"x":165013.84000000171,"y":2550315.2200000007}},{"attributes":{"ID":151468,"DIS_CODE":0,"TOWNNAME":"安南區","LI":"淵西里","LIN":"3鄰","STREET":"安中路","SECT":"四段","MAREA":" ","LANE":"２９０巷","ALLEY":"２６３弄","HOUSE_NO":"１９號","E_COORD97":165016.82999999999,"N_COORD97":2550318.04,"ADDRESS":"安中路四段２９０巷２６３弄１９號","OBJECTID":151467},"geometry":{"x":165016.83000000007,"y":2550318.0399999991}},{"attributes":{"ID":151469,"DIS_CODE":0,"TOWNNAME":"安南區","LI":"淵西里","LIN":"3鄰","STREET":"安中路","SECT":"四段","MAREA":" ","LANE":"２９０巷","ALLEY":"２６３弄","HOUSE_NO":"２１號","E_COORD97":165020.29000000001,"N_COORD97":2550321.1800000002,"ADDRESS":"安中路四段２９０巷２６３弄２１號","OBJECTID":151468},"geometry":{"x":165020.29000000004,"y":2550321.1799999997}},{"attributes":{"ID":151470,"DIS_CODE":0,"TOWNNAME":"安南區","LI":"淵西里","LIN":"3鄰","STREET":"安中路","SECT":"四段","MAREA":" ","LANE":"２９０巷","ALLEY":"２６３弄","HOUSE_NO":"２３號","E_COORD97":165024.53,"N_COORD97":2550323.7000000002,"ADDRESS":"安中路四段２９０巷２６３弄２３號","OBJECTID":151469},"geometry":{"x":165024.53000000026,"y":2550323.6999999993}},{"attributes":{"ID":151471,"DIS_CODE":0,"TOWNNAME":"安南區","LI":"淵西里","LIN":"3鄰","STREET":"安中路","SECT":"四段","MAREA":" ","LANE":"２９０巷","ALLEY":"２６３弄","HOUSE_NO":"２７號","E_COORD97":165032.70999999999,"N_COORD97":2550333.8700000001,"ADDRESS":"安中路四段２９０巷２６３弄２７號","OBJECTID":151470},"geometry":{"x":165032.70999999996,"y":2550333.8700000029}},{"attributes":{"ID":151472,"DIS_CODE":0,"TOWNNAME":"安南區","LI":"淵西里","LIN":"3鄰","STREET":"安中路","SECT":"四段","MAREA":" ","LANE":"２９０巷","ALLEY":"２６３弄","HOUSE_NO":"２９號","E_COORD97":165036.64000000001,"N_COORD97":2550335.4399999999,"ADDRESS":"安中路四段２９０巷２６３弄２９號","OBJECTID":151471},"geometry":{"x":165036.63999999966,"y":2550335.4399999995}},{"attributes":{"ID":151473,"DIS_CODE":0,"TOWNNAME":"安南區","LI":"淵西里","LIN":"3鄰","STREET":"安中路","SECT":"四段","MAREA":" ","LANE":"２９０巷","ALLEY":"２６３弄","HOUSE_NO":"３１號","E_COORD97":165039.94,"N_COORD97":2550337.3300000001,"ADDRESS":"安中路四段２９０巷２６３弄３１號","OBJECTID":151472},"geometry":{"x":165039.94000000041,"y":2550337.3300000001}},{"attributes":{"ID":151474,"DIS_CODE":0,"TOWNNAME":"安南區","LI":"淵西里","LIN":"3鄰","STREET":"安中路","SECT":"四段","MAREA":" ","LANE":"２９０巷","ALLEY":"２６３弄","HOUSE_NO":"３３號","E_COORD97":165043.23999999999,"N_COORD97":2550340.4700000002,"ADDRESS":"安中路四段２９０巷２６３弄３３號","OBJECTID":151473},"geometry":{"x":165043.24000000022,"y":2550340.4700000007}},{"attributes":{"ID":151475,"DIS_CODE":0,"TOWNNAME":"安南區","LI":"淵西里","LIN":"3鄰","STREET":"安中路","SECT":"四段","MAREA":" ","LANE":"２９０巷","ALLEY":"２６３弄","HOUSE_NO":"３５號","E_COORD97":165046.54000000001,"N_COORD97":2550341.8799999999,"ADDRESS":"安中路四段２９０巷２６３弄３５號","OBJECTID":151474},"geometry":{"x":165046.5400000019,"y":2550341.8800000008}},{"attributes":{"ID":151476,"DIS_CODE":0,"TOWNNAME":"安南區","LI":"淵西里","LIN":"3鄰","STREET":"安中路","SECT":"四段","MAREA":" ","LANE":"２９０巷","ALLEY":"２６３弄","HOUSE_NO":"３７號","E_COORD97":165050.47,"N_COORD97":2550343.9199999999,"ADDRESS":"安中路四段２９０巷２６３弄３７號","OBJECTID":151475},"geometry":{"x":165050.47000000067,"y":2550343.9199999999}},{"attributes":{"ID":151477,"DIS_CODE":0,"TOWNNAME":"安南區","LI":"淵西里","LIN":"3鄰","STREET":"安中路","SECT":"四段","MAREA":" ","LANE":"２９０巷","ALLEY":"２６３弄","HOUSE_NO":"２號","E_COORD97":165061.95000000001,"N_COORD97":2550297.4500000002,"ADDRESS":"安中路四段２９０巷２６３弄２號","OBJECTID":151476},"geometry":{"x":165061.95000000019,"y":2550297.4500000011}},{"attributes":{"ID":151478,"DIS_CODE":0,"TOWNNAME":"安南區","LI":"淵西里","LIN":"3鄰","STREET":"安中路","SECT":"四段","MAREA":" ","LANE":"２９０巷","ALLEY":"２６３弄","HOUSE_NO":"４號","E_COORD97":165060.22,"N_COORD97":2550300.5899999999,"ADDRESS":"安中路四段２９０巷２６３弄４號","OBJECTID":151477},"geometry":{"x":165060.2200000016,"y":2550300.5900000017}},{"attributes":{"ID":151479,"DIS_CODE":0,"TOWNNAME":"安南區","LI":"淵西里","LIN":"3鄰","STREET":"安中路","SECT":"四段","MAREA":" ","LANE":"２９０巷","ALLEY":"２６３弄","HOUSE_NO":"６號","E_COORD97":165058.01999999999,"N_COORD97":2550304.6699999999,"ADDRESS":"安中路四段２９０巷２６３弄６號","OBJECTID":151478},"geometry":{"x":165058.02000000142,"y":2550304.6699999999}},{"attributes":{"ID":151480,"DIS_CODE":0,"TOWNNAME":"安南區","LI":"淵西里","LIN":"3鄰","STREET":"安中路","SECT":"四段","MAREA":" ","LANE":"２９０巷","ALLEY":"２６３弄","HOUSE_NO":"８號","E_COORD97":165055.97,"N_COORD97":2550307.9700000002,"ADDRESS":"安中路四段２９０巷２６３弄８號","OBJECTID":151479},"geometry":{"x":165055.96999999974,"y":2550307.9700000025}},{"attributes":{"ID":151481,"DIS_CODE":0,"TOWNNAME":"安南區","LI":"淵西里","LIN":"3鄰","STREET":"安中路","SECT":"四段","MAREA":" ","LANE":"２９０巷","ALLEY":"２６３弄","HOUSE_NO":"１０號","E_COORD97":165053.92999999999,"N_COORD97":2550310.79,"ADDRESS":"安中路四段２９０巷２６３弄１０號","OBJECTID":151480},"geometry":{"x":165053.93000000063,"y":2550310.790000001}},{"attributes":{"ID":151482,"DIS_CODE":0,"TOWNNAME":"安南區","LI":"淵西里","LIN":"3鄰","STREET":"安中路","SECT":"四段","MAREA":" ","LANE":"２９０巷","ALLEY":"２６３弄","HOUSE_NO":"１２號","E_COORD97":165051.88,"N_COORD97":2550314.0899999999,"ADDRESS":"安中路四段２９０巷２６３弄１２號","OBJECTID":151481},"geometry":{"x":165051.87999999989,"y":2550314.0900000017}},{"attributes":{"ID":151483,"DIS_CODE":0,"TOWNNAME":"安南區","LI":"淵西里","LIN":"3鄰","STREET":"安中路","SECT":"四段","MAREA":" ","LANE":"２９０巷","ALLEY":"２６３弄","HOUSE_NO":"１４號","E_COORD97":165049.37,"N_COORD97":2550316.7599999998,"ADDRESS":"安中路四段２９０巷２６３弄１４號","OBJECTID":151482},"geometry":{"x":165049.37000000197,"y":2550316.7599999998}},{"attributes":{"ID":151484,"DIS_CODE":0,"TOWNNAME":"安南區","LI":"淵西里","LIN":"3鄰","STREET":"安中路","SECT":"四段","MAREA":" ","LANE":"２９０巷","ALLEY":"２６３弄","HOUSE_NO":"１６號","E_COORD97":165047.17000000001,"N_COORD97":2550321.1600000001,"ADDRESS":"安中路四段２９０巷２６３弄１６號","OBJECTID":151483},"geometry":{"x":165047.17000000179,"y":2550321.1600000001}},{"attributes":{"ID":151485,"DIS_CODE":0,"TOWNNAME":"安南區","LI":"淵西里","LIN":"3鄰","STREET":"安中路","SECT":"四段","MAREA":" ","LANE":"２９０巷","ALLEY":"２６３弄","HOUSE_NO":"１８號","E_COORD97":165045.75,"N_COORD97":2550324.4500000002,"ADDRESS":"安中路四段２９０巷２６３弄１８號","OBJECTID":151484},"geometry":{"x":165045.75000000093,"y":2550324.4500000011}},{"attributes":{"ID":151486,"DIS_CODE":0,"TOWNNAME":"安南區","LI":"理想里","LIN":"3鄰","STREET":"大安街","SECT":" ","MAREA":" ","LANE":"６８０巷","ALLEY":"１弄","HOUSE_NO":"２號","E_COORD97":167154.12,"N_COORD97":2548971.3700000001,"ADDRESS":"大安街６８０巷１弄２號","OBJECTID":151485},"geometry":{"x":167154.12000000011,"y":2548971.370000001}},{"attributes":{"ID":151487,"DIS_CODE":0,"TOWNNAME":"安南區","LI":"理想里","LIN":"3鄰","STREET":"大安街","SECT":" ","MAREA":" ","LANE":"６８０巷","ALLEY":"１弄","HOUSE_NO":"３號","E_COORD97":167134.38,"N_COORD97":2548959.1099999999,"ADDRESS":"大安街６８０巷１弄３號","OBJECTID":151486},"geometry":{"x":167134.38000000082,"y":2548959.1099999975}},{"attributes":{"ID":151488,"DIS_CODE":0,"TOWNNAME":"東區","LI":"圍下里","LIN":"19鄰","STREET":"慶東街","SECT":" ","MAREA":" ","LANE":" ","ALLEY":" ","HOUSE_NO":"１３５號二樓","E_COORD97":169623.26000000001,"N_COORD97":2543449.5800000001,"ADDRESS":"慶東街１３５號二樓","OBJECTID":151487},"geometry":{"x":169623.25999999885,"y":2543449.5800000001}},{"attributes":{"ID":151489,"DIS_CODE":0,"TOWNNAME":"東區","LI":"圍下里","LIN":"19鄰","STREET":"慶東街","SECT":" ","MAREA":" ","LANE":" ","ALLEY":" ","HOUSE_NO":"１３５號二樓之１","E_COORD97":169623.26000000001,"N_COORD97":2543449.5800000001,"ADDRESS":"慶東街１３５號二樓之１","OBJECTID":151488},"geometry":{"x":169623.25999999885,"y":2543449.5800000001}},{"attributes":{"ID":151490,"DIS_CODE":0,"TOWNNAME":"東區","LI":"圍下里","LIN":"19鄰","STREET":"慶東街","SECT":" ","MAREA":" ","LANE":" ","ALLEY":" ","HOUSE_NO":"１３５號三樓","E_COORD97":169623.26000000001,"N_COORD97":2543449.5800000001,"ADDRESS":"慶東街１３５號三樓","OBJECTID":151489},"geometry":{"x":169623.25999999885,"y":2543449.5800000001}},{"attributes":{"ID":151491,"DIS_CODE":0,"TOWNNAME":"東區","LI":"圍下里","LIN":"19鄰","STREET":"慶東街","SECT":" ","MAREA":" ","LANE":" ","ALLEY":" ","HOUSE_NO":"１３５號三樓之１","E_COORD97":169623.26000000001,"N_COORD97":2543449.5800000001,"ADDRESS":"慶東街１３５號三樓之１","OBJECTID":151490},"geometry":{"x":169623.25999999885,"y":2543449.5800000001}},{"attributes":{"ID":151492,"DIS_CODE":0,"TOWNNAME":"永康區","LI":"復興里","LIN":"27鄰","STREET":"復興路","SECT":" ","MAREA":" ","LANE":"２７７巷","ALLEY":"１６弄","HOUSE_NO":"８號","E_COORD97":172294.95999999999,"N_COORD97":2544229.02,"ADDRESS":"復興路２７７巷１６弄８號","OBJECTID":151491},"geometry":{"x":172294.95999999996,"y":2544229.0199999996}},{"attributes":{"ID":151493,"DIS_CODE":0,"TOWNNAME":"安南區","LI":"新順里","LIN":"3鄰","STREET":"安和路","SECT":"二段","MAREA":" ","LANE":"３１８巷","ALLEY":"３５弄","HOUSE_NO":"３４號","E_COORD97":169847.57999999999,"N_COORD97":2549365.8900000001,"ADDRESS":"安和路二段３１８巷３５弄３４號","OBJECTID":151492},"geometry":{"x":169847.58000000101,"y":2549365.8900000025}},{"attributes":{"ID":151494,"DIS_CODE":0,"TOWNNAME":"安南區","LI":"溪心里","LIN":"3鄰","STREET":"海佃路","SECT":"三段","MAREA":" ","LANE":"４８巷","ALLEY":"４２弄","HOUSE_NO":"７號","E_COORD97":166392.73000000001,"N_COORD97":2549920.3199999998,"ADDRESS":"海佃路三段４８巷４２弄７號","OBJECTID":151493},"geometry":{"x":166392.73000000045,"y":2549920.3200000003}},{"attributes":{"ID":151495,"DIS_CODE":0,"TOWNNAME":"永康區","LI":"尚頂里","LIN":"10鄰","STREET":"正南一街","SECT":" ","MAREA":" ","LANE":"１０７巷","ALLEY":"１８弄","HOUSE_NO":"２號","E_COORD97":170886.89000000001,"N_COORD97":2547194.7400000002,"ADDRESS":"正南一街１０７巷１８弄２號","OBJECTID":151494},"geometry":{"x":170886.88999999873,"y":2547194.7400000002}},{"attributes":{"ID":151496,"DIS_CODE":0,"TOWNNAME":"永康區","LI":"王行里","LIN":"10鄰","STREET":"王行路","SECT":" ","MAREA":" ","LANE":"１０１８巷","ALLEY":"１０弄","HOUSE_NO":"６號","E_COORD97":175877.14999999999,"N_COORD97":2550152,"ADDRESS":"王行路１０１８巷１０弄６號","OBJECTID":151495},"geometry":{"x":175877.1500000013,"y":2550152.0000000019}},{"attributes":{"ID":151497,"DIS_CODE":0,"TOWNNAME":"永康區","LI":"龍潭里","LIN":"3鄰","STREET":"龍國街","SECT":" ","MAREA":" ","LANE":"３０９巷","ALLEY":"３弄","HOUSE_NO":"８號","E_COORD97":174678.89999999999,"N_COORD97":2548075.9399999999,"ADDRESS":"龍國街３０９巷３弄８號","OBJECTID":151496},"geometry":{"x":174678.9000000013,"y":2548075.9400000013}},{"attributes":{"ID":151498,"DIS_CODE":0,"TOWNNAME":"永康區","LI":"中華里","LIN":"3鄰","STREET":"小東路","SECT":" ","MAREA":" ","LANE":"６４７巷","ALLEY":"１０弄","HOUSE_NO":"２０號","E_COORD97":172007.01000000001,"N_COORD97":2544375.3100000001,"ADDRESS":"小東路６４７巷１０弄２０號","OBJECTID":151497},"geometry":{"x":172007.01000000071,"y":2544375.3100000042}},{"attributes":{"ID":151499,"DIS_CODE":0,"TOWNNAME":"東區","LI":"圍下里","LIN":"19鄰","STREET":"慶東街","SECT":" ","MAREA":" ","LANE":" ","ALLEY":" ","HOUSE_NO":"１３５號四樓","E_COORD97":169623.26000000001,"N_COORD97":2543449.5800000001,"ADDRESS":"慶東街１３５號四樓","OBJECTID":151498},"geometry":{"x":169623.25999999885,"y":2543449.5800000001}},{"attributes":{"ID":151500,"DIS_CODE":0,"TOWNNAME":"安定區","LI":"安加里","LIN":"5鄰","STREET":" ","SECT":" ","MAREA":"安定","LANE":" ","ALLEY":" ","HOUSE_NO":"２０９號","E_COORD97":171803.42000000001,"N_COORD97":2557635.3199999998,"ADDRESS":"安定２０９號","OBJECTID":151499},"geometry":{"x":171803.41999999993,"y":2557635.3200000022}},{"attributes":{"ID":151501,"DIS_CODE":0,"TOWNNAME":"安定區","LI":"南安里","LIN":"5鄰","STREET":" ","SECT":" ","MAREA":"油車","LANE":" ","ALLEY":" ","HOUSE_NO":"５３號之２","E_COORD97":170541.23999999999,"N_COORD97":2555705.2999999998,"ADDRESS":"油車５３之２號","OBJECTID":151500},"geometry":{"x":170541.24000000115,"y":2555705.3000000007}},{"attributes":{"ID":151502,"DIS_CODE":0,"TOWNNAME":"新市區","LI":"永就里","LIN":"5鄰","STREET":" ","SECT":" ","MAREA":"永就","LANE":" ","ALLEY":" ","HOUSE_NO":"５２之１號","E_COORD97":178316.17000000001,"N_COORD97":2551378.5499999998,"ADDRESS":"永就５２之１號","OBJECTID":151501},"geometry":{"x":178316.17000000086,"y":2551378.5500000045}},{"attributes":{"ID":151503,"DIS_CODE":0,"TOWNNAME":"白河區","LI":"虎山里","LIN":"5鄰","STREET":" ","SECT":" ","MAREA":"木屐寮","LANE":" ","ALLEY":" ","HOUSE_NO":"７３號","E_COORD97":195196.12,"N_COORD97":2583424.4900000002,"ADDRESS":"木屐寮７３號","OBJECTID":151502},"geometry":{"x":195196.12000000011,"y":2583424.4900000021}},{"attributes":{"ID":151504,"DIS_CODE":0,"TOWNNAME":"白河區","LI":"仙草里","LIN":"5鄰","STREET":" ","SECT":" ","MAREA":"仙草","LANE":" ","ALLEY":" ","HOUSE_NO":"４７之１１號","E_COORD97":196280.76999999999,"N_COORD97":2582292.1200000001,"ADDRESS":"仙草４７之１１號","OBJECTID":151503},"geometry":{"x":196280.77000000048,"y":2582292.1200000029}},{"attributes":{"ID":151505,"DIS_CODE":0,"TOWNNAME":"白河區","LI":"仙草里","LIN":"5鄰","STREET":" ","SECT":" ","MAREA":"仙草","LANE":" ","ALLEY":" ","HOUSE_NO":"４７之１號","E_COORD97":196292.67999999999,"N_COORD97":2582354.1899999999,"ADDRESS":"仙草４７之１號","OBJECTID":151504},"geometry":{"x":196292.68000000156,"y":2582354.1900000032}},{"attributes":{"ID":151506,"DIS_CODE":0,"TOWNNAME":"白河區","LI":"仙草里","LIN":"5鄰","STREET":" ","SECT":" ","MAREA":"仙草","LANE":" ","ALLEY":" ","HOUSE_NO":"４７之４號","E_COORD97":196289.89999999999,"N_COORD97":2582343.3500000001,"ADDRESS":"仙草４７之４號","OBJECTID":151505},"geometry":{"x":196289.90000000037,"y":2582343.3500000015}},{"attributes":{"ID":151507,"DIS_CODE":0,"TOWNNAME":"白河區","LI":"仙草里","LIN":"5鄰","STREET":" ","SECT":" ","MAREA":"仙草","LANE":" ","ALLEY":" ","HOUSE_NO":"４７之５號","E_COORD97":196292.10000000001,"N_COORD97":2582279.1800000002,"ADDRESS":"仙草４７之５號","OBJECTID":151506},"geometry":{"x":196292.10000000056,"y":2582279.1799999997}},{"attributes":{"ID":151508,"DIS_CODE":0,"TOWNNAME":"白河區","LI":"仙草里","LIN":"5鄰","STREET":" ","SECT":" ","MAREA":"仙草","LANE":" ","ALLEY":" ","HOUSE_NO":"４７之６號","E_COORD97":196327.26999999999,"N_COORD97":2582273.73,"ADDRESS":"仙草４７之６號","OBJECTID":151507},"geometry":{"x":196327.26999999955,"y":2582273.7300000023}},{"attributes":{"ID":151509,"DIS_CODE":0,"TOWNNAME":"白河區","LI":"仙草里","LIN":"5鄰","STREET":" ","SECT":" ","MAREA":"仙草","LANE":" ","ALLEY":" ","HOUSE_NO":"４７之７號","E_COORD97":196279.85000000001,"N_COORD97":2582256.9500000002,"ADDRESS":"仙草４７之７號","OBJECTID":151508},"geometry":{"x":196279.85000000056,"y":2582256.9499999974}},{"attributes":{"ID":151510,"DIS_CODE":0,"TOWNNAME":"白河區","LI":"仙草里","LIN":"5鄰","STREET":" ","SECT":" ","MAREA":"仙草","LANE":" ","ALLEY":" ","HOUSE_NO":"４７之８號","E_COORD97":196298.38,"N_COORD97":2582254.46,"ADDRESS":"仙草４７之８號","OBJECTID":151509},"geometry":{"x":196298.38000000082,"y":2582254.4600000009}},{"attributes":{"ID":151511,"DIS_CODE":0,"TOWNNAME":"白河區","LI":"仙草里","LIN":"5鄰","STREET":" ","SECT":" ","MAREA":"仙草","LANE":" ","ALLEY":" ","HOUSE_NO":"４７之９號","E_COORD97":196285.23999999999,"N_COORD97":2582264.8100000001,"ADDRESS":"仙草４７之９號","OBJECTID":151510},"geometry":{"x":196285.24000000022,"y":2582264.8100000005}},{"attributes":{"ID":151512,"DIS_CODE":0,"TOWNNAME":"白河區","LI":"仙草里","LIN":"5鄰","STREET":" ","SECT":" ","MAREA":"仙草","LANE":" ","ALLEY":" ","HOUSE_NO":"４７號","E_COORD97":196299.64000000001,"N_COORD97":2582378.04,"ADDRESS":"仙草４７號","OBJECTID":151511},"geometry":{"x":196299.64000000153,"y":2582378.0399999991}},{"attributes":{"ID":151513,"DIS_CODE":0,"TOWNNAME":"白河區","LI":"仙草里","LIN":"5鄰","STREET":" ","SECT":" ","MAREA":"仙草","LANE":" ","ALLEY":" ","HOUSE_NO":"４８號","E_COORD97":196297.79999999999,"N_COORD97":2582390.21,"ADDRESS":"仙草４８號","OBJECTID":151512},"geometry":{"x":196297.80000000075,"y":2582390.2100000028}},{"attributes":{"ID":151514,"DIS_CODE":0,"TOWNNAME":"白河區","LI":"仙草里","LIN":"5鄰","STREET":" ","SECT":" ","MAREA":"仙草","LANE":" ","ALLEY":" ","HOUSE_NO":"４９號","E_COORD97":196319.34,"N_COORD97":2582389.25,"ADDRESS":"仙草４９號","OBJECTID":151513},"geometry":{"x":196319.34000000078,"y":2582389.2500000019}},{"attributes":{"ID":151515,"DIS_CODE":0,"TOWNNAME":"白河區","LI":"仙草里","LIN":"5鄰","STREET":" ","SECT":" ","MAREA":"仙草","LANE":" ","ALLEY":" ","HOUSE_NO":"５０之１號","E_COORD97":196340.62,"N_COORD97":2582366.9500000002,"ADDRESS":"仙草５０之１號","OBJECTID":151514},"geometry":{"x":196340.62000000011,"y":2582366.9500000011}},{"attributes":{"ID":151516,"DIS_CODE":0,"TOWNNAME":"白河區","LI":"仙草里","LIN":"5鄰","STREET":" ","SECT":" ","MAREA":"仙草","LANE":" ","ALLEY":" ","HOUSE_NO":"５０號","E_COORD97":196346.79999999999,"N_COORD97":2582383.7599999998,"ADDRESS":"仙草５０號","OBJECTID":151515},"geometry":{"x":196346.80000000075,"y":2582383.7599999998}},{"attributes":{"ID":151517,"DIS_CODE":0,"TOWNNAME":"白河區","LI":"仙草里","LIN":"5鄰","STREET":" ","SECT":" ","MAREA":"仙草","LANE":" ","ALLEY":" ","HOUSE_NO":"５１號","E_COORD97":196333.95000000001,"N_COORD97":2582399.96,"ADDRESS":"仙草５１號","OBJECTID":151516},"geometry":{"x":196333.95000000112,"y":2582399.9600000009}},{"attributes":{"ID":151518,"DIS_CODE":0,"TOWNNAME":"白河區","LI":"仙草里","LIN":"5鄰","STREET":" ","SECT":" ","MAREA":"仙草","LANE":" ","ALLEY":" ","HOUSE_NO":"５２號","E_COORD97":196346.82999999999,"N_COORD97":2582415.21,"ADDRESS":"仙草５２號","OBJECTID":151517},"geometry":{"x":196346.83000000101,"y":2582415.2100000009}},{"attributes":{"ID":151519,"DIS_CODE":0,"TOWNNAME":"白河區","LI":"仙草里","LIN":"5鄰","STREET":" ","SECT":" ","MAREA":"仙草","LANE":" ","ALLEY":" ","HOUSE_NO":"５３號","E_COORD97":196328.95000000001,"N_COORD97":2582424.0299999998,"ADDRESS":"仙草５３號","OBJECTID":151518},"geometry":{"x":196328.95000000112,"y":2582424.0300000012}},{"attributes":{"ID":151520,"DIS_CODE":0,"TOWNNAME":"白河區","LI":"仙草里","LIN":"5鄰","STREET":" ","SECT":" ","MAREA":"仙草","LANE":" ","ALLEY":" ","HOUSE_NO":"５４號","E_COORD97":196300.42000000001,"N_COORD97":2582420.1200000001,"ADDRESS":"仙草５４號","OBJECTID":151519},"geometry":{"x":196300.42000000086,"y":2582420.120000001}},{"attributes":{"ID":151521,"DIS_CODE":0,"TOWNNAME":"白河區","LI":"仙草里","LIN":"5鄰","STREET":" ","SECT":" ","MAREA":"仙草","LANE":" ","ALLEY":" ","HOUSE_NO":"５５號","E_COORD97":196301.16,"N_COORD97":2582430.6699999999,"ADDRESS":"仙草５５號","OBJECTID":151520},"geometry":{"x":196301.16000000015,"y":2582430.6700000018}},{"attributes":{"ID":151522,"DIS_CODE":0,"TOWNNAME":"白河區","LI":"外角里","LIN":"5鄰","STREET":" ","SECT":" ","MAREA":"外角","LANE":" ","ALLEY":" ","HOUSE_NO":"４６號","E_COORD97":190476.60000000001,"N_COORD97":2583168.3500000001,"ADDRESS":"外角４６號","OBJECTID":151521},"geometry":{"x":190476.59999999963,"y":2583168.3500000015}},{"attributes":{"ID":151523,"DIS_CODE":0,"TOWNNAME":"白河區","LI":"外角里","LIN":"5鄰","STREET":" ","SECT":" ","MAREA":"外角","LANE":" ","ALLEY":" ","HOUSE_NO":"４７號","E_COORD97":190468.60999999999,"N_COORD97":2583182.48,"ADDRESS":"外角４７號","OBJECTID":151522},"geometry":{"x":190468.61000000034,"y":2583182.4800000004}},{"attributes":{"ID":151524,"DIS_CODE":0,"TOWNNAME":"白河區","LI":"外角里","LIN":"5鄰","STREET":" ","SECT":" ","MAREA":"外角","LANE":" ","ALLEY":" ","HOUSE_NO":"５０號","E_COORD97":190453.51000000001,"N_COORD97":2583200.2799999998,"ADDRESS":"外角５０號","OBJECTID":151523},"geometry":{"x":190453.50999999978,"y":2583200.2799999993}},{"attributes":{"ID":151525,"DIS_CODE":0,"TOWNNAME":"白河區","LI":"外角里","LIN":"5鄰","STREET":" ","SECT":" ","MAREA":"外角","LANE":" ","ALLEY":" ","HOUSE_NO":"５３之１號","E_COORD97":190454.25,"N_COORD97":2583211.98,"ADDRESS":"外角５３之１號","OBJECTID":151524},"geometry":{"x":190454.25000000186,"y":2583211.9800000023}},{"attributes":{"ID":151526,"DIS_CODE":0,"TOWNNAME":"白河區","LI":"外角里","LIN":"5鄰","STREET":" ","SECT":" ","MAREA":"外角","LANE":" ","ALLEY":" ","HOUSE_NO":"５６號","E_COORD97":190479.39000000001,"N_COORD97":2583218.5600000001,"ADDRESS":"外角５６號","OBJECTID":151525},"geometry":{"x":190479.38999999966,"y":2583218.5600000024}},{"attributes":{"ID":151527,"DIS_CODE":0,"TOWNNAME":"白河區","LI":"甘宅里","LIN":"5鄰","STREET":" ","SECT":" ","MAREA":"甘宅","LANE":" ","ALLEY":" ","HOUSE_NO":"４６之１號","E_COORD97":192558.17999999999,"N_COORD97":2586750.7200000002,"ADDRESS":"甘宅４６之１號","OBJECTID":151526},"geometry":{"x":192558.18000000156,"y":2586750.7200000007}},{"attributes":{"ID":151528,"DIS_CODE":0,"TOWNNAME":"白河區","LI":"甘宅里","LIN":"5鄰","STREET":" ","SECT":" ","MAREA":"甘宅","LANE":" ","ALLEY":" ","HOUSE_NO":"４６之２號","E_COORD97":192610.60000000001,"N_COORD97":2586780.7000000002,"ADDRESS":"甘宅４６之２號","OBJECTID":151527},"geometry":{"x":192610.59999999963,"y":2586780.6999999993}},{"attributes":{"ID":151529,"DIS_CODE":0,"TOWNNAME":"白河區","LI":"甘宅里","LIN":"5鄰","STREET":" ","SECT":" ","MAREA":"甘宅","LANE":" ","ALLEY":" ","HOUSE_NO":"４６號","E_COORD97":192618.72,"N_COORD97":2586784.0099999998,"ADDRESS":"甘宅４６號","OBJECTID":151528},"geometry":{"x":192618.71999999974,"y":2586784.0100000016}},{"attributes":{"ID":151530,"DIS_CODE":0,"TOWNNAME":"白河區","LI":"甘宅里","LIN":"5鄰","STREET":" ","SECT":" ","MAREA":"甘宅","LANE":" ","ALLEY":" ","HOUSE_NO":"４７號","E_COORD97":192570.78,"N_COORD97":2586772.3700000001,"ADDRESS":"甘宅４７號","OBJECTID":151529},"geometry":{"x":192570.78000000026,"y":2586772.3700000048}},{"attributes":{"ID":151531,"DIS_CODE":0,"TOWNNAME":"白河區","LI":"甘宅里","LIN":"5鄰","STREET":" ","SECT":" ","MAREA":"甘宅","LANE":" ","ALLEY":" ","HOUSE_NO":"４９號","E_COORD97":192558.60999999999,"N_COORD97":2586778.6699999999,"ADDRESS":"甘宅４９號","OBJECTID":151530},"geometry":{"x":192558.61000000034,"y":2586778.6699999999}},{"attributes":{"ID":151532,"DIS_CODE":0,"TOWNNAME":"白河區","LI":"甘宅里","LIN":"5鄰","STREET":" ","SECT":" ","MAREA":"甘宅","LANE":" ","ALLEY":" ","HOUSE_NO":"５０號","E_COORD97":192542.37,"N_COORD97":2586779.8599999999,"ADDRESS":"甘宅５０號","OBJECTID":151531},"geometry":{"x":192542.37000000104,"y":2586779.8599999994}},{"attributes":{"ID":151533,"DIS_CODE":0,"TOWNNAME":"白河區","LI":"甘宅里","LIN":"5鄰","STREET":" ","SECT":" ","MAREA":"甘宅","LANE":" ","ALLEY":" ","HOUSE_NO":"５１號","E_COORD97":192525.45000000001,"N_COORD97":2586802.96,"ADDRESS":"甘宅５１號","OBJECTID":151532},"geometry":{"x":192525.45000000019,"y":2586802.9600000028}},{"attributes":{"ID":151534,"DIS_CODE":0,"TOWNNAME":"白河區","LI":"甘宅里","LIN":"5鄰","STREET":" ","SECT":" ","MAREA":"甘宅","LANE":" ","ALLEY":" ","HOUSE_NO":"５３之１號","E_COORD97":192510.06,"N_COORD97":2586825.3500000001,"ADDRESS":"甘宅５３之１號","OBJECTID":151533},"geometry":{"x":192510.06000000052,"y":2586825.3500000015}},{"attributes":{"ID":151535,"DIS_CODE":0,"TOWNNAME":"白河區","LI":"甘宅里","LIN":"5鄰","STREET":" ","SECT":" ","MAREA":"甘宅","LANE":" ","ALLEY":" ","HOUSE_NO":"５３之２號","E_COORD97":192472.88,"N_COORD97":2586791.6099999999,"ADDRESS":"甘宅５３之２號","OBJECTID":151534},"geometry":{"x":192472.88000000082,"y":2586791.6099999994}},{"attributes":{"ID":151536,"DIS_CODE":0,"TOWNNAME":"白河區","LI":"甘宅里","LIN":"5鄰","STREET":" ","SECT":" ","MAREA":"甘宅","LANE":" ","ALLEY":" ","HOUSE_NO":"５３之３號","E_COORD97":192496.69,"N_COORD97":2586782.9399999999,"ADDRESS":"甘宅５３之３號","OBJECTID":151535},"geometry":{"x":192496.69000000134,"y":2586782.9399999995}},{"attributes":{"ID":151537,"DIS_CODE":0,"TOWNNAME":"白河區","LI":"甘宅里","LIN":"5鄰","STREET":" ","SECT":" ","MAREA":"甘宅","LANE":" ","ALLEY":" ","HOUSE_NO":"５３號","E_COORD97":192507.14999999999,"N_COORD97":2586801.6200000001,"ADDRESS":"甘宅５３號","OBJECTID":151536},"geometry":{"x":192507.1500000013,"y":2586801.6200000029}},{"attributes":{"ID":151538,"DIS_CODE":0,"TOWNNAME":"白河區","LI":"甘宅里","LIN":"5鄰","STREET":" ","SECT":" ","MAREA":"甘宅","LANE":" ","ALLEY":" ","HOUSE_NO":"５４之１０號","E_COORD97":192396.26000000001,"N_COORD97":2586825.8799999999,"ADDRESS":"甘宅５４之１０號","OBJECTID":151537},"geometry":{"x":192396.25999999978,"y":2586825.879999999}},{"attributes":{"ID":151539,"DIS_CODE":0,"TOWNNAME":"白河區","LI":"甘宅里","LIN":"5鄰","STREET":" ","SECT":" ","MAREA":"甘宅","LANE":" ","ALLEY":" ","HOUSE_NO":"５４之１號","E_COORD97":192452.60999999999,"N_COORD97":2586828.8500000001,"ADDRESS":"甘宅５４之１號","OBJECTID":151538},"geometry":{"x":192452.61000000127,"y":2586828.8500000015}},{"attributes":{"ID":151540,"DIS_CODE":0,"TOWNNAME":"白河區","LI":"甘宅里","LIN":"5鄰","STREET":" ","SECT":" ","MAREA":"甘宅","LANE":" ","ALLEY":" ","HOUSE_NO":"５４之２號","E_COORD97":192451.28,"N_COORD97":2586807.6600000001,"ADDRESS":"甘宅５４之２號","OBJECTID":151539},"geometry":{"x":192451.28000000212,"y":2586807.660000002}},{"attributes":{"ID":151541,"DIS_CODE":0,"TOWNNAME":"白河區","LI":"甘宅里","LIN":"5鄰","STREET":" ","SECT":" ","MAREA":"甘宅","LANE":" ","ALLEY":" ","HOUSE_NO":"５４之６號","E_COORD97":192382.84,"N_COORD97":2586843.46,"ADDRESS":"甘宅５４之６號","OBJECTID":151540},"geometry":{"x":192382.84000000078,"y":2586843.4600000028}},{"attributes":{"ID":151542,"DIS_CODE":0,"TOWNNAME":"白河區","LI":"甘宅里","LIN":"5鄰","STREET":" ","SECT":" ","MAREA":"甘宅","LANE":" ","ALLEY":" ","HOUSE_NO":"５４之９號","E_COORD97":192400.85999999999,"N_COORD97":2586825.3399999999,"ADDRESS":"甘宅５４之９號","OBJECTID":151541},"geometry":{"x":192400.86000000034,"y":2586825.3400000036}},{"attributes":{"ID":151543,"DIS_CODE":0,"TOWNNAME":"白河區","LI":"甘宅里","LIN":"5鄰","STREET":" ","SECT":" ","MAREA":"甘宅","LANE":" ","ALLEY":" ","HOUSE_NO":"５５之１號","E_COORD97":192478.89999999999,"N_COORD97":2586860.52,"ADDRESS":"甘宅５５之１號","OBJECTID":151542},"geometry":{"x":192478.90000000037,"y":2586860.5199999996}},{"attributes":{"ID":151544,"DIS_CODE":0,"TOWNNAME":"白河區","LI":"甘宅里","LIN":"5鄰","STREET":" ","SECT":" ","MAREA":"甘宅","LANE":" ","ALLEY":" ","HOUSE_NO":"５５之３號","E_COORD97":192448.29000000001,"N_COORD97":2586844.48,"ADDRESS":"甘宅５５之３號","OBJECTID":151543},"geometry":{"x":192448.29000000097,"y":2586844.4800000004}},{"attributes":{"ID":151545,"DIS_CODE":0,"TOWNNAME":"官田區","LI":"渡頭里","LIN":"5鄰","STREET":" ","SECT":" ","MAREA":"渡子頭","LANE":" ","ALLEY":" ","HOUSE_NO":"３７號之１","E_COORD97":181300.79999999999,"N_COORD97":2562996.6400000001,"ADDRESS":"渡子頭３７號之１","OBJECTID":151544},"geometry":{"x":181300.79999999981,"y":2562996.6400000043}},{"attributes":{"ID":151546,"DIS_CODE":0,"TOWNNAME":"官田區","LI":"渡頭里","LIN":"5鄰","STREET":" ","SECT":" ","MAREA":"渡子頭","LANE":" ","ALLEY":" ","HOUSE_NO":"３７號","E_COORD97":181298.48000000001,"N_COORD97":2562980.8900000001,"ADDRESS":"渡子頭３７號","OBJECTID":151545},"geometry":{"x":181298.48000000045,"y":2562980.8900000006}},{"attributes":{"ID":151547,"DIS_CODE":0,"TOWNNAME":"官田區","LI":"渡頭里","LIN":"5鄰","STREET":" ","SECT":" ","MAREA":"渡子頭","LANE":" ","ALLEY":" ","HOUSE_NO":"３８號之３","E_COORD97":181343.23000000001,"N_COORD97":2562960.2799999998,"ADDRESS":"渡子頭３８號之３","OBJECTID":151546},"geometry":{"x":181343.23000000231,"y":2562960.2800000031}},{"attributes":{"ID":151548,"DIS_CODE":0,"TOWNNAME":"官田區","LI":"渡頭里","LIN":"5鄰","STREET":" ","SECT":" ","MAREA":"渡子頭","LANE":" ","ALLEY":" ","HOUSE_NO":"３８號之４","E_COORD97":181338.44,"N_COORD97":2562960.3300000001,"ADDRESS":"渡子頭３８號之４","OBJECTID":151547},"geometry":{"x":181338.44000000134,"y":2562960.3300000001}},{"attributes":{"ID":151549,"DIS_CODE":0,"TOWNNAME":"官田區","LI":"渡頭里","LIN":"5鄰","STREET":" ","SECT":" ","MAREA":"渡子頭","LANE":" ","ALLEY":" ","HOUSE_NO":"３８號之６","E_COORD97":181333.70999999999,"N_COORD97":2562960.4399999999,"ADDRESS":"渡子頭３８號之６","OBJECTID":151548},"geometry":{"x":181333.70999999996,"y":2562960.4400000013}},{"attributes":{"ID":151550,"DIS_CODE":0,"TOWNNAME":"官田區","LI":"渡頭里","LIN":"5鄰","STREET":" ","SECT":" ","MAREA":"渡子頭","LANE":" ","ALLEY":" ","HOUSE_NO":"３８號之８","E_COORD97":181322.29999999999,"N_COORD97":2562961.75,"ADDRESS":"渡子頭３８號之８","OBJECTID":151549},"geometry":{"x":181322.30000000075,"y":2562961.7500000019}},{"attributes":{"ID":151551,"DIS_CODE":0,"TOWNNAME":"官田區","LI":"渡頭里","LIN":"5鄰","STREET":" ","SECT":" ","MAREA":"渡子頭","LANE":" ","ALLEY":" ","HOUSE_NO":"３８號","E_COORD97":181358.07999999999,"N_COORD97":2562955.4399999999,"ADDRESS":"渡子頭３８號","OBJECTID":151550},"geometry":{"x":181358.08000000101,"y":2562955.4399999995}},{"attributes":{"ID":151552,"DIS_CODE":0,"TOWNNAME":"官田區","LI":"渡頭里","LIN":"5鄰","STREET":" ","SECT":" ","MAREA":"渡子頭","LANE":" ","ALLEY":" ","HOUSE_NO":"３９號之１","E_COORD97":181322.19,"N_COORD97":2562927.7200000002,"ADDRESS":"渡子頭３９號之１","OBJECTID":151551},"geometry":{"x":181322.19000000134,"y":2562927.7200000007}},{"attributes":{"ID":151553,"DIS_CODE":0,"TOWNNAME":"官田區","LI":"渡頭里","LIN":"5鄰","STREET":" ","SECT":" ","MAREA":"渡子頭","LANE":" ","ALLEY":" ","HOUSE_NO":"４０號之１","E_COORD97":181319.31,"N_COORD97":2562940.0699999998,"ADDRESS":"渡子頭４０號之１","OBJECTID":151552},"geometry":{"x":181319.30999999959,"y":2562940.0700000022}},{"attributes":{"ID":151554,"DIS_CODE":0,"TOWNNAME":"官田區","LI":"渡頭里","LIN":"5鄰","STREET":" ","SECT":" ","MAREA":"渡子頭","LANE":" ","ALLEY":" ","HOUSE_NO":"４０號之２","E_COORD97":181306.87,"N_COORD97":2562960.8799999999,"ADDRESS":"渡子頭４０號之２","OBJECTID":151553},"geometry":{"x":181306.87000000104,"y":2562960.8800000008}},{"attributes":{"ID":151555,"DIS_CODE":0,"TOWNNAME":"官田區","LI":"渡頭里","LIN":"5鄰","STREET":" ","SECT":" ","MAREA":"渡子頭","LANE":" ","ALLEY":" ","HOUSE_NO":"４０號","E_COORD97":181289.22,"N_COORD97":2562948.9100000001,"ADDRESS":"渡子頭４０號","OBJECTID":151554},"geometry":{"x":181289.21999999974,"y":2562948.9100000001}},{"attributes":{"ID":151556,"DIS_CODE":0,"TOWNNAME":"官田區","LI":"渡頭里","LIN":"5鄰","STREET":" ","SECT":" ","MAREA":"渡子頭","LANE":" ","ALLEY":" ","HOUSE_NO":"４１號之３","E_COORD97":181313.10000000001,"N_COORD97":2562914.9900000002,"ADDRESS":"渡子頭４１號之３","OBJECTID":151555},"geometry":{"x":181313.10000000056,"y":2562914.9900000002}},{"attributes":{"ID":151557,"DIS_CODE":0,"TOWNNAME":"官田區","LI":"渡頭里","LIN":"5鄰","STREET":" ","SECT":" ","MAREA":"渡子頭","LANE":" ","ALLEY":" ","HOUSE_NO":"４１號","E_COORD97":181303.31,"N_COORD97":2562936.71,"ADDRESS":"渡子頭４１號","OBJECTID":151556},"geometry":{"x":181303.31000000052,"y":2562936.7100000028}},{"attributes":{"ID":151558,"DIS_CODE":0,"TOWNNAME":"官田區","LI":"渡頭里","LIN":"5鄰","STREET":" ","SECT":" ","MAREA":"渡子頭","LANE":" ","ALLEY":" ","HOUSE_NO":"４２號之５","E_COORD97":181287.39000000001,"N_COORD97":2562891.2200000002,"ADDRESS":"渡子頭４２號之５","OBJECTID":151557},"geometry":{"x":181287.3900000006,"y":2562891.2200000025}},{"attributes":{"ID":151559,"DIS_CODE":0,"TOWNNAME":"官田區","LI":"渡頭里","LIN":"5鄰","STREET":" ","SECT":" ","MAREA":"渡子頭","LANE":" ","ALLEY":" ","HOUSE_NO":"４２號","E_COORD97":181293.54999999999,"N_COORD97":2562913.6000000001,"ADDRESS":"渡子頭４２號","OBJECTID":151558},"geometry":{"x":181293.55000000075,"y":2562913.5999999996}},{"attributes":{"ID":151560,"DIS_CODE":0,"TOWNNAME":"官田區","LI":"嘉南里","LIN":"5鄰","STREET":" ","SECT":" ","MAREA":"嘉南","LANE":" ","ALLEY":" ","HOUSE_NO":"５４號之１","E_COORD97":184897.66,"N_COORD97":2568197.0299999998,"ADDRESS":"嘉南５４號之１","OBJECTID":151559},"geometry":{"x":184897.66000000015,"y":2568197.0300000012}},{"attributes":{"ID":151561,"DIS_CODE":0,"TOWNNAME":"官田區","LI":"嘉南里","LIN":"5鄰","STREET":" ","SECT":" ","MAREA":"嘉南","LANE":" ","ALLEY":" ","HOUSE_NO":"５４號之２","E_COORD97":184899.39999999999,"N_COORD97":2568211.0499999998,"ADDRESS":"嘉南５４號之２","OBJECTID":151560},"geometry":{"x":184899.40000000037,"y":2568211.0500000007}},{"attributes":{"ID":151562,"DIS_CODE":0,"TOWNNAME":"官田區","LI":"嘉南里","LIN":"5鄰","STREET":" ","SECT":" ","MAREA":"嘉南","LANE":" ","ALLEY":" ","HOUSE_NO":"５４號","E_COORD97":184899.54999999999,"N_COORD97":2568188.04,"ADDRESS":"嘉南５４號","OBJECTID":151561},"geometry":{"x":184899.54999999981,"y":2568188.0399999991}},{"attributes":{"ID":151563,"DIS_CODE":0,"TOWNNAME":"關廟區","LI":"關廟里","LIN":"9鄰","STREET":"民生街","SECT":" ","MAREA":" ","LANE":" ","ALLEY":" ","HOUSE_NO":"６７號","E_COORD97":180915.46070600001,"N_COORD97":2539624.4971400001,"ADDRESS":"民生街６７號","OBJECTID":151562},"geometry":{"x":180915.46070600115,"y":2539624.4971440025}},{"attributes":{"ID":151564,"DIS_CODE":0,"TOWNNAME":"官田區","LI":"嘉南里","LIN":"5鄰","STREET":" ","SECT":" ","MAREA":"嘉南","LANE":" ","ALLEY":" ","HOUSE_NO":"５７號","E_COORD97":184894.98999999999,"N_COORD97":2568220.9100000001,"ADDRESS":"嘉南５７號","OBJECTID":151563},"geometry":{"x":184894.99000000115,"y":2568220.9100000001}},{"attributes":{"ID":151565,"DIS_CODE":0,"TOWNNAME":"安定區","LI":"中榮里","LIN":"5鄰","STREET":" ","SECT":" ","MAREA":"許中營","LANE":" ","ALLEY":" ","HOUSE_NO":"５１號","E_COORD97":172327.44,"N_COORD97":2554994.25,"ADDRESS":"許中營５１號","OBJECTID":151564},"geometry":{"x":172327.44000000134,"y":2554994.2500000019}},{"attributes":{"ID":151566,"DIS_CODE":0,"TOWNNAME":"安定區","LI":"安定里","LIN":"5鄰","STREET":" ","SECT":" ","MAREA":"安定","LANE":" ","ALLEY":" ","HOUSE_NO":"２８之５號","E_COORD97":172013.63396000001,"N_COORD97":2557989.61173,"ADDRESS":"安定２８號之５","OBJECTID":151565},"geometry":{"x":172013.63396000024,"y":2557989.6117300019}},{"attributes":{"ID":151567,"DIS_CODE":0,"TOWNNAME":"安定區","LI":"中沙里","LIN":"5鄰","STREET":" ","SECT":" ","MAREA":"沙崙","LANE":" ","ALLEY":" ","HOUSE_NO":"１之５號","E_COORD97":168702.82000000001,"N_COORD97":2552372.2999999998,"ADDRESS":"沙崙１之５號","OBJECTID":151566},"geometry":{"x":168702.8200000003,"y":2552372.3000000007}},{"attributes":{"ID":151568,"DIS_CODE":0,"TOWNNAME":"安定區","LI":"南安里","LIN":"5鄰","STREET":" ","SECT":" ","MAREA":"油車","LANE":" ","ALLEY":" ","HOUSE_NO":"５３之５號","E_COORD97":170554.94,"N_COORD97":2555725.2999999998,"ADDRESS":"油車５３之５號","OBJECTID":151567},"geometry":{"x":170554.94000000041,"y":2555725.3000000007}},{"attributes":{"ID":151569,"DIS_CODE":0,"TOWNNAME":"新市區","LI":"潭頂里","LIN":"5鄰","STREET":" ","SECT":" ","MAREA":"潭頂","LANE":" ","ALLEY":" ","HOUSE_NO":"２２４號","E_COORD97":180734.48000000001,"N_COORD97":2553018,"ADDRESS":"潭頂２２４號","OBJECTID":151568},"geometry":{"x":180734.47999999952,"y":2553018}},{"attributes":{"ID":151570,"DIS_CODE":0,"TOWNNAME":"新市區","LI":"潭頂里","LIN":"5鄰","STREET":" ","SECT":" ","MAREA":"潭頂","LANE":" ","ALLEY":" ","HOUSE_NO":"２１３之１號","E_COORD97":180850.67000000001,"N_COORD97":2552981.29,"ADDRESS":"潭頂２１３之１號","OBJECTID":151569},"geometry":{"x":180850.66999999993,"y":2552981.2899999991}},{"attributes":{"ID":151571,"DIS_CODE":0,"TOWNNAME":"新市區","LI":"豐華里","LIN":"5鄰","STREET":" ","SECT":" ","MAREA":"豐華","LANE":" ","ALLEY":" ","HOUSE_NO":"３９之９號","E_COORD97":173598.17999999999,"N_COORD97":2554594.5499999998,"ADDRESS":"豐華３９之９號","OBJECTID":151570},"geometry":{"x":173598.18000000063,"y":2554594.5500000007}},{"attributes":{"ID":151572,"DIS_CODE":0,"TOWNNAME":"新市區","LI":"潭頂里","LIN":"5鄰","STREET":" ","SECT":" ","MAREA":"潭頂","LANE":" ","ALLEY":" ","HOUSE_NO":"２３１號","E_COORD97":180728.56,"N_COORD97":2553100.5,"ADDRESS":"潭頂２３１號","OBJECTID":151571},"geometry":{"x":180728.56000000052,"y":2553100.5000000037}},{"attributes":{"ID":151573,"DIS_CODE":0,"TOWNNAME":"新市區","LI":"豐華里","LIN":"5鄰","STREET":" ","SECT":" ","MAREA":"豐華","LANE":" ","ALLEY":" ","HOUSE_NO":"３９之１２號","E_COORD97":173736.04000000001,"N_COORD97":2554377.7999999998,"ADDRESS":"豐華３９之１２號","OBJECTID":151572},"geometry":{"x":173736.0400000019,"y":2554377.8000000026}},{"attributes":{"ID":151574,"DIS_CODE":0,"TOWNNAME":"新市區","LI":"豐華里","LIN":"5鄰","STREET":" ","SECT":" ","MAREA":"豐華","LANE":" ","ALLEY":" ","HOUSE_NO":"４２之５號","E_COORD97":173848.76000000001,"N_COORD97":2554387.0499999998,"ADDRESS":"豐華４２之５號","OBJECTID":151573},"geometry":{"x":173848.75999999978,"y":2554387.0500000026}},{"attributes":{"ID":151575,"DIS_CODE":0,"TOWNNAME":"新市區","LI":"豐華里","LIN":"5鄰","STREET":" ","SECT":" ","MAREA":"豐華","LANE":" ","ALLEY":" ","HOUSE_NO":"３８之６０號","E_COORD97":173172.54000000001,"N_COORD97":2555289.7999999998,"ADDRESS":"豐華３８之６０號","OBJECTID":151574},"geometry":{"x":173172.54000000004,"y":2555289.8000000026}},{"attributes":{"ID":151576,"DIS_CODE":0,"TOWNNAME":"新市區","LI":"潭頂里","LIN":"5鄰","STREET":" ","SECT":" ","MAREA":"潭頂","LANE":" ","ALLEY":" ","HOUSE_NO":"２２８之１號","E_COORD97":180769.5,"N_COORD97":2553042.0499999998,"ADDRESS":"潭頂２２８之１號","OBJECTID":151575},"geometry":{"x":180769.49999999907,"y":2553042.0500000007}},{"attributes":{"ID":151577,"DIS_CODE":0,"TOWNNAME":"新市區","LI":"大社里","LIN":"5鄰","STREET":" ","SECT":" ","MAREA":"大社","LANE":" ","ALLEY":" ","HOUSE_NO":"１９０之３號","E_COORD97":180231.85999999999,"N_COORD97":2554355.8500000001,"ADDRESS":"大社１９０之３號","OBJECTID":151576},"geometry":{"x":180231.8600000022,"y":2554355.8500000015}},{"attributes":{"ID":151578,"DIS_CODE":0,"TOWNNAME":"新市區","LI":"大社里","LIN":"5鄰","STREET":" ","SECT":" ","MAREA":"大社","LANE":" ","ALLEY":" ","HOUSE_NO":"１９０之２號","E_COORD97":180224.64999999999,"N_COORD97":2554361.52,"ADDRESS":"大社１９０之２號","OBJECTID":151577},"geometry":{"x":180224.65000000037,"y":2554361.5200000014}},{"attributes":{"ID":151579,"DIS_CODE":0,"TOWNNAME":"後壁區","LI":"墨林里","LIN":"5鄰","STREET":" ","SECT":" ","MAREA":"菁寮","LANE":" ","ALLEY":" ","HOUSE_NO":"２１９號","E_COORD97":182193.79999999999,"N_COORD97":2586403.48,"ADDRESS":"菁寮２１９號","OBJECTID":151578},"geometry":{"x":182193.80000000075,"y":2586403.4800000004}},{"attributes":{"ID":151580,"DIS_CODE":0,"TOWNNAME":"後壁區","LI":"墨林里","LIN":"5鄰","STREET":" ","SECT":" ","MAREA":"菁寮","LANE":" ","ALLEY":" ","HOUSE_NO":"２２０號","E_COORD97":182198.04999999999,"N_COORD97":2586404.5299999998,"ADDRESS":"菁寮２２０號","OBJECTID":151579},"geometry":{"x":182198.05000000168,"y":2586404.5300000012}},{"attributes":{"ID":151581,"DIS_CODE":0,"TOWNNAME":"後壁區","LI":"墨林里","LIN":"5鄰","STREET":" ","SECT":" ","MAREA":"菁寮","LANE":" ","ALLEY":" ","HOUSE_NO":"２２２號","E_COORD97":182207.54999999999,"N_COORD97":2586405.75,"ADDRESS":"菁寮２２２號","OBJECTID":151580},"geometry":{"x":182207.54999999981,"y":2586405.7500000037}},{"attributes":{"ID":151582,"DIS_CODE":0,"TOWNNAME":"後壁區","LI":"菁寮里","LIN":"5鄰","STREET":" ","SECT":" ","MAREA":"菁寮","LANE":" ","ALLEY":" ","HOUSE_NO":"４８號","E_COORD97":182079.44,"N_COORD97":2586368.0299999998,"ADDRESS":"菁寮４８號","OBJECTID":151581},"geometry":{"x":182079.44000000134,"y":2586368.0299999993}},{"attributes":{"ID":151583,"DIS_CODE":0,"TOWNNAME":"後壁區","LI":"菁寮里","LIN":"5鄰","STREET":" ","SECT":" ","MAREA":"菁寮","LANE":" ","ALLEY":" ","HOUSE_NO":"５０號","E_COORD97":182080.14999999999,"N_COORD97":2586388.48,"ADDRESS":"菁寮５０號","OBJECTID":151582},"geometry":{"x":182080.1500000013,"y":2586388.4800000023}},{"attributes":{"ID":151584,"DIS_CODE":0,"TOWNNAME":"後壁區","LI":"菁寮里","LIN":"5鄰","STREET":" ","SECT":" ","MAREA":"菁寮","LANE":" ","ALLEY":" ","HOUSE_NO":"５１號","E_COORD97":182084.41,"N_COORD97":2586388.8500000001,"ADDRESS":"菁寮５１號","OBJECTID":151583},"geometry":{"x":182084.41000000108,"y":2586388.8500000015}},{"attributes":{"ID":151585,"DIS_CODE":0,"TOWNNAME":"後壁區","LI":"菁寮里","LIN":"5鄰","STREET":" ","SECT":" ","MAREA":"菁寮","LANE":" ","ALLEY":" ","HOUSE_NO":"５３號","E_COORD97":182094.12,"N_COORD97":2586389.79,"ADDRESS":"菁寮５３號","OBJECTID":151584},"geometry":{"x":182094.12000000011,"y":2586389.7899999991}},{"attributes":{"ID":151586,"DIS_CODE":0,"TOWNNAME":"後壁區","LI":"菁寮里","LIN":"5鄰","STREET":" ","SECT":" ","MAREA":"菁寮","LANE":" ","ALLEY":" ","HOUSE_NO":"５５號","E_COORD97":182101.10999999999,"N_COORD97":2586391.6299999999,"ADDRESS":"菁寮５５號","OBJECTID":151585},"geometry":{"x":182101.11000000034,"y":2586391.6299999971}},{"attributes":{"ID":151587,"DIS_CODE":0,"TOWNNAME":"後壁區","LI":"菁寮里","LIN":"5鄰","STREET":" ","SECT":" ","MAREA":"菁寮","LANE":" ","ALLEY":" ","HOUSE_NO":"５６號","E_COORD97":182104.29000000001,"N_COORD97":2586392.27,"ADDRESS":"菁寮５６號","OBJECTID":151586},"geometry":{"x":182104.29000000097,"y":2586392.2700000014}},{"attributes":{"ID":151588,"DIS_CODE":0,"TOWNNAME":"後壁區","LI":"平安里","LIN":"5鄰","STREET":" ","SECT":" ","MAREA":"葯店口","LANE":" ","ALLEY":" ","HOUSE_NO":"５６號之１","E_COORD97":181879.17000000001,"N_COORD97":2584568.4399999999,"ADDRESS":"葯店口５６號之１","OBJECTID":151587},"geometry":{"x":181879.17000000086,"y":2584568.4399999995}},{"attributes":{"ID":151589,"DIS_CODE":0,"TOWNNAME":"後壁區","LI":"平安里","LIN":"5鄰","STREET":" ","SECT":" ","MAREA":"葯店口","LANE":" ","ALLEY":" ","HOUSE_NO":"５６號之２附６","E_COORD97":181845.76999999999,"N_COORD97":2584602.4100000001,"ADDRESS":"葯店口５６號之２附６","OBJECTID":151588},"geometry":{"x":181845.77000000048,"y":2584602.410000002}},{"attributes":{"ID":151590,"DIS_CODE":0,"TOWNNAME":"永康區","LI":"甲頂里","LIN":"3鄰","STREET":"中正南路","SECT":" ","MAREA":" ","LANE":"１６８巷","ALLEY":"２弄","HOUSE_NO":"１０號","E_COORD97":169859.57999999999,"N_COORD97":2546973.7400000002,"ADDRESS":"中正南路１６８巷２弄１０號","OBJECTID":151589},"geometry":{"x":169859.58000000101,"y":2546973.7400000021}},{"attributes":{"ID":151591,"DIS_CODE":0,"TOWNNAME":"永康區","LI":"東橋里","LIN":"3鄰","STREET":"大橋一街","SECT":" ","MAREA":" ","LANE":"３２４巷","ALLEY":"２５弄","HOUSE_NO":"６號","E_COORD97":171380.85000000001,"N_COORD97":2546626.54,"ADDRESS":"大橋一街３２４巷２５弄６號","OBJECTID":151590},"geometry":{"x":171380.85000000056,"y":2546626.5399999991}},{"attributes":{"ID":151592,"DIS_CODE":0,"TOWNNAME":"後壁區","LI":"平安里","LIN":"5鄰","STREET":" ","SECT":" ","MAREA":"葯店口","LANE":" ","ALLEY":" ","HOUSE_NO":"５６號之２附７","E_COORD97":181846.39000000001,"N_COORD97":2584597.1200000001,"ADDRESS":"葯店口５６號之２附７","OBJECTID":151591},"geometry":{"x":181846.39000000153,"y":2584597.1200000048}},{"attributes":{"ID":151593,"DIS_CODE":0,"TOWNNAME":"後壁區","LI":"平安里","LIN":"5鄰","STREET":" ","SECT":" ","MAREA":"葯店口","LANE":" ","ALLEY":" ","HOUSE_NO":"５６號之２附８","E_COORD97":181847.42000000001,"N_COORD97":2584592.27,"ADDRESS":"葯店口５６號之２附８","OBJECTID":151592},"geometry":{"x":181847.41999999993,"y":2584592.2700000014}},{"attributes":{"ID":151594,"DIS_CODE":0,"TOWNNAME":"永康區","LI":"崑山里","LIN":"19鄰","STREET":"大灣路","SECT":" ","MAREA":" ","LANE":" ","ALLEY":" ","HOUSE_NO":"７９６號五樓","E_COORD97":174025.97,"N_COORD97":2544508.9500000002,"ADDRESS":"大灣路７９６號五樓","OBJECTID":151593},"geometry":{"x":174025.9700000016,"y":2544508.9500000011}},{"attributes":{"ID":151595,"DIS_CODE":0,"TOWNNAME":"永康區","LI":"西灣里","LIN":"26鄰","STREET":"國光七街","SECT":" ","MAREA":" ","LANE":"６巷","ALLEY":"１１弄","HOUSE_NO":"１７號","E_COORD97":174339.23999999999,"N_COORD97":2545638.75,"ADDRESS":"國光七街６巷１１弄１７號","OBJECTID":151594},"geometry":{"x":174339.24000000022,"y":2545638.75}},{"attributes":{"ID":151596,"DIS_CODE":0,"TOWNNAME":"永康區","LI":"成功里","LIN":"32鄰","STREET":"忠孝路","SECT":" ","MAREA":" ","LANE":"２０３巷","ALLEY":"６４弄","HOUSE_NO":"１８號","E_COORD97":171902.39999999999,"N_COORD97":2544904.9300000002,"ADDRESS":"忠孝路２０３巷６４弄１８號","OBJECTID":151595},"geometry":{"x":171902.40000000037,"y":2544904.9299999997}},{"attributes":{"ID":151597,"DIS_CODE":0,"TOWNNAME":"永康區","LI":"六合里","LIN":"3鄰","STREET":"中山南路","SECT":" ","MAREA":" ","LANE":"１１８巷","ALLEY":"１弄","HOUSE_NO":"２號","E_COORD97":171116.04000000001,"N_COORD97":2545925,"ADDRESS":"中山南路１１８巷１弄２號","OBJECTID":151596},"geometry":{"x":171116.04000000097,"y":2545925}},{"attributes":{"ID":151598,"DIS_CODE":0,"TOWNNAME":"永康區","LI":"西勢里","LIN":"7鄰","STREET":"富強路","SECT":"一段","MAREA":" ","LANE":"２７９巷","ALLEY":"１２弄","HOUSE_NO":"１１號","E_COORD97":175664.07000000001,"N_COORD97":2546663.27,"ADDRESS":"富強路一段２７９巷１２弄１１號","OBJECTID":151597},"geometry":{"x":175664.07000000123,"y":2546663.2700000033}},{"attributes":{"ID":151599,"DIS_CODE":0,"TOWNNAME":"永康區","LI":"光復里","LIN":"10鄰","STREET":"復興路","SECT":" ","MAREA":" ","LANE":"３５６巷","ALLEY":"８０弄","HOUSE_NO":"８４號","E_COORD97":172493.67000000001,"N_COORD97":2544566.5299999998,"ADDRESS":"復興路３５６巷８０弄８４號","OBJECTID":151598},"geometry":{"x":172493.66999999993,"y":2544566.5300000012}},{"attributes":{"ID":151600,"DIS_CODE":0,"TOWNNAME":"永康區","LI":"正強里","LIN":"32鄰","STREET":"四維街","SECT":" ","MAREA":" ","LANE":"２９巷","ALLEY":"１６弄","HOUSE_NO":"２號之１","E_COORD97":173371.32000000001,"N_COORD97":2548028.79,"ADDRESS":"四維街２９巷１６弄２號之１","OBJECTID":151599},"geometry":{"x":173371.3200000003,"y":2548028.7900000028}},{"attributes":{"ID":151601,"DIS_CODE":0,"TOWNNAME":"永康區","LI":"南灣里","LIN":"41鄰","STREET":"南興路","SECT":" ","MAREA":" ","LANE":"１１２巷","ALLEY":"１０４弄","HOUSE_NO":"６號","E_COORD97":174682.48999999999,"N_COORD97":2544542.6299999999,"ADDRESS":"南興路１１２巷１０４弄６號","OBJECTID":151600},"geometry":{"x":174682.49000000209,"y":2544542.6300000008}}]}