{"displayFieldName":"TOWNNAME","fieldAliases":{"ID":"ID","DIS_CODE":"DIS_CODE","TOWNNAME":"TOWNNAME","LI":"LI","LIN":"LIN","STREET":"STREET","SECT":"SECT","MAREA":"MAREA","LANE":"LANE","ALLEY":"ALLEY","HOUSE_NO":"HOUSE_NO","E_COORD97":"E_COORD97","N_COORD97":"N_COORD97","ADDRESS":"ADDRESS","OBJECTID":"OBJECTID"},"geometryType":"esriGeometryPoint","spatialReference":{"wkid":102443,"latestWkid":3826},"fields":[{"name":"ID","type":"esriFieldTypeDouble","alias":"ID"},{"name":"DIS_CODE","type":"esriFieldTypeInteger","alias":"DIS_CODE"},{"name":"TOWNNAME","type":"esriFieldTypeString","alias":"TOWNNAME","length":8},{"name":"LI","type":"esriFieldTypeString","alias":"LI","length":8},{"name":"LIN","type":"esriFieldTypeString","alias":"LIN","length":12},{"name":"STREET","type":"esriFieldTypeString","alias":"STREET","length":20},{"name":"SECT","type":"esriFieldTypeString","alias":"SECT","length":8},{"name":"MAREA","type":"esriFieldTypeString","alias":"MAREA","length":12},{"name":"LANE","type":"esriFieldTypeString","alias":"LANE","length":10},{"name":"ALLEY","type":"esriFieldTypeString","alias":"ALLEY","length":10},{"name":"HOUSE_NO","type":"esriFieldTypeString","alias":"HOUSE_NO","length":20},{"name":"E_COORD97","type":"esriFieldTypeDouble","alias":"E_COORD97"},{"name":"N_COORD97","type":"esriFieldTypeDouble","alias":"N_COORD97"},{"name":"ADDRESS","type":"esriFieldTypeString","alias":"ADDRESS","length":50},{"name":"OBJECTID","type":"esriFieldTypeOID","alias":"OBJECTID"}],"features":[{"attributes":{"ID":382211,"DIS_CODE":0,"TOWNNAME":"新營區","LI":"民生里","LIN":"9鄰","STREET":"復興路","SECT":" ","MAREA":" ","LANE":"１４８巷","ALLEY":" ","HOUSE_NO":"７號","E_COORD97":179276.23999999999,"N_COORD97":2578092.1899999999,"ADDRESS":"復興路１４８巷７號","OBJECTID":382201},"geometry":{"x":179276.24000000022,"y":2578092.1900000032}},{"attributes":{"ID":382212,"DIS_CODE":0,"TOWNNAME":"新營區","LI":"護鎮里","LIN":"9鄰","STREET":"中正路","SECT":" ","MAREA":" ","LANE":"４３９巷","ALLEY":" ","HOUSE_NO":"１２３號","E_COORD97":178979.85000000001,"N_COORD97":2580188.9300000002,"ADDRESS":"中正路４３９巷１２３號","OBJECTID":382202},"geometry":{"x":178979.84999999963,"y":2580188.9299999997}},{"attributes":{"ID":382213,"DIS_CODE":0,"TOWNNAME":"南區","LI":"新興里","LIN":"9鄰","STREET":"健康路","SECT":"二段","MAREA":" ","LANE":"５３巷","ALLEY":" ","HOUSE_NO":"３０號","E_COORD97":167577.10000000001,"N_COORD97":2542357.0099999998,"ADDRESS":"健康路二段５３巷３０號","OBJECTID":382203},"geometry":{"x":167577.10000000056,"y":2542357.0100000016}},{"attributes":{"ID":382214,"DIS_CODE":0,"TOWNNAME":"南區","LI":"新興里","LIN":"9鄰","STREET":"健康路","SECT":"二段","MAREA":" ","LANE":"５３巷","ALLEY":" ","HOUSE_NO":"３２號","E_COORD97":167572.63,"N_COORD97":2542357.0099999998,"ADDRESS":"健康路二段５３巷３２號","OBJECTID":382204},"geometry":{"x":167572.62999999989,"y":2542357.0100000016}},{"attributes":{"ID":382215,"DIS_CODE":0,"TOWNNAME":"南區","LI":"新興里","LIN":"9鄰","STREET":"健康路","SECT":"二段","MAREA":" ","LANE":"５３巷","ALLEY":" ","HOUSE_NO":"３４號","E_COORD97":167568.32999999999,"N_COORD97":2542357.1800000002,"ADDRESS":"健康路二段５３巷３４號","OBJECTID":382205},"geometry":{"x":167568.33000000007,"y":2542357.1799999997}},{"attributes":{"ID":382216,"DIS_CODE":0,"TOWNNAME":"南區","LI":"新興里","LIN":"9鄰","STREET":"健康路","SECT":"二段","MAREA":" ","LANE":"５３巷","ALLEY":" ","HOUSE_NO":"３６號","E_COORD97":167563.35999999999,"N_COORD97":2542358.5299999998,"ADDRESS":"健康路二段５３巷３６號","OBJECTID":382206},"geometry":{"x":167563.36000000034,"y":2542358.5300000031}},{"attributes":{"ID":382217,"DIS_CODE":0,"TOWNNAME":"南區","LI":"新興里","LIN":"9鄰","STREET":"健康路","SECT":"二段","MAREA":" ","LANE":"５３巷","ALLEY":" ","HOUSE_NO":"３８號","E_COORD97":167558.72,"N_COORD97":2542358.8599999999,"ADDRESS":"健康路二段５３巷３８號","OBJECTID":382207},"geometry":{"x":167558.71999999974,"y":2542358.8599999994}},{"attributes":{"ID":382218,"DIS_CODE":0,"TOWNNAME":"南區","LI":"新興里","LIN":"9鄰","STREET":"健康路","SECT":"二段","MAREA":" ","LANE":"５３巷","ALLEY":" ","HOUSE_NO":"４０號","E_COORD97":167554.32999999999,"N_COORD97":2542359.0299999998,"ADDRESS":"健康路二段５３巷４０號","OBJECTID":382208},"geometry":{"x":167554.33000000007,"y":2542359.0300000012}},{"attributes":{"ID":382219,"DIS_CODE":0,"TOWNNAME":"南區","LI":"新興里","LIN":"9鄰","STREET":"健康路","SECT":"二段","MAREA":" ","LANE":"５３巷","ALLEY":" ","HOUSE_NO":"４２號","E_COORD97":167550.03,"N_COORD97":2542358.6899999999,"ADDRESS":"健康路二段５３巷４２號","OBJECTID":382209},"geometry":{"x":167550.03000000026,"y":2542358.6900000013}},{"attributes":{"ID":382220,"DIS_CODE":0,"TOWNNAME":"南區","LI":"新興里","LIN":"9鄰","STREET":"健康路","SECT":"二段","MAREA":" ","LANE":"５３巷","ALLEY":" ","HOUSE_NO":"４４號","E_COORD97":167545.57000000001,"N_COORD97":2542359.54,"ADDRESS":"健康路二段５３巷４４號","OBJECTID":382210},"geometry":{"x":167545.57000000123,"y":2542359.540000001}},{"attributes":{"ID":382221,"DIS_CODE":0,"TOWNNAME":"南區","LI":"新興里","LIN":"9鄰","STREET":"健康路","SECT":"二段","MAREA":" ","LANE":"５３巷","ALLEY":" ","HOUSE_NO":"４６號","E_COORD97":167541.17999999999,"N_COORD97":2542358.4399999999,"ADDRESS":"健康路二段５３巷４６號","OBJECTID":382211},"geometry":{"x":167541.18000000063,"y":2542358.4399999995}},{"attributes":{"ID":382222,"DIS_CODE":0,"TOWNNAME":"南區","LI":"新興里","LIN":"9鄰","STREET":"健康路","SECT":"二段","MAREA":" ","LANE":"５３巷","ALLEY":" ","HOUSE_NO":"４８號","E_COORD97":167536.12,"N_COORD97":2542359.4500000002,"ADDRESS":"健康路二段５３巷４８號","OBJECTID":382212},"geometry":{"x":167536.11999999918,"y":2542359.4500000011}},{"attributes":{"ID":382223,"DIS_CODE":0,"TOWNNAME":"南區","LI":"新興里","LIN":"9鄰","STREET":"健康路","SECT":"二段","MAREA":" ","LANE":"５３巷","ALLEY":" ","HOUSE_NO":"５０號","E_COORD97":167531.66,"N_COORD97":2542359.6200000001,"ADDRESS":"健康路二段５３巷５０號","OBJECTID":382213},"geometry":{"x":167531.66000000108,"y":2542359.6199999992}},{"attributes":{"ID":382224,"DIS_CODE":0,"TOWNNAME":"安平區","LI":"怡平里","LIN":"9鄰","STREET":"建平十二街","SECT":" ","MAREA":" ","LANE":"１４８巷","ALLEY":" ","HOUSE_NO":"１２號","E_COORD97":165793.91,"N_COORD97":2544070.1099999999,"ADDRESS":"建平十二街１４８巷１２號","OBJECTID":382214},"geometry":{"x":165793.91000000108,"y":2544070.1099999975}},{"attributes":{"ID":382225,"DIS_CODE":0,"TOWNNAME":"安平區","LI":"華平里","LIN":"9鄰","STREET":"怡平路","SECT":" ","MAREA":" ","LANE":"４１０巷","ALLEY":" ","HOUSE_NO":"１２號","E_COORD97":165414.742482,"N_COORD97":2543859.5642400002,"ADDRESS":"怡平路４１０巷１２號","OBJECTID":382215},"geometry":{"x":165414.74248200096,"y":2543859.564243}},{"attributes":{"ID":382226,"DIS_CODE":0,"TOWNNAME":"安平區","LI":"華平里","LIN":"9鄰","STREET":"怡平路","SECT":" ","MAREA":" ","LANE":"４１０巷","ALLEY":" ","HOUSE_NO":"２６號","E_COORD97":165419.32000000001,"N_COORD97":2543887.2799999998,"ADDRESS":"怡平路４１０巷２６號","OBJECTID":382216},"geometry":{"x":165419.3200000003,"y":2543887.2800000012}},{"attributes":{"ID":382227,"DIS_CODE":0,"TOWNNAME":"安平區","LI":"華平里","LIN":"9鄰","STREET":"怡平路","SECT":" ","MAREA":" ","LANE":"４１０巷","ALLEY":" ","HOUSE_NO":"２８號","E_COORD97":165419.32000000001,"N_COORD97":2543891.3100000001,"ADDRESS":"怡平路４１０巷２８號","OBJECTID":382217},"geometry":{"x":165419.3200000003,"y":2543891.3100000024}},{"attributes":{"ID":382228,"DIS_CODE":0,"TOWNNAME":"安平區","LI":"華平里","LIN":"9鄰","STREET":"怡平路","SECT":" ","MAREA":" ","LANE":"４１０巷","ALLEY":" ","HOUSE_NO":"３０號","E_COORD97":165420.09,"N_COORD97":2543895.5299999998,"ADDRESS":"怡平路４１０巷３０號","OBJECTID":382218},"geometry":{"x":165420.08999999985,"y":2543895.5300000012}},{"attributes":{"ID":382229,"DIS_CODE":0,"TOWNNAME":"安平區","LI":"華平里","LIN":"9鄰","STREET":"怡平路","SECT":" ","MAREA":" ","LANE":"４１０巷","ALLEY":" ","HOUSE_NO":"３２號","E_COORD97":165420.28,"N_COORD97":2543900.1299999999,"ADDRESS":"怡平路４１０巷３２號","OBJECTID":382219},"geometry":{"x":165420.28000000119,"y":2543900.1300000027}},{"attributes":{"ID":382230,"DIS_CODE":0,"TOWNNAME":"安平區","LI":"華平里","LIN":"9鄰","STREET":"怡平路","SECT":" ","MAREA":" ","LANE":"４１０巷","ALLEY":" ","HOUSE_NO":"３４號","E_COORD97":165420.67000000001,"N_COORD97":2543903.77,"ADDRESS":"怡平路４１０巷３４號","OBJECTID":382220},"geometry":{"x":165420.67000000086,"y":2543903.7700000014}},{"attributes":{"ID":382231,"DIS_CODE":0,"TOWNNAME":"安平區","LI":"華平里","LIN":"9鄰","STREET":"怡平路","SECT":" ","MAREA":" ","LANE":"４１０巷","ALLEY":" ","HOUSE_NO":"３６號","E_COORD97":165421.04999999999,"N_COORD97":2543908.5699999998,"ADDRESS":"怡平路４１０巷３６號","OBJECTID":382221},"geometry":{"x":165421.05000000075,"y":2543908.5699999984}},{"attributes":{"ID":382232,"DIS_CODE":0,"TOWNNAME":"安平區","LI":"華平里","LIN":"9鄰","STREET":"怡平路","SECT":" ","MAREA":" ","LANE":"４１０巷","ALLEY":" ","HOUSE_NO":"３８號","E_COORD97":165421.63,"N_COORD97":2543912.98,"ADDRESS":"怡平路４１０巷３８號","OBJECTID":382222},"geometry":{"x":165421.62999999989,"y":2543912.9800000042}},{"attributes":{"ID":382233,"DIS_CODE":0,"TOWNNAME":"安平區","LI":"華平里","LIN":"9鄰","STREET":"怡平路","SECT":" ","MAREA":" ","LANE":"４１０巷","ALLEY":" ","HOUSE_NO":"３５號","E_COORD97":165406.64000000001,"N_COORD97":2543919.9900000002,"ADDRESS":"怡平路４１０巷３５號","OBJECTID":382223},"geometry":{"x":165406.6400000006,"y":2543919.9900000021}},{"attributes":{"ID":382234,"DIS_CODE":0,"TOWNNAME":"永康區","LI":"龍潭里","LIN":"19鄰","STREET":"龍潭街","SECT":" ","MAREA":" ","LANE":"２４３巷","ALLEY":" ","HOUSE_NO":"１之１號","E_COORD97":174911.95999999999,"N_COORD97":2548454.04,"ADDRESS":"龍潭街２４３巷１之１號","OBJECTID":382224},"geometry":{"x":174911.96000000089,"y":2548454.0399999972}},{"attributes":{"ID":382235,"DIS_CODE":0,"TOWNNAME":"永康區","LI":"龍潭里","LIN":"44鄰","STREET":"永平街","SECT":" ","MAREA":" ","LANE":"２９８巷","ALLEY":" ","HOUSE_NO":"１１之２６號","E_COORD97":174654.87,"N_COORD97":2547150.1899999999,"ADDRESS":"永平街２９８巷１１之２６號","OBJECTID":382225},"geometry":{"x":174654.87000000104,"y":2547150.1899999995}},{"attributes":{"ID":382236,"DIS_CODE":0,"TOWNNAME":"永康區","LI":"龍潭里","LIN":"44鄰","STREET":"永平街","SECT":" ","MAREA":" ","LANE":"２９８巷","ALLEY":" ","HOUSE_NO":"１３之１３號","E_COORD97":174662.17999999999,"N_COORD97":2547136.4399999999,"ADDRESS":"永平街２９８巷１３之１３號","OBJECTID":382226},"geometry":{"x":174662.18000000063,"y":2547136.4400000032}},{"attributes":{"ID":382237,"DIS_CODE":0,"TOWNNAME":"永康區","LI":"網寮里","LIN":"10鄰","STREET":"永勝街","SECT":" ","MAREA":" ","LANE":"２１８巷","ALLEY":" ","HOUSE_NO":"１６號","E_COORD97":173363.34,"N_COORD97":2546465.25,"ADDRESS":"永勝街２１８巷１６號","OBJECTID":382227},"geometry":{"x":173363.34000000078,"y":2546465.2500000019}},{"attributes":{"ID":382238,"DIS_CODE":0,"TOWNNAME":"永康區","LI":"網寮里","LIN":"24鄰","STREET":"永春街","SECT":" ","MAREA":" ","LANE":"３６巷","ALLEY":" ","HOUSE_NO":"１１號","E_COORD97":173773.23000000001,"N_COORD97":2546402.5899999999,"ADDRESS":"永春街３６巷１１號","OBJECTID":382228},"geometry":{"x":173773.23000000138,"y":2546402.5899999999}},{"attributes":{"ID":382239,"DIS_CODE":0,"TOWNNAME":"永康區","LI":"龍潭里","LIN":"35鄰","STREET":"龍安街","SECT":" ","MAREA":" ","LANE":"１８９巷","ALLEY":" ","HOUSE_NO":"２０號","E_COORD97":174634.03,"N_COORD97":2548543.4100000001,"ADDRESS":"龍安街１８９巷２０號","OBJECTID":382229},"geometry":{"x":174634.03000000026,"y":2548543.4100000001}},{"attributes":{"ID":382240,"DIS_CODE":0,"TOWNNAME":"永康區","LI":"龍潭里","LIN":"44鄰","STREET":"永平街","SECT":" ","MAREA":" ","LANE":"２９８巷","ALLEY":" ","HOUSE_NO":"９之１７號","E_COORD97":174664.01000000001,"N_COORD97":2547194.6000000001,"ADDRESS":"永平街２９８巷９之１７號","OBJECTID":382230},"geometry":{"x":174664.01000000071,"y":2547194.6000000015}},{"attributes":{"ID":382241,"DIS_CODE":0,"TOWNNAME":"永康區","LI":"龍潭里","LIN":"44鄰","STREET":"永平街","SECT":" ","MAREA":" ","LANE":"２９８巷","ALLEY":" ","HOUSE_NO":"１１之１３號","E_COORD97":174654.87,"N_COORD97":2547150.1899999999,"ADDRESS":"永平街２９８巷１１之１３號","OBJECTID":382231},"geometry":{"x":174654.87000000104,"y":2547150.1899999995}},{"attributes":{"ID":382242,"DIS_CODE":0,"TOWNNAME":"安平區","LI":"金城里","LIN":"9鄰","STREET":"同平路","SECT":" ","MAREA":" ","LANE":"１０８巷","ALLEY":" ","HOUSE_NO":"３５號","E_COORD97":163083.45000000001,"N_COORD97":2544131.1499999999,"ADDRESS":"同平路１０８巷３５號","OBJECTID":382232},"geometry":{"x":163083.45000000019,"y":2544131.1500000004}},{"attributes":{"ID":382243,"DIS_CODE":0,"TOWNNAME":"北區","LI":"東興里","LIN":"9鄰","STREET":"小東路","SECT":" ","MAREA":" ","LANE":"３０７巷","ALLEY":" ","HOUSE_NO":"４２號","E_COORD97":171206.32999999999,"N_COORD97":2544549.23,"ADDRESS":"小東路３０７巷４２號","OBJECTID":382233},"geometry":{"x":171206.33000000007,"y":2544549.2300000023}},{"attributes":{"ID":382244,"DIS_CODE":0,"TOWNNAME":"北區","LI":"東興里","LIN":"9鄰","STREET":"小東路","SECT":" ","MAREA":" ","LANE":"３０７巷","ALLEY":" ","HOUSE_NO":"４４號","E_COORD97":171210.03,"N_COORD97":2544550.1000000001,"ADDRESS":"小東路３０７巷４４號","OBJECTID":382234},"geometry":{"x":171210.03000000026,"y":2544550.1000000015}},{"attributes":{"ID":382245,"DIS_CODE":0,"TOWNNAME":"北區","LI":"東興里","LIN":"9鄰","STREET":"小東路","SECT":" ","MAREA":" ","LANE":"３０７巷","ALLEY":" ","HOUSE_NO":"４６號","E_COORD97":171214.51000000001,"N_COORD97":2544550.79,"ADDRESS":"小東路３０７巷４６號","OBJECTID":382235},"geometry":{"x":171214.50999999978,"y":2544550.790000001}},{"attributes":{"ID":382246,"DIS_CODE":0,"TOWNNAME":"北區","LI":"東興里","LIN":"9鄰","STREET":"小東路","SECT":" ","MAREA":" ","LANE":"３０７巷","ALLEY":" ","HOUSE_NO":"４８號","E_COORD97":171218.29999999999,"N_COORD97":2544551.4700000002,"ADDRESS":"小東路３０７巷４８號","OBJECTID":382236},"geometry":{"x":171218.30000000168,"y":2544551.4700000025}},{"attributes":{"ID":382247,"DIS_CODE":0,"TOWNNAME":"北區","LI":"東興里","LIN":"9鄰","STREET":"小東路","SECT":" ","MAREA":" ","LANE":"３０７巷","ALLEY":" ","HOUSE_NO":"５０號","E_COORD97":171222.57999999999,"N_COORD97":2544551.4700000002,"ADDRESS":"小東路３０７巷５０號","OBJECTID":382237},"geometry":{"x":171222.58000000101,"y":2544551.4700000025}},{"attributes":{"ID":382248,"DIS_CODE":0,"TOWNNAME":"北區","LI":"東興里","LIN":"9鄰","STREET":"小東路","SECT":" ","MAREA":" ","LANE":"３０７巷","ALLEY":" ","HOUSE_NO":"５２號","E_COORD97":171227.35000000001,"N_COORD97":2544552.2400000002,"ADDRESS":"小東路３０７巷５２號","OBJECTID":382238},"geometry":{"x":171227.34999999963,"y":2544552.2400000021}},{"attributes":{"ID":382249,"DIS_CODE":0,"TOWNNAME":"永康區","LI":"龍潭里","LIN":"38鄰","STREET":"中山北路","SECT":" ","MAREA":" ","LANE":"１６４巷","ALLEY":" ","HOUSE_NO":"８２號之１４","E_COORD97":174451.31,"N_COORD97":2547386.9199999999,"ADDRESS":"中山北路１６４巷８２號之１４","OBJECTID":382239},"geometry":{"x":174451.31000000052,"y":2547386.9199999999}},{"attributes":{"ID":382250,"DIS_CODE":0,"TOWNNAME":"永康區","LI":"龍潭里","LIN":"38鄰","STREET":"中山北路","SECT":" ","MAREA":" ","LANE":"１６４巷","ALLEY":" ","HOUSE_NO":"８２號之１１","E_COORD97":174451.29000000001,"N_COORD97":2547386.9199999999,"ADDRESS":"中山北路１６４巷８２號之１１","OBJECTID":382240},"geometry":{"x":174451.28999999911,"y":2547386.9199999999}},{"attributes":{"ID":382251,"DIS_CODE":0,"TOWNNAME":"永康區","LI":"網寮里","LIN":"12鄰","STREET":"永二街","SECT":" ","MAREA":" ","LANE":"２４４巷","ALLEY":" ","HOUSE_NO":"１７號","E_COORD97":173270.64999999999,"N_COORD97":2546494.46,"ADDRESS":"永二街２４４巷１７號","OBJECTID":382241},"geometry":{"x":173270.65000000037,"y":2546494.4600000028}},{"attributes":{"ID":382252,"DIS_CODE":0,"TOWNNAME":"北區","LI":"中樓里","LIN":"9鄰","STREET":"前鋒路","SECT":" ","MAREA":" ","LANE":"３０６巷","ALLEY":" ","HOUSE_NO":"６號","E_COORD97":169598.12,"N_COORD97":2545015.52,"ADDRESS":"前鋒路３０６巷６號","OBJECTID":382242},"geometry":{"x":169598.12000000104,"y":2545015.5199999996}},{"attributes":{"ID":382253,"DIS_CODE":0,"TOWNNAME":"北區","LI":"三德里","LIN":"9鄰","STREET":"長北街","SECT":" ","MAREA":" ","LANE":"７４巷","ALLEY":" ","HOUSE_NO":"１６號","E_COORD97":168457.79000000001,"N_COORD97":2544695.9700000002,"ADDRESS":"長北街７４巷１６號","OBJECTID":382243},"geometry":{"x":168457.79000000097,"y":2544695.9700000007}},{"attributes":{"ID":382254,"DIS_CODE":0,"TOWNNAME":"北區","LI":"三德里","LIN":"9鄰","STREET":"長北街","SECT":" ","MAREA":" ","LANE":"７４巷","ALLEY":" ","HOUSE_NO":"１８號","E_COORD97":168454.64999999999,"N_COORD97":2544697.3799999999,"ADDRESS":"長北街７４巷１８號","OBJECTID":382244},"geometry":{"x":168454.65000000037,"y":2544697.379999999}},{"attributes":{"ID":382255,"DIS_CODE":0,"TOWNNAME":"北區","LI":"三德里","LIN":"9鄰","STREET":"長北街","SECT":" ","MAREA":" ","LANE":"７４巷","ALLEY":" ","HOUSE_NO":"６號","E_COORD97":168447.53,"N_COORD97":2544682.6400000001,"ADDRESS":"長北街７４巷６號","OBJECTID":382245},"geometry":{"x":168447.53000000119,"y":2544682.6400000025}},{"attributes":{"ID":382256,"DIS_CODE":0,"TOWNNAME":"北區","LI":"三德里","LIN":"9鄰","STREET":"公園南路","SECT":" ","MAREA":" ","LANE":"２３３巷","ALLEY":" ","HOUSE_NO":"２６號","E_COORD97":168501.72,"N_COORD97":2544675.0099999998,"ADDRESS":"公園南路２３３巷２６號","OBJECTID":382246},"geometry":{"x":168501.72000000067,"y":2544675.0100000035}},{"attributes":{"ID":382257,"DIS_CODE":0,"TOWNNAME":"北區","LI":"三德里","LIN":"9鄰","STREET":"公園南路","SECT":" ","MAREA":" ","LANE":"２３３巷","ALLEY":" ","HOUSE_NO":"２號","E_COORD97":168511.29999999999,"N_COORD97":2544703.02,"ADDRESS":"公園南路２３３巷２號","OBJECTID":382247},"geometry":{"x":168511.30000000075,"y":2544703.0200000014}},{"attributes":{"ID":382258,"DIS_CODE":0,"TOWNNAME":"北區","LI":"三德里","LIN":"9鄰","STREET":"公園南路","SECT":" ","MAREA":" ","LANE":"２３３巷","ALLEY":" ","HOUSE_NO":"３０號","E_COORD97":168498.17999999999,"N_COORD97":2544668.8100000001,"ADDRESS":"公園南路２３３巷３０號","OBJECTID":382248},"geometry":{"x":168498.17999999877,"y":2544668.8100000005}},{"attributes":{"ID":382259,"DIS_CODE":0,"TOWNNAME":"北區","LI":"三德里","LIN":"9鄰","STREET":"公園南路","SECT":" ","MAREA":" ","LANE":"２３３巷","ALLEY":" ","HOUSE_NO":"３２號","E_COORD97":168497.29000000001,"N_COORD97":2544666.79,"ADDRESS":"公園南路２３３巷３２號","OBJECTID":382249},"geometry":{"x":168497.29000000004,"y":2544666.790000001}},{"attributes":{"ID":382260,"DIS_CODE":0,"TOWNNAME":"北區","LI":"三德里","LIN":"9鄰","STREET":"公園南路","SECT":" ","MAREA":" ","LANE":"２３３巷","ALLEY":" ","HOUSE_NO":"３８號","E_COORD97":168490.07999999999,"N_COORD97":2544650.9300000002,"ADDRESS":"公園南路２３３巷３８號","OBJECTID":382250},"geometry":{"x":168490.08000000007,"y":2544650.9299999997}},{"attributes":{"ID":382261,"DIS_CODE":0,"TOWNNAME":"北區","LI":"三德里","LIN":"9鄰","STREET":"公園南路","SECT":" ","MAREA":" ","LANE":"２３３巷","ALLEY":" ","HOUSE_NO":"４０號","E_COORD97":168488.82000000001,"N_COORD97":2544648.3999999999,"ADDRESS":"公園南路２３３巷４０號","OBJECTID":382251},"geometry":{"x":168488.8200000003,"y":2544648.4000000004}},{"attributes":{"ID":382262,"DIS_CODE":0,"TOWNNAME":"北區","LI":"三德里","LIN":"9鄰","STREET":"公園南路","SECT":" ","MAREA":" ","LANE":"２３３巷","ALLEY":" ","HOUSE_NO":"４２號","E_COORD97":168488.82000000001,"N_COORD97":2544644.8599999999,"ADDRESS":"公園南路２３３巷４２號","OBJECTID":382252},"geometry":{"x":168488.8200000003,"y":2544644.8599999975}},{"attributes":{"ID":382263,"DIS_CODE":0,"TOWNNAME":"北區","LI":"三德里","LIN":"9鄰","STREET":"公園南路","SECT":" ","MAREA":" ","LANE":"２３３巷","ALLEY":" ","HOUSE_NO":"４６號","E_COORD97":168488.57000000001,"N_COORD97":2544640.9399999999,"ADDRESS":"公園南路２３３巷４６號","OBJECTID":382253},"geometry":{"x":168488.57000000123,"y":2544640.9399999976}},{"attributes":{"ID":382264,"DIS_CODE":0,"TOWNNAME":"北區","LI":"三德里","LIN":"9鄰","STREET":"公園南路","SECT":" ","MAREA":" ","LANE":"２３３巷","ALLEY":" ","HOUSE_NO":"４８號","E_COORD97":168487.54999999999,"N_COORD97":2544637.9100000001,"ADDRESS":"公園南路２３３巷４８號","OBJECTID":382254},"geometry":{"x":168487.55000000075,"y":2544637.9100000001}},{"attributes":{"ID":382265,"DIS_CODE":0,"TOWNNAME":"北區","LI":"三德里","LIN":"9鄰","STREET":"公園南路","SECT":" ","MAREA":" ","LANE":"２３３巷","ALLEY":" ","HOUSE_NO":"５０號","E_COORD97":168484.39000000001,"N_COORD97":2544628.3700000001,"ADDRESS":"公園南路２３３巷５０號","OBJECTID":382255},"geometry":{"x":168484.38999999966,"y":2544628.370000001}},{"attributes":{"ID":382266,"DIS_CODE":0,"TOWNNAME":"北區","LI":"三德里","LIN":"9鄰","STREET":"公園南路","SECT":" ","MAREA":" ","LANE":"２３３巷","ALLEY":" ","HOUSE_NO":"５２號","E_COORD97":168486.42000000001,"N_COORD97":2544634.8100000001,"ADDRESS":"公園南路２３３巷５２號","OBJECTID":382256},"geometry":{"x":168486.41999999993,"y":2544634.8100000005}},{"attributes":{"ID":382267,"DIS_CODE":0,"TOWNNAME":"北區","LI":"三德里","LIN":"9鄰","STREET":"公園南路","SECT":" ","MAREA":" ","LANE":"２３３巷","ALLEY":" ","HOUSE_NO":"５６號","E_COORD97":168482.10999999999,"N_COORD97":2544623.1899999999,"ADDRESS":"公園南路２３３巷５６號","OBJECTID":382257},"geometry":{"x":168482.11000000034,"y":2544623.1900000013}},{"attributes":{"ID":382268,"DIS_CODE":0,"TOWNNAME":"北區","LI":"三德里","LIN":"9鄰","STREET":"公園南路","SECT":" ","MAREA":" ","LANE":"２３３巷","ALLEY":" ","HOUSE_NO":"５８號","E_COORD97":168480.59,"N_COORD97":2544620.0299999998,"ADDRESS":"公園南路２３３巷５８號","OBJECTID":382258},"geometry":{"x":168480.59000000078,"y":2544620.0300000031}},{"attributes":{"ID":382269,"DIS_CODE":0,"TOWNNAME":"北區","LI":"三德里","LIN":"9鄰","STREET":"公園南路","SECT":" ","MAREA":" ","LANE":"２３３巷","ALLEY":" ","HOUSE_NO":"６０號","E_COORD97":168479.20000000001,"N_COORD97":2544616.2400000002,"ADDRESS":"公園南路２３３巷６０號","OBJECTID":382259},"geometry":{"x":168479.20000000019,"y":2544616.2400000039}},{"attributes":{"ID":382270,"DIS_CODE":0,"TOWNNAME":"永康區","LI":"新樹里","LIN":"3鄰","STREET":"中山北路","SECT":" ","MAREA":" ","LANE":"７６２巷","ALLEY":" ","HOUSE_NO":"１０號","E_COORD97":176249.70999999999,"N_COORD97":2547788.1400000001,"ADDRESS":"中山北路７６２巷１０號","OBJECTID":382260},"geometry":{"x":176249.70999999996,"y":2547788.1400000025}},{"attributes":{"ID":382271,"DIS_CODE":0,"TOWNNAME":"永康區","LI":"龍潭里","LIN":"38鄰","STREET":"中山北路","SECT":" ","MAREA":" ","LANE":"１６４巷","ALLEY":" ","HOUSE_NO":"６０之２號","E_COORD97":174367.16,"N_COORD97":2547390.8300000001,"ADDRESS":"中山北路１６４巷６０之２號","OBJECTID":382261},"geometry":{"x":174367.16000000015,"y":2547390.8300000001}},{"attributes":{"ID":382272,"DIS_CODE":0,"TOWNNAME":"永康區","LI":"龍潭里","LIN":"38鄰","STREET":"中山北路","SECT":" ","MAREA":" ","LANE":"１６４巷","ALLEY":" ","HOUSE_NO":"８２號之２４","E_COORD97":174451.31,"N_COORD97":2547386.9199999999,"ADDRESS":"中山北路１６４巷８２號之２４","OBJECTID":382262},"geometry":{"x":174451.31000000052,"y":2547386.9199999999}},{"attributes":{"ID":382273,"DIS_CODE":0,"TOWNNAME":"永康區","LI":"網寮里","LIN":"8鄰","STREET":"永二街","SECT":" ","MAREA":" ","LANE":"２４４巷","ALLEY":" ","HOUSE_NO":"１號之１３","E_COORD97":173256.64000000001,"N_COORD97":2546396.5,"ADDRESS":"永二街２４４巷１號之１３","OBJECTID":382263},"geometry":{"x":173256.63999999966,"y":2546396.5}},{"attributes":{"ID":382274,"DIS_CODE":0,"TOWNNAME":"北區","LI":"三德里","LIN":"9鄰","STREET":"公園南路","SECT":" ","MAREA":" ","LANE":"２３３巷","ALLEY":" ","HOUSE_NO":"６２號","E_COORD97":168477.81,"N_COORD97":2544613.46,"ADDRESS":"公園南路２３３巷６２號","OBJECTID":382264},"geometry":{"x":168477.80999999959,"y":2544613.4600000028}},{"attributes":{"ID":382275,"DIS_CODE":0,"TOWNNAME":"北區","LI":"三德里","LIN":"9鄰","STREET":"公園南路","SECT":" ","MAREA":" ","LANE":"２３３巷","ALLEY":" ","HOUSE_NO":"６６號","E_COORD97":168476.67000000001,"N_COORD97":2544611.1800000002,"ADDRESS":"公園南路２３３巷６６號","OBJECTID":382265},"geometry":{"x":168476.67000000086,"y":2544611.1799999997}},{"attributes":{"ID":382276,"DIS_CODE":0,"TOWNNAME":"永康區","LI":"蔦松里","LIN":"9鄰","STREET":"正北三路","SECT":" ","MAREA":" ","LANE":"１１３巷","ALLEY":" ","HOUSE_NO":"１３號","E_COORD97":174332.17000000001,"N_COORD97":2549957.75,"ADDRESS":"正北三路１１３巷１３號","OBJECTID":382266},"geometry":{"x":174332.17000000086,"y":2549957.75}},{"attributes":{"ID":382277,"DIS_CODE":0,"TOWNNAME":"歸仁區","LI":"武東里","LIN":"9鄰","STREET":"武東三街","SECT":" ","MAREA":" ","LANE":"２１巷","ALLEY":" ","HOUSE_NO":"６號","E_COORD97":175228.34,"N_COORD97":2535191.25,"ADDRESS":"武東三街２１巷６號","OBJECTID":382267},"geometry":{"x":175228.33999999985,"y":2535191.2500000019}},{"attributes":{"ID":382278,"DIS_CODE":0,"TOWNNAME":"歸仁區","LI":"看西里","LIN":"9鄰","STREET":"仁愛五街","SECT":" ","MAREA":" ","LANE":"２巷","ALLEY":" ","HOUSE_NO":"１４號","E_COORD97":178343.13,"N_COORD97":2540281.2000000002,"ADDRESS":"仁愛五街２巷１４號","OBJECTID":382268},"geometry":{"x":178343.13000000082,"y":2540281.1999999993}},{"attributes":{"ID":382279,"DIS_CODE":0,"TOWNNAME":"歸仁區","LI":"許厝里","LIN":"9鄰","STREET":"信義南路","SECT":" ","MAREA":" ","LANE":"１２７巷","ALLEY":" ","HOUSE_NO":"１７號","E_COORD97":178192.19,"N_COORD97":2540428.1000000001,"ADDRESS":"信義南路１２７巷１７號","OBJECTID":382269},"geometry":{"x":178192.19000000134,"y":2540428.0999999996}},{"attributes":{"ID":382280,"DIS_CODE":0,"TOWNNAME":"歸仁區","LI":"南保里","LIN":"9鄰","STREET":"文化十街","SECT":" ","MAREA":" ","LANE":"２８巷","ALLEY":" ","HOUSE_NO":"７３號","E_COORD97":176746.89000000001,"N_COORD97":2541334.3300000001,"ADDRESS":"文化十街２８巷７３號","OBJECTID":382270},"geometry":{"x":176746.88999999966,"y":2541334.3300000019}},{"attributes":{"ID":382281,"DIS_CODE":0,"TOWNNAME":"歸仁區","LI":"南保里","LIN":"9鄰","STREET":"文化十街","SECT":" ","MAREA":" ","LANE":"２８巷","ALLEY":" ","HOUSE_NO":"８３號","E_COORD97":176766.39000000001,"N_COORD97":2541333.3300000001,"ADDRESS":"文化十街２８巷８３號","OBJECTID":382271},"geometry":{"x":176766.3900000006,"y":2541333.3299999982}},{"attributes":{"ID":382282,"DIS_CODE":0,"TOWNNAME":"永康區","LI":"網寮里","LIN":"11鄰","STREET":"永勝街","SECT":" ","MAREA":" ","LANE":"２１８巷","ALLEY":" ","HOUSE_NO":"１號","E_COORD97":173338.60000000001,"N_COORD97":2546497.0499999998,"ADDRESS":"永勝街２１８巷１號","OBJECTID":382272},"geometry":{"x":173338.60000000149,"y":2546497.0500000026}},{"attributes":{"ID":382283,"DIS_CODE":0,"TOWNNAME":"永康區","LI":"龍潭里","LIN":"39鄰","STREET":"永明街","SECT":" ","MAREA":" ","LANE":"２７３巷","ALLEY":" ","HOUSE_NO":"１２號","E_COORD97":174674.35000000001,"N_COORD97":2547250.48,"ADDRESS":"永明街２７３巷１２號","OBJECTID":382273},"geometry":{"x":174674.35000000149,"y":2547250.4800000023}},{"attributes":{"ID":382284,"DIS_CODE":0,"TOWNNAME":"永康區","LI":"網寮里","LIN":"1鄰","STREET":"永二街","SECT":" ","MAREA":" ","LANE":"８９巷","ALLEY":" ","HOUSE_NO":"２１號","E_COORD97":173638.44,"N_COORD97":2546537.4199999999,"ADDRESS":"永二街８９巷２１號","OBJECTID":382274},"geometry":{"x":173638.44000000041,"y":2546537.4200000018}},{"attributes":{"ID":382285,"DIS_CODE":0,"TOWNNAME":"永康區","LI":"龍潭里","LIN":"31鄰","STREET":"龍中街","SECT":" ","MAREA":" ","LANE":"３０巷","ALLEY":" ","HOUSE_NO":"８１號","E_COORD97":174663.64999999999,"N_COORD97":2547822.6400000001,"ADDRESS":"龍中街３０巷８１號","OBJECTID":382275},"geometry":{"x":174663.6500000013,"y":2547822.6400000025}},{"attributes":{"ID":382286,"DIS_CODE":0,"TOWNNAME":"永康區","LI":"龍潭里","LIN":"44鄰","STREET":"永平街","SECT":" ","MAREA":" ","LANE":"２９８巷","ALLEY":" ","HOUSE_NO":"８之１３號","E_COORD97":174661.41,"N_COORD97":2547120.04,"ADDRESS":"永平街２９８巷８之１３號","OBJECTID":382276},"geometry":{"x":174661.41000000108,"y":2547120.040000001}},{"attributes":{"ID":382287,"DIS_CODE":0,"TOWNNAME":"歸仁區","LI":"武東里","LIN":"9鄰","STREET":"武東三街","SECT":" ","MAREA":" ","LANE":"４５巷","ALLEY":" ","HOUSE_NO":"１１號","E_COORD97":175169.19,"N_COORD97":2535215.25,"ADDRESS":"武東三街４５巷１１號","OBJECTID":382277},"geometry":{"x":175169.19000000041,"y":2535215.2500000019}},{"attributes":{"ID":382288,"DIS_CODE":0,"TOWNNAME":"歸仁區","LI":"媽廟里","LIN":"9鄰","STREET":"和順路","SECT":"一段","MAREA":" ","LANE":"２８８巷","ALLEY":" ","HOUSE_NO":"３５號","E_COORD97":176791.29000000001,"N_COORD97":2543825.2799999998,"ADDRESS":"和順路一段２８８巷３５號","OBJECTID":382278},"geometry":{"x":176791.29000000097,"y":2543825.2800000012}},{"attributes":{"ID":382289,"DIS_CODE":0,"TOWNNAME":"玉井區","LI":"玉井里","LIN":"9鄰","STREET":"民生路","SECT":" ","MAREA":" ","LANE":"１１巷","ALLEY":" ","HOUSE_NO":"１６號","E_COORD97":194722.98999999999,"N_COORD97":2558229.29,"ADDRESS":"民生路１１巷１６號","OBJECTID":382279},"geometry":{"x":194722.99000000209,"y":2558229.2899999991}},{"attributes":{"ID":382290,"DIS_CODE":0,"TOWNNAME":"永康區","LI":"龍潭里","LIN":"44鄰","STREET":"永平街","SECT":" ","MAREA":" ","LANE":"２９８巷","ALLEY":" ","HOUSE_NO":"１３之１０號","E_COORD97":174662.17999999999,"N_COORD97":2547136.4399999999,"ADDRESS":"永平街２９８巷１３之１０號","OBJECTID":382280},"geometry":{"x":174662.18000000063,"y":2547136.4400000032}},{"attributes":{"ID":382291,"DIS_CODE":0,"TOWNNAME":"玉井區","LI":"中正里","LIN":"9鄰","STREET":"大成路","SECT":" ","MAREA":" ","LANE":"７８０巷","ALLEY":" ","HOUSE_NO":"１１號","E_COORD97":195423.01000000001,"N_COORD97":2559182.27,"ADDRESS":"大成路７８０巷１１號","OBJECTID":382281},"geometry":{"x":195423.01000000071,"y":2559182.2699999996}},{"attributes":{"ID":382292,"DIS_CODE":0,"TOWNNAME":"玉井區","LI":"竹圍里","LIN":"9鄰","STREET":"武成街","SECT":" ","MAREA":" ","LANE":"２６９巷","ALLEY":" ","HOUSE_NO":"３６號","E_COORD97":196121.5,"N_COORD97":2559093.3599999999,"ADDRESS":"武成街２６９巷３６號","OBJECTID":382282},"geometry":{"x":196121.50000000093,"y":2559093.3599999994}},{"attributes":{"ID":382293,"DIS_CODE":0,"TOWNNAME":"玉井區","LI":"竹圍里","LIN":"9鄰","STREET":"武成街","SECT":" ","MAREA":" ","LANE":"２６９巷","ALLEY":" ","HOUSE_NO":"２５號","E_COORD97":196143.59,"N_COORD97":2559083.21,"ADDRESS":"武成街２６９巷２５號","OBJECTID":382283},"geometry":{"x":196143.58999999985,"y":2559083.2100000009}},{"attributes":{"ID":382294,"DIS_CODE":0,"TOWNNAME":"玉井區","LI":"玉田里","LIN":"9鄰","STREET":"大道街","SECT":" ","MAREA":" ","LANE":"１８巷","ALLEY":" ","HOUSE_NO":"２號","E_COORD97":194905,"N_COORD97":2558050.25,"ADDRESS":"大道街１８巷２號","OBJECTID":382284},"geometry":{"x":194905,"y":2558050.25}},{"attributes":{"ID":382295,"DIS_CODE":0,"TOWNNAME":"玉井區","LI":"中正里","LIN":"9鄰","STREET":"大埕街","SECT":" ","MAREA":" ","LANE":"８２巷","ALLEY":" ","HOUSE_NO":"１０號","E_COORD97":195473.16,"N_COORD97":2558828.2400000002,"ADDRESS":"大埕街８２巷１０號","OBJECTID":382285},"geometry":{"x":195473.16000000108,"y":2558828.2400000002}},{"attributes":{"ID":382296,"DIS_CODE":0,"TOWNNAME":"玉井區","LI":"竹圍里","LIN":"9鄰","STREET":"武成街","SECT":" ","MAREA":" ","LANE":"２６９巷","ALLEY":" ","HOUSE_NO":"２３號","E_COORD97":196146.91,"N_COORD97":2559095.04,"ADDRESS":"武成街２６９巷２３號","OBJECTID":382286},"geometry":{"x":196146.91000000015,"y":2559095.0399999991}},{"attributes":{"ID":382297,"DIS_CODE":0,"TOWNNAME":"永康區","LI":"龍潭里","LIN":"42鄰","STREET":"永平街","SECT":" ","MAREA":" ","LANE":"７５９巷","ALLEY":" ","HOUSE_NO":"４２號","E_COORD97":174578.76999999999,"N_COORD97":2547053,"ADDRESS":"永平街７５９巷４２號","OBJECTID":382287},"geometry":{"x":174578.77000000048,"y":2547053.0000000019}},{"attributes":{"ID":382298,"DIS_CODE":0,"TOWNNAME":"玉井區","LI":"玉田里","LIN":"9鄰","STREET":"大道街","SECT":" ","MAREA":" ","LANE":"１８巷","ALLEY":" ","HOUSE_NO":"１號","E_COORD97":194911.01000000001,"N_COORD97":2558019.25,"ADDRESS":"大道街１８巷１號","OBJECTID":382288},"geometry":{"x":194911.01000000071,"y":2558019.2500000019}},{"attributes":{"ID":382299,"DIS_CODE":0,"TOWNNAME":"永康區","LI":"龍潭里","LIN":"23鄰","STREET":"自強路","SECT":" ","MAREA":" ","LANE":"７５０巷","ALLEY":" ","HOUSE_NO":"７０號","E_COORD97":174578.29000000001,"N_COORD97":2548458.2200000002,"ADDRESS":"自強路７５０巷７０號","OBJECTID":382289},"geometry":{"x":174578.29000000004,"y":2548458.2200000044}},{"attributes":{"ID":382300,"DIS_CODE":0,"TOWNNAME":"永康區","LI":"龍潭里","LIN":"35鄰","STREET":"自強路","SECT":" ","MAREA":" ","LANE":"７５０巷","ALLEY":" ","HOUSE_NO":"６１號","E_COORD97":174544.5,"N_COORD97":2548475.3199999998,"ADDRESS":"自強路７５０巷６１號","OBJECTID":382290},"geometry":{"x":174544.5,"y":2548475.3200000022}},{"attributes":{"ID":382301,"DIS_CODE":0,"TOWNNAME":"玉井區","LI":"竹圍里","LIN":"9鄰","STREET":"武成街","SECT":" ","MAREA":" ","LANE":"１２２巷","ALLEY":" ","HOUSE_NO":"１６號","E_COORD97":196115.81,"N_COORD97":2558990.9500000002,"ADDRESS":"武成街１２２巷１６號","OBJECTID":382291},"geometry":{"x":196115.81000000052,"y":2558990.9499999993}},{"attributes":{"ID":382302,"DIS_CODE":0,"TOWNNAME":"玉井區","LI":"竹圍里","LIN":"9鄰","STREET":"武成街","SECT":" ","MAREA":" ","LANE":"１６７巷","ALLEY":" ","HOUSE_NO":"５１號","E_COORD97":196128.45999999999,"N_COORD97":2559062.1099999999,"ADDRESS":"武成街１６７巷５１號","OBJECTID":382292},"geometry":{"x":196128.46000000089,"y":2559062.1099999994}},{"attributes":{"ID":382303,"DIS_CODE":0,"TOWNNAME":"玉井區","LI":"竹圍里","LIN":"9鄰","STREET":"武成街","SECT":" ","MAREA":" ","LANE":"１６７巷","ALLEY":" ","HOUSE_NO":"４５號","E_COORD97":196149.35999999999,"N_COORD97":2559064.0299999998,"ADDRESS":"武成街１６７巷４５號","OBJECTID":382293},"geometry":{"x":196149.36000000034,"y":2559064.0300000012}},{"attributes":{"ID":382304,"DIS_CODE":0,"TOWNNAME":"永康區","LI":"蔦松里","LIN":"9鄰","STREET":"正北三路","SECT":" ","MAREA":" ","LANE":"９１巷","ALLEY":" ","HOUSE_NO":"６號","E_COORD97":174416.04999999999,"N_COORD97":2549915.9900000002,"ADDRESS":"正北三路９１巷６號","OBJECTID":382294},"geometry":{"x":174416.05000000075,"y":2549915.9900000002}},{"attributes":{"ID":382305,"DIS_CODE":0,"TOWNNAME":"學甲區","LI":"慈福里","LIN":"9鄰","STREET":"民族路","SECT":" ","MAREA":" ","LANE":"１１巷","ALLEY":" ","HOUSE_NO":"１０號","E_COORD97":166499.82999999999,"N_COORD97":2570059.7400000002,"ADDRESS":"民族路１１巷１０號","OBJECTID":382295},"geometry":{"x":166499.83000000101,"y":2570059.7400000002}},{"attributes":{"ID":382306,"DIS_CODE":0,"TOWNNAME":"學甲區","LI":"慈福里","LIN":"9鄰","STREET":"民族路","SECT":" ","MAREA":" ","LANE":"１１巷","ALLEY":" ","HOUSE_NO":"１２號","E_COORD97":166504.75,"N_COORD97":2570084.7400000002,"ADDRESS":"民族路１１巷１２號","OBJECTID":382296},"geometry":{"x":166504.75000000093,"y":2570084.7400000039}},{"attributes":{"ID":382307,"DIS_CODE":0,"TOWNNAME":"學甲區","LI":"慈福里","LIN":"9鄰","STREET":"民族路","SECT":" ","MAREA":" ","LANE":"１１巷","ALLEY":" ","HOUSE_NO":"１４號","E_COORD97":166484.76999999999,"N_COORD97":2570068.2599999998,"ADDRESS":"民族路１１巷１４號","OBJECTID":382297},"geometry":{"x":166484.76999999955,"y":2570068.2600000016}},{"attributes":{"ID":382308,"DIS_CODE":0,"TOWNNAME":"學甲區","LI":"慈福里","LIN":"9鄰","STREET":"民族路","SECT":" ","MAREA":" ","LANE":"１１巷","ALLEY":" ","HOUSE_NO":"１號之１","E_COORD97":166530.42999999999,"N_COORD97":2570019.1099999999,"ADDRESS":"民族路１１巷１號之１","OBJECTID":382298},"geometry":{"x":166530.43000000063,"y":2570019.1099999994}},{"attributes":{"ID":382309,"DIS_CODE":0,"TOWNNAME":"學甲區","LI":"慈福里","LIN":"9鄰","STREET":"民族路","SECT":" ","MAREA":" ","LANE":"１１巷","ALLEY":" ","HOUSE_NO":"３號之１","E_COORD97":166519.29000000001,"N_COORD97":2570021.04,"ADDRESS":"民族路１１巷３號之１","OBJECTID":382299},"geometry":{"x":166519.29000000004,"y":2570021.040000001}},{"attributes":{"ID":382310,"DIS_CODE":0,"TOWNNAME":"學甲區","LI":"慈福里","LIN":"9鄰","STREET":"民族路","SECT":" ","MAREA":" ","LANE":"１１巷","ALLEY":" ","HOUSE_NO":"３號","E_COORD97":166524.85999999999,"N_COORD97":2570020.0699999998,"ADDRESS":"民族路１１巷３號","OBJECTID":382300},"geometry":{"x":166524.86000000127,"y":2570020.0700000003}},{"attributes":{"ID":382311,"DIS_CODE":0,"TOWNNAME":"學甲區","LI":"慈福里","LIN":"9鄰","STREET":"民族路","SECT":" ","MAREA":" ","LANE":"１１巷","ALLEY":" ","HOUSE_NO":"６號","E_COORD97":166520.60000000001,"N_COORD97":2570057.1400000001,"ADDRESS":"民族路１１巷６號","OBJECTID":382301},"geometry":{"x":166520.60000000056,"y":2570057.1400000006}},{"attributes":{"ID":382312,"DIS_CODE":0,"TOWNNAME":"學甲區","LI":"慈福里","LIN":"9鄰","STREET":"民族路","SECT":" ","MAREA":" ","LANE":"１１巷","ALLEY":" ","HOUSE_NO":"７號","E_COORD97":166500.84,"N_COORD97":2570018.54,"ADDRESS":"民族路１１巷７號","OBJECTID":382302},"geometry":{"x":166500.84000000078,"y":2570018.540000001}},{"attributes":{"ID":382313,"DIS_CODE":0,"TOWNNAME":"學甲區","LI":"慈福里","LIN":"9鄰","STREET":"民族路","SECT":" ","MAREA":" ","LANE":"１１巷","ALLEY":" ","HOUSE_NO":"８號","E_COORD97":166525.47,"N_COORD97":2570080.6800000002,"ADDRESS":"民族路１１巷８號","OBJECTID":382303},"geometry":{"x":166525.47000000067,"y":2570080.6799999997}},{"attributes":{"ID":382314,"DIS_CODE":0,"TOWNNAME":"學甲區","LI":"慈福里","LIN":"9鄰","STREET":"民族路","SECT":" ","MAREA":" ","LANE":"１２巷","ALLEY":" ","HOUSE_NO":"１０號","E_COORD97":166622.26000000001,"N_COORD97":2570034.4500000002,"ADDRESS":"民族路１２巷１０號","OBJECTID":382304},"geometry":{"x":166622.25999999978,"y":2570034.4499999993}},{"attributes":{"ID":382315,"DIS_CODE":0,"TOWNNAME":"學甲區","LI":"慈福里","LIN":"9鄰","STREET":"民族路","SECT":" ","MAREA":" ","LANE":"１２巷","ALLEY":" ","HOUSE_NO":"１１號","E_COORD97":166693.95000000001,"N_COORD97":2570093.8700000001,"ADDRESS":"民族路１２巷１１號","OBJECTID":382305},"geometry":{"x":166693.95000000112,"y":2570093.870000001}},{"attributes":{"ID":382316,"DIS_CODE":0,"TOWNNAME":"學甲區","LI":"慈福里","LIN":"9鄰","STREET":"民族路","SECT":" ","MAREA":" ","LANE":"１２巷","ALLEY":" ","HOUSE_NO":"１３號","E_COORD97":166679.73999999999,"N_COORD97":2570068.1499999999,"ADDRESS":"民族路１２巷１３號","OBJECTID":382306},"geometry":{"x":166679.74000000115,"y":2570068.1500000004}},{"attributes":{"ID":382317,"DIS_CODE":0,"TOWNNAME":"學甲區","LI":"慈福里","LIN":"9鄰","STREET":"民族路","SECT":" ","MAREA":" ","LANE":"１２巷","ALLEY":" ","HOUSE_NO":"１５號","E_COORD97":166671.03,"N_COORD97":2570048.75,"ADDRESS":"民族路１２巷１５號","OBJECTID":382307},"geometry":{"x":166671.03000000119,"y":2570048.7500000019}},{"attributes":{"ID":382318,"DIS_CODE":0,"TOWNNAME":"學甲區","LI":"慈福里","LIN":"9鄰","STREET":"民族路","SECT":" ","MAREA":" ","LANE":"１２巷","ALLEY":" ","HOUSE_NO":"１６號","E_COORD97":166656.92999999999,"N_COORD97":2569977.5499999998,"ADDRESS":"民族路１２巷１６號","OBJECTID":382308},"geometry":{"x":166656.9299999997,"y":2569977.5500000007}},{"attributes":{"ID":382319,"DIS_CODE":0,"TOWNNAME":"學甲區","LI":"慈福里","LIN":"9鄰","STREET":"民族路","SECT":" ","MAREA":" ","LANE":"１２巷","ALLEY":" ","HOUSE_NO":"２號之２","E_COORD97":166684.48999999999,"N_COORD97":2569980.6400000001,"ADDRESS":"民族路１２巷２號之２","OBJECTID":382309},"geometry":{"x":166684.49000000209,"y":2569980.6400000043}},{"attributes":{"ID":382320,"DIS_CODE":0,"TOWNNAME":"永康區","LI":"網寮里","LIN":"24鄰","STREET":"永春街","SECT":" ","MAREA":" ","LANE":"３６巷","ALLEY":" ","HOUSE_NO":"６號","E_COORD97":173764.01999999999,"N_COORD97":2546379.6699999999,"ADDRESS":"永春街３６巷６號","OBJECTID":382310},"geometry":{"x":173764.01999999955,"y":2546379.6700000018}},{"attributes":{"ID":382321,"DIS_CODE":0,"TOWNNAME":"永康區","LI":"龍潭里","LIN":"44鄰","STREET":"永平街","SECT":" ","MAREA":" ","LANE":"２９８巷","ALLEY":" ","HOUSE_NO":"２之１８號","E_COORD97":174661.01000000001,"N_COORD97":2547103.79,"ADDRESS":"永平街２９８巷２之１８號","OBJECTID":382311},"geometry":{"x":174661.00999999978,"y":2547103.790000001}},{"attributes":{"ID":382322,"DIS_CODE":0,"TOWNNAME":"永康區","LI":"龍潭里","LIN":"44鄰","STREET":"永平街","SECT":" ","MAREA":" ","LANE":"２９８巷","ALLEY":" ","HOUSE_NO":"２之６號","E_COORD97":174659.76000000001,"N_COORD97":2547103.79,"ADDRESS":"永平街２９８巷２之６號","OBJECTID":382312},"geometry":{"x":174659.76000000164,"y":2547103.790000001}},{"attributes":{"ID":382323,"DIS_CODE":0,"TOWNNAME":"永康區","LI":"龍潭里","LIN":"44鄰","STREET":"永平街","SECT":" ","MAREA":" ","LANE":"２９８巷","ALLEY":" ","HOUSE_NO":"６之３號","E_COORD97":174684.95000000001,"N_COORD97":2547119.29,"ADDRESS":"永平街２９８巷６之３號","OBJECTID":382313},"geometry":{"x":174684.95000000112,"y":2547119.2899999991}},{"attributes":{"ID":382324,"DIS_CODE":0,"TOWNNAME":"學甲區","LI":"慈福里","LIN":"9鄰","STREET":"民族路","SECT":" ","MAREA":" ","LANE":"１２巷","ALLEY":" ","HOUSE_NO":"２號之３","E_COORD97":166680.14999999999,"N_COORD97":2570002.7200000002,"ADDRESS":"民族路１２巷２號之３","OBJECTID":382314},"geometry":{"x":166680.14999999944,"y":2570002.7200000007}},{"attributes":{"ID":382325,"DIS_CODE":0,"TOWNNAME":"學甲區","LI":"慈福里","LIN":"9鄰","STREET":"民族路","SECT":" ","MAREA":" ","LANE":"１２巷","ALLEY":" ","HOUSE_NO":"２號之４","E_COORD97":166674.06,"N_COORD97":2570003.3799999999,"ADDRESS":"民族路１２巷２號之４","OBJECTID":382315},"geometry":{"x":166674.06000000052,"y":2570003.379999999}},{"attributes":{"ID":382326,"DIS_CODE":0,"TOWNNAME":"學甲區","LI":"慈福里","LIN":"9鄰","STREET":"民族路","SECT":" ","MAREA":" ","LANE":"１２巷","ALLEY":" ","HOUSE_NO":"２號之６","E_COORD97":166669.01999999999,"N_COORD97":2569988.2599999998,"ADDRESS":"民族路１２巷２號之６","OBJECTID":382316},"geometry":{"x":166669.02000000048,"y":2569988.2599999998}},{"attributes":{"ID":382327,"DIS_CODE":0,"TOWNNAME":"學甲區","LI":"慈福里","LIN":"9鄰","STREET":"民族路","SECT":" ","MAREA":" ","LANE":"１２巷","ALLEY":" ","HOUSE_NO":"５號之１","E_COORD97":166687.31,"N_COORD97":2570131.4199999999,"ADDRESS":"民族路１２巷５號之１","OBJECTID":382317},"geometry":{"x":166687.31000000052,"y":2570131.4200000018}},{"attributes":{"ID":382328,"DIS_CODE":0,"TOWNNAME":"學甲區","LI":"慈福里","LIN":"9鄰","STREET":"民族路","SECT":" ","MAREA":" ","LANE":"１２巷","ALLEY":" ","HOUSE_NO":"５號","E_COORD97":166687.25,"N_COORD97":2570126,"ADDRESS":"民族路１２巷５號","OBJECTID":382318},"geometry":{"x":166687.25,"y":2570126}},{"attributes":{"ID":382329,"DIS_CODE":0,"TOWNNAME":"學甲區","LI":"慈福里","LIN":"9鄰","STREET":"民族路","SECT":" ","MAREA":" ","LANE":"１２巷","ALLEY":" ","HOUSE_NO":"８號之３","E_COORD97":166623.75,"N_COORD97":2570108.6800000002,"ADDRESS":"民族路１２巷８號之３","OBJECTID":382319},"geometry":{"x":166623.75000000093,"y":2570108.6800000016}},{"attributes":{"ID":382330,"DIS_CODE":0,"TOWNNAME":"學甲區","LI":"慈福里","LIN":"9鄰","STREET":"民族路","SECT":" ","MAREA":" ","LANE":"１２巷","ALLEY":" ","HOUSE_NO":"８號之６","E_COORD97":166655.26000000001,"N_COORD97":2570037.1400000001,"ADDRESS":"民族路１２巷８號之６","OBJECTID":382320},"geometry":{"x":166655.26000000071,"y":2570037.1400000006}},{"attributes":{"ID":382331,"DIS_CODE":0,"TOWNNAME":"學甲區","LI":"慈福里","LIN":"9鄰","STREET":"民族路","SECT":" ","MAREA":" ","LANE":"１２巷","ALLEY":" ","HOUSE_NO":"８號","E_COORD97":166613.39000000001,"N_COORD97":2570034.4199999999,"ADDRESS":"民族路１２巷８號","OBJECTID":382321},"geometry":{"x":166613.39000000153,"y":2570034.4199999999}},{"attributes":{"ID":382332,"DIS_CODE":0,"TOWNNAME":"學甲區","LI":"慈福里","LIN":"9鄰","STREET":"民族路","SECT":" ","MAREA":" ","LANE":"１２巷","ALLEY":" ","HOUSE_NO":"９號之１","E_COORD97":166658.59,"N_COORD97":2570113.5099999998,"ADDRESS":"民族路１２巷９號之１","OBJECTID":382322},"geometry":{"x":166658.59000000078,"y":2570113.5100000016}},{"attributes":{"ID":382333,"DIS_CODE":0,"TOWNNAME":"學甲區","LI":"慈福里","LIN":"9鄰","STREET":"民族路","SECT":" ","MAREA":" ","LANE":"１２巷","ALLEY":" ","HOUSE_NO":"９號","E_COORD97":166686.41,"N_COORD97":2570115.4900000002,"ADDRESS":"民族路１２巷９號","OBJECTID":382323},"geometry":{"x":166686.41000000015,"y":2570115.4900000002}},{"attributes":{"ID":382334,"DIS_CODE":0,"TOWNNAME":"永康區","LI":"蔦松里","LIN":"7鄰","STREET":"蔦松一街","SECT":" ","MAREA":" ","LANE":"２２巷","ALLEY":" ","HOUSE_NO":"８號","E_COORD97":174043.78,"N_COORD97":2549398.2999999998,"ADDRESS":"蔦松一街２２巷８號","OBJECTID":382324},"geometry":{"x":174043.78000000119,"y":2549398.3000000026}},{"attributes":{"ID":382335,"DIS_CODE":0,"TOWNNAME":"永康區","LI":"網寮里","LIN":"15鄰","STREET":"永勝街","SECT":" ","MAREA":" ","LANE":"２４８巷","ALLEY":" ","HOUSE_NO":"１１號","E_COORD97":173419.31,"N_COORD97":2546635.0099999998,"ADDRESS":"永勝街２４８巷１１號","OBJECTID":382325},"geometry":{"x":173419.30999999959,"y":2546635.0100000016}},{"attributes":{"ID":382336,"DIS_CODE":0,"TOWNNAME":"學甲區","LI":"仁得里","LIN":"9鄰","STREET":"成功路","SECT":" ","MAREA":" ","LANE":"７巷","ALLEY":" ","HOUSE_NO":"８號","E_COORD97":166098.10999999999,"N_COORD97":2570197.3500000001,"ADDRESS":"成功路７巷８號","OBJECTID":382326},"geometry":{"x":166098.11000000127,"y":2570197.3499999996}},{"attributes":{"ID":382337,"DIS_CODE":0,"TOWNNAME":"永康區","LI":"龍潭里","LIN":"38鄰","STREET":"中山北路","SECT":" ","MAREA":" ","LANE":"１６４巷","ALLEY":" ","HOUSE_NO":"８２號之１２","E_COORD97":174451.42000000001,"N_COORD97":2547386.9199999999,"ADDRESS":"中山北路１６４巷８２號之１２","OBJECTID":382327},"geometry":{"x":174451.41999999993,"y":2547386.9199999999}},{"attributes":{"ID":382338,"DIS_CODE":0,"TOWNNAME":"永康區","LI":"龍潭里","LIN":"38鄰","STREET":"中山北路","SECT":" ","MAREA":" ","LANE":"１６４巷","ALLEY":" ","HOUSE_NO":"８２號之６","E_COORD97":174450.14000000001,"N_COORD97":2547386.9199999999,"ADDRESS":"中山北路１６４巷８２號之６","OBJECTID":382328},"geometry":{"x":174450.13999999966,"y":2547386.9199999999}},{"attributes":{"ID":382339,"DIS_CODE":0,"TOWNNAME":"永康區","LI":"蔦松里","LIN":"8鄰","STREET":"中正北路","SECT":" ","MAREA":" ","LANE":"４２９巷","ALLEY":" ","HOUSE_NO":"７號","E_COORD97":173592.48000000001,"N_COORD97":2549189.4900000002,"ADDRESS":"中正北路４２９巷７號","OBJECTID":382329},"geometry":{"x":173592.48000000045,"y":2549189.4900000021}},{"attributes":{"ID":382340,"DIS_CODE":0,"TOWNNAME":"學甲區","LI":"明宜里","LIN":"9鄰","STREET":"信義路","SECT":" ","MAREA":" ","LANE":"５９巷","ALLEY":" ","HOUSE_NO":"４號","E_COORD97":165874.06,"N_COORD97":2570525.0800000001,"ADDRESS":"信義路５９巷４號","OBJECTID":382330},"geometry":{"x":165874.05999999959,"y":2570525.0800000001}},{"attributes":{"ID":382341,"DIS_CODE":0,"TOWNNAME":"學甲區","LI":"明宜里","LIN":"9鄰","STREET":"信義路","SECT":" ","MAREA":" ","LANE":"５９巷","ALLEY":" ","HOUSE_NO":"５號","E_COORD97":165857.10000000001,"N_COORD97":2570512.1499999999,"ADDRESS":"信義路５９巷５號","OBJECTID":382331},"geometry":{"x":165857.09999999963,"y":2570512.1500000004}},{"attributes":{"ID":382342,"DIS_CODE":0,"TOWNNAME":"永康區","LI":"網寮里","LIN":"14鄰","STREET":"永勝街","SECT":" ","MAREA":" ","LANE":"２４６巷","ALLEY":" ","HOUSE_NO":"１２號","E_COORD97":173394.26000000001,"N_COORD97":2546602.4900000002,"ADDRESS":"永勝街２４６巷１２號","OBJECTID":382332},"geometry":{"x":173394.26000000071,"y":2546602.4900000021}},{"attributes":{"ID":382343,"DIS_CODE":0,"TOWNNAME":"永康區","LI":"網寮里","LIN":"1鄰","STREET":"永二街","SECT":" ","MAREA":" ","LANE":"８９巷","ALLEY":" ","HOUSE_NO":"２７號","E_COORD97":173661.42999999999,"N_COORD97":2546567.79,"ADDRESS":"永二街８９巷２７號","OBJECTID":382333},"geometry":{"x":173661.4299999997,"y":2546567.790000001}},{"attributes":{"ID":382344,"DIS_CODE":0,"TOWNNAME":"永康區","LI":"蔦松里","LIN":"9鄰","STREET":"正北三路","SECT":" ","MAREA":" ","LANE":"９１巷","ALLEY":" ","HOUSE_NO":"７號","E_COORD97":174423.63,"N_COORD97":2549896.7400000002,"ADDRESS":"正北三路９１巷７號","OBJECTID":382334},"geometry":{"x":174423.63000000082,"y":2549896.7400000002}},{"attributes":{"ID":382345,"DIS_CODE":0,"TOWNNAME":"永康區","LI":"網寮里","LIN":"5鄰","STREET":"永二街","SECT":" ","MAREA":" ","LANE":"１４５巷","ALLEY":" ","HOUSE_NO":"１號","E_COORD97":173523.57999999999,"N_COORD97":2546439.0499999998,"ADDRESS":"永二街１４５巷１號","OBJECTID":382335},"geometry":{"x":173523.58000000007,"y":2546439.0500000026}},{"attributes":{"ID":382346,"DIS_CODE":0,"TOWNNAME":"永康區","LI":"新樹里","LIN":"7鄰","STREET":"西勢路","SECT":" ","MAREA":" ","LANE":"２２８巷","ALLEY":" ","HOUSE_NO":"６０號","E_COORD97":175756.14999999999,"N_COORD97":2546896.71,"ADDRESS":"西勢路２２８巷６０號","OBJECTID":382336},"geometry":{"x":175756.14999999944,"y":2546896.7100000028}},{"attributes":{"ID":382347,"DIS_CODE":0,"TOWNNAME":"永康區","LI":"蔦松里","LIN":"6鄰","STREET":"蔦松一街","SECT":" ","MAREA":" ","LANE":"７４巷","ALLEY":" ","HOUSE_NO":"４３號","E_COORD97":173943.78,"N_COORD97":2549564.4900000002,"ADDRESS":"蔦松一街７４巷４３號","OBJECTID":382337},"geometry":{"x":173943.78000000119,"y":2549564.4900000039}},{"attributes":{"ID":382348,"DIS_CODE":0,"TOWNNAME":"永康區","LI":"龍潭里","LIN":"44鄰","STREET":"永平街","SECT":" ","MAREA":" ","LANE":"２９８巷","ALLEY":" ","HOUSE_NO":"６之１５號","E_COORD97":174686.20000000001,"N_COORD97":2547119.29,"ADDRESS":"永平街２９８巷６之１５號","OBJECTID":382338},"geometry":{"x":174686.20000000205,"y":2547119.2899999991}},{"attributes":{"ID":382349,"DIS_CODE":0,"TOWNNAME":"永康區","LI":"網寮里","LIN":"14鄰","STREET":"永勝街","SECT":" ","MAREA":" ","LANE":"２４６巷","ALLEY":" ","HOUSE_NO":"３號","E_COORD97":173382.67999999999,"N_COORD97":2546617.71,"ADDRESS":"永勝街２４６巷３號","OBJECTID":382339},"geometry":{"x":173382.68000000063,"y":2546617.7100000028}},{"attributes":{"ID":382350,"DIS_CODE":0,"TOWNNAME":"永康區","LI":"網寮里","LIN":"14鄰","STREET":"永勝街","SECT":" ","MAREA":" ","LANE":"２４６巷","ALLEY":" ","HOUSE_NO":"１０號","E_COORD97":173389.35999999999,"N_COORD97":2546604.7400000002,"ADDRESS":"永勝街２４６巷１０號","OBJECTID":382340},"geometry":{"x":173389.36000000034,"y":2546604.7400000002}},{"attributes":{"ID":382351,"DIS_CODE":0,"TOWNNAME":"永康區","LI":"蔦松里","LIN":"9鄰","STREET":"正北三路","SECT":" ","MAREA":" ","LANE":"１１３巷","ALLEY":" ","HOUSE_NO":"６號","E_COORD97":174351.57000000001,"N_COORD97":2549993.4900000002,"ADDRESS":"正北三路１１３巷６號","OBJECTID":382341},"geometry":{"x":174351.57000000123,"y":2549993.4900000002}},{"attributes":{"ID":382352,"DIS_CODE":0,"TOWNNAME":"永康區","LI":"蔦松里","LIN":"7鄰","STREET":"蔦松一街","SECT":" ","MAREA":" ","LANE":"２２巷","ALLEY":" ","HOUSE_NO":"２３號","E_COORD97":174081.29000000001,"N_COORD97":2549450.4199999999,"ADDRESS":"蔦松一街２２巷２３號","OBJECTID":382342},"geometry":{"x":174081.29000000004,"y":2549450.4200000018}},{"attributes":{"ID":382353,"DIS_CODE":0,"TOWNNAME":"永康區","LI":"龍潭里","LIN":"44鄰","STREET":"永平街","SECT":" ","MAREA":" ","LANE":"２９８巷","ALLEY":" ","HOUSE_NO":"５之１５號","E_COORD97":174661.41,"N_COORD97":2547120.04,"ADDRESS":"永平街２９８巷５之１５號","OBJECTID":382343},"geometry":{"x":174661.41000000108,"y":2547120.040000001}},{"attributes":{"ID":382354,"DIS_CODE":0,"TOWNNAME":"永康區","LI":"龍潭里","LIN":"44鄰","STREET":"永平街","SECT":" ","MAREA":" ","LANE":"２９８巷","ALLEY":" ","HOUSE_NO":"８之６號","E_COORD97":174660.16,"N_COORD97":2547120.04,"ADDRESS":"永平街２９８巷８之６號","OBJECTID":382344},"geometry":{"x":174660.16000000015,"y":2547120.040000001}},{"attributes":{"ID":382355,"DIS_CODE":0,"TOWNNAME":"永康區","LI":"網寮里","LIN":"23鄰","STREET":"永春街","SECT":" ","MAREA":" ","LANE":"２０巷","ALLEY":" ","HOUSE_NO":"１４號","E_COORD97":173809.79000000001,"N_COORD97":2546290.9900000002,"ADDRESS":"永春街２０巷１４號","OBJECTID":382345},"geometry":{"x":173809.79000000004,"y":2546290.9900000021}},{"attributes":{"ID":382356,"DIS_CODE":0,"TOWNNAME":"永康區","LI":"龍潭里","LIN":"44鄰","STREET":"永平街","SECT":" ","MAREA":" ","LANE":"２９８巷","ALLEY":" ","HOUSE_NO":"６之６號","E_COORD97":174660.16,"N_COORD97":2547120.04,"ADDRESS":"永平街２９８巷６之６號","OBJECTID":382346},"geometry":{"x":174660.16000000015,"y":2547120.040000001}},{"attributes":{"ID":382357,"DIS_CODE":0,"TOWNNAME":"北區","LI":"和順里","LIN":"9鄰","STREET":"育德路","SECT":" ","MAREA":" ","LANE":"１７巷","ALLEY":" ","HOUSE_NO":"６號","E_COORD97":168276.35000000001,"N_COORD97":2545194.1200000001,"ADDRESS":"育德路１７巷６號","OBJECTID":382347},"geometry":{"x":168276.34999999963,"y":2545194.1200000048}},{"attributes":{"ID":382358,"DIS_CODE":0,"TOWNNAME":"永康區","LI":"龍潭里","LIN":"44鄰","STREET":"永平街","SECT":" ","MAREA":" ","LANE":"２９８巷","ALLEY":" ","HOUSE_NO":"１１之１７號","E_COORD97":174654.87,"N_COORD97":2547150.1899999999,"ADDRESS":"永平街２９８巷１１之１７號","OBJECTID":382348},"geometry":{"x":174654.87000000104,"y":2547150.1899999995}},{"attributes":{"ID":382359,"DIS_CODE":0,"TOWNNAME":"永康區","LI":"龍潭里","LIN":"44鄰","STREET":"永平街","SECT":" ","MAREA":" ","LANE":"２９８巷","ALLEY":" ","HOUSE_NO":"１１之２５號","E_COORD97":174654.87,"N_COORD97":2547150.1899999999,"ADDRESS":"永平街２９８巷１１之２５號","OBJECTID":382349},"geometry":{"x":174654.87000000104,"y":2547150.1899999995}},{"attributes":{"ID":382360,"DIS_CODE":0,"TOWNNAME":"永康區","LI":"龍潭里","LIN":"38鄰","STREET":"中山北路","SECT":" ","MAREA":" ","LANE":"１６４巷","ALLEY":" ","HOUSE_NO":"８２號之２５","E_COORD97":174451.44,"N_COORD97":2547386.9199999999,"ADDRESS":"中山北路１６４巷８２號之２５","OBJECTID":382350},"geometry":{"x":174451.44000000134,"y":2547386.9199999999}},{"attributes":{"ID":382361,"DIS_CODE":0,"TOWNNAME":"永康區","LI":"復興里","LIN":"14鄰","STREET":"復興路","SECT":" ","MAREA":" ","LANE":"２８２巷","ALLEY":" ","HOUSE_NO":"３７號","E_COORD97":172372.73000000001,"N_COORD97":2544390.27,"ADDRESS":"復興路２８２巷３７號","OBJECTID":382351},"geometry":{"x":172372.73000000138,"y":2544390.2699999996}},{"attributes":{"ID":382362,"DIS_CODE":0,"TOWNNAME":"北區","LI":"延平里","LIN":"9鄰","STREET":"長榮路","SECT":"五段","MAREA":" ","LANE":"４０１巷","ALLEY":" ","HOUSE_NO":"１３７號","E_COORD97":169292.60000000001,"N_COORD97":2545741.4500000002,"ADDRESS":"長榮路五段４０１巷１３７號","OBJECTID":382352},"geometry":{"x":169292.60000000056,"y":2545741.4499999993}},{"attributes":{"ID":382363,"DIS_CODE":0,"TOWNNAME":"北區","LI":"延平里","LIN":"9鄰","STREET":"長榮路","SECT":"五段","MAREA":" ","LANE":"４０１巷","ALLEY":" ","HOUSE_NO":"１３９號","E_COORD97":169302.32000000001,"N_COORD97":2545733.7000000002,"ADDRESS":"長榮路五段４０１巷１３９號","OBJECTID":382353},"geometry":{"x":169302.3200000003,"y":2545733.6999999993}},{"attributes":{"ID":382364,"DIS_CODE":0,"TOWNNAME":"北區","LI":"延平里","LIN":"9鄰","STREET":"長榮路","SECT":"五段","MAREA":" ","LANE":"４０１巷","ALLEY":" ","HOUSE_NO":"１４１號","E_COORD97":169312.01000000001,"N_COORD97":2545730.9199999999,"ADDRESS":"長榮路五段４０１巷１４１號","OBJECTID":382354},"geometry":{"x":169312.01000000071,"y":2545730.9200000018}},{"attributes":{"ID":382365,"DIS_CODE":0,"TOWNNAME":"北區","LI":"延平里","LIN":"9鄰","STREET":"長榮路","SECT":"五段","MAREA":" ","LANE":"４０１巷","ALLEY":" ","HOUSE_NO":"１４３號","E_COORD97":169315.84,"N_COORD97":2545729.6600000001,"ADDRESS":"長榮路五段４０１巷１４３號","OBJECTID":382355},"geometry":{"x":169315.83999999985,"y":2545729.660000002}},{"attributes":{"ID":382366,"DIS_CODE":0,"TOWNNAME":"北區","LI":"延平里","LIN":"9鄰","STREET":"長榮路","SECT":"五段","MAREA":" ","LANE":"４０１巷","ALLEY":" ","HOUSE_NO":"１４５號","E_COORD97":169319.66,"N_COORD97":2545728.75,"ADDRESS":"長榮路五段４０１巷１４５號","OBJECTID":382356},"geometry":{"x":169319.66000000108,"y":2545728.7500000019}},{"attributes":{"ID":382367,"DIS_CODE":0,"TOWNNAME":"北區","LI":"延平里","LIN":"9鄰","STREET":"長榮路","SECT":"五段","MAREA":" ","LANE":"４０１巷","ALLEY":" ","HOUSE_NO":"１４７號","E_COORD97":169289.82000000001,"N_COORD97":2545723.75,"ADDRESS":"長榮路五段４０１巷１４７號","OBJECTID":382357},"geometry":{"x":169289.82000000123,"y":2545723.75}},{"attributes":{"ID":382368,"DIS_CODE":0,"TOWNNAME":"北區","LI":"和順里","LIN":"9鄰","STREET":"育德路","SECT":" ","MAREA":" ","LANE":"１７巷","ALLEY":" ","HOUSE_NO":"１０號","E_COORD97":168268.14000000001,"N_COORD97":2545199.54,"ADDRESS":"育德路１７巷１０號","OBJECTID":382358},"geometry":{"x":168268.1400000006,"y":2545199.5400000028}},{"attributes":{"ID":382369,"DIS_CODE":0,"TOWNNAME":"北區","LI":"和順里","LIN":"9鄰","STREET":"育德路","SECT":" ","MAREA":" ","LANE":"１７巷","ALLEY":" ","HOUSE_NO":"１２號","E_COORD97":168263.95999999999,"N_COORD97":2545202.1800000002,"ADDRESS":"育德路１７巷１２號","OBJECTID":382359},"geometry":{"x":168263.95999999996,"y":2545202.1799999997}},{"attributes":{"ID":382370,"DIS_CODE":0,"TOWNNAME":"北區","LI":"和順里","LIN":"9鄰","STREET":"育德路","SECT":" ","MAREA":" ","LANE":"１７巷","ALLEY":" ","HOUSE_NO":"１４號","E_COORD97":168272.73000000001,"N_COORD97":2545214.4100000001,"ADDRESS":"育德路１７巷１４號","OBJECTID":382360},"geometry":{"x":168272.73000000045,"y":2545214.4100000001}},{"attributes":{"ID":382371,"DIS_CODE":0,"TOWNNAME":"北區","LI":"和順里","LIN":"9鄰","STREET":"育德路","SECT":" ","MAREA":" ","LANE":"１７巷","ALLEY":" ","HOUSE_NO":"１６號","E_COORD97":168277.04000000001,"N_COORD97":2545212.1899999999,"ADDRESS":"育德路１７巷１６號","OBJECTID":382361},"geometry":{"x":168277.04000000004,"y":2545212.1899999976}},{"attributes":{"ID":382372,"DIS_CODE":0,"TOWNNAME":"北區","LI":"和順里","LIN":"9鄰","STREET":"育德路","SECT":" ","MAREA":" ","LANE":"１７巷","ALLEY":" ","HOUSE_NO":"１８號","E_COORD97":168280.94,"N_COORD97":2545208.9900000002,"ADDRESS":"育德路１７巷１８號","OBJECTID":382362},"geometry":{"x":168280.94000000134,"y":2545208.9900000021}},{"attributes":{"ID":382373,"DIS_CODE":0,"TOWNNAME":"北區","LI":"和順里","LIN":"9鄰","STREET":"育德路","SECT":" ","MAREA":" ","LANE":"１７巷","ALLEY":" ","HOUSE_NO":"２０號","E_COORD97":168284.41,"N_COORD97":2545205.79,"ADDRESS":"育德路１７巷２０號","OBJECTID":382363},"geometry":{"x":168284.41000000108,"y":2545205.790000001}},{"attributes":{"ID":382374,"DIS_CODE":0,"TOWNNAME":"北區","LI":"和順里","LIN":"9鄰","STREET":"育德路","SECT":" ","MAREA":" ","LANE":"１７巷","ALLEY":" ","HOUSE_NO":"２２號","E_COORD97":168288.45000000001,"N_COORD97":2545202.8700000001,"ADDRESS":"育德路１７巷２２號","OBJECTID":382364},"geometry":{"x":168288.45000000205,"y":2545202.8700000048}},{"attributes":{"ID":382375,"DIS_CODE":0,"TOWNNAME":"永康區","LI":"龍潭里","LIN":"23鄰","STREET":"自強路","SECT":" ","MAREA":" ","LANE":"７５０巷","ALLEY":" ","HOUSE_NO":"４６號","E_COORD97":174495.51000000001,"N_COORD97":2548461.1299999999,"ADDRESS":"自強路７５０巷４６號","OBJECTID":382365},"geometry":{"x":174495.51000000071,"y":2548461.1300000008}},{"attributes":{"ID":382376,"DIS_CODE":0,"TOWNNAME":"永康區","LI":"龍潭里","LIN":"38鄰","STREET":"中山北路","SECT":" ","MAREA":" ","LANE":"１６４巷","ALLEY":" ","HOUSE_NO":"６０號","E_COORD97":174356.16,"N_COORD97":2547390.5299999998,"ADDRESS":"中山北路１６４巷６０號","OBJECTID":382366},"geometry":{"x":174356.16000000108,"y":2547390.5300000012}},{"attributes":{"ID":382377,"DIS_CODE":0,"TOWNNAME":"永康區","LI":"蔦松里","LIN":"6鄰","STREET":"蔦松一街","SECT":" ","MAREA":" ","LANE":"７４巷","ALLEY":" ","HOUSE_NO":"４０號","E_COORD97":173930.78,"N_COORD97":2549553,"ADDRESS":"蔦松一街７４巷４０號","OBJECTID":382367},"geometry":{"x":173930.78000000026,"y":2549553}},{"attributes":{"ID":382378,"DIS_CODE":0,"TOWNNAME":"永康區","LI":"網寮里","LIN":"10鄰","STREET":"永勝街","SECT":" ","MAREA":" ","LANE":"２１８巷","ALLEY":" ","HOUSE_NO":"１２號","E_COORD97":173361.59,"N_COORD97":2546459.5,"ADDRESS":"永勝街２１８巷１２號","OBJECTID":382368},"geometry":{"x":173361.59000000078,"y":2546459.5000000019}},{"attributes":{"ID":382379,"DIS_CODE":0,"TOWNNAME":"北區","LI":"和順里","LIN":"9鄰","STREET":"育德路","SECT":" ","MAREA":" ","LANE":"１７巷","ALLEY":" ","HOUSE_NO":"２４號","E_COORD97":168293.17999999999,"N_COORD97":2545201.21,"ADDRESS":"育德路１７巷２４號","OBJECTID":382369},"geometry":{"x":168293.18000000156,"y":2545201.2100000028}},{"attributes":{"ID":382380,"DIS_CODE":0,"TOWNNAME":"北區","LI":"和順里","LIN":"9鄰","STREET":"育德路","SECT":" ","MAREA":" ","LANE":"１７巷","ALLEY":" ","HOUSE_NO":"２６號","E_COORD97":168305.07000000001,"N_COORD97":2545217.2200000002,"ADDRESS":"育德路１７巷２６號","OBJECTID":382370},"geometry":{"x":168305.07000000123,"y":2545217.2200000025}},{"attributes":{"ID":382381,"DIS_CODE":0,"TOWNNAME":"北區","LI":"和順里","LIN":"9鄰","STREET":"育德路","SECT":" ","MAREA":" ","LANE":"１７巷","ALLEY":" ","HOUSE_NO":"２８號","E_COORD97":168300.94,"N_COORD97":2545220.5299999998,"ADDRESS":"育德路１７巷２８號","OBJECTID":382371},"geometry":{"x":168300.94000000134,"y":2545220.5300000012}},{"attributes":{"ID":382382,"DIS_CODE":0,"TOWNNAME":"北區","LI":"和順里","LIN":"9鄰","STREET":"育德路","SECT":" ","MAREA":" ","LANE":"１７巷","ALLEY":" ","HOUSE_NO":"２號","E_COORD97":168284.41,"N_COORD97":2545187.4500000002,"ADDRESS":"育德路１７巷２號","OBJECTID":382372},"geometry":{"x":168284.41000000108,"y":2545187.4500000011}},{"attributes":{"ID":382383,"DIS_CODE":0,"TOWNNAME":"北區","LI":"和順里","LIN":"9鄰","STREET":"育德路","SECT":" ","MAREA":" ","LANE":"１７巷","ALLEY":" ","HOUSE_NO":"３０號","E_COORD97":168296.94,"N_COORD97":2545223.1400000001,"ADDRESS":"育德路１７巷３０號","OBJECTID":382373},"geometry":{"x":168296.94000000041,"y":2545223.1400000006}},{"attributes":{"ID":382384,"DIS_CODE":0,"TOWNNAME":"北區","LI":"和順里","LIN":"9鄰","STREET":"育德路","SECT":" ","MAREA":" ","LANE":"１７巷","ALLEY":" ","HOUSE_NO":"３２號","E_COORD97":168293.35999999999,"N_COORD97":2545225.7599999998,"ADDRESS":"育德路１７巷３２號","OBJECTID":382374},"geometry":{"x":168293.36000000127,"y":2545225.7600000035}},{"attributes":{"ID":382385,"DIS_CODE":0,"TOWNNAME":"北區","LI":"和順里","LIN":"9鄰","STREET":"育德路","SECT":" ","MAREA":" ","LANE":"１７巷","ALLEY":" ","HOUSE_NO":"３４號","E_COORD97":168288.95000000001,"N_COORD97":2545228.9199999999,"ADDRESS":"育德路１７巷３４號","OBJECTID":382375},"geometry":{"x":168288.95000000112,"y":2545228.9200000018}},{"attributes":{"ID":382386,"DIS_CODE":0,"TOWNNAME":"北區","LI":"和順里","LIN":"9鄰","STREET":"育德路","SECT":" ","MAREA":" ","LANE":"１７巷","ALLEY":" ","HOUSE_NO":"３６號","E_COORD97":168284.73000000001,"N_COORD97":2545231.21,"ADDRESS":"育德路１７巷３６號","OBJECTID":382376},"geometry":{"x":168284.73000000045,"y":2545231.2100000028}},{"attributes":{"ID":382387,"DIS_CODE":0,"TOWNNAME":"北區","LI":"和順里","LIN":"9鄰","STREET":"育德路","SECT":" ","MAREA":" ","LANE":"１７巷","ALLEY":" ","HOUSE_NO":"３號","E_COORD97":168266.84,"N_COORD97":2545173.23,"ADDRESS":"育德路１７巷３號","OBJECTID":382377},"geometry":{"x":168266.84000000171,"y":2545173.2300000023}},{"attributes":{"ID":382388,"DIS_CODE":0,"TOWNNAME":"北區","LI":"和順里","LIN":"9鄰","STREET":"育德路","SECT":" ","MAREA":" ","LANE":"１７巷","ALLEY":" ","HOUSE_NO":"４號","E_COORD97":168280.51999999999,"N_COORD97":2545191.6200000001,"ADDRESS":"育德路１７巷４號","OBJECTID":382378},"geometry":{"x":168280.52000000142,"y":2545191.6200000029}},{"attributes":{"ID":382389,"DIS_CODE":0,"TOWNNAME":"北區","LI":"和順里","LIN":"9鄰","STREET":"育德路","SECT":" ","MAREA":" ","LANE":"１７巷","ALLEY":" ","HOUSE_NO":"５號","E_COORD97":168261.73999999999,"N_COORD97":2545177.0099999998,"ADDRESS":"育德路１７巷５號","OBJECTID":382379},"geometry":{"x":168261.74000000115,"y":2545177.0100000016}},{"attributes":{"ID":382390,"DIS_CODE":0,"TOWNNAME":"北區","LI":"和順里","LIN":"9鄰","STREET":"育德路","SECT":" ","MAREA":" ","LANE":"１７巷","ALLEY":" ","HOUSE_NO":"７號","E_COORD97":168256.45000000001,"N_COORD97":2545179.46,"ADDRESS":"育德路１７巷７號","OBJECTID":382380},"geometry":{"x":168256.45000000112,"y":2545179.4600000028}},{"attributes":{"ID":382391,"DIS_CODE":0,"TOWNNAME":"北區","LI":"和順里","LIN":"9鄰","STREET":"育德路","SECT":" ","MAREA":" ","LANE":"１７巷","ALLEY":" ","HOUSE_NO":"８號","E_COORD97":168272.17000000001,"N_COORD97":2545196.6200000001,"ADDRESS":"育德路１７巷８號","OBJECTID":382381},"geometry":{"x":168272.17000000086,"y":2545196.620000001}},{"attributes":{"ID":382392,"DIS_CODE":0,"TOWNNAME":"北區","LI":"和順里","LIN":"9鄰","STREET":"育德路","SECT":" ","MAREA":" ","LANE":"１７巷","ALLEY":" ","HOUSE_NO":"９號","E_COORD97":168252.48000000001,"N_COORD97":2545183.4199999999,"ADDRESS":"育德路１７巷９號","OBJECTID":382382},"geometry":{"x":168252.48000000045,"y":2545183.4199999999}},{"attributes":{"ID":382393,"DIS_CODE":0,"TOWNNAME":"北區","LI":"六甲里","LIN":"9鄰","STREET":"西門路","SECT":"四段","MAREA":" ","LANE":"３３０巷","ALLEY":" ","HOUSE_NO":"１１號","E_COORD97":169028.45999999999,"N_COORD97":2545999.3100000001,"ADDRESS":"西門路四段３３０巷１１號","OBJECTID":382383},"geometry":{"x":169028.45999999996,"y":2545999.3100000042}},{"attributes":{"ID":382394,"DIS_CODE":0,"TOWNNAME":"北區","LI":"六甲里","LIN":"9鄰","STREET":"西門路","SECT":"四段","MAREA":" ","LANE":"３３０巷","ALLEY":" ","HOUSE_NO":"１３號","E_COORD97":169032.70000000001,"N_COORD97":2545998.9300000002,"ADDRESS":"西門路四段３３０巷１３號","OBJECTID":382384},"geometry":{"x":169032.70000000205,"y":2545998.9300000016}},{"attributes":{"ID":382395,"DIS_CODE":0,"TOWNNAME":"北區","LI":"六甲里","LIN":"9鄰","STREET":"西門路","SECT":"四段","MAREA":" ","LANE":"３３０巷","ALLEY":" ","HOUSE_NO":"１５號","E_COORD97":169038.48999999999,"N_COORD97":2545999.7000000002,"ADDRESS":"西門路四段３３０巷１５號","OBJECTID":382385},"geometry":{"x":169038.49000000022,"y":2545999.7000000011}},{"attributes":{"ID":382396,"DIS_CODE":0,"TOWNNAME":"北區","LI":"六甲里","LIN":"9鄰","STREET":"西門路","SECT":"四段","MAREA":" ","LANE":"３３０巷","ALLEY":" ","HOUSE_NO":"１號","E_COORD97":169008.78,"N_COORD97":2546003.5499999998,"ADDRESS":"西門路四段３３０巷１號","OBJECTID":382386},"geometry":{"x":169008.78000000119,"y":2546003.5500000007}},{"attributes":{"ID":382397,"DIS_CODE":0,"TOWNNAME":"永康區","LI":"網寮里","LIN":"3鄰","STREET":"永二街","SECT":" ","MAREA":" ","LANE":"５４巷","ALLEY":" ","HOUSE_NO":"５號","E_COORD97":173585.87,"N_COORD97":2546689.9900000002,"ADDRESS":"永二街５４巷５號","OBJECTID":382387},"geometry":{"x":173585.87000000011,"y":2546689.9900000021}},{"attributes":{"ID":382398,"DIS_CODE":0,"TOWNNAME":"永康區","LI":"蔦松里","LIN":"8鄰","STREET":"中正北路","SECT":" ","MAREA":" ","LANE":"４２９巷","ALLEY":" ","HOUSE_NO":"１號","E_COORD97":173590.16,"N_COORD97":2549172.7400000002,"ADDRESS":"中正北路４２９巷１號","OBJECTID":382388},"geometry":{"x":173590.16000000108,"y":2549172.7400000039}},{"attributes":{"ID":382399,"DIS_CODE":0,"TOWNNAME":"永康區","LI":"網寮里","LIN":"10鄰","STREET":"永勝街","SECT":" ","MAREA":" ","LANE":"２１８巷","ALLEY":" ","HOUSE_NO":"２號","E_COORD97":173354.35000000001,"N_COORD97":2546479.5,"ADDRESS":"永勝街２１８巷２號","OBJECTID":382389},"geometry":{"x":173354.35000000056,"y":2546479.5000000019}},{"attributes":{"ID":382400,"DIS_CODE":0,"TOWNNAME":"北區","LI":"六甲里","LIN":"9鄰","STREET":"西門路","SECT":"四段","MAREA":" ","LANE":"３３０巷","ALLEY":" ","HOUSE_NO":"２９號","E_COORD97":169075.98000000001,"N_COORD97":2545990.2200000002,"ADDRESS":"西門路四段３３０巷２９號","OBJECTID":382390},"geometry":{"x":169075.98000000045,"y":2545990.2200000025}},{"attributes":{"ID":382401,"DIS_CODE":0,"TOWNNAME":"北區","LI":"六甲里","LIN":"9鄰","STREET":"西門路","SECT":"四段","MAREA":" ","LANE":"３３０巷","ALLEY":" ","HOUSE_NO":"３０號","E_COORD97":169067.67999999999,"N_COORD97":2545980.6699999999,"ADDRESS":"西門路四段３３０巷３０號","OBJECTID":382391},"geometry":{"x":169067.6799999997,"y":2545980.6700000018}},{"attributes":{"ID":382402,"DIS_CODE":0,"TOWNNAME":"北區","LI":"六甲里","LIN":"9鄰","STREET":"西門路","SECT":"四段","MAREA":" ","LANE":"３３０巷","ALLEY":" ","HOUSE_NO":"３１號","E_COORD97":169084.47,"N_COORD97":2545990.6099999999,"ADDRESS":"西門路四段３３０巷３１號","OBJECTID":382392},"geometry":{"x":169084.46999999881,"y":2545990.6100000013}},{"attributes":{"ID":382403,"DIS_CODE":0,"TOWNNAME":"北區","LI":"六甲里","LIN":"9鄰","STREET":"西門路","SECT":"四段","MAREA":" ","LANE":"３３０巷","ALLEY":" ","HOUSE_NO":"３２號","E_COORD97":169076.34,"N_COORD97":2545981.5299999998,"ADDRESS":"西門路四段３３０巷３２號","OBJECTID":382393},"geometry":{"x":169076.33999999985,"y":2545981.5299999993}},{"attributes":{"ID":382404,"DIS_CODE":0,"TOWNNAME":"北區","LI":"六甲里","LIN":"9鄰","STREET":"西門路","SECT":"四段","MAREA":" ","LANE":"３３０巷","ALLEY":" ","HOUSE_NO":"３３號","E_COORD97":169092.95999999999,"N_COORD97":2545990.0299999998,"ADDRESS":"西門路四段３３０巷３３號","OBJECTID":382394},"geometry":{"x":169092.95999999996,"y":2545990.0300000012}},{"attributes":{"ID":382405,"DIS_CODE":0,"TOWNNAME":"北區","LI":"六甲里","LIN":"9鄰","STREET":"西門路","SECT":"四段","MAREA":" ","LANE":"３３０巷","ALLEY":" ","HOUSE_NO":"３４號","E_COORD97":169085.29000000001,"N_COORD97":2545980.8199999998,"ADDRESS":"西門路四段３３０巷３４號","OBJECTID":382395},"geometry":{"x":169085.29000000004,"y":2545980.8200000003}},{"attributes":{"ID":382406,"DIS_CODE":0,"TOWNNAME":"北區","LI":"六甲里","LIN":"9鄰","STREET":"西門路","SECT":"四段","MAREA":" ","LANE":"３３０巷","ALLEY":" ","HOUSE_NO":"３７號","E_COORD97":169102.98999999999,"N_COORD97":2545986.5600000001,"ADDRESS":"西門路四段３３０巷３７號","OBJECTID":382396},"geometry":{"x":169102.99000000022,"y":2545986.5600000005}},{"attributes":{"ID":382407,"DIS_CODE":0,"TOWNNAME":"北區","LI":"六甲里","LIN":"9鄰","STREET":"西門路","SECT":"四段","MAREA":" ","LANE":"３３０巷","ALLEY":" ","HOUSE_NO":"３９號","E_COORD97":169116.16,"N_COORD97":2545993.2599999998,"ADDRESS":"西門路四段３３０巷３９號","OBJECTID":382397},"geometry":{"x":169116.16000000108,"y":2545993.2600000016}},{"attributes":{"ID":382408,"DIS_CODE":0,"TOWNNAME":"北區","LI":"六甲里","LIN":"9鄰","STREET":"西門路","SECT":"四段","MAREA":" ","LANE":"３３０巷","ALLEY":" ","HOUSE_NO":"３號","E_COORD97":169012.82999999999,"N_COORD97":2546003.1699999999,"ADDRESS":"西門路四段３３０巷３號","OBJECTID":382398},"geometry":{"x":169012.83000000007,"y":2546003.1700000037}},{"attributes":{"ID":382409,"DIS_CODE":0,"TOWNNAME":"北區","LI":"六甲里","LIN":"9鄰","STREET":"西門路","SECT":"四段","MAREA":" ","LANE":"３３０巷","ALLEY":" ","HOUSE_NO":"４７號","E_COORD97":169139.70000000001,"N_COORD97":2545987.6699999999,"ADDRESS":"西門路四段３３０巷４７號","OBJECTID":382399},"geometry":{"x":169139.70000000112,"y":2545987.6700000018}},{"attributes":{"ID":382410,"DIS_CODE":0,"TOWNNAME":"北區","LI":"六甲里","LIN":"9鄰","STREET":"西門路","SECT":"四段","MAREA":" ","LANE":"３３０巷","ALLEY":" ","HOUSE_NO":"５號","E_COORD97":169016.29999999999,"N_COORD97":2546001.6200000001,"ADDRESS":"西門路四段３３０巷５號","OBJECTID":382400},"geometry":{"x":169016.30000000168,"y":2546001.6200000029}}]}