{"displayFieldName":"TOWNNAME","fieldAliases":{"ID":"ID","DIS_CODE":"DIS_CODE","TOWNNAME":"TOWNNAME","LI":"LI","LIN":"LIN","STREET":"STREET","SECT":"SECT","MAREA":"MAREA","LANE":"LANE","ALLEY":"ALLEY","HOUSE_NO":"HOUSE_NO","E_COORD97":"E_COORD97","N_COORD97":"N_COORD97","ADDRESS":"ADDRESS","OBJECTID":"OBJECTID"},"geometryType":"esriGeometryPoint","spatialReference":{"wkid":102443,"latestWkid":3826},"fields":[{"name":"ID","type":"esriFieldTypeDouble","alias":"ID"},{"name":"DIS_CODE","type":"esriFieldTypeInteger","alias":"DIS_CODE"},{"name":"TOWNNAME","type":"esriFieldTypeString","alias":"TOWNNAME","length":8},{"name":"LI","type":"esriFieldTypeString","alias":"LI","length":8},{"name":"LIN","type":"esriFieldTypeString","alias":"LIN","length":12},{"name":"STREET","type":"esriFieldTypeString","alias":"STREET","length":20},{"name":"SECT","type":"esriFieldTypeString","alias":"SECT","length":8},{"name":"MAREA","type":"esriFieldTypeString","alias":"MAREA","length":12},{"name":"LANE","type":"esriFieldTypeString","alias":"LANE","length":10},{"name":"ALLEY","type":"esriFieldTypeString","alias":"ALLEY","length":10},{"name":"HOUSE_NO","type":"esriFieldTypeString","alias":"HOUSE_NO","length":20},{"name":"E_COORD97","type":"esriFieldTypeDouble","alias":"E_COORD97"},{"name":"N_COORD97","type":"esriFieldTypeDouble","alias":"N_COORD97"},{"name":"ADDRESS","type":"esriFieldTypeString","alias":"ADDRESS","length":50},{"name":"OBJECTID","type":"esriFieldTypeOID","alias":"OBJECTID"}],"features":[{"attributes":{"ID":153602,"DIS_CODE":0,"TOWNNAME":"將軍區","LI":"苓和里","LIN":"5鄰","STREET":" ","SECT":" ","MAREA":"苓和","LANE":" ","ALLEY":" ","HOUSE_NO":"４４之１號","E_COORD97":164597.79000000001,"N_COORD97":2569066.8799999999,"ADDRESS":"苓和４４之１號","OBJECTID":153601},"geometry":{"x":164597.79000000097,"y":2569066.8800000008}},{"attributes":{"ID":153603,"DIS_CODE":0,"TOWNNAME":"將軍區","LI":"苓和里","LIN":"5鄰","STREET":" ","SECT":" ","MAREA":"苓和","LANE":" ","ALLEY":" ","HOUSE_NO":"４４號","E_COORD97":164614.84,"N_COORD97":2569067.3799999999,"ADDRESS":"苓和４４號","OBJECTID":153602},"geometry":{"x":164614.83999999985,"y":2569067.379999999}},{"attributes":{"ID":153604,"DIS_CODE":0,"TOWNNAME":"將軍區","LI":"苓和里","LIN":"5鄰","STREET":" ","SECT":" ","MAREA":"苓和","LANE":" ","ALLEY":" ","HOUSE_NO":"４５號","E_COORD97":164564.70000000001,"N_COORD97":2569063.1600000001,"ADDRESS":"苓和４５號","OBJECTID":153603},"geometry":{"x":164564.70000000112,"y":2569063.1600000001}},{"attributes":{"ID":153605,"DIS_CODE":0,"TOWNNAME":"將軍區","LI":"苓和里","LIN":"5鄰","STREET":" ","SECT":" ","MAREA":"苓和","LANE":" ","ALLEY":" ","HOUSE_NO":"４６之１號","E_COORD97":164595.91,"N_COORD97":2569025.8500000001,"ADDRESS":"苓和４６之１號","OBJECTID":153604},"geometry":{"x":164595.91000000015,"y":2569025.8500000015}},{"attributes":{"ID":153606,"DIS_CODE":0,"TOWNNAME":"安定區","LI":"蘇厝里","LIN":"19鄰","STREET":" ","SECT":" ","MAREA":"蘇厝","LANE":" ","ALLEY":" ","HOUSE_NO":"４６５之１號","E_COORD97":173228.22,"N_COORD97":2558899.2999999998,"ADDRESS":"蘇厝４６５之１號","OBJECTID":153605},"geometry":{"x":173228.22000000067,"y":2558899.3000000007}},{"attributes":{"ID":153607,"DIS_CODE":0,"TOWNNAME":"安定區","LI":"港口里","LIN":"19鄰","STREET":" ","SECT":" ","MAREA":"港口","LANE":" ","ALLEY":" ","HOUSE_NO":"３８５號之１","E_COORD97":171436.82999999999,"N_COORD97":2554977.2999999998,"ADDRESS":"港口３８５號之１","OBJECTID":153606},"geometry":{"x":171436.83000000007,"y":2554977.3000000045}},{"attributes":{"ID":153608,"DIS_CODE":0,"TOWNNAME":"安定區","LI":"海寮里","LIN":"19鄰","STREET":" ","SECT":" ","MAREA":"海寮","LANE":" ","ALLEY":" ","HOUSE_NO":"１９１號之１","E_COORD97":169461.78,"N_COORD97":2555516.2999999998,"ADDRESS":"海寮１９１號之１","OBJECTID":153607},"geometry":{"x":169461.78000000119,"y":2555516.3000000045}},{"attributes":{"ID":153609,"DIS_CODE":0,"TOWNNAME":"永康區","LI":"建國里","LIN":"31鄰","STREET":"復興路","SECT":" ","MAREA":" ","LANE":"７１巷","ALLEY":"１１２弄","HOUSE_NO":"４４號","E_COORD97":172732.53,"N_COORD97":2543667.5099999998,"ADDRESS":"復興路７１巷１１２弄４４號","OBJECTID":153608},"geometry":{"x":172732.53000000026,"y":2543667.5099999998}},{"attributes":{"ID":153610,"DIS_CODE":0,"TOWNNAME":"永康區","LI":"西橋里","LIN":"20鄰","STREET":"大橋三街","SECT":" ","MAREA":" ","LANE":"５７巷","ALLEY":"７弄","HOUSE_NO":"１３號","E_COORD97":170551.78,"N_COORD97":2546524.0499999998,"ADDRESS":"大橋三街５７巷７弄１３號","OBJECTID":153609},"geometry":{"x":170551.78000000119,"y":2546524.0500000026}},{"attributes":{"ID":153611,"DIS_CODE":0,"TOWNNAME":"永康區","LI":"南灣里","LIN":"42鄰","STREET":"南興路","SECT":" ","MAREA":" ","LANE":"１１２巷","ALLEY":"８２弄","HOUSE_NO":"１７號","E_COORD97":174646.26999999999,"N_COORD97":2544477.8999999999,"ADDRESS":"南興路１１２巷８２弄１７號","OBJECTID":153610},"geometry":{"x":174646.27000000048,"y":2544477.9000000022}},{"attributes":{"ID":153612,"DIS_CODE":0,"TOWNNAME":"南區","LI":"南都里","LIN":"2鄰","STREET":"中華南路","SECT":"二段","MAREA":" ","LANE":"３１５巷","ALLEY":"２弄","HOUSE_NO":"１１號二樓","E_COORD97":166407.10000000001,"N_COORD97":2540226.77,"ADDRESS":"中華南路二段３１５巷２弄１１號二樓","OBJECTID":153611},"geometry":{"x":166407.10000000056,"y":2540226.7699999996}},{"attributes":{"ID":153613,"DIS_CODE":0,"TOWNNAME":"南區","LI":"南都里","LIN":"2鄰","STREET":"中華南路","SECT":"二段","MAREA":" ","LANE":"３１５巷","ALLEY":"２弄","HOUSE_NO":"１１號三樓","E_COORD97":166407.10000000001,"N_COORD97":2540226.77,"ADDRESS":"中華南路二段３１５巷２弄１１號三樓","OBJECTID":153612},"geometry":{"x":166407.10000000056,"y":2540226.7699999996}},{"attributes":{"ID":153614,"DIS_CODE":0,"TOWNNAME":"南區","LI":"南都里","LIN":"2鄰","STREET":"中華南路","SECT":"二段","MAREA":" ","LANE":"３１５巷","ALLEY":"２弄","HOUSE_NO":"１１號五樓","E_COORD97":166407.10000000001,"N_COORD97":2540226.77,"ADDRESS":"中華南路二段３１５巷２弄１１號五樓","OBJECTID":153613},"geometry":{"x":166407.10000000056,"y":2540226.7699999996}},{"attributes":{"ID":153615,"DIS_CODE":0,"TOWNNAME":"永康區","LI":"北灣里","LIN":"37鄰","STREET":"大同街","SECT":" ","MAREA":" ","LANE":"３６９巷","ALLEY":"５弄","HOUSE_NO":"９號","E_COORD97":174679.63,"N_COORD97":2546131.75,"ADDRESS":"大同街３６９巷５弄９號","OBJECTID":153614},"geometry":{"x":174679.63000000082,"y":2546131.7500000019}},{"attributes":{"ID":153616,"DIS_CODE":0,"TOWNNAME":"南區","LI":"南都里","LIN":"2鄰","STREET":"中華南路","SECT":"二段","MAREA":" ","LANE":"３１５巷","ALLEY":"２弄","HOUSE_NO":"１１號四樓","E_COORD97":166407.10000000001,"N_COORD97":2540226.77,"ADDRESS":"中華南路二段３１５巷２弄１１號四樓","OBJECTID":153615},"geometry":{"x":166407.10000000056,"y":2540226.7699999996}},{"attributes":{"ID":153617,"DIS_CODE":0,"TOWNNAME":"南區","LI":"南都里","LIN":"2鄰","STREET":"中華南路","SECT":"二段","MAREA":" ","LANE":"３１５巷","ALLEY":"２弄","HOUSE_NO":"１３號二樓","E_COORD97":166397.17000000001,"N_COORD97":2540226.9300000002,"ADDRESS":"中華南路二段３１５巷２弄１３號二樓","OBJECTID":153616},"geometry":{"x":166397.17000000086,"y":2540226.9299999978}},{"attributes":{"ID":153618,"DIS_CODE":0,"TOWNNAME":"南區","LI":"南都里","LIN":"2鄰","STREET":"中華南路","SECT":"二段","MAREA":" ","LANE":"３１５巷","ALLEY":"２弄","HOUSE_NO":"１３號三樓","E_COORD97":166397.17000000001,"N_COORD97":2540226.9300000002,"ADDRESS":"中華南路二段３１５巷２弄１３號三樓","OBJECTID":153617},"geometry":{"x":166397.17000000086,"y":2540226.9299999978}},{"attributes":{"ID":153619,"DIS_CODE":0,"TOWNNAME":"南區","LI":"南都里","LIN":"2鄰","STREET":"中華南路","SECT":"二段","MAREA":" ","LANE":"３１５巷","ALLEY":"２弄","HOUSE_NO":"１３號五樓","E_COORD97":166397.17000000001,"N_COORD97":2540226.9300000002,"ADDRESS":"中華南路二段３１５巷２弄１３號五樓","OBJECTID":153618},"geometry":{"x":166397.17000000086,"y":2540226.9299999978}},{"attributes":{"ID":153620,"DIS_CODE":0,"TOWNNAME":"南區","LI":"南都里","LIN":"2鄰","STREET":"中華南路","SECT":"二段","MAREA":" ","LANE":"３１５巷","ALLEY":"２弄","HOUSE_NO":"１３號四樓","E_COORD97":166397.17000000001,"N_COORD97":2540226.9300000002,"ADDRESS":"中華南路二段３１５巷２弄１３號四樓","OBJECTID":153619},"geometry":{"x":166397.17000000086,"y":2540226.9299999978}},{"attributes":{"ID":153621,"DIS_CODE":0,"TOWNNAME":"南區","LI":"南都里","LIN":"2鄰","STREET":"中華南路","SECT":"二段","MAREA":" ","LANE":"３１５巷","ALLEY":"２弄","HOUSE_NO":"１５號二樓","E_COORD97":166389.48999999999,"N_COORD97":2540226.77,"ADDRESS":"中華南路二段３１５巷２弄１５號二樓","OBJECTID":153620},"geometry":{"x":166389.48999999929,"y":2540226.7699999996}},{"attributes":{"ID":153622,"DIS_CODE":0,"TOWNNAME":"南區","LI":"南都里","LIN":"2鄰","STREET":"中華南路","SECT":"二段","MAREA":" ","LANE":"３１５巷","ALLEY":"２弄","HOUSE_NO":"１５號三樓","E_COORD97":166389.48999999999,"N_COORD97":2540226.77,"ADDRESS":"中華南路二段３１５巷２弄１５號三樓","OBJECTID":153621},"geometry":{"x":166389.48999999929,"y":2540226.7699999996}},{"attributes":{"ID":153623,"DIS_CODE":0,"TOWNNAME":"南區","LI":"南都里","LIN":"2鄰","STREET":"中華南路","SECT":"二段","MAREA":" ","LANE":"３１５巷","ALLEY":"２弄","HOUSE_NO":"１５號五樓","E_COORD97":166389.48999999999,"N_COORD97":2540226.77,"ADDRESS":"中華南路二段３１５巷２弄１５號五樓","OBJECTID":153622},"geometry":{"x":166389.48999999929,"y":2540226.7699999996}},{"attributes":{"ID":153624,"DIS_CODE":0,"TOWNNAME":"南區","LI":"南都里","LIN":"2鄰","STREET":"中華南路","SECT":"二段","MAREA":" ","LANE":"３１５巷","ALLEY":"２弄","HOUSE_NO":"１５號四樓","E_COORD97":166389.48999999999,"N_COORD97":2540226.77,"ADDRESS":"中華南路二段３１５巷２弄１５號四樓","OBJECTID":153623},"geometry":{"x":166389.48999999929,"y":2540226.7699999996}},{"attributes":{"ID":153625,"DIS_CODE":0,"TOWNNAME":"南區","LI":"南都里","LIN":"2鄰","STREET":"中華南路","SECT":"二段","MAREA":" ","LANE":"３１５巷","ALLEY":"２弄","HOUSE_NO":"１７號二樓","E_COORD97":166380.51999999999,"N_COORD97":2540226.4500000002,"ADDRESS":"中華南路二段３１５巷２弄１７號二樓","OBJECTID":153624},"geometry":{"x":166380.52000000048,"y":2540226.450000003}},{"attributes":{"ID":153626,"DIS_CODE":0,"TOWNNAME":"佳里區","LI":"六安里","LIN":"19鄰","STREET":"延平路","SECT":" ","MAREA":" ","LANE":"５７７巷","ALLEY":" ","HOUSE_NO":"１１號","E_COORD97":165890.54999999999,"N_COORD97":2563521.9399999999,"ADDRESS":"延平路５７７巷１１號","OBJECTID":153625},"geometry":{"x":165890.55000000075,"y":2563521.9399999976}},{"attributes":{"ID":153627,"DIS_CODE":0,"TOWNNAME":"中西區","LI":"民生里","LIN":"15鄰","STREET":"南華街","SECT":" ","MAREA":" ","LANE":" ","ALLEY":" ","HOUSE_NO":"７８號","E_COORD97":167122.14999999999,"N_COORD97":2543478.0600000001,"ADDRESS":"南華街７８號","OBJECTID":153626},"geometry":{"x":167122.15000000037,"y":2543478.0600000005}},{"attributes":{"ID":153628,"DIS_CODE":0,"TOWNNAME":"中西區","LI":"民生里","LIN":"15鄰","STREET":"大仁街","SECT":" ","MAREA":" ","LANE":" ","ALLEY":" ","HOUSE_NO":"１２３號","E_COORD97":167198.28,"N_COORD97":2543466.0899999999,"ADDRESS":"大仁街１２３號","OBJECTID":153627},"geometry":{"x":167198.28000000119,"y":2543466.0899999999}},{"attributes":{"ID":153629,"DIS_CODE":0,"TOWNNAME":"中西區","LI":"民生里","LIN":"15鄰","STREET":"大仁街","SECT":" ","MAREA":" ","LANE":" ","ALLEY":" ","HOUSE_NO":"１２５號","E_COORD97":167195.09,"N_COORD97":2543467,"ADDRESS":"大仁街１２５號","OBJECTID":153628},"geometry":{"x":167195.08999999985,"y":2543467}},{"attributes":{"ID":153630,"DIS_CODE":0,"TOWNNAME":"中西區","LI":"民生里","LIN":"15鄰","STREET":"大仁街","SECT":" ","MAREA":" ","LANE":" ","ALLEY":" ","HOUSE_NO":"１２７號","E_COORD97":167191.20999999999,"N_COORD97":2543468.1400000001,"ADDRESS":"大仁街１２７號","OBJECTID":153629},"geometry":{"x":167191.20999999903,"y":2543468.1400000043}},{"attributes":{"ID":153631,"DIS_CODE":0,"TOWNNAME":"中西區","LI":"民生里","LIN":"15鄰","STREET":"大仁街","SECT":" ","MAREA":" ","LANE":" ","ALLEY":" ","HOUSE_NO":"１２９號","E_COORD97":167186.64999999999,"N_COORD97":2543468.6000000001,"ADDRESS":"大仁街１２９號","OBJECTID":153630},"geometry":{"x":167186.65000000037,"y":2543468.6000000015}},{"attributes":{"ID":153632,"DIS_CODE":0,"TOWNNAME":"中西區","LI":"民生里","LIN":"15鄰","STREET":"金華路","SECT":"三段","MAREA":" ","LANE":" ","ALLEY":" ","HOUSE_NO":"９３號","E_COORD97":167201.23999999999,"N_COORD97":2543454.6200000001,"ADDRESS":"金華路三段９３號","OBJECTID":153631},"geometry":{"x":167201.24000000022,"y":2543454.620000001}},{"attributes":{"ID":153633,"DIS_CODE":0,"TOWNNAME":"南區","LI":"南都里","LIN":"2鄰","STREET":"中華南路","SECT":"二段","MAREA":" ","LANE":"３１５巷","ALLEY":"２弄","HOUSE_NO":"１７號三樓","E_COORD97":166380.51999999999,"N_COORD97":2540226.4500000002,"ADDRESS":"中華南路二段３１５巷２弄１７號三樓","OBJECTID":153632},"geometry":{"x":166380.52000000048,"y":2540226.450000003}},{"attributes":{"ID":153634,"DIS_CODE":0,"TOWNNAME":"南區","LI":"南都里","LIN":"2鄰","STREET":"中華南路","SECT":"二段","MAREA":" ","LANE":"３１５巷","ALLEY":"２弄","HOUSE_NO":"１７號五樓","E_COORD97":166380.51999999999,"N_COORD97":2540226.4500000002,"ADDRESS":"中華南路二段３１５巷２弄１７號五樓","OBJECTID":153633},"geometry":{"x":166380.52000000048,"y":2540226.450000003}},{"attributes":{"ID":153635,"DIS_CODE":0,"TOWNNAME":"南區","LI":"南都里","LIN":"2鄰","STREET":"中華南路","SECT":"二段","MAREA":" ","LANE":"３１５巷","ALLEY":"２弄","HOUSE_NO":"１７號四樓","E_COORD97":166380.51999999999,"N_COORD97":2540226.4500000002,"ADDRESS":"中華南路二段３１５巷２弄１７號四樓","OBJECTID":153634},"geometry":{"x":166380.52000000048,"y":2540226.450000003}},{"attributes":{"ID":153636,"DIS_CODE":0,"TOWNNAME":"南區","LI":"南都里","LIN":"2鄰","STREET":"中華南路","SECT":"二段","MAREA":" ","LANE":"３１５巷","ALLEY":"２弄","HOUSE_NO":"１９號二樓","E_COORD97":166373.79999999999,"N_COORD97":2540226.4500000002,"ADDRESS":"中華南路二段３１５巷２弄１９號二樓","OBJECTID":153635},"geometry":{"x":166373.80000000075,"y":2540226.450000003}},{"attributes":{"ID":153637,"DIS_CODE":0,"TOWNNAME":"南區","LI":"南都里","LIN":"2鄰","STREET":"中華南路","SECT":"二段","MAREA":" ","LANE":"３１５巷","ALLEY":"２弄","HOUSE_NO":"１９號三樓","E_COORD97":166373.79999999999,"N_COORD97":2540226.4500000002,"ADDRESS":"中華南路二段３１５巷２弄１９號三樓","OBJECTID":153636},"geometry":{"x":166373.80000000075,"y":2540226.450000003}},{"attributes":{"ID":153638,"DIS_CODE":0,"TOWNNAME":"南區","LI":"南都里","LIN":"2鄰","STREET":"中華南路","SECT":"二段","MAREA":" ","LANE":"３１５巷","ALLEY":"２弄","HOUSE_NO":"１９號五樓","E_COORD97":166373.79999999999,"N_COORD97":2540226.4500000002,"ADDRESS":"中華南路二段３１５巷２弄１９號五樓","OBJECTID":153637},"geometry":{"x":166373.80000000075,"y":2540226.450000003}},{"attributes":{"ID":153639,"DIS_CODE":0,"TOWNNAME":"南區","LI":"南都里","LIN":"2鄰","STREET":"中華南路","SECT":"二段","MAREA":" ","LANE":"３１５巷","ALLEY":"２弄","HOUSE_NO":"１９號四樓","E_COORD97":166373.79999999999,"N_COORD97":2540226.4500000002,"ADDRESS":"中華南路二段３１５巷２弄１９號四樓","OBJECTID":153638},"geometry":{"x":166373.80000000075,"y":2540226.450000003}},{"attributes":{"ID":153640,"DIS_CODE":0,"TOWNNAME":"南區","LI":"南都里","LIN":"2鄰","STREET":"中華南路","SECT":"二段","MAREA":" ","LANE":"３１５巷","ALLEY":"２弄","HOUSE_NO":"１號二樓","E_COORD97":166448.64999999999,"N_COORD97":2540225.8199999998,"ADDRESS":"中華南路二段３１５巷２弄１號二樓","OBJECTID":153639},"geometry":{"x":166448.6500000013,"y":2540225.8200000022}},{"attributes":{"ID":153641,"DIS_CODE":0,"TOWNNAME":"南區","LI":"南都里","LIN":"2鄰","STREET":"中華南路","SECT":"二段","MAREA":" ","LANE":"３１５巷","ALLEY":"２弄","HOUSE_NO":"１號三樓","E_COORD97":166448.64999999999,"N_COORD97":2540225.8199999998,"ADDRESS":"中華南路二段３１５巷２弄１號三樓","OBJECTID":153640},"geometry":{"x":166448.6500000013,"y":2540225.8200000022}},{"attributes":{"ID":153642,"DIS_CODE":0,"TOWNNAME":"南區","LI":"南都里","LIN":"2鄰","STREET":"中華南路","SECT":"二段","MAREA":" ","LANE":"３１５巷","ALLEY":"２弄","HOUSE_NO":"１號五樓","E_COORD97":166448.64999999999,"N_COORD97":2540225.8199999998,"ADDRESS":"中華南路二段３１５巷２弄１號五樓","OBJECTID":153641},"geometry":{"x":166448.6500000013,"y":2540225.8200000022}},{"attributes":{"ID":153643,"DIS_CODE":0,"TOWNNAME":"永康區","LI":"甲頂里","LIN":"19鄰","STREET":"中正南路","SECT":" ","MAREA":" ","LANE":"５２巷","ALLEY":"４６弄","HOUSE_NO":"８７號","E_COORD97":169849.14000000001,"N_COORD97":2546551.6600000001,"ADDRESS":"中正南路５２巷４６弄８７號","OBJECTID":153642},"geometry":{"x":169849.13999999966,"y":2546551.6600000001}},{"attributes":{"ID":153644,"DIS_CODE":0,"TOWNNAME":"永康區","LI":"北灣里","LIN":"21鄰","STREET":"大同街","SECT":" ","MAREA":" ","LANE":"３８０巷","ALLEY":"４１弄","HOUSE_NO":"１７號","E_COORD97":174868.04999999999,"N_COORD97":2546088.3500000001,"ADDRESS":"大同街３８０巷４１弄１７號","OBJECTID":153643},"geometry":{"x":174868.05000000168,"y":2546088.3499999996}},{"attributes":{"ID":153645,"DIS_CODE":0,"TOWNNAME":"東區","LI":"泉南里","LIN":"5鄰","STREET":"府東街","SECT":" ","MAREA":" ","LANE":" ","ALLEY":" ","HOUSE_NO":"２０２號","E_COORD97":169461.23000000001,"N_COORD97":2543083.1299999999,"ADDRESS":"府東街２０２號","OBJECTID":153644},"geometry":{"x":169461.23000000045,"y":2543083.1300000027}},{"attributes":{"ID":153646,"DIS_CODE":0,"TOWNNAME":"東區","LI":"泉南里","LIN":"15鄰","STREET":"府連東路","SECT":" ","MAREA":" ","LANE":" ","ALLEY":" ","HOUSE_NO":"２５號","E_COORD97":169773.81,"N_COORD97":2542782.0499999998,"ADDRESS":"府連東路２５號","OBJECTID":153645},"geometry":{"x":169773.81000000145,"y":2542782.0500000026}},{"attributes":{"ID":153647,"DIS_CODE":0,"TOWNNAME":"佳里區","LI":"忠仁里","LIN":"19鄰","STREET":" ","SECT":" ","MAREA":"忠仁","LANE":" ","ALLEY":" ","HOUSE_NO":"１０６號之１０１","E_COORD97":166076.03,"N_COORD97":2562109.6200000001,"ADDRESS":"忠仁１０６號之１０１","OBJECTID":153646},"geometry":{"x":166076.03000000119,"y":2562109.6200000029}},{"attributes":{"ID":153648,"DIS_CODE":0,"TOWNNAME":"佳里區","LI":"忠仁里","LIN":"19鄰","STREET":" ","SECT":" ","MAREA":"忠仁","LANE":" ","ALLEY":" ","HOUSE_NO":"１０６號之１４","E_COORD97":166117.85000000001,"N_COORD97":2562136.79,"ADDRESS":"忠仁１０６號之１４","OBJECTID":153647},"geometry":{"x":166117.84999999963,"y":2562136.790000001}},{"attributes":{"ID":153649,"DIS_CODE":0,"TOWNNAME":"佳里區","LI":"忠仁里","LIN":"19鄰","STREET":" ","SECT":" ","MAREA":"忠仁","LANE":" ","ALLEY":" ","HOUSE_NO":"１０６號之３２","E_COORD97":166101.60999999999,"N_COORD97":2562134.4500000002,"ADDRESS":"忠仁１０６號之３２","OBJECTID":153648},"geometry":{"x":166101.61000000034,"y":2562134.4499999993}},{"attributes":{"ID":153650,"DIS_CODE":0,"TOWNNAME":"佳里區","LI":"忠仁里","LIN":"19鄰","STREET":" ","SECT":" ","MAREA":"忠仁","LANE":" ","ALLEY":" ","HOUSE_NO":"１０６號之３３","E_COORD97":166097.03,"N_COORD97":2562133.71,"ADDRESS":"忠仁１０６號之３３","OBJECTID":153649},"geometry":{"x":166097.03000000026,"y":2562133.7100000009}},{"attributes":{"ID":153651,"DIS_CODE":0,"TOWNNAME":"佳里區","LI":"忠仁里","LIN":"19鄰","STREET":" ","SECT":" ","MAREA":"忠仁","LANE":" ","ALLEY":" ","HOUSE_NO":"１０６號之３４","E_COORD97":166092.76000000001,"N_COORD97":2562133.0699999998,"ADDRESS":"忠仁１０６號之３４","OBJECTID":153650},"geometry":{"x":166092.76000000071,"y":2562133.0700000022}},{"attributes":{"ID":153652,"DIS_CODE":0,"TOWNNAME":"佳里區","LI":"忠仁里","LIN":"19鄰","STREET":" ","SECT":" ","MAREA":"忠仁","LANE":" ","ALLEY":" ","HOUSE_NO":"１０６號之３５","E_COORD97":166088.07000000001,"N_COORD97":2562132.4100000001,"ADDRESS":"忠仁１０６號之３５","OBJECTID":153651},"geometry":{"x":166088.07000000123,"y":2562132.4100000001}},{"attributes":{"ID":153653,"DIS_CODE":0,"TOWNNAME":"佳里區","LI":"忠仁里","LIN":"19鄰","STREET":" ","SECT":" ","MAREA":"忠仁","LANE":" ","ALLEY":" ","HOUSE_NO":"１０６號之３７","E_COORD97":166154.45000000001,"N_COORD97":2562120.4399999999,"ADDRESS":"忠仁１０６號之３７","OBJECTID":153652},"geometry":{"x":166154.45000000112,"y":2562120.4399999995}},{"attributes":{"ID":153654,"DIS_CODE":0,"TOWNNAME":"佳里區","LI":"忠仁里","LIN":"19鄰","STREET":" ","SECT":" ","MAREA":"忠仁","LANE":" ","ALLEY":" ","HOUSE_NO":"１０６號之３８","E_COORD97":166150.54999999999,"N_COORD97":2562120.0800000001,"ADDRESS":"忠仁１０６號之３８","OBJECTID":153653},"geometry":{"x":166150.55000000075,"y":2562120.0800000001}},{"attributes":{"ID":153655,"DIS_CODE":0,"TOWNNAME":"佳里區","LI":"忠仁里","LIN":"19鄰","STREET":" ","SECT":" ","MAREA":"忠仁","LANE":" ","ALLEY":" ","HOUSE_NO":"１０６號之３９","E_COORD97":166146.32000000001,"N_COORD97":2562119.52,"ADDRESS":"忠仁１０６號之３９","OBJECTID":153654},"geometry":{"x":166146.3200000003,"y":2562119.5200000014}},{"attributes":{"ID":153656,"DIS_CODE":0,"TOWNNAME":"將軍區","LI":"苓和里","LIN":"5鄰","STREET":" ","SECT":" ","MAREA":"苓和","LANE":" ","ALLEY":" ","HOUSE_NO":"４６號","E_COORD97":164596.04999999999,"N_COORD97":2569043.8500000001,"ADDRESS":"苓和４６號","OBJECTID":153655},"geometry":{"x":164596.05000000075,"y":2569043.8500000015}},{"attributes":{"ID":153657,"DIS_CODE":0,"TOWNNAME":"將軍區","LI":"苓和里","LIN":"5鄰","STREET":" ","SECT":" ","MAREA":"苓和","LANE":" ","ALLEY":" ","HOUSE_NO":"４７號","E_COORD97":164578.01000000001,"N_COORD97":2569024.8100000001,"ADDRESS":"苓和４７號","OBJECTID":153656},"geometry":{"x":164578.00999999978,"y":2569024.8100000024}},{"attributes":{"ID":153658,"DIS_CODE":0,"TOWNNAME":"將軍區","LI":"苓和里","LIN":"5鄰","STREET":" ","SECT":" ","MAREA":"苓和","LANE":" ","ALLEY":" ","HOUSE_NO":"４８號","E_COORD97":164553.5,"N_COORD97":2569015.8399999999,"ADDRESS":"苓和４８號","OBJECTID":153657},"geometry":{"x":164553.50000000186,"y":2569015.8400000036}},{"attributes":{"ID":153659,"DIS_CODE":0,"TOWNNAME":"永康區","LI":"甲頂里","LIN":"11鄰","STREET":"中正南路","SECT":" ","MAREA":" ","LANE":"５２巷","ALLEY":"６８弄","HOUSE_NO":"４號","E_COORD97":169996.73000000001,"N_COORD97":2546780.2200000002,"ADDRESS":"中正南路５２巷６８弄４號","OBJECTID":153658},"geometry":{"x":169996.73000000045,"y":2546780.2200000025}},{"attributes":{"ID":153660,"DIS_CODE":0,"TOWNNAME":"南區","LI":"南都里","LIN":"2鄰","STREET":"中華南路","SECT":"二段","MAREA":" ","LANE":"３１５巷","ALLEY":"２弄","HOUSE_NO":"１號四樓","E_COORD97":166448.64999999999,"N_COORD97":2540225.8199999998,"ADDRESS":"中華南路二段３１５巷２弄１號四樓","OBJECTID":153659},"geometry":{"x":166448.6500000013,"y":2540225.8200000022}},{"attributes":{"ID":153661,"DIS_CODE":0,"TOWNNAME":"南區","LI":"南都里","LIN":"2鄰","STREET":"中華南路","SECT":"二段","MAREA":" ","LANE":"３１５巷","ALLEY":"２弄","HOUSE_NO":"３號二樓","E_COORD97":166440.73000000001,"N_COORD97":2540226.1000000001,"ADDRESS":"中華南路二段３１５巷２弄３號二樓","OBJECTID":153660},"geometry":{"x":166440.73000000231,"y":2540226.1000000034}},{"attributes":{"ID":153662,"DIS_CODE":0,"TOWNNAME":"南區","LI":"南都里","LIN":"2鄰","STREET":"中華南路","SECT":"二段","MAREA":" ","LANE":"３１５巷","ALLEY":"２弄","HOUSE_NO":"３號三樓","E_COORD97":166440.73000000001,"N_COORD97":2540226.1000000001,"ADDRESS":"中華南路二段３１５巷２弄３號三樓","OBJECTID":153661},"geometry":{"x":166440.73000000231,"y":2540226.1000000034}},{"attributes":{"ID":153663,"DIS_CODE":0,"TOWNNAME":"南區","LI":"南都里","LIN":"2鄰","STREET":"中華南路","SECT":"二段","MAREA":" ","LANE":"３１５巷","ALLEY":"２弄","HOUSE_NO":"３號五樓","E_COORD97":166440.73000000001,"N_COORD97":2540226.1000000001,"ADDRESS":"中華南路二段３１５巷２弄３號五樓","OBJECTID":153662},"geometry":{"x":166440.73000000231,"y":2540226.1000000034}},{"attributes":{"ID":153664,"DIS_CODE":0,"TOWNNAME":"南區","LI":"南都里","LIN":"2鄰","STREET":"中華南路","SECT":"二段","MAREA":" ","LANE":"３１５巷","ALLEY":"２弄","HOUSE_NO":"３號四樓","E_COORD97":166440.73000000001,"N_COORD97":2540226.1000000001,"ADDRESS":"中華南路二段３１５巷２弄３號四樓","OBJECTID":153663},"geometry":{"x":166440.73000000231,"y":2540226.1000000034}},{"attributes":{"ID":153665,"DIS_CODE":0,"TOWNNAME":"南區","LI":"南都里","LIN":"2鄰","STREET":"中華南路","SECT":"二段","MAREA":" ","LANE":"３１５巷","ALLEY":"２弄","HOUSE_NO":"５號二樓","E_COORD97":166429.70000000001,"N_COORD97":2540226.1000000001,"ADDRESS":"中華南路二段３１５巷２弄５號二樓","OBJECTID":153664},"geometry":{"x":166429.70000000019,"y":2540226.1000000034}},{"attributes":{"ID":153666,"DIS_CODE":0,"TOWNNAME":"南區","LI":"南都里","LIN":"2鄰","STREET":"中華南路","SECT":"二段","MAREA":" ","LANE":"３１５巷","ALLEY":"２弄","HOUSE_NO":"５號三樓","E_COORD97":166429.70000000001,"N_COORD97":2540226.1000000001,"ADDRESS":"中華南路二段３１５巷２弄５號三樓","OBJECTID":153665},"geometry":{"x":166429.70000000019,"y":2540226.1000000034}},{"attributes":{"ID":153667,"DIS_CODE":0,"TOWNNAME":"永康區","LI":"六合里","LIN":"2鄰","STREET":"新興街","SECT":" ","MAREA":" ","LANE":"３５巷","ALLEY":"１３弄","HOUSE_NO":"２號","E_COORD97":170962.41,"N_COORD97":2545843.4900000002,"ADDRESS":"新興街３５巷１３弄２號","OBJECTID":153666},"geometry":{"x":170962.41000000108,"y":2545843.4900000002}},{"attributes":{"ID":153668,"DIS_CODE":0,"TOWNNAME":"南區","LI":"南都里","LIN":"2鄰","STREET":"中華南路","SECT":"二段","MAREA":" ","LANE":"３１５巷","ALLEY":"２弄","HOUSE_NO":"５號五樓","E_COORD97":166429.70000000001,"N_COORD97":2540226.1000000001,"ADDRESS":"中華南路二段３１５巷２弄５號五樓","OBJECTID":153667},"geometry":{"x":166429.70000000019,"y":2540226.1000000034}},{"attributes":{"ID":153669,"DIS_CODE":0,"TOWNNAME":"將軍區","LI":"保源里","LIN":"5鄰","STREET":" ","SECT":" ","MAREA":"苓保","LANE":" ","ALLEY":" ","HOUSE_NO":"４５號","E_COORD97":164613.01999999999,"N_COORD97":2568704.7400000002,"ADDRESS":"苓保４５號","OBJECTID":153668},"geometry":{"x":164613.01999999955,"y":2568704.7400000039}},{"attributes":{"ID":153670,"DIS_CODE":0,"TOWNNAME":"將軍區","LI":"保源里","LIN":"5鄰","STREET":" ","SECT":" ","MAREA":"苓保","LANE":" ","ALLEY":" ","HOUSE_NO":"４６號","E_COORD97":164588.89999999999,"N_COORD97":2568710.0099999998,"ADDRESS":"苓保４６號","OBJECTID":153669},"geometry":{"x":164588.9000000013,"y":2568710.0100000016}},{"attributes":{"ID":153671,"DIS_CODE":0,"TOWNNAME":"將軍區","LI":"保源里","LIN":"5鄰","STREET":" ","SECT":" ","MAREA":"苓保","LANE":" ","ALLEY":" ","HOUSE_NO":"４７號","E_COORD97":164585.19,"N_COORD97":2568722.2599999998,"ADDRESS":"苓保４７號","OBJECTID":153670},"geometry":{"x":164585.19000000134,"y":2568722.2600000016}},{"attributes":{"ID":153672,"DIS_CODE":0,"TOWNNAME":"將軍區","LI":"保源里","LIN":"5鄰","STREET":" ","SECT":" ","MAREA":"苓保","LANE":" ","ALLEY":" ","HOUSE_NO":"４８號","E_COORD97":164558.84,"N_COORD97":2568722.04,"ADDRESS":"苓保４８號","OBJECTID":153671},"geometry":{"x":164558.83999999985,"y":2568722.0400000028}},{"attributes":{"ID":153673,"DIS_CODE":0,"TOWNNAME":"將軍區","LI":"保源里","LIN":"5鄰","STREET":" ","SECT":" ","MAREA":"苓保","LANE":" ","ALLEY":" ","HOUSE_NO":"４９號","E_COORD97":164564.92999999999,"N_COORD97":2568701.3799999999,"ADDRESS":"苓保４９號","OBJECTID":153672},"geometry":{"x":164564.9299999997,"y":2568701.379999999}},{"attributes":{"ID":153674,"DIS_CODE":0,"TOWNNAME":"將軍區","LI":"保源里","LIN":"5鄰","STREET":" ","SECT":" ","MAREA":"苓保","LANE":" ","ALLEY":" ","HOUSE_NO":"５０號","E_COORD97":164568.66,"N_COORD97":2568672.0699999998,"ADDRESS":"苓保５０號","OBJECTID":153673},"geometry":{"x":164568.66000000015,"y":2568672.070000004}},{"attributes":{"ID":153675,"DIS_CODE":0,"TOWNNAME":"將軍區","LI":"保源里","LIN":"5鄰","STREET":" ","SECT":" ","MAREA":"苓保","LANE":" ","ALLEY":" ","HOUSE_NO":"５１之１號","E_COORD97":164574.09,"N_COORD97":2568643.6600000001,"ADDRESS":"苓保５１之１號","OBJECTID":153674},"geometry":{"x":164574.08999999985,"y":2568643.6600000001}},{"attributes":{"ID":153676,"DIS_CODE":0,"TOWNNAME":"南區","LI":"南都里","LIN":"2鄰","STREET":"中華南路","SECT":"二段","MAREA":" ","LANE":"３１５巷","ALLEY":"２弄","HOUSE_NO":"５號四樓","E_COORD97":166429.70000000001,"N_COORD97":2540226.1000000001,"ADDRESS":"中華南路二段３１５巷２弄５號四樓","OBJECTID":153675},"geometry":{"x":166429.70000000019,"y":2540226.1000000034}},{"attributes":{"ID":153677,"DIS_CODE":0,"TOWNNAME":"將軍區","LI":"將富里","LIN":"5鄰","STREET":" ","SECT":" ","MAREA":"將富","LANE":" ","ALLEY":" ","HOUSE_NO":"４８之１１號","E_COORD97":161451.26999999999,"N_COORD97":2568315.4300000002,"ADDRESS":"將富４８之１１號","OBJECTID":153676},"geometry":{"x":161451.27000000048,"y":2568315.4299999997}},{"attributes":{"ID":153678,"DIS_CODE":0,"TOWNNAME":"將軍區","LI":"將富里","LIN":"5鄰","STREET":" ","SECT":" ","MAREA":"將富","LANE":" ","ALLEY":" ","HOUSE_NO":"４８之１２號","E_COORD97":161446.62,"N_COORD97":2568315.3399999999,"ADDRESS":"將富４８之１２號","OBJECTID":153677},"geometry":{"x":161446.62000000011,"y":2568315.3400000017}},{"attributes":{"ID":153679,"DIS_CODE":0,"TOWNNAME":"南區","LI":"南都里","LIN":"2鄰","STREET":"中華南路","SECT":"二段","MAREA":" ","LANE":"３１５巷","ALLEY":"２弄","HOUSE_NO":"７號二樓","E_COORD97":166422.45999999999,"N_COORD97":2540226.1299999999,"ADDRESS":"中華南路二段３１５巷２弄７號二樓","OBJECTID":153678},"geometry":{"x":166422.46000000089,"y":2540226.1300000008}},{"attributes":{"ID":153680,"DIS_CODE":0,"TOWNNAME":"將軍區","LI":"將富里","LIN":"5鄰","STREET":" ","SECT":" ","MAREA":"將富","LANE":" ","ALLEY":" ","HOUSE_NO":"４８之１４號","E_COORD97":161417.29000000001,"N_COORD97":2568321.1899999999,"ADDRESS":"將富４８之１４號","OBJECTID":153679},"geometry":{"x":161417.29000000097,"y":2568321.1900000032}},{"attributes":{"ID":153681,"DIS_CODE":0,"TOWNNAME":"將軍區","LI":"將富里","LIN":"5鄰","STREET":" ","SECT":" ","MAREA":"將富","LANE":" ","ALLEY":" ","HOUSE_NO":"４８之１５號","E_COORD97":161460.73999999999,"N_COORD97":2568343.5099999998,"ADDRESS":"將富４８之１５號","OBJECTID":153680},"geometry":{"x":161460.74000000115,"y":2568343.5100000016}},{"attributes":{"ID":153682,"DIS_CODE":0,"TOWNNAME":"將軍區","LI":"將富里","LIN":"5鄰","STREET":" ","SECT":" ","MAREA":"將富","LANE":" ","ALLEY":" ","HOUSE_NO":"４８之１６號","E_COORD97":161461.73999999999,"N_COORD97":2568347.7000000002,"ADDRESS":"將富４８之１６號","OBJECTID":153681},"geometry":{"x":161461.74000000209,"y":2568347.6999999993}},{"attributes":{"ID":153683,"DIS_CODE":0,"TOWNNAME":"將軍區","LI":"將富里","LIN":"5鄰","STREET":" ","SECT":" ","MAREA":"將富","LANE":" ","ALLEY":" ","HOUSE_NO":"４８之１７號","E_COORD97":161462.38,"N_COORD97":2568351.6000000001,"ADDRESS":"將富４８之１７號","OBJECTID":153682},"geometry":{"x":161462.38000000082,"y":2568351.5999999996}},{"attributes":{"ID":153684,"DIS_CODE":0,"TOWNNAME":"將軍區","LI":"將富里","LIN":"5鄰","STREET":" ","SECT":" ","MAREA":"將富","LANE":" ","ALLEY":" ","HOUSE_NO":"４８之１８號","E_COORD97":161463.39000000001,"N_COORD97":2568356.25,"ADDRESS":"將富４８之１８號","OBJECTID":153683},"geometry":{"x":161463.39000000153,"y":2568356.2500000019}},{"attributes":{"ID":153685,"DIS_CODE":0,"TOWNNAME":"南區","LI":"南都里","LIN":"2鄰","STREET":"中華南路","SECT":"二段","MAREA":" ","LANE":"３１５巷","ALLEY":"２弄","HOUSE_NO":"７號三樓","E_COORD97":166422.45999999999,"N_COORD97":2540226.1299999999,"ADDRESS":"中華南路二段３１５巷２弄７號三樓","OBJECTID":153684},"geometry":{"x":166422.46000000089,"y":2540226.1300000008}},{"attributes":{"ID":153686,"DIS_CODE":0,"TOWNNAME":"南區","LI":"南都里","LIN":"2鄰","STREET":"中華南路","SECT":"二段","MAREA":" ","LANE":"３１５巷","ALLEY":"２弄","HOUSE_NO":"７號五樓","E_COORD97":166422.45999999999,"N_COORD97":2540226.1299999999,"ADDRESS":"中華南路二段３１５巷２弄７號五樓","OBJECTID":153685},"geometry":{"x":166422.46000000089,"y":2540226.1300000008}},{"attributes":{"ID":153687,"DIS_CODE":0,"TOWNNAME":"南區","LI":"南都里","LIN":"2鄰","STREET":"中華南路","SECT":"二段","MAREA":" ","LANE":"３１５巷","ALLEY":"２弄","HOUSE_NO":"７號四樓","E_COORD97":166422.45999999999,"N_COORD97":2540226.1299999999,"ADDRESS":"中華南路二段３１５巷２弄７號四樓","OBJECTID":153686},"geometry":{"x":166422.46000000089,"y":2540226.1300000008}},{"attributes":{"ID":153688,"DIS_CODE":0,"TOWNNAME":"南區","LI":"南都里","LIN":"2鄰","STREET":"中華南路","SECT":"二段","MAREA":" ","LANE":"３１５巷","ALLEY":"２弄","HOUSE_NO":"９號二樓","E_COORD97":166414.62,"N_COORD97":2540226.77,"ADDRESS":"中華南路二段３１５巷２弄９號二樓","OBJECTID":153687},"geometry":{"x":166414.62000000104,"y":2540226.7699999996}},{"attributes":{"ID":153689,"DIS_CODE":0,"TOWNNAME":"南區","LI":"南都里","LIN":"2鄰","STREET":"中華南路","SECT":"二段","MAREA":" ","LANE":"３１５巷","ALLEY":"２弄","HOUSE_NO":"９號三樓","E_COORD97":166414.62,"N_COORD97":2540226.77,"ADDRESS":"中華南路二段３１５巷２弄９號三樓","OBJECTID":153688},"geometry":{"x":166414.62000000104,"y":2540226.7699999996}},{"attributes":{"ID":153690,"DIS_CODE":0,"TOWNNAME":"南區","LI":"南都里","LIN":"2鄰","STREET":"中華南路","SECT":"二段","MAREA":" ","LANE":"３１５巷","ALLEY":"２弄","HOUSE_NO":"９號五樓","E_COORD97":166414.62,"N_COORD97":2540226.77,"ADDRESS":"中華南路二段３１５巷２弄９號五樓","OBJECTID":153689},"geometry":{"x":166414.62000000104,"y":2540226.7699999996}},{"attributes":{"ID":153691,"DIS_CODE":0,"TOWNNAME":"南區","LI":"南都里","LIN":"2鄰","STREET":"中華南路","SECT":"二段","MAREA":" ","LANE":"３１５巷","ALLEY":"２弄","HOUSE_NO":"９號四樓","E_COORD97":166414.62,"N_COORD97":2540226.77,"ADDRESS":"中華南路二段３１５巷２弄９號四樓","OBJECTID":153690},"geometry":{"x":166414.62000000104,"y":2540226.7699999996}},{"attributes":{"ID":153692,"DIS_CODE":0,"TOWNNAME":"永康區","LI":"正強里","LIN":"31鄰","STREET":"自強路","SECT":" ","MAREA":" ","LANE":"２５５巷","ALLEY":"４２弄","HOUSE_NO":"１號之２２","E_COORD97":173121.10000000001,"N_COORD97":2547625.29,"ADDRESS":"自強路２５５巷４２弄１號之２２","OBJECTID":153691},"geometry":{"x":173121.09999999963,"y":2547625.2900000028}},{"attributes":{"ID":153693,"DIS_CODE":0,"TOWNNAME":"永康區","LI":"龍潭里","LIN":"36鄰","STREET":"中山北路","SECT":" ","MAREA":" ","LANE":"１６４巷","ALLEY":"１６０弄","HOUSE_NO":"５２號","E_COORD97":174665.73999999999,"N_COORD97":2547315.6099999999,"ADDRESS":"中山北路１６４巷１６０弄５２號","OBJECTID":153692},"geometry":{"x":174665.74000000115,"y":2547315.6100000013}},{"attributes":{"ID":153694,"DIS_CODE":0,"TOWNNAME":"永康區","LI":"復華里","LIN":"40鄰","STREET":"復華七街","SECT":" ","MAREA":" ","LANE":"３２巷","ALLEY":"２０弄","HOUSE_NO":"２號","E_COORD97":172644.19,"N_COORD97":2545941.77,"ADDRESS":"復華七街３２巷２０弄２號","OBJECTID":153693},"geometry":{"x":172644.19000000134,"y":2545941.7700000014}},{"attributes":{"ID":153695,"DIS_CODE":0,"TOWNNAME":"永康區","LI":"光復里","LIN":"10鄰","STREET":"復興路","SECT":" ","MAREA":" ","LANE":"３５６巷","ALLEY":"８０弄","HOUSE_NO":"７４號","E_COORD97":172468.34,"N_COORD97":2544541.2799999998,"ADDRESS":"復興路３５６巷８０弄７４號","OBJECTID":153694},"geometry":{"x":172468.33999999985,"y":2544541.2800000012}},{"attributes":{"ID":153696,"DIS_CODE":0,"TOWNNAME":"永康區","LI":"西勢里","LIN":"21鄰","STREET":"富強路","SECT":"一段","MAREA":" ","LANE":"９８巷","ALLEY":"３８弄","HOUSE_NO":"１２號","E_COORD97":175558.07999999999,"N_COORD97":2546063.8599999999,"ADDRESS":"富強路一段９８巷３８弄１２號","OBJECTID":153695},"geometry":{"x":175558.08000000194,"y":2546063.8600000013}},{"attributes":{"ID":153697,"DIS_CODE":0,"TOWNNAME":"將軍區","LI":"將富里","LIN":"5鄰","STREET":" ","SECT":" ","MAREA":"將富","LANE":" ","ALLEY":" ","HOUSE_NO":"４８之２０號","E_COORD97":160913.78,"N_COORD97":2568392.9300000002,"ADDRESS":"將富４８之２０號","OBJECTID":153696},"geometry":{"x":160913.77999999933,"y":2568392.9299999997}},{"attributes":{"ID":153698,"DIS_CODE":0,"TOWNNAME":"將軍區","LI":"將富里","LIN":"5鄰","STREET":" ","SECT":" ","MAREA":"將富","LANE":" ","ALLEY":" ","HOUSE_NO":"４８之２１號","E_COORD97":161429,"N_COORD97":2568318.4300000002,"ADDRESS":"將富４８之２１號","OBJECTID":153697},"geometry":{"x":161429,"y":2568318.4299999997}},{"attributes":{"ID":153699,"DIS_CODE":0,"TOWNNAME":"將軍區","LI":"將富里","LIN":"5鄰","STREET":" ","SECT":" ","MAREA":"將富","LANE":" ","ALLEY":" ","HOUSE_NO":"４８之２號","E_COORD97":161512.70000000001,"N_COORD97":2568368.5099999998,"ADDRESS":"將富４８之２號","OBJECTID":153698},"geometry":{"x":161512.70000000205,"y":2568368.5100000016}},{"attributes":{"ID":153700,"DIS_CODE":0,"TOWNNAME":"佳里區","LI":"忠仁里","LIN":"19鄰","STREET":"忠仁街","SECT":" ","MAREA":" ","LANE":" ","ALLEY":" ","HOUSE_NO":"６０號","E_COORD97":166055,"N_COORD97":2562072.3199999998,"ADDRESS":"忠仁街６０號","OBJECTID":153699},"geometry":{"x":166055,"y":2562072.3200000003}},{"attributes":{"ID":153701,"DIS_CODE":0,"TOWNNAME":"永康區","LI":"蔦松里","LIN":"2鄰","STREET":"蔦松二街","SECT":" ","MAREA":" ","LANE":"１２４巷","ALLEY":"３５弄","HOUSE_NO":"２號之４","E_COORD97":173864.41,"N_COORD97":2549284.0299999998,"ADDRESS":"蔦松二街１２４巷３５弄２號之４","OBJECTID":153700},"geometry":{"x":173864.41000000108,"y":2549284.0299999993}},{"attributes":{"ID":153702,"DIS_CODE":0,"TOWNNAME":"安平區","LI":"文平里","LIN":"2鄰","STREET":"中華西路","SECT":"二段","MAREA":" ","LANE":"４９巷","ALLEY":"２４弄","HOUSE_NO":"１１２號二樓","E_COORD97":166588.03,"N_COORD97":2543238.8900000001,"ADDRESS":"中華西路二段４９巷２４弄１１２號二樓","OBJECTID":153701},"geometry":{"x":166588.03000000119,"y":2543238.8899999987}},{"attributes":{"ID":153703,"DIS_CODE":0,"TOWNNAME":"安平區","LI":"文平里","LIN":"2鄰","STREET":"中華西路","SECT":"二段","MAREA":" ","LANE":"４９巷","ALLEY":"２４弄","HOUSE_NO":"１１２號三樓","E_COORD97":166588.03,"N_COORD97":2543238.8900000001,"ADDRESS":"中華西路二段４９巷２４弄１１２號三樓","OBJECTID":153702},"geometry":{"x":166588.03000000119,"y":2543238.8899999987}},{"attributes":{"ID":153704,"DIS_CODE":0,"TOWNNAME":"安平區","LI":"文平里","LIN":"2鄰","STREET":"中華西路","SECT":"二段","MAREA":" ","LANE":"４９巷","ALLEY":"２４弄","HOUSE_NO":"１１２號之１二樓","E_COORD97":166589.48999999999,"N_COORD97":2543244.21,"ADDRESS":"中華西路二段４９巷２４弄１１２號之１二樓","OBJECTID":153703},"geometry":{"x":166589.48999999929,"y":2543244.2100000046}},{"attributes":{"ID":153705,"DIS_CODE":0,"TOWNNAME":"安平區","LI":"文平里","LIN":"2鄰","STREET":"中華西路","SECT":"二段","MAREA":" ","LANE":"４９巷","ALLEY":"２４弄","HOUSE_NO":"１１２號之１四樓","E_COORD97":166589.48999999999,"N_COORD97":2543244.21,"ADDRESS":"中華西路二段４９巷２４弄１１２號之１四樓","OBJECTID":153704},"geometry":{"x":166589.48999999929,"y":2543244.2100000046}},{"attributes":{"ID":153706,"DIS_CODE":0,"TOWNNAME":"安平區","LI":"文平里","LIN":"2鄰","STREET":"中華西路","SECT":"二段","MAREA":" ","LANE":"４９巷","ALLEY":"２４弄","HOUSE_NO":"１１２號之３二樓","E_COORD97":166574.67000000001,"N_COORD97":2543240.46,"ADDRESS":"中華西路二段４９巷２４弄１１２號之３二樓","OBJECTID":153705},"geometry":{"x":166574.67000000086,"y":2543240.4600000028}},{"attributes":{"ID":153707,"DIS_CODE":0,"TOWNNAME":"安平區","LI":"文平里","LIN":"2鄰","STREET":"中華西路","SECT":"二段","MAREA":" ","LANE":"４９巷","ALLEY":"２４弄","HOUSE_NO":"１１２號之３六樓","E_COORD97":166574.67000000001,"N_COORD97":2543240.46,"ADDRESS":"中華西路二段４９巷２４弄１１２號之３六樓","OBJECTID":153706},"geometry":{"x":166574.67000000086,"y":2543240.4600000028}},{"attributes":{"ID":153708,"DIS_CODE":0,"TOWNNAME":"安平區","LI":"文平里","LIN":"2鄰","STREET":"中華西路","SECT":"二段","MAREA":" ","LANE":"４９巷","ALLEY":"２４弄","HOUSE_NO":"１１２號之３四樓","E_COORD97":166574.67000000001,"N_COORD97":2543240.46,"ADDRESS":"中華西路二段４９巷２４弄１１２號之３四樓","OBJECTID":153707},"geometry":{"x":166574.67000000086,"y":2543240.4600000028}},{"attributes":{"ID":153709,"DIS_CODE":0,"TOWNNAME":"安平區","LI":"文平里","LIN":"2鄰","STREET":"中華西路","SECT":"二段","MAREA":" ","LANE":"４９巷","ALLEY":"２４弄","HOUSE_NO":"１１２號五樓","E_COORD97":166588.03,"N_COORD97":2543238.8900000001,"ADDRESS":"中華西路二段４９巷２４弄１１２號五樓","OBJECTID":153708},"geometry":{"x":166588.03000000119,"y":2543238.8899999987}},{"attributes":{"ID":153710,"DIS_CODE":0,"TOWNNAME":"安平區","LI":"文平里","LIN":"2鄰","STREET":"中華西路","SECT":"二段","MAREA":" ","LANE":"４９巷","ALLEY":"２４弄","HOUSE_NO":"１１２號四樓","E_COORD97":166588.03,"N_COORD97":2543238.8900000001,"ADDRESS":"中華西路二段４９巷２４弄１１２號四樓","OBJECTID":153709},"geometry":{"x":166588.03000000119,"y":2543238.8899999987}},{"attributes":{"ID":153711,"DIS_CODE":0,"TOWNNAME":"南區","LI":"南華里","LIN":"2鄰","STREET":"中華南路","SECT":"二段","MAREA":" ","LANE":"４００巷","ALLEY":"１弄","HOUSE_NO":"１０號二樓","E_COORD97":166357.92999999999,"N_COORD97":2540333.5899999999,"ADDRESS":"中華南路二段４００巷１弄１０號二樓","OBJECTID":153710},"geometry":{"x":166357.93000000063,"y":2540333.5899999999}},{"attributes":{"ID":153712,"DIS_CODE":0,"TOWNNAME":"南區","LI":"南華里","LIN":"2鄰","STREET":"中華南路","SECT":"二段","MAREA":" ","LANE":"４００巷","ALLEY":"１弄","HOUSE_NO":"１０號三樓","E_COORD97":166357.92999999999,"N_COORD97":2540333.5899999999,"ADDRESS":"中華南路二段４００巷１弄１０號三樓","OBJECTID":153711},"geometry":{"x":166357.93000000063,"y":2540333.5899999999}},{"attributes":{"ID":153713,"DIS_CODE":0,"TOWNNAME":"南區","LI":"南華里","LIN":"2鄰","STREET":"中華南路","SECT":"二段","MAREA":" ","LANE":"４００巷","ALLEY":"１弄","HOUSE_NO":"１０號五樓","E_COORD97":166357.92999999999,"N_COORD97":2540333.5899999999,"ADDRESS":"中華南路二段４００巷１弄１０號五樓","OBJECTID":153712},"geometry":{"x":166357.93000000063,"y":2540333.5899999999}},{"attributes":{"ID":153714,"DIS_CODE":0,"TOWNNAME":"南區","LI":"南華里","LIN":"2鄰","STREET":"中華南路","SECT":"二段","MAREA":" ","LANE":"４００巷","ALLEY":"１弄","HOUSE_NO":"１０號四樓","E_COORD97":166357.92999999999,"N_COORD97":2540333.5899999999,"ADDRESS":"中華南路二段４００巷１弄１０號四樓","OBJECTID":153713},"geometry":{"x":166357.93000000063,"y":2540333.5899999999}},{"attributes":{"ID":153715,"DIS_CODE":0,"TOWNNAME":"南區","LI":"南華里","LIN":"2鄰","STREET":"中華南路","SECT":"二段","MAREA":" ","LANE":"４００巷","ALLEY":"１弄","HOUSE_NO":"１２號二樓","E_COORD97":166349.85000000001,"N_COORD97":2540333.5899999999,"ADDRESS":"中華南路二段４００巷１弄１２號二樓","OBJECTID":153714},"geometry":{"x":166349.85000000056,"y":2540333.5899999999}},{"attributes":{"ID":153716,"DIS_CODE":0,"TOWNNAME":"南區","LI":"南華里","LIN":"2鄰","STREET":"中華南路","SECT":"二段","MAREA":" ","LANE":"４００巷","ALLEY":"１弄","HOUSE_NO":"１２號三樓","E_COORD97":166349.85000000001,"N_COORD97":2540333.5899999999,"ADDRESS":"中華南路二段４００巷１弄１２號三樓","OBJECTID":153715},"geometry":{"x":166349.85000000056,"y":2540333.5899999999}},{"attributes":{"ID":153717,"DIS_CODE":0,"TOWNNAME":"南區","LI":"南華里","LIN":"2鄰","STREET":"中華南路","SECT":"二段","MAREA":" ","LANE":"４００巷","ALLEY":"１弄","HOUSE_NO":"１２號五樓","E_COORD97":166349.85000000001,"N_COORD97":2540333.5899999999,"ADDRESS":"中華南路二段４００巷１弄１２號五樓","OBJECTID":153716},"geometry":{"x":166349.85000000056,"y":2540333.5899999999}},{"attributes":{"ID":153718,"DIS_CODE":0,"TOWNNAME":"南區","LI":"南華里","LIN":"2鄰","STREET":"中華南路","SECT":"二段","MAREA":" ","LANE":"４００巷","ALLEY":"１弄","HOUSE_NO":"１２號四樓","E_COORD97":166349.85000000001,"N_COORD97":2540333.5899999999,"ADDRESS":"中華南路二段４００巷１弄１２號四樓","OBJECTID":153717},"geometry":{"x":166349.85000000056,"y":2540333.5899999999}},{"attributes":{"ID":153719,"DIS_CODE":0,"TOWNNAME":"南區","LI":"南華里","LIN":"2鄰","STREET":"中華南路","SECT":"二段","MAREA":" ","LANE":"４００巷","ALLEY":"１弄","HOUSE_NO":"１４號三樓","E_COORD97":166340.48000000001,"N_COORD97":2540333.2400000002,"ADDRESS":"中華南路二段４００巷１弄１４號三樓","OBJECTID":153718},"geometry":{"x":166340.48000000045,"y":2540333.2400000002}},{"attributes":{"ID":153720,"DIS_CODE":0,"TOWNNAME":"南區","LI":"南華里","LIN":"2鄰","STREET":"中華南路","SECT":"二段","MAREA":" ","LANE":"４００巷","ALLEY":"１弄","HOUSE_NO":"１４號五樓","E_COORD97":166340.48000000001,"N_COORD97":2540333.2400000002,"ADDRESS":"中華南路二段４００巷１弄１４號五樓","OBJECTID":153719},"geometry":{"x":166340.48000000045,"y":2540333.2400000002}},{"attributes":{"ID":153721,"DIS_CODE":0,"TOWNNAME":"南區","LI":"南華里","LIN":"2鄰","STREET":"中華南路","SECT":"二段","MAREA":" ","LANE":"４００巷","ALLEY":"１弄","HOUSE_NO":"１４號四樓","E_COORD97":166340.48000000001,"N_COORD97":2540333.2400000002,"ADDRESS":"中華南路二段４００巷１弄１４號四樓","OBJECTID":153720},"geometry":{"x":166340.48000000045,"y":2540333.2400000002}},{"attributes":{"ID":153722,"DIS_CODE":0,"TOWNNAME":"將軍區","LI":"將富里","LIN":"5鄰","STREET":" ","SECT":" ","MAREA":"將富","LANE":" ","ALLEY":" ","HOUSE_NO":"４８之３０號","E_COORD97":161442.23999999999,"N_COORD97":2568316.23,"ADDRESS":"將富４８之３０號","OBJECTID":153721},"geometry":{"x":161442.24000000022,"y":2568316.2300000023}},{"attributes":{"ID":153723,"DIS_CODE":0,"TOWNNAME":"將軍區","LI":"將富里","LIN":"5鄰","STREET":" ","SECT":" ","MAREA":"將富","LANE":" ","ALLEY":" ","HOUSE_NO":"４８之３號","E_COORD97":161516.70000000001,"N_COORD97":2568372.04,"ADDRESS":"將富４８之３號","OBJECTID":153722},"geometry":{"x":161516.70000000112,"y":2568372.0399999991}},{"attributes":{"ID":153724,"DIS_CODE":0,"TOWNNAME":"將軍區","LI":"將富里","LIN":"5鄰","STREET":" ","SECT":" ","MAREA":"將富","LANE":" ","ALLEY":" ","HOUSE_NO":"４８之４號","E_COORD97":161525.97,"N_COORD97":2568376.3199999998,"ADDRESS":"將富４８之４號","OBJECTID":153723},"geometry":{"x":161525.97000000067,"y":2568376.3200000022}},{"attributes":{"ID":153725,"DIS_CODE":0,"TOWNNAME":"將軍區","LI":"將富里","LIN":"5鄰","STREET":" ","SECT":" ","MAREA":"將富","LANE":" ","ALLEY":" ","HOUSE_NO":"４８之５號","E_COORD97":161527.45999999999,"N_COORD97":2568385.8199999998,"ADDRESS":"將富４８之５號","OBJECTID":153724},"geometry":{"x":161527.45999999996,"y":2568385.820000004}},{"attributes":{"ID":153726,"DIS_CODE":0,"TOWNNAME":"將軍區","LI":"將富里","LIN":"5鄰","STREET":" ","SECT":" ","MAREA":"將富","LANE":" ","ALLEY":" ","HOUSE_NO":"４８之６號","E_COORD97":161531.60999999999,"N_COORD97":2568392.8300000001,"ADDRESS":"將富４８之６號","OBJECTID":153725},"geometry":{"x":161531.61000000034,"y":2568392.8300000019}},{"attributes":{"ID":153727,"DIS_CODE":0,"TOWNNAME":"將軍區","LI":"將富里","LIN":"5鄰","STREET":" ","SECT":" ","MAREA":"將富","LANE":" ","ALLEY":" ","HOUSE_NO":"４８之７號","E_COORD97":161463.25,"N_COORD97":2568325.5600000001,"ADDRESS":"將富４８之７號","OBJECTID":153726},"geometry":{"x":161463.25000000093,"y":2568325.5600000005}},{"attributes":{"ID":153728,"DIS_CODE":0,"TOWNNAME":"安定區","LI":"蘇林里","LIN":"19鄰","STREET":" ","SECT":" ","MAREA":"蘇厝","LANE":" ","ALLEY":" ","HOUSE_NO":"２２４號","E_COORD97":173348.138871,"N_COORD97":2558865.8322200002,"ADDRESS":"蘇厝２２４號","OBJECTID":153727},"geometry":{"x":173348.13887100015,"y":2558865.8322240021}},{"attributes":{"ID":153729,"DIS_CODE":0,"TOWNNAME":"安定區","LI":"蘇林里","LIN":"19鄰","STREET":" ","SECT":" ","MAREA":"蘇厝","LANE":" ","ALLEY":" ","HOUSE_NO":"２２２號","E_COORD97":173300.16383599999,"N_COORD97":2558863.0805600001,"ADDRESS":"蘇厝２２２號","OBJECTID":153728},"geometry":{"x":173300.16383599956,"y":2558863.0805590004}},{"attributes":{"ID":153730,"DIS_CODE":0,"TOWNNAME":"安定區","LI":"港南里","LIN":"19鄰","STREET":" ","SECT":" ","MAREA":"港口","LANE":" ","ALLEY":" ","HOUSE_NO":"１４６號","E_COORD97":171491.54560700001,"N_COORD97":2554524.3060599999,"ADDRESS":"港口１４６號","OBJECTID":153729},"geometry":{"x":171491.54560700059,"y":2554524.3060560022}},{"attributes":{"ID":153731,"DIS_CODE":0,"TOWNNAME":"南區","LI":"南華里","LIN":"2鄰","STREET":"中華南路","SECT":"二段","MAREA":" ","LANE":"４００巷","ALLEY":"１弄","HOUSE_NO":"１４號二樓","E_COORD97":166340.48000000001,"N_COORD97":2540333.2400000002,"ADDRESS":"中華南路二段４００巷１弄１４號二樓","OBJECTID":153730},"geometry":{"x":166340.48000000045,"y":2540333.2400000002}},{"attributes":{"ID":153732,"DIS_CODE":0,"TOWNNAME":"南區","LI":"南華里","LIN":"2鄰","STREET":"中華南路","SECT":"二段","MAREA":" ","LANE":"４００巷","ALLEY":"１弄","HOUSE_NO":"１６號二樓","E_COORD97":166334.14999999999,"N_COORD97":2540333.5899999999,"ADDRESS":"中華南路二段４００巷１弄１６號二樓","OBJECTID":153731},"geometry":{"x":166334.15000000037,"y":2540333.5899999999}},{"attributes":{"ID":153733,"DIS_CODE":0,"TOWNNAME":"南區","LI":"南華里","LIN":"2鄰","STREET":"中華南路","SECT":"二段","MAREA":" ","LANE":"４００巷","ALLEY":"１弄","HOUSE_NO":"１６號三樓","E_COORD97":166334.14999999999,"N_COORD97":2540333.5899999999,"ADDRESS":"中華南路二段４００巷１弄１６號三樓","OBJECTID":153732},"geometry":{"x":166334.15000000037,"y":2540333.5899999999}},{"attributes":{"ID":153734,"DIS_CODE":0,"TOWNNAME":"南區","LI":"南華里","LIN":"2鄰","STREET":"中華南路","SECT":"二段","MAREA":" ","LANE":"４００巷","ALLEY":"１弄","HOUSE_NO":"１６號五樓","E_COORD97":166334.14999999999,"N_COORD97":2540333.5899999999,"ADDRESS":"中華南路二段４００巷１弄１６號五樓","OBJECTID":153733},"geometry":{"x":166334.15000000037,"y":2540333.5899999999}},{"attributes":{"ID":153735,"DIS_CODE":0,"TOWNNAME":"南區","LI":"南華里","LIN":"2鄰","STREET":"中華南路","SECT":"二段","MAREA":" ","LANE":"４００巷","ALLEY":"１弄","HOUSE_NO":"１６號四樓","E_COORD97":166334.14999999999,"N_COORD97":2540333.5899999999,"ADDRESS":"中華南路二段４００巷１弄１６號四樓","OBJECTID":153734},"geometry":{"x":166334.15000000037,"y":2540333.5899999999}},{"attributes":{"ID":153736,"DIS_CODE":0,"TOWNNAME":"安定區","LI":"蘇林里","LIN":"19鄰","STREET":" ","SECT":" ","MAREA":"蘇厝","LANE":" ","ALLEY":" ","HOUSE_NO":"２１９之２號","E_COORD97":173288.93789,"N_COORD97":2558845.6180699999,"ADDRESS":"蘇厝２１９之２號","OBJECTID":153735},"geometry":{"x":173288.93789000064,"y":2558845.6180680022}},{"attributes":{"ID":153737,"DIS_CODE":0,"TOWNNAME":"安定區","LI":"蘇厝里","LIN":"19鄰","STREET":" ","SECT":" ","MAREA":"蘇厝","LANE":" ","ALLEY":" ","HOUSE_NO":"４６９號","E_COORD97":173188.82000000001,"N_COORD97":2558844.25,"ADDRESS":"蘇厝４６９號","OBJECTID":153736},"geometry":{"x":173188.82000000123,"y":2558844.25}},{"attributes":{"ID":153738,"DIS_CODE":0,"TOWNNAME":"新市區","LI":"新和里","LIN":"19鄰","STREET":"永福街","SECT":" ","MAREA":" ","LANE":" ","ALLEY":" ","HOUSE_NO":"１０１號","E_COORD97":177513.26000000001,"N_COORD97":2552724,"ADDRESS":"永福街１０１號","OBJECTID":153737},"geometry":{"x":177513.26000000071,"y":2552724.0000000037}},{"attributes":{"ID":153739,"DIS_CODE":0,"TOWNNAME":"新市區","LI":"港墘里","LIN":"19鄰","STREET":"南港街","SECT":" ","MAREA":" ","LANE":" ","ALLEY":" ","HOUSE_NO":"９７號","E_COORD97":178029.89999999999,"N_COORD97":2552733.5,"ADDRESS":"南港街９７號","OBJECTID":153738},"geometry":{"x":178029.9000000013,"y":2552733.5}},{"attributes":{"ID":153740,"DIS_CODE":0,"TOWNNAME":"新市區","LI":"港墘里","LIN":"19鄰","STREET":"南港街","SECT":" ","MAREA":" ","LANE":" ","ALLEY":" ","HOUSE_NO":"９９之１號","E_COORD97":178034.59,"N_COORD97":2552722.2999999998,"ADDRESS":"南港街９９之１號","OBJECTID":153739},"geometry":{"x":178034.59000000171,"y":2552722.3000000007}},{"attributes":{"ID":153741,"DIS_CODE":0,"TOWNNAME":"新市區","LI":"港墘里","LIN":"19鄰","STREET":"南港街","SECT":" ","MAREA":" ","LANE":" ","ALLEY":" ","HOUSE_NO":"９５號","E_COORD97":178034.23999999999,"N_COORD97":2552734,"ADDRESS":"南港街９５號","OBJECTID":153740},"geometry":{"x":178034.24000000115,"y":2552734.0000000037}},{"attributes":{"ID":153742,"DIS_CODE":0,"TOWNNAME":"南區","LI":"南華里","LIN":"2鄰","STREET":"中華南路","SECT":"二段","MAREA":" ","LANE":"４００巷","ALLEY":"１弄","HOUSE_NO":"２號二樓","E_COORD97":166394.23999999999,"N_COORD97":2540334.1800000002,"ADDRESS":"中華南路二段４００巷１弄２號二樓","OBJECTID":153741},"geometry":{"x":166394.24000000022,"y":2540334.1800000034}},{"attributes":{"ID":153743,"DIS_CODE":0,"TOWNNAME":"南區","LI":"南華里","LIN":"2鄰","STREET":"中華南路","SECT":"二段","MAREA":" ","LANE":"４００巷","ALLEY":"１弄","HOUSE_NO":"２號三樓","E_COORD97":166394.23999999999,"N_COORD97":2540334.1800000002,"ADDRESS":"中華南路二段４００巷１弄２號三樓","OBJECTID":153742},"geometry":{"x":166394.24000000022,"y":2540334.1800000034}},{"attributes":{"ID":153744,"DIS_CODE":0,"TOWNNAME":"南區","LI":"南華里","LIN":"2鄰","STREET":"中華南路","SECT":"二段","MAREA":" ","LANE":"４００巷","ALLEY":"１弄","HOUSE_NO":"２號五樓","E_COORD97":166394.23999999999,"N_COORD97":2540334.1800000002,"ADDRESS":"中華南路二段４００巷１弄２號五樓","OBJECTID":153743},"geometry":{"x":166394.24000000022,"y":2540334.1800000034}},{"attributes":{"ID":153745,"DIS_CODE":0,"TOWNNAME":"將軍區","LI":"將富里","LIN":"5鄰","STREET":" ","SECT":" ","MAREA":"將富","LANE":" ","ALLEY":" ","HOUSE_NO":"５３之１號","E_COORD97":161662.60000000001,"N_COORD97":2568400.5499999998,"ADDRESS":"將富５３之１號","OBJECTID":153744},"geometry":{"x":161662.60000000056,"y":2568400.5500000007}},{"attributes":{"ID":153746,"DIS_CODE":0,"TOWNNAME":"將軍區","LI":"將富里","LIN":"5鄰","STREET":" ","SECT":" ","MAREA":"將富","LANE":" ","ALLEY":" ","HOUSE_NO":"４９之３號","E_COORD97":161503.07999999999,"N_COORD97":2568386.6899999999,"ADDRESS":"將富４９之３號","OBJECTID":153745},"geometry":{"x":161503.08000000007,"y":2568386.6900000013}},{"attributes":{"ID":153747,"DIS_CODE":0,"TOWNNAME":"南區","LI":"南華里","LIN":"2鄰","STREET":"中華南路","SECT":"二段","MAREA":" ","LANE":"４００巷","ALLEY":"１弄","HOUSE_NO":"２號四樓","E_COORD97":166394.23999999999,"N_COORD97":2540334.1800000002,"ADDRESS":"中華南路二段４００巷１弄２號四樓","OBJECTID":153746},"geometry":{"x":166394.24000000022,"y":2540334.1800000034}},{"attributes":{"ID":153748,"DIS_CODE":0,"TOWNNAME":"南區","LI":"南華里","LIN":"2鄰","STREET":"中華南路","SECT":"二段","MAREA":" ","LANE":"４００巷","ALLEY":"１弄","HOUSE_NO":"４號二樓","E_COORD97":166384.39999999999,"N_COORD97":2540333.2400000002,"ADDRESS":"中華南路二段４００巷１弄４號二樓","OBJECTID":153747},"geometry":{"x":166384.4000000013,"y":2540333.2400000002}},{"attributes":{"ID":153749,"DIS_CODE":0,"TOWNNAME":"南區","LI":"南華里","LIN":"2鄰","STREET":"中華南路","SECT":"二段","MAREA":" ","LANE":"４００巷","ALLEY":"１弄","HOUSE_NO":"４號三樓","E_COORD97":166384.39999999999,"N_COORD97":2540333.2400000002,"ADDRESS":"中華南路二段４００巷１弄４號三樓","OBJECTID":153748},"geometry":{"x":166384.4000000013,"y":2540333.2400000002}},{"attributes":{"ID":153750,"DIS_CODE":0,"TOWNNAME":"南區","LI":"南華里","LIN":"2鄰","STREET":"中華南路","SECT":"二段","MAREA":" ","LANE":"４００巷","ALLEY":"１弄","HOUSE_NO":"４號五樓","E_COORD97":166384.39999999999,"N_COORD97":2540333.2400000002,"ADDRESS":"中華南路二段４００巷１弄４號五樓","OBJECTID":153749},"geometry":{"x":166384.4000000013,"y":2540333.2400000002}},{"attributes":{"ID":153751,"DIS_CODE":0,"TOWNNAME":"南區","LI":"南華里","LIN":"2鄰","STREET":"中華南路","SECT":"二段","MAREA":" ","LANE":"４００巷","ALLEY":"１弄","HOUSE_NO":"４號四樓","E_COORD97":166384.39999999999,"N_COORD97":2540333.2400000002,"ADDRESS":"中華南路二段４００巷１弄４號四樓","OBJECTID":153750},"geometry":{"x":166384.4000000013,"y":2540333.2400000002}},{"attributes":{"ID":153752,"DIS_CODE":0,"TOWNNAME":"南區","LI":"南華里","LIN":"2鄰","STREET":"中華南路","SECT":"二段","MAREA":" ","LANE":"４００巷","ALLEY":"１弄","HOUSE_NO":"６號二樓","E_COORD97":166375.97,"N_COORD97":2540334.0600000001,"ADDRESS":"中華南路二段４００巷１弄６號二樓","OBJECTID":153751},"geometry":{"x":166375.97000000067,"y":2540334.0600000005}},{"attributes":{"ID":153753,"DIS_CODE":0,"TOWNNAME":"南區","LI":"南華里","LIN":"2鄰","STREET":"中華南路","SECT":"二段","MAREA":" ","LANE":"４００巷","ALLEY":"１弄","HOUSE_NO":"６號三樓","E_COORD97":166375.97,"N_COORD97":2540334.0600000001,"ADDRESS":"中華南路二段４００巷１弄６號三樓","OBJECTID":153752},"geometry":{"x":166375.97000000067,"y":2540334.0600000005}},{"attributes":{"ID":153754,"DIS_CODE":0,"TOWNNAME":"南區","LI":"南華里","LIN":"2鄰","STREET":"中華南路","SECT":"二段","MAREA":" ","LANE":"４００巷","ALLEY":"１弄","HOUSE_NO":"６號五樓","E_COORD97":166375.97,"N_COORD97":2540334.0600000001,"ADDRESS":"中華南路二段４００巷１弄６號五樓","OBJECTID":153753},"geometry":{"x":166375.97000000067,"y":2540334.0600000005}},{"attributes":{"ID":153755,"DIS_CODE":0,"TOWNNAME":"安定區","LI":"蘇厝里","LIN":"19鄰","STREET":" ","SECT":" ","MAREA":"蘇厝","LANE":" ","ALLEY":" ","HOUSE_NO":"４６８之５號","E_COORD97":173187.92000000001,"N_COORD97":2558817.2999999998,"ADDRESS":"蘇厝４６８之５號","OBJECTID":153754},"geometry":{"x":173187.92000000086,"y":2558817.3000000007}},{"attributes":{"ID":153756,"DIS_CODE":0,"TOWNNAME":"安定區","LI":"新吉里","LIN":"19鄰","STREET":" ","SECT":" ","MAREA":"公親寮","LANE":" ","ALLEY":" ","HOUSE_NO":"１之１７號","E_COORD97":167923.04999999999,"N_COORD97":2553558.25,"ADDRESS":"公親寮１之１７號","OBJECTID":153755},"geometry":{"x":167923.05000000075,"y":2553558.25}},{"attributes":{"ID":153757,"DIS_CODE":0,"TOWNNAME":"安定區","LI":"港南里","LIN":"19鄰","STREET":" ","SECT":" ","MAREA":"港口","LANE":" ","ALLEY":" ","HOUSE_NO":"１１９之３號","E_COORD97":171479.107365,"N_COORD97":2554501.2892,"ADDRESS":"港口１１９之３號","OBJECTID":153756},"geometry":{"x":171479.10736500006,"y":2554501.2891950011}},{"attributes":{"ID":153758,"DIS_CODE":0,"TOWNNAME":"南區","LI":"南華里","LIN":"2鄰","STREET":"中華南路","SECT":"二段","MAREA":" ","LANE":"４００巷","ALLEY":"１弄","HOUSE_NO":"６號四樓","E_COORD97":166375.97,"N_COORD97":2540334.0600000001,"ADDRESS":"中華南路二段４００巷１弄６號四樓","OBJECTID":153757},"geometry":{"x":166375.97000000067,"y":2540334.0600000005}},{"attributes":{"ID":153759,"DIS_CODE":0,"TOWNNAME":"南區","LI":"南華里","LIN":"2鄰","STREET":"中華南路","SECT":"二段","MAREA":" ","LANE":"４００巷","ALLEY":"１弄","HOUSE_NO":"８號二樓","E_COORD97":166367.42000000001,"N_COORD97":2540333.4700000002,"ADDRESS":"中華南路二段４００巷１弄８號二樓","OBJECTID":153758},"geometry":{"x":166367.41999999993,"y":2540333.4700000025}},{"attributes":{"ID":153760,"DIS_CODE":0,"TOWNNAME":"南區","LI":"南華里","LIN":"2鄰","STREET":"中華南路","SECT":"二段","MAREA":" ","LANE":"４００巷","ALLEY":"１弄","HOUSE_NO":"８號三樓","E_COORD97":166367.42000000001,"N_COORD97":2540333.4700000002,"ADDRESS":"中華南路二段４００巷１弄８號三樓","OBJECTID":153759},"geometry":{"x":166367.41999999993,"y":2540333.4700000025}},{"attributes":{"ID":153761,"DIS_CODE":0,"TOWNNAME":"南區","LI":"南華里","LIN":"2鄰","STREET":"中華南路","SECT":"二段","MAREA":" ","LANE":"４００巷","ALLEY":"１弄","HOUSE_NO":"８號五樓","E_COORD97":166367.42000000001,"N_COORD97":2540333.4700000002,"ADDRESS":"中華南路二段４００巷１弄８號五樓","OBJECTID":153760},"geometry":{"x":166367.41999999993,"y":2540333.4700000025}},{"attributes":{"ID":153762,"DIS_CODE":0,"TOWNNAME":"南區","LI":"南華里","LIN":"2鄰","STREET":"中華南路","SECT":"二段","MAREA":" ","LANE":"４００巷","ALLEY":"１弄","HOUSE_NO":"８號四樓","E_COORD97":166367.42000000001,"N_COORD97":2540333.4700000002,"ADDRESS":"中華南路二段４００巷１弄８號四樓","OBJECTID":153761},"geometry":{"x":166367.41999999993,"y":2540333.4700000025}},{"attributes":{"ID":153763,"DIS_CODE":0,"TOWNNAME":"北區","LI":"力行里","LIN":"2鄰","STREET":"開南街","SECT":" ","MAREA":" ","LANE":"２５７巷","ALLEY":"１弄","HOUSE_NO":"１６號二樓","E_COORD97":170867.79999999999,"N_COORD97":2544967.7799999998,"ADDRESS":"開南街２５７巷１弄１６號二樓","OBJECTID":153762},"geometry":{"x":170867.80000000075,"y":2544967.7800000031}},{"attributes":{"ID":153764,"DIS_CODE":0,"TOWNNAME":"下營區","LI":"新興里","LIN":"19鄰","STREET":"慈惠街","SECT":" ","MAREA":" ","LANE":" ","ALLEY":" ","HOUSE_NO":"１０６號","E_COORD97":174997.16,"N_COORD97":2570613.6000000001,"ADDRESS":"慈惠街１０６號","OBJECTID":153763},"geometry":{"x":174997.16000000108,"y":2570613.5999999996}},{"attributes":{"ID":153765,"DIS_CODE":0,"TOWNNAME":"東區","LI":"裕聖里","LIN":" ","STREET":"裕敬二街","SECT":" ","MAREA":" ","LANE":" ","ALLEY":" ","HOUSE_NO":"５８號","E_COORD97":172644.23000000001,"N_COORD97":2542129.5699999998,"ADDRESS":"裕敬二街５８號","OBJECTID":153764},"geometry":{"x":172644.23000000138,"y":2542129.5700000022}},{"attributes":{"ID":153766,"DIS_CODE":0,"TOWNNAME":"東區","LI":"裕聖里","LIN":" ","STREET":"裕孝三街","SECT":" ","MAREA":" ","LANE":" ","ALLEY":" ","HOUSE_NO":"５７之３號","E_COORD97":172672.72,"N_COORD97":2542100.2200000002,"ADDRESS":"裕孝三街５７之３號","OBJECTID":153765},"geometry":{"x":172672.71999999974,"y":2542100.2200000007}},{"attributes":{"ID":153767,"DIS_CODE":0,"TOWNNAME":"北區","LI":"力行里","LIN":"2鄰","STREET":"開南街","SECT":" ","MAREA":" ","LANE":"２５７巷","ALLEY":"１弄","HOUSE_NO":"１６號三樓","E_COORD97":170867.79999999999,"N_COORD97":2544967.7799999998,"ADDRESS":"開南街２５７巷１弄１６號三樓","OBJECTID":153766},"geometry":{"x":170867.80000000075,"y":2544967.7800000031}},{"attributes":{"ID":153768,"DIS_CODE":0,"TOWNNAME":"北區","LI":"力行里","LIN":"2鄰","STREET":"開南街","SECT":" ","MAREA":" ","LANE":"２５７巷","ALLEY":"１弄","HOUSE_NO":"１６號四樓","E_COORD97":170867.79999999999,"N_COORD97":2544967.7799999998,"ADDRESS":"開南街２５７巷１弄１６號四樓","OBJECTID":153767},"geometry":{"x":170867.80000000075,"y":2544967.7800000031}},{"attributes":{"ID":153769,"DIS_CODE":0,"TOWNNAME":"東區","LI":"裕聖里","LIN":" ","STREET":"裕孝三街","SECT":" ","MAREA":" ","LANE":" ","ALLEY":" ","HOUSE_NO":"５７之４號","E_COORD97":172674.76000000001,"N_COORD97":2542112.2200000002,"ADDRESS":"裕孝三街５７之４號","OBJECTID":153768},"geometry":{"x":172674.76000000164,"y":2542112.2200000025}},{"attributes":{"ID":153770,"DIS_CODE":0,"TOWNNAME":"永康區","LI":"北灣里","LIN":"2鄰","STREET":"文賢街","SECT":" ","MAREA":" ","LANE":"１２２巷","ALLEY":"２７弄","HOUSE_NO":"４６號","E_COORD97":175478.06,"N_COORD97":2545591.23,"ADDRESS":"文賢街１２２巷２７弄４６號","OBJECTID":153769},"geometry":{"x":175478.06000000145,"y":2545591.2300000004}},{"attributes":{"ID":153771,"DIS_CODE":0,"TOWNNAME":"東區","LI":"裕農里","LIN":"26鄰","STREET":"東寧路","SECT":" ","MAREA":" ","LANE":" ","ALLEY":" ","HOUSE_NO":"４３０號","E_COORD97":170958.70999999999,"N_COORD97":2543334.6299999999,"ADDRESS":"東寧路４３０號","OBJECTID":153770},"geometry":{"x":170958.71000000089,"y":2543334.6300000008}},{"attributes":{"ID":153772,"DIS_CODE":0,"TOWNNAME":"東區","LI":"關聖里","LIN":"14鄰","STREET":"裕英街","SECT":" ","MAREA":" ","LANE":" ","ALLEY":" ","HOUSE_NO":"３０號","E_COORD97":172109.31,"N_COORD97":2543004.23,"ADDRESS":"裕英街３０號","OBJECTID":153771},"geometry":{"x":172109.30999999959,"y":2543004.2300000023}},{"attributes":{"ID":153773,"DIS_CODE":0,"TOWNNAME":"東區","LI":"關聖里","LIN":"14鄰","STREET":"裕智街","SECT":" ","MAREA":" ","LANE":" ","ALLEY":" ","HOUSE_NO":"２９號","E_COORD97":172120.70000000001,"N_COORD97":2542976.0299999998,"ADDRESS":"裕智街２９號","OBJECTID":153772},"geometry":{"x":172120.70000000019,"y":2542976.0300000012}},{"attributes":{"ID":153774,"DIS_CODE":0,"TOWNNAME":"東區","LI":"德光里","LIN":" ","STREET":"德光街","SECT":" ","MAREA":" ","LANE":" ","ALLEY":" ","HOUSE_NO":"９６號","E_COORD97":170202.62,"N_COORD97":2542313.1699999999,"ADDRESS":"德光街９６號","OBJECTID":153773},"geometry":{"x":170202.62000000011,"y":2542313.1699999999}},{"attributes":{"ID":153775,"DIS_CODE":0,"TOWNNAME":"東區","LI":"德光里","LIN":" ","STREET":"林森路","SECT":"一段","MAREA":" ","LANE":" ","ALLEY":" ","HOUSE_NO":"２６０號","E_COORD97":169836.07999999999,"N_COORD97":2542570.1200000001,"ADDRESS":"林森路一段２６０號","OBJECTID":153774},"geometry":{"x":169836.08000000007,"y":2542570.1200000048}},{"attributes":{"ID":153776,"DIS_CODE":0,"TOWNNAME":"永康區","LI":"北灣里","LIN":"2鄰","STREET":"文賢街","SECT":" ","MAREA":" ","LANE":"１２２巷","ALLEY":"２７弄","HOUSE_NO":"３６號","E_COORD97":175478.66,"N_COORD97":2545566.1299999999,"ADDRESS":"文賢街１２２巷２７弄３６號","OBJECTID":153775},"geometry":{"x":175478.66000000108,"y":2545566.1300000008}},{"attributes":{"ID":153777,"DIS_CODE":0,"TOWNNAME":"將軍區","LI":"將貴里","LIN":"5鄰","STREET":" ","SECT":" ","MAREA":"將貴","LANE":" ","ALLEY":" ","HOUSE_NO":"４７號","E_COORD97":161741.32000000001,"N_COORD97":2568324.02,"ADDRESS":"將貴４７號","OBJECTID":153776},"geometry":{"x":161741.32000000123,"y":2568324.0200000014}},{"attributes":{"ID":153778,"DIS_CODE":0,"TOWNNAME":"永康區","LI":"北灣里","LIN":"2鄰","STREET":"文賢街","SECT":" ","MAREA":" ","LANE":"１２２巷","ALLEY":"２７弄","HOUSE_NO":"１０號","E_COORD97":175476.20999999999,"N_COORD97":2545535.3199999998,"ADDRESS":"文賢街１２２巷２７弄１０號","OBJECTID":153777},"geometry":{"x":175476.21000000089,"y":2545535.3200000022}},{"attributes":{"ID":153779,"DIS_CODE":0,"TOWNNAME":"永康區","LI":"北灣里","LIN":"2鄰","STREET":"文賢街","SECT":" ","MAREA":" ","LANE":"１２２巷","ALLEY":"２７弄","HOUSE_NO":"３２號","E_COORD97":175484.10999999999,"N_COORD97":2545566.1299999999,"ADDRESS":"文賢街１２２巷２７弄３２號","OBJECTID":153778},"geometry":{"x":175484.11000000127,"y":2545566.1300000008}},{"attributes":{"ID":153780,"DIS_CODE":0,"TOWNNAME":"永康區","LI":"北灣里","LIN":"2鄰","STREET":"文賢街","SECT":" ","MAREA":" ","LANE":"１２２巷","ALLEY":"２７弄","HOUSE_NO":"６號","E_COORD97":175474.76000000001,"N_COORD97":2545527.3199999998,"ADDRESS":"文賢街１２２巷２７弄６號","OBJECTID":153779},"geometry":{"x":175474.75999999978,"y":2545527.3200000003}},{"attributes":{"ID":153781,"DIS_CODE":0,"TOWNNAME":"永康區","LI":"北灣里","LIN":"2鄰","STREET":"文賢街","SECT":" ","MAREA":" ","LANE":"１２２巷","ALLEY":"２７弄","HOUSE_NO":"４８號","E_COORD97":175479.62,"N_COORD97":2545595.5499999998,"ADDRESS":"文賢街１２２巷２７弄４８號","OBJECTID":153780},"geometry":{"x":175479.62000000011,"y":2545595.5500000026}},{"attributes":{"ID":153782,"DIS_CODE":0,"TOWNNAME":"永康區","LI":"北灣里","LIN":"2鄰","STREET":"文賢街","SECT":" ","MAREA":" ","LANE":"１２２巷","ALLEY":"２７弄","HOUSE_NO":"１８號","E_COORD97":175476.66,"N_COORD97":2545547.3199999998,"ADDRESS":"文賢街１２２巷２７弄１８號","OBJECTID":153781},"geometry":{"x":175476.66000000108,"y":2545547.3200000003}},{"attributes":{"ID":153783,"DIS_CODE":0,"TOWNNAME":"永康區","LI":"北灣里","LIN":"2鄰","STREET":"文賢街","SECT":" ","MAREA":" ","LANE":"１２２巷","ALLEY":"２７弄","HOUSE_NO":"４０號","E_COORD97":175478.16,"N_COORD97":2545583.48,"ADDRESS":"文賢街１２２巷２７弄４０號","OBJECTID":153782},"geometry":{"x":175478.16000000108,"y":2545583.4800000004}},{"attributes":{"ID":153784,"DIS_CODE":0,"TOWNNAME":"安南區","LI":"長安里","LIN":"2鄰","STREET":"長溪路","SECT":"三段","MAREA":" ","LANE":"３７３巷","ALLEY":"２１弄","HOUSE_NO":"２４號","E_COORD97":167648.81,"N_COORD97":2551845.2400000002,"ADDRESS":"長溪路三段３７３巷２１弄２４號","OBJECTID":153783},"geometry":{"x":167648.81000000052,"y":2551845.2400000021}},{"attributes":{"ID":153785,"DIS_CODE":0,"TOWNNAME":"安南區","LI":"長安里","LIN":"2鄰","STREET":"長溪路","SECT":"三段","MAREA":" ","LANE":"３７３巷","ALLEY":"２１弄","HOUSE_NO":"３８號","E_COORD97":167641.54000000001,"N_COORD97":2551837.4399999999,"ADDRESS":"長溪路三段３７３巷２１弄３８號","OBJECTID":153784},"geometry":{"x":167641.54000000004,"y":2551837.4399999995}},{"attributes":{"ID":153786,"DIS_CODE":0,"TOWNNAME":"東區","LI":"德高里","LIN":" ","STREET":"崇善路","SECT":" ","MAREA":" ","LANE":" ","ALLEY":" ","HOUSE_NO":"８５１號","E_COORD97":171349.20999999999,"N_COORD97":2540758.98,"ADDRESS":"崇善路８５１號","OBJECTID":153785},"geometry":{"x":171349.20999999996,"y":2540758.9800000004}},{"attributes":{"ID":153787,"DIS_CODE":0,"TOWNNAME":"東區","LI":"德高里","LIN":" ","STREET":"崇善路","SECT":" ","MAREA":" ","LANE":" ","ALLEY":" ","HOUSE_NO":"９１９號","E_COORD97":171429.92000000001,"N_COORD97":2540656.0899999999,"ADDRESS":"崇善路９１９號","OBJECTID":153786},"geometry":{"x":171429.92000000086,"y":2540656.0899999999}},{"attributes":{"ID":153788,"DIS_CODE":0,"TOWNNAME":"東區","LI":"龍山里","LIN":" ","STREET":"東門路","SECT":"一段","MAREA":" ","LANE":" ","ALLEY":" ","HOUSE_NO":"３３６號","E_COORD97":169790.76999999999,"N_COORD97":2543012.2799999998,"ADDRESS":"東門路一段３３６號","OBJECTID":153787},"geometry":{"x":169790.76999999955,"y":2543012.2800000012}},{"attributes":{"ID":153789,"DIS_CODE":0,"TOWNNAME":"東區","LI":"龍山里","LIN":" ","STREET":"東門路","SECT":"二段","MAREA":" ","LANE":" ","ALLEY":" ","HOUSE_NO":"２００號","E_COORD97":170384.92999999999,"N_COORD97":2542836.0699999998,"ADDRESS":"東門路二段２００號","OBJECTID":153788},"geometry":{"x":170384.92999999877,"y":2542836.0700000003}},{"attributes":{"ID":153790,"DIS_CODE":0,"TOWNNAME":"下營區","LI":"新興里","LIN":"19鄰","STREET":"慈惠街","SECT":" ","MAREA":" ","LANE":" ","ALLEY":" ","HOUSE_NO":"１１６號","E_COORD97":174985.69,"N_COORD97":2570611.48,"ADDRESS":"慈惠街１１６號","OBJECTID":153789},"geometry":{"x":174985.69000000041,"y":2570611.4800000004}},{"attributes":{"ID":153791,"DIS_CODE":0,"TOWNNAME":"新營區","LI":"太北里","LIN":"19鄰","STREET":" ","SECT":" ","MAREA":"太子宮","LANE":" ","ALLEY":" ","HOUSE_NO":"４３號之３","E_COORD97":175759.64999999999,"N_COORD97":2577209.1000000001,"ADDRESS":"太子宮４３號之３","OBJECTID":153790},"geometry":{"x":175759.65000000224,"y":2577209.1000000015}},{"attributes":{"ID":153792,"DIS_CODE":0,"TOWNNAME":"新營區","LI":"太南里","LIN":"19鄰","STREET":" ","SECT":" ","MAREA":"太子宮","LANE":" ","ALLEY":" ","HOUSE_NO":"３１２之８號","E_COORD97":176046.51999999999,"N_COORD97":2576580.8500000001,"ADDRESS":"太子宮３１２之８號","OBJECTID":153791},"geometry":{"x":176046.52000000048,"y":2576580.8500000015}},{"attributes":{"ID":153793,"DIS_CODE":0,"TOWNNAME":"將軍區","LI":"將富里","LIN":"5鄰","STREET":" ","SECT":" ","MAREA":"將富","LANE":" ","ALLEY":" ","HOUSE_NO":"４９之１０號","E_COORD97":161502.59,"N_COORD97":2568423.9300000002,"ADDRESS":"將富４９之１０號","OBJECTID":153792},"geometry":{"x":161502.58999999985,"y":2568423.9299999997}},{"attributes":{"ID":153794,"DIS_CODE":0,"TOWNNAME":"下營區","LI":"新興里","LIN":"19鄰","STREET":"慈惠街","SECT":" ","MAREA":" ","LANE":" ","ALLEY":" ","HOUSE_NO":"１１８號","E_COORD97":174981.60999999999,"N_COORD97":2570611.5299999998,"ADDRESS":"慈惠街１１８號","OBJECTID":153793},"geometry":{"x":174981.61000000034,"y":2570611.5300000012}},{"attributes":{"ID":153795,"DIS_CODE":0,"TOWNNAME":"將軍區","LI":"將富里","LIN":"5鄰","STREET":" ","SECT":" ","MAREA":"將富","LANE":" ","ALLEY":" ","HOUSE_NO":"４９之１２號","E_COORD97":161565.25,"N_COORD97":2568425.1200000001,"ADDRESS":"將富４９之１２號","OBJECTID":153794},"geometry":{"x":161565.25000000093,"y":2568425.1200000048}},{"attributes":{"ID":153796,"DIS_CODE":0,"TOWNNAME":"安南區","LI":"長安里","LIN":"2鄰","STREET":"長溪路","SECT":"三段","MAREA":" ","LANE":"３７３巷","ALLEY":"２１弄","HOUSE_NO":"４０號","E_COORD97":167639.06,"N_COORD97":2551827.7999999998,"ADDRESS":"長溪路三段３７３巷２１弄４０號","OBJECTID":153795},"geometry":{"x":167639.05999999959,"y":2551827.8000000045}},{"attributes":{"ID":153797,"DIS_CODE":0,"TOWNNAME":"安南區","LI":"長安里","LIN":"2鄰","STREET":"長溪路","SECT":"三段","MAREA":" ","LANE":"３７３巷","ALLEY":"２１弄","HOUSE_NO":"４２號","E_COORD97":167628.59,"N_COORD97":2551843.6000000001,"ADDRESS":"長溪路三段３７３巷２１弄４２號","OBJECTID":153796},"geometry":{"x":167628.58999999985,"y":2551843.5999999996}},{"attributes":{"ID":153798,"DIS_CODE":0,"TOWNNAME":"下營區","LI":"新興里","LIN":"19鄰","STREET":"慈惠街","SECT":" ","MAREA":" ","LANE":" ","ALLEY":" ","HOUSE_NO":"１２０號","E_COORD97":174977.72,"N_COORD97":2570611.6699999999,"ADDRESS":"慈惠街１２０號","OBJECTID":153797},"geometry":{"x":174977.72000000067,"y":2570611.6700000018}},{"attributes":{"ID":153799,"DIS_CODE":0,"TOWNNAME":"安南區","LI":"長安里","LIN":"2鄰","STREET":"長溪路","SECT":"三段","MAREA":" ","LANE":"３７３巷","ALLEY":"２１弄","HOUSE_NO":"４４號","E_COORD97":167622.17000000001,"N_COORD97":2551841.6499999999,"ADDRESS":"長溪路三段３７３巷２１弄４４號","OBJECTID":153798},"geometry":{"x":167622.17000000179,"y":2551841.6499999985}},{"attributes":{"ID":153800,"DIS_CODE":0,"TOWNNAME":"安南區","LI":"長安里","LIN":"2鄰","STREET":"長溪路","SECT":"三段","MAREA":" ","LANE":"３７３巷","ALLEY":"２１弄","HOUSE_NO":"４６號","E_COORD97":167620.23999999999,"N_COORD97":2551818.8700000001,"ADDRESS":"長溪路三段３７３巷２１弄４６號","OBJECTID":153799},"geometry":{"x":167620.24000000209,"y":2551818.8700000029}},{"attributes":{"ID":153801,"DIS_CODE":0,"TOWNNAME":"將軍區","LI":"將富里","LIN":"5鄰","STREET":" ","SECT":" ","MAREA":"將富","LANE":" ","ALLEY":" ","HOUSE_NO":"４９之１３號","E_COORD97":161570,"N_COORD97":2568423.8999999999,"ADDRESS":"將富４９之１３號","OBJECTID":153800},"geometry":{"x":161570.00000000093,"y":2568423.9000000022}}]}